2017-12-31 17:09:18 1514758158.763196: {"class":"VERSION","release":"3.16","rev":"3.16-4","proto_major":3,"proto_minor":11}
2017-12-31 17:09:18 1514758158.763531: {"class":"DEVICES","devices":[{"class":"DEVICE","path":"/dev/ttyUSB0","driver":"SiRF","activated":"2017-12-31T22:09:18.672Z","flags":1,"native":1,"bps":4800,"parity":"N","stopbits":1,"cycle":1.00}]}
2017-12-31 17:09:18 1514758158.763630: {"class":"WATCH","enable":true,"json":false,"nmea":true,"raw":0,"scaled":false,"timing":false,"split24":false,"pps":false}
2017-12-31 17:09:18 1514758158.785791: $GPZDA,220919.00,31,12,2017,00,00*62
2017-12-31 17:09:18 1514758158.785941: $GPGGA,220919,3946.9584,N,08404.9861,W,2,10,0.80,301.49,M,-33.324,M,,*7A
2017-12-31 17:09:18 1514758158.786005: $GPRMC,220919,A,3946.9584,N,08404.9861,W,0.0000,0.000,311217,,*3F
2017-12-31 17:09:18 1514758158.786066: $GPGSA,A,3,22,23,3,16,29,31,14,32,26,135,,,1.7,0.8,1.3*35
2017-12-31 17:09:19 1514758159.346625: $GPZDA,220920.00,31,12,2017,00,00*68
2017-12-31 17:09:19 1514758159.346812: $GPGGA,220920,3946.9584,N,08404.9861,W,2,10,0.80,301.49,M,-33.324,M,,*70
2017-12-31 17:09:19 1514758159.346879: $GPRMC,220920,A,3946.9584,N,08404.9861,W,0.0000,0.000,311217,,*35
2017-12-31 17:09:19 1514758159.346940: $GPGSA,A,3,22,23,3,16,29,31,14,32,26,135,,,1.7,0.8,1.3*35
2017-12-31 17:09:20 1514758160.361708: $GPZDA,220921.00,31,12,2017,00,00*69
2017-12-31 17:09:20 1514758160.361879: $GPGGA,220921,3946.9584,N,08404.9861,W,2,10,0.80,301.49,M,-33.324,M,,*71
2017-12-31 17:09:20 1514758160.361946: $GPRMC,220921,A,3946.9584,N,08404.9861,W,0.0000,0.000,311217,,*34
2017-12-31 17:09:20 1514758160.362008: $GPGSA,A,3,22,23,3,16,29,31,14,32,26,135,,,1.7,0.8,1.3*35
2017-12-31 17:09:21 1514758161.698677: $GPGSV,3,1,10,22,43,237,43,23,29,307,39,03,46,268,38,16,48,190,42*7B
2017-12-31 17:09:21 1514758161.698848: $GPGSV,3,2,10,29,14,052,32,31,48,052,51,14,39,115,37,32,17,123,41*70
2017-12-31 17:09:21 1514758161.698915: $GPGSV,3,3,10,26,75,136,47,135,22,240,42*4E
2017-12-31 17:09:21 1514758161.812048: $GPZDA,220922.00,31,12,2017,00,00*6A
2017-12-31 17:09:21 1514758161.812210: $GPGGA,220922,3946.9584,N,08404.9861,W,2,10,0.80,301.49,M,-33.324,M,,*72
2017-12-31 17:09:21 1514758161.812275: $GPRMC,220922,A,3946.9584,N,08404.9861,W,0.0000,0.000,311217,,*37
2017-12-31 17:09:21 1514758161.812336: $GPGSA,A,3,22,23,3,16,29,31,14,32,26,135,,,1.7,0.8,1.3*35
2017-12-31 17:09:22 1514758162.361694: $GPZDA,220923.00,31,12,2017,00,00*6B
2017-12-31 17:09:22 1514758162.361882: $GPGGA,220923,3946.9584,N,08404.9861,W,2,10,0.80,301.49,M,-33.324,M,,*73
2017-12-31 17:09:22 1514758162.361951: $GPRMC,220923,A,3946.9584,N,08404.9861,W,0.0000,0.000,311217,,*36
2017-12-31 17:09:22 1514758162.362012: $GPGSA,A,3,22,23,3,16,29,31,14,32,26,135,,,1.7,0.8,1.3*35
2017-12-31 17:09:23 1514758163.346291: $GPZDA,220924.00,31,12,2017,00,00*6C
2017-12-31 17:09:23 1514758163.346463: $GPGGA,220924,3946.9584,N,08404.9861,W,2,10,0.80,301.49,M,-33.324,M,,*74
2017-12-31 17:09:23 1514758163.346531: $GPRMC,220924,A,3946.9584,N,08404.9861,W,0.0000,0.000,311217,,*31
2017-12-31 17:09:23 1514758163.346618: $GPGSA,A,3,22,23,3,16,29,31,14,32,26,135,,,1.7,0.8,1.3*35
2017-12-31 17:09:24 1514758164.673266: $GPGSV,3,1,10,22,43,237,43,23,29,307,40,03,46,268,39,16,48,190,43*75
2017-12-31 17:09:24 1514758164.673435: $GPGSV,3,2,10,29,14,052,32,31,48,052,51,14,39,115,37,32,17,123,41*70
2017-12-31 17:09:24 1514758164.673501: $GPGSV,3,3,10,26,75,136,48,135,22,240,42*41
2017-12-31 17:09:24 1514758164.786639: $GPZDA,220925.00,31,12,2017,00,00*6D
2017-12-31 17:09:24 1514758164.786821: $GPGGA,220925,3946.9584,N,08404.9861,W,2,10,0.80,301.49,M,-33.324,M,,*75
2017-12-31 17:09:24 1514758164.786886: $GPRMC,220925,A,3946.9584,N,08404.9861,W,0.0000,0.000,311217,,*30
2017-12-31 17:09:24 1514758164.786947: $GPGSA,A,3,22,23,3,16,29,31,14,32,26,135,,,1.7,0.8,1.3*35
2017-12-31 17:09:25 1514758165.413288: $GPZDA,220926.00,31,12,2017,00,00*6E
2017-12-31 17:09:25 1514758165.413474: $GPGGA,220926,3946.9584,N,08404.9861,W,2,10,0.80,301.49,M,-33.324,M,,*76
2017-12-31 17:09:25 1514758165.413541: $GPRMC,220926,A,3946.9584,N,08404.9861,W,0.0000,0.000,311217,,*33
2017-12-31 17:09:25 1514758165.413682: $GPGSA,A,3,22,23,3,16,29,31,14,32,26,135,,,1.7,0.8,1.3*35
2017-12-31 17:09:26 1514758166.345398: $GPZDA,220927.00,31,12,2017,00,00*6F
2017-12-31 17:09:26 1514758166.345603: $GPGGA,220927,3946.9584,N,08404.9861,W,2,10,0.80,301.49,M,-33.324,M,,*77
2017-12-31 17:09:26 1514758166.345671: $GPRMC,220927,A,3946.9584,N,08404.9861,W,0.0000,0.000,311217,,*32
2017-12-31 17:09:26 1514758166.345765: $GPGSA,A,3,22,23,3,16,29,31,14,32,26,135,,,1.7,0.8,1.3*35
2017-12-31 17:09:27 1514758167.679858: $GPGSV,3,1,10,22,43,237,43,23,29,307,40,03,46,268,39,16,48,190,43*75
2017-12-31 17:09:27 1514758167.680007: $GPGSV,3,2,10,29,14,052,32,31,48,052,51,14,39,115,37,32,17,123,41*70
2017-12-31 17:09:27 1514758167.680072: $GPGSV,3,3,10,26,75,136,48,135,22,240,42*41
2017-12-31 17:09:27 1514758167.793221: $GPZDA,220928.00,31,12,2017,00,00*60
2017-12-31 17:09:27 1514758167.793394: $GPGGA,220928,3946.9584,N,08404.9861,W,2,10,0.80,301.49,M,-33.324,M,,*78
2017-12-31 17:09:27 1514758167.793461: $GPRMC,220928,A,3946.9584,N,08404.9861,W,0.0000,0.000,311217,,*3D
2017-12-31 17:09:27 1514758167.793522: $GPGSA,A,3,22,23,3,16,29,31,14,32,26,135,,,1.7,0.8,1.3*35
2017-12-31 17:09:28 1514758168.343104: $GPZDA,220929.00,31,12,2017,00,00*61
2017-12-31 17:09:28 1514758168.343261: $GPGGA,220929,3946.9584,N,08404.9861,W,2,10,0.80,301.49,M,-33.324,M,,*79
2017-12-31 17:09:28 1514758168.343327: $GPRMC,220929,A,3946.9584,N,08404.9861,W,0.0000,0.000,311217,,*3C
2017-12-31 17:09:28 1514758168.343389: $GPGSA,A,3,22,23,3,16,29,31,14,32,26,135,,,1.7,0.8,1.3*35
