2017-11-15 18:34:11 1510788851.652499: {"class":"VERSION","release":"3.17","rev":"3.17","proto_major":3,"proto_minor":12}
2017-11-15 18:34:11 1510788851.653098: {"class":"DEVICES","devices":[{"class":"DEVICE","path":"/dev/ttyUSB0","driver":"SiRF","subtype":"9\u0006GSD4e_4.1.2-P1_RPATCH.05-F-GPS-4R-1510281 11/03/2015 307","activated":"2017-11-15T23:34:11.502Z","flags":1,"native":1,"bps":4800,"parity":"N","stopbits":1,"cycle":1.00}]}
2017-11-15 18:34:11 1510788851.653215: {"class":"WATCH","enable":true,"json":false,"nmea":true,"raw":0,"scaled":false,"timing":false,"split24":false,"pps":false}
2017-11-15 18:34:12 1510788852.663575: $GPGSV,3,1,10,25,35,055,22,14,69,042,18,26,26,178,13,22,40,301,00*74
2017-11-15 18:34:12 1510788852.663767: $GPGSV,3,2,10,31,78,283,23,32,55,079,23,01,18,274,00,10,21,157,17*7C
2017-11-15 18:34:12 1510788852.663828: $GPGSV,3,3,10,03,21,315,04,12,06,031,00*7C
2017-11-15 18:34:12 1510788852.777034: $GPZDA,233411.00,15,11,2017,00,00*60
2017-11-15 18:34:12 1510788852.777200: $GPGGA,233411,3946.9538,N,08404.9573,W,1,05,3.20,296.05,M,-33.324,M,,*7D
2017-11-15 18:34:12 1510788852.777261: $GPRMC,233411,A,3946.9538,N,08404.9573,W,0.5857,158.291,151117,,*3D
2017-11-15 18:34:12 1510788852.777316: $GPGSA,A,3,25,14,31,32,10,,,,,,,,3.4,3.2,2.9*3F
2017-11-15 18:34:13 1510788853.326567: $GPZDA,233412.00,15,11,2017,00,00*63
2017-11-15 18:34:13 1510788853.326817: $GPGGA,233412,3946.9538,N,08404.9573,W,1,05,3.20,296.05,M,-33.324,M,,*7E
2017-11-15 18:34:13 1510788853.327008: $GPRMC,233412,A,3946.9538,N,08404.9573,W,0.5857,158.291,151117,,*3E
2017-11-15 18:34:13 1510788853.327123: $GPGSA,A,3,25,14,31,32,10,,,,,,,,3.4,3.2,2.9*3F
2017-11-15 18:34:14 1510788854.361215: $GPZDA,233413.00,15,11,2017,00,00*62
2017-11-15 18:34:14 1510788854.361379: $GPGGA,233413,3946.9538,N,08404.9573,W,1,05,3.20,296.05,M,-33.324,M,,*7F
2017-11-15 18:34:14 1510788854.361441: $GPRMC,233413,A,3946.9538,N,08404.9573,W,0.6846,184.197,151117,,*38
2017-11-15 18:34:14 1510788854.361496: $GPGSA,A,3,25,14,31,32,10,,,,,,,,3.4,3.2,2.9*3F
2017-11-15 18:34:15 1510788855.662050: $GPGSV,3,1,10,25,35,055,22,14,69,042,18,22,40,301,16,26,26,178,00*71
2017-11-15 18:34:15 1510788855.665716: $GPGSV,3,2,10,31,78,283,23,32,55,079,23,03,21,315,00,10,21,157,17*72
2017-11-15 18:34:15 1510788855.665838: $GPGSV,3,3,10,01,18,274,00,12,06,031,00*76
2017-11-15 18:34:15 1510788855.775316: $GPZDA,233414.00,15,11,2017,00,00*65
2017-11-15 18:34:15 1510788855.775484: $GPGGA,233414,3946.9538,N,08404.9566,W,1,05,3.20,296.13,M,-33.324,M,,*7B
2017-11-15 18:34:15 1510788855.775545: $GPRMC,233414,A,3946.9538,N,08404.9566,W,0.5857,158.291,151117,,*3C
2017-11-15 18:34:15 1510788855.775601: $GPGSA,A,3,25,14,31,32,10,,,,,,,,3.4,3.2,2.9*3F
2017-11-15 18:34:16 1510788856.400684: $GPZDA,233415.00,15,11,2017,00,00*64
2017-11-15 18:34:16 1510788856.400855: $GPGGA,233415,3946.9537,N,08404.9559,W,1,05,3.20,296.21,M,-33.324,M,,*78
2017-11-15 18:34:16 1510788856.400932: $GPRMC,233415,A,3946.9537,N,08404.9559,W,0.8011,119.090,151117,,*3F
2017-11-15 18:34:16 1510788856.400989: $GPGSA,A,3,25,14,31,32,10,,,,,,,,3.4,3.2,2.9*3F
2017-11-15 18:34:17 1510788857.361560: $GPZDA,233416.00,15,11,2017,00,00*67
2017-11-15 18:34:17 1510788857.361710: $GPGGA,233416,3946.9541,N,08404.9558,W,1,05,3.20,295.44,M,-33.324,M,,*7B
2017-11-15 18:34:17 1510788857.361790: $GPRMC,233416,A,3946.9541,N,08404.9558,W,0.8054,68.645,151117,,*04
2017-11-15 18:34:17 1510788857.361847: $GPGSA,A,3,25,14,31,32,10,,,,,,,,3.4,3.2,2.9*3F
2017-11-15 18:34:18 1510788858.663534: $GPGSV,3,1,10,25,35,055,22,14,69,042,19,22,40,301,14,26,26,178,15*76
2017-11-15 18:34:18 1510788858.663704: $GPGSV,3,2,10,31,78,283,24,32,55,079,22,03,21,315,00,10,21,157,16*75
2017-11-15 18:34:18 1510788858.663786: $GPGSV,3,3,10,01,18,274,00,12,06,031,00*76
2017-11-15 18:34:18 1510788858.777306: $GPZDA,233417.00,15,11,2017,00,00*66
2017-11-15 18:34:18 1510788858.777492: $GPGGA,233417,3946.9540,N,08404.9551,W,1,06,3.20,295.52,M,-33.324,M,,*76
2017-11-15 18:34:18 1510788858.777558: $GPRMC,233417,A,3946.9540,N,08404.9551,W,1.5933,53.668,151117,,*0E
2017-11-15 18:34:18 1510788858.777704: $GPGSA,A,3,25,14,22,31,32,10,,,,,,,3.4,3.2,2.9*3F
2017-11-15 18:34:19 1510788859.361663: $GPZDA,233418.00,15,11,2017,00,00*69
2017-11-15 18:34:19 1510788859.361876: $GPGGA,233418,3946.9547,N,08404.9544,W,1,06,3.20,295.48,M,-33.324,M,,*71
2017-11-15 18:34:19 1510788859.361938: $GPRMC,233418,A,3946.9547,N,08404.9544,W,1.1048,66.986,151117,,*0A
2017-11-15 18:34:19 1510788859.361994: $GPGSA,A,3,25,14,22,31,32,10,,,,,,,3.4,3.2,2.9*3F
2017-11-15 18:34:20 1510788860.361814: $GPZDA,233419.00,15,11,2017,00,00*68
2017-11-15 18:34:20 1510788860.361995: $GPGGA,233419,3946.9547,N,08404.9537,W,1,06,3.20,295.56,M,-33.324,M,,*7B
2017-11-15 18:34:20 1510788860.362056: $GPRMC,233419,A,3946.9547,N,08404.9537,W,1.5933,53.668,151117,,*07
2017-11-15 18:34:20 1510788860.362112: $GPGSA,A,3,25,14,22,31,32,10,,,,,,,3.4,3.2,2.9*3F
2017-11-15 18:34:21 1510788861.662923: $GPGSV,3,1,10,25,35,055,22,14,69,042,18,22,40,301,13,26,26,178,00*74
2017-11-15 18:34:21 1510788861.663096: $GPGSV,3,2,10,31,78,283,24,32,55,079,22,03,21,315,00,10,21,157,16*75
2017-11-15 18:34:21 1510788861.663158: $GPGSV,3,3,10,01,18,274,00,12,06,031,00*76
2017-11-15 18:34:21 1510788861.776440: $GPZDA,233420.00,15,11,2017,00,00*62
2017-11-15 18:34:21 1510788861.776656: $GPGGA,233420,3946.9551,N,08404.9536,W,1,06,3.20,294.79,M,-33.324,M,,*7B
2017-11-15 18:34:21 1510788861.776890: $GPRMC,233420,A,3946.9551,N,08404.9536,W,1.1902,58.684,151117,,*04
2017-11-15 18:34:21 1510788861.776958: $GPGSA,A,3,25,14,22,31,32,10,,,,,,,3.4,3.2,2.9*3F
2017-11-15 18:34:22 1510788862.328409: $GPZDA,233421.00,15,11,2017,00,00*63
2017-11-15 18:34:22 1510788862.328586: $GPGGA,233421,3946.9550,N,08404.9529,W,1,06,3.20,294.87,M,-33.324,M,,*74
2017-11-15 18:34:22 1510788862.328648: $GPRMC,233421,A,3946.9550,N,08404.9529,W,1.1902,58.684,151117,,*0A
2017-11-15 18:34:22 1510788862.328721: $GPGSA,A,3,25,14,22,31,32,10,,,,,,,3.4,3.2,2.9*3F
2017-11-15 18:34:23 1510788863.361779: $GPZDA,233422.00,15,11,2017,00,00*60
2017-11-15 18:34:23 1510788863.361980: $GPGGA,233422,3946.9553,N,08404.9521,W,1,06,3.20,294.18,M,-33.324,M,,*7A
2017-11-15 18:34:23 1510788863.362044: $GPRMC,233422,A,3946.9553,N,08404.9521,W,0.4207,39.347,151117,,*05
2017-11-15 18:34:23 1510788863.362103: $GPGSA,A,3,25,14,22,31,32,10,,,,,,,3.4,3.2,2.9*3F
2017-11-15 18:34:24 1510788864.697543: $GPGSV,3,1,10,25,35,055,22,14,69,042,18,22,40,301,14,26,26,178,00*73
2017-11-15 18:34:24 1510788864.697714: $GPGSV,3,2,10,31,78,283,24,32,55,079,22,03,21,315,00,10,21,157,16*75
2017-11-15 18:34:24 1510788864.697778: $GPGSV,3,3,10,01,18,274,00,12,06,031,00*76
2017-11-15 18:34:24 1510788864.810895: $GPZDA,233423.00,15,11,2017,00,00*61
2017-11-15 18:34:24 1510788864.811063: $GPGGA,233423,3946.9553,N,08404.9521,W,1,06,3.20,294.18,M,-33.324,M,,*7B
2017-11-15 18:34:24 1510788864.811126: $GPRMC,233423,A,3946.9553,N,08404.9521,W,0.3423,184.197,151117,,*3B
2017-11-15 18:34:24 1510788864.811185: $GPGSA,A,3,25,14,22,31,32,10,,,,,,,3.4,3.2,2.9*3F
2017-11-15 18:34:25 1510788865.326813: $GPZDA,233424.00,15,11,2017,00,00*66
2017-11-15 18:34:25 1510788865.326993: $GPGGA,233424,3946.9553,N,08404.9521,W,1,06,3.20,294.18,M,-33.324,M,,*7C
2017-11-15 18:34:25 1510788865.327057: $GPRMC,233424,A,3946.9553,N,08404.9521,W,0.5230,256.444,151117,,*39
2017-11-15 18:34:25 1510788865.327116: $GPGSA,A,3,25,14,22,31,32,10,,,,,,,3.4,3.2,2.9*3F
2017-11-15 18:34:26 1510788866.327238: $GPZDA,233425.00,15,11,2017,00,00*67
2017-11-15 18:34:26 1510788866.327399: $GPGGA,233425,3946.9553,N,08404.9521,W,1,06,3.20,294.18,M,-33.324,M,,*7D
2017-11-15 18:34:26 1510788866.327463: $GPRMC,233425,A,3946.9553,N,08404.9521,W,0.7278,203.636,151117,,*31
2017-11-15 18:34:26 1510788866.327521: $GPGSA,A,3,25,14,22,31,32,10,,,,,,,3.4,3.2,2.9*3F
