2017-11-16 17:13:58 1510870438.630573: {"class":"VERSION","release":"3.17","rev":"3.17","proto_major":3,"proto_minor":12}
2017-11-16 17:13:58 1510870438.631019: {"class":"DEVICES","devices":[{"class":"DEVICE","path":"/dev/ttyUSB0","driver":"SiRF","subtype":"9\u0006GSD4e_4.1.2-P1_RPATCH.05-F-GPS-4R-1510281 11/03/2015 307","activated":"2017-11-16T22:13:58.540Z","flags":1,"native":1,"bps":4800,"parity":"N","stopbits":1,"cycle":1.00}]}
2017-11-16 17:13:58 1510870438.631164: {"class":"WATCH","enable":true,"json":false,"nmea":true,"raw":0,"scaled":false,"timing":false,"split24":false,"pps":false}
2017-11-16 17:13:59 1510870439.416221: $GPZDA,221358.00,16,11,2017,00,00*6A
2017-11-16 17:13:59 1510870439.416400: $GPGGA,221358,3946.9568,N,08404.9826,W,2,11,0.80,312.81,M,-33.324,M,,*72
2017-11-16 17:13:59 1510870439.416461: $GPRMC,221358,A,3946.9568,N,08404.9826,W,0.0000,0.000,161117,,*36
2017-11-16 17:13:59 1510870439.416517: $GPGSA,A,3,1,10,22,12,14,18,11,25,31,32,138,,1.6,0.8,1.3*3E
2017-11-16 17:14:00 1510870440.736987: $GPGSV,3,1,12,01,19,309,38,10,57,142,48,22,12,312,37,12,24,058,49*7A
2017-11-16 17:14:00 1510870440.737178: $GPGSV,3,2,12,14,62,310,46,18,26,141,45,24,04,046,00,11,10,289,33*70
2017-11-16 17:14:00 1510870440.737240: $GPGSV,3,3,12,25,36,102,48,31,46,219,48,32,70,001,48,138,38,213,44*4B
2017-11-16 17:14:00 1510870440.850314: $GPZDA,221359.00,16,11,2017,00,00*6B
2017-11-16 17:14:00 1510870440.850473: $GPGGA,221359,3946.9568,N,08404.9826,W,2,11,0.80,312.81,M,-33.324,M,,*73
2017-11-16 17:14:00 1510870440.850535: $GPRMC,221359,A,3946.9568,N,08404.9826,W,0.0000,0.000,161117,,*37
2017-11-16 17:14:00 1510870440.850611: $GPGSA,A,3,1,10,22,12,14,18,11,25,31,32,138,,1.6,0.8,1.3*3E
2017-11-16 17:14:01 1510870441.475744: $GPZDA,221400.00,16,11,2017,00,00*60
2017-11-16 17:14:01 1510870441.475908: $GPGGA,221400,3946.9568,N,08404.9826,W,2,11,0.80,312.81,M,-33.324,M,,*78
2017-11-16 17:14:01 1510870441.475986: $GPRMC,221400,A,3946.9568,N,08404.9826,W,0.0000,0.000,161117,,*3C
2017-11-16 17:14:01 1510870441.476044: $GPGSA,A,3,1,10,22,12,14,18,11,25,31,32,138,,1.6,0.8,1.3*3E
2017-11-16 17:14:02 1510870442.415525: $GPZDA,221401.00,16,11,2017,00,00*61
2017-11-16 17:14:02 1510870442.415686: $GPGGA,221401,3946.9568,N,08404.9826,W,2,11,0.80,312.81,M,-33.324,M,,*79
2017-11-16 17:14:02 1510870442.415747: $GPRMC,221401,A,3946.9568,N,08404.9826,W,0.0000,0.000,161117,,*3D
2017-11-16 17:14:02 1510870442.415803: $GPGSA,A,3,1,10,22,12,14,18,11,25,31,32,138,,1.6,0.8,1.3*3E
2017-11-16 17:14:03 1510870443.752477: $GPGSV,3,1,12,01,19,309,39,10,57,142,48,22,12,312,38,12,24,058,50*7C
2017-11-16 17:14:03 1510870443.752648: $GPGSV,3,2,12,14,62,310,47,18,26,141,45,24,04,046,00,11,10,289,34*76
2017-11-16 17:14:03 1510870443.752710: $GPGSV,3,3,12,25,36,102,48,31,46,219,48,32,70,001,48,138,38,213,43*4C
2017-11-16 17:14:03 1510870443.865925: $GPZDA,221402.00,16,11,2017,00,00*62
2017-11-16 17:14:03 1510870443.866104: $GPGGA,221402,3946.9568,N,08404.9826,W,2,11,0.80,312.81,M,-33.324,M,,*7A
2017-11-16 17:14:03 1510870443.866187: $GPRMC,221402,A,3946.9568,N,08404.9826,W,0.0000,0.000,161117,,*3E
2017-11-16 17:14:03 1510870443.866245: $GPGSA,A,3,1,10,22,12,14,18,11,25,31,32,138,,1.6,0.8,1.3*3E
2017-11-16 17:14:04 1510870444.394037: $GPZDA,221403.00,16,11,2017,00,00*63
2017-11-16 17:14:04 1510870444.394212: $GPGGA,221403,3946.9568,N,08404.9826,W,2,11,0.80,312.81,M,-33.324,M,,*7B
2017-11-16 17:14:04 1510870444.394289: $GPRMC,221403,A,3946.9568,N,08404.9826,W,0.0000,0.000,161117,,*3F
2017-11-16 17:14:04 1510870444.394348: $GPGSA,A,3,1,10,22,12,14,18,11,25,31,32,138,,1.6,0.8,1.3*3E
2017-11-16 17:14:05 1510870445.417428: $GPZDA,221404.00,16,11,2017,00,00*64
2017-11-16 17:14:05 1510870445.417592: $GPGGA,221404,3946.9568,N,08404.9826,W,2,11,0.80,312.81,M,-33.324,M,,*7C
2017-11-16 17:14:05 1510870445.417653: $GPRMC,221404,A,3946.9568,N,08404.9826,W,0.0000,0.000,161117,,*38
2017-11-16 17:14:05 1510870445.417708: $GPGSA,A,3,1,10,22,12,14,18,11,25,31,32,138,,1.6,0.8,1.3*3E
2017-11-16 17:14:06 1510870446.737688: $GPGSV,3,1,12,01,19,309,40,10,57,142,48,22,12,312,38,12,24,058,50*72
2017-11-16 17:14:06 1510870446.737943: $GPGSV,3,2,12,14,62,310,46,18,26,141,45,24,04,046,00,11,10,289,35*76
2017-11-16 17:14:06 1510870446.738008: $GPGSV,3,3,12,25,36,102,47,31,46,219,48,32,70,001,48,138,38,213,43*43
2017-11-16 17:14:06 1510870446.851068: $GPZDA,221405.00,16,11,2017,00,00*65
2017-11-16 17:14:06 1510870446.851276: $GPGGA,221405,3946.9568,N,08404.9826,W,2,11,0.80,312.81,M,-33.324,M,,*7D
2017-11-16 17:14:06 1510870446.851339: $GPRMC,221405,A,3946.9568,N,08404.9826,W,0.0000,0.000,161117,,*39
2017-11-16 17:14:06 1510870446.851395: $GPGSA,A,3,1,10,22,12,14,18,11,25,31,32,138,,1.6,0.8,1.3*3E
2017-11-16 17:14:07 1510870447.418199: $GPZDA,221406.00,16,11,2017,00,00*66
2017-11-16 17:14:07 1510870447.418466: $GPGGA,221406,3946.9568,N,08404.9826,W,2,11,0.80,312.81,M,-33.324,M,,*7E
2017-11-16 17:14:07 1510870447.418589: $GPRMC,221406,A,3946.9568,N,08404.9826,W,0.0000,0.000,161117,,*3A
2017-11-16 17:14:07 1510870447.418703: $GPGSA,A,3,1,10,22,12,14,18,11,25,31,32,138,,1.6,0.8,1.3*3E
2017-11-16 17:14:08 1510870448.416560: $GPZDA,221407.00,16,11,2017,00,00*67
2017-11-16 17:14:08 1510870448.416726: $GPGGA,221407,3946.9568,N,08404.9826,W,2,11,0.80,312.81,M,-33.324,M,,*7F
2017-11-16 17:14:08 1510870448.416787: $GPRMC,221407,A,3946.9568,N,08404.9826,W,0.0000,0.000,161117,,*3B
2017-11-16 17:14:08 1510870448.416843: $GPGSA,A,3,1,10,22,12,14,18,11,25,31,32,138,,1.6,0.8,1.3*3E
