2017-12-31 18:56:01 1514764561.267710: {"class":"VERSION","release":"3.16","rev":"3.16-4","proto_major":3,"proto_minor":11}
2017-12-31 18:56:01 1514764561.268198: {"class":"DEVICES","devices":[{"class":"DEVICE","path":"/dev/ttyUSB0","driver":"SiRF","activated":"2017-12-31T23:56:01.214Z","flags":1,"native":1,"bps":4800,"parity":"N","stopbits":1,"cycle":1.00}]}
2017-12-31 18:56:01 1514764561.268304: {"class":"WATCH","enable":true,"json":false,"nmea":true,"raw":0,"scaled":false,"timing":false,"split24":false,"pps":false}
2017-12-31 18:56:01 1514764561.392740: $GPZDA,235602.00,31,12,2017,00,00*63
2017-12-31 18:56:01 1514764561.392893: $GPGGA,235602,3946.9582,N,08404.9824,W,2,11,0.80,311.16,M,-33.324,M,,*76
2017-12-31 18:56:01 1514764561.392959: $GPRMC,235602,A,3946.9582,N,08404.9824,W,0.0000,0.000,311217,,*39
2017-12-31 18:56:01 1514764561.393021: $GPGSA,A,3,22,23,9,3,16,8,31,27,7,26,135,,1.7,0.8,1.3*09
2017-12-31 18:56:02 1514764562.346128: $GPZDA,235603.00,31,12,2017,00,00*62
2017-12-31 18:56:02 1514764562.346297: $GPGGA,235603,3946.9582,N,08404.9824,W,2,11,0.80,311.16,M,-33.324,M,,*77
2017-12-31 18:56:02 1514764562.346364: $GPRMC,235603,A,3946.9582,N,08404.9824,W,0.0000,0.000,311217,,*38
2017-12-31 18:56:02 1514764562.346425: $GPGSA,A,3,22,23,9,3,16,8,31,27,7,26,135,,1.7,0.8,1.3*09
2017-12-31 18:56:03 1514764563.688047: $GPGSV,3,1,11,22,06,202,28,23,69,274,39,09,38,309,37,03,16,219,34*77
2017-12-31 18:56:03 1514764563.688197: $GPGSV,3,2,11,16,74,036,44,08,18,175,44,31,15,090,27,27,42,141,38*7D
2017-12-31 18:56:03 1514764563.688263: $GPGSV,3,3,11,07,12,286,38,26,42,048,47,135,22,240,44*76
2017-12-31 18:56:03 1514764563.801628: $GPZDA,235604.00,31,12,2017,00,00*65
2017-12-31 18:56:03 1514764563.801768: $GPGGA,235604,3946.9582,N,08404.9824,W,2,11,0.80,311.16,M,-33.324,M,,*70
2017-12-31 18:56:03 1514764563.801834: $GPRMC,235604,A,3946.9582,N,08404.9824,W,0.0000,0.000,311217,,*3F
2017-12-31 18:56:03 1514764563.801895: $GPGSA,A,3,22,23,9,3,16,8,31,27,7,26,135,,1.7,0.8,1.3*09
2017-12-31 18:56:04 1514764564.352522: $GPZDA,235605.00,31,12,2017,00,00*64
2017-12-31 18:56:04 1514764564.352694: $GPGGA,235605,3946.9582,N,08404.9824,W,2,11,0.80,311.16,M,-33.324,M,,*71
2017-12-31 18:56:04 1514764564.352761: $GPRMC,235605,A,3946.9582,N,08404.9824,W,0.0000,0.000,311217,,*3E
2017-12-31 18:56:04 1514764564.352823: $GPGSA,A,3,22,23,9,3,16,8,31,27,7,26,135,,1.7,0.8,1.3*09
2017-12-31 18:56:05 1514764565.352885: $GPZDA,235606.00,31,12,2017,00,00*67
2017-12-31 18:56:05 1514764565.353072: $GPGGA,235606,3946.9582,N,08404.9824,W,2,11,0.80,311.16,M,-33.324,M,,*72
2017-12-31 18:56:05 1514764565.353140: $GPRMC,235606,A,3946.9582,N,08404.9824,W,0.0000,0.000,311217,,*3D
2017-12-31 18:56:05 1514764565.353201: $GPGSA,A,3,22,23,9,3,16,8,31,27,7,26,135,,1.7,0.8,1.3*09
2017-12-31 18:56:06 1514764566.689645: $GPGSV,3,1,11,22,06,202,28,23,69,274,40,09,38,309,37,03,16,219,35*78
2017-12-31 18:56:06 1514764566.689808: $GPGSV,3,2,11,16,74,036,44,08,18,175,43,31,15,090,28,27,42,141,39*74
2017-12-31 18:56:06 1514764566.689875: $GPGSV,3,3,11,07,12,286,40,26,42,048,47,135,22,240,43*7E
2017-12-31 18:56:06 1514764566.803295: $GPZDA,235607.00,31,12,2017,00,00*66
2017-12-31 18:56:06 1514764566.803452: $GPGGA,235607,3946.9582,N,08404.9824,W,2,11,0.80,311.16,M,-33.324,M,,*73
2017-12-31 18:56:06 1514764566.803519: $GPRMC,235607,A,3946.9582,N,08404.9824,W,0.0000,0.000,311217,,*3C
2017-12-31 18:56:06 1514764566.803580: $GPGSA,A,3,22,23,9,3,16,8,31,27,7,26,135,,1.7,0.8,1.3*09
2017-12-31 18:56:07 1514764567.392906: $GPZDA,235608.00,31,12,2017,00,00*69
2017-12-31 18:56:07 1514764567.393070: $GPGGA,235608,3946.9582,N,08404.9824,W,2,11,0.80,311.16,M,-33.324,M,,*7C
2017-12-31 18:56:07 1514764567.393136: $GPRMC,235608,A,3946.9582,N,08404.9824,W,0.0000,0.000,311217,,*33
2017-12-31 18:56:07 1514764567.393198: $GPGSA,A,3,22,23,9,3,16,8,31,27,7,26,135,,1.7,0.8,1.3*09
2017-12-31 18:56:08 1514764568.352572: $GPZDA,235609.00,31,12,2017,00,00*68
2017-12-31 18:56:08 1514764568.352744: $GPGGA,235609,3946.9582,N,08404.9824,W,2,11,0.80,311.16,M,-33.324,M,,*7D
2017-12-31 18:56:08 1514764568.352865: $GPRMC,235609,A,3946.9582,N,08404.9824,W,0.0000,0.000,311217,,*32
2017-12-31 18:56:08 1514764568.352928: $GPGSA,A,3,22,23,9,3,16,8,31,27,7,26,135,,1.7,0.8,1.3*09
2017-12-31 18:56:09 1514764569.728072: $GPGSV,3,1,11,22,06,202,28,23,69,274,39,09,38,309,36,03,16,219,34*76
2017-12-31 18:56:09 1514764569.728229: $GPGSV,3,2,11,16,74,036,44,08,18,175,44,31,15,090,28,27,42,141,39*73
2017-12-31 18:56:09 1514764569.728295: $GPGSV,3,3,11,07,12,286,41,26,42,048,47,135,22,240,44*78
2017-12-31 18:56:09 1514764569.840407: $GPZDA,235610.00,31,12,2017,00,00*60
2017-12-31 18:56:09 1514764569.840550: $GPGGA,235610,3946.9582,N,08404.9824,W,2,11,0.80,311.16,M,-33.324,M,,*75
2017-12-31 18:56:09 1514764569.840616: $GPRMC,235610,A,3946.9582,N,08404.9824,W,0.0000,0.000,311217,,*3A
2017-12-31 18:56:09 1514764569.840677: $GPGSA,A,3,22,23,9,3,16,8,31,27,7,26,135,,1.7,0.8,1.3*09
2017-12-31 18:56:10 1514764570.466766: $GPZDA,235611.00,31,12,2017,00,00*61
2017-12-31 18:56:10 1514764570.466940: $GPGGA,235611,3946.9582,N,08404.9824,W,2,11,0.80,311.16,M,-33.324,M,,*74
2017-12-31 18:56:10 1514764570.467008: $GPRMC,235611,A,3946.9582,N,08404.9824,W,0.0000,0.000,311217,,*3B
2017-12-31 18:56:10 1514764570.467069: $GPGSA,A,3,22,23,9,3,16,8,31,27,7,26,135,,1.7,0.8,1.3*09
