2017-12-01 12:02:33 1512147753.064157: {"class":"VERSION","release":"3.16","rev":"3.16-4","proto_major":3,"proto_minor":11}
2017-12-01 12:02:33 1512147753.064549: {"class":"DEVICES","devices":[{"class":"DEVICE","path":"/dev/ttyUSB0","driver":"SiRF","subtype":"9\u0006GSD4e_4.1.2-P1_RPATCH.05-F-GPS-4R-1510281 11/03/2015 307","activated":"2017-12-01T17:02:32.999Z","flags":1,"native":1,"bps":4800,"parity":"N","stopbits":1,"cycle":1.00}]}
2017-12-01 12:02:33 1512147753.064702: {"class":"WATCH","enable":true,"json":false,"nmea":true,"raw":0,"scaled":false,"timing":false,"split24":false,"pps":false}
2017-12-01 12:02:33 1512147753.463006: $GPZDA,170234.00,01,12,2017,00,00*63
2017-12-01 12:02:33 1512147753.463190: $GPGGA,170234,3946.9580,N,08404.9850,W,2,11,0.80,294.55,M,-33.324,M,,*7F
2017-12-01 12:02:33 1512147753.463257: $GPRMC,170234,A,3946.9580,N,08404.9850,W,0.0000,0.000,011217,,*38
2017-12-01 12:02:33 1512147753.463319: $GPGSA,A,3,10,13,15,18,20,21,24,27,29,5,138,,2.0,0.8,1.5*34
2017-12-01 12:02:34 1512147754.387828: $GPZDA,170235.00,01,12,2017,00,00*62
2017-12-01 12:02:34 1512147754.388017: $GPGGA,170235,3946.9580,N,08404.9850,W,2,11,0.80,294.55,M,-33.324,M,,*7E
2017-12-01 12:02:34 1512147754.388086: $GPRMC,170235,A,3946.9580,N,08404.9850,W,0.0000,0.000,011217,,*39
2017-12-01 12:02:34 1512147754.388149: $GPGSA,A,3,10,13,15,18,20,21,24,27,29,5,138,,2.0,0.8,1.5*34
2017-12-01 12:02:35 1512147755.722130: $GPGSV,3,1,12,10,19,277,41,13,35,046,44,15,68,055,45,18,50,294,44*78
2017-12-01 12:02:35 1512147755.722310: $GPGSV,3,2,12,20,56,063,46,21,74,292,44,24,28,144,45,27,13,318,37*71
2017-12-01 12:02:35 1512147755.722376: $GPGSV,3,3,12,29,16,192,37,05,08,082,19,04,05,133,00,138,38,213,45*47
2017-12-01 12:02:35 1512147755.834232: $GPZDA,170236.00,01,12,2017,00,00*61
2017-12-01 12:02:35 1512147755.834392: $GPGGA,170236,3946.9583,N,08404.9843,W,2,11,0.80,293.86,M,-33.324,M,,*75
2017-12-01 12:02:35 1512147755.834458: $GPRMC,170236,A,3946.9583,N,08404.9843,W,0.0000,0.000,011217,,*3B
2017-12-01 12:02:35 1512147755.834519: $GPGSA,A,3,10,13,15,18,20,21,24,27,29,5,138,,2.0,0.8,1.5*34
2017-12-01 12:02:36 1512147756.386489: $GPZDA,170237.00,01,12,2017,00,00*60
2017-12-01 12:02:36 1512147756.386660: $GPGGA,170237,3946.9587,N,08404.9843,W,2,11,0.80,294.50,M,-33.324,M,,*7C
2017-12-01 12:02:36 1512147756.386726: $GPRMC,170237,A,3946.9587,N,08404.9843,W,0.0000,0.000,011217,,*3E
2017-12-01 12:02:36 1512147756.386788: $GPGSA,A,3,10,13,15,18,20,21,24,27,29,5,138,,2.0,0.8,1.5*34
2017-12-01 12:02:37 1512147757.391181: $GPZDA,170238.00,01,12,2017,00,00*6F
2017-12-01 12:02:37 1512147757.391400: $GPGGA,170238,3946.9587,N,08404.9843,W,2,11,0.80,294.50,M,-33.324,M,,*73
2017-12-01 12:02:37 1512147757.391477: $GPRMC,170238,A,3946.9587,N,08404.9843,W,0.0000,0.000,011217,,*31
2017-12-01 12:02:37 1512147757.391539: $GPGSA,A,3,10,13,15,18,20,21,24,27,29,5,138,,2.0,0.8,1.5*34
2017-12-01 12:02:37 1512147757.391597: $GPGBS,170238,2.67,M,3.86,M,8.82,M*3D
2017-12-01 12:02:38 1512147758.723569: $GPGSV,3,1,12,10,19,277,41,13,35,046,44,15,68,055,45,18,50,294,45*79
2017-12-01 12:02:38 1512147758.723756: $GPGSV,3,2,12,20,56,063,46,21,74,292,44,24,28,144,46,27,13,318,37*72
2017-12-01 12:02:38 1512147758.723824: $GPGSV,3,3,12,29,16,192,37,05,08,082,23,04,05,133,00,138,38,213,46*4D
2017-12-01 12:02:38 1512147758.836977: $GPZDA,170239.00,01,12,2017,00,00*6E
2017-12-01 12:02:38 1512147758.837140: $GPGGA,170239,3946.9587,N,08404.9843,W,2,11,0.80,294.50,M,-33.324,M,,*72
2017-12-01 12:02:38 1512147758.837207: $GPRMC,170239,A,3946.9587,N,08404.9843,W,0.0000,0.000,011217,,*30
2017-12-01 12:02:38 1512147758.837268: $GPGSA,A,3,10,13,15,18,20,21,24,27,29,5,138,,2.0,0.8,1.5*34
2017-12-01 12:02:39 1512147759.386582: $GPZDA,170240.00,01,12,2017,00,00*60
2017-12-01 12:02:39 1512147759.386748: $GPGGA,170240,3946.9587,N,08404.9843,W,2,11,0.80,294.50,M,-33.324,M,,*7C
2017-12-01 12:02:39 1512147759.386815: $GPRMC,170240,A,3946.9587,N,08404.9843,W,0.0000,0.000,011217,,*3E
2017-12-01 12:02:39 1512147759.386877: $GPGSA,A,3,10,13,15,18,20,21,24,27,29,5,138,,2.0,0.8,1.5*34
2017-12-01 12:02:40 1512147760.389961: $GPZDA,170241.00,01,12,2017,00,00*61
2017-12-01 12:02:40 1512147760.390144: $GPGGA,170241,3946.9587,N,08404.9843,W,2,11,0.80,294.50,M,-33.324,M,,*7D
2017-12-01 12:02:40 1512147760.390212: $GPRMC,170241,A,3946.9587,N,08404.9843,W,0.0000,0.000,011217,,*3F
2017-12-01 12:02:40 1512147760.390274: $GPGSA,A,3,10,13,15,18,20,21,24,27,29,5,138,,2.0,0.8,1.5*34
2017-12-01 12:02:41 1512147761.724469: $GPGSV,3,1,12,10,19,277,42,13,35,046,44,15,68,055,46,18,50,294,45*79
2017-12-01 12:02:41 1512147761.724648: $GPGSV,3,2,12,20,56,063,46,21,74,292,44,24,28,144,46,27,13,318,38*7D
2017-12-01 12:02:41 1512147761.724715: $GPGSV,3,3,12,29,16,192,36,05,08,082,23,04,05,133,00,138,38,213,47*4D
2017-12-01 12:02:41 1512147761.837863: $GPZDA,170242.00,01,12,2017,00,00*62
2017-12-01 12:02:41 1512147761.838033: $GPGGA,170242,3946.9587,N,08404.9843,W,2,11,0.80,294.50,M,-33.324,M,,*7E
2017-12-01 12:02:41 1512147761.838101: $GPRMC,170242,A,3946.9587,N,08404.9843,W,0.0000,0.000,011217,,*3C
2017-12-01 12:02:41 1512147761.838162: $GPGSA,A,3,10,13,15,18,20,21,24,27,29,5,138,,2.0,0.8,1.5*34
2017-12-01 12:02:42 1512147762.391275: $GPZDA,170243.00,01,12,2017,00,00*63
2017-12-01 12:02:42 1512147762.391496: $GPGGA,170243,3946.9587,N,08404.9843,W,2,11,0.80,294.50,M,-33.324,M,,*7F
2017-12-01 12:02:42 1512147762.391566: $GPRMC,170243,A,3946.9587,N,08404.9843,W,0.0000,0.000,011217,,*3D
2017-12-01 12:02:42 1512147762.391627: $GPGSA,A,3,10,13,15,18,20,21,24,27,29,5,138,,2.0,0.8,1.5*34
