2017-11-15 19:45:32 1510793132.495546: {"class":"VERSION","release":"3.17","rev":"3.17","proto_major":3,"proto_minor":12}
2017-11-15 19:45:32 1510793132.496078: {"class":"DEVICES","devices":[{"class":"DEVICE","path":"/dev/ttyUSB0","driver":"SiRF","subtype":"9\u0006GSD4e_4.1.2-P1_RPATCH.05-F-GPS-4R-1510281 11/03/2015 307","activated":"2017-11-16T00:45:32.470Z","flags":1,"native":1,"bps":4800,"parity":"N","stopbits":1,"cycle":1.00}]}
2017-11-15 19:45:32 1510793132.496242: {"class":"WATCH","enable":true,"json":false,"nmea":true,"raw":0,"scaled":false,"timing":false,"split24":false,"pps":false}
2017-11-15 19:45:33 1510793133.680743: $GPGSV,3,1,12,32,30,114,12,16,30,190,26,22,50,259,19,26,61,169,19*73
2017-11-15 19:45:33 1510793133.680929: $GPGSV,3,2,12,14,49,102,21,31,62,034,15,29,12,064,00,23,16,303,04*7E
2017-11-15 19:45:33 1510793133.680991: $GPGSV,3,3,12,03,43,291,15,25,11,039,00,01,01,247,00,138,38,213,00*4D
2017-11-15 19:45:33 1510793133.794073: $GPZDA,004532.00,16,11,2017,00,00*65
2017-11-15 19:45:33 1510793133.794229: $GPGGA,004532,3946.9735,N,08404.9530,W,1,07,1.20,350.75,M,-33.324,M,,*7F
2017-11-15 19:45:33 1510793133.794289: $GPRMC,004532,A,3946.9735,N,08404.9530,W,0.4179,328.778,161117,,*33
2017-11-15 19:45:33 1510793133.794345: $GPGSA,A,3,32,16,22,26,14,31,3,,,,,,3.4,1.2,2.9*0B
2017-11-15 19:45:34 1510793134.346236: $GPZDA,004533.00,16,11,2017,00,00*64
2017-11-15 19:45:34 1510793134.346431: $GPGGA,004533,3946.9735,N,08404.9530,W,1,07,1.20,350.75,M,-33.324,M,,*7E
2017-11-15 19:45:34 1510793134.346494: $GPRMC,004533,A,3946.9735,N,08404.9530,W,0.9060,347.792,161117,,*3B
2017-11-15 19:45:34 1510793134.346550: $GPGSA,A,3,32,16,22,26,14,31,3,,,,,,3.4,1.2,2.9*0B
2017-11-15 19:45:35 1510793135.346079: $GPZDA,004534.00,16,11,2017,00,00*63
2017-11-15 19:45:35 1510793135.346241: $GPGGA,004534,3946.9742,N,08404.9530,W,1,07,1.20,350.63,M,-33.325,M,,*7F
2017-11-15 19:45:35 1510793135.346302: $GPRMC,004534,A,3946.9742,N,08404.9530,W,1.0567,17.448,161117,,*04
2017-11-15 19:45:35 1510793135.346358: $GPGSA,A,3,32,16,22,26,14,31,3,,,,,,3.4,1.2,2.9*0B
2017-11-15 19:45:36 1510793136.666129: $GPGSV,3,1,12,32,30,114,12,16,30,190,25,22,50,259,19,26,61,169,20*7A
2017-11-15 19:45:36 1510793136.666298: $GPGSV,3,2,12,14,49,102,21,31,62,034,16,29,12,064,00,23,16,303,08*71
2017-11-15 19:45:36 1510793136.666357: $GPGSV,3,3,12,03,43,291,15,25,11,039,00,01,01,247,00,135,23,238,00*43
2017-11-15 19:45:36 1510793136.778417: $GPZDA,004535.00,16,11,2017,00,00*62
2017-11-15 19:45:36 1510793136.778547: $GPGGA,004535,3946.9742,N,08404.9530,W,1,08,1.00,350.63,M,-33.325,M,,*73
2017-11-15 19:45:36 1510793136.778606: $GPRMC,004535,A,3946.9742,N,08404.9530,W,0.7278,23.636,161117,,*06
2017-11-15 19:45:36 1510793136.778683: $GPGSA,A,3,32,16,22,26,14,31,23,3,,,,,3.4,1.0,2.9*08
2017-11-15 19:45:37 1510793137.346862: $GPZDA,004536.00,16,11,2017,00,00*61
2017-11-15 19:45:37 1510793137.347025: $GPGGA,004536,3946.9742,N,08404.9523,W,1,08,1.00,350.71,M,-33.325,M,,*71
2017-11-15 19:45:37 1510793137.347087: $GPRMC,004536,A,3946.9742,N,08404.9523,W,0.8414,39.347,161117,,*0C
2017-11-15 19:45:37 1510793137.347143: $GPGSA,A,3,32,16,22,26,14,31,23,3,,,,,3.4,1.0,2.9*08
2017-11-15 19:45:38 1510793138.346198: $GPZDA,004537.00,16,11,2017,00,00*60
2017-11-15 19:45:38 1510793138.346379: $GPGGA,004537,3946.9746,N,08404.9523,W,1,08,1.00,351.35,M,-33.325,M,,*75
2017-11-15 19:45:38 1510793138.346441: $GPRMC,004537,A,3946.9746,N,08404.9523,W,0.8414,39.347,161117,,*09
2017-11-15 19:45:38 1510793138.346497: $GPGSA,A,3,32,16,22,26,14,31,23,3,,,,,3.4,1.0,2.9*08
2017-11-15 19:45:39 1510793139.665750: $GPGSV,3,1,12,32,30,114,13,16,30,190,25,22,50,259,19,26,61,169,19*71
2017-11-15 19:45:39 1510793139.665932: $GPGSV,3,2,12,14,49,102,21,31,62,034,15,29,12,064,00,23,16,303,09*73
2017-11-15 19:45:39 1510793139.665993: $GPGSV,3,3,12,03,43,291,15,25,11,039,00,01,01,247,00,135,23,238,00*43
2017-11-15 19:45:39 1510793139.779301: $GPZDA,004538.00,16,11,2017,00,00*6F
2017-11-15 19:45:39 1510793139.779458: $GPGGA,004538,3946.9742,N,08404.9523,W,1,08,1.00,350.71,M,-33.325,M,,*7F
2017-11-15 19:45:39 1510793139.779569: $GPRMC,004538,A,3946.9742,N,08404.9523,W,0.2422,93.794,161117,,*07
2017-11-15 19:45:39 1510793139.779652: $GPGSA,A,3,32,16,22,26,14,31,23,3,,,,,3.4,1.0,2.9*08
2017-11-15 19:45:40 1510793140.346188: $GPZDA,004539.00,16,11,2017,00,00*6E
2017-11-15 19:45:40 1510793140.348673: $GPGGA,004539,3946.9739,N,08404.9523,W,1,08,1.20,351.47,M,-33.325,M,,*74
2017-11-15 19:45:40 1510793140.348840: $GPRMC,004539,A,3946.9739,N,08404.9523,W,0.0000,0.000,161117,,*3C
2017-11-15 19:45:40 1510793140.348934: $GPGSA,A,3,32,16,22,26,14,31,23,3,,,,,3.4,1.2,2.9*0A
2017-11-15 19:45:41 1510793141.345548: $GPZDA,004540.00,16,11,2017,00,00*60
2017-11-15 19:45:41 1510793141.345732: $GPGGA,004540,3946.9739,N,08404.9523,W,1,08,1.20,351.47,M,-33.325,M,,*7A
2017-11-15 19:45:41 1510793141.345811: $GPRMC,004540,A,3946.9739,N,08404.9523,W,0.2422,93.794,161117,,*04
2017-11-15 19:45:41 1510793141.345867: $GPGSA,A,3,32,16,22,26,14,31,23,3,,,,,3.4,1.2,2.9*0A
