2017-12-01 11:46:40 1512146800.327445: {"class":"VERSION","release":"3.16","rev":"3.16-4","proto_major":3,"proto_minor":11}
2017-12-01 11:46:40 1512146800.327831: {"class":"DEVICES","devices":[{"class":"DEVICE","path":"/dev/ttyUSB0","driver":"SiRF","subtype":"9\u0006GSD4e_4.1.2-P1_RPATCH.05-F-GPS-4R-1510281 11/03/2015 307","activated":"2017-12-01T16:46:40.306Z","flags":1,"native":1,"bps":4800,"parity":"N","stopbits":1,"cycle":1.00}]}
2017-12-01 11:46:40 1512146800.327946: {"class":"WATCH","enable":true,"json":false,"nmea":true,"raw":0,"scaled":false,"timing":false,"split24":false,"pps":false}
2017-12-01 11:46:40 1512146800.484843: $GPZDA,164641.00,01,12,2017,00,00*60
2017-12-01 11:46:40 1512146800.485015: $GPGGA,164641,3946.9578,N,08404.9852,W,2,11,1.00,298.12,M,-33.324,M,,*7F
2017-12-01 11:46:40 1512146800.485082: $GPRMC,164641,A,3946.9578,N,08404.9852,W,0.0000,0.000,011217,,*3E
2017-12-01 11:46:40 1512146800.485144: $GPGSA,A,3,5,13,15,18,20,21,24,27,29,10,138,,2.0,1.0,1.5*3D
2017-12-01 11:46:41 1512146801.409390: $GPZDA,164642.00,01,12,2017,00,00*63
2017-12-01 11:46:41 1512146801.409559: $GPGGA,164642,3946.9578,N,08404.9852,W,2,11,0.80,298.12,M,-33.324,M,,*75
2017-12-01 11:46:41 1512146801.409628: $GPRMC,164642,A,3946.9578,N,08404.9852,W,0.0000,0.000,011217,,*3D
2017-12-01 11:46:41 1512146801.409689: $GPGSA,A,3,5,13,15,18,20,21,24,27,29,10,138,,2.0,0.8,1.5*34
2017-12-01 11:46:42 1512146802.748601: $GPGSV,3,1,12,05,13,078,26,13,42,049,46,15,74,069,45,18,44,286,44*73
2017-12-01 11:46:42 1512146802.748789: $GPGSV,3,2,12,20,61,052,43,21,68,304,46,24,21,148,43,27,09,324,41*75
2017-12-01 11:46:42 1512146802.748858: $GPGSV,3,3,12,29,23,195,46,10,14,273,35,04,11,130,00,138,38,213,46*4E
2017-12-01 11:46:42 1512146802.860998: $GPZDA,164643.00,01,12,2017,00,00*62
2017-12-01 11:46:42 1512146802.861165: $GPGGA,164643,3946.9578,N,08404.9852,W,2,11,0.80,298.12,M,-33.324,M,,*74
2017-12-01 11:46:42 1512146802.861233: $GPRMC,164643,A,3946.9578,N,08404.9852,W,0.0000,0.000,011217,,*3C
2017-12-01 11:46:42 1512146802.861294: $GPGSA,A,3,5,13,15,18,20,21,24,27,29,10,138,,2.0,0.8,1.5*34
2017-12-01 11:46:43 1512146803.410629: $GPZDA,164644.00,01,12,2017,00,00*65
2017-12-01 11:46:43 1512146803.410803: $GPGGA,164644,3946.9578,N,08404.9852,W,2,11,0.80,298.12,M,-33.324,M,,*73
2017-12-01 11:46:43 1512146803.410871: $GPRMC,164644,A,3946.9578,N,08404.9852,W,0.0000,0.000,011217,,*3B
2017-12-01 11:46:43 1512146803.410933: $GPGSA,A,3,5,13,15,18,20,21,24,27,29,10,138,,2.0,0.8,1.5*34
2017-12-01 11:46:44 1512146804.407579: $GPZDA,164645.00,01,12,2017,00,00*64
2017-12-01 11:46:44 1512146804.407759: $GPGGA,164645,3946.9578,N,08404.9852,W,2,11,0.80,298.12,M,-33.324,M,,*72
2017-12-01 11:46:44 1512146804.407827: $GPRMC,164645,A,3946.9578,N,08404.9852,W,0.0000,0.000,011217,,*3A
2017-12-01 11:46:44 1512146804.407888: $GPGSA,A,3,5,13,15,18,20,21,24,27,29,10,138,,2.0,0.8,1.5*34
2017-12-01 11:46:44 1512146804.407948: $GPGBS,164645,2.67,M,3.86,M,8.82,M*36
2017-12-01 11:46:45 1512146805.746276: $GPGSV,3,1,12,05,13,078,23,13,42,049,46,15,74,069,45,18,44,286,44*76
2017-12-01 11:46:45 1512146805.746456: $GPGSV,3,2,12,20,61,052,43,21,68,304,46,24,21,148,43,27,09,324,41*75
2017-12-01 11:46:45 1512146805.746522: $GPGSV,3,3,12,29,23,195,46,10,14,273,35,04,11,130,00,138,38,213,45*4D
2017-12-01 11:46:45 1512146805.859902: $GPZDA,164646.00,01,12,2017,00,00*67
2017-12-01 11:46:45 1512146805.860071: $GPGGA,164646,3946.9578,N,08404.9852,W,2,11,0.80,298.12,M,-33.324,M,,*71
2017-12-01 11:46:45 1512146805.860137: $GPRMC,164646,A,3946.9578,N,08404.9852,W,0.0000,0.000,011217,,*39
2017-12-01 11:46:45 1512146805.860198: $GPGSA,A,3,5,13,15,18,20,21,24,27,29,10,138,,2.0,0.8,1.5*34
2017-12-01 11:46:46 1512146806.410795: $GPZDA,164647.00,01,12,2017,00,00*66
2017-12-01 11:46:46 1512146806.410948: $GPGGA,164647,3946.9578,N,08404.9852,W,2,11,0.80,298.12,M,-33.324,M,,*70
2017-12-01 11:46:46 1512146806.411014: $GPRMC,164647,A,3946.9578,N,08404.9852,W,0.0000,0.000,011217,,*38
2017-12-01 11:46:46 1512146806.411076: $GPGSA,A,3,5,13,15,18,20,21,24,27,29,10,138,,2.0,0.8,1.5*34
2017-12-01 11:46:47 1512146807.412944: $GPZDA,164648.00,01,12,2017,00,00*69
2017-12-01 11:46:47 1512146807.414518: $GPGGA,164648,3946.9578,N,08404.9852,W,2,11,0.80,298.12,M,-33.324,M,,*7F
2017-12-01 11:46:47 1512146807.414625: $GPRMC,164648,A,3946.9578,N,08404.9852,W,0.0000,0.000,011217,,*37
2017-12-01 11:46:47 1512146807.414691: $GPGSA,A,3,5,13,15,18,20,21,24,27,29,10,138,,2.0,0.8,1.5*34
2017-12-01 11:46:48 1512146808.747273: $GPGSV,3,1,12,05,13,078,22,13,42,049,46,15,74,069,46,18,44,286,44*74
2017-12-01 11:46:48 1512146808.747454: $GPGSV,3,2,12,20,61,052,43,21,68,304,46,24,21,148,42,27,09,324,41*74
2017-12-01 11:46:48 1512146808.747522: $GPGSV,3,3,12,29,23,195,46,10,14,273,35,04,11,130,00,138,38,213,46*4E
2017-12-01 11:46:48 1512146808.860769: $GPZDA,164649.00,01,12,2017,00,00*68
2017-12-01 11:46:48 1512146808.860942: $GPGGA,164649,3946.9578,N,08404.9852,W,2,11,0.80,298.12,M,-33.324,M,,*7E
2017-12-01 11:46:48 1512146808.861009: $GPRMC,164649,A,3946.9578,N,08404.9852,W,0.0000,0.000,011217,,*36
2017-12-01 11:46:48 1512146808.861072: $GPGSA,A,3,5,13,15,18,20,21,24,27,29,10,138,,2.0,0.8,1.5*34
2017-12-01 11:46:49 1512146809.415503: $GPZDA,164650.00,01,12,2017,00,00*60
2017-12-01 11:46:49 1512146809.415683: $GPGGA,164650,3946.9578,N,08404.9852,W,2,11,0.80,298.12,M,-33.324,M,,*76
2017-12-01 11:46:49 1512146809.415749: $GPRMC,164650,A,3946.9578,N,08404.9852,W,0.0000,0.000,011217,,*3E
2017-12-01 11:46:49 1512146809.415812: $GPGSA,A,3,5,13,15,18,20,21,24,27,29,10,138,,2.0,0.8,1.5*34
