2017-12-01 16:39:20 1512164360.906987: {"class":"VERSION","release":"3.16","rev":"3.16-4","proto_major":3,"proto_minor":11}
2017-12-01 16:39:20 1512164360.907759: {"class":"DEVICES","devices":[{"class":"DEVICE","path":"/dev/ttyUSB0","driver":"SiRF","subtype":"9\u0006GSD4e_4.1.2-P1_RPATCH.05-F-GPS-4R-1510281 11/03/2015 307","activated":"2017-12-01T21:39:20.509Z","flags":1,"native":1,"bps":4800,"parity":"N","stopbits":1,"cycle":1.00}]}
2017-12-01 16:39:20 1512164360.907891: {"class":"WATCH","enable":true,"json":false,"nmea":true,"raw":0,"scaled":false,"timing":false,"split24":false,"pps":false}
2017-12-01 16:39:21 1512164361.708458: $GPGSV,3,1,12,01,22,297,43,10,44,150,43,11,07,279,36,14,67,336,45*7D
2017-12-01 16:39:21 1512164361.708639: $GPGSV,3,2,12,22,22,312,45,31,60,229,50,32,67,039,47,12,20,046,30*7B
2017-12-01 16:39:21 1512164361.708705: $GPGSV,3,3,12,25,40,085,29,26,05,181,30,18,14,145,04,138,38,213,34*4B
2017-12-01 16:39:21 1512164361.821833: $GPZDA,213922.00,01,12,2017,00,00*69
2017-12-01 16:39:21 1512164361.821987: $GPGGA,213922,3946.9656,N,08404.9727,W,2,11,1.00,299.50,M,-33.324,M,,*73
2017-12-01 16:39:21 1512164361.822053: $GPRMC,213922,A,3946.9656,N,08404.9727,W,0.0000,0.000,011217,,*35
2017-12-01 16:39:21 1512164361.822114: $GPGSA,A,3,1,10,11,14,22,31,32,12,25,26,138,,2.0,1.0,1.5*39
2017-12-01 16:39:22 1512164362.368965: $GPZDA,213923.00,01,12,2017,00,00*68
2017-12-01 16:39:22 1512164362.369155: $GPGGA,213923,3946.9656,N,08404.9727,W,2,11,0.80,299.50,M,-33.324,M,,*7B
2017-12-01 16:39:22 1512164362.369223: $GPRMC,213923,A,3946.9656,N,08404.9727,W,0.0000,0.000,011217,,*34
2017-12-01 16:39:22 1512164362.369286: $GPGSA,A,3,1,10,11,14,22,31,32,12,25,26,138,,2.0,0.8,1.5*30
2017-12-01 16:39:23 1512164363.386843: $GPZDA,213924.00,01,12,2017,00,00*6F
2017-12-01 16:39:23 1512164363.387036: $GPGGA,213924,3946.9656,N,08404.9727,W,2,11,0.80,299.50,M,-33.324,M,,*7C
2017-12-01 16:39:23 1512164363.387106: $GPRMC,213924,A,3946.9656,N,08404.9727,W,0.0000,0.000,011217,,*33
2017-12-01 16:39:23 1512164363.387168: $GPGSA,A,3,1,10,11,14,22,31,32,12,25,26,138,,2.0,0.8,1.5*30
2017-12-01 16:39:24 1512164364.713825: $GPGSV,3,1,12,01,22,297,44,10,44,150,42,11,07,279,36,14,67,336,45*7B
2017-12-01 16:39:24 1512164364.714015: $GPGSV,3,2,12,22,22,312,45,31,60,229,50,32,67,039,47,12,20,046,31*7A
2017-12-01 16:39:24 1512164364.714081: $GPGSV,3,3,12,25,40,085,28,26,05,181,30,18,14,145,20,138,38,213,38*40
2017-12-01 16:39:24 1512164364.827708: $GPZDA,213925.00,01,12,2017,00,00*6E
2017-12-01 16:39:24 1512164364.827884: $GPGGA,213925,3946.9656,N,08404.9727,W,2,12,1.00,299.50,M,-33.324,M,,*77
2017-12-01 16:39:24 1512164364.827949: $GPRMC,213925,A,3946.9656,N,08404.9727,W,0.0000,0.000,011217,,*32
2017-12-01 16:39:24 1512164364.828012: $GPGSA,A,3,1,10,11,14,22,31,32,12,25,26,18,138,2.0,1.0,1.5*30
2017-12-01 16:39:25 1512164365.385883: $GPZDA,213926.00,01,12,2017,00,00*6D
2017-12-01 16:39:25 1512164365.386061: $GPGGA,213926,3946.9656,N,08404.9727,W,2,12,1.00,299.50,M,-33.324,M,,*74
2017-12-01 16:39:25 1512164365.386129: $GPRMC,213926,A,3946.9656,N,08404.9727,W,0.0000,0.000,011217,,*31
2017-12-01 16:39:25 1512164365.386191: $GPGSA,A,3,1,10,11,14,22,31,32,12,25,26,18,138,2.0,1.0,1.5*30
2017-12-01 16:39:26 1512164366.379125: $GPZDA,213927.00,01,12,2017,00,00*6C
2017-12-01 16:39:26 1512164366.379280: $GPGGA,213927,3946.9656,N,08404.9727,W,2,12,0.80,299.50,M,-33.324,M,,*7C
2017-12-01 16:39:26 1512164366.379349: $GPRMC,213927,A,3946.9656,N,08404.9727,W,0.0000,0.000,011217,,*30
2017-12-01 16:39:26 1512164366.379410: $GPGSA,A,3,1,10,11,14,22,31,32,12,25,26,18,138,2.0,0.8,1.5*39
2017-12-01 16:39:27 1512164367.704704: $GPGSV,3,1,12,01,22,297,44,10,44,150,42,11,07,279,35,14,67,336,45*78
2017-12-01 16:39:27 1512164367.704895: $GPGSV,3,2,12,22,22,312,45,31,60,229,49,32,67,039,47,12,20,046,31*72
2017-12-01 16:39:27 1512164367.704963: $GPGSV,3,3,12,25,40,085,28,26,05,181,30,18,14,145,20,138,38,213,40*4F
2017-12-01 16:39:27 1512164367.818541: $GPZDA,213928.00,01,12,2017,00,00*63
2017-12-01 16:39:27 1512164367.818680: $GPGGA,213928,3946.9656,N,08404.9727,W,2,12,0.80,299.50,M,-33.324,M,,*73
2017-12-01 16:39:27 1512164367.818801: $GPRMC,213928,A,3946.9656,N,08404.9727,W,0.0000,0.000,011217,,*3F
2017-12-01 16:39:27 1512164367.818871: $GPGSA,A,3,1,10,11,14,22,31,32,12,25,26,18,138,2.0,0.8,1.5*39
2017-12-01 16:39:28 1512164368.443609: $GPZDA,213929.00,01,12,2017,00,00*62
2017-12-01 16:39:28 1512164368.443790: $GPGGA,213929,3946.9656,N,08404.9727,W,2,12,0.80,299.50,M,-33.324,M,,*72
2017-12-01 16:39:28 1512164368.443863: $GPRMC,213929,A,3946.9656,N,08404.9727,W,0.0000,0.000,011217,,*3E
2017-12-01 16:39:28 1512164368.443925: $GPGSA,A,3,1,10,11,14,22,31,32,12,25,26,18,138,2.0,0.8,1.5*39
2017-12-01 16:39:29 1512164369.368057: $GPZDA,213930.00,01,12,2017,00,00*6A
2017-12-01 16:39:29 1512164369.368236: $GPGGA,213930,3946.9656,N,08404.9727,W,2,12,0.80,299.50,M,-33.324,M,,*7A
2017-12-01 16:39:29 1512164369.368303: $GPRMC,213930,A,3946.9656,N,08404.9727,W,0.0000,0.000,011217,,*36
2017-12-01 16:39:29 1512164369.368366: $GPGSA,A,3,1,10,11,14,22,31,32,12,25,26,18,138,2.0,0.8,1.5*39
2017-12-01 16:39:30 1512164370.703832: $GPGSV,3,1,12,01,22,297,44,10,44,150,42,11,07,279,33,14,67,336,45*7E
2017-12-01 16:39:30 1512164370.704019: $GPGSV,3,2,12,22,22,312,44,31,60,229,49,32,67,039,48,12,20,046,30*7D
2017-12-01 16:39:30 1512164370.704088: $GPGSV,3,3,12,25,40,085,28,26,05,181,30,18,14,145,20,138,38,213,40*4F
2017-12-01 16:39:30 1512164370.817561: $GPZDA,213931.00,01,12,2017,00,00*6B
2017-12-01 16:39:30 1512164370.817726: $GPGGA,213931,3946.9656,N,08404.9727,W,2,12,0.80,299.50,M,-33.324,M,,*7B
2017-12-01 16:39:30 1512164370.817795: $GPRMC,213931,A,3946.9656,N,08404.9727,W,0.0000,0.000,011217,,*37
2017-12-01 16:39:30 1512164370.817861: $GPGSA,A,3,1,10,11,14,22,31,32,12,25,26,18,138,2.0,0.8,1.5*39
2017-12-01 16:39:31 1512164371.369316: $GPZDA,213932.00,01,12,2017,00,00*68
2017-12-01 16:39:31 1512164371.369508: $GPGGA,213932,3946.9656,N,08404.9727,W,2,12,0.80,299.50,M,-33.324,M,,*78
2017-12-01 16:39:31 1512164371.369576: $GPRMC,213932,A,3946.9656,N,08404.9727,W,0.0000,0.000,011217,,*34
2017-12-01 16:39:31 1512164371.369638: $GPGSA,A,3,1,10,11,14,22,31,32,12,25,26,18,138,2.0,0.8,1.5*39
2017-12-01 16:39:32 1512164372.361462: $GPZDA,213933.00,01,12,2017,00,00*69
2017-12-01 16:39:32 1512164372.361636: $GPGGA,213933,3946.9656,N,08404.9727,W,2,12,0.80,299.50,M,-33.324,M,,*79
2017-12-01 16:39:32 1512164372.361705: $GPRMC,213933,A,3946.9656,N,08404.9727,W,0.0000,0.000,011217,,*35
2017-12-01 16:39:32 1512164372.361770: $GPGSA,A,3,1,10,11,14,22,31,32,12,25,26,18,138,2.0,0.8,1.5*39
2017-12-01 16:39:33 1512164373.704175: $GPGSV,3,1,12,01,22,297,44,10,44,150,42,11,07,279,34,14,67,336,45*79
2017-12-01 16:39:33 1512164373.704355: $GPGSV,3,2,12,22,22,312,45,31,60,229,49,32,67,039,46,12,20,046,30*72
2017-12-01 16:39:33 1512164373.704421: $GPGSV,3,3,12,25,40,085,28,26,05,181,30,18,14,145,20,138,38,213,38*40
2017-12-01 16:39:33 1512164373.817535: $GPZDA,213934.00,01,12,2017,00,00*6E
2017-12-01 16:39:33 1512164373.817709: $GPGGA,213934,3946.9656,N,08404.9727,W,2,12,0.80,299.50,M,-33.324,M,,*7E
2017-12-01 16:39:33 1512164373.817780: $GPRMC,213934,A,3946.9656,N,08404.9727,W,0.0000,0.000,011217,,*32
2017-12-01 16:39:33 1512164373.817844: $GPGSA,A,3,1,10,11,14,22,31,32,12,25,26,18,138,2.0,0.8,1.5*39
2017-12-01 16:39:34 1512164374.367151: $GPZDA,213935.00,01,12,2017,00,00*6F
2017-12-01 16:39:34 1512164374.367329: $GPGGA,213935,3946.9656,N,08404.9727,W,2,12,1.00,299.50,M,-33.324,M,,*76
2017-12-01 16:39:34 1512164374.367396: $GPRMC,213935,A,3946.9656,N,08404.9727,W,0.0000,0.000,011217,,*33
2017-12-01 16:39:34 1512164374.367459: $GPGSA,A,3,1,10,11,14,22,31,32,12,25,26,18,138,2.0,1.0,1.5*30
2017-12-01 16:39:35 1512164375.368392: $GPZDA,213936.00,01,12,2017,00,00*6C
2017-12-01 16:39:35 1512164375.368568: $GPGGA,213936,3946.9656,N,08404.9727,W,2,12,1.00,299.50,M,-33.324,M,,*75
2017-12-01 16:39:35 1512164375.368635: $GPRMC,213936,A,3946.9656,N,08404.9727,W,0.0000,0.000,011217,,*30
2017-12-01 16:39:35 1512164375.368698: $GPGSA,A,3,1,10,11,14,22,31,32,12,25,26,18,138,2.0,1.0,1.5*30
2017-12-01 16:39:36 1512164376.703779: $GPGSV,3,1,12,01,22,297,44,10,44,150,42,11,07,279,34,14,67,336,44*78
2017-12-01 16:39:36 1512164376.703970: $GPGSV,3,2,12,22,22,312,45,31,60,229,49,32,67,039,47,12,20,046,30*73
2017-12-01 16:39:36 1512164376.704036: $GPGSV,3,3,12,25,40,085,28,26,05,181,29,03,03,316,29,138,38,213,40*46
2017-12-01 16:39:36 1512164376.817108: $GPZDA,213937.00,01,12,2017,00,00*6D
2017-12-01 16:39:36 1512164376.817262: $GPGGA,213937,3946.9656,N,08404.9727,W,2,12,1.00,299.50,M,-33.324,M,,*74
2017-12-01 16:39:36 1512164376.817331: $GPRMC,213937,A,3946.9656,N,08404.9727,W,0.0000,0.000,011217,,*31
2017-12-01 16:39:36 1512164376.817392: $GPGSA,A,3,1,10,11,14,22,31,32,12,25,26,3,138,2.0,1.0,1.5*0A
2017-12-01 16:39:37 1512164377.370918: $GPZDA,213938.00,01,12,2017,00,00*62
2017-12-01 16:39:37 1512164377.371091: $GPGGA,213938,3946.9656,N,08404.9727,W,2,12,1.00,299.50,M,-33.324,M,,*7B
2017-12-01 16:39:37 1512164377.371159: $GPRMC,213938,A,3946.9656,N,08404.9727,W,0.0000,0.000,011217,,*3E
2017-12-01 16:39:37 1512164377.371222: $GPGSA,A,3,1,10,11,14,22,31,32,12,25,26,3,138,2.0,1.0,1.5*0A
2017-12-01 16:39:38 1512164378.369670: $GPZDA,213939.00,01,12,2017,00,00*63
2017-12-01 16:39:38 1512164378.369870: $GPGGA,213939,3946.9656,N,08404.9727,W,2,12,1.00,299.50,M,-33.324,M,,*7A
2017-12-01 16:39:38 1512164378.369941: $GPRMC,213939,A,3946.9656,N,08404.9727,W,0.0000,0.000,011217,,*3F
2017-12-01 16:39:38 1512164378.370002: $GPGSA,A,3,1,10,11,14,22,31,32,12,25,26,3,138,2.0,1.0,1.5*0A
2017-12-01 16:39:39 1512164379.705410: $GPGSV,3,1,12,01,22,297,43,10,44,150,42,11,07,279,34,14,67,336,44*7F
2017-12-01 16:39:39 1512164379.705577: $GPGSV,3,2,12,22,22,312,45,31,60,229,49,32,67,039,47,12,20,046,30*73
2017-12-01 16:39:39 1512164379.705644: $GPGSV,3,3,12,25,40,085,28,26,05,181,29,18,14,145,20,138,38,213,41*46
2017-12-01 16:39:39 1512164379.817720: $GPZDA,213940.00,01,12,2017,00,00*6D
2017-12-01 16:39:39 1512164379.817898: $GPGGA,213940,3946.9656,N,08404.9727,W,2,12,0.80,299.50,M,-33.324,M,,*7D
2017-12-01 16:39:39 1512164379.817967: $GPRMC,213940,A,3946.9656,N,08404.9727,W,0.0000,0.000,011217,,*31
2017-12-01 16:39:39 1512164379.818028: $GPGSA,A,3,1,10,11,14,22,31,32,12,25,26,18,138,2.0,0.8,1.5*39
2017-12-01 16:39:40 1512164380.368939: $GPZDA,213941.00,01,12,2017,00,00*6C
2017-12-01 16:39:40 1512164380.369115: $GPGGA,213941,3946.9656,N,08404.9727,W,2,12,1.00,299.50,M,-33.324,M,,*75
2017-12-01 16:39:40 1512164380.369183: $GPRMC,213941,A,3946.9656,N,08404.9727,W,0.0000,0.000,011217,,*30
2017-12-01 16:39:40 1512164380.369245: $GPGSA,A,3,1,10,11,14,22,31,32,12,25,26,18,138,2.0,1.0,1.5*30
