2017-11-15 18:49:55 1510789795.272372: {"class":"VERSION","release":"3.17","rev":"3.17","proto_major":3,"proto_minor":12}
2017-11-15 18:49:55 1510789795.272818: {"class":"DEVICES","devices":[{"class":"DEVICE","path":"/dev/ttyUSB0","driver":"SiRF","subtype":"9\u0006GSD4e_4.1.2-P1_RPATCH.05-F-GPS-4R-1510281 11/03/2015 307","activated":"2017-11-15T23:49:55.216Z","flags":1,"native":1,"bps":4800,"parity":"N","stopbits":1,"cycle":1.00}]}
2017-11-15 18:49:55 1510789795.272941: {"class":"WATCH","enable":true,"json":false,"nmea":true,"raw":0,"scaled":false,"timing":false,"split24":false,"pps":false}
2017-11-15 18:49:55 1510789795.329772: $GPZDA,234954.00,15,11,2017,00,00*6B
2017-11-15 18:49:55 1510789795.329923: $GPGGA,234954,3946.9501,N,08404.9507,W,1,07,1.40,323.02,M,-33.324,M,,*71
2017-11-15 18:49:55 1510789795.329983: $GPRMC,234954,A,3946.9501,N,08404.9507,W,1.1824,309.173,151117,,*37
2017-11-15 18:49:55 1510789795.330039: $GPGSA,A,3,14,3,32,31,26,16,22,,,,,,3.4,1.4,2.9*0D
2017-11-15 18:49:56 1510789796.328934: $GPZDA,234955.00,15,11,2017,00,00*6A
2017-11-15 18:49:56 1510789796.329097: $GPGGA,234955,3946.9505,N,08404.9507,W,1,07,1.40,323.66,M,-33.324,M,,*76
2017-11-15 18:49:56 1510789796.329160: $GPRMC,234955,A,3946.9505,N,08404.9507,W,0.5467,339.487,151117,,*31
2017-11-15 18:49:56 1510789796.329218: $GPGSA,A,3,14,3,32,31,26,16,22,,,,,,3.4,1.4,2.9*0D
2017-11-15 18:49:57 1510789797.702113: $GPGSV,3,1,12,12,01,030,14,14,66,060,20,03,27,313,11,32,50,088,19*76
2017-11-15 18:49:57 1510789797.702287: $GPGSV,3,2,12,31,79,322,28,26,33,177,15,16,05,190,13,29,03,087,11*70
2017-11-15 18:49:57 1510789797.702350: $GPGSV,3,3,12,25,31,049,00,22,44,295,22,01,15,267,00,120,07,103,00*4C
2017-11-15 18:49:57 1510789797.815528: $GPZDA,234956.00,15,11,2017,00,00*69
2017-11-15 18:49:57 1510789797.815699: $GPGGA,234956,3946.9505,N,08404.9514,W,1,08,1.40,323.58,M,-33.324,M,,*75
2017-11-15 18:49:57 1510789797.815758: $GPRMC,234956,A,3946.9505,N,08404.9514,W,0.7246,344.668,151117,,*3E
2017-11-15 18:49:57 1510789797.815815: $GPGSA,A,3,14,3,32,31,26,16,29,22,,,,,3.4,1.4,2.9*06
2017-11-15 18:49:58 1510789798.372641: $GPZDA,234957.00,15,11,2017,00,00*68
2017-11-15 18:49:58 1510789798.372827: $GPGGA,234957,3946.9509,N,08404.9513,W,1,08,1.40,322.82,M,-33.324,M,,*79
2017-11-15 18:49:58 1510789798.372888: $GPRMC,234957,A,3946.9509,N,08404.9513,W,0.8695,348.958,151117,,*31
2017-11-15 18:49:58 1510789798.372944: $GPGSA,A,3,14,3,32,31,26,16,29,22,,,,,3.4,1.4,2.9*06
2017-11-15 18:49:59 1510789799.328446: $GPZDA,234958.00,15,11,2017,00,00*67
2017-11-15 18:50:00 1510789800.228100: $GPGGA,234958,3946.9516,N,08404.9512,W,1,08,1.40,322.69,M,-33.324,M,,*7C
2017-11-15 18:50:00 1510789800.228236: $GPRMC,234958,A,3946.9516,N,08404.9512,W,1.7115,4.197,151117,,*30
2017-11-15 18:50:00 1510789800.228296: $GPGSA,A,3,14,3,32,31,26,16,29,22,,,,,3.4,1.4,2.9*06
2017-11-15 18:50:00 1510789800.703127: $GPGSV,3,1,12,25,31,049,00,14,66,060,21,03,27,313,12,32,50,088,19*78
2017-11-15 18:50:00 1510789800.703313: $GPGSV,3,2,12,31,79,322,28,26,33,177,15,16,05,190,05,29,03,087,12*74
2017-11-15 18:50:00 1510789800.703374: $GPGSV,3,3,12,01,15,267,00,22,44,295,22,10,14,157,00,120,07,103,00*43
2017-11-15 18:50:00 1510789800.816305: $GPZDA,234959.00,15,11,2017,00,00*66
2017-11-15 18:50:00 1510789800.816477: $GPGGA,234959,3946.9520,N,08404.9512,W,1,08,1.40,321.93,M,-33.324,M,,*7E
2017-11-15 18:50:00 1510789800.816539: $GPRMC,234959,A,3946.9520,N,08404.9512,W,1.5746,354.845,151117,,*36
2017-11-15 18:50:00 1510789800.816594: $GPGSA,A,3,14,3,32,31,26,16,29,22,,,,,3.4,1.4,2.9*06
2017-11-15 18:50:01 1510789801.441862: $GPZDA,235000.00,15,11,2017,00,00*62
2017-11-15 18:50:01 1510789801.442023: $GPGGA,235000,3946.9524,N,08404.9512,W,1,08,1.40,322.57,M,-33.324,M,,*75
2017-11-15 18:50:01 1510789801.442083: $GPRMC,235000,A,3946.9524,N,08404.9512,W,1.2381,352.270,151117,,*34
2017-11-15 18:50:01 1510789801.442139: $GPGSA,A,3,14,3,32,31,26,16,29,22,,,,,3.4,1.4,2.9*06
2017-11-15 18:50:02 1510789802.371354: $GPZDA,235001.00,15,11,2017,00,00*63
2017-11-15 18:50:02 1510789802.371524: $GPGGA,235001,3946.9527,N,08404.9511,W,1,08,1.40,321.81,M,-33.324,M,,*7C
2017-11-15 18:50:02 1510789802.371638: $GPRMC,235001,A,3946.9527,N,08404.9511,W,0.8709,3.298,151117,,*3B
2017-11-15 18:50:02 1510789802.371696: $GPGSA,A,3,14,3,32,31,26,16,29,22,,,,,3.4,1.4,2.9*06
2017-11-15 18:50:03 1510789803.667194: $GPGSV,3,1,12,12,01,030,15,14,66,060,21,03,27,313,13,32,50,088,19*74
2017-11-15 18:50:03 1510789803.667371: $GPGSV,3,2,12,31,79,322,28,26,33,177,15,16,05,190,04,29,03,087,12*75
2017-11-15 18:50:03 1510789803.667430: $GPGSV,3,3,12,25,31,049,00,22,44,295,22,01,15,267,00,120,07,103,00*4C
2017-11-15 18:50:03 1510789803.779185: $GPZDA,235002.00,15,11,2017,00,00*60
2017-11-15 18:50:03 1510789803.779354: $GPGGA,235002,3946.9527,N,08404.9511,W,1,07,1.40,321.81,M,-33.324,M,,*70
2017-11-15 18:50:03 1510789803.779415: $GPRMC,235002,A,3946.9527,N,08404.9511,W,0.4207,39.347,151117,,*05
2017-11-15 18:50:03 1510789803.779471: $GPGSA,A,3,14,3,32,31,26,29,22,,,,,,3.4,1.4,2.9*01
2017-11-15 18:50:04 1510789804.331069: $GPZDA,235003.00,15,11,2017,00,00*61
2017-11-15 18:50:04 1510789804.334912: $GPGGA,235003,3946.9527,N,08404.9504,W,1,07,1.40,321.88,M,-33.324,M,,*7C
2017-11-15 18:50:04 1510789804.335007: $GPRMC,235003,A,3946.9527,N,08404.9504,W,0.5951,58.684,151117,,*04
2017-11-15 18:50:04 1510789804.335065: $GPGSA,A,3,14,3,32,31,26,29,22,,,,,,3.4,1.4,2.9*01
2017-11-15 18:50:05 1510789805.328543: $GPZDA,235004.00,15,11,2017,00,00*66
2017-11-15 18:50:05 1510789805.328706: $GPGGA,235004,3946.9531,N,08404.9503,W,1,07,1.40,321.12,M,-33.324,M,,*78
2017-11-15 18:50:05 1510789805.328768: $GPRMC,235004,A,3946.9531,N,08404.9503,W,0.4207,39.347,151117,,*07
2017-11-15 18:50:05 1510789805.328823: $GPGSA,A,3,14,3,32,31,26,29,22,,,,,,3.4,1.4,2.9*01
2017-11-15 18:50:06 1510789806.707485: $GPGSV,3,1,12,12,01,030,14,14,66,060,21,03,27,313,16,32,50,088,18*71
2017-11-15 18:50:06 1510789806.707658: $GPGSV,3,2,12,31,79,322,28,26,33,177,15,16,05,190,04,29,03,087,12*75
2017-11-15 18:50:06 1510789806.707718: $GPGSV,3,3,12,25,31,049,00,22,44,295,21,01,15,267,00,120,07,103,00*4F
2017-11-15 18:50:06 1510789806.820776: $GPZDA,235005.00,15,11,2017,00,00*67
2017-11-15 18:50:06 1510789806.820937: $GPGGA,235005,3946.9531,N,08404.9503,W,1,08,1.40,321.12,M,-33.324,M,,*76
2017-11-15 18:50:06 1510789806.820997: $GPRMC,235005,A,3946.9531,N,08404.9503,W,0.5951,58.684,151117,,*02
2017-11-15 18:50:06 1510789806.821053: $GPGSA,A,3,12,14,3,32,31,26,29,22,,,,,3.4,1.4,2.9*02
2017-11-15 18:50:07 1510789807.329327: $GPZDA,235006.00,15,11,2017,00,00*64
2017-11-15 18:50:07 1510789807.329498: $GPGGA,235006,3946.9530,N,08404.9496,W,1,08,1.40,321.20,M,-33.324,M,,*78
2017-11-15 18:50:07 1510789807.329558: $GPRMC,235006,A,3946.9530,N,08404.9496,W,1.1902,58.684,151117,,*0E
2017-11-15 18:50:07 1510789807.329613: $GPGSA,A,3,12,14,3,32,31,26,29,22,,,,,3.4,1.4,2.9*02
2017-11-15 18:50:08 1510789808.365058: $GPZDA,235007.00,15,11,2017,00,00*65
2017-11-15 18:50:08 1510789808.365226: $GPGGA,235007,3946.9538,N,08404.9496,W,1,08,1.40,321.07,M,-33.324,M,,*74
2017-11-15 18:50:08 1510789808.365289: $GPRMC,235007,A,3946.9538,N,08404.9496,W,1.5494,42.258,151117,,*0F
2017-11-15 18:50:08 1510789808.365345: $GPGSA,A,3,12,14,3,32,31,26,29,22,,,,,3.4,1.4,2.9*02
2017-11-15 18:50:09 1510789809.710830: $GPGSV,3,1,12,12,01,030,02,14,66,060,21,03,27,313,16,32,50,088,17*79
2017-11-15 18:50:09 1510789809.711003: $GPGSV,3,2,12,31,79,322,28,26,33,177,15,16,05,190,12,29,03,087,12*72
2017-11-15 18:50:09 1510789809.711064: $GPGSV,3,3,12,25,31,049,00,22,44,295,20,01,15,267,00,120,07,103,00*4E
2017-11-15 18:50:09 1510789809.824334: $GPZDA,235008.00,15,11,2017,00,00*6A
2017-11-15 18:50:09 1510789809.824532: $GPGGA,235008,3946.9537,N,08404.9489,W,1,08,1.40,321.15,M,-33.324,M,,*79
2017-11-15 18:50:09 1510789809.824595: $GPRMC,235008,A,3946.9537,N,08404.9489,W,2.0037,50.691,151117,,*08
2017-11-15 18:50:09 1510789809.824652: $GPGSA,A,3,14,3,32,31,26,16,29,22,,,,,3.4,1.4,2.9*06
2017-11-15 18:50:10 1510789810.330029: $GPZDA,235009.00,15,11,2017,00,00*6B
2017-11-15 18:50:10 1510789810.330198: $GPGGA,235009,3946.9541,N,08404.9481,W,1,08,1.40,320.47,M,-33.324,M,,*77
2017-11-15 18:50:10 1510789810.330313: $GPRMC,235009,A,3946.9541,N,08404.9481,W,2.1868,55.032,151117,,*09
2017-11-15 18:50:10 1510789810.330371: $GPGSA,A,3,14,3,32,31,26,16,29,22,,,,,3.4,1.4,2.9*06
2017-11-15 18:50:11 1510789811.372382: $GPZDA,235010.00,15,11,2017,00,00*63
2017-11-15 18:50:11 1510789811.372548: $GPGGA,235010,3946.9548,N,08404.9473,W,1,08,1.40,320.42,M,-33.324,M,,*7E
2017-11-15 18:50:11 1510789811.372607: $GPRMC,235010,A,3946.9548,N,08404.9473,W,1.8343,45.514,151117,,*0D
2017-11-15 18:50:11 1510789811.372662: $GPGSA,A,3,14,3,32,31,26,16,29,22,,,,,3.4,1.4,2.9*06
2017-11-15 18:50:12 1510789812.666192: $GPGSV,3,1,12,12,01,030,12,14,66,060,22,03,27,313,16,32,50,088,17*7B
2017-11-15 18:50:12 1510789812.666368: $GPGSV,3,2,12,31,79,322,28,26,33,177,15,16,05,190,12,29,03,087,11*71
2017-11-15 18:50:12 1510789812.666429: $GPGSV,3,3,12,25,31,049,00,22,44,295,20,01,15,267,00,120,07,103,00*4E
2017-11-15 18:50:12 1510789812.780014: $GPZDA,235011.00,15,11,2017,00,00*62
2017-11-15 18:50:12 1510789812.780187: $GPGGA,235011,3946.9548,N,08404.9473,W,1,08,1.40,320.42,M,-33.324,M,,*7F
2017-11-15 18:50:12 1510789812.780248: $GPRMC,235011,A,3946.9548,N,08404.9473,W,1.1385,29.379,151117,,*08
2017-11-15 18:50:12 1510789812.780303: $GPGSA,A,3,14,3,32,31,26,16,29,22,,,,,3.4,1.4,2.9*06
2017-11-15 18:50:13 1510789813.330659: $GPZDA,235012.00,15,11,2017,00,00*61
2017-11-15 18:50:13 1510789813.330823: $GPGGA,235012,3946.9548,N,08404.9473,W,1,08,1.40,320.42,M,-33.324,M,,*7C
2017-11-15 18:50:13 1510789813.330883: $GPRMC,235012,A,3946.9548,N,08404.9473,W,0.6846,4.197,151117,,*34
2017-11-15 18:50:13 1510789813.330939: $GPGSA,A,3,14,3,32,31,26,16,29,22,,,,,3.4,1.4,2.9*06
2017-11-15 18:50:14 1510789814.374027: $GPZDA,235013.00,15,11,2017,00,00*60
2017-11-15 18:50:14 1510789814.374187: $GPGGA,235013,3946.9551,N,08404.9472,W,1,08,1.40,319.66,M,-33.324,M,,*78
2017-11-15 18:50:14 1510789814.374247: $GPRMC,235013,A,3946.9551,N,08404.9472,W,1.1124,302.165,151117,,*3F
2017-11-15 18:50:14 1510789814.374303: $GPGSA,A,3,14,3,32,31,26,16,29,22,,,,,3.4,1.4,2.9*06
2017-11-15 18:50:15 1510789815.665798: $GPGSV,3,1,12,25,31,049,00,14,66,060,22,03,27,313,16,32,50,088,17*71
2017-11-15 18:50:15 1510789815.665968: $GPGSV,3,2,12,31,79,322,29,26,33,177,15,16,05,190,12,29,03,087,08*78
2017-11-15 18:50:15 1510789815.666027: $GPGSV,3,3,12,01,15,267,00,22,44,295,20,10,14,157,00,120,07,103,00*41
2017-11-15 18:50:15 1510789815.779424: $GPZDA,235014.00,15,11,2017,00,00*67
2017-11-15 18:50:15 1510789815.779584: $GPGGA,235014,3946.9552,N,08404.9479,W,1,08,1.40,319.58,M,-33.324,M,,*7A
2017-11-15 18:50:15 1510789815.779644: $GPRMC,235014,A,3946.9552,N,08404.9479,W,1.7007,304.596,151117,,*38
2017-11-15 18:50:15 1510789815.779699: $GPGSA,A,3,14,3,32,31,26,16,29,22,,,,,3.4,1.4,2.9*06
2017-11-15 18:50:16 1510789816.404552: $GPZDA,235015.00,15,11,2017,00,00*66
2017-11-15 18:50:16 1510789816.404741: $GPGGA,235015,3946.9552,N,08404.9479,W,1,08,1.40,319.58,M,-33.324,M,,*7B
2017-11-15 18:50:16 1510789816.404803: $GPRMC,235015,A,3946.9552,N,08404.9479,W,1.5558,293.657,151117,,*35
2017-11-15 18:50:16 1510789816.404858: $GPGSA,A,3,14,3,32,31,26,16,29,22,,,,,3.4,1.4,2.9*06
2017-11-15 18:50:17 1510789817.329109: $GPZDA,235016.00,15,11,2017,00,00*65
2017-11-15 18:50:17 1510789817.329283: $GPGGA,235016,3946.9552,N,08404.9486,W,1,08,1.40,319.50,M,-33.324,M,,*70
2017-11-15 18:50:17 1510789817.329345: $GPRMC,235016,A,3946.9552,N,08404.9486,W,1.2562,289.606,151117,,*37
2017-11-15 18:50:17 1510789817.329400: $GPGSA,A,3,14,3,32,31,26,16,29,22,,,,,3.4,1.4,2.9*06
2017-11-15 18:50:18 1510789818.702434: $GPGSV,3,1,12,25,31,049,00,14,66,060,22,03,27,313,16,32,50,088,16*70
2017-11-15 18:50:18 1510789818.702606: $GPGSV,3,2,12,31,79,322,29,26,33,177,15,16,05,190,07,29,03,087,06*72
2017-11-15 18:50:18 1510789818.702667: $GPGSV,3,3,12,01,15,267,00,22,44,295,19,10,14,157,00,120,07,103,00*4B
2017-11-15 18:50:18 1510789818.815825: $GPZDA,235017.00,15,11,2017,00,00*64
2017-11-15 18:50:18 1510789818.815994: $GPGGA,235017,3946.9555,N,08404.9486,W,1,08,1.40,318.74,M,-33.324,M,,*71
2017-11-15 18:50:18 1510789818.816104: $GPRMC,235017,A,3946.9555,N,08404.9486,W,1.0253,293.297,151117,,*31
2017-11-15 18:50:18 1510789818.816162: $GPGSA,A,3,14,3,32,31,26,16,29,22,,,,,3.4,1.4,2.9*06
2017-11-15 18:50:19 1510789819.329085: $GPZDA,235018.00,15,11,2017,00,00*6B
2017-11-15 18:50:19 1510789819.329255: $GPGGA,235018,3946.9560,N,08404.9493,W,1,08,1.40,319.30,M,-33.324,M,,*7D
2017-11-15 18:50:19 1510789819.329316: $GPRMC,235018,A,3946.9560,N,08404.9493,W,1.0253,293.297,151117,,*3C
2017-11-15 18:50:19 1510789819.329372: $GPGSA,A,3,14,3,32,31,26,16,29,22,,,,,3.4,1.4,2.9*06
2017-11-15 18:50:20 1510789820.329041: $GPZDA,235019.00,15,11,2017,00,00*6A
2017-11-15 18:50:20 1510789820.329218: $GPGGA,235019,3946.9560,N,08404.9493,W,1,08,1.40,319.30,M,-33.324,M,,*7C
2017-11-15 18:50:20 1510789820.329277: $GPRMC,235019,A,3946.9560,N,08404.9493,W,1.4978,309.346,151117,,*34
2017-11-15 18:50:20 1510789820.329333: $GPGSA,A,3,14,3,32,31,26,16,29,22,,,,,3.4,1.4,2.9*06
2017-11-15 18:50:21 1510789821.701563: $GPGSV,3,1,11,12,01,030,11,14,66,060,22,03,27,313,15,32,50,088,16*79
2017-11-15 18:50:21 1510789821.701733: $GPGSV,3,2,11,31,79,322,29,26,33,177,15,16,05,190,06,29,03,087,04*72
2017-11-15 18:50:21 1510789821.701792: $GPGSV,3,3,11,01,15,267,05,22,44,295,18,25,31,049,00*45
2017-11-15 18:50:21 1510789821.815144: $GPZDA,235020.00,15,11,2017,00,00*60
2017-11-15 18:50:21 1510789821.815308: $GPGGA,235020,3946.9563,N,08404.9492,W,1,07,1.40,318.53,M,-33.324,M,,*7F
2017-11-15 18:50:21 1510789821.815367: $GPRMC,235020,A,3946.9563,N,08404.9492,W,1.8971,313.549,151117,,*3B
2017-11-15 18:50:21 1510789821.815423: $GPGSA,A,3,14,3,32,31,26,16,22,,,,,,3.4,1.4,2.9*0D
2017-11-15 18:50:22 1510789822.329777: $GPZDA,235021.00,15,11,2017,00,00*61
2017-11-15 18:50:22 1510789822.329937: $GPGGA,235021,3946.9571,N,08404.9498,W,1,07,1.40,318.33,M,-33.324,M,,*71
2017-11-15 18:50:22 1510789822.329998: $GPRMC,235021,A,3946.9571,N,08404.9498,W,1.9730,325.827,151117,,*39
2017-11-15 18:50:22 1510789822.330053: $GPGSA,A,3,14,3,32,31,26,16,22,,,,,,3.4,1.4,2.9*0D
2017-11-15 18:50:23 1510789823.371903: $GPZDA,235022.00,15,11,2017,00,00*62
2017-11-15 18:50:23 1510789823.372062: $GPGGA,235022,3946.9571,N,08404.9498,W,1,07,1.40,318.33,M,-33.324,M,,*72
2017-11-15 18:50:23 1510789823.372122: $GPRMC,235022,A,3946.9571,N,08404.9498,W,1.5558,325.035,151117,,*31
2017-11-15 18:50:23 1510789823.372178: $GPGSA,A,3,14,3,32,31,26,16,22,,,,,,3.4,1.4,2.9*0D
2017-11-15 18:50:24 1510789824.666182: $GPGSV,3,1,11,12,01,030,11,14,66,060,22,03,27,313,16,32,50,088,16*7A
2017-11-15 18:50:24 1510789824.666355: $GPGSV,3,2,11,31,79,322,29,26,33,177,14,16,05,190,07,29,03,087,04*72
2017-11-15 18:50:24 1510789824.666414: $GPGSV,3,3,11,01,15,267,14,22,44,295,17,25,31,049,00*4A
2017-11-15 18:50:24 1510789824.779787: $GPZDA,235023.00,15,11,2017,00,00*63
2017-11-15 18:50:24 1510789824.779943: $GPGGA,235023,3946.9579,N,08404.9497,W,1,08,1.40,318.20,M,-33.324,M,,*79
2017-11-15 18:50:24 1510789824.780004: $GPRMC,235023,A,3946.9579,N,08404.9497,W,1.6300,346.404,151117,,*3C
2017-11-15 18:50:24 1510789824.780059: $GPGSA,A,3,12,14,3,32,31,26,16,22,,,,,3.4,1.4,2.9*0E
