2018-01-11 20:11:33 1515719493.960834: {"class":"VERSION","release":"3.16","rev":"3.16-4","proto_major":3,"proto_minor":11}
2018-01-11 20:11:33 1515719493.961171: {"class":"DEVICES","devices":[{"class":"DEVICE","path":"/dev/ttyUSB0","driver":"SiRF","subtype":"9\u0006GSD4e_4.1.2-P1_RPATCH.05-F-GPS-4R-1510281 11/03/2015 307","activated":"2018-01-12T01:11:33.508Z","flags":1,"native":1,"bps":4800,"parity":"N","stopbits":1,"cycle":1.00}]}
2018-01-11 20:11:33 1515719493.961280: {"class":"WATCH","enable":true,"json":false,"nmea":true,"raw":0,"scaled":false,"timing":false,"split24":false,"pps":false}
2018-01-11 20:11:34 1515719494.346749: $GPZDA,011135.00,12,01,2018,00,00*68
2018-01-11 20:11:34 1515719494.346917: $GPGGA,011135,3946.9598,N,08404.9865,W,2,10,0.80,298.36,M,-33.324,M,,*7C
2018-01-11 20:11:34 1515719494.346982: $GPRMC,011135,A,3946.9598,N,08404.9865,W,0.0000,0.000,120118,,*3C
2018-01-11 20:11:34 1515719494.347043: $GPGSA,A,3,7,8,9,11,16,23,27,28,30,138,,,4.0,0.8,3.5*3E
2018-01-11 20:11:34 1515719494.347101: $GPGBS,011135,3.65,M,6.21,M,20.10,M*0F
2018-01-11 20:11:35 1515719495.681655: $GPGSV,3,1,10,07,56,315,41,08,74,130,46,09,47,229,43,11,20,168,48*72
2018-01-11 20:11:35 1515719495.681811: $GPGSV,3,2,10,16,23,060,46,23,29,189,46,27,47,052,48,28,14,258,38*75
2018-01-11 20:11:35 1515719495.681877: $GPGSV,3,3,10,30,29,306,30,138,38,213,46*45
2018-01-11 20:11:35 1515719495.795306: $GPZDA,011136.00,12,01,2018,00,00*6B
2018-01-11 20:11:35 1515719495.795462: $GPGGA,011136,3946.9591,N,08404.9859,W,2,10,0.80,299.96,M,-33.324,M,,*72
2018-01-11 20:11:35 1515719495.795528: $GPRMC,011136,A,3946.9591,N,08404.9859,W,0.0000,0.000,120118,,*39
2018-01-11 20:11:35 1515719495.795589: $GPGSA,A,3,7,8,9,11,16,23,27,28,30,138,,,4.0,0.8,3.5*3E
2018-01-11 20:11:36 1515719496.346186: $GPZDA,011137.00,12,01,2018,00,00*6A
2018-01-11 20:11:36 1515719496.346353: $GPGGA,011137,3946.9591,N,08404.9859,W,2,10,0.80,299.96,M,-33.324,M,,*73
2018-01-11 20:11:36 1515719496.346418: $GPRMC,011137,A,3946.9591,N,08404.9859,W,0.0000,0.000,120118,,*38
2018-01-11 20:11:36 1515719496.346478: $GPGSA,A,3,7,8,9,11,16,23,27,28,30,138,,,4.0,0.8,3.5*3E
2018-01-11 20:11:37 1515719497.348324: $GPZDA,011138.00,12,01,2018,00,00*65
2018-01-11 20:11:37 1515719497.348486: $GPGGA,011138,3946.9591,N,08404.9859,W,2,10,0.80,299.96,M,-33.324,M,,*7C
2018-01-11 20:11:37 1515719497.348551: $GPRMC,011138,A,3946.9591,N,08404.9859,W,0.0000,0.000,120118,,*37
2018-01-11 20:11:37 1515719497.348612: $GPGSA,A,3,7,8,9,11,16,23,27,28,30,138,,,4.0,0.8,3.5*3E
2018-01-11 20:11:38 1515719498.683741: $GPGSV,3,1,10,07,56,315,42,08,74,130,46,09,47,229,43,11,20,168,48*71
2018-01-11 20:11:38 1515719498.683920: $GPGSV,3,2,10,16,23,060,46,23,29,189,46,27,47,052,48,28,14,258,38*75
2018-01-11 20:11:38 1515719498.683987: $GPGSV,3,3,10,30,29,306,31,138,38,213,45*47
2018-01-11 20:11:38 1515719498.797378: $GPZDA,011139.00,12,01,2018,00,00*64
2018-01-11 20:11:38 1515719498.797514: $GPGGA,011139,3946.9591,N,08404.9859,W,2,10,0.80,299.96,M,-33.324,M,,*7D
2018-01-11 20:11:38 1515719498.797579: $GPRMC,011139,A,3946.9591,N,08404.9859,W,0.0000,0.000,120118,,*36
2018-01-11 20:11:38 1515719498.797639: $GPGSA,A,3,7,8,9,11,16,23,27,28,30,138,,,4.0,0.8,3.5*3E
2018-01-11 20:11:39 1515719499.347012: $GPZDA,011140.00,12,01,2018,00,00*6A
2018-01-11 20:11:39 1515719499.347174: $GPGGA,011140,3946.9591,N,08404.9859,W,2,10,0.80,299.96,M,-33.324,M,,*73
2018-01-11 20:11:39 1515719499.347241: $GPRMC,011140,A,3946.9591,N,08404.9859,W,0.0000,0.000,120118,,*38
2018-01-11 20:11:39 1515719499.347301: $GPGSA,A,3,7,8,9,11,16,23,27,28,30,138,,,4.0,0.8,3.5*3E
2018-01-11 20:11:40 1515719500.348689: $GPZDA,011141.00,12,01,2018,00,00*6B
2018-01-11 20:11:40 1515719500.348844: $GPGGA,011141,3946.9591,N,08404.9859,W,2,10,0.80,299.96,M,-33.324,M,,*72
2018-01-11 20:11:40 1515719500.348910: $GPRMC,011141,A,3946.9591,N,08404.9859,W,0.0000,0.000,120118,,*39
2018-01-11 20:11:40 1515719500.348970: $GPGSA,A,3,7,8,9,11,16,23,27,28,30,138,,,4.0,0.8,3.5*3E
2018-01-11 20:11:41 1515719501.685352: $GPGSV,3,1,10,07,56,315,42,08,74,130,46,09,47,229,43,11,20,168,48*71
2018-01-11 20:11:41 1515719501.685572: $GPGSV,3,2,10,16,23,060,46,23,29,189,45,27,47,052,48,28,14,258,38*76
2018-01-11 20:11:41 1515719501.685642: $GPGSV,3,3,10,30,29,306,31,138,38,213,45*47
2018-01-11 20:11:41 1515719501.798971: $GPZDA,011142.00,12,01,2018,00,00*68
2018-01-11 20:11:41 1515719501.799158: $GPGGA,011142,3946.9591,N,08404.9859,W,2,10,0.80,299.96,M,-33.324,M,,*71
2018-01-11 20:11:41 1515719501.799226: $GPRMC,011142,A,3946.9591,N,08404.9859,W,0.0000,0.000,120118,,*3A
2018-01-11 20:11:41 1515719501.799287: $GPGSA,A,3,7,8,9,11,16,23,27,28,30,138,,,4.0,0.8,3.5*3E
2018-01-11 20:11:42 1515719502.347367: $GPZDA,011143.00,12,01,2018,00,00*69
2018-01-11 20:11:42 1515719502.347523: $GPGGA,011143,3946.9591,N,08404.9859,W,2,10,0.80,299.96,M,-33.324,M,,*70
2018-01-11 20:11:42 1515719502.347589: $GPRMC,011143,A,3946.9591,N,08404.9859,W,0.0000,0.000,120118,,*3B
2018-01-11 20:11:42 1515719502.347650: $GPGSA,A,3,7,8,9,11,16,23,27,28,30,138,,,4.0,0.8,3.5*3E
2018-01-11 20:11:43 1515719503.350757: $GPZDA,011144.00,12,01,2018,00,00*6E
2018-01-11 20:11:43 1515719503.350929: $GPGGA,011144,3946.9591,N,08404.9859,W,2,10,0.80,299.96,M,-33.324,M,,*77
2018-01-11 20:11:43 1515719503.350995: $GPRMC,011144,A,3946.9591,N,08404.9859,W,0.0000,0.000,120118,,*3C
2018-01-11 20:11:43 1515719503.351056: $GPGSA,A,3,7,8,9,11,16,23,27,28,30,138,,,4.0,0.8,3.5*3E
2018-01-11 20:11:44 1515719504.683693: $GPGSV,3,1,10,07,56,315,42,08,74,130,46,09,47,229,43,11,20,168,48*71
2018-01-11 20:11:44 1515719504.683851: $GPGSV,3,2,10,16,23,060,46,23,29,189,46,27,47,052,48,28,14,258,38*75
2018-01-11 20:11:44 1515719504.683917: $GPGSV,3,3,10,30,29,306,31,138,38,213,45*47
2018-01-11 20:11:44 1515719504.797300: $GPZDA,011145.00,12,01,2018,00,00*6F
2018-01-11 20:11:44 1515719504.797419: $GPGGA,011145,3946.9591,N,08404.9859,W,2,10,0.80,299.96,M,-33.324,M,,*76
2018-01-11 20:11:44 1515719504.797484: $GPRMC,011145,A,3946.9591,N,08404.9859,W,0.0000,0.000,120118,,*3D
2018-01-11 20:11:44 1515719504.797544: $GPGSA,A,3,7,8,9,11,16,23,27,28,30,138,,,4.0,0.8,3.5*3E
