2017-12-31 18:53:13 1514764393.282038: {"class":"VERSION","release":"3.16","rev":"3.16-4","proto_major":3,"proto_minor":11}
2017-12-31 18:53:13 1514764393.282379: {"class":"DEVICES","devices":[{"class":"DEVICE","path":"/dev/ttyUSB0","driver":"SiRF","activated":"2017-12-31T23:53:13.279Z","flags":1,"native":1,"bps":4800,"parity":"N","stopbits":1,"cycle":1.00}]}
2017-12-31 18:53:13 1514764393.282475: {"class":"WATCH","enable":true,"json":false,"nmea":true,"raw":0,"scaled":false,"timing":false,"split24":false,"pps":false}
2017-12-31 18:53:13 1514764393.392580: $GPZDA,235314.00,31,12,2017,00,00*61
2017-12-31 18:53:13 1514764393.392734: $GPGGA,235314,3946.9578,N,08404.9810,W,2,11,0.80,310.68,M,-33.324,M,,*7E
2017-12-31 18:53:13 1514764393.392800: $GPRMC,235314,A,3946.9578,N,08404.9810,W,0.0000,0.000,311217,,*39
2017-12-31 18:53:13 1514764393.392860: $GPGSA,A,3,22,23,9,3,16,8,31,27,7,26,135,,1.7,0.8,1.3*09
2017-12-31 18:53:14 1514764394.383756: $GPZDA,235315.00,31,12,2017,00,00*60
2017-12-31 18:53:14 1514764394.383911: $GPGGA,235315,3946.9578,N,08404.9810,W,2,11,0.80,310.68,M,-33.324,M,,*7F
2017-12-31 18:53:14 1514764394.383977: $GPRMC,235315,A,3946.9578,N,08404.9810,W,0.0000,0.000,311217,,*38
2017-12-31 18:53:14 1514764394.384037: $GPGSA,A,3,22,23,9,3,16,8,31,27,7,26,135,,1.7,0.8,1.3*09
2017-12-31 18:53:15 1514764395.726216: $GPGSV,3,1,11,22,07,204,28,23,69,279,40,09,37,309,38,03,17,220,31*7D
2017-12-31 18:53:15 1514764395.726392: $GPGSV,3,2,11,16,76,036,44,08,17,175,40,31,15,090,28,27,40,142,40*75
2017-12-31 18:53:15 1514764395.726458: $GPGSV,3,3,11,07,11,285,46,26,43,048,45,135,22,240,44*7C
2017-12-31 18:53:15 1514764395.839813: $GPZDA,235316.00,31,12,2017,00,00*63
2017-12-31 18:53:15 1514764395.839930: $GPGGA,235316,3946.9578,N,08404.9810,W,2,11,0.80,310.68,M,-33.324,M,,*7C
2017-12-31 18:53:15 1514764395.839993: $GPRMC,235316,A,3946.9578,N,08404.9810,W,0.0000,0.000,311217,,*3B
2017-12-31 18:53:15 1514764395.840052: $GPGSA,A,3,22,23,9,3,16,8,31,27,7,26,135,,1.7,0.8,1.3*09
2017-12-31 18:53:16 1514764396.390709: $GPZDA,235317.00,31,12,2017,00,00*62
2017-12-31 18:53:16 1514764396.390878: $GPGGA,235317,3946.9578,N,08404.9810,W,2,11,0.80,310.68,M,-33.324,M,,*7D
2017-12-31 18:53:16 1514764396.390943: $GPRMC,235317,A,3946.9578,N,08404.9810,W,0.0000,0.000,311217,,*3A
2017-12-31 18:53:16 1514764396.391004: $GPGSA,A,3,22,23,9,3,16,8,31,27,7,26,135,,1.7,0.8,1.3*09
2017-12-31 18:53:17 1514764397.352832: $GPZDA,235318.00,31,12,2017,00,00*6D
2017-12-31 18:53:17 1514764397.353012: $GPGGA,235318,3946.9578,N,08404.9810,W,2,11,0.80,310.68,M,-33.324,M,,*72
2017-12-31 18:53:17 1514764397.353077: $GPRMC,235318,A,3946.9578,N,08404.9810,W,0.0000,0.000,311217,,*35
2017-12-31 18:53:17 1514764397.353138: $GPGSA,A,3,22,23,9,3,16,8,31,27,7,26,135,,1.7,0.8,1.3*09
2017-12-31 18:53:18 1514764398.682070: $GPGSV,3,1,11,22,07,204,28,23,69,279,34,09,37,309,37,03,17,220,31*71
2017-12-31 18:53:18 1514764398.682239: $GPGSV,3,2,11,16,76,036,44,08,17,175,40,31,15,090,27,27,40,142,41*7B
2017-12-31 18:53:18 1514764398.682305: $GPGSV,3,3,11,07,11,285,46,26,43,048,45,135,22,240,44*7C
2017-12-31 18:53:18 1514764398.795418: $GPZDA,235319.00,31,12,2017,00,00*6C
2017-12-31 18:53:18 1514764398.795538: $GPGGA,235319,3946.9578,N,08404.9810,W,2,11,0.80,310.68,M,-33.324,M,,*73
2017-12-31 18:53:18 1514764398.795601: $GPRMC,235319,A,3946.9578,N,08404.9810,W,0.0000,0.000,311217,,*34
2017-12-31 18:53:18 1514764398.795661: $GPGSA,A,3,22,23,9,3,16,8,31,27,7,26,135,,1.7,0.8,1.3*09
2017-12-31 18:53:19 1514764399.392859: $GPZDA,235320.00,31,12,2017,00,00*66
2017-12-31 18:53:19 1514764399.393028: $GPGGA,235320,3946.9574,N,08404.9811,W,2,11,0.80,311.44,M,-33.324,M,,*7B
2017-12-31 18:53:19 1514764399.393093: $GPRMC,235320,A,3946.9574,N,08404.9811,W,0.0000,0.000,311217,,*33
2017-12-31 18:53:19 1514764399.393154: $GPGSA,A,3,22,23,9,3,16,8,31,27,7,26,135,,1.7,0.8,1.3*09
2017-12-31 18:53:20 1514764400.390531: $GPZDA,235321.00,31,12,2017,00,00*67
2017-12-31 18:53:20 1514764400.390707: $GPGGA,235321,3946.9574,N,08404.9811,W,2,11,0.80,311.44,M,-33.324,M,,*7A
2017-12-31 18:53:20 1514764400.390834: $GPRMC,235321,A,3946.9574,N,08404.9811,W,0.0000,0.000,311217,,*32
2017-12-31 18:53:20 1514764400.390898: $GPGSA,A,3,22,23,9,3,16,8,31,27,7,26,135,,1.7,0.8,1.3*09
2017-12-31 18:53:21 1514764401.727511: $GPGSV,3,1,11,22,07,204,28,23,69,279,43,09,37,309,37,03,17,220,32*72
2017-12-31 18:53:21 1514764401.727673: $GPGSV,3,2,11,16,76,036,44,08,17,175,40,31,15,090,27,27,40,142,42*78
2017-12-31 18:53:21 1514764401.727739: $GPGSV,3,3,11,07,11,285,46,26,43,048,45,135,22,240,44*7C
2017-12-31 18:53:21 1514764401.841168: $GPZDA,235322.00,31,12,2017,00,00*64
2017-12-31 18:53:21 1514764401.841323: $GPGGA,235322,3946.9574,N,08404.9811,W,2,11,0.80,311.44,M,-33.324,M,,*79
2017-12-31 18:53:21 1514764401.841390: $GPRMC,235322,A,3946.9574,N,08404.9811,W,0.0000,0.000,311217,,*31
2017-12-31 18:53:21 1514764401.841450: $GPGSA,A,3,22,23,9,3,16,8,31,27,7,26,135,,1.7,0.8,1.3*09
2017-12-31 18:53:22 1514764402.391678: $GPZDA,235323.00,31,12,2017,00,00*65
2017-12-31 18:53:22 1514764402.391922: $GPGGA,235323,3946.9574,N,08404.9811,W,2,11,0.80,311.44,M,-33.324,M,,*78
2017-12-31 18:53:22 1514764402.392069: $GPRMC,235323,A,3946.9574,N,08404.9811,W,0.0000,0.000,311217,,*30
2017-12-31 18:53:22 1514764402.392136: $GPGSA,A,3,22,23,9,3,16,8,31,27,7,26,135,,1.7,0.8,1.3*09
