2017-11-16 17:40:24 1510872024.593469: {"class":"VERSION","release":"3.17","rev":"3.17","proto_major":3,"proto_minor":12}
2017-11-16 17:40:24 1510872024.594009: {"class":"DEVICES","devices":[{"class":"DEVICE","path":"/dev/ttyUSB0","driver":"SiRF","subtype":"9\u0006GSD4e_4.1.2-P1_RPATCH.05-F-GPS-4R-1510281 11/03/2015 307","activated":"2017-11-16T22:40:24.283Z","flags":1,"native":1,"bps":4800,"parity":"N","stopbits":1,"cycle":1.00}]}
2017-11-16 17:40:24 1510872024.594126: {"class":"WATCH","enable":true,"json":false,"nmea":true,"raw":0,"scaled":false,"timing":false,"split24":false,"pps":false}
2017-11-16 17:40:24 1510872024.731360: $GPGSV,3,1,12,01,22,297,39,10,44,150,45,22,22,312,40,12,20,046,48*70
2017-11-16 17:40:24 1510872024.731528: $GPGSV,3,2,12,14,68,337,47,18,15,145,39,26,05,183,26,11,07,279,38*7C
2017-11-16 17:40:24 1510872024.731590: $GPGSV,3,3,12,25,40,085,49,31,59,228,46,32,67,037,50,138,38,213,44*4D
2017-11-16 17:40:24 1510872024.844878: $GPZDA,224023.00,16,11,2017,00,00*60
2017-11-16 17:40:24 1510872024.845102: $GPGGA,224023,3946.9576,N,08404.9841,W,2,12,0.80,303.26,M,-33.324,M,,*78
2017-11-16 17:40:24 1510872024.845183: $GPRMC,224023,A,3946.9576,N,08404.9841,W,0.0000,0.000,161117,,*32
2017-11-16 17:40:24 1510872024.845242: $GPGSA,A,3,1,10,22,12,14,18,26,11,25,31,32,138,1.6,0.8,1.3*3A
2017-11-16 17:40:25 1510872025.397972: $GPZDA,224024.00,16,11,2017,00,00*67
2017-11-16 17:40:25 1510872025.398150: $GPGGA,224024,3946.9576,N,08404.9841,W,2,12,0.80,303.26,M,-33.324,M,,*7F
2017-11-16 17:40:25 1510872025.398215: $GPRMC,224024,A,3946.9576,N,08404.9841,W,0.0000,0.000,161117,,*35
2017-11-16 17:40:25 1510872025.398272: $GPGSA,A,3,1,10,22,12,14,18,26,11,25,31,32,138,1.6,0.8,1.3*3A
2017-11-16 17:40:26 1510872026.393314: $GPZDA,224025.00,16,11,2017,00,00*66
2017-11-16 17:40:26 1510872026.393472: $GPGGA,224025,3946.9576,N,08404.9841,W,2,12,0.80,303.26,M,-33.324,M,,*7E
2017-11-16 17:40:26 1510872026.393534: $GPRMC,224025,A,3946.9576,N,08404.9841,W,0.0000,0.000,161117,,*34
2017-11-16 17:40:26 1510872026.393590: $GPGSA,A,3,1,10,22,12,14,18,26,11,25,31,32,138,1.6,0.8,1.3*3A
2017-11-16 17:40:27 1510872027.722863: $GPGSV,3,1,12,01,22,297,39,10,44,150,45,22,22,312,41,12,20,046,49*70
2017-11-16 17:40:27 1510872027.723040: $GPGSV,3,2,12,14,68,337,47,18,15,145,38,26,05,183,26,11,07,279,38*7D
2017-11-16 17:40:27 1510872027.723101: $GPGSV,3,3,12,25,40,085,49,31,59,228,46,32,67,037,50,138,38,213,44*4D
2017-11-16 17:40:27 1510872027.836201: $GPZDA,224026.00,16,11,2017,00,00*65
2017-11-16 17:40:27 1510872027.836358: $GPGGA,224026,3946.9576,N,08404.9841,W,2,12,0.80,303.26,M,-33.324,M,,*7D
2017-11-16 17:40:27 1510872027.836420: $GPRMC,224026,A,3946.9576,N,08404.9841,W,0.0000,0.000,161117,,*37
2017-11-16 17:40:27 1510872027.836475: $GPGSA,A,3,1,10,22,12,14,18,26,11,25,31,32,138,1.6,0.8,1.3*3A
2017-11-16 17:40:28 1510872028.401034: $GPZDA,224027.00,16,11,2017,00,00*64
2017-11-16 17:40:28 1510872028.401194: $GPGGA,224027,3946.9576,N,08404.9841,W,2,12,0.80,303.26,M,-33.324,M,,*7C
2017-11-16 17:40:28 1510872028.401256: $GPRMC,224027,A,3946.9576,N,08404.9841,W,0.0000,0.000,161117,,*36
2017-11-16 17:40:28 1510872028.401311: $GPGSA,A,3,1,10,22,12,14,18,26,11,25,31,32,138,1.6,0.8,1.3*3A
2017-11-16 17:40:29 1510872029.416904: $GPZDA,224028.00,16,11,2017,00,00*6B
2017-11-16 17:40:29 1510872029.417065: $GPGGA,224028,3946.9576,N,08404.9841,W,2,12,0.80,303.26,M,-33.324,M,,*73
2017-11-16 17:40:29 1510872029.417127: $GPRMC,224028,A,3946.9576,N,08404.9841,W,0.0000,0.000,161117,,*39
2017-11-16 17:40:29 1510872029.417183: $GPGSA,A,3,1,10,22,12,14,18,26,11,25,31,32,138,1.6,0.8,1.3*3A
2017-11-16 17:40:30 1510872030.729936: $GPGSV,3,1,12,01,22,297,39,10,44,150,45,22,22,312,41,12,20,046,49*70
2017-11-16 17:40:30 1510872030.730106: $GPGSV,3,2,12,14,68,337,47,18,15,145,39,26,05,183,26,11,07,279,38*7C
2017-11-16 17:40:30 1510872030.730167: $GPGSV,3,3,12,25,40,085,49,31,59,228,47,32,67,037,50,138,38,213,44*4C
2017-11-16 17:40:30 1510872030.843242: $GPZDA,224029.00,16,11,2017,00,00*6A
2017-11-16 17:40:30 1510872030.843403: $GPGGA,224029,3946.9576,N,08404.9841,W,2,12,0.80,303.26,M,-33.324,M,,*72
2017-11-16 17:40:30 1510872030.843517: $GPRMC,224029,A,3946.9576,N,08404.9841,W,0.0000,0.000,161117,,*38
2017-11-16 17:40:30 1510872030.843575: $GPGSA,A,3,1,10,22,12,14,18,26,11,25,31,32,138,1.6,0.8,1.3*3A
2017-11-16 17:40:31 1510872031.468612: $GPZDA,224030.00,16,11,2017,00,00*62
2017-11-16 17:40:31 1510872031.468777: $GPGGA,224030,3946.9579,N,08404.9841,W,2,12,0.80,302.49,M,-33.324,M,,*7D
2017-11-16 17:40:31 1510872031.468842: $GPRMC,224030,A,3946.9579,N,08404.9841,W,0.0000,0.000,161117,,*3F
2017-11-16 17:40:31 1510872031.468898: $GPGSA,A,3,1,10,22,12,14,18,26,11,25,31,32,138,1.6,0.8,1.3*3A
2017-11-16 17:40:32 1510872032.416971: $GPZDA,224031.00,16,11,2017,00,00*63
2017-11-16 17:40:32 1510872032.417133: $GPGGA,224031,3946.9576,N,08404.9841,W,2,12,0.80,303.26,M,-33.324,M,,*7B
2017-11-16 17:40:32 1510872032.417194: $GPRMC,224031,A,3946.9576,N,08404.9841,W,0.0000,0.000,161117,,*31
2017-11-16 17:40:32 1510872032.417250: $GPGSA,A,3,1,10,22,12,14,18,26,11,25,31,32,138,1.6,0.8,1.3*3A
2017-11-16 17:40:33 1510872033.722760: $GPGSV,3,1,12,01,22,297,36,10,44,150,45,22,22,312,41,12,20,046,49*7F
2017-11-16 17:40:33 1510872033.722938: $GPGSV,3,2,12,14,68,337,46,18,15,145,38,26,05,183,26,11,07,279,38*7C
2017-11-16 17:40:33 1510872033.723000: $GPGSV,3,3,12,25,40,085,49,31,59,228,46,32,67,037,50,138,38,213,43*4A
2017-11-16 17:40:33 1510872033.836132: $GPZDA,224032.00,16,11,2017,00,00*60
2017-11-16 17:40:33 1510872033.836308: $GPGGA,224032,3946.9576,N,08404.9841,W,2,12,0.80,303.26,M,-33.324,M,,*78
2017-11-16 17:40:33 1510872033.836369: $GPRMC,224032,A,3946.9576,N,08404.9841,W,0.0000,0.000,161117,,*32
2017-11-16 17:40:33 1510872033.836425: $GPGSA,A,3,1,10,22,12,14,18,26,11,25,31,32,138,1.6,0.8,1.3*3A
2017-11-16 17:40:34 1510872034.409563: $GPZDA,224033.00,16,11,2017,00,00*61
2017-11-16 17:40:34 1510872034.409749: $GPGGA,224033,3946.9579,N,08404.9841,W,2,12,0.80,302.49,M,-33.324,M,,*7E
2017-11-16 17:40:34 1510872034.409816: $GPRMC,224033,A,3946.9579,N,08404.9841,W,0.0000,0.000,161117,,*3C
2017-11-16 17:40:34 1510872034.409873: $GPGSA,A,3,1,10,22,12,14,18,26,11,25,31,32,138,1.6,0.8,1.3*3A
