2017-11-16 14:20:12 1510860012.046093: {"class":"VERSION","release":"3.17","rev":"3.17","proto_major":3,"proto_minor":12}
2017-11-16 14:20:12 1510860012.046573: {"class":"DEVICES","devices":[{"class":"DEVICE","path":"/dev/ttyUSB0","driver":"SiRF","subtype":"9\u0006GSD4e_4.1.2-P1_RPATCH.05-F-GPS-4R-1510281 11/03/2015 307","activated":"2017-11-16T19:20:11.643Z","flags":1,"native":1,"bps":4800,"parity":"N","stopbits":1,"cycle":1.00}]}
2017-11-16 14:20:12 1510860012.046690: {"class":"WATCH","enable":true,"json":false,"nmea":true,"raw":0,"scaled":false,"timing":false,"split24":false,"pps":false}
2017-11-16 14:20:12 1510860012.840361: $GPGSV,3,1,12,08,07,319,34,10,43,303,47,13,06,049,17,15,35,052,50*71
2017-11-16 14:20:12 1510860012.840529: $GPGSV,3,2,12,18,72,342,47,21,61,189,46,20,31,097,46,24,52,106,48*71
2017-11-16 14:20:12 1510860012.840590: $GPGSV,3,3,12,27,19,286,41,32,22,240,46,14,06,234,29,138,38,213,44*47
2017-11-16 14:20:12 1510860012.953691: $GPZDA,192011.00,16,11,2017,00,00*6F
2017-11-16 14:20:12 1510860012.953847: $GPGGA,192011,3946.9565,N,08404.9857,W,2,12,0.80,303.99,M,-33.324,M,,*76
2017-11-16 14:20:12 1510860012.953906: $GPRMC,192011,A,3946.9565,N,08404.9857,W,0.0000,0.000,161117,,*38
2017-11-16 14:20:12 1510860012.953962: $GPGSA,A,3,8,10,13,15,18,21,20,24,27,32,14,138,1.6,0.8,1.3*35
2017-11-16 14:20:13 1510860013.534493: $GPZDA,192012.00,16,11,2017,00,00*6C
2017-11-16 14:20:13 1510860013.534656: $GPGGA,192012,3946.9565,N,08404.9857,W,2,12,0.80,303.99,M,-33.324,M,,*75
2017-11-16 14:20:13 1510860013.534718: $GPRMC,192012,A,3946.9565,N,08404.9857,W,0.0000,0.000,161117,,*3B
2017-11-16 14:20:13 1510860013.534775: $GPGSA,A,3,8,10,13,15,18,21,20,24,27,32,14,138,1.6,0.8,1.3*35
2017-11-16 14:20:14 1510860014.534859: $GPZDA,192013.00,16,11,2017,00,00*6D
2017-11-16 14:20:14 1510860014.535028: $GPGGA,192013,3946.9565,N,08404.9857,W,2,12,0.80,303.99,M,-33.324,M,,*74
2017-11-16 14:20:14 1510860014.535089: $GPRMC,192013,A,3946.9565,N,08404.9857,W,0.0000,0.000,161117,,*3A
2017-11-16 14:20:14 1510860014.535145: $GPGSA,A,3,8,10,13,15,18,21,20,24,27,32,14,138,1.6,0.8,1.3*35
2017-11-16 14:20:15 1510860015.870678: $GPGSV,3,1,12,08,07,319,28,10,43,303,47,13,06,049,06,15,35,052,50*7C
2017-11-16 14:20:15 1510860015.870848: $GPGSV,3,2,12,18,72,342,47,21,61,189,46,20,31,097,46,24,52,106,48*71
2017-11-16 14:20:15 1510860015.870907: $GPGSV,3,3,12,27,19,286,42,32,22,240,46,14,06,234,28,138,38,213,45*44
2017-11-16 14:20:15 1510860015.984135: $GPZDA,192014.00,16,11,2017,00,00*6A
2017-11-16 14:20:15 1510860015.984338: $GPGGA,192014,3946.9565,N,08404.9857,W,2,12,1.00,303.99,M,-33.324,M,,*7A
2017-11-16 14:20:15 1510860015.984405: $GPRMC,192014,A,3946.9565,N,08404.9857,W,0.0000,0.000,161117,,*3D
2017-11-16 14:20:15 1510860015.984463: $GPGSA,A,3,8,10,13,15,18,21,20,24,27,32,14,138,1.6,1.0,1.3*3C
2017-11-16 14:20:16 1510860016.534877: $GPZDA,192015.00,16,11,2017,00,00*6B
2017-11-16 14:20:16 1510860016.535038: $GPGGA,192015,3946.9565,N,08404.9857,W,2,12,0.80,303.99,M,-33.324,M,,*72
2017-11-16 14:20:16 1510860016.535098: $GPRMC,192015,A,3946.9565,N,08404.9857,W,0.0000,0.000,161117,,*3C
2017-11-16 14:20:16 1510860016.535154: $GPGSA,A,3,8,10,13,15,18,21,20,24,27,32,14,138,1.6,0.8,1.3*35
2017-11-16 14:20:17 1510860017.535762: $GPZDA,192016.00,16,11,2017,00,00*68
2017-11-16 14:20:17 1510860017.535911: $GPGGA,192016,3946.9565,N,08404.9857,W,2,12,1.00,303.99,M,-33.324,M,,*78
2017-11-16 14:20:17 1510860017.535989: $GPRMC,192016,A,3946.9565,N,08404.9857,W,0.0000,0.000,161117,,*3F
2017-11-16 14:20:17 1510860017.536047: $GPGSA,A,3,8,10,13,15,18,21,20,24,27,32,14,138,1.6,1.0,1.3*3C
2017-11-16 14:20:18 1510860018.871492: $GPGSV,3,1,11,08,07,319,29,10,43,303,46,15,35,052,50,18,72,342,47*7A
2017-11-16 14:20:18 1510860018.871658: $GPGSV,3,2,11,21,61,189,46,20,31,097,46,24,52,106,48,27,19,286,42*7F
2017-11-16 14:20:18 1510860018.871717: $GPGSV,3,3,11,32,22,240,46,14,06,234,00,138,38,213,44*7B
2017-11-16 14:20:18 1510860018.983535: $GPZDA,192017.00,16,11,2017,00,00*69
2017-11-16 14:20:18 1510860018.983705: $GPGGA,192017,3946.9565,N,08404.9857,W,2,10,1.00,303.99,M,-33.324,M,,*7B
2017-11-16 14:20:18 1510860018.983816: $GPRMC,192017,A,3946.9565,N,08404.9857,W,0.0000,0.000,161117,,*3E
2017-11-16 14:20:18 1510860018.983874: $GPGSA,A,3,8,10,15,18,21,20,24,27,32,138,,,1.6,1.0,1.3*3B
2017-11-16 14:20:19 1510860019.610081: $GPZDA,192018.00,16,11,2017,00,00*66
2017-11-16 14:20:19 1510860019.610260: $GPGGA,192018,3946.9565,N,08404.9857,W,2,10,1.00,303.99,M,-33.324,M,,*74
2017-11-16 14:20:19 1510860019.610389: $GPRMC,192018,A,3946.9565,N,08404.9857,W,0.0000,0.000,161117,,*31
2017-11-16 14:20:19 1510860019.610449: $GPGSA,A,3,8,10,15,18,21,20,24,27,32,138,,,1.6,1.0,1.3*3B
2017-11-16 14:20:20 1510860020.502214: $GPZDA,192019.00,16,11,2017,00,00*67
2017-11-16 14:20:20 1510860020.502372: $GPGGA,192019,3946.9565,N,08404.9857,W,2,10,1.00,303.99,M,-33.324,M,,*75
2017-11-16 14:20:20 1510860020.502436: $GPRMC,192019,A,3946.9565,N,08404.9857,W,0.0000,0.000,161117,,*30
2017-11-16 14:20:20 1510860020.502492: $GPGSA,A,3,8,10,15,18,21,20,24,27,32,138,,,1.6,1.0,1.3*3B
2017-11-16 14:20:21 1510860021.839301: $GPGSV,3,1,12,08,07,319,28,10,43,303,46,13,06,049,13,15,35,052,50*79
2017-11-16 14:20:21 1510860021.839471: $GPGSV,3,2,12,18,72,342,47,21,61,189,46,20,31,097,46,24,52,106,48*71
2017-11-16 14:20:21 1510860021.839532: $GPGSV,3,3,12,27,19,286,41,32,22,240,46,14,06,234,00,138,38,213,44*4C
2017-11-16 14:20:21 1510860021.953078: $GPZDA,192020.00,16,11,2017,00,00*6D
2017-11-16 14:20:21 1510860021.953232: $GPGGA,192020,3946.9565,N,08404.9857,W,2,10,1.00,303.99,M,-33.324,M,,*7F
2017-11-16 14:20:21 1510860021.953296: $GPRMC,192020,A,3946.9565,N,08404.9857,W,0.0000,0.000,161117,,*3A
2017-11-16 14:20:21 1510860021.953365: $GPGSA,A,3,8,10,15,18,21,20,24,27,32,138,,,1.6,1.0,1.3*3B
2017-11-16 14:20:22 1510860022.502143: $GPZDA,192021.00,16,11,2017,00,00*6C
2017-11-16 14:20:22 1510860022.502303: $GPGGA,192021,3946.9565,N,08404.9857,W,2,10,1.00,303.99,M,-33.324,M,,*7E
2017-11-16 14:20:22 1510860022.502366: $GPRMC,192021,A,3946.9565,N,08404.9857,W,0.0000,0.000,161117,,*3B
2017-11-16 14:20:22 1510860022.502421: $GPGSA,A,3,8,10,15,18,21,20,24,27,32,138,,,1.6,1.0,1.3*3B
2017-11-16 14:20:23 1510860023.503081: $GPZDA,192022.00,16,11,2017,00,00*6F
2017-11-16 14:20:23 1510860023.503254: $GPGGA,192022,3946.9565,N,08404.9857,W,2,10,0.80,303.99,M,-33.324,M,,*74
2017-11-16 14:20:23 1510860023.503316: $GPRMC,192022,A,3946.9565,N,08404.9857,W,0.0000,0.000,161117,,*38
2017-11-16 14:20:23 1510860023.503373: $GPGSA,A,3,8,10,15,18,21,20,24,27,32,138,,,1.6,0.8,1.3*32
2017-11-16 14:20:24 1510860024.839538: $GPGSV,3,1,12,08,07,319,35,10,43,303,46,13,06,049,15,15,35,052,51*72
2017-11-16 14:20:24 1510860024.839728: $GPGSV,3,2,12,18,72,342,46,21,61,189,46,20,31,097,46,24,52,106,47*7F
2017-11-16 14:20:24 1510860024.839790: $GPGSV,3,3,12,27,19,286,40,32,22,240,46,14,06,234,00,138,38,213,43*4A
2017-11-16 14:20:24 1510860024.952851: $GPZDA,192023.00,16,11,2017,00,00*6E
2017-11-16 14:20:24 1510860024.953010: $GPGGA,192023,3946.9565,N,08404.9857,W,2,11,0.80,303.99,M,-33.324,M,,*74
2017-11-16 14:20:24 1510860024.953074: $GPRMC,192023,A,3946.9565,N,08404.9857,W,0.0000,0.000,161117,,*39
2017-11-16 14:20:24 1510860024.953132: $GPGSA,A,3,8,10,13,15,18,21,20,24,27,32,138,,1.6,0.8,1.3*30
2017-11-16 14:20:25 1510860025.504292: $GPZDA,192024.00,16,11,2017,00,00*69
2017-11-16 14:20:25 1510860025.504457: $GPGGA,192024,3946.9565,N,08404.9857,W,2,11,0.80,303.99,M,-33.324,M,,*73
2017-11-16 14:20:25 1510860025.504518: $GPRMC,192024,A,3946.9565,N,08404.9857,W,0.0000,0.000,161117,,*3E
2017-11-16 14:20:25 1510860025.504574: $GPGSA,A,3,8,10,13,15,18,21,20,24,27,32,138,,1.6,0.8,1.3*30
2017-11-16 14:20:26 1510860026.503336: $GPZDA,192025.00,16,11,2017,00,00*68
2017-11-16 14:20:26 1510860026.503496: $GPGGA,192025,3946.9565,N,08404.9857,W,2,11,0.80,303.99,M,-33.324,M,,*72
2017-11-16 14:20:26 1510860026.503560: $GPRMC,192025,A,3946.9565,N,08404.9857,W,0.0000,0.000,161117,,*3F
2017-11-16 14:20:26 1510860026.503616: $GPGSA,A,3,8,10,13,15,18,21,20,24,27,32,138,,1.6,0.8,1.3*30
