2017-11-16 14:47:58 1510861678.815782: {"class":"VERSION","release":"3.17","rev":"3.17","proto_major":3,"proto_minor":12}
2017-11-16 14:47:58 1510861678.816253: {"class":"DEVICES","devices":[{"class":"DEVICE","path":"/dev/ttyUSB0","driver":"SiRF","subtype":"9\u0006GSD4e_4.1.2-P1_RPATCH.05-F-GPS-4R-1510281 11/03/2015 307","activated":"2017-11-16T19:47:58.689Z","flags":1,"native":1,"bps":4800,"parity":"N","stopbits":1,"cycle":1.00}]}
2017-11-16 14:47:58 1510861678.816370: {"class":"WATCH","enable":true,"json":false,"nmea":true,"raw":0,"scaled":false,"timing":false,"split24":false,"pps":false}
2017-11-16 14:47:59 1510861679.529133: $GPZDA,194758.00,16,11,2017,00,00*63
2017-11-16 14:47:59 1510861679.529315: $GPGGA,194758,3946.9568,N,08404.9842,W,2,11,0.80,303.38,M,-33.324,M,,*7B
2017-11-16 14:47:59 1510861679.529379: $GPRMC,194758,A,3946.9568,N,08404.9842,W,0.0000,0.000,161117,,*3D
2017-11-16 14:47:59 1510861679.529435: $GPGSA,A,3,8,10,15,18,21,20,24,27,32,14,138,,1.6,0.8,1.3*37
2017-11-16 14:48:00 1510861680.828084: $GPGSV,3,1,11,08,08,309,30,10,53,313,50,15,25,058,50,18,77,027,44*76
2017-11-16 14:48:00 1510861680.828253: $GPGSV,3,2,11,21,48,183,47,20,22,106,44,24,53,084,49,27,15,274,44*7A
2017-11-16 14:48:00 1510861680.828313: $GPGSV,3,3,11,32,32,249,47,14,16,241,40,138,38,213,44*75
2017-11-16 14:48:00 1510861680.941436: $GPZDA,194759.00,16,11,2017,00,00*62
2017-11-16 14:48:00 1510861680.941604: $GPGGA,194759,3946.9568,N,08404.9842,W,2,11,0.80,303.38,M,-33.324,M,,*7A
2017-11-16 14:48:00 1510861680.941666: $GPRMC,194759,A,3946.9568,N,08404.9842,W,0.0000,0.000,161117,,*3C
2017-11-16 14:48:00 1510861680.941722: $GPGSA,A,3,8,10,15,18,21,20,24,27,32,14,138,,1.6,0.8,1.3*37
2017-11-16 14:48:01 1510861681.491113: $GPZDA,194800.00,16,11,2017,00,00*61
2017-11-16 14:48:01 1510861681.491282: $GPGGA,194800,3946.9568,N,08404.9842,W,2,11,0.80,303.38,M,-33.324,M,,*79
2017-11-16 14:48:01 1510861681.491343: $GPRMC,194800,A,3946.9568,N,08404.9842,W,0.0000,0.000,161117,,*3F
2017-11-16 14:48:01 1510861681.491399: $GPGSA,A,3,8,10,15,18,21,20,24,27,32,14,138,,1.6,0.8,1.3*37
2017-11-16 14:48:02 1510861682.523055: $GPZDA,194801.00,16,11,2017,00,00*60
2017-11-16 14:48:02 1510861682.523230: $GPGGA,194801,3946.9568,N,08404.9842,W,2,11,0.80,303.38,M,-33.324,M,,*78
2017-11-16 14:48:02 1510861682.523292: $GPRMC,194801,A,3946.9568,N,08404.9842,W,0.0000,0.000,161117,,*3E
2017-11-16 14:48:02 1510861682.523348: $GPGSA,A,3,8,10,15,18,21,20,24,27,32,14,138,,1.6,0.8,1.3*37
2017-11-16 14:48:03 1510861683.865378: $GPGSV,3,1,11,08,08,309,22,10,53,313,50,15,25,058,50,18,77,027,44*75
2017-11-16 14:48:03 1510861683.865564: $GPGSV,3,2,11,21,48,183,47,20,22,106,44,24,53,084,49,27,15,274,44*7A
2017-11-16 14:48:03 1510861683.865628: $GPGSV,3,3,11,32,32,249,47,14,16,241,40,138,38,213,42*73
2017-11-16 14:48:03 1510861683.978403: $GPZDA,194802.00,16,11,2017,00,00*63
2017-11-16 14:48:03 1510861683.978574: $GPGGA,194802,3946.9568,N,08404.9842,W,2,11,0.80,303.38,M,-33.324,M,,*7B
2017-11-16 14:48:03 1510861683.978637: $GPRMC,194802,A,3946.9568,N,08404.9842,W,0.0000,0.000,161117,,*3D
2017-11-16 14:48:03 1510861683.978693: $GPGSA,A,3,8,10,15,18,21,20,24,27,32,14,138,,1.6,0.8,1.3*37
2017-11-16 14:48:04 1510861684.603837: $GPZDA,194803.00,16,11,2017,00,00*62
2017-11-16 14:48:04 1510861684.604025: $GPGGA,194803,3946.9568,N,08404.9842,W,2,11,0.80,303.38,M,-33.324,M,,*7A
2017-11-16 14:48:04 1510861684.604088: $GPRMC,194803,A,3946.9568,N,08404.9842,W,0.0000,0.000,161117,,*3C
2017-11-16 14:48:04 1510861684.604165: $GPGSA,A,3,8,10,15,18,21,20,24,27,32,14,138,,1.6,0.8,1.3*37
2017-11-16 14:48:05 1510861685.490902: $GPZDA,194804.00,16,11,2017,00,00*65
2017-11-16 14:48:05 1510861685.491083: $GPGGA,194804,3946.9568,N,08404.9842,W,2,11,0.80,303.38,M,-33.324,M,,*7D
2017-11-16 14:48:05 1510861685.491165: $GPRMC,194804,A,3946.9568,N,08404.9842,W,0.0000,0.000,161117,,*3B
2017-11-16 14:48:05 1510861685.491225: $GPGSA,A,3,8,10,15,18,21,20,24,27,32,14,138,,1.6,0.8,1.3*37
2017-11-16 14:48:06 1510861686.822974: $GPGSV,3,1,11,08,08,309,23,10,53,313,50,15,25,058,50,18,77,027,44*74
2017-11-16 14:48:06 1510861686.823230: $GPGSV,3,2,11,21,48,183,47,20,22,106,44,24,53,084,48,27,15,274,44*7B
2017-11-16 14:48:06 1510861686.823296: $GPGSV,3,3,11,32,32,249,47,14,16,241,40,138,38,213,43*72
2017-11-16 14:48:06 1510861686.936210: $GPZDA,194805.00,16,11,2017,00,00*64
2017-11-16 14:48:06 1510861686.936385: $GPGGA,194805,3946.9568,N,08404.9842,W,2,11,0.80,303.38,M,-33.324,M,,*7C
2017-11-16 14:48:06 1510861686.936451: $GPRMC,194805,A,3946.9568,N,08404.9842,W,0.0000,0.000,161117,,*3A
2017-11-16 14:48:06 1510861686.936507: $GPGSA,A,3,8,10,15,18,21,20,24,27,32,14,138,,1.6,0.8,1.3*37
2017-11-16 14:48:07 1510861687.529989: $GPZDA,194806.00,16,11,2017,00,00*67
2017-11-16 14:48:07 1510861687.530153: $GPGGA,194806,3946.9568,N,08404.9842,W,2,11,0.80,303.38,M,-33.324,M,,*7F
2017-11-16 14:48:07 1510861687.530215: $GPRMC,194806,A,3946.9568,N,08404.9842,W,0.0000,0.000,161117,,*39
2017-11-16 14:48:07 1510861687.530273: $GPGSA,A,3,8,10,15,18,21,20,24,27,32,14,138,,1.6,0.8,1.3*37
2017-11-16 14:48:08 1510861688.522943: $GPZDA,194807.00,16,11,2017,00,00*66
2017-11-16 14:48:08 1510861688.523127: $GPGGA,194807,3946.9568,N,08404.9842,W,2,11,0.80,303.38,M,-33.324,M,,*7E
2017-11-16 14:48:08 1510861688.523195: $GPRMC,194807,A,3946.9568,N,08404.9842,W,0.0000,0.000,161117,,*38
2017-11-16 14:48:08 1510861688.523252: $GPGSA,A,3,8,10,15,18,21,20,24,27,32,14,138,,1.6,0.8,1.3*37
