2018-01-11 19:46:44 1515718004.895117: {"class":"VERSION","release":"3.16","rev":"3.16-4","proto_major":3,"proto_minor":11}
2018-01-11 19:46:44 1515718004.895456: {"class":"DEVICES","devices":[{"class":"DEVICE","path":"/dev/ttyUSB0","driver":"SiRF","subtype":"9\u0006GSD4e_4.1.2-P1_RPATCH.05-F-GPS-4R-1510281 11/03/2015 307","activated":"2018-01-12T00:46:44.488Z","flags":1,"native":1,"bps":4800,"parity":"N","stopbits":1,"cycle":1.00}]}
2018-01-11 19:46:44 1515718004.895566: {"class":"WATCH","enable":true,"json":false,"nmea":true,"raw":0,"scaled":false,"timing":false,"split24":false,"pps":false}
2018-01-11 19:46:45 1515718005.685690: $GPGSV,3,1,12,07,45,310,43,08,64,156,45,09,54,246,43,16,31,054,47*7A
2018-01-11 19:46:45 1515718005.685862: $GPGSV,3,2,12,23,40,193,48,27,55,066,50,11,11,171,30,26,06,066,20*7D
2018-01-11 19:46:45 1515718005.685928: $GPGSV,3,3,12,28,06,250,21,30,20,301,29,21,01,030,00,138,38,213,44*4A
2018-01-11 19:46:45 1515718005.799076: $GPZDA,004646.00,12,01,2018,00,00*6F
2018-01-11 19:46:45 1515718005.799235: $GPGGA,004646,3946.9578,N,08404.9808,W,2,11,0.80,295.03,M,-33.324,M,,*74
2018-01-11 19:46:45 1515718005.799302: $GPRMC,004646,A,3946.9578,N,08404.9808,W,0.0000,0.000,120118,,*3E
2018-01-11 19:46:45 1515718005.799362: $GPGSA,A,3,7,8,9,16,23,27,11,26,28,30,138,,4.0,0.8,3.5*3A
2018-01-11 19:46:46 1515718006.348706: $GPZDA,004647.00,12,01,2018,00,00*6E
2018-01-11 19:46:46 1515718006.348877: $GPGGA,004647,3946.9578,N,08404.9808,W,2,11,0.80,295.03,M,-33.324,M,,*75
2018-01-11 19:46:46 1515718006.348945: $GPRMC,004647,A,3946.9578,N,08404.9808,W,0.0000,0.000,120118,,*3F
2018-01-11 19:46:46 1515718006.349005: $GPGSA,A,3,7,8,9,16,23,27,11,26,28,30,138,,4.0,0.8,3.5*3A
2018-01-11 19:46:47 1515718007.346958: $GPZDA,004648.00,12,01,2018,00,00*61
2018-01-11 19:46:47 1515718007.347124: $GPGGA,004648,3946.9578,N,08404.9808,W,2,11,0.80,295.03,M,-33.324,M,,*7A
2018-01-11 19:46:47 1515718007.347189: $GPRMC,004648,A,3946.9578,N,08404.9808,W,0.0000,0.000,120118,,*30
2018-01-11 19:46:47 1515718007.347249: $GPGSA,A,3,7,8,9,16,23,27,11,26,28,30,138,,4.0,0.8,3.5*3A
2018-01-11 19:46:47 1515718007.347307: $GPGBS,004648,3.65,M,6.21,M,20.10,M*06
2018-01-11 19:46:48 1515718008.684652: $GPGSV,3,1,12,07,45,310,42,08,64,156,45,09,54,246,43,16,31,054,47*7B
2018-01-11 19:46:48 1515718008.684816: $GPGSV,3,2,12,23,40,193,48,27,55,066,50,11,11,171,30,26,06,066,21*7C
2018-01-11 19:46:48 1515718008.684882: $GPGSV,3,3,12,28,06,250,18,30,20,301,29,21,01,030,00,138,38,213,44*40
2018-01-11 19:46:48 1515718008.798063: $GPZDA,004649.00,12,01,2018,00,00*60
2018-01-11 19:46:48 1515718008.798227: $GPGGA,004649,3946.9578,N,08404.9808,W,2,11,0.80,295.03,M,-33.324,M,,*7B
2018-01-11 19:46:48 1515718008.798292: $GPRMC,004649,A,3946.9578,N,08404.9808,W,0.0000,0.000,120118,,*31
2018-01-11 19:46:48 1515718008.798352: $GPGSA,A,3,7,8,9,16,23,27,11,26,28,30,138,,4.0,0.8,3.5*3A
2018-01-11 19:46:49 1515718009.350230: $GPZDA,004650.00,12,01,2018,00,00*68
2018-01-11 19:46:49 1515718009.350394: $GPGGA,004650,3946.9570,N,08404.9815,W,2,11,0.80,293.67,M,-33.324,M,,*73
2018-01-11 19:46:49 1515718009.350459: $GPRMC,004650,A,3946.9570,N,08404.9815,W,0.0000,0.000,120118,,*3D
2018-01-11 19:46:49 1515718009.350520: $GPGSA,A,3,7,8,9,16,23,27,11,26,28,30,138,,4.0,0.8,3.5*3A
2018-01-11 19:46:50 1515718010.347271: $GPZDA,004651.00,12,01,2018,00,00*69
2018-01-11 19:46:51 1515718011.126083: $GPGGA,004651,3946.9570,N,08404.9815,W,2,11,0.80,293.67,M,-33.324,M,,*72
2018-01-11 19:46:51 1515718011.126225: $GPRMC,004651,A,3946.9570,N,08404.9815,W,0.0000,0.000,120118,,*3C
2018-01-11 19:46:51 1515718011.126289: $GPGSA,A,3,7,8,9,16,23,27,11,26,28,30,138,,4.0,0.8,3.5*3A
2018-01-11 19:46:51 1515718011.685478: $GPGSV,3,1,12,07,45,310,42,08,64,156,45,09,54,246,42,16,31,054,47*7A
2018-01-11 19:46:51 1515718011.685636: $GPGSV,3,2,12,23,40,193,48,27,55,066,50,11,11,171,30,26,06,066,20*7D
2018-01-11 19:46:51 1515718011.685716: $GPGSV,3,3,12,28,06,250,18,30,20,301,30,21,01,030,00,138,38,213,44*48
2018-01-11 19:46:51 1515718011.798830: $GPZDA,004652.00,12,01,2018,00,00*6A
2018-01-11 19:46:51 1515718011.799095: $GPGGA,004652,3946.9570,N,08404.9815,W,2,11,0.80,293.67,M,-33.324,M,,*71
2018-01-11 19:46:51 1515718011.799173: $GPRMC,004652,A,3946.9570,N,08404.9815,W,0.0000,0.000,120118,,*3F
2018-01-11 19:46:51 1515718011.799234: $GPGSA,A,3,7,8,9,16,23,27,11,26,28,30,138,,4.0,0.8,3.5*3A
2018-01-11 19:46:52 1515718012.349775: $GPZDA,004653.00,12,01,2018,00,00*6B
2018-01-11 19:46:52 1515718012.349943: $GPGGA,004653,3946.9570,N,08404.9815,W,2,11,0.80,293.67,M,-33.324,M,,*70
2018-01-11 19:46:52 1515718012.350009: $GPRMC,004653,A,3946.9570,N,08404.9815,W,0.0000,0.000,120118,,*3E
2018-01-11 19:46:52 1515718012.350068: $GPGSA,A,3,7,8,9,16,23,27,11,26,28,30,138,,4.0,0.8,3.5*3A
2018-01-11 19:46:53 1515718013.348836: $GPZDA,004654.00,12,01,2018,00,00*6C
2018-01-11 19:46:53 1515718013.348995: $GPGGA,004654,3946.9570,N,08404.9815,W,2,11,0.80,293.67,M,-33.324,M,,*77
2018-01-11 19:46:53 1515718013.349131: $GPRMC,004654,A,3946.9570,N,08404.9815,W,0.0000,0.000,120118,,*39
2018-01-11 19:46:53 1515718013.349194: $GPGSA,A,3,7,8,9,16,23,27,11,26,28,30,138,,4.0,0.8,3.5*3A
