2017-12-29 14:57:19 1514577439.110540: {"class":"VERSION","release":"3.16","rev":"3.16-4","proto_major":3,"proto_minor":11}
2017-12-29 14:57:19 1514577439.110889: {"class":"DEVICES","devices":[{"class":"DEVICE","path":"/dev/ttyUSB0","driver":"SiRF","subtype":"9\u0006GSD4e_4.1.2-P1_RPATCH.05-F-GPS-4R-1510281 11/03/2015 307","activated":"2017-12-29T19:57:19.040Z","flags":1,"native":1,"bps":4800,"parity":"N","stopbits":1,"cycle":1.00}]}
2017-12-29 14:57:19 1514577439.111014: {"class":"WATCH","enable":true,"json":false,"nmea":true,"raw":0,"scaled":false,"timing":false,"split24":false,"pps":false}
2017-12-29 14:57:19 1514577439.947116: $GPZDA,195720.38,29,12,2017,00,00*69
2017-12-29 14:57:19 1514577439.947295: $GPGGA,195720,3946.9606,N,08404.9802,W,1,12,1.00,299.58,M,-33.324,M,,*77
2017-12-29 14:57:19 1514577439.947363: $GPRMC,195720,A,3946.9606,N,08404.9802,W,0.0407,322.013,291217,,*31
2017-12-29 14:57:19 1514577439.947426: $GPGSA,A,3,1,3,10,26,12,14,18,22,25,31,32,138,1.7,1.0,1.3*01
2017-12-29 14:57:19 1514577439.947484: $GPGBS,195720,10.91,M,10.38,M,30.89,M*07
2017-12-29 14:57:21 1514577441.324576: $GPGSV,3,1,12,01,22,291,37,03,09,316,38,10,37,153,48,18,08,147,09*76
2017-12-29 14:57:21 1514577441.324762: $GPGSV,3,2,12,12,17,042,44,14,69,351,42,22,28,310,41,25,41,078,51*77
2017-12-29 14:57:21 1514577441.324828: $GPGSV,3,3,12,31,67,237,46,32,64,054,50,26,12,180,30,138,38,213,00*46
2017-12-29 14:57:21 1514577441.437907: $GPZDA,195721.00,29,12,2017,00,00*63
2017-12-29 14:57:21 1514577441.438040: $GPGGA,195721,3946.9606,N,08404.9802,W,1,10,0.80,299.58,M,-33.324,M,,*7D
2017-12-29 14:57:21 1514577441.438105: $GPRMC,195721,A,3946.9606,N,08404.9802,W,0.2959,54.767,291217,,*02
2017-12-29 14:57:21 1514577441.438167: $GPGSA,A,3,1,3,10,12,14,22,25,31,32,26,,,1.7,0.8,1.3*3B
2017-12-29 14:57:22 1514577442.061964: $GPZDA,195722.00,29,12,2017,00,00*60
2017-12-29 14:57:22 1514577442.062131: $GPGGA,195722,3946.9603,N,08404.9809,W,1,10,0.80,300.27,M,-33.324,M,,*79
2017-12-29 14:57:22 1514577442.062199: $GPRMC,195722,A,3946.9603,N,08404.9809,W,0.0000,0.000,291217,,*3F
2017-12-29 14:57:22 1514577442.062261: $GPGSA,A,3,1,3,10,12,14,22,25,31,32,26,,,1.7,0.8,1.3*3B
2017-12-29 14:57:22 1514577442.062319: $GPGBS,195722,10.91,M,10.38,M,30.89,M*05
2017-12-29 14:57:22 1514577442.512819: $GPZDA,195723.00,29,12,2017,00,00*61
2017-12-29 14:57:22 1514577442.512990: $GPGGA,195723,3946.9603,N,08404.9809,W,1,10,0.80,300.27,M,-33.324,M,,*78
2017-12-29 14:57:22 1514577442.513058: $GPRMC,195723,A,3946.9603,N,08404.9809,W,0.0000,0.000,291217,,*3E
2017-12-29 14:57:22 1514577442.513120: $GPGSA,A,3,1,3,10,12,14,22,25,31,32,26,,,1.7,0.8,1.3*3B
2017-12-29 14:57:22 1514577442.513178: $GPGBS,195723,10.91,M,10.38,M,30.89,M*04
2017-12-29 14:57:23 1514577443.725550: $GPGSV,3,1,12,01,22,291,37,03,09,316,39,10,37,153,48,18,08,147,30*7D
2017-12-29 14:57:23 1514577443.725725: $GPGSV,3,2,12,12,17,042,45,14,69,351,43,22,28,310,41,25,41,078,52*74
2017-12-29 14:57:23 1514577443.725791: $GPGSV,3,3,12,31,67,237,47,32,64,054,51,26,12,180,30,138,38,213,44*46
2017-12-29 14:57:23 1514577443.838909: $GPZDA,195724.00,29,12,2017,00,00*66
2017-12-29 14:57:23 1514577443.839047: $GPGGA,195724,3946.9599,N,08404.9816,W,1,12,0.80,299.55,M,-33.324,M,,*77
2017-12-29 14:57:23 1514577443.839114: $GPRMC,195724,A,3946.9599,N,08404.9816,W,0.0000,0.000,291217,,*37
2017-12-29 14:57:23 1514577443.839174: $GPGSA,A,3,1,3,10,18,12,14,22,25,31,32,26,138,1.7,0.8,1.3*08
2017-12-29 14:57:24 1514577444.389797: $GPZDA,195725.00,29,12,2017,00,00*67
2017-12-29 14:57:24 1514577444.389976: $GPGGA,195725,3946.9596,N,08404.9817,W,1,12,0.80,300.31,M,-33.324,M,,*7B
2017-12-29 14:57:24 1514577444.390046: $GPRMC,195725,A,3946.9596,N,08404.9817,W,0.0000,0.000,291217,,*38
2017-12-29 14:57:24 1514577444.390112: $GPGSA,A,3,1,3,10,18,12,14,22,25,31,32,26,138,1.7,0.8,1.3*08
2017-12-29 14:57:25 1514577445.389304: $GPZDA,195726.00,29,12,2017,00,00*64
2017-12-29 14:57:25 1514577445.389486: $GPGGA,195726,3946.9596,N,08404.9824,W,1,12,0.80,300.23,M,-33.324,M,,*7B
2017-12-29 14:57:25 1514577445.389557: $GPRMC,195726,A,3946.9596,N,08404.9824,W,0.0000,0.000,291217,,*3B
2017-12-29 14:57:25 1514577445.389676: $GPGSA,A,3,1,3,10,18,12,14,22,25,31,32,26,138,1.7,0.8,1.3*08
2017-12-29 14:57:25 1514577445.389738: $GPGBS,195726,10.91,M,10.38,M,30.89,M*01
2017-12-29 14:57:26 1514577446.725036: $GPGSV,3,1,12,01,22,291,37,03,09,316,39,10,37,153,48,18,08,147,30*7D
2017-12-29 14:57:26 1514577446.725216: $GPGSV,3,2,12,12,17,042,45,14,69,351,43,22,28,310,41,25,41,078,52*74
2017-12-29 14:57:26 1514577446.725282: $GPGSV,3,3,12,31,67,237,46,32,64,054,51,26,12,180,30,138,38,213,44*47
2017-12-29 14:57:26 1514577446.838370: $GPZDA,195727.00,29,12,2017,00,00*65
2017-12-29 14:57:26 1514577446.838505: $GPGGA,195727,3946.9596,N,08404.9824,W,1,12,0.80,300.23,M,-33.324,M,,*7A
2017-12-29 14:57:26 1514577446.838571: $GPRMC,195727,A,3946.9596,N,08404.9824,W,0.0000,0.000,291217,,*3A
2017-12-29 14:57:26 1514577446.838631: $GPGSA,A,3,1,3,10,18,12,14,22,25,31,32,26,138,1.7,0.8,1.3*08
2017-12-29 14:57:27 1514577447.390520: $GPZDA,195728.00,29,12,2017,00,00*6A
2017-12-29 14:57:27 1514577447.390693: $GPGGA,195728,3946.9596,N,08404.9824,W,1,12,0.80,300.23,M,-33.324,M,,*75
2017-12-29 14:57:27 1514577447.390759: $GPRMC,195728,A,3946.9596,N,08404.9824,W,0.0000,0.000,291217,,*35
2017-12-29 14:57:27 1514577447.390821: $GPGSA,A,3,1,3,10,18,12,14,22,25,31,32,26,138,1.7,0.8,1.3*08
2017-12-29 14:57:28 1514577448.390882: $GPZDA,195729.00,29,12,2017,00,00*6B
2017-12-29 14:57:28 1514577448.391118: $GPGGA,195729,3946.9583,N,08404.9854,W,2,12,0.80,301.57,M,-33.324,M,,*76
2017-12-29 14:57:28 1514577448.391196: $GPRMC,195729,A,3946.9583,N,08404.9854,W,0.0000,0.000,291217,,*37
2017-12-29 14:57:28 1514577448.391257: $GPGSA,A,3,1,3,10,18,12,14,22,25,31,32,26,138,1.7,0.8,1.3*08
