2017-12-29 11:06:24 1514563584.676946: {"class":"VERSION","release":"3.16","rev":"3.16-4","proto_major":3,"proto_minor":11}
2017-12-29 11:06:24 1514563584.677277: {"class":"DEVICES","devices":[{"class":"DEVICE","path":"/dev/ttyUSB0","driver":"SiRF","subtype":"9\u0006GSD4e_4.1.2-P1_RPATCH.05-F-GPS-4R-1510281 11/03/2015 307","activated":"2017-12-29T16:06:24.559Z","flags":1,"native":1,"bps":4800,"parity":"N","stopbits":1,"cycle":1.00}]}
2017-12-29 11:06:24 1514563584.677387: {"class":"WATCH","enable":true,"json":false,"nmea":true,"raw":0,"scaled":false,"timing":false,"split24":false,"pps":false}
2017-12-29 11:06:25 1514563585.418093: $GPZDA,160626.00,29,12,2017,00,00*6F
2017-12-29 11:06:25 1514563585.418252: $GPGGA,160626,3946.9609,N,08404.9812,W,2,11,1.60,319.37,M,-33.324,M,,*72
2017-12-29 11:06:25 1514563585.418318: $GPRMC,160626,A,3946.9609,N,08404.9812,W,0.0000,0.000,291217,,*30
2017-12-29 11:06:25 1514563585.418378: $GPGSA,A,3,10,15,18,20,21,24,27,32,13,8,138,,1.7,1.6,1.3*3E
2017-12-29 11:06:26 1514563586.754623: $GPGSV,3,1,11,10,38,297,43,15,42,051,49,18,68,328,42,20,38,091,48*74
2017-12-29 11:06:26 1514563586.754795: $GPGSV,3,2,11,21,68,195,46,24,48,118,48,27,19,294,40,32,17,235,37*75
2017-12-29 11:06:26 1514563586.754859: $GPGSV,3,3,11,13,12,048,29,08,04,327,30,138,38,213,44*77
2017-12-29 11:06:26 1514563586.867943: $GPZDA,160627.00,29,12,2017,00,00*6E
2017-12-29 11:06:26 1514563586.868151: $GPGGA,160627,3946.9609,N,08404.9812,W,2,11,1.60,319.37,M,-33.324,M,,*73
2017-12-29 11:06:26 1514563586.868219: $GPRMC,160627,A,3946.9609,N,08404.9812,W,0.0000,0.000,291217,,*31
2017-12-29 11:06:26 1514563586.868279: $GPGSA,A,3,10,15,18,20,21,24,27,32,13,8,138,,1.7,1.6,1.3*3E
2017-12-29 11:06:27 1514563587.416550: $GPZDA,160628.00,29,12,2017,00,00*61
2017-12-29 11:06:27 1514563587.416695: $GPGGA,160628,3946.9609,N,08404.9812,W,2,11,1.60,319.37,M,-33.324,M,,*7C
2017-12-29 11:06:27 1514563587.416761: $GPRMC,160628,A,3946.9609,N,08404.9812,W,0.0000,0.000,291217,,*3E
2017-12-29 11:06:27 1514563587.416821: $GPGSA,A,3,10,15,18,20,21,24,27,32,13,8,138,,1.7,1.6,1.3*3E
2017-12-29 11:06:28 1514563588.414960: $GPZDA,160629.00,29,12,2017,00,00*60
2017-12-29 11:06:28 1514563588.415111: $GPGGA,160629,3946.9609,N,08404.9812,W,2,11,1.60,319.37,M,-33.324,M,,*7D
2017-12-29 11:06:28 1514563588.415177: $GPRMC,160629,A,3946.9609,N,08404.9812,W,0.0000,0.000,291217,,*3F
2017-12-29 11:06:28 1514563588.415237: $GPGSA,A,3,10,15,18,20,21,24,27,32,13,8,138,,1.7,1.6,1.3*3E
2017-12-29 11:06:29 1514563589.766709: $GPGSV,3,1,11,10,38,297,43,15,42,051,49,18,68,328,42,20,38,091,48*74
2017-12-29 11:06:29 1514563589.766891: $GPGSV,3,2,11,21,68,195,46,24,48,118,48,27,19,294,40,32,17,235,36*74
2017-12-29 11:06:29 1514563589.766957: $GPGSV,3,3,11,13,12,048,29,08,04,327,31,138,38,213,45*77
2017-12-29 11:06:29 1514563589.880317: $GPZDA,160630.00,29,12,2017,00,00*68
2017-12-29 11:06:29 1514563589.880496: $GPGGA,160630,3946.9609,N,08404.9812,W,2,11,1.60,319.37,M,-33.324,M,,*75
2017-12-29 11:06:29 1514563589.880561: $GPRMC,160630,A,3946.9609,N,08404.9812,W,0.0000,0.000,291217,,*37
2017-12-29 11:06:29 1514563589.880621: $GPGSA,A,3,10,15,18,20,21,24,27,32,13,8,138,,1.7,1.6,1.3*3E
2017-12-29 11:06:30 1514563590.434930: $GPZDA,160631.00,29,12,2017,00,00*69
2017-12-29 11:06:30 1514563590.435087: $GPGGA,160631,3946.9609,N,08404.9812,W,2,11,1.60,319.37,M,-33.324,M,,*74
2017-12-29 11:06:30 1514563590.435152: $GPRMC,160631,A,3946.9609,N,08404.9812,W,0.0000,0.000,291217,,*36
2017-12-29 11:06:30 1514563590.435213: $GPGSA,A,3,10,15,18,20,21,24,27,32,13,8,138,,1.7,1.6,1.3*3E
2017-12-29 11:06:31 1514563591.435337: $GPZDA,160632.00,29,12,2017,00,00*6A
2017-12-29 11:06:31 1514563591.435510: $GPGGA,160632,3946.9605,N,08404.9812,W,2,11,1.60,318.73,M,-33.324,M,,*7A
2017-12-29 11:06:31 1514563591.435576: $GPRMC,160632,A,3946.9605,N,08404.9812,W,0.2422,273.794,291217,,*33
2017-12-29 11:06:31 1514563591.435637: $GPGSA,A,3,10,15,18,20,21,24,27,32,13,8,138,,1.7,1.6,1.3*3E
2017-12-29 11:06:32 1514563592.769563: $GPGSV,3,1,11,10,38,297,43,15,42,051,49,18,68,328,42,20,38,091,48*74
2017-12-29 11:06:32 1514563592.769786: $GPGSV,3,2,11,21,68,195,46,24,48,118,47,27,19,294,40,32,17,235,36*7B
2017-12-29 11:06:32 1514563592.769854: $GPGSV,3,3,11,13,12,048,29,08,04,327,32,138,38,213,46*77
2017-12-29 11:06:32 1514563592.883189: $GPZDA,160633.00,29,12,2017,00,00*6B
2017-12-29 11:06:32 1514563592.883339: $GPGGA,160633,3946.9597,N,08404.9813,W,2,11,1.60,318.85,M,-33.324,M,,*7B
2017-12-29 11:06:32 1514563592.883405: $GPRMC,160633,A,3946.9597,N,08404.9813,W,0.0000,0.000,291217,,*31
2017-12-29 11:06:32 1514563592.883464: $GPGSA,A,3,10,15,18,20,21,24,27,32,13,8,138,,1.7,1.6,1.3*3E
2017-12-29 11:06:33 1514563593.434027: $GPZDA,160634.00,29,12,2017,00,00*6C
2017-12-29 11:06:33 1514563593.434176: $GPGGA,160634,3946.9600,N,08404.9812,W,1,11,1.00,318.09,M,-33.324,M,,*71
2017-12-29 11:06:33 1514563593.434242: $GPRMC,160634,A,3946.9600,N,08404.9812,W,0.0000,0.000,291217,,*3A
2017-12-29 11:06:33 1514563593.434302: $GPGSA,A,3,10,15,18,20,21,24,27,32,13,8,138,,1.7,1.0,1.3*38
2017-12-29 11:06:34 1514563594.418690: $GPZDA,160635.00,29,12,2017,00,00*6D
2017-12-29 11:06:34 1514563594.418852: $GPGGA,160635,3946.9600,N,08404.9812,W,1,11,1.00,318.09,M,-33.324,M,,*70
2017-12-29 11:06:34 1514563594.418917: $GPRMC,160635,A,3946.9600,N,08404.9812,W,0.2422,93.794,291217,,*0D
2017-12-29 11:06:34 1514563594.418977: $GPGSA,A,3,10,15,18,20,21,24,27,32,13,8,138,,1.7,1.0,1.3*38
2017-12-29 11:06:35 1514563595.772937: $GPGSV,3,1,11,10,38,297,43,15,42,051,49,18,68,328,43,20,38,091,48*75
2017-12-29 11:06:35 1514563595.773106: $GPGSV,3,2,11,21,68,195,46,24,48,118,48,27,19,294,39,32,17,235,35*79
2017-12-29 11:06:35 1514563595.773171: $GPGSV,3,3,11,13,12,048,29,08,04,327,33,138,38,213,45*75
2017-12-29 11:06:35 1514563595.886530: $GPZDA,160636.00,29,12,2017,00,00*6E
2017-12-29 11:06:35 1514563595.886675: $GPGGA,160636,3946.9600,N,08404.9812,W,1,11,1.00,318.09,M,-33.324,M,,*73
2017-12-29 11:06:35 1514563595.886740: $GPRMC,160636,A,3946.9600,N,08404.9812,W,0.1867,180.000,291217,,*39
2017-12-29 11:06:35 1514563595.886799: $GPGSA,A,3,10,15,18,20,21,24,27,32,13,8,138,,1.7,1.0,1.3*38
2017-12-29 11:06:36 1514563596.511918: $GPZDA,160637.00,29,12,2017,00,00*6F
2017-12-29 11:06:36 1514563596.512070: $GPGGA,160637,3946.9600,N,08404.9812,W,1,11,1.00,318.09,M,-33.324,M,,*72
2017-12-29 11:06:36 1514563596.512136: $GPRMC,160637,A,3946.9600,N,08404.9812,W,0.0000,0.000,291217,,*39
2017-12-29 11:06:36 1514563596.512196: $GPGSA,A,3,10,15,18,20,21,24,27,32,13,8,138,,1.7,1.0,1.3*38
2017-12-29 11:06:37 1514563597.437595: $GPZDA,160638.00,29,12,2017,00,00*60
2017-12-29 11:06:37 1514563597.437760: $GPGGA,160638,3946.9605,N,08404.9812,W,1,11,1.00,318.73,M,-33.324,M,,*75
2017-12-29 11:06:37 1514563597.437827: $GPRMC,160638,A,3946.9605,N,08404.9812,W,0.0000,0.000,291217,,*33
2017-12-29 11:06:37 1514563597.437888: $GPGSA,A,3,10,15,18,20,21,24,27,32,13,8,138,,1.7,1.0,1.3*38
2017-12-29 11:06:38 1514563598.773279: $GPGSV,3,1,11,10,38,297,43,15,42,051,49,18,68,328,43,20,38,091,48*75
2017-12-29 11:06:38 1514563598.773453: $GPGSV,3,2,11,21,68,195,46,24,48,118,48,27,19,294,38,32,17,235,35*78
2017-12-29 11:06:38 1514563598.773518: $GPGSV,3,3,11,13,12,048,29,08,04,327,33,138,38,213,45*75
2017-12-29 11:06:38 1514563598.886698: $GPZDA,160639.00,29,12,2017,00,00*61
2017-12-29 11:06:38 1514563598.886843: $GPGGA,160639,3946.9605,N,08404.9812,W,1,11,1.00,318.73,M,-33.324,M,,*74
2017-12-29 11:06:38 1514563598.886907: $GPRMC,160639,A,3946.9605,N,08404.9812,W,0.0000,0.000,291217,,*32
2017-12-29 11:06:38 1514563598.886967: $GPGSA,A,3,10,15,18,20,21,24,27,32,13,8,138,,1.7,1.0,1.3*38
2017-12-29 11:06:39 1514563599.421360: $GPZDA,160640.00,29,12,2017,00,00*6F
2017-12-29 11:06:39 1514563599.421499: $GPGGA,160640,3946.9605,N,08404.9812,W,1,11,1.00,318.73,M,-33.324,M,,*7A
2017-12-29 11:06:39 1514563599.421565: $GPRMC,160640,A,3946.9605,N,08404.9812,W,0.0000,0.000,291217,,*3C
2017-12-29 11:06:39 1514563599.421625: $GPGSA,A,3,10,15,18,20,21,24,27,32,13,8,138,,1.7,1.0,1.3*38
2017-12-29 11:06:40 1514563600.437200: $GPZDA,160641.00,29,12,2017,00,00*6E
2017-12-29 11:06:40 1514563600.437409: $GPGGA,160641,3946.9605,N,08404.9812,W,1,11,1.00,318.73,M,-33.324,M,,*7B
2017-12-29 11:06:40 1514563600.437476: $GPRMC,160641,A,3946.9605,N,08404.9812,W,0.0000,0.000,291217,,*3D
2017-12-29 11:06:40 1514563600.437537: $GPGSA,A,3,10,15,18,20,21,24,27,32,13,8,138,,1.7,1.0,1.3*38
2017-12-29 11:06:41 1514563601.756095: $GPGSV,3,1,11,10,38,297,43,15,42,051,49,18,68,328,42,20,38,091,48*74
2017-12-29 11:06:41 1514563601.756264: $GPGSV,3,2,11,21,68,195,46,24,48,118,48,27,19,294,38,32,17,235,34*79
2017-12-29 11:06:41 1514563601.756330: $GPGSV,3,3,11,13,12,048,29,08,04,327,33,138,38,213,44*74
2017-12-29 11:06:41 1514563601.869707: $GPZDA,160642.00,29,12,2017,00,00*6D
2017-12-29 11:06:41 1514563601.869874: $GPGGA,160642,3946.9605,N,08404.9812,W,1,11,1.00,318.73,M,-33.324,M,,*78
2017-12-29 11:06:41 1514563601.869940: $GPRMC,160642,A,3946.9605,N,08404.9812,W,0.0000,0.000,291217,,*3E
2017-12-29 11:06:41 1514563601.870000: $GPGSA,A,3,10,15,18,20,21,24,27,32,13,8,138,,1.7,1.0,1.3*38
2017-12-29 11:06:42 1514563602.438084: $GPZDA,160643.00,29,12,2017,00,00*6C
2017-12-29 11:06:42 1514563602.438217: $GPGGA,160643,3946.9605,N,08404.9812,W,1,11,1.00,318.73,M,-33.324,M,,*79
2017-12-29 11:06:42 1514563602.438281: $GPRMC,160643,A,3946.9605,N,08404.9812,W,0.0000,0.000,291217,,*3F
2017-12-29 11:06:42 1514563602.438340: $GPGSA,A,3,10,15,18,20,21,24,27,32,13,8,138,,1.7,1.0,1.3*38
2017-12-29 11:06:43 1514563603.438985: $GPZDA,160644.00,29,12,2017,00,00*6B
2017-12-29 11:06:43 1514563603.439145: $GPGGA,160644,3946.9605,N,08404.9812,W,1,11,1.00,318.73,M,-33.324,M,,*7E
2017-12-29 11:06:43 1514563603.439212: $GPRMC,160644,A,3946.9605,N,08404.9812,W,0.0000,0.000,291217,,*38
2017-12-29 11:06:43 1514563603.439272: $GPGSA,A,3,10,15,18,20,21,24,27,32,13,8,138,,1.7,1.0,1.3*38
