2017-12-31 18:36:57 1514763417.749451: {"class":"VERSION","release":"3.16","rev":"3.16-4","proto_major":3,"proto_minor":11}
2017-12-31 18:36:57 1514763417.749851: {"class":"DEVICES","devices":[{"class":"DEVICE","path":"/dev/ttyUSB0","driver":"SiRF","activated":"2017-12-31T23:36:57.688Z","flags":1,"native":1,"bps":4800,"parity":"N","stopbits":1,"cycle":1.00}]}
2017-12-31 18:36:57 1514763417.749970: {"class":"WATCH","enable":true,"json":false,"nmea":true,"raw":0,"scaled":false,"timing":false,"split24":false,"pps":false}
2017-12-31 18:36:57 1514763417.801829: $GPZDA,233658.00,31,12,2017,00,00*6A
2017-12-31 18:36:57 1514763417.801983: $GPGGA,233658,3946.9578,N,08404.9823,W,2,12,0.80,309.11,M,-33.324,M,,*70
2017-12-31 18:36:57 1514763417.802049: $GPRMC,233658,A,3946.9578,N,08404.9823,W,0.0000,0.000,311217,,*32
2017-12-31 18:36:57 1514763417.802109: $GPGSA,A,3,22,23,9,3,16,8,14,31,27,7,26,135,1.7,0.8,1.3*0C
2017-12-31 18:36:58 1514763418.387709: $GPZDA,233659.00,31,12,2017,00,00*6B
2017-12-31 18:36:58 1514763418.387908: $GPGGA,233659,3946.9578,N,08404.9823,W,2,12,0.80,309.11,M,-33.324,M,,*71
2017-12-31 18:36:58 1514763418.387975: $GPRMC,233659,A,3946.9578,N,08404.9823,W,0.0000,0.000,311217,,*33
2017-12-31 18:36:58 1514763418.388037: $GPGSA,A,3,22,23,9,3,16,8,14,31,27,7,26,135,1.7,0.8,1.3*0C
2017-12-31 18:36:59 1514763419.352273: $GPZDA,233700.00,31,12,2017,00,00*66
2017-12-31 18:36:59 1514763419.352431: $GPGGA,233700,3946.9578,N,08404.9823,W,2,12,0.80,309.11,M,-33.324,M,,*7C
2017-12-31 18:36:59 1514763419.352498: $GPRMC,233700,A,3946.9578,N,08404.9823,W,0.0000,0.000,311217,,*3E
2017-12-31 18:36:59 1514763419.352558: $GPGSA,A,3,22,23,9,3,16,8,14,31,27,7,26,135,1.7,0.8,1.3*0C
2017-12-31 18:37:00 1514763420.681284: $GPGSV,3,1,12,22,12,207,28,23,64,292,40,09,31,312,43,03,22,225,36*75
2017-12-31 18:37:00 1514763420.681451: $GPGSV,3,2,12,16,83,042,42,08,11,177,20,14,04,138,19,31,20,084,41*76
2017-12-31 18:37:00 1514763420.681518: $GPGSV,3,3,12,27,34,147,40,07,06,280,45,26,50,046,47,135,22,240,44*45
2017-12-31 18:37:00 1514763420.795001: $GPZDA,233701.00,31,12,2017,00,00*67
2017-12-31 18:37:00 1514763420.795169: $GPGGA,233701,3946.9578,N,08404.9823,W,2,12,0.80,309.11,M,-33.324,M,,*7D
2017-12-31 18:37:00 1514763420.795235: $GPRMC,233701,A,3946.9578,N,08404.9823,W,0.0000,0.000,311217,,*3F
2017-12-31 18:37:00 1514763420.795297: $GPGSA,A,3,22,23,9,3,16,8,14,31,27,7,26,135,1.7,0.8,1.3*0C
2017-12-31 18:37:01 1514763421.357217: $GPZDA,233702.00,31,12,2017,00,00*64
2017-12-31 18:37:01 1514763421.357380: $GPGGA,233702,3946.9578,N,08404.9823,W,2,12,0.80,309.11,M,-33.324,M,,*7E
2017-12-31 18:37:01 1514763421.357445: $GPRMC,233702,A,3946.9578,N,08404.9823,W,0.0000,0.000,311217,,*3C
2017-12-31 18:37:01 1514763421.357506: $GPGSA,A,3,22,23,9,3,16,8,14,31,27,7,26,135,1.7,0.8,1.3*0C
2017-12-31 18:37:02 1514763422.379250: $GPZDA,233703.00,31,12,2017,00,00*65
2017-12-31 18:37:02 1514763422.379417: $GPGGA,233703,3946.9578,N,08404.9823,W,2,12,0.80,309.11,M,-33.324,M,,*7F
2017-12-31 18:37:02 1514763422.379483: $GPRMC,233703,A,3946.9578,N,08404.9823,W,0.0000,0.000,311217,,*3D
2017-12-31 18:37:02 1514763422.379544: $GPGSA,A,3,22,23,9,3,16,8,14,31,27,7,26,135,1.7,0.8,1.3*0C
2017-12-31 18:37:03 1514763423.688402: $GPGSV,3,1,12,22,12,207,25,23,64,292,40,09,31,312,43,03,22,225,35*7B
2017-12-31 18:37:03 1514763423.688564: $GPGSV,3,2,12,16,83,042,42,08,11,177,28,14,04,138,19,31,20,084,41*7E
2017-12-31 18:37:03 1514763423.688650: $GPGSV,3,3,12,27,34,147,41,07,06,280,46,26,50,046,47,135,22,240,44*47
2017-12-31 18:37:03 1514763423.801804: $GPZDA,233704.00,31,12,2017,00,00*62
2017-12-31 18:37:03 1514763423.801976: $GPGGA,233704,3946.9578,N,08404.9823,W,2,12,0.80,309.11,M,-33.324,M,,*78
2017-12-31 18:37:03 1514763423.802041: $GPRMC,233704,A,3946.9578,N,08404.9823,W,0.0000,0.000,311217,,*3A
2017-12-31 18:37:03 1514763423.802101: $GPGSA,A,3,22,23,9,3,16,8,14,31,27,7,26,135,1.7,0.8,1.3*0C
2017-12-31 18:37:04 1514763424.351344: $GPZDA,233705.00,31,12,2017,00,00*63
2017-12-31 18:37:04 1514763424.351515: $GPGGA,233705,3946.9578,N,08404.9830,W,2,12,0.80,309.03,M,-33.324,M,,*78
2017-12-31 18:37:04 1514763424.351669: $GPRMC,233705,A,3946.9578,N,08404.9830,W,0.0000,0.000,311217,,*39
2017-12-31 18:37:04 1514763424.351751: $GPGSA,A,3,22,23,9,3,16,8,14,31,27,7,26,135,1.7,0.8,1.3*0C
2017-12-31 18:37:05 1514763425.388004: $GPZDA,233706.00,31,12,2017,00,00*60
2017-12-31 18:37:05 1514763425.388187: $GPGGA,233706,3946.9578,N,08404.9830,W,2,12,0.80,309.03,M,-33.324,M,,*7B
2017-12-31 18:37:05 1514763425.388254: $GPRMC,233706,A,3946.9578,N,08404.9830,W,0.0000,0.000,311217,,*3A
2017-12-31 18:37:05 1514763425.388315: $GPGSA,A,3,22,23,9,3,16,8,14,31,27,7,26,135,1.7,0.8,1.3*0C
2017-12-31 18:37:06 1514763426.687576: $GPGSV,3,1,12,22,12,207,25,23,64,292,40,09,31,312,44,03,22,225,36*7F
2017-12-31 18:37:06 1514763426.687765: $GPGSV,3,2,12,16,83,042,42,08,11,177,28,14,04,138,18,31,20,084,41*7F
2017-12-31 18:37:06 1514763426.687833: $GPGSV,3,3,12,27,34,147,41,07,06,280,46,26,50,046,47,135,22,240,43*40
2017-12-31 18:37:06 1514763426.800817: $GPZDA,233707.00,31,12,2017,00,00*61
2017-12-31 18:37:06 1514763426.800989: $GPGGA,233707,3946.9578,N,08404.9830,W,2,12,0.80,309.03,M,-33.324,M,,*7A
2017-12-31 18:37:06 1514763426.801055: $GPRMC,233707,A,3946.9578,N,08404.9830,W,0.0000,0.000,311217,,*3B
2017-12-31 18:37:06 1514763426.801116: $GPGSA,A,3,22,23,9,3,16,8,14,31,27,7,26,135,1.7,0.8,1.3*0C
2017-12-31 18:37:07 1514763427.349176: $GPZDA,233708.00,31,12,2017,00,00*6E
2017-12-31 18:37:07 1514763427.349339: $GPGGA,233708,3946.9578,N,08404.9830,W,2,12,0.80,309.03,M,-33.324,M,,*75
2017-12-31 18:37:07 1514763427.349405: $GPRMC,233708,A,3946.9578,N,08404.9830,W,0.0000,0.000,311217,,*34
2017-12-31 18:37:07 1514763427.349465: $GPGSA,A,3,22,23,9,3,16,8,14,31,27,7,26,135,1.7,0.8,1.3*0C
