2017-11-16 16:52:08 1510869128.241460: {"class":"VERSION","release":"3.17","rev":"3.17","proto_major":3,"proto_minor":12}
2017-11-16 16:52:08 1510869128.241902: {"class":"DEVICES","devices":[{"class":"DEVICE","path":"/dev/ttyUSB0","driver":"SiRF","subtype":"9\u0006GSD4e_4.1.2-P1_RPATCH.05-F-GPS-4R-1510281 11/03/2015 307","activated":"2017-11-16T21:52:07.603Z","flags":1,"native":1,"bps":4800,"parity":"N","stopbits":1,"cycle":1.00}]}
2017-11-16 16:52:08 1510869128.242015: {"class":"WATCH","enable":true,"json":false,"nmea":true,"raw":0,"scaled":false,"timing":false,"split24":false,"pps":false}
2017-11-16 16:52:08 1510869128.780713: $GPGSV,3,1,12,01,15,316,40,10,67,135,49,11,11,298,28,12,25,069,48*79
2017-11-16 16:52:08 1510869128.780873: $GPGSV,3,2,12,14,56,295,45,18,35,136,41,24,12,045,42,25,31,112,42*7F
2017-11-16 16:52:08 1510869128.780932: $GPGSV,3,3,12,31,37,213,46,32,68,334,50,22,04,310,00,138,38,213,44*47
2017-11-16 16:52:08 1510869128.894401: $GPZDA,215207.00,16,11,2017,00,00*66
2017-11-16 16:52:08 1510869128.894557: $GPGGA,215207,3946.9581,N,08404.9830,W,2,11,0.80,308.27,M,-33.324,M,,*79
2017-11-16 16:52:08 1510869128.894618: $GPRMC,215207,A,3946.9581,N,08404.9830,W,0.0000,0.000,161117,,*3A
2017-11-16 16:52:08 1510869128.894673: $GPGSA,A,3,1,10,11,12,14,18,24,25,31,32,138,,1.6,0.8,1.3*38
2017-11-16 16:52:09 1510869129.447747: $GPZDA,215208.00,16,11,2017,00,00*69
2017-11-16 16:52:09 1510869129.447916: $GPGGA,215208,3946.9581,N,08404.9830,W,2,11,0.80,308.27,M,-33.324,M,,*76
2017-11-16 16:52:09 1510869129.447976: $GPRMC,215208,A,3946.9581,N,08404.9830,W,0.0000,0.000,161117,,*35
2017-11-16 16:52:09 1510869129.448031: $GPGSA,A,3,1,10,11,12,14,18,24,25,31,32,138,,1.6,0.8,1.3*38
2017-11-16 16:52:10 1510869130.461083: $GPZDA,215209.00,16,11,2017,00,00*68
2017-11-16 16:52:10 1510869130.461243: $GPGGA,215209,3946.9581,N,08404.9830,W,2,11,0.80,308.27,M,-33.324,M,,*77
2017-11-16 16:52:10 1510869130.461303: $GPRMC,215209,A,3946.9581,N,08404.9830,W,0.0000,0.000,161117,,*34
2017-11-16 16:52:10 1510869130.461359: $GPGSA,A,3,1,10,11,12,14,18,24,25,31,32,138,,1.6,0.8,1.3*38
2017-11-16 16:52:11 1510869131.781084: $GPGSV,3,1,12,01,15,316,40,10,67,135,49,11,11,298,26,12,25,069,48*77
2017-11-16 16:52:11 1510869131.781240: $GPGSV,3,2,12,14,56,295,45,18,35,136,40,24,12,045,42,25,31,112,42*7E
2017-11-16 16:52:11 1510869131.781300: $GPGSV,3,3,12,31,37,213,46,32,68,334,50,22,04,310,00,138,38,213,44*47
2017-11-16 16:52:11 1510869131.894485: $GPZDA,215210.00,16,11,2017,00,00*60
2017-11-16 16:52:11 1510869131.894635: $GPGGA,215210,3946.9581,N,08404.9830,W,2,11,0.80,308.27,M,-33.324,M,,*7F
2017-11-16 16:52:11 1510869131.894695: $GPRMC,215210,A,3946.9581,N,08404.9830,W,0.0000,0.000,161117,,*3C
2017-11-16 16:52:11 1510869131.894750: $GPGSA,A,3,1,10,11,12,14,18,24,25,31,32,138,,1.6,0.8,1.3*38
2017-11-16 16:52:12 1510869132.468119: $GPZDA,215211.00,16,11,2017,00,00*61
2017-11-16 16:52:12 1510869132.468289: $GPGGA,215211,3946.9581,N,08404.9830,W,2,11,0.80,308.27,M,-33.324,M,,*7E
2017-11-16 16:52:12 1510869132.468350: $GPRMC,215211,A,3946.9581,N,08404.9830,W,0.0000,0.000,161117,,*3D
2017-11-16 16:52:12 1510869132.468405: $GPGSA,A,3,1,10,11,12,14,18,24,25,31,32,138,,1.6,0.8,1.3*38
2017-11-16 16:52:13 1510869133.463979: $GPZDA,215212.00,16,11,2017,00,00*62
2017-11-16 16:52:13 1510869133.464139: $GPGGA,215212,3946.9581,N,08404.9830,W,2,11,0.80,308.27,M,-33.324,M,,*7D
2017-11-16 16:52:13 1510869133.464199: $GPRMC,215212,A,3946.9581,N,08404.9830,W,0.0000,0.000,161117,,*3E
2017-11-16 16:52:13 1510869133.464254: $GPGSA,A,3,1,10,11,12,14,18,24,25,31,32,138,,1.6,0.8,1.3*38
2017-11-16 16:52:14 1510869134.790701: $GPGSV,3,1,12,01,15,316,40,10,67,135,49,11,11,298,26,12,25,069,48*77
2017-11-16 16:52:14 1510869134.790858: $GPGSV,3,2,12,14,56,295,45,18,35,136,40,24,12,045,42,25,31,112,42*7E
2017-11-16 16:52:14 1510869134.790917: $GPGSV,3,3,12,31,37,213,46,32,68,334,51,22,04,310,23,138,38,213,44*47
2017-11-16 16:52:14 1510869134.904291: $GPZDA,215213.00,16,11,2017,00,00*63
2017-11-16 16:52:14 1510869134.904446: $GPGGA,215213,3946.9581,N,08404.9830,W,2,11,0.80,308.27,M,-33.324,M,,*7C
2017-11-16 16:52:14 1510869134.904559: $GPRMC,215213,A,3946.9581,N,08404.9830,W,0.0000,0.000,161117,,*3F
2017-11-16 16:52:14 1510869134.904616: $GPGSA,A,3,1,10,11,12,14,18,24,25,31,32,138,,1.6,0.8,1.3*38
2017-11-16 16:52:15 1510869135.463693: $GPZDA,215214.00,16,11,2017,00,00*64
2017-11-16 16:52:15 1510869135.463869: $GPGGA,215214,3946.9581,N,08404.9830,W,2,11,0.80,308.27,M,-33.324,M,,*7B
2017-11-16 16:52:15 1510869135.463932: $GPRMC,215214,A,3946.9581,N,08404.9830,W,0.0000,0.000,161117,,*38
2017-11-16 16:52:15 1510869135.463988: $GPGSA,A,3,1,10,11,12,14,18,24,25,31,32,138,,1.6,0.8,1.3*38
2017-11-16 16:52:16 1510869136.445678: $GPZDA,215215.00,16,11,2017,00,00*65
2017-11-16 16:52:16 1510869136.445845: $GPGGA,215215,3946.9581,N,08404.9830,W,2,11,0.80,308.27,M,-33.324,M,,*7A
2017-11-16 16:52:16 1510869136.445905: $GPRMC,215215,A,3946.9581,N,08404.9830,W,0.0000,0.000,161117,,*39
2017-11-16 16:52:16 1510869136.445961: $GPGSA,A,3,1,10,11,12,14,18,24,25,31,32,138,,1.6,0.8,1.3*38
2017-11-16 16:52:17 1510869137.781127: $GPGSV,3,1,12,01,15,316,40,10,67,135,49,11,11,298,26,12,25,069,48*77
2017-11-16 16:52:17 1510869137.781305: $GPGSV,3,2,12,14,56,295,45,18,35,136,41,24,12,045,42,25,31,112,42*7F
2017-11-16 16:52:17 1510869137.781365: $GPGSV,3,3,12,31,37,213,46,32,68,334,50,22,04,310,28,138,38,213,44*4D
2017-11-16 16:52:17 1510869137.894680: $GPZDA,215216.00,16,11,2017,00,00*66
2017-11-16 16:52:17 1510869137.894844: $GPGGA,215216,3946.9581,N,08404.9830,W,2,12,0.80,308.27,M,-33.324,M,,*7A
2017-11-16 16:52:17 1510869137.894904: $GPRMC,215216,A,3946.9581,N,08404.9830,W,0.0000,0.000,161117,,*3A
2017-11-16 16:52:17 1510869137.894959: $GPGSA,A,3,1,10,11,12,14,18,24,25,31,32,22,138,1.6,0.8,1.3*38
