2017-12-31 16:52:59 1514757179.140058: {"class":"VERSION","release":"3.16","rev":"3.16-4","proto_major":3,"proto_minor":11}
2017-12-31 16:52:59 1514757179.140409: {"class":"DEVICES","devices":[{"class":"DEVICE","path":"/dev/ttyUSB0","driver":"SiRF","activated":"2017-12-31T21:52:58.484Z","flags":1,"native":1,"bps":4800,"parity":"N","stopbits":1,"cycle":1.00}]}
2017-12-31 16:52:59 1514757179.140505: {"class":"WATCH","enable":true,"json":false,"nmea":true,"raw":0,"scaled":false,"timing":false,"split24":false,"pps":false}
2017-12-31 16:52:59 1514757179.343638: $GPZDA,215300.00,31,12,2017,00,00*66
2017-12-31 16:52:59 1514757179.343817: $GPGGA,215300,3946.9577,N,08404.9856,W,2,11,0.80,304.50,M,-33.324,M,,*7A
2017-12-31 16:52:59 1514757179.343884: $GPRMC,215300,A,3946.9577,N,08404.9856,W,0.0000,0.000,311217,,*33
2017-12-31 16:52:59 1514757179.343945: $GPGSA,A,3,22,23,25,3,16,29,31,14,32,26,135,,1.7,0.8,1.3*32
2017-12-31 16:53:00 1514757180.678882: $GPGSV,3,1,11,22,47,247,42,23,22,306,43,25,07,037,27,03,46,280,38*7D
2017-12-31 16:53:00 1514757180.679071: $GPGSV,3,2,11,16,39,190,46,29,14,060,26,31,55,045,51,14,45,108,43*7E
2017-12-31 16:53:00 1514757180.679136: $GPGSV,3,3,11,32,24,118,45,26,69,157,43,135,22,240,43*7E
2017-12-31 16:53:00 1514757180.792562: $GPZDA,215301.00,31,12,2017,00,00*67
2017-12-31 16:53:00 1514757180.792741: $GPGGA,215301,3946.9577,N,08404.9856,W,2,11,0.80,304.50,M,-33.324,M,,*7B
2017-12-31 16:53:00 1514757180.792825: $GPRMC,215301,A,3946.9577,N,08404.9856,W,0.0000,0.000,311217,,*32
2017-12-31 16:53:00 1514757180.792927: $GPGSA,A,3,22,23,25,3,16,29,31,14,32,26,135,,1.7,0.8,1.3*32
2017-12-31 16:53:01 1514757181.361994: $GPZDA,215302.00,31,12,2017,00,00*64
2017-12-31 16:53:01 1514757181.362168: $GPGGA,215302,3946.9577,N,08404.9856,W,2,11,0.80,304.50,M,-33.324,M,,*78
2017-12-31 16:53:01 1514757181.362237: $GPRMC,215302,A,3946.9577,N,08404.9856,W,0.0000,0.000,311217,,*31
2017-12-31 16:53:01 1514757181.362298: $GPGSA,A,3,22,23,25,3,16,29,31,14,32,26,135,,1.7,0.8,1.3*32
2017-12-31 16:53:02 1514757182.361739: $GPZDA,215303.00,31,12,2017,00,00*65
2017-12-31 16:53:02 1514757182.361943: $GPGGA,215303,3946.9577,N,08404.9856,W,2,11,0.80,304.50,M,-33.324,M,,*79
2017-12-31 16:53:02 1514757182.362038: $GPRMC,215303,A,3946.9577,N,08404.9856,W,0.0000,0.000,311217,,*30
2017-12-31 16:53:02 1514757182.362101: $GPGSA,A,3,22,23,25,3,16,29,31,14,32,26,135,,1.7,0.8,1.3*32
2017-12-31 16:53:03 1514757183.695904: $GPGSV,3,1,11,22,47,247,43,23,22,306,42,25,07,037,27,03,46,280,38*7D
2017-12-31 16:53:03 1514757183.696078: $GPGSV,3,2,11,16,39,190,46,29,14,060,26,31,55,045,51,14,45,108,43*7E
2017-12-31 16:53:03 1514757183.696145: $GPGSV,3,3,11,32,24,118,45,26,69,157,43,135,22,240,43*7E
2017-12-31 16:53:03 1514757183.809577: $GPZDA,215304.00,31,12,2017,00,00*62
2017-12-31 16:53:03 1514757183.809744: $GPGGA,215304,3946.9577,N,08404.9856,W,2,11,0.80,304.50,M,-33.324,M,,*7E
2017-12-31 16:53:03 1514757183.809809: $GPRMC,215304,A,3946.9577,N,08404.9856,W,0.0000,0.000,311217,,*37
2017-12-31 16:53:03 1514757183.809871: $GPGSA,A,3,22,23,25,3,16,29,31,14,32,26,135,,1.7,0.8,1.3*32
2017-12-31 16:53:04 1514757184.344235: $GPZDA,215305.00,31,12,2017,00,00*63
2017-12-31 16:53:04 1514757184.344407: $GPGGA,215305,3946.9577,N,08404.9856,W,2,11,0.80,304.50,M,-33.324,M,,*7F
2017-12-31 16:53:04 1514757184.344474: $GPRMC,215305,A,3946.9577,N,08404.9856,W,0.0000,0.000,311217,,*36
2017-12-31 16:53:04 1514757184.344534: $GPGSA,A,3,22,23,25,3,16,29,31,14,32,26,135,,1.7,0.8,1.3*32
2017-12-31 16:53:05 1514757185.344654: $GPZDA,215306.00,31,12,2017,00,00*60
2017-12-31 16:53:05 1514757185.344830: $GPGGA,215306,3946.9577,N,08404.9856,W,2,11,0.80,304.50,M,-33.324,M,,*7C
2017-12-31 16:53:05 1514757185.344896: $GPRMC,215306,A,3946.9577,N,08404.9856,W,0.0000,0.000,311217,,*35
2017-12-31 16:53:05 1514757185.344957: $GPGSA,A,3,22,23,25,3,16,29,31,14,32,26,135,,1.7,0.8,1.3*32
2017-12-31 16:53:06 1514757186.696224: $GPGSV,3,1,11,22,47,247,43,23,22,306,42,25,07,037,26,03,46,280,38*7C
2017-12-31 16:53:06 1514757186.696400: $GPGSV,3,2,11,16,39,190,46,29,14,060,25,31,55,045,51,14,45,108,43*7D
2017-12-31 16:53:06 1514757186.696518: $GPGSV,3,3,11,32,24,118,45,26,69,157,44,135,22,240,43*79
2017-12-31 16:53:06 1514757186.809980: $GPZDA,215307.00,31,12,2017,00,00*61
2017-12-31 16:53:06 1514757186.810134: $GPGGA,215307,3946.9577,N,08404.9856,W,2,11,0.80,304.50,M,-33.324,M,,*7D
2017-12-31 16:53:06 1514757186.810199: $GPRMC,215307,A,3946.9577,N,08404.9856,W,0.0000,0.000,311217,,*34
2017-12-31 16:53:06 1514757186.810260: $GPGSA,A,3,22,23,25,3,16,29,31,14,32,26,135,,1.7,0.8,1.3*32
2017-12-31 16:53:07 1514757187.360776: $GPZDA,215308.00,31,12,2017,00,00*6E
2017-12-31 16:53:07 1514757187.360940: $GPGGA,215308,3946.9577,N,08404.9856,W,2,11,0.80,304.50,M,-33.324,M,,*72
2017-12-31 16:53:07 1514757187.361007: $GPRMC,215308,A,3946.9577,N,08404.9856,W,0.0000,0.000,311217,,*3B
2017-12-31 16:53:07 1514757187.361068: $GPGSA,A,3,22,23,25,3,16,29,31,14,32,26,135,,1.7,0.8,1.3*32
2017-12-31 16:53:08 1514757188.343228: $GPZDA,215309.00,31,12,2017,00,00*6F
2017-12-31 16:53:08 1514757188.343496: $GPGGA,215309,3946.9577,N,08404.9856,W,2,11,0.80,304.50,M,-33.324,M,,*73
2017-12-31 16:53:08 1514757188.343566: $GPRMC,215309,A,3946.9577,N,08404.9856,W,0.0000,0.000,311217,,*3A
2017-12-31 16:53:08 1514757188.343628: $GPGSA,A,3,22,23,25,3,16,29,31,14,32,26,135,,1.7,0.8,1.3*32
2017-12-31 16:53:09 1514757189.697042: $GPGSV,3,1,11,22,47,247,43,23,22,306,43,25,07,037,26,03,46,280,38*7D
2017-12-31 16:53:09 1514757189.697281: $GPGSV,3,2,11,16,39,190,47,29,14,060,25,31,55,045,51,14,45,108,43*7C
2017-12-31 16:53:09 1514757189.697348: $GPGSV,3,3,11,32,24,118,45,26,69,157,44,135,22,240,43*79
2017-12-31 16:53:09 1514757189.809149: $GPZDA,215310.00,31,12,2017,00,00*67
2017-12-31 16:53:09 1514757189.809318: $GPGGA,215310,3946.9577,N,08404.9856,W,2,11,0.80,304.50,M,-33.324,M,,*7B
2017-12-31 16:53:09 1514757189.809385: $GPRMC,215310,A,3946.9577,N,08404.9856,W,0.0000,0.000,311217,,*32
2017-12-31 16:53:09 1514757189.809445: $GPGSA,A,3,22,23,25,3,16,29,31,14,32,26,135,,1.7,0.8,1.3*32
2017-12-31 16:53:10 1514757190.436696: $GPZDA,215311.00,31,12,2017,00,00*66
2017-12-31 16:53:10 1514757190.436877: $GPGGA,215311,3946.9577,N,08404.9856,W,2,11,0.80,304.50,M,-33.324,M,,*7A
2017-12-31 16:53:10 1514757190.436944: $GPRMC,215311,A,3946.9577,N,08404.9856,W,0.0000,0.000,311217,,*33
2017-12-31 16:53:10 1514757190.437005: $GPGSA,A,3,22,23,25,3,16,29,31,14,32,26,135,,1.7,0.8,1.3*32
2017-12-31 16:53:11 1514757191.344532: $GPZDA,215312.00,31,12,2017,00,00*65
2017-12-31 16:53:11 1514757191.344711: $GPGGA,215312,3946.9577,N,08404.9856,W,2,11,0.80,304.50,M,-33.324,M,,*79
2017-12-31 16:53:11 1514757191.344793: $GPRMC,215312,A,3946.9577,N,08404.9856,W,0.0000,0.000,311217,,*30
2017-12-31 16:53:11 1514757191.344855: $GPGSA,A,3,22,23,25,3,16,29,31,14,32,26,135,,1.7,0.8,1.3*32
2017-12-31 16:53:12 1514757192.679892: $GPGSV,3,1,11,22,47,247,42,23,22,306,42,25,07,037,25,03,46,280,35*73
2017-12-31 16:53:12 1514757192.680071: $GPGSV,3,2,11,16,39,190,46,29,14,060,25,31,55,045,51,14,45,108,43*7D
2017-12-31 16:53:12 1514757192.680136: $GPGSV,3,3,11,32,24,118,45,26,69,157,44,135,22,240,43*79
2017-12-31 16:53:12 1514757192.793242: $GPZDA,215313.00,31,12,2017,00,00*64
2017-12-31 16:53:12 1514757192.793376: $GPGGA,215313,3946.9577,N,08404.9856,W,2,11,0.80,304.50,M,-33.324,M,,*78
2017-12-31 16:53:12 1514757192.793441: $GPRMC,215313,A,3946.9577,N,08404.9856,W,0.0000,0.000,311217,,*31
2017-12-31 16:53:12 1514757192.793500: $GPGSA,A,3,22,23,25,3,16,29,31,14,32,26,135,,1.7,0.8,1.3*32
2017-12-31 16:53:13 1514757193.361701: $GPZDA,215314.00,31,12,2017,00,00*63
2017-12-31 16:53:13 1514757193.361875: $GPGGA,215314,3946.9577,N,08404.9856,W,2,11,0.80,304.50,M,-33.324,M,,*7F
2017-12-31 16:53:13 1514757193.361941: $GPRMC,215314,A,3946.9577,N,08404.9856,W,0.0000,0.000,311217,,*36
2017-12-31 16:53:13 1514757193.362002: $GPGSA,A,3,22,23,25,3,16,29,31,14,32,26,135,,1.7,0.8,1.3*32
2017-12-31 16:53:14 1514757194.343769: $GPZDA,215315.00,31,12,2017,00,00*62
2017-12-31 16:53:14 1514757194.343938: $GPGGA,215315,3946.9577,N,08404.9856,W,2,11,0.80,304.50,M,-33.324,M,,*7E
2017-12-31 16:53:14 1514757194.344079: $GPRMC,215315,A,3946.9577,N,08404.9856,W,0.0000,0.000,311217,,*37
2017-12-31 16:53:14 1514757194.344142: $GPGSA,A,3,22,23,25,3,16,29,31,14,32,26,135,,1.7,0.8,1.3*32
2017-12-31 16:53:15 1514757195.678999: $GPGSV,3,1,11,22,47,247,42,23,22,306,42,25,07,037,25,03,46,280,34*72
2017-12-31 16:53:15 1514757195.679181: $GPGSV,3,2,11,16,39,190,46,29,14,060,18,31,55,045,51,14,45,108,43*73
2017-12-31 16:53:15 1514757195.679248: $GPGSV,3,3,11,32,24,118,45,26,69,157,44,135,22,240,43*79
2017-12-31 16:53:15 1514757195.792487: $GPZDA,215316.00,31,12,2017,00,00*61
2017-12-31 16:53:15 1514757195.792633: $GPGGA,215316,3946.9577,N,08404.9856,W,2,11,0.80,304.50,M,-33.324,M,,*7D
2017-12-31 16:53:15 1514757195.792699: $GPRMC,215316,A,3946.9577,N,08404.9856,W,0.0000,0.000,311217,,*34
2017-12-31 16:53:15 1514757195.792759: $GPGSA,A,3,22,23,25,3,16,29,31,14,32,26,135,,1.7,0.8,1.3*32
2017-12-31 16:53:16 1514757196.343548: $GPZDA,215317.00,31,12,2017,00,00*60
2017-12-31 16:53:16 1514757196.343708: $GPGGA,215317,3946.9581,N,08404.9855,W,2,11,0.80,303.74,M,-33.324,M,,*77
2017-12-31 16:53:16 1514757196.343774: $GPRMC,215317,A,3946.9581,N,08404.9855,W,0.2422,93.794,311217,,*09
2017-12-31 16:53:16 1514757196.343835: $GPGSA,A,3,22,23,25,3,16,29,31,14,32,26,135,,1.7,0.8,1.3*32
2017-12-31 16:53:17 1514757197.344093: $GPZDA,215318.00,31,12,2017,00,00*6F
2017-12-31 16:53:17 1514757197.344282: $GPGGA,215318,3946.9581,N,08404.9855,W,2,11,0.80,303.74,M,-33.324,M,,*78
2017-12-31 16:53:17 1514757197.344368: $GPRMC,215318,A,3946.9581,N,08404.9855,W,0.0000,0.000,311217,,*30
2017-12-31 16:53:17 1514757197.344431: $GPGSA,A,3,22,23,25,3,16,29,31,14,32,26,135,,1.7,0.8,1.3*32
2017-12-31 16:53:18 1514757198.688593: $GPGSV,3,1,11,22,47,247,42,23,22,306,42,25,07,037,24,03,46,280,36*71
2017-12-31 16:53:18 1514757198.688745: $GPGSV,3,2,11,16,39,190,46,29,14,060,19,31,55,045,51,14,45,108,43*72
2017-12-31 16:53:18 1514757198.688810: $GPGSV,3,3,11,32,24,118,45,26,69,157,44,135,22,240,43*79
2017-12-31 16:53:18 1514757198.801973: $GPZDA,215319.00,31,12,2017,00,00*6E
2017-12-31 16:53:18 1514757198.802106: $GPGGA,215319,3946.9581,N,08404.9855,W,2,11,0.80,303.74,M,-33.324,M,,*79
2017-12-31 16:53:18 1514757198.802171: $GPRMC,215319,A,3946.9581,N,08404.9855,W,0.0000,0.000,311217,,*31
2017-12-31 16:53:18 1514757198.802231: $GPGSA,A,3,22,23,25,3,16,29,31,14,32,26,135,,1.7,0.8,1.3*32
