2017-12-01 17:58:07 1512169087.077329: {"class":"VERSION","release":"3.16","rev":"3.16-4","proto_major":3,"proto_minor":11}
2017-12-01 17:58:07 1512169087.077910: {"class":"DEVICES","devices":[{"class":"DEVICE","path":"/dev/ttyUSB0","driver":"SiRF","subtype":"9\u0006GSD4e_4.1.2-P1_RPATCH.05-F-GPS-4R-1510281 11/03/2015 307","activated":"2017-12-01T22:58:07.037Z","flags":1,"native":1,"bps":4800,"parity":"N","stopbits":1,"cycle":1.00}]}
2017-12-01 17:58:07 1512169087.078041: {"class":"WATCH","enable":true,"json":false,"nmea":true,"raw":0,"scaled":false,"timing":false,"split24":false,"pps":false}
2017-12-01 17:58:08 1512169088.103638: $GPZDA,225808.34,01,12,2017,00,00*62
2017-12-01 17:58:08 1512169088.103794: $GPGGA,225808,3946.9737,N,08404.9833,W,1,12,0.80,287.72,M,-33.325,M,,*74
2017-12-01 17:58:08 1512169088.103860: $GPRMC,225808,A,3946.9737,N,08404.9833,W,0.2710,280.223,011217,,*38
2017-12-01 17:58:08 1512169088.103922: $GPGSA,A,3,1,3,10,14,16,22,29,25,26,31,32,138,2.0,0.8,1.5*0C
2017-12-01 17:58:08 1512169088.103981: $GPGBS,225808,10.70,M,15.43,M,35.28,M*02
2017-12-01 17:58:09 1512169089.268599: $GPGSV,3,1,11,01,12,262,34,03,32,309,47,10,08,159,39,14,63,073,44*79
2017-12-01 17:58:09 1512169089.268785: $GPGSV,3,2,11,16,12,189,40,22,48,288,45,29,06,082,02,25,26,045,42*76
2017-12-01 17:58:09 1512169089.268852: $GPGSV,3,3,11,26,41,175,45,32,44,097,44,138,38,213,43*73
2017-12-01 17:58:09 1512169089.382454: $GPZDA,225809.00,01,12,2017,00,00*64
2017-12-01 17:58:09 1512169089.382628: $GPGGA,225809,3946.9733,N,08404.9827,W,1,10,0.80,288.57,M,-33.325,M,,*7E
2017-12-01 17:58:09 1512169089.382694: $GPRMC,225809,A,3946.9733,N,08404.9827,W,0.0407,322.012,011217,,*36
2017-12-01 17:58:09 1512169089.382756: $GPGSA,A,3,1,3,10,14,16,22,25,26,32,138,,,2.0,0.8,1.5*05
2017-12-01 17:58:09 1512169089.834491: $GPZDA,225810.00,01,12,2017,00,00*6C
2017-12-01 17:58:09 1512169089.834664: $GPGGA,225810,3946.9737,N,08404.9827,W,1,10,0.80,289.21,M,-33.325,M,,*72
2017-12-01 17:58:09 1512169089.834732: $GPRMC,225810,A,3946.9737,N,08404.9827,W,0.1867,0.000,011217,,*31
2017-12-01 17:58:09 1512169089.834794: $GPGSA,A,3,1,3,10,14,16,22,25,26,32,138,,,2.0,0.8,1.5*05
2017-12-01 17:58:10 1512169090.389066: $GPZDA,225811.00,01,12,2017,00,00*6D
2017-12-01 17:58:10 1512169090.389244: $GPGGA,225811,3946.9734,N,08404.9827,W,1,10,0.80,289.97,M,-33.325,M,,*7D
2017-12-01 17:58:10 1512169090.389311: $GPRMC,225811,A,3946.9734,N,08404.9827,W,0.0000,0.000,011217,,*3B
2017-12-01 17:58:10 1512169090.389373: $GPGSA,A,3,1,3,10,14,16,22,25,26,32,138,,,2.0,0.8,1.5*05
2017-12-01 17:58:11 1512169091.727721: $GPGSV,3,1,11,01,12,262,35,03,32,309,48,10,08,159,41,14,63,073,43*7F
2017-12-01 17:58:11 1512169091.727901: $GPGSV,3,2,11,16,12,189,39,22,48,288,45,29,06,082,20,25,26,045,42*78
2017-12-01 17:58:11 1512169091.727968: $GPGSV,3,3,11,26,41,175,44,32,44,097,44,138,38,213,46*77
2017-12-01 17:58:11 1512169091.841520: $GPZDA,225812.00,01,12,2017,00,00*6E
2017-12-01 17:58:11 1512169091.846971: $GPGGA,225812,3946.9732,N,08404.9827,W,2,11,1.20,301.41,M,-33.325,M,,*7B
2017-12-01 17:58:11 1512169091.847077: $GPRMC,225812,A,3946.9732,N,08404.9827,W,0.0000,0.000,011217,,*3E
2017-12-01 17:58:11 1512169091.847144: $GPGSA,A,3,1,3,10,14,16,22,29,25,26,32,138,,2.0,1.2,1.5*05
2017-12-01 17:58:12 1512169092.390752: $GPZDA,225813.00,01,12,2017,00,00*6F
2017-12-01 17:58:12 1512169092.390924: $GPGGA,225813,3946.9731,N,08404.9832,W,2,11,1.20,298.52,M,-33.325,M,,*7E
2017-12-01 17:58:12 1512169092.391011: $GPRMC,225813,A,3946.9731,N,08404.9832,W,0.0000,0.000,011217,,*38
2017-12-01 17:58:12 1512169092.391074: $GPGSA,A,3,1,3,10,14,16,22,29,25,26,32,138,,2.0,1.2,1.5*05
2017-12-01 17:58:13 1512169093.390250: $GPZDA,225814.00,01,12,2017,00,00*68
2017-12-01 17:58:13 1512169093.390427: $GPGGA,225814,3946.9731,N,08404.9832,W,2,11,1.20,298.52,M,-33.325,M,,*79
2017-12-01 17:58:13 1512169093.390494: $GPRMC,225814,A,3946.9731,N,08404.9832,W,0.0000,0.000,011217,,*3F
2017-12-01 17:58:13 1512169093.390554: $GPGSA,A,3,1,3,10,14,16,22,29,25,26,32,138,,2.0,1.2,1.5*05
2017-12-01 17:58:13 1512169093.390612: $GPGBS,225814,2.67,M,3.86,M,8.82,M*3A
2017-12-01 17:58:14 1512169094.725909: $GPGSV,3,1,11,01,12,262,35,03,32,309,48,10,08,159,40,14,63,073,42*7F
2017-12-01 17:58:14 1512169094.726138: $GPGSV,3,2,11,16,12,189,40,22,48,288,46,29,06,082,27,25,26,045,42*72
2017-12-01 17:58:14 1512169094.726205: $GPGSV,3,3,11,26,41,175,45,32,44,097,44,138,38,213,46*76
2017-12-01 17:58:14 1512169094.838078: $GPZDA,225815.00,01,12,2017,00,00*69
2017-12-01 17:58:14 1512169094.838218: $GPGGA,225815,3946.9731,N,08404.9832,W,2,11,1.20,298.52,M,-33.325,M,,*78
2017-12-01 17:58:14 1512169094.838284: $GPRMC,225815,A,3946.9731,N,08404.9832,W,0.0000,0.000,011217,,*3E
2017-12-01 17:58:14 1512169094.838344: $GPGSA,A,3,1,3,10,14,16,22,29,25,26,32,138,,2.0,1.2,1.5*05
2017-12-01 17:58:15 1512169095.394381: $GPZDA,225816.00,01,12,2017,00,00*6A
2017-12-01 17:58:15 1512169095.394559: $GPGGA,225816,3946.9731,N,08404.9832,W,2,11,0.80,298.52,M,-33.325,M,,*70
2017-12-01 17:58:15 1512169095.394626: $GPRMC,225816,A,3946.9731,N,08404.9832,W,0.0000,0.000,011217,,*3D
2017-12-01 17:58:15 1512169095.394686: $GPGSA,A,3,1,3,10,14,16,22,29,25,26,32,138,,2.0,0.8,1.5*0E
2017-12-01 17:58:16 1512169096.395537: $GPZDA,225817.00,01,12,2017,00,00*6B
2017-12-01 17:58:16 1512169096.395710: $GPGGA,225817,3946.9731,N,08404.9832,W,2,11,0.80,298.52,M,-33.325,M,,*71
2017-12-01 17:58:16 1512169096.395778: $GPRMC,225817,A,3946.9731,N,08404.9832,W,0.0000,0.000,011217,,*3C
2017-12-01 17:58:16 1512169096.395838: $GPGSA,A,3,1,3,10,14,16,22,29,25,26,32,138,,2.0,0.8,1.5*0E
2017-12-01 17:58:17 1512169097.729977: $GPGSV,3,1,11,01,12,262,35,03,32,309,48,10,08,159,41,14,63,073,43*7F
2017-12-01 17:58:17 1512169097.846862: $GPGSV,3,2,11,16,12,189,40,22,48,288,46,29,06,082,28,25,26,045,42*7D
2017-12-01 17:58:17 1512169097.847069: $GPGSV,3,3,11,26,41,175,46,32,44,097,44,138,38,213,46*75
2017-12-01 17:58:17 1512169097.847213: $GPZDA,225818.00,01,12,2017,00,00*64
2017-12-01 17:58:17 1512169097.847291: $GPGGA,225818,3946.9731,N,08404.9832,W,2,11,0.80,298.52,M,-33.325,M,,*7E
2017-12-01 17:58:17 1512169097.847374: $GPRMC,225818,A,3946.9731,N,08404.9832,W,0.0000,0.000,011217,,*33
2017-12-01 17:58:17 1512169097.847434: $GPGSA,A,3,1,3,10,14,16,22,29,25,26,32,138,,2.0,0.8,1.5*0E
2017-12-01 17:58:18 1512169098.394335: $GPZDA,225819.00,01,12,2017,00,00*65
2017-12-01 17:58:18 1512169098.394510: $GPGGA,225819,3946.9731,N,08404.9832,W,2,11,0.80,298.52,M,-33.325,M,,*7F
2017-12-01 17:58:18 1512169098.394578: $GPRMC,225819,A,3946.9731,N,08404.9832,W,0.0000,0.000,011217,,*32
2017-12-01 17:58:18 1512169098.394639: $GPGSA,A,3,1,3,10,14,16,22,29,25,26,32,138,,2.0,0.8,1.5*0E
2017-12-01 17:58:19 1512169099.397734: $GPZDA,225820.00,01,12,2017,00,00*6F
2017-12-01 17:58:19 1512169099.397930: $GPGGA,225820,3946.9734,N,08404.9839,W,2,11,0.80,297.68,M,-33.325,M,,*7D
2017-12-01 17:58:19 1512169099.398025: $GPRMC,225820,A,3946.9734,N,08404.9839,W,0.0000,0.000,011217,,*36
2017-12-01 17:58:19 1512169099.398088: $GPGSA,A,3,1,3,10,14,16,22,29,25,26,32,138,,2.0,0.8,1.5*0E
2017-12-01 17:58:20 1512169100.732060: $GPGSV,3,1,11,01,12,262,35,03,32,309,47,10,08,159,40,14,63,073,43*71
2017-12-01 17:58:20 1512169100.732242: $GPGSV,3,2,11,16,12,189,40,22,48,288,46,29,06,082,29,25,26,045,42*7C
2017-12-01 17:58:20 1512169100.732308: $GPGSV,3,3,11,26,41,175,45,32,44,097,44,138,38,213,46*76
2017-12-01 17:58:20 1512169100.845445: $GPZDA,225821.00,01,12,2017,00,00*6E
2017-12-01 17:58:20 1512169100.845585: $GPGGA,225821,3946.9734,N,08404.9839,W,2,11,0.80,297.68,M,-33.325,M,,*7C
2017-12-01 17:58:20 1512169100.845651: $GPRMC,225821,A,3946.9734,N,08404.9839,W,0.0000,0.000,011217,,*37
2017-12-01 17:58:20 1512169100.845712: $GPGSA,A,3,1,3,10,14,16,22,29,25,26,32,138,,2.0,0.8,1.5*0E
2017-12-01 17:58:21 1512169101.470857: $GPZDA,225822.00,01,12,2017,00,00*6D
2017-12-01 17:58:21 1512169101.471039: $GPGGA,225822,3946.9734,N,08404.9839,W,2,11,0.80,297.68,M,-33.325,M,,*7F
2017-12-01 17:58:21 1512169101.471106: $GPRMC,225822,A,3946.9734,N,08404.9839,W,0.0000,0.000,011217,,*34
2017-12-01 17:58:21 1512169101.471168: $GPGSA,A,3,1,3,10,14,16,22,29,25,26,32,138,,2.0,0.8,1.5*0E
2017-12-01 17:58:22 1512169102.394334: $GPZDA,225823.00,01,12,2017,00,00*6C
2017-12-01 17:58:22 1512169102.394508: $GPGGA,225823,3946.9734,N,08404.9839,W,2,11,0.80,297.68,M,-33.325,M,,*7E
2017-12-01 17:58:22 1512169102.394577: $GPRMC,225823,A,3946.9734,N,08404.9839,W,0.0000,0.000,011217,,*35
2017-12-01 17:58:22 1512169102.394637: $GPGSA,A,3,1,3,10,14,16,22,29,25,26,32,138,,2.0,0.8,1.5*0E
2017-12-01 17:58:23 1512169103.731301: $GPGSV,3,1,11,01,12,262,35,03,32,309,48,10,08,159,40,14,63,073,42*7F
2017-12-01 17:58:23 1512169103.731512: $GPGSV,3,2,11,16,12,189,41,22,48,288,46,29,06,082,29,25,26,045,41*7E
2017-12-01 17:58:23 1512169103.731581: $GPGSV,3,3,11,26,41,175,46,32,44,097,44,138,38,213,46*75
2017-12-01 17:58:23 1512169103.844645: $GPZDA,225824.00,01,12,2017,00,00*6B
2017-12-01 17:58:23 1512169103.844834: $GPGGA,225824,3946.9734,N,08404.9839,W,2,11,0.80,297.68,M,-33.325,M,,*79
2017-12-01 17:58:23 1512169103.844902: $GPRMC,225824,A,3946.9734,N,08404.9839,W,0.0000,0.000,011217,,*32
2017-12-01 17:58:23 1512169103.844981: $GPGSA,A,3,1,3,10,14,16,22,29,25,26,32,138,,2.0,0.8,1.5*0E
2017-12-01 17:58:24 1512169104.395537: $GPZDA,225825.00,01,12,2017,00,00*6A
2017-12-01 17:58:24 1512169104.395712: $GPGGA,225825,3946.9734,N,08404.9839,W,2,11,0.80,297.68,M,-33.325,M,,*78
2017-12-01 17:58:24 1512169104.395778: $GPRMC,225825,A,3946.9734,N,08404.9839,W,0.0000,0.000,011217,,*33
2017-12-01 17:58:24 1512169104.395864: $GPGSA,A,3,1,3,10,14,16,22,29,25,26,32,138,,2.0,0.8,1.5*0E
2017-12-01 17:58:25 1512169105.396660: $GPZDA,225826.00,01,12,2017,00,00*69
2017-12-01 17:58:25 1512169105.396859: $GPGGA,225826,3946.9734,N,08404.9839,W,2,11,0.80,297.68,M,-33.325,M,,*7B
2017-12-01 17:58:25 1512169105.396944: $GPRMC,225826,A,3946.9734,N,08404.9839,W,0.0000,0.000,011217,,*30
2017-12-01 17:58:25 1512169105.397006: $GPGSA,A,3,1,3,10,14,16,22,29,25,26,32,138,,2.0,0.8,1.5*0E
2017-12-01 17:58:25 1512169105.397064: $GPGBS,225826,2.67,M,3.86,M,8.82,M*3B
2017-12-01 17:58:26 1512169106.723978: $GPGSV,3,1,11,01,12,262,36,03,32,309,47,10,08,159,40,14,63,073,42*73
2017-12-01 17:58:26 1512169106.724160: $GPGSV,3,2,11,16,12,189,41,22,48,288,46,29,06,082,30,25,26,045,41*76
2017-12-01 17:58:26 1512169106.724225: $GPGSV,3,3,11,26,41,175,46,32,44,097,43,138,38,213,46*72
2017-12-01 17:58:26 1512169106.837360: $GPZDA,225827.00,01,12,2017,00,00*68
2017-12-01 17:58:26 1512169106.837503: $GPGGA,225827,3946.9731,N,08404.9839,W,2,11,0.80,298.44,M,-33.325,M,,*7E
2017-12-01 17:58:26 1512169106.837569: $GPRMC,225827,A,3946.9731,N,08404.9839,W,0.0000,0.000,011217,,*34
2017-12-01 17:58:26 1512169106.837629: $GPGSA,A,3,1,3,10,14,16,22,29,25,26,32,138,,2.0,0.8,1.5*0E
