2017-11-15 19:49:32 1510793372.727321: {"class":"VERSION","release":"3.17","rev":"3.17","proto_major":3,"proto_minor":12}
2017-11-15 19:49:32 1510793372.728149: {"class":"DEVICES","devices":[{"class":"DEVICE","path":"/dev/ttyUSB0","driver":"SiRF","subtype":"9\u0006GSD4e_4.1.2-P1_RPATCH.05-F-GPS-4R-1510281 11/03/2015 307","activated":"2017-11-16T00:49:32.487Z","flags":1,"native":1,"bps":4800,"parity":"N","stopbits":1,"cycle":1.00}]}
2017-11-15 19:49:32 1510793372.728356: {"class":"WATCH","enable":true,"json":false,"nmea":true,"raw":0,"scaled":false,"timing":false,"split24":false,"pps":false}
2017-11-15 19:49:33 1510793373.682591: $GPGSV,3,1,12,32,29,114,22,16,31,190,24,31,61,037,15,26,62,168,20*75
2017-11-15 19:49:33 1510793373.682823: $GPGSV,3,2,12,14,48,103,11,22,49,256,23,29,13,063,00,23,18,304,19*76
2017-11-15 19:49:33 1510793373.686917: $GPGSV,3,3,12,03,43,289,16,25,10,037,00,01,01,246,00,135,23,238,00*47
2017-11-15 19:49:33 1510793373.796238: $GPZDA,004932.00,16,11,2017,00,00*69
2017-11-15 19:49:33 1510793373.796396: $GPGGA,004932,3946.9462,N,08404.9472,W,1,08,1.00,317.66,M,-33.324,M,,*79
2017-11-15 19:49:33 1510793373.796456: $GPRMC,004932,A,3946.9462,N,08404.9472,W,0.7267,93.794,161117,,*07
2017-11-15 19:49:33 1510793373.796530: $GPGSA,A,3,32,16,31,26,14,22,23,3,,,,,3.4,1.0,2.9*08
2017-11-15 19:49:34 1510793374.347169: $GPZDA,004933.00,16,11,2017,00,00*68
2017-11-15 19:49:34 1510793374.347318: $GPGGA,004933,3946.9465,N,08404.9471,W,1,08,1.00,316.90,M,-33.324,M,,*74
2017-11-15 19:49:34 1510793374.347378: $GPRMC,004933,A,3946.9465,N,08404.9471,W,0.5951,58.684,161117,,*09
2017-11-15 19:49:34 1510793374.347433: $GPGSA,A,3,32,16,31,26,14,22,23,3,,,,,3.4,1.0,2.9*08
2017-11-15 19:49:35 1510793375.330581: $GPZDA,004934.00,16,11,2017,00,00*6F
2017-11-15 19:49:35 1510793375.330770: $GPGGA,004934,3946.9465,N,08404.9464,W,1,08,1.00,316.97,M,-33.324,M,,*70
2017-11-15 19:49:35 1510793375.330831: $GPRMC,004934,A,3946.9465,N,08404.9464,W,1.2357,86.544,161117,,*0C
2017-11-15 19:49:35 1510793375.330887: $GPGSA,A,3,32,16,31,26,14,22,23,3,,,,,3.4,1.0,2.9*08
2017-11-15 19:49:36 1510793376.665345: $GPGSV,3,1,12,32,29,114,22,16,31,190,24,31,61,037,16,26,62,168,20*76
2017-11-15 19:49:36 1510793376.665532: $GPGSV,3,2,12,14,48,103,16,22,49,256,24,29,13,063,00,23,18,304,19*76
2017-11-15 19:49:36 1510793376.665593: $GPGSV,3,3,12,03,43,289,16,25,10,037,00,01,01,246,00,135,23,238,00*47
2017-11-15 19:49:36 1510793376.778720: $GPZDA,004935.00,16,11,2017,00,00*6E
2017-11-15 19:49:36 1510793376.778880: $GPGGA,004935,3946.9468,N,08404.9464,W,1,08,1.00,316.21,M,-33.324,M,,*71
2017-11-15 19:49:36 1510793376.778940: $GPRMC,004935,A,3946.9468,N,08404.9464,W,0.4844,93.794,161117,,*05
2017-11-15 19:49:36 1510793376.778996: $GPGSA,A,3,32,16,31,26,14,22,23,3,,,,,3.4,1.0,2.9*08
2017-11-15 19:49:37 1510793377.350855: $GPZDA,004936.00,16,11,2017,00,00*6D
2017-11-15 19:49:37 1510793377.351035: $GPGGA,004936,3946.9468,N,08404.9464,W,1,08,1.00,316.21,M,-33.324,M,,*72
2017-11-15 19:49:37 1510793377.351096: $GPRMC,004936,A,3946.9468,N,08404.9464,W,0.4179,148.778,161117,,*34
2017-11-15 19:49:37 1510793377.351151: $GPGSA,A,3,32,16,31,26,14,22,23,3,,,,,3.4,1.0,2.9*08
2017-11-15 19:49:38 1510793378.330456: $GPZDA,004937.00,16,11,2017,00,00*6C
2017-11-15 19:49:38 1510793378.330670: $GPGGA,004937,3946.9468,N,08404.9464,W,1,08,1.00,316.21,M,-33.324,M,,*73
2017-11-15 19:49:38 1510793378.330733: $GPRMC,004937,A,3946.9468,N,08404.9464,W,0.4844,93.794,161117,,*07
2017-11-15 19:49:38 1510793378.330789: $GPGSA,A,3,32,16,31,26,14,22,23,3,,,,,3.4,1.0,2.9*08
2017-11-15 19:49:39 1510793379.666201: $GPGSV,3,1,12,32,29,114,22,16,31,190,24,31,61,037,15,26,62,168,21*74
2017-11-15 19:49:39 1510793379.666369: $GPGSV,3,2,12,14,48,103,16,22,49,256,24,29,13,063,00,23,18,304,18*77
2017-11-15 19:49:39 1510793379.666433: $GPGSV,3,3,12,03,43,289,15,25,10,037,00,01,01,246,00,120,07,103,00*4D
2017-11-15 19:49:39 1510793379.779572: $GPZDA,004938.00,16,11,2017,00,00*63
2017-11-15 19:49:39 1510793379.779751: $GPGGA,004938,3946.9471,N,08404.9456,W,1,08,1.00,315.52,M,-33.324,M,,*72
2017-11-15 19:49:39 1510793379.779868: $GPRMC,004938,A,3946.9471,N,08404.9456,W,0.9689,93.794,161117,,*03
2017-11-15 19:49:39 1510793379.779926: $GPGSA,A,3,32,16,31,26,14,22,23,3,,,,,3.4,1.0,2.9*08
2017-11-15 19:49:40 1510793380.330451: $GPZDA,004939.00,16,11,2017,00,00*62
2017-11-15 19:49:40 1510793380.330675: $GPGGA,004939,3946.9471,N,08404.9456,W,1,08,1.00,315.52,M,-33.324,M,,*73
2017-11-15 19:49:40 1510793380.330736: $GPRMC,004939,A,3946.9471,N,08404.9456,W,0.9959,84.784,161117,,*07
2017-11-15 19:49:40 1510793380.330792: $GPGSA,A,3,32,16,31,26,14,22,23,3,,,,,3.4,1.0,2.9*08
2017-11-15 19:49:41 1510793381.330059: $GPZDA,004940.00,16,11,2017,00,00*6C
2017-11-15 19:49:41 1510793381.330326: $GPGGA,004940,3946.9471,N,08404.9449,W,1,08,1.00,315.60,M,-33.324,M,,*72
2017-11-15 19:49:41 1510793381.330446: $GPRMC,004940,A,3946.9471,N,08404.9449,W,0.9988,104.546,161117,,*3E
2017-11-15 19:49:41 1510793381.330578: $GPGSA,A,3,32,16,31,26,14,22,23,3,,,,,3.4,1.0,2.9*08
2017-11-15 19:49:42 1510793382.681576: $GPGSV,3,1,12,32,29,114,22,16,31,190,24,31,61,037,15,26,62,168,21*74
2017-11-15 19:49:42 1510793382.681738: $GPGSV,3,2,12,14,48,103,17,22,49,256,24,29,13,063,00,23,18,304,18*76
2017-11-15 19:49:42 1510793382.681799: $GPGSV,3,3,12,03,43,289,15,25,10,037,00,01,01,246,00,120,07,103,00*4D
