2017-11-15 19:16:07 1510791367.232756: {"class":"VERSION","release":"3.17","rev":"3.17","proto_major":3,"proto_minor":12}
2017-11-15 19:16:07 1510791367.233441: {"class":"DEVICES","devices":[{"class":"DEVICE","path":"/dev/ttyUSB0","driver":"SiRF","subtype":"9\u0006GSD4e_4.1.2-P1_RPATCH.05-F-GPS-4R-1510281 11/03/2015 307","activated":"2017-11-16T00:16:07.168Z","flags":1,"native":1,"bps":4800,"parity":"N","stopbits":1,"cycle":1.00}]}
2017-11-15 19:16:07 1510791367.233553: {"class":"WATCH","enable":true,"json":false,"nmea":true,"raw":0,"scaled":false,"timing":false,"split24":false,"pps":false}
2017-11-15 19:16:07 1510791367.346844: $GPZDA,001606.00,16,11,2017,00,00*64
2017-11-15 19:16:07 1510791367.347020: $GPGGA,001606,3946.9736,N,08404.9458,W,1,08,1.40,297.37,M,-33.324,M,,*77
2017-11-15 19:16:07 1510791367.347082: $GPRMC,001606,A,3946.9736,N,08404.9458,W,1.2361,14.852,161117,,*09
2017-11-15 19:16:07 1510791367.347154: $GPGSA,A,3,32,14,22,26,31,16,3,1,,,,,3.4,1.4,2.9*3C
2017-11-15 19:16:08 1510791368.346280: $GPZDA,001607.00,16,11,2017,00,00*65
2017-11-15 19:16:08 1510791368.346447: $GPGGA,001607,3946.9739,N,08404.9457,W,1,08,1.40,296.60,M,-33.324,M,,*75
2017-11-15 19:16:08 1510791368.346510: $GPRMC,001607,A,3946.9739,N,08404.9457,W,1.1385,29.379,161117,,*0D
2017-11-15 19:16:08 1510791368.346566: $GPGSA,A,3,32,14,22,26,31,16,3,1,,,,,3.4,1.4,2.9*3C
2017-11-15 19:16:09 1510791369.667122: $GPGSV,3,1,11,32,41,102,11,14,59,084,25,22,49,280,23,26,46,175,16*7A
2017-11-15 19:16:09 1510791369.667296: $GPGSV,3,2,11,31,72,013,19,16,16,190,08,03,36,304,17,01,09,256,11*7B
2017-11-15 19:16:09 1510791369.667355: $GPGSV,3,3,11,25,22,042,00,29,09,076,00,23,07,298,00*4E
2017-11-15 19:16:09 1510791369.779164: $GPZDA,001608.00,16,11,2017,00,00*6A
2017-11-15 19:16:09 1510791369.779326: $GPGGA,001608,3946.9739,N,08404.9451,W,1,08,1.40,296.68,M,-33.324,M,,*74
2017-11-15 19:16:09 1510791369.779386: $GPRMC,001608,A,3946.9739,N,08404.9451,W,1.2621,39.347,161117,,*00
2017-11-15 19:16:09 1510791369.779443: $GPGSA,A,3,32,14,22,26,31,16,3,1,,,,,3.4,1.4,2.9*3C
2017-11-15 19:16:10 1510791370.346561: $GPZDA,001609.00,16,11,2017,00,00*6B
2017-11-15 19:16:10 1510791370.346793: $GPGGA,001609,3946.9746,N,08404.9443,W,1,08,1.40,296.64,M,-33.324,M,,*72
2017-11-15 19:16:10 1510791370.346864: $GPRMC,001609,A,3946.9746,N,08404.9443,W,1.5430,43.747,161117,,*06
2017-11-15 19:16:10 1510791370.346919: $GPGSA,A,3,32,14,22,26,31,16,3,1,,,,,3.4,1.4,2.9*3C
2017-11-15 19:16:11 1510791371.346882: $GPZDA,001610.00,16,11,2017,00,00*63
2017-11-15 19:16:11 1510791371.777390: $GPGGA,001610,3946.9746,N,08404.9443,W,1,08,1.40,296.64,M,-33.324,M,,*7A
2017-11-15 19:16:11 1510791371.777526: $GPRMC,001610,A,3946.9746,N,08404.9443,W,1.4167,47.342,161117,,*0D
2017-11-15 19:16:11 1510791371.777584: $GPGSA,A,3,32,14,22,26,31,16,3,1,,,,,3.4,1.4,2.9*3C
2017-11-15 19:16:12 1510791372.682436: $GPGSV,3,1,11,32,41,102,11,14,59,084,25,22,49,280,23,26,46,175,15*79
2017-11-15 19:16:12 1510791372.682607: $GPGSV,3,2,11,31,72,013,19,16,16,190,09,03,36,304,18,01,09,256,11*75
2017-11-15 19:16:12 1510791372.682667: $GPGSV,3,3,11,25,22,042,00,29,09,076,00,23,07,298,00*4E
2017-11-15 19:16:12 1510791372.795759: $GPZDA,001611.00,16,11,2017,00,00*62
2017-11-15 19:16:12 1510791372.795925: $GPGGA,001611,3946.9746,N,08404.9436,W,1,08,1.40,296.72,M,-33.324,M,,*7E
2017-11-15 19:16:12 1510791372.796012: $GPRMC,001611,A,3946.9746,N,08404.9436,W,1.4903,59.461,161117,,*0D
2017-11-15 19:16:12 1510791372.796070: $GPGSA,A,3,32,14,22,26,31,16,3,1,,,,,3.4,1.4,2.9*3C
2017-11-15 19:16:13 1510791373.346644: $GPZDA,001612.00,16,11,2017,00,00*61
2017-11-15 19:16:13 1510791373.346855: $GPGGA,001612,3946.9742,N,08404.9436,W,1,08,1.40,296.08,M,-33.324,M,,*74
2017-11-15 19:16:13 1510791373.346916: $GPRMC,001612,A,3946.9742,N,08404.9436,W,0.5951,58.684,161117,,*05
2017-11-15 19:16:13 1510791373.346997: $GPGSA,A,3,32,14,22,26,31,16,3,1,,,,,3.4,1.4,2.9*3C
2017-11-15 19:16:14 1510791374.330044: $GPZDA,001613.00,16,11,2017,00,00*60
2017-11-15 19:16:14 1510791374.330236: $GPGGA,001613,3946.9742,N,08404.9436,W,1,08,1.40,296.08,M,-33.324,M,,*75
2017-11-15 19:16:14 1510791374.330353: $GPRMC,001613,A,3946.9742,N,08404.9436,W,0.2422,93.795,161117,,*0C
2017-11-15 19:16:14 1510791374.330411: $GPGSA,A,3,32,14,22,26,31,16,3,1,,,,,3.4,1.4,2.9*3C
2017-11-15 19:16:15 1510791375.682035: $GPGSV,3,1,11,32,41,102,14,14,59,084,25,22,49,280,23,26,46,175,15*7C
2017-11-15 19:16:15 1510791375.682236: $GPGSV,3,2,11,31,72,013,19,16,16,190,08,03,36,304,18,01,09,256,11*74
2017-11-15 19:16:15 1510791375.682298: $GPGSV,3,3,11,25,22,042,00,29,09,076,00,23,07,298,00*4E
2017-11-15 19:16:15 1510791375.795462: $GPZDA,001614.00,16,11,2017,00,00*67
2017-11-15 19:16:15 1510791375.795632: $GPGGA,001614,3946.9742,N,08404.9436,W,1,08,1.40,296.08,M,-33.324,M,,*72
2017-11-15 19:16:15 1510791375.795692: $GPRMC,001614,A,3946.9742,N,08404.9436,W,0.2422,93.795,161117,,*0B
2017-11-15 19:16:15 1510791375.795747: $GPGSA,A,3,32,14,22,26,31,16,3,1,,,,,3.4,1.4,2.9*3C
2017-11-15 19:16:16 1510791376.420725: $GPZDA,001615.00,16,11,2017,00,00*66
2017-11-15 19:16:16 1510791376.420883: $GPGGA,001615,3946.9738,N,08404.9436,W,1,08,1.40,295.44,M,-33.324,M,,*75
2017-11-15 19:16:16 1510791376.420944: $GPRMC,001615,A,3946.9738,N,08404.9436,W,0.4844,93.795,161117,,*0D
2017-11-15 19:16:16 1510791376.420999: $GPGSA,A,3,32,14,22,26,31,16,3,1,,,,,3.4,1.4,2.9*3C
