2017-12-31 17:54:36 1514760876.817484: {"class":"VERSION","release":"3.16","rev":"3.16-4","proto_major":3,"proto_minor":11}
2017-12-31 17:54:36 1514760876.817863: {"class":"DEVICES","devices":[{"class":"DEVICE","path":"/dev/ttyUSB0","driver":"SiRF","activated":"2017-12-31T22:54:36.789Z","flags":1,"native":1,"bps":4800,"parity":"N","stopbits":1,"cycle":1.00}]}
2017-12-31 17:54:36 1514760876.817965: {"class":"WATCH","enable":true,"json":false,"nmea":true,"raw":0,"scaled":false,"timing":false,"split24":false,"pps":false}
2017-12-31 17:54:37 1514760877.350512: $GPZDA,225438.00,31,12,2017,00,00*69
2017-12-31 17:54:37 1514760877.350700: $GPGGA,225438,3946.9566,N,08404.9858,W,2,11,0.60,305.39,M,-33.324,M,,*7B
2017-12-31 17:54:37 1514760877.350770: $GPRMC,225438,A,3946.9566,N,08404.9858,W,0.0000,0.000,311217,,*32
2017-12-31 17:54:37 1514760877.350832: $GPGSA,A,3,22,23,9,3,16,29,14,31,27,26,135,,1.7,0.6,1.3*06
2017-12-31 17:54:38 1514760878.372679: $GPZDA,225439.00,31,12,2017,00,00*68
2017-12-31 17:54:38 1514760878.372860: $GPGGA,225439,3946.9566,N,08404.9858,W,2,11,0.60,305.39,M,-33.324,M,,*7A
2017-12-31 17:54:38 1514760878.372927: $GPRMC,225439,A,3946.9566,N,08404.9858,W,0.0000,0.000,311217,,*33
2017-12-31 17:54:38 1514760878.372989: $GPGSA,A,3,22,23,9,3,16,29,14,31,27,26,135,,1.7,0.6,1.3*06
2017-12-31 17:54:39 1514760879.682147: $GPGSV,3,1,11,22,27,219,42,23,48,309,43,09,15,312,42,03,36,240,46*7B
2017-12-31 17:54:39 1514760879.682330: $GPGSV,3,2,11,16,73,192,42,29,08,034,23,14,21,130,24,31,33,070,43*72
2017-12-31 17:54:39 1514760879.682397: $GPGSV,3,3,11,27,16,157,31,26,68,057,47,135,22,240,43*77
2017-12-31 17:54:39 1514760879.795744: $GPZDA,225440.00,31,12,2017,00,00*66
2017-12-31 17:54:39 1514760879.795867: $GPGGA,225440,3946.9566,N,08404.9858,W,2,11,0.60,305.39,M,-33.324,M,,*74
2017-12-31 17:54:39 1514760879.795932: $GPRMC,225440,A,3946.9566,N,08404.9858,W,0.0000,0.000,311217,,*3D
2017-12-31 17:54:39 1514760879.795994: $GPGSA,A,3,22,23,9,3,16,29,14,31,27,26,135,,1.7,0.6,1.3*06
2017-12-31 17:54:40 1514760880.422401: $GPZDA,225441.00,31,12,2017,00,00*67
2017-12-31 17:54:40 1514760880.422570: $GPGGA,225441,3946.9566,N,08404.9858,W,2,11,0.60,305.39,M,-33.324,M,,*75
2017-12-31 17:54:40 1514760880.422636: $GPRMC,225441,A,3946.9566,N,08404.9858,W,0.0000,0.000,311217,,*3C
2017-12-31 17:54:40 1514760880.422698: $GPGSA,A,3,22,23,9,3,16,29,14,31,27,26,135,,1.7,0.6,1.3*06
2017-12-31 17:54:41 1514760881.347017: $GPZDA,225442.00,31,12,2017,00,00*64
2017-12-31 17:54:41 1514760881.347235: $GPGGA,225442,3946.9566,N,08404.9858,W,2,11,0.60,305.39,M,-33.324,M,,*76
2017-12-31 17:54:41 1514760881.347305: $GPRMC,225442,A,3946.9566,N,08404.9858,W,0.0000,0.000,311217,,*3F
2017-12-31 17:54:41 1514760881.347366: $GPGSA,A,3,22,23,9,3,16,29,14,31,27,26,135,,1.7,0.6,1.3*06
2017-12-31 17:54:42 1514760882.682507: $GPGSV,3,1,11,22,27,219,42,23,48,309,42,09,15,312,43,03,36,240,46*7B
2017-12-31 17:54:42 1514760882.682683: $GPGSV,3,2,11,16,73,192,42,29,08,034,32,14,21,130,23,31,33,070,43*75
2017-12-31 17:54:42 1514760882.682749: $GPGSV,3,3,11,27,16,157,31,26,68,057,47,135,22,240,44*70
2017-12-31 17:54:42 1514760882.796093: $GPZDA,225443.00,31,12,2017,00,00*65
2017-12-31 17:54:42 1514760882.796212: $GPGGA,225443,3946.9566,N,08404.9858,W,2,11,0.60,305.39,M,-33.324,M,,*77
2017-12-31 17:54:42 1514760882.796276: $GPRMC,225443,A,3946.9566,N,08404.9858,W,0.0000,0.000,311217,,*3E
2017-12-31 17:54:42 1514760882.796337: $GPGSA,A,3,22,23,9,3,16,29,14,31,27,26,135,,1.7,0.6,1.3*06
2017-12-31 17:54:43 1514760883.348325: $GPZDA,225444.00,31,12,2017,00,00*62
2017-12-31 17:54:43 1514760883.348489: $GPGGA,225444,3946.9566,N,08404.9858,W,2,11,0.60,305.39,M,-33.324,M,,*70
2017-12-31 17:54:43 1514760883.348560: $GPRMC,225444,A,3946.9566,N,08404.9858,W,0.0000,0.000,311217,,*39
2017-12-31 17:54:43 1514760883.348621: $GPGSA,A,3,22,23,9,3,16,29,14,31,27,26,135,,1.7,0.6,1.3*06
2017-12-31 17:54:44 1514760884.339127: $GPZDA,225445.00,31,12,2017,00,00*63
2017-12-31 17:54:44 1514760884.339294: $GPGGA,225445,3946.9566,N,08404.9858,W,2,11,0.60,305.39,M,-33.324,M,,*71
2017-12-31 17:54:44 1514760884.339418: $GPRMC,225445,A,3946.9566,N,08404.9858,W,0.0000,0.000,311217,,*38
2017-12-31 17:54:44 1514760884.339485: $GPGSA,A,3,22,23,9,3,16,29,14,31,27,26,135,,1.7,0.6,1.3*06
2017-12-31 17:54:45 1514760885.682872: $GPGSV,3,1,11,22,27,219,42,23,48,309,42,09,15,312,43,03,36,240,47*7A
2017-12-31 17:54:45 1514760885.683051: $GPGSV,3,2,11,16,73,192,43,29,08,034,31,14,21,130,25,31,33,070,43*71
2017-12-31 17:54:45 1514760885.683117: $GPGSV,3,3,11,27,16,157,31,26,68,057,47,135,22,240,43*77
2017-12-31 17:54:45 1514760885.796489: $GPZDA,225446.00,31,12,2017,00,00*60
2017-12-31 17:54:45 1514760885.796652: $GPGGA,225446,3946.9566,N,08404.9858,W,2,11,0.60,305.39,M,-33.324,M,,*72
2017-12-31 17:54:45 1514760885.796718: $GPRMC,225446,A,3946.9566,N,08404.9858,W,0.0000,0.000,311217,,*3B
2017-12-31 17:54:45 1514760885.796780: $GPGSA,A,3,22,23,9,3,16,29,14,31,27,26,135,,1.7,0.6,1.3*06
2017-12-31 17:54:46 1514760886.372355: $GPZDA,225447.00,31,12,2017,00,00*61
2017-12-31 17:54:46 1514760886.372528: $GPGGA,225447,3946.9566,N,08404.9858,W,2,11,0.60,305.39,M,-33.324,M,,*73
2017-12-31 17:54:46 1514760886.372594: $GPRMC,225447,A,3946.9566,N,08404.9858,W,0.0000,0.000,311217,,*3A
2017-12-31 17:54:46 1514760886.372657: $GPGSA,A,3,22,23,9,3,16,29,14,31,27,26,135,,1.7,0.6,1.3*06
