2017-12-01 12:05:39 1512147939.457512: {"class":"VERSION","release":"3.16","rev":"3.16-4","proto_major":3,"proto_minor":11}
2017-12-01 12:05:39 1512147939.457953: {"class":"DEVICES","devices":[{"class":"DEVICE","path":"/dev/ttyUSB0","driver":"SiRF","subtype":"9\u0006GSD4e_4.1.2-P1_RPATCH.05-F-GPS-4R-1510281 11/03/2015 307","activated":"2017-12-01T17:05:39.236Z","flags":1,"native":1,"bps":4800,"parity":"N","stopbits":1,"cycle":1.00}]}
2017-12-01 12:05:39 1512147939.458182: {"class":"WATCH","enable":true,"json":false,"nmea":true,"raw":0,"scaled":false,"timing":false,"split24":false,"pps":false}
2017-12-01 12:05:39 1512147939.684581: $GPGSV,3,1,12,10,20,279,42,13,34,046,44,15,66,054,45,18,50,295,46*72
2017-12-01 12:05:39 1512147939.684776: $GPGSV,3,2,12,20,55,064,45,21,75,289,44,24,29,142,45,27,14,318,33*79
2017-12-01 12:05:39 1512147939.684841: $GPGSV,3,3,12,29,15,192,32,05,07,084,00,04,04,135,00,138,38,213,46*44
2017-12-01 12:05:39 1512147939.797979: $GPZDA,170540.00,01,12,2017,00,00*67
2017-12-01 12:05:39 1512147939.798142: $GPGGA,170540,3946.9573,N,08404.9819,W,2,10,0.80,300.69,M,-33.324,M,,*78
2017-12-01 12:05:39 1512147939.798209: $GPRMC,170540,A,3946.9573,N,08404.9819,W,0.0000,0.000,011217,,*3D
2017-12-01 12:05:39 1512147939.798269: $GPGSA,A,3,10,13,15,18,20,21,24,27,29,138,,,2.0,0.8,1.5*01
2017-12-01 12:05:40 1512147940.425004: $GPZDA,170541.00,01,12,2017,00,00*66
2017-12-01 12:05:40 1512147940.425173: $GPGGA,170541,3946.9573,N,08404.9819,W,2,10,0.80,300.69,M,-33.324,M,,*79
2017-12-01 12:05:40 1512147940.425239: $GPRMC,170541,A,3946.9573,N,08404.9819,W,0.0000,0.000,011217,,*3C
2017-12-01 12:05:40 1512147940.425300: $GPGSA,A,3,10,13,15,18,20,21,24,27,29,138,,,2.0,0.8,1.5*01
2017-12-01 12:05:41 1512147941.353004: $GPZDA,170542.00,01,12,2017,00,00*65
2017-12-01 12:05:41 1512147941.353177: $GPGGA,170542,3946.9573,N,08404.9819,W,2,10,0.80,300.69,M,-33.324,M,,*7A
2017-12-01 12:05:41 1512147941.353246: $GPRMC,170542,A,3946.9573,N,08404.9819,W,0.0000,0.000,011217,,*3F
2017-12-01 12:05:41 1512147941.353307: $GPGSA,A,3,10,13,15,18,20,21,24,27,29,138,,,2.0,0.8,1.5*01
2017-12-01 12:05:42 1512147942.686177: $GPGSV,3,1,12,10,20,279,42,13,34,046,44,15,66,054,45,18,50,295,46*72
2017-12-01 12:05:42 1512147942.686365: $GPGSV,3,2,12,20,55,064,45,21,75,289,44,24,29,142,44,27,14,318,33*78
2017-12-01 12:05:42 1512147942.686432: $GPGSV,3,3,12,29,15,192,33,05,07,084,00,04,04,135,00,138,38,213,46*45
2017-12-01 12:05:42 1512147942.799647: $GPZDA,170543.00,01,12,2017,00,00*64
2017-12-01 12:05:42 1512147942.799815: $GPGGA,170543,3946.9573,N,08404.9819,W,2,10,0.80,300.69,M,-33.324,M,,*7B
2017-12-01 12:05:42 1512147942.799881: $GPRMC,170543,A,3946.9573,N,08404.9819,W,0.0000,0.000,011217,,*3E
2017-12-01 12:05:42 1512147942.799942: $GPGSA,A,3,10,13,15,18,20,21,24,27,29,138,,,2.0,0.8,1.5*01
2017-12-01 12:05:43 1512147943.351984: $GPZDA,170544.00,01,12,2017,00,00*63
2017-12-01 12:05:43 1512147943.352169: $GPGGA,170544,3946.9573,N,08404.9819,W,2,10,0.80,300.69,M,-33.324,M,,*7C
2017-12-01 12:05:43 1512147943.352240: $GPRMC,170544,A,3946.9573,N,08404.9819,W,0.0000,0.000,011217,,*39
2017-12-01 12:05:43 1512147943.352327: $GPGSA,A,3,10,13,15,18,20,21,24,27,29,138,,,2.0,0.8,1.5*01
2017-12-01 12:05:44 1512147944.356590: $GPZDA,170545.00,01,12,2017,00,00*62
2017-12-01 12:05:44 1512147944.356775: $GPGGA,170545,3946.9573,N,08404.9819,W,2,10,0.80,300.69,M,-33.324,M,,*7D
2017-12-01 12:05:44 1512147944.356842: $GPRMC,170545,A,3946.9573,N,08404.9819,W,0.0000,0.000,011217,,*38
2017-12-01 12:05:44 1512147944.356903: $GPGSA,A,3,10,13,15,18,20,21,24,27,29,138,,,2.0,0.8,1.5*01
2017-12-01 12:05:45 1512147945.687765: $GPGSV,3,1,12,10,20,279,43,13,34,046,44,15,66,054,45,18,50,295,46*73
2017-12-01 12:05:45 1512147945.687961: $GPGSV,3,2,12,20,55,064,46,21,75,289,44,24,29,142,44,27,14,318,37*7F
2017-12-01 12:05:45 1512147945.688030: $GPGSV,3,3,12,29,15,192,33,05,07,084,00,04,04,135,00,138,38,213,46*45
2017-12-01 12:05:45 1512147945.801194: $GPZDA,170546.00,01,12,2017,00,00*61
2017-12-01 12:05:45 1512147945.801445: $GPGGA,170546,3946.9573,N,08404.9819,W,2,10,0.80,300.69,M,-33.324,M,,*7E
2017-12-01 12:05:45 1512147945.801590: $GPRMC,170546,A,3946.9573,N,08404.9819,W,0.0000,0.000,011217,,*3B
2017-12-01 12:05:45 1512147945.801654: $GPGSA,A,3,10,13,15,18,20,21,24,27,29,138,,,2.0,0.8,1.5*01
2017-12-01 12:05:46 1512147946.358293: $GPZDA,170547.00,01,12,2017,00,00*60
2017-12-01 12:05:46 1512147946.358484: $GPGGA,170547,3946.9573,N,08404.9819,W,2,10,0.80,300.69,M,-33.324,M,,*7F
2017-12-01 12:05:46 1512147946.358558: $GPRMC,170547,A,3946.9573,N,08404.9819,W,0.0000,0.000,011217,,*3A
2017-12-01 12:05:46 1512147946.358622: $GPGSA,A,3,10,13,15,18,20,21,24,27,29,138,,,2.0,0.8,1.5*01
2017-12-01 12:05:47 1512147947.351971: $GPZDA,170548.00,01,12,2017,00,00*6F
2017-12-01 12:05:47 1512147947.352154: $GPGGA,170548,3946.9573,N,08404.9819,W,2,10,0.80,300.69,M,-33.324,M,,*70
2017-12-01 12:05:47 1512147947.352224: $GPRMC,170548,A,3946.9573,N,08404.9819,W,0.0000,0.000,011217,,*35
2017-12-01 12:05:47 1512147947.352289: $GPGSA,A,3,10,13,15,18,20,21,24,27,29,138,,,2.0,0.8,1.5*01
2017-12-01 12:05:48 1512147948.684841: $GPGSV,3,1,12,10,20,279,43,13,34,046,44,15,66,054,45,18,50,295,46*73
2017-12-01 12:05:48 1512147948.685029: $GPGSV,3,2,12,20,55,064,46,21,75,289,44,24,29,142,45,27,14,318,38*71
2017-12-01 12:05:48 1512147948.685099: $GPGSV,3,3,12,29,15,192,33,05,07,084,00,04,04,135,00,138,38,213,46*45
2017-12-01 12:05:48 1512147948.798210: $GPZDA,170549.00,01,12,2017,00,00*6E
2017-12-01 12:05:48 1512147948.798396: $GPGGA,170549,3946.9573,N,08404.9819,W,2,10,0.80,300.69,M,-33.324,M,,*71
2017-12-01 12:05:48 1512147948.798487: $GPRMC,170549,A,3946.9573,N,08404.9819,W,0.0000,0.000,011217,,*34
2017-12-01 12:05:48 1512147948.798557: $GPGSA,A,3,10,13,15,18,20,21,24,27,29,138,,,2.0,0.8,1.5*01
2017-12-01 12:05:49 1512147949.351640: $GPZDA,170550.00,01,12,2017,00,00*66
2017-12-01 12:05:49 1512147949.351809: $GPGGA,170550,3946.9573,N,08404.9819,W,2,10,0.80,300.69,M,-33.324,M,,*79
2017-12-01 12:05:49 1512147949.351883: $GPRMC,170550,A,3946.9573,N,08404.9819,W,0.0000,0.000,011217,,*3C
2017-12-01 12:05:49 1512147949.351967: $GPGSA,A,3,10,13,15,18,20,21,24,27,29,138,,,2.0,0.8,1.5*01
