2017-12-01 12:32:03 1512149523.326973: {"class":"VERSION","release":"3.16","rev":"3.16-4","proto_major":3,"proto_minor":11}
2017-12-01 12:32:03 1512149523.327502: {"class":"DEVICES","devices":[{"class":"DEVICE","path":"/dev/ttyUSB0","driver":"SiRF","subtype":"9\u0006GSD4e_4.1.2-P1_RPATCH.05-F-GPS-4R-1510281 11/03/2015 307","activated":"2017-12-01T17:32:03.289Z","flags":1,"native":1,"bps":4800,"parity":"N","stopbits":1,"cycle":1.00}]}
2017-12-01 12:32:03 1512149523.327655: {"class":"WATCH","enable":true,"json":false,"nmea":true,"raw":0,"scaled":false,"timing":false,"split24":false,"pps":false}
2017-12-01 12:32:03 1512149523.737646: $GPGSV,3,1,11,10,28,288,42,13,23,045,42,15,54,049,47,18,59,307,46*78
2017-12-01 12:32:03 1512149523.744267: $GPGSV,3,2,11,20,47,079,45,21,78,232,42,24,39,133,47,27,18,307,38*72
2017-12-01 12:32:03 1512149523.744384: $GPGSV,3,3,11,29,04,187,25,32,06,228,23,138,38,213,46*72
2017-12-01 12:32:03 1512149523.851039: $GPZDA,173204.00,01,12,2017,00,00*63
2017-12-01 12:32:03 1512149523.851202: $GPGGA,173204,3946.9578,N,08404.9813,W,2,11,0.80,302.81,M,-33.324,M,,*78
2017-12-01 12:32:03 1512149523.851269: $GPRMC,173204,A,3946.9578,N,08404.9813,W,0.0000,0.000,011217,,*38
2017-12-01 12:32:03 1512149523.851330: $GPGSA,A,3,10,13,15,18,20,21,24,27,29,32,138,,2.0,0.8,1.5*00
2017-12-01 12:32:04 1512149524.476659: $GPZDA,173205.00,01,12,2017,00,00*62
2017-12-01 12:32:04 1512149524.476851: $GPGGA,173205,3946.9578,N,08404.9813,W,2,11,0.80,302.81,M,-33.324,M,,*79
2017-12-01 12:32:04 1512149524.476918: $GPRMC,173205,A,3946.9578,N,08404.9813,W,0.0000,0.000,011217,,*39
2017-12-01 12:32:04 1512149524.476979: $GPGSA,A,3,10,13,15,18,20,21,24,27,29,32,138,,2.0,0.8,1.5*00
2017-12-01 12:32:05 1512149525.402670: $GPZDA,173206.00,01,12,2017,00,00*61
2017-12-01 12:32:05 1512149525.402874: $GPGGA,173206,3946.9578,N,08404.9813,W,2,11,0.80,302.81,M,-33.324,M,,*7A
2017-12-01 12:32:05 1512149525.402949: $GPRMC,173206,A,3946.9578,N,08404.9813,W,0.0000,0.000,011217,,*3A
2017-12-01 12:32:05 1512149525.403015: $GPGSA,A,3,10,13,15,18,20,21,24,27,29,32,138,,2.0,0.8,1.5*00
2017-12-01 12:32:06 1512149526.734347: $GPGSV,3,1,11,10,28,288,42,13,23,045,42,15,54,049,46,18,59,307,46*79
2017-12-01 12:32:06 1512149526.734685: $GPGSV,3,2,11,20,47,079,45,21,78,232,42,24,39,133,47,27,18,307,37*7D
2017-12-01 12:32:06 1512149526.734770: $GPGSV,3,3,11,29,04,187,26,32,06,228,23,138,38,213,46*71
2017-12-01 12:32:06 1512149526.847633: $GPZDA,173207.00,01,12,2017,00,00*60
2017-12-01 12:32:06 1512149526.847822: $GPGGA,173207,3946.9578,N,08404.9813,W,2,11,0.80,302.81,M,-33.324,M,,*7B
2017-12-01 12:32:06 1512149526.847890: $GPRMC,173207,A,3946.9578,N,08404.9813,W,0.0000,0.000,011217,,*3B
2017-12-01 12:32:06 1512149526.847952: $GPGSA,A,3,10,13,15,18,20,21,24,27,29,32,138,,2.0,0.8,1.5*00
2017-12-01 12:32:07 1512149527.402320: $GPZDA,173208.00,01,12,2017,00,00*6F
2017-12-01 12:32:07 1512149527.402496: $GPGGA,173208,3946.9578,N,08404.9813,W,2,11,0.80,302.81,M,-33.324,M,,*74
2017-12-01 12:32:07 1512149527.402591: $GPRMC,173208,A,3946.9578,N,08404.9813,W,0.0000,0.000,011217,,*34
2017-12-01 12:32:07 1512149527.402656: $GPGSA,A,3,10,13,15,18,20,21,24,27,29,32,138,,2.0,0.8,1.5*00
2017-12-01 12:32:08 1512149528.400969: $GPZDA,173209.00,01,12,2017,00,00*6E
2017-12-01 12:32:08 1512149528.401168: $GPGGA,173209,3946.9578,N,08404.9813,W,2,11,0.80,302.81,M,-33.324,M,,*75
2017-12-01 12:32:08 1512149528.401237: $GPRMC,173209,A,3946.9578,N,08404.9813,W,0.0000,0.000,011217,,*35
2017-12-01 12:32:08 1512149528.401298: $GPGSA,A,3,10,13,15,18,20,21,24,27,29,32,138,,2.0,0.8,1.5*00
2017-12-01 12:32:09 1512149529.738384: $GPGSV,3,1,11,10,28,288,42,13,23,045,42,15,54,049,46,18,59,307,46*79
2017-12-01 12:32:09 1512149529.738587: $GPGSV,3,2,11,20,47,079,45,21,78,232,42,24,39,133,47,27,18,307,36*7C
2017-12-01 12:32:09 1512149529.738655: $GPGSV,3,3,11,29,04,187,25,32,06,228,24,138,38,213,46*75
2017-12-01 12:32:09 1512149529.852114: $GPZDA,173210.00,01,12,2017,00,00*66
2017-12-01 12:32:09 1512149529.852281: $GPGGA,173210,3946.9578,N,08404.9813,W,2,11,0.80,302.81,M,-33.324,M,,*7D
2017-12-01 12:32:09 1512149529.852423: $GPRMC,173210,A,3946.9578,N,08404.9813,W,0.0000,0.000,011217,,*3D
2017-12-01 12:32:09 1512149529.852486: $GPGSA,A,3,10,13,15,18,20,21,24,27,29,32,138,,2.0,0.8,1.5*00
2017-12-01 12:32:10 1512149530.401450: $GPZDA,173211.00,01,12,2017,00,00*67
2017-12-01 12:32:10 1512149530.401650: $GPGGA,173211,3946.9578,N,08404.9813,W,2,11,0.80,302.81,M,-33.324,M,,*7C
2017-12-01 12:32:10 1512149530.401740: $GPRMC,173211,A,3946.9578,N,08404.9813,W,0.0000,0.000,011217,,*3C
2017-12-01 12:32:10 1512149530.401803: $GPGSA,A,3,10,13,15,18,20,21,24,27,29,32,138,,2.0,0.8,1.5*00
2017-12-01 12:32:11 1512149531.402732: $GPZDA,173212.00,01,12,2017,00,00*64
2017-12-01 12:32:11 1512149531.402923: $GPGGA,173212,3946.9578,N,08404.9813,W,2,11,0.80,302.81,M,-33.324,M,,*7F
2017-12-01 12:32:11 1512149531.402993: $GPRMC,173212,A,3946.9578,N,08404.9813,W,0.0000,0.000,011217,,*3F
2017-12-01 12:32:11 1512149531.403088: $GPGSA,A,3,10,13,15,18,20,21,24,27,29,32,138,,2.0,0.8,1.5*00
2017-12-01 12:32:12 1512149532.738112: $GPGSV,3,1,11,10,28,288,41,13,23,045,42,15,54,049,46,18,59,307,46*7A
2017-12-01 12:32:12 1512149532.738289: $GPGSV,3,2,11,20,47,079,45,21,78,232,42,24,39,133,47,27,18,307,30*7A
2017-12-01 12:32:12 1512149532.738356: $GPGSV,3,3,11,29,04,187,25,32,06,228,24,138,38,213,46*75
2017-12-01 12:32:12 1512149532.851635: $GPZDA,173213.00,01,12,2017,00,00*65
2017-12-01 12:32:12 1512149532.851821: $GPGGA,173213,3946.9578,N,08404.9813,W,2,11,0.80,302.81,M,-33.324,M,,*7E
2017-12-01 12:32:12 1512149532.851888: $GPRMC,173213,A,3946.9578,N,08404.9813,W,0.0000,0.000,011217,,*3E
2017-12-01 12:32:12 1512149532.851949: $GPGSA,A,3,10,13,15,18,20,21,24,27,29,32,138,,2.0,0.8,1.5*00
