2017-11-16 14:55:16 1510862116.576830: {"class":"VERSION","release":"3.17","rev":"3.17","proto_major":3,"proto_minor":12}
2017-11-16 14:55:16 1510862116.577573: {"class":"DEVICES","devices":[{"class":"DEVICE","path":"/dev/ttyUSB0","driver":"SiRF","subtype":"9\u0006GSD4e_4.1.2-P1_RPATCH.05-F-GPS-4R-1510281 11/03/2015 307","activated":"2017-11-16T19:55:16.535Z","flags":1,"native":1,"bps":4800,"parity":"N","stopbits":1,"cycle":1.00}]}
2017-11-16 14:55:16 1510862116.577697: {"class":"WATCH","enable":true,"json":false,"nmea":true,"raw":0,"scaled":false,"timing":false,"split24":false,"pps":false}
2017-11-16 14:55:17 1510862117.493554: $GPZDA,195516.00,16,11,2017,00,00*6A
2017-11-16 14:55:17 1510862117.493730: $GPGGA,195516,3946.9575,N,08404.9848,W,2,10,0.80,301.77,M,-33.324,M,,*7C
2017-11-16 14:55:17 1510862117.493792: $GPRMC,195516,A,3946.9575,N,08404.9848,W,0.0000,0.000,161117,,*32
2017-11-16 14:55:17 1510862117.493848: $GPGSA,A,3,10,15,18,21,20,24,27,32,14,138,,,1.6,0.8,1.3*0F
2017-11-16 14:55:17 1510862117.493902: $GPGBS,195516,2.12,M,3.10,M,7.47,M*36
2017-11-16 14:55:18 1510862118.824291: $GPGSV,3,1,12,08,08,304,11,10,57,316,50,12,01,117,00,15,21,060,50*7C
2017-11-16 14:55:18 1510862118.824483: $GPGSV,3,2,12,18,77,048,45,21,43,181,46,20,18,109,45,24,52,076,48*7F
2017-11-16 14:55:18 1510862118.824545: $GPGSV,3,3,12,27,13,271,43,32,36,252,46,14,19,244,44,138,38,213,44*43
2017-11-16 14:55:18 1510862118.937645: $GPZDA,195517.00,16,11,2017,00,00*6B
2017-11-16 14:55:18 1510862118.937818: $GPGGA,195517,3946.9575,N,08404.9848,W,2,11,0.80,301.77,M,-33.324,M,,*7C
2017-11-16 14:55:18 1510862118.937879: $GPRMC,195517,A,3946.9575,N,08404.9848,W,0.0000,0.000,161117,,*33
2017-11-16 14:55:18 1510862118.937934: $GPGSA,A,3,8,10,15,18,21,20,24,27,32,14,138,,1.6,0.8,1.3*37
2017-11-16 14:55:19 1510862119.563027: $GPZDA,195518.00,16,11,2017,00,00*64
2017-11-16 14:55:19 1510862119.563204: $GPGGA,195518,3946.9575,N,08404.9848,W,2,11,0.80,301.77,M,-33.324,M,,*73
2017-11-16 14:55:19 1510862119.563267: $GPRMC,195518,A,3946.9575,N,08404.9848,W,0.0000,0.000,161117,,*3C
2017-11-16 14:55:19 1510862119.563323: $GPGSA,A,3,8,10,15,18,21,20,24,27,32,14,138,,1.6,0.8,1.3*37
2017-11-16 14:55:20 1510862120.495117: $GPZDA,195519.00,16,11,2017,00,00*65
2017-11-16 14:55:20 1510862120.495282: $GPGGA,195519,3946.9575,N,08404.9848,W,2,11,0.80,301.77,M,-33.324,M,,*72
2017-11-16 14:55:20 1510862120.495343: $GPRMC,195519,A,3946.9575,N,08404.9848,W,0.0000,0.000,161117,,*3D
2017-11-16 14:55:20 1510862120.495400: $GPGSA,A,3,8,10,15,18,21,20,24,27,32,14,138,,1.6,0.8,1.3*37
2017-11-16 14:55:21 1510862121.828429: $GPGSV,3,1,12,08,08,304,25,10,57,316,51,12,01,117,00,15,21,060,50*7A
2017-11-16 14:55:21 1510862121.828645: $GPGSV,3,2,12,18,77,048,45,21,43,181,46,20,18,109,45,24,52,076,48*7F
2017-11-16 14:55:21 1510862121.828708: $GPGSV,3,3,12,27,13,271,43,32,36,252,46,14,19,244,43,138,38,213,43*43
2017-11-16 14:55:21 1510862121.942178: $GPZDA,195520.00,16,11,2017,00,00*6F
2017-11-16 14:55:21 1510862121.942337: $GPGGA,195520,3946.9575,N,08404.9848,W,2,11,0.80,301.77,M,-33.324,M,,*78
2017-11-16 14:55:21 1510862121.942397: $GPRMC,195520,A,3946.9575,N,08404.9848,W,0.0000,0.000,161117,,*37
2017-11-16 14:55:21 1510862121.942473: $GPGSA,A,3,8,10,15,18,21,20,24,27,32,14,138,,1.6,0.8,1.3*37
2017-11-16 14:55:22 1510862122.492772: $GPZDA,195521.00,16,11,2017,00,00*6E
2017-11-16 14:55:22 1510862122.492948: $GPGGA,195521,3946.9575,N,08404.9848,W,2,11,0.80,301.77,M,-33.324,M,,*79
2017-11-16 14:55:22 1510862122.493011: $GPRMC,195521,A,3946.9575,N,08404.9848,W,0.0000,0.000,161117,,*36
2017-11-16 14:55:22 1510862122.493066: $GPGSA,A,3,8,10,15,18,21,20,24,27,32,14,138,,1.6,0.8,1.3*37
2017-11-16 14:55:23 1510862123.492259: $GPZDA,195522.00,16,11,2017,00,00*6D
2017-11-16 14:55:23 1510862123.492420: $GPGGA,195522,3946.9575,N,08404.9848,W,2,11,0.80,301.77,M,-33.324,M,,*7A
2017-11-16 14:55:23 1510862123.492498: $GPRMC,195522,A,3946.9575,N,08404.9848,W,0.0000,0.000,161117,,*35
2017-11-16 14:55:23 1510862123.492557: $GPGSA,A,3,8,10,15,18,21,20,24,27,32,14,138,,1.6,0.8,1.3*37
2017-11-16 14:55:24 1510862124.822582: $GPGSV,3,1,12,08,08,304,30,10,57,316,51,12,01,117,20,15,21,060,49*74
2017-11-16 14:55:24 1510862124.822784: $GPGSV,3,2,12,18,77,048,45,21,43,181,46,20,18,109,44,24,52,076,47*71
2017-11-16 14:55:24 1510862124.822846: $GPGSV,3,3,12,27,13,271,43,32,36,252,46,14,19,244,43,138,38,213,43*43
2017-11-16 14:55:24 1510862124.935916: $GPZDA,195523.00,16,11,2017,00,00*6C
2017-11-16 14:55:24 1510862124.936072: $GPGGA,195523,3946.9575,N,08404.9848,W,2,12,0.80,301.77,M,-33.324,M,,*78
2017-11-16 14:55:24 1510862124.936134: $GPRMC,195523,A,3946.9575,N,08404.9848,W,0.0000,0.000,161117,,*34
2017-11-16 14:55:24 1510862124.936190: $GPGSA,A,3,8,10,12,15,18,21,20,24,27,32,14,138,1.6,0.8,1.3*34
2017-11-16 14:55:25 1510862125.491986: $GPZDA,195524.00,16,11,2017,00,00*6B
2017-11-16 14:55:25 1510862125.492166: $GPGGA,195524,3946.9575,N,08404.9848,W,2,12,0.80,301.77,M,-33.324,M,,*7F
2017-11-16 14:55:25 1510862125.492351: $GPRMC,195524,A,3946.9575,N,08404.9848,W,0.0000,0.000,161117,,*33
2017-11-16 14:55:25 1510862125.492418: $GPGSA,A,3,8,10,12,15,18,21,20,24,27,32,14,138,1.6,0.8,1.3*34
2017-11-16 14:55:26 1510862126.492062: $GPZDA,195525.00,16,11,2017,00,00*6A
2017-11-16 14:55:26 1510862126.492178: $GPGGA,195525,3946.9575,N,08404.9848,W,2,12,0.80,301.77,M,-33.324,M,,*7E
2017-11-16 14:55:26 1510862126.492238: $GPRMC,195525,A,3946.9575,N,08404.9848,W,0.0000,0.000,161117,,*32
2017-11-16 14:55:26 1510862126.492294: $GPGSA,A,3,8,10,12,15,18,21,20,24,27,32,14,138,1.6,0.8,1.3*34
