2017-11-15 19:09:02 1510790942.335783: {"class":"VERSION","release":"3.17","rev":"3.17","proto_major":3,"proto_minor":12}
2017-11-15 19:09:02 1510790942.336242: {"class":"DEVICES","devices":[{"class":"DEVICE","path":"/dev/ttyUSB0","driver":"SiRF","subtype":"9\u0006GSD4e_4.1.2-P1_RPATCH.05-F-GPS-4R-1510281 11/03/2015 307","activated":"2017-11-16T00:09:02.271Z","flags":1,"native":1,"bps":4800,"parity":"N","stopbits":1,"cycle":1.00}]}
2017-11-15 19:09:02 1510790942.336358: {"class":"WATCH","enable":true,"json":false,"nmea":true,"raw":0,"scaled":false,"timing":false,"split24":false,"pps":false}
2017-11-15 19:09:02 1510790942.384550: $GPZDA,000901.00,16,11,2017,00,00*6D
2017-11-15 19:09:02 1510790942.384710: $GPGGA,000901,3946.9615,N,08404.9521,W,1,06,2.00,302.38,M,-33.324,M,,*7A
2017-11-15 19:09:02 1510790942.384770: $GPRMC,000901,A,3946.9615,N,08404.9521,W,1.0018,50.691,161117,,*01
2017-11-15 19:09:02 1510790942.384826: $GPGSA,A,3,32,14,26,31,16,22,,,,,,,3.4,2.0,2.9*39
2017-11-15 19:09:03 1510790943.664171: $GPGSV,3,1,11,32,43,099,26,14,61,078,23,03,34,307,00,26,43,175,20*77
2017-11-15 19:09:03 1510790943.664350: $GPGSV,3,2,11,31,74,004,26,16,13,190,19,22,48,285,26,25,24,043,00*7D
2017-11-15 19:09:03 1510790943.664410: $GPGSV,3,3,11,01,11,259,00,29,07,079,00,10,06,159,00*4E
2017-11-15 19:09:03 1510790943.777716: $GPZDA,000902.00,16,11,2017,00,00*6E
2017-11-15 19:09:03 1510790943.777890: $GPGGA,000902,3946.9615,N,08404.9521,W,1,06,2.00,302.38,M,-33.324,M,,*79
2017-11-15 19:09:03 1510790943.777951: $GPRMC,000902,A,3946.9615,N,08404.9521,W,0.8054,68.645,161117,,*01
2017-11-15 19:09:03 1510790943.778010: $GPGSA,A,3,32,14,26,31,16,22,,,,,,,3.4,2.0,2.9*39
2017-11-15 19:09:04 1510790944.328659: $GPZDA,000903.00,16,11,2017,00,00*6F
2017-11-15 19:09:04 1510790944.334461: $GPGGA,000903,3946.9615,N,08404.9514,W,1,06,2.00,302.46,M,-33.324,M,,*77
2017-11-15 19:09:04 1510790944.334551: $GPRMC,000903,A,3946.9615,N,08404.9514,W,1.1902,58.684,161117,,*0A
2017-11-15 19:09:04 1510790944.334613: $GPGSA,A,3,32,14,26,31,16,22,,,,,,,3.4,2.0,2.9*39
2017-11-15 19:09:05 1510790945.329108: $GPZDA,000904.00,16,11,2017,00,00*68
2017-11-15 19:09:05 1510790945.329283: $GPGGA,000904,3946.9618,N,08404.9513,W,1,06,2.00,301.69,M,-33.324,M,,*74
2017-11-15 19:09:05 1510790945.329345: $GPRMC,000904,A,3946.9618,N,08404.9513,W,1.2975,53.418,161117,,*08
2017-11-15 19:09:05 1510790945.329401: $GPGSA,A,3,32,14,26,31,16,22,,,,,,,3.4,2.0,2.9*39
2017-11-15 19:09:06 1510790946.664491: $GPGSV,3,1,11,32,43,099,26,14,61,078,23,03,34,307,00,26,43,175,20*77
2017-11-15 19:09:06 1510790946.664658: $GPGSV,3,2,11,31,74,004,26,16,13,190,19,22,48,285,26,25,24,043,00*7D
2017-11-15 19:09:06 1510790946.664719: $GPGSV,3,3,11,01,11,259,00,29,07,079,00,10,06,159,00*4E
2017-11-15 19:09:06 1510790946.777849: $GPZDA,000905.00,16,11,2017,00,00*69
2017-11-15 19:09:06 1510790946.778028: $GPGGA,000905,3946.9622,N,08404.9506,W,1,06,2.00,302.41,M,-33.324,M,,*71
2017-11-15 19:09:06 1510790946.778091: $GPRMC,000905,A,3946.9622,N,08404.9506,W,1.4903,59.461,161117,,*07
2017-11-15 19:09:06 1510790946.778148: $GPGSA,A,3,32,14,26,31,16,22,,,,,,,3.4,2.0,2.9*39
2017-11-15 19:09:07 1510790947.330651: $GPZDA,000906.00,16,11,2017,00,00*6A
2017-11-15 19:09:07 1510790947.330824: $GPGGA,000906,3946.9625,N,08404.9498,W,1,06,2.00,301.73,M,-33.324,M,,*71
2017-11-15 19:09:07 1510790947.330886: $GPRMC,000906,A,3946.9625,N,08404.9498,W,1.5933,53.668,161117,,*06
2017-11-15 19:09:07 1510790947.330942: $GPGSA,A,3,32,14,26,31,16,22,,,,,,,3.4,2.0,2.9*39
2017-11-15 19:09:08 1510790948.345984: $GPZDA,000907.00,16,11,2017,00,00*6B
2017-11-15 19:09:08 1510790948.346148: $GPGGA,000907,3946.9625,N,08404.9498,W,1,06,2.00,301.73,M,-33.324,M,,*70
2017-11-15 19:09:08 1510790948.346208: $GPRMC,000907,A,3946.9625,N,08404.9498,W,0.8414,39.347,161117,,*07
2017-11-15 19:09:08 1510790948.346264: $GPGSA,A,3,32,14,26,31,16,22,,,,,,,3.4,2.0,2.9*39
2017-11-15 19:09:09 1510790949.681586: $GPGSV,3,1,11,32,43,099,26,14,61,078,23,03,34,307,00,26,43,175,20*77
2017-11-15 19:09:09 1510790949.681745: $GPGSV,3,2,11,31,74,004,26,16,13,190,19,22,48,285,25,25,24,043,00*7E
2017-11-15 19:09:09 1510790949.681852: $GPGSV,3,3,11,01,11,259,00,29,07,079,00,10,06,159,00*4E
2017-11-15 19:09:09 1510790949.794897: $GPZDA,000908.00,16,11,2017,00,00*64
2017-11-15 19:09:09 1510790949.795060: $GPGGA,000908,3946.9625,N,08404.9498,W,1,06,2.00,301.73,M,-33.324,M,,*7F
2017-11-15 19:09:09 1510790949.795121: $GPRMC,000908,A,3946.9625,N,08404.9498,W,0.3423,4.197,161117,,*36
2017-11-15 19:09:09 1510790949.795177: $GPGSA,A,3,32,14,26,31,16,22,,,,,,,3.4,2.0,2.9*39
2017-11-15 19:09:10 1510790950.329583: $GPZDA,000909.00,16,11,2017,00,00*65
2017-11-15 19:09:10 1510790950.329757: $GPGGA,000909,3946.9625,N,08404.9498,W,1,06,2.00,301.73,M,-33.324,M,,*7E
2017-11-15 19:09:10 1510790950.329818: $GPRMC,000909,A,3946.9625,N,08404.9498,W,0.0000,0.000,161117,,*3A
2017-11-15 19:09:10 1510790950.329873: $GPGSA,A,3,32,14,26,31,16,22,,,,,,,3.4,2.0,2.9*39
2017-11-15 19:09:11 1510790951.346065: $GPZDA,000910.00,16,11,2017,00,00*6D
2017-11-15 19:09:11 1510790951.346269: $GPGGA,000910,3946.9625,N,08404.9498,W,1,06,2.00,301.73,M,-33.324,M,,*76
2017-11-15 19:09:11 1510790951.346332: $GPRMC,000910,A,3946.9625,N,08404.9498,W,0.4179,328.778,161117,,*38
2017-11-15 19:09:11 1510790951.346389: $GPGSA,A,3,32,14,26,31,16,22,,,,,,,3.4,2.0,2.9*39
