2018-01-11 20:06:37 1515719197.870412: {"class":"VERSION","release":"3.16","rev":"3.16-4","proto_major":3,"proto_minor":11}
2018-01-11 20:06:37 1515719197.870819: {"class":"DEVICES","devices":[{"class":"DEVICE","path":"/dev/ttyUSB0","driver":"SiRF","subtype":"9\u0006GSD4e_4.1.2-P1_RPATCH.05-F-GPS-4R-1510281 11/03/2015 307","activated":"2018-01-12T01:06:37.253Z","flags":1,"native":1,"bps":4800,"parity":"N","stopbits":1,"cycle":1.00}]}
2018-01-11 20:06:37 1515719197.870936: {"class":"WATCH","enable":true,"json":false,"nmea":true,"raw":0,"scaled":false,"timing":false,"split24":false,"pps":false}
2018-01-11 20:06:38 1515719198.049521: $GPZDA,010638.74,12,01,2018,00,00*60
2018-01-11 20:06:38 1515719198.049688: $GPGGA,010638,3946.9597,N,08404.9842,W,1,10,0.80,307.86,M,-33.324,M,,*72
2018-01-11 20:06:38 1515719198.049754: $GPRMC,010638,A,3946.9597,N,08404.9842,W,0.9985,299.785,120118,,*38
2018-01-11 20:06:38 1515719198.049815: $GPGSA,A,3,7,8,9,11,16,23,27,28,30,138,,,4.0,0.8,3.5*3E
2018-01-11 20:06:38 1515719198.049874: $GPGBS,010638,14.62,M,24.83,M,80.38,M*0D
2018-01-11 20:06:39 1515719199.108178: $GPZDA,010639.23,12,01,2018,00,00*63
2018-01-11 20:06:39 1515719199.108360: $GPGGA,010639,3946.9597,N,08404.9842,W,1,10,0.80,307.86,M,-33.324,M,,*73
2018-01-11 20:06:39 1515719199.108427: $GPRMC,010639,A,3946.9597,N,08404.9842,W,0.2872,15.166,120118,,*06
2018-01-11 20:06:39 1515719199.108488: $GPGSA,A,3,7,8,9,11,16,23,27,28,30,138,,,4.0,0.8,3.5*3E
2018-01-11 20:06:40 1515719200.226904: $GPGSV,3,1,10,07,54,313,42,08,72,138,45,09,49,231,44,11,18,168,45*7E
2018-01-11 20:06:40 1515719200.227060: $GPGSV,3,2,10,16,24,058,44,23,31,190,46,27,49,054,49,28,13,256,33*71
2018-01-11 20:06:40 1515719200.227125: $GPGSV,3,3,10,30,27,306,35,138,38,213,00*4C
2018-01-11 20:06:40 1515719200.340343: $GPZDA,010640.00,12,01,2018,00,00*6C
2018-01-11 20:06:40 1515719200.340474: $GPGGA,010640,3946.9597,N,08404.9841,W,1,09,0.80,306.46,M,-33.324,M,,*7B
2018-01-11 20:06:40 1515719200.340537: $GPRMC,010640,A,3946.9597,N,08404.9841,W,0.0407,142.014,120118,,*30
2018-01-11 20:06:40 1515719200.340598: $GPGSA,A,3,7,8,9,11,16,23,27,28,30,,,,4.0,0.8,3.5*04
2018-01-11 20:06:40 1515719200.792442: $GPZDA,010641.00,12,01,2018,00,00*6D
2018-01-11 20:06:40 1515719200.792590: $GPGGA,010641,3946.9592,N,08404.9834,W,1,09,0.80,305.90,M,-33.324,M,,*75
2018-01-11 20:06:40 1515719200.792655: $GPRMC,010641,A,3946.9592,N,08404.9834,W,0.0407,142.014,120118,,*36
2018-01-11 20:06:40 1515719200.792715: $GPGSA,A,3,7,8,9,11,16,23,27,28,30,,,,4.0,0.8,3.5*04
2018-01-11 20:06:41 1515719201.347094: $GPZDA,010642.00,12,01,2018,00,00*6E
2018-01-11 20:06:41 1515719201.347251: $GPGGA,010642,3946.9589,N,08404.9835,W,1,09,0.80,306.66,M,-33.324,M,,*77
2018-01-11 20:06:41 1515719201.347317: $GPRMC,010642,A,3946.9589,N,08404.9835,W,0.0000,0.000,120118,,*3F
2018-01-11 20:06:41 1515719201.347377: $GPGSA,A,3,7,8,9,11,16,23,27,28,30,,,,4.0,0.8,3.5*04
2018-01-11 20:06:42 1515719202.683483: $GPGSV,3,1,10,07,54,313,43,08,72,138,45,09,49,231,45,11,18,168,46*7D
2018-01-11 20:06:42 1515719202.683626: $GPGSV,3,2,10,16,24,058,45,23,31,190,47,27,49,054,50,28,13,256,34*7E
2018-01-11 20:06:42 1515719202.683690: $GPGSV,3,3,10,30,27,306,37,138,38,213,45*4F
2018-01-11 20:06:42 1515719202.796810: $GPZDA,010643.00,12,01,2018,00,00*6F
2018-01-11 20:06:42 1515719202.796918: $GPGGA,010643,3946.9589,N,08404.9835,W,1,10,0.80,306.66,M,-33.324,M,,*7E
2018-01-11 20:06:42 1515719202.796983: $GPRMC,010643,A,3946.9589,N,08404.9835,W,0.0000,0.000,120118,,*3E
2018-01-11 20:06:42 1515719202.797043: $GPGSA,A,3,7,8,9,11,16,23,27,28,30,138,,,4.0,0.8,3.5*3E
2018-01-11 20:06:43 1515719203.351469: $GPZDA,010644.00,12,01,2018,00,00*68
2018-01-11 20:06:43 1515719203.351628: $GPGGA,010644,3946.9584,N,08404.9835,W,1,10,0.80,306.02,M,-33.324,M,,*76
2018-01-11 20:06:43 1515719203.351695: $GPRMC,010644,A,3946.9584,N,08404.9835,W,0.0000,0.000,120118,,*34
2018-01-11 20:06:43 1515719203.351756: $GPGSA,A,3,7,8,9,11,16,23,27,28,30,138,,,4.0,0.8,3.5*3E
2018-01-11 20:06:44 1515719204.348504: $GPZDA,010645.00,12,01,2018,00,00*69
2018-01-11 20:06:44 1515719204.348732: $GPGGA,010645,3946.9584,N,08404.9828,W,1,10,0.80,306.10,M,-33.324,M,,*78
2018-01-11 20:06:44 1515719204.348801: $GPRMC,010645,A,3946.9584,N,08404.9828,W,0.0000,0.000,120118,,*39
2018-01-11 20:06:44 1515719204.348862: $GPGSA,A,3,7,8,9,11,16,23,27,28,30,138,,,4.0,0.8,3.5*3E
2018-01-11 20:06:44 1515719204.348920: $GPGBS,010645,14.62,M,24.83,M,80.38,M*07
2018-01-11 20:06:45 1515719205.686684: $GPGSV,3,1,10,07,54,313,43,08,72,138,46,09,49,231,45,11,18,168,46*7E
2018-01-11 20:06:45 1515719205.686847: $GPGSV,3,2,10,16,24,058,45,23,31,190,47,27,49,054,50,28,13,256,34*7E
2018-01-11 20:06:45 1515719205.686914: $GPGSV,3,3,10,30,27,306,37,138,38,213,45*4F
2018-01-11 20:06:45 1515719205.800095: $GPZDA,010646.00,12,01,2018,00,00*6A
2018-01-11 20:06:45 1515719205.800217: $GPGGA,010646,3946.9567,N,08404.9815,W,2,10,2.40,305.10,M,-33.324,M,,*76
2018-01-11 20:06:45 1515719205.800282: $GPRMC,010646,A,3946.9567,N,08404.9815,W,0.0000,0.000,120118,,*39
2018-01-11 20:06:45 1515719205.800342: $GPGSA,A,3,7,8,9,11,16,23,27,28,30,138,,,4.0,2.4,3.5*30
2018-01-11 20:06:46 1515719206.349744: $GPZDA,010647.00,12,01,2018,00,00*6B
2018-01-11 20:06:46 1515719206.349897: $GPGGA,010647,3946.9567,N,08404.9815,W,2,10,1.40,305.10,M,-33.324,M,,*74
2018-01-11 20:06:46 1515719206.349963: $GPRMC,010647,A,3946.9567,N,08404.9815,W,0.0000,0.000,120118,,*38
2018-01-11 20:06:46 1515719206.350023: $GPGSA,A,3,7,8,9,11,16,23,27,28,30,138,,,4.0,1.4,3.5*33
2018-01-11 20:06:47 1515719207.350120: $GPZDA,010648.00,12,01,2018,00,00*64
2018-01-11 20:06:47 1515719207.350275: $GPGGA,010648,3946.9567,N,08404.9815,W,2,10,0.80,305.10,M,-33.324,M,,*76
2018-01-11 20:06:47 1515719207.350341: $GPRMC,010648,A,3946.9567,N,08404.9815,W,0.0000,0.000,120118,,*37
2018-01-11 20:06:47 1515719207.350402: $GPGSA,A,3,7,8,9,11,16,23,27,28,30,138,,,4.0,0.8,3.5*3E
2018-01-11 20:06:48 1515719208.685788: $GPGSV,3,1,10,07,54,313,43,08,72,138,46,09,49,231,45,11,18,168,46*7E
2018-01-11 20:06:48 1515719208.685941: $GPGSV,3,2,10,16,24,058,45,23,31,190,47,27,49,054,50,28,13,256,33*79
2018-01-11 20:06:48 1515719208.686007: $GPGSV,3,3,10,30,27,306,37,138,38,213,45*4F
2018-01-11 20:06:48 1515719208.799488: $GPZDA,010649.00,12,01,2018,00,00*65
2018-01-11 20:06:48 1515719208.799643: $GPGGA,010649,3946.9567,N,08404.9815,W,2,10,0.80,305.10,M,-33.324,M,,*77
2018-01-11 20:06:48 1515719208.799708: $GPRMC,010649,A,3946.9567,N,08404.9815,W,0.0000,0.000,120118,,*36
2018-01-11 20:06:48 1515719208.799768: $GPGSA,A,3,7,8,9,11,16,23,27,28,30,138,,,4.0,0.8,3.5*3E
