2017-12-01 11:51:43 1512147103.986772: {"class":"VERSION","release":"3.16","rev":"3.16-4","proto_major":3,"proto_minor":11}
2017-12-01 11:51:43 1512147103.987177: {"class":"DEVICES","devices":[{"class":"DEVICE","path":"/dev/ttyUSB0","driver":"SiRF","subtype":"9\u0006GSD4e_4.1.2-P1_RPATCH.05-F-GPS-4R-1510281 11/03/2015 307","activated":"2017-12-01T16:51:43.565Z","flags":1,"native":1,"bps":4800,"parity":"N","stopbits":1,"cycle":1.00}]}
2017-12-01 11:51:43 1512147103.987298: {"class":"WATCH","enable":true,"json":false,"nmea":true,"raw":0,"scaled":false,"timing":false,"split24":false,"pps":false}
2017-12-01 11:51:44 1512147104.743884: $GPGSV,3,1,12,10,15,274,36,13,40,048,45,15,72,063,46,18,46,288,44*7D
2017-12-01 11:51:44 1512147104.744070: $GPGSV,3,2,12,20,60,055,44,21,70,301,45,24,23,147,44,27,10,322,43*7D
2017-12-01 11:51:44 1512147104.744138: $GPGSV,3,3,12,29,21,193,44,05,11,079,20,04,10,132,00,138,38,213,46*46
2017-12-01 11:51:44 1512147104.857294: $GPZDA,165145.00,01,12,2017,00,00*62
2017-12-01 11:51:44 1512147104.857467: $GPGGA,165145,3946.9584,N,08404.9857,W,2,11,0.80,293.71,M,-33.324,M,,*7C
2017-12-01 11:51:44 1512147104.857553: $GPRMC,165145,A,3946.9584,N,08404.9857,W,0.0000,0.000,011217,,*3A
2017-12-01 11:51:44 1512147104.857616: $GPGSA,A,3,10,13,15,18,20,21,24,27,29,5,138,,2.0,0.8,1.5*34
2017-12-01 11:51:45 1512147105.423282: $GPZDA,165146.00,01,12,2017,00,00*61
2017-12-01 11:51:45 1512147105.423467: $GPGGA,165146,3946.9584,N,08404.9857,W,2,11,0.80,293.71,M,-33.324,M,,*7F
2017-12-01 11:51:45 1512147105.423536: $GPRMC,165146,A,3946.9584,N,08404.9857,W,0.0000,0.000,011217,,*39
2017-12-01 11:51:45 1512147105.423598: $GPGSA,A,3,10,13,15,18,20,21,24,27,29,5,138,,2.0,0.8,1.5*34
2017-12-01 11:51:46 1512147106.422396: $GPZDA,165147.00,01,12,2017,00,00*60
2017-12-01 11:51:46 1512147106.422546: $GPGGA,165147,3946.9584,N,08404.9857,W,2,11,0.80,293.71,M,-33.324,M,,*7E
2017-12-01 11:51:46 1512147106.422612: $GPRMC,165147,A,3946.9584,N,08404.9857,W,0.0000,0.000,011217,,*38
2017-12-01 11:51:46 1512147106.422673: $GPGSA,A,3,10,13,15,18,20,21,24,27,29,5,138,,2.0,0.8,1.5*34
2017-12-01 11:51:47 1512147107.744348: $GPGSV,3,1,12,10,15,274,36,13,40,048,44,15,72,063,46,18,46,288,45*7D
2017-12-01 11:51:47 1512147107.744667: $GPGSV,3,2,12,20,60,055,45,21,70,301,45,24,23,147,44,27,10,322,43*7C
2017-12-01 11:51:47 1512147107.744760: $GPGSV,3,3,12,29,21,193,45,05,11,079,21,04,10,132,00,138,38,213,46*46
2017-12-01 11:51:47 1512147107.857699: $GPZDA,165148.00,01,12,2017,00,00*6F
2017-12-01 11:51:47 1512147107.857862: $GPGGA,165148,3946.9584,N,08404.9857,W,2,11,0.80,293.71,M,-33.324,M,,*71
2017-12-01 11:51:47 1512147107.857952: $GPRMC,165148,A,3946.9584,N,08404.9857,W,0.0000,0.000,011217,,*37
2017-12-01 11:51:47 1512147107.858040: $GPGSA,A,3,10,13,15,18,20,21,24,27,29,5,138,,2.0,0.8,1.5*34
2017-12-01 11:51:48 1512147108.921964: $GPZDA,165149.00,01,12,2017,00,00*6E
2017-12-01 11:51:48 1512147108.922172: $GPGGA,165149,3946.9584,N,08404.9857,W,2,11,0.80,295.11,M,-33.324,M,,*70
2017-12-01 11:51:48 1512147108.922239: $GPRMC,165149,A,3946.9584,N,08404.9857,W,0.0000,0.000,011217,,*36
2017-12-01 11:51:48 1512147108.922300: $GPGSA,A,3,10,13,15,18,20,21,24,27,29,5,138,,2.0,0.8,1.5*34
2017-12-01 11:51:49 1512147109.406411: $GPZDA,165150.00,01,12,2017,00,00*66
2017-12-01 11:51:49 1512147109.406585: $GPGGA,165150,3946.9584,N,08404.9857,W,2,11,0.80,295.11,M,-33.324,M,,*78
2017-12-01 11:51:49 1512147109.406652: $GPRMC,165150,A,3946.9584,N,08404.9857,W,0.0000,0.000,011217,,*3E
2017-12-01 11:51:49 1512147109.406713: $GPGSA,A,3,10,13,15,18,20,21,24,27,29,5,138,,2.0,0.8,1.5*34
2017-12-01 11:51:50 1512147110.742107: $GPGSV,3,1,12,10,15,274,37,13,39,048,44,15,72,063,46,18,46,289,45*73
2017-12-01 11:51:50 1512147110.742251: $GPGSV,3,2,12,20,60,057,45,21,70,301,45,24,23,147,44,27,11,322,43*7F
2017-12-01 11:51:50 1512147110.742316: $GPGSV,3,3,12,29,20,193,45,05,11,079,21,04,09,132,00,138,38,213,46*4F
2017-12-01 11:51:50 1512147110.855466: $GPZDA,165151.00,01,12,2017,00,00*67
2017-12-01 11:51:50 1512147110.855597: $GPGGA,165151,3946.9584,N,08404.9857,W,2,11,0.80,295.11,M,-33.324,M,,*79
2017-12-01 11:51:50 1512147110.855712: $GPRMC,165151,A,3946.9584,N,08404.9857,W,0.0000,0.000,011217,,*3F
2017-12-01 11:51:50 1512147110.855774: $GPGSA,A,3,10,13,15,18,20,21,24,27,29,5,138,,2.0,0.8,1.5*34
2017-12-01 11:51:51 1512147111.480874: $GPZDA,165152.00,01,12,2017,00,00*64
2017-12-01 11:51:51 1512147111.481061: $GPGGA,165152,3946.9584,N,08404.9857,W,2,11,0.80,295.11,M,-33.324,M,,*7A
2017-12-01 11:51:51 1512147111.481128: $GPRMC,165152,A,3946.9584,N,08404.9857,W,0.0000,0.000,011217,,*3C
2017-12-01 11:51:51 1512147111.481189: $GPGSA,A,3,10,13,15,18,20,21,24,27,29,5,138,,2.0,0.8,1.5*34
2017-12-01 11:51:52 1512147112.408052: $GPZDA,165153.00,01,12,2017,00,00*65
2017-12-01 11:51:53 1512147113.401540: $GPGGA,165153,3946.9584,N,08404.9857,W,2,11,0.80,295.11,M,-33.324,M,,*7B
2017-12-01 11:51:53 1512147113.401688: $GPRMC,165153,A,3946.9584,N,08404.9857,W,0.0000,0.000,011217,,*3D
2017-12-01 11:51:53 1512147113.401755: $GPGSA,A,3,10,13,15,18,20,21,24,27,29,5,138,,2.0,0.8,1.5*34
2017-12-01 11:51:53 1512147113.758689: $GPGSV,3,1,12,10,15,274,38,13,39,048,44,15,72,063,46,18,46,289,44*7D
2017-12-01 11:51:53 1512147113.758892: $GPGSV,3,2,12,20,60,057,45,21,70,301,46,24,23,147,44,27,11,322,43*7C
2017-12-01 11:51:53 1512147113.758962: $GPGSV,3,3,12,29,20,193,45,05,11,079,22,04,09,132,00,138,38,213,46*4C
2017-12-01 11:51:53 1512147113.872330: $GPZDA,165154.00,01,12,2017,00,00*62
2017-12-01 11:51:53 1512147113.872497: $GPGGA,165154,3946.9584,N,08404.9857,W,2,11,0.80,295.11,M,-33.324,M,,*7C
2017-12-01 11:51:53 1512147113.872565: $GPRMC,165154,A,3946.9584,N,08404.9857,W,0.0000,0.000,011217,,*3A
2017-12-01 11:51:53 1512147113.872628: $GPGSA,A,3,10,13,15,18,20,21,24,27,29,5,138,,2.0,0.8,1.5*34
