2017-11-16 17:22:12 1510870932.370377: {"class":"VERSION","release":"3.17","rev":"3.17","proto_major":3,"proto_minor":12}
2017-11-16 17:22:12 1510870932.370858: {"class":"DEVICES","devices":[{"class":"DEVICE","path":"/dev/ttyUSB0","driver":"SiRF","subtype":"9\u0006GSD4e_4.1.2-P1_RPATCH.05-F-GPS-4R-1510281 11/03/2015 307","activated":"2017-11-16T22:22:12.290Z","flags":1,"native":1,"bps":4800,"parity":"N","stopbits":1,"cycle":1.00}]}
2017-11-16 17:22:12 1510870932.370978: {"class":"WATCH","enable":true,"json":false,"nmea":true,"raw":0,"scaled":false,"timing":false,"split24":false,"pps":false}
2017-11-16 17:22:12 1510870932.738384: $GPGSV,3,1,12,01,20,304,32,10,53,145,49,22,15,312,40,12,23,054,50*71
2017-11-16 17:22:12 1510870932.738554: $GPGSV,3,2,12,14,64,318,47,18,22,142,39,24,01,048,09,11,09,286,37*72
2017-11-16 17:22:12 1510870932.738614: $GPGSV,3,3,12,25,38,096,48,31,51,222,49,32,69,013,49,138,38,213,44*4C
2017-11-16 17:22:12 1510870932.851658: $GPZDA,222211.00,16,11,2017,00,00*65
2017-11-16 17:22:12 1510870932.851823: $GPGGA,222211,3946.9570,N,08404.9831,W,2,12,0.80,309.16,M,-33.324,M,,*75
2017-11-16 17:22:12 1510870932.851884: $GPRMC,222211,A,3946.9570,N,08404.9831,W,0.0000,0.000,161117,,*36
2017-11-16 17:22:12 1510870932.851939: $GPGSA,A,3,1,10,22,12,14,18,24,11,25,31,32,138,1.6,0.8,1.3*38
2017-11-16 17:22:13 1510870933.402562: $GPZDA,222212.00,16,11,2017,00,00*66
2017-11-16 17:22:13 1510870933.402716: $GPGGA,222212,3946.9570,N,08404.9831,W,2,12,0.80,309.16,M,-33.324,M,,*76
2017-11-16 17:22:13 1510870933.402777: $GPRMC,222212,A,3946.9570,N,08404.9831,W,0.0000,0.000,161117,,*35
2017-11-16 17:22:13 1510870933.402833: $GPGSA,A,3,1,10,22,12,14,18,24,11,25,31,32,138,1.6,0.8,1.3*38
2017-11-16 17:22:14 1510870934.402159: $GPZDA,222213.00,16,11,2017,00,00*67
2017-11-16 17:22:14 1510870934.402336: $GPGGA,222213,3946.9570,N,08404.9831,W,2,12,0.80,309.16,M,-33.324,M,,*77
2017-11-16 17:22:14 1510870934.402398: $GPRMC,222213,A,3946.9570,N,08404.9831,W,0.0000,0.000,161117,,*34
2017-11-16 17:22:14 1510870934.402453: $GPGSA,A,3,1,10,22,12,14,18,24,11,25,31,32,138,1.6,0.8,1.3*38
2017-11-16 17:22:15 1510870935.731764: $GPGSV,3,1,12,01,20,304,32,10,53,145,49,22,15,312,40,12,23,054,50*71
2017-11-16 17:22:15 1510870935.731936: $GPGSV,3,2,12,14,64,318,47,18,22,142,39,24,01,048,08,11,09,286,38*7C
2017-11-16 17:22:15 1510870935.731997: $GPGSV,3,3,12,25,38,096,48,31,51,222,49,32,69,013,49,138,38,213,44*4C
2017-11-16 17:22:15 1510870935.845564: $GPZDA,222214.00,16,11,2017,00,00*60
2017-11-16 17:22:15 1510870935.845758: $GPGGA,222214,3946.9570,N,08404.9831,W,2,12,0.80,309.16,M,-33.324,M,,*70
2017-11-16 17:22:15 1510870935.845819: $GPRMC,222214,A,3946.9570,N,08404.9831,W,0.0000,0.000,161117,,*33
2017-11-16 17:22:15 1510870935.845875: $GPGSA,A,3,1,10,22,12,14,18,24,11,25,31,32,138,1.6,0.8,1.3*38
2017-11-16 17:22:16 1510870936.470536: $GPZDA,222215.00,16,11,2017,00,00*61
2017-11-16 17:22:16 1510870936.470735: $GPGGA,222215,3946.9570,N,08404.9831,W,2,12,0.80,309.16,M,-33.324,M,,*71
2017-11-16 17:22:16 1510870936.470820: $GPRMC,222215,A,3946.9570,N,08404.9831,W,0.0000,0.000,161117,,*32
2017-11-16 17:22:16 1510870936.470878: $GPGSA,A,3,1,10,22,12,14,18,24,11,25,31,32,138,1.6,0.8,1.3*38
2017-11-16 17:22:17 1510870937.402740: $GPZDA,222216.00,16,11,2017,00,00*62
2017-11-16 17:22:17 1510870937.402925: $GPGGA,222216,3946.9574,N,08404.9830,W,2,12,0.80,308.39,M,-33.324,M,,*7B
2017-11-16 17:22:17 1510870937.402986: $GPRMC,222216,A,3946.9574,N,08404.9830,W,0.0000,0.000,161117,,*34
2017-11-16 17:22:17 1510870937.403041: $GPGSA,A,3,1,10,22,12,14,18,24,11,25,31,32,138,1.6,0.8,1.3*38
2017-11-16 17:22:18 1510870938.738501: $GPGSV,3,1,12,01,20,304,33,10,53,145,49,22,15,312,39,12,23,054,50*7E
2017-11-16 17:22:18 1510870938.738671: $GPGSV,3,2,12,14,64,318,47,18,22,142,39,24,01,048,08,11,09,286,38*7C
2017-11-16 17:22:18 1510870938.738732: $GPGSV,3,3,12,25,38,096,48,31,51,222,49,32,69,013,49,138,38,213,44*4C
2017-11-16 17:22:18 1510870938.851920: $GPZDA,222217.00,16,11,2017,00,00*63
2017-11-16 17:22:18 1510870938.852108: $GPGGA,222217,3946.9574,N,08404.9830,W,2,12,0.80,308.39,M,-33.324,M,,*7A
2017-11-16 17:22:18 1510870938.852260: $GPRMC,222217,A,3946.9574,N,08404.9830,W,0.0000,0.000,161117,,*35
2017-11-16 17:22:18 1510870938.852321: $GPGSA,A,3,1,10,22,12,14,18,24,11,25,31,32,138,1.6,0.8,1.3*38
2017-11-16 17:22:19 1510870939.401425: $GPZDA,222218.00,16,11,2017,00,00*6C
2017-11-16 17:22:19 1510870939.401592: $GPGGA,222218,3946.9574,N,08404.9830,W,2,12,0.80,308.39,M,-33.324,M,,*75
2017-11-16 17:22:19 1510870939.401653: $GPRMC,222218,A,3946.9574,N,08404.9830,W,0.0000,0.000,161117,,*3A
2017-11-16 17:22:19 1510870939.401709: $GPGSA,A,3,1,10,22,12,14,18,24,11,25,31,32,138,1.6,0.8,1.3*38
2017-11-16 17:22:20 1510870940.396309: $GPZDA,222219.00,16,11,2017,00,00*6D
2017-11-16 17:22:20 1510870940.396494: $GPGGA,222219,3946.9574,N,08404.9830,W,2,12,0.80,308.39,M,-33.324,M,,*74
2017-11-16 17:22:20 1510870940.396555: $GPRMC,222219,A,3946.9574,N,08404.9830,W,0.0000,0.000,161117,,*3B
2017-11-16 17:22:20 1510870940.396611: $GPGSA,A,3,1,10,22,12,14,18,24,11,25,31,32,138,1.6,0.8,1.3*38
2017-11-16 17:22:21 1510870941.731491: $GPGSV,3,1,12,01,20,304,37,10,53,145,49,22,15,312,39,12,23,054,50*7A
2017-11-16 17:22:21 1510870941.731646: $GPGSV,3,2,12,14,64,318,46,18,22,142,39,24,01,048,07,11,09,286,37*7D
2017-11-16 17:22:21 1510870941.731706: $GPGSV,3,3,12,25,38,096,47,31,51,222,49,32,69,013,49,138,38,213,44*43
2017-11-16 17:22:21 1510870941.845124: $GPZDA,222220.00,16,11,2017,00,00*67
2017-11-16 17:22:21 1510870941.845302: $GPGGA,222220,3946.9574,N,08404.9830,W,2,12,0.80,308.39,M,-33.324,M,,*7E
2017-11-16 17:22:21 1510870941.845380: $GPRMC,222220,A,3946.9574,N,08404.9830,W,0.0000,0.000,161117,,*31
2017-11-16 17:22:21 1510870941.845438: $GPGSA,A,3,1,10,22,12,14,18,24,11,25,31,32,138,1.6,0.8,1.3*38
2017-11-16 17:22:22 1510870942.402117: $GPZDA,222221.00,16,11,2017,00,00*66
2017-11-16 17:22:22 1510870942.402291: $GPGGA,222221,3946.9574,N,08404.9830,W,2,12,0.80,308.39,M,-33.324,M,,*7F
2017-11-16 17:22:22 1510870942.402368: $GPRMC,222221,A,3946.9574,N,08404.9830,W,0.0000,0.000,161117,,*30
2017-11-16 17:22:22 1510870942.402425: $GPGSA,A,3,1,10,22,12,14,18,24,11,25,31,32,138,1.6,0.8,1.3*38
