2017-12-01 17:18:07 1512166687.957364: {"class":"VERSION","release":"3.16","rev":"3.16-4","proto_major":3,"proto_minor":11}
2017-12-01 17:18:07 1512166687.957747: {"class":"DEVICES","devices":[{"class":"DEVICE","path":"/dev/ttyUSB0","driver":"SiRF","subtype":"9\u0006GSD4e_4.1.2-P1_RPATCH.05-F-GPS-4R-1510281 11/03/2015 307","activated":"2017-12-01T22:18:07.580Z","flags":1,"native":1,"bps":4800,"parity":"N","stopbits":1,"cycle":1.00}]}
2017-12-01 17:18:07 1512166687.957865: {"class":"WATCH","enable":true,"json":false,"nmea":true,"raw":0,"scaled":false,"timing":false,"split24":false,"pps":false}
2017-12-01 17:18:08 1512166688.440089: $GPZDA,221809.00,01,12,2017,00,00*60
2017-12-01 17:18:08 1512166688.440257: $GPGGA,221809,3946.9653,N,08404.9748,W,2,11,0.80,298.63,M,-33.324,M,,*7E
2017-12-01 17:18:08 1512166688.440324: $GPRMC,221809,A,3946.9653,N,08404.9748,W,0.0000,0.000,011217,,*30
2017-12-01 17:18:08 1512166688.440385: $GPGSA,A,3,1,3,10,14,22,25,26,31,32,12,138,,2.0,0.8,1.5*03
2017-12-01 17:18:09 1512166689.776462: $GPGSV,3,1,11,01,20,279,44,03,18,316,43,10,26,156,38,14,70,027,44*76
2017-12-01 17:18:09 1512166689.776644: $GPGSV,3,2,11,22,36,306,43,25,38,061,33,26,22,178,38,31,76,264,48*7A
2017-12-01 17:18:09 1512166689.776711: $GPGSV,3,3,11,32,57,073,47,12,10,034,30,138,38,213,36*7F
2017-12-01 17:18:09 1512166689.890258: $GPZDA,221810.00,01,12,2017,00,00*68
2017-12-01 17:18:09 1512166689.890443: $GPGGA,221810,3946.9653,N,08404.9748,W,2,11,0.80,298.63,M,-33.324,M,,*76
2017-12-01 17:18:09 1512166689.890512: $GPRMC,221810,A,3946.9653,N,08404.9748,W,0.0000,0.000,011217,,*38
2017-12-01 17:18:09 1512166689.890574: $GPGSA,A,3,1,3,10,14,22,25,26,31,32,12,138,,2.0,0.8,1.5*03
2017-12-01 17:18:10 1512166690.441043: $GPZDA,221811.00,01,12,2017,00,00*69
2017-12-01 17:18:10 1512166690.441220: $GPGGA,221811,3946.9653,N,08404.9748,W,2,11,0.80,298.63,M,-33.324,M,,*77
2017-12-01 17:18:10 1512166690.441288: $GPRMC,221811,A,3946.9653,N,08404.9748,W,0.0000,0.000,011217,,*39
2017-12-01 17:18:10 1512166690.441407: $GPGSA,A,3,1,3,10,14,22,25,26,31,32,12,138,,2.0,0.8,1.5*03
2017-12-01 17:18:11 1512166691.440639: $GPZDA,221812.00,01,12,2017,00,00*6A
2017-12-01 17:18:11 1512166691.440804: $GPGGA,221812,3946.9653,N,08404.9748,W,2,11,0.80,298.63,M,-33.324,M,,*74
2017-12-01 17:18:11 1512166691.440870: $GPRMC,221812,A,3946.9653,N,08404.9748,W,0.0000,0.000,011217,,*3A
2017-12-01 17:18:11 1512166691.440931: $GPGSA,A,3,1,3,10,14,22,25,26,31,32,12,138,,2.0,0.8,1.5*03
2017-12-01 17:18:12 1512166692.793640: $GPGSV,3,1,11,01,20,279,44,03,18,316,42,10,26,156,37,14,70,027,44*78
2017-12-01 17:18:12 1512166692.793821: $GPGSV,3,2,11,22,36,306,42,25,38,061,33,26,22,178,37,31,76,264,48*74
2017-12-01 17:18:12 1512166692.793887: $GPGSV,3,3,11,32,57,073,47,12,10,034,31,138,38,213,39*71
2017-12-01 17:18:12 1512166692.907292: $GPZDA,221813.00,01,12,2017,00,00*6B
2017-12-01 17:18:12 1512166692.907463: $GPGGA,221813,3946.9653,N,08404.9748,W,2,11,0.80,298.63,M,-33.324,M,,*75
2017-12-01 17:18:12 1512166692.907530: $GPRMC,221813,A,3946.9653,N,08404.9748,W,0.0000,0.000,011217,,*3B
2017-12-01 17:18:12 1512166692.907591: $GPGSA,A,3,1,3,10,14,22,25,26,31,32,12,138,,2.0,0.8,1.5*03
2017-12-01 17:18:13 1512166693.442060: $GPZDA,221814.00,01,12,2017,00,00*6C
2017-12-01 17:18:13 1512166693.442221: $GPGGA,221814,3946.9653,N,08404.9748,W,2,11,0.80,298.63,M,-33.324,M,,*72
2017-12-01 17:18:13 1512166693.442289: $GPRMC,221814,A,3946.9653,N,08404.9748,W,0.0000,0.000,011217,,*3C
2017-12-01 17:18:13 1512166693.442350: $GPGSA,A,3,1,3,10,14,22,25,26,31,32,12,138,,2.0,0.8,1.5*03
2017-12-01 17:18:14 1512166694.461493: $GPZDA,221815.00,01,12,2017,00,00*6D
2017-12-01 17:18:14 1512166694.461690: $GPGGA,221815,3946.9653,N,08404.9748,W,2,11,0.80,298.63,M,-33.324,M,,*73
2017-12-01 17:18:14 1512166694.461770: $GPRMC,221815,A,3946.9653,N,08404.9748,W,0.0000,0.000,011217,,*3D
2017-12-01 17:18:14 1512166694.461835: $GPGSA,A,3,1,3,10,14,22,25,26,31,32,12,138,,2.0,0.8,1.5*03
2017-12-01 17:18:15 1512166695.795705: $GPGSV,3,1,11,01,20,279,43,03,18,316,42,10,26,156,37,14,70,027,44*7F
2017-12-01 17:18:15 1512166695.796071: $GPGSV,3,2,11,22,36,306,42,25,38,061,34,26,22,178,37,31,76,264,48*73
2017-12-01 17:18:15 1512166695.796173: $GPGSV,3,3,11,32,57,073,47,12,10,034,32,138,38,213,40*7C
2017-12-01 17:18:15 1512166695.908890: $GPZDA,221816.00,01,12,2017,00,00*6E
2017-12-01 17:18:15 1512166695.909056: $GPGGA,221816,3946.9653,N,08404.9748,W,2,11,0.80,298.63,M,-33.324,M,,*70
2017-12-01 17:18:15 1512166695.909123: $GPRMC,221816,A,3946.9653,N,08404.9748,W,0.0000,0.000,011217,,*3E
2017-12-01 17:18:15 1512166695.909183: $GPGSA,A,3,1,3,10,14,22,25,26,31,32,12,138,,2.0,0.8,1.5*03
2017-12-01 17:18:16 1512166696.459759: $GPZDA,221817.00,01,12,2017,00,00*6F
2017-12-01 17:18:16 1512166696.459927: $GPGGA,221817,3946.9653,N,08404.9748,W,2,11,0.80,298.63,M,-33.324,M,,*71
2017-12-01 17:18:16 1512166696.459994: $GPRMC,221817,A,3946.9653,N,08404.9748,W,0.0000,0.000,011217,,*3F
2017-12-01 17:18:16 1512166696.460056: $GPGSA,A,3,1,3,10,14,22,25,26,31,32,12,138,,2.0,0.8,1.5*03
2017-12-01 17:18:17 1512166697.460641: $GPZDA,221818.00,01,12,2017,00,00*60
2017-12-01 17:18:17 1512166697.460810: $GPGGA,221818,3946.9653,N,08404.9748,W,2,11,0.80,298.63,M,-33.324,M,,*7E
2017-12-01 17:18:17 1512166697.460877: $GPRMC,221818,A,3946.9653,N,08404.9748,W,0.0000,0.000,011217,,*30
2017-12-01 17:18:17 1512166697.460938: $GPGSA,A,3,1,3,10,14,22,25,26,31,32,12,138,,2.0,0.8,1.5*03
2017-12-01 17:18:18 1512166698.781111: $GPGSV,3,1,11,01,20,279,43,03,18,316,42,10,26,156,33,14,70,027,44*7B
2017-12-01 17:18:18 1512166698.781308: $GPGSV,3,2,11,22,36,306,42,25,38,061,34,26,22,178,37,31,76,264,47*7C
2017-12-01 17:18:18 1512166698.781475: $GPGSV,3,3,11,32,57,073,47,12,10,034,32,138,38,213,40*7C
2017-12-01 17:18:18 1512166698.894721: $GPZDA,221819.00,01,12,2017,00,00*61
2017-12-01 17:18:18 1512166698.894871: $GPGGA,221819,3946.9653,N,08404.9748,W,2,11,0.80,298.63,M,-33.324,M,,*7F
2017-12-01 17:18:18 1512166698.894939: $GPRMC,221819,A,3946.9653,N,08404.9748,W,0.0000,0.000,011217,,*31
2017-12-01 17:18:18 1512166698.895003: $GPGSA,A,3,1,3,10,14,22,25,26,31,32,12,138,,2.0,0.8,1.5*03
2017-12-01 17:18:19 1512166699.521412: $GPZDA,221820.00,01,12,2017,00,00*6B
2017-12-01 17:18:19 1512166699.521585: $GPGGA,221820,3946.9653,N,08404.9748,W,2,11,0.80,298.63,M,-33.324,M,,*75
2017-12-01 17:18:19 1512166699.521655: $GPRMC,221820,A,3946.9653,N,08404.9748,W,0.0000,0.000,011217,,*3B
2017-12-01 17:18:19 1512166699.521719: $GPGSA,A,3,1,3,10,14,22,25,26,31,32,12,138,,2.0,0.8,1.5*03
2017-12-01 17:18:20 1512166700.443475: $GPZDA,221821.00,01,12,2017,00,00*6A
2017-12-01 17:18:20 1512166700.443642: $GPGGA,221821,3946.9653,N,08404.9748,W,2,11,0.80,298.63,M,-33.324,M,,*74
2017-12-01 17:18:20 1512166700.443711: $GPRMC,221821,A,3946.9653,N,08404.9748,W,0.0000,0.000,011217,,*3A
2017-12-01 17:18:20 1512166700.443775: $GPGSA,A,3,1,3,10,14,22,25,26,31,32,12,138,,2.0,0.8,1.5*03
2017-12-01 17:18:21 1512166701.800187: $GPGSV,3,1,11,01,20,279,44,03,18,316,42,10,26,156,35,14,70,027,44*7A
2017-12-01 17:18:21 1512166701.800372: $GPGSV,3,2,11,22,36,306,42,25,38,061,34,26,22,178,38,31,76,264,47*73
2017-12-01 17:18:21 1512166701.800442: $GPGSV,3,3,11,32,57,073,47,12,10,034,32,138,38,213,39*72
2017-12-01 17:18:21 1512166701.913848: $GPZDA,221822.00,01,12,2017,00,00*69
2017-12-01 17:18:21 1512166701.914020: $GPGGA,221822,3946.9653,N,08404.9748,W,2,11,0.80,298.63,M,-33.324,M,,*77
2017-12-01 17:18:21 1512166701.914091: $GPRMC,221822,A,3946.9653,N,08404.9748,W,0.0000,0.000,011217,,*39
2017-12-01 17:18:21 1512166701.914154: $GPGSA,A,3,1,3,10,14,22,25,26,31,32,12,138,,2.0,0.8,1.5*03
2017-12-01 17:18:22 1512166702.445779: $GPZDA,221823.00,01,12,2017,00,00*68
2017-12-01 17:18:22 1512166702.446037: $GPGGA,221823,3946.9653,N,08404.9748,W,2,11,0.80,298.63,M,-33.324,M,,*76
2017-12-01 17:18:22 1512166702.446136: $GPRMC,221823,A,3946.9653,N,08404.9748,W,0.0000,0.000,011217,,*38
2017-12-01 17:18:22 1512166702.446230: $GPGSA,A,3,1,3,10,14,22,25,26,31,32,12,138,,2.0,0.8,1.5*03
2017-12-01 17:18:23 1512166703.462814: $GPZDA,221824.00,01,12,2017,00,00*6F
2017-12-01 17:18:23 1512166703.462993: $GPGGA,221824,3946.9653,N,08404.9748,W,2,11,0.80,298.63,M,-33.324,M,,*71
2017-12-01 17:18:23 1512166703.463113: $GPRMC,221824,A,3946.9653,N,08404.9748,W,0.0000,0.000,011217,,*3F
2017-12-01 17:18:23 1512166703.463175: $GPGSA,A,3,1,3,10,14,22,25,26,31,32,12,138,,2.0,0.8,1.5*03
2017-12-01 17:18:24 1512166704.799271: $GPGSV,3,1,11,01,20,279,44,03,18,316,43,10,26,156,35,14,70,027,44*7B
2017-12-01 17:18:24 1512166704.799451: $GPGSV,3,2,11,22,36,306,42,25,38,061,35,26,22,178,38,31,76,264,48*7D
2017-12-01 17:18:24 1512166704.799519: $GPGSV,3,3,11,32,57,073,47,12,10,034,32,138,38,213,40*7C
2017-12-01 17:18:24 1512166704.912772: $GPZDA,221825.00,01,12,2017,00,00*6E
2017-12-01 17:18:24 1512166704.912926: $GPGGA,221825,3946.9653,N,08404.9748,W,2,11,0.80,298.63,M,-33.324,M,,*70
2017-12-01 17:18:24 1512166704.912992: $GPRMC,221825,A,3946.9653,N,08404.9748,W,0.0000,0.000,011217,,*3E
2017-12-01 17:18:24 1512166704.913052: $GPGSA,A,3,1,3,10,14,22,25,26,31,32,12,138,,2.0,0.8,1.5*03
2017-12-01 17:18:25 1512166705.464894: $GPZDA,221826.00,01,12,2017,00,00*6D
2017-12-01 17:18:25 1512166705.465066: $GPGGA,221826,3946.9653,N,08404.9748,W,2,11,0.80,298.63,M,-33.324,M,,*73
2017-12-01 17:18:25 1512166705.465133: $GPRMC,221826,A,3946.9653,N,08404.9748,W,0.0000,0.000,011217,,*3D
2017-12-01 17:18:25 1512166705.465195: $GPGSA,A,3,1,3,10,14,22,25,26,31,32,12,138,,2.0,0.8,1.5*03
2017-12-01 17:18:26 1512166706.444375: $GPZDA,221827.00,01,12,2017,00,00*6C
2017-12-01 17:18:26 1512166706.444547: $GPGGA,221827,3946.9653,N,08404.9748,W,2,11,0.80,298.63,M,-33.324,M,,*72
2017-12-01 17:18:26 1512166706.444613: $GPRMC,221827,A,3946.9653,N,08404.9748,W,0.0000,0.000,011217,,*3C
2017-12-01 17:18:26 1512166706.444674: $GPGSA,A,3,1,3,10,14,22,25,26,31,32,12,138,,2.0,0.8,1.5*03
2017-12-01 17:18:27 1512166707.798894: $GPGSV,3,1,11,01,20,279,44,03,18,316,43,10,26,156,36,14,70,027,44*78
2017-12-01 17:18:27 1512166707.799064: $GPGSV,3,2,11,22,36,306,43,25,38,061,35,26,22,178,38,31,76,264,47*73
2017-12-01 17:18:27 1512166707.799132: $GPGSV,3,3,11,32,57,073,47,12,10,034,32,138,38,213,40*7C
2017-12-01 17:18:27 1512166707.912348: $GPZDA,221828.00,01,12,2017,00,00*63
2017-12-01 17:18:27 1512166707.912518: $GPGGA,221828,3946.9653,N,08404.9748,W,2,11,0.80,298.63,M,-33.324,M,,*7D
2017-12-01 17:18:27 1512166707.912587: $GPRMC,221828,A,3946.9653,N,08404.9748,W,0.0000,0.000,011217,,*33
2017-12-01 17:18:27 1512166707.912647: $GPGSA,A,3,1,3,10,14,22,25,26,31,32,12,138,,2.0,0.8,1.5*03
