2017-12-01 18:13:38 1512170018.837473: {"class":"VERSION","release":"3.16","rev":"3.16-4","proto_major":3,"proto_minor":11}
2017-12-01 18:13:38 1512170018.837835: {"class":"DEVICES","devices":[{"class":"DEVICE","path":"/dev/ttyUSB0","driver":"SiRF","subtype":"9\u0006GSD4e_4.1.2-P1_RPATCH.05-F-GPS-4R-1510281 11/03/2015 307","activated":"2017-12-01T23:13:38.730Z","flags":1,"native":1,"bps":4800,"parity":"N","stopbits":1,"cycle":1.00}]}
2017-12-01 18:13:38 1512170018.837948: {"class":"WATCH","enable":true,"json":false,"nmea":true,"raw":0,"scaled":false,"timing":false,"split24":false,"pps":false}
2017-12-01 18:13:39 1512170019.758563: $GPGSV,3,1,12,01,08,256,33,03,37,303,46,14,58,085,42,16,19,189,43*7E
2017-12-01 18:13:39 1512170019.758748: $GPGSV,3,2,12,22,50,277,47,23,08,298,43,25,21,042,39,26,49,174,46*73
2017-12-01 18:13:39 1512170019.758816: $GPGSV,3,3,12,31,71,018,46,32,39,103,42,29,09,076,07,138,38,213,46*4D
2017-12-01 18:13:39 1512170019.872066: $GPZDA,231340.00,01,12,2017,00,00*67
2017-12-01 18:13:39 1512170019.872226: $GPGGA,231340,3946.9707,N,08404.9840,W,2,11,0.80,296.01,M,-33.325,M,,*75
2017-12-01 18:13:39 1512170019.872293: $GPRMC,231340,A,3946.9707,N,08404.9840,W,0.0000,0.000,011217,,*30
2017-12-01 18:13:39 1512170019.872373: $GPGSA,A,3,1,3,14,16,22,23,25,26,31,32,138,,2.0,0.8,1.5*07
2017-12-01 18:13:40 1512170020.419154: $GPZDA,231341.00,01,12,2017,00,00*66
2017-12-01 18:13:40 1512170020.419335: $GPGGA,231341,3946.9711,N,08404.9846,W,2,11,0.80,295.16,M,-33.325,M,,*70
2017-12-01 18:13:40 1512170020.419403: $GPRMC,231341,A,3946.9711,N,08404.9846,W,0.0000,0.000,011217,,*30
2017-12-01 18:13:40 1512170020.419464: $GPGSA,A,3,1,3,14,16,22,23,25,26,31,32,138,,2.0,0.8,1.5*07
2017-12-01 18:13:41 1512170021.417534: $GPZDA,231342.00,01,12,2017,00,00*65
2017-12-01 18:13:41 1512170021.417713: $GPGGA,231342,3946.9711,N,08404.9846,W,2,11,0.80,295.16,M,-33.325,M,,*73
2017-12-01 18:13:41 1512170021.417781: $GPRMC,231342,A,3946.9711,N,08404.9846,W,0.0000,0.000,011217,,*33
2017-12-01 18:13:41 1512170021.417842: $GPGSA,A,3,1,3,14,16,22,23,25,26,31,32,138,,2.0,0.8,1.5*07
2017-12-01 18:13:42 1512170022.783119: $GPGSV,3,1,12,01,08,256,33,03,37,303,46,14,58,085,42,16,19,189,42*7F
2017-12-01 18:13:42 1512170022.783299: $GPGSV,3,2,12,22,50,277,46,23,08,298,42,25,21,042,40,26,49,174,46*7D
2017-12-01 18:13:42 1512170022.783365: $GPGSV,3,3,12,31,71,018,46,32,39,103,43,29,09,076,23,138,38,213,45*49
2017-12-01 18:13:42 1512170022.896518: $GPZDA,231343.00,01,12,2017,00,00*64
2017-12-01 18:13:42 1512170022.896689: $GPGGA,231343,3946.9711,N,08404.9846,W,2,11,0.80,295.16,M,-33.325,M,,*72
2017-12-01 18:13:42 1512170022.896756: $GPRMC,231343,A,3946.9711,N,08404.9846,W,0.0000,0.000,011217,,*32
2017-12-01 18:13:42 1512170022.896817: $GPGSA,A,3,1,3,14,16,22,23,25,26,31,32,138,,2.0,0.8,1.5*07
2017-12-01 18:13:43 1512170023.416142: $GPZDA,231344.00,01,12,2017,00,00*63
2017-12-01 18:13:43 1512170023.416314: $GPGGA,231344,3946.9711,N,08404.9846,W,2,11,0.80,295.16,M,-33.325,M,,*75
2017-12-01 18:13:43 1512170023.416381: $GPRMC,231344,A,3946.9711,N,08404.9846,W,0.0000,0.000,011217,,*35
2017-12-01 18:13:43 1512170023.416441: $GPGSA,A,3,1,3,14,16,22,23,25,26,31,32,138,,2.0,0.8,1.5*07
2017-12-01 18:13:44 1512170024.446523: $GPZDA,231345.00,01,12,2017,00,00*62
2017-12-01 18:13:44 1512170024.446707: $GPGGA,231345,3946.9711,N,08404.9846,W,2,11,0.80,295.16,M,-33.325,M,,*74
2017-12-01 18:13:44 1512170024.446774: $GPRMC,231345,A,3946.9711,N,08404.9846,W,0.0000,0.000,011217,,*34
2017-12-01 18:13:44 1512170024.446835: $GPGSA,A,3,1,3,14,16,22,23,25,26,31,32,138,,2.0,0.8,1.5*07
2017-12-01 18:13:45 1512170025.782228: $GPGSV,3,1,12,01,08,256,33,03,37,303,46,14,58,085,42,16,19,189,42*7F
2017-12-01 18:13:45 1512170025.782409: $GPGSV,3,2,12,22,50,277,46,23,08,298,42,25,21,042,40,26,49,174,46*7D
2017-12-01 18:13:45 1512170025.782477: $GPGSV,3,3,12,31,71,018,45,32,39,103,42,29,09,076,12,138,38,213,46*4A
2017-12-01 18:13:45 1512170025.895590: $GPZDA,231346.00,01,12,2017,00,00*61
2017-12-01 18:13:45 1512170025.895765: $GPGGA,231346,3946.9711,N,08404.9846,W,2,11,0.80,295.16,M,-33.325,M,,*77
2017-12-01 18:13:45 1512170025.895883: $GPRMC,231346,A,3946.9711,N,08404.9846,W,0.0000,0.000,011217,,*37
2017-12-01 18:13:45 1512170025.895946: $GPGSA,A,3,1,3,14,16,22,23,25,26,31,32,138,,2.0,0.8,1.5*07
2017-12-01 18:13:46 1512170026.445336: $GPZDA,231347.00,01,12,2017,00,00*60
2017-12-01 18:13:46 1512170026.445508: $GPGGA,231347,3946.9711,N,08404.9846,W,2,11,0.80,295.16,M,-33.325,M,,*76
2017-12-01 18:13:46 1512170026.445576: $GPRMC,231347,A,3946.9711,N,08404.9846,W,0.0000,0.000,011217,,*36
2017-12-01 18:13:46 1512170026.445637: $GPGSA,A,3,1,3,14,16,22,23,25,26,31,32,138,,2.0,0.8,1.5*07
2017-12-01 18:13:47 1512170027.449029: $GPZDA,231348.00,01,12,2017,00,00*6F
2017-12-01 18:13:47 1512170027.449204: $GPGGA,231348,3946.9711,N,08404.9846,W,2,11,0.80,295.16,M,-33.325,M,,*79
2017-12-01 18:13:47 1512170027.449270: $GPRMC,231348,A,3946.9711,N,08404.9846,W,0.0000,0.000,011217,,*39
2017-12-01 18:13:47 1512170027.449332: $GPGSA,A,3,1,3,14,16,22,23,25,26,31,32,138,,2.0,0.8,1.5*07
2017-12-01 18:13:48 1512170028.758201: $GPGSV,3,1,12,01,08,256,34,03,37,303,46,14,58,085,42,16,19,189,42*78
2017-12-01 18:13:48 1512170028.758403: $GPGSV,3,2,12,22,50,277,47,23,08,298,42,25,21,042,40,26,49,174,46*7C
2017-12-01 18:13:48 1512170028.758470: $GPGSV,3,3,12,31,71,018,46,32,39,103,42,29,09,076,04,138,38,213,45*4D
2017-12-01 18:13:48 1512170028.871541: $GPZDA,231349.00,01,12,2017,00,00*6E
2017-12-01 18:13:48 1512170028.871757: $GPGGA,231349,3946.9711,N,08404.9846,W,2,11,0.80,295.16,M,-33.325,M,,*78
2017-12-01 18:13:48 1512170028.871825: $GPRMC,231349,A,3946.9711,N,08404.9846,W,0.0000,0.000,011217,,*38
2017-12-01 18:13:48 1512170028.871886: $GPGSA,A,3,1,3,14,16,22,23,25,26,31,32,138,,2.0,0.8,1.5*07
2017-12-01 18:13:49 1512170029.496841: $GPZDA,231350.00,01,12,2017,00,00*66
2017-12-01 18:13:49 1512170029.497012: $GPGGA,231350,3946.9711,N,08404.9846,W,2,11,0.80,295.16,M,-33.325,M,,*70
2017-12-01 18:13:49 1512170029.497079: $GPRMC,231350,A,3946.9711,N,08404.9846,W,0.0000,0.000,011217,,*30
2017-12-01 18:13:49 1512170029.497139: $GPGSA,A,3,1,3,14,16,22,23,25,26,31,32,138,,2.0,0.8,1.5*07
2017-12-01 18:13:50 1512170030.443965: $GPZDA,231351.00,01,12,2017,00,00*67
2017-12-01 18:13:50 1512170030.444133: $GPGGA,231351,3946.9711,N,08404.9846,W,2,11,0.80,295.16,M,-33.325,M,,*71
2017-12-01 18:13:50 1512170030.444199: $GPRMC,231351,A,3946.9711,N,08404.9846,W,0.0000,0.000,011217,,*31
2017-12-01 18:13:50 1512170030.444259: $GPGSA,A,3,1,3,14,16,22,23,25,26,31,32,138,,2.0,0.8,1.5*07
2017-12-01 18:13:51 1512170031.783401: $GPGSV,3,1,12,01,08,256,34,03,37,303,46,14,58,085,42,16,19,189,43*79
2017-12-01 18:13:51 1512170031.783601: $GPGSV,3,2,12,22,50,277,46,23,08,298,41,25,21,042,40,26,49,174,46*7E
2017-12-01 18:13:51 1512170031.783667: $GPGSV,3,3,12,31,71,018,46,32,39,103,42,10,02,159,23,138,38,213,46*46
2017-12-01 18:13:51 1512170031.896811: $GPZDA,231352.00,01,12,2017,00,00*64
2017-12-01 18:13:51 1512170031.896983: $GPGGA,231352,3946.9711,N,08404.9846,W,2,12,0.80,295.16,M,-33.325,M,,*71
2017-12-01 18:13:51 1512170031.897050: $GPRMC,231352,A,3946.9711,N,08404.9846,W,0.0000,0.000,011217,,*32
2017-12-01 18:13:51 1512170031.897111: $GPGSA,A,3,1,3,14,16,22,23,25,26,31,32,10,138,2.0,0.8,1.5*06
2017-12-01 18:13:52 1512170032.417753: $GPZDA,231353.00,01,12,2017,00,00*65
2017-12-01 18:13:52 1512170032.417925: $GPGGA,231353,3946.9711,N,08404.9846,W,2,12,0.80,295.16,M,-33.325,M,,*70
2017-12-01 18:13:52 1512170032.417992: $GPRMC,231353,A,3946.9711,N,08404.9846,W,0.0000,0.000,011217,,*33
2017-12-01 18:13:52 1512170032.418053: $GPGSA,A,3,1,3,14,16,22,23,25,26,31,32,10,138,2.0,0.8,1.5*06
2017-12-01 18:13:53 1512170033.447477: $GPZDA,231354.00,01,12,2017,00,00*62
2017-12-01 18:13:53 1512170033.447665: $GPGGA,231354,3946.9711,N,08404.9846,W,2,12,0.80,295.16,M,-33.325,M,,*77
2017-12-01 18:13:53 1512170033.447733: $GPRMC,231354,A,3946.9711,N,08404.9846,W,0.0000,0.000,011217,,*34
2017-12-01 18:13:53 1512170033.447794: $GPGSA,A,3,1,3,14,16,22,23,25,26,31,32,10,138,2.0,0.8,1.5*06
2017-12-01 18:13:54 1512170034.755225: $GPGSV,3,1,12,01,08,256,31,03,37,303,46,14,58,085,42,16,19,189,42*7D
2017-12-01 18:13:54 1512170034.755545: $GPGSV,3,2,12,22,50,277,46,23,08,298,41,25,21,042,40,26,49,174,46*7E
2017-12-01 18:13:54 1512170034.755644: $GPGSV,3,3,12,31,71,018,46,32,39,103,42,29,09,076,21,138,38,213,46*49
2017-12-01 18:13:54 1512170034.868431: $GPZDA,231355.00,01,12,2017,00,00*63
2017-12-01 18:13:54 1512170034.868622: $GPGGA,231355,3946.9711,N,08404.9846,W,2,12,0.80,295.16,M,-33.325,M,,*76
2017-12-01 18:13:54 1512170034.868705: $GPRMC,231355,A,3946.9711,N,08404.9846,W,0.0000,0.000,011217,,*35
2017-12-01 18:13:54 1512170034.868767: $GPGSA,A,3,1,3,14,16,22,23,25,26,31,32,29,138,2.0,0.8,1.5*0C
2017-12-01 18:13:55 1512170035.446920: $GPZDA,231356.00,01,12,2017,00,00*60
2017-12-01 18:13:55 1512170035.447088: $GPGGA,231356,3946.9711,N,08404.9846,W,2,12,0.80,295.16,M,-33.325,M,,*75
2017-12-01 18:13:55 1512170035.447156: $GPRMC,231356,A,3946.9711,N,08404.9846,W,0.0000,0.000,011217,,*36
2017-12-01 18:13:55 1512170035.447216: $GPGSA,A,3,1,3,14,16,22,23,25,26,31,32,29,138,2.0,0.8,1.5*0C
2017-12-01 18:13:56 1512170036.447665: $GPZDA,231357.00,01,12,2017,00,00*61
2017-12-01 18:13:56 1512170036.447837: $GPGGA,231357,3946.9711,N,08404.9846,W,2,12,0.80,295.16,M,-33.325,M,,*74
2017-12-01 18:13:56 1512170036.447905: $GPRMC,231357,A,3946.9711,N,08404.9846,W,0.0000,0.000,011217,,*37
2017-12-01 18:13:56 1512170036.447966: $GPGSA,A,3,1,3,14,16,22,23,25,26,31,32,29,138,2.0,0.8,1.5*0C
2017-12-01 18:13:57 1512170037.782075: $GPGSV,3,1,12,01,08,256,32,03,37,303,46,14,58,085,42,16,19,189,42*7E
2017-12-01 18:13:57 1512170037.782258: $GPGSV,3,2,12,22,50,277,46,23,08,298,41,25,21,042,40,26,49,174,46*7E
2017-12-01 18:13:57 1512170037.782325: $GPGSV,3,3,12,31,71,018,47,32,39,103,41,10,02,159,24,138,38,213,46*43
2017-12-01 18:13:57 1512170037.895501: $GPZDA,231358.00,01,12,2017,00,00*6E
2017-12-01 18:13:57 1512170037.895677: $GPGGA,231358,3946.9711,N,08404.9846,W,2,12,0.80,295.16,M,-33.325,M,,*7B
2017-12-01 18:13:57 1512170037.895744: $GPRMC,231358,A,3946.9711,N,08404.9846,W,0.0000,0.000,011217,,*38
2017-12-01 18:13:57 1512170037.895827: $GPGSA,A,3,1,3,14,16,22,23,25,26,31,32,10,138,2.0,0.8,1.5*06
2017-12-01 18:13:58 1512170038.445157: $GPZDA,231359.00,01,12,2017,00,00*6F
2017-12-01 18:13:58 1512170038.445332: $GPGGA,231359,3946.9711,N,08404.9846,W,2,12,0.80,295.16,M,-33.325,M,,*7A
2017-12-01 18:13:58 1512170038.445401: $GPRMC,231359,A,3946.9711,N,08404.9846,W,0.0000,0.000,011217,,*39
2017-12-01 18:13:58 1512170038.445463: $GPGSA,A,3,1,3,14,16,22,23,25,26,31,32,10,138,2.0,0.8,1.5*06
