2017-12-29 10:52:40 1514562760.496864: {"class":"VERSION","release":"3.16","rev":"3.16-4","proto_major":3,"proto_minor":11}
2017-12-29 10:52:40 1514562760.497214: {"class":"DEVICES","devices":[{"class":"DEVICE","path":"/dev/ttyUSB0","driver":"SiRF","subtype":"9\u0006GSD4e_4.1.2-P1_RPATCH.05-F-GPS-4R-1510281 11/03/2015 307","activated":"2017-12-29T15:52:40.380Z","flags":1,"native":1,"bps":4800,"parity":"N","stopbits":1,"cycle":1.00}]}
2017-12-29 10:52:40 1514562760.497334: {"class":"WATCH","enable":true,"json":false,"nmea":true,"raw":0,"scaled":false,"timing":false,"split24":false,"pps":false}
2017-12-29 10:52:41 1514562761.153343: $GPZDA,155241.43,29,12,2017,00,00*6B
2017-12-29 10:52:41 1514562761.153502: $GPGGA,155241,3946.9584,N,08404.9841,W,1,10,1.40,304.54,M,-33.324,M,,*78
2017-12-29 10:52:41 1514562761.153569: $GPRMC,155241,A,3946.9584,N,08404.9841,W,0.0814,142.014,291217,,*3C
2017-12-29 10:52:41 1514562761.153630: $GPGSA,A,3,10,13,15,18,20,21,24,27,32,138,,,1.7,1.4,1.3*04
2017-12-29 10:52:42 1514562762.295884: $GPGSV,3,1,11,10,33,292,44,13,17,046,44,15,47,049,50,18,64,318,45*7A
2017-12-29 10:52:42 1514562762.296054: $GPGSV,3,2,11,20,43,085,51,21,74,205,47,24,44,126,50,27,19,300,38*73
2017-12-29 10:52:42 1514562762.296119: $GPGSV,3,3,11,32,13,232,08,08,01,331,00,138,38,213,00*78
2017-12-29 10:52:42 1514562762.409185: $GPZDA,155242.00,29,12,2017,00,00*6F
2017-12-29 10:52:42 1514562762.409324: $GPGGA,155242,3946.9580,N,08404.9834,W,1,08,1.40,303.98,M,-33.324,M,,*73
2017-12-29 10:52:42 1514562762.409389: $GPRMC,155242,A,3946.9580,N,08404.9834,W,0.2558,168.707,291217,,*33
2017-12-29 10:52:42 1514562762.409450: $GPGSA,A,3,10,13,15,18,20,21,24,27,,,,,1.7,1.4,1.3*3F
2017-12-29 10:52:43 1514562763.020126: $GPZDA,155243.00,29,12,2017,00,00*6E
2017-12-29 10:52:43 1514562763.020281: $GPGGA,155243,3946.9583,N,08404.9834,W,1,08,0.80,303.21,M,-33.324,M,,*7E
2017-12-29 10:52:43 1514562763.020346: $GPRMC,155243,A,3946.9583,N,08404.9834,W,0.2202,173.469,291217,,*38
2017-12-29 10:52:43 1514562763.020407: $GPGSA,A,3,10,13,15,18,20,21,24,27,,,,,1.7,0.8,1.3*32
2017-12-29 10:52:43 1514562763.020464: $GPGBS,155243,10.91,M,10.38,M,30.89,M*0B
2017-12-29 10:52:43 1514562763.472274: $GPZDA,155244.00,29,12,2017,00,00*69
2017-12-29 10:52:43 1514562763.472436: $GPGGA,155244,3946.9583,N,08404.9834,W,1,08,0.80,303.21,M,-33.324,M,,*79
2017-12-29 10:52:43 1514562763.472500: $GPRMC,155244,A,3946.9583,N,08404.9834,W,0.0000,0.000,291217,,*33
2017-12-29 10:52:43 1514562763.472561: $GPGSA,A,3,10,13,15,18,20,21,24,27,,,,,1.7,0.8,1.3*32
2017-12-29 10:52:43 1514562763.472617: $GPGBS,155244,10.91,M,10.38,M,30.89,M*0C
2017-12-29 10:52:44 1514562764.695014: $GPGSV,3,1,11,10,33,292,45,13,17,046,44,15,47,049,50,18,64,318,45*7B
2017-12-29 10:52:44 1514562764.695172: $GPGSV,3,2,11,20,43,085,51,21,74,205,47,24,44,126,50,27,19,300,39*72
2017-12-29 10:52:44 1514562764.695237: $GPGSV,3,3,11,32,13,232,28,08,01,331,00,138,38,213,46*78
2017-12-29 10:52:44 1514562764.808663: $GPZDA,155245.00,29,12,2017,00,00*68
2017-12-29 10:52:44 1514562764.808791: $GPGGA,155245,3946.9579,N,08404.9834,W,1,10,0.80,302.57,M,-33.324,M,,*74
2017-12-29 10:52:44 1514562764.808856: $GPRMC,155245,A,3946.9579,N,08404.9834,W,0.0000,0.000,291217,,*37
2017-12-29 10:52:44 1514562764.808917: $GPGSA,A,3,10,13,15,18,20,21,24,27,32,138,,,1.7,0.8,1.3*09
2017-12-29 10:52:45 1514562765.360911: $GPZDA,155246.00,29,12,2017,00,00*6B
2017-12-29 10:52:45 1514562765.361117: $GPGGA,155246,3946.9582,N,08404.9833,W,1,10,0.80,301.81,M,-33.324,M,,*7C
2017-12-29 10:52:45 1514562765.361193: $GPRMC,155246,A,3946.9582,N,08404.9833,W,0.0000,0.000,291217,,*37
2017-12-29 10:52:45 1514562765.361254: $GPGSA,A,3,10,13,15,18,20,21,24,27,32,138,,,1.7,0.8,1.3*09
2017-12-29 10:52:46 1514562766.360337: $GPZDA,155247.00,29,12,2017,00,00*6A
2017-12-29 10:52:46 1514562766.360492: $GPGGA,155247,3946.9582,N,08404.9833,W,1,10,0.80,301.81,M,-33.324,M,,*7D
2017-12-29 10:52:46 1514562766.360558: $GPRMC,155247,A,3946.9582,N,08404.9833,W,0.0000,0.000,291217,,*36
2017-12-29 10:52:46 1514562766.360619: $GPGSA,A,3,10,13,15,18,20,21,24,27,32,138,,,1.7,0.8,1.3*09
2017-12-29 10:52:46 1514562766.360745: $GPGBS,155247,10.91,M,10.38,M,30.89,M*0F
2017-12-29 10:52:47 1514562767.696995: $GPGSV,3,1,11,10,33,292,45,13,17,046,44,15,47,049,50,18,64,318,45*7B
2017-12-29 10:52:47 1514562767.697166: $GPGSV,3,2,11,20,43,085,51,21,74,205,47,24,44,126,50,27,19,300,38*73
2017-12-29 10:52:47 1514562767.697230: $GPGSV,3,3,11,32,13,232,29,08,01,331,00,138,38,213,47*78
2017-12-29 10:52:47 1514562767.810652: $GPZDA,155248.00,29,12,2017,00,00*65
2017-12-29 10:52:47 1514562767.810780: $GPGGA,155248,3946.9582,N,08404.9826,W,1,10,0.80,301.89,M,-33.324,M,,*7E
2017-12-29 10:52:47 1514562767.810844: $GPRMC,155248,A,3946.9582,N,08404.9826,W,0.0000,0.000,291217,,*3D
2017-12-29 10:52:47 1514562767.810905: $GPGSA,A,3,10,13,15,18,20,21,24,27,32,138,,,1.7,0.8,1.3*09
2017-12-29 10:52:48 1514562768.364091: $GPZDA,155249.00,29,12,2017,00,00*64
2017-12-29 10:52:48 1514562768.364236: $GPGGA,155249,3946.9578,N,08404.9826,W,1,10,0.80,301.25,M,-33.324,M,,*7C
2017-12-29 10:52:48 1514562768.364302: $GPRMC,155249,A,3946.9578,N,08404.9826,W,0.0000,0.000,291217,,*39
2017-12-29 10:52:48 1514562768.364362: $GPGSA,A,3,10,13,15,18,20,21,24,27,32,138,,,1.7,0.8,1.3*09
2017-12-29 10:52:49 1514562769.363182: $GPZDA,155250.00,29,12,2017,00,00*6C
2017-12-29 10:52:49 1514562769.363328: $GPGGA,155250,3946.9576,N,08404.9824,W,2,10,1.40,297.04,M,-33.324,M,,*7B
2017-12-29 10:52:49 1514562769.363394: $GPRMC,155250,A,3946.9576,N,08404.9824,W,0.0000,0.000,291217,,*3D
2017-12-29 10:52:49 1514562769.363454: $GPGSA,A,3,10,13,15,18,20,21,24,27,32,138,,,1.7,1.4,1.3*04
2017-12-29 10:52:50 1514562770.698565: $GPGSV,3,1,11,10,33,292,45,13,17,046,44,15,47,049,50,18,64,318,45*7B
2017-12-29 10:52:50 1514562770.698734: $GPGSV,3,2,11,20,43,085,51,21,74,205,47,24,44,126,50,27,19,300,39*72
2017-12-29 10:52:50 1514562770.698802: $GPGSV,3,3,11,32,13,232,30,08,01,331,00,138,38,213,45*72
2017-12-29 10:52:50 1514562770.812328: $GPZDA,155251.00,29,12,2017,00,00*6D
2017-12-29 10:52:50 1514562770.812461: $GPGGA,155251,3946.9576,N,08404.9824,W,2,10,0.80,297.04,M,-33.324,M,,*77
2017-12-29 10:52:50 1514562770.812526: $GPRMC,155251,A,3946.9576,N,08404.9824,W,0.0000,0.000,291217,,*3C
2017-12-29 10:52:50 1514562770.812586: $GPGSA,A,3,10,13,15,18,20,21,24,27,32,138,,,1.7,0.8,1.3*09
2017-12-29 10:52:51 1514562771.360653: $GPZDA,155252.00,29,12,2017,00,00*6E
2017-12-29 10:52:51 1514562771.360819: $GPGGA,155252,3946.9576,N,08404.9824,W,2,10,0.80,297.04,M,-33.324,M,,*74
2017-12-29 10:52:51 1514562771.360886: $GPRMC,155252,A,3946.9576,N,08404.9824,W,0.0000,0.000,291217,,*3F
2017-12-29 10:52:51 1514562771.360945: $GPGSA,A,3,10,13,15,18,20,21,24,27,32,138,,,1.7,0.8,1.3*09
2017-12-29 10:52:52 1514562772.360291: $GPZDA,155253.00,29,12,2017,00,00*6F
2017-12-29 10:52:52 1514562772.360448: $GPGGA,155253,3946.9580,N,08404.9824,W,2,10,0.80,297.68,M,-33.324,M,,*76
2017-12-29 10:52:52 1514562772.360514: $GPRMC,155253,A,3946.9580,N,08404.9824,W,0.0000,0.000,291217,,*37
2017-12-29 10:52:52 1514562772.360574: $GPGSA,A,3,10,13,15,18,20,21,24,27,32,138,,,1.7,0.8,1.3*09
2017-12-29 10:52:53 1514562773.699420: $GPGSV,3,1,11,10,33,292,45,13,17,046,44,15,47,049,50,18,64,318,45*7B
2017-12-29 10:52:53 1514562773.699584: $GPGSV,3,2,11,20,43,085,51,21,74,205,48,24,44,126,51,27,19,300,38*7D
2017-12-29 10:52:53 1514562773.699652: $GPGSV,3,3,11,32,13,232,31,08,01,331,02,138,38,213,46*72
2017-12-29 10:52:53 1514562773.811962: $GPZDA,155254.00,29,12,2017,00,00*68
2017-12-29 10:52:53 1514562773.812091: $GPGGA,155254,3946.9580,N,08404.9824,W,2,10,0.80,297.68,M,-33.324,M,,*71
2017-12-29 10:52:53 1514562773.812155: $GPRMC,155254,A,3946.9580,N,08404.9824,W,0.0000,0.000,291217,,*30
2017-12-29 10:52:53 1514562773.812214: $GPGSA,A,3,10,13,15,18,20,21,24,27,32,138,,,1.7,0.8,1.3*09
2017-12-29 10:52:54 1514562774.438567: $GPZDA,155255.00,29,12,2017,00,00*69
2017-12-29 10:52:54 1514562774.438727: $GPGGA,155255,3946.9580,N,08404.9824,W,2,10,0.80,297.68,M,-33.324,M,,*70
2017-12-29 10:52:54 1514562774.438796: $GPRMC,155255,A,3946.9580,N,08404.9824,W,0.0000,0.000,291217,,*31
2017-12-29 10:52:54 1514562774.438908: $GPGSA,A,3,10,13,15,18,20,21,24,27,32,138,,,1.7,0.8,1.3*09
2017-12-29 10:52:55 1514562775.371599: $GPZDA,155256.00,29,12,2017,00,00*6A
2017-12-29 10:52:55 1514562775.475432: $GPGGA,155256,3946.9580,N,08404.9824,W,2,10,0.80,297.68,M,-33.324,M,,*73
2017-12-29 10:52:55 1514562775.475589: $GPRMC,155256,A,3946.9580,N,08404.9824,W,0.0000,0.000,291217,,*32
2017-12-29 10:52:55 1514562775.475662: $GPGSA,A,3,10,13,15,18,20,21,24,27,32,138,,,1.7,0.8,1.3*09
