2017-12-01 12:03:59 1512147839.406908: {"class":"VERSION","release":"3.16","rev":"3.16-4","proto_major":3,"proto_minor":11}
2017-12-01 12:03:59 1512147839.407314: {"class":"DEVICES","devices":[{"class":"DEVICE","path":"/dev/ttyUSB0","driver":"SiRF","subtype":"9\u0006GSD4e_4.1.2-P1_RPATCH.05-F-GPS-4R-1510281 11/03/2015 307","activated":"2017-12-01T17:03:59.344Z","flags":1,"native":1,"bps":4800,"parity":"N","stopbits":1,"cycle":1.00}]}
2017-12-01 12:03:59 1512147839.407432: {"class":"WATCH","enable":true,"json":false,"nmea":true,"raw":0,"scaled":false,"timing":false,"split24":false,"pps":false}
2017-12-01 12:03:59 1512147839.458083: $GPZDA,170400.00,01,12,2017,00,00*62
2017-12-01 12:03:59 1512147839.458232: $GPGGA,170400,3946.9591,N,08404.9836,W,2,11,0.80,295.22,M,-33.324,M,,*7F
2017-12-01 12:03:59 1512147839.458297: $GPRMC,170400,A,3946.9591,N,08404.9836,W,0.0000,0.000,011217,,*39
2017-12-01 12:03:59 1512147839.458357: $GPGSA,A,3,10,13,15,18,20,21,24,27,29,5,138,,2.0,0.8,1.5*34
2017-12-01 12:04:00 1512147840.383783: $GPZDA,170401.00,01,12,2017,00,00*63
2017-12-01 12:04:00 1512147840.383970: $GPGGA,170401,3946.9595,N,08404.9836,W,2,11,0.80,295.86,M,-33.324,M,,*74
2017-12-01 12:04:00 1512147840.384038: $GPRMC,170401,A,3946.9595,N,08404.9836,W,0.0000,0.000,011217,,*3C
2017-12-01 12:04:00 1512147840.384099: $GPGSA,A,3,10,13,15,18,20,21,24,27,29,5,138,,2.0,0.8,1.5*34
2017-12-01 12:04:01 1512147841.716963: $GPGSV,3,1,12,10,19,279,40,13,35,046,45,15,67,055,46,18,50,294,46*78
2017-12-01 12:04:01 1512147841.717156: $GPGSV,3,2,12,20,56,064,46,21,75,291,46,24,28,142,46,27,14,318,41*75
2017-12-01 12:04:01 1512147841.717223: $GPGSV,3,3,12,29,15,192,34,05,07,084,28,04,05,135,00,138,38,213,47*48
2017-12-01 12:04:01 1512147841.830385: $GPZDA,170402.00,01,12,2017,00,00*60
2017-12-01 12:04:01 1512147841.830555: $GPGGA,170402,3946.9595,N,08404.9836,W,2,11,0.80,295.86,M,-33.324,M,,*77
2017-12-01 12:04:01 1512147841.830622: $GPRMC,170402,A,3946.9595,N,08404.9836,W,0.0000,0.000,011217,,*3F
2017-12-01 12:04:01 1512147841.830699: $GPGSA,A,3,10,13,15,18,20,21,24,27,29,5,138,,2.0,0.8,1.5*34
2017-12-01 12:04:02 1512147842.378734: $GPZDA,170403.00,01,12,2017,00,00*61
2017-12-01 12:04:02 1512147842.378907: $GPGGA,170403,3946.9595,N,08404.9836,W,2,11,0.80,295.86,M,-33.324,M,,*76
2017-12-01 12:04:02 1512147842.378974: $GPRMC,170403,A,3946.9595,N,08404.9836,W,0.0000,0.000,011217,,*3E
2017-12-01 12:04:02 1512147842.379035: $GPGSA,A,3,10,13,15,18,20,21,24,27,29,5,138,,2.0,0.8,1.5*34
2017-12-01 12:04:03 1512147843.378164: $GPZDA,170404.00,01,12,2017,00,00*66
2017-12-01 12:04:03 1512147843.378342: $GPGGA,170404,3946.9595,N,08404.9836,W,2,11,0.80,295.86,M,-33.324,M,,*71
2017-12-01 12:04:03 1512147843.378412: $GPRMC,170404,A,3946.9595,N,08404.9836,W,0.3423,4.197,011217,,*34
2017-12-01 12:04:03 1512147843.378477: $GPGSA,A,3,10,13,15,18,20,21,24,27,29,5,138,,2.0,0.8,1.5*34
2017-12-01 12:04:03 1512147843.378536: $GPGBS,170404,2.67,M,3.86,M,8.82,M*34
2017-12-01 12:04:04 1512147844.713417: $GPGSV,3,1,12,10,19,279,41,13,35,046,42,15,67,055,45,18,50,294,45*7E
2017-12-01 12:04:04 1512147844.713600: $GPGSV,3,2,12,20,56,064,45,21,75,291,45,24,28,142,46,27,14,318,40*74
2017-12-01 12:04:04 1512147844.713668: $GPGSV,3,3,12,29,15,192,32,05,07,084,28,04,05,135,00,138,38,213,45*4C
2017-12-01 12:04:04 1512147844.826769: $GPZDA,170405.00,01,12,2017,00,00*67
2017-12-01 12:04:04 1512147844.826943: $GPGGA,170405,3946.9595,N,08404.9836,W,2,11,0.80,295.86,M,-33.324,M,,*70
2017-12-01 12:04:04 1512147844.827011: $GPRMC,170405,A,3946.9595,N,08404.9836,W,0.0000,0.000,011217,,*38
2017-12-01 12:04:04 1512147844.827072: $GPGSA,A,3,10,13,15,18,20,21,24,27,29,5,138,,2.0,0.8,1.5*34
2017-12-01 12:04:05 1512147845.376786: $GPZDA,170406.00,01,12,2017,00,00*64
2017-12-01 12:04:05 1512147845.376956: $GPGGA,170406,3946.9603,N,08404.9849,W,2,11,0.80,295.58,M,-33.324,M,,*74
2017-12-01 12:04:05 1512147845.377023: $GPRMC,170406,A,3946.9603,N,08404.9849,W,0.1867,0.000,011217,,*37
2017-12-01 12:04:05 1512147845.377085: $GPGSA,A,3,10,13,15,18,20,21,24,27,29,5,138,,2.0,0.8,1.5*34
2017-12-01 12:04:06 1512147846.377640: $GPZDA,170407.00,01,12,2017,00,00*65
2017-12-01 12:04:06 1512147846.377814: $GPGGA,170407,3946.9603,N,08404.9849,W,2,11,0.80,295.58,M,-33.324,M,,*75
2017-12-01 12:04:06 1512147846.377881: $GPRMC,170407,A,3946.9603,N,08404.9849,W,0.0000,0.000,011217,,*3E
2017-12-01 12:04:06 1512147846.377943: $GPGSA,A,3,10,13,15,18,20,21,24,27,29,5,138,,2.0,0.8,1.5*34
2017-12-01 12:04:07 1512147847.714358: $GPGSV,3,1,12,10,19,279,41,13,35,046,43,15,67,055,46,18,50,294,46*7F
2017-12-01 12:04:07 1512147847.714545: $GPGSV,3,2,12,20,56,064,45,21,75,291,45,24,28,142,46,27,14,318,41*75
2017-12-01 12:04:07 1512147847.714613: $GPGSV,3,3,12,29,15,192,32,05,07,084,29,04,05,135,00,138,38,213,47*4F
2017-12-01 12:04:07 1512147847.828004: $GPZDA,170408.00,01,12,2017,00,00*6A
2017-12-01 12:04:07 1512147847.828177: $GPGGA,170408,3946.9603,N,08404.9849,W,2,11,0.80,295.58,M,-33.324,M,,*7A
2017-12-01 12:04:07 1512147847.828244: $GPRMC,170408,A,3946.9603,N,08404.9849,W,0.0000,0.000,011217,,*31
2017-12-01 12:04:07 1512147847.828306: $GPGSA,A,3,10,13,15,18,20,21,24,27,29,5,138,,2.0,0.8,1.5*34
2017-12-01 12:04:08 1512147848.380345: $GPZDA,170409.00,01,12,2017,00,00*6B
2017-12-01 12:04:08 1512147848.380580: $GPGGA,170409,3946.9603,N,08404.9849,W,2,11,0.80,295.58,M,-33.324,M,,*7B
2017-12-01 12:04:08 1512147848.380651: $GPRMC,170409,A,3946.9603,N,08404.9849,W,0.0000,0.000,011217,,*30
2017-12-01 12:04:08 1512147848.380715: $GPGSA,A,3,10,13,15,18,20,21,24,27,29,5,138,,2.0,0.8,1.5*34
