2017-11-15 19:25:04 1510791904.344620: {"class":"VERSION","release":"3.17","rev":"3.17","proto_major":3,"proto_minor":12}
2017-11-15 19:25:04 1510791904.345098: {"class":"DEVICES","devices":[{"class":"DEVICE","path":"/dev/ttyUSB0","driver":"SiRF","subtype":"9\u0006GSD4e_4.1.2-P1_RPATCH.05-F-GPS-4R-1510281 11/03/2015 307","activated":"2017-11-16T00:25:04.329Z","flags":1,"native":1,"bps":4800,"parity":"N","stopbits":1,"cycle":1.00}]}
2017-11-15 19:25:04 1510791904.345217: {"class":"WATCH","enable":true,"json":false,"nmea":true,"raw":0,"scaled":false,"timing":false,"split24":false,"pps":false}
2017-11-15 19:25:05 1510791905.329851: $GPZDA,002504.00,16,11,2017,00,00*66
2017-11-15 19:25:05 1510791905.330016: $GPGGA,002504,3946.9651,N,08404.9535,W,1,07,1.40,295.90,M,-33.324,M,,*7F
2017-11-15 19:25:05 1510791905.330076: $GPRMC,002504,A,3946.9651,N,08404.9535,W,0.6846,4.197,161117,,*3B
2017-11-15 19:25:05 1510791905.330132: $GPGSA,A,3,32,31,16,26,14,22,3,,,,,,3.4,1.4,2.9*0D
2017-11-15 19:25:06 1510791906.665261: $GPGSV,3,1,12,32,38,105,27,31,70,021,23,16,20,190,11,26,50,174,28*70
2017-11-15 19:25:06 1510791906.665429: $GPGSV,3,2,12,14,57,088,18,25,19,040,00,22,50,274,13,03,38,301,17*74
2017-11-15 19:25:06 1510791906.665489: $GPGSV,3,3,12,29,10,073,00,23,09,300,00,01,07,255,00,120,07,103,00*4D
2017-11-15 19:25:06 1510791906.778538: $GPZDA,002505.00,16,11,2017,00,00*67
2017-11-15 19:25:06 1510791906.778752: $GPGGA,002505,3946.9651,N,08404.9535,W,1,07,1.40,295.90,M,-33.324,M,,*7E
2017-11-15 19:25:06 1510791906.778813: $GPRMC,002505,A,3946.9651,N,08404.9535,W,0.8709,3.298,161117,,*3B
2017-11-15 19:25:06 1510791906.778869: $GPGSA,A,3,32,31,16,26,14,22,3,,,,,,3.4,1.4,2.9*0D
2017-11-15 19:25:07 1510791907.329456: $GPZDA,002506.00,16,11,2017,00,00*64
2017-11-15 19:25:07 1510791907.329636: $GPGGA,002506,3946.9650,N,08404.9534,W,1,07,1.40,294.50,M,-33.324,M,,*70
2017-11-15 19:25:07 1510791907.329697: $GPRMC,002506,A,3946.9650,N,08404.9534,W,1.3044,25.352,161117,,*0F
2017-11-15 19:25:07 1510791907.329753: $GPGSA,A,3,32,31,16,26,14,22,3,,,,,,3.4,1.4,2.9*0D
2017-11-15 19:25:08 1510791908.344107: $GPZDA,002507.00,16,11,2017,00,00*65
2017-11-15 19:25:08 1510791908.344280: $GPGGA,002507,3946.9654,N,08404.9534,W,1,07,1.40,293.73,M,-33.324,M,,*73
2017-11-15 19:25:08 1510791908.344341: $GPRMC,002507,A,3946.9654,N,08404.9534,W,1.4167,47.342,161117,,*08
2017-11-15 19:25:08 1510791908.344398: $GPGSA,A,3,32,31,16,26,14,22,3,,,,,,3.4,1.4,2.9*0D
2017-11-15 19:25:09 1510791909.663546: $GPGSV,3,1,12,32,38,105,27,31,70,021,24,16,20,190,13,26,50,174,28*75
2017-11-15 19:25:09 1510791909.663718: $GPGSV,3,2,12,14,57,088,18,25,19,040,00,22,50,274,15,03,38,301,17*72
2017-11-15 19:25:09 1510791909.663778: $GPGSV,3,3,12,29,10,073,00,23,09,300,00,01,07,255,00,120,07,103,00*4D
2017-11-15 19:25:09 1510791909.776927: $GPZDA,002508.00,16,11,2017,00,00*6A
2017-11-15 19:25:09 1510791909.777084: $GPGGA,002508,3946.9657,N,08404.9533,W,1,07,1.40,292.97,M,-33.324,M,,*73
2017-11-15 19:25:09 1510791909.777145: $GPRMC,002508,A,3946.9657,N,08404.9533,W,1.3044,25.352,161117,,*01
2017-11-15 19:25:09 1510791909.777200: $GPGSA,A,3,32,31,16,26,14,22,3,,,,,,3.4,1.4,2.9*0D
2017-11-15 19:25:10 1510791910.327771: $GPZDA,002509.00,16,11,2017,00,00*6B
2017-11-15 19:25:10 1510791910.327929: $GPGGA,002509,3946.9653,N,08404.9526,W,1,07,1.40,292.41,M,-33.324,M,,*79
2017-11-15 19:25:10 1510791910.327989: $GPRMC,002509,A,3946.9653,N,08404.9526,W,0.8414,39.347,161117,,*02
2017-11-15 19:25:10 1510791910.328045: $GPGSA,A,3,32,31,16,26,14,22,3,,,,,,3.4,1.4,2.9*0D
2017-11-15 19:25:11 1510791911.329338: $GPZDA,002510.00,16,11,2017,00,00*63
2017-11-15 19:25:11 1510791911.329503: $GPGGA,002510,3946.9656,N,08404.9525,W,1,07,1.40,291.64,M,-33.324,M,,*73
2017-11-15 19:25:11 1510791911.329581: $GPRMC,002510,A,3946.9656,N,08404.9525,W,0.8414,39.347,161117,,*0C
2017-11-15 19:25:11 1510791911.329638: $GPGSA,A,3,32,31,16,26,14,22,3,,,,,,3.4,1.4,2.9*0D
2017-11-15 19:25:12 1510791912.681391: $GPGSV,3,1,12,32,38,105,27,31,70,021,24,16,20,190,14,26,50,174,28*72
2017-11-15 19:25:12 1510791912.681570: $GPGSV,3,2,12,14,57,088,18,25,19,040,00,22,50,274,16,03,38,301,16*70
2017-11-15 19:25:12 1510791912.681681: $GPGSV,3,3,12,29,10,073,00,23,09,300,00,01,07,255,00,120,07,103,00*4D
2017-11-15 19:25:12 1510791912.794695: $GPZDA,002511.00,16,11,2017,00,00*62
2017-11-15 19:25:12 1510791912.794843: $GPGGA,002511,3946.9652,N,08404.9525,W,1,07,1.40,291.00,M,-33.324,M,,*74
2017-11-15 19:25:12 1510791912.794903: $GPRMC,002511,A,3946.9652,N,08404.9525,W,0.7070,48.986,161117,,*01
2017-11-15 19:25:12 1510791912.794958: $GPGSA,A,3,32,31,16,26,14,22,3,,,,,,3.4,1.4,2.9*0D
2017-11-15 19:25:13 1510791913.330580: $GPZDA,002512.00,16,11,2017,00,00*61
2017-11-15 19:25:13 1510791913.330734: $GPGGA,002512,3946.9655,N,08404.9525,W,1,07,1.40,290.24,M,-33.324,M,,*77
2017-11-15 19:25:13 1510791913.330794: $GPRMC,002512,A,3946.9655,N,08404.9525,W,0.8414,39.347,161117,,*0D
2017-11-15 19:25:13 1510791913.330849: $GPGSA,A,3,32,31,16,26,14,22,3,,,,,,3.4,1.4,2.9*0D
2017-11-15 19:25:14 1510791914.346416: $GPZDA,002513.00,16,11,2017,00,00*60
2017-11-15 19:25:14 1510791914.346627: $GPGGA,002513,3946.9655,N,08404.9525,W,1,07,1.40,290.24,M,-33.324,M,,*76
2017-11-15 19:25:14 1510791914.346689: $GPRMC,002513,A,3946.9655,N,08404.9525,W,1.1385,29.379,161117,,*07
2017-11-15 19:25:14 1510791914.346797: $GPGSA,A,3,32,31,16,26,14,22,3,,,,,,3.4,1.4,2.9*0D
