2017-12-14 12:20:35 1513272035.794484: {"class":"VERSION","release":"3.16","rev":"3.16-4","proto_major":3,"proto_minor":11}
2017-12-14 12:20:35 1513272035.794894: {"class":"DEVICES","devices":[{"class":"DEVICE","path":"/dev/ttyUSB0","driver":"SiRF","subtype":"9\u0006GSD4e_4.1.2-P1_RPATCH.05-F-GPS-4R-1510281 11/03/2015 307","activated":"2017-12-14T17:20:35.351Z","flags":1,"native":1,"bps":4800,"parity":"N","stopbits":1,"cycle":1.00}]}
2017-12-14 12:20:35 1513272035.795027: {"class":"WATCH","enable":true,"json":false,"nmea":true,"raw":0,"scaled":false,"timing":false,"split24":false,"pps":false}
2017-12-14 12:20:36 1513272036.640895: $GPRMC,172037,V,18000.0000,N,00000.0000,W,0.0000,0.000,141217,,*11
2017-12-14 12:20:36 1513272036.641066: $GPGSA,A,1,15,20,24,32,21,10,14,18,,,,,,,,*3D
2017-12-14 12:20:37 1513272037.608673: $GPRMC,172038,V,3946.9456,N,08404.9328,W,0.0000,0.000,141217,,*29
2017-12-14 12:20:37 1513272037.608843: $GPGSA,A,1,15,20,24,32,21,10,14,18,,,,,,,,*3D
2017-12-14 12:20:38 1513272038.199677: $GPGSV,3,1,11,10,42,301,05,15,36,052,07,18,72,340,06,20,33,096,06*7C
2017-12-14 12:20:38 1513272038.199833: $GPGSV,3,2,11,24,51,108,08,32,22,238,00,27,19,288,00,13,07,049,00*74
2017-12-14 12:20:38 1513272038.199898: $GPGSV,3,3,11,08,06,321,00,21,61,187,00,14,04,232,00*4F
2017-12-14 12:20:38 1513272038.312186: $GPRMC,172038,V,3946.9419,N,08404.9376,W,1.1584,90.791,141217,,*16
2017-12-14 12:20:38 1513272038.312386: $GPGSA,A,1,10,15,18,20,24,,,,,,,,,,,*3A
2017-12-14 12:20:38 1513272038.864725: $GPRMC,172039,V,3946.9418,N,08404.9366,W,1.0934,159.487,141217,,*21
2017-12-14 12:20:38 1513272038.864896: $GPGSA,A,1,10,15,18,20,24,,,,,,,,,,,*3A
2017-12-14 12:20:39 1513272039.120901: $GPZDA,172039.63,14,12,2017,00,00*6F
2017-12-14 12:20:39 1513272039.121061: $GPGGA,172039,3946.9419,N,08404.9358,W,1,05,1.40,345.95,M,-33.324,M,,*7A
2017-12-14 12:20:39 1513272039.121127: $GPRMC,172039,A,3946.9419,N,08404.9358,W,1.0180,172.011,141217,,*3F
2017-12-14 12:20:39 1513272039.121188: $GPGSA,A,3,10,15,18,20,24,,,,,,,,6.6,1.4,6.2*3B
2017-12-14 12:20:39 1513272039.121244: $GPGBS,172039,24.66,M,21.80,M,143.40,M*3F
2017-12-14 12:20:39 1513272039.884230: $GPGSV,3,1,12,10,42,301,19,15,36,052,24,18,72,340,21,20,33,096,21*73
2017-12-14 12:20:39 1513272039.884449: $GPGSV,3,2,12,24,51,108,26,32,22,238,16,27,19,288,00,13,07,049,00*7C
2017-12-14 12:20:39 1513272039.884536: $GPGSV,3,3,12,08,06,321,00,21,61,187,00,14,04,232,00,138,38,213,00*4D
2017-12-14 12:20:39 1513272039.997579: $GPZDA,172040.00,14,12,2017,00,00*64
2017-12-14 12:20:39 1513272039.997739: $GPGGA,172040,3946.9407,N,08404.9351,W,1,06,1.40,345.52,M,-33.324,M,,*7A
2017-12-14 12:20:39 1513272039.997805: $GPRMC,172040,A,3946.9407,N,08404.9351,W,0.7480,200.892,141217,,*31
2017-12-14 12:20:39 1513272039.997866: $GPGSA,A,3,10,15,18,20,24,32,,,,,,,6.6,1.4,6.2*3A
2017-12-14 12:20:40 1513272040.251455: $GPZDA,172041.00,14,12,2017,00,00*65
2017-12-14 12:20:40 1513272040.251648: $GPGGA,172041,3946.9403,N,08404.9351,W,1,06,1.40,344.88,M,-33.324,M,,*79
2017-12-14 12:20:40 1513272040.251734: $GPRMC,172041,A,3946.9403,N,08404.9351,W,0.7623,163.490,141217,,*37
2017-12-14 12:20:40 1513272040.251797: $GPGSA,A,3,10,15,18,20,24,32,,,,,,,6.6,1.4,6.2*3A
2017-12-14 12:20:41 1513272041.172906: $GPZDA,172042.00,14,12,2017,00,00*66
2017-12-14 12:20:41 1513272041.173074: $GPGGA,172042,3946.9403,N,08404.9351,W,1,06,1.40,344.88,M,-33.324,M,,*7A
2017-12-14 12:20:41 1513272041.173140: $GPRMC,172042,A,3946.9403,N,08404.9351,W,1.0974,115.339,141217,,*3A
2017-12-14 12:20:41 1513272041.173201: $GPGSA,A,3,10,15,18,20,24,32,,,,,,,6.6,1.4,6.2*3A
2017-12-14 12:20:42 1513272042.505383: $GPGSV,3,1,12,10,42,301,20,15,36,052,25,18,72,340,21,20,33,096,21*78
2017-12-14 12:20:42 1513272042.505573: $GPGSV,3,2,12,24,51,108,26,32,22,238,16,21,61,187,18,27,19,288,00*77
2017-12-14 12:20:42 1513272042.505641: $GPGSV,3,3,12,13,07,049,00,08,06,321,00,14,04,232,00,138,38,213,00*4F
2017-12-14 12:20:42 1513272042.618538: $GPZDA,172043.00,14,12,2017,00,00*67
2017-12-14 12:20:42 1513272042.618837: $GPGGA,172043,3946.9402,N,08404.9344,W,1,07,1.40,344.96,M,-33.324,M,,*70
2017-12-14 12:20:42 1513272042.618981: $GPRMC,172043,A,3946.9402,N,08404.9344,W,1.2386,95.199,141217,,*0A
2017-12-14 12:20:42 1513272042.619064: $GPGSA,A,3,10,15,18,20,24,32,21,,,,,,6.6,1.4,6.2*39
2017-12-14 12:20:43 1513272043.168646: $GPZDA,172044.00,14,12,2017,00,00*60
2017-12-14 12:20:43 1513272043.168808: $GPGGA,172044,3946.9402,N,08404.9344,W,1,07,1.40,344.96,M,-33.324,M,,*77
2017-12-14 12:20:43 1513272043.168892: $GPRMC,172044,A,3946.9402,N,08404.9344,W,1.0612,114.353,141217,,*3B
2017-12-14 12:20:43 1513272043.168954: $GPGSA,A,3,10,15,18,20,24,32,21,,,,,,6.6,1.4,6.2*39
2017-12-14 12:20:44 1513272044.169584: $GPZDA,172045.00,14,12,2017,00,00*61
2017-12-14 12:20:44 1513272044.408366: $GPGGA,172045,3946.9398,N,08404.9337,W,1,07,1.40,344.40,M,-33.324,M,,*7D
2017-12-14 12:20:44 1513272044.408507: $GPRMC,172045,A,3946.9398,N,08404.9337,W,1.1391,143.662,141217,,*30
2017-12-14 12:20:44 1513272044.408570: $GPGSA,A,3,10,15,18,20,24,32,21,,,,,,6.6,1.4,6.2*39
2017-12-14 12:20:45 1513272045.504491: $GPGSV,3,1,12,10,42,301,20,15,36,052,25,18,72,340,21,20,33,096,22*7B
2017-12-14 12:20:45 1513272045.504711: $GPGSV,3,2,12,24,51,108,25,32,22,238,16,21,61,187,22,27,19,288,00*7D
2017-12-14 12:20:45 1513272045.504781: $GPGSV,3,3,12,13,07,049,00,08,06,321,00,14,04,232,00,138,38,213,00*4F
2017-12-14 12:20:45 1513272045.618188: $GPZDA,172046.00,14,12,2017,00,00*62
2017-12-14 12:20:45 1513272045.618349: $GPGGA,172046,3946.9394,N,08404.9338,W,1,07,1.40,345.16,M,-33.324,M,,*7F
2017-12-14 12:20:45 1513272045.618414: $GPRMC,172046,A,3946.9394,N,08404.9338,W,0.6831,140.633,141217,,*30
2017-12-14 12:20:45 1513272045.618475: $GPGSA,A,3,10,15,18,20,24,32,21,,,,,,6.6,1.4,6.2*39
2017-12-14 12:20:46 1513272046.169488: $GPZDA,172047.00,14,12,2017,00,00*63
2017-12-14 12:20:46 1513272046.169650: $GPGGA,172047,3946.9394,N,08404.9338,W,1,07,1.40,345.16,M,-33.324,M,,*7E
2017-12-14 12:20:46 1513272046.169717: $GPRMC,172047,A,3946.9394,N,08404.9338,W,0.4949,112.165,141217,,*3E
2017-12-14 12:20:46 1513272046.169777: $GPGSA,A,3,10,15,18,20,24,32,21,,,,,,6.6,1.4,6.2*39
2017-12-14 12:20:47 1513272047.168360: $GPZDA,172048.00,14,12,2017,00,00*6C
2017-12-14 12:20:47 1513272047.168520: $GPGGA,172048,3946.9394,N,08404.9338,W,1,07,1.40,345.16,M,-33.324,M,,*71
2017-12-14 12:20:47 1513272047.168585: $GPRMC,172048,A,3946.9394,N,08404.9338,W,0.5516,128.233,141217,,*3F
2017-12-14 12:20:47 1513272047.168645: $GPGSA,A,3,10,15,18,20,24,32,21,,,,,,6.6,1.4,6.2*39
2017-12-14 12:20:48 1513272048.504301: $GPGSV,3,1,12,10,42,301,21,15,36,052,25,18,72,340,21,20,33,096,22*7A
2017-12-14 12:20:48 1513272048.507946: $GPGSV,3,2,12,24,51,108,25,32,22,238,16,21,61,187,23,27,19,288,00*7C
2017-12-14 12:20:48 1513272048.508062: $GPGSV,3,3,12,13,07,049,00,08,06,321,00,14,04,232,00,138,38,213,00*4F
2017-12-14 12:20:48 1513272048.617826: $GPZDA,172049.00,14,12,2017,00,00*6D
2017-12-14 12:20:48 1513272048.617981: $GPGGA,172049,3946.9398,N,08404.9338,W,1,07,1.40,345.80,M,-33.324,M,,*73
2017-12-14 12:20:48 1513272048.618048: $GPRMC,172049,A,3946.9398,N,08404.9338,W,0.0407,322.012,141217,,*3F
2017-12-14 12:20:48 1513272048.618109: $GPGSA,A,3,10,15,18,20,24,32,21,,,,,,6.6,1.4,6.2*39
2017-12-14 12:20:49 1513272049.168871: $GPZDA,172050.00,14,12,2017,00,00*65
2017-12-14 12:20:49 1513272049.169035: $GPGGA,172050,3946.9398,N,08404.9338,W,1,07,1.40,345.80,M,-33.324,M,,*7B
2017-12-14 12:20:49 1513272049.169101: $GPRMC,172050,A,3946.9398,N,08404.9338,W,0.5951,58.685,141217,,*0A
2017-12-14 12:20:49 1513272049.169162: $GPGSA,A,3,10,15,18,20,24,32,21,,,,,,6.6,1.4,6.2*39
2017-12-14 12:20:50 1513272050.167494: $GPZDA,172051.00,14,12,2017,00,00*64
2017-12-14 12:20:50 1513272050.167658: $GPGGA,172051,3946.9398,N,08404.9338,W,1,07,1.40,345.80,M,-33.324,M,,*7A
2017-12-14 12:20:50 1513272050.167723: $GPRMC,172051,A,3946.9398,N,08404.9338,W,0.7070,48.987,141217,,*0F
2017-12-14 12:20:50 1513272050.167784: $GPGSA,A,3,10,15,18,20,24,32,21,,,,,,6.6,1.4,6.2*39
2017-12-14 12:20:51 1513272051.503658: $GPGSV,3,1,12,10,42,301,22,15,36,052,25,18,72,340,22,20,33,096,22*7A
2017-12-14 12:20:51 1513272051.503843: $GPGSV,3,2,12,24,51,108,25,32,22,238,16,21,61,187,23,27,19,288,00*7C
2017-12-14 12:20:51 1513272051.503911: $GPGSV,3,3,12,13,07,049,00,08,06,321,00,14,04,232,00,138,38,213,00*4F
2017-12-14 12:20:51 1513272051.617006: $GPZDA,172052.00,14,12,2017,00,00*67
2017-12-14 12:20:51 1513272051.617149: $GPGGA,172052,3946.9398,N,08404.9331,W,1,07,1.40,345.88,M,-33.324,M,,*78
2017-12-14 12:20:51 1513272051.617216: $GPRMC,172052,A,3946.9398,N,08404.9331,W,0.4844,93.795,141217,,*02
2017-12-14 12:20:51 1513272051.617276: $GPGSA,A,3,10,15,18,20,24,32,21,,,,,,6.6,1.4,6.2*39
2017-12-14 12:20:52 1513272052.169681: $GPZDA,172053.00,14,12,2017,00,00*66
2017-12-14 12:20:52 1513272052.169858: $GPGGA,172053,3946.9395,N,08404.9332,W,1,07,1.40,346.64,M,-33.324,M,,*76
2017-12-14 12:20:52 1513272052.169924: $GPRMC,172053,A,3946.9395,N,08404.9332,W,0.3775,149.506,141217,,*39
2017-12-14 12:20:52 1513272052.169985: $GPGSA,A,3,10,15,18,20,24,32,21,,,,,,6.6,1.4,6.2*39
2017-12-14 12:20:53 1513272053.168543: $GPZDA,172054.00,14,12,2017,00,00*61
2017-12-14 12:20:53 1513272053.168736: $GPGGA,172054,3946.9395,N,08404.9332,W,1,07,1.40,346.64,M,-33.324,M,,*71
2017-12-14 12:20:53 1513272053.168802: $GPRMC,172054,A,3946.9395,N,08404.9332,W,0.3735,0.000,141217,,*35
2017-12-14 12:20:53 1513272053.168862: $GPGSA,A,3,10,15,18,20,24,32,21,,,,,,6.6,1.4,6.2*39
2017-12-14 12:20:54 1513272054.504139: $GPGSV,3,1,12,10,42,301,22,15,36,052,25,18,72,340,22,20,33,096,22*7A
2017-12-14 12:20:54 1513272054.504310: $GPGSV,3,2,12,24,51,108,25,32,22,238,17,21,61,187,23,27,19,288,00*7D
2017-12-14 12:20:54 1513272054.504376: $GPGSV,3,3,12,13,07,049,00,08,06,321,00,14,04,232,00,138,38,213,00*4F
2017-12-14 12:20:54 1513272054.617553: $GPZDA,172055.00,14,12,2017,00,00*60
2017-12-14 12:20:54 1513272054.617721: $GPGGA,172055,3946.9395,N,08404.9332,W,1,07,1.40,346.64,M,-33.324,M,,*70
2017-12-14 12:20:54 1513272054.617786: $GPRMC,172055,A,3946.9395,N,08404.9332,W,0.2202,353.468,141217,,*3B
2017-12-14 12:20:54 1513272054.617847: $GPGSA,A,3,10,15,18,20,24,32,21,,,,,,6.6,1.4,6.2*39
2017-12-14 12:20:55 1513272055.169039: $GPZDA,172056.00,14,12,2017,00,00*63
2017-12-14 12:20:55 1513272055.169200: $GPGGA,172056,3946.9396,N,08404.9340,W,1,07,1.40,347.97,M,-33.324,M,,*78
2017-12-14 12:20:55 1513272055.169266: $GPRMC,172056,A,3946.9396,N,08404.9340,W,0.6248,337.245,141217,,*3F
2017-12-14 12:20:55 1513272055.169326: $GPGSA,A,3,10,15,18,20,24,32,21,,,,,,6.6,1.4,6.2*39
