2017-11-15 19:00:04 1510790404.794084: {"class":"VERSION","release":"3.17","rev":"3.17","proto_major":3,"proto_minor":12}
2017-11-15 19:00:04 1510790404.794564: {"class":"DEVICES","devices":[{"class":"DEVICE","path":"/dev/ttyUSB0","driver":"SiRF","subtype":"9\u0006GSD4e_4.1.2-P1_RPATCH.05-F-GPS-4R-1510281 11/03/2015 307","activated":"2017-11-16T00:00:04.468Z","flags":1,"native":1,"bps":4800,"parity":"N","stopbits":1,"cycle":1.00}]}
2017-11-15 19:00:04 1510790404.794694: {"class":"WATCH","enable":true,"json":false,"nmea":true,"raw":0,"scaled":false,"timing":false,"split24":false,"pps":false}
2017-11-15 19:00:05 1510790405.327544: $GPZDA,000004.00,16,11,2017,00,00*61
2017-11-15 19:00:05 1510790405.327712: $GPGGA,000004,3946.9631,N,08404.9577,W,1,10,9.40,305.07,M,-33.324,M,,*70
2017-11-15 19:00:05 1510790405.327772: $GPRMC,000004,A,3946.9631,N,08404.9577,W,0.9066,129.458,161117,,*31
2017-11-15 19:00:05 1510790405.327829: $GPGSA,A,3,16,14,3,32,31,26,22,25,29,1,,,3.4,9.4,2.9*38
2017-11-15 19:00:06 1510790406.662881: $GPGSV,3,1,12,16,09,190,15,14,63,070,12,03,31,310,16,32,46,094,22*74
2017-11-15 19:00:06 1510790406.663054: $GPGSV,3,2,12,31,77,349,25,26,38,177,20,22,47,289,22,25,27,046,04*78
2017-11-15 19:00:06 1510790406.663112: $GPGSV,3,3,12,29,05,082,17,10,09,159,00,01,13,262,13,135,23,238,00*45
2017-11-15 19:00:06 1510790406.776526: $GPZDA,000005.00,16,11,2017,00,00*60
2017-11-15 19:00:06 1510790406.776798: $GPGGA,000005,3946.9627,N,08404.9571,W,1,09,9.40,305.91,M,-33.324,M,,*77
2017-11-15 19:00:06 1510790406.776873: $GPRMC,000005,A,3946.9627,N,08404.9571,W,1.1391,143.662,161117,,*34
2017-11-15 19:00:06 1510790406.776930: $GPGSA,A,3,16,14,3,32,31,26,22,29,1,,,,3.4,9.4,2.9*3F
2017-11-15 19:00:07 1510790407.328236: $GPZDA,000006.00,16,11,2017,00,00*63
2017-11-15 19:00:07 1510790407.328406: $GPGGA,000006,3946.9627,N,08404.9571,W,1,09,9.40,305.91,M,-33.324,M,,*74
2017-11-15 19:00:07 1510790407.328468: $GPRMC,000006,A,3946.9627,N,08404.9571,W,0.9060,167.792,161117,,*3B
2017-11-15 19:00:07 1510790407.328524: $GPGSA,A,3,16,14,3,32,31,26,22,29,1,,,,3.4,9.4,2.9*3F
2017-11-15 19:00:08 1510790408.326601: $GPZDA,000007.00,16,11,2017,00,00*62
2017-11-15 19:00:08 1510790408.326805: $GPGGA,000007,3946.9620,N,08404.9572,W,1,09,9.40,306.04,M,-33.324,M,,*7E
2017-11-15 19:00:08 1510790408.326868: $GPRMC,000007,A,3946.9620,N,08404.9572,W,1.0002,154.331,161117,,*3F
2017-11-15 19:00:08 1510790408.326924: $GPGSA,A,3,16,14,3,32,31,26,22,29,1,,,,3.4,9.4,2.9*3F
2017-11-15 19:00:09 1510790409.663705: $GPGSV,3,1,12,16,09,190,14,14,63,070,12,03,31,310,16,32,46,094,22*75
2017-11-15 19:00:09 1510790409.663881: $GPGSV,3,2,12,31,77,349,25,26,38,177,20,22,47,289,23,25,27,046,11*7D
2017-11-15 19:00:09 1510790409.663941: $GPGSV,3,3,12,29,05,082,17,10,09,159,00,01,13,262,13,135,23,238,00*45
2017-11-15 19:00:09 1510790409.777000: $GPZDA,000008.00,16,11,2017,00,00*6D
2017-11-15 19:00:09 1510790409.777151: $GPGGA,000008,3946.9619,N,08404.9565,W,1,10,2.80,306.12,M,-33.324,M,,*75
2017-11-15 19:00:09 1510790409.777209: $GPRMC,000008,A,3946.9619,N,08404.9565,W,1.1391,143.662,161117,,*31
2017-11-15 19:00:09 1510790409.777264: $GPGSA,A,3,16,14,3,32,31,26,22,25,29,1,,,3.4,2.8,2.9*3F
2017-11-15 19:00:10 1510790410.327925: $GPZDA,000009.00,16,11,2017,00,00*6C
2017-11-15 19:00:10 1510790410.328094: $GPGGA,000009,3946.9612,N,08404.9565,W,1,10,2.80,306.24,M,-33.324,M,,*7A
2017-11-15 19:00:10 1510790410.328156: $GPRMC,000009,A,3946.9612,N,08404.9565,W,1.3082,161.818,161117,,*3B
2017-11-15 19:00:10 1510790410.328211: $GPGSA,A,3,16,14,3,32,31,26,22,25,29,1,,,3.4,2.8,2.9*3F
2017-11-15 19:00:11 1510790411.327169: $GPZDA,000010.00,16,11,2017,00,00*64
2017-11-15 19:00:11 1510790411.327345: $GPGGA,000010,3946.9607,N,08404.9565,W,1,10,2.80,305.60,M,-33.324,M,,*75
2017-11-15 19:00:11 1510790411.327406: $GPRMC,000010,A,3946.9607,N,08404.9565,W,1.5746,174.845,161117,,*32
2017-11-15 19:00:11 1510790411.327463: $GPGSA,A,3,16,14,3,32,31,26,22,25,29,1,,,3.4,2.8,2.9*3F
2017-11-15 19:00:12 1510790412.662877: $GPGSV,3,1,12,16,09,190,14,14,63,070,13,03,31,310,16,32,46,094,21*77
2017-11-15 19:00:12 1510790412.663131: $GPGSV,3,2,12,31,77,349,25,26,38,177,20,22,47,289,23,25,27,046,11*7D
2017-11-15 19:00:12 1510790412.663194: $GPGSV,3,3,12,29,05,082,16,10,09,159,00,01,13,262,13,135,23,238,00*44
2017-11-15 19:00:12 1510790412.776098: $GPZDA,000011.00,16,11,2017,00,00*65
2017-11-15 19:00:12 1510790412.776260: $GPGGA,000011,3946.9600,N,08404.9566,W,1,10,2.80,305.73,M,-33.324,M,,*72
2017-11-15 19:00:12 1510790412.776321: $GPRMC,000011,A,3946.9600,N,08404.9566,W,2.1425,170.378,161117,,*37
2017-11-15 19:00:12 1510790412.776376: $GPGSA,A,3,16,14,3,32,31,26,22,25,29,1,,,3.4,2.8,2.9*3F
2017-11-15 19:00:13 1510790413.328399: $GPZDA,000012.00,16,11,2017,00,00*66
2017-11-15 19:00:13 1510790413.328586: $GPGGA,000012,3946.9584,N,08404.9561,W,1,10,2.80,306.05,M,-33.324,M,,*7B
2017-11-15 19:00:13 1510790413.328650: $GPRMC,000012,A,3946.9584,N,08404.9561,W,2.8644,168.936,161117,,*39
2017-11-15 19:00:13 1510790413.328706: $GPGSA,A,3,16,14,3,32,31,26,22,25,29,1,,,3.4,2.8,2.9*3F
2017-11-15 19:00:14 1510790414.329535: $GPZDA,000013.00,16,11,2017,00,00*67
2017-11-15 19:00:14 1510790414.329710: $GPGGA,000013,3946.9577,N,08404.9561,W,1,10,2.80,306.18,M,-33.324,M,,*7A
2017-11-15 19:00:14 1510790414.329772: $GPRMC,000013,A,3946.9577,N,08404.9561,W,2.8644,168.936,161117,,*34
2017-11-15 19:00:14 1510790414.329828: $GPGSA,A,3,16,14,3,32,31,26,22,25,29,1,,,3.4,2.8,2.9*3F
