2017-12-01 12:11:37 1512148297.686958: {"class":"VERSION","release":"3.16","rev":"3.16-4","proto_major":3,"proto_minor":11}
2017-12-01 12:11:37 1512148297.687356: {"class":"DEVICES","devices":[{"class":"DEVICE","path":"/dev/ttyUSB0","driver":"SiRF","subtype":"9\u0006GSD4e_4.1.2-P1_RPATCH.05-F-GPS-4R-1510281 11/03/2015 307","activated":"2017-12-01T17:11:37.488Z","flags":1,"native":1,"bps":4800,"parity":"N","stopbits":1,"cycle":1.00}]}
2017-12-01 12:11:37 1512148297.687472: {"class":"WATCH","enable":true,"json":false,"nmea":true,"raw":0,"scaled":false,"timing":false,"split24":false,"pps":false}
2017-12-01 12:11:38 1512148298.344853: $GPZDA,171139.00,01,12,2017,00,00*6C
2017-12-01 12:11:38 1512148298.345057: $GPGGA,171139,3946.9592,N,08404.9850,W,2,10,0.80,296.47,M,-33.324,M,,*73
2017-12-01 12:11:38 1512148298.345128: $GPRMC,171139,A,3946.9592,N,08404.9850,W,0.0000,0.000,011217,,*34
2017-12-01 12:11:38 1512148298.345192: $GPGSA,A,3,10,13,15,18,20,21,24,27,29,138,,,2.0,0.8,1.5*01
2017-12-01 12:11:39 1512148299.683024: $GPGSV,3,1,12,10,22,280,39,13,31,045,44,15,63,052,44,18,52,297,45*7D
2017-12-01 12:11:39 1512148299.683208: $GPGSV,3,2,12,20,53,069,47,21,77,279,43,24,31,141,44,27,15,315,33*7D
2017-12-01 12:11:39 1512148299.683276: $GPGSV,3,3,12,29,12,190,32,05,05,085,00,04,02,135,00,138,38,213,46*44
2017-12-01 12:11:39 1512148299.796504: $GPZDA,171140.00,01,12,2017,00,00*62
2017-12-01 12:11:39 1512148299.796707: $GPGGA,171140,3946.9592,N,08404.9850,W,2,10,0.80,296.47,M,-33.324,M,,*7D
2017-12-01 12:11:39 1512148299.796778: $GPRMC,171140,A,3946.9592,N,08404.9850,W,0.0000,0.000,011217,,*3A
2017-12-01 12:11:39 1512148299.796838: $GPGSA,A,3,10,13,15,18,20,21,24,27,29,138,,,2.0,0.8,1.5*01
2017-12-01 12:11:40 1512148300.348511: $GPZDA,171141.00,01,12,2017,00,00*63
2017-12-01 12:11:40 1512148300.348694: $GPGGA,171141,3946.9592,N,08404.9850,W,2,10,0.80,296.47,M,-33.324,M,,*7C
2017-12-01 12:11:40 1512148300.348766: $GPRMC,171141,A,3946.9592,N,08404.9850,W,0.0000,0.000,011217,,*3B
2017-12-01 12:11:40 1512148300.348827: $GPGSA,A,3,10,13,15,18,20,21,24,27,29,138,,,2.0,0.8,1.5*01
2017-12-01 12:11:41 1512148301.346334: $GPZDA,171142.00,01,12,2017,00,00*60
2017-12-01 12:11:41 1512148301.346528: $GPGGA,171142,3946.9592,N,08404.9850,W,2,10,0.80,296.47,M,-33.324,M,,*7F
2017-12-01 12:11:41 1512148301.346597: $GPRMC,171142,A,3946.9592,N,08404.9850,W,0.0000,0.000,011217,,*38
2017-12-01 12:11:41 1512148301.346662: $GPGSA,A,3,10,13,15,18,20,21,24,27,29,138,,,2.0,0.8,1.5*01
2017-12-01 12:11:42 1512148302.682107: $GPGSV,3,1,12,10,22,280,39,13,31,045,44,15,63,052,44,18,52,297,45*7D
2017-12-01 12:11:42 1512148302.682275: $GPGSV,3,2,12,20,53,069,46,21,77,279,43,24,31,141,44,27,15,315,33*7C
2017-12-01 12:11:42 1512148302.682342: $GPGSV,3,3,12,29,12,190,32,05,05,085,12,04,02,135,06,138,38,213,46*41
2017-12-01 12:11:42 1512148302.796028: $GPZDA,171143.00,01,12,2017,00,00*61
2017-12-01 12:11:42 1512148302.796230: $GPGGA,171143,3946.9592,N,08404.9850,W,2,10,0.80,296.47,M,-33.324,M,,*7E
2017-12-01 12:11:42 1512148302.796301: $GPRMC,171143,A,3946.9592,N,08404.9850,W,0.0000,0.000,011217,,*39
2017-12-01 12:11:42 1512148302.796364: $GPGSA,A,3,10,13,15,18,20,21,24,27,29,138,,,2.0,0.8,1.5*01
2017-12-01 12:11:43 1512148303.346407: $GPZDA,171144.00,01,12,2017,00,00*66
2017-12-01 12:11:43 1512148303.346577: $GPGGA,171144,3946.9592,N,08404.9850,W,2,10,0.80,296.47,M,-33.324,M,,*79
2017-12-01 12:11:43 1512148303.346664: $GPRMC,171144,A,3946.9592,N,08404.9850,W,0.0000,0.000,011217,,*3E
2017-12-01 12:11:43 1512148303.346727: $GPGSA,A,3,10,13,15,18,20,21,24,27,29,138,,,2.0,0.8,1.5*01
2017-12-01 12:11:44 1512148304.352735: $GPZDA,171145.00,01,12,2017,00,00*67
2017-12-01 12:11:44 1512148304.352922: $GPGGA,171145,3946.9592,N,08404.9850,W,2,10,0.80,296.47,M,-33.324,M,,*78
2017-12-01 12:11:44 1512148304.352990: $GPRMC,171145,A,3946.9592,N,08404.9850,W,0.0000,0.000,011217,,*3F
2017-12-01 12:11:44 1512148304.353050: $GPGSA,A,3,10,13,15,18,20,21,24,27,29,138,,,2.0,0.8,1.5*01
2017-12-01 12:11:45 1512148305.682955: $GPGSV,3,1,12,10,22,280,39,13,31,045,44,15,63,052,44,18,52,297,45*7D
2017-12-01 12:11:45 1512148305.683184: $GPGSV,3,2,12,20,53,069,47,21,77,279,43,24,31,141,44,27,15,315,35*7B
2017-12-01 12:11:45 1512148305.683251: $GPGSV,3,3,12,29,12,190,32,05,05,085,13,04,02,135,00,138,38,213,47*47
2017-12-01 12:11:45 1512148305.796370: $GPZDA,171146.00,01,12,2017,00,00*64
2017-12-01 12:11:45 1512148305.796539: $GPGGA,171146,3946.9592,N,08404.9850,W,2,11,0.80,296.47,M,-33.324,M,,*7A
2017-12-01 12:11:45 1512148305.796627: $GPRMC,171146,A,3946.9592,N,08404.9850,W,0.0000,0.000,011217,,*3C
2017-12-01 12:11:45 1512148305.796690: $GPGSA,A,3,10,13,15,18,20,21,24,27,29,5,138,,2.0,0.8,1.5*34
2017-12-01 12:11:46 1512148306.421922: $GPZDA,171147.00,01,12,2017,00,00*65
2017-12-01 12:11:46 1512148306.422102: $GPGGA,171147,3946.9592,N,08404.9850,W,2,11,0.80,296.47,M,-33.324,M,,*7B
2017-12-01 12:11:46 1512148306.422170: $GPRMC,171147,A,3946.9592,N,08404.9850,W,0.0000,0.000,011217,,*3D
2017-12-01 12:11:46 1512148306.422231: $GPGSA,A,3,10,13,15,18,20,21,24,27,29,5,138,,2.0,0.8,1.5*34
2017-12-01 12:11:47 1512148307.347744: $GPZDA,171148.00,01,12,2017,00,00*6A
2017-12-01 12:11:47 1512148307.347941: $GPGGA,171148,3946.9592,N,08404.9850,W,2,11,0.80,296.47,M,-33.324,M,,*74
2017-12-01 12:11:47 1512148307.348035: $GPRMC,171148,A,3946.9592,N,08404.9850,W,0.0000,0.000,011217,,*32
2017-12-01 12:11:47 1512148307.348102: $GPGSA,A,3,10,13,15,18,20,21,24,27,29,5,138,,2.0,0.8,1.5*34
