2018-01-11 20:15:25 1515719725.411997: {"class":"VERSION","release":"3.16","rev":"3.16-4","proto_major":3,"proto_minor":11}
2018-01-11 20:15:25 1515719725.412399: {"class":"DEVICES","devices":[{"class":"DEVICE","path":"/dev/ttyUSB0","driver":"SiRF","subtype":"9\u0006GSD4e_4.1.2-P1_RPATCH.05-F-GPS-4R-1510281 11/03/2015 307","activated":"2018-01-12T01:15:25.388Z","flags":1,"native":1,"bps":4800,"parity":"N","stopbits":1,"cycle":1.00}]}
2018-01-11 20:15:25 1515719725.412511: {"class":"WATCH","enable":true,"json":false,"nmea":true,"raw":0,"scaled":false,"timing":false,"split24":false,"pps":false}
2018-01-11 20:15:26 1515719726.684163: $GPGSV,3,1,10,07,57,315,41,08,74,124,45,09,46,228,41,11,21,166,45*75
2018-01-11 20:15:26 1515719726.684338: $GPGSV,3,2,10,16,22,061,43,23,27,189,48,27,46,052,50,28,15,259,30*70
2018-01-11 20:15:26 1515719726.684405: $GPGSV,3,3,10,30,30,306,36,138,38,213,45*48
2018-01-11 20:15:26 1515719726.797788: $GPZDA,011527.00,12,01,2018,00,00*6F
2018-01-11 20:15:26 1515719726.797922: $GPGGA,011527,3946.9600,N,08404.9863,W,2,10,0.80,294.78,M,-33.324,M,,*79
2018-01-11 20:15:26 1515719726.797988: $GPRMC,011527,A,3946.9600,N,08404.9863,W,0.0000,0.000,120118,,*3F
2018-01-11 20:15:26 1515719726.798051: $GPGSA,A,3,7,8,9,11,16,23,27,28,30,138,,,4.0,0.8,3.5*3E
2018-01-11 20:15:27 1515719727.423507: $GPZDA,011528.00,12,01,2018,00,00*60
2018-01-11 20:15:27 1515719727.423677: $GPGGA,011528,3946.9600,N,08404.9863,W,2,10,0.80,294.78,M,-33.324,M,,*76
2018-01-11 20:15:27 1515719727.423746: $GPRMC,011528,A,3946.9600,N,08404.9863,W,0.0000,0.000,120118,,*30
2018-01-11 20:15:27 1515719727.423807: $GPGSA,A,3,7,8,9,11,16,23,27,28,30,138,,,4.0,0.8,3.5*3E
2018-01-11 20:15:28 1515719728.348873: $GPZDA,011529.00,12,01,2018,00,00*61
2018-01-11 20:15:28 1515719728.349091: $GPGGA,011529,3946.9600,N,08404.9863,W,2,10,0.80,294.78,M,-33.324,M,,*77
2018-01-11 20:15:28 1515719728.349168: $GPRMC,011529,A,3946.9600,N,08404.9863,W,0.0000,0.000,120118,,*31
2018-01-11 20:15:28 1515719728.349231: $GPGSA,A,3,7,8,9,11,16,23,27,28,30,138,,,4.0,0.8,3.5*3E
2018-01-11 20:15:29 1515719729.702050: $GPGSV,3,1,10,07,57,315,42,08,74,124,46,09,46,228,41,11,21,166,45*75
2018-01-11 20:15:29 1515719729.702235: $GPGSV,3,2,10,16,22,061,44,23,27,189,48,27,46,052,49,28,15,259,30*7F
2018-01-11 20:15:29 1515719729.702303: $GPGSV,3,3,10,30,30,306,36,138,38,213,45*48
2018-01-11 20:15:29 1515719729.815775: $GPZDA,011530.00,12,01,2018,00,00*69
2018-01-11 20:15:29 1515719729.815913: $GPGGA,011530,3946.9600,N,08404.9863,W,2,10,0.80,294.78,M,-33.324,M,,*7F
2018-01-11 20:15:29 1515719729.815983: $GPRMC,011530,A,3946.9600,N,08404.9863,W,0.0000,0.000,120118,,*39
2018-01-11 20:15:29 1515719729.816043: $GPGSA,A,3,7,8,9,11,16,23,27,28,30,138,,,4.0,0.8,3.5*3E
2018-01-11 20:15:30 1515719730.365371: $GPZDA,011531.00,12,01,2018,00,00*68
2018-01-11 20:15:30 1515719730.365528: $GPGGA,011531,3946.9600,N,08404.9863,W,2,10,0.80,294.78,M,-33.324,M,,*7E
2018-01-11 20:15:30 1515719730.365594: $GPRMC,011531,A,3946.9600,N,08404.9863,W,0.0000,0.000,120118,,*38
2018-01-11 20:15:30 1515719730.365671: $GPGSA,A,3,7,8,9,11,16,23,27,28,30,138,,,4.0,0.8,3.5*3E
2018-01-11 20:15:31 1515719731.351058: $GPZDA,011532.00,12,01,2018,00,00*6B
2018-01-11 20:15:31 1515719731.351232: $GPGGA,011532,3946.9600,N,08404.9863,W,2,10,0.80,294.78,M,-33.324,M,,*7D
2018-01-11 20:15:31 1515719731.351298: $GPRMC,011532,A,3946.9600,N,08404.9863,W,0.0000,0.000,120118,,*3B
2018-01-11 20:15:31 1515719731.351361: $GPGSA,A,3,7,8,9,11,16,23,27,28,30,138,,,4.0,0.8,3.5*3E
2018-01-11 20:15:32 1515719732.701155: $GPGSV,3,1,10,07,57,315,42,08,74,124,46,09,46,228,41,11,21,166,46*76
2018-01-11 20:15:32 1515719732.701353: $GPGSV,3,2,10,16,22,061,44,23,27,189,48,27,46,052,50,28,15,259,25*73
2018-01-11 20:15:32 1515719732.701422: $GPGSV,3,3,10,30,30,306,35,138,38,213,44*4A
2018-01-11 20:15:32 1515719732.814821: $GPZDA,011533.00,12,01,2018,00,00*6A
2018-01-11 20:15:32 1515719732.814984: $GPGGA,011533,3946.9600,N,08404.9863,W,2,10,0.80,294.78,M,-33.324,M,,*7C
2018-01-11 20:15:32 1515719732.815054: $GPRMC,011533,A,3946.9600,N,08404.9863,W,0.0000,0.000,120118,,*3A
2018-01-11 20:15:32 1515719732.815162: $GPGSA,A,3,7,8,9,11,16,23,27,28,30,138,,,4.0,0.8,3.5*3E
2018-01-11 20:15:33 1515719733.349547: $GPZDA,011534.00,12,01,2018,00,00*6D
2018-01-11 20:15:33 1515719733.349697: $GPGGA,011534,3946.9600,N,08404.9863,W,2,10,0.80,294.78,M,-33.324,M,,*7B
2018-01-11 20:15:33 1515719733.349763: $GPRMC,011534,A,3946.9600,N,08404.9863,W,0.0000,0.000,120118,,*3D
2018-01-11 20:15:33 1515719733.349825: $GPGSA,A,3,7,8,9,11,16,23,27,28,30,138,,,4.0,0.8,3.5*3E
2018-01-11 20:15:34 1515719734.363988: $GPZDA,011535.00,12,01,2018,00,00*6C
2018-01-11 20:15:34 1515719734.364160: $GPGGA,011535,3946.9600,N,08404.9863,W,2,10,0.80,294.78,M,-33.324,M,,*7A
2018-01-11 20:15:34 1515719734.364227: $GPRMC,011535,A,3946.9600,N,08404.9863,W,0.0000,0.000,120118,,*3C
2018-01-11 20:15:34 1515719734.364288: $GPGSA,A,3,7,8,9,11,16,23,27,28,30,138,,,4.0,0.8,3.5*3E
2018-01-11 20:15:35 1515719735.703306: $GPGSV,3,1,10,07,57,315,42,08,74,124,46,09,46,228,41,11,21,166,46*76
2018-01-11 20:15:35 1515719735.703484: $GPGSV,3,2,10,16,22,061,44,23,27,189,48,27,46,052,50,28,15,259,29*7F
2018-01-11 20:15:35 1515719735.703551: $GPGSV,3,3,10,30,30,306,35,138,38,213,45*4B
2018-01-11 20:15:35 1515719735.817001: $GPZDA,011536.00,12,01,2018,00,00*6F
2018-01-11 20:15:35 1515719735.817170: $GPGGA,011536,3946.9600,N,08404.9863,W,2,10,0.80,294.78,M,-33.324,M,,*79
2018-01-11 20:15:35 1515719735.817235: $GPRMC,011536,A,3946.9600,N,08404.9863,W,0.0000,0.000,120118,,*3F
2018-01-11 20:15:35 1515719735.817296: $GPGSA,A,3,7,8,9,11,16,23,27,28,30,138,,,4.0,0.8,3.5*3E
2018-01-11 20:15:36 1515719736.365412: $GPZDA,011537.00,12,01,2018,00,00*6E
2018-01-11 20:15:36 1515719736.365579: $GPGGA,011537,3946.9600,N,08404.9863,W,2,10,0.80,294.78,M,-33.324,M,,*78
2018-01-11 20:15:36 1515719736.365645: $GPRMC,011537,A,3946.9600,N,08404.9863,W,0.0000,0.000,120118,,*3E
2018-01-11 20:15:36 1515719736.365706: $GPGSA,A,3,7,8,9,11,16,23,27,28,30,138,,,4.0,0.8,3.5*3E
2018-01-11 20:15:37 1515719737.366637: $GPZDA,011538.00,12,01,2018,00,00*61
2018-01-11 20:15:37 1515719737.366816: $GPGGA,011538,3946.9600,N,08404.9863,W,2,10,0.80,294.78,M,-33.324,M,,*77
2018-01-11 20:15:37 1515719737.366902: $GPRMC,011538,A,3946.9600,N,08404.9863,W,0.0000,0.000,120118,,*31
2018-01-11 20:15:37 1515719737.366982: $GPGSA,A,3,7,8,9,11,16,23,27,28,30,138,,,4.0,0.8,3.5*3E
