2017-11-16 17:26:29 1510871189.140810: {"class":"VERSION","release":"3.17","rev":"3.17","proto_major":3,"proto_minor":12}
2017-11-16 17:26:29 1510871189.141233: {"class":"DEVICES","devices":[{"class":"DEVICE","path":"/dev/ttyUSB0","driver":"SiRF","subtype":"9\u0006GSD4e_4.1.2-P1_RPATCH.05-F-GPS-4R-1510281 11/03/2015 307","activated":"2017-11-16T22:26:28.537Z","flags":1,"native":1,"bps":4800,"parity":"N","stopbits":1,"cycle":1.00}]}
2017-11-16 17:26:29 1510871189.141341: {"class":"WATCH","enable":true,"json":false,"nmea":true,"raw":0,"scaled":false,"timing":false,"split24":false,"pps":false}
2017-11-16 17:26:29 1510871189.401467: $GPZDA,222628.00,16,11,2017,00,00*6B
2017-11-16 17:26:29 1510871189.401621: $GPGGA,222628,3946.9573,N,08404.9837,W,2,11,0.80,306.91,M,-33.324,M,,*7D
2017-11-16 17:26:29 1510871189.401682: $GPRMC,222628,A,3946.9573,N,08404.9837,W,0.0000,0.000,161117,,*3D
2017-11-16 17:26:29 1510871189.401738: $GPGSA,A,3,1,10,22,12,14,18,11,25,31,32,138,,1.6,0.8,1.3*3E
2017-11-16 17:26:30 1510871190.738199: $GPGSV,3,1,11,01,21,304,38,10,51,147,49,22,16,312,41,12,23,052,50*7D
2017-11-16 17:26:30 1510871190.738366: $GPGSV,3,2,11,14,65,321,47,18,21,142,30,11,09,285,40,25,39,094,47*72
2017-11-16 17:26:30 1510871190.738426: $GPGSV,3,3,11,31,52,222,48,32,69,018,49,138,38,213,44*79
2017-11-16 17:26:30 1510871190.851825: $GPZDA,222629.00,16,11,2017,00,00*6A
2017-11-16 17:26:30 1510871190.851983: $GPGGA,222629,3946.9573,N,08404.9837,W,2,11,0.80,306.91,M,-33.324,M,,*7C
2017-11-16 17:26:30 1510871190.852043: $GPRMC,222629,A,3946.9573,N,08404.9837,W,0.0000,0.000,161117,,*3C
2017-11-16 17:26:30 1510871190.852099: $GPGSA,A,3,1,10,22,12,14,18,11,25,31,32,138,,1.6,0.8,1.3*3E
2017-11-16 17:26:31 1510871191.476847: $GPZDA,222630.00,16,11,2017,00,00*62
2017-11-16 17:26:31 1510871191.477017: $GPGGA,222630,3946.9573,N,08404.9837,W,2,11,0.80,306.91,M,-33.324,M,,*74
2017-11-16 17:26:31 1510871191.477078: $GPRMC,222630,A,3946.9573,N,08404.9837,W,0.0000,0.000,161117,,*34
2017-11-16 17:26:31 1510871191.477134: $GPGSA,A,3,1,10,22,12,14,18,11,25,31,32,138,,1.6,0.8,1.3*3E
2017-11-16 17:26:32 1510871192.401452: $GPZDA,222631.00,16,11,2017,00,00*63
2017-11-16 17:26:32 1510871192.401618: $GPGGA,222631,3946.9573,N,08404.9837,W,2,11,0.80,306.91,M,-33.324,M,,*75
2017-11-16 17:26:32 1510871192.401680: $GPRMC,222631,A,3946.9573,N,08404.9837,W,0.0000,0.000,161117,,*35
2017-11-16 17:26:32 1510871192.401736: $GPGSA,A,3,1,10,22,12,14,18,11,25,31,32,138,,1.6,0.8,1.3*3E
2017-11-16 17:26:33 1510871193.737305: $GPGSV,3,1,11,01,21,304,38,10,51,147,49,22,16,312,41,12,23,052,50*7D
2017-11-16 17:26:33 1510871193.737488: $GPGSV,3,2,11,14,65,321,48,18,21,142,30,11,09,285,41,25,39,094,47*7C
2017-11-16 17:26:33 1510871193.737548: $GPGSV,3,3,11,31,52,222,49,32,69,018,49,138,38,213,44*78
2017-11-16 17:26:33 1510871193.850818: $GPZDA,222632.00,16,11,2017,00,00*60
2017-11-16 17:26:33 1510871193.850988: $GPGGA,222632,3946.9573,N,08404.9837,W,2,11,0.80,306.91,M,-33.324,M,,*76
2017-11-16 17:26:33 1510871193.851068: $GPRMC,222632,A,3946.9573,N,08404.9837,W,0.0000,0.000,161117,,*36
2017-11-16 17:26:33 1510871193.851126: $GPGSA,A,3,1,10,22,12,14,18,11,25,31,32,138,,1.6,0.8,1.3*3E
2017-11-16 17:26:34 1510871194.401460: $GPZDA,222633.00,16,11,2017,00,00*61
2017-11-16 17:26:34 1510871194.401628: $GPGGA,222633,3946.9573,N,08404.9837,W,2,11,0.80,306.91,M,-33.324,M,,*77
2017-11-16 17:26:34 1510871194.401689: $GPRMC,222633,A,3946.9573,N,08404.9837,W,0.0000,0.000,161117,,*37
2017-11-16 17:26:34 1510871194.401746: $GPGSA,A,3,1,10,22,12,14,18,11,25,31,32,138,,1.6,0.8,1.3*3E
2017-11-16 17:26:35 1510871195.402354: $GPZDA,222634.00,16,11,2017,00,00*66
2017-11-16 17:26:35 1510871195.402520: $GPGGA,222634,3946.9573,N,08404.9837,W,2,11,0.80,306.91,M,-33.324,M,,*70
2017-11-16 17:26:35 1510871195.402581: $GPRMC,222634,A,3946.9573,N,08404.9837,W,0.0000,0.000,161117,,*30
2017-11-16 17:26:35 1510871195.402638: $GPGSA,A,3,1,10,22,12,14,18,11,25,31,32,138,,1.6,0.8,1.3*3E
2017-11-16 17:26:36 1510871196.738896: $GPGSV,3,1,11,01,21,304,38,10,51,147,49,22,16,312,42,12,23,052,50*7E
2017-11-16 17:26:36 1510871196.739119: $GPGSV,3,2,11,14,65,321,47,18,21,142,30,11,09,285,41,25,39,094,47*73
2017-11-16 17:26:36 1510871196.739181: $GPGSV,3,3,11,31,52,222,49,32,69,018,49,138,38,213,44*78
2017-11-16 17:26:36 1510871196.852371: $GPZDA,222635.00,16,11,2017,00,00*67
2017-11-16 17:26:36 1510871196.852550: $GPGGA,222635,3946.9573,N,08404.9837,W,2,11,0.80,306.91,M,-33.324,M,,*71
2017-11-16 17:26:36 1510871196.852611: $GPRMC,222635,A,3946.9573,N,08404.9837,W,0.0000,0.000,161117,,*31
2017-11-16 17:26:36 1510871196.852667: $GPGSA,A,3,1,10,22,12,14,18,11,25,31,32,138,,1.6,0.8,1.3*3E
2017-11-16 17:26:37 1510871197.403082: $GPZDA,222636.00,16,11,2017,00,00*64
2017-11-16 17:26:37 1510871197.403253: $GPGGA,222636,3946.9573,N,08404.9837,W,2,11,0.80,306.91,M,-33.324,M,,*72
2017-11-16 17:26:37 1510871197.403316: $GPRMC,222636,A,3946.9573,N,08404.9837,W,0.0000,0.000,161117,,*32
2017-11-16 17:26:37 1510871197.403372: $GPGSA,A,3,1,10,22,12,14,18,11,25,31,32,138,,1.6,0.8,1.3*3E
2017-11-16 17:26:38 1510871198.421481: $GPZDA,222637.00,16,11,2017,00,00*65
2017-11-16 17:26:38 1510871198.421650: $GPGGA,222637,3946.9573,N,08404.9837,W,2,11,0.80,306.91,M,-33.324,M,,*73
2017-11-16 17:26:38 1510871198.421711: $GPRMC,222637,A,3946.9573,N,08404.9837,W,0.0000,0.000,161117,,*33
2017-11-16 17:26:38 1510871198.421767: $GPGSA,A,3,1,10,22,12,14,18,11,25,31,32,138,,1.6,0.8,1.3*3E
