2017-12-01 13:48:43 1512154123.747107: {"class":"VERSION","release":"3.16","rev":"3.16-4","proto_major":3,"proto_minor":11}
2017-12-01 13:48:43 1512154123.747528: {"class":"DEVICES","devices":[{"class":"DEVICE","path":"/dev/ttyUSB0","driver":"SiRF","subtype":"9\u0006GSD4e_4.1.2-P1_RPATCH.05-F-GPS-4R-1510281 11/03/2015 307","activated":"2017-12-01T18:48:43.489Z","flags":1,"native":1,"bps":4800,"parity":"N","stopbits":1,"cycle":1.00}]}
2017-12-01 13:48:43 1512154123.747679: {"class":"WATCH","enable":true,"json":false,"nmea":true,"raw":0,"scaled":false,"timing":false,"split24":false,"pps":false}
2017-12-01 13:48:44 1512154124.346303: $GPZDA,184845.00,01,12,2017,00,00*64
2017-12-01 13:48:44 1512154124.346490: $GPGGA,184845,3946.9569,N,08404.9852,W,2,11,0.80,295.44,M,-33.324,M,,*7C
2017-12-01 13:48:44 1512154124.346584: $GPRMC,184845,A,3946.9569,N,08404.9852,W,0.0000,0.000,011217,,*3A
2017-12-01 13:48:44 1512154124.346648: $GPGSA,A,3,10,14,15,18,20,21,24,27,32,8,138,,2.0,0.8,1.5*34
2017-12-01 13:48:45 1512154125.658258: $GPGSV,3,1,11,10,55,315,48,14,17,241,39,15,23,058,46,18,77,036,43*7E
2017-12-01 13:48:45 1512154125.658463: $GPGSV,3,2,11,20,21,108,44,21,45,181,44,24,53,081,48,27,14,273,40*7D
2017-12-01 13:48:45 1512154125.658557: $GPGSV,3,3,11,32,34,250,42,08,08,307,28,138,38,213,46*73
2017-12-01 13:48:45 1512154125.771722: $GPZDA,184846.00,01,12,2017,00,00*67
2017-12-01 13:48:45 1512154125.771896: $GPGGA,184846,3946.9569,N,08404.9852,W,2,11,0.80,295.44,M,-33.324,M,,*7F
2017-12-01 13:48:45 1512154125.771963: $GPRMC,184846,A,3946.9569,N,08404.9852,W,0.0000,0.000,011217,,*39
2017-12-01 13:48:45 1512154125.772024: $GPGSA,A,3,10,14,15,18,20,21,24,27,32,8,138,,2.0,0.8,1.5*34
2017-12-01 13:48:46 1512154126.347625: $GPZDA,184847.00,01,12,2017,00,00*66
2017-12-01 13:48:46 1512154126.347796: $GPGGA,184847,3946.9569,N,08404.9852,W,2,11,0.80,295.44,M,-33.324,M,,*7E
2017-12-01 13:48:46 1512154126.347864: $GPRMC,184847,A,3946.9569,N,08404.9852,W,0.0000,0.000,011217,,*38
2017-12-01 13:48:46 1512154126.347925: $GPGSA,A,3,10,14,15,18,20,21,24,27,32,8,138,,2.0,0.8,1.5*34
2017-12-01 13:48:47 1512154127.348215: $GPZDA,184848.00,01,12,2017,00,00*69
2017-12-01 13:48:47 1512154127.348440: $GPGGA,184848,3946.9569,N,08404.9852,W,2,11,0.80,295.44,M,-33.324,M,,*71
2017-12-01 13:48:47 1512154127.348512: $GPRMC,184848,A,3946.9569,N,08404.9852,W,0.0000,0.000,011217,,*37
2017-12-01 13:48:47 1512154127.348597: $GPGSA,A,3,10,14,15,18,20,21,24,27,32,8,138,,2.0,0.8,1.5*34
2017-12-01 13:48:48 1512154128.658739: $GPGSV,3,1,11,10,55,315,48,14,17,241,39,15,23,058,46,18,77,036,43*7E
2017-12-01 13:48:48 1512154128.658930: $GPGSV,3,2,11,20,21,108,44,21,45,181,44,24,53,081,47,27,14,273,39*7C
2017-12-01 13:48:48 1512154128.659000: $GPGSV,3,3,11,32,34,250,42,08,08,307,29,138,38,213,46*72
2017-12-01 13:48:48 1512154128.772049: $GPZDA,184849.00,01,12,2017,00,00*68
2017-12-01 13:48:48 1512154128.772224: $GPGGA,184849,3946.9569,N,08404.9852,W,2,11,0.80,295.44,M,-33.324,M,,*70
2017-12-01 13:48:48 1512154128.772293: $GPRMC,184849,A,3946.9569,N,08404.9852,W,0.0000,0.000,011217,,*36
2017-12-01 13:48:48 1512154128.772358: $GPGSA,A,3,10,14,15,18,20,21,24,27,32,8,138,,2.0,0.8,1.5*34
2017-12-01 13:48:49 1512154129.322904: $GPZDA,184850.00,01,12,2017,00,00*60
2017-12-01 13:48:49 1512154129.323078: $GPGGA,184850,3946.9569,N,08404.9852,W,2,11,0.80,295.44,M,-33.324,M,,*78
2017-12-01 13:48:49 1512154129.323149: $GPRMC,184850,A,3946.9569,N,08404.9852,W,0.0000,0.000,011217,,*3E
2017-12-01 13:48:49 1512154129.323213: $GPGSA,A,3,10,14,15,18,20,21,24,27,32,8,138,,2.0,0.8,1.5*34
2017-12-01 13:48:50 1512154130.320017: $GPZDA,184851.00,01,12,2017,00,00*61
2017-12-01 13:48:50 1512154130.320192: $GPGGA,184851,3946.9569,N,08404.9852,W,2,11,0.80,295.44,M,-33.324,M,,*79
2017-12-01 13:48:50 1512154130.320262: $GPRMC,184851,A,3946.9569,N,08404.9852,W,0.0000,0.000,011217,,*3F
2017-12-01 13:48:50 1512154130.320326: $GPGSA,A,3,10,14,15,18,20,21,24,27,32,8,138,,2.0,0.8,1.5*34
2017-12-01 13:48:51 1512154131.659481: $GPGSV,3,1,11,10,55,315,48,14,17,241,39,15,23,058,46,18,77,036,43*7E
2017-12-01 13:48:51 1512154131.659755: $GPGSV,3,2,11,20,21,108,44,21,45,181,44,24,53,081,48,27,14,273,40*7D
2017-12-01 13:48:51 1512154131.659826: $GPGSV,3,3,11,32,34,250,41,08,08,307,29,138,38,213,47*70
2017-12-01 13:48:51 1512154131.773212: $GPZDA,184852.00,01,12,2017,00,00*62
2017-12-01 13:48:51 1512154131.773416: $GPGGA,184852,3946.9569,N,08404.9852,W,2,11,0.80,295.44,M,-33.324,M,,*7A
2017-12-01 13:48:51 1512154131.773485: $GPRMC,184852,A,3946.9569,N,08404.9852,W,0.0000,0.000,011217,,*3C
2017-12-01 13:48:51 1512154131.773566: $GPGSA,A,3,10,14,15,18,20,21,24,27,32,8,138,,2.0,0.8,1.5*34
2017-12-01 13:48:52 1512154132.398299: $GPZDA,184853.00,01,12,2017,00,00*63
2017-12-01 13:48:52 1512154132.398489: $GPGGA,184853,3946.9569,N,08404.9852,W,2,11,0.80,295.44,M,-33.324,M,,*7B
2017-12-01 13:48:52 1512154132.398575: $GPRMC,184853,A,3946.9569,N,08404.9852,W,0.0000,0.000,011217,,*3D
2017-12-01 13:48:52 1512154132.398637: $GPGSA,A,3,10,14,15,18,20,21,24,27,32,8,138,,2.0,0.8,1.5*34
2017-12-01 13:48:53 1512154133.321672: $GPZDA,184854.00,01,12,2017,00,00*64
2017-12-01 13:48:53 1512154133.321894: $GPGGA,184854,3946.9569,N,08404.9852,W,2,11,0.80,295.44,M,-33.324,M,,*7C
2017-12-01 13:48:53 1512154133.321967: $GPRMC,184854,A,3946.9569,N,08404.9852,W,0.0000,0.000,011217,,*3A
2017-12-01 13:48:53 1512154133.322029: $GPGSA,A,3,10,14,15,18,20,21,24,27,32,8,138,,2.0,0.8,1.5*34
