2017-11-16 15:12:11 1510863131.706065: {"class":"VERSION","release":"3.17","rev":"3.17","proto_major":3,"proto_minor":12}
2017-11-16 15:12:11 1510863131.706512: {"class":"DEVICES","devices":[{"class":"DEVICE","path":"/dev/ttyUSB0","driver":"SiRF","subtype":"9\u0006GSD4e_4.1.2-P1_RPATCH.05-F-GPS-4R-1510281 11/03/2015 307","activated":"2017-11-16T20:12:11.617Z","flags":1,"native":1,"bps":4800,"parity":"N","stopbits":1,"cycle":1.00}]}
2017-11-16 15:12:11 1510863131.706627: {"class":"WATCH","enable":true,"json":false,"nmea":true,"raw":0,"scaled":false,"timing":false,"split24":false,"pps":false}
2017-11-16 15:12:12 1510863132.403800: $GPZDA,201211.00,16,11,2017,00,00*64
2017-11-16 15:12:12 1510863132.403968: $GPGGA,201211,3946.9579,N,08404.9847,W,2,12,0.80,301.01,M,-33.324,M,,*72
2017-11-16 15:12:12 1510863132.404030: $GPRMC,201211,A,3946.9579,N,08404.9847,W,0.0000,0.000,161117,,*3F
2017-11-16 15:12:12 1510863132.404086: $GPGSA,A,3,8,10,14,15,18,20,21,24,27,32,12,138,1.6,0.8,1.3*34
2017-11-16 15:12:13 1510863133.740762: $GPGSV,3,1,12,08,07,300,29,10,63,322,51,14,24,249,45,15,16,063,38*7C
2017-11-16 15:12:13 1510863133.740937: $GPGSV,3,2,12,18,75,073,47,20,13,114,35,21,36,181,46,24,49,067,49*7E
2017-11-16 15:12:13 1510863133.740999: $GPGSV,3,3,12,27,10,265,41,32,41,258,48,12,05,112,26,138,38,213,44*4C
2017-11-16 15:12:13 1510863133.853971: $GPZDA,201212.00,16,11,2017,00,00*67
2017-11-16 15:12:13 1510863133.854137: $GPGGA,201212,3946.9579,N,08404.9847,W,2,12,0.80,301.01,M,-33.324,M,,*71
2017-11-16 15:12:13 1510863133.854197: $GPRMC,201212,A,3946.9579,N,08404.9847,W,0.0000,0.000,161117,,*3C
2017-11-16 15:12:13 1510863133.854253: $GPGSA,A,3,8,10,14,15,18,20,21,24,27,32,12,138,1.6,0.8,1.3*34
2017-11-16 15:12:14 1510863134.396049: $GPZDA,201213.00,16,11,2017,00,00*66
2017-11-16 15:12:14 1510863134.396205: $GPGGA,201213,3946.9579,N,08404.9847,W,2,12,0.80,301.01,M,-33.324,M,,*70
2017-11-16 15:12:14 1510863134.396267: $GPRMC,201213,A,3946.9579,N,08404.9847,W,0.0000,0.000,161117,,*3D
2017-11-16 15:12:14 1510863134.396324: $GPGSA,A,3,8,10,14,15,18,20,21,24,27,32,12,138,1.6,0.8,1.3*34
2017-11-16 15:12:15 1510863135.385622: $GPZDA,201214.00,16,11,2017,00,00*61
2017-11-16 15:12:15 1510863135.385778: $GPGGA,201214,3946.9579,N,08404.9847,W,2,12,0.80,301.01,M,-33.324,M,,*77
2017-11-16 15:12:15 1510863135.385840: $GPRMC,201214,A,3946.9579,N,08404.9847,W,0.0000,0.000,161117,,*3A
2017-11-16 15:12:15 1510863135.385897: $GPGSA,A,3,8,10,14,15,18,20,21,24,27,32,12,138,1.6,0.8,1.3*34
2017-11-16 15:12:16 1510863136.733353: $GPGSV,3,1,12,08,07,300,29,10,63,322,51,14,24,249,45,15,16,063,38*7C
2017-11-16 15:12:16 1510863136.733533: $GPGSV,3,2,12,18,75,073,47,20,13,114,35,21,36,181,46,24,49,067,49*7E
2017-11-16 15:12:16 1510863136.733594: $GPGSV,3,3,12,27,10,265,42,32,41,258,47,12,05,112,26,138,38,213,43*47
2017-11-16 15:12:16 1510863136.846685: $GPZDA,201215.00,16,11,2017,00,00*60
2017-11-16 15:12:16 1510863136.846858: $GPGGA,201215,3946.9579,N,08404.9847,W,2,12,0.80,301.01,M,-33.324,M,,*76
2017-11-16 15:12:16 1510863136.846922: $GPRMC,201215,A,3946.9579,N,08404.9847,W,0.0000,0.000,161117,,*3B
2017-11-16 15:12:16 1510863136.846980: $GPGSA,A,3,8,10,14,15,18,20,21,24,27,32,12,138,1.6,0.8,1.3*34
2017-11-16 15:12:17 1510863137.402555: $GPZDA,201216.00,16,11,2017,00,00*63
2017-11-16 15:12:17 1510863137.402719: $GPGGA,201216,3946.9579,N,08404.9847,W,2,12,0.80,301.01,M,-33.324,M,,*75
2017-11-16 15:12:17 1510863137.402779: $GPRMC,201216,A,3946.9579,N,08404.9847,W,0.0000,0.000,161117,,*38
2017-11-16 15:12:17 1510863137.402835: $GPGSA,A,3,8,10,14,15,18,20,21,24,27,32,12,138,1.6,0.8,1.3*34
2017-11-16 15:12:18 1510863138.385871: $GPZDA,201217.00,16,11,2017,00,00*62
2017-11-16 15:12:18 1510863138.386032: $GPGGA,201217,3946.9579,N,08404.9847,W,2,12,0.80,301.01,M,-33.324,M,,*74
2017-11-16 15:12:18 1510863138.386110: $GPRMC,201217,A,3946.9579,N,08404.9847,W,0.0000,0.000,161117,,*39
2017-11-16 15:12:18 1510863138.386167: $GPGSA,A,3,8,10,14,15,18,20,21,24,27,32,12,138,1.6,0.8,1.3*34
2017-11-16 15:12:19 1510863139.739131: $GPGSV,3,1,12,08,07,300,28,10,63,322,51,14,24,249,45,15,16,063,38*7D
2017-11-16 15:12:19 1510863139.739351: $GPGSV,3,2,12,18,75,073,47,20,13,114,35,21,36,181,45,24,49,067,49*7D
2017-11-16 15:12:19 1510863139.739413: $GPGSV,3,3,12,27,10,265,42,32,41,258,47,12,05,112,16,138,38,213,44*43
2017-11-16 15:12:19 1510863139.852479: $GPZDA,201218.00,16,11,2017,00,00*6D
2017-11-16 15:12:19 1510863139.852667: $GPGGA,201218,3946.9579,N,08404.9847,W,2,12,0.80,301.01,M,-33.324,M,,*7B
2017-11-16 15:12:19 1510863139.852728: $GPRMC,201218,A,3946.9579,N,08404.9847,W,0.0000,0.000,161117,,*36
2017-11-16 15:12:19 1510863139.852786: $GPGSA,A,3,8,10,14,15,18,20,21,24,27,32,12,138,1.6,0.8,1.3*34
2017-11-16 15:12:20 1510863140.397316: $GPZDA,201219.00,16,11,2017,00,00*6C
2017-11-16 15:12:20 1510863140.397488: $GPGGA,201219,3946.9579,N,08404.9847,W,2,12,0.80,301.01,M,-33.324,M,,*7A
2017-11-16 15:12:20 1510863140.397550: $GPRMC,201219,A,3946.9579,N,08404.9847,W,0.0000,0.000,161117,,*37
2017-11-16 15:12:20 1510863140.397618: $GPGSA,A,3,8,10,14,15,18,20,21,24,27,32,12,138,1.6,0.8,1.3*34
2017-11-16 15:12:21 1510863141.402664: $GPZDA,201220.00,16,11,2017,00,00*66
2017-11-16 15:12:21 1510863141.402855: $GPGGA,201220,3946.9579,N,08404.9847,W,2,12,0.80,301.01,M,-33.324,M,,*70
2017-11-16 15:12:21 1510863141.402917: $GPRMC,201220,A,3946.9579,N,08404.9847,W,0.0000,0.000,161117,,*3D
2017-11-16 15:12:21 1510863141.402973: $GPGSA,A,3,8,10,14,15,18,20,21,24,27,32,12,138,1.6,0.8,1.3*34
