2017-12-01 12:31:05 1512149465.416446: {"class":"VERSION","release":"3.16","rev":"3.16-4","proto_major":3,"proto_minor":11}
2017-12-01 12:31:05 1512149465.417183: {"class":"DEVICES","devices":[{"class":"DEVICE","path":"/dev/ttyUSB0","driver":"SiRF","subtype":"9\u0006GSD4e_4.1.2-P1_RPATCH.05-F-GPS-4R-1510281 11/03/2015 307","activated":"2017-12-01T17:31:05.258Z","flags":1,"native":1,"bps":4800,"parity":"N","stopbits":1,"cycle":1.00}]}
2017-12-01 12:31:05 1512149465.417450: {"class":"WATCH","enable":true,"json":false,"nmea":true,"raw":0,"scaled":false,"timing":false,"split24":false,"pps":false}
2017-12-01 12:31:05 1512149465.707859: $GPGSV,3,1,11,10,27,288,41,13,24,045,41,15,55,049,47,18,58,307,46*70
2017-12-01 12:31:05 1512149465.708039: $GPGSV,3,2,11,20,47,078,46,21,79,235,44,24,38,133,47,27,18,307,38*71
2017-12-01 12:31:05 1512149465.708106: $GPGSV,3,3,11,29,05,187,23,32,06,228,00,138,38,213,46*74
2017-12-01 12:31:05 1512149465.821261: $GPZDA,173106.00,01,12,2017,00,00*62
2017-12-01 12:31:05 1512149465.821474: $GPGGA,173106,3946.9560,N,08404.9829,W,2,10,0.80,303.67,M,-33.324,M,,*71
2017-12-01 12:31:05 1512149465.821543: $GPRMC,173106,A,3946.9560,N,08404.9829,W,0.0000,0.000,011217,,*39
2017-12-01 12:31:05 1512149465.821603: $GPGSA,A,3,10,13,15,18,20,21,24,27,29,138,,,2.0,0.8,1.5*01
2017-12-01 12:31:06 1512149466.370828: $GPZDA,173107.00,01,12,2017,00,00*63
2017-12-01 12:31:06 1512149466.371002: $GPGGA,173107,3946.9560,N,08404.9829,W,2,10,0.80,303.67,M,-33.324,M,,*70
2017-12-01 12:31:06 1512149466.371069: $GPRMC,173107,A,3946.9560,N,08404.9829,W,0.0000,0.000,011217,,*38
2017-12-01 12:31:06 1512149466.371130: $GPGSA,A,3,10,13,15,18,20,21,24,27,29,138,,,2.0,0.8,1.5*01
2017-12-01 12:31:07 1512149467.355446: $GPZDA,173108.00,01,12,2017,00,00*6C
2017-12-01 12:31:07 1512149467.355620: $GPGGA,173108,3946.9560,N,08404.9829,W,2,10,0.80,303.67,M,-33.324,M,,*7F
2017-12-01 12:31:07 1512149467.355687: $GPRMC,173108,A,3946.9560,N,08404.9829,W,0.0000,0.000,011217,,*37
2017-12-01 12:31:07 1512149467.355749: $GPGSA,A,3,10,13,15,18,20,21,24,27,29,138,,,2.0,0.8,1.5*01
2017-12-01 12:31:08 1512149468.708675: $GPGSV,3,1,11,10,27,288,41,13,24,045,41,15,55,049,47,18,58,307,45*73
2017-12-01 12:31:08 1512149468.708859: $GPGSV,3,2,11,20,47,078,45,21,79,235,43,24,38,133,47,27,18,307,37*7A
2017-12-01 12:31:08 1512149468.708926: $GPGSV,3,3,11,29,05,187,24,32,06,228,14,138,38,213,46*76
2017-12-01 12:31:08 1512149468.820752: $GPZDA,173109.00,01,12,2017,00,00*6D
2017-12-01 12:31:08 1512149468.820885: $GPGGA,173109,3946.9560,N,08404.9829,W,2,10,0.80,303.67,M,-33.324,M,,*7E
2017-12-01 12:31:08 1512149468.820950: $GPRMC,173109,A,3946.9560,N,08404.9829,W,0.0000,0.000,011217,,*36
2017-12-01 12:31:08 1512149468.821010: $GPGSA,A,3,10,13,15,18,20,21,24,27,29,138,,,2.0,0.8,1.5*01
2017-12-01 12:31:09 1512149469.447517: $GPZDA,173110.00,01,12,2017,00,00*65
2017-12-01 12:31:09 1512149469.447689: $GPGGA,173110,3946.9560,N,08404.9829,W,2,10,0.80,303.67,M,-33.324,M,,*76
2017-12-01 12:31:09 1512149469.447757: $GPRMC,173110,A,3946.9560,N,08404.9829,W,0.0000,0.000,011217,,*3E
2017-12-01 12:31:09 1512149469.447818: $GPGSA,A,3,10,13,15,18,20,21,24,27,29,138,,,2.0,0.8,1.5*01
2017-12-01 12:31:10 1512149470.357087: $GPZDA,173111.00,01,12,2017,00,00*64
2017-12-01 12:31:10 1512149470.357258: $GPGGA,173111,3946.9560,N,08404.9829,W,2,10,0.80,303.67,M,-33.324,M,,*77
2017-12-01 12:31:10 1512149470.357326: $GPRMC,173111,A,3946.9560,N,08404.9829,W,0.0000,0.000,011217,,*3F
2017-12-01 12:31:10 1512149470.357387: $GPGSA,A,3,10,13,15,18,20,21,24,27,29,138,,,2.0,0.8,1.5*01
2017-12-01 12:31:11 1512149471.710322: $GPGSV,3,1,11,10,27,288,41,13,24,045,41,15,55,049,46,18,58,307,46*71
2017-12-01 12:31:11 1512149471.710504: $GPGSV,3,2,11,20,47,078,46,21,79,235,43,24,38,133,47,27,18,307,37*79
2017-12-01 12:31:11 1512149471.710571: $GPGSV,3,3,11,29,05,187,20,32,06,228,00,138,38,213,46*77
2017-12-01 12:31:11 1512149471.823704: $GPZDA,173112.00,01,12,2017,00,00*67
2017-12-01 12:31:11 1512149471.823873: $GPGGA,173112,3946.9560,N,08404.9829,W,2,10,0.80,303.67,M,-33.324,M,,*74
2017-12-01 12:31:11 1512149471.823992: $GPRMC,173112,A,3946.9560,N,08404.9829,W,0.0000,0.000,011217,,*3C
2017-12-01 12:31:11 1512149471.824054: $GPGSA,A,3,10,13,15,18,20,21,24,27,29,138,,,2.0,0.8,1.5*01
2017-12-01 12:31:12 1512149472.355825: $GPZDA,173113.00,01,12,2017,00,00*66
2017-12-01 12:31:12 1512149472.355989: $GPGGA,173113,3946.9560,N,08404.9829,W,2,10,0.80,303.67,M,-33.324,M,,*75
2017-12-01 12:31:12 1512149472.356057: $GPRMC,173113,A,3946.9560,N,08404.9829,W,0.0000,0.000,011217,,*3D
2017-12-01 12:31:12 1512149472.356118: $GPGSA,A,3,10,13,15,18,20,21,24,27,29,138,,,2.0,0.8,1.5*01
2017-12-01 12:31:13 1512149473.355646: $GPZDA,173114.00,01,12,2017,00,00*61
2017-12-01 12:31:13 1512149473.355914: $GPGGA,173114,3946.9560,N,08404.9829,W,2,10,0.80,303.67,M,-33.324,M,,*72
2017-12-01 12:31:13 1512149473.356015: $GPRMC,173114,A,3946.9560,N,08404.9829,W,0.0000,0.000,011217,,*3A
2017-12-01 12:31:13 1512149473.356089: $GPGSA,A,3,10,13,15,18,20,21,24,27,29,138,,,2.0,0.8,1.5*01
2017-12-01 12:31:14 1512149474.708204: $GPGSV,3,1,11,10,27,288,41,13,24,045,42,15,55,049,46,18,58,307,46*72
2017-12-01 12:31:14 1512149474.710914: $GPGSV,3,2,11,20,47,078,46,21,79,235,43,24,38,133,47,27,18,307,36*78
2017-12-01 12:31:14 1512149474.711013: $GPGSV,3,3,11,29,05,187,21,32,06,228,25,138,38,213,46*71
2017-12-01 12:31:14 1512149474.821612: $GPZDA,173115.00,01,12,2017,00,00*60
2017-12-01 12:31:14 1512149474.821795: $GPGGA,173115,3946.9560,N,08404.9829,W,2,11,0.80,303.67,M,-33.324,M,,*72
2017-12-01 12:31:14 1512149474.821862: $GPRMC,173115,A,3946.9560,N,08404.9829,W,0.0000,0.000,011217,,*3B
2017-12-01 12:31:14 1512149474.821922: $GPGSA,A,3,10,13,15,18,20,21,24,27,29,32,138,,2.0,0.8,1.5*00
2017-12-01 12:31:15 1512149475.354928: $GPZDA,173116.00,01,12,2017,00,00*63
2017-12-01 12:31:15 1512149475.355100: $GPGGA,173116,3946.9560,N,08404.9829,W,2,11,0.80,303.67,M,-33.324,M,,*71
2017-12-01 12:31:15 1512149475.355166: $GPRMC,173116,A,3946.9560,N,08404.9829,W,0.0000,0.000,011217,,*38
2017-12-01 12:31:15 1512149475.355227: $GPGSA,A,3,10,13,15,18,20,21,24,27,29,32,138,,2.0,0.8,1.5*00
