2017-12-29 11:21:05 1514564465.545885: {"class":"VERSION","release":"3.16","rev":"3.16-4","proto_major":3,"proto_minor":11}
2017-12-29 11:21:05 1514564465.546220: {"class":"DEVICES","devices":[{"class":"DEVICE","path":"/dev/ttyUSB0","driver":"SiRF","subtype":"9\u0006GSD4e_4.1.2-P1_RPATCH.05-F-GPS-4R-1510281 11/03/2015 307","activated":"2017-12-29T16:21:05.296Z","flags":1,"native":1,"bps":4800,"parity":"N","stopbits":1,"cycle":1.00}]}
2017-12-29 11:21:05 1514564465.546334: {"class":"WATCH","enable":true,"json":false,"nmea":true,"raw":0,"scaled":false,"timing":false,"split24":false,"pps":false}
2017-12-29 11:21:05 1514564465.898754: $GPZDA,162106.55,29,12,2017,00,00*68
2017-12-29 11:21:05 1514564465.898924: $GPGGA,162106,3946.9513,N,08404.9816,W,1,11,1.00,335.95,M,-33.324,M,,*7A
2017-12-29 11:21:05 1514564465.898991: $GPRMC,162106,A,3946.9513,N,08404.9816,W,0.1975,75.900,291217,,*0A
2017-12-29 11:21:05 1514564465.899051: $GPGSA,A,3,8,10,15,18,20,21,24,27,32,14,138,,1.7,1.0,1.3*3F
2017-12-29 11:21:05 1514564465.899109: $GPGBS,162106,10.91,M,10.38,M,30.89,M*0D
2017-12-29 11:21:06 1514564466.980386: $GPZDA,162107.24,29,12,2017,00,00*6F
2017-12-29 11:21:06 1514564466.980554: $GPGGA,162107,3946.9499,N,08404.9821,W,1,11,1.00,329.74,M,-33.324,M,,*7E
2017-12-29 11:21:06 1514564466.980621: $GPRMC,162107,A,3946.9499,N,08404.9821,W,0.6846,4.197,291217,,*3A
2017-12-29 11:21:06 1514564466.980681: $GPGSA,A,3,8,10,15,18,20,21,24,27,32,14,138,,1.7,1.0,1.3*3F
2017-12-29 11:21:08 1514564468.122559: $GPGSV,3,1,12,08,06,321,39,10,43,303,46,15,35,052,44,18,72,343,41*70
2017-12-29 11:21:08 1514564468.122736: $GPGSV,3,2,12,20,33,097,48,21,61,187,44,24,51,106,47,27,19,288,38*73
2017-12-29 11:21:08 1514564468.122802: $GPGSV,3,3,12,32,23,240,36,13,06,049,00,14,05,234,00,138,38,213,00*44
2017-12-29 11:21:08 1514564468.236310: $GPZDA,162108.00,29,12,2017,00,00*66
2017-12-29 11:21:08 1514564468.236427: $GPGGA,162108,3946.9506,N,08404.9820,W,1,09,1.00,329.62,M,-33.324,M,,*79
2017-12-29 11:21:08 1514564468.236490: $GPRMC,162108,A,3946.9506,N,08404.9820,W,2.3916,34.620,291217,,*08
2017-12-29 11:21:08 1514564468.236549: $GPGSA,A,3,8,10,15,18,20,21,24,27,32,,,,1.7,1.0,1.3*00
2017-12-29 11:21:08 1514564468.687176: $GPZDA,162109.00,29,12,2017,00,00*67
2017-12-29 11:21:08 1514564468.687333: $GPGGA,162109,3946.9506,N,08404.9820,W,1,09,1.00,329.62,M,-33.324,M,,*78
2017-12-29 11:21:08 1514564468.687398: $GPRMC,162109,A,3946.9506,N,08404.9820,W,0.2422,93.794,291217,,*03
2017-12-29 11:21:08 1514564468.687457: $GPGSA,A,3,8,10,15,18,20,21,24,27,32,,,,1.7,1.0,1.3*00
2017-12-29 11:21:09 1514564469.393061: $GPZDA,162110.00,29,12,2017,00,00*6F
2017-12-29 11:21:09 1514564469.393223: $GPGGA,162110,3946.9510,N,08404.9819,W,1,09,1.00,328.85,M,-33.324,M,,*75
2017-12-29 11:21:09 1514564469.393289: $GPRMC,162110,A,3946.9510,N,08404.9819,W,0.1867,180.000,291217,,*31
2017-12-29 11:21:09 1514564469.393350: $GPGSA,A,3,8,10,15,18,20,21,24,27,32,,,,1.7,1.0,1.3*00
2017-12-29 11:21:10 1514564470.727961: $GPGSV,3,1,12,08,06,321,38,10,43,303,44,15,35,052,44,18,72,343,40*72
2017-12-29 11:21:10 1514564470.728143: $GPGSV,3,2,12,20,33,097,47,21,61,187,42,24,51,106,45,27,19,288,36*76
2017-12-29 11:21:10 1514564470.728228: $GPGSV,3,3,12,32,23,240,34,13,06,049,00,14,05,234,00,138,38,213,45*47
2017-12-29 11:21:10 1514564470.841672: $GPZDA,162111.00,29,12,2017,00,00*6E
2017-12-29 11:21:10 1514564470.841802: $GPGGA,162111,3946.9513,N,08404.9818,W,1,10,1.00,328.09,M,-33.324,M,,*7A
2017-12-29 11:21:10 1514564470.841865: $GPRMC,162111,A,3946.9513,N,08404.9818,W,0.0000,0.000,291217,,*33
2017-12-29 11:21:10 1514564470.841924: $GPGSA,A,3,8,10,15,18,20,21,24,27,32,138,,,1.7,1.0,1.3*3A
2017-12-29 11:21:11 1514564471.397474: $GPZDA,162112.00,29,12,2017,00,00*6D
2017-12-29 11:21:11 1514564471.397613: $GPGGA,162112,3946.9513,N,08404.9818,W,1,10,1.00,328.09,M,-33.324,M,,*79
2017-12-29 11:21:11 1514564471.397676: $GPRMC,162112,A,3946.9513,N,08404.9818,W,0.0000,0.000,291217,,*30
2017-12-29 11:21:11 1514564471.397735: $GPGSA,A,3,8,10,15,18,20,21,24,27,32,138,,,1.7,1.0,1.3*3A
2017-12-29 11:21:12 1514564472.394533: $GPZDA,162113.00,29,12,2017,00,00*6C
2017-12-29 11:21:12 1514564472.394690: $GPGGA,162113,3946.9517,N,08404.9818,W,1,10,1.00,327.32,M,-33.324,M,,*7B
2017-12-29 11:21:12 1514564472.394757: $GPRMC,162113,A,3946.9517,N,08404.9818,W,0.0000,0.000,291217,,*35
2017-12-29 11:21:12 1514564472.394817: $GPGSA,A,3,8,10,15,18,20,21,24,27,32,138,,,1.7,1.0,1.3*3A
2017-12-29 11:21:12 1514564472.394875: $GPGBS,162113,10.91,M,10.38,M,30.89,M*09
2017-12-29 11:21:13 1514564473.737441: $GPGSV,3,1,12,08,06,321,38,10,43,303,43,15,35,052,44,18,72,343,40*75
2017-12-29 11:21:13 1514564473.737610: $GPGSV,3,2,12,20,33,097,47,21,61,187,42,24,51,106,45,27,19,288,36*76
2017-12-29 11:21:13 1514564473.737675: $GPGSV,3,3,12,32,23,240,35,13,06,049,00,14,05,234,00,138,38,213,46*45
2017-12-29 11:21:13 1514564473.849853: $GPZDA,162114.00,29,12,2017,00,00*6B
2017-12-29 11:21:13 1514564473.849976: $GPGGA,162114,3946.9550,N,08404.9827,W,2,10,1.40,323.09,M,-33.324,M,,*78
2017-12-29 11:21:13 1514564473.850039: $GPRMC,162114,A,3946.9550,N,08404.9827,W,0.0000,0.000,291217,,*3D
2017-12-29 11:21:13 1514564473.850098: $GPGSA,A,3,8,10,15,18,20,21,24,27,32,138,,,1.7,1.4,1.3*3E
2017-12-29 11:21:14 1514564474.403245: $GPZDA,162115.00,29,12,2017,00,00*6A
2017-12-29 11:21:14 1514564474.403395: $GPGGA,162115,3946.9568,N,08404.9824,W,2,10,1.00,322.08,M,-33.324,M,,*75
2017-12-29 11:21:14 1514564474.403459: $GPRMC,162115,A,3946.9568,N,08404.9824,W,0.0000,0.000,291217,,*34
2017-12-29 11:21:14 1514564474.403519: $GPGSA,A,3,8,10,15,18,20,21,24,27,32,138,,,1.7,1.0,1.3*3A
2017-12-29 11:21:15 1514564475.394882: $GPZDA,162116.00,29,12,2017,00,00*69
2017-12-29 11:21:15 1514564475.395046: $GPGGA,162116,3946.9568,N,08404.9824,W,2,10,1.00,322.08,M,-33.324,M,,*76
2017-12-29 11:21:15 1514564475.395112: $GPRMC,162116,A,3946.9568,N,08404.9824,W,0.0000,0.000,291217,,*37
2017-12-29 11:21:15 1514564475.395173: $GPGSA,A,3,8,10,15,18,20,21,24,27,32,138,,,1.7,1.0,1.3*3A
2017-12-29 11:21:16 1514564476.732776: $GPGSV,3,1,12,08,06,321,33,10,43,303,43,15,35,052,44,18,72,343,40*7E
2017-12-29 11:21:16 1514564476.732949: $GPGSV,3,2,12,20,33,097,47,21,61,187,41,24,51,106,45,27,19,288,35*76
2017-12-29 11:21:16 1514564476.733014: $GPGSV,3,3,12,32,23,240,34,14,05,234,06,13,06,049,00,138,38,213,45*41
2017-12-29 11:21:16 1514564476.846121: $GPZDA,162117.00,29,12,2017,00,00*68
2017-12-29 11:21:16 1514564476.846253: $GPGGA,162117,3946.9576,N,08404.9817,W,2,10,1.00,322.03,M,-33.324,M,,*73
2017-12-29 11:21:16 1514564476.846316: $GPRMC,162117,A,3946.9576,N,08404.9817,W,0.3423,4.197,291217,,*34
2017-12-29 11:21:16 1514564476.846376: $GPGSA,A,3,8,10,15,18,20,21,24,27,32,138,,,1.7,1.0,1.3*3A
2017-12-29 11:21:17 1514564477.394719: $GPZDA,162118.00,29,12,2017,00,00*67
2017-12-29 11:21:17 1514564477.394874: $GPGGA,162118,3946.9576,N,08404.9817,W,2,10,1.00,322.03,M,-33.324,M,,*7C
2017-12-29 11:21:17 1514564477.394940: $GPRMC,162118,A,3946.9576,N,08404.9817,W,0.0000,0.000,291217,,*36
2017-12-29 11:21:17 1514564477.395000: $GPGSA,A,3,8,10,15,18,20,21,24,27,32,138,,,1.7,1.0,1.3*3A
2017-12-29 11:21:18 1514564478.395625: $GPZDA,162119.00,29,12,2017,00,00*66
2017-12-29 11:21:18 1514564478.395790: $GPGGA,162119,3946.9576,N,08404.9817,W,2,10,1.00,322.03,M,-33.324,M,,*7D
2017-12-29 11:21:18 1514564478.395857: $GPRMC,162119,A,3946.9576,N,08404.9817,W,0.0000,0.000,291217,,*37
2017-12-29 11:21:18 1514564478.395918: $GPGSA,A,3,8,10,15,18,20,21,24,27,32,138,,,1.7,1.0,1.3*3A
2017-12-29 11:21:19 1514564479.733632: $GPGSV,3,1,12,08,06,321,32,10,43,303,43,15,35,052,44,18,72,343,40*7F
2017-12-29 11:21:19 1514564479.733797: $GPGSV,3,2,12,20,33,097,47,21,61,187,41,24,51,106,45,27,19,288,35*76
2017-12-29 11:21:19 1514564479.733863: $GPGSV,3,3,12,32,23,240,34,14,05,234,08,13,06,049,00,138,38,213,44*4E
2017-12-29 11:21:19 1514564479.845968: $GPZDA,162120.00,29,12,2017,00,00*6C
2017-12-29 11:21:19 1514564479.846098: $GPGGA,162120,3946.9576,N,08404.9817,W,2,10,1.00,322.03,M,-33.324,M,,*77
2017-12-29 11:21:19 1514564479.846163: $GPRMC,162120,A,3946.9576,N,08404.9817,W,0.0000,0.000,291217,,*3D
2017-12-29 11:21:19 1514564479.846274: $GPGSA,A,3,8,10,15,18,20,21,24,27,32,138,,,1.7,1.0,1.3*3A
2017-12-29 11:21:20 1514564480.472668: $GPZDA,162121.00,29,12,2017,00,00*6D
2017-12-29 11:21:20 1514564480.472832: $GPGGA,162121,3946.9576,N,08404.9817,W,2,10,1.00,322.03,M,-33.324,M,,*76
2017-12-29 11:21:20 1514564480.472898: $GPRMC,162121,A,3946.9576,N,08404.9817,W,0.0000,0.000,291217,,*3C
2017-12-29 11:21:20 1514564480.472958: $GPGSA,A,3,8,10,15,18,20,21,24,27,32,138,,,1.7,1.0,1.3*3A
2017-12-29 11:21:21 1514564481.395745: $GPZDA,162122.00,29,12,2017,00,00*6E
2017-12-29 11:21:21 1514564481.395910: $GPGGA,162122,3946.9576,N,08404.9817,W,2,10,1.00,322.03,M,-33.324,M,,*75
2017-12-29 11:21:21 1514564481.395976: $GPRMC,162122,A,3946.9576,N,08404.9817,W,0.0000,0.000,291217,,*3F
2017-12-29 11:21:21 1514564481.396036: $GPGSA,A,3,8,10,15,18,20,21,24,27,32,138,,,1.7,1.0,1.3*3A
2017-12-29 11:21:22 1514564482.731495: $GPGSV,3,1,12,08,06,321,31,10,43,303,42,15,35,052,41,18,72,343,40*78
2017-12-29 11:21:22 1514564482.731663: $GPGSV,3,2,12,20,33,097,47,21,61,187,41,24,51,106,45,27,19,288,32*71
2017-12-29 11:21:22 1514564482.731729: $GPGSV,3,3,12,32,23,240,34,14,05,234,10,13,06,049,00,138,38,213,44*47
2017-12-29 11:21:22 1514564482.844843: $GPZDA,162123.00,29,12,2017,00,00*6F
2017-12-29 11:21:22 1514564482.844994: $GPGGA,162123,3946.9576,N,08404.9817,W,2,10,1.00,322.03,M,-33.324,M,,*74
2017-12-29 11:21:22 1514564482.845058: $GPRMC,162123,A,3946.9576,N,08404.9817,W,0.0000,0.000,291217,,*3E
2017-12-29 11:21:22 1514564482.845118: $GPGSA,A,3,8,10,15,18,20,21,24,27,32,138,,,1.7,1.0,1.3*3A
2017-12-29 11:21:23 1514564483.395694: $GPZDA,162124.00,29,12,2017,00,00*68
2017-12-29 11:21:23 1514564483.395847: $GPGGA,162124,3946.9576,N,08404.9817,W,2,10,0.80,322.03,M,-33.324,M,,*7A
2017-12-29 11:21:23 1514564483.395913: $GPRMC,162124,A,3946.9576,N,08404.9817,W,0.0000,0.000,291217,,*39
2017-12-29 11:21:23 1514564483.395973: $GPGSA,A,3,8,10,15,18,20,21,24,27,32,138,,,1.7,0.8,1.3*33
2017-12-29 11:21:24 1514564484.396503: $GPZDA,162125.00,29,12,2017,00,00*69
2017-12-29 11:21:24 1514564484.396666: $GPGGA,162125,3946.9576,N,08404.9817,W,2,10,0.80,322.03,M,-33.324,M,,*7B
2017-12-29 11:21:24 1514564484.396732: $GPRMC,162125,A,3946.9576,N,08404.9817,W,0.0000,0.000,291217,,*38
2017-12-29 11:21:24 1514564484.396793: $GPGSA,A,3,8,10,15,18,20,21,24,27,32,138,,,1.7,0.8,1.3*33
2017-12-29 11:21:24 1514564484.396851: $GPGBS,162125,2.73,M,2.59,M,7.72,M*37
2017-12-29 11:21:25 1514564485.732991: $GPGSV,3,1,12,08,06,321,31,10,43,303,41,15,35,052,42,18,72,343,40*78
2017-12-29 11:21:25 1514564485.733158: $GPGSV,3,2,12,20,33,097,46,21,61,187,41,24,51,106,45,27,19,288,33*71
2017-12-29 11:21:25 1514564485.733242: $GPGSV,3,3,12,32,23,240,34,14,05,234,13,13,06,049,00,138,38,213,44*44
2017-12-29 11:21:25 1514564485.845330: $GPZDA,162126.00,29,12,2017,00,00*6A
2017-12-29 11:21:25 1514564485.845465: $GPGGA,162126,3946.9576,N,08404.9817,W,2,11,0.80,322.03,M,-33.324,M,,*79
2017-12-29 11:21:25 1514564485.845546: $GPRMC,162126,A,3946.9576,N,08404.9817,W,0.4179,148.778,291217,,*35
2017-12-29 11:21:25 1514564485.845608: $GPGSA,A,3,8,10,15,18,20,21,24,27,32,14,138,,1.7,0.8,1.3*36
2017-12-29 11:21:26 1514564486.395023: $GPZDA,162127.00,29,12,2017,00,00*6B
2017-12-29 11:21:26 1514564486.395174: $GPGGA,162127,3946.9571,N,08404.9817,W,2,11,1.00,321.39,M,-33.324,M,,*7C
2017-12-29 11:21:26 1514564486.395241: $GPRMC,162127,A,3946.9571,N,08404.9817,W,0.0000,0.000,291217,,*3D
2017-12-29 11:21:26 1514564486.395301: $GPGSA,A,3,8,10,15,18,20,21,24,27,32,14,138,,1.7,1.0,1.3*3F
2017-12-29 11:21:27 1514564487.398096: $GPZDA,162128.00,29,12,2017,00,00*64
2017-12-29 11:21:27 1514564487.400127: $GPGGA,162128,3946.9575,N,08404.9816,W,2,11,1.20,320.63,M,-33.324,M,,*7A
2017-12-29 11:21:27 1514564487.400236: $GPRMC,162128,A,3946.9575,N,08404.9816,W,0.0000,0.000,291217,,*37
2017-12-29 11:21:27 1514564487.400300: $GPGSA,A,3,8,10,15,18,20,21,24,27,32,14,138,,1.7,1.2,1.3*3D
2017-12-29 11:21:28 1514564488.730146: $GPGSV,3,1,12,08,06,321,00,10,43,303,41,15,35,052,43,18,72,343,40*7B
2017-12-29 11:21:28 1514564488.730362: $GPGSV,3,2,12,20,33,097,46,21,61,187,41,24,51,106,45,27,19,288,32*70
2017-12-29 11:21:28 1514564488.730429: $GPGSV,3,3,12,32,23,240,34,14,05,234,19,13,06,049,00,138,38,213,44*4E
2017-12-29 11:21:28 1514564488.843854: $GPZDA,162129.00,29,12,2017,00,00*65
2017-12-29 11:21:28 1514564488.843989: $GPGGA,162129,3946.9575,N,08404.9816,W,2,09,1.20,320.63,M,-33.324,M,,*72
2017-12-29 11:21:28 1514564488.844052: $GPRMC,162129,A,3946.9575,N,08404.9816,W,0.0000,0.000,291217,,*36
2017-12-29 11:21:28 1514564488.844112: $GPGSA,A,3,10,15,18,20,21,24,27,32,138,,,,1.7,1.2,1.3*00
2017-12-29 11:21:29 1514564489.400907: $GPZDA,162130.00,29,12,2017,00,00*6D
2017-12-29 11:21:29 1514564489.401120: $GPGGA,162130,3946.9575,N,08404.9816,W,2,09,1.20,320.63,M,-33.324,M,,*7A
2017-12-29 11:21:29 1514564489.401194: $GPRMC,162130,A,3946.9575,N,08404.9816,W,0.0000,0.000,291217,,*3E
2017-12-29 11:21:29 1514564489.401254: $GPGSA,A,3,10,15,18,20,21,24,27,32,138,,,,1.7,1.2,1.3*00
2017-12-29 11:21:30 1514564490.398829: $GPZDA,162131.00,29,12,2017,00,00*6C
2017-12-29 11:21:30 1514564490.398995: $GPGGA,162131,3946.9575,N,08404.9816,W,2,09,1.20,320.63,M,-33.324,M,,*7B
2017-12-29 11:21:30 1514564490.399062: $GPRMC,162131,A,3946.9575,N,08404.9816,W,0.0000,0.000,291217,,*3F
2017-12-29 11:21:30 1514564490.399122: $GPGSA,A,3,10,15,18,20,21,24,27,32,138,,,,1.7,1.2,1.3*00
