2017-12-01 11:28:25 1512145705.566784: {"class":"VERSION","release":"3.16","rev":"3.16-4","proto_major":3,"proto_minor":11}
2017-12-01 11:28:25 1512145705.567205: {"class":"DEVICES","devices":[{"class":"DEVICE","path":"/dev/ttyUSB0","driver":"SiRF","subtype":"9\u0006GSD4e_4.1.2-P1_RPATCH.05-F-GPS-4R-1510281 11/03/2015 307","activated":"2017-12-01T16:28:25.520Z","flags":1,"native":1,"bps":4800,"parity":"N","stopbits":1,"cycle":1.00}]}
2017-12-01 11:28:25 1512145705.567328: {"class":"WATCH","enable":true,"json":false,"nmea":true,"raw":0,"scaled":false,"timing":false,"split24":false,"pps":false}
2017-12-01 11:28:26 1512145706.376020: $GPZDA,162827.00,01,12,2017,00,00*68
2017-12-01 11:28:26 1512145706.376201: $GPGGA,162827,3946.9578,N,08404.9835,W,2,11,1.00,291.90,M,-33.324,M,,*75
2017-12-01 11:28:26 1512145706.376268: $GPRMC,162827,A,3946.9578,N,08404.9835,W,0.0000,0.000,011217,,*37
2017-12-01 11:28:26 1512145706.376331: $GPGSA,A,3,5,13,15,18,20,21,24,29,30,27,138,,2.0,1.0,1.5*3F
2017-12-01 11:28:27 1512145707.714641: $GPGSV,3,1,12,05,19,072,36,10,08,267,28,13,49,055,45,15,79,105,48*79
2017-12-01 11:28:27 1512145707.714842: $GPGSV,3,2,12,18,39,279,44,20,67,037,44,21,60,309,46,24,14,153,36*7F
2017-12-01 11:28:27 1512145707.714911: $GPGSV,3,3,12,29,31,198,46,30,01,030,22,27,04,328,30,138,38,213,46*48
2017-12-01 11:28:27 1512145707.827714: $GPZDA,162828.00,01,12,2017,00,00*67
2017-12-01 11:28:27 1512145707.827879: $GPGGA,162828,3946.9578,N,08404.9835,W,2,12,1.00,291.90,M,-33.324,M,,*79
2017-12-01 11:28:27 1512145707.827946: $GPRMC,162828,A,3946.9578,N,08404.9835,W,0.0000,0.000,011217,,*38
2017-12-01 11:28:27 1512145707.828007: $GPGSA,A,3,5,10,13,15,18,20,21,24,29,30,27,138,2.0,1.0,1.5*3E
2017-12-01 11:28:28 1512145708.453004: $GPZDA,162829.00,01,12,2017,00,00*66
2017-12-01 11:28:28 1512145708.453181: $GPGGA,162829,3946.9578,N,08404.9835,W,2,12,1.20,291.90,M,-33.324,M,,*7A
2017-12-01 11:28:28 1512145708.453251: $GPRMC,162829,A,3946.9578,N,08404.9835,W,0.0000,0.000,011217,,*39
2017-12-01 11:28:28 1512145708.453314: $GPGSA,A,3,5,10,13,15,18,20,21,24,29,30,27,138,2.0,1.2,1.5*3C
2017-12-01 11:28:29 1512145709.378928: $GPZDA,162830.00,01,12,2017,00,00*6E
2017-12-01 11:28:29 1512145709.379104: $GPGGA,162830,3946.9578,N,08404.9835,W,2,12,1.00,291.90,M,-33.324,M,,*70
2017-12-01 11:28:29 1512145709.379171: $GPRMC,162830,A,3946.9578,N,08404.9835,W,0.0000,0.000,011217,,*31
2017-12-01 11:28:29 1512145709.379233: $GPGSA,A,3,5,10,13,15,18,20,21,24,29,30,27,138,2.0,1.0,1.5*3E
2017-12-01 11:28:30 1512145710.707095: $GPGSV,3,1,12,05,19,072,36,10,08,267,27,13,49,055,44,15,79,105,48*77
2017-12-01 11:28:30 1512145710.707281: $GPGSV,3,2,12,18,39,279,44,20,67,037,44,21,60,309,46,24,14,153,36*7F
2017-12-01 11:28:30 1512145710.707348: $GPGSV,3,3,12,29,31,198,46,30,01,030,21,27,04,328,30,138,38,213,45*48
2017-12-01 11:28:30 1512145710.820872: $GPZDA,162831.00,01,12,2017,00,00*6F
2017-12-01 11:28:30 1512145710.821037: $GPGGA,162831,3946.9578,N,08404.9835,W,2,12,1.00,291.90,M,-33.324,M,,*71
2017-12-01 11:28:30 1512145710.821103: $GPRMC,162831,A,3946.9578,N,08404.9835,W,0.0000,0.000,011217,,*30
2017-12-01 11:28:30 1512145710.821165: $GPGSA,A,3,5,10,13,15,18,20,21,24,29,30,27,138,2.0,1.0,1.5*3E
2017-12-01 11:28:31 1512145711.379395: $GPZDA,162832.00,01,12,2017,00,00*6C
2017-12-01 11:28:31 1512145711.379562: $GPGGA,162832,3946.9578,N,08404.9835,W,2,12,1.00,291.90,M,-33.324,M,,*72
2017-12-01 11:28:31 1512145711.379631: $GPRMC,162832,A,3946.9578,N,08404.9835,W,0.0000,0.000,011217,,*33
2017-12-01 11:28:31 1512145711.379695: $GPGSA,A,3,5,10,13,15,18,20,21,24,29,30,27,138,2.0,1.0,1.5*3E
2017-12-01 11:28:32 1512145712.378458: $GPZDA,162833.00,01,12,2017,00,00*6D
2017-12-01 11:28:32 1512145712.378641: $GPGGA,162833,3946.9578,N,08404.9835,W,2,12,1.00,291.90,M,-33.324,M,,*73
2017-12-01 11:28:32 1512145712.378710: $GPRMC,162833,A,3946.9578,N,08404.9835,W,0.0000,0.000,011217,,*32
2017-12-01 11:28:32 1512145712.378773: $GPGSA,A,3,5,10,13,15,18,20,21,24,29,30,27,138,2.0,1.0,1.5*3E
2017-12-01 11:28:33 1512145713.713718: $GPGSV,3,1,12,05,19,072,36,10,08,267,36,13,49,055,45,15,79,105,48*76
2017-12-01 11:28:33 1512145713.713954: $GPGSV,3,2,12,18,39,279,44,20,67,037,44,21,60,309,46,24,14,153,35*7C
2017-12-01 11:28:33 1512145713.714023: $GPGSV,3,3,12,29,31,198,47,30,01,030,13,27,04,328,31,138,38,213,46*4A
2017-12-01 11:28:33 1512145713.827085: $GPZDA,162834.00,01,12,2017,00,00*6A
2017-12-01 11:28:33 1512145713.827253: $GPGGA,162834,3946.9578,N,08404.9835,W,2,12,1.00,291.90,M,-33.324,M,,*74
2017-12-01 11:28:33 1512145713.827320: $GPRMC,162834,A,3946.9578,N,08404.9835,W,0.0000,0.000,011217,,*35
2017-12-01 11:28:33 1512145713.827381: $GPGSA,A,3,5,10,13,15,18,20,21,24,29,30,27,138,2.0,1.0,1.5*3E
2017-12-01 11:28:34 1512145714.376714: $GPZDA,162835.00,01,12,2017,00,00*6B
2017-12-01 11:28:34 1512145714.376900: $GPGGA,162835,3946.9578,N,08404.9835,W,2,12,1.00,291.90,M,-33.324,M,,*75
2017-12-01 11:28:34 1512145714.376969: $GPRMC,162835,A,3946.9578,N,08404.9835,W,0.0000,0.000,011217,,*34
2017-12-01 11:28:34 1512145714.377031: $GPGSA,A,3,5,10,13,15,18,20,21,24,29,30,27,138,2.0,1.0,1.5*3E
2017-12-01 11:28:35 1512145715.377620: $GPZDA,162836.00,01,12,2017,00,00*68
2017-12-01 11:28:35 1512145715.377798: $GPGGA,162836,3946.9578,N,08404.9835,W,2,12,1.00,291.90,M,-33.324,M,,*76
2017-12-01 11:28:35 1512145715.377867: $GPRMC,162836,A,3946.9578,N,08404.9835,W,0.0000,0.000,011217,,*37
2017-12-01 11:28:35 1512145715.377929: $GPGSA,A,3,5,10,13,15,18,20,21,24,29,30,27,138,2.0,1.0,1.5*3E
