2017-11-15 18:44:13 1510789453.034755: {"class":"VERSION","release":"3.17","rev":"3.17","proto_major":3,"proto_minor":12}
2017-11-15 18:44:13 1510789453.035180: {"class":"DEVICES","devices":[{"class":"DEVICE","path":"/dev/ttyUSB0","driver":"SiRF","subtype":"9\u0006GSD4e_4.1.2-P1_RPATCH.05-F-GPS-4R-1510281 11/03/2015 307","activated":"2017-11-15T23:44:12.953Z","flags":1,"native":1,"bps":4800,"parity":"N","stopbits":1,"cycle":1.00}]}
2017-11-15 18:44:13 1510789453.035295: {"class":"WATCH","enable":true,"json":false,"nmea":true,"raw":0,"scaled":false,"timing":false,"split24":false,"pps":false}
2017-11-15 18:44:13 1510789453.364160: $GPZDA,234412.00,15,11,2017,00,00*64
2017-11-15 18:44:13 1510789453.364317: $GPGGA,234412,3946.9485,N,08404.9758,W,1,07,2.40,317.10,M,-33.324,M,,*7C
2017-11-15 18:44:13 1510789453.364378: $GPRMC,234412,A,3946.9485,N,08404.9758,W,0.8709,183.298,151117,,*33
2017-11-15 18:44:13 1510789453.364433: $GPGSA,A,3,14,3,32,31,1,10,22,,,,,,3.4,2.4,2.9*3D
2017-11-15 18:44:14 1510789454.328741: $GPZDA,234413.00,15,11,2017,00,00*65
2017-11-15 18:44:14 1510789454.328899: $GPGGA,234413,3946.9485,N,08404.9751,W,1,07,2.40,317.17,M,-33.324,M,,*73
2017-11-15 18:44:14 1510789454.328959: $GPRMC,234413,A,3946.9485,N,08404.9751,W,0.6846,184.197,151117,,*3A
2017-11-15 18:44:14 1510789454.329014: $GPGSA,A,3,14,3,32,31,1,10,22,,,,,,3.4,2.4,2.9*3D
2017-11-15 18:44:15 1510789455.664297: $GPGSV,3,1,11,25,33,052,00,14,67,052,26,03,24,313,08,32,52,085,17*7D
2017-11-15 18:44:15 1510789455.664467: $GPGSV,3,2,11,31,79,306,30,01,17,270,09,12,03,030,00,10,17,157,15*7A
2017-11-15 18:44:15 1510789455.664526: $GPGSV,3,3,11,26,30,177,09,22,42,298,23,16,02,190,00*4F
2017-11-15 18:44:15 1510789455.777635: $GPZDA,234414.00,15,11,2017,00,00*62
2017-11-15 18:44:15 1510789455.777767: $GPGGA,234414,3946.9485,N,08404.9751,W,1,08,2.40,317.17,M,-33.324,M,,*7B
2017-11-15 18:44:15 1510789455.777825: $GPRMC,234414,A,3946.9485,N,08404.9751,W,0.7246,164.668,151117,,*3F
2017-11-15 18:44:15 1510789455.777881: $GPGSA,A,3,14,3,32,31,1,10,26,22,,,,,3.4,2.4,2.9*39
2017-11-15 18:44:16 1510789456.403282: $GPZDA,234415.00,15,11,2017,00,00*63
2017-11-15 18:44:16 1510789456.403443: $GPGGA,234415,3946.9477,N,08404.9752,W,1,08,2.40,317.30,M,-33.324,M,,*71
2017-11-15 18:44:16 1510789456.403504: $GPRMC,234415,A,3946.9477,N,08404.9752,W,1.0002,154.331,151117,,*3E
2017-11-15 18:44:16 1510789456.403560: $GPGSA,A,3,14,3,32,31,1,10,26,22,,,,,3.4,2.4,2.9*39
2017-11-15 18:44:17 1510789457.331404: $GPZDA,234416.00,15,11,2017,00,00*60
2017-11-15 18:44:17 1510789457.331595: $GPGGA,234416,3946.9477,N,08404.9745,W,1,08,2.60,317.38,M,-33.324,M,,*7E
2017-11-15 18:44:17 1510789457.331658: $GPRMC,234416,A,3946.9477,N,08404.9745,W,0.8359,148.778,151117,,*3B
2017-11-15 18:44:17 1510789457.331714: $GPGSA,A,3,14,3,32,31,1,10,26,22,,,,,3.4,2.6,2.9*3B
2017-11-15 18:44:18 1510789458.699579: $GPGSV,3,1,11,29,02,090,06,14,67,052,26,03,24,313,10,32,52,085,17*72
2017-11-15 18:44:18 1510789458.699749: $GPGSV,3,2,11,31,79,306,30,01,17,270,04,16,02,190,18,10,17,157,15*70
2017-11-15 18:44:18 1510789458.699808: $GPGSV,3,3,11,26,30,177,12,22,42,298,23,25,33,052,00*48
2017-11-15 18:44:18 1510789458.813261: $GPZDA,234417.00,15,11,2017,00,00*61
2017-11-15 18:44:18 1510789458.813420: $GPGGA,234417,3946.9477,N,08404.9745,W,1,07,2.60,317.38,M,-33.324,M,,*70
2017-11-15 18:44:18 1510789458.813480: $GPRMC,234417,A,3946.9477,N,08404.9745,W,0.7238,140.710,151117,,*35
2017-11-15 18:44:18 1510789458.813535: $GPGSA,A,3,14,3,32,31,10,26,22,,,,,,3.4,2.6,2.9*0A
2017-11-15 18:44:19 1510789459.331662: $GPZDA,234418.00,15,11,2017,00,00*6E
2017-11-15 18:44:19 1510789459.331812: $GPGGA,234418,3946.9477,N,08404.9745,W,1,07,2.60,317.38,M,-33.324,M,,*7F
2017-11-15 18:44:19 1510789459.331893: $GPRMC,234418,A,3946.9477,N,08404.9745,W,0.7576,81.914,151117,,*01
2017-11-15 18:44:19 1510789459.331950: $GPGSA,A,3,14,3,32,31,10,26,22,,,,,,3.4,2.6,2.9*0A
2017-11-15 18:44:20 1510789460.329925: $GPZDA,234419.00,15,11,2017,00,00*6F
2017-11-15 18:44:20 1510789460.330103: $GPGGA,234419,3946.9477,N,08404.9738,W,1,07,2.60,317.46,M,-33.324,M,,*7D
2017-11-15 18:44:20 1510789460.330217: $GPRMC,234419,A,3946.9477,N,08404.9738,W,0.5951,58.684,151117,,*03
2017-11-15 18:44:20 1510789460.330274: $GPGSA,A,3,14,3,32,31,10,26,22,,,,,,3.4,2.6,2.9*0A
2017-11-15 18:44:21 1510789461.699920: $GPGSV,3,1,11,29,02,090,04,14,67,052,26,03,24,313,12,32,52,085,17*72
2017-11-15 18:44:21 1510789461.700108: $GPGSV,3,2,11,31,79,306,30,01,17,270,04,25,33,052,13,10,17,157,15*76
2017-11-15 18:44:21 1510789461.700168: $GPGSV,3,3,11,26,30,177,12,22,42,298,24,12,03,030,00*4C
2017-11-15 18:44:21 1510789461.813534: $GPZDA,234420.00,15,11,2017,00,00*65
2017-11-15 18:44:21 1510789461.813699: $GPGGA,234420,3946.9477,N,08404.9738,W,1,07,2.60,317.46,M,-33.324,M,,*77
2017-11-15 18:44:21 1510789461.813759: $GPRMC,234420,A,3946.9477,N,08404.9738,W,0.8054,68.645,151117,,*06
2017-11-15 18:44:21 1510789461.813814: $GPGSA,A,3,14,3,32,31,10,26,22,,,,,,3.4,2.6,2.9*0A
2017-11-15 18:44:22 1510789462.330706: $GPZDA,234421.00,15,11,2017,00,00*64
2017-11-15 18:44:22 1510789462.330904: $GPGGA,234421,3946.9481,N,08404.9738,W,1,07,2.60,318.10,M,-33.324,M,,*73
2017-11-15 18:44:22 1510789462.333549: $GPRMC,234421,A,3946.9481,N,08404.9738,W,0.5951,58.684,151117,,*01
2017-11-15 18:44:22 1510789462.333618: $GPGSA,A,3,14,3,32,31,10,26,22,,,,,,3.4,2.6,2.9*0A
2017-11-15 18:44:23 1510789463.330020: $GPZDA,234422.00,15,11,2017,00,00*67
2017-11-15 18:44:23 1510789463.330185: $GPGGA,234422,3946.9484,N,08404.9730,W,1,07,2.60,317.41,M,-33.324,M,,*76
2017-11-15 18:44:23 1510789463.330247: $GPRMC,234422,A,3946.9484,N,08404.9730,W,1.2621,39.347,151117,,*0C
2017-11-15 18:44:23 1510789463.330303: $GPGSA,A,3,14,3,32,31,10,26,22,,,,,,3.4,2.6,2.9*0A
2017-11-15 18:44:24 1510789464.700881: $GPGSV,3,1,11,29,02,090,06,14,67,052,26,03,24,313,14,32,52,085,17*76
2017-11-15 18:44:24 1510789464.701080: $GPGSV,3,2,11,31,79,306,30,01,17,270,04,25,33,052,13,10,17,157,16*75
2017-11-15 18:44:24 1510789464.701140: $GPGSV,3,3,11,26,30,177,12,22,42,298,24,12,03,030,00*4C
2017-11-15 18:44:24 1510789464.814496: $GPZDA,234423.00,15,11,2017,00,00*66
2017-11-15 18:44:24 1510789464.814655: $GPGGA,234423,3946.9488,N,08404.9730,W,1,08,2.60,318.05,M,-33.324,M,,*7B
2017-11-15 18:44:24 1510789464.814715: $GPRMC,234423,A,3946.9488,N,08404.9730,W,1.3044,25.352,151117,,*0C
2017-11-15 18:44:24 1510789464.814771: $GPGSA,A,3,14,3,32,31,25,10,26,22,,,,,3.4,2.6,2.9*0D
2017-11-15 18:44:25 1510789465.369338: $GPZDA,234424.00,15,11,2017,00,00*61
2017-11-15 18:44:25 1510789465.369518: $GPGGA,234424,3946.9491,N,08404.9723,W,1,08,2.60,317.37,M,-33.324,M,,*78
2017-11-15 18:44:25 1510789465.369579: $GPRMC,234424,A,3946.9491,N,08404.9723,W,1.2621,39.347,151117,,*0C
2017-11-15 18:44:25 1510789465.369661: $GPGSA,A,3,14,3,32,31,25,10,26,22,,,,,3.4,2.6,2.9*0D
2017-11-15 18:44:26 1510789466.330501: $GPZDA,234425.00,15,11,2017,00,00*60
2017-11-15 18:44:26 1510789466.330661: $GPGGA,234425,3946.9495,N,08404.9723,W,1,08,2.60,318.01,M,-33.324,M,,*77
2017-11-15 18:44:26 1510789466.330721: $GPRMC,234425,A,3946.9495,N,08404.9723,W,1.6828,39.347,151117,,*0A
2017-11-15 18:44:26 1510789466.330777: $GPGSA,A,3,14,3,32,31,25,10,26,22,,,,,3.4,2.6,2.9*0D
2017-11-15 18:44:27 1510789467.701228: $GPGSV,3,1,11,29,02,090,07,14,67,052,26,03,24,313,13,32,52,085,17*70
2017-11-15 18:44:27 1510789467.701379: $GPGSV,3,2,11,31,79,306,29,01,17,270,04,25,33,052,13,10,17,157,16*7D
2017-11-15 18:44:27 1510789467.701440: $GPGSV,3,3,11,26,30,177,12,22,42,298,24,12,03,030,00*4C
2017-11-15 18:44:27 1510789467.814587: $GPZDA,234426.00,15,11,2017,00,00*63
2017-11-15 18:44:27 1510789467.814748: $GPGGA,234426,3946.9503,N,08404.9715,W,1,09,2.60,317.96,M,-33.324,M,,*7F
2017-11-15 18:44:27 1510789467.814808: $GPRMC,234426,A,3946.9503,N,08404.9715,W,1.7157,28.752,151117,,*02
2017-11-15 18:44:27 1510789467.814864: $GPGSA,A,3,29,14,3,32,31,25,10,26,22,,,,3.4,2.6,2.9*06
2017-11-15 18:44:28 1510789468.330438: $GPZDA,234427.00,15,11,2017,00,00*62
2017-11-15 18:44:28 1510789468.330601: $GPGGA,234427,3946.9510,N,08404.9714,W,1,09,2.60,317.84,M,-33.324,M,,*7E
2017-11-15 18:44:28 1510789468.330724: $GPRMC,234427,A,3946.9510,N,08404.9714,W,1.9726,33.613,151117,,*00
2017-11-15 18:44:28 1510789468.330781: $GPGSA,A,3,29,14,3,32,31,25,10,26,22,,,,3.4,2.6,2.9*06
2017-11-15 18:44:29 1510789469.331307: $GPZDA,234428.00,15,11,2017,00,00*6D
2017-11-15 18:44:29 1510789469.331468: $GPGGA,234428,3946.9514,N,08404.9707,W,1,09,2.60,318.56,M,-33.324,M,,*77
2017-11-15 18:44:29 1510789469.331528: $GPRMC,234428,A,3946.9514,N,08404.9707,W,1.9726,33.613,151117,,*09
2017-11-15 18:44:29 1510789469.331584: $GPGSA,A,3,29,14,3,32,31,25,10,26,22,,,,3.4,2.6,2.9*06
2017-11-15 18:44:30 1510789470.667137: $GPGSV,3,1,11,16,02,190,18,14,67,052,26,03,24,313,14,32,52,085,16*75
2017-11-15 18:44:30 1510789470.667305: $GPGSV,3,2,11,31,79,306,29,01,17,270,04,25,33,052,13,10,17,157,16*7D
2017-11-15 18:44:30 1510789470.667364: $GPGSV,3,3,11,26,30,177,12,22,42,298,24,29,02,090,06*49
2017-11-15 18:44:30 1510789470.780364: $GPZDA,234429.00,15,11,2017,00,00*6C
2017-11-15 18:44:30 1510789470.780509: $GPGGA,234429,3946.9517,N,08404.9707,W,1,09,2.60,317.79,M,-33.324,M,,*77
2017-11-15 18:44:30 1510789470.780569: $GPRMC,234429,A,3946.9517,N,08404.9707,W,1.5738,12.547,151117,,*09
2017-11-15 18:44:30 1510789470.780624: $GPGSA,A,3,14,3,32,31,25,10,26,22,29,,,,3.4,2.6,2.9*06
2017-11-15 18:44:31 1510789471.405709: $GPZDA,234430.00,15,11,2017,00,00*64
2017-11-15 18:44:31 1510789471.405876: $GPGGA,234430,3946.9522,N,08404.9707,W,1,09,2.60,318.43,M,-33.324,M,,*7F
2017-11-15 18:44:31 1510789471.405936: $GPRMC,234430,A,3946.9522,N,08404.9707,W,1.1385,29.379,151117,,*02
2017-11-15 18:44:31 1510789471.405991: $GPGSA,A,3,14,3,32,31,25,10,26,22,29,,,,3.4,2.6,2.9*06
2017-11-15 18:44:32 1510789472.331100: $GPZDA,234431.00,15,11,2017,00,00*65
2017-11-15 18:44:32 1510789472.331220: $GPGGA,234431,3946.9522,N,08404.9707,W,1,09,2.60,318.43,M,-33.324,M,,*7E
2017-11-15 18:44:32 1510789472.331280: $GPRMC,234431,A,3946.9522,N,08404.9707,W,0.9929,32.499,151117,,*05
2017-11-15 18:44:32 1510789472.331336: $GPGSA,A,3,14,3,32,31,25,10,26,22,29,,,,3.4,2.6,2.9*06
2017-11-15 18:44:33 1510789473.699917: $GPGSV,3,1,11,12,03,030,00,14,67,052,27,03,24,313,13,32,52,085,16*74
2017-11-15 18:44:33 1510789473.700087: $GPGSV,3,2,11,31,79,306,29,01,17,270,04,25,33,052,07,10,17,157,16*78
2017-11-15 18:44:33 1510789473.700147: $GPGSV,3,3,11,26,30,177,12,22,42,298,24,29,02,090,04*4B
2017-11-15 18:44:33 1510789473.813489: $GPZDA,234432.00,15,11,2017,00,00*66
2017-11-15 18:44:33 1510789473.813647: $GPGGA,234432,3946.9522,N,08404.9707,W,1,08,2.60,318.43,M,-33.324,M,,*7C
2017-11-15 18:44:33 1510789473.813708: $GPRMC,234432,A,3946.9522,N,08404.9707,W,0.4844,93.794,151117,,*04
2017-11-15 18:44:33 1510789473.813763: $GPGSA,A,3,14,3,32,31,25,10,26,22,,,,,3.4,2.6,2.9*0D
2017-11-15 18:44:34 1510789474.330347: $GPZDA,234433.00,15,11,2017,00,00*67
2017-11-15 18:44:34 1510789474.330514: $GPGGA,234433,3946.9526,N,08404.9707,W,1,08,2.60,319.07,M,-33.324,M,,*78
2017-11-15 18:44:34 1510789474.330575: $GPRMC,234433,A,3946.9526,N,08404.9707,W,0.4207,39.347,151117,,*06
2017-11-15 18:44:34 1510789474.330630: $GPGSA,A,3,14,3,32,31,25,10,26,22,,,,,3.4,2.6,2.9*0D
2017-11-15 18:44:35 1510789475.329953: $GPZDA,234434.00,15,11,2017,00,00*60
2017-11-15 18:44:35 1510789475.330128: $GPGGA,234434,3946.9529,N,08404.9706,W,1,08,2.60,318.31,M,-33.324,M,,*75
2017-11-15 18:44:35 1510789475.330585: $GPRMC,234434,A,3946.9529,N,08404.9706,W,0.5287,2.716,151117,,*3E
2017-11-15 18:44:35 1510789475.330648: $GPGSA,A,3,14,3,32,31,25,10,26,22,,,,,3.4,2.6,2.9*0D
2017-11-15 18:44:36 1510789476.666577: $GPGSV,3,1,11,12,03,030,00,14,67,052,27,03,24,313,13,32,52,085,15*77
2017-11-15 18:44:36 1510789476.666791: $GPGSV,3,2,11,31,79,306,29,01,17,270,04,25,33,052,11,10,17,157,15*7C
2017-11-15 18:44:36 1510789476.666860: $GPGSV,3,3,11,26,30,177,11,22,42,298,24,29,02,090,04*48
2017-11-15 18:44:36 1510789476.780143: $GPZDA,234435.00,15,11,2017,00,00*61
2017-11-15 18:44:36 1510789476.780304: $GPGGA,234435,3946.9529,N,08404.9706,W,1,08,2.60,318.31,M,-33.324,M,,*74
2017-11-15 18:44:36 1510789476.780363: $GPRMC,234435,A,3946.9529,N,08404.9706,W,0.9060,347.792,151117,,*36
2017-11-15 18:44:36 1510789476.780468: $GPGSA,A,3,14,3,32,31,25,10,26,22,,,,,3.4,2.6,2.9*0D
2017-11-15 18:44:37 1510789477.331067: $GPZDA,234436.00,15,11,2017,00,00*62
2017-11-15 18:44:37 1510789477.331228: $GPGGA,234436,3946.9533,N,08404.9706,W,1,08,1.40,318.95,M,-33.324,M,,*73
2017-11-15 18:44:37 1510789477.331288: $GPRMC,234436,A,3946.9533,N,08404.9706,W,0.5857,338.291,151117,,*30
2017-11-15 18:44:37 1510789477.331343: $GPGSA,A,3,14,3,32,31,25,10,26,22,,,,,3.4,1.4,2.9*0C
2017-11-15 18:44:38 1510789478.331961: $GPZDA,234437.00,15,11,2017,00,00*63
2017-11-15 18:44:38 1510789478.332318: $GPGGA,234437,3946.9533,N,08404.9706,W,1,08,1.40,318.95,M,-33.324,M,,*72
2017-11-15 18:44:38 1510789478.344946: $GPRMC,234437,A,3946.9533,N,08404.9706,W,0.1867,0.000,151117,,*34
2017-11-15 18:44:38 1510789478.345035: $GPGSA,A,3,14,3,32,31,25,10,26,22,,,,,3.4,1.4,2.9*0C
2017-11-15 18:44:39 1510789479.699831: $GPGSV,3,1,11,26,30,177,00,14,67,052,27,03,24,313,12,32,52,085,15*73
2017-11-15 18:44:39 1510789479.700002: $GPGSV,3,2,11,31,79,306,29,01,17,270,04,25,33,052,12,10,17,157,15*7F
2017-11-15 18:44:39 1510789479.700061: $GPGSV,3,3,11,12,03,030,00,22,42,298,24,29,02,090,06*4F
2017-11-15 18:44:39 1510789479.813269: $GPZDA,234438.00,15,11,2017,00,00*6C
2017-11-15 18:44:39 1510789479.813444: $GPGGA,234438,3946.9533,N,08404.9706,W,1,07,1.40,318.95,M,-33.324,M,,*72
2017-11-15 18:44:39 1510789479.813504: $GPRMC,234438,A,3946.9533,N,08404.9706,W,0.7278,23.636,151117,,*0B
2017-11-15 18:44:39 1510789479.813560: $GPGSA,A,3,14,3,32,31,25,10,22,,,,,,3.4,1.4,2.9*08
2017-11-15 18:44:40 1510789480.331524: $GPZDA,234439.00,15,11,2017,00,00*6D
2017-11-15 18:44:40 1510789480.331698: $GPGGA,234439,3946.9533,N,08404.9706,W,1,07,1.40,318.95,M,-33.324,M,,*73
2017-11-15 18:44:40 1510789480.331758: $GPRMC,234439,A,3946.9533,N,08404.9706,W,0.7278,23.636,151117,,*0A
2017-11-15 18:44:40 1510789480.331815: $GPGSA,A,3,14,3,32,31,25,10,22,,,,,,3.4,1.4,2.9*08
2017-11-15 18:44:41 1510789481.363161: $GPZDA,234440.00,15,11,2017,00,00*63
2017-11-15 18:44:41 1510789481.363340: $GPGGA,234440,3946.9537,N,08404.9706,W,1,07,1.40,319.59,M,-33.324,M,,*78
2017-11-15 18:44:41 1510789481.363401: $GPRMC,234440,A,3946.9537,N,08404.9706,W,0.9060,347.792,151117,,*3B
2017-11-15 18:44:41 1510789481.363457: $GPGSA,A,3,14,3,32,31,25,10,22,,,,,,3.4,1.4,2.9*08
2017-11-15 18:44:42 1510789482.700283: $GPGSV,3,1,11,16,02,190,16,14,67,052,27,03,24,313,12,32,52,085,14*7E
2017-11-15 18:44:42 1510789482.700467: $GPGSV,3,2,11,31,79,306,29,26,30,177,00,25,33,052,13,10,17,157,15*7E
2017-11-15 18:44:42 1510789482.700526: $GPGSV,3,3,11,01,17,270,00,22,42,298,24,29,02,090,11*48
2017-11-15 18:44:42 1510789482.813944: $GPZDA,234441.00,15,11,2017,00,00*62
2017-11-15 18:44:42 1510789482.814103: $GPGGA,234441,3946.9541,N,08404.9705,W,1,08,1.40,318.82,M,-33.324,M,,*73
2017-11-15 18:44:42 1510789482.814163: $GPRMC,234441,A,3946.9541,N,08404.9705,W,0.8709,3.298,151117,,*3D
2017-11-15 18:44:42 1510789482.814217: $GPGSA,A,3,14,3,32,31,25,10,22,29,,,,,3.4,1.4,2.9*03
