2017-11-15 19:09:44 1510790984.915267: {"class":"VERSION","release":"3.17","rev":"3.17","proto_major":3,"proto_minor":12}
2017-11-15 19:09:44 1510790984.915739: {"class":"DEVICES","devices":[{"class":"DEVICE","path":"/dev/ttyUSB0","driver":"SiRF","subtype":"9\u0006GSD4e_4.1.2-P1_RPATCH.05-F-GPS-4R-1510281 11/03/2015 307","activated":"2017-11-16T00:09:44.470Z","flags":1,"native":1,"bps":4800,"parity":"N","stopbits":1,"cycle":1.00}]}
2017-11-15 19:09:44 1510790984.915878: {"class":"WATCH","enable":true,"json":false,"nmea":true,"raw":0,"scaled":false,"timing":false,"split24":false,"pps":false}
2017-11-15 19:09:45 1510790985.666109: $GPGSV,3,1,11,32,43,099,24,14,61,078,24,03,34,307,00,26,43,175,18*79
2017-11-15 19:09:45 1510790985.666282: $GPGSV,3,2,11,31,74,004,04,16,13,190,20,22,48,285,22,25,24,043,00*73
2017-11-15 19:09:45 1510790985.666341: $GPGSV,3,3,11,01,11,259,00,29,07,079,00,10,06,159,00*4E
2017-11-15 19:09:45 1510790985.779454: $GPZDA,000944.00,16,11,2017,00,00*6C
2017-11-15 19:09:45 1510790985.779642: $GPGGA,000944,3946.9560,N,08404.9511,W,1,05,2.00,302.00,M,-33.324,M,,*71
2017-11-15 19:09:45 1510790985.779704: $GPRMC,000944,A,3946.9560,N,08404.9511,W,0.8414,219.347,161117,,*32
2017-11-15 19:09:45 1510790985.779779: $GPGSA,A,3,32,14,26,16,22,,,,,,,,3.4,2.0,2.9*3B
2017-11-15 19:09:46 1510790986.404790: $GPZDA,000945.00,16,11,2017,00,00*6D
2017-11-15 19:09:46 1510790986.412802: $GPGGA,000945,3946.9560,N,08404.9511,W,1,05,2.00,302.00,M,-33.324,M,,*70
2017-11-15 19:09:46 1510790986.412930: $GPRMC,000945,A,3946.9560,N,08404.9511,W,0.2422,273.794,161117,,*3A
2017-11-15 19:09:46 1510790986.413005: $GPGSA,A,3,32,14,26,16,22,,,,,,,,3.4,2.0,2.9*3B
2017-11-15 19:09:47 1510790987.328186: $GPZDA,000946.00,16,11,2017,00,00*6E
2017-11-15 19:09:47 1510790987.328350: $GPGGA,000946,3946.9560,N,08404.9511,W,1,05,2.00,302.00,M,-33.324,M,,*73
2017-11-15 19:09:47 1510790987.328411: $GPRMC,000946,A,3946.9560,N,08404.9511,W,0.5951,238.684,161117,,*38
2017-11-15 19:09:47 1510790987.328467: $GPGSA,A,3,32,14,26,16,22,,,,,,,,3.4,2.0,2.9*3B
2017-11-15 19:09:48 1510790988.664174: $GPGSV,3,1,11,32,43,099,24,14,61,078,24,03,34,307,00,26,43,175,17*76
2017-11-15 19:09:48 1510790988.664363: $GPGSV,3,2,11,31,74,004,06,16,13,190,20,22,48,285,22,25,24,043,00*71
2017-11-15 19:09:48 1510790988.664425: $GPGSV,3,3,11,01,11,259,00,29,07,079,00,10,06,159,00*4E
2017-11-15 19:09:48 1510790988.777435: $GPZDA,000947.00,16,11,2017,00,00*6F
2017-11-15 19:09:48 1510790988.777619: $GPGGA,000947,3946.9560,N,08404.9511,W,1,06,2.00,302.00,M,-33.324,M,,*71
2017-11-15 19:09:48 1510790988.777679: $GPRMC,000947,A,3946.9560,N,08404.9511,W,0.5287,182.716,161117,,*31
2017-11-15 19:09:48 1510790988.777759: $GPGSA,A,3,32,14,26,31,16,22,,,,,,,3.4,2.0,2.9*39
2017-11-15 19:09:49 1510790989.857360: $GPZDA,000948.00,16,11,2017,00,00*60
2017-11-15 19:09:49 1510790989.857524: $GPGGA,000948,3946.9560,N,08404.9511,W,1,06,2.00,302.00,M,-33.324,M,,*7E
2017-11-15 19:09:49 1510790989.857585: $GPRMC,000948,A,3946.9560,N,08404.9511,W,0.7246,164.668,161117,,*31
2017-11-15 19:09:49 1510790989.857641: $GPGSA,A,3,32,14,26,31,16,22,,,,,,,3.4,2.0,2.9*39
2017-11-15 19:09:50 1510790990.327975: $GPZDA,000949.00,16,11,2017,00,00*61
2017-11-15 19:09:50 1510790990.328142: $GPGGA,000949,3946.9560,N,08404.9511,W,1,06,2.00,302.00,M,-33.324,M,,*7F
2017-11-15 19:09:50 1510790990.328203: $GPRMC,000949,A,3946.9560,N,08404.9511,W,1.0567,197.448,161117,,*3E
2017-11-15 19:09:50 1510790990.328258: $GPGSA,A,3,32,14,26,31,16,22,,,,,,,3.4,2.0,2.9*39
2017-11-15 19:09:51 1510790991.664433: $GPGSV,3,1,11,32,43,099,24,14,61,079,24,03,34,307,00,26,43,175,17*77
2017-11-15 19:09:52 1510790992.509253: $GPGSV,3,2,11,31,74,006,08,16,14,190,20,22,49,283,22,25,24,043,00*7D
2017-11-15 19:09:52 1510790992.509498: $GPGSV,3,3,11,01,10,259,00,29,07,079,00,10,05,159,00*4C
2017-11-15 19:09:52 1510790992.509670: $GPZDA,000950.00,16,11,2017,00,00*69
2017-11-15 19:09:52 1510790992.509796: $GPGGA,000950,3946.9560,N,08404.9511,W,1,06,2.00,302.00,M,-33.324,M,,*77
2017-11-15 19:09:52 1510790992.509925: $GPRMC,000950,A,3946.9560,N,08404.9511,W,1.0018,230.691,161117,,*33
2017-11-15 19:09:52 1510790992.510136: $GPGSA,A,3,32,14,26,31,16,22,,,,,,,3.4,2.0,2.9*39
2017-11-15 19:09:52 1510790992.510246: $GPZDA,000951.00,16,11,2017,00,00*68
2017-11-15 19:09:52 1510790992.510338: $GPGGA,000951,3946.9557,N,08404.9512,W,1,06,2.00,302.77,M,-33.324,M,,*71
2017-11-15 19:09:52 1510790992.510434: $GPRMC,000951,A,3946.9557,N,08404.9512,W,1.2621,219.347,161117,,*3E
2017-11-15 19:09:52 1510790992.510548: $GPGSA,A,3,32,14,26,31,16,22,,,,,,,3.4,2.0,2.9*39
2017-11-15 19:09:53 1510790993.329664: $GPZDA,000952.00,16,11,2017,00,00*6B
2017-11-15 19:09:53 1510790993.329871: $GPGGA,000952,3946.9557,N,08404.9519,W,1,06,2.00,302.69,M,-33.324,M,,*76
2017-11-15 19:09:53 1510790993.329936: $GPRMC,000952,A,3946.9557,N,08404.9519,W,1.1385,209.379,161117,,*32
2017-11-15 19:09:53 1510790993.329993: $GPGSA,A,3,32,14,26,31,16,22,,,,,,,3.4,2.0,2.9*39
2017-11-15 19:09:54 1510790994.664183: $GPGSV,3,1,11,32,43,099,23,14,61,079,24,03,34,307,00,26,43,175,17*70
2017-11-15 19:09:54 1510790994.664358: $GPGSV,3,2,11,31,74,006,07,16,14,190,20,22,49,283,21,25,24,043,00*71
2017-11-15 19:09:54 1510790994.664417: $GPGSV,3,3,11,01,10,259,00,29,07,079,00,10,05,159,00*4C
2017-11-15 19:09:54 1510790994.777807: $GPZDA,000953.00,16,11,2017,00,00*6A
2017-11-15 19:09:54 1510790994.778146: $GPGGA,000953,3946.9553,N,08404.9512,W,1,06,2.00,302.13,M,-33.324,M,,*75
2017-11-15 19:09:54 1510790994.778266: $GPRMC,000953,A,3946.9553,N,08404.9512,W,1.2132,183.551,161117,,*3C
2017-11-15 19:09:54 1510790994.778359: $GPGSA,A,3,32,14,26,31,16,22,,,,,,,3.4,2.0,2.9*39
