2017-12-01 12:04:55 1512147895.684799: {"class":"VERSION","release":"3.16","rev":"3.16-4","proto_major":3,"proto_minor":11}
2017-12-01 12:04:55 1512147895.685205: {"class":"DEVICES","devices":[{"class":"DEVICE","path":"/dev/ttyUSB0","driver":"SiRF","subtype":"9\u0006GSD4e_4.1.2-P1_RPATCH.05-F-GPS-4R-1510281 11/03/2015 307","activated":"2017-12-01T17:04:55.271Z","flags":1,"native":1,"bps":4800,"parity":"N","stopbits":1,"cycle":1.00}]}
2017-12-01 12:04:55 1512147895.685326: {"class":"WATCH","enable":true,"json":false,"nmea":true,"raw":0,"scaled":false,"timing":false,"split24":false,"pps":false}
2017-12-01 12:04:55 1512147895.720688: $GPGSV,3,1,12,10,19,279,39,13,34,046,44,15,67,055,44,18,50,294,46*74
2017-12-01 12:04:55 1512147895.720864: $GPGSV,3,2,12,20,56,064,46,21,75,291,45,24,28,142,44,27,14,318,39*7B
2017-12-01 12:04:55 1512147895.720931: $GPGSV,3,3,12,29,15,192,32,05,07,084,12,04,05,135,00,138,38,213,46*46
2017-12-01 12:04:55 1512147895.834075: $GPZDA,170456.00,01,12,2017,00,00*61
2017-12-01 12:04:55 1512147895.834243: $GPGGA,170456,3946.9614,N,08404.9833,W,2,11,0.80,294.85,M,-33.324,M,,*7B
2017-12-01 12:04:55 1512147895.834309: $GPRMC,170456,A,3946.9614,N,08404.9833,W,0.0000,0.000,011217,,*31
2017-12-01 12:04:55 1512147895.834370: $GPGSA,A,3,10,13,15,18,20,21,24,27,29,5,138,,2.0,0.8,1.5*34
2017-12-01 12:04:56 1512147896.378846: $GPZDA,170457.00,01,12,2017,00,00*60
2017-12-01 12:04:56 1512147896.379038: $GPGGA,170457,3946.9614,N,08404.9833,W,2,11,0.80,294.85,M,-33.324,M,,*7A
2017-12-01 12:04:56 1512147896.379105: $GPRMC,170457,A,3946.9614,N,08404.9833,W,0.0000,0.000,011217,,*30
2017-12-01 12:04:56 1512147896.379168: $GPGSA,A,3,10,13,15,18,20,21,24,27,29,5,138,,2.0,0.8,1.5*34
2017-12-01 12:04:57 1512147897.383625: $GPZDA,170458.00,01,12,2017,00,00*6F
2017-12-01 12:04:57 1512147897.383798: $GPGGA,170458,3946.9614,N,08404.9833,W,2,11,0.80,294.85,M,-33.324,M,,*75
2017-12-01 12:04:57 1512147897.383882: $GPRMC,170458,A,3946.9614,N,08404.9833,W,0.0000,0.000,011217,,*3F
2017-12-01 12:04:57 1512147897.383946: $GPGSA,A,3,10,13,15,18,20,21,24,27,29,5,138,,2.0,0.8,1.5*34
2017-12-01 12:04:58 1512147898.735298: $GPGSV,3,1,12,10,19,279,38,13,34,046,44,15,67,055,44,18,50,294,46*75
2017-12-01 12:04:58 1512147898.735480: $GPGSV,3,2,12,20,56,064,46,21,75,291,45,24,28,142,44,27,14,318,40*75
2017-12-01 12:04:58 1512147898.735548: $GPGSV,3,3,12,29,15,192,32,05,07,084,00,04,05,135,00,138,38,213,46*45
2017-12-01 12:04:58 1512147898.848700: $GPZDA,170459.00,01,12,2017,00,00*6E
2017-12-01 12:04:58 1512147898.848850: $GPGGA,170459,3946.9614,N,08404.9833,W,2,10,0.80,294.85,M,-33.324,M,,*75
2017-12-01 12:04:58 1512147898.848917: $GPRMC,170459,A,3946.9614,N,08404.9833,W,0.0000,0.000,011217,,*3E
2017-12-01 12:04:58 1512147898.848978: $GPGSA,A,3,10,13,15,18,20,21,24,27,29,138,,,2.0,0.8,1.5*01
2017-12-01 12:04:59 1512147899.474097: $GPZDA,170500.00,01,12,2017,00,00*63
2017-12-01 12:04:59 1512147899.474276: $GPGGA,170500,3946.9614,N,08404.9833,W,2,10,0.80,294.85,M,-33.324,M,,*78
2017-12-01 12:04:59 1512147899.474343: $GPRMC,170500,A,3946.9614,N,08404.9833,W,0.0000,0.000,011217,,*33
2017-12-01 12:04:59 1512147899.474405: $GPGSA,A,3,10,13,15,18,20,21,24,27,29,138,,,2.0,0.8,1.5*01
2017-12-01 12:05:00 1512147900.395057: $GPZDA,170501.00,01,12,2017,00,00*62
2017-12-01 12:05:00 1512147900.395226: $GPGGA,170501,3946.9614,N,08404.9833,W,2,10,0.80,294.85,M,-33.324,M,,*79
2017-12-01 12:05:00 1512147900.395294: $GPRMC,170501,A,3946.9614,N,08404.9833,W,0.0000,0.000,011217,,*32
2017-12-01 12:05:00 1512147900.395357: $GPGSA,A,3,10,13,15,18,20,21,24,27,29,138,,,2.0,0.8,1.5*01
2017-12-01 12:05:01 1512147901.734521: $GPGSV,3,1,12,10,19,279,39,13,34,046,43,15,67,055,44,18,50,294,46*73
2017-12-01 12:05:01 1512147901.734696: $GPGSV,3,2,12,20,56,064,46,21,75,291,45,24,28,142,44,27,14,318,40*75
2017-12-01 12:05:01 1512147901.734765: $GPGSV,3,3,12,29,15,192,32,05,07,084,00,04,05,135,00,138,38,213,45*46
2017-12-01 12:05:01 1512147901.848157: $GPZDA,170502.00,01,12,2017,00,00*61
2017-12-01 12:05:01 1512147901.848345: $GPGGA,170502,3946.9614,N,08404.9833,W,2,10,0.80,294.85,M,-33.324,M,,*7A
2017-12-01 12:05:01 1512147901.848483: $GPRMC,170502,A,3946.9614,N,08404.9833,W,0.0000,0.000,011217,,*31
2017-12-01 12:05:01 1512147901.848547: $GPGSA,A,3,10,13,15,18,20,21,24,27,29,138,,,2.0,0.8,1.5*01
2017-12-01 12:05:02 1512147902.381284: $GPZDA,170503.00,01,12,2017,00,00*60
2017-12-01 12:05:02 1512147902.381507: $GPGGA,170503,3946.9610,N,08404.9834,W,2,10,0.80,295.61,M,-33.324,M,,*73
2017-12-01 12:05:02 1512147902.381576: $GPRMC,170503,A,3946.9610,N,08404.9834,W,0.0000,0.000,011217,,*33
2017-12-01 12:05:02 1512147902.381638: $GPGSA,A,3,10,13,15,18,20,21,24,27,29,138,,,2.0,0.8,1.5*01
2017-12-01 12:05:03 1512147903.386041: $GPZDA,170504.00,01,12,2017,00,00*67
2017-12-01 12:05:03 1512147903.386223: $GPGGA,170504,3946.9610,N,08404.9834,W,2,10,0.80,295.61,M,-33.324,M,,*74
2017-12-01 12:05:03 1512147903.386290: $GPRMC,170504,A,3946.9610,N,08404.9834,W,0.0000,0.000,011217,,*34
2017-12-01 12:05:03 1512147903.386352: $GPGSA,A,3,10,13,15,18,20,21,24,27,29,138,,,2.0,0.8,1.5*01
2017-12-01 12:05:04 1512147904.719851: $GPGSV,3,1,12,10,19,279,40,13,34,046,44,15,67,055,44,18,50,294,46*7A
2017-12-01 12:05:04 1512147904.720044: $GPGSV,3,2,12,20,56,064,46,21,75,291,45,24,28,142,44,27,14,318,41*74
2017-12-01 12:05:04 1512147904.720112: $GPGSV,3,3,12,29,15,192,32,05,07,084,00,04,05,135,00,138,38,213,46*45
2017-12-01 12:05:04 1512147904.833268: $GPZDA,170505.00,01,12,2017,00,00*66
2017-12-01 12:05:04 1512147904.833440: $GPGGA,170505,3946.9610,N,08404.9834,W,2,10,0.80,295.61,M,-33.324,M,,*75
2017-12-01 12:05:04 1512147904.833507: $GPRMC,170505,A,3946.9610,N,08404.9834,W,0.0000,0.000,011217,,*35
2017-12-01 12:05:04 1512147904.833568: $GPGSA,A,3,10,13,15,18,20,21,24,27,29,138,,,2.0,0.8,1.5*01
2017-12-01 12:05:05 1512147905.381948: $GPZDA,170506.00,01,12,2017,00,00*65
2017-12-01 12:05:05 1512147905.386717: $GPGGA,170506,3946.9610,N,08404.9834,W,2,10,0.80,295.61,M,-33.324,M,,*76
2017-12-01 12:05:05 1512147905.386856: $GPRMC,170506,A,3946.9610,N,08404.9834,W,0.0000,0.000,011217,,*36
2017-12-01 12:05:05 1512147905.386948: $GPGSA,A,3,10,13,15,18,20,21,24,27,29,138,,,2.0,0.8,1.5*01
