2018-01-11 20:04:44 1515719084.756030: {"class":"VERSION","release":"3.16","rev":"3.16-4","proto_major":3,"proto_minor":11}
2018-01-11 20:04:44 1515719084.756367: {"class":"DEVICES","devices":[{"class":"DEVICE","path":"/dev/ttyUSB0","driver":"SiRF","subtype":"9\u0006GSD4e_4.1.2-P1_RPATCH.05-F-GPS-4R-1510281 11/03/2015 307","activated":"2018-01-12T01:04:44.500Z","flags":1,"native":1,"bps":4800,"parity":"N","stopbits":1,"cycle":1.00}]}
2018-01-11 20:04:44 1515719084.756480: {"class":"WATCH","enable":true,"json":false,"nmea":true,"raw":0,"scaled":false,"timing":false,"split24":false,"pps":false}
2018-01-11 20:04:45 1515719085.364951: $GPZDA,010446.00,12,01,2018,00,00*68
2018-01-11 20:04:45 1515719085.365108: $GPGGA,010446,3946.9592,N,08404.9830,W,2,10,0.80,298.11,M,-33.324,M,,*73
2018-01-11 20:04:45 1515719085.365173: $GPRMC,010446,A,3946.9592,N,08404.9830,W,0.0000,0.000,120118,,*36
2018-01-11 20:04:45 1515719085.365234: $GPGSA,A,3,7,8,9,11,16,23,27,28,30,138,,,4.0,0.8,3.5*3E
2018-01-11 20:04:46 1515719086.717936: $GPGSV,3,1,11,07,52,313,39,08,71,141,46,09,50,234,44,11,17,169,44*79
2018-01-11 20:04:46 1515719086.718108: $GPGSV,3,2,11,16,25,058,45,23,32,190,46,27,50,055,51,28,12,256,41*77
2018-01-11 20:04:46 1515719086.718175: $GPGSV,3,3,11,30,26,304,32,26,01,070,00,138,38,213,45*7A
2018-01-11 20:04:46 1515719086.831562: $GPZDA,010447.00,12,01,2018,00,00*69
2018-01-11 20:04:46 1515719086.831728: $GPGGA,010447,3946.9592,N,08404.9830,W,2,10,0.80,298.11,M,-33.324,M,,*72
2018-01-11 20:04:46 1515719086.831792: $GPRMC,010447,A,3946.9592,N,08404.9830,W,0.0000,0.000,120118,,*37
2018-01-11 20:04:46 1515719086.831852: $GPGSA,A,3,7,8,9,11,16,23,27,28,30,138,,,4.0,0.8,3.5*3E
2018-01-11 20:04:47 1515719087.456911: $GPZDA,010448.00,12,01,2018,00,00*66
2018-01-11 20:04:47 1515719087.457050: $GPGGA,010448,3946.9596,N,08404.9823,W,2,10,0.80,298.83,M,-33.324,M,,*70
2018-01-11 20:04:47 1515719087.457115: $GPRMC,010448,A,3946.9596,N,08404.9823,W,0.0000,0.000,120118,,*3E
2018-01-11 20:04:47 1515719087.457175: $GPGSA,A,3,7,8,9,11,16,23,27,28,30,138,,,4.0,0.8,3.5*3E
2018-01-11 20:04:48 1515719088.366551: $GPZDA,010449.00,12,01,2018,00,00*67
2018-01-11 20:04:48 1515719088.366734: $GPGGA,010449,3946.9592,N,08404.9824,W,2,10,0.80,299.59,M,-33.324,M,,*74
2018-01-11 20:04:48 1515719088.366802: $GPRMC,010449,A,3946.9592,N,08404.9824,W,0.0000,0.000,120118,,*3C
2018-01-11 20:04:48 1515719088.366862: $GPGSA,A,3,7,8,9,11,16,23,27,28,30,138,,,4.0,0.8,3.5*3E
2018-01-11 20:04:49 1515719089.703260: $GPGSV,3,1,11,07,52,313,39,08,71,141,46,09,50,234,44,11,17,169,44*79
2018-01-11 20:04:49 1515719089.703423: $GPGSV,3,2,11,16,25,058,45,23,32,190,46,27,50,055,51,28,12,256,41*77
2018-01-11 20:04:49 1515719089.703490: $GPGSV,3,3,11,30,26,304,32,26,01,070,00,138,38,213,45*7A
2018-01-11 20:04:49 1515719089.816888: $GPZDA,010450.00,12,01,2018,00,00*6F
2018-01-11 20:04:49 1515719089.817043: $GPGGA,010450,3946.9592,N,08404.9824,W,2,10,0.80,299.59,M,-33.324,M,,*7C
2018-01-11 20:04:49 1515719089.817107: $GPRMC,010450,A,3946.9592,N,08404.9824,W,0.0000,0.000,120118,,*34
2018-01-11 20:04:49 1515719089.817167: $GPGSA,A,3,7,8,9,11,16,23,27,28,30,138,,,4.0,0.8,3.5*3E
2018-01-11 20:04:50 1515719090.365273: $GPZDA,010451.00,12,01,2018,00,00*6E
2018-01-11 20:04:50 1515719090.365431: $GPGGA,010451,3946.9592,N,08404.9824,W,2,10,0.80,299.59,M,-33.324,M,,*7D
2018-01-11 20:04:50 1515719090.365496: $GPRMC,010451,A,3946.9592,N,08404.9824,W,0.0000,0.000,120118,,*35
2018-01-11 20:04:50 1515719090.365557: $GPGSA,A,3,7,8,9,11,16,23,27,28,30,138,,,4.0,0.8,3.5*3E
2018-01-11 20:04:51 1515719091.364894: $GPZDA,010452.00,12,01,2018,00,00*6D
2018-01-11 20:04:51 1515719091.365052: $GPGGA,010452,3946.9592,N,08404.9824,W,2,10,0.80,299.59,M,-33.324,M,,*7E
2018-01-11 20:04:51 1515719091.365117: $GPRMC,010452,A,3946.9592,N,08404.9824,W,0.0000,0.000,120118,,*36
2018-01-11 20:04:51 1515719091.365177: $GPGSA,A,3,7,8,9,11,16,23,27,28,30,138,,,4.0,0.8,3.5*3E
2018-01-11 20:04:52 1515719092.701147: $GPGSV,3,1,11,07,52,313,40,08,71,141,46,09,50,234,44,11,17,169,44*77
2018-01-11 20:04:52 1515719092.701299: $GPGSV,3,2,11,16,25,058,46,23,32,190,46,27,50,055,51,28,12,256,41*74
2018-01-11 20:04:52 1515719092.701410: $GPGSV,3,3,11,30,26,304,32,26,01,070,00,138,38,213,45*7A
2018-01-11 20:04:52 1515719092.814731: $GPZDA,010453.00,12,01,2018,00,00*6C
2018-01-11 20:04:52 1515719092.814891: $GPGGA,010453,3946.9592,N,08404.9824,W,2,10,0.80,299.59,M,-33.324,M,,*7F
2018-01-11 20:04:52 1515719092.814955: $GPRMC,010453,A,3946.9592,N,08404.9824,W,0.0000,0.000,120118,,*37
2018-01-11 20:04:52 1515719092.815015: $GPGSA,A,3,7,8,9,11,16,23,27,28,30,138,,,4.0,0.8,3.5*3E
2018-01-11 20:04:53 1515719093.381881: $GPZDA,010454.00,12,01,2018,00,00*6B
2018-01-11 20:04:53 1515719093.382038: $GPGGA,010454,3946.9592,N,08404.9824,W,2,10,0.80,299.59,M,-33.324,M,,*78
2018-01-11 20:04:53 1515719093.382103: $GPRMC,010454,A,3946.9592,N,08404.9824,W,0.0000,0.000,120118,,*30
2018-01-11 20:04:53 1515719093.382163: $GPGSA,A,3,7,8,9,11,16,23,27,28,30,138,,,4.0,0.8,3.5*3E
2018-01-11 20:04:54 1515719094.382767: $GPZDA,010455.00,12,01,2018,00,00*6A
2018-01-11 20:04:54 1515719094.382929: $GPGGA,010455,3946.9592,N,08404.9824,W,2,10,0.80,299.59,M,-33.324,M,,*79
2018-01-11 20:04:54 1515719094.382994: $GPRMC,010455,A,3946.9592,N,08404.9824,W,0.0000,0.000,120118,,*31
2018-01-11 20:04:54 1515719094.383054: $GPGSA,A,3,7,8,9,11,16,23,27,28,30,138,,,4.0,0.8,3.5*3E
2018-01-11 20:04:55 1515719095.695704: $GPGSV,3,1,11,07,52,313,40,08,71,141,46,09,50,234,44,11,17,169,44*77
2018-01-11 20:04:55 1515719095.695864: $GPGSV,3,2,11,16,25,058,46,23,32,190,46,27,50,055,50,28,12,256,41*75
2018-01-11 20:04:55 1515719095.695932: $GPGSV,3,3,11,30,26,304,32,26,01,070,00,138,38,213,45*7A
