2017-11-16 17:02:56 1510869776.630477: {"class":"VERSION","release":"3.17","rev":"3.17","proto_major":3,"proto_minor":12}
2017-11-16 17:02:56 1510869776.630925: {"class":"DEVICES","devices":[{"class":"DEVICE","path":"/dev/ttyUSB0","driver":"SiRF","subtype":"9\u0006GSD4e_4.1.2-P1_RPATCH.05-F-GPS-4R-1510281 11/03/2015 307","activated":"2017-11-16T22:02:56.537Z","flags":1,"native":1,"bps":4800,"parity":"N","stopbits":1,"cycle":1.00}]}
2017-11-16 17:02:56 1510869776.631044: {"class":"WATCH","enable":true,"json":false,"nmea":true,"raw":0,"scaled":false,"timing":false,"split24":false,"pps":false}
2017-11-16 17:02:57 1510869777.733702: $GPGSV,3,1,12,01,17,312,42,10,62,139,49,11,11,294,37,12,25,063,50*75
2017-11-16 17:02:57 1510869777.733875: $GPGSV,3,2,12,14,59,303,46,18,30,139,42,25,34,106,45,31,42,216,48*7C
2017-11-16 17:02:57 1510869777.733935: $GPGSV,3,3,12,32,69,349,51,22,08,312,31,24,08,046,32,138,38,213,44*48
2017-11-16 17:02:57 1510869777.846988: $GPZDA,220256.00,16,11,2017,00,00*64
2017-11-16 17:02:57 1510869777.847161: $GPGGA,220256,3946.9598,N,08404.9823,W,2,12,0.80,310.91,M,-33.324,M,,*76
2017-11-16 17:02:57 1510869777.847223: $GPRMC,220256,A,3946.9598,N,08404.9823,W,0.0000,0.000,161117,,*32
2017-11-16 17:02:57 1510869777.847278: $GPGSA,A,3,1,10,11,12,14,18,25,31,32,22,24,138,1.6,0.8,1.3*38
2017-11-16 17:02:58 1510869778.398119: $GPZDA,220257.00,16,11,2017,00,00*65
2017-11-16 17:02:58 1510869778.398308: $GPGGA,220257,3946.9598,N,08404.9823,W,2,12,0.80,310.91,M,-33.324,M,,*77
2017-11-16 17:02:58 1510869778.398370: $GPRMC,220257,A,3946.9598,N,08404.9823,W,0.0000,0.000,161117,,*33
2017-11-16 17:02:58 1510869778.398427: $GPGSA,A,3,1,10,11,12,14,18,25,31,32,22,24,138,1.6,0.8,1.3*38
2017-11-16 17:02:59 1510869779.396291: $GPZDA,220258.00,16,11,2017,00,00*6A
2017-11-16 17:02:59 1510869779.396451: $GPGGA,220258,3946.9598,N,08404.9823,W,2,12,0.80,310.91,M,-33.324,M,,*78
2017-11-16 17:02:59 1510869779.396513: $GPRMC,220258,A,3946.9598,N,08404.9823,W,0.0000,0.000,161117,,*3C
2017-11-16 17:02:59 1510869779.396569: $GPGSA,A,3,1,10,11,12,14,18,25,31,32,22,24,138,1.6,0.8,1.3*38
2017-11-16 17:03:00 1510869780.749683: $GPGSV,3,1,12,01,17,312,42,10,62,139,49,11,11,294,36,12,25,063,50*74
2017-11-16 17:03:00 1510869780.749873: $GPGSV,3,2,12,14,59,303,46,18,30,139,42,25,34,106,45,31,42,216,48*7C
2017-11-16 17:03:00 1510869780.749936: $GPGSV,3,3,12,32,69,349,50,22,08,312,20,24,08,046,32,138,38,213,45*48
2017-11-16 17:03:00 1510869780.862875: $GPZDA,220259.00,16,11,2017,00,00*6B
2017-11-16 17:03:00 1510869780.863043: $GPGGA,220259,3946.9598,N,08404.9823,W,2,12,0.80,310.91,M,-33.324,M,,*79
2017-11-16 17:03:00 1510869780.863105: $GPRMC,220259,A,3946.9598,N,08404.9823,W,0.0000,0.000,161117,,*3D
2017-11-16 17:03:00 1510869780.863161: $GPGSA,A,3,1,10,11,12,14,18,25,31,32,22,24,138,1.6,0.8,1.3*38
2017-11-16 17:03:01 1510869781.488658: $GPZDA,220300.00,16,11,2017,00,00*66
2017-11-16 17:03:01 1510869781.488833: $GPGGA,220300,3946.9598,N,08404.9823,W,2,12,0.80,310.91,M,-33.324,M,,*74
2017-11-16 17:03:01 1510869781.488894: $GPRMC,220300,A,3946.9598,N,08404.9823,W,0.0000,0.000,161117,,*30
2017-11-16 17:03:01 1510869781.488950: $GPGSA,A,3,1,10,11,12,14,18,25,31,32,22,24,138,1.6,0.8,1.3*38
2017-11-16 17:03:02 1510869782.411597: $GPZDA,220301.00,16,11,2017,00,00*67
2017-11-16 17:03:02 1510869782.411758: $GPGGA,220301,3946.9598,N,08404.9823,W,2,12,0.80,310.91,M,-33.324,M,,*75
2017-11-16 17:03:02 1510869782.411818: $GPRMC,220301,A,3946.9598,N,08404.9823,W,0.0000,0.000,161117,,*31
2017-11-16 17:03:02 1510869782.411874: $GPGSA,A,3,1,10,11,12,14,18,25,31,32,22,24,138,1.6,0.8,1.3*38
2017-11-16 17:03:03 1510869783.746328: $GPGSV,3,1,12,01,17,312,43,10,62,139,49,11,11,294,36,12,25,063,50*75
2017-11-16 17:03:03 1510869783.746501: $GPGSV,3,2,12,14,59,303,46,18,30,139,42,25,34,106,45,31,42,216,47*73
2017-11-16 17:03:03 1510869783.746563: $GPGSV,3,3,12,32,69,349,51,22,08,312,28,24,08,046,32,138,38,213,44*40
2017-11-16 17:03:03 1510869783.859366: $GPZDA,220302.00,16,11,2017,00,00*64
2017-11-16 17:03:03 1510869783.859533: $GPGGA,220302,3946.9598,N,08404.9823,W,2,12,0.80,310.91,M,-33.324,M,,*76
2017-11-16 17:03:03 1510869783.859645: $GPRMC,220302,A,3946.9598,N,08404.9823,W,0.0000,0.000,161117,,*32
2017-11-16 17:03:03 1510869783.859704: $GPGSA,A,3,1,10,11,12,14,18,25,31,32,22,24,138,1.6,0.8,1.3*38
2017-11-16 17:03:04 1510869784.416585: $GPZDA,220303.00,16,11,2017,00,00*65
2017-11-16 17:03:04 1510869784.416747: $GPGGA,220303,3946.9598,N,08404.9823,W,2,12,0.80,310.91,M,-33.324,M,,*77
2017-11-16 17:03:04 1510869784.416807: $GPRMC,220303,A,3946.9598,N,08404.9823,W,0.0000,0.000,161117,,*33
2017-11-16 17:03:04 1510869784.416864: $GPGSA,A,3,1,10,11,12,14,18,25,31,32,22,24,138,1.6,0.8,1.3*38
2017-11-16 17:03:05 1510869785.417601: $GPZDA,220304.00,16,11,2017,00,00*62
2017-11-16 17:03:05 1510869785.417763: $GPGGA,220304,3946.9598,N,08404.9823,W,2,12,0.80,310.91,M,-33.324,M,,*70
2017-11-16 17:03:05 1510869785.417824: $GPRMC,220304,A,3946.9598,N,08404.9823,W,0.0000,0.000,161117,,*34
2017-11-16 17:03:05 1510869785.417881: $GPGSA,A,3,1,10,11,12,14,18,25,31,32,22,24,138,1.6,0.8,1.3*38
