2017-11-15 17:35:11 1510785311.707667: {"class":"VERSION","release":"3.17","rev":"3.17","proto_major":3,"proto_minor":12}
2017-11-15 17:35:11 1510785311.708133: {"class":"DEVICES","devices":[{"class":"DEVICE","path":"/dev/ttyUSB0","driver":"SiRF","subtype":"9\u0006GSD4e_4.1.2-P1_RPATCH.05-F-GPS-4R-1510281 11/03/2015 307","activated":"2017-11-15T22:35:11.494Z","flags":1,"native":1,"bps":4800,"parity":"N","stopbits":1,"cycle":1.00}]}
2017-11-15 17:35:11 1510785311.708246: {"class":"WATCH","enable":true,"json":false,"nmea":true,"raw":0,"scaled":false,"timing":false,"split24":false,"pps":false}
2017-11-15 17:35:12 1510785312.689608: $GPGSV,3,1,12,10,49,148,04,25,39,091,18,32,69,025,24,14,66,327,21*7E
2017-11-15 17:35:12 1510785312.689778: $GPGSV,3,2,12,18,19,144,17,12,22,051,09,31,54,225,18,22,18,312,16*72
2017-11-15 17:35:12 1510785312.689837: $GPGSV,3,3,12,26,01,183,08,01,21,301,10,11,08,282,00,138,38,213,00*4D
2017-11-15 17:35:12 1510785312.802932: $GPZDA,223511.00,15,11,2017,00,00*60
2017-11-15 17:35:12 1510785312.803097: $GPGGA,223511,3946.9531,N,08404.9529,W,1,08,1.00,303.75,M,-33.324,M,,*7C
2017-11-15 17:35:12 1510785312.803159: $GPRMC,223511,A,3946.9531,N,08404.9529,W,0.4207,219.347,151117,,*39
2017-11-15 17:35:12 1510785312.803215: $GPGSA,A,3,25,32,14,18,12,31,22,26,,,,,3.4,1.0,2.9*30
2017-11-15 17:35:13 1510785313.353905: $GPZDA,223512.00,15,11,2017,00,00*63
2017-11-15 17:35:13 1510785313.354060: $GPGGA,223512,3946.9531,N,08404.9529,W,1,08,1.00,303.75,M,-33.324,M,,*7F
2017-11-15 17:35:13 1510785313.354121: $GPRMC,223512,A,3946.9531,N,08404.9529,W,0.4207,219.347,151117,,*3A
2017-11-15 17:35:13 1510785313.354177: $GPGSA,A,3,25,32,14,18,12,31,22,26,,,,,3.4,1.0,2.9*30
2017-11-15 17:35:14 1510785314.353490: $GPZDA,223513.00,15,11,2017,00,00*62
2017-11-15 17:35:14 1510785314.353651: $GPGGA,223513,3946.9532,N,08404.9536,W,1,08,1.00,303.67,M,-33.324,M,,*70
2017-11-15 17:35:14 1510785314.353711: $GPRMC,223513,A,3946.9532,N,08404.9536,W,0.5774,207.515,151117,,*38
2017-11-15 17:35:14 1510785314.353766: $GPGSA,A,3,25,32,14,18,12,31,22,26,,,,,3.4,1.0,2.9*30
2017-11-15 17:35:15 1510785315.668024: $GPGSV,3,1,12,10,49,148,04,25,39,091,19,32,69,025,23,14,66,327,22*7B
2017-11-15 17:35:15 1510785315.668195: $GPGSV,3,2,12,18,19,144,17,12,22,051,10,31,54,225,18,22,18,312,16*7A
2017-11-15 17:35:15 1510785315.668254: $GPGSV,3,3,12,26,01,183,09,01,21,301,14,11,08,282,00,138,38,213,00*48
2017-11-15 17:35:15 1510785315.781356: $GPZDA,223514.00,15,11,2017,00,00*65
2017-11-15 17:35:15 1510785315.781515: $GPGGA,223514,3946.9531,N,08404.9529,W,1,09,1.00,303.75,M,-33.324,M,,*78
2017-11-15 17:35:15 1510785315.781575: $GPRMC,223514,A,3946.9531,N,08404.9529,W,0.3423,184.197,151117,,*33
2017-11-15 17:35:15 1510785315.781631: $GPGSA,A,3,25,32,14,18,12,31,22,26,1,,,,3.4,1.0,2.9*01
2017-11-15 17:35:16 1510785316.406842: $GPZDA,223515.00,15,11,2017,00,00*64
2017-11-15 17:35:16 1510785316.407008: $GPGGA,223515,3946.9535,N,08404.9528,W,1,09,1.00,302.98,M,-33.324,M,,*7E
2017-11-15 17:35:16 1510785316.407069: $GPRMC,223515,A,3946.9535,N,08404.9528,W,0.3423,4.197,151117,,*3E
2017-11-15 17:35:16 1510785316.407124: $GPGSA,A,3,25,32,14,18,12,31,22,26,1,,,,3.4,1.0,2.9*01
2017-11-15 17:35:17 1510785317.331286: $GPZDA,223516.00,15,11,2017,00,00*67
2017-11-15 17:35:17 1510785317.331453: $GPGGA,223516,3946.9535,N,08404.9528,W,1,09,1.00,302.98,M,-33.324,M,,*7D
2017-11-15 17:35:17 1510785317.331513: $GPRMC,223516,A,3946.9535,N,08404.9528,W,0.4207,39.347,151117,,*0B
2017-11-15 17:35:17 1510785317.331569: $GPGSA,A,3,25,32,14,18,12,31,22,26,1,,,,3.4,1.0,2.9*01
2017-11-15 17:35:18 1510785318.667117: $GPGSV,3,1,12,10,49,148,04,25,39,091,19,32,69,025,23,14,66,327,22*7B
2017-11-15 17:35:18 1510785318.667287: $GPGSV,3,2,12,18,19,144,17,12,22,051,11,31,54,225,17,22,18,312,16*74
2017-11-15 17:35:18 1510785318.667347: $GPGSV,3,3,12,26,01,183,12,01,21,301,15,11,08,282,00,138,38,213,00*43
2017-11-15 17:35:18 1510785318.780481: $GPZDA,223517.00,15,11,2017,00,00*66
2017-11-15 17:35:18 1510785318.780640: $GPGGA,223517,3946.9535,N,08404.9528,W,1,09,1.00,302.98,M,-33.324,M,,*7C
2017-11-15 17:35:18 1510785318.780751: $GPRMC,223517,A,3946.9535,N,08404.9528,W,0.5951,58.684,151117,,*0E
2017-11-15 17:35:18 1510785318.780809: $GPGSA,A,3,25,32,14,18,12,31,22,26,1,,,,3.4,1.0,2.9*01
2017-11-15 17:35:19 1510785319.331333: $GPZDA,223518.00,15,11,2017,00,00*69
2017-11-15 17:35:19 1510785319.331495: $GPGGA,223518,3946.9538,N,08404.9520,W,1,09,1.00,302.30,M,-33.324,M,,*74
2017-11-15 17:35:19 1510785319.331555: $GPRMC,223518,A,3946.9538,N,08404.9520,W,0.5774,27.515,151117,,*0E
2017-11-15 17:35:19 1510785319.331612: $GPGSA,A,3,25,32,14,18,12,31,22,26,1,,,,3.4,1.0,2.9*01
2017-11-15 17:35:20 1510785320.329735: $GPZDA,223519.00,15,11,2017,00,00*68
2017-11-15 17:35:20 1510785320.329901: $GPGGA,223519,3946.9542,N,08404.9520,W,1,09,1.00,302.94,M,-33.324,M,,*76
2017-11-15 17:35:20 1510785320.329963: $GPRMC,223519,A,3946.9542,N,08404.9520,W,0.7278,23.636,151117,,*0F
2017-11-15 17:35:20 1510785320.330022: $GPGSA,A,3,25,32,14,18,12,31,22,26,1,,,,3.4,1.0,2.9*01
2017-11-15 17:35:21 1510785321.664967: $GPGSV,3,1,12,10,49,148,00,25,39,091,20,32,69,025,23,14,66,327,22*75
2017-11-15 17:35:21 1510785321.665150: $GPGSV,3,2,12,18,19,144,17,12,22,051,11,31,54,225,16,22,18,312,16*75
2017-11-15 17:35:21 1510785321.665211: $GPGSV,3,3,12,26,01,183,13,01,21,301,15,11,08,282,00,138,38,213,00*42
2017-11-15 17:35:21 1510785321.778390: $GPZDA,223520.00,15,11,2017,00,00*62
2017-11-15 17:35:21 1510785321.778551: $GPGGA,223520,3946.9545,N,08404.9520,W,1,09,1.00,302.17,M,-33.324,M,,*70
2017-11-15 17:35:21 1510785321.778613: $GPRMC,223520,A,3946.9545,N,08404.9520,W,1.0567,17.448,151117,,*01
2017-11-15 17:35:21 1510785321.778669: $GPGSA,A,3,25,32,14,18,12,31,22,26,1,,,,3.4,1.0,2.9*01
2017-11-15 17:35:22 1510785322.330706: $GPZDA,223521.00,15,11,2017,00,00*63
2017-11-15 17:35:22 1510785322.330876: $GPGGA,223521,3946.9550,N,08404.9520,W,1,09,1.00,302.81,M,-33.324,M,,*7A
2017-11-15 17:35:22 1510785322.330942: $GPRMC,223521,A,3946.9550,N,08404.9520,W,1.2361,14.852,151117,,*02
2017-11-15 17:35:22 1510785322.331002: $GPGSA,A,3,25,32,14,18,12,31,22,26,1,,,,3.4,1.0,2.9*01
2017-11-15 17:35:23 1510785323.330085: $GPZDA,223522.00,15,11,2017,00,00*60
2017-11-15 17:35:23 1510785323.330245: $GPGGA,223522,3946.9553,N,08404.9512,W,1,09,1.00,302.13,M,-33.324,M,,*70
2017-11-15 17:35:23 1510785323.330304: $GPRMC,223522,A,3946.9553,N,08404.9512,W,0.7278,23.636,151117,,*06
2017-11-15 17:35:23 1510785323.330359: $GPGSA,A,3,25,32,14,18,12,31,22,26,1,,,,3.4,1.0,2.9*01
2017-11-15 17:35:24 1510785324.666214: $GPGSV,3,1,12,10,49,148,00,25,39,091,20,32,69,025,23,14,66,327,22*75
2017-11-15 17:35:24 1510785324.666377: $GPGSV,3,2,12,18,19,144,17,12,22,051,11,31,54,225,15,22,18,312,16*76
2017-11-15 17:35:24 1510785324.666437: $GPGSV,3,3,12,26,01,183,15,01,21,301,16,11,08,282,00,138,38,213,00*47
2017-11-15 17:35:24 1510785324.779329: $GPZDA,223523.00,15,11,2017,00,00*61
2017-11-15 17:35:24 1510785324.779483: $GPGGA,223523,3946.9553,N,08404.9512,W,1,09,1.00,302.13,M,-33.324,M,,*71
2017-11-15 17:35:24 1510785324.779543: $GPRMC,223523,A,3946.9553,N,08404.9512,W,0.7278,23.636,151117,,*07
2017-11-15 17:35:24 1510785324.779598: $GPGSA,A,3,25,32,14,18,12,31,22,26,1,,,,3.4,1.0,2.9*01
2017-11-15 17:35:25 1510785325.330219: $GPZDA,223524.00,15,11,2017,00,00*66
2017-11-15 17:35:25 1510785325.330366: $GPGGA,223524,3946.9557,N,08404.9512,W,1,09,1.00,302.77,M,-33.324,M,,*70
2017-11-15 17:35:25 1510785325.330425: $GPRMC,223524,A,3946.9557,N,08404.9512,W,0.5774,27.515,151117,,*09
2017-11-15 17:35:25 1510785325.330480: $GPGSA,A,3,25,32,14,18,12,31,22,26,1,,,,3.4,1.0,2.9*01
2017-11-15 17:35:26 1510785326.330696: $GPZDA,223525.00,15,11,2017,00,00*67
2017-11-15 17:35:26 1510785326.330871: $GPGGA,223525,3946.9560,N,08404.9504,W,1,09,1.00,302.08,M,-33.324,M,,*7A
2017-11-15 17:35:26 1510785326.330932: $GPRMC,223525,A,3946.9560,N,08404.9504,W,0.8054,68.645,151117,,*0E
2017-11-15 17:35:26 1510785326.330988: $GPGSA,A,3,25,32,14,18,12,31,22,26,1,,,,3.4,1.0,2.9*01
2017-11-15 17:35:27 1510785327.666320: $GPGSV,3,1,12,10,49,148,00,25,39,091,20,32,69,025,23,14,66,327,23*74
2017-11-15 17:35:27 1510785327.666538: $GPGSV,3,2,12,18,19,144,17,12,22,051,12,31,54,225,14,22,18,312,16*74
2017-11-15 17:35:27 1510785327.666599: $GPGSV,3,3,12,26,01,183,14,01,21,301,16,11,08,282,00,135,23,238,00*48
2017-11-15 17:35:27 1510785327.779642: $GPZDA,223526.00,15,11,2017,00,00*64
2017-11-15 17:35:27 1510785327.779800: $GPGGA,223526,3946.9560,N,08404.9497,W,1,09,1.00,302.16,M,-33.324,M,,*7D
2017-11-15 17:35:27 1510785327.779860: $GPRMC,223526,A,3946.9560,N,08404.9497,W,1.1902,58.684,151117,,*0A
2017-11-15 17:35:27 1510785327.779916: $GPGSA,A,3,25,32,14,18,12,31,22,26,1,,,,3.4,1.0,2.9*01
2017-11-15 17:35:28 1510785328.330592: $GPZDA,223527.00,15,11,2017,00,00*65
2017-11-15 17:35:28 1510785328.330766: $GPGGA,223527,3946.9564,N,08404.9497,W,1,09,1.00,302.80,M,-33.324,M,,*77
2017-11-15 17:35:28 1510785328.330827: $GPRMC,223527,A,3946.9564,N,08404.9497,W,1.0018,50.691,151117,,*00
2017-11-15 17:35:28 1510785328.330882: $GPGSA,A,3,25,32,14,18,12,31,22,26,1,,,,3.4,1.0,2.9*01
2017-11-15 17:35:29 1510785329.330299: $GPZDA,223528.00,15,11,2017,00,00*6A
2017-11-15 17:35:29 1510785329.330483: $GPGGA,223528,3946.9567,N,08404.9489,W,1,09,1.00,302.12,M,-33.324,M,,*7F
2017-11-15 17:35:29 1510785329.330544: $GPRMC,223528,A,3946.9567,N,08404.9489,W,0.4844,93.794,151117,,*0C
2017-11-15 17:35:29 1510785329.330599: $GPGSA,A,3,25,32,14,18,12,31,22,26,1,,,,3.4,1.0,2.9*01
2017-11-15 17:35:30 1510785330.667196: $GPGSV,3,1,12,10,49,148,00,25,39,091,21,32,69,025,23,14,66,327,23*75
2017-11-15 17:35:30 1510785330.667370: $GPGSV,3,2,12,18,19,144,16,12,22,051,12,31,54,225,15,22,18,312,16*74
2017-11-15 17:35:30 1510785330.667430: $GPGSV,3,3,12,26,01,183,13,01,21,301,16,11,08,282,00,135,23,238,00*4F
2017-11-15 17:35:30 1510785330.780472: $GPZDA,223529.00,15,11,2017,00,00*6B
2017-11-15 17:35:30 1510785330.780630: $GPGGA,223529,3946.9567,N,08404.9489,W,1,09,1.00,302.12,M,-33.324,M,,*7E
2017-11-15 17:35:30 1510785330.780689: $GPRMC,223529,A,3946.9567,N,08404.9489,W,0.5912,129.173,151117,,*31
2017-11-15 17:35:30 1510785330.780745: $GPGSA,A,3,25,32,14,18,12,31,22,26,1,,,,3.4,1.0,2.9*01
2017-11-15 17:35:31 1510785331.405847: $GPZDA,223530.00,15,11,2017,00,00*63
2017-11-15 17:35:31 1510785331.406010: $GPGGA,223530,3946.9563,N,08404.9489,W,1,09,1.00,301.48,M,-33.324,M,,*7E
2017-11-15 17:35:31 1510785331.406070: $GPRMC,223530,A,3946.9563,N,08404.9489,W,0.0000,0.000,151117,,*3D
2017-11-15 17:35:31 1510785331.406124: $GPGSA,A,3,25,32,14,18,12,31,22,26,1,,,,3.4,1.0,2.9*01
2017-11-15 17:35:32 1510785332.330558: $GPZDA,223531.00,15,11,2017,00,00*62
2017-11-15 17:35:32 1510785332.330718: $GPGGA,223531,3946.9562,N,08404.9483,W,1,09,1.00,301.56,M,-33.324,M,,*7B
2017-11-15 17:35:32 1510785332.330779: $GPRMC,223531,A,3946.9562,N,08404.9483,W,0.3423,184.197,151117,,*33
2017-11-15 17:35:32 1510785332.330852: $GPGSA,A,3,25,32,14,18,12,31,22,26,1,,,,3.4,1.0,2.9*01
2017-11-15 17:35:33 1510785333.662470: $GPGSV,3,1,12,10,49,148,00,25,39,091,06,32,69,025,07,14,66,327,07*70
2017-11-15 17:35:33 1510785333.662605: $GPGSV,3,2,12,18,19,144,04,12,22,051,01,31,54,225,01,22,18,312,04*73
2017-11-15 17:35:33 1510785333.662664: $GPGSV,3,3,12,26,01,183,01,01,21,301,05,11,08,282,00,135,23,238,00*4E
2017-11-15 17:35:33 1510785333.775889: $GPZDA,223532.00,15,11,2017,00,00*61
2017-11-15 17:35:33 1510785333.776049: $GPGGA,223532,3946.9562,N,08404.9483,W,1,06,2.20,301.56,M,-33.324,M,,*76
2017-11-15 17:35:33 1510785333.776109: $GPRMC,223532,A,3946.9562,N,08404.9483,W,0.8414,219.347,151117,,*37
2017-11-15 17:35:33 1510785333.776164: $GPGSA,A,3,25,32,14,18,22,1,,,,,,,3.4,2.2,2.9*05
2017-11-15 17:35:34 1510785334.329193: $GPZDA,223533.00,15,11,2017,00,00*60
2017-11-15 17:35:34 1510785334.329357: $GPGGA,223533,3946.9559,N,08404.9483,W,1,06,2.20,302.32,M,-33.324,M,,*7E
2017-11-15 17:35:34 1510785334.329417: $GPRMC,223533,A,3946.9559,N,08404.9483,W,0.8414,219.347,151117,,*3E
2017-11-15 17:35:34 1510785334.329473: $GPGSA,A,3,25,32,14,18,22,1,,,,,,,3.4,2.2,2.9*05
2017-11-15 17:35:35 1510785335.327614: $GPZDA,223534.00,15,11,2017,00,00*67
2017-11-15 17:35:35 1510785335.327820: $GPGGA,223534,3946.9555,N,08404.9483,W,1,06,2.20,301.68,M,-33.324,M,,*79
2017-11-15 17:35:35 1510785335.327883: $GPRMC,223534,A,3946.9555,N,08404.9483,W,0.8709,183.298,151117,,*39
2017-11-15 17:35:35 1510785335.327938: $GPGSA,A,3,25,32,14,18,22,1,,,,,,,3.4,2.2,2.9*05
2017-11-15 17:35:36 1510785336.664071: $GPGSV,3,1,12,31,54,225,00,25,39,091,21,32,69,025,22,14,66,327,23*73
2017-11-15 17:35:36 1510785336.664241: $GPGSV,3,2,12,18,19,144,13,12,22,051,01,10,49,148,00,22,18,312,16*70
2017-11-15 17:35:36 1510785336.664301: $GPGSV,3,3,12,26,01,183,01,01,21,301,17,11,08,282,00,135,23,238,00*4D
2017-11-15 17:35:36 1510785336.777625: $GPZDA,223535.00,15,11,2017,00,00*66
2017-11-15 17:35:36 1510785336.777744: $GPGGA,223535,3946.9555,N,08404.9483,W,1,06,2.20,301.68,M,-33.324,M,,*78
2017-11-15 17:35:36 1510785336.777803: $GPRMC,223535,A,3946.9555,N,08404.9483,W,0.9929,212.499,151117,,*39
2017-11-15 17:35:36 1510785336.777858: $GPGSA,A,3,25,32,14,18,22,1,,,,,,,3.4,2.2,2.9*05
2017-11-15 17:35:37 1510785337.350767: $GPZDA,223536.00,15,11,2017,00,00*65
2017-11-15 17:35:37 1510785337.350912: $GPGGA,223536,3946.9551,N,08404.9483,W,1,06,2.20,301.04,M,-33.324,M,,*75
2017-11-15 17:35:37 1510785337.350973: $GPRMC,223536,A,3946.9551,N,08404.9483,W,0.9060,167.792,151117,,*33
2017-11-15 17:35:37 1510785337.351028: $GPGSA,A,3,25,32,14,18,22,1,,,,,,,3.4,2.2,2.9*05
2017-11-15 17:35:38 1510785338.329170: $GPZDA,223537.00,15,11,2017,00,00*64
2017-11-15 17:35:38 1510785338.329335: $GPGGA,223537,3946.9551,N,08404.9483,W,1,06,2.20,301.04,M,-33.324,M,,*74
2017-11-15 17:35:38 1510785338.329396: $GPRMC,223537,A,3946.9551,N,08404.9483,W,0.8359,148.778,151117,,*33
2017-11-15 17:35:38 1510785338.329452: $GPGSA,A,3,25,32,14,18,22,1,,,,,,,3.4,2.2,2.9*05
2017-11-15 17:35:39 1510785339.686190: $GPGSV,3,1,12,10,49,148,12,25,39,091,21,32,69,025,22,14,66,327,23*77
2017-11-15 17:35:39 1510785339.686341: $GPGSV,3,2,12,18,19,144,13,12,22,051,01,31,54,225,00,22,18,312,16*77
2017-11-15 17:35:39 1510785339.686401: $GPGSV,3,3,12,26,01,183,01,01,21,301,17,11,08,282,00,135,23,238,00*4D
2017-11-15 17:35:39 1510785339.799506: $GPZDA,223538.00,15,11,2017,00,00*6B
2017-11-15 17:35:39 1510785339.799675: $GPGGA,223538,3946.9550,N,08404.9476,W,1,06,2.20,301.12,M,-33.324,M,,*77
2017-11-15 17:35:39 1510785339.799736: $GPRMC,223538,A,3946.9550,N,08404.9476,W,0.5857,158.291,151117,,*3C
2017-11-15 17:35:39 1510785339.799792: $GPGSA,A,3,25,32,14,18,22,1,,,,,,,3.4,2.2,2.9*05
2017-11-15 17:35:40 1510785340.351390: $GPZDA,223539.00,15,11,2017,00,00*6A
2017-11-15 17:35:40 1510785340.351597: $GPGGA,223539,3946.9546,N,08404.9476,W,1,06,2.20,300.48,M,-33.324,M,,*7F
2017-11-15 17:35:40 1510785340.351663: $GPRMC,223539,A,3946.9546,N,08404.9476,W,0.7278,203.636,151117,,*3B
2017-11-15 17:35:40 1510785340.351887: $GPGSA,A,3,25,32,14,18,22,1,,,,,,,3.4,2.2,2.9*05
2017-11-15 17:35:41 1510785341.350856: $GPZDA,223540.00,15,11,2017,00,00*64
2017-11-15 17:35:41 1510785341.351024: $GPGGA,223540,3946.9543,N,08404.9477,W,1,06,2.20,301.25,M,-33.324,M,,*7F
2017-11-15 17:35:41 1510785341.351084: $GPRMC,223540,A,3946.9543,N,08404.9477,W,1.6283,201.001,151117,,*35
2017-11-15 17:35:41 1510785341.351139: $GPGSA,A,3,25,32,14,18,22,1,,,,,,,3.4,2.2,2.9*05
