2017-11-15 18:16:25 1510787785.744246: {"class":"VERSION","release":"3.17","rev":"3.17","proto_major":3,"proto_minor":12}
2017-11-15 18:16:25 1510787785.744846: {"class":"DEVICES","devices":[{"class":"DEVICE","path":"/dev/ttyUSB0","driver":"SiRF","subtype":"9\u0006GSD4e_4.1.2-P1_RPATCH.05-F-GPS-4R-1510281 11/03/2015 307","activated":"2017-11-15T23:16:25.675Z","flags":1,"native":1,"bps":4800,"parity":"N","stopbits":1,"cycle":1.00}]}
2017-11-15 18:16:25 1510787785.744986: {"class":"WATCH","enable":true,"json":false,"nmea":true,"raw":0,"scaled":false,"timing":false,"split24":false,"pps":false}
2017-11-15 18:16:26 1510787786.328534: $GPZDA,231625.00,15,11,2017,00,00*67
2017-11-15 18:16:26 1510787786.328682: $GPGGA,231625,3946.9628,N,08404.9661,W,1,06,1.80,304.24,M,-33.324,M,,*7A
2017-11-15 18:16:26 1510787786.328741: $GPRMC,231625,A,3946.9628,N,08404.9661,W,2.2529,357.675,151117,,*3A
2017-11-15 18:16:26 1510787786.328797: $GPGSA,A,3,22,26,31,32,25,14,,,,,,,3.4,1.8,2.9*32
2017-11-15 18:16:27 1510787787.665606: $GPGSV,3,1,11,10,29,154,06,22,34,307,17,01,21,282,04,26,18,180,10*79
2017-11-15 18:16:27 1510787787.665772: $GPGSV,3,2,11,31,73,252,19,32,60,067,22,25,39,066,04,14,70,018,15*73
2017-11-15 18:16:27 1510787787.665831: $GPGSV,3,3,11,03,14,316,00,12,12,036,00,11,02,267,00*4F
2017-11-15 18:16:27 1510787787.778966: $GPZDA,231626.00,15,11,2017,00,00*64
2017-11-15 18:16:27 1510787787.779126: $GPGGA,231626,3946.9635,N,08404.9661,W,1,06,1.80,304.12,M,-33.324,M,,*70
2017-11-15 18:16:27 1510787787.779185: $GPRMC,231626,A,3946.9635,N,08404.9661,W,2.4394,357.853,151117,,*39
2017-11-15 18:16:27 1510787787.779241: $GPGSA,A,3,10,22,26,31,32,14,,,,,,,3.4,1.8,2.9*34
2017-11-15 18:16:28 1510787788.361094: $GPZDA,231627.00,15,11,2017,00,00*65
2017-11-15 18:16:28 1510787788.361262: $GPGGA,231627,3946.9647,N,08404.9660,W,1,06,1.80,304.63,M,-33.324,M,,*73
2017-11-15 18:16:28 1510787788.361322: $GPRMC,231627,A,3946.9647,N,08404.9660,W,2.2914,351.642,151117,,*30
2017-11-15 18:16:28 1510787788.361377: $GPGSA,A,3,10,22,26,31,32,14,,,,,,,3.4,1.8,2.9*34
2017-11-15 18:16:29 1510787789.329833: $GPZDA,231628.00,15,11,2017,00,00*6A
2017-11-15 18:16:29 1510787789.757875: $GPGGA,231628,3946.9655,N,08404.9659,W,1,06,1.80,304.51,M,-33.324,M,,*74
2017-11-15 18:16:29 1510787789.758024: $GPRMC,231628,A,3946.9655,N,08404.9659,W,2.2113,344.262,151117,,*3B
2017-11-15 18:16:29 1510787789.758083: $GPGSA,A,3,10,22,26,31,32,14,,,,,,,3.4,1.8,2.9*34
2017-11-15 18:16:30 1510787790.666468: $GPGSV,3,1,11,10,29,154,07,22,34,307,17,01,21,282,04,26,18,180,10*78
2017-11-15 18:16:30 1510787790.666636: $GPGSV,3,2,11,31,73,252,19,32,60,067,22,25,39,066,06,14,70,018,14*70
2017-11-15 18:16:30 1510787790.666696: $GPGSV,3,3,11,03,14,316,00,12,12,036,00,11,02,267,00*4F
2017-11-15 18:16:30 1510787790.778605: $GPZDA,231629.00,15,11,2017,00,00*6B
2017-11-15 18:16:30 1510787790.778775: $GPGGA,231629,3946.9662,N,08404.9666,W,1,07,1.80,304.31,M,-33.324,M,,*7A
2017-11-15 18:16:30 1510787790.778834: $GPRMC,231629,A,3946.9662,N,08404.9666,W,2.5455,335.437,151117,,*32
2017-11-15 18:16:30 1510787790.778908: $GPGSA,A,3,10,22,26,31,32,25,14,,,,,,3.4,1.8,2.9*33
2017-11-15 18:16:31 1510787791.405654: $GPZDA,231630.00,15,11,2017,00,00*63
2017-11-15 18:16:31 1510787791.405816: $GPGGA,231630,3946.9670,N,08404.9665,W,1,07,1.80,304.18,M,-33.324,M,,*79
2017-11-15 18:16:31 1510787791.405989: $GPRMC,231630,A,3946.9670,N,08404.9665,W,2.8503,338.749,151117,,*32
2017-11-15 18:16:31 1510787791.406066: $GPGSA,A,3,10,22,26,31,32,25,14,,,,,,3.4,1.8,2.9*33
2017-11-15 18:16:32 1510787792.329900: $GPZDA,231631.00,15,11,2017,00,00*62
2017-11-15 18:16:32 1510787792.330083: $GPGGA,231631,3946.9678,N,08404.9671,W,1,07,1.80,303.98,M,-33.324,M,,*7A
2017-11-15 18:16:32 1510787792.330145: $GPRMC,231631,A,3946.9678,N,08404.9671,W,3.0251,340.031,151117,,*30
2017-11-15 18:16:32 1510787792.330201: $GPGSA,A,3,10,22,26,31,32,25,14,,,,,,3.4,1.8,2.9*33
2017-11-15 18:16:33 1510787793.696871: $GPGSV,3,1,11,10,29,154,05,22,34,307,16,01,21,282,04,26,18,180,11*7A
2017-11-15 18:16:33 1510787793.697061: $GPGSV,3,2,11,31,73,252,18,32,60,067,23,25,39,066,08,14,70,018,14*7E
2017-11-15 18:16:33 1510787793.697174: $GPGSV,3,3,11,03,14,316,00,12,12,036,00,11,02,267,00*4F
2017-11-15 18:16:33 1510787793.810228: $GPZDA,231632.00,15,11,2017,00,00*61
2017-11-15 18:16:33 1510787793.810410: $GPGGA,231632,3946.9686,N,08404.9670,W,1,06,1.20,303.85,M,-33.324,M,,*7E
2017-11-15 18:16:33 1510787793.810473: $GPRMC,231632,A,3946.9686,N,08404.9670,W,2.5480,328.670,151117,,*30
2017-11-15 18:16:33 1510787793.810529: $GPGSA,A,3,22,26,31,32,25,14,,,,,,,3.4,1.2,2.9*38
2017-11-15 18:16:34 1510787794.361071: $GPZDA,231633.00,15,11,2017,00,00*60
2017-11-15 18:16:34 1510787794.361275: $GPGGA,231633,3946.9693,N,08404.9670,W,1,06,1.20,303.73,M,-33.324,M,,*72
2017-11-15 18:16:34 1510787794.361336: $GPRMC,231633,A,3946.9693,N,08404.9670,W,2.0322,342.833,151117,,*3A
2017-11-15 18:16:34 1510787794.361392: $GPGSA,A,3,22,26,31,32,25,14,,,,,,,3.4,1.2,2.9*38
2017-11-15 18:16:35 1510787795.360666: $GPZDA,231634.00,15,11,2017,00,00*67
2017-11-15 18:16:35 1510787795.360827: $GPGGA,231634,3946.9701,N,08404.9669,W,1,06,1.20,303.60,M,-33.324,M,,*75
2017-11-15 18:16:35 1510787795.360907: $GPRMC,231634,A,3946.9701,N,08404.9669,W,1.9587,349.465,151117,,*38
2017-11-15 18:16:35 1510787795.360964: $GPGSA,A,3,22,26,31,32,25,14,,,,,,,3.4,1.2,2.9*38
2017-11-15 18:16:36 1510787796.697206: $GPGSV,3,1,11,10,29,154,05,22,34,307,16,01,21,282,04,26,18,180,12*79
2017-11-15 18:16:36 1510787796.697381: $GPGSV,3,2,11,31,73,252,18,32,60,067,23,25,39,066,09,14,70,018,14*7F
2017-11-15 18:16:36 1510787796.697441: $GPGSV,3,3,11,03,14,316,00,12,12,036,00,11,02,267,00*4F
2017-11-15 18:16:36 1510787796.810607: $GPZDA,231635.00,15,11,2017,00,00*66
2017-11-15 18:16:36 1510787796.810771: $GPGGA,231635,3946.9705,N,08404.9669,W,1,06,1.20,304.24,M,-33.324,M,,*77
2017-11-15 18:16:36 1510787796.810831: $GPRMC,231635,A,3946.9705,N,08404.9669,W,2.2914,351.642,151117,,*3D
2017-11-15 18:16:36 1510787796.810887: $GPGSA,A,3,22,26,31,32,25,14,,,,,,,3.4,1.2,2.9*38
2017-11-15 18:16:37 1510787797.330120: $GPZDA,231636.00,15,11,2017,00,00*65
2017-11-15 18:16:37 1510787797.330262: $GPGGA,231636,3946.9713,N,08404.9668,W,1,06,1.20,304.12,M,-33.325,M,,*76
2017-11-15 18:16:37 1510787797.330321: $GPRMC,231636,A,3946.9713,N,08404.9668,W,2.2914,351.642,151117,,*38
2017-11-15 18:16:37 1510787797.330377: $GPGSA,A,3,22,26,31,32,25,14,,,,,,,3.4,1.2,2.9*38
2017-11-15 18:16:38 1510787798.331000: $GPZDA,231637.00,15,11,2017,00,00*64
2017-11-15 18:16:38 1510787798.331164: $GPGGA,231637,3946.9720,N,08404.9660,W,1,06,1.20,304.07,M,-33.325,M,,*7B
2017-11-15 18:16:38 1510787798.331226: $GPRMC,231637,A,3946.9720,N,08404.9660,W,1.8977,3.784,151117,,*32
2017-11-15 18:16:38 1510787798.331281: $GPGSA,A,3,22,26,31,32,25,14,,,,,,,3.4,1.2,2.9*38
2017-11-15 18:16:39 1510787799.696916: $GPGSV,3,1,11,10,29,154,04,22,34,307,16,01,21,282,04,26,18,180,13*79
2017-11-15 18:16:39 1510787799.697060: $GPGSV,3,2,11,31,73,252,17,32,60,067,23,25,39,066,09,14,70,018,14*70
2017-11-15 18:16:39 1510787799.697119: $GPGSV,3,3,11,03,14,316,00,12,12,036,00,11,02,267,00*4F
2017-11-15 18:16:39 1510787799.810433: $GPZDA,231638.00,15,11,2017,00,00*6B
2017-11-15 18:16:39 1510787799.810593: $GPGGA,231638,3946.9720,N,08404.9660,W,1,06,1.20,304.07,M,-33.325,M,,*74
2017-11-15 18:16:39 1510787799.810652: $GPRMC,231638,A,3946.9720,N,08404.9660,W,1.0269,4.197,151117,,*32
2017-11-15 18:16:39 1510787799.810708: $GPGSA,A,3,22,26,31,32,25,14,,,,,,,3.4,1.2,2.9*38
2017-11-15 18:16:40 1510787800.362797: $GPZDA,231639.00,15,11,2017,00,00*6A
2017-11-15 18:16:40 1510787800.363014: $GPGGA,231639,3946.9720,N,08404.9660,W,1,06,1.20,304.07,M,-33.325,M,,*75
2017-11-15 18:16:40 1510787800.363079: $GPRMC,231639,A,3946.9720,N,08404.9660,W,0.5287,2.716,151117,,*3E
2017-11-15 18:16:40 1510787800.363136: $GPGSA,A,3,22,26,31,32,25,14,,,,,,,3.4,1.2,2.9*38
2017-11-15 18:16:41 1510787801.330197: $GPZDA,231640.00,15,11,2017,00,00*64
2017-11-15 18:16:41 1510787801.330383: $GPGGA,231640,3946.9719,N,08404.9654,W,1,06,1.20,304.15,M,-33.325,M,,*75
2017-11-15 18:16:41 1510787801.330444: $GPRMC,231640,A,3946.9719,N,08404.9654,W,0.4207,39.347,151117,,*0C
2017-11-15 18:16:41 1510787801.330548: $GPGSA,A,3,22,26,31,32,25,14,,,,,,,3.4,1.2,2.9*38
2017-11-15 18:16:42 1510787802.697271: $GPGSV,3,1,11,10,29,154,05,22,34,307,16,01,21,282,00,26,18,180,14*7B
2017-11-15 18:16:42 1510787802.697439: $GPGSV,3,2,11,31,73,252,16,32,60,067,22,25,39,066,10,14,70,018,14*78
2017-11-15 18:16:42 1510787802.697498: $GPGSV,3,3,11,03,14,316,00,12,12,036,00,11,02,267,00*4F
2017-11-15 18:16:42 1510787802.810786: $GPZDA,231641.00,15,11,2017,00,00*65
2017-11-15 18:16:42 1510787802.810948: $GPGGA,231641,3946.9719,N,08404.9654,W,1,06,1.20,304.15,M,-33.325,M,,*74
2017-11-15 18:16:42 1510787802.811008: $GPRMC,231641,A,3946.9719,N,08404.9654,W,0.2959,54.768,151117,,*09
2017-11-15 18:16:42 1510787802.811064: $GPGSA,A,3,22,26,31,32,25,14,,,,,,,3.4,1.2,2.9*38
2017-11-15 18:16:43 1510787803.330770: $GPZDA,231642.00,15,11,2017,00,00*66
2017-11-15 18:16:43 1510787803.330944: $GPGGA,231642,3946.9719,N,08404.9647,W,1,06,1.20,304.23,M,-33.325,M,,*70
2017-11-15 18:16:43 1510787803.331004: $GPRMC,231642,A,3946.9719,N,08404.9647,W,0.7267,93.794,151117,,*03
2017-11-15 18:16:43 1510787803.331060: $GPGSA,A,3,22,26,31,32,25,14,,,,,,,3.4,1.2,2.9*38
2017-11-15 18:16:44 1510787804.359705: $GPZDA,231643.00,15,11,2017,00,00*67
2017-11-15 18:16:44 1510787804.362728: $GPGGA,231643,3946.9719,N,08404.9647,W,1,06,1.20,304.23,M,-33.325,M,,*71
2017-11-15 18:16:44 1510787804.362832: $GPRMC,231643,A,3946.9719,N,08404.9647,W,0.9689,93.794,151117,,*08
2017-11-15 18:16:44 1510787804.362890: $GPGSA,A,3,22,26,31,32,25,14,,,,,,,3.4,1.2,2.9*38
2017-11-15 18:16:45 1510787805.695611: $GPGSV,3,1,11,10,29,154,09,22,34,307,15,01,21,282,00,26,18,180,14*74
2017-11-15 18:16:45 1510787805.695798: $GPGSV,3,2,11,31,73,252,16,32,60,067,22,25,39,066,10,14,70,018,15*79
2017-11-15 18:16:45 1510787805.695862: $GPGSV,3,3,11,03,14,316,00,12,12,036,00,11,02,267,00*4F
2017-11-15 18:16:45 1510787805.809112: $GPZDA,231644.00,15,11,2017,00,00*60
2017-11-15 18:16:45 1510787805.809292: $GPGGA,231644,3946.9719,N,08404.9640,W,1,06,1.20,304.31,M,-33.325,M,,*72
2017-11-15 18:16:45 1510787805.809355: $GPRMC,231644,A,3946.9719,N,08404.9640,W,0.8054,68.645,151117,,*06
2017-11-15 18:16:45 1510787805.809413: $GPGSA,A,3,22,26,31,32,25,14,,,,,,,3.4,1.2,2.9*38
2017-11-15 18:16:46 1510787806.434468: $GPZDA,231645.00,15,11,2017,00,00*61
2017-11-15 18:16:46 1510787806.434634: $GPGGA,231645,3946.9718,N,08404.9633,W,1,06,1.20,304.39,M,-33.325,M,,*7E
2017-11-15 18:16:46 1510787806.434698: $GPRMC,231645,A,3946.9718,N,08404.9633,W,0.5951,58.684,151117,,*0D
2017-11-15 18:16:46 1510787806.434756: $GPGSA,A,3,22,26,31,32,25,14,,,,,,,3.4,1.2,2.9*38
2017-11-15 18:16:47 1510787807.361623: $GPZDA,231646.00,15,11,2017,00,00*62
2017-11-15 18:16:47 1510787807.361786: $GPGGA,231646,3946.9718,N,08404.9633,W,1,06,1.20,304.39,M,-33.325,M,,*7D
2017-11-15 18:16:47 1510787807.361850: $GPRMC,231646,A,3946.9718,N,08404.9633,W,0.3423,4.197,151117,,*3C
2017-11-15 18:16:47 1510787807.361928: $GPGSA,A,3,22,26,31,32,25,14,,,,,,,3.4,1.2,2.9*38
2017-11-15 18:16:48 1510787808.695869: $GPGSV,3,1,11,10,29,154,04,22,34,307,14,01,21,282,00,26,18,180,16*7A
2017-11-15 18:16:48 1510787808.696042: $GPGSV,3,2,11,31,73,252,16,32,60,067,22,25,39,066,12,14,70,018,15*7B
2017-11-15 18:16:48 1510787808.696106: $GPGSV,3,3,11,03,14,316,00,12,12,036,00,11,02,267,00*4F
2017-11-15 18:16:48 1510787808.809454: $GPZDA,231647.00,15,11,2017,00,00*63
2017-11-15 18:16:48 1510787808.809615: $GPGGA,231647,3946.9718,N,08404.9633,W,1,06,1.20,304.39,M,-33.325,M,,*7C
2017-11-15 18:16:48 1510787808.809677: $GPRMC,231647,A,3946.9718,N,08404.9633,W,0.3423,4.197,151117,,*3D
2017-11-15 18:16:48 1510787808.809735: $GPGSA,A,3,22,26,31,32,25,14,,,,,,,3.4,1.2,2.9*38
2017-11-15 18:16:49 1510787809.328866: $GPZDA,231648.00,15,11,2017,00,00*6C
2017-11-15 18:16:49 1510787809.329033: $GPGGA,231648,3946.9718,N,08404.9633,W,1,06,1.20,304.39,M,-33.325,M,,*73
2017-11-15 18:16:49 1510787809.329096: $GPRMC,231648,A,3946.9718,N,08404.9633,W,0.4844,273.794,151117,,*3F
2017-11-15 18:16:49 1510787809.329205: $GPGSA,A,3,22,26,31,32,25,14,,,,,,,3.4,1.2,2.9*38
2017-11-15 18:16:50 1510787810.330031: $GPZDA,231649.00,15,11,2017,00,00*6D
2017-11-15 18:16:50 1510787810.330181: $GPGGA,231649,3946.9718,N,08404.9633,W,1,06,1.20,304.39,M,-33.325,M,,*72
2017-11-15 18:16:50 1510787810.330241: $GPRMC,231649,A,3946.9718,N,08404.9633,W,0.7621,287.945,151117,,*39
2017-11-15 18:16:50 1510787810.330297: $GPGSA,A,3,22,26,31,32,25,14,,,,,,,3.4,1.2,2.9*38
2017-11-15 18:16:51 1510787811.697581: $GPGSV,3,1,11,10,29,154,05,22,34,307,14,01,21,282,00,26,18,180,16*7B
2017-11-15 18:16:51 1510787811.697773: $GPGSV,3,2,11,31,73,252,15,32,60,067,22,25,39,066,14,14,70,018,15*7E
2017-11-15 18:16:51 1510787811.697836: $GPGSV,3,3,11,03,14,316,00,12,12,036,00,11,02,267,00*4F
2017-11-15 18:16:51 1510787811.810794: $GPZDA,231650.00,15,11,2017,00,00*65
2017-11-15 18:16:51 1510787811.810965: $GPGGA,231650,3946.9718,N,08404.9633,W,1,06,1.20,304.39,M,-33.325,M,,*7A
2017-11-15 18:16:51 1510787811.811028: $GPRMC,231650,A,3946.9718,N,08404.9633,W,0.5306,294.352,151117,,*3D
2017-11-15 18:16:51 1510787811.811084: $GPGSA,A,3,22,26,31,32,25,14,,,,,,,3.4,1.2,2.9*38
2017-11-15 18:16:52 1510787812.361685: $GPZDA,231651.00,15,11,2017,00,00*64
2017-11-15 18:16:52 1510787812.361858: $GPGGA,231651,3946.9718,N,08404.9633,W,1,06,1.20,304.39,M,-33.325,M,,*7B
2017-11-15 18:16:52 1510787812.361928: $GPRMC,231651,A,3946.9718,N,08404.9633,W,0.4179,328.778,151117,,*3D
2017-11-15 18:16:52 1510787812.361984: $GPGSA,A,3,22,26,31,32,25,14,,,,,,,3.4,1.2,2.9*38
2017-11-15 18:16:53 1510787813.361296: $GPZDA,231652.00,15,11,2017,00,00*67
2017-11-15 18:16:53 1510787813.361466: $GPGGA,231652,3946.9718,N,08404.9633,W,1,06,5.20,304.39,M,-33.325,M,,*7C
2017-11-15 18:16:53 1510787813.361530: $GPRMC,231652,A,3946.9718,N,08404.9633,W,0.5306,294.352,151117,,*3F
2017-11-15 18:16:53 1510787813.361586: $GPGSA,A,3,22,26,31,32,25,14,,,,,,,3.4,5.2,2.9*3C
2017-11-15 18:16:54 1510787814.665832: $GPGSV,3,1,11,10,29,154,04,22,34,307,05,01,21,282,00,26,18,180,16*7A
2017-11-15 18:16:54 1510787814.666008: $GPGSV,3,2,11,31,73,252,15,32,60,067,22,25,39,066,16,14,70,018,16*7F
2017-11-15 18:16:54 1510787814.666069: $GPGSV,3,3,11,03,14,316,00,12,12,036,00,11,02,267,00*4F
2017-11-15 18:16:54 1510787814.779413: $GPZDA,231653.00,15,11,2017,00,00*66
2017-11-15 18:16:54 1510787814.779554: $GPGGA,231653,3946.9718,N,08404.9633,W,1,05,5.20,304.39,M,-33.325,M,,*7E
2017-11-15 18:16:54 1510787814.779614: $GPRMC,231653,A,3946.9718,N,08404.9633,W,0.2422,273.794,151117,,*3F
2017-11-15 18:16:54 1510787814.779670: $GPGSA,A,3,26,31,32,25,14,,,,,,,,3.4,5.2,2.9*3C
2017-11-15 18:16:55 1510787815.329069: $GPZDA,231654.00,15,11,2017,00,00*61
2017-11-15 18:16:55 1510787815.329243: $GPGGA,231654,3946.9722,N,08404.9632,W,1,05,5.20,303.63,M,-33.325,M,,*79
2017-11-15 18:16:55 1510787815.330695: $GPRMC,231654,A,3946.9722,N,08404.9632,W,0.3006,62.539,151117,,*04
2017-11-15 18:16:55 1510787815.330764: $GPGSA,A,3,26,31,32,25,14,,,,,,,,3.4,5.2,2.9*3C
