2017-12-14 11:54:59 1513270499.293622: {"class":"VERSION","release":"3.16","rev":"3.16-4","proto_major":3,"proto_minor":11}
2017-12-14 11:54:59 1513270499.294094: {"class":"DEVICES","devices":[{"class":"DEVICE","path":"/dev/ttyUSB0","driver":"SiRF","subtype":"9\u0006GSD4e_4.1.2-P1_RPATCH.05-F-GPS-4R-1510281 11/03/2015 307","activated":"2017-12-14T16:54:59.238Z","flags":1,"native":1,"bps":4800,"parity":"N","stopbits":1,"cycle":1.00}]}
2017-12-14 11:54:59 1513270499.294213: {"class":"WATCH","enable":true,"json":false,"nmea":true,"raw":0,"scaled":false,"timing":false,"split24":false,"pps":false}
2017-12-14 11:55:00 1513270500.200365: $GPZDA,165501.00,14,12,2017,00,00*62
2017-12-14 11:55:00 1513270500.200533: $GPGGA,165501,3946.9595,N,08404.9501,W,1,06,2.00,352.07,M,-33.324,M,,*74
2017-12-14 11:55:00 1513270500.200599: $GPRMC,165501,A,3946.9595,N,08404.9501,W,1.6955,273.794,141217,,*36
2017-12-14 11:55:00 1513270500.200660: $GPGSA,A,3,20,24,15,27,21,18,,,,,,,6.6,2.0,6.2*3B
2017-12-14 11:55:01 1513270501.537799: $GPGSV,3,1,11,20,42,085,25,24,44,126,20,15,47,049,22,27,19,300,10*71
2017-12-14 11:55:01 1513270501.537982: $GPGSV,3,2,11,21,73,202,22,08,02,330,07,18,64,318,06,10,33,292,00*7D
2017-12-14 11:55:01 1513270501.538084: $GPGSV,3,3,11,13,17,046,00,32,12,232,00,138,38,213,00*7F
2017-12-14 11:55:01 1513270501.651285: $GPZDA,165502.00,14,12,2017,00,00*61
2017-12-14 11:55:01 1513270501.651465: $GPGGA,165502,3946.9596,N,08404.9508,W,1,06,2.00,351.99,M,-33.324,M,,*79
2017-12-14 11:55:01 1513270501.651531: $GPRMC,165502,A,3946.9596,N,08404.9508,W,2.2528,287.365,141217,,*3F
2017-12-14 11:55:01 1513270501.651592: $GPGSA,A,3,20,24,15,27,21,18,,,,,,,6.6,2.0,6.2*3B
2017-12-14 11:55:02 1513270502.201759: $GPZDA,165503.00,14,12,2017,00,00*60
2017-12-14 11:55:02 1513270502.201945: $GPGGA,165503,3946.9596,N,08404.9522,W,1,06,2.00,351.83,M,-33.324,M,,*7B
2017-12-14 11:55:02 1513270502.202028: $GPRMC,165503,A,3946.9596,N,08404.9522,W,2.3545,295.503,141217,,*39
2017-12-14 11:55:02 1513270502.202182: $GPGSA,A,3,20,24,15,27,21,18,,,,,,,6.6,2.0,6.2*3B
2017-12-14 11:55:03 1513270503.201446: $GPZDA,165504.00,14,12,2017,00,00*67
2017-12-14 11:55:03 1513270503.201612: $GPGGA,165504,3946.9597,N,08404.9536,W,1,06,2.00,351.67,M,-33.324,M,,*72
2017-12-14 11:55:03 1513270503.201678: $GPRMC,165504,A,3946.9597,N,08404.9536,W,2.9641,284.067,141217,,*30
2017-12-14 11:55:03 1513270503.201738: $GPGSA,A,3,20,24,15,27,21,18,,,,,,,6.6,2.0,6.2*3B
2017-12-14 11:55:04 1513270504.537175: $GPGSV,3,1,11,20,42,085,25,24,44,126,20,15,47,049,22,27,19,300,10*71
2017-12-14 11:55:04 1513270504.537380: $GPGSV,3,2,11,21,73,202,23,08,02,330,08,18,64,318,04,10,33,292,00*71
2017-12-14 11:55:04 1513270504.537450: $GPGSV,3,3,11,13,17,046,00,32,12,232,00,138,38,213,00*7F
2017-12-14 11:55:04 1513270504.650804: $GPZDA,165505.00,14,12,2017,00,00*66
2017-12-14 11:55:04 1513270504.657503: $GPGGA,165505,3946.9594,N,08404.9550,W,1,05,2.00,352.27,M,-33.324,M,,*74
2017-12-14 11:55:04 1513270504.657612: $GPRMC,165505,A,3946.9594,N,08404.9550,W,3.2027,283.294,141217,,*37
2017-12-14 11:55:04 1513270504.657678: $GPGSA,A,3,20,24,15,27,21,,,,,,,,6.6,2.0,6.2*32
2017-12-14 11:55:05 1513270505.200974: $GPZDA,165506.00,14,12,2017,00,00*65
2017-12-14 11:55:05 1513270505.202018: $GPGGA,165506,3946.9595,N,08404.9564,W,1,05,2.00,352.12,M,-33.324,M,,*77
2017-12-14 11:55:05 1513270505.202160: $GPRMC,165506,A,3946.9595,N,08404.9564,W,3.4360,280.020,141217,,*3A
2017-12-14 11:55:05 1513270505.202227: $GPGSA,A,3,20,24,15,27,21,,,,,,,,6.6,2.0,6.2*32
2017-12-14 11:55:06 1513270506.202384: $GPZDA,165507.00,14,12,2017,00,00*64
2017-12-14 11:55:06 1513270506.202538: $GPGGA,165507,3946.9596,N,08404.9578,W,1,05,2.00,351.96,M,-33.324,M,,*77
2017-12-14 11:55:06 1513270506.202606: $GPRMC,165507,A,3946.9596,N,08404.9578,W,3.6769,279.611,141217,,*38
2017-12-14 11:55:06 1513270506.202670: $GPGSA,A,3,20,24,15,27,21,,,,,,,,6.6,2.0,6.2*32
2017-12-14 11:55:07 1513270507.554623: $GPGSV,3,1,11,20,42,085,25,24,44,126,20,15,47,049,22,27,19,300,08*78
2017-12-14 11:55:07 1513270507.554788: $GPGSV,3,2,11,21,73,202,23,08,02,330,07,18,64,318,04,10,33,292,00*7E
2017-12-14 11:55:07 1513270507.554920: $GPGSV,3,3,11,13,17,046,00,32,12,232,00,138,38,213,00*7F
2017-12-14 11:55:07 1513270507.668221: $GPZDA,165508.00,14,12,2017,00,00*6B
2017-12-14 11:55:07 1513270507.668389: $GPGGA,165508,3946.9601,N,08404.9599,W,1,06,2.00,352.36,M,-33.324,M,,*70
2017-12-14 11:55:07 1513270507.668455: $GPRMC,165508,A,3946.9601,N,08404.9599,W,3.9179,279.252,141217,,*3E
2017-12-14 11:55:07 1513270507.668515: $GPGSA,A,3,20,24,15,27,21,8,,,,,,,6.6,2.0,6.2*0A
2017-12-14 11:55:08 1513270508.195385: $GPRMC,165509,V,3946.9602,N,08404.9613,W,3.9179,279.252,141217,,*2A
2017-12-14 11:55:08 1513270508.195704: $GPGSA,A,1,20,24,15,27,21,8,,,,,,,,,,*0C
2017-12-14 11:55:09 1513270509.211664: $GPRMC,165510,V,3946.9599,N,08404.9635,W,3.9179,279.252,141217,,*27
2017-12-14 11:55:09 1513270509.211867: $GPGSA,A,1,20,24,15,27,21,8,,,,,,,,,,*0C
2017-12-14 11:55:10 1513270510.532747: $GPGSV,3,1,11,20,42,085,24,24,44,126,20,15,47,049,21,27,19,300,06*74
2017-12-14 11:55:10 1513270510.533090: $GPGSV,3,2,11,21,73,202,23,10,33,292,00,18,64,318,08,13,17,046,00*79
2017-12-14 11:55:10 1513270510.533217: $GPGSV,3,3,11,32,12,232,00,08,02,330,00,138,38,213,00*73
2017-12-14 11:55:10 1513270510.643765: $GPRMC,165511,V,3946.9600,N,08404.9656,W,3.9179,279.252,141217,,*20
2017-12-14 11:55:10 1513270510.643954: $GPGSA,A,1,20,24,15,21,,,,,,,,,,,,*31
2017-12-14 11:55:11 1513270511.215010: $GPZDA,165512.06,14,12,2017,00,00*66
2017-12-14 11:55:11 1513270511.215176: $GPGGA,165512,3946.9601,N,08404.9662,W,1,04,2.20,352.41,M,-33.324,M,,*7C
2017-12-14 11:55:11 1513270511.215245: $GPRMC,165512,A,3946.9601,N,08404.9662,W,2.9255,270.738,141217,,*3E
2017-12-14 11:55:11 1513270511.215308: $GPGSA,A,3,20,24,15,21,,,,,,,,,6.6,2.2,6.2*35
2017-12-14 11:55:11 1513270511.215366: $GPGBS,165512,24.66,M,21.80,M,143.40,M*35
2017-12-14 11:55:12 1513270512.215103: $GPZDA,165513.06,14,12,2017,00,00*67
2017-12-14 11:55:12 1513270512.215274: $GPGGA,165513,3946.9597,N,08404.9669,W,1,04,2.20,351.69,M,-33.324,M,,*73
2017-12-14 11:55:12 1513270512.215343: $GPRMC,165513,A,3946.9597,N,08404.9669,W,1.9701,263.789,141217,,*37
2017-12-14 11:55:12 1513270512.215407: $GPGSA,A,3,20,24,15,21,,,,,,,,,6.6,2.2,6.2*35
2017-12-14 11:55:12 1513270512.215465: $GPGBS,165513,24.66,M,21.80,M,143.40,M*34
2017-12-14 11:55:13 1513270513.552034: $GPGSV,3,1,11,20,42,085,24,24,44,126,21,15,47,049,20,27,19,300,04*76
2017-12-14 11:55:13 1513270513.552259: $GPGSV,3,2,11,21,73,202,23,10,33,292,00,18,64,318,10,13,17,046,00*70
2017-12-14 11:55:13 1513270513.552328: $GPGSV,3,3,11,32,12,232,00,08,02,330,00,138,38,213,00*73
2017-12-14 11:55:13 1513270513.665447: $GPZDA,165514.00,14,12,2017,00,00*66
2017-12-14 11:55:13 1513270513.665585: $GPGGA,165514,3946.9593,N,08404.9670,W,1,05,2.20,352.46,M,-33.324,M,,*77
2017-12-14 11:55:13 1513270513.665652: $GPRMC,165514,A,3946.9593,N,08404.9670,W,1.0298,254.381,141217,,*38
2017-12-14 11:55:13 1513270513.665716: $GPGSA,A,3,20,24,15,21,18,,,,,,,,6.6,2.2,6.2*3C
2017-12-14 11:55:14 1513270514.216860: $GPZDA,165515.00,14,12,2017,00,00*67
2017-12-14 11:55:14 1513270514.217058: $GPGGA,165515,3946.9593,N,08404.9670,W,1,05,2.20,352.46,M,-33.324,M,,*76
2017-12-14 11:55:14 1513270514.217143: $GPRMC,165515,A,3946.9593,N,08404.9670,W,0.5075,252.256,141217,,*31
2017-12-14 11:55:14 1513270514.217208: $GPGSA,A,3,20,24,15,21,18,,,,,,,,6.6,2.2,6.2*3C
2017-12-14 11:55:15 1513270515.215835: $GPZDA,165516.00,14,12,2017,00,00*64
2017-12-14 11:55:15 1513270515.216042: $GPGGA,165516,3946.9593,N,08404.9670,W,1,05,2.20,352.46,M,-33.324,M,,*75
2017-12-14 11:55:15 1513270515.216111: $GPRMC,165516,A,3946.9593,N,08404.9670,W,0.4207,219.347,141217,,*3A
2017-12-14 11:55:15 1513270515.216175: $GPGSA,A,3,20,24,15,21,18,,,,,,,,6.6,2.2,6.2*3C
2017-12-14 11:55:16 1513270516.553273: $GPGSV,3,1,11,20,42,085,24,24,44,126,21,15,47,049,20,27,19,300,04*76
2017-12-14 11:55:16 1513270516.553425: $GPGSV,3,2,11,21,73,202,23,10,33,292,00,18,64,318,09,13,17,046,00*78
2017-12-14 11:55:16 1513270516.553493: $GPGSV,3,3,11,32,12,232,00,08,02,330,00,120,07,103,00*74
2017-12-14 11:55:16 1513270516.666807: $GPZDA,165517.00,14,12,2017,00,00*65
2017-12-14 11:55:16 1513270516.667046: $GPGGA,165517,3946.9589,N,08404.9670,W,1,05,2.20,351.82,M,-33.324,M,,*74
2017-12-14 11:55:16 1513270516.667142: $GPRMC,165517,A,3946.9589,N,08404.9670,W,1.1385,209.379,141217,,*33
2017-12-14 11:55:16 1513270516.667205: $GPGSA,A,3,20,24,15,21,18,,,,,,,,6.6,2.2,6.2*3C
2017-12-14 11:55:17 1513270517.216828: $GPZDA,165518.00,14,12,2017,00,00*6A
2017-12-14 11:55:17 1513270517.217031: $GPGGA,165518,3946.9589,N,08404.9663,W,1,05,2.20,351.90,M,-33.324,M,,*7A
2017-12-14 11:55:17 1513270517.217113: $GPRMC,165518,A,3946.9589,N,08404.9663,W,0.8414,219.347,141217,,*35
2017-12-14 11:55:17 1513270517.217175: $GPGSA,A,3,20,24,15,21,18,,,,,,,,6.6,2.2,6.2*3C
2017-12-14 11:55:18 1513270518.200326: $GPZDA,165519.00,14,12,2017,00,00*6B
2017-12-14 11:55:18 1513270518.200508: $GPGGA,165519,3946.9586,N,08404.9671,W,1,05,2.20,352.58,M,-33.324,M,,*70
2017-12-14 11:55:18 1513270518.200574: $GPRMC,165519,A,3946.9586,N,08404.9671,W,0.9689,273.794,141217,,*39
2017-12-14 11:55:18 1513270518.200809: $GPGSA,A,3,20,24,15,21,18,,,,,,,,6.6,2.2,6.2*3C
