2017-12-01 15:26:57 1512160017.776875: {"class":"VERSION","release":"3.16","rev":"3.16-4","proto_major":3,"proto_minor":11}
2017-12-01 15:26:57 1512160017.777321: {"class":"DEVICES","devices":[{"class":"DEVICE","path":"/dev/ttyUSB0","driver":"SiRF","subtype":"9\u0006GSD4e_4.1.2-P1_RPATCH.05-F-GPS-4R-1510281 11/03/2015 307","activated":"2017-12-01T20:26:57.552Z","flags":1,"native":1,"bps":4800,"parity":"N","stopbits":1,"cycle":1.00}]}
2017-12-01 15:26:57 1512160017.777474: {"class":"WATCH","enable":true,"json":false,"nmea":true,"raw":0,"scaled":false,"timing":false,"split24":false,"pps":false}
2017-12-01 15:26:58 1512160018.748176: $GPGSV,3,1,12,01,09,324,35,10,78,114,47,12,23,081,45,14,49,280,42*74
2017-12-01 15:26:58 1512160018.748346: $GPGSV,3,2,12,18,46,129,47,24,21,045,42,25,23,123,46,31,26,208,47*70
2017-12-01 15:26:58 1512160018.748432: $GPGSV,3,3,12,32,64,309,48,11,09,309,36,21,02,174,00,138,38,213,46*49
2017-12-01 15:26:58 1512160018.861640: $GPZDA,202659.00,01,12,2017,00,00*6A
2017-12-01 15:26:58 1512160018.861809: $GPGGA,202659,3946.9597,N,08404.9864,W,2,11,0.80,296.95,M,-33.324,M,,*79
2017-12-01 15:26:58 1512160018.861876: $GPRMC,202659,A,3946.9597,N,08404.9864,W,0.0000,0.000,011217,,*30
2017-12-01 15:26:58 1512160018.861937: $GPGSA,A,3,1,10,12,14,18,24,25,31,32,11,138,,2.0,0.8,1.5*3B
2017-12-01 15:26:59 1512160019.486727: $GPZDA,202700.00,01,12,2017,00,00*67
2017-12-01 15:26:59 1512160019.486905: $GPGGA,202700,3946.9597,N,08404.9864,W,2,11,0.80,296.95,M,-33.324,M,,*74
2017-12-01 15:26:59 1512160019.486972: $GPRMC,202700,A,3946.9597,N,08404.9864,W,0.0000,0.000,011217,,*3D
2017-12-01 15:26:59 1512160019.487034: $GPGSA,A,3,1,10,12,14,18,24,25,31,32,11,138,,2.0,0.8,1.5*3B
2017-12-01 15:27:00 1512160020.410367: $GPZDA,202701.00,01,12,2017,00,00*66
2017-12-01 15:27:00 1512160020.410580: $GPGGA,202701,3946.9597,N,08404.9864,W,2,11,0.80,296.95,M,-33.324,M,,*75
2017-12-01 15:27:00 1512160020.410647: $GPRMC,202701,A,3946.9597,N,08404.9864,W,0.0000,0.000,011217,,*3C
2017-12-01 15:27:00 1512160020.410709: $GPGSA,A,3,1,10,12,14,18,24,25,31,32,11,138,,2.0,0.8,1.5*3B
2017-12-01 15:27:01 1512160021.748332: $GPGSV,3,1,12,01,09,324,34,10,78,114,47,12,23,081,45,14,49,280,42*75
2017-12-01 15:27:01 1512160021.748545: $GPGSV,3,2,12,18,46,129,47,24,21,045,43,25,23,123,46,31,26,208,47*71
2017-12-01 15:27:01 1512160021.748614: $GPGSV,3,3,12,32,64,309,48,11,09,309,38,21,02,174,01,138,38,213,45*45
2017-12-01 15:27:01 1512160021.862006: $GPZDA,202702.00,01,12,2017,00,00*65
2017-12-01 15:27:01 1512160021.862147: $GPGGA,202702,3946.9597,N,08404.9864,W,2,11,0.80,296.95,M,-33.324,M,,*76
2017-12-01 15:27:01 1512160021.862212: $GPRMC,202702,A,3946.9597,N,08404.9864,W,0.0000,0.000,011217,,*3F
2017-12-01 15:27:01 1512160021.862273: $GPGSA,A,3,1,10,12,14,18,24,25,31,32,11,138,,2.0,0.8,1.5*3B
2017-12-01 15:27:02 1512160022.395087: $GPZDA,202703.00,01,12,2017,00,00*64
2017-12-01 15:27:02 1512160022.395262: $GPGGA,202703,3946.9597,N,08404.9864,W,2,11,0.80,296.95,M,-33.324,M,,*77
2017-12-01 15:27:02 1512160022.395328: $GPRMC,202703,A,3946.9597,N,08404.9864,W,0.0000,0.000,011217,,*3E
2017-12-01 15:27:02 1512160022.395419: $GPGSA,A,3,1,10,12,14,18,24,25,31,32,11,138,,2.0,0.8,1.5*3B
2017-12-01 15:27:03 1512160023.396091: $GPZDA,202704.00,01,12,2017,00,00*63
2017-12-01 15:27:03 1512160023.396263: $GPGGA,202704,3946.9597,N,08404.9864,W,2,11,0.80,296.95,M,-33.324,M,,*70
2017-12-01 15:27:03 1512160023.396329: $GPRMC,202704,A,3946.9597,N,08404.9864,W,0.0000,0.000,011217,,*39
2017-12-01 15:27:03 1512160023.396417: $GPGSA,A,3,1,10,12,14,18,24,25,31,32,11,138,,2.0,0.8,1.5*3B
2017-12-01 15:27:04 1512160024.731324: $GPGSV,3,1,12,01,09,324,34,10,78,114,47,12,23,081,45,14,49,280,42*75
2017-12-01 15:27:04 1512160024.731618: $GPGSV,3,2,12,18,46,129,47,24,21,045,43,25,23,123,46,31,26,208,47*71
2017-12-01 15:27:04 1512160024.731688: $GPGSV,3,3,12,32,64,309,48,11,09,309,39,21,02,174,00,138,38,213,46*46
2017-12-01 15:27:04 1512160024.844961: $GPZDA,202705.00,01,12,2017,00,00*62
2017-12-01 15:27:04 1512160024.845130: $GPGGA,202705,3946.9597,N,08404.9857,W,2,11,0.80,297.03,M,-33.324,M,,*7F
2017-12-01 15:27:04 1512160024.845250: $GPRMC,202705,A,3946.9597,N,08404.9857,W,0.0000,0.000,011217,,*38
2017-12-01 15:27:04 1512160024.845315: $GPGSA,A,3,1,10,12,14,18,24,25,31,32,11,138,,2.0,0.8,1.5*3B
2017-12-01 15:27:05 1512160025.394341: $GPZDA,202706.00,01,12,2017,00,00*61
2017-12-01 15:27:05 1512160025.394564: $GPGGA,202706,3946.9597,N,08404.9857,W,2,11,0.80,297.03,M,-33.324,M,,*7C
2017-12-01 15:27:05 1512160025.394633: $GPRMC,202706,A,3946.9597,N,08404.9857,W,0.0000,0.000,011217,,*3B
2017-12-01 15:27:05 1512160025.394694: $GPGSA,A,3,1,10,12,14,18,24,25,31,32,11,138,,2.0,0.8,1.5*3B
2017-12-01 15:27:06 1512160026.396455: $GPZDA,202707.00,01,12,2017,00,00*60
2017-12-01 15:27:06 1512160026.396648: $GPGGA,202707,3946.9597,N,08404.9857,W,2,11,0.80,297.03,M,-33.324,M,,*7D
2017-12-01 15:27:06 1512160026.396715: $GPRMC,202707,A,3946.9597,N,08404.9857,W,0.0000,0.000,011217,,*3A
2017-12-01 15:27:06 1512160026.396777: $GPGSA,A,3,1,10,12,14,18,24,25,31,32,11,138,,2.0,0.8,1.5*3B
2017-12-01 15:27:07 1512160027.729706: $GPGSV,3,1,12,01,09,324,34,10,78,114,47,12,23,081,44,14,49,280,42*74
2017-12-01 15:27:07 1512160027.729890: $GPGSV,3,2,12,18,46,129,47,24,21,045,43,25,23,123,46,31,26,208,47*71
2017-12-01 15:27:07 1512160027.729957: $GPGSV,3,3,12,32,64,309,48,11,09,309,40,21,02,174,00,138,38,213,45*4B
2017-12-01 15:27:07 1512160027.843072: $GPZDA,202708.00,01,12,2017,00,00*6F
2017-12-01 15:27:07 1512160027.843237: $GPGGA,202708,3946.9597,N,08404.9857,W,2,11,0.80,297.03,M,-33.324,M,,*72
2017-12-01 15:27:07 1512160027.843303: $GPRMC,202708,A,3946.9597,N,08404.9857,W,0.0000,0.000,011217,,*35
2017-12-01 15:27:07 1512160027.843393: $GPGSA,A,3,1,10,12,14,18,24,25,31,32,11,138,,2.0,0.8,1.5*3B
2017-12-01 15:27:08 1512160028.396469: $GPZDA,202709.00,01,12,2017,00,00*6E
2017-12-01 15:27:08 1512160028.396664: $GPGGA,202709,3946.9593,N,08404.9858,W,2,11,0.80,297.79,M,-33.324,M,,*75
2017-12-01 15:27:08 1512160028.396732: $GPRMC,202709,A,3946.9593,N,08404.9858,W,0.0000,0.000,011217,,*3F
2017-12-01 15:27:08 1512160028.396794: $GPGSA,A,3,1,10,12,14,18,24,25,31,32,11,138,,2.0,0.8,1.5*3B
2017-12-01 15:27:09 1512160029.399593: $GPZDA,202710.00,01,12,2017,00,00*66
2017-12-01 15:27:09 1512160029.399764: $GPGGA,202710,3946.9593,N,08404.9858,W,2,11,0.80,297.79,M,-33.324,M,,*7D
2017-12-01 15:27:09 1512160029.399831: $GPRMC,202710,A,3946.9593,N,08404.9858,W,0.0000,0.000,011217,,*37
2017-12-01 15:27:09 1512160029.399892: $GPGSA,A,3,1,10,12,14,18,24,25,31,32,11,138,,2.0,0.8,1.5*3B
2017-12-01 15:27:10 1512160030.733818: $GPGSV,3,1,12,01,09,324,34,10,78,114,47,12,23,081,44,14,49,280,42*74
2017-12-01 15:27:10 1512160030.733990: $GPGSV,3,2,12,18,46,129,47,24,21,045,43,25,23,123,46,31,26,208,47*71
2017-12-01 15:27:10 1512160030.734058: $GPGSV,3,3,12,32,64,309,48,11,09,309,41,21,02,174,00,138,38,213,46*49
2017-12-01 15:27:10 1512160030.847392: $GPZDA,202711.00,01,12,2017,00,00*67
2017-12-01 15:27:10 1512160030.847576: $GPGGA,202711,3946.9593,N,08404.9858,W,2,11,0.80,297.79,M,-33.324,M,,*7C
2017-12-01 15:27:10 1512160030.847644: $GPRMC,202711,A,3946.9593,N,08404.9858,W,0.0000,0.000,011217,,*36
2017-12-01 15:27:10 1512160030.847705: $GPGSA,A,3,1,10,12,14,18,24,25,31,32,11,138,,2.0,0.8,1.5*3B
2017-12-01 15:27:11 1512160031.399456: $GPZDA,202712.00,01,12,2017,00,00*64
2017-12-01 15:27:11 1512160031.399643: $GPGGA,202712,3946.9593,N,08404.9858,W,2,11,0.80,297.79,M,-33.324,M,,*7F
2017-12-01 15:27:11 1512160031.399712: $GPRMC,202712,A,3946.9593,N,08404.9858,W,0.0000,0.000,011217,,*35
2017-12-01 15:27:11 1512160031.399773: $GPGSA,A,3,1,10,12,14,18,24,25,31,32,11,138,,2.0,0.8,1.5*3B
2017-12-01 15:27:12 1512160032.399039: $GPZDA,202713.00,01,12,2017,00,00*65
2017-12-01 15:27:12 1512160032.399206: $GPGGA,202713,3946.9593,N,08404.9858,W,2,11,0.80,297.79,M,-33.324,M,,*7E
2017-12-01 15:27:12 1512160032.399274: $GPRMC,202713,A,3946.9593,N,08404.9858,W,0.0000,0.000,011217,,*34
2017-12-01 15:27:12 1512160032.399354: $GPGSA,A,3,1,10,12,14,18,24,25,31,32,11,138,,2.0,0.8,1.5*3B
2017-12-01 15:27:13 1512160033.728550: $GPGSV,3,1,12,01,09,324,35,10,78,114,47,12,23,081,44,14,49,280,42*75
2017-12-01 15:27:13 1512160033.728779: $GPGSV,3,2,12,18,46,129,48,24,21,045,43,25,23,123,46,31,26,208,47*7E
2017-12-01 15:27:13 1512160033.728848: $GPGSV,3,3,12,32,64,309,48,11,09,309,41,21,02,174,00,138,38,213,46*49
2017-12-01 15:27:13 1512160033.842000: $GPZDA,202714.00,01,12,2017,00,00*62
2017-12-01 15:27:13 1512160033.842139: $GPGGA,202714,3946.9593,N,08404.9858,W,2,11,0.80,297.79,M,-33.324,M,,*79
2017-12-01 15:27:13 1512160033.842205: $GPRMC,202714,A,3946.9593,N,08404.9858,W,0.0000,0.000,011217,,*33
2017-12-01 15:27:13 1512160033.842266: $GPGSA,A,3,1,10,12,14,18,24,25,31,32,11,138,,2.0,0.8,1.5*3B
2017-12-01 15:27:14 1512160034.467498: $GPZDA,202715.00,01,12,2017,00,00*63
2017-12-01 15:27:14 1512160034.467682: $GPGGA,202715,3946.9593,N,08404.9858,W,2,11,0.80,297.79,M,-33.324,M,,*78
2017-12-01 15:27:14 1512160034.467749: $GPRMC,202715,A,3946.9593,N,08404.9858,W,0.0000,0.000,011217,,*32
2017-12-01 15:27:14 1512160034.467810: $GPGSA,A,3,1,10,12,14,18,24,25,31,32,11,138,,2.0,0.8,1.5*3B
2017-12-01 15:27:15 1512160035.398141: $GPZDA,202716.00,01,12,2017,00,00*60
2017-12-01 15:27:15 1512160035.399786: $GPGGA,202716,3946.9593,N,08404.9858,W,2,11,0.80,297.79,M,-33.324,M,,*7B
2017-12-01 15:27:15 1512160035.399893: $GPRMC,202716,A,3946.9593,N,08404.9858,W,0.0000,0.000,011217,,*31
2017-12-01 15:27:15 1512160035.399958: $GPGSA,A,3,1,10,12,14,18,24,25,31,32,11,138,,2.0,0.8,1.5*3B
2017-12-01 15:27:16 1512160036.735038: $GPGSV,3,1,12,01,09,324,35,10,78,114,48,12,23,081,44,14,49,280,42*7A
2017-12-01 15:27:16 1512160036.735220: $GPGSV,3,2,12,18,46,129,47,24,21,045,43,25,23,123,46,31,26,208,47*71
2017-12-01 15:27:16 1512160036.735287: $GPGSV,3,3,12,32,64,309,48,11,09,309,41,21,02,174,00,138,38,213,45*4A
2017-12-01 15:27:16 1512160036.848426: $GPZDA,202717.00,01,12,2017,00,00*61
2017-12-01 15:27:16 1512160036.848617: $GPGGA,202717,3946.9590,N,08404.9859,W,2,11,0.80,298.56,M,-33.324,M,,*7A
2017-12-01 15:27:16 1512160036.848684: $GPRMC,202717,A,3946.9590,N,08404.9859,W,0.0000,0.000,011217,,*32
2017-12-01 15:27:16 1512160036.848745: $GPGSA,A,3,1,10,12,14,18,24,25,31,32,11,138,,2.0,0.8,1.5*3B
2017-12-01 15:27:17 1512160037.404555: $GPZDA,202718.00,01,12,2017,00,00*6E
2017-12-01 15:27:17 1512160037.404867: $GPGGA,202718,3946.9590,N,08404.9859,W,2,11,0.80,298.56,M,-33.324,M,,*75
2017-12-01 15:27:17 1512160037.405014: $GPRMC,202718,A,3946.9590,N,08404.9859,W,0.0000,0.000,011217,,*3D
2017-12-01 15:27:17 1512160037.405079: $GPGSA,A,3,1,10,12,14,18,24,25,31,32,11,138,,2.0,0.8,1.5*3B
