2017-12-01 18:04:38 1512169478.455461: {"class":"VERSION","release":"3.16","rev":"3.16-4","proto_major":3,"proto_minor":11}
2017-12-01 18:04:38 1512169478.455862: {"class":"DEVICES","devices":[{"class":"DEVICE","path":"/dev/ttyUSB0","driver":"SiRF","subtype":"9\u0006GSD4e_4.1.2-P1_RPATCH.05-F-GPS-4R-1510281 11/03/2015 307","activated":"2017-12-01T23:04:38.073Z","flags":1,"native":1,"bps":4800,"parity":"N","stopbits":1,"cycle":1.00}]}
2017-12-01 18:04:38 1512169478.455991: {"class":"WATCH","enable":true,"json":false,"nmea":true,"raw":0,"scaled":false,"timing":false,"split24":false,"pps":false}
2017-12-01 18:04:38 1512169478.675038: $GPZDA,230439.34,01,12,2017,00,00*68
2017-12-01 18:04:38 1512169478.675211: $GPGGA,230439,3946.9705,N,08404.9826,W,1,11,0.80,294.76,M,-33.325,M,,*7E
2017-12-01 18:04:38 1512169478.675278: $GPRMC,230439,A,3946.9705,N,08404.9826,W,0.2202,173.469,011217,,*36
2017-12-01 18:04:38 1512169478.675339: $GPGSA,A,3,1,3,14,16,22,29,25,26,31,32,138,,2.0,0.8,1.5*0D
2017-12-01 18:04:40 1512169480.115099: $GPGSV,3,1,12,03,35,306,28,14,61,079,26,16,15,189,23,22,49,283,27*79
2017-12-01 18:04:40 1512169480.115278: $GPGSV,3,2,12,23,05,297,26,25,24,043,26,26,44,174,27,31,74,009,28*74
2017-12-01 18:04:40 1512169480.115345: $GPGSV,3,3,12,32,42,100,26,01,10,259,00,29,07,079,00,138,38,213,00*45
2017-12-01 18:04:40 1512169480.228736: $GPZDA,230440.03,01,12,2017,00,00*62
2017-12-01 18:04:40 1512169480.228885: $GPGGA,230440,3946.9706,N,08404.9832,W,1,09,0.80,294.68,M,-33.325,M,,*70
2017-12-01 18:04:40 1512169480.228951: $GPRMC,230440,A,3946.9706,N,08404.9832,W,0.2710,280.223,011217,,*3F
2017-12-01 18:04:40 1512169480.229012: $GPGSA,A,3,3,14,16,22,23,25,26,31,32,,,,2.0,0.8,1.5*0C
2017-12-01 18:04:41 1512169481.057421: $GPZDA,230441.00,01,12,2017,00,00*60
2017-12-01 18:04:41 1512169481.057595: $GPGGA,230441,3946.9706,N,08404.9832,W,1,09,0.80,294.68,M,-33.325,M,,*71
2017-12-01 18:04:41 1512169481.057661: $GPRMC,230441,A,3946.9706,N,08404.9832,W,0.0407,322.013,011217,,*31
2017-12-01 18:04:41 1512169481.057723: $GPGSA,A,3,3,14,16,22,23,25,26,31,32,,,,2.0,0.8,1.5*0C
2017-12-01 18:04:41 1512169481.057781: $GPGBS,230441,10.70,M,15.43,M,35.28,M*07
2017-12-01 18:04:41 1512169481.312866: $GPZDA,230442.00,01,12,2017,00,00*63
2017-12-01 18:04:41 1512169481.313036: $GPGGA,230442,3946.9702,N,08404.9832,W,1,09,0.80,294.04,M,-33.325,M,,*7C
2017-12-01 18:04:41 1512169481.313122: $GPRMC,230442,A,3946.9702,N,08404.9832,W,0.0407,322.013,011217,,*36
2017-12-01 18:04:41 1512169481.313184: $GPGSA,A,3,3,14,16,22,23,25,26,31,32,,,,2.0,0.8,1.5*0C
2017-12-01 18:04:41 1512169481.313243: $GPGBS,230442,10.70,M,15.43,M,35.28,M*04
2017-12-01 18:04:42 1512169482.705799: $GPGSV,3,1,12,03,35,306,48,14,61,079,44,16,15,189,39,22,49,283,46*77
2017-12-01 18:04:42 1512169482.705979: $GPGSV,3,2,12,10,05,159,28,25,24,043,43,26,44,174,44,31,74,009,47*74
2017-12-01 18:04:42 1512169482.706046: $GPGSV,3,3,12,32,42,100,45,01,10,259,26,23,05,297,44,138,38,213,46*4C
2017-12-01 18:04:42 1512169482.819397: $GPZDA,230443.00,01,12,2017,00,00*62
2017-12-01 18:04:42 1512169482.819539: $GPGGA,230443,3946.9702,N,08404.9832,W,1,12,0.80,294.04,M,-33.325,M,,*77
2017-12-01 18:04:42 1512169482.819606: $GPRMC,230443,A,3946.9702,N,08404.9832,W,0.0000,0.000,011217,,*35
2017-12-01 18:04:42 1512169482.819667: $GPGSA,A,3,3,14,16,22,10,25,26,31,32,1,23,138,2.0,0.8,1.5*06
2017-12-01 18:04:43 1512169483.444510: $GPZDA,230444.00,01,12,2017,00,00*65
2017-12-01 18:04:43 1512169483.444689: $GPGGA,230444,3946.9705,N,08404.9839,W,1,12,0.80,293.20,M,-33.325,M,,*7D
2017-12-01 18:04:43 1512169483.444758: $GPRMC,230444,A,3946.9705,N,08404.9839,W,0.0000,0.000,011217,,*3E
2017-12-01 18:04:43 1512169483.444819: $GPGSA,A,3,3,14,16,22,10,25,26,31,32,1,23,138,2.0,0.8,1.5*06
2017-12-01 18:04:44 1512169484.370358: $GPZDA,230445.00,01,12,2017,00,00*64
2017-12-01 18:04:44 1512169484.370535: $GPGGA,230445,3946.9705,N,08404.9839,W,1,12,0.60,293.20,M,-33.325,M,,*72
2017-12-01 18:04:44 1512169484.370603: $GPRMC,230445,A,3946.9705,N,08404.9839,W,0.0000,0.000,011217,,*3F
2017-12-01 18:04:44 1512169484.370664: $GPGSA,A,3,3,14,16,22,10,25,26,31,32,1,23,138,2.0,0.6,1.5*08
2017-12-01 18:04:45 1512169485.712192: $GPGSV,3,1,12,03,35,306,48,14,61,079,43,16,15,189,39,22,49,283,46*70
2017-12-01 18:04:45 1512169485.712390: $GPGSV,3,2,12,29,07,079,21,25,24,043,43,26,44,174,45,31,74,009,46*76
2017-12-01 18:04:45 1512169485.712459: $GPGSV,3,3,12,32,42,100,44,01,10,259,26,10,05,159,08,138,38,213,46*44
2017-12-01 18:04:45 1512169485.825666: $GPZDA,230446.00,01,12,2017,00,00*67
2017-12-01 18:04:45 1512169485.825852: $GPGGA,230446,3946.9705,N,08404.9839,W,1,11,0.80,293.20,M,-33.325,M,,*7C
2017-12-01 18:04:45 1512169485.825920: $GPRMC,230446,A,3946.9705,N,08404.9839,W,0.0000,0.000,011217,,*3C
2017-12-01 18:04:45 1512169485.825981: $GPGSA,A,3,3,14,16,22,29,25,26,31,32,1,138,,2.0,0.8,1.5*0D
2017-12-01 18:04:46 1512169486.371806: $GPZDA,230447.00,01,12,2017,00,00*66
2017-12-01 18:04:46 1512169486.371979: $GPGGA,230447,3946.9705,N,08404.9858,W,2,11,1.20,290.15,M,-33.325,M,,*77
2017-12-01 18:04:46 1512169486.372044: $GPRMC,230447,A,3946.9705,N,08404.9858,W,0.0000,0.000,011217,,*3A
2017-12-01 18:04:46 1512169486.372106: $GPGSA,A,3,3,14,16,22,29,25,26,31,32,1,138,,2.0,1.2,1.5*06
2017-12-01 18:04:47 1512169487.372391: $GPZDA,230448.00,01,12,2017,00,00*69
2017-12-01 18:04:47 1512169487.372566: $GPGGA,230448,3946.9705,N,08404.9858,W,2,11,0.60,290.15,M,-33.325,M,,*7D
2017-12-01 18:04:47 1512169487.372658: $GPRMC,230448,A,3946.9705,N,08404.9858,W,0.0000,0.000,011217,,*35
2017-12-01 18:04:47 1512169487.372739: $GPGSA,A,3,3,14,16,22,29,25,26,31,32,1,138,,2.0,0.6,1.5*03
2017-12-01 18:04:48 1512169488.708843: $GPGSV,3,1,12,03,35,306,48,14,61,079,44,16,15,189,39,22,49,283,46*77
2017-12-01 18:04:48 1512169488.709033: $GPGSV,3,2,12,29,07,079,21,25,24,043,43,26,44,174,45,31,74,009,47*77
2017-12-01 18:04:48 1512169488.709123: $GPGSV,3,3,12,32,42,100,43,01,10,259,27,10,05,159,28,138,38,213,46*40
2017-12-01 18:04:48 1512169488.822670: $GPZDA,230449.00,01,12,2017,00,00*68
2017-12-01 18:04:48 1512169488.822842: $GPGGA,230449,3946.9705,N,08404.9858,W,2,12,0.60,290.15,M,-33.325,M,,*7F
2017-12-01 18:04:48 1512169488.822908: $GPRMC,230449,A,3946.9705,N,08404.9858,W,0.0000,0.000,011217,,*34
2017-12-01 18:04:48 1512169488.822969: $GPGSA,A,3,3,14,16,22,29,25,26,31,32,1,10,138,2.0,0.6,1.5*02
2017-12-01 18:04:49 1512169489.374349: $GPZDA,230450.00,01,12,2017,00,00*60
2017-12-01 18:04:49 1512169489.374519: $GPGGA,230450,3946.9705,N,08404.9852,W,2,12,0.60,291.63,M,-33.325,M,,*7D
2017-12-01 18:04:49 1512169489.374587: $GPRMC,230450,A,3946.9705,N,08404.9852,W,0.0000,0.000,011217,,*36
2017-12-01 18:04:49 1512169489.374648: $GPGSA,A,3,3,14,16,22,29,25,26,31,32,1,10,138,2.0,0.6,1.5*02
2017-12-01 18:04:50 1512169490.370418: $GPZDA,230451.00,01,12,2017,00,00*61
2017-12-01 18:04:50 1512169490.370595: $GPGGA,230451,3946.9705,N,08404.9852,W,2,12,0.60,291.63,M,-33.325,M,,*7C
2017-12-01 18:04:50 1512169490.370662: $GPRMC,230451,A,3946.9705,N,08404.9852,W,0.0000,0.000,011217,,*37
2017-12-01 18:04:50 1512169490.370724: $GPGSA,A,3,3,14,16,22,29,25,26,31,32,1,10,138,2.0,0.6,1.5*02
2017-12-01 18:04:51 1512169491.709614: $GPGSV,3,1,12,03,35,306,47,14,61,079,44,16,15,189,40,22,49,283,46*76
2017-12-01 18:04:51 1512169491.709799: $GPGSV,3,2,12,29,07,079,22,25,24,043,43,26,44,174,45,31,74,009,47*74
2017-12-01 18:04:51 1512169491.709867: $GPGSV,3,3,12,32,42,100,44,01,10,259,27,10,05,159,08,138,38,213,46*45
2017-12-01 18:04:51 1512169491.822977: $GPZDA,230452.00,01,12,2017,00,00*62
2017-12-01 18:04:51 1512169491.823115: $GPGGA,230452,3946.9705,N,08404.9852,W,2,12,0.60,291.63,M,-33.325,M,,*7F
2017-12-01 18:04:51 1512169491.823182: $GPRMC,230452,A,3946.9705,N,08404.9852,W,0.0000,0.000,011217,,*34
2017-12-01 18:04:51 1512169491.823244: $GPGSA,A,3,3,14,16,22,29,25,26,31,32,1,10,138,2.0,0.6,1.5*02
2017-12-01 18:04:52 1512169492.373132: $GPZDA,230453.00,01,12,2017,00,00*63
2017-12-01 18:04:52 1512169492.373332: $GPGGA,230453,3946.9705,N,08404.9852,W,2,12,0.60,291.63,M,-33.325,M,,*7E
2017-12-01 18:04:52 1512169492.373427: $GPRMC,230453,A,3946.9705,N,08404.9852,W,0.0000,0.000,011217,,*35
2017-12-01 18:04:52 1512169492.373699: $GPGSA,A,3,3,14,16,22,29,25,26,31,32,1,10,138,2.0,0.6,1.5*02
2017-12-01 18:04:53 1512169493.373020: $GPZDA,230454.00,01,12,2017,00,00*64
2017-12-01 18:04:53 1512169493.373199: $GPGGA,230454,3946.9705,N,08404.9852,W,2,12,0.60,291.63,M,-33.325,M,,*79
2017-12-01 18:04:53 1512169493.373268: $GPRMC,230454,A,3946.9705,N,08404.9852,W,0.0000,0.000,011217,,*32
2017-12-01 18:04:53 1512169493.373329: $GPGSA,A,3,3,14,16,22,29,25,26,31,32,1,10,138,2.0,0.6,1.5*02
2017-12-01 18:04:54 1512169494.706179: $GPGSV,3,1,12,03,35,306,47,14,61,079,44,16,15,189,40,22,49,283,47*77
2017-12-01 18:04:54 1512169494.706353: $GPGSV,3,2,12,29,07,079,22,25,24,043,42,26,44,174,45,31,74,009,47*75
2017-12-01 18:04:54 1512169494.706424: $GPGSV,3,3,12,32,42,100,44,01,10,259,24,10,05,159,13,138,38,213,47*4D
2017-12-01 18:04:54 1512169494.819633: $GPZDA,230455.00,01,12,2017,00,00*65
2017-12-01 18:04:54 1512169494.819809: $GPGGA,230455,3946.9705,N,08404.9852,W,2,12,0.60,291.63,M,-33.325,M,,*78
2017-12-01 18:04:54 1512169494.819878: $GPRMC,230455,A,3946.9705,N,08404.9852,W,0.0000,0.000,011217,,*33
2017-12-01 18:04:54 1512169494.819942: $GPGSA,A,3,3,14,16,22,29,25,26,31,32,1,10,138,2.0,0.6,1.5*02
2017-12-01 18:04:55 1512169495.374282: $GPZDA,230456.00,01,12,2017,00,00*66
2017-12-01 18:04:55 1512169495.374512: $GPGGA,230456,3946.9705,N,08404.9852,W,2,12,0.60,291.63,M,-33.325,M,,*7B
2017-12-01 18:04:55 1512169495.374586: $GPRMC,230456,A,3946.9705,N,08404.9852,W,0.0000,0.000,011217,,*30
2017-12-01 18:04:55 1512169495.374667: $GPGSA,A,3,3,14,16,22,29,25,26,31,32,1,10,138,2.0,0.6,1.5*02
2017-12-01 18:04:56 1512169496.372986: $GPZDA,230457.00,01,12,2017,00,00*67
2017-12-01 18:04:56 1512169496.373296: $GPGGA,230457,3946.9705,N,08404.9852,W,2,12,0.60,291.63,M,-33.325,M,,*7A
2017-12-01 18:04:56 1512169496.373442: $GPRMC,230457,A,3946.9705,N,08404.9852,W,0.0000,0.000,011217,,*31
2017-12-01 18:04:56 1512169496.373613: $GPGSA,A,3,3,14,16,22,29,25,26,31,32,1,10,138,2.0,0.6,1.5*02
2017-12-01 18:04:57 1512169497.709409: $GPGSV,3,1,12,03,35,306,47,14,61,079,44,16,15,189,40,22,49,283,47*77
2017-12-01 18:04:57 1512169497.709626: $GPGSV,3,2,12,29,07,079,22,25,24,043,42,26,44,174,45,31,74,009,48*7A
2017-12-01 18:04:57 1512169497.709698: $GPGSV,3,3,12,32,42,100,43,01,10,259,16,23,05,297,44,138,38,213,46*49
2017-12-01 18:04:57 1512169497.822891: $GPZDA,230458.00,01,12,2017,00,00*68
2017-12-01 18:04:57 1512169497.823039: $GPGGA,230458,3946.9705,N,08404.9852,W,2,12,0.60,291.63,M,-33.325,M,,*75
2017-12-01 18:04:57 1512169497.823108: $GPRMC,230458,A,3946.9705,N,08404.9852,W,0.0000,0.000,011217,,*3E
2017-12-01 18:04:57 1512169497.823172: $GPGSA,A,3,3,14,16,22,29,25,26,31,32,1,23,138,2.0,0.6,1.5*02
2017-12-01 18:04:58 1512169498.448287: $GPZDA,230459.00,01,12,2017,00,00*69
2017-12-01 18:04:58 1512169498.448481: $GPGGA,230459,3946.9705,N,08404.9852,W,2,12,0.60,291.63,M,-33.325,M,,*74
2017-12-01 18:04:58 1512169498.448579: $GPRMC,230459,A,3946.9705,N,08404.9852,W,0.0000,0.000,011217,,*3F
2017-12-01 18:04:58 1512169498.448645: $GPGSA,A,3,3,14,16,22,29,25,26,31,32,1,23,138,2.0,0.6,1.5*02
