2017-12-01 13:51:08 1512154268.257080: {"class":"VERSION","release":"3.16","rev":"3.16-4","proto_major":3,"proto_minor":11}
2017-12-01 13:51:08 1512154268.257495: {"class":"DEVICES","devices":[{"class":"DEVICE","path":"/dev/ttyUSB0","driver":"SiRF","subtype":"9\u0006GSD4e_4.1.2-P1_RPATCH.05-F-GPS-4R-1510281 11/03/2015 307","activated":"2017-12-01T18:51:08.243Z","flags":1,"native":1,"bps":4800,"parity":"N","stopbits":1,"cycle":1.00}]}
2017-12-01 13:51:08 1512154268.257644: {"class":"WATCH","enable":true,"json":false,"nmea":true,"raw":0,"scaled":false,"timing":false,"split24":false,"pps":false}
2017-12-01 13:51:08 1512154268.356904: $GPZDA,185109.00,01,12,2017,00,00*64
2017-12-01 13:51:08 1512154268.357087: $GPGGA,185109,3946.9570,N,08404.9859,W,2,11,0.80,296.76,M,-33.324,M,,*7D
2017-12-01 13:51:08 1512154268.357155: $GPRMC,185109,A,3946.9570,N,08404.9859,W,0.0000,0.000,011217,,*39
2017-12-01 13:51:08 1512154268.357216: $GPGSA,A,3,10,14,15,18,20,21,24,27,32,8,138,,2.0,0.8,1.5*34
2017-12-01 13:51:09 1512154269.694007: $GPGSV,3,1,11,10,56,315,48,14,18,243,37,15,22,060,46,18,77,043,43*76
2017-12-01 13:51:09 1512154269.694191: $GPGSV,3,2,11,20,20,109,43,21,44,181,45,24,52,078,47,27,14,271,39*7E
2017-12-01 13:51:09 1512154269.694258: $GPGSV,3,3,11,32,35,252,43,08,08,306,31,138,38,213,46*78
2017-12-01 13:51:09 1512154269.807468: $GPZDA,185110.00,01,12,2017,00,00*6C
2017-12-01 13:51:09 1512154269.807633: $GPGGA,185110,3946.9570,N,08404.9859,W,2,11,0.80,296.76,M,-33.324,M,,*75
2017-12-01 13:51:09 1512154269.807699: $GPRMC,185110,A,3946.9570,N,08404.9859,W,0.0000,0.000,011217,,*31
2017-12-01 13:51:09 1512154269.807761: $GPGSA,A,3,10,14,15,18,20,21,24,27,32,8,138,,2.0,0.8,1.5*34
2017-12-01 13:51:10 1512154270.432694: $GPZDA,185111.00,01,12,2017,00,00*6D
2017-12-01 13:51:10 1512154270.432894: $GPGGA,185111,3946.9570,N,08404.9859,W,2,11,0.80,296.76,M,-33.324,M,,*74
2017-12-01 13:51:10 1512154270.432981: $GPRMC,185111,A,3946.9570,N,08404.9859,W,0.0000,0.000,011217,,*30
2017-12-01 13:51:10 1512154270.433044: $GPGSA,A,3,10,14,15,18,20,21,24,27,32,8,138,,2.0,0.8,1.5*34
2017-12-01 13:51:11 1512154271.359016: $GPZDA,185112.00,01,12,2017,00,00*6E
2017-12-01 13:51:11 1512154271.359187: $GPGGA,185112,3946.9570,N,08404.9859,W,2,11,0.80,296.76,M,-33.324,M,,*77
2017-12-01 13:51:11 1512154271.359254: $GPRMC,185112,A,3946.9570,N,08404.9859,W,0.0000,0.000,011217,,*33
2017-12-01 13:51:11 1512154271.359315: $GPGSA,A,3,10,14,15,18,20,21,24,27,32,8,138,,2.0,0.8,1.5*34
2017-12-01 13:51:12 1512154272.695508: $GPGSV,3,1,11,10,56,315,48,14,18,243,36,15,22,060,46,18,77,043,43*77
2017-12-01 13:51:12 1512154272.695689: $GPGSV,3,2,11,20,20,109,43,21,44,181,45,24,52,078,47,27,14,271,39*7E
2017-12-01 13:51:12 1512154272.695756: $GPGSV,3,3,11,32,35,252,42,08,08,306,31,138,38,213,46*79
2017-12-01 13:51:12 1512154272.808979: $GPZDA,185113.00,01,12,2017,00,00*6F
2017-12-01 13:51:12 1512154272.809151: $GPGGA,185113,3946.9570,N,08404.9859,W,2,11,0.80,296.76,M,-33.324,M,,*76
2017-12-01 13:51:12 1512154272.809218: $GPRMC,185113,A,3946.9570,N,08404.9859,W,0.0000,0.000,011217,,*32
2017-12-01 13:51:12 1512154272.809279: $GPGSA,A,3,10,14,15,18,20,21,24,27,32,8,138,,2.0,0.8,1.5*34
2017-12-01 13:51:13 1512154273.359784: $GPZDA,185114.00,01,12,2017,00,00*68
2017-12-01 13:51:13 1512154273.359999: $GPGGA,185114,3946.9570,N,08404.9859,W,2,11,0.80,296.76,M,-33.324,M,,*71
2017-12-01 13:51:13 1512154273.360068: $GPRMC,185114,A,3946.9570,N,08404.9859,W,0.0000,0.000,011217,,*35
2017-12-01 13:51:13 1512154273.360130: $GPGSA,A,3,10,14,15,18,20,21,24,27,32,8,138,,2.0,0.8,1.5*34
2017-12-01 13:51:14 1512154274.356897: $GPZDA,185115.00,01,12,2017,00,00*69
2017-12-01 13:51:14 1512154274.357311: $GPGGA,185115,3946.9570,N,08404.9859,W,2,11,0.80,296.76,M,-33.324,M,,*70
2017-12-01 13:51:14 1512154274.359662: $GPRMC,185115,A,3946.9570,N,08404.9859,W,0.0000,0.000,011217,,*34
2017-12-01 13:51:14 1512154274.359747: $GPGSA,A,3,10,14,15,18,20,21,24,27,32,8,138,,2.0,0.8,1.5*34
2017-12-01 13:51:15 1512154275.694718: $GPGSV,3,1,11,10,56,315,48,14,18,243,36,15,22,060,46,18,77,043,43*77
2017-12-01 13:51:15 1512154275.694989: $GPGSV,3,2,11,20,20,109,43,21,44,181,44,24,52,078,48,27,14,271,39*70
2017-12-01 13:51:15 1512154275.695061: $GPGSV,3,3,11,32,35,252,42,08,08,306,31,138,38,213,46*79
2017-12-01 13:51:15 1512154275.807149: $GPZDA,185116.00,01,12,2017,00,00*6A
2017-12-01 13:51:15 1512154275.807291: $GPGGA,185116,3946.9570,N,08404.9859,W,2,11,0.80,296.76,M,-33.324,M,,*73
2017-12-01 13:51:15 1512154275.807359: $GPRMC,185116,A,3946.9570,N,08404.9859,W,0.0000,0.000,011217,,*37
2017-12-01 13:51:15 1512154275.807420: $GPGSA,A,3,10,14,15,18,20,21,24,27,32,8,138,,2.0,0.8,1.5*34
2017-12-01 13:51:16 1512154276.357627: $GPZDA,185117.00,01,12,2017,00,00*6B
2017-12-01 13:51:16 1512154276.357830: $GPGGA,185117,3946.9570,N,08404.9859,W,2,11,0.80,296.76,M,-33.324,M,,*72
2017-12-01 13:51:16 1512154276.357902: $GPRMC,185117,A,3946.9570,N,08404.9859,W,0.0000,0.000,011217,,*36
2017-12-01 13:51:16 1512154276.357982: $GPGSA,A,3,10,14,15,18,20,21,24,27,32,8,138,,2.0,0.8,1.5*34
2017-12-01 13:51:17 1512154277.357514: $GPZDA,185118.00,01,12,2017,00,00*64
2017-12-01 13:51:17 1512154277.357685: $GPGGA,185118,3946.9570,N,08404.9859,W,2,11,0.80,296.76,M,-33.324,M,,*7D
2017-12-01 13:51:17 1512154277.357752: $GPRMC,185118,A,3946.9570,N,08404.9859,W,0.0000,0.000,011217,,*39
2017-12-01 13:51:17 1512154277.357839: $GPGSA,A,3,10,14,15,18,20,21,24,27,32,8,138,,2.0,0.8,1.5*34
