2017-11-16 14:35:20 1510860920.807444: {"class":"VERSION","release":"3.17","rev":"3.17","proto_major":3,"proto_minor":12}
2017-11-16 14:35:20 1510860920.807874: {"class":"DEVICES","devices":[{"class":"DEVICE","path":"/dev/ttyUSB0","driver":"SiRF","subtype":"9\u0006GSD4e_4.1.2-P1_RPATCH.05-F-GPS-4R-1510281 11/03/2015 307","activated":"2017-11-16T19:35:20.697Z","flags":1,"native":1,"bps":4800,"parity":"N","stopbits":1,"cycle":1.00}]}
2017-11-16 14:35:20 1510860920.807985: {"class":"WATCH","enable":true,"json":false,"nmea":true,"raw":0,"scaled":false,"timing":false,"split24":false,"pps":false}
2017-11-16 14:35:21 1510860921.857604: $GPGSV,3,1,11,08,08,313,40,10,49,309,48,15,29,055,51,18,76,003,46*76
2017-11-16 14:35:21 1510860921.857771: $GPGSV,3,2,11,21,54,184,47,20,26,103,47,24,53,094,50,27,17,280,41*77
2017-11-16 14:35:21 1510860921.857831: $GPGSV,3,3,11,32,28,244,47,14,11,237,42,138,38,213,44*77
2017-11-16 14:35:21 1510860921.971396: $GPZDA,193520.00,16,11,2017,00,00*69
2017-11-16 14:35:21 1510860921.971560: $GPGGA,193520,3946.9564,N,08404.9849,W,2,11,0.80,302.66,M,-33.324,M,,*7C
2017-11-16 14:35:21 1510860921.971621: $GPRMC,193520,A,3946.9564,N,08404.9849,W,0.0000,0.000,161117,,*30
2017-11-16 14:35:21 1510860921.971677: $GPGSA,A,3,8,10,15,18,21,20,24,27,32,14,138,,1.6,0.8,1.3*37
2017-11-16 14:35:22 1510860922.522453: $GPZDA,193521.00,16,11,2017,00,00*68
2017-11-16 14:35:22 1510860922.522642: $GPGGA,193521,3946.9564,N,08404.9849,W,2,11,0.80,302.66,M,-33.324,M,,*7D
2017-11-16 14:35:22 1510860922.522703: $GPRMC,193521,A,3946.9564,N,08404.9849,W,0.0000,0.000,161117,,*31
2017-11-16 14:35:22 1510860922.522759: $GPGSA,A,3,8,10,15,18,21,20,24,27,32,14,138,,1.6,0.8,1.3*37
2017-11-16 14:35:23 1510860923.556800: $GPZDA,193522.00,16,11,2017,00,00*6B
2017-11-16 14:35:23 1510860923.556963: $GPGGA,193522,3946.9564,N,08404.9849,W,2,11,0.80,302.66,M,-33.324,M,,*7E
2017-11-16 14:35:23 1510860923.557024: $GPRMC,193522,A,3946.9564,N,08404.9849,W,0.0000,0.000,161117,,*32
2017-11-16 14:35:23 1510860923.557080: $GPGSA,A,3,8,10,15,18,21,20,24,27,32,14,138,,1.6,0.8,1.3*37
2017-11-16 14:35:24 1510860924.887004: $GPGSV,3,1,11,08,08,313,41,10,49,309,49,15,29,055,51,18,76,003,46*76
2017-11-16 14:35:24 1510860924.887178: $GPGSV,3,2,11,21,54,184,47,20,26,103,46,24,53,094,50,27,17,280,41*76
2017-11-16 14:35:24 1510860924.887238: $GPGSV,3,3,11,32,28,244,48,14,11,237,42,138,38,213,45*79
2017-11-16 14:35:25 1510860925.000494: $GPZDA,193523.00,16,11,2017,00,00*6A
2017-11-16 14:35:25 1510860925.000652: $GPGGA,193523,3946.9564,N,08404.9849,W,2,11,0.80,302.66,M,-33.324,M,,*7F
2017-11-16 14:35:25 1510860925.000712: $GPRMC,193523,A,3946.9564,N,08404.9849,W,0.0000,0.000,161117,,*33
2017-11-16 14:35:25 1510860925.000768: $GPGSA,A,3,8,10,15,18,21,20,24,27,32,14,138,,1.6,0.8,1.3*37
2017-11-16 14:35:25 1510860925.521510: $GPZDA,193524.00,16,11,2017,00,00*6D
2017-11-16 14:35:25 1510860925.521697: $GPGGA,193524,3946.9564,N,08404.9849,W,2,11,0.80,302.66,M,-33.324,M,,*78
2017-11-16 14:35:25 1510860925.521787: $GPRMC,193524,A,3946.9564,N,08404.9849,W,0.0000,0.000,161117,,*34
2017-11-16 14:35:25 1510860925.521868: $GPGSA,A,3,8,10,15,18,21,20,24,27,32,14,138,,1.6,0.8,1.3*37
2017-11-16 14:35:26 1510860926.556083: $GPZDA,193525.00,16,11,2017,00,00*6C
2017-11-16 14:35:26 1510860926.556242: $GPGGA,193525,3946.9564,N,08404.9849,W,2,11,0.80,302.66,M,-33.324,M,,*79
2017-11-16 14:35:26 1510860926.556303: $GPRMC,193525,A,3946.9564,N,08404.9849,W,0.0000,0.000,161117,,*35
2017-11-16 14:35:26 1510860926.556359: $GPGSA,A,3,8,10,15,18,21,20,24,27,32,14,138,,1.6,0.8,1.3*37
2017-11-16 14:35:27 1510860927.858040: $GPGSV,3,1,11,08,08,313,41,10,49,309,48,15,29,055,51,18,76,003,45*74
2017-11-16 14:35:27 1510860927.858208: $GPGSV,3,2,11,21,54,184,47,20,26,103,46,24,53,094,50,27,17,280,41*76
2017-11-16 14:35:27 1510860927.858269: $GPGSV,3,3,11,32,28,244,48,14,11,237,42,138,38,213,45*79
2017-11-16 14:35:27 1510860927.971270: $GPZDA,193526.00,16,11,2017,00,00*6F
2017-11-16 14:35:27 1510860927.971422: $GPGGA,193526,3946.9564,N,08404.9849,W,2,11,0.80,302.66,M,-33.324,M,,*7A
2017-11-16 14:35:27 1510860927.971536: $GPRMC,193526,A,3946.9564,N,08404.9849,W,0.0000,0.000,161117,,*36
2017-11-16 14:35:27 1510860927.971594: $GPGSA,A,3,8,10,15,18,21,20,24,27,32,14,138,,1.6,0.8,1.3*37
2017-11-16 14:35:28 1510860928.522116: $GPZDA,193527.00,16,11,2017,00,00*6E
2017-11-16 14:35:28 1510860928.522277: $GPGGA,193527,3946.9564,N,08404.9849,W,2,11,0.80,302.66,M,-33.324,M,,*7B
2017-11-16 14:35:28 1510860928.522338: $GPRMC,193527,A,3946.9564,N,08404.9849,W,0.0000,0.000,161117,,*37
2017-11-16 14:35:28 1510860928.522393: $GPGSA,A,3,8,10,15,18,21,20,24,27,32,14,138,,1.6,0.8,1.3*37
2017-11-16 14:35:29 1510860929.556249: $GPZDA,193528.00,16,11,2017,00,00*61
2017-11-16 14:35:29 1510860929.556413: $GPGGA,193528,3946.9564,N,08404.9849,W,2,11,0.80,302.66,M,-33.324,M,,*74
2017-11-16 14:35:29 1510860929.556475: $GPRMC,193528,A,3946.9564,N,08404.9849,W,0.0000,0.000,161117,,*38
2017-11-16 14:35:29 1510860929.556531: $GPGSA,A,3,8,10,15,18,21,20,24,27,32,14,138,,1.6,0.8,1.3*37
2017-11-16 14:35:30 1510860930.893320: $GPGSV,3,1,11,08,08,313,40,10,49,309,48,15,29,055,51,18,76,003,45*75
2017-11-16 14:35:30 1510860930.893494: $GPGSV,3,2,11,21,54,184,47,20,26,103,46,24,53,094,50,27,17,280,41*76
2017-11-16 14:35:30 1510860930.893556: $GPGSV,3,3,11,32,28,244,48,14,11,237,41,138,38,213,43*7C
2017-11-16 14:35:31 1510860931.007122: $GPZDA,193529.00,16,11,2017,00,00*60
2017-11-16 14:35:31 1510860931.007297: $GPGGA,193529,3946.9564,N,08404.9849,W,2,11,0.80,302.66,M,-33.324,M,,*75
2017-11-16 14:35:31 1510860931.007358: $GPRMC,193529,A,3946.9564,N,08404.9849,W,0.0000,0.000,161117,,*39
2017-11-16 14:35:31 1510860931.007414: $GPGSA,A,3,8,10,15,18,21,20,24,27,32,14,138,,1.6,0.8,1.3*37
2017-11-16 14:35:31 1510860931.550367: $GPZDA,193530.00,16,11,2017,00,00*68
2017-11-16 14:35:31 1510860931.550546: $GPGGA,193530,3946.9564,N,08404.9849,W,2,11,0.80,302.66,M,-33.324,M,,*7D
2017-11-16 14:35:31 1510860931.550608: $GPRMC,193530,A,3946.9564,N,08404.9849,W,0.0000,0.000,161117,,*31
2017-11-16 14:35:31 1510860931.550665: $GPGSA,A,3,8,10,15,18,21,20,24,27,32,14,138,,1.6,0.8,1.3*37
2017-11-16 14:35:32 1510860932.516232: $GPZDA,193531.00,16,11,2017,00,00*69
2017-11-16 14:35:32 1510860932.516410: $GPGGA,193531,3946.9564,N,08404.9849,W,2,11,0.80,302.66,M,-33.324,M,,*7C
2017-11-16 14:35:32 1510860932.516472: $GPRMC,193531,A,3946.9564,N,08404.9849,W,0.0000,0.000,161117,,*30
2017-11-16 14:35:32 1510860932.516529: $GPGSA,A,3,8,10,15,18,21,20,24,27,32,14,138,,1.6,0.8,1.3*37
2017-11-16 14:35:33 1510860933.893076: $GPGSV,3,1,11,08,08,313,38,10,49,309,48,15,29,055,51,18,76,003,45*7A
2017-11-16 14:35:33 1510860933.893227: $GPGSV,3,2,11,21,54,184,47,20,26,103,46,24,53,094,49,27,17,280,41*7E
2017-11-16 14:35:33 1510860933.893287: $GPGSV,3,3,11,32,28,244,47,14,11,237,41,138,38,213,42*72
2017-11-16 14:35:34 1510860934.006435: $GPZDA,193532.00,16,11,2017,00,00*6A
2017-11-16 14:35:34 1510860934.006599: $GPGGA,193532,3946.9564,N,08404.9849,W,2,11,0.80,302.66,M,-33.324,M,,*7F
2017-11-16 14:35:34 1510860934.006662: $GPRMC,193532,A,3946.9564,N,08404.9849,W,0.0000,0.000,161117,,*33
2017-11-16 14:35:34 1510860934.006719: $GPGSA,A,3,8,10,15,18,21,20,24,27,32,14,138,,1.6,0.8,1.3*37
2017-11-16 14:35:34 1510860934.632183: $GPZDA,193533.00,16,11,2017,00,00*6B
2017-11-16 14:35:34 1510860934.632346: $GPGGA,193533,3946.9564,N,08404.9849,W,2,11,0.80,302.66,M,-33.324,M,,*7E
2017-11-16 14:35:34 1510860934.632407: $GPRMC,193533,A,3946.9564,N,08404.9849,W,0.0000,0.000,161117,,*32
2017-11-16 14:35:34 1510860934.632464: $GPGSA,A,3,8,10,15,18,21,20,24,27,32,14,138,,1.6,0.8,1.3*37
2017-11-16 14:35:35 1510860935.556511: $GPZDA,193534.00,16,11,2017,00,00*6C
2017-11-16 14:35:35 1510860935.556683: $GPGGA,193534,3946.9564,N,08404.9849,W,2,11,0.80,302.66,M,-33.324,M,,*79
2017-11-16 14:35:35 1510860935.556745: $GPRMC,193534,A,3946.9564,N,08404.9849,W,0.0000,0.000,161117,,*35
2017-11-16 14:35:35 1510860935.556801: $GPGSA,A,3,8,10,15,18,21,20,24,27,32,14,138,,1.6,0.8,1.3*37
2017-11-16 14:35:36 1510860936.859784: $GPGSV,3,1,11,08,08,313,38,10,49,309,49,15,29,055,50,18,76,003,45*7A
2017-11-16 14:35:36 1510860936.860030: $GPGSV,3,2,11,21,54,184,47,20,26,103,46,24,53,094,49,27,17,280,41*7E
2017-11-16 14:35:36 1510860936.860100: $GPGSV,3,3,11,32,28,244,47,14,11,237,41,138,38,213,44*74
2017-11-16 14:35:36 1510860936.973969: $GPZDA,193535.00,16,11,2017,00,00*6D
2017-11-16 14:35:36 1510860936.974130: $GPGGA,193535,3946.9564,N,08404.9849,W,2,11,0.80,302.66,M,-33.324,M,,*78
2017-11-16 14:35:36 1510860936.974193: $GPRMC,193535,A,3946.9564,N,08404.9849,W,0.0000,0.000,161117,,*34
2017-11-16 14:35:36 1510860936.974250: $GPGSA,A,3,8,10,15,18,21,20,24,27,32,14,138,,1.6,0.8,1.3*37
2017-11-16 14:35:37 1510860937.521933: $GPZDA,193536.00,16,11,2017,00,00*6E
2017-11-16 14:35:37 1510860937.522073: $GPGGA,193536,3946.9564,N,08404.9849,W,2,11,0.80,302.66,M,-33.324,M,,*7B
2017-11-16 14:35:37 1510860937.522133: $GPRMC,193536,A,3946.9564,N,08404.9849,W,0.0000,0.000,161117,,*37
2017-11-16 14:35:37 1510860937.522189: $GPGSA,A,3,8,10,15,18,21,20,24,27,32,14,138,,1.6,0.8,1.3*37
2017-11-16 14:35:38 1510860938.521240: $GPZDA,193537.00,16,11,2017,00,00*6F
2017-11-16 14:35:38 1510860938.521407: $GPGGA,193537,3946.9564,N,08404.9849,W,2,11,0.80,302.66,M,-33.324,M,,*7A
2017-11-16 14:35:38 1510860938.521468: $GPRMC,193537,A,3946.9564,N,08404.9849,W,0.0000,0.000,161117,,*36
2017-11-16 14:35:38 1510860938.521524: $GPGSA,A,3,8,10,15,18,21,20,24,27,32,14,138,,1.6,0.8,1.3*37
2017-11-16 14:35:39 1510860939.856505: $GPGSV,3,1,11,08,08,313,37,10,49,309,49,15,29,055,50,18,76,003,45*75
2017-11-16 14:35:39 1510860939.856677: $GPGSV,3,2,11,21,54,184,47,20,26,103,46,24,53,094,49,27,17,280,42*7D
2017-11-16 14:35:39 1510860939.856738: $GPGSV,3,3,11,32,28,244,47,14,11,237,40,138,38,213,44*75
2017-11-16 14:35:39 1510860939.969895: $GPZDA,193538.00,16,11,2017,00,00*60
2017-11-16 14:35:39 1510860939.970060: $GPGGA,193538,3946.9564,N,08404.9849,W,2,11,0.80,302.66,M,-33.324,M,,*75
2017-11-16 14:35:39 1510860939.970123: $GPRMC,193538,A,3946.9564,N,08404.9849,W,0.0000,0.000,161117,,*39
2017-11-16 14:35:39 1510860939.970179: $GPGSA,A,3,8,10,15,18,21,20,24,27,32,14,138,,1.6,0.8,1.3*37
2017-11-16 14:35:40 1510860940.522342: $GPZDA,193539.00,16,11,2017,00,00*61
2017-11-16 14:35:40 1510860940.522496: $GPGGA,193539,3946.9564,N,08404.9849,W,2,11,0.80,302.66,M,-33.324,M,,*74
2017-11-16 14:35:40 1510860940.522556: $GPRMC,193539,A,3946.9564,N,08404.9849,W,0.0000,0.000,161117,,*38
2017-11-16 14:35:40 1510860940.522612: $GPGSA,A,3,8,10,15,18,21,20,24,27,32,14,138,,1.6,0.8,1.3*37
2017-11-16 14:35:41 1510860941.521762: $GPZDA,193540.00,16,11,2017,00,00*6F
2017-11-16 14:35:41 1510860941.521928: $GPGGA,193540,3946.9564,N,08404.9849,W,2,11,0.80,302.66,M,-33.324,M,,*7A
2017-11-16 14:35:41 1510860941.521990: $GPRMC,193540,A,3946.9564,N,08404.9849,W,0.0000,0.000,161117,,*36
2017-11-16 14:35:41 1510860941.522046: $GPGSA,A,3,8,10,15,18,21,20,24,27,32,14,138,,1.6,0.8,1.3*37
2017-11-16 14:35:42 1510860942.854995: $GPGSV,3,1,11,08,08,313,37,10,49,309,49,15,29,055,50,18,76,003,45*75
2017-11-16 14:35:42 1510860942.855168: $GPGSV,3,2,11,21,54,184,47,20,26,103,46,24,53,094,48,27,17,280,41*7F
2017-11-16 14:35:42 1510860942.855229: $GPGSV,3,3,11,32,28,244,46,14,11,237,40,138,38,213,44*74
2017-11-16 14:35:42 1510860942.968397: $GPZDA,193541.00,16,11,2017,00,00*6E
2017-11-16 14:35:42 1510860942.968556: $GPGGA,193541,3946.9564,N,08404.9849,W,2,11,0.80,302.66,M,-33.324,M,,*7B
2017-11-16 14:35:42 1510860942.968618: $GPRMC,193541,A,3946.9564,N,08404.9849,W,0.0000,0.000,161117,,*37
2017-11-16 14:35:42 1510860942.968674: $GPGSA,A,3,8,10,15,18,21,20,24,27,32,14,138,,1.6,0.8,1.3*37
2017-11-16 14:35:43 1510860943.521690: $GPZDA,193542.00,16,11,2017,00,00*6D
2017-11-16 14:35:43 1510860943.521851: $GPGGA,193542,3946.9564,N,08404.9849,W,2,11,0.80,302.66,M,-33.324,M,,*78
2017-11-16 14:35:43 1510860943.521911: $GPRMC,193542,A,3946.9564,N,08404.9849,W,0.0000,0.000,161117,,*34
2017-11-16 14:35:43 1510860943.521967: $GPGSA,A,3,8,10,15,18,21,20,24,27,32,14,138,,1.6,0.8,1.3*37
2017-11-16 14:35:44 1510860944.522137: $GPZDA,193543.00,16,11,2017,00,00*6C
2017-11-16 14:35:44 1510860944.522362: $GPGGA,193543,3946.9564,N,08404.9849,W,2,11,0.80,302.66,M,-33.324,M,,*79
2017-11-16 14:35:44 1510860944.522427: $GPRMC,193543,A,3946.9564,N,08404.9849,W,0.0000,0.000,161117,,*35
2017-11-16 14:35:44 1510860944.522483: $GPGSA,A,3,8,10,15,18,21,20,24,27,32,14,138,,1.6,0.8,1.3*37
2017-11-16 14:35:45 1510860945.859218: $GPGSV,3,1,11,08,08,313,36,10,49,309,49,15,29,055,50,18,76,003,45*74
2017-11-16 14:35:45 1510860945.859391: $GPGSV,3,2,11,21,54,184,47,20,26,103,47,24,53,094,48,27,17,280,42*7D
2017-11-16 14:35:45 1510860945.859451: $GPGSV,3,3,11,32,28,244,46,14,11,237,40,138,38,213,44*74
2017-11-16 14:35:45 1510860945.972826: $GPZDA,193544.00,16,11,2017,00,00*6B
2017-11-16 14:35:45 1510860945.973012: $GPGGA,193544,3946.9564,N,08404.9849,W,2,11,0.80,302.66,M,-33.324,M,,*7E
2017-11-16 14:35:45 1510860945.973078: $GPRMC,193544,A,3946.9564,N,08404.9849,W,0.0000,0.000,161117,,*32
2017-11-16 14:35:45 1510860945.973135: $GPGSA,A,3,8,10,15,18,21,20,24,27,32,14,138,,1.6,0.8,1.3*37
2017-11-16 14:35:46 1510860946.523432: $GPZDA,193545.00,16,11,2017,00,00*6A
2017-11-16 14:35:46 1510860946.523592: $GPGGA,193545,3946.9564,N,08404.9849,W,2,11,0.80,302.66,M,-33.324,M,,*7F
2017-11-16 14:35:46 1510860946.523653: $GPRMC,193545,A,3946.9564,N,08404.9849,W,0.0000,0.000,161117,,*33
2017-11-16 14:35:46 1510860946.523709: $GPGSA,A,3,8,10,15,18,21,20,24,27,32,14,138,,1.6,0.8,1.3*37
2017-11-16 14:35:47 1510860947.523097: $GPZDA,193546.00,16,11,2017,00,00*69
2017-11-16 14:35:47 1510860947.523261: $GPGGA,193546,3946.9564,N,08404.9849,W,2,11,0.80,302.66,M,-33.324,M,,*7C
2017-11-16 14:35:47 1510860947.523324: $GPRMC,193546,A,3946.9564,N,08404.9849,W,0.0000,0.000,161117,,*30
2017-11-16 14:35:47 1510860947.523382: $GPGSA,A,3,8,10,15,18,21,20,24,27,32,14,138,,1.6,0.8,1.3*37
2017-11-16 14:35:48 1510860948.858959: $GPGSV,3,1,11,08,08,313,36,10,49,309,49,15,29,055,50,18,76,003,45*74
2017-11-16 14:35:48 1510860948.859127: $GPGSV,3,2,11,21,54,184,47,20,26,103,47,24,53,094,48,27,17,280,42*7D
2017-11-16 14:35:48 1510860948.859189: $GPGSV,3,3,11,32,28,244,46,14,11,237,40,138,38,213,44*74
2017-11-16 14:35:48 1510860948.972985: $GPZDA,193547.00,16,11,2017,00,00*68
2017-11-16 14:35:48 1510860948.973156: $GPGGA,193547,3946.9564,N,08404.9849,W,2,11,0.80,302.66,M,-33.324,M,,*7D
2017-11-16 14:35:48 1510860948.973216: $GPRMC,193547,A,3946.9564,N,08404.9849,W,0.0000,0.000,161117,,*31
2017-11-16 14:35:48 1510860948.973272: $GPGSA,A,3,8,10,15,18,21,20,24,27,32,14,138,,1.6,0.8,1.3*37
2017-11-16 14:35:49 1510860949.598172: $GPZDA,193548.00,16,11,2017,00,00*67
2017-11-16 14:35:49 1510860949.598347: $GPGGA,193548,3946.9564,N,08404.9849,W,2,11,0.80,302.66,M,-33.324,M,,*72
2017-11-16 14:35:49 1510860949.598408: $GPRMC,193548,A,3946.9564,N,08404.9849,W,0.0000,0.000,161117,,*3E
2017-11-16 14:35:49 1510860949.598464: $GPGSA,A,3,8,10,15,18,21,20,24,27,32,14,138,,1.6,0.8,1.3*37
2017-11-16 14:35:50 1510860950.556394: $GPZDA,193549.00,16,11,2017,00,00*66
2017-11-16 14:35:50 1510860950.556544: $GPGGA,193549,3946.9564,N,08404.9849,W,2,11,0.80,302.66,M,-33.324,M,,*73
2017-11-16 14:35:50 1510860950.556604: $GPRMC,193549,A,3946.9564,N,08404.9849,W,0.0000,0.000,161117,,*3F
2017-11-16 14:35:50 1510860950.556660: $GPGSA,A,3,8,10,15,18,21,20,24,27,32,14,138,,1.6,0.8,1.3*37
