2017-12-01 12:14:45 1512148485.126925: {"class":"VERSION","release":"3.16","rev":"3.16-4","proto_major":3,"proto_minor":11}
2017-12-01 12:14:45 1512148485.127354: {"class":"DEVICES","devices":[{"class":"DEVICE","path":"/dev/ttyUSB0","driver":"SiRF","subtype":"9\u0006GSD4e_4.1.2-P1_RPATCH.05-F-GPS-4R-1510281 11/03/2015 307","activated":"2017-12-01T17:14:44.542Z","flags":1,"native":1,"bps":4800,"parity":"N","stopbits":1,"cycle":1.00}]}
2017-12-01 12:14:45 1512148485.127484: {"class":"WATCH","enable":true,"json":false,"nmea":true,"raw":0,"scaled":false,"timing":false,"split24":false,"pps":false}
2017-12-01 12:14:45 1512148485.410307: $GPZDA,171446.00,01,12,2017,00,00*61
2017-12-01 12:14:45 1512148485.410469: $GPGGA,171446,3946.9581,N,08404.9839,W,2,11,0.80,298.92,M,-33.324,M,,*74
2017-12-01 12:14:45 1512148485.410536: $GPRMC,171446,A,3946.9581,N,08404.9839,W,0.0000,0.000,011217,,*34
2017-12-01 12:14:45 1512148485.410598: $GPGSA,A,3,10,13,15,18,20,21,24,27,5,29,138,,2.0,0.8,1.5*34
2017-12-01 12:14:46 1512148486.742306: $GPGSV,3,1,12,10,22,282,31,13,30,045,45,15,62,052,45,18,53,298,44*78
2017-12-01 12:14:46 1512148486.742488: $GPGSV,3,2,12,20,52,070,46,21,78,274,44,24,32,139,47,27,16,313,42*7C
2017-12-01 12:14:46 1512148486.742557: $GPGSV,3,3,12,05,04,087,18,29,11,190,26,04,01,136,00,138,38,213,46*48
2017-12-01 12:14:46 1512148486.855525: $GPZDA,171447.00,01,12,2017,00,00*60
2017-12-01 12:14:46 1512148486.855714: $GPGGA,171447,3946.9581,N,08404.9839,W,2,11,0.80,298.92,M,-33.324,M,,*75
2017-12-01 12:14:46 1512148486.855781: $GPRMC,171447,A,3946.9581,N,08404.9839,W,0.0000,0.000,011217,,*35
2017-12-01 12:14:46 1512148486.855843: $GPGSA,A,3,10,13,15,18,20,21,24,27,5,29,138,,2.0,0.8,1.5*34
2017-12-01 12:14:47 1512148487.406513: $GPZDA,171448.00,01,12,2017,00,00*6F
2017-12-01 12:14:47 1512148487.406706: $GPGGA,171448,3946.9581,N,08404.9839,W,2,11,0.80,298.92,M,-33.324,M,,*7A
2017-12-01 12:14:47 1512148487.406774: $GPRMC,171448,A,3946.9581,N,08404.9839,W,0.0000,0.000,011217,,*3A
2017-12-01 12:14:47 1512148487.406863: $GPGSA,A,3,10,13,15,18,20,21,24,27,5,29,138,,2.0,0.8,1.5*34
2017-12-01 12:14:48 1512148488.390559: $GPZDA,171449.00,01,12,2017,00,00*6E
2017-12-01 12:14:48 1512148488.390757: $GPGGA,171449,3946.9581,N,08404.9839,W,2,11,0.80,298.92,M,-33.324,M,,*7B
2017-12-01 12:14:48 1512148488.390855: $GPRMC,171449,A,3946.9581,N,08404.9839,W,0.0000,0.000,011217,,*3B
2017-12-01 12:14:48 1512148488.390918: $GPGSA,A,3,10,13,15,18,20,21,24,27,5,29,138,,2.0,0.8,1.5*34
2017-12-01 12:14:49 1512148489.738783: $GPGSV,3,1,12,10,22,282,34,13,30,045,45,15,62,052,45,18,53,298,44*7D
2017-12-01 12:14:49 1512148489.738983: $GPGSV,3,2,12,20,52,070,46,21,78,274,44,24,32,139,47,27,16,313,41*7F
2017-12-01 12:14:49 1512148489.739049: $GPGSV,3,3,12,05,04,087,20,29,11,190,26,04,01,136,00,138,38,213,46*43
2017-12-01 12:14:49 1512148489.852203: $GPZDA,171450.00,01,12,2017,00,00*66
2017-12-01 12:14:49 1512148489.852359: $GPGGA,171450,3946.9581,N,08404.9839,W,2,11,0.80,298.92,M,-33.324,M,,*73
2017-12-01 12:14:49 1512148489.852425: $GPRMC,171450,A,3946.9581,N,08404.9839,W,0.0000,0.000,011217,,*33
2017-12-01 12:14:49 1512148489.852533: $GPGSA,A,3,10,13,15,18,20,21,24,27,5,29,138,,2.0,0.8,1.5*34
2017-12-01 12:14:50 1512148490.389296: $GPZDA,171451.00,01,12,2017,00,00*67
2017-12-01 12:14:50 1512148490.389467: $GPGGA,171451,3946.9581,N,08404.9839,W,2,11,0.80,298.92,M,-33.324,M,,*72
2017-12-01 12:14:50 1512148490.389533: $GPRMC,171451,A,3946.9581,N,08404.9839,W,0.0000,0.000,011217,,*32
2017-12-01 12:14:50 1512148490.389594: $GPGSA,A,3,10,13,15,18,20,21,24,27,5,29,138,,2.0,0.8,1.5*34
2017-12-01 12:14:51 1512148491.390239: $GPZDA,171452.00,01,12,2017,00,00*64
2017-12-01 12:14:51 1512148491.390408: $GPGGA,171452,3946.9581,N,08404.9839,W,2,11,0.80,298.92,M,-33.324,M,,*71
2017-12-01 12:14:51 1512148491.390474: $GPRMC,171452,A,3946.9581,N,08404.9839,W,0.0000,0.000,011217,,*31
2017-12-01 12:14:51 1512148491.390535: $GPGSA,A,3,10,13,15,18,20,21,24,27,5,29,138,,2.0,0.8,1.5*34
2017-12-01 12:14:52 1512148492.743362: $GPGSV,3,1,12,10,22,282,34,13,30,045,45,15,62,052,45,18,53,298,44*7D
2017-12-01 12:14:52 1512148492.743576: $GPGSV,3,2,12,20,52,070,46,21,78,274,44,24,32,139,47,27,16,313,41*7F
2017-12-01 12:14:52 1512148492.743666: $GPGSV,3,3,12,05,04,087,20,29,11,190,26,04,01,136,00,138,38,213,46*43
2017-12-01 12:14:52 1512148492.855517: $GPZDA,171453.00,01,12,2017,00,00*65
2017-12-01 12:14:52 1512148492.855710: $GPGGA,171453,3946.9581,N,08404.9839,W,2,11,0.80,298.92,M,-33.324,M,,*70
2017-12-01 12:14:52 1512148492.855793: $GPRMC,171453,A,3946.9581,N,08404.9839,W,0.0000,0.000,011217,,*30
2017-12-01 12:14:52 1512148492.855856: $GPGSA,A,3,10,13,15,18,20,21,24,27,5,29,138,,2.0,0.8,1.5*34
2017-12-01 12:14:53 1512148493.482244: $GPZDA,171454.00,01,12,2017,00,00*62
2017-12-01 12:14:53 1512148493.482415: $GPGGA,171454,3946.9578,N,08404.9839,W,2,11,0.80,299.69,M,-33.324,M,,*74
2017-12-01 12:14:53 1512148493.482483: $GPRMC,171454,A,3946.9578,N,08404.9839,W,0.0000,0.000,011217,,*31
2017-12-01 12:14:53 1512148493.482545: $GPGSA,A,3,10,13,15,18,20,21,24,27,5,29,138,,2.0,0.8,1.5*34
2017-12-01 12:14:54 1512148494.406796: $GPZDA,171455.00,01,12,2017,00,00*63
2017-12-01 12:14:54 1512148494.406968: $GPGGA,171455,3946.9578,N,08404.9839,W,2,11,0.80,299.69,M,-33.324,M,,*75
2017-12-01 12:14:54 1512148494.407035: $GPRMC,171455,A,3946.9578,N,08404.9839,W,0.0000,0.000,011217,,*30
2017-12-01 12:14:54 1512148494.407095: $GPGSA,A,3,10,13,15,18,20,21,24,27,5,29,138,,2.0,0.8,1.5*34
