2017-12-01 14:40:14 1512157214.726895: {"class":"VERSION","release":"3.16","rev":"3.16-4","proto_major":3,"proto_minor":11}
2017-12-01 14:40:14 1512157214.727422: {"class":"DEVICES","devices":[{"class":"DEVICE","path":"/dev/ttyUSB0","driver":"SiRF","subtype":"9\u0006GSD4e_4.1.2-P1_RPATCH.05-F-GPS-4R-1510281 11/03/2015 307","activated":"2017-12-01T19:40:14.679Z","flags":1,"native":1,"bps":4800,"parity":"N","stopbits":1,"cycle":1.00}]}
2017-12-01 14:40:14 1512157214.727549: {"class":"WATCH","enable":true,"json":false,"nmea":true,"raw":0,"scaled":false,"timing":false,"split24":false,"pps":false}
2017-12-01 14:40:14 1512157214.793034: $GPZDA,194015.00,01,12,2017,00,00*68
2017-12-01 14:40:14 1512157214.793182: $GPGGA,194015,3946.9581,N,08404.9865,W,2,12,1.00,295.80,M,-33.324,M,,*70
2017-12-01 14:40:14 1512157214.793247: $GPRMC,194015,A,3946.9581,N,08404.9865,W,0.0000,0.000,011217,,*34
2017-12-01 14:40:14 1512157214.793307: $GPGSA,A,3,10,12,14,18,21,24,31,32,8,15,25,138,2.0,1.0,1.5*3C
2017-12-01 14:40:15 1512157215.418848: $GPZDA,194016.00,01,12,2017,00,00*6B
2017-12-01 14:40:15 1512157215.419028: $GPGGA,194016,3946.9581,N,08404.9865,W,2,12,1.00,295.80,M,-33.324,M,,*73
2017-12-01 14:40:15 1512157215.419094: $GPRMC,194016,A,3946.9581,N,08404.9865,W,0.0000,0.000,011217,,*37
2017-12-01 14:40:15 1512157215.419156: $GPGSA,A,3,10,12,14,18,21,24,31,32,8,15,25,138,2.0,1.0,1.5*3C
2017-12-01 14:40:16 1512157216.347194: $GPZDA,194017.00,01,12,2017,00,00*6A
2017-12-01 14:40:16 1512157216.347369: $GPGGA,194017,3946.9581,N,08404.9865,W,2,12,1.00,295.80,M,-33.324,M,,*72
2017-12-01 14:40:16 1512157216.347437: $GPRMC,194017,A,3946.9581,N,08404.9865,W,0.0000,0.000,011217,,*36
2017-12-01 14:40:16 1512157216.347498: $GPGSA,A,3,10,12,14,18,21,24,31,32,8,15,25,138,2.0,1.0,1.5*3C
2017-12-01 14:40:17 1512157217.680017: $GPGSV,3,1,12,10,76,345,47,12,14,100,38,14,34,259,43,18,64,108,46*7E
2017-12-01 14:40:17 1512157217.680202: $GPGSV,3,2,12,21,21,178,45,24,39,052,47,31,06,204,35,32,52,274,44*7F
2017-12-01 14:40:17 1512157217.680269: $GPGSV,3,3,12,08,03,288,28,15,06,070,27,25,08,136,28,138,38,213,47*4A
2017-12-01 14:40:17 1512157217.793556: $GPZDA,194018.00,01,12,2017,00,00*65
2017-12-01 14:40:17 1512157217.793740: $GPGGA,194018,3946.9585,N,08404.9865,W,2,12,1.00,296.44,M,-33.324,M,,*72
2017-12-01 14:40:17 1512157217.793807: $GPRMC,194018,A,3946.9585,N,08404.9865,W,0.0000,0.000,011217,,*3D
2017-12-01 14:40:17 1512157217.793868: $GPGSA,A,3,10,12,14,18,21,24,31,32,8,15,25,138,2.0,1.0,1.5*3C
2017-12-01 14:40:18 1512157218.344311: $GPZDA,194019.00,01,12,2017,00,00*64
2017-12-01 14:40:18 1512157218.344483: $GPGGA,194019,3946.9585,N,08404.9858,W,2,12,1.00,296.51,M,-33.324,M,,*79
2017-12-01 14:40:18 1512157218.344549: $GPRMC,194019,A,3946.9585,N,08404.9858,W,0.0000,0.000,011217,,*32
2017-12-01 14:40:18 1512157218.344610: $GPGSA,A,3,10,12,14,18,21,24,31,32,8,15,25,138,2.0,1.0,1.5*3C
2017-12-01 14:40:19 1512157219.356391: $GPZDA,194020.00,01,12,2017,00,00*6E
2017-12-01 14:40:19 1512157219.356556: $GPGGA,194020,3946.9588,N,08404.9857,W,2,12,1.00,295.75,M,-33.324,M,,*74
2017-12-01 14:40:19 1512157219.356623: $GPRMC,194020,A,3946.9588,N,08404.9857,W,0.0000,0.000,011217,,*3A
2017-12-01 14:40:19 1512157219.356684: $GPGSA,A,3,10,12,14,18,21,24,31,32,8,15,25,138,2.0,1.0,1.5*3C
2017-12-01 14:40:20 1512157220.674333: $GPGSV,3,1,12,10,76,345,47,12,14,100,38,14,34,259,43,18,64,108,46*7E
2017-12-01 14:40:20 1512157220.674531: $GPGSV,3,2,12,21,21,178,44,24,39,052,47,31,06,204,35,32,52,274,44*7E
2017-12-01 14:40:20 1512157220.674596: $GPGSV,3,3,12,08,03,288,28,15,06,070,28,25,08,136,28,138,38,213,46*44
2017-12-01 14:40:20 1512157220.786291: $GPZDA,194021.00,01,12,2017,00,00*6F
2017-12-01 14:40:20 1512157220.786469: $GPGGA,194021,3946.9588,N,08404.9857,W,2,12,1.00,295.75,M,-33.324,M,,*75
2017-12-01 14:40:20 1512157220.786534: $GPRMC,194021,A,3946.9588,N,08404.9857,W,0.0000,0.000,011217,,*3B
2017-12-01 14:40:20 1512157220.786596: $GPGSA,A,3,10,12,14,18,21,24,31,32,8,15,25,138,2.0,1.0,1.5*3C
2017-12-01 14:40:21 1512157221.346246: $GPZDA,194022.00,01,12,2017,00,00*6C
2017-12-01 14:40:21 1512157221.346472: $GPGGA,194022,3946.9588,N,08404.9857,W,2,12,1.00,295.75,M,-33.324,M,,*76
2017-12-01 14:40:21 1512157221.346541: $GPRMC,194022,A,3946.9588,N,08404.9857,W,0.0000,0.000,011217,,*38
2017-12-01 14:40:21 1512157221.346603: $GPGSA,A,3,10,12,14,18,21,24,31,32,8,15,25,138,2.0,1.0,1.5*3C
2017-12-01 14:40:22 1512157222.344673: $GPZDA,194023.00,01,12,2017,00,00*6D
2017-12-01 14:40:22 1512157222.344850: $GPGGA,194023,3946.9588,N,08404.9857,W,2,12,1.00,295.75,M,-33.324,M,,*77
2017-12-01 14:40:22 1512157222.344917: $GPRMC,194023,A,3946.9588,N,08404.9857,W,0.0000,0.000,011217,,*39
2017-12-01 14:40:22 1512157222.344982: $GPGSA,A,3,10,12,14,18,21,24,31,32,8,15,25,138,2.0,1.0,1.5*3C
2017-12-01 14:40:23 1512157223.680134: $GPGSV,3,1,12,10,76,345,46,12,14,100,38,14,34,259,43,18,64,108,46*7F
2017-12-01 14:40:23 1512157223.680314: $GPGSV,3,2,12,21,21,178,45,24,39,052,47,31,06,204,35,32,52,274,44*7F
2017-12-01 14:40:23 1512157223.680382: $GPGSV,3,3,12,08,03,288,29,15,06,070,28,25,08,136,28,138,38,213,47*44
2017-12-01 14:40:23 1512157223.793763: $GPZDA,194024.00,01,12,2017,00,00*6A
2017-12-01 14:40:23 1512157223.793942: $GPGGA,194024,3946.9585,N,08404.9858,W,2,12,1.00,296.51,M,-33.324,M,,*77
2017-12-01 14:40:23 1512157223.794012: $GPRMC,194024,A,3946.9585,N,08404.9858,W,0.0000,0.000,011217,,*3C
2017-12-01 14:40:23 1512157223.794075: $GPGSA,A,3,10,12,14,18,21,24,31,32,8,15,25,138,2.0,1.0,1.5*3C
2017-12-01 14:40:24 1512157224.343374: $GPZDA,194025.00,01,12,2017,00,00*6B
2017-12-01 14:40:24 1512157224.343580: $GPGGA,194025,3946.9585,N,08404.9858,W,2,12,1.00,296.51,M,-33.324,M,,*76
2017-12-01 14:40:24 1512157224.343651: $GPRMC,194025,A,3946.9585,N,08404.9858,W,0.0000,0.000,011217,,*3D
2017-12-01 14:40:24 1512157224.343716: $GPGSA,A,3,10,12,14,18,21,24,31,32,8,15,25,138,2.0,1.0,1.5*3C
2017-12-01 14:40:25 1512157225.345902: $GPZDA,194026.00,01,12,2017,00,00*68
2017-12-01 14:40:25 1512157225.346104: $GPGGA,194026,3946.9585,N,08404.9858,W,2,12,1.00,296.51,M,-33.324,M,,*75
2017-12-01 14:40:25 1512157225.346176: $GPRMC,194026,A,3946.9585,N,08404.9858,W,0.0000,0.000,011217,,*3E
2017-12-01 14:40:25 1512157225.346242: $GPGSA,A,3,10,12,14,18,21,24,31,32,8,15,25,138,2.0,1.0,1.5*3C
2017-12-01 14:40:26 1512157226.680406: $GPGSV,3,1,12,10,76,345,47,12,14,100,38,14,34,259,43,18,64,108,46*7E
2017-12-01 14:40:26 1512157226.680594: $GPGSV,3,2,12,21,21,178,45,24,39,052,46,31,06,204,34,32,52,274,44*7F
2017-12-01 14:40:26 1512157226.680664: $GPGSV,3,3,12,08,03,288,30,15,06,070,27,25,08,136,28,138,38,213,47*43
2017-12-01 14:40:26 1512157226.793906: $GPZDA,194027.00,01,12,2017,00,00*69
2017-12-01 14:40:26 1512157226.794093: $GPGGA,194027,3946.9585,N,08404.9858,W,2,12,1.00,296.51,M,-33.324,M,,*74
2017-12-01 14:40:26 1512157226.794164: $GPRMC,194027,A,3946.9585,N,08404.9858,W,0.0000,0.000,011217,,*3F
2017-12-01 14:40:26 1512157226.794230: $GPGSA,A,3,10,12,14,18,21,24,31,32,8,15,25,138,2.0,1.0,1.5*3C
2017-12-01 14:40:27 1512157227.344722: $GPZDA,194028.00,01,12,2017,00,00*66
2017-12-01 14:40:27 1512157227.344908: $GPGGA,194028,3946.9585,N,08404.9858,W,2,12,1.00,296.51,M,-33.324,M,,*7B
2017-12-01 14:40:27 1512157227.344985: $GPRMC,194028,A,3946.9585,N,08404.9858,W,0.0000,0.000,011217,,*30
2017-12-01 14:40:27 1512157227.345051: $GPGSA,A,3,10,12,14,18,21,24,31,32,8,15,25,138,2.0,1.0,1.5*3C
2017-12-01 14:40:28 1512157228.343085: $GPZDA,194029.00,01,12,2017,00,00*67
2017-12-01 14:40:28 1512157228.343283: $GPGGA,194029,3946.9589,N,08404.9858,W,2,12,1.00,297.15,M,-33.324,M,,*77
2017-12-01 14:40:28 1512157228.343358: $GPRMC,194029,A,3946.9589,N,08404.9858,W,0.0000,0.000,011217,,*3D
2017-12-01 14:40:28 1512157228.343429: $GPGSA,A,3,10,12,14,18,21,24,31,32,8,15,25,138,2.0,1.0,1.5*3C
2017-12-01 14:40:29 1512157229.680017: $GPGSV,3,1,12,10,76,345,48,12,14,100,38,14,34,259,43,18,64,108,46*71
2017-12-01 14:40:29 1512157229.680205: $GPGSV,3,2,12,21,21,178,45,24,39,052,46,31,06,204,34,32,52,274,44*7F
2017-12-01 14:40:29 1512157229.680275: $GPGSV,3,3,12,08,03,288,31,15,06,070,23,25,08,136,27,138,38,213,46*48
2017-12-01 14:40:29 1512157229.793623: $GPZDA,194030.00,01,12,2017,00,00*6F
2017-12-01 14:40:29 1512157229.793797: $GPGGA,194030,3946.9589,N,08404.9858,W,2,12,1.00,297.15,M,-33.324,M,,*7F
2017-12-01 14:40:29 1512157229.793867: $GPRMC,194030,A,3946.9589,N,08404.9858,W,0.0000,0.000,011217,,*35
2017-12-01 14:40:29 1512157229.793930: $GPGSA,A,3,10,12,14,18,21,24,31,32,8,15,25,138,2.0,1.0,1.5*3C
2017-12-01 14:40:30 1512157230.418783: $GPZDA,194031.00,01,12,2017,00,00*6E
2017-12-01 14:40:30 1512157230.418979: $GPGGA,194031,3946.9589,N,08404.9858,W,2,12,1.00,297.15,M,-33.324,M,,*7E
2017-12-01 14:40:30 1512157230.419050: $GPRMC,194031,A,3946.9589,N,08404.9858,W,0.0000,0.000,011217,,*34
2017-12-01 14:40:30 1512157230.419112: $GPGSA,A,3,10,12,14,18,21,24,31,32,8,15,25,138,2.0,1.0,1.5*3C
2017-12-01 14:40:31 1512157231.896012: $GPZDA,194032.00,01,12,2017,00,00*6D
2017-12-01 14:40:31 1512157231.896192: $GPGGA,194032,3946.9589,N,08404.9858,W,2,12,1.00,297.15,M,-33.324,M,,*7D
2017-12-01 14:40:31 1512157231.896258: $GPRMC,194032,A,3946.9589,N,08404.9858,W,0.3423,184.196,011217,,*32
2017-12-01 14:40:31 1512157231.896321: $GPGSA,A,3,10,12,14,18,21,24,31,32,8,15,25,138,2.0,1.0,1.5*3C
2017-12-01 14:40:32 1512157232.683016: $GPGSV,3,1,12,10,76,345,48,12,14,100,38,14,35,259,43,18,64,108,46*70
2017-12-01 14:40:32 1512157232.683194: $GPGSV,3,2,12,21,21,178,46,24,39,052,47,31,06,204,34,32,52,274,45*7C
2017-12-01 14:40:32 1512157232.683260: $GPGSV,3,3,12,08,03,286,32,15,06,070,24,25,08,136,27,138,38,213,47*43
2017-12-01 14:40:32 1512157232.796650: $GPZDA,194033.00,01,12,2017,00,00*6C
2017-12-01 14:40:32 1512157232.796834: $GPGGA,194033,3946.9589,N,08404.9858,W,2,12,1.00,297.15,M,-33.324,M,,*7C
2017-12-01 14:40:32 1512157232.796901: $GPRMC,194033,A,3946.9589,N,08404.9858,W,0.0000,0.000,011217,,*36
2017-12-01 14:40:32 1512157232.796968: $GPGSA,A,3,10,12,14,18,21,24,31,32,8,15,25,138,2.0,1.0,1.5*3C
2017-12-01 14:40:33 1512157233.345090: $GPZDA,194034.00,01,12,2017,00,00*6B
2017-12-01 14:40:33 1512157233.345254: $GPGGA,194034,3946.9593,N,08404.9858,W,2,12,1.00,297.79,M,-33.324,M,,*7A
2017-12-01 14:40:33 1512157233.345320: $GPRMC,194034,A,3946.9593,N,08404.9858,W,0.0000,0.000,011217,,*3A
2017-12-01 14:40:33 1512157233.345380: $GPGSA,A,3,10,12,14,18,21,24,31,32,8,15,25,138,2.0,1.0,1.5*3C
2017-12-01 14:40:34 1512157234.344396: $GPZDA,194035.00,01,12,2017,00,00*6A
2017-12-01 14:40:34 1512157234.344553: $GPGGA,194035,3946.9593,N,08404.9851,W,2,12,1.00,297.87,M,-33.324,M,,*73
2017-12-01 14:40:34 1512157234.344621: $GPRMC,194035,A,3946.9593,N,08404.9851,W,0.0000,0.000,011217,,*32
2017-12-01 14:40:34 1512157234.344684: $GPGSA,A,3,10,12,14,18,21,24,31,32,8,15,25,138,2.0,1.0,1.5*3C
2017-12-01 14:40:35 1512157235.680884: $GPGSV,3,1,12,10,76,345,46,12,14,100,38,14,35,259,43,18,64,108,46*7E
2017-12-01 14:40:35 1512157235.681082: $GPGSV,3,2,12,21,21,178,46,24,39,052,48,31,06,204,34,32,52,274,44*72
2017-12-01 14:40:35 1512157235.681148: $GPGSV,3,3,12,08,03,286,34,15,06,070,25,25,08,136,27,138,38,213,48*4B
2017-12-01 14:40:35 1512157235.794520: $GPZDA,194036.00,01,12,2017,00,00*69
2017-12-01 14:40:35 1512157235.794694: $GPGGA,194036,3946.9593,N,08404.9851,W,2,12,1.00,297.87,M,-33.324,M,,*70
2017-12-01 14:40:35 1512157235.794761: $GPRMC,194036,A,3946.9593,N,08404.9851,W,0.0000,0.000,011217,,*31
2017-12-01 14:40:35 1512157235.794826: $GPGSA,A,3,10,12,14,18,21,24,31,32,8,15,25,138,2.0,1.0,1.5*3C
2017-12-01 14:40:36 1512157236.343125: $GPZDA,194037.00,01,12,2017,00,00*68
2017-12-01 14:40:36 1512157236.343317: $GPGGA,194037,3946.9593,N,08404.9851,W,2,12,1.00,297.87,M,-33.324,M,,*71
2017-12-01 14:40:36 1512157236.343384: $GPRMC,194037,A,3946.9593,N,08404.9851,W,0.0000,0.000,011217,,*30
2017-12-01 14:40:36 1512157236.343446: $GPGSA,A,3,10,12,14,18,21,24,31,32,8,15,25,138,2.0,1.0,1.5*3C
2017-12-01 14:40:37 1512157237.382684: $GPZDA,194038.00,01,12,2017,00,00*67
2017-12-01 14:40:37 1512157237.382862: $GPGGA,194038,3946.9593,N,08404.9851,W,2,12,1.00,297.87,M,-33.324,M,,*7E
2017-12-01 14:40:37 1512157237.382933: $GPRMC,194038,A,3946.9593,N,08404.9851,W,0.0000,0.000,011217,,*3F
2017-12-01 14:40:37 1512157237.383045: $GPGSA,A,3,10,12,14,18,21,24,31,32,8,15,25,138,2.0,1.0,1.5*3C
2017-12-01 14:40:38 1512157238.718004: $GPGSV,3,1,12,10,76,345,46,12,14,100,37,14,35,259,44,18,64,108,46*76
2017-12-01 14:40:38 1512157238.718206: $GPGSV,3,2,12,21,21,178,46,24,39,052,48,31,06,204,33,32,52,274,44*75
2017-12-01 14:40:38 1512157238.718339: $GPGSV,3,3,12,08,03,286,34,15,06,070,25,25,08,136,27,138,38,213,47*44
2017-12-01 14:40:38 1512157238.830500: $GPZDA,194039.00,01,12,2017,00,00*66
2017-12-01 14:40:38 1512157238.830676: $GPGGA,194039,3946.9593,N,08404.9851,W,2,12,1.00,297.87,M,-33.324,M,,*7F
2017-12-01 14:40:38 1512157238.830743: $GPRMC,194039,A,3946.9593,N,08404.9851,W,0.0000,0.000,011217,,*3E
2017-12-01 14:40:38 1512157238.830804: $GPGSA,A,3,10,12,14,18,21,24,31,32,8,15,25,138,2.0,1.0,1.5*3C
2017-12-01 14:40:39 1512157239.382620: $GPZDA,194040.00,01,12,2017,00,00*68
2017-12-01 14:40:39 1512157239.382794: $GPGGA,194040,3946.9593,N,08404.9851,W,2,12,1.00,297.87,M,-33.324,M,,*71
2017-12-01 14:40:39 1512157239.382860: $GPRMC,194040,A,3946.9593,N,08404.9851,W,0.0000,0.000,011217,,*30
2017-12-01 14:40:39 1512157239.382921: $GPGSA,A,3,10,12,14,18,21,24,31,32,8,15,25,138,2.0,1.0,1.5*3C
