2017-12-31 17:49:25 1514760565.849295: {"class":"VERSION","release":"3.16","rev":"3.16-4","proto_major":3,"proto_minor":11}
2017-12-31 17:49:25 1514760565.849645: {"class":"DEVICES","devices":[{"class":"DEVICE","path":"/dev/ttyUSB0","driver":"SiRF","activated":"2017-12-31T22:49:25.554Z","flags":1,"native":1,"bps":4800,"parity":"N","stopbits":1,"cycle":1.00}]}
2017-12-31 17:49:25 1514760565.849743: {"class":"WATCH","enable":true,"json":false,"nmea":true,"raw":0,"scaled":false,"timing":false,"split24":false,"pps":false}
2017-12-31 17:49:26 1514760566.345011: $GPZDA,224927.00,31,12,2017,00,00*6B
2017-12-31 17:49:26 1514760566.345194: $GPGGA,224927,3946.9570,N,08404.9857,W,2,11,0.60,304.63,M,-33.324,M,,*7F
2017-12-31 17:49:26 1514760566.345260: $GPRMC,224927,A,3946.9570,N,08404.9857,W,0.0000,0.000,311217,,*38
2017-12-31 17:49:26 1514760566.345322: $GPGSA,A,3,22,23,9,3,16,29,31,27,32,26,135,,1.7,0.6,1.3*02
2017-12-31 17:49:27 1514760567.680720: $GPGSV,3,1,12,22,29,220,44,23,46,309,42,09,13,312,44,03,38,243,45*7B
2017-12-31 17:49:27 1514760567.680894: $GPGSV,3,2,12,16,70,192,43,29,09,037,36,14,23,129,29,31,35,067,43*72
2017-12-31 17:49:27 1514760567.680959: $GPGSV,3,3,12,27,14,157,22,32,02,133,20,26,70,060,47,135,22,240,44*4E
2017-12-31 17:49:27 1514760567.794047: $GPZDA,224928.00,31,12,2017,00,00*64
2017-12-31 17:49:27 1514760567.794238: $GPGGA,224928,3946.9570,N,08404.9857,W,2,11,0.80,304.63,M,-33.324,M,,*7E
2017-12-31 17:49:27 1514760567.794307: $GPRMC,224928,A,3946.9570,N,08404.9857,W,0.0000,0.000,311217,,*37
2017-12-31 17:49:27 1514760567.794368: $GPGSA,A,3,22,23,9,3,16,29,31,27,32,26,135,,1.7,0.8,1.3*0C
2017-12-31 17:49:28 1514760568.346194: $GPZDA,224929.00,31,12,2017,00,00*65
2017-12-31 17:49:28 1514760568.346384: $GPGGA,224929,3946.9570,N,08404.9857,W,2,11,0.60,304.63,M,-33.324,M,,*71
2017-12-31 17:49:28 1514760568.346451: $GPRMC,224929,A,3946.9570,N,08404.9857,W,0.0000,0.000,311217,,*36
2017-12-31 17:49:28 1514760568.346512: $GPGSA,A,3,22,23,9,3,16,29,31,27,32,26,135,,1.7,0.6,1.3*02
2017-12-31 17:49:29 1514760569.345831: $GPZDA,224930.00,31,12,2017,00,00*6D
2017-12-31 17:49:29 1514760569.346043: $GPGGA,224930,3946.9570,N,08404.9857,W,2,11,0.60,304.63,M,-33.324,M,,*79
2017-12-31 17:49:29 1514760569.346130: $GPRMC,224930,A,3946.9570,N,08404.9857,W,0.0000,0.000,311217,,*3E
2017-12-31 17:49:29 1514760569.346193: $GPGSA,A,3,22,23,9,3,16,29,31,27,32,26,135,,1.7,0.6,1.3*02
2017-12-31 17:49:30 1514760570.681061: $GPGSV,3,1,12,22,29,220,44,23,46,309,42,09,13,312,43,03,38,243,45*7C
2017-12-31 17:49:30 1514760570.681267: $GPGSV,3,2,12,16,70,192,43,29,09,037,36,14,23,129,20,31,35,067,43*7B
2017-12-31 17:49:30 1514760570.681332: $GPGSV,3,3,12,27,14,157,20,32,02,133,20,26,70,060,46,135,22,240,44*4D
2017-12-31 17:49:30 1514760570.794418: $GPZDA,224931.00,31,12,2017,00,00*6C
2017-12-31 17:49:30 1514760570.794587: $GPGGA,224931,3946.9570,N,08404.9857,W,2,12,0.60,304.63,M,-33.324,M,,*7B
2017-12-31 17:49:30 1514760570.794653: $GPRMC,224931,A,3946.9570,N,08404.9857,W,0.0000,0.000,311217,,*3F
2017-12-31 17:49:30 1514760570.794715: $GPGSA,A,3,22,23,9,3,16,29,14,31,27,32,26,135,1.7,0.6,1.3*07
2017-12-31 17:49:31 1514760571.351531: $GPZDA,224932.00,31,12,2017,00,00*6F
2017-12-31 17:49:31 1514760571.351707: $GPGGA,224932,3946.9570,N,08404.9857,W,2,12,0.80,304.63,M,-33.324,M,,*76
2017-12-31 17:49:31 1514760571.351774: $GPRMC,224932,A,3946.9570,N,08404.9857,W,0.0000,0.000,311217,,*3C
2017-12-31 17:49:31 1514760571.351836: $GPGSA,A,3,22,23,9,3,16,29,14,31,27,32,26,135,1.7,0.8,1.3*09
2017-12-31 17:49:32 1514760572.338691: $GPZDA,224933.00,31,12,2017,00,00*6E
2017-12-31 17:49:32 1514760572.338862: $GPGGA,224933,3946.9570,N,08404.9857,W,2,12,0.60,304.63,M,-33.324,M,,*79
2017-12-31 17:49:32 1514760572.338957: $GPRMC,224933,A,3946.9570,N,08404.9857,W,0.0000,0.000,311217,,*3D
2017-12-31 17:49:32 1514760572.339020: $GPGSA,A,3,22,23,9,3,16,29,14,31,27,32,26,135,1.7,0.6,1.3*07
2017-12-31 17:49:33 1514760573.706950: $GPGSV,3,1,12,22,29,220,44,23,46,309,43,09,13,312,43,03,38,243,45*7D
2017-12-31 17:49:33 1514760573.707198: $GPGSV,3,2,12,16,70,192,42,29,09,037,36,14,23,129,30,31,35,067,44*7C
2017-12-31 17:49:33 1514760573.707327: $GPGSV,3,3,12,27,14,157,20,32,02,133,19,26,70,060,46,135,22,240,43*40
2017-12-31 17:49:33 1514760573.820271: $GPZDA,224934.00,31,12,2017,00,00*69
2017-12-31 17:49:33 1514760573.820429: $GPGGA,224934,3946.9570,N,08404.9857,W,2,12,0.60,304.63,M,-33.324,M,,*7E
2017-12-31 17:49:33 1514760573.820497: $GPRMC,224934,A,3946.9570,N,08404.9857,W,0.0000,0.000,311217,,*3A
2017-12-31 17:49:33 1514760573.820558: $GPGSA,A,3,22,23,9,3,16,29,14,31,27,32,26,135,1.7,0.6,1.3*07
2017-12-31 17:49:34 1514760574.371433: $GPZDA,224935.00,31,12,2017,00,00*68
2017-12-31 17:49:34 1514760574.371601: $GPGGA,224935,3946.9570,N,08404.9857,W,2,12,0.60,304.63,M,-33.324,M,,*7F
2017-12-31 17:49:34 1514760574.371666: $GPRMC,224935,A,3946.9570,N,08404.9857,W,0.0000,0.000,311217,,*3B
2017-12-31 17:49:34 1514760574.371727: $GPGSA,A,3,22,23,9,3,16,29,14,31,27,32,26,135,1.7,0.6,1.3*07
2017-12-31 17:49:35 1514760575.370553: $GPZDA,224936.00,31,12,2017,00,00*6B
2017-12-31 17:49:35 1514760575.370718: $GPGGA,224936,3946.9570,N,08404.9857,W,2,12,0.60,304.63,M,-33.324,M,,*7C
2017-12-31 17:49:35 1514760575.370785: $GPRMC,224936,A,3946.9570,N,08404.9857,W,0.0000,0.000,311217,,*38
2017-12-31 17:49:35 1514760575.370846: $GPGSA,A,3,22,23,9,3,16,29,14,31,27,32,26,135,1.7,0.6,1.3*07
2017-12-31 17:49:36 1514760576.682264: $GPGSV,3,1,12,22,29,220,44,23,46,309,43,09,13,312,43,03,38,243,44*7C
2017-12-31 17:49:36 1514760576.682439: $GPGSV,3,2,12,16,70,192,42,29,09,037,35,14,23,129,30,31,35,067,44*7F
2017-12-31 17:49:36 1514760576.682504: $GPGSV,3,3,12,27,14,157,21,32,02,133,18,26,70,060,47,135,22,240,43*41
2017-12-31 17:49:36 1514760576.794391: $GPZDA,224937.00,31,12,2017,00,00*6A
2017-12-31 17:49:36 1514760576.794563: $GPGGA,224937,3946.9570,N,08404.9857,W,2,12,0.60,304.63,M,-33.324,M,,*7D
2017-12-31 17:49:36 1514760576.794630: $GPRMC,224937,A,3946.9570,N,08404.9857,W,0.0000,0.000,311217,,*39
2017-12-31 17:49:36 1514760576.794692: $GPGSA,A,3,22,23,9,3,16,29,14,31,27,32,26,135,1.7,0.6,1.3*07
2017-12-31 17:49:37 1514760577.346513: $GPZDA,224938.00,31,12,2017,00,00*65
2017-12-31 17:49:37 1514760577.346689: $GPGGA,224938,3946.9570,N,08404.9857,W,2,12,0.60,304.63,M,-33.324,M,,*72
2017-12-31 17:49:37 1514760577.346756: $GPRMC,224938,A,3946.9570,N,08404.9857,W,0.0000,0.000,311217,,*36
2017-12-31 17:49:37 1514760577.346818: $GPGSA,A,3,22,23,9,3,16,29,14,31,27,32,26,135,1.7,0.6,1.3*07
2017-12-31 17:49:38 1514760578.346599: $GPZDA,224939.00,31,12,2017,00,00*64
2017-12-31 17:49:38 1514760578.346763: $GPGGA,224939,3946.9570,N,08404.9857,W,2,12,0.60,304.63,M,-33.324,M,,*73
2017-12-31 17:49:38 1514760578.346829: $GPRMC,224939,A,3946.9570,N,08404.9857,W,0.0000,0.000,311217,,*37
2017-12-31 17:49:38 1514760578.346917: $GPGSA,A,3,22,23,9,3,16,29,14,31,27,32,26,135,1.7,0.6,1.3*07
2017-12-31 17:49:39 1514760579.681890: $GPGSV,3,1,12,22,29,220,45,23,46,309,43,09,13,312,44,03,38,243,44*7A
2017-12-31 17:49:39 1514760579.682084: $GPGSV,3,2,12,16,70,192,43,29,09,037,30,14,23,129,30,31,35,067,43*7C
2017-12-31 17:49:39 1514760579.682153: $GPGSV,3,3,12,27,14,157,21,32,02,133,18,26,70,060,47,135,22,240,44*46
2017-12-31 17:49:39 1514760579.795242: $GPZDA,224940.00,31,12,2017,00,00*6A
2017-12-31 17:49:39 1514760579.795412: $GPGGA,224940,3946.9570,N,08404.9857,W,2,12,0.60,304.63,M,-33.324,M,,*7D
2017-12-31 17:49:39 1514760579.795480: $GPRMC,224940,A,3946.9570,N,08404.9857,W,0.0000,0.000,311217,,*39
2017-12-31 17:49:39 1514760579.795542: $GPGSA,A,3,22,23,9,3,16,29,14,31,27,32,26,135,1.7,0.6,1.3*07
2017-12-31 17:49:40 1514760580.421064: $GPZDA,224941.00,31,12,2017,00,00*6B
2017-12-31 17:49:40 1514760580.421255: $GPGGA,224941,3946.9570,N,08404.9857,W,2,12,0.60,304.63,M,-33.324,M,,*7C
2017-12-31 17:49:40 1514760580.421322: $GPRMC,224941,A,3946.9570,N,08404.9857,W,0.0000,0.000,311217,,*38
2017-12-31 17:49:40 1514760580.421383: $GPGSA,A,3,22,23,9,3,16,29,14,31,27,32,26,135,1.7,0.6,1.3*07
2017-12-31 17:49:41 1514760581.345234: $GPZDA,224942.00,31,12,2017,00,00*68
2017-12-31 17:49:41 1514760581.352962: $GPGGA,224942,3946.9570,N,08404.9857,W,2,12,0.60,304.63,M,-33.324,M,,*7F
2017-12-31 17:49:41 1514760581.353184: $GPRMC,224942,A,3946.9570,N,08404.9857,W,0.0000,0.000,311217,,*3B
2017-12-31 17:49:41 1514760581.353250: $GPGSA,A,3,22,23,9,3,16,29,14,31,27,32,26,135,1.7,0.6,1.3*07
2017-12-31 17:49:42 1514760582.707283: $GPGSV,3,1,12,22,29,220,45,23,46,309,43,09,13,312,43,03,38,243,44*7D
2017-12-31 17:49:42 1514760582.707462: $GPGSV,3,2,12,16,70,192,43,29,09,037,20,14,23,129,31,31,35,067,43*7C
2017-12-31 17:49:42 1514760582.707527: $GPGSV,3,3,12,27,14,157,25,32,02,133,17,26,70,060,47,135,22,240,44*4D
2017-12-31 17:49:42 1514760582.820806: $GPZDA,224943.00,31,12,2017,00,00*69
2017-12-31 17:49:42 1514760582.820963: $GPGGA,224943,3946.9570,N,08404.9857,W,2,12,0.60,304.63,M,-33.324,M,,*7E
2017-12-31 17:49:42 1514760582.821046: $GPRMC,224943,A,3946.9570,N,08404.9857,W,0.0000,0.000,311217,,*3A
2017-12-31 17:49:42 1514760582.821108: $GPGSA,A,3,22,23,9,3,16,29,14,31,27,32,26,135,1.7,0.6,1.3*07
2017-12-31 17:49:43 1514760583.568022: $GPZDA,224944.00,31,12,2017,00,00*6E
2017-12-31 17:49:43 1514760583.568191: $GPGGA,224944,3946.9570,N,08404.9857,W,2,12,0.60,304.63,M,-33.324,M,,*79
2017-12-31 17:49:43 1514760583.568256: $GPRMC,224944,A,3946.9570,N,08404.9857,W,0.0000,0.000,311217,,*3D
2017-12-31 17:49:43 1514760583.568318: $GPGSA,A,3,22,23,9,3,16,29,14,31,27,32,26,135,1.7,0.6,1.3*07
2017-12-31 17:49:43 1514760583.568377: $GPGBS,224944,2.22,M,3.43,M,7.66,M*32
2017-12-31 17:49:44 1514760584.346102: $GPZDA,224945.00,31,12,2017,00,00*6F
2017-12-31 17:49:44 1514760584.346270: $GPGGA,224945,3946.9570,N,08404.9857,W,2,12,0.60,304.63,M,-33.324,M,,*78
2017-12-31 17:49:44 1514760584.346337: $GPRMC,224945,A,3946.9570,N,08404.9857,W,0.0000,0.000,311217,,*3C
2017-12-31 17:49:44 1514760584.346399: $GPGSA,A,3,22,23,9,3,16,29,14,31,27,32,26,135,1.7,0.6,1.3*07
2017-12-31 17:49:44 1514760584.346459: $GPGBS,224945,2.22,M,3.43,M,7.66,M*33
2017-12-31 17:49:45 1514760585.707606: $GPGSV,3,1,12,22,29,220,45,23,46,309,43,09,13,312,42,03,38,243,44*7C
2017-12-31 17:49:45 1514760585.707778: $GPGSV,3,2,12,16,70,192,44,29,09,036,28,14,22,129,31,31,34,067,42*73
2017-12-31 17:49:45 1514760585.707867: $GPGSV,3,3,12,27,14,157,25,32,02,133,17,26,70,060,47,135,22,240,45*4C
2017-12-31 17:49:45 1514760585.819670: $GPZDA,224946.00,31,12,2017,00,00*6C
2017-12-31 17:49:45 1514760585.819802: $GPGGA,224946,3946.9570,N,08404.9857,W,2,12,0.60,304.63,M,-33.324,M,,*7B
2017-12-31 17:49:45 1514760585.819888: $GPRMC,224946,A,3946.9570,N,08404.9857,W,0.0000,0.000,311217,,*3F
2017-12-31 17:49:45 1514760585.819950: $GPGSA,A,3,22,23,9,3,16,29,14,31,27,32,26,135,1.7,0.6,1.3*07
