2017-12-01 18:16:07 1512170167.416719: {"class":"VERSION","release":"3.16","rev":"3.16-4","proto_major":3,"proto_minor":11}
2017-12-01 18:16:07 1512170167.417117: {"class":"DEVICES","devices":[{"class":"DEVICE","path":"/dev/ttyUSB0","driver":"SiRF","subtype":"9\u0006GSD4e_4.1.2-P1_RPATCH.05-F-GPS-4R-1510281 11/03/2015 307","activated":"2017-12-01T23:16:07.247Z","flags":1,"native":1,"bps":4800,"parity":"N","stopbits":1,"cycle":1.00}]}
2017-12-01 18:16:07 1512170167.417239: {"class":"WATCH","enable":true,"json":false,"nmea":true,"raw":0,"scaled":false,"timing":false,"split24":false,"pps":false}
2017-12-01 18:16:07 1512170167.847576: $GPZDA,231608.51,01,12,2017,00,00*6A
2017-12-01 18:16:07 1512170167.847757: $GPGGA,231608,3946.9724,N,08404.9804,W,1,11,0.80,296.79,M,-33.325,M,,*71
2017-12-01 18:16:07 1512170167.847826: $GPRMC,231608,A,3946.9724,N,08404.9804,W,0.2202,353.469,011217,,*34
2017-12-01 18:16:07 1512170167.847888: $GPGSA,A,3,1,3,14,16,22,23,25,26,31,32,138,,2.0,0.8,1.5*07
2017-12-01 18:16:09 1512170169.287705: $GPGSV,3,1,12,01,07,255,18,03,38,303,26,14,58,087,25,16,20,189,25*7B
2017-12-01 18:16:09 1512170169.287889: $GPGSV,3,2,12,22,50,276,26,23,09,300,26,25,20,042,22,26,50,172,27*75
2017-12-01 18:16:09 1512170169.287958: $GPGSV,3,3,12,31,70,021,28,32,38,105,25,29,10,075,00,138,38,213,00*46
2017-12-01 18:16:09 1512170169.401048: $GPZDA,231609.20,01,12,2017,00,00*6D
2017-12-01 18:16:09 1512170169.401206: $GPGGA,231609,3946.9724,N,08404.9804,W,1,10,0.80,296.79,M,-33.325,M,,*71
2017-12-01 18:16:09 1512170169.401272: $GPRMC,231609,A,3946.9724,N,08404.9804,W,0.1867,0.000,011217,,*31
2017-12-01 18:16:09 1512170169.401333: $GPGSA,A,3,1,3,14,16,22,23,25,26,31,32,,,2.0,0.8,1.5*3D
2017-12-01 18:16:10 1512170170.230592: $GPZDA,231610.00,01,12,2017,00,00*67
2017-12-01 18:16:10 1512170170.230838: $GPGGA,231610,3946.9724,N,08404.9804,W,1,10,0.80,296.79,M,-33.325,M,,*79
2017-12-01 18:16:10 1512170170.230916: $GPRMC,231610,A,3946.9724,N,08404.9804,W,0.1867,0.000,011217,,*39
2017-12-01 18:16:10 1512170170.230979: $GPGSA,A,3,1,3,14,16,22,23,25,26,31,32,,,2.0,0.8,1.5*3D
2017-12-01 18:16:10 1512170170.231039: $GPGBS,231610,10.70,M,15.43,M,35.28,M*00
2017-12-01 18:16:10 1512170170.486340: $GPZDA,231611.00,01,12,2017,00,00*66
2017-12-01 18:16:10 1512170170.486528: $GPGGA,231611,3946.9724,N,08404.9804,W,1,10,0.80,296.79,M,-33.325,M,,*78
2017-12-01 18:16:10 1512170170.486595: $GPRMC,231611,A,3946.9724,N,08404.9804,W,0.0000,0.000,011217,,*30
2017-12-01 18:16:10 1512170170.486656: $GPGSA,A,3,1,3,14,16,22,23,25,26,31,32,,,2.0,0.8,1.5*3D
2017-12-01 18:16:10 1512170170.486714: $GPGBS,231611,10.70,M,15.43,M,35.28,M*01
2017-12-01 18:16:11 1512170171.778412: $GPGSV,3,1,12,01,07,255,30,03,38,303,46,14,58,087,42,16,20,189,41*74
2017-12-01 18:16:11 1512170171.778594: $GPGSV,3,2,12,22,50,276,45,23,09,300,43,25,20,042,40,26,50,172,45*73
2017-12-01 18:16:11 1512170171.778661: $GPGSV,3,3,12,31,70,021,47,32,38,105,43,10,01,159,21,138,38,213,46*4B
2017-12-01 18:16:11 1512170171.892132: $GPZDA,231612.00,01,12,2017,00,00*65
2017-12-01 18:16:11 1512170171.892299: $GPGGA,231612,3946.9725,N,08404.9811,W,1,12,0.80,296.71,M,-33.325,M,,*74
2017-12-01 18:16:11 1512170171.892365: $GPRMC,231612,A,3946.9725,N,08404.9811,W,0.0000,0.000,011217,,*36
2017-12-01 18:16:11 1512170171.892425: $GPGSA,A,3,1,3,14,16,22,23,25,26,31,32,10,138,2.0,0.8,1.5*06
2017-12-01 18:16:12 1512170172.518431: $GPZDA,231613.00,01,12,2017,00,00*64
2017-12-01 18:16:12 1512170172.518629: $GPGGA,231613,3946.9721,N,08404.9811,W,1,12,0.60,296.07,M,-33.325,M,,*7E
2017-12-01 18:16:12 1512170172.518700: $GPRMC,231613,A,3946.9721,N,08404.9811,W,0.0000,0.000,011217,,*33
2017-12-01 18:16:12 1512170172.518762: $GPGSA,A,3,1,3,14,16,22,23,25,26,31,32,10,138,2.0,0.6,1.5*08
2017-12-01 18:16:13 1512170173.442383: $GPZDA,231614.00,01,12,2017,00,00*63
2017-12-01 18:16:13 1512170173.442562: $GPGGA,231614,3946.9721,N,08404.9811,W,1,12,0.60,296.07,M,-33.325,M,,*79
2017-12-01 18:16:13 1512170173.442630: $GPRMC,231614,A,3946.9721,N,08404.9811,W,0.0000,0.000,011217,,*34
2017-12-01 18:16:13 1512170173.442691: $GPGSA,A,3,1,3,14,16,22,23,25,26,31,32,10,138,2.0,0.6,1.5*08
2017-12-01 18:16:14 1512170174.777394: $GPGSV,3,1,12,01,07,255,30,03,38,303,46,14,58,087,42,16,20,189,41*74
2017-12-01 18:16:14 1512170174.777575: $GPGSV,3,2,12,22,50,276,46,23,09,300,44,25,20,042,40,26,50,172,46*74
2017-12-01 18:16:14 1512170174.777642: $GPGSV,3,3,12,31,70,021,46,32,38,105,42,10,01,159,21,138,38,213,46*4B
2017-12-01 18:16:14 1512170174.890994: $GPZDA,231615.00,01,12,2017,00,00*62
2017-12-01 18:16:14 1512170174.891135: $GPGGA,231615,3946.9721,N,08404.9811,W,1,12,0.80,296.07,M,-33.325,M,,*76
2017-12-01 18:16:14 1512170174.891201: $GPRMC,231615,A,3946.9721,N,08404.9811,W,0.0000,0.000,011217,,*35
2017-12-01 18:16:14 1512170174.891282: $GPGSA,A,3,1,3,14,16,22,23,25,26,31,32,10,138,2.0,0.8,1.5*06
2017-12-01 18:16:15 1512170175.448153: $GPZDA,231616.00,01,12,2017,00,00*61
2017-12-01 18:16:15 1512170175.448347: $GPGGA,231616,3946.9721,N,08404.9811,W,1,12,0.80,296.07,M,-33.325,M,,*75
2017-12-01 18:16:15 1512170175.448418: $GPRMC,231616,A,3946.9721,N,08404.9811,W,0.0000,0.000,011217,,*36
2017-12-01 18:16:15 1512170175.448478: $GPGSA,A,3,1,3,14,16,22,23,25,26,31,32,10,138,2.0,0.8,1.5*06
2017-12-01 18:16:16 1512170176.444073: $GPZDA,231617.00,01,12,2017,00,00*60
2017-12-01 18:16:16 1512170176.444244: $GPGGA,231617,3946.9721,N,08404.9811,W,1,12,0.80,296.07,M,-33.325,M,,*74
2017-12-01 18:16:16 1512170176.444311: $GPRMC,231617,A,3946.9721,N,08404.9811,W,0.0000,0.000,011217,,*37
2017-12-01 18:16:16 1512170176.444372: $GPGSA,A,3,1,3,14,16,22,23,25,26,31,32,10,138,2.0,0.8,1.5*06
2017-12-01 18:16:17 1512170177.780286: $GPGSV,3,1,12,01,07,255,31,03,38,303,46,14,58,087,43,16,20,189,41*74
2017-12-01 18:16:17 1512170177.780478: $GPGSV,3,2,12,22,50,276,46,23,09,300,44,25,20,042,41,26,50,172,46*75
2017-12-01 18:16:17 1512170177.782582: $GPGSV,3,3,12,31,70,021,47,32,38,105,41,10,01,159,21,138,38,213,46*49
2017-12-01 18:16:17 1512170177.893960: $GPZDA,231618.00,01,12,2017,00,00*6F
2017-12-01 18:16:17 1512170177.894134: $GPGGA,231618,3946.9714,N,08404.9826,W,2,12,0.80,296.04,M,-33.325,M,,*79
2017-12-01 18:16:17 1512170177.894203: $GPRMC,231618,A,3946.9714,N,08404.9826,W,0.0000,0.000,011217,,*3A
2017-12-01 18:16:17 1512170177.894265: $GPGSA,A,3,1,3,14,16,22,23,25,26,31,32,10,138,2.0,0.8,1.5*06
2017-12-01 18:16:18 1512170178.446326: $GPZDA,231619.00,01,12,2017,00,00*6E
2017-12-01 18:16:18 1512170178.446502: $GPGGA,231619,3946.9714,N,08404.9826,W,2,12,0.80,297.44,M,-33.325,M,,*7D
2017-12-01 18:16:18 1512170178.446571: $GPRMC,231619,A,3946.9714,N,08404.9826,W,0.0000,0.000,011217,,*3B
2017-12-01 18:16:18 1512170178.446632: $GPGSA,A,3,1,3,14,16,22,23,25,26,31,32,10,138,2.0,0.8,1.5*06
2017-12-01 18:16:19 1512170179.445649: $GPZDA,231620.00,01,12,2017,00,00*64
2017-12-01 18:16:19 1512170179.445819: $GPGGA,231620,3946.9714,N,08404.9826,W,2,12,0.80,297.44,M,-33.325,M,,*77
2017-12-01 18:16:19 1512170179.445886: $GPRMC,231620,A,3946.9714,N,08404.9826,W,0.0000,0.000,011217,,*31
2017-12-01 18:16:19 1512170179.445966: $GPGSA,A,3,1,3,14,16,22,23,25,26,31,32,10,138,2.0,0.8,1.5*06
2017-12-01 18:16:20 1512170180.778563: $GPGSV,3,1,12,01,07,255,32,03,38,303,46,14,58,087,43,16,20,189,41*77
2017-12-01 18:16:20 1512170180.778761: $GPGSV,3,2,12,22,50,276,46,23,09,300,44,25,20,042,41,26,50,172,47*74
2017-12-01 18:16:20 1512170180.778830: $GPGSV,3,3,12,31,70,021,47,32,38,105,41,29,10,075,20,138,38,213,46*4D
2017-12-01 18:16:20 1512170180.891978: $GPZDA,231621.00,01,12,2017,00,00*65
2017-12-01 18:16:20 1512170180.892155: $GPGGA,231621,3946.9714,N,08404.9826,W,2,12,0.80,297.44,M,-33.325,M,,*76
2017-12-01 18:16:20 1512170180.892221: $GPRMC,231621,A,3946.9714,N,08404.9826,W,0.0000,0.000,011217,,*30
2017-12-01 18:16:20 1512170180.892283: $GPGSA,A,3,1,3,14,16,22,23,25,26,31,32,29,138,2.0,0.8,1.5*0C
2017-12-01 18:16:21 1512170181.444331: $GPZDA,231622.00,01,12,2017,00,00*66
2017-12-01 18:16:21 1512170181.444517: $GPGGA,231622,3946.9714,N,08404.9826,W,2,12,0.80,297.44,M,-33.325,M,,*75
2017-12-01 18:16:21 1512170181.444585: $GPRMC,231622,A,3946.9714,N,08404.9826,W,0.0000,0.000,011217,,*33
2017-12-01 18:16:21 1512170181.444696: $GPGSA,A,3,1,3,14,16,22,23,25,26,31,32,29,138,2.0,0.8,1.5*0C
2017-12-01 18:16:22 1512170182.444693: $GPZDA,231623.00,01,12,2017,00,00*67
2017-12-01 18:16:22 1512170182.444871: $GPGGA,231623,3946.9715,N,08404.9833,W,2,12,0.80,297.37,M,-33.325,M,,*75
2017-12-01 18:16:22 1512170182.444939: $GPRMC,231623,A,3946.9715,N,08404.9833,W,0.0000,0.000,011217,,*37
2017-12-01 18:16:22 1512170182.445000: $GPGSA,A,3,1,3,14,16,22,23,25,26,31,32,29,138,2.0,0.8,1.5*0C
2017-12-01 18:16:23 1512170183.781431: $GPGSV,3,1,12,01,07,255,32,03,38,303,46,14,58,087,43,16,20,189,41*77
2017-12-01 18:16:23 1512170183.781618: $GPGSV,3,2,12,22,50,276,46,23,09,300,45,25,20,042,40,26,50,172,47*74
2017-12-01 18:16:23 1512170183.781685: $GPGSV,3,3,12,31,70,021,47,32,38,105,41,10,01,159,20,138,38,213,46*48
2017-12-01 18:16:23 1512170183.895284: $GPZDA,231624.00,01,12,2017,00,00*60
2017-12-01 18:16:23 1512170183.895476: $GPGGA,231624,3946.9711,N,08404.9834,W,2,12,0.80,298.13,M,-33.325,M,,*78
2017-12-01 18:16:23 1512170183.895545: $GPRMC,231624,A,3946.9711,N,08404.9834,W,0.0000,0.000,011217,,*33
2017-12-01 18:16:23 1512170183.895606: $GPGSA,A,3,1,3,14,16,22,23,25,26,31,32,10,138,2.0,0.8,1.5*06
2017-12-01 18:16:24 1512170184.445691: $GPZDA,231625.00,01,12,2017,00,00*61
2017-12-01 18:16:24 1512170184.445870: $GPGGA,231625,3946.9711,N,08404.9834,W,2,12,0.80,298.13,M,-33.325,M,,*79
2017-12-01 18:16:24 1512170184.445956: $GPRMC,231625,A,3946.9711,N,08404.9834,W,0.0000,0.000,011217,,*32
2017-12-01 18:16:24 1512170184.446020: $GPGSA,A,3,1,3,14,16,22,23,25,26,31,32,10,138,2.0,0.8,1.5*06
2017-12-01 18:16:25 1512170185.447225: $GPZDA,231626.00,01,12,2017,00,00*62
2017-12-01 18:16:25 1512170185.447411: $GPGGA,231626,3946.9711,N,08404.9834,W,2,12,0.80,298.13,M,-33.325,M,,*7A
2017-12-01 18:16:25 1512170185.447482: $GPRMC,231626,A,3946.9711,N,08404.9834,W,0.0000,0.000,011217,,*31
2017-12-01 18:16:25 1512170185.447545: $GPGSA,A,3,1,3,14,16,22,23,25,26,31,32,10,138,2.0,0.8,1.5*06
2017-12-01 18:16:26 1512170186.783481: $GPGSV,3,1,12,01,07,255,32,03,38,303,45,14,58,087,43,16,20,189,41*74
2017-12-01 18:16:26 1512170186.783686: $GPGSV,3,2,12,22,50,276,46,23,09,300,45,25,20,042,40,26,50,172,47*74
2017-12-01 18:16:26 1512170186.783758: $GPGSV,3,3,12,31,70,021,47,32,38,105,40,10,01,159,20,138,38,213,46*49
2017-12-01 18:16:26 1512170186.897077: $GPZDA,231627.00,01,12,2017,00,00*63
2017-12-01 18:16:26 1512170186.897250: $GPGGA,231627,3946.9711,N,08404.9834,W,2,12,0.80,298.13,M,-33.325,M,,*7B
2017-12-01 18:16:26 1512170186.897319: $GPRMC,231627,A,3946.9711,N,08404.9834,W,0.0000,0.000,011217,,*30
2017-12-01 18:16:26 1512170186.897384: $GPGSA,A,3,1,3,14,16,22,23,25,26,31,32,10,138,2.0,0.8,1.5*06
