2017-11-15 18:48:12 1510789692.975541: {"class":"VERSION","release":"3.17","rev":"3.17","proto_major":3,"proto_minor":12}
2017-11-15 18:48:12 1510789692.976128: {"class":"DEVICES","devices":[{"class":"DEVICE","path":"/dev/ttyUSB0","driver":"SiRF","subtype":"9\u0006GSD4e_4.1.2-P1_RPATCH.05-F-GPS-4R-1510281 11/03/2015 307","activated":"2017-11-15T23:48:12.963Z","flags":1,"native":1,"bps":4800,"parity":"N","stopbits":1,"cycle":1.00}]}
2017-11-15 18:48:12 1510789692.976324: {"class":"WATCH","enable":true,"json":false,"nmea":true,"raw":0,"scaled":false,"timing":false,"split24":false,"pps":false}
2017-11-15 18:48:13 1510789693.331458: $GPZDA,234812.00,15,11,2017,00,00*68
2017-11-15 18:48:13 1510789693.331621: $GPGGA,234812,3946.9499,N,08404.9617,W,1,10,0.80,331.15,M,-33.324,M,,*7E
2017-11-15 18:48:13 1510789693.331681: $GPRMC,234812,A,3946.9499,N,08404.9617,W,0.2959,54.767,151117,,*07
2017-11-15 18:48:13 1510789693.331737: $GPGSA,A,3,1,14,3,32,31,26,25,10,22,29,,,3.4,0.8,2.9*3B
2017-11-15 18:48:14 1510789694.331102: $GPZDA,234813.00,15,11,2017,00,00*69
2017-11-15 18:48:14 1510789694.331262: $GPGGA,234813,3946.9499,N,08404.9617,W,1,10,0.80,331.15,M,-33.324,M,,*7F
2017-11-15 18:48:14 1510789694.331323: $GPRMC,234813,A,3946.9499,N,08404.9617,W,0.2422,93.794,151117,,*00
2017-11-15 18:48:14 1510789694.331378: $GPGSA,A,3,1,14,3,32,31,26,25,10,22,29,,,3.4,0.8,2.9*3B
2017-11-15 18:48:15 1510789695.666989: $GPGSV,3,1,11,01,16,268,08,14,67,055,17,03,26,313,08,32,51,087,16*78
2017-11-15 18:48:15 1510789695.667133: $GPGSV,3,2,11,31,79,315,21,26,32,177,12,25,32,051,12,10,16,157,12*70
2017-11-15 18:48:15 1510789695.667191: $GPGSV,3,3,11,16,03,190,05,22,43,297,26,29,02,088,09*4F
2017-11-15 18:48:15 1510789695.780458: $GPZDA,234814.00,15,11,2017,00,00*6E
2017-11-15 18:48:15 1510789695.780643: $GPGGA,234814,3946.9499,N,08404.9617,W,1,10,0.80,331.15,M,-33.324,M,,*78
2017-11-15 18:48:15 1510789695.780710: $GPRMC,234814,A,3946.9499,N,08404.9617,W,0.1567,189.201,151117,,*37
2017-11-15 18:48:15 1510789695.780771: $GPGSA,A,3,1,14,3,32,31,26,25,10,22,29,,,3.4,0.8,2.9*3B
2017-11-15 18:48:16 1510789696.405637: $GPZDA,234815.00,15,11,2017,00,00*6F
2017-11-15 18:48:16 1510789696.405811: $GPGGA,234815,3946.9496,N,08404.9618,W,1,10,1.00,331.91,M,-33.324,M,,*7C
2017-11-15 18:48:16 1510789696.405873: $GPRMC,234815,A,3946.9496,N,08404.9618,W,0.4207,219.347,151117,,*3B
2017-11-15 18:48:16 1510789696.405933: $GPGSA,A,3,1,14,3,32,31,26,25,10,22,29,,,3.4,1.0,2.9*32
2017-11-15 18:48:17 1510789697.373898: $GPZDA,234816.00,15,11,2017,00,00*6C
2017-11-15 18:48:17 1510789697.374072: $GPGGA,234816,3946.9496,N,08404.9618,W,1,10,1.20,331.91,M,-33.324,M,,*7D
2017-11-15 18:48:17 1510789697.374135: $GPRMC,234816,A,3946.9496,N,08404.9618,W,0.2422,273.794,151117,,*39
2017-11-15 18:48:17 1510789697.374191: $GPGSA,A,3,1,14,3,32,31,26,25,10,22,29,,,3.4,1.2,2.9*30
2017-11-15 18:48:18 1510789698.667216: $GPGSV,3,1,11,01,16,268,04,14,67,055,17,03,26,313,07,32,51,087,15*78
2017-11-15 18:48:18 1510789698.667387: $GPGSV,3,2,11,31,79,315,20,26,32,177,14,25,32,051,13,10,16,157,12*76
2017-11-15 18:48:18 1510789698.667447: $GPGSV,3,3,11,16,03,190,04,22,43,297,26,29,02,088,07*40
2017-11-15 18:48:18 1510789698.780597: $GPZDA,234817.00,15,11,2017,00,00*6D
2017-11-15 18:48:18 1510789698.780780: $GPGGA,234817,3946.9496,N,08404.9618,W,1,09,1.20,331.91,M,-33.324,M,,*74
2017-11-15 18:48:18 1510789698.780842: $GPRMC,234817,A,3946.9496,N,08404.9618,W,0.0000,0.000,151117,,*32
2017-11-15 18:48:18 1510789698.780925: $GPGSA,A,3,14,3,32,31,26,25,10,22,29,,,,3.4,1.2,2.9*01
2017-11-15 18:48:19 1510789699.373986: $GPZDA,234818.00,15,11,2017,00,00*62
2017-11-15 18:48:19 1510789699.374173: $GPGGA,234818,3946.9499,N,08404.9617,W,1,09,1.20,331.15,M,-33.324,M,,*77
2017-11-15 18:48:19 1510789699.379510: $GPRMC,234818,A,3946.9499,N,08404.9617,W,0.0000,0.000,151117,,*3D
2017-11-15 18:48:19 1510789699.379594: $GPGSA,A,3,14,3,32,31,26,25,10,22,29,,,,3.4,1.2,2.9*01
2017-11-15 18:48:20 1510789700.331070: $GPZDA,234819.00,15,11,2017,00,00*63
2017-11-15 18:48:20 1510789700.331230: $GPGGA,234819,3946.9499,N,08404.9617,W,1,09,1.20,331.15,M,-33.324,M,,*76
2017-11-15 18:48:20 1510789700.331359: $GPRMC,234819,A,3946.9499,N,08404.9617,W,0.2422,93.794,151117,,*0A
2017-11-15 18:48:20 1510789700.331436: $GPGSA,A,3,14,3,32,31,26,25,10,22,29,,,,3.4,1.2,2.9*01
2017-11-15 18:48:21 1510789701.710085: $GPGSV,3,1,11,01,16,268,04,14,67,055,17,03,26,313,06,32,51,087,15*79
2017-11-15 18:48:21 1510789701.710347: $GPGSV,3,2,11,31,79,315,20,26,32,177,09,25,32,051,13,10,16,157,11*79
2017-11-15 18:48:21 1510789701.710450: $GPGSV,3,3,11,16,03,190,05,22,43,297,26,29,02,088,05*43
2017-11-15 18:48:21 1510789701.823443: $GPZDA,234820.00,15,11,2017,00,00*69
2017-11-15 18:48:21 1510789701.823617: $GPGGA,234820,3946.9499,N,08404.9617,W,1,07,1.20,331.15,M,-33.324,M,,*72
2017-11-15 18:48:21 1510789701.823678: $GPRMC,234820,A,3946.9499,N,08404.9617,W,0.0000,0.000,151117,,*36
2017-11-15 18:48:21 1510789701.823750: $GPGSA,A,3,14,32,31,26,25,10,22,,,,,,3.4,1.2,2.9*39
2017-11-15 18:48:22 1510789702.331835: $GPZDA,234821.00,15,11,2017,00,00*68
2017-11-15 18:48:22 1510789702.332027: $GPGGA,234821,3946.9499,N,08404.9617,W,1,07,1.20,331.15,M,-33.324,M,,*73
2017-11-15 18:48:22 1510789702.332087: $GPRMC,234821,A,3946.9499,N,08404.9617,W,0.0000,0.000,151117,,*37
2017-11-15 18:48:22 1510789702.332143: $GPGSA,A,3,14,32,31,26,25,10,22,,,,,,3.4,1.2,2.9*39
2017-11-15 18:48:23 1510789703.330292: $GPZDA,234822.00,15,11,2017,00,00*6B
2017-11-15 18:48:23 1510789703.330467: $GPGGA,234822,3946.9499,N,08404.9617,W,1,07,1.20,331.15,M,-33.324,M,,*70
2017-11-15 18:48:23 1510789703.330528: $GPRMC,234822,A,3946.9499,N,08404.9617,W,0.2422,273.794,151117,,*3E
2017-11-15 18:48:23 1510789703.330584: $GPGSA,A,3,14,32,31,26,25,10,22,,,,,,3.4,1.2,2.9*39
2017-11-15 18:48:24 1510789704.667276: $GPGSV,3,1,11,01,16,268,04,14,67,055,17,03,26,313,04,32,51,087,15*7B
2017-11-15 18:48:24 1510789704.667472: $GPGSV,3,2,11,31,79,315,19,26,32,177,09,25,32,051,13,10,16,157,10*72
2017-11-15 18:48:24 1510789704.667536: $GPGSV,3,3,11,16,03,190,05,22,43,297,26,29,02,088,04*42
2017-11-15 18:48:24 1510789704.781120: $GPZDA,234823.00,15,11,2017,00,00*6A
2017-11-15 18:48:24 1510789704.781285: $GPGGA,234823,3946.9503,N,08404.9610,W,1,07,1.20,331.87,M,-33.324,M,,*7F
2017-11-15 18:48:24 1510789704.781348: $GPRMC,234823,A,3946.9503,N,08404.9610,W,0.0000,0.000,151117,,*30
2017-11-15 18:48:24 1510789704.781406: $GPGSA,A,3,14,32,31,26,25,10,22,,,,,,3.4,1.2,2.9*39
2017-11-15 18:48:25 1510789705.859049: $GPZDA,234824.00,15,11,2017,00,00*6D
2017-11-15 18:48:25 1510789705.859218: $GPGGA,234824,3946.9503,N,08404.9610,W,1,07,1.20,331.87,M,-33.324,M,,*78
2017-11-15 18:48:25 1510789705.859281: $GPRMC,234824,A,3946.9503,N,08404.9610,W,0.3155,129.994,151117,,*3B
2017-11-15 18:48:25 1510789705.859340: $GPGSA,A,3,14,32,31,26,25,10,22,,,,,,3.4,1.2,2.9*39
2017-11-15 18:48:26 1510789706.484404: $GPZDA,234825.00,15,11,2017,00,00*6C
2017-11-15 18:48:26 1510789706.484572: $GPGGA,234825,3946.9503,N,08404.9610,W,1,07,1.20,331.87,M,-33.324,M,,*79
2017-11-15 18:48:26 1510789706.484635: $GPRMC,234825,A,3946.9503,N,08404.9610,W,0.2422,93.794,151117,,*00
2017-11-15 18:48:26 1510789706.484693: $GPGSA,A,3,14,32,31,26,25,10,22,,,,,,3.4,1.2,2.9*39
2017-11-15 18:48:27 1510789707.708926: $GPGSV,3,1,11,01,15,267,04,14,66,060,17,03,27,313,06,32,50,088,15*7D
2017-11-15 18:48:27 1510789707.709101: $GPGSV,3,2,11,31,79,322,18,26,33,177,10,25,31,049,13,10,14,157,10*76
2017-11-15 18:48:27 1510789707.709164: $GPGSV,3,3,11,16,05,190,04,22,44,295,26,29,03,087,05*4F
2017-11-15 18:48:27 1510789707.822669: $GPZDA,234826.00,15,11,2017,00,00*6F
2017-11-15 18:48:27 1510789707.823014: $GPGGA,234826,3946.9503,N,08404.9603,W,1,07,1.20,331.95,M,-33.324,M,,*7B
2017-11-15 18:48:27 1510789707.823136: $GPRMC,234826,A,3946.9503,N,08404.9603,W,0.4844,93.794,151117,,*0B
2017-11-15 18:48:27 1510789707.823259: $GPGSA,A,3,14,32,31,26,25,10,22,,,,,,3.4,1.2,2.9*39
2017-11-15 18:48:28 1510789708.330658: $GPZDA,234827.00,15,11,2017,00,00*6E
2017-11-15 18:48:28 1510789708.330861: $GPGGA,234827,3946.9503,N,08404.9596,W,1,07,1.20,332.03,M,-33.324,M,,*79
2017-11-15 18:48:28 1510789708.330979: $GPRMC,234827,A,3946.9503,N,08404.9596,W,0.4844,93.794,151117,,*05
2017-11-15 18:48:28 1510789708.331037: $GPGSA,A,3,14,32,31,26,25,10,22,,,,,,3.4,1.2,2.9*39
2017-11-15 18:48:29 1510789709.332189: $GPZDA,234828.00,15,11,2017,00,00*61
2017-11-15 18:48:29 1510789709.332349: $GPGGA,234828,3946.9499,N,08404.9597,W,1,07,1.20,332.79,M,-33.324,M,,*78
2017-11-15 18:48:29 1510789709.332409: $GPRMC,234828,A,3946.9499,N,08404.9597,W,0.4179,148.778,151117,,*3B
2017-11-15 18:48:29 1510789709.332464: $GPGSA,A,3,14,32,31,26,25,10,22,,,,,,3.4,1.2,2.9*39
2017-11-15 18:48:30 1510789710.667272: $GPGSV,3,1,11,01,15,267,04,14,66,060,17,03,27,313,04,32,50,088,15*7F
2017-11-15 18:48:30 1510789710.667446: $GPGSV,3,2,11,31,79,322,17,26,33,177,10,25,31,049,13,10,14,157,09*71
2017-11-15 18:48:30 1510789710.667506: $GPGSV,3,3,11,16,05,190,04,22,44,295,26,29,03,087,11*4A
2017-11-15 18:48:30 1510789710.780743: $GPZDA,234829.00,15,11,2017,00,00*60
2017-11-15 18:48:30 1510789710.780925: $GPGGA,234829,3946.9499,N,08404.9597,W,1,08,1.20,332.79,M,-33.324,M,,*76
2017-11-15 18:48:30 1510789710.780987: $GPRMC,234829,A,3946.9499,N,08404.9597,W,0.4207,219.347,151117,,*3F
2017-11-15 18:48:30 1510789710.781043: $GPGSA,A,3,14,32,31,26,25,10,22,29,,,,,3.4,1.2,2.9*32
2017-11-15 18:48:31 1510789711.406220: $GPZDA,234830.00,15,11,2017,00,00*68
2017-11-15 18:48:31 1510789711.406428: $GPGGA,234830,3946.9499,N,08404.9590,W,1,08,1.20,332.87,M,-33.324,M,,*78
2017-11-15 18:48:31 1510789711.406491: $GPRMC,234830,A,3946.9499,N,08404.9590,W,0.2422,273.794,151117,,*31
2017-11-15 18:48:31 1510789711.406547: $GPGSA,A,3,14,32,31,26,25,10,22,29,,,,,3.4,1.2,2.9*32
2017-11-15 18:48:32 1510789712.328291: $GPZDA,234831.00,15,11,2017,00,00*69
2017-11-15 18:48:32 1510789712.328455: $GPGGA,234831,3946.9499,N,08404.9590,W,1,08,1.20,332.87,M,-33.324,M,,*79
2017-11-15 18:48:32 1510789712.328517: $GPRMC,234831,A,3946.9499,N,08404.9590,W,0.2422,273.794,151117,,*30
2017-11-15 18:48:32 1510789712.328574: $GPGSA,A,3,14,32,31,26,25,10,22,29,,,,,3.4,1.2,2.9*32
2017-11-15 18:48:33 1510789713.701391: $GPGSV,3,1,11,01,15,267,00,14,66,060,18,03,27,313,08,32,50,088,15*78
2017-11-15 18:48:33 1510789713.701564: $GPGSV,3,2,11,31,79,322,17,26,33,177,12,25,31,049,13,10,14,157,00*7A
2017-11-15 18:48:33 1510789713.701625: $GPGSV,3,3,11,16,05,190,00,22,44,295,26,29,03,087,00*4E
2017-11-15 18:48:33 1510789713.814943: $GPZDA,234832.00,15,11,2017,00,00*6A
2017-11-15 18:48:33 1510789713.815112: $GPGGA,234832,3946.9499,N,08404.9590,W,1,07,1.00,332.87,M,-33.324,M,,*77
2017-11-15 18:48:33 1510789713.815174: $GPRMC,234832,A,3946.9499,N,08404.9590,W,0.4844,273.794,151117,,*39
2017-11-15 18:48:33 1510789713.815230: $GPGSA,A,3,14,3,32,31,26,25,22,,,,,,3.4,1.0,2.9*09
2017-11-15 18:48:34 1510789714.328578: $GPZDA,234833.00,15,11,2017,00,00*6B
2017-11-15 18:48:34 1510789714.328744: $GPGGA,234833,3946.9498,N,08404.9583,W,1,07,1.00,332.95,M,-33.324,M,,*76
2017-11-15 18:48:34 1510789714.328807: $GPRMC,234833,A,3946.9498,N,08404.9583,W,0.0000,0.000,151117,,*3B
2017-11-15 18:48:34 1510789714.328864: $GPGSA,A,3,14,3,32,31,26,25,22,,,,,,3.4,1.0,2.9*09
2017-11-15 18:48:35 1510789715.327994: $GPZDA,234834.00,15,11,2017,00,00*6C
2017-11-15 18:48:35 1510789715.330105: $GPGGA,234834,3946.9498,N,08404.9583,W,1,07,1.20,332.95,M,-33.324,M,,*73
2017-11-15 18:48:35 1510789715.330196: $GPRMC,234834,A,3946.9498,N,08404.9583,W,0.2422,93.794,151117,,*0A
2017-11-15 18:48:35 1510789715.330271: $GPGSA,A,3,14,3,32,31,26,25,22,,,,,,3.4,1.2,2.9*0B
2017-11-15 18:48:36 1510789716.664238: $GPGSV,3,1,11,01,15,267,00,14,66,060,18,03,27,313,08,32,50,088,15*78
2017-11-15 18:48:36 1510789716.664406: $GPGSV,3,2,11,31,79,322,18,26,33,177,13,25,31,049,13,10,14,157,00*74
2017-11-15 18:48:36 1510789716.664465: $GPGSV,3,3,11,16,05,190,00,22,44,295,26,29,03,087,00*4E
2017-11-15 18:48:36 1510789716.777938: $GPZDA,234835.00,15,11,2017,00,00*6D
2017-11-15 18:48:36 1510789716.778096: $GPGGA,234835,3946.9498,N,08404.9576,W,1,07,1.00,333.03,M,-33.324,M,,*74
2017-11-15 18:48:36 1510789716.778157: $GPRMC,234835,A,3946.9498,N,08404.9576,W,0.2422,93.794,151117,,*01
2017-11-15 18:48:36 1510789716.778261: $GPGSA,A,3,14,3,32,31,26,25,22,,,,,,3.4,1.0,2.9*09
2017-11-15 18:48:37 1510789717.371240: $GPZDA,234836.00,15,11,2017,00,00*6E
2017-11-15 18:48:37 1510789717.371392: $GPGGA,234836,3946.9494,N,08404.9570,W,1,07,1.20,333.87,M,-33.324,M,,*73
2017-11-15 18:48:37 1510789717.371452: $GPRMC,234836,A,3946.9494,N,08404.9570,W,0.5306,114.352,151117,,*3E
2017-11-15 18:48:37 1510789717.371509: $GPGSA,A,3,14,3,32,31,26,25,22,,,,,,3.4,1.2,2.9*0B
2017-11-15 18:48:38 1510789718.329603: $GPZDA,234837.00,15,11,2017,00,00*6F
2017-11-15 18:48:38 1510789718.329766: $GPGGA,234837,3946.9494,N,08404.9563,W,1,07,1.20,333.95,M,-33.324,M,,*73
2017-11-15 18:48:38 1510789718.329827: $GPRMC,234837,A,3946.9494,N,08404.9563,W,0.2422,93.794,151117,,*0B
2017-11-15 18:48:38 1510789718.329882: $GPGSA,A,3,14,3,32,31,26,25,22,,,,,,3.4,1.2,2.9*0B
2017-11-15 18:48:39 1510789719.665180: $GPGSV,3,1,11,01,15,267,00,14,66,060,18,03,27,313,05,32,50,088,14*74
2017-11-15 18:48:39 1510789719.665325: $GPGSV,3,2,11,31,79,322,18,26,33,177,13,25,31,049,13,10,14,157,00*74
2017-11-15 18:48:39 1510789719.665384: $GPGSV,3,3,11,16,05,190,00,22,44,295,26,29,03,087,00*4E
2017-11-15 18:48:39 1510789719.778483: $GPZDA,234838.00,15,11,2017,00,00*60
2017-11-15 18:48:39 1510789719.778652: $GPGGA,234838,3946.9494,N,08404.9563,W,1,06,1.20,333.95,M,-33.324,M,,*7D
2017-11-15 18:48:39 1510789719.778715: $GPRMC,234838,A,3946.9494,N,08404.9563,W,0.2422,93.794,151117,,*04
2017-11-15 18:48:39 1510789719.778772: $GPGSA,A,3,14,32,31,26,25,22,,,,,,,3.4,1.2,2.9*38
2017-11-15 18:48:40 1510789720.372965: $GPZDA,234839.00,15,11,2017,00,00*61
2017-11-15 18:48:40 1510789720.373300: $GPGGA,234839,3946.9494,N,08404.9556,W,1,06,1.20,334.03,M,-33.324,M,,*72
2017-11-15 18:48:40 1510789720.375716: $GPRMC,234839,A,3946.9494,N,08404.9556,W,0.2422,93.794,151117,,*03
2017-11-15 18:48:40 1510789720.375889: $GPGSA,A,3,14,32,31,26,25,22,,,,,,,3.4,1.2,2.9*38
2017-11-15 18:48:41 1510789721.372455: $GPZDA,234840.00,15,11,2017,00,00*6F
2017-11-15 18:48:41 1510789721.372617: $GPGGA,234840,3946.9493,N,08404.9549,W,1,06,1.20,334.11,M,-33.324,M,,*76
2017-11-15 18:48:41 1510789721.372700: $GPRMC,234840,A,3946.9493,N,08404.9549,W,0.5075,72.257,151117,,*00
2017-11-15 18:48:41 1510789721.372757: $GPGSA,A,3,14,32,31,26,25,22,,,,,,,3.4,1.2,2.9*38
2017-11-15 18:48:42 1510789722.669213: $GPGSV,3,1,11,16,05,190,02,14,66,060,18,03,27,313,04,32,50,088,14*7B
2017-11-15 18:48:42 1510789722.669384: $GPGSV,3,2,11,31,79,322,19,26,33,177,13,25,31,049,13,29,03,087,00*75
2017-11-15 18:48:42 1510789722.669444: $GPGSV,3,3,11,01,15,267,00,22,44,295,26,10,14,157,00*42
2017-11-15 18:48:42 1510789722.781330: $GPZDA,234841.00,15,11,2017,00,00*6E
2017-11-15 18:48:42 1510789722.781496: $GPGGA,234841,3946.9493,N,08404.9549,W,1,06,1.20,334.11,M,-33.324,M,,*77
2017-11-15 18:48:42 1510789722.781557: $GPRMC,234841,A,3946.9493,N,08404.9549,W,0.4207,39.347,151117,,*08
2017-11-15 18:48:42 1510789722.781612: $GPGSA,A,3,14,32,31,26,25,22,,,,,,,3.4,1.2,2.9*38
