2017-12-31 16:55:40 1514757340.895876: {"class":"VERSION","release":"3.16","rev":"3.16-4","proto_major":3,"proto_minor":11}
2017-12-31 16:55:40 1514757340.896211: {"class":"DEVICES","devices":[{"class":"DEVICE","path":"/dev/ttyUSB0","driver":"SiRF","activated":"2017-12-31T21:55:40.559Z","flags":1,"native":1,"bps":4800,"parity":"N","stopbits":1,"cycle":1.00}]}
2017-12-31 16:55:40 1514757340.896309: {"class":"WATCH","enable":true,"json":false,"nmea":true,"raw":0,"scaled":false,"timing":false,"split24":false,"pps":false}
2017-12-31 16:55:41 1514757341.343968: $GPZDA,215542.00,31,12,2017,00,00*66
2017-12-31 16:55:41 1514757341.344139: $GPGGA,215542,3946.9581,N,08404.9855,W,2,11,0.80,303.74,M,-33.324,M,,*71
2017-12-31 16:55:41 1514757341.344206: $GPRMC,215542,A,3946.9581,N,08404.9855,W,0.0000,0.000,311217,,*39
2017-12-31 16:55:41 1514757341.344267: $GPGSA,A,3,22,23,25,3,16,29,31,14,32,26,135,,1.7,0.8,1.3*32
2017-12-31 16:55:42 1514757342.671872: $GPGSV,3,1,11,22,47,246,41,23,24,306,39,25,05,037,23,03,46,277,39*7B
2017-12-31 16:55:42 1514757342.672053: $GPGSV,3,2,11,16,41,190,46,29,14,060,31,31,53,046,51,14,44,109,42*73
2017-12-31 16:55:42 1514757342.672120: $GPGSV,3,3,11,32,22,120,43,26,70,154,43,135,22,240,43*7E
2017-12-31 16:55:42 1514757342.785570: $GPZDA,215543.00,31,12,2017,00,00*67
2017-12-31 16:55:42 1514757342.785718: $GPGGA,215543,3946.9581,N,08404.9855,W,2,11,0.80,303.74,M,-33.324,M,,*70
2017-12-31 16:55:42 1514757342.785784: $GPRMC,215543,A,3946.9581,N,08404.9855,W,0.0000,0.000,311217,,*38
2017-12-31 16:55:42 1514757342.785860: $GPGSA,A,3,22,23,25,3,16,29,31,14,32,26,135,,1.7,0.8,1.3*32
2017-12-31 16:55:43 1514757343.345323: $GPZDA,215544.00,31,12,2017,00,00*60
2017-12-31 16:55:43 1514757343.345491: $GPGGA,215544,3946.9581,N,08404.9862,W,2,11,0.80,303.66,M,-33.324,M,,*70
2017-12-31 16:55:43 1514757343.345557: $GPRMC,215544,A,3946.9581,N,08404.9862,W,0.0000,0.000,311217,,*3B
2017-12-31 16:55:43 1514757343.345617: $GPGSA,A,3,22,23,25,3,16,29,31,14,32,26,135,,1.7,0.8,1.3*32
2017-12-31 16:55:44 1514757344.359756: $GPZDA,215545.00,31,12,2017,00,00*61
2017-12-31 16:55:44 1514757344.359939: $GPGGA,215545,3946.9581,N,08404.9862,W,2,11,0.80,303.66,M,-33.324,M,,*71
2017-12-31 16:55:44 1514757344.360007: $GPRMC,215545,A,3946.9581,N,08404.9862,W,0.0000,0.000,311217,,*3A
2017-12-31 16:55:44 1514757344.360084: $GPGSA,A,3,22,23,25,3,16,29,31,14,32,26,135,,1.7,0.8,1.3*32
2017-12-31 16:55:45 1514757345.679757: $GPGSV,3,1,11,22,47,246,41,23,24,306,38,25,05,037,20,03,46,277,38*78
2017-12-31 16:55:45 1514757345.679916: $GPGSV,3,2,11,16,41,190,46,29,14,060,31,31,53,046,51,14,44,109,42*73
2017-12-31 16:55:45 1514757345.679981: $GPGSV,3,3,11,32,22,120,43,26,70,154,44,135,22,240,42*78
2017-12-31 16:55:45 1514757345.793380: $GPZDA,215546.00,31,12,2017,00,00*62
2017-12-31 16:55:45 1514757345.793528: $GPGGA,215546,3946.9581,N,08404.9862,W,2,11,0.80,303.66,M,-33.324,M,,*72
2017-12-31 16:55:45 1514757345.793594: $GPRMC,215546,A,3946.9581,N,08404.9862,W,0.0000,0.000,311217,,*39
2017-12-31 16:55:45 1514757345.793655: $GPGSA,A,3,22,23,25,3,16,29,31,14,32,26,135,,1.7,0.8,1.3*32
2017-12-31 16:55:46 1514757346.344257: $GPZDA,215547.00,31,12,2017,00,00*63
2017-12-31 16:55:46 1514757346.344417: $GPGGA,215547,3946.9581,N,08404.9862,W,2,11,0.80,303.66,M,-33.324,M,,*73
2017-12-31 16:55:46 1514757346.344483: $GPRMC,215547,A,3946.9581,N,08404.9862,W,0.0000,0.000,311217,,*38
2017-12-31 16:55:46 1514757346.344544: $GPGSA,A,3,22,23,25,3,16,29,31,14,32,26,135,,1.7,0.8,1.3*32
2017-12-31 16:55:47 1514757347.343873: $GPZDA,215548.00,31,12,2017,00,00*6C
2017-12-31 16:55:47 1514757347.344035: $GPGGA,215548,3946.9581,N,08404.9862,W,2,11,0.80,303.66,M,-33.324,M,,*7C
2017-12-31 16:55:47 1514757347.344100: $GPRMC,215548,A,3946.9581,N,08404.9862,W,0.0000,0.000,311217,,*37
2017-12-31 16:55:47 1514757347.344161: $GPGSA,A,3,22,23,25,3,16,29,31,14,32,26,135,,1.7,0.8,1.3*32
2017-12-31 16:55:48 1514757348.688087: $GPGSV,3,1,11,22,47,246,41,23,24,306,38,25,05,037,19,03,46,277,39*73
2017-12-31 16:55:48 1514757348.688266: $GPGSV,3,2,11,16,41,190,46,29,14,060,31,31,53,046,51,14,44,109,42*73
2017-12-31 16:55:48 1514757348.688389: $GPGSV,3,3,11,32,22,120,44,26,70,154,44,135,22,240,43*7E
2017-12-31 16:55:48 1514757348.801733: $GPZDA,215549.00,31,12,2017,00,00*6D
2017-12-31 16:55:48 1514757348.801896: $GPGGA,215549,3946.9581,N,08404.9862,W,2,11,0.80,303.66,M,-33.324,M,,*7D
2017-12-31 16:55:48 1514757348.801962: $GPRMC,215549,A,3946.9581,N,08404.9862,W,0.0000,0.000,311217,,*36
2017-12-31 16:55:48 1514757348.802023: $GPGSA,A,3,22,23,25,3,16,29,31,14,32,26,135,,1.7,0.8,1.3*32
2017-12-31 16:55:49 1514757349.345082: $GPZDA,215550.00,31,12,2017,00,00*65
2017-12-31 16:55:49 1514757349.345246: $GPGGA,215550,3946.9581,N,08404.9862,W,2,11,0.80,303.66,M,-33.324,M,,*75
2017-12-31 16:55:49 1514757349.345313: $GPRMC,215550,A,3946.9581,N,08404.9862,W,0.0000,0.000,311217,,*3E
2017-12-31 16:55:49 1514757349.345373: $GPGSA,A,3,22,23,25,3,16,29,31,14,32,26,135,,1.7,0.8,1.3*32
2017-12-31 16:55:50 1514757350.344268: $GPZDA,215551.00,31,12,2017,00,00*64
2017-12-31 16:55:50 1514757350.344424: $GPGGA,215551,3946.9581,N,08404.9862,W,2,11,0.80,303.66,M,-33.324,M,,*74
2017-12-31 16:55:50 1514757350.344491: $GPRMC,215551,A,3946.9581,N,08404.9862,W,0.0000,0.000,311217,,*3F
2017-12-31 16:55:50 1514757350.344552: $GPGSA,A,3,22,23,25,3,16,29,31,14,32,26,135,,1.7,0.8,1.3*32
