2017-12-01 14:34:49 1512156889.323943: {"class":"VERSION","release":"3.16","rev":"3.16-4","proto_major":3,"proto_minor":11}
2017-12-01 14:34:49 1512156889.324312: {"class":"DEVICES","devices":[{"class":"DEVICE","path":"/dev/ttyUSB0","driver":"SiRF","subtype":"9\u0006GSD4e_4.1.2-P1_RPATCH.05-F-GPS-4R-1510281 11/03/2015 307","activated":"2017-12-01T19:34:49.273Z","flags":1,"native":1,"bps":4800,"parity":"N","stopbits":1,"cycle":1.00}]}
2017-12-01 14:34:49 1512156889.324430: {"class":"WATCH","enable":true,"json":false,"nmea":true,"raw":0,"scaled":false,"timing":false,"split24":false,"pps":false}
2017-12-01 14:34:49 1512156889.896878: $GPZDA,193450.00,01,12,2017,00,00*6A
2017-12-01 14:34:49 1512156889.897049: $GPGGA,193450,3946.9585,N,08404.9858,W,2,12,1.00,296.51,M,-33.324,M,,*77
2017-12-01 14:34:49 1512156889.897118: $GPRMC,193450,A,3946.9585,N,08404.9858,W,0.0000,0.000,011217,,*3C
2017-12-01 14:34:49 1512156889.897179: $GPGSA,A,3,10,12,14,18,21,24,32,8,25,20,15,138,2.0,1.0,1.5*3C
2017-12-01 14:34:50 1512156890.721268: $GPGSV,3,1,12,10,74,340,47,12,12,103,25,14,33,258,41,18,66,105,46*7B
2017-12-01 14:34:50 1512156890.721511: $GPGSV,3,2,12,21,23,178,46,24,41,054,48,32,50,271,44,31,04,204,35*7D
2017-12-01 14:34:50 1512156890.721581: $GPGSV,3,3,12,25,06,138,23,20,05,121,17,15,07,069,28,138,38,213,47*47
2017-12-01 14:34:50 1512156890.834620: $GPZDA,193451.00,01,12,2017,00,00*6B
2017-12-01 14:34:50 1512156890.834764: $GPGGA,193451,3946.9585,N,08404.9858,W,2,12,1.00,296.51,M,-33.324,M,,*76
2017-12-01 14:34:50 1512156890.834831: $GPRMC,193451,A,3946.9585,N,08404.9858,W,0.0000,0.000,011217,,*3D
2017-12-01 14:34:50 1512156890.834892: $GPGSA,A,3,10,12,14,18,21,24,32,31,25,20,15,138,2.0,1.0,1.5*06
2017-12-01 14:34:51 1512156891.460084: $GPZDA,193452.00,01,12,2017,00,00*68
2017-12-01 14:34:51 1512156891.460284: $GPGGA,193452,3946.9585,N,08404.9858,W,2,12,1.00,296.51,M,-33.324,M,,*75
2017-12-01 14:34:51 1512156891.460370: $GPRMC,193452,A,3946.9585,N,08404.9858,W,0.0000,0.000,011217,,*3E
2017-12-01 14:34:51 1512156891.460435: $GPGSA,A,3,10,12,14,18,21,24,32,31,25,20,15,138,2.0,1.0,1.5*06
2017-12-01 14:34:52 1512156892.345987: $GPZDA,193453.00,01,12,2017,00,00*69
2017-12-01 14:34:52 1512156892.346156: $GPGGA,193453,3946.9585,N,08404.9858,W,2,12,1.40,296.51,M,-33.324,M,,*70
2017-12-01 14:34:52 1512156892.346222: $GPRMC,193453,A,3946.9585,N,08404.9858,W,0.0000,0.000,011217,,*3F
2017-12-01 14:34:52 1512156892.346283: $GPGSA,A,3,10,12,14,18,21,24,32,31,25,20,15,138,2.0,1.4,1.5*02
2017-12-01 14:34:53 1512156893.682964: $GPGSV,3,1,12,10,74,340,47,12,12,103,25,14,33,258,41,18,66,105,46*7B
2017-12-01 14:34:53 1512156893.683144: $GPGSV,3,2,12,21,23,178,46,24,41,054,48,32,50,271,44,31,04,204,35*7D
2017-12-01 14:34:53 1512156893.683211: $GPGSV,3,3,12,25,06,138,23,20,05,121,18,15,07,069,02,138,38,213,47*40
2017-12-01 14:34:53 1512156893.796559: $GPZDA,193454.00,01,12,2017,00,00*6E
2017-12-01 14:34:53 1512156893.796745: $GPGGA,193454,3946.9585,N,08404.9858,W,2,11,1.40,296.51,M,-33.324,M,,*74
2017-12-01 14:34:53 1512156893.796814: $GPRMC,193454,A,3946.9585,N,08404.9858,W,0.0000,0.000,011217,,*38
2017-12-01 14:34:53 1512156893.796875: $GPGSA,A,3,10,12,14,18,21,24,32,31,25,20,138,,2.0,1.4,1.5*06
2017-12-01 14:34:54 1512156894.339686: $GPZDA,193455.00,01,12,2017,00,00*6F
2017-12-01 14:34:54 1512156894.339858: $GPGGA,193455,3946.9585,N,08404.9858,W,2,11,1.40,296.51,M,-33.324,M,,*75
2017-12-01 14:34:54 1512156894.339924: $GPRMC,193455,A,3946.9585,N,08404.9858,W,0.0000,0.000,011217,,*39
2017-12-01 14:34:54 1512156894.339985: $GPGSA,A,3,10,12,14,18,21,24,32,31,25,20,138,,2.0,1.4,1.5*06
2017-12-01 14:34:55 1512156895.385673: $GPZDA,193456.00,01,12,2017,00,00*6C
2017-12-01 14:34:55 1512156895.385847: $GPGGA,193456,3946.9585,N,08404.9858,W,2,11,1.00,296.51,M,-33.324,M,,*72
2017-12-01 14:34:55 1512156895.385913: $GPRMC,193456,A,3946.9585,N,08404.9858,W,0.0000,0.000,011217,,*3A
2017-12-01 14:34:55 1512156895.385975: $GPGSA,A,3,10,12,14,18,21,24,32,31,25,20,138,,2.0,1.0,1.5*02
2017-12-01 14:34:56 1512156896.718285: $GPGSV,3,1,12,10,74,340,46,12,12,103,26,14,33,258,41,18,66,105,46*79
2017-12-01 14:34:56 1512156896.988309: $GPGSV,3,2,12,21,23,178,45,24,41,054,48,32,50,271,44,31,04,204,35*7E
2017-12-01 14:34:56 1512156896.988465: $GPGSV,3,3,12,25,06,138,22,20,05,121,19,15,07,069,24,138,38,213,47*44
2017-12-01 14:34:56 1512156896.988570: $GPZDA,193457.00,01,12,2017,00,00*6D
2017-12-01 14:34:56 1512156896.988629: $GPGGA,193457,3946.9585,N,08404.9858,W,2,12,1.00,296.51,M,-33.324,M,,*70
2017-12-01 14:34:56 1512156896.988690: $GPRMC,193457,A,3946.9585,N,08404.9858,W,0.0000,0.000,011217,,*3B
2017-12-01 14:34:56 1512156896.988749: $GPGSA,A,3,10,12,14,18,21,24,32,31,25,20,15,138,2.0,1.0,1.5*06
2017-12-01 14:34:57 1512156897.345190: $GPZDA,193458.00,01,12,2017,00,00*62
2017-12-01 14:34:57 1512156897.345371: $GPGGA,193458,3946.9585,N,08404.9858,W,2,12,1.00,296.51,M,-33.324,M,,*7F
2017-12-01 14:34:57 1512156897.345440: $GPRMC,193458,A,3946.9585,N,08404.9858,W,0.0000,0.000,011217,,*34
2017-12-01 14:34:57 1512156897.345502: $GPGSA,A,3,10,12,14,18,21,24,32,31,25,20,15,138,2.0,1.0,1.5*06
2017-12-01 14:34:58 1512156898.383530: $GPZDA,193459.00,01,12,2017,00,00*63
2017-12-01 14:34:58 1512156898.383765: $GPGGA,193459,3946.9585,N,08404.9858,W,2,12,1.00,296.51,M,-33.324,M,,*7E
2017-12-01 14:34:58 1512156898.383834: $GPRMC,193459,A,3946.9585,N,08404.9858,W,0.0000,0.000,011217,,*35
2017-12-01 14:34:58 1512156898.383897: $GPGSA,A,3,10,12,14,18,21,24,32,31,25,20,15,138,2.0,1.0,1.5*06
2017-12-01 14:34:59 1512156899.681783: $GPGSV,3,1,12,10,74,340,46,12,12,103,31,14,33,258,41,18,66,105,45*7C
2017-12-01 14:34:59 1512156899.681967: $GPGSV,3,2,12,21,23,178,45,24,41,054,48,32,50,271,45,31,04,204,36*7C
2017-12-01 14:34:59 1512156899.682033: $GPGSV,3,3,12,25,06,138,15,20,05,121,20,15,07,069,24,138,38,213,47*4A
2017-12-01 14:34:59 1512156899.795130: $GPZDA,193500.00,01,12,2017,00,00*6E
2017-12-01 14:34:59 1512156899.795303: $GPGGA,193500,3946.9585,N,08404.9858,W,2,12,1.00,296.51,M,-33.324,M,,*73
2017-12-01 14:34:59 1512156899.795369: $GPRMC,193500,A,3946.9585,N,08404.9858,W,0.0000,0.000,011217,,*38
2017-12-01 14:34:59 1512156899.795430: $GPGSA,A,3,10,12,14,18,21,24,32,31,25,20,15,138,2.0,1.0,1.5*06
2017-12-01 14:35:00 1512156900.372312: $GPZDA,193501.00,01,12,2017,00,00*6F
2017-12-01 14:35:00 1512156900.372485: $GPGGA,193501,3946.9585,N,08404.9858,W,2,12,1.00,296.51,M,-33.324,M,,*72
2017-12-01 14:35:00 1512156900.372574: $GPRMC,193501,A,3946.9585,N,08404.9858,W,0.0000,0.000,011217,,*39
2017-12-01 14:35:00 1512156900.372637: $GPGSA,A,3,10,12,14,18,21,24,32,31,25,20,15,138,2.0,1.0,1.5*06
2017-12-01 14:35:01 1512156901.346530: $GPZDA,193502.00,01,12,2017,00,00*6C
2017-12-01 14:35:01 1512156901.346885: $GPGGA,193502,3946.9585,N,08404.9858,W,2,12,1.00,296.51,M,-33.324,M,,*71
2017-12-01 14:35:01 1512156901.347009: $GPRMC,193502,A,3946.9585,N,08404.9858,W,0.0000,0.000,011217,,*3A
2017-12-01 14:35:01 1512156901.347128: $GPGSA,A,3,10,12,14,18,21,24,32,31,25,20,15,138,2.0,1.0,1.5*06
2017-12-01 14:35:02 1512156902.718407: $GPGSV,3,1,12,10,74,340,47,12,12,103,30,14,33,258,41,18,66,105,46*7F
2017-12-01 14:35:02 1512156902.718608: $GPGSV,3,2,12,21,23,178,45,24,41,054,48,32,50,271,45,31,04,204,36*7C
2017-12-01 14:35:02 1512156902.718692: $GPGSV,3,3,12,25,06,138,16,20,05,121,22,08,04,289,36,138,38,213,46*4A
2017-12-01 14:35:02 1512156902.831751: $GPZDA,193503.00,01,12,2017,00,00*6D
2017-12-01 14:35:02 1512156902.831889: $GPGGA,193503,3946.9585,N,08404.9858,W,2,12,1.40,296.51,M,-33.324,M,,*74
2017-12-01 14:35:02 1512156902.831954: $GPRMC,193503,A,3946.9585,N,08404.9858,W,0.0000,0.000,011217,,*3B
2017-12-01 14:35:02 1512156902.832015: $GPGSA,A,3,10,12,14,18,21,24,32,31,25,20,8,138,2.0,1.4,1.5*3E
2017-12-01 14:35:03 1512156903.382687: $GPZDA,193504.00,01,12,2017,00,00*6A
2017-12-01 14:35:03 1512156903.382863: $GPGGA,193504,3946.9585,N,08404.9858,W,2,12,1.40,296.51,M,-33.324,M,,*73
2017-12-01 14:35:03 1512156903.382932: $GPRMC,193504,A,3946.9585,N,08404.9858,W,0.0000,0.000,011217,,*3C
2017-12-01 14:35:03 1512156903.382994: $GPGSA,A,3,10,12,14,18,21,24,32,31,25,20,8,138,2.0,1.4,1.5*3E
2017-12-01 14:35:04 1512156904.344765: $GPZDA,193505.00,01,12,2017,00,00*6B
2017-12-01 14:35:04 1512156904.344944: $GPGGA,193505,3946.9585,N,08404.9858,W,2,12,1.40,296.51,M,-33.324,M,,*72
2017-12-01 14:35:04 1512156904.345012: $GPRMC,193505,A,3946.9585,N,08404.9858,W,0.0000,0.000,011217,,*3D
2017-12-01 14:35:04 1512156904.345074: $GPGSA,A,3,10,12,14,18,21,24,32,31,25,20,8,138,2.0,1.4,1.5*3E
2017-12-01 14:35:05 1512156905.718090: $GPGSV,3,1,12,10,74,340,47,12,12,103,30,14,33,258,41,18,66,105,46*7F
2017-12-01 14:35:05 1512156905.718273: $GPGSV,3,2,12,21,23,178,45,24,41,054,48,32,50,271,45,31,04,204,36*7C
2017-12-01 14:35:05 1512156905.718341: $GPGSV,3,3,12,25,06,138,17,20,05,121,23,08,04,289,36,138,38,213,47*4B
2017-12-01 14:35:05 1512156905.831495: $GPZDA,193506.00,01,12,2017,00,00*68
2017-12-01 14:35:05 1512156905.831751: $GPGGA,193506,3946.9585,N,08404.9858,W,2,12,1.40,296.51,M,-33.324,M,,*71
2017-12-01 14:35:05 1512156905.831885: $GPRMC,193506,A,3946.9585,N,08404.9858,W,0.0000,0.000,011217,,*3E
2017-12-01 14:35:05 1512156905.832005: $GPGSA,A,3,10,12,14,18,21,24,32,31,25,20,8,138,2.0,1.4,1.5*3E
2017-12-01 14:35:06 1512156906.456765: $GPZDA,193507.00,01,12,2017,00,00*69
2017-12-01 14:35:06 1512156906.456942: $GPGGA,193507,3946.9585,N,08404.9858,W,2,12,1.40,296.51,M,-33.324,M,,*70
2017-12-01 14:35:06 1512156906.457009: $GPRMC,193507,A,3946.9585,N,08404.9858,W,0.0000,0.000,011217,,*3F
2017-12-01 14:35:06 1512156906.457070: $GPGSA,A,3,10,12,14,18,21,24,32,31,25,20,8,138,2.0,1.4,1.5*3E
2017-12-01 14:35:07 1512156907.387637: $GPZDA,193508.00,01,12,2017,00,00*66
2017-12-01 14:35:07 1512156907.387837: $GPGGA,193508,3946.9585,N,08404.9858,W,2,12,1.40,296.51,M,-33.324,M,,*7F
2017-12-01 14:35:07 1512156907.387904: $GPRMC,193508,A,3946.9585,N,08404.9858,W,0.0000,0.000,011217,,*30
2017-12-01 14:35:07 1512156907.387965: $GPGSA,A,3,10,12,14,18,21,24,32,31,25,20,8,138,2.0,1.4,1.5*3E
2017-12-01 14:35:08 1512156908.675987: $GPGSV,3,1,12,10,74,340,46,12,12,103,31,14,33,258,41,18,66,105,46*7F
2017-12-01 14:35:08 1512156908.676135: $GPGSV,3,2,12,21,23,178,45,24,41,054,48,32,50,271,45,31,04,204,36*7C
2017-12-01 14:35:08 1512156908.676200: $GPGSV,3,3,12,25,06,138,18,20,05,121,23,15,07,069,24,138,38,213,48*4B
2017-12-01 14:35:08 1512156908.789431: $GPZDA,193509.00,01,12,2017,00,00*67
2017-12-01 14:35:08 1512156908.789620: $GPGGA,193509,3946.9585,N,08404.9858,W,2,12,1.00,296.51,M,-33.324,M,,*7A
2017-12-01 14:35:08 1512156908.789708: $GPRMC,193509,A,3946.9585,N,08404.9858,W,0.0000,0.000,011217,,*31
2017-12-01 14:35:08 1512156908.789770: $GPGSA,A,3,10,12,14,18,21,24,32,31,25,20,15,138,2.0,1.0,1.5*06
2017-12-01 14:35:09 1512156909.345195: $GPZDA,193510.00,01,12,2017,00,00*6F
2017-12-01 14:35:09 1512156909.345370: $GPGGA,193510,3946.9585,N,08404.9858,W,2,12,1.00,296.51,M,-33.324,M,,*72
2017-12-01 14:35:09 1512156909.345439: $GPRMC,193510,A,3946.9585,N,08404.9858,W,0.0000,0.000,011217,,*39
2017-12-01 14:35:09 1512156909.345500: $GPGSA,A,3,10,12,14,18,21,24,32,31,25,20,15,138,2.0,1.0,1.5*06
2017-12-01 14:35:10 1512156910.345994: $GPZDA,193511.00,01,12,2017,00,00*6E
2017-12-01 14:35:10 1512156910.346175: $GPGGA,193511,3946.9585,N,08404.9858,W,2,12,1.40,296.51,M,-33.324,M,,*77
2017-12-01 14:35:10 1512156910.346244: $GPRMC,193511,A,3946.9585,N,08404.9858,W,0.0000,0.000,011217,,*38
2017-12-01 14:35:10 1512156910.346306: $GPGSA,A,3,10,12,14,18,21,24,32,31,25,20,15,138,2.0,1.4,1.5*02
2017-12-01 14:35:11 1512156911.682568: $GPGSV,3,1,12,10,74,340,46,12,12,103,31,14,33,258,41,18,66,105,45*7C
2017-12-01 14:35:11 1512156911.682756: $GPGSV,3,2,12,21,23,178,45,24,41,054,48,32,50,271,45,31,04,204,36*7C
2017-12-01 14:35:11 1512156911.682825: $GPGSV,3,3,12,25,06,138,18,20,05,121,24,08,04,289,36,138,38,213,47*43
2017-12-01 14:35:11 1512156911.795970: $GPZDA,193512.00,01,12,2017,00,00*6D
2017-12-01 14:35:11 1512156911.796125: $GPGGA,193512,3946.9585,N,08404.9858,W,2,12,1.40,296.51,M,-33.324,M,,*74
2017-12-01 14:35:11 1512156911.796192: $GPRMC,193512,A,3946.9585,N,08404.9858,W,0.0000,0.000,011217,,*3B
2017-12-01 14:35:11 1512156911.796254: $GPGSA,A,3,10,12,14,18,21,24,32,31,25,20,8,138,2.0,1.4,1.5*3E
2017-12-01 14:35:12 1512156912.345708: $GPZDA,193513.00,01,12,2017,00,00*6C
2017-12-01 14:35:12 1512156912.345874: $GPGGA,193513,3946.9585,N,08404.9858,W,2,12,1.40,296.51,M,-33.324,M,,*75
2017-12-01 14:35:12 1512156912.345941: $GPRMC,193513,A,3946.9585,N,08404.9858,W,0.0000,0.000,011217,,*3A
2017-12-01 14:35:12 1512156912.346002: $GPGSA,A,3,10,12,14,18,21,24,32,31,25,20,8,138,2.0,1.4,1.5*3E
2017-12-01 14:35:13 1512156913.356790: $GPZDA,193514.00,01,12,2017,00,00*6B
2017-12-01 14:35:13 1512156913.356940: $GPGGA,193514,3946.9585,N,08404.9858,W,2,12,1.40,296.51,M,-33.324,M,,*72
2017-12-01 14:35:13 1512156913.357006: $GPRMC,193514,A,3946.9585,N,08404.9858,W,0.0000,0.000,011217,,*3D
2017-12-01 14:35:13 1512156913.357068: $GPGSA,A,3,10,12,14,18,21,24,32,31,25,20,8,138,2.0,1.4,1.5*3E
