2017-12-29 10:46:31 1514562391.135767: {"class":"VERSION","release":"3.16","rev":"3.16-4","proto_major":3,"proto_minor":11}
2017-12-29 10:46:31 1514562391.136112: {"class":"DEVICES","devices":[{"class":"DEVICE","path":"/dev/ttyUSB0","driver":"SiRF","subtype":"9\u0006GSD4e_4.1.2-P1_RPATCH.05-F-GPS-4R-1510281 11/03/2015 307","activated":"2017-12-29T15:46:30.514Z","flags":1,"native":1,"bps":4800,"parity":"N","stopbits":1,"cycle":1.00}]}
2017-12-29 10:46:31 1514562391.136225: {"class":"WATCH","enable":true,"json":false,"nmea":true,"raw":0,"scaled":false,"timing":false,"split24":false,"pps":false}
2017-12-29 10:46:31 1514562391.374775: $GPZDA,154632.00,29,12,2017,00,00*6D
2017-12-29 10:46:31 1514562391.374949: $GPGGA,154632,3946.9606,N,08404.9812,W,2,11,0.80,305.89,M,-33.324,M,,*78
2017-12-29 10:46:31 1514562391.375015: $GPRMC,154632,A,3946.9606,N,08404.9812,W,0.0000,0.000,291217,,*3D
2017-12-29 10:46:31 1514562391.375076: $GPGSA,A,3,10,13,15,18,20,21,24,27,29,32,138,,1.7,0.8,1.3*02
2017-12-29 10:46:31 1514562391.375134: $GPGBS,154632,2.73,M,2.59,M,7.72,M*33
2017-12-29 10:46:32 1514562392.708694: $GPGSV,3,1,11,10,31,291,41,13,19,045,43,15,50,049,50,18,62,313,44*7E
2017-12-29 10:46:32 1514562392.708866: $GPGSV,3,2,11,20,45,082,50,21,76,214,47,24,42,129,51,27,19,303,40*75
2017-12-29 10:46:32 1514562392.708932: $GPGSV,3,3,11,29,02,186,31,32,10,231,31,138,38,213,46*7C
2017-12-29 10:46:32 1514562392.822427: $GPZDA,154633.00,29,12,2017,00,00*6C
2017-12-29 10:46:32 1514562392.822548: $GPGGA,154633,3946.9606,N,08404.9812,W,2,11,0.80,305.89,M,-33.324,M,,*79
2017-12-29 10:46:32 1514562392.822612: $GPRMC,154633,A,3946.9606,N,08404.9812,W,0.0000,0.000,291217,,*3C
2017-12-29 10:46:32 1514562392.822672: $GPGSA,A,3,10,13,15,18,20,21,24,27,29,32,138,,1.7,0.8,1.3*02
2017-12-29 10:46:33 1514562393.378267: $GPZDA,154634.00,29,12,2017,00,00*6B
2017-12-29 10:46:33 1514562393.378432: $GPGGA,154634,3946.9606,N,08404.9812,W,2,11,0.80,305.89,M,-33.324,M,,*7E
2017-12-29 10:46:33 1514562393.378498: $GPRMC,154634,A,3946.9606,N,08404.9812,W,0.0000,0.000,291217,,*3B
2017-12-29 10:46:33 1514562393.378558: $GPGSA,A,3,10,13,15,18,20,21,24,27,29,32,138,,1.7,0.8,1.3*02
2017-12-29 10:46:34 1514562394.370458: $GPZDA,154635.00,29,12,2017,00,00*6A
2017-12-29 10:46:34 1514562394.370618: $GPGGA,154635,3946.9606,N,08404.9812,W,2,11,0.80,305.89,M,-33.324,M,,*7F
2017-12-29 10:46:34 1514562394.370683: $GPRMC,154635,A,3946.9606,N,08404.9812,W,0.0000,0.000,291217,,*3A
2017-12-29 10:46:34 1514562394.370743: $GPGSA,A,3,10,13,15,18,20,21,24,27,29,32,138,,1.7,0.8,1.3*02
2017-12-29 10:46:35 1514562395.709525: $GPGSV,3,1,11,10,31,291,42,13,19,045,42,15,50,049,48,18,62,313,44*75
2017-12-29 10:46:35 1514562395.709713: $GPGSV,3,2,11,20,45,082,50,21,76,214,47,24,42,129,50,27,19,303,37*74
2017-12-29 10:46:35 1514562395.709779: $GPGSV,3,3,11,29,02,186,32,32,10,231,29,138,38,213,47*77
2017-12-29 10:46:35 1514562395.822855: $GPZDA,154636.00,29,12,2017,00,00*69
2017-12-29 10:46:35 1514562395.822989: $GPGGA,154636,3946.9602,N,08404.9812,W,2,11,0.80,305.25,M,-33.324,M,,*7E
2017-12-29 10:46:35 1514562395.823052: $GPRMC,154636,A,3946.9602,N,08404.9812,W,0.1867,180.000,291217,,*3C
2017-12-29 10:46:35 1514562395.823112: $GPGSA,A,3,10,13,15,18,20,21,24,27,29,32,138,,1.7,0.8,1.3*02
2017-12-29 10:46:36 1514562396.370015: $GPZDA,154637.00,29,12,2017,00,00*68
2017-12-29 10:46:36 1514562396.370183: $GPGGA,154637,3946.9598,N,08404.9819,W,2,11,0.80,304.53,M,-33.324,M,,*74
2017-12-29 10:46:36 1514562396.370251: $GPRMC,154637,A,3946.9598,N,08404.9819,W,0.1567,9.200,291217,,*39
2017-12-29 10:46:36 1514562396.370311: $GPGSA,A,3,10,13,15,18,20,21,24,27,29,32,138,,1.7,0.8,1.3*02
2017-12-29 10:46:37 1514562397.371707: $GPZDA,154638.00,29,12,2017,00,00*67
2017-12-29 10:46:37 1514562397.371896: $GPGGA,154638,3946.9598,N,08404.9819,W,2,11,0.80,304.53,M,-33.324,M,,*7B
2017-12-29 10:46:37 1514562397.371963: $GPRMC,154638,A,3946.9598,N,08404.9819,W,0.0000,0.000,291217,,*38
2017-12-29 10:46:37 1514562397.372023: $GPGSA,A,3,10,13,15,18,20,21,24,27,29,32,138,,1.7,0.8,1.3*02
2017-12-29 10:46:38 1514562398.707372: $GPGSV,3,1,11,10,31,291,42,13,19,045,43,15,50,049,50,18,62,313,44*7D
2017-12-29 10:46:38 1514562398.707595: $GPGSV,3,2,11,20,45,082,50,21,76,214,47,24,42,129,50,27,19,303,36*75
2017-12-29 10:46:38 1514562398.707662: $GPGSV,3,3,11,29,02,186,33,32,10,231,28,138,38,213,47*77
2017-12-29 10:46:38 1514562398.820732: $GPZDA,154639.00,29,12,2017,00,00*66
2017-12-29 10:46:38 1514562398.820856: $GPGGA,154639,3946.9598,N,08404.9819,W,2,11,0.80,304.53,M,-33.324,M,,*7A
2017-12-29 10:46:38 1514562398.820919: $GPRMC,154639,A,3946.9598,N,08404.9819,W,0.0000,0.000,291217,,*39
2017-12-29 10:46:38 1514562398.820978: $GPGSA,A,3,10,13,15,18,20,21,24,27,29,32,138,,1.7,0.8,1.3*02
2017-12-29 10:46:39 1514562399.371679: $GPZDA,154640.00,29,12,2017,00,00*68
2017-12-29 10:46:39 1514562399.371849: $GPGGA,154640,3946.9598,N,08404.9819,W,2,11,0.80,304.53,M,-33.324,M,,*74
2017-12-29 10:46:39 1514562399.371916: $GPRMC,154640,A,3946.9598,N,08404.9819,W,0.0000,0.000,291217,,*37
2017-12-29 10:46:39 1514562399.371976: $GPGSA,A,3,10,13,15,18,20,21,24,27,29,32,138,,1.7,0.8,1.3*02
2017-12-29 10:46:40 1514562400.370005: $GPZDA,154641.00,29,12,2017,00,00*69
2017-12-29 10:46:40 1514562400.370189: $GPGGA,154641,3946.9598,N,08404.9819,W,2,11,0.80,304.53,M,-33.324,M,,*75
2017-12-29 10:46:40 1514562400.370258: $GPRMC,154641,A,3946.9598,N,08404.9819,W,0.0000,0.000,291217,,*36
2017-12-29 10:46:40 1514562400.370321: $GPGSA,A,3,10,13,15,18,20,21,24,27,29,32,138,,1.7,0.8,1.3*02
2017-12-29 10:46:41 1514562401.705743: $GPGSV,3,1,11,10,31,291,43,13,19,045,43,15,50,049,50,18,62,313,44*7C
2017-12-29 10:46:41 1514562401.705901: $GPGSV,3,2,11,20,45,082,51,21,76,214,47,24,42,129,51,27,19,303,36*75
2017-12-29 10:46:41 1514562401.705969: $GPGSV,3,3,11,29,02,186,33,32,10,231,28,138,38,213,45*75
2017-12-29 10:46:41 1514562401.819064: $GPZDA,154642.00,29,12,2017,00,00*6A
2017-12-29 10:46:41 1514562401.819182: $GPGGA,154642,3946.9598,N,08404.9819,W,2,11,0.80,304.53,M,-33.324,M,,*76
2017-12-29 10:46:41 1514562401.819247: $GPRMC,154642,A,3946.9598,N,08404.9819,W,0.0000,0.000,291217,,*35
2017-12-29 10:46:41 1514562401.819309: $GPGSA,A,3,10,13,15,18,20,21,24,27,29,32,138,,1.7,0.8,1.3*02
2017-12-29 10:46:42 1514562402.444501: $GPZDA,154643.00,29,12,2017,00,00*6B
2017-12-29 10:46:42 1514562402.444671: $GPGGA,154643,3946.9598,N,08404.9819,W,2,11,0.80,304.53,M,-33.324,M,,*77
2017-12-29 10:46:42 1514562402.444740: $GPRMC,154643,A,3946.9598,N,08404.9819,W,0.0000,0.000,291217,,*34
2017-12-29 10:46:42 1514562402.444803: $GPGSA,A,3,10,13,15,18,20,21,24,27,29,32,138,,1.7,0.8,1.3*02
2017-12-29 10:46:43 1514562403.374110: $GPZDA,154644.00,29,12,2017,00,00*6C
2017-12-29 10:46:43 1514562403.374284: $GPGGA,154644,3946.9598,N,08404.9819,W,2,11,0.80,304.53,M,-33.324,M,,*70
2017-12-29 10:46:43 1514562403.374352: $GPRMC,154644,A,3946.9598,N,08404.9819,W,0.0000,0.000,291217,,*33
2017-12-29 10:46:43 1514562403.374415: $GPGSA,A,3,10,13,15,18,20,21,24,27,29,32,138,,1.7,0.8,1.3*02
2017-12-29 10:46:44 1514562404.707337: $GPGSV,3,1,11,10,31,291,43,13,19,045,43,15,50,049,50,18,62,313,44*7C
2017-12-29 10:46:44 1514562404.707513: $GPGSV,3,2,11,20,45,082,51,21,76,214,48,24,42,129,51,27,19,303,35*79
2017-12-29 10:46:44 1514562404.707582: $GPGSV,3,3,11,29,02,186,33,32,10,231,29,138,38,213,45*74
2017-12-29 10:46:44 1514562404.820689: $GPZDA,154645.00,29,12,2017,00,00*6D
2017-12-29 10:46:44 1514562404.820813: $GPGGA,154645,3946.9598,N,08404.9819,W,2,11,0.80,304.53,M,-33.324,M,,*71
2017-12-29 10:46:44 1514562404.820880: $GPRMC,154645,A,3946.9598,N,08404.9819,W,0.0000,0.000,291217,,*32
2017-12-29 10:46:44 1514562404.820942: $GPGSA,A,3,10,13,15,18,20,21,24,27,29,32,138,,1.7,0.8,1.3*02
2017-12-29 10:46:45 1514562405.370354: $GPZDA,154646.00,29,12,2017,00,00*6E
2017-12-29 10:46:45 1514562405.370526: $GPGGA,154646,3946.9598,N,08404.9819,W,2,11,0.80,304.53,M,-33.324,M,,*72
2017-12-29 10:46:45 1514562405.370597: $GPRMC,154646,A,3946.9598,N,08404.9819,W,0.0000,0.000,291217,,*31
2017-12-29 10:46:45 1514562405.370661: $GPGSA,A,3,10,13,15,18,20,21,24,27,29,32,138,,1.7,0.8,1.3*02
