2017-11-15 19:13:45 1510791225.545082: {"class":"VERSION","release":"3.17","rev":"3.17","proto_major":3,"proto_minor":12}
2017-11-15 19:13:45 1510791225.545571: {"class":"DEVICES","devices":[{"class":"DEVICE","path":"/dev/ttyUSB0","driver":"SiRF","subtype":"9\u0006GSD4e_4.1.2-P1_RPATCH.05-F-GPS-4R-1510281 11/03/2015 307","activated":"2017-11-16T00:13:45.233Z","flags":1,"native":1,"bps":4800,"parity":"N","stopbits":1,"cycle":1.00}]}
2017-11-15 19:13:45 1510791225.545703: {"class":"WATCH","enable":true,"json":false,"nmea":true,"raw":0,"scaled":false,"timing":false,"split24":false,"pps":false}
2017-11-15 19:13:45 1510791225.682708: $GPGSV,3,1,12,32,42,100,10,14,60,081,17,22,49,282,06,26,45,175,22*76
2017-11-15 19:13:45 1510791225.682884: $GPGSV,3,2,12,31,73,009,23,16,15,190,13,03,35,306,21,01,10,258,00*70
2017-11-15 19:13:45 1510791225.682944: $GPGSV,3,3,12,29,08,078,06,25,23,043,05,23,06,297,00,138,38,213,00*4E
2017-11-15 19:13:45 1510791225.796373: $GPZDA,001344.00,16,11,2017,00,00*67
2017-11-15 19:13:45 1510791225.796535: $GPGGA,001344,3946.9615,N,08404.9481,W,1,06,1.80,307.07,M,-33.324,M,,*79
2017-11-15 19:13:45 1510791225.796595: $GPRMC,001344,A,3946.9615,N,08404.9481,W,0.2422,93.794,161117,,*05
2017-11-15 19:13:45 1510791225.796653: $GPGSA,A,3,32,14,26,31,16,3,,,,,,,3.4,1.8,2.9*01
2017-11-15 19:13:46 1510791226.421535: $GPZDA,001345.00,16,11,2017,00,00*66
2017-11-15 19:13:46 1510791226.421689: $GPGGA,001345,3946.9615,N,08404.9481,W,1,06,1.80,307.07,M,-33.324,M,,*78
2017-11-15 19:13:46 1510791226.421750: $GPRMC,001345,A,3946.9615,N,08404.9481,W,0.4179,148.778,161117,,*3C
2017-11-15 19:13:46 1510791226.421811: $GPGSA,A,3,32,14,26,31,16,3,,,,,,,3.4,1.8,2.9*01
2017-11-15 19:13:47 1510791227.329915: $GPZDA,001346.00,16,11,2017,00,00*65
2017-11-15 19:13:47 1510791227.330079: $GPGGA,001346,3946.9611,N,08404.9481,W,1,06,1.80,306.43,M,-33.324,M,,*7E
2017-11-15 19:13:47 1510791227.330142: $GPRMC,001346,A,3946.9611,N,08404.9481,W,0.7278,203.636,161117,,*3D
2017-11-15 19:13:47 1510791227.330198: $GPGSA,A,3,32,14,26,31,16,3,,,,,,,3.4,1.8,2.9*01
2017-11-15 19:13:48 1510791228.683130: $GPGSV,3,1,12,32,42,100,11,14,60,081,17,22,49,282,04,26,45,175,23*74
2017-11-15 19:13:48 1510791228.683316: $GPGSV,3,2,12,31,73,009,23,16,15,190,13,03,35,306,21,25,23,043,00*7E
2017-11-15 19:13:48 1510791228.683379: $GPGSV,3,3,12,29,08,078,04,01,10,258,00,23,06,297,00,138,38,213,00*47
2017-11-15 19:13:48 1510791228.796403: $GPZDA,001347.00,16,11,2017,00,00*64
2017-11-15 19:13:48 1510791228.796562: $GPGGA,001347,3946.9611,N,08404.9488,W,1,06,1.80,306.35,M,-33.324,M,,*77
2017-11-15 19:13:48 1510791228.796625: $GPRMC,001347,A,3946.9611,N,08404.9488,W,0.4207,219.347,161117,,*36
2017-11-15 19:13:48 1510791228.796683: $GPGSA,A,3,32,14,26,31,16,3,,,,,,,3.4,1.8,2.9*01
2017-11-15 19:13:49 1510791229.347597: $GPZDA,001348.00,16,11,2017,00,00*6B
2017-11-15 19:13:49 1510791229.347770: $GPGGA,001348,3946.9611,N,08404.9488,W,1,06,1.80,306.35,M,-33.324,M,,*78
2017-11-15 19:13:49 1510791229.347830: $GPRMC,001348,A,3946.9611,N,08404.9488,W,0.1867,0.000,161117,,*3A
2017-11-15 19:13:49 1510791229.347888: $GPGSA,A,3,32,14,26,31,16,3,,,,,,,3.4,1.8,2.9*01
2017-11-15 19:13:50 1510791230.330656: $GPZDA,001349.00,16,11,2017,00,00*6A
2017-11-15 19:13:50 1510791230.330842: $GPGGA,001349,3946.9611,N,08404.9488,W,1,06,1.80,306.35,M,-33.324,M,,*79
2017-11-15 19:13:50 1510791230.330907: $GPRMC,001349,A,3946.9611,N,08404.9488,W,0.2422,93.794,161117,,*05
2017-11-15 19:13:50 1510791230.330963: $GPGSA,A,3,32,14,26,31,16,3,,,,,,,3.4,1.8,2.9*01
2017-11-15 19:13:51 1510791231.682203: $GPGSV,3,1,12,32,42,100,12,14,60,081,18,22,49,282,04,26,45,175,23*78
2017-11-15 19:13:51 1510791231.682382: $GPGSV,3,2,12,31,73,009,23,16,15,190,04,03,35,306,20,25,23,043,00*79
2017-11-15 19:13:51 1510791231.682460: $GPGSV,3,3,12,29,08,078,04,01,10,258,00,23,06,297,00,138,38,213,00*47
2017-11-15 19:13:51 1510791231.795912: $GPZDA,001350.00,16,11,2017,00,00*62
2017-11-15 19:13:51 1510791231.796086: $GPGGA,001350,3946.9611,N,08404.9488,W,1,05,1.60,306.35,M,-33.324,M,,*7C
2017-11-15 19:13:51 1510791231.796147: $GPRMC,001350,A,3946.9611,N,08404.9488,W,0.0000,0.000,161117,,*3B
2017-11-15 19:13:51 1510791231.796264: $GPGSA,A,3,32,14,26,31,3,,,,,,,,3.4,1.6,2.9*08
2017-11-15 19:13:52 1510791232.347679: $GPZDA,001351.00,16,11,2017,00,00*63
2017-11-15 19:13:52 1510791232.347844: $GPGGA,001351,3946.9611,N,08404.9488,W,1,05,1.60,306.35,M,-33.324,M,,*7D
2017-11-15 19:13:52 1510791232.347904: $GPRMC,001351,A,3946.9611,N,08404.9488,W,0.5951,58.684,161117,,*05
2017-11-15 19:13:52 1510791232.347959: $GPGSA,A,3,32,14,26,31,3,,,,,,,,3.4,1.6,2.9*08
2017-11-15 19:13:53 1510791233.347325: $GPZDA,001352.00,16,11,2017,00,00*60
2017-11-15 19:13:53 1510791233.347488: $GPGGA,001352,3946.9611,N,08404.9481,W,1,05,1.60,306.43,M,-33.324,M,,*76
2017-11-15 19:13:53 1510791233.347548: $GPRMC,001352,A,3946.9611,N,08404.9481,W,0.5230,76.444,161117,,*01
2017-11-15 19:13:53 1510791233.347603: $GPGSA,A,3,32,14,26,31,3,,,,,,,,3.4,1.6,2.9*08
2017-11-15 19:13:54 1510791234.682229: $GPGSV,3,1,12,32,42,100,13,14,60,081,18,22,49,282,05,26,45,175,23*78
2017-11-15 19:13:54 1510791234.682454: $GPGSV,3,2,12,31,73,009,24,16,15,190,04,03,35,306,20,25,23,043,00*7E
2017-11-15 19:13:54 1510791234.682541: $GPGSV,3,3,12,29,08,078,10,01,10,258,00,23,06,297,00,138,38,213,00*42
2017-11-15 19:13:54 1510791234.795146: $GPZDA,001353.00,16,11,2017,00,00*61
2017-11-15 19:13:54 1510791234.795295: $GPGGA,001353,3946.9611,N,08404.9481,W,1,06,1.40,306.43,M,-33.324,M,,*76
2017-11-15 19:13:54 1510791234.795354: $GPRMC,001353,A,3946.9611,N,08404.9481,W,0.8414,39.347,161117,,*02
2017-11-15 19:13:54 1510791234.795409: $GPGSA,A,3,32,14,26,31,3,29,,,,,,,3.4,1.4,2.9*01
2017-11-15 19:13:55 1510791235.331026: $GPZDA,001354.00,16,11,2017,00,00*66
2017-11-15 19:13:55 1510791235.331195: $GPGGA,001354,3946.9618,N,08404.9480,W,1,06,1.60,306.30,M,-33.324,M,,*7F
2017-11-15 19:13:55 1510791235.331258: $GPRMC,001354,A,3946.9618,N,08404.9480,W,1.2361,14.852,161117,,*03
2017-11-15 19:13:55 1510791235.331313: $GPGSA,A,3,32,14,26,31,3,29,,,,,,,3.4,1.6,2.9*03
