2017-11-15 18:58:28 1510790308.512516: {"class":"VERSION","release":"3.17","rev":"3.17","proto_major":3,"proto_minor":12}
2017-11-15 18:58:28 1510790308.513013: {"class":"DEVICES","devices":[{"class":"DEVICE","path":"/dev/ttyUSB0","driver":"SiRF","subtype":"9\u0006GSD4e_4.1.2-P1_RPATCH.05-F-GPS-4R-1510281 11/03/2015 307","activated":"2017-11-15T23:58:28.487Z","flags":1,"native":1,"bps":4800,"parity":"N","stopbits":1,"cycle":1.00}]}
2017-11-15 18:58:28 1510790308.513122: {"class":"WATCH","enable":true,"json":false,"nmea":true,"raw":0,"scaled":false,"timing":false,"split24":false,"pps":false}
2017-11-15 18:58:29 1510790309.371855: $GPZDA,235828.00,15,11,2017,00,00*60
2017-11-15 18:58:29 1510790309.372049: $GPGGA,235828,3946.9574,N,08404.9563,W,1,08,1.00,308.35,M,-33.324,M,,*7C
2017-11-15 18:58:29 1510790309.372112: $GPRMC,235828,A,3946.9574,N,08404.9563,W,0.8414,219.347,151117,,*3E
2017-11-15 18:58:29 1510790309.372167: $GPGSA,A,3,14,3,32,31,26,22,29,1,,,,,3.4,1.0,2.9*34
2017-11-15 18:58:30 1510790310.707609: $GPGSV,3,1,11,25,28,046,00,14,64,069,13,03,30,310,20,32,47,094,26*75
2017-11-15 18:58:30 1510790310.707779: $GPGSV,3,2,11,31,78,345,23,26,37,177,18,22,46,291,19,10,10,159,00*73
2017-11-15 18:58:30 1510790310.707838: $GPGSV,3,3,11,29,05,084,19,16,08,190,00,01,13,264,17*41
2017-11-15 18:58:30 1510790310.821071: $GPZDA,235829.00,15,11,2017,00,00*61
2017-11-15 18:58:30 1510790310.821237: $GPGGA,235829,3946.9574,N,08404.9563,W,1,08,1.00,308.35,M,-33.324,M,,*7D
2017-11-15 18:58:30 1510790310.821298: $GPRMC,235829,A,3946.9574,N,08404.9563,W,0.5951,238.684,151117,,*37
2017-11-15 18:58:30 1510790310.821353: $GPGSA,A,3,14,3,32,31,26,22,29,1,,,,,3.4,1.0,2.9*34
2017-11-15 18:58:31 1510790311.447656: $GPZDA,235830.00,15,11,2017,00,00*69
2017-11-15 18:58:31 1510790311.447838: $GPGGA,235830,3946.9574,N,08404.9563,W,1,08,1.00,308.35,M,-33.324,M,,*75
2017-11-15 18:58:31 1510790311.447903: $GPRMC,235830,A,3946.9574,N,08404.9563,W,0.9801,214.742,151117,,*32
2017-11-15 18:58:31 1510790311.447964: $GPGSA,A,3,14,3,32,31,26,22,29,1,,,,,3.4,1.0,2.9*34
2017-11-15 18:58:32 1510790312.372162: $GPZDA,235831.00,15,11,2017,00,00*68
2017-11-15 18:58:32 1510790312.372385: $GPGGA,235831,3946.9570,N,08404.9563,W,1,08,1.00,307.71,M,-33.324,M,,*7F
2017-11-15 18:58:32 1510790312.375684: $GPRMC,235831,A,3946.9570,N,08404.9563,W,0.6846,184.197,151117,,*3F
2017-11-15 18:58:32 1510790312.375827: $GPGSA,A,3,14,3,32,31,26,22,29,1,,,,,3.4,1.0,2.9*34
2017-11-15 18:58:33 1510790313.703041: $GPGSV,3,1,11,25,28,046,00,14,64,069,14,03,30,310,20,32,47,094,26*72
2017-11-15 18:58:33 1510790313.703207: $GPGSV,3,2,11,31,78,345,23,26,37,177,18,22,46,291,18,10,10,159,00*72
2017-11-15 18:58:33 1510790313.703266: $GPGSV,3,3,11,29,05,084,20,16,08,190,00,01,13,264,16*4A
2017-11-15 18:58:33 1510790313.815059: $GPZDA,235832.00,15,11,2017,00,00*6B
2017-11-15 18:58:33 1510790313.815218: $GPGGA,235832,3946.9570,N,08404.9563,W,1,08,1.00,307.71,M,-33.324,M,,*7C
2017-11-15 18:58:33 1510790313.815279: $GPRMC,235832,A,3946.9570,N,08404.9563,W,0.8359,148.778,151117,,*30
2017-11-15 18:58:33 1510790313.815335: $GPGSA,A,3,14,3,32,31,26,22,29,1,,,,,3.4,1.0,2.9*34
2017-11-15 18:58:34 1510790314.329801: $GPZDA,235833.00,15,11,2017,00,00*6A
2017-11-15 18:58:34 1510790314.329991: $GPGGA,235833,3946.9562,N,08404.9563,W,1,08,1.00,307.83,M,-33.324,M,,*73
2017-11-15 18:58:34 1510790314.330072: $GPRMC,235833,A,3946.9562,N,08404.9563,W,0.7246,164.668,151117,,*3C
2017-11-15 18:58:34 1510790314.330129: $GPGSA,A,3,14,3,32,31,26,22,29,1,,,,,3.4,1.0,2.9*34
2017-11-15 18:58:35 1510790315.366928: $GPZDA,235834.00,15,11,2017,00,00*6D
2017-11-15 18:58:35 1510790315.367090: $GPGGA,235834,3946.9566,N,08404.9563,W,1,08,1.00,307.07,M,-33.324,M,,*7C
2017-11-15 18:58:35 1510790315.367151: $GPRMC,235834,A,3946.9566,N,08404.9563,W,0.1567,189.201,151117,,*35
2017-11-15 18:58:35 1510790315.367206: $GPGSA,A,3,14,3,32,31,26,22,29,1,,,,,3.4,1.0,2.9*34
2017-11-15 18:58:36 1510790316.664580: $GPGSV,3,1,11,25,28,046,00,14,64,069,14,03,30,310,20,32,47,094,27*73
2017-11-15 18:58:36 1510790316.664753: $GPGSV,3,2,11,31,78,345,23,26,37,177,18,22,46,291,18,10,10,159,00*72
2017-11-15 18:58:36 1510790316.664865: $GPGSV,3,3,11,29,05,084,20,16,08,190,00,01,13,264,16*4A
2017-11-15 18:58:36 1510790316.777939: $GPZDA,235835.00,15,11,2017,00,00*6C
2017-11-15 18:58:36 1510790316.778112: $GPGGA,235835,3946.9566,N,08404.9563,W,1,08,1.00,307.07,M,-33.324,M,,*7D
2017-11-15 18:58:36 1510790316.778172: $GPRMC,235835,A,3946.9566,N,08404.9563,W,0.6846,184.197,151117,,*3C
2017-11-15 18:58:36 1510790316.778229: $GPGSA,A,3,14,3,32,31,26,22,29,1,,,,,3.4,1.0,2.9*34
2017-11-15 18:58:37 1510790317.371274: $GPZDA,235836.00,15,11,2017,00,00*6F
2017-11-15 18:58:37 1510790317.371436: $GPGGA,235836,3946.9558,N,08404.9563,W,1,08,1.00,307.19,M,-33.324,M,,*7C
2017-11-15 18:58:37 1510790317.375739: $GPRMC,235836,A,3946.9558,N,08404.9563,W,1.3082,161.818,151117,,*33
2017-11-15 18:58:37 1510790317.375818: $GPGSA,A,3,14,3,32,31,26,22,29,1,,,,,3.4,1.0,2.9*34
2017-11-15 18:58:38 1510790318.329982: $GPZDA,235837.00,15,11,2017,00,00*6E
2017-11-15 18:58:38 1510790318.330152: $GPGGA,235837,3946.9558,N,08404.9563,W,1,08,1.00,307.19,M,-33.324,M,,*7D
2017-11-15 18:58:38 1510790318.330212: $GPRMC,235837,A,3946.9558,N,08404.9563,W,0.8359,148.778,151117,,*3F
2017-11-15 18:58:38 1510790318.330268: $GPGSA,A,3,14,3,32,31,26,22,29,1,,,,,3.4,1.0,2.9*34
2017-11-15 18:58:39 1510790319.665425: $GPGSV,3,1,11,25,28,046,00,14,64,069,12,03,30,310,20,32,47,094,27*75
2017-11-15 18:58:39 1510790319.665599: $GPGSV,3,2,11,31,78,345,23,26,37,177,17,22,46,291,17,10,10,159,00*72
2017-11-15 18:58:39 1510790319.665659: $GPGSV,3,3,11,29,05,084,20,16,08,190,00,01,13,264,16*4A
2017-11-15 18:58:39 1510790319.779019: $GPZDA,235838.00,15,11,2017,00,00*61
2017-11-15 18:58:39 1510790319.779182: $GPGGA,235838,3946.9561,N,08404.9563,W,1,08,1.00,306.43,M,-33.324,M,,*76
2017-11-15 18:58:39 1510790319.779241: $GPRMC,235838,A,3946.9561,N,08404.9563,W,0.0000,0.000,151117,,*38
2017-11-15 18:58:39 1510790319.779296: $GPGSA,A,3,14,3,32,31,26,22,29,1,,,,,3.4,1.0,2.9*34
2017-11-15 18:58:40 1510790320.375993: $GPZDA,235839.00,15,11,2017,00,00*60
2017-11-15 18:58:40 1510790320.376161: $GPGGA,235839,3946.9561,N,08404.9563,W,1,08,1.00,306.43,M,-33.324,M,,*77
2017-11-15 18:58:40 1510790320.376223: $GPRMC,235839,A,3946.9561,N,08404.9563,W,0.0000,0.000,151117,,*39
2017-11-15 18:58:40 1510790320.376279: $GPGSA,A,3,14,3,32,31,26,22,29,1,,,,,3.4,1.0,2.9*34
2017-11-15 18:58:41 1510790321.331511: $GPZDA,235840.00,15,11,2017,00,00*6E
2017-11-15 18:58:41 1510790321.331671: $GPGGA,235840,3946.9561,N,08404.9563,W,1,08,1.00,306.43,M,-33.324,M,,*79
2017-11-15 18:58:41 1510790321.331732: $GPRMC,235840,A,3946.9561,N,08404.9563,W,0.1567,9.201,151117,,*38
2017-11-15 18:58:41 1510790321.331788: $GPGSA,A,3,14,3,32,31,26,22,29,1,,,,,3.4,1.0,2.9*34
2017-11-15 18:58:42 1510790322.709552: $GPGSV,3,1,11,16,08,190,12,14,64,069,11,03,30,310,20,32,47,094,28*72
2017-11-15 18:58:42 1510790322.709734: $GPGSV,3,2,11,31,78,345,23,26,37,177,17,22,46,291,17,25,28,046,00*70
2017-11-15 18:58:42 1510790322.709795: $GPGSV,3,3,11,29,05,084,20,10,10,159,00,01,13,264,16*40
2017-11-15 18:58:42 1510790322.823118: $GPZDA,235841.00,15,11,2017,00,00*6F
2017-11-15 18:58:42 1510790322.823277: $GPGGA,235841,3946.9561,N,08404.9563,W,1,08,1.00,306.43,M,-33.324,M,,*78
2017-11-15 18:58:42 1510790322.823336: $GPRMC,235841,A,3946.9561,N,08404.9563,W,0.4207,39.347,151117,,*0D
2017-11-15 18:58:42 1510790322.823392: $GPGSA,A,3,14,3,32,31,26,22,29,1,,,,,3.4,1.0,2.9*34
2017-11-15 18:58:43 1510790323.374003: $GPZDA,235842.00,15,11,2017,00,00*6C
2017-11-15 18:58:43 1510790323.374147: $GPGGA,235842,3946.9565,N,08404.9562,W,1,08,1.00,305.66,M,-33.324,M,,*7A
2017-11-15 18:58:43 1510790323.374206: $GPRMC,235842,A,3946.9565,N,08404.9562,W,0.2422,93.794,151117,,*06
2017-11-15 18:58:43 1510790323.374261: $GPGSA,A,3,14,3,32,31,26,22,29,1,,,,,3.4,1.0,2.9*34
2017-11-15 18:58:44 1510790324.373654: $GPZDA,235843.00,15,11,2017,00,00*6D
2017-11-15 18:58:44 1510790324.373821: $GPGGA,235843,3946.9565,N,08404.9555,W,1,08,0.80,305.74,M,-33.324,M,,*75
2017-11-15 18:58:44 1510790324.373933: $GPRMC,235843,A,3946.9565,N,08404.9555,W,0.7267,93.794,151117,,*01
2017-11-15 18:58:44 1510790324.373991: $GPGSA,A,3,14,3,32,31,26,22,29,1,,,,,3.4,0.8,2.9*3D
2017-11-15 18:58:45 1510790325.709250: $GPGSV,3,1,11,16,08,190,13,14,64,069,11,03,30,310,20,32,47,094,28*73
2017-11-15 18:58:45 1510790325.709417: $GPGSV,3,2,11,31,78,345,23,26,37,177,17,22,46,291,16,25,28,046,00*71
2017-11-15 18:58:45 1510790325.709476: $GPGSV,3,3,11,29,05,084,21,10,10,159,00,01,13,264,16*41
2017-11-15 18:58:45 1510790325.822861: $GPZDA,235844.00,15,11,2017,00,00*6A
2017-11-15 18:58:45 1510790325.823000: $GPGGA,235844,3946.9565,N,08404.9555,W,1,09,0.80,305.74,M,-33.324,M,,*73
2017-11-15 18:58:45 1510790325.823061: $GPRMC,235844,A,3946.9565,N,08404.9555,W,1.1824,129.173,151117,,*33
2017-11-15 18:58:45 1510790325.823116: $GPGSA,A,3,16,14,3,32,31,26,22,29,1,,,,3.4,0.8,2.9*3A
2017-11-15 18:58:46 1510790326.448247: $GPZDA,235845.00,15,11,2017,00,00*6B
2017-11-15 18:58:46 1510790326.448406: $GPGGA,235845,3946.9557,N,08404.9549,W,1,09,0.80,305.95,M,-33.324,M,,*71
2017-11-15 18:58:46 1510790326.448467: $GPRMC,235845,A,3946.9557,N,08404.9549,W,1.1824,129.173,151117,,*3E
2017-11-15 18:58:46 1510790326.448523: $GPGSA,A,3,16,14,3,32,31,26,22,29,1,,,,3.4,0.8,2.9*3A
2017-11-15 18:58:47 1510790327.330340: $GPZDA,235846.00,15,11,2017,00,00*68
2017-11-15 18:58:47 1510790327.330497: $GPGGA,235846,3946.9557,N,08404.9549,W,1,09,1.00,305.95,M,-33.324,M,,*7B
2017-11-15 18:58:47 1510790327.330558: $GPRMC,235846,A,3946.9557,N,08404.9549,W,0.8011,119.090,151117,,*34
2017-11-15 18:58:47 1510790327.330613: $GPGSA,A,3,16,14,3,32,31,26,22,29,1,,,,3.4,1.0,2.9*33
2017-11-15 18:58:48 1510790328.665849: $GPGSV,3,1,11,16,08,190,06,14,64,069,11,03,30,310,20,32,47,094,28*77
2017-11-15 18:58:48 1510790328.666018: $GPGSV,3,2,11,31,78,345,22,26,37,177,16,22,46,291,16,25,28,046,00*71
2017-11-15 18:58:48 1510790328.666078: $GPGSV,3,3,11,29,05,084,21,10,10,159,00,01,13,264,16*41
2017-11-15 18:58:48 1510790328.779361: $GPZDA,235847.00,15,11,2017,00,00*69
2017-11-15 18:58:48 1510790328.779493: $GPGGA,235847,3946.9560,N,08404.9548,W,1,09,1.00,305.18,M,-33.324,M,,*7A
2017-11-15 18:58:48 1510790328.779553: $GPRMC,235847,A,3946.9560,N,08404.9548,W,0.8011,119.090,151117,,*30
2017-11-15 18:58:48 1510790328.779608: $GPGSA,A,3,16,14,3,32,31,26,22,29,1,,,,3.4,1.0,2.9*33
2017-11-15 18:58:49 1510790329.330318: $GPZDA,235848.00,15,11,2017,00,00*66
2017-11-15 18:58:49 1510790329.330463: $GPGGA,235848,3946.9556,N,08404.9542,W,1,09,0.80,306.02,M,-33.324,M,,*7B
2017-11-15 18:58:49 1510790329.330523: $GPRMC,235848,A,3946.9556,N,08404.9542,W,1.0002,154.331,151117,,*3A
2017-11-15 18:58:49 1510790329.330578: $GPGSA,A,3,16,14,3,32,31,26,22,29,1,,,,3.4,0.8,2.9*3A
2017-11-15 18:58:50 1510790330.330882: $GPZDA,235849.00,15,11,2017,00,00*67
2017-11-15 18:58:50 1510790330.331067: $GPGGA,235849,3946.9556,N,08404.9542,W,1,09,0.80,306.02,M,-33.324,M,,*7A
2017-11-15 18:58:50 1510790330.331132: $GPRMC,235849,A,3946.9556,N,08404.9542,W,0.9060,167.792,151117,,*3A
2017-11-15 18:58:50 1510790330.331190: $GPGSA,A,3,16,14,3,32,31,26,22,29,1,,,,3.4,0.8,2.9*3A
2017-11-15 18:58:51 1510790331.669862: $GPGSV,3,1,11,16,08,190,10,14,64,069,12,03,30,310,20,32,47,094,28*73
2017-11-15 18:58:51 1510790331.670041: $GPGSV,3,2,11,31,78,345,22,26,37,177,17,22,46,291,15,25,28,046,00*73
2017-11-15 18:58:51 1510790331.670104: $GPGSV,3,3,11,29,05,084,21,10,10,159,00,01,13,264,16*41
2017-11-15 18:58:51 1510790331.783554: $GPZDA,235850.00,15,11,2017,00,00*6F
2017-11-15 18:58:51 1510790331.783715: $GPGGA,235850,3946.9552,N,08404.9542,W,1,09,0.80,305.39,M,-33.324,M,,*7D
2017-11-15 18:58:51 1510790331.783779: $GPRMC,235850,A,3946.9552,N,08404.9542,W,1.3082,161.818,151117,,*3A
2017-11-15 18:58:51 1510790331.783837: $GPGSA,A,3,16,14,3,32,31,26,22,29,1,,,,3.4,0.8,2.9*3A
2017-11-15 18:58:52 1510790332.330677: $GPZDA,235851.00,15,11,2017,00,00*6E
2017-11-15 18:58:52 1510790332.330843: $GPGGA,235851,3946.9552,N,08404.9542,W,1,09,0.80,305.39,M,-33.324,M,,*7C
2017-11-15 18:58:52 1510790332.330906: $GPRMC,235851,A,3946.9552,N,08404.9542,W,1.4168,152.696,151117,,*31
2017-11-15 18:58:52 1510790332.331034: $GPGSA,A,3,16,14,3,32,31,26,22,29,1,,,,3.4,0.8,2.9*3A
2017-11-15 18:58:53 1510790333.330299: $GPZDA,235852.00,15,11,2017,00,00*6D
2017-11-15 18:58:53 1510790333.330461: $GPGGA,235852,3946.9545,N,08404.9543,W,1,09,0.80,305.51,M,-33.324,M,,*76
2017-11-15 18:58:53 1510790333.330522: $GPRMC,235852,A,3946.9545,N,08404.9543,W,1.4491,164.668,151117,,*32
2017-11-15 18:58:53 1510790333.330577: $GPGSA,A,3,16,14,3,32,31,26,22,29,1,,,,3.4,0.8,2.9*3A
2017-11-15 18:58:54 1510790334.665728: $GPGSV,3,1,11,16,08,190,10,14,64,069,13,03,30,310,20,32,47,094,28*72
2017-11-15 18:58:54 1510790334.665915: $GPGSV,3,2,11,31,78,345,21,26,37,177,17,22,46,291,14,25,28,046,00*71
2017-11-15 18:58:54 1510790334.665976: $GPGSV,3,3,11,29,05,084,21,10,10,159,00,01,13,264,16*41
2017-11-15 18:58:54 1510790334.779054: $GPZDA,235853.00,15,11,2017,00,00*6C
2017-11-15 18:58:54 1510790334.779217: $GPGGA,235853,3946.9544,N,08404.9536,W,1,09,0.80,305.59,M,-33.324,M,,*7C
2017-11-15 18:58:54 1510790334.779278: $GPRMC,235853,A,3946.9544,N,08404.9536,W,1.7180,158.671,151117,,*31
2017-11-15 18:58:54 1510790334.779334: $GPGSA,A,3,16,14,3,32,31,26,22,29,1,,,,3.4,0.8,2.9*3A
2017-11-15 18:58:55 1510790335.331616: $GPZDA,235854.00,15,11,2017,00,00*6B
2017-11-15 18:58:55 1510790335.331786: $GPGGA,235854,3946.9537,N,08404.9536,W,1,09,0.80,305.71,M,-33.324,M,,*75
2017-11-15 18:58:55 1510790335.331846: $GPRMC,235854,A,3946.9537,N,08404.9536,W,1.7180,158.671,151117,,*32
2017-11-15 18:58:55 1510790335.331901: $GPGSA,A,3,16,14,3,32,31,26,22,29,1,,,,3.4,0.8,2.9*3A
2017-11-15 18:58:56 1510790336.330381: $GPZDA,235855.00,15,11,2017,00,00*6A
2017-11-15 18:58:56 1510790336.330544: $GPGGA,235855,3946.9532,N,08404.9536,W,1,09,0.80,305.07,M,-33.324,M,,*70
2017-11-15 18:58:56 1510790336.330604: $GPRMC,235855,A,3946.9532,N,08404.9536,W,1.6300,166.404,151117,,*30
2017-11-15 18:58:56 1510790336.330659: $GPGSA,A,3,16,14,3,32,31,26,22,29,1,,,,3.4,0.8,2.9*3A
2017-11-15 18:58:57 1510790337.666123: $GPGSV,3,1,11,16,08,190,10,14,64,069,13,03,30,310,20,32,47,094,28*72
2017-11-15 18:58:57 1510790337.666295: $GPGSV,3,2,11,31,78,345,21,26,37,177,17,22,46,291,10,25,28,046,00*75
2017-11-15 18:58:57 1510790337.666354: $GPGSV,3,3,11,29,05,084,22,10,10,159,00,01,13,264,16*42
2017-11-15 18:58:57 1510790337.778202: $GPZDA,235856.00,15,11,2017,00,00*69
2017-11-15 18:58:57 1510790337.778359: $GPGGA,235856,3946.9532,N,08404.9536,W,1,09,0.80,305.07,M,-33.324,M,,*73
2017-11-15 18:58:57 1510790337.778419: $GPRMC,235856,A,3946.9532,N,08404.9536,W,1.3082,161.818,151117,,*39
2017-11-15 18:58:57 1510790337.778474: $GPGSA,A,3,16,14,3,32,31,26,22,29,1,,,,3.4,0.8,2.9*3A
2017-11-15 18:58:58 1510790338.329091: $GPZDA,235857.00,15,11,2017,00,00*68
2017-11-15 18:58:58 1510790338.329275: $GPGGA,235857,3946.9528,N,08404.9529,W,1,09,0.80,304.51,M,-33.324,M,,*75
2017-11-15 18:58:58 1510790338.329336: $GPRMC,235857,A,3946.9528,N,08404.9529,W,1.4868,164.064,151117,,*30
2017-11-15 18:58:58 1510790338.329391: $GPGSA,A,3,16,14,3,32,31,26,22,29,1,,,,3.4,0.8,2.9*3A
