2018-01-11 19:41:34 1515717694.084666: {"class":"VERSION","release":"3.16","rev":"3.16-4","proto_major":3,"proto_minor":11}
2018-01-11 19:41:34 1515717694.085007: {"class":"DEVICES","devices":[{"class":"DEVICE","path":"/dev/ttyUSB0","driver":"SiRF","subtype":"9\u0006GSD4e_4.1.2-P1_RPATCH.05-F-GPS-4R-1510281 11/03/2015 307","activated":"2018-01-12T00:41:33.611Z","flags":1,"native":1,"bps":4800,"parity":"N","stopbits":1,"cycle":1.00}]}
2018-01-11 19:41:34 1515717694.085120: {"class":"WATCH","enable":true,"json":false,"nmea":true,"raw":0,"scaled":false,"timing":false,"split24":false,"pps":false}
2018-01-11 19:41:34 1515717694.409350: $GPZDA,004135.00,12,01,2018,00,00*6C
2018-01-11 19:41:34 1515717694.409518: $GPGGA,004135,3946.9556,N,08404.9816,W,2,10,0.80,304.59,M,-33.324,M,,*73
2018-01-11 19:41:34 1515717694.409586: $GPRMC,004135,A,3946.9556,N,08404.9816,W,0.0000,0.000,120118,,*3E
2018-01-11 19:41:34 1515717694.409647: $GPGSA,A,3,7,8,9,16,23,27,30,28,11,138,,,4.0,0.8,3.5*3E
2018-01-11 19:41:35 1515717695.736134: $GPGSV,3,1,12,07,43,309,39,08,62,159,46,09,55,249,43,16,33,052,49*77
2018-01-11 19:41:35 1515717695.736288: $GPGSV,3,2,12,23,43,195,47,27,57,069,50,30,18,301,27,28,05,249,23*72
2018-01-11 19:41:35 1515717695.736354: $GPGSV,3,3,12,26,08,064,18,11,09,172,31,21,01,033,00,138,38,213,45*40
2018-01-11 19:41:35 1515717695.848289: $GPZDA,004136.00,12,01,2018,00,00*6F
2018-01-11 19:41:35 1515717695.848403: $GPGGA,004136,3946.9556,N,08404.9816,W,2,11,0.80,304.59,M,-33.324,M,,*71
2018-01-11 19:41:35 1515717695.848466: $GPRMC,004136,A,3946.9556,N,08404.9816,W,0.0000,0.000,120118,,*3D
2018-01-11 19:41:35 1515717695.848526: $GPGSA,A,3,7,8,9,16,23,27,30,28,26,11,138,,4.0,0.8,3.5*3A
2018-01-11 19:41:36 1515717696.401765: $GPZDA,004137.00,12,01,2018,00,00*6E
2018-01-11 19:41:36 1515717696.401934: $GPGGA,004137,3946.9556,N,08404.9816,W,2,11,0.80,304.59,M,-33.324,M,,*70
2018-01-11 19:41:36 1515717696.402002: $GPRMC,004137,A,3946.9556,N,08404.9816,W,0.0000,0.000,120118,,*3C
2018-01-11 19:41:36 1515717696.402063: $GPGSA,A,3,7,8,9,16,23,27,30,28,26,11,138,,4.0,0.8,3.5*3A
2018-01-11 19:41:37 1515717697.401368: $GPZDA,004138.00,12,01,2018,00,00*61
2018-01-11 19:41:37 1515717697.401532: $GPGGA,004138,3946.9556,N,08404.9816,W,2,11,0.80,304.59,M,-33.324,M,,*7F
2018-01-11 19:41:37 1515717697.401598: $GPRMC,004138,A,3946.9556,N,08404.9816,W,0.0000,0.000,120118,,*33
2018-01-11 19:41:37 1515717697.401659: $GPGSA,A,3,7,8,9,16,23,27,30,28,26,11,138,,4.0,0.8,3.5*3A
2018-01-11 19:41:38 1515717698.735239: $GPGSV,3,1,12,07,43,309,38,08,62,159,46,09,55,249,43,16,33,052,48*77
2018-01-11 19:41:38 1515717698.735408: $GPGSV,3,2,12,23,43,195,46,27,57,069,50,30,18,301,25,28,05,249,22*70
2018-01-11 19:41:38 1515717698.735474: $GPGSV,3,3,12,26,08,064,00,11,09,172,31,21,01,033,00,138,38,213,44*48
2018-01-11 19:41:38 1515717698.848640: $GPZDA,004139.00,12,01,2018,00,00*60
2018-01-11 19:41:38 1515717698.848758: $GPGGA,004139,3946.9560,N,08404.9816,W,2,10,0.80,305.23,M,-33.324,M,,*76
2018-01-11 19:41:38 1515717698.848821: $GPRMC,004139,A,3946.9560,N,08404.9816,W,0.0000,0.000,120118,,*37
2018-01-11 19:41:38 1515717698.848881: $GPGSA,A,3,7,8,9,16,23,27,30,28,11,138,,,4.0,0.8,3.5*3E
2018-01-11 19:41:39 1515717699.399844: $GPZDA,004140.00,12,01,2018,00,00*6E
2018-01-11 19:41:39 1515717699.400006: $GPGGA,004140,3946.9560,N,08404.9816,W,2,10,0.80,305.23,M,-33.324,M,,*78
2018-01-11 19:41:39 1515717699.400072: $GPRMC,004140,A,3946.9560,N,08404.9816,W,0.0000,0.000,120118,,*39
2018-01-11 19:41:39 1515717699.400133: $GPGSA,A,3,7,8,9,16,23,27,30,28,11,138,,,4.0,0.8,3.5*3E
2018-01-11 19:41:40 1515717700.399478: $GPZDA,004141.00,12,01,2018,00,00*6F
2018-01-11 19:41:40 1515717700.399633: $GPGGA,004141,3946.9560,N,08404.9816,W,2,10,0.80,305.23,M,-33.324,M,,*79
2018-01-11 19:41:40 1515717700.399699: $GPRMC,004141,A,3946.9560,N,08404.9816,W,0.0000,0.000,120118,,*38
2018-01-11 19:41:40 1515717700.399759: $GPGSA,A,3,7,8,9,16,23,27,30,28,11,138,,,4.0,0.8,3.5*3E
2018-01-11 19:41:41 1515717701.752273: $GPGSV,3,1,12,07,43,309,38,08,62,159,46,09,55,249,42,16,33,052,48*76
2018-01-11 19:41:41 1515717701.752481: $GPGSV,3,2,12,23,43,195,46,27,57,069,50,30,18,301,25,28,05,249,22*70
2018-01-11 19:41:41 1515717701.752548: $GPGSV,3,3,12,26,08,064,00,11,09,172,32,21,01,033,00,138,38,213,44*4B
2018-01-11 19:41:41 1515717701.865885: $GPZDA,004142.00,12,01,2018,00,00*6C
2018-01-11 19:41:41 1515717701.869019: $GPGGA,004142,3946.9560,N,08404.9816,W,2,10,0.80,305.23,M,-33.324,M,,*7A
2018-01-11 19:41:41 1515717701.869209: $GPRMC,004142,A,3946.9560,N,08404.9816,W,0.0000,0.000,120118,,*3B
2018-01-11 19:41:41 1515717701.869272: $GPGSA,A,3,7,8,9,16,23,27,30,28,11,138,,,4.0,0.8,3.5*3E
