2017-12-01 14:01:49 1512154909.036693: {"class":"VERSION","release":"3.16","rev":"3.16-4","proto_major":3,"proto_minor":11}
2017-12-01 14:01:49 1512154909.037109: {"class":"DEVICES","devices":[{"class":"DEVICE","path":"/dev/ttyUSB0","driver":"SiRF","subtype":"9\u0006GSD4e_4.1.2-P1_RPATCH.05-F-GPS-4R-1510281 11/03/2015 307","activated":"2017-12-01T19:01:48.728Z","flags":1,"native":1,"bps":4800,"parity":"N","stopbits":1,"cycle":1.00}]}
2017-12-01 14:01:49 1512154909.037235: {"class":"WATCH","enable":true,"json":false,"nmea":true,"raw":0,"scaled":false,"timing":false,"split24":false,"pps":false}
2017-12-01 14:01:49 1512154909.748705: $GPGSV,3,1,12,08,08,303,36,10,60,319,49,14,21,246,39,15,18,061,39*70
2017-12-01 14:01:49 1512154909.748893: $GPGSV,3,2,12,18,76,063,42,20,16,112,42,21,39,180,44,24,50,070,48*79
2017-12-01 14:01:49 1512154909.748960: $GPGSV,3,3,12,27,11,268,42,32,39,256,44,12,03,114,19,138,38,213,47*41
2017-12-01 14:01:49 1512154909.862525: $GPZDA,190150.00,01,12,2017,00,00*6C
2017-12-01 14:01:49 1512154909.862698: $GPGGA,190150,3946.9557,N,08404.9830,W,2,12,0.80,305.83,M,-33.324,M,,*7D
2017-12-01 14:01:49 1512154909.862766: $GPRMC,190150,A,3946.9557,N,08404.9830,W,0.0000,0.000,011217,,*3B
2017-12-01 14:01:49 1512154909.862827: $GPGSA,A,3,8,10,14,15,18,20,21,24,27,32,12,138,2.0,0.8,1.5*37
2017-12-01 14:01:50 1512154910.414552: $GPZDA,190151.00,01,12,2017,00,00*6D
2017-12-01 14:01:50 1512154910.414732: $GPGGA,190151,3946.9557,N,08404.9830,W,2,12,0.80,305.83,M,-33.324,M,,*7C
2017-12-01 14:01:50 1512154910.414800: $GPRMC,190151,A,3946.9557,N,08404.9830,W,0.0000,0.000,011217,,*3A
2017-12-01 14:01:50 1512154910.414864: $GPGSA,A,3,8,10,14,15,18,20,21,24,27,32,12,138,2.0,0.8,1.5*37
2017-12-01 14:01:51 1512154911.414218: $GPZDA,190152.00,01,12,2017,00,00*6E
2017-12-01 14:01:51 1512154911.414388: $GPGGA,190152,3946.9557,N,08404.9823,W,2,12,0.80,305.91,M,-33.324,M,,*7E
2017-12-01 14:01:51 1512154911.414453: $GPRMC,190152,A,3946.9557,N,08404.9823,W,0.0000,0.000,011217,,*3B
2017-12-01 14:01:51 1512154911.414516: $GPGSA,A,3,8,10,14,15,18,20,21,24,27,32,12,138,2.0,0.8,1.5*37
2017-12-01 14:01:52 1512154912.748385: $GPGSV,3,1,12,08,08,303,37,10,60,319,49,14,21,246,39,15,18,061,39*71
2017-12-01 14:01:52 1512154912.748566: $GPGSV,3,2,12,18,76,063,42,20,16,112,42,21,39,180,44,24,50,070,48*79
2017-12-01 14:01:52 1512154912.748634: $GPGSV,3,3,12,27,11,268,42,32,39,256,44,12,03,114,20,138,38,213,46*4A
2017-12-01 14:01:52 1512154912.862057: $GPZDA,190153.00,01,12,2017,00,00*6F
2017-12-01 14:01:52 1512154912.862207: $GPGGA,190153,3946.9557,N,08404.9823,W,2,12,0.80,305.91,M,-33.324,M,,*7F
2017-12-01 14:01:52 1512154912.862273: $GPRMC,190153,A,3946.9557,N,08404.9823,W,0.0000,0.000,011217,,*3A
2017-12-01 14:01:52 1512154912.862335: $GPGSA,A,3,8,10,14,15,18,20,21,24,27,32,12,138,2.0,0.8,1.5*37
2017-12-01 14:01:53 1512154913.412863: $GPZDA,190154.00,01,12,2017,00,00*68
2017-12-01 14:01:53 1512154913.413041: $GPGGA,190154,3946.9553,N,08404.9824,W,2,12,0.80,306.68,M,-33.324,M,,*7E
2017-12-01 14:01:53 1512154913.413113: $GPRMC,190154,A,3946.9553,N,08404.9824,W,0.0000,0.000,011217,,*3E
2017-12-01 14:01:53 1512154913.413174: $GPGSA,A,3,8,10,14,15,18,20,21,24,27,32,12,138,2.0,0.8,1.5*37
2017-12-01 14:01:54 1512154914.415687: $GPZDA,190155.00,01,12,2017,00,00*69
2017-12-01 14:01:54 1512154914.415862: $GPGGA,190155,3946.9553,N,08404.9824,W,2,12,0.80,306.68,M,-33.324,M,,*7F
2017-12-01 14:01:54 1512154914.415929: $GPRMC,190155,A,3946.9553,N,08404.9824,W,0.0000,0.000,011217,,*3F
2017-12-01 14:01:54 1512154914.415994: $GPGSA,A,3,8,10,14,15,18,20,21,24,27,32,12,138,2.0,0.8,1.5*37
2017-12-01 14:01:55 1512154915.749931: $GPGSV,3,1,12,08,08,303,37,10,60,319,49,14,21,246,38,15,18,061,39*70
2017-12-01 14:01:55 1512154915.750140: $GPGSV,3,2,12,18,76,063,42,20,16,112,42,21,39,180,44,24,50,070,48*79
2017-12-01 14:01:55 1512154915.750208: $GPGSV,3,3,12,27,11,268,42,32,39,256,44,12,03,114,21,138,38,213,47*4A
2017-12-01 14:01:55 1512154915.864722: $GPZDA,190156.00,01,12,2017,00,00*6A
2017-12-01 14:01:55 1512154915.864896: $GPGGA,190156,3946.9553,N,08404.9824,W,2,12,0.80,306.68,M,-33.324,M,,*7C
2017-12-01 14:01:55 1512154915.865017: $GPRMC,190156,A,3946.9553,N,08404.9824,W,0.0000,0.000,011217,,*3C
2017-12-01 14:01:55 1512154915.865088: $GPGSA,A,3,8,10,14,15,18,20,21,24,27,32,12,138,2.0,0.8,1.5*37
2017-12-01 14:01:56 1512154916.410539: $GPZDA,190157.00,01,12,2017,00,00*6B
2017-12-01 14:01:56 1512154916.410737: $GPGGA,190157,3946.9553,N,08404.9824,W,2,12,0.80,306.68,M,-33.324,M,,*7D
2017-12-01 14:01:56 1512154916.410805: $GPRMC,190157,A,3946.9553,N,08404.9824,W,0.0000,0.000,011217,,*3D
2017-12-01 14:01:56 1512154916.410866: $GPGSA,A,3,8,10,14,15,18,20,21,24,27,32,12,138,2.0,0.8,1.5*37
2017-12-01 14:01:57 1512154917.414038: $GPZDA,190158.00,01,12,2017,00,00*64
2017-12-01 14:01:57 1512154917.414344: $GPGGA,190158,3946.9553,N,08404.9824,W,2,12,0.80,306.68,M,-33.324,M,,*72
2017-12-01 14:01:57 1512154917.414468: $GPRMC,190158,A,3946.9553,N,08404.9824,W,0.0000,0.000,011217,,*32
2017-12-01 14:01:57 1512154917.414572: $GPGSA,A,3,8,10,14,15,18,20,21,24,27,32,12,138,2.0,0.8,1.5*37
2017-12-01 14:01:58 1512154918.749550: $GPGSV,3,1,12,08,08,303,37,10,60,319,49,14,21,246,38,15,18,061,39*70
2017-12-01 14:01:58 1512154918.749729: $GPGSV,3,2,12,18,76,063,42,20,16,112,42,21,39,180,44,24,50,070,49*78
2017-12-01 14:01:58 1512154918.749816: $GPGSV,3,3,12,27,11,268,42,32,39,256,44,12,03,114,21,138,38,213,47*4A
2017-12-01 14:01:58 1512154918.862980: $GPZDA,190159.00,01,12,2017,00,00*65
2017-12-01 14:01:58 1512154918.863175: $GPGGA,190159,3946.9553,N,08404.9824,W,2,12,0.80,306.68,M,-33.324,M,,*73
2017-12-01 14:01:58 1512154918.863242: $GPRMC,190159,A,3946.9553,N,08404.9824,W,0.0000,0.000,011217,,*33
2017-12-01 14:01:58 1512154918.863303: $GPGSA,A,3,8,10,14,15,18,20,21,24,27,32,12,138,2.0,0.8,1.5*37
2017-12-01 14:01:59 1512154919.488324: $GPZDA,190200.00,01,12,2017,00,00*6A
2017-12-01 14:01:59 1512154919.488485: $GPGGA,190200,3946.9553,N,08404.9824,W,2,12,0.80,306.68,M,-33.324,M,,*7C
2017-12-01 14:01:59 1512154919.488551: $GPRMC,190200,A,3946.9553,N,08404.9824,W,0.0000,0.000,011217,,*3C
2017-12-01 14:01:59 1512154919.488612: $GPGSA,A,3,8,10,14,15,18,20,21,24,27,32,12,138,2.0,0.8,1.5*37
2017-12-01 14:02:00 1512154920.929943: $GPZDA,190201.00,01,12,2017,00,00*6B
2017-12-01 14:02:00 1512154920.930171: $GPGGA,190201,3946.9557,N,08404.9830,W,2,12,0.80,305.83,M,-33.324,M,,*7A
2017-12-01 14:02:00 1512154920.930262: $GPRMC,190201,A,3946.9557,N,08404.9830,W,0.0000,0.000,011217,,*3C
2017-12-01 14:02:00 1512154920.930325: $GPGSA,A,3,8,10,14,15,18,20,21,24,27,32,12,138,2.0,0.8,1.5*37
2017-12-01 14:02:01 1512154921.749397: $GPGSV,3,1,12,08,08,303,38,10,61,321,49,14,22,246,38,15,18,061,39*76
2017-12-01 14:02:01 1512154921.749578: $GPGSV,3,2,12,18,76,064,43,20,16,112,42,21,39,180,44,24,50,070,49*7E
2017-12-01 14:02:01 1512154921.749644: $GPGSV,3,3,12,27,11,268,43,32,39,256,44,12,03,114,21,138,38,213,47*4B
2017-12-01 14:02:01 1512154921.862799: $GPZDA,190202.00,01,12,2017,00,00*68
2017-12-01 14:02:01 1512154921.862988: $GPGGA,190202,3946.9557,N,08404.9830,W,2,12,0.80,305.83,M,-33.324,M,,*79
2017-12-01 14:02:01 1512154921.863082: $GPRMC,190202,A,3946.9557,N,08404.9830,W,0.0000,0.000,011217,,*3F
2017-12-01 14:02:01 1512154921.863145: $GPGSA,A,3,8,10,14,15,18,20,21,24,27,32,12,138,2.0,0.8,1.5*37
2017-12-01 14:02:02 1512154922.412537: $GPZDA,190203.00,01,12,2017,00,00*69
2017-12-01 14:02:02 1512154922.412711: $GPGGA,190203,3946.9557,N,08404.9830,W,2,12,0.80,305.83,M,-33.324,M,,*78
2017-12-01 14:02:02 1512154922.412777: $GPRMC,190203,A,3946.9557,N,08404.9830,W,0.0000,0.000,011217,,*3E
2017-12-01 14:02:02 1512154922.412839: $GPGSA,A,3,8,10,14,15,18,20,21,24,27,32,12,138,2.0,0.8,1.5*37
2017-12-01 14:02:03 1512154923.418382: $GPZDA,190204.00,01,12,2017,00,00*6E
2017-12-01 14:02:03 1512154923.418554: $GPGGA,190204,3946.9557,N,08404.9830,W,2,12,0.80,305.83,M,-33.324,M,,*7F
2017-12-01 14:02:03 1512154923.418620: $GPRMC,190204,A,3946.9557,N,08404.9830,W,0.0000,0.000,011217,,*39
2017-12-01 14:02:03 1512154923.418682: $GPGSA,A,3,8,10,14,15,18,20,21,24,27,32,12,138,2.0,0.8,1.5*37
