2017-12-01 12:21:41 1512148901.374140: {"class":"VERSION","release":"3.16","rev":"3.16-4","proto_major":3,"proto_minor":11}
2017-12-01 12:21:41 1512148901.374536: {"class":"DEVICES","devices":[{"class":"DEVICE","path":"/dev/ttyUSB0","driver":"SiRF","subtype":"9\u0006GSD4e_4.1.2-P1_RPATCH.05-F-GPS-4R-1510281 11/03/2015 307","activated":"2017-12-01T17:21:41.267Z","flags":1,"native":1,"bps":4800,"parity":"N","stopbits":1,"cycle":1.00}]}
2017-12-01 12:21:41 1512148901.374676: {"class":"WATCH","enable":true,"json":false,"nmea":true,"raw":0,"scaled":false,"timing":false,"split24":false,"pps":false}
2017-12-01 12:21:41 1512148901.716832: $GPGSV,3,1,12,10,25,285,40,13,27,045,43,15,59,051,46,18,56,303,46*72
2017-12-01 12:21:41 1512148901.717014: $GPGSV,3,2,12,20,50,073,46,21,79,258,42,24,35,136,47,05,02,088,00*7E
2017-12-01 12:21:41 1512148901.717080: $GPGSV,3,3,12,27,17,312,38,29,08,189,22,32,02,226,20,138,38,213,46*45
2017-12-01 12:21:41 1512148901.829219: $GPZDA,172142.00,01,12,2017,00,00*63
2017-12-01 12:21:41 1512148901.829370: $GPGGA,172142,3946.9582,N,08404.9829,W,2,11,0.80,294.02,M,-33.324,M,,*71
2017-12-01 12:21:41 1512148901.829436: $GPRMC,172142,A,3946.9582,N,08404.9829,W,0.0000,0.000,011217,,*34
2017-12-01 12:21:41 1512148901.829496: $GPGSA,A,2,10,13,15,18,20,21,24,27,29,32,138,,2.0,0.8,1.5*01
2017-12-01 12:21:42 1512148902.383951: $GPZDA,172143.00,01,12,2017,00,00*62
2017-12-01 12:21:42 1512148902.384137: $GPGGA,172143,3946.9582,N,08404.9829,W,2,11,0.80,294.02,M,-33.324,M,,*70
2017-12-01 12:21:42 1512148902.384204: $GPRMC,172143,A,3946.9582,N,08404.9829,W,0.0000,0.000,011217,,*35
2017-12-01 12:21:42 1512148902.384266: $GPGSA,A,2,10,13,15,18,20,21,24,27,29,32,138,,2.0,0.8,1.5*01
2017-12-01 12:21:43 1512148903.381491: $GPZDA,172144.00,01,12,2017,00,00*65
2017-12-01 12:21:43 1512148903.381670: $GPGGA,172144,3946.9582,N,08404.9829,W,2,11,0.80,294.02,M,-33.324,M,,*77
2017-12-01 12:21:43 1512148903.381737: $GPRMC,172144,A,3946.9582,N,08404.9829,W,0.0000,0.000,011217,,*32
2017-12-01 12:21:43 1512148903.381798: $GPGSA,A,2,10,13,15,18,20,21,24,27,29,32,138,,2.0,0.8,1.5*01
2017-12-01 12:21:44 1512148904.716071: $GPGSV,3,1,12,10,25,285,39,13,27,045,43,15,59,051,46,18,56,303,46*7C
2017-12-01 12:21:44 1512148904.716251: $GPGSV,3,2,12,20,50,073,46,21,79,258,42,24,35,136,47,05,02,088,00*7E
2017-12-01 12:21:44 1512148904.716317: $GPGSV,3,3,12,27,17,312,39,29,08,189,22,32,02,226,21,138,38,213,46*45
2017-12-01 12:21:44 1512148904.828191: $GPZDA,172145.00,01,12,2017,00,00*64
2017-12-01 12:21:44 1512148904.828339: $GPGGA,172145,3946.9582,N,08404.9829,W,2,11,0.80,294.02,M,-33.324,M,,*76
2017-12-01 12:21:44 1512148904.828406: $GPRMC,172145,A,3946.9582,N,08404.9829,W,0.0000,0.000,011217,,*33
2017-12-01 12:21:44 1512148904.828466: $GPGSA,A,2,10,13,15,18,20,21,24,27,29,32,138,,2.0,0.8,1.5*01
2017-12-01 12:21:45 1512148905.380990: $GPZDA,172146.00,01,12,2017,00,00*67
2017-12-01 12:21:45 1512148905.381163: $GPGGA,172146,3946.9582,N,08404.9829,W,2,11,0.80,294.02,M,-33.324,M,,*75
2017-12-01 12:21:45 1512148905.381230: $GPRMC,172146,A,3946.9582,N,08404.9829,W,0.0000,0.000,011217,,*30
2017-12-01 12:21:45 1512148905.381291: $GPGSA,A,3,10,13,15,18,20,21,24,27,29,32,138,,2.0,0.8,1.5*00
2017-12-01 12:21:46 1512148906.382602: $GPZDA,172147.00,01,12,2017,00,00*66
2017-12-01 12:21:46 1512148906.382785: $GPGGA,172147,3946.9582,N,08404.9829,W,2,11,1.20,294.02,M,-33.324,M,,*7F
2017-12-01 12:21:46 1512148906.382875: $GPRMC,172147,A,3946.9582,N,08404.9829,W,0.0000,0.000,011217,,*31
2017-12-01 12:21:46 1512148906.382941: $GPGSA,A,3,10,13,15,18,20,21,24,27,29,32,138,,2.0,1.2,1.5*0B
2017-12-01 12:21:46 1512148906.383135: $GPGBS,172147,2.67,M,3.86,M,8.82,M*34
2017-12-01 12:21:47 1512148907.720562: $GPGSV,3,1,12,10,25,285,39,13,27,045,42,15,59,051,46,18,56,303,46*7D
2017-12-01 12:21:47 1512148907.720720: $GPGSV,3,2,12,20,50,073,46,21,79,258,42,24,35,136,47,05,02,088,02*7C
2017-12-01 12:21:47 1512148907.720788: $GPGSV,3,3,12,27,17,312,39,29,08,189,07,32,02,226,22,138,38,213,45*42
2017-12-01 12:21:47 1512148907.833972: $GPZDA,172148.00,01,12,2017,00,00*69
2017-12-01 12:21:47 1512148907.834193: $GPGGA,172148,3946.9582,N,08404.9829,W,2,11,1.20,294.02,M,-33.324,M,,*70
2017-12-01 12:21:47 1512148907.834262: $GPRMC,172148,A,3946.9582,N,08404.9829,W,0.0000,0.000,011217,,*3E
2017-12-01 12:21:47 1512148907.834328: $GPGSA,A,3,10,13,15,18,20,21,24,27,29,32,138,,2.0,1.2,1.5*0B
2017-12-01 12:21:48 1512148908.459358: $GPZDA,172149.00,01,12,2017,00,00*68
2017-12-01 12:21:48 1512148908.459537: $GPGGA,172149,3946.9586,N,08404.9835,W,2,11,1.20,293.18,M,-33.324,M,,*74
2017-12-01 12:21:48 1512148908.459605: $GPRMC,172149,A,3946.9586,N,08404.9835,W,0.0000,0.000,011217,,*36
2017-12-01 12:21:48 1512148908.459667: $GPGSA,A,3,10,13,15,18,20,21,24,27,29,32,138,,2.0,1.2,1.5*0B
2017-12-01 12:21:49 1512148909.382915: $GPZDA,172150.00,01,12,2017,00,00*60
2017-12-01 12:21:49 1512148909.383084: $GPGGA,172150,3946.9586,N,08404.9835,W,2,11,1.20,293.18,M,-33.324,M,,*7C
2017-12-01 12:21:49 1512148909.383153: $GPRMC,172150,A,3946.9586,N,08404.9835,W,0.0000,0.000,011217,,*3E
2017-12-01 12:21:49 1512148909.383214: $GPGSA,A,3,10,13,15,18,20,21,24,27,29,32,138,,2.0,1.2,1.5*0B
2017-12-01 12:21:50 1512148910.715901: $GPGSV,3,1,12,10,25,285,39,13,27,045,43,15,59,051,46,18,56,303,46*7C
2017-12-01 12:21:50 1512148910.716081: $GPGSV,3,2,12,20,50,073,46,21,79,258,41,24,35,136,48,29,08,189,00*76
2017-12-01 12:21:50 1512148910.716148: $GPGSV,3,3,12,27,17,312,40,05,02,088,00,32,02,226,23,138,38,213,46*4D
2017-12-01 12:21:50 1512148910.829233: $GPZDA,172151.00,01,12,2017,00,00*61
2017-12-01 12:21:50 1512148910.829391: $GPGGA,172151,3946.9583,N,08404.9836,W,2,10,1.20,293.94,M,-33.324,M,,*7E
2017-12-01 12:21:50 1512148910.829459: $GPRMC,172151,A,3946.9583,N,08404.9836,W,0.0000,0.000,011217,,*39
2017-12-01 12:21:50 1512148910.829521: $GPGSA,A,3,10,13,15,18,20,21,24,27,32,138,,,2.0,1.2,1.5*00
2017-12-01 12:21:51 1512148911.380083: $GPZDA,172152.00,01,12,2017,00,00*62
2017-12-01 12:21:51 1512148911.380256: $GPGGA,172152,3946.9583,N,08404.9836,W,2,10,1.20,293.94,M,-33.324,M,,*7D
2017-12-01 12:21:51 1512148911.380329: $GPRMC,172152,A,3946.9583,N,08404.9836,W,0.0000,0.000,011217,,*3A
2017-12-01 12:21:51 1512148911.380394: $GPGSA,A,3,10,13,15,18,20,21,24,27,32,138,,,2.0,1.2,1.5*00
