2018-01-12 20:10:54 1515805854.510453: {"class":"VERSION","release":"3.16","rev":"3.16-4","proto_major":3,"proto_minor":11}
2018-01-12 20:10:54 1515805854.510788: {"class":"DEVICES","devices":[{"class":"DEVICE","path":"/dev/ttyUSB0","driver":"SiRF","subtype":"9\u0006GSD4e_4.1.2-P1_RPATCH.05-F-GPS-4R-1510281 11/03/2015 307","activated":"2018-01-13T01:10:54.103Z","flags":1,"native":1,"bps":4800,"parity":"N","stopbits":1,"cycle":1.00}]}
2018-01-12 20:10:54 1515805854.510902: {"class":"WATCH","enable":true,"json":false,"nmea":true,"raw":0,"scaled":false,"timing":false,"split24":false,"pps":false}
2018-01-12 20:10:55 1515805855.392368: $GPRMC,011056,V,18000.0000,N,00000.0000,W,0.0000,0.000,130118,,*18
2018-01-12 20:10:55 1515805855.392558: $GPGSA,A,1,8,9,11,23,27,7,30,16,,,,,,,,*04
2018-01-12 20:10:56 1515805856.349328: $GPZDA,011056.99,13,01,2018,00,00*6D
2018-01-12 20:10:56 1515805856.349497: $GPGGA,011056,3946.9606,N,08404.9490,W,1,08,1.60,296.44,M,-33.324,M,,*74
2018-01-12 20:10:56 1515805856.349564: $GPRMC,011056,A,3946.9606,N,08404.9490,W,2.0942,117.457,130118,,*37
2018-01-12 20:10:56 1515805856.349626: $GPGSA,A,3,8,9,11,23,27,7,30,16,,,,,4.8,1.6,4.6*0D
2018-01-12 20:10:57 1515805857.105510: $GPGSV,3,1,10,07,57,315,03,08,74,124,09,09,46,226,04,11,22,166,04*72
2018-01-12 20:10:57 1515805857.105671: $GPGSV,3,2,10,27,46,051,04,30,31,307,00,23,27,189,00,16,21,061,00*7C
2018-01-12 20:10:57 1515805857.105736: $GPGSV,3,3,10,28,15,259,00,138,38,213,00*49
2018-01-12 20:10:57 1515805857.218890: $GPZDA,011057.08,13,01,2018,00,00*64
2018-01-12 20:10:57 1515805857.219021: $GPGGA,011057,3946.9599,N,08404.9447,W,1,05,1.60,294.87,M,-33.324,M,,*7A
2018-01-12 20:10:57 1515805857.219086: $GPRMC,011057,A,3946.9599,N,08404.9447,W,1.6233,123.736,130118,,*32
2018-01-12 20:10:57 1515805857.219147: $GPGSA,A,3,7,8,9,11,27,,,,,,,,4.8,1.6,4.6*08
2018-01-12 20:10:57 1515805857.622190: $GPZDA,011057.58,13,01,2018,00,00*61
2018-01-12 20:10:57 1515805857.622354: $GPGGA,011057,3946.9591,N,08404.9447,W,1,05,1.60,293.59,M,-33.324,M,,*76
2018-01-12 20:10:57 1515805857.622418: $GPRMC,011057,A,3946.9591,N,08404.9447,W,0.7278,23.636,130118,,*05
2018-01-12 20:10:57 1515805857.622479: $GPGSA,A,3,7,8,9,11,27,,,,,,,,4.8,1.6,4.6*08
2018-01-12 20:10:57 1515805857.622534: $GPGBS,011057,14.24,M,16.36,M,105.11,M*39
2018-01-12 20:10:57 1515805857.875972: $GPZDA,011058.00,13,01,2018,00,00*63
2018-01-12 20:10:57 1515805857.876114: $GPGGA,011058,3946.9591,N,08404.9447,W,1,05,1.60,293.59,M,-33.324,M,,*79
2018-01-12 20:10:57 1515805857.876179: $GPRMC,011058,A,3946.9591,N,08404.9447,W,1.2134,329.005,130118,,*3A
2018-01-12 20:10:57 1515805857.876239: $GPGSA,A,3,7,8,9,11,27,,,,,,,,4.8,1.6,4.6*08
2018-01-12 20:10:57 1515805857.876294: $GPGBS,011058,14.24,M,16.36,M,105.11,M*36
2018-01-12 20:10:58 1515805858.640515: $GPGSV,3,1,10,07,57,315,15,08,74,124,22,09,46,226,22,11,22,166,19*74
2018-01-12 20:10:58 1515805858.640689: $GPGSV,3,2,10,27,46,051,22,23,27,189,03,28,15,259,02,30,31,307,03*79
2018-01-12 20:10:58 1515805858.640756: $GPGSV,3,3,10,16,21,061,00,138,38,213,00*4A
2018-01-12 20:10:58 1515805858.753925: $GPZDA,011059.00,13,01,2018,00,00*62
2018-01-12 20:10:58 1515805858.754058: $GPGGA,011059,3946.9596,N,08404.9454,W,1,05,1.60,294.15,M,-33.324,M,,*72
2018-01-12 20:10:58 1515805858.754123: $GPRMC,011059,A,3946.9596,N,08404.9454,W,2.2113,331.412,130118,,*33
2018-01-12 20:10:58 1515805858.754183: $GPGSA,A,3,7,8,9,11,27,,,,,,,,4.8,1.6,4.6*08
2018-01-12 20:10:59 1515805859.220233: $GPZDA,011100.00,13,01,2018,00,00*6F
2018-01-12 20:10:59 1515805859.220389: $GPGGA,011100,3946.9596,N,08404.9461,W,1,05,1.20,294.07,M,-33.324,M,,*7E
2018-01-12 20:10:59 1515805859.220455: $GPRMC,011100,A,3946.9596,N,08404.9461,W,1.8918,325.991,130118,,*31
2018-01-12 20:10:59 1515805859.220515: $GPGSA,A,3,7,8,9,11,27,,,,,,,,4.8,1.2,4.6*0C
2018-01-12 20:11:00 1515805860.220437: $GPZDA,011101.00,13,01,2018,00,00*6E
2018-01-12 20:11:00 1515805860.220607: $GPGGA,011101,3946.9604,N,08404.9468,W,1,05,1.20,293.87,M,-33.324,M,,*71
2018-01-12 20:11:00 1515805860.220675: $GPRMC,011101,A,3946.9604,N,08404.9468,W,1.4745,325.202,130118,,*3A
2018-01-12 20:11:00 1515805860.220790: $GPGSA,A,3,7,8,9,11,27,,,,,,,,4.8,1.2,4.6*0C
