2017-12-01 15:46:31 1512161191.286850: {"class":"VERSION","release":"3.16","rev":"3.16-4","proto_major":3,"proto_minor":11}
2017-12-01 15:46:31 1512161191.287250: {"class":"DEVICES","devices":[{"class":"DEVICE","path":"/dev/ttyUSB0","driver":"SiRF","subtype":"9\u0006GSD4e_4.1.2-P1_RPATCH.05-F-GPS-4R-1510281 11/03/2015 307","activated":"2017-12-01T20:46:31.274Z","flags":1,"native":1,"bps":4800,"parity":"N","stopbits":1,"cycle":1.00}]}
2017-12-01 15:46:31 1512161191.287368: {"class":"WATCH","enable":true,"json":false,"nmea":true,"raw":0,"scaled":false,"timing":false,"split24":false,"pps":false}
2017-12-01 15:46:31 1512161191.388248: $GPZDA,204632.00,01,12,2017,00,00*61
2017-12-01 15:46:31 1512161191.388418: $GPGGA,204632,3946.9587,N,08404.9836,W,2,12,0.80,295.99,M,-33.324,M,,*78
2017-12-01 15:46:31 1512161191.388483: $GPRMC,204632,A,3946.9587,N,08404.9836,W,0.0000,0.000,011217,,*3D
2017-12-01 15:46:31 1512161191.388544: $GPGSA,A,3,1,10,11,12,14,18,22,24,25,31,32,138,2.0,0.8,1.5*3B
2017-12-01 15:46:32 1512161192.738796: $GPGSV,3,1,12,01,14,318,38,10,69,132,47,11,11,301,29,12,25,072,37*7C
2017-12-01 15:46:32 1512161192.738983: $GPGSV,3,2,12,14,55,292,42,18,37,135,47,22,03,310,39,24,14,045,39*7B
2017-12-01 15:46:32 1512161192.739050: $GPGSV,3,3,12,25,30,114,42,31,35,211,50,32,68,330,48,138,38,213,46*4F
2017-12-01 15:46:32 1512161192.852290: $GPZDA,204633.00,01,12,2017,00,00*60
2017-12-01 15:46:32 1512161192.852455: $GPGGA,204633,3946.9587,N,08404.9836,W,2,12,0.80,295.99,M,-33.324,M,,*79
2017-12-01 15:46:32 1512161192.852521: $GPRMC,204633,A,3946.9587,N,08404.9836,W,0.0000,0.000,011217,,*3C
2017-12-01 15:46:32 1512161192.852581: $GPGSA,A,3,1,10,11,12,14,18,22,24,25,31,32,138,2.0,0.8,1.5*3B
2017-12-01 15:46:33 1512161193.477587: $GPZDA,204634.00,01,12,2017,00,00*67
2017-12-01 15:46:33 1512161193.477770: $GPGGA,204634,3946.9587,N,08404.9836,W,2,12,0.80,295.99,M,-33.324,M,,*7E
2017-12-01 15:46:33 1512161193.477837: $GPRMC,204634,A,3946.9587,N,08404.9836,W,0.0000,0.000,011217,,*3B
2017-12-01 15:46:33 1512161193.477898: $GPGSA,A,3,1,10,11,12,14,18,22,24,25,31,32,138,2.0,0.8,1.5*3B
2017-12-01 15:46:34 1512161194.405409: $GPZDA,204635.00,01,12,2017,00,00*66
2017-12-01 15:46:34 1512161194.405572: $GPGGA,204635,3946.9587,N,08404.9836,W,2,12,0.80,295.99,M,-33.324,M,,*7F
2017-12-01 15:46:34 1512161194.405639: $GPRMC,204635,A,3946.9587,N,08404.9836,W,0.0000,0.000,011217,,*3A
2017-12-01 15:46:34 1512161194.405700: $GPGSA,A,3,1,10,11,12,14,18,22,24,25,31,32,138,2.0,0.8,1.5*3B
2017-12-01 15:46:35 1512161195.739136: $GPGSV,3,1,12,01,14,318,38,10,69,132,47,11,11,301,24,12,25,072,37*71
2017-12-01 15:46:35 1512161195.739316: $GPGSV,3,2,12,14,55,292,42,18,37,135,46,22,03,310,39,24,14,045,39*7A
2017-12-01 15:46:35 1512161195.739382: $GPGSV,3,3,12,25,30,114,42,31,35,211,50,32,68,330,48,138,38,213,46*4F
2017-12-01 15:46:35 1512161195.852513: $GPZDA,204636.00,01,12,2017,00,00*65
2017-12-01 15:46:35 1512161195.852648: $GPGGA,204636,3946.9587,N,08404.9836,W,2,12,0.80,295.99,M,-33.324,M,,*7C
2017-12-01 15:46:35 1512161195.852713: $GPRMC,204636,A,3946.9587,N,08404.9836,W,0.0000,0.000,011217,,*39
2017-12-01 15:46:35 1512161195.852772: $GPGSA,A,3,1,10,11,12,14,18,22,24,25,31,32,138,2.0,0.8,1.5*3B
2017-12-01 15:46:36 1512161196.398375: $GPZDA,204637.00,01,12,2017,00,00*64
2017-12-01 15:46:36 1512161196.398556: $GPGGA,204637,3946.9587,N,08404.9836,W,2,12,0.80,295.99,M,-33.324,M,,*7D
2017-12-01 15:46:36 1512161196.398624: $GPRMC,204637,A,3946.9587,N,08404.9836,W,0.0000,0.000,011217,,*38
2017-12-01 15:46:36 1512161196.398684: $GPGSA,A,3,1,10,11,12,14,18,22,24,25,31,32,138,2.0,0.8,1.5*3B
2017-12-01 15:46:37 1512161197.389226: $GPZDA,204638.00,01,12,2017,00,00*6B
2017-12-01 15:46:37 1512161197.389416: $GPGGA,204638,3946.9587,N,08404.9836,W,2,12,0.80,295.99,M,-33.324,M,,*72
2017-12-01 15:46:37 1512161197.389487: $GPRMC,204638,A,3946.9587,N,08404.9836,W,0.0000,0.000,011217,,*37
2017-12-01 15:46:37 1512161197.389548: $GPGSA,A,3,1,10,11,12,14,18,22,24,25,31,32,138,2.0,0.8,1.5*3B
2017-12-01 15:46:38 1512161198.728233: $GPGSV,3,1,12,01,14,318,38,10,69,132,46,11,11,301,02,12,25,072,37*74
2017-12-01 15:46:38 1512161198.728466: $GPGSV,3,2,12,14,55,292,42,18,37,135,46,22,03,310,38,24,14,045,39*7B
2017-12-01 15:46:38 1512161198.728537: $GPGSV,3,3,12,25,30,114,41,31,35,211,50,32,68,330,48,138,38,213,46*4C
2017-12-01 15:46:38 1512161198.840471: $GPZDA,204639.00,01,12,2017,00,00*6A
2017-12-01 15:46:38 1512161198.840636: $GPGGA,204639,3946.9587,N,08404.9836,W,2,11,0.80,295.99,M,-33.324,M,,*70
2017-12-01 15:46:38 1512161198.840703: $GPRMC,204639,A,3946.9587,N,08404.9836,W,0.0000,0.000,011217,,*36
2017-12-01 15:46:38 1512161198.840763: $GPGSA,A,3,1,10,12,14,18,22,24,25,31,32,138,,2.0,0.8,1.5*3B
2017-12-01 15:46:39 1512161199.387469: $GPZDA,204640.00,01,12,2017,00,00*64
2017-12-01 15:46:39 1512161199.387654: $GPGGA,204640,3946.9587,N,08404.9836,W,2,11,0.80,295.99,M,-33.324,M,,*7E
2017-12-01 15:46:39 1512161199.387723: $GPRMC,204640,A,3946.9587,N,08404.9836,W,0.0000,0.000,011217,,*38
2017-12-01 15:46:39 1512161199.387784: $GPGSA,A,3,1,10,12,14,18,22,24,25,31,32,138,,2.0,0.8,1.5*3B
2017-12-01 15:46:40 1512161200.387361: $GPZDA,204641.00,01,12,2017,00,00*65
2017-12-01 15:46:40 1512161200.387534: $GPGGA,204641,3946.9584,N,08404.9837,W,2,11,0.80,296.75,M,-33.324,M,,*7C
2017-12-01 15:46:40 1512161200.387601: $GPRMC,204641,A,3946.9584,N,08404.9837,W,0.0000,0.000,011217,,*3B
2017-12-01 15:46:40 1512161200.387662: $GPGSA,A,3,1,10,12,14,18,22,24,25,31,32,138,,2.0,0.8,1.5*3B
2017-12-01 15:46:41 1512161201.724221: $GPGSV,3,1,12,01,14,318,38,10,69,132,46,11,11,301,15,12,25,072,38*7D
2017-12-01 15:46:41 1512161201.724408: $GPGSV,3,2,12,14,55,292,42,18,37,135,47,22,03,310,38,24,14,045,40*74
2017-12-01 15:46:41 1512161201.724473: $GPGSV,3,3,12,25,30,114,42,31,35,211,49,32,68,330,48,138,38,213,45*44
2017-12-01 15:46:41 1512161201.836470: $GPZDA,204642.00,01,12,2017,00,00*66
2017-12-01 15:46:41 1512161201.836617: $GPGGA,204642,3946.9584,N,08404.9837,W,2,12,0.80,296.75,M,-33.324,M,,*7C
2017-12-01 15:46:41 1512161201.836681: $GPRMC,204642,A,3946.9584,N,08404.9837,W,0.0000,0.000,011217,,*38
2017-12-01 15:46:41 1512161201.836741: $GPGSA,A,3,1,10,11,12,14,18,22,24,25,31,32,138,2.0,0.8,1.5*3B
2017-12-01 15:46:42 1512161202.387340: $GPZDA,204643.00,01,12,2017,00,00*67
2017-12-01 15:46:42 1512161202.387511: $GPGGA,204643,3946.9584,N,08404.9837,W,2,12,0.80,296.75,M,-33.324,M,,*7D
2017-12-01 15:46:42 1512161202.387576: $GPRMC,204643,A,3946.9584,N,08404.9837,W,0.0000,0.000,011217,,*39
2017-12-01 15:46:42 1512161202.387638: $GPGSA,A,3,1,10,11,12,14,18,22,24,25,31,32,138,2.0,0.8,1.5*3B
2017-12-01 15:46:43 1512161203.388792: $GPZDA,204644.00,01,12,2017,00,00*60
2017-12-01 15:46:43 1512161203.388969: $GPGGA,204644,3946.9584,N,08404.9837,W,2,12,0.80,296.75,M,-33.324,M,,*7A
2017-12-01 15:46:43 1512161203.389036: $GPRMC,204644,A,3946.9584,N,08404.9837,W,0.0000,0.000,011217,,*3E
2017-12-01 15:46:43 1512161203.389097: $GPGSA,A,3,1,10,11,12,14,18,22,24,25,31,32,138,2.0,0.8,1.5*3B
2017-12-01 15:46:44 1512161204.717022: $GPGSV,3,1,12,01,14,318,39,10,69,132,47,11,11,301,00,12,25,072,38*79
2017-12-01 15:46:44 1512161204.717220: $GPGSV,3,2,12,14,55,292,42,18,37,135,47,22,03,310,38,24,14,045,40*74
2017-12-01 15:46:44 1512161204.717289: $GPGSV,3,3,12,25,30,114,42,31,35,211,50,32,68,330,48,138,38,213,46*4F
2017-12-01 15:46:44 1512161204.830406: $GPZDA,204645.00,01,12,2017,00,00*61
2017-12-01 15:46:44 1512161204.830556: $GPGGA,204645,3946.9584,N,08404.9837,W,2,11,0.80,296.75,M,-33.324,M,,*78
2017-12-01 15:46:44 1512161204.830624: $GPRMC,204645,A,3946.9584,N,08404.9837,W,0.0000,0.000,011217,,*3F
2017-12-01 15:46:44 1512161204.830688: $GPGSA,A,3,1,10,12,14,18,22,24,25,31,32,138,,2.0,0.8,1.5*3B
2017-12-01 15:46:45 1512161205.387713: $GPZDA,204646.00,01,12,2017,00,00*62
2017-12-01 15:46:45 1512161205.387893: $GPGGA,204646,3946.9584,N,08404.9837,W,2,11,0.80,296.75,M,-33.324,M,,*7B
2017-12-01 15:46:45 1512161205.387962: $GPRMC,204646,A,3946.9584,N,08404.9837,W,0.0000,0.000,011217,,*3C
2017-12-01 15:46:45 1512161205.388025: $GPGSA,A,3,1,10,12,14,18,22,24,25,31,32,138,,2.0,0.8,1.5*3B
2017-12-01 15:46:46 1512161206.387059: $GPZDA,204647.00,01,12,2017,00,00*63
2017-12-01 15:46:46 1512161206.387220: $GPGGA,204647,3946.9584,N,08404.9837,W,2,11,0.80,296.75,M,-33.324,M,,*7A
2017-12-01 15:46:46 1512161206.387286: $GPRMC,204647,A,3946.9584,N,08404.9837,W,0.0000,0.000,011217,,*3D
2017-12-01 15:46:46 1512161206.387347: $GPGSA,A,3,1,10,12,14,18,22,24,25,31,32,138,,2.0,0.8,1.5*3B
2017-12-01 15:46:47 1512161207.727826: $GPGSV,3,1,12,01,14,318,40,10,69,132,47,11,11,301,04,12,25,072,38*73
2017-12-01 15:46:47 1512161207.732215: $GPGSV,3,2,12,14,55,292,42,18,37,135,47,22,03,310,38,24,14,045,40*74
2017-12-01 15:46:47 1512161207.732329: $GPGSV,3,3,12,25,30,114,42,31,35,211,50,32,68,330,48,138,38,213,47*4E
2017-12-01 15:46:47 1512161207.841205: $GPZDA,204648.00,01,12,2017,00,00*6C
2017-12-01 15:46:47 1512161207.841434: $GPGGA,204648,3946.9584,N,08404.9837,W,2,11,0.80,296.75,M,-33.324,M,,*75
2017-12-01 15:46:47 1512161207.841515: $GPRMC,204648,A,3946.9584,N,08404.9837,W,0.0000,0.000,011217,,*32
2017-12-01 15:46:47 1512161207.841579: $GPGSA,A,3,1,10,12,14,18,22,24,25,31,32,138,,2.0,0.8,1.5*3B
2017-12-01 15:46:48 1512161208.466913: $GPZDA,204649.00,01,12,2017,00,00*6D
2017-12-01 15:46:48 1512161208.467063: $GPGGA,204649,3946.9584,N,08404.9837,W,2,11,0.80,296.75,M,-33.324,M,,*74
2017-12-01 15:46:48 1512161208.467130: $GPRMC,204649,A,3946.9584,N,08404.9837,W,0.0000,0.000,011217,,*33
2017-12-01 15:46:48 1512161208.467191: $GPGSA,A,3,1,10,12,14,18,22,24,25,31,32,138,,2.0,0.8,1.5*3B
2017-12-01 15:46:49 1512161209.393701: $GPZDA,204650.00,01,12,2017,00,00*65
2017-12-01 15:46:49 1512161209.393877: $GPGGA,204650,3946.9584,N,08404.9837,W,2,11,0.80,296.75,M,-33.324,M,,*7C
2017-12-01 15:46:49 1512161209.393943: $GPRMC,204650,A,3946.9584,N,08404.9837,W,0.0000,0.000,011217,,*3B
2017-12-01 15:46:49 1512161209.394003: $GPGSA,A,3,1,10,12,14,18,22,24,25,31,32,138,,2.0,0.8,1.5*3B
2017-12-01 15:46:50 1512161210.724448: $GPGSV,3,1,12,01,14,318,40,10,69,132,47,11,11,301,23,12,25,072,38*76
2017-12-01 15:46:50 1512161210.724631: $GPGSV,3,2,12,14,55,292,42,18,37,135,47,22,03,310,38,24,14,045,41*75
2017-12-01 15:46:50 1512161210.724698: $GPGSV,3,3,12,25,30,114,42,31,35,211,49,32,68,330,48,138,38,213,46*47
2017-12-01 15:46:50 1512161210.837824: $GPZDA,204651.00,01,12,2017,00,00*64
2017-12-01 15:46:50 1512161210.837996: $GPGGA,204651,3946.9584,N,08404.9837,W,2,12,0.80,296.75,M,-33.324,M,,*7E
2017-12-01 15:46:50 1512161210.838064: $GPRMC,204651,A,3946.9584,N,08404.9837,W,0.0000,0.000,011217,,*3A
2017-12-01 15:46:50 1512161210.838125: $GPGSA,A,3,1,10,11,12,14,18,22,24,25,31,32,138,2.0,0.8,1.5*3B
