2017-11-16 17:32:51 1510871571.743322: {"class":"VERSION","release":"3.17","rev":"3.17","proto_major":3,"proto_minor":12}
2017-11-16 17:32:51 1510871571.743748: {"class":"DEVICES","devices":[{"class":"DEVICE","path":"/dev/ttyUSB0","driver":"SiRF","subtype":"9\u0006GSD4e_4.1.2-P1_RPATCH.05-F-GPS-4R-1510281 11/03/2015 307","activated":"2017-11-16T22:32:51.735Z","flags":1,"native":1,"bps":4800,"parity":"N","stopbits":1,"cycle":1.00}]}
2017-11-16 17:32:51 1510871571.743870: {"class":"WATCH","enable":true,"json":false,"nmea":true,"raw":0,"scaled":false,"timing":false,"split24":false,"pps":false}
2017-11-16 17:32:51 1510871571.848540: $GPZDA,223250.00,16,11,2017,00,00*61
2017-11-16 17:32:51 1510871571.848691: $GPGGA,223250,3946.9572,N,08404.9842,W,2,11,0.80,304.02,M,-33.324,M,,*7C
2017-11-16 17:32:51 1510871571.848750: $GPRMC,223250,A,3946.9572,N,08404.9842,W,0.0000,0.000,161117,,*34
2017-11-16 17:32:51 1510871571.848806: $GPGSA,A,3,1,10,22,12,14,18,11,25,31,32,138,,1.6,0.8,1.3*3E
2017-11-16 17:32:52 1510871572.393214: $GPZDA,223251.00,16,11,2017,00,00*60
2017-11-16 17:32:52 1510871572.393387: $GPGGA,223251,3946.9572,N,08404.9842,W,2,11,0.80,304.02,M,-33.324,M,,*7D
2017-11-16 17:32:52 1510871572.393447: $GPRMC,223251,A,3946.9572,N,08404.9842,W,0.0000,0.000,161117,,*35
2017-11-16 17:32:52 1510871572.393503: $GPGSA,A,3,1,10,22,12,14,18,11,25,31,32,138,,1.6,0.8,1.3*3E
2017-11-16 17:32:53 1510871573.421572: $GPZDA,223252.00,16,11,2017,00,00*63
2017-11-16 17:32:53 1510871573.421733: $GPGGA,223252,3946.9572,N,08404.9842,W,2,11,0.80,304.02,M,-33.324,M,,*7E
2017-11-16 17:32:53 1510871573.421794: $GPRMC,223252,A,3946.9572,N,08404.9842,W,0.0000,0.000,161117,,*36
2017-11-16 17:32:53 1510871573.421867: $GPGSA,A,3,1,10,22,12,14,18,11,25,31,32,138,,1.6,0.8,1.3*3E
2017-11-16 17:32:54 1510871574.758497: $GPGSV,3,1,12,01,21,301,28,10,48,148,49,22,18,312,40,12,22,051,50*70
2017-11-16 17:32:54 1510871574.758679: $GPGSV,3,2,12,14,66,327,47,18,19,144,40,26,01,183,00,11,08,282,37*74
2017-11-16 17:32:54 1510871574.758740: $GPGSV,3,3,12,25,39,091,48,31,55,225,48,32,69,025,49,138,38,213,44*4D
2017-11-16 17:32:54 1510871574.871777: $GPZDA,223253.00,16,11,2017,00,00*62
2017-11-16 17:32:54 1510871574.871975: $GPGGA,223253,3946.9572,N,08404.9842,W,2,11,0.80,304.02,M,-33.324,M,,*7F
2017-11-16 17:32:54 1510871574.872036: $GPRMC,223253,A,3946.9572,N,08404.9842,W,0.0000,0.000,161117,,*37
2017-11-16 17:32:54 1510871574.872093: $GPGSA,A,3,1,10,22,12,14,18,11,25,31,32,138,,1.6,0.8,1.3*3E
2017-11-16 17:32:55 1510871575.422669: $GPZDA,223254.00,16,11,2017,00,00*65
2017-11-16 17:32:55 1510871575.422871: $GPGGA,223254,3946.9572,N,08404.9842,W,2,11,0.80,304.02,M,-33.324,M,,*78
2017-11-16 17:32:55 1510871575.422934: $GPRMC,223254,A,3946.9572,N,08404.9842,W,0.0000,0.000,161117,,*30
2017-11-16 17:32:55 1510871575.422991: $GPGSA,A,3,1,10,22,12,14,18,11,25,31,32,138,,1.6,0.8,1.3*3E
2017-11-16 17:32:56 1510871576.423001: $GPZDA,223255.00,16,11,2017,00,00*64
2017-11-16 17:32:56 1510871576.423178: $GPGGA,223255,3946.9572,N,08404.9842,W,2,11,0.80,304.02,M,-33.324,M,,*79
2017-11-16 17:32:56 1510871576.423241: $GPRMC,223255,A,3946.9572,N,08404.9842,W,0.0000,0.000,161117,,*31
2017-11-16 17:32:56 1510871576.423297: $GPGSA,A,3,1,10,22,12,14,18,11,25,31,32,138,,1.6,0.8,1.3*3E
2017-11-16 17:32:57 1510871577.757545: $GPGSV,3,1,12,01,21,301,28,10,48,148,49,22,18,312,40,12,22,051,50*70
2017-11-16 17:32:57 1510871577.757703: $GPGSV,3,2,12,14,66,327,47,18,19,144,40,26,01,183,00,11,08,282,37*74
2017-11-16 17:32:57 1510871577.757763: $GPGSV,3,3,12,25,39,091,48,31,55,225,48,32,69,025,49,138,38,213,44*4D
2017-11-16 17:32:57 1510871577.871528: $GPZDA,223256.00,16,11,2017,00,00*67
2017-11-16 17:32:57 1510871577.871704: $GPGGA,223256,3946.9572,N,08404.9842,W,2,11,0.80,304.02,M,-33.324,M,,*7A
2017-11-16 17:32:57 1510871577.871765: $GPRMC,223256,A,3946.9572,N,08404.9842,W,0.0000,0.000,161117,,*32
2017-11-16 17:32:57 1510871577.871840: $GPGSA,A,3,1,10,22,12,14,18,11,25,31,32,138,,1.6,0.8,1.3*3E
2017-11-16 17:32:58 1510871578.421716: $GPZDA,223257.00,16,11,2017,00,00*66
2017-11-16 17:32:58 1510871578.421944: $GPGGA,223257,3946.9572,N,08404.9842,W,2,11,0.80,304.02,M,-33.324,M,,*7B
2017-11-16 17:32:58 1510871578.422009: $GPRMC,223257,A,3946.9572,N,08404.9842,W,0.0000,0.000,161117,,*33
2017-11-16 17:32:58 1510871578.422066: $GPGSA,A,3,1,10,22,12,14,18,11,25,31,32,138,,1.6,0.8,1.3*3E
2017-11-16 17:32:59 1510871579.422702: $GPZDA,223258.00,16,11,2017,00,00*69
2017-11-16 17:32:59 1510871579.422860: $GPGGA,223258,3946.9572,N,08404.9842,W,2,11,0.80,304.02,M,-33.324,M,,*74
2017-11-16 17:32:59 1510871579.422921: $GPRMC,223258,A,3946.9572,N,08404.9842,W,0.0000,0.000,161117,,*3C
2017-11-16 17:32:59 1510871579.422976: $GPGSA,A,3,1,10,22,12,14,18,11,25,31,32,138,,1.6,0.8,1.3*3E
2017-11-16 17:33:00 1510871580.737311: $GPGSV,3,1,12,01,21,301,14,10,48,148,49,22,18,312,40,12,22,051,50*7F
2017-11-16 17:33:00 1510871580.737494: $GPGSV,3,2,12,14,66,327,47,18,19,144,40,26,01,183,15,11,08,282,37*70
2017-11-16 17:33:00 1510871580.737577: $GPGSV,3,3,12,25,39,091,48,31,55,225,48,32,69,025,49,138,38,213,44*4D
2017-11-16 17:33:00 1510871580.850474: $GPZDA,223259.00,16,11,2017,00,00*68
2017-11-16 17:33:00 1510871580.850634: $GPGGA,223259,3946.9572,N,08404.9842,W,2,12,0.80,304.02,M,-33.324,M,,*76
2017-11-16 17:33:00 1510871580.850695: $GPRMC,223259,A,3946.9572,N,08404.9842,W,0.0000,0.000,161117,,*3D
2017-11-16 17:33:00 1510871580.850751: $GPGSA,A,3,1,10,22,12,14,18,26,11,25,31,32,138,1.6,0.8,1.3*3A
2017-11-16 17:33:01 1510871581.475939: $GPZDA,223300.00,16,11,2017,00,00*65
2017-11-16 17:33:01 1510871581.476102: $GPGGA,223300,3946.9572,N,08404.9842,W,2,12,0.80,304.02,M,-33.324,M,,*7B
2017-11-16 17:33:01 1510871581.476163: $GPRMC,223300,A,3946.9572,N,08404.9842,W,0.0000,0.000,161117,,*30
2017-11-16 17:33:01 1510871581.476219: $GPGSA,A,3,1,10,22,12,14,18,26,11,25,31,32,138,1.6,0.8,1.3*3A
