2017-12-31 18:34:57 1514763297.243199: {"class":"VERSION","release":"3.16","rev":"3.16-4","proto_major":3,"proto_minor":11}
2017-12-31 18:34:57 1514763297.243536: {"class":"DEVICES","devices":[{"class":"DEVICE","path":"/dev/ttyUSB0","driver":"SiRF","activated":"2017-12-31T23:34:57.237Z","flags":1,"native":1,"bps":4800,"parity":"N","stopbits":1,"cycle":1.00}]}
2017-12-31 18:34:57 1514763297.243634: {"class":"WATCH","enable":true,"json":false,"nmea":true,"raw":0,"scaled":false,"timing":false,"split24":false,"pps":false}
2017-12-31 18:34:57 1514763297.687251: $GPGSV,3,1,12,22,14,208,24,23,63,295,40,09,29,312,43,03,24,226,39*73
2017-12-31 18:34:57 1514763297.687422: $GPGSV,3,2,12,16,85,051,41,08,09,177,21,14,06,138,21,31,21,082,41*77
2017-12-31 18:34:57 1514763297.687487: $GPGSV,3,3,12,27,32,148,41,07,05,280,42,26,52,046,46,135,22,240,43*4D
2017-12-31 18:34:57 1514763297.800829: $GPZDA,233458.00,31,12,2017,00,00*68
2017-12-31 18:34:57 1514763297.800944: $GPGGA,233458,3946.9574,N,08404.9830,W,2,12,0.80,308.39,M,-33.324,M,,*77
2017-12-31 18:34:57 1514763297.801007: $GPRMC,233458,A,3946.9574,N,08404.9830,W,0.0000,0.000,311217,,*3E
2017-12-31 18:34:57 1514763297.801066: $GPGSA,A,3,22,23,9,3,16,8,14,31,27,7,26,135,1.7,0.8,1.3*0C
2017-12-31 18:34:58 1514763298.351750: $GPZDA,233459.00,31,12,2017,00,00*69
2017-12-31 18:34:58 1514763298.351930: $GPGGA,233459,3946.9574,N,08404.9830,W,2,12,0.80,308.39,M,-33.324,M,,*76
2017-12-31 18:34:58 1514763298.351998: $GPRMC,233459,A,3946.9574,N,08404.9830,W,0.0000,0.000,311217,,*3F
2017-12-31 18:34:58 1514763298.352058: $GPGSA,A,3,22,23,9,3,16,8,14,31,27,7,26,135,1.7,0.8,1.3*0C
2017-12-31 18:34:59 1514763299.351320: $GPZDA,233500.00,31,12,2017,00,00*64
2017-12-31 18:34:59 1514763299.351490: $GPGGA,233500,3946.9574,N,08404.9830,W,2,12,0.80,308.39,M,-33.324,M,,*7B
2017-12-31 18:34:59 1514763299.351557: $GPRMC,233500,A,3946.9574,N,08404.9830,W,0.0000,0.000,311217,,*32
2017-12-31 18:34:59 1514763299.351619: $GPGSA,A,3,22,23,9,3,16,8,14,31,27,7,26,135,1.7,0.8,1.3*0C
2017-12-31 18:35:00 1514763300.680061: $GPGSV,3,1,12,22,14,208,24,23,63,295,40,09,29,312,42,03,24,226,39*72
2017-12-31 18:35:00 1514763300.680229: $GPGSV,3,2,12,16,85,051,42,08,09,177,21,14,06,138,21,31,21,082,41*74
2017-12-31 18:35:00 1514763300.680296: $GPGSV,3,3,12,27,32,148,41,07,05,280,40,26,52,046,46,135,22,240,44*48
2017-12-31 18:35:00 1514763300.793649: $GPZDA,233501.00,31,12,2017,00,00*65
2017-12-31 18:35:00 1514763300.793773: $GPGGA,233501,3946.9574,N,08404.9830,W,2,12,0.80,308.39,M,-33.324,M,,*7A
2017-12-31 18:35:00 1514763300.793837: $GPRMC,233501,A,3946.9574,N,08404.9830,W,0.0000,0.000,311217,,*33
2017-12-31 18:35:00 1514763300.793897: $GPGSA,A,3,22,23,9,3,16,8,14,31,27,7,26,135,1.7,0.8,1.3*0C
2017-12-31 18:35:01 1514763301.352051: $GPZDA,233502.00,31,12,2017,00,00*66
2017-12-31 18:35:01 1514763301.352239: $GPGGA,233502,3946.9574,N,08404.9830,W,2,12,0.80,308.39,M,-33.324,M,,*79
2017-12-31 18:35:01 1514763301.352309: $GPRMC,233502,A,3946.9574,N,08404.9830,W,0.0000,0.000,311217,,*30
2017-12-31 18:35:01 1514763301.352372: $GPGSA,A,3,22,23,9,3,16,8,14,31,27,7,26,135,1.7,0.8,1.3*0C
2017-12-31 18:35:02 1514763302.351675: $GPZDA,233503.00,31,12,2017,00,00*67
2017-12-31 18:35:02 1514763302.351850: $GPGGA,233503,3946.9574,N,08404.9830,W,2,12,0.80,308.39,M,-33.324,M,,*78
2017-12-31 18:35:02 1514763302.351920: $GPRMC,233503,A,3946.9574,N,08404.9830,W,0.0000,0.000,311217,,*31
2017-12-31 18:35:02 1514763302.351984: $GPGSA,A,3,22,23,9,3,16,8,14,31,27,7,26,135,1.7,0.8,1.3*0C
2017-12-31 18:35:03 1514763303.723410: $GPGSV,3,1,12,22,14,208,24,23,63,295,40,09,29,312,42,03,24,226,39*72
2017-12-31 18:35:03 1514763303.723601: $GPGSV,3,2,12,16,85,051,42,08,09,177,22,14,06,138,21,31,21,082,41*77
2017-12-31 18:35:03 1514763303.723672: $GPGSV,3,3,12,27,32,148,41,07,05,280,41,26,52,046,46,135,22,240,44*49
2017-12-31 18:35:03 1514763303.837173: $GPZDA,233504.00,31,12,2017,00,00*60
2017-12-31 18:35:03 1514763303.837310: $GPGGA,233504,3946.9574,N,08404.9830,W,2,12,0.80,308.39,M,-33.324,M,,*7F
2017-12-31 18:35:03 1514763303.837376: $GPRMC,233504,A,3946.9574,N,08404.9830,W,0.0000,0.000,311217,,*36
2017-12-31 18:35:03 1514763303.837493: $GPGSA,A,3,22,23,9,3,16,8,14,31,27,7,26,135,1.7,0.8,1.3*0C
2017-12-31 18:35:04 1514763304.448911: $GPZDA,233505.00,31,12,2017,00,00*61
2017-12-31 18:35:04 1514763304.449089: $GPGGA,233505,3946.9574,N,08404.9830,W,2,12,0.80,308.39,M,-33.324,M,,*7E
2017-12-31 18:35:04 1514763304.449158: $GPRMC,233505,A,3946.9574,N,08404.9830,W,0.0000,0.000,311217,,*37
2017-12-31 18:35:04 1514763304.449219: $GPGSA,A,3,22,23,9,3,16,8,14,31,27,7,26,135,1.7,0.8,1.3*0C
2017-12-31 18:35:04 1514763304.449277: $GPGBS,233505,2.22,M,3.43,M,7.66,M*3D
2017-12-31 18:35:05 1514763305.352025: $GPZDA,233506.00,31,12,2017,00,00*62
2017-12-31 18:35:05 1514763305.352198: $GPGGA,233506,3946.9574,N,08404.9830,W,2,12,0.80,308.39,M,-33.324,M,,*7D
2017-12-31 18:35:05 1514763305.352264: $GPRMC,233506,A,3946.9574,N,08404.9830,W,0.0000,0.000,311217,,*34
2017-12-31 18:35:05 1514763305.352326: $GPGSA,A,3,22,23,9,3,16,8,14,31,27,7,26,135,1.7,0.8,1.3*0C
2017-12-31 18:35:05 1514763305.352385: $GPGBS,233506,2.22,M,3.43,M,7.66,M*3E
2017-12-31 18:35:06 1514763306.722509: $GPGSV,3,1,12,22,13,207,24,23,64,294,39,09,31,312,42,03,23,225,40*71
2017-12-31 18:35:06 1514763306.722667: $GPGSV,3,2,12,16,84,043,41,08,10,177,22,14,05,138,22,31,20,084,41*79
2017-12-31 18:35:06 1514763306.722732: $GPGSV,3,3,12,27,33,147,42,07,06,280,41,26,50,046,47,135,22,240,44*44
2017-12-31 18:35:06 1514763306.836092: $GPZDA,233507.00,31,12,2017,00,00*63
2017-12-31 18:35:06 1514763306.836208: $GPGGA,233507,3946.9574,N,08404.9830,W,2,12,0.80,308.39,M,-33.324,M,,*7C
2017-12-31 18:35:06 1514763306.836271: $GPRMC,233507,A,3946.9574,N,08404.9830,W,0.0000,0.000,311217,,*35
2017-12-31 18:35:06 1514763306.836331: $GPGSA,A,3,22,23,9,3,16,8,14,31,27,7,26,135,1.7,0.8,1.3*0C
