2017-11-15 19:44:36 1510793076.213870: {"class":"VERSION","release":"3.17","rev":"3.17","proto_major":3,"proto_minor":12}
2017-11-15 19:44:36 1510793076.214346: {"class":"DEVICES","devices":[{"class":"DEVICE","path":"/dev/ttyUSB0","driver":"SiRF","subtype":"9\u0006GSD4e_4.1.2-P1_RPATCH.05-F-GPS-4R-1510281 11/03/2015 307","activated":"2017-11-16T00:44:36.151Z","flags":1,"native":1,"bps":4800,"parity":"N","stopbits":1,"cycle":1.00}]}
2017-11-15 19:44:36 1510793076.214467: {"class":"WATCH","enable":true,"json":false,"nmea":true,"raw":0,"scaled":false,"timing":false,"split24":false,"pps":false}
2017-11-15 19:44:36 1510793076.665616: $GPGSV,3,1,11,32,30,114,17,16,30,190,24,22,50,259,20,26,61,169,23*74
2017-11-15 19:44:36 1510793076.665789: $GPGSV,3,2,11,14,49,102,24,31,62,034,04,29,12,064,00,23,16,303,09*75
2017-11-15 19:44:36 1510793076.665849: $GPGSV,3,3,11,03,43,291,17,25,11,039,00,01,01,247,00*4D
2017-11-15 19:44:36 1510793076.778968: $GPZDA,004435.00,16,11,2017,00,00*63
2017-11-15 19:44:36 1510793076.779140: $GPGGA,004435,3946.9687,N,08404.9522,W,1,07,1.20,340.99,M,-33.324,M,,*71
2017-11-15 19:44:36 1510793076.779201: $GPRMC,004435,A,3946.9687,N,08404.9522,W,1.2361,14.852,161117,,*09
2017-11-15 19:44:36 1510793076.779258: $GPGSA,A,3,32,16,22,26,14,23,3,,,,,,3.4,1.2,2.9*08
2017-11-15 19:44:37 1510793077.329839: $GPZDA,004436.00,16,11,2017,00,00*60
2017-11-15 19:44:37 1510793077.330004: $GPGGA,004436,3946.9687,N,08404.9522,W,1,07,1.20,340.99,M,-33.324,M,,*72
2017-11-15 19:44:37 1510793077.330065: $GPRMC,004436,A,3946.9687,N,08404.9522,W,1.0269,4.197,161117,,*30
2017-11-15 19:44:37 1510793077.330121: $GPGSA,A,3,32,16,22,26,14,23,3,,,,,,3.4,1.2,2.9*08
2017-11-15 19:44:38 1510793078.329465: $GPZDA,004437.00,16,11,2017,00,00*61
2017-11-15 19:44:38 1510793078.329646: $GPGGA,004437,3946.9691,N,08404.9522,W,1,07,1.20,341.62,M,-33.324,M,,*71
2017-11-15 19:44:38 1510793078.329710: $GPRMC,004437,A,3946.9691,N,08404.9522,W,1.1385,29.379,161117,,*09
2017-11-15 19:44:38 1510793078.329766: $GPGSA,A,3,32,16,22,26,14,23,3,,,,,,3.4,1.2,2.9*08
2017-11-15 19:44:39 1510793079.681486: $GPGSV,3,1,11,32,30,114,17,16,30,190,24,22,50,259,20,26,61,169,23*74
2017-11-15 19:44:39 1510793079.681658: $GPGSV,3,2,11,14,49,102,24,31,62,034,06,29,12,064,00,23,16,303,10*7F
2017-11-15 19:44:39 1510793079.681718: $GPGSV,3,3,11,03,43,291,17,25,11,039,00,01,01,247,00*4D
2017-11-15 19:44:39 1510793079.795766: $GPZDA,004438.00,16,11,2017,00,00*6E
2017-11-15 19:44:39 1510793079.795923: $GPGGA,004438,3946.9691,N,08404.9522,W,1,08,1.20,341.62,M,-33.324,M,,*71
2017-11-15 19:44:39 1510793079.795982: $GPRMC,004438,A,3946.9691,N,08404.9522,W,0.3423,4.197,161117,,*33
2017-11-15 19:44:39 1510793079.796038: $GPGSA,A,3,32,16,22,26,14,31,23,3,,,,,3.4,1.2,2.9*0A
2017-11-15 19:44:40 1510793080.345744: $GPZDA,004439.00,16,11,2017,00,00*6F
2017-11-15 19:44:40 1510793080.345904: $GPGGA,004439,3946.9692,N,08404.9529,W,1,08,1.20,341.55,M,-33.324,M,,*7C
2017-11-15 19:44:40 1510793080.345965: $GPRMC,004439,A,3946.9692,N,08404.9529,W,0.3006,62.539,161117,,*09
2017-11-15 19:44:40 1510793080.346021: $GPGSA,A,3,32,16,22,26,14,31,23,3,,,,,3.4,1.2,2.9*0A
2017-11-15 19:44:41 1510793081.330319: $GPZDA,004440.00,16,11,2017,00,00*61
2017-11-15 19:44:41 1510793081.330522: $GPGGA,004440,3946.9692,N,08404.9529,W,1,08,1.20,341.55,M,-33.324,M,,*72
2017-11-15 19:44:41 1510793081.330585: $GPRMC,004440,A,3946.9692,N,08404.9529,W,0.5230,76.444,161117,,*08
2017-11-15 19:44:41 1510793081.330640: $GPGSA,A,3,32,16,22,26,14,31,23,3,,,,,3.4,1.2,2.9*0A
2017-11-15 19:44:42 1510793082.665626: $GPGSV,3,1,11,32,30,114,17,16,30,190,24,22,50,259,20,26,61,169,23*74
2017-11-15 19:44:42 1510793082.665798: $GPGSV,3,2,11,14,49,102,24,31,62,034,08,29,12,064,00,23,16,303,11*70
2017-11-15 19:44:42 1510793082.665858: $GPGSV,3,3,11,03,43,291,17,25,11,039,00,01,01,247,00*4D
2017-11-15 19:44:42 1510793082.779060: $GPZDA,004441.00,16,11,2017,00,00*60
2017-11-15 19:44:42 1510793082.779225: $GPGGA,004441,3946.9691,N,08404.9522,W,1,08,1.20,341.62,M,-33.324,M,,*7F
2017-11-15 19:44:42 1510793082.779286: $GPRMC,004441,A,3946.9691,N,08404.9522,W,1.1048,66.986,161117,,*0B
2017-11-15 19:44:42 1510793082.779392: $GPGSA,A,3,32,16,22,26,14,31,23,3,,,,,3.4,1.2,2.9*0A
2017-11-15 19:44:43 1510793083.346062: $GPZDA,004442.00,16,11,2017,00,00*63
2017-11-15 19:44:43 1510793083.346227: $GPGGA,004442,3946.9691,N,08404.9522,W,1,08,1.20,341.62,M,-33.324,M,,*7C
2017-11-15 19:44:43 1510793083.346308: $GPRMC,004442,A,3946.9691,N,08404.9522,W,1.1902,58.684,161117,,*0F
2017-11-15 19:44:43 1510793083.346385: $GPGSA,A,3,32,16,22,26,14,31,23,3,,,,,3.4,1.2,2.9*0A
2017-11-15 19:44:44 1510793084.345777: $GPZDA,004443.00,16,11,2017,00,00*62
2017-11-15 19:44:44 1510793084.345948: $GPGGA,004443,3946.9696,N,08404.9522,W,1,08,1.20,342.26,M,-33.324,M,,*79
2017-11-15 19:44:44 1510793084.346010: $GPRMC,004443,A,3946.9696,N,08404.9522,W,0.8054,68.645,161117,,*05
2017-11-15 19:44:44 1510793084.346066: $GPGSA,A,3,32,16,22,26,14,31,23,3,,,,,3.4,1.2,2.9*0A
2017-11-15 19:44:45 1510793085.681584: $GPGSV,3,1,11,32,30,114,17,16,30,190,25,22,50,259,20,26,61,169,24*72
2017-11-15 19:44:45 1510793085.681808: $GPGSV,3,2,11,14,49,102,24,31,62,034,09,29,12,064,00,23,16,303,12*72
2017-11-15 19:44:45 1510793085.681871: $GPGSV,3,3,11,03,43,291,17,25,11,039,00,01,01,247,00*4D
2017-11-15 19:44:45 1510793085.794917: $GPZDA,004444.00,16,11,2017,00,00*65
2017-11-15 19:44:45 1510793085.795082: $GPGGA,004444,3946.9692,N,08404.9523,W,1,08,1.20,343.03,M,-33.324,M,,*7D
2017-11-15 19:44:45 1510793085.795142: $GPRMC,004444,A,3946.9692,N,08404.9523,W,0.4207,39.347,161117,,*0C
2017-11-15 19:44:45 1510793085.795199: $GPGSA,A,3,32,16,22,26,14,31,23,3,,,,,3.4,1.2,2.9*0A
