2017-12-31 18:13:54 1514762034.178078: {"class":"VERSION","release":"3.16","rev":"3.16-4","proto_major":3,"proto_minor":11}
2017-12-31 18:13:54 1514762034.178431: {"class":"DEVICES","devices":[{"class":"DEVICE","path":"/dev/ttyUSB0","driver":"SiRF","activated":"2017-12-31T23:13:54.171Z","flags":1,"native":1,"bps":4800,"parity":"N","stopbits":1,"cycle":1.00}]}
2017-12-31 18:13:54 1514762034.178529: {"class":"WATCH","enable":true,"json":false,"nmea":true,"raw":0,"scaled":false,"timing":false,"split24":false,"pps":false}
2017-12-31 18:13:54 1514762034.685609: $GPGSV,3,1,12,22,21,213,36,23,55,306,46,09,21,312,42,03,31,234,42*76
2017-12-31 18:13:54 1514762034.685773: $GPGSV,3,2,12,16,82,187,43,08,01,180,22,14,14,133,34,31,28,076,46*72
2017-12-31 18:13:54 1514762034.685837: $GPGSV,3,3,12,27,23,153,34,29,05,030,30,26,61,049,48,135,22,240,43*44
2017-12-31 18:13:54 1514762034.797745: $GPZDA,231355.00,31,12,2017,00,00*60
2017-12-31 18:13:54 1514762034.797876: $GPGGA,231355,3946.9564,N,08404.9866,W,2,12,0.80,307.48,M,-33.324,M,,*74
2017-12-31 18:13:54 1514762034.797940: $GPRMC,231355,A,3946.9564,N,08404.9866,W,0.0000,0.000,311217,,*34
2017-12-31 18:13:54 1514762034.798000: $GPGSA,A,3,22,23,9,3,16,8,14,31,27,29,26,135,1.7,0.8,1.3*30
2017-12-31 18:13:55 1514762035.424420: $GPZDA,231356.00,31,12,2017,00,00*63
2017-12-31 18:13:55 1514762035.424618: $GPGGA,231356,3946.9564,N,08404.9866,W,2,12,0.80,307.48,M,-33.324,M,,*77
2017-12-31 18:13:55 1514762035.424701: $GPRMC,231356,A,3946.9564,N,08404.9866,W,0.0000,0.000,311217,,*37
2017-12-31 18:13:55 1514762035.424763: $GPGSA,A,3,22,23,9,3,16,8,14,31,27,29,26,135,1.7,0.8,1.3*30
2017-12-31 18:13:56 1514762036.349040: $GPZDA,231357.00,31,12,2017,00,00*62
2017-12-31 18:13:56 1514762036.349195: $GPGGA,231357,3946.9564,N,08404.9866,W,2,12,0.80,307.48,M,-33.324,M,,*76
2017-12-31 18:13:56 1514762036.349260: $GPRMC,231357,A,3946.9564,N,08404.9866,W,0.0000,0.000,311217,,*36
2017-12-31 18:13:56 1514762036.349321: $GPGSA,A,3,22,23,9,3,16,8,14,31,27,29,26,135,1.7,0.8,1.3*30
2017-12-31 18:13:57 1514762037.713448: $GPGSV,3,1,12,22,21,213,36,23,55,306,46,09,21,312,41,03,31,234,43*74
2017-12-31 18:13:57 1514762037.713644: $GPGSV,3,2,12,16,82,187,43,08,01,180,22,14,14,133,34,31,28,076,46*72
2017-12-31 18:13:57 1514762037.713711: $GPGSV,3,3,12,27,23,153,34,29,05,030,32,26,61,049,49,135,22,240,44*40
2017-12-31 18:13:57 1514762037.826897: $GPZDA,231358.00,31,12,2017,00,00*6D
2017-12-31 18:13:57 1514762037.827058: $GPGGA,231358,3946.9564,N,08404.9866,W,2,12,0.80,307.48,M,-33.324,M,,*79
2017-12-31 18:13:57 1514762037.827191: $GPRMC,231358,A,3946.9564,N,08404.9866,W,0.0000,0.000,311217,,*39
2017-12-31 18:13:57 1514762037.827256: $GPGSA,A,3,22,23,9,3,16,8,14,31,27,29,26,135,1.7,0.8,1.3*30
2017-12-31 18:13:58 1514762038.378344: $GPZDA,231359.00,31,12,2017,00,00*6C
2017-12-31 18:13:58 1514762038.378507: $GPGGA,231359,3946.9564,N,08404.9866,W,2,12,0.80,307.48,M,-33.324,M,,*78
2017-12-31 18:13:58 1514762038.378576: $GPRMC,231359,A,3946.9564,N,08404.9866,W,0.0000,0.000,311217,,*38
2017-12-31 18:13:58 1514762038.378641: $GPGSA,A,3,22,23,9,3,16,8,14,31,27,29,26,135,1.7,0.8,1.3*30
2017-12-31 18:13:59 1514762039.348875: $GPZDA,231400.00,31,12,2017,00,00*67
2017-12-31 18:13:59 1514762039.349065: $GPGGA,231400,3946.9564,N,08404.9866,W,2,12,0.80,307.48,M,-33.324,M,,*73
2017-12-31 18:13:59 1514762039.349136: $GPRMC,231400,A,3946.9564,N,08404.9866,W,0.0000,0.000,311217,,*33
2017-12-31 18:13:59 1514762039.349197: $GPGSA,A,3,22,23,9,3,16,8,14,31,27,29,26,135,1.7,0.8,1.3*30
2017-12-31 18:14:00 1514762040.685064: $GPGSV,3,1,12,22,21,213,36,23,55,306,46,09,21,312,42,03,31,234,43*77
2017-12-31 18:14:00 1514762040.685235: $GPGSV,3,2,12,16,82,187,44,08,01,180,21,14,14,133,34,31,28,076,46*76
2017-12-31 18:14:00 1514762040.685301: $GPGSV,3,3,12,27,23,153,34,29,05,030,32,26,61,049,48,135,22,240,44*41
2017-12-31 18:14:00 1514762040.798870: $GPZDA,231401.00,31,12,2017,00,00*66
2017-12-31 18:14:00 1514762040.799015: $GPGGA,231401,3946.9564,N,08404.9866,W,2,12,0.80,307.48,M,-33.324,M,,*72
2017-12-31 18:14:00 1514762040.799081: $GPRMC,231401,A,3946.9564,N,08404.9866,W,0.0000,0.000,311217,,*32
2017-12-31 18:14:00 1514762040.799186: $GPGSA,A,3,22,23,9,3,16,8,14,31,27,29,26,135,1.7,0.8,1.3*30
2017-12-31 18:14:01 1514762041.350528: $GPZDA,231402.00,31,12,2017,00,00*65
2017-12-31 18:14:01 1514762041.350706: $GPGGA,231402,3946.9564,N,08404.9866,W,2,12,0.80,307.48,M,-33.324,M,,*71
2017-12-31 18:14:01 1514762041.350774: $GPRMC,231402,A,3946.9564,N,08404.9866,W,0.0000,0.000,311217,,*31
2017-12-31 18:14:01 1514762041.350836: $GPGSA,A,3,22,23,9,3,16,8,14,31,27,29,26,135,1.7,0.8,1.3*30
2017-12-31 18:14:02 1514762042.377690: $GPZDA,231403.00,31,12,2017,00,00*64
2017-12-31 18:14:02 1514762042.377861: $GPGGA,231403,3946.9564,N,08404.9866,W,2,12,0.80,307.48,M,-33.324,M,,*70
2017-12-31 18:14:02 1514762042.377927: $GPRMC,231403,A,3946.9564,N,08404.9866,W,0.0000,0.000,311217,,*30
2017-12-31 18:14:02 1514762042.377989: $GPGSA,A,3,22,23,9,3,16,8,14,31,27,29,26,135,1.7,0.8,1.3*30
2017-12-31 18:14:03 1514762043.684742: $GPGSV,3,1,12,22,21,213,36,23,55,306,45,09,21,312,42,03,31,234,43*74
2017-12-31 18:14:03 1514762043.684904: $GPGSV,3,2,12,16,82,187,43,08,01,180,17,14,14,133,34,31,28,076,46*74
2017-12-31 18:14:03 1514762043.684971: $GPGSV,3,3,12,27,23,153,34,29,05,030,32,26,61,049,48,135,22,240,44*41
2017-12-31 18:14:03 1514762043.798138: $GPZDA,231404.00,31,12,2017,00,00*63
2017-12-31 18:14:03 1514762043.798291: $GPGGA,231404,3946.9564,N,08404.9866,W,2,12,0.80,307.48,M,-33.324,M,,*77
2017-12-31 18:14:03 1514762043.798357: $GPRMC,231404,A,3946.9564,N,08404.9866,W,0.0000,0.000,311217,,*37
2017-12-31 18:14:03 1514762043.798418: $GPGSA,A,3,22,23,9,3,16,8,14,31,27,29,26,135,1.7,0.8,1.3*30
