2017-11-15 18:27:30 1510788450.384367: {"class":"VERSION","release":"3.17","rev":"3.17","proto_major":3,"proto_minor":12}
2017-11-15 18:27:30 1510788450.384805: {"class":"DEVICES","devices":[{"class":"DEVICE","path":"/dev/ttyUSB0","driver":"SiRF","subtype":"9\u0006GSD4e_4.1.2-P1_RPATCH.05-F-GPS-4R-1510281 11/03/2015 307","activated":"2017-11-15T23:27:30.214Z","flags":1,"native":1,"bps":4800,"parity":"N","stopbits":1,"cycle":1.00}]}
2017-11-15 18:27:30 1510788450.384918: {"class":"WATCH","enable":true,"json":false,"nmea":true,"raw":0,"scaled":false,"timing":false,"split24":false,"pps":false}
2017-11-15 18:27:30 1510788450.662806: $GPGSV,3,1,10,10,24,156,12,14,69,034,24,25,36,058,17,26,23,178,00*75
2017-11-15 18:27:30 1510788450.662979: $GPGSV,3,2,10,31,77,270,24,32,57,076,16,01,19,276,00,22,38,304,20*79
2017-11-15 18:27:30 1510788450.663040: $GPGSV,3,3,10,03,19,316,00,12,08,033,00*7C
2017-11-15 18:27:30 1510788450.776453: $GPZDA,232729.00,15,11,2017,00,00*69
2017-11-15 18:27:30 1510788450.776614: $GPGGA,232729,3946.9622,N,08404.9528,W,1,06,1.40,291.50,M,-33.324,M,,*72
2017-11-15 18:27:30 1510788450.776674: $GPRMC,232729,A,3946.9622,N,08404.9528,W,1.1902,238.684,151117,,*33
2017-11-15 18:27:30 1510788450.776778: $GPGSA,A,3,10,14,25,31,32,22,,,,,,,3.4,1.4,2.9*3B
2017-11-15 18:27:31 1510788451.402695: $GPZDA,232730.00,15,11,2017,00,00*61
2017-11-15 18:27:31 1510788451.402874: $GPGGA,232730,3946.9622,N,08404.9535,W,1,06,1.40,291.42,M,-33.324,M,,*75
2017-11-15 18:27:31 1510788451.402936: $GPRMC,232730,A,3946.9622,N,08404.9535,W,0.4207,219.347,151117,,*34
2017-11-15 18:27:31 1510788451.402991: $GPGSA,A,3,10,14,25,31,32,22,,,,,,,3.4,1.4,2.9*3B
2017-11-15 18:27:32 1510788452.358608: $GPZDA,232731.00,15,11,2017,00,00*60
2017-11-15 18:27:32 1510788452.358795: $GPGGA,232731,3946.9622,N,08404.9535,W,1,06,1.40,291.42,M,-33.324,M,,*74
2017-11-15 18:27:32 1510788452.358858: $GPRMC,232731,A,3946.9622,N,08404.9535,W,0.5075,72.257,151117,,*0C
2017-11-15 18:27:32 1510788452.358913: $GPGSA,A,3,10,14,25,31,32,22,,,,,,,3.4,1.4,2.9*3B
2017-11-15 18:27:33 1510788453.668154: $GPGSV,3,1,10,10,24,156,11,14,69,034,24,25,36,058,17,12,08,033,02*74
2017-11-15 18:27:33 1510788453.668322: $GPGSV,3,2,10,31,77,270,24,32,57,076,15,26,23,178,00,22,38,304,20*7B
2017-11-15 18:27:33 1510788453.668382: $GPGSV,3,3,10,01,19,276,00,03,19,316,00*7D
2017-11-15 18:27:33 1510788453.781901: $GPZDA,232732.00,15,11,2017,00,00*63
2017-11-15 18:27:33 1510788453.782045: $GPGGA,232732,3946.9622,N,08404.9535,W,1,06,1.40,291.42,M,-33.324,M,,*77
2017-11-15 18:27:33 1510788453.782103: $GPRMC,232732,A,3946.9622,N,08404.9535,W,0.5951,58.684,151117,,*02
2017-11-15 18:27:33 1510788453.782157: $GPGSA,A,3,10,14,25,31,32,22,,,,,,,3.4,1.4,2.9*3B
2017-11-15 18:27:34 1510788454.359039: $GPZDA,232733.00,15,11,2017,00,00*62
2017-11-15 18:27:34 1510788454.359200: $GPGGA,232733,3946.9619,N,08404.9536,W,1,06,1.40,292.19,M,-33.324,M,,*70
2017-11-15 18:27:34 1510788454.359260: $GPRMC,232733,A,3946.9619,N,08404.9536,W,0.4207,39.347,151117,,*0C
2017-11-15 18:27:34 1510788454.359315: $GPGSA,A,3,10,14,25,31,32,22,,,,,,,3.4,1.4,2.9*3B
2017-11-15 18:27:35 1510788455.358215: $GPZDA,232734.00,15,11,2017,00,00*65
2017-11-15 18:27:35 1510788455.358380: $GPGGA,232734,3946.9623,N,08404.9536,W,1,06,1.40,292.83,M,-33.324,M,,*7D
2017-11-15 18:27:35 1510788455.358441: $GPRMC,232734,A,3946.9623,N,08404.9536,W,0.8414,39.347,151117,,*0A
2017-11-15 18:27:35 1510788455.358498: $GPGSA,A,3,10,14,25,31,32,22,,,,,,,3.4,1.4,2.9*3B
2017-11-15 18:27:36 1510788456.663494: $GPGSV,3,1,10,10,24,156,10,14,69,034,24,25,36,058,17,12,08,033,13*75
2017-11-15 18:27:36 1510788456.663664: $GPGSV,3,2,10,31,77,270,25,32,57,076,15,26,23,178,00,22,38,304,20*7A
2017-11-15 18:27:36 1510788456.663724: $GPGSV,3,3,10,01,19,276,00,03,19,316,00*7D
2017-11-15 18:27:36 1510788456.776825: $GPZDA,232735.00,15,11,2017,00,00*64
2017-11-15 18:27:36 1510788456.776998: $GPGGA,232735,3946.9626,N,08404.9535,W,1,06,1.40,292.06,M,-33.324,M,,*77
2017-11-15 18:27:36 1510788456.777058: $GPRMC,232735,A,3946.9626,N,08404.9535,W,1.2621,39.347,151117,,*02
2017-11-15 18:27:36 1510788456.777165: $GPGSA,A,3,10,14,25,31,32,22,,,,,,,3.4,1.4,2.9*3B
2017-11-15 18:27:37 1510788457.327805: $GPZDA,232736.00,15,11,2017,00,00*67
2017-11-15 18:27:37 1510788457.327976: $GPGGA,232736,3946.9626,N,08404.9535,W,1,06,1.40,292.06,M,-33.324,M,,*74
2017-11-15 18:27:37 1510788457.328039: $GPRMC,232736,A,3946.9626,N,08404.9535,W,1.2971,51.620,151117,,*01
2017-11-15 18:27:37 1510788457.328095: $GPGSA,A,3,10,14,25,31,32,22,,,,,,,3.4,1.4,2.9*3B
2017-11-15 18:27:38 1510788458.328964: $GPZDA,232737.00,15,11,2017,00,00*66
2017-11-15 18:27:38 1510788458.329152: $GPGGA,232737,3946.9630,N,08404.9535,W,1,06,1.40,292.70,M,-33.324,M,,*73
2017-11-15 18:27:38 1510788458.329217: $GPRMC,232737,A,3946.9630,N,08404.9535,W,1.2361,14.852,151117,,*06
2017-11-15 18:27:38 1510788458.329273: $GPGSA,A,3,10,14,25,31,32,22,,,,,,,3.4,1.4,2.9*3B
2017-11-15 18:27:39 1510788459.694353: $GPGSV,3,1,10,10,24,156,10,14,69,034,24,25,36,058,18,26,23,178,00*78
2017-11-15 18:27:39 1510788459.694523: $GPGSV,3,2,10,31,77,270,25,32,57,076,05,01,19,276,00,22,38,304,20*7A
2017-11-15 18:27:39 1510788459.694582: $GPGSV,3,3,10,03,19,316,00,12,08,033,00*7C
2017-11-15 18:27:39 1510788459.807699: $GPZDA,232738.00,15,11,2017,00,00*69
2017-11-15 18:27:39 1510788459.807866: $GPGGA,232738,3946.9630,N,08404.9535,W,1,05,1.40,292.70,M,-33.324,M,,*7F
2017-11-15 18:27:39 1510788459.807926: $GPRMC,232738,A,3946.9630,N,08404.9535,W,1.2381,352.270,151117,,*3C
2017-11-15 18:27:39 1510788459.807981: $GPGSA,A,3,10,14,25,31,22,,,,,,,,3.4,1.4,2.9*3A
2017-11-15 18:27:40 1510788460.328437: $GPZDA,232739.00,15,11,2017,00,00*68
2017-11-15 18:27:40 1510788460.328606: $GPGGA,232739,3946.9634,N,08404.9535,W,1,05,1.40,293.34,M,-33.324,M,,*7B
2017-11-15 18:27:40 1510788460.328668: $GPRMC,232739,A,3946.9634,N,08404.9535,W,0.9060,347.792,151117,,*32
2017-11-15 18:27:40 1510788460.328724: $GPGSA,A,3,10,14,25,31,22,,,,,,,,3.4,1.4,2.9*3A
