2017-12-31 16:54:53 1514757293.946952: {"class":"VERSION","release":"3.16","rev":"3.16-4","proto_major":3,"proto_minor":11}
2017-12-31 16:54:53 1514757293.947352: {"class":"DEVICES","devices":[{"class":"DEVICE","path":"/dev/ttyUSB0","driver":"SiRF","activated":"2017-12-31T21:54:53.484Z","flags":1,"native":1,"bps":4800,"parity":"N","stopbits":1,"cycle":1.00}]}
2017-12-31 16:54:53 1514757293.947481: {"class":"WATCH","enable":true,"json":false,"nmea":true,"raw":0,"scaled":false,"timing":false,"split24":false,"pps":false}
2017-12-31 16:54:54 1514757294.688388: $GPGSV,3,1,11,22,47,246,41,23,24,306,40,25,05,037,20,03,46,277,38*77
2017-12-31 16:54:54 1514757294.688594: $GPGSV,3,2,11,16,41,190,46,29,14,060,24,31,53,046,51,14,44,109,42*77
2017-12-31 16:54:54 1514757294.688661: $GPGSV,3,3,11,32,22,120,44,26,70,154,44,135,22,240,42*7F
2017-12-31 16:54:54 1514757294.802057: $GPZDA,215455.00,31,12,2017,00,00*61
2017-12-31 16:54:54 1514757294.802225: $GPGGA,215455,3946.9581,N,08404.9855,W,2,11,0.80,303.74,M,-33.324,M,,*76
2017-12-31 16:54:54 1514757294.802291: $GPRMC,215455,A,3946.9581,N,08404.9855,W,0.0000,0.000,311217,,*3E
2017-12-31 16:54:54 1514757294.802350: $GPGSA,A,3,22,23,25,3,16,29,31,14,32,26,135,,1.7,0.8,1.3*32
2017-12-31 16:54:55 1514757295.427361: $GPZDA,215456.00,31,12,2017,00,00*62
2017-12-31 16:54:55 1514757295.427547: $GPGGA,215456,3946.9581,N,08404.9855,W,2,11,0.80,303.74,M,-33.324,M,,*75
2017-12-31 16:54:55 1514757295.427634: $GPRMC,215456,A,3946.9581,N,08404.9855,W,0.0000,0.000,311217,,*3D
2017-12-31 16:54:55 1514757295.427696: $GPGSA,A,3,22,23,25,3,16,29,31,14,32,26,135,,1.7,0.8,1.3*32
2017-12-31 16:54:56 1514757296.335768: $GPZDA,215457.00,31,12,2017,00,00*63
2017-12-31 16:54:56 1514757296.335940: $GPGGA,215457,3946.9581,N,08404.9855,W,2,11,0.80,303.74,M,-33.324,M,,*74
2017-12-31 16:54:56 1514757296.336006: $GPRMC,215457,A,3946.9581,N,08404.9855,W,0.0000,0.000,311217,,*3C
2017-12-31 16:54:56 1514757296.336067: $GPGSA,A,3,22,23,25,3,16,29,31,14,32,26,135,,1.7,0.8,1.3*32
2017-12-31 16:54:57 1514757297.679850: $GPGSV,3,1,11,22,47,246,42,23,24,306,39,25,05,037,20,03,46,277,38*7A
2017-12-31 16:54:57 1514757297.679997: $GPGSV,3,2,11,16,41,190,46,29,14,060,24,31,53,046,51,14,44,109,42*77
2017-12-31 16:54:57 1514757297.680061: $GPGSV,3,3,11,32,22,120,44,26,70,154,44,135,22,240,43*7E
2017-12-31 16:54:57 1514757297.793524: $GPZDA,215458.00,31,12,2017,00,00*6C
2017-12-31 16:54:57 1514757297.793718: $GPGGA,215458,3946.9581,N,08404.9855,W,2,11,0.80,303.74,M,-33.324,M,,*7B
2017-12-31 16:54:57 1514757297.793785: $GPRMC,215458,A,3946.9581,N,08404.9855,W,0.0000,0.000,311217,,*33
2017-12-31 16:54:57 1514757297.793845: $GPGSA,A,3,22,23,25,3,16,29,31,14,32,26,135,,1.7,0.8,1.3*32
2017-12-31 16:54:58 1514757298.360652: $GPZDA,215459.00,31,12,2017,00,00*6D
2017-12-31 16:54:58 1514757298.360817: $GPGGA,215459,3946.9581,N,08404.9855,W,2,11,0.80,303.74,M,-33.324,M,,*7A
2017-12-31 16:54:58 1514757298.360883: $GPRMC,215459,A,3946.9581,N,08404.9855,W,0.0000,0.000,311217,,*32
2017-12-31 16:54:58 1514757298.360944: $GPGSA,A,3,22,23,25,3,16,29,31,14,32,26,135,,1.7,0.8,1.3*32
2017-12-31 16:54:59 1514757299.344037: $GPZDA,215500.00,31,12,2017,00,00*60
2017-12-31 16:54:59 1514757299.344206: $GPGGA,215500,3946.9581,N,08404.9855,W,2,11,0.80,303.74,M,-33.324,M,,*77
2017-12-31 16:54:59 1514757299.344272: $GPRMC,215500,A,3946.9581,N,08404.9855,W,0.0000,0.000,311217,,*3F
2017-12-31 16:54:59 1514757299.344333: $GPGSA,A,3,22,23,25,3,16,29,31,14,32,26,135,,1.7,0.8,1.3*32
2017-12-31 16:55:00 1514757300.671438: $GPGSV,3,1,11,22,47,246,42,23,24,306,39,25,05,037,20,03,46,277,38*7A
2017-12-31 16:55:00 1514757300.671635: $GPGSV,3,2,11,16,41,190,46,29,14,060,25,31,53,046,51,14,44,109,42*76
2017-12-31 16:55:00 1514757300.671719: $GPGSV,3,3,11,32,22,120,45,26,70,154,44,135,22,240,43*7F
2017-12-31 16:55:00 1514757300.785051: $GPZDA,215501.00,31,12,2017,00,00*61
2017-12-31 16:55:00 1514757300.785192: $GPGGA,215501,3946.9581,N,08404.9855,W,2,11,0.80,303.74,M,-33.324,M,,*76
2017-12-31 16:55:00 1514757300.785257: $GPRMC,215501,A,3946.9581,N,08404.9855,W,0.0000,0.000,311217,,*3E
2017-12-31 16:55:00 1514757300.785392: $GPGSA,A,3,22,23,25,3,16,29,31,14,32,26,135,,1.7,0.8,1.3*32
2017-12-31 16:55:01 1514757301.361974: $GPZDA,215502.00,31,12,2017,00,00*62
2017-12-31 16:55:01 1514757301.362169: $GPGGA,215502,3946.9581,N,08404.9855,W,2,11,0.80,303.74,M,-33.324,M,,*75
2017-12-31 16:55:01 1514757301.362235: $GPRMC,215502,A,3946.9581,N,08404.9855,W,0.0000,0.000,311217,,*3D
2017-12-31 16:55:01 1514757301.362297: $GPGSA,A,3,22,23,25,3,16,29,31,14,32,26,135,,1.7,0.8,1.3*32
2017-12-31 16:55:02 1514757302.344549: $GPZDA,215503.00,31,12,2017,00,00*63
2017-12-31 16:55:02 1514757302.344709: $GPGGA,215503,3946.9581,N,08404.9855,W,2,11,0.80,303.74,M,-33.324,M,,*74
2017-12-31 16:55:02 1514757302.344776: $GPRMC,215503,A,3946.9581,N,08404.9855,W,0.0000,0.000,311217,,*3C
2017-12-31 16:55:02 1514757302.344838: $GPGSA,A,3,22,23,25,3,16,29,31,14,32,26,135,,1.7,0.8,1.3*32
2017-12-31 16:55:03 1514757303.679873: $GPGSV,3,1,11,22,47,246,42,23,24,306,39,25,05,037,20,03,46,277,39*7B
2017-12-31 16:55:03 1514757303.680063: $GPGSV,3,2,11,16,41,190,46,29,14,060,25,31,53,046,51,14,44,109,42*76
2017-12-31 16:55:03 1514757303.680133: $GPGSV,3,3,11,32,22,120,44,26,70,154,44,135,22,240,43*7E
2017-12-31 16:55:03 1514757303.793396: $GPZDA,215504.00,31,12,2017,00,00*64
2017-12-31 16:55:03 1514757303.793552: $GPGGA,215504,3946.9581,N,08404.9855,W,2,11,0.80,303.74,M,-33.324,M,,*73
2017-12-31 16:55:03 1514757303.793621: $GPRMC,215504,A,3946.9581,N,08404.9855,W,0.0000,0.000,311217,,*3B
2017-12-31 16:55:03 1514757303.793684: $GPGSA,A,3,22,23,25,3,16,29,31,14,32,26,135,,1.7,0.8,1.3*32
