2017-11-15 19:33:32 1510792412.290609: {"class":"VERSION","release":"3.17","rev":"3.17","proto_major":3,"proto_minor":12}
2017-11-15 19:33:32 1510792412.291075: {"class":"DEVICES","devices":[{"class":"DEVICE","path":"/dev/ttyUSB0","driver":"SiRF","subtype":"9\u0006GSD4e_4.1.2-P1_RPATCH.05-F-GPS-4R-1510281 11/03/2015 307","activated":"2017-11-16T00:33:32.219Z","flags":1,"native":1,"bps":4800,"parity":"N","stopbits":1,"cycle":1.00}]}
2017-11-15 19:33:32 1510792412.291198: {"class":"WATCH","enable":true,"json":false,"nmea":true,"raw":0,"scaled":false,"timing":false,"split24":false,"pps":false}
2017-11-15 19:33:32 1510792412.332855: $GPZDA,003331.00,16,11,2017,00,00*67
2017-11-15 19:33:32 1510792412.333014: $GPGGA,003331,3946.9562,N,08404.9454,W,1,07,1.60,287.63,M,-33.324,M,,*76
2017-11-15 19:33:32 1510792412.333075: $GPRMC,003331,A,3946.9562,N,08404.9454,W,0.7278,203.636,161117,,*30
2017-11-15 19:33:32 1510792412.333132: $GPGSA,A,3,32,14,16,26,31,3,22,,,,,,3.4,1.6,2.9*0F
2017-11-15 19:33:33 1510792413.663642: $GPGSV,3,1,11,32,35,109,25,14,54,094,18,16,24,190,00,26,55,172,17*7C
2017-11-15 19:33:33 1510792413.663811: $GPGSV,3,2,11,25,16,039,00,31,66,027,16,03,40,297,19,23,12,301,00*71
2017-11-15 19:33:33 1510792413.663871: $GPGSV,3,3,11,29,11,070,00,01,05,252,00,22,50,268,19*45
2017-11-15 19:33:33 1510792413.777280: $GPZDA,003332.00,16,11,2017,00,00*64
2017-11-15 19:33:33 1510792413.777425: $GPGGA,003332,3946.9562,N,08404.9461,W,1,06,1.60,287.55,M,-33.324,M,,*77
2017-11-15 19:33:33 1510792413.777483: $GPRMC,003332,A,3946.9562,N,08404.9461,W,1.0018,230.691,161117,,*3A
2017-11-15 19:33:33 1510792413.777539: $GPGSA,A,3,32,14,26,31,3,22,,,,,,,3.4,1.6,2.9*08
2017-11-15 19:33:34 1510792414.328137: $GPZDA,003333.00,16,11,2017,00,00*65
2017-11-15 19:33:34 1510792414.328308: $GPGGA,003333,3946.9562,N,08404.9461,W,1,06,1.60,287.55,M,-33.324,M,,*76
2017-11-15 19:33:34 1510792414.328368: $GPRMC,003333,A,3946.9562,N,08404.9461,W,1.0018,230.691,161117,,*3B
2017-11-15 19:33:34 1510792414.328425: $GPGSA,A,3,32,14,26,31,3,22,,,,,,,3.4,1.6,2.9*08
2017-11-15 19:33:35 1510792415.328989: $GPZDA,003334.00,16,11,2017,00,00*62
2017-11-15 19:33:35 1510792415.329154: $GPGGA,003334,3946.9562,N,08404.9468,W,1,06,1.60,287.47,M,-33.324,M,,*7B
2017-11-15 19:33:35 1510792415.329219: $GPRMC,003334,A,3946.9562,N,08404.9468,W,0.7278,203.636,161117,,*3A
2017-11-15 19:33:35 1510792415.329274: $GPGSA,A,3,32,14,26,31,3,22,,,,,,,3.4,1.6,2.9*08
2017-11-15 19:33:36 1510792416.680310: $GPGSV,3,1,11,32,35,109,25,14,54,094,18,16,24,190,00,26,55,172,16*7D
2017-11-15 19:33:36 1510792416.680483: $GPGSV,3,2,11,25,16,039,00,31,66,027,16,03,40,297,19,23,12,301,00*71
2017-11-15 19:33:36 1510792416.680544: $GPGSV,3,3,11,29,11,070,00,01,05,252,00,22,50,268,19*45
2017-11-15 19:33:36 1510792416.793762: $GPZDA,003335.00,16,11,2017,00,00*63
2017-11-15 19:33:36 1510792416.793922: $GPGGA,003335,3946.9567,N,08404.9468,W,1,06,1.60,288.11,M,-33.324,M,,*73
2017-11-15 19:33:36 1510792416.793981: $GPRMC,003335,A,3946.9567,N,08404.9468,W,0.3423,184.197,161117,,*32
2017-11-15 19:33:36 1510792416.794039: $GPGSA,A,3,32,14,26,31,3,22,,,,,,,3.4,1.6,2.9*08
2017-11-15 19:33:37 1510792417.331976: $GPZDA,003336.00,16,11,2017,00,00*60
2017-11-15 19:33:37 1510792417.332139: $GPGGA,003336,3946.9567,N,08404.9468,W,1,06,1.60,288.11,M,-33.324,M,,*70
2017-11-15 19:33:37 1510792417.332202: $GPRMC,003336,A,3946.9567,N,08404.9468,W,0.3423,184.197,161117,,*31
2017-11-15 19:33:37 1510792417.332258: $GPGSA,A,3,32,14,26,31,3,22,,,,,,,3.4,1.6,2.9*08
2017-11-15 19:33:38 1510792418.329318: $GPZDA,003337.00,16,11,2017,00,00*61
2017-11-15 19:33:38 1510792418.329481: $GPGGA,003337,3946.9567,N,08404.9468,W,1,06,1.60,288.11,M,-33.324,M,,*71
2017-11-15 19:33:38 1510792418.329543: $GPRMC,003337,A,3946.9567,N,08404.9468,W,0.6846,184.197,161117,,*3A
2017-11-15 19:33:38 1510792418.329599: $GPGSA,A,3,32,14,26,31,3,22,,,,,,,3.4,1.6,2.9*08
2017-11-15 19:33:39 1510792419.664870: $GPGSV,3,1,11,32,35,109,25,14,54,094,18,16,24,190,13,26,55,172,11*78
2017-11-15 19:33:39 1510792419.665042: $GPGSV,3,2,11,29,11,070,14,31,66,027,16,03,40,297,19,25,16,039,00*78
2017-11-15 19:33:39 1510792419.665154: $GPGSV,3,3,11,23,12,301,00,01,05,252,00,22,50,268,18*48
2017-11-15 19:33:39 1510792419.778193: $GPZDA,003338.00,16,11,2017,00,00*6E
2017-11-15 19:33:39 1510792419.778358: $GPGGA,003338,3946.9566,N,08404.9461,W,1,06,1.60,288.19,M,-33.324,M,,*7E
2017-11-15 19:33:39 1510792419.778420: $GPRMC,003338,A,3946.9566,N,08404.9461,W,0.9060,167.792,161117,,*30
2017-11-15 19:33:39 1510792419.778475: $GPGSA,A,3,32,14,26,31,3,22,,,,,,,3.4,1.6,2.9*08
2017-11-15 19:33:40 1510792420.347103: $GPZDA,003339.00,16,11,2017,00,00*6F
2017-11-15 19:33:40 1510792420.347278: $GPGGA,003339,3946.9566,N,08404.9461,W,1,06,1.40,288.19,M,-33.324,M,,*7D
2017-11-15 19:33:40 1510792420.347339: $GPRMC,003339,A,3946.9566,N,08404.9461,W,0.9060,167.792,161117,,*31
2017-11-15 19:33:40 1510792420.347396: $GPGSA,A,3,32,14,26,31,3,22,,,,,,,3.4,1.4,2.9*0A
2017-11-15 19:33:41 1510792421.329433: $GPZDA,003340.00,16,11,2017,00,00*61
2017-11-15 19:33:41 1510792421.329599: $GPGGA,003340,3946.9562,N,08404.9461,W,1,06,1.40,287.55,M,-33.324,M,,*70
2017-11-15 19:33:41 1510792421.329661: $GPRMC,003340,A,3946.9562,N,08404.9461,W,1.5555,183.694,161117,,*38
2017-11-15 19:33:41 1510792421.329718: $GPGSA,A,3,32,14,26,31,3,22,,,,,,,3.4,1.4,2.9*0A
