2017-12-01 15:28:59 1512160139.556789: {"class":"VERSION","release":"3.16","rev":"3.16-4","proto_major":3,"proto_minor":11}
2017-12-01 15:28:59 1512160139.557282: {"class":"DEVICES","devices":[{"class":"DEVICE","path":"/dev/ttyUSB0","driver":"SiRF","subtype":"9\u0006GSD4e_4.1.2-P1_RPATCH.05-F-GPS-4R-1510281 11/03/2015 307","activated":"2017-12-01T20:28:59.474Z","flags":1,"native":1,"bps":4800,"parity":"N","stopbits":1,"cycle":1.00}]}
2017-12-01 15:28:59 1512160139.557401: {"class":"WATCH","enable":true,"json":false,"nmea":true,"raw":0,"scaled":false,"timing":false,"split24":false,"pps":false}
2017-12-01 15:29:00 1512160140.079817: $GPZDA,202900.75,01,12,2017,00,00*6B
2017-12-01 15:29:00 1512160140.079992: $GPGGA,202900,3946.9533,N,08404.9765,W,1,11,0.80,311.21,M,-33.324,M,,*78
2017-12-01 15:29:00 1512160140.080059: $GPRMC,202900,A,3946.9533,N,08404.9765,W,0.5287,182.716,011217,,*30
2017-12-01 15:29:00 1512160140.080121: $GPGSA,A,3,1,10,11,12,14,18,24,25,31,32,138,,2.0,0.8,1.5*3B
2017-12-01 15:29:00 1512160140.080180: $GPGBS,202900,10.70,M,15.43,M,35.28,M*0E
2017-12-01 15:29:01 1512160141.161630: $GPZDA,202901.44,01,12,2017,00,00*68
2017-12-01 15:29:01 1512160141.161818: $GPGGA,202901,3946.9533,N,08404.9765,W,1,11,0.80,311.21,M,-33.324,M,,*79
2017-12-01 15:29:01 1512160141.161885: $GPRMC,202901,A,3946.9533,N,08404.9765,W,0.2172,85.763,011217,,*0B
2017-12-01 15:29:01 1512160141.161946: $GPGSA,A,3,1,10,11,12,14,18,24,25,31,32,138,,2.0,0.8,1.5*3B
2017-12-01 15:29:02 1512160142.303848: $GPGSV,3,1,11,01,10,322,41,10,77,118,47,11,10,307,36,12,24,079,42*7A
2017-12-01 15:29:02 1512160142.304051: $GPGSV,3,2,11,14,50,282,42,18,44,130,46,24,20,045,41,25,25,121,46*7F
2017-12-01 15:29:02 1512160142.304119: $GPGSV,3,3,11,31,28,208,46,32,65,312,49,138,38,213,35*71
2017-12-01 15:29:02 1512160142.417616: $GPZDA,202902.00,01,12,2017,00,00*6B
2017-12-01 15:29:02 1512160142.417797: $GPGGA,202902,3946.9533,N,08404.9765,W,1,11,0.80,311.21,M,-33.324,M,,*7A
2017-12-01 15:29:02 1512160142.417864: $GPRMC,202902,A,3946.9533,N,08404.9765,W,0.1867,0.000,011217,,*39
2017-12-01 15:29:02 1512160142.417929: $GPGSA,A,3,1,10,11,12,14,18,24,25,31,32,138,,2.0,0.8,1.5*3B
2017-12-01 15:29:02 1512160142.869461: $GPZDA,202903.00,01,12,2017,00,00*6A
2017-12-01 15:29:02 1512160142.869656: $GPGGA,202903,3946.9533,N,08404.9772,W,1,11,0.80,311.13,M,-33.324,M,,*7C
2017-12-01 15:29:02 1512160142.869746: $GPRMC,202903,A,3946.9533,N,08404.9772,W,0.0000,0.000,011217,,*36
2017-12-01 15:29:02 1512160142.869810: $GPGSA,A,3,1,10,11,12,14,18,24,25,31,32,138,,2.0,0.8,1.5*3B
2017-12-01 15:29:03 1512160143.367709: $GPZDA,202904.00,01,12,2017,00,00*6D
2017-12-01 15:29:03 1512160143.367886: $GPGGA,202904,3946.9541,N,08404.9778,W,1,11,0.80,310.93,M,-33.324,M,,*7D
2017-12-01 15:29:03 1512160143.367956: $GPRMC,202904,A,3946.9541,N,08404.9778,W,0.0000,0.000,011217,,*3E
2017-12-01 15:29:03 1512160143.368022: $GPGSA,A,3,1,10,11,12,14,18,24,25,31,32,138,,2.0,0.8,1.5*3B
2017-12-01 15:29:04 1512160144.704325: $GPGSV,3,1,11,01,10,322,40,10,77,118,46,11,10,307,36,12,24,079,42*7A
2017-12-01 15:29:04 1512160144.704525: $GPGSV,3,2,11,14,50,282,42,18,44,130,46,24,20,045,42,25,25,121,45*7F
2017-12-01 15:29:04 1512160144.704595: $GPGSV,3,3,11,31,28,208,45,32,65,312,48,138,38,213,47*76
2017-12-01 15:29:04 1512160144.817693: $GPZDA,202905.00,01,12,2017,00,00*6C
2017-12-01 15:29:04 1512160144.817869: $GPGGA,202905,3946.9541,N,08404.9778,W,1,11,0.80,310.93,M,-33.324,M,,*7C
2017-12-01 15:29:04 1512160144.817939: $GPRMC,202905,A,3946.9541,N,08404.9778,W,0.0000,0.000,011217,,*3F
2017-12-01 15:29:04 1512160144.818003: $GPGSA,A,3,1,10,11,12,14,18,24,25,31,32,138,,2.0,0.8,1.5*3B
2017-12-01 15:29:05 1512160145.369719: $GPZDA,202906.00,01,12,2017,00,00*6F
2017-12-01 15:29:05 1512160145.369910: $GPGGA,202906,3946.9542,N,08404.9785,W,1,11,0.80,310.85,M,-33.324,M,,*79
2017-12-01 15:29:05 1512160145.369978: $GPRMC,202906,A,3946.9542,N,08404.9785,W,0.1567,9.200,011217,,*33
2017-12-01 15:29:05 1512160145.370043: $GPGSA,A,3,1,10,11,12,14,18,24,25,31,32,138,,2.0,0.8,1.5*3B
2017-12-01 15:29:06 1512160146.370578: $GPZDA,202907.00,01,12,2017,00,00*6E
2017-12-01 15:29:06 1512160146.370802: $GPGGA,202907,3946.9545,N,08404.9784,W,1,11,0.80,310.09,M,-33.324,M,,*7A
2017-12-01 15:29:06 1512160146.370898: $GPRMC,202907,A,3946.9545,N,08404.9784,W,0.0000,0.000,011217,,*3A
2017-12-01 15:29:06 1512160146.370961: $GPGSA,A,3,1,10,11,12,14,18,24,25,31,32,138,,2.0,0.8,1.5*3B
2017-12-01 15:29:06 1512160146.371049: $GPGBS,202907,10.70,M,15.43,M,35.28,M*09
2017-12-01 15:29:07 1512160147.706195: $GPGSV,3,1,11,01,10,322,41,10,77,118,47,11,10,307,37,12,24,079,41*78
2017-12-01 15:29:07 1512160147.706376: $GPGSV,3,2,11,14,50,282,42,18,44,130,46,24,20,045,42,25,25,121,46*7C
2017-12-01 15:29:07 1512160147.706444: $GPGSV,3,3,11,31,28,208,46,32,65,312,49,138,38,213,46*75
2017-12-01 15:29:07 1512160147.819601: $GPZDA,202908.00,01,12,2017,00,00*61
2017-12-01 15:29:07 1512160147.819762: $GPGGA,202908,3946.9541,N,08404.9791,W,1,11,0.80,309.37,M,-33.324,M,,*70
2017-12-01 15:29:07 1512160147.819829: $GPRMC,202908,A,3946.9541,N,08404.9791,W,0.0000,0.000,011217,,*35
2017-12-01 15:29:07 1512160147.819911: $GPGSA,A,3,1,10,11,12,14,18,24,25,31,32,138,,2.0,0.8,1.5*3B
2017-12-01 15:29:08 1512160148.369488: $GPZDA,202909.00,01,12,2017,00,00*60
2017-12-01 15:29:08 1512160148.369682: $GPGGA,202909,3946.9541,N,08404.9791,W,1,11,0.80,309.37,M,-33.324,M,,*71
2017-12-01 15:29:08 1512160148.369750: $GPRMC,202909,A,3946.9541,N,08404.9791,W,0.0000,0.000,011217,,*34
2017-12-01 15:29:08 1512160148.369812: $GPGSA,A,3,1,10,11,12,14,18,24,25,31,32,138,,2.0,0.8,1.5*3B
2017-12-01 15:29:09 1512160149.371020: $GPZDA,202910.00,01,12,2017,00,00*68
2017-12-01 15:29:09 1512160149.371192: $GPGGA,202910,3946.9545,N,08404.9798,W,1,11,0.80,308.52,M,-33.324,M,,*76
2017-12-01 15:29:09 1512160149.371260: $GPRMC,202910,A,3946.9545,N,08404.9798,W,0.0000,0.000,011217,,*31
2017-12-01 15:29:09 1512160149.371321: $GPGSA,A,3,1,10,11,12,14,18,24,25,31,32,138,,2.0,0.8,1.5*3B
2017-12-01 15:29:10 1512160150.716563: $GPGSV,3,1,11,01,10,322,41,10,77,118,47,11,10,307,37,12,24,079,41*78
2017-12-01 15:29:10 1512160150.716749: $GPGSV,3,2,11,14,50,282,42,18,44,130,46,24,20,045,42,25,25,121,46*7C
2017-12-01 15:29:10 1512160150.716818: $GPGSV,3,3,11,31,28,208,46,32,65,312,49,138,38,213,45*76
2017-12-01 15:29:10 1512160150.830026: $GPZDA,202911.00,01,12,2017,00,00*69
2017-12-01 15:29:10 1512160150.830194: $GPGGA,202911,3946.9553,N,08404.9824,W,2,11,1.00,306.68,M,-33.324,M,,*75
2017-12-01 15:29:10 1512160150.830262: $GPRMC,202911,A,3946.9553,N,08404.9824,W,0.0000,0.000,011217,,*3F
2017-12-01 15:29:10 1512160150.830323: $GPGSA,A,3,1,10,11,12,14,18,24,25,31,32,138,,2.0,1.0,1.5*32
2017-12-01 15:29:11 1512160151.372175: $GPZDA,202912.00,01,12,2017,00,00*6A
2017-12-01 15:29:11 1512160151.372344: $GPGGA,202912,3946.9553,N,08404.9824,W,2,11,0.80,306.68,M,-33.324,M,,*7F
2017-12-01 15:29:11 1512160151.372411: $GPRMC,202912,A,3946.9553,N,08404.9824,W,0.0000,0.000,011217,,*3C
2017-12-01 15:29:11 1512160151.372472: $GPGSA,A,3,1,10,11,12,14,18,24,25,31,32,138,,2.0,0.8,1.5*3B
2017-12-01 15:29:12 1512160152.370473: $GPZDA,202913.00,01,12,2017,00,00*6B
2017-12-01 15:29:12 1512160152.370645: $GPGGA,202913,3946.9553,N,08404.9824,W,2,11,0.80,306.68,M,-33.324,M,,*7E
2017-12-01 15:29:12 1512160152.370712: $GPRMC,202913,A,3946.9553,N,08404.9824,W,0.0000,0.000,011217,,*3D
2017-12-01 15:29:12 1512160152.370774: $GPGSA,A,3,1,10,11,12,14,18,24,25,31,32,138,,2.0,0.8,1.5*3B
2017-12-01 15:29:13 1512160153.708714: $GPGSV,3,1,11,01,10,322,41,10,77,118,47,11,10,307,37,12,24,079,41*78
2017-12-01 15:29:13 1512160153.708912: $GPGSV,3,2,11,14,50,282,42,18,44,130,46,24,20,045,42,25,25,121,46*7C
2017-12-01 15:29:13 1512160153.708996: $GPGSV,3,3,11,31,28,208,46,32,65,312,48,138,38,213,46*74
2017-12-01 15:29:13 1512160153.822193: $GPZDA,202914.00,01,12,2017,00,00*6C
2017-12-01 15:29:13 1512160153.822343: $GPGGA,202914,3946.9553,N,08404.9824,W,2,11,0.80,306.68,M,-33.324,M,,*79
2017-12-01 15:29:13 1512160153.822409: $GPRMC,202914,A,3946.9553,N,08404.9824,W,0.0000,0.000,011217,,*3A
2017-12-01 15:29:13 1512160153.822471: $GPGSA,A,3,1,10,11,12,14,18,24,25,31,32,138,,2.0,0.8,1.5*3B
2017-12-01 15:29:14 1512160154.447723: $GPZDA,202915.00,01,12,2017,00,00*6D
2017-12-01 15:29:14 1512160154.447917: $GPGGA,202915,3946.9557,N,08404.9823,W,2,11,0.80,305.91,M,-33.324,M,,*7E
2017-12-01 15:29:14 1512160154.448001: $GPRMC,202915,A,3946.9557,N,08404.9823,W,0.0000,0.000,011217,,*38
2017-12-01 15:29:14 1512160154.448064: $GPGSA,A,3,1,10,11,12,14,18,24,25,31,32,138,,2.0,0.8,1.5*3B
2017-12-01 15:29:15 1512160155.381070: $GPZDA,202916.00,01,12,2017,00,00*6E
2017-12-01 15:29:15 1512160155.381261: $GPGGA,202916,3946.9557,N,08404.9823,W,2,11,0.80,305.91,M,-33.324,M,,*7D
2017-12-01 15:29:15 1512160155.381405: $GPRMC,202916,A,3946.9557,N,08404.9823,W,0.0000,0.000,011217,,*3B
2017-12-01 15:29:15 1512160155.381481: $GPGSA,A,3,1,10,11,12,14,18,24,25,31,32,138,,2.0,0.8,1.5*3B
2017-12-01 15:29:16 1512160156.706511: $GPGSV,3,1,11,01,10,322,42,10,77,118,48,11,10,307,38,12,24,079,41*7B
2017-12-01 15:29:16 1512160156.706696: $GPGSV,3,2,11,14,50,282,42,18,44,130,47,24,20,045,42,25,25,121,46*7D
2017-12-01 15:29:16 1512160156.706767: $GPGSV,3,3,11,31,28,208,46,32,65,312,48,138,38,213,46*74
2017-12-01 15:29:16 1512160156.819905: $GPZDA,202917.00,01,12,2017,00,00*6F
2017-12-01 15:29:16 1512160156.820098: $GPGGA,202917,3946.9557,N,08404.9823,W,2,11,0.80,305.91,M,-33.324,M,,*7C
2017-12-01 15:29:16 1512160156.820167: $GPRMC,202917,A,3946.9557,N,08404.9823,W,0.0000,0.000,011217,,*3A
2017-12-01 15:29:16 1512160156.820230: $GPGSA,A,3,1,10,11,12,14,18,24,25,31,32,138,,2.0,0.8,1.5*3B
2017-12-01 15:29:17 1512160157.372155: $GPZDA,202918.00,01,12,2017,00,00*60
2017-12-01 15:29:17 1512160157.372474: $GPGGA,202918,3946.9557,N,08404.9823,W,2,11,0.80,305.91,M,-33.324,M,,*73
2017-12-01 15:29:17 1512160157.372617: $GPRMC,202918,A,3946.9557,N,08404.9823,W,0.0000,0.000,011217,,*35
2017-12-01 15:29:17 1512160157.372725: $GPGSA,A,3,1,10,11,12,14,18,24,25,31,32,138,,2.0,0.8,1.5*3B
2017-12-01 15:29:18 1512160158.370350: $GPZDA,202919.00,01,12,2017,00,00*61
2017-12-01 15:29:18 1512160158.890554: $GPGGA,202919,3946.9557,N,08404.9823,W,2,11,0.80,305.91,M,-33.324,M,,*72
2017-12-01 15:29:18 1512160158.890725: $GPRMC,202919,A,3946.9557,N,08404.9823,W,0.0000,0.000,011217,,*34
2017-12-01 15:29:18 1512160158.890794: $GPGSA,A,3,1,10,11,12,14,18,24,25,31,32,138,,2.0,0.8,1.5*3B
2017-12-01 15:29:18 1512160158.890887: $GPGBS,202919,2.67,M,3.86,M,8.82,M*33
