2017-12-29 11:15:11 1514564111.117258: {"class":"VERSION","release":"3.16","rev":"3.16-4","proto_major":3,"proto_minor":11}
2017-12-29 11:15:11 1514564111.117583: {"class":"DEVICES","devices":[{"class":"DEVICE","path":"/dev/ttyUSB0","driver":"SiRF","subtype":"9\u0006GSD4e_4.1.2-P1_RPATCH.05-F-GPS-4R-1510281 11/03/2015 307","activated":"2017-12-29T16:15:10.903Z","flags":1,"native":1,"bps":4800,"parity":"N","stopbits":1,"cycle":1.00}]}
2017-12-29 11:15:11 1514564111.117697: {"class":"WATCH","enable":true,"json":false,"nmea":true,"raw":0,"scaled":false,"timing":false,"split24":false,"pps":false}
2017-12-29 11:15:11 1514564111.879944: $GPZDA,161512.54,29,12,2017,00,00*6B
2017-12-29 11:15:11 1514564111.880103: $GPGGA,161512,3946.9553,N,08404.9874,W,1,11,1.00,308.29,M,-33.324,M,,*71
2017-12-29 11:15:11 1514564111.880169: $GPRMC,161512,A,3946.9553,N,08404.9874,W,0.3361,289.510,291217,,*39
2017-12-29 11:15:11 1514564111.880230: $GPGSA,A,3,8,10,15,18,20,21,24,27,32,13,138,,1.7,1.0,1.3*38
2017-12-29 11:15:11 1514564111.880291: $GPGBS,161512,10.91,M,10.38,M,30.89,M*0F
2017-12-29 11:15:12 1514564112.961636: $GPZDA,161513.22,29,12,2017,00,00*6B
2017-12-29 11:15:12 1514564112.961803: $GPGGA,161513,3946.9553,N,08404.9874,W,1,11,1.00,308.29,M,-33.324,M,,*70
2017-12-29 11:15:12 1514564112.961869: $GPRMC,161513,A,3946.9553,N,08404.9874,W,0.1324,202.230,291217,,*3D
2017-12-29 11:15:12 1514564112.961931: $GPGSA,A,3,8,10,15,18,20,21,24,27,32,13,138,,1.7,1.0,1.3*38
2017-12-29 11:15:14 1514564114.103748: $GPGSV,3,1,12,10,41,301,44,15,38,052,48,18,71,337,42,20,35,094,49*70
2017-12-29 11:15:14 1514564114.103918: $GPGSV,3,2,12,21,64,190,46,24,50,111,48,27,19,291,36,32,21,238,38*7C
2017-12-29 11:15:14 1514564114.103983: $GPGSV,3,3,12,13,08,048,00,08,05,324,00,14,03,232,00,138,38,213,00*40
2017-12-29 11:15:14 1514564114.217420: $GPZDA,161514.00,29,12,2017,00,00*6C
2017-12-29 11:15:14 1514564114.217586: $GPGGA,161514,3946.9557,N,08404.9874,W,1,08,1.00,308.93,M,-33.324,M,,*7A
2017-12-29 11:15:14 1514564114.217653: $GPRMC,161514,A,3946.9557,N,08404.9874,W,0.1567,189.200,291217,,*3C
2017-12-29 11:15:14 1514564114.217713: $GPGSA,A,3,10,15,18,20,21,24,27,32,,,,,1.7,1.0,1.3*38
2017-12-29 11:15:14 1514564114.668209: $GPZDA,161515.00,29,12,2017,00,00*6D
2017-12-29 11:15:14 1514564114.668361: $GPGGA,161515,3946.9560,N,08404.9867,W,1,08,1.00,308.25,M,-33.324,M,,*70
2017-12-29 11:15:14 1514564114.668430: $GPRMC,161515,A,3946.9560,N,08404.9867,W,0.0000,0.000,291217,,*3C
2017-12-29 11:15:14 1514564114.668490: $GPGSA,A,3,10,15,18,20,21,24,27,32,,,,,1.7,1.0,1.3*38
2017-12-29 11:15:15 1514564115.372900: $GPZDA,161516.00,29,12,2017,00,00*6E
2017-12-29 11:15:15 1514564115.373054: $GPGGA,161516,3946.9556,N,08404.9867,W,1,08,1.00,307.61,M,-33.324,M,,*79
2017-12-29 11:15:15 1514564115.373120: $GPRMC,161516,A,3946.9556,N,08404.9867,W,0.3554,131.360,291217,,*3B
2017-12-29 11:15:15 1514564115.373180: $GPGSA,A,3,10,15,18,20,21,24,27,32,,,,,1.7,1.0,1.3*38
2017-12-29 11:15:16 1514564116.705366: $GPGSV,3,1,12,10,41,301,42,15,38,052,48,18,71,337,42,20,35,094,48*77
2017-12-29 11:15:16 1514564116.705530: $GPGSV,3,2,12,21,64,190,45,24,50,111,46,27,19,291,36,32,21,238,37*7E
2017-12-29 11:15:16 1514564116.705597: $GPGSV,3,3,12,08,05,324,25,13,08,048,15,14,03,232,00,138,38,213,46*41
2017-12-29 11:15:16 1514564116.818958: $GPZDA,161517.00,29,12,2017,00,00*6F
2017-12-29 11:15:16 1514564116.819083: $GPGGA,161517,3946.9560,N,08404.9866,W,1,11,0.80,306.84,M,-33.324,M,,*77
2017-12-29 11:15:16 1514564116.819150: $GPRMC,161517,A,3946.9560,N,08404.9866,W,0.0000,0.000,291217,,*3F
2017-12-29 11:15:16 1514564116.819210: $GPGSA,A,3,10,15,18,20,21,24,27,32,8,13,138,,1.7,0.8,1.3*31
2017-12-29 11:15:17 1514564117.369842: $GPZDA,161518.00,29,12,2017,00,00*60
2017-12-29 11:15:17 1514564117.370015: $GPGGA,161518,3946.9564,N,08404.9866,W,1,11,0.80,307.48,M,-33.324,M,,*7D
2017-12-29 11:15:17 1514564117.370082: $GPRMC,161518,A,3946.9564,N,08404.9866,W,0.0000,0.000,291217,,*34
2017-12-29 11:15:17 1514564117.370143: $GPGSA,A,3,10,15,18,20,21,24,27,32,8,13,138,,1.7,0.8,1.3*31
2017-12-29 11:15:18 1514564118.369348: $GPZDA,161519.00,29,12,2017,00,00*61
2017-12-29 11:15:18 1514564118.369525: $GPGGA,161519,3946.9563,N,08404.9859,W,1,11,0.80,307.56,M,-33.324,M,,*78
2017-12-29 11:15:18 1514564118.369591: $GPRMC,161519,A,3946.9563,N,08404.9859,W,0.0000,0.000,291217,,*3E
2017-12-29 11:15:18 1514564118.369652: $GPGSA,A,3,10,15,18,20,21,24,27,32,8,13,138,,1.7,0.8,1.3*31
2017-12-29 11:15:18 1514564118.369710: $GPGBS,161519,10.91,M,10.38,M,30.89,M*04
2017-12-29 11:15:19 1514564119.708554: $GPGSV,3,1,12,10,41,301,42,15,38,052,48,18,71,337,42,20,35,094,48*77
2017-12-29 11:15:19 1514564119.708735: $GPGSV,3,2,12,21,64,190,45,24,50,111,46,27,19,291,37,32,21,238,37*7F
2017-12-29 11:15:19 1514564119.708803: $GPGSV,3,3,12,08,05,324,27,13,08,048,27,14,03,232,00,138,38,213,47*43
2017-12-29 11:15:19 1514564119.822210: $GPZDA,161520.00,29,12,2017,00,00*6B
2017-12-29 11:15:19 1514564119.822346: $GPGGA,161520,3946.9567,N,08404.9858,W,1,11,0.80,306.80,M,-33.324,M,,*7D
2017-12-29 11:15:19 1514564119.822415: $GPRMC,161520,A,3946.9567,N,08404.9858,W,0.0000,0.000,291217,,*31
2017-12-29 11:15:19 1514564119.822478: $GPGSA,A,3,10,15,18,20,21,24,27,32,8,13,138,,1.7,0.8,1.3*31
2017-12-29 11:15:20 1514564120.370563: $GPZDA,161521.00,29,12,2017,00,00*6A
2017-12-29 11:15:20 1514564120.370734: $GPGGA,161521,3946.9580,N,08404.9841,W,2,11,1.40,303.90,M,-33.324,M,,*77
2017-12-29 11:15:20 1514564120.370817: $GPRMC,161521,A,3946.9580,N,08404.9841,W,0.0000,0.000,291217,,*31
2017-12-29 11:15:20 1514564120.370880: $GPGSA,A,3,10,15,18,20,21,24,27,32,8,13,138,,1.7,1.4,1.3*3C
2017-12-29 11:15:21 1514564121.372223: $GPZDA,161522.00,29,12,2017,00,00*69
2017-12-29 11:15:21 1514564121.372401: $GPGGA,161522,3946.9580,N,08404.9841,W,2,11,1.40,303.90,M,-33.324,M,,*74
2017-12-29 11:15:21 1514564121.372469: $GPRMC,161522,A,3946.9580,N,08404.9841,W,0.0000,0.000,291217,,*32
2017-12-29 11:15:21 1514564121.372529: $GPGSA,A,3,10,15,18,20,21,24,27,32,8,13,138,,1.7,1.4,1.3*3C
2017-12-29 11:15:22 1514564122.707668: $GPGSV,3,1,12,10,41,301,42,15,38,052,47,18,71,337,42,20,35,094,48*78
2017-12-29 11:15:22 1514564122.707852: $GPGSV,3,2,12,21,64,190,45,24,50,111,46,27,19,291,37,32,21,238,37*7F
2017-12-29 11:15:22 1514564122.707918: $GPGSV,3,3,12,08,05,324,30,13,08,048,26,14,03,232,00,138,38,213,46*45
2017-12-29 11:15:22 1514564122.820001: $GPZDA,161523.00,29,12,2017,00,00*68
2017-12-29 11:15:22 1514564122.820136: $GPGGA,161523,3946.9580,N,08404.9841,W,2,11,1.40,303.90,M,-33.324,M,,*75
2017-12-29 11:15:22 1514564122.820201: $GPRMC,161523,A,3946.9580,N,08404.9841,W,0.0000,0.000,291217,,*33
2017-12-29 11:15:22 1514564122.820261: $GPGSA,A,3,10,15,18,20,21,24,27,32,8,13,138,,1.7,1.4,1.3*3C
2017-12-29 11:15:23 1514564123.376060: $GPZDA,161524.00,29,12,2017,00,00*6F
2017-12-29 11:15:23 1514564123.376229: $GPGGA,161524,3946.9576,N,08404.9842,W,2,11,1.40,304.66,M,-33.324,M,,*76
2017-12-29 11:15:23 1514564123.376296: $GPRMC,161524,A,3946.9576,N,08404.9842,W,0.0000,0.000,291217,,*3E
2017-12-29 11:15:23 1514564123.376357: $GPGSA,A,3,10,15,18,20,21,24,27,32,8,13,138,,1.7,1.4,1.3*3C
2017-12-29 11:15:24 1514564124.371891: $GPZDA,161525.00,29,12,2017,00,00*6E
2017-12-29 11:15:24 1514564124.372062: $GPGGA,161525,3946.9576,N,08404.9842,W,2,11,0.80,304.66,M,-33.324,M,,*7A
2017-12-29 11:15:24 1514564124.372128: $GPRMC,161525,A,3946.9576,N,08404.9842,W,0.0000,0.000,291217,,*3F
2017-12-29 11:15:24 1514564124.372189: $GPGSA,A,3,10,15,18,20,21,24,27,32,8,13,138,,1.7,0.8,1.3*31
2017-12-29 11:15:25 1514564125.707281: $GPGSV,3,1,12,10,41,301,41,15,38,052,47,18,71,337,42,20,35,094,48*7B
2017-12-29 11:15:25 1514564125.707464: $GPGSV,3,2,12,21,64,190,44,24,50,111,46,27,19,291,36,32,21,238,36*7E
2017-12-29 11:15:25 1514564125.707530: $GPGSV,3,3,12,08,05,324,31,13,08,048,26,14,03,232,00,138,38,213,45*47
2017-12-29 11:15:25 1514564125.820878: $GPZDA,161526.00,29,12,2017,00,00*6D
2017-12-29 11:15:25 1514564125.821016: $GPGGA,161526,3946.9576,N,08404.9842,W,2,11,0.80,304.66,M,-33.324,M,,*79
2017-12-29 11:15:25 1514564125.821192: $GPRMC,161526,A,3946.9576,N,08404.9842,W,0.0000,0.000,291217,,*3C
2017-12-29 11:15:25 1514564125.821329: $GPGSA,A,3,10,15,18,20,21,24,27,32,8,13,138,,1.7,0.8,1.3*31
2017-12-29 11:15:26 1514564126.447528: $GPZDA,161527.00,29,12,2017,00,00*6C
2017-12-29 11:15:26 1514564126.447692: $GPGGA,161527,3946.9576,N,08404.9842,W,2,11,0.80,304.66,M,-33.324,M,,*78
2017-12-29 11:15:26 1514564126.447759: $GPRMC,161527,A,3946.9576,N,08404.9842,W,0.0000,0.000,291217,,*3D
2017-12-29 11:15:26 1514564126.447819: $GPGSA,A,3,10,15,18,20,21,24,27,32,8,13,138,,1.7,0.8,1.3*31
2017-12-29 11:15:27 1514564127.368275: $GPZDA,161528.00,29,12,2017,00,00*63
2017-12-29 11:15:27 1514564127.368433: $GPGGA,161528,3946.9576,N,08404.9842,W,2,11,0.80,304.66,M,-33.324,M,,*77
2017-12-29 11:15:27 1514564127.368499: $GPRMC,161528,A,3946.9576,N,08404.9842,W,0.0000,0.000,291217,,*32
2017-12-29 11:15:27 1514564127.368559: $GPGSA,A,3,10,15,18,20,21,24,27,32,8,13,138,,1.7,0.8,1.3*31
2017-12-29 11:15:28 1514564128.707705: $GPGSV,3,1,12,10,41,301,42,15,38,052,47,18,71,337,42,20,35,094,48*78
2017-12-29 11:15:28 1514564128.707886: $GPGSV,3,2,12,21,64,190,44,24,50,111,46,27,19,291,37,32,21,238,35*7C
2017-12-29 11:15:28 1514564128.707954: $GPGSV,3,3,12,08,05,324,31,13,08,048,26,14,03,232,12,138,38,213,45*44
2017-12-29 11:15:28 1514564128.821440: $GPZDA,161529.00,29,12,2017,00,00*62
2017-12-29 11:15:28 1514564128.821577: $GPGGA,161529,3946.9576,N,08404.9842,W,2,12,1.00,304.66,M,-33.324,M,,*7C
2017-12-29 11:15:28 1514564128.821644: $GPRMC,161529,A,3946.9576,N,08404.9842,W,0.0000,0.000,291217,,*33
2017-12-29 11:15:28 1514564128.821708: $GPGSA,A,3,10,15,18,20,21,24,27,32,8,13,14,138,1.7,1.0,1.3*3D
2017-12-29 11:15:29 1514564129.369772: $GPZDA,161530.00,29,12,2017,00,00*6A
2017-12-29 11:15:29 1514564129.369970: $GPGGA,161530,3946.9576,N,08404.9842,W,2,12,1.00,304.66,M,-33.324,M,,*74
2017-12-29 11:15:29 1514564129.370061: $GPRMC,161530,A,3946.9576,N,08404.9842,W,0.0000,0.000,291217,,*3B
2017-12-29 11:15:29 1514564129.370126: $GPGSA,A,3,10,15,18,20,21,24,27,32,8,13,14,138,1.7,1.0,1.3*3D
2017-12-29 11:15:30 1514564130.371895: $GPZDA,161531.00,29,12,2017,00,00*6B
2017-12-29 11:15:30 1514564130.372063: $GPGGA,161531,3946.9581,N,08404.9842,W,2,12,1.00,305.30,M,-33.324,M,,*7F
2017-12-29 11:15:30 1514564130.372130: $GPRMC,161531,A,3946.9581,N,08404.9842,W,0.0000,0.000,291217,,*32
2017-12-29 11:15:30 1514564130.372215: $GPGSA,A,3,10,15,18,20,21,24,27,32,8,13,14,138,1.7,1.0,1.3*3D
2017-12-29 11:15:30 1514564130.372279: $GPGBS,161531,2.73,M,2.59,M,7.72,M*35
2017-12-29 11:15:31 1514564131.707931: $GPGSV,3,1,12,10,41,301,42,15,38,052,47,18,71,337,42,20,35,094,48*78
2017-12-29 11:15:31 1514564131.708091: $GPGSV,3,2,12,21,64,190,44,24,50,111,46,27,19,291,37,32,21,238,35*7C
2017-12-29 11:15:31 1514564131.708159: $GPGSV,3,3,12,08,05,324,31,13,08,048,26,14,03,232,00,138,38,213,45*47
2017-12-29 11:15:31 1514564131.821690: $GPZDA,161532.00,29,12,2017,00,00*68
2017-12-29 11:15:31 1514564131.821833: $GPGGA,161532,3946.9581,N,08404.9842,W,2,11,1.00,305.30,M,-33.324,M,,*7F
2017-12-29 11:15:31 1514564131.821900: $GPRMC,161532,A,3946.9581,N,08404.9842,W,0.0000,0.000,291217,,*31
2017-12-29 11:15:31 1514564131.821964: $GPGSA,A,3,10,15,18,20,21,24,27,32,8,13,138,,1.7,1.0,1.3*38
2017-12-29 11:15:32 1514564132.372574: $GPZDA,161533.00,29,12,2017,00,00*69
2017-12-29 11:15:32 1514564132.372741: $GPGGA,161533,3946.9581,N,08404.9842,W,2,11,1.00,305.30,M,-33.324,M,,*7E
2017-12-29 11:15:32 1514564132.372810: $GPRMC,161533,A,3946.9581,N,08404.9842,W,0.0000,0.000,291217,,*30
2017-12-29 11:15:32 1514564132.372874: $GPGSA,A,3,10,15,18,20,21,24,27,32,8,13,138,,1.7,1.0,1.3*38
2017-12-29 11:15:33 1514564133.369649: $GPZDA,161534.00,29,12,2017,00,00*6E
2017-12-29 11:15:33 1514564133.369818: $GPGGA,161534,3946.9581,N,08404.9842,W,2,11,1.00,305.30,M,-33.324,M,,*79
2017-12-29 11:15:33 1514564133.369887: $GPRMC,161534,A,3946.9581,N,08404.9842,W,0.1867,0.000,291217,,*3F
2017-12-29 11:15:33 1514564133.369951: $GPGSA,A,3,10,15,18,20,21,24,27,32,8,13,138,,1.7,1.0,1.3*38
2017-12-29 11:15:34 1514564134.706333: $GPGSV,3,1,12,10,41,301,41,15,38,052,46,18,71,337,41,20,35,094,46*77
2017-12-29 11:15:34 1514564134.706544: $GPGSV,3,2,12,21,64,190,43,24,50,111,45,27,19,291,36,32,21,238,34*78
2017-12-29 11:15:34 1514564134.706613: $GPGSV,3,3,12,08,05,324,30,13,08,048,24,14,03,232,00,138,38,213,46*47
2017-12-29 11:15:34 1514564134.820026: $GPZDA,161535.00,29,12,2017,00,00*6F
2017-12-29 11:15:34 1514564134.820182: $GPGGA,161535,3946.9573,N,08404.9843,W,2,11,1.00,305.43,M,-33.324,M,,*70
2017-12-29 11:15:34 1514564134.820249: $GPRMC,161535,A,3946.9573,N,08404.9843,W,0.3006,242.539,291217,,*34
2017-12-29 11:15:34 1514564134.820325: $GPGSA,A,3,10,15,18,20,21,24,27,32,8,13,138,,1.7,1.0,1.3*38
2017-12-29 11:15:35 1514564135.369652: $GPZDA,161536.00,29,12,2017,00,00*6C
2017-12-29 11:15:35 1514564135.369816: $GPGGA,161536,3946.9580,N,08404.9841,W,2,11,1.00,303.90,M,-33.324,M,,*75
2017-12-29 11:15:35 1514564135.369882: $GPRMC,161536,A,3946.9580,N,08404.9841,W,0.5287,2.716,291217,,*3D
2017-12-29 11:15:35 1514564135.369942: $GPGSA,A,3,10,15,18,20,21,24,27,32,8,13,138,,1.7,1.0,1.3*38
