2017-11-16 17:15:09 1510870509.631956: {"class":"VERSION","release":"3.17","rev":"3.17","proto_major":3,"proto_minor":12}
2017-11-16 17:15:09 1510870509.632476: {"class":"DEVICES","devices":[{"class":"DEVICE","path":"/dev/ttyUSB0","driver":"SiRF","subtype":"9\u0006GSD4e_4.1.2-P1_RPATCH.05-F-GPS-4R-1510281 11/03/2015 307","activated":"2017-11-16T22:15:09.306Z","flags":1,"native":1,"bps":4800,"parity":"N","stopbits":1,"cycle":1.00}]}
2017-11-16 17:15:09 1510870509.632594: {"class":"WATCH","enable":true,"json":false,"nmea":true,"raw":0,"scaled":false,"timing":false,"split24":false,"pps":false}
2017-11-16 17:15:09 1510870509.755559: $GPGSV,3,1,12,01,19,309,42,10,57,142,47,22,12,312,42,12,24,058,49*7A
2017-11-16 17:15:09 1510870509.755740: $GPGSV,3,2,12,14,62,310,47,18,26,141,43,24,04,046,22,11,10,289,40*73
2017-11-16 17:15:09 1510870509.755800: $GPGSV,3,3,12,25,36,102,47,31,46,219,49,32,70,001,48,138,38,213,44*45
2017-11-16 17:15:09 1510870509.870794: $GPZDA,221508.00,16,11,2017,00,00*69
2017-11-16 17:15:09 1510870509.870964: $GPGGA,221508,3946.9568,N,08404.9826,W,2,12,0.80,312.81,M,-33.324,M,,*72
2017-11-16 17:15:09 1510870509.871026: $GPRMC,221508,A,3946.9568,N,08404.9826,W,0.0000,0.000,161117,,*35
2017-11-16 17:15:09 1510870509.871083: $GPGSA,A,3,1,10,22,12,14,18,24,11,25,31,32,138,1.6,0.8,1.3*38
2017-11-16 17:15:10 1510870510.419368: $GPZDA,221509.00,16,11,2017,00,00*68
2017-11-16 17:15:10 1510870510.419558: $GPGGA,221509,3946.9568,N,08404.9826,W,2,12,0.80,312.81,M,-33.324,M,,*73
2017-11-16 17:15:10 1510870510.419621: $GPRMC,221509,A,3946.9568,N,08404.9826,W,0.0000,0.000,161117,,*34
2017-11-16 17:15:10 1510870510.419677: $GPGSA,A,3,1,10,22,12,14,18,24,11,25,31,32,138,1.6,0.8,1.3*38
2017-11-16 17:15:11 1510870511.419703: $GPZDA,221510.00,16,11,2017,00,00*60
2017-11-16 17:15:11 1510870511.419869: $GPGGA,221510,3946.9568,N,08404.9826,W,2,12,0.80,312.81,M,-33.324,M,,*7B
2017-11-16 17:15:11 1510870511.419931: $GPRMC,221510,A,3946.9568,N,08404.9826,W,0.0000,0.000,161117,,*3C
2017-11-16 17:15:11 1510870511.419987: $GPGSA,A,3,1,10,22,12,14,18,24,11,25,31,32,138,1.6,0.8,1.3*38
2017-11-16 17:15:12 1510870512.755445: $GPGSV,3,1,12,01,19,309,42,10,57,142,47,22,12,312,42,12,24,058,49*7A
2017-11-16 17:15:12 1510870512.755628: $GPGSV,3,2,12,14,62,310,47,18,26,141,43,24,04,046,00,11,10,289,40*73
2017-11-16 17:15:12 1510870512.755689: $GPGSV,3,3,12,25,36,102,47,31,46,219,49,32,70,001,48,138,38,213,44*45
2017-11-16 17:15:12 1510870512.868756: $GPZDA,221511.00,16,11,2017,00,00*61
2017-11-16 17:15:12 1510870512.868936: $GPGGA,221511,3946.9568,N,08404.9826,W,2,11,0.80,312.81,M,-33.324,M,,*79
2017-11-16 17:15:12 1510870512.869001: $GPRMC,221511,A,3946.9568,N,08404.9826,W,0.0000,0.000,161117,,*3D
2017-11-16 17:15:12 1510870512.869057: $GPGSA,A,3,1,10,22,12,14,18,11,25,31,32,138,,1.6,0.8,1.3*3E
2017-11-16 17:15:13 1510870513.419562: $GPZDA,221512.00,16,11,2017,00,00*62
2017-11-16 17:15:13 1510870513.419737: $GPGGA,221512,3946.9568,N,08404.9826,W,2,11,0.80,312.81,M,-33.324,M,,*7A
2017-11-16 17:15:13 1510870513.419799: $GPRMC,221512,A,3946.9568,N,08404.9826,W,0.0000,0.000,161117,,*3E
2017-11-16 17:15:13 1510870513.419855: $GPGSA,A,3,1,10,22,12,14,18,11,25,31,32,138,,1.6,0.8,1.3*3E
2017-11-16 17:15:14 1510870514.400653: $GPZDA,221513.00,16,11,2017,00,00*63
2017-11-16 17:15:14 1510870514.400831: $GPGGA,221513,3946.9568,N,08404.9826,W,2,11,0.80,312.81,M,-33.324,M,,*7B
2017-11-16 17:15:14 1510870514.400916: $GPRMC,221513,A,3946.9568,N,08404.9826,W,0.0000,0.000,161117,,*3F
2017-11-16 17:15:14 1510870514.400974: $GPGSA,A,3,1,10,22,12,14,18,11,25,31,32,138,,1.6,0.8,1.3*3E
2017-11-16 17:15:15 1510870515.755002: $GPGSV,3,1,12,01,19,309,42,10,57,142,47,22,12,312,41,12,24,058,49*79
2017-11-16 17:15:15 1510870515.755244: $GPGSV,3,2,12,14,62,310,47,18,26,141,42,24,04,046,23,11,10,289,39*7D
2017-11-16 17:15:15 1510870515.755306: $GPGSV,3,3,12,25,36,102,47,31,46,219,48,32,70,001,48,138,38,213,44*44
2017-11-16 17:15:15 1510870515.868337: $GPZDA,221514.00,16,11,2017,00,00*64
2017-11-16 17:15:15 1510870515.868495: $GPGGA,221514,3946.9568,N,08404.9826,W,2,12,0.80,312.81,M,-33.324,M,,*7F
2017-11-16 17:15:15 1510870515.868606: $GPRMC,221514,A,3946.9568,N,08404.9826,W,0.0000,0.000,161117,,*38
2017-11-16 17:15:15 1510870515.868665: $GPGSA,A,3,1,10,22,12,14,18,24,11,25,31,32,138,1.6,0.8,1.3*38
2017-11-16 17:15:16 1510870516.655654: $GPZDA,221515.00,16,11,2017,00,00*65
2017-11-16 17:15:16 1510870516.655838: $GPGGA,221515,3946.9568,N,08404.9826,W,2,12,0.80,312.81,M,-33.324,M,,*7E
2017-11-16 17:15:16 1510870516.655944: $GPRMC,221515,A,3946.9568,N,08404.9826,W,0.0000,0.000,161117,,*39
2017-11-16 17:15:16 1510870516.656007: $GPGSA,A,3,1,10,22,12,14,18,24,11,25,31,32,138,1.6,0.8,1.3*38
2017-11-16 17:15:16 1510870516.656128: $GPGBS,221515,2.07,M,2.72,M,7.42,M*3D
2017-11-16 17:15:17 1510870517.409621: $GPZDA,221516.00,16,11,2017,00,00*66
2017-11-16 17:15:17 1510870517.409809: $GPGGA,221516,3946.9568,N,08404.9826,W,2,12,0.80,312.81,M,-33.324,M,,*7D
2017-11-16 17:15:17 1510870517.409870: $GPRMC,221516,A,3946.9568,N,08404.9826,W,0.0000,0.000,161117,,*3A
2017-11-16 17:15:17 1510870517.409946: $GPGSA,A,3,1,10,22,12,14,18,24,11,25,31,32,138,1.6,0.8,1.3*38
2017-11-16 17:15:17 1510870517.410001: $GPGBS,221516,2.07,M,2.72,M,7.42,M*3E
2017-11-16 17:15:18 1510870518.756632: $GPGSV,3,1,12,01,20,307,42,10,56,144,47,22,13,312,41,12,24,057,49*74
2017-11-16 17:15:18 1510870518.756800: $GPGSV,3,2,12,14,63,313,47,18,25,141,43,24,03,048,00,11,10,288,38*75
2017-11-16 17:15:18 1510870518.756860: $GPGSV,3,3,12,25,37,100,46,31,48,219,49,32,70,006,48,138,38,213,43*49
2017-11-16 17:15:18 1510870518.869985: $GPZDA,221517.00,16,11,2017,00,00*67
2017-11-16 17:15:18 1510870518.870167: $GPGGA,221517,3946.9568,N,08404.9826,W,2,11,0.80,312.81,M,-33.324,M,,*7F
2017-11-16 17:15:18 1510870518.870230: $GPRMC,221517,A,3946.9568,N,08404.9826,W,0.0000,0.000,161117,,*3B
2017-11-16 17:15:18 1510870518.870286: $GPGSA,A,3,1,10,22,12,14,18,11,25,31,32,138,,1.6,0.8,1.3*3E
2017-11-16 17:15:19 1510870519.420803: $GPZDA,221518.00,16,11,2017,00,00*68
2017-11-16 17:15:19 1510870519.420981: $GPGGA,221518,3946.9568,N,08404.9826,W,2,11,0.80,312.81,M,-33.324,M,,*70
2017-11-16 17:15:19 1510870519.421063: $GPRMC,221518,A,3946.9568,N,08404.9826,W,0.0000,0.000,161117,,*34
2017-11-16 17:15:19 1510870519.421120: $GPGSA,A,3,1,10,22,12,14,18,11,25,31,32,138,,1.6,0.8,1.3*3E
