2017-12-01 12:14:59 1512148499.166690: {"class":"VERSION","release":"3.16","rev":"3.16-4","proto_major":3,"proto_minor":11}
2017-12-01 12:14:59 1512148499.167113: {"class":"DEVICES","devices":[{"class":"DEVICE","path":"/dev/ttyUSB0","driver":"SiRF","subtype":"9\u0006GSD4e_4.1.2-P1_RPATCH.05-F-GPS-4R-1510281 11/03/2015 307","activated":"2017-12-01T17:14:58.980Z","flags":1,"native":1,"bps":4800,"parity":"N","stopbits":1,"cycle":1.00}]}
2017-12-01 12:14:59 1512148499.167233: {"class":"WATCH","enable":true,"json":false,"nmea":true,"raw":0,"scaled":false,"timing":false,"split24":false,"pps":false}
2017-12-01 12:14:59 1512148499.389586: $GPZDA,171500.00,01,12,2017,00,00*62
2017-12-01 12:14:59 1512148499.389767: $GPGGA,171500,3946.9578,N,08404.9839,W,2,11,0.80,299.69,M,-33.324,M,,*74
2017-12-01 12:14:59 1512148499.389834: $GPRMC,171500,A,3946.9578,N,08404.9839,W,0.0000,0.000,011217,,*31
2017-12-01 12:14:59 1512148499.389895: $GPGSA,A,3,10,13,15,18,20,21,24,27,5,29,138,,2.0,0.8,1.5*34
2017-12-01 12:15:00 1512148500.387086: $GPZDA,171501.00,01,12,2017,00,00*63
2017-12-01 12:15:00 1512148500.387257: $GPGGA,171501,3946.9578,N,08404.9839,W,2,11,0.80,299.69,M,-33.324,M,,*75
2017-12-01 12:15:00 1512148500.387324: $GPRMC,171501,A,3946.9578,N,08404.9839,W,0.0000,0.000,011217,,*30
2017-12-01 12:15:00 1512148500.387386: $GPGSA,A,3,10,13,15,18,20,21,24,27,5,29,138,,2.0,0.8,1.5*34
2017-12-01 12:15:01 1512148501.727462: $GPGSV,3,1,12,10,22,282,30,13,30,045,45,15,62,052,45,18,53,298,44*79
2017-12-01 12:15:01 1512148501.727648: $GPGSV,3,2,12,20,52,070,46,21,78,274,43,24,32,139,47,27,16,313,41*78
2017-12-01 12:15:01 1512148501.727715: $GPGSV,3,3,12,05,04,087,19,29,11,190,24,04,01,136,00,138,38,213,45*48
2017-12-01 12:15:01 1512148501.840915: $GPZDA,171502.00,01,12,2017,00,00*60
2017-12-01 12:15:01 1512148501.841087: $GPGGA,171502,3946.9578,N,08404.9839,W,2,11,0.80,299.69,M,-33.324,M,,*76
2017-12-01 12:15:01 1512148501.841155: $GPRMC,171502,A,3946.9578,N,08404.9839,W,0.0000,0.000,011217,,*33
2017-12-01 12:15:01 1512148501.841218: $GPGSA,A,3,10,13,15,18,20,21,24,27,5,29,138,,2.0,0.8,1.5*34
2017-12-01 12:15:02 1512148502.406687: $GPZDA,171503.00,01,12,2017,00,00*61
2017-12-01 12:15:02 1512148502.406869: $GPGGA,171503,3946.9578,N,08404.9839,W,2,11,0.80,299.69,M,-33.324,M,,*77
2017-12-01 12:15:02 1512148502.406935: $GPRMC,171503,A,3946.9578,N,08404.9839,W,0.0000,0.000,011217,,*32
2017-12-01 12:15:02 1512148502.406997: $GPGSA,A,3,10,13,15,18,20,21,24,27,5,29,138,,2.0,0.8,1.5*34
2017-12-01 12:15:03 1512148503.392210: $GPZDA,171504.00,01,12,2017,00,00*66
2017-12-01 12:15:03 1512148503.392380: $GPGGA,171504,3946.9578,N,08404.9839,W,2,11,0.80,299.69,M,-33.324,M,,*70
2017-12-01 12:15:03 1512148503.392448: $GPRMC,171504,A,3946.9578,N,08404.9839,W,0.0000,0.000,011217,,*35
2017-12-01 12:15:03 1512148503.392510: $GPGSA,A,3,10,13,15,18,20,21,24,27,5,29,138,,2.0,0.8,1.5*34
2017-12-01 12:15:04 1512148504.727873: $GPGSV,3,1,12,10,22,282,33,13,30,045,44,15,62,052,45,18,53,298,45*7A
2017-12-01 12:15:04 1512148504.728053: $GPGSV,3,2,12,20,52,070,45,21,78,274,43,24,32,139,47,27,16,313,40*7A
2017-12-01 12:15:04 1512148504.728119: $GPGSV,3,3,12,05,04,087,19,29,11,190,18,04,01,136,00,138,38,213,45*47
2017-12-01 12:15:04 1512148504.841260: $GPZDA,171505.00,01,12,2017,00,00*67
2017-12-01 12:15:04 1512148504.841496: $GPGGA,171505,3946.9578,N,08404.9839,W,2,11,0.80,299.69,M,-33.324,M,,*71
2017-12-01 12:15:04 1512148504.841566: $GPRMC,171505,A,3946.9578,N,08404.9839,W,0.0000,0.000,011217,,*34
2017-12-01 12:15:04 1512148504.841629: $GPGSA,A,3,10,13,15,18,20,21,24,27,5,29,138,,2.0,0.8,1.5*34
2017-12-01 12:15:05 1512148505.405864: $GPZDA,171506.00,01,12,2017,00,00*64
2017-12-01 12:15:05 1512148505.406035: $GPGGA,171506,3946.9578,N,08404.9839,W,2,11,0.80,299.69,M,-33.324,M,,*72
2017-12-01 12:15:05 1512148505.406102: $GPRMC,171506,A,3946.9578,N,08404.9839,W,0.0000,0.000,011217,,*37
2017-12-01 12:15:05 1512148505.406163: $GPGSA,A,3,10,13,15,18,20,21,24,27,5,29,138,,2.0,0.8,1.5*34
2017-12-01 12:15:06 1512148506.406707: $GPZDA,171507.00,01,12,2017,00,00*65
2017-12-01 12:15:06 1512148506.406932: $GPGGA,171507,3946.9578,N,08404.9839,W,2,11,0.80,299.69,M,-33.324,M,,*73
2017-12-01 12:15:06 1512148506.407001: $GPRMC,171507,A,3946.9578,N,08404.9839,W,0.0000,0.000,011217,,*36
2017-12-01 12:15:06 1512148506.407063: $GPGSA,A,3,10,13,15,18,20,21,24,27,5,29,138,,2.0,0.8,1.5*34
2017-12-01 12:15:07 1512148507.726195: $GPGSV,3,1,12,10,22,282,33,13,30,045,44,15,62,052,45,18,53,298,45*7A
2017-12-01 12:15:07 1512148507.726376: $GPGSV,3,2,12,20,52,070,45,21,78,274,43,24,32,139,47,27,16,313,41*7B
2017-12-01 12:15:07 1512148507.726441: $GPGSV,3,3,12,05,04,087,20,29,11,190,18,04,01,136,00,138,38,213,46*4E
2017-12-01 12:15:07 1512148507.839696: $GPZDA,171508.00,01,12,2017,00,00*6A
2017-12-01 12:15:07 1512148507.839888: $GPGGA,171508,3946.9578,N,08404.9839,W,2,11,0.80,299.69,M,-33.324,M,,*7C
2017-12-01 12:15:07 1512148507.839955: $GPRMC,171508,A,3946.9578,N,08404.9839,W,0.0000,0.000,011217,,*39
2017-12-01 12:15:07 1512148507.840017: $GPGSA,A,3,10,13,15,18,20,21,24,27,5,29,138,,2.0,0.8,1.5*34
2017-12-01 12:15:08 1512148508.465209: $GPZDA,171509.00,01,12,2017,00,00*6B
2017-12-01 12:15:08 1512148508.465401: $GPGGA,171509,3946.9578,N,08404.9839,W,2,11,0.80,299.69,M,-33.324,M,,*7D
2017-12-01 12:15:08 1512148508.465490: $GPRMC,171509,A,3946.9578,N,08404.9839,W,0.0000,0.000,011217,,*38
2017-12-01 12:15:08 1512148508.465555: $GPGSA,A,3,10,13,15,18,20,21,24,27,5,29,138,,2.0,0.8,1.5*34
