2017-12-31 17:53:51 1514760831.016786: {"class":"VERSION","release":"3.16","rev":"3.16-4","proto_major":3,"proto_minor":11}
2017-12-31 17:53:51 1514760831.017189: {"class":"DEVICES","devices":[{"class":"DEVICE","path":"/dev/ttyUSB0","driver":"SiRF","activated":"2017-12-31T22:53:50.480Z","flags":1,"native":1,"bps":4800,"parity":"N","stopbits":1,"cycle":1.00}]}
2017-12-31 17:53:51 1514760831.017307: {"class":"WATCH","enable":true,"json":false,"nmea":true,"raw":0,"scaled":false,"timing":false,"split24":false,"pps":false}
2017-12-31 17:53:51 1514760831.682150: $GPGSV,3,1,11,22,28,219,41,23,47,309,44,09,14,312,45,03,37,241,45*7A
2017-12-31 17:53:51 1514760831.682320: $GPGSV,3,2,11,16,73,192,43,29,08,036,35,14,21,130,27,31,33,069,42*7C
2017-12-31 17:53:51 1514760831.682385: $GPGSV,3,3,11,27,16,157,28,26,69,057,46,135,22,240,43*7F
2017-12-31 17:53:51 1514760831.795508: $GPZDA,225352.00,31,12,2017,00,00*62
2017-12-31 17:53:51 1514760831.795631: $GPGGA,225352,3946.9566,N,08404.9858,W,2,11,0.60,305.39,M,-33.324,M,,*70
2017-12-31 17:53:51 1514760831.795696: $GPRMC,225352,A,3946.9566,N,08404.9858,W,0.0000,0.000,311217,,*39
2017-12-31 17:53:51 1514760831.795756: $GPGSA,A,3,22,23,9,3,16,29,14,31,27,26,135,,1.7,0.6,1.3*06
2017-12-31 17:53:52 1514760832.346709: $GPZDA,225353.00,31,12,2017,00,00*63
2017-12-31 17:53:52 1514760832.346879: $GPGGA,225353,3946.9566,N,08404.9858,W,2,11,0.60,305.39,M,-33.324,M,,*71
2017-12-31 17:53:52 1514760832.346947: $GPRMC,225353,A,3946.9566,N,08404.9858,W,0.0000,0.000,311217,,*38
2017-12-31 17:53:52 1514760832.347007: $GPGSA,A,3,22,23,9,3,16,29,14,31,27,26,135,,1.7,0.6,1.3*06
2017-12-31 17:53:53 1514760833.346051: $GPZDA,225354.00,31,12,2017,00,00*64
2017-12-31 17:53:53 1514760833.346222: $GPGGA,225354,3946.9566,N,08404.9858,W,2,11,0.60,305.39,M,-33.324,M,,*76
2017-12-31 17:53:53 1514760833.346290: $GPRMC,225354,A,3946.9566,N,08404.9858,W,0.0000,0.000,311217,,*3F
2017-12-31 17:53:53 1514760833.346352: $GPGSA,A,3,22,23,9,3,16,29,14,31,27,26,135,,1.7,0.6,1.3*06
2017-12-31 17:53:54 1514760834.675521: $GPGSV,3,1,11,22,28,219,42,23,47,309,44,09,14,312,45,03,37,241,45*79
2017-12-31 17:53:54 1514760834.675689: $GPGSV,3,2,11,16,73,192,43,29,08,036,35,14,21,130,27,31,33,069,42*7C
2017-12-31 17:53:54 1514760834.675755: $GPGSV,3,3,11,27,16,157,28,26,69,057,47,135,22,240,44*79
2017-12-31 17:53:54 1514760834.788959: $GPZDA,225355.00,31,12,2017,00,00*65
2017-12-31 17:53:54 1514760834.789086: $GPGGA,225355,3946.9566,N,08404.9858,W,2,11,0.60,305.39,M,-33.324,M,,*77
2017-12-31 17:53:54 1514760834.789149: $GPRMC,225355,A,3946.9566,N,08404.9858,W,0.0000,0.000,311217,,*3E
2017-12-31 17:53:54 1514760834.789209: $GPGSA,A,3,22,23,9,3,16,29,14,31,27,26,135,,1.7,0.6,1.3*06
2017-12-31 17:53:55 1514760835.414368: $GPZDA,225356.00,31,12,2017,00,00*66
2017-12-31 17:53:55 1514760835.414537: $GPGGA,225356,3946.9566,N,08404.9858,W,2,11,0.60,305.39,M,-33.324,M,,*74
2017-12-31 17:53:55 1514760835.414604: $GPRMC,225356,A,3946.9566,N,08404.9858,W,0.0000,0.000,311217,,*3D
2017-12-31 17:53:55 1514760835.414664: $GPGSA,A,3,22,23,9,3,16,29,14,31,27,26,135,,1.7,0.6,1.3*06
2017-12-31 17:53:56 1514760836.372648: $GPZDA,225357.00,31,12,2017,00,00*67
2017-12-31 17:53:56 1514760836.372810: $GPGGA,225357,3946.9566,N,08404.9858,W,2,11,0.60,305.39,M,-33.324,M,,*75
2017-12-31 17:53:56 1514760836.372877: $GPRMC,225357,A,3946.9566,N,08404.9858,W,0.0000,0.000,311217,,*3C
2017-12-31 17:53:56 1514760836.372939: $GPGSA,A,3,22,23,9,3,16,29,14,31,27,26,135,,1.7,0.6,1.3*06
2017-12-31 17:53:57 1514760837.708369: $GPGSV,3,1,11,22,28,219,42,23,47,309,44,09,14,312,44,03,37,241,45*78
2017-12-31 17:53:57 1514760837.708536: $GPGSV,3,2,11,16,73,192,43,29,08,036,35,14,21,130,28,31,33,069,42*73
2017-12-31 17:53:57 1514760837.708601: $GPGSV,3,3,11,27,16,157,28,26,69,057,47,135,22,240,44*79
2017-12-31 17:53:57 1514760837.822036: $GPZDA,225358.00,31,12,2017,00,00*68
2017-12-31 17:53:57 1514760837.822166: $GPGGA,225358,3946.9566,N,08404.9858,W,2,11,0.60,305.39,M,-33.324,M,,*7A
2017-12-31 17:53:57 1514760837.822230: $GPRMC,225358,A,3946.9566,N,08404.9858,W,0.0000,0.000,311217,,*33
2017-12-31 17:53:57 1514760837.822335: $GPGSA,A,3,22,23,9,3,16,29,14,31,27,26,135,,1.7,0.6,1.3*06
2017-12-31 17:53:58 1514760838.371495: $GPZDA,225359.00,31,12,2017,00,00*69
2017-12-31 17:53:58 1514760838.371654: $GPGGA,225359,3946.9566,N,08404.9858,W,2,11,0.60,305.39,M,-33.324,M,,*7B
2017-12-31 17:53:58 1514760838.371721: $GPRMC,225359,A,3946.9566,N,08404.9858,W,0.0000,0.000,311217,,*32
2017-12-31 17:53:58 1514760838.371782: $GPGSA,A,3,22,23,9,3,16,29,14,31,27,26,135,,1.7,0.6,1.3*06
2017-12-31 17:53:59 1514760839.371075: $GPZDA,225400.00,31,12,2017,00,00*62
2017-12-31 17:53:59 1514760839.371238: $GPGGA,225400,3946.9566,N,08404.9858,W,2,11,0.60,305.39,M,-33.324,M,,*70
2017-12-31 17:53:59 1514760839.371304: $GPRMC,225400,A,3946.9566,N,08404.9858,W,0.0000,0.000,311217,,*39
2017-12-31 17:53:59 1514760839.371365: $GPGSA,A,3,22,23,9,3,16,29,14,31,27,26,135,,1.7,0.6,1.3*06
2017-12-31 17:54:00 1514760840.681218: $GPGSV,3,1,11,22,28,219,42,23,47,309,44,09,14,312,44,03,37,241,46*7B
2017-12-31 17:54:00 1514760840.681389: $GPGSV,3,2,11,16,73,192,43,29,08,036,35,14,21,130,29,31,33,069,43*73
2017-12-31 17:54:00 1514760840.681454: $GPGSV,3,3,11,27,16,157,29,26,69,057,47,135,22,240,44*78
2017-12-31 17:54:00 1514760840.794832: $GPZDA,225401.00,31,12,2017,00,00*63
2017-12-31 17:54:00 1514760840.795002: $GPGGA,225401,3946.9566,N,08404.9858,W,2,11,0.60,305.39,M,-33.324,M,,*71
2017-12-31 17:54:00 1514760840.795110: $GPRMC,225401,A,3946.9566,N,08404.9858,W,0.0000,0.000,311217,,*38
2017-12-31 17:54:00 1514760840.795171: $GPGSA,A,3,22,23,9,3,16,29,14,31,27,26,135,,1.7,0.6,1.3*06
