2017-12-29 11:40:34 1514565634.266490: {"class":"VERSION","release":"3.16","rev":"3.16-4","proto_major":3,"proto_minor":11}
2017-12-29 11:40:34 1514565634.266958: {"class":"DEVICES","devices":[{"class":"DEVICE","path":"/dev/ttyUSB0","driver":"SiRF","subtype":"9\u0006GSD4e_4.1.2-P1_RPATCH.05-F-GPS-4R-1510281 11/03/2015 307","activated":"2017-12-29T16:40:34.227Z","flags":1,"native":1,"bps":4800,"parity":"N","stopbits":1,"cycle":1.00}]}
2017-12-29 11:40:34 1514565634.267084: {"class":"WATCH","enable":true,"json":false,"nmea":true,"raw":0,"scaled":false,"timing":false,"split24":false,"pps":false}
2017-12-29 11:40:34 1514565634.677080: $GPGSV,3,1,11,08,07,315,39,10,50,309,45,15,28,055,48,18,76,010,45*7C
2017-12-29 11:40:34 1514565634.677248: $GPGSV,3,2,11,20,27,103,48,21,52,184,46,24,53,093,51,27,17,279,30*78
2017-12-29 11:40:34 1514565634.677313: $GPGSV,3,3,11,32,30,246,40,14,11,238,30,138,38,213,45*70
2017-12-29 11:40:34 1514565634.790461: $GPZDA,164035.00,29,12,2017,00,00*6F
2017-12-29 11:40:34 1514565634.790639: $GPGGA,164035,3946.9594,N,08404.9790,W,2,11,0.80,339.80,M,-33.324,M,,*71
2017-12-29 11:40:34 1514565634.790706: $GPRMC,164035,A,3946.9594,N,08404.9790,W,0.0000,0.000,291217,,*32
2017-12-29 11:40:34 1514565634.790766: $GPGSA,A,3,8,10,15,18,20,21,24,27,32,14,138,,1.7,0.8,1.3*36
2017-12-29 11:40:35 1514565635.327595: $GPZDA,164036.00,29,12,2017,00,00*6C
2017-12-29 11:40:35 1514565635.327773: $GPGGA,164036,3946.9594,N,08404.9790,W,2,11,0.80,339.80,M,-33.324,M,,*72
2017-12-29 11:40:35 1514565635.327840: $GPRMC,164036,A,3946.9594,N,08404.9790,W,0.0000,0.000,291217,,*31
2017-12-29 11:40:35 1514565635.327900: $GPGSA,A,3,8,10,15,18,20,21,24,27,32,14,138,,1.7,0.8,1.3*36
2017-12-29 11:40:36 1514565636.345957: $GPZDA,164037.00,29,12,2017,00,00*6D
2017-12-29 11:40:36 1514565636.346138: $GPGGA,164037,3946.9594,N,08404.9790,W,2,11,0.80,339.80,M,-33.324,M,,*73
2017-12-29 11:40:36 1514565636.346205: $GPRMC,164037,A,3946.9594,N,08404.9790,W,0.0000,0.000,291217,,*30
2017-12-29 11:40:36 1514565636.346265: $GPGSA,A,3,8,10,15,18,20,21,24,27,32,14,138,,1.7,0.8,1.3*36
2017-12-29 11:40:37 1514565637.666238: $GPGSV,3,1,11,08,07,315,39,10,50,309,45,15,28,055,48,18,76,010,44*7D
2017-12-29 11:40:37 1514565637.666413: $GPGSV,3,2,11,20,27,103,48,21,52,184,46,24,53,093,51,27,17,279,30*78
2017-12-29 11:40:37 1514565637.666479: $GPGSV,3,3,11,32,30,246,40,14,11,238,31,138,38,213,46*72
2017-12-29 11:40:37 1514565637.779777: $GPZDA,164038.00,29,12,2017,00,00*62
2017-12-29 11:40:37 1514565637.779947: $GPGGA,164038,3946.9594,N,08404.9790,W,2,11,0.80,339.80,M,-33.324,M,,*7C
2017-12-29 11:40:37 1514565637.780012: $GPRMC,164038,A,3946.9594,N,08404.9790,W,0.0000,0.000,291217,,*3F
2017-12-29 11:40:37 1514565637.780073: $GPGSA,A,3,8,10,15,18,20,21,24,27,32,14,138,,1.7,0.8,1.3*36
2017-12-29 11:40:38 1514565638.344286: $GPZDA,164039.00,29,12,2017,00,00*63
2017-12-29 11:40:38 1514565638.347516: $GPGGA,164039,3946.9598,N,08404.9790,W,2,11,0.80,340.44,M,-33.324,M,,*77
2017-12-29 11:40:38 1514565638.347627: $GPRMC,164039,A,3946.9598,N,08404.9790,W,0.0000,0.000,291217,,*32
2017-12-29 11:40:38 1514565638.347725: $GPGSA,A,3,8,10,15,18,20,21,24,27,32,14,138,,1.7,0.8,1.3*36
2017-12-29 11:40:39 1514565639.338896: $GPZDA,164040.00,29,12,2017,00,00*6D
2017-12-29 11:40:39 1514565639.339070: $GPGGA,164040,3946.9598,N,08404.9790,W,2,11,0.80,340.44,M,-33.324,M,,*79
2017-12-29 11:40:39 1514565639.339136: $GPRMC,164040,A,3946.9598,N,08404.9790,W,0.0000,0.000,291217,,*3C
2017-12-29 11:40:39 1514565639.339196: $GPGSA,A,3,8,10,15,18,20,21,24,27,32,14,138,,1.7,0.8,1.3*36
2017-12-29 11:40:40 1514565640.666183: $GPGSV,3,1,11,08,07,315,38,10,50,309,44,15,28,055,48,18,76,010,44*7D
2017-12-29 11:40:40 1514565640.666359: $GPGSV,3,2,11,20,27,103,48,21,52,184,46,24,53,093,51,27,17,279,30*78
2017-12-29 11:40:40 1514565640.666425: $GPGSV,3,3,11,32,30,246,40,14,11,238,00,138,38,213,46*70
2017-12-29 11:40:40 1514565640.779665: $GPZDA,164041.00,29,12,2017,00,00*6C
2017-12-29 11:40:40 1514565640.779831: $GPGGA,164041,3946.9595,N,08404.9791,W,2,10,1.00,341.20,M,-33.324,M,,*7F
2017-12-29 11:40:40 1514565640.779951: $GPRMC,164041,A,3946.9595,N,08404.9791,W,0.0000,0.000,291217,,*31
2017-12-29 11:40:40 1514565640.780013: $GPGSA,A,3,8,10,15,18,20,21,24,27,32,138,,,1.7,1.0,1.3*3A
2017-12-29 11:40:41 1514565641.339249: $GPZDA,164042.00,29,12,2017,00,00*6F
2017-12-29 11:40:41 1514565641.339417: $GPGGA,164042,3946.9595,N,08404.9791,W,2,10,1.00,341.20,M,-33.324,M,,*7C
2017-12-29 11:40:41 1514565641.339481: $GPRMC,164042,A,3946.9595,N,08404.9791,W,0.0000,0.000,291217,,*32
2017-12-29 11:40:41 1514565641.339565: $GPGSA,A,3,8,10,15,18,20,21,24,27,32,138,,,1.7,1.0,1.3*3A
2017-12-29 11:40:42 1514565642.328024: $GPZDA,164043.00,29,12,2017,00,00*6E
2017-12-29 11:40:42 1514565642.328198: $GPGGA,164043,3946.9595,N,08404.9791,W,2,10,1.00,341.20,M,-33.324,M,,*7D
2017-12-29 11:40:42 1514565642.328263: $GPRMC,164043,A,3946.9595,N,08404.9791,W,0.0000,0.000,291217,,*33
2017-12-29 11:40:42 1514565642.328324: $GPGSA,A,3,8,10,15,18,20,21,24,27,32,138,,,1.7,1.0,1.3*3A
2017-12-29 11:40:43 1514565643.664990: $GPGSV,3,1,11,08,07,315,37,10,50,309,44,15,28,055,48,18,76,010,44*72
2017-12-29 11:40:43 1514565643.665144: $GPGSV,3,2,11,20,27,103,48,21,52,184,47,24,53,093,51,27,17,279,30*79
2017-12-29 11:40:43 1514565643.665210: $GPGSV,3,3,11,32,30,246,41,14,11,238,22,138,38,213,45*72
2017-12-29 11:40:43 1514565643.778387: $GPZDA,164044.00,29,12,2017,00,00*69
2017-12-29 11:40:43 1514565643.778578: $GPGGA,164044,3946.9595,N,08404.9791,W,2,11,0.80,341.20,M,-33.324,M,,*72
2017-12-29 11:40:43 1514565643.778662: $GPRMC,164044,A,3946.9595,N,08404.9791,W,0.0000,0.000,291217,,*34
2017-12-29 11:40:43 1514565643.778724: $GPGSA,A,3,8,10,15,18,20,21,24,27,32,14,138,,1.7,0.8,1.3*36
2017-12-29 11:40:44 1514565644.328003: $GPZDA,164045.00,29,12,2017,00,00*68
2017-12-29 11:40:44 1514565644.328175: $GPGGA,164045,3946.9595,N,08404.9791,W,2,11,0.80,341.20,M,-33.324,M,,*73
2017-12-29 11:40:44 1514565644.328241: $GPRMC,164045,A,3946.9595,N,08404.9791,W,0.0000,0.000,291217,,*35
2017-12-29 11:40:44 1514565644.328301: $GPGSA,A,3,8,10,15,18,20,21,24,27,32,14,138,,1.7,0.8,1.3*36
2017-12-29 11:40:45 1514565645.323890: $GPZDA,164046.00,29,12,2017,00,00*6B
2017-12-29 11:40:45 1514565645.324060: $GPGGA,164046,3946.9595,N,08404.9791,W,2,11,1.00,341.20,M,-33.324,M,,*79
2017-12-29 11:40:45 1514565645.324125: $GPRMC,164046,A,3946.9595,N,08404.9791,W,0.0000,0.000,291217,,*36
2017-12-29 11:40:45 1514565645.324186: $GPGSA,A,3,8,10,15,18,20,21,24,27,32,14,138,,1.7,1.0,1.3*3F
2017-12-29 11:40:46 1514565646.668342: $GPGSV,3,1,11,08,07,315,37,10,50,309,44,15,28,055,48,18,76,010,44*72
2017-12-29 11:40:46 1514565646.668541: $GPGSV,3,2,11,20,27,103,48,21,52,184,47,24,53,093,51,27,17,279,18*73
2017-12-29 11:40:46 1514565646.668608: $GPGSV,3,3,11,32,30,246,40,14,11,238,11,138,38,213,44*72
2017-12-29 11:40:46 1514565646.781803: $GPZDA,164047.00,29,12,2017,00,00*6A
2017-12-29 11:40:46 1514565646.781937: $GPGGA,164047,3946.9595,N,08404.9791,W,2,10,1.00,341.20,M,-33.324,M,,*79
2017-12-29 11:40:46 1514565646.782004: $GPRMC,164047,A,3946.9595,N,08404.9791,W,0.0000,0.000,291217,,*37
2017-12-29 11:40:46 1514565646.782064: $GPGSA,A,3,8,10,15,18,20,21,24,27,32,138,,,1.7,1.0,1.3*3A
2017-12-29 11:40:47 1514565647.407709: $GPZDA,164048.00,29,12,2017,00,00*65
2017-12-29 11:40:47 1514565647.407894: $GPGGA,164048,3946.9595,N,08404.9791,W,2,10,1.00,341.20,M,-33.324,M,,*76
2017-12-29 11:40:47 1514565647.407961: $GPRMC,164048,A,3946.9595,N,08404.9791,W,0.0000,0.000,291217,,*38
2017-12-29 11:40:47 1514565647.408033: $GPGSA,A,3,8,10,15,18,20,21,24,27,32,138,,,1.7,1.0,1.3*3A
2017-12-29 11:40:48 1514565648.329891: $GPZDA,164049.00,29,12,2017,00,00*64
2017-12-29 11:40:48 1514565648.330056: $GPGGA,164049,3946.9595,N,08404.9784,W,2,10,0.80,341.28,M,-33.324,M,,*72
2017-12-29 11:40:48 1514565648.330138: $GPRMC,164049,A,3946.9595,N,08404.9784,W,0.0000,0.000,291217,,*3D
2017-12-29 11:40:48 1514565648.330199: $GPGSA,A,3,8,10,15,18,20,21,24,27,32,138,,,1.7,0.8,1.3*33
