2018-01-11 19:38:46 1515717526.057362: {"class":"VERSION","release":"3.16","rev":"3.16-4","proto_major":3,"proto_minor":11}
2018-01-11 19:38:46 1515717526.057723: {"class":"DEVICES","devices":[{"class":"DEVICE","path":"/dev/ttyUSB0","driver":"SiRF","subtype":"9\u0006GSD4e_4.1.2-P1_RPATCH.05-F-GPS-4R-1510281 11/03/2015 307","activated":"2018-01-12T00:38:45.580Z","flags":1,"native":1,"bps":4800,"parity":"N","stopbits":1,"cycle":1.00}]}
2018-01-11 19:38:46 1515717526.057837: {"class":"WATCH","enable":true,"json":false,"nmea":true,"raw":0,"scaled":false,"timing":false,"split24":false,"pps":false}
2018-01-11 19:38:46 1515717526.369356: $GPZDA,003847.00,12,01,2018,00,00*67
2018-01-11 19:38:46 1515717526.369542: $GPGGA,003847,3946.9612,N,08404.9838,W,2,11,0.80,315.48,M,-33.324,M,,*76
2018-01-11 19:38:46 1515717526.369610: $GPRMC,003847,A,3946.9612,N,08404.9838,W,0.0000,0.000,120118,,*3A
2018-01-11 19:38:46 1515717526.369670: $GPGSA,A,3,7,8,9,16,23,27,30,11,28,26,138,,4.0,0.8,3.5*3A
2018-01-11 19:38:47 1515717527.703525: $GPGSV,3,1,12,07,42,309,34,08,60,160,45,09,56,252,41,16,35,051,48*7F
2018-01-11 19:38:47 1515717527.703677: $GPGSV,3,2,12,23,44,196,45,27,57,072,50,30,17,300,26,11,08,172,30*7F
2018-01-11 19:38:47 1515717527.703742: $GPGSV,3,3,12,28,04,247,22,26,09,064,22,21,02,033,04,138,38,213,45*4F
2018-01-11 19:38:47 1515717527.817124: $GPZDA,003848.00,12,01,2018,00,00*68
2018-01-11 19:38:47 1515717527.817249: $GPGGA,003848,3946.9612,N,08404.9838,W,2,11,0.80,315.48,M,-33.324,M,,*79
2018-01-11 19:38:47 1515717527.817331: $GPRMC,003848,A,3946.9612,N,08404.9838,W,0.0000,0.000,120118,,*35
2018-01-11 19:38:47 1515717527.817394: $GPGSA,A,3,7,8,9,16,23,27,30,11,28,26,138,,4.0,0.8,3.5*3A
2018-01-11 19:38:48 1515717528.375279: $GPZDA,003849.00,12,01,2018,00,00*69
2018-01-11 19:38:48 1515717528.375500: $GPGGA,003849,3946.9609,N,08404.9839,W,2,11,1.00,316.24,M,-33.324,M,,*73
2018-01-11 19:38:48 1515717528.375568: $GPRMC,003849,A,3946.9609,N,08404.9839,W,0.0000,0.000,120118,,*3F
2018-01-11 19:38:48 1515717528.375629: $GPGSA,A,3,7,8,9,16,23,27,30,11,28,26,138,,4.0,1.0,3.5*33
2018-01-11 19:38:49 1515717529.367626: $GPZDA,003850.00,12,01,2018,00,00*61
2018-01-11 19:38:49 1515717529.367789: $GPGGA,003850,3946.9609,N,08404.9839,W,2,11,1.00,316.24,M,-33.324,M,,*7B
2018-01-11 19:38:49 1515717529.367855: $GPRMC,003850,A,3946.9609,N,08404.9839,W,0.0000,0.000,120118,,*37
2018-01-11 19:38:49 1515717529.367915: $GPGSA,A,3,7,8,9,16,23,27,30,11,28,26,138,,4.0,1.0,3.5*33
2018-01-11 19:38:50 1515717530.706368: $GPGSV,3,1,12,07,42,309,34,08,60,160,45,09,56,252,41,16,35,051,48*7F
2018-01-11 19:38:50 1515717530.706581: $GPGSV,3,2,12,23,44,196,45,27,57,072,50,30,17,300,08,11,08,172,30*73
2018-01-11 19:38:50 1515717530.706647: $GPGSV,3,3,12,28,04,247,28,26,09,064,22,21,02,033,04,138,38,213,44*44
2018-01-11 19:38:50 1515717530.820029: $GPZDA,003851.00,12,01,2018,00,00*60
2018-01-11 19:38:50 1515717530.820179: $GPGGA,003851,3946.9613,N,08404.9839,W,2,10,1.00,316.88,M,-33.324,M,,*76
2018-01-11 19:38:50 1515717530.820244: $GPRMC,003851,A,3946.9613,N,08404.9839,W,0.0000,0.000,120118,,*3D
2018-01-11 19:38:50 1515717530.820327: $GPGSA,A,3,7,8,9,16,23,27,11,28,26,138,,,4.0,1.0,3.5*30
2018-01-11 19:38:51 1515717531.365856: $GPZDA,003852.00,12,01,2018,00,00*63
2018-01-11 19:38:51 1515717531.366016: $GPGGA,003852,3946.9613,N,08404.9839,W,2,10,1.00,316.88,M,-33.324,M,,*75
2018-01-11 19:38:51 1515717531.366082: $GPRMC,003852,A,3946.9613,N,08404.9839,W,0.0000,0.000,120118,,*3E
2018-01-11 19:38:51 1515717531.366142: $GPGSA,A,3,7,8,9,16,23,27,11,28,26,138,,,4.0,1.0,3.5*30
2018-01-11 19:38:52 1515717532.365456: $GPZDA,003853.00,12,01,2018,00,00*62
2018-01-11 19:38:52 1515717532.365630: $GPGGA,003853,3946.9613,N,08404.9839,W,2,10,1.00,316.88,M,-33.324,M,,*74
2018-01-11 19:38:52 1515717532.365695: $GPRMC,003853,A,3946.9613,N,08404.9839,W,0.0000,0.000,120118,,*3F
2018-01-11 19:38:52 1515717532.365756: $GPGSA,A,3,7,8,9,16,23,27,11,28,26,138,,,4.0,1.0,3.5*30
2018-01-11 19:38:53 1515717533.718430: $GPGSV,3,1,12,07,42,309,34,08,60,160,45,09,56,252,41,16,35,051,48*7F
2018-01-11 19:38:53 1515717533.718651: $GPGSV,3,2,12,23,44,196,45,27,57,072,50,30,17,300,00,11,08,172,30*7B
2018-01-11 19:38:53 1515717533.718720: $GPGSV,3,3,12,28,04,247,28,26,09,064,23,21,02,033,04,138,38,213,45*44
2018-01-11 19:38:53 1515717533.832030: $GPZDA,003854.00,12,01,2018,00,00*65
2018-01-11 19:38:53 1515717533.832166: $GPGGA,003854,3946.9617,N,08404.9839,W,2,10,1.00,317.52,M,-33.324,M,,*71
2018-01-11 19:38:53 1515717533.832253: $GPRMC,003854,A,3946.9617,N,08404.9839,W,0.0000,0.000,120118,,*3C
2018-01-11 19:38:53 1515717533.832316: $GPGSA,A,3,7,8,9,16,23,27,11,28,26,138,,,4.0,1.0,3.5*30
