2017-12-29 10:55:24 1514562924.146863: {"class":"VERSION","release":"3.16","rev":"3.16-4","proto_major":3,"proto_minor":11}
2017-12-29 10:55:24 1514562924.147199: {"class":"DEVICES","devices":[{"class":"DEVICE","path":"/dev/ttyUSB0","driver":"SiRF","subtype":"9\u0006GSD4e_4.1.2-P1_RPATCH.05-F-GPS-4R-1510281 11/03/2015 307","activated":"2017-12-29T15:55:23.497Z","flags":1,"native":1,"bps":4800,"parity":"N","stopbits":1,"cycle":1.00}]}
2017-12-29 10:55:24 1514562924.147310: {"class":"WATCH","enable":true,"json":false,"nmea":true,"raw":0,"scaled":false,"timing":false,"split24":false,"pps":false}
2017-12-29 10:55:24 1514562924.730188: $GPGSV,3,1,11,10,34,294,43,13,16,046,40,15,46,049,49,18,65,319,44*71
2017-12-29 10:55:24 1514562924.730350: $GPGSV,3,2,11,20,42,087,50,21,73,204,47,24,45,124,50,27,19,300,38*74
2017-12-29 10:55:24 1514562924.730415: $GPGSV,3,3,11,32,14,232,32,08,02,330,19,138,38,213,44*7C
2017-12-29 10:55:24 1514562924.843810: $GPZDA,155525.00,29,12,2017,00,00*69
2017-12-29 10:55:24 1514562924.843931: $GPGGA,155525,3946.9624,N,08404.9787,W,2,11,0.80,314.38,M,-33.324,M,,*75
2017-12-29 10:55:24 1514562924.843995: $GPRMC,155525,A,3946.9624,N,08404.9787,W,0.0000,0.000,291217,,*3A
2017-12-29 10:55:24 1514562924.844055: $GPGSA,A,3,10,13,15,18,20,21,24,27,32,8,138,,1.7,0.8,1.3*31
2017-12-29 10:55:25 1514562925.358180: $GPZDA,155526.00,29,12,2017,00,00*6A
2017-12-29 10:55:25 1514562925.358341: $GPGGA,155526,3946.9624,N,08404.9787,W,2,11,0.80,314.38,M,-33.324,M,,*76
2017-12-29 10:55:25 1514562925.358408: $GPRMC,155526,A,3946.9624,N,08404.9787,W,0.0000,0.000,291217,,*39
2017-12-29 10:55:25 1514562925.358470: $GPGSA,A,3,10,13,15,18,20,21,24,27,32,8,138,,1.7,0.8,1.3*31
2017-12-29 10:55:26 1514562926.395059: $GPZDA,155527.00,29,12,2017,00,00*6B
2017-12-29 10:55:26 1514562926.395219: $GPGGA,155527,3946.9624,N,08404.9787,W,2,11,0.80,314.38,M,-33.324,M,,*77
2017-12-29 10:55:26 1514562926.395285: $GPRMC,155527,A,3946.9624,N,08404.9787,W,0.0000,0.000,291217,,*38
2017-12-29 10:55:26 1514562926.395346: $GPGSA,A,3,10,13,15,18,20,21,24,27,32,8,138,,1.7,0.8,1.3*31
2017-12-29 10:55:27 1514562927.724297: $GPGSV,3,1,11,10,34,294,43,13,16,046,40,15,46,049,49,18,65,319,44*71
2017-12-29 10:55:27 1514562927.724460: $GPGSV,3,2,11,20,42,087,50,21,73,204,47,24,45,124,50,27,19,300,38*74
2017-12-29 10:55:27 1514562927.724527: $GPGSV,3,3,11,32,14,232,32,08,02,330,17,138,38,213,44*72
2017-12-29 10:55:27 1514562927.837902: $GPZDA,155528.00,29,12,2017,00,00*64
2017-12-29 10:55:27 1514562927.838020: $GPGGA,155528,3946.9624,N,08404.9787,W,2,11,0.80,314.38,M,-33.324,M,,*78
2017-12-29 10:55:27 1514562927.838083: $GPRMC,155528,A,3946.9624,N,08404.9787,W,0.0000,0.000,291217,,*37
2017-12-29 10:55:27 1514562927.838143: $GPGSA,A,3,10,13,15,18,20,21,24,27,32,8,138,,1.7,0.8,1.3*31
2017-12-29 10:55:28 1514562928.356307: $GPZDA,155529.00,29,12,2017,00,00*65
2017-12-29 10:55:28 1514562928.356471: $GPGGA,155529,3946.9624,N,08404.9787,W,2,11,0.80,314.38,M,-33.324,M,,*79
2017-12-29 10:55:28 1514562928.356537: $GPRMC,155529,A,3946.9624,N,08404.9787,W,0.0000,0.000,291217,,*36
2017-12-29 10:55:28 1514562928.356598: $GPGSA,A,3,10,13,15,18,20,21,24,27,32,8,138,,1.7,0.8,1.3*31
2017-12-29 10:55:29 1514562929.389875: $GPZDA,155530.00,29,12,2017,00,00*6D
2017-12-29 10:55:29 1514562929.390035: $GPGGA,155530,3946.9624,N,08404.9787,W,2,11,0.80,314.38,M,-33.324,M,,*71
2017-12-29 10:55:29 1514562929.390102: $GPRMC,155530,A,3946.9624,N,08404.9787,W,0.0000,0.000,291217,,*3E
2017-12-29 10:55:29 1514562929.390163: $GPGSA,A,3,10,13,15,18,20,21,24,27,32,8,138,,1.7,0.8,1.3*31
2017-12-29 10:55:30 1514562930.732678: $GPGSV,3,1,11,10,34,294,43,13,16,046,39,15,46,049,49,18,65,319,44*7F
2017-12-29 10:55:30 1514562930.732848: $GPGSV,3,2,11,20,42,087,50,21,73,204,47,24,45,124,50,27,19,300,38*74
2017-12-29 10:55:30 1514562930.732913: $GPGSV,3,3,11,32,14,232,33,08,02,330,15,138,38,213,44*71
2017-12-29 10:55:30 1514562930.845994: $GPZDA,155531.00,29,12,2017,00,00*6C
2017-12-29 10:55:30 1514562930.846109: $GPGGA,155531,3946.9624,N,08404.9787,W,2,11,0.80,314.38,M,-33.324,M,,*70
2017-12-29 10:55:30 1514562930.846228: $GPRMC,155531,A,3946.9624,N,08404.9787,W,0.0000,0.000,291217,,*3F
2017-12-29 10:55:30 1514562930.846291: $GPGSA,A,3,10,13,15,18,20,21,24,27,32,8,138,,1.7,0.8,1.3*31
2017-12-29 10:55:31 1514562931.471446: $GPZDA,155532.00,29,12,2017,00,00*6F
2017-12-29 10:55:31 1514562931.471605: $GPGGA,155532,3946.9624,N,08404.9787,W,2,11,0.80,314.38,M,-33.324,M,,*73
2017-12-29 10:55:31 1514562931.471672: $GPRMC,155532,A,3946.9624,N,08404.9787,W,0.0000,0.000,291217,,*3C
2017-12-29 10:55:31 1514562931.471733: $GPGSA,A,3,10,13,15,18,20,21,24,27,32,8,138,,1.7,0.8,1.3*31
2017-12-29 10:55:32 1514562932.395038: $GPZDA,155533.00,29,12,2017,00,00*6E
2017-12-29 10:55:32 1514562932.395237: $GPGGA,155533,3946.9624,N,08404.9787,W,2,11,0.80,314.38,M,-33.324,M,,*72
2017-12-29 10:55:32 1514562932.395309: $GPRMC,155533,A,3946.9624,N,08404.9787,W,0.0000,0.000,291217,,*3D
2017-12-29 10:55:32 1514562932.395373: $GPGSA,A,3,10,13,15,18,20,21,24,27,32,8,138,,1.7,0.8,1.3*31
2017-12-29 10:55:33 1514562933.688029: $GPGSV,3,1,11,10,34,294,44,13,16,046,39,15,46,049,50,18,65,319,44*70
2017-12-29 10:55:33 1514562933.688211: $GPGSV,3,2,11,20,42,087,50,21,73,204,46,24,45,124,50,27,19,300,39*74
2017-12-29 10:55:33 1514562933.688282: $GPGSV,3,3,11,32,14,232,33,08,02,330,26,138,38,213,46*73
2017-12-29 10:55:33 1514562933.801791: $GPZDA,155534.00,29,12,2017,00,00*69
2017-12-29 10:55:33 1514562933.801935: $GPGGA,155534,3946.9624,N,08404.9787,W,2,11,0.80,314.38,M,-33.324,M,,*75
2017-12-29 10:55:33 1514562933.802002: $GPRMC,155534,A,3946.9624,N,08404.9787,W,0.0000,0.000,291217,,*3A
2017-12-29 10:55:33 1514562933.802066: $GPGSA,A,3,10,13,15,18,20,21,24,27,32,8,138,,1.7,0.8,1.3*31
2017-12-29 10:55:34 1514562934.396285: $GPZDA,155535.00,29,12,2017,00,00*68
2017-12-29 10:55:34 1514562934.396456: $GPGGA,155535,3946.9624,N,08404.9787,W,2,11,0.80,314.38,M,-33.324,M,,*74
2017-12-29 10:55:34 1514562934.396526: $GPRMC,155535,A,3946.9624,N,08404.9787,W,0.0000,0.000,291217,,*3B
2017-12-29 10:55:34 1514562934.396590: $GPGSA,A,3,10,13,15,18,20,21,24,27,32,8,138,,1.7,0.8,1.3*31
2017-12-29 10:55:35 1514562935.388402: $GPZDA,155536.00,29,12,2017,00,00*6B
2017-12-29 10:55:35 1514562935.388573: $GPGGA,155536,3946.9624,N,08404.9787,W,2,11,0.80,314.38,M,-33.324,M,,*77
2017-12-29 10:55:35 1514562935.388641: $GPRMC,155536,A,3946.9624,N,08404.9787,W,0.0000,0.000,291217,,*38
2017-12-29 10:55:35 1514562935.388705: $GPGSA,A,3,10,13,15,18,20,21,24,27,32,8,138,,1.7,0.8,1.3*31
2017-12-29 10:55:36 1514562936.692128: $GPGSV,3,1,11,10,34,294,44,13,16,046,39,15,46,049,50,18,65,319,44*70
2017-12-29 10:55:36 1514562936.692292: $GPGSV,3,2,11,20,42,087,50,21,73,204,47,24,45,124,50,27,19,300,39*75
2017-12-29 10:55:36 1514562936.692363: $GPGSV,3,3,11,32,14,232,34,08,02,330,27,138,38,213,44*77
2017-12-29 10:55:36 1514562936.805742: $GPZDA,155537.00,29,12,2017,00,00*6A
2017-12-29 10:55:36 1514562936.805882: $GPGGA,155537,3946.9624,N,08404.9787,W,2,11,0.80,314.38,M,-33.324,M,,*76
2017-12-29 10:55:36 1514562936.805951: $GPRMC,155537,A,3946.9624,N,08404.9787,W,0.0000,0.000,291217,,*39
2017-12-29 10:55:36 1514562936.806014: $GPGSA,A,3,10,13,15,18,20,21,24,27,32,8,138,,1.7,0.8,1.3*31
2017-12-29 10:55:37 1514562937.357918: $GPZDA,155538.00,29,12,2017,00,00*65
2017-12-29 10:55:37 1514562937.358094: $GPGGA,155538,3946.9624,N,08404.9787,W,2,11,0.80,314.38,M,-33.324,M,,*79
2017-12-29 10:55:37 1514562937.358163: $GPRMC,155538,A,3946.9624,N,08404.9787,W,0.0000,0.000,291217,,*36
2017-12-29 10:55:37 1514562937.358226: $GPGSA,A,3,10,13,15,18,20,21,24,27,32,8,138,,1.7,0.8,1.3*31
2017-12-29 10:55:38 1514562938.357517: $GPZDA,155539.00,29,12,2017,00,00*64
2017-12-29 10:55:38 1514562938.357704: $GPGGA,155539,3946.9624,N,08404.9787,W,2,11,0.80,314.38,M,-33.324,M,,*78
2017-12-29 10:55:38 1514562938.357775: $GPRMC,155539,A,3946.9624,N,08404.9787,W,0.0000,0.000,291217,,*37
2017-12-29 10:55:38 1514562938.357839: $GPGSA,A,3,10,13,15,18,20,21,24,27,32,8,138,,1.7,0.8,1.3*31
2017-12-29 10:55:39 1514562939.691746: $GPGSV,3,1,11,10,34,294,44,13,16,046,40,15,46,049,50,18,65,319,44*7E
2017-12-29 10:55:39 1514562939.691960: $GPGSV,3,2,11,20,42,087,50,21,73,204,47,24,45,124,50,27,19,300,39*75
2017-12-29 10:55:39 1514562939.692047: $GPGSV,3,3,11,32,14,232,34,08,02,330,27,138,38,213,44*77
2017-12-29 10:55:39 1514562939.805404: $GPZDA,155540.00,29,12,2017,00,00*6A
2017-12-29 10:55:39 1514562939.805530: $GPGGA,155540,3946.9624,N,08404.9787,W,2,11,0.80,314.38,M,-33.324,M,,*76
2017-12-29 10:55:39 1514562939.805596: $GPRMC,155540,A,3946.9624,N,08404.9787,W,0.0000,0.000,291217,,*39
2017-12-29 10:55:39 1514562939.805657: $GPGSA,A,3,10,13,15,18,20,21,24,27,32,8,138,,1.7,0.8,1.3*31
2017-12-29 10:55:40 1514562940.351334: $GPZDA,155541.00,29,12,2017,00,00*6B
2017-12-29 10:55:40 1514562940.351490: $GPGGA,155541,3946.9624,N,08404.9787,W,2,11,0.80,314.38,M,-33.324,M,,*77
2017-12-29 10:55:40 1514562940.351557: $GPRMC,155541,A,3946.9624,N,08404.9787,W,0.0000,0.000,291217,,*38
2017-12-29 10:55:40 1514562940.351617: $GPGSA,A,3,10,13,15,18,20,21,24,27,32,8,138,,1.7,0.8,1.3*31
2017-12-29 10:55:41 1514562941.356673: $GPZDA,155542.00,29,12,2017,00,00*68
2017-12-29 10:55:41 1514562941.356826: $GPGGA,155542,3946.9624,N,08404.9787,W,2,11,0.80,314.38,M,-33.324,M,,*74
2017-12-29 10:55:41 1514562941.356893: $GPRMC,155542,A,3946.9624,N,08404.9787,W,0.0000,0.000,291217,,*3B
2017-12-29 10:55:41 1514562941.356954: $GPGSA,A,3,10,13,15,18,20,21,24,27,32,8,138,,1.7,0.8,1.3*31
2017-12-29 10:55:42 1514562942.692153: $GPGSV,3,1,11,10,34,294,45,13,16,046,39,15,46,049,49,18,65,319,44*79
2017-12-29 10:55:42 1514562942.692315: $GPGSV,3,2,11,20,42,087,50,21,73,204,47,24,45,124,50,27,19,300,38*74
2017-12-29 10:55:42 1514562942.692380: $GPGSV,3,3,11,32,14,232,35,08,02,330,27,138,38,213,44*76
2017-12-29 10:55:42 1514562942.805747: $GPZDA,155543.00,29,12,2017,00,00*69
2017-12-29 10:55:42 1514562942.805881: $GPGGA,155543,3946.9624,N,08404.9787,W,2,11,0.80,314.38,M,-33.324,M,,*75
2017-12-29 10:55:42 1514562942.805947: $GPRMC,155543,A,3946.9624,N,08404.9787,W,0.0000,0.000,291217,,*3A
2017-12-29 10:55:42 1514562942.806008: $GPGSA,A,3,10,13,15,18,20,21,24,27,32,8,138,,1.7,0.8,1.3*31
2017-12-29 10:55:43 1514562943.357912: $GPZDA,155544.00,29,12,2017,00,00*6E
2017-12-29 10:55:43 1514562943.358081: $GPGGA,155544,3946.9624,N,08404.9787,W,2,11,0.80,314.38,M,-33.324,M,,*72
2017-12-29 10:55:43 1514562943.358147: $GPRMC,155544,A,3946.9624,N,08404.9787,W,0.0000,0.000,291217,,*3D
2017-12-29 10:55:43 1514562943.358207: $GPGSA,A,3,10,13,15,18,20,21,24,27,32,8,138,,1.7,0.8,1.3*31
