2017-12-31 18:38:16 1514763496.538299: {"class":"VERSION","release":"3.16","rev":"3.16-4","proto_major":3,"proto_minor":11}
2017-12-31 18:38:16 1514763496.538652: {"class":"DEVICES","devices":[{"class":"DEVICE","path":"/dev/ttyUSB0","driver":"SiRF","activated":"2017-12-31T23:38:16.529Z","flags":1,"native":1,"bps":4800,"parity":"N","stopbits":1,"cycle":1.00}]}
2017-12-31 18:38:16 1514763496.538749: {"class":"WATCH","enable":true,"json":false,"nmea":true,"raw":0,"scaled":false,"timing":false,"split24":false,"pps":false}
2017-12-31 18:38:17 1514763497.352012: $GPZDA,233818.00,31,12,2017,00,00*60
2017-12-31 18:38:17 1514763497.352180: $GPGGA,233818,3946.9578,N,08404.9837,W,2,12,0.80,308.95,M,-33.324,M,,*72
2017-12-31 18:38:17 1514763497.352247: $GPRMC,233818,A,3946.9578,N,08404.9837,W,0.0000,0.000,311217,,*3D
2017-12-31 18:38:17 1514763497.352307: $GPGSA,A,3,22,23,9,3,16,8,14,31,27,7,26,135,1.7,0.8,1.3*0C
2017-12-31 18:38:18 1514763498.687772: $GPGSV,3,1,12,22,12,207,23,23,64,292,38,09,31,312,42,03,22,225,38*7E
2017-12-31 18:38:18 1514763498.687918: $GPGSV,3,2,12,16,83,042,41,08,11,177,20,14,04,138,19,31,20,084,40*74
2017-12-31 18:38:18 1514763498.687983: $GPGSV,3,3,12,27,34,147,38,07,06,280,41,26,50,046,46,135,22,240,44*4F
2017-12-31 18:38:18 1514763498.801120: $GPZDA,233819.00,31,12,2017,00,00*61
2017-12-31 18:38:18 1514763498.801242: $GPGGA,233819,3946.9582,N,08404.9837,W,2,12,0.80,308.19,M,-33.324,M,,*72
2017-12-31 18:38:18 1514763498.801306: $GPRMC,233819,A,3946.9582,N,08404.9837,W,0.0000,0.000,311217,,*39
2017-12-31 18:38:18 1514763498.801365: $GPGSA,A,3,22,23,9,3,16,8,14,31,27,7,26,135,1.7,0.8,1.3*0C
2017-12-31 18:38:19 1514763499.345766: $GPZDA,233820.00,31,12,2017,00,00*6B
2017-12-31 18:38:19 1514763499.345924: $GPGGA,233820,3946.9582,N,08404.9837,W,2,12,0.80,308.19,M,-33.324,M,,*78
2017-12-31 18:38:19 1514763499.345989: $GPRMC,233820,A,3946.9582,N,08404.9837,W,0.0000,0.000,311217,,*33
2017-12-31 18:38:19 1514763499.346049: $GPGSA,A,3,22,23,9,3,16,8,14,31,27,7,26,135,1.7,0.8,1.3*0C
2017-12-31 18:38:20 1514763500.344867: $GPZDA,233821.00,31,12,2017,00,00*6A
2017-12-31 18:38:20 1514763500.345025: $GPGGA,233821,3946.9582,N,08404.9837,W,2,12,0.80,308.19,M,-33.324,M,,*79
2017-12-31 18:38:20 1514763500.345092: $GPRMC,233821,A,3946.9582,N,08404.9837,W,0.0000,0.000,311217,,*32
2017-12-31 18:38:20 1514763500.345152: $GPGSA,A,3,22,23,9,3,16,8,14,31,27,7,26,135,1.7,0.8,1.3*0C
2017-12-31 18:38:21 1514763501.688109: $GPGSV,3,1,12,22,12,207,23,23,64,292,39,09,31,312,42,03,22,225,36*71
2017-12-31 18:38:21 1514763501.698572: $GPGSV,3,2,12,16,83,042,42,08,11,177,21,14,04,138,18,31,20,084,40*77
2017-12-31 18:38:21 1514763501.698684: $GPGSV,3,3,12,27,34,147,38,07,06,280,42,26,50,046,46,135,22,240,43*4B
2017-12-31 18:38:21 1514763501.801462: $GPZDA,233822.00,31,12,2017,00,00*69
2017-12-31 18:38:21 1514763501.801592: $GPGGA,233822,3946.9582,N,08404.9837,W,2,12,0.80,308.19,M,-33.324,M,,*7A
2017-12-31 18:38:21 1514763501.801675: $GPRMC,233822,A,3946.9582,N,08404.9837,W,0.0000,0.000,311217,,*31
2017-12-31 18:38:21 1514763501.801737: $GPGSA,A,3,22,23,9,3,16,8,14,31,27,7,26,135,1.7,0.8,1.3*0C
2017-12-31 18:38:22 1514763502.352350: $GPZDA,233823.00,31,12,2017,00,00*68
2017-12-31 18:38:22 1514763502.352508: $GPGGA,233823,3946.9582,N,08404.9837,W,2,12,0.80,308.19,M,-33.324,M,,*7B
2017-12-31 18:38:22 1514763502.352574: $GPRMC,233823,A,3946.9582,N,08404.9837,W,0.0000,0.000,311217,,*30
2017-12-31 18:38:22 1514763502.352634: $GPGSA,A,3,22,23,9,3,16,8,14,31,27,7,26,135,1.7,0.8,1.3*0C
2017-12-31 18:38:23 1514763503.352166: $GPZDA,233824.00,31,12,2017,00,00*6F
2017-12-31 18:38:23 1514763503.352342: $GPGGA,233824,3946.9582,N,08404.9837,W,2,12,0.80,308.19,M,-33.324,M,,*7C
2017-12-31 18:38:23 1514763503.352412: $GPRMC,233824,A,3946.9582,N,08404.9837,W,0.0000,0.000,311217,,*37
2017-12-31 18:38:23 1514763503.352476: $GPGSA,A,3,22,23,9,3,16,8,14,31,27,7,26,135,1.7,0.8,1.3*0C
2017-12-31 18:38:24 1514763504.723968: $GPGSV,3,1,12,22,12,207,23,23,64,292,38,09,31,312,41,03,22,225,32*77
2017-12-31 18:38:24 1514763504.724151: $GPGSV,3,2,12,16,83,042,42,08,11,177,22,14,04,138,18,31,20,084,40*74
2017-12-31 18:38:24 1514763504.724274: $GPGSV,3,3,12,27,34,147,38,07,06,280,42,26,50,046,46,135,22,240,44*4C
2017-12-31 18:38:24 1514763504.837422: $GPZDA,233825.00,31,12,2017,00,00*6E
2017-12-31 18:38:24 1514763504.837547: $GPGGA,233825,3946.9582,N,08404.9837,W,2,12,0.80,308.19,M,-33.324,M,,*7D
2017-12-31 18:38:24 1514763504.837612: $GPRMC,233825,A,3946.9582,N,08404.9837,W,0.0000,0.000,311217,,*36
2017-12-31 18:38:24 1514763504.837672: $GPGSA,A,3,22,23,9,3,16,8,14,31,27,7,26,135,1.7,0.8,1.3*0C
2017-12-31 18:38:25 1514763505.463949: $GPZDA,233826.00,31,12,2017,00,00*6D
2017-12-31 18:38:25 1514763505.464115: $GPGGA,233826,3946.9582,N,08404.9837,W,2,12,0.80,308.19,M,-33.324,M,,*7E
2017-12-31 18:38:25 1514763505.464182: $GPRMC,233826,A,3946.9582,N,08404.9837,W,0.0000,0.000,311217,,*35
2017-12-31 18:38:25 1514763505.464243: $GPGSA,A,3,22,23,9,3,16,8,14,31,27,7,26,135,1.7,0.8,1.3*0C
2017-12-31 18:38:26 1514763506.352340: $GPZDA,233827.00,31,12,2017,00,00*6C
2017-12-31 18:38:26 1514763506.352514: $GPGGA,233827,3946.9582,N,08404.9837,W,2,12,0.80,308.19,M,-33.324,M,,*7F
2017-12-31 18:38:26 1514763506.352582: $GPRMC,233827,A,3946.9582,N,08404.9837,W,0.0000,0.000,311217,,*34
2017-12-31 18:38:26 1514763506.352642: $GPGSA,A,3,22,23,9,3,16,8,14,31,27,7,26,135,1.7,0.8,1.3*0C
