2017-12-01 12:12:49 1512148369.696683: {"class":"VERSION","release":"3.16","rev":"3.16-4","proto_major":3,"proto_minor":11}
2017-12-01 12:12:49 1512148369.697070: {"class":"DEVICES","devices":[{"class":"DEVICE","path":"/dev/ttyUSB0","driver":"SiRF","subtype":"9\u0006GSD4e_4.1.2-P1_RPATCH.05-F-GPS-4R-1510281 11/03/2015 307","activated":"2017-12-01T17:12:49.303Z","flags":1,"native":1,"bps":4800,"parity":"N","stopbits":1,"cycle":1.00}]}
2017-12-01 12:12:49 1512148369.697189: {"class":"WATCH","enable":true,"json":false,"nmea":true,"raw":0,"scaled":false,"timing":false,"split24":false,"pps":false}
2017-12-01 12:12:49 1512148369.752146: $GPGSV,3,1,12,10,22,282,41,13,31,045,45,15,63,052,44,18,53,298,46*7C
2017-12-01 12:12:49 1512148369.753647: $GPGSV,3,2,12,20,53,069,47,21,77,277,44,24,31,139,44,27,15,315,37*7F
2017-12-01 12:12:49 1512148369.753750: $GPGSV,3,3,12,29,12,190,31,05,05,085,20,04,02,135,00,138,38,213,46*45
2017-12-01 12:12:49 1512148369.865795: $GPZDA,171250.00,01,12,2017,00,00*60
2017-12-01 12:12:49 1512148369.865978: $GPGGA,171250,3946.9588,N,08404.9831,W,2,11,0.80,298.88,M,-33.324,M,,*7F
2017-12-01 12:12:49 1512148369.866045: $GPRMC,171250,A,3946.9588,N,08404.9831,W,0.0000,0.000,011217,,*34
2017-12-01 12:12:49 1512148369.866106: $GPGSA,A,3,10,13,15,18,20,21,24,27,29,5,138,,2.0,0.8,1.5*34
2017-12-01 12:12:50 1512148370.415543: $GPZDA,171251.00,01,12,2017,00,00*61
2017-12-01 12:12:50 1512148370.415747: $GPGGA,171251,3946.9588,N,08404.9831,W,2,11,0.80,298.88,M,-33.324,M,,*7E
2017-12-01 12:12:50 1512148370.415835: $GPRMC,171251,A,3946.9588,N,08404.9831,W,0.0000,0.000,011217,,*35
2017-12-01 12:12:50 1512148370.415899: $GPGSA,A,3,10,13,15,18,20,21,24,27,29,5,138,,2.0,0.8,1.5*34
2017-12-01 12:12:51 1512148371.415990: $GPZDA,171252.00,01,12,2017,00,00*62
2017-12-01 12:12:51 1512148371.416163: $GPGGA,171252,3946.9588,N,08404.9831,W,2,11,0.80,298.88,M,-33.324,M,,*7D
2017-12-01 12:12:51 1512148371.416230: $GPRMC,171252,A,3946.9588,N,08404.9831,W,0.0000,0.000,011217,,*36
2017-12-01 12:12:51 1512148371.416292: $GPGSA,A,3,10,13,15,18,20,21,24,27,29,5,138,,2.0,0.8,1.5*34
2017-12-01 12:12:52 1512148372.751250: $GPGSV,3,1,12,10,22,282,40,13,31,045,45,15,63,052,44,18,53,298,46*7D
2017-12-01 12:12:52 1512148372.751509: $GPGSV,3,2,12,20,53,069,47,21,77,277,44,24,31,139,44,27,15,315,36*7E
2017-12-01 12:12:52 1512148372.751579: $GPGSV,3,3,12,29,12,190,31,05,05,085,19,04,02,135,00,138,38,213,46*4F
2017-12-01 12:12:52 1512148372.865009: $GPZDA,171253.00,01,12,2017,00,00*63
2017-12-01 12:12:52 1512148372.865174: $GPGGA,171253,3946.9588,N,08404.9831,W,2,11,0.80,298.88,M,-33.324,M,,*7C
2017-12-01 12:12:52 1512148372.865240: $GPRMC,171253,A,3946.9588,N,08404.9831,W,0.0000,0.000,011217,,*37
2017-12-01 12:12:52 1512148372.865301: $GPGSA,A,3,10,13,15,18,20,21,24,27,29,5,138,,2.0,0.8,1.5*34
2017-12-01 12:12:53 1512148373.417091: $GPZDA,171254.00,01,12,2017,00,00*64
2017-12-01 12:12:53 1512148373.417251: $GPGGA,171254,3946.9588,N,08404.9831,W,2,11,0.80,298.88,M,-33.324,M,,*7B
2017-12-01 12:12:53 1512148373.417318: $GPRMC,171254,A,3946.9588,N,08404.9831,W,0.0000,0.000,011217,,*30
2017-12-01 12:12:53 1512148373.417378: $GPGSA,A,3,10,13,15,18,20,21,24,27,29,5,138,,2.0,0.8,1.5*34
2017-12-01 12:12:54 1512148374.419261: $GPZDA,171255.00,01,12,2017,00,00*65
2017-12-01 12:12:54 1512148374.419432: $GPGGA,171255,3946.9588,N,08404.9831,W,2,11,0.80,298.88,M,-33.324,M,,*7A
2017-12-01 12:12:54 1512148374.419500: $GPRMC,171255,A,3946.9588,N,08404.9831,W,0.0000,0.000,011217,,*31
2017-12-01 12:12:54 1512148374.419560: $GPGSA,A,3,10,13,15,18,20,21,24,27,29,5,138,,2.0,0.8,1.5*34
2017-12-01 12:12:55 1512148375.750904: $GPGSV,3,1,12,10,22,282,41,13,31,045,45,15,63,052,44,18,53,298,46*7C
2017-12-01 12:12:55 1512148375.751090: $GPGSV,3,2,12,20,53,069,47,21,77,277,44,24,31,139,44,27,15,315,36*7E
2017-12-01 12:12:55 1512148375.751156: $GPGSV,3,3,12,29,12,190,26,05,05,085,19,04,02,135,00,138,38,213,46*49
2017-12-01 12:12:55 1512148375.863418: $GPZDA,171256.00,01,12,2017,00,00*66
2017-12-01 12:12:55 1512148375.863592: $GPGGA,171256,3946.9588,N,08404.9831,W,2,11,0.80,298.88,M,-33.324,M,,*79
2017-12-01 12:12:55 1512148375.863710: $GPRMC,171256,A,3946.9588,N,08404.9831,W,0.0000,0.000,011217,,*32
2017-12-01 12:12:55 1512148375.863774: $GPGSA,A,3,10,13,15,18,20,21,24,27,29,5,138,,2.0,0.8,1.5*34
2017-12-01 12:12:56 1512148376.489945: $GPZDA,171257.00,01,12,2017,00,00*67
2017-12-01 12:12:56 1512148376.490112: $GPGGA,171257,3946.9585,N,08404.9832,W,2,11,0.80,299.64,M,-33.324,M,,*75
2017-12-01 12:12:56 1512148376.490178: $GPRMC,171257,A,3946.9585,N,08404.9832,W,0.0000,0.000,011217,,*3D
2017-12-01 12:12:56 1512148376.490240: $GPGSA,A,3,10,13,15,18,20,21,24,27,29,5,138,,2.0,0.8,1.5*34
2017-12-01 12:12:57 1512148377.417012: $GPZDA,171258.00,01,12,2017,00,00*68
2017-12-01 12:12:57 1512148377.417182: $GPGGA,171258,3946.9585,N,08404.9832,W,2,11,0.80,299.64,M,-33.324,M,,*7A
2017-12-01 12:12:57 1512148377.417249: $GPRMC,171258,A,3946.9585,N,08404.9832,W,0.0000,0.000,011217,,*32
2017-12-01 12:12:57 1512148377.417310: $GPGSA,A,3,10,13,15,18,20,21,24,27,29,5,138,,2.0,0.8,1.5*34
2017-12-01 12:12:58 1512148378.754983: $GPGSV,3,1,12,10,22,282,41,13,31,045,45,15,63,052,44,18,53,298,46*7C
2017-12-01 12:12:58 1512148378.755165: $GPGSV,3,2,12,20,53,069,46,21,77,277,44,24,31,139,44,27,15,315,37*7E
2017-12-01 12:12:58 1512148378.755231: $GPGSV,3,3,12,29,12,190,26,05,05,085,20,04,02,135,00,138,38,213,46*43
2017-12-01 12:12:58 1512148378.868693: $GPZDA,171259.00,01,12,2017,00,00*69
2017-12-01 12:12:58 1512148378.868863: $GPGGA,171259,3946.9585,N,08404.9832,W,2,11,0.80,299.64,M,-33.324,M,,*7B
2017-12-01 12:12:58 1512148378.868929: $GPRMC,171259,A,3946.9585,N,08404.9832,W,0.0000,0.000,011217,,*33
2017-12-01 12:12:58 1512148378.868991: $GPGSA,A,3,10,13,15,18,20,21,24,27,29,5,138,,2.0,0.8,1.5*34
2017-12-01 12:12:59 1512148379.417028: $GPZDA,171300.00,01,12,2017,00,00*64
2017-12-01 12:12:59 1512148379.417198: $GPGGA,171300,3946.9585,N,08404.9832,W,2,11,0.80,299.64,M,-33.324,M,,*76
2017-12-01 12:12:59 1512148379.417265: $GPRMC,171300,A,3946.9585,N,08404.9832,W,0.0000,0.000,011217,,*3E
2017-12-01 12:12:59 1512148379.417326: $GPGSA,A,3,10,13,15,18,20,21,24,27,29,5,138,,2.0,0.8,1.5*34
