2018-01-11 20:13:48 1515719628.415965: {"class":"VERSION","release":"3.16","rev":"3.16-4","proto_major":3,"proto_minor":11}
2018-01-11 20:13:48 1515719628.416302: {"class":"DEVICES","devices":[{"class":"DEVICE","path":"/dev/ttyUSB0","driver":"SiRF","subtype":"9\u0006GSD4e_4.1.2-P1_RPATCH.05-F-GPS-4R-1510281 11/03/2015 307","activated":"2018-01-12T01:13:48.393Z","flags":1,"native":1,"bps":4800,"parity":"N","stopbits":1,"cycle":1.00}]}
2018-01-11 20:13:48 1515719628.416419: {"class":"WATCH","enable":true,"json":false,"nmea":true,"raw":0,"scaled":false,"timing":false,"split24":false,"pps":false}
2018-01-11 20:13:49 1515719629.742583: $GPGSV,3,1,10,07,57,315,42,08,74,127,45,09,47,228,42,11,21,166,46*74
2018-01-11 20:13:49 1515719629.742758: $GPGSV,3,2,10,16,22,061,45,23,28,189,49,27,46,052,50,28,15,259,40*7F
2018-01-11 20:13:49 1515719629.742828: $GPGSV,3,3,10,30,30,306,36,138,38,213,45*48
2018-01-11 20:13:49 1515719629.856218: $GPZDA,011350.00,12,01,2018,00,00*69
2018-01-11 20:13:49 1515719629.856339: $GPGGA,011350,3946.9575,N,08404.9834,W,2,10,0.80,301.93,M,-33.324,M,,*74
2018-01-11 20:13:49 1515719629.856402: $GPRMC,011350,A,3946.9575,N,08404.9834,W,0.0000,0.000,120118,,*3A
2018-01-11 20:13:49 1515719629.856463: $GPGSA,A,3,7,8,9,11,16,23,27,28,30,138,,,4.0,0.8,3.5*3E
2018-01-11 20:13:50 1515719630.481354: $GPZDA,011351.00,12,01,2018,00,00*68
2018-01-11 20:13:50 1515719630.481534: $GPGGA,011351,3946.9575,N,08404.9834,W,2,10,0.80,301.93,M,-33.324,M,,*75
2018-01-11 20:13:50 1515719630.481603: $GPRMC,011351,A,3946.9575,N,08404.9834,W,0.0000,0.000,120118,,*3B
2018-01-11 20:13:50 1515719630.481665: $GPGSA,A,3,7,8,9,11,16,23,27,28,30,138,,,4.0,0.8,3.5*3E
2018-01-11 20:13:51 1515719631.414984: $GPZDA,011352.00,12,01,2018,00,00*6B
2018-01-11 20:13:51 1515719631.415135: $GPGGA,011352,3946.9575,N,08404.9834,W,2,10,0.80,301.93,M,-33.324,M,,*76
2018-01-11 20:13:51 1515719631.415201: $GPRMC,011352,A,3946.9575,N,08404.9834,W,0.0000,0.000,120118,,*38
2018-01-11 20:13:51 1515719631.415260: $GPGSA,A,3,7,8,9,11,16,23,27,28,30,138,,,4.0,0.8,3.5*3E
2018-01-11 20:13:52 1515719632.746708: $GPGSV,3,1,10,07,57,315,42,08,74,127,45,09,47,228,42,11,21,166,46*74
2018-01-11 20:13:52 1515719632.746906: $GPGSV,3,2,10,16,22,061,45,23,28,189,48,27,46,052,50,28,15,259,39*70
2018-01-11 20:13:52 1515719632.746973: $GPGSV,3,3,10,30,30,306,36,138,38,213,45*48
2018-01-11 20:13:52 1515719632.860366: $GPZDA,011353.00,12,01,2018,00,00*6A
2018-01-11 20:13:52 1515719632.860492: $GPGGA,011353,3946.9575,N,08404.9834,W,2,10,0.80,301.93,M,-33.324,M,,*77
2018-01-11 20:13:52 1515719632.860557: $GPRMC,011353,A,3946.9575,N,08404.9834,W,0.0000,0.000,120118,,*39
2018-01-11 20:13:52 1515719632.860616: $GPGSA,A,3,7,8,9,11,16,23,27,28,30,138,,,4.0,0.8,3.5*3E
2018-01-11 20:13:53 1515719633.393694: $GPZDA,011354.00,12,01,2018,00,00*6D
2018-01-11 20:13:53 1515719633.393842: $GPGGA,011354,3946.9575,N,08404.9834,W,2,10,0.80,301.93,M,-33.324,M,,*70
2018-01-11 20:13:53 1515719633.393910: $GPRMC,011354,A,3946.9575,N,08404.9834,W,0.0000,0.000,120118,,*3E
2018-01-11 20:13:53 1515719633.393970: $GPGSA,A,3,7,8,9,11,16,23,27,28,30,138,,,4.0,0.8,3.5*3E
2018-01-11 20:13:54 1515719634.410851: $GPZDA,011355.00,12,01,2018,00,00*6C
2018-01-11 20:13:54 1515719634.411024: $GPGGA,011355,3946.9575,N,08404.9834,W,2,10,0.80,301.93,M,-33.324,M,,*71
2018-01-11 20:13:54 1515719634.411090: $GPRMC,011355,A,3946.9575,N,08404.9834,W,0.0000,0.000,120118,,*3F
2018-01-11 20:13:54 1515719634.411151: $GPGSA,A,3,7,8,9,11,16,23,27,28,30,138,,,4.0,0.8,3.5*3E
2018-01-11 20:13:55 1515719635.729710: $GPGSV,3,1,10,07,57,315,42,08,74,127,46,09,47,228,42,11,21,166,45*74
2018-01-11 20:13:55 1515719635.729872: $GPGSV,3,2,10,16,22,061,45,23,28,189,48,27,46,052,50,28,15,259,39*70
2018-01-11 20:13:55 1515719635.729936: $GPGSV,3,3,10,30,30,306,36,138,38,213,44*49
2018-01-11 20:13:55 1515719635.843165: $GPZDA,011356.00,12,01,2018,00,00*6F
2018-01-11 20:13:55 1515719635.843293: $GPGGA,011356,3946.9575,N,08404.9834,W,2,10,0.80,301.93,M,-33.324,M,,*72
2018-01-11 20:13:55 1515719635.843360: $GPRMC,011356,A,3946.9575,N,08404.9834,W,0.0000,0.000,120118,,*3C
2018-01-11 20:13:55 1515719635.843473: $GPGSA,A,3,7,8,9,11,16,23,27,28,30,138,,,4.0,0.8,3.5*3E
2018-01-11 20:13:56 1515719636.409095: $GPZDA,011357.00,12,01,2018,00,00*6E
2018-01-11 20:13:56 1515719636.409239: $GPGGA,011357,3946.9575,N,08404.9834,W,2,10,0.80,301.93,M,-33.324,M,,*73
2018-01-11 20:13:56 1515719636.409304: $GPRMC,011357,A,3946.9575,N,08404.9834,W,0.0000,0.000,120118,,*3D
2018-01-11 20:13:56 1515719636.409366: $GPGSA,A,3,7,8,9,11,16,23,27,28,30,138,,,4.0,0.8,3.5*3E
2018-01-11 20:13:57 1515719637.411197: $GPZDA,011358.00,12,01,2018,00,00*61
2018-01-11 20:13:57 1515719637.411351: $GPGGA,011358,3946.9575,N,08404.9834,W,2,10,0.80,301.93,M,-33.324,M,,*7C
2018-01-11 20:13:57 1515719637.411417: $GPRMC,011358,A,3946.9575,N,08404.9834,W,0.0000,0.000,120118,,*32
2018-01-11 20:13:57 1515719637.411479: $GPGSA,A,3,7,8,9,11,16,23,27,28,30,138,,,4.0,0.8,3.5*3E
2018-01-11 20:13:58 1515719638.746643: $GPGSV,3,1,10,07,57,315,42,08,74,127,46,09,47,228,43,11,21,166,45*75
2018-01-11 20:13:58 1515719638.746836: $GPGSV,3,2,10,16,22,061,45,23,28,189,48,27,46,052,50,28,15,259,39*70
2018-01-11 20:13:58 1515719638.746905: $GPGSV,3,3,10,30,30,306,35,138,38,213,45*4B
2018-01-11 20:13:58 1515719638.860523: $GPZDA,011359.00,12,01,2018,00,00*60
2018-01-11 20:13:58 1515719638.860653: $GPGGA,011359,3946.9575,N,08404.9834,W,2,10,0.80,301.93,M,-33.324,M,,*7D
2018-01-11 20:13:58 1515719638.860720: $GPRMC,011359,A,3946.9575,N,08404.9834,W,0.0000,0.000,120118,,*33
2018-01-11 20:13:58 1515719638.860782: $GPGSA,A,3,7,8,9,11,16,23,27,28,30,138,,,4.0,0.8,3.5*3E
2018-01-11 20:13:59 1515719639.411129: $GPZDA,011400.00,12,01,2018,00,00*6B
2018-01-11 20:13:59 1515719639.411258: $GPGGA,011400,3946.9575,N,08404.9834,W,2,10,0.80,301.93,M,-33.324,M,,*76
2018-01-11 20:13:59 1515719639.411322: $GPRMC,011400,A,3946.9575,N,08404.9834,W,0.0000,0.000,120118,,*38
2018-01-11 20:13:59 1515719639.411384: $GPGSA,A,3,7,8,9,11,16,23,27,28,30,138,,,4.0,0.8,3.5*3E
2018-01-11 20:14:00 1515719640.412637: $GPZDA,011401.00,12,01,2018,00,00*6A
2018-01-11 20:14:00 1515719640.412819: $GPGGA,011401,3946.9575,N,08404.9834,W,2,10,0.80,301.93,M,-33.324,M,,*77
2018-01-11 20:14:00 1515719640.412888: $GPRMC,011401,A,3946.9575,N,08404.9834,W,0.0000,0.000,120118,,*39
2018-01-11 20:14:00 1515719640.412951: $GPGSA,A,3,7,8,9,11,16,23,27,28,30,138,,,4.0,0.8,3.5*3E
