2018-01-12 02:56:41 1515743801.263185: {"class":"VERSION","release":"3.16","rev":"3.16-4","proto_major":3,"proto_minor":11}
2018-01-12 02:56:41 1515743801.263525: {"class":"DEVICES","devices":[{"class":"DEVICE","path":"/dev/ttyUSB0","driver":"SiRF","subtype":"9\u0006GSD4e_4.1.2-P1_RPATCH.05-F-GPS-4R-1510281 11/03/2015 307","activated":"2018-01-12T07:56:40.874Z","flags":1,"native":1,"bps":4800,"parity":"N","stopbits":1,"cycle":1.00}]}
2018-01-12 02:56:41 1515743801.263646: {"class":"WATCH","enable":true,"json":false,"nmea":true,"raw":0,"scaled":false,"timing":false,"split24":false,"pps":false}
2018-01-12 02:56:41 1515743801.948169: $GPZDA,075642.63,12,01,2018,00,00*68
2018-01-12 02:56:41 1515743801.948349: $GPGGA,075642,3946.9676,N,08404.9838,W,1,12,2.40,312.23,M,-33.325,M,,*7B
2018-01-12 02:56:41 1515743801.948417: $GPRMC,075642,A,3946.9676,N,08404.9838,W,0.9060,167.791,120118,,*32
2018-01-12 02:56:41 1515743801.948479: $GPGSA,A,3,2,6,12,17,19,5,3,9,24,25,28,138,2.4,2.4,2.1*36
2018-01-12 02:56:41 1515743801.948538: $GPGBS,075642,11.98,M,14.47,M,47.88,M*08
2018-01-12 02:56:43 1515743803.075900: $GPZDA,075643.31,12,01,2018,00,00*6E
2018-01-12 02:56:43 1515743803.076068: $GPGGA,075643,3946.9676,N,08404.9838,W,1,12,2.40,312.23,M,-33.325,M,,*7A
2018-01-12 02:56:43 1515743803.076135: $GPRMC,075643,A,3946.9676,N,08404.9838,W,0.5857,158.291,120118,,*3A
2018-01-12 02:56:43 1515743803.076198: $GPGSA,A,3,2,6,12,17,19,5,3,9,24,25,28,138,2.4,2.4,2.1*36
2018-01-12 02:56:43 1515743803.897235: $GPGSV,3,1,12,02,54,261,47,06,77,351,52,12,40,309,52,17,43,088,45*71
2018-01-12 02:56:43 1515743803.897401: $GPGSV,3,2,12,19,60,069,40,03,07,036,09,24,12,258,00,05,10,193,00*73
2018-01-12 02:56:43 1515743803.897468: $GPGSV,3,3,12,23,06,069,00,09,06,102,00,28,05,153,00,138,38,213,00*47
2018-01-12 02:56:44 1515743804.010579: $GPZDA,075643.52,12,01,2018,00,00*6B
2018-01-12 02:56:44 1515743804.010717: $GPGGA,075643,3946.9675,N,08404.9837,W,1,05,2.40,310.83,M,-33.325,M,,*78
2018-01-12 02:56:44 1515743804.010782: $GPRMC,075643,A,3946.9675,N,08404.9837,W,0.1867,180.000,120118,,*3E
2018-01-12 02:56:44 1515743804.010845: $GPGSA,A,3,2,6,12,17,19,,,,,,,,2.4,2.4,2.1*38
2018-01-12 02:56:44 1515743804.630737: $GPZDA,075644.00,12,01,2018,00,00*6B
2018-01-12 02:56:44 1515743804.630907: $GPGGA,075644,3946.9671,N,08404.9837,W,1,05,2.40,310.19,M,-33.325,M,,*78
2018-01-12 02:56:44 1515743804.630976: $GPRMC,075644,A,3946.9671,N,08404.9837,W,0.1867,180.000,120118,,*3D
2018-01-12 02:56:44 1515743804.631037: $GPGSA,A,3,2,6,12,17,19,,,,,,,,2.4,2.4,2.1*38
2018-01-12 02:56:45 1515743805.266667: $GPZDA,075645.00,12,01,2018,00,00*6A
2018-01-12 02:56:45 1515743805.266883: $GPGGA,075645,3946.9670,N,08404.9836,W,1,05,0.80,308.79,M,-33.325,M,,*78
2018-01-12 02:56:45 1515743805.266956: $GPRMC,075645,A,3946.9670,N,08404.9836,W,0.0000,0.000,120118,,*3D
2018-01-12 02:56:45 1515743805.267017: $GPGSA,A,3,2,6,12,17,19,,,,,,,,2.4,0.8,2.1*36
2018-01-12 02:56:45 1515743805.267073: $GPGBS,075645,11.98,M,14.47,M,47.88,M*0F
2018-01-12 02:56:46 1515743806.228125: $GPGSV,3,1,12,02,54,261,48,06,77,351,52,12,40,309,51,17,43,088,45*7D
2018-01-12 02:56:46 1515743806.228304: $GPGSV,3,2,12,19,60,069,41,03,07,036,31,05,10,193,22,09,06,102,29*74
2018-01-12 02:56:46 1515743806.228391: $GPGSV,3,3,12,25,05,322,28,24,12,258,08,23,06,069,00,138,38,213,00*4A
2018-01-12 02:56:46 1515743806.340227: $GPZDA,075646.00,12,01,2018,00,00*69
2018-01-12 02:56:46 1515743806.340398: $GPGGA,075646,3946.9666,N,08404.9836,W,1,09,0.80,308.15,M,-33.324,M,,*7B
2018-01-12 02:56:46 1515743806.340466: $GPRMC,075646,A,3946.9666,N,08404.9836,W,0.0000,0.000,120118,,*39
2018-01-12 02:56:46 1515743806.340527: $GPGSA,A,3,2,6,12,17,19,3,5,9,25,,,,2.4,0.8,2.1*0E
2018-01-12 02:56:46 1515743806.792356: $GPZDA,075647.00,12,01,2018,00,00*68
2018-01-12 02:56:46 1515743806.792513: $GPGGA,075647,3946.9666,N,08404.9836,W,1,09,0.80,306.74,M,-33.324,M,,*73
2018-01-12 02:56:46 1515743806.792583: $GPRMC,075647,A,3946.9666,N,08404.9836,W,0.0000,0.000,120118,,*38
2018-01-12 02:56:46 1515743806.792643: $GPGSA,A,3,2,6,12,17,19,3,5,9,25,,,,2.4,0.8,2.1*0E
