2017-12-01 16:25:27 1512163527.653736: {"class":"VERSION","release":"3.16","rev":"3.16-4","proto_major":3,"proto_minor":11}
2017-12-01 16:25:27 1512163527.654141: {"class":"DEVICES","devices":[{"class":"DEVICE","path":"/dev/ttyUSB0","driver":"SiRF","subtype":"9\u0006GSD4e_4.1.2-P1_RPATCH.05-F-GPS-4R-1510281 11/03/2015 307","activated":"2017-12-01T21:25:27.613Z","flags":1,"native":1,"bps":4800,"parity":"N","stopbits":1,"cycle":1.00}]}
2017-12-01 16:25:27 1512163527.654262: {"class":"WATCH","enable":true,"json":false,"nmea":true,"raw":0,"scaled":false,"timing":false,"split24":false,"pps":false}
2017-12-01 16:25:28 1512163528.449997: $GPZDA,212529.00,01,12,2017,00,00*6F
2017-12-01 16:25:28 1512163528.450210: $GPGGA,212529,3946.9649,N,08404.9778,W,2,10,1.20,302.65,M,-33.324,M,,*77
2017-12-01 16:25:28 1512163528.450279: $GPRMC,212529,A,3946.9649,N,08404.9778,W,0.0000,0.000,011217,,*37
2017-12-01 16:25:28 1512163528.450340: $GPGSA,A,3,1,10,11,14,22,31,32,18,25,138,,,2.0,1.2,1.5*35
2017-12-01 16:25:29 1512163529.784290: $GPGSV,3,1,12,01,21,303,42,10,50,147,44,11,09,285,39,14,65,322,44*73
2017-12-01 16:25:29 1512163529.784484: $GPGSV,3,2,12,22,17,312,44,31,54,223,49,32,69,022,50,18,20,144,25*76
2017-12-01 16:25:29 1512163529.784573: $GPGSV,3,3,12,25,39,093,32,12,23,052,00,26,01,183,00,138,38,213,36*42
2017-12-01 16:25:29 1512163529.897621: $GPZDA,212530.00,01,12,2017,00,00*67
2017-12-01 16:25:29 1512163529.897795: $GPGGA,212530,3946.9649,N,08404.9778,W,2,10,1.20,302.65,M,-33.324,M,,*7F
2017-12-01 16:25:29 1512163529.897884: $GPRMC,212530,A,3946.9649,N,08404.9778,W,0.0000,0.000,011217,,*3F
2017-12-01 16:25:29 1512163529.897945: $GPGSA,A,3,1,10,11,14,22,31,32,18,25,138,,,2.0,1.2,1.5*35
2017-12-01 16:25:30 1512163530.968452: $GPZDA,212531.00,01,12,2017,00,00*66
2017-12-01 16:25:30 1512163530.968621: $GPGGA,212531,3946.9647,N,08404.9764,W,2,10,1.20,301.40,M,-33.324,M,,*79
2017-12-01 16:25:30 1512163530.968687: $GPRMC,212531,A,3946.9647,N,08404.9764,W,0.0000,0.000,011217,,*3D
2017-12-01 16:25:30 1512163530.968747: $GPGSA,A,3,1,10,11,14,22,31,32,18,25,138,,,2.0,1.2,1.5*35
2017-12-01 16:25:31 1512163531.450465: $GPZDA,212532.00,01,12,2017,00,00*65
2017-12-01 16:25:31 1512163531.450635: $GPGGA,212532,3946.9647,N,08404.9764,W,2,10,1.20,301.40,M,-33.324,M,,*7A
2017-12-01 16:25:31 1512163531.450701: $GPRMC,212532,A,3946.9647,N,08404.9764,W,0.0000,0.000,011217,,*3E
2017-12-01 16:25:31 1512163531.450762: $GPGSA,A,3,1,10,11,14,22,31,32,18,25,138,,,2.0,1.2,1.5*35
2017-12-01 16:25:32 1512163532.787187: $GPGSV,3,1,12,01,21,303,42,10,50,147,44,11,09,285,39,14,65,322,44*73
2017-12-01 16:25:32 1512163532.787368: $GPGSV,3,2,12,22,17,312,44,31,54,223,50,32,69,022,50,18,20,144,25*7E
2017-12-01 16:25:32 1512163532.787435: $GPGSV,3,3,12,25,39,093,32,12,23,052,08,26,01,183,00,138,38,213,39*45
2017-12-01 16:25:32 1512163532.900941: $GPZDA,212533.00,01,12,2017,00,00*64
2017-12-01 16:25:32 1512163532.901110: $GPGGA,212533,3946.9647,N,08404.9764,W,2,10,1.20,301.40,M,-33.324,M,,*7B
2017-12-01 16:25:32 1512163532.901176: $GPRMC,212533,A,3946.9647,N,08404.9764,W,0.0000,0.000,011217,,*3F
2017-12-01 16:25:32 1512163532.901237: $GPGSA,A,3,1,10,11,14,22,31,32,18,25,138,,,2.0,1.2,1.5*35
2017-12-01 16:25:33 1512163533.526244: $GPZDA,212534.00,01,12,2017,00,00*63
2017-12-01 16:25:33 1512163533.526415: $GPGGA,212534,3946.9647,N,08404.9764,W,2,10,1.20,301.40,M,-33.324,M,,*7C
2017-12-01 16:25:33 1512163533.526480: $GPRMC,212534,A,3946.9647,N,08404.9764,W,0.0000,0.000,011217,,*38
2017-12-01 16:25:33 1512163533.526540: $GPGSA,A,3,1,10,11,14,22,31,32,18,25,138,,,2.0,1.2,1.5*35
2017-12-01 16:25:34 1512163534.451065: $GPZDA,212535.00,01,12,2017,00,00*62
2017-12-01 16:25:34 1512163534.451236: $GPGGA,212535,3946.9647,N,08404.9764,W,2,10,1.00,301.40,M,-33.324,M,,*7F
2017-12-01 16:25:34 1512163534.451302: $GPRMC,212535,A,3946.9647,N,08404.9764,W,0.0000,0.000,011217,,*39
2017-12-01 16:25:34 1512163534.451435: $GPGSA,A,3,1,10,11,14,22,31,32,18,25,138,,,2.0,1.0,1.5*37
2017-12-01 16:25:35 1512163535.783702: $GPGSV,3,1,12,01,21,303,42,10,50,147,44,11,09,285,39,14,65,322,43*74
2017-12-01 16:25:35 1512163535.783929: $GPGSV,3,2,12,22,17,312,43,31,54,223,49,32,69,022,50,12,23,052,00*79
2017-12-01 16:25:35 1512163535.783998: $GPGSV,3,3,12,25,39,093,31,18,20,144,00,26,01,183,00,138,38,213,40*4F
2017-12-01 16:25:35 1512163535.897156: $GPZDA,212536.00,01,12,2017,00,00*61
2017-12-01 16:25:35 1512163535.897323: $GPGGA,212536,3946.9647,N,08404.9764,W,2,09,1.20,301.40,M,-33.324,M,,*76
2017-12-01 16:25:35 1512163535.897388: $GPRMC,212536,A,3946.9647,N,08404.9764,W,0.0000,0.000,011217,,*3A
2017-12-01 16:25:35 1512163535.897449: $GPGSA,A,3,1,10,11,14,22,31,32,25,138,,,,2.0,1.2,1.5*3C
2017-12-01 16:25:36 1512163536.450496: $GPZDA,212537.00,01,12,2017,00,00*60
2017-12-01 16:25:36 1512163536.450675: $GPGGA,212537,3946.9647,N,08404.9764,W,2,09,1.20,301.40,M,-33.324,M,,*77
2017-12-01 16:25:36 1512163536.450743: $GPRMC,212537,A,3946.9647,N,08404.9764,W,0.0000,0.000,011217,,*3B
2017-12-01 16:25:36 1512163536.450804: $GPGSA,A,3,1,10,11,14,22,31,32,25,138,,,,2.0,1.2,1.5*3C
2017-12-01 16:25:37 1512163537.450128: $GPZDA,212538.00,01,12,2017,00,00*6F
2017-12-01 16:25:37 1512163537.450304: $GPGGA,212538,3946.9647,N,08404.9764,W,2,09,1.20,301.40,M,-33.324,M,,*78
2017-12-01 16:25:37 1512163537.450370: $GPRMC,212538,A,3946.9647,N,08404.9764,W,0.0000,0.000,011217,,*34
2017-12-01 16:25:37 1512163537.450431: $GPGSA,A,3,1,10,11,14,22,31,32,25,138,,,,2.0,1.2,1.5*3C
2017-12-01 16:25:38 1512163538.789082: $GPGSV,3,1,12,01,21,303,41,10,50,147,44,11,09,285,40,14,65,322,43*79
2017-12-01 16:25:38 1512163538.789277: $GPGSV,3,2,12,22,17,312,44,31,54,223,49,32,69,022,50,18,20,144,22*71
2017-12-01 16:25:38 1512163538.789345: $GPGSV,3,3,12,25,39,093,31,12,23,052,04,26,01,183,00,138,38,213,39*4A
2017-12-01 16:25:38 1512163538.902606: $GPZDA,212539.00,01,12,2017,00,00*6E
2017-12-01 16:25:38 1512163538.902778: $GPGGA,212539,3946.9647,N,08404.9764,W,2,10,1.20,301.40,M,-33.324,M,,*71
2017-12-01 16:25:38 1512163538.902844: $GPRMC,212539,A,3946.9647,N,08404.9764,W,0.0000,0.000,011217,,*35
2017-12-01 16:25:38 1512163538.902904: $GPGSA,A,3,1,10,11,14,22,31,32,18,25,138,,,2.0,1.2,1.5*35
2017-12-01 16:25:39 1512163539.450011: $GPZDA,212540.00,01,12,2017,00,00*60
2017-12-01 16:25:39 1512163539.450199: $GPGGA,212540,3946.9647,N,08404.9764,W,2,10,1.20,301.40,M,-33.324,M,,*7F
2017-12-01 16:25:39 1512163539.450266: $GPRMC,212540,A,3946.9647,N,08404.9764,W,0.0000,0.000,011217,,*3B
2017-12-01 16:25:39 1512163539.450326: $GPGSA,A,3,1,10,11,14,22,31,32,18,25,138,,,2.0,1.2,1.5*35
2017-12-01 16:25:40 1512163540.449226: $GPZDA,212541.00,01,12,2017,00,00*61
2017-12-01 16:25:40 1512163540.449418: $GPGGA,212541,3946.9647,N,08404.9764,W,2,10,1.20,301.40,M,-33.324,M,,*7E
2017-12-01 16:25:40 1512163540.449486: $GPRMC,212541,A,3946.9647,N,08404.9764,W,0.0000,0.000,011217,,*3A
2017-12-01 16:25:40 1512163540.449546: $GPGSA,A,3,1,10,11,14,22,31,32,18,25,138,,,2.0,1.2,1.5*35
2017-12-01 16:25:41 1512163541.785010: $GPGSV,3,1,12,01,21,303,41,10,50,147,44,11,09,285,40,14,65,322,43*79
2017-12-01 16:25:41 1512163541.785160: $GPGSV,3,2,12,22,17,312,44,31,54,223,49,32,69,022,49,18,20,144,22*79
2017-12-01 16:25:41 1512163541.785224: $GPGSV,3,3,12,25,39,093,30,12,23,052,00,26,01,183,00,138,38,213,38*4E
2017-12-01 16:25:41 1512163541.898864: $GPZDA,212542.00,01,12,2017,00,00*62
2017-12-01 16:25:41 1512163541.899008: $GPGGA,212542,3946.9647,N,08404.9764,W,2,10,1.20,301.40,M,-33.324,M,,*7D
2017-12-01 16:25:41 1512163541.899073: $GPRMC,212542,A,3946.9647,N,08404.9764,W,0.0000,0.000,011217,,*39
2017-12-01 16:25:41 1512163541.899133: $GPGSA,A,3,1,10,11,14,22,31,32,18,25,138,,,2.0,1.2,1.5*35
2017-12-01 16:25:42 1512163542.450147: $GPZDA,212543.00,01,12,2017,00,00*63
2017-12-01 16:25:42 1512163542.450360: $GPGGA,212543,3946.9647,N,08404.9764,W,2,10,1.20,301.40,M,-33.324,M,,*7C
2017-12-01 16:25:42 1512163542.450430: $GPRMC,212543,A,3946.9647,N,08404.9764,W,0.0000,0.000,011217,,*38
2017-12-01 16:25:42 1512163542.450491: $GPGSA,A,3,1,10,11,14,22,31,32,18,25,138,,,2.0,1.2,1.5*35
2017-12-01 16:25:43 1512163543.448877: $GPZDA,212544.00,01,12,2017,00,00*64
2017-12-01 16:25:43 1512163543.449085: $GPGGA,212544,3946.9647,N,08404.9764,W,2,10,1.20,301.40,M,-33.324,M,,*7B
2017-12-01 16:25:43 1512163543.449152: $GPRMC,212544,A,3946.9647,N,08404.9764,W,0.0000,0.000,011217,,*3F
2017-12-01 16:25:43 1512163543.449213: $GPGSA,A,3,1,10,11,14,22,31,32,18,25,138,,,2.0,1.2,1.5*35
2017-12-01 16:25:44 1512163544.785552: $GPGSV,3,1,12,01,21,303,40,10,50,147,44,11,09,285,40,14,65,322,43*78
2017-12-01 16:25:44 1512163544.785732: $GPGSV,3,2,12,22,17,312,45,31,54,223,49,32,69,022,49,18,20,144,23*79
2017-12-01 16:25:44 1512163544.785800: $GPGSV,3,3,12,25,39,093,27,12,23,052,00,26,01,183,00,138,38,213,40*47
2017-12-01 16:25:44 1512163544.899230: $GPZDA,212545.00,01,12,2017,00,00*65
2017-12-01 16:25:44 1512163544.899379: $GPGGA,212545,3946.9647,N,08404.9764,W,2,10,1.20,301.40,M,-33.324,M,,*7A
2017-12-01 16:25:44 1512163544.899445: $GPRMC,212545,A,3946.9647,N,08404.9764,W,0.0000,0.000,011217,,*3E
2017-12-01 16:25:44 1512163544.899505: $GPGSA,A,3,1,10,11,14,22,31,32,18,25,138,,,2.0,1.2,1.5*35
2017-12-01 16:25:45 1512163545.453671: $GPZDA,212546.00,01,12,2017,00,00*66
2017-12-01 16:25:45 1512163545.453840: $GPGGA,212546,3946.9647,N,08404.9764,W,2,10,1.20,301.40,M,-33.324,M,,*79
2017-12-01 16:25:45 1512163545.453906: $GPRMC,212546,A,3946.9647,N,08404.9764,W,0.0000,0.000,011217,,*3D
2017-12-01 16:25:45 1512163545.453967: $GPGSA,A,3,1,10,11,14,22,31,32,18,25,138,,,2.0,1.2,1.5*35
2017-12-01 16:25:46 1512163546.449755: $GPZDA,212547.00,01,12,2017,00,00*67
2017-12-01 16:25:46 1512163546.449928: $GPGGA,212547,3946.9647,N,08404.9764,W,2,10,1.20,301.40,M,-33.324,M,,*78
2017-12-01 16:25:46 1512163546.449996: $GPRMC,212547,A,3946.9647,N,08404.9764,W,0.0000,0.000,011217,,*3C
2017-12-01 16:25:46 1512163546.450056: $GPGSA,A,3,1,10,11,14,22,31,32,18,25,138,,,2.0,1.2,1.5*35
