2017-12-31 17:02:54 1514757774.099687: {"class":"VERSION","release":"3.16","rev":"3.16-4","proto_major":3,"proto_minor":11}
2017-12-31 17:02:54 1514757774.100022: {"class":"DEVICES","devices":[{"class":"DEVICE","path":"/dev/ttyUSB0","driver":"SiRF","activated":"2017-12-31T22:02:53.501Z","flags":1,"native":1,"bps":4800,"parity":"N","stopbits":1,"cycle":1.00}]}
2017-12-31 17:02:54 1514757774.100216: {"class":"WATCH","enable":true,"json":false,"nmea":true,"raw":0,"scaled":false,"timing":false,"split24":false,"pps":false}
2017-12-31 17:02:54 1514757774.680121: $GPGSV,3,1,11,22,45,240,40,23,27,307,39,25,02,037,19,03,46,271,40*7A
2017-12-31 17:02:54 1514757774.680271: $GPGSV,3,2,11,16,45,190,43,29,14,055,29,31,50,049,50,14,41,112,38*72
2017-12-31 17:02:54 1514757774.680336: $GPGSV,3,3,11,32,19,121,44,26,74,144,46,135,22,240,42*71
2017-12-31 17:02:54 1514757774.792470: $GPZDA,220255.00,31,12,2017,00,00*61
2017-12-31 17:02:54 1514757774.792602: $GPGGA,220255,3946.9587,N,08404.9854,W,2,11,1.00,302.21,M,-33.324,M,,*79
2017-12-31 17:02:54 1514757774.792668: $GPRMC,220255,A,3946.9587,N,08404.9854,W,0.0000,0.000,311217,,*39
2017-12-31 17:02:54 1514757774.792728: $GPGSA,A,3,22,23,25,3,16,29,31,14,32,26,135,,1.7,1.0,1.3*3B
2017-12-31 17:02:55 1514757775.418995: $GPZDA,220256.00,31,12,2017,00,00*62
2017-12-31 17:02:55 1514757775.419181: $GPGGA,220256,3946.9587,N,08404.9854,W,2,11,1.00,302.21,M,-33.324,M,,*7A
2017-12-31 17:02:55 1514757775.419278: $GPRMC,220256,A,3946.9587,N,08404.9854,W,0.0000,0.000,311217,,*3A
2017-12-31 17:02:55 1514757775.419341: $GPGSA,A,3,22,23,25,3,16,29,31,14,32,26,135,,1.7,1.0,1.3*3B
2017-12-31 17:02:56 1514757776.359933: $GPZDA,220257.00,31,12,2017,00,00*63
2017-12-31 17:02:56 1514757776.360113: $GPGGA,220257,3946.9587,N,08404.9854,W,2,11,1.00,302.21,M,-33.324,M,,*7B
2017-12-31 17:02:56 1514757776.360181: $GPRMC,220257,A,3946.9587,N,08404.9854,W,0.0000,0.000,311217,,*3B
2017-12-31 17:02:56 1514757776.360241: $GPGSA,A,3,22,23,25,3,16,29,31,14,32,26,135,,1.7,1.0,1.3*3B
2017-12-31 17:02:57 1514757777.679155: $GPGSV,3,1,11,22,45,240,41,23,27,307,39,25,02,037,19,03,46,271,40*7B
2017-12-31 17:02:57 1514757777.679332: $GPGSV,3,2,11,16,45,190,43,29,14,055,29,31,50,049,50,14,41,112,38*72
2017-12-31 17:02:57 1514757777.679397: $GPGSV,3,3,11,32,19,121,43,26,74,144,46,135,22,240,43*77
2017-12-31 17:02:57 1514757777.792473: $GPZDA,220258.00,31,12,2017,00,00*6C
2017-12-31 17:02:57 1514757777.792572: $GPGGA,220258,3946.9587,N,08404.9854,W,2,11,1.00,302.21,M,-33.324,M,,*74
2017-12-31 17:02:57 1514757777.792637: $GPRMC,220258,A,3946.9587,N,08404.9854,W,0.0000,0.000,311217,,*34
2017-12-31 17:02:57 1514757777.792696: $GPGSA,A,3,22,23,25,3,16,29,31,14,32,26,135,,1.7,1.0,1.3*3B
2017-12-31 17:02:58 1514757778.343412: $GPZDA,220259.00,31,12,2017,00,00*6D
2017-12-31 17:02:58 1514757778.343593: $GPGGA,220259,3946.9587,N,08404.9854,W,2,11,1.00,302.21,M,-33.324,M,,*75
2017-12-31 17:02:58 1514757778.343660: $GPRMC,220259,A,3946.9587,N,08404.9854,W,0.0000,0.000,311217,,*35
2017-12-31 17:02:58 1514757778.343721: $GPGSA,A,3,22,23,25,3,16,29,31,14,32,26,135,,1.7,1.0,1.3*3B
2017-12-31 17:02:59 1514757779.343004: $GPZDA,220300.00,31,12,2017,00,00*60
2017-12-31 17:02:59 1514757779.343180: $GPGGA,220300,3946.9587,N,08404.9854,W,2,11,1.00,302.21,M,-33.324,M,,*78
2017-12-31 17:02:59 1514757779.343248: $GPRMC,220300,A,3946.9587,N,08404.9854,W,0.0000,0.000,311217,,*38
2017-12-31 17:02:59 1514757779.343308: $GPGSA,A,3,22,23,25,3,16,29,31,14,32,26,135,,1.7,1.0,1.3*3B
2017-12-31 17:03:00 1514757780.670756: $GPGSV,3,1,11,22,45,240,41,23,27,307,39,25,02,037,18,03,46,271,41*7B
2017-12-31 17:03:00 1514757780.670948: $GPGSV,3,2,11,16,45,190,43,29,14,055,30,31,50,049,50,14,41,112,37*75
2017-12-31 17:03:00 1514757780.671016: $GPGSV,3,3,11,32,19,121,44,26,74,144,46,135,22,240,43*70
2017-12-31 17:03:00 1514757780.784369: $GPZDA,220301.00,31,12,2017,00,00*61
2017-12-31 17:03:00 1514757780.784536: $GPGGA,220301,3946.9587,N,08404.9854,W,2,11,1.00,302.21,M,-33.324,M,,*79
2017-12-31 17:03:00 1514757780.784601: $GPRMC,220301,A,3946.9587,N,08404.9854,W,0.0000,0.000,311217,,*39
2017-12-31 17:03:00 1514757780.784709: $GPGSA,A,3,22,23,25,3,16,29,31,14,32,26,135,,1.7,1.0,1.3*3B
2017-12-31 17:03:01 1514757781.345250: $GPZDA,220302.00,31,12,2017,00,00*62
2017-12-31 17:03:01 1514757781.345419: $GPGGA,220302,3946.9587,N,08404.9854,W,2,11,1.00,302.21,M,-33.324,M,,*7A
2017-12-31 17:03:01 1514757781.345485: $GPRMC,220302,A,3946.9587,N,08404.9854,W,0.0000,0.000,311217,,*3A
2017-12-31 17:03:01 1514757781.345547: $GPGSA,A,3,22,23,25,3,16,29,31,14,32,26,135,,1.7,1.0,1.3*3B
2017-12-31 17:03:02 1514757782.343482: $GPZDA,220303.00,31,12,2017,00,00*63
2017-12-31 17:03:02 1514757782.343662: $GPGGA,220303,3946.9587,N,08404.9854,W,2,11,1.00,302.21,M,-33.324,M,,*7B
2017-12-31 17:03:02 1514757782.343729: $GPRMC,220303,A,3946.9587,N,08404.9854,W,0.0000,0.000,311217,,*3B
2017-12-31 17:03:02 1514757782.343791: $GPGSA,A,3,22,23,25,3,16,29,31,14,32,26,135,,1.7,1.0,1.3*3B
2017-12-31 17:03:03 1514757783.695389: $GPGSV,3,1,11,22,45,240,41,23,27,307,39,25,02,037,18,03,46,271,41*7B
2017-12-31 17:03:03 1514757783.695559: $GPGSV,3,2,11,16,45,190,43,29,14,055,30,31,50,049,50,14,41,112,37*75
2017-12-31 17:03:03 1514757783.695625: $GPGSV,3,3,11,32,19,121,43,26,74,144,47,135,22,240,42*77
2017-12-31 17:03:03 1514757783.808708: $GPZDA,220304.00,31,12,2017,00,00*64
2017-12-31 17:03:03 1514757783.808836: $GPGGA,220304,3946.9587,N,08404.9854,W,2,11,1.00,302.21,M,-33.324,M,,*7C
2017-12-31 17:03:03 1514757783.808901: $GPRMC,220304,A,3946.9587,N,08404.9854,W,0.0000,0.000,311217,,*3C
2017-12-31 17:03:03 1514757783.808961: $GPGSA,A,3,22,23,25,3,16,29,31,14,32,26,135,,1.7,1.0,1.3*3B
