2017-12-31 18:14:52 1514762092.816061: {"class":"VERSION","release":"3.16","rev":"3.16-4","proto_major":3,"proto_minor":11}
2017-12-31 18:14:52 1514762092.816596: {"class":"DEVICES","devices":[{"class":"DEVICE","path":"/dev/ttyUSB0","driver":"SiRF","activated":"2017-12-31T23:14:52.525Z","flags":1,"native":1,"bps":4800,"parity":"N","stopbits":1,"cycle":1.00}]}
2017-12-31 18:14:52 1514762092.816705: {"class":"WATCH","enable":true,"json":false,"nmea":true,"raw":0,"scaled":false,"timing":false,"split24":false,"pps":false}
2017-12-31 18:14:53 1514762093.350937: $GPZDA,231454.00,31,12,2017,00,00*66
2017-12-31 18:14:53 1514762093.351113: $GPGGA,231454,3946.9567,N,08404.9865,W,2,12,0.80,306.72,M,-33.324,M,,*7A
2017-12-31 18:14:53 1514762093.351180: $GPRMC,231454,A,3946.9567,N,08404.9865,W,0.0000,0.000,311217,,*32
2017-12-31 18:14:53 1514762093.351241: $GPGSA,A,3,22,23,9,3,16,8,14,31,27,29,26,135,1.7,0.8,1.3*30
2017-12-31 18:14:54 1514762094.678913: $GPGSV,3,1,12,22,20,213,32,23,56,304,46,09,23,312,42,03,30,232,43*76
2017-12-31 18:14:54 1514762094.679093: $GPGSV,3,2,12,16,84,183,43,08,02,180,22,14,13,135,33,31,26,076,46*7B
2017-12-31 18:14:54 1514762094.679159: $GPGSV,3,3,12,27,25,153,36,29,04,028,29,26,59,049,48,135,22,240,42*4A
2017-12-31 18:14:54 1514762094.792345: $GPZDA,231455.00,31,12,2017,00,00*67
2017-12-31 18:14:54 1514762094.792486: $GPGGA,231455,3946.9567,N,08404.9865,W,2,12,0.80,306.72,M,-33.324,M,,*7B
2017-12-31 18:14:54 1514762094.792549: $GPRMC,231455,A,3946.9567,N,08404.9865,W,0.0000,0.000,311217,,*33
2017-12-31 18:14:54 1514762094.792610: $GPGSA,A,3,22,23,9,3,16,8,14,31,27,29,26,135,1.7,0.8,1.3*30
2017-12-31 18:14:55 1514762095.417698: $GPZDA,231456.00,31,12,2017,00,00*64
2017-12-31 18:14:55 1514762095.417874: $GPGGA,231456,3946.9567,N,08404.9865,W,2,12,0.80,306.72,M,-33.324,M,,*78
2017-12-31 18:14:55 1514762095.417943: $GPRMC,231456,A,3946.9567,N,08404.9865,W,0.0000,0.000,311217,,*30
2017-12-31 18:14:55 1514762095.418003: $GPGSA,A,3,22,23,9,3,16,8,14,31,27,29,26,135,1.7,0.8,1.3*30
2017-12-31 18:14:56 1514762096.342530: $GPZDA,231457.00,31,12,2017,00,00*65
2017-12-31 18:14:56 1514762096.342693: $GPGGA,231457,3946.9567,N,08404.9865,W,2,12,0.80,306.72,M,-33.324,M,,*79
2017-12-31 18:14:56 1514762096.342760: $GPRMC,231457,A,3946.9567,N,08404.9865,W,0.0000,0.000,311217,,*31
2017-12-31 18:14:56 1514762096.342820: $GPGSA,A,3,22,23,9,3,16,8,14,31,27,29,26,135,1.7,0.8,1.3*30
2017-12-31 18:14:57 1514762097.719258: $GPGSV,3,1,11,22,20,213,32,23,56,304,46,09,23,312,41,03,30,232,43*76
2017-12-31 18:14:57 1514762097.725821: $GPGSV,3,2,11,16,84,183,44,08,02,180,21,14,13,135,33,31,26,076,46*7C
2017-12-31 18:14:57 1514762097.725918: $GPGSV,3,3,11,27,25,153,36,26,59,049,48,135,22,240,44*71
2017-12-31 18:14:57 1514762097.832878: $GPZDA,231458.00,31,12,2017,00,00*6A
2017-12-31 18:14:57 1514762097.833040: $GPGGA,231458,3946.9567,N,08404.9865,W,2,11,0.80,306.72,M,-33.324,M,,*75
2017-12-31 18:14:57 1514762097.833105: $GPRMC,231458,A,3946.9567,N,08404.9865,W,0.0000,0.000,311217,,*3E
2017-12-31 18:14:57 1514762097.833165: $GPGSA,A,3,22,23,9,3,16,8,14,31,27,26,135,,1.7,0.8,1.3*3B
2017-12-31 18:14:58 1514762098.356265: $GPZDA,231459.00,31,12,2017,00,00*6B
2017-12-31 18:14:58 1514762098.356432: $GPGGA,231459,3946.9567,N,08404.9865,W,2,11,0.80,306.72,M,-33.324,M,,*74
2017-12-31 18:14:58 1514762098.356498: $GPRMC,231459,A,3946.9567,N,08404.9865,W,0.0000,0.000,311217,,*3F
2017-12-31 18:14:58 1514762098.356559: $GPGSA,A,3,22,23,9,3,16,8,14,31,27,26,135,,1.7,0.8,1.3*3B
2017-12-31 18:14:59 1514762099.384635: $GPZDA,231500.00,31,12,2017,00,00*66
2017-12-31 18:14:59 1514762099.384797: $GPGGA,231500,3946.9567,N,08404.9865,W,2,11,0.80,306.72,M,-33.324,M,,*79
2017-12-31 18:14:59 1514762099.384863: $GPRMC,231500,A,3946.9567,N,08404.9865,W,0.0000,0.000,311217,,*32
2017-12-31 18:14:59 1514762099.384923: $GPGSA,A,3,22,23,9,3,16,8,14,31,27,26,135,,1.7,0.8,1.3*3B
2017-12-31 18:15:00 1514762100.682143: $GPGSV,3,1,12,22,20,213,32,23,56,304,46,09,23,312,42,03,30,232,44*71
2017-12-31 18:15:00 1514762100.682301: $GPGSV,3,2,12,16,84,183,43,08,02,180,21,14,13,135,33,31,26,076,46*78
2017-12-31 18:15:00 1514762100.682409: $GPGSV,3,3,12,27,25,153,36,29,04,028,02,26,59,049,48,135,22,240,44*45
2017-12-31 18:15:00 1514762100.795520: $GPZDA,231501.00,31,12,2017,00,00*67
2017-12-31 18:15:00 1514762100.795644: $GPGGA,231501,3946.9567,N,08404.9865,W,2,11,0.80,306.72,M,-33.324,M,,*78
2017-12-31 18:15:00 1514762100.795709: $GPRMC,231501,A,3946.9567,N,08404.9865,W,0.0000,0.000,311217,,*33
2017-12-31 18:15:00 1514762100.795769: $GPGSA,A,3,22,23,9,3,16,8,14,31,27,26,135,,1.7,0.8,1.3*3B
2017-12-31 18:15:01 1514762101.352881: $GPZDA,231502.00,31,12,2017,00,00*64
2017-12-31 18:15:01 1514762101.353052: $GPGGA,231502,3946.9567,N,08404.9865,W,2,11,0.80,306.72,M,-33.324,M,,*7B
2017-12-31 18:15:01 1514762101.353119: $GPRMC,231502,A,3946.9567,N,08404.9865,W,0.0000,0.000,311217,,*30
2017-12-31 18:15:01 1514762101.353180: $GPGSA,A,3,22,23,9,3,16,8,14,31,27,26,135,,1.7,0.8,1.3*3B
2017-12-31 18:15:02 1514762102.351294: $GPZDA,231503.00,31,12,2017,00,00*65
2017-12-31 18:15:02 1514762102.351457: $GPGGA,231503,3946.9567,N,08404.9865,W,2,11,0.80,306.72,M,-33.324,M,,*7A
2017-12-31 18:15:02 1514762102.351523: $GPRMC,231503,A,3946.9567,N,08404.9865,W,0.0000,0.000,311217,,*31
2017-12-31 18:15:02 1514762102.351583: $GPGSA,A,3,22,23,9,3,16,8,14,31,27,26,135,,1.7,0.8,1.3*3B
