2017-12-31 18:49:44 1514764184.082891: {"class":"VERSION","release":"3.16","rev":"3.16-4","proto_major":3,"proto_minor":11}
2017-12-31 18:49:44 1514764184.083229: {"class":"DEVICES","devices":[{"class":"DEVICE","path":"/dev/ttyUSB0","driver":"SiRF","activated":"2017-12-31T23:49:43.494Z","flags":1,"native":1,"bps":4800,"parity":"N","stopbits":1,"cycle":1.00}]}
2017-12-31 18:49:44 1514764184.083385: {"class":"WATCH","enable":true,"json":false,"nmea":true,"raw":0,"scaled":false,"timing":false,"split24":false,"pps":false}
2017-12-31 18:49:44 1514764184.345509: $GPZDA,234945.00,31,12,2017,00,00*6E
2017-12-31 18:49:44 1514764184.349013: $GPGGA,234945,3946.9573,N,08404.9850,W,2,11,0.80,305.35,M,-33.324,M,,*72
2017-12-31 18:49:44 1514764184.349117: $GPRMC,234945,A,3946.9573,N,08404.9850,W,0.0000,0.000,311217,,*39
2017-12-31 18:49:44 1514764184.349181: $GPGSA,A,3,22,23,9,3,16,8,31,27,7,26,135,,1.7,0.8,1.3*09
2017-12-31 18:49:45 1514764185.687930: $GPGSV,3,1,11,22,08,204,21,23,68,282,41,09,36,310,45,03,18,220,36*74
2017-12-31 18:49:45 1514764185.688083: $GPGSV,3,2,11,16,77,036,42,08,16,175,35,31,16,088,26,27,39,144,42*7F
2017-12-31 18:49:45 1514764185.688149: $GPGSV,3,3,11,07,10,285,40,26,45,048,46,135,22,240,42*78
2017-12-31 18:49:45 1514764185.801599: $GPZDA,234946.00,31,12,2017,00,00*6D
2017-12-31 18:49:45 1514764185.801732: $GPGGA,234946,3946.9573,N,08404.9850,W,2,11,0.80,305.35,M,-33.324,M,,*71
2017-12-31 18:49:45 1514764185.801797: $GPRMC,234946,A,3946.9573,N,08404.9850,W,0.0000,0.000,311217,,*3A
2017-12-31 18:49:45 1514764185.801857: $GPGSA,A,3,22,23,9,3,16,8,31,27,7,26,135,,1.7,0.8,1.3*09
2017-12-31 18:49:46 1514764186.353799: $GPZDA,234947.00,31,12,2017,00,00*6C
2017-12-31 18:49:46 1514764186.353962: $GPGGA,234947,3946.9573,N,08404.9850,W,2,11,0.80,305.35,M,-33.324,M,,*70
2017-12-31 18:49:46 1514764186.354029: $GPRMC,234947,A,3946.9573,N,08404.9850,W,0.0000,0.000,311217,,*3B
2017-12-31 18:49:46 1514764186.354090: $GPGSA,A,3,22,23,9,3,16,8,31,27,7,26,135,,1.7,0.8,1.3*09
2017-12-31 18:49:47 1514764187.353127: $GPZDA,234948.00,31,12,2017,00,00*63
2017-12-31 18:49:47 1514764187.353293: $GPGGA,234948,3946.9573,N,08404.9850,W,2,11,0.80,305.35,M,-33.324,M,,*7F
2017-12-31 18:49:47 1514764187.353361: $GPRMC,234948,A,3946.9573,N,08404.9850,W,0.0000,0.000,311217,,*34
2017-12-31 18:49:47 1514764187.353422: $GPGSA,A,3,22,23,9,3,16,8,31,27,7,26,135,,1.7,0.8,1.3*09
2017-12-31 18:49:48 1514764188.681290: $GPGSV,3,1,11,22,08,204,21,23,68,282,40,09,36,310,45,03,18,220,36*75
2017-12-31 18:49:48 1514764188.681461: $GPGSV,3,2,11,16,77,036,43,08,16,175,35,31,16,088,26,27,39,144,42*7E
2017-12-31 18:49:48 1514764188.681528: $GPGSV,3,3,11,07,10,285,41,26,45,048,45,135,22,240,43*7B
2017-12-31 18:49:48 1514764188.794957: $GPZDA,234949.00,31,12,2017,00,00*62
2017-12-31 18:49:48 1514764188.795099: $GPGGA,234949,3946.9573,N,08404.9850,W,2,11,0.80,305.35,M,-33.324,M,,*7E
2017-12-31 18:49:48 1514764188.795166: $GPRMC,234949,A,3946.9573,N,08404.9850,W,0.0000,0.000,311217,,*35
2017-12-31 18:49:48 1514764188.795227: $GPGSA,A,3,22,23,9,3,16,8,31,27,7,26,135,,1.7,0.8,1.3*09
2017-12-31 18:49:49 1514764189.392107: $GPZDA,234950.00,31,12,2017,00,00*6A
2017-12-31 18:49:49 1514764189.392297: $GPGGA,234950,3946.9573,N,08404.9850,W,2,11,0.80,305.35,M,-33.324,M,,*76
2017-12-31 18:49:49 1514764189.392365: $GPRMC,234950,A,3946.9573,N,08404.9850,W,0.0000,0.000,311217,,*3D
2017-12-31 18:49:49 1514764189.392426: $GPGSA,A,3,22,23,9,3,16,8,31,27,7,26,135,,1.7,0.8,1.3*09
2017-12-31 18:49:50 1514764190.383708: $GPZDA,234951.00,31,12,2017,00,00*6B
2017-12-31 18:49:50 1514764190.383865: $GPGGA,234951,3946.9573,N,08404.9850,W,2,11,0.80,305.35,M,-33.324,M,,*77
2017-12-31 18:49:50 1514764190.383932: $GPRMC,234951,A,3946.9573,N,08404.9850,W,0.0000,0.000,311217,,*3C
2017-12-31 18:49:50 1514764190.383992: $GPGSA,A,3,22,23,9,3,16,8,31,27,7,26,135,,1.7,0.8,1.3*09
2017-12-31 18:49:51 1514764191.726599: $GPGSV,3,1,11,22,08,204,21,23,68,282,40,09,36,310,45,03,18,220,36*75
2017-12-31 18:49:51 1514764191.726766: $GPGSV,3,2,11,16,77,036,43,08,16,175,35,31,16,088,26,27,39,144,42*7E
2017-12-31 18:49:51 1514764191.726903: $GPGSV,3,3,11,07,10,285,43,26,45,048,45,135,22,240,44*7E
2017-12-31 18:49:51 1514764191.840339: $GPZDA,234952.00,31,12,2017,00,00*68
2017-12-31 18:49:51 1514764191.840485: $GPGGA,234952,3946.9573,N,08404.9850,W,2,11,0.80,305.35,M,-33.324,M,,*74
2017-12-31 18:49:51 1514764191.840551: $GPRMC,234952,A,3946.9573,N,08404.9850,W,0.0000,0.000,311217,,*3F
2017-12-31 18:49:51 1514764191.840612: $GPGSA,A,3,22,23,9,3,16,8,31,27,7,26,135,,1.7,0.8,1.3*09
2017-12-31 18:49:52 1514764192.391217: $GPZDA,234953.00,31,12,2017,00,00*69
2017-12-31 18:49:52 1514764192.391387: $GPGGA,234953,3946.9573,N,08404.9850,W,2,11,0.80,305.35,M,-33.324,M,,*75
2017-12-31 18:49:52 1514764192.391455: $GPRMC,234953,A,3946.9573,N,08404.9850,W,0.0000,0.000,311217,,*3E
2017-12-31 18:49:52 1514764192.391516: $GPGSA,A,3,22,23,9,3,16,8,31,27,7,26,135,,1.7,0.8,1.3*09
2017-12-31 18:49:53 1514764193.390815: $GPZDA,234954.00,31,12,2017,00,00*6E
2017-12-31 18:49:53 1514764193.390987: $GPGGA,234954,3946.9573,N,08404.9850,W,2,11,0.80,305.35,M,-33.324,M,,*72
2017-12-31 18:49:53 1514764193.391056: $GPRMC,234954,A,3946.9573,N,08404.9850,W,0.0000,0.000,311217,,*39
2017-12-31 18:49:53 1514764193.391117: $GPGSA,A,3,22,23,9,3,16,8,31,27,7,26,135,,1.7,0.8,1.3*09
