2017-12-29 11:46:05 1514565965.206784: {"class":"VERSION","release":"3.16","rev":"3.16-4","proto_major":3,"proto_minor":11}
2017-12-29 11:46:05 1514565965.207128: {"class":"DEVICES","devices":[{"class":"DEVICE","path":"/dev/ttyUSB0","driver":"SiRF","subtype":"9\u0006GSD4e_4.1.2-P1_RPATCH.05-F-GPS-4R-1510281 11/03/2015 307","activated":"2017-12-29T16:46:05.168Z","flags":1,"native":1,"bps":4800,"parity":"N","stopbits":1,"cycle":1.00}]}
2017-12-29 11:46:05 1514565965.207245: {"class":"WATCH","enable":true,"json":false,"nmea":true,"raw":0,"scaled":false,"timing":false,"split24":false,"pps":false}
2017-12-29 11:46:05 1514565965.682759: $GPGSV,3,1,11,08,08,312,24,10,52,312,46,14,13,240,33,15,26,057,46*78
2017-12-29 11:46:05 1514565965.682953: $GPGSV,3,2,11,18,77,024,43,20,24,105,49,21,49,183,47,24,53,087,52*72
2017-12-29 11:46:05 1514565965.683023: $GPGSV,3,3,11,32,32,247,36,27,16,276,26,138,38,213,45*78
2017-12-29 11:46:05 1514565965.796150: $GPZDA,164606.00,29,12,2017,00,00*69
2017-12-29 11:46:05 1514565965.796330: $GPGGA,164606,3946.9609,N,08404.9925,W,2,11,0.80,306.79,M,-33.324,M,,*7A
2017-12-29 11:46:05 1514565965.796424: $GPRMC,164606,A,3946.9609,N,08404.9925,W,0.0000,0.000,291217,,*33
2017-12-29 11:46:05 1514565965.796487: $GPGSA,A,3,8,10,14,15,18,20,21,24,32,27,138,,1.7,0.8,1.3*36
2017-12-29 11:46:06 1514565966.347348: $GPZDA,164607.00,29,12,2017,00,00*68
2017-12-29 11:46:06 1514565966.347528: $GPGGA,164607,3946.9609,N,08404.9925,W,2,11,0.80,306.79,M,-33.324,M,,*7B
2017-12-29 11:46:06 1514565966.347594: $GPRMC,164607,A,3946.9609,N,08404.9925,W,0.0000,0.000,291217,,*32
2017-12-29 11:46:06 1514565966.347654: $GPGSA,A,3,8,10,14,15,18,20,21,24,32,27,138,,1.7,0.8,1.3*36
2017-12-29 11:46:07 1514565967.350673: $GPZDA,164608.00,29,12,2017,00,00*67
2017-12-29 11:46:07 1514565967.350843: $GPGGA,164608,3946.9609,N,08404.9925,W,2,11,0.80,306.79,M,-33.324,M,,*74
2017-12-29 11:46:07 1514565967.350909: $GPRMC,164608,A,3946.9609,N,08404.9925,W,0.0000,0.000,291217,,*3D
2017-12-29 11:46:07 1514565967.350969: $GPGSA,A,3,8,10,14,15,18,20,21,24,32,27,138,,1.7,0.8,1.3*36
2017-12-29 11:46:08 1514565968.686166: $GPGSV,3,1,11,08,08,312,22,10,52,312,46,14,13,240,33,15,26,057,46*7E
2017-12-29 11:46:08 1514565968.686349: $GPGSV,3,2,11,18,77,024,43,20,24,105,49,21,49,183,48,24,53,087,51*7E
2017-12-29 11:46:08 1514565968.686415: $GPGSV,3,3,11,32,32,247,36,27,16,276,28,138,38,213,45*76
2017-12-29 11:46:08 1514565968.799961: $GPZDA,164609.00,29,12,2017,00,00*66
2017-12-29 11:46:08 1514565968.800112: $GPGGA,164609,3946.9609,N,08404.9925,W,2,11,0.80,306.79,M,-33.324,M,,*75
2017-12-29 11:46:08 1514565968.800177: $GPRMC,164609,A,3946.9609,N,08404.9925,W,0.0000,0.000,291217,,*3C
2017-12-29 11:46:08 1514565968.800237: $GPGSA,A,3,8,10,14,15,18,20,21,24,32,27,138,,1.7,0.8,1.3*36
2017-12-29 11:46:09 1514565969.347799: $GPZDA,164610.00,29,12,2017,00,00*6E
2017-12-29 11:46:09 1514565969.347979: $GPGGA,164610,3946.9609,N,08404.9925,W,2,11,0.80,306.79,M,-33.324,M,,*7D
2017-12-29 11:46:09 1514565969.348047: $GPRMC,164610,A,3946.9609,N,08404.9925,W,0.0000,0.000,291217,,*34
2017-12-29 11:46:09 1514565969.348108: $GPGSA,A,3,8,10,14,15,18,20,21,24,32,27,138,,1.7,0.8,1.3*36
2017-12-29 11:46:10 1514565970.348536: $GPZDA,164611.00,29,12,2017,00,00*6F
2017-12-29 11:46:10 1514565970.348704: $GPGGA,164611,3946.9609,N,08404.9925,W,2,11,0.80,306.79,M,-33.324,M,,*7C
2017-12-29 11:46:10 1514565970.348771: $GPRMC,164611,A,3946.9609,N,08404.9925,W,0.0000,0.000,291217,,*35
2017-12-29 11:46:10 1514565970.348831: $GPGSA,A,3,8,10,14,15,18,20,21,24,32,27,138,,1.7,0.8,1.3*36
2017-12-29 11:46:11 1514565971.687630: $GPGSV,3,1,11,08,08,312,22,10,52,312,46,14,13,240,31,15,26,057,46*7C
2017-12-29 11:46:11 1514565971.687807: $GPGSV,3,2,11,18,77,024,44,20,24,105,49,21,49,183,48,24,53,087,51*79
2017-12-29 11:46:11 1514565971.687872: $GPGSV,3,3,11,32,32,247,36,27,16,276,28,138,38,213,45*76
2017-12-29 11:46:11 1514565971.801495: $GPZDA,164612.00,29,12,2017,00,00*6C
2017-12-29 11:46:11 1514565971.801637: $GPGGA,164612,3946.9609,N,08404.9925,W,2,11,0.80,306.79,M,-33.324,M,,*7F
2017-12-29 11:46:11 1514565971.801757: $GPRMC,164612,A,3946.9609,N,08404.9925,W,0.0000,0.000,291217,,*36
2017-12-29 11:46:11 1514565971.801819: $GPGSA,A,3,8,10,14,15,18,20,21,24,32,27,138,,1.7,0.8,1.3*36
2017-12-29 11:46:12 1514565972.354899: $GPZDA,164613.00,29,12,2017,00,00*6D
2017-12-29 11:46:12 1514565972.355074: $GPGGA,164613,3946.9609,N,08404.9925,W,2,11,1.00,306.79,M,-33.324,M,,*77
2017-12-29 11:46:12 1514565972.355141: $GPRMC,164613,A,3946.9609,N,08404.9925,W,0.0000,0.000,291217,,*37
2017-12-29 11:46:12 1514565972.355202: $GPGSA,A,3,8,10,14,15,18,20,21,24,32,27,138,,1.7,1.0,1.3*3F
2017-12-29 11:46:13 1514565973.354088: $GPZDA,164614.00,29,12,2017,00,00*6A
2017-12-29 11:46:13 1514565973.354254: $GPGGA,164614,3946.9609,N,08404.9925,W,2,11,0.80,306.79,M,-33.324,M,,*79
2017-12-29 11:46:13 1514565973.354320: $GPRMC,164614,A,3946.9609,N,08404.9925,W,0.0000,0.000,291217,,*30
2017-12-29 11:46:13 1514565973.354381: $GPGSA,A,3,8,10,14,15,18,20,21,24,32,27,138,,1.7,0.8,1.3*36
2017-12-29 11:46:14 1514565974.689691: $GPGSV,3,1,11,08,08,312,25,10,52,312,46,14,13,240,27,15,26,057,46*7C
2017-12-29 11:46:14 1514565974.689868: $GPGSV,3,2,11,18,77,024,44,20,24,105,49,21,49,183,47,24,53,087,51*76
2017-12-29 11:46:14 1514565974.689934: $GPGSV,3,3,11,32,32,247,36,27,16,276,28,138,38,213,45*76
2017-12-29 11:46:14 1514565974.802158: $GPZDA,164615.00,29,12,2017,00,00*6B
2017-12-29 11:46:14 1514565974.802278: $GPGGA,164615,3946.9609,N,08404.9925,W,2,11,0.80,306.79,M,-33.324,M,,*78
2017-12-29 11:46:14 1514565974.802341: $GPRMC,164615,A,3946.9609,N,08404.9925,W,0.0000,0.000,291217,,*31
2017-12-29 11:46:14 1514565974.802400: $GPGSA,A,3,8,10,14,15,18,20,21,24,32,27,138,,1.7,0.8,1.3*36
2017-12-29 11:46:15 1514565975.428541: $GPZDA,164616.00,29,12,2017,00,00*68
2017-12-29 11:46:15 1514565975.428708: $GPGGA,164616,3946.9609,N,08404.9925,W,2,11,0.80,306.79,M,-33.324,M,,*7B
2017-12-29 11:46:15 1514565975.428773: $GPRMC,164616,A,3946.9609,N,08404.9925,W,0.0000,0.000,291217,,*32
2017-12-29 11:46:15 1514565975.428834: $GPGSA,A,3,8,10,14,15,18,20,21,24,32,27,138,,1.7,0.8,1.3*36
2017-12-29 11:46:16 1514565976.349677: $GPZDA,164617.00,29,12,2017,00,00*69
2017-12-29 11:46:16 1514565976.349845: $GPGGA,164617,3946.9609,N,08404.9925,W,2,11,1.00,306.79,M,-33.324,M,,*73
2017-12-29 11:46:16 1514565976.349912: $GPRMC,164617,A,3946.9609,N,08404.9925,W,0.0000,0.000,291217,,*33
2017-12-29 11:46:16 1514565976.349973: $GPGSA,A,3,8,10,14,15,18,20,21,24,32,27,138,,1.7,1.0,1.3*3F
2017-12-29 11:46:17 1514565977.691378: $GPGSV,3,1,11,08,08,312,29,10,52,312,45,14,13,240,06,15,26,057,47*71
2017-12-29 11:46:17 1514565977.691555: $GPGSV,3,2,11,18,77,024,44,20,24,105,49,21,49,183,47,24,53,087,51*76
2017-12-29 11:46:17 1514565977.691619: $GPGSV,3,3,11,32,32,247,36,27,16,276,27,138,38,213,44*78
2017-12-29 11:46:17 1514565977.804643: $GPZDA,164618.00,29,12,2017,00,00*66
2017-12-29 11:46:17 1514565977.804784: $GPGGA,164618,3946.9609,N,08404.9925,W,2,10,1.00,306.79,M,-33.324,M,,*7D
2017-12-29 11:46:17 1514565977.804850: $GPRMC,164618,A,3946.9609,N,08404.9925,W,0.0000,0.000,291217,,*3C
2017-12-29 11:46:17 1514565977.804910: $GPGSA,A,3,8,10,15,18,20,21,24,32,27,138,,,1.7,1.0,1.3*3A
2017-12-29 11:46:18 1514565978.354791: $GPZDA,164619.00,29,12,2017,00,00*67
2017-12-29 11:46:18 1514565978.354967: $GPGGA,164619,3946.9609,N,08404.9925,W,2,10,0.80,306.79,M,-33.324,M,,*75
2017-12-29 11:46:18 1514565978.355033: $GPRMC,164619,A,3946.9609,N,08404.9925,W,0.0000,0.000,291217,,*3D
2017-12-29 11:46:18 1514565978.355094: $GPGSA,A,3,8,10,15,18,20,21,24,32,27,138,,,1.7,0.8,1.3*33
2017-12-29 11:46:19 1514565979.355683: $GPZDA,164620.00,29,12,2017,00,00*6D
2017-12-29 11:46:19 1514565979.355847: $GPGGA,164620,3946.9609,N,08404.9925,W,2,10,0.80,306.79,M,-33.324,M,,*7F
2017-12-29 11:46:19 1514565979.355913: $GPRMC,164620,A,3946.9609,N,08404.9925,W,0.0000,0.000,291217,,*37
2017-12-29 11:46:19 1514565979.355973: $GPGSA,A,3,8,10,15,18,20,21,24,32,27,138,,,1.7,0.8,1.3*33
