2018-01-11 19:55:53 1515718553.587027: {"class":"VERSION","release":"3.16","rev":"3.16-4","proto_major":3,"proto_minor":11}
2018-01-11 19:55:53 1515718553.587385: {"class":"DEVICES","devices":[{"class":"DEVICE","path":"/dev/ttyUSB0","driver":"SiRF","subtype":"9\u0006GSD4e_4.1.2-P1_RPATCH.05-F-GPS-4R-1510281 11/03/2015 307","activated":"2018-01-12T00:55:53.567Z","flags":1,"native":1,"bps":4800,"parity":"N","stopbits":1,"cycle":1.00}]}
2018-01-11 19:55:53 1515718553.587498: {"class":"WATCH","enable":true,"json":false,"nmea":true,"raw":0,"scaled":false,"timing":false,"split24":false,"pps":false}
2018-01-11 19:55:54 1515718554.385923: $GPZDA,005555.00,12,01,2018,00,00*6F
2018-01-11 19:55:54 1515718554.386131: $GPGGA,005555,3946.9564,N,08404.9809,W,2,10,1.00,307.35,M,-33.324,M,,*7F
2018-01-11 19:55:54 1515718554.386198: $GPRMC,005555,A,3946.9564,N,08404.9809,W,0.0000,0.000,120118,,*32
2018-01-11 19:55:54 1515718554.386259: $GPGSA,A,3,7,8,9,11,16,23,27,28,30,138,,,4.0,1.0,3.5*37
2018-01-11 19:55:55 1515718555.725392: $GPGSV,3,1,11,07,49,312,43,08,68,150,45,09,52,238,43,11,14,169,36*7B
2018-01-11 19:55:55 1515718555.725539: $GPGSV,3,2,11,16,28,055,47,23,36,192,48,27,53,060,51,28,09,253,31*70
2018-01-11 19:55:55 1515718555.725603: $GPGSV,3,3,11,30,23,303,22,26,03,069,00,138,38,213,45*73
2018-01-11 19:55:55 1515718555.838736: $GPZDA,005556.00,12,01,2018,00,00*6C
2018-01-11 19:55:55 1515718555.838866: $GPGGA,005556,3946.9564,N,08404.9809,W,2,10,0.80,307.35,M,-33.324,M,,*75
2018-01-11 19:55:55 1515718555.838932: $GPRMC,005556,A,3946.9564,N,08404.9809,W,0.0000,0.000,120118,,*31
2018-01-11 19:55:55 1515718555.839014: $GPGSA,A,3,7,8,9,11,16,23,27,28,30,138,,,4.0,0.8,3.5*3E
2018-01-11 19:55:56 1515718556.398391: $GPZDA,005557.00,12,01,2018,00,00*6D
2018-01-11 19:55:56 1515718556.398590: $GPGGA,005557,3946.9564,N,08404.9809,W,2,10,0.80,307.35,M,-33.324,M,,*74
2018-01-11 19:55:56 1515718556.398659: $GPRMC,005557,A,3946.9564,N,08404.9809,W,0.0000,0.000,120118,,*30
2018-01-11 19:55:56 1515718556.398720: $GPGSA,A,3,7,8,9,11,16,23,27,28,30,138,,,4.0,0.8,3.5*3E
2018-01-11 19:55:57 1515718557.403010: $GPZDA,005558.00,12,01,2018,00,00*62
2018-01-11 19:55:57 1515718557.403184: $GPGGA,005558,3946.9564,N,08404.9809,W,2,10,0.80,307.35,M,-33.324,M,,*7B
2018-01-11 19:55:57 1515718557.403250: $GPRMC,005558,A,3946.9564,N,08404.9809,W,0.0000,0.000,120118,,*3F
2018-01-11 19:55:57 1515718557.403311: $GPGSA,A,3,7,8,9,11,16,23,27,28,30,138,,,4.0,0.8,3.5*3E
2018-01-11 19:55:58 1515718558.722469: $GPGSV,3,1,11,07,49,312,43,08,68,150,45,09,52,238,42,11,14,169,37*7B
2018-01-11 19:55:58 1515718558.785628: $GPGSV,3,2,11,16,28,055,47,23,36,192,47,27,53,060,51,28,09,253,31*7F
2018-01-11 19:55:58 1515718558.785756: $GPGSV,3,3,11,30,23,303,28,26,03,069,00,138,38,213,44*78
2018-01-11 19:55:58 1515718558.836127: $GPZDA,005559.00,12,01,2018,00,00*63
2018-01-11 19:55:58 1515718558.836256: $GPGGA,005559,3946.9564,N,08404.9809,W,2,10,0.80,307.35,M,-33.324,M,,*7A
2018-01-11 19:55:58 1515718558.836320: $GPRMC,005559,A,3946.9564,N,08404.9809,W,0.0000,0.000,120118,,*3E
2018-01-11 19:55:58 1515718558.836380: $GPGSA,A,3,7,8,9,11,16,23,27,28,30,138,,,4.0,0.8,3.5*3E
2018-01-11 19:55:59 1515718559.461240: $GPZDA,005600.00,12,01,2018,00,00*6C
2018-01-11 19:55:59 1515718559.461389: $GPGGA,005600,3946.9564,N,08404.9809,W,2,10,0.80,307.35,M,-33.324,M,,*75
2018-01-11 19:55:59 1515718559.461455: $GPRMC,005600,A,3946.9564,N,08404.9809,W,0.0000,0.000,120118,,*31
2018-01-11 19:55:59 1515718559.461515: $GPGSA,A,3,7,8,9,11,16,23,27,28,30,138,,,4.0,0.8,3.5*3E
2018-01-11 19:56:00 1515718560.388645: $GPZDA,005601.00,12,01,2018,00,00*6D
2018-01-11 19:56:00 1515718560.388807: $GPGGA,005601,3946.9564,N,08404.9809,W,2,10,0.80,307.35,M,-33.324,M,,*74
2018-01-11 19:56:00 1515718560.388873: $GPRMC,005601,A,3946.9564,N,08404.9809,W,0.0000,0.000,120118,,*30
2018-01-11 19:56:00 1515718560.388961: $GPGSA,A,3,7,8,9,11,16,23,27,28,30,138,,,4.0,0.8,3.5*3E
2018-01-11 19:56:01 1515718561.722832: $GPGSV,3,1,11,07,49,312,43,08,68,150,45,09,52,238,42,11,14,169,38*74
2018-01-11 19:56:01 1515718561.723049: $GPGSV,3,2,11,16,28,055,47,23,36,192,47,27,53,060,50,28,09,253,25*7B
2018-01-11 19:56:01 1515718561.723170: $GPGSV,3,3,11,30,23,303,30,26,03,069,00,138,38,213,45*70
2018-01-11 19:56:01 1515718561.836189: $GPZDA,005602.00,12,01,2018,00,00*6E
2018-01-11 19:56:01 1515718561.836319: $GPGGA,005602,3946.9564,N,08404.9809,W,2,10,0.80,307.35,M,-33.324,M,,*77
2018-01-11 19:56:01 1515718561.836384: $GPRMC,005602,A,3946.9564,N,08404.9809,W,0.0000,0.000,120118,,*33
2018-01-11 19:56:01 1515718561.836445: $GPGSA,A,3,7,8,9,11,16,23,27,28,30,138,,,4.0,0.8,3.5*3E
2018-01-11 19:56:02 1515718562.385811: $GPZDA,005603.00,12,01,2018,00,00*6F
2018-01-11 19:56:02 1515718562.385981: $GPGGA,005603,3946.9564,N,08404.9809,W,2,10,0.80,307.35,M,-33.324,M,,*76
2018-01-11 19:56:02 1515718562.386068: $GPRMC,005603,A,3946.9564,N,08404.9809,W,0.0000,0.000,120118,,*32
2018-01-11 19:56:02 1515718562.386131: $GPGSA,A,3,7,8,9,11,16,23,27,28,30,138,,,4.0,0.8,3.5*3E
2018-01-11 19:56:03 1515718563.404210: $GPZDA,005604.00,12,01,2018,00,00*68
2018-01-11 19:56:03 1515718563.408415: $GPGGA,005604,3946.9564,N,08404.9809,W,2,10,0.80,307.35,M,-33.324,M,,*71
2018-01-11 19:56:03 1515718563.408524: $GPRMC,005604,A,3946.9564,N,08404.9809,W,0.0000,0.000,120118,,*35
2018-01-11 19:56:03 1515718563.408588: $GPGSA,A,3,7,8,9,11,16,23,27,28,30,138,,,4.0,0.8,3.5*3E
