2017-12-01 11:43:17 1512146597.896993: {"class":"VERSION","release":"3.16","rev":"3.16-4","proto_major":3,"proto_minor":11}
2017-12-01 11:43:17 1512146597.897411: {"class":"DEVICES","devices":[{"class":"DEVICE","path":"/dev/ttyUSB0","driver":"SiRF","subtype":"9\u0006GSD4e_4.1.2-P1_RPATCH.05-F-GPS-4R-1510281 11/03/2015 307","activated":"2017-12-01T16:43:17.517Z","flags":1,"native":1,"bps":4800,"parity":"N","stopbits":1,"cycle":1.00}]}
2017-12-01 11:43:17 1512146597.897532: {"class":"WATCH","enable":true,"json":false,"nmea":true,"raw":0,"scaled":false,"timing":false,"split24":false,"pps":false}
2017-12-01 11:43:18 1512146598.699211: $GPGSV,3,1,12,05,14,076,31,10,13,271,36,13,43,051,48,15,76,073,47*76
2017-12-01 11:43:18 1512146598.699400: $GPGSV,3,2,12,18,43,285,44,20,63,049,41,21,66,306,46,24,20,148,43*7F
2017-12-01 11:43:18 1512146598.699467: $GPGSV,3,3,12,27,08,324,45,29,25,195,42,04,13,130,00,138,38,213,46*43
2017-12-01 11:43:18 1512146598.812611: $GPZDA,164319.00,01,12,2017,00,00*68
2017-12-01 11:43:18 1512146598.812789: $GPGGA,164319,3946.9553,N,08404.9823,W,2,11,0.80,305.27,M,-33.324,M,,*72
2017-12-01 11:43:18 1512146598.812858: $GPRMC,164319,A,3946.9553,N,08404.9823,W,0.0000,0.000,011217,,*39
2017-12-01 11:43:18 1512146598.812920: $GPGSA,A,3,5,10,13,15,18,20,21,24,27,29,138,,2.0,0.8,1.5*34
2017-12-01 11:43:19 1512146599.358483: $GPZDA,164320.00,01,12,2017,00,00*62
2017-12-01 11:43:19 1512146599.358677: $GPGGA,164320,3946.9553,N,08404.9823,W,2,11,0.80,305.27,M,-33.324,M,,*78
2017-12-01 11:43:19 1512146599.358765: $GPRMC,164320,A,3946.9553,N,08404.9823,W,0.0000,0.000,011217,,*33
2017-12-01 11:43:19 1512146599.358830: $GPGSA,A,3,5,10,13,15,18,20,21,24,27,29,138,,2.0,0.8,1.5*34
2017-12-01 11:43:20 1512146600.355585: $GPZDA,164321.00,01,12,2017,00,00*63
2017-12-01 11:43:20 1512146600.355765: $GPGGA,164321,3946.9553,N,08404.9823,W,2,11,0.80,305.27,M,-33.324,M,,*79
2017-12-01 11:43:20 1512146600.355832: $GPRMC,164321,A,3946.9553,N,08404.9823,W,0.0000,0.000,011217,,*32
2017-12-01 11:43:20 1512146600.355895: $GPGSA,A,3,5,10,13,15,18,20,21,24,27,29,138,,2.0,0.8,1.5*34
2017-12-01 11:43:21 1512146601.696316: $GPGSV,3,1,12,05,14,076,27,10,13,271,35,13,43,051,47,15,76,073,47*7D
2017-12-01 11:43:21 1512146601.696505: $GPGSV,3,2,12,18,43,285,44,20,63,049,41,21,66,306,46,24,20,148,43*7F
2017-12-01 11:43:21 1512146601.696571: $GPGSV,3,3,12,27,08,324,44,29,25,195,42,04,13,130,00,138,38,213,46*42
2017-12-01 11:43:21 1512146601.809934: $GPZDA,164322.00,01,12,2017,00,00*60
2017-12-01 11:43:21 1512146601.810107: $GPGGA,164322,3946.9553,N,08404.9823,W,2,11,0.80,305.27,M,-33.324,M,,*7A
2017-12-01 11:43:21 1512146601.810173: $GPRMC,164322,A,3946.9553,N,08404.9823,W,0.0000,0.000,011217,,*31
2017-12-01 11:43:21 1512146601.810235: $GPGSA,A,3,5,10,13,15,18,20,21,24,27,29,138,,2.0,0.8,1.5*34
2017-12-01 11:43:22 1512146602.435045: $GPZDA,164323.00,01,12,2017,00,00*61
2017-12-01 11:43:22 1512146602.435223: $GPGGA,164323,3946.9553,N,08404.9823,W,2,11,0.80,305.27,M,-33.324,M,,*7B
2017-12-01 11:43:22 1512146602.435292: $GPRMC,164323,A,3946.9553,N,08404.9823,W,0.0000,0.000,011217,,*30
2017-12-01 11:43:22 1512146602.435355: $GPGSA,A,3,5,10,13,15,18,20,21,24,27,29,138,,2.0,0.8,1.5*34
2017-12-01 11:43:23 1512146603.360927: $GPZDA,164324.00,01,12,2017,00,00*66
2017-12-01 11:43:23 1512146603.361109: $GPGGA,164324,3946.9553,N,08404.9823,W,2,11,0.80,305.27,M,-33.324,M,,*7C
2017-12-01 11:43:23 1512146603.361177: $GPRMC,164324,A,3946.9553,N,08404.9823,W,0.0000,0.000,011217,,*37
2017-12-01 11:43:23 1512146603.361240: $GPGSA,A,3,5,10,13,15,18,20,21,24,27,29,138,,2.0,0.8,1.5*34
2017-12-01 11:43:24 1512146604.693097: $GPGSV,3,1,12,05,14,076,25,10,13,271,36,13,43,051,47,15,76,073,47*7C
2017-12-01 11:43:24 1512146604.693310: $GPGSV,3,2,12,18,43,285,44,20,63,049,41,21,66,306,46,24,20,148,43*7F
2017-12-01 11:43:24 1512146604.693388: $GPGSV,3,3,12,27,08,324,44,29,25,195,43,04,13,130,00,138,38,213,46*43
2017-12-01 11:43:24 1512146604.805018: $GPZDA,164325.00,01,12,2017,00,00*67
2017-12-01 11:43:24 1512146604.805195: $GPGGA,164325,3946.9553,N,08404.9823,W,2,11,0.80,305.27,M,-33.324,M,,*7D
2017-12-01 11:43:24 1512146604.805317: $GPRMC,164325,A,3946.9553,N,08404.9823,W,0.0000,0.000,011217,,*36
2017-12-01 11:43:24 1512146604.805384: $GPGSA,A,3,5,10,13,15,18,20,21,24,27,29,138,,2.0,0.8,1.5*34
2017-12-01 11:43:25 1512146605.377160: $GPZDA,164326.00,01,12,2017,00,00*64
2017-12-01 11:43:25 1512146605.377342: $GPGGA,164326,3946.9553,N,08404.9823,W,2,11,0.80,305.27,M,-33.324,M,,*7E
2017-12-01 11:43:25 1512146605.377410: $GPRMC,164326,A,3946.9553,N,08404.9823,W,0.0000,0.000,011217,,*35
2017-12-01 11:43:25 1512146605.377477: $GPGSA,A,3,5,10,13,15,18,20,21,24,27,29,138,,2.0,0.8,1.5*34
2017-12-01 11:43:26 1512146606.378094: $GPZDA,164327.00,01,12,2017,00,00*65
2017-12-01 11:43:26 1512146606.378277: $GPGGA,164327,3946.9553,N,08404.9823,W,2,11,0.80,305.27,M,-33.324,M,,*7F
2017-12-01 11:43:26 1512146606.378350: $GPRMC,164327,A,3946.9553,N,08404.9823,W,0.0000,0.000,011217,,*34
2017-12-01 11:43:26 1512146606.378412: $GPGSA,A,3,5,10,13,15,18,20,21,24,27,29,138,,2.0,0.8,1.5*34
2017-12-01 11:43:27 1512146607.698243: $GPGSV,3,1,12,05,14,076,26,10,13,271,36,13,43,051,47,15,76,073,47*7F
2017-12-01 11:43:27 1512146607.698438: $GPGSV,3,2,12,18,43,285,44,20,63,049,42,21,66,306,45,24,20,148,43*7F
2017-12-01 11:43:27 1512146607.698505: $GPGSV,3,3,12,27,08,324,45,29,25,195,42,04,13,130,00,138,38,213,46*43
2017-12-01 11:43:27 1512146607.811671: $GPZDA,164328.00,01,12,2017,00,00*6A
2017-12-01 11:43:27 1512146607.811828: $GPGGA,164328,3946.9553,N,08404.9823,W,2,11,0.80,305.27,M,-33.324,M,,*70
2017-12-01 11:43:27 1512146607.811896: $GPRMC,164328,A,3946.9553,N,08404.9823,W,0.0000,0.000,011217,,*3B
2017-12-01 11:43:27 1512146607.811959: $GPGSA,A,3,5,10,13,15,18,20,21,24,27,29,138,,2.0,0.8,1.5*34
