2017-11-15 19:39:53 1510792793.703838: {"class":"VERSION","release":"3.17","rev":"3.17","proto_major":3,"proto_minor":12}
2017-11-15 19:39:53 1510792793.704297: {"class":"DEVICES","devices":[{"class":"DEVICE","path":"/dev/ttyUSB0","driver":"SiRF","subtype":"9\u0006GSD4e_4.1.2-P1_RPATCH.05-F-GPS-4R-1510281 11/03/2015 307","activated":"2017-11-16T00:39:53.488Z","flags":1,"native":1,"bps":4800,"parity":"N","stopbits":1,"cycle":1.00}]}
2017-11-15 19:39:53 1510792793.704425: {"class":"WATCH","enable":true,"json":false,"nmea":true,"raw":0,"scaled":false,"timing":false,"split24":false,"pps":false}
2017-11-15 19:39:54 1510792794.666238: $GPGSV,3,1,11,32,32,111,18,16,27,190,17,22,50,264,11,26,58,171,24*72
2017-11-15 19:39:54 1510792794.666416: $GPGSV,3,2,11,14,52,097,16,31,64,031,25,03,42,294,16,23,14,303,00*7F
2017-11-15 19:39:54 1510792794.666476: $GPGSV,3,3,11,29,12,067,12,25,13,039,00,01,03,249,00*41
2017-11-15 19:39:54 1510792794.779560: $GPZDA,003953.00,16,11,2017,00,00*69
2017-11-15 19:39:54 1510792794.779731: $GPGGA,003953,3946.9622,N,08404.9575,W,1,08,1.00,286.73,M,-33.324,M,,*74
2017-11-15 19:39:54 1510792794.779793: $GPRMC,003953,A,3946.9622,N,08404.9575,W,1.2381,352.270,161117,,*3B
2017-11-15 19:39:54 1510792794.779849: $GPGSA,A,3,32,16,22,26,14,31,3,29,,,,,3.4,1.0,2.9*02
2017-11-15 19:39:55 1510792795.346666: $GPZDA,003954.00,16,11,2017,00,00*6E
2017-11-15 19:39:55 1510792795.346885: $GPGGA,003954,3946.9626,N,08404.9575,W,1,08,1.00,287.37,M,-33.324,M,,*76
2017-11-15 19:39:55 1510792795.346947: $GPRMC,003954,A,3946.9626,N,08404.9575,W,0.9060,347.792,161117,,*33
2017-11-15 19:39:55 1510792795.347004: $GPGSA,A,3,32,16,22,26,14,31,3,29,,,,,3.4,1.0,2.9*02
2017-11-15 19:39:56 1510792796.329531: $GPZDA,003955.00,16,11,2017,00,00*6F
2017-11-15 19:39:56 1510792796.329696: $GPGGA,003955,3946.9626,N,08404.9575,W,1,08,1.00,287.37,M,-33.324,M,,*77
2017-11-15 19:39:56 1510792796.329756: $GPRMC,003955,A,3946.9626,N,08404.9575,W,0.6846,4.197,161117,,*36
2017-11-15 19:39:56 1510792796.329812: $GPGSA,A,3,32,16,22,26,14,31,3,29,,,,,3.4,1.0,2.9*02
2017-11-15 19:39:57 1510792797.682836: $GPGSV,3,1,11,32,32,111,18,16,27,190,17,22,50,264,12,26,58,171,24*71
2017-11-15 19:39:57 1510792797.683009: $GPGSV,3,2,11,14,52,097,16,31,64,031,25,03,42,294,16,23,14,303,00*7F
2017-11-15 19:39:57 1510792797.683069: $GPGSV,3,3,11,29,12,067,10,25,13,039,00,01,03,249,00*43
2017-11-15 19:39:57 1510792797.796171: $GPZDA,003956.00,16,11,2017,00,00*6C
2017-11-15 19:39:57 1510792797.796330: $GPGGA,003956,3946.9626,N,08404.9575,W,1,08,1.00,287.37,M,-33.324,M,,*74
2017-11-15 19:39:57 1510792797.796389: $GPRMC,003956,A,3946.9626,N,08404.9575,W,0.4985,5.767,161117,,*31
2017-11-15 19:39:57 1510792797.796444: $GPGSA,A,3,32,16,22,26,14,31,3,29,,,,,3.4,1.0,2.9*02
2017-11-15 19:39:58 1510792798.329553: $GPZDA,003957.00,16,11,2017,00,00*6D
2017-11-15 19:39:58 1510792798.329727: $GPGGA,003957,3946.9626,N,08404.9575,W,1,08,1.00,287.37,M,-33.324,M,,*75
2017-11-15 19:39:58 1510792798.329790: $GPRMC,003957,A,3946.9626,N,08404.9575,W,0.0000,0.000,161117,,*33
2017-11-15 19:39:58 1510792798.329845: $GPGSA,A,3,32,16,22,26,14,31,3,29,,,,,3.4,1.0,2.9*02
2017-11-15 19:39:59 1510792799.345407: $GPZDA,003958.00,16,11,2017,00,00*62
2017-11-15 19:39:59 1510792799.345580: $GPGGA,003958,3946.9626,N,08404.9575,W,1,08,1.00,287.37,M,-33.324,M,,*7A
2017-11-15 19:39:59 1510792799.347261: $GPRMC,003958,A,3946.9626,N,08404.9575,W,0.3423,4.197,161117,,*31
2017-11-15 19:39:59 1510792799.347339: $GPGSA,A,3,32,16,22,26,14,31,3,29,,,,,3.4,1.0,2.9*02
2017-11-15 19:40:00 1510792800.682450: $GPGSV,3,1,11,32,32,111,17,16,27,190,17,22,50,264,12,26,58,171,24*7E
2017-11-15 19:40:00 1510792800.682621: $GPGSV,3,2,11,14,52,097,16,31,64,031,25,03,42,294,16,25,13,039,02*76
2017-11-15 19:40:00 1510792800.682681: $GPGSV,3,3,11,29,12,067,10,23,14,303,00,01,03,249,00*48
2017-11-15 19:40:00 1510792800.795780: $GPZDA,003959.00,16,11,2017,00,00*63
2017-11-15 19:40:00 1510792800.795946: $GPGGA,003959,3946.9626,N,08404.9575,W,1,08,1.00,287.37,M,-33.324,M,,*7B
2017-11-15 19:40:00 1510792800.796008: $GPRMC,003959,A,3946.9626,N,08404.9575,W,0.2422,273.794,161117,,*37
2017-11-15 19:40:00 1510792800.796113: $GPGSA,A,3,32,16,22,26,14,31,3,29,,,,,3.4,1.0,2.9*02
2017-11-15 19:40:01 1510792801.421130: $GPZDA,004000.00,16,11,2017,00,00*61
2017-11-15 19:40:01 1510792801.421302: $GPGGA,004000,3946.9626,N,08404.9568,W,1,08,1.00,287.45,M,-33.324,M,,*70
2017-11-15 19:40:01 1510792801.421363: $GPRMC,004000,A,3946.9626,N,08404.9568,W,0.3423,4.197,161117,,*3E
2017-11-15 19:40:01 1510792801.421419: $GPGSA,A,3,32,16,22,26,14,31,3,29,,,,,3.4,1.0,2.9*02
2017-11-15 19:40:02 1510792802.329507: $GPZDA,004001.00,16,11,2017,00,00*60
2017-11-15 19:40:02 1510792802.329673: $GPGGA,004001,3946.9630,N,08404.9568,W,1,08,1.00,288.09,M,-33.324,M,,*71
2017-11-15 19:40:02 1510792802.329733: $GPRMC,004001,A,3946.9630,N,08404.9568,W,1.0567,17.448,161117,,*0E
2017-11-15 19:40:02 1510792802.329789: $GPGSA,A,3,32,16,22,26,14,31,3,29,,,,,3.4,1.0,2.9*02
2017-11-15 19:40:03 1510792803.682818: $GPGSV,3,1,11,32,32,111,16,16,27,190,18,22,50,264,12,26,58,171,24*70
2017-11-15 19:40:03 1510792803.682965: $GPGSV,3,2,11,14,52,097,16,31,64,031,24,03,42,294,15,25,13,039,06*70
2017-11-15 19:40:03 1510792803.683024: $GPGSV,3,3,11,29,12,067,11,23,14,303,00,01,03,249,00*49
