2018-01-12 03:28:05 1515745685.266389: {"class":"VERSION","release":"3.16","rev":"3.16-4","proto_major":3,"proto_minor":11}
2018-01-12 03:28:05 1515745685.266796: {"class":"DEVICES","devices":[{"class":"DEVICE","path":"/dev/ttyUSB0","driver":"SiRF","subtype":"9\u0006GSD4e_4.1.2-P1_RPATCH.05-F-GPS-4R-1510281 11/03/2015 307","activated":"2018-01-12T08:28:05.158Z","flags":1,"native":1,"bps":4800,"parity":"N","stopbits":1,"cycle":1.00}]}
2018-01-12 03:28:05 1515745685.266914: {"class":"WATCH","enable":true,"json":false,"nmea":true,"raw":0,"scaled":false,"timing":false,"split24":false,"pps":false}
2018-01-12 03:28:06 1515745686.099531: $GPZDA,082806.39,12,01,2018,00,00*61
2018-01-12 03:28:06 1515745686.099719: $GPGGA,082806,3946.9541,N,08404.9820,W,1,11,1.00,296.97,M,-33.324,M,,*74
2018-01-12 03:28:06 1515745686.099787: $GPRMC,082806,A,3946.9541,N,08404.9820,W,0.3006,62.539,120118,,*04
2018-01-12 03:28:06 1515745686.099849: $GPGSA,A,3,2,5,6,12,17,19,25,9,23,24,138,,2.4,1.0,2.1*09
2018-01-12 03:28:06 1515745686.099907: $GPGBS,082806,11.98,M,14.47,M,47.88,M*0E
2018-01-12 03:28:07 1515745687.242190: $GPGSV,3,1,12,02,63,283,46,05,24,195,44,06,66,027,48,12,50,294,52*7B
2018-01-12 03:28:07 1515745687.242370: $GPGSV,3,2,12,17,33,102,45,19,51,090,40,25,17,319,44,09,13,090,16*71
2018-01-12 03:28:07 1515745687.242437: $GPGSV,3,3,12,23,08,057,03,24,04,247,02,04,36,258,00,138,38,213,00*4C
2018-01-12 03:28:07 1515745687.356106: $GPZDA,082807.00,12,01,2018,00,00*6A
2018-01-12 03:28:07 1515745687.356297: $GPGGA,082807,3946.9541,N,08404.9820,W,1,07,1.00,296.97,M,-33.324,M,,*72
2018-01-12 03:28:07 1515745687.356364: $GPRMC,082807,A,3946.9541,N,08404.9820,W,0.3006,62.539,120118,,*05
2018-01-12 03:28:07 1515745687.356426: $GPGSA,A,3,2,5,6,12,17,19,25,,,,,,2.4,1.0,2.1*0D
2018-01-12 03:28:07 1515745687.806615: $GPZDA,082808.00,12,01,2018,00,00*65
2018-01-12 03:28:07 1515745687.806787: $GPGGA,082808,3946.9544,N,08404.9819,W,1,07,0.80,296.21,M,-33.324,M,,*76
2018-01-12 03:28:07 1515745687.806853: $GPRMC,082808,A,3946.9544,N,08404.9819,W,0.1567,9.200,120118,,*35
2018-01-12 03:28:07 1515745687.806914: $GPGSA,A,3,2,5,6,12,17,19,25,,,,,,2.4,0.8,2.1*04
2018-01-12 03:28:08 1515745688.414942: $GPZDA,082809.00,12,01,2018,00,00*64
2018-01-12 03:28:08 1515745688.415121: $GPGGA,082809,3946.9545,N,08404.9826,W,1,07,0.80,296.13,M,-33.324,M,,*7B
2018-01-12 03:28:08 1515745688.415188: $GPRMC,082809,A,3946.9545,N,08404.9826,W,0.0000,0.000,120118,,*37
2018-01-12 03:28:08 1515745688.415250: $GPGSA,A,3,2,5,6,12,17,19,25,,,,,,2.4,0.8,2.1*04
2018-01-12 03:28:09 1515745689.748788: $GPGSV,3,1,12,02,63,283,47,05,24,195,45,06,66,027,49,12,50,294,52*7A
2018-01-12 03:28:09 1515745689.748973: $GPGSV,3,2,12,17,33,102,46,19,51,090,40,25,17,319,44,09,13,090,31*77
2018-01-12 03:28:09 1515745689.749040: $GPGSV,3,3,12,23,08,057,26,24,04,247,23,04,36,258,00,138,38,213,39*42
2018-01-12 03:28:09 1515745689.862483: $GPZDA,082810.00,12,01,2018,00,00*6C
2018-01-12 03:28:09 1515745689.862658: $GPGGA,082810,3946.9545,N,08404.9826,W,1,11,0.80,296.13,M,-33.324,M,,*74
2018-01-12 03:28:09 1515745689.862725: $GPRMC,082810,A,3946.9545,N,08404.9826,W,0.0000,0.000,120118,,*3F
2018-01-12 03:28:09 1515745689.862787: $GPGSA,A,3,2,5,6,12,17,19,25,9,23,24,138,,2.4,0.8,2.1*00
2018-01-12 03:28:10 1515745690.418501: $GPZDA,082811.00,12,01,2018,00,00*6D
2018-01-12 03:28:10 1515745690.418699: $GPGGA,082811,3946.9548,N,08404.9825,W,1,11,0.80,295.36,M,-33.324,M,,*7F
2018-01-12 03:28:10 1515745690.418786: $GPRMC,082811,A,3946.9548,N,08404.9825,W,0.0000,0.000,120118,,*30
2018-01-12 03:28:10 1515745690.418850: $GPGSA,A,3,2,5,6,12,17,19,25,9,23,24,138,,2.4,0.8,2.1*00
2018-01-12 03:28:11 1515745691.415174: $GPZDA,082812.00,12,01,2018,00,00*6E
2018-01-12 03:28:11 1515745691.415346: $GPGGA,082812,3946.9548,N,08404.9825,W,1,11,0.80,295.36,M,-33.324,M,,*7C
2018-01-12 03:28:11 1515745691.415413: $GPRMC,082812,A,3946.9548,N,08404.9825,W,0.0000,0.000,120118,,*33
2018-01-12 03:28:11 1515745691.415474: $GPGSA,A,3,2,5,6,12,17,19,25,9,23,24,138,,2.4,0.8,2.1*00
2018-01-12 03:28:11 1515745691.415532: $GPGBS,082812,11.98,M,14.47,M,47.88,M*0B
2018-01-12 03:28:12 1515745692.752145: $GPGSV,3,1,12,02,63,283,47,05,24,195,44,06,66,027,48,12,50,294,51*79
2018-01-12 03:28:12 1515745692.752337: $GPGSV,3,2,12,17,33,102,46,19,51,090,41,25,17,319,44,09,13,090,31*76
2018-01-12 03:28:12 1515745692.752404: $GPGSV,3,3,12,23,08,057,26,24,04,247,23,04,36,258,00,138,38,213,40*4C
2018-01-12 03:28:12 1515745692.865801: $GPZDA,082813.00,12,01,2018,00,00*6F
2018-01-12 03:28:12 1515745692.865973: $GPGGA,082813,3946.9548,N,08404.9832,W,1,11,0.80,295.29,M,-33.324,M,,*75
2018-01-12 03:28:12 1515745692.866040: $GPRMC,082813,A,3946.9548,N,08404.9832,W,0.0000,0.000,120118,,*34
2018-01-12 03:28:12 1515745692.866101: $GPGSA,A,3,2,5,6,12,17,19,25,9,23,24,138,,2.4,0.8,2.1*00
2018-01-12 03:28:13 1515745693.417851: $GPZDA,082814.00,12,01,2018,00,00*68
2018-01-12 03:28:13 1515745693.418023: $GPGGA,082814,3946.9548,N,08404.9832,W,1,11,0.80,295.29,M,-33.324,M,,*72
2018-01-12 03:28:13 1515745693.418089: $GPRMC,082814,A,3946.9548,N,08404.9832,W,0.0000,0.000,120118,,*33
2018-01-12 03:28:13 1515745693.418150: $GPGSA,A,3,2,5,6,12,17,19,25,9,23,24,138,,2.4,0.8,2.1*00
2018-01-12 03:28:14 1515745694.413129: $GPZDA,082815.00,12,01,2018,00,00*69
2018-01-12 03:28:14 1515745694.413300: $GPGGA,082815,3946.9548,N,08404.9832,W,1,11,0.80,295.29,M,-33.324,M,,*73
2018-01-12 03:28:14 1515745694.413367: $GPRMC,082815,A,3946.9548,N,08404.9832,W,0.0000,0.000,120118,,*32
2018-01-12 03:28:14 1515745694.413429: $GPGSA,A,3,2,5,6,12,17,19,25,9,23,24,138,,2.4,0.8,2.1*00
2018-01-12 03:28:15 1515745695.748607: $GPGSV,3,1,12,02,63,283,46,05,24,195,45,06,66,027,49,12,50,294,51*78
2018-01-12 03:28:15 1515745695.748795: $GPGSV,3,2,12,17,33,102,46,19,51,090,40,25,17,319,44,09,13,090,31*77
2018-01-12 03:28:15 1515745695.748885: $GPGSV,3,3,12,23,08,057,26,24,04,247,26,04,36,258,00,138,38,213,35*4B
2018-01-12 03:28:15 1515745695.862129: $GPZDA,082816.00,12,01,2018,00,00*6A
2018-01-12 03:28:15 1515745695.862295: $GPGGA,082816,3946.9552,N,08404.9832,W,1,11,0.80,294.52,M,-33.324,M,,*76
2018-01-12 03:28:15 1515745695.862362: $GPRMC,082816,A,3946.9552,N,08404.9832,W,0.0000,0.000,120118,,*3A
2018-01-12 03:28:15 1515745695.862422: $GPGSA,A,3,2,5,6,12,17,19,25,9,23,24,138,,2.4,0.8,2.1*00
2018-01-12 03:28:16 1515745696.411598: $GPZDA,082817.00,12,01,2018,00,00*6B
2018-01-12 03:28:16 1515745696.411778: $GPGGA,082817,3946.9552,N,08404.9832,W,1,11,0.80,294.52,M,-33.324,M,,*77
2018-01-12 03:28:16 1515745696.411844: $GPRMC,082817,A,3946.9552,N,08404.9832,W,0.0000,0.000,120118,,*3B
2018-01-12 03:28:16 1515745696.411906: $GPGSA,A,3,2,5,6,12,17,19,25,9,23,24,138,,2.4,0.8,2.1*00
2018-01-12 03:28:17 1515745697.413931: $GPZDA,082818.00,12,01,2018,00,00*64
2018-01-12 03:28:17 1515745697.414109: $GPGGA,082818,3946.9552,N,08404.9832,W,1,11,0.80,294.52,M,-33.324,M,,*78
2018-01-12 03:28:17 1515745697.414178: $GPRMC,082818,A,3946.9552,N,08404.9832,W,0.0000,0.000,120118,,*34
2018-01-12 03:28:17 1515745697.414296: $GPGSA,A,3,2,5,6,12,17,19,25,9,23,24,138,,2.4,0.8,2.1*00
2018-01-12 03:28:18 1515745698.752284: $GPGSV,3,1,12,02,63,283,47,05,24,195,44,06,66,027,48,12,50,294,51*79
2018-01-12 03:28:18 1515745698.752466: $GPGSV,3,2,12,17,33,102,47,19,51,090,41,25,17,319,44,09,13,090,31*77
2018-01-12 03:28:18 1515745698.752534: $GPGSV,3,3,12,23,08,057,26,24,04,247,30,04,36,258,00,138,38,213,38*41
2018-01-12 03:28:18 1515745698.865819: $GPZDA,082819.00,12,01,2018,00,00*65
2018-01-12 03:28:18 1515745698.865987: $GPGGA,082819,3946.9556,N,08404.9839,W,1,11,0.80,295.08,M,-33.324,M,,*78
2018-01-12 03:28:18 1515745698.866053: $GPRMC,082819,A,3946.9556,N,08404.9839,W,0.0000,0.000,120118,,*3A
2018-01-12 03:28:18 1515745698.866113: $GPGSA,A,3,2,5,6,12,17,19,25,9,23,24,138,,2.4,0.8,2.1*00
2018-01-12 03:28:19 1515745699.492675: $GPZDA,082820.00,12,01,2018,00,00*6F
2018-01-12 03:28:19 1515745699.492840: $GPGGA,082820,3946.9556,N,08404.9839,W,1,11,0.80,295.08,M,-33.324,M,,*72
2018-01-12 03:28:19 1515745699.492908: $GPRMC,082820,A,3946.9556,N,08404.9839,W,0.0000,0.000,120118,,*30
2018-01-12 03:28:19 1515745699.492968: $GPGSA,A,3,2,5,6,12,17,19,25,9,23,24,138,,2.4,0.8,2.1*00
2018-01-12 03:28:20 1515745700.417183: $GPZDA,082821.00,12,01,2018,00,00*6E
2018-01-12 03:28:20 1515745700.417355: $GPGGA,082821,3946.9556,N,08404.9839,W,1,11,0.80,295.08,M,-33.324,M,,*73
2018-01-12 03:28:20 1515745700.417421: $GPRMC,082821,A,3946.9556,N,08404.9839,W,0.0000,0.000,120118,,*31
2018-01-12 03:28:20 1515745700.417482: $GPGSA,A,3,2,5,6,12,17,19,25,9,23,24,138,,2.4,0.8,2.1*00
2018-01-12 03:28:21 1515745701.750078: $GPGSV,3,1,12,02,63,283,47,05,24,195,45,06,66,027,48,12,50,294,51*78
2018-01-12 03:28:21 1515745701.750256: $GPGSV,3,2,12,17,33,102,47,19,51,090,41,25,17,319,44,09,13,090,30*76
2018-01-12 03:28:21 1515745701.750322: $GPGSV,3,3,12,23,08,057,26,24,04,247,31,04,36,258,00,138,38,213,40*4F
2018-01-12 03:28:21 1515745701.863429: $GPZDA,082822.00,12,01,2018,00,00*6D
2018-01-12 03:28:21 1515745701.863607: $GPGGA,082822,3946.9557,N,08404.9845,W,1,11,0.80,295.00,M,-33.324,M,,*72
2018-01-12 03:28:21 1515745701.863674: $GPRMC,082822,A,3946.9557,N,08404.9845,W,0.0000,0.000,120118,,*38
2018-01-12 03:28:21 1515745701.863735: $GPGSA,A,3,2,5,6,12,17,19,25,9,23,24,138,,2.4,0.8,2.1*00
2018-01-12 03:28:22 1515745702.415830: $GPZDA,082823.00,12,01,2018,00,00*6C
2018-01-12 03:28:22 1515745702.416001: $GPGGA,082823,3946.9561,N,08404.9866,W,2,11,0.80,294.00,M,-33.324,M,,*75
2018-01-12 03:28:22 1515745702.416069: $GPRMC,082823,A,3946.9561,N,08404.9866,W,0.0000,0.000,120118,,*3D
2018-01-12 03:28:22 1515745702.416129: $GPGSA,A,3,2,5,6,12,17,19,25,9,23,24,138,,2.4,0.8,2.1*00
2018-01-12 03:28:23 1515745703.414068: $GPZDA,082824.00,12,01,2018,00,00*6B
2018-01-12 03:28:23 1515745703.414283: $GPGGA,082824,3946.9561,N,08404.9866,W,2,11,0.80,294.00,M,-33.324,M,,*72
2018-01-12 03:28:23 1515745703.414358: $GPRMC,082824,A,3946.9561,N,08404.9866,W,0.0000,0.000,120118,,*3A
2018-01-12 03:28:23 1515745703.414420: $GPGSA,A,3,2,5,6,12,17,19,25,9,23,24,138,,2.4,0.8,2.1*00
2018-01-12 03:28:23 1515745703.414478: $GPGBS,082824,3.00,M,3.62,M,11.97,M*00
2018-01-12 03:28:24 1515745704.751560: $GPGSV,3,1,12,02,63,283,47,05,24,195,44,06,66,027,48,12,50,294,51*79
2018-01-12 03:28:24 1515745704.751741: $GPGSV,3,2,12,17,33,102,48,19,51,090,41,25,17,319,44,09,13,090,29*71
2018-01-12 03:28:24 1515745704.751808: $GPGSV,3,3,12,23,08,057,25,24,04,247,31,04,36,258,00,138,38,213,38*43
2018-01-12 03:28:24 1515745704.865206: $GPZDA,082825.00,12,01,2018,00,00*6A
2018-01-12 03:28:24 1515745704.865378: $GPGGA,082825,3946.9561,N,08404.9866,W,2,11,0.80,294.00,M,-33.324,M,,*73
2018-01-12 03:28:24 1515745704.865445: $GPRMC,082825,A,3946.9561,N,08404.9866,W,0.0000,0.000,120118,,*3B
2018-01-12 03:28:24 1515745704.865506: $GPGSA,A,3,2,5,6,12,17,19,25,9,23,24,138,,2.4,0.8,2.1*00
