2017-12-01 17:36:03 1512167763.456646: {"class":"VERSION","release":"3.16","rev":"3.16-4","proto_major":3,"proto_minor":11}
2017-12-01 17:36:03 1512167763.457050: {"class":"DEVICES","devices":[{"class":"DEVICE","path":"/dev/ttyUSB0","driver":"SiRF","subtype":"9\u0006GSD4e_4.1.2-P1_RPATCH.05-F-GPS-4R-1510281 11/03/2015 307","activated":"2017-12-01T22:36:03.347Z","flags":1,"native":1,"bps":4800,"parity":"N","stopbits":1,"cycle":1.00}]}
2017-12-01 17:36:03 1512167763.457176: {"class":"WATCH","enable":true,"json":false,"nmea":true,"raw":0,"scaled":false,"timing":false,"split24":false,"pps":false}
2017-12-01 17:36:03 1512167763.460642: $GPZDA,223604.00,01,12,2017,00,00*61
2017-12-01 17:36:03 1512167763.460754: $GPGGA,223604,3946.9721,N,08404.9842,W,2,12,1.00,300.73,M,-33.325,M,,*74
2017-12-01 17:36:03 1512167763.460819: $GPRMC,223604,A,3946.9721,N,08404.9842,W,0.0000,0.000,011217,,*30
2017-12-01 17:36:03 1512167763.460879: $GPGSA,A,3,1,3,10,14,22,25,26,31,32,12,16,138,2.0,1.0,1.5*0D
2017-12-01 17:36:04 1512167764.458704: $GPZDA,223605.00,01,12,2017,00,00*60
2017-12-01 17:36:04 1512167764.458898: $GPGGA,223605,3946.9721,N,08404.9842,W,2,12,1.00,300.73,M,-33.325,M,,*75
2017-12-01 17:36:04 1512167764.458968: $GPRMC,223605,A,3946.9721,N,08404.9842,W,0.0000,0.000,011217,,*31
2017-12-01 17:36:04 1512167764.459030: $GPGSA,A,3,1,3,10,14,22,25,26,31,32,12,16,138,2.0,1.0,1.5*0D
2017-12-01 17:36:05 1512167765.806533: $GPGSV,3,1,12,01,17,271,45,03,24,313,44,10,18,157,44,14,68,049,42*75
2017-12-01 17:36:05 1512167765.806692: $GPGSV,3,2,12,22,42,298,47,25,33,054,44,26,30,177,43,31,80,306,46*77
2017-12-01 17:36:05 1512167765.806758: $GPGSV,3,3,12,32,52,085,45,12,04,031,19,16,02,190,21,138,38,213,45*43
2017-12-01 17:36:05 1512167765.920156: $GPZDA,223606.00,01,12,2017,00,00*63
2017-12-01 17:36:05 1512167765.920327: $GPGGA,223606,3946.9721,N,08404.9842,W,2,12,1.00,300.73,M,-33.325,M,,*76
2017-12-01 17:36:05 1512167765.920393: $GPRMC,223606,A,3946.9721,N,08404.9842,W,0.0000,0.000,011217,,*32
2017-12-01 17:36:05 1512167765.920454: $GPGSA,A,3,1,3,10,14,22,25,26,31,32,12,16,138,2.0,1.0,1.5*0D
2017-12-01 17:36:06 1512167766.455662: $GPZDA,223607.00,01,12,2017,00,00*62
2017-12-01 17:36:06 1512167766.455850: $GPGGA,223607,3946.9721,N,08404.9842,W,2,12,1.00,300.73,M,-33.325,M,,*77
2017-12-01 17:36:06 1512167766.455917: $GPRMC,223607,A,3946.9721,N,08404.9842,W,0.0000,0.000,011217,,*33
2017-12-01 17:36:06 1512167766.455977: $GPGSA,A,3,1,3,10,14,22,25,26,31,32,12,16,138,2.0,1.0,1.5*0D
2017-12-01 17:36:07 1512167767.459292: $GPZDA,223608.00,01,12,2017,00,00*6D
2017-12-01 17:36:07 1512167767.459468: $GPGGA,223608,3946.9721,N,08404.9842,W,2,12,1.00,300.73,M,-33.325,M,,*78
2017-12-01 17:36:07 1512167767.459536: $GPRMC,223608,A,3946.9721,N,08404.9842,W,0.0000,0.000,011217,,*3C
2017-12-01 17:36:07 1512167767.459597: $GPGSA,A,3,1,3,10,14,22,25,26,31,32,12,16,138,2.0,1.0,1.5*0D
2017-12-01 17:36:08 1512167768.818635: $GPGSV,3,1,12,01,17,271,45,03,24,313,44,10,18,157,44,14,68,049,41*76
2017-12-01 17:36:08 1512167768.818818: $GPGSV,3,2,12,22,42,298,47,25,33,054,44,26,30,177,42,31,80,306,45*75
2017-12-01 17:36:08 1512167768.818884: $GPGSV,3,3,12,32,52,085,45,12,04,031,19,16,02,190,21,138,38,213,45*43
2017-12-01 17:36:08 1512167768.931016: $GPZDA,223609.00,01,12,2017,00,00*6C
2017-12-01 17:36:08 1512167768.931181: $GPGGA,223609,3946.9721,N,08404.9842,W,2,12,1.00,300.73,M,-33.325,M,,*79
2017-12-01 17:36:08 1512167768.931246: $GPRMC,223609,A,3946.9721,N,08404.9842,W,0.0000,0.000,011217,,*3D
2017-12-01 17:36:08 1512167768.931307: $GPGSA,A,3,1,3,10,14,22,25,26,31,32,12,16,138,2.0,1.0,1.5*0D
2017-12-01 17:36:09 1512167769.461588: $GPZDA,223610.00,01,12,2017,00,00*64
2017-12-01 17:36:09 1512167769.461775: $GPGGA,223610,3946.9721,N,08404.9842,W,2,12,1.00,300.73,M,-33.325,M,,*71
2017-12-01 17:36:09 1512167769.461844: $GPRMC,223610,A,3946.9721,N,08404.9842,W,0.0000,0.000,011217,,*35
2017-12-01 17:36:09 1512167769.461905: $GPGSA,A,3,1,3,10,14,22,25,26,31,32,12,16,138,2.0,1.0,1.5*0D
2017-12-01 17:36:10 1512167770.483153: $GPZDA,223611.00,01,12,2017,00,00*65
2017-12-01 17:36:10 1512167770.483389: $GPGGA,223611,3946.9721,N,08404.9842,W,2,12,1.00,300.73,M,-33.325,M,,*70
2017-12-01 17:36:10 1512167770.483460: $GPRMC,223611,A,3946.9721,N,08404.9842,W,0.0000,0.000,011217,,*34
2017-12-01 17:36:10 1512167770.483521: $GPGSA,A,3,1,3,10,14,22,25,26,31,32,12,16,138,2.0,1.0,1.5*0D
2017-12-01 17:36:11 1512167771.818945: $GPGSV,3,1,12,01,17,271,45,03,24,313,44,10,18,157,44,14,68,049,41*76
2017-12-01 17:36:11 1512167771.819114: $GPGSV,3,2,12,22,42,298,48,25,33,054,44,26,30,177,43,31,80,306,45*7B
2017-12-01 17:36:11 1512167771.819180: $GPGSV,3,3,12,32,52,085,45,12,04,031,18,16,02,190,21,138,38,213,45*42
2017-12-01 17:36:11 1512167771.932688: $GPZDA,223612.00,01,12,2017,00,00*66
2017-12-01 17:36:11 1512167771.932858: $GPGGA,223612,3946.9721,N,08404.9842,W,2,12,1.00,300.73,M,-33.325,M,,*73
2017-12-01 17:36:11 1512167771.932924: $GPRMC,223612,A,3946.9721,N,08404.9842,W,0.0000,0.000,011217,,*37
2017-12-01 17:36:11 1512167771.932985: $GPGSA,A,3,1,3,10,14,22,25,26,31,32,12,16,138,2.0,1.0,1.5*0D
2017-12-01 17:36:12 1512167772.480914: $GPZDA,223613.00,01,12,2017,00,00*67
2017-12-01 17:36:12 1512167772.481082: $GPGGA,223613,3946.9721,N,08404.9842,W,2,12,1.00,300.73,M,-33.325,M,,*72
2017-12-01 17:36:12 1512167772.481149: $GPRMC,223613,A,3946.9721,N,08404.9842,W,0.0000,0.000,011217,,*36
2017-12-01 17:36:12 1512167772.481210: $GPGSA,A,3,1,3,10,14,22,25,26,31,32,12,16,138,2.0,1.0,1.5*0D
2017-12-01 17:36:13 1512167773.477866: $GPZDA,223614.00,01,12,2017,00,00*60
2017-12-01 17:36:13 1512167773.478040: $GPGGA,223614,3946.9721,N,08404.9842,W,2,12,1.00,300.73,M,-33.325,M,,*75
2017-12-01 17:36:13 1512167773.478107: $GPRMC,223614,A,3946.9721,N,08404.9842,W,0.0000,0.000,011217,,*31
2017-12-01 17:36:13 1512167773.478168: $GPGSA,A,3,1,3,10,14,22,25,26,31,32,12,16,138,2.0,1.0,1.5*0D
2017-12-01 17:36:14 1512167774.797291: $GPGSV,3,1,12,01,17,271,45,03,24,313,44,10,18,157,44,14,68,049,41*76
2017-12-01 17:36:14 1512167774.797470: $GPGSV,3,2,12,22,42,298,48,25,33,054,44,26,30,177,43,31,80,306,45*7B
2017-12-01 17:36:14 1512167774.797537: $GPGSV,3,3,12,32,52,085,45,12,04,031,18,16,02,190,21,138,38,213,46*41
2017-12-01 17:36:14 1512167774.910852: $GPZDA,223615.00,01,12,2017,00,00*61
2017-12-01 17:36:14 1512167774.910998: $GPGGA,223615,3946.9721,N,08404.9842,W,2,12,1.00,300.73,M,-33.325,M,,*74
2017-12-01 17:36:14 1512167774.911064: $GPRMC,223615,A,3946.9721,N,08404.9842,W,0.0000,0.000,011217,,*30
2017-12-01 17:36:14 1512167774.911124: $GPGSA,A,3,1,3,10,14,22,25,26,31,32,12,16,138,2.0,1.0,1.5*0D
2017-12-01 17:36:15 1512167775.536255: $GPZDA,223616.00,01,12,2017,00,00*62
2017-12-01 17:36:15 1512167775.536424: $GPGGA,223616,3946.9721,N,08404.9842,W,2,12,1.00,300.73,M,-33.325,M,,*77
2017-12-01 17:36:15 1512167775.536491: $GPRMC,223616,A,3946.9721,N,08404.9842,W,0.0000,0.000,011217,,*33
2017-12-01 17:36:15 1512167775.536551: $GPGSA,A,3,1,3,10,14,22,25,26,31,32,12,16,138,2.0,1.0,1.5*0D
2017-12-01 17:36:16 1512167776.459607: $GPZDA,223617.00,01,12,2017,00,00*63
2017-12-01 17:36:16 1512167776.459779: $GPGGA,223617,3946.9721,N,08404.9842,W,2,12,1.00,300.73,M,-33.325,M,,*76
2017-12-01 17:36:16 1512167776.459845: $GPRMC,223617,A,3946.9721,N,08404.9842,W,0.0000,0.000,011217,,*32
2017-12-01 17:36:16 1512167776.459906: $GPGSA,A,3,1,3,10,14,22,25,26,31,32,12,16,138,2.0,1.0,1.5*0D
2017-12-01 17:36:17 1512167777.828814: $GPGSV,3,1,12,01,17,271,44,03,24,313,44,10,18,157,44,14,68,049,41*77
2017-12-01 17:36:17 1512167777.828998: $GPGSV,3,2,12,22,42,298,48,25,33,054,44,26,30,177,42,31,80,306,45*7A
2017-12-01 17:36:17 1512167777.829064: $GPGSV,3,3,12,32,52,085,45,12,04,031,18,16,02,190,20,138,38,213,46*40
2017-12-01 17:36:17 1512167777.942325: $GPZDA,223618.00,01,12,2017,00,00*6C
2017-12-01 17:36:17 1512167777.942495: $GPGGA,223618,3946.9721,N,08404.9842,W,2,12,1.00,300.73,M,-33.325,M,,*79
2017-12-01 17:36:17 1512167777.942562: $GPRMC,223618,A,3946.9721,N,08404.9842,W,0.0000,0.000,011217,,*3D
2017-12-01 17:36:17 1512167777.942622: $GPGSA,A,3,1,3,10,14,22,25,26,31,32,12,16,138,2.0,1.0,1.5*0D
2017-12-01 17:36:18 1512167778.461991: $GPZDA,223619.00,01,12,2017,00,00*6D
2017-12-01 17:36:18 1512167778.462171: $GPGGA,223619,3946.9721,N,08404.9842,W,2,12,1.00,300.73,M,-33.325,M,,*78
2017-12-01 17:36:18 1512167778.462239: $GPRMC,223619,A,3946.9721,N,08404.9842,W,0.0000,0.000,011217,,*3C
2017-12-01 17:36:18 1512167778.462300: $GPGSA,A,3,1,3,10,14,22,25,26,31,32,12,16,138,2.0,1.0,1.5*0D
2017-12-01 17:36:19 1512167779.480441: $GPZDA,223620.00,01,12,2017,00,00*67
2017-12-01 17:36:19 1512167779.480611: $GPGGA,223620,3946.9721,N,08404.9842,W,2,12,1.00,300.73,M,-33.325,M,,*72
2017-12-01 17:36:19 1512167779.480677: $GPRMC,223620,A,3946.9721,N,08404.9842,W,0.0000,0.000,011217,,*36
2017-12-01 17:36:19 1512167779.480738: $GPGSA,A,3,1,3,10,14,22,25,26,31,32,12,16,138,2.0,1.0,1.5*0D
2017-12-01 17:36:20 1512167780.811726: $GPGSV,3,1,12,01,17,271,44,03,24,313,43,10,18,157,44,14,68,049,42*73
2017-12-01 17:36:20 1512167780.811920: $GPGSV,3,2,12,22,42,298,48,25,33,054,44,26,30,177,42,31,80,306,45*7A
2017-12-01 17:36:20 1512167780.811986: $GPGSV,3,3,12,32,52,085,45,12,04,031,18,16,02,190,21,138,38,213,46*41
2017-12-01 17:36:20 1512167780.925289: $GPZDA,223621.00,01,12,2017,00,00*66
2017-12-01 17:36:20 1512167780.925458: $GPGGA,223621,3946.9721,N,08404.9842,W,2,12,1.00,300.73,M,-33.325,M,,*73
2017-12-01 17:36:20 1512167780.925525: $GPRMC,223621,A,3946.9721,N,08404.9842,W,0.0000,0.000,011217,,*37
2017-12-01 17:36:20 1512167780.925586: $GPGSA,A,3,1,3,10,14,22,25,26,31,32,12,16,138,2.0,1.0,1.5*0D
2017-12-01 17:36:21 1512167781.487435: $GPZDA,223622.00,01,12,2017,00,00*65
2017-12-01 17:36:21 1512167781.487606: $GPGGA,223622,3946.9721,N,08404.9842,W,2,12,1.00,300.73,M,-33.325,M,,*70
2017-12-01 17:36:21 1512167781.487673: $GPRMC,223622,A,3946.9721,N,08404.9842,W,0.0000,0.000,011217,,*34
2017-12-01 17:36:21 1512167781.487734: $GPGSA,A,3,1,3,10,14,22,25,26,31,32,12,16,138,2.0,1.0,1.5*0D
2017-12-01 17:36:22 1512167782.484571: $GPZDA,223623.00,01,12,2017,00,00*64
2017-12-01 17:36:22 1512167782.484740: $GPGGA,223623,3946.9721,N,08404.9842,W,2,12,1.00,300.73,M,-33.325,M,,*71
2017-12-01 17:36:22 1512167782.484807: $GPRMC,223623,A,3946.9721,N,08404.9842,W,0.0000,0.000,011217,,*35
2017-12-01 17:36:22 1512167782.484868: $GPGSA,A,3,1,3,10,14,22,25,26,31,32,12,16,138,2.0,1.0,1.5*0D
