2017-11-16 14:09:05 1510859345.155682: {"class":"VERSION","release":"3.17","rev":"3.17","proto_major":3,"proto_minor":12}
2017-11-16 14:09:05 1510859345.156149: {"class":"DEVICES","devices":[{"class":"DEVICE","path":"/dev/ttyUSB0","driver":"SiRF","subtype":"9\u0006GSD4e_4.1.2-P1_RPATCH.05-F-GPS-4R-1510281 11/03/2015 307","activated":"2017-11-16T19:09:04.748Z","flags":1,"native":1,"bps":4800,"parity":"N","stopbits":1,"cycle":1.00}]}
2017-11-16 14:09:05 1510859345.156268: {"class":"WATCH","enable":true,"json":false,"nmea":true,"raw":0,"scaled":false,"timing":false,"split24":false,"pps":false}
2017-11-16 14:09:05 1510859345.535202: $GPZDA,190904.00,16,11,2017,00,00*60
2017-11-16 14:09:05 1510859345.535367: $GPGGA,190904,3946.9569,N,08404.9850,W,2,11,0.80,304.71,M,-33.324,M,,*70
2017-11-16 14:09:05 1510859345.535430: $GPRMC,190904,A,3946.9569,N,08404.9850,W,0.0000,0.000,161117,,*3C
2017-11-16 14:09:05 1510859345.535487: $GPGSA,A,3,10,13,15,18,20,21,24,32,8,27,138,,1.6,0.8,1.3*30
2017-11-16 14:09:06 1510859346.863413: $GPGSV,3,1,12,10,40,300,44,13,09,048,30,15,39,052,51,18,70,331,48*74
2017-11-16 14:09:06 1510859346.863596: $GPGSV,3,2,12,20,34,094,46,21,66,192,46,24,50,114,48,32,19,237,45*7F
2017-11-16 14:09:06 1510859346.863658: $GPGSV,3,3,12,08,05,324,27,27,19,291,35,14,03,231,00,138,38,213,45*40
2017-11-16 14:09:06 1510859346.977147: $GPZDA,190905.00,16,11,2017,00,00*61
2017-11-16 14:09:06 1510859346.977290: $GPGGA,190905,3946.9569,N,08404.9850,W,2,11,0.80,304.71,M,-33.324,M,,*71
2017-11-16 14:09:06 1510859346.977350: $GPRMC,190905,A,3946.9569,N,08404.9850,W,0.0000,0.000,161117,,*3D
2017-11-16 14:09:06 1510859346.977406: $GPGSA,A,3,10,13,15,18,20,21,24,32,8,27,138,,1.6,0.8,1.3*30
2017-11-16 14:09:07 1510859347.561787: $GPZDA,190906.00,16,11,2017,00,00*62
2017-11-16 14:09:07 1510859347.561951: $GPGGA,190906,3946.9569,N,08404.9850,W,2,11,0.80,304.71,M,-33.324,M,,*72
2017-11-16 14:09:07 1510859347.562014: $GPRMC,190906,A,3946.9569,N,08404.9850,W,0.0000,0.000,161117,,*3E
2017-11-16 14:09:07 1510859347.562069: $GPGSA,A,3,10,13,15,18,20,21,24,32,8,27,138,,1.6,0.8,1.3*30
2017-11-16 14:09:08 1510859348.533502: $GPZDA,190907.00,16,11,2017,00,00*63
2017-11-16 14:09:08 1510859348.533666: $GPGGA,190907,3946.9569,N,08404.9850,W,2,11,0.80,304.71,M,-33.324,M,,*73
2017-11-16 14:09:08 1510859348.533730: $GPRMC,190907,A,3946.9569,N,08404.9850,W,0.0000,0.000,161117,,*3F
2017-11-16 14:09:08 1510859348.533786: $GPGSA,A,3,10,13,15,18,20,21,24,32,8,27,138,,1.6,0.8,1.3*30
2017-11-16 14:09:09 1510859349.897519: $GPGSV,3,1,12,10,40,300,44,13,09,048,30,15,39,052,51,18,70,331,49*75
2017-11-16 14:09:09 1510859349.897672: $GPGSV,3,2,12,20,34,094,46,21,66,192,46,24,50,114,48,32,19,237,45*7F
2017-11-16 14:09:09 1510859349.897732: $GPGSV,3,3,12,08,05,324,15,27,19,291,35,14,03,231,00,138,38,213,45*41
2017-11-16 14:09:10 1510859350.011176: $GPZDA,190908.00,16,11,2017,00,00*6C
2017-11-16 14:09:10 1510859350.011310: $GPGGA,190908,3946.9569,N,08404.9850,W,2,11,0.80,304.71,M,-33.324,M,,*7C
2017-11-16 14:09:10 1510859350.011370: $GPRMC,190908,A,3946.9569,N,08404.9850,W,0.0000,0.000,161117,,*30
2017-11-16 14:09:10 1510859350.011426: $GPGSA,A,3,10,13,15,18,20,21,24,32,8,27,138,,1.6,0.8,1.3*30
2017-11-16 14:09:10 1510859350.532898: $GPZDA,190909.00,16,11,2017,00,00*6D
2017-11-16 14:09:10 1510859350.533083: $GPGGA,190909,3946.9569,N,08404.9850,W,2,11,1.00,304.71,M,-33.324,M,,*74
2017-11-16 14:09:10 1510859350.533145: $GPRMC,190909,A,3946.9569,N,08404.9850,W,0.0000,0.000,161117,,*31
2017-11-16 14:09:10 1510859350.533202: $GPGSA,A,3,10,13,15,18,20,21,24,32,8,27,138,,1.6,1.0,1.3*39
2017-11-16 14:09:11 1510859351.537530: $GPZDA,190910.00,16,11,2017,00,00*65
2017-11-16 14:09:11 1510859351.537701: $GPGGA,190910,3946.9569,N,08404.9850,W,2,11,1.00,304.71,M,-33.324,M,,*7C
2017-11-16 14:09:11 1510859351.537764: $GPRMC,190910,A,3946.9569,N,08404.9850,W,0.0000,0.000,161117,,*39
2017-11-16 14:09:11 1510859351.537821: $GPGSA,A,3,10,13,15,18,20,21,24,32,8,27,138,,1.6,1.0,1.3*39
2017-11-16 14:09:12 1510859352.899595: $GPGSV,3,1,12,10,40,300,43,13,09,048,30,15,39,052,51,18,70,331,48*73
2017-11-16 14:09:12 1510859352.899802: $GPGSV,3,2,12,20,34,094,46,21,66,192,46,24,50,114,48,32,19,237,45*7F
2017-11-16 14:09:12 1510859352.899864: $GPGSV,3,3,12,08,05,324,23,27,19,291,30,14,03,231,00,138,38,213,44*40
2017-11-16 14:09:13 1510859353.012941: $GPZDA,190911.00,16,11,2017,00,00*64
2017-11-16 14:09:13 1510859353.013105: $GPGGA,190911,3946.9569,N,08404.9850,W,2,11,0.80,304.71,M,-33.324,M,,*74
2017-11-16 14:09:13 1510859353.013168: $GPRMC,190911,A,3946.9569,N,08404.9850,W,0.0000,0.000,161117,,*38
2017-11-16 14:09:13 1510859353.013224: $GPGSA,A,3,10,13,15,18,20,21,24,32,8,27,138,,1.6,0.8,1.3*30
2017-11-16 14:09:13 1510859353.562792: $GPZDA,190912.00,16,11,2017,00,00*67
2017-11-16 14:09:13 1510859353.562956: $GPGGA,190912,3946.9569,N,08404.9850,W,2,11,0.80,304.71,M,-33.324,M,,*77
2017-11-16 14:09:13 1510859353.563016: $GPRMC,190912,A,3946.9569,N,08404.9850,W,0.0000,0.000,161117,,*3B
2017-11-16 14:09:13 1510859353.563072: $GPGSA,A,3,10,13,15,18,20,21,24,32,8,27,138,,1.6,0.8,1.3*30
2017-11-16 14:09:14 1510859354.542870: $GPZDA,190913.00,16,11,2017,00,00*66
2017-11-16 14:09:14 1510859354.543049: $GPGGA,190913,3946.9569,N,08404.9850,W,2,11,0.80,304.71,M,-33.324,M,,*76
2017-11-16 14:09:14 1510859354.543113: $GPRMC,190913,A,3946.9569,N,08404.9850,W,0.0000,0.000,161117,,*3A
2017-11-16 14:09:14 1510859354.543170: $GPGSA,A,3,10,13,15,18,20,21,24,32,8,27,138,,1.6,0.8,1.3*30
