2017-11-16 17:42:45 1510872165.924104: {"class":"VERSION","release":"3.17","rev":"3.17","proto_major":3,"proto_minor":12}
2017-11-16 17:42:45 1510872165.924727: {"class":"DEVICES","devices":[{"class":"DEVICE","path":"/dev/ttyUSB0","driver":"SiRF","subtype":"9\u0006GSD4e_4.1.2-P1_RPATCH.05-F-GPS-4R-1510281 11/03/2015 307","activated":"2017-11-16T22:42:45.908Z","flags":1,"native":1,"bps":4800,"parity":"N","stopbits":1,"cycle":1.00}]}
2017-11-16 17:42:45 1510872165.924872: {"class":"WATCH","enable":true,"json":false,"nmea":true,"raw":0,"scaled":false,"timing":false,"split24":false,"pps":false}
2017-11-16 17:42:46 1510872166.490211: $GPZDA,224245.00,16,11,2017,00,00*62
2017-11-16 17:42:46 1510872166.490371: $GPGGA,224245,3946.9579,N,08404.9841,W,2,12,0.80,302.49,M,-33.324,M,,*7D
2017-11-16 17:42:46 1510872166.490431: $GPRMC,224245,A,3946.9579,N,08404.9841,W,0.0000,0.000,161117,,*3F
2017-11-16 17:42:46 1510872166.490487: $GPGSA,A,3,1,10,22,12,14,18,26,11,25,31,32,138,1.6,0.8,1.3*3A
2017-11-16 17:42:47 1510872167.415967: $GPZDA,224246.00,16,11,2017,00,00*61
2017-11-16 17:42:47 1510872167.416142: $GPGGA,224246,3946.9579,N,08404.9841,W,2,12,0.80,302.49,M,-33.324,M,,*7E
2017-11-16 17:42:47 1510872167.416204: $GPRMC,224246,A,3946.9579,N,08404.9841,W,0.0000,0.000,161117,,*3C
2017-11-16 17:42:47 1510872167.416260: $GPGSA,A,3,1,10,22,12,14,18,26,11,25,31,32,138,1.6,0.8,1.3*3A
2017-11-16 17:42:48 1510872168.752907: $GPGSV,3,1,12,01,22,295,33,10,43,150,44,22,23,312,42,12,20,045,48*7E
2017-11-16 17:42:48 1510872168.753074: $GPGSV,3,2,12,14,68,339,46,18,14,145,35,26,06,183,27,11,07,277,42*7F
2017-11-16 17:42:48 1510872168.753135: $GPGSV,3,3,12,25,40,084,48,31,60,229,48,32,67,039,50,138,38,213,44*46
2017-11-16 17:42:48 1510872168.866140: $GPZDA,224247.00,16,11,2017,00,00*60
2017-11-16 17:42:48 1510872168.866294: $GPGGA,224247,3946.9579,N,08404.9841,W,2,12,0.80,302.49,M,-33.324,M,,*7F
2017-11-16 17:42:48 1510872168.866353: $GPRMC,224247,A,3946.9579,N,08404.9841,W,0.0000,0.000,161117,,*3D
2017-11-16 17:42:48 1510872168.866408: $GPGSA,A,3,1,10,22,12,14,18,26,11,25,31,32,138,1.6,0.8,1.3*3A
2017-11-16 17:42:49 1510872169.417020: $GPZDA,224248.00,16,11,2017,00,00*6F
2017-11-16 17:42:49 1510872169.417197: $GPGGA,224248,3946.9579,N,08404.9841,W,2,12,0.80,302.49,M,-33.324,M,,*70
2017-11-16 17:42:49 1510872169.417259: $GPRMC,224248,A,3946.9579,N,08404.9841,W,0.0000,0.000,161117,,*32
2017-11-16 17:42:49 1510872169.417315: $GPGSA,A,3,1,10,22,12,14,18,26,11,25,31,32,138,1.6,0.8,1.3*3A
2017-11-16 17:42:50 1510872170.393107: $GPZDA,224249.00,16,11,2017,00,00*6E
2017-11-16 17:42:50 1510872170.393270: $GPGGA,224249,3946.9579,N,08404.9841,W,2,12,0.80,302.49,M,-33.324,M,,*71
2017-11-16 17:42:50 1510872170.393330: $GPRMC,224249,A,3946.9579,N,08404.9841,W,0.0000,0.000,161117,,*33
2017-11-16 17:42:50 1510872170.393384: $GPGSA,A,3,1,10,22,12,14,18,26,11,25,31,32,138,1.6,0.8,1.3*3A
2017-11-16 17:42:51 1510872171.751976: $GPGSV,3,1,12,01,22,295,33,10,43,150,44,22,23,312,42,12,20,045,48*7E
2017-11-16 17:42:51 1510872171.752142: $GPGSV,3,2,12,14,68,339,46,18,14,145,35,26,06,183,27,11,07,277,42*7F
2017-11-16 17:42:51 1510872171.752200: $GPGSV,3,3,12,25,40,084,49,31,60,229,48,32,67,039,50,138,38,213,43*40
2017-11-16 17:42:51 1510872171.865414: $GPZDA,224250.00,16,11,2017,00,00*66
2017-11-16 17:42:51 1510872171.865561: $GPGGA,224250,3946.9579,N,08404.9841,W,2,12,0.80,302.49,M,-33.324,M,,*79
2017-11-16 17:42:51 1510872171.865620: $GPRMC,224250,A,3946.9579,N,08404.9841,W,0.0000,0.000,161117,,*3B
2017-11-16 17:42:51 1510872171.865675: $GPGSA,A,3,1,10,22,12,14,18,26,11,25,31,32,138,1.6,0.8,1.3*3A
2017-11-16 17:42:52 1510872172.393632: $GPZDA,224251.00,16,11,2017,00,00*67
2017-11-16 17:42:52 1510872172.393802: $GPGGA,224251,3946.9579,N,08404.9841,W,2,12,0.80,302.49,M,-33.324,M,,*78
2017-11-16 17:42:52 1510872172.393863: $GPRMC,224251,A,3946.9579,N,08404.9841,W,0.0000,0.000,161117,,*3A
2017-11-16 17:42:52 1510872172.393918: $GPGSA,A,3,1,10,22,12,14,18,26,11,25,31,32,138,1.6,0.8,1.3*3A
2017-11-16 17:42:53 1510872173.415944: $GPZDA,224252.00,16,11,2017,00,00*64
2017-11-16 17:42:53 1510872173.416154: $GPGGA,224252,3946.9579,N,08404.9841,W,2,12,0.80,302.49,M,-33.324,M,,*7B
2017-11-16 17:42:53 1510872173.416216: $GPRMC,224252,A,3946.9579,N,08404.9841,W,0.0000,0.000,161117,,*39
2017-11-16 17:42:53 1510872173.416272: $GPGSA,A,3,1,10,22,12,14,18,26,11,25,31,32,138,1.6,0.8,1.3*3A
2017-11-16 17:42:54 1510872174.730287: $GPGSV,3,1,12,01,22,295,26,10,43,150,44,22,23,312,42,12,20,045,48*7A
2017-11-16 17:42:54 1510872174.730454: $GPGSV,3,2,12,14,68,339,46,18,14,145,35,26,06,183,27,11,07,277,41*7C
2017-11-16 17:42:54 1510872174.730515: $GPGSV,3,3,12,25,40,084,48,31,60,229,48,32,67,039,50,138,38,213,43*41
2017-11-16 17:42:54 1510872174.843575: $GPZDA,224253.00,16,11,2017,00,00*65
2017-11-16 17:42:54 1510872174.843725: $GPGGA,224253,3946.9579,N,08404.9841,W,2,12,0.80,302.49,M,-33.324,M,,*7A
2017-11-16 17:42:54 1510872174.843784: $GPRMC,224253,A,3946.9579,N,08404.9841,W,0.0000,0.000,161117,,*38
2017-11-16 17:42:54 1510872174.843838: $GPGSA,A,3,1,10,22,12,14,18,26,11,25,31,32,138,1.6,0.8,1.3*3A
2017-11-16 17:42:55 1510872175.394701: $GPZDA,224254.00,16,11,2017,00,00*62
2017-11-16 17:42:55 1510872175.394860: $GPGGA,224254,3946.9579,N,08404.9841,W,2,12,0.80,302.49,M,-33.324,M,,*7D
2017-11-16 17:42:55 1510872175.394920: $GPRMC,224254,A,3946.9579,N,08404.9841,W,0.0000,0.000,161117,,*3F
2017-11-16 17:42:55 1510872175.394975: $GPGSA,A,3,1,10,22,12,14,18,26,11,25,31,32,138,1.6,0.8,1.3*3A
