2017-12-14 12:36:12 1513272972.433326: {"class":"VERSION","release":"3.16","rev":"3.16-4","proto_major":3,"proto_minor":11}
2017-12-14 12:36:12 1513272972.433675: {"class":"DEVICES","devices":[{"class":"DEVICE","path":"/dev/ttyUSB0","driver":"SiRF","subtype":"9\u0006GSD4e_4.1.2-P1_RPATCH.05-F-GPS-4R-1510281 11/03/2015 307","activated":"2017-12-14T17:36:12.319Z","flags":1,"native":1,"bps":4800,"parity":"N","stopbits":1,"cycle":1.00}]}
2017-12-14 12:36:12 1513272972.433791: {"class":"WATCH","enable":true,"json":false,"nmea":true,"raw":0,"scaled":false,"timing":false,"split24":false,"pps":false}
2017-12-14 12:36:13 1513272973.496368: $GPGSV,3,1,11,10,48,307,17,20,28,102,25,21,54,184,23,24,53,096,27*7C
2017-12-14 12:36:13 1513272973.496546: $GPGSV,3,2,11,15,30,055,20,32,27,243,19,27,17,282,12,14,10,237,10*7F
2017-12-14 12:36:13 1513272973.496611: $GPGSV,3,3,11,08,07,316,00,13,01,051,00,138,38,213,00*74
2017-12-14 12:36:13 1513272973.610039: $GPZDA,173614.00,14,12,2017,00,00*62
2017-12-14 12:36:13 1513272973.610188: $GPGGA,173614,3946.9527,N,08404.9436,W,1,07,1.40,314.05,M,-33.324,M,,*7E
2017-12-14 12:36:13 1513272973.610256: $GPRMC,173614,A,3946.9527,N,08404.9436,W,0.3006,62.540,141217,,*08
2017-12-14 12:36:13 1513272973.610319: $GPGSA,A,3,10,20,21,24,15,32,27,,,,,,6.6,1.4,6.2*35
2017-12-14 12:36:14 1513272974.158877: $GPZDA,173615.00,14,12,2017,00,00*63
2017-12-14 12:36:14 1513272974.159035: $GPGGA,173615,3946.9527,N,08404.9436,W,1,07,1.40,314.05,M,-33.324,M,,*7F
2017-12-14 12:36:14 1513272974.159100: $GPRMC,173615,A,3946.9527,N,08404.9436,W,0.3423,4.197,141217,,*34
2017-12-14 12:36:14 1513272974.159161: $GPGSA,A,3,10,20,21,24,15,32,27,,,,,,6.6,1.4,6.2*35
2017-12-14 12:36:15 1513272975.161500: $GPZDA,173616.00,14,12,2017,00,00*60
2017-12-14 12:36:15 1513272975.161656: $GPGGA,173616,3946.9530,N,08404.9428,W,1,07,1.20,313.36,M,-33.324,M,,*74
2017-12-14 12:36:15 1513272975.161721: $GPRMC,173616,A,3946.9530,N,08404.9428,W,0.6846,4.197,141217,,*34
2017-12-14 12:36:15 1513272975.161782: $GPGSA,A,3,10,20,21,24,15,32,27,,,,,,6.6,1.2,6.2*33
2017-12-14 12:36:16 1513272976.497486: $GPGSV,3,1,11,10,48,307,15,20,28,102,25,21,54,184,22,24,53,096,26*7E
2017-12-14 12:36:16 1513272976.497659: $GPGSV,3,2,11,15,30,055,20,32,27,243,19,27,17,282,12,14,10,237,11*7E
2017-12-14 12:36:16 1513272976.497724: $GPGSV,3,3,11,08,07,316,00,13,01,051,00,138,38,213,00*74
2017-12-14 12:36:16 1513272976.611297: $GPZDA,173617.00,14,12,2017,00,00*61
2017-12-14 12:36:16 1513272976.611467: $GPGGA,173617,3946.9534,N,08404.9428,W,1,08,1.20,314.00,M,-33.324,M,,*7C
2017-12-14 12:36:16 1513272976.611533: $GPRMC,173617,A,3946.9534,N,08404.9428,W,1.0567,17.448,141217,,*0D
2017-12-14 12:36:16 1513272976.611593: $GPGSA,A,3,10,20,21,24,15,32,27,14,,,,,6.6,1.2,6.2*36
2017-12-14 12:36:17 1513272977.158505: $GPZDA,173618.00,14,12,2017,00,00*6E
2017-12-14 12:36:17 1513272977.158689: $GPGGA,173618,3946.9538,N,08404.9428,W,1,08,1.40,313.24,M,-33.324,M,,*78
2017-12-14 12:36:17 1513272977.158757: $GPRMC,173618,A,3946.9538,N,08404.9428,W,0.3423,4.197,141217,,*38
2017-12-14 12:36:17 1513272977.158820: $GPGSA,A,3,10,20,21,24,15,32,27,14,,,,,6.6,1.4,6.2*30
2017-12-14 12:36:18 1513272978.174633: $GPZDA,173619.00,14,12,2017,00,00*6F
2017-12-14 12:36:18 1513272978.174803: $GPGGA,173619,3946.9542,N,08404.9428,W,1,08,1.40,313.88,M,-33.324,M,,*72
2017-12-14 12:36:18 1513272978.174868: $GPRMC,173619,A,3946.9542,N,08404.9428,W,0.6846,4.197,141217,,*3E
2017-12-14 12:36:18 1513272978.174930: $GPGSA,A,3,10,20,21,24,15,32,27,14,,,,,6.6,1.4,6.2*30
2017-12-14 12:36:19 1513272979.493100: $GPGSV,3,1,11,10,48,307,04,20,28,102,25,21,54,184,23,24,53,096,26*7F
2017-12-14 12:36:19 1513272979.493300: $GPGSV,3,2,11,15,30,055,20,32,27,243,19,27,17,282,11,14,10,237,11*7D
2017-12-14 12:36:19 1513272979.493366: $GPGSV,3,3,11,08,07,316,00,13,01,051,00,138,38,213,00*74
2017-12-14 12:36:19 1513272979.606749: $GPZDA,173620.00,14,12,2017,00,00*65
2017-12-14 12:36:19 1513272979.606914: $GPGGA,173620,3946.9546,N,08404.9428,W,1,07,1.40,314.52,M,-33.324,M,,*73
2017-12-14 12:36:19 1513272979.606978: $GPRMC,173620,A,3946.9546,N,08404.9428,W,0.9019,18.875,141217,,*05
2017-12-14 12:36:19 1513272979.607093: $GPGSA,A,3,20,21,24,15,32,27,14,,,,,,6.6,1.4,6.2*31
2017-12-14 12:36:20 1513272980.172000: $GPZDA,173621.00,14,12,2017,00,00*64
2017-12-14 12:36:20 1513272980.172232: $GPGGA,173621,3946.9549,N,08404.9420,W,1,07,1.80,313.83,M,-33.324,M,,*72
2017-12-14 12:36:20 1513272980.172303: $GPRMC,173621,A,3946.9549,N,08404.9420,W,1.0269,4.197,141217,,*36
2017-12-14 12:36:20 1513272980.172364: $GPGSA,A,3,20,21,24,15,32,27,14,,,,,,6.6,1.8,6.2*3D
2017-12-14 12:36:21 1513272981.155899: $GPZDA,173622.00,14,12,2017,00,00*67
2017-12-14 12:36:21 1513272981.156067: $GPGGA,173622,3946.9553,N,08404.9420,W,1,07,1.40,314.47,M,-33.324,M,,*79
2017-12-14 12:36:21 1513272981.156132: $GPRMC,173622,A,3946.9553,N,08404.9420,W,1.0534,350.904,141217,,*31
2017-12-14 12:36:21 1513272981.156196: $GPGSA,A,3,20,21,24,15,32,27,14,,,,,,6.6,1.4,6.2*31
2017-12-14 12:36:22 1513272982.506740: $GPGSV,3,1,11,10,48,307,04,20,28,102,24,21,54,184,22,24,53,096,25*7C
2017-12-14 12:36:22 1513272982.506915: $GPGSV,3,2,11,15,30,055,20,32,27,243,19,27,17,282,08,14,10,237,07*72
2017-12-14 12:36:22 1513272982.506981: $GPGSV,3,3,11,08,07,316,00,13,01,051,00,138,38,213,00*74
2017-12-14 12:36:22 1513272982.620478: $GPZDA,173623.00,14,12,2017,00,00*66
2017-12-14 12:36:22 1513272982.620647: $GPGGA,173623,3946.9557,N,08404.9419,W,1,07,1.40,313.71,M,-33.324,M,,*74
2017-12-14 12:36:22 1513272982.620713: $GPRMC,173623,A,3946.9557,N,08404.9419,W,0.7246,344.668,141217,,*3A
2017-12-14 12:36:22 1513272982.620774: $GPGSA,A,3,20,21,24,15,32,27,14,,,,,,6.6,1.4,6.2*31
2017-12-14 12:36:23 1513272983.171001: $GPZDA,173624.00,14,12,2017,00,00*61
2017-12-14 12:36:23 1513272983.171198: $GPGGA,173624,3946.9561,N,08404.9419,W,1,07,1.40,314.35,M,-33.324,M,,*71
2017-12-14 12:36:23 1513272983.171269: $GPRMC,173624,A,3946.9561,N,08404.9419,W,0.5857,338.291,141217,,*39
2017-12-14 12:36:23 1513272983.171351: $GPGSA,A,3,20,21,24,15,32,27,14,,,,,,6.6,1.4,6.2*31
2017-12-14 12:36:24 1513272984.351854: $GPZDA,173625.00,14,12,2017,00,00*60
2017-12-14 12:36:24 1513272984.352032: $GPGGA,173625,3946.9561,N,08404.9419,W,1,07,1.80,314.35,M,-33.324,M,,*7C
2017-12-14 12:36:24 1513272984.352162: $GPRMC,173625,A,3946.9561,N,08404.9419,W,0.4179,328.778,141217,,*3F
2017-12-14 12:36:24 1513272984.352229: $GPGSA,A,3,20,21,24,15,32,27,14,,,,,,6.6,1.8,6.2*3D
2017-12-14 12:36:25 1513272985.687607: $GPGSV,3,1,11,10,48,307,04,20,28,102,24,21,54,184,22,24,53,096,25*7C
2017-12-14 12:36:25 1513272985.687803: $GPGSV,3,2,11,15,30,055,19,32,27,243,20,27,17,282,08,14,10,237,06*73
2017-12-14 12:36:25 1513272985.687873: $GPGSV,3,3,11,08,07,316,00,13,01,051,00,138,38,213,00*74
2017-12-14 12:36:25 1513272985.801382: $GPZDA,173626.00,14,12,2017,00,00*63
2017-12-14 12:36:25 1513272985.801549: $GPGGA,173626,3946.9569,N,08404.9419,W,1,06,1.40,314.22,M,-33.324,M,,*7C
2017-12-14 12:36:25 1513272985.801614: $GPRMC,173626,A,3946.9569,N,08404.9419,W,0.8359,328.778,141217,,*38
2017-12-14 12:36:25 1513272985.801676: $GPGSA,A,3,20,21,24,15,32,27,,,,,,,6.6,1.4,6.2*34
2017-12-14 12:36:26 1513272986.350952: $GPZDA,173627.00,14,12,2017,00,00*62
2017-12-14 12:36:26 1513272986.351143: $GPGGA,173627,3946.9569,N,08404.9419,W,1,06,1.40,314.22,M,-33.324,M,,*7D
2017-12-14 12:36:26 1513272986.351212: $GPRMC,173627,A,3946.9569,N,08404.9419,W,1.0534,350.904,141217,,*37
2017-12-14 12:36:26 1513272986.351277: $GPGSA,A,3,20,21,24,15,32,27,,,,,,,6.6,1.4,6.2*34
2017-12-14 12:36:27 1513272987.351475: $GPZDA,173628.00,14,12,2017,00,00*6D
2017-12-14 12:36:27 1513272987.351654: $GPGGA,173628,3946.9576,N,08404.9411,W,1,06,1.40,314.18,M,-33.324,M,,*7D
2017-12-14 12:36:27 1513272987.351720: $GPRMC,173628,A,3946.9576,N,08404.9411,W,1.1385,29.379,141217,,*0E
2017-12-14 12:36:27 1513272987.351803: $GPGSA,A,3,20,21,24,15,32,27,,,,,,,6.6,1.4,6.2*34
2017-12-14 12:36:28 1513272988.688033: $GPGSV,3,1,11,10,48,307,04,20,28,102,24,21,54,184,22,24,53,096,24*7D
2017-12-14 12:36:28 1513272988.688209: $GPGSV,3,2,11,15,30,055,19,32,27,243,20,27,17,282,10,14,10,237,07*7B
2017-12-14 12:36:28 1513272988.688328: $GPGSV,3,3,11,08,07,316,00,13,01,051,00,120,07,103,00*73
2017-12-14 12:36:28 1513272988.801610: $GPZDA,173629.00,14,12,2017,00,00*6C
2017-12-14 12:36:28 1513272988.801786: $GPGGA,173629,3946.9576,N,08404.9411,W,1,07,1.80,314.18,M,-33.324,M,,*71
2017-12-14 12:36:28 1513272988.801853: $GPRMC,173629,A,3946.9576,N,08404.9411,W,0.7278,23.636,141217,,*0F
2017-12-14 12:36:28 1513272988.801913: $GPGSA,A,3,20,21,24,15,32,27,14,,,,,,6.6,1.8,6.2*3D
2017-12-14 12:36:29 1513272989.334884: $GPZDA,173630.00,14,12,2017,00,00*64
2017-12-14 12:36:29 1513272989.335041: $GPGGA,173630,3946.9580,N,08404.9411,W,1,07,1.80,314.82,M,-33.324,M,,*73
2017-12-14 12:36:29 1513272989.335106: $GPRMC,173630,A,3946.9580,N,08404.9411,W,0.5857,338.291,141217,,*3B
2017-12-14 12:36:29 1513272989.335167: $GPGSA,A,3,20,21,24,15,32,27,14,,,,,,6.6,1.8,6.2*3D
2017-12-14 12:36:30 1513272990.352629: $GPZDA,173631.00,14,12,2017,00,00*65
2017-12-14 12:36:30 1513272990.352799: $GPGGA,173631,3946.9583,N,08404.9410,W,1,07,1.80,314.05,M,-33.324,M,,*7F
2017-12-14 12:36:30 1513272990.352865: $GPRMC,173631,A,3946.9583,N,08404.9410,W,0.4844,273.795,141217,,*34
2017-12-14 12:36:30 1513272990.352926: $GPGSA,A,3,20,21,24,15,32,27,14,,,,,,6.6,1.8,6.2*3D
2017-12-14 12:36:31 1513272991.670291: $GPGSV,3,1,11,10,48,307,06,20,28,102,24,21,54,184,22,24,53,096,24*7F
2017-12-14 12:36:31 1513272991.670466: $GPGSV,3,2,11,15,30,055,18,32,27,243,20,27,17,282,10,14,10,237,07*7A
2017-12-14 12:36:31 1513272991.670530: $GPGSV,3,3,11,08,07,316,05,13,01,051,00,120,07,103,00*76
2017-12-14 12:36:31 1513272991.784016: $GPZDA,173632.00,14,12,2017,00,00*66
2017-12-14 12:36:31 1513272991.784183: $GPGGA,173632,3946.9580,N,08404.9411,W,1,07,1.80,314.82,M,-33.324,M,,*71
2017-12-14 12:36:31 1513272991.784265: $GPRMC,173632,A,3946.9580,N,08404.9411,W,0.2422,273.795,141217,,*3F
2017-12-14 12:36:31 1513272991.784327: $GPGSA,A,3,20,21,24,15,32,27,14,,,,,,6.6,1.8,6.2*3D
2017-12-14 12:36:32 1513272992.352596: $GPZDA,173633.00,14,12,2017,00,00*67
2017-12-14 12:36:32 1513272992.352770: $GPGGA,173633,3946.9588,N,08404.9410,W,1,07,1.40,314.69,M,-33.324,M,,*70
2017-12-14 12:36:32 1513272992.352838: $GPRMC,173633,A,3946.9588,N,08404.9410,W,0.1867,0.000,141217,,*34
2017-12-14 12:36:32 1513272992.352899: $GPGSA,A,3,20,21,24,15,32,27,14,,,,,,6.6,1.4,6.2*31
