2017-12-29 14:39:23 1514576363.150811: {"class":"VERSION","release":"3.16","rev":"3.16-4","proto_major":3,"proto_minor":11}
2017-12-29 14:39:23 1514576363.151215: {"class":"DEVICES","devices":[{"class":"DEVICE","path":"/dev/ttyUSB0","driver":"SiRF","subtype":"9\u0006GSD4e_4.1.2-P1_RPATCH.05-F-GPS-4R-1510281 11/03/2015 307","activated":"2017-12-29T19:39:22.532Z","flags":1,"native":1,"bps":4800,"parity":"N","stopbits":1,"cycle":1.00}]}
2017-12-29 14:39:23 1514576363.151336: {"class":"WATCH","enable":true,"json":false,"nmea":true,"raw":0,"scaled":false,"timing":false,"split24":false,"pps":false}
2017-12-29 14:39:23 1514576363.390080: $GPZDA,193924.00,29,12,2017,00,00*6E
2017-12-29 14:39:23 1514576363.390241: $GPGGA,193924,3946.9579,N,08404.9847,W,2,11,0.80,301.01,M,-33.324,M,,*74
2017-12-29 14:39:23 1514576363.390305: $GPRMC,193924,A,3946.9579,N,08404.9847,W,0.0000,0.000,291217,,*35
2017-12-29 14:39:23 1514576363.390366: $GPGSA,A,3,1,10,12,14,18,22,25,31,32,11,138,,1.7,0.8,1.3*3F
2017-12-29 14:39:24 1514576364.718264: $GPGSV,3,1,12,01,22,300,37,10,46,148,51,12,21,049,46,14,66,328,43*70
2017-12-29 14:39:24 1514576364.718443: $GPGSV,3,2,12,18,16,144,47,22,21,312,39,25,40,090,51,31,59,226,47*7B
2017-12-29 14:39:24 1514576364.718508: $GPGSV,3,3,12,32,67,034,48,11,08,282,38,03,02,316,20,138,38,213,44*4C
2017-12-29 14:39:24 1514576364.831777: $GPZDA,193925.00,29,12,2017,00,00*6F
2017-12-29 14:39:24 1514576364.831905: $GPGGA,193925,3946.9579,N,08404.9847,W,2,12,0.80,301.01,M,-33.324,M,,*76
2017-12-29 14:39:24 1514576364.831970: $GPRMC,193925,A,3946.9579,N,08404.9847,W,0.0000,0.000,291217,,*34
2017-12-29 14:39:24 1514576364.832030: $GPGSA,A,3,1,10,12,14,18,22,25,31,32,11,3,138,1.7,0.8,1.3*0C
2017-12-29 14:39:25 1514576365.457058: $GPZDA,193926.00,29,12,2017,00,00*6C
2017-12-29 14:39:25 1514576365.457214: $GPGGA,193926,3946.9579,N,08404.9847,W,2,12,0.80,301.01,M,-33.324,M,,*75
2017-12-29 14:39:25 1514576365.457281: $GPRMC,193926,A,3946.9579,N,08404.9847,W,0.0000,0.000,291217,,*37
2017-12-29 14:39:25 1514576365.457341: $GPGSA,A,3,1,10,12,14,18,22,25,31,32,11,3,138,1.7,0.8,1.3*0C
2017-12-29 14:39:26 1514576366.354095: $GPZDA,193927.00,29,12,2017,00,00*6D
2017-12-29 14:39:26 1514576366.354255: $GPGGA,193927,3946.9579,N,08404.9847,W,2,12,0.80,301.01,M,-33.324,M,,*74
2017-12-29 14:39:26 1514576366.354324: $GPRMC,193927,A,3946.9579,N,08404.9847,W,0.0000,0.000,291217,,*36
2017-12-29 14:39:26 1514576366.354387: $GPGSA,A,3,1,10,12,14,18,22,25,31,32,11,3,138,1.7,0.8,1.3*0C
2017-12-29 14:39:27 1514576367.689840: $GPGSV,3,1,12,01,22,300,38,10,46,148,51,12,21,049,46,14,66,328,43*7F
2017-12-29 14:39:27 1514576367.690023: $GPGSV,3,2,12,18,16,144,47,22,21,312,38,25,40,090,51,31,59,226,47*7A
2017-12-29 14:39:27 1514576367.690091: $GPGSV,3,3,12,32,67,034,48,11,08,282,38,26,04,181,00,138,38,213,42*45
2017-12-29 14:39:27 1514576367.803177: $GPZDA,193928.00,29,12,2017,00,00*62
2017-12-29 14:39:27 1514576367.803305: $GPGGA,193928,3946.9579,N,08404.9847,W,2,11,0.80,301.01,M,-33.324,M,,*78
2017-12-29 14:39:27 1514576367.803372: $GPRMC,193928,A,3946.9579,N,08404.9847,W,0.0000,0.000,291217,,*39
2017-12-29 14:39:27 1514576367.803435: $GPGSA,A,3,1,10,12,14,18,22,25,31,32,11,138,,1.7,0.8,1.3*3F
2017-12-29 14:39:28 1514576368.386571: $GPZDA,193929.00,29,12,2017,00,00*63
2017-12-29 14:39:28 1514576368.386738: $GPGGA,193929,3946.9579,N,08404.9847,W,2,11,0.80,301.01,M,-33.324,M,,*79
2017-12-29 14:39:28 1514576368.386807: $GPRMC,193929,A,3946.9579,N,08404.9847,W,0.0000,0.000,291217,,*38
2017-12-29 14:39:28 1514576368.386869: $GPGSA,A,3,1,10,12,14,18,22,25,31,32,11,138,,1.7,0.8,1.3*3F
2017-12-29 14:39:29 1514576369.358687: $GPZDA,193930.00,29,12,2017,00,00*6B
2017-12-29 14:39:29 1514576369.358857: $GPGGA,193930,3946.9579,N,08404.9847,W,2,11,0.80,301.01,M,-33.324,M,,*71
2017-12-29 14:39:29 1514576369.358925: $GPRMC,193930,A,3946.9579,N,08404.9847,W,0.0000,0.000,291217,,*30
2017-12-29 14:39:29 1514576369.358988: $GPGSA,A,3,1,10,12,14,18,22,25,31,32,11,138,,1.7,0.8,1.3*3F
2017-12-29 14:39:30 1514576370.726442: $GPGSV,3,1,12,01,22,300,38,10,46,148,51,12,21,049,46,14,66,328,43*7F
2017-12-29 14:39:30 1514576370.726673: $GPGSV,3,2,12,18,16,144,47,22,21,312,38,25,40,090,51,31,59,226,47*7A
2017-12-29 14:39:30 1514576370.726741: $GPGSV,3,3,12,32,67,034,48,11,08,282,38,03,02,316,25,138,38,213,42*4F
2017-12-29 14:39:30 1514576370.839809: $GPZDA,193931.00,29,12,2017,00,00*6A
2017-12-29 14:39:30 1514576370.839953: $GPGGA,193931,3946.9579,N,08404.9847,W,2,12,0.80,301.01,M,-33.324,M,,*73
2017-12-29 14:39:30 1514576370.840018: $GPRMC,193931,A,3946.9579,N,08404.9847,W,0.0000,0.000,291217,,*31
2017-12-29 14:39:30 1514576370.840078: $GPGSA,A,3,1,10,12,14,18,22,25,31,32,11,3,138,1.7,0.8,1.3*0C
2017-12-29 14:39:31 1514576371.392119: $GPZDA,193932.00,29,12,2017,00,00*69
2017-12-29 14:39:31 1514576371.392295: $GPGGA,193932,3946.9579,N,08404.9847,W,2,12,0.80,301.01,M,-33.324,M,,*70
2017-12-29 14:39:31 1514576371.392360: $GPRMC,193932,A,3946.9579,N,08404.9847,W,0.0000,0.000,291217,,*32
2017-12-29 14:39:31 1514576371.392420: $GPGSA,A,3,1,10,12,14,18,22,25,31,32,11,3,138,1.7,0.8,1.3*0C
2017-12-29 14:39:32 1514576372.381594: $GPZDA,193933.00,29,12,2017,00,00*68
2017-12-29 14:39:32 1514576372.383708: $GPGGA,193933,3946.9579,N,08404.9847,W,2,12,0.80,301.01,M,-33.324,M,,*71
2017-12-29 14:39:32 1514576372.383809: $GPRMC,193933,A,3946.9579,N,08404.9847,W,0.0000,0.000,291217,,*33
2017-12-29 14:39:32 1514576372.383872: $GPGSA,A,3,1,10,12,14,18,22,25,31,32,11,3,138,1.7,0.8,1.3*0C
