2017-12-01 15:27:22 1512160042.323637: {"class":"VERSION","release":"3.16","rev":"3.16-4","proto_major":3,"proto_minor":11}
2017-12-01 15:27:22 1512160042.324091: {"class":"DEVICES","devices":[{"class":"DEVICE","path":"/dev/ttyUSB0","driver":"SiRF","subtype":"9\u0006GSD4e_4.1.2-P1_RPATCH.05-F-GPS-4R-1510281 11/03/2015 307","activated":"2017-12-01T20:27:22.116Z","flags":1,"native":1,"bps":4800,"parity":"N","stopbits":1,"cycle":1.00}]}
2017-12-01 15:27:22 1512160042.324212: {"class":"WATCH","enable":true,"json":false,"nmea":true,"raw":0,"scaled":false,"timing":false,"split24":false,"pps":false}
2017-12-01 15:27:23 1512160043.091554: $GPZDA,202723.76,01,12,2017,00,00*67
2017-12-01 15:27:23 1512160043.091723: $GPGGA,202723,3946.9575,N,08404.9792,W,1,11,0.80,315.89,M,-33.324,M,,*7B
2017-12-01 15:27:23 1512160043.091790: $GPRMC,202723,A,3946.9575,N,08404.9792,W,0.4844,273.794,011217,,*36
2017-12-01 15:27:23 1512160043.091853: $GPGSA,A,3,1,10,12,14,18,24,25,31,32,11,138,,2.0,0.8,1.5*3B
2017-12-01 15:27:23 1512160043.091912: $GPGBS,202723,10.70,M,15.43,M,35.28,M*01
2017-12-01 15:27:24 1512160044.173075: $GPZDA,202724.44,01,12,2017,00,00*61
2017-12-01 15:27:24 1512160044.173250: $GPGGA,202724,3946.9591,N,08404.9827,W,1,11,0.80,304.57,M,-33.324,M,,*74
2017-12-01 15:27:24 1512160044.173315: $GPRMC,202724,A,3946.9591,N,08404.9827,W,0.2710,100.223,011217,,*3C
2017-12-01 15:27:24 1512160044.173376: $GPGSA,A,3,1,10,12,14,18,24,25,31,32,11,138,,2.0,0.8,1.5*3B
2017-12-01 15:27:25 1512160045.315633: $GPGSV,3,1,12,01,09,324,34,10,77,115,46,11,09,309,38,12,23,079,45*71
2017-12-01 15:27:25 1512160045.315814: $GPGSV,3,2,12,14,49,282,42,18,45,130,47,24,21,045,43,25,24,121,46*76
2017-12-01 15:27:25 1512160045.315882: $GPGSV,3,3,12,31,27,208,46,32,65,310,48,21,01,172,00,138,38,213,00*4E
2017-12-01 15:27:25 1512160045.428953: $GPZDA,202725.00,01,12,2017,00,00*60
2017-12-01 15:27:25 1512160045.429106: $GPGGA,202725,3946.9593,N,08404.9832,W,1,10,0.80,300.92,M,-33.324,M,,*7F
2017-12-01 15:27:25 1512160045.429170: $GPRMC,202725,A,3946.9593,N,08404.9832,W,0.1567,9.200,011217,,*33
2017-12-01 15:27:25 1512160045.429230: $GPGSA,A,3,1,10,11,12,14,18,24,25,31,32,,,2.0,0.8,1.5*01
2017-12-01 15:27:25 1512160045.879959: $GPZDA,202726.00,01,12,2017,00,00*63
2017-12-01 15:27:25 1512160045.880129: $GPGGA,202726,3946.9600,N,08404.9850,W,1,10,0.80,296.34,M,-33.324,M,,*73
2017-12-01 15:27:25 1512160045.880195: $GPRMC,202726,A,3946.9600,N,08404.9850,W,0.0000,0.000,011217,,*33
2017-12-01 15:27:25 1512160045.880257: $GPGSA,A,3,1,10,11,12,14,18,24,25,31,32,,,2.0,0.8,1.5*01
2017-12-01 15:27:26 1512160046.382046: $GPZDA,202727.00,01,12,2017,00,00*62
2017-12-01 15:27:26 1512160046.382227: $GPGGA,202727,3946.9596,N,08404.9850,W,1,10,0.80,297.11,M,-33.324,M,,*78
2017-12-01 15:27:26 1512160046.382294: $GPRMC,202727,A,3946.9596,N,08404.9850,W,0.0000,0.000,011217,,*3E
2017-12-01 15:27:26 1512160046.382355: $GPGSA,A,3,1,10,11,12,14,18,24,25,31,32,,,2.0,0.8,1.5*01
2017-12-01 15:27:27 1512160047.718475: $GPGSV,3,1,12,01,09,324,33,10,77,115,47,11,09,309,37,12,23,079,44*79
2017-12-01 15:27:27 1512160047.718661: $GPGSV,3,2,12,14,49,282,42,18,45,130,48,24,21,045,43,25,24,121,46*79
2017-12-01 15:27:27 1512160047.718727: $GPGSV,3,3,12,31,27,208,47,32,65,310,49,21,01,172,00,138,38,213,46*4C
2017-12-01 15:27:27 1512160047.832204: $GPZDA,202728.00,01,12,2017,00,00*6D
2017-12-01 15:27:27 1512160047.832374: $GPGGA,202728,3946.9596,N,08404.9850,W,1,11,0.80,297.11,M,-33.324,M,,*76
2017-12-01 15:27:27 1512160047.832441: $GPRMC,202728,A,3946.9596,N,08404.9850,W,0.0000,0.000,011217,,*31
2017-12-01 15:27:27 1512160047.832502: $GPGSA,A,3,1,10,11,12,14,18,24,25,31,32,138,,2.0,0.8,1.5*3B
2017-12-01 15:27:28 1512160048.382776: $GPZDA,202729.00,01,12,2017,00,00*6C
2017-12-01 15:27:28 1512160048.382955: $GPGGA,202729,3946.9596,N,08404.9850,W,2,11,1.00,297.11,M,-33.324,M,,*7D
2017-12-01 15:27:28 1512160048.383021: $GPRMC,202729,A,3946.9596,N,08404.9850,W,0.0000,0.000,011217,,*30
2017-12-01 15:27:28 1512160048.383082: $GPGSA,A,3,1,10,11,12,14,18,24,25,31,32,138,,2.0,1.0,1.5*32
2017-12-01 15:27:29 1512160049.384919: $GPZDA,202730.00,01,12,2017,00,00*64
2017-12-01 15:27:29 1512160049.385099: $GPGGA,202730,3946.9596,N,08404.9843,W,2,11,0.80,297.19,M,-33.324,M,,*76
2017-12-01 15:27:29 1512160049.385168: $GPRMC,202730,A,3946.9596,N,08404.9843,W,0.0000,0.000,011217,,*3A
2017-12-01 15:27:29 1512160049.385229: $GPGSA,A,3,1,10,11,12,14,18,24,25,31,32,138,,2.0,0.8,1.5*3B
2017-12-01 15:27:29 1512160049.385288: $GPGBS,202730,2.67,M,3.86,M,8.82,M*36
2017-12-01 15:27:30 1512160050.720474: $GPGSV,3,1,12,01,09,324,34,10,77,115,47,11,09,309,37,12,23,079,44*7E
2017-12-01 15:27:30 1512160050.720627: $GPGSV,3,2,12,14,49,282,43,18,45,130,48,24,21,045,44,25,24,121,47*7E
2017-12-01 15:27:30 1512160050.720693: $GPGSV,3,3,12,31,27,208,47,32,65,310,49,21,01,172,00,138,38,213,46*4C
2017-12-01 15:27:30 1512160050.833875: $GPZDA,202731.00,01,12,2017,00,00*65
2017-12-01 15:27:30 1512160050.834045: $GPGGA,202731,3946.9596,N,08404.9843,W,2,11,0.80,297.19,M,-33.324,M,,*77
2017-12-01 15:27:30 1512160050.834112: $GPRMC,202731,A,3946.9596,N,08404.9843,W,0.0000,0.000,011217,,*3B
2017-12-01 15:27:30 1512160050.834173: $GPGSA,A,3,1,10,11,12,14,18,24,25,31,32,138,,2.0,0.8,1.5*3B
2017-12-01 15:27:31 1512160051.388496: $GPZDA,202732.00,01,12,2017,00,00*66
2017-12-01 15:27:31 1512160051.388679: $GPGGA,202732,3946.9596,N,08404.9843,W,2,11,0.80,297.19,M,-33.324,M,,*74
2017-12-01 15:27:31 1512160051.388750: $GPRMC,202732,A,3946.9596,N,08404.9843,W,0.0000,0.000,011217,,*38
2017-12-01 15:27:31 1512160051.388811: $GPGSA,A,3,1,10,11,12,14,18,24,25,31,32,138,,2.0,0.8,1.5*3B
2017-12-01 15:27:32 1512160052.382669: $GPZDA,202733.00,01,12,2017,00,00*67
2017-12-01 15:27:32 1512160052.382845: $GPGGA,202733,3946.9596,N,08404.9843,W,2,11,0.80,297.19,M,-33.324,M,,*75
2017-12-01 15:27:32 1512160052.382914: $GPRMC,202733,A,3946.9596,N,08404.9843,W,0.0000,0.000,011217,,*39
2017-12-01 15:27:32 1512160052.382975: $GPGSA,A,3,1,10,11,12,14,18,24,25,31,32,138,,2.0,0.8,1.5*3B
2017-12-01 15:27:33 1512160053.717090: $GPGSV,3,1,12,01,09,324,10,10,77,115,14,11,09,309,11,12,23,079,13*78
2017-12-01 15:27:33 1512160053.717280: $GPGSV,3,2,12,14,49,282,13,18,45,130,14,24,21,045,13,25,24,121,14*76
2017-12-01 15:27:33 1512160053.717346: $GPGSV,3,3,12,31,27,208,14,32,65,310,14,21,01,172,00,138,38,213,16*47
2017-12-01 15:27:33 1512160053.830472: $GPZDA,202734.00,01,12,2017,00,00*60
2017-12-01 15:27:33 1512160053.830655: $GPGGA,202734,3946.9596,N,08404.9843,W,2,11,0.80,297.19,M,-33.324,M,,*72
2017-12-01 15:27:33 1512160053.830722: $GPRMC,202734,A,3946.9596,N,08404.9843,W,0.0000,0.000,011217,,*3E
2017-12-01 15:27:33 1512160053.830784: $GPGSA,A,3,1,10,11,12,14,18,24,25,31,32,138,,2.0,0.8,1.5*3B
2017-12-01 15:27:34 1512160054.381310: $GPZDA,202735.00,01,12,2017,00,00*61
2017-12-01 15:27:34 1512160054.381536: $GPGGA,202735,3946.9600,N,08404.9850,W,2,11,0.80,296.34,M,-33.324,M,,*73
2017-12-01 15:27:34 1512160054.381605: $GPRMC,202735,A,3946.9600,N,08404.9850,W,0.2422,93.794,011217,,*07
2017-12-01 15:27:34 1512160054.381666: $GPGSA,A,3,1,10,11,12,14,18,24,25,31,32,138,,2.0,0.8,1.5*3B
2017-12-01 15:27:35 1512160055.380954: $GPZDA,202736.00,01,12,2017,00,00*62
2017-12-01 15:27:35 1512160055.381160: $GPGGA,202736,3946.9604,N,08404.9850,W,2,11,0.80,296.98,M,-33.324,M,,*72
2017-12-01 15:27:35 1512160055.381230: $GPRMC,202736,A,3946.9604,N,08404.9850,W,0.1867,0.000,011217,,*3E
2017-12-01 15:27:35 1512160055.381295: $GPGSA,A,3,1,10,11,12,14,18,24,25,31,32,138,,2.0,0.8,1.5*3B
2017-12-01 15:27:36 1512160056.716751: $GPGSV,3,1,12,01,09,324,35,10,77,115,47,11,09,309,33,12,23,079,43*7C
2017-12-01 15:27:36 1512160056.716948: $GPGSV,3,2,12,14,49,282,42,18,45,130,47,24,21,045,44,25,24,121,46*71
2017-12-01 15:27:36 1512160056.717016: $GPGSV,3,3,12,31,27,208,46,32,65,310,48,21,01,172,00,138,38,213,46*4C
2017-12-01 15:27:36 1512160056.830063: $GPZDA,202737.00,01,12,2017,00,00*63
2017-12-01 15:27:36 1512160056.830240: $GPGGA,202737,3946.9604,N,08404.9850,W,2,11,0.80,296.98,M,-33.324,M,,*73
2017-12-01 15:27:36 1512160056.830311: $GPRMC,202737,A,3946.9604,N,08404.9850,W,0.0000,0.000,011217,,*37
2017-12-01 15:27:36 1512160056.830423: $GPGSA,A,3,1,10,11,12,14,18,24,25,31,32,138,,2.0,0.8,1.5*3B
2017-12-01 15:27:37 1512160057.457238: $GPZDA,202738.00,01,12,2017,00,00*6C
2017-12-01 15:27:37 1512160057.457421: $GPGGA,202738,3946.9604,N,08404.9843,W,2,11,0.80,297.06,M,-33.324,M,,*78
2017-12-01 15:27:37 1512160057.457491: $GPRMC,202738,A,3946.9604,N,08404.9843,W,0.0000,0.000,011217,,*3A
2017-12-01 15:27:37 1512160057.457552: $GPGSA,A,3,1,10,11,12,14,18,24,25,31,32,138,,2.0,0.8,1.5*3B
2017-12-01 15:27:38 1512160058.383869: $GPZDA,202739.00,01,12,2017,00,00*6D
2017-12-01 15:27:38 1512160058.384048: $GPGGA,202739,3946.9604,N,08404.9843,W,2,11,0.80,297.06,M,-33.324,M,,*79
2017-12-01 15:27:38 1512160058.384119: $GPRMC,202739,A,3946.9604,N,08404.9843,W,0.0000,0.000,011217,,*3B
2017-12-01 15:27:38 1512160058.384180: $GPGSA,A,3,1,10,11,12,14,18,24,25,31,32,138,,2.0,0.8,1.5*3B
2017-12-01 15:27:39 1512160059.719592: $GPGSV,3,1,12,01,09,324,37,10,77,115,47,11,09,309,34,12,23,079,42*78
2017-12-01 15:27:39 1512160059.719773: $GPGSV,3,2,12,14,49,282,42,18,45,130,48,24,21,045,44,25,24,121,46*7E
2017-12-01 15:27:39 1512160059.719840: $GPGSV,3,3,12,31,27,208,46,32,65,310,48,21,01,172,00,138,38,213,46*4C
2017-12-01 15:27:39 1512160059.832032: $GPZDA,202740.00,01,12,2017,00,00*63
2017-12-01 15:27:39 1512160059.832163: $GPGGA,202740,3946.9604,N,08404.9843,W,2,11,0.80,297.06,M,-33.324,M,,*77
2017-12-01 15:27:39 1512160059.832229: $GPRMC,202740,A,3946.9604,N,08404.9843,W,0.0000,0.000,011217,,*35
2017-12-01 15:27:39 1512160059.832292: $GPGSA,A,3,1,10,11,12,14,18,24,25,31,32,138,,2.0,0.8,1.5*3B
2017-12-01 15:27:40 1512160060.383094: $GPZDA,202741.00,01,12,2017,00,00*62
2017-12-01 15:27:40 1512160060.383273: $GPGGA,202741,3946.9604,N,08404.9843,W,2,11,0.80,297.06,M,-33.324,M,,*76
2017-12-01 15:27:40 1512160060.383347: $GPRMC,202741,A,3946.9604,N,08404.9843,W,0.0000,0.000,011217,,*34
2017-12-01 15:27:40 1512160060.383408: $GPGSA,A,3,1,10,11,12,14,18,24,25,31,32,138,,2.0,0.8,1.5*3B
2017-12-01 15:27:41 1512160061.384917: $GPZDA,202742.00,01,12,2017,00,00*61
2017-12-01 15:27:41 1512160061.385091: $GPGGA,202742,3946.9604,N,08404.9843,W,2,11,0.80,297.06,M,-33.324,M,,*75
2017-12-01 15:27:41 1512160061.385158: $GPRMC,202742,A,3946.9604,N,08404.9843,W,0.0000,0.000,011217,,*37
2017-12-01 15:27:41 1512160061.385220: $GPGSA,A,3,1,10,11,12,14,18,24,25,31,32,138,,2.0,0.8,1.5*3B
2017-12-01 15:27:41 1512160061.385282: $GPGBS,202742,2.67,M,3.86,M,8.82,M*33
