2017-12-01 17:51:59 1512168719.107379: {"class":"VERSION","release":"3.16","rev":"3.16-4","proto_major":3,"proto_minor":11}
2017-12-01 17:51:59 1512168719.107753: {"class":"DEVICES","devices":[{"class":"DEVICE","path":"/dev/ttyUSB0","driver":"SiRF","subtype":"9\u0006GSD4e_4.1.2-P1_RPATCH.05-F-GPS-4R-1510281 11/03/2015 307","activated":"2017-12-01T22:51:58.742Z","flags":1,"native":1,"bps":4800,"parity":"N","stopbits":1,"cycle":1.00}]}
2017-12-01 17:51:59 1512168719.107867: {"class":"WATCH","enable":true,"json":false,"nmea":true,"raw":0,"scaled":false,"timing":false,"split24":false,"pps":false}
2017-12-01 17:51:59 1512168719.428025: $GPZDA,225200.00,01,12,2017,00,00*67
2017-12-01 17:51:59 1512168719.428208: $GPGGA,225200,3946.9736,N,08404.9846,W,2,11,0.80,299.00,M,-33.325,M,,*7F
2017-12-01 17:51:59 1512168719.428280: $GPRMC,225200,A,3946.9736,N,08404.9846,W,0.0000,0.000,011217,,*34
2017-12-01 17:51:59 1512168719.428345: $GPGSA,A,3,1,3,10,14,16,22,25,26,29,31,138,,2.0,0.8,1.5*0D
2017-12-01 17:52:01 1512168721.292719: $GPGSV,3,1,12,01,13,264,39,03,30,310,47,10,10,159,41,14,64,067,41*7B
2017-12-01 17:52:01 1512168721.292903: $GPGSV,3,2,12,16,09,189,36,22,46,291,46,32,46,094,00,25,28,048,42*73
2017-12-01 17:52:01 1512168721.292972: $GPGSV,3,3,12,26,38,175,46,29,05,084,32,31,77,349,46,138,38,213,45*49
2017-12-01 17:52:01 1512168721.406004: $GPZDA,225201.00,01,12,2017,00,00*66
2017-12-01 17:52:01 1512168721.406180: $GPGGA,225201,3946.9735,N,08404.9846,W,2,11,0.80,297.60,M,-33.325,M,,*75
2017-12-01 17:52:01 1512168721.406251: $GPRMC,225201,A,3946.9735,N,08404.9846,W,0.0000,0.000,011217,,*36
2017-12-01 17:52:01 1512168721.406315: $GPGSA,A,3,1,3,10,14,16,22,25,26,29,31,138,,2.0,0.8,1.5*0D
2017-12-01 17:52:01 1512168721.856946: $GPZDA,225202.00,01,12,2017,00,00*65
2017-12-01 17:52:01 1512168721.857135: $GPGGA,225202,3946.9735,N,08404.9846,W,2,11,0.80,297.60,M,-33.325,M,,*76
2017-12-01 17:52:01 1512168721.857224: $GPRMC,225202,A,3946.9735,N,08404.9846,W,0.0000,0.000,011217,,*35
2017-12-01 17:52:01 1512168721.857286: $GPGSA,A,3,1,3,10,14,16,22,25,26,29,31,138,,2.0,0.8,1.5*0D
2017-12-01 17:52:02 1512168722.428329: $GPZDA,225203.00,01,12,2017,00,00*64
2017-12-01 17:52:02 1512168722.428514: $GPGGA,225203,3946.9735,N,08404.9846,W,2,11,0.80,297.60,M,-33.325,M,,*77
2017-12-01 17:52:02 1512168722.428583: $GPRMC,225203,A,3946.9735,N,08404.9846,W,0.0000,0.000,011217,,*34
2017-12-01 17:52:02 1512168722.428644: $GPGSA,A,3,1,3,10,14,16,22,25,26,29,31,138,,2.0,0.8,1.5*0D
2017-12-01 17:52:03 1512168723.764750: $GPGSV,3,1,12,01,13,264,39,03,30,310,47,10,10,159,42,14,64,067,40*79
2017-12-01 17:52:03 1512168723.764936: $GPGSV,3,2,12,16,09,189,36,22,46,291,46,32,46,094,00,25,28,048,41*70
2017-12-01 17:52:03 1512168723.765004: $GPGSV,3,3,12,26,38,175,45,29,05,084,32,31,77,349,46,138,38,213,45*4A
2017-12-01 17:52:03 1512168723.878207: $GPZDA,225204.00,01,12,2017,00,00*63
2017-12-01 17:52:03 1512168723.878416: $GPGGA,225204,3946.9735,N,08404.9846,W,2,11,0.80,297.60,M,-33.325,M,,*70
2017-12-01 17:52:03 1512168723.885018: $GPRMC,225204,A,3946.9735,N,08404.9846,W,0.0000,0.000,011217,,*33
2017-12-01 17:52:03 1512168723.885129: $GPGSA,A,3,1,3,10,14,16,22,25,26,29,31,138,,2.0,0.8,1.5*0D
2017-12-01 17:52:04 1512168724.503567: $GPZDA,225205.00,01,12,2017,00,00*62
2017-12-01 17:52:04 1512168724.503738: $GPGGA,225205,3946.9735,N,08404.9846,W,2,11,0.80,297.60,M,-33.325,M,,*71
2017-12-01 17:52:04 1512168724.503805: $GPRMC,225205,A,3946.9735,N,08404.9846,W,0.0000,0.000,011217,,*32
2017-12-01 17:52:04 1512168724.503865: $GPGSA,A,3,1,3,10,14,16,22,25,26,29,31,138,,2.0,0.8,1.5*0D
2017-12-01 17:52:05 1512168725.426858: $GPZDA,225206.00,01,12,2017,00,00*61
2017-12-01 17:52:05 1512168725.427029: $GPGGA,225206,3946.9735,N,08404.9846,W,2,11,0.80,297.60,M,-33.325,M,,*72
2017-12-01 17:52:05 1512168725.427097: $GPRMC,225206,A,3946.9735,N,08404.9846,W,0.0000,0.000,011217,,*31
2017-12-01 17:52:05 1512168725.427184: $GPGSA,A,3,1,3,10,14,16,22,25,26,29,31,138,,2.0,0.8,1.5*0D
2017-12-01 17:52:06 1512168726.763808: $GPGSV,3,1,12,01,13,264,39,03,30,310,46,10,10,159,41,14,64,067,40*7B
2017-12-01 17:52:06 1512168726.764041: $GPGSV,3,2,12,16,09,189,35,22,46,291,47,32,46,094,00,25,28,048,42*71
2017-12-01 17:52:06 1512168726.764133: $GPGSV,3,3,12,26,38,175,46,29,05,084,32,31,77,349,46,138,38,213,45*49
2017-12-01 17:52:06 1512168726.877217: $GPZDA,225207.00,01,12,2017,00,00*60
2017-12-01 17:52:06 1512168726.877367: $GPGGA,225207,3946.9735,N,08404.9846,W,2,11,0.80,297.60,M,-33.325,M,,*73
2017-12-01 17:52:06 1512168726.877434: $GPRMC,225207,A,3946.9735,N,08404.9846,W,0.0000,0.000,011217,,*30
2017-12-01 17:52:06 1512168726.877494: $GPGSA,A,3,1,3,10,14,16,22,25,26,29,31,138,,2.0,0.8,1.5*0D
2017-12-01 17:52:07 1512168727.426889: $GPZDA,225208.00,01,12,2017,00,00*6F
2017-12-01 17:52:07 1512168727.427150: $GPGGA,225208,3946.9735,N,08404.9846,W,2,11,0.80,297.60,M,-33.325,M,,*7C
2017-12-01 17:52:07 1512168727.427299: $GPRMC,225208,A,3946.9735,N,08404.9846,W,0.0000,0.000,011217,,*3F
2017-12-01 17:52:07 1512168727.427421: $GPGSA,A,3,1,3,10,14,16,22,25,26,29,31,138,,2.0,0.8,1.5*0D
2017-12-01 17:52:08 1512168728.428993: $GPZDA,225209.00,01,12,2017,00,00*6E
2017-12-01 17:52:08 1512168728.429174: $GPGGA,225209,3946.9735,N,08404.9846,W,2,11,0.80,297.60,M,-33.325,M,,*7D
2017-12-01 17:52:08 1512168728.429258: $GPRMC,225209,A,3946.9735,N,08404.9846,W,0.0000,0.000,011217,,*3E
2017-12-01 17:52:08 1512168728.429320: $GPGSA,A,3,1,3,10,14,16,22,25,26,29,31,138,,2.0,0.8,1.5*0D
2017-12-01 17:52:09 1512168729.762990: $GPGSV,3,1,12,01,13,264,39,03,30,310,46,10,10,159,42,14,64,067,40*78
2017-12-01 17:52:09 1512168729.796216: $GPGSV,3,2,12,16,09,189,36,22,46,291,47,32,46,094,00,25,28,048,42*72
2017-12-01 17:52:09 1512168729.796387: $GPGSV,3,3,12,26,38,175,46,29,05,084,33,31,77,349,46,138,38,213,45*48
2017-12-01 17:52:09 1512168729.876289: $GPZDA,225210.00,01,12,2017,00,00*66
2017-12-01 17:52:09 1512168729.876459: $GPGGA,225210,3946.9735,N,08404.9846,W,2,11,0.80,297.60,M,-33.325,M,,*75
2017-12-01 17:52:09 1512168729.876529: $GPRMC,225210,A,3946.9735,N,08404.9846,W,0.0000,0.000,011217,,*36
2017-12-01 17:52:09 1512168729.876593: $GPGSA,A,3,1,3,10,14,16,22,25,26,29,31,138,,2.0,0.8,1.5*0D
2017-12-01 17:52:10 1512168730.427162: $GPZDA,225211.00,01,12,2017,00,00*67
2017-12-01 17:52:10 1512168730.427361: $GPGGA,225211,3946.9735,N,08404.9846,W,2,11,0.80,297.60,M,-33.325,M,,*74
2017-12-01 17:52:10 1512168730.427432: $GPRMC,225211,A,3946.9735,N,08404.9846,W,0.0000,0.000,011217,,*37
2017-12-01 17:52:10 1512168730.427496: $GPGSA,A,3,1,3,10,14,16,22,25,26,29,31,138,,2.0,0.8,1.5*0D
2017-12-01 17:52:11 1512168731.428125: $GPZDA,225212.00,01,12,2017,00,00*64
2017-12-01 17:52:11 1512168731.428317: $GPGGA,225212,3946.9735,N,08404.9846,W,2,11,0.80,297.60,M,-33.325,M,,*77
2017-12-01 17:52:11 1512168731.428387: $GPRMC,225212,A,3946.9735,N,08404.9846,W,0.0000,0.000,011217,,*34
2017-12-01 17:52:11 1512168731.428452: $GPGSA,A,3,1,3,10,14,16,22,25,26,29,31,138,,2.0,0.8,1.5*0D
2017-12-01 17:52:12 1512168732.763740: $GPGSV,3,1,12,01,13,264,40,03,30,310,46,10,10,159,41,14,64,067,40*75
2017-12-01 17:52:12 1512168732.763926: $GPGSV,3,2,12,16,09,189,36,22,46,291,47,32,46,094,00,25,28,048,42*72
2017-12-01 17:52:12 1512168732.763997: $GPGSV,3,3,12,26,38,175,46,29,05,084,33,31,77,349,46,138,38,213,46*4B
2017-12-01 17:52:12 1512168732.877139: $GPZDA,225213.00,01,12,2017,00,00*65
2017-12-01 17:52:12 1512168732.877313: $GPGGA,225213,3946.9735,N,08404.9846,W,2,11,0.80,297.60,M,-33.325,M,,*76
2017-12-01 17:52:12 1512168732.877383: $GPRMC,225213,A,3946.9735,N,08404.9846,W,0.0000,0.000,011217,,*35
2017-12-01 17:52:12 1512168732.877447: $GPGSA,A,3,1,3,10,14,16,22,25,26,29,31,138,,2.0,0.8,1.5*0D
2017-12-01 17:52:13 1512168733.426745: $GPZDA,225214.00,01,12,2017,00,00*62
2017-12-01 17:52:13 1512168733.426909: $GPGGA,225214,3946.9735,N,08404.9846,W,2,11,0.80,297.60,M,-33.325,M,,*71
2017-12-01 17:52:13 1512168733.426979: $GPRMC,225214,A,3946.9735,N,08404.9846,W,0.0000,0.000,011217,,*32
2017-12-01 17:52:13 1512168733.427069: $GPGSA,A,3,1,3,10,14,16,22,25,26,29,31,138,,2.0,0.8,1.5*0D
2017-12-01 17:52:14 1512168734.427168: $GPZDA,225215.00,01,12,2017,00,00*63
2017-12-01 17:52:14 1512168734.427409: $GPGGA,225215,3946.9735,N,08404.9846,W,2,11,0.80,297.60,M,-33.325,M,,*70
2017-12-01 17:52:14 1512168734.427480: $GPRMC,225215,A,3946.9735,N,08404.9846,W,0.0000,0.000,011217,,*33
2017-12-01 17:52:14 1512168734.427541: $GPGSA,A,3,1,3,10,14,16,22,25,26,29,31,138,,2.0,0.8,1.5*0D
2017-12-01 17:52:15 1512168735.764062: $GPGSV,3,1,12,01,13,264,40,03,30,310,45,10,10,159,41,14,64,067,40*76
2017-12-01 17:52:15 1512168735.764246: $GPGSV,3,2,12,16,09,189,35,22,46,291,47,32,46,094,00,25,28,048,42*71
2017-12-01 17:52:15 1512168735.764314: $GPGSV,3,3,12,26,38,175,46,29,05,084,33,31,77,349,46,138,38,213,46*4B
2017-12-01 17:52:15 1512168735.877476: $GPZDA,225216.00,01,12,2017,00,00*60
2017-12-01 17:52:15 1512168735.877649: $GPGGA,225216,3946.9735,N,08404.9846,W,2,11,0.80,297.60,M,-33.325,M,,*73
2017-12-01 17:52:15 1512168735.877715: $GPRMC,225216,A,3946.9735,N,08404.9846,W,0.0000,0.000,011217,,*30
2017-12-01 17:52:15 1512168735.877776: $GPGSA,A,3,1,3,10,14,16,22,25,26,29,31,138,,2.0,0.8,1.5*0D
2017-12-01 17:52:16 1512168736.429645: $GPZDA,225217.00,01,12,2017,00,00*61
2017-12-01 17:52:16 1512168736.429823: $GPGGA,225217,3946.9735,N,08404.9846,W,2,11,0.80,297.60,M,-33.325,M,,*72
2017-12-01 17:52:16 1512168736.429891: $GPRMC,225217,A,3946.9735,N,08404.9846,W,0.0000,0.000,011217,,*31
2017-12-01 17:52:16 1512168736.429971: $GPGSA,A,3,1,3,10,14,16,22,25,26,29,31,138,,2.0,0.8,1.5*0D
2017-12-01 17:52:17 1512168737.428358: $GPZDA,225218.00,01,12,2017,00,00*6E
2017-12-01 17:52:17 1512168737.428550: $GPGGA,225218,3946.9735,N,08404.9846,W,2,11,0.80,297.60,M,-33.325,M,,*7D
2017-12-01 17:52:17 1512168737.428620: $GPRMC,225218,A,3946.9735,N,08404.9846,W,0.0000,0.000,011217,,*3E
2017-12-01 17:52:17 1512168737.428681: $GPGSA,A,3,1,3,10,14,16,22,25,26,29,31,138,,2.0,0.8,1.5*0D
2017-12-01 17:52:18 1512168738.764937: $GPGSV,3,1,12,01,13,264,40,03,30,310,45,10,10,159,41,14,64,067,40*76
2017-12-01 17:52:18 1512168738.765135: $GPGSV,3,2,12,16,09,189,31,22,46,291,47,32,46,094,00,25,28,048,42*75
2017-12-01 17:52:18 1512168738.765203: $GPGSV,3,3,12,26,38,175,46,29,05,084,33,31,77,349,46,138,38,213,45*48
2017-12-01 17:52:18 1512168738.878311: $GPZDA,225219.00,01,12,2017,00,00*6F
2017-12-01 17:52:18 1512168738.878469: $GPGGA,225219,3946.9735,N,08404.9846,W,2,11,0.80,297.60,M,-33.325,M,,*7C
2017-12-01 17:52:18 1512168738.878536: $GPRMC,225219,A,3946.9735,N,08404.9846,W,0.0000,0.000,011217,,*3F
2017-12-01 17:52:18 1512168738.878597: $GPGSA,A,3,1,3,10,14,16,22,25,26,29,31,138,,2.0,0.8,1.5*0D
