2017-12-29 11:18:07 1514564287.266900: {"class":"VERSION","release":"3.16","rev":"3.16-4","proto_major":3,"proto_minor":11}
2017-12-29 11:18:07 1514564287.267240: {"class":"DEVICES","devices":[{"class":"DEVICE","path":"/dev/ttyUSB0","driver":"SiRF","subtype":"9\u0006GSD4e_4.1.2-P1_RPATCH.05-F-GPS-4R-1510281 11/03/2015 307","activated":"2017-12-29T16:18:07.203Z","flags":1,"native":1,"bps":4800,"parity":"N","stopbits":1,"cycle":1.00}]}
2017-12-29 11:18:07 1514564287.267356: {"class":"WATCH","enable":true,"json":false,"nmea":true,"raw":0,"scaled":false,"timing":false,"split24":false,"pps":false}
2017-12-29 11:18:07 1514564287.380769: $GPZDA,161808.00,29,12,2017,00,00*6C
2017-12-29 11:18:07 1514564287.380940: $GPGGA,161808,3946.9554,N,08404.9819,W,2,10,1.20,309.57,M,-33.324,M,,*73
2017-12-29 11:18:07 1514564287.381007: $GPRMC,161808,A,3946.9554,N,08404.9819,W,0.0000,0.000,291217,,*33
2017-12-29 11:18:07 1514564287.381122: $GPGSA,A,3,8,10,15,18,20,21,24,27,32,138,,,1.7,1.2,1.3*38
2017-12-29 11:18:08 1514564288.732735: $GPGSV,3,1,12,08,05,322,25,10,42,301,42,15,37,052,45,18,71,339,41*77
2017-12-29 11:18:08 1514564288.732904: $GPGSV,3,2,12,20,34,096,47,21,63,189,43,24,51,109,45,27,19,289,25*71
2017-12-29 11:18:08 1514564288.732969: $GPGSV,3,3,12,32,22,238,35,13,07,048,14,14,03,232,00,138,38,213,44*4C
2017-12-29 11:18:08 1514564288.846094: $GPZDA,161809.00,29,12,2017,00,00*6D
2017-12-29 11:18:08 1514564288.846242: $GPGGA,161809,3946.9554,N,08404.9819,W,2,11,1.20,309.57,M,-33.324,M,,*73
2017-12-29 11:18:08 1514564288.846308: $GPRMC,161809,A,3946.9554,N,08404.9819,W,0.0000,0.000,291217,,*32
2017-12-29 11:18:08 1514564288.846368: $GPGSA,A,3,8,10,15,18,20,21,24,27,32,13,138,,1.7,1.2,1.3*3A
2017-12-29 11:18:09 1514564289.471859: $GPZDA,161810.00,29,12,2017,00,00*65
2017-12-29 11:18:09 1514564289.472037: $GPGGA,161810,3946.9554,N,08404.9819,W,2,11,1.20,309.57,M,-33.324,M,,*7B
2017-12-29 11:18:09 1514564289.472104: $GPRMC,161810,A,3946.9554,N,08404.9819,W,0.0000,0.000,291217,,*3A
2017-12-29 11:18:09 1514564289.472165: $GPGSA,A,3,8,10,15,18,20,21,24,27,32,13,138,,1.7,1.2,1.3*3A
2017-12-29 11:18:10 1514564290.396101: $GPZDA,161811.00,29,12,2017,00,00*64
2017-12-29 11:18:10 1514564290.396268: $GPGGA,161811,3946.9554,N,08404.9819,W,2,11,1.20,309.57,M,-33.324,M,,*7A
2017-12-29 11:18:10 1514564290.396333: $GPRMC,161811,A,3946.9554,N,08404.9819,W,0.0000,0.000,291217,,*3B
2017-12-29 11:18:10 1514564290.396393: $GPGSA,A,3,8,10,15,18,20,21,24,27,32,13,138,,1.7,1.2,1.3*3A
2017-12-29 11:18:11 1514564291.735507: $GPGSV,3,1,12,08,05,322,32,10,42,301,42,15,37,052,45,18,71,339,41*71
2017-12-29 11:18:11 1514564291.735703: $GPGSV,3,2,12,20,34,096,47,21,63,189,43,24,51,109,45,27,19,289,25*71
2017-12-29 11:18:11 1514564291.735770: $GPGSV,3,3,12,32,22,238,35,13,07,048,00,14,03,232,00,138,38,213,44*49
2017-12-29 11:18:11 1514564291.848918: $GPZDA,161812.00,29,12,2017,00,00*67
2017-12-29 11:18:11 1514564291.849059: $GPGGA,161812,3946.9554,N,08404.9819,W,2,10,1.20,309.57,M,-33.324,M,,*78
2017-12-29 11:18:11 1514564291.849124: $GPRMC,161812,A,3946.9554,N,08404.9819,W,0.0000,0.000,291217,,*38
2017-12-29 11:18:11 1514564291.849184: $GPGSA,A,3,8,10,15,18,20,21,24,27,32,138,,,1.7,1.2,1.3*38
2017-12-29 11:18:12 1514564292.384775: $GPZDA,161813.00,29,12,2017,00,00*66
2017-12-29 11:18:12 1514564292.384956: $GPGGA,161813,3946.9554,N,08404.9819,W,2,10,1.20,309.57,M,-33.324,M,,*79
2017-12-29 11:18:12 1514564292.385023: $GPRMC,161813,A,3946.9554,N,08404.9819,W,0.0000,0.000,291217,,*39
2017-12-29 11:18:12 1514564292.385084: $GPGSA,A,3,8,10,15,18,20,21,24,27,32,138,,,1.7,1.2,1.3*38
2017-12-29 11:18:13 1514564293.400673: $GPZDA,161814.00,29,12,2017,00,00*61
2017-12-29 11:18:13 1514564293.400855: $GPGGA,161814,3946.9554,N,08404.9819,W,2,10,1.20,309.57,M,-33.324,M,,*7E
2017-12-29 11:18:13 1514564293.400921: $GPRMC,161814,A,3946.9554,N,08404.9819,W,0.0000,0.000,291217,,*3E
2017-12-29 11:18:13 1514564293.400981: $GPGSA,A,3,8,10,15,18,20,21,24,27,32,138,,,1.7,1.2,1.3*38
2017-12-29 11:18:14 1514564294.722120: $GPGSV,3,1,12,08,05,322,32,10,42,301,42,15,37,052,45,18,71,339,41*71
2017-12-29 11:18:14 1514564294.722331: $GPGSV,3,2,12,20,34,096,47,21,63,189,43,24,51,109,45,27,19,289,30*75
2017-12-29 11:18:14 1514564294.722399: $GPGSV,3,3,12,32,22,238,35,13,07,048,00,14,03,232,00,138,38,213,46*4B
2017-12-29 11:18:14 1514564294.834262: $GPZDA,161815.00,29,12,2017,00,00*60
2017-12-29 11:18:14 1514564294.834405: $GPGGA,161815,3946.9550,N,08404.9819,W,2,10,1.20,308.93,M,-33.324,M,,*72
2017-12-29 11:18:14 1514564294.834470: $GPRMC,161815,A,3946.9550,N,08404.9819,W,0.0000,0.000,291217,,*3B
2017-12-29 11:18:14 1514564294.834549: $GPGSA,A,3,8,10,15,18,20,21,24,27,32,138,,,1.7,1.2,1.3*38
2017-12-29 11:18:15 1514564295.400440: $GPZDA,161816.00,29,12,2017,00,00*63
2017-12-29 11:18:15 1514564295.400628: $GPGGA,161816,3946.9554,N,08404.9819,W,1,10,1.00,309.57,M,-33.324,M,,*7D
2017-12-29 11:18:15 1514564295.400712: $GPRMC,161816,A,3946.9554,N,08404.9819,W,0.0000,0.000,291217,,*3C
2017-12-29 11:18:15 1514564295.400775: $GPGSA,A,3,8,10,15,18,20,21,24,27,32,138,,,1.7,1.0,1.3*3A
2017-12-29 11:18:16 1514564296.394753: $GPZDA,161817.00,29,12,2017,00,00*62
2017-12-29 11:18:16 1514564296.394926: $GPGGA,161817,3946.9554,N,08404.9819,W,1,10,1.00,309.57,M,-33.324,M,,*7C
2017-12-29 11:18:16 1514564296.394993: $GPRMC,161817,A,3946.9554,N,08404.9819,W,0.0000,0.000,291217,,*3D
2017-12-29 11:18:16 1514564296.395055: $GPGSA,A,3,8,10,15,18,20,21,24,27,32,138,,,1.7,1.0,1.3*3A
2017-12-29 11:18:17 1514564297.719228: $GPGSV,3,1,12,08,05,322,32,10,42,301,42,15,37,052,45,18,71,339,41*71
2017-12-29 11:18:17 1514564297.719402: $GPGSV,3,2,12,20,34,096,47,21,63,189,43,24,51,109,45,27,19,289,31*74
2017-12-29 11:18:17 1514564297.719469: $GPGSV,3,3,12,32,22,238,36,13,07,048,00,14,03,232,00,138,38,213,45*4B
2017-12-29 11:18:17 1514564297.832826: $GPZDA,161818.00,29,12,2017,00,00*6D
2017-12-29 11:18:17 1514564297.832954: $GPGGA,161818,3946.9554,N,08404.9819,W,1,10,1.00,309.57,M,-33.324,M,,*73
2017-12-29 11:18:17 1514564297.833019: $GPRMC,161818,A,3946.9554,N,08404.9819,W,0.0000,0.000,291217,,*32
2017-12-29 11:18:17 1514564297.833079: $GPGSA,A,3,8,10,15,18,20,21,24,27,32,138,,,1.7,1.0,1.3*3A
2017-12-29 11:18:18 1514564298.399981: $GPZDA,161819.00,29,12,2017,00,00*6C
2017-12-29 11:18:18 1514564298.400142: $GPGGA,161819,3946.9554,N,08404.9819,W,1,10,1.00,309.57,M,-33.324,M,,*72
2017-12-29 11:18:18 1514564298.400207: $GPRMC,161819,A,3946.9554,N,08404.9819,W,0.0000,0.000,291217,,*33
2017-12-29 11:18:18 1514564298.400268: $GPGSA,A,3,8,10,15,18,20,21,24,27,32,138,,,1.7,1.0,1.3*3A
2017-12-29 11:18:19 1514564299.389147: $GPZDA,161820.00,29,12,2017,00,00*66
2017-12-29 11:18:19 1514564299.389307: $GPGGA,161820,3946.9554,N,08404.9819,W,1,10,1.00,309.57,M,-33.324,M,,*78
2017-12-29 11:18:19 1514564299.389371: $GPRMC,161820,A,3946.9554,N,08404.9819,W,0.0000,0.000,291217,,*39
2017-12-29 11:18:19 1514564299.389432: $GPGSA,A,3,8,10,15,18,20,21,24,27,32,138,,,1.7,1.0,1.3*3A
2017-12-29 11:18:20 1514564300.719590: $GPGSV,3,1,12,08,05,322,32,10,42,301,42,15,37,052,45,18,71,339,42*72
2017-12-29 11:18:20 1514564300.719779: $GPGSV,3,2,12,20,34,096,47,21,63,189,44,24,51,109,45,27,19,289,31*73
2017-12-29 11:18:20 1514564300.719845: $GPGSV,3,3,12,32,22,238,36,13,07,048,00,14,03,232,00,138,38,213,45*4B
2017-12-29 11:18:20 1514564300.833180: $GPZDA,161821.00,29,12,2017,00,00*67
2017-12-29 11:18:20 1514564300.833299: $GPGGA,161821,3946.9554,N,08404.9819,W,1,10,1.00,309.57,M,-33.324,M,,*79
2017-12-29 11:18:20 1514564300.833362: $GPRMC,161821,A,3946.9554,N,08404.9819,W,0.0000,0.000,291217,,*38
2017-12-29 11:18:20 1514564300.833423: $GPGSA,A,3,8,10,15,18,20,21,24,27,32,138,,,1.7,1.0,1.3*3A
2017-12-29 11:18:21 1514564301.400347: $GPZDA,161822.00,29,12,2017,00,00*64
2017-12-29 11:18:21 1514564301.400495: $GPGGA,161822,3946.9555,N,08404.9826,W,1,10,1.00,309.49,M,-33.324,M,,*78
2017-12-29 11:18:21 1514564301.400585: $GPRMC,161822,A,3946.9555,N,08404.9826,W,0.1867,0.000,291217,,*3E
2017-12-29 11:18:21 1514564301.400662: $GPGSA,A,3,8,10,15,18,20,21,24,27,32,138,,,1.7,1.0,1.3*3A
2017-12-29 11:18:22 1514564302.399970: $GPZDA,161823.00,29,12,2017,00,00*65
2017-12-29 11:18:22 1514564302.400181: $GPGGA,161823,3946.9555,N,08404.9826,W,1,10,1.00,309.49,M,-33.324,M,,*79
2017-12-29 11:18:22 1514564302.400249: $GPRMC,161823,A,3946.9555,N,08404.9826,W,0.0000,0.000,291217,,*37
2017-12-29 11:18:22 1514564302.400310: $GPGSA,A,3,8,10,15,18,20,21,24,27,32,138,,,1.7,1.0,1.3*3A
2017-12-29 11:18:23 1514564303.723110: $GPGSV,3,1,12,08,05,322,32,10,42,301,42,15,37,052,44,18,71,339,42*73
2017-12-29 11:18:23 1514564303.723276: $GPGSV,3,2,12,20,34,096,47,21,63,189,44,24,51,109,45,27,19,289,32*70
2017-12-29 11:18:23 1514564303.723341: $GPGSV,3,3,12,32,22,238,36,13,07,048,00,14,03,232,00,138,38,213,45*4B
2017-12-29 11:18:23 1514564303.836462: $GPZDA,161824.00,29,12,2017,00,00*62
2017-12-29 11:18:23 1514564303.836618: $GPGGA,161824,3946.9555,N,08404.9826,W,1,10,1.00,309.49,M,-33.324,M,,*7E
2017-12-29 11:18:23 1514564303.836706: $GPRMC,161824,A,3946.9555,N,08404.9826,W,0.0000,0.000,291217,,*30
2017-12-29 11:18:23 1514564303.836768: $GPGSA,A,3,8,10,15,18,20,21,24,27,32,138,,,1.7,1.0,1.3*3A
2017-12-29 11:18:24 1514564304.462253: $GPZDA,161825.00,29,12,2017,00,00*63
2017-12-29 11:18:24 1514564304.462603: $GPGGA,161825,3946.9555,N,08404.9826,W,1,10,1.00,309.49,M,-33.324,M,,*7F
2017-12-29 11:18:24 1514564304.462741: $GPRMC,161825,A,3946.9555,N,08404.9826,W,0.0000,0.000,291217,,*31
2017-12-29 11:18:24 1514564304.462899: $GPGSA,A,3,8,10,15,18,20,21,24,27,32,138,,,1.7,1.0,1.3*3A
2017-12-29 11:18:25 1514564305.401783: $GPZDA,161826.00,29,12,2017,00,00*60
2017-12-29 11:18:25 1514564305.401948: $GPGGA,161826,3946.9555,N,08404.9826,W,1,10,1.00,309.49,M,-33.324,M,,*7C
2017-12-29 11:18:25 1514564305.402015: $GPRMC,161826,A,3946.9555,N,08404.9826,W,0.0000,0.000,291217,,*32
2017-12-29 11:18:25 1514564305.402076: $GPGSA,A,3,8,10,15,18,20,21,24,27,32,138,,,1.7,1.0,1.3*3A
2017-12-29 11:18:26 1514564306.721090: $GPGSV,3,1,12,08,05,322,32,10,42,301,42,15,37,052,44,18,71,339,41*70
2017-12-29 11:18:26 1514564306.721258: $GPGSV,3,2,12,20,34,096,47,21,63,189,44,24,51,109,45,27,19,289,32*70
2017-12-29 11:18:26 1514564306.721323: $GPGSV,3,3,12,32,22,238,36,14,03,232,14,13,07,048,00,138,38,213,45*4E
2017-12-29 11:18:26 1514564306.834826: $GPZDA,161827.00,29,12,2017,00,00*61
2017-12-29 11:18:26 1514564306.834963: $GPGGA,161827,3946.9555,N,08404.9826,W,1,10,1.00,309.49,M,-33.324,M,,*7D
2017-12-29 11:18:26 1514564306.835027: $GPRMC,161827,A,3946.9555,N,08404.9826,W,0.0000,0.000,291217,,*33
2017-12-29 11:18:26 1514564306.835087: $GPGSA,A,3,8,10,15,18,20,21,24,27,32,138,,,1.7,1.0,1.3*3A
2017-12-29 11:18:27 1514564307.403136: $GPZDA,161828.00,29,12,2017,00,00*6E
2017-12-29 11:18:27 1514564307.403299: $GPGGA,161828,3946.9555,N,08404.9826,W,1,10,1.00,309.49,M,-33.324,M,,*72
2017-12-29 11:18:27 1514564307.403365: $GPRMC,161828,A,3946.9555,N,08404.9826,W,0.0000,0.000,291217,,*3C
2017-12-29 11:18:27 1514564307.403426: $GPGSA,A,3,8,10,15,18,20,21,24,27,32,138,,,1.7,1.0,1.3*3A
2017-12-29 11:18:28 1514564308.379034: $GPZDA,161829.00,29,12,2017,00,00*6F
2017-12-29 11:18:28 1514564308.379197: $GPGGA,161829,3946.9555,N,08404.9826,W,1,10,1.00,309.49,M,-33.324,M,,*73
2017-12-29 11:18:28 1514564308.379262: $GPRMC,161829,A,3946.9555,N,08404.9826,W,0.0000,0.000,291217,,*3D
2017-12-29 11:18:28 1514564308.379322: $GPGSA,A,3,8,10,15,18,20,21,24,27,32,138,,,1.7,1.0,1.3*3A
2017-12-29 11:18:29 1514564309.739874: $GPGSV,3,1,12,08,05,322,33,10,42,301,41,15,37,052,44,18,71,339,41*72
2017-12-29 11:18:29 1514564309.739974: $GPGSV,3,2,12,20,34,096,47,21,63,189,43,24,51,109,45,27,19,289,33*76
2017-12-29 11:18:29 1514564309.740007: $GPGSV,3,3,12,32,22,238,36,14,03,232,22,13,07,048,07,138,38,213,44*4D
2017-12-29 11:18:29 1514564309.853455: $GPZDA,161830.00,29,12,2017,00,00*67
2017-12-29 11:18:29 1514564309.853668: $GPGGA,161830,3946.9555,N,08404.9826,W,1,11,1.00,309.49,M,-33.324,M,,*7A
2017-12-29 11:18:29 1514564309.853735: $GPRMC,161830,A,3946.9555,N,08404.9826,W,0.0000,0.000,291217,,*35
2017-12-29 11:18:29 1514564309.853796: $GPGSA,A,3,8,10,15,18,20,21,24,27,32,14,138,,1.7,1.0,1.3*3F
2017-12-29 11:18:30 1514564310.403084: $GPZDA,161831.00,29,12,2017,00,00*66
2017-12-29 11:18:30 1514564310.403264: $GPGGA,161831,3946.9555,N,08404.9826,W,1,11,1.00,309.49,M,-33.324,M,,*7B
2017-12-29 11:18:30 1514564310.403331: $GPRMC,161831,A,3946.9555,N,08404.9826,W,0.0000,0.000,291217,,*34
2017-12-29 11:18:30 1514564310.403392: $GPGSA,A,3,8,10,15,18,20,21,24,27,32,14,138,,1.7,1.0,1.3*3F
2017-12-29 11:18:31 1514564311.386518: $GPZDA,161832.00,29,12,2017,00,00*65
2017-12-29 11:18:31 1514564311.386689: $GPGGA,161832,3946.9555,N,08404.9826,W,1,11,1.00,309.49,M,-33.324,M,,*78
2017-12-29 11:18:31 1514564311.386754: $GPRMC,161832,A,3946.9555,N,08404.9826,W,0.0000,0.000,291217,,*37
2017-12-29 11:18:31 1514564311.386815: $GPGSA,A,3,8,10,15,18,20,21,24,27,32,14,138,,1.7,1.0,1.3*3F
