2017-12-14 12:23:07 1513272187.004668: {"class":"VERSION","release":"3.16","rev":"3.16-4","proto_major":3,"proto_minor":11}
2017-12-14 12:23:07 1513272187.005037: {"class":"DEVICES","devices":[{"class":"DEVICE","path":"/dev/ttyUSB0","driver":"SiRF","subtype":"9\u0006GSD4e_4.1.2-P1_RPATCH.05-F-GPS-4R-1510281 11/03/2015 307","activated":"2017-12-14T17:23:06.516Z","flags":1,"native":1,"bps":4800,"parity":"N","stopbits":1,"cycle":1.00}]}
2017-12-14 12:23:07 1513272187.005149: {"class":"WATCH","enable":true,"json":false,"nmea":true,"raw":0,"scaled":false,"timing":false,"split24":false,"pps":false}
2017-12-14 12:23:07 1513272187.202323: $GPZDA,172308.00,14,12,2017,00,00*6B
2017-12-14 12:23:07 1513272187.202489: $GPGGA,172308,3946.9508,N,08404.9485,W,1,06,3.60,348.06,M,-33.324,M,,*79
2017-12-14 12:23:07 1513272187.202555: $GPRMC,172308,A,3946.9508,N,08404.9485,W,0.5617,211.295,141217,,*3D
2017-12-14 12:23:07 1513272187.202616: $GPGSA,A,3,24,10,21,20,32,18,,,,,,,6.6,3.6,6.2*3D
2017-12-14 12:23:07 1513272187.202673: $GPGBS,172308,24.66,M,21.80,M,143.40,M*3E
2017-12-14 12:23:08 1513272188.537074: $GPGSV,3,1,12,24,51,106,29,10,43,303,23,27,19,288,00,15,35,052,12*78
2017-12-14 12:23:08 1513272188.537253: $GPGSV,3,2,12,08,06,321,00,20,32,097,10,32,23,240,12,18,72,343,12*77
2017-12-14 12:23:08 1513272188.537319: $GPGSV,3,3,12,13,06,049,00,14,05,234,00,21,60,186,00,138,38,213,00*4D
2017-12-14 12:23:08 1513272188.650482: $GPZDA,172309.00,14,12,2017,00,00*6A
2017-12-14 12:23:08 1513272188.650643: $GPGGA,172309,3946.9512,N,08404.9485,W,1,06,3.60,348.70,M,-33.324,M,,*72
2017-12-14 12:23:08 1513272188.650709: $GPRMC,172309,A,3946.9512,N,08404.9485,W,0.3775,149.506,141217,,*37
2017-12-14 12:23:08 1513272188.650796: $GPGSA,A,3,24,10,15,20,32,18,,,,,,,6.6,3.6,6.2*3A
2017-12-14 12:23:09 1513272189.201904: $GPZDA,172310.00,14,12,2017,00,00*62
2017-12-14 12:23:09 1513272189.202132: $GPGGA,172310,3946.9504,N,08404.9486,W,1,06,3.60,348.82,M,-33.324,M,,*73
2017-12-14 12:23:09 1513272189.202208: $GPRMC,172310,A,3946.9504,N,08404.9486,W,0.3133,189.201,141217,,*33
2017-12-14 12:23:09 1513272189.202270: $GPGSA,A,3,24,10,15,20,32,18,,,,,,,6.6,3.6,6.2*3A
2017-12-14 12:23:10 1513272190.201991: $GPZDA,172311.00,14,12,2017,00,00*63
2017-12-14 12:23:10 1513272190.202198: $GPGGA,172311,3946.9497,N,08404.9487,W,1,06,3.60,350.35,M,-33.324,M,,*7D
2017-12-14 12:23:10 1513272190.202265: $GPRMC,172311,A,3946.9497,N,08404.9487,W,0.6550,186.588,141217,,*35
2017-12-14 12:23:10 1513272190.202327: $GPGSA,A,3,24,10,15,20,32,18,,,,,,,6.6,3.6,6.2*3A
2017-12-14 12:23:11 1513272191.538189: $GPGSV,3,1,12,24,51,106,30,10,43,303,23,21,60,186,18,15,35,052,12*7C
2017-12-14 12:23:11 1513272191.681492: $GPGSV,3,2,12,27,19,288,00,20,32,097,10,32,23,240,12,18,72,343,13*77
2017-12-14 12:23:11 1513272191.681632: $GPGSV,3,3,12,08,06,321,00,13,06,049,00,14,05,234,00,138,38,213,00*49
2017-12-14 12:23:11 1513272191.681748: $GPZDA,172312.00,14,12,2017,00,00*60
2017-12-14 12:23:11 1513272191.681807: $GPGGA,172312,3946.9501,N,08404.9486,W,1,07,3.60,349.58,M,-33.324,M,,*73
2017-12-14 12:23:11 1513272191.681868: $GPRMC,172312,A,3946.9501,N,08404.9486,W,0.4137,224.855,141217,,*38
2017-12-14 12:23:11 1513272191.681962: $GPGSA,A,3,24,10,21,15,20,32,18,,,,,,6.6,3.6,6.2*39
2017-12-14 12:23:12 1513272192.201254: $GPZDA,172313.00,14,12,2017,00,00*61
2017-12-14 12:23:12 1513272192.201418: $GPGGA,172313,3946.9511,N,08404.9477,W,1,07,3.60,347.37,M,-33.324,M,,*7A
2017-12-14 12:23:12 1513272192.201483: $GPRMC,172313,A,3946.9511,N,08404.9477,W,0.3735,0.000,141217,,*39
2017-12-14 12:23:12 1513272192.201543: $GPGSA,A,3,24,10,21,15,20,32,18,,,,,,6.6,3.6,6.2*39
2017-12-14 12:23:13 1513272193.202812: $GPZDA,172314.00,14,12,2017,00,00*66
2017-12-14 12:23:13 1513272193.203013: $GPGGA,172314,3946.9512,N,08404.9478,W,1,07,3.60,348.77,M,-33.324,M,,*7A
2017-12-14 12:23:13 1513272193.203084: $GPRMC,172314,A,3946.9512,N,08404.9478,W,0.0407,322.012,141217,,*33
2017-12-14 12:23:13 1513272193.203149: $GPGSA,A,3,24,10,21,15,20,32,18,,,,,,6.6,3.6,6.2*39
2017-12-14 12:23:14 1513272194.537638: $GPGSV,3,1,12,24,51,106,30,10,43,303,23,21,60,186,18,15,35,052,12*7C
2017-12-14 12:23:14 1513272194.537876: $GPGSV,3,2,12,27,19,288,06,20,32,097,11,32,23,240,13,18,72,343,14*76
2017-12-14 12:23:14 1513272194.537945: $GPGSV,3,3,12,08,06,321,00,13,06,049,00,14,05,234,00,138,38,213,00*49
2017-12-14 12:23:14 1513272194.651042: $GPZDA,172315.00,14,12,2017,00,00*67
2017-12-14 12:23:14 1513272194.651216: $GPGGA,172315,3946.9501,N,08404.9480,W,1,07,3.60,351.07,M,-33.324,M,,*71
2017-12-14 12:23:14 1513272194.651281: $GPRMC,172315,A,3946.9501,N,08404.9480,W,0.3775,149.506,141217,,*3D
2017-12-14 12:23:14 1513272194.651344: $GPGSA,A,3,24,10,21,15,20,32,18,,,,,,6.6,3.6,6.2*39
2017-12-14 12:23:15 1513272195.197598: $GPRMC,172316,V,3946.9501,N,08404.9480,W,0.3775,149.506,141217,,*29
2017-12-14 12:23:15 1513272195.197763: $GPGSA,A,1,24,10,21,15,20,32,18,,,,,,,,,*38
2017-12-14 12:23:16 1513272196.196436: $GPRMC,172317,V,3946.9501,N,08404.9480,W,0.3775,149.506,141217,,*28
2017-12-14 12:23:16 1513272196.196684: $GPGSA,A,1,24,10,21,15,20,32,18,,,,,,,,,*38
2017-12-14 12:23:17 1513272197.534412: $GPGSV,3,1,12,24,51,106,30,10,43,303,23,21,60,186,19,15,35,052,12*7D
2017-12-14 12:23:17 1513272197.534591: $GPGSV,3,2,12,27,19,288,06,20,32,097,10,32,23,240,06,18,72,343,14*73
2017-12-14 12:23:17 1513272197.534657: $GPGSV,3,3,12,08,06,321,00,13,06,049,00,14,05,234,00,138,38,213,00*49
2017-12-14 12:23:17 1513272197.647126: $GPRMC,172318,V,3946.9501,N,08404.9480,W,0.3775,149.506,141217,,*27
2017-12-14 12:23:17 1513272197.647337: $GPGSA,A,1,24,10,21,15,20,32,18,,,,,,,,,*38
2017-12-14 12:23:18 1513272198.200626: $GPRMC,172319,V,3946.9487,N,08404.9482,W,0.9971,185.768,141217,,*21
2017-12-14 12:23:18 1513272198.200803: $GPGSA,A,1,24,10,21,15,20,32,18,,,,,,,,,*38
2017-12-14 12:23:19 1513272199.200724: $GPRMC,172320,V,3946.9484,N,08404.9490,W,0.8334,222.078,141217,,*29
2017-12-14 12:23:19 1513272199.200903: $GPGSA,A,1,24,10,21,15,20,32,18,,,,,,,,,*38
2017-12-14 12:23:20 1513272200.538030: $GPGSV,3,1,12,24,51,106,30,10,43,303,23,21,60,186,19,15,35,052,12*7D
2017-12-14 12:23:20 1513272200.538220: $GPGSV,3,2,12,27,19,288,06,20,32,097,11,32,23,240,11,18,72,343,14*74
2017-12-14 12:23:20 1513272200.538289: $GPGSV,3,3,12,08,06,321,07,13,06,049,00,14,05,234,00,138,38,213,00*4E
2017-12-14 12:23:20 1513272200.650440: $GPRMC,172321,V,3946.9469,N,08404.9492,W,1.0342,199.305,141217,,*2B
2017-12-14 12:23:20 1513272200.650616: $GPGSA,A,1,24,10,21,15,20,32,18,,,,,,,,,*38
2017-12-14 12:23:21 1513272201.201787: $GPRMC,172322,V,3946.9459,N,08404.9494,W,1.1887,197.980,141217,,*27
2017-12-14 12:23:21 1513272201.202020: $GPGSA,A,1,24,10,21,15,20,32,18,,,,,,,,,*38
2017-12-14 12:23:22 1513272202.201382: $GPRMC,172323,V,3946.9459,N,08404.9494,W,0.8602,203.420,141217,,*24
2017-12-14 12:23:22 1513272202.201555: $GPGSA,A,1,24,10,21,15,20,32,18,,,,,,,,,*38
2017-12-14 12:23:23 1513272203.539879: $GPGSV,3,1,12,24,51,106,30,10,43,303,23,21,60,186,20,15,35,052,11*74
2017-12-14 12:23:23 1513272203.540058: $GPGSV,3,2,12,27,19,288,07,20,32,097,10,32,23,240,10,18,72,343,13*72
2017-12-14 12:23:23 1513272203.540122: $GPGSV,3,3,12,08,06,321,08,13,06,049,00,14,05,234,00,138,38,213,00*41
2017-12-14 12:23:23 1513272203.653785: $GPZDA,172324.00,14,12,2017,00,00*65
2017-12-14 12:23:23 1513272203.653950: $GPGGA,172324,3946.9460,N,08404.9495,W,1,08,3.60,358.76,M,-33.324,M,,*71
2017-12-14 12:23:23 1513272203.654015: $GPRMC,172324,A,3946.9460,N,08404.9495,W,0.4106,230.499,141217,,*32
2017-12-14 12:23:23 1513272203.654075: $GPGSA,A,3,24,10,21,15,27,20,32,18,,,,,6.6,3.6,6.2*3C
2017-12-14 12:23:23 1513272203.654132: $GPGBS,172324,24.66,M,21.80,M,143.40,M*30
2017-12-14 12:23:24 1513272204.203601: $GPZDA,172325.00,14,12,2017,00,00*64
2017-12-14 12:23:24 1513272204.203782: $GPGGA,172325,3946.9453,N,08404.9497,W,1,08,3.60,360.29,M,-33.324,M,,*73
2017-12-14 12:23:24 1513272204.203850: $GPRMC,172325,A,3946.9453,N,08404.9497,W,0.1975,75.899,141217,,*07
2017-12-14 12:23:24 1513272204.203910: $GPGSA,A,3,24,10,21,15,27,20,32,18,,,,,6.6,3.6,6.2*3C
2017-12-14 12:23:24 1513272204.203967: $GPGBS,172325,24.66,M,21.80,M,143.40,M*31
2017-12-14 12:23:25 1513272205.202331: $GPZDA,172326.00,14,12,2017,00,00*67
2017-12-14 12:23:25 1513272205.202498: $GPGGA,172326,3946.9450,N,08404.9498,W,1,08,3.60,362.45,M,-33.324,M,,*74
2017-12-14 12:23:25 1513272205.202563: $GPRMC,172326,A,3946.9450,N,08404.9498,W,0.1977,122.605,141217,,*32
2017-12-14 12:23:25 1513272205.202623: $GPGSA,A,3,24,10,21,15,27,20,32,18,,,,,6.6,3.6,6.2*3C
2017-12-14 12:23:25 1513272205.202680: $GPGBS,172326,24.66,M,21.80,M,143.40,M*32
2017-12-14 12:23:26 1513272206.538786: $GPGSV,3,1,12,24,51,106,30,10,43,303,23,21,60,186,20,15,35,052,12*77
2017-12-14 12:23:26 1513272206.538987: $GPGSV,3,2,12,27,19,288,06,20,32,097,10,32,23,240,12,18,72,343,13*71
2017-12-14 12:23:26 1513272206.539057: $GPGSV,3,3,12,08,06,321,09,13,06,049,00,14,05,234,00,138,38,213,00*40
2017-12-14 12:23:26 1513272206.651927: $GPZDA,172327.00,14,12,2017,00,00*66
2017-12-14 12:23:26 1513272206.652130: $GPGGA,172327,3946.9450,N,08404.9498,W,1,07,3.60,362.45,M,-33.324,M,,*7A
2017-12-14 12:23:26 1513272206.652204: $GPRMC,172327,A,3946.9450,N,08404.9498,W,0.2872,195.168,141217,,*34
2017-12-14 12:23:26 1513272206.652266: $GPGSA,A,3,24,10,21,15,20,32,18,,,,,,6.6,3.6,6.2*39
