2017-12-31 18:33:41 1514763221.738203: {"class":"VERSION","release":"3.16","rev":"3.16-4","proto_major":3,"proto_minor":11}
2017-12-31 18:33:41 1514763221.738541: {"class":"DEVICES","devices":[{"class":"DEVICE","path":"/dev/ttyUSB0","driver":"SiRF","activated":"2017-12-31T23:33:41.494Z","flags":1,"native":1,"bps":4800,"parity":"N","stopbits":1,"cycle":1.00}]}
2017-12-31 18:33:41 1514763221.738638: {"class":"WATCH","enable":true,"json":false,"nmea":true,"raw":0,"scaled":false,"timing":false,"split24":false,"pps":false}
2017-12-31 18:33:42 1514763222.688381: $GPGSV,3,1,12,22,14,208,24,23,63,295,40,09,29,312,40,03,24,226,38*71
2017-12-31 18:33:42 1514763222.688557: $GPGSV,3,2,12,16,85,051,40,08,09,177,00,14,06,138,23,31,21,082,38*79
2017-12-31 18:33:42 1514763222.688621: $GPGSV,3,3,12,27,32,148,35,07,05,280,44,26,52,046,46,135,22,240,42*49
2017-12-31 18:33:42 1514763222.801723: $GPZDA,233343.00,31,12,2017,00,00*65
2017-12-31 18:33:42 1514763222.801891: $GPGGA,233343,3946.9578,N,08404.9837,W,2,11,0.80,307.55,M,-33.324,M,,*77
2017-12-31 18:33:42 1514763222.801955: $GPRMC,233343,A,3946.9578,N,08404.9837,W,0.0000,0.000,311217,,*38
2017-12-31 18:33:42 1514763222.802016: $GPGSA,A,3,22,23,9,3,16,14,31,27,7,26,135,,1.7,0.8,1.3*34
2017-12-31 18:33:43 1514763223.352642: $GPZDA,233344.00,31,12,2017,00,00*62
2017-12-31 18:33:43 1514763223.352806: $GPGGA,233344,3946.9578,N,08404.9837,W,2,11,0.80,307.55,M,-33.324,M,,*70
2017-12-31 18:33:43 1514763223.352873: $GPRMC,233344,A,3946.9578,N,08404.9837,W,0.0000,0.000,311217,,*3F
2017-12-31 18:33:43 1514763223.352933: $GPGSA,A,3,22,23,9,3,16,14,31,27,7,26,135,,1.7,0.8,1.3*34
2017-12-31 18:33:44 1514763224.390928: $GPZDA,233345.00,31,12,2017,00,00*63
2017-12-31 18:33:44 1514763224.391107: $GPGGA,233345,3946.9578,N,08404.9837,W,2,11,0.80,307.55,M,-33.324,M,,*71
2017-12-31 18:33:44 1514763224.391173: $GPRMC,233345,A,3946.9578,N,08404.9837,W,0.0000,0.000,311217,,*3E
2017-12-31 18:33:44 1514763224.391236: $GPGSA,A,3,22,23,9,3,16,14,31,27,7,26,135,,1.7,0.8,1.3*34
2017-12-31 18:33:45 1514763225.687500: $GPGSV,3,1,12,22,14,208,26,23,63,295,42,09,29,312,41,03,24,226,38*70
2017-12-31 18:33:45 1514763225.687672: $GPGSV,3,2,12,16,85,051,41,08,09,177,00,14,06,138,23,31,21,082,39*79
2017-12-31 18:33:45 1514763225.687739: $GPGSV,3,3,12,27,32,148,37,07,05,280,45,26,52,046,47,135,22,240,42*4B
2017-12-31 18:33:45 1514763225.800980: $GPZDA,233346.00,31,12,2017,00,00*60
2017-12-31 18:33:45 1514763225.801153: $GPGGA,233346,3946.9578,N,08404.9837,W,2,11,0.80,307.55,M,-33.324,M,,*72
2017-12-31 18:33:45 1514763225.801219: $GPRMC,233346,A,3946.9578,N,08404.9837,W,0.0000,0.000,311217,,*3D
2017-12-31 18:33:45 1514763225.801281: $GPGSA,A,3,22,23,9,3,16,14,31,27,7,26,135,,1.7,0.8,1.3*34
2017-12-31 18:33:46 1514763226.351683: $GPZDA,233347.00,31,12,2017,00,00*61
2017-12-31 18:33:46 1514763226.351849: $GPGGA,233347,3946.9578,N,08404.9837,W,2,11,0.80,307.55,M,-33.324,M,,*73
2017-12-31 18:33:46 1514763226.351915: $GPRMC,233347,A,3946.9578,N,08404.9837,W,0.0000,0.000,311217,,*3C
2017-12-31 18:33:46 1514763226.351977: $GPGSA,A,3,22,23,9,3,16,14,31,27,7,26,135,,1.7,0.8,1.3*34
2017-12-31 18:33:47 1514763227.351274: $GPZDA,233348.00,31,12,2017,00,00*6E
2017-12-31 18:33:47 1514763227.351452: $GPGGA,233348,3946.9578,N,08404.9837,W,2,11,0.80,307.55,M,-33.324,M,,*7C
2017-12-31 18:33:47 1514763227.351520: $GPRMC,233348,A,3946.9578,N,08404.9837,W,0.0000,0.000,311217,,*33
2017-12-31 18:33:47 1514763227.351582: $GPGSA,A,3,22,23,9,3,16,14,31,27,7,26,135,,1.7,0.8,1.3*34
2017-12-31 18:33:48 1514763228.714523: $GPGSV,3,1,12,22,14,208,26,23,63,295,41,09,29,312,41,03,24,226,38*73
2017-12-31 18:33:48 1514763228.714685: $GPGSV,3,2,12,16,85,051,41,08,09,177,00,14,06,138,23,31,21,082,39*79
2017-12-31 18:33:48 1514763228.714753: $GPGSV,3,3,12,27,32,148,38,07,05,280,45,26,52,046,47,135,22,240,43*45
2017-12-31 18:33:48 1514763228.827943: $GPZDA,233349.00,31,12,2017,00,00*6F
2017-12-31 18:33:48 1514763228.828122: $GPGGA,233349,3946.9578,N,08404.9837,W,2,11,0.80,307.55,M,-33.324,M,,*7D
2017-12-31 18:33:48 1514763228.828189: $GPRMC,233349,A,3946.9578,N,08404.9837,W,0.0000,0.000,311217,,*32
2017-12-31 18:33:48 1514763228.828307: $GPGSA,A,3,22,23,9,3,16,14,31,27,7,26,135,,1.7,0.8,1.3*34
2017-12-31 18:33:49 1514763229.353722: $GPZDA,233350.00,31,12,2017,00,00*67
2017-12-31 18:33:49 1514763229.353882: $GPGGA,233350,3946.9578,N,08404.9837,W,2,11,0.80,307.55,M,-33.324,M,,*75
2017-12-31 18:33:49 1514763229.353950: $GPRMC,233350,A,3946.9578,N,08404.9837,W,0.0000,0.000,311217,,*3A
2017-12-31 18:33:49 1514763229.354010: $GPGSA,A,3,22,23,9,3,16,14,31,27,7,26,135,,1.7,0.8,1.3*34
2017-12-31 18:33:50 1514763230.387928: $GPZDA,233351.00,31,12,2017,00,00*66
2017-12-31 18:33:50 1514763230.388115: $GPGGA,233351,3946.9578,N,08404.9837,W,2,11,0.80,307.55,M,-33.324,M,,*74
2017-12-31 18:33:50 1514763230.388186: $GPRMC,233351,A,3946.9578,N,08404.9837,W,0.0000,0.000,311217,,*3B
2017-12-31 18:33:50 1514763230.388253: $GPGSA,A,3,22,23,9,3,16,14,31,27,7,26,135,,1.7,0.8,1.3*34
2017-12-31 18:33:51 1514763231.688627: $GPGSV,3,1,12,22,14,208,26,23,63,295,41,09,29,312,42,03,24,226,38*70
2017-12-31 18:33:51 1514763231.688789: $GPGSV,3,2,12,16,85,051,41,08,09,177,00,14,06,138,23,31,21,082,39*79
2017-12-31 18:33:51 1514763231.688858: $GPGSV,3,3,12,27,32,148,38,07,05,280,45,26,52,046,47,135,22,240,43*45
