2017-12-01 17:04:38 1512165878.517015: {"class":"VERSION","release":"3.16","rev":"3.16-4","proto_major":3,"proto_minor":11}
2017-12-01 17:04:38 1512165878.517407: {"class":"DEVICES","devices":[{"class":"DEVICE","path":"/dev/ttyUSB0","driver":"SiRF","subtype":"9\u0006GSD4e_4.1.2-P1_RPATCH.05-F-GPS-4R-1510281 11/03/2015 307","activated":"2017-12-01T22:04:38.466Z","flags":1,"native":1,"bps":4800,"parity":"N","stopbits":1,"cycle":1.00}]}
2017-12-01 17:04:38 1512165878.517525: {"class":"WATCH","enable":true,"json":false,"nmea":true,"raw":0,"scaled":false,"timing":false,"split24":false,"pps":false}
2017-12-01 17:04:39 1512165879.769019: $GPGSV,3,1,12,01,21,285,42,03,13,316,42,10,32,154,36,12,14,037,27*72
2017-12-01 17:04:39 1512165879.769223: $GPGSV,3,2,12,14,70,009,46,22,32,309,47,25,40,069,24,26,16,180,38*71
2017-12-01 17:04:39 1512165879.769291: $GPGSV,3,3,12,31,71,247,48,32,61,063,47,18,04,147,00,138,38,213,35*4B
2017-12-01 17:04:39 1512165879.882287: $GPZDA,220440.00,01,12,2017,00,00*60
2017-12-01 17:04:39 1512165879.882444: $GPGGA,220440,3946.9625,N,08404.9725,W,2,11,0.80,292.22,M,-33.324,M,,*7B
2017-12-01 17:04:39 1512165879.882508: $GPRMC,220440,A,3946.9625,N,08404.9725,W,0.0000,0.000,011217,,*3A
2017-12-01 17:04:39 1512165879.882569: $GPGSA,A,3,1,3,10,12,14,22,25,26,31,32,138,,2.0,0.8,1.5*03
2017-12-01 17:04:40 1512165880.433180: $GPZDA,220441.00,01,12,2017,00,00*61
2017-12-01 17:04:40 1512165880.433364: $GPGGA,220441,3946.9625,N,08404.9725,W,2,11,0.80,292.22,M,-33.324,M,,*7A
2017-12-01 17:04:40 1512165880.433451: $GPRMC,220441,A,3946.9625,N,08404.9725,W,0.0000,0.000,011217,,*3B
2017-12-01 17:04:40 1512165880.433514: $GPGSA,A,3,1,3,10,12,14,22,25,26,31,32,138,,2.0,0.8,1.5*03
2017-12-01 17:04:41 1512165881.434055: $GPZDA,220442.00,01,12,2017,00,00*62
2017-12-01 17:04:41 1512165881.434237: $GPGGA,220442,3946.9625,N,08404.9725,W,2,11,0.80,292.22,M,-33.324,M,,*79
2017-12-01 17:04:41 1512165881.434305: $GPRMC,220442,A,3946.9625,N,08404.9725,W,0.0000,0.000,011217,,*38
2017-12-01 17:04:41 1512165881.434365: $GPGSA,A,3,1,3,10,12,14,22,25,26,31,32,138,,2.0,0.8,1.5*03
2017-12-01 17:04:42 1512165882.772273: $GPGSV,3,1,12,01,21,285,42,03,13,316,42,10,32,154,36,12,14,037,27*72
2017-12-01 17:04:42 1512165882.772457: $GPGSV,3,2,12,14,70,009,46,22,32,309,47,25,40,069,24,26,16,180,38*71
2017-12-01 17:04:42 1512165882.772523: $GPGSV,3,3,12,31,71,247,48,32,61,063,47,18,04,147,00,138,38,213,38*46
2017-12-01 17:04:42 1512165882.885598: $GPZDA,220443.00,01,12,2017,00,00*63
2017-12-01 17:04:42 1512165882.885733: $GPGGA,220443,3946.9625,N,08404.9725,W,2,11,0.80,292.22,M,-33.324,M,,*78
2017-12-01 17:04:42 1512165882.885799: $GPRMC,220443,A,3946.9625,N,08404.9725,W,0.0000,0.000,011217,,*39
2017-12-01 17:04:42 1512165882.885859: $GPGSA,A,3,1,3,10,12,14,22,25,26,31,32,138,,2.0,0.8,1.5*03
2017-12-01 17:04:43 1512165883.434072: $GPZDA,220444.00,01,12,2017,00,00*64
2017-12-01 17:04:43 1512165883.434252: $GPGGA,220444,3946.9625,N,08404.9725,W,2,11,0.80,292.22,M,-33.324,M,,*7F
2017-12-01 17:04:43 1512165883.434320: $GPRMC,220444,A,3946.9625,N,08404.9725,W,0.0000,0.000,011217,,*3E
2017-12-01 17:04:43 1512165883.434381: $GPGSA,A,3,1,3,10,12,14,22,25,26,31,32,138,,2.0,0.8,1.5*03
2017-12-01 17:04:44 1512165884.428145: $GPZDA,220445.00,01,12,2017,00,00*65
2017-12-01 17:04:44 1512165884.428320: $GPGGA,220445,3946.9625,N,08404.9725,W,2,11,0.80,292.22,M,-33.324,M,,*7E
2017-12-01 17:04:44 1512165884.428387: $GPRMC,220445,A,3946.9625,N,08404.9725,W,0.0000,0.000,011217,,*3F
2017-12-01 17:04:44 1512165884.428448: $GPGSA,A,3,1,3,10,12,14,22,25,26,31,32,138,,2.0,0.8,1.5*03
2017-12-01 17:04:45 1512165885.770200: $GPGSV,3,1,12,01,21,285,41,03,13,316,41,10,32,154,36,12,14,037,27*72
2017-12-01 17:04:45 1512165885.770399: $GPGSV,3,2,12,14,70,009,46,22,32,309,47,25,40,069,24,26,16,180,38*71
2017-12-01 17:04:45 1512165885.770466: $GPGSV,3,3,12,31,71,247,48,32,61,063,47,18,04,147,00,138,38,213,40*49
2017-12-01 17:04:45 1512165885.883523: $GPZDA,220446.00,01,12,2017,00,00*66
2017-12-01 17:04:45 1512165885.883690: $GPGGA,220446,3946.9625,N,08404.9725,W,2,11,0.80,292.22,M,-33.324,M,,*7D
2017-12-01 17:04:45 1512165885.883808: $GPRMC,220446,A,3946.9625,N,08404.9725,W,0.0000,0.000,011217,,*3C
2017-12-01 17:04:45 1512165885.883871: $GPGSA,A,3,1,3,10,12,14,22,25,26,31,32,138,,2.0,0.8,1.5*03
2017-12-01 17:04:46 1512165886.434397: $GPZDA,220447.00,01,12,2017,00,00*67
2017-12-01 17:04:46 1512165886.434571: $GPGGA,220447,3946.9630,N,08404.9725,W,2,11,0.80,292.86,M,-33.324,M,,*76
2017-12-01 17:04:46 1512165886.434639: $GPRMC,220447,A,3946.9630,N,08404.9725,W,0.0000,0.000,011217,,*39
2017-12-01 17:04:46 1512165886.434701: $GPGSA,A,3,1,3,10,12,14,22,25,26,31,32,138,,2.0,0.8,1.5*03
2017-12-01 17:04:47 1512165887.432794: $GPZDA,220448.00,01,12,2017,00,00*68
2017-12-01 17:04:47 1512165887.432973: $GPGGA,220448,3946.9630,N,08404.9725,W,2,11,0.80,292.86,M,-33.324,M,,*79
2017-12-01 17:04:47 1512165887.433040: $GPRMC,220448,A,3946.9630,N,08404.9725,W,0.0000,0.000,011217,,*36
2017-12-01 17:04:47 1512165887.433102: $GPGSA,A,3,1,3,10,12,14,22,25,26,31,32,138,,2.0,0.8,1.5*03
2017-12-01 17:04:48 1512165888.770998: $GPGSV,3,1,12,01,21,285,41,03,13,316,41,10,32,154,36,12,14,037,26*73
2017-12-01 17:04:48 1512165888.771185: $GPGSV,3,2,12,14,70,009,46,22,32,309,46,25,40,069,24,26,16,180,38*70
2017-12-01 17:04:48 1512165888.771252: $GPGSV,3,3,12,31,71,247,48,32,61,063,47,18,04,147,00,138,38,213,40*49
2017-12-01 17:04:48 1512165888.884338: $GPZDA,220449.00,01,12,2017,00,00*69
2017-12-01 17:04:48 1512165888.884472: $GPGGA,220449,3946.9631,N,08404.9733,W,2,11,0.80,294.18,M,-33.324,M,,*7F
2017-12-01 17:04:48 1512165888.884538: $GPRMC,220449,A,3946.9631,N,08404.9733,W,0.2422,273.794,011217,,*3B
2017-12-01 17:04:48 1512165888.884598: $GPGSA,A,3,1,3,10,12,14,22,25,26,31,32,138,,2.0,0.8,1.5*03
2017-12-01 17:04:49 1512165889.509709: $GPZDA,220450.00,01,12,2017,00,00*61
2017-12-01 17:04:49 1512165889.509888: $GPGGA,220450,3946.9631,N,08404.9733,W,2,11,0.80,294.18,M,-33.324,M,,*77
2017-12-01 17:04:49 1512165889.509956: $GPRMC,220450,A,3946.9631,N,08404.9733,W,0.0000,0.000,011217,,*39
2017-12-01 17:04:49 1512165889.510018: $GPGSA,A,3,1,3,10,12,14,22,25,26,31,32,138,,2.0,0.8,1.5*03
2017-12-01 17:04:50 1512165890.434312: $GPZDA,220451.00,01,12,2017,00,00*60
2017-12-01 17:04:50 1512165890.434485: $GPGGA,220451,3946.9631,N,08404.9733,W,2,11,0.80,294.18,M,-33.324,M,,*76
2017-12-01 17:04:50 1512165890.434552: $GPRMC,220451,A,3946.9631,N,08404.9733,W,0.0000,0.000,011217,,*38
2017-12-01 17:04:50 1512165890.434613: $GPGSA,A,3,1,3,10,12,14,22,25,26,31,32,138,,2.0,0.8,1.5*03
2017-12-01 17:04:51 1512165891.768823: $GPGSV,3,1,12,01,21,285,40,03,13,316,42,10,32,154,36,12,14,037,26*71
2017-12-01 17:04:51 1512165891.769008: $GPGSV,3,2,12,14,70,009,46,22,32,309,46,25,40,069,25,26,16,180,39*70
2017-12-01 17:04:51 1512165891.769076: $GPGSV,3,3,12,31,71,247,48,32,61,063,46,18,04,147,00,138,38,213,38*47
2017-12-01 17:04:51 1512165891.882271: $GPZDA,220452.00,01,12,2017,00,00*63
2017-12-01 17:04:51 1512165891.882435: $GPGGA,220452,3946.9631,N,08404.9733,W,2,11,0.80,294.18,M,-33.324,M,,*75
2017-12-01 17:04:51 1512165891.882501: $GPRMC,220452,A,3946.9631,N,08404.9733,W,0.0000,0.000,011217,,*3B
2017-12-01 17:04:51 1512165891.882561: $GPGSA,A,3,1,3,10,12,14,22,25,26,31,32,138,,2.0,0.8,1.5*03
2017-12-01 17:04:52 1512165892.433427: $GPZDA,220453.00,01,12,2017,00,00*62
2017-12-01 17:04:52 1512165892.433608: $GPGGA,220453,3946.9631,N,08404.9733,W,2,11,0.80,294.18,M,-33.324,M,,*74
2017-12-01 17:04:52 1512165892.433677: $GPRMC,220453,A,3946.9631,N,08404.9733,W,0.0000,0.000,011217,,*3A
2017-12-01 17:04:52 1512165892.433738: $GPGSA,A,3,1,3,10,12,14,22,25,26,31,32,138,,2.0,0.8,1.5*03
2017-12-01 17:04:53 1512165893.435219: $GPZDA,220454.00,01,12,2017,00,00*65
2017-12-01 17:04:53 1512165893.435388: $GPGGA,220454,3946.9631,N,08404.9733,W,2,11,0.80,294.18,M,-33.324,M,,*73
2017-12-01 17:04:53 1512165893.435455: $GPRMC,220454,A,3946.9631,N,08404.9733,W,0.0000,0.000,011217,,*3D
2017-12-01 17:04:53 1512165893.435516: $GPGSA,A,3,1,3,10,12,14,22,25,26,31,32,138,,2.0,0.8,1.5*03
2017-12-01 17:04:54 1512165894.771755: $GPGSV,3,1,12,01,21,285,41,03,13,316,41,10,32,154,36,12,14,037,20*75
2017-12-01 17:04:54 1512165894.771993: $GPGSV,3,2,12,14,70,009,46,22,32,309,46,25,40,069,31,26,16,180,39*75
2017-12-01 17:04:54 1512165894.772061: $GPGSV,3,3,12,31,71,247,48,32,61,063,46,18,04,147,00,138,38,213,40*48
2017-12-01 17:04:54 1512165894.885012: $GPZDA,220455.00,01,12,2017,00,00*64
2017-12-01 17:04:54 1512165894.885144: $GPGGA,220455,3946.9631,N,08404.9733,W,2,11,0.80,294.18,M,-33.324,M,,*72
2017-12-01 17:04:54 1512165894.885210: $GPRMC,220455,A,3946.9631,N,08404.9733,W,0.0000,0.000,011217,,*3C
2017-12-01 17:04:54 1512165894.885271: $GPGSA,A,3,1,3,10,12,14,22,25,26,31,32,138,,2.0,0.8,1.5*03
2017-12-01 17:04:55 1512165895.784242: $GPZDA,220456.00,01,12,2017,00,00*67
2017-12-01 17:04:55 1512165895.784422: $GPGGA,220456,3946.9631,N,08404.9733,W,2,11,0.80,294.18,M,-33.324,M,,*71
2017-12-01 17:04:55 1512165895.784490: $GPRMC,220456,A,3946.9631,N,08404.9733,W,0.0000,0.000,011217,,*3F
2017-12-01 17:04:55 1512165895.784551: $GPGSA,A,3,1,3,10,12,14,22,25,26,31,32,138,,2.0,0.8,1.5*03
2017-12-01 17:04:55 1512165895.784611: $GPGBS,220456,2.67,M,3.86,M,8.82,M*35
2017-12-01 17:04:56 1512165896.433291: $GPZDA,220457.00,01,12,2017,00,00*66
2017-12-01 17:04:56 1512165896.433464: $GPGGA,220457,3946.9635,N,08404.9733,W,2,11,0.80,294.82,M,-33.324,M,,*77
2017-12-01 17:04:56 1512165896.433530: $GPRMC,220457,A,3946.9635,N,08404.9733,W,0.0000,0.000,011217,,*3A
2017-12-01 17:04:56 1512165896.433591: $GPGSA,A,3,1,3,10,12,14,22,25,26,31,32,138,,2.0,0.8,1.5*03
2017-12-01 17:04:57 1512165897.770302: $GPGSV,3,1,12,01,21,285,41,03,13,316,41,10,31,154,36,12,14,037,20*76
2017-12-01 17:04:57 1512165897.770486: $GPGSV,3,2,12,14,70,010,46,22,32,309,47,25,40,069,31,26,16,180,39*7C
2017-12-01 17:04:57 1512165897.770554: $GPGSV,3,3,12,31,72,247,48,32,61,064,46,18,03,148,00,138,38,213,40*44
2017-12-01 17:04:57 1512165897.883856: $GPZDA,220458.00,01,12,2017,00,00*69
2017-12-01 17:04:57 1512165897.884058: $GPGGA,220458,3946.9635,N,08404.9733,W,2,11,0.80,294.82,M,-33.324,M,,*78
2017-12-01 17:04:57 1512165897.884126: $GPRMC,220458,A,3946.9635,N,08404.9733,W,0.0000,0.000,011217,,*35
2017-12-01 17:04:57 1512165897.884188: $GPGSA,A,3,1,3,10,12,14,22,25,26,31,32,138,,2.0,0.8,1.5*03
2017-12-01 17:04:58 1512165898.434878: $GPZDA,220459.00,01,12,2017,00,00*68
2017-12-01 17:04:58 1512165898.435081: $GPGGA,220459,3946.9635,N,08404.9733,W,2,11,0.80,294.82,M,-33.324,M,,*79
2017-12-01 17:04:58 1512165898.435149: $GPRMC,220459,A,3946.9635,N,08404.9733,W,0.0000,0.000,011217,,*34
2017-12-01 17:04:58 1512165898.435211: $GPGSA,A,3,1,3,10,12,14,22,25,26,31,32,138,,2.0,0.8,1.5*03
