2017-12-31 18:34:11 1514763251.406104: {"class":"VERSION","release":"3.16","rev":"3.16-4","proto_major":3,"proto_minor":11}
2017-12-31 18:34:11 1514763251.406452: {"class":"DEVICES","devices":[{"class":"DEVICE","path":"/dev/ttyUSB0","driver":"SiRF","activated":"2017-12-31T23:34:11.389Z","flags":1,"native":1,"bps":4800,"parity":"N","stopbits":1,"cycle":1.00}]}
2017-12-31 18:34:11 1514763251.406551: {"class":"WATCH","enable":true,"json":false,"nmea":true,"raw":0,"scaled":false,"timing":false,"split24":false,"pps":false}
2017-12-31 18:34:12 1514763252.680420: $GPGSV,3,1,12,22,14,208,23,23,63,295,43,09,29,312,43,03,24,226,39*77
2017-12-31 18:34:12 1514763252.680612: $GPGSV,3,2,12,16,85,051,42,08,09,177,24,14,06,138,16,31,21,082,41*75
2017-12-31 18:34:12 1514763252.680714: $GPGSV,3,3,12,27,32,148,40,07,05,280,44,26,52,046,47,135,22,240,42*4A
2017-12-31 18:34:12 1514763252.793985: $GPZDA,233413.00,31,12,2017,00,00*67
2017-12-31 18:34:12 1514763252.794158: $GPGGA,233413,3946.9578,N,08404.9837,W,2,12,0.80,307.55,M,-33.324,M,,*76
2017-12-31 18:34:12 1514763252.794223: $GPRMC,233413,A,3946.9578,N,08404.9837,W,0.0000,0.000,311217,,*3A
2017-12-31 18:34:12 1514763252.794285: $GPGSA,A,3,22,23,9,3,16,8,14,31,27,7,26,135,1.7,0.8,1.3*0C
2017-12-31 18:34:13 1514763253.388542: $GPZDA,233414.00,31,12,2017,00,00*60
2017-12-31 18:34:13 1514763253.388714: $GPGGA,233414,3946.9578,N,08404.9837,W,2,12,0.80,307.55,M,-33.324,M,,*71
2017-12-31 18:34:13 1514763253.388782: $GPRMC,233414,A,3946.9578,N,08404.9837,W,0.0000,0.000,311217,,*3D
2017-12-31 18:34:13 1514763253.388843: $GPGSA,A,3,22,23,9,3,16,8,14,31,27,7,26,135,1.7,0.8,1.3*0C
2017-12-31 18:34:14 1514763254.351876: $GPZDA,233415.00,31,12,2017,00,00*61
2017-12-31 18:34:14 1514763254.352035: $GPGGA,233415,3946.9578,N,08404.9837,W,2,12,0.80,307.55,M,-33.324,M,,*70
2017-12-31 18:34:14 1514763254.352104: $GPRMC,233415,A,3946.9578,N,08404.9837,W,0.0000,0.000,311217,,*3C
2017-12-31 18:34:14 1514763254.352167: $GPGSA,A,3,22,23,9,3,16,8,14,31,27,7,26,135,1.7,0.8,1.3*0C
2017-12-31 18:34:15 1514763255.723064: $GPGSV,3,1,12,22,14,208,22,23,63,295,43,09,29,312,43,03,24,226,39*76
2017-12-31 18:34:15 1514763255.723229: $GPGSV,3,2,12,16,85,051,42,08,09,177,24,14,06,138,14,31,21,082,41*77
2017-12-31 18:34:15 1514763255.723310: $GPGSV,3,3,12,27,32,148,40,07,05,280,44,26,52,046,47,135,22,240,44*4C
2017-12-31 18:34:15 1514763255.836651: $GPZDA,233416.00,31,12,2017,00,00*62
2017-12-31 18:34:15 1514763255.836791: $GPGGA,233416,3946.9578,N,08404.9837,W,2,12,0.80,307.55,M,-33.324,M,,*73
2017-12-31 18:34:15 1514763255.836857: $GPRMC,233416,A,3946.9578,N,08404.9837,W,0.0000,0.000,311217,,*3F
2017-12-31 18:34:15 1514763255.836918: $GPGSA,A,3,22,23,9,3,16,8,14,31,27,7,26,135,1.7,0.8,1.3*0C
2017-12-31 18:34:16 1514763256.387662: $GPZDA,233417.00,31,12,2017,00,00*63
2017-12-31 18:34:16 1514763256.387841: $GPGGA,233417,3946.9578,N,08404.9837,W,2,12,0.80,307.55,M,-33.324,M,,*72
2017-12-31 18:34:16 1514763256.387907: $GPRMC,233417,A,3946.9578,N,08404.9837,W,0.0000,0.000,311217,,*3E
2017-12-31 18:34:16 1514763256.387969: $GPGSA,A,3,22,23,9,3,16,8,14,31,27,7,26,135,1.7,0.8,1.3*0C
2017-12-31 18:34:17 1514763257.352173: $GPZDA,233418.00,31,12,2017,00,00*6C
2017-12-31 18:34:17 1514763257.352345: $GPGGA,233418,3946.9578,N,08404.9837,W,2,12,0.80,307.55,M,-33.324,M,,*7D
2017-12-31 18:34:17 1514763257.352411: $GPRMC,233418,A,3946.9578,N,08404.9837,W,0.0000,0.000,311217,,*31
2017-12-31 18:34:17 1514763257.352472: $GPGSA,A,3,22,23,9,3,16,8,14,31,27,7,26,135,1.7,0.8,1.3*0C
2017-12-31 18:34:18 1514763258.723915: $GPGSV,3,1,12,22,14,208,23,23,63,295,42,09,29,312,44,03,24,226,39*71
2017-12-31 18:34:18 1514763258.724069: $GPGSV,3,2,12,16,85,051,42,08,09,177,25,14,06,138,10,31,21,082,41*72
2017-12-31 18:34:18 1514763258.724136: $GPGSV,3,3,12,27,32,148,40,07,05,280,44,26,52,046,47,135,22,240,44*4C
2017-12-31 18:34:18 1514763258.837577: $GPZDA,233419.00,31,12,2017,00,00*6D
2017-12-31 18:34:18 1514763258.837721: $GPGGA,233419,3946.9578,N,08404.9837,W,2,12,0.80,307.55,M,-33.324,M,,*7C
2017-12-31 18:34:18 1514763258.837787: $GPRMC,233419,A,3946.9578,N,08404.9837,W,0.0000,0.000,311217,,*30
2017-12-31 18:34:18 1514763258.837918: $GPGSA,A,3,22,23,9,3,16,8,14,31,27,7,26,135,1.7,0.8,1.3*0C
2017-12-31 18:34:19 1514763259.353401: $GPZDA,233420.00,31,12,2017,00,00*67
2017-12-31 18:34:19 1514763259.353574: $GPGGA,233420,3946.9578,N,08404.9837,W,2,12,0.80,307.55,M,-33.324,M,,*76
2017-12-31 18:34:19 1514763259.353650: $GPRMC,233420,A,3946.9578,N,08404.9837,W,0.0000,0.000,311217,,*3A
2017-12-31 18:34:19 1514763259.353713: $GPGSA,A,3,22,23,9,3,16,8,14,31,27,7,26,135,1.7,0.8,1.3*0C
2017-12-31 18:34:20 1514763260.345021: $GPZDA,233421.00,31,12,2017,00,00*66
2017-12-31 18:34:20 1514763260.345198: $GPGGA,233421,3946.9578,N,08404.9837,W,2,12,0.80,307.55,M,-33.324,M,,*77
2017-12-31 18:34:20 1514763260.345265: $GPRMC,233421,A,3946.9578,N,08404.9837,W,0.0000,0.000,311217,,*3B
2017-12-31 18:34:20 1514763260.345328: $GPGSA,A,3,22,23,9,3,16,8,14,31,27,7,26,135,1.7,0.8,1.3*0C
