2017-12-14 12:21:23 1513272083.911894: {"class":"VERSION","release":"3.16","rev":"3.16-4","proto_major":3,"proto_minor":11}
2017-12-14 12:21:23 1513272083.912293: {"class":"DEVICES","devices":[{"class":"DEVICE","path":"/dev/ttyUSB0","driver":"SiRF","subtype":"9\u0006GSD4e_4.1.2-P1_RPATCH.05-F-GPS-4R-1510281 11/03/2015 307","activated":"2017-12-14T17:21:23.485Z","flags":1,"native":1,"bps":4800,"parity":"N","stopbits":1,"cycle":1.00}]}
2017-12-14 12:21:23 1513272083.912412: {"class":"WATCH","enable":true,"json":false,"nmea":true,"raw":0,"scaled":false,"timing":false,"split24":false,"pps":false}
2017-12-14 12:21:24 1513272084.509886: $GPGSV,3,1,12,10,42,301,24,15,36,052,25,18,72,340,18,20,33,096,23*74
2017-12-14 12:21:24 1513272084.510035: $GPGSV,3,2,12,24,51,108,27,32,22,238,14,21,61,187,26,14,04,232,08*7C
2017-12-14 12:21:24 1513272084.510099: $GPGSV,3,3,12,27,19,288,14,13,07,049,00,08,06,321,00,138,38,213,00*47
2017-12-14 12:21:24 1513272084.623495: $GPZDA,172125.00,14,12,2017,00,00*66
2017-12-14 12:21:24 1513272084.623668: $GPGGA,172125,3946.9366,N,08404.9390,W,1,09,1.20,345.10,M,-33.324,M,,*7A
2017-12-14 12:21:24 1513272084.623732: $GPRMC,172125,A,3946.9366,N,08404.9390,W,1.6283,201.001,141217,,*38
2017-12-14 12:21:24 1513272084.623794: $GPGSA,A,3,10,15,18,20,24,32,21,14,27,,,,6.6,1.2,6.2*3F
2017-12-14 12:21:25 1513272085.174742: $GPZDA,172126.00,14,12,2017,00,00*65
2017-12-14 12:21:25 1513272085.174919: $GPGGA,172126,3946.9363,N,08404.9397,W,1,09,1.20,344.38,M,-33.324,M,,*70
2017-12-14 12:21:25 1513272085.174986: $GPRMC,172126,A,3946.9363,N,08404.9397,W,1.4555,203.636,141217,,*37
2017-12-14 12:21:25 1513272085.175048: $GPGSA,A,3,10,15,18,20,24,32,21,14,27,,,,6.6,1.2,6.2*3F
2017-12-14 12:21:26 1513272086.174111: $GPZDA,172127.00,14,12,2017,00,00*64
2017-12-14 12:21:26 1513272086.174287: $GPGGA,172127,3946.9363,N,08404.9397,W,1,09,1.20,344.38,M,-33.324,M,,*71
2017-12-14 12:21:26 1513272086.174357: $GPRMC,172127,A,3946.9363,N,08404.9397,W,0.8709,183.298,141217,,*3B
2017-12-14 12:21:26 1513272086.174420: $GPGSA,A,3,10,15,18,20,24,32,21,14,27,,,,6.6,1.2,6.2*3F
2017-12-14 12:21:27 1513272087.508867: $GPGSV,3,1,12,10,42,301,25,15,36,052,25,18,72,340,17,20,33,096,23*7A
2017-12-14 12:21:27 1513272087.509064: $GPGSV,3,2,12,24,51,108,27,32,22,238,13,21,61,187,26,14,04,232,08*7B
2017-12-14 12:21:27 1513272087.509133: $GPGSV,3,3,12,27,19,288,14,13,07,049,00,08,06,321,00,138,38,213,00*47
2017-12-14 12:21:27 1513272087.622327: $GPZDA,172128.00,14,12,2017,00,00*6B
2017-12-14 12:21:27 1513272087.622512: $GPGGA,172128,3946.9358,N,08404.9397,W,1,09,1.20,343.74,M,-33.324,M,,*79
2017-12-14 12:21:27 1513272087.622593: $GPRMC,172128,A,3946.9358,N,08404.9397,W,1.2361,194.852,141217,,*37
2017-12-14 12:21:27 1513272087.622656: $GPGSA,A,3,10,15,18,20,24,32,21,14,27,,,,6.6,1.2,6.2*3F
2017-12-14 12:21:28 1513272088.172468: $GPZDA,172129.00,14,12,2017,00,00*6A
2017-12-14 12:21:28 1513272088.172620: $GPGGA,172129,3946.9355,N,08404.9404,W,1,09,1.20,343.03,M,-33.324,M,,*78
2017-12-14 12:21:28 1513272088.172687: $GPRMC,172129,A,3946.9355,N,08404.9404,W,1.2361,194.852,141217,,*36
2017-12-14 12:21:28 1513272088.172747: $GPGSA,A,3,10,15,18,20,24,32,21,14,27,,,,6.6,1.2,6.2*3F
2017-12-14 12:21:29 1513272089.189679: $GPZDA,172130.00,14,12,2017,00,00*62
2017-12-14 12:21:29 1513272089.189861: $GPGGA,172130,3946.9350,N,08404.9404,W,1,09,1.20,342.39,M,-33.324,M,,*7D
2017-12-14 12:21:29 1513272089.189929: $GPRMC,172130,A,3946.9350,N,08404.9404,W,2.1368,196.549,141217,,*37
2017-12-14 12:21:29 1513272089.189990: $GPGSA,A,3,10,15,18,20,24,32,21,14,27,,,,6.6,1.2,6.2*3F
2017-12-14 12:21:30 1513272090.509182: $GPGSV,3,1,12,10,42,301,25,15,36,052,25,18,72,340,16,20,33,096,23*7B
2017-12-14 12:21:31 1513272091.175100: $GPGSV,3,2,12,24,51,108,27,32,22,238,13,21,61,187,26,14,04,232,07*74
2017-12-14 12:21:31 1513272091.175246: $GPGSV,3,3,12,27,19,288,15,13,07,049,00,08,06,321,00,138,38,213,00*46
2017-12-14 12:21:31 1513272091.175345: $GPZDA,172131.00,14,12,2017,00,00*63
2017-12-14 12:21:31 1513272091.175403: $GPGGA,172131,3946.9343,N,08404.9411,W,1,09,1.20,342.43,M,-33.324,M,,*77
2017-12-14 12:21:31 1513272091.175493: $GPRMC,172131,A,3946.9343,N,08404.9411,W,2.8604,198.348,141217,,*3F
2017-12-14 12:21:31 1513272091.175558: $GPGSA,A,3,10,15,18,20,24,32,21,14,27,,,,6.6,1.2,6.2*3F
2017-12-14 12:21:31 1513272091.189279: $GPZDA,172132.00,14,12,2017,00,00*60
2017-12-14 12:21:31 1513272091.189404: $GPGGA,172132,3946.9335,N,08404.9418,W,1,09,1.20,341.07,M,-33.324,M,,*7F
2017-12-14 12:21:31 1513272091.189466: $GPRMC,172132,A,3946.9335,N,08404.9418,W,2.4414,207.229,141217,,*38
2017-12-14 12:21:31 1513272091.189527: $GPGSA,A,3,10,15,18,20,24,32,21,14,27,,,,6.6,1.2,6.2*3F
2017-12-14 12:21:32 1513272092.173162: $GPZDA,172133.00,14,12,2017,00,00*61
2017-12-14 12:21:32 1513272092.173342: $GPGGA,172133,3946.9328,N,08404.9419,W,1,09,1.20,341.20,M,-33.324,M,,*76
2017-12-14 12:21:32 1513272092.173429: $GPRMC,172133,A,3946.9328,N,08404.9419,W,2.3556,201.815,141217,,*37
2017-12-14 12:21:32 1513272092.173491: $GPGSA,A,3,10,15,18,20,24,32,21,14,27,,,,6.6,1.2,6.2*3F
2017-12-14 12:21:33 1513272093.524091: $GPGSV,3,1,12,10,42,301,25,15,36,052,25,18,72,340,16,20,33,096,22*7A
2017-12-14 12:21:33 1513272093.524279: $GPGSV,3,2,12,24,51,108,27,32,22,238,13,21,61,187,26,14,04,232,07*74
2017-12-14 12:21:33 1513272093.524345: $GPGSV,3,3,12,27,19,288,14,13,07,049,00,08,06,321,00,138,38,213,00*47
2017-12-14 12:21:33 1513272093.637496: $GPZDA,172134.00,14,12,2017,00,00*66
2017-12-14 12:21:33 1513272093.637669: $GPGGA,172134,3946.9324,N,08404.9426,W,1,09,1.20,340.48,M,-33.324,M,,*7E
2017-12-14 12:21:33 1513272093.637735: $GPRMC,172134,A,3946.9324,N,08404.9426,W,1.7157,208.752,141217,,*37
2017-12-14 12:21:33 1513272093.637797: $GPGSA,A,3,10,15,18,20,24,32,21,14,27,,,,6.6,1.2,6.2*3F
2017-12-14 12:21:34 1513272094.188349: $GPZDA,172135.00,14,12,2017,00,00*67
2017-12-14 12:21:34 1513272094.188520: $GPGGA,172135,3946.9324,N,08404.9433,W,1,09,1.20,340.40,M,-33.324,M,,*73
2017-12-14 12:21:34 1513272094.188586: $GPRMC,172135,A,3946.9324,N,08404.9433,W,1.8311,215.640,141217,,*33
2017-12-14 12:21:34 1513272094.188648: $GPGSA,A,3,10,15,18,20,24,32,21,14,27,,,,6.6,1.2,6.2*3F
2017-12-14 12:21:35 1513272095.189725: $GPZDA,172136.00,14,12,2017,00,00*64
2017-12-14 12:21:35 1513272095.189908: $GPGGA,172136,3946.9320,N,08404.9433,W,1,09,1.20,339.76,M,-33.324,M,,*7F
2017-12-14 12:21:35 1513272095.189974: $GPRMC,172136,A,3946.9320,N,08404.9433,W,1.8311,215.640,141217,,*34
2017-12-14 12:21:35 1513272095.190036: $GPGSA,A,3,10,15,18,20,24,32,21,14,27,,,,6.6,1.2,6.2*3F
2017-12-14 12:21:36 1513272096.524715: $GPGSV,3,1,12,10,42,301,25,15,36,052,24,18,72,340,15,20,33,096,22*78
2017-12-14 12:21:36 1513272096.524893: $GPGSV,3,2,12,24,51,108,27,32,22,238,13,21,61,187,26,14,04,232,08*7B
2017-12-14 12:21:36 1513272096.524959: $GPGSV,3,3,12,27,19,288,12,13,07,049,00,08,06,321,00,138,38,213,00*41
2017-12-14 12:21:36 1513272096.638056: $GPZDA,172137.00,14,12,2017,00,00*65
2017-12-14 12:21:36 1513272096.638199: $GPGGA,172137,3946.9316,N,08404.9440,W,1,09,1.20,339.04,M,-33.324,M,,*7A
2017-12-14 12:21:36 1513272096.638271: $GPRMC,172137,A,3946.9316,N,08404.9440,W,1.3044,205.352,141217,,*3B
2017-12-14 12:21:36 1513272096.638331: $GPGSA,A,3,10,15,18,20,24,32,21,14,27,,,,6.6,1.2,6.2*3F
2017-12-14 12:21:37 1513272097.189454: $GPZDA,172138.00,14,12,2017,00,00*6A
2017-12-14 12:21:37 1513272097.189635: $GPGGA,172138,3946.9316,N,08404.9440,W,1,09,1.20,339.04,M,-33.324,M,,*75
2017-12-14 12:21:37 1513272097.189701: $GPRMC,172138,A,3946.9316,N,08404.9440,W,0.9019,198.875,141217,,*3E
2017-12-14 12:21:37 1513272097.189763: $GPGSA,A,3,10,15,18,20,24,32,21,14,27,,,,6.6,1.2,6.2*3F
2017-12-14 12:21:38 1513272098.189573: $GPZDA,172139.00,14,12,2017,00,00*6B
2017-12-14 12:21:38 1513272098.189770: $GPGGA,172139,3946.9320,N,08404.9439,W,1,09,1.20,338.27,M,-33.324,M,,*7F
2017-12-14 12:21:38 1513272098.189838: $GPRMC,172139,A,3946.9320,N,08404.9439,W,0.7278,203.636,141217,,*37
2017-12-14 12:21:38 1513272098.189901: $GPGSA,A,3,10,15,18,20,24,32,21,14,27,,,,6.6,1.2,6.2*3F
2017-12-14 12:21:39 1513272099.522821: $GPGSV,3,1,12,10,42,301,25,15,36,052,24,18,72,340,14,20,33,096,21*7A
2017-12-14 12:21:39 1513272099.523058: $GPGSV,3,2,12,24,51,108,28,32,22,238,06,21,61,187,26,14,04,232,06*7E
2017-12-14 12:21:39 1513272099.523127: $GPGSV,3,3,12,27,19,288,13,13,07,049,00,08,06,321,00,120,07,103,00*47
2017-12-14 12:21:39 1513272099.636574: $GPZDA,172140.00,14,12,2017,00,00*65
2017-12-14 12:21:39 1513272099.636783: $GPGGA,172140,3946.9316,N,08404.9446,W,1,08,2.00,337.56,M,-33.324,M,,*75
2017-12-14 12:21:39 1513272099.636863: $GPRMC,172140,A,3946.9316,N,08404.9446,W,0.9019,198.875,141217,,*37
2017-12-14 12:21:39 1513272099.636950: $GPGSA,A,3,10,15,18,20,24,21,14,27,,,,,6.6,2.0,6.2*3F
2017-12-14 12:21:40 1513272100.170430: $GPZDA,172141.00,14,12,2017,00,00*64
2017-12-14 12:21:40 1513272100.170596: $GPGGA,172141,3946.9316,N,08404.9446,W,1,08,2.00,337.56,M,-33.324,M,,*74
2017-12-14 12:21:40 1513272100.170661: $GPRMC,172141,A,3946.9316,N,08404.9446,W,1.2621,219.347,141217,,*31
2017-12-14 12:21:40 1513272100.170721: $GPGSA,A,3,10,15,18,20,24,21,14,27,,,,,6.6,2.0,6.2*3F
2017-12-14 12:21:41 1513272101.183081: $GPZDA,172142.00,14,12,2017,00,00*67
2017-12-14 12:21:41 1513272101.183248: $GPGGA,172142,3946.9312,N,08404.9453,W,1,08,2.60,336.84,M,-33.324,M,,*7F
2017-12-14 12:21:41 1513272101.183313: $GPRMC,172142,A,3946.9312,N,08404.9453,W,1.5738,192.547,141217,,*3A
2017-12-14 12:21:41 1513272101.183374: $GPGSA,A,3,10,15,18,20,24,21,14,27,,,,,6.6,2.6,6.2*39
2017-12-14 12:21:42 1513272102.502729: $GPGSV,3,1,12,10,42,301,25,15,36,052,24,18,72,340,04,20,33,096,21*7B
2017-12-14 12:21:42 1513272102.502874: $GPGSV,3,2,12,24,51,108,27,32,22,238,06,21,61,187,25,14,04,232,07*73
2017-12-14 12:21:42 1513272102.502940: $GPGSV,3,3,12,27,19,288,04,13,07,049,00,08,06,321,00,120,07,103,00*41
2017-12-14 12:21:42 1513272102.616363: $GPZDA,172143.00,14,12,2017,00,00*66
2017-12-14 12:21:42 1513272102.616525: $GPGGA,172143,3946.9308,N,08404.9453,W,1,07,2.60,336.20,M,-33.324,M,,*74
2017-12-14 12:21:42 1513272102.616590: $GPRMC,172143,A,3946.9308,N,08404.9453,W,1.7302,192.244,141217,,*3B
2017-12-14 12:21:42 1513272102.616650: $GPGSA,A,3,10,15,20,24,32,21,14,,,,,,6.6,2.6,6.2*34
2017-12-14 12:21:43 1513272103.185245: $GPZDA,172144.00,14,12,2017,00,00*61
2017-12-14 12:21:43 1513272103.185409: $GPGGA,172144,3946.9308,N,08404.9453,W,1,07,2.60,336.20,M,-33.324,M,,*73
2017-12-14 12:21:43 1513272103.185475: $GPRMC,172144,A,3946.9308,N,08404.9453,W,1.5738,192.547,141217,,*37
2017-12-14 12:21:43 1513272103.185535: $GPGSA,A,3,10,15,20,24,32,21,14,,,,,,6.6,2.6,6.2*34
