2017-12-01 17:39:19 1512167959.295559: {"class":"VERSION","release":"3.16","rev":"3.16-4","proto_major":3,"proto_minor":11}
2017-12-01 17:39:19 1512167959.296008: {"class":"DEVICES","devices":[{"class":"DEVICE","path":"/dev/ttyUSB0","driver":"SiRF","subtype":"9\u0006GSD4e_4.1.2-P1_RPATCH.05-F-GPS-4R-1510281 11/03/2015 307","activated":"2017-12-01T22:39:19.261Z","flags":1,"native":1,"bps":4800,"parity":"N","stopbits":1,"cycle":1.00}]}
2017-12-01 17:39:19 1512167959.296145: {"class":"WATCH","enable":true,"json":false,"nmea":true,"raw":0,"scaled":false,"timing":false,"split24":false,"pps":false}
2017-12-01 17:39:19 1512167959.439082: $GPZDA,223920.00,01,12,2017,00,00*68
2017-12-01 17:39:19 1512167959.439269: $GPGGA,223920,3946.9725,N,08404.9838,W,2,12,0.80,294.99,M,-33.325,M,,*75
2017-12-01 17:39:19 1512167959.439338: $GPRMC,223920,A,3946.9725,N,08404.9838,W,0.0000,0.000,011217,,*30
2017-12-01 17:39:19 1512167959.439402: $GPGSA,A,3,1,3,10,14,22,25,26,31,32,12,16,138,2.0,0.8,1.5*04
2017-12-01 17:39:20 1512167960.773057: $GPGSV,3,1,12,01,16,270,44,03,25,313,45,10,16,157,43,14,67,054,42*7E
2017-12-01 17:39:20 1512167960.773254: $GPGSV,3,2,12,22,43,298,48,25,33,052,41,26,32,177,42,31,80,316,46*78
2017-12-01 17:39:20 1512167960.777704: $GPGSV,3,3,12,32,51,087,44,12,03,030,28,16,04,190,22,138,38,213,45*42
2017-12-01 17:39:20 1512167960.886414: $GPZDA,223921.00,01,12,2017,00,00*69
2017-12-01 17:39:20 1512167960.886553: $GPGGA,223921,3946.9725,N,08404.9838,W,2,12,0.80,294.99,M,-33.325,M,,*74
2017-12-01 17:39:20 1512167960.886626: $GPRMC,223921,A,3946.9725,N,08404.9838,W,0.0000,0.000,011217,,*31
2017-12-01 17:39:20 1512167960.886687: $GPGSA,A,3,1,3,10,14,22,25,26,31,32,12,16,138,2.0,0.8,1.5*04
2017-12-01 17:39:21 1512167961.437321: $GPZDA,223922.00,01,12,2017,00,00*6A
2017-12-01 17:39:21 1512167961.437502: $GPGGA,223922,3946.9725,N,08404.9838,W,2,12,0.80,294.99,M,-33.325,M,,*77
2017-12-01 17:39:21 1512167961.437570: $GPRMC,223922,A,3946.9725,N,08404.9838,W,0.0000,0.000,011217,,*32
2017-12-01 17:39:21 1512167961.437637: $GPGSA,A,3,1,3,10,14,22,25,26,31,32,12,16,138,2.0,0.8,1.5*04
2017-12-01 17:39:22 1512167962.438240: $GPZDA,223923.00,01,12,2017,00,00*6B
2017-12-01 17:39:22 1512167962.438410: $GPGGA,223923,3946.9725,N,08404.9838,W,2,12,0.80,294.99,M,-33.325,M,,*76
2017-12-01 17:39:22 1512167962.438478: $GPRMC,223923,A,3946.9725,N,08404.9838,W,0.0000,0.000,011217,,*33
2017-12-01 17:39:22 1512167962.438538: $GPGSA,A,3,1,3,10,14,22,25,26,31,32,12,16,138,2.0,0.8,1.5*04
2017-12-01 17:39:23 1512167963.796573: $GPGSV,3,1,12,01,16,270,44,03,25,313,45,10,16,157,43,14,67,054,42*7E
2017-12-01 17:39:23 1512167963.796770: $GPGSV,3,2,12,22,43,298,47,25,33,052,40,26,32,177,42,31,80,316,46*76
2017-12-01 17:39:23 1512167963.796839: $GPGSV,3,3,12,32,51,087,44,12,03,030,27,16,04,190,22,138,38,213,45*4D
2017-12-01 17:39:23 1512167963.909834: $GPZDA,223924.00,01,12,2017,00,00*6C
2017-12-01 17:39:23 1512167963.910002: $GPGGA,223924,3946.9725,N,08404.9838,W,2,12,0.80,294.99,M,-33.325,M,,*71
2017-12-01 17:39:23 1512167963.910067: $GPRMC,223924,A,3946.9725,N,08404.9838,W,0.0000,0.000,011217,,*34
2017-12-01 17:39:23 1512167963.910128: $GPGSA,A,3,1,3,10,14,22,25,26,31,32,12,16,138,2.0,0.8,1.5*04
2017-12-01 17:39:24 1512167964.438460: $GPZDA,223925.00,01,12,2017,00,00*6D
2017-12-01 17:39:24 1512167964.438630: $GPGGA,223925,3946.9725,N,08404.9838,W,2,12,0.80,294.99,M,-33.325,M,,*70
2017-12-01 17:39:24 1512167964.438697: $GPRMC,223925,A,3946.9725,N,08404.9838,W,0.0000,0.000,011217,,*35
2017-12-01 17:39:24 1512167964.438757: $GPGSA,A,3,1,3,10,14,22,25,26,31,32,12,16,138,2.0,0.8,1.5*04
2017-12-01 17:39:25 1512167965.457755: $GPZDA,223926.00,01,12,2017,00,00*6E
2017-12-01 17:39:25 1512167965.457925: $GPGGA,223926,3946.9725,N,08404.9838,W,2,12,0.80,294.99,M,-33.325,M,,*73
2017-12-01 17:39:25 1512167965.457991: $GPRMC,223926,A,3946.9725,N,08404.9838,W,0.0000,0.000,011217,,*36
2017-12-01 17:39:25 1512167965.458051: $GPGSA,A,3,1,3,10,14,22,25,26,31,32,12,16,138,2.0,0.8,1.5*04
2017-12-01 17:39:26 1512167966.794325: $GPGSV,3,1,12,01,16,270,44,03,25,313,45,10,16,157,43,14,67,054,41*7D
2017-12-01 17:39:26 1512167966.794559: $GPGSV,3,2,12,22,43,298,48,25,33,052,40,26,32,177,43,31,80,316,45*7B
2017-12-01 17:39:26 1512167966.794629: $GPGSV,3,3,12,32,51,087,45,12,03,030,27,16,04,190,22,138,38,213,45*4C
2017-12-01 17:39:26 1512167966.907630: $GPZDA,223927.00,01,12,2017,00,00*6F
2017-12-01 17:39:26 1512167966.907782: $GPGGA,223927,3946.9725,N,08404.9838,W,2,12,0.80,294.99,M,-33.325,M,,*72
2017-12-01 17:39:26 1512167966.907850: $GPRMC,223927,A,3946.9725,N,08404.9838,W,0.0000,0.000,011217,,*37
2017-12-01 17:39:26 1512167966.907912: $GPGSA,A,3,1,3,10,14,22,25,26,31,32,12,16,138,2.0,0.8,1.5*04
2017-12-01 17:39:27 1512167967.464846: $GPZDA,223928.00,01,12,2017,00,00*60
2017-12-01 17:39:27 1512167967.465020: $GPGGA,223928,3946.9725,N,08404.9838,W,2,12,0.80,294.99,M,-33.325,M,,*7D
2017-12-01 17:39:27 1512167967.465086: $GPRMC,223928,A,3946.9725,N,08404.9838,W,0.0000,0.000,011217,,*38
2017-12-01 17:39:27 1512167967.465147: $GPGSA,A,3,1,3,10,14,22,25,26,31,32,12,16,138,2.0,0.8,1.5*04
2017-12-01 17:39:28 1512167968.463164: $GPZDA,223929.00,01,12,2017,00,00*61
2017-12-01 17:39:28 1512167968.463331: $GPGGA,223929,3946.9725,N,08404.9838,W,2,12,0.80,294.99,M,-33.325,M,,*7C
2017-12-01 17:39:28 1512167968.463398: $GPRMC,223929,A,3946.9725,N,08404.9838,W,0.0000,0.000,011217,,*39
2017-12-01 17:39:28 1512167968.463459: $GPGSA,A,3,1,3,10,14,22,25,26,31,32,12,16,138,2.0,0.8,1.5*04
2017-12-01 17:39:29 1512167969.776336: $GPGSV,3,1,12,01,16,270,44,03,25,313,45,10,16,157,43,14,67,054,41*7D
2017-12-01 17:39:29 1512167969.776526: $GPGSV,3,2,12,22,43,298,48,25,33,052,40,26,32,177,43,31,80,316,46*78
2017-12-01 17:39:29 1512167969.776594: $GPGSV,3,3,12,32,51,087,45,12,03,030,26,16,04,190,22,138,38,213,45*4D
2017-12-01 17:39:29 1512167969.889729: $GPZDA,223930.00,01,12,2017,00,00*69
2017-12-01 17:39:29 1512167969.889904: $GPGGA,223930,3946.9725,N,08404.9838,W,2,12,0.80,294.99,M,-33.325,M,,*74
2017-12-01 17:39:29 1512167969.889971: $GPRMC,223930,A,3946.9725,N,08404.9838,W,0.0000,0.000,011217,,*31
2017-12-01 17:39:29 1512167969.890032: $GPGSA,A,3,1,3,10,14,22,25,26,31,32,12,16,138,2.0,0.8,1.5*04
2017-12-01 17:39:30 1512167970.516508: $GPZDA,223931.00,01,12,2017,00,00*68
2017-12-01 17:39:30 1512167970.516696: $GPGGA,223931,3946.9725,N,08404.9838,W,2,12,0.80,294.99,M,-33.325,M,,*75
2017-12-01 17:39:30 1512167970.516765: $GPRMC,223931,A,3946.9725,N,08404.9838,W,0.0000,0.000,011217,,*30
2017-12-01 17:39:30 1512167970.516826: $GPGSA,A,3,1,3,10,14,22,25,26,31,32,12,16,138,2.0,0.8,1.5*04
2017-12-01 17:39:31 1512167971.436103: $GPZDA,223932.00,01,12,2017,00,00*6B
2017-12-01 17:39:31 1512167971.436274: $GPGGA,223932,3946.9725,N,08404.9838,W,2,12,0.80,294.99,M,-33.325,M,,*76
2017-12-01 17:39:31 1512167971.436340: $GPRMC,223932,A,3946.9725,N,08404.9838,W,0.0000,0.000,011217,,*33
2017-12-01 17:39:31 1512167971.436401: $GPGSA,A,3,1,3,10,14,22,25,26,31,32,12,16,138,2.0,0.8,1.5*04
2017-12-01 17:39:32 1512167972.794177: $GPGSV,3,1,12,01,16,270,44,03,25,313,45,10,16,157,43,14,67,054,41*7D
2017-12-01 17:39:32 1512167972.794359: $GPGSV,3,2,12,22,43,298,48,25,33,052,40,26,32,177,43,31,80,316,46*78
2017-12-01 17:39:32 1512167972.794448: $GPGSV,3,3,12,32,51,087,46,12,03,030,26,16,04,190,22,138,38,213,46*4D
2017-12-01 17:39:32 1512167972.907616: $GPZDA,223933.00,01,12,2017,00,00*6A
2017-12-01 17:39:32 1512167972.907776: $GPGGA,223933,3946.9725,N,08404.9838,W,2,12,0.80,294.99,M,-33.325,M,,*77
2017-12-01 17:39:32 1512167972.907842: $GPRMC,223933,A,3946.9725,N,08404.9838,W,0.0000,0.000,011217,,*32
2017-12-01 17:39:32 1512167972.907903: $GPGSA,A,3,1,3,10,14,22,25,26,31,32,12,16,138,2.0,0.8,1.5*04
2017-12-01 17:39:33 1512167973.440915: $GPZDA,223934.00,01,12,2017,00,00*6D
2017-12-01 17:39:33 1512167973.441086: $GPGGA,223934,3946.9725,N,08404.9838,W,2,12,0.80,294.99,M,-33.325,M,,*70
2017-12-01 17:39:33 1512167973.441153: $GPRMC,223934,A,3946.9725,N,08404.9838,W,0.0000,0.000,011217,,*35
2017-12-01 17:39:33 1512167973.441213: $GPGSA,A,3,1,3,10,14,22,25,26,31,32,12,16,138,2.0,0.8,1.5*04
2017-12-01 17:39:34 1512167974.464324: $GPZDA,223935.00,01,12,2017,00,00*6C
2017-12-01 17:39:34 1512167974.464523: $GPGGA,223935,3946.9725,N,08404.9838,W,2,12,0.80,294.99,M,-33.325,M,,*71
2017-12-01 17:39:34 1512167974.464608: $GPRMC,223935,A,3946.9725,N,08404.9838,W,0.0000,0.000,011217,,*34
2017-12-01 17:39:34 1512167974.464670: $GPGSA,A,3,1,3,10,14,22,25,26,31,32,12,16,138,2.0,0.8,1.5*04
2017-12-01 17:39:35 1512167975.800745: $GPGSV,3,1,12,01,16,270,44,03,25,313,45,10,16,157,43,14,67,054,42*7E
2017-12-01 17:39:35 1512167975.800928: $GPGSV,3,2,12,22,43,298,48,25,33,052,40,26,32,177,43,31,80,316,46*78
2017-12-01 17:39:35 1512167975.800995: $GPGSV,3,3,12,32,51,087,46,12,03,030,26,16,04,190,21,138,38,213,46*4E
2017-12-01 17:39:35 1512167975.914185: $GPZDA,223936.00,01,12,2017,00,00*6F
2017-12-01 17:39:35 1512167975.914360: $GPGGA,223936,3946.9725,N,08404.9838,W,2,12,0.80,294.99,M,-33.325,M,,*72
2017-12-01 17:39:35 1512167975.914447: $GPRMC,223936,A,3946.9725,N,08404.9838,W,0.0000,0.000,011217,,*37
2017-12-01 17:39:35 1512167975.914510: $GPGSA,A,3,1,3,10,14,22,25,26,31,32,12,16,138,2.0,0.8,1.5*04
2017-12-01 17:39:36 1512167976.464994: $GPZDA,223937.00,01,12,2017,00,00*6E
2017-12-01 17:39:36 1512167976.465164: $GPGGA,223937,3946.9725,N,08404.9838,W,2,12,0.80,294.99,M,-33.325,M,,*73
2017-12-01 17:39:36 1512167976.465231: $GPRMC,223937,A,3946.9725,N,08404.9838,W,0.0000,0.000,011217,,*36
2017-12-01 17:39:36 1512167976.465293: $GPGSA,A,3,1,3,10,14,22,25,26,31,32,12,16,138,2.0,0.8,1.5*04
2017-12-01 17:39:37 1512167977.464636: $GPZDA,223938.00,01,12,2017,00,00*61
2017-12-01 17:39:37 1512167977.464811: $GPGGA,223938,3946.9725,N,08404.9838,W,2,12,0.80,294.99,M,-33.325,M,,*7C
2017-12-01 17:39:37 1512167977.464876: $GPRMC,223938,A,3946.9725,N,08404.9838,W,0.0000,0.000,011217,,*39
2017-12-01 17:39:37 1512167977.464937: $GPGSA,A,3,1,3,10,14,22,25,26,31,32,12,16,138,2.0,0.8,1.5*04
2017-12-01 17:39:38 1512167978.801774: $GPGSV,3,1,12,01,16,270,44,03,25,313,45,10,16,157,42,14,67,054,41*7C
2017-12-01 17:39:38 1512167978.801951: $GPGSV,3,2,12,22,43,298,48,25,33,052,40,26,32,177,43,31,80,316,46*78
2017-12-01 17:39:38 1512167978.802019: $GPGSV,3,3,12,32,51,087,46,12,03,030,27,16,04,190,21,138,38,213,46*4F
2017-12-01 17:39:38 1512167978.915554: $GPZDA,223939.00,01,12,2017,00,00*60
2017-12-01 17:39:38 1512167978.915723: $GPGGA,223939,3946.9725,N,08404.9838,W,2,12,0.80,294.99,M,-33.325,M,,*7D
2017-12-01 17:39:38 1512167978.915790: $GPRMC,223939,A,3946.9725,N,08404.9838,W,0.0000,0.000,011217,,*38
2017-12-01 17:39:38 1512167978.915851: $GPGSA,A,3,1,3,10,14,22,25,26,31,32,12,16,138,2.0,0.8,1.5*04
