2017-12-01 16:01:37 1512162097.126691: {"class":"VERSION","release":"3.16","rev":"3.16-4","proto_major":3,"proto_minor":11}
2017-12-01 16:01:37 1512162097.127120: {"class":"DEVICES","devices":[{"class":"DEVICE","path":"/dev/ttyUSB0","driver":"SiRF","subtype":"9\u0006GSD4e_4.1.2-P1_RPATCH.05-F-GPS-4R-1510281 11/03/2015 307","activated":"2017-12-01T21:01:36.561Z","flags":1,"native":1,"bps":4800,"parity":"N","stopbits":1,"cycle":1.00}]}
2017-12-01 16:01:37 1512162097.127245: {"class":"WATCH","enable":true,"json":false,"nmea":true,"raw":0,"scaled":false,"timing":false,"split24":false,"pps":false}
2017-12-01 16:01:37 1512162097.438189: $GPZDA,210138.00,01,12,2017,00,00*69
2017-12-01 16:01:37 1512162097.438368: $GPGGA,210138,3946.9579,N,08404.9832,W,2,12,0.80,311.84,M,-33.324,M,,*74
2017-12-01 16:01:37 1512162097.438438: $GPRMC,210138,A,3946.9579,N,08404.9832,W,0.0000,0.000,011217,,*30
2017-12-01 16:01:37 1512162097.438500: $GPGSA,A,3,1,10,12,14,18,22,25,31,32,11,24,138,2.0,0.8,1.5*3B
2017-12-01 16:01:38 1512162098.772253: $GPGSV,3,1,12,01,17,313,42,10,62,139,48,12,25,063,40,14,59,303,44*76
2017-12-01 16:01:38 1512162098.772438: $GPGSV,3,2,12,18,30,139,43,22,08,312,35,25,34,106,48,31,42,216,49*74
2017-12-01 16:01:38 1512162098.772505: $GPGSV,3,3,12,32,70,349,47,11,11,294,08,24,08,046,27,138,38,213,46*4C
2017-12-01 16:01:38 1512162098.886004: $GPZDA,210139.00,01,12,2017,00,00*68
2017-12-01 16:01:38 1512162098.886219: $GPGGA,210139,3946.9579,N,08404.9832,W,2,12,0.80,311.84,M,-33.324,M,,*75
2017-12-01 16:01:38 1512162098.886293: $GPRMC,210139,A,3946.9579,N,08404.9832,W,0.0000,0.000,011217,,*31
2017-12-01 16:01:38 1512162098.886358: $GPGSA,A,3,1,10,12,14,18,22,25,31,32,11,24,138,2.0,0.8,1.5*3B
2017-12-01 16:01:39 1512162099.510985: $GPZDA,210140.00,01,12,2017,00,00*66
2017-12-01 16:01:39 1512162099.511152: $GPGGA,210140,3946.9579,N,08404.9832,W,2,12,0.80,311.84,M,-33.324,M,,*7B
2017-12-01 16:01:39 1512162099.511221: $GPRMC,210140,A,3946.9579,N,08404.9832,W,0.0000,0.000,011217,,*3F
2017-12-01 16:01:39 1512162099.511286: $GPGSA,A,3,1,10,12,14,18,22,25,31,32,11,24,138,2.0,0.8,1.5*3B
2017-12-01 16:01:40 1512162100.435596: $GPZDA,210141.00,01,12,2017,00,00*67
2017-12-01 16:01:40 1512162100.435770: $GPGGA,210141,3946.9579,N,08404.9832,W,2,12,0.80,311.84,M,-33.324,M,,*7A
2017-12-01 16:01:40 1512162100.435838: $GPRMC,210141,A,3946.9579,N,08404.9832,W,0.0000,0.000,011217,,*3E
2017-12-01 16:01:40 1512162100.435922: $GPGSA,A,3,1,10,12,14,18,22,25,31,32,11,24,138,2.0,0.8,1.5*3B
2017-12-01 16:01:41 1512162101.773853: $GPGSV,3,1,12,01,17,313,42,10,62,139,48,12,25,063,40,14,59,303,44*76
2017-12-01 16:01:41 1512162101.774037: $GPGSV,3,2,12,18,30,139,43,22,08,312,30,25,34,106,48,31,42,216,48*70
2017-12-01 16:01:41 1512162101.774104: $GPGSV,3,3,12,32,70,349,47,11,11,294,28,24,08,046,27,138,38,213,45*4D
2017-12-01 16:01:41 1512162101.887239: $GPZDA,210142.00,01,12,2017,00,00*64
2017-12-01 16:01:41 1512162101.887423: $GPGGA,210142,3946.9579,N,08404.9832,W,2,12,0.80,311.84,M,-33.324,M,,*79
2017-12-01 16:01:41 1512162101.887491: $GPRMC,210142,A,3946.9579,N,08404.9832,W,0.0000,0.000,011217,,*3D
2017-12-01 16:01:41 1512162101.887555: $GPGSA,A,3,1,10,12,14,18,22,25,31,32,11,24,138,2.0,0.8,1.5*3B
2017-12-01 16:01:42 1512162102.424968: $GPZDA,210143.00,01,12,2017,00,00*65
2017-12-01 16:01:42 1512162102.425161: $GPGGA,210143,3946.9579,N,08404.9832,W,2,12,0.80,311.84,M,-33.324,M,,*78
2017-12-01 16:01:42 1512162102.425236: $GPRMC,210143,A,3946.9579,N,08404.9832,W,0.0000,0.000,011217,,*3C
2017-12-01 16:01:42 1512162102.425304: $GPGSA,A,3,1,10,12,14,18,22,25,31,32,11,24,138,2.0,0.8,1.5*3B
2017-12-01 16:01:43 1512162103.417782: $GPZDA,210144.00,01,12,2017,00,00*62
2017-12-01 16:01:43 1512162103.417962: $GPGGA,210144,3946.9579,N,08404.9832,W,2,12,0.80,311.84,M,-33.324,M,,*7F
2017-12-01 16:01:43 1512162103.418032: $GPRMC,210144,A,3946.9579,N,08404.9832,W,0.0000,0.000,011217,,*3B
2017-12-01 16:01:43 1512162103.418094: $GPGSA,A,3,1,10,12,14,18,22,25,31,32,11,24,138,2.0,0.8,1.5*3B
2017-12-01 16:01:44 1512162104.754249: $GPGSV,3,1,12,01,17,313,41,10,62,139,48,12,25,063,40,14,59,303,44*75
2017-12-01 16:01:44 1512162104.754485: $GPGSV,3,2,12,18,30,139,43,22,08,312,33,25,34,106,47,31,42,216,49*7D
2017-12-01 16:01:44 1512162104.754556: $GPGSV,3,3,12,32,70,349,47,11,11,294,23,24,08,046,27,138,38,213,46*45
2017-12-01 16:01:44 1512162104.867586: $GPZDA,210145.00,01,12,2017,00,00*63
2017-12-01 16:01:44 1512162104.867756: $GPGGA,210145,3946.9579,N,08404.9832,W,2,12,0.80,311.84,M,-33.324,M,,*7E
2017-12-01 16:01:44 1512162104.867823: $GPRMC,210145,A,3946.9579,N,08404.9832,W,0.0000,0.000,011217,,*3A
2017-12-01 16:01:44 1512162104.867886: $GPGSA,A,3,1,10,12,14,18,22,25,31,32,11,24,138,2.0,0.8,1.5*3B
2017-12-01 16:01:45 1512162105.419817: $GPZDA,210146.00,01,12,2017,00,00*60
2017-12-01 16:01:45 1512162105.419992: $GPGGA,210146,3946.9579,N,08404.9832,W,2,12,0.80,311.84,M,-33.324,M,,*7D
2017-12-01 16:01:45 1512162105.420058: $GPRMC,210146,A,3946.9579,N,08404.9832,W,0.0000,0.000,011217,,*39
2017-12-01 16:01:45 1512162105.420121: $GPGSA,A,3,1,10,12,14,18,22,25,31,32,11,24,138,2.0,0.8,1.5*3B
2017-12-01 16:01:46 1512162106.421169: $GPZDA,210147.00,01,12,2017,00,00*61
2017-12-01 16:01:46 1512162106.424627: $GPGGA,210147,3946.9579,N,08404.9832,W,2,12,0.80,311.84,M,-33.324,M,,*7C
2017-12-01 16:01:46 1512162106.424756: $GPRMC,210147,A,3946.9579,N,08404.9832,W,0.0000,0.000,011217,,*38
2017-12-01 16:01:46 1512162106.424820: $GPGSA,A,3,1,10,12,14,18,22,25,31,32,11,24,138,2.0,0.8,1.5*3B
2017-12-01 16:01:47 1512162107.755156: $GPGSV,3,1,12,01,17,313,40,10,62,139,48,12,25,063,41,14,59,303,44*75
2017-12-01 16:01:47 1512162107.755346: $GPGSV,3,2,12,18,30,139,43,22,08,312,32,25,34,106,48,31,42,216,48*72
2017-12-01 16:01:47 1512162107.755415: $GPGSV,3,3,12,32,70,349,47,11,11,294,32,24,08,046,27,138,38,213,45*46
2017-12-01 16:01:47 1512162107.868526: $GPZDA,210148.00,01,12,2017,00,00*6E
2017-12-01 16:01:47 1512162107.868704: $GPGGA,210148,3946.9579,N,08404.9832,W,2,12,0.80,311.84,M,-33.324,M,,*73
2017-12-01 16:01:47 1512162107.868772: $GPRMC,210148,A,3946.9579,N,08404.9832,W,0.0000,0.000,011217,,*37
2017-12-01 16:01:47 1512162107.868833: $GPGSA,A,3,1,10,12,14,18,22,25,31,32,11,24,138,2.0,0.8,1.5*3B
2017-12-01 16:01:48 1512162108.418303: $GPZDA,210149.00,01,12,2017,00,00*6F
2017-12-01 16:01:48 1512162108.418615: $GPGGA,210149,3946.9579,N,08404.9832,W,2,12,0.80,311.84,M,-33.324,M,,*72
2017-12-01 16:01:48 1512162108.418747: $GPRMC,210149,A,3946.9579,N,08404.9832,W,0.0000,0.000,011217,,*36
2017-12-01 16:01:48 1512162108.418869: $GPGSA,A,3,1,10,12,14,18,22,25,31,32,11,24,138,2.0,0.8,1.5*3B
2017-12-01 16:01:49 1512162109.420963: $GPZDA,210150.00,01,12,2017,00,00*67
2017-12-01 16:01:49 1512162109.421150: $GPGGA,210150,3946.9579,N,08404.9832,W,2,12,0.80,311.84,M,-33.324,M,,*7A
2017-12-01 16:01:49 1512162109.421222: $GPRMC,210150,A,3946.9579,N,08404.9832,W,0.0000,0.000,011217,,*3E
2017-12-01 16:01:49 1512162109.421303: $GPGSA,A,3,1,10,12,14,18,22,25,31,32,11,24,138,2.0,0.8,1.5*3B
2017-12-01 16:01:50 1512162110.755566: $GPGSV,3,1,12,01,17,313,39,10,62,139,48,12,25,063,41,14,59,303,44*7B
2017-12-01 16:01:50 1512162110.755731: $GPGSV,3,2,12,18,30,139,43,22,08,312,27,25,34,106,48,31,42,216,49*77
2017-12-01 16:01:50 1512162110.755802: $GPGSV,3,3,12,32,70,349,47,11,11,294,35,24,08,046,27,138,38,213,46*42
2017-12-01 16:01:50 1512162110.868853: $GPZDA,210151.00,01,12,2017,00,00*66
2017-12-01 16:01:50 1512162110.869031: $GPGGA,210151,3946.9579,N,08404.9832,W,2,12,0.80,311.84,M,-33.324,M,,*7B
2017-12-01 16:01:50 1512162110.869124: $GPRMC,210151,A,3946.9579,N,08404.9832,W,0.0000,0.000,011217,,*3F
2017-12-01 16:01:50 1512162110.869190: $GPGSA,A,3,1,10,12,14,18,22,25,31,32,11,24,138,2.0,0.8,1.5*3B
2017-12-01 16:01:51 1512162111.418487: $GPZDA,210152.00,01,12,2017,00,00*65
2017-12-01 16:01:51 1512162111.418661: $GPGGA,210152,3946.9579,N,08404.9832,W,2,12,0.80,311.84,M,-33.324,M,,*78
2017-12-01 16:01:51 1512162111.418732: $GPRMC,210152,A,3946.9579,N,08404.9832,W,0.0000,0.000,011217,,*3C
2017-12-01 16:01:51 1512162111.418797: $GPGSA,A,3,1,10,12,14,18,22,25,31,32,11,24,138,2.0,0.8,1.5*3B
2017-12-01 16:01:52 1512162112.419380: $GPZDA,210153.00,01,12,2017,00,00*64
2017-12-01 16:01:52 1512162112.419556: $GPGGA,210153,3946.9579,N,08404.9832,W,2,12,0.80,311.84,M,-33.324,M,,*79
2017-12-01 16:01:52 1512162112.419623: $GPRMC,210153,A,3946.9579,N,08404.9832,W,0.0000,0.000,011217,,*3D
2017-12-01 16:01:52 1512162112.419684: $GPGSA,A,3,1,10,12,14,18,22,25,31,32,11,24,138,2.0,0.8,1.5*3B
2017-12-01 16:01:53 1512162113.755044: $GPGSV,3,1,12,01,17,313,38,10,62,139,48,12,25,063,41,14,59,303,44*7A
2017-12-01 16:01:53 1512162113.755271: $GPGSV,3,2,12,18,30,139,43,22,08,312,35,25,34,106,48,31,42,216,49*74
2017-12-01 16:01:53 1512162113.755339: $GPGSV,3,3,12,32,70,349,47,11,11,294,36,24,08,046,27,138,38,213,46*41
2017-12-01 16:01:53 1512162113.868460: $GPZDA,210154.00,01,12,2017,00,00*63
2017-12-01 16:01:53 1512162113.868597: $GPGGA,210154,3946.9579,N,08404.9832,W,2,12,0.80,311.84,M,-33.324,M,,*7E
2017-12-01 16:01:53 1512162113.868663: $GPRMC,210154,A,3946.9579,N,08404.9832,W,0.0000,0.000,011217,,*3A
2017-12-01 16:01:53 1512162113.868724: $GPGSA,A,3,1,10,12,14,18,22,25,31,32,11,24,138,2.0,0.8,1.5*3B
2017-12-01 16:01:54 1512162114.493857: $GPZDA,210155.00,01,12,2017,00,00*62
2017-12-01 16:01:54 1512162114.494031: $GPGGA,210155,3946.9579,N,08404.9832,W,2,12,0.80,311.84,M,-33.324,M,,*7F
2017-12-01 16:01:54 1512162114.494119: $GPRMC,210155,A,3946.9579,N,08404.9832,W,0.0000,0.000,011217,,*3B
2017-12-01 16:01:54 1512162114.494182: $GPGSA,A,3,1,10,12,14,18,22,25,31,32,11,24,138,2.0,0.8,1.5*3B
2017-12-01 16:01:55 1512162115.419774: $GPZDA,210156.00,01,12,2017,00,00*61
2017-12-01 16:01:55 1512162115.419952: $GPGGA,210156,3946.9579,N,08404.9832,W,2,12,0.80,311.84,M,-33.324,M,,*7C
2017-12-01 16:01:55 1512162115.420019: $GPRMC,210156,A,3946.9579,N,08404.9832,W,0.0000,0.000,011217,,*38
2017-12-01 16:01:55 1512162115.420100: $GPGSA,A,3,1,10,12,14,18,22,25,31,32,11,24,138,2.0,0.8,1.5*3B
2017-12-01 16:01:56 1512162116.752933: $GPGSV,3,1,12,01,17,313,31,10,62,139,48,12,25,063,41,14,59,303,45*72
2017-12-01 16:01:56 1512162116.755939: $GPGSV,3,2,12,18,30,139,43,22,08,312,28,25,34,106,49,31,42,216,48*78
2017-12-01 16:01:56 1512162116.756042: $GPGSV,3,3,12,32,70,349,47,11,11,294,36,24,08,046,28,138,38,213,45*4D
2017-12-01 16:01:56 1512162116.866356: $GPZDA,210157.00,01,12,2017,00,00*60
2017-12-01 16:01:56 1512162116.866533: $GPGGA,210157,3946.9579,N,08404.9832,W,2,12,0.80,311.84,M,-33.324,M,,*7D
2017-12-01 16:01:56 1512162116.866600: $GPRMC,210157,A,3946.9579,N,08404.9832,W,0.0000,0.000,011217,,*39
2017-12-01 16:01:56 1512162116.866661: $GPGSA,A,3,1,10,12,14,18,22,25,31,32,11,24,138,2.0,0.8,1.5*3B
