2017-11-16 17:04:35 1510869875.430288: {"class":"VERSION","release":"3.17","rev":"3.17","proto_major":3,"proto_minor":12}
2017-11-16 17:04:35 1510869875.430777: {"class":"DEVICES","devices":[{"class":"DEVICE","path":"/dev/ttyUSB0","driver":"SiRF","subtype":"9\u0006GSD4e_4.1.2-P1_RPATCH.05-F-GPS-4R-1510281 11/03/2015 307","activated":"2017-11-16T22:04:35.396Z","flags":1,"native":1,"bps":4800,"parity":"N","stopbits":1,"cycle":1.00}]}
2017-11-16 17:04:35 1510869875.430898: {"class":"WATCH","enable":true,"json":false,"nmea":true,"raw":0,"scaled":false,"timing":false,"split24":false,"pps":false}
2017-11-16 17:04:36 1510869876.733524: $GPGSV,3,1,12,01,18,312,36,10,61,141,48,11,11,294,33,12,25,063,50*70
2017-11-16 17:04:36 1510869876.733696: $GPGSV,3,2,12,14,60,304,45,18,30,139,42,22,09,312,37,24,07,046,28*7D
2017-11-16 17:04:36 1510869876.733757: $GPGSV,3,3,12,25,35,105,45,31,43,216,49,32,70,351,50,138,38,213,44*46
2017-11-16 17:04:36 1510869876.847213: $GPZDA,220435.00,16,11,2017,00,00*67
2017-11-16 17:04:36 1510869876.847487: $GPGGA,220435,3946.9578,N,08404.9811,W,2,12,0.80,312.08,M,-33.324,M,,*78
2017-11-16 17:04:36 1510869876.847604: $GPRMC,220435,A,3946.9578,N,08404.9811,W,0.0000,0.000,161117,,*3E
2017-11-16 17:04:36 1510869876.847717: $GPGSA,A,3,1,10,11,12,14,18,22,24,25,31,32,138,1.6,0.8,1.3*38
2017-11-16 17:04:37 1510869877.397792: $GPZDA,220436.00,16,11,2017,00,00*64
2017-11-16 17:04:37 1510869877.397954: $GPGGA,220436,3946.9578,N,08404.9811,W,2,12,0.80,312.08,M,-33.324,M,,*7B
2017-11-16 17:04:37 1510869877.398015: $GPRMC,220436,A,3946.9578,N,08404.9811,W,0.0000,0.000,161117,,*3D
2017-11-16 17:04:37 1510869877.398071: $GPGSA,A,3,1,10,11,12,14,18,22,24,25,31,32,138,1.6,0.8,1.3*38
2017-11-16 17:04:38 1510869878.397685: $GPZDA,220437.00,16,11,2017,00,00*65
2017-11-16 17:04:38 1510869878.397861: $GPGGA,220437,3946.9578,N,08404.9811,W,2,12,0.80,312.08,M,-33.324,M,,*7A
2017-11-16 17:04:38 1510869878.397924: $GPRMC,220437,A,3946.9578,N,08404.9811,W,0.0000,0.000,161117,,*3C
2017-11-16 17:04:38 1510869878.397980: $GPGSA,A,3,1,10,11,12,14,18,22,24,25,31,32,138,1.6,0.8,1.3*38
2017-11-16 17:04:39 1510869879.731872: $GPGSV,3,1,12,01,18,312,37,10,61,141,48,11,11,294,34,12,25,063,50*76
2017-11-16 17:04:39 1510869879.732043: $GPGSV,3,2,12,14,60,304,46,18,30,139,42,22,09,312,37,24,07,046,28*7E
2017-11-16 17:04:39 1510869879.732122: $GPGSV,3,3,12,25,35,105,45,31,43,216,49,32,70,351,50,138,38,213,44*46
2017-11-16 17:04:39 1510869879.845418: $GPZDA,220438.00,16,11,2017,00,00*6A
2017-11-16 17:04:39 1510869879.845654: $GPGGA,220438,3946.9578,N,08404.9811,W,2,12,0.80,312.08,M,-33.324,M,,*75
2017-11-16 17:04:39 1510869879.845732: $GPRMC,220438,A,3946.9578,N,08404.9811,W,0.0000,0.000,161117,,*33
2017-11-16 17:04:39 1510869879.845801: $GPGSA,A,3,1,10,11,12,14,18,22,24,25,31,32,138,1.6,0.8,1.3*38
2017-11-16 17:04:40 1510869880.397400: $GPZDA,220439.00,16,11,2017,00,00*6B
2017-11-16 17:04:40 1510869880.397576: $GPGGA,220439,3946.9578,N,08404.9811,W,2,12,0.80,312.08,M,-33.324,M,,*74
2017-11-16 17:04:40 1510869880.397638: $GPRMC,220439,A,3946.9578,N,08404.9811,W,0.0000,0.000,161117,,*32
2017-11-16 17:04:40 1510869880.397694: $GPGSA,A,3,1,10,11,12,14,18,22,24,25,31,32,138,1.6,0.8,1.3*38
2017-11-16 17:04:41 1510869881.396382: $GPZDA,220440.00,16,11,2017,00,00*65
2017-11-16 17:04:41 1510869881.396545: $GPGGA,220440,3946.9578,N,08404.9811,W,2,12,0.80,312.08,M,-33.324,M,,*7A
2017-11-16 17:04:41 1510869881.396605: $GPRMC,220440,A,3946.9578,N,08404.9811,W,0.0000,0.000,161117,,*3C
2017-11-16 17:04:41 1510869881.396661: $GPGSA,A,3,1,10,11,12,14,18,22,24,25,31,32,138,1.6,0.8,1.3*38
2017-11-16 17:04:42 1510869882.749718: $GPGSV,3,1,12,01,18,312,37,10,61,141,48,11,11,294,35,12,25,063,50*77
2017-11-16 17:04:42 1510869882.749876: $GPGSV,3,2,12,14,60,304,46,18,30,139,42,22,09,312,37,24,07,046,27*71
2017-11-16 17:04:42 1510869882.749936: $GPGSV,3,3,12,25,35,105,45,31,43,216,48,32,70,351,50,138,38,213,43*40
2017-11-16 17:04:42 1510869882.862987: $GPZDA,220441.00,16,11,2017,00,00*64
2017-11-16 17:04:42 1510869882.863177: $GPGGA,220441,3946.9578,N,08404.9811,W,2,12,0.80,312.08,M,-33.324,M,,*7B
2017-11-16 17:04:42 1510869882.863292: $GPRMC,220441,A,3946.9578,N,08404.9811,W,0.0000,0.000,161117,,*3D
2017-11-16 17:04:42 1510869882.863351: $GPGSA,A,3,1,10,11,12,14,18,22,24,25,31,32,138,1.6,0.8,1.3*38
2017-11-16 17:04:43 1510869883.415289: $GPZDA,220442.00,16,11,2017,00,00*67
2017-11-16 17:04:43 1510869883.415464: $GPGGA,220442,3946.9578,N,08404.9811,W,2,12,0.80,312.08,M,-33.324,M,,*78
2017-11-16 17:04:43 1510869883.415526: $GPRMC,220442,A,3946.9578,N,08404.9811,W,0.0000,0.000,161117,,*3E
2017-11-16 17:04:43 1510869883.415583: $GPGSA,A,3,1,10,11,12,14,18,22,24,25,31,32,138,1.6,0.8,1.3*38
2017-11-16 17:04:44 1510869884.413634: $GPZDA,220443.00,16,11,2017,00,00*66
2017-11-16 17:04:44 1510869884.413821: $GPGGA,220443,3946.9578,N,08404.9811,W,2,12,0.80,312.08,M,-33.324,M,,*79
2017-11-16 17:04:44 1510869884.413883: $GPRMC,220443,A,3946.9578,N,08404.9811,W,0.0000,0.000,161117,,*3F
2017-11-16 17:04:44 1510869884.413938: $GPGSA,A,3,1,10,11,12,14,18,22,24,25,31,32,138,1.6,0.8,1.3*38
