2017-12-31 18:11:52 1514761912.068906: {"class":"VERSION","release":"3.16","rev":"3.16-4","proto_major":3,"proto_minor":11}
2017-12-31 18:11:52 1514761912.069269: {"class":"DEVICES","devices":[{"class":"DEVICE","path":"/dev/ttyUSB0","driver":"SiRF","activated":"2017-12-31T23:11:51.937Z","flags":1,"native":1,"bps":4800,"parity":"N","stopbits":1,"cycle":1.00}]}
2017-12-31 18:11:52 1514761912.069370: {"class":"WATCH","enable":true,"json":false,"nmea":true,"raw":0,"scaled":false,"timing":false,"split24":false,"pps":false}
2017-12-31 18:11:52 1514761912.348025: $GPZDA,231153.00,31,12,2017,00,00*64
2017-12-31 18:11:52 1514761912.348188: $GPGGA,231153,3946.9557,N,08404.9874,W,2,12,0.60,308.93,M,-33.324,M,,*74
2017-12-31 18:11:52 1514761912.348253: $GPRMC,231153,A,3946.9557,N,08404.9874,W,0.0000,0.000,311217,,*33
2017-12-31 18:11:52 1514761912.348315: $GPGSA,A,3,22,23,9,3,16,29,14,31,27,8,26,135,1.7,0.6,1.3*3E
2017-12-31 18:11:53 1514761913.376353: $GPZDA,231154.00,31,12,2017,00,00*63
2017-12-31 18:11:53 1514761913.376524: $GPGGA,231154,3946.9557,N,08404.9874,W,2,12,0.60,308.93,M,-33.324,M,,*73
2017-12-31 18:11:53 1514761913.376597: $GPRMC,231154,A,3946.9557,N,08404.9874,W,0.0000,0.000,311217,,*34
2017-12-31 18:11:53 1514761913.376659: $GPGSA,A,3,22,23,9,3,16,29,14,31,27,8,26,135,1.7,0.6,1.3*3E
2017-12-31 18:11:54 1514761914.712130: $GPGSV,3,1,12,22,21,213,39,23,55,306,46,09,21,312,40,03,31,234,44*7D
2017-12-31 18:11:54 1514761914.712284: $GPGSV,3,2,12,16,82,187,43,29,05,030,33,14,14,133,36,31,28,076,45*7E
2017-12-31 18:11:54 1514761914.712348: $GPGSV,3,3,12,27,23,153,35,08,01,180,20,26,61,049,48,135,22,240,43*49
2017-12-31 18:11:54 1514761914.825425: $GPZDA,231155.00,31,12,2017,00,00*62
2017-12-31 18:11:54 1514761914.825555: $GPGGA,231155,3946.9557,N,08404.9874,W,2,12,0.60,308.93,M,-33.324,M,,*72
2017-12-31 18:11:54 1514761914.825620: $GPRMC,231155,A,3946.9557,N,08404.9874,W,0.0000,0.000,311217,,*35
2017-12-31 18:11:54 1514761914.825682: $GPGSA,A,3,22,23,9,3,16,29,14,31,27,8,26,135,1.7,0.6,1.3*3E
2017-12-31 18:11:55 1514761915.450825: $GPZDA,231156.00,31,12,2017,00,00*61
2017-12-31 18:11:55 1514761915.450978: $GPGGA,231156,3946.9557,N,08404.9874,W,2,12,0.60,308.93,M,-33.324,M,,*71
2017-12-31 18:11:55 1514761915.451045: $GPRMC,231156,A,3946.9557,N,08404.9874,W,0.0000,0.000,311217,,*36
2017-12-31 18:11:55 1514761915.451105: $GPGSA,A,3,22,23,9,3,16,29,14,31,27,8,26,135,1.7,0.6,1.3*3E
2017-12-31 18:11:56 1514761916.341704: $GPZDA,231157.00,31,12,2017,00,00*60
2017-12-31 18:11:56 1514761916.341871: $GPGGA,231157,3946.9557,N,08404.9874,W,2,12,0.60,308.93,M,-33.324,M,,*70
2017-12-31 18:11:56 1514761916.341940: $GPRMC,231157,A,3946.9557,N,08404.9874,W,0.0000,0.000,311217,,*37
2017-12-31 18:11:56 1514761916.342001: $GPGSA,A,3,22,23,9,3,16,29,14,31,27,8,26,135,1.7,0.6,1.3*3E
2017-12-31 18:11:57 1514761917.683739: $GPGSV,3,1,12,22,21,213,39,23,55,306,46,09,21,312,41,03,31,234,44*7C
2017-12-31 18:11:57 1514761917.683934: $GPGSV,3,2,12,16,82,187,44,29,05,030,33,14,14,133,36,31,28,076,45*79
2017-12-31 18:11:57 1514761917.684002: $GPGSV,3,3,12,27,23,153,35,08,01,180,19,26,61,049,48,135,22,240,45*45
2017-12-31 18:11:57 1514761917.797061: $GPZDA,231158.00,31,12,2017,00,00*6F
2017-12-31 18:11:57 1514761917.797276: $GPGGA,231158,3946.9557,N,08404.9874,W,2,12,0.60,308.93,M,-33.324,M,,*7F
2017-12-31 18:11:57 1514761917.797342: $GPRMC,231158,A,3946.9557,N,08404.9874,W,0.0000,0.000,311217,,*38
2017-12-31 18:11:57 1514761917.797404: $GPGSA,A,3,22,23,9,3,16,29,14,31,27,8,26,135,1.7,0.6,1.3*3E
2017-12-31 18:11:58 1514761918.347983: $GPZDA,231159.00,31,12,2017,00,00*6E
2017-12-31 18:11:58 1514761918.348133: $GPGGA,231159,3946.9557,N,08404.9874,W,2,12,0.60,308.93,M,-33.324,M,,*7E
2017-12-31 18:11:58 1514761918.348199: $GPRMC,231159,A,3946.9557,N,08404.9874,W,0.0000,0.000,311217,,*39
2017-12-31 18:11:58 1514761918.348260: $GPGSA,A,3,22,23,9,3,16,29,14,31,27,8,26,135,1.7,0.6,1.3*3E
2017-12-31 18:11:59 1514761919.348817: $GPZDA,231200.00,31,12,2017,00,00*61
2017-12-31 18:11:59 1514761919.349004: $GPGGA,231200,3946.9557,N,08404.9874,W,2,12,0.60,308.93,M,-33.324,M,,*71
2017-12-31 18:11:59 1514761919.349126: $GPRMC,231200,A,3946.9557,N,08404.9874,W,0.0000,0.000,311217,,*36
2017-12-31 18:11:59 1514761919.349189: $GPGSA,A,3,22,23,9,3,16,29,14,31,27,8,26,135,1.7,0.6,1.3*3E
2017-12-31 18:12:00 1514761920.676564: $GPGSV,3,1,12,22,21,213,38,23,55,306,45,09,21,312,41,03,31,234,44*7E
2017-12-31 18:12:00 1514761920.676746: $GPGSV,3,2,12,16,82,187,43,29,05,030,26,14,14,133,35,31,28,076,45*79
2017-12-31 18:12:00 1514761920.676811: $GPGSV,3,3,12,27,23,153,35,08,01,180,00,26,61,049,48,135,22,240,43*4B
2017-12-31 18:12:00 1514761920.789870: $GPZDA,231201.00,31,12,2017,00,00*60
2017-12-31 18:12:00 1514761920.789996: $GPGGA,231201,3946.9557,N,08404.9874,W,2,11,0.60,308.93,M,-33.324,M,,*73
2017-12-31 18:12:00 1514761920.790060: $GPRMC,231201,A,3946.9557,N,08404.9874,W,0.0000,0.000,311217,,*37
2017-12-31 18:12:00 1514761920.790121: $GPGSA,A,3,22,23,9,3,16,29,14,31,27,26,135,,1.7,0.6,1.3*06
2017-12-31 18:12:01 1514761921.352036: $GPZDA,231202.00,31,12,2017,00,00*63
2017-12-31 18:12:01 1514761921.352203: $GPGGA,231202,3946.9557,N,08404.9874,W,2,11,0.60,308.93,M,-33.324,M,,*70
2017-12-31 18:12:01 1514761921.352272: $GPRMC,231202,A,3946.9557,N,08404.9874,W,0.0000,0.000,311217,,*34
2017-12-31 18:12:01 1514761921.352332: $GPGSA,A,3,22,23,9,3,16,29,14,31,27,26,135,,1.7,0.6,1.3*06
