2017-12-01 11:54:36 1512147276.036796: {"class":"VERSION","release":"3.16","rev":"3.16-4","proto_major":3,"proto_minor":11}
2017-12-01 11:54:36 1512147276.037196: {"class":"DEVICES","devices":[{"class":"DEVICE","path":"/dev/ttyUSB0","driver":"SiRF","subtype":"9\u0006GSD4e_4.1.2-P1_RPATCH.05-F-GPS-4R-1510281 11/03/2015 307","activated":"2017-12-01T16:54:36.003Z","flags":1,"native":1,"bps":4800,"parity":"N","stopbits":1,"cycle":1.00}]}
2017-12-01 11:54:36 1512147276.037315: {"class":"WATCH","enable":true,"json":false,"nmea":true,"raw":0,"scaled":false,"timing":false,"split24":false,"pps":false}
2017-12-01 11:54:36 1512147276.415124: $GPZDA,165437.00,01,12,2017,00,00*62
2017-12-01 11:54:36 1512147276.415306: $GPGGA,165437,3946.9557,N,08404.9850,W,2,10,0.80,302.79,M,-33.324,M,,*75
2017-12-01 11:54:36 1512147276.415374: $GPRMC,165437,A,3946.9557,N,08404.9850,W,0.0000,0.000,011217,,*33
2017-12-01 11:54:36 1512147276.415442: $GPGSA,A,3,13,15,18,20,21,24,27,29,10,138,,,2.0,0.8,1.5*01
2017-12-01 11:54:37 1512147277.415984: $GPZDA,165438.00,01,12,2017,00,00*6D
2017-12-01 11:54:37 1512147277.416183: $GPGGA,165438,3946.9557,N,08404.9850,W,2,10,0.80,302.79,M,-33.324,M,,*7A
2017-12-01 11:54:37 1512147277.416253: $GPRMC,165438,A,3946.9557,N,08404.9850,W,0.0000,0.000,011217,,*3C
2017-12-01 11:54:37 1512147277.416317: $GPGSA,A,3,13,15,18,20,21,24,27,29,10,138,,,2.0,0.8,1.5*01
2017-12-01 11:54:38 1512147278.748028: $GPGSV,3,1,12,13,38,048,45,15,71,061,44,18,47,289,44,20,59,058,44*73
2017-12-01 11:54:38 1512147278.748214: $GPGSV,3,2,12,21,71,300,44,24,24,145,46,27,11,321,39,29,19,193,46*7A
2017-12-01 11:54:38 1512147278.748282: $GPGSV,3,3,12,05,10,081,00,10,16,276,35,04,08,132,00,138,38,213,46*4B
2017-12-01 11:54:38 1512147278.861336: $GPZDA,165439.00,01,12,2017,00,00*6C
2017-12-01 11:54:38 1512147278.861562: $GPGGA,165439,3946.9557,N,08404.9850,W,2,10,0.80,302.79,M,-33.324,M,,*7B
2017-12-01 11:54:38 1512147278.861631: $GPRMC,165439,A,3946.9557,N,08404.9850,W,0.0000,0.000,011217,,*3D
2017-12-01 11:54:38 1512147278.861693: $GPGSA,A,3,13,15,18,20,21,24,27,29,10,138,,,2.0,0.8,1.5*01
2017-12-01 11:54:39 1512147279.486816: $GPZDA,165440.00,01,12,2017,00,00*62
2017-12-01 11:54:39 1512147279.486988: $GPGGA,165440,3946.9557,N,08404.9850,W,2,10,0.80,302.79,M,-33.324,M,,*75
2017-12-01 11:54:39 1512147279.487057: $GPRMC,165440,A,3946.9557,N,08404.9850,W,0.0000,0.000,011217,,*33
2017-12-01 11:54:39 1512147279.487120: $GPGSA,A,3,13,15,18,20,21,24,27,29,10,138,,,2.0,0.8,1.5*01
2017-12-01 11:54:40 1512147280.414210: $GPZDA,165441.00,01,12,2017,00,00*63
2017-12-01 11:54:40 1512147280.414426: $GPGGA,165441,3946.9557,N,08404.9850,W,2,10,0.80,302.79,M,-33.324,M,,*74
2017-12-01 11:54:40 1512147280.414500: $GPRMC,165441,A,3946.9557,N,08404.9850,W,0.0000,0.000,011217,,*32
2017-12-01 11:54:40 1512147280.414563: $GPGSA,A,3,13,15,18,20,21,24,27,29,10,138,,,2.0,0.8,1.5*01
2017-12-01 11:54:41 1512147281.732368: $GPGSV,3,1,12,13,38,048,45,15,71,061,44,18,47,289,44,20,59,058,44*73
2017-12-01 11:54:41 1512147281.732570: $GPGSV,3,2,12,21,71,300,45,24,24,145,46,27,11,321,39,29,19,193,45*78
2017-12-01 11:54:41 1512147281.732640: $GPGSV,3,3,12,05,10,081,22,10,16,276,35,04,08,132,00,138,38,213,46*4B
2017-12-01 11:54:41 1512147281.845962: $GPZDA,165442.00,01,12,2017,00,00*60
2017-12-01 11:54:41 1512147281.846131: $GPGGA,165442,3946.9557,N,08404.9850,W,2,11,0.80,302.79,M,-33.324,M,,*76
2017-12-01 11:54:41 1512147281.846198: $GPRMC,165442,A,3946.9557,N,08404.9850,W,0.0000,0.000,011217,,*31
2017-12-01 11:54:41 1512147281.846260: $GPGSA,A,3,13,15,18,20,21,24,27,29,5,10,138,,2.0,0.8,1.5*34
2017-12-01 11:54:42 1512147282.400594: $GPZDA,165443.00,01,12,2017,00,00*61
2017-12-01 11:54:42 1512147282.400768: $GPGGA,165443,3946.9557,N,08404.9850,W,2,11,0.80,302.79,M,-33.324,M,,*77
2017-12-01 11:54:42 1512147282.400836: $GPRMC,165443,A,3946.9557,N,08404.9850,W,0.0000,0.000,011217,,*30
2017-12-01 11:54:42 1512147282.400899: $GPGSA,A,3,13,15,18,20,21,24,27,29,5,10,138,,2.0,0.8,1.5*34
2017-12-01 11:54:43 1512147283.418687: $GPZDA,165444.00,01,12,2017,00,00*66
2017-12-01 11:54:43 1512147283.418922: $GPGGA,165444,3946.9557,N,08404.9850,W,2,11,0.80,302.79,M,-33.324,M,,*70
2017-12-01 11:54:43 1512147283.418996: $GPRMC,165444,A,3946.9557,N,08404.9850,W,0.0000,0.000,011217,,*37
2017-12-01 11:54:43 1512147283.419057: $GPGSA,A,3,13,15,18,20,21,24,27,29,5,10,138,,2.0,0.8,1.5*34
2017-12-01 11:54:44 1512147284.733974: $GPGSV,3,1,12,13,38,048,45,15,71,061,45,18,47,289,44,20,59,058,44*72
2017-12-01 11:54:44 1512147284.734154: $GPGSV,3,2,12,21,71,300,45,24,24,145,46,27,11,321,40,29,19,193,45*76
2017-12-01 11:54:44 1512147284.734222: $GPGSV,3,3,12,05,10,081,25,10,16,276,35,04,08,132,00,138,38,213,47*4D
2017-12-01 11:54:44 1512147284.846115: $GPZDA,165445.00,01,12,2017,00,00*67
2017-12-01 11:54:44 1512147284.846286: $GPGGA,165445,3946.9557,N,08404.9850,W,2,11,0.80,302.79,M,-33.324,M,,*71
2017-12-01 11:54:44 1512147284.846356: $GPRMC,165445,A,3946.9557,N,08404.9850,W,0.0000,0.000,011217,,*36
2017-12-01 11:54:44 1512147284.846417: $GPGSA,A,3,13,15,18,20,21,24,27,29,5,10,138,,2.0,0.8,1.5*34
2017-12-01 11:54:45 1512147285.414474: $GPZDA,165446.00,01,12,2017,00,00*64
2017-12-01 11:54:45 1512147285.414631: $GPGGA,165446,3946.9557,N,08404.9850,W,2,11,0.80,302.79,M,-33.324,M,,*72
2017-12-01 11:54:45 1512147285.414698: $GPRMC,165446,A,3946.9557,N,08404.9850,W,0.0000,0.000,011217,,*35
2017-12-01 11:54:45 1512147285.414758: $GPGSA,A,3,13,15,18,20,21,24,27,29,5,10,138,,2.0,0.8,1.5*34
