2017-12-31 18:51:59 1514764319.169394: {"class":"VERSION","release":"3.16","rev":"3.16-4","proto_major":3,"proto_minor":11}
2017-12-31 18:51:59 1514764319.169903: {"class":"DEVICES","devices":[{"class":"DEVICE","path":"/dev/ttyUSB0","driver":"SiRF","activated":"2017-12-31T23:51:58.493Z","flags":1,"native":1,"bps":4800,"parity":"N","stopbits":1,"cycle":1.00}]}
2017-12-31 18:51:59 1514764319.170025: {"class":"WATCH","enable":true,"json":false,"nmea":true,"raw":0,"scaled":false,"timing":false,"split24":false,"pps":false}
2017-12-31 18:51:59 1514764319.352607: $GPZDA,235200.00,31,12,2017,00,00*65
2017-12-31 18:51:59 1514764319.352777: $GPGGA,235200,3946.9574,N,08404.9817,W,2,11,0.80,309.96,M,-33.324,M,,*78
2017-12-31 18:51:59 1514764319.352842: $GPRMC,235200,A,3946.9574,N,08404.9817,W,0.0000,0.000,311217,,*36
2017-12-31 18:51:59 1514764319.352903: $GPGSA,A,3,22,23,9,3,16,8,31,27,7,26,135,,1.7,0.8,1.3*09
2017-12-31 18:52:00 1514764320.687475: $GPGSV,3,1,11,22,07,204,23,23,69,279,40,09,37,309,40,03,17,220,35*7D
2017-12-31 18:52:00 1514764320.687669: $GPGSV,3,2,11,16,76,036,44,08,17,175,40,31,15,090,23,27,40,142,41*7F
2017-12-31 18:52:00 1514764320.687736: $GPGSV,3,3,11,07,11,285,41,26,43,048,45,135,22,240,42*7D
2017-12-31 18:52:00 1514764320.800776: $GPZDA,235201.00,31,12,2017,00,00*64
2017-12-31 18:52:00 1514764320.800942: $GPGGA,235201,3946.9573,N,08404.9810,W,2,11,0.80,310.04,M,-33.324,M,,*7A
2017-12-31 18:52:00 1514764320.801024: $GPRMC,235201,A,3946.9573,N,08404.9810,W,0.0000,0.000,311217,,*37
2017-12-31 18:52:00 1514764320.801104: $GPGSA,A,3,22,23,9,3,16,8,31,27,7,26,135,,1.7,0.8,1.3*09
2017-12-31 18:52:01 1514764321.352980: $GPZDA,235202.00,31,12,2017,00,00*67
2017-12-31 18:52:01 1514764321.353155: $GPGGA,235202,3946.9573,N,08404.9810,W,2,11,0.80,310.04,M,-33.324,M,,*79
2017-12-31 18:52:01 1514764321.353221: $GPRMC,235202,A,3946.9573,N,08404.9810,W,0.0000,0.000,311217,,*34
2017-12-31 18:52:01 1514764321.353283: $GPGSA,A,3,22,23,9,3,16,8,31,27,7,26,135,,1.7,0.8,1.3*09
2017-12-31 18:52:02 1514764322.352636: $GPZDA,235203.00,31,12,2017,00,00*66
2017-12-31 18:52:02 1514764322.352799: $GPGGA,235203,3946.9573,N,08404.9810,W,2,11,0.80,310.04,M,-33.324,M,,*78
2017-12-31 18:52:02 1514764322.352865: $GPRMC,235203,A,3946.9573,N,08404.9810,W,0.0000,0.000,311217,,*35
2017-12-31 18:52:02 1514764322.352930: $GPGSA,A,3,22,23,9,3,16,8,31,27,7,26,135,,1.7,0.8,1.3*09
2017-12-31 18:52:03 1514764323.687026: $GPGSV,3,1,11,22,07,204,24,23,69,279,39,09,37,309,40,03,17,220,35*74
2017-12-31 18:52:03 1514764323.687261: $GPGSV,3,2,11,16,76,036,44,08,17,175,39,31,15,090,28,27,40,142,41*7A
2017-12-31 18:52:03 1514764323.687331: $GPGSV,3,3,11,07,11,285,41,26,43,048,45,135,22,240,43*7C
2017-12-31 18:52:03 1514764323.800353: $GPZDA,235204.00,31,12,2017,00,00*61
2017-12-31 18:52:03 1514764323.800492: $GPGGA,235204,3946.9573,N,08404.9810,W,2,11,0.80,310.04,M,-33.324,M,,*7F
2017-12-31 18:52:03 1514764323.800559: $GPRMC,235204,A,3946.9573,N,08404.9810,W,0.0000,0.000,311217,,*32
2017-12-31 18:52:03 1514764323.800620: $GPGSA,A,3,22,23,9,3,16,8,31,27,7,26,135,,1.7,0.8,1.3*09
2017-12-31 18:52:04 1514764324.351256: $GPZDA,235205.00,31,12,2017,00,00*60
2017-12-31 18:52:04 1514764324.351426: $GPGGA,235205,3946.9573,N,08404.9810,W,2,11,0.80,310.04,M,-33.324,M,,*7E
2017-12-31 18:52:04 1514764324.351493: $GPRMC,235205,A,3946.9573,N,08404.9810,W,0.0000,0.000,311217,,*33
2017-12-31 18:52:04 1514764324.351555: $GPGSA,A,3,22,23,9,3,16,8,31,27,7,26,135,,1.7,0.8,1.3*09
2017-12-31 18:52:05 1514764325.352037: $GPZDA,235206.00,31,12,2017,00,00*63
2017-12-31 18:52:05 1514764325.352213: $GPGGA,235206,3946.9573,N,08404.9810,W,2,11,0.80,310.04,M,-33.324,M,,*7D
2017-12-31 18:52:05 1514764325.352281: $GPRMC,235206,A,3946.9573,N,08404.9810,W,0.0000,0.000,311217,,*30
2017-12-31 18:52:05 1514764325.352342: $GPGSA,A,3,22,23,9,3,16,8,31,27,7,26,135,,1.7,0.8,1.3*09
2017-12-31 18:52:06 1514764326.688589: $GPGSV,3,1,11,22,07,204,25,23,69,279,39,09,37,309,40,03,17,220,35*75
2017-12-31 18:52:06 1514764326.688758: $GPGSV,3,2,11,16,76,036,44,08,17,175,40,31,15,090,27,27,40,142,41*7B
2017-12-31 18:52:06 1514764326.688875: $GPGSV,3,3,11,07,11,285,42,26,43,048,45,135,22,240,44*78
2017-12-31 18:52:06 1514764326.802326: $GPZDA,235207.00,31,12,2017,00,00*62
2017-12-31 18:52:06 1514764326.802465: $GPGGA,235207,3946.9573,N,08404.9810,W,2,11,0.80,310.04,M,-33.324,M,,*7C
2017-12-31 18:52:06 1514764326.802531: $GPRMC,235207,A,3946.9573,N,08404.9810,W,0.0000,0.000,311217,,*31
2017-12-31 18:52:06 1514764326.802591: $GPGSA,A,3,22,23,9,3,16,8,31,27,7,26,135,,1.7,0.8,1.3*09
2017-12-31 18:52:07 1514764327.353235: $GPZDA,235208.00,31,12,2017,00,00*6D
2017-12-31 18:52:07 1514764327.353406: $GPGGA,235208,3946.9573,N,08404.9810,W,2,11,0.80,310.04,M,-33.324,M,,*73
2017-12-31 18:52:07 1514764327.353473: $GPRMC,235208,A,3946.9573,N,08404.9810,W,0.0000,0.000,311217,,*3E
2017-12-31 18:52:07 1514764327.353534: $GPGSA,A,3,22,23,9,3,16,8,31,27,7,26,135,,1.7,0.8,1.3*09
2017-12-31 18:52:08 1514764328.351228: $GPZDA,235209.00,31,12,2017,00,00*6C
2017-12-31 18:52:08 1514764328.351401: $GPGGA,235209,3946.9573,N,08404.9810,W,2,11,0.80,310.04,M,-33.324,M,,*72
2017-12-31 18:52:08 1514764328.351469: $GPRMC,235209,A,3946.9573,N,08404.9810,W,0.0000,0.000,311217,,*3F
2017-12-31 18:52:08 1514764328.351531: $GPGSA,A,3,22,23,9,3,16,8,31,27,7,26,135,,1.7,0.8,1.3*09
