2017-11-16 14:49:51 1510861791.605878: {"class":"VERSION","release":"3.17","rev":"3.17","proto_major":3,"proto_minor":12}
2017-11-16 14:49:51 1510861791.606403: {"class":"DEVICES","devices":[{"class":"DEVICE","path":"/dev/ttyUSB0","driver":"SiRF","subtype":"9\u0006GSD4e_4.1.2-P1_RPATCH.05-F-GPS-4R-1510281 11/03/2015 307","activated":"2017-11-16T19:49:51.376Z","flags":1,"native":1,"bps":4800,"parity":"N","stopbits":1,"cycle":1.00}]}
2017-11-16 14:49:51 1510861791.606517: {"class":"WATCH","enable":true,"json":false,"nmea":true,"raw":0,"scaled":false,"timing":false,"split24":false,"pps":false}
2017-11-16 14:49:51 1510861791.825620: $GPGSV,3,1,11,08,08,307,34,10,55,313,50,15,24,058,50,18,77,033,45*7F
2017-11-16 14:49:51 1510861791.825780: $GPGSV,3,2,11,21,46,183,47,20,21,108,43,24,53,081,48,27,14,273,39*76
2017-11-16 14:49:51 1510861791.825840: $GPGSV,3,3,11,32,33,250,46,14,17,241,43,138,38,213,44*7F
2017-11-16 14:49:51 1510861791.938951: $GPZDA,194950.00,16,11,2017,00,00*65
2017-11-16 14:49:51 1510861791.939110: $GPGGA,194950,3946.9572,N,08404.9841,W,2,11,0.80,302.62,M,-33.324,M,,*7B
2017-11-16 14:49:51 1510861791.939196: $GPRMC,194950,A,3946.9572,N,08404.9841,W,0.0000,0.000,161117,,*33
2017-11-16 14:49:51 1510861791.939254: $GPGSA,A,3,8,10,15,18,21,20,24,27,32,14,138,,1.6,0.8,1.3*37
2017-11-16 14:49:52 1510861792.528548: $GPZDA,194951.00,16,11,2017,00,00*64
2017-11-16 14:49:52 1510861792.528714: $GPGGA,194951,3946.9572,N,08404.9841,W,2,11,0.80,302.62,M,-33.324,M,,*7A
2017-11-16 14:49:52 1510861792.528777: $GPRMC,194951,A,3946.9572,N,08404.9841,W,0.0000,0.000,161117,,*32
2017-11-16 14:49:52 1510861792.528834: $GPGSA,A,3,8,10,15,18,21,20,24,27,32,14,138,,1.6,0.8,1.3*37
2017-11-16 14:49:53 1510861793.489428: $GPZDA,194952.00,16,11,2017,00,00*67
2017-11-16 14:49:53 1510861793.489588: $GPGGA,194952,3946.9572,N,08404.9841,W,2,11,0.80,302.62,M,-33.324,M,,*79
2017-11-16 14:49:53 1510861793.489649: $GPRMC,194952,A,3946.9572,N,08404.9841,W,0.0000,0.000,161117,,*31
2017-11-16 14:49:53 1510861793.489705: $GPGSA,A,3,8,10,15,18,21,20,24,27,32,14,138,,1.6,0.8,1.3*37
2017-11-16 14:49:54 1510861794.827202: $GPGSV,3,1,11,08,08,307,35,10,55,313,50,15,24,058,50,18,77,033,45*7E
2017-11-16 14:49:54 1510861794.827377: $GPGSV,3,2,11,21,46,183,48,20,21,108,43,24,53,081,49,27,14,273,39*78
2017-11-16 14:49:54 1510861794.827439: $GPGSV,3,3,11,32,33,250,46,14,17,241,43,138,38,213,44*7F
2017-11-16 14:49:54 1510861794.940586: $GPZDA,194953.00,16,11,2017,00,00*66
2017-11-16 14:49:54 1510861794.940752: $GPGGA,194953,3946.9572,N,08404.9841,W,2,11,0.80,302.62,M,-33.324,M,,*78
2017-11-16 14:49:54 1510861794.940814: $GPRMC,194953,A,3946.9572,N,08404.9841,W,0.0000,0.000,161117,,*30
2017-11-16 14:49:54 1510861794.940870: $GPGSA,A,3,8,10,15,18,21,20,24,27,32,14,138,,1.6,0.8,1.3*37
2017-11-16 14:49:55 1510861795.527636: $GPZDA,194954.00,16,11,2017,00,00*61
2017-11-16 14:49:55 1510861795.527796: $GPGGA,194954,3946.9572,N,08404.9841,W,2,11,0.80,302.62,M,-33.324,M,,*7F
2017-11-16 14:49:55 1510861795.527856: $GPRMC,194954,A,3946.9572,N,08404.9841,W,0.0000,0.000,161117,,*37
2017-11-16 14:49:55 1510861795.527912: $GPGSA,A,3,8,10,15,18,21,20,24,27,32,14,138,,1.6,0.8,1.3*37
2017-11-16 14:49:56 1510861796.484784: $GPZDA,194955.00,16,11,2017,00,00*60
2017-11-16 14:49:56 1510861796.484960: $GPGGA,194955,3946.9572,N,08404.9841,W,2,11,0.80,302.62,M,-33.324,M,,*7E
2017-11-16 14:49:56 1510861796.485022: $GPRMC,194955,A,3946.9572,N,08404.9841,W,0.0000,0.000,161117,,*36
2017-11-16 14:49:56 1510861796.485096: $GPGSA,A,3,8,10,15,18,21,20,24,27,32,14,138,,1.6,0.8,1.3*37
2017-11-16 14:49:57 1510861797.825524: $GPGSV,3,1,11,08,08,307,35,10,55,313,50,15,24,058,50,18,77,033,45*7E
2017-11-16 14:49:57 1510861797.825690: $GPGSV,3,2,11,21,46,183,48,20,21,108,42,24,53,081,48,27,14,273,40*76
2017-11-16 14:49:57 1510861797.825750: $GPGSV,3,3,11,32,33,250,46,14,17,241,43,138,38,213,43*78
2017-11-16 14:49:57 1510861797.941819: $GPZDA,194956.00,16,11,2017,00,00*63
2017-11-16 14:49:57 1510861797.941976: $GPGGA,194956,3946.9572,N,08404.9841,W,2,11,0.80,302.62,M,-33.324,M,,*7D
2017-11-16 14:49:57 1510861797.942118: $GPRMC,194956,A,3946.9572,N,08404.9841,W,0.0000,0.000,161117,,*35
2017-11-16 14:49:57 1510861797.942178: $GPGSA,A,3,8,10,15,18,21,20,24,27,32,14,138,,1.6,0.8,1.3*37
2017-11-16 14:49:58 1510861798.489874: $GPZDA,194957.00,16,11,2017,00,00*62
2017-11-16 14:49:59 1510861799.338699: $GPGGA,194957,3946.9572,N,08404.9841,W,2,11,0.80,302.62,M,-33.324,M,,*7C
2017-11-16 14:49:59 1510861799.338836: $GPRMC,194957,A,3946.9572,N,08404.9841,W,0.0000,0.000,161117,,*34
2017-11-16 14:49:59 1510861799.338913: $GPGSA,A,3,8,10,15,18,21,20,24,27,32,14,138,,1.6,0.8,1.3*37
2017-11-16 14:49:59 1510861799.488982: $GPZDA,194958.00,16,11,2017,00,00*6D
2017-11-16 14:49:59 1510861799.489215: $GPGGA,194958,3946.9572,N,08404.9841,W,2,11,0.80,302.62,M,-33.324,M,,*73
2017-11-16 14:49:59 1510861799.489283: $GPRMC,194958,A,3946.9572,N,08404.9841,W,0.0000,0.000,161117,,*3B
2017-11-16 14:49:59 1510861799.489346: $GPGSA,A,3,8,10,15,18,21,20,24,27,32,14,138,,1.6,0.8,1.3*37
2017-11-16 14:50:00 1510861800.825984: $GPGSV,3,1,11,08,08,307,36,10,55,313,50,15,24,058,50,18,77,033,45*7D
2017-11-16 14:50:00 1510861800.826210: $GPGSV,3,2,11,21,46,183,47,20,21,108,42,24,53,081,48,27,14,273,40*79
2017-11-16 14:50:00 1510861800.826272: $GPGSV,3,3,11,32,33,250,46,14,17,241,43,138,38,213,44*7F
2017-11-16 14:50:00 1510861800.939318: $GPZDA,194959.00,16,11,2017,00,00*6C
2017-11-16 14:50:00 1510861800.939480: $GPGGA,194959,3946.9572,N,08404.9841,W,2,11,0.80,302.62,M,-33.324,M,,*72
2017-11-16 14:50:00 1510861800.939540: $GPRMC,194959,A,3946.9572,N,08404.9841,W,0.0000,0.000,161117,,*3A
2017-11-16 14:50:00 1510861800.939596: $GPGSA,A,3,8,10,15,18,21,20,24,27,32,14,138,,1.6,0.8,1.3*37
2017-11-16 14:50:01 1510861801.490189: $GPZDA,195000.00,16,11,2017,00,00*68
2017-11-16 14:50:01 1510861801.490422: $GPGGA,195000,3946.9572,N,08404.9841,W,2,11,0.80,302.62,M,-33.324,M,,*76
2017-11-16 14:50:01 1510861801.490487: $GPRMC,195000,A,3946.9572,N,08404.9841,W,0.0000,0.000,161117,,*3E
2017-11-16 14:50:01 1510861801.490543: $GPGSA,A,3,8,10,15,18,21,20,24,27,32,14,138,,1.6,0.8,1.3*37
