2018-01-11 20:27:21 1515720441.446446: {"class":"VERSION","release":"3.16","rev":"3.16-4","proto_major":3,"proto_minor":11}
2018-01-11 20:27:21 1515720441.446798: {"class":"DEVICES","devices":[{"class":"DEVICE","path":"/dev/ttyUSB0","driver":"SiRF","subtype":"9\u0006GSD4e_4.1.2-P1_RPATCH.05-F-GPS-4R-1510281 11/03/2015 307","activated":"2018-01-12T01:27:21.419Z","flags":1,"native":1,"bps":4800,"parity":"N","stopbits":1,"cycle":1.00}]}
2018-01-11 20:27:21 1515720441.446919: {"class":"WATCH","enable":true,"json":false,"nmea":true,"raw":0,"scaled":false,"timing":false,"split24":false,"pps":false}
2018-01-11 20:27:22 1515720442.364348: $GPZDA,012723.00,12,01,2018,00,00*6A
2018-01-11 20:27:22 1515720442.364511: $GPGGA,012723,3946.9603,N,08404.9862,W,2,10,0.80,294.02,M,-33.324,M,,*73
2018-01-11 20:27:22 1515720442.364577: $GPRMC,012723,A,3946.9603,N,08404.9862,W,0.0000,0.000,120118,,*38
2018-01-11 20:27:22 1515720442.364637: $GPGSA,A,3,7,8,9,11,16,23,27,28,30,138,,,4.0,0.8,3.5*3E
2018-01-11 20:27:23 1515720443.699939: $GPGSV,3,1,11,07,62,316,44,08,75,100,46,09,42,222,42,11,26,165,44*78
2018-01-11 20:27:23 1515720443.700095: $GPGSV,3,2,11,16,18,064,36,23,22,187,47,27,41,048,49,28,19,264,38*75
2018-01-11 20:27:23 1515720443.700158: $GPGSV,3,3,11,30,35,309,35,01,04,160,00,138,38,213,45*72
2018-01-11 20:27:23 1515720443.813364: $GPZDA,012724.00,12,01,2018,00,00*6D
2018-01-11 20:27:23 1515720443.813488: $GPGGA,012724,3946.9603,N,08404.9862,W,2,10,0.80,294.02,M,-33.324,M,,*74
2018-01-11 20:27:23 1515720443.813552: $GPRMC,012724,A,3946.9603,N,08404.9862,W,0.0000,0.000,120118,,*3F
2018-01-11 20:27:23 1515720443.813611: $GPGSA,A,3,7,8,9,11,16,23,27,28,30,138,,,4.0,0.8,3.5*3E
2018-01-11 20:27:24 1515720444.359379: $GPZDA,012725.00,12,01,2018,00,00*6C
2018-01-11 20:27:24 1515720444.359534: $GPGGA,012725,3946.9603,N,08404.9862,W,2,10,0.80,294.02,M,-33.324,M,,*75
2018-01-11 20:27:24 1515720444.359601: $GPRMC,012725,A,3946.9603,N,08404.9862,W,0.0000,0.000,120118,,*3E
2018-01-11 20:27:24 1515720444.359661: $GPGSA,A,3,7,8,9,11,16,23,27,28,30,138,,,4.0,0.8,3.5*3E
2018-01-11 20:27:25 1515720445.365955: $GPZDA,012726.00,12,01,2018,00,00*6F
2018-01-11 20:27:25 1515720445.370193: $GPGGA,012726,3946.9603,N,08404.9862,W,2,10,0.80,294.02,M,-33.324,M,,*76
2018-01-11 20:27:25 1515720445.370300: $GPRMC,012726,A,3946.9603,N,08404.9862,W,0.0000,0.000,120118,,*3D
2018-01-11 20:27:25 1515720445.370363: $GPGSA,A,3,7,8,9,11,16,23,27,28,30,138,,,4.0,0.8,3.5*3E
2018-01-11 20:27:26 1515720446.695257: $GPGSV,3,1,11,07,62,316,44,08,75,100,46,09,42,222,41,11,26,165,44*7B
2018-01-11 20:27:26 1515720446.695406: $GPGSV,3,2,11,16,18,064,36,23,22,187,47,27,41,048,49,28,19,264,37*7A
2018-01-11 20:27:26 1515720446.695469: $GPGSV,3,3,11,30,35,309,35,01,04,160,00,138,38,213,44*73
2018-01-11 20:27:26 1515720446.808644: $GPZDA,012727.00,12,01,2018,00,00*6E
2018-01-11 20:27:26 1515720446.808781: $GPGGA,012727,3946.9603,N,08404.9862,W,2,10,0.80,294.02,M,-33.324,M,,*77
2018-01-11 20:27:26 1515720446.808846: $GPRMC,012727,A,3946.9603,N,08404.9862,W,0.0000,0.000,120118,,*3C
2018-01-11 20:27:26 1515720446.808905: $GPGSA,A,3,7,8,9,11,16,23,27,28,30,138,,,4.0,0.8,3.5*3E
2018-01-11 20:27:27 1515720447.364535: $GPZDA,012728.00,12,01,2018,00,00*61
2018-01-11 20:27:27 1515720447.364684: $GPGGA,012728,3946.9603,N,08404.9862,W,2,10,0.80,294.02,M,-33.324,M,,*78
2018-01-11 20:27:27 1515720447.364749: $GPRMC,012728,A,3946.9603,N,08404.9862,W,0.0000,0.000,120118,,*33
2018-01-11 20:27:27 1515720447.364809: $GPGSA,A,3,7,8,9,11,16,23,27,28,30,138,,,4.0,0.8,3.5*3E
2018-01-11 20:27:28 1515720448.364154: $GPZDA,012729.00,12,01,2018,00,00*60
2018-01-11 20:27:28 1515720448.364319: $GPGGA,012729,3946.9603,N,08404.9862,W,2,10,0.80,294.02,M,-33.324,M,,*79
2018-01-11 20:27:28 1515720448.364386: $GPRMC,012729,A,3946.9603,N,08404.9862,W,0.0000,0.000,120118,,*32
2018-01-11 20:27:28 1515720448.364446: $GPGSA,A,3,7,8,9,11,16,23,27,28,30,138,,,4.0,0.8,3.5*3E
2018-01-11 20:27:29 1515720449.701183: $GPGSV,3,1,11,07,62,316,43,08,75,100,46,09,42,222,41,11,26,165,44*7C
2018-01-11 20:27:29 1515720449.701381: $GPGSV,3,2,11,16,18,064,36,23,22,187,47,27,41,048,49,28,19,264,37*7A
2018-01-11 20:27:29 1515720449.701501: $GPGSV,3,3,11,30,35,309,35,01,04,160,00,138,38,213,44*73
2018-01-11 20:27:29 1515720449.814557: $GPZDA,012730.00,12,01,2018,00,00*68
2018-01-11 20:27:29 1515720449.814700: $GPGGA,012730,3946.9603,N,08404.9862,W,2,10,0.80,294.02,M,-33.324,M,,*71
2018-01-11 20:27:29 1515720449.814768: $GPRMC,012730,A,3946.9603,N,08404.9862,W,0.0000,0.000,120118,,*3A
2018-01-11 20:27:29 1515720449.814830: $GPGSA,A,3,7,8,9,11,16,23,27,28,30,138,,,4.0,0.8,3.5*3E
2018-01-11 20:27:30 1515720450.440174: $GPZDA,012731.00,12,01,2018,00,00*69
2018-01-11 20:27:30 1515720450.440364: $GPGGA,012731,3946.9603,N,08404.9862,W,2,10,0.80,294.02,M,-33.324,M,,*70
2018-01-11 20:27:30 1515720450.440434: $GPRMC,012731,A,3946.9603,N,08404.9862,W,0.0000,0.000,120118,,*3B
2018-01-11 20:27:30 1515720450.440495: $GPGSA,A,3,7,8,9,11,16,23,27,28,30,138,,,4.0,0.8,3.5*3E
2018-01-11 20:27:31 1515720451.366000: $GPZDA,012732.00,12,01,2018,00,00*6A
2018-01-11 20:27:31 1515720451.366152: $GPGGA,012732,3946.9603,N,08404.9862,W,2,10,0.80,294.02,M,-33.324,M,,*73
2018-01-11 20:27:31 1515720451.366222: $GPRMC,012732,A,3946.9603,N,08404.9862,W,0.0000,0.000,120118,,*38
2018-01-11 20:27:31 1515720451.366282: $GPGSA,A,3,7,8,9,11,16,23,27,28,30,138,,,4.0,0.8,3.5*3E
2018-01-11 20:27:32 1515720452.693971: $GPGSV,3,1,11,07,62,316,43,08,75,100,46,09,42,222,41,11,26,165,44*7C
2018-01-11 20:27:32 1515720452.694153: $GPGSV,3,2,11,16,18,064,36,23,22,187,47,27,41,048,49,28,19,264,37*7A
2018-01-11 20:27:32 1515720452.694222: $GPGSV,3,3,11,30,35,309,35,01,04,160,00,138,38,213,45*72
2018-01-11 20:27:32 1515720452.807317: $GPZDA,012733.00,12,01,2018,00,00*6B
2018-01-11 20:27:32 1515720452.807444: $GPGGA,012733,3946.9603,N,08404.9862,W,2,10,0.80,294.02,M,-33.324,M,,*72
2018-01-11 20:27:32 1515720452.807507: $GPRMC,012733,A,3946.9603,N,08404.9862,W,0.0000,0.000,120118,,*39
2018-01-11 20:27:32 1515720452.807568: $GPGSA,A,3,7,8,9,11,16,23,27,28,30,138,,,4.0,0.8,3.5*3E
2018-01-11 20:27:33 1515720453.364435: $GPZDA,012734.00,12,01,2018,00,00*6C
2018-01-11 20:27:33 1515720453.364583: $GPGGA,012734,3946.9603,N,08404.9862,W,2,10,0.80,294.02,M,-33.324,M,,*75
2018-01-11 20:27:33 1515720453.364649: $GPRMC,012734,A,3946.9603,N,08404.9862,W,0.0000,0.000,120118,,*3E
2018-01-11 20:27:33 1515720453.364709: $GPGSA,A,3,7,8,9,11,16,23,27,28,30,138,,,4.0,0.8,3.5*3E
2018-01-11 20:27:34 1515720454.364088: $GPZDA,012735.00,12,01,2018,00,00*6D
2018-01-11 20:27:34 1515720454.364256: $GPGGA,012735,3946.9603,N,08404.9862,W,2,10,0.80,294.02,M,-33.324,M,,*74
2018-01-11 20:27:34 1515720454.364327: $GPRMC,012735,A,3946.9603,N,08404.9862,W,0.0000,0.000,120118,,*3F
2018-01-11 20:27:34 1515720454.364388: $GPGSA,A,3,7,8,9,11,16,23,27,28,30,138,,,4.0,0.8,3.5*3E
