2017-12-01 13:50:24 1512154224.476858: {"class":"VERSION","release":"3.16","rev":"3.16-4","proto_major":3,"proto_minor":11}
2017-12-01 13:50:24 1512154224.477278: {"class":"DEVICES","devices":[{"class":"DEVICE","path":"/dev/ttyUSB0","driver":"SiRF","subtype":"9\u0006GSD4e_4.1.2-P1_RPATCH.05-F-GPS-4R-1510281 11/03/2015 307","activated":"2017-12-01T18:50:24.410Z","flags":1,"native":1,"bps":4800,"parity":"N","stopbits":1,"cycle":1.00}]}
2017-12-01 13:50:24 1512154224.477402: {"class":"WATCH","enable":true,"json":false,"nmea":true,"raw":0,"scaled":false,"timing":false,"split24":false,"pps":false}
2017-12-01 13:50:25 1512154225.368462: $GPZDA,185026.00,01,12,2017,00,00*68
2017-12-01 13:50:25 1512154225.368646: $GPGGA,185026,3946.9579,N,08404.9834,W,2,11,0.80,302.57,M,-33.324,M,,*7C
2017-12-01 13:50:25 1512154225.368715: $GPRMC,185026,A,3946.9579,N,08404.9834,W,0.0000,0.000,011217,,*37
2017-12-01 13:50:25 1512154225.368778: $GPGSA,A,3,10,14,15,18,20,21,24,27,32,8,138,,2.0,0.8,1.5*34
2017-12-01 13:50:26 1512154226.677940: $GPGSV,3,1,11,10,56,315,48,14,17,243,38,15,23,058,47,18,77,040,43*7E
2017-12-01 13:50:26 1512154226.678138: $GPGSV,3,2,11,20,20,109,42,21,44,181,44,24,52,079,47,27,14,273,36*72
2017-12-01 13:50:26 1512154226.678207: $GPGSV,3,3,11,32,35,250,40,08,08,307,31,138,38,213,46*78
2017-12-01 13:50:26 1512154226.791981: $GPZDA,185027.00,01,12,2017,00,00*69
2017-12-01 13:50:26 1512154226.792185: $GPGGA,185027,3946.9579,N,08404.9834,W,2,11,0.80,302.57,M,-33.324,M,,*7D
2017-12-01 13:50:26 1512154226.792257: $GPRMC,185027,A,3946.9579,N,08404.9834,W,0.0000,0.000,011217,,*36
2017-12-01 13:50:26 1512154226.792319: $GPGSA,A,3,10,14,15,18,20,21,24,27,32,8,138,,2.0,0.8,1.5*34
2017-12-01 13:50:27 1512154227.372565: $GPZDA,185028.00,01,12,2017,00,00*66
2017-12-01 13:50:27 1512154227.372732: $GPGGA,185028,3946.9579,N,08404.9834,W,2,11,0.80,302.57,M,-33.324,M,,*72
2017-12-01 13:50:27 1512154227.372800: $GPRMC,185028,A,3946.9579,N,08404.9834,W,0.0000,0.000,011217,,*39
2017-12-01 13:50:27 1512154227.372861: $GPGSA,A,3,10,14,15,18,20,21,24,27,32,8,138,,2.0,0.8,1.5*34
2017-12-01 13:50:28 1512154228.371687: $GPZDA,185029.00,01,12,2017,00,00*67
2017-12-01 13:50:28 1512154228.371863: $GPGGA,185029,3946.9579,N,08404.9834,W,2,11,0.80,302.57,M,-33.324,M,,*73
2017-12-01 13:50:28 1512154228.371999: $GPRMC,185029,A,3946.9579,N,08404.9834,W,0.0000,0.000,011217,,*38
2017-12-01 13:50:28 1512154228.372065: $GPGSA,A,3,10,14,15,18,20,21,24,27,32,8,138,,2.0,0.8,1.5*34
2017-12-01 13:50:29 1512154229.707375: $GPGSV,3,1,11,10,56,315,48,14,17,243,37,15,23,058,47,18,77,040,43*71
2017-12-01 13:50:29 1512154229.707589: $GPGSV,3,2,11,20,20,109,42,21,44,181,44,24,52,079,47,27,14,273,37*73
2017-12-01 13:50:29 1512154229.707665: $GPGSV,3,3,11,32,35,250,40,08,08,307,32,138,38,213,46*7B
2017-12-01 13:50:29 1512154229.820532: $GPZDA,185030.00,01,12,2017,00,00*6F
2017-12-01 13:50:29 1512154229.820705: $GPGGA,185030,3946.9579,N,08404.9834,W,2,11,0.80,302.57,M,-33.324,M,,*7B
2017-12-01 13:50:29 1512154229.820773: $GPRMC,185030,A,3946.9579,N,08404.9834,W,0.0000,0.000,011217,,*30
2017-12-01 13:50:29 1512154229.820834: $GPGSA,A,3,10,14,15,18,20,21,24,27,32,8,138,,2.0,0.8,1.5*34
2017-12-01 13:50:30 1512154230.366330: $GPZDA,185031.00,01,12,2017,00,00*6E
2017-12-01 13:50:30 1512154230.366503: $GPGGA,185031,3946.9579,N,08404.9834,W,2,11,0.80,302.57,M,-33.324,M,,*7A
2017-12-01 13:50:30 1512154230.366569: $GPRMC,185031,A,3946.9579,N,08404.9834,W,0.0000,0.000,011217,,*31
2017-12-01 13:50:30 1512154230.366632: $GPGSA,A,3,10,14,15,18,20,21,24,27,32,8,138,,2.0,0.8,1.5*34
2017-12-01 13:50:31 1512154231.347219: $GPZDA,185032.00,01,12,2017,00,00*6D
2017-12-01 13:50:31 1512154231.347399: $GPGGA,185032,3946.9579,N,08404.9834,W,2,11,0.80,302.57,M,-33.324,M,,*79
2017-12-01 13:50:31 1512154231.347469: $GPRMC,185032,A,3946.9579,N,08404.9834,W,0.0000,0.000,011217,,*32
2017-12-01 13:50:31 1512154231.347530: $GPGSA,A,3,10,14,15,18,20,21,24,27,32,8,138,,2.0,0.8,1.5*34
2017-12-01 13:50:32 1512154232.680427: $GPGSV,3,1,11,10,56,315,48,14,17,243,38,15,23,058,47,18,77,040,43*7E
2017-12-01 13:50:32 1512154232.680666: $GPGSV,3,2,11,20,20,109,42,21,44,181,44,24,52,079,47,27,14,273,37*73
2017-12-01 13:50:32 1512154232.680735: $GPGSV,3,3,11,32,35,250,40,08,08,307,32,138,38,213,47*7A
2017-12-01 13:50:32 1512154232.794108: $GPZDA,185033.00,01,12,2017,00,00*6C
2017-12-01 13:50:32 1512154232.794255: $GPGGA,185033,3946.9579,N,08404.9834,W,2,11,0.80,302.57,M,-33.324,M,,*78
2017-12-01 13:50:32 1512154232.794322: $GPRMC,185033,A,3946.9579,N,08404.9834,W,0.0000,0.000,011217,,*33
2017-12-01 13:50:32 1512154232.794384: $GPGSA,A,3,10,14,15,18,20,21,24,27,32,8,138,,2.0,0.8,1.5*34
2017-12-01 13:50:33 1512154233.419623: $GPZDA,185034.00,01,12,2017,00,00*6B
2017-12-01 13:50:33 1512154233.419793: $GPGGA,185034,3946.9579,N,08404.9834,W,2,11,0.80,302.57,M,-33.324,M,,*7F
2017-12-01 13:50:33 1512154233.419861: $GPRMC,185034,A,3946.9579,N,08404.9834,W,0.0000,0.000,011217,,*34
2017-12-01 13:50:33 1512154233.419922: $GPGSA,A,3,10,14,15,18,20,21,24,27,32,8,138,,2.0,0.8,1.5*34
2017-12-01 13:50:34 1512154234.345422: $GPZDA,185035.00,01,12,2017,00,00*6A
2017-12-01 13:50:34 1512154234.345595: $GPGGA,185035,3946.9579,N,08404.9834,W,2,11,0.80,302.57,M,-33.324,M,,*7E
2017-12-01 13:50:34 1512154234.345661: $GPRMC,185035,A,3946.9579,N,08404.9834,W,0.0000,0.000,011217,,*35
2017-12-01 13:50:34 1512154234.345724: $GPGSA,A,3,10,14,15,18,20,21,24,27,32,8,138,,2.0,0.8,1.5*34
