2017-12-01 14:19:03 1512155943.156944: {"class":"VERSION","release":"3.16","rev":"3.16-4","proto_major":3,"proto_minor":11}
2017-12-01 14:19:03 1512155943.157409: {"class":"DEVICES","devices":[{"class":"DEVICE","path":"/dev/ttyUSB0","driver":"SiRF","subtype":"9\u0006GSD4e_4.1.2-P1_RPATCH.05-F-GPS-4R-1510281 11/03/2015 307","activated":"2017-12-01T19:19:02.529Z","flags":1,"native":1,"bps":4800,"parity":"N","stopbits":1,"cycle":1.00}]}
2017-12-01 14:19:03 1512155943.157526: {"class":"WATCH","enable":true,"json":false,"nmea":true,"raw":0,"scaled":false,"timing":false,"split24":false,"pps":false}
2017-12-01 14:19:03 1512155943.391322: $GPZDA,191904.00,01,12,2017,00,00*64
2017-12-01 14:19:03 1512155943.391714: $GPGGA,191904,3946.9562,N,08404.9851,W,2,12,1.00,306.24,M,-33.324,M,,*73
2017-12-01 14:19:03 1512155943.391897: $GPRMC,191904,A,3946.9562,N,08404.9851,W,0.0000,0.000,011217,,*32
2017-12-01 14:19:03 1512155943.392007: $GPGSA,A,3,10,14,15,18,21,24,27,32,8,12,20,138,2.0,1.0,1.5*3E
2017-12-01 14:19:04 1512155944.694582: $GPGSV,3,1,12,10,67,328,48,14,27,252,40,15,13,066,28,18,72,088,45*7D
2017-12-01 14:19:04 1512155944.694758: $GPGSV,3,2,12,21,31,180,45,24,46,061,49,27,08,262,34,32,44,262,46*75
2017-12-01 14:19:04 1512155944.694825: $GPGSV,3,3,12,08,06,295,12,12,08,109,22,20,11,117,25,138,38,213,46*4B
2017-12-01 14:19:04 1512155944.808213: $GPZDA,191905.00,01,12,2017,00,00*65
2017-12-01 14:19:04 1512155944.808379: $GPGGA,191905,3946.9562,N,08404.9851,W,2,12,0.80,306.24,M,-33.324,M,,*7B
2017-12-01 14:19:04 1512155944.808445: $GPRMC,191905,A,3946.9562,N,08404.9851,W,0.0000,0.000,011217,,*33
2017-12-01 14:19:04 1512155944.808506: $GPGSA,A,3,10,14,15,18,21,24,27,32,8,12,20,138,2.0,0.8,1.5*37
2017-12-01 14:19:05 1512155945.433593: $GPZDA,191906.00,01,12,2017,00,00*66
2017-12-01 14:19:05 1512155945.433767: $GPGGA,191906,3946.9562,N,08404.9851,W,2,12,0.80,306.24,M,-33.324,M,,*78
2017-12-01 14:19:05 1512155945.433856: $GPRMC,191906,A,3946.9562,N,08404.9851,W,0.0000,0.000,011217,,*30
2017-12-01 14:19:05 1512155945.433938: $GPGSA,A,3,10,14,15,18,21,24,27,32,8,12,20,138,2.0,0.8,1.5*37
2017-12-01 14:19:06 1512155946.389604: $GPZDA,191907.00,01,12,2017,00,00*67
2017-12-01 14:19:06 1512155946.389775: $GPGGA,191907,3946.9562,N,08404.9851,W,2,12,0.80,306.24,M,-33.324,M,,*79
2017-12-01 14:19:06 1512155946.389865: $GPRMC,191907,A,3946.9562,N,08404.9851,W,0.0000,0.000,011217,,*31
2017-12-01 14:19:06 1512155946.389928: $GPGSA,A,3,10,14,15,18,21,24,27,32,8,12,20,138,2.0,0.8,1.5*37
2017-12-01 14:19:07 1512155947.726173: $GPGSV,3,1,12,10,67,328,48,14,27,252,39,15,13,066,28,18,72,088,45*73
2017-12-01 14:19:07 1512155947.726363: $GPGSV,3,2,12,21,31,180,45,24,46,061,49,27,08,262,34,32,44,262,46*75
2017-12-01 14:19:07 1512155947.726429: $GPGSV,3,3,12,08,06,295,22,12,08,109,22,20,11,117,26,138,38,213,46*4B
2017-12-01 14:19:07 1512155947.839578: $GPZDA,191908.00,01,12,2017,00,00*68
2017-12-01 14:19:07 1512155947.839736: $GPGGA,191908,3946.9562,N,08404.9851,W,2,12,0.80,306.24,M,-33.324,M,,*76
2017-12-01 14:19:07 1512155947.839801: $GPRMC,191908,A,3946.9562,N,08404.9851,W,0.0000,0.000,011217,,*3E
2017-12-01 14:19:07 1512155947.839883: $GPGSA,A,3,10,14,15,18,21,24,27,32,8,12,20,138,2.0,0.8,1.5*37
2017-12-01 14:19:08 1512155948.389261: $GPZDA,191909.00,01,12,2017,00,00*69
2017-12-01 14:19:08 1512155948.389418: $GPGGA,191909,3946.9562,N,08404.9851,W,2,12,0.80,306.24,M,-33.324,M,,*77
2017-12-01 14:19:08 1512155948.389486: $GPRMC,191909,A,3946.9562,N,08404.9851,W,0.0000,0.000,011217,,*3F
2017-12-01 14:19:08 1512155948.389547: $GPGSA,A,3,10,14,15,18,21,24,27,32,8,12,20,138,2.0,0.8,1.5*37
2017-12-01 14:19:09 1512155949.358860: $GPZDA,191910.00,01,12,2017,00,00*61
2017-12-01 14:19:09 1512155949.359043: $GPGGA,191910,3946.9562,N,08404.9851,W,2,12,0.80,306.24,M,-33.324,M,,*7F
2017-12-01 14:19:09 1512155949.359111: $GPRMC,191910,A,3946.9562,N,08404.9851,W,0.0000,0.000,011217,,*37
2017-12-01 14:19:09 1512155949.359171: $GPGSA,A,3,10,14,15,18,21,24,27,32,8,12,20,138,2.0,0.8,1.5*37
2017-12-01 14:19:10 1512155950.692783: $GPGSV,3,1,12,10,67,328,48,14,27,252,38,15,13,066,23,18,72,088,44*78
2017-12-01 14:19:10 1512155950.693047: $GPGSV,3,2,12,21,31,180,45,24,46,061,48,27,08,262,34,32,44,262,46*74
2017-12-01 14:19:10 1512155950.693118: $GPGSV,3,3,12,08,06,295,26,12,08,109,23,20,11,117,25,138,38,213,46*4D
2017-12-01 14:19:10 1512155950.806189: $GPZDA,191911.00,01,12,2017,00,00*60
2017-12-01 14:19:10 1512155950.806351: $GPGGA,191911,3946.9562,N,08404.9851,W,2,12,0.80,306.24,M,-33.324,M,,*7E
2017-12-01 14:19:10 1512155950.806416: $GPRMC,191911,A,3946.9562,N,08404.9851,W,0.0000,0.000,011217,,*36
2017-12-01 14:19:10 1512155950.806477: $GPGSA,A,3,10,14,15,18,21,24,27,32,8,12,20,138,2.0,0.8,1.5*37
2017-12-01 14:19:11 1512155951.359543: $GPZDA,191912.00,01,12,2017,00,00*63
2017-12-01 14:19:11 1512155951.359777: $GPGGA,191912,3946.9562,N,08404.9851,W,2,12,0.80,306.24,M,-33.324,M,,*7D
2017-12-01 14:19:11 1512155951.359872: $GPRMC,191912,A,3946.9562,N,08404.9851,W,0.0000,0.000,011217,,*35
2017-12-01 14:19:11 1512155951.359950: $GPGSA,A,3,10,14,15,18,21,24,27,32,8,12,20,138,2.0,0.8,1.5*37
2017-12-01 14:19:12 1512155952.360522: $GPZDA,191913.00,01,12,2017,00,00*62
2017-12-01 14:19:12 1512155952.360715: $GPGGA,191913,3946.9562,N,08404.9851,W,2,12,0.80,306.24,M,-33.324,M,,*7C
2017-12-01 14:19:12 1512155952.360784: $GPRMC,191913,A,3946.9562,N,08404.9851,W,0.0000,0.000,011217,,*34
2017-12-01 14:19:12 1512155952.360849: $GPGSA,A,3,10,14,15,18,21,24,27,32,8,12,20,138,2.0,0.8,1.5*37
2017-12-01 14:19:13 1512155953.694937: $GPGSV,3,1,12,10,67,328,48,14,27,252,38,15,13,066,23,18,72,088,44*78
2017-12-01 14:19:13 1512155953.695124: $GPGSV,3,2,12,21,31,180,44,24,46,061,49,27,08,262,34,32,44,262,46*74
2017-12-01 14:19:13 1512155953.695191: $GPGSV,3,3,12,08,06,295,34,12,08,109,23,20,11,117,25,138,38,213,46*4E
2017-12-01 14:19:13 1512155953.806977: $GPZDA,191914.00,01,12,2017,00,00*65
2017-12-01 14:19:13 1512155953.807115: $GPGGA,191914,3946.9562,N,08404.9851,W,2,12,0.80,306.24,M,-33.324,M,,*7B
2017-12-01 14:19:13 1512155953.807184: $GPRMC,191914,A,3946.9562,N,08404.9851,W,0.0000,0.000,011217,,*33
2017-12-01 14:19:13 1512155953.807245: $GPGSA,A,3,10,14,15,18,21,24,27,32,8,12,20,138,2.0,0.8,1.5*37
2017-12-01 14:19:14 1512155954.356898: $GPZDA,191915.00,01,12,2017,00,00*64
2017-12-01 14:19:14 1512155954.357066: $GPGGA,191915,3946.9562,N,08404.9851,W,2,12,0.80,306.24,M,-33.324,M,,*7A
2017-12-01 14:19:14 1512155954.357134: $GPRMC,191915,A,3946.9562,N,08404.9851,W,0.0000,0.000,011217,,*32
2017-12-01 14:19:14 1512155954.357196: $GPGSA,A,3,10,14,15,18,21,24,27,32,8,12,20,138,2.0,0.8,1.5*37
2017-12-01 14:19:15 1512155955.363626: $GPZDA,191916.00,01,12,2017,00,00*67
2017-12-01 14:19:15 1512155955.363800: $GPGGA,191916,3946.9562,N,08404.9851,W,2,12,0.80,306.24,M,-33.324,M,,*79
2017-12-01 14:19:15 1512155955.363869: $GPRMC,191916,A,3946.9562,N,08404.9851,W,0.0000,0.000,011217,,*31
2017-12-01 14:19:15 1512155955.363934: $GPGSA,A,3,10,14,15,18,21,24,27,32,8,12,20,138,2.0,0.8,1.5*37
2017-12-01 14:19:16 1512155956.700320: $GPGSV,3,1,12,10,67,328,48,14,27,252,39,15,13,066,16,18,72,088,44*7F
2017-12-01 14:19:16 1512155956.700478: $GPGSV,3,2,12,21,31,180,44,24,46,061,49,27,08,262,27,32,44,262,45*75
2017-12-01 14:19:16 1512155956.700546: $GPGSV,3,3,12,08,06,295,35,12,08,109,24,20,11,117,25,138,38,213,47*49
2017-12-01 14:19:16 1512155956.813974: $GPZDA,191917.00,01,12,2017,00,00*66
2017-12-01 14:19:16 1512155956.814151: $GPGGA,191917,3946.9562,N,08404.9851,W,2,12,0.80,306.24,M,-33.324,M,,*78
2017-12-01 14:19:16 1512155956.814219: $GPRMC,191917,A,3946.9562,N,08404.9851,W,0.0000,0.000,011217,,*30
2017-12-01 14:19:16 1512155956.814279: $GPGSA,A,3,10,14,15,18,21,24,27,32,8,12,20,138,2.0,0.8,1.5*37
2017-12-01 14:19:17 1512155957.363265: $GPZDA,191918.00,01,12,2017,00,00*69
2017-12-01 14:19:17 1512155957.363442: $GPGGA,191918,3946.9562,N,08404.9851,W,2,12,0.80,306.24,M,-33.324,M,,*77
2017-12-01 14:19:17 1512155957.363531: $GPRMC,191918,A,3946.9562,N,08404.9851,W,0.0000,0.000,011217,,*3F
2017-12-01 14:19:17 1512155957.363614: $GPGSA,A,3,10,14,15,18,21,24,27,32,8,12,20,138,2.0,0.8,1.5*37
2017-12-01 14:19:18 1512155958.363269: $GPZDA,191919.00,01,12,2017,00,00*68
2017-12-01 14:19:18 1512155958.363449: $GPGGA,191919,3946.9562,N,08404.9851,W,2,12,0.80,306.24,M,-33.324,M,,*76
2017-12-01 14:19:18 1512155958.363516: $GPRMC,191919,A,3946.9562,N,08404.9851,W,0.0000,0.000,011217,,*3E
2017-12-01 14:19:18 1512155958.363577: $GPGSA,A,3,10,14,15,18,21,24,27,32,8,12,20,138,2.0,0.8,1.5*37
2017-12-01 14:19:19 1512155959.699910: $GPGSV,3,1,12,10,67,328,48,14,27,252,39,15,13,066,18,18,72,088,44*71
2017-12-01 14:19:19 1512155959.700094: $GPGSV,3,2,12,21,31,180,44,24,46,061,49,27,08,262,28,32,44,262,45*7A
2017-12-01 14:19:19 1512155959.700161: $GPGSV,3,3,12,08,06,295,26,12,08,109,24,20,11,117,25,138,38,213,46*4A
2017-12-01 14:19:19 1512155959.813339: $GPZDA,191920.00,01,12,2017,00,00*62
2017-12-01 14:19:19 1512155959.813486: $GPGGA,191920,3946.9562,N,08404.9851,W,2,12,0.80,306.24,M,-33.324,M,,*7C
2017-12-01 14:19:19 1512155959.813551: $GPRMC,191920,A,3946.9562,N,08404.9851,W,0.0000,0.000,011217,,*34
2017-12-01 14:19:19 1512155959.813612: $GPGSA,A,3,10,14,15,18,21,24,27,32,8,12,20,138,2.0,0.8,1.5*37
2017-12-01 14:19:20 1512155960.438955: $GPZDA,191921.00,01,12,2017,00,00*63
2017-12-01 14:19:20 1512155960.439121: $GPGGA,191921,3946.9562,N,08404.9851,W,2,12,0.80,306.24,M,-33.324,M,,*7D
2017-12-01 14:19:20 1512155960.439189: $GPRMC,191921,A,3946.9562,N,08404.9851,W,0.0000,0.000,011217,,*35
2017-12-01 14:19:20 1512155960.439250: $GPGSA,A,3,10,14,15,18,21,24,27,32,8,12,20,138,2.0,0.8,1.5*37
2017-12-01 14:19:21 1512155961.363538: $GPZDA,191922.00,01,12,2017,00,00*60
2017-12-01 14:19:21 1512155961.363710: $GPGGA,191922,3946.9562,N,08404.9851,W,2,12,0.80,306.24,M,-33.324,M,,*7E
2017-12-01 14:19:21 1512155961.363776: $GPRMC,191922,A,3946.9562,N,08404.9851,W,0.0000,0.000,011217,,*36
2017-12-01 14:19:21 1512155961.363837: $GPGSA,A,3,10,14,15,18,21,24,27,32,8,12,20,138,2.0,0.8,1.5*37
2017-12-01 14:19:22 1512155962.698963: $GPGSV,3,1,12,10,67,328,48,14,27,252,39,15,13,066,18,18,72,088,44*71
2017-12-01 14:19:22 1512155962.699131: $GPGSV,3,2,12,21,31,180,45,24,46,061,50,27,08,262,30,32,44,262,45*7A
2017-12-01 14:19:22 1512155962.699198: $GPGSV,3,3,12,08,06,295,28,12,08,109,24,20,11,117,24,138,38,213,46*45
2017-12-01 14:19:22 1512155962.812542: $GPZDA,191923.00,01,12,2017,00,00*61
2017-12-01 14:19:22 1512155962.812728: $GPGGA,191923,3946.9562,N,08404.9851,W,2,12,0.80,306.24,M,-33.324,M,,*7F
2017-12-01 14:19:22 1512155962.812795: $GPRMC,191923,A,3946.9562,N,08404.9851,W,0.0000,0.000,011217,,*37
2017-12-01 14:19:22 1512155962.812856: $GPGSA,A,3,10,14,15,18,21,24,27,32,8,12,20,138,2.0,0.8,1.5*37
