2017-11-16 15:24:08 1510863848.465708: {"class":"VERSION","release":"3.17","rev":"3.17","proto_major":3,"proto_minor":12}
2017-11-16 15:24:08 1510863848.466176: {"class":"DEVICES","devices":[{"class":"DEVICE","path":"/dev/ttyUSB0","driver":"SiRF","subtype":"9\u0006GSD4e_4.1.2-P1_RPATCH.05-F-GPS-4R-1510281 11/03/2015 307","activated":"2017-11-16T20:24:08.407Z","flags":1,"native":1,"bps":4800,"parity":"N","stopbits":1,"cycle":1.00}]}
2017-11-16 15:24:08 1510863848.466290: {"class":"WATCH","enable":true,"json":false,"nmea":true,"raw":0,"scaled":false,"timing":false,"split24":false,"pps":false}
2017-11-16 15:24:09 1510863849.385901: $GPZDA,202408.00,16,11,2017,00,00*69
2017-11-16 15:24:09 1510863849.386071: $GPGGA,202408,3946.9575,N,08404.9858,W,2,12,0.80,308.08,M,-33.324,M,,*7D
2017-11-16 15:24:09 1510863849.386133: $GPRMC,202408,A,3946.9575,N,08404.9858,W,0.0000,0.000,161117,,*30
2017-11-16 15:24:09 1510863849.386189: $GPGSA,A,3,8,10,14,15,18,20,21,24,27,32,12,138,1.6,0.8,1.3*34
2017-11-16 15:24:10 1510863850.721811: $GPGSV,3,1,12,08,06,294,37,10,68,330,51,14,28,252,46,15,12,066,30*7A
2017-11-16 15:24:10 1510863850.722006: $GPGSV,3,2,12,18,71,090,47,20,09,117,26,21,30,180,44,24,46,060,51*79
2017-11-16 15:24:10 1510863850.722065: $GPGSV,3,3,12,27,07,261,34,32,45,264,47,12,08,108,30,138,38,213,45*48
2017-11-16 15:24:10 1510863850.834972: $GPZDA,202409.00,16,11,2017,00,00*68
2017-11-16 15:24:10 1510863850.835138: $GPGGA,202409,3946.9575,N,08404.9858,W,2,12,0.80,308.08,M,-33.324,M,,*7C
2017-11-16 15:24:10 1510863850.835199: $GPRMC,202409,A,3946.9575,N,08404.9858,W,0.0000,0.000,161117,,*31
2017-11-16 15:24:10 1510863850.835254: $GPGSA,A,3,8,10,14,15,18,20,21,24,27,32,12,138,1.6,0.8,1.3*34
2017-11-16 15:24:11 1510863851.460374: $GPZDA,202410.00,16,11,2017,00,00*60
2017-11-16 15:24:11 1510863851.460540: $GPGGA,202410,3946.9575,N,08404.9858,W,2,12,0.80,308.08,M,-33.324,M,,*74
2017-11-16 15:24:11 1510863851.460602: $GPRMC,202410,A,3946.9575,N,08404.9858,W,0.0000,0.000,161117,,*39
2017-11-16 15:24:11 1510863851.460658: $GPGSA,A,3,8,10,14,15,18,20,21,24,27,32,12,138,1.6,0.8,1.3*34
2017-11-16 15:24:12 1510863852.386397: $GPZDA,202411.00,16,11,2017,00,00*61
2017-11-16 15:24:12 1510863852.386562: $GPGGA,202411,3946.9572,N,08404.9859,W,2,12,0.80,308.84,M,-33.324,M,,*77
2017-11-16 15:24:12 1510863852.386622: $GPRMC,202411,A,3946.9572,N,08404.9859,W,0.0000,0.000,161117,,*3E
2017-11-16 15:24:12 1510863852.386678: $GPGSA,A,3,8,10,14,15,18,20,21,24,27,32,12,138,1.6,0.8,1.3*34
2017-11-16 15:24:13 1510863853.724532: $GPGSV,3,1,12,08,06,294,38,10,68,330,51,14,28,252,46,15,12,066,30*75
2017-11-16 15:24:13 1510863853.724708: $GPGSV,3,2,12,18,71,090,47,20,09,117,26,21,30,180,44,24,46,060,51*79
2017-11-16 15:24:13 1510863853.724768: $GPGSV,3,3,12,27,07,261,34,32,45,264,47,12,08,108,30,138,38,213,44*49
2017-11-16 15:24:13 1510863853.838151: $GPZDA,202412.00,16,11,2017,00,00*62
2017-11-16 15:24:13 1510863853.838305: $GPGGA,202412,3946.9572,N,08404.9859,W,2,12,0.80,308.84,M,-33.324,M,,*74
2017-11-16 15:24:13 1510863853.838365: $GPRMC,202412,A,3946.9572,N,08404.9859,W,0.0000,0.000,161117,,*3D
2017-11-16 15:24:13 1510863853.838420: $GPGSA,A,3,8,10,14,15,18,20,21,24,27,32,12,138,1.6,0.8,1.3*34
2017-11-16 15:24:14 1510863854.380346: $GPZDA,202413.00,16,11,2017,00,00*63
2017-11-16 15:24:14 1510863854.380517: $GPGGA,202413,3946.9572,N,08404.9859,W,2,12,0.80,308.84,M,-33.324,M,,*75
2017-11-16 15:24:14 1510863854.380577: $GPRMC,202413,A,3946.9572,N,08404.9859,W,0.0000,0.000,161117,,*3C
2017-11-16 15:24:14 1510863854.380633: $GPGSA,A,3,8,10,14,15,18,20,21,24,27,32,12,138,1.6,0.8,1.3*34
2017-11-16 15:24:15 1510863855.385880: $GPZDA,202414.00,16,11,2017,00,00*64
2017-11-16 15:24:15 1510863855.386065: $GPGGA,202414,3946.9572,N,08404.9859,W,2,12,0.80,308.84,M,-33.324,M,,*72
2017-11-16 15:24:15 1510863855.386127: $GPRMC,202414,A,3946.9572,N,08404.9859,W,0.0000,0.000,161117,,*3B
2017-11-16 15:24:15 1510863855.386183: $GPGSA,A,3,8,10,14,15,18,20,21,24,27,32,12,138,1.6,0.8,1.3*34
2017-11-16 15:24:16 1510863856.704828: $GPGSV,3,1,12,08,06,294,38,10,68,330,51,14,28,252,46,15,12,066,27*73
2017-11-16 15:24:16 1510863856.705049: $GPGSV,3,2,12,18,71,090,47,20,09,117,27,21,30,180,43,24,46,060,51*7F
2017-11-16 15:24:16 1510863856.705112: $GPGSV,3,3,12,27,07,261,33,32,45,264,47,12,08,108,30,138,38,213,44*4E
2017-11-16 15:24:16 1510863856.818118: $GPZDA,202415.00,16,11,2017,00,00*65
2017-11-16 15:24:16 1510863856.818287: $GPGGA,202415,3946.9572,N,08404.9859,W,2,12,0.80,308.84,M,-33.324,M,,*73
2017-11-16 15:24:16 1510863856.818348: $GPRMC,202415,A,3946.9572,N,08404.9859,W,0.0000,0.000,161117,,*3A
2017-11-16 15:24:16 1510863856.818404: $GPGSA,A,3,8,10,14,15,18,20,21,24,27,32,12,138,1.6,0.8,1.3*34
2017-11-16 15:24:17 1510863857.370935: $GPZDA,202416.00,16,11,2017,00,00*66
2017-11-16 15:24:17 1510863857.371107: $GPGGA,202416,3946.9572,N,08404.9859,W,2,12,0.80,308.84,M,-33.324,M,,*70
2017-11-16 15:24:17 1510863857.371167: $GPRMC,202416,A,3946.9572,N,08404.9859,W,0.0000,0.000,161117,,*39
2017-11-16 15:24:17 1510863857.371241: $GPGSA,A,3,8,10,14,15,18,20,21,24,27,32,12,138,1.6,0.8,1.3*34
2017-11-16 15:24:18 1510863858.368541: $GPZDA,202417.00,16,11,2017,00,00*67
2017-11-16 15:24:18 1510863858.368696: $GPGGA,202417,3946.9572,N,08404.9859,W,2,12,0.80,308.84,M,-33.324,M,,*71
2017-11-16 15:24:18 1510863858.368756: $GPRMC,202417,A,3946.9572,N,08404.9859,W,0.0000,0.000,161117,,*38
2017-11-16 15:24:18 1510863858.368811: $GPGSA,A,3,8,10,14,15,18,20,21,24,27,32,12,138,1.6,0.8,1.3*34
