2017-11-15 18:31:02 1510788662.234490: {"class":"VERSION","release":"3.17","rev":"3.17","proto_major":3,"proto_minor":12}
2017-11-15 18:31:02 1510788662.234964: {"class":"DEVICES","devices":[{"class":"DEVICE","path":"/dev/ttyUSB0","driver":"SiRF","subtype":"9\u0006GSD4e_4.1.2-P1_RPATCH.05-F-GPS-4R-1510281 11/03/2015 307","activated":"2017-11-15T23:31:02.184Z","flags":1,"native":1,"bps":4800,"parity":"N","stopbits":1,"cycle":1.00}]}
2017-11-15 18:31:02 1510788662.235089: {"class":"WATCH","enable":true,"json":false,"nmea":true,"raw":0,"scaled":false,"timing":false,"split24":false,"pps":false}
2017-11-15 18:31:02 1510788662.362683: $GPZDA,233101.00,15,11,2017,00,00*64
2017-11-15 18:31:02 1510788662.362915: $GPGGA,233101,3946.9583,N,08404.9457,W,1,05,1.20,284.37,M,-33.324,M,,*7E
2017-11-15 18:31:02 1510788662.362979: $GPRMC,233101,A,3946.9583,N,08404.9457,W,0.8359,148.778,151117,,*35
2017-11-15 18:31:02 1510788662.363035: $GPGSA,A,3,14,26,31,32,1,,,,,,,,3.4,1.2,2.9*0E
2017-11-15 18:31:03 1510788663.663549: $GPGSV,3,1,10,25,36,057,12,14,69,037,09,10,22,156,14,26,25,178,10*74
2017-11-15 18:31:03 1510788663.663722: $GPGSV,3,2,10,31,77,276,23,32,56,078,10,01,19,276,17,22,39,303,11*73
2017-11-15 18:31:03 1510788663.663782: $GPGSV,3,3,10,03,20,315,00,12,07,033,00*7A
2017-11-15 18:31:03 1510788663.777158: $GPZDA,233102.00,15,11,2017,00,00*67
2017-11-15 18:31:03 1510788663.777329: $GPGGA,233102,3946.9575,N,08404.9451,W,1,06,1.20,284.57,M,-33.324,M,,*77
2017-11-15 18:31:03 1510788663.777390: $GPRMC,233102,A,3946.9575,N,08404.9451,W,1.4068,140.672,151117,,*36
2017-11-15 18:31:03 1510788663.777446: $GPGSA,A,3,25,26,31,32,1,22,,,,,,,3.4,1.2,2.9*0C
2017-11-15 18:31:04 1510788664.327819: $GPZDA,233103.00,15,11,2017,00,00*66
2017-11-15 18:31:04 1510788664.327980: $GPGGA,233103,3946.9568,N,08404.9451,W,1,06,1.20,284.69,M,-33.324,M,,*77
2017-11-15 18:31:04 1510788664.328042: $GPRMC,233103,A,3946.9568,N,08404.9451,W,1.7180,158.671,151117,,*35
2017-11-15 18:31:04 1510788664.328097: $GPGSA,A,3,25,26,31,32,1,22,,,,,,,3.4,1.2,2.9*0C
2017-11-15 18:31:05 1510788665.362355: $GPZDA,233104.00,15,11,2017,00,00*61
2017-11-15 18:31:05 1510788665.362516: $GPGGA,233104,3946.9560,N,08404.9445,W,1,06,1.20,284.90,M,-33.324,M,,*7B
2017-11-15 18:31:05 1510788665.362578: $GPRMC,233104,A,3946.9560,N,08404.9445,W,2.3036,158.575,151117,,*33
2017-11-15 18:31:05 1510788665.362633: $GPGSA,A,3,25,26,31,32,1,22,,,,,,,3.4,1.2,2.9*0C
2017-11-15 18:31:06 1510788666.663845: $GPGSV,3,1,10,25,36,057,11,14,69,037,05,10,22,156,00,26,25,178,09*76
2017-11-15 18:31:06 1510788666.664020: $GPGSV,3,2,10,31,77,276,23,32,56,078,10,01,19,276,17,22,39,303,11*73
2017-11-15 18:31:06 1510788666.664080: $GPGSV,3,3,10,03,20,315,00,12,07,033,00*7A
2017-11-15 18:31:06 1510788666.777624: $GPZDA,233105.00,15,11,2017,00,00*60
2017-11-15 18:31:06 1510788666.777949: $GPGGA,233105,3946.9555,N,08404.9438,W,1,06,1.20,284.34,M,-33.324,M,,*78
2017-11-15 18:31:06 1510788666.778036: $GPRMC,233105,A,3946.9555,N,08404.9438,W,2.5455,155.437,151117,,*33
2017-11-15 18:31:06 1510788666.778177: $GPGSA,A,3,25,26,31,32,1,22,,,,,,,3.4,1.2,2.9*0C
2017-11-15 18:31:07 1510788667.361854: $GPZDA,233106.00,15,11,2017,00,00*63
2017-11-15 18:31:07 1510788667.362017: $GPGGA,233106,3946.9543,N,08404.9432,W,1,06,1.20,283.90,M,-33.324,M,,*7F
2017-11-15 18:31:07 1510788667.362078: $GPRMC,233106,A,3946.9543,N,08404.9432,W,2.4168,153.373,151117,,*36
2017-11-15 18:31:07 1510788667.362134: $GPGSA,A,3,25,26,31,32,1,22,,,,,,,3.4,1.2,2.9*0C
2017-11-15 18:31:08 1510788668.328271: $GPZDA,233107.00,15,11,2017,00,00*62
2017-11-15 18:31:08 1510788668.328459: $GPGGA,233107,3946.9535,N,08404.9426,W,1,06,7.60,284.11,M,-33.324,M,,*76
2017-11-15 18:31:08 1510788668.332398: $GPRMC,233107,A,3946.9535,N,08404.9426,W,2.5480,148.671,151117,,*3C
2017-11-15 18:31:08 1510788668.332472: $GPGSA,A,3,25,26,31,32,1,22,,,,,,,3.4,7.6,2.9*0E
2017-11-15 18:31:09 1510788669.698456: $GPGSV,3,1,10,25,36,057,13,14,69,037,08,10,22,156,00,26,25,178,07*77
2017-11-15 18:31:09 1510788669.698645: $GPGSV,3,2,10,31,77,276,22,32,56,078,11,01,19,276,17,22,39,303,11*73
2017-11-15 18:31:09 1510788669.698758: $GPGSV,3,3,10,03,20,315,00,12,07,033,00*7A
2017-11-15 18:31:09 1510788669.810592: $GPZDA,233108.00,15,11,2017,00,00*6D
2017-11-15 18:31:09 1510788669.810790: $GPGGA,233108,3946.9528,N,08404.9427,W,1,07,5.00,284.23,M,-33.324,M,,*70
2017-11-15 18:31:09 1510788669.810852: $GPRMC,233108,A,3946.9528,N,08404.9427,W,1.8931,160.727,151117,,*3F
2017-11-15 18:31:09 1510788669.810909: $GPGSA,A,3,25,14,26,31,32,1,22,,,,,,3.4,5.0,2.9*0F
2017-11-15 18:31:10 1510788670.328177: $GPZDA,233109.00,15,11,2017,00,00*6C
2017-11-15 18:31:10 1510788670.328336: $GPGGA,233109,3946.9524,N,08404.9427,W,1,07,5.00,283.59,M,-33.324,M,,*77
2017-11-15 18:31:10 1510788670.328396: $GPRMC,233109,A,3946.9524,N,08404.9427,W,1.2381,172.270,151117,,*3D
2017-11-15 18:31:10 1510788670.328453: $GPGSA,A,3,25,14,26,31,32,1,22,,,,,,3.4,5.0,2.9*0F
2017-11-15 18:31:11 1510788671.328190: $GPZDA,233110.00,15,11,2017,00,00*64
2017-11-15 18:31:11 1510788671.328353: $GPGGA,233110,3946.9524,N,08404.9427,W,1,07,5.00,283.59,M,-33.324,M,,*7F
2017-11-15 18:31:11 1510788671.328414: $GPRMC,233110,A,3946.9524,N,08404.9427,W,0.9060,167.792,151117,,*3E
2017-11-15 18:31:11 1510788671.328469: $GPGSA,A,3,25,14,26,31,32,1,22,,,,,,3.4,5.0,2.9*0F
