2017-12-01 13:49:28 1512154168.027399: {"class":"VERSION","release":"3.16","rev":"3.16-4","proto_major":3,"proto_minor":11}
2017-12-01 13:49:28 1512154168.027755: {"class":"DEVICES","devices":[{"class":"DEVICE","path":"/dev/ttyUSB0","driver":"SiRF","subtype":"9\u0006GSD4e_4.1.2-P1_RPATCH.05-F-GPS-4R-1510281 11/03/2015 307","activated":"2017-12-01T18:49:27.656Z","flags":1,"native":1,"bps":4800,"parity":"N","stopbits":1,"cycle":1.00}]}
2017-12-01 13:49:28 1512154168.027867: {"class":"WATCH","enable":true,"json":false,"nmea":true,"raw":0,"scaled":false,"timing":false,"split24":false,"pps":false}
2017-12-01 13:49:28 1512154168.340665: $GPZDA,184929.00,01,12,2017,00,00*6F
2017-12-01 13:49:28 1512154168.340837: $GPGGA,184929,3946.9571,N,08404.9834,W,2,11,0.80,302.70,M,-33.324,M,,*76
2017-12-01 13:49:28 1512154168.340904: $GPRMC,184929,A,3946.9571,N,08404.9834,W,0.0000,0.000,011217,,*38
2017-12-01 13:49:28 1512154168.340965: $GPGSA,A,3,10,14,15,18,20,21,24,27,32,8,138,,2.0,0.8,1.5*34
2017-12-01 13:49:29 1512154169.676359: $GPGSV,3,1,11,10,55,315,49,14,17,243,39,15,23,058,47,18,77,039,43*73
2017-12-01 13:49:29 1512154169.676545: $GPGSV,3,2,11,20,20,108,44,21,45,181,45,24,52,079,47,27,14,273,38*7B
2017-12-01 13:49:29 1512154169.676612: $GPGSV,3,3,11,32,34,250,43,08,08,307,26,138,38,213,47*7D
2017-12-01 13:49:29 1512154169.789919: $GPZDA,184930.00,01,12,2017,00,00*67
2017-12-01 13:49:29 1512154169.790131: $GPGGA,184930,3946.9571,N,08404.9834,W,2,11,0.80,302.70,M,-33.324,M,,*7E
2017-12-01 13:49:29 1512154169.790198: $GPRMC,184930,A,3946.9571,N,08404.9834,W,0.0000,0.000,011217,,*30
2017-12-01 13:49:29 1512154169.790259: $GPGSA,A,3,10,14,15,18,20,21,24,27,32,8,138,,2.0,0.8,1.5*34
2017-12-01 13:49:30 1512154170.344374: $GPZDA,184931.00,01,12,2017,00,00*66
2017-12-01 13:49:30 1512154170.344561: $GPGGA,184931,3946.9571,N,08404.9834,W,2,11,0.80,302.70,M,-33.324,M,,*7F
2017-12-01 13:49:30 1512154170.344628: $GPRMC,184931,A,3946.9571,N,08404.9834,W,0.0000,0.000,011217,,*31
2017-12-01 13:49:30 1512154170.344689: $GPGSA,A,3,10,14,15,18,20,21,24,27,32,8,138,,2.0,0.8,1.5*34
2017-12-01 13:49:31 1512154171.347503: $GPZDA,184932.00,01,12,2017,00,00*65
2017-12-01 13:49:31 1512154171.347692: $GPGGA,184932,3946.9571,N,08404.9834,W,2,11,0.80,302.70,M,-33.324,M,,*7C
2017-12-01 13:49:31 1512154171.347760: $GPRMC,184932,A,3946.9571,N,08404.9834,W,0.0000,0.000,011217,,*32
2017-12-01 13:49:31 1512154171.347821: $GPGSA,A,3,10,14,15,18,20,21,24,27,32,8,138,,2.0,0.8,1.5*34
2017-12-01 13:49:32 1512154172.674591: $GPGSV,3,1,11,10,55,315,49,14,17,243,39,15,23,058,47,18,77,039,43*73
2017-12-01 13:49:32 1512154172.674784: $GPGSV,3,2,11,20,20,108,44,21,45,181,45,24,52,079,47,27,14,273,38*7B
2017-12-01 13:49:32 1512154172.674855: $GPGSV,3,3,11,32,34,250,43,08,08,307,27,138,38,213,46*7D
2017-12-01 13:49:32 1512154172.787942: $GPZDA,184933.00,01,12,2017,00,00*64
2017-12-01 13:49:32 1512154172.788121: $GPGGA,184933,3946.9571,N,08404.9834,W,2,11,0.80,302.70,M,-33.324,M,,*7D
2017-12-01 13:49:32 1512154172.788190: $GPRMC,184933,A,3946.9571,N,08404.9834,W,0.0000,0.000,011217,,*33
2017-12-01 13:49:32 1512154172.788254: $GPGSA,A,3,10,14,15,18,20,21,24,27,32,8,138,,2.0,0.8,1.5*34
2017-12-01 13:49:33 1512154173.413459: $GPZDA,184934.00,01,12,2017,00,00*63
2017-12-01 13:49:33 1512154173.413640: $GPGGA,184934,3946.9571,N,08404.9834,W,2,11,0.80,302.70,M,-33.324,M,,*7A
2017-12-01 13:49:33 1512154173.413711: $GPRMC,184934,A,3946.9571,N,08404.9834,W,0.0000,0.000,011217,,*34
2017-12-01 13:49:33 1512154173.413775: $GPGSA,A,3,10,14,15,18,20,21,24,27,32,8,138,,2.0,0.8,1.5*34
2017-12-01 13:49:34 1512154174.339348: $GPZDA,184935.00,01,12,2017,00,00*62
2017-12-01 13:49:34 1512154174.339531: $GPGGA,184935,3946.9567,N,08404.9828,W,2,11,0.80,303.54,M,-33.324,M,,*76
2017-12-01 13:49:34 1512154174.339602: $GPRMC,184935,A,3946.9567,N,08404.9828,W,0.0000,0.000,011217,,*3F
2017-12-01 13:49:34 1512154174.339666: $GPGSA,A,3,10,14,15,18,20,21,24,27,32,8,138,,2.0,0.8,1.5*34
2017-12-01 13:49:35 1512154175.675036: $GPGSV,3,1,11,10,55,315,48,14,17,243,38,15,23,058,46,18,77,039,42*73
2017-12-01 13:49:35 1512154175.675280: $GPGSV,3,2,11,20,20,108,43,21,45,181,44,24,52,079,47,27,14,273,39*7C
2017-12-01 13:49:35 1512154175.675350: $GPGSV,3,3,11,32,34,250,42,08,08,307,14,138,38,213,48*72
2017-12-01 13:49:35 1512154175.790643: $GPZDA,184936.00,01,12,2017,00,00*61
2017-12-01 13:49:35 1512154175.790818: $GPGGA,184936,3946.9567,N,08404.9828,W,2,11,0.80,303.54,M,-33.324,M,,*75
2017-12-01 13:49:35 1512154175.790885: $GPRMC,184936,A,3946.9567,N,08404.9828,W,0.0000,0.000,011217,,*3C
2017-12-01 13:49:35 1512154175.790945: $GPGSA,A,3,10,14,15,18,20,21,24,27,32,8,138,,2.0,0.8,1.5*34
2017-12-01 13:49:36 1512154176.339296: $GPZDA,184937.00,01,12,2017,00,00*60
2017-12-01 13:49:36 1512154176.339477: $GPGGA,184937,3946.9567,N,08404.9828,W,2,11,0.80,303.54,M,-33.324,M,,*74
2017-12-01 13:49:36 1512154176.339546: $GPRMC,184937,A,3946.9567,N,08404.9828,W,0.0000,0.000,011217,,*3D
2017-12-01 13:49:36 1512154176.339607: $GPGSA,A,3,10,14,15,18,20,21,24,27,32,8,138,,2.0,0.8,1.5*34
2017-12-01 13:49:37 1512154177.341866: $GPZDA,184938.00,01,12,2017,00,00*6F
2017-12-01 13:49:37 1512154177.342054: $GPGGA,184938,3946.9567,N,08404.9828,W,2,11,0.80,303.54,M,-33.324,M,,*7B
2017-12-01 13:49:37 1512154177.342125: $GPRMC,184938,A,3946.9567,N,08404.9828,W,0.0000,0.000,011217,,*32
2017-12-01 13:49:37 1512154177.342189: $GPGSA,A,3,10,14,15,18,20,21,24,27,32,8,138,,2.0,0.8,1.5*34
