2017-11-15 19:10:13 1510791013.084478: {"class":"VERSION","release":"3.17","rev":"3.17","proto_major":3,"proto_minor":12}
2017-11-15 19:10:13 1510791013.084998: {"class":"DEVICES","devices":[{"class":"DEVICE","path":"/dev/ttyUSB0","driver":"SiRF","subtype":"9\u0006GSD4e_4.1.2-P1_RPATCH.05-F-GPS-4R-1510281 11/03/2015 307","activated":"2017-11-16T00:10:12.936Z","flags":1,"native":1,"bps":4800,"parity":"N","stopbits":1,"cycle":1.00}]}
2017-11-15 19:10:13 1510791013.085118: {"class":"WATCH","enable":true,"json":false,"nmea":true,"raw":0,"scaled":false,"timing":false,"split24":false,"pps":false}
2017-11-15 19:10:13 1510791013.329208: $GPZDA,001012.00,16,11,2017,00,00*67
2017-11-15 19:10:13 1510791013.329377: $GPGGA,001012,3946.9520,N,08404.9473,W,1,07,2.00,303.10,M,-33.324,M,,*79
2017-11-15 19:10:13 1510791013.329440: $GPRMC,001012,A,3946.9520,N,08404.9473,W,1.7180,100.020,161117,,*37
2017-11-15 19:10:13 1510791013.329497: $GPGSA,A,3,32,14,23,26,31,16,22,,,,,,3.4,2.0,2.9*38
2017-11-15 19:10:14 1510791014.345122: $GPZDA,001013.00,16,11,2017,00,00*66
2017-11-15 19:10:14 1510791014.345302: $GPGGA,001013,3946.9527,N,08404.9465,W,1,07,2.00,303.06,M,-33.324,M,,*7F
2017-11-15 19:10:14 1510791014.345363: $GPRMC,001013,A,3946.9527,N,08404.9465,W,1.7174,88.584,161117,,*07
2017-11-15 19:10:14 1510791014.345421: $GPGSA,A,3,32,14,23,26,31,16,22,,,,,,3.4,2.0,2.9*38
2017-11-15 19:10:15 1510791015.681208: $GPGSV,3,1,12,32,43,099,21,14,61,079,24,03,34,307,00,26,43,175,08*7F
2017-11-15 19:10:15 1510791015.681380: $GPGSV,3,2,12,31,74,006,18,16,14,190,19,22,49,283,18,25,24,043,00*7C
2017-11-15 19:10:15 1510791015.681439: $GPGSV,3,3,12,01,10,259,00,29,07,079,00,10,05,159,00,138,38,213,00*4E
2017-11-15 19:10:15 1510791015.794743: $GPZDA,001014.00,16,11,2017,00,00*61
2017-11-15 19:10:15 1510791015.794915: $GPGGA,001014,3946.9527,N,08404.9451,W,1,06,2.00,303.22,M,-33.324,M,,*78
2017-11-15 19:10:15 1510791015.794987: $GPRMC,001014,A,3946.9527,N,08404.9451,W,1.9377,93.794,161117,,*01
2017-11-15 19:10:15 1510791015.795044: $GPGSA,A,3,32,14,26,31,16,22,,,,,,,3.4,2.0,2.9*39
2017-11-15 19:10:16 1510791016.419748: $GPZDA,001015.00,16,11,2017,00,00*60
2017-11-15 19:10:16 1510791016.419915: $GPGGA,001015,3946.9526,N,08404.9444,W,1,06,2.00,303.29,M,-33.324,M,,*77
2017-11-15 19:10:16 1510791016.419976: $GPRMC,001015,A,3946.9526,N,08404.9444,W,1.9590,99.252,161117,,*0F
2017-11-15 19:10:16 1510791016.420034: $GPGSA,A,3,32,14,26,31,16,22,,,,,,,3.4,2.0,2.9*39
2017-11-15 19:10:17 1510791017.345958: $GPZDA,001016.00,16,11,2017,00,00*63
2017-11-15 19:10:17 1510791017.346119: $GPGGA,001016,3946.9526,N,08404.9437,W,1,06,2.00,303.37,M,-33.324,M,,*7F
2017-11-15 19:10:17 1510791017.346179: $GPRMC,001016,A,3946.9526,N,08404.9437,W,1.7601,106.017,161117,,*39
2017-11-15 19:10:17 1510791017.346236: $GPGSA,A,3,32,14,26,31,16,22,,,,,,,3.4,2.0,2.9*39
2017-11-15 19:10:18 1510791018.681688: $GPGSV,3,1,12,32,43,099,21,14,61,079,24,03,34,307,00,26,43,175,07*70
2017-11-15 19:10:18 1510791018.681869: $GPGSV,3,2,12,31,74,006,20,16,14,190,19,22,49,283,18,25,24,043,00*77
2017-11-15 19:10:18 1510791018.681929: $GPGSV,3,3,12,01,10,259,00,29,07,079,00,10,05,159,00,138,38,213,00*4E
2017-11-15 19:10:18 1510791018.794863: $GPZDA,001017.00,16,11,2017,00,00*62
2017-11-15 19:10:18 1510791018.795024: $GPGGA,001017,3946.9526,N,08404.9430,W,1,06,2.00,303.45,M,-33.324,M,,*7C
2017-11-15 19:10:18 1510791018.795085: $GPRMC,001017,A,3946.9526,N,08404.9430,W,1.4978,129.346,161117,,*37
2017-11-15 19:10:18 1510791018.795142: $GPGSA,A,3,32,14,26,31,16,22,,,,,,,3.4,2.0,2.9*39
2017-11-15 19:10:19 1510791019.346802: $GPZDA,001018.00,16,11,2017,00,00*6D
2017-11-15 19:10:19 1510791019.346984: $GPGGA,001018,3946.9529,N,08404.9423,W,1,06,2.00,302.77,M,-33.324,M,,*7E
2017-11-15 19:10:19 1510791019.351420: $GPRMC,001018,A,3946.9529,N,08404.9423,W,1.9128,120.878,161117,,*3A
2017-11-15 19:10:19 1510791019.351503: $GPGSA,A,3,32,14,26,31,16,22,,,,,,,3.4,2.0,2.9*39
2017-11-15 19:10:20 1510791020.330248: $GPZDA,001019.00,16,11,2017,00,00*6C
2017-11-15 19:10:20 1510791020.330413: $GPGGA,001019,3946.9529,N,08404.9423,W,1,06,2.00,302.77,M,-33.324,M,,*7F
2017-11-15 19:10:20 1510791020.330528: $GPRMC,001019,A,3946.9529,N,08404.9423,W,1.3084,135.525,161117,,*37
2017-11-15 19:10:20 1510791020.330586: $GPGSA,A,3,32,14,26,31,16,22,,,,,,,3.4,2.0,2.9*39
2017-11-15 19:10:21 1510791021.681743: $GPGSV,3,1,12,32,43,099,21,14,61,079,24,03,34,307,07,26,43,175,07*77
2017-11-15 19:10:21 1510791021.681938: $GPGSV,3,2,12,31,74,006,21,16,14,190,19,22,49,283,18,25,24,043,00*76
2017-11-15 19:10:21 1510791021.682000: $GPGSV,3,3,12,01,10,259,00,29,07,079,00,10,05,159,00,138,38,213,00*4E
2017-11-15 19:10:21 1510791021.795265: $GPZDA,001020.00,16,11,2017,00,00*66
2017-11-15 19:10:21 1510791021.795439: $GPGGA,001020,3946.9528,N,08404.9416,W,1,06,2.00,302.85,M,-33.324,M,,*7F
2017-11-15 19:10:21 1510791021.795502: $GPRMC,001020,A,3946.9528,N,08404.9416,W,1.3084,135.525,161117,,*3A
2017-11-15 19:10:21 1510791021.795558: $GPGSA,A,3,32,14,26,31,16,22,,,,,,,3.4,2.0,2.9*39
2017-11-15 19:10:22 1510791022.345991: $GPZDA,001021.00,16,11,2017,00,00*67
2017-11-15 19:10:22 1510791022.346160: $GPGGA,001021,3946.9528,N,08404.9416,W,1,06,2.00,302.85,M,-33.324,M,,*7E
2017-11-15 19:10:22 1510791022.346241: $GPRMC,001021,A,3946.9528,N,08404.9416,W,0.7621,107.945,161117,,*3C
2017-11-15 19:10:22 1510791022.346299: $GPGSA,A,3,32,14,26,31,16,22,,,,,,,3.4,2.0,2.9*39
