2017-11-16 13:35:31 1510857331.907066: {"class":"VERSION","release":"3.17","rev":"3.17","proto_major":3,"proto_minor":12}
2017-11-16 13:35:31 1510857331.907465: {"class":"DEVICES","devices":[{"class":"DEVICE","path":"/dev/ttyUSB0","driver":"SiRF","subtype":"9\u0006GSD4e_4.1.2-P1_RPATCH.05-F-GPS-4R-1510281 11/03/2015 307","activated":"2017-11-16T18:35:31.388Z","flags":1,"native":1,"bps":4800,"parity":"N","stopbits":1,"cycle":1.00}]}
2017-11-16 13:35:31 1510857331.907574: {"class":"WATCH","enable":true,"json":false,"nmea":true,"raw":0,"scaled":false,"timing":false,"split24":false,"pps":false}
2017-11-16 13:35:32 1510857332.245231: $GPZDA,183531.00,16,11,2017,00,00*68
2017-11-16 13:35:32 1510857332.245393: $GPGGA,183531,3946.9615,N,08404.9839,W,2,11,0.80,305.44,M,-33.324,M,,*78
2017-11-16 13:35:32 1510857332.245454: $GPRMC,183531,A,3946.9615,N,08404.9839,W,0.0000,0.000,161117,,*33
2017-11-16 13:35:32 1510857332.245510: $GPGSA,A,3,10,13,15,18,20,21,24,27,29,32,138,,1.6,0.8,1.3*03
2017-11-16 13:35:32 1510857332.245563: $GPGBS,183531,2.12,M,3.10,M,7.47,M*34
2017-11-16 13:35:33 1510857333.588382: $GPGSV,3,1,11,10,28,288,42,13,23,045,47,15,55,049,49,18,59,307,46*72
2017-11-16 13:35:33 1510857333.588524: $GPGSV,3,2,11,20,46,079,49,21,78,237,46,24,39,133,44,27,18,307,39*7C
2017-11-16 13:35:33 1510857333.588585: $GPGSV,3,3,11,29,04,187,25,32,06,228,30,138,38,213,45*73
2017-11-16 13:35:33 1510857333.702021: $GPZDA,183532.00,16,11,2017,00,00*6B
2017-11-16 13:35:33 1510857333.702178: $GPGGA,183532,3946.9615,N,08404.9839,W,2,11,0.80,305.44,M,-33.324,M,,*7B
2017-11-16 13:35:33 1510857333.702238: $GPRMC,183532,A,3946.9615,N,08404.9839,W,0.0000,0.000,161117,,*30
2017-11-16 13:35:33 1510857333.702294: $GPGSA,A,3,10,13,15,18,20,21,24,27,29,32,138,,1.6,0.8,1.3*03
2017-11-16 13:35:34 1510857334.275311: $GPZDA,183533.00,16,11,2017,00,00*6A
2017-11-16 13:35:34 1510857334.275468: $GPGGA,183533,3946.9615,N,08404.9839,W,2,11,0.80,305.44,M,-33.324,M,,*7A
2017-11-16 13:35:34 1510857334.275529: $GPRMC,183533,A,3946.9615,N,08404.9839,W,0.0000,0.000,161117,,*31
2017-11-16 13:35:34 1510857334.275586: $GPGSA,A,3,10,13,15,18,20,21,24,27,29,32,138,,1.6,0.8,1.3*03
2017-11-16 13:35:35 1510857335.275354: $GPZDA,183534.00,16,11,2017,00,00*6D
2017-11-16 13:35:35 1510857335.275517: $GPGGA,183534,3946.9615,N,08404.9839,W,2,11,0.80,305.44,M,-33.324,M,,*7D
2017-11-16 13:35:35 1510857335.275578: $GPRMC,183534,A,3946.9615,N,08404.9839,W,0.0000,0.000,161117,,*36
2017-11-16 13:35:35 1510857335.275634: $GPGSA,A,3,10,13,15,18,20,21,24,27,29,32,138,,1.6,0.8,1.3*03
2017-11-16 13:35:36 1510857336.614795: $GPGSV,3,1,11,10,28,288,43,13,23,045,47,15,55,049,49,18,59,307,46*73
2017-11-16 13:35:36 1510857336.614965: $GPGSV,3,2,11,20,46,079,49,21,78,237,46,24,39,133,44,27,18,307,40*72
2017-11-16 13:35:36 1510857336.615025: $GPGSV,3,3,11,29,04,187,25,32,06,228,30,138,38,213,45*73
2017-11-16 13:35:36 1510857336.728143: $GPZDA,183535.00,16,11,2017,00,00*6C
2017-11-16 13:35:36 1510857336.728295: $GPGGA,183535,3946.9615,N,08404.9839,W,2,11,0.80,305.44,M,-33.324,M,,*7C
2017-11-16 13:35:36 1510857336.728355: $GPRMC,183535,A,3946.9615,N,08404.9839,W,0.0000,0.000,161117,,*37
2017-11-16 13:35:36 1510857336.728410: $GPGSA,A,3,10,13,15,18,20,21,24,27,29,32,138,,1.6,0.8,1.3*03
2017-11-16 13:35:37 1510857337.254317: $GPZDA,183536.00,16,11,2017,00,00*6F
2017-11-16 13:35:37 1510857337.254476: $GPGGA,183536,3946.9615,N,08404.9839,W,2,11,0.80,305.44,M,-33.324,M,,*7F
2017-11-16 13:35:37 1510857337.254537: $GPRMC,183536,A,3946.9615,N,08404.9839,W,0.0000,0.000,161117,,*34
2017-11-16 13:35:37 1510857337.254593: $GPGSA,A,3,10,13,15,18,20,21,24,27,29,32,138,,1.6,0.8,1.3*03
2017-11-16 13:35:38 1510857338.252565: $GPZDA,183537.00,16,11,2017,00,00*6E
2017-11-16 13:35:38 1510857338.252726: $GPGGA,183537,3946.9615,N,08404.9839,W,2,11,0.80,305.44,M,-33.324,M,,*7E
2017-11-16 13:35:38 1510857338.252786: $GPRMC,183537,A,3946.9615,N,08404.9839,W,0.0000,0.000,161117,,*35
2017-11-16 13:35:38 1510857338.252842: $GPGSA,A,3,10,13,15,18,20,21,24,27,29,32,138,,1.6,0.8,1.3*03
2017-11-16 13:35:39 1510857339.589282: $GPGSV,3,1,11,10,28,288,44,13,23,045,47,15,55,049,49,18,59,307,46*74
2017-11-16 13:35:39 1510857339.589550: $GPGSV,3,2,11,20,46,079,49,21,78,237,46,24,39,133,44,27,18,307,40*72
2017-11-16 13:35:39 1510857339.589619: $GPGSV,3,3,11,29,04,187,26,32,06,228,26,138,38,213,44*76
2017-11-16 13:35:39 1510857339.702619: $GPZDA,183538.00,16,11,2017,00,00*61
2017-11-16 13:35:39 1510857339.702782: $GPGGA,183538,3946.9612,N,08404.9840,W,2,11,0.80,306.21,M,-33.324,M,,*78
2017-11-16 13:35:39 1510857339.702842: $GPRMC,183538,A,3946.9612,N,08404.9840,W,0.0000,0.000,161117,,*33
2017-11-16 13:35:39 1510857339.702898: $GPGSA,A,3,10,13,15,18,20,21,24,27,29,32,138,,1.6,0.8,1.3*03
2017-11-16 13:35:40 1510857340.327934: $GPZDA,183539.00,16,11,2017,00,00*60
2017-11-16 13:35:40 1510857340.328101: $GPGGA,183539,3946.9612,N,08404.9840,W,2,11,0.80,306.21,M,-33.324,M,,*79
2017-11-16 13:35:40 1510857340.328164: $GPRMC,183539,A,3946.9612,N,08404.9840,W,0.0000,0.000,161117,,*32
2017-11-16 13:35:40 1510857340.328221: $GPGSA,A,3,10,13,15,18,20,21,24,27,29,32,138,,1.6,0.8,1.3*03
2017-11-16 13:35:41 1510857341.252601: $GPZDA,183540.00,16,11,2017,00,00*6E
2017-11-16 13:35:41 1510857341.252763: $GPGGA,183540,3946.9612,N,08404.9840,W,2,11,0.80,306.21,M,-33.324,M,,*77
2017-11-16 13:35:41 1510857341.252824: $GPRMC,183540,A,3946.9612,N,08404.9840,W,0.0000,0.000,161117,,*3C
2017-11-16 13:35:41 1510857341.252880: $GPGSA,A,3,10,13,15,18,20,21,24,27,29,32,138,,1.6,0.8,1.3*03
2017-11-16 13:35:42 1510857342.582116: $GPGSV,3,1,11,10,28,288,44,13,23,045,47,15,55,049,49,18,59,307,46*74
2017-11-16 13:35:42 1510857342.582309: $GPGSV,3,2,11,20,46,079,49,21,78,237,46,24,39,133,45,27,18,307,40*73
2017-11-16 13:35:42 1510857342.582370: $GPGSV,3,3,11,29,04,187,27,32,06,228,26,138,38,213,44*77
2017-11-16 13:35:42 1510857342.695357: $GPZDA,183541.00,16,11,2017,00,00*6F
2017-11-16 13:35:42 1510857342.695514: $GPGGA,183541,3946.9612,N,08404.9840,W,2,11,0.80,306.21,M,-33.324,M,,*76
2017-11-16 13:35:42 1510857342.695574: $GPRMC,183541,A,3946.9612,N,08404.9840,W,0.0000,0.000,161117,,*3D
2017-11-16 13:35:42 1510857342.695630: $GPGSA,A,3,10,13,15,18,20,21,24,27,29,32,138,,1.6,0.8,1.3*03
2017-11-16 13:35:43 1510857343.252420: $GPZDA,183542.00,16,11,2017,00,00*6C
2017-11-16 13:35:43 1510857343.252655: $GPGGA,183542,3946.9612,N,08404.9840,W,2,11,0.80,306.21,M,-33.324,M,,*75
2017-11-16 13:35:43 1510857343.252740: $GPRMC,183542,A,3946.9612,N,08404.9840,W,0.0000,0.000,161117,,*3E
2017-11-16 13:35:43 1510857343.252799: $GPGSA,A,3,10,13,15,18,20,21,24,27,29,32,138,,1.6,0.8,1.3*03
2017-11-16 13:35:44 1510857344.250818: $GPZDA,183543.00,16,11,2017,00,00*6D
2017-11-16 13:35:44 1510857344.250978: $GPGGA,183543,3946.9612,N,08404.9840,W,2,11,0.80,306.21,M,-33.324,M,,*74
2017-11-16 13:35:44 1510857344.251038: $GPRMC,183543,A,3946.9612,N,08404.9840,W,0.0000,0.000,161117,,*3F
2017-11-16 13:35:44 1510857344.251093: $GPGSA,A,3,10,13,15,18,20,21,24,27,29,32,138,,1.6,0.8,1.3*03
2017-11-16 13:35:45 1510857345.588508: $GPGSV,3,1,11,10,28,288,43,13,23,045,47,15,55,049,50,18,59,307,46*7B
2017-11-16 13:35:45 1510857345.588673: $GPGSV,3,2,11,20,46,079,48,21,78,237,46,24,39,133,44,27,18,307,41*72
2017-11-16 13:35:45 1510857345.588735: $GPGSV,3,3,11,29,04,187,26,32,06,228,26,138,38,213,44*76
2017-11-16 13:35:45 1510857345.701804: $GPZDA,183544.00,16,11,2017,00,00*6A
2017-11-16 13:35:45 1510857345.701964: $GPGGA,183544,3946.9612,N,08404.9840,W,2,11,0.80,306.21,M,-33.324,M,,*73
2017-11-16 13:35:45 1510857345.702024: $GPRMC,183544,A,3946.9612,N,08404.9840,W,0.0000,0.000,161117,,*38
2017-11-16 13:35:45 1510857345.702081: $GPGSA,A,3,10,13,15,18,20,21,24,27,29,32,138,,1.6,0.8,1.3*03
2017-11-16 13:35:46 1510857346.251470: $GPZDA,183545.00,16,11,2017,00,00*6B
2017-11-16 13:35:46 1510857346.251631: $GPGGA,183545,3946.9612,N,08404.9840,W,2,11,0.80,306.21,M,-33.324,M,,*72
2017-11-16 13:35:46 1510857346.251692: $GPRMC,183545,A,3946.9612,N,08404.9840,W,0.0000,0.000,161117,,*39
2017-11-16 13:35:46 1510857346.251748: $GPGSA,A,3,10,13,15,18,20,21,24,27,29,32,138,,1.6,0.8,1.3*03
2017-11-16 13:35:47 1510857347.252249: $GPZDA,183546.00,16,11,2017,00,00*68
2017-11-16 13:35:47 1510857347.252413: $GPGGA,183546,3946.9612,N,08404.9840,W,2,11,0.80,306.21,M,-33.324,M,,*71
2017-11-16 13:35:47 1510857347.252474: $GPRMC,183546,A,3946.9612,N,08404.9840,W,0.0000,0.000,161117,,*3A
2017-11-16 13:35:47 1510857347.252530: $GPGSA,A,3,10,13,15,18,20,21,24,27,29,32,138,,1.6,0.8,1.3*03
2017-11-16 13:35:48 1510857348.581804: $GPGSV,3,1,11,10,28,288,42,13,23,045,47,15,55,049,50,18,59,307,46*7A
2017-11-16 13:35:48 1510857348.581971: $GPGSV,3,2,11,20,46,079,48,21,78,237,46,24,39,133,44,27,18,307,41*72
2017-11-16 13:35:48 1510857348.582031: $GPGSV,3,3,11,29,04,187,26,32,06,228,26,138,38,213,43*71
2017-11-16 13:35:48 1510857348.694084: $GPZDA,183547.00,16,11,2017,00,00*69
2017-11-16 13:35:48 1510857348.694219: $GPGGA,183547,3946.9612,N,08404.9840,W,2,11,0.80,306.21,M,-33.324,M,,*70
2017-11-16 13:35:48 1510857348.694280: $GPRMC,183547,A,3946.9612,N,08404.9840,W,0.0000,0.000,161117,,*3B
2017-11-16 13:35:48 1510857348.694336: $GPGSA,A,3,10,13,15,18,20,21,24,27,29,32,138,,1.6,0.8,1.3*03
2017-11-16 13:35:49 1510857349.247528: $GPZDA,183548.00,16,11,2017,00,00*66
2017-11-16 13:35:49 1510857349.247685: $GPGGA,183548,3946.9612,N,08404.9840,W,2,11,0.80,306.21,M,-33.324,M,,*7F
2017-11-16 13:35:49 1510857349.247746: $GPRMC,183548,A,3946.9612,N,08404.9840,W,0.0000,0.000,161117,,*34
2017-11-16 13:35:49 1510857349.247802: $GPGSA,A,3,10,13,15,18,20,21,24,27,29,32,138,,1.6,0.8,1.3*03
2017-11-16 13:35:50 1510857350.252576: $GPZDA,183549.00,16,11,2017,00,00*67
2017-11-16 13:35:50 1510857350.252735: $GPGGA,183549,3946.9612,N,08404.9840,W,2,11,0.80,306.21,M,-33.324,M,,*7E
2017-11-16 13:35:50 1510857350.252796: $GPRMC,183549,A,3946.9612,N,08404.9840,W,0.0000,0.000,161117,,*35
2017-11-16 13:35:50 1510857350.252852: $GPGSA,A,3,10,13,15,18,20,21,24,27,29,32,138,,1.6,0.8,1.3*03
2017-11-16 13:35:51 1510857351.586986: $GPGSV,3,1,11,10,28,288,41,13,23,045,47,15,55,049,50,18,59,307,46*79
2017-11-16 13:35:51 1510857351.587157: $GPGSV,3,2,11,20,46,079,48,21,78,237,46,24,39,133,44,27,18,307,41*72
2017-11-16 13:35:51 1510857351.587219: $GPGSV,3,3,11,29,04,187,26,32,06,228,26,138,38,213,44*76
2017-11-16 13:35:51 1510857351.700535: $GPZDA,183550.00,16,11,2017,00,00*6F
2017-11-16 13:35:51 1510857351.700703: $GPGGA,183550,3946.9612,N,08404.9840,W,2,11,0.80,306.21,M,-33.324,M,,*76
2017-11-16 13:35:51 1510857351.700765: $GPRMC,183550,A,3946.9612,N,08404.9840,W,0.0000,0.000,161117,,*3D
2017-11-16 13:35:51 1510857351.700821: $GPGSA,A,3,10,13,15,18,20,21,24,27,29,32,138,,1.6,0.8,1.3*03
2017-11-16 13:35:52 1510857352.272433: $GPZDA,183551.00,16,11,2017,00,00*6E
2017-11-16 13:35:52 1510857352.272600: $GPGGA,183551,3946.9612,N,08404.9840,W,2,11,0.80,306.21,M,-33.324,M,,*77
2017-11-16 13:35:52 1510857352.272662: $GPRMC,183551,A,3946.9612,N,08404.9840,W,0.0000,0.000,161117,,*3C
2017-11-16 13:35:52 1510857352.272718: $GPGSA,A,3,10,13,15,18,20,21,24,27,29,32,138,,1.6,0.8,1.3*03
2017-11-16 13:35:53 1510857353.273346: $GPZDA,183552.00,16,11,2017,00,00*6D
2017-11-16 13:35:53 1510857353.273507: $GPGGA,183552,3946.9612,N,08404.9840,W,2,11,0.80,306.21,M,-33.324,M,,*74
2017-11-16 13:35:53 1510857353.273568: $GPRMC,183552,A,3946.9612,N,08404.9840,W,0.0000,0.000,161117,,*3F
2017-11-16 13:35:53 1510857353.273624: $GPGSA,A,3,10,13,15,18,20,21,24,27,29,32,138,,1.6,0.8,1.3*03
2017-11-16 13:35:54 1510857354.586529: $GPGSV,3,1,11,10,28,288,40,13,23,045,47,15,55,049,50,18,59,307,46*78
2017-11-16 13:35:54 1510857354.586699: $GPGSV,3,2,11,20,46,079,48,21,78,237,46,24,39,133,44,27,18,307,41*72
2017-11-16 13:35:54 1510857354.586760: $GPGSV,3,3,11,29,04,187,27,32,06,228,26,138,38,213,44*77
2017-11-16 13:35:54 1510857354.699954: $GPZDA,183553.00,16,11,2017,00,00*6C
2017-11-16 13:35:54 1510857354.700114: $GPGGA,183553,3946.9612,N,08404.9840,W,2,11,0.80,306.21,M,-33.324,M,,*75
2017-11-16 13:35:54 1510857354.700176: $GPRMC,183553,A,3946.9612,N,08404.9840,W,0.0000,0.000,161117,,*3E
2017-11-16 13:35:54 1510857354.700232: $GPGSA,A,3,10,13,15,18,20,21,24,27,29,32,138,,1.6,0.8,1.3*03
2017-11-16 13:35:55 1510857355.326470: $GPZDA,183554.00,16,11,2017,00,00*6B
2017-11-16 13:35:55 1510857355.326706: $GPGGA,183554,3946.9612,N,08404.9840,W,2,11,0.80,306.21,M,-33.324,M,,*72
2017-11-16 13:35:55 1510857355.326768: $GPRMC,183554,A,3946.9612,N,08404.9840,W,0.0000,0.000,161117,,*39
2017-11-16 13:35:55 1510857355.326823: $GPGSA,A,3,10,13,15,18,20,21,24,27,29,32,138,,1.6,0.8,1.3*03
2017-11-16 13:35:56 1510857356.267271: $GPZDA,183555.00,16,11,2017,00,00*6A
2017-11-16 13:35:56 1510857356.267434: $GPGGA,183555,3946.9612,N,08404.9840,W,2,11,0.80,306.21,M,-33.324,M,,*73
2017-11-16 13:35:56 1510857356.267495: $GPRMC,183555,A,3946.9612,N,08404.9840,W,0.0000,0.000,161117,,*38
2017-11-16 13:35:56 1510857356.267551: $GPGSA,A,3,10,13,15,18,20,21,24,27,29,32,138,,1.6,0.8,1.3*03
2017-11-16 13:35:57 1510857357.588088: $GPGSV,3,1,11,10,28,288,39,13,23,045,47,15,55,049,50,18,59,307,46*76
2017-11-16 13:35:57 1510857357.588241: $GPGSV,3,2,11,20,46,079,48,21,78,237,46,24,39,133,44,27,18,307,40*73
2017-11-16 13:35:57 1510857357.588300: $GPGSV,3,3,11,29,04,187,27,32,06,228,26,138,38,213,44*77
2017-11-16 13:35:57 1510857357.701822: $GPZDA,183556.00,16,11,2017,00,00*69
2017-11-16 13:35:57 1510857357.701980: $GPGGA,183556,3946.9612,N,08404.9840,W,2,11,0.80,306.21,M,-33.324,M,,*70
2017-11-16 13:35:57 1510857357.702041: $GPRMC,183556,A,3946.9612,N,08404.9840,W,0.0000,0.000,161117,,*3B
2017-11-16 13:35:57 1510857357.702097: $GPGSA,A,3,10,13,15,18,20,21,24,27,29,32,138,,1.6,0.8,1.3*03
2017-11-16 13:35:58 1510857358.302000: $GPZDA,183557.00,16,11,2017,00,00*68
2017-11-16 13:35:58 1510857358.302160: $GPGGA,183557,3946.9612,N,08404.9840,W,2,11,0.80,306.21,M,-33.324,M,,*71
2017-11-16 13:35:58 1510857358.302221: $GPRMC,183557,A,3946.9612,N,08404.9840,W,0.0000,0.000,161117,,*3A
2017-11-16 13:35:58 1510857358.302277: $GPGSA,A,3,10,13,15,18,20,21,24,27,29,32,138,,1.6,0.8,1.3*03
2017-11-16 13:35:58 1510857358.302330: $GPGBS,183557,2.12,M,3.10,M,7.47,M*34
2017-11-16 13:35:59 1510857359.271514: $GPZDA,183558.00,16,11,2017,00,00*67
2017-11-16 13:35:59 1510857359.271673: $GPGGA,183558,3946.9612,N,08404.9840,W,2,11,0.80,306.21,M,-33.324,M,,*7E
2017-11-16 13:35:59 1510857359.271733: $GPRMC,183558,A,3946.9612,N,08404.9840,W,0.0000,0.000,161117,,*35
2017-11-16 13:35:59 1510857359.271789: $GPGSA,A,3,10,13,15,18,20,21,24,27,29,32,138,,1.6,0.8,1.3*03
2017-11-16 13:35:59 1510857359.271842: $GPGBS,183558,2.12,M,3.10,M,7.47,M*3B
2017-11-16 13:36:00 1510857360.606473: $GPGSV,3,1,11,10,29,289,40,13,22,045,46,15,53,049,50,18,59,309,46*70
2017-11-16 13:36:00 1510857360.606611: $GPGSV,3,2,11,20,45,081,48,21,78,229,46,24,40,132,44,27,18,306,40*76
2017-11-16 13:36:00 1510857360.606670: $GPGSV,3,3,11,29,03,186,27,32,07,229,26,138,38,213,44*71
2017-11-16 13:36:00 1510857360.719792: $GPZDA,183559.00,16,11,2017,00,00*66
2017-11-16 13:36:00 1510857360.719950: $GPGGA,183559,3946.9612,N,08404.9840,W,2,11,0.80,306.21,M,-33.324,M,,*7F
2017-11-16 13:36:00 1510857360.720011: $GPRMC,183559,A,3946.9612,N,08404.9840,W,0.0000,0.000,161117,,*34
2017-11-16 13:36:00 1510857360.720066: $GPGSA,A,3,10,13,15,18,20,21,24,27,29,32,138,,1.6,0.8,1.3*03
2017-11-16 13:36:01 1510857361.273027: $GPZDA,183600.00,16,11,2017,00,00*69
2017-11-16 13:36:01 1510857361.273197: $GPGGA,183600,3946.9612,N,08404.9840,W,2,11,0.80,306.21,M,-33.324,M,,*70
2017-11-16 13:36:01 1510857361.273260: $GPRMC,183600,A,3946.9612,N,08404.9840,W,0.0000,0.000,161117,,*3B
2017-11-16 13:36:01 1510857361.273316: $GPGSA,A,3,10,13,15,18,20,21,24,27,29,32,138,,1.6,0.8,1.3*03
