2017-12-01 13:51:50 1512154310.627087: {"class":"VERSION","release":"3.16","rev":"3.16-4","proto_major":3,"proto_minor":11}
2017-12-01 13:51:50 1512154310.627477: {"class":"DEVICES","devices":[{"class":"DEVICE","path":"/dev/ttyUSB0","driver":"SiRF","subtype":"9\u0006GSD4e_4.1.2-P1_RPATCH.05-F-GPS-4R-1510281 11/03/2015 307","activated":"2017-12-01T18:51:50.527Z","flags":1,"native":1,"bps":4800,"parity":"N","stopbits":1,"cycle":1.00}]}
2017-12-01 13:51:50 1512154310.627594: {"class":"WATCH","enable":true,"json":false,"nmea":true,"raw":0,"scaled":false,"timing":false,"split24":false,"pps":false}
2017-12-01 13:51:51 1512154311.697895: $GPGSV,3,1,11,10,56,315,50,14,18,243,36,15,22,060,46,18,77,043,42*7F
2017-12-01 13:51:51 1512154311.698074: $GPGSV,3,2,11,20,20,109,44,21,44,181,45,24,52,078,48,27,14,271,40*78
2017-12-01 13:51:51 1512154311.698140: $GPGSV,3,3,11,32,35,252,42,08,08,306,22,138,38,213,46*7B
2017-12-01 13:51:51 1512154311.811523: $GPZDA,185152.00,01,12,2017,00,00*6A
2017-12-01 13:51:51 1512154311.811677: $GPGGA,185152,3946.9570,N,08404.9853,W,2,11,0.80,298.25,M,-33.324,M,,*71
2017-12-01 13:51:51 1512154311.811742: $GPRMC,185152,A,3946.9570,N,08404.9853,W,0.0000,0.000,011217,,*3D
2017-12-01 13:51:51 1512154311.811802: $GPGSA,A,3,10,14,15,18,20,21,24,27,32,8,138,,2.0,0.8,1.5*34
2017-12-01 13:51:52 1512154312.362441: $GPZDA,185153.00,01,12,2017,00,00*6B
2017-12-01 13:51:52 1512154312.362610: $GPGGA,185153,3946.9570,N,08404.9853,W,2,11,0.80,298.25,M,-33.324,M,,*70
2017-12-01 13:51:52 1512154312.362675: $GPRMC,185153,A,3946.9570,N,08404.9853,W,0.0000,0.000,011217,,*3C
2017-12-01 13:51:52 1512154312.362736: $GPGSA,A,3,10,14,15,18,20,21,24,27,32,8,138,,2.0,0.8,1.5*34
2017-12-01 13:51:53 1512154313.362060: $GPZDA,185154.00,01,12,2017,00,00*6C
2017-12-01 13:51:53 1512154313.362228: $GPGGA,185154,3946.9570,N,08404.9853,W,2,11,0.80,298.25,M,-33.324,M,,*77
2017-12-01 13:51:53 1512154313.362295: $GPRMC,185154,A,3946.9570,N,08404.9853,W,0.0000,0.000,011217,,*3B
2017-12-01 13:51:53 1512154313.362356: $GPGSA,A,3,10,14,15,18,20,21,24,27,32,8,138,,2.0,0.8,1.5*34
2017-12-01 13:51:54 1512154314.697472: $GPGSV,3,1,11,10,56,315,49,14,18,243,37,15,22,060,46,18,77,043,42*76
2017-12-01 13:51:54 1512154314.697653: $GPGSV,3,2,11,20,20,109,44,21,44,181,45,24,52,078,47,27,14,271,39*79
2017-12-01 13:51:54 1512154314.697721: $GPGSV,3,3,11,32,35,252,41,08,08,306,30,138,38,213,46*7B
2017-12-01 13:51:54 1512154314.809896: $GPZDA,185155.00,01,12,2017,00,00*6D
2017-12-01 13:51:54 1512154314.810078: $GPGGA,185155,3946.9570,N,08404.9853,W,2,11,0.80,298.25,M,-33.324,M,,*76
2017-12-01 13:51:54 1512154314.810145: $GPRMC,185155,A,3946.9570,N,08404.9853,W,0.0000,0.000,011217,,*3A
2017-12-01 13:51:54 1512154314.810206: $GPGSA,A,3,10,14,15,18,20,21,24,27,32,8,138,,2.0,0.8,1.5*34
2017-12-01 13:51:55 1512154315.436524: $GPZDA,185156.00,01,12,2017,00,00*6E
2017-12-01 13:51:55 1512154315.436693: $GPGGA,185156,3946.9570,N,08404.9853,W,2,11,0.80,298.25,M,-33.324,M,,*75
2017-12-01 13:51:55 1512154315.436759: $GPRMC,185156,A,3946.9570,N,08404.9853,W,0.0000,0.000,011217,,*39
2017-12-01 13:51:55 1512154315.436820: $GPGSA,A,3,10,14,15,18,20,21,24,27,32,8,138,,2.0,0.8,1.5*34
2017-12-01 13:51:56 1512154316.382134: $GPZDA,185157.00,01,12,2017,00,00*6F
2017-12-01 13:51:56 1512154316.382308: $GPGGA,185157,3946.9570,N,08404.9853,W,2,11,0.80,298.25,M,-33.324,M,,*74
2017-12-01 13:51:56 1512154316.382376: $GPRMC,185157,A,3946.9570,N,08404.9853,W,0.0000,0.000,011217,,*38
2017-12-01 13:51:56 1512154316.382437: $GPGSA,A,3,10,14,15,18,20,21,24,27,32,8,138,,2.0,0.8,1.5*34
2017-12-01 13:51:57 1512154317.722852: $GPGSV,3,1,11,10,56,315,49,14,18,243,37,15,22,060,46,18,77,043,42*76
2017-12-01 13:51:57 1512154317.723034: $GPGSV,3,2,11,20,20,109,44,21,44,181,44,24,52,078,48,27,14,271,39*77
2017-12-01 13:51:57 1512154317.723101: $GPGSV,3,3,11,32,35,252,41,08,08,306,29,138,38,213,46*73
2017-12-01 13:51:57 1512154317.836445: $GPZDA,185158.00,01,12,2017,00,00*60
2017-12-01 13:51:57 1512154317.836582: $GPGGA,185158,3946.9570,N,08404.9853,W,2,11,0.80,298.25,M,-33.324,M,,*7B
2017-12-01 13:51:57 1512154317.836700: $GPRMC,185158,A,3946.9570,N,08404.9853,W,0.0000,0.000,011217,,*37
2017-12-01 13:51:57 1512154317.836762: $GPGSA,A,3,10,14,15,18,20,21,24,27,32,8,138,,2.0,0.8,1.5*34
2017-12-01 13:51:58 1512154318.387490: $GPZDA,185159.00,01,12,2017,00,00*61
2017-12-01 13:51:58 1512154318.387670: $GPGGA,185159,3946.9570,N,08404.9853,W,2,11,0.80,298.25,M,-33.324,M,,*7A
2017-12-01 13:51:58 1512154318.387737: $GPRMC,185159,A,3946.9570,N,08404.9853,W,0.0000,0.000,011217,,*36
2017-12-01 13:51:58 1512154318.387799: $GPGSA,A,3,10,14,15,18,20,21,24,27,32,8,138,,2.0,0.8,1.5*34
2017-12-01 13:51:59 1512154319.363052: $GPZDA,185200.00,01,12,2017,00,00*6E
2017-12-01 13:51:59 1512154319.363225: $GPGGA,185200,3946.9570,N,08404.9853,W,2,11,0.80,298.25,M,-33.324,M,,*75
2017-12-01 13:51:59 1512154319.363292: $GPRMC,185200,A,3946.9570,N,08404.9853,W,0.0000,0.000,011217,,*39
2017-12-01 13:51:59 1512154319.363353: $GPGSA,A,3,10,14,15,18,20,21,24,27,32,8,138,,2.0,0.8,1.5*34
