2017-12-14 12:30:31 1513272631.333045: {"class":"VERSION","release":"3.16","rev":"3.16-4","proto_major":3,"proto_minor":11}
2017-12-14 12:30:31 1513272631.333401: {"class":"DEVICES","devices":[{"class":"DEVICE","path":"/dev/ttyUSB0","driver":"SiRF","subtype":"9\u0006GSD4e_4.1.2-P1_RPATCH.05-F-GPS-4R-1510281 11/03/2015 307","activated":"2017-12-14T17:30:30.996Z","flags":1,"native":1,"bps":4800,"parity":"N","stopbits":1,"cycle":1.00}]}
2017-12-14 12:30:31 1513272631.333521: {"class":"WATCH","enable":true,"json":false,"nmea":true,"raw":0,"scaled":false,"timing":false,"split24":false,"pps":false}
2017-12-14 12:30:32 1513272632.285828: $GPRMC,173032,V,18000.0000,N,00000.0000,W,0.0000,0.000,141217,,*15
2017-12-14 12:30:32 1513272632.286035: $GPGSA,A,1,21,20,24,10,18,27,32,15,,,,,,,,*3D
2017-12-14 12:30:33 1513272633.252252: $GPRMC,173033,V,3946.9464,N,08404.9413,W,0.0000,0.000,141217,,*2D
2017-12-14 12:30:33 1513272633.252432: $GPGSA,A,1,21,20,24,10,18,27,32,15,,,,,,,,*3D
2017-12-14 12:30:33 1513272633.843267: $GPGSV,3,1,11,10,46,306,07,15,32,054,06,20,30,100,08,24,52,100,07*77
2017-12-14 12:30:33 1513272633.843451: $GPGSV,3,2,11,27,18,283,05,32,26,241,05,18,74,352,00,14,08,235,00*78
2017-12-14 12:30:33 1513272633.843521: $GPGSV,3,3,11,08,07,318,00,21,57,184,00,13,03,051,00*45
2017-12-14 12:30:33 1513272633.955579: $GPRMC,173034,V,3946.9514,N,08404.9413,W,0.9681,187.434,141217,,*27
2017-12-14 12:30:33 1513272633.955757: $GPGSA,A,1,10,15,20,24,27,32,,,,,,,,,,*37
2017-12-14 12:30:34 1513272634.509755: $GPZDA,173034.97,14,12,2017,00,00*68
2017-12-14 12:30:34 1513272634.509933: $GPGGA,173034,3946.9527,N,08404.9420,W,1,06,1.20,323.48,M,-33.324,M,,*77
2017-12-14 12:30:34 1513272634.509998: $GPRMC,173034,A,3946.9527,N,08404.9420,W,1.1200,227.462,141217,,*3E
2017-12-14 12:30:34 1513272634.510061: $GPGSA,A,3,10,15,20,24,27,32,,,,,,,6.6,1.2,6.2*30
2017-12-14 12:30:34 1513272634.510116: $GPGBS,173034,24.66,M,21.80,M,143.40,M*33
2017-12-14 12:30:34 1513272634.763453: $GPZDA,173035.28,14,12,2017,00,00*6D
2017-12-14 12:30:34 1513272634.763621: $GPGGA,173035,3946.9527,N,08404.9420,W,1,06,1.20,323.48,M,-33.324,M,,*76
2017-12-14 12:30:34 1513272634.763691: $GPRMC,173035,A,3946.9527,N,08404.9420,W,0.9988,284.546,141217,,*33
2017-12-14 12:30:34 1513272634.763751: $GPGSA,A,3,10,15,20,24,27,32,,,,,,,6.6,1.2,6.2*30
2017-12-14 12:30:34 1513272634.763811: $GPGBS,173035,24.66,M,21.80,M,143.40,M*32
2017-12-14 12:30:35 1513272635.546359: $GPGSV,3,1,12,10,46,306,22,15,32,054,20,20,30,100,28,24,52,100,24*74
2017-12-14 12:30:35 1513272635.546540: $GPGSV,3,2,12,27,18,283,16,32,26,241,19,13,03,051,04,18,74,352,00*7C
2017-12-14 12:30:35 1513272635.546607: $GPGSV,3,3,12,14,08,235,00,08,07,318,00,21,57,184,00,138,38,213,00*4B
2017-12-14 12:30:35 1513272635.660119: $GPZDA,173036.00,14,12,2017,00,00*64
2017-12-14 12:30:35 1513272635.660264: $GPGGA,173036,3946.9527,N,08404.9427,W,1,07,1.20,323.40,M,-33.324,M,,*7B
2017-12-14 12:30:35 1513272635.660349: $GPRMC,173036,A,3946.9527,N,08404.9427,W,0.4844,273.795,141217,,*3F
2017-12-14 12:30:35 1513272635.660411: $GPGSA,A,3,10,15,20,24,27,32,13,,,,,,6.6,1.2,6.2*32
2017-12-14 12:30:36 1513272636.210252: $GPZDA,173037.00,14,12,2017,00,00*65
2017-12-14 12:30:36 1513272636.210424: $GPGGA,173037,3946.9527,N,08404.9427,W,1,07,1.20,323.40,M,-33.324,M,,*7A
2017-12-14 12:30:36 1513272636.210510: $GPRMC,173037,A,3946.9527,N,08404.9427,W,0.2959,234.768,141217,,*34
2017-12-14 12:30:36 1513272636.210574: $GPGSA,A,3,10,15,20,24,27,32,13,,,,,,6.6,1.2,6.2*32
2017-12-14 12:30:37 1513272637.212724: $GPZDA,173038.00,14,12,2017,00,00*6A
2017-12-14 12:30:37 1513272637.212898: $GPGGA,173038,3946.9531,N,08404.9427,W,1,07,1.20,324.04,M,-33.324,M,,*75
2017-12-14 12:30:37 1513272637.212965: $GPRMC,173038,A,3946.9531,N,08404.9427,W,0.4844,273.795,141217,,*36
2017-12-14 12:30:37 1513272637.213027: $GPGSA,A,3,10,15,20,24,27,32,13,,,,,,6.6,1.2,6.2*32
2017-12-14 12:30:37 1513272637.213084: $GPGBS,173038,24.66,M,21.80,M,143.40,M*3F
2017-12-14 12:30:38 1513272638.547324: $GPGSV,3,1,12,10,46,306,22,15,32,054,20,20,30,100,28,24,52,100,24*74
2017-12-14 12:30:38 1513272638.547560: $GPGSV,3,2,12,27,18,283,16,32,26,241,19,18,74,352,00,14,08,235,00*74
2017-12-14 12:30:38 1513272638.547629: $GPGSV,3,3,12,08,07,318,00,21,57,184,00,13,03,051,00,138,38,213,00*47
2017-12-14 12:30:38 1513272638.660994: $GPZDA,173039.00,14,12,2017,00,00*6B
2017-12-14 12:30:38 1513272638.661163: $GPGGA,173039,3946.9531,N,08404.9427,W,1,06,1.20,324.04,M,-33.324,M,,*75
2017-12-14 12:30:38 1513272638.661229: $GPRMC,173039,A,3946.9531,N,08404.9427,W,0.3423,184.197,141217,,*32
2017-12-14 12:30:38 1513272638.661291: $GPGSA,A,3,10,15,20,24,27,32,,,,,,,6.6,1.2,6.2*30
2017-12-14 12:30:39 1513272639.213646: $GPZDA,173040.00,14,12,2017,00,00*65
2017-12-14 12:30:39 1513272639.213811: $GPGGA,173040,3946.9536,N,08404.9427,W,1,06,1.20,324.68,M,-33.324,M,,*76
2017-12-14 12:30:39 1513272639.213877: $GPRMC,173040,A,3946.9536,N,08404.9427,W,0.3735,0.000,141217,,*3D
2017-12-14 12:30:39 1513272639.213939: $GPGSA,A,3,10,15,20,24,27,32,,,,,,,6.6,1.2,6.2*30
2017-12-14 12:30:40 1513272640.211774: $GPZDA,173041.00,14,12,2017,00,00*64
2017-12-14 12:30:40 1513272640.211945: $GPGGA,173041,3946.9540,N,08404.9427,W,1,06,1.20,325.32,M,-33.324,M,,*78
2017-12-14 12:30:40 1513272640.212012: $GPRMC,173041,A,3946.9540,N,08404.9427,W,0.5075,72.257,141217,,*0D
2017-12-14 12:30:40 1513272640.212139: $GPGSA,A,3,10,15,20,24,27,32,,,,,,,6.6,1.2,6.2*30
2017-12-14 12:30:41 1513272641.549216: $GPGSV,3,1,12,10,46,306,23,15,32,054,20,20,30,100,27,24,52,100,24*7A
2017-12-14 12:30:41 1513272641.549393: $GPGSV,3,2,12,27,18,283,16,32,26,241,19,18,74,352,03,14,08,235,00*77
2017-12-14 12:30:41 1513272641.549458: $GPGSV,3,3,12,08,07,318,00,21,57,184,00,13,03,051,00,138,38,213,00*47
2017-12-14 12:30:41 1513272641.662886: $GPZDA,173042.00,14,12,2017,00,00*67
2017-12-14 12:30:41 1513272641.663050: $GPGGA,173042,3946.9544,N,08404.9427,W,1,06,1.20,325.96,M,-33.324,M,,*71
2017-12-14 12:30:41 1513272641.663116: $GPRMC,173042,A,3946.9544,N,08404.9427,W,0.4584,328.179,141217,,*33
2017-12-14 12:30:41 1513272641.663178: $GPGSA,A,3,10,15,20,24,27,32,,,,,,,6.6,1.2,6.2*30
2017-12-14 12:30:42 1513272642.212954: $GPZDA,173043.00,14,12,2017,00,00*66
2017-12-14 12:30:42 1513272642.213127: $GPGGA,173043,3946.9544,N,08404.9427,W,1,06,1.20,325.96,M,-33.324,M,,*70
2017-12-14 12:30:42 1513272642.213192: $GPRMC,173043,A,3946.9544,N,08404.9427,W,0.5857,338.291,141217,,*34
2017-12-14 12:30:42 1513272642.213254: $GPGSA,A,3,10,15,20,24,27,32,,,,,,,6.6,1.2,6.2*30
2017-12-14 12:30:43 1513272643.214547: $GPZDA,173044.00,14,12,2017,00,00*61
2017-12-14 12:30:43 1513272643.214725: $GPGGA,173044,3946.9548,N,08404.9427,W,1,06,1.20,326.60,M,-33.324,M,,*71
2017-12-14 12:30:43 1513272643.214796: $GPRMC,173044,A,3946.9548,N,08404.9427,W,0.3554,311.360,141217,,*33
2017-12-14 12:30:43 1513272643.214857: $GPGSA,A,3,10,15,20,24,27,32,,,,,,,6.6,1.2,6.2*30
2017-12-14 12:30:44 1513272644.547806: $GPGSV,3,1,12,10,46,306,23,15,32,054,20,20,30,100,27,24,52,100,24*7A
2017-12-14 12:30:44 1513272644.547988: $GPGSV,3,2,12,27,18,283,16,32,26,241,19,08,07,318,11,18,74,352,00*78
2017-12-14 12:30:44 1513272644.548054: $GPGSV,3,3,12,14,08,235,00,21,57,184,00,13,03,051,00,138,38,213,00*4B
2017-12-14 12:30:44 1513272644.661152: $GPZDA,173045.00,14,12,2017,00,00*60
2017-12-14 12:30:44 1513272644.661285: $GPGGA,173045,3946.9549,N,08404.9428,W,1,07,1.20,328.00,M,-33.324,M,,*77
2017-12-14 12:30:44 1513272644.661349: $GPRMC,173045,A,3946.9549,N,08404.9428,W,0.5486,215.274,141217,,*35
2017-12-14 12:30:44 1513272644.661411: $GPGSA,A,3,10,15,20,24,27,32,8,,,,,,6.6,1.2,6.2*08
2017-12-14 12:30:45 1513272645.213276: $GPZDA,173046.00,14,12,2017,00,00*63
2017-12-14 12:30:45 1513272645.213476: $GPGGA,173046,3946.9549,N,08404.9435,W,1,07,1.20,327.92,M,-33.324,M,,*7C
2017-12-14 12:30:45 1513272645.213578: $GPRMC,173046,A,3946.9549,N,08404.9435,W,0.5486,215.274,141217,,*3A
2017-12-14 12:30:45 1513272645.213673: $GPGSA,A,3,10,15,20,24,27,32,8,,,,,,6.6,1.2,6.2*08
2017-12-14 12:30:46 1513272646.212612: $GPZDA,173047.00,14,12,2017,00,00*62
2017-12-14 12:30:46 1513272646.212808: $GPGGA,173047,3946.9545,N,08404.9429,W,1,07,1.20,328.76,M,-33.324,M,,*79
2017-12-14 12:30:46 1513272646.212934: $GPRMC,173047,A,3946.9545,N,08404.9429,W,0.2872,195.168,141217,,*3F
2017-12-14 12:30:46 1513272646.213000: $GPGSA,A,3,10,15,20,24,27,32,8,,,,,,6.6,1.2,6.2*08
2017-12-14 12:30:47 1513272647.549749: $GPGSV,3,1,12,10,46,306,22,15,32,054,20,20,30,100,27,24,52,100,24*7B
2017-12-14 12:30:47 1513272647.549927: $GPGSV,3,2,12,27,18,283,16,32,26,241,19,13,03,051,11,18,74,352,00*78
2017-12-14 12:30:47 1513272647.549994: $GPGSV,3,3,12,14,08,235,00,08,07,318,00,21,57,184,00,138,38,213,00*4B
2017-12-14 12:30:47 1513272647.664834: $GPZDA,173048.00,14,12,2017,00,00*6D
2017-12-14 12:30:47 1513272647.665030: $GPGGA,173048,3946.9550,N,08404.9429,W,1,07,1.20,329.40,M,-33.324,M,,*76
2017-12-14 12:30:47 1513272647.665102: $GPRMC,173048,A,3946.9550,N,08404.9429,W,0.3133,189.201,141217,,*38
2017-12-14 12:30:47 1513272647.665166: $GPGSA,A,3,10,15,20,24,27,32,13,,,,,,6.6,1.2,6.2*32
2017-12-14 12:30:48 1513272648.211970: $GPZDA,173049.00,14,12,2017,00,00*6C
2017-12-14 12:30:48 1513272648.212198: $GPGGA,173049,3946.9550,N,08404.9429,W,1,07,1.20,329.40,M,-33.324,M,,*77
2017-12-14 12:30:48 1513272648.212270: $GPRMC,173049,A,3946.9550,N,08404.9429,W,0.0407,322.011,141217,,*38
2017-12-14 12:30:48 1513272648.212331: $GPGSA,A,3,10,15,20,24,27,32,13,,,,,,6.6,1.2,6.2*32
2017-12-14 12:30:49 1513272649.214478: $GPZDA,173050.00,14,12,2017,00,00*64
2017-12-14 12:30:49 1513272649.214656: $GPGGA,173050,3946.9554,N,08404.9429,W,1,07,1.20,330.04,M,-33.324,M,,*73
2017-12-14 12:30:49 1513272649.214729: $GPRMC,173050,A,3946.9554,N,08404.9429,W,0.3735,0.000,141217,,*36
2017-12-14 12:30:49 1513272649.214790: $GPGSA,A,3,10,15,20,24,27,32,13,,,,,,6.6,1.2,6.2*32
2017-12-14 12:30:49 1513272649.214847: $GPGBS,173050,24.66,M,21.80,M,143.40,M*31
2017-12-14 12:30:50 1513272650.547711: $GPGSV,3,1,12,10,46,306,22,15,32,054,20,20,30,100,27,24,52,100,24*7B
2017-12-14 12:30:50 1513272650.547891: $GPGSV,3,2,12,27,18,283,16,32,26,241,19,18,74,352,00,14,08,235,00*74
2017-12-14 12:30:50 1513272650.547958: $GPGSV,3,3,12,08,07,318,00,21,57,184,00,13,03,051,00,138,38,213,00*47
2017-12-14 12:30:50 1513272650.661132: $GPZDA,173051.00,14,12,2017,00,00*65
2017-12-14 12:30:50 1513272650.661293: $GPGGA,173051,3946.9554,N,08404.9429,W,1,06,1.20,330.04,M,-33.324,M,,*73
2017-12-14 12:30:50 1513272650.661360: $GPRMC,173051,A,3946.9554,N,08404.9429,W,0.4063,356.465,141217,,*33
2017-12-14 12:30:50 1513272650.661420: $GPGSA,A,3,10,15,20,24,27,32,,,,,,,6.6,1.2,6.2*30
2017-12-14 12:30:51 1513272651.211270: $GPZDA,173052.00,14,12,2017,00,00*66
2017-12-14 12:30:51 1513272651.211440: $GPGGA,173052,3946.9558,N,08404.9429,W,1,06,1.20,330.68,M,-33.324,M,,*76
2017-12-14 12:30:51 1513272651.211510: $GPRMC,173052,A,3946.9558,N,08404.9429,W,0.4583,89.998,141217,,*09
2017-12-14 12:30:51 1513272651.211573: $GPGSA,A,3,10,15,20,24,27,32,,,,,,,6.6,1.2,6.2*30
