2017-11-16 15:51:50 1510865510.619421: {"class":"VERSION","release":"3.17","rev":"3.17","proto_major":3,"proto_minor":12}
2017-11-16 15:51:50 1510865510.619884: {"class":"DEVICES","devices":[{"class":"DEVICE","path":"/dev/ttyUSB0","driver":"SiRF","subtype":"9\u0006GSD4e_4.1.2-P1_RPATCH.05-F-GPS-4R-1510281 11/03/2015 307","activated":"2017-11-16T20:51:50.522Z","flags":1,"native":1,"bps":4800,"parity":"N","stopbits":1,"cycle":1.00}]}
2017-11-16 15:51:50 1510865510.620001: {"class":"WATCH","enable":true,"json":false,"nmea":true,"raw":0,"scaled":false,"timing":false,"split24":false,"pps":false}
2017-11-16 15:51:51 1510865511.382418: $GPZDA,205150.00,16,11,2017,00,00*66
2017-11-16 15:51:51 1510865511.382577: $GPGGA,205150,3946.9579,N,08404.9851,W,2,12,1.20,308.80,M,-33.324,M,,*7C
2017-11-16 15:51:51 1510865511.382638: $GPRMC,205150,A,3946.9579,N,08404.9851,W,0.0000,0.000,161117,,*3A
2017-11-16 15:51:51 1510865511.382694: $GPGSA,A,3,11,10,14,8,18,25,21,24,31,32,12,138,1.6,1.2,1.3*39
2017-11-16 15:51:52 1510865512.720647: $GPGSV,3,1,12,11,03,322,30,10,79,355,51,14,37,264,45,08,02,283,29*7B
2017-11-16 15:51:52 1510865512.720821: $GPGSV,3,2,12,18,62,112,49,25,11,135,30,21,18,177,38,24,36,051,49*70
2017-11-16 15:51:52 1510865512.720882: $GPGSV,3,3,12,31,09,204,28,32,54,279,45,12,16,097,42,138,38,213,44*4D
2017-11-16 15:51:52 1510865512.834135: $GPZDA,205151.00,16,11,2017,00,00*67
2017-11-16 15:51:52 1510865512.834294: $GPGGA,205151,3946.9579,N,08404.9851,W,2,12,1.20,308.80,M,-33.324,M,,*7D
2017-11-16 15:51:52 1510865512.834354: $GPRMC,205151,A,3946.9579,N,08404.9851,W,0.0000,0.000,161117,,*3B
2017-11-16 15:51:52 1510865512.834409: $GPGSA,A,3,11,10,14,8,18,25,21,24,31,32,12,138,1.6,1.2,1.3*39
2017-11-16 15:51:53 1510865513.381693: $GPZDA,205152.00,16,11,2017,00,00*64
2017-11-16 15:51:53 1510865513.381874: $GPGGA,205152,3946.9579,N,08404.9851,W,2,12,1.20,308.80,M,-33.324,M,,*7E
2017-11-16 15:51:53 1510865513.381945: $GPRMC,205152,A,3946.9579,N,08404.9851,W,0.0000,0.000,161117,,*38
2017-11-16 15:51:53 1510865513.382014: $GPGSA,A,3,11,10,14,8,18,25,21,24,31,32,12,138,1.6,1.2,1.3*39
2017-11-16 15:51:54 1510865514.367068: $GPZDA,205153.00,16,11,2017,00,00*65
2017-11-16 15:51:54 1510865514.367222: $GPGGA,205153,3946.9579,N,08404.9851,W,2,12,1.20,308.80,M,-33.324,M,,*7F
2017-11-16 15:51:54 1510865514.367282: $GPRMC,205153,A,3946.9579,N,08404.9851,W,0.0000,0.000,161117,,*39
2017-11-16 15:51:54 1510865514.367337: $GPGSA,A,3,11,10,14,8,18,25,21,24,31,32,12,138,1.6,1.2,1.3*39
2017-11-16 15:51:55 1510865515.703829: $GPGSV,3,1,12,11,03,322,31,10,79,355,51,14,37,264,45,08,02,283,30*72
2017-11-16 15:51:55 1510865515.703998: $GPGSV,3,2,12,18,62,112,49,25,11,135,32,21,18,177,39,24,36,051,49*73
2017-11-16 15:51:55 1510865515.704058: $GPGSV,3,3,12,31,09,204,28,32,54,279,45,12,16,097,42,138,38,213,44*4D
2017-11-16 15:51:55 1510865515.817106: $GPZDA,205154.00,16,11,2017,00,00*62
2017-11-16 15:51:55 1510865515.817275: $GPGGA,205154,3946.9579,N,08404.9851,W,2,12,1.20,308.80,M,-33.324,M,,*78
2017-11-16 15:51:55 1510865515.817338: $GPRMC,205154,A,3946.9579,N,08404.9851,W,0.0000,0.000,161117,,*3E
2017-11-16 15:51:55 1510865515.817393: $GPGSA,A,3,11,10,14,8,18,25,21,24,31,32,12,138,1.6,1.2,1.3*39
2017-11-16 15:51:56 1510865516.442832: $GPZDA,205155.00,16,11,2017,00,00*63
2017-11-16 15:51:56 1510865516.442995: $GPGGA,205155,3946.9582,N,08404.9851,W,2,12,1.20,308.03,M,-33.324,M,,*76
2017-11-16 15:51:56 1510865516.443055: $GPRMC,205155,A,3946.9582,N,08404.9851,W,0.0000,0.000,161117,,*3B
2017-11-16 15:51:56 1510865516.443110: $GPGSA,A,3,11,10,14,8,18,25,21,24,31,32,12,138,1.6,1.2,1.3*39
2017-11-16 15:51:57 1510865517.367467: $GPZDA,205156.00,16,11,2017,00,00*60
2017-11-16 15:51:57 1510865517.367631: $GPGGA,205156,3946.9582,N,08404.9851,W,2,12,1.20,308.03,M,-33.324,M,,*75
2017-11-16 15:51:57 1510865517.367713: $GPRMC,205156,A,3946.9582,N,08404.9851,W,0.0000,0.000,161117,,*38
2017-11-16 15:51:57 1510865517.367771: $GPGSA,A,3,11,10,14,8,18,25,21,24,31,32,12,138,1.6,1.2,1.3*39
2017-11-16 15:51:58 1510865518.718024: $GPGSV,3,1,12,11,03,322,37,10,79,355,51,14,37,264,46,08,02,283,30*77
2017-11-16 15:51:58 1510865518.718259: $GPGSV,3,2,12,18,62,112,49,25,11,135,32,21,18,177,39,24,36,051,50*7B
2017-11-16 15:51:58 1510865518.718322: $GPGSV,3,3,12,31,09,204,29,32,54,279,45,12,16,097,42,138,38,213,45*4D
2017-11-16 15:51:58 1510865518.831633: $GPZDA,205157.00,16,11,2017,00,00*61
2017-11-16 15:51:58 1510865518.831793: $GPGGA,205157,3946.9582,N,08404.9851,W,2,12,1.20,308.03,M,-33.324,M,,*74
2017-11-16 15:51:58 1510865518.831853: $GPRMC,205157,A,3946.9582,N,08404.9851,W,0.0000,0.000,161117,,*39
2017-11-16 15:51:58 1510865518.831909: $GPGSA,A,3,11,10,14,8,18,25,21,24,31,32,12,138,1.6,1.2,1.3*39
2017-11-16 15:51:59 1510865519.365857: $GPZDA,205158.00,16,11,2017,00,00*6E
2017-11-16 15:51:59 1510865519.366027: $GPGGA,205158,3946.9582,N,08404.9851,W,2,12,1.20,308.03,M,-33.324,M,,*7B
2017-11-16 15:51:59 1510865519.366089: $GPRMC,205158,A,3946.9582,N,08404.9851,W,0.0000,0.000,161117,,*36
2017-11-16 15:51:59 1510865519.366146: $GPGSA,A,3,11,10,14,8,18,25,21,24,31,32,12,138,1.6,1.2,1.3*39
2017-11-16 15:52:00 1510865520.382963: $GPZDA,205159.00,16,11,2017,00,00*6F
2017-11-16 15:52:00 1510865520.383133: $GPGGA,205159,3946.9582,N,08404.9851,W,2,12,1.20,308.03,M,-33.324,M,,*7A
2017-11-16 15:52:00 1510865520.383194: $GPRMC,205159,A,3946.9582,N,08404.9851,W,0.0000,0.000,161117,,*37
2017-11-16 15:52:00 1510865520.383250: $GPGSA,A,3,11,10,14,8,18,25,21,24,31,32,12,138,1.6,1.2,1.3*39
