2017-12-31 18:39:18 1514763558.746565: {"class":"VERSION","release":"3.16","rev":"3.16-4","proto_major":3,"proto_minor":11}
2017-12-31 18:39:18 1514763558.746921: {"class":"DEVICES","devices":[{"class":"DEVICE","path":"/dev/ttyUSB0","driver":"SiRF","activated":"2017-12-31T23:39:18.682Z","flags":1,"native":1,"bps":4800,"parity":"N","stopbits":1,"cycle":1.00}]}
2017-12-31 18:39:18 1514763558.747019: {"class":"WATCH","enable":true,"json":false,"nmea":true,"raw":0,"scaled":false,"timing":false,"split24":false,"pps":false}
2017-12-31 18:39:18 1514763558.796008: $GPZDA,233919.00,31,12,2017,00,00*60
2017-12-31 18:39:18 1514763558.796164: $GPGGA,233919,3946.9578,N,08404.9837,W,2,12,0.80,307.55,M,-33.324,M,,*71
2017-12-31 18:39:18 1514763558.796228: $GPRMC,233919,A,3946.9578,N,08404.9837,W,0.0000,0.000,311217,,*3D
2017-12-31 18:39:18 1514763558.796287: $GPGSA,A,3,22,23,9,3,16,8,14,31,27,7,26,135,1.7,0.8,1.3*0C
2017-12-31 18:39:19 1514763559.390584: $GPZDA,233920.00,31,12,2017,00,00*6A
2017-12-31 18:39:19 1514763559.390803: $GPGGA,233920,3946.9578,N,08404.9837,W,2,12,0.80,307.55,M,-33.324,M,,*7B
2017-12-31 18:39:19 1514763559.390869: $GPRMC,233920,A,3946.9578,N,08404.9837,W,0.0000,0.000,311217,,*37
2017-12-31 18:39:19 1514763559.390930: $GPGSA,A,3,22,23,9,3,16,8,14,31,27,7,26,135,1.7,0.8,1.3*0C
2017-12-31 18:39:20 1514763560.352181: $GPZDA,233921.00,31,12,2017,00,00*6B
2017-12-31 18:39:20 1514763560.352342: $GPGGA,233921,3946.9578,N,08404.9837,W,2,12,0.80,307.55,M,-33.324,M,,*7A
2017-12-31 18:39:20 1514763560.352428: $GPRMC,233921,A,3946.9578,N,08404.9837,W,0.0000,0.000,311217,,*36
2017-12-31 18:39:20 1514763560.352491: $GPGSA,A,3,22,23,9,3,16,8,14,31,27,7,26,135,1.7,0.8,1.3*0C
2017-12-31 18:39:21 1514763561.687900: $GPGSV,3,1,12,22,12,207,26,23,64,292,40,09,31,312,41,03,22,225,35*7A
2017-12-31 18:39:21 1514763561.688074: $GPGSV,3,2,12,16,83,042,41,08,11,177,26,14,04,138,18,31,20,084,37*73
2017-12-31 18:39:21 1514763561.688140: $GPGSV,3,3,12,27,34,147,41,07,06,280,39,26,50,046,46,135,22,240,44*4E
2017-12-31 18:39:21 1514763561.801513: $GPZDA,233922.00,31,12,2017,00,00*68
2017-12-31 18:39:21 1514763561.801701: $GPGGA,233922,3946.9578,N,08404.9837,W,2,12,0.80,307.55,M,-33.324,M,,*79
2017-12-31 18:39:21 1514763561.801765: $GPRMC,233922,A,3946.9578,N,08404.9837,W,0.0000,0.000,311217,,*35
2017-12-31 18:39:21 1514763561.801826: $GPGSA,A,3,22,23,9,3,16,8,14,31,27,7,26,135,1.7,0.8,1.3*0C
2017-12-31 18:39:22 1514763562.388385: $GPZDA,233923.00,31,12,2017,00,00*69
2017-12-31 18:39:22 1514763562.388598: $GPGGA,233923,3946.9578,N,08404.9837,W,2,12,0.80,307.55,M,-33.324,M,,*78
2017-12-31 18:39:22 1514763562.388667: $GPRMC,233923,A,3946.9578,N,08404.9837,W,0.0000,0.000,311217,,*34
2017-12-31 18:39:22 1514763562.388729: $GPGSA,A,3,22,23,9,3,16,8,14,31,27,7,26,135,1.7,0.8,1.3*0C
2017-12-31 18:39:23 1514763563.351757: $GPZDA,233924.00,31,12,2017,00,00*6E
2017-12-31 18:39:23 1514763563.351933: $GPGGA,233924,3946.9578,N,08404.9837,W,2,12,0.80,307.55,M,-33.324,M,,*7F
2017-12-31 18:39:23 1514763563.352001: $GPRMC,233924,A,3946.9578,N,08404.9837,W,0.0000,0.000,311217,,*33
2017-12-31 18:39:23 1514763563.352063: $GPGSA,A,3,22,23,9,3,16,8,14,31,27,7,26,135,1.7,0.8,1.3*0C
2017-12-31 18:39:24 1514763564.714997: $GPGSV,3,1,12,22,12,207,26,23,64,292,40,09,31,312,42,03,22,225,36*7A
2017-12-31 18:39:24 1514763564.715174: $GPGSV,3,2,12,16,83,042,41,08,11,177,28,14,04,138,18,31,20,084,37*7D
2017-12-31 18:39:24 1514763564.715240: $GPGSV,3,3,12,27,34,147,41,07,06,280,40,26,50,046,46,135,22,240,44*40
2017-12-31 18:39:24 1514763564.828662: $GPZDA,233925.00,31,12,2017,00,00*6F
2017-12-31 18:39:24 1514763564.828833: $GPGGA,233925,3946.9578,N,08404.9837,W,2,12,0.80,307.55,M,-33.324,M,,*7E
2017-12-31 18:39:24 1514763564.828899: $GPRMC,233925,A,3946.9578,N,08404.9837,W,0.0000,0.000,311217,,*32
2017-12-31 18:39:24 1514763564.828960: $GPGSA,A,3,22,23,9,3,16,8,14,31,27,7,26,135,1.7,0.8,1.3*0C
2017-12-31 18:39:25 1514763565.453725: $GPZDA,233926.00,31,12,2017,00,00*6C
2017-12-31 18:39:25 1514763565.453902: $GPGGA,233926,3946.9578,N,08404.9837,W,2,12,0.80,307.55,M,-33.324,M,,*7D
2017-12-31 18:39:25 1514763565.454027: $GPRMC,233926,A,3946.9578,N,08404.9837,W,0.0000,0.000,311217,,*31
2017-12-31 18:39:25 1514763565.454090: $GPGSA,A,3,22,23,9,3,16,8,14,31,27,7,26,135,1.7,0.8,1.3*0C
2017-12-31 18:39:26 1514763566.353526: $GPZDA,233927.00,31,12,2017,00,00*6D
2017-12-31 18:39:26 1514763566.353682: $GPGGA,233927,3946.9578,N,08404.9837,W,2,12,0.80,307.55,M,-33.324,M,,*7C
2017-12-31 18:39:26 1514763566.353747: $GPRMC,233927,A,3946.9578,N,08404.9837,W,0.0000,0.000,311217,,*30
2017-12-31 18:39:26 1514763566.353808: $GPGSA,A,3,22,23,9,3,16,8,14,31,27,7,26,135,1.7,0.8,1.3*0C
2017-12-31 18:39:27 1514763567.689625: $GPGSV,3,1,12,22,12,207,26,23,64,292,41,09,31,312,42,03,22,225,36*7B
2017-12-31 18:39:27 1514763567.689973: $GPGSV,3,2,12,16,83,042,41,08,11,177,27,14,04,138,18,31,20,084,38*7D
2017-12-31 18:39:27 1514763567.690375: $GPGSV,3,3,12,27,34,147,40,07,06,280,41,26,50,046,46,135,22,240,42*46
2017-12-31 18:39:27 1514763567.802460: $GPZDA,233928.00,31,12,2017,00,00*62
2017-12-31 18:39:27 1514763567.802756: $GPGGA,233928,3946.9578,N,08404.9837,W,2,12,0.80,307.55,M,-33.324,M,,*73
2017-12-31 18:39:27 1514763567.802824: $GPRMC,233928,A,3946.9578,N,08404.9837,W,0.0000,0.000,311217,,*3F
2017-12-31 18:39:27 1514763567.802885: $GPGSA,A,3,22,23,9,3,16,8,14,31,27,7,26,135,1.7,0.8,1.3*0C
2017-12-31 18:39:28 1514763568.352510: $GPZDA,233929.00,31,12,2017,00,00*63
2017-12-31 18:39:28 1514763568.352680: $GPGGA,233929,3946.9578,N,08404.9837,W,2,12,0.80,307.55,M,-33.324,M,,*72
2017-12-31 18:39:28 1514763568.352745: $GPRMC,233929,A,3946.9578,N,08404.9837,W,0.0000,0.000,311217,,*3E
2017-12-31 18:39:28 1514763568.352806: $GPGSA,A,3,22,23,9,3,16,8,14,31,27,7,26,135,1.7,0.8,1.3*0C
2017-12-31 18:39:29 1514763569.388360: $GPZDA,233930.00,31,12,2017,00,00*6B
2017-12-31 18:39:29 1514763569.388546: $GPGGA,233930,3946.9578,N,08404.9837,W,2,12,0.80,307.55,M,-33.324,M,,*7A
2017-12-31 18:39:29 1514763569.388613: $GPRMC,233930,A,3946.9578,N,08404.9837,W,0.0000,0.000,311217,,*36
2017-12-31 18:39:29 1514763569.388674: $GPGSA,A,3,22,23,9,3,16,8,14,31,27,7,26,135,1.7,0.8,1.3*0C
2017-12-31 18:39:30 1514763570.724512: $GPGSV,3,1,12,22,12,207,27,23,64,292,41,09,31,312,42,03,22,225,37*7B
2017-12-31 18:39:30 1514763570.724689: $GPGSV,3,2,12,16,83,042,42,08,11,177,28,14,04,138,18,31,20,084,38*71
2017-12-31 18:39:30 1514763570.724754: $GPGSV,3,3,12,27,34,147,40,07,06,280,41,26,50,046,47,135,22,240,43*46
2017-12-31 18:39:30 1514763570.838206: $GPZDA,233931.00,31,12,2017,00,00*6A
2017-12-31 18:39:30 1514763570.838399: $GPGGA,233931,3946.9578,N,08404.9837,W,2,12,0.80,307.55,M,-33.324,M,,*7B
2017-12-31 18:39:30 1514763570.838483: $GPRMC,233931,A,3946.9578,N,08404.9837,W,0.0000,0.000,311217,,*37
2017-12-31 18:39:30 1514763570.838546: $GPGSA,A,3,22,23,9,3,16,8,14,31,27,7,26,135,1.7,0.8,1.3*0C
2017-12-31 18:39:31 1514763571.449050: $GPZDA,233932.00,31,12,2017,00,00*69
2017-12-31 18:39:31 1514763571.449224: $GPGGA,233932,3946.9578,N,08404.9837,W,2,12,0.80,307.55,M,-33.324,M,,*78
2017-12-31 18:39:31 1514763571.449290: $GPRMC,233932,A,3946.9578,N,08404.9837,W,0.0000,0.000,311217,,*34
2017-12-31 18:39:31 1514763571.449378: $GPGSA,A,3,22,23,9,3,16,8,14,31,27,7,26,135,1.7,0.8,1.3*0C
2017-12-31 18:39:31 1514763571.449439: $GPGBS,233932,2.22,M,3.43,M,7.66,M*35
2017-12-31 18:39:32 1514763572.344571: $GPZDA,233933.00,31,12,2017,00,00*68
2017-12-31 18:39:32 1514763572.344743: $GPGGA,233933,3946.9578,N,08404.9837,W,2,12,0.80,307.55,M,-33.324,M,,*79
2017-12-31 18:39:32 1514763572.344810: $GPRMC,233933,A,3946.9578,N,08404.9837,W,0.0000,0.000,311217,,*35
2017-12-31 18:39:32 1514763572.344871: $GPGSA,A,3,22,23,9,3,16,8,14,31,27,7,26,135,1.7,0.8,1.3*0C
2017-12-31 18:39:32 1514763572.344929: $GPGBS,233933,2.22,M,3.43,M,7.66,M*34
2017-12-31 18:39:33 1514763573.724015: $GPGSV,3,1,12,22,11,205,28,23,65,291,40,09,32,310,41,03,21,223,37*71
2017-12-31 18:39:33 1514763573.724194: $GPGSV,3,2,12,16,82,039,42,08,12,177,28,14,03,139,18,31,19,085,38*72
2017-12-31 18:39:33 1514763573.724260: $GPGSV,3,3,12,27,35,145,39,07,07,282,40,26,48,046,46,135,22,240,44*46
2017-12-31 18:39:33 1514763573.837717: $GPZDA,233934.00,31,12,2017,00,00*6F
2017-12-31 18:39:33 1514763573.837883: $GPGGA,233934,3946.9578,N,08404.9837,W,2,12,0.80,307.55,M,-33.324,M,,*7E
2017-12-31 18:39:33 1514763573.837949: $GPRMC,233934,A,3946.9578,N,08404.9837,W,0.0000,0.000,311217,,*32
2017-12-31 18:39:33 1514763573.838010: $GPGSA,A,3,22,23,9,3,16,8,14,31,27,7,26,135,1.7,0.8,1.3*0C
2017-12-31 18:39:34 1514763574.353263: $GPZDA,233935.00,31,12,2017,00,00*6E
2017-12-31 18:39:34 1514763574.353503: $GPGGA,233935,3946.9578,N,08404.9837,W,2,12,0.80,307.55,M,-33.324,M,,*7F
2017-12-31 18:39:34 1514763574.353573: $GPRMC,233935,A,3946.9578,N,08404.9837,W,0.0000,0.000,311217,,*33
2017-12-31 18:39:34 1514763574.353635: $GPGSA,A,3,22,23,9,3,16,8,14,31,27,7,26,135,1.7,0.8,1.3*0C
2017-12-31 18:39:35 1514763575.352551: $GPZDA,233936.00,31,12,2017,00,00*6D
2017-12-31 18:39:35 1514763575.352719: $GPGGA,233936,3946.9578,N,08404.9844,W,2,12,0.80,307.47,M,-33.324,M,,*7B
2017-12-31 18:39:35 1514763575.352786: $GPRMC,233936,A,3946.9578,N,08404.9844,W,0.0000,0.000,311217,,*34
2017-12-31 18:39:35 1514763575.352846: $GPGSA,A,3,22,23,9,3,16,8,14,31,27,7,26,135,1.7,0.8,1.3*0C
2017-12-31 18:39:36 1514763576.688134: $GPGSV,3,1,12,22,11,205,29,23,65,291,40,09,32,310,41,03,21,223,36*71
2017-12-31 18:39:36 1514763576.688334: $GPGSV,3,2,12,16,82,039,42,08,12,177,29,14,03,139,18,31,19,085,38*73
2017-12-31 18:39:36 1514763576.688400: $GPGSV,3,3,12,27,35,145,40,07,07,282,41,26,48,046,46,135,22,240,44*49
2017-12-31 18:39:36 1514763576.801727: $GPZDA,233937.00,31,12,2017,00,00*6C
2017-12-31 18:39:36 1514763576.801878: $GPGGA,233937,3946.9578,N,08404.9844,W,2,12,0.80,307.47,M,-33.324,M,,*7A
2017-12-31 18:39:36 1514763576.801945: $GPRMC,233937,A,3946.9578,N,08404.9844,W,0.0000,0.000,311217,,*35
2017-12-31 18:39:36 1514763576.802006: $GPGSA,A,3,22,23,9,3,16,8,14,31,27,7,26,135,1.7,0.8,1.3*0C
2017-12-31 18:39:37 1514763577.353610: $GPZDA,233938.00,31,12,2017,00,00*63
2017-12-31 18:39:37 1514763577.353805: $GPGGA,233938,3946.9578,N,08404.9844,W,2,12,0.80,307.47,M,-33.324,M,,*75
2017-12-31 18:39:37 1514763577.353873: $GPRMC,233938,A,3946.9578,N,08404.9844,W,0.0000,0.000,311217,,*3A
2017-12-31 18:39:37 1514763577.353935: $GPGSA,A,3,22,23,9,3,16,8,14,31,27,7,26,135,1.7,0.8,1.3*0C
2017-12-31 18:39:38 1514763578.351981: $GPZDA,233939.00,31,12,2017,00,00*62
2017-12-31 18:39:38 1514763578.352132: $GPGGA,233939,3946.9578,N,08404.9844,W,2,12,0.80,307.47,M,-33.324,M,,*74
2017-12-31 18:39:38 1514763578.352198: $GPRMC,233939,A,3946.9578,N,08404.9844,W,0.0000,0.000,311217,,*3B
2017-12-31 18:39:38 1514763578.352278: $GPGSA,A,3,22,23,9,3,16,8,14,31,27,7,26,135,1.7,0.8,1.3*0C
