2017-11-15 18:54:28 1510790068.394469: {"class":"VERSION","release":"3.17","rev":"3.17","proto_major":3,"proto_minor":12}
2017-11-15 18:54:28 1510790068.395030: {"class":"DEVICES","devices":[{"class":"DEVICE","path":"/dev/ttyUSB0","driver":"SiRF","subtype":"9\u0006GSD4e_4.1.2-P1_RPATCH.05-F-GPS-4R-1510281 11/03/2015 307","activated":"2017-11-15T23:54:28.366Z","flags":1,"native":1,"bps":4800,"parity":"N","stopbits":1,"cycle":1.00}]}
2017-11-15 18:54:28 1510790068.395177: {"class":"WATCH","enable":true,"json":false,"nmea":true,"raw":0,"scaled":false,"timing":false,"split24":false,"pps":false}
2017-11-15 18:54:29 1510790069.365412: $GPZDA,235428.00,15,11,2017,00,00*6C
2017-11-15 18:54:29 1510790069.365576: $GPGGA,235428,3946.9561,N,08404.9553,W,1,06,1.40,314.37,M,-33.324,M,,*72
2017-11-15 18:54:29 1510790069.365639: $GPRMC,235428,A,3946.9561,N,08404.9553,W,0.4844,93.794,151117,,*0A
2017-11-15 18:54:29 1510790069.365695: $GPGSA,A,3,14,3,32,31,26,22,,,,,,,3.4,1.4,2.9*0A
2017-11-15 18:54:30 1510790070.702467: $GPGSV,3,1,11,25,30,049,00,14,65,063,17,03,28,312,16,32,49,090,29*77
2017-11-15 18:54:30 1510790070.702640: $GPGSV,3,2,11,31,79,331,27,26,35,177,23,01,15,267,00,10,13,157,00*74
2017-11-15 18:54:30 1510790070.702701: $GPGSV,3,3,11,16,06,190,00,22,45,294,10,29,04,085,00*4D
2017-11-15 18:54:30 1510790070.815841: $GPZDA,235429.00,15,11,2017,00,00*6D
2017-11-15 18:54:30 1510790070.816022: $GPGGA,235429,3946.9561,N,08404.9553,W,1,06,1.40,314.37,M,-33.324,M,,*73
2017-11-15 18:54:30 1510790070.816087: $GPRMC,235429,A,3946.9561,N,08404.9553,W,0.3423,184.197,151117,,*33
2017-11-15 18:54:30 1510790070.816146: $GPGSA,A,3,14,3,32,31,26,22,,,,,,,3.4,1.4,2.9*0A
2017-11-15 18:54:31 1510790071.441112: $GPZDA,235430.00,15,11,2017,00,00*65
2017-11-15 18:54:31 1510790071.441300: $GPGGA,235430,3946.9557,N,08404.9553,W,1,06,1.40,313.73,M,-33.324,M,,*79
2017-11-15 18:54:31 1510790071.441363: $GPRMC,235430,A,3946.9557,N,08404.9553,W,0.7246,164.668,151117,,*36
2017-11-15 18:54:31 1510790071.441420: $GPGSA,A,3,14,3,32,31,26,22,,,,,,,3.4,1.4,2.9*0A
2017-11-15 18:54:32 1510790072.332423: $GPZDA,235431.00,15,11,2017,00,00*64
2017-11-15 18:54:32 1510790072.332594: $GPGGA,235431,3946.9557,N,08404.9553,W,1,06,1.40,313.73,M,-33.324,M,,*78
2017-11-15 18:54:32 1510790072.332658: $GPRMC,235431,A,3946.9557,N,08404.9553,W,0.7246,164.668,151117,,*37
2017-11-15 18:54:32 1510790072.332717: $GPGSA,A,3,14,3,32,31,26,22,,,,,,,3.4,1.4,2.9*0A
2017-11-15 18:54:32 1510790072.332772: $GPGBS,235431,13.59,M,20.35,M,67.34,M*00
2017-11-15 18:54:33 1510790073.664699: $GPGSV,3,1,11,10,12,159,07,14,65,066,16,03,29,312,16,32,48,093,29*71
2017-11-15 18:54:33 1510790073.664874: $GPGSV,3,2,11,31,78,337,27,26,36,177,23,16,07,190,13,25,29,048,00*7C
2017-11-15 18:54:33 1510790073.664934: $GPGSV,3,3,11,01,14,265,00,22,46,292,10,29,04,085,00*44
2017-11-15 18:54:33 1510790073.778501: $GPZDA,235432.00,15,11,2017,00,00*67
2017-11-15 18:54:33 1510790073.778663: $GPGGA,235432,3946.9549,N,08404.9554,W,1,06,1.40,313.86,M,-33.324,M,,*79
2017-11-15 18:54:33 1510790073.778724: $GPRMC,235432,A,3946.9549,N,08404.9554,W,1.0269,184.197,151117,,*3E
2017-11-15 18:54:33 1510790073.778782: $GPGSA,A,3,14,3,32,31,26,22,,,,,,,3.4,1.4,2.9*0A
2017-11-15 18:54:34 1510790074.328885: $GPZDA,235433.00,15,11,2017,00,00*66
2017-11-15 18:54:34 1510790074.329051: $GPGGA,235433,3946.9549,N,08404.9554,W,1,06,1.40,313.86,M,-33.324,M,,*78
2017-11-15 18:54:34 1510790074.329114: $GPRMC,235433,A,3946.9549,N,08404.9554,W,0.8709,183.298,151117,,*3E
2017-11-15 18:54:34 1510790074.329171: $GPGSA,A,3,14,3,32,31,26,22,,,,,,,3.4,1.4,2.9*0A
2017-11-15 18:54:35 1510790075.328539: $GPZDA,235434.00,15,11,2017,00,00*61
2017-11-15 18:54:35 1510790075.328711: $GPGGA,235434,3946.9545,N,08404.9561,W,1,06,1.40,313.14,M,-33.324,M,,*7E
2017-11-15 18:54:35 1510790075.330122: $GPRMC,235434,A,3946.9545,N,08404.9561,W,0.6846,184.197,151117,,*32
2017-11-15 18:54:35 1510790075.330188: $GPGSA,A,3,14,3,32,31,26,22,,,,,,,3.4,1.4,2.9*0A
2017-11-15 18:54:36 1510790076.665049: $GPGSV,3,1,11,10,12,159,11,14,65,066,16,03,29,312,16,32,48,093,29*76
2017-11-15 18:54:36 1510790076.665287: $GPGSV,3,2,11,31,78,337,27,26,36,177,23,25,29,048,00,01,14,265,00*73
2017-11-15 18:54:36 1510790076.665352: $GPGSV,3,3,11,16,07,190,00,22,46,292,10,29,04,085,00*49
2017-11-15 18:54:36 1510790076.778401: $GPZDA,235435.00,15,11,2017,00,00*60
2017-11-15 18:54:36 1510790076.778571: $GPGGA,235435,3946.9545,N,08404.9561,W,1,07,1.40,313.14,M,-33.324,M,,*7E
2017-11-15 18:54:36 1510790076.778633: $GPRMC,235435,A,3946.9545,N,08404.9561,W,0.7246,164.668,151117,,*31
2017-11-15 18:54:36 1510790076.778688: $GPGSA,A,3,10,14,3,32,31,26,22,,,,,,3.4,1.4,2.9*0B
2017-11-15 18:54:37 1510790077.329285: $GPZDA,235436.00,15,11,2017,00,00*63
2017-11-15 18:54:37 1510790077.329462: $GPGGA,235436,3946.9545,N,08404.9554,W,1,07,1.40,313.22,M,-33.324,M,,*7E
2017-11-15 18:54:37 1510790077.329526: $GPRMC,235436,A,3946.9545,N,08404.9554,W,0.8359,148.778,151117,,*3A
2017-11-15 18:54:37 1510790077.329583: $GPGSA,A,3,10,14,3,32,31,26,22,,,,,,3.4,1.4,2.9*0B
2017-11-15 18:54:38 1510790078.328897: $GPZDA,235437.00,15,11,2017,00,00*62
2017-11-15 18:54:38 1510790078.329064: $GPGGA,235437,3946.9541,N,08404.9554,W,1,07,1.40,312.58,M,-33.324,M,,*77
2017-11-15 18:54:38 1510790078.329128: $GPRMC,235437,A,3946.9541,N,08404.9554,W,0.4179,148.778,151117,,*33
2017-11-15 18:54:38 1510790078.329184: $GPGSA,A,3,10,14,3,32,31,26,22,,,,,,3.4,1.4,2.9*0B
2017-11-15 18:54:39 1510790079.664659: $GPGSV,3,1,11,10,12,159,12,14,65,066,15,03,29,312,16,32,48,093,29*76
2017-11-15 18:54:39 1510790079.664832: $GPGSV,3,2,11,31,78,337,27,26,36,177,23,25,29,048,00,01,14,265,00*73
2017-11-15 18:54:39 1510790079.664893: $GPGSV,3,3,11,16,07,190,00,22,46,292,11,29,04,085,00*48
2017-11-15 18:54:39 1510790079.778030: $GPZDA,235438.00,15,11,2017,00,00*6D
2017-11-15 18:54:39 1510790079.778196: $GPGGA,235438,3946.9541,N,08404.9554,W,1,07,1.40,312.58,M,-33.324,M,,*78
2017-11-15 18:54:39 1510790079.778259: $GPRMC,235438,A,3946.9541,N,08404.9554,W,0.3423,184.197,151117,,*36
2017-11-15 18:54:39 1510790079.778315: $GPGSA,A,3,10,14,3,32,31,26,22,,,,,,3.4,1.4,2.9*0B
2017-11-15 18:54:40 1510790080.328853: $GPZDA,235439.00,15,11,2017,00,00*6C
2017-11-15 18:54:40 1510790080.329035: $GPGGA,235439,3946.9541,N,08404.9554,W,1,07,1.40,312.58,M,-33.324,M,,*79
2017-11-15 18:54:40 1510790080.331425: $GPRMC,235439,A,3946.9541,N,08404.9554,W,0.3423,184.197,151117,,*37
2017-11-15 18:54:40 1510790080.331501: $GPGSA,A,3,10,14,3,32,31,26,22,,,,,,3.4,1.4,2.9*0B
2017-11-15 18:54:41 1510790081.330707: $GPZDA,235440.00,15,11,2017,00,00*62
2017-11-15 18:54:41 1510790081.330888: $GPGGA,235440,3946.9537,N,08404.9554,W,1,07,1.60,311.94,M,-33.324,M,,*77
2017-11-15 18:54:41 1510790081.330950: $GPRMC,235440,A,3946.9537,N,08404.9554,W,0.7267,93.794,151117,,*08
2017-11-15 18:54:41 1510790081.331012: $GPGSA,A,3,10,14,3,32,31,26,22,,,,,,3.4,1.6,2.9*09
2017-11-15 18:54:42 1510790082.666286: $GPGSV,3,1,11,10,12,159,12,14,65,066,13,03,29,312,16,32,48,093,29*70
2017-11-15 18:54:42 1510790082.666474: $GPGSV,3,2,11,31,78,337,27,26,36,177,23,29,04,085,09,25,29,048,00*7D
2017-11-15 18:54:42 1510790082.666534: $GPGSV,3,3,11,01,14,265,00,22,46,292,11,16,07,190,00*4F
2017-11-15 18:54:42 1510790082.778447: $GPZDA,235441.00,15,11,2017,00,00*63
2017-11-15 18:54:42 1510790082.778627: $GPGGA,235441,3946.9537,N,08404.9554,W,1,07,1.40,311.94,M,-33.324,M,,*74
2017-11-15 18:54:42 1510790082.778693: $GPRMC,235441,A,3946.9537,N,08404.9554,W,0.7621,107.945,151117,,*31
2017-11-15 18:54:42 1510790082.778753: $GPGSA,A,3,10,14,3,32,31,26,22,,,,,,3.4,1.4,2.9*0B
2017-11-15 18:54:43 1510790083.330479: $GPZDA,235442.00,15,11,2017,00,00*60
2017-11-15 18:54:43 1510790083.330654: $GPGGA,235442,3946.9536,N,08404.9547,W,1,07,1.40,312.02,M,-33.324,M,,*78
2017-11-15 18:54:43 1510790083.330716: $GPRMC,235442,A,3946.9536,N,08404.9547,W,0.9988,104.546,151117,,*3F
2017-11-15 18:54:43 1510790083.330789: $GPGSA,A,3,10,14,3,32,31,26,22,,,,,,3.4,1.4,2.9*0B
2017-11-15 18:54:44 1510790084.330129: $GPZDA,235443.00,15,11,2017,00,00*61
2017-11-15 18:54:44 1510790084.330309: $GPGGA,235443,3946.9536,N,08404.9547,W,1,07,1.40,312.02,M,-33.324,M,,*79
2017-11-15 18:54:44 1510790084.330452: $GPRMC,235443,A,3946.9536,N,08404.9547,W,0.9689,93.794,151117,,*02
2017-11-15 18:54:44 1510790084.330513: $GPGSA,A,3,10,14,3,32,31,26,22,,,,,,3.4,1.4,2.9*0B
2017-11-15 18:54:45 1510790085.664739: $GPGSV,3,1,11,10,12,159,12,14,65,066,13,03,29,312,16,32,48,093,29*70
2017-11-15 18:54:45 1510790085.665016: $GPGSV,3,2,11,31,78,337,27,26,36,177,23,29,04,085,10,25,29,048,00*75
2017-11-15 18:54:45 1510790085.666289: $GPGSV,3,3,11,01,14,265,00,22,46,292,10,16,07,190,00*4E
2017-11-15 18:54:45 1510790085.778112: $GPZDA,235444.00,15,11,2017,00,00*66
2017-11-15 18:54:45 1510790085.778266: $GPGGA,235444,3946.9532,N,08404.9547,W,1,07,1.40,311.38,M,-33.324,M,,*70
2017-11-15 18:54:45 1510790085.778327: $GPRMC,235444,A,3946.9532,N,08404.9547,W,0.5306,114.352,151117,,*3F
2017-11-15 18:54:45 1510790085.778382: $GPGSA,A,3,10,14,3,32,31,26,22,,,,,,3.4,1.4,2.9*0B
2017-11-15 18:54:46 1510790086.403702: $GPZDA,235445.00,15,11,2017,00,00*67
2017-11-15 18:54:46 1510790086.403862: $GPGGA,235445,3946.9532,N,08404.9547,W,1,07,1.40,311.38,M,-33.324,M,,*71
2017-11-15 18:54:46 1510790086.403922: $GPRMC,235445,A,3946.9532,N,08404.9547,W,0.4207,39.347,151117,,*05
2017-11-15 18:54:46 1510790086.403982: $GPGSA,A,3,10,14,3,32,31,26,22,,,,,,3.4,1.4,2.9*0B
2017-11-15 18:54:47 1510790087.330781: $GPZDA,235446.00,15,11,2017,00,00*64
2017-11-15 18:54:47 1510790087.330944: $GPGGA,235446,3946.9536,N,08404.9546,W,1,07,1.40,310.61,M,-33.324,M,,*7A
2017-11-15 18:54:47 1510790087.331007: $GPRMC,235446,A,3946.9536,N,08404.9546,W,0.2422,93.794,151117,,*0E
2017-11-15 18:54:47 1510790087.331066: $GPGSA,A,3,10,14,3,32,31,26,22,,,,,,3.4,1.4,2.9*0B
2017-11-15 18:54:48 1510790088.666333: $GPGSV,3,1,11,10,12,159,11,14,65,066,12,03,29,312,16,32,48,093,28*73
2017-11-15 18:54:48 1510790088.666507: $GPGSV,3,2,11,31,78,337,27,26,36,177,23,29,04,085,13,16,07,190,09*77
2017-11-15 18:54:48 1510790088.666569: $GPGSV,3,3,11,25,29,048,00,22,46,292,11,01,14,265,00*47
2017-11-15 18:54:48 1510790088.780015: $GPZDA,235447.00,15,11,2017,00,00*65
2017-11-15 18:54:48 1510790088.780191: $GPGGA,235447,3946.9536,N,08404.9546,W,1,08,1.40,310.61,M,-33.324,M,,*74
2017-11-15 18:54:48 1510790088.780252: $GPRMC,235447,A,3946.9536,N,08404.9546,W,0.3006,62.540,151117,,*09
2017-11-15 18:54:48 1510790088.780307: $GPGSA,A,3,10,14,3,32,31,26,29,22,,,,,3.4,1.4,2.9*00
2017-11-15 18:54:49 1510790089.330881: $GPZDA,235448.00,15,11,2017,00,00*6A
2017-11-15 18:54:49 1510790089.331031: $GPGGA,235448,3946.9536,N,08404.9546,W,1,08,1.40,310.61,M,-33.324,M,,*7B
2017-11-15 18:54:49 1510790089.331097: $GPRMC,235448,A,3946.9536,N,08404.9546,W,0.3423,184.197,151117,,*32
2017-11-15 18:54:49 1510790089.331153: $GPGSA,A,3,10,14,3,32,31,26,29,22,,,,,3.4,1.4,2.9*00
2017-11-15 18:54:50 1510790090.330493: $GPZDA,235449.00,15,11,2017,00,00*6B
2017-11-15 18:54:50 1510790090.330656: $GPGGA,235449,3946.9536,N,08404.9546,W,1,08,1.40,310.61,M,-33.324,M,,*7A
2017-11-15 18:54:50 1510790090.330717: $GPRMC,235449,A,3946.9536,N,08404.9546,W,0.5912,129.173,151117,,*37
2017-11-15 18:54:50 1510790090.330773: $GPGSA,A,3,10,14,3,32,31,26,29,22,,,,,3.4,1.4,2.9*00
2017-11-15 18:54:51 1510790091.707944: $GPGSV,3,1,11,10,12,159,10,14,65,066,11,03,29,312,16,32,48,093,28*71
2017-11-15 18:54:51 1510790091.708143: $GPGSV,3,2,11,31,78,337,27,26,36,177,23,29,04,085,10,16,07,190,10*7C
2017-11-15 18:54:51 1510790091.708216: $GPGSV,3,3,11,25,29,048,00,22,46,292,11,01,14,265,00*47
2017-11-15 18:54:51 1510790091.821570: $GPZDA,235450.00,15,11,2017,00,00*63
2017-11-15 18:54:51 1510790091.821733: $GPGGA,235450,3946.9531,N,08404.9539,W,1,09,1.40,310.05,M,-33.324,M,,*7E
2017-11-15 18:54:51 1510790091.821795: $GPRMC,235450,A,3946.9531,N,08404.9539,W,0.7621,107.945,151117,,*3C
2017-11-15 18:54:51 1510790091.821851: $GPGSA,A,3,10,14,3,32,31,26,29,16,22,,,,3.4,1.4,2.9*07
2017-11-15 18:54:52 1510790092.329938: $GPZDA,235451.00,15,11,2017,00,00*62
2017-11-15 18:54:52 1510790092.330113: $GPGGA,235451,3946.9531,N,08404.9539,W,1,09,1.40,310.05,M,-33.324,M,,*7F
2017-11-15 18:54:52 1510790092.330224: $GPRMC,235451,A,3946.9531,N,08404.9539,W,0.8011,119.090,151117,,*39
2017-11-15 18:54:52 1510790092.330283: $GPGSA,A,3,10,14,3,32,31,26,29,16,22,,,,3.4,1.4,2.9*07
2017-11-15 18:54:53 1510790093.367187: $GPZDA,235452.00,15,11,2017,00,00*61
2017-11-15 18:54:53 1510790093.367348: $GPGGA,235452,3946.9531,N,08404.9539,W,1,09,1.40,310.05,M,-33.324,M,,*7C
2017-11-15 18:54:53 1510790093.367411: $GPRMC,235452,A,3946.9531,N,08404.9539,W,0.7246,164.668,151117,,*3E
2017-11-15 18:54:53 1510790093.367467: $GPGSA,A,3,10,14,3,32,31,26,29,16,22,,,,3.4,1.4,2.9*07
2017-11-15 18:54:54 1510790094.666298: $GPGSV,3,1,11,10,12,159,11,14,65,066,11,03,29,312,16,32,48,093,28*70
2017-11-15 18:54:54 1510790094.666490: $GPGSV,3,2,11,31,78,337,26,26,36,177,22,29,04,085,10,16,07,190,10*7C
2017-11-15 18:54:54 1510790094.666552: $GPGSV,3,3,11,25,29,048,00,22,46,292,09,01,14,265,00*4E
2017-11-15 18:54:54 1510790094.780082: $GPZDA,235453.00,15,11,2017,00,00*60
2017-11-15 18:54:54 1510790094.780243: $GPGGA,235453,3946.9527,N,08404.9539,W,1,09,1.40,309.41,M,-33.324,M,,*72
2017-11-15 18:54:54 1510790094.780303: $GPRMC,235453,A,3946.9527,N,08404.9539,W,0.6846,184.197,151117,,*3A
2017-11-15 18:54:54 1510790094.780359: $GPGSA,A,3,10,14,3,32,31,26,29,16,22,,,,3.4,1.4,2.9*07
2017-11-15 18:54:55 1510790095.372158: $GPZDA,235454.00,15,11,2017,00,00*67
2017-11-15 18:54:55 1510790095.372303: $GPGGA,235454,3946.9527,N,08404.9546,W,1,09,1.40,309.33,M,-33.324,M,,*78
2017-11-15 18:54:55 1510790095.372363: $GPRMC,235454,A,3946.9527,N,08404.9546,W,0.0000,0.000,151117,,*3B
2017-11-15 18:54:55 1510790095.372418: $GPGSA,A,3,10,14,3,32,31,26,29,16,22,,,,3.4,1.4,2.9*07
2017-11-15 18:54:56 1510790096.367169: $GPZDA,235455.00,15,11,2017,00,00*66
2017-11-15 18:54:56 1510790096.367325: $GPGGA,235455,3946.9527,N,08404.9546,W,1,09,1.40,309.33,M,-33.324,M,,*79
2017-11-15 18:54:56 1510790096.367386: $GPRMC,235455,A,3946.9527,N,08404.9546,W,0.3423,184.197,151117,,*3E
2017-11-15 18:54:56 1510790096.367441: $GPGSA,A,3,10,14,3,32,31,26,29,16,22,,,,3.4,1.4,2.9*07
2017-11-15 18:54:57 1510790097.707937: $GPGSV,3,1,11,10,12,159,11,14,65,066,11,03,29,312,16,32,48,093,28*70
2017-11-15 18:54:57 1510790097.708102: $GPGSV,3,2,11,31,78,337,26,26,36,177,22,29,04,085,09,16,07,190,07*72
2017-11-15 18:54:57 1510790097.708163: $GPGSV,3,3,11,25,29,048,00,22,46,292,08,01,14,265,00*4F
2017-11-15 18:54:57 1510790097.821403: $GPZDA,235456.00,15,11,2017,00,00*65
2017-11-15 18:54:57 1510790097.821593: $GPGGA,235456,3946.9527,N,08404.9546,W,1,09,1.40,309.33,M,-33.324,M,,*7A
2017-11-15 18:54:57 1510790097.821656: $GPRMC,235456,A,3946.9527,N,08404.9546,W,0.0000,0.000,151117,,*39
2017-11-15 18:54:57 1510790097.821713: $GPGSA,A,3,10,14,3,32,31,26,29,16,22,,,,3.4,1.4,2.9*07
2017-11-15 18:54:58 1510790098.372062: $GPZDA,235457.00,15,11,2017,00,00*64
2017-11-15 18:54:58 1510790098.372231: $GPGGA,235457,3946.9527,N,08404.9546,W,1,09,1.40,309.33,M,-33.324,M,,*7B
2017-11-15 18:54:58 1510790098.372292: $GPRMC,235457,A,3946.9527,N,08404.9546,W,0.4179,148.778,151117,,*36
2017-11-15 18:54:58 1510790098.372347: $GPGSA,A,3,10,14,3,32,31,26,29,16,22,,,,3.4,1.4,2.9*07
