2017-12-01 14:25:10 1512156310.626846: {"class":"VERSION","release":"3.16","rev":"3.16-4","proto_major":3,"proto_minor":11}
2017-12-01 14:25:10 1512156310.627251: {"class":"DEVICES","devices":[{"class":"DEVICE","path":"/dev/ttyUSB0","driver":"SiRF","subtype":"9\u0006GSD4e_4.1.2-P1_RPATCH.05-F-GPS-4R-1510281 11/03/2015 307","activated":"2017-12-01T19:25:10.543Z","flags":1,"native":1,"bps":4800,"parity":"N","stopbits":1,"cycle":1.00}]}
2017-12-01 14:25:10 1512156310.627376: {"class":"WATCH","enable":true,"json":false,"nmea":true,"raw":0,"scaled":false,"timing":false,"split24":false,"pps":false}
2017-12-01 14:25:11 1512156311.400482: $GPZDA,192512.00,01,12,2017,00,00*6C
2017-12-01 14:25:11 1512156311.400662: $GPGGA,192512,3946.9550,N,08404.9849,W,2,12,1.00,312.18,M,-33.324,M,,*79
2017-12-01 14:25:11 1512156311.400729: $GPRMC,192512,A,3946.9550,N,08404.9849,W,0.0000,0.000,011217,,*32
2017-12-01 14:25:11 1512156311.400791: $GPGSA,A,3,8,10,14,18,21,24,32,15,12,20,27,138,2.0,1.0,1.5*3E
2017-12-01 14:25:12 1512156312.748241: $GPGSV,3,1,12,08,05,294,30,10,70,331,49,14,29,253,40,18,70,096,44*7C
2017-12-01 14:25:12 1512156312.748426: $GPGSV,3,2,12,21,28,178,46,24,44,058,49,32,47,267,46,15,11,067,18*77
2017-12-01 14:25:12 1512156312.748492: $GPGSV,3,3,12,12,10,106,26,20,08,118,24,27,06,259,16,138,38,213,46*46
2017-12-01 14:25:12 1512156312.861623: $GPZDA,192513.00,01,12,2017,00,00*6D
2017-12-01 14:25:12 1512156312.861824: $GPGGA,192513,3946.9550,N,08404.9849,W,2,11,1.00,312.18,M,-33.324,M,,*7B
2017-12-01 14:25:12 1512156312.861894: $GPRMC,192513,A,3946.9550,N,08404.9849,W,0.0000,0.000,011217,,*33
2017-12-01 14:25:12 1512156312.861954: $GPGSA,A,3,8,10,14,18,21,24,32,12,20,27,138,,2.0,1.0,1.5*3A
2017-12-01 14:25:13 1512156313.403977: $GPZDA,192514.00,01,12,2017,00,00*6A
2017-12-01 14:25:13 1512156313.404149: $GPGGA,192514,3946.9550,N,08404.9849,W,2,11,0.80,312.18,M,-33.324,M,,*75
2017-12-01 14:25:13 1512156313.404216: $GPRMC,192514,A,3946.9550,N,08404.9849,W,0.0000,0.000,011217,,*34
2017-12-01 14:25:13 1512156313.404278: $GPGSA,A,3,8,10,14,18,21,24,32,12,20,27,138,,2.0,0.8,1.5*33
2017-12-01 14:25:14 1512156314.439900: $GPZDA,192515.00,01,12,2017,00,00*6B
2017-12-01 14:25:14 1512156314.440073: $GPGGA,192515,3946.9546,N,08404.9849,W,2,11,0.80,312.95,M,-33.324,M,,*76
2017-12-01 14:25:14 1512156314.440140: $GPRMC,192515,A,3946.9546,N,08404.9849,W,0.0000,0.000,011217,,*32
2017-12-01 14:25:14 1512156314.440201: $GPGSA,A,3,8,10,14,18,21,24,32,12,20,27,138,,2.0,0.8,1.5*33
2017-12-01 14:25:15 1512156315.774094: $GPGSV,3,1,12,08,05,294,29,10,70,331,49,14,29,253,40,18,70,096,44*74
2017-12-01 14:25:15 1512156315.774311: $GPGSV,3,2,12,21,28,178,46,24,44,058,49,32,47,267,46,15,11,067,22*7E
2017-12-01 14:25:15 1512156315.774399: $GPGSV,3,3,12,12,10,106,27,20,08,118,25,27,06,259,23,138,38,213,47*41
2017-12-01 14:25:15 1512156315.887480: $GPZDA,192516.00,01,12,2017,00,00*68
2017-12-01 14:25:15 1512156315.887660: $GPGGA,192516,3946.9546,N,08404.9849,W,2,12,0.80,312.95,M,-33.324,M,,*76
2017-12-01 14:25:15 1512156315.887727: $GPRMC,192516,A,3946.9546,N,08404.9849,W,0.0000,0.000,011217,,*31
2017-12-01 14:25:15 1512156315.887789: $GPGSA,A,3,8,10,14,18,21,24,32,15,12,20,27,138,2.0,0.8,1.5*37
2017-12-01 14:25:16 1512156316.439752: $GPZDA,192517.00,01,12,2017,00,00*69
2017-12-01 14:25:16 1512156316.439938: $GPGGA,192517,3946.9546,N,08404.9849,W,2,12,0.80,312.95,M,-33.324,M,,*77
2017-12-01 14:25:16 1512156316.440009: $GPRMC,192517,A,3946.9546,N,08404.9849,W,0.0000,0.000,011217,,*30
2017-12-01 14:25:16 1512156316.440074: $GPGSA,A,3,8,10,14,18,21,24,32,15,12,20,27,138,2.0,0.8,1.5*37
2017-12-01 14:25:17 1512156317.440152: $GPZDA,192518.00,01,12,2017,00,00*66
2017-12-01 14:25:17 1512156317.440334: $GPGGA,192518,3946.9546,N,08404.9849,W,2,12,0.80,312.95,M,-33.324,M,,*78
2017-12-01 14:25:17 1512156317.440404: $GPRMC,192518,A,3946.9546,N,08404.9849,W,0.0000,0.000,011217,,*3F
2017-12-01 14:25:17 1512156317.440469: $GPGSA,A,3,8,10,14,18,21,24,32,15,12,20,27,138,2.0,0.8,1.5*37
2017-12-01 14:25:18 1512156318.735725: $GPGSV,3,1,12,08,05,294,29,10,70,331,49,14,29,253,40,18,70,096,44*74
2017-12-01 14:25:18 1512156318.735961: $GPGSV,3,2,12,21,28,178,45,24,44,058,49,32,47,267,46,15,11,067,22*7D
2017-12-01 14:25:18 1512156318.736030: $GPGSV,3,3,12,12,10,106,27,20,08,118,24,27,06,259,21,138,38,213,47*42
2017-12-01 14:25:18 1512156318.849379: $GPZDA,192519.00,01,12,2017,00,00*67
2017-12-01 14:25:18 1512156318.849532: $GPGGA,192519,3946.9546,N,08404.9849,W,2,12,0.80,312.95,M,-33.324,M,,*79
2017-12-01 14:25:18 1512156318.849596: $GPRMC,192519,A,3946.9546,N,08404.9849,W,0.0000,0.000,011217,,*3E
2017-12-01 14:25:18 1512156318.849656: $GPGSA,A,3,8,10,14,18,21,24,32,15,12,20,27,138,2.0,0.8,1.5*37
2017-12-01 14:25:19 1512156319.438716: $GPZDA,192520.00,01,12,2017,00,00*6D
2017-12-01 14:25:19 1512156319.438882: $GPGGA,192520,3946.9546,N,08404.9849,W,2,12,0.80,312.95,M,-33.324,M,,*73
2017-12-01 14:25:19 1512156319.438949: $GPRMC,192520,A,3946.9546,N,08404.9849,W,0.0000,0.000,011217,,*34
2017-12-01 14:25:19 1512156319.439010: $GPGSA,A,3,8,10,14,18,21,24,32,15,12,20,27,138,2.0,0.8,1.5*37
2017-12-01 14:25:20 1512156320.405879: $GPZDA,192521.00,01,12,2017,00,00*6C
2017-12-01 14:25:20 1512156320.406057: $GPGGA,192521,3946.9546,N,08404.9849,W,2,12,0.80,312.95,M,-33.324,M,,*72
2017-12-01 14:25:20 1512156320.406127: $GPRMC,192521,A,3946.9546,N,08404.9849,W,0.0000,0.000,011217,,*35
2017-12-01 14:25:20 1512156320.406189: $GPGSA,A,3,8,10,14,18,21,24,32,15,12,20,27,138,2.0,0.8,1.5*37
2017-12-01 14:25:21 1512156321.775307: $GPGSV,3,1,12,08,05,294,29,10,70,331,49,14,29,253,40,18,70,096,44*74
2017-12-01 14:25:21 1512156321.775492: $GPGSV,3,2,12,21,28,178,45,24,44,058,49,32,47,267,46,15,11,067,23*7C
2017-12-01 14:25:21 1512156321.775559: $GPGSV,3,3,12,12,10,106,28,20,08,118,25,27,06,259,22,138,38,213,47*4F
2017-12-01 14:25:21 1512156321.888998: $GPZDA,192522.00,01,12,2017,00,00*6F
2017-12-01 14:25:21 1512156321.889161: $GPGGA,192522,3946.9546,N,08404.9849,W,2,12,0.80,312.95,M,-33.324,M,,*71
2017-12-01 14:25:21 1512156321.889227: $GPRMC,192522,A,3946.9546,N,08404.9849,W,0.0000,0.000,011217,,*36
2017-12-01 14:25:21 1512156321.889287: $GPGSA,A,3,8,10,14,18,21,24,32,15,12,20,27,138,2.0,0.8,1.5*37
2017-12-01 14:25:22 1512156322.514446: $GPZDA,192523.00,01,12,2017,00,00*6E
2017-12-01 14:25:22 1512156322.514615: $GPGGA,192523,3946.9546,N,08404.9849,W,2,12,0.80,312.95,M,-33.324,M,,*70
2017-12-01 14:25:22 1512156322.514681: $GPRMC,192523,A,3946.9546,N,08404.9849,W,0.0000,0.000,011217,,*37
2017-12-01 14:25:22 1512156322.514742: $GPGSA,A,3,8,10,14,18,21,24,32,15,12,20,27,138,2.0,0.8,1.5*37
2017-12-01 14:25:23 1512156323.406660: $GPZDA,192524.00,01,12,2017,00,00*69
2017-12-01 14:25:23 1512156323.406830: $GPGGA,192524,3946.9546,N,08404.9849,W,2,12,0.80,312.95,M,-33.324,M,,*77
2017-12-01 14:25:23 1512156323.406896: $GPRMC,192524,A,3946.9546,N,08404.9849,W,0.0000,0.000,011217,,*30
2017-12-01 14:25:23 1512156323.406957: $GPGSA,A,3,8,10,14,18,21,24,32,15,12,20,27,138,2.0,0.8,1.5*37
2017-12-01 14:25:24 1512156324.742039: $GPGSV,3,1,12,08,05,294,29,10,70,331,48,14,29,253,40,18,70,096,44*75
2017-12-01 14:25:24 1512156324.742228: $GPGSV,3,2,12,21,28,178,45,24,44,058,49,32,47,267,46,15,11,067,24*7B
2017-12-01 14:25:24 1512156324.742295: $GPGSV,3,3,12,12,10,106,28,20,08,118,28,27,06,259,14,138,38,213,47*47
2017-12-01 14:25:24 1512156324.855618: $GPZDA,192525.00,01,12,2017,00,00*68
2017-12-01 14:25:24 1512156324.855786: $GPGGA,192525,3946.9543,N,08404.9850,W,2,12,0.80,313.71,M,-33.324,M,,*70
2017-12-01 14:25:24 1512156324.855853: $GPRMC,192525,A,3946.9543,N,08404.9850,W,0.0000,0.000,011217,,*3C
2017-12-01 14:25:24 1512156324.855914: $GPGSA,A,3,8,10,14,18,21,24,32,15,12,20,27,138,2.0,0.8,1.5*37
2017-12-01 14:25:25 1512156325.407742: $GPZDA,192526.00,01,12,2017,00,00*6B
2017-12-01 14:25:25 1512156325.407912: $GPGGA,192526,3946.9543,N,08404.9850,W,2,12,0.80,313.71,M,-33.324,M,,*73
2017-12-01 14:25:25 1512156325.407978: $GPRMC,192526,A,3946.9543,N,08404.9850,W,0.0000,0.000,011217,,*3F
2017-12-01 14:25:25 1512156325.408039: $GPGSA,A,3,8,10,14,18,21,24,32,15,12,20,27,138,2.0,0.8,1.5*37
2017-12-01 14:25:26 1512156326.439911: $GPZDA,192527.00,01,12,2017,00,00*6A
2017-12-01 14:25:26 1512156326.440082: $GPGGA,192527,3946.9543,N,08404.9850,W,2,12,0.80,313.71,M,-33.324,M,,*72
2017-12-01 14:25:26 1512156326.440148: $GPRMC,192527,A,3946.9543,N,08404.9850,W,0.0000,0.000,011217,,*3E
2017-12-01 14:25:26 1512156326.440210: $GPGSA,A,3,8,10,14,18,21,24,32,15,12,20,27,138,2.0,0.8,1.5*37
2017-12-01 14:25:27 1512156327.774858: $GPGSV,3,1,12,08,05,294,32,10,70,331,48,14,29,253,40,18,70,096,44*7F
2017-12-01 14:25:27 1512156327.775013: $GPGSV,3,2,12,21,28,178,46,24,44,058,49,32,47,267,46,15,11,067,24*78
2017-12-01 14:25:27 1512156327.775079: $GPGSV,3,3,12,12,10,106,28,20,08,118,27,27,06,259,08,138,38,213,46*44
2017-12-01 14:25:27 1512156327.888501: $GPZDA,192528.00,01,12,2017,00,00*65
2017-12-01 14:25:27 1512156327.888674: $GPGGA,192528,3946.9543,N,08404.9850,W,2,12,0.80,313.71,M,-33.324,M,,*7D
2017-12-01 14:25:27 1512156327.888742: $GPRMC,192528,A,3946.9543,N,08404.9850,W,0.0000,0.000,011217,,*31
2017-12-01 14:25:27 1512156327.888802: $GPGSA,A,3,8,10,14,18,21,24,32,15,12,20,27,138,2.0,0.8,1.5*37
2017-12-01 14:25:28 1512156328.405765: $GPZDA,192529.00,01,12,2017,00,00*64
2017-12-01 14:25:28 1512156328.405933: $GPGGA,192529,3946.9543,N,08404.9850,W,2,12,0.80,313.71,M,-33.324,M,,*7C
2017-12-01 14:25:28 1512156328.405999: $GPRMC,192529,A,3946.9543,N,08404.9850,W,0.0000,0.000,011217,,*30
2017-12-01 14:25:28 1512156328.406060: $GPGSA,A,3,8,10,14,18,21,24,32,15,12,20,27,138,2.0,0.8,1.5*37
2017-12-01 14:25:29 1512156329.440221: $GPZDA,192530.00,01,12,2017,00,00*6C
2017-12-01 14:25:29 1512156329.440398: $GPGGA,192530,3946.9543,N,08404.9850,W,2,12,0.80,313.71,M,-33.324,M,,*74
2017-12-01 14:25:29 1512156329.440468: $GPRMC,192530,A,3946.9543,N,08404.9850,W,0.0000,0.000,011217,,*38
2017-12-01 14:25:29 1512156329.440528: $GPGSA,A,3,8,10,14,18,21,24,32,15,12,20,27,138,2.0,0.8,1.5*37
