2017-11-15 19:34:43 1510792483.115110: {"class":"VERSION","release":"3.17","rev":"3.17","proto_major":3,"proto_minor":12}
2017-11-15 19:34:43 1510792483.115656: {"class":"DEVICES","devices":[{"class":"DEVICE","path":"/dev/ttyUSB0","driver":"SiRF","subtype":"9\u0006GSD4e_4.1.2-P1_RPATCH.05-F-GPS-4R-1510281 11/03/2015 307","activated":"2017-11-16T00:34:42.920Z","flags":1,"native":1,"bps":4800,"parity":"N","stopbits":1,"cycle":1.00}]}
2017-11-15 19:34:43 1510792483.115781: {"class":"WATCH","enable":true,"json":false,"nmea":true,"raw":0,"scaled":false,"timing":false,"split24":false,"pps":false}
2017-11-15 19:34:43 1510792483.345648: $GPZDA,003442.00,16,11,2017,00,00*64
2017-11-15 19:34:43 1510792483.345823: $GPGGA,003442,3946.9573,N,08404.9490,W,1,08,1.00,291.32,M,-33.324,M,,*77
2017-11-15 19:34:43 1510792483.345888: $GPRMC,003442,A,3946.9573,N,08404.9490,W,1.0002,154.331,161117,,*31
2017-11-15 19:34:43 1510792483.345944: $GPGSA,A,3,32,14,16,26,29,31,3,22,,,,,3.4,1.0,2.9*02
2017-11-15 19:34:44 1510792484.345614: $GPZDA,003443.00,16,11,2017,00,00*65
2017-11-15 19:34:44 1510792484.345794: $GPGGA,003443,3946.9573,N,08404.9490,W,1,08,1.00,291.32,M,-33.324,M,,*76
2017-11-15 19:34:44 1510792484.345860: $GPRMC,003443,A,3946.9573,N,08404.9490,W,0.7238,140.710,161117,,*3F
2017-11-15 19:34:44 1510792484.345917: $GPGSA,A,3,32,14,16,26,29,31,3,22,,,,,3.4,1.0,2.9*02
2017-11-15 19:34:45 1510792485.681108: $GPGSV,3,1,12,32,35,109,24,14,54,094,18,16,24,190,18,26,55,172,18*78
2017-11-15 19:34:45 1510792485.681277: $GPGSV,3,2,12,29,11,070,15,31,66,027,14,03,40,297,19,23,12,301,15*76
2017-11-15 19:34:45 1510792485.681355: $GPGSV,3,3,12,25,16,039,00,01,05,252,00,22,50,268,17,138,38,213,00*4F
2017-11-15 19:34:45 1510792485.794726: $GPZDA,003444.00,16,11,2017,00,00*62
2017-11-15 19:34:45 1510792485.794875: $GPGGA,003444,3946.9570,N,08404.9491,W,1,08,1.00,292.08,M,-33.324,M,,*79
2017-11-15 19:34:45 1510792485.794935: $GPRMC,003444,A,3946.9570,N,08404.9491,W,0.4179,148.778,161117,,*39
2017-11-15 19:34:45 1510792485.795010: $GPGSA,A,3,32,14,16,26,29,31,3,22,,,,,3.4,1.0,2.9*02
2017-11-15 19:34:46 1510792486.420130: $GPZDA,003445.00,16,11,2017,00,00*63
2017-11-15 19:34:46 1510792486.420290: $GPGGA,003445,3946.9570,N,08404.9491,W,1,08,1.00,292.08,M,-33.324,M,,*78
2017-11-15 19:34:46 1510792486.420353: $GPRMC,003445,A,3946.9570,N,08404.9491,W,0.7246,164.668,161117,,*3A
2017-11-15 19:34:46 1510792486.420427: $GPGSA,A,3,32,14,16,26,29,31,3,22,,,,,3.4,1.0,2.9*02
2017-11-15 19:34:47 1510792487.346134: $GPZDA,003446.00,16,11,2017,00,00*60
2017-11-15 19:34:47 1510792487.346310: $GPGGA,003446,3946.9562,N,08404.9491,W,1,08,0.80,292.21,M,-33.324,M,,*7A
2017-11-15 19:34:47 1510792487.346373: $GPRMC,003446,A,3946.9562,N,08404.9491,W,0.7278,203.636,161117,,*3E
2017-11-15 19:34:47 1510792487.346429: $GPGSA,A,3,32,14,16,26,29,31,3,22,,,,,3.4,0.8,2.9*0B
2017-11-15 19:34:48 1510792488.681563: $GPGSV,3,1,12,32,35,109,24,14,54,094,18,16,24,190,18,26,55,172,19*79
2017-11-15 19:34:48 1510792488.681755: $GPGSV,3,2,12,29,11,070,15,31,66,027,16,03,40,297,19,23,12,301,15*74
2017-11-15 19:34:48 1510792488.681816: $GPGSV,3,3,12,25,16,039,00,01,05,252,00,22,50,268,17,138,38,213,00*4F
2017-11-15 19:34:48 1510792488.794949: $GPZDA,003447.00,16,11,2017,00,00*61
2017-11-15 19:34:48 1510792488.795127: $GPGGA,003447,3946.9563,N,08404.9498,W,1,09,0.80,292.13,M,-33.324,M,,*73
2017-11-15 19:34:48 1510792488.795190: $GPRMC,003447,A,3946.9563,N,08404.9498,W,0.4207,219.347,161117,,*34
2017-11-15 19:34:48 1510792488.795248: $GPGSA,A,3,32,14,16,26,29,31,3,23,22,,,,3.4,0.8,2.9*0A
2017-11-15 19:34:49 1510792489.329959: $GPZDA,003448.00,16,11,2017,00,00*6E
2017-11-15 19:34:49 1510792489.330140: $GPGGA,003448,3946.9563,N,08404.9498,W,1,09,0.80,292.13,M,-33.324,M,,*7C
2017-11-15 19:34:49 1510792489.330204: $GPRMC,003448,A,3946.9563,N,08404.9498,W,0.1867,180.000,161117,,*31
2017-11-15 19:34:49 1510792489.330263: $GPGSA,A,3,32,14,16,26,29,31,3,23,22,,,,3.4,0.8,2.9*0A
2017-11-15 19:34:50 1510792490.329545: $GPZDA,003449.00,16,11,2017,00,00*6F
2017-11-15 19:34:50 1510792490.329727: $GPGGA,003449,3946.9555,N,08404.9499,W,1,09,0.80,292.25,M,-33.324,M,,*7C
2017-11-15 19:34:50 1510792490.329861: $GPRMC,003449,A,3946.9555,N,08404.9499,W,0.3423,184.197,161117,,*31
2017-11-15 19:34:50 1510792490.329920: $GPGSA,A,3,32,14,16,26,29,31,3,23,22,,,,3.4,0.8,2.9*0A
2017-11-15 19:34:51 1510792491.682066: $GPGSV,3,1,12,32,35,109,24,14,54,094,17,16,24,190,00,26,55,172,19*7F
2017-11-15 19:34:51 1510792491.682234: $GPGSV,3,2,12,29,11,070,15,31,66,027,16,03,40,297,20,23,12,301,14*7F
2017-11-15 19:34:51 1510792491.682294: $GPGSV,3,3,12,25,16,039,00,01,05,252,00,22,50,268,17,138,38,213,00*4F
2017-11-15 19:34:51 1510792491.795797: $GPZDA,003450.00,16,11,2017,00,00*67
2017-11-15 19:34:51 1510792491.795975: $GPGGA,003450,3946.9555,N,08404.9499,W,1,08,1.20,292.25,M,-33.324,M,,*7E
2017-11-15 19:34:51 1510792491.796036: $GPRMC,003450,A,3946.9555,N,08404.9499,W,0.2422,273.794,161117,,*37
2017-11-15 19:34:51 1510792491.796092: $GPGSA,A,3,32,14,26,29,31,3,23,22,,,,,3.4,1.2,2.9*06
2017-11-15 19:34:52 1510792492.346507: $GPZDA,003451.00,16,11,2017,00,00*66
