2017-12-14 11:45:02 1513269902.923550: {"class":"VERSION","release":"3.16","rev":"3.16-4","proto_major":3,"proto_minor":11}
2017-12-14 11:45:02 1513269902.923962: {"class":"DEVICES","devices":[{"class":"DEVICE","path":"/dev/ttyUSB0","driver":"SiRF","subtype":"9\u0006GSD4e_4.1.2-P1_RPATCH.05-F-GPS-4R-1510281 11/03/2015 307","activated":"2017-12-14T16:45:02.504Z","flags":1,"native":1,"bps":4800,"parity":"N","stopbits":1,"cycle":1.00}]}
2017-12-14 11:45:02 1513269902.924101: {"class":"WATCH","enable":true,"json":false,"nmea":true,"raw":0,"scaled":false,"timing":false,"split24":false,"pps":false}
2017-12-14 11:45:03 1513269903.523931: $GPGSV,3,1,11,24,41,130,21,15,52,049,22,18,61,312,21,10,30,289,21*78
2017-12-14 11:45:03 1513269903.524087: $GPGSV,3,2,11,27,19,304,16,21,77,216,18,20,45,081,16,13,21,045,00*77
2017-12-14 11:45:03 1513269903.524152: $GPGSV,3,3,11,32,09,229,00,29,03,187,00,138,38,213,00*7F
2017-12-14 11:45:03 1513269903.637451: $GPZDA,164504.00,14,12,2017,00,00*66
2017-12-14 11:45:03 1513269903.637838: $GPGGA,164504,3946.9534,N,08404.9428,W,1,07,1.80,312.60,M,-33.324,M,,*7E
2017-12-14 11:45:03 1513269903.637966: $GPRMC,164504,A,3946.9534,N,08404.9428,W,0.9060,347.792,141217,,*32
2017-12-14 11:45:03 1513269903.638086: $GPGSA,A,3,24,15,18,10,27,21,20,,,,,,6.6,1.8,6.2*31
2017-12-14 11:45:04 1513269904.188717: $GPZDA,164505.00,14,12,2017,00,00*67
2017-12-14 11:45:04 1513269904.188921: $GPGGA,164505,3946.9534,N,08404.9428,W,1,07,1.80,312.60,M,-33.324,M,,*7F
2017-12-14 11:45:04 1513269904.189005: $GPRMC,164505,A,3946.9534,N,08404.9428,W,0.5912,309.173,141217,,*30
2017-12-14 11:45:04 1513269904.189069: $GPGSA,A,3,24,15,18,10,27,21,20,,,,,,6.6,1.8,6.2*31
2017-12-14 11:45:05 1513269905.188799: $GPZDA,164506.00,14,12,2017,00,00*64
2017-12-14 11:45:05 1513269905.188998: $GPGGA,164506,3946.9530,N,08404.9428,W,1,07,1.80,313.36,M,-33.324,M,,*7A
2017-12-14 11:45:05 1513269905.189066: $GPRMC,164506,A,3946.9530,N,08404.9428,W,0.4844,273.795,141217,,*36
2017-12-14 11:45:05 1513269905.189127: $GPGSA,A,3,24,15,18,10,27,21,20,,,,,,6.6,1.8,6.2*31
2017-12-14 11:45:06 1513269906.525049: $GPGSV,3,1,11,24,41,130,20,15,52,049,22,18,61,312,21,10,30,289,21*79
2017-12-14 11:45:06 1513269906.525222: $GPGSV,3,2,11,27,19,304,15,21,77,216,18,20,45,081,16,13,21,045,00*74
2017-12-14 11:45:06 1513269906.525288: $GPGSV,3,3,11,32,09,229,00,29,03,187,00,138,38,213,00*7F
2017-12-14 11:45:06 1513269906.638698: $GPZDA,164507.00,14,12,2017,00,00*65
2017-12-14 11:45:06 1513269906.638869: $GPGGA,164507,3946.9530,N,08404.9428,W,1,07,1.80,313.36,M,-33.324,M,,*7B
2017-12-14 11:45:06 1513269906.638935: $GPRMC,164507,A,3946.9530,N,08404.9428,W,0.7238,320.710,141217,,*3F
2017-12-14 11:45:06 1513269906.638996: $GPGSA,A,3,24,15,18,10,27,21,20,,,,,,6.6,1.8,6.2*31
2017-12-14 11:45:07 1513269907.189808: $GPZDA,164508.00,14,12,2017,00,00*6A
2017-12-14 11:45:07 1513269907.189986: $GPGGA,164508,3946.9538,N,08404.9435,W,1,07,1.80,313.16,M,-33.324,M,,*72
2017-12-14 11:45:07 1513269907.190053: $GPRMC,164508,A,3946.9538,N,08404.9435,W,1.2538,328.778,141217,,*31
2017-12-14 11:45:07 1513269907.190114: $GPGSA,A,3,24,15,18,10,27,21,20,,,,,,6.6,1.8,6.2*31
2017-12-14 11:45:08 1513269908.190676: $GPZDA,164509.00,14,12,2017,00,00*6B
2017-12-14 11:45:08 1513269908.190872: $GPGGA,164509,3946.9538,N,08404.9435,W,1,07,1.80,313.16,M,-33.324,M,,*73
2017-12-14 11:45:08 1513269908.190940: $GPRMC,164509,A,3946.9538,N,08404.9435,W,0.7246,344.668,141217,,*30
2017-12-14 11:45:08 1513269908.191001: $GPGSA,A,3,24,15,18,10,27,21,20,,,,,,6.6,1.8,6.2*31
2017-12-14 11:45:09 1513269909.541864: $GPGSV,3,1,11,24,41,130,21,15,52,049,22,18,61,312,20,10,30,289,20*78
2017-12-14 11:45:09 1513269909.542040: $GPGSV,3,2,11,27,19,304,15,21,77,216,18,20,45,081,15,13,21,045,00*77
2017-12-14 11:45:09 1513269909.542160: $GPGSV,3,3,11,32,09,229,00,29,03,187,00,138,38,213,00*7F
2017-12-14 11:45:09 1513269909.655946: $GPZDA,164510.00,14,12,2017,00,00*63
2017-12-14 11:45:09 1513269909.656112: $GPGGA,164510,3946.9538,N,08404.9435,W,1,07,1.80,313.16,M,-33.324,M,,*7B
2017-12-14 11:45:09 1513269909.656189: $GPRMC,164510,A,3946.9538,N,08404.9435,W,0.4844,273.794,141217,,*34
2017-12-14 11:45:09 1513269909.656321: $GPGSA,A,3,24,15,18,10,27,21,20,,,,,,6.6,1.8,6.2*31
2017-12-14 11:45:10 1513269910.189267: $GPZDA,164511.00,14,12,2017,00,00*62
2017-12-14 11:45:10 1513269910.189438: $GPGGA,164511,3946.9538,N,08404.9435,W,1,07,1.80,313.16,M,-33.324,M,,*7A
2017-12-14 11:45:10 1513269910.189504: $GPRMC,164511,A,3946.9538,N,08404.9435,W,0.4179,328.778,141217,,*3F
2017-12-14 11:45:10 1513269910.189586: $GPGSA,A,3,24,15,18,10,27,21,20,,,,,,6.6,1.8,6.2*31
2017-12-14 11:45:11 1513269911.205758: $GPZDA,164512.00,14,12,2017,00,00*61
2017-12-14 11:45:11 1513269911.205925: $GPGGA,164512,3946.9542,N,08404.9435,W,1,07,1.80,313.80,M,-33.324,M,,*7B
2017-12-14 11:45:11 1513269911.205991: $GPRMC,164512,A,3946.9542,N,08404.9435,W,1.0567,17.448,141217,,*00
2017-12-14 11:45:11 1513269911.206051: $GPGSA,A,3,24,15,18,10,27,21,20,,,,,,6.6,1.8,6.2*31
2017-12-14 11:45:12 1513269912.525466: $GPGSV,3,1,11,24,41,130,21,15,52,049,22,18,61,312,20,10,30,289,20*78
2017-12-14 11:45:12 1513269912.525638: $GPGSV,3,2,11,27,19,304,15,21,77,216,18,20,45,081,15,13,21,045,00*77
2017-12-14 11:45:12 1513269912.525720: $GPGSV,3,3,11,32,09,229,00,29,03,187,00,138,38,213,00*7F
2017-12-14 11:45:12 1513269912.638868: $GPZDA,164513.00,14,12,2017,00,00*60
2017-12-14 11:45:12 1513269912.639040: $GPGGA,164513,3946.9542,N,08404.9435,W,1,07,1.80,313.80,M,-33.324,M,,*7A
2017-12-14 11:45:12 1513269912.639106: $GPRMC,164513,A,3946.9542,N,08404.9435,W,0.9019,18.875,141217,,*08
2017-12-14 11:45:12 1513269912.639167: $GPGSA,A,3,24,15,18,10,27,21,20,,,,,,6.6,1.8,6.2*31
2017-12-14 11:45:13 1513269913.206007: $GPZDA,164514.00,14,12,2017,00,00*67
2017-12-14 11:45:13 1513269913.206169: $GPGGA,164514,3946.9546,N,08404.9434,W,1,07,1.80,313.03,M,-33.324,M,,*73
2017-12-14 11:45:13 1513269913.206236: $GPRMC,164514,A,3946.9546,N,08404.9434,W,0.9019,18.875,141217,,*0A
2017-12-14 11:45:13 1513269913.206297: $GPGSA,A,3,24,15,18,10,27,21,20,,,,,,6.6,1.8,6.2*31
2017-12-14 11:45:14 1513269914.204947: $GPZDA,164515.00,14,12,2017,00,00*66
2017-12-14 11:45:14 1513269914.205149: $GPGGA,164515,3946.9546,N,08404.9434,W,1,07,1.80,313.03,M,-33.324,M,,*72
2017-12-14 11:45:14 1513269914.205219: $GPRMC,164515,A,3946.9546,N,08404.9434,W,0.4207,39.347,141217,,*02
2017-12-14 11:45:14 1513269914.205280: $GPGSA,A,3,24,15,18,10,27,21,20,,,,,,6.6,1.8,6.2*31
2017-12-14 11:45:15 1513269915.541088: $GPGSV,3,1,11,24,41,130,20,15,52,049,22,18,61,312,20,10,30,289,20*79
2017-12-14 11:45:15 1513269915.541251: $GPGSV,3,2,11,27,19,304,14,21,77,216,19,20,45,081,16,13,21,045,00*74
2017-12-14 11:45:15 1513269915.541316: $GPGSV,3,3,11,32,09,229,00,29,03,187,00,138,38,213,00*7F
2017-12-14 11:45:15 1513269915.654446: $GPZDA,164516.00,14,12,2017,00,00*65
2017-12-14 11:45:15 1513269915.654602: $GPGGA,164516,3946.9542,N,08404.9428,W,1,07,1.80,313.88,M,-33.324,M,,*7B
2017-12-14 11:45:15 1513269915.654685: $GPRMC,164516,A,3946.9542,N,08404.9428,W,0.4179,148.778,141217,,*3D
2017-12-14 11:45:15 1513269915.654747: $GPGSA,A,3,24,15,18,10,27,21,20,,,,,,6.6,1.8,6.2*31
2017-12-14 11:45:16 1513269916.206174: $GPZDA,164517.00,14,12,2017,00,00*64
2017-12-14 11:45:16 1513269916.206359: $GPGGA,164517,3946.9542,N,08404.9428,W,1,07,1.80,313.88,M,-33.324,M,,*7A
2017-12-14 11:45:16 1513269916.206427: $GPRMC,164517,A,3946.9542,N,08404.9428,W,0.8359,148.778,141217,,*30
2017-12-14 11:45:16 1513269916.206488: $GPGSA,A,3,24,15,18,10,27,21,20,,,,,,6.6,1.8,6.2*31
2017-12-14 11:45:17 1513269917.205983: $GPZDA,164518.00,14,12,2017,00,00*6B
2017-12-14 11:45:17 1513269917.206154: $GPGGA,164518,3946.9538,N,08404.9428,W,1,07,1.80,313.24,M,-33.324,M,,*7E
2017-12-14 11:45:17 1513269917.206220: $GPRMC,164518,A,3946.9538,N,08404.9428,W,0.5857,158.291,141217,,*39
2017-12-14 11:45:17 1513269917.206281: $GPGSA,A,3,24,15,18,10,27,21,20,,,,,,6.6,1.8,6.2*31
2017-12-14 11:45:18 1513269918.541875: $GPGSV,3,1,11,24,41,130,20,15,52,049,22,18,61,312,20,10,30,289,20*79
2017-12-14 11:45:18 1513269918.542151: $GPGSV,3,2,11,27,19,304,12,21,77,216,19,20,45,081,16,13,21,045,00*72
2017-12-14 11:45:18 1513269918.542298: $GPGSV,3,3,11,32,09,229,00,29,03,187,00,138,38,213,00*7F
2017-12-14 11:45:18 1513269918.655070: $GPZDA,164519.00,14,12,2017,00,00*6A
2017-12-14 11:45:18 1513269918.655225: $GPGGA,164519,3946.9538,N,08404.9428,W,1,07,1.80,313.24,M,-33.324,M,,*7F
2017-12-14 11:45:18 1513269918.655291: $GPRMC,164519,A,3946.9538,N,08404.9428,W,0.5951,238.684,141217,,*3A
2017-12-14 11:45:18 1513269918.655352: $GPGSA,A,3,24,15,18,10,27,21,20,,,,,,6.6,1.8,6.2*31
2017-12-14 11:45:19 1513269919.206416: $GPZDA,164520.00,14,12,2017,00,00*60
2017-12-14 11:45:19 1513269919.206589: $GPGGA,164520,3946.9538,N,08404.9428,W,1,07,1.80,313.24,M,-33.324,M,,*75
2017-12-14 11:45:19 1513269919.206656: $GPRMC,164520,A,3946.9538,N,08404.9428,W,0.4179,328.778,141217,,*31
2017-12-14 11:45:19 1513269919.206717: $GPGSA,A,3,24,15,18,10,27,21,20,,,,,,6.6,1.8,6.2*31
2017-12-14 11:45:20 1513269920.190715: $GPZDA,164521.00,14,12,2017,00,00*61
2017-12-14 11:45:20 1513269920.634674: $GPGGA,164521,3946.9538,N,08404.9428,W,1,07,1.80,313.24,M,-33.324,M,,*74
2017-12-14 11:45:20 1513269920.634830: $GPRMC,164521,A,3946.9538,N,08404.9428,W,0.9060,347.792,141217,,*39
2017-12-14 11:45:20 1513269920.634894: $GPGSA,A,3,24,15,18,10,27,21,20,,,,,,6.6,1.8,6.2*31
2017-12-14 11:45:21 1513269921.542854: $GPGSV,3,1,11,24,41,130,20,15,52,049,22,18,61,312,20,10,30,289,20*79
2017-12-14 11:45:21 1513269921.543028: $GPGSV,3,2,11,27,19,304,11,21,77,216,19,20,45,081,16,29,03,187,08*7F
2017-12-14 11:45:21 1513269921.543094: $GPGSV,3,3,11,13,21,045,00,32,09,229,00,120,07,103,00*7E
2017-12-14 11:45:21 1513269921.656474: $GPZDA,164522.00,14,12,2017,00,00*62
2017-12-14 11:45:21 1513269921.656630: $GPGGA,164522,3946.9545,N,08404.9427,W,1,07,1.80,313.11,M,-33.324,M,,*74
2017-12-14 11:45:21 1513269921.656696: $GPRMC,164522,A,3946.9545,N,08404.9427,W,1.5555,3.694,141217,,*35
2017-12-14 11:45:21 1513269921.656756: $GPGSA,A,3,24,15,18,10,27,21,20,,,,,,6.6,1.8,6.2*31
2017-12-14 11:45:22 1513269922.190307: $GPZDA,164523.00,14,12,2017,00,00*63
2017-12-14 11:45:22 1513269922.190479: $GPGGA,164523,3946.9549,N,08404.9426,W,1,07,1.80,312.35,M,-33.324,M,,*7F
2017-12-14 11:45:22 1513269922.190546: $GPRMC,164523,A,3946.9549,N,08404.9426,W,1.5746,354.845,141217,,*3A
2017-12-14 11:45:22 1513269922.190607: $GPGSA,A,3,24,15,18,10,27,21,20,,,,,,6.6,1.8,6.2*31
