2017-12-29 10:52:59 1514562779.541238: {"class":"VERSION","release":"3.16","rev":"3.16-4","proto_major":3,"proto_minor":11}
2017-12-29 10:52:59 1514562779.541663: {"class":"DEVICES","devices":[{"class":"DEVICE","path":"/dev/ttyUSB0","driver":"SiRF","subtype":"9\u0006GSD4e_4.1.2-P1_RPATCH.05-F-GPS-4R-1510281 11/03/2015 307","activated":"2017-12-29T15:52:59.249Z","flags":1,"native":1,"bps":4800,"parity":"N","stopbits":1,"cycle":1.00}]}
2017-12-29 10:52:59 1514562779.541777: {"class":"WATCH","enable":true,"json":false,"nmea":true,"raw":0,"scaled":false,"timing":false,"split24":false,"pps":false}
2017-12-29 10:52:59 1514562779.698837: $GPGSV,3,1,11,10,33,292,45,13,17,046,44,15,47,049,50,18,64,318,45*7B
2017-12-29 10:52:59 1514562779.699014: $GPGSV,3,2,11,20,43,085,51,21,74,205,48,24,44,126,51,27,19,300,38*7D
2017-12-29 10:52:59 1514562779.699079: $GPGSV,3,3,11,32,13,232,32,08,01,331,00,138,38,213,46*73
2017-12-29 10:52:59 1514562779.812319: $GPZDA,155300.00,29,12,2017,00,00*68
2017-12-29 10:52:59 1514562779.812467: $GPGGA,155300,3946.9580,N,08404.9824,W,2,10,0.80,297.68,M,-33.324,M,,*71
2017-12-29 10:52:59 1514562779.812532: $GPRMC,155300,A,3946.9580,N,08404.9824,W,0.0000,0.000,291217,,*30
2017-12-29 10:52:59 1514562779.812613: $GPGSA,A,3,10,13,15,18,20,21,24,27,32,138,,,1.7,0.8,1.3*09
2017-12-29 10:53:00 1514562780.361863: $GPZDA,155301.00,29,12,2017,00,00*69
2017-12-29 10:53:00 1514562780.362018: $GPGGA,155301,3946.9579,N,08404.9817,W,2,10,0.80,297.75,M,-33.324,M,,*7A
2017-12-29 10:53:00 1514562780.362083: $GPRMC,155301,A,3946.9579,N,08404.9817,W,0.0000,0.000,291217,,*37
2017-12-29 10:53:00 1514562780.362143: $GPGSA,A,3,10,13,15,18,20,21,24,27,32,138,,,1.7,0.8,1.3*09
2017-12-29 10:53:01 1514562781.364057: $GPZDA,155302.00,29,12,2017,00,00*6A
2017-12-29 10:53:01 1514562781.364214: $GPGGA,155302,3946.9579,N,08404.9817,W,2,10,0.80,297.75,M,-33.324,M,,*79
2017-12-29 10:53:01 1514562781.364280: $GPRMC,155302,A,3946.9579,N,08404.9817,W,0.0000,0.000,291217,,*34
2017-12-29 10:53:01 1514562781.364340: $GPGSA,A,3,10,13,15,18,20,21,24,27,32,138,,,1.7,0.8,1.3*09
2017-12-29 10:53:02 1514562782.700924: $GPGSV,3,1,11,10,33,292,44,13,17,046,44,15,47,049,50,18,64,318,45*7A
2017-12-29 10:53:02 1514562782.701149: $GPGSV,3,2,11,20,43,085,51,21,74,205,48,24,44,126,51,27,19,300,38*7D
2017-12-29 10:53:02 1514562782.701217: $GPGSV,3,3,11,32,13,232,33,08,01,331,01,138,38,213,45*70
2017-12-29 10:53:02 1514562782.814302: $GPZDA,155303.00,29,12,2017,00,00*6B
2017-12-29 10:53:02 1514562782.814440: $GPGGA,155303,3946.9584,N,08404.9817,W,2,10,0.80,298.39,M,-33.324,M,,*7D
2017-12-29 10:53:02 1514562782.814503: $GPRMC,155303,A,3946.9584,N,08404.9817,W,0.0000,0.000,291217,,*37
2017-12-29 10:53:02 1514562782.814564: $GPGSA,A,3,10,13,15,18,20,21,24,27,32,138,,,1.7,0.8,1.3*09
2017-12-29 10:53:03 1514562783.360154: $GPZDA,155304.00,29,12,2017,00,00*6C
2017-12-29 10:53:03 1514562783.360298: $GPGGA,155304,3946.9580,N,08404.9818,W,2,10,0.80,299.16,M,-33.324,M,,*7D
2017-12-29 10:53:03 1514562783.360363: $GPRMC,155304,A,3946.9580,N,08404.9818,W,0.1567,189.200,291217,,*3C
2017-12-29 10:53:03 1514562783.360424: $GPGSA,A,3,10,13,15,18,20,21,24,27,32,138,,,1.7,0.8,1.3*09
2017-12-29 10:53:04 1514562784.364370: $GPZDA,155305.00,29,12,2017,00,00*6D
2017-12-29 10:53:04 1514562784.364523: $GPGGA,155305,3946.9580,N,08404.9818,W,2,10,0.80,299.16,M,-33.324,M,,*7C
2017-12-29 10:53:04 1514562784.364619: $GPRMC,155305,A,3946.9580,N,08404.9818,W,0.2422,273.794,291217,,*30
2017-12-29 10:53:04 1514562784.364681: $GPGSA,A,3,10,13,15,18,20,21,24,27,32,138,,,1.7,0.8,1.3*09
2017-12-29 10:53:05 1514562785.696252: $GPGSV,3,1,11,10,33,292,43,13,17,046,43,15,47,049,49,18,64,318,44*73
2017-12-29 10:53:05 1514562785.698975: $GPGSV,3,2,11,20,43,085,50,21,74,205,47,24,44,126,50,27,19,300,35*7F
2017-12-29 10:53:05 1514562785.699076: $GPGSV,3,3,11,32,13,232,33,08,01,331,00,138,38,213,46*72
2017-12-29 10:53:05 1514562785.809726: $GPZDA,155306.00,29,12,2017,00,00*6E
2017-12-29 10:53:05 1514562785.809864: $GPGGA,155306,3946.9588,N,08404.9818,W,2,10,0.80,300.44,M,-33.324,M,,*71
2017-12-29 10:53:05 1514562785.809980: $GPRMC,155306,A,3946.9588,N,08404.9818,W,0.1867,0.000,291217,,*39
2017-12-29 10:53:05 1514562785.810042: $GPGSA,A,3,10,13,15,18,20,21,24,27,32,138,,,1.7,0.8,1.3*09
2017-12-29 10:53:06 1514562786.718797: $GPZDA,155307.00,29,12,2017,00,00*6F
2017-12-29 10:53:06 1514562786.718962: $GPGGA,155307,3946.9588,N,08404.9818,W,2,10,1.00,300.44,M,-33.324,M,,*79
2017-12-29 10:53:06 1514562786.719028: $GPRMC,155307,A,3946.9588,N,08404.9818,W,0.0000,0.000,291217,,*30
2017-12-29 10:53:06 1514562786.719089: $GPGSA,A,3,10,13,15,18,20,21,24,27,32,138,,,1.7,1.0,1.3*00
2017-12-29 10:53:06 1514562786.719147: $GPGBS,155307,2.73,M,2.59,M,7.72,M*31
2017-12-29 10:53:07 1514562787.719858: $GPZDA,155308.00,29,12,2017,00,00*60
2017-12-29 10:53:07 1514562787.720026: $GPGGA,155308,3946.9585,N,08404.9825,W,2,10,1.00,299.72,M,-33.324,M,,*71
2017-12-29 10:53:07 1514562787.720093: $GPRMC,155308,A,3946.9585,N,08404.9825,W,0.0000,0.000,291217,,*3C
2017-12-29 10:53:07 1514562787.720153: $GPGSA,A,3,10,13,15,18,20,21,24,27,32,138,,,1.7,1.0,1.3*00
2017-12-29 10:53:07 1514562787.720211: $GPGBS,155308,2.73,M,2.59,M,7.72,M*3E
2017-12-29 10:53:09 1514562789.063123: $GPGSV,3,1,11,10,33,294,43,13,16,046,43,15,47,049,50,18,64,318,44*7C
2017-12-29 10:53:09 1514562789.063286: $GPGSV,3,2,11,20,42,085,50,21,74,205,47,24,44,124,50,27,19,300,36*7F
2017-12-29 10:53:09 1514562789.063351: $GPGSV,3,3,11,32,13,232,33,08,01,330,05,138,38,213,45*75
2017-12-29 10:53:09 1514562789.175481: $GPZDA,155309.00,29,12,2017,00,00*61
2017-12-29 10:53:09 1514562789.175631: $GPGGA,155309,3946.9585,N,08404.9825,W,2,10,1.00,299.72,M,-33.324,M,,*70
2017-12-29 10:53:09 1514562789.175713: $GPRMC,155309,A,3946.9585,N,08404.9825,W,0.0000,0.000,291217,,*3D
2017-12-29 10:53:09 1514562789.175776: $GPGSA,A,3,10,13,15,18,20,21,24,27,32,138,,,1.7,1.0,1.3*00
2017-12-29 10:53:09 1514562789.950270: $GPZDA,155310.00,29,12,2017,00,00*69
2017-12-29 10:53:09 1514562789.950439: $GPGGA,155310,3946.9589,N,08404.9825,W,2,10,1.00,300.36,M,-33.324,M,,*75
2017-12-29 10:53:09 1514562789.950506: $GPRMC,155310,A,3946.9589,N,08404.9825,W,0.0000,0.000,291217,,*39
2017-12-29 10:53:09 1514562789.950590: $GPGSA,A,3,10,13,15,18,20,21,24,27,32,138,,,1.7,1.0,1.3*00
2017-12-29 10:53:09 1514562789.950650: $GPGBS,155310,2.73,M,2.59,M,7.72,M*37
2017-12-29 10:53:10 1514562790.402392: $GPZDA,155311.00,29,12,2017,00,00*68
2017-12-29 10:53:10 1514562790.402573: $GPGGA,155311,3946.9589,N,08404.9825,W,2,10,0.80,300.36,M,-33.324,M,,*7D
2017-12-29 10:53:10 1514562790.402641: $GPRMC,155311,A,3946.9589,N,08404.9825,W,0.0000,0.000,291217,,*38
2017-12-29 10:53:10 1514562790.402717: $GPGSA,A,3,10,13,15,18,20,21,24,27,32,138,,,1.7,0.8,1.3*09
2017-12-29 10:53:10 1514562790.402776: $GPGBS,155311,2.73,M,2.59,M,7.72,M*36
2017-12-29 10:53:11 1514562791.697864: $GPGSV,3,1,11,10,33,294,43,13,16,046,43,15,47,049,49,18,64,318,44*74
2017-12-29 10:53:11 1514562791.698042: $GPGSV,3,2,11,20,42,085,51,21,74,205,47,24,44,124,50,27,19,300,36*7E
2017-12-29 10:53:11 1514562791.698108: $GPGSV,3,3,11,32,13,232,33,08,01,330,24,138,38,213,45*76
2017-12-29 10:53:11 1514562791.811596: $GPZDA,155312.00,29,12,2017,00,00*6B
2017-12-29 10:53:11 1514562791.811750: $GPGGA,155312,3946.9589,N,08404.9825,W,2,11,0.80,300.36,M,-33.324,M,,*7F
2017-12-29 10:53:11 1514562791.811816: $GPRMC,155312,A,3946.9589,N,08404.9825,W,0.0000,0.000,291217,,*3B
2017-12-29 10:53:11 1514562791.811876: $GPGSA,A,3,10,13,15,18,20,21,24,27,32,8,138,,1.7,0.8,1.3*31
2017-12-29 10:53:12 1514562792.363595: $GPZDA,155313.00,29,12,2017,00,00*6A
2017-12-29 10:53:12 1514562792.363759: $GPGGA,155313,3946.9589,N,08404.9825,W,2,11,0.80,300.36,M,-33.324,M,,*7E
2017-12-29 10:53:12 1514562792.363825: $GPRMC,155313,A,3946.9589,N,08404.9825,W,0.0000,0.000,291217,,*3A
2017-12-29 10:53:12 1514562792.363885: $GPGSA,A,3,10,13,15,18,20,21,24,27,32,8,138,,1.7,0.8,1.3*31
2017-12-29 10:53:13 1514562793.363277: $GPZDA,155314.00,29,12,2017,00,00*6D
2017-12-29 10:53:13 1514562793.363436: $GPGGA,155314,3946.9589,N,08404.9825,W,2,11,0.80,300.36,M,-33.324,M,,*79
2017-12-29 10:53:13 1514562793.363576: $GPRMC,155314,A,3946.9589,N,08404.9825,W,0.0000,0.000,291217,,*3D
2017-12-29 10:53:13 1514562793.363639: $GPGSA,A,3,10,13,15,18,20,21,24,27,32,8,138,,1.7,0.8,1.3*31
