2017-11-16 15:39:31 1510864771.578989: {"class":"VERSION","release":"3.17","rev":"3.17","proto_major":3,"proto_minor":12}
2017-11-16 15:39:31 1510864771.579230: {"class":"DEVICES","devices":[{"class":"DEVICE","path":"/dev/ttyUSB0","driver":"SiRF","subtype":"9\u0006GSD4e_4.1.2-P1_RPATCH.05-F-GPS-4R-1510281 11/03/2015 307","activated":"2017-11-16T20:39:31.254Z","flags":1,"native":1,"bps":4800,"parity":"N","stopbits":1,"cycle":1.00}]}
2017-11-16 15:39:31 1510864771.579287: {"class":"WATCH","enable":true,"json":false,"nmea":true,"raw":0,"scaled":false,"timing":false,"split24":false,"pps":false}
2017-11-16 15:39:31 1510864771.703594: $GPGSV,3,1,12,20,04,121,18,10,74,340,51,14,33,258,44,31,04,204,35*78
2017-11-16 15:39:31 1510864771.703757: $GPGSV,3,2,12,18,66,105,48,15,07,069,23,21,23,178,43,24,40,054,50*7A
2017-11-16 15:39:31 1510864771.703817: $GPGSV,3,3,12,25,07,138,26,32,50,271,46,12,13,102,37,138,38,213,44*41
2017-11-16 15:39:31 1510864771.816791: $GPZDA,203930.00,16,11,2017,00,00*6E
2017-11-16 15:39:31 1510864771.816955: $GPGGA,203930,3946.9568,N,08404.9859,W,2,12,1.20,308.20,M,-33.324,M,,*76
2017-11-16 15:39:31 1510864771.817016: $GPRMC,203930,A,3946.9568,N,08404.9859,W,0.0000,0.000,161117,,*3A
2017-11-16 15:39:31 1510864771.817072: $GPGSA,A,3,20,10,14,31,18,15,21,24,25,32,12,138,1.6,1.2,1.3*07
2017-11-16 15:39:32 1510864772.362698: $GPZDA,203931.00,16,11,2017,00,00*6F
2017-11-16 15:39:32 1510864772.362856: $GPGGA,203931,3946.9568,N,08404.9859,W,2,12,1.20,308.20,M,-33.324,M,,*77
2017-11-16 15:39:32 1510864772.362918: $GPRMC,203931,A,3946.9568,N,08404.9859,W,0.0000,0.000,161117,,*3B
2017-11-16 15:39:32 1510864772.362973: $GPGSA,A,3,20,10,14,31,18,15,21,24,25,32,12,138,1.6,1.2,1.3*07
2017-11-16 15:39:33 1510864773.377667: $GPZDA,203932.00,16,11,2017,00,00*6C
2017-11-16 15:39:33 1510864773.377866: $GPGGA,203932,3946.9568,N,08404.9859,W,2,12,1.20,308.20,M,-33.324,M,,*74
2017-11-16 15:39:33 1510864773.377930: $GPRMC,203932,A,3946.9568,N,08404.9859,W,0.0000,0.000,161117,,*38
2017-11-16 15:39:33 1510864773.377987: $GPGSA,A,3,20,10,14,31,18,15,21,24,25,32,12,138,1.6,1.2,1.3*07
2017-11-16 15:39:34 1510864774.719749: $GPGSV,3,1,12,20,04,121,20,10,74,340,51,14,33,258,44,31,04,204,35*73
2017-11-16 15:39:34 1510864774.719904: $GPGSV,3,2,12,18,66,105,48,15,07,069,19,21,23,178,43,24,40,054,49*7B
2017-11-16 15:39:34 1510864774.719963: $GPGSV,3,3,12,25,07,138,25,32,50,271,46,12,13,102,37,138,38,213,44*42
2017-11-16 15:39:34 1510864774.833098: $GPZDA,203933.00,16,11,2017,00,00*6D
2017-11-16 15:39:34 1510864774.833273: $GPGGA,203933,3946.9568,N,08404.9859,W,2,12,1.20,308.20,M,-33.324,M,,*75
2017-11-16 15:39:34 1510864774.833333: $GPRMC,203933,A,3946.9568,N,08404.9859,W,0.0000,0.000,161117,,*39
2017-11-16 15:39:34 1510864774.833390: $GPGSA,A,3,20,10,14,31,18,15,21,24,25,32,12,138,1.6,1.2,1.3*07
2017-11-16 15:39:35 1510864775.365508: $GPZDA,203934.00,16,11,2017,00,00*6A
2017-11-16 15:39:35 1510864775.365671: $GPGGA,203934,3946.9568,N,08404.9859,W,2,12,1.20,308.20,M,-33.324,M,,*72
2017-11-16 15:39:35 1510864775.365732: $GPRMC,203934,A,3946.9568,N,08404.9859,W,0.0000,0.000,161117,,*3E
2017-11-16 15:39:35 1510864775.365791: $GPGSA,A,3,20,10,14,31,18,15,21,24,25,32,12,138,1.6,1.2,1.3*07
2017-11-16 15:39:36 1510864776.366822: $GPZDA,203935.00,16,11,2017,00,00*6B
2017-11-16 15:39:36 1510864776.367035: $GPGGA,203935,3946.9568,N,08404.9859,W,2,12,1.20,308.20,M,-33.324,M,,*73
2017-11-16 15:39:36 1510864776.367100: $GPRMC,203935,A,3946.9568,N,08404.9859,W,0.0000,0.000,161117,,*3F
2017-11-16 15:39:36 1510864776.367180: $GPGSA,A,3,20,10,14,31,18,15,21,24,25,32,12,138,1.6,1.2,1.3*07
2017-11-16 15:39:37 1510864777.703381: $GPGSV,3,1,12,20,04,121,20,10,74,340,51,14,33,258,43,31,04,204,34*75
2017-11-16 15:39:37 1510864777.703492: $GPGSV,3,2,12,18,66,105,48,15,07,069,26,21,23,178,43,24,40,054,50*7F
2017-11-16 15:39:37 1510864777.703523: $GPGSV,3,3,12,25,07,138,24,32,50,271,46,12,13,102,37,138,38,213,43*44
2017-11-16 15:39:37 1510864777.816850: $GPZDA,203936.00,16,11,2017,00,00*68
2017-11-16 15:39:37 1510864777.817000: $GPGGA,203936,3946.9568,N,08404.9859,W,2,12,1.20,308.20,M,-33.324,M,,*70
2017-11-16 15:39:37 1510864777.817136: $GPRMC,203936,A,3946.9568,N,08404.9859,W,0.0000,0.000,161117,,*3C
2017-11-16 15:39:37 1510864777.817195: $GPGSA,A,3,20,10,14,31,18,15,21,24,25,32,12,138,1.6,1.2,1.3*07
2017-11-16 15:39:38 1510864778.364927: $GPZDA,203937.00,16,11,2017,00,00*69
2017-11-16 15:39:38 1510864778.365032: $GPGGA,203937,3946.9568,N,08404.9859,W,2,12,1.20,308.20,M,-33.324,M,,*71
2017-11-16 15:39:38 1510864778.365073: $GPRMC,203937,A,3946.9568,N,08404.9859,W,0.0000,0.000,161117,,*3D
2017-11-16 15:39:38 1510864778.365126: $GPGSA,A,3,20,10,14,31,18,15,21,24,25,32,12,138,1.6,1.2,1.3*07
2017-11-16 15:39:39 1510864779.365082: $GPZDA,203938.00,16,11,2017,00,00*66
2017-11-16 15:39:39 1510864779.365287: $GPGGA,203938,3946.9568,N,08404.9859,W,2,12,1.20,308.20,M,-33.324,M,,*7E
2017-11-16 15:39:39 1510864779.365364: $GPRMC,203938,A,3946.9568,N,08404.9859,W,0.0000,0.000,161117,,*32
2017-11-16 15:39:39 1510864779.365420: $GPGSA,A,3,20,10,14,31,18,15,21,24,25,32,12,138,1.6,1.2,1.3*07
2017-11-16 15:39:40 1510864780.694654: $GPGSV,3,1,12,20,04,121,20,10,74,340,51,14,33,258,43,31,04,204,34*75
2017-11-16 15:39:40 1510864780.694821: $GPGSV,3,2,12,18,66,105,48,15,07,069,27,21,23,178,42,24,40,054,50*7F
2017-11-16 15:39:40 1510864780.694882: $GPGSV,3,3,12,25,07,138,24,32,50,271,46,12,13,102,37,138,38,213,44*43
2017-11-16 15:39:40 1510864780.808179: $GPZDA,203939.00,16,11,2017,00,00*67
2017-11-16 15:39:40 1510864780.808354: $GPGGA,203939,3946.9568,N,08404.9859,W,2,12,1.20,308.20,M,-33.324,M,,*7F
2017-11-16 15:39:40 1510864780.808415: $GPRMC,203939,A,3946.9568,N,08404.9859,W,0.0000,0.000,161117,,*33
2017-11-16 15:39:40 1510864780.808471: $GPGSA,A,3,20,10,14,31,18,15,21,24,25,32,12,138,1.6,1.2,1.3*07
2017-11-16 15:39:41 1510864781.433412: $GPZDA,203940.00,16,11,2017,00,00*69
2017-11-16 15:39:41 1510864781.435791: $GPGGA,203940,3946.9568,N,08404.9859,W,2,12,1.20,308.20,M,-33.324,M,,*71
2017-11-16 15:39:41 1510864781.436040: $GPRMC,203940,A,3946.9568,N,08404.9859,W,0.0000,0.000,161117,,*3D
2017-11-16 15:39:41 1510864781.436118: $GPGSA,A,3,20,10,14,31,18,15,21,24,25,32,12,138,1.6,1.2,1.3*07
