2017-11-15 19:30:57 1510792257.035593: {"class":"VERSION","release":"3.17","rev":"3.17","proto_major":3,"proto_minor":12}
2017-11-15 19:30:57 1510792257.036145: {"class":"DEVICES","devices":[{"class":"DEVICE","path":"/dev/ttyUSB0","driver":"SiRF","subtype":"9\u0006GSD4e_4.1.2-P1_RPATCH.05-F-GPS-4R-1510281 11/03/2015 307","activated":"2017-11-16T00:30:56.469Z","flags":1,"native":1,"bps":4800,"parity":"N","stopbits":1,"cycle":1.00}]}
2017-11-15 19:30:57 1510792257.036262: {"class":"WATCH","enable":true,"json":false,"nmea":true,"raw":0,"scaled":false,"timing":false,"split24":false,"pps":false}
2017-11-15 19:30:57 1510792257.665752: $GPGSV,3,1,11,32,36,108,24,01,05,252,05,16,23,190,17,26,53,172,10*7B
2017-11-15 19:30:57 1510792257.665953: $GPGSV,3,2,11,14,55,093,04,31,67,025,15,03,40,298,21,25,17,040,00*71
2017-11-15 19:30:57 1510792257.666015: $GPGSV,3,3,11,23,11,301,13,29,11,070,00,22,50,270,20*46
2017-11-15 19:30:57 1510792257.779355: $GPZDA,003056.00,16,11,2017,00,00*65
2017-11-15 19:30:57 1510792257.779512: $GPGGA,003056,3946.9598,N,08404.9475,W,1,07,2.80,281.07,M,-33.324,M,,*7B
2017-11-15 19:30:57 1510792257.779572: $GPRMC,003056,A,3946.9598,N,08404.9475,W,1.5526,75.076,161117,,*0A
2017-11-15 19:30:57 1510792257.779644: $GPGSA,A,3,32,16,26,31,3,23,22,,,,,,3.4,2.8,2.9*06
2017-11-15 19:30:58 1510792258.330217: $GPZDA,003057.00,16,11,2017,00,00*64
2017-11-15 19:30:58 1510792258.330380: $GPGGA,003057,3946.9598,N,08404.9468,W,1,07,2.80,281.15,M,-33.324,M,,*75
2017-11-15 19:30:58 1510792258.330458: $GPRMC,003057,A,3946.9598,N,08404.9468,W,1.6108,68.645,161117,,*06
2017-11-15 19:30:58 1510792258.330514: $GPGSA,A,3,32,16,26,31,3,23,22,,,,,,3.4,2.8,2.9*06
2017-11-15 19:30:59 1510792259.329833: $GPZDA,003058.00,16,11,2017,00,00*6B
2017-11-15 19:30:59 1510792259.330009: $GPGGA,003058,3946.9605,N,08404.9467,W,1,07,2.00,281.03,M,-33.324,M,,*7D
2017-11-15 19:30:59 1510792259.330071: $GPRMC,003058,A,3946.9605,N,08404.9467,W,0.8054,68.645,161117,,*06
2017-11-15 19:30:59 1510792259.330128: $GPGSA,A,3,32,16,26,31,3,23,22,,,,,,3.4,2.0,2.9*0E
2017-11-15 19:31:00 1510792260.665351: $GPGSV,3,1,11,32,36,108,24,01,05,252,04,16,23,190,18,26,53,172,11*74
2017-11-15 19:31:00 1510792260.665504: $GPGSV,3,2,11,14,55,093,16,31,67,025,16,03,40,298,21,25,17,040,00*71
2017-11-15 19:31:00 1510792260.665581: $GPGSV,3,3,11,23,11,301,13,29,11,070,00,22,50,270,19*4C
2017-11-15 19:31:00 1510792260.778664: $GPZDA,003059.00,16,11,2017,00,00*6A
2017-11-15 19:31:00 1510792260.778850: $GPGGA,003059,3946.9605,N,08404.9460,W,1,08,2.00,281.11,M,-33.324,M,,*77
2017-11-15 19:31:00 1510792260.778914: $GPRMC,003059,A,3946.9605,N,08404.9460,W,0.8054,68.645,161117,,*00
2017-11-15 19:31:00 1510792260.778970: $GPGSA,A,3,32,16,26,14,31,3,23,22,,,,,3.4,2.0,2.9*0B
2017-11-15 19:31:01 1510792261.404080: $GPZDA,003100.00,16,11,2017,00,00*67
2017-11-15 19:31:01 1510792261.404247: $GPGGA,003100,3946.9605,N,08404.9460,W,1,08,2.00,281.11,M,-33.324,M,,*7A
2017-11-15 19:31:01 1510792261.404308: $GPRMC,003100,A,3946.9605,N,08404.9460,W,0.4844,93.794,161117,,*01
2017-11-15 19:31:01 1510792261.404363: $GPGSA,A,3,32,16,26,14,31,3,23,22,,,,,3.4,2.0,2.9*0B
2017-11-15 19:31:02 1510792262.329925: $GPZDA,003101.00,16,11,2017,00,00*66
2017-11-15 19:31:02 1510792262.330092: $GPGGA,003101,3946.9609,N,08404.9460,W,1,08,2.00,281.74,M,-33.324,M,,*74
2017-11-15 19:31:02 1510792262.330153: $GPRMC,003101,A,3946.9609,N,08404.9460,W,0.7267,93.794,161117,,*04
2017-11-15 19:31:02 1510792262.330209: $GPGSA,A,3,32,16,26,14,31,3,23,22,,,,,3.4,2.0,2.9*0B
2017-11-15 19:31:03 1510792263.681989: $GPGSV,3,1,12,32,36,108,24,01,05,252,04,16,23,190,11,26,53,172,11*7E
2017-11-15 19:31:03 1510792263.682162: $GPGSV,3,2,12,14,55,093,17,31,67,025,14,03,40,298,21,25,17,040,00*71
2017-11-15 19:31:03 1510792263.682222: $GPGSV,3,3,12,23,11,301,12,29,11,070,00,22,50,270,18,138,38,213,00*4E
2017-11-15 19:31:03 1510792263.795295: $GPZDA,003102.00,16,11,2017,00,00*65
2017-11-15 19:31:03 1510792263.795466: $GPGGA,003102,3946.9609,N,08404.9453,W,1,08,2.00,281.82,M,-33.324,M,,*7E
2017-11-15 19:31:03 1510792263.795526: $GPRMC,003102,A,3946.9609,N,08404.9453,W,0.7267,93.794,161117,,*07
2017-11-15 19:31:03 1510792263.795651: $GPGSA,A,3,32,16,26,14,31,3,23,22,,,,,3.4,2.0,2.9*0B
2017-11-15 19:31:04 1510792264.329910: $GPZDA,003103.00,16,11,2017,00,00*64
2017-11-15 19:31:04 1510792264.330095: $GPGGA,003103,3946.9609,N,08404.9453,W,1,08,2.00,281.82,M,-33.324,M,,*7F
2017-11-15 19:31:04 1510792264.330159: $GPRMC,003103,A,3946.9609,N,08404.9453,W,0.8054,68.645,161117,,*02
2017-11-15 19:31:04 1510792264.330216: $GPGSA,A,3,32,16,26,14,31,3,23,22,,,,,3.4,2.0,2.9*0B
2017-11-15 19:31:05 1510792265.330067: $GPZDA,003104.00,16,11,2017,00,00*63
2017-11-15 19:31:05 1510792265.330258: $GPGGA,003104,3946.9616,N,08404.9446,W,1,08,2.00,281.78,M,-33.324,M,,*77
2017-11-15 19:31:05 1510792265.330334: $GPRMC,003104,A,3946.9616,N,08404.9446,W,1.1902,58.684,161117,,*03
2017-11-15 19:31:05 1510792265.330410: $GPGSA,A,3,32,16,26,14,31,3,23,22,,,,,3.4,2.0,2.9*0B
2017-11-15 19:31:06 1510792266.666176: $GPGSV,3,1,12,32,36,108,24,01,05,252,04,16,23,190,12,26,53,172,11*7D
2017-11-15 19:31:06 1510792266.666349: $GPGSV,3,2,12,14,55,093,17,31,67,025,14,03,40,298,20,25,17,040,00*70
2017-11-15 19:31:06 1510792266.666409: $GPGSV,3,3,12,23,11,301,12,29,11,070,00,22,50,270,18,138,38,213,00*4E
2017-11-15 19:31:06 1510792266.779775: $GPZDA,003105.00,16,11,2017,00,00*62
2017-11-15 19:31:06 1510792266.779939: $GPGGA,003105,3946.9616,N,08404.9446,W,1,08,2.00,281.78,M,-33.324,M,,*76
2017-11-15 19:31:06 1510792266.779999: $GPRMC,003105,A,3946.9616,N,08404.9446,W,0.5951,58.684,161117,,*01
2017-11-15 19:31:06 1510792266.780054: $GPGSA,A,3,32,16,26,14,31,3,23,22,,,,,3.4,2.0,2.9*0B
