2017-12-01 12:10:55 1512148255.337058: {"class":"VERSION","release":"3.16","rev":"3.16-4","proto_major":3,"proto_minor":11}
2017-12-01 12:10:55 1512148255.337505: {"class":"DEVICES","devices":[{"class":"DEVICE","path":"/dev/ttyUSB0","driver":"SiRF","subtype":"9\u0006GSD4e_4.1.2-P1_RPATCH.05-F-GPS-4R-1510281 11/03/2015 307","activated":"2017-12-01T17:10:55.244Z","flags":1,"native":1,"bps":4800,"parity":"N","stopbits":1,"cycle":1.00}]}
2017-12-01 12:10:55 1512148255.337635: {"class":"WATCH","enable":true,"json":false,"nmea":true,"raw":0,"scaled":false,"timing":false,"split24":false,"pps":false}
2017-12-01 12:10:55 1512148255.357579: $GPZDA,171056.00,01,12,2017,00,00*64
2017-12-01 12:10:55 1512148255.357731: $GPGGA,171056,3946.9582,N,08404.9851,W,2,11,0.80,308.03,M,-33.324,M,,*7C
2017-12-01 12:10:55 1512148255.357796: $GPRMC,171056,A,3946.9582,N,08404.9851,W,0.0000,0.000,011217,,*3C
2017-12-01 12:10:55 1512148255.357859: $GPGSA,A,3,10,13,15,18,20,21,24,27,29,5,138,,2.0,0.8,1.5*34
2017-12-01 12:10:56 1512148256.552151: $GPZDA,171057.24,01,12,2017,00,00*63
2017-12-01 12:10:56 1512148256.552332: $GPGGA,171057,3946.9623,N,08404.9856,W,1,11,0.80,311.54,M,-33.324,M,,*7B
2017-12-01 12:10:56 1512148256.552402: $GPRMC,171057,A,3946.9623,N,08404.9856,W,0.4063,356.466,011217,,*37
2017-12-01 12:10:56 1512148256.552465: $GPGSA,A,3,10,13,15,18,20,21,24,27,29,5,138,,2.0,0.8,1.5*34
2017-12-01 12:10:57 1512148257.820329: $GPGSV,3,1,12,10,21,280,31,13,32,046,36,15,64,052,33,18,52,297,37*71
2017-12-01 12:10:57 1512148257.820516: $GPGSV,3,2,12,20,54,069,37,21,77,280,34,24,31,141,35,27,15,315,29*76
2017-12-01 12:10:57 1512148257.820586: $GPGSV,3,3,12,29,12,190,28,05,05,085,00,04,02,135,00,138,38,213,00*4D
2017-12-01 12:10:57 1512148257.935328: $GPZDA,171057.93,01,12,2017,00,00*6F
2017-12-01 12:10:57 1512148257.935498: $GPGGA,171057,3946.9619,N,08404.9856,W,1,09,0.80,310.90,M,-33.324,M,,*72
2017-12-01 12:10:57 1512148257.935563: $GPRMC,171057,A,3946.9619,N,08404.9856,W,0.3106,249.940,011217,,*3D
2017-12-01 12:10:57 1512148257.935625: $GPGSA,A,3,10,13,15,18,20,21,24,27,29,,,,2.0,0.8,1.5*3B
2017-12-01 12:10:58 1512148258.740232: $GPZDA,171059.00,01,12,2017,00,00*6B
2017-12-01 12:10:58 1512148258.740408: $GPGGA,171059,3946.9622,N,08404.9855,W,1,09,0.80,310.14,M,-33.324,M,,*7B
2017-12-01 12:10:58 1512148258.740477: $GPRMC,171059,A,3946.9622,N,08404.9855,W,0.3006,242.539,011217,,*30
2017-12-01 12:10:58 1512148258.740540: $GPGSA,A,3,10,13,15,18,20,21,24,27,29,,,,2.0,0.8,1.5*3B
2017-12-01 12:10:58 1512148258.740599: $GPGBS,171059,10.70,M,15.43,M,35.28,M*0C
2017-12-01 12:10:59 1512148259.342377: $GPZDA,171100.00,01,12,2017,00,00*66
2017-12-01 12:10:59 1512148259.342555: $GPGGA,171100,3946.9618,N,08404.9855,W,1,09,0.80,309.50,M,-33.324,M,,*77
2017-12-01 12:10:59 1512148259.342624: $GPRMC,171100,A,3946.9618,N,08404.9855,W,0.1567,189.200,011217,,*3D
2017-12-01 12:10:59 1512148259.342686: $GPGSA,A,3,10,13,15,18,20,21,24,27,29,,,,2.0,0.8,1.5*3B
2017-12-01 12:10:59 1512148259.342745: $GPGBS,171100,10.70,M,15.43,M,35.28,M*01
2017-12-01 12:11:00 1512148260.676820: $GPGSV,3,1,12,10,21,280,39,13,32,046,44,15,64,052,42,18,52,297,46*7C
2017-12-01 12:11:00 1512148260.677012: $GPGSV,3,2,12,20,54,069,46,21,77,280,44,24,31,141,44,27,15,315,37*7E
2017-12-01 12:11:00 1512148260.677082: $GPGSV,3,3,12,29,12,190,34,05,05,085,21,04,02,135,00,138,38,213,47*40
2017-12-01 12:11:00 1512148260.790260: $GPZDA,171101.00,01,12,2017,00,00*67
2017-12-01 12:11:00 1512148260.790447: $GPGGA,171101,3946.9617,N,08404.9855,W,1,11,0.80,308.09,M,-33.324,M,,*7D
2017-12-01 12:11:00 1512148260.790516: $GPRMC,171101,A,3946.9617,N,08404.9855,W,0.0000,0.000,011217,,*34
2017-12-01 12:11:00 1512148260.790579: $GPGSA,A,3,10,13,15,18,20,21,24,27,29,5,138,,2.0,0.8,1.5*34
2017-12-01 12:11:01 1512148261.415933: $GPZDA,171102.00,01,12,2017,00,00*64
2017-12-01 12:11:01 1512148261.416126: $GPGGA,171102,3946.9617,N,08404.9854,W,1,11,0.80,306.69,M,-33.324,M,,*77
2017-12-01 12:11:01 1512148261.416233: $GPRMC,171102,A,3946.9617,N,08404.9854,W,0.0000,0.000,011217,,*36
2017-12-01 12:11:01 1512148261.416299: $GPGSA,A,3,10,13,15,18,20,21,24,27,29,5,138,,2.0,0.8,1.5*34
2017-12-01 12:11:02 1512148262.341733: $GPZDA,171103.00,01,12,2017,00,00*65
2017-12-01 12:11:02 1512148262.341941: $GPGGA,171103,3946.9617,N,08404.9854,W,1,11,0.80,306.69,M,-33.324,M,,*76
2017-12-01 12:11:02 1512148262.342014: $GPRMC,171103,A,3946.9617,N,08404.9854,W,0.0000,0.000,011217,,*37
2017-12-01 12:11:02 1512148262.342078: $GPGSA,A,3,10,13,15,18,20,21,24,27,29,5,138,,2.0,0.8,1.5*34
2017-12-01 12:11:02 1512148262.342136: $GPGBS,171103,10.70,M,15.43,M,35.28,M*02
2017-12-01 12:11:03 1512148263.677030: $GPGSV,3,1,12,10,21,280,11,13,32,046,13,15,64,052,13,18,52,297,14*77
2017-12-01 12:11:03 1512148263.677205: $GPGSV,3,2,12,20,54,069,14,21,77,280,13,24,31,141,13,27,15,315,11*7D
2017-12-01 12:11:03 1512148263.677271: $GPGSV,3,3,12,29,12,190,10,05,05,085,06,04,02,135,00,138,38,213,15*44
2017-12-01 12:11:03 1512148263.790634: $GPZDA,171104.00,01,12,2017,00,00*62
2017-12-01 12:11:03 1512148263.790806: $GPGGA,171104,3946.9616,N,08404.9853,W,1,11,0.80,305.29,M,-33.324,M,,*70
2017-12-01 12:11:03 1512148263.790876: $GPRMC,171104,A,3946.9616,N,08404.9853,W,0.1867,0.000,011217,,*3E
2017-12-01 12:11:03 1512148263.790938: $GPGSA,A,3,10,13,15,18,20,21,24,27,29,5,138,,2.0,0.8,1.5*34
2017-12-01 12:11:04 1512148264.342077: $GPZDA,171105.00,01,12,2017,00,00*63
2017-12-01 12:11:04 1512148264.342253: $GPGGA,171105,3946.9612,N,08404.9853,W,1,11,0.80,304.65,M,-33.324,M,,*7C
2017-12-01 12:11:04 1512148264.342322: $GPRMC,171105,A,3946.9612,N,08404.9853,W,0.0000,0.000,011217,,*33
2017-12-01 12:11:04 1512148264.342404: $GPGSA,A,3,10,13,15,18,20,21,24,27,29,5,138,,2.0,0.8,1.5*34
