2017-12-01 12:27:44 1512149264.298046: {"class":"VERSION","release":"3.16","rev":"3.16-4","proto_major":3,"proto_minor":11}
2017-12-01 12:27:44 1512149264.298478: {"class":"DEVICES","devices":[{"class":"DEVICE","path":"/dev/ttyUSB0","driver":"SiRF","subtype":"9\u0006GSD4e_4.1.2-P1_RPATCH.05-F-GPS-4R-1510281 11/03/2015 307","activated":"2017-12-01T17:27:44.278Z","flags":1,"native":1,"bps":4800,"parity":"N","stopbits":1,"cycle":1.00}]}
2017-12-01 12:27:44 1512149264.298605: {"class":"WATCH","enable":true,"json":false,"nmea":true,"raw":0,"scaled":false,"timing":false,"split24":false,"pps":false}
2017-12-01 12:27:44 1512149264.727846: $GPGSV,3,1,12,10,27,286,43,13,25,045,42,15,56,049,47,18,57,306,46*70
2017-12-01 12:27:44 1512149264.728031: $GPGSV,3,2,12,20,48,076,45,21,79,243,43,24,37,135,47,27,18,309,02*78
2017-12-01 12:27:44 1512149264.728098: $GPGSV,3,3,12,29,06,187,31,05,01,090,27,32,05,228,30,138,38,213,46*4F
2017-12-01 12:27:44 1512149264.841302: $GPZDA,172745.00,01,12,2017,00,00*62
2017-12-01 12:27:44 1512149264.841528: $GPGGA,172745,3946.9596,N,08404.9811,W,2,11,1.00,301.80,M,-33.324,M,,*70
2017-12-01 12:27:44 1512149264.841597: $GPRMC,172745,A,3946.9596,N,08404.9811,W,0.0000,0.000,011217,,*3B
2017-12-01 12:27:44 1512149264.841663: $GPGSA,A,3,10,13,15,18,20,21,24,29,5,32,138,,2.0,1.0,1.5*39
2017-12-01 12:27:45 1512149265.466684: $GPZDA,172746.00,01,12,2017,00,00*61
2017-12-01 12:27:45 1512149265.466864: $GPGGA,172746,3946.9596,N,08404.9811,W,2,11,0.80,301.80,M,-33.324,M,,*7A
2017-12-01 12:27:45 1512149265.466931: $GPRMC,172746,A,3946.9596,N,08404.9811,W,0.0000,0.000,011217,,*38
2017-12-01 12:27:45 1512149265.466994: $GPGSA,A,3,10,13,15,18,20,21,24,29,5,32,138,,2.0,0.8,1.5*30
2017-12-01 12:27:46 1512149266.383716: $GPZDA,172747.00,01,12,2017,00,00*60
2017-12-01 12:27:46 1512149266.383891: $GPGGA,172747,3946.9596,N,08404.9811,W,2,11,0.80,301.80,M,-33.324,M,,*7B
2017-12-01 12:27:46 1512149266.383960: $GPRMC,172747,A,3946.9596,N,08404.9811,W,0.0000,0.000,011217,,*39
2017-12-01 12:27:46 1512149266.384023: $GPGSA,A,3,10,13,15,18,20,21,24,29,5,32,138,,2.0,0.8,1.5*30
2017-12-01 12:27:47 1512149267.718230: $GPGSV,3,1,12,10,27,286,42,13,25,045,42,15,56,049,47,18,57,306,45*72
2017-12-01 12:27:47 1512149267.718425: $GPGSV,3,2,12,20,48,076,45,21,79,243,42,24,37,135,47,27,18,309,24*7D
2017-12-01 12:27:47 1512149267.718497: $GPGSV,3,3,12,29,06,187,31,05,01,090,27,32,05,228,30,138,38,213,46*4F
2017-12-01 12:27:47 1512149267.831902: $GPZDA,172748.00,01,12,2017,00,00*6F
2017-12-01 12:27:47 1512149267.832071: $GPGGA,172748,3946.9596,N,08404.9811,W,2,12,0.80,301.80,M,-33.324,M,,*77
2017-12-01 12:27:47 1512149267.832141: $GPRMC,172748,A,3946.9596,N,08404.9811,W,0.0000,0.000,011217,,*36
2017-12-01 12:27:47 1512149267.832205: $GPGSA,A,3,10,13,15,18,20,21,24,27,29,5,32,138,2.0,0.8,1.5*35
2017-12-01 12:27:48 1512149268.383701: $GPZDA,172749.00,01,12,2017,00,00*6E
2017-12-01 12:27:48 1512149268.383896: $GPGGA,172749,3946.9595,N,08404.9816,W,2,12,0.80,298.91,M,-33.324,M,,*73
2017-12-01 12:27:48 1512149268.383969: $GPRMC,172749,A,3946.9595,N,08404.9816,W,0.0000,0.000,011217,,*33
2017-12-01 12:27:48 1512149268.384037: $GPGSA,A,3,10,13,15,18,20,21,24,27,29,5,32,138,2.0,0.8,1.5*35
2017-12-01 12:27:49 1512149269.382150: $GPZDA,172750.00,01,12,2017,00,00*66
2017-12-01 12:27:49 1512149269.382333: $GPGGA,172750,3946.9595,N,08404.9816,W,2,12,0.80,298.91,M,-33.324,M,,*7B
2017-12-01 12:27:49 1512149269.382405: $GPRMC,172750,A,3946.9595,N,08404.9816,W,0.0000,0.000,011217,,*3B
2017-12-01 12:27:49 1512149269.382470: $GPGSA,A,3,10,13,15,18,20,21,24,27,29,5,32,138,2.0,0.8,1.5*35
2017-12-01 12:27:50 1512149270.722364: $GPGSV,3,1,12,10,27,286,42,13,25,045,42,15,56,049,47,18,57,306,46*71
2017-12-01 12:27:50 1512149270.722547: $GPGSV,3,2,12,20,48,076,45,21,79,243,42,24,37,135,47,27,18,309,26*7F
2017-12-01 12:27:50 1512149270.722618: $GPGSV,3,3,12,29,06,187,32,05,01,090,26,32,05,228,29,138,38,213,46*45
2017-12-01 12:27:50 1512149270.835847: $GPZDA,172751.00,01,12,2017,00,00*67
2017-12-01 12:27:50 1512149270.836009: $GPGGA,172751,3946.9595,N,08404.9816,W,2,12,0.80,298.91,M,-33.324,M,,*7A
2017-12-01 12:27:50 1512149270.836129: $GPRMC,172751,A,3946.9595,N,08404.9816,W,0.0000,0.000,011217,,*3A
2017-12-01 12:27:50 1512149270.836191: $GPGSA,A,3,10,13,15,18,20,21,24,27,29,5,32,138,2.0,0.8,1.5*35
2017-12-01 12:27:51 1512149271.385435: $GPZDA,172752.00,01,12,2017,00,00*64
2017-12-01 12:27:51 1512149271.385607: $GPGGA,172752,3946.9595,N,08404.9816,W,2,12,0.80,298.91,M,-33.324,M,,*79
2017-12-01 12:27:51 1512149271.385678: $GPRMC,172752,A,3946.9595,N,08404.9816,W,0.0000,0.000,011217,,*39
2017-12-01 12:27:51 1512149271.385742: $GPGSA,A,3,10,13,15,18,20,21,24,27,29,5,32,138,2.0,0.8,1.5*35
2017-12-01 12:27:52 1512149272.386471: $GPZDA,172753.00,01,12,2017,00,00*65
2017-12-01 12:27:52 1512149272.386641: $GPGGA,172753,3946.9595,N,08404.9816,W,2,12,0.80,298.91,M,-33.324,M,,*78
2017-12-01 12:27:52 1512149272.386712: $GPRMC,172753,A,3946.9595,N,08404.9816,W,0.0000,0.000,011217,,*38
2017-12-01 12:27:52 1512149272.386778: $GPGSA,A,3,10,13,15,18,20,21,24,27,29,5,32,138,2.0,0.8,1.5*35
2017-12-01 12:27:53 1512149273.723322: $GPGSV,3,1,12,10,27,286,42,13,25,045,42,15,56,049,47,18,57,306,46*71
2017-12-01 12:27:53 1512149273.723513: $GPGSV,3,2,12,20,48,076,45,21,79,243,42,24,37,135,47,27,18,309,26*7F
2017-12-01 12:27:53 1512149273.723579: $GPGSV,3,3,12,29,06,187,32,05,01,090,26,32,05,228,26,138,38,213,46*4A
2017-12-01 12:27:53 1512149273.836691: $GPZDA,172754.00,01,12,2017,00,00*62
2017-12-01 12:27:53 1512149273.836867: $GPGGA,172754,3946.9595,N,08404.9816,W,2,12,0.80,298.91,M,-33.324,M,,*7F
2017-12-01 12:27:53 1512149273.836935: $GPRMC,172754,A,3946.9595,N,08404.9816,W,0.0000,0.000,011217,,*3F
2017-12-01 12:27:53 1512149273.836998: $GPGSA,A,3,10,13,15,18,20,21,24,27,29,5,32,138,2.0,0.8,1.5*35
