2017-12-29 14:52:40 1514577160.890396: {"class":"VERSION","release":"3.16","rev":"3.16-4","proto_major":3,"proto_minor":11}
2017-12-29 14:52:40 1514577160.890748: {"class":"DEVICES","devices":[{"class":"DEVICE","path":"/dev/ttyUSB0","driver":"SiRF","subtype":"9\u0006GSD4e_4.1.2-P1_RPATCH.05-F-GPS-4R-1510281 11/03/2015 307","activated":"2017-12-29T19:52:40.477Z","flags":1,"native":1,"bps":4800,"parity":"N","stopbits":1,"cycle":1.00}]}
2017-12-29 14:52:40 1514577160.890864: {"class":"WATCH","enable":true,"json":false,"nmea":true,"raw":0,"scaled":false,"timing":false,"split24":false,"pps":false}
2017-12-29 14:52:41 1514577161.374897: $GPZDA,195242.00,29,12,2017,00,00*63
2017-12-29 14:52:41 1514577161.375065: $GPGGA,195242,3946.9589,N,08404.9792,W,2,12,0.80,304.97,M,-33.324,M,,*78
2017-12-29 14:52:41 1514577161.375133: $GPRMC,195242,A,3946.9589,N,08404.9792,W,0.0000,0.000,291217,,*30
2017-12-29 14:52:41 1514577161.375193: $GPGSA,A,3,1,3,10,12,14,22,25,31,32,18,26,138,1.7,0.8,1.3*08
2017-12-29 14:52:42 1514577162.711848: $GPGSV,3,1,12,01,22,294,36,03,07,316,36,10,40,151,49,12,19,043,43*70
2017-12-29 14:52:42 1514577162.712023: $GPGSV,3,2,12,14,68,343,42,22,25,310,41,25,41,081,51,31,65,232,46*7D
2017-12-29 14:52:42 1514577162.712089: $GPGSV,3,3,12,32,65,048,51,18,11,145,26,26,09,180,24,138,38,213,43*49
2017-12-29 14:52:42 1514577162.825324: $GPZDA,195243.00,29,12,2017,00,00*62
2017-12-29 14:52:42 1514577162.825462: $GPGGA,195243,3946.9589,N,08404.9792,W,2,12,0.80,304.97,M,-33.324,M,,*79
2017-12-29 14:52:42 1514577162.825528: $GPRMC,195243,A,3946.9589,N,08404.9792,W,0.0000,0.000,291217,,*31
2017-12-29 14:52:42 1514577162.825589: $GPGSA,A,3,1,3,10,12,14,22,25,31,32,18,26,138,1.7,0.8,1.3*08
2017-12-29 14:52:43 1514577163.450923: $GPZDA,195244.00,29,12,2017,00,00*65
2017-12-29 14:52:43 1514577163.451126: $GPGGA,195244,3946.9589,N,08404.9792,W,2,12,0.80,304.97,M,-33.324,M,,*7E
2017-12-29 14:52:43 1514577163.451199: $GPRMC,195244,A,3946.9589,N,08404.9792,W,0.0000,0.000,291217,,*36
2017-12-29 14:52:43 1514577163.451260: $GPGSA,A,3,1,3,10,12,14,22,25,31,32,18,26,138,1.7,0.8,1.3*08
2017-12-29 14:52:44 1514577164.334249: $GPZDA,195245.00,29,12,2017,00,00*64
2017-12-29 14:52:44 1514577164.334416: $GPGGA,195245,3946.9589,N,08404.9792,W,2,12,0.80,304.97,M,-33.324,M,,*7F
2017-12-29 14:52:44 1514577164.334482: $GPRMC,195245,A,3946.9589,N,08404.9792,W,0.0000,0.000,291217,,*37
2017-12-29 14:52:44 1514577164.334542: $GPGSA,A,3,1,3,10,12,14,22,25,31,32,18,26,138,1.7,0.8,1.3*08
2017-12-29 14:52:45 1514577165.710940: $GPGSV,3,1,12,01,22,294,36,03,07,316,37,10,40,151,49,12,19,043,43*71
2017-12-29 14:52:45 1514577165.711152: $GPGSV,3,2,12,14,68,343,42,22,25,310,41,25,41,081,51,31,65,232,45*7E
2017-12-29 14:52:45 1514577165.711220: $GPGSV,3,3,12,32,65,048,51,18,11,145,27,26,09,180,24,138,38,213,43*48
2017-12-29 14:52:45 1514577165.824526: $GPZDA,195246.00,29,12,2017,00,00*67
2017-12-29 14:52:45 1514577165.824664: $GPGGA,195246,3946.9589,N,08404.9792,W,2,12,0.80,304.97,M,-33.324,M,,*7C
2017-12-29 14:52:45 1514577165.824729: $GPRMC,195246,A,3946.9589,N,08404.9792,W,0.0000,0.000,291217,,*34
2017-12-29 14:52:45 1514577165.824790: $GPGSA,A,3,1,3,10,12,14,22,25,31,32,18,26,138,1.7,0.8,1.3*08
2017-12-29 14:52:46 1514577166.376685: $GPZDA,195247.00,29,12,2017,00,00*66
2017-12-29 14:52:46 1514577166.376847: $GPGGA,195247,3946.9589,N,08404.9792,W,2,12,0.80,304.97,M,-33.324,M,,*7D
2017-12-29 14:52:46 1514577166.376912: $GPRMC,195247,A,3946.9589,N,08404.9792,W,0.0000,0.000,291217,,*35
2017-12-29 14:52:46 1514577166.376973: $GPGSA,A,3,1,3,10,12,14,22,25,31,32,18,26,138,1.7,0.8,1.3*08
2017-12-29 14:52:47 1514577167.376303: $GPZDA,195248.00,29,12,2017,00,00*69
2017-12-29 14:52:47 1514577167.376466: $GPGGA,195248,3946.9589,N,08404.9792,W,2,12,0.80,304.97,M,-33.324,M,,*72
2017-12-29 14:52:47 1514577167.376531: $GPRMC,195248,A,3946.9589,N,08404.9792,W,0.0000,0.000,291217,,*3A
2017-12-29 14:52:47 1514577167.376592: $GPGSA,A,3,1,3,10,12,14,22,25,31,32,18,26,138,1.7,0.8,1.3*08
2017-12-29 14:52:48 1514577168.711330: $GPGSV,3,1,12,01,22,294,36,03,07,316,38,10,40,151,49,12,19,043,43*7E
2017-12-29 14:52:48 1514577168.711568: $GPGSV,3,2,12,14,68,343,42,22,25,310,41,25,41,081,51,31,65,232,45*7E
2017-12-29 14:52:48 1514577168.711639: $GPGSV,3,3,12,32,65,048,51,18,11,145,27,26,09,180,23,138,38,213,43*4F
2017-12-29 14:52:48 1514577168.825010: $GPZDA,195249.00,29,12,2017,00,00*68
2017-12-29 14:52:48 1514577168.825147: $GPGGA,195249,3946.9589,N,08404.9792,W,2,12,0.80,304.97,M,-33.324,M,,*73
2017-12-29 14:52:48 1514577168.825212: $GPRMC,195249,A,3946.9589,N,08404.9792,W,0.0000,0.000,291217,,*3B
2017-12-29 14:52:48 1514577168.825273: $GPGSA,A,3,1,3,10,12,14,22,25,31,32,18,26,138,1.7,0.8,1.3*08
2017-12-29 14:52:49 1514577169.342163: $GPZDA,195250.00,29,12,2017,00,00*60
2017-12-29 14:52:49 1514577169.342308: $GPGGA,195250,3946.9593,N,08404.9791,W,2,12,0.80,304.20,M,-33.324,M,,*7F
2017-12-29 14:52:49 1514577169.342372: $GPRMC,195250,A,3946.9593,N,08404.9791,W,0.0000,0.000,291217,,*3B
2017-12-29 14:52:49 1514577169.342433: $GPGSA,A,3,1,3,10,12,14,22,25,31,32,18,26,138,1.7,0.8,1.3*08
2017-12-29 14:52:50 1514577170.335482: $GPZDA,195251.00,29,12,2017,00,00*61
2017-12-29 14:52:50 1514577170.335641: $GPGGA,195251,3946.9593,N,08404.9791,W,2,12,0.80,304.20,M,-33.324,M,,*7E
2017-12-29 14:52:50 1514577170.335706: $GPRMC,195251,A,3946.9593,N,08404.9791,W,0.0000,0.000,291217,,*3A
2017-12-29 14:52:50 1514577170.335767: $GPGSA,A,3,1,3,10,12,14,22,25,31,32,18,26,138,1.7,0.8,1.3*08
