2017-11-16 16:52:22 1510869142.291556: {"class":"VERSION","release":"3.17","rev":"3.17","proto_major":3,"proto_minor":12}
2017-11-16 16:52:22 1510869142.292032: {"class":"DEVICES","devices":[{"class":"DEVICE","path":"/dev/ttyUSB0","driver":"SiRF","subtype":"9\u0006GSD4e_4.1.2-P1_RPATCH.05-F-GPS-4R-1510281 11/03/2015 307","activated":"2017-11-16T21:52:22.267Z","flags":1,"native":1,"bps":4800,"parity":"N","stopbits":1,"cycle":1.00}]}
2017-11-16 16:52:22 1510869142.292155: {"class":"WATCH","enable":true,"json":false,"nmea":true,"raw":0,"scaled":false,"timing":false,"split24":false,"pps":false}
2017-11-16 16:52:22 1510869142.443989: $GPZDA,215221.00,16,11,2017,00,00*62
2017-11-16 16:52:22 1510869142.444159: $GPGGA,215221,3946.9581,N,08404.9830,W,2,12,0.80,308.27,M,-33.324,M,,*7E
2017-11-16 16:52:22 1510869142.444221: $GPRMC,215221,A,3946.9581,N,08404.9830,W,0.0000,0.000,161117,,*3E
2017-11-16 16:52:22 1510869142.444277: $GPGSA,A,3,1,10,11,12,14,18,24,25,31,32,22,138,1.6,0.8,1.3*38
2017-11-16 16:52:23 1510869143.781053: $GPGSV,3,1,12,01,15,316,40,10,67,135,49,11,11,298,32,12,25,069,47*7D
2017-11-16 16:52:23 1510869143.781236: $GPGSV,3,2,12,14,56,295,45,18,35,136,41,24,12,045,42,25,31,112,42*7F
2017-11-16 16:52:23 1510869143.781297: $GPGSV,3,3,12,31,37,213,46,32,68,334,51,22,04,310,27,138,38,213,44*43
2017-11-16 16:52:23 1510869143.894321: $GPZDA,215222.00,16,11,2017,00,00*61
2017-11-16 16:52:23 1510869143.894461: $GPGGA,215222,3946.9581,N,08404.9830,W,2,12,0.80,308.27,M,-33.324,M,,*7D
2017-11-16 16:52:23 1510869143.894520: $GPRMC,215222,A,3946.9581,N,08404.9830,W,0.0000,0.000,161117,,*3D
2017-11-16 16:52:23 1510869143.894576: $GPGSA,A,3,1,10,11,12,14,18,24,25,31,32,22,138,1.6,0.8,1.3*38
2017-11-16 16:52:24 1510869144.446488: $GPZDA,215223.00,16,11,2017,00,00*60
2017-11-16 16:52:24 1510869144.446657: $GPGGA,215223,3946.9581,N,08404.9830,W,2,12,0.80,308.27,M,-33.324,M,,*7C
2017-11-16 16:52:24 1510869144.446720: $GPRMC,215223,A,3946.9581,N,08404.9830,W,0.0000,0.000,161117,,*3C
2017-11-16 16:52:24 1510869144.446775: $GPGSA,A,3,1,10,11,12,14,18,24,25,31,32,22,138,1.6,0.8,1.3*38
2017-11-16 16:52:25 1510869145.452632: $GPZDA,215224.00,16,11,2017,00,00*67
2017-11-16 16:52:25 1510869145.452794: $GPGGA,215224,3946.9581,N,08404.9830,W,2,12,0.80,308.27,M,-33.324,M,,*7B
2017-11-16 16:52:25 1510869145.452855: $GPRMC,215224,A,3946.9581,N,08404.9830,W,0.0000,0.000,161117,,*3B
2017-11-16 16:52:25 1510869145.452910: $GPGSA,A,3,1,10,11,12,14,18,24,25,31,32,22,138,1.6,0.8,1.3*38
2017-11-16 16:52:26 1510869146.780173: $GPGSV,3,1,12,01,15,316,39,10,67,135,49,11,11,298,32,12,25,069,47*73
2017-11-16 16:52:26 1510869146.780340: $GPGSV,3,2,12,14,56,295,46,18,35,136,40,24,12,045,42,25,31,112,42*7D
2017-11-16 16:52:26 1510869146.780401: $GPGSV,3,3,12,31,37,213,46,32,68,334,51,22,04,310,27,138,38,213,44*43
2017-11-16 16:52:26 1510869146.893836: $GPZDA,215225.00,16,11,2017,00,00*66
2017-11-16 16:52:26 1510869146.893980: $GPGGA,215225,3946.9581,N,08404.9830,W,2,12,0.80,308.27,M,-33.324,M,,*7A
2017-11-16 16:52:26 1510869146.894040: $GPRMC,215225,A,3946.9581,N,08404.9830,W,0.0000,0.000,161117,,*3A
2017-11-16 16:52:26 1510869146.894094: $GPGSA,A,3,1,10,11,12,14,18,24,25,31,32,22,138,1.6,0.8,1.3*38
2017-11-16 16:52:27 1510869147.444685: $GPZDA,215226.00,16,11,2017,00,00*65
2017-11-16 16:52:27 1510869147.444848: $GPGGA,215226,3946.9581,N,08404.9830,W,2,12,0.80,308.27,M,-33.324,M,,*79
2017-11-16 16:52:27 1510869147.444909: $GPRMC,215226,A,3946.9581,N,08404.9830,W,0.0000,0.000,161117,,*39
2017-11-16 16:52:27 1510869147.444964: $GPGSA,A,3,1,10,11,12,14,18,24,25,31,32,22,138,1.6,0.8,1.3*38
2017-11-16 16:52:28 1510869148.445205: $GPZDA,215227.00,16,11,2017,00,00*64
2017-11-16 16:52:28 1510869148.445379: $GPGGA,215227,3946.9581,N,08404.9830,W,2,12,0.80,308.27,M,-33.324,M,,*78
2017-11-16 16:52:28 1510869148.445439: $GPRMC,215227,A,3946.9581,N,08404.9830,W,0.0000,0.000,161117,,*38
2017-11-16 16:52:28 1510869148.445496: $GPGSA,A,3,1,10,11,12,14,18,24,25,31,32,22,138,1.6,0.8,1.3*38
2017-11-16 16:52:29 1510869149.779747: $GPGSV,3,1,12,01,15,316,38,10,67,135,48,11,11,298,32,12,25,069,47*73
2017-11-16 16:52:29 1510869149.779980: $GPGSV,3,2,12,14,56,295,46,18,35,136,40,24,12,045,42,25,31,112,42*7D
2017-11-16 16:52:29 1510869149.780046: $GPGSV,3,3,12,31,37,213,45,32,68,334,51,22,04,310,28,138,38,213,44*4F
2017-11-16 16:52:29 1510869149.893317: $GPZDA,215228.00,16,11,2017,00,00*6B
2017-11-16 16:52:29 1510869149.893460: $GPGGA,215228,3946.9581,N,08404.9830,W,2,12,0.80,308.27,M,-33.324,M,,*77
2017-11-16 16:52:29 1510869149.893533: $GPRMC,215228,A,3946.9581,N,08404.9830,W,0.0000,0.000,161117,,*37
2017-11-16 16:52:29 1510869149.893591: $GPGSA,A,3,1,10,11,12,14,18,24,25,31,32,22,138,1.6,0.8,1.3*38
2017-11-16 16:52:30 1510869150.445424: $GPZDA,215229.00,16,11,2017,00,00*6A
2017-11-16 16:52:30 1510869150.445611: $GPGGA,215229,3946.9581,N,08404.9830,W,2,12,0.80,308.27,M,-33.324,M,,*76
2017-11-16 16:52:30 1510869150.445676: $GPRMC,215229,A,3946.9581,N,08404.9830,W,0.0000,0.000,161117,,*36
2017-11-16 16:52:30 1510869150.445731: $GPGSA,A,3,1,10,11,12,14,18,24,25,31,32,22,138,1.6,0.8,1.3*38
2017-11-16 16:52:31 1510869151.445846: $GPZDA,215230.00,16,11,2017,00,00*62
2017-11-16 16:52:31 1510869151.446023: $GPGGA,215230,3946.9581,N,08404.9830,W,2,12,0.80,308.27,M,-33.324,M,,*7E
2017-11-16 16:52:31 1510869151.446084: $GPRMC,215230,A,3946.9581,N,08404.9830,W,0.0000,0.000,161117,,*3E
2017-11-16 16:52:31 1510869151.446141: $GPGSA,A,3,1,10,11,12,14,18,24,25,31,32,22,138,1.6,0.8,1.3*38
