2017-11-15 19:31:53 1510792313.532119: {"class":"VERSION","release":"3.17","rev":"3.17","proto_major":3,"proto_minor":12}
2017-11-15 19:31:53 1510792313.532554: {"class":"DEVICES","devices":[{"class":"DEVICE","path":"/dev/ttyUSB0","driver":"SiRF","subtype":"9\u0006GSD4e_4.1.2-P1_RPATCH.05-F-GPS-4R-1510281 11/03/2015 307","activated":"2017-11-16T00:31:53.471Z","flags":1,"native":1,"bps":4800,"parity":"N","stopbits":1,"cycle":1.00}]}
2017-11-15 19:31:53 1510792313.532671: {"class":"WATCH","enable":true,"json":false,"nmea":true,"raw":0,"scaled":false,"timing":false,"split24":false,"pps":false}
2017-11-15 19:31:54 1510792314.681126: $GPGSV,3,1,12,32,36,108,22,29,11,070,07,16,23,190,16,26,53,172,20*73
2017-11-15 19:31:54 1510792314.681297: $GPGSV,3,2,12,14,55,093,20,31,67,025,10,03,40,298,19,25,17,040,00*7A
2017-11-15 19:31:54 1510792314.681358: $GPGSV,3,3,12,23,11,301,00,01,05,252,00,22,50,270,13,135,23,238,00*45
2017-11-15 19:31:54 1510792314.794414: $GPZDA,003153.00,16,11,2017,00,00*61
2017-11-15 19:31:54 1510792314.794584: $GPGGA,003153,3946.9590,N,08404.9526,W,1,08,2.00,282.81,M,-33.324,M,,*7A
2017-11-15 19:31:54 1510792314.794646: $GPRMC,003153,A,3946.9590,N,08404.9526,W,0.7246,344.668,161117,,*3B
2017-11-15 19:31:54 1510792314.794701: $GPGSA,A,3,32,29,16,26,14,31,3,22,,,,,3.4,2.0,2.9*01
2017-11-15 19:31:55 1510792315.329067: $GPZDA,003154.00,16,11,2017,00,00*66
2017-11-15 19:31:55 1510792315.329232: $GPGGA,003154,3946.9595,N,08404.9526,W,1,08,2.00,283.45,M,-33.324,M,,*71
2017-11-15 19:31:55 1510792315.329293: $GPRMC,003154,A,3946.9595,N,08404.9526,W,0.5857,338.291,161117,,*38
2017-11-15 19:31:55 1510792315.329349: $GPGSA,A,3,32,29,16,26,14,31,3,22,,,,,3.4,2.0,2.9*01
2017-11-15 19:31:56 1510792316.329569: $GPZDA,003155.00,16,11,2017,00,00*67
2017-11-15 19:31:56 1510792316.329773: $GPGGA,003155,3946.9595,N,08404.9526,W,1,08,2.00,283.45,M,-33.324,M,,*70
2017-11-15 19:31:56 1510792316.329840: $GPRMC,003155,A,3946.9595,N,08404.9526,W,1.1323,338.868,161117,,*38
2017-11-15 19:31:56 1510792316.329899: $GPGSA,A,3,32,29,16,26,14,31,3,22,,,,,3.4,2.0,2.9*01
2017-11-15 19:31:57 1510792317.665222: $GPGSV,3,1,12,32,36,108,22,29,11,070,05,16,23,190,16,26,53,172,20*71
2017-11-15 19:31:57 1510792317.665394: $GPGSV,3,2,12,14,55,093,20,31,67,025,11,03,40,298,19,25,17,040,00*7B
2017-11-15 19:31:57 1510792317.665455: $GPGSV,3,3,12,23,11,301,00,01,05,252,00,22,50,270,15,135,23,238,00*43
2017-11-15 19:31:57 1510792317.778638: $GPZDA,003156.00,16,11,2017,00,00*64
2017-11-15 19:31:57 1510792317.778795: $GPGGA,003156,3946.9595,N,08404.9526,W,1,07,2.00,283.45,M,-33.324,M,,*7C
2017-11-15 19:31:57 1510792317.778855: $GPRMC,003156,A,3946.9595,N,08404.9526,W,1.3082,341.818,161117,,*38
2017-11-15 19:31:57 1510792317.778910: $GPGSA,A,3,32,16,26,14,31,3,22,,,,,,3.4,2.0,2.9*0A
2017-11-15 19:31:58 1510792318.345676: $GPZDA,003157.00,16,11,2017,00,00*65
2017-11-15 19:31:58 1510792318.345838: $GPGGA,003157,3946.9599,N,08404.9526,W,1,07,2.00,284.09,M,-33.324,M,,*7E
2017-11-15 19:31:58 1510792318.345898: $GPRMC,003157,A,3946.9599,N,08404.9526,W,1.0002,334.331,161117,,*3C
2017-11-15 19:31:58 1510792318.345953: $GPGSA,A,3,32,16,26,14,31,3,22,,,,,,3.4,2.0,2.9*0A
2017-11-15 19:31:59 1510792319.330284: $GPZDA,003158.00,16,11,2017,00,00*6A
2017-11-15 19:31:59 1510792319.330451: $GPGGA,003158,3946.9603,N,08404.9532,W,1,07,2.00,283.25,M,-33.324,M,,*7D
2017-11-15 19:31:59 1510792319.330511: $GPRMC,003158,A,3946.9603,N,08404.9532,W,0.8359,328.778,161117,,*36
2017-11-15 19:31:59 1510792319.330567: $GPGSA,A,3,32,16,26,14,31,3,22,,,,,,3.4,2.0,2.9*0A
2017-11-15 19:32:00 1510792320.681113: $GPGSV,3,1,12,32,36,108,22,29,11,070,06,16,23,190,16,26,53,172,20*72
2017-11-15 19:32:00 1510792320.681287: $GPGSV,3,2,12,14,55,093,20,31,67,025,12,03,40,298,20,25,17,040,00*72
2017-11-15 19:32:00 1510792320.681347: $GPGSV,3,3,12,23,11,301,00,01,05,252,00,22,50,270,17,135,23,238,00*41
2017-11-15 19:32:00 1510792320.794407: $GPZDA,003159.00,16,11,2017,00,00*6B
2017-11-15 19:32:00 1510792320.794576: $GPGGA,003159,3946.9603,N,08404.9532,W,1,07,2.00,283.25,M,-33.324,M,,*7C
2017-11-15 19:32:00 1510792320.794691: $GPRMC,003159,A,3946.9603,N,08404.9532,W,0.3423,4.197,161117,,*3C
2017-11-15 19:32:00 1510792320.794748: $GPGSA,A,3,32,16,26,14,31,3,22,,,,,,3.4,2.0,2.9*0A
2017-11-15 19:32:01 1510792321.419767: $GPZDA,003200.00,16,11,2017,00,00*64
2017-11-15 19:32:01 1510792321.419934: $GPGGA,003200,3946.9602,N,08404.9525,W,1,07,2.00,283.33,M,-33.324,M,,*73
2017-11-15 19:32:01 1510792321.419997: $GPRMC,003200,A,3946.9602,N,08404.9525,W,0.5774,27.515,161117,,*0C
2017-11-15 19:32:01 1510792321.420052: $GPGSA,A,3,32,16,26,14,31,3,22,,,,,,3.4,2.0,2.9*0A
2017-11-15 19:32:02 1510792322.329454: $GPZDA,003201.00,16,11,2017,00,00*65
2017-11-15 19:32:02 1510792322.329642: $GPGGA,003201,3946.9602,N,08404.9525,W,1,07,2.00,283.33,M,-33.324,M,,*72
2017-11-15 19:32:02 1510792322.329707: $GPRMC,003201,A,3946.9602,N,08404.9525,W,0.5951,58.684,161117,,*07
2017-11-15 19:32:02 1510792322.329766: $GPGSA,A,3,32,16,26,14,31,3,22,,,,,,3.4,2.0,2.9*0A
