2018-01-11 20:27:01 1515720421.301469: {"class":"VERSION","release":"3.16","rev":"3.16-4","proto_major":3,"proto_minor":11}
2018-01-11 20:27:01 1515720421.301834: {"class":"DEVICES","devices":[{"class":"DEVICE","path":"/dev/ttyUSB0","driver":"SiRF","subtype":"9\u0006GSD4e_4.1.2-P1_RPATCH.05-F-GPS-4R-1510281 11/03/2015 307","activated":"2018-01-12T01:27:01.252Z","flags":1,"native":1,"bps":4800,"parity":"N","stopbits":1,"cycle":1.00}]}
2018-01-11 20:27:01 1515720421.301953: {"class":"WATCH","enable":true,"json":false,"nmea":true,"raw":0,"scaled":false,"timing":false,"split24":false,"pps":false}
2018-01-11 20:27:01 1515720421.365310: $GPZDA,012702.00,12,01,2018,00,00*69
2018-01-11 20:27:01 1515720421.365484: $GPGGA,012702,3946.9600,N,08404.9863,W,2,10,0.80,294.78,M,-33.324,M,,*7F
2018-01-11 20:27:01 1515720421.365554: $GPRMC,012702,A,3946.9600,N,08404.9863,W,0.0000,0.000,120118,,*39
2018-01-11 20:27:01 1515720421.365615: $GPGSA,A,3,7,8,9,11,16,23,27,28,30,138,,,4.0,0.8,3.5*3E
2018-01-11 20:27:02 1515720422.717213: $GPGSV,3,1,11,07,62,316,44,08,75,100,46,09,42,222,41,11,26,165,45*7A
2018-01-11 20:27:02 1515720422.717391: $GPGSV,3,2,11,16,18,064,36,23,22,187,47,27,41,048,49,28,19,264,38*75
2018-01-11 20:27:02 1515720422.717460: $GPGSV,3,3,11,30,35,309,35,01,04,160,00,138,38,213,45*72
2018-01-11 20:27:02 1515720422.830645: $GPZDA,012703.00,12,01,2018,00,00*68
2018-01-11 20:27:02 1515720422.830762: $GPGGA,012703,3946.9600,N,08404.9863,W,2,10,0.80,294.78,M,-33.324,M,,*7E
2018-01-11 20:27:02 1515720422.830825: $GPRMC,012703,A,3946.9600,N,08404.9863,W,0.0000,0.000,120118,,*38
2018-01-11 20:27:02 1515720422.830886: $GPGSA,A,3,7,8,9,11,16,23,27,28,30,138,,,4.0,0.8,3.5*3E
2018-01-11 20:27:03 1515720423.381438: $GPZDA,012704.00,12,01,2018,00,00*6F
2018-01-11 20:27:03 1515720423.381613: $GPGGA,012704,3946.9600,N,08404.9863,W,2,10,0.80,294.78,M,-33.324,M,,*79
2018-01-11 20:27:03 1515720423.381680: $GPRMC,012704,A,3946.9600,N,08404.9863,W,0.0000,0.000,120118,,*3F
2018-01-11 20:27:03 1515720423.381741: $GPGSA,A,3,7,8,9,11,16,23,27,28,30,138,,,4.0,0.8,3.5*3E
2018-01-11 20:27:04 1515720424.363563: $GPZDA,012705.00,12,01,2018,00,00*6E
2018-01-11 20:27:04 1515720424.363739: $GPGGA,012705,3946.9600,N,08404.9863,W,2,10,0.80,294.78,M,-33.324,M,,*78
2018-01-11 20:27:04 1515720424.363807: $GPRMC,012705,A,3946.9600,N,08404.9863,W,0.0000,0.000,120118,,*3E
2018-01-11 20:27:04 1515720424.363867: $GPGSA,A,3,7,8,9,11,16,23,27,28,30,138,,,4.0,0.8,3.5*3E
2018-01-11 20:27:05 1515720425.717568: $GPGSV,3,1,11,07,62,316,44,08,75,100,46,09,42,222,41,11,26,165,45*7A
2018-01-11 20:27:05 1515720425.717736: $GPGSV,3,2,11,16,18,064,36,23,22,187,47,27,41,048,49,28,19,264,38*75
2018-01-11 20:27:05 1515720425.717801: $GPGSV,3,3,11,30,35,309,35,01,04,160,00,138,38,213,45*72
2018-01-11 20:27:05 1515720425.830891: $GPZDA,012706.00,12,01,2018,00,00*6D
2018-01-11 20:27:05 1515720425.831014: $GPGGA,012706,3946.9600,N,08404.9863,W,2,10,0.80,294.78,M,-33.324,M,,*7B
2018-01-11 20:27:05 1515720425.831079: $GPRMC,012706,A,3946.9600,N,08404.9863,W,0.0000,0.000,120118,,*3D
2018-01-11 20:27:05 1515720425.831141: $GPGSA,A,3,7,8,9,11,16,23,27,28,30,138,,,4.0,0.8,3.5*3E
2018-01-11 20:27:06 1515720426.364280: $GPZDA,012707.00,12,01,2018,00,00*6C
2018-01-11 20:27:06 1515720426.364452: $GPGGA,012707,3946.9600,N,08404.9863,W,2,10,0.80,294.78,M,-33.324,M,,*7A
2018-01-11 20:27:06 1515720426.364523: $GPRMC,012707,A,3946.9600,N,08404.9863,W,0.0000,0.000,120118,,*3C
2018-01-11 20:27:06 1515720426.364583: $GPGSA,A,3,7,8,9,11,16,23,27,28,30,138,,,4.0,0.8,3.5*3E
2018-01-11 20:27:07 1515720427.377655: $GPZDA,012708.00,12,01,2018,00,00*63
2018-01-11 20:27:07 1515720427.377822: $GPGGA,012708,3946.9600,N,08404.9863,W,2,10,0.80,294.78,M,-33.324,M,,*75
2018-01-11 20:27:07 1515720427.377889: $GPRMC,012708,A,3946.9600,N,08404.9863,W,0.0000,0.000,120118,,*33
2018-01-11 20:27:07 1515720427.377950: $GPGSA,A,3,7,8,9,11,16,23,27,28,30,138,,,4.0,0.8,3.5*3E
2018-01-11 20:27:08 1515720428.714644: $GPGSV,3,1,11,07,62,316,44,08,75,100,46,09,42,222,40,11,26,165,45*7B
2018-01-11 20:27:08 1515720428.714797: $GPGSV,3,2,11,16,18,064,36,23,22,187,47,27,41,048,49,28,19,264,38*75
2018-01-11 20:27:08 1515720428.714920: $GPGSV,3,3,11,30,35,309,35,01,04,160,04,138,38,213,44*77
2018-01-11 20:27:08 1515720428.827961: $GPZDA,012709.00,12,01,2018,00,00*62
2018-01-11 20:27:08 1515720428.828071: $GPGGA,012709,3946.9600,N,08404.9863,W,2,10,0.80,294.78,M,-33.324,M,,*74
2018-01-11 20:27:08 1515720428.828137: $GPRMC,012709,A,3946.9600,N,08404.9863,W,0.0000,0.000,120118,,*32
2018-01-11 20:27:08 1515720428.828196: $GPGSA,A,3,7,8,9,11,16,23,27,28,30,138,,,4.0,0.8,3.5*3E
2018-01-11 20:27:09 1515720429.381391: $GPZDA,012710.00,12,01,2018,00,00*6A
2018-01-11 20:27:09 1515720429.381568: $GPGGA,012710,3946.9600,N,08404.9863,W,2,10,0.80,294.78,M,-33.324,M,,*7C
2018-01-11 20:27:09 1515720429.381637: $GPRMC,012710,A,3946.9600,N,08404.9863,W,0.0000,0.000,120118,,*3A
2018-01-11 20:27:09 1515720429.381697: $GPGSA,A,3,7,8,9,11,16,23,27,28,30,138,,,4.0,0.8,3.5*3E
2018-01-11 20:27:10 1515720430.380527: $GPZDA,012711.00,12,01,2018,00,00*6B
2018-01-11 20:27:10 1515720430.380700: $GPGGA,012711,3946.9600,N,08404.9863,W,2,10,0.80,294.78,M,-33.324,M,,*7D
2018-01-11 20:27:10 1515720430.380767: $GPRMC,012711,A,3946.9600,N,08404.9863,W,0.0000,0.000,120118,,*3B
2018-01-11 20:27:10 1515720430.380828: $GPGSA,A,3,7,8,9,11,16,23,27,28,30,138,,,4.0,0.8,3.5*3E
2018-01-11 20:27:11 1515720431.717507: $GPGSV,3,1,11,07,62,316,44,08,75,100,46,09,42,222,41,11,26,165,45*7A
2018-01-11 20:27:11 1515720431.717690: $GPGSV,3,2,11,16,18,064,36,23,22,187,47,27,41,048,49,28,19,264,38*75
2018-01-11 20:27:11 1515720431.717756: $GPGSV,3,3,11,30,35,309,34,01,04,160,00,138,38,213,45*73
2018-01-11 20:27:11 1515720431.830860: $GPZDA,012712.00,12,01,2018,00,00*68
2018-01-11 20:27:11 1515720431.831000: $GPGGA,012712,3946.9603,N,08404.9862,W,2,10,0.80,294.02,M,-33.324,M,,*71
2018-01-11 20:27:11 1515720431.831066: $GPRMC,012712,A,3946.9603,N,08404.9862,W,0.0000,0.000,120118,,*3A
2018-01-11 20:27:11 1515720431.831126: $GPGSA,A,3,7,8,9,11,16,23,27,28,30,138,,,4.0,0.8,3.5*3E
2018-01-11 20:27:12 1515720432.362984: $GPZDA,012713.00,12,01,2018,00,00*69
2018-01-11 20:27:12 1515720432.363155: $GPGGA,012713,3946.9603,N,08404.9862,W,2,10,0.80,294.02,M,-33.324,M,,*70
2018-01-11 20:27:12 1515720432.363223: $GPRMC,012713,A,3946.9603,N,08404.9862,W,0.0000,0.000,120118,,*3B
2018-01-11 20:27:12 1515720432.363284: $GPGSA,A,3,7,8,9,11,16,23,27,28,30,138,,,4.0,0.8,3.5*3E
2018-01-11 20:27:13 1515720433.368863: $GPZDA,012714.00,12,01,2018,00,00*6E
2018-01-11 20:27:13 1515720433.369122: $GPGGA,012714,3946.9603,N,08404.9862,W,2,10,0.80,294.02,M,-33.324,M,,*77
2018-01-11 20:27:13 1515720433.369206: $GPRMC,012714,A,3946.9603,N,08404.9862,W,0.0000,0.000,120118,,*3C
2018-01-11 20:27:13 1515720433.369269: $GPGSA,A,3,7,8,9,11,16,23,27,28,30,138,,,4.0,0.8,3.5*3E
