2017-11-16 17:17:16 1510870636.890390: {"class":"VERSION","release":"3.17","rev":"3.17","proto_major":3,"proto_minor":12}
2017-11-16 17:17:16 1510870636.890830: {"class":"DEVICES","devices":[{"class":"DEVICE","path":"/dev/ttyUSB0","driver":"SiRF","subtype":"9\u0006GSD4e_4.1.2-P1_RPATCH.05-F-GPS-4R-1510281 11/03/2015 307","activated":"2017-11-16T22:17:16.610Z","flags":1,"native":1,"bps":4800,"parity":"N","stopbits":1,"cycle":1.00}]}
2017-11-16 17:17:16 1510870636.890945: {"class":"WATCH","enable":true,"json":false,"nmea":true,"raw":0,"scaled":false,"timing":false,"split24":false,"pps":false}
2017-11-16 17:17:17 1510870637.400739: $GPZDA,221716.00,16,11,2017,00,00*64
2017-11-16 17:17:17 1510870637.400961: $GPGGA,221716,3946.9567,N,08404.9826,W,2,11,0.80,311.41,M,-33.324,M,,*7C
2017-11-16 17:17:17 1510870637.401031: $GPRMC,221716,A,3946.9567,N,08404.9826,W,0.0000,0.000,161117,,*37
2017-11-16 17:17:17 1510870637.401088: $GPGSA,A,3,1,10,22,12,14,18,11,25,31,32,138,,1.6,0.8,1.3*3E
2017-11-16 17:17:18 1510870638.736530: $GPGSV,3,1,12,01,20,307,40,10,56,144,48,22,13,312,40,12,24,057,49*78
2017-11-16 17:17:18 1510870638.736702: $GPGSV,3,2,12,14,63,313,47,18,25,141,44,24,03,048,00,11,10,288,35*7F
2017-11-16 17:17:18 1510870638.736764: $GPGSV,3,3,12,25,37,100,48,31,48,219,49,32,70,006,49,138,38,213,44*41
2017-11-16 17:17:18 1510870638.850114: $GPZDA,221717.00,16,11,2017,00,00*65
2017-11-16 17:17:18 1510870638.850303: $GPGGA,221717,3946.9567,N,08404.9826,W,2,11,0.80,311.41,M,-33.324,M,,*7D
2017-11-16 17:17:18 1510870638.850376: $GPRMC,221717,A,3946.9567,N,08404.9826,W,0.0000,0.000,161117,,*36
2017-11-16 17:17:18 1510870638.850432: $GPGSA,A,3,1,10,22,12,14,18,11,25,31,32,138,,1.6,0.8,1.3*3E
2017-11-16 17:17:19 1510870639.400638: $GPZDA,221718.00,16,11,2017,00,00*6A
2017-11-16 17:17:19 1510870639.400798: $GPGGA,221718,3946.9567,N,08404.9826,W,2,11,0.80,311.41,M,-33.324,M,,*72
2017-11-16 17:17:19 1510870639.400875: $GPRMC,221718,A,3946.9567,N,08404.9826,W,0.0000,0.000,161117,,*39
2017-11-16 17:17:19 1510870639.400933: $GPGSA,A,3,1,10,22,12,14,18,11,25,31,32,138,,1.6,0.8,1.3*3E
2017-11-16 17:17:20 1510870640.401496: $GPZDA,221719.00,16,11,2017,00,00*6B
2017-11-16 17:17:20 1510870640.401680: $GPGGA,221719,3946.9567,N,08404.9826,W,2,11,0.80,311.41,M,-33.324,M,,*73
2017-11-16 17:17:20 1510870640.401745: $GPRMC,221719,A,3946.9567,N,08404.9826,W,0.0000,0.000,161117,,*38
2017-11-16 17:17:20 1510870640.401801: $GPGSA,A,3,1,10,22,12,14,18,11,25,31,32,138,,1.6,0.8,1.3*3E
2017-11-16 17:17:21 1510870641.738064: $GPGSV,3,1,12,01,20,307,40,10,56,144,48,22,13,312,40,12,24,057,49*78
2017-11-16 17:17:21 1510870641.738235: $GPGSV,3,2,12,14,63,313,47,18,25,141,43,24,03,048,00,11,10,288,35*78
2017-11-16 17:17:21 1510870641.738295: $GPGSV,3,3,12,25,37,100,48,31,48,219,49,32,70,006,49,138,38,213,44*41
2017-11-16 17:17:21 1510870641.851498: $GPZDA,221720.00,16,11,2017,00,00*61
2017-11-16 17:17:21 1510870641.851688: $GPGGA,221720,3946.9567,N,08404.9826,W,2,11,0.80,311.41,M,-33.324,M,,*79
2017-11-16 17:17:21 1510870641.851749: $GPRMC,221720,A,3946.9567,N,08404.9826,W,0.0000,0.000,161117,,*32
2017-11-16 17:17:21 1510870641.851805: $GPGSA,A,3,1,10,22,12,14,18,11,25,31,32,138,,1.6,0.8,1.3*3E
2017-11-16 17:17:22 1510870642.419942: $GPZDA,221721.00,16,11,2017,00,00*60
2017-11-16 17:17:22 1510870642.420123: $GPGGA,221721,3946.9567,N,08404.9826,W,2,11,0.80,311.41,M,-33.324,M,,*78
2017-11-16 17:17:22 1510870642.420184: $GPRMC,221721,A,3946.9567,N,08404.9826,W,0.0000,0.000,161117,,*33
2017-11-16 17:17:22 1510870642.420240: $GPGSA,A,3,1,10,22,12,14,18,11,25,31,32,138,,1.6,0.8,1.3*3E
2017-11-16 17:17:23 1510870643.401057: $GPZDA,221722.00,16,11,2017,00,00*63
2017-11-16 17:17:23 1510870643.401261: $GPGGA,221722,3946.9567,N,08404.9826,W,2,11,0.80,311.41,M,-33.324,M,,*7B
2017-11-16 17:17:23 1510870643.401323: $GPRMC,221722,A,3946.9567,N,08404.9826,W,0.0000,0.000,161117,,*30
2017-11-16 17:17:23 1510870643.401379: $GPGSA,A,3,1,10,22,12,14,18,11,25,31,32,138,,1.6,0.8,1.3*3E
2017-11-16 17:17:24 1510870644.736574: $GPGSV,3,1,12,01,20,307,40,10,56,144,48,22,13,312,40,12,24,057,49*78
2017-11-16 17:17:24 1510870644.736815: $GPGSV,3,2,12,14,63,313,47,18,25,141,43,24,03,048,00,11,10,288,36*7B
2017-11-16 17:17:24 1510870644.736878: $GPGSV,3,3,12,25,37,100,47,31,48,219,49,32,70,006,49,138,38,213,43*49
2017-11-16 17:17:24 1510870644.850231: $GPZDA,221723.00,16,11,2017,00,00*62
2017-11-16 17:17:24 1510870644.850557: $GPGGA,221723,3946.9567,N,08404.9826,W,2,11,0.80,311.41,M,-33.324,M,,*7A
2017-11-16 17:17:24 1510870644.850680: $GPRMC,221723,A,3946.9567,N,08404.9826,W,0.0000,0.000,161117,,*31
2017-11-16 17:17:24 1510870644.850777: $GPGSA,A,3,1,10,22,12,14,18,11,25,31,32,138,,1.6,0.8,1.3*3E
2017-11-16 17:17:25 1510870645.419519: $GPZDA,221724.00,16,11,2017,00,00*65
2017-11-16 17:17:25 1510870645.419701: $GPGGA,221724,3946.9567,N,08404.9826,W,2,11,0.80,311.41,M,-33.324,M,,*7D
2017-11-16 17:17:25 1510870645.419762: $GPRMC,221724,A,3946.9567,N,08404.9826,W,0.0000,0.000,161117,,*36
2017-11-16 17:17:25 1510870645.419818: $GPGSA,A,3,1,10,22,12,14,18,11,25,31,32,138,,1.6,0.8,1.3*3E
2017-11-16 17:17:26 1510870646.414925: $GPZDA,221725.00,16,11,2017,00,00*64
2017-11-16 17:17:26 1510870646.415130: $GPGGA,221725,3946.9567,N,08404.9826,W,2,11,0.80,311.41,M,-33.324,M,,*7C
2017-11-16 17:17:26 1510870646.415194: $GPRMC,221725,A,3946.9567,N,08404.9826,W,0.0000,0.000,161117,,*37
2017-11-16 17:17:26 1510870646.415251: $GPGSA,A,3,1,10,22,12,14,18,11,25,31,32,138,,1.6,0.8,1.3*3E
