2017-12-01 16:11:52 1512162712.377029: {"class":"VERSION","release":"3.16","rev":"3.16-4","proto_major":3,"proto_minor":11}
2017-12-01 16:11:52 1512162712.377521: {"class":"DEVICES","devices":[{"class":"DEVICE","path":"/dev/ttyUSB0","driver":"SiRF","subtype":"9\u0006GSD4e_4.1.2-P1_RPATCH.05-F-GPS-4R-1510281 11/03/2015 307","activated":"2017-12-01T21:11:52.376Z","flags":1,"native":1,"bps":4800,"parity":"N","stopbits":1,"cycle":1.00}]}
2017-12-01 16:11:52 1512162712.377644: {"class":"WATCH","enable":true,"json":false,"nmea":true,"raw":0,"scaled":false,"timing":false,"split24":false,"pps":false}
2017-12-01 16:11:53 1512162713.342795: $GPGSV,3,1,12,01,19,309,38,10,57,144,48,11,10,289,33,12,24,058,45*75
2017-12-01 16:11:53 1512162713.343074: $GPGSV,3,2,12,14,62,310,46,18,26,141,45,22,12,312,32,25,37,102,48*7C
2017-12-01 16:11:53 1512162713.343145: $GPGSV,3,3,12,31,48,219,48,32,70,004,48,24,04,048,05,138,38,213,35*40
2017-12-01 16:11:53 1512162713.456026: $GPZDA,211153.00,01,12,2017,00,00*65
2017-12-01 16:11:53 1512162713.456191: $GPGGA,211153,3946.9583,N,08404.9789,W,1,11,0.80,323.63,M,-33.324,M,,*7A
2017-12-01 16:11:53 1512162713.456258: $GPRMC,211153,A,3946.9583,N,08404.9789,W,0.0000,0.000,011217,,*36
2017-12-01 16:11:53 1512162713.456318: $GPGSA,A,3,1,10,11,12,14,18,22,25,31,32,138,,2.0,0.8,1.5*3D
2017-12-01 16:11:53 1512162713.908322: $GPZDA,211154.00,01,12,2017,00,00*62
2017-12-01 16:11:53 1512162713.908496: $GPGGA,211154,3946.9575,N,08404.9797,W,1,11,0.80,323.68,M,-33.324,M,,*70
2017-12-01 16:11:53 1512162713.908563: $GPRMC,211154,A,3946.9575,N,08404.9797,W,0.1567,189.200,011217,,*30
2017-12-01 16:11:53 1512162713.908624: $GPGSA,A,3,1,10,11,12,14,18,22,25,31,32,138,,2.0,0.8,1.5*3D
2017-12-01 16:11:54 1512162714.410358: $GPZDA,211155.00,01,12,2017,00,00*63
2017-12-01 16:11:54 1512162714.410679: $GPGGA,211155,3946.9575,N,08404.9797,W,1,11,0.80,323.68,M,-33.324,M,,*71
2017-12-01 16:11:54 1512162714.410748: $GPRMC,211155,A,3946.9575,N,08404.9797,W,0.2422,93.794,011217,,*00
2017-12-01 16:11:54 1512162714.410846: $GPGSA,A,3,1,10,11,12,14,18,22,25,31,32,138,,2.0,0.8,1.5*3D
2017-12-01 16:11:55 1512162715.744372: $GPGSV,3,1,12,01,19,309,37,10,57,144,48,11,10,289,31,12,24,058,45*78
2017-12-01 16:11:55 1512162715.744553: $GPGSV,3,2,12,14,62,310,46,18,26,141,45,22,12,312,16,25,37,102,48*7A
2017-12-01 16:11:55 1512162715.744620: $GPGSV,3,3,12,31,48,219,48,32,70,004,48,24,04,048,23,138,38,213,46*40
2017-12-01 16:11:55 1512162715.857853: $GPZDA,211156.00,01,12,2017,00,00*60
2017-12-01 16:11:55 1512162715.858039: $GPGGA,211156,3946.9572,N,08404.9797,W,1,11,0.80,324.44,M,-33.324,M,,*7C
2017-12-01 16:11:55 1512162715.858106: $GPRMC,211156,A,3946.9572,N,08404.9797,W,0.0000,0.000,011217,,*32
2017-12-01 16:11:55 1512162715.858167: $GPGSA,A,3,1,10,11,12,14,18,25,31,32,24,138,,2.0,0.8,1.5*3B
2017-12-01 16:11:56 1512162716.410026: $GPZDA,211157.00,01,12,2017,00,00*61
2017-12-01 16:11:56 1512162716.410200: $GPGGA,211157,3946.9568,N,08404.9797,W,1,11,0.80,323.80,M,-33.324,M,,*79
2017-12-01 16:11:56 1512162716.410267: $GPRMC,211157,A,3946.9568,N,08404.9797,W,0.0000,0.000,011217,,*38
2017-12-01 16:11:56 1512162716.410329: $GPGSA,A,3,1,10,11,12,14,18,25,31,32,24,138,,2.0,0.8,1.5*3B
2017-12-01 16:11:57 1512162717.410511: $GPZDA,211158.00,01,12,2017,00,00*6E
2017-12-01 16:11:57 1512162717.410685: $GPGGA,211158,3946.9568,N,08404.9797,W,1,11,0.80,323.80,M,-33.324,M,,*76
2017-12-01 16:11:57 1512162717.410752: $GPRMC,211158,A,3946.9568,N,08404.9797,W,0.0000,0.000,011217,,*37
2017-12-01 16:11:57 1512162717.410837: $GPGSA,A,3,1,10,11,12,14,18,25,31,32,24,138,,2.0,0.8,1.5*3B
2017-12-01 16:11:57 1512162717.410897: $GPGBS,211158,10.70,M,15.43,M,35.28,M*09
2017-12-01 16:11:58 1512162718.746270: $GPGSV,3,1,12,01,19,309,36,10,57,144,48,11,10,289,30,12,24,058,45*78
2017-12-01 16:11:58 1512162718.746454: $GPGSV,3,2,12,14,62,310,45,18,26,141,44,22,12,312,00,25,37,102,48*7F
2017-12-01 16:11:58 1512162718.746521: $GPGSV,3,3,12,31,48,219,48,32,70,004,47,24,04,048,23,138,38,213,46*4F
2017-12-01 16:11:58 1512162718.859711: $GPZDA,211159.00,01,12,2017,00,00*6F
2017-12-01 16:11:58 1512162718.859938: $GPGGA,211159,3946.9546,N,08404.9813,W,2,11,1.40,324.02,M,-33.324,M,,*7B
2017-12-01 16:11:58 1512162718.860007: $GPRMC,211159,A,3946.9546,N,08404.9813,W,0.0000,0.000,011217,,*39
2017-12-01 16:11:58 1512162718.860070: $GPGSA,A,3,1,10,11,12,14,18,25,31,32,24,138,,2.0,1.4,1.5*36
2017-12-01 16:11:59 1512162719.410568: $GPZDA,211200.00,01,12,2017,00,00*60
2017-12-01 16:11:59 1512162719.410738: $GPGGA,211200,3946.9546,N,08404.9813,W,2,11,0.80,324.02,M,-33.324,M,,*79
2017-12-01 16:11:59 1512162719.410805: $GPRMC,211200,A,3946.9546,N,08404.9813,W,0.0000,0.000,011217,,*36
2017-12-01 16:11:59 1512162719.410869: $GPGSA,A,3,1,10,11,12,14,18,25,31,32,24,138,,2.0,0.8,1.5*3B
2017-12-01 16:12:00 1512162720.412301: $GPZDA,211201.00,01,12,2017,00,00*61
2017-12-01 16:12:00 1512162720.412473: $GPGGA,211201,3946.9546,N,08404.9813,W,2,11,0.80,324.02,M,-33.324,M,,*78
2017-12-01 16:12:00 1512162720.412542: $GPRMC,211201,A,3946.9546,N,08404.9813,W,0.0000,0.000,011217,,*37
2017-12-01 16:12:00 1512162720.412604: $GPGSA,A,3,1,10,11,12,14,18,25,31,32,24,138,,2.0,0.8,1.5*3B
2017-12-01 16:12:01 1512162721.751724: $GPGSV,3,1,12,01,19,309,36,10,57,144,48,11,10,289,30,12,24,058,45*78
2017-12-01 16:12:01 1512162721.751928: $GPGSV,3,2,12,14,62,310,45,18,26,141,44,22,12,312,04,25,37,102,48*7B
2017-12-01 16:12:01 1512162721.751999: $GPGSV,3,3,12,31,48,219,48,32,70,004,48,24,04,048,23,138,38,213,46*40
2017-12-01 16:12:01 1512162721.865183: $GPZDA,211202.00,01,12,2017,00,00*62
2017-12-01 16:12:01 1512162721.865357: $GPGGA,211202,3946.9546,N,08404.9813,W,2,11,0.80,324.02,M,-33.324,M,,*7B
2017-12-01 16:12:01 1512162721.865425: $GPRMC,211202,A,3946.9546,N,08404.9813,W,0.0000,0.000,011217,,*34
2017-12-01 16:12:01 1512162721.865506: $GPGSA,A,3,1,10,11,12,14,18,25,31,32,24,138,,2.0,0.8,1.5*3B
2017-12-01 16:12:02 1512162722.412283: $GPZDA,211203.00,01,12,2017,00,00*63
2017-12-01 16:12:02 1512162722.412459: $GPGGA,211203,3946.9546,N,08404.9813,W,2,11,0.80,324.02,M,-33.324,M,,*7A
2017-12-01 16:12:02 1512162722.412527: $GPRMC,211203,A,3946.9546,N,08404.9813,W,0.0000,0.000,011217,,*35
2017-12-01 16:12:02 1512162722.412589: $GPGSA,A,3,1,10,11,12,14,18,25,31,32,24,138,,2.0,0.8,1.5*3B
2017-12-01 16:12:03 1512162723.409312: $GPZDA,211204.00,01,12,2017,00,00*64
2017-12-01 16:12:03 1512162723.409484: $GPGGA,211204,3946.9546,N,08404.9813,W,2,11,0.80,324.02,M,-33.324,M,,*7D
2017-12-01 16:12:03 1512162723.409552: $GPRMC,211204,A,3946.9546,N,08404.9813,W,0.3423,4.197,011217,,*3F
2017-12-01 16:12:03 1512162723.409613: $GPGSA,A,3,1,10,11,12,14,18,25,31,32,24,138,,2.0,0.8,1.5*3B
2017-12-01 16:12:04 1512162724.743746: $GPGSV,3,1,12,01,19,309,29,10,57,144,47,11,10,289,33,12,24,058,45*7A
2017-12-01 16:12:04 1512162724.743940: $GPGSV,3,2,12,14,62,310,44,18,26,141,44,22,12,312,00,25,37,102,47*71
2017-12-01 16:12:04 1512162724.744007: $GPGSV,3,3,12,31,48,219,48,32,70,004,47,24,04,048,00,138,38,213,48*40
2017-12-01 16:12:04 1512162724.857440: $GPZDA,211205.00,01,12,2017,00,00*65
2017-12-01 16:12:04 1512162724.857594: $GPGGA,211205,3946.9546,N,08404.9813,W,2,10,0.80,324.02,M,-33.324,M,,*7D
2017-12-01 16:12:04 1512162724.857680: $GPRMC,211205,A,3946.9546,N,08404.9813,W,0.0000,0.000,011217,,*33
2017-12-01 16:12:04 1512162724.857743: $GPGSA,A,3,1,10,11,12,14,18,25,31,32,138,,,2.0,0.8,1.5*3D
2017-12-01 16:12:05 1512162725.483017: $GPZDA,211206.00,01,12,2017,00,00*66
2017-12-01 16:12:05 1512162725.483186: $GPGGA,211206,3946.9549,N,08404.9826,W,2,10,0.80,321.69,M,-33.324,M,,*7F
2017-12-01 16:12:05 1512162725.483254: $GPRMC,211206,A,3946.9549,N,08404.9826,W,0.0000,0.000,011217,,*39
2017-12-01 16:12:05 1512162725.483316: $GPGSA,A,3,1,10,11,12,14,18,25,31,32,138,,,2.0,0.8,1.5*3D
2017-12-01 16:12:06 1512162726.409715: $GPZDA,211207.00,01,12,2017,00,00*67
2017-12-01 16:12:06 1512162726.409918: $GPGGA,211207,3946.9549,N,08404.9826,W,2,10,0.80,321.69,M,-33.324,M,,*7E
2017-12-01 16:12:06 1512162726.409987: $GPRMC,211207,A,3946.9549,N,08404.9826,W,0.0000,0.000,011217,,*38
2017-12-01 16:12:06 1512162726.410049: $GPGSA,A,3,1,10,11,12,14,18,25,31,32,138,,,2.0,0.8,1.5*3D
2017-12-01 16:12:07 1512162727.745485: $GPGSV,3,1,12,01,19,309,32,10,57,144,47,11,10,289,34,12,24,058,46*74
2017-12-01 16:12:07 1512162727.745671: $GPGSV,3,2,12,14,62,310,44,18,26,141,44,22,12,312,28,25,37,102,48*74
2017-12-01 16:12:07 1512162727.745739: $GPGSV,3,3,12,31,48,219,49,32,70,004,47,24,04,048,00,138,38,213,47*4E
2017-12-01 16:12:07 1512162727.858920: $GPZDA,211208.00,01,12,2017,00,00*68
2017-12-01 16:12:07 1512162727.859094: $GPGGA,211208,3946.9549,N,08404.9826,W,2,11,0.80,321.69,M,-33.324,M,,*70
2017-12-01 16:12:07 1512162727.859161: $GPRMC,211208,A,3946.9549,N,08404.9826,W,0.0000,0.000,011217,,*37
2017-12-01 16:12:07 1512162727.859222: $GPGSA,A,3,1,10,11,12,14,18,22,25,31,32,138,,2.0,0.8,1.5*3D
2017-12-01 16:12:08 1512162728.409751: $GPZDA,211209.00,01,12,2017,00,00*69
2017-12-01 16:12:08 1512162728.409964: $GPGGA,211209,3946.9549,N,08404.9826,W,2,11,0.80,321.69,M,-33.324,M,,*71
2017-12-01 16:12:08 1512162728.410032: $GPRMC,211209,A,3946.9549,N,08404.9826,W,0.0000,0.000,011217,,*36
2017-12-01 16:12:08 1512162728.410094: $GPGSA,A,3,1,10,11,12,14,18,22,25,31,32,138,,2.0,0.8,1.5*3D
2017-12-01 16:12:09 1512162729.411805: $GPZDA,211210.00,01,12,2017,00,00*61
2017-12-01 16:12:09 1512162729.411987: $GPGGA,211210,3946.9553,N,08404.9825,W,2,11,0.80,320.92,M,-33.324,M,,*74
2017-12-01 16:12:09 1512162729.412055: $GPRMC,211210,A,3946.9553,N,08404.9825,W,0.0000,0.000,011217,,*36
2017-12-01 16:12:09 1512162729.412116: $GPGSA,A,3,1,10,11,12,14,18,22,25,31,32,138,,2.0,0.8,1.5*3D
2017-12-01 16:12:09 1512162729.412175: $GPGBS,211210,2.67,M,3.86,M,8.82,M*33
2017-12-01 16:12:10 1512162730.747047: $GPGSV,3,1,12,01,19,309,25,10,57,144,48,11,10,289,33,12,24,058,46*7A
2017-12-01 16:12:10 1512162730.747202: $GPGSV,3,2,12,14,62,310,45,18,26,141,44,22,12,312,29,25,37,102,49*75
2017-12-01 16:12:10 1512162730.747268: $GPGSV,3,3,12,31,48,219,49,32,70,004,47,24,04,048,00,138,38,213,46*4F
2017-12-01 16:12:10 1512162730.860371: $GPZDA,211211.00,01,12,2017,00,00*60
2017-12-01 16:12:10 1512162730.860540: $GPGGA,211211,3946.9553,N,08404.9825,W,2,11,0.80,320.92,M,-33.324,M,,*75
2017-12-01 16:12:10 1512162730.860607: $GPRMC,211211,A,3946.9553,N,08404.9825,W,0.0000,0.000,011217,,*37
2017-12-01 16:12:10 1512162730.860668: $GPGSA,A,3,1,10,11,12,14,18,22,25,31,32,138,,2.0,0.8,1.5*3D
2017-12-01 16:12:11 1512162731.412180: $GPZDA,211212.00,01,12,2017,00,00*63
2017-12-01 16:12:11 1512162731.412366: $GPGGA,211212,3946.9553,N,08404.9825,W,2,11,0.80,320.92,M,-33.324,M,,*76
2017-12-01 16:12:11 1512162731.412506: $GPRMC,211212,A,3946.9553,N,08404.9825,W,0.0000,0.000,011217,,*34
2017-12-01 16:12:11 1512162731.412585: $GPGSA,A,3,1,10,11,12,14,18,22,25,31,32,138,,2.0,0.8,1.5*3D
