2017-12-31 18:11:19 1514761879.870075: {"class":"VERSION","release":"3.16","rev":"3.16-4","proto_major":3,"proto_minor":11}
2017-12-31 18:11:19 1514761879.870426: {"class":"DEVICES","devices":[{"class":"DEVICE","path":"/dev/ttyUSB0","driver":"SiRF","activated":"2017-12-31T23:11:19.663Z","flags":1,"native":1,"bps":4800,"parity":"N","stopbits":1,"cycle":1.00}]}
2017-12-31 18:11:19 1514761879.870526: {"class":"WATCH","enable":true,"json":false,"nmea":true,"raw":0,"scaled":false,"timing":false,"split24":false,"pps":false}
2017-12-31 18:11:20 1514761880.376567: $GPZDA,231121.00,31,12,2017,00,00*61
2017-12-31 18:11:20 1514761880.376739: $GPGGA,231121,3946.9557,N,08404.9874,W,2,12,0.60,308.93,M,-33.324,M,,*71
2017-12-31 18:11:20 1514761880.376810: $GPRMC,231121,A,3946.9557,N,08404.9874,W,0.0000,0.000,311217,,*36
2017-12-31 18:11:20 1514761880.376871: $GPGSA,A,3,22,23,9,3,16,29,14,31,27,8,26,135,1.7,0.6,1.3*3E
2017-12-31 18:11:21 1514761881.683249: $GPGSV,3,1,12,22,21,213,40,23,55,306,46,09,21,312,39,03,31,234,43*7A
2017-12-31 18:11:21 1514761881.683427: $GPGSV,3,2,12,16,82,187,43,29,05,030,36,14,14,133,34,31,28,076,44*78
2017-12-31 18:11:21 1514761881.683492: $GPGSV,3,3,12,27,23,153,36,08,01,180,21,26,61,049,47,135,22,240,45*42
2017-12-31 18:11:21 1514761881.796831: $GPZDA,231122.00,31,12,2017,00,00*62
2017-12-31 18:11:21 1514761881.796966: $GPGGA,231122,3946.9557,N,08404.9874,W,2,12,0.60,308.93,M,-33.324,M,,*72
2017-12-31 18:11:21 1514761881.797032: $GPRMC,231122,A,3946.9557,N,08404.9874,W,0.0000,0.000,311217,,*35
2017-12-31 18:11:21 1514761881.797147: $GPGSA,A,3,22,23,9,3,16,29,14,31,27,8,26,135,1.7,0.6,1.3*3E
2017-12-31 18:11:22 1514761882.349073: $GPZDA,231123.00,31,12,2017,00,00*63
2017-12-31 18:11:22 1514761882.349246: $GPGGA,231123,3946.9557,N,08404.9874,W,2,12,0.60,308.93,M,-33.324,M,,*73
2017-12-31 18:11:22 1514761882.349314: $GPRMC,231123,A,3946.9557,N,08404.9874,W,0.0000,0.000,311217,,*34
2017-12-31 18:11:22 1514761882.349375: $GPGSA,A,3,22,23,9,3,16,29,14,31,27,8,26,135,1.7,0.6,1.3*3E
2017-12-31 18:11:23 1514761883.376093: $GPZDA,231124.00,31,12,2017,00,00*64
2017-12-31 18:11:23 1514761883.376264: $GPGGA,231124,3946.9557,N,08404.9874,W,2,12,0.60,308.93,M,-33.324,M,,*74
2017-12-31 18:11:23 1514761883.376331: $GPRMC,231124,A,3946.9557,N,08404.9874,W,0.0000,0.000,311217,,*33
2017-12-31 18:11:23 1514761883.376394: $GPGSA,A,3,22,23,9,3,16,29,14,31,27,8,26,135,1.7,0.6,1.3*3E
2017-12-31 18:11:24 1514761884.705349: $GPGSV,3,1,12,22,21,213,40,23,55,306,46,09,21,312,39,03,31,234,44*7D
2017-12-31 18:11:24 1514761884.705530: $GPGSV,3,2,12,16,82,187,43,29,05,030,35,14,14,133,34,31,28,076,44*7B
2017-12-31 18:11:24 1514761884.705598: $GPGSV,3,3,12,27,23,153,36,08,01,180,21,26,61,049,48,135,22,240,44*4C
2017-12-31 18:11:24 1514761884.818688: $GPZDA,231125.00,31,12,2017,00,00*65
2017-12-31 18:11:24 1514761884.818865: $GPGGA,231125,3946.9557,N,08404.9874,W,2,12,0.60,308.93,M,-33.324,M,,*75
2017-12-31 18:11:24 1514761884.818934: $GPRMC,231125,A,3946.9557,N,08404.9874,W,0.0000,0.000,311217,,*32
2017-12-31 18:11:24 1514761884.818997: $GPGSA,A,3,22,23,9,3,16,29,14,31,27,8,26,135,1.7,0.6,1.3*3E
2017-12-31 18:11:25 1514761885.444523: $GPZDA,231126.00,31,12,2017,00,00*66
2017-12-31 18:11:25 1514761885.444699: $GPGGA,231126,3946.9557,N,08404.9874,W,2,12,0.60,308.93,M,-33.324,M,,*76
2017-12-31 18:11:25 1514761885.444769: $GPRMC,231126,A,3946.9557,N,08404.9874,W,0.0000,0.000,311217,,*31
2017-12-31 18:11:25 1514761885.444831: $GPGSA,A,3,22,23,9,3,16,29,14,31,27,8,26,135,1.7,0.6,1.3*3E
2017-12-31 18:11:26 1514761886.342435: $GPZDA,231127.00,31,12,2017,00,00*67
2017-12-31 18:11:26 1514761886.342612: $GPGGA,231127,3946.9557,N,08404.9874,W,2,12,0.60,308.93,M,-33.324,M,,*77
2017-12-31 18:11:26 1514761886.342683: $GPRMC,231127,A,3946.9557,N,08404.9874,W,0.0000,0.000,311217,,*30
2017-12-31 18:11:26 1514761886.342749: $GPGSA,A,3,22,23,9,3,16,29,14,31,27,8,26,135,1.7,0.6,1.3*3E
2017-12-31 18:11:27 1514761887.684442: $GPGSV,3,1,12,22,21,213,40,23,55,306,46,09,21,312,40,03,31,234,43*74
2017-12-31 18:11:27 1514761887.684627: $GPGSV,3,2,12,16,82,187,43,29,05,030,24,14,14,133,34,31,28,076,44*7B
2017-12-31 18:11:27 1514761887.684756: $GPGSV,3,3,12,27,23,153,36,08,01,180,21,26,61,049,48,135,22,240,44*4C
2017-12-31 18:11:27 1514761887.797833: $GPZDA,231128.00,31,12,2017,00,00*68
2017-12-31 18:11:27 1514761887.797967: $GPGGA,231128,3946.9557,N,08404.9874,W,2,12,0.60,308.93,M,-33.324,M,,*78
2017-12-31 18:11:27 1514761887.798034: $GPRMC,231128,A,3946.9557,N,08404.9874,W,0.0000,0.000,311217,,*3F
2017-12-31 18:11:27 1514761887.798095: $GPGSA,A,3,22,23,9,3,16,29,14,31,27,8,26,135,1.7,0.6,1.3*3E
2017-12-31 18:11:28 1514761888.348703: $GPZDA,231129.00,31,12,2017,00,00*69
2017-12-31 18:11:28 1514761888.348889: $GPGGA,231129,3946.9557,N,08404.9874,W,2,12,0.60,308.93,M,-33.324,M,,*79
2017-12-31 18:11:28 1514761888.348957: $GPRMC,231129,A,3946.9557,N,08404.9874,W,0.0000,0.000,311217,,*3E
2017-12-31 18:11:28 1514761888.349020: $GPGSA,A,3,22,23,9,3,16,29,14,31,27,8,26,135,1.7,0.6,1.3*3E
2017-12-31 18:11:29 1514761889.348338: $GPZDA,231130.00,31,12,2017,00,00*61
2017-12-31 18:11:29 1514761889.348508: $GPGGA,231130,3946.9557,N,08404.9874,W,2,12,0.60,308.93,M,-33.324,M,,*71
2017-12-31 18:11:29 1514761889.348575: $GPRMC,231130,A,3946.9557,N,08404.9874,W,0.0000,0.000,311217,,*36
2017-12-31 18:11:29 1514761889.348641: $GPGSA,A,3,22,23,9,3,16,29,14,31,27,8,26,135,1.7,0.6,1.3*3E
