2017-12-31 18:09:51 1514761791.528912: {"class":"VERSION","release":"3.16","rev":"3.16-4","proto_major":3,"proto_minor":11}
2017-12-31 18:09:51 1514761791.529296: {"class":"DEVICES","devices":[{"class":"DEVICE","path":"/dev/ttyUSB0","driver":"SiRF","activated":"2017-12-31T23:09:51.234Z","flags":1,"native":1,"bps":4800,"parity":"N","stopbits":1,"cycle":1.00}]}
2017-12-31 18:09:51 1514761791.529399: {"class":"WATCH","enable":true,"json":false,"nmea":true,"raw":0,"scaled":false,"timing":false,"split24":false,"pps":false}
2017-12-31 18:09:51 1514761791.683982: $GPGSV,3,1,11,22,22,214,41,23,53,306,45,09,20,312,37,03,32,234,44*72
2017-12-31 18:09:51 1514761791.684121: $GPGSV,3,2,11,16,80,189,44,29,05,031,32,14,15,133,36,31,29,075,40*70
2017-12-31 18:09:51 1514761791.684185: $GPGSV,3,3,11,27,22,154,34,26,62,051,49,135,22,240,43*74
2017-12-31 18:09:51 1514761791.797686: $GPZDA,230952.00,31,12,2017,00,00*6C
2017-12-31 18:09:51 1514761791.797817: $GPGGA,230952,3946.9561,N,08404.9874,W,2,11,0.60,308.17,M,-33.324,M,,*76
2017-12-31 18:09:51 1514761791.797882: $GPRMC,230952,A,3946.9561,N,08404.9874,W,0.0000,0.000,311217,,*3E
2017-12-31 18:09:51 1514761791.797941: $GPGSA,A,3,22,23,9,3,16,29,14,31,27,26,135,,1.7,0.6,1.3*06
2017-12-31 18:09:52 1514761792.376044: $GPZDA,230953.00,31,12,2017,00,00*6D
2017-12-31 18:09:52 1514761792.376228: $GPGGA,230953,3946.9561,N,08404.9874,W,2,11,0.60,308.17,M,-33.324,M,,*77
2017-12-31 18:09:52 1514761792.376295: $GPRMC,230953,A,3946.9561,N,08404.9874,W,0.0000,0.000,311217,,*3F
2017-12-31 18:09:52 1514761792.376361: $GPGSA,A,3,22,23,9,3,16,29,14,31,27,26,135,,1.7,0.6,1.3*06
2017-12-31 18:09:53 1514761793.348213: $GPZDA,230954.00,31,12,2017,00,00*6A
2017-12-31 18:09:53 1514761793.348383: $GPGGA,230954,3946.9561,N,08404.9874,W,2,11,0.60,308.17,M,-33.324,M,,*70
2017-12-31 18:09:53 1514761793.348454: $GPRMC,230954,A,3946.9561,N,08404.9874,W,0.0000,0.000,311217,,*38
2017-12-31 18:09:53 1514761793.348515: $GPGSA,A,3,22,23,9,3,16,29,14,31,27,26,135,,1.7,0.6,1.3*06
2017-12-31 18:09:54 1514761794.684878: $GPGSV,3,1,11,22,22,214,41,23,53,306,45,09,20,312,38,03,32,234,44*7D
2017-12-31 18:09:54 1514761794.685063: $GPGSV,3,2,11,16,80,189,44,29,05,031,34,14,15,133,36,31,29,075,41*77
2017-12-31 18:09:54 1514761794.685128: $GPGSV,3,3,11,27,22,154,34,26,62,051,49,135,22,240,44*73
2017-12-31 18:09:54 1514761794.798682: $GPZDA,230955.00,31,12,2017,00,00*6B
2017-12-31 18:09:54 1514761794.798829: $GPGGA,230955,3946.9561,N,08404.9874,W,2,11,0.60,308.17,M,-33.324,M,,*71
2017-12-31 18:09:54 1514761794.798894: $GPRMC,230955,A,3946.9561,N,08404.9874,W,0.0000,0.000,311217,,*39
2017-12-31 18:09:54 1514761794.798955: $GPGSA,A,3,22,23,9,3,16,29,14,31,27,26,135,,1.7,0.6,1.3*06
2017-12-31 18:09:55 1514761795.423640: $GPZDA,230956.00,31,12,2017,00,00*68
2017-12-31 18:09:55 1514761795.423817: $GPGGA,230956,3946.9561,N,08404.9874,W,2,11,0.60,308.17,M,-33.324,M,,*72
2017-12-31 18:09:55 1514761795.423885: $GPRMC,230956,A,3946.9561,N,08404.9874,W,0.0000,0.000,311217,,*3A
2017-12-31 18:09:55 1514761795.423948: $GPGSA,A,3,22,23,9,3,16,29,14,31,27,26,135,,1.7,0.6,1.3*06
2017-12-31 18:09:56 1514761796.369504: $GPZDA,230957.00,31,12,2017,00,00*69
2017-12-31 18:09:56 1514761796.369663: $GPGGA,230957,3946.9561,N,08404.9874,W,2,11,0.60,308.17,M,-33.324,M,,*73
2017-12-31 18:09:56 1514761796.369732: $GPRMC,230957,A,3946.9561,N,08404.9874,W,0.0000,0.000,311217,,*3B
2017-12-31 18:09:56 1514761796.369794: $GPGSA,A,3,22,23,9,3,16,29,14,31,27,26,135,,1.7,0.6,1.3*06
2017-12-31 18:09:57 1514761797.683984: $GPGSV,3,1,11,22,22,214,42,23,53,306,45,09,20,312,38,03,32,234,43*79
2017-12-31 18:09:57 1514761797.684182: $GPGSV,3,2,11,16,80,189,44,29,05,031,34,14,15,133,36,31,29,075,41*77
2017-12-31 18:09:57 1514761797.684249: $GPGSV,3,3,11,27,22,154,34,26,62,051,49,135,22,240,43*74
2017-12-31 18:09:57 1514761797.797671: $GPZDA,230958.00,31,12,2017,00,00*66
2017-12-31 18:09:57 1514761797.797842: $GPGGA,230958,3946.9561,N,08404.9874,W,2,11,0.60,308.17,M,-33.324,M,,*7C
2017-12-31 18:09:57 1514761797.797909: $GPRMC,230958,A,3946.9561,N,08404.9874,W,0.0000,0.000,311217,,*34
2017-12-31 18:09:57 1514761797.798017: $GPGSA,A,3,22,23,9,3,16,29,14,31,27,26,135,,1.7,0.6,1.3*06
2017-12-31 18:09:58 1514761798.348551: $GPZDA,230959.00,31,12,2017,00,00*67
2017-12-31 18:09:58 1514761798.348707: $GPGGA,230959,3946.9561,N,08404.9874,W,2,11,0.60,308.17,M,-33.324,M,,*7D
2017-12-31 18:09:58 1514761798.348772: $GPRMC,230959,A,3946.9561,N,08404.9874,W,0.0000,0.000,311217,,*35
2017-12-31 18:09:58 1514761798.348834: $GPGSA,A,3,22,23,9,3,16,29,14,31,27,26,135,,1.7,0.6,1.3*06
2017-12-31 18:09:59 1514761799.376863: $GPZDA,231000.00,31,12,2017,00,00*63
2017-12-31 18:09:59 1514761799.377014: $GPGGA,231000,3946.9561,N,08404.9874,W,2,11,0.60,308.17,M,-33.324,M,,*79
2017-12-31 18:09:59 1514761799.377082: $GPRMC,231000,A,3946.9561,N,08404.9874,W,0.0000,0.000,311217,,*31
2017-12-31 18:09:59 1514761799.377209: $GPGSA,A,3,22,23,9,3,16,29,14,31,27,26,135,,1.7,0.6,1.3*06
2017-12-31 18:10:00 1514761800.683077: $GPGSV,3,1,11,22,22,214,42,23,53,306,45,09,20,312,36,03,32,234,44*70
2017-12-31 18:10:00 1514761800.683261: $GPGSV,3,2,11,16,80,189,44,29,05,031,27,14,15,133,36,31,29,075,41*75
2017-12-31 18:10:00 1514761800.683329: $GPGSV,3,3,11,27,22,154,34,26,62,051,49,135,22,240,45*72
2017-12-31 18:10:00 1514761800.796680: $GPZDA,231001.00,31,12,2017,00,00*62
2017-12-31 18:10:00 1514761800.796802: $GPGGA,231001,3946.9561,N,08404.9874,W,2,11,0.60,308.17,M,-33.324,M,,*78
2017-12-31 18:10:00 1514761800.796866: $GPRMC,231001,A,3946.9561,N,08404.9874,W,0.0000,0.000,311217,,*30
2017-12-31 18:10:00 1514761800.796928: $GPGSA,A,3,22,23,9,3,16,29,14,31,27,26,135,,1.7,0.6,1.3*06
2017-12-31 18:10:01 1514761801.377650: $GPZDA,231002.00,31,12,2017,00,00*61
2017-12-31 18:10:01 1514761801.377823: $GPGGA,231002,3946.9561,N,08404.9874,W,2,11,0.60,308.17,M,-33.324,M,,*7B
2017-12-31 18:10:01 1514761801.377890: $GPRMC,231002,A,3946.9561,N,08404.9874,W,0.0000,0.000,311217,,*33
2017-12-31 18:10:01 1514761801.377951: $GPGSA,A,3,22,23,9,3,16,29,14,31,27,26,135,,1.7,0.6,1.3*06
