2018-01-12 03:03:22 1515744202.704075: {"class":"VERSION","release":"3.16","rev":"3.16-4","proto_major":3,"proto_minor":11}
2018-01-12 03:03:22 1515744202.704477: {"class":"DEVICES","devices":[{"class":"DEVICE","path":"/dev/ttyUSB0","driver":"SiRF","subtype":"9\u0006GSD4e_4.1.2-P1_RPATCH.05-F-GPS-4R-1510281 11/03/2015 307","activated":"2018-01-12T08:03:22.312Z","flags":1,"native":1,"bps":4800,"parity":"N","stopbits":1,"cycle":1.00}]}
2018-01-12 03:03:22 1515744202.704592: {"class":"WATCH","enable":true,"json":false,"nmea":true,"raw":0,"scaled":false,"timing":false,"split24":false,"pps":false}
2018-01-12 03:03:22 1515744202.919290: $GPZDA,080323.60,12,01,2018,00,00*63
2018-01-12 03:03:22 1515744202.919463: $GPGGA,080323,3946.9680,N,08404.9763,W,1,11,1.00,305.12,M,-33.324,M,,*7A
2018-01-12 03:03:22 1515744202.919529: $GPRMC,080323,A,3946.9680,N,08404.9763,W,0.7070,48.986,120118,,*09
2018-01-12 03:03:22 1515744202.919590: $GPGSA,A,3,2,6,12,17,19,24,25,3,5,9,138,,2.4,1.0,2.1*3B
2018-01-12 03:03:22 1515744202.919647: $GPGBS,080323,11.98,M,14.47,M,47.88,M*00
2018-01-12 03:03:24 1515744204.047040: $GPZDA,080324.29,12,01,2018,00,00*69
2018-01-12 03:03:24 1515744204.047205: $GPGGA,080324,3946.9656,N,08404.9803,W,1,11,1.00,297.99,M,-33.324,M,,*76
2018-01-12 03:03:24 1515744204.047271: $GPRMC,080324,A,3946.9656,N,08404.9803,W,0.1867,180.000,120118,,*36
2018-01-12 03:03:24 1515744204.047332: $GPGSA,A,3,2,6,12,17,19,24,25,3,5,9,138,,2.4,1.0,2.1*3B
2018-01-12 03:03:25 1515744205.235897: $GPGSV,3,1,12,02,56,265,48,05,13,193,34,06,75,003,50,12,42,306,51*79
2018-01-12 03:03:25 1515744205.236085: $GPGSV,3,2,12,17,41,091,41,19,58,073,44,24,10,256,34,25,07,322,36*73
2018-01-12 03:03:25 1515744205.236152: $GPGSV,3,3,12,03,05,034,11,09,07,100,09,23,06,067,00,138,38,213,00*4A
2018-01-12 03:03:25 1515744205.348050: $GPZDA,080325.00,12,01,2018,00,00*63
2018-01-12 03:03:25 1515744205.348191: $GPGGA,080325,3946.9641,N,08404.9818,W,1,08,1.00,296.68,M,-33.324,M,,*7C
2018-01-12 03:03:25 1515744205.348255: $GPRMC,080325,A,3946.9641,N,08404.9818,W,0.1567,9.200,120118,,*34
2018-01-12 03:03:25 1515744205.348315: $GPGSA,A,3,2,5,6,12,17,19,24,25,,,,,2.4,1.0,2.1*0B
2018-01-12 03:03:25 1515744205.800157: $GPZDA,080326.00,12,01,2018,00,00*60
2018-01-12 03:03:25 1515744205.800327: $GPGGA,080326,3946.9623,N,08404.9844,W,1,08,0.80,289.59,M,-33.324,M,,*77
2018-01-12 03:03:25 1515744205.800393: $GPRMC,080326,A,3946.9623,N,08404.9844,W,0.1867,180.000,120118,,*35
2018-01-12 03:03:25 1515744205.800453: $GPGSA,A,3,2,5,6,12,17,19,24,25,,,,,2.4,0.8,2.1*02
2018-01-12 03:03:26 1515744206.411019: $GPZDA,080327.00,12,01,2018,00,00*61
2018-01-12 03:03:26 1515744206.411157: $GPGGA,080327,3946.9627,N,08404.9844,W,1,08,0.80,290.23,M,-33.324,M,,*77
2018-01-12 03:03:26 1515744206.411221: $GPRMC,080327,A,3946.9627,N,08404.9844,W,0.0000,0.000,120118,,*31
2018-01-12 03:03:26 1515744206.411281: $GPGSA,A,3,2,5,6,12,17,19,24,25,,,,,2.4,0.8,2.1*02
2018-01-12 03:03:27 1515744207.746259: $GPGSV,3,1,12,02,56,265,48,05,13,193,34,06,75,003,51,12,42,306,51*78
2018-01-12 03:03:27 1515744207.746435: $GPGSV,3,2,12,17,41,091,42,19,58,073,44,24,10,256,35,25,07,322,37*70
2018-01-12 03:03:27 1515744207.746501: $GPGSV,3,3,12,03,05,034,27,09,07,100,23,23,06,067,00,138,38,213,40*43
2018-01-12 03:03:27 1515744207.859674: $GPZDA,080328.00,12,01,2018,00,00*6E
2018-01-12 03:03:27 1515744207.859811: $GPGGA,080328,3946.9627,N,08404.9844,W,1,11,0.80,290.23,M,-33.324,M,,*70
2018-01-12 03:03:27 1515744207.859876: $GPRMC,080328,A,3946.9627,N,08404.9844,W,0.0000,0.000,120118,,*3E
2018-01-12 03:03:27 1515744207.859935: $GPGSA,A,3,2,5,6,12,17,19,24,25,3,9,138,,2.4,0.8,2.1*32
2018-01-12 03:03:28 1515744208.410490: $GPZDA,080329.00,12,01,2018,00,00*6F
2018-01-12 03:03:28 1515744208.410645: $GPGGA,080329,3946.9627,N,08404.9844,W,1,11,0.80,290.23,M,-33.324,M,,*71
2018-01-12 03:03:28 1515744208.410710: $GPRMC,080329,A,3946.9627,N,08404.9844,W,0.0000,0.000,120118,,*3F
2018-01-12 03:03:28 1515744208.410771: $GPGSA,A,3,2,5,6,12,17,19,24,25,3,9,138,,2.4,0.8,2.1*32
