2018-01-12 02:44:51 1515743091.014441: {"class":"VERSION","release":"3.16","rev":"3.16-4","proto_major":3,"proto_minor":11}
2018-01-12 02:44:51 1515743091.014831: {"class":"DEVICES","devices":[{"class":"DEVICE","path":"/dev/ttyUSB0","driver":"SiRF","subtype":"9\u0006GSD4e_4.1.2-P1_RPATCH.05-F-GPS-4R-1510281 11/03/2015 307","activated":"2018-01-12T07:44:50.529Z","flags":1,"native":1,"bps":4800,"parity":"N","stopbits":1,"cycle":1.00}]}
2018-01-12 02:44:51 1515743091.014965: {"class":"WATCH","enable":true,"json":false,"nmea":true,"raw":0,"scaled":false,"timing":false,"split24":false,"pps":false}
2018-01-12 02:44:51 1515743091.733108: $GPGSV,3,1,12,02,50,255,44,03,11,037,42,06,79,324,51,12,35,312,51*74
2018-01-12 02:44:51 1515743091.733341: $GPGSV,3,2,12,17,47,082,43,19,63,057,42,24,15,264,39,28,10,151,27*79
2018-01-12 02:44:51 1515743091.733406: $GPGSV,3,3,12,05,05,195,31,04,21,243,00,23,04,073,15,138,38,213,38*48
2018-01-12 02:44:51 1515743091.838840: $GPZDA,074452.00,12,01,2018,00,00*6F
2018-01-12 02:44:51 1515743091.839016: $GPGGA,074452,3946.9635,N,08404.9816,W,2,11,0.80,318.15,M,-33.324,M,,*72
2018-01-12 02:44:51 1515743091.839082: $GPRMC,074452,A,3946.9635,N,08404.9816,W,0.0000,0.000,120118,,*3B
2018-01-12 02:44:51 1515743091.839165: $GPGSA,A,3,2,3,6,12,17,19,24,28,5,23,138,,2.4,0.8,2.1*07
2018-01-12 02:44:52 1515743092.390971: $GPZDA,074453.00,12,01,2018,00,00*6E
2018-01-12 02:44:52 1515743092.391180: $GPGGA,074453,3946.9635,N,08404.9816,W,2,11,0.80,318.15,M,-33.324,M,,*73
2018-01-12 02:44:52 1515743092.391247: $GPRMC,074453,A,3946.9635,N,08404.9816,W,0.0000,0.000,120118,,*3A
2018-01-12 02:44:52 1515743092.391326: $GPGSA,A,3,2,3,6,12,17,19,24,28,5,23,138,,2.4,0.8,2.1*07
2018-01-12 02:44:53 1515743093.396758: $GPZDA,074454.00,12,01,2018,00,00*69
2018-01-12 02:44:53 1515743093.396909: $GPGGA,074454,3946.9635,N,08404.9816,W,2,11,0.80,318.15,M,-33.324,M,,*74
2018-01-12 02:44:53 1515743093.396976: $GPRMC,074454,A,3946.9635,N,08404.9816,W,0.0000,0.000,120118,,*3D
2018-01-12 02:44:53 1515743093.397038: $GPGSA,A,3,2,3,6,12,17,19,24,28,5,23,138,,2.4,0.8,2.1*07
2018-01-12 02:44:53 1515743093.397096: $GPGBS,074454,3.00,M,3.62,M,11.97,M*02
2018-01-12 02:44:54 1515743094.726958: $GPGSV,3,1,12,02,50,255,44,03,11,037,42,06,79,324,51,12,35,312,50*75
2018-01-12 02:44:54 1515743094.727133: $GPGSV,3,2,12,17,47,082,43,19,63,057,41,24,15,264,38,28,10,151,26*7A
2018-01-12 02:44:54 1515743094.727199: $GPGSV,3,3,12,05,05,195,19,09,03,106,14,23,04,073,09,138,38,213,38*45
2018-01-12 02:44:54 1515743094.840755: $GPZDA,074455.00,12,01,2018,00,00*68
2018-01-12 02:44:54 1515743094.840924: $GPGGA,074455,3946.9635,N,08404.9816,W,2,11,0.80,318.15,M,-33.324,M,,*75
2018-01-12 02:44:54 1515743094.840990: $GPRMC,074455,A,3946.9635,N,08404.9816,W,0.0000,0.000,120118,,*3C
2018-01-12 02:44:54 1515743094.841051: $GPGSA,A,3,2,3,6,12,17,19,24,28,9,23,138,,2.4,0.8,2.1*0B
2018-01-12 02:44:55 1515743095.389958: $GPZDA,074456.00,12,01,2018,00,00*6B
2018-01-12 02:44:55 1515743095.390161: $GPGGA,074456,3946.9635,N,08404.9816,W,2,11,0.80,318.15,M,-33.324,M,,*76
2018-01-12 02:44:55 1515743095.390232: $GPRMC,074456,A,3946.9635,N,08404.9816,W,0.0000,0.000,120118,,*3F
2018-01-12 02:44:55 1515743095.390350: $GPGSA,A,3,2,3,6,12,17,19,24,28,9,23,138,,2.4,0.8,2.1*0B
2018-01-12 02:44:56 1515743096.389679: $GPZDA,074457.00,12,01,2018,00,00*6A
2018-01-12 02:44:56 1515743096.389854: $GPGGA,074457,3946.9639,N,08404.9816,W,2,11,0.80,318.79,M,-33.324,M,,*71
2018-01-12 02:44:56 1515743096.389921: $GPRMC,074457,A,3946.9639,N,08404.9816,W,0.0000,0.000,120118,,*32
2018-01-12 02:44:56 1515743096.389983: $GPGSA,A,3,2,3,6,12,17,19,24,28,9,23,138,,2.4,0.8,2.1*0B
2018-01-12 02:44:57 1515743097.723180: $GPGSV,3,1,12,02,50,255,43,03,11,037,41,06,79,324,51,12,35,312,50*71
2018-01-12 02:44:57 1515743097.723392: $GPGSV,3,2,12,17,47,082,42,19,63,057,42,24,15,264,38,28,10,151,26*78
2018-01-12 02:44:57 1515743097.723458: $GPGSV,3,3,12,05,05,195,00,09,03,106,16,04,21,243,00,138,38,213,40*4A
2018-01-12 02:44:57 1515743097.836197: $GPZDA,074458.00,12,01,2018,00,00*65
2018-01-12 02:44:57 1515743097.836438: $GPGGA,074458,3946.9639,N,08404.9816,W,2,10,0.80,318.79,M,-33.324,M,,*7F
2018-01-12 02:44:57 1515743097.836510: $GPRMC,074458,A,3946.9639,N,08404.9816,W,0.0000,0.000,120118,,*3D
2018-01-12 02:44:57 1515743097.836571: $GPGSA,A,3,2,3,6,12,17,19,24,28,9,138,,,2.4,0.8,2.1*0A
2018-01-12 02:44:58 1515743098.393295: $GPZDA,074459.00,12,01,2018,00,00*64
2018-01-12 02:44:58 1515743098.393471: $GPGGA,074459,3946.9639,N,08404.9816,W,2,10,0.80,318.79,M,-33.324,M,,*7E
2018-01-12 02:44:58 1515743098.393538: $GPRMC,074459,A,3946.9639,N,08404.9816,W,0.0000,0.000,120118,,*3C
2018-01-12 02:44:58 1515743098.393600: $GPGSA,A,3,2,3,6,12,17,19,24,28,9,138,,,2.4,0.8,2.1*0A
2018-01-12 02:44:59 1515743099.387443: $GPZDA,074500.00,12,01,2018,00,00*69
2018-01-12 02:44:59 1515743099.387601: $GPGGA,074500,3946.9639,N,08404.9816,W,2,10,0.80,318.79,M,-33.324,M,,*73
2018-01-12 02:44:59 1515743099.387667: $GPRMC,074500,A,3946.9639,N,08404.9816,W,0.0000,0.000,120118,,*31
2018-01-12 02:44:59 1515743099.387745: $GPGSA,A,3,2,3,6,12,17,19,24,28,9,138,,,2.4,0.8,2.1*0A
2018-01-12 02:45:00 1515743100.725857: $GPGSV,3,1,11,02,50,255,43,03,11,037,41,06,79,324,51,12,35,312,50*72
2018-01-12 02:45:00 1515743100.726033: $GPGSV,3,2,11,17,47,082,42,19,63,057,42,24,15,264,39,28,10,151,25*79
2018-01-12 02:45:00 1515743100.726118: $GPGSV,3,3,11,09,03,106,17,05,05,195,00,138,38,213,35*78
2018-01-12 02:45:00 1515743100.839578: $GPZDA,074501.00,12,01,2018,00,00*68
2018-01-12 02:45:00 1515743100.839746: $GPGGA,074501,3946.9635,N,08404.9816,W,2,10,0.80,318.15,M,-33.324,M,,*74
2018-01-12 02:45:00 1515743100.839813: $GPRMC,074501,A,3946.9635,N,08404.9816,W,0.0000,0.000,120118,,*3C
2018-01-12 02:45:00 1515743100.839874: $GPGSA,A,3,2,3,6,12,17,19,24,28,9,138,,,2.4,0.8,2.1*0A
2018-01-12 02:45:01 1515743101.388748: $GPZDA,074502.00,12,01,2018,00,00*6B
2018-01-12 02:45:01 1515743101.388922: $GPGGA,074502,3946.9635,N,08404.9816,W,2,10,0.80,318.15,M,-33.324,M,,*77
2018-01-12 02:45:01 1515743101.388988: $GPRMC,074502,A,3946.9635,N,08404.9816,W,0.0000,0.000,120118,,*3F
2018-01-12 02:45:01 1515743101.389048: $GPGSA,A,3,2,3,6,12,17,19,24,28,9,138,,,2.4,0.8,2.1*0A
2018-01-12 02:45:02 1515743102.396171: $GPZDA,074503.00,12,01,2018,00,00*6A
2018-01-12 02:45:02 1515743102.396344: $GPGGA,074503,3946.9635,N,08404.9816,W,2,10,0.80,318.15,M,-33.324,M,,*76
2018-01-12 02:45:02 1515743102.396410: $GPRMC,074503,A,3946.9635,N,08404.9816,W,0.0000,0.000,120118,,*3E
2018-01-12 02:45:02 1515743102.396470: $GPGSA,A,3,2,3,6,12,17,19,24,28,9,138,,,2.4,0.8,2.1*0A
2018-01-12 02:45:03 1515743103.726640: $GPGSV,3,1,11,02,50,255,43,03,11,037,40,06,79,324,51,12,35,312,50*73
2018-01-12 02:45:03 1515743103.726826: $GPGSV,3,2,11,17,47,082,42,19,63,057,42,24,15,264,39,28,10,151,25*79
2018-01-12 02:45:03 1515743103.726891: $GPGSV,3,3,11,09,03,106,18,05,05,195,05,138,38,213,38*7F
2018-01-12 02:45:03 1515743103.840000: $GPZDA,074504.00,12,01,2018,00,00*6D
2018-01-12 02:45:03 1515743103.840186: $GPGGA,074504,3946.9635,N,08404.9816,W,2,10,0.80,318.15,M,-33.324,M,,*71
2018-01-12 02:45:03 1515743103.840270: $GPRMC,074504,A,3946.9635,N,08404.9816,W,0.0000,0.000,120118,,*39
2018-01-12 02:45:03 1515743103.840348: $GPGSA,A,3,2,3,6,12,17,19,24,28,9,138,,,2.4,0.8,2.1*0A
2018-01-12 02:45:04 1515743104.465437: $GPZDA,074505.00,12,01,2018,00,00*6C
2018-01-12 02:45:04 1515743104.465609: $GPGGA,074505,3946.9635,N,08404.9816,W,2,10,0.80,318.15,M,-33.324,M,,*70
2018-01-12 02:45:04 1515743104.465674: $GPRMC,074505,A,3946.9635,N,08404.9816,W,0.0000,0.000,120118,,*38
2018-01-12 02:45:04 1515743104.465734: $GPGSA,A,3,2,3,6,12,17,19,24,28,9,138,,,2.4,0.8,2.1*0A
2018-01-12 02:45:05 1515743105.391212: $GPZDA,074506.00,12,01,2018,00,00*6F
2018-01-12 02:45:05 1515743105.391381: $GPGGA,074506,3946.9635,N,08404.9816,W,2,10,0.80,318.15,M,-33.324,M,,*73
2018-01-12 02:45:05 1515743105.391447: $GPRMC,074506,A,3946.9635,N,08404.9816,W,0.0000,0.000,120118,,*3B
2018-01-12 02:45:05 1515743105.391507: $GPGSA,A,3,2,3,6,12,17,19,24,28,9,138,,,2.4,0.8,2.1*0A
2018-01-12 02:45:06 1515743106.731901: $GPGSV,3,1,11,02,50,255,43,03,11,037,40,06,79,324,51,12,35,312,50*73
2018-01-12 02:45:07 1515743107.118323: $GPGSV,3,2,11,17,47,082,42,19,63,057,42,24,15,264,39,28,10,151,24*78
2018-01-12 02:45:07 1515743107.118490: $GPGSV,3,3,11,09,03,106,19,05,05,195,26,138,38,213,39*7E
2018-01-12 02:45:07 1515743107.118614: $GPZDA,074507.00,12,01,2018,00,00*6E
2018-01-12 02:45:07 1515743107.118696: $GPGGA,074507,3946.9635,N,08404.9816,W,2,11,0.80,318.15,M,-33.324,M,,*73
2018-01-12 02:45:07 1515743107.118759: $GPRMC,074507,A,3946.9635,N,08404.9816,W,0.0000,0.000,120118,,*3A
2018-01-12 02:45:07 1515743107.118818: $GPGSA,A,3,2,3,6,12,17,19,24,28,9,5,138,,2.4,0.8,2.1*3F
2018-01-12 02:45:07 1515743107.397774: $GPZDA,074508.00,12,01,2018,00,00*61
2018-01-12 02:45:07 1515743107.397947: $GPGGA,074508,3946.9635,N,08404.9816,W,2,11,0.80,318.15,M,-33.324,M,,*7C
2018-01-12 02:45:07 1515743107.398014: $GPRMC,074508,A,3946.9635,N,08404.9816,W,0.0000,0.000,120118,,*35
2018-01-12 02:45:07 1515743107.398075: $GPGSA,A,3,2,3,6,12,17,19,24,28,9,5,138,,2.4,0.8,2.1*3F
2018-01-12 02:45:08 1515743108.384977: $GPZDA,074509.00,12,01,2018,00,00*60
2018-01-12 02:45:08 1515743108.385151: $GPGGA,074509,3946.9635,N,08404.9816,W,2,11,0.80,318.15,M,-33.324,M,,*7D
2018-01-12 02:45:08 1515743108.385217: $GPRMC,074509,A,3946.9635,N,08404.9816,W,0.0000,0.000,120118,,*34
2018-01-12 02:45:08 1515743108.385279: $GPGSA,A,3,2,3,6,12,17,19,24,28,9,5,138,,2.4,0.8,2.1*3F
2018-01-12 02:45:09 1515743109.731021: $GPGSV,3,1,11,02,50,255,43,03,11,037,40,06,79,324,51,12,35,312,50*73
2018-01-12 02:45:09 1515743109.731208: $GPGSV,3,2,11,17,47,082,42,19,63,057,42,24,15,264,39,28,10,151,24*78
2018-01-12 02:45:09 1515743109.731275: $GPGSV,3,3,11,09,03,106,20,05,05,195,26,138,38,213,38*75
2018-01-12 02:45:09 1515743109.844425: $GPZDA,074510.00,12,01,2018,00,00*68
2018-01-12 02:45:09 1515743109.844559: $GPGGA,074510,3946.9635,N,08404.9816,W,2,11,0.80,318.15,M,-33.324,M,,*75
2018-01-12 02:45:09 1515743109.844625: $GPRMC,074510,A,3946.9635,N,08404.9816,W,0.0000,0.000,120118,,*3C
2018-01-12 02:45:09 1515743109.844685: $GPGSA,A,3,2,3,6,12,17,19,24,28,9,5,138,,2.4,0.8,2.1*3F
2018-01-12 02:45:10 1515743110.392816: $GPZDA,074511.00,12,01,2018,00,00*69
2018-01-12 02:45:10 1515743110.392981: $GPGGA,074511,3946.9635,N,08404.9816,W,2,11,0.80,318.15,M,-33.324,M,,*74
2018-01-12 02:45:10 1515743110.393047: $GPRMC,074511,A,3946.9635,N,08404.9816,W,0.0000,0.000,120118,,*3D
2018-01-12 02:45:10 1515743110.393108: $GPGSA,A,3,2,3,6,12,17,19,24,28,9,5,138,,2.4,0.8,2.1*3F
