2017-11-15 19:23:25 1510791805.453663: {"class":"VERSION","release":"3.17","rev":"3.17","proto_major":3,"proto_minor":12}
2017-11-15 19:23:25 1510791805.454094: {"class":"DEVICES","devices":[{"class":"DEVICE","path":"/dev/ttyUSB0","driver":"SiRF","subtype":"9\u0006GSD4e_4.1.2-P1_RPATCH.05-F-GPS-4R-1510281 11/03/2015 307","activated":"2017-11-16T00:23:25.447Z","flags":1,"native":1,"bps":4800,"parity":"N","stopbits":1,"cycle":1.00}]}
2017-11-15 19:23:25 1510791805.454207: {"class":"WATCH","enable":true,"json":false,"nmea":true,"raw":0,"scaled":false,"timing":false,"split24":false,"pps":false}
2017-11-15 19:23:26 1510791806.330744: $GPZDA,002325.00,16,11,2017,00,00*63
2017-11-15 19:23:26 1510791806.330923: $GPGGA,002325,3946.9584,N,08404.9385,W,1,06,1.40,295.07,M,-33.324,M,,*73
2017-11-15 19:23:26 1510791806.330984: $GPRMC,002325,A,3946.9584,N,08404.9385,W,0.4844,93.795,161117,,*02
2017-11-15 19:23:26 1510791806.331040: $GPGSA,A,3,32,14,26,31,16,3,,,,,,,3.4,1.4,2.9*0D
2017-11-15 19:23:27 1510791807.681504: $GPGSV,3,1,11,32,39,105,22,14,58,087,19,22,50,276,04,26,49,174,26*76
2017-11-15 19:23:27 1510791807.681653: $GPGSV,3,2,11,31,71,018,15,29,09,075,06,16,18,190,11,03,37,303,19*7E
2017-11-15 19:23:27 1510791807.681712: $GPGSV,3,3,11,01,08,255,09,25,20,042,00,23,08,298,00*42
2017-11-15 19:23:27 1510791807.794870: $GPZDA,002326.00,16,11,2017,00,00*60
2017-11-15 19:23:27 1510791807.795065: $GPGGA,002326,3946.9584,N,08404.9385,W,1,06,1.40,295.07,M,-33.324,M,,*70
2017-11-15 19:23:27 1510791807.795127: $GPRMC,002326,A,3946.9584,N,08404.9385,W,0.8011,119.090,161117,,*34
2017-11-15 19:23:27 1510791807.795183: $GPGSA,A,3,32,14,26,31,16,3,,,,,,,3.4,1.4,2.9*0D
2017-11-15 19:23:28 1510791808.330741: $GPZDA,002327.00,16,11,2017,00,00*61
2017-11-15 19:23:28 1510791808.330942: $GPGGA,002327,3946.9584,N,08404.9385,W,1,06,1.40,295.07,M,-33.324,M,,*71
2017-11-15 19:23:28 1510791808.331005: $GPRMC,002327,A,3946.9584,N,08404.9385,W,0.9988,104.546,161117,,*3F
2017-11-15 19:23:28 1510791808.331077: $GPGSA,A,3,32,14,26,31,16,3,,,,,,,3.4,1.4,2.9*0D
2017-11-15 19:23:29 1510791809.332029: $GPZDA,002328.00,16,11,2017,00,00*6E
2017-11-15 19:23:29 1510791809.332206: $GPGGA,002328,3946.9584,N,08404.9378,W,1,06,1.40,295.15,M,-33.324,M,,*7F
2017-11-15 19:23:29 1510791809.332266: $GPRMC,002328,A,3946.9584,N,08404.9378,W,0.8011,119.090,161117,,*38
2017-11-15 19:23:29 1510791809.332322: $GPGSA,A,3,32,14,26,31,16,3,,,,,,,3.4,1.4,2.9*0D
2017-11-15 19:23:30 1510791810.666135: $GPGSV,3,1,11,32,39,105,22,14,58,087,19,22,50,276,04,26,49,174,26*76
2017-11-15 19:23:30 1510791810.666308: $GPGSV,3,2,11,31,71,018,16,29,09,075,07,16,18,190,11,03,37,303,19*7C
2017-11-15 19:23:30 1510791810.666368: $GPGSV,3,3,11,01,08,255,10,25,20,042,00,23,08,298,00*4A
2017-11-15 19:23:30 1510791810.779550: $GPZDA,002329.00,16,11,2017,00,00*6F
2017-11-15 19:23:30 1510791810.779719: $GPGGA,002329,3946.9584,N,08404.9378,W,1,07,1.40,295.15,M,-33.324,M,,*7F
2017-11-15 19:23:30 1510791810.779782: $GPRMC,002329,A,3946.9584,N,08404.9378,W,0.8054,68.645,161117,,*01
2017-11-15 19:23:30 1510791810.779839: $GPGSA,A,3,32,14,26,31,29,16,3,,,,,,3.4,1.4,2.9*06
2017-11-15 19:23:31 1510791811.577220: $GPZDA,002330.00,16,11,2017,00,00*67
2017-11-15 19:23:31 1510791811.577382: $GPGGA,002330,3946.9584,N,08404.9378,W,1,07,1.40,295.15,M,-33.324,M,,*77
2017-11-15 19:23:31 1510791811.577442: $GPRMC,002330,A,3946.9584,N,08404.9378,W,0.4207,39.347,161117,,*02
2017-11-15 19:23:31 1510791811.577498: $GPGSA,A,3,32,14,26,31,29,16,3,,,,,,3.4,1.4,2.9*06
2017-11-15 19:23:31 1510791811.577549: $GPGBS,002330,13.59,M,20.35,M,67.34,M*00
2017-11-15 19:23:32 1510791812.347491: $GPZDA,002331.00,16,11,2017,00,00*66
2017-11-15 19:23:32 1510791812.347758: $GPGGA,002331,3946.9592,N,08404.9385,W,1,07,1.00,294.94,M,-33.324,M,,*7F
2017-11-15 19:23:32 1510791812.347850: $GPRMC,002331,A,3946.9592,N,08404.9385,W,0.3423,4.197,161117,,*30
2017-11-15 19:23:32 1510791812.347940: $GPGSA,A,3,32,14,26,31,29,16,3,,,,,,3.4,1.0,2.9*02
2017-11-15 19:23:32 1510791812.348015: $GPGBS,002331,13.59,M,20.35,M,67.34,M*01
2017-11-15 19:23:33 1510791813.682096: $GPGSV,3,1,11,32,38,105,22,14,57,088,19,22,50,274,04,26,50,174,26*7D
2017-11-15 19:23:33 1510791813.682266: $GPGSV,3,2,11,31,70,021,16,29,10,073,10,16,20,190,12,03,38,301,20*70
2017-11-15 19:23:33 1510791813.682326: $GPGSV,3,3,11,01,07,255,10,25,19,040,00,23,09,300,00*4C
2017-11-15 19:23:33 1510791813.795449: $GPZDA,002332.00,16,11,2017,00,00*65
2017-11-15 19:23:33 1510791813.795610: $GPGGA,002332,3946.9592,N,08404.9385,W,1,07,1.00,294.94,M,-33.324,M,,*7C
2017-11-15 19:23:33 1510791813.795671: $GPRMC,002332,A,3946.9592,N,08404.9385,W,0.4179,328.779,161117,,*35
2017-11-15 19:23:33 1510791813.795727: $GPGSA,A,3,32,14,26,31,29,16,3,,,,,,3.4,1.0,2.9*02
2017-11-15 19:23:34 1510791814.346354: $GPZDA,002333.00,16,11,2017,00,00*64
2017-11-15 19:23:34 1510791814.346516: $GPGGA,002333,3946.9596,N,08404.9385,W,1,07,1.00,295.58,M,-33.324,M,,*78
2017-11-15 19:23:34 1510791814.346577: $GPRMC,002333,A,3946.9596,N,08404.9385,W,0.4179,328.779,161117,,*30
2017-11-15 19:23:34 1510791814.346633: $GPGSA,A,3,32,14,26,31,29,16,3,,,,,,3.4,1.0,2.9*02
2017-11-15 19:23:35 1510791815.329696: $GPZDA,002334.00,16,11,2017,00,00*63
2017-11-15 19:23:35 1510791815.329897: $GPGGA,002334,3946.9597,N,08404.9392,W,1,07,1.00,295.50,M,-33.324,M,,*70
2017-11-15 19:23:35 1510791815.329960: $GPRMC,002334,A,3946.9597,N,08404.9392,W,0.4179,328.779,161117,,*30
2017-11-15 19:23:35 1510791815.330043: $GPGSA,A,3,32,14,26,31,29,16,3,,,,,,3.4,1.0,2.9*02
