2017-12-29 15:00:32 1514577632.281935: {"class":"VERSION","release":"3.16","rev":"3.16-4","proto_major":3,"proto_minor":11}
2017-12-29 15:00:32 1514577632.282343: {"class":"DEVICES","devices":[{"class":"DEVICE","path":"/dev/ttyUSB0","driver":"SiRF","subtype":"9\u0006GSD4e_4.1.2-P1_RPATCH.05-F-GPS-4R-1510281 11/03/2015 307","activated":"2017-12-29T20:00:32.225Z","flags":1,"native":1,"bps":4800,"parity":"N","stopbits":1,"cycle":1.00}]}
2017-12-29 15:00:32 1514577632.282457: {"class":"WATCH","enable":true,"json":false,"nmea":true,"raw":0,"scaled":false,"timing":false,"split24":false,"pps":false}
2017-12-29 15:00:32 1514577632.403005: $GPZDA,200033.00,29,12,2017,00,00*68
2017-12-29 15:00:32 1514577632.403148: $GPGGA,200033,3946.9586,N,08404.9845,W,2,12,0.80,299.48,M,-33.324,M,,*7E
2017-12-29 15:00:32 1514577632.403213: $GPRMC,200033,A,3946.9586,N,08404.9845,W,0.0000,0.000,291217,,*31
2017-12-29 15:00:32 1514577632.403273: $GPGSA,A,3,1,3,10,11,12,14,22,25,31,32,18,138,1.7,0.8,1.3*0C
2017-12-29 15:00:33 1514577633.738707: $GPGSV,3,1,12,01,22,289,39,03,10,316,38,10,36,153,49,11,04,273,39*7B
2017-12-29 15:00:33 1514577633.738866: $GPGSV,3,2,12,12,17,040,44,14,70,354,43,22,29,310,40,25,41,075,50*75
2017-12-29 15:00:33 1514577633.738932: $GPGSV,3,3,12,31,69,240,48,32,63,057,51,18,07,147,22,138,38,213,44*42
2017-12-29 15:00:33 1514577633.852110: $GPZDA,200034.00,29,12,2017,00,00*6F
2017-12-29 15:00:33 1514577633.852228: $GPGGA,200034,3946.9582,N,08404.9846,W,2,12,0.80,300.25,M,-33.324,M,,*74
2017-12-29 15:00:33 1514577633.852292: $GPRMC,200034,A,3946.9582,N,08404.9846,W,0.0000,0.000,291217,,*31
2017-12-29 15:00:33 1514577633.852351: $GPGSA,A,3,1,3,10,11,12,14,22,25,31,32,18,138,1.7,0.8,1.3*0C
2017-12-29 15:00:34 1514577634.477466: $GPZDA,200035.00,29,12,2017,00,00*6E
2017-12-29 15:00:34 1514577634.477627: $GPGGA,200035,3946.9582,N,08404.9846,W,2,12,0.80,300.25,M,-33.324,M,,*75
2017-12-29 15:00:34 1514577634.477694: $GPRMC,200035,A,3946.9582,N,08404.9846,W,0.0000,0.000,291217,,*30
2017-12-29 15:00:34 1514577634.477755: $GPGSA,A,3,1,3,10,11,12,14,22,25,31,32,18,138,1.7,0.8,1.3*0C
2017-12-29 15:00:35 1514577635.403332: $GPZDA,200036.00,29,12,2017,00,00*6D
2017-12-29 15:00:35 1514577635.403486: $GPGGA,200036,3946.9586,N,08404.9845,W,2,12,0.80,299.48,M,-33.324,M,,*7B
2017-12-29 15:00:35 1514577635.403550: $GPRMC,200036,A,3946.9586,N,08404.9845,W,0.0000,0.000,291217,,*34
2017-12-29 15:00:35 1514577635.403610: $GPGSA,A,3,1,3,10,11,12,14,22,25,31,32,18,138,1.7,0.8,1.3*0C
2017-12-29 15:00:36 1514577636.736566: $GPGSV,3,1,12,01,22,289,38,03,10,316,37,10,36,153,48,11,04,273,38*75
2017-12-29 15:00:36 1514577636.736711: $GPGSV,3,2,12,12,17,040,43,14,70,354,44,22,29,310,40,25,41,075,50*75
2017-12-29 15:00:36 1514577636.736774: $GPGSV,3,3,12,31,69,240,47,32,63,057,50,18,07,147,22,138,38,213,44*4C
2017-12-29 15:00:36 1514577636.849901: $GPZDA,200037.00,29,12,2017,00,00*6C
2017-12-29 15:00:36 1514577636.850020: $GPGGA,200037,3946.9585,N,08404.9838,W,2,12,0.80,298.16,M,-33.324,M,,*79
2017-12-29 15:00:36 1514577636.850082: $GPRMC,200037,A,3946.9585,N,08404.9838,W,0.0000,0.000,291217,,*3C
2017-12-29 15:00:36 1514577636.850143: $GPGSA,A,3,1,3,10,11,12,14,22,25,31,32,18,138,1.7,0.8,1.3*0C
2017-12-29 15:00:37 1514577637.401111: $GPZDA,200038.00,29,12,2017,00,00*63
2017-12-29 15:00:37 1514577637.401274: $GPGGA,200038,3946.9585,N,08404.9838,W,2,12,0.80,298.16,M,-33.324,M,,*76
2017-12-29 15:00:37 1514577637.401361: $GPRMC,200038,A,3946.9585,N,08404.9838,W,0.0000,0.000,291217,,*33
2017-12-29 15:00:37 1514577637.401424: $GPGSA,A,3,1,3,10,11,12,14,22,25,31,32,18,138,1.7,0.8,1.3*0C
2017-12-29 15:00:38 1514577638.401874: $GPZDA,200039.00,29,12,2017,00,00*62
2017-12-29 15:00:38 1514577638.402026: $GPGGA,200039,3946.9585,N,08404.9838,W,2,12,0.80,298.16,M,-33.324,M,,*77
2017-12-29 15:00:38 1514577638.402089: $GPRMC,200039,A,3946.9585,N,08404.9838,W,0.0000,0.000,291217,,*32
2017-12-29 15:00:38 1514577638.402149: $GPGSA,A,3,1,3,10,11,12,14,22,25,31,32,18,138,1.7,0.8,1.3*0C
2017-12-29 15:00:38 1514577638.402208: $GPGBS,200039,2.73,M,2.59,M,7.72,M*3C
2017-12-29 15:00:39 1514577639.738047: $GPGSV,3,1,12,01,22,289,40,03,10,316,37,10,36,153,48,11,04,273,37*75
2017-12-29 15:00:39 1514577639.738195: $GPGSV,3,2,12,12,17,040,43,14,70,354,43,22,29,310,40,25,41,075,50*72
2017-12-29 15:00:39 1514577639.738260: $GPGSV,3,3,12,31,69,240,46,32,63,057,50,18,07,147,23,138,38,213,45*4D
2017-12-29 15:00:39 1514577639.851693: $GPZDA,200040.00,29,12,2017,00,00*6C
2017-12-29 15:00:39 1514577639.851812: $GPGGA,200040,3946.9585,N,08404.9838,W,2,12,0.80,298.16,M,-33.324,M,,*79
2017-12-29 15:00:39 1514577639.851875: $GPRMC,200040,A,3946.9585,N,08404.9838,W,0.0000,0.000,291217,,*3C
2017-12-29 15:00:39 1514577639.851934: $GPGSA,A,3,1,3,10,11,12,14,22,25,31,32,18,138,1.7,0.8,1.3*0C
2017-12-29 15:00:40 1514577640.400155: $GPZDA,200041.00,29,12,2017,00,00*6D
2017-12-29 15:00:40 1514577640.400305: $GPGGA,200041,3946.9585,N,08404.9838,W,2,12,0.80,298.16,M,-33.324,M,,*78
2017-12-29 15:00:40 1514577640.400369: $GPRMC,200041,A,3946.9585,N,08404.9838,W,0.0000,0.000,291217,,*3D
2017-12-29 15:00:40 1514577640.400428: $GPGSA,A,3,1,3,10,11,12,14,22,25,31,32,18,138,1.7,0.8,1.3*0C
2017-12-29 15:00:41 1514577641.410662: $GPZDA,200042.00,29,12,2017,00,00*6E
2017-12-29 15:00:41 1514577641.410818: $GPGGA,200042,3946.9585,N,08404.9838,W,2,12,0.80,298.16,M,-33.324,M,,*7B
2017-12-29 15:00:41 1514577641.410883: $GPRMC,200042,A,3946.9585,N,08404.9838,W,0.0000,0.000,291217,,*3E
2017-12-29 15:00:41 1514577641.410943: $GPGSA,A,3,1,3,10,11,12,14,22,25,31,32,18,138,1.7,0.8,1.3*0C
