2017-11-15 19:06:55 1510790815.405529: {"class":"VERSION","release":"3.17","rev":"3.17","proto_major":3,"proto_minor":12}
2017-11-15 19:06:55 1510790815.406016: {"class":"DEVICES","devices":[{"class":"DEVICE","path":"/dev/ttyUSB0","driver":"SiRF","subtype":"9\u0006GSD4e_4.1.2-P1_RPATCH.05-F-GPS-4R-1510281 11/03/2015 307","activated":"2017-11-16T00:06:55.383Z","flags":1,"native":1,"bps":4800,"parity":"N","stopbits":1,"cycle":1.00}]}
2017-11-15 19:06:55 1510790815.406155: {"class":"WATCH","enable":true,"json":false,"nmea":true,"raw":0,"scaled":false,"timing":false,"split24":false,"pps":false}
2017-11-15 19:06:56 1510790816.345101: $GPZDA,000655.00,16,11,2017,00,00*63
2017-11-15 19:06:56 1510790816.345268: $GPGGA,000655,3946.9652,N,08404.9497,W,1,06,2.00,303.40,M,-33.324,M,,*75
2017-11-15 19:06:56 1510790816.345331: $GPRMC,000655,A,3946.9652,N,08404.9497,W,1.0298,74.382,161117,,*0B
2017-11-15 19:06:56 1510790816.345386: $GPGSA,A,3,32,14,26,31,16,22,,,,,,,3.4,2.0,2.9*39
2017-11-15 19:06:57 1510790817.680867: $GPGSV,3,1,12,32,44,097,20,14,62,076,25,03,33,309,00,26,42,175,21*79
2017-11-15 19:06:57 1510790817.681039: $GPGSV,3,2,12,31,75,001,24,16,12,190,16,22,48,286,22,25,25,045,00*76
2017-11-15 19:06:57 1510790817.681099: $GPGSV,3,3,12,01,11,261,00,29,07,081,00,10,07,159,00,135,23,238,00*4F
2017-11-15 19:06:57 1510790817.794207: $GPZDA,000656.00,16,11,2017,00,00*60
2017-11-15 19:06:57 1510790817.794373: $GPGGA,000656,3946.9652,N,08404.9497,W,1,06,2.00,303.40,M,-33.324,M,,*76
2017-11-15 19:06:57 1510790817.794436: $GPRMC,000656,A,3946.9652,N,08404.9497,W,0.8414,39.347,161117,,*03
2017-11-15 19:06:57 1510790817.794510: $GPGSA,A,3,32,14,26,31,16,22,,,,,,,3.4,2.0,2.9*39
2017-11-15 19:06:58 1510790818.345082: $GPZDA,000657.00,16,11,2017,00,00*61
2017-11-15 19:06:58 1510790818.345250: $GPGGA,000657,3946.9656,N,08404.9496,W,1,06,2.00,302.63,M,-33.324,M,,*72
2017-11-15 19:06:58 1510790818.345312: $GPRMC,000657,A,3946.9656,N,08404.9496,W,0.7103,45.706,161117,,*01
2017-11-15 19:06:58 1510790818.345368: $GPGSA,A,3,32,14,26,31,16,22,,,,,,,3.4,2.0,2.9*39
2017-11-15 19:06:59 1510790819.345990: $GPZDA,000658.00,16,11,2017,00,00*6E
2017-11-15 19:06:59 1510790819.350612: $GPGGA,000658,3946.9660,N,08404.9503,W,1,06,2.00,303.19,M,-33.324,M,,*79
2017-11-15 19:06:59 1510790819.350755: $GPRMC,000658,A,3946.9660,N,08404.9503,W,0.6846,4.197,161117,,*34
2017-11-15 19:06:59 1510790819.350830: $GPGSA,A,3,32,14,26,31,16,22,,,,,,,3.4,2.0,2.9*39
2017-11-15 19:07:00 1510790820.681876: $GPGSV,3,1,12,32,44,097,20,14,62,076,25,03,33,309,00,26,42,175,21*79
2017-11-15 19:07:00 1510790820.682017: $GPGSV,3,2,12,31,75,001,24,16,12,190,16,22,48,286,22,25,25,045,00*76
2017-11-15 19:07:00 1510790820.682077: $GPGSV,3,3,12,01,11,261,00,29,07,081,00,10,07,159,00,135,23,238,00*4F
2017-11-15 19:07:00 1510790820.795501: $GPZDA,000659.00,16,11,2017,00,00*6F
2017-11-15 19:07:00 1510790820.795695: $GPGGA,000659,3946.9660,N,08404.9503,W,1,06,2.00,303.19,M,-33.324,M,,*78
2017-11-15 19:07:00 1510790820.795756: $GPRMC,000659,A,3946.9660,N,08404.9503,W,0.5287,2.716,161117,,*38
2017-11-15 19:07:00 1510790820.795812: $GPGSA,A,3,32,14,26,31,16,22,,,,,,,3.4,2.0,2.9*39
2017-11-15 19:07:01 1510790821.420459: $GPZDA,000700.00,16,11,2017,00,00*62
2017-11-15 19:07:01 1510790821.420645: $GPGGA,000700,3946.9665,N,08404.9503,W,1,06,2.00,303.83,M,-33.324,M,,*73
2017-11-15 19:07:01 1510790821.420726: $GPRMC,000700,A,3946.9665,N,08404.9503,W,0.7278,23.636,161117,,*02
2017-11-15 19:07:01 1510790821.420781: $GPGSA,A,3,32,14,26,31,16,22,,,,,,,3.4,2.0,2.9*39
2017-11-15 19:07:02 1510790822.347761: $GPZDA,000701.00,16,11,2017,00,00*63
2017-11-15 19:07:02 1510790822.347960: $GPGGA,000701,3946.9665,N,08404.9503,W,1,06,2.00,303.83,M,-33.324,M,,*72
2017-11-15 19:07:02 1510790822.348026: $GPRMC,000701,A,3946.9665,N,08404.9503,W,0.9060,347.792,161117,,*38
2017-11-15 19:07:02 1510790822.348085: $GPGSA,A,3,32,14,26,31,16,22,,,,,,,3.4,2.0,2.9*39
2017-11-15 19:07:03 1510790823.664648: $GPGSV,3,1,12,32,44,097,20,14,62,076,24,29,07,081,05,26,42,175,21*71
2017-11-15 19:07:03 1510790823.664837: $GPGSV,3,2,12,31,75,001,25,16,12,190,16,22,48,286,22,03,33,309,00*7F
2017-11-15 19:07:03 1510790823.664954: $GPGSV,3,3,12,25,25,045,00,01,11,261,00,10,07,159,00,135,23,238,00*4B
2017-11-15 19:07:03 1510790823.778186: $GPZDA,000702.00,16,11,2017,00,00*60
2017-11-15 19:07:03 1510790823.778400: $GPGGA,000702,3946.9665,N,08404.9503,W,1,06,2.00,303.83,M,-33.324,M,,*71
2017-11-15 19:07:03 1510790823.778464: $GPRMC,000702,A,3946.9665,N,08404.9503,W,0.4207,39.347,161117,,*03
2017-11-15 19:07:03 1510790823.778521: $GPGSA,A,3,32,14,26,31,16,22,,,,,,,3.4,2.0,2.9*39
2017-11-15 19:07:04 1510790824.345176: $GPZDA,000703.00,16,11,2017,00,00*61
2017-11-15 19:07:04 1510790824.350271: $GPGGA,000703,3946.9672,N,08404.9502,W,1,06,2.00,303.71,M,-33.324,M,,*7A
2017-11-15 19:07:04 1510790824.350436: $GPRMC,000703,A,3946.9672,N,08404.9502,W,0.8709,3.298,161117,,*38
2017-11-15 19:07:04 1510790824.350495: $GPGSA,A,3,32,14,26,31,16,22,,,,,,,3.4,2.0,2.9*39
2017-11-15 19:07:05 1510790825.329677: $GPZDA,000704.00,16,11,2017,00,00*66
2017-11-15 19:07:05 1510790825.329847: $GPGGA,000704,3946.9672,N,08404.9502,W,1,06,1.20,303.71,M,-33.324,M,,*7C
2017-11-15 19:07:05 1510790825.329908: $GPRMC,000704,A,3946.9672,N,08404.9502,W,0.9019,18.875,161117,,*0B
2017-11-15 19:07:05 1510790825.329964: $GPGSA,A,3,32,14,26,31,16,22,,,,,,,3.4,1.2,2.9*38
