2017-11-16 17:02:28 1510869748.365318: {"class":"VERSION","release":"3.17","rev":"3.17","proto_major":3,"proto_minor":12}
2017-11-16 17:02:28 1510869748.365764: {"class":"DEVICES","devices":[{"class":"DEVICE","path":"/dev/ttyUSB0","driver":"SiRF","subtype":"9\u0006GSD4e_4.1.2-P1_RPATCH.05-F-GPS-4R-1510281 11/03/2015 307","activated":"2017-11-16T22:02:28.282Z","flags":1,"native":1,"bps":4800,"parity":"N","stopbits":1,"cycle":1.00}]}
2017-11-16 17:02:28 1510869748.365992: {"class":"WATCH","enable":true,"json":false,"nmea":true,"raw":0,"scaled":false,"timing":false,"split24":false,"pps":false}
2017-11-16 17:02:28 1510869748.425315: $GPZDA,220227.00,16,11,2017,00,00*62
2017-11-16 17:02:28 1510869748.425633: $GPGGA,220227,3946.9602,N,08404.9823,W,2,12,0.80,311.55,M,-33.324,M,,*79
2017-11-16 17:02:28 1510869748.425967: $GPRMC,220227,A,3946.9602,N,08404.9823,W,0.0000,0.000,161117,,*34
2017-11-16 17:02:28 1510869748.426070: $GPGSA,A,3,1,10,11,12,14,18,25,31,32,22,24,138,1.6,0.8,1.3*38
2017-11-16 17:02:29 1510869749.413969: $GPZDA,220228.00,16,11,2017,00,00*6D
2017-11-16 17:02:29 1510869749.414132: $GPGGA,220228,3946.9602,N,08404.9823,W,2,12,0.80,311.55,M,-33.324,M,,*76
2017-11-16 17:02:29 1510869749.414192: $GPRMC,220228,A,3946.9602,N,08404.9823,W,0.0000,0.000,161117,,*3B
2017-11-16 17:02:29 1510869749.414248: $GPGSA,A,3,1,10,11,12,14,18,25,31,32,22,24,138,1.6,0.8,1.3*38
2017-11-16 17:02:30 1510869750.734614: $GPGSV,3,1,12,01,17,313,42,10,62,139,48,11,11,294,36,12,25,064,51*72
2017-11-16 17:02:30 1510869750.734778: $GPGSV,3,2,12,14,59,303,47,18,31,138,42,25,34,108,46,31,41,216,47*7C
2017-11-16 17:02:30 1510869750.734858: $GPGSV,3,3,12,32,69,346,51,22,08,312,33,24,08,046,30,138,38,213,45*46
2017-11-16 17:02:30 1510869750.848317: $GPZDA,220229.00,16,11,2017,00,00*6C
2017-11-16 17:02:30 1510869750.848488: $GPGGA,220229,3946.9602,N,08404.9823,W,2,12,0.80,311.55,M,-33.324,M,,*77
2017-11-16 17:02:30 1510869750.848565: $GPRMC,220229,A,3946.9602,N,08404.9823,W,0.0000,0.000,161117,,*3A
2017-11-16 17:02:30 1510869750.848622: $GPGSA,A,3,1,10,11,12,14,18,25,31,32,22,24,138,1.6,0.8,1.3*38
2017-11-16 17:02:31 1510869751.473246: $GPZDA,220230.00,16,11,2017,00,00*64
2017-11-16 17:02:31 1510869751.473406: $GPGGA,220230,3946.9602,N,08404.9823,W,2,12,0.80,311.55,M,-33.324,M,,*7F
2017-11-16 17:02:31 1510869751.473467: $GPRMC,220230,A,3946.9602,N,08404.9823,W,0.0000,0.000,161117,,*32
2017-11-16 17:02:31 1510869751.473522: $GPGSA,A,3,1,10,11,12,14,18,25,31,32,22,24,138,1.6,0.8,1.3*38
2017-11-16 17:02:32 1510869752.413282: $GPZDA,220231.00,16,11,2017,00,00*65
2017-11-16 17:02:32 1510869752.413440: $GPGGA,220231,3946.9598,N,08404.9823,W,2,12,0.80,312.31,M,-33.324,M,,*7F
2017-11-16 17:02:32 1510869752.413500: $GPRMC,220231,A,3946.9598,N,08404.9823,W,0.0000,0.000,161117,,*33
2017-11-16 17:02:32 1510869752.413555: $GPGSA,A,3,1,10,11,12,14,18,25,31,32,22,24,138,1.6,0.8,1.3*38
2017-11-16 17:02:33 1510869753.749879: $GPGSV,3,1,12,01,17,313,41,10,62,139,48,11,11,294,36,12,25,064,51*71
2017-11-16 17:02:33 1510869753.750053: $GPGSV,3,2,12,14,59,303,47,18,31,138,42,25,34,108,46,31,41,216,47*7C
2017-11-16 17:02:33 1510869753.750113: $GPGSV,3,3,12,32,69,346,51,22,08,312,29,24,08,046,30,138,38,213,45*4D
2017-11-16 17:02:33 1510869753.863183: $GPZDA,220232.00,16,11,2017,00,00*66
2017-11-16 17:02:33 1510869753.863350: $GPGGA,220232,3946.9598,N,08404.9823,W,2,12,0.80,312.31,M,-33.324,M,,*7C
2017-11-16 17:02:33 1510869753.863412: $GPRMC,220232,A,3946.9598,N,08404.9823,W,0.0000,0.000,161117,,*30
2017-11-16 17:02:33 1510869753.863468: $GPGSA,A,3,1,10,11,12,14,18,25,31,32,22,24,138,1.6,0.8,1.3*38
2017-11-16 17:02:34 1510869754.414349: $GPZDA,220233.00,16,11,2017,00,00*67
2017-11-16 17:02:34 1510869754.414509: $GPGGA,220233,3946.9598,N,08404.9823,W,2,12,0.80,312.31,M,-33.324,M,,*7D
2017-11-16 17:02:34 1510869754.414571: $GPRMC,220233,A,3946.9598,N,08404.9823,W,0.0000,0.000,161117,,*31
2017-11-16 17:02:34 1510869754.414626: $GPGSA,A,3,1,10,11,12,14,18,25,31,32,22,24,138,1.6,0.8,1.3*38
2017-11-16 17:02:35 1510869755.412944: $GPZDA,220234.00,16,11,2017,00,00*60
2017-11-16 17:02:35 1510869755.413159: $GPGGA,220234,3946.9598,N,08404.9823,W,2,12,0.80,312.31,M,-33.324,M,,*7A
2017-11-16 17:02:35 1510869755.413223: $GPRMC,220234,A,3946.9598,N,08404.9823,W,0.0000,0.000,161117,,*36
2017-11-16 17:02:35 1510869755.413279: $GPGSA,A,3,1,10,11,12,14,18,25,31,32,22,24,138,1.6,0.8,1.3*38
2017-11-16 17:02:36 1510869756.749032: $GPGSV,3,1,12,01,17,313,40,10,62,139,48,11,11,294,36,12,25,064,50*71
2017-11-16 17:02:36 1510869756.749199: $GPGSV,3,2,12,14,59,303,46,18,31,138,42,25,34,108,46,31,41,216,47*7D
2017-11-16 17:02:36 1510869756.749259: $GPGSV,3,3,12,32,69,346,51,22,08,312,32,24,08,046,30,138,38,213,44*46
2017-11-16 17:02:36 1510869756.862323: $GPZDA,220235.00,16,11,2017,00,00*61
2017-11-16 17:02:36 1510869756.862485: $GPGGA,220235,3946.9598,N,08404.9823,W,2,12,0.80,312.31,M,-33.324,M,,*7B
2017-11-16 17:02:36 1510869756.862546: $GPRMC,220235,A,3946.9598,N,08404.9823,W,0.0000,0.000,161117,,*37
2017-11-16 17:02:36 1510869756.862602: $GPGSA,A,3,1,10,11,12,14,18,25,31,32,22,24,138,1.6,0.8,1.3*38
2017-11-16 17:02:37 1510869757.398193: $GPZDA,220236.00,16,11,2017,00,00*62
2017-11-16 17:02:37 1510869757.398360: $GPGGA,220236,3946.9598,N,08404.9823,W,2,12,0.80,312.31,M,-33.324,M,,*78
2017-11-16 17:02:37 1510869757.398423: $GPRMC,220236,A,3946.9598,N,08404.9823,W,0.0000,0.000,161117,,*34
2017-11-16 17:02:37 1510869757.398479: $GPGSA,A,3,1,10,11,12,14,18,25,31,32,22,24,138,1.6,0.8,1.3*38
