2017-11-15 19:46:57 1510793217.783112: {"class":"VERSION","release":"3.17","rev":"3.17","proto_major":3,"proto_minor":12}
2017-11-15 19:46:57 1510793217.783591: {"class":"DEVICES","devices":[{"class":"DEVICE","path":"/dev/ttyUSB0","driver":"SiRF","subtype":"9\u0006GSD4e_4.1.2-P1_RPATCH.05-F-GPS-4R-1510281 11/03/2015 307","activated":"2017-11-16T00:46:57.681Z","flags":1,"native":1,"bps":4800,"parity":"N","stopbits":1,"cycle":1.00}]}
2017-11-15 19:46:57 1510793217.783701: {"class":"WATCH","enable":true,"json":false,"nmea":true,"raw":0,"scaled":false,"timing":false,"split24":false,"pps":false}
2017-11-15 19:46:57 1510793217.826931: $GPZDA,004656.00,16,11,2017,00,00*64
2017-11-15 19:46:57 1510793217.827090: $GPGGA,004656,3946.9682,N,08404.9429,W,1,08,1.20,349.88,M,-33.324,M,,*7F
2017-11-15 19:46:57 1510793217.827152: $GPRMC,004656,A,3946.9682,N,08404.9429,W,0.8709,3.298,161117,,*3A
2017-11-15 19:46:57 1510793217.827207: $GPGSA,A,3,32,16,22,26,14,29,23,3,,,,,3.4,1.2,2.9*03
2017-11-15 19:46:58 1510793218.347168: $GPZDA,004657.00,16,11,2017,00,00*65
2017-11-15 19:46:58 1510793218.347356: $GPGGA,004657,3946.9679,N,08404.9429,W,1,08,1.20,350.64,M,-33.324,M,,*70
2017-11-15 19:46:58 1510793218.347446: $GPRMC,004657,A,3946.9679,N,08404.9429,W,0.6846,4.197,161117,,*3E
2017-11-15 19:46:58 1510793218.347503: $GPGSA,A,3,32,16,22,26,14,29,23,3,,,,,3.4,1.2,2.9*03
2017-11-15 19:46:59 1510793219.347910: $GPZDA,004658.00,16,11,2017,00,00*6A
2017-11-15 19:46:59 1510793219.348064: $GPGGA,004658,3946.9687,N,08404.9429,W,1,08,1.20,350.52,M,-33.324,M,,*7B
2017-11-15 19:46:59 1510793219.348125: $GPRMC,004658,A,3946.9687,N,08404.9429,W,1.0269,4.197,161117,,*30
2017-11-15 19:46:59 1510793219.348181: $GPGSA,A,3,32,16,22,26,14,29,23,3,,,,,3.4,1.2,2.9*03
2017-11-15 19:47:00 1510793220.664849: $GPGSV,3,1,11,32,30,114,18,16,30,190,21,22,50,259,15,26,61,169,24*7F
2017-11-15 19:47:00 1510793220.665023: $GPGSV,3,2,11,14,49,102,19,31,62,034,00,29,12,064,04,23,16,303,11*72
2017-11-15 19:47:00 1510793220.665084: $GPGSV,3,3,11,03,43,291,18,25,11,039,00,01,01,247,00*42
2017-11-15 19:47:00 1510793220.778190: $GPZDA,004659.00,16,11,2017,00,00*6B
2017-11-15 19:47:00 1510793220.778393: $GPGGA,004659,3946.9686,N,08404.9422,W,1,07,1.20,350.60,M,-33.324,M,,*7E
2017-11-15 19:47:00 1510793220.778458: $GPRMC,004659,A,3946.9686,N,08404.9422,W,1.0567,17.448,161117,,*07
2017-11-15 19:47:00 1510793220.778515: $GPGSA,A,3,32,16,22,26,14,23,3,,,,,,3.4,1.2,2.9*08
2017-11-15 19:47:01 1510793221.403553: $GPZDA,004700.00,16,11,2017,00,00*66
2017-11-15 19:47:01 1510793221.403705: $GPGGA,004700,3946.9686,N,08404.9422,W,1,07,1.20,350.60,M,-33.324,M,,*73
2017-11-15 19:47:01 1510793221.403766: $GPRMC,004700,A,3946.9686,N,08404.9422,W,1.4555,23.636,161117,,*03
2017-11-15 19:47:01 1510793221.403823: $GPGSA,A,3,32,16,22,26,14,23,3,,,,,,3.4,1.2,2.9*08
2017-11-15 19:47:02 1510793222.329437: $GPZDA,004701.00,16,11,2017,00,00*67
2017-11-15 19:47:02 1510793222.329614: $GPGGA,004701,3946.9686,N,08404.9415,W,1,07,1.20,350.68,M,-33.324,M,,*7E
2017-11-15 19:47:02 1510793222.329676: $GPRMC,004701,A,3946.9686,N,08404.9415,W,0.9929,32.499,161117,,*0A
2017-11-15 19:47:02 1510793222.329732: $GPGSA,A,3,32,16,22,26,14,23,3,,,,,,3.4,1.2,2.9*08
2017-11-15 19:47:03 1510793223.670192: $GPGSV,3,1,11,32,30,114,19,16,30,190,21,22,50,259,14,26,61,169,24*7F
2017-11-15 19:47:03 1510793223.670401: $GPGSV,3,2,11,14,49,102,19,31,62,034,01,29,12,064,04,23,16,303,11*73
2017-11-15 19:47:03 1510793223.670463: $GPGSV,3,3,11,03,43,291,18,25,11,039,00,01,01,247,00*42
2017-11-15 19:47:03 1510793223.784107: $GPZDA,004702.00,16,11,2017,00,00*64
2017-11-15 19:47:03 1510793223.784291: $GPGGA,004702,3946.9686,N,08404.9415,W,1,07,1.20,350.68,M,-33.324,M,,*7D
2017-11-15 19:47:03 1510793223.784353: $GPRMC,004702,A,3946.9686,N,08404.9415,W,0.9929,32.499,161117,,*09
2017-11-15 19:47:03 1510793223.784427: $GPGSA,A,3,32,16,22,26,14,23,3,,,,,,3.4,1.2,2.9*08
2017-11-15 19:47:04 1510793224.329261: $GPZDA,004703.00,16,11,2017,00,00*65
2017-11-15 19:47:04 1510793224.329615: $GPGGA,004703,3946.9693,N,08404.9407,W,1,07,1.20,350.63,M,-33.324,M,,*70
2017-11-15 19:47:04 1510793224.329843: $GPRMC,004703,A,3946.9693,N,08404.9407,W,1.6283,21.001,161117,,*0D
2017-11-15 19:47:04 1510793224.329957: $GPGSA,A,3,32,16,22,26,14,23,3,,,,,,3.4,1.2,2.9*08
2017-11-15 19:47:05 1510793225.329022: $GPZDA,004704.00,16,11,2017,00,00*62
2017-11-15 19:47:05 1510793225.329316: $GPGGA,004704,3946.9693,N,08404.9407,W,1,07,1.20,350.63,M,-33.324,M,,*77
2017-11-15 19:47:05 1510793225.329440: $GPRMC,004704,A,3946.9693,N,08404.9407,W,1.6828,39.347,161117,,*09
2017-11-15 19:47:05 1510793225.329554: $GPGSA,A,3,32,16,22,26,14,23,3,,,,,,3.4,1.2,2.9*08
2017-11-15 19:47:06 1510793226.681823: $GPGSV,3,1,11,32,30,114,19,16,30,190,21,22,50,259,11,26,61,169,23*7D
2017-11-15 19:47:06 1510793226.681996: $GPGSV,3,2,11,14,49,102,19,31,62,034,14,29,12,064,04,23,16,303,11*77
2017-11-15 19:47:06 1510793226.682059: $GPGSV,3,3,11,03,43,291,18,25,11,039,00,01,01,247,00*42
2017-11-15 19:47:06 1510793226.795410: $GPZDA,004705.00,16,11,2017,00,00*63
2017-11-15 19:47:06 1510793226.796274: $GPGGA,004705,3946.9697,N,08404.9400,W,1,07,1.20,351.35,M,-33.324,M,,*77
2017-11-15 19:47:06 1510793226.796432: $GPRMC,004705,A,3946.9697,N,08404.9400,W,2.1134,17.448,161117,,*0F
2017-11-15 19:47:06 1510793226.796511: $GPGSA,A,3,32,16,22,26,14,23,3,,,,,,3.4,1.2,2.9*08
2017-11-15 19:47:07 1510793227.329785: $GPZDA,004706.00,16,11,2017,00,00*60
2017-11-15 19:47:07 1510793227.329953: $GPGGA,004706,3946.9700,N,08404.9399,W,1,07,1.20,350.59,M,-33.324,M,,*77
2017-11-15 19:47:07 1510793227.330017: $GPRMC,004706,A,3946.9700,N,08404.9399,W,2.3556,21.815,161117,,*07
2017-11-15 19:47:07 1510793227.330076: $GPGSA,A,3,32,16,22,26,14,23,3,,,,,,3.4,1.2,2.9*08
