2017-12-14 11:50:23 1513270223.621735: {"class":"VERSION","release":"3.16","rev":"3.16-4","proto_major":3,"proto_minor":11}
2017-12-14 11:50:23 1513270223.622149: {"class":"DEVICES","devices":[{"class":"DEVICE","path":"/dev/ttyUSB0","driver":"SiRF","subtype":"9\u0006GSD4e_4.1.2-P1_RPATCH.05-F-GPS-4R-1510281 11/03/2015 307","activated":"2017-12-14T16:50:23.288Z","flags":1,"native":1,"bps":4800,"parity":"N","stopbits":1,"cycle":1.00}]}
2017-12-14 11:50:23 1513270223.622276: {"class":"WATCH","enable":true,"json":false,"nmea":true,"raw":0,"scaled":false,"timing":false,"split24":false,"pps":false}
2017-12-14 11:50:24 1513270224.499277: $GPGSV,3,1,12,24,43,127,27,15,49,049,27,10,32,291,20,18,62,315,13*79
2017-12-14 11:50:24 1513270224.499456: $GPGSV,3,2,12,20,44,084,24,32,11,231,07,27,19,303,11,21,75,208,19*7B
2017-12-14 11:50:24 1513270224.499520: $GPGSV,3,3,12,13,19,046,00,29,01,186,00,08,01,331,00,120,07,103,00*49
2017-12-14 11:50:24 1513270224.612710: $GPZDA,165025.00,14,12,2017,00,00*61
2017-12-14 11:50:24 1513270224.612883: $GPGGA,165025,3946.9432,N,08404.9496,W,1,08,1.80,382.01,M,-33.324,M,,*7A
2017-12-14 11:50:24 1513270224.612950: $GPRMC,165025,A,3946.9432,N,08404.9496,W,0.8054,68.645,141217,,*04
2017-12-14 11:50:24 1513270224.613011: $GPGSA,A,3,24,15,10,18,20,32,27,21,,,,,6.6,1.8,6.2*30
2017-12-14 11:50:25 1513270225.646957: $GPZDA,165026.00,14,12,2017,00,00*62
2017-12-14 11:50:25 1513270225.647136: $GPGGA,165026,3946.9432,N,08404.9496,W,1,08,1.80,382.01,M,-33.324,M,,*79
2017-12-14 11:50:25 1513270225.647223: $GPRMC,165026,A,3946.9432,N,08404.9496,W,0.4844,93.794,141217,,*0B
2017-12-14 11:50:25 1513270225.647286: $GPGSA,A,3,24,15,10,18,20,32,27,21,,,,,6.6,1.8,6.2*30
2017-12-14 11:50:26 1513270226.165826: $GPZDA,165027.00,14,12,2017,00,00*63
2017-12-14 11:50:26 1513270226.166007: $GPGGA,165027,3946.9432,N,08404.9496,W,1,08,1.80,380.60,M,-33.324,M,,*7D
2017-12-14 11:50:26 1513270226.166073: $GPRMC,165027,A,3946.9432,N,08404.9496,W,0.5951,58.684,141217,,*09
2017-12-14 11:50:26 1513270226.166134: $GPGSA,A,3,24,15,10,18,20,32,27,21,,,,,6.6,1.8,6.2*30
2017-12-14 11:50:27 1513270227.501896: $GPGSV,3,1,11,24,43,127,27,15,49,049,27,10,32,292,20,18,63,315,14*7F
2017-12-14 11:50:27 1513270227.502110: $GPGSV,3,2,11,20,43,084,25,32,11,231,07,27,19,301,11,21,75,207,19*73
2017-12-14 11:50:27 1513270227.502185: $GPGSV,3,3,11,13,18,046,00,08,01,331,00,120,07,103,00*7E
2017-12-14 11:50:27 1513270227.615264: $GPZDA,165028.00,14,12,2017,00,00*6C
2017-12-14 11:50:27 1513270227.615459: $GPGGA,165028,3946.9432,N,08404.9496,W,1,08,1.80,380.60,M,-33.324,M,,*72
2017-12-14 11:50:27 1513270227.615528: $GPRMC,165028,A,3946.9432,N,08404.9496,W,0.0000,0.000,141217,,*39
2017-12-14 11:50:27 1513270227.615589: $GPGSA,A,3,24,15,10,18,20,32,27,21,,,,,6.6,1.8,6.2*30
2017-12-14 11:50:28 1513270228.170650: $GPZDA,165029.00,14,12,2017,00,00*6D
2017-12-14 11:50:28 1513270228.170801: $GPGGA,165029,3946.9432,N,08404.9496,W,1,08,1.40,380.60,M,-33.324,M,,*7F
2017-12-14 11:50:28 1513270228.170866: $GPRMC,165029,A,3946.9432,N,08404.9496,W,0.0000,0.000,141217,,*38
2017-12-14 11:50:28 1513270228.170926: $GPGSA,A,3,24,15,10,18,20,32,27,21,,,,,6.6,1.4,6.2*3C
2017-12-14 11:50:29 1513270229.166790: $GPZDA,165030.00,14,12,2017,00,00*65
2017-12-14 11:50:29 1513270229.166953: $GPGGA,165030,3946.9435,N,08404.9495,W,1,08,1.40,379.84,M,-33.324,M,,*7F
2017-12-14 11:50:29 1513270229.167017: $GPRMC,165030,A,3946.9435,N,08404.9495,W,0.0000,0.000,141217,,*34
2017-12-14 11:50:29 1513270229.167077: $GPGSA,A,3,24,15,10,18,20,32,27,21,,,,,6.6,1.4,6.2*3C
2017-12-14 11:50:30 1513270230.484988: $GPGSV,3,1,11,24,43,127,27,15,49,049,27,10,32,292,20,18,63,315,14*7F
2017-12-14 11:50:30 1513270230.485143: $GPGSV,3,2,11,20,43,084,25,32,11,231,07,27,19,301,11,21,75,207,19*73
2017-12-14 11:50:30 1513270230.485209: $GPGSV,3,3,11,13,18,046,00,08,01,331,00,120,07,103,00*7E
2017-12-14 11:50:30 1513270230.598400: $GPZDA,165031.00,14,12,2017,00,00*64
2017-12-14 11:50:30 1513270230.598555: $GPGGA,165031,3946.9431,N,08404.9495,W,1,08,1.80,379.20,M,-33.324,M,,*78
2017-12-14 11:50:30 1513270230.598618: $GPRMC,165031,A,3946.9431,N,08404.9495,W,0.0000,0.000,141217,,*31
2017-12-14 11:50:30 1513270230.598730: $GPGSA,A,3,24,15,10,18,20,32,27,21,,,,,6.6,1.8,6.2*30
2017-12-14 11:50:31 1513270231.164949: $GPZDA,165032.00,14,12,2017,00,00*67
2017-12-14 11:50:31 1513270231.165124: $GPGGA,165032,3946.9431,N,08404.9495,W,1,08,1.80,379.20,M,-33.324,M,,*7B
2017-12-14 11:50:31 1513270231.165190: $GPRMC,165032,A,3946.9431,N,08404.9495,W,0.3423,4.197,141217,,*3F
2017-12-14 11:50:31 1513270231.165250: $GPGSA,A,3,24,15,10,18,20,32,27,21,,,,,6.6,1.8,6.2*30
2017-12-14 11:50:32 1513270232.163762: $GPZDA,165033.00,14,12,2017,00,00*66
2017-12-14 11:50:32 1513270232.163923: $GPGGA,165033,3946.9434,N,08404.9494,W,1,08,1.80,378.43,M,-33.324,M,,*7A
2017-12-14 11:50:32 1513270232.163989: $GPRMC,165033,A,3946.9434,N,08404.9494,W,0.4179,328.778,141217,,*3D
2017-12-14 11:50:32 1513270232.164049: $GPGSA,A,3,24,15,10,18,20,32,27,21,,,,,6.6,1.8,6.2*30
2017-12-14 11:50:33 1513270233.501235: $GPGSV,3,1,11,24,43,127,27,15,49,049,27,10,32,292,20,18,63,315,13*78
2017-12-14 11:50:33 1513270233.501413: $GPGSV,3,2,11,20,43,084,25,32,11,231,06,27,19,301,08,21,75,207,18*7B
2017-12-14 11:50:33 1513270233.501480: $GPGSV,3,3,11,13,18,046,00,08,01,331,00,120,07,103,00*7E
2017-12-14 11:50:33 1513270233.613435: $GPZDA,165034.00,14,12,2017,00,00*61
2017-12-14 11:50:33 1513270233.613610: $GPGGA,165034,3946.9434,N,08404.9494,W,1,07,1.80,378.43,M,-33.324,M,,*72
2017-12-14 11:50:33 1513270233.613677: $GPRMC,165034,A,3946.9434,N,08404.9494,W,0.0000,0.000,141217,,*30
2017-12-14 11:50:33 1513270233.613737: $GPGSA,A,3,24,15,10,18,20,27,21,,,,,,6.6,1.8,6.2*31
2017-12-14 11:50:34 1513270234.147233: $GPZDA,165035.00,14,12,2017,00,00*60
2017-12-14 11:50:34 1513270234.147403: $GPGGA,165035,3946.9434,N,08404.9494,W,1,07,1.80,378.43,M,-33.324,M,,*73
2017-12-14 11:50:34 1513270234.147468: $GPRMC,165035,A,3946.9434,N,08404.9494,W,0.0000,0.000,141217,,*31
2017-12-14 11:50:34 1513270234.147548: $GPGSA,A,3,24,15,10,18,20,27,21,,,,,,6.6,1.8,6.2*31
2017-12-14 11:50:35 1513270235.148451: $GPZDA,165036.00,14,12,2017,00,00*63
2017-12-14 11:50:35 1513270235.148621: $GPGGA,165036,3946.9438,N,08404.9493,W,1,07,1.80,377.67,M,-33.324,M,,*72
2017-12-14 11:50:35 1513270235.148687: $GPRMC,165036,A,3946.9438,N,08404.9493,W,0.0000,0.000,141217,,*39
2017-12-14 11:50:35 1513270235.148746: $GPGSA,A,3,24,15,10,18,20,27,21,,,,,,6.6,1.8,6.2*31
2017-12-14 11:50:36 1513270236.481833: $GPGSV,3,1,11,24,43,127,27,15,49,049,27,10,32,292,20,18,63,315,11*7A
2017-12-14 11:50:36 1513270236.482023: $GPGSV,3,2,11,20,43,084,25,32,11,231,04,27,19,301,07,21,75,207,18*76
2017-12-14 11:50:36 1513270236.482161: $GPGSV,3,3,11,13,18,046,00,08,01,331,00,120,07,103,00*7E
2017-12-14 11:50:36 1513270236.595646: $GPZDA,165037.00,14,12,2017,00,00*62
2017-12-14 11:50:36 1513270236.595797: $GPGGA,165037,3946.9434,N,08404.9493,W,1,07,1.80,377.03,M,-33.324,M,,*7D
2017-12-14 11:50:36 1513270236.595861: $GPRMC,165037,A,3946.9434,N,08404.9493,W,0.0000,0.000,141217,,*34
2017-12-14 11:50:36 1513270236.595920: $GPGSA,A,3,24,15,10,18,20,27,21,,,,,,6.6,1.8,6.2*31
2017-12-14 11:50:37 1513270237.145352: $GPZDA,165038.00,14,12,2017,00,00*6D
2017-12-14 11:50:37 1513270237.145525: $GPGGA,165038,3946.9434,N,08404.9493,W,1,07,1.80,377.03,M,-33.324,M,,*72
2017-12-14 11:50:37 1513270237.145592: $GPRMC,165038,A,3946.9434,N,08404.9493,W,0.4207,39.347,141217,,*00
2017-12-14 11:50:37 1513270237.145651: $GPGSA,A,3,24,15,10,18,20,27,21,,,,,,6.6,1.8,6.2*31
2017-12-14 11:50:38 1513270238.146969: $GPZDA,165039.00,14,12,2017,00,00*6C
2017-12-14 11:50:38 1513270238.147135: $GPGGA,165039,3946.9434,N,08404.9493,W,1,07,1.80,377.03,M,-33.324,M,,*73
2017-12-14 11:50:38 1513270238.147200: $GPRMC,165039,A,3946.9434,N,08404.9493,W,0.3423,184.197,141217,,*3E
2017-12-14 11:50:38 1513270238.147260: $GPGSA,A,3,24,15,10,18,20,27,21,,,,,,6.6,1.8,6.2*31
2017-12-14 11:50:39 1513270239.482922: $GPGSV,3,1,11,24,43,127,27,15,49,049,27,10,32,292,20,18,63,315,12*79
2017-12-14 11:50:39 1513270239.483098: $GPGSV,3,2,11,20,43,084,25,32,11,231,04,27,19,301,07,21,75,207,17*79
2017-12-14 11:50:39 1513270239.483215: $GPGSV,3,3,11,13,18,046,00,08,01,331,00,120,07,103,00*7E
2017-12-14 11:50:39 1513270239.596685: $GPZDA,165040.00,14,12,2017,00,00*62
2017-12-14 11:50:39 1513270239.596852: $GPGGA,165040,3946.9434,N,08404.9493,W,1,07,1.80,377.03,M,-33.324,M,,*7D
2017-12-14 11:50:39 1513270239.596917: $GPRMC,165040,A,3946.9434,N,08404.9493,W,0.0000,0.000,141217,,*34
2017-12-14 11:50:39 1513270239.596978: $GPGSA,A,3,24,15,10,18,20,27,21,,,,,,6.6,1.8,6.2*31
2017-12-14 11:50:40 1513270240.147500: $GPZDA,165041.00,14,12,2017,00,00*63
2017-12-14 11:50:40 1513270240.147665: $GPGGA,165041,3946.9437,N,08404.9493,W,1,07,1.80,376.26,M,-33.324,M,,*79
2017-12-14 11:50:40 1513270240.147731: $GPRMC,165041,A,3946.9437,N,08404.9493,W,0.2422,93.794,141217,,*00
2017-12-14 11:50:40 1513270240.147790: $GPGSA,A,3,24,15,10,18,20,27,21,,,,,,6.6,1.8,6.2*31
2017-12-14 11:50:41 1513270241.147458: $GPZDA,165042.00,14,12,2017,00,00*60
2017-12-14 11:50:41 1513270241.147614: $GPGGA,165042,3946.9437,N,08404.9493,W,1,07,1.80,376.26,M,-33.324,M,,*7A
2017-12-14 11:50:41 1513270241.147680: $GPRMC,165042,A,3946.9437,N,08404.9493,W,0.4844,93.794,141217,,*09
2017-12-14 11:50:41 1513270241.147740: $GPGSA,A,3,24,15,10,18,20,27,21,,,,,,6.6,1.8,6.2*31
2017-12-14 11:50:42 1513270242.483681: $GPGSV,3,1,11,24,43,127,27,15,49,049,27,10,32,292,20,18,63,315,12*79
2017-12-14 11:50:42 1513270242.483845: $GPGSV,3,2,11,20,43,084,25,32,11,231,04,27,19,301,09,21,75,207,18*78
2017-12-14 11:50:42 1513270242.483911: $GPGSV,3,3,11,13,18,046,00,08,01,331,00,120,07,103,00*7E
2017-12-14 11:50:42 1513270242.597075: $GPZDA,165043.00,14,12,2017,00,00*61
2017-12-14 11:50:42 1513270242.597248: $GPGGA,165043,3946.9437,N,08404.9493,W,1,07,1.80,376.26,M,-33.324,M,,*7B
2017-12-14 11:50:42 1513270242.597314: $GPRMC,165043,A,3946.9437,N,08404.9493,W,0.3423,4.197,141217,,*39
2017-12-14 11:50:42 1513270242.597375: $GPGSA,A,3,24,15,10,18,20,27,21,,,,,,6.6,1.8,6.2*31
2017-12-14 11:50:43 1513270243.149966: $GPZDA,165044.00,14,12,2017,00,00*66
2017-12-14 11:50:43 1513270243.150135: $GPGGA,165044,3946.9441,N,08404.9492,W,1,07,1.80,375.50,M,-33.324,M,,*7E
2017-12-14 11:50:43 1513270243.150201: $GPRMC,165044,A,3946.9441,N,08404.9492,W,0.7278,23.636,141217,,*0B
2017-12-14 11:50:43 1513270243.150262: $GPGSA,A,3,24,15,10,18,20,27,21,,,,,,6.6,1.8,6.2*31
