2017-12-01 12:17:38 1512148658.486829: {"class":"VERSION","release":"3.16","rev":"3.16-4","proto_major":3,"proto_minor":11}
2017-12-01 12:17:38 1512148658.487256: {"class":"DEVICES","devices":[{"class":"DEVICE","path":"/dev/ttyUSB0","driver":"SiRF","subtype":"9\u0006GSD4e_4.1.2-P1_RPATCH.05-F-GPS-4R-1510281 11/03/2015 307","activated":"2017-12-01T17:17:38.265Z","flags":1,"native":1,"bps":4800,"parity":"N","stopbits":1,"cycle":1.00}]}
2017-12-01 12:17:38 1512148658.487376: {"class":"WATCH","enable":true,"json":false,"nmea":true,"raw":0,"scaled":false,"timing":false,"split24":false,"pps":false}
2017-12-01 12:17:38 1512148658.714457: $GPGSV,3,1,12,10,23,283,42,13,29,045,44,15,61,051,45,18,54,300,45*73
2017-12-01 12:17:38 1512148658.714637: $GPGSV,3,2,12,20,52,072,46,21,78,267,42,24,33,138,48,27,16,313,33*73
2017-12-01 12:17:38 1512148658.714703: $GPGSV,3,3,12,29,10,189,29,05,03,087,18,32,01,225,17,138,38,213,46*4B
2017-12-01 12:17:38 1512148658.828085: $GPZDA,171739.00,01,12,2017,00,00*6A
2017-12-01 12:17:38 1512148658.828253: $GPGGA,171739,3946.9573,N,08404.9832,W,2,12,0.80,299.12,M,-33.324,M,,*73
2017-12-01 12:17:38 1512148658.828320: $GPRMC,171739,A,3946.9573,N,08404.9832,W,0.0000,0.000,011217,,*39
2017-12-01 12:17:38 1512148658.828381: $GPGSA,A,3,10,13,15,18,20,21,24,27,29,5,32,138,2.0,0.8,1.5*35
2017-12-01 12:17:39 1512148659.391626: $GPZDA,171740.00,01,12,2017,00,00*64
2017-12-01 12:17:39 1512148659.391820: $GPGGA,171740,3946.9573,N,08404.9832,W,2,12,0.80,299.12,M,-33.324,M,,*7D
2017-12-01 12:17:39 1512148659.391890: $GPRMC,171740,A,3946.9573,N,08404.9832,W,0.0000,0.000,011217,,*37
2017-12-01 12:17:39 1512148659.391972: $GPGSA,A,3,10,13,15,18,20,21,24,27,29,5,32,138,2.0,0.8,1.5*35
2017-12-01 12:17:40 1512148660.384730: $GPZDA,171741.00,01,12,2017,00,00*65
2017-12-01 12:17:40 1512148660.384919: $GPGGA,171741,3946.9573,N,08404.9832,W,2,12,0.80,299.12,M,-33.324,M,,*7C
2017-12-01 12:17:40 1512148660.384989: $GPRMC,171741,A,3946.9573,N,08404.9832,W,0.0000,0.000,011217,,*36
2017-12-01 12:17:40 1512148660.385051: $GPGSA,A,3,10,13,15,18,20,21,24,27,29,5,32,138,2.0,0.8,1.5*35
2017-12-01 12:17:41 1512148661.720385: $GPGSV,3,1,12,10,23,283,41,13,29,045,44,15,61,051,46,18,54,300,44*72
2017-12-01 12:17:41 1512148661.720565: $GPGSV,3,2,12,20,52,072,45,21,78,267,42,24,33,138,47,27,16,313,32*7E
2017-12-01 12:17:41 1512148661.720632: $GPGSV,3,3,12,29,10,189,30,05,03,087,18,32,01,225,17,138,38,213,45*40
2017-12-01 12:17:41 1512148661.834017: $GPZDA,171742.00,01,12,2017,00,00*66
2017-12-01 12:17:41 1512148661.834160: $GPGGA,171742,3946.9573,N,08404.9832,W,2,12,0.80,299.12,M,-33.324,M,,*7F
2017-12-01 12:17:41 1512148661.834226: $GPRMC,171742,A,3946.9573,N,08404.9832,W,0.0000,0.000,011217,,*35
2017-12-01 12:17:41 1512148661.834287: $GPGSA,A,3,10,13,15,18,20,21,24,27,29,5,32,138,2.0,0.8,1.5*35
2017-12-01 12:17:42 1512148662.459016: $GPZDA,171743.00,01,12,2017,00,00*67
2017-12-01 12:17:42 1512148662.459210: $GPGGA,171743,3946.9573,N,08404.9832,W,2,12,0.80,299.12,M,-33.324,M,,*7E
2017-12-01 12:17:42 1512148662.459279: $GPRMC,171743,A,3946.9573,N,08404.9832,W,0.0000,0.000,011217,,*34
2017-12-01 12:17:42 1512148662.459341: $GPGSA,A,3,10,13,15,18,20,21,24,27,29,5,32,138,2.0,0.8,1.5*35
2017-12-01 12:17:43 1512148663.387407: $GPZDA,171744.00,01,12,2017,00,00*60
2017-12-01 12:17:43 1512148663.391496: $GPGGA,171744,3946.9573,N,08404.9832,W,2,12,0.80,299.12,M,-33.324,M,,*79
2017-12-01 12:17:43 1512148663.391640: $GPRMC,171744,A,3946.9573,N,08404.9832,W,0.0000,0.000,011217,,*33
2017-12-01 12:17:43 1512148663.391704: $GPGSA,A,3,10,13,15,18,20,21,24,27,29,5,32,138,2.0,0.8,1.5*35
2017-12-01 12:17:44 1512148664.699414: $GPGSV,3,1,12,10,23,283,41,13,29,045,43,15,61,051,46,18,54,300,45*74
2017-12-01 12:17:44 1512148664.699603: $GPGSV,3,2,12,20,52,072,46,21,78,267,42,24,33,138,48,27,16,313,00*73
2017-12-01 12:17:44 1512148664.699669: $GPGSV,3,3,12,29,10,189,00,05,03,087,18,32,01,225,18,138,38,213,45*4C
2017-12-01 12:17:44 1512148664.811874: $GPZDA,171745.00,01,12,2017,00,00*61
2017-12-01 12:17:44 1512148664.812043: $GPGGA,171745,3946.9573,N,08404.9832,W,2,10,1.20,299.12,M,-33.324,M,,*71
2017-12-01 12:17:44 1512148664.812159: $GPRMC,171745,A,3946.9573,N,08404.9832,W,0.0000,0.000,011217,,*32
2017-12-01 12:17:44 1512148664.812222: $GPGSA,A,3,10,13,15,18,20,21,24,5,32,138,,,2.0,1.2,1.5*30
2017-12-01 12:17:45 1512148665.390178: $GPZDA,171746.00,01,12,2017,00,00*62
2017-12-01 12:17:45 1512148665.390366: $GPGGA,171746,3946.9573,N,08404.9832,W,2,10,1.00,299.12,M,-33.324,M,,*70
2017-12-01 12:17:45 1512148665.390434: $GPRMC,171746,A,3946.9573,N,08404.9832,W,0.0000,0.000,011217,,*31
2017-12-01 12:17:45 1512148665.390495: $GPGSA,A,3,10,13,15,18,20,21,24,5,32,138,,,2.0,1.0,1.5*32
2017-12-01 12:17:46 1512148666.369812: $GPZDA,171747.00,01,12,2017,00,00*63
2017-12-01 12:17:46 1512148666.369974: $GPGGA,171747,3946.9573,N,08404.9832,W,2,10,0.80,299.12,M,-33.324,M,,*78
2017-12-01 12:17:46 1512148666.370059: $GPRMC,171747,A,3946.9573,N,08404.9832,W,0.0000,0.000,011217,,*30
2017-12-01 12:17:46 1512148666.370123: $GPGSA,A,3,10,13,15,18,20,21,24,5,32,138,,,2.0,0.8,1.5*3B
2017-12-01 12:17:47 1512148667.721044: $GPGSV,3,1,12,10,23,283,41,13,29,045,44,15,61,051,46,18,54,300,45*73
2017-12-01 12:17:47 1512148667.721221: $GPGSV,3,2,12,20,52,072,46,21,78,267,42,24,33,138,48,27,16,313,36*76
2017-12-01 12:17:47 1512148667.721289: $GPGSV,3,3,12,29,10,189,29,05,03,087,18,32,01,225,18,138,38,213,46*44
2017-12-01 12:17:47 1512148667.834649: $GPZDA,171748.00,01,12,2017,00,00*6C
2017-12-01 12:17:47 1512148667.834809: $GPGGA,171748,3946.9574,N,08404.9839,W,2,12,0.80,299.05,M,-33.324,M,,*7F
2017-12-01 12:17:47 1512148667.834875: $GPRMC,171748,A,3946.9574,N,08404.9839,W,0.0000,0.000,011217,,*33
2017-12-01 12:17:47 1512148667.834935: $GPGSA,A,3,10,13,15,18,20,21,24,27,29,5,32,138,2.0,0.8,1.5*35
2017-12-01 12:17:48 1512148668.363106: $GPZDA,171749.00,01,12,2017,00,00*6D
2017-12-01 12:17:48 1512148668.363277: $GPGGA,171749,3946.9574,N,08404.9839,W,2,12,0.80,299.05,M,-33.324,M,,*7E
2017-12-01 12:17:48 1512148668.363344: $GPRMC,171749,A,3946.9574,N,08404.9839,W,0.0000,0.000,011217,,*32
2017-12-01 12:17:48 1512148668.363405: $GPGSA,A,3,10,13,15,18,20,21,24,27,29,5,32,138,2.0,0.8,1.5*35
