2017-12-14 11:51:43 1513270303.595228: {"class":"VERSION","release":"3.16","rev":"3.16-4","proto_major":3,"proto_minor":11}
2017-12-14 11:51:43 1513270303.595688: {"class":"DEVICES","devices":[{"class":"DEVICE","path":"/dev/ttyUSB0","driver":"SiRF","subtype":"9\u0006GSD4e_4.1.2-P1_RPATCH.05-F-GPS-4R-1510281 11/03/2015 307","activated":"2017-12-14T16:51:43.376Z","flags":1,"native":1,"bps":4800,"parity":"N","stopbits":1,"cycle":1.00}]}
2017-12-14 11:51:43 1513270303.595805: {"class":"WATCH","enable":true,"json":false,"nmea":true,"raw":0,"scaled":false,"timing":false,"split24":false,"pps":false}
2017-12-14 11:51:44 1513270304.554535: $GPGSV,3,1,11,15,48,049,27,24,43,127,27,20,43,085,23,10,32,292,19*73
2017-12-14 11:51:44 1513270304.554734: $GPGSV,3,2,11,18,63,316,05,27,19,301,09,21,74,205,19,13,18,046,00*75
2017-12-14 11:51:44 1513270304.554801: $GPGSV,3,3,11,32,11,231,00,08,01,331,00,138,38,213,00*71
2017-12-14 11:51:44 1513270304.668114: $GPZDA,165145.00,14,12,2017,00,00*66
2017-12-14 11:51:44 1513270304.668286: $GPGGA,165145,3946.9448,N,08404.9463,W,1,06,2.20,362.85,M,-33.324,M,,*7F
2017-12-14 11:51:44 1513270304.668353: $GPRMC,165145,A,3946.9448,N,08404.9463,W,0.0000,0.000,141217,,*34
2017-12-14 11:51:44 1513270304.668414: $GPGSA,A,3,15,24,20,10,27,21,,,,,,,6.6,2.2,6.2*31
2017-12-14 11:51:45 1513270305.234518: $GPZDA,165146.00,14,12,2017,00,00*65
2017-12-14 11:51:45 1513270305.234667: $GPGGA,165146,3946.9448,N,08404.9463,W,1,06,2.20,362.85,M,-33.324,M,,*7C
2017-12-14 11:51:45 1513270305.234733: $GPRMC,165146,A,3946.9448,N,08404.9463,W,0.0000,0.000,141217,,*37
2017-12-14 11:51:45 1513270305.234795: $GPGSA,A,3,15,24,20,10,27,21,,,,,,,6.6,2.2,6.2*31
2017-12-14 11:51:46 1513270306.218574: $GPZDA,165147.00,14,12,2017,00,00*64
2017-12-14 11:51:46 1513270306.218743: $GPGGA,165147,3946.9452,N,08404.9462,W,1,06,2.20,362.09,M,-33.324,M,,*73
2017-12-14 11:51:46 1513270306.218831: $GPRMC,165147,A,3946.9452,N,08404.9462,W,0.4844,273.794,141217,,*3C
2017-12-14 11:51:46 1513270306.218895: $GPGSA,A,3,15,24,20,10,27,21,,,,,,,6.6,2.2,6.2*31
2017-12-14 11:51:47 1513270307.570701: $GPGSV,3,1,11,15,48,049,26,24,43,127,27,20,43,085,23,10,32,292,19*72
2017-12-14 11:51:47 1513270307.570887: $GPGSV,3,2,11,18,63,316,04,27,19,301,08,21,74,205,18,13,18,046,00*74
2017-12-14 11:51:47 1513270307.570954: $GPGSV,3,3,11,32,11,231,00,08,01,331,00,138,38,213,00*71
2017-12-14 11:51:47 1513270307.684343: $GPZDA,165148.00,14,12,2017,00,00*6B
2017-12-14 11:51:47 1513270307.684529: $GPGGA,165148,3946.9448,N,08404.9462,W,1,06,2.20,361.45,M,-33.324,M,,*7C
2017-12-14 11:51:47 1513270307.684596: $GPRMC,165148,A,3946.9448,N,08404.9462,W,0.2422,273.794,141217,,*32
2017-12-14 11:51:47 1513270307.684659: $GPGSA,A,3,15,24,20,10,27,21,,,,,,,6.6,2.2,6.2*31
2017-12-14 11:51:48 1513270308.236604: $GPZDA,165149.00,14,12,2017,00,00*6A
2017-12-14 11:51:48 1513270308.236771: $GPGGA,165149,3946.9448,N,08404.9469,W,1,06,2.20,361.37,M,-33.324,M,,*73
2017-12-14 11:51:48 1513270308.236839: $GPRMC,165149,A,3946.9448,N,08404.9469,W,0.0000,0.000,141217,,*32
2017-12-14 11:51:48 1513270308.236903: $GPGSA,A,3,15,24,20,10,27,21,,,,,,,6.6,2.2,6.2*31
2017-12-14 11:51:49 1513270309.235123: $GPZDA,165150.00,14,12,2017,00,00*62
2017-12-14 11:51:49 1513270309.235297: $GPGGA,165150,3946.9451,N,08404.9469,W,1,06,2.20,360.60,M,-33.324,M,,*70
2017-12-14 11:51:49 1513270309.235364: $GPRMC,165150,A,3946.9451,N,08404.9469,W,0.0000,0.000,141217,,*32
2017-12-14 11:51:49 1513270309.235425: $GPGSA,A,3,15,24,20,10,27,21,,,,,,,6.6,2.2,6.2*31
2017-12-14 11:51:50 1513270310.571313: $GPGSV,3,1,11,15,48,049,26,24,43,127,28,20,43,085,23,10,32,292,19*7D
2017-12-14 11:51:50 1513270310.571493: $GPGSV,3,2,11,18,63,316,04,27,19,301,09,21,74,205,18,13,18,046,00*75
2017-12-14 11:51:50 1513270310.571560: $GPGSV,3,3,11,32,11,231,00,08,01,331,00,138,38,213,00*71
2017-12-14 11:51:50 1513270310.685037: $GPZDA,165151.00,14,12,2017,00,00*63
2017-12-14 11:51:50 1513270310.685220: $GPGGA,165151,3946.9451,N,08404.9468,W,1,06,2.20,359.20,M,-33.324,M,,*7E
2017-12-14 11:51:50 1513270310.685290: $GPRMC,165151,A,3946.9451,N,08404.9468,W,0.3423,4.197,141217,,*3F
2017-12-14 11:51:50 1513270310.685405: $GPGSA,A,3,15,24,20,10,27,21,,,,,,,6.6,2.2,6.2*31
2017-12-14 11:51:51 1513270311.236092: $GPZDA,165152.00,14,12,2017,00,00*60
2017-12-14 11:51:51 1513270311.236264: $GPGGA,165152,3946.9451,N,08404.9468,W,1,06,2.20,359.20,M,-33.324,M,,*7D
2017-12-14 11:51:51 1513270311.236332: $GPRMC,165152,A,3946.9451,N,08404.9468,W,0.0000,0.000,141217,,*31
2017-12-14 11:51:51 1513270311.236394: $GPGSA,A,3,15,24,20,10,27,21,,,,,,,6.6,2.2,6.2*31
2017-12-14 11:51:52 1513270312.239948: $GPZDA,165153.00,14,12,2017,00,00*61
2017-12-14 11:51:52 1513270312.240120: $GPGGA,165153,3946.9451,N,08404.9468,W,1,06,2.20,359.20,M,-33.324,M,,*7C
2017-12-14 11:51:52 1513270312.240188: $GPRMC,165153,A,3946.9451,N,08404.9468,W,0.0000,0.000,141217,,*30
2017-12-14 11:51:52 1513270312.240251: $GPGSA,A,3,15,24,20,10,27,21,,,,,,,6.6,2.2,6.2*31
2017-12-14 11:51:53 1513270313.570681: $GPGSV,3,1,11,15,48,049,26,24,43,127,28,20,43,085,23,10,32,292,19*7D
2017-12-14 11:51:53 1513270313.570869: $GPGSV,3,2,11,18,63,316,04,27,19,301,08,21,74,205,17,13,18,046,00*7B
2017-12-14 11:51:53 1513270313.570935: $GPGSV,3,3,11,32,11,231,00,08,01,331,00,120,07,103,00*76
2017-12-14 11:51:53 1513270313.684307: $GPZDA,165154.00,14,12,2017,00,00*66
2017-12-14 11:51:53 1513270313.684479: $GPGGA,165154,3946.9450,N,08404.9461,W,1,06,2.20,359.28,M,-33.324,M,,*7B
2017-12-14 11:51:53 1513270313.684549: $GPRMC,165154,A,3946.9450,N,08404.9461,W,0.4179,328.778,141217,,*35
2017-12-14 11:51:53 1513270313.684611: $GPGSA,A,3,15,24,20,10,27,21,,,,,,,6.6,2.2,6.2*31
2017-12-14 11:51:54 1513270314.217932: $GPZDA,165155.00,14,12,2017,00,00*67
2017-12-14 11:51:54 1513270314.218111: $GPGGA,165155,3946.9450,N,08404.9461,W,1,06,1.80,359.28,M,-33.324,M,,*73
2017-12-14 11:51:54 1513270314.218177: $GPRMC,165155,A,3946.9450,N,08404.9461,W,0.4207,219.347,141217,,*35
2017-12-14 11:51:54 1513270314.218240: $GPGSA,A,3,15,24,20,10,27,21,,,,,,,6.6,1.8,6.2*38
2017-12-14 11:51:55 1513270315.235568: $GPZDA,165156.00,14,12,2017,00,00*64
2017-12-14 11:51:55 1513270315.235772: $GPGGA,165156,3946.9454,N,08404.9460,W,1,06,2.20,358.51,M,-33.324,M,,*73
2017-12-14 11:51:55 1513270315.235843: $GPRMC,165156,A,3946.9454,N,08404.9460,W,0.0000,0.000,141217,,*38
2017-12-14 11:51:55 1513270315.235904: $GPGSA,A,3,15,24,20,10,27,21,,,,,,,6.6,2.2,6.2*31
2017-12-14 11:51:56 1513270316.570507: $GPGSV,3,1,11,15,48,049,26,24,43,127,28,20,43,085,23,10,32,292,19*7D
2017-12-14 11:51:56 1513270316.570701: $GPGSV,3,2,11,18,63,316,04,27,19,301,07,21,74,205,16,13,18,046,00*75
2017-12-14 11:51:56 1513270316.570795: $GPGSV,3,3,11,32,11,231,00,08,01,331,00,120,07,103,00*76
2017-12-14 11:51:56 1513270316.684686: $GPZDA,165157.00,14,12,2017,00,00*65
2017-12-14 11:51:56 1513270316.684902: $GPGGA,165157,3946.9453,N,08404.9453,W,1,06,1.80,358.59,M,-33.324,M,,*74
2017-12-14 11:51:56 1513270316.684973: $GPRMC,165157,A,3946.9453,N,08404.9453,W,0.4844,93.794,141217,,*02
2017-12-14 11:51:56 1513270316.685039: $GPGSA,A,3,15,24,20,10,27,21,,,,,,,6.6,1.8,6.2*38
2017-12-14 11:51:57 1513270317.233227: $GPZDA,165158.00,14,12,2017,00,00*6A
2017-12-14 11:51:57 1513270317.233392: $GPGGA,165158,3946.9453,N,08404.9453,W,1,06,1.80,358.59,M,-33.324,M,,*7B
2017-12-14 11:51:57 1513270317.233459: $GPRMC,165158,A,3946.9453,N,08404.9453,W,0.4207,39.347,141217,,*0A
2017-12-14 11:51:57 1513270317.233520: $GPGSA,A,3,15,24,20,10,27,21,,,,,,,6.6,1.8,6.2*38
2017-12-14 11:51:58 1513270318.216425: $GPZDA,165159.00,14,12,2017,00,00*6B
2017-12-14 11:51:58 1513270318.216610: $GPGGA,165159,3946.9453,N,08404.9453,W,1,06,1.80,358.59,M,-33.324,M,,*7A
2017-12-14 11:51:58 1513270318.216676: $GPRMC,165159,A,3946.9453,N,08404.9453,W,0.3423,4.197,141217,,*3D
2017-12-14 11:51:58 1513270318.216741: $GPGSA,A,3,15,24,20,10,27,21,,,,,,,6.6,1.8,6.2*38
2017-12-14 11:51:59 1513270319.568623: $GPGSV,3,1,11,15,48,049,26,24,43,127,28,20,43,085,23,10,32,292,20*77
2017-12-14 11:51:59 1513270319.568829: $GPGSV,3,2,11,18,63,316,00,27,19,301,05,21,74,205,16,13,18,046,00*73
2017-12-14 11:51:59 1513270319.568950: $GPGSV,3,3,11,32,11,231,00,08,01,331,00,120,07,103,00*76
2017-12-14 11:51:59 1513270319.682445: $GPZDA,165200.00,14,12,2017,00,00*64
2017-12-14 11:51:59 1513270319.682614: $GPGGA,165200,3946.9453,N,08404.9453,W,1,05,1.80,358.59,M,-33.324,M,,*76
2017-12-14 11:51:59 1513270319.682682: $GPRMC,165200,A,3946.9453,N,08404.9453,W,0.7238,320.710,141217,,*36
2017-12-14 11:51:59 1513270319.682747: $GPGSA,A,3,15,24,20,10,21,,,,,,,,6.6,1.8,6.2*3D
2017-12-14 11:52:00 1513270320.217281: $GPZDA,165201.00,14,12,2017,00,00*65
2017-12-14 11:52:00 1513270320.217468: $GPGGA,165201,3946.9458,N,08404.9460,W,1,05,1.80,359.15,M,-33.324,M,,*75
2017-12-14 11:52:00 1513270320.217535: $GPRMC,165201,A,3946.9458,N,08404.9460,W,0.5912,309.173,141217,,*35
2017-12-14 11:52:00 1513270320.217600: $GPGSA,A,3,15,24,20,10,21,,,,,,,,6.6,1.8,6.2*3D
2017-12-14 11:52:01 1513270321.233574: $GPZDA,165202.00,14,12,2017,00,00*66
2017-12-14 11:52:01 1513270321.233754: $GPGGA,165202,3946.9461,N,08404.9453,W,1,05,1.80,358.47,M,-33.324,M,,*7A
2017-12-14 11:52:01 1513270321.233829: $GPRMC,165202,A,3946.9461,N,08404.9453,W,0.7246,344.668,141217,,*30
2017-12-14 11:52:01 1513270321.233890: $GPGSA,A,3,15,24,20,10,21,,,,,,,,6.6,1.8,6.2*3D
2017-12-14 11:52:02 1513270322.569863: $GPGSV,3,1,11,15,48,049,26,24,43,127,28,20,43,085,22,10,32,292,20*76
2017-12-14 11:52:02 1513270322.570056: $GPGSV,3,2,11,18,63,316,00,27,19,301,04,21,74,205,15,13,18,046,00*71
2017-12-14 11:52:02 1513270322.570125: $GPGSV,3,3,11,32,11,231,00,08,01,331,00,120,07,103,00*76
2017-12-14 11:52:02 1513270322.683293: $GPZDA,165203.00,14,12,2017,00,00*67
2017-12-14 11:52:02 1513270322.683462: $GPGGA,165203,3946.9458,N,08404.9453,W,1,05,1.80,359.23,M,-33.324,M,,*72
2017-12-14 11:52:02 1513270322.683528: $GPRMC,165203,A,3946.9458,N,08404.9453,W,0.4844,273.794,141217,,*37
2017-12-14 11:52:02 1513270322.683588: $GPGSA,A,3,15,24,20,10,21,,,,,,,,6.6,1.8,6.2*3D
2017-12-14 11:52:03 1513270323.234296: $GPZDA,165204.00,14,12,2017,00,00*60
2017-12-14 11:52:03 1513270323.234480: $GPGGA,165204,3946.9461,N,08404.9453,W,1,05,1.80,358.47,M,-33.324,M,,*7C
2017-12-14 11:52:03 1513270323.234548: $GPRMC,165204,A,3946.9461,N,08404.9453,W,0.5857,338.291,141217,,*37
2017-12-14 11:52:03 1513270323.234610: $GPGSA,A,3,15,24,20,10,21,,,,,,,,6.6,1.8,6.2*3D
