2017-12-01 15:18:21 1512159501.046871: {"class":"VERSION","release":"3.16","rev":"3.16-4","proto_major":3,"proto_minor":11}
2017-12-01 15:18:21 1512159501.047364: {"class":"DEVICES","devices":[{"class":"DEVICE","path":"/dev/ttyUSB0","driver":"SiRF","subtype":"9\u0006GSD4e_4.1.2-P1_RPATCH.05-F-GPS-4R-1510281 11/03/2015 307","activated":"2017-12-01T20:18:20.972Z","flags":1,"native":1,"bps":4800,"parity":"N","stopbits":1,"cycle":1.00}]}
2017-12-01 15:18:21 1512159501.047481: {"class":"WATCH","enable":true,"json":false,"nmea":true,"raw":0,"scaled":false,"timing":false,"split24":false,"pps":false}
2017-12-01 15:18:21 1512159501.382964: $GPZDA,201822.00,01,12,2017,00,00*6B
2017-12-01 15:18:21 1512159501.383183: $GPGGA,201822,3946.9580,N,08404.9850,W,2,12,0.80,294.55,M,-33.324,M,,*74
2017-12-01 15:18:21 1512159501.383252: $GPRMC,201822,A,3946.9580,N,08404.9850,W,0.0000,0.000,011217,,*30
2017-12-01 15:18:21 1512159501.383313: $GPGSA,A,3,10,12,14,18,24,25,31,32,1,11,21,138,2.0,0.8,1.5*38
2017-12-01 15:18:22 1512159502.382442: $GPZDA,201823.00,01,12,2017,00,00*6A
2017-12-01 15:18:22 1512159502.382618: $GPGGA,201823,3946.9580,N,08404.9850,W,2,12,0.80,294.55,M,-33.324,M,,*75
2017-12-01 15:18:22 1512159502.382684: $GPRMC,201823,A,3946.9580,N,08404.9850,W,0.0000,0.000,011217,,*31
2017-12-01 15:18:22 1512159502.382745: $GPGSA,A,3,10,12,14,18,24,25,31,32,1,11,21,138,2.0,0.8,1.5*38
2017-12-01 15:18:23 1512159503.728104: $GPGSV,3,1,12,10,81,097,46,12,22,085,45,14,46,277,43,18,49,127,48*7D
2017-12-01 15:18:23 1512159503.728276: $GPGSV,3,2,12,24,24,046,45,25,21,126,42,31,23,207,43,32,62,301,48*75
2017-12-01 15:18:23 1512159503.728342: $GPGSV,3,3,12,01,06,325,34,11,08,312,36,21,05,174,02,138,38,213,46*46
2017-12-01 15:18:23 1512159503.841627: $GPZDA,201824.00,01,12,2017,00,00*6D
2017-12-01 15:18:23 1512159503.841792: $GPGGA,201824,3946.9580,N,08404.9850,W,2,11,0.80,294.55,M,-33.324,M,,*71
2017-12-01 15:18:23 1512159503.841859: $GPRMC,201824,A,3946.9580,N,08404.9850,W,0.0000,0.000,011217,,*36
2017-12-01 15:18:23 1512159503.841920: $GPGSA,A,3,10,12,14,18,24,25,31,32,1,11,138,,2.0,0.8,1.5*3B
2017-12-01 15:18:24 1512159504.386597: $GPZDA,201825.00,01,12,2017,00,00*6C
2017-12-01 15:18:24 1512159504.386879: $GPGGA,201825,3946.9580,N,08404.9850,W,2,11,0.80,294.55,M,-33.324,M,,*70
2017-12-01 15:18:24 1512159504.387049: $GPRMC,201825,A,3946.9580,N,08404.9850,W,0.0000,0.000,011217,,*37
2017-12-01 15:18:24 1512159504.387166: $GPGSA,A,3,10,12,14,18,24,25,31,32,1,11,138,,2.0,0.8,1.5*3B
2017-12-01 15:18:25 1512159505.383990: $GPZDA,201826.00,01,12,2017,00,00*6F
2017-12-01 15:18:25 1512159505.384194: $GPGGA,201826,3946.9580,N,08404.9850,W,2,11,0.80,294.55,M,-33.324,M,,*73
2017-12-01 15:18:25 1512159505.384262: $GPRMC,201826,A,3946.9580,N,08404.9850,W,0.0000,0.000,011217,,*34
2017-12-01 15:18:25 1512159505.384323: $GPGSA,A,3,10,12,14,18,24,25,31,32,1,11,138,,2.0,0.8,1.5*3B
2017-12-01 15:18:26 1512159506.719722: $GPGSV,3,1,12,10,81,097,47,12,22,085,45,14,46,277,43,18,49,127,48*7C
2017-12-01 15:18:26 1512159506.719903: $GPGSV,3,2,12,24,24,046,45,25,21,126,42,31,23,207,43,32,62,301,48*75
2017-12-01 15:18:26 1512159506.719970: $GPGSV,3,3,12,01,06,325,34,11,08,312,36,21,05,174,16,138,38,213,45*40
2017-12-01 15:18:26 1512159506.833552: $GPZDA,201827.00,01,12,2017,00,00*6E
2017-12-01 15:18:26 1512159506.833819: $GPGGA,201827,3946.9576,N,08404.9851,W,2,12,0.80,295.31,M,-33.324,M,,*7A
2017-12-01 15:18:26 1512159506.833944: $GPRMC,201827,A,3946.9576,N,08404.9851,W,0.0000,0.000,011217,,*3D
2017-12-01 15:18:26 1512159506.834076: $GPGSA,A,3,10,12,14,18,24,25,31,32,1,11,21,138,2.0,0.8,1.5*38
2017-12-01 15:18:27 1512159507.384019: $GPZDA,201828.00,01,12,2017,00,00*61
2017-12-01 15:18:27 1512159507.384206: $GPGGA,201828,3946.9576,N,08404.9851,W,2,12,0.80,295.31,M,-33.324,M,,*75
2017-12-01 15:18:27 1512159507.384274: $GPRMC,201828,A,3946.9576,N,08404.9851,W,0.0000,0.000,011217,,*32
2017-12-01 15:18:27 1512159507.384335: $GPGSA,A,3,10,12,14,18,24,25,31,32,1,11,21,138,2.0,0.8,1.5*38
2017-12-01 15:18:28 1512159508.384927: $GPZDA,201829.00,01,12,2017,00,00*60
2017-12-01 15:18:28 1512159508.385179: $GPGGA,201829,3946.9576,N,08404.9851,W,2,12,0.80,295.31,M,-33.324,M,,*74
2017-12-01 15:18:28 1512159508.385250: $GPRMC,201829,A,3946.9576,N,08404.9851,W,0.0000,0.000,011217,,*33
2017-12-01 15:18:28 1512159508.385312: $GPGSA,A,3,10,12,14,18,24,25,31,32,1,11,21,138,2.0,0.8,1.5*38
2017-12-01 15:18:29 1512159509.719360: $GPGSV,3,1,12,10,81,097,47,12,22,085,44,14,46,277,43,18,49,127,48*7D
2017-12-01 15:18:29 1512159509.719541: $GPGSV,3,2,12,24,24,046,45,25,21,126,42,31,23,207,44,32,62,301,47*7D
2017-12-01 15:18:29 1512159509.719610: $GPGSV,3,3,12,01,06,325,34,11,08,312,36,21,05,174,18,138,38,213,46*4D
2017-12-01 15:18:29 1512159509.832789: $GPZDA,201830.00,01,12,2017,00,00*68
2017-12-01 15:18:29 1512159509.832962: $GPGGA,201830,3946.9576,N,08404.9844,W,2,12,0.80,295.39,M,-33.324,M,,*70
2017-12-01 15:18:29 1512159509.833050: $GPRMC,201830,A,3946.9576,N,08404.9844,W,0.0000,0.000,011217,,*3F
2017-12-01 15:18:29 1512159509.833113: $GPGSA,A,3,10,12,14,18,24,25,31,32,1,11,21,138,2.0,0.8,1.5*38
2017-12-01 15:18:30 1512159510.458513: $GPZDA,201831.00,01,12,2017,00,00*69
2017-12-01 15:18:30 1512159510.458670: $GPGGA,201831,3946.9576,N,08404.9844,W,2,12,0.80,295.39,M,-33.324,M,,*71
2017-12-01 15:18:30 1512159510.458736: $GPRMC,201831,A,3946.9576,N,08404.9844,W,0.0000,0.000,011217,,*3E
2017-12-01 15:18:30 1512159510.458797: $GPGSA,A,3,10,12,14,18,24,25,31,32,1,11,21,138,2.0,0.8,1.5*38
2017-12-01 15:18:31 1512159511.385618: $GPZDA,201832.00,01,12,2017,00,00*6A
2017-12-01 15:18:31 1512159511.385788: $GPGGA,201832,3946.9576,N,08404.9844,W,2,12,0.80,295.39,M,-33.324,M,,*72
2017-12-01 15:18:31 1512159511.385854: $GPRMC,201832,A,3946.9576,N,08404.9844,W,0.0000,0.000,011217,,*3D
2017-12-01 15:18:31 1512159511.385914: $GPGSA,A,3,10,12,14,18,24,25,31,32,1,11,21,138,2.0,0.8,1.5*38
2017-12-01 15:18:32 1512159512.719720: $GPGSV,3,1,12,10,81,097,46,12,22,085,44,14,46,277,43,18,49,127,48*7C
2017-12-01 15:18:32 1512159512.719902: $GPGSV,3,2,12,24,24,046,45,25,21,126,42,31,23,207,44,32,62,301,48*72
2017-12-01 15:18:32 1512159512.719968: $GPGSV,3,3,12,01,06,325,34,11,08,312,35,21,05,174,18,138,38,213,46*4E
2017-12-01 15:18:32 1512159512.833169: $GPZDA,201833.00,01,12,2017,00,00*6B
2017-12-01 15:18:32 1512159512.833333: $GPGGA,201833,3946.9576,N,08404.9844,W,2,12,0.80,295.39,M,-33.324,M,,*73
2017-12-01 15:18:32 1512159512.833398: $GPRMC,201833,A,3946.9576,N,08404.9844,W,0.0000,0.000,011217,,*3C
2017-12-01 15:18:32 1512159512.833459: $GPGSA,A,3,10,12,14,18,24,25,31,32,1,11,21,138,2.0,0.8,1.5*38
2017-12-01 15:18:33 1512159513.383160: $GPZDA,201834.00,01,12,2017,00,00*6C
2017-12-01 15:18:33 1512159513.383476: $GPGGA,201834,3946.9580,N,08404.9844,W,2,12,0.80,296.03,M,-33.324,M,,*77
2017-12-01 15:18:33 1512159513.383600: $GPRMC,201834,A,3946.9580,N,08404.9844,W,0.0000,0.000,011217,,*32
2017-12-01 15:18:33 1512159513.383729: $GPGSA,A,3,10,12,14,18,24,25,31,32,1,11,21,138,2.0,0.8,1.5*38
2017-12-01 15:18:34 1512159514.383690: $GPZDA,201835.00,01,12,2017,00,00*6D
2017-12-01 15:18:34 1512159514.383845: $GPGGA,201835,3946.9580,N,08404.9844,W,2,12,0.80,296.03,M,-33.324,M,,*76
2017-12-01 15:18:34 1512159514.383911: $GPRMC,201835,A,3946.9580,N,08404.9844,W,0.0000,0.000,011217,,*33
2017-12-01 15:18:34 1512159514.383971: $GPGSA,A,3,10,12,14,18,24,25,31,32,1,11,21,138,2.0,0.8,1.5*38
2017-12-01 15:18:35 1512159515.720214: $GPGSV,3,1,12,10,81,097,47,12,22,085,44,14,46,277,43,18,49,127,48*7D
2017-12-01 15:18:35 1512159515.720423: $GPGSV,3,2,12,24,24,046,46,25,21,126,42,31,23,207,44,32,62,301,47*7E
2017-12-01 15:18:35 1512159515.720491: $GPGSV,3,3,12,01,06,325,35,11,08,312,31,21,05,174,19,138,38,213,46*4A
2017-12-01 15:18:35 1512159515.833490: $GPZDA,201836.00,01,12,2017,00,00*6E
2017-12-01 15:18:35 1512159515.833665: $GPGGA,201836,3946.9580,N,08404.9844,W,2,12,0.80,296.03,M,-33.324,M,,*75
2017-12-01 15:18:35 1512159515.833731: $GPRMC,201836,A,3946.9580,N,08404.9844,W,0.0000,0.000,011217,,*30
2017-12-01 15:18:35 1512159515.833792: $GPGSA,A,3,10,12,14,18,24,25,31,32,1,11,21,138,2.0,0.8,1.5*38
2017-12-01 15:18:36 1512159516.383138: $GPZDA,201837.00,01,12,2017,00,00*6F
2017-12-01 15:18:36 1512159516.383322: $GPGGA,201837,3946.9580,N,08404.9844,W,2,12,0.80,296.03,M,-33.324,M,,*74
2017-12-01 15:18:36 1512159516.383390: $GPRMC,201837,A,3946.9580,N,08404.9844,W,0.0000,0.000,011217,,*31
2017-12-01 15:18:36 1512159516.383452: $GPGSA,A,3,10,12,14,18,24,25,31,32,1,11,21,138,2.0,0.8,1.5*38
2017-12-01 15:18:37 1512159517.382751: $GPZDA,201838.00,01,12,2017,00,00*60
2017-12-01 15:18:37 1512159517.382925: $GPGGA,201838,3946.9580,N,08404.9844,W,2,12,0.80,296.03,M,-33.324,M,,*7B
2017-12-01 15:18:37 1512159517.382992: $GPRMC,201838,A,3946.9580,N,08404.9844,W,0.0000,0.000,011217,,*3E
2017-12-01 15:18:37 1512159517.383053: $GPGSA,A,3,10,12,14,18,24,25,31,32,1,11,21,138,2.0,0.8,1.5*38
2017-12-01 15:18:38 1512159518.734762: $GPGSV,3,1,12,10,81,097,47,12,22,085,44,14,46,277,42,18,49,127,48*7C
2017-12-01 15:18:38 1512159518.734946: $GPGSV,3,2,12,24,24,046,46,25,21,126,42,31,23,207,44,32,62,301,48*71
2017-12-01 15:18:38 1512159518.735013: $GPGSV,3,3,12,01,06,325,35,11,08,312,35,21,05,174,19,138,38,213,46*4E
2017-12-01 15:18:38 1512159518.848217: $GPZDA,201839.00,01,12,2017,00,00*61
2017-12-01 15:18:38 1512159518.848353: $GPGGA,201839,3946.9580,N,08404.9844,W,2,12,0.80,296.03,M,-33.324,M,,*7A
2017-12-01 15:18:38 1512159518.848417: $GPRMC,201839,A,3946.9580,N,08404.9844,W,0.0000,0.000,011217,,*3F
2017-12-01 15:18:38 1512159518.848478: $GPGSA,A,3,10,12,14,18,24,25,31,32,1,11,21,138,2.0,0.8,1.5*38
2017-12-01 15:18:39 1512159519.400237: $GPZDA,201840.00,01,12,2017,00,00*6F
2017-12-01 15:18:39 1512159519.400411: $GPGGA,201840,3946.9580,N,08404.9844,W,2,12,0.80,296.03,M,-33.324,M,,*74
2017-12-01 15:18:39 1512159519.400478: $GPRMC,201840,A,3946.9580,N,08404.9844,W,0.0000,0.000,011217,,*31
2017-12-01 15:18:39 1512159519.400539: $GPGSA,A,3,10,12,14,18,24,25,31,32,1,11,21,138,2.0,0.8,1.5*38
2017-12-01 15:18:40 1512159520.399713: $GPZDA,201841.00,01,12,2017,00,00*6E
2017-12-01 15:18:40 1512159520.399878: $GPGGA,201841,3946.9577,N,08404.9845,W,2,12,0.80,296.80,M,-33.324,M,,*77
2017-12-01 15:18:40 1512159520.399944: $GPRMC,201841,A,3946.9577,N,08404.9845,W,0.0000,0.000,011217,,*39
2017-12-01 15:18:40 1512159520.400024: $GPGSA,A,3,10,12,14,18,24,25,31,32,1,11,21,138,2.0,0.8,1.5*38
