2017-12-29 11:48:39 1514566119.531964: {"class":"VERSION","release":"3.16","rev":"3.16-4","proto_major":3,"proto_minor":11}
2017-12-29 11:48:39 1514566119.532383: {"class":"DEVICES","devices":[{"class":"DEVICE","path":"/dev/ttyUSB0","driver":"SiRF","subtype":"9\u0006GSD4e_4.1.2-P1_RPATCH.05-F-GPS-4R-1510281 11/03/2015 307","activated":"2017-12-29T16:48:39.233Z","flags":1,"native":1,"bps":4800,"parity":"N","stopbits":1,"cycle":1.00}]}
2017-12-29 11:48:39 1514566119.532497: {"class":"WATCH","enable":true,"json":false,"nmea":true,"raw":0,"scaled":false,"timing":false,"split24":false,"pps":false}
2017-12-29 11:48:39 1514566119.683243: $GPGSV,3,1,11,08,08,310,28,10,53,312,46,14,14,240,00,15,25,057,45*70
2017-12-29 11:48:39 1514566119.683410: $GPGSV,3,2,11,18,77,027,45,20,24,106,49,21,48,183,48,24,53,085,51*7B
2017-12-29 11:48:39 1514566119.683475: $GPGSV,3,3,11,27,15,276,30,32,33,249,38,138,38,213,45*7D
2017-12-29 11:48:39 1514566119.796717: $GPZDA,164840.00,29,12,2017,00,00*65
2017-12-29 11:48:39 1514566119.796884: $GPGGA,164840,3946.9595,N,08404.9815,W,2,10,1.00,322.43,M,-33.324,M,,*75
2017-12-29 11:48:39 1514566119.796951: $GPRMC,164840,A,3946.9595,N,08404.9815,W,0.0000,0.000,291217,,*3B
2017-12-29 11:48:39 1514566119.797011: $GPGSA,A,3,8,10,15,18,20,21,24,27,32,138,,,1.7,1.0,1.3*3A
2017-12-29 11:48:40 1514566120.338760: $GPZDA,164841.00,29,12,2017,00,00*64
2017-12-29 11:48:40 1514566120.338936: $GPGGA,164841,3946.9595,N,08404.9815,W,2,10,1.00,322.43,M,-33.324,M,,*74
2017-12-29 11:48:40 1514566120.339002: $GPRMC,164841,A,3946.9595,N,08404.9815,W,0.0000,0.000,291217,,*3A
2017-12-29 11:48:40 1514566120.339063: $GPGSA,A,3,8,10,15,18,20,21,24,27,32,138,,,1.7,1.0,1.3*3A
2017-12-29 11:48:41 1514566121.352167: $GPZDA,164842.00,29,12,2017,00,00*67
2017-12-29 11:48:41 1514566121.352343: $GPGGA,164842,3946.9595,N,08404.9815,W,2,10,0.80,322.43,M,-33.324,M,,*7E
2017-12-29 11:48:41 1514566121.352411: $GPRMC,164842,A,3946.9595,N,08404.9815,W,0.0000,0.000,291217,,*39
2017-12-29 11:48:41 1514566121.352470: $GPGSA,A,3,8,10,15,18,20,21,24,27,32,138,,,1.7,0.8,1.3*33
2017-12-29 11:48:42 1514566122.669824: $GPGSV,3,1,11,08,08,310,28,10,53,312,46,14,14,240,28,15,25,057,45*7A
2017-12-29 11:48:42 1514566122.670005: $GPGSV,3,2,11,18,77,027,45,20,24,106,49,21,48,183,48,24,53,085,51*7B
2017-12-29 11:48:42 1514566122.670071: $GPGSV,3,3,11,27,15,276,30,32,33,249,38,138,38,213,45*7D
2017-12-29 11:48:42 1514566122.783245: $GPZDA,164843.00,29,12,2017,00,00*66
2017-12-29 11:48:42 1514566122.783419: $GPGGA,164843,3946.9595,N,08404.9815,W,2,11,0.80,322.43,M,-33.324,M,,*7E
2017-12-29 11:48:42 1514566122.783484: $GPRMC,164843,A,3946.9595,N,08404.9815,W,0.0000,0.000,291217,,*38
2017-12-29 11:48:42 1514566122.783545: $GPGSA,A,3,8,10,14,15,18,20,21,24,27,32,138,,1.7,0.8,1.3*36
2017-12-29 11:48:43 1514566123.351701: $GPZDA,164844.00,29,12,2017,00,00*61
2017-12-29 11:48:43 1514566123.351867: $GPGGA,164844,3946.9595,N,08404.9815,W,2,11,0.80,322.43,M,-33.324,M,,*79
2017-12-29 11:48:43 1514566123.351932: $GPRMC,164844,A,3946.9595,N,08404.9815,W,0.0000,0.000,291217,,*3F
2017-12-29 11:48:43 1514566123.351992: $GPGSA,A,3,8,10,14,15,18,20,21,24,27,32,138,,1.7,0.8,1.3*36
2017-12-29 11:48:44 1514566124.351316: $GPZDA,164845.00,29,12,2017,00,00*60
2017-12-29 11:48:44 1514566124.351516: $GPGGA,164845,3946.9595,N,08404.9815,W,2,11,0.80,322.43,M,-33.324,M,,*78
2017-12-29 11:48:44 1514566124.351609: $GPRMC,164845,A,3946.9595,N,08404.9815,W,0.0000,0.000,291217,,*3E
2017-12-29 11:48:44 1514566124.351674: $GPGSA,A,3,8,10,14,15,18,20,21,24,27,32,138,,1.7,0.8,1.3*36
2017-12-29 11:48:45 1514566125.670866: $GPGSV,3,1,11,08,08,310,26,10,53,312,46,14,14,240,28,15,25,057,45*74
2017-12-29 11:48:45 1514566125.671137: $GPGSV,3,2,11,18,77,027,45,20,24,106,49,21,48,183,48,24,53,085,51*7B
2017-12-29 11:48:45 1514566125.671216: $GPGSV,3,3,11,27,15,276,30,32,33,249,38,138,38,213,45*7D
2017-12-29 11:48:45 1514566125.784098: $GPZDA,164846.00,29,12,2017,00,00*63
2017-12-29 11:48:45 1514566125.784271: $GPGGA,164846,3946.9595,N,08404.9815,W,2,11,0.80,322.43,M,-33.324,M,,*7B
2017-12-29 11:48:45 1514566125.784393: $GPRMC,164846,A,3946.9595,N,08404.9815,W,0.0000,0.000,291217,,*3D
2017-12-29 11:48:45 1514566125.784454: $GPGSA,A,3,8,10,14,15,18,20,21,24,27,32,138,,1.7,0.8,1.3*36
2017-12-29 11:48:46 1514566126.327474: $GPZDA,164847.00,29,12,2017,00,00*62
2017-12-29 11:48:46 1514566126.327647: $GPGGA,164847,3946.9595,N,08404.9815,W,2,11,0.80,322.43,M,-33.324,M,,*7A
2017-12-29 11:48:46 1514566126.327713: $GPRMC,164847,A,3946.9595,N,08404.9815,W,0.0000,0.000,291217,,*3C
2017-12-29 11:48:46 1514566126.327773: $GPGSA,A,3,8,10,14,15,18,20,21,24,27,32,138,,1.7,0.8,1.3*36
2017-12-29 11:48:47 1514566127.334079: $GPZDA,164848.00,29,12,2017,00,00*6D
2017-12-29 11:48:47 1514566127.334259: $GPGGA,164848,3946.9595,N,08404.9815,W,2,11,0.80,322.43,M,-33.324,M,,*75
2017-12-29 11:48:47 1514566127.334327: $GPRMC,164848,A,3946.9595,N,08404.9815,W,0.0000,0.000,291217,,*33
2017-12-29 11:48:47 1514566127.334387: $GPGSA,A,3,8,10,14,15,18,20,21,24,27,32,138,,1.7,0.8,1.3*36
2017-12-29 11:48:48 1514566128.669861: $GPGSV,3,1,11,08,08,310,22,10,53,312,46,14,14,240,30,15,25,057,45*79
2017-12-29 11:48:48 1514566128.670048: $GPGSV,3,2,11,18,77,027,46,20,24,106,49,21,48,183,48,24,53,085,51*78
2017-12-29 11:48:48 1514566128.670116: $GPGSV,3,3,11,27,15,276,30,32,33,249,39,138,38,213,45*7C
2017-12-29 11:48:48 1514566128.783220: $GPZDA,164849.00,29,12,2017,00,00*6C
2017-12-29 11:48:48 1514566128.783387: $GPGGA,164849,3946.9595,N,08404.9815,W,2,11,0.80,322.43,M,-33.324,M,,*74
2017-12-29 11:48:48 1514566128.783453: $GPRMC,164849,A,3946.9595,N,08404.9815,W,0.0000,0.000,291217,,*32
2017-12-29 11:48:48 1514566128.783513: $GPGSA,A,3,8,10,14,15,18,20,21,24,27,32,138,,1.7,0.8,1.3*36
2017-12-29 11:48:49 1514566129.335364: $GPZDA,164850.00,29,12,2017,00,00*64
2017-12-29 11:48:49 1514566129.335533: $GPGGA,164850,3946.9595,N,08404.9815,W,2,11,0.80,322.43,M,-33.324,M,,*7C
2017-12-29 11:48:49 1514566129.335598: $GPRMC,164850,A,3946.9595,N,08404.9815,W,0.0000,0.000,291217,,*3A
2017-12-29 11:48:49 1514566129.335659: $GPGSA,A,3,8,10,14,15,18,20,21,24,27,32,138,,1.7,0.8,1.3*36
2017-12-29 11:48:50 1514566130.332785: $GPZDA,164851.00,29,12,2017,00,00*65
2017-12-29 11:48:50 1514566130.333151: $GPGGA,164851,3946.9595,N,08404.9815,W,2,11,0.80,322.43,M,-33.324,M,,*7D
2017-12-29 11:48:50 1514566130.333275: $GPRMC,164851,A,3946.9595,N,08404.9815,W,0.0000,0.000,291217,,*3B
2017-12-29 11:48:50 1514566130.333402: $GPGSA,A,3,8,10,14,15,18,20,21,24,27,32,138,,1.7,0.8,1.3*36
2017-12-29 11:48:51 1514566131.664388: $GPGSV,3,1,11,08,08,310,21,10,53,312,46,14,14,240,34,15,25,057,45*7E
2017-12-29 11:48:51 1514566131.664562: $GPGSV,3,2,11,18,77,027,46,20,24,106,49,21,48,183,48,24,53,085,51*78
2017-12-29 11:48:51 1514566131.664627: $GPGSV,3,3,11,27,15,276,29,32,33,249,38,138,38,213,45*75
2017-12-29 11:48:51 1514566131.777773: $GPZDA,164852.00,29,12,2017,00,00*66
2017-12-29 11:48:51 1514566131.777959: $GPGGA,164852,3946.9595,N,08404.9815,W,2,11,0.80,322.43,M,-33.324,M,,*7E
2017-12-29 11:48:51 1514566131.778026: $GPRMC,164852,A,3946.9595,N,08404.9815,W,0.0000,0.000,291217,,*38
2017-12-29 11:48:51 1514566131.778103: $GPGSA,A,3,8,10,14,15,18,20,21,24,27,32,138,,1.7,0.8,1.3*36
2017-12-29 11:48:52 1514566132.403189: $GPZDA,164853.00,29,12,2017,00,00*67
2017-12-29 11:48:52 1514566132.403364: $GPGGA,164853,3946.9595,N,08404.9815,W,2,11,0.80,322.43,M,-33.324,M,,*7F
2017-12-29 11:48:52 1514566132.403431: $GPRMC,164853,A,3946.9595,N,08404.9815,W,0.0000,0.000,291217,,*39
2017-12-29 11:48:52 1514566132.403491: $GPGSA,A,3,8,10,14,15,18,20,21,24,27,32,138,,1.7,0.8,1.3*36
2017-12-29 11:48:53 1514566133.334093: $GPZDA,164854.00,29,12,2017,00,00*60
2017-12-29 11:48:53 1514566133.334384: $GPGGA,164854,3946.9595,N,08404.9815,W,2,11,1.00,322.43,M,-33.324,M,,*71
2017-12-29 11:48:53 1514566133.334509: $GPRMC,164854,A,3946.9595,N,08404.9815,W,0.0000,0.000,291217,,*3E
2017-12-29 11:48:53 1514566133.334627: $GPGSA,A,3,8,10,14,15,18,20,21,24,27,32,138,,1.7,1.0,1.3*3F
