2017-12-01 14:04:23 1512155063.207967: {"class":"VERSION","release":"3.16","rev":"3.16-4","proto_major":3,"proto_minor":11}
2017-12-01 14:04:23 1512155063.208501: {"class":"DEVICES","devices":[{"class":"DEVICE","path":"/dev/ttyUSB0","driver":"SiRF","subtype":"9\u0006GSD4e_4.1.2-P1_RPATCH.05-F-GPS-4R-1510281 11/03/2015 307","activated":"2017-12-01T19:04:22.567Z","flags":1,"native":1,"bps":4800,"parity":"N","stopbits":1,"cycle":1.00}]}
2017-12-01 14:04:23 1512155063.208620: {"class":"WATCH","enable":true,"json":false,"nmea":true,"raw":0,"scaled":false,"timing":false,"split24":false,"pps":false}
2017-12-01 14:04:23 1512155063.762594: $GPGSV,3,1,12,10,61,321,50,14,22,246,39,15,18,061,39,18,76,066,43*7B
2017-12-01 14:04:23 1512155063.762779: $GPGSV,3,2,12,20,16,112,40,21,38,180,45,24,50,070,48,27,11,267,38*7D
2017-12-01 14:04:23 1512155063.762845: $GPGSV,3,3,12,32,39,256,43,08,08,301,23,12,04,114,22,138,38,213,46*44
2017-12-01 14:04:23 1512155063.875965: $GPZDA,190424.00,01,12,2017,00,00*6A
2017-12-01 14:04:23 1512155063.876101: $GPGGA,190424,3946.9565,N,08404.9843,W,2,12,0.80,304.15,M,-33.324,M,,*70
2017-12-01 14:04:23 1512155063.876166: $GPRMC,190424,A,3946.9565,N,08404.9843,W,0.0000,0.000,011217,,*38
2017-12-01 14:04:23 1512155063.876226: $GPGSA,A,3,10,14,15,18,20,21,24,27,32,8,12,138,2.0,0.8,1.5*37
2017-12-01 14:04:24 1512155064.428113: $GPZDA,190425.00,01,12,2017,00,00*6B
2017-12-01 14:04:24 1512155064.428308: $GPGGA,190425,3946.9565,N,08404.9843,W,2,12,0.80,304.15,M,-33.324,M,,*71
2017-12-01 14:04:24 1512155064.428395: $GPRMC,190425,A,3946.9565,N,08404.9843,W,0.0000,0.000,011217,,*39
2017-12-01 14:04:24 1512155064.428458: $GPGSA,A,3,10,14,15,18,20,21,24,27,32,8,12,138,2.0,0.8,1.5*37
2017-12-01 14:04:25 1512155065.399029: $GPZDA,190426.00,01,12,2017,00,00*68
2017-12-01 14:04:25 1512155065.399200: $GPGGA,190426,3946.9565,N,08404.9843,W,2,12,0.80,304.15,M,-33.324,M,,*72
2017-12-01 14:04:25 1512155065.399285: $GPRMC,190426,A,3946.9565,N,08404.9843,W,0.0000,0.000,011217,,*3A
2017-12-01 14:04:25 1512155065.399348: $GPGSA,A,3,10,14,15,18,20,21,24,27,32,8,12,138,2.0,0.8,1.5*37
2017-12-01 14:04:26 1512155066.732968: $GPGSV,3,1,12,10,61,321,50,14,22,246,39,15,18,061,39,18,76,066,43*7B
2017-12-01 14:04:26 1512155066.733151: $GPGSV,3,2,12,20,16,112,40,21,38,180,45,24,50,070,48,27,11,267,38*7D
2017-12-01 14:04:26 1512155066.733217: $GPGSV,3,3,12,32,39,256,43,08,08,301,24,12,04,114,22,138,38,213,46*43
2017-12-01 14:04:26 1512155066.846392: $GPZDA,190427.00,01,12,2017,00,00*69
2017-12-01 14:04:26 1512155066.846546: $GPGGA,190427,3946.9565,N,08404.9843,W,2,12,0.80,304.15,M,-33.324,M,,*73
2017-12-01 14:04:26 1512155066.846612: $GPRMC,190427,A,3946.9565,N,08404.9843,W,0.0000,0.000,011217,,*3B
2017-12-01 14:04:26 1512155066.846673: $GPGSA,A,3,10,14,15,18,20,21,24,27,32,8,12,138,2.0,0.8,1.5*37
2017-12-01 14:04:27 1512155067.398519: $GPZDA,190428.00,01,12,2017,00,00*66
2017-12-01 14:04:27 1512155067.398684: $GPGGA,190428,3946.9565,N,08404.9843,W,2,12,0.80,304.15,M,-33.324,M,,*7C
2017-12-01 14:04:27 1512155067.398751: $GPRMC,190428,A,3946.9565,N,08404.9843,W,0.0000,0.000,011217,,*34
2017-12-01 14:04:27 1512155067.398813: $GPGSA,A,3,10,14,15,18,20,21,24,27,32,8,12,138,2.0,0.8,1.5*37
2017-12-01 14:04:28 1512155068.398380: $GPZDA,190429.00,01,12,2017,00,00*67
2017-12-01 14:04:28 1512155068.398571: $GPGGA,190429,3946.9565,N,08404.9843,W,2,12,0.80,304.15,M,-33.324,M,,*7D
2017-12-01 14:04:28 1512155068.398639: $GPRMC,190429,A,3946.9565,N,08404.9843,W,0.0000,0.000,011217,,*35
2017-12-01 14:04:28 1512155068.398700: $GPGSA,A,3,10,14,15,18,20,21,24,27,32,8,12,138,2.0,0.8,1.5*37
2017-12-01 14:04:29 1512155069.733969: $GPGSV,3,1,12,10,61,321,50,14,22,246,38,15,18,061,39,18,76,066,43*7A
2017-12-01 14:04:29 1512155069.734176: $GPGSV,3,2,12,20,16,112,40,21,38,180,45,24,50,070,48,27,11,267,38*7D
2017-12-01 14:04:29 1512155069.734274: $GPGSV,3,3,12,32,39,256,43,08,08,301,24,12,04,114,16,138,38,213,47*45
2017-12-01 14:04:29 1512155069.847232: $GPZDA,190430.00,01,12,2017,00,00*6F
2017-12-01 14:04:29 1512155069.847427: $GPGGA,190430,3946.9565,N,08404.9843,W,2,12,0.80,304.15,M,-33.324,M,,*75
2017-12-01 14:04:29 1512155069.847549: $GPRMC,190430,A,3946.9565,N,08404.9843,W,0.0000,0.000,011217,,*3D
2017-12-01 14:04:29 1512155069.847612: $GPGSA,A,3,10,14,15,18,20,21,24,27,32,8,12,138,2.0,0.8,1.5*37
2017-12-01 14:04:30 1512155070.396868: $GPZDA,190431.00,01,12,2017,00,00*6E
2017-12-01 14:04:30 1512155070.397041: $GPGGA,190431,3946.9565,N,08404.9843,W,2,12,0.80,304.15,M,-33.324,M,,*74
2017-12-01 14:04:30 1512155070.397107: $GPRMC,190431,A,3946.9565,N,08404.9843,W,0.0000,0.000,011217,,*3C
2017-12-01 14:04:30 1512155070.397168: $GPGSA,A,3,10,14,15,18,20,21,24,27,32,8,12,138,2.0,0.8,1.5*37
2017-12-01 14:04:31 1512155071.398514: $GPZDA,190432.00,01,12,2017,00,00*6D
2017-12-01 14:04:31 1512155071.398685: $GPGGA,190432,3946.9565,N,08404.9843,W,2,12,0.80,304.15,M,-33.324,M,,*77
2017-12-01 14:04:31 1512155071.398752: $GPRMC,190432,A,3946.9565,N,08404.9843,W,0.0000,0.000,011217,,*3F
2017-12-01 14:04:31 1512155071.398814: $GPGSA,A,3,10,14,15,18,20,21,24,27,32,8,12,138,2.0,0.8,1.5*37
2017-12-01 14:04:32 1512155072.734189: $GPGSV,3,1,12,10,61,321,50,14,22,246,38,15,18,061,39,18,76,066,43*7A
2017-12-01 14:04:32 1512155072.734414: $GPGSV,3,2,12,20,16,112,40,21,38,180,45,24,50,070,48,27,11,267,38*7D
2017-12-01 14:04:32 1512155072.734481: $GPGSV,3,3,12,32,39,256,43,08,08,301,10,12,04,114,22,138,38,213,47*45
2017-12-01 14:04:32 1512155072.847589: $GPZDA,190433.00,01,12,2017,00,00*6C
2017-12-01 14:04:32 1512155072.847739: $GPGGA,190433,3946.9565,N,08404.9843,W,2,11,1.00,304.15,M,-33.324,M,,*7C
2017-12-01 14:04:32 1512155072.847804: $GPRMC,190433,A,3946.9565,N,08404.9843,W,0.0000,0.000,011217,,*3E
2017-12-01 14:04:32 1512155072.847865: $GPGSA,A,3,10,14,15,18,20,21,24,27,32,12,138,,2.0,1.0,1.5*06
2017-12-01 14:04:33 1512155073.398515: $GPZDA,190434.00,01,12,2017,00,00*6B
2017-12-01 14:04:33 1512155073.398688: $GPGGA,190434,3946.9565,N,08404.9843,W,2,11,0.80,304.15,M,-33.324,M,,*72
2017-12-01 14:04:33 1512155073.398754: $GPRMC,190434,A,3946.9565,N,08404.9843,W,0.0000,0.000,011217,,*39
2017-12-01 14:04:33 1512155073.398815: $GPGSA,A,3,10,14,15,18,20,21,24,27,32,12,138,,2.0,0.8,1.5*0F
2017-12-01 14:04:34 1512155074.397249: $GPZDA,190435.00,01,12,2017,00,00*6A
2017-12-01 14:04:34 1512155074.397436: $GPGGA,190435,3946.9565,N,08404.9843,W,2,11,0.80,304.15,M,-33.324,M,,*73
2017-12-01 14:04:34 1512155074.397504: $GPRMC,190435,A,3946.9565,N,08404.9843,W,0.0000,0.000,011217,,*38
2017-12-01 14:04:34 1512155074.397564: $GPGSA,A,3,10,14,15,18,20,21,24,27,32,12,138,,2.0,0.8,1.5*0F
2017-12-01 14:04:35 1512155075.733808: $GPGSV,3,1,12,10,61,321,49,14,22,246,39,15,18,061,39,18,76,066,43*73
2017-12-01 14:04:35 1512155075.733994: $GPGSV,3,2,12,20,16,112,40,21,38,180,45,24,50,070,48,27,11,267,40*72
2017-12-01 14:04:35 1512155075.734083: $GPGSV,3,3,12,32,39,256,43,08,08,301,22,12,04,114,22,138,38,213,47*44
2017-12-01 14:04:35 1512155075.847379: $GPZDA,190436.00,01,12,2017,00,00*69
2017-12-01 14:04:35 1512155075.847550: $GPGGA,190436,3946.9565,N,08404.9843,W,2,12,0.80,304.15,M,-33.324,M,,*73
2017-12-01 14:04:35 1512155075.847617: $GPRMC,190436,A,3946.9565,N,08404.9843,W,0.0000,0.000,011217,,*3B
2017-12-01 14:04:35 1512155075.847679: $GPGSA,A,3,10,14,15,18,20,21,24,27,32,8,12,138,2.0,0.8,1.5*37
2017-12-01 14:04:36 1512155076.474040: $GPZDA,190437.00,01,12,2017,00,00*68
2017-12-01 14:04:36 1512155076.474236: $GPGGA,190437,3946.9565,N,08404.9843,W,2,12,0.80,304.15,M,-33.324,M,,*72
2017-12-01 14:04:36 1512155076.474305: $GPRMC,190437,A,3946.9565,N,08404.9843,W,0.0000,0.000,011217,,*3A
2017-12-01 14:04:36 1512155076.474383: $GPGSA,A,3,10,14,15,18,20,21,24,27,32,8,12,138,2.0,0.8,1.5*37
2017-12-01 14:04:37 1512155077.398493: $GPZDA,190438.00,01,12,2017,00,00*67
2017-12-01 14:04:37 1512155077.398683: $GPGGA,190438,3946.9565,N,08404.9843,W,2,12,0.80,304.15,M,-33.324,M,,*7D
2017-12-01 14:04:37 1512155077.398771: $GPRMC,190438,A,3946.9565,N,08404.9843,W,0.0000,0.000,011217,,*35
2017-12-01 14:04:37 1512155077.398834: $GPGSA,A,3,10,14,15,18,20,21,24,27,32,8,12,138,2.0,0.8,1.5*37
