2017-11-16 16:43:25 1510868605.081526: {"class":"VERSION","release":"3.17","rev":"3.17","proto_major":3,"proto_minor":12}
2017-11-16 16:43:25 1510868605.082023: {"class":"DEVICES","devices":[{"class":"DEVICE","path":"/dev/ttyUSB0","driver":"SiRF","subtype":"9\u0006GSD4e_4.1.2-P1_RPATCH.05-F-GPS-4R-1510281 11/03/2015 307","activated":"2017-11-16T21:43:24.582Z","flags":1,"native":1,"bps":4800,"parity":"N","stopbits":1,"cycle":1.00}]}
2017-11-16 16:43:25 1510868605.082151: {"class":"WATCH","enable":true,"json":false,"nmea":true,"raw":0,"scaled":false,"timing":false,"split24":false,"pps":false}
2017-11-16 16:43:25 1510868605.439342: $GPZDA,214324.00,16,11,2017,00,00*67
2017-11-16 16:43:25 1510868605.439510: $GPGGA,214324,3946.9580,N,08404.9815,W,2,12,0.80,307.02,M,-33.324,M,,*75
2017-11-16 16:43:25 1510868605.439572: $GPRMC,214324,A,3946.9580,N,08404.9815,W,0.0000,0.000,161117,,*3D
2017-11-16 16:43:25 1510868605.439629: $GPGSA,A,3,1,10,11,12,14,18,24,25,31,32,22,138,1.6,0.8,1.3*38
2017-11-16 16:43:26 1510868606.769678: $GPGSV,3,1,12,01,13,319,42,10,71,129,48,11,11,303,35,12,25,073,48*7D
2017-11-16 16:43:26 1510868606.769830: $GPGSV,3,2,12,14,54,289,43,18,39,135,46,24,15,045,49,25,29,115,44*7A
2017-11-16 16:43:26 1510868606.769891: $GPGSV,3,3,12,31,33,211,45,32,67,324,51,22,01,310,30,138,38,213,45*4A
2017-11-16 16:43:26 1510868606.882971: $GPZDA,214325.00,16,11,2017,00,00*66
2017-11-16 16:43:26 1510868606.883143: $GPGGA,214325,3946.9580,N,08404.9815,W,2,12,0.80,307.02,M,-33.324,M,,*74
2017-11-16 16:43:26 1510868606.883209: $GPRMC,214325,A,3946.9580,N,08404.9815,W,0.0000,0.000,161117,,*3C
2017-11-16 16:43:26 1510868606.883266: $GPGSA,A,3,1,10,11,12,14,18,24,25,31,32,22,138,1.6,0.8,1.3*38
2017-11-16 16:43:27 1510868607.457620: $GPZDA,214326.00,16,11,2017,00,00*65
2017-11-16 16:43:27 1510868607.457784: $GPGGA,214326,3946.9580,N,08404.9815,W,2,12,0.80,307.02,M,-33.324,M,,*77
2017-11-16 16:43:27 1510868607.457847: $GPRMC,214326,A,3946.9580,N,08404.9815,W,0.0000,0.000,161117,,*3F
2017-11-16 16:43:27 1510868607.457903: $GPGSA,A,3,1,10,11,12,14,18,24,25,31,32,22,138,1.6,0.8,1.3*38
2017-11-16 16:43:28 1510868608.441095: $GPZDA,214327.00,16,11,2017,00,00*64
2017-11-16 16:43:28 1510868608.441281: $GPGGA,214327,3946.9580,N,08404.9815,W,2,12,0.80,307.02,M,-33.324,M,,*76
2017-11-16 16:43:28 1510868608.441343: $GPRMC,214327,A,3946.9580,N,08404.9815,W,0.0000,0.000,161117,,*3E
2017-11-16 16:43:28 1510868608.441399: $GPGSA,A,3,1,10,11,12,14,18,24,25,31,32,22,138,1.6,0.8,1.3*38
2017-11-16 16:43:29 1510868609.775590: $GPGSV,3,1,12,01,13,319,42,10,71,129,48,11,11,303,35,12,25,073,48*7D
2017-11-16 16:43:29 1510868609.775774: $GPGSV,3,2,12,14,54,289,43,18,39,135,46,24,15,045,49,25,29,115,44*7A
2017-11-16 16:43:29 1510868609.775839: $GPGSV,3,3,12,31,33,211,45,32,67,324,51,22,01,310,30,138,38,213,45*4A
2017-11-16 16:43:29 1510868609.888885: $GPZDA,214328.00,16,11,2017,00,00*6B
2017-11-16 16:43:29 1510868609.889052: $GPGGA,214328,3946.9580,N,08404.9815,W,2,12,0.80,307.02,M,-33.324,M,,*79
2017-11-16 16:43:29 1510868609.889117: $GPRMC,214328,A,3946.9580,N,08404.9815,W,0.0000,0.000,161117,,*31
2017-11-16 16:43:29 1510868609.889180: $GPGSA,A,3,1,10,11,12,14,18,24,25,31,32,22,138,1.6,0.8,1.3*38
2017-11-16 16:43:30 1510868610.457268: $GPZDA,214329.00,16,11,2017,00,00*6A
2017-11-16 16:43:30 1510868610.457441: $GPGGA,214329,3946.9580,N,08404.9815,W,2,12,0.80,307.02,M,-33.324,M,,*78
2017-11-16 16:43:30 1510868610.457508: $GPRMC,214329,A,3946.9580,N,08404.9815,W,0.0000,0.000,161117,,*30
2017-11-16 16:43:30 1510868610.457566: $GPGSA,A,3,1,10,11,12,14,18,24,25,31,32,22,138,1.6,0.8,1.3*38
2017-11-16 16:43:31 1510868611.457695: $GPZDA,214330.00,16,11,2017,00,00*62
2017-11-16 16:43:31 1510868611.457871: $GPGGA,214330,3946.9580,N,08404.9815,W,2,12,0.80,307.02,M,-33.324,M,,*70
2017-11-16 16:43:31 1510868611.457937: $GPRMC,214330,A,3946.9580,N,08404.9815,W,0.0000,0.000,161117,,*38
2017-11-16 16:43:31 1510868611.457998: $GPGSA,A,3,1,10,11,12,14,18,24,25,31,32,22,138,1.6,0.8,1.3*38
2017-11-16 16:43:32 1510868612.772242: $GPGSV,3,1,12,01,13,319,43,10,71,129,48,11,11,303,36,12,25,073,47*70
2017-11-16 16:43:32 1510868612.772469: $GPGSV,3,2,12,14,54,289,43,18,39,135,46,24,15,045,49,25,29,115,43*7D
2017-11-16 16:43:32 1510868612.772534: $GPGSV,3,3,12,31,33,211,45,32,67,324,51,22,01,310,30,138,38,213,44*4B
2017-11-16 16:43:32 1510868612.885627: $GPZDA,214331.00,16,11,2017,00,00*63
2017-11-16 16:43:32 1510868612.885788: $GPGGA,214331,3946.9580,N,08404.9815,W,2,12,0.80,307.02,M,-33.324,M,,*71
2017-11-16 16:43:32 1510868612.885848: $GPRMC,214331,A,3946.9580,N,08404.9815,W,0.0000,0.000,161117,,*39
2017-11-16 16:43:32 1510868612.885905: $GPGSA,A,3,1,10,11,12,14,18,24,25,31,32,22,138,1.6,0.8,1.3*38
2017-11-16 16:43:33 1510868613.450453: $GPZDA,214332.00,16,11,2017,00,00*60
2017-11-16 16:43:33 1510868613.450627: $GPGGA,214332,3946.9580,N,08404.9815,W,2,12,0.80,307.02,M,-33.324,M,,*72
2017-11-16 16:43:33 1510868613.450689: $GPRMC,214332,A,3946.9580,N,08404.9815,W,0.0000,0.000,161117,,*3A
2017-11-16 16:43:33 1510868613.450745: $GPGSA,A,3,1,10,11,12,14,18,24,25,31,32,22,138,1.6,0.8,1.3*38
2017-11-16 16:43:34 1510868614.451097: $GPZDA,214333.00,16,11,2017,00,00*61
2017-11-16 16:43:34 1510868614.451331: $GPGGA,214333,3946.9580,N,08404.9815,W,2,12,0.80,307.02,M,-33.324,M,,*73
2017-11-16 16:43:34 1510868614.451406: $GPRMC,214333,A,3946.9580,N,08404.9815,W,0.0000,0.000,161117,,*3B
2017-11-16 16:43:34 1510868614.451470: $GPGSA,A,3,1,10,11,12,14,18,24,25,31,32,22,138,1.6,0.8,1.3*38
