2018-01-11 19:44:07 1515717847.405631: {"class":"VERSION","release":"3.16","rev":"3.16-4","proto_major":3,"proto_minor":11}
2018-01-11 19:44:07 1515717847.406032: {"class":"DEVICES","devices":[{"class":"DEVICE","path":"/dev/ttyUSB0","driver":"SiRF","subtype":"9\u0006GSD4e_4.1.2-P1_RPATCH.05-F-GPS-4R-1510281 11/03/2015 307","activated":"2018-01-12T00:44:07.406Z","flags":1,"native":1,"bps":4800,"parity":"N","stopbits":1,"cycle":1.00}]}
2018-01-11 19:44:07 1515717847.406152: {"class":"WATCH","enable":true,"json":false,"nmea":true,"raw":0,"scaled":false,"timing":false,"split24":false,"pps":false}
2018-01-11 19:44:08 1515717848.703209: $GPGSV,3,1,12,07,44,310,42,08,63,157,46,09,55,247,43,16,32,052,48*75
2018-01-11 19:44:08 1515717848.703381: $GPGSV,3,2,12,23,41,195,47,27,56,067,50,30,19,301,35,11,10,172,33*79
2018-01-11 19:44:08 1515717848.703449: $GPGSV,3,3,12,26,07,066,23,28,05,249,10,21,01,031,00,138,38,213,45*49
2018-01-11 19:44:08 1515717848.816974: $GPZDA,004409.00,12,01,2018,00,00*66
2018-01-11 19:44:08 1515717848.817149: $GPGGA,004409,3946.9606,N,08404.9856,W,2,11,0.80,308.98,M,-33.324,M,,*7B
2018-01-11 19:44:08 1515717848.817219: $GPRMC,004409,A,3946.9606,N,08404.9856,W,0.0000,0.000,120118,,*36
2018-01-11 19:44:08 1515717848.817285: $GPGSA,A,3,7,8,9,16,23,27,30,11,26,28,138,,4.0,0.8,3.5*3A
2018-01-11 19:44:09 1515717849.365551: $GPZDA,004410.00,12,01,2018,00,00*6E
2018-01-11 19:44:09 1515717849.365667: $GPGGA,004410,3946.9606,N,08404.9856,W,2,11,0.80,308.98,M,-33.324,M,,*73
2018-01-11 19:44:09 1515717849.365701: $GPRMC,004410,A,3946.9606,N,08404.9856,W,0.0000,0.000,120118,,*3E
2018-01-11 19:44:09 1515717849.365731: $GPGSA,A,3,7,8,9,16,23,27,30,11,26,28,138,,4.0,0.8,3.5*3A
2018-01-11 19:44:10 1515717850.367048: $GPZDA,004411.00,12,01,2018,00,00*6F
2018-01-11 19:44:10 1515717850.367239: $GPGGA,004411,3946.9606,N,08404.9856,W,2,11,0.80,308.98,M,-33.324,M,,*72
2018-01-11 19:44:10 1515717850.367307: $GPRMC,004411,A,3946.9606,N,08404.9856,W,0.0000,0.000,120118,,*3F
2018-01-11 19:44:10 1515717850.367368: $GPGSA,A,3,7,8,9,16,23,27,30,11,26,28,138,,4.0,0.8,3.5*3A
2018-01-11 19:44:11 1515717851.702804: $GPGSV,3,1,12,07,44,310,42,08,63,157,46,09,55,247,43,16,32,052,48*75
2018-01-11 19:44:11 1515717851.702968: $GPGSV,3,2,12,23,41,195,47,27,56,067,50,30,19,301,35,11,10,172,33*79
2018-01-11 19:44:11 1515717851.703035: $GPGSV,3,3,12,26,07,066,22,28,05,249,24,21,01,031,00,138,38,213,44*4E
2018-01-11 19:44:11 1515717851.816129: $GPZDA,004412.00,12,01,2018,00,00*6C
2018-01-11 19:44:11 1515717851.816276: $GPGGA,004412,3946.9606,N,08404.9856,W,2,11,0.80,308.98,M,-33.324,M,,*71
2018-01-11 19:44:11 1515717851.816343: $GPRMC,004412,A,3946.9606,N,08404.9856,W,0.0000,0.000,120118,,*3C
2018-01-11 19:44:11 1515717851.816404: $GPGSA,A,3,7,8,9,16,23,27,30,11,26,28,138,,4.0,0.8,3.5*3A
2018-01-11 19:44:12 1515717852.441528: $GPZDA,004413.00,12,01,2018,00,00*6D
2018-01-11 19:44:12 1515717852.441696: $GPGGA,004413,3946.9606,N,08404.9856,W,2,11,0.80,308.98,M,-33.324,M,,*70
2018-01-11 19:44:12 1515717852.441763: $GPRMC,004413,A,3946.9606,N,08404.9856,W,0.0000,0.000,120118,,*3D
2018-01-11 19:44:12 1515717852.441824: $GPGSA,A,3,7,8,9,16,23,27,30,11,26,28,138,,4.0,0.8,3.5*3A
2018-01-11 19:44:13 1515717853.367422: $GPZDA,004414.00,12,01,2018,00,00*6A
2018-01-11 19:44:13 1515717853.367583: $GPGGA,004414,3946.9606,N,08404.9856,W,2,11,0.80,308.98,M,-33.324,M,,*77
2018-01-11 19:44:13 1515717853.367650: $GPRMC,004414,A,3946.9606,N,08404.9856,W,0.0000,0.000,120118,,*3A
2018-01-11 19:44:13 1515717853.367711: $GPGSA,A,3,7,8,9,16,23,27,30,11,26,28,138,,4.0,0.8,3.5*3A
2018-01-11 19:44:14 1515717854.698118: $GPGSV,3,1,12,07,44,310,43,08,63,157,46,09,55,247,43,16,32,052,48*74
2018-01-11 19:44:14 1515717854.698312: $GPGSV,3,2,12,23,41,195,48,27,56,067,50,30,19,301,35,11,10,172,33*76
2018-01-11 19:44:14 1515717854.698379: $GPGSV,3,3,12,26,07,066,19,28,05,249,23,21,01,031,00,138,38,213,44*41
2018-01-11 19:44:14 1515717854.810245: $GPZDA,004415.00,12,01,2018,00,00*6B
2018-01-11 19:44:14 1515717854.810375: $GPGGA,004415,3946.9606,N,08404.9856,W,2,11,0.80,308.98,M,-33.324,M,,*76
2018-01-11 19:44:14 1515717854.810496: $GPRMC,004415,A,3946.9606,N,08404.9856,W,0.0000,0.000,120118,,*3B
2018-01-11 19:44:14 1515717854.810558: $GPGSA,A,3,7,8,9,16,23,27,30,11,26,28,138,,4.0,0.8,3.5*3A
2018-01-11 19:44:15 1515717855.376105: $GPZDA,004416.00,12,01,2018,00,00*68
2018-01-11 19:44:15 1515717855.376276: $GPGGA,004416,3946.9606,N,08404.9856,W,2,11,0.80,308.98,M,-33.324,M,,*75
2018-01-11 19:44:15 1515717855.376345: $GPRMC,004416,A,3946.9606,N,08404.9856,W,0.0000,0.000,120118,,*38
2018-01-11 19:44:15 1515717855.376406: $GPGSA,A,3,7,8,9,16,23,27,30,11,26,28,138,,4.0,0.8,3.5*3A
