2017-12-01 13:16:10 1512152170.326903: {"class":"VERSION","release":"3.16","rev":"3.16-4","proto_major":3,"proto_minor":11}
2017-12-01 13:16:10 1512152170.327440: {"class":"DEVICES","devices":[{"class":"DEVICE","path":"/dev/ttyUSB0","driver":"SiRF","subtype":"9\u0006GSD4e_4.1.2-P1_RPATCH.05-F-GPS-4R-1510281 11/03/2015 307","activated":"2017-12-01T18:16:10.272Z","flags":1,"native":1,"bps":4800,"parity":"N","stopbits":1,"cycle":1.00}]}
2017-12-01 13:16:10 1512152170.327563: {"class":"WATCH","enable":true,"json":false,"nmea":true,"raw":0,"scaled":false,"timing":false,"split24":false,"pps":false}
2017-12-01 13:16:10 1512152170.721580: $GPGSV,3,1,12,10,43,303,46,15,36,052,47,18,72,340,43,20,32,097,47*7B
2017-12-01 13:16:10 1512152170.727092: $GPGSV,3,2,12,21,61,187,46,24,51,108,46,27,19,288,36,32,22,240,40*73
2017-12-01 13:16:10 1512152170.727214: $GPGSV,3,3,12,08,06,321,36,13,06,049,27,14,05,232,24,138,38,213,46*4B
2017-12-01 13:16:10 1512152170.835113: $GPZDA,181611.00,01,12,2017,00,00*6E
2017-12-01 13:16:10 1512152170.835322: $GPGGA,181611,3946.9585,N,08404.9838,W,2,12,0.80,298.16,M,-33.324,M,,*71
2017-12-01 13:16:10 1512152170.835394: $GPRMC,181611,A,3946.9585,N,08404.9838,W,0.0000,0.000,011217,,*3E
2017-12-01 13:16:10 1512152170.835456: $GPGSA,A,3,10,15,18,20,21,24,27,32,8,13,14,138,2.0,0.8,1.5*36
2017-12-01 13:16:11 1512152171.404705: $GPZDA,181612.00,01,12,2017,00,00*6D
2017-12-01 13:16:11 1512152171.404891: $GPGGA,181612,3946.9585,N,08404.9838,W,2,12,0.80,298.16,M,-33.324,M,,*72
2017-12-01 13:16:11 1512152171.404957: $GPRMC,181612,A,3946.9585,N,08404.9838,W,0.0000,0.000,011217,,*3D
2017-12-01 13:16:11 1512152171.405019: $GPGSA,A,3,10,15,18,20,21,24,27,32,8,13,14,138,2.0,0.8,1.5*36
2017-12-01 13:16:12 1512152172.406678: $GPZDA,181613.00,01,12,2017,00,00*6C
2017-12-01 13:16:12 1512152172.406851: $GPGGA,181613,3946.9585,N,08404.9838,W,2,12,0.80,298.16,M,-33.324,M,,*73
2017-12-01 13:16:12 1512152172.406919: $GPRMC,181613,A,3946.9585,N,08404.9838,W,0.0000,0.000,011217,,*3C
2017-12-01 13:16:12 1512152172.406980: $GPGSA,A,3,10,15,18,20,21,24,27,32,8,13,14,138,2.0,0.8,1.5*36
2017-12-01 13:16:13 1512152173.722405: $GPGSV,3,1,12,10,43,303,46,15,36,052,47,18,72,340,43,20,32,097,46*7A
2017-12-01 13:16:13 1512152173.722587: $GPGSV,3,2,12,21,61,187,46,24,51,108,46,27,19,288,36,32,22,240,40*73
2017-12-01 13:16:13 1512152173.722654: $GPGSV,3,3,12,08,06,321,37,13,06,049,27,14,05,232,25,138,38,213,46*4B
2017-12-01 13:16:13 1512152173.835767: $GPZDA,181614.00,01,12,2017,00,00*6B
2017-12-01 13:16:13 1512152173.835914: $GPGGA,181614,3946.9585,N,08404.9838,W,2,12,0.80,298.16,M,-33.324,M,,*74
2017-12-01 13:16:13 1512152173.835980: $GPRMC,181614,A,3946.9585,N,08404.9838,W,0.0000,0.000,011217,,*3B
2017-12-01 13:16:13 1512152173.836061: $GPGSA,A,3,10,15,18,20,21,24,27,32,8,13,14,138,2.0,0.8,1.5*36
2017-12-01 13:16:14 1512152174.461216: $GPZDA,181615.00,01,12,2017,00,00*6A
2017-12-01 13:16:14 1512152174.461442: $GPGGA,181615,3946.9585,N,08404.9838,W,2,12,0.80,298.16,M,-33.324,M,,*75
2017-12-01 13:16:14 1512152174.461518: $GPRMC,181615,A,3946.9585,N,08404.9838,W,0.0000,0.000,011217,,*3A
2017-12-01 13:16:14 1512152174.461580: $GPGSA,A,3,10,15,18,20,21,24,27,32,8,13,14,138,2.0,0.8,1.5*36
2017-12-01 13:16:15 1512152175.405937: $GPZDA,181616.00,01,12,2017,00,00*69
2017-12-01 13:16:15 1512152175.406223: $GPGGA,181616,3946.9585,N,08404.9838,W,2,12,0.80,298.16,M,-33.324,M,,*76
2017-12-01 13:16:15 1512152175.406297: $GPRMC,181616,A,3946.9585,N,08404.9838,W,0.0000,0.000,011217,,*39
2017-12-01 13:16:15 1512152175.406358: $GPGSA,A,3,10,15,18,20,21,24,27,32,8,13,14,138,2.0,0.8,1.5*36
2017-12-01 13:16:16 1512152176.722742: $GPGSV,3,1,12,10,43,303,45,15,36,052,46,18,72,340,44,20,32,097,46*7F
2017-12-01 13:16:16 1512152176.722916: $GPGSV,3,2,12,21,61,187,45,24,51,108,46,27,19,288,36,32,22,240,40*70
2017-12-01 13:16:16 1512152176.722983: $GPGSV,3,3,12,08,06,321,38,13,06,049,27,14,05,232,00,138,38,213,46*43
2017-12-01 13:16:16 1512152176.836196: $GPZDA,181617.00,01,12,2017,00,00*68
2017-12-01 13:16:16 1512152176.836365: $GPGGA,181617,3946.9585,N,08404.9838,W,2,11,0.80,298.16,M,-33.324,M,,*74
2017-12-01 13:16:16 1512152176.836481: $GPRMC,181617,A,3946.9585,N,08404.9838,W,0.0000,0.000,011217,,*38
2017-12-01 13:16:16 1512152176.836544: $GPGSA,A,3,10,15,18,20,21,24,27,32,8,13,138,,2.0,0.8,1.5*33
2017-12-01 13:16:17 1512152177.405765: $GPZDA,181618.00,01,12,2017,00,00*67
2017-12-01 13:16:17 1512152177.405934: $GPGGA,181618,3946.9585,N,08404.9838,W,2,11,0.80,298.16,M,-33.324,M,,*7B
2017-12-01 13:16:17 1512152177.406000: $GPRMC,181618,A,3946.9585,N,08404.9838,W,0.0000,0.000,011217,,*37
2017-12-01 13:16:17 1512152177.406081: $GPGSA,A,3,10,15,18,20,21,24,27,32,8,13,138,,2.0,0.8,1.5*33
2017-12-01 13:16:18 1512152178.385407: $GPZDA,181619.00,01,12,2017,00,00*66
2017-12-01 13:16:18 1512152178.385576: $GPGGA,181619,3946.9585,N,08404.9838,W,2,11,0.80,298.16,M,-33.324,M,,*7A
2017-12-01 13:16:18 1512152178.385643: $GPRMC,181619,A,3946.9585,N,08404.9838,W,0.0000,0.000,011217,,*36
2017-12-01 13:16:18 1512152178.385703: $GPGSA,A,3,10,15,18,20,21,24,27,32,8,13,138,,2.0,0.8,1.5*33
2017-12-01 13:16:19 1512152179.720681: $GPGSV,3,1,12,10,43,303,45,15,36,052,47,18,72,340,43,20,32,097,46*79
2017-12-01 13:16:19 1512152179.720843: $GPGSV,3,2,12,21,61,187,45,24,51,108,46,27,19,288,36,32,22,240,40*70
2017-12-01 13:16:19 1512152179.720908: $GPGSV,3,3,12,08,06,321,40,13,06,049,26,14,05,232,00,138,38,213,46*4D
2017-12-01 13:16:19 1512152179.834392: $GPZDA,181620.00,01,12,2017,00,00*6C
2017-12-01 13:16:19 1512152179.834537: $GPGGA,181620,3946.9585,N,08404.9838,W,2,11,0.80,298.16,M,-33.324,M,,*70
2017-12-01 13:16:19 1512152179.834603: $GPRMC,181620,A,3946.9585,N,08404.9838,W,0.0000,0.000,011217,,*3C
2017-12-01 13:16:19 1512152179.834664: $GPGSA,A,3,10,15,18,20,21,24,27,32,8,13,138,,2.0,0.8,1.5*33
