2017-12-01 11:40:41 1512146441.706838: {"class":"VERSION","release":"3.16","rev":"3.16-4","proto_major":3,"proto_minor":11}
2017-12-01 11:40:41 1512146441.707270: {"class":"DEVICES","devices":[{"class":"DEVICE","path":"/dev/ttyUSB0","driver":"SiRF","subtype":"9\u0006GSD4e_4.1.2-P1_RPATCH.05-F-GPS-4R-1510281 11/03/2015 307","activated":"2017-12-01T16:40:41.289Z","flags":1,"native":1,"bps":4800,"parity":"N","stopbits":1,"cycle":1.00}]}
2017-12-01 11:40:41 1512146441.707400: {"class":"WATCH","enable":true,"json":false,"nmea":true,"raw":0,"scaled":false,"timing":false,"split24":false,"pps":false}
2017-12-01 11:40:41 1512146441.897874: $GPZDA,164042.58,01,12,2017,00,00*68
2017-12-01 11:40:41 1512146441.898049: $GPGGA,164042,3946.9603,N,08404.9783,W,1,11,0.80,303.39,M,-33.324,M,,*76
2017-12-01 11:40:41 1512146441.898116: $GPRMC,164042,A,3946.9603,N,08404.9783,W,0.1975,75.900,011217,,*06
2017-12-01 11:40:41 1512146441.898179: $GPGSA,A,3,5,10,13,15,18,20,21,24,29,27,138,,2.0,0.8,1.5*34
2017-12-01 11:40:41 1512146441.898238: $GPGBS,164042,10.70,M,15.43,M,35.28,M*02
2017-12-01 11:40:42 1512146442.829963: $GPZDA,164043.27,01,12,2017,00,00*61
2017-12-01 11:40:42 1512146442.830140: $GPGGA,164043,3946.9597,N,08404.9838,W,1,11,0.80,300.08,M,-33.324,M,,*77
2017-12-01 11:40:42 1512146442.830210: $GPRMC,164043,A,3946.9597,N,08404.9838,W,0.1867,180.000,011217,,*36
2017-12-01 11:40:42 1512146442.830273: $GPGSA,A,3,5,10,13,15,18,20,21,24,29,27,138,,2.0,0.8,1.5*34
2017-12-01 11:40:42 1512146442.830332: $GPGBS,164043,10.70,M,15.43,M,35.28,M*03
2017-12-01 11:40:43 1512146443.972481: $GPGSV,3,1,12,05,14,076,36,10,12,271,36,13,44,051,47,15,76,076,48*72
2017-12-01 11:40:43 1512146443.972668: $GPGSV,3,2,12,18,43,285,45,20,63,048,42,21,66,306,46,24,19,150,41*7D
2017-12-01 11:40:43 1512146443.972736: $GPGSV,3,3,12,27,08,325,37,29,25,195,44,04,13,129,00,138,38,213,42*4D
2017-12-01 11:40:44 1512146444.086062: $GPZDA,164044.00,01,12,2017,00,00*63
2017-12-01 11:40:44 1512146444.086229: $GPGGA,164044,3946.9597,N,08404.9838,W,1,11,0.80,300.08,M,-33.324,M,,*70
2017-12-01 11:40:44 1512146444.086296: $GPRMC,164044,A,3946.9597,N,08404.9838,W,0.1567,189.200,011217,,*37
2017-12-01 11:40:44 1512146444.086357: $GPGSA,A,3,5,10,13,15,18,20,21,24,27,29,138,,2.0,0.8,1.5*34
2017-12-01 11:40:44 1512146444.537991: $GPZDA,164045.00,01,12,2017,00,00*62
2017-12-01 11:40:44 1512146444.538179: $GPGGA,164045,3946.9601,N,08404.9837,W,1,11,0.80,299.31,M,-33.324,M,,*79
2017-12-01 11:40:44 1512146444.538249: $GPRMC,164045,A,3946.9601,N,08404.9837,W,0.0000,0.000,011217,,*32
2017-12-01 11:40:44 1512146444.538311: $GPGSA,A,3,5,10,13,15,18,20,21,24,27,29,138,,2.0,0.8,1.5*34
2017-12-01 11:40:45 1512146445.384089: $GPZDA,164046.00,01,12,2017,00,00*61
2017-12-01 11:40:45 1512146445.384259: $GPGGA,164046,3946.9601,N,08404.9837,W,1,11,0.80,299.31,M,-33.324,M,,*7A
2017-12-01 11:40:45 1512146445.384326: $GPRMC,164046,A,3946.9601,N,08404.9837,W,0.0000,0.000,011217,,*31
2017-12-01 11:40:45 1512146445.384387: $GPGSA,A,3,5,10,13,15,18,20,21,24,27,29,138,,2.0,0.8,1.5*34
2017-12-01 11:40:46 1512146446.724044: $GPGSV,3,1,12,05,14,076,36,10,12,271,35,13,44,051,46,15,76,076,48*70
2017-12-01 11:40:46 1512146446.724223: $GPGSV,3,2,12,18,43,285,46,20,63,048,42,21,66,306,46,24,19,150,41*7E
2017-12-01 11:40:46 1512146446.724289: $GPGSV,3,3,12,27,08,325,38,29,25,195,44,04,13,129,00,138,38,213,46*46
2017-12-01 11:40:46 1512146446.837802: $GPZDA,164047.00,01,12,2017,00,00*60
2017-12-01 11:40:46 1512146446.837986: $GPGGA,164047,3946.9596,N,08404.9837,W,1,11,0.80,298.67,M,-33.324,M,,*74
2017-12-01 11:40:46 1512146446.838054: $GPRMC,164047,A,3946.9596,N,08404.9837,W,0.0000,0.000,011217,,*3D
2017-12-01 11:40:46 1512146446.838136: $GPGSA,A,3,5,10,13,15,18,20,21,24,27,29,138,,2.0,0.8,1.5*34
2017-12-01 11:40:47 1512146447.386082: $GPZDA,164048.00,01,12,2017,00,00*6F
2017-12-01 11:40:47 1512146447.386267: $GPGGA,164048,3946.9600,N,08404.9836,W,1,11,0.80,297.91,M,-33.324,M,,*70
2017-12-01 11:40:47 1512146447.386334: $GPRMC,164048,A,3946.9600,N,08404.9836,W,0.0000,0.000,011217,,*3F
2017-12-01 11:40:47 1512146447.386446: $GPGSA,A,3,5,10,13,15,18,20,21,24,27,29,138,,2.0,0.8,1.5*34
2017-12-01 11:40:48 1512146448.393307: $GPZDA,164049.00,01,12,2017,00,00*6E
2017-12-01 11:40:48 1512146448.393480: $GPGGA,164049,3946.9600,N,08404.9836,W,1,11,0.80,297.91,M,-33.324,M,,*71
2017-12-01 11:40:48 1512146448.393547: $GPRMC,164049,A,3946.9600,N,08404.9836,W,0.2422,93.794,011217,,*08
2017-12-01 11:40:48 1512146448.393627: $GPGSA,A,3,5,10,13,15,18,20,21,24,27,29,138,,2.0,0.8,1.5*34
2017-12-01 11:40:48 1512146448.393687: $GPGBS,164049,10.70,M,15.43,M,35.28,M*09
2017-12-01 11:40:49 1512146449.719768: $GPGSV,3,1,12,05,14,076,36,10,12,271,36,13,44,051,46,15,76,076,48*73
2017-12-01 11:40:49 1512146449.719954: $GPGSV,3,2,12,18,43,285,46,20,63,048,42,21,66,306,45,24,19,150,41*7D
2017-12-01 11:40:49 1512146449.720021: $GPGSV,3,3,12,27,08,325,37,29,25,195,44,04,13,129,00,138,38,213,47*48
2017-12-01 11:40:49 1512146449.835073: $GPZDA,164050.00,01,12,2017,00,00*66
2017-12-01 11:40:49 1512146449.835247: $GPGGA,164050,3946.9599,N,08404.9836,W,1,11,0.80,296.50,M,-33.324,M,,*76
2017-12-01 11:40:49 1512146449.835316: $GPRMC,164050,A,3946.9599,N,08404.9836,W,0.0000,0.000,011217,,*35
2017-12-01 11:40:49 1512146449.835378: $GPGSA,A,3,5,10,13,15,18,20,21,24,27,29,138,,2.0,0.8,1.5*34
2017-12-01 11:40:50 1512146450.384035: $GPZDA,164051.00,01,12,2017,00,00*67
2017-12-01 11:40:50 1512146450.384206: $GPGGA,164051,3946.9599,N,08404.9836,W,1,11,0.80,296.50,M,-33.324,M,,*77
2017-12-01 11:40:50 1512146450.384273: $GPRMC,164051,A,3946.9599,N,08404.9836,W,0.0000,0.000,011217,,*34
2017-12-01 11:40:50 1512146450.384335: $GPGSA,A,3,5,10,13,15,18,20,21,24,27,29,138,,2.0,0.8,1.5*34
2017-12-01 11:40:51 1512146451.391037: $GPZDA,164052.00,01,12,2017,00,00*64
2017-12-01 11:40:51 1512146451.391208: $GPGGA,164052,3946.9599,N,08404.9836,W,1,11,0.80,296.50,M,-33.324,M,,*74
2017-12-01 11:40:51 1512146451.391294: $GPRMC,164052,A,3946.9599,N,08404.9836,W,0.0000,0.000,011217,,*37
2017-12-01 11:40:51 1512146451.391408: $GPGSA,A,3,5,10,13,15,18,20,21,24,27,29,138,,2.0,0.8,1.5*34
