2017-12-01 13:55:00 1512154500.817054: {"class":"VERSION","release":"3.16","rev":"3.16-4","proto_major":3,"proto_minor":11}
2017-12-01 13:55:00 1512154500.817542: {"class":"DEVICES","devices":[{"class":"DEVICE","path":"/dev/ttyUSB0","driver":"SiRF","subtype":"9\u0006GSD4e_4.1.2-P1_RPATCH.05-F-GPS-4R-1510281 11/03/2015 307","activated":"2017-12-01T18:55:00.415Z","flags":1,"native":1,"bps":4800,"parity":"N","stopbits":1,"cycle":1.00}]}
2017-12-01 13:55:00 1512154500.817667: {"class":"WATCH","enable":true,"json":false,"nmea":true,"raw":0,"scaled":false,"timing":false,"split24":false,"pps":false}
2017-12-01 13:55:01 1512154501.019634: $GPZDA,185501.71,01,12,2017,00,00*6E
2017-12-01 13:55:01 1512154501.019975: $GPGGA,185501,3946.9503,N,08404.9832,W,1,12,0.80,313.17,M,-33.324,M,,*73
2017-12-01 13:55:01 1512154501.020104: $GPRMC,185501,A,3946.9503,N,08404.9832,W,0.0407,322.014,011217,,*39
2017-12-01 13:55:01 1512154501.020225: $GPGSA,A,3,10,14,15,18,20,21,24,27,32,8,12,138,2.0,0.8,1.5*37
2017-12-01 13:55:02 1512154502.101086: $GPZDA,185502.39,01,12,2017,00,00*61
2017-12-01 13:55:02 1512154502.101262: $GPGGA,185502,3946.9503,N,08404.9825,W,1,12,0.80,313.25,M,-33.324,M,,*77
2017-12-01 13:55:02 1512154502.101330: $GPRMC,185502,A,3946.9503,N,08404.9825,W,0.5774,27.515,011217,,*0C
2017-12-01 13:55:02 1512154502.101513: $GPGSA,A,3,10,14,15,18,20,21,24,27,32,8,12,138,2.0,0.8,1.5*37
2017-12-01 13:55:02 1512154502.101611: $GPGBS,185502,10.70,M,15.43,M,35.28,M*0C
2017-12-01 13:55:03 1512154503.243660: $GPGSV,3,1,12,08,08,304,33,10,58,318,49,14,19,244,37,15,21,060,44*7E
2017-12-01 13:55:03 1512154503.243860: $GPGSV,3,2,12,18,77,051,43,20,18,111,44,21,42,181,46,24,52,075,48*7B
2017-12-01 13:55:03 1512154503.243928: $GPGSV,3,3,12,32,36,253,41,27,13,270,35,12,01,117,00,138,38,213,00*4F
2017-12-01 13:55:03 1512154503.357234: $GPZDA,185503.00,01,12,2017,00,00*6A
2017-12-01 13:55:03 1512154503.357369: $GPGGA,185503,3946.9499,N,08404.9825,W,1,10,0.80,312.61,M,-33.324,M,,*77
2017-12-01 13:55:03 1512154503.357434: $GPRMC,185503,A,3946.9499,N,08404.9825,W,0.1567,9.200,011217,,*34
2017-12-01 13:55:03 1512154503.357495: $GPGSA,A,3,8,10,14,15,18,20,21,24,32,27,,,2.0,0.8,1.5*0E
2017-12-01 13:55:03 1512154503.807892: $GPZDA,185504.00,01,12,2017,00,00*6D
2017-12-01 13:55:03 1512154503.808085: $GPGGA,185504,3946.9502,N,08404.9824,W,1,10,0.80,311.84,M,-33.324,M,,*7A
2017-12-01 13:55:03 1512154503.808151: $GPRMC,185504,A,3946.9502,N,08404.9824,W,0.0407,142.014,011217,,*3E
2017-12-01 13:55:03 1512154503.808212: $GPGSA,A,3,8,10,14,15,18,20,21,24,32,27,,,2.0,0.8,1.5*0E
2017-12-01 13:55:04 1512154504.411275: $GPZDA,185505.00,01,12,2017,00,00*6C
2017-12-01 13:55:04 1512154504.411570: $GPGGA,185505,3946.9509,N,08404.9830,W,1,10,0.80,310.23,M,-33.324,M,,*79
2017-12-01 13:55:04 1512154504.411641: $GPRMC,185505,A,3946.9509,N,08404.9830,W,0.0407,142.014,011217,,*31
2017-12-01 13:55:04 1512154504.411703: $GPGSA,A,3,8,10,14,15,18,20,21,24,32,27,,,2.0,0.8,1.5*0E
2017-12-01 13:55:05 1512154505.750397: $GPGSV,3,1,12,08,08,304,32,10,58,318,48,14,19,244,36,15,21,060,43*78
2017-12-01 13:55:05 1512154505.750578: $GPGSV,3,2,12,18,77,051,43,20,18,111,44,21,42,181,46,24,52,075,47*74
2017-12-01 13:55:05 1512154505.750644: $GPGSV,3,3,12,32,36,253,41,27,13,270,34,12,01,117,00,138,38,213,46*4C
2017-12-01 13:55:05 1512154505.863817: $GPZDA,185506.00,01,12,2017,00,00*6F
2017-12-01 13:55:05 1512154505.864003: $GPGGA,185506,3946.9508,N,08404.9829,W,1,11,0.80,308.83,M,-33.324,M,,*71
2017-12-01 13:55:05 1512154505.864072: $GPRMC,185506,A,3946.9508,N,08404.9829,W,0.2710,100.223,011217,,*3C
2017-12-01 13:55:05 1512154505.864133: $GPGSA,A,3,8,10,14,15,18,20,21,24,32,27,138,,2.0,0.8,1.5*34
2017-12-01 13:55:06 1512154506.412065: $GPZDA,185507.00,01,12,2017,00,00*6E
2017-12-01 13:55:06 1512154506.412243: $GPGGA,185507,3946.9516,N,08404.9835,W,1,11,0.80,307.22,M,-33.324,M,,*76
2017-12-01 13:55:06 1512154506.412311: $GPRMC,185507,A,3946.9516,N,08404.9835,W,0.0000,0.000,011217,,*39
2017-12-01 13:55:06 1512154506.412373: $GPGSA,A,3,8,10,14,15,18,20,21,24,32,27,138,,2.0,0.8,1.5*34
2017-12-01 13:55:07 1512154507.411600: $GPZDA,185508.00,01,12,2017,00,00*61
2017-12-01 13:55:07 1512154507.411818: $GPGGA,185508,3946.9519,N,08404.9834,W,1,11,0.80,306.46,M,-33.324,M,,*74
2017-12-01 13:55:07 1512154507.411892: $GPRMC,185508,A,3946.9519,N,08404.9834,W,0.0000,0.000,011217,,*38
2017-12-01 13:55:07 1512154507.411971: $GPGSA,A,3,8,10,14,15,18,20,21,24,32,27,138,,2.0,0.8,1.5*34
2017-12-01 13:55:07 1512154507.412031: $GPGBS,185508,10.70,M,15.43,M,35.28,M*06
2017-12-01 13:55:08 1512154508.749905: $GPGSV,3,1,12,08,08,304,32,10,58,318,48,14,19,244,35,15,21,060,44*7C
2017-12-01 13:55:08 1512154508.750102: $GPGSV,3,2,12,18,77,051,43,20,18,111,44,21,42,181,45,24,52,075,48*78
2017-12-01 13:55:08 1512154508.750168: $GPGSV,3,3,12,32,36,253,41,27,13,270,35,12,01,117,00,138,38,213,46*4D
2017-12-01 13:55:08 1512154508.863343: $GPZDA,185509.00,01,12,2017,00,00*60
2017-12-01 13:55:08 1512154508.863523: $GPGGA,185509,3946.9530,N,08404.9833,W,1,11,0.80,305.57,M,-33.324,M,,*7A
2017-12-01 13:55:08 1512154508.863591: $GPRMC,185509,A,3946.9530,N,08404.9833,W,0.0000,0.000,011217,,*35
2017-12-01 13:55:08 1512154508.863653: $GPGSA,A,3,8,10,14,15,18,20,21,24,32,27,138,,2.0,0.8,1.5*34
2017-12-01 13:55:09 1512154509.414152: $GPZDA,185510.00,01,12,2017,00,00*68
2017-12-01 13:55:09 1512154509.414341: $GPGGA,185510,3946.9534,N,08404.9839,W,1,11,0.80,304.72,M,-33.324,M,,*7A
2017-12-01 13:55:09 1512154509.414409: $GPRMC,185510,A,3946.9534,N,08404.9839,W,0.0000,0.000,011217,,*33
2017-12-01 13:55:09 1512154509.414471: $GPGSA,A,3,8,10,14,15,18,20,21,24,32,27,138,,2.0,0.8,1.5*34
2017-12-01 13:55:10 1512154510.413539: $GPZDA,185511.00,01,12,2017,00,00*69
2017-12-01 13:55:10 1512154510.413753: $GPGGA,185511,3946.9537,N,08404.9838,W,1,11,0.80,303.96,M,-33.324,M,,*74
2017-12-01 13:55:10 1512154510.413843: $GPRMC,185511,A,3946.9537,N,08404.9838,W,0.0000,0.000,011217,,*30
2017-12-01 13:55:10 1512154510.413905: $GPGSA,A,3,8,10,14,15,18,20,21,24,32,27,138,,2.0,0.8,1.5*34
2017-12-01 13:55:11 1512154511.749150: $GPGSV,3,1,12,08,08,304,32,10,58,318,48,14,19,244,35,15,21,060,44*7C
2017-12-01 13:55:11 1512154511.749489: $GPGSV,3,2,12,18,77,051,43,20,18,111,44,21,42,181,45,24,52,075,48*78
2017-12-01 13:55:11 1512154511.749611: $GPGSV,3,3,12,32,36,253,41,27,13,270,35,12,01,117,00,138,38,213,47*4C
2017-12-01 13:55:11 1512154511.862412: $GPZDA,185512.00,01,12,2017,00,00*6A
2017-12-01 13:55:11 1512154511.862590: $GPGGA,185512,3946.9588,N,08404.9857,W,2,11,0.80,294.35,M,-33.324,M,,*7F
2017-12-01 13:55:11 1512154511.862658: $GPRMC,185512,A,3946.9588,N,08404.9857,W,0.0000,0.000,011217,,*3E
2017-12-01 13:55:11 1512154511.862719: $GPGSA,A,3,8,10,14,15,18,20,21,24,32,27,138,,2.0,0.8,1.5*34
2017-12-01 13:55:12 1512154512.414504: $GPZDA,185513.00,01,12,2017,00,00*6B
2017-12-01 13:55:12 1512154512.414687: $GPGGA,185513,3946.9588,N,08404.9857,W,2,11,0.80,294.35,M,-33.324,M,,*7E
2017-12-01 13:55:12 1512154512.414805: $GPRMC,185513,A,3946.9588,N,08404.9857,W,0.0000,0.000,011217,,*3F
2017-12-01 13:55:12 1512154512.414871: $GPGSA,A,3,8,10,14,15,18,20,21,24,32,27,138,,2.0,0.8,1.5*34
2017-12-01 13:55:13 1512154513.415366: $GPZDA,185514.00,01,12,2017,00,00*6C
2017-12-01 13:55:13 1512154513.415555: $GPGGA,185514,3946.9588,N,08404.9857,W,2,11,0.80,294.35,M,-33.324,M,,*79
2017-12-01 13:55:13 1512154513.415623: $GPRMC,185514,A,3946.9588,N,08404.9857,W,0.0000,0.000,011217,,*38
2017-12-01 13:55:13 1512154513.415684: $GPGSA,A,3,8,10,14,15,18,20,21,24,32,27,138,,2.0,0.8,1.5*34
2017-12-01 13:55:14 1512154514.746099: $GPGSV,3,1,12,08,08,304,32,10,58,318,49,14,19,244,36,15,21,060,44*7E
2017-12-01 13:55:14 1512154514.746281: $GPGSV,3,2,12,18,77,051,42,20,18,111,44,21,42,181,46,24,52,075,48*7A
2017-12-01 13:55:14 1512154514.746347: $GPGSV,3,3,12,32,36,253,42,27,13,270,36,12,01,117,14,138,38,213,46*48
2017-12-01 13:55:14 1512154514.859482: $GPZDA,185515.00,01,12,2017,00,00*6D
2017-12-01 13:55:14 1512154514.859671: $GPGGA,185515,3946.9588,N,08404.9857,W,2,12,0.80,294.35,M,-33.324,M,,*7B
2017-12-01 13:55:14 1512154514.859737: $GPRMC,185515,A,3946.9588,N,08404.9857,W,0.0000,0.000,011217,,*39
2017-12-01 13:55:14 1512154514.859873: $GPGSA,A,3,8,10,14,15,18,20,21,24,32,27,12,138,2.0,0.8,1.5*37
2017-12-01 13:55:15 1512154515.484888: $GPZDA,185516.00,01,12,2017,00,00*6E
2017-12-01 13:55:15 1512154515.485080: $GPGGA,185516,3946.9588,N,08404.9857,W,2,12,0.80,294.35,M,-33.324,M,,*78
2017-12-01 13:55:15 1512154515.485146: $GPRMC,185516,A,3946.9588,N,08404.9857,W,0.0000,0.000,011217,,*3A
2017-12-01 13:55:15 1512154515.485207: $GPGSA,A,3,8,10,14,15,18,20,21,24,32,27,12,138,2.0,0.8,1.5*37
