2017-12-01 14:29:55 1512156595.303733: {"class":"VERSION","release":"3.16","rev":"3.16-4","proto_major":3,"proto_minor":11}
2017-12-01 14:29:55 1512156595.304145: {"class":"DEVICES","devices":[{"class":"DEVICE","path":"/dev/ttyUSB0","driver":"SiRF","subtype":"9\u0006GSD4e_4.1.2-P1_RPATCH.05-F-GPS-4R-1510281 11/03/2015 307","activated":"2017-12-01T19:29:54.935Z","flags":1,"native":1,"bps":4800,"parity":"N","stopbits":1,"cycle":1.00}]}
2017-12-01 14:29:55 1512156595.304274: {"class":"WATCH","enable":true,"json":false,"nmea":true,"raw":0,"scaled":false,"timing":false,"split24":false,"pps":false}
2017-12-01 14:29:55 1512156595.961954: $GPZDA,192956.65,01,12,2017,00,00*63
2017-12-01 14:29:55 1512156595.962125: $GPGGA,192956,3946.9545,N,08404.9791,W,1,12,1.00,308.60,M,-33.324,M,,*7C
2017-12-01 14:29:55 1512156595.962191: $GPRMC,192956,A,3946.9545,N,08404.9791,W,0.2202,353.469,011217,,*3C
2017-12-01 14:29:55 1512156595.962252: $GPGSA,A,3,10,14,18,21,24,32,8,12,15,27,20,138,2.0,1.0,1.5*3E
2017-12-01 14:29:55 1512156595.962311: $GPGBS,192956,10.70,M,15.43,M,35.28,M*07
2017-12-01 14:29:57 1512156597.088395: $GPZDA,192957.33,01,12,2017,00,00*61
2017-12-01 14:29:57 1512156597.088570: $GPGGA,192957,3946.9542,N,08404.9798,W,1,12,1.00,309.29,M,-33.324,M,,*7F
2017-12-01 14:29:57 1512156597.088637: $GPRMC,192957,A,3946.9542,N,08404.9798,W,0.0000,0.000,011217,,*3F
2017-12-01 14:29:57 1512156597.088698: $GPGSA,A,3,10,14,18,21,24,32,8,12,15,27,20,138,2.0,1.0,1.5*3E
2017-12-01 14:29:58 1512156598.318454: $GPGSV,3,1,12,08,05,291,34,10,72,336,46,14,31,256,41,15,09,067,32*76
2017-12-01 14:29:58 1512156598.318634: $GPGSV,3,2,12,18,68,100,45,21,25,178,45,24,43,055,48,32,48,268,45*7A
2017-12-01 14:29:58 1512156598.318699: $GPGSV,3,3,12,20,06,120,07,25,05,139,05,27,05,258,19,138,38,213,00*40
2017-12-01 14:29:58 1512156598.431899: $GPZDA,192958.00,01,12,2017,00,00*6E
2017-12-01 14:29:58 1512156598.432068: $GPGGA,192958,3946.9542,N,08404.9799,W,1,09,1.00,310.69,M,-33.324,M,,*77
2017-12-01 14:29:58 1512156598.432134: $GPRMC,192958,A,3946.9542,N,08404.9799,W,0.4179,148.778,011217,,*3F
2017-12-01 14:29:58 1512156598.432194: $GPGSA,A,3,8,10,14,15,18,21,24,32,27,,,,2.0,1.0,1.5*05
2017-12-01 14:29:58 1512156598.882782: $GPZDA,192959.00,01,12,2017,00,00*6F
2017-12-01 14:29:58 1512156598.882933: $GPGGA,192959,3946.9542,N,08404.9799,W,1,09,0.80,310.69,M,-33.324,M,,*7F
2017-12-01 14:29:58 1512156598.882996: $GPRMC,192959,A,3946.9542,N,08404.9799,W,0.0407,142.014,011217,,*31
2017-12-01 14:29:58 1512156598.883056: $GPGSA,A,3,8,10,14,15,18,21,24,32,27,,,,2.0,0.8,1.5*0C
2017-12-01 14:29:59 1512156599.356222: $GPZDA,193000.00,01,12,2017,00,00*6B
2017-12-01 14:29:59 1512156599.356413: $GPGGA,193000,3946.9539,N,08404.9807,W,1,09,0.80,311.38,M,-33.324,M,,*7A
2017-12-01 14:29:59 1512156599.356481: $GPRMC,193000,A,3946.9539,N,08404.9807,W,0.0000,0.000,011217,,*30
2017-12-01 14:29:59 1512156599.356543: $GPGSA,A,3,8,10,14,15,18,21,24,32,27,,,,2.0,0.8,1.5*0C
2017-12-01 14:30:00 1512156600.688873: $GPGSV,3,1,12,08,05,291,34,10,72,336,47,14,31,256,41,15,09,067,33*76
2017-12-01 14:30:00 1512156600.689059: $GPGSV,3,2,12,18,68,100,45,21,25,178,45,24,43,055,48,32,48,268,46*79
2017-12-01 14:30:00 1512156600.689126: $GPGSV,3,3,12,20,06,120,24,25,05,139,15,12,11,105,29,138,38,213,48*47
2017-12-01 14:30:00 1512156600.802274: $GPZDA,193001.00,01,12,2017,00,00*6A
2017-12-01 14:30:00 1512156600.802419: $GPGGA,193001,3946.9539,N,08404.9807,W,1,12,0.80,311.38,M,-33.324,M,,*71
2017-12-01 14:30:00 1512156600.802484: $GPRMC,193001,A,3946.9539,N,08404.9807,W,0.0000,0.000,011217,,*31
2017-12-01 14:30:00 1512156600.802546: $GPGSA,A,3,8,10,14,15,18,21,24,32,20,25,12,138,2.0,0.8,1.5*35
2017-12-01 14:30:01 1512156601.353084: $GPZDA,193002.00,01,12,2017,00,00*69
2017-12-01 14:30:01 1512156601.353267: $GPGGA,193002,3946.9540,N,08404.9814,W,1,12,0.80,311.30,M,-33.324,M,,*76
2017-12-01 14:30:01 1512156601.353333: $GPRMC,193002,A,3946.9540,N,08404.9814,W,0.0000,0.000,011217,,*3E
2017-12-01 14:30:01 1512156601.353396: $GPGSA,A,3,8,10,14,15,18,21,24,32,20,25,12,138,2.0,0.8,1.5*35
2017-12-01 14:30:02 1512156602.352659: $GPZDA,193003.00,01,12,2017,00,00*68
2017-12-01 14:30:02 1512156602.352831: $GPGGA,193003,3946.9540,N,08404.9814,W,1,12,0.80,311.30,M,-33.324,M,,*77
2017-12-01 14:30:02 1512156602.352900: $GPRMC,193003,A,3946.9540,N,08404.9814,W,0.0000,0.000,011217,,*3F
2017-12-01 14:30:02 1512156602.352961: $GPGSA,A,3,8,10,14,15,18,21,24,32,20,25,12,138,2.0,0.8,1.5*35
2017-12-01 14:30:02 1512156602.353022: $GPGBS,193003,10.70,M,15.43,M,35.28,M*0F
2017-12-01 14:30:03 1512156603.685830: $GPGSV,3,1,12,08,05,291,10,10,72,336,14,14,31,256,12,15,09,067,10*71
2017-12-01 14:30:03 1512156603.685993: $GPGSV,3,2,12,18,68,100,13,21,25,178,13,24,43,055,14,32,48,268,14*77
2017-12-01 14:30:03 1512156603.686061: $GPGSV,3,3,12,20,06,120,07,25,05,139,04,12,11,105,09,138,38,213,16*4F
2017-12-01 14:30:03 1512156603.799486: $GPZDA,193004.00,01,12,2017,00,00*6F
2017-12-01 14:30:03 1512156603.799660: $GPGGA,193004,3946.9536,N,08404.9815,W,1,12,0.80,312.06,M,-33.324,M,,*76
2017-12-01 14:30:03 1512156603.799726: $GPRMC,193004,A,3946.9536,N,08404.9815,W,0.0000,0.000,011217,,*38
2017-12-01 14:30:03 1512156603.799788: $GPGSA,A,3,8,10,14,15,18,21,24,32,20,25,12,138,2.0,0.8,1.5*35
2017-12-01 14:30:04 1512156604.351570: $GPZDA,193005.00,01,12,2017,00,00*6E
2017-12-01 14:30:04 1512156604.351745: $GPGGA,193005,3946.9536,N,08404.9815,W,1,12,0.80,312.06,M,-33.324,M,,*77
2017-12-01 14:30:04 1512156604.351812: $GPRMC,193005,A,3946.9536,N,08404.9815,W,0.1567,189.200,011217,,*3E
2017-12-01 14:30:04 1512156604.351875: $GPGSA,A,3,8,10,14,15,18,21,24,32,20,25,12,138,2.0,0.8,1.5*35
2017-12-01 14:30:05 1512156605.349643: $GPZDA,193006.00,01,12,2017,00,00*6D
2017-12-01 14:30:05 1512156605.349887: $GPGGA,193006,3946.9533,N,08404.9822,W,1,12,0.80,312.75,M,-33.324,M,,*71
2017-12-01 14:30:05 1512156605.349961: $GPRMC,193006,A,3946.9533,N,08404.9822,W,0.1567,9.200,011217,,*35
2017-12-01 14:30:05 1512156605.350023: $GPGSA,A,3,8,10,14,15,18,21,24,32,20,25,12,138,2.0,0.8,1.5*35
2017-12-01 14:30:06 1512156606.686355: $GPGSV,3,1,12,08,05,291,34,10,72,336,48,14,31,256,41,15,09,067,33*79
2017-12-01 14:30:06 1512156606.686552: $GPGSV,3,2,12,18,68,100,45,21,25,178,44,24,43,055,48,32,48,268,46*78
2017-12-01 14:30:06 1512156606.686618: $GPGSV,3,3,12,20,06,120,25,25,05,139,20,12,11,105,31,138,38,213,47*46
2017-12-01 14:30:06 1512156606.799778: $GPZDA,193007.00,01,12,2017,00,00*6C
2017-12-01 14:30:06 1512156606.799947: $GPGGA,193007,3946.9533,N,08404.9822,W,1,12,0.80,312.75,M,-33.324,M,,*70
2017-12-01 14:30:06 1512156606.800013: $GPRMC,193007,A,3946.9533,N,08404.9822,W,0.0000,0.000,011217,,*3A
2017-12-01 14:30:06 1512156606.800073: $GPGSA,A,3,8,10,14,15,18,21,24,32,20,25,12,138,2.0,0.8,1.5*35
2017-12-01 14:30:07 1512156607.353087: $GPZDA,193008.00,01,12,2017,00,00*63
2017-12-01 14:30:07 1512156607.353277: $GPGGA,193008,3946.9533,N,08404.9822,W,1,12,0.80,312.75,M,-33.324,M,,*7F
2017-12-01 14:30:07 1512156607.353346: $GPRMC,193008,A,3946.9533,N,08404.9822,W,0.0000,0.000,011217,,*35
2017-12-01 14:30:07 1512156607.353407: $GPGSA,A,3,8,10,14,15,18,21,24,32,20,25,12,138,2.0,0.8,1.5*35
2017-12-01 14:30:08 1512156608.352704: $GPZDA,193009.00,01,12,2017,00,00*62
2017-12-01 14:30:08 1512156608.352877: $GPGGA,193009,3946.9538,N,08404.9829,W,1,12,0.80,313.31,M,-33.324,M,,*7F
2017-12-01 14:30:08 1512156608.352944: $GPRMC,193009,A,3946.9538,N,08404.9829,W,0.0000,0.000,011217,,*34
2017-12-01 14:30:08 1512156608.353004: $GPGSA,A,3,8,10,14,15,18,21,24,32,20,25,12,138,2.0,0.8,1.5*35
2017-12-01 14:30:09 1512156609.689659: $GPGSV,3,1,12,08,05,291,36,10,72,336,48,14,31,256,41,15,09,067,33*7B
2017-12-01 14:30:09 1512156609.689812: $GPGSV,3,2,12,18,68,100,45,21,25,178,44,24,43,055,49,32,48,268,46*79
2017-12-01 14:30:09 1512156609.689877: $GPGSV,3,3,12,20,06,120,25,25,05,139,22,12,11,105,31,138,38,213,47*44
2017-12-01 14:30:09 1512156609.803267: $GPZDA,193010.00,01,12,2017,00,00*6A
2017-12-01 14:30:09 1512156609.803411: $GPGGA,193010,3946.9538,N,08404.9829,W,1,12,0.80,313.31,M,-33.324,M,,*77
2017-12-01 14:30:09 1512156609.803477: $GPRMC,193010,A,3946.9538,N,08404.9829,W,0.0000,0.000,011217,,*3C
2017-12-01 14:30:09 1512156609.803587: $GPGSA,A,3,8,10,14,15,18,21,24,32,20,25,12,138,2.0,0.8,1.5*35
2017-12-01 14:30:10 1512156610.428671: $GPZDA,193011.00,01,12,2017,00,00*6B
2017-12-01 14:30:10 1512156610.428841: $GPGGA,193011,3946.9531,N,08404.9845,W,2,12,3.20,314.68,M,-33.324,M,,*74
2017-12-01 14:30:10 1512156610.428907: $GPRMC,193011,A,3946.9531,N,08404.9845,W,0.0000,0.000,011217,,*3E
2017-12-01 14:30:10 1512156610.428966: $GPGSA,A,3,8,10,14,15,18,21,24,32,20,25,12,138,2.0,3.2,1.5*3C
2017-12-01 14:30:11 1512156611.359495: $GPZDA,193012.00,01,12,2017,00,00*68
2017-12-01 14:30:11 1512156611.359664: $GPGGA,193012,3946.9531,N,08404.9845,W,2,12,0.80,314.68,M,-33.324,M,,*7E
2017-12-01 14:30:11 1512156611.359730: $GPRMC,193012,A,3946.9531,N,08404.9845,W,0.0000,0.000,011217,,*3D
2017-12-01 14:30:11 1512156611.359791: $GPGSA,A,3,8,10,14,15,18,21,24,32,20,25,12,138,2.0,0.8,1.5*35
2017-12-01 14:30:12 1512156612.694988: $GPGSV,3,1,12,08,05,291,36,10,72,336,48,14,31,256,41,15,09,067,33*7B
2017-12-01 14:30:12 1512156612.695159: $GPGSV,3,2,12,18,68,100,45,21,25,178,44,24,43,055,49,32,48,268,45*7A
2017-12-01 14:30:12 1512156612.695227: $GPGSV,3,3,12,20,06,120,25,25,05,139,27,12,11,105,31,138,38,213,48*4E
2017-12-01 14:30:12 1512156612.808630: $GPZDA,193013.00,01,12,2017,00,00*69
2017-12-01 14:30:12 1512156612.808799: $GPGGA,193013,3946.9528,N,08404.9845,W,2,12,0.80,315.44,M,-33.324,M,,*78
2017-12-01 14:30:12 1512156612.808866: $GPRMC,193013,A,3946.9528,N,08404.9845,W,0.0000,0.000,011217,,*34
2017-12-01 14:30:12 1512156612.808927: $GPGSA,A,3,8,10,14,15,18,21,24,32,20,25,12,138,2.0,0.8,1.5*35
2017-12-01 14:30:13 1512156613.359499: $GPZDA,193014.00,01,12,2017,00,00*6E
2017-12-01 14:30:13 1512156613.359666: $GPGGA,193014,3946.9528,N,08404.9845,W,2,12,0.80,315.44,M,-33.324,M,,*7F
2017-12-01 14:30:13 1512156613.359733: $GPRMC,193014,A,3946.9528,N,08404.9845,W,0.0000,0.000,011217,,*33
2017-12-01 14:30:13 1512156613.359794: $GPGSA,A,3,8,10,14,15,18,21,24,32,20,25,12,138,2.0,0.8,1.5*35
2017-12-01 14:30:14 1512156614.357821: $GPZDA,193015.00,01,12,2017,00,00*6F
2017-12-01 14:30:14 1512156614.357991: $GPGGA,193015,3946.9532,N,08404.9845,W,2,12,0.80,316.08,M,-33.324,M,,*7E
2017-12-01 14:30:14 1512156614.358057: $GPRMC,193015,A,3946.9532,N,08404.9845,W,0.0000,0.000,011217,,*39
2017-12-01 14:30:14 1512156614.358118: $GPGSA,A,3,8,10,14,15,18,21,24,32,20,25,12,138,2.0,0.8,1.5*35
2017-12-01 14:30:14 1512156614.358177: $GPGBS,193015,2.67,M,3.86,M,8.82,M*3D
2017-12-01 14:30:15 1512156615.695222: $GPGSV,3,1,12,08,05,291,37,10,72,336,47,14,31,256,42,15,09,067,33*76
2017-12-01 14:30:15 1512156615.695405: $GPGSV,3,2,12,18,68,100,45,21,25,178,44,24,43,055,49,32,48,268,45*7A
2017-12-01 14:30:15 1512156615.695471: $GPGSV,3,3,12,20,06,120,26,25,05,139,26,12,11,105,31,138,38,213,46*42
2017-12-01 14:30:15 1512156615.808558: $GPZDA,193016.00,01,12,2017,00,00*6C
2017-12-01 14:30:15 1512156615.808710: $GPGGA,193016,3946.9532,N,08404.9845,W,2,12,0.80,316.08,M,-33.324,M,,*7D
2017-12-01 14:30:15 1512156615.808779: $GPRMC,193016,A,3946.9532,N,08404.9845,W,0.0000,0.000,011217,,*3A
2017-12-01 14:30:15 1512156615.808839: $GPGSA,A,3,8,10,14,15,18,21,24,32,20,25,12,138,2.0,0.8,1.5*35
2017-12-01 14:30:16 1512156616.359602: $GPZDA,193017.00,01,12,2017,00,00*6D
2017-12-01 14:30:16 1512156616.359771: $GPGGA,193017,3946.9532,N,08404.9845,W,2,12,0.80,316.08,M,-33.324,M,,*7C
2017-12-01 14:30:16 1512156616.359837: $GPRMC,193017,A,3946.9532,N,08404.9845,W,0.0000,0.000,011217,,*3B
2017-12-01 14:30:16 1512156616.359898: $GPGSA,A,3,8,10,14,15,18,21,24,32,20,25,12,138,2.0,0.8,1.5*35
2017-12-01 14:30:17 1512156617.358038: $GPZDA,193018.00,01,12,2017,00,00*62
2017-12-01 14:30:17 1512156617.358210: $GPGGA,193018,3946.9532,N,08404.9845,W,2,12,0.80,316.08,M,-33.324,M,,*73
2017-12-01 14:30:17 1512156617.358276: $GPRMC,193018,A,3946.9532,N,08404.9845,W,0.0000,0.000,011217,,*34
2017-12-01 14:30:17 1512156617.358338: $GPGSA,A,3,8,10,14,15,18,21,24,32,20,25,12,138,2.0,0.8,1.5*35
2017-12-01 14:30:18 1512156618.695063: $GPGSV,3,1,12,08,05,291,37,10,72,336,47,14,31,256,42,15,09,067,33*76
2017-12-01 14:30:18 1512156618.695293: $GPGSV,3,2,12,18,68,100,45,21,25,178,45,24,43,055,49,32,48,268,45*7B
2017-12-01 14:30:18 1512156618.695363: $GPGSV,3,3,12,20,06,120,26,25,05,139,26,12,11,105,31,138,38,213,46*42
2017-12-01 14:30:18 1512156618.808648: $GPZDA,193019.00,01,12,2017,00,00*63
2017-12-01 14:30:18 1512156618.808815: $GPGGA,193019,3946.9532,N,08404.9845,W,2,12,0.80,316.08,M,-33.324,M,,*72
2017-12-01 14:30:18 1512156618.808881: $GPRMC,193019,A,3946.9532,N,08404.9845,W,0.0000,0.000,011217,,*35
2017-12-01 14:30:18 1512156618.808943: $GPGSA,A,3,8,10,14,15,18,21,24,32,20,25,12,138,2.0,0.8,1.5*35
2017-12-01 14:30:19 1512156619.360763: $GPZDA,193020.00,01,12,2017,00,00*69
2017-12-01 14:30:19 1512156619.360931: $GPGGA,193020,3946.9534,N,08404.9850,W,2,12,0.80,312.43,M,-33.324,M,,*71
2017-12-01 14:30:19 1512156619.360997: $GPRMC,193020,A,3946.9534,N,08404.9850,W,0.2422,93.794,011217,,*0B
2017-12-01 14:30:19 1512156619.361058: $GPGSA,A,3,8,10,14,15,18,21,24,32,20,25,12,138,2.0,0.8,1.5*35
2017-12-01 14:30:20 1512156620.352166: $GPZDA,193021.00,01,12,2017,00,00*68
2017-12-01 14:30:20 1512156620.352353: $GPGGA,193021,3946.9534,N,08404.9850,W,2,12,0.80,312.43,M,-33.324,M,,*70
2017-12-01 14:30:20 1512156620.352422: $GPRMC,193021,A,3946.9534,N,08404.9850,W,0.0000,0.000,011217,,*3C
2017-12-01 14:30:20 1512156620.352483: $GPGSA,A,3,8,10,14,15,18,21,24,32,20,25,12,138,2.0,0.8,1.5*35
