2017-11-15 19:38:14 1510792694.962024: {"class":"VERSION","release":"3.17","rev":"3.17","proto_major":3,"proto_minor":12}
2017-11-15 19:38:14 1510792694.962469: {"class":"DEVICES","devices":[{"class":"DEVICE","path":"/dev/ttyUSB0","driver":"SiRF","subtype":"9\u0006GSD4e_4.1.2-P1_RPATCH.05-F-GPS-4R-1510281 11/03/2015 307","activated":"2017-11-16T00:38:14.469Z","flags":1,"native":1,"bps":4800,"parity":"N","stopbits":1,"cycle":1.00}]}
2017-11-15 19:38:14 1510792694.962585: {"class":"WATCH","enable":true,"json":false,"nmea":true,"raw":0,"scaled":false,"timing":false,"split24":false,"pps":false}
2017-11-15 19:38:15 1510792695.679860: $GPGSV,3,1,12,32,33,111,26,14,53,096,04,22,50,265,00,26,56,171,21*73
2017-11-15 19:38:15 1510792695.680032: $GPGSV,3,2,12,16,25,190,00,31,65,030,26,03,41,295,18,25,15,039,00*7D
2017-11-15 19:38:15 1510792695.680092: $GPGSV,3,3,12,23,13,301,00,29,11,069,00,01,04,250,00,138,38,213,00*4C
2017-11-15 19:38:15 1510792695.793447: $GPZDA,003814.00,16,11,2017,00,00*6B
2017-11-15 19:38:15 1510792695.793593: $GPGGA,003814,3946.9541,N,08404.9544,W,1,04,1.80,282.76,M,-33.324,M,,*77
2017-11-15 19:38:15 1510792695.793654: $GPRMC,003814,A,3946.9541,N,08404.9544,W,0.7278,203.636,161117,,*3D
2017-11-15 19:38:15 1510792695.793710: $GPGSA,A,3,32,26,31,3,,,,,,,,,3.4,1.8,2.9*03
2017-11-15 19:38:16 1510792696.418648: $GPZDA,003815.00,16,11,2017,00,00*6A
2017-11-15 19:38:16 1510792696.418813: $GPGGA,003815,3946.9541,N,08404.9544,W,1,04,1.80,282.76,M,-33.324,M,,*76
2017-11-15 19:38:16 1510792696.418875: $GPRMC,003815,A,3946.9541,N,08404.9544,W,0.6846,184.197,161117,,*3A
2017-11-15 19:38:16 1510792696.418931: $GPGSA,A,3,32,26,31,3,,,,,,,,,3.4,1.8,2.9*03
2017-11-15 19:38:17 1510792697.344475: $GPZDA,003816.00,16,11,2017,00,00*69
2017-11-15 19:38:17 1510792697.344642: $GPGGA,003816,3946.9541,N,08404.9544,W,1,04,1.80,282.76,M,-33.324,M,,*75
2017-11-15 19:38:17 1510792697.344704: $GPRMC,003816,A,3946.9541,N,08404.9544,W,0.1867,180.000,161117,,*36
2017-11-15 19:38:17 1510792697.344760: $GPGSA,A,3,32,26,31,3,,,,,,,,,3.4,1.8,2.9*03
2017-11-15 19:38:18 1510792698.681673: $GPGSV,3,1,12,32,33,111,26,14,53,096,04,22,50,265,14,26,56,171,21*76
2017-11-15 19:38:18 1510792698.681842: $GPGSV,3,2,12,16,25,190,00,31,65,030,26,03,41,295,18,25,15,039,00*7D
2017-11-15 19:38:18 1510792698.681902: $GPGSV,3,3,12,23,13,301,00,29,11,069,00,01,04,250,00,138,38,213,00*4C
2017-11-15 19:38:18 1510792698.795001: $GPZDA,003817.00,16,11,2017,00,00*68
2017-11-15 19:38:18 1510792698.795163: $GPGGA,003817,3946.9534,N,08404.9545,W,1,04,1.80,282.88,M,-33.324,M,,*76
2017-11-15 19:38:18 1510792698.795223: $GPRMC,003817,A,3946.9534,N,08404.9545,W,0.8905,237.384,161117,,*38
2017-11-15 19:38:18 1510792698.795279: $GPGSA,A,3,32,26,31,3,,,,,,,,,3.4,1.8,2.9*03
2017-11-15 19:38:19 1510792699.328352: $GPZDA,003818.00,16,11,2017,00,00*67
2017-11-15 19:38:19 1510792699.328518: $GPGGA,003818,3946.9534,N,08404.9552,W,1,04,1.80,282.80,M,-33.324,M,,*77
2017-11-15 19:38:19 1510792699.328580: $GPRMC,003818,A,3946.9534,N,08404.9552,W,1.1385,209.379,161117,,*34
2017-11-15 19:38:19 1510792699.328637: $GPGSA,A,3,32,26,31,3,,,,,,,,,3.4,1.8,2.9*03
2017-11-15 19:38:20 1510792700.329235: $GPZDA,003819.00,16,11,2017,00,00*66
2017-11-15 19:38:20 1510792700.329399: $GPGGA,003819,3946.9534,N,08404.9552,W,1,04,1.60,282.80,M,-33.324,M,,*78
2017-11-15 19:38:20 1510792700.329460: $GPRMC,003819,A,3946.9534,N,08404.9552,W,0.8414,219.347,161117,,*3E
2017-11-15 19:38:20 1510792700.329517: $GPGSA,A,3,32,26,31,3,,,,,,,,,3.4,1.6,2.9*0D
2017-11-15 19:38:21 1510792701.680769: $GPGSV,3,1,12,32,33,111,26,14,53,096,04,22,50,265,19,26,56,171,20*7A
2017-11-15 19:38:21 1510792701.680940: $GPGSV,3,2,12,16,25,190,00,31,65,030,26,03,41,295,18,25,15,039,00*7D
2017-11-15 19:38:21 1510792701.681000: $GPGSV,3,3,12,23,13,301,00,29,11,069,00,01,04,250,00,138,38,213,00*4C
2017-11-15 19:38:21 1510792701.794416: $GPZDA,003820.00,16,11,2017,00,00*6C
2017-11-15 19:38:21 1510792701.794574: $GPGGA,003820,3946.9534,N,08404.9552,W,1,05,1.60,282.80,M,-33.324,M,,*73
2017-11-15 19:38:21 1510792701.794636: $GPRMC,003820,A,3946.9534,N,08404.9552,W,0.7278,203.636,161117,,*3F
2017-11-15 19:38:21 1510792701.794743: $GPGSA,A,3,32,22,26,31,3,,,,,,,,3.4,1.6,2.9*0D
2017-11-15 19:38:22 1510792702.345113: $GPZDA,003821.00,16,11,2017,00,00*6D
2017-11-15 19:38:22 1510792702.345310: $GPGGA,003821,3946.9531,N,08404.9553,W,1,05,1.60,283.57,M,-33.324,M,,*7D
2017-11-15 19:38:22 1510792702.345373: $GPRMC,003821,A,3946.9531,N,08404.9553,W,0.3423,184.197,161117,,*36
2017-11-15 19:38:22 1510792702.345429: $GPGSA,A,3,32,22,26,31,3,,,,,,,,3.4,1.6,2.9*0D
2017-11-15 19:38:23 1510792703.344620: $GPZDA,003822.00,16,11,2017,00,00*6E
2017-11-15 19:38:23 1510792703.344764: $GPGGA,003822,3946.9531,N,08404.9560,W,1,05,1.60,283.49,M,-33.324,M,,*71
2017-11-15 19:38:23 1510792703.344824: $GPRMC,003822,A,3946.9531,N,08404.9560,W,0.4207,219.347,161117,,*3A
2017-11-15 19:38:23 1510792703.344880: $GPGSA,A,3,32,22,26,31,3,,,,,,,,3.4,1.6,2.9*0D
2017-11-15 19:38:24 1510792704.664135: $GPGSV,3,1,12,32,33,111,26,14,53,096,00,22,50,265,16,26,56,171,20*71
2017-11-15 19:38:24 1510792704.664304: $GPGSV,3,2,12,16,25,190,00,31,65,030,26,03,41,295,18,25,15,039,00*7D
2017-11-15 19:38:24 1510792704.664379: $GPGSV,3,3,12,23,13,301,00,29,11,069,00,01,04,250,00,138,38,213,00*4C
2017-11-15 19:38:24 1510792704.777551: $GPZDA,003823.00,16,11,2017,00,00*6F
2017-11-15 19:38:24 1510792704.777738: $GPGGA,003823,3946.9531,N,08404.9560,W,1,05,1.60,283.49,M,-33.324,M,,*70
2017-11-15 19:38:24 1510792704.777800: $GPRMC,003823,A,3946.9531,N,08404.9560,W,0.0000,0.000,161117,,*30
2017-11-15 19:38:24 1510792704.777856: $GPGSA,A,3,32,22,26,31,3,,,,,,,,3.4,1.6,2.9*0D
