2017-12-31 18:52:45 1514764365.159401: {"class":"VERSION","release":"3.16","rev":"3.16-4","proto_major":3,"proto_minor":11}
2017-12-31 18:52:45 1514764365.159755: {"class":"DEVICES","devices":[{"class":"DEVICE","path":"/dev/ttyUSB0","driver":"SiRF","activated":"2017-12-31T23:52:44.668Z","flags":1,"native":1,"bps":4800,"parity":"N","stopbits":1,"cycle":1.00}]}
2017-12-31 18:52:45 1514764365.159854: {"class":"WATCH","enable":true,"json":false,"nmea":true,"raw":0,"scaled":false,"timing":false,"split24":false,"pps":false}
2017-12-31 18:52:45 1514764365.688224: $GPGSV,3,1,11,22,07,204,21,23,69,279,37,09,37,309,39,03,17,220,32*76
2017-12-31 18:52:45 1514764365.688407: $GPGSV,3,2,11,16,76,036,44,08,17,175,40,31,15,090,30,27,40,142,42*7E
2017-12-31 18:52:45 1514764365.688473: $GPGSV,3,3,11,07,11,285,48,26,43,048,45,135,22,240,43*75
2017-12-31 18:52:45 1514764365.801822: $GPZDA,235246.00,31,12,2017,00,00*67
2017-12-31 18:52:45 1514764365.801954: $GPGGA,235246,3946.9578,N,08404.9810,W,2,11,0.80,310.68,M,-33.324,M,,*78
2017-12-31 18:52:45 1514764365.802038: $GPRMC,235246,A,3946.9578,N,08404.9810,W,0.0000,0.000,311217,,*3F
2017-12-31 18:52:45 1514764365.802099: $GPGSA,A,3,22,23,9,3,16,8,31,27,7,26,135,,1.7,0.8,1.3*09
2017-12-31 18:52:46 1514764366.391471: $GPZDA,235247.00,31,12,2017,00,00*66
2017-12-31 18:52:46 1514764366.391644: $GPGGA,235247,3946.9578,N,08404.9810,W,2,11,0.80,310.68,M,-33.324,M,,*79
2017-12-31 18:52:46 1514764366.391712: $GPRMC,235247,A,3946.9578,N,08404.9810,W,0.0000,0.000,311217,,*3E
2017-12-31 18:52:46 1514764366.391774: $GPGSA,A,3,22,23,9,3,16,8,31,27,7,26,135,,1.7,0.8,1.3*09
2017-12-31 18:52:47 1514764367.353671: $GPZDA,235248.00,31,12,2017,00,00*69
2017-12-31 18:52:47 1514764367.353836: $GPGGA,235248,3946.9578,N,08404.9810,W,2,11,0.80,310.68,M,-33.324,M,,*76
2017-12-31 18:52:47 1514764367.353903: $GPRMC,235248,A,3946.9578,N,08404.9810,W,0.0000,0.000,311217,,*31
2017-12-31 18:52:47 1514764367.353964: $GPGSA,A,3,22,23,9,3,16,8,31,27,7,26,135,,1.7,0.8,1.3*09
2017-12-31 18:52:48 1514764368.689088: $GPGSV,3,1,11,22,07,204,21,23,69,279,38,09,37,309,39,03,17,220,33*78
2017-12-31 18:52:48 1514764368.689270: $GPGSV,3,2,11,16,76,036,44,08,17,175,40,31,15,090,30,27,40,142,42*7E
2017-12-31 18:52:48 1514764368.689338: $GPGSV,3,3,11,07,11,285,48,26,43,048,45,135,22,240,43*75
2017-12-31 18:52:48 1514764368.802396: $GPZDA,235249.00,31,12,2017,00,00*68
2017-12-31 18:52:48 1514764368.802545: $GPGGA,235249,3946.9578,N,08404.9810,W,2,11,0.80,310.68,M,-33.324,M,,*77
2017-12-31 18:52:48 1514764368.802612: $GPRMC,235249,A,3946.9578,N,08404.9810,W,0.0000,0.000,311217,,*30
2017-12-31 18:52:48 1514764368.802695: $GPGSA,A,3,22,23,9,3,16,8,31,27,7,26,135,,1.7,0.8,1.3*09
2017-12-31 18:52:49 1514764369.353545: $GPZDA,235250.00,31,12,2017,00,00*60
2017-12-31 18:52:49 1514764369.353736: $GPGGA,235250,3946.9578,N,08404.9810,W,2,11,0.80,310.68,M,-33.324,M,,*7F
2017-12-31 18:52:49 1514764369.353804: $GPRMC,235250,A,3946.9578,N,08404.9810,W,0.0000,0.000,311217,,*38
2017-12-31 18:52:49 1514764369.353866: $GPGSA,A,3,22,23,9,3,16,8,31,27,7,26,135,,1.7,0.8,1.3*09
2017-12-31 18:52:50 1514764370.352428: $GPZDA,235251.00,31,12,2017,00,00*61
2017-12-31 18:52:50 1514764370.352632: $GPGGA,235251,3946.9578,N,08404.9810,W,2,11,0.80,310.68,M,-33.324,M,,*7E
2017-12-31 18:52:50 1514764370.352702: $GPRMC,235251,A,3946.9578,N,08404.9810,W,0.0000,0.000,311217,,*39
2017-12-31 18:52:50 1514764370.352765: $GPGSA,A,3,22,23,9,3,16,8,31,27,7,26,135,,1.7,0.8,1.3*09
2017-12-31 18:52:51 1514764371.688205: $GPGSV,3,1,11,22,07,204,22,23,69,279,38,09,37,309,38,03,17,220,32*7B
2017-12-31 18:52:51 1514764371.688388: $GPGSV,3,2,11,16,76,036,44,08,17,175,40,31,15,090,30,27,40,142,41*7D
2017-12-31 18:52:51 1514764371.688453: $GPGSV,3,3,11,07,11,285,47,26,43,048,45,135,22,240,44*7D
2017-12-31 18:52:51 1514764371.801498: $GPZDA,235252.00,31,12,2017,00,00*62
2017-12-31 18:52:51 1514764371.801634: $GPGGA,235252,3946.9578,N,08404.9810,W,2,11,0.80,310.68,M,-33.324,M,,*7D
2017-12-31 18:52:51 1514764371.801699: $GPRMC,235252,A,3946.9578,N,08404.9810,W,0.0000,0.000,311217,,*3A
2017-12-31 18:52:51 1514764371.801817: $GPGSA,A,3,22,23,9,3,16,8,31,27,7,26,135,,1.7,0.8,1.3*09
2017-12-31 18:52:52 1514764372.352655: $GPZDA,235253.00,31,12,2017,00,00*63
2017-12-31 18:52:52 1514764372.352828: $GPGGA,235253,3946.9578,N,08404.9810,W,2,11,0.80,310.68,M,-33.324,M,,*7C
2017-12-31 18:52:52 1514764372.352895: $GPRMC,235253,A,3946.9578,N,08404.9810,W,0.0000,0.000,311217,,*3B
2017-12-31 18:52:52 1514764372.352956: $GPGSA,A,3,22,23,9,3,16,8,31,27,7,26,135,,1.7,0.8,1.3*09
2017-12-31 18:52:53 1514764373.352285: $GPZDA,235254.00,31,12,2017,00,00*64
2017-12-31 18:52:53 1514764373.352458: $GPGGA,235254,3946.9578,N,08404.9810,W,2,11,0.80,310.68,M,-33.324,M,,*7B
2017-12-31 18:52:53 1514764373.352528: $GPRMC,235254,A,3946.9578,N,08404.9810,W,0.0000,0.000,311217,,*3C
2017-12-31 18:52:53 1514764373.352594: $GPGSA,A,3,22,23,9,3,16,8,31,27,7,26,135,,1.7,0.8,1.3*09
2017-12-31 18:52:54 1514764374.689051: $GPGSV,3,1,11,22,07,204,22,23,69,279,37,09,37,309,38,03,17,220,32*74
2017-12-31 18:52:54 1514764374.689240: $GPGSV,3,2,11,16,76,036,44,08,17,175,40,31,15,090,29,27,40,142,42*76
2017-12-31 18:52:54 1514764374.689306: $GPGSV,3,3,11,07,11,285,48,26,43,048,45,135,22,240,44*72
2017-12-31 18:52:54 1514764374.802642: $GPZDA,235255.00,31,12,2017,00,00*65
2017-12-31 18:52:54 1514764374.802768: $GPGGA,235255,3946.9578,N,08404.9810,W,2,11,0.80,310.68,M,-33.324,M,,*7A
2017-12-31 18:52:54 1514764374.802833: $GPRMC,235255,A,3946.9578,N,08404.9810,W,0.0000,0.000,311217,,*3D
2017-12-31 18:52:54 1514764374.802893: $GPGSA,A,3,22,23,9,3,16,8,31,27,7,26,135,,1.7,0.8,1.3*09
