2017-11-16 14:09:19 1510859359.218366: {"class":"VERSION","release":"3.17","rev":"3.17","proto_major":3,"proto_minor":12}
2017-11-16 14:09:19 1510859359.218999: {"class":"DEVICES","devices":[{"class":"DEVICE","path":"/dev/ttyUSB0","driver":"SiRF","subtype":"9\u0006GSD4e_4.1.2-P1_RPATCH.05-F-GPS-4R-1510281 11/03/2015 307","activated":"2017-11-16T19:09:19.139Z","flags":1,"native":1,"bps":4800,"parity":"N","stopbits":1,"cycle":1.00}]}
2017-11-16 14:09:19 1510859359.219133: {"class":"WATCH","enable":true,"json":false,"nmea":true,"raw":0,"scaled":false,"timing":false,"split24":false,"pps":false}
2017-11-16 14:09:19 1510859359.603263: $GPZDA,190918.00,16,11,2017,00,00*6D
2017-11-16 14:09:19 1510859359.603439: $GPGGA,190918,3946.9569,N,08404.9850,W,2,11,0.80,304.71,M,-33.324,M,,*7D
2017-11-16 14:09:19 1510859359.603501: $GPRMC,190918,A,3946.9569,N,08404.9850,W,0.0000,0.000,161117,,*31
2017-11-16 14:09:19 1510859359.603558: $GPGSA,A,3,10,13,15,18,20,21,24,32,8,27,138,,1.6,0.8,1.3*30
2017-11-16 14:09:20 1510859360.562983: $GPZDA,190919.00,16,11,2017,00,00*6C
2017-11-16 14:09:20 1510859360.563308: $GPGGA,190919,3946.9569,N,08404.9850,W,2,11,0.80,304.71,M,-33.324,M,,*7C
2017-11-16 14:09:20 1510859360.563454: $GPRMC,190919,A,3946.9569,N,08404.9850,W,0.0000,0.000,161117,,*30
2017-11-16 14:09:20 1510859360.563552: $GPGSA,A,3,10,13,15,18,20,21,24,32,8,27,138,,1.6,0.8,1.3*30
2017-11-16 14:09:21 1510859361.898657: $GPGSV,3,1,12,10,40,300,43,13,09,048,31,15,39,052,51,18,70,331,48*72
2017-11-16 14:09:21 1510859361.898836: $GPGSV,3,2,12,20,34,094,47,21,66,192,46,24,50,114,48,32,19,237,45*7E
2017-11-16 14:09:21 1510859361.898897: $GPGSV,3,3,12,08,05,324,25,27,19,291,32,14,03,231,00,138,38,213,45*45
2017-11-16 14:09:22 1510859362.012105: $GPZDA,190920.00,16,11,2017,00,00*66
2017-11-16 14:09:22 1510859362.012473: $GPGGA,190920,3946.9569,N,08404.9850,W,2,11,0.80,304.71,M,-33.324,M,,*76
2017-11-16 14:09:22 1510859362.012597: $GPRMC,190920,A,3946.9569,N,08404.9850,W,0.0000,0.000,161117,,*3A
2017-11-16 14:09:22 1510859362.012751: $GPGSA,A,3,10,13,15,18,20,21,24,32,8,27,138,,1.6,0.8,1.3*30
2017-11-16 14:09:22 1510859362.561902: $GPZDA,190921.00,16,11,2017,00,00*67
2017-11-16 14:09:22 1510859362.562062: $GPGGA,190921,3946.9569,N,08404.9850,W,2,11,0.80,304.71,M,-33.324,M,,*77
2017-11-16 14:09:22 1510859362.562123: $GPRMC,190921,A,3946.9569,N,08404.9850,W,0.0000,0.000,161117,,*3B
2017-11-16 14:09:22 1510859362.562179: $GPGSA,A,3,10,13,15,18,20,21,24,32,8,27,138,,1.6,0.8,1.3*30
2017-11-16 14:09:23 1510859363.543874: $GPZDA,190922.00,16,11,2017,00,00*64
2017-11-16 14:09:23 1510859363.544055: $GPGGA,190922,3946.9569,N,08404.9850,W,2,11,0.80,304.71,M,-33.324,M,,*74
2017-11-16 14:09:23 1510859363.544117: $GPRMC,190922,A,3946.9569,N,08404.9850,W,0.0000,0.000,161117,,*38
2017-11-16 14:09:23 1510859363.544173: $GPGSA,A,3,10,13,15,18,20,21,24,32,8,27,138,,1.6,0.8,1.3*30
2017-11-16 14:09:24 1510859364.865465: $GPGSV,3,1,12,10,40,300,42,13,09,048,31,15,39,052,51,18,70,331,48*73
2017-11-16 14:09:24 1510859364.865634: $GPGSV,3,2,12,20,34,094,46,21,66,192,46,24,50,114,47,32,19,237,44*71
2017-11-16 14:09:24 1510859364.865715: $GPGSV,3,3,12,08,05,324,31,27,19,291,32,14,03,231,16,138,38,213,44*46
2017-11-16 14:09:24 1510859364.979586: $GPZDA,190923.00,16,11,2017,00,00*65
2017-11-16 14:09:24 1510859364.979795: $GPGGA,190923,3946.9569,N,08404.9850,W,2,11,0.80,304.71,M,-33.324,M,,*75
2017-11-16 14:09:24 1510859364.979858: $GPRMC,190923,A,3946.9569,N,08404.9850,W,0.0000,0.000,161117,,*39
2017-11-16 14:09:24 1510859364.980072: $GPGSA,A,3,10,13,15,18,20,21,24,32,8,27,138,,1.6,0.8,1.3*30
2017-11-16 14:09:25 1510859365.530032: $GPZDA,190924.00,16,11,2017,00,00*62
2017-11-16 14:09:25 1510859365.530183: $GPGGA,190924,3946.9569,N,08404.9850,W,2,11,0.80,304.71,M,-33.324,M,,*72
2017-11-16 14:09:25 1510859365.530243: $GPRMC,190924,A,3946.9569,N,08404.9850,W,0.0000,0.000,161117,,*3E
2017-11-16 14:09:25 1510859365.530355: $GPGSA,A,3,10,13,15,18,20,21,24,32,8,27,138,,1.6,0.8,1.3*30
2017-11-16 14:09:26 1510859366.533378: $GPZDA,190925.00,16,11,2017,00,00*63
2017-11-16 14:09:26 1510859366.533591: $GPGGA,190925,3946.9569,N,08404.9850,W,2,11,0.80,304.71,M,-33.324,M,,*73
2017-11-16 14:09:26 1510859366.533677: $GPRMC,190925,A,3946.9569,N,08404.9850,W,0.0000,0.000,161117,,*3F
2017-11-16 14:09:26 1510859366.533735: $GPGSA,A,3,10,13,15,18,20,21,24,32,8,27,138,,1.6,0.8,1.3*30
2017-11-16 14:09:27 1510859367.870105: $GPGSV,3,1,12,10,40,300,42,13,09,048,31,15,39,052,51,18,70,331,48*73
2017-11-16 14:09:27 1510859367.870271: $GPGSV,3,2,12,20,34,094,46,21,66,192,46,24,50,114,48,32,19,237,44*7E
2017-11-16 14:09:27 1510859367.870382: $GPGSV,3,3,12,08,05,324,34,27,19,291,32,14,03,231,00,138,38,213,44*44
2017-11-16 14:09:27 1510859367.982454: $GPZDA,190926.00,16,11,2017,00,00*60
2017-11-16 14:09:27 1510859367.982607: $GPGGA,190926,3946.9569,N,08404.9850,W,2,11,0.80,304.71,M,-33.324,M,,*70
2017-11-16 14:09:27 1510859367.982690: $GPRMC,190926,A,3946.9569,N,08404.9850,W,0.0000,0.000,161117,,*3C
2017-11-16 14:09:27 1510859367.982746: $GPGSA,A,3,10,13,15,18,20,21,24,32,8,27,138,,1.6,0.8,1.3*30
2017-11-16 14:09:28 1510859368.538327: $GPZDA,190927.00,16,11,2017,00,00*61
2017-11-16 14:09:28 1510859368.538513: $GPGGA,190927,3946.9569,N,08404.9850,W,2,11,0.80,304.71,M,-33.324,M,,*71
2017-11-16 14:09:28 1510859368.538593: $GPRMC,190927,A,3946.9569,N,08404.9850,W,0.0000,0.000,161117,,*3D
2017-11-16 14:09:28 1510859368.538680: $GPGSA,A,3,10,13,15,18,20,21,24,32,8,27,138,,1.6,0.8,1.3*30
