2017-11-16 17:21:01 1510870861.842759: {"class":"VERSION","release":"3.17","rev":"3.17","proto_major":3,"proto_minor":12}
2017-11-16 17:21:01 1510870861.844945: {"class":"DEVICES","devices":[{"class":"DEVICE","path":"/dev/ttyUSB0","driver":"SiRF","subtype":"9\u0006GSD4e_4.1.2-P1_RPATCH.05-F-GPS-4R-1510281 11/03/2015 307","activated":"2017-11-16T22:21:01.618Z","flags":1,"native":1,"bps":4800,"parity":"N","stopbits":1,"cycle":1.00}]}
2017-11-16 17:21:01 1510870861.845198: {"class":"WATCH","enable":true,"json":false,"nmea":true,"raw":0,"scaled":false,"timing":false,"split24":false,"pps":false}
2017-11-16 17:21:02 1510870862.415107: $GPZDA,222101.00,16,11,2017,00,00*67
2017-11-16 17:21:02 1510870862.415289: $GPGGA,222101,3946.9570,N,08404.9831,W,2,12,0.80,309.16,M,-33.324,M,,*77
2017-11-16 17:21:02 1510870862.415353: $GPRMC,222101,A,3946.9570,N,08404.9831,W,0.0000,0.000,161117,,*34
2017-11-16 17:21:02 1510870862.415409: $GPGSA,A,3,1,10,22,12,14,18,24,11,25,31,32,138,1.6,0.8,1.3*38
2017-11-16 17:21:03 1510870863.757136: $GPGSV,3,1,12,01,20,306,39,10,54,145,49,22,14,312,43,12,24,055,49*73
2017-11-16 17:21:03 1510870863.757306: $GPGSV,3,2,12,14,63,316,47,18,24,142,41,24,02,048,10,11,10,288,43*7C
2017-11-16 17:21:03 1510870863.757365: $GPGSV,3,3,12,25,38,097,48,31,49,220,48,32,70,010,48,138,38,213,44*4D
2017-11-16 17:21:03 1510870863.870392: $GPZDA,222102.00,16,11,2017,00,00*64
2017-11-16 17:21:03 1510870863.870578: $GPGGA,222102,3946.9570,N,08404.9831,W,2,12,0.80,309.16,M,-33.324,M,,*74
2017-11-16 17:21:03 1510870863.870642: $GPRMC,222102,A,3946.9570,N,08404.9831,W,0.0000,0.000,161117,,*37
2017-11-16 17:21:03 1510870863.870699: $GPGSA,A,3,1,10,22,12,14,18,24,11,25,31,32,138,1.6,0.8,1.3*38
2017-11-16 17:21:04 1510870864.401580: $GPZDA,222103.00,16,11,2017,00,00*65
2017-11-16 17:21:04 1510870864.401743: $GPGGA,222103,3946.9570,N,08404.9831,W,2,12,0.80,309.16,M,-33.324,M,,*75
2017-11-16 17:21:04 1510870864.401803: $GPRMC,222103,A,3946.9570,N,08404.9831,W,0.0000,0.000,161117,,*36
2017-11-16 17:21:04 1510870864.401858: $GPGSA,A,3,1,10,22,12,14,18,24,11,25,31,32,138,1.6,0.8,1.3*38
2017-11-16 17:21:05 1510870865.421170: $GPZDA,222104.00,16,11,2017,00,00*62
2017-11-16 17:21:05 1510870865.421330: $GPGGA,222104,3946.9570,N,08404.9831,W,2,12,0.80,309.16,M,-33.324,M,,*72
2017-11-16 17:21:05 1510870865.421391: $GPRMC,222104,A,3946.9570,N,08404.9831,W,0.0000,0.000,161117,,*31
2017-11-16 17:21:05 1510870865.421447: $GPGSA,A,3,1,10,22,12,14,18,24,11,25,31,32,138,1.6,0.8,1.3*38
2017-11-16 17:21:06 1510870866.757576: $GPGSV,3,1,12,01,20,306,39,10,54,145,49,22,14,312,43,12,24,055,49*73
2017-11-16 17:21:06 1510870866.757747: $GPGSV,3,2,12,14,63,316,47,18,24,142,40,24,02,048,10,11,10,288,43*7D
2017-11-16 17:21:06 1510870866.757808: $GPGSV,3,3,12,25,38,097,48,31,49,220,48,32,70,010,48,138,38,213,44*4D
2017-11-16 17:21:06 1510870866.871162: $GPZDA,222105.00,16,11,2017,00,00*63
2017-11-16 17:21:06 1510870866.871326: $GPGGA,222105,3946.9570,N,08404.9831,W,2,12,0.80,309.16,M,-33.324,M,,*73
2017-11-16 17:21:06 1510870866.871387: $GPRMC,222105,A,3946.9570,N,08404.9831,W,0.0000,0.000,161117,,*30
2017-11-16 17:21:06 1510870866.871442: $GPGSA,A,3,1,10,22,12,14,18,24,11,25,31,32,138,1.6,0.8,1.3*38
2017-11-16 17:21:07 1510870867.421722: $GPZDA,222106.00,16,11,2017,00,00*60
2017-11-16 17:21:07 1510870867.421907: $GPGGA,222106,3946.9570,N,08404.9831,W,2,12,0.80,309.16,M,-33.324,M,,*70
2017-11-16 17:21:07 1510870867.421971: $GPRMC,222106,A,3946.9570,N,08404.9831,W,0.0000,0.000,161117,,*33
2017-11-16 17:21:07 1510870867.422027: $GPGSA,A,3,1,10,22,12,14,18,24,11,25,31,32,138,1.6,0.8,1.3*38
2017-11-16 17:21:08 1510870868.416616: $GPZDA,222107.00,16,11,2017,00,00*61
2017-11-16 17:21:08 1510870868.416783: $GPGGA,222107,3946.9570,N,08404.9831,W,2,12,0.80,309.16,M,-33.324,M,,*71
2017-11-16 17:21:08 1510870868.416843: $GPRMC,222107,A,3946.9570,N,08404.9831,W,0.0000,0.000,161117,,*32
2017-11-16 17:21:08 1510870868.416900: $GPGSA,A,3,1,10,22,12,14,18,24,11,25,31,32,138,1.6,0.8,1.3*38
2017-11-16 17:21:09 1510870869.757310: $GPGSV,3,1,12,01,20,306,39,10,54,145,49,22,14,312,43,12,24,055,49*73
2017-11-16 17:21:09 1510870869.757497: $GPGSV,3,2,12,14,63,316,47,18,24,142,41,24,02,048,11,11,10,288,43*7D
2017-11-16 17:21:09 1510870869.757559: $GPGSV,3,3,12,25,38,097,47,31,49,220,49,32,70,010,48,138,38,213,44*43
2017-11-16 17:21:09 1510870869.870602: $GPZDA,222108.00,16,11,2017,00,00*6E
2017-11-16 17:21:09 1510870869.870774: $GPGGA,222108,3946.9570,N,08404.9831,W,2,12,0.80,309.16,M,-33.324,M,,*7E
2017-11-16 17:21:09 1510870869.870836: $GPRMC,222108,A,3946.9570,N,08404.9831,W,0.0000,0.000,161117,,*3D
2017-11-16 17:21:09 1510870869.870891: $GPGSA,A,3,1,10,22,12,14,18,24,11,25,31,32,138,1.6,0.8,1.3*38
2017-11-16 17:21:10 1510870870.421729: $GPZDA,222109.00,16,11,2017,00,00*6F
2017-11-16 17:21:10 1510870870.421890: $GPGGA,222109,3946.9570,N,08404.9831,W,2,12,0.80,309.16,M,-33.324,M,,*7F
2017-11-16 17:21:10 1510870870.421952: $GPRMC,222109,A,3946.9570,N,08404.9831,W,0.0000,0.000,161117,,*3C
2017-11-16 17:21:10 1510870870.422008: $GPGSA,A,3,1,10,22,12,14,18,24,11,25,31,32,138,1.6,0.8,1.3*38
2017-11-16 17:21:11 1510870871.420834: $GPZDA,222110.00,16,11,2017,00,00*67
2017-11-16 17:21:11 1510870871.420990: $GPGGA,222110,3946.9570,N,08404.9831,W,2,12,0.80,309.16,M,-33.324,M,,*77
2017-11-16 17:21:11 1510870871.421050: $GPRMC,222110,A,3946.9570,N,08404.9831,W,0.0000,0.000,161117,,*34
2017-11-16 17:21:11 1510870871.421106: $GPGSA,A,3,1,10,22,12,14,18,24,11,25,31,32,138,1.6,0.8,1.3*38
