2018-01-11 19:57:57 1515718677.676204: {"class":"VERSION","release":"3.16","rev":"3.16-4","proto_major":3,"proto_minor":11}
2018-01-11 19:57:57 1515718677.676550: {"class":"DEVICES","devices":[{"class":"DEVICE","path":"/dev/ttyUSB0","driver":"SiRF","subtype":"9\u0006GSD4e_4.1.2-P1_RPATCH.05-F-GPS-4R-1510281 11/03/2015 307","activated":"2018-01-12T00:57:57.517Z","flags":1,"native":1,"bps":4800,"parity":"N","stopbits":1,"cycle":1.00}]}
2018-01-11 19:57:57 1515718677.676666: {"class":"WATCH","enable":true,"json":false,"nmea":true,"raw":0,"scaled":false,"timing":false,"split24":false,"pps":false}
2018-01-11 19:57:58 1515718678.376607: $GPZDA,005759.00,12,01,2018,00,00*61
2018-01-11 19:57:58 1515718678.376772: $GPGGA,005759,3946.9559,N,08404.9819,W,2,10,0.80,311.61,M,-33.324,M,,*71
2018-01-11 19:57:58 1515718678.376840: $GPRMC,005759,A,3946.9559,N,08404.9819,W,0.0000,0.000,120118,,*33
2018-01-11 19:57:58 1515718678.376901: $GPGSA,A,3,7,8,9,11,16,23,27,28,30,138,,,4.0,0.8,3.5*3E
2018-01-11 19:57:59 1515718679.712111: $GPGSV,3,1,11,07,50,312,43,08,69,148,46,09,52,237,43,11,15,169,38*78
2018-01-11 19:57:59 1515718679.712301: $GPGSV,3,2,11,16,27,057,46,23,35,192,48,27,52,058,50,28,10,253,32*7F
2018-01-11 19:57:59 1515718679.712386: $GPGSV,3,3,11,30,24,304,39,26,02,069,00,138,38,213,46*7B
2018-01-11 19:57:59 1515718679.825612: $GPZDA,005800.00,12,01,2018,00,00*62
2018-01-11 19:57:59 1515718679.825761: $GPGGA,005800,3946.9559,N,08404.9819,W,2,10,0.80,311.61,M,-33.324,M,,*72
2018-01-11 19:57:59 1515718679.825829: $GPRMC,005800,A,3946.9559,N,08404.9819,W,0.0000,0.000,120118,,*30
2018-01-11 19:57:59 1515718679.825892: $GPGSA,A,3,7,8,9,11,16,23,27,28,30,138,,,4.0,0.8,3.5*3E
2018-01-11 19:58:00 1515718680.450801: $GPZDA,005801.00,12,01,2018,00,00*63
2018-01-11 19:58:00 1515718680.450978: $GPGGA,005801,3946.9559,N,08404.9819,W,2,10,0.80,311.61,M,-33.324,M,,*73
2018-01-11 19:58:00 1515718680.451048: $GPRMC,005801,A,3946.9559,N,08404.9819,W,0.0000,0.000,120118,,*31
2018-01-11 19:58:00 1515718680.451111: $GPGSA,A,3,7,8,9,11,16,23,27,28,30,138,,,4.0,0.8,3.5*3E
2018-01-11 19:58:01 1515718681.376682: $GPZDA,005802.00,12,01,2018,00,00*60
2018-01-11 19:58:01 1515718681.376843: $GPGGA,005802,3946.9555,N,08404.9819,W,2,10,0.80,310.97,M,-33.324,M,,*74
2018-01-11 19:58:01 1515718681.376911: $GPRMC,005802,A,3946.9555,N,08404.9819,W,0.0000,0.000,120118,,*3E
2018-01-11 19:58:01 1515718681.376994: $GPGSA,A,3,7,8,9,11,16,23,27,28,30,138,,,4.0,0.8,3.5*3E
2018-01-11 19:58:02 1515718682.713634: $GPGSV,3,1,11,07,50,312,43,08,69,148,46,09,52,237,44,11,15,169,38*7F
2018-01-11 19:58:02 1515718682.713817: $GPGSV,3,2,11,16,27,057,46,23,35,192,47,27,52,058,50,28,10,253,32*70
2018-01-11 19:58:02 1515718682.713887: $GPGSV,3,3,11,30,24,304,39,26,02,069,00,138,38,213,45*78
2018-01-11 19:58:02 1515718682.827020: $GPZDA,005803.00,12,01,2018,00,00*61
2018-01-11 19:58:02 1515718682.827169: $GPGGA,005803,3946.9555,N,08404.9819,W,2,10,0.80,310.97,M,-33.324,M,,*75
2018-01-11 19:58:02 1515718682.827238: $GPRMC,005803,A,3946.9555,N,08404.9819,W,0.0000,0.000,120118,,*3F
2018-01-11 19:58:02 1515718682.827301: $GPGSA,A,3,7,8,9,11,16,23,27,28,30,138,,,4.0,0.8,3.5*3E
2018-01-11 19:58:03 1515718683.370415: $GPZDA,005804.00,12,01,2018,00,00*66
2018-01-11 19:58:03 1515718683.370599: $GPGGA,005804,3946.9555,N,08404.9819,W,2,10,0.80,310.97,M,-33.324,M,,*72
2018-01-11 19:58:03 1515718683.370670: $GPRMC,005804,A,3946.9555,N,08404.9819,W,0.4179,148.778,120118,,*36
2018-01-11 19:58:03 1515718683.370735: $GPGSA,A,3,7,8,9,11,16,23,27,28,30,138,,,4.0,0.8,3.5*3E
2018-01-11 19:58:04 1515718684.371300: $GPZDA,005805.00,12,01,2018,00,00*67
2018-01-11 19:58:04 1515718684.371482: $GPGGA,005805,3946.9555,N,08404.9812,W,2,10,0.80,311.05,M,-33.324,M,,*72
2018-01-11 19:58:04 1515718684.371552: $GPRMC,005805,A,3946.9555,N,08404.9812,W,0.3155,129.994,120118,,*3E
2018-01-11 19:58:04 1515718684.371615: $GPGSA,A,3,7,8,9,11,16,23,27,28,30,138,,,4.0,0.8,3.5*3E
2018-01-11 19:58:05 1515718685.706478: $GPGSV,3,1,11,07,50,312,43,08,69,148,46,09,52,237,44,11,15,169,38*7F
2018-01-11 19:58:05 1515718685.706661: $GPGSV,3,2,11,16,27,057,46,23,35,192,47,27,52,058,50,28,10,253,30*72
2018-01-11 19:58:05 1515718685.706785: $GPGSV,3,3,11,30,24,304,38,26,02,069,00,138,38,213,46*7A
2018-01-11 19:58:05 1515718685.818613: $GPZDA,005806.00,12,01,2018,00,00*64
2018-01-11 19:58:05 1515718685.818763: $GPGGA,005806,3946.9558,N,08404.9812,W,2,10,0.80,310.28,M,-33.324,M,,*72
2018-01-11 19:58:05 1515718685.818828: $GPRMC,005806,A,3946.9558,N,08404.9812,W,0.0000,0.000,120118,,*3C
2018-01-11 19:58:05 1515718685.818888: $GPGSA,A,3,7,8,9,11,16,23,27,28,30,138,,,4.0,0.8,3.5*3E
2018-01-11 19:58:06 1515718686.369527: $GPZDA,005807.00,12,01,2018,00,00*65
2018-01-11 19:58:06 1515718686.369696: $GPGGA,005807,3946.9558,N,08404.9812,W,2,10,0.80,310.28,M,-33.324,M,,*73
2018-01-11 19:58:06 1515718686.369762: $GPRMC,005807,A,3946.9558,N,08404.9812,W,0.0000,0.000,120118,,*3D
2018-01-11 19:58:06 1515718686.369823: $GPGSA,A,3,7,8,9,11,16,23,27,28,30,138,,,4.0,0.8,3.5*3E
2018-01-11 19:58:07 1515718687.372872: $GPZDA,005808.00,12,01,2018,00,00*6A
2018-01-11 19:58:07 1515718687.373040: $GPGGA,005808,3946.9558,N,08404.9812,W,2,10,0.80,310.28,M,-33.324,M,,*7C
2018-01-11 19:58:07 1515718687.373106: $GPRMC,005808,A,3946.9558,N,08404.9812,W,0.0000,0.000,120118,,*32
2018-01-11 19:58:07 1515718687.373184: $GPGSA,A,3,7,8,9,11,16,23,27,28,30,138,,,4.0,0.8,3.5*3E
