2018-01-12 20:13:36 1515806016.931390: {"class":"VERSION","release":"3.16","rev":"3.16-4","proto_major":3,"proto_minor":11}
2018-01-12 20:13:36 1515806016.931748: {"class":"DEVICES","devices":[{"class":"DEVICE","path":"/dev/ttyUSB0","driver":"SiRF","subtype":"9\u0006GSD4e_4.1.2-P1_RPATCH.05-F-GPS-4R-1510281 11/03/2015 307","activated":"2018-01-13T01:13:36.377Z","flags":1,"native":1,"bps":4800,"parity":"N","stopbits":1,"cycle":1.00}]}
2018-01-12 20:13:36 1515806016.931865: {"class":"WATCH","enable":true,"json":false,"nmea":true,"raw":0,"scaled":false,"timing":false,"split24":false,"pps":false}
2018-01-12 20:13:37 1515806017.668454: $GPRMC,011338,V,18000.0000,N,00000.0000,W,0.0000,0.000,130118,,*13
2018-01-12 20:13:37 1515806017.668646: $GPGSA,A,1,7,8,9,27,1,28,,,,,,,,,,*3A
2018-01-12 20:13:38 1515806018.623005: $GPRMC,011339,V,3946.9510,N,08404.9475,W,0.0000,0.000,130118,,*29
2018-01-12 20:13:38 1515806018.623250: $GPGSA,A,1,7,8,9,27,1,28,,,,,,,,,,*3A
2018-01-12 20:13:39 1515806019.816379: $GPGSV,3,1,10,08,75,118,24,07,58,315,00,09,45,226,00,27,45,051,00*7D
2018-01-12 20:13:39 1515806019.816507: $GPGSV,3,2,10,30,32,307,00,23,26,189,00,11,23,166,00,16,20,063,00*7A
2018-01-12 20:13:39 1515806019.816542: $GPGSV,3,3,10,28,16,261,00,01,01,162,00*75
2018-01-12 20:13:39 1515806019.928716: $GPRMC,011340,V,3946.9510,N,08404.9475,W,0.0000,0.000,130118,,*27
2018-01-12 20:13:39 1515806019.928832: $GPGSA,A,1,8,,,,,,,,,,,,,,,*0A
2018-01-12 20:13:40 1515806020.482728: $GPRMC,011341,V,3946.9510,N,08404.9475,W,0.0000,0.000,130118,,*26
2018-01-12 20:13:40 1515806020.482913: $GPGSA,A,1,8,,,,,,,,,,,,,,,*0A
2018-01-12 20:13:40 1515806020.737853: $GPRMC,011341,V,3946.9510,N,08404.9475,W,0.0000,0.000,130118,,*26
2018-01-12 20:13:40 1515806020.738032: $GPGSA,A,1,8,,,,,,,,,,,,,,,*0A
2018-01-12 20:13:41 1515806021.818382: $GPGSV,3,1,10,08,75,118,23,27,45,051,19,09,45,226,19,07,58,315,00*7A
2018-01-12 20:13:41 1515806021.818570: $GPGSV,3,2,10,30,32,307,00,23,26,189,00,11,23,166,00,16,20,063,00*7A
2018-01-12 20:13:41 1515806021.818641: $GPGSV,3,3,10,28,16,261,00,01,01,162,00*75
2018-01-12 20:13:41 1515806021.930682: $GPRMC,011342,V,3946.9510,N,08404.9475,W,0.0000,0.000,130118,,*25
2018-01-12 20:13:41 1515806021.930802: $GPGSA,A,1,8,9,,,,,,,,,,,,,,*33
2018-01-12 20:13:42 1515806022.391133: $GPZDA,011343.26,13,01,2018,00,00*6E
2018-01-12 20:13:42 1515806022.391310: $GPGGA,011343,3946.9550,N,08404.9466,W,1,02,1.80,333.98,M,-33.324,M,,*71
2018-01-12 20:13:42 1515806022.391380: $GPRMC,011343,A,3946.9550,N,08404.9466,W,1.8240,115.837,130118,,*33
2018-01-12 20:13:42 1515806022.391445: $GPGSA,A,3,8,9,,,,,,,,,,,4.8,1.8,4.6*34
2018-01-12 20:13:42 1515806022.391503: $GPGBS,011343,14.24,M,16.36,M,105.11,M*3F
2018-01-12 20:13:43 1515806023.044878: $GPZDA,011343.36,13,01,2018,00,00*6F
2018-01-12 20:13:43 1515806023.045090: $GPGGA,011343,3946.9554,N,08404.9466,W,1,02,1.80,334.62,M,-33.324,M,,*77
2018-01-12 20:13:43 1515806023.045163: $GPRMC,011343,A,3946.9554,N,08404.9466,W,1.9654,103.824,130118,,*32
2018-01-12 20:13:43 1515806023.045232: $GPGSA,A,3,8,9,,,,,,,,,,,4.8,1.8,4.6*34
2018-01-12 20:13:43 1515806023.805139: $GPGSV,3,1,11,08,75,118,23,27,45,051,19,09,45,226,24,07,59,315,21*77
2018-01-12 20:13:43 1515806023.805316: $GPGSV,3,2,11,23,26,189,12,30,32,307,00,11,23,166,00,16,20,063,00*78
2018-01-12 20:13:43 1515806023.805383: $GPGSV,3,3,11,28,16,261,00,01,01,162,00,138,38,213,00*75
2018-01-12 20:13:43 1515806023.918693: $GPZDA,011343.86,13,01,2018,00,00*64
2018-01-12 20:13:43 1515806023.918868: $GPGGA,011343,3946.9543,N,08404.9468,W,1,05,1.80,335.51,M,-33.324,M,,*79
2018-01-12 20:13:43 1515806023.918938: $GPRMC,011343,A,3946.9543,N,08404.9468,W,1.5823,134.257,130118,,*32
2018-01-12 20:13:43 1515806023.919003: $GPGSA,A,3,8,27,9,7,23,,,,,,,,4.8,1.8,4.6*07
2018-01-12 20:13:44 1515806024.172497: $GPZDA,011344.00,13,01,2018,00,00*6D
2018-01-12 20:13:44 1515806024.172679: $GPGGA,011344,3946.9536,N,08404.9469,W,1,05,1.80,337.04,M,-33.324,M,,*7F
2018-01-12 20:13:44 1515806024.172750: $GPRMC,011344,A,3946.9536,N,08404.9469,W,2.2514,151.242,130118,,*3C
2018-01-12 20:13:44 1515806024.172870: $GPGSA,A,3,8,27,9,7,23,,,,,,,,4.8,1.8,4.6*07
2018-01-12 20:13:44 1515806024.600887: $GPZDA,011345.00,13,01,2018,00,00*6C
2018-01-12 20:13:44 1515806024.601052: $GPGGA,011345,3946.9531,N,08404.9462,W,1,05,1.80,335.08,M,-33.324,M,,*7C
2018-01-12 20:13:44 1515806024.601119: $GPRMC,011345,A,3946.9531,N,08404.9462,W,1.8741,151.592,130118,,*30
2018-01-12 20:13:44 1515806024.601181: $GPGSA,A,3,8,27,9,7,23,,,,,,,,4.8,1.8,4.6*07
2018-01-12 20:13:45 1515806025.527012: $GPGSV,3,1,11,08,75,118,23,27,45,051,20,09,45,226,25,07,59,315,21*7C
2018-01-12 20:13:45 1515806025.527197: $GPGSV,3,2,11,23,26,189,12,28,16,261,15,30,32,307,00,11,23,166,00*74
2018-01-12 20:13:45 1515806025.527264: $GPGSV,3,3,11,16,20,063,00,01,01,162,00,138,38,213,00*7D
2018-01-12 20:13:45 1515806025.640463: $GPZDA,011346.00,13,01,2018,00,00*6F
2018-01-12 20:13:45 1515806025.640638: $GPGGA,011346,3946.9528,N,08404.9462,W,1,06,1.80,335.84,M,-33.324,M,,*70
2018-01-12 20:13:45 1515806025.640708: $GPRMC,011346,A,3946.9528,N,08404.9462,W,1.2942,148.566,130118,,*3F
2018-01-12 20:13:45 1515806025.640770: $GPGSA,A,3,8,27,9,7,23,28,,,,,,,4.8,1.8,4.6*0D
2018-01-12 20:13:46 1515806026.192121: $GPZDA,011347.00,13,01,2018,00,00*6E
2018-01-12 20:13:46 1515806026.192292: $GPGGA,011347,3946.9527,N,08404.9455,W,1,06,1.80,334.52,M,-33.324,M,,*70
2018-01-12 20:13:46 1515806026.192359: $GPRMC,011347,A,3946.9527,N,08404.9455,W,1.2619,129.994,130118,,*32
2018-01-12 20:13:46 1515806026.192422: $GPGSA,A,3,8,27,9,7,23,28,,,,,,,4.8,1.8,4.6*0D
2018-01-12 20:13:47 1515806027.193582: $GPZDA,011348.00,13,01,2018,00,00*61
2018-01-12 20:13:47 1515806027.193771: $GPGGA,011348,3946.9522,N,08404.9461,W,1,06,1.80,332.39,M,-33.324,M,,*76
2018-01-12 20:13:47 1515806027.193840: $GPRMC,011348,A,3946.9522,N,08404.9461,W,0.8458,140.898,130118,,*31
2018-01-12 20:13:47 1515806027.193901: $GPGSA,A,3,8,27,9,7,23,28,,,,,,,4.8,1.8,4.6*0D
2018-01-12 20:13:48 1515806028.526865: $GPGSV,3,1,11,08,75,118,24,27,45,051,20,09,45,226,25,07,59,315,21*7B
2018-01-12 20:13:48 1515806028.527046: $GPGSV,3,2,11,23,26,189,14,30,32,307,00,11,23,166,00,16,20,063,00*7E
2018-01-12 20:13:48 1515806028.527113: $GPGSV,3,3,11,28,16,261,00,01,01,162,00,138,38,213,00*75
2018-01-12 20:13:48 1515806028.639029: $GPZDA,011349.00,13,01,2018,00,00*60
2018-01-12 20:13:48 1515806028.639201: $GPGGA,011349,3946.9522,N,08404.9461,W,1,05,1.80,332.39,M,-33.324,M,,*74
2018-01-12 20:13:48 1515806028.639266: $GPRMC,011349,A,3946.9522,N,08404.9461,W,0.7108,131.360,130118,,*35
2018-01-12 20:13:48 1515806028.639327: $GPGSA,A,3,8,27,9,7,23,,,,,,,,4.8,1.8,4.6*07
2018-01-12 20:13:49 1515806029.189942: $GPZDA,011350.00,13,01,2018,00,00*68
2018-01-12 20:13:49 1515806029.190118: $GPGGA,011350,3946.9522,N,08404.9468,W,1,05,1.80,332.31,M,-33.324,M,,*7D
2018-01-12 20:13:49 1515806029.190185: $GPRMC,011350,A,3946.9522,N,08404.9468,W,0.1324,22.232,130118,,*0B
2018-01-12 20:13:49 1515806029.190246: $GPGSA,A,3,8,27,9,7,23,,,,,,,,4.8,1.8,4.6*07
2018-01-12 20:13:50 1515806030.190426: $GPZDA,011351.00,13,01,2018,00,00*69
2018-01-12 20:13:50 1515806030.190617: $GPGGA,011351,3946.9522,N,08404.9467,W,1,05,1.80,330.91,M,-33.324,M,,*7B
2018-01-12 20:13:50 1515806030.190702: $GPRMC,011351,A,3946.9522,N,08404.9467,W,0.5121,307.149,130118,,*3D
2018-01-12 20:13:50 1515806030.190764: $GPGSA,A,3,8,27,9,7,23,,,,,,,,4.8,1.8,4.6*07
2018-01-12 20:13:51 1515806031.526257: $GPGSV,3,1,11,08,75,118,24,27,45,051,19,09,45,226,25,07,59,315,20*70
2018-01-12 20:13:51 1515806031.526623: $GPGSV,3,2,11,23,26,189,14,30,32,307,00,11,23,166,00,16,20,063,00*7E
2018-01-12 20:13:51 1515806031.526709: $GPGSV,3,3,11,28,16,261,00,01,01,162,00,138,38,213,00*75
2018-01-12 20:13:51 1515806031.639718: $GPZDA,011352.00,13,01,2018,00,00*6A
2018-01-12 20:13:51 1515806031.639883: $GPGGA,011352,3946.9518,N,08404.9474,W,1,05,1.80,330.19,M,-33.324,M,,*73
2018-01-12 20:13:51 1515806031.639949: $GPRMC,011352,A,3946.9518,N,08404.9474,W,0.3031,219.207,130118,,*34
2018-01-12 20:13:51 1515806031.640011: $GPGSA,A,3,8,27,9,7,23,,,,,,,,4.8,1.8,4.6*07
2018-01-12 20:13:52 1515806032.191091: $GPZDA,011353.00,13,01,2018,00,00*6B
2018-01-12 20:13:52 1515806032.191264: $GPGGA,011353,3946.9519,N,08404.9476,W,1,05,1.80,333.00,M,-33.324,M,,*7A
2018-01-12 20:13:52 1515806032.191332: $GPRMC,011353,A,3946.9519,N,08404.9476,W,0.0814,142.012,130118,,*31
2018-01-12 20:13:52 1515806032.191394: $GPGSA,A,3,8,27,9,7,23,,,,,,,,4.8,1.8,4.6*07
2018-01-12 20:13:53 1515806033.191145: $GPZDA,011354.00,13,01,2018,00,00*6C
2018-01-12 20:13:53 1515806033.191319: $GPGGA,011354,3946.9519,N,08404.9475,W,1,05,1.80,331.60,M,-33.324,M,,*7A
2018-01-12 20:13:53 1515806033.191385: $GPRMC,011354,A,3946.9519,N,08404.9475,W,0.3372,330.408,130118,,*35
2018-01-12 20:13:53 1515806033.191446: $GPGSA,A,3,8,27,9,7,23,,,,,,,,4.8,1.8,4.6*07
2018-01-12 20:13:54 1515806034.524385: $GPGSV,3,1,11,08,75,118,24,27,45,051,00,09,45,226,25,07,59,315,20*78
2018-01-12 20:13:54 1515806034.524756: $GPGSV,3,2,11,23,26,189,14,30,32,307,00,11,23,166,00,16,20,063,00*7E
2018-01-12 20:13:54 1515806034.524881: $GPGSV,3,3,11,28,16,261,00,01,01,162,00,138,38,213,00*75
2018-01-12 20:13:54 1515806034.637774: $GPZDA,011355.00,13,01,2018,00,00*6D
2018-01-12 20:13:54 1515806034.637947: $GPGGA,011355,3946.9515,N,08404.9476,W,1,04,3.00,332.36,M,-33.324,M,,*7F
2018-01-12 20:13:54 1515806034.638014: $GPRMC,011355,A,3946.9515,N,08404.9476,W,0.1975,255.900,130118,,*33
2018-01-12 20:13:54 1515806034.638075: $GPGSA,A,3,8,9,7,23,,,,,,,,,4.8,3.0,4.6*08
2018-01-12 20:13:55 1515806035.188996: $GPZDA,011356.00,13,01,2018,00,00*6E
2018-01-12 20:13:55 1515806035.189168: $GPGGA,011356,3946.9515,N,08404.9469,W,1,04,3.00,332.44,M,-33.324,M,,*77
2018-01-12 20:13:55 1515806035.189233: $GPRMC,011356,A,3946.9515,N,08404.9469,W,0.4063,176.465,130118,,*39
2018-01-12 20:13:55 1515806035.189294: $GPGSA,A,3,8,9,7,23,,,,,,,,,4.8,3.0,4.6*08
2018-01-12 20:13:55 1515806035.189350: $GPGBS,011356,14.24,M,16.36,M,105.11,M*3B
2018-01-12 20:13:56 1515806036.190488: $GPZDA,011357.00,13,01,2018,00,00*6F
2018-01-12 20:13:56 1515806036.190700: $GPGGA,011357,3946.9511,N,08404.9469,W,1,04,3.00,331.80,M,-33.324,M,,*79
2018-01-12 20:13:56 1515806036.190767: $GPRMC,011357,A,3946.9511,N,08404.9469,W,1.2105,157.751,130118,,*3D
2018-01-12 20:13:56 1515806036.190829: $GPGSA,A,3,8,9,7,23,,,,,,,,,4.8,3.0,4.6*08
2018-01-12 20:13:56 1515806036.190884: $GPGBS,011357,14.24,M,16.36,M,105.11,M*3A
