2018-01-12 04:30:13 1515749413.798236: {"class":"VERSION","release":"3.16","rev":"3.16-4","proto_major":3,"proto_minor":11}
2018-01-12 04:30:13 1515749413.798590: {"class":"DEVICES","devices":[{"class":"DEVICE","path":"/dev/ttyUSB0","driver":"SiRF","subtype":"9\u0006GSD4e_4.1.2-P1_RPATCH.05-F-GPS-4R-1510281 11/03/2015 307","activated":"2018-01-12T09:30:13.510Z","flags":1,"native":1,"bps":4800,"parity":"N","stopbits":1,"cycle":1.00}]}
2018-01-12 04:30:13 1515749413.798705: {"class":"WATCH","enable":true,"json":false,"nmea":true,"raw":0,"scaled":false,"timing":false,"split24":false,"pps":false}
2018-01-12 04:30:14 1515749414.368374: $GPZDA,093015.00,12,01,2018,00,00*61
2018-01-12 04:30:14 1515749414.368537: $GPGGA,093015,3946.9648,N,08404.9716,W,2,10,1.00,291.92,M,-33.324,M,,*7E
2018-01-12 04:30:14 1515749414.368603: $GPRMC,093015,A,3946.9648,N,08404.9716,W,0.0000,0.000,120118,,*30
2018-01-12 04:30:14 1515749414.368664: $GPGSA,A,3,2,5,6,12,25,29,19,20,23,138,,,2.4,1.0,2.1*39
2018-01-12 04:30:15 1515749415.705289: $GPGSV,3,1,12,02,71,357,43,05,54,199,49,06,44,057,39,12,50,246,48*76
2018-01-12 04:30:15 1515749415.705476: $GPGSV,3,2,12,25,34,297,39,29,14,309,48,09,20,063,00,19,29,118,20*72
2018-01-12 04:30:15 1515749415.705541: $GPGSV,3,3,12,20,03,219,30,23,04,034,26,17,11,123,00,138,38,213,48*4F
2018-01-12 04:30:15 1515749415.818701: $GPZDA,093016.00,12,01,2018,00,00*62
2018-01-12 04:30:15 1515749415.818871: $GPGGA,093016,3946.9648,N,08404.9716,W,2,10,1.00,291.92,M,-33.324,M,,*7D
2018-01-12 04:30:15 1515749415.818936: $GPRMC,093016,A,3946.9648,N,08404.9716,W,0.0000,0.000,120118,,*33
2018-01-12 04:30:15 1515749415.818997: $GPGSA,A,3,2,5,6,12,25,29,19,20,23,138,,,2.4,1.0,2.1*39
2018-01-12 04:30:16 1515749416.445405: $GPZDA,093017.00,12,01,2018,00,00*63
2018-01-12 04:30:16 1515749416.445577: $GPGGA,093017,3946.9648,N,08404.9716,W,2,10,1.00,291.92,M,-33.324,M,,*7C
2018-01-12 04:30:16 1515749416.445643: $GPRMC,093017,A,3946.9648,N,08404.9716,W,0.0000,0.000,120118,,*32
2018-01-12 04:30:16 1515749416.445703: $GPGSA,A,3,2,5,6,12,25,29,19,20,23,138,,,2.4,1.0,2.1*39
2018-01-12 04:30:17 1515749417.367487: $GPZDA,093018.00,12,01,2018,00,00*6C
2018-01-12 04:30:17 1515749417.367673: $GPGGA,093018,3946.9648,N,08404.9716,W,2,10,1.00,291.92,M,-33.324,M,,*73
2018-01-12 04:30:17 1515749417.367741: $GPRMC,093018,A,3946.9648,N,08404.9716,W,0.0000,0.000,120118,,*3D
2018-01-12 04:30:17 1515749417.367802: $GPGSA,A,3,2,5,6,12,25,29,19,20,23,138,,,2.4,1.0,2.1*39
2018-01-12 04:30:18 1515749418.703199: $GPGSV,3,1,12,02,71,357,43,05,54,199,49,06,44,057,39,12,50,246,48*76
2018-01-12 04:30:18 1515749418.703398: $GPGSV,3,2,12,25,34,297,39,29,14,309,47,09,20,063,00,19,29,118,20*7D
2018-01-12 04:30:18 1515749418.703480: $GPGSV,3,3,12,20,03,219,30,23,04,034,25,17,11,123,00,138,38,213,47*43
2018-01-12 04:30:18 1515749418.820492: $GPZDA,093019.00,12,01,2018,00,00*6D
2018-01-12 04:30:18 1515749418.820669: $GPGGA,093019,3946.9648,N,08404.9716,W,2,10,1.00,291.92,M,-33.324,M,,*72
2018-01-12 04:30:18 1515749418.820796: $GPRMC,093019,A,3946.9648,N,08404.9716,W,0.0000,0.000,120118,,*3C
2018-01-12 04:30:18 1515749418.820860: $GPGSA,A,3,2,5,6,12,25,29,19,20,23,138,,,2.4,1.0,2.1*39
2018-01-12 04:30:19 1515749419.900952: $GPZDA,093020.00,12,01,2018,00,00*67
2018-01-12 04:30:19 1515749419.901136: $GPGGA,093020,3946.9651,N,08404.9732,W,2,10,1.00,295.98,M,-33.324,M,,*78
2018-01-12 04:30:19 1515749419.901220: $GPRMC,093020,A,3946.9651,N,08404.9732,W,0.0000,0.000,120118,,*38
2018-01-12 04:30:19 1515749419.901281: $GPGSA,A,3,2,5,6,12,25,29,19,20,23,138,,,2.4,1.0,2.1*39
2018-01-12 04:30:20 1515749420.366054: $GPZDA,093021.00,12,01,2018,00,00*66
2018-01-12 04:30:20 1515749420.366226: $GPGGA,093021,3946.9651,N,08404.9732,W,2,10,1.00,295.98,M,-33.324,M,,*79
2018-01-12 04:30:20 1515749420.366311: $GPRMC,093021,A,3946.9651,N,08404.9732,W,0.0000,0.000,120118,,*39
2018-01-12 04:30:20 1515749420.366374: $GPGSA,A,3,2,5,6,12,25,29,19,20,23,138,,,2.4,1.0,2.1*39
2018-01-12 04:30:21 1515749421.706261: $GPGSV,3,1,12,02,71,358,43,05,54,199,50,06,44,057,39,12,49,246,48*79
2018-01-12 04:30:21 1515749421.706494: $GPGSV,3,2,12,25,34,297,40,29,14,309,48,09,20,063,09,19,29,118,20*75
2018-01-12 04:30:21 1515749421.706576: $GPGSV,3,3,12,20,04,219,30,23,04,034,25,17,11,123,00,138,38,213,47*44
2018-01-12 04:30:21 1515749421.819874: $GPZDA,093022.00,12,01,2018,00,00*65
2018-01-12 04:30:21 1515749421.820040: $GPGGA,093022,3946.9651,N,08404.9732,W,2,10,1.00,295.98,M,-33.324,M,,*7A
2018-01-12 04:30:21 1515749421.820106: $GPRMC,093022,A,3946.9651,N,08404.9732,W,0.0000,0.000,120118,,*3A
2018-01-12 04:30:21 1515749421.820167: $GPGSA,A,3,2,5,6,12,25,29,19,20,23,138,,,2.4,1.0,2.1*39
2018-01-12 04:30:22 1515749422.369325: $GPZDA,093023.00,12,01,2018,00,00*64
2018-01-12 04:30:22 1515749422.369514: $GPGGA,093023,3946.9651,N,08404.9732,W,2,10,1.00,295.98,M,-33.324,M,,*7B
2018-01-12 04:30:22 1515749422.369580: $GPRMC,093023,A,3946.9651,N,08404.9732,W,0.0000,0.000,120118,,*3B
2018-01-12 04:30:22 1515749422.369642: $GPGSA,A,3,2,5,6,12,25,29,19,20,23,138,,,2.4,1.0,2.1*39
2018-01-12 04:30:23 1515749423.373944: $GPZDA,093024.00,12,01,2018,00,00*63
2018-01-12 04:30:23 1515749423.374116: $GPGGA,093024,3946.9651,N,08404.9732,W,2,10,1.00,295.98,M,-33.324,M,,*7C
2018-01-12 04:30:23 1515749423.374242: $GPRMC,093024,A,3946.9651,N,08404.9732,W,0.0000,0.000,120118,,*3C
2018-01-12 04:30:23 1515749423.374334: $GPGSA,A,3,2,5,6,12,25,29,19,20,23,138,,,2.4,1.0,2.1*39
2018-01-12 04:30:24 1515749424.704612: $GPGSV,3,1,12,02,71,358,43,05,54,199,50,06,44,057,39,12,49,246,48*79
2018-01-12 04:30:24 1515749424.704794: $GPGSV,3,2,12,25,34,297,40,29,14,309,48,09,20,063,19,19,29,118,20*74
2018-01-12 04:30:24 1515749424.704859: $GPGSV,3,3,12,20,04,219,30,23,04,034,25,17,11,123,00,138,38,213,47*44
2018-01-12 04:30:24 1515749424.818137: $GPZDA,093025.00,12,01,2018,00,00*62
2018-01-12 04:30:24 1515749424.818328: $GPGGA,093025,3946.9651,N,08404.9732,W,2,11,1.00,295.98,M,-33.324,M,,*7C
2018-01-12 04:30:24 1515749424.818395: $GPRMC,093025,A,3946.9651,N,08404.9732,W,0.0000,0.000,120118,,*3D
2018-01-12 04:30:24 1515749424.818473: $GPGSA,A,3,2,5,6,12,25,29,9,19,20,23,138,,2.4,1.0,2.1*00
2018-01-12 04:30:25 1515749425.373911: $GPZDA,093026.00,12,01,2018,00,00*61
2018-01-12 04:30:25 1515749425.374091: $GPGGA,093026,3946.9651,N,08404.9732,W,2,11,1.00,295.98,M,-33.324,M,,*7F
2018-01-12 04:30:25 1515749425.374158: $GPRMC,093026,A,3946.9651,N,08404.9732,W,0.0000,0.000,120118,,*3E
2018-01-12 04:30:25 1515749425.374271: $GPGSA,A,3,2,5,6,12,25,29,9,19,20,23,138,,2.4,1.0,2.1*00
2018-01-12 04:30:26 1515749426.366720: $GPZDA,093027.00,12,01,2018,00,00*60
2018-01-12 04:30:26 1515749426.366884: $GPGGA,093027,3946.9651,N,08404.9732,W,2,11,1.00,295.98,M,-33.324,M,,*7E
2018-01-12 04:30:26 1515749426.366951: $GPRMC,093027,A,3946.9651,N,08404.9732,W,0.0000,0.000,120118,,*3F
2018-01-12 04:30:26 1515749426.367014: $GPGSA,A,3,2,5,6,12,25,29,9,19,20,23,138,,2.4,1.0,2.1*00
2018-01-12 04:30:27 1515749427.704970: $GPGSV,3,1,12,02,71,358,44,05,54,199,50,06,44,057,39,12,49,246,48*7E
2018-01-12 04:30:27 1515749427.705165: $GPGSV,3,2,12,25,34,297,40,29,14,309,48,09,20,063,23,19,29,118,21*7C
2018-01-12 04:30:27 1515749427.705231: $GPGSV,3,3,12,20,04,219,30,23,04,034,24,17,11,123,00,138,38,213,47*45
2018-01-12 04:30:27 1515749427.817088: $GPZDA,093028.00,12,01,2018,00,00*6F
2018-01-12 04:30:27 1515749427.817260: $GPGGA,093028,3946.9651,N,08404.9732,W,2,11,1.00,295.98,M,-33.324,M,,*71
2018-01-12 04:30:27 1515749427.817329: $GPRMC,093028,A,3946.9651,N,08404.9732,W,0.0000,0.000,120118,,*30
2018-01-12 04:30:27 1515749427.817393: $GPGSA,A,3,2,5,6,12,25,29,9,19,20,23,138,,2.4,1.0,2.1*00
2018-01-12 04:30:28 1515749428.375641: $GPZDA,093029.00,12,01,2018,00,00*6E
2018-01-12 04:30:28 1515749428.375812: $GPGGA,093029,3946.9651,N,08404.9732,W,2,11,1.00,295.98,M,-33.324,M,,*70
2018-01-12 04:30:28 1515749428.375877: $GPRMC,093029,A,3946.9651,N,08404.9732,W,0.0000,0.000,120118,,*31
2018-01-12 04:30:28 1515749428.375938: $GPGSA,A,3,2,5,6,12,25,29,9,19,20,23,138,,2.4,1.0,2.1*00
2018-01-12 04:30:29 1515749429.368891: $GPZDA,093030.00,12,01,2018,00,00*66
2018-01-12 04:30:29 1515749429.369116: $GPGGA,093030,3946.9651,N,08404.9732,W,2,11,1.00,295.98,M,-33.324,M,,*78
2018-01-12 04:30:29 1515749429.369185: $GPRMC,093030,A,3946.9651,N,08404.9732,W,0.0000,0.000,120118,,*39
2018-01-12 04:30:29 1515749429.369266: $GPGSA,A,3,2,5,6,12,25,29,9,19,20,23,138,,2.4,1.0,2.1*00
2018-01-12 04:30:30 1515749430.699597: $GPGSV,3,1,12,02,71,358,44,05,54,199,50,06,44,057,40,12,49,246,48*70
2018-01-12 04:30:30 1515749430.699780: $GPGSV,3,2,12,25,34,297,40,29,14,309,48,09,20,063,24,19,29,118,21*7B
2018-01-12 04:30:30 1515749430.699846: $GPGSV,3,3,12,20,04,219,29,23,04,034,25,17,11,123,16,138,38,213,48*44
2018-01-12 04:30:30 1515749430.813006: $GPZDA,093031.00,12,01,2018,00,00*67
2018-01-12 04:30:30 1515749430.813176: $GPGGA,093031,3946.9651,N,08404.9732,W,2,12,1.00,295.98,M,-33.324,M,,*7A
2018-01-12 04:30:30 1515749430.813260: $GPRMC,093031,A,3946.9651,N,08404.9732,W,0.0000,0.000,120118,,*38
2018-01-12 04:30:30 1515749430.813323: $GPGSA,A,3,2,5,6,12,25,29,9,19,20,23,17,138,2.4,1.0,2.1*06
2018-01-12 04:30:31 1515749431.438390: $GPZDA,093032.00,12,01,2018,00,00*64
2018-01-12 04:30:31 1515749431.438563: $GPGGA,093032,3946.9651,N,08404.9732,W,2,12,1.00,295.98,M,-33.324,M,,*79
2018-01-12 04:30:31 1515749431.438629: $GPRMC,093032,A,3946.9651,N,08404.9732,W,0.0000,0.000,120118,,*3B
2018-01-12 04:30:31 1515749431.438691: $GPGSA,A,3,2,5,6,12,25,29,9,19,20,23,17,138,2.4,1.0,2.1*06
2018-01-12 04:30:32 1515749432.368545: $GPZDA,093033.00,12,01,2018,00,00*65
2018-01-12 04:30:32 1515749432.368716: $GPGGA,093033,3946.9651,N,08404.9732,W,2,12,1.00,295.98,M,-33.324,M,,*78
2018-01-12 04:30:32 1515749432.368781: $GPRMC,093033,A,3946.9651,N,08404.9732,W,0.0000,0.000,120118,,*3A
2018-01-12 04:30:32 1515749432.368843: $GPGSA,A,3,2,5,6,12,25,29,9,19,20,23,17,138,2.4,1.0,2.1*06
2018-01-12 04:30:33 1515749433.703713: $GPGSV,3,1,12,02,71,358,43,05,54,199,50,06,44,057,40,12,49,246,48*77
2018-01-12 04:30:33 1515749433.703873: $GPGSV,3,2,12,25,34,297,40,29,14,309,48,09,20,063,24,19,29,118,21*7B
2018-01-12 04:30:33 1515749433.703939: $GPGSV,3,3,12,20,04,219,29,23,04,034,25,17,11,123,14,138,38,213,47*49
2018-01-12 04:30:33 1515749433.817487: $GPZDA,093034.00,12,01,2018,00,00*62
2018-01-12 04:30:33 1515749433.817665: $GPGGA,093034,3946.9651,N,08404.9732,W,2,12,1.00,295.98,M,-33.324,M,,*7F
2018-01-12 04:30:33 1515749433.817731: $GPRMC,093034,A,3946.9651,N,08404.9732,W,0.0000,0.000,120118,,*3D
2018-01-12 04:30:33 1515749433.817792: $GPGSA,A,3,2,5,6,12,25,29,9,19,20,23,17,138,2.4,1.0,2.1*06
