2017-12-01 15:24:31 1512159871.567064: {"class":"VERSION","release":"3.16","rev":"3.16-4","proto_major":3,"proto_minor":11}
2017-12-01 15:24:31 1512159871.567530: {"class":"DEVICES","devices":[{"class":"DEVICE","path":"/dev/ttyUSB0","driver":"SiRF","subtype":"9\u0006GSD4e_4.1.2-P1_RPATCH.05-F-GPS-4R-1510281 11/03/2015 307","activated":"2017-12-01T20:24:31.541Z","flags":1,"native":1,"bps":4800,"parity":"N","stopbits":1,"cycle":1.00}]}
2017-12-01 15:24:31 1512159871.567653: {"class":"WATCH","enable":true,"json":false,"nmea":true,"raw":0,"scaled":false,"timing":false,"split24":false,"pps":false}
2017-12-01 15:24:32 1512159872.759832: $GPGSV,3,1,12,01,08,324,39,10,79,111,47,11,09,309,36,12,23,082,44*7D
2017-12-01 15:24:32 1512159872.763524: $GPGSV,3,2,12,14,48,280,44,18,46,129,47,24,22,045,46,25,23,123,44*79
2017-12-01 15:24:32 1512159872.763643: $GPGSV,3,3,12,31,25,208,45,32,64,307,48,21,02,174,17,138,38,213,46*49
2017-12-01 15:24:32 1512159872.875302: $GPZDA,202433.00,01,12,2017,00,00*64
2017-12-01 15:24:32 1512159872.875811: $GPGGA,202433,3946.9559,N,08404.9855,W,2,12,0.80,299.14,M,-33.324,M,,*72
2017-12-01 15:24:32 1512159872.876109: $GPRMC,202433,A,3946.9559,N,08404.9855,W,0.0000,0.000,011217,,*3E
2017-12-01 15:24:32 1512159872.876235: $GPGSA,A,3,1,10,11,12,14,18,24,25,31,32,21,138,2.0,0.8,1.5*38
2017-12-01 15:24:33 1512159873.424504: $GPZDA,202434.00,01,12,2017,00,00*63
2017-12-01 15:24:33 1512159873.424672: $GPGGA,202434,3946.9559,N,08404.9855,W,2,12,0.80,299.14,M,-33.324,M,,*75
2017-12-01 15:24:33 1512159873.424738: $GPRMC,202434,A,3946.9559,N,08404.9855,W,0.0000,0.000,011217,,*39
2017-12-01 15:24:33 1512159873.424799: $GPGSA,A,3,1,10,11,12,14,18,24,25,31,32,21,138,2.0,0.8,1.5*38
2017-12-01 15:24:34 1512159874.425911: $GPZDA,202435.00,01,12,2017,00,00*62
2017-12-01 15:24:34 1512159874.426101: $GPGGA,202435,3946.9559,N,08404.9855,W,2,12,0.80,299.14,M,-33.324,M,,*74
2017-12-01 15:24:34 1512159874.426225: $GPRMC,202435,A,3946.9559,N,08404.9855,W,0.0000,0.000,011217,,*38
2017-12-01 15:24:34 1512159874.426305: $GPGSA,A,3,1,10,11,12,14,18,24,25,31,32,21,138,2.0,0.8,1.5*38
2017-12-01 15:24:35 1512159875.760715: $GPGSV,3,1,12,01,08,324,39,10,79,111,47,11,09,309,36,12,23,082,44*7D
2017-12-01 15:24:35 1512159875.760912: $GPGSV,3,2,12,14,48,280,43,18,46,129,48,24,22,045,46,25,23,123,44*71
2017-12-01 15:24:35 1512159875.760999: $GPGSV,3,3,12,31,25,208,45,32,64,307,48,21,02,174,18,138,38,213,46*46
2017-12-01 15:24:35 1512159875.874104: $GPZDA,202436.00,01,12,2017,00,00*61
2017-12-01 15:24:35 1512159875.874286: $GPGGA,202436,3946.9559,N,08404.9855,W,2,12,0.80,299.14,M,-33.324,M,,*77
2017-12-01 15:24:35 1512159875.874353: $GPRMC,202436,A,3946.9559,N,08404.9855,W,0.0000,0.000,011217,,*3B
2017-12-01 15:24:35 1512159875.874414: $GPGSA,A,3,1,10,11,12,14,18,24,25,31,32,21,138,2.0,0.8,1.5*38
2017-12-01 15:24:36 1512159876.426610: $GPZDA,202437.00,01,12,2017,00,00*60
2017-12-01 15:24:36 1512159876.426777: $GPGGA,202437,3946.9559,N,08404.9855,W,2,12,0.80,299.14,M,-33.324,M,,*76
2017-12-01 15:24:36 1512159876.426844: $GPRMC,202437,A,3946.9559,N,08404.9855,W,0.0000,0.000,011217,,*3A
2017-12-01 15:24:36 1512159876.426905: $GPGSA,A,3,1,10,11,12,14,18,24,25,31,32,21,138,2.0,0.8,1.5*38
2017-12-01 15:24:37 1512159877.417840: $GPZDA,202438.00,01,12,2017,00,00*6F
2017-12-01 15:24:37 1512159877.418042: $GPGGA,202438,3946.9563,N,08404.9854,W,2,12,0.80,298.37,M,-33.324,M,,*71
2017-12-01 15:24:37 1512159877.418127: $GPRMC,202438,A,3946.9563,N,08404.9854,W,0.0000,0.000,011217,,*3D
2017-12-01 15:24:37 1512159877.418189: $GPGSA,A,3,1,10,11,12,14,18,24,25,31,32,21,138,2.0,0.8,1.5*38
2017-12-01 15:24:38 1512159878.761123: $GPGSV,3,1,12,01,08,324,38,10,79,111,47,11,09,309,36,12,23,082,43*7B
2017-12-01 15:24:38 1512159878.761311: $GPGSV,3,2,12,14,48,280,44,18,46,129,48,24,22,045,46,25,23,123,44*76
2017-12-01 15:24:38 1512159878.761458: $GPGSV,3,3,12,31,25,208,45,32,64,307,48,21,02,174,17,138,38,213,46*49
2017-12-01 15:24:38 1512159878.874527: $GPZDA,202439.00,01,12,2017,00,00*6E
2017-12-01 15:24:38 1512159878.874693: $GPGGA,202439,3946.9563,N,08404.9854,W,2,12,0.80,298.37,M,-33.324,M,,*70
2017-12-01 15:24:38 1512159878.874809: $GPRMC,202439,A,3946.9563,N,08404.9854,W,0.0000,0.000,011217,,*3C
2017-12-01 15:24:38 1512159878.874872: $GPGSA,A,3,1,10,11,12,14,18,24,25,31,32,21,138,2.0,0.8,1.5*38
2017-12-01 15:24:39 1512159879.425546: $GPZDA,202440.00,01,12,2017,00,00*60
2017-12-01 15:24:39 1512159879.425739: $GPGGA,202440,3946.9563,N,08404.9854,W,2,12,0.80,298.37,M,-33.324,M,,*7E
2017-12-01 15:24:39 1512159879.426103: $GPRMC,202440,A,3946.9563,N,08404.9854,W,0.0000,0.000,011217,,*32
2017-12-01 15:24:39 1512159879.426185: $GPGSA,A,3,1,10,11,12,14,18,24,25,31,32,21,138,2.0,0.8,1.5*38
2017-12-01 15:24:40 1512159880.423769: $GPZDA,202441.00,01,12,2017,00,00*61
2017-12-01 15:24:40 1512159880.423943: $GPGGA,202441,3946.9563,N,08404.9854,W,2,12,0.80,298.37,M,-33.324,M,,*7F
2017-12-01 15:24:40 1512159880.424016: $GPRMC,202441,A,3946.9563,N,08404.9854,W,0.0000,0.000,011217,,*33
2017-12-01 15:24:40 1512159880.424081: $GPGSA,A,3,1,10,11,12,14,18,24,25,31,32,21,138,2.0,0.8,1.5*38
2017-12-01 15:24:41 1512159881.759463: $GPGSV,3,1,12,01,08,324,38,10,79,111,46,11,09,309,37,12,23,082,42*7A
2017-12-01 15:24:41 1512159881.759646: $GPGSV,3,2,12,14,48,280,44,18,46,129,48,24,22,045,46,25,23,123,44*76
2017-12-01 15:24:41 1512159881.759715: $GPGSV,3,3,12,31,25,208,45,32,64,307,48,21,02,174,16,138,38,213,46*48
2017-12-01 15:24:41 1512159881.872877: $GPZDA,202442.00,01,12,2017,00,00*62
2017-12-01 15:24:41 1512159881.873055: $GPGGA,202442,3946.9563,N,08404.9854,W,2,12,0.80,298.37,M,-33.324,M,,*7C
2017-12-01 15:24:41 1512159881.873127: $GPRMC,202442,A,3946.9563,N,08404.9854,W,0.0000,0.000,011217,,*30
2017-12-01 15:24:41 1512159881.873188: $GPGSA,A,3,1,10,11,12,14,18,24,25,31,32,21,138,2.0,0.8,1.5*38
2017-12-01 15:24:42 1512159882.498374: $GPZDA,202443.00,01,12,2017,00,00*63
2017-12-01 15:24:42 1512159882.498555: $GPGGA,202443,3946.9563,N,08404.9854,W,2,12,0.80,298.37,M,-33.324,M,,*7D
2017-12-01 15:24:42 1512159882.498626: $GPRMC,202443,A,3946.9563,N,08404.9854,W,0.0000,0.000,011217,,*31
2017-12-01 15:24:42 1512159882.498690: $GPGSA,A,3,1,10,11,12,14,18,24,25,31,32,21,138,2.0,0.8,1.5*38
2017-12-01 15:24:43 1512159883.425264: $GPZDA,202444.00,01,12,2017,00,00*64
2017-12-01 15:24:43 1512159883.425455: $GPGGA,202444,3946.9563,N,08404.9854,W,2,12,0.80,298.37,M,-33.324,M,,*7A
2017-12-01 15:24:43 1512159883.425524: $GPRMC,202444,A,3946.9563,N,08404.9854,W,0.0000,0.000,011217,,*36
2017-12-01 15:24:43 1512159883.425586: $GPGSA,A,3,1,10,11,12,14,18,24,25,31,32,21,138,2.0,0.8,1.5*38
2017-12-01 15:24:44 1512159884.753534: $GPGSV,3,1,12,01,08,324,38,10,79,111,47,11,09,309,30,12,23,082,42*7C
2017-12-01 15:24:44 1512159884.753720: $GPGSV,3,2,12,14,48,280,43,18,46,129,48,24,22,045,46,25,23,123,44*71
2017-12-01 15:24:44 1512159884.753788: $GPGSV,3,3,12,31,25,208,45,32,64,307,48,21,02,174,00,138,38,213,46*4F
2017-12-01 15:24:44 1512159884.867033: $GPZDA,202445.00,01,12,2017,00,00*65
2017-12-01 15:24:44 1512159884.867235: $GPGGA,202445,3946.9563,N,08404.9854,W,2,11,0.80,298.37,M,-33.324,M,,*78
2017-12-01 15:24:44 1512159884.867303: $GPRMC,202445,A,3946.9563,N,08404.9854,W,0.0000,0.000,011217,,*37
2017-12-01 15:24:44 1512159884.867365: $GPGSA,A,3,1,10,11,12,14,18,24,25,31,32,138,,2.0,0.8,1.5*3B
2017-12-01 15:24:45 1512159885.425624: $GPZDA,202446.00,01,12,2017,00,00*66
2017-12-01 15:24:45 1512159885.425798: $GPGGA,202446,3946.9563,N,08404.9854,W,2,11,0.80,298.37,M,-33.324,M,,*7B
2017-12-01 15:24:45 1512159885.425864: $GPRMC,202446,A,3946.9563,N,08404.9854,W,0.0000,0.000,011217,,*34
2017-12-01 15:24:45 1512159885.425924: $GPGSA,A,3,1,10,11,12,14,18,24,25,31,32,138,,2.0,0.8,1.5*3B
2017-12-01 15:24:46 1512159886.425228: $GPZDA,202447.00,01,12,2017,00,00*67
2017-12-01 15:24:46 1512159886.425410: $GPGGA,202447,3946.9563,N,08404.9854,W,2,11,0.80,298.37,M,-33.324,M,,*7A
2017-12-01 15:24:46 1512159886.425478: $GPRMC,202447,A,3946.9563,N,08404.9854,W,0.0000,0.000,011217,,*35
2017-12-01 15:24:46 1512159886.425540: $GPGSA,A,3,1,10,11,12,14,18,24,25,31,32,138,,2.0,0.8,1.5*3B
2017-12-01 15:24:47 1512159887.761386: $GPGSV,3,1,12,01,08,324,40,10,79,111,47,11,09,309,38,12,23,082,42*7B
2017-12-01 15:24:47 1512159887.761553: $GPGSV,3,2,12,14,48,280,43,18,46,129,48,24,22,045,46,25,23,123,44*71
2017-12-01 15:24:47 1512159887.761621: $GPGSV,3,3,12,31,25,208,46,32,64,307,48,21,02,174,00,138,38,213,47*4D
2017-12-01 15:24:47 1512159887.874786: $GPZDA,202448.00,01,12,2017,00,00*68
2017-12-01 15:24:47 1512159887.874982: $GPGGA,202448,3946.9563,N,08404.9854,W,2,11,0.80,298.37,M,-33.324,M,,*75
2017-12-01 15:24:47 1512159887.875051: $GPRMC,202448,A,3946.9563,N,08404.9854,W,0.0000,0.000,011217,,*3A
2017-12-01 15:24:47 1512159887.875130: $GPGSA,A,3,1,10,11,12,14,18,24,25,31,32,138,,2.0,0.8,1.5*3B
2017-12-01 15:24:48 1512159888.425702: $GPZDA,202449.00,01,12,2017,00,00*69
2017-12-01 15:24:48 1512159888.428646: $GPGGA,202449,3946.9563,N,08404.9854,W,2,11,0.80,298.37,M,-33.324,M,,*74
2017-12-01 15:24:48 1512159888.428748: $GPRMC,202449,A,3946.9563,N,08404.9854,W,0.0000,0.000,011217,,*3B
2017-12-01 15:24:48 1512159888.428812: $GPGSA,A,3,1,10,11,12,14,18,24,25,31,32,138,,2.0,0.8,1.5*3B
2017-12-01 15:24:49 1512159889.424090: $GPZDA,202450.00,01,12,2017,00,00*61
2017-12-01 15:24:49 1512159889.424263: $GPGGA,202450,3946.9563,N,08404.9854,W,2,11,0.80,298.37,M,-33.324,M,,*7C
2017-12-01 15:24:49 1512159889.424330: $GPRMC,202450,A,3946.9563,N,08404.9854,W,0.0000,0.000,011217,,*33
2017-12-01 15:24:49 1512159889.424391: $GPGSA,A,3,1,10,11,12,14,18,24,25,31,32,138,,2.0,0.8,1.5*3B
2017-12-01 15:24:50 1512159890.755999: $GPGSV,3,1,12,01,08,324,40,10,79,111,47,11,09,309,32,12,23,082,43*70
2017-12-01 15:24:50 1512159890.756201: $GPGSV,3,2,12,14,48,280,43,18,46,129,48,24,22,045,45,25,23,123,44*72
2017-12-01 15:24:50 1512159890.756270: $GPGSV,3,3,12,31,25,208,45,32,64,307,48,21,02,174,08,138,38,213,45*44
2017-12-01 15:24:50 1512159890.869392: $GPZDA,202451.00,01,12,2017,00,00*60
2017-12-01 15:24:50 1512159890.869521: $GPGGA,202451,3946.9563,N,08404.9854,W,2,11,0.80,298.37,M,-33.324,M,,*7D
2017-12-01 15:24:50 1512159890.869587: $GPRMC,202451,A,3946.9563,N,08404.9854,W,0.0000,0.000,011217,,*32
2017-12-01 15:24:50 1512159890.869648: $GPGSA,A,3,1,10,11,12,14,18,24,25,31,32,138,,2.0,0.8,1.5*3B
2017-12-01 15:24:51 1512159891.425326: $GPZDA,202452.00,01,12,2017,00,00*63
2017-12-01 15:24:51 1512159891.425497: $GPGGA,202452,3946.9563,N,08404.9854,W,2,11,0.80,298.37,M,-33.324,M,,*7E
2017-12-01 15:24:51 1512159891.425565: $GPRMC,202452,A,3946.9563,N,08404.9854,W,0.0000,0.000,011217,,*31
2017-12-01 15:24:51 1512159891.425625: $GPGSA,A,3,1,10,11,12,14,18,24,25,31,32,138,,2.0,0.8,1.5*3B
