2017-11-16 15:54:29 1510865669.601954: {"class":"VERSION","release":"3.17","rev":"3.17","proto_major":3,"proto_minor":12}
2017-11-16 15:54:29 1510865669.602373: {"class":"DEVICES","devices":[{"class":"DEVICE","path":"/dev/ttyUSB0","driver":"SiRF","subtype":"9\u0006GSD4e_4.1.2-P1_RPATCH.05-F-GPS-4R-1510281 11/03/2015 307","activated":"2017-11-16T20:54:29.509Z","flags":1,"native":1,"bps":4800,"parity":"N","stopbits":1,"cycle":1.00}]}
2017-11-16 15:54:29 1510865669.602485: {"class":"WATCH","enable":true,"json":false,"nmea":true,"raw":0,"scaled":false,"timing":false,"split24":false,"pps":false}
2017-11-16 15:54:30 1510865670.383493: $GPZDA,205429.00,16,11,2017,00,00*6D
2017-11-16 15:54:30 1510865670.383665: $GPGGA,205429,3946.9578,N,08404.9844,W,2,12,1.20,307.47,M,-33.324,M,,*76
2017-11-16 15:54:30 1510865670.383728: $GPRMC,205429,A,3946.9578,N,08404.9844,W,0.0000,0.000,161117,,*34
2017-11-16 15:54:30 1510865670.383784: $GPGSA,A,3,11,10,14,31,18,25,21,24,15,32,12,138,1.6,1.2,1.3*05
2017-11-16 15:54:31 1510865671.719975: $GPGSV,3,1,12,11,04,321,33,10,80,001,50,14,38,264,45,31,10,205,23*7B
2017-11-16 15:54:31 1510865671.720146: $GPGSV,3,2,12,18,60,115,48,25,12,133,33,21,16,177,34,24,35,049,49*7A
2017-11-16 15:54:31 1510865671.720207: $GPGSV,3,3,12,15,03,073,31,32,55,280,47,12,17,096,47,138,38,213,44*4B
2017-11-16 15:54:31 1510865671.833331: $GPZDA,205430.00,16,11,2017,00,00*65
2017-11-16 15:54:31 1510865671.833498: $GPGGA,205430,3946.9578,N,08404.9844,W,2,12,1.20,307.47,M,-33.324,M,,*7E
2017-11-16 15:54:31 1510865671.833561: $GPRMC,205430,A,3946.9578,N,08404.9844,W,0.0000,0.000,161117,,*3C
2017-11-16 15:54:31 1510865671.833617: $GPGSA,A,3,11,10,14,31,18,25,21,24,15,32,12,138,1.6,1.2,1.3*05
2017-11-16 15:54:32 1510865672.366987: $GPZDA,205431.00,16,11,2017,00,00*64
2017-11-16 15:54:32 1510865672.367149: $GPGGA,205431,3946.9578,N,08404.9844,W,2,12,1.20,307.47,M,-33.324,M,,*7F
2017-11-16 15:54:32 1510865672.367210: $GPRMC,205431,A,3946.9578,N,08404.9844,W,0.0000,0.000,161117,,*3D
2017-11-16 15:54:32 1510865672.367266: $GPGSA,A,3,11,10,14,31,18,25,21,24,15,32,12,138,1.6,1.2,1.3*05
2017-11-16 15:54:33 1510865673.367616: $GPZDA,205432.00,16,11,2017,00,00*67
2017-11-16 15:54:33 1510865673.367801: $GPGGA,205432,3946.9578,N,08404.9844,W,2,12,1.20,307.47,M,-33.324,M,,*7C
2017-11-16 15:54:33 1510865673.367862: $GPRMC,205432,A,3946.9578,N,08404.9844,W,0.0000,0.000,161117,,*3E
2017-11-16 15:54:33 1510865673.367918: $GPGSA,A,3,11,10,14,31,18,25,21,24,15,32,12,138,1.6,1.2,1.3*05
2017-11-16 15:54:34 1510865674.704201: $GPGSV,3,1,12,11,04,321,32,10,80,001,50,14,38,264,45,31,10,205,23*7A
2017-11-16 15:54:34 1510865674.704435: $GPGSV,3,2,12,18,60,115,48,25,12,133,33,21,16,177,34,24,35,049,49*7A
2017-11-16 15:54:34 1510865674.704505: $GPGSV,3,3,12,15,03,073,31,32,55,280,47,12,17,096,47,138,38,213,44*4B
2017-11-16 15:54:34 1510865674.815752: $GPZDA,205433.00,16,11,2017,00,00*66
2017-11-16 15:54:34 1510865674.815863: $GPGGA,205433,3946.9578,N,08404.9844,W,2,12,1.20,307.47,M,-33.324,M,,*7D
2017-11-16 15:54:34 1510865674.815894: $GPRMC,205433,A,3946.9578,N,08404.9844,W,0.0000,0.000,161117,,*3F
2017-11-16 15:54:34 1510865674.815922: $GPGSA,A,3,11,10,14,31,18,25,21,24,15,32,12,138,1.6,1.2,1.3*05
2017-11-16 15:54:35 1510865675.365356: $GPZDA,205434.00,16,11,2017,00,00*61
2017-11-16 15:54:35 1510865675.365460: $GPGGA,205434,3946.9578,N,08404.9844,W,2,12,1.20,307.47,M,-33.324,M,,*7A
2017-11-16 15:54:35 1510865675.365493: $GPRMC,205434,A,3946.9578,N,08404.9844,W,0.0000,0.000,161117,,*38
2017-11-16 15:54:35 1510865675.365522: $GPGSA,A,3,11,10,14,31,18,25,21,24,15,32,12,138,1.6,1.2,1.3*05
2017-11-16 15:54:36 1510865676.384056: $GPZDA,205435.00,16,11,2017,00,00*60
2017-11-16 15:54:36 1510865676.384221: $GPGGA,205435,3946.9578,N,08404.9844,W,2,12,1.20,307.47,M,-33.324,M,,*7B
2017-11-16 15:54:36 1510865676.384282: $GPRMC,205435,A,3946.9578,N,08404.9844,W,0.0000,0.000,161117,,*39
2017-11-16 15:54:36 1510865676.384339: $GPGSA,A,3,11,10,14,31,18,25,21,24,15,32,12,138,1.6,1.2,1.3*05
2017-11-16 15:54:37 1510865677.704895: $GPGSV,3,1,12,11,04,321,32,10,80,001,50,14,38,264,45,31,10,205,23*7A
2017-11-16 15:54:37 1510865677.705102: $GPGSV,3,2,12,18,60,115,48,25,12,133,33,21,16,177,34,24,35,049,50*72
2017-11-16 15:54:37 1510865677.705164: $GPGSV,3,3,12,15,03,073,31,32,55,280,47,12,17,096,47,138,38,213,45*4A
2017-11-16 15:54:37 1510865677.817994: $GPZDA,205436.00,16,11,2017,00,00*63
2017-11-16 15:54:37 1510865677.818158: $GPGGA,205436,3946.9578,N,08404.9844,W,2,12,1.20,307.47,M,-33.324,M,,*78
2017-11-16 15:54:37 1510865677.818220: $GPRMC,205436,A,3946.9578,N,08404.9844,W,0.0000,0.000,161117,,*3A
2017-11-16 15:54:37 1510865677.818275: $GPGSA,A,3,11,10,14,31,18,25,21,24,15,32,12,138,1.6,1.2,1.3*05
2017-11-16 15:54:38 1510865678.383916: $GPZDA,205437.00,16,11,2017,00,00*62
2017-11-16 15:54:38 1510865678.384093: $GPGGA,205437,3946.9578,N,08404.9844,W,2,12,1.20,307.47,M,-33.324,M,,*79
2017-11-16 15:54:38 1510865678.384156: $GPRMC,205437,A,3946.9578,N,08404.9844,W,0.0000,0.000,161117,,*3B
2017-11-16 15:54:38 1510865678.384212: $GPGSA,A,3,11,10,14,31,18,25,21,24,15,32,12,138,1.6,1.2,1.3*05
2017-11-16 15:54:39 1510865679.367245: $GPZDA,205438.00,16,11,2017,00,00*6D
2017-11-16 15:54:39 1510865679.367410: $GPGGA,205438,3946.9578,N,08404.9844,W,2,12,1.20,307.47,M,-33.324,M,,*76
2017-11-16 15:54:39 1510865679.367473: $GPRMC,205438,A,3946.9578,N,08404.9844,W,0.0000,0.000,161117,,*34
2017-11-16 15:54:39 1510865679.367531: $GPGSA,A,3,11,10,14,31,18,25,21,24,15,32,12,138,1.6,1.2,1.3*05
