2018-01-12 04:35:07 1515749707.761516: {"class":"VERSION","release":"3.16","rev":"3.16-4","proto_major":3,"proto_minor":11}
2018-01-12 04:35:07 1515749707.761849: {"class":"DEVICES","devices":[{"class":"DEVICE","path":"/dev/ttyUSB0","driver":"SiRF","subtype":"9\u0006GSD4e_4.1.2-P1_RPATCH.05-F-GPS-4R-1510281 11/03/2015 307","activated":"2018-01-12T09:35:07.392Z","flags":1,"native":1,"bps":4800,"parity":"N","stopbits":1,"cycle":1.00}]}
2018-01-12 04:35:07 1515749707.761963: {"class":"WATCH","enable":true,"json":false,"nmea":true,"raw":0,"scaled":false,"timing":false,"split24":false,"pps":false}
2018-01-12 04:35:07 1515749707.988753: $GPZDA,093508.68,12,01,2018,00,00*66
2018-01-12 04:35:07 1515749707.988930: $GPGGA,093508,3946.9664,N,08404.9744,W,1,12,1.60,307.01,M,-33.324,M,,*7D
2018-01-12 04:35:07 1515749707.988997: $GPRMC,093508,A,3946.9664,N,08404.9744,W,1.0585,24.164,120118,,*0C
2018-01-12 04:35:07 1515749707.989085: $GPGSA,A,3,2,5,6,12,25,29,9,17,20,23,19,138,2.4,1.6,2.1*00
2018-01-12 04:35:08 1515749708.933318: $GPZDA,093509.37,12,01,2018,00,00*6D
2018-01-12 04:35:08 1515749708.933490: $GPGGA,093509,3946.9664,N,08404.9744,W,1,12,1.60,307.01,M,-33.324,M,,*7C
2018-01-12 04:35:08 1515749708.933571: $GPRMC,093509,A,3946.9664,N,08404.9744,W,0.5394,327.250,120118,,*3B
2018-01-12 04:35:08 1515749708.933646: $GPGSA,A,3,2,5,6,12,25,29,9,17,20,23,19,138,2.4,1.6,2.1*00
2018-01-12 04:35:10 1515749710.097910: $GPGSV,3,1,12,02,70,004,43,05,57,199,46,06,42,060,39,12,48,243,49*71
2018-01-12 04:35:10 1515749710.098123: $GPGSV,3,2,12,25,34,294,38,29,16,309,47,09,19,061,03,20,05,220,02*7A
2018-01-12 04:35:10 1515749710.098209: $GPGSV,3,3,12,23,03,033,02,19,27,120,00,17,09,124,00,138,38,213,00*4D
2018-01-12 04:35:10 1515749710.211390: $GPZDA,093510.00,12,01,2018,00,00*61
2018-01-12 04:35:10 1515749710.211562: $GPGGA,093510,3946.9664,N,08404.9744,W,1,06,1.60,307.01,M,-33.324,M,,*71
2018-01-12 04:35:10 1515749710.211628: $GPRMC,093510,A,3946.9664,N,08404.9744,W,0.3026,285.365,120118,,*31
2018-01-12 04:35:10 1515749710.211690: $GPGSA,A,3,2,5,6,12,25,29,,,,,,,2.4,1.6,2.1*0E
2018-01-12 04:35:10 1515749710.664887: $GPRMC,093511,V,3946.9665,N,08404.9745,W,0.2710,280.223,120118,,*22
2018-01-12 04:35:10 1515749710.665080: $GPGSA,A,1,2,5,6,12,25,29,,,,,,,,,,*0C
2018-01-12 04:35:11 1515749711.393416: $GPZDA,093512.00,12,01,2018,00,00*63
2018-01-12 04:35:11 1515749711.393583: $GPGGA,093512,3946.9662,N,08404.9746,W,1,06,0.80,309.18,M,-33.324,M,,*7E
2018-01-12 04:35:11 1515749711.393650: $GPRMC,093512,A,3946.9662,N,08404.9746,W,0.0000,0.000,120118,,*3F
2018-01-12 04:35:11 1515749711.393712: $GPGSA,A,3,2,5,6,12,25,29,,,,,,,2.4,0.8,2.1*01
2018-01-12 04:35:12 1515749712.724509: $GPGSV,3,1,12,02,70,004,43,05,57,199,49,06,42,060,39,12,48,243,49*7E
2018-01-12 04:35:12 1515749712.724689: $GPGSV,3,2,12,25,34,294,39,29,16,309,48,09,19,061,28,20,05,220,21*7C
2018-01-12 04:35:12 1515749712.724755: $GPGSV,3,3,12,23,03,033,26,17,09,124,29,19,27,120,22,138,38,213,00*40
2018-01-12 04:35:12 1515749712.837834: $GPZDA,093513.00,12,01,2018,00,00*62
2018-01-12 04:35:12 1515749712.838024: $GPGGA,093513,3946.9666,N,08404.9753,W,1,11,0.80,309.74,M,-33.324,M,,*73
2018-01-12 04:35:12 1515749712.838092: $GPRMC,093513,A,3946.9666,N,08404.9753,W,0.0000,0.000,120118,,*3E
2018-01-12 04:35:12 1515749712.838185: $GPGSA,A,3,2,5,6,12,25,29,9,20,23,17,19,,2.4,0.8,2.1*35
2018-01-12 04:35:13 1515749713.390180: $GPZDA,093514.00,12,01,2018,00,00*65
2018-01-12 04:35:13 1515749713.390373: $GPGGA,093514,3946.9666,N,08404.9753,W,1,11,0.80,309.74,M,-33.324,M,,*74
2018-01-12 04:35:13 1515749713.390440: $GPRMC,093514,A,3946.9666,N,08404.9753,W,0.0000,0.000,120118,,*39
2018-01-12 04:35:13 1515749713.390502: $GPGSA,A,3,2,5,6,12,25,29,9,20,23,17,19,,2.4,0.8,2.1*35
2018-01-12 04:35:14 1515749714.392256: $GPZDA,093515.00,12,01,2018,00,00*64
2018-01-12 04:35:14 1515749714.392425: $GPGGA,093515,3946.9663,N,08404.9753,W,1,11,0.80,310.50,M,-33.324,M,,*7E
2018-01-12 04:35:14 1515749714.392491: $GPRMC,093515,A,3946.9663,N,08404.9753,W,0.0000,0.000,120118,,*3D
2018-01-12 04:35:14 1515749714.392552: $GPGSA,A,3,2,5,6,12,25,29,9,20,23,17,19,,2.4,0.8,2.1*35
2018-01-12 04:35:14 1515749714.392664: $GPGBS,093515,11.98,M,14.47,M,47.88,M*01
2018-01-12 04:35:15 1515749715.726452: $GPGSV,3,1,12,02,70,004,43,05,57,199,49,06,42,060,39,12,48,243,49*7E
2018-01-12 04:35:15 1515749715.726630: $GPGSV,3,2,12,25,34,294,40,29,16,309,48,09,19,061,28,20,05,220,23*70
2018-01-12 04:35:15 1515749715.726696: $GPGSV,3,3,12,23,03,033,26,17,09,124,29,19,27,120,24,138,38,213,48*4A
2018-01-12 04:35:15 1515749715.840100: $GPZDA,093516.00,12,01,2018,00,00*67
2018-01-12 04:35:15 1515749715.840274: $GPGGA,093516,3946.9667,N,08404.9753,W,1,12,0.80,311.14,M,-33.324,M,,*7B
2018-01-12 04:35:15 1515749715.840340: $GPRMC,093516,A,3946.9667,N,08404.9753,W,0.0000,0.000,120118,,*3A
2018-01-12 04:35:15 1515749715.840400: $GPGSA,A,3,2,5,6,12,25,29,9,20,23,17,19,138,2.4,0.8,2.1*0F
2018-01-12 04:35:16 1515749716.393204: $GPZDA,093517.00,12,01,2018,00,00*66
2018-01-12 04:35:16 1515749716.393397: $GPGGA,093517,3946.9671,N,08404.9777,W,2,12,3.00,316.52,M,-33.324,M,,*76
2018-01-12 04:35:16 1515749716.393465: $GPRMC,093517,A,3946.9671,N,08404.9777,W,0.0000,0.000,120118,,*3A
2018-01-12 04:35:16 1515749716.393527: $GPGSA,A,3,2,5,6,12,25,29,9,20,23,17,19,138,2.4,3.0,2.1*04
2018-01-12 04:35:17 1515749717.391123: $GPZDA,093518.00,12,01,2018,00,00*69
2018-01-12 04:35:17 1515749717.391293: $GPGGA,093518,3946.9675,N,08404.9777,W,2,12,1.60,317.16,M,-33.324,M,,*78
2018-01-12 04:35:17 1515749717.391359: $GPRMC,093518,A,3946.9675,N,08404.9777,W,0.0000,0.000,120118,,*31
2018-01-12 04:35:17 1515749717.391420: $GPGSA,A,3,2,5,6,12,25,29,9,20,23,17,19,138,2.4,1.6,2.1*00
2018-01-12 04:35:18 1515749718.729317: $GPGSV,3,1,12,02,70,004,43,05,57,199,49,06,42,060,39,12,48,243,49*7E
2018-01-12 04:35:18 1515749718.729490: $GPGSV,3,2,12,25,34,294,40,29,16,309,48,09,19,061,22,20,05,220,28*71
2018-01-12 04:35:18 1515749718.729555: $GPGSV,3,3,12,23,03,033,26,17,09,124,28,19,27,120,05,138,38,213,47*47
2018-01-12 04:35:18 1515749718.842706: $GPZDA,093519.00,12,01,2018,00,00*68
2018-01-12 04:35:18 1515749718.842891: $GPGGA,093519,3946.9678,N,08404.9777,W,2,11,1.60,316.40,M,-33.324,M,,*75
2018-01-12 04:35:18 1515749718.842981: $GPRMC,093519,A,3946.9678,N,08404.9777,W,0.2422,93.794,120118,,*0B
2018-01-12 04:35:18 1515749718.843045: $GPGSA,A,3,2,5,6,12,25,29,9,20,23,17,138,,2.4,1.6,2.1*08
2018-01-12 04:35:19 1515749719.394883: $GPZDA,093520.00,12,01,2018,00,00*62
2018-01-12 04:35:19 1515749719.395082: $GPGGA,093520,3946.9686,N,08404.9776,W,2,11,1.40,316.27,M,-33.325,M,,*7D
2018-01-12 04:35:19 1515749719.395168: $GPRMC,093520,A,3946.9686,N,08404.9776,W,0.8054,68.645,120118,,*07
2018-01-12 04:35:19 1515749719.395231: $GPGSA,A,3,2,5,6,12,25,29,9,20,23,17,138,,2.4,1.4,2.1*0A
2018-01-12 04:35:20 1515749720.392232: $GPZDA,093521.00,12,01,2018,00,00*63
2018-01-12 04:35:20 1515749720.392414: $GPGGA,093521,3946.9694,N,08404.9775,W,2,11,1.40,316.15,M,-33.325,M,,*7D
2018-01-12 04:35:20 1515749720.392502: $GPRMC,093521,A,3946.9694,N,08404.9775,W,0.3006,62.539,120118,,*08
2018-01-12 04:35:20 1515749720.392566: $GPGSA,A,3,2,5,6,12,25,29,9,20,23,17,138,,2.4,1.4,2.1*0A
2018-01-12 04:35:21 1515749721.727667: $GPGSV,3,1,12,02,70,004,43,05,57,199,49,06,42,060,39,12,48,243,49*7E
2018-01-12 04:35:21 1515749721.727848: $GPGSV,3,2,12,25,34,294,40,29,16,309,48,09,19,061,23,20,05,220,29*71
2018-01-12 04:35:21 1515749721.727913: $GPGSV,3,3,12,23,03,033,26,17,09,124,23,19,27,120,24,138,38,213,47*4F
2018-01-12 04:35:21 1515749721.841017: $GPZDA,093522.00,12,01,2018,00,00*60
2018-01-12 04:35:21 1515749721.841315: $GPGGA,093522,3946.9694,N,08404.9775,W,2,12,0.80,316.15,M,-33.325,M,,*70
2018-01-12 04:35:21 1515749721.841406: $GPRMC,093522,A,3946.9694,N,08404.9775,W,0.0000,0.000,120118,,*35
2018-01-12 04:35:21 1515749721.841467: $GPGSA,A,3,2,5,6,12,25,29,9,20,23,17,19,138,2.4,0.8,2.1*0F
2018-01-12 04:35:22 1515749722.466608: $GPZDA,093523.00,12,01,2018,00,00*61
2018-01-12 04:35:22 1515749722.466808: $GPGGA,093523,3946.9694,N,08404.9775,W,2,12,0.80,316.15,M,-33.325,M,,*71
2018-01-12 04:35:22 1515749722.466978: $GPRMC,093523,A,3946.9694,N,08404.9775,W,0.0000,0.000,120118,,*34
2018-01-12 04:35:22 1515749722.467044: $GPGSA,A,3,2,5,6,12,25,29,9,20,23,17,19,138,2.4,0.8,2.1*0F
2018-01-12 04:35:23 1515749723.398567: $GPZDA,093524.00,12,01,2018,00,00*66
2018-01-12 04:35:23 1515749723.398737: $GPGGA,093524,3946.9694,N,08404.9775,W,2,12,0.80,316.15,M,-33.325,M,,*76
2018-01-12 04:35:23 1515749723.398804: $GPRMC,093524,A,3946.9694,N,08404.9775,W,0.0000,0.000,120118,,*33
2018-01-12 04:35:23 1515749723.398865: $GPGSA,A,3,2,5,6,12,25,29,9,20,23,17,19,138,2.4,0.8,2.1*0F
2018-01-12 04:35:24 1515749724.725548: $GPGSV,3,1,12,02,70,004,43,05,57,199,48,06,42,060,39,12,48,243,49*7F
2018-01-12 04:35:24 1515749724.725730: $GPGSV,3,2,12,25,34,294,39,29,16,309,49,09,19,061,22,20,05,220,30*77
2018-01-12 04:35:24 1515749724.725796: $GPGSV,3,3,12,23,03,033,25,17,09,124,22,19,27,120,23,138,38,213,47*4A
2018-01-12 04:35:24 1515749724.838880: $GPZDA,093525.00,12,01,2018,00,00*67
2018-01-12 04:35:24 1515749724.839084: $GPGGA,093525,3946.9694,N,08404.9775,W,2,12,0.80,316.15,M,-33.325,M,,*77
2018-01-12 04:35:24 1515749724.839151: $GPRMC,093525,A,3946.9694,N,08404.9775,W,0.0000,0.000,120118,,*32
2018-01-12 04:35:24 1515749724.839212: $GPGSA,A,3,2,5,6,12,25,29,9,20,23,17,19,138,2.4,0.8,2.1*0F
2018-01-12 04:35:25 1515749725.396022: $GPZDA,093526.00,12,01,2018,00,00*64
2018-01-12 04:35:25 1515749725.396224: $GPGGA,093526,3946.9690,N,08404.9776,W,2,12,0.80,316.91,M,-33.325,M,,*7F
2018-01-12 04:35:25 1515749725.396293: $GPRMC,093526,A,3946.9690,N,08404.9776,W,0.0000,0.000,120118,,*36
2018-01-12 04:35:25 1515749725.396364: $GPGSA,A,3,2,5,6,12,25,29,9,20,23,17,19,138,2.4,0.8,2.1*0F
2018-01-12 04:35:26 1515749726.399717: $GPZDA,093527.00,12,01,2018,00,00*65
2018-01-12 04:35:26 1515749726.399888: $GPGGA,093527,3946.9690,N,08404.9776,W,2,12,0.80,316.91,M,-33.325,M,,*7E
2018-01-12 04:35:26 1515749726.399975: $GPRMC,093527,A,3946.9690,N,08404.9776,W,0.0000,0.000,120118,,*37
2018-01-12 04:35:26 1515749726.400037: $GPGSA,A,3,2,5,6,12,25,29,9,20,23,17,19,138,2.4,0.8,2.1*0F
2018-01-12 04:35:26 1515749726.400114: $GPGBS,093527,3.00,M,3.62,M,11.97,M*0E
2018-01-12 04:35:27 1515749727.730783: $GPGSV,3,1,12,02,70,004,44,05,57,199,48,06,42,060,38,12,48,243,49*79
2018-01-12 04:35:27 1515749727.730983: $GPGSV,3,2,12,25,34,294,40,29,16,309,48,09,19,061,22,20,05,220,30*78
2018-01-12 04:35:27 1515749727.731067: $GPGSV,3,3,12,23,03,033,24,17,09,124,21,19,27,120,23,138,38,213,46*49
