2017-12-29 10:39:09 1514561949.877032: {"class":"VERSION","release":"3.16","rev":"3.16-4","proto_major":3,"proto_minor":11}
2017-12-29 10:39:09 1514561949.877368: {"class":"DEVICES","devices":[{"class":"DEVICE","path":"/dev/ttyUSB0","driver":"SiRF","subtype":"9\u0006GSD4e_4.1.2-P1_RPATCH.05-F-GPS-4R-1510281 11/03/2015 307","activated":"2017-12-29T15:39:09.559Z","flags":1,"native":1,"bps":4800,"parity":"N","stopbits":1,"cycle":1.00}]}
2017-12-29 10:39:09 1514561949.877484: {"class":"WATCH","enable":true,"json":false,"nmea":true,"raw":0,"scaled":false,"timing":false,"split24":false,"pps":false}
2017-12-29 10:39:10 1514561950.754573: $GPGSV,3,1,11,10,29,288,41,13,22,045,45,15,53,049,50,18,60,309,45*7A
2017-12-29 10:39:10 1514561950.754738: $GPGSV,3,2,11,20,47,079,48,21,78,228,47,24,39,132,49,27,18,306,35*72
2017-12-29 10:39:10 1514561950.754805: $GPGSV,3,3,11,29,04,187,35,32,08,228,33,138,38,213,45*7F
2017-12-29 10:39:10 1514561950.868212: $GPZDA,153911.00,29,12,2017,00,00*64
2017-12-29 10:39:10 1514561950.868380: $GPGGA,153911,3946.9658,N,08404.9753,W,1,11,0.80,333.38,M,-33.324,M,,*7C
2017-12-29 10:39:10 1514561950.868467: $GPRMC,153911,A,3946.9658,N,08404.9753,W,0.0000,0.000,291217,,*35
2017-12-29 10:39:10 1514561950.868533: $GPGSA,A,3,10,13,15,18,20,21,24,27,29,32,138,,1.7,0.8,1.3*02
2017-12-29 10:39:11 1514561951.493613: $GPZDA,153912.00,29,12,2017,00,00*67
2017-12-29 10:39:11 1514561951.493775: $GPGGA,153912,3946.9658,N,08404.9753,W,1,11,0.80,333.38,M,-33.324,M,,*7F
2017-12-29 10:39:11 1514561951.493842: $GPRMC,153912,A,3946.9658,N,08404.9753,W,0.0000,0.000,291217,,*36
2017-12-29 10:39:11 1514561951.493903: $GPGSA,A,3,10,13,15,18,20,21,24,27,29,32,138,,1.7,0.8,1.3*02
2017-12-29 10:39:12 1514561952.422019: $GPZDA,153913.00,29,12,2017,00,00*66
2017-12-29 10:39:12 1514561952.422182: $GPGGA,153913,3946.9658,N,08404.9753,W,2,11,1.00,333.38,M,-33.324,M,,*74
2017-12-29 10:39:12 1514561952.422249: $GPRMC,153913,A,3946.9658,N,08404.9753,W,0.0000,0.000,291217,,*37
2017-12-29 10:39:12 1514561952.422310: $GPGSA,A,3,10,13,15,18,20,21,24,27,29,32,138,,1.7,1.0,1.3*0B
2017-12-29 10:39:13 1514561953.756166: $GPGSV,3,1,11,10,29,288,40,13,22,045,45,15,53,049,50,18,60,309,45*7B
2017-12-29 10:39:13 1514561953.756323: $GPGSV,3,2,11,20,47,079,48,21,78,228,47,24,39,132,49,27,18,306,36*71
2017-12-29 10:39:13 1514561953.756391: $GPGSV,3,3,11,29,04,187,35,32,08,228,33,138,38,213,45*7F
2017-12-29 10:39:13 1514561953.869841: $GPZDA,153914.00,29,12,2017,00,00*61
2017-12-29 10:39:13 1514561953.870015: $GPGGA,153914,3946.9658,N,08404.9753,W,2,11,0.80,333.38,M,-33.324,M,,*7A
2017-12-29 10:39:13 1514561953.870085: $GPRMC,153914,A,3946.9658,N,08404.9753,W,0.0000,0.000,291217,,*30
2017-12-29 10:39:13 1514561953.870149: $GPGSA,A,3,10,13,15,18,20,21,24,27,29,32,138,,1.7,0.8,1.3*02
2017-12-29 10:39:14 1514561954.420702: $GPZDA,153915.00,29,12,2017,00,00*60
2017-12-29 10:39:14 1514561954.420867: $GPGGA,153915,3946.9658,N,08404.9753,W,2,11,0.80,333.38,M,-33.324,M,,*7B
2017-12-29 10:39:14 1514561954.420937: $GPRMC,153915,A,3946.9658,N,08404.9753,W,0.0000,0.000,291217,,*31
2017-12-29 10:39:14 1514561954.421001: $GPGSA,A,3,10,13,15,18,20,21,24,27,29,32,138,,1.7,0.8,1.3*02
2017-12-29 10:39:15 1514561955.421517: $GPZDA,153916.00,29,12,2017,00,00*63
2017-12-29 10:39:15 1514561955.421683: $GPGGA,153916,3946.9659,N,08404.9760,W,2,11,0.80,333.30,M,-33.324,M,,*71
2017-12-29 10:39:15 1514561955.421753: $GPRMC,153916,A,3946.9659,N,08404.9760,W,0.0000,0.000,291217,,*33
2017-12-29 10:39:15 1514561955.421818: $GPGSA,A,3,10,13,15,18,20,21,24,27,29,32,138,,1.7,0.8,1.3*02
2017-12-29 10:39:15 1514561955.421880: $GPGBS,153916,2.73,M,2.59,M,7.72,M*3D
2017-12-29 10:39:16 1514561956.755139: $GPGSV,3,1,11,10,29,288,41,13,22,045,45,15,53,049,50,18,60,309,45*7A
2017-12-29 10:39:16 1514561956.878584: $GPGSV,3,2,11,20,47,079,49,21,78,228,47,24,39,132,49,27,18,306,36*70
2017-12-29 10:39:16 1514561956.878741: $GPGSV,3,3,11,29,04,187,35,32,08,228,33,138,38,213,45*7F
2017-12-29 10:39:16 1514561956.878851: $GPZDA,153917.00,29,12,2017,00,00*62
2017-12-29 10:39:16 1514561956.878917: $GPGGA,153917,3946.9662,N,08404.9759,W,2,11,0.80,332.53,M,-33.324,M,,*76
2017-12-29 10:39:16 1514561956.879065: $GPRMC,153917,A,3946.9662,N,08404.9759,W,0.0000,0.000,291217,,*30
2017-12-29 10:39:16 1514561956.879129: $GPGSA,A,3,10,13,15,18,20,21,24,27,29,32,138,,1.7,0.8,1.3*02
2017-12-29 10:39:17 1514561957.420613: $GPZDA,153918.00,29,12,2017,00,00*6D
2017-12-29 10:39:17 1514561957.420793: $GPGGA,153918,3946.9662,N,08404.9759,W,2,11,0.80,332.53,M,-33.324,M,,*79
2017-12-29 10:39:17 1514561957.420862: $GPRMC,153918,A,3946.9662,N,08404.9759,W,0.0000,0.000,291217,,*3F
2017-12-29 10:39:17 1514561957.420925: $GPGSA,A,3,10,13,15,18,20,21,24,27,29,32,138,,1.7,0.8,1.3*02
2017-12-29 10:39:18 1514561958.422981: $GPZDA,153919.00,29,12,2017,00,00*6C
2017-12-29 10:39:18 1514561958.423144: $GPGGA,153919,3946.9659,N,08404.9766,W,2,11,0.80,333.22,M,-33.324,M,,*7B
2017-12-29 10:39:18 1514561958.423211: $GPRMC,153919,A,3946.9659,N,08404.9766,W,0.2422,93.794,291217,,*0C
2017-12-29 10:39:18 1514561958.423273: $GPGSA,A,3,10,13,15,18,20,21,24,27,29,32,138,,1.7,0.8,1.3*02
2017-12-29 10:39:19 1514561959.757193: $GPGSV,3,1,11,10,29,288,41,13,22,045,45,15,53,049,50,18,60,309,45*7A
2017-12-29 10:39:19 1514561959.757359: $GPGSV,3,2,11,20,47,079,49,21,78,228,47,24,39,132,49,27,18,306,36*70
2017-12-29 10:39:19 1514561959.757429: $GPGSV,3,3,11,29,04,187,35,32,08,228,34,138,38,213,45*78
2017-12-29 10:39:19 1514561959.872255: $GPZDA,153920.00,29,12,2017,00,00*66
2017-12-29 10:39:19 1514561959.872435: $GPGGA,153920,3946.9659,N,08404.9766,W,2,11,0.80,333.22,M,-33.324,M,,*71
2017-12-29 10:39:19 1514561959.872503: $GPRMC,153920,A,3946.9659,N,08404.9766,W,0.0000,0.000,291217,,*30
2017-12-29 10:39:19 1514561959.872565: $GPGSA,A,3,10,13,15,18,20,21,24,27,29,32,138,,1.7,0.8,1.3*02
