2017-11-15 19:54:00 1510793640.904096: {"class":"VERSION","release":"3.17","rev":"3.17","proto_major":3,"proto_minor":12}
2017-11-15 19:54:00 1510793640.904586: {"class":"DEVICES","devices":[{"class":"DEVICE","path":"/dev/ttyUSB0","driver":"SiRF","subtype":"9\u0006GSD4e_4.1.2-P1_RPATCH.05-F-GPS-4R-1510281 11/03/2015 307","activated":"2017-11-16T00:54:00.831Z","flags":1,"native":1,"bps":4800,"parity":"N","stopbits":1,"cycle":1.00}]}
2017-11-15 19:54:00 1510793640.904705: {"class":"WATCH","enable":true,"json":false,"nmea":true,"raw":0,"scaled":false,"timing":false,"split24":false,"pps":false}
2017-11-15 19:54:01 1510793641.419397: $GPZDA,005400.00,16,11,2017,00,00*64
2017-11-15 19:54:01 1510793641.419587: $GPGGA,005400,3946.9484,N,08404.9707,W,1,07,1.20,287.75,M,-33.324,M,,*7A
2017-11-15 19:54:01 1510793641.423850: $GPRMC,005400,A,3946.9484,N,08404.9707,W,1.7174,268.584,161117,,*36
2017-11-15 19:54:01 1510793641.423921: $GPGSA,A,3,3,16,31,26,14,22,23,,,,,,3.4,1.2,2.9*0B
2017-11-15 19:54:02 1510793642.344039: $GPZDA,005401.00,16,11,2017,00,00*65
2017-11-15 19:54:02 1510793642.344208: $GPGGA,005401,3946.9488,N,08404.9707,W,1,07,1.20,288.39,M,-33.324,M,,*70
2017-11-15 19:54:02 1510793642.344270: $GPRMC,005401,A,3946.9488,N,08404.9707,W,1.2375,282.453,161117,,*32
2017-11-15 19:54:02 1510793642.344325: $GPGSA,A,3,3,16,31,26,14,22,23,,,,,,3.4,1.2,2.9*0B
2017-11-15 19:54:03 1510793643.679826: $GPGSV,3,1,10,03,44,285,11,16,34,190,25,31,58,040,24,26,65,165,10*70
2017-11-15 19:54:03 1510793643.679986: $GPGSV,3,2,10,14,46,106,16,22,48,252,17,32,27,117,00,23,20,304,17*70
2017-11-15 19:54:03 1510793643.680046: $GPGSV,3,3,10,29,13,060,00,25,08,037,00*7C
2017-11-15 19:54:03 1510793643.793205: $GPZDA,005402.00,16,11,2017,00,00*66
2017-11-15 19:54:03 1510793643.793414: $GPGGA,005402,3946.9491,N,08404.9706,W,1,07,1.20,287.63,M,-33.324,M,,*7A
2017-11-15 19:54:03 1510793643.793476: $GPRMC,005402,A,3946.9491,N,08404.9706,W,1.1124,302.165,161117,,*34
2017-11-15 19:54:03 1510793643.793532: $GPGSA,A,3,3,16,31,26,14,22,23,,,,,,3.4,1.2,2.9*0B
2017-11-15 19:54:04 1510793644.344089: $GPZDA,005403.00,16,11,2017,00,00*67
2017-11-15 19:54:04 1510793644.344268: $GPGGA,005403,3946.9496,N,08404.9706,W,1,07,1.20,288.27,M,-33.324,M,,*73
2017-11-15 19:54:04 1510793644.344330: $GPRMC,005403,A,3946.9496,N,08404.9706,W,0.9066,309.458,161117,,*3C
2017-11-15 19:54:04 1510793644.344403: $GPGSA,A,3,3,16,31,26,14,22,23,,,,,,3.4,1.2,2.9*0B
2017-11-15 19:54:05 1510793645.344910: $GPZDA,005404.00,16,11,2017,00,00*60
2017-11-15 19:54:05 1510793645.345071: $GPGGA,005404,3946.9496,N,08404.9706,W,1,07,1.20,288.27,M,-33.324,M,,*74
2017-11-15 19:54:05 1510793645.345132: $GPRMC,005404,A,3946.9496,N,08404.9706,W,0.8011,299.090,161117,,*32
2017-11-15 19:54:05 1510793645.345188: $GPGSA,A,3,3,16,31,26,14,22,23,,,,,,3.4,1.2,2.9*0B
2017-11-15 19:54:06 1510793646.665173: $GPGSV,3,1,10,03,44,285,11,16,34,190,25,31,58,040,24,26,65,165,11*71
2017-11-15 19:54:06 1510793646.671014: $GPGSV,3,2,10,14,46,106,16,22,48,252,18,32,27,117,00,23,20,304,16*7E
2017-11-15 19:54:06 1510793646.671131: $GPGSV,3,3,10,29,13,060,00,25,08,037,00*7C
2017-11-15 19:54:06 1510793646.778599: $GPZDA,005405.00,16,11,2017,00,00*61
2017-11-15 19:54:06 1510793646.778769: $GPGGA,005405,3946.9500,N,08404.9706,W,1,07,1.20,288.91,M,-33.324,M,,*76
2017-11-15 19:54:06 1510793646.778831: $GPRMC,005405,A,3946.9500,N,08404.9706,W,1.3084,315.525,161117,,*35
2017-11-15 19:54:06 1510793646.778886: $GPGSA,A,3,3,16,31,26,14,22,23,,,,,,3.4,1.2,2.9*0B
2017-11-15 19:54:07 1510793647.345707: $GPZDA,005406.00,16,11,2017,00,00*62
2017-11-15 19:54:07 1510793647.345871: $GPGGA,005406,3946.9503,N,08404.9705,W,1,07,1.20,288.14,M,-33.324,M,,*78
2017-11-15 19:54:07 1510793647.345931: $GPRMC,005406,A,3946.9503,N,08404.9705,W,1.1824,309.172,161117,,*3D
2017-11-15 19:54:07 1510793647.345987: $GPGSA,A,3,3,16,31,26,14,22,23,,,,,,3.4,1.2,2.9*0B
2017-11-15 19:54:08 1510793648.329032: $GPZDA,005407.00,16,11,2017,00,00*63
2017-11-15 19:54:08 1510793648.329186: $GPGGA,005407,3946.9507,N,08404.9705,W,1,07,1.20,288.78,M,-33.324,M,,*77
2017-11-15 19:54:08 1510793648.329332: $GPRMC,005407,A,3946.9507,N,08404.9705,W,0.7238,320.710,161117,,*31
2017-11-15 19:54:08 1510793648.329419: $GPGSA,A,3,3,16,31,26,14,22,23,,,,,,3.4,1.2,2.9*0B
2017-11-15 19:54:09 1510793649.664833: $GPGSV,3,1,10,03,44,285,11,16,34,190,25,31,58,040,25,26,65,165,12*73
2017-11-15 19:54:09 1510793649.665026: $GPGSV,3,2,10,14,46,106,16,22,48,252,18,32,27,117,00,23,20,304,16*7E
2017-11-15 19:54:09 1510793649.665091: $GPGSV,3,3,10,29,13,060,00,25,08,037,00*7C
2017-11-15 19:54:09 1510793649.778158: $GPZDA,005408.00,16,11,2017,00,00*6C
2017-11-15 19:54:09 1510793649.778337: $GPGGA,005408,3946.9507,N,08404.9705,W,1,07,1.20,288.78,M,-33.324,M,,*78
2017-11-15 19:54:09 1510793649.778418: $GPRMC,005408,A,3946.9507,N,08404.9705,W,0.7267,273.794,161117,,*3F
2017-11-15 19:54:09 1510793649.778478: $GPGSA,A,3,3,16,31,26,14,22,23,,,,,,3.4,1.2,2.9*0B
2017-11-15 19:54:10 1510793650.345307: $GPZDA,005409.00,16,11,2017,00,00*6D
2017-11-15 19:54:10 1510793650.345503: $GPGGA,005409,3946.9507,N,08404.9705,W,1,07,1.20,288.78,M,-33.324,M,,*79
2017-11-15 19:54:10 1510793650.345568: $GPRMC,005409,A,3946.9507,N,08404.9705,W,0.5951,238.684,161117,,*3D
2017-11-15 19:54:10 1510793650.345626: $GPGSA,A,3,3,16,31,26,14,22,23,,,,,,3.4,1.2,2.9*0B
