2017-11-16 14:47:02 1510861622.305756: {"class":"VERSION","release":"3.17","rev":"3.17","proto_major":3,"proto_minor":12}
2017-11-16 14:47:02 1510861622.306217: {"class":"DEVICES","devices":[{"class":"DEVICE","path":"/dev/ttyUSB0","driver":"SiRF","subtype":"9\u0006GSD4e_4.1.2-P1_RPATCH.05-F-GPS-4R-1510281 11/03/2015 307","activated":"2017-11-16T19:47:01.665Z","flags":1,"native":1,"bps":4800,"parity":"N","stopbits":1,"cycle":1.00}]}
2017-11-16 14:47:02 1510861622.306340: {"class":"WATCH","enable":true,"json":false,"nmea":true,"raw":0,"scaled":false,"timing":false,"split24":false,"pps":false}
2017-11-16 14:47:02 1510861622.491787: $GPZDA,194701.00,16,11,2017,00,00*6F
2017-11-16 14:47:02 1510861622.491948: $GPGGA,194701,3946.9564,N,08404.9842,W,2,11,0.80,302.74,M,-33.324,M,,*72
2017-11-16 14:47:02 1510861622.492007: $GPRMC,194701,A,3946.9564,N,08404.9842,W,0.0000,0.000,161117,,*3D
2017-11-16 14:47:02 1510861622.492063: $GPGSA,A,3,8,10,15,18,21,20,24,27,32,14,138,,1.6,0.8,1.3*37
2017-11-16 14:47:03 1510861623.864957: $GPGSV,3,1,11,08,08,309,36,10,53,313,50,15,25,058,49,18,77,027,44*78
2017-11-16 14:47:03 1510861623.865150: $GPGSV,3,2,11,21,48,183,48,20,22,106,44,24,53,084,48,27,15,274,43*73
2017-11-16 14:47:03 1510861623.865211: $GPGSV,3,3,11,32,32,249,47,14,16,241,41,138,38,213,44*74
2017-11-16 14:47:03 1510861623.978312: $GPZDA,194702.00,16,11,2017,00,00*6C
2017-11-16 14:47:03 1510861623.978477: $GPGGA,194702,3946.9564,N,08404.9842,W,2,11,0.80,302.74,M,-33.324,M,,*71
2017-11-16 14:47:03 1510861623.978538: $GPRMC,194702,A,3946.9564,N,08404.9842,W,0.0000,0.000,161117,,*3E
2017-11-16 14:47:03 1510861623.978595: $GPGSA,A,3,8,10,15,18,21,20,24,27,32,14,138,,1.6,0.8,1.3*37
2017-11-16 14:47:04 1510861624.603949: $GPZDA,194703.00,16,11,2017,00,00*6D
2017-11-16 14:47:04 1510861624.604289: $GPGGA,194703,3946.9564,N,08404.9842,W,2,11,0.80,302.74,M,-33.324,M,,*70
2017-11-16 14:47:04 1510861624.604407: $GPRMC,194703,A,3946.9564,N,08404.9842,W,0.0000,0.000,161117,,*3F
2017-11-16 14:47:04 1510861624.604519: $GPGSA,A,3,8,10,15,18,21,20,24,27,32,14,138,,1.6,0.8,1.3*37
2017-11-16 14:47:05 1510861625.492344: $GPZDA,194704.00,16,11,2017,00,00*6A
2017-11-16 14:47:05 1510861625.492646: $GPGGA,194704,3946.9564,N,08404.9842,W,2,11,0.80,302.74,M,-33.324,M,,*77
2017-11-16 14:47:05 1510861625.492749: $GPRMC,194704,A,3946.9564,N,08404.9842,W,0.0000,0.000,161117,,*38
2017-11-16 14:47:05 1510861625.492877: $GPGSA,A,3,8,10,15,18,21,20,24,27,32,14,138,,1.6,0.8,1.3*37
2017-11-16 14:47:06 1510861626.829115: $GPGSV,3,1,11,08,08,309,36,10,53,313,50,15,25,058,50,18,77,027,44*70
2017-11-16 14:47:06 1510861626.829297: $GPGSV,3,2,11,21,48,183,48,20,22,106,44,24,53,084,49,27,15,274,43*72
2017-11-16 14:47:06 1510861626.829358: $GPGSV,3,3,11,32,32,249,47,14,16,241,41,138,38,213,43*73
2017-11-16 14:47:06 1510861626.942454: $GPZDA,194705.00,16,11,2017,00,00*6B
2017-11-16 14:47:06 1510861626.942616: $GPGGA,194705,3946.9564,N,08404.9842,W,2,11,0.80,302.74,M,-33.324,M,,*76
2017-11-16 14:47:06 1510861626.942676: $GPRMC,194705,A,3946.9564,N,08404.9842,W,0.0000,0.000,161117,,*39
2017-11-16 14:47:06 1510861626.942731: $GPGSA,A,3,8,10,15,18,21,20,24,27,32,14,138,,1.6,0.8,1.3*37
2017-11-16 14:47:07 1510861627.492639: $GPZDA,194706.00,16,11,2017,00,00*68
2017-11-16 14:47:07 1510861627.492817: $GPGGA,194706,3946.9564,N,08404.9842,W,2,11,0.80,302.74,M,-33.324,M,,*75
2017-11-16 14:47:07 1510861627.492901: $GPRMC,194706,A,3946.9564,N,08404.9842,W,0.0000,0.000,161117,,*3A
2017-11-16 14:47:07 1510861627.492958: $GPGSA,A,3,8,10,15,18,21,20,24,27,32,14,138,,1.6,0.8,1.3*37
2017-11-16 14:47:08 1510861628.529141: $GPZDA,194707.00,16,11,2017,00,00*69
2017-11-16 14:47:08 1510861628.529304: $GPGGA,194707,3946.9564,N,08404.9842,W,2,11,0.80,302.74,M,-33.324,M,,*74
2017-11-16 14:47:08 1510861628.529364: $GPRMC,194707,A,3946.9564,N,08404.9842,W,0.0000,0.000,161117,,*3B
2017-11-16 14:47:08 1510861628.529419: $GPGSA,A,3,8,10,15,18,21,20,24,27,32,14,138,,1.6,0.8,1.3*37
2017-11-16 14:47:09 1510861629.865656: $GPGSV,3,1,11,08,08,309,36,10,53,313,50,15,25,058,50,18,77,027,44*70
2017-11-16 14:47:09 1510861629.865884: $GPGSV,3,2,11,21,48,183,48,20,22,106,44,24,53,084,48,27,15,274,43*73
2017-11-16 14:47:09 1510861629.865945: $GPGSV,3,3,11,32,32,249,47,14,16,241,41,138,38,213,44*74
2017-11-16 14:47:09 1510861629.978960: $GPZDA,194708.00,16,11,2017,00,00*66
2017-11-16 14:47:09 1510861629.979128: $GPGGA,194708,3946.9564,N,08404.9842,W,2,11,0.80,302.74,M,-33.324,M,,*7B
2017-11-16 14:47:09 1510861629.979189: $GPRMC,194708,A,3946.9564,N,08404.9842,W,0.0000,0.000,161117,,*34
2017-11-16 14:47:09 1510861629.979245: $GPGSA,A,3,8,10,15,18,21,20,24,27,32,14,138,,1.6,0.8,1.3*37
2017-11-16 14:47:10 1510861630.492920: $GPZDA,194709.00,16,11,2017,00,00*67
2017-11-16 14:47:10 1510861630.493098: $GPGGA,194709,3946.9564,N,08404.9842,W,2,11,0.80,302.74,M,-33.324,M,,*7A
2017-11-16 14:47:10 1510861630.493159: $GPRMC,194709,A,3946.9564,N,08404.9842,W,0.0000,0.000,161117,,*35
2017-11-16 14:47:10 1510861630.493216: $GPGSA,A,3,8,10,15,18,21,20,24,27,32,14,138,,1.6,0.8,1.3*37
2017-11-16 14:47:11 1510861631.529405: $GPZDA,194710.00,16,11,2017,00,00*6F
2017-11-16 14:47:11 1510861631.529566: $GPGGA,194710,3946.9564,N,08404.9842,W,2,11,0.80,302.74,M,-33.324,M,,*72
2017-11-16 14:47:11 1510861631.529627: $GPRMC,194710,A,3946.9564,N,08404.9842,W,0.0000,0.000,161117,,*3D
2017-11-16 14:47:11 1510861631.529682: $GPGSA,A,3,8,10,15,18,21,20,24,27,32,14,138,,1.6,0.8,1.3*37
