2017-12-01 17:41:21 1512168081.277510: {"class":"VERSION","release":"3.16","rev":"3.16-4","proto_major":3,"proto_minor":11}
2017-12-01 17:41:21 1512168081.277995: {"class":"DEVICES","devices":[{"class":"DEVICE","path":"/dev/ttyUSB0","driver":"SiRF","subtype":"9\u0006GSD4e_4.1.2-P1_RPATCH.05-F-GPS-4R-1510281 11/03/2015 307","activated":"2017-12-01T22:41:21.261Z","flags":1,"native":1,"bps":4800,"parity":"N","stopbits":1,"cycle":1.00}]}
2017-12-01 17:41:21 1512168081.278120: {"class":"WATCH","enable":true,"json":false,"nmea":true,"raw":0,"scaled":false,"timing":false,"split24":false,"pps":false}
2017-12-01 17:41:21 1512168081.374360: $GPZDA,224122.00,01,12,2017,00,00*65
2017-12-01 17:41:21 1512168081.374516: $GPGGA,224122,3946.9723,N,08404.9846,W,2,12,0.80,297.08,M,-33.325,M,,*7C
2017-12-01 17:41:21 1512168081.374582: $GPRMC,224122,A,3946.9723,N,08404.9846,W,0.0000,0.000,011217,,*32
2017-12-01 17:41:21 1512168081.374643: $GPGSA,A,3,1,3,10,14,22,25,26,31,32,29,16,138,2.0,0.8,1.5*0C
2017-12-01 17:41:22 1512168082.710002: $GPGSV,3,1,12,01,16,268,43,03,26,313,45,10,15,157,42,14,67,055,41*73
2017-12-01 17:41:22 1512168082.710184: $GPGSV,3,2,12,22,43,297,48,25,32,051,42,26,33,177,44,31,79,322,46*70
2017-12-01 17:41:22 1512168082.710252: $GPGSV,3,3,12,32,50,088,45,29,02,088,18,16,04,190,23,138,38,213,46*46
2017-12-01 17:41:22 1512168082.823772: $GPZDA,224123.00,01,12,2017,00,00*64
2017-12-01 17:41:22 1512168082.824064: $GPGGA,224123,3946.9723,N,08404.9846,W,2,12,0.80,297.08,M,-33.325,M,,*7D
2017-12-01 17:41:22 1512168082.824204: $GPRMC,224123,A,3946.9723,N,08404.9846,W,0.0000,0.000,011217,,*33
2017-12-01 17:41:22 1512168082.824330: $GPGSA,A,3,1,3,10,14,22,25,26,31,32,29,16,138,2.0,0.8,1.5*0C
2017-12-01 17:41:23 1512168083.448781: $GPZDA,224124.00,01,12,2017,00,00*63
2017-12-01 17:41:23 1512168083.448975: $GPGGA,224124,3946.9723,N,08404.9846,W,2,12,0.80,297.08,M,-33.325,M,,*7A
2017-12-01 17:41:23 1512168083.449044: $GPRMC,224124,A,3946.9723,N,08404.9846,W,0.0000,0.000,011217,,*34
2017-12-01 17:41:23 1512168083.449105: $GPGSA,A,3,1,3,10,14,22,25,26,31,32,29,16,138,2.0,0.8,1.5*0C
2017-12-01 17:41:24 1512168084.389680: $GPZDA,224125.00,01,12,2017,00,00*62
2017-12-01 17:41:24 1512168084.389871: $GPGGA,224125,3946.9723,N,08404.9846,W,2,12,0.80,297.08,M,-33.325,M,,*7B
2017-12-01 17:41:24 1512168084.389957: $GPRMC,224125,A,3946.9723,N,08404.9846,W,0.0000,0.000,011217,,*35
2017-12-01 17:41:24 1512168084.390019: $GPGSA,A,3,1,3,10,14,22,25,26,31,32,29,16,138,2.0,0.8,1.5*0C
2017-12-01 17:41:25 1512168085.711634: $GPGSV,3,1,12,01,16,268,43,03,26,313,45,10,15,157,42,14,67,055,41*73
2017-12-01 17:41:25 1512168085.711831: $GPGSV,3,2,12,22,43,297,48,25,32,051,42,26,33,177,44,31,79,322,46*70
2017-12-01 17:41:25 1512168085.711917: $GPGSV,3,3,12,32,50,088,46,29,02,088,18,16,04,190,24,138,38,213,45*41
2017-12-01 17:41:25 1512168085.825031: $GPZDA,224126.00,01,12,2017,00,00*61
2017-12-01 17:41:25 1512168085.825200: $GPGGA,224126,3946.9723,N,08404.9846,W,2,12,0.80,297.08,M,-33.325,M,,*78
2017-12-01 17:41:25 1512168085.825265: $GPRMC,224126,A,3946.9723,N,08404.9846,W,0.0000,0.000,011217,,*36
2017-12-01 17:41:25 1512168085.825326: $GPGSA,A,3,1,3,10,14,22,25,26,31,32,29,16,138,2.0,0.8,1.5*0C
2017-12-01 17:41:26 1512168086.397159: $GPZDA,224127.00,01,12,2017,00,00*60
2017-12-01 17:41:26 1512168086.397329: $GPGGA,224127,3946.9723,N,08404.9846,W,2,12,0.80,297.08,M,-33.325,M,,*79
2017-12-01 17:41:26 1512168086.397395: $GPRMC,224127,A,3946.9723,N,08404.9846,W,0.0000,0.000,011217,,*37
2017-12-01 17:41:26 1512168086.397456: $GPGSA,A,3,1,3,10,14,22,25,26,31,32,29,16,138,2.0,0.8,1.5*0C
2017-12-01 17:41:27 1512168087.372978: $GPZDA,224128.00,01,12,2017,00,00*6F
2017-12-01 17:41:27 1512168087.373151: $GPGGA,224128,3946.9723,N,08404.9846,W,2,12,0.80,297.08,M,-33.325,M,,*76
2017-12-01 17:41:27 1512168087.373217: $GPRMC,224128,A,3946.9723,N,08404.9846,W,0.0000,0.000,011217,,*38
2017-12-01 17:41:27 1512168087.373278: $GPGSA,A,3,1,3,10,14,22,25,26,31,32,29,16,138,2.0,0.8,1.5*0C
2017-12-01 17:41:28 1512168088.708148: $GPGSV,3,1,12,01,16,268,43,03,26,313,45,10,15,157,42,14,67,055,40*72
2017-12-01 17:41:28 1512168088.708382: $GPGSV,3,2,12,22,43,297,48,25,32,051,42,26,33,177,44,31,79,322,46*70
2017-12-01 17:41:28 1512168088.708451: $GPGSV,3,3,12,32,50,088,46,29,02,088,18,16,04,190,24,138,38,213,46*42
2017-12-01 17:41:28 1512168088.821610: $GPZDA,224129.00,01,12,2017,00,00*6E
2017-12-01 17:41:28 1512168088.821799: $GPGGA,224129,3946.9723,N,08404.9846,W,2,12,0.80,297.08,M,-33.325,M,,*77
2017-12-01 17:41:28 1512168088.821886: $GPRMC,224129,A,3946.9723,N,08404.9846,W,0.0000,0.000,011217,,*39
2017-12-01 17:41:28 1512168088.821947: $GPGSA,A,3,1,3,10,14,22,25,26,31,32,29,16,138,2.0,0.8,1.5*0C
2017-12-01 17:41:29 1512168089.373703: $GPZDA,224130.00,01,12,2017,00,00*66
2017-12-01 17:41:29 1512168089.373886: $GPGGA,224130,3946.9723,N,08404.9846,W,2,12,0.80,297.08,M,-33.325,M,,*7F
2017-12-01 17:41:29 1512168089.373954: $GPRMC,224130,A,3946.9723,N,08404.9846,W,0.0000,0.000,011217,,*31
2017-12-01 17:41:29 1512168089.374015: $GPGSA,A,3,1,3,10,14,22,25,26,31,32,29,16,138,2.0,0.8,1.5*0C
2017-12-01 17:41:30 1512168090.373298: $GPZDA,224131.00,01,12,2017,00,00*67
2017-12-01 17:41:30 1512168090.373474: $GPGGA,224131,3946.9723,N,08404.9846,W,2,12,0.80,297.08,M,-33.325,M,,*7E
2017-12-01 17:41:30 1512168090.373540: $GPRMC,224131,A,3946.9723,N,08404.9846,W,0.0000,0.000,011217,,*30
2017-12-01 17:41:30 1512168090.373602: $GPGSA,A,3,1,3,10,14,22,25,26,31,32,29,16,138,2.0,0.8,1.5*0C
2017-12-01 17:41:31 1512168091.709022: $GPGSV,3,1,12,01,16,268,43,03,26,313,45,10,15,157,42,14,67,055,41*73
2017-12-01 17:41:31 1512168091.709186: $GPGSV,3,2,12,22,43,297,48,25,32,051,42,26,33,177,45,31,79,322,46*71
2017-12-01 17:41:31 1512168091.709254: $GPGSV,3,3,12,32,50,088,46,29,02,088,17,16,04,190,25,138,38,213,45*4F
2017-12-01 17:41:31 1512168091.822449: $GPZDA,224132.00,01,12,2017,00,00*64
2017-12-01 17:41:31 1512168091.822742: $GPGGA,224132,3946.9723,N,08404.9846,W,2,12,0.80,297.08,M,-33.325,M,,*7D
2017-12-01 17:41:31 1512168091.822863: $GPRMC,224132,A,3946.9723,N,08404.9846,W,0.0000,0.000,011217,,*33
2017-12-01 17:41:31 1512168091.822966: $GPGSA,A,3,1,3,10,14,22,25,26,31,32,29,16,138,2.0,0.8,1.5*0C
2017-12-01 17:41:32 1512168092.370771: $GPZDA,224133.00,01,12,2017,00,00*65
2017-12-01 17:41:32 1512168092.370956: $GPGGA,224133,3946.9723,N,08404.9846,W,2,12,0.80,297.08,M,-33.325,M,,*7C
2017-12-01 17:41:32 1512168092.371025: $GPRMC,224133,A,3946.9723,N,08404.9846,W,0.0000,0.000,011217,,*32
2017-12-01 17:41:32 1512168092.371086: $GPGSA,A,3,1,3,10,14,22,25,26,31,32,29,16,138,2.0,0.8,1.5*0C
2017-12-01 17:41:33 1512168093.373594: $GPZDA,224134.00,01,12,2017,00,00*62
2017-12-01 17:41:33 1512168093.373777: $GPGGA,224134,3946.9723,N,08404.9846,W,2,12,0.80,297.08,M,-33.325,M,,*7B
2017-12-01 17:41:33 1512168093.373845: $GPRMC,224134,A,3946.9723,N,08404.9846,W,0.0000,0.000,011217,,*35
2017-12-01 17:41:33 1512168093.373906: $GPGSA,A,3,1,3,10,14,22,25,26,31,32,29,16,138,2.0,0.8,1.5*0C
2017-12-01 17:41:34 1512168094.709303: $GPGSV,3,1,12,01,16,268,43,03,26,313,45,10,15,157,43,14,67,055,41*72
2017-12-01 17:41:34 1512168094.709486: $GPGSV,3,2,12,22,43,297,48,25,32,051,42,26,33,177,44,31,79,322,46*70
2017-12-01 17:41:34 1512168094.709554: $GPGSV,3,3,12,32,50,088,46,29,02,088,16,16,04,190,25,138,38,213,46*4D
2017-12-01 17:41:34 1512168094.822715: $GPZDA,224135.00,01,12,2017,00,00*63
2017-12-01 17:41:34 1512168094.822883: $GPGGA,224135,3946.9723,N,08404.9846,W,2,12,0.80,297.08,M,-33.325,M,,*7A
2017-12-01 17:41:34 1512168094.822951: $GPRMC,224135,A,3946.9723,N,08404.9846,W,0.0000,0.000,011217,,*34
2017-12-01 17:41:34 1512168094.823012: $GPGSA,A,3,1,3,10,14,22,25,26,31,32,29,16,138,2.0,0.8,1.5*0C
2017-12-01 17:41:35 1512168095.372387: $GPZDA,224136.00,01,12,2017,00,00*60
2017-12-01 17:41:35 1512168095.372560: $GPGGA,224136,3946.9723,N,08404.9846,W,2,12,0.80,297.08,M,-33.325,M,,*79
2017-12-01 17:41:35 1512168095.372627: $GPRMC,224136,A,3946.9723,N,08404.9846,W,0.0000,0.000,011217,,*37
2017-12-01 17:41:35 1512168095.372688: $GPGSA,A,3,1,3,10,14,22,25,26,31,32,29,16,138,2.0,0.8,1.5*0C
2017-12-01 17:41:36 1512168096.372010: $GPZDA,224137.00,01,12,2017,00,00*61
2017-12-01 17:41:36 1512168096.372174: $GPGGA,224137,3946.9723,N,08404.9846,W,2,12,0.80,297.08,M,-33.325,M,,*78
2017-12-01 17:41:36 1512168096.372240: $GPRMC,224137,A,3946.9723,N,08404.9846,W,0.0000,0.000,011217,,*36
2017-12-01 17:41:36 1512168096.372301: $GPGSA,A,3,1,3,10,14,22,25,26,31,32,29,16,138,2.0,0.8,1.5*0C
2017-12-01 17:41:37 1512168097.703942: $GPGSV,3,1,12,01,16,268,42,03,26,313,45,10,15,157,43,14,67,055,42*70
2017-12-01 17:41:37 1512168097.704140: $GPGSV,3,2,12,22,43,297,48,25,32,051,42,26,33,177,44,31,79,322,46*70
2017-12-01 17:41:37 1512168097.704209: $GPGSV,3,3,12,32,50,088,46,29,02,088,16,16,04,190,25,138,38,213,46*4D
2017-12-01 17:41:37 1512168097.817242: $GPZDA,224138.00,01,12,2017,00,00*6E
2017-12-01 17:41:37 1512168097.817415: $GPGGA,224138,3946.9723,N,08404.9846,W,2,12,0.80,297.08,M,-33.325,M,,*77
2017-12-01 17:41:37 1512168097.817482: $GPRMC,224138,A,3946.9723,N,08404.9846,W,0.0000,0.000,011217,,*39
2017-12-01 17:41:37 1512168097.817542: $GPGSA,A,3,1,3,10,14,22,25,26,31,32,29,16,138,2.0,0.8,1.5*0C
2017-12-01 17:41:38 1512168098.442724: $GPZDA,224139.00,01,12,2017,00,00*6F
2017-12-01 17:41:38 1512168098.442896: $GPGGA,224139,3946.9723,N,08404.9846,W,2,12,0.80,297.08,M,-33.325,M,,*76
2017-12-01 17:41:38 1512168098.442963: $GPRMC,224139,A,3946.9723,N,08404.9846,W,0.0000,0.000,011217,,*38
2017-12-01 17:41:38 1512168098.443024: $GPGSA,A,3,1,3,10,14,22,25,26,31,32,29,16,138,2.0,0.8,1.5*0C
2017-12-01 17:41:39 1512168099.372288: $GPZDA,224140.00,01,12,2017,00,00*61
2017-12-01 17:41:39 1512168099.372462: $GPGGA,224140,3946.9723,N,08404.9846,W,2,12,0.80,297.08,M,-33.325,M,,*78
2017-12-01 17:41:39 1512168099.372528: $GPRMC,224140,A,3946.9723,N,08404.9846,W,0.0000,0.000,011217,,*36
2017-12-01 17:41:39 1512168099.372589: $GPGSA,A,3,1,3,10,14,22,25,26,31,32,29,16,138,2.0,0.8,1.5*0C
2017-12-01 17:41:40 1512168100.707980: $GPGSV,3,1,12,01,16,268,43,03,26,313,45,10,15,157,42,14,67,055,42*70
2017-12-01 17:41:40 1512168100.708222: $GPGSV,3,2,12,22,43,297,48,25,32,051,42,26,33,177,44,31,79,322,46*70
2017-12-01 17:41:40 1512168100.708294: $GPGSV,3,3,12,32,50,088,45,29,02,088,16,16,04,190,25,138,38,213,45*4D
2017-12-01 17:41:40 1512168100.821415: $GPZDA,224141.00,01,12,2017,00,00*60
2017-12-01 17:41:40 1512168100.821618: $GPGGA,224141,3946.9723,N,08404.9846,W,2,12,0.80,297.08,M,-33.325,M,,*79
2017-12-01 17:41:40 1512168100.821705: $GPRMC,224141,A,3946.9723,N,08404.9846,W,0.0000,0.000,011217,,*37
2017-12-01 17:41:40 1512168100.821768: $GPGSA,A,3,1,3,10,14,22,25,26,31,32,29,16,138,2.0,0.8,1.5*0C
