2017-12-01 18:21:01 1512170461.033726: {"class":"VERSION","release":"3.16","rev":"3.16-4","proto_major":3,"proto_minor":11}
2017-12-01 18:21:01 1512170461.034143: {"class":"DEVICES","devices":[{"class":"DEVICE","path":"/dev/ttyUSB0","driver":"SiRF","subtype":"9\u0006GSD4e_4.1.2-P1_RPATCH.05-F-GPS-4R-1510281 11/03/2015 307","activated":"2017-12-01T23:21:01.017Z","flags":1,"native":1,"bps":4800,"parity":"N","stopbits":1,"cycle":1.00}]}
2017-12-01 18:21:01 1512170461.034285: {"class":"WATCH","enable":true,"json":false,"nmea":true,"raw":0,"scaled":false,"timing":false,"split24":false,"pps":false}
2017-12-01 18:21:02 1512170462.101229: $GPZDA,232102.37,01,12,2017,00,00*64
2017-12-01 18:21:02 1512170462.101470: $GPGGA,232102,3946.9742,N,08404.9845,W,1,12,0.80,297.47,M,-33.325,M,,*75
2017-12-01 18:21:02 1512170462.101550: $GPRMC,232102,A,3946.9742,N,08404.9845,W,0.1867,0.000,011217,,*3B
2017-12-01 18:21:02 1512170462.101613: $GPGSA,A,3,3,14,16,22,23,25,26,31,32,1,29,138,2.0,0.8,1.5*0C
2017-12-01 18:21:02 1512170462.101673: $GPGBS,232102,10.70,M,15.43,M,35.28,M*07
2017-12-01 18:21:03 1512170463.288695: $GPGSV,3,1,12,01,06,253,36,03,39,300,47,14,56,090,43,16,22,189,44*78
2017-12-01 18:21:03 1512170463.288880: $GPGSV,3,2,12,22,50,271,46,23,10,300,38,25,18,040,41,26,52,172,46*7A
2017-12-01 18:21:03 1512170463.288966: $GPGSV,3,3,12,31,68,024,48,32,36,106,44,29,10,073,08,138,38,213,00*48
2017-12-01 18:21:03 1512170463.402637: $GPZDA,232103.00,01,12,2017,00,00*61
2017-12-01 18:21:03 1512170463.402829: $GPGGA,232103,3946.9742,N,08404.9845,W,1,10,0.80,297.47,M,-33.325,M,,*76
2017-12-01 18:21:03 1512170463.402897: $GPRMC,232103,A,3946.9742,N,08404.9845,W,0.0000,0.000,011217,,*32
2017-12-01 18:21:03 1512170463.402957: $GPGSA,A,3,1,3,14,16,22,23,25,26,31,32,,,2.0,0.8,1.5*3D
2017-12-01 18:21:03 1512170463.854244: $GPZDA,232104.00,01,12,2017,00,00*66
2017-12-01 18:21:03 1512170463.854449: $GPGGA,232104,3946.9738,N,08404.9845,W,1,10,0.80,296.83,M,-33.325,M,,*75
2017-12-01 18:21:03 1512170463.854518: $GPRMC,232104,A,3946.9738,N,08404.9845,W,0.3006,62.539,011217,,*06
2017-12-01 18:21:03 1512170463.854580: $GPGSA,A,3,1,3,14,16,22,23,25,26,31,32,,,2.0,0.8,1.5*3D
2017-12-01 18:21:04 1512170464.406311: $GPZDA,232105.00,01,12,2017,00,00*67
2017-12-01 18:21:04 1512170464.406503: $GPGGA,232105,3946.9738,N,08404.9845,W,1,10,0.80,296.83,M,-33.325,M,,*74
2017-12-01 18:21:04 1512170464.406572: $GPRMC,232105,A,3946.9738,N,08404.9845,W,0.0000,0.000,011217,,*39
2017-12-01 18:21:04 1512170464.406634: $GPGSA,A,3,1,3,14,16,22,23,25,26,31,32,,,2.0,0.8,1.5*3D
2017-12-01 18:21:05 1512170465.744091: $GPGSV,3,1,12,01,06,253,36,03,39,300,46,14,56,090,42,16,22,189,44*78
2017-12-01 18:21:05 1512170465.744294: $GPGSV,3,2,12,22,50,271,45,23,10,300,38,25,18,040,41,26,52,172,46*79
2017-12-01 18:21:05 1512170465.744362: $GPGSV,3,3,12,31,68,024,46,32,36,106,43,29,10,073,27,138,38,213,45*4D
2017-12-01 18:21:05 1512170465.857766: $GPZDA,232106.00,01,12,2017,00,00*64
2017-12-01 18:21:05 1512170465.857949: $GPGGA,232106,3946.9738,N,08404.9845,W,1,12,0.80,296.83,M,-33.325,M,,*75
2017-12-01 18:21:05 1512170465.858037: $GPRMC,232106,A,3946.9738,N,08404.9845,W,0.1567,9.200,011217,,*34
2017-12-01 18:21:05 1512170465.858100: $GPGSA,A,3,1,3,14,16,22,23,25,26,31,32,29,138,2.0,0.8,1.5*0C
2017-12-01 18:21:06 1512170466.408209: $GPZDA,232107.00,01,12,2017,00,00*65
2017-12-01 18:21:06 1512170466.408387: $GPGGA,232107,3946.9738,N,08404.9845,W,1,12,0.80,296.83,M,-33.325,M,,*74
2017-12-01 18:21:06 1512170466.408473: $GPRMC,232107,A,3946.9738,N,08404.9845,W,0.0000,0.000,011217,,*3B
2017-12-01 18:21:06 1512170466.408536: $GPGSA,A,3,1,3,14,16,22,23,25,26,31,32,29,138,2.0,0.8,1.5*0C
2017-12-01 18:21:07 1512170467.407763: $GPZDA,232108.00,01,12,2017,00,00*6A
2017-12-01 18:21:07 1512170467.407941: $GPGGA,232108,3946.9738,N,08404.9845,W,1,12,0.80,296.83,M,-33.325,M,,*7B
2017-12-01 18:21:07 1512170467.408008: $GPRMC,232108,A,3946.9738,N,08404.9845,W,0.0000,0.000,011217,,*34
2017-12-01 18:21:07 1512170467.408070: $GPGSA,A,3,1,3,14,16,22,23,25,26,31,32,29,138,2.0,0.8,1.5*0C
2017-12-01 18:21:07 1512170467.408181: $GPGBS,232108,10.70,M,15.43,M,35.28,M*0D
2017-12-01 18:21:08 1512170468.743524: $GPGSV,3,1,12,01,06,253,36,03,39,300,47,14,56,090,43,16,22,189,43*7F
2017-12-01 18:21:08 1512170468.743708: $GPGSV,3,2,12,22,50,271,45,23,10,300,39,25,18,040,41,26,52,172,46*78
2017-12-01 18:21:08 1512170468.743774: $GPGSV,3,3,12,31,68,024,46,32,36,106,35,29,10,073,27,138,38,213,45*4C
2017-12-01 18:21:08 1512170468.855631: $GPZDA,232109.00,01,12,2017,00,00*6B
2017-12-01 18:21:08 1512170468.855764: $GPGGA,232109,3946.9738,N,08404.9845,W,1,12,0.80,296.83,M,-33.325,M,,*7A
2017-12-01 18:21:08 1512170468.855829: $GPRMC,232109,A,3946.9738,N,08404.9845,W,0.0000,0.000,011217,,*35
2017-12-01 18:21:08 1512170468.855890: $GPGSA,A,3,1,3,14,16,22,23,25,26,31,32,29,138,2.0,0.8,1.5*0C
2017-12-01 18:21:09 1512170469.409545: $GPZDA,232110.00,01,12,2017,00,00*63
2017-12-01 18:21:09 1512170469.409705: $GPGGA,232110,3946.9738,N,08404.9845,W,1,12,0.80,296.83,M,-33.325,M,,*72
2017-12-01 18:21:09 1512170469.409771: $GPRMC,232110,A,3946.9738,N,08404.9845,W,0.0000,0.000,011217,,*3D
2017-12-01 18:21:09 1512170469.409833: $GPGSA,A,3,1,3,14,16,22,23,25,26,31,32,29,138,2.0,0.8,1.5*0C
2017-12-01 18:21:10 1512170470.409738: $GPZDA,232111.00,01,12,2017,00,00*62
2017-12-01 18:21:10 1512170470.409909: $GPGGA,232111,3946.9734,N,08404.9845,W,2,12,1.80,296.19,M,-33.325,M,,*7E
2017-12-01 18:21:10 1512170470.409976: $GPRMC,232111,A,3946.9734,N,08404.9845,W,0.0000,0.000,011217,,*30
2017-12-01 18:21:10 1512170470.410056: $GPGSA,A,3,1,3,14,16,22,23,25,26,31,32,29,138,2.0,1.8,1.5*0D
2017-12-01 18:21:11 1512170471.745056: $GPGSV,3,1,12,01,06,253,36,03,39,300,47,14,56,090,43,16,22,189,43*7F
2017-12-01 18:21:11 1512170471.745258: $GPGSV,3,2,12,22,50,271,45,23,10,300,39,25,18,040,41,26,52,172,46*78
2017-12-01 18:21:11 1512170471.745326: $GPGSV,3,3,12,31,68,024,47,32,36,106,37,29,10,073,25,138,38,213,46*4E
2017-12-01 18:21:11 1512170471.858514: $GPZDA,232112.00,01,12,2017,00,00*61
2017-12-01 18:21:11 1512170471.858686: $GPGGA,232112,3946.9734,N,08404.9845,W,2,12,0.80,296.19,M,-33.325,M,,*7C
2017-12-01 18:21:11 1512170471.858753: $GPRMC,232112,A,3946.9734,N,08404.9845,W,0.0000,0.000,011217,,*33
2017-12-01 18:21:11 1512170471.858815: $GPGSA,A,3,1,3,14,16,22,23,25,26,31,32,29,138,2.0,0.8,1.5*0C
2017-12-01 18:21:12 1512170472.410703: $GPZDA,232113.00,01,12,2017,00,00*60
2017-12-01 18:21:12 1512170472.410877: $GPGGA,232113,3946.9734,N,08404.9845,W,2,12,0.80,296.19,M,-33.325,M,,*7D
2017-12-01 18:21:12 1512170472.410943: $GPRMC,232113,A,3946.9734,N,08404.9845,W,0.0000,0.000,011217,,*32
2017-12-01 18:21:12 1512170472.411004: $GPGSA,A,3,1,3,14,16,22,23,25,26,31,32,29,138,2.0,0.8,1.5*0C
2017-12-01 18:21:13 1512170473.411445: $GPZDA,232114.00,01,12,2017,00,00*67
2017-12-01 18:21:13 1512170473.411651: $GPGGA,232114,3946.9734,N,08404.9845,W,2,12,0.80,296.19,M,-33.325,M,,*7A
2017-12-01 18:21:13 1512170473.411720: $GPRMC,232114,A,3946.9734,N,08404.9845,W,0.0000,0.000,011217,,*35
2017-12-01 18:21:13 1512170473.411782: $GPGSA,A,3,1,3,14,16,22,23,25,26,31,32,29,138,2.0,0.8,1.5*0C
2017-12-01 18:21:14 1512170474.745961: $GPGSV,3,1,12,01,06,253,35,03,39,300,46,14,56,090,43,16,22,189,44*7A
2017-12-01 18:21:14 1512170474.746148: $GPGSV,3,2,12,22,50,271,45,23,10,300,40,25,18,040,41,26,52,172,47*77
2017-12-01 18:21:14 1512170474.746216: $GPGSV,3,3,12,31,68,024,47,32,36,106,38,29,10,073,23,138,38,213,46*47
2017-12-01 18:21:14 1512170474.859232: $GPZDA,232115.00,01,12,2017,00,00*66
2017-12-01 18:21:14 1512170474.859379: $GPGGA,232115,3946.9731,N,08404.9846,W,2,12,0.80,296.96,M,-33.325,M,,*7A
2017-12-01 18:21:14 1512170474.859445: $GPRMC,232115,A,3946.9731,N,08404.9846,W,0.0000,0.000,011217,,*32
2017-12-01 18:21:14 1512170474.859506: $GPGSA,A,3,1,3,14,16,22,23,25,26,31,32,29,138,2.0,0.8,1.5*0C
2017-12-01 18:21:15 1512170475.485456: $GPZDA,232116.00,01,12,2017,00,00*65
2017-12-01 18:21:15 1512170475.485628: $GPGGA,232116,3946.9731,N,08404.9846,W,2,12,0.80,296.96,M,-33.325,M,,*79
2017-12-01 18:21:15 1512170475.485696: $GPRMC,232116,A,3946.9731,N,08404.9846,W,0.0000,0.000,011217,,*31
2017-12-01 18:21:15 1512170475.485826: $GPGSA,A,3,1,3,14,16,22,23,25,26,31,32,29,138,2.0,0.8,1.5*0C
2017-12-01 18:21:16 1512170476.409360: $GPZDA,232117.00,01,12,2017,00,00*64
2017-12-01 18:21:16 1512170476.409531: $GPGGA,232117,3946.9731,N,08404.9846,W,2,12,0.80,296.96,M,-33.325,M,,*78
2017-12-01 18:21:16 1512170476.409598: $GPRMC,232117,A,3946.9731,N,08404.9846,W,0.0000,0.000,011217,,*30
2017-12-01 18:21:16 1512170476.409659: $GPGSA,A,3,1,3,14,16,22,23,25,26,31,32,29,138,2.0,0.8,1.5*0C
2017-12-01 18:21:17 1512170477.747529: $GPGSV,3,1,12,01,06,253,35,03,39,300,47,14,56,090,42,16,22,189,43*7D
2017-12-01 18:21:17 1512170477.747695: $GPGSV,3,2,12,22,50,271,44,23,10,300,41,25,18,040,41,26,52,172,46*76
2017-12-01 18:21:17 1512170477.747762: $GPGSV,3,3,12,31,68,024,47,32,36,106,38,29,10,073,00,138,38,213,46*46
2017-12-01 18:21:17 1512170477.861004: $GPZDA,232118.00,01,12,2017,00,00*6B
2017-12-01 18:21:17 1512170477.861175: $GPGGA,232118,3946.9731,N,08404.9846,W,2,11,0.80,296.96,M,-33.325,M,,*74
2017-12-01 18:21:17 1512170477.861242: $GPRMC,232118,A,3946.9731,N,08404.9846,W,0.0000,0.000,011217,,*3F
2017-12-01 18:21:17 1512170477.861303: $GPGSA,A,3,1,3,14,16,22,23,25,26,31,32,138,,2.0,0.8,1.5*07
2017-12-01 18:21:18 1512170478.415487: $GPZDA,232119.00,01,12,2017,00,00*6A
2017-12-01 18:21:18 1512170478.415663: $GPGGA,232119,3946.9707,N,08404.9847,W,2,11,0.80,295.93,M,-33.325,M,,*77
2017-12-01 18:21:18 1512170478.415731: $GPRMC,232119,A,3946.9707,N,08404.9847,W,0.0000,0.000,011217,,*3A
2017-12-01 18:21:18 1512170478.415791: $GPGSA,A,3,1,3,14,16,22,23,25,26,31,32,138,,2.0,0.8,1.5*07
2017-12-01 18:21:19 1512170479.409967: $GPZDA,232120.00,01,12,2017,00,00*60
2017-12-01 18:21:19 1512170479.410141: $GPGGA,232120,3946.9707,N,08404.9847,W,2,11,0.80,295.93,M,-33.325,M,,*7D
2017-12-01 18:21:19 1512170479.410207: $GPRMC,232120,A,3946.9707,N,08404.9847,W,0.0000,0.000,011217,,*30
2017-12-01 18:21:19 1512170479.410268: $GPGSA,A,3,1,3,14,16,22,23,25,26,31,32,138,,2.0,0.8,1.5*07
2017-12-01 18:21:19 1512170479.410326: $GPGBS,232120,2.67,M,3.86,M,8.82,M*32
2017-12-01 18:21:20 1512170480.745248: $GPGSV,3,1,12,01,06,253,35,03,39,300,47,14,56,090,43,16,22,189,43*7C
2017-12-01 18:21:20 1512170480.745434: $GPGSV,3,2,12,22,50,271,44,23,10,300,41,25,18,040,41,26,52,172,47*77
2017-12-01 18:21:20 1512170480.745502: $GPGSV,3,3,12,31,68,024,47,32,36,106,38,29,10,073,27,138,38,213,46*43
2017-12-01 18:21:20 1512170480.858650: $GPZDA,232121.00,01,12,2017,00,00*61
2017-12-01 18:21:20 1512170480.858807: $GPGGA,232121,3946.9707,N,08404.9847,W,2,12,0.80,295.93,M,-33.325,M,,*7F
2017-12-01 18:21:20 1512170480.858873: $GPRMC,232121,A,3946.9707,N,08404.9847,W,0.0000,0.000,011217,,*31
2017-12-01 18:21:20 1512170480.858934: $GPGSA,A,3,1,3,14,16,22,23,25,26,31,32,29,138,2.0,0.8,1.5*0C
