2017-12-14 12:42:24 1513273344.036589: {"class":"VERSION","release":"3.16","rev":"3.16-4","proto_major":3,"proto_minor":11}
2017-12-14 12:42:24 1513273344.036948: {"class":"DEVICES","devices":[{"class":"DEVICE","path":"/dev/ttyUSB0","driver":"SiRF","subtype":"9\u0006GSD4e_4.1.2-P1_RPATCH.05-F-GPS-4R-1510281 11/03/2015 307","activated":"2017-12-14T17:42:23.318Z","flags":1,"native":1,"bps":4800,"parity":"N","stopbits":1,"cycle":1.00}]}
2017-12-14 12:42:24 1513273344.037063: {"class":"WATCH","enable":true,"json":false,"nmea":true,"raw":0,"scaled":false,"timing":false,"split24":false,"pps":false}
2017-12-14 12:42:24 1513273344.178089: $GPZDA,174225.00,14,12,2017,00,00*63
2017-12-14 12:42:24 1513273344.178245: $GPGGA,174225,3946.9425,N,08404.9398,W,1,08,1.80,330.47,M,-33.324,M,,*7C
2017-12-14 12:42:24 1513273344.178311: $GPRMC,174225,A,3946.9425,N,08404.9398,W,1.3255,140.590,141217,,*30
2017-12-14 12:42:24 1513273344.178371: $GPGSA,A,3,18,20,14,27,32,10,24,21,,,,,6.6,1.8,6.2*31
2017-12-14 12:42:25 1513273345.515242: $GPGSV,3,1,11,18,76,012,24,20,26,103,20,14,12,238,09,27,16,279,17*7E
2017-12-14 12:42:25 1513273345.515415: $GPGSV,3,2,11,32,30,246,19,10,50,310,21,24,53,091,10,21,51,183,18*7A
2017-12-14 12:42:25 1513273345.515481: $GPGSV,3,3,11,15,28,057,00,08,08,313,00,138,38,213,00*75
2017-12-14 12:42:25 1513273345.628507: $GPZDA,174226.00,14,12,2017,00,00*60
2017-12-14 12:42:25 1513273345.628684: $GPGGA,174226,3946.9428,N,08404.9390,W,1,08,2.00,329.78,M,-33.324,M,,*75
2017-12-14 12:42:25 1513273345.628769: $GPRMC,174226,A,3946.9428,N,08404.9390,W,1.2275,135.096,141217,,*34
2017-12-14 12:42:25 1513273345.628832: $GPGSA,A,3,18,20,14,27,32,10,24,21,,,,,6.6,2.0,6.2*3A
2017-12-14 12:42:26 1513273346.182668: $GPZDA,174227.00,14,12,2017,00,00*61
2017-12-14 12:42:26 1513273346.182821: $GPGGA,174227,3946.9427,N,08404.9382,W,1,08,2.00,328.46,M,-33.324,M,,*74
2017-12-14 12:42:26 1513273346.182903: $GPRMC,174227,A,3946.9427,N,08404.9382,W,1.0742,121.428,141217,,*3E
2017-12-14 12:42:26 1513273346.182965: $GPGSA,A,3,18,20,14,27,32,10,24,21,,,,,6.6,2.0,6.2*3A
2017-12-14 12:42:27 1513273347.178825: $GPZDA,174228.00,14,12,2017,00,00*6E
2017-12-14 12:42:27 1513273347.179036: $GPGGA,174228,3946.9435,N,08404.9382,W,1,08,1.80,328.33,M,-33.324,M,,*71
2017-12-14 12:42:27 1513273347.179105: $GPRMC,174228,A,3946.9435,N,08404.9382,W,0.9668,103.079,141217,,*33
2017-12-14 12:42:27 1513273347.179166: $GPGSA,A,3,18,20,14,27,32,10,24,21,,,,,6.6,1.8,6.2*31
2017-12-14 12:42:28 1513273348.513230: $GPGSV,3,1,11,18,76,012,24,20,26,103,19,14,12,238,10,27,16,279,17*7C
2017-12-14 12:42:28 1513273348.513406: $GPGSV,3,2,11,32,30,246,19,10,50,310,21,24,53,091,10,21,51,183,18*7A
2017-12-14 12:42:28 1513273348.513471: $GPGSV,3,3,11,15,28,057,00,08,08,313,00,138,38,213,00*75
2017-12-14 12:42:28 1513273348.626557: $GPZDA,174229.00,14,12,2017,00,00*6F
2017-12-14 12:42:28 1513273348.626689: $GPGGA,174229,3946.9431,N,08404.9382,W,1,08,1.80,327.69,M,-33.324,M,,*74
2017-12-14 12:42:28 1513273348.626777: $GPRMC,174229,A,3946.9431,N,08404.9382,W,0.2758,128.233,141217,,*3A
2017-12-14 12:42:28 1513273348.626839: $GPGSA,A,3,18,20,14,27,32,10,24,21,,,,,6.6,1.8,6.2*31
2017-12-14 12:42:29 1513273349.178206: $GPZDA,174230.00,14,12,2017,00,00*67
2017-12-14 12:42:29 1513273349.178372: $GPGGA,174230,3946.9435,N,08404.9382,W,1,08,1.80,328.33,M,-33.324,M,,*78
2017-12-14 12:42:29 1513273349.178437: $GPRMC,174230,A,3946.9435,N,08404.9382,W,0.1867,0.000,141217,,*3F
2017-12-14 12:42:29 1513273349.178498: $GPGSA,A,3,18,20,14,27,32,10,24,21,,,,,6.6,1.8,6.2*31
2017-12-14 12:42:30 1513273350.178399: $GPZDA,174231.00,14,12,2017,00,00*66
2017-12-14 12:42:30 1513273350.178565: $GPGGA,174231,3946.9431,N,08404.9382,W,1,08,1.80,327.69,M,-33.324,M,,*7D
2017-12-14 12:42:30 1513273350.178632: $GPRMC,174231,A,3946.9431,N,08404.9382,W,0.3155,309.994,141217,,*3E
2017-12-14 12:42:30 1513273350.178693: $GPGSA,A,3,18,20,14,27,32,10,24,21,,,,,6.6,1.8,6.2*31
2017-12-14 12:42:31 1513273351.513068: $GPGSV,3,1,11,18,76,012,24,20,26,103,19,14,12,238,11,27,16,279,17*7D
2017-12-14 12:42:31 1513273351.513263: $GPGSV,3,2,11,32,30,246,19,10,50,310,22,24,53,091,10,21,51,183,18*79
2017-12-14 12:42:31 1513273351.513381: $GPGSV,3,3,11,15,28,057,00,08,08,313,00,138,38,213,00*75
2017-12-14 12:42:31 1513273351.626625: $GPZDA,174232.00,14,12,2017,00,00*65
2017-12-14 12:42:31 1513273351.626815: $GPGGA,174232,3946.9431,N,08404.9382,W,1,08,1.80,327.69,M,-33.324,M,,*7E
2017-12-14 12:42:31 1513273351.626898: $GPRMC,174232,A,3946.9431,N,08404.9382,W,0.1567,189.201,141217,,*37
2017-12-14 12:42:31 1513273351.626960: $GPGSA,A,3,18,20,14,27,32,10,24,21,,,,,6.6,1.8,6.2*31
2017-12-14 12:42:32 1513273352.176600: $GPZDA,174233.00,14,12,2017,00,00*64
2017-12-14 12:42:32 1513273352.176791: $GPGGA,174233,3946.9435,N,08404.9382,W,1,08,1.80,328.33,M,-33.324,M,,*7B
2017-12-14 12:42:32 1513273352.176858: $GPRMC,174233,A,3946.9435,N,08404.9382,W,0.1867,0.000,141217,,*3C
2017-12-14 12:42:32 1513273352.176937: $GPGSA,A,3,18,20,14,27,32,10,24,21,,,,,6.6,1.8,6.2*31
2017-12-14 12:42:33 1513273353.177887: $GPZDA,174234.00,14,12,2017,00,00*63
2017-12-14 12:42:33 1513273353.178058: $GPGGA,174234,3946.9438,N,08404.9381,W,1,08,1.80,327.57,M,-33.324,M,,*7F
2017-12-14 12:42:33 1513273353.178124: $GPRMC,174234,A,3946.9438,N,08404.9381,W,0.7103,45.706,141217,,*08
2017-12-14 12:42:33 1513273353.178185: $GPGSA,A,3,18,20,14,27,32,10,24,21,,,,,6.6,1.8,6.2*31
2017-12-14 12:42:34 1513273354.514093: $GPGSV,3,1,11,18,76,012,24,20,26,103,18,14,12,238,11,27,16,279,17*7C
2017-12-14 12:42:34 1513273354.514418: $GPGSV,3,2,11,32,30,246,19,10,50,310,22,24,53,091,12,21,51,183,18*7B
2017-12-14 12:42:34 1513273354.514551: $GPGSV,3,3,11,15,28,057,00,08,08,313,00,138,38,213,00*75
2017-12-14 12:42:34 1513273354.627247: $GPZDA,174235.00,14,12,2017,00,00*62
2017-12-14 12:42:34 1513273354.627400: $GPGGA,174235,3946.9438,N,08404.9381,W,1,08,1.80,327.57,M,-33.324,M,,*7E
2017-12-14 12:42:34 1513273354.627465: $GPRMC,174235,A,3946.9438,N,08404.9381,W,0.5774,27.515,141217,,*09
2017-12-14 12:42:34 1513273354.627526: $GPGSA,A,3,18,20,14,27,32,10,24,21,,,,,6.6,1.8,6.2*31
2017-12-14 12:42:35 1513273355.178955: $GPZDA,174236.00,14,12,2017,00,00*61
2017-12-14 12:42:35 1513273355.179112: $GPGGA,174236,3946.9438,N,08404.9374,W,1,08,1.80,327.65,M,-33.324,M,,*76
2017-12-14 12:42:35 1513273355.179177: $GPRMC,174236,A,3946.9438,N,08404.9374,W,0.8953,59.978,141217,,*08
2017-12-14 12:42:35 1513273355.179238: $GPGSA,A,3,18,20,14,27,32,10,24,21,,,,,6.6,1.8,6.2*31
2017-12-14 12:42:36 1513273356.177773: $GPZDA,174237.00,14,12,2017,00,00*60
2017-12-14 12:42:36 1513273356.177950: $GPGGA,174237,3946.9442,N,08404.9380,W,1,08,1.80,326.80,M,-33.324,M,,*7B
2017-12-14 12:42:36 1513273356.178018: $GPRMC,174237,A,3946.9442,N,08404.9380,W,0.4207,39.347,141217,,*09
2017-12-14 12:42:36 1513273356.178079: $GPGSA,A,3,18,20,14,27,32,10,24,21,,,,,6.6,1.8,6.2*31
2017-12-14 12:42:37 1513273357.513598: $GPGSV,3,1,11,18,76,012,24,20,26,103,18,14,12,238,11,27,16,279,17*7C
2017-12-14 12:42:37 1513273357.513776: $GPGSV,3,2,11,32,30,246,19,10,50,310,22,24,53,091,12,21,51,183,19*7A
2017-12-14 12:42:37 1513273357.513841: $GPGSV,3,3,11,15,28,057,09,08,08,313,00,138,38,213,00*7C
2017-12-14 12:42:37 1513273357.626939: $GPZDA,174238.00,14,12,2017,00,00*6F
2017-12-14 12:42:37 1513273357.627079: $GPGGA,174238,3946.9442,N,08404.9380,W,1,08,1.80,326.80,M,-33.324,M,,*74
2017-12-14 12:42:37 1513273357.627145: $GPRMC,174238,A,3946.9442,N,08404.9380,W,0.2422,93.795,141217,,*0A
2017-12-14 12:42:37 1513273357.627206: $GPGSA,A,3,18,20,14,27,32,10,24,21,,,,,6.6,1.8,6.2*31
2017-12-14 12:42:38 1513273358.179089: $GPZDA,174239.00,14,12,2017,00,00*6E
2017-12-14 12:42:38 1513273358.179264: $GPGGA,174239,3946.9442,N,08404.9380,W,1,08,1.80,326.80,M,-33.324,M,,*75
2017-12-14 12:42:38 1513273358.179331: $GPRMC,174239,A,3946.9442,N,08404.9380,W,0.2422,93.795,141217,,*0B
2017-12-14 12:42:38 1513273358.179391: $GPGSA,A,3,18,20,14,27,32,10,24,21,,,,,6.6,1.8,6.2*31
2017-12-14 12:42:39 1513273359.177908: $GPZDA,174240.00,14,12,2017,00,00*60
2017-12-14 12:42:39 1513273359.178080: $GPGGA,174240,3946.9442,N,08404.9380,W,1,08,1.80,326.80,M,-33.324,M,,*7B
2017-12-14 12:42:39 1513273359.178198: $GPRMC,174240,A,3946.9442,N,08404.9380,W,0.5951,238.684,141217,,*39
2017-12-14 12:42:39 1513273359.178260: $GPGSA,A,3,18,20,14,27,32,10,24,21,,,,,6.6,1.8,6.2*31
2017-12-14 12:42:40 1513273360.512957: $GPGSV,3,1,11,18,76,012,24,20,26,103,17,14,12,238,11,27,16,279,17*73
2017-12-14 12:42:40 1513273360.513130: $GPGSV,3,2,11,32,30,246,19,10,50,310,22,24,53,091,12,21,51,183,19*7A
2017-12-14 12:42:40 1513273360.513197: $GPGSV,3,3,11,15,28,057,00,08,08,313,00,138,38,213,00*75
2017-12-14 12:42:40 1513273360.626324: $GPZDA,174241.00,14,12,2017,00,00*61
2017-12-14 12:42:40 1513273360.626495: $GPGGA,174241,3946.9442,N,08404.9380,W,1,08,1.80,326.80,M,-33.324,M,,*7A
2017-12-14 12:42:40 1513273360.626560: $GPRMC,174241,A,3946.9442,N,08404.9380,W,0.8054,248.645,141217,,*33
2017-12-14 12:42:40 1513273360.626621: $GPGSA,A,3,18,20,14,27,32,10,24,21,,,,,6.6,1.8,6.2*31
2017-12-14 12:42:41 1513273361.177664: $GPZDA,174242.00,14,12,2017,00,00*62
2017-12-14 12:42:41 1513273361.177836: $GPGGA,174242,3946.9434,N,08404.9388,W,1,08,1.80,326.85,M,-33.324,M,,*75
2017-12-14 12:42:41 1513273361.177902: $GPRMC,174242,A,3946.9434,N,08404.9388,W,1.0018,230.691,141217,,*3E
2017-12-14 12:42:41 1513273361.177982: $GPGSA,A,3,18,20,14,27,32,10,24,21,,,,,6.6,1.8,6.2*31
2017-12-14 12:42:42 1513273362.177942: $GPZDA,174243.00,14,12,2017,00,00*63
2017-12-14 12:42:42 1513273362.178101: $GPGGA,174243,3946.9434,N,08404.9388,W,1,08,1.80,326.85,M,-33.324,M,,*74
2017-12-14 12:42:42 1513273362.178167: $GPRMC,174243,A,3946.9434,N,08404.9388,W,0.4207,219.347,141217,,*33
2017-12-14 12:42:42 1513273362.178228: $GPGSA,A,3,18,20,14,27,32,10,24,21,,,,,6.6,1.8,6.2*31
2017-12-14 12:42:43 1513273363.513873: $GPGSV,3,1,11,18,76,012,24,20,26,103,16,14,12,238,09,27,16,279,18*74
2017-12-14 12:42:43 1513273363.514050: $GPGSV,3,2,11,32,30,246,19,10,50,310,23,24,53,091,12,21,51,183,19*7B
2017-12-14 12:42:43 1513273363.514116: $GPGSV,3,3,11,15,28,057,00,08,08,313,00,138,38,213,00*75
2017-12-14 12:42:43 1513273363.627266: $GPZDA,174244.00,14,12,2017,00,00*64
2017-12-14 12:42:43 1513273363.627429: $GPGGA,174244,3946.9427,N,08404.9389,W,1,08,1.80,326.97,M,-33.324,M,,*73
2017-12-14 12:42:43 1513273363.627494: $GPRMC,174244,A,3946.9427,N,08404.9389,W,1.2361,194.852,141217,,*38
2017-12-14 12:42:43 1513273363.627555: $GPGSA,A,3,18,20,14,27,32,10,24,21,,,,,6.6,1.8,6.2*31
