2017-12-29 10:43:55 1514562235.186263: {"class":"VERSION","release":"3.16","rev":"3.16-4","proto_major":3,"proto_minor":11}
2017-12-29 10:43:55 1514562235.186613: {"class":"DEVICES","devices":[{"class":"DEVICE","path":"/dev/ttyUSB0","driver":"SiRF","subtype":"9\u0006GSD4e_4.1.2-P1_RPATCH.05-F-GPS-4R-1510281 11/03/2015 307","activated":"2017-12-29T15:43:54.518Z","flags":1,"native":1,"bps":4800,"parity":"N","stopbits":1,"cycle":1.00}]}
2017-12-29 10:43:55 1514562235.186732: {"class":"WATCH","enable":true,"json":false,"nmea":true,"raw":0,"scaled":false,"timing":false,"split24":false,"pps":false}
2017-12-29 10:43:55 1514562235.713444: $GPGSV,3,1,11,10,30,289,46,13,20,045,43,15,51,049,50,18,61,312,43*7F
2017-12-29 10:43:55 1514562235.716870: $GPGSV,3,2,11,20,46,081,49,21,77,219,47,24,41,130,50,27,19,304,33*78
2017-12-29 10:43:55 1514562235.716981: $GPGSV,3,3,11,29,03,187,24,32,09,229,37,138,38,213,45*7C
2017-12-29 10:43:55 1514562235.826855: $GPZDA,154356.00,29,12,2017,00,00*6A
2017-12-29 10:43:55 1514562235.826999: $GPGGA,154356,3946.9597,N,08404.9818,W,2,11,0.80,301.72,M,-33.324,M,,*7E
2017-12-29 10:43:55 1514562235.827067: $GPRMC,154356,A,3946.9597,N,08404.9818,W,0.0000,0.000,291217,,*3B
2017-12-29 10:43:55 1514562235.827128: $GPGSA,A,3,10,13,15,18,20,21,24,27,29,32,138,,1.7,0.8,1.3*02
2017-12-29 10:43:56 1514562236.376370: $GPZDA,154357.00,29,12,2017,00,00*6B
2017-12-29 10:43:56 1514562236.376542: $GPGGA,154357,3946.9597,N,08404.9818,W,2,11,0.80,301.72,M,-33.324,M,,*7F
2017-12-29 10:43:56 1514562236.376610: $GPRMC,154357,A,3946.9597,N,08404.9818,W,0.0000,0.000,291217,,*3A
2017-12-29 10:43:56 1514562236.376672: $GPGSA,A,3,10,13,15,18,20,21,24,27,29,32,138,,1.7,0.8,1.3*02
2017-12-29 10:43:57 1514562237.376016: $GPZDA,154358.00,29,12,2017,00,00*64
2017-12-29 10:43:57 1514562237.376197: $GPGGA,154358,3946.9593,N,08404.9811,W,2,11,0.80,302.56,M,-33.324,M,,*78
2017-12-29 10:43:57 1514562237.376270: $GPRMC,154358,A,3946.9593,N,08404.9811,W,0.0000,0.000,291217,,*38
2017-12-29 10:43:57 1514562237.376334: $GPGSA,A,3,10,13,15,18,20,21,24,27,29,32,138,,1.7,0.8,1.3*02
2017-12-29 10:43:58 1514562238.712987: $GPGSV,3,1,11,10,30,289,45,13,20,045,43,15,51,049,50,18,61,312,44*7B
2017-12-29 10:43:58 1514562238.713158: $GPGSV,3,2,11,20,46,081,49,21,77,219,47,24,41,130,50,27,19,304,33*78
2017-12-29 10:43:58 1514562238.713226: $GPGSV,3,3,11,29,03,187,24,32,09,229,38,138,38,213,45*73
2017-12-29 10:43:58 1514562238.826329: $GPZDA,154359.00,29,12,2017,00,00*65
2017-12-29 10:43:58 1514562238.826458: $GPGGA,154359,3946.9597,N,08404.9811,W,2,11,0.80,303.20,M,-33.324,M,,*7D
2017-12-29 10:43:58 1514562238.826524: $GPRMC,154359,A,3946.9597,N,08404.9811,W,0.0000,0.000,291217,,*3D
2017-12-29 10:43:58 1514562238.826585: $GPGSA,A,3,10,13,15,18,20,21,24,27,29,32,138,,1.7,0.8,1.3*02
2017-12-29 10:43:59 1514562239.451779: $GPZDA,154400.00,29,12,2017,00,00*6E
2017-12-29 10:43:59 1514562239.451943: $GPGGA,154400,3946.9597,N,08404.9811,W,2,11,0.80,303.20,M,-33.324,M,,*76
2017-12-29 10:43:59 1514562239.452011: $GPRMC,154400,A,3946.9597,N,08404.9811,W,0.0000,0.000,291217,,*36
2017-12-29 10:43:59 1514562239.452073: $GPGSA,A,3,10,13,15,18,20,21,24,27,29,32,138,,1.7,0.8,1.3*02
2017-12-29 10:44:00 1514562240.376344: $GPZDA,154401.00,29,12,2017,00,00*6F
2017-12-29 10:44:00 1514562240.376517: $GPGGA,154401,3946.9597,N,08404.9811,W,2,11,0.80,303.20,M,-33.324,M,,*77
2017-12-29 10:44:00 1514562240.376585: $GPRMC,154401,A,3946.9597,N,08404.9811,W,0.0000,0.000,291217,,*37
2017-12-29 10:44:00 1514562240.376646: $GPGSA,A,3,10,13,15,18,20,21,24,27,29,32,138,,1.7,0.8,1.3*02
2017-12-29 10:44:01 1514562241.714606: $GPGSV,3,1,11,10,30,289,45,13,20,045,42,15,51,049,50,18,61,312,43*7D
2017-12-29 10:44:01 1514562241.714779: $GPGSV,3,2,11,20,46,081,50,21,77,219,47,24,41,130,50,27,19,304,34*77
2017-12-29 10:44:01 1514562241.714845: $GPGSV,3,3,11,29,03,187,25,32,09,229,38,138,38,213,45*72
2017-12-29 10:44:01 1514562241.827934: $GPZDA,154402.00,29,12,2017,00,00*6C
2017-12-29 10:44:01 1514562241.828074: $GPGGA,154402,3946.9597,N,08404.9811,W,2,11,0.80,303.20,M,-33.324,M,,*74
2017-12-29 10:44:01 1514562241.828199: $GPRMC,154402,A,3946.9597,N,08404.9811,W,0.0000,0.000,291217,,*34
2017-12-29 10:44:01 1514562241.828262: $GPGSA,A,3,10,13,15,18,20,21,24,27,29,32,138,,1.7,0.8,1.3*02
2017-12-29 10:44:02 1514562242.377859: $GPZDA,154403.00,29,12,2017,00,00*6D
2017-12-29 10:44:02 1514562242.378030: $GPGGA,154403,3946.9597,N,08404.9811,W,2,11,0.80,303.20,M,-33.324,M,,*75
2017-12-29 10:44:02 1514562242.378097: $GPRMC,154403,A,3946.9597,N,08404.9811,W,0.0000,0.000,291217,,*35
2017-12-29 10:44:02 1514562242.378159: $GPGSA,A,3,10,13,15,18,20,21,24,27,29,32,138,,1.7,0.8,1.3*02
2017-12-29 10:44:03 1514562243.376224: $GPZDA,154404.00,29,12,2017,00,00*6A
2017-12-29 10:44:03 1514562243.376401: $GPGGA,154404,3946.9597,N,08404.9811,W,2,11,0.80,303.20,M,-33.324,M,,*72
2017-12-29 10:44:03 1514562243.376468: $GPRMC,154404,A,3946.9597,N,08404.9811,W,0.0000,0.000,291217,,*32
2017-12-29 10:44:03 1514562243.376531: $GPGSA,A,3,10,13,15,18,20,21,24,27,29,32,138,,1.7,0.8,1.3*02
2017-12-29 10:44:04 1514562244.710016: $GPGSV,3,1,11,10,30,289,44,13,20,045,43,15,51,049,50,18,61,312,44*7A
2017-12-29 10:44:04 1514562244.710179: $GPGSV,3,2,11,20,46,081,50,21,77,219,47,24,41,130,50,27,19,304,34*77
2017-12-29 10:44:04 1514562244.710245: $GPGSV,3,3,11,29,03,187,25,32,09,229,38,138,38,213,45*72
2017-12-29 10:44:04 1514562244.823625: $GPZDA,154405.00,29,12,2017,00,00*6B
2017-12-29 10:44:04 1514562244.823758: $GPGGA,154405,3946.9597,N,08404.9811,W,2,11,0.80,303.20,M,-33.324,M,,*73
2017-12-29 10:44:04 1514562244.823824: $GPRMC,154405,A,3946.9597,N,08404.9811,W,0.0000,0.000,291217,,*33
2017-12-29 10:44:04 1514562244.823886: $GPGSA,A,3,10,13,15,18,20,21,24,27,29,32,138,,1.7,0.8,1.3*02
