2017-12-01 17:20:35 1512166835.233270: {"class":"VERSION","release":"3.16","rev":"3.16-4","proto_major":3,"proto_minor":11}
2017-12-01 17:20:35 1512166835.233867: {"class":"DEVICES","devices":[{"class":"DEVICE","path":"/dev/ttyUSB0","driver":"SiRF","subtype":"9\u0006GSD4e_4.1.2-P1_RPATCH.05-F-GPS-4R-1510281 11/03/2015 307","activated":"2017-12-01T22:20:35.213Z","flags":1,"native":1,"bps":4800,"parity":"N","stopbits":1,"cycle":1.00}]}
2017-12-01 17:20:35 1512166835.234097: {"class":"WATCH","enable":true,"json":false,"nmea":true,"raw":0,"scaled":false,"timing":false,"split24":false,"pps":false}
2017-12-01 17:20:36 1512166836.154029: $GPZDA,222036.41,01,12,2017,00,00*62
2017-12-01 17:20:36 1512166836.154206: $GPGGA,222036,3946.9609,N,08404.9793,W,1,11,1.00,297.49,M,-33.324,M,,*7D
2017-12-01 17:20:36 1512166836.154275: $GPRMC,222036,A,3946.9609,N,08404.9793,W,0.4106,230.498,011217,,*39
2017-12-01 17:20:36 1512166836.154338: $GPGSA,A,3,1,3,10,14,22,25,26,31,32,12,138,,2.0,1.0,1.5*0A
2017-12-01 17:20:36 1512166836.154398: $GPGBS,222036,10.70,M,15.43,M,35.28,M*00
2017-12-01 17:20:37 1512166837.296575: $GPGSV,3,1,11,01,19,277,45,03,19,316,44,10,24,156,40,14,70,031,45*7E
2017-12-01 17:20:37 1512166837.296757: $GPGSV,3,2,11,22,37,304,44,25,37,060,36,26,23,178,36,31,77,270,47*71
2017-12-01 17:20:37 1512166837.296825: $GPGSV,3,3,11,32,56,076,46,12,09,033,00,138,38,213,04*77
2017-12-01 17:20:37 1512166837.409062: $GPZDA,222037.00,01,12,2017,00,00*66
2017-12-01 17:20:37 1512166837.409231: $GPGGA,222037,3946.9605,N,08404.9794,W,1,10,1.00,298.26,M,-33.324,M,,*70
2017-12-01 17:20:37 1512166837.409299: $GPRMC,222037,A,3946.9605,N,08404.9794,W,0.0407,322.013,011217,,*36
2017-12-01 17:20:37 1512166837.409360: $GPGSA,A,3,1,3,10,14,22,25,26,31,32,138,,,2.0,1.0,1.5*09
2017-12-01 17:20:37 1512166837.861279: $GPZDA,222038.00,01,12,2017,00,00*69
2017-12-01 17:20:37 1512166837.865635: $GPGGA,222038,3946.9609,N,08404.9787,W,1,10,1.00,298.98,M,-33.324,M,,*74
2017-12-01 17:20:37 1512166837.865916: $GPRMC,222038,A,3946.9609,N,08404.9787,W,0.1867,0.000,011217,,*3D
2017-12-01 17:20:37 1512166837.866017: $GPGSA,A,3,1,3,10,14,22,25,26,31,32,138,,,2.0,1.0,1.5*09
2017-12-01 17:20:38 1512166838.366679: $GPZDA,222039.00,01,12,2017,00,00*68
2017-12-01 17:20:38 1512166838.366852: $GPGGA,222039,3946.9613,N,08404.9786,W,1,10,1.00,298.21,M,-33.324,M,,*7D
2017-12-01 17:20:38 1512166838.366920: $GPRMC,222039,A,3946.9613,N,08404.9786,W,0.0000,0.000,011217,,*3E
2017-12-01 17:20:38 1512166838.366981: $GPGSA,A,3,1,3,10,14,22,25,26,31,32,138,,,2.0,1.0,1.5*09
2017-12-01 17:20:39 1512166839.701909: $GPGSV,3,1,11,01,19,277,45,03,19,316,43,10,24,156,39,14,70,031,45*77
2017-12-01 17:20:39 1512166839.702098: $GPGSV,3,2,11,22,37,304,44,25,37,060,36,26,23,178,36,31,77,270,47*71
2017-12-01 17:20:39 1512166839.702165: $GPGSV,3,3,11,32,56,076,46,12,09,033,00,138,38,213,39*79
2017-12-01 17:20:39 1512166839.815598: $GPZDA,222040.00,01,12,2017,00,00*66
2017-12-01 17:20:39 1512166839.815768: $GPGGA,222040,3946.9617,N,08404.9786,W,1,10,1.00,298.85,M,-33.324,M,,*79
2017-12-01 17:20:39 1512166839.815836: $GPRMC,222040,A,3946.9617,N,08404.9786,W,0.0000,0.000,011217,,*34
2017-12-01 17:20:39 1512166839.815898: $GPGSA,A,3,1,3,10,14,22,25,26,31,32,138,,,2.0,1.0,1.5*09
2017-12-01 17:20:40 1512166840.365263: $GPZDA,222041.00,01,12,2017,00,00*67
2017-12-01 17:20:40 1512166840.365438: $GPGGA,222041,3946.9621,N,08404.9786,W,1,10,1.00,299.49,M,-33.324,M,,*7C
2017-12-01 17:20:40 1512166840.365506: $GPRMC,222041,A,3946.9621,N,08404.9786,W,0.0000,0.000,011217,,*30
2017-12-01 17:20:40 1512166840.365566: $GPGSA,A,3,1,3,10,14,22,25,26,31,32,138,,,2.0,1.0,1.5*09
2017-12-01 17:20:41 1512166841.368519: $GPZDA,222042.00,01,12,2017,00,00*64
2017-12-01 17:20:41 1512166841.368689: $GPGGA,222042,3946.9674,N,08404.9762,W,2,10,1.40,301.67,M,-33.324,M,,*7E
2017-12-01 17:20:41 1512166841.368756: $GPRMC,222042,A,3946.9674,N,08404.9762,W,0.0000,0.000,011217,,*39
2017-12-01 17:20:41 1512166841.368817: $GPGSA,A,3,1,3,10,14,22,25,26,31,32,138,,,2.0,1.4,1.5*0D
2017-12-01 17:20:41 1512166841.368875: $GPGBS,222042,2.67,M,3.86,M,8.82,M*36
2017-12-01 17:20:42 1512166842.703904: $GPGSV,3,1,11,01,19,277,45,03,19,316,43,10,24,156,39,14,70,031,45*77
2017-12-01 17:20:42 1512166842.704085: $GPGSV,3,2,11,22,37,304,45,25,37,060,35,26,23,178,36,31,77,270,47*73
2017-12-01 17:20:42 1512166842.704152: $GPGSV,3,3,11,32,56,076,46,12,09,033,10,138,38,213,40*76
2017-12-01 17:20:42 1512166842.817489: $GPZDA,222043.00,01,12,2017,00,00*65
2017-12-01 17:20:42 1512166842.817638: $GPGGA,222043,3946.9674,N,08404.9762,W,2,10,1.40,301.67,M,-33.324,M,,*7F
2017-12-01 17:20:42 1512166842.817704: $GPRMC,222043,A,3946.9674,N,08404.9762,W,0.0000,0.000,011217,,*38
2017-12-01 17:20:42 1512166842.817766: $GPGSA,A,3,1,3,10,14,22,25,26,31,32,138,,,2.0,1.4,1.5*0D
2017-12-01 17:20:43 1512166843.369881: $GPZDA,222044.00,01,12,2017,00,00*62
2017-12-01 17:20:43 1512166843.370063: $GPGGA,222044,3946.9674,N,08404.9762,W,2,10,1.40,301.67,M,-33.324,M,,*78
2017-12-01 17:20:43 1512166843.370130: $GPRMC,222044,A,3946.9674,N,08404.9762,W,0.0000,0.000,011217,,*3F
2017-12-01 17:20:43 1512166843.370192: $GPGSA,A,3,1,3,10,14,22,25,26,31,32,138,,,2.0,1.4,1.5*0D
2017-12-01 17:20:44 1512166844.366261: $GPZDA,222045.00,01,12,2017,00,00*63
2017-12-01 17:20:44 1512166844.366432: $GPGGA,222045,3946.9674,N,08404.9762,W,2,10,1.40,301.67,M,-33.324,M,,*79
2017-12-01 17:20:44 1512166844.366499: $GPRMC,222045,A,3946.9674,N,08404.9762,W,0.0000,0.000,011217,,*3E
2017-12-01 17:20:44 1512166844.366560: $GPGSA,A,3,1,3,10,14,22,25,26,31,32,138,,,2.0,1.4,1.5*0D
2017-12-01 17:20:45 1512166845.702979: $GPGSV,3,1,11,01,19,277,45,03,19,316,43,10,24,156,38,14,70,031,45*76
2017-12-01 17:20:45 1512166845.703164: $GPGSV,3,2,11,22,37,304,44,25,37,060,35,26,23,178,36,31,77,270,47*72
2017-12-01 17:20:45 1512166845.703231: $GPGSV,3,3,11,32,56,076,46,12,09,033,16,138,38,213,40*70
2017-12-01 17:20:45 1512166845.816323: $GPZDA,222046.00,01,12,2017,00,00*60
2017-12-01 17:20:45 1512166845.816496: $GPGGA,222046,3946.9674,N,08404.9762,W,2,11,0.80,301.67,M,-33.324,M,,*76
2017-12-01 17:20:45 1512166845.816563: $GPRMC,222046,A,3946.9674,N,08404.9762,W,0.0000,0.000,011217,,*3D
2017-12-01 17:20:45 1512166845.816625: $GPGSA,A,2,1,3,10,14,22,25,26,31,32,12,138,,2.0,0.8,1.5*02
2017-12-01 17:20:46 1512166846.367604: $GPZDA,222047.00,01,12,2017,00,00*61
2017-12-01 17:20:46 1512166846.367774: $GPGGA,222047,3946.9674,N,08404.9762,W,2,11,0.80,301.67,M,-33.324,M,,*77
2017-12-01 17:20:46 1512166846.367840: $GPRMC,222047,A,3946.9674,N,08404.9762,W,0.0000,0.000,011217,,*3C
2017-12-01 17:20:46 1512166846.367901: $GPGSA,A,3,1,3,10,14,22,25,26,31,32,12,138,,2.0,0.8,1.5*03
2017-12-01 17:20:47 1512166847.369580: $GPZDA,222048.00,01,12,2017,00,00*6E
2017-12-01 17:20:47 1512166847.369753: $GPGGA,222048,3946.9674,N,08404.9762,W,2,11,0.80,301.67,M,-33.324,M,,*78
2017-12-01 17:20:47 1512166847.369819: $GPRMC,222048,A,3946.9674,N,08404.9762,W,0.0000,0.000,011217,,*33
2017-12-01 17:20:47 1512166847.369881: $GPGSA,A,3,1,3,10,14,22,25,26,31,32,12,138,,2.0,0.8,1.5*03
2017-12-01 17:20:48 1512166848.702572: $GPGSV,3,1,11,01,19,277,45,03,19,316,43,10,24,156,38,14,70,031,45*76
2017-12-01 17:20:48 1512166848.925044: $GPGSV,3,2,11,22,37,304,44,25,37,060,34,26,23,178,38,31,77,270,47*7D
2017-12-01 17:20:48 1512166848.925212: $GPGSV,3,3,11,32,56,076,46,12,09,033,17,138,38,213,38*7E
2017-12-01 17:20:48 1512166848.925311: $GPZDA,222049.00,01,12,2017,00,00*6F
2017-12-01 17:20:48 1512166848.925371: $GPGGA,222049,3946.9674,N,08404.9762,W,2,10,1.00,301.67,M,-33.324,M,,*71
2017-12-01 17:20:48 1512166848.925433: $GPRMC,222049,A,3946.9674,N,08404.9762,W,0.0000,0.000,011217,,*32
2017-12-01 17:20:48 1512166848.925493: $GPGSA,A,3,1,3,10,14,22,25,26,31,32,138,,,2.0,1.0,1.5*09
2017-12-01 17:20:49 1512166849.441334: $GPZDA,222050.00,01,12,2017,00,00*67
2017-12-01 17:20:49 1512166849.441552: $GPGGA,222050,3946.9682,N,08404.9754,W,2,10,1.00,301.62,M,-33.324,M,,*70
2017-12-01 17:20:49 1512166849.441620: $GPRMC,222050,A,3946.9682,N,08404.9754,W,0.0000,0.000,011217,,*36
2017-12-01 17:20:49 1512166849.441682: $GPGSA,A,3,1,3,10,14,22,25,26,31,32,138,,,2.0,1.0,1.5*09
2017-12-01 17:20:50 1512166850.367597: $GPZDA,222051.00,01,12,2017,00,00*66
2017-12-01 17:20:50 1512166850.367771: $GPGGA,222051,3946.9682,N,08404.9754,W,2,10,0.80,301.62,M,-33.324,M,,*78
2017-12-01 17:20:50 1512166850.367837: $GPRMC,222051,A,3946.9682,N,08404.9754,W,0.0000,0.000,011217,,*37
2017-12-01 17:20:50 1512166850.367899: $GPGSA,A,3,1,3,10,14,22,25,26,31,32,138,,,2.0,0.8,1.5*00
2017-12-01 17:20:51 1512166851.704179: $GPGSV,3,1,11,01,19,277,45,03,19,316,43,10,24,156,39,14,70,031,45*77
2017-12-01 17:20:51 1512166851.704370: $GPGSV,3,2,11,22,37,304,44,25,37,060,34,26,23,178,39,31,77,270,47*7C
2017-12-01 17:20:51 1512166851.704439: $GPGSV,3,3,11,32,56,076,46,12,09,033,25,138,38,213,40*70
2017-12-01 17:20:51 1512166851.817564: $GPZDA,222052.00,01,12,2017,00,00*65
2017-12-01 17:20:51 1512166851.817742: $GPGGA,222052,3946.9682,N,08404.9754,W,2,11,0.80,301.62,M,-33.324,M,,*7A
2017-12-01 17:20:51 1512166851.817810: $GPRMC,222052,A,3946.9682,N,08404.9754,W,0.0000,0.000,011217,,*34
2017-12-01 17:20:51 1512166851.817871: $GPGSA,A,3,1,3,10,14,22,25,26,31,32,12,138,,2.0,0.8,1.5*03
2017-12-01 17:20:52 1512166852.371197: $GPZDA,222053.00,01,12,2017,00,00*64
2017-12-01 17:20:52 1512166852.371427: $GPGGA,222053,3946.9682,N,08404.9754,W,2,11,0.80,301.62,M,-33.324,M,,*7B
2017-12-01 17:20:52 1512166852.371503: $GPRMC,222053,A,3946.9682,N,08404.9754,W,0.0000,0.000,011217,,*35
2017-12-01 17:20:52 1512166852.371566: $GPGSA,A,3,1,3,10,14,22,25,26,31,32,12,138,,2.0,0.8,1.5*03
2017-12-01 17:20:53 1512166853.369411: $GPZDA,222054.00,01,12,2017,00,00*63
2017-12-01 17:20:53 1512166853.369618: $GPGGA,222054,3946.9682,N,08404.9754,W,2,11,0.80,301.62,M,-33.324,M,,*7C
2017-12-01 17:20:53 1512166853.369707: $GPRMC,222054,A,3946.9682,N,08404.9754,W,0.0000,0.000,011217,,*32
2017-12-01 17:20:53 1512166853.369771: $GPGSA,A,3,1,3,10,14,22,25,26,31,32,12,138,,2.0,0.8,1.5*03
2017-12-01 17:20:53 1512166853.369852: $GPGBS,222054,2.67,M,3.86,M,8.82,M*31
2017-12-01 17:20:54 1512166854.704474: $GPGSV,3,1,11,01,19,277,45,03,19,316,43,10,24,156,39,14,70,031,45*77
2017-12-01 17:20:54 1512166854.704655: $GPGSV,3,2,11,22,37,304,45,25,37,060,33,26,23,178,39,31,77,270,47*7A
2017-12-01 17:20:54 1512166854.704721: $GPGSV,3,3,11,32,56,076,46,12,09,033,26,138,38,213,41*72
2017-12-01 17:20:54 1512166854.817879: $GPZDA,222055.00,01,12,2017,00,00*62
2017-12-01 17:20:54 1512166854.818008: $GPGGA,222055,3946.9682,N,08404.9754,W,2,11,0.80,301.62,M,-33.324,M,,*7D
2017-12-01 17:20:54 1512166854.818074: $GPRMC,222055,A,3946.9682,N,08404.9754,W,0.0000,0.000,011217,,*33
2017-12-01 17:20:54 1512166854.818134: $GPGSA,A,3,1,3,10,14,22,25,26,31,32,12,138,,2.0,0.8,1.5*03
