2017-12-29 14:52:11 1514577131.682034: {"class":"VERSION","release":"3.16","rev":"3.16-4","proto_major":3,"proto_minor":11}
2017-12-29 14:52:11 1514577131.682393: {"class":"DEVICES","devices":[{"class":"DEVICE","path":"/dev/ttyUSB0","driver":"SiRF","subtype":"9\u0006GSD4e_4.1.2-P1_RPATCH.05-F-GPS-4R-1510281 11/03/2015 307","activated":"2017-12-29T19:52:11.479Z","flags":1,"native":1,"bps":4800,"parity":"N","stopbits":1,"cycle":1.00}]}
2017-12-29 14:52:11 1514577131.682511: {"class":"WATCH","enable":true,"json":false,"nmea":true,"raw":0,"scaled":false,"timing":false,"split24":false,"pps":false}
2017-12-29 14:52:12 1514577132.670081: $GPGSV,3,1,12,01,22,294,39,03,07,316,35,10,40,151,48,12,19,043,42*7C
2017-12-29 14:52:12 1514577132.670252: $GPGSV,3,2,12,14,68,343,43,22,25,310,42,25,41,081,51,31,65,232,46*7F
2017-12-29 14:52:12 1514577132.670318: $GPGSV,3,3,12,32,65,048,50,18,11,145,27,26,09,180,27,138,38,213,42*4B
2017-12-29 14:52:12 1514577132.783461: $GPZDA,195213.00,29,12,2017,00,00*67
2017-12-29 14:52:12 1514577132.783623: $GPGGA,195213,3946.9590,N,08404.9793,W,2,12,0.80,306.37,M,-33.324,M,,*7D
2017-12-29 14:52:12 1514577132.783690: $GPRMC,195213,A,3946.9590,N,08404.9793,W,0.0000,0.000,291217,,*3D
2017-12-29 14:52:12 1514577132.783752: $GPGSA,A,3,1,3,10,12,14,22,25,31,32,18,26,138,1.7,0.8,1.3*08
2017-12-29 14:52:13 1514577133.409050: $GPZDA,195214.00,29,12,2017,00,00*60
2017-12-29 14:52:13 1514577133.409211: $GPGGA,195214,3946.9590,N,08404.9793,W,2,12,0.80,306.37,M,-33.324,M,,*7A
2017-12-29 14:52:13 1514577133.409278: $GPRMC,195214,A,3946.9590,N,08404.9793,W,0.0000,0.000,291217,,*3A
2017-12-29 14:52:13 1514577133.409338: $GPGSA,A,3,1,3,10,12,14,22,25,31,32,18,26,138,1.7,0.8,1.3*08
2017-12-29 14:52:14 1514577134.337191: $GPZDA,195215.00,29,12,2017,00,00*61
2017-12-29 14:52:14 1514577134.337358: $GPGGA,195215,3946.9590,N,08404.9793,W,2,12,0.80,306.37,M,-33.324,M,,*7B
2017-12-29 14:52:14 1514577134.337440: $GPRMC,195215,A,3946.9590,N,08404.9793,W,0.0000,0.000,291217,,*3B
2017-12-29 14:52:14 1514577134.337503: $GPGSA,A,3,1,3,10,12,14,22,25,31,32,18,26,138,1.7,0.8,1.3*08
2017-12-29 14:52:15 1514577135.672955: $GPGSV,3,1,12,01,22,294,39,03,07,316,35,10,40,151,48,12,19,043,42*7C
2017-12-29 14:52:15 1514577135.673125: $GPGSV,3,2,12,14,68,343,43,22,25,310,42,25,41,081,51,31,65,232,46*7F
2017-12-29 14:52:15 1514577135.673192: $GPGSV,3,3,12,32,65,048,51,18,11,145,27,26,09,180,26,138,38,213,43*4A
2017-12-29 14:52:15 1514577135.786581: $GPZDA,195216.00,29,12,2017,00,00*62
2017-12-29 14:52:15 1514577135.786785: $GPGGA,195216,3946.9590,N,08404.9793,W,2,12,0.80,306.37,M,-33.324,M,,*78
2017-12-29 14:52:15 1514577135.786868: $GPRMC,195216,A,3946.9590,N,08404.9793,W,0.0000,0.000,291217,,*38
2017-12-29 14:52:15 1514577135.786932: $GPGSA,A,3,1,3,10,12,14,22,25,31,32,18,26,138,1.7,0.8,1.3*08
2017-12-29 14:52:16 1514577136.336201: $GPZDA,195217.00,29,12,2017,00,00*63
2017-12-29 14:52:16 1514577136.336379: $GPGGA,195217,3946.9590,N,08404.9793,W,2,12,0.80,306.37,M,-33.324,M,,*79
2017-12-29 14:52:16 1514577136.336444: $GPRMC,195217,A,3946.9590,N,08404.9793,W,0.0000,0.000,291217,,*39
2017-12-29 14:52:16 1514577136.336505: $GPGSA,A,3,1,3,10,12,14,22,25,31,32,18,26,138,1.7,0.8,1.3*08
2017-12-29 14:52:17 1514577137.335866: $GPZDA,195218.00,29,12,2017,00,00*6C
2017-12-29 14:52:17 1514577137.336045: $GPGGA,195218,3946.9593,N,08404.9792,W,2,12,0.80,305.61,M,-33.324,M,,*74
2017-12-29 14:52:17 1514577137.336113: $GPRMC,195218,A,3946.9593,N,08404.9792,W,0.0000,0.000,291217,,*34
2017-12-29 14:52:17 1514577137.336175: $GPGSA,A,3,1,3,10,12,14,22,25,31,32,18,26,138,1.7,0.8,1.3*08
2017-12-29 14:52:18 1514577138.673287: $GPGSV,3,1,12,01,22,294,39,03,07,316,35,10,40,151,49,12,19,043,42*7D
2017-12-29 14:52:18 1514577138.673465: $GPGSV,3,2,12,14,68,343,43,22,25,310,42,25,41,081,51,31,65,232,46*7F
2017-12-29 14:52:18 1514577138.673531: $GPGSV,3,3,12,32,65,048,51,18,11,145,27,26,09,180,26,138,38,213,42*4B
2017-12-29 14:52:18 1514577138.785682: $GPZDA,195219.00,29,12,2017,00,00*6D
2017-12-29 14:52:18 1514577138.785900: $GPGGA,195219,3946.9593,N,08404.9792,W,2,12,0.80,305.61,M,-33.324,M,,*75
2017-12-29 14:52:18 1514577138.786021: $GPRMC,195219,A,3946.9593,N,08404.9792,W,0.0000,0.000,291217,,*35
2017-12-29 14:52:18 1514577138.786084: $GPGSA,A,3,1,3,10,12,14,22,25,31,32,18,26,138,1.7,0.8,1.3*08
2017-12-29 14:52:19 1514577139.339078: $GPZDA,195220.00,29,12,2017,00,00*67
2017-12-29 14:52:19 1514577139.339241: $GPGGA,195220,3946.9593,N,08404.9792,W,2,12,0.80,305.61,M,-33.324,M,,*7F
2017-12-29 14:52:19 1514577139.339308: $GPRMC,195220,A,3946.9593,N,08404.9792,W,0.0000,0.000,291217,,*3F
2017-12-29 14:52:19 1514577139.339383: $GPGSA,A,3,1,3,10,12,14,22,25,31,32,18,26,138,1.7,0.8,1.3*08
2017-12-29 14:52:20 1514577140.333717: $GPZDA,195221.00,29,12,2017,00,00*66
2017-12-29 14:52:20 1514577140.333914: $GPGGA,195221,3946.9593,N,08404.9792,W,2,12,0.80,305.61,M,-33.324,M,,*7E
2017-12-29 14:52:20 1514577140.333982: $GPRMC,195221,A,3946.9593,N,08404.9792,W,0.0000,0.000,291217,,*3E
2017-12-29 14:52:20 1514577140.334044: $GPGSA,A,3,1,3,10,12,14,22,25,31,32,18,26,138,1.7,0.8,1.3*08
