2017-12-01 12:20:58 1512148858.354250: {"class":"VERSION","release":"3.16","rev":"3.16-4","proto_major":3,"proto_minor":11}
2017-12-01 12:20:58 1512148858.354755: {"class":"DEVICES","devices":[{"class":"DEVICE","path":"/dev/ttyUSB0","driver":"SiRF","subtype":"9\u0006GSD4e_4.1.2-P1_RPATCH.05-F-GPS-4R-1510281 11/03/2015 307","activated":"2017-12-01T17:20:58.233Z","flags":1,"native":1,"bps":4800,"parity":"N","stopbits":1,"cycle":1.00}]}
2017-12-01 12:20:58 1512148858.354905: {"class":"WATCH","enable":true,"json":false,"nmea":true,"raw":0,"scaled":false,"timing":false,"split24":false,"pps":false}
2017-12-01 12:20:58 1512148858.682570: $GPGSV,3,1,12,10,24,283,39,13,28,045,44,15,60,051,47,18,55,301,46*79
2017-12-01 12:20:58 1512148858.682729: $GPGSV,3,2,12,20,51,073,45,21,79,262,42,24,34,138,48,27,17,312,40*75
2017-12-01 12:20:58 1512148858.682794: $GPGSV,3,3,12,05,03,088,00,29,09,189,25,32,02,226,23,138,38,213,46*4E
2017-12-01 12:20:58 1512148858.796252: $GPZDA,172059.00,01,12,2017,00,00*68
2017-12-01 12:20:58 1512148858.796390: $GPGGA,172059,3946.9573,N,08404.9839,W,2,11,0.80,297.64,M,-33.324,M,,*76
2017-12-01 12:20:58 1512148858.796455: $GPRMC,172059,A,3946.9573,N,08404.9839,W,0.0000,0.000,011217,,*30
2017-12-01 12:20:58 1512148858.796516: $GPGSA,A,3,10,13,15,18,20,21,24,27,29,32,138,,2.0,0.8,1.5*00
2017-12-01 12:20:59 1512148859.348409: $GPZDA,172100.00,01,12,2017,00,00*65
2017-12-01 12:20:59 1512148859.348583: $GPGGA,172100,3946.9573,N,08404.9839,W,2,11,0.80,297.64,M,-33.324,M,,*7B
2017-12-01 12:20:59 1512148859.348650: $GPRMC,172100,A,3946.9573,N,08404.9839,W,0.0000,0.000,011217,,*3D
2017-12-01 12:20:59 1512148859.348712: $GPGSA,A,3,10,13,15,18,20,21,24,27,29,32,138,,2.0,0.8,1.5*00
2017-12-01 12:21:00 1512148860.343939: $GPZDA,172101.00,01,12,2017,00,00*64
2017-12-01 12:21:00 1512148860.344119: $GPGGA,172101,3946.9573,N,08404.9839,W,2,11,0.80,297.64,M,-33.324,M,,*7A
2017-12-01 12:21:00 1512148860.344187: $GPRMC,172101,A,3946.9573,N,08404.9839,W,0.0000,0.000,011217,,*3C
2017-12-01 12:21:00 1512148860.344268: $GPGSA,A,3,10,13,15,18,20,21,24,27,29,32,138,,2.0,0.8,1.5*00
2017-12-01 12:21:01 1512148861.685919: $GPGSV,3,1,12,10,24,283,39,13,28,045,44,15,60,051,46,18,55,301,46*78
2017-12-01 12:21:01 1512148861.686116: $GPGSV,3,2,12,20,51,073,45,21,79,262,42,24,34,138,47,27,17,312,40*7A
2017-12-01 12:21:01 1512148861.686184: $GPGSV,3,3,12,05,03,088,00,29,09,189,26,32,02,226,23,138,38,213,46*4D
2017-12-01 12:21:01 1512148861.799290: $GPZDA,172102.00,01,12,2017,00,00*67
2017-12-01 12:21:01 1512148861.799463: $GPGGA,172102,3946.9573,N,08404.9839,W,2,11,0.80,297.64,M,-33.324,M,,*79
2017-12-01 12:21:01 1512148861.799529: $GPRMC,172102,A,3946.9573,N,08404.9839,W,0.0000,0.000,011217,,*3F
2017-12-01 12:21:01 1512148861.799590: $GPGSA,A,3,10,13,15,18,20,21,24,27,29,32,138,,2.0,0.8,1.5*00
2017-12-01 12:21:02 1512148862.424691: $GPZDA,172103.00,01,12,2017,00,00*66
2017-12-01 12:21:02 1512148862.424866: $GPGGA,172103,3946.9573,N,08404.9839,W,2,11,0.80,297.64,M,-33.324,M,,*78
2017-12-01 12:21:02 1512148862.424934: $GPRMC,172103,A,3946.9573,N,08404.9839,W,0.0000,0.000,011217,,*3E
2017-12-01 12:21:02 1512148862.424996: $GPGSA,A,3,10,13,15,18,20,21,24,27,29,32,138,,2.0,0.8,1.5*00
2017-12-01 12:21:03 1512148863.349247: $GPZDA,172104.00,01,12,2017,00,00*61
2017-12-01 12:21:03 1512148863.965759: $GPGGA,172104,3946.9573,N,08404.9839,W,2,11,0.80,297.64,M,-33.324,M,,*7F
2017-12-01 12:21:03 1512148863.965927: $GPRMC,172104,A,3946.9573,N,08404.9839,W,0.0000,0.000,011217,,*39
2017-12-01 12:21:03 1512148863.965995: $GPGSA,A,3,10,13,15,18,20,21,24,27,29,32,138,,2.0,0.8,1.5*00
2017-12-01 12:21:04 1512148864.685105: $GPGSV,3,1,12,10,24,283,40,13,28,045,43,15,60,051,46,18,55,301,46*71
2017-12-01 12:21:04 1512148864.685279: $GPGSV,3,2,12,20,51,073,45,21,79,262,42,24,34,138,48,27,17,312,39*7B
2017-12-01 12:21:04 1512148864.685345: $GPGSV,3,3,12,05,03,088,00,29,09,189,26,32,02,226,16,138,38,213,46*4B
2017-12-01 12:21:04 1512148864.798475: $GPZDA,172105.00,01,12,2017,00,00*60
2017-12-01 12:21:04 1512148864.798664: $GPGGA,172105,3946.9573,N,08404.9839,W,2,11,0.80,297.64,M,-33.324,M,,*7E
2017-12-01 12:21:04 1512148864.798798: $GPRMC,172105,A,3946.9573,N,08404.9839,W,0.0000,0.000,011217,,*38
2017-12-01 12:21:04 1512148864.798862: $GPGSA,A,3,10,13,15,18,20,21,24,27,29,32,138,,2.0,0.8,1.5*00
2017-12-01 12:21:05 1512148865.365616: $GPZDA,172106.00,01,12,2017,00,00*63
2017-12-01 12:21:05 1512148865.365803: $GPGGA,172106,3946.9573,N,08404.9839,W,2,11,0.80,297.64,M,-33.324,M,,*7D
2017-12-01 12:21:05 1512148865.365870: $GPRMC,172106,A,3946.9573,N,08404.9839,W,0.0000,0.000,011217,,*3B
2017-12-01 12:21:05 1512148865.365931: $GPGSA,A,3,10,13,15,18,20,21,24,27,29,32,138,,2.0,0.8,1.5*00
2017-12-01 12:21:06 1512148866.366455: $GPZDA,172107.00,01,12,2017,00,00*62
2017-12-01 12:21:06 1512148866.366642: $GPGGA,172107,3946.9573,N,08404.9839,W,2,11,0.80,297.64,M,-33.324,M,,*7C
2017-12-01 12:21:06 1512148866.366725: $GPRMC,172107,A,3946.9573,N,08404.9839,W,0.0000,0.000,011217,,*3A
2017-12-01 12:21:06 1512148866.366788: $GPGSA,A,3,10,13,15,18,20,21,24,27,29,32,138,,2.0,0.8,1.5*00
2017-12-01 12:21:07 1512148867.686615: $GPGSV,3,1,12,10,24,283,40,13,28,045,43,15,60,051,47,18,55,301,46*70
2017-12-01 12:21:07 1512148867.686826: $GPGSV,3,2,12,20,51,073,45,21,79,262,41,24,34,138,48,27,17,312,38*79
2017-12-01 12:21:07 1512148867.686896: $GPGSV,3,3,12,05,03,088,00,29,09,189,26,32,02,226,15,138,38,213,46*48
2017-12-01 12:21:07 1512148867.800097: $GPZDA,172108.00,01,12,2017,00,00*6D
2017-12-01 12:21:07 1512148867.800258: $GPGGA,172108,3946.9573,N,08404.9839,W,2,11,0.80,297.64,M,-33.324,M,,*73
2017-12-01 12:21:07 1512148867.800325: $GPRMC,172108,A,3946.9573,N,08404.9839,W,0.0000,0.000,011217,,*35
2017-12-01 12:21:07 1512148867.800386: $GPGSA,A,3,10,13,15,18,20,21,24,27,29,32,138,,2.0,0.8,1.5*00
2017-12-01 12:21:08 1512148868.348379: $GPZDA,172109.00,01,12,2017,00,00*6C
2017-12-01 12:21:08 1512148868.348619: $GPGGA,172109,3946.9573,N,08404.9839,W,2,11,0.80,297.64,M,-33.324,M,,*72
2017-12-01 12:21:08 1512148868.348726: $GPRMC,172109,A,3946.9573,N,08404.9839,W,0.0000,0.000,011217,,*34
2017-12-01 12:21:08 1512148868.348790: $GPGSA,A,3,10,13,15,18,20,21,24,27,29,32,138,,2.0,0.8,1.5*00
