2017-11-16 15:39:46 1510864786.515750: {"class":"VERSION","release":"3.17","rev":"3.17","proto_major":3,"proto_minor":12}
2017-11-16 15:39:46 1510864786.516308: {"class":"DEVICES","devices":[{"class":"DEVICE","path":"/dev/ttyUSB0","driver":"SiRF","subtype":"9\u0006GSD4e_4.1.2-P1_RPATCH.05-F-GPS-4R-1510281 11/03/2015 307","activated":"2017-11-16T20:39:46.252Z","flags":1,"native":1,"bps":4800,"parity":"N","stopbits":1,"cycle":1.00}]}
2017-11-16 15:39:46 1510864786.516427: {"class":"WATCH","enable":true,"json":false,"nmea":true,"raw":0,"scaled":false,"timing":false,"split24":false,"pps":false}
2017-11-16 15:39:46 1510864786.700342: $GPGSV,3,1,12,20,04,121,21,10,74,340,51,14,33,258,44,31,04,204,34*73
2017-11-16 15:39:46 1510864786.700640: $GPGSV,3,2,12,18,66,105,48,15,07,069,22,21,23,178,43,24,40,054,50*7B
2017-11-16 15:39:46 1510864786.700742: $GPGSV,3,3,12,25,07,138,21,32,50,271,46,12,13,102,37,138,38,213,45*47
2017-11-16 15:39:46 1510864786.813579: $GPZDA,203945.00,16,11,2017,00,00*6C
2017-11-16 15:39:46 1510864786.813735: $GPGGA,203945,3946.9568,N,08404.9859,W,2,11,1.20,308.20,M,-33.324,M,,*77
2017-11-16 15:39:46 1510864786.813796: $GPRMC,203945,A,3946.9568,N,08404.9859,W,0.0000,0.000,161117,,*38
2017-11-16 15:39:46 1510864786.813851: $GPGSA,A,3,20,10,14,31,18,21,24,25,32,12,138,,1.6,1.2,1.3*03
2017-11-16 15:39:47 1510864787.364476: $GPZDA,203946.00,16,11,2017,00,00*6F
2017-11-16 15:39:47 1510864787.364638: $GPGGA,203946,3946.9568,N,08404.9859,W,2,11,1.20,308.20,M,-33.324,M,,*74
2017-11-16 15:39:47 1510864787.364698: $GPRMC,203946,A,3946.9568,N,08404.9859,W,0.0000,0.000,161117,,*3B
2017-11-16 15:39:47 1510864787.364753: $GPGSA,A,3,20,10,14,31,18,21,24,25,32,12,138,,1.6,1.2,1.3*03
2017-11-16 15:39:48 1510864788.365339: $GPZDA,203947.00,16,11,2017,00,00*6E
2017-11-16 15:39:48 1510864788.365467: $GPGGA,203947,3946.9568,N,08404.9859,W,2,11,1.20,308.20,M,-33.324,M,,*75
2017-11-16 15:39:48 1510864788.365500: $GPRMC,203947,A,3946.9568,N,08404.9859,W,0.0000,0.000,161117,,*3A
2017-11-16 15:39:48 1510864788.365547: $GPGSA,A,3,20,10,14,31,18,21,24,25,32,12,138,,1.6,1.2,1.3*03
2017-11-16 15:39:49 1510864789.719993: $GPGSV,3,1,12,27,03,255,19,10,74,340,51,14,33,258,44,31,04,204,33*7F
2017-11-16 15:39:49 1510864789.720110: $GPGSV,3,2,12,18,66,105,48,08,04,288,34,21,23,178,43,24,40,054,50*7E
2017-11-16 15:39:49 1510864789.720149: $GPGSV,3,3,12,25,07,138,17,32,50,271,46,12,13,102,36,138,38,213,45*43
2017-11-16 15:39:49 1510864789.833074: $GPZDA,203948.00,16,11,2017,00,00*61
2017-11-16 15:39:49 1510864789.833200: $GPGGA,203948,3946.9568,N,08404.9859,W,2,11,1.20,308.20,M,-33.324,M,,*7A
2017-11-16 15:39:49 1510864789.833232: $GPRMC,203948,A,3946.9568,N,08404.9859,W,0.0000,0.000,161117,,*35
2017-11-16 15:39:49 1510864789.833268: $GPGSA,A,3,27,10,14,31,18,8,21,24,32,12,138,,1.6,1.2,1.3*3B
2017-11-16 15:39:50 1510864790.379903: $GPZDA,203949.00,16,11,2017,00,00*60
2017-11-16 15:39:50 1510864790.380029: $GPGGA,203949,3946.9568,N,08404.9859,W,2,11,1.20,308.20,M,-33.324,M,,*7B
2017-11-16 15:39:50 1510864790.380060: $GPRMC,203949,A,3946.9568,N,08404.9859,W,0.0000,0.000,161117,,*34
2017-11-16 15:39:50 1510864790.380089: $GPGSA,A,3,27,10,14,31,18,8,21,24,32,12,138,,1.6,1.2,1.3*3B
2017-11-16 15:39:51 1510864791.381598: $GPZDA,203950.00,16,11,2017,00,00*68
2017-11-16 15:39:51 1510864791.381699: $GPGGA,203950,3946.9568,N,08404.9859,W,2,11,1.20,308.20,M,-33.324,M,,*73
2017-11-16 15:39:51 1510864791.381730: $GPRMC,203950,A,3946.9568,N,08404.9859,W,0.0000,0.000,161117,,*3C
2017-11-16 15:39:51 1510864791.381758: $GPGSA,A,3,27,10,14,31,18,8,21,24,32,12,138,,1.6,1.2,1.3*3B
2017-11-16 15:39:52 1510864792.694063: $GPGSV,3,1,12,27,03,255,20,10,74,340,51,14,33,258,44,31,04,204,28*7F
2017-11-16 15:39:52 1510864792.694191: $GPGSV,3,2,12,18,66,105,48,08,04,288,34,21,23,178,43,24,40,054,50*7E
2017-11-16 15:39:52 1510864792.694223: $GPGSV,3,3,12,11,01,325,26,32,50,271,46,12,13,102,36,138,38,213,45*4E
2017-11-16 15:39:52 1510864792.805832: $GPZDA,203951.00,16,11,2017,00,00*69
2017-11-16 15:39:52 1510864792.805915: $GPGGA,203951,3946.9568,N,08404.9859,W,2,12,1.20,308.20,M,-33.324,M,,*71
2017-11-16 15:39:52 1510864792.806007: $GPRMC,203951,A,3946.9568,N,08404.9859,W,0.0000,0.000,161117,,*3D
2017-11-16 15:39:52 1510864792.806037: $GPGSA,A,3,27,10,14,31,18,8,21,24,11,32,12,138,1.6,1.2,1.3*3B
2017-11-16 15:39:53 1510864793.366541: $GPZDA,203952.00,16,11,2017,00,00*6A
2017-11-16 15:39:53 1510864793.366650: $GPGGA,203952,3946.9568,N,08404.9859,W,2,12,1.20,308.20,M,-33.324,M,,*72
2017-11-16 15:39:53 1510864793.366681: $GPRMC,203952,A,3946.9568,N,08404.9859,W,0.0000,0.000,161117,,*3E
2017-11-16 15:39:53 1510864793.366709: $GPGSA,A,3,27,10,14,31,18,8,21,24,11,32,12,138,1.6,1.2,1.3*3B
2017-11-16 15:39:54 1510864794.383224: $GPZDA,203953.00,16,11,2017,00,00*6B
2017-11-16 15:39:54 1510864794.383408: $GPGGA,203953,3946.9568,N,08404.9859,W,2,12,1.20,308.20,M,-33.324,M,,*73
2017-11-16 15:39:54 1510864794.383470: $GPRMC,203953,A,3946.9568,N,08404.9859,W,0.0000,0.000,161117,,*3F
2017-11-16 15:39:54 1510864794.383526: $GPGSA,A,3,27,10,14,31,18,8,21,24,11,32,12,138,1.6,1.2,1.3*3B
2017-11-16 15:39:55 1510864795.703829: $GPGSV,3,1,12,15,07,069,25,10,74,340,51,14,33,258,44,31,04,204,29*73
2017-11-16 15:39:55 1510864795.704003: $GPGSV,3,2,12,18,66,105,48,08,04,288,28,21,23,178,43,24,40,054,50*73
2017-11-16 15:39:55 1510864795.704063: $GPGSV,3,3,12,20,04,121,12,32,50,271,46,12,13,102,35,138,38,213,44*4A
2017-11-16 15:39:55 1510864795.817147: $GPZDA,203954.00,16,11,2017,00,00*6C
2017-11-16 15:39:55 1510864795.817316: $GPGGA,203954,3946.9568,N,08404.9859,W,2,11,1.00,308.20,M,-33.324,M,,*75
2017-11-16 15:39:55 1510864795.817378: $GPRMC,203954,A,3946.9568,N,08404.9859,W,0.0000,0.000,161117,,*38
2017-11-16 15:39:55 1510864795.817433: $GPGSA,A,3,15,10,14,31,18,8,21,24,32,12,138,,1.6,1.0,1.3*38
2017-11-16 15:39:56 1510864796.442559: $GPZDA,203955.00,16,11,2017,00,00*6D
2017-11-16 15:39:56 1510864796.442720: $GPGGA,203955,3946.9568,N,08404.9859,W,2,11,1.00,308.20,M,-33.324,M,,*74
2017-11-16 15:39:56 1510864796.442781: $GPRMC,203955,A,3946.9568,N,08404.9859,W,0.0000,0.000,161117,,*39
2017-11-16 15:39:56 1510864796.442837: $GPGSA,A,3,15,10,14,31,18,8,21,24,32,12,138,,1.6,1.0,1.3*38
