2017-12-01 14:16:12 1512155772.644721: {"class":"VERSION","release":"3.16","rev":"3.16-4","proto_major":3,"proto_minor":11}
2017-12-01 14:16:12 1512155772.645350: {"class":"DEVICES","devices":[{"class":"DEVICE","path":"/dev/ttyUSB0","driver":"SiRF","subtype":"9\u0006GSD4e_4.1.2-P1_RPATCH.05-F-GPS-4R-1510281 11/03/2015 307","activated":"2017-12-01T19:16:12.416Z","flags":1,"native":1,"bps":4800,"parity":"N","stopbits":1,"cycle":1.00}]}
2017-12-01 14:16:12 1512155772.645574: {"class":"WATCH","enable":true,"json":false,"nmea":true,"raw":0,"scaled":false,"timing":false,"split24":false,"pps":false}
2017-12-01 14:16:13 1512155773.022152: $GPZDA,191613.71,01,12,2017,00,00*6B
2017-12-01 14:16:13 1512155773.022322: $GPGGA,191613,3946.9545,N,08404.9757,W,1,12,1.20,336.73,M,-33.324,M,,*76
2017-12-01 14:16:13 1512155773.022389: $GPRMC,191613,A,3946.9545,N,08404.9757,W,0.9019,181.591,011217,,*33
2017-12-01 14:16:13 1512155773.022451: $GPGSA,A,3,10,14,18,21,24,27,32,8,12,15,20,138,2.0,1.2,1.5*3C
2017-12-01 14:16:13 1512155773.022511: $GPGBS,191613,10.70,M,15.43,M,35.28,M*0A
2017-12-01 14:16:14 1512155774.125940: $GPZDA,191614.39,01,12,2017,00,00*60
2017-12-01 14:16:14 1512155774.126114: $GPGGA,191614,3946.9506,N,08404.9808,W,1,12,1.20,346.83,M,-33.324,M,,*7B
2017-12-01 14:16:14 1512155774.126182: $GPRMC,191614,A,3946.9506,N,08404.9808,W,0.3554,131.360,011217,,*33
2017-12-01 14:16:14 1512155774.126243: $GPGSA,A,3,10,14,18,21,24,27,32,8,12,15,20,138,2.0,1.2,1.5*3C
2017-12-01 14:16:15 1512155775.291072: $GPGSV,3,1,12,08,06,297,38,10,66,327,49,14,26,250,37,18,72,085,44*78
2017-12-01 14:16:15 1512155775.291267: $GPGSV,3,2,12,21,32,180,45,24,47,063,48,27,08,262,34,32,44,262,46*74
2017-12-01 14:16:15 1512155775.291334: $GPGSV,3,3,12,12,07,109,09,15,13,064,09,20,11,117,08,138,38,213,00*4E
2017-12-01 14:16:15 1512155775.404674: $GPZDA,191615.00,01,12,2017,00,00*6B
2017-12-01 14:16:15 1512155775.404877: $GPGGA,191615,3946.9506,N,08404.9808,W,1,08,1.20,346.83,M,-33.324,M,,*71
2017-12-01 14:16:15 1512155775.404945: $GPRMC,191615,A,3946.9506,N,08404.9808,W,0.2710,100.223,011217,,*35
2017-12-01 14:16:15 1512155775.405006: $GPGSA,A,3,8,10,14,18,21,24,27,32,,,,,2.0,1.2,1.5*03
2017-12-01 14:16:15 1512155775.856590: $GPZDA,191616.00,01,12,2017,00,00*68
2017-12-01 14:16:15 1512155775.856798: $GPGGA,191616,3946.9506,N,08404.9808,W,1,08,0.80,345.42,M,-33.324,M,,*77
2017-12-01 14:16:15 1512155775.856901: $GPRMC,191616,A,3946.9506,N,08404.9808,W,0.1567,9.200,011217,,*3E
2017-12-01 14:16:15 1512155775.856965: $GPGSA,A,3,8,10,14,18,21,24,27,32,,,,,2.0,0.8,1.5*08
2017-12-01 14:16:16 1512155776.413869: $GPZDA,191617.00,01,12,2017,00,00*69
2017-12-01 14:16:16 1512155776.414038: $GPGGA,191617,3946.9506,N,08404.9808,W,1,08,0.80,345.42,M,-33.324,M,,*76
2017-12-01 14:16:16 1512155776.414104: $GPRMC,191617,A,3946.9506,N,08404.9808,W,0.0000,0.000,011217,,*31
2017-12-01 14:16:16 1512155776.414165: $GPGSA,A,3,8,10,14,18,21,24,27,32,,,,,2.0,0.8,1.5*08
2017-12-01 14:16:17 1512155777.750244: $GPGSV,3,1,12,08,06,297,37,10,66,327,50,14,26,250,34,18,72,085,44*7C
2017-12-01 14:16:17 1512155777.750479: $GPGSV,3,2,12,21,32,180,45,24,47,063,49,27,08,262,34,32,44,262,46*75
2017-12-01 14:16:17 1512155777.750568: $GPGSV,3,3,12,12,07,109,29,15,13,064,29,20,11,117,27,138,38,213,48*4F
2017-12-01 14:16:17 1512155777.863875: $GPZDA,191618.00,01,12,2017,00,00*66
2017-12-01 14:16:17 1512155777.864039: $GPGGA,191618,3946.9506,N,08404.9808,W,1,12,0.80,345.42,M,-33.324,M,,*72
2017-12-01 14:16:17 1512155777.864106: $GPRMC,191618,A,3946.9506,N,08404.9808,W,0.0000,0.000,011217,,*3E
2017-12-01 14:16:17 1512155777.864166: $GPGSA,A,3,8,10,14,18,21,24,27,32,12,15,20,138,2.0,0.8,1.5*37
2017-12-01 14:16:18 1512155778.418616: $GPZDA,191619.00,01,12,2017,00,00*67
2017-12-01 14:16:18 1512155778.418799: $GPGGA,191619,3946.9505,N,08404.9807,W,1,12,0.80,344.02,M,-33.324,M,,*7A
2017-12-01 14:16:18 1512155778.418865: $GPRMC,191619,A,3946.9505,N,08404.9807,W,0.0000,0.000,011217,,*33
2017-12-01 14:16:18 1512155778.418926: $GPGSA,A,3,8,10,14,18,21,24,27,32,12,15,20,138,2.0,0.8,1.5*37
2017-12-01 14:16:19 1512155779.414283: $GPZDA,191620.00,01,12,2017,00,00*6D
2017-12-01 14:16:19 1512155779.414452: $GPGGA,191620,3946.9505,N,08404.9814,W,1,12,0.80,343.94,M,-33.324,M,,*7A
2017-12-01 14:16:19 1512155779.414519: $GPRMC,191620,A,3946.9505,N,08404.9814,W,0.0000,0.000,011217,,*3B
2017-12-01 14:16:19 1512155779.414580: $GPGSA,A,3,8,10,14,18,21,24,27,32,12,15,20,138,2.0,0.8,1.5*37
2017-12-01 14:16:19 1512155779.414639: $GPGBS,191620,10.70,M,15.43,M,35.28,M*0A
2017-12-01 14:16:20 1512155780.750893: $GPGSV,3,1,12,08,06,297,36,10,66,327,49,14,26,250,35,18,72,085,44*74
2017-12-01 14:16:20 1512155780.751075: $GPGSV,3,2,12,21,32,180,45,24,47,063,49,27,08,262,35,32,44,262,46*74
2017-12-01 14:16:20 1512155780.751143: $GPGSV,3,3,12,12,07,109,29,15,13,064,30,20,11,117,26,138,38,213,47*49
2017-12-01 14:16:20 1512155780.863068: $GPZDA,191621.00,01,12,2017,00,00*6C
2017-12-01 14:16:20 1512155780.863238: $GPGGA,191621,3946.9501,N,08404.9814,W,1,12,0.80,343.30,M,-33.324,M,,*71
2017-12-01 14:16:20 1512155780.863306: $GPRMC,191621,A,3946.9501,N,08404.9814,W,0.0000,0.000,011217,,*3E
2017-12-01 14:16:20 1512155780.863367: $GPGSA,A,3,8,10,14,18,21,24,27,32,12,15,20,138,2.0,0.8,1.5*37
2017-12-01 14:16:21 1512155781.415154: $GPZDA,191622.00,01,12,2017,00,00*6F
2017-12-01 14:16:21 1512155781.415344: $GPGGA,191622,3946.9504,N,08404.9813,W,1,12,0.80,342.54,M,-33.324,M,,*73
2017-12-01 14:16:21 1512155781.415416: $GPRMC,191622,A,3946.9504,N,08404.9813,W,0.0000,0.000,011217,,*3F
2017-12-01 14:16:21 1512155781.415480: $GPGSA,A,3,8,10,14,18,21,24,27,32,12,15,20,138,2.0,0.8,1.5*37
2017-12-01 14:16:22 1512155782.416803: $GPZDA,191623.00,01,12,2017,00,00*6E
2017-12-01 14:16:22 1512155782.416971: $GPGGA,191623,3946.9506,N,08404.9817,W,2,12,1.80,337.48,M,-33.324,M,,*79
2017-12-01 14:16:22 1512155782.417042: $GPRMC,191623,A,3946.9506,N,08404.9817,W,0.0000,0.000,011217,,*38
2017-12-01 14:16:22 1512155782.417106: $GPGSA,A,3,8,10,14,18,21,24,27,32,12,15,20,138,2.0,1.8,1.5*36
2017-12-01 14:16:23 1512155783.757536: $GPGSV,3,1,12,08,06,297,32,10,66,327,50,14,26,250,36,18,72,085,44*7B
2017-12-01 14:16:23 1512155783.757724: $GPGSV,3,2,12,21,32,180,44,24,47,063,49,27,08,262,34,32,44,262,46*74
2017-12-01 14:16:23 1512155783.757794: $GPGSV,3,3,12,12,07,109,29,15,13,064,30,20,11,117,26,138,38,213,47*49
2017-12-01 14:16:23 1512155783.870954: $GPZDA,191624.00,01,12,2017,00,00*69
2017-12-01 14:16:23 1512155783.871110: $GPGGA,191624,3946.9511,N,08404.9814,W,2,12,0.80,331.74,M,-33.324,M,,*73
2017-12-01 14:16:23 1512155783.871179: $GPRMC,191624,A,3946.9511,N,08404.9814,W,0.2422,93.794,011217,,*0C
2017-12-01 14:16:23 1512155783.871243: $GPGSA,A,3,8,10,14,18,21,24,27,32,12,15,20,138,2.0,0.8,1.5*37
2017-12-01 14:16:24 1512155784.423076: $GPZDA,191625.00,01,12,2017,00,00*68
2017-12-01 14:16:24 1512155784.423252: $GPGGA,191625,3946.9511,N,08404.9814,W,2,12,1.00,331.74,M,-33.324,M,,*7B
2017-12-01 14:16:24 1512155784.423321: $GPRMC,191625,A,3946.9511,N,08404.9814,W,0.0000,0.000,011217,,*3B
2017-12-01 14:16:24 1512155784.423385: $GPGSA,A,3,8,10,14,18,21,24,27,32,12,15,20,138,2.0,1.0,1.5*3E
2017-12-01 14:16:25 1512155785.422697: $GPZDA,191626.00,01,12,2017,00,00*6B
2017-12-01 14:16:25 1512155785.422878: $GPGGA,191626,3946.9511,N,08404.9814,W,2,12,1.00,331.74,M,-33.324,M,,*78
2017-12-01 14:16:25 1512155785.422946: $GPRMC,191626,A,3946.9511,N,08404.9814,W,0.0000,0.000,011217,,*38
2017-12-01 14:16:25 1512155785.423011: $GPGSA,A,3,8,10,14,18,21,24,27,32,12,15,20,138,2.0,1.0,1.5*3E
2017-12-01 14:16:26 1512155786.755936: $GPGSV,3,1,12,08,06,297,00,10,66,327,49,14,26,250,36,18,72,085,44*72
2017-12-01 14:16:26 1512155786.756133: $GPGSV,3,2,12,21,32,180,44,24,47,063,49,27,08,262,34,32,44,262,46*74
2017-12-01 14:16:26 1512155786.756206: $GPGSV,3,3,12,12,07,109,28,15,13,064,29,20,11,117,26,138,38,213,48*4F
2017-12-01 14:16:26 1512155786.868264: $GPZDA,191627.00,01,12,2017,00,00*6A
2017-12-01 14:16:26 1512155786.868451: $GPGGA,191627,3946.9511,N,08404.9814,W,2,11,1.00,331.74,M,-33.324,M,,*7A
2017-12-01 14:16:26 1512155786.868522: $GPRMC,191627,A,3946.9511,N,08404.9814,W,0.0000,0.000,011217,,*39
2017-12-01 14:16:26 1512155786.868657: $GPGSA,A,3,10,14,18,21,24,27,32,12,15,20,138,,2.0,1.0,1.5*06
2017-12-01 14:16:27 1512155787.494752: $GPZDA,191628.00,01,12,2017,00,00*65
2017-12-01 14:16:27 1512155787.494928: $GPGGA,191628,3946.9511,N,08404.9814,W,2,11,1.00,331.74,M,-33.324,M,,*75
2017-12-01 14:16:27 1512155787.494995: $GPRMC,191628,A,3946.9511,N,08404.9814,W,0.0000,0.000,011217,,*36
2017-12-01 14:16:27 1512155787.495056: $GPGSA,A,3,10,14,18,21,24,27,32,12,15,20,138,,2.0,1.0,1.5*06
2017-12-01 14:16:28 1512155788.420702: $GPZDA,191629.00,01,12,2017,00,00*64
2017-12-01 14:16:28 1512155788.420885: $GPGGA,191629,3946.9511,N,08404.9814,W,2,11,1.00,331.74,M,-33.324,M,,*74
2017-12-01 14:16:28 1512155788.420954: $GPRMC,191629,A,3946.9511,N,08404.9814,W,0.0000,0.000,011217,,*37
2017-12-01 14:16:28 1512155788.421016: $GPGSA,A,3,10,14,18,21,24,27,32,12,15,20,138,,2.0,1.0,1.5*06
2017-12-01 14:16:29 1512155789.760053: $GPGSV,3,1,12,08,06,297,18,10,66,327,50,14,26,250,37,18,72,085,45*73
2017-12-01 14:16:29 1512155789.760234: $GPGSV,3,2,12,21,32,180,45,24,47,063,49,27,08,262,34,32,44,262,46*75
2017-12-01 14:16:29 1512155789.760301: $GPGSV,3,3,12,12,07,109,28,15,13,064,29,20,11,117,25,138,38,213,47*43
2017-12-01 14:16:29 1512155789.873419: $GPZDA,191630.00,01,12,2017,00,00*6C
2017-12-01 14:16:29 1512155789.873589: $GPGGA,191630,3946.9511,N,08404.9814,W,2,12,0.80,331.74,M,-33.324,M,,*76
2017-12-01 14:16:29 1512155789.873657: $GPRMC,191630,A,3946.9511,N,08404.9814,W,0.0000,0.000,011217,,*3F
2017-12-01 14:16:29 1512155789.873718: $GPGSA,A,3,8,10,14,18,21,24,27,32,12,15,20,138,2.0,0.8,1.5*37
2017-12-01 14:16:30 1512155790.414277: $GPZDA,191631.00,01,12,2017,00,00*6D
2017-12-01 14:16:30 1512155790.414450: $GPGGA,191631,3946.9511,N,08404.9814,W,2,12,0.80,331.74,M,-33.324,M,,*77
2017-12-01 14:16:30 1512155790.414517: $GPRMC,191631,A,3946.9511,N,08404.9814,W,0.0000,0.000,011217,,*3E
2017-12-01 14:16:30 1512155790.414577: $GPGSA,A,3,8,10,14,18,21,24,27,32,12,15,20,138,2.0,0.8,1.5*37
2017-12-01 14:16:31 1512155791.418770: $GPZDA,191632.00,01,12,2017,00,00*6E
2017-12-01 14:16:31 1512155791.418945: $GPGGA,191632,3946.9514,N,08404.9813,W,2,12,0.80,330.97,M,-33.324,M,,*7A
2017-12-01 14:16:31 1512155791.419012: $GPRMC,191632,A,3946.9514,N,08404.9813,W,0.0000,0.000,011217,,*3F
2017-12-01 14:16:31 1512155791.419072: $GPGSA,A,3,8,10,14,18,21,24,27,32,12,15,20,138,2.0,0.8,1.5*37
2017-12-01 14:16:31 1512155791.419131: $GPGBS,191632,2.67,M,3.86,M,8.82,M*3C
