2017-12-29 14:46:48 1514576808.871427: {"class":"VERSION","release":"3.16","rev":"3.16-4","proto_major":3,"proto_minor":11}
2017-12-29 14:46:48 1514576808.871798: {"class":"DEVICES","devices":[{"class":"DEVICE","path":"/dev/ttyUSB0","driver":"SiRF","subtype":"9\u0006GSD4e_4.1.2-P1_RPATCH.05-F-GPS-4R-1510281 11/03/2015 307","activated":"2017-12-29T19:46:48.858Z","flags":1,"native":1,"bps":4800,"parity":"N","stopbits":1,"cycle":1.00}]}
2017-12-29 14:46:48 1514576808.871916: {"class":"WATCH","enable":true,"json":false,"nmea":true,"raw":0,"scaled":false,"timing":false,"split24":false,"pps":false}
2017-12-29 14:46:49 1514576809.332781: $GPZDA,194650.00,29,12,2017,00,00*65
2017-12-29 14:46:49 1514576809.332998: $GPGGA,194650,3946.9573,N,08404.9796,W,2,12,0.80,310.19,M,-33.324,M,,*7C
2017-12-29 14:46:49 1514576809.333085: $GPRMC,194650,A,3946.9573,N,08404.9796,W,0.0000,0.000,291217,,*37
2017-12-29 14:46:49 1514576809.333149: $GPGSA,A,3,1,26,10,11,12,14,18,22,25,31,32,138,1.7,0.8,1.3*3B
2017-12-29 14:46:50 1514576810.370022: $GPZDA,194651.00,29,12,2017,00,00*64
2017-12-29 14:46:50 1514576810.370202: $GPGGA,194651,3946.9573,N,08404.9796,W,2,12,0.80,310.19,M,-33.324,M,,*7D
2017-12-29 14:46:50 1514576810.370270: $GPRMC,194651,A,3946.9573,N,08404.9796,W,0.0000,0.000,291217,,*36
2017-12-29 14:46:50 1514576810.370331: $GPGSA,A,3,1,26,10,11,12,14,18,22,25,31,32,138,1.7,0.8,1.3*3B
2017-12-29 14:46:51 1514576811.706860: $GPGSV,3,1,12,01,22,295,38,26,07,181,21,10,43,150,50,11,07,279,32*79
2017-12-29 14:46:51 1514576811.707025: $GPGSV,3,2,12,12,20,046,46,14,68,336,43,18,13,145,40,22,23,312,37*7A
2017-12-29 14:46:51 1514576811.707092: $GPGSV,3,3,12,25,41,085,51,31,62,229,46,32,66,042,50,138,38,213,43*48
2017-12-29 14:46:51 1514576811.820242: $GPZDA,194652.00,29,12,2017,00,00*67
2017-12-29 14:46:51 1514576811.820386: $GPGGA,194652,3946.9573,N,08404.9796,W,2,12,0.80,310.19,M,-33.324,M,,*7E
2017-12-29 14:46:51 1514576811.820452: $GPRMC,194652,A,3946.9573,N,08404.9796,W,0.0000,0.000,291217,,*35
2017-12-29 14:46:51 1514576811.820512: $GPGSA,A,3,1,26,10,11,12,14,18,22,25,31,32,138,1.7,0.8,1.3*3B
2017-12-29 14:46:52 1514576812.445900: $GPZDA,194653.00,29,12,2017,00,00*66
2017-12-29 14:46:52 1514576812.446052: $GPGGA,194653,3946.9573,N,08404.9803,W,2,12,0.80,310.11,M,-33.324,M,,*74
2017-12-29 14:46:52 1514576812.446119: $GPRMC,194653,A,3946.9573,N,08404.9803,W,0.0000,0.000,291217,,*37
2017-12-29 14:46:52 1514576812.446179: $GPGSA,A,3,1,26,10,11,12,14,18,22,25,31,32,138,1.7,0.8,1.3*3B
2017-12-29 14:46:53 1514576813.332995: $GPZDA,194654.00,29,12,2017,00,00*61
2017-12-29 14:46:53 1514576813.333158: $GPGGA,194654,3946.9573,N,08404.9803,W,2,12,0.80,310.11,M,-33.324,M,,*73
2017-12-29 14:46:53 1514576813.333225: $GPRMC,194654,A,3946.9573,N,08404.9803,W,0.0000,0.000,291217,,*30
2017-12-29 14:46:53 1514576813.333285: $GPGSA,A,3,1,26,10,11,12,14,18,22,25,31,32,138,1.7,0.8,1.3*3B
2017-12-29 14:46:54 1514576814.704746: $GPGSV,3,1,12,01,22,295,38,26,07,181,21,10,43,150,50,11,07,279,32*79
2017-12-29 14:46:54 1514576814.704916: $GPGSV,3,2,12,12,20,046,46,14,68,336,43,18,13,145,40,22,23,312,37*7A
2017-12-29 14:46:54 1514576814.704983: $GPGSV,3,3,12,25,41,085,51,31,62,229,46,32,66,042,50,138,38,213,42*49
2017-12-29 14:46:54 1514576814.818315: $GPZDA,194655.00,29,12,2017,00,00*60
2017-12-29 14:46:54 1514576814.818446: $GPGGA,194655,3946.9573,N,08404.9803,W,2,12,0.80,310.11,M,-33.324,M,,*72
2017-12-29 14:46:54 1514576814.818512: $GPRMC,194655,A,3946.9573,N,08404.9803,W,0.0000,0.000,291217,,*31
2017-12-29 14:46:54 1514576814.818573: $GPGSA,A,3,1,26,10,11,12,14,18,22,25,31,32,138,1.7,0.8,1.3*3B
2017-12-29 14:46:55 1514576815.372984: $GPZDA,194656.00,29,12,2017,00,00*63
2017-12-29 14:46:55 1514576815.373153: $GPGGA,194656,3946.9573,N,08404.9803,W,2,12,0.80,310.11,M,-33.324,M,,*71
2017-12-29 14:46:55 1514576815.373219: $GPRMC,194656,A,3946.9573,N,08404.9803,W,0.0000,0.000,291217,,*32
2017-12-29 14:46:55 1514576815.373280: $GPGSA,A,3,1,26,10,11,12,14,18,22,25,31,32,138,1.7,0.8,1.3*3B
2017-12-29 14:46:56 1514576816.371374: $GPZDA,194657.00,29,12,2017,00,00*62
2017-12-29 14:46:56 1514576816.371583: $GPGGA,194657,3946.9573,N,08404.9803,W,2,12,0.80,310.11,M,-33.324,M,,*70
2017-12-29 14:46:56 1514576816.371653: $GPRMC,194657,A,3946.9573,N,08404.9803,W,0.0000,0.000,291217,,*33
2017-12-29 14:46:56 1514576816.371714: $GPGSA,A,3,1,26,10,11,12,14,18,22,25,31,32,138,1.7,0.8,1.3*3B
2017-12-29 14:46:57 1514576817.706302: $GPGSV,3,1,12,01,22,295,38,26,07,181,21,10,43,150,50,11,07,279,32*79
2017-12-29 14:46:57 1514576817.706461: $GPGSV,3,2,12,12,20,046,46,14,68,336,43,18,13,145,41,22,23,312,36*7A
2017-12-29 14:46:57 1514576817.706528: $GPGSV,3,3,12,25,41,085,51,31,62,229,46,32,66,042,50,138,38,213,44*4F
2017-12-29 14:46:57 1514576817.819940: $GPZDA,194658.00,29,12,2017,00,00*6D
2017-12-29 14:46:57 1514576817.820098: $GPGGA,194658,3946.9573,N,08404.9803,W,2,12,0.80,310.11,M,-33.324,M,,*7F
2017-12-29 14:46:57 1514576817.820163: $GPRMC,194658,A,3946.9573,N,08404.9803,W,0.0000,0.000,291217,,*3C
2017-12-29 14:46:57 1514576817.820224: $GPGSA,A,3,1,26,10,11,12,14,18,22,25,31,32,138,1.7,0.8,1.3*3B
2017-12-29 14:46:58 1514576818.330552: $GPZDA,194659.00,29,12,2017,00,00*6C
2017-12-29 14:46:58 1514576818.330728: $GPGGA,194659,3946.9573,N,08404.9803,W,2,12,0.80,310.11,M,-33.324,M,,*7E
2017-12-29 14:46:58 1514576818.330794: $GPRMC,194659,A,3946.9573,N,08404.9803,W,0.0000,0.000,291217,,*3D
2017-12-29 14:46:58 1514576818.330855: $GPGSA,A,3,1,26,10,11,12,14,18,22,25,31,32,138,1.7,0.8,1.3*3B
