2017-11-16 15:53:59 1510865639.009522: {"class":"VERSION","release":"3.17","rev":"3.17","proto_major":3,"proto_minor":12}
2017-11-16 15:53:59 1510865639.009819: {"class":"DEVICES","devices":[{"class":"DEVICE","path":"/dev/ttyUSB0","driver":"SiRF","subtype":"9\u0006GSD4e_4.1.2-P1_RPATCH.05-F-GPS-4R-1510281 11/03/2015 307","activated":"2017-11-16T20:53:58.957Z","flags":1,"native":1,"bps":4800,"parity":"N","stopbits":1,"cycle":1.00}]}
2017-11-16 15:53:59 1510865639.009878: {"class":"WATCH","enable":true,"json":false,"nmea":true,"raw":0,"scaled":false,"timing":false,"split24":false,"pps":false}
2017-11-16 15:53:59 1510865639.365619: $GPZDA,205358.00,16,11,2017,00,00*6C
2017-11-16 15:53:59 1510865639.365735: $GPGGA,205358,3946.9582,N,08404.9844,W,2,12,1.20,308.11,M,-33.324,M,,*7E
2017-11-16 15:53:59 1510865639.365767: $GPRMC,205358,A,3946.9582,N,08404.9844,W,0.0000,0.000,161117,,*30
2017-11-16 15:53:59 1510865639.365795: $GPGSA,A,3,11,10,14,31,18,25,21,24,15,32,12,138,1.6,1.2,1.3*05
2017-11-16 15:54:00 1510865640.367159: $GPZDA,205359.00,16,11,2017,00,00*6D
2017-11-16 15:54:00 1510865640.367325: $GPGGA,205359,3946.9582,N,08404.9844,W,2,12,1.20,308.11,M,-33.324,M,,*7F
2017-11-16 15:54:00 1510865640.367386: $GPRMC,205359,A,3946.9582,N,08404.9844,W,0.0000,0.000,161117,,*31
2017-11-16 15:54:00 1510865640.367443: $GPGSA,A,3,11,10,14,31,18,25,21,24,15,32,12,138,1.6,1.2,1.3*05
2017-11-16 15:54:01 1510865641.721178: $GPGSV,3,1,12,11,04,321,34,10,80,001,50,14,38,264,45,31,10,205,27*78
2017-11-16 15:54:01 1510865641.721352: $GPGSV,3,2,12,18,60,115,48,25,12,133,31,21,16,177,36,24,35,049,50*72
2017-11-16 15:54:01 1510865641.721414: $GPGSV,3,3,12,15,03,073,30,32,55,280,48,12,17,096,46,138,38,213,45*45
2017-11-16 15:54:01 1510865641.834485: $GPZDA,205400.00,16,11,2017,00,00*66
2017-11-16 15:54:01 1510865641.834663: $GPGGA,205400,3946.9582,N,08404.9844,W,2,12,1.20,308.11,M,-33.324,M,,*74
2017-11-16 15:54:01 1510865641.834729: $GPRMC,205400,A,3946.9582,N,08404.9844,W,0.0000,0.000,161117,,*3A
2017-11-16 15:54:01 1510865641.834786: $GPGSA,A,3,11,10,14,31,18,25,21,24,15,32,12,138,1.6,1.2,1.3*05
2017-11-16 15:54:02 1510865642.366614: $GPZDA,205401.00,16,11,2017,00,00*67
2017-11-16 15:54:02 1510865642.366784: $GPGGA,205401,3946.9582,N,08404.9844,W,2,12,1.20,308.11,M,-33.324,M,,*75
2017-11-16 15:54:02 1510865642.366846: $GPRMC,205401,A,3946.9582,N,08404.9844,W,0.0000,0.000,161117,,*3B
2017-11-16 15:54:02 1510865642.366902: $GPGSA,A,3,11,10,14,31,18,25,21,24,15,32,12,138,1.6,1.2,1.3*05
2017-11-16 15:54:03 1510865643.382465: $GPZDA,205402.00,16,11,2017,00,00*64
2017-11-16 15:54:03 1510865643.382663: $GPGGA,205402,3946.9582,N,08404.9844,W,2,12,1.20,308.11,M,-33.324,M,,*76
2017-11-16 15:54:03 1510865643.382752: $GPRMC,205402,A,3946.9582,N,08404.9844,W,0.0000,0.000,161117,,*38
2017-11-16 15:54:03 1510865643.382812: $GPGSA,A,3,11,10,14,31,18,25,21,24,15,32,12,138,1.6,1.2,1.3*05
2017-11-16 15:54:04 1510865644.695762: $GPGSV,3,1,12,11,04,321,34,10,80,001,50,14,38,264,45,31,10,205,27*78
2017-11-16 15:54:04 1510865644.695933: $GPGSV,3,2,12,18,60,115,48,25,12,133,32,21,16,177,36,24,35,049,50*71
2017-11-16 15:54:04 1510865644.695995: $GPGSV,3,3,12,15,03,073,31,32,55,280,48,12,17,096,46,138,38,213,45*44
2017-11-16 15:54:04 1510865644.809088: $GPZDA,205403.00,16,11,2017,00,00*65
2017-11-16 15:54:04 1510865644.809249: $GPGGA,205403,3946.9582,N,08404.9844,W,2,12,1.20,308.11,M,-33.324,M,,*77
2017-11-16 15:54:04 1510865644.809312: $GPRMC,205403,A,3946.9582,N,08404.9844,W,0.0000,0.000,161117,,*39
2017-11-16 15:54:04 1510865644.809368: $GPGSA,A,3,11,10,14,31,18,25,21,24,15,32,12,138,1.6,1.2,1.3*05
2017-11-16 15:54:05 1510865645.367849: $GPZDA,205404.00,16,11,2017,00,00*62
2017-11-16 15:54:05 1510865645.368020: $GPGGA,205404,3946.9582,N,08404.9844,W,2,12,1.20,308.11,M,-33.324,M,,*70
2017-11-16 15:54:05 1510865645.368081: $GPRMC,205404,A,3946.9582,N,08404.9844,W,0.0000,0.000,161117,,*3E
2017-11-16 15:54:05 1510865645.368137: $GPGSA,A,3,11,10,14,31,18,25,21,24,15,32,12,138,1.6,1.2,1.3*05
2017-11-16 15:54:06 1510865646.366638: $GPZDA,205405.00,16,11,2017,00,00*63
2017-11-16 15:54:06 1510865646.366853: $GPGGA,205405,3946.9582,N,08404.9844,W,2,12,1.20,308.11,M,-33.324,M,,*71
2017-11-16 15:54:06 1510865646.366916: $GPRMC,205405,A,3946.9582,N,08404.9844,W,0.0000,0.000,161117,,*3F
2017-11-16 15:54:06 1510865646.366973: $GPGSA,A,3,11,10,14,31,18,25,21,24,15,32,12,138,1.6,1.2,1.3*05
2017-11-16 15:54:07 1510865647.718686: $GPGSV,3,1,12,11,04,321,34,10,80,001,50,14,38,264,45,31,10,205,28*77
2017-11-16 15:54:07 1510865647.718860: $GPGSV,3,2,12,18,60,115,48,25,12,133,32,21,16,177,36,24,35,049,50*71
2017-11-16 15:54:07 1510865647.718921: $GPGSV,3,3,12,15,03,073,31,32,55,280,47,12,17,096,46,138,38,213,45*4B
2017-11-16 15:54:07 1510865647.832282: $GPZDA,205406.00,16,11,2017,00,00*60
2017-11-16 15:54:07 1510865647.832466: $GPGGA,205406,3946.9582,N,08404.9844,W,2,12,1.20,308.11,M,-33.324,M,,*72
2017-11-16 15:54:07 1510865647.832550: $GPRMC,205406,A,3946.9582,N,08404.9844,W,0.0000,0.000,161117,,*3C
2017-11-16 15:54:07 1510865647.832625: $GPGSA,A,3,11,10,14,31,18,25,21,24,15,32,12,138,1.6,1.2,1.3*05
2017-11-16 15:54:08 1510865648.367872: $GPZDA,205407.00,16,11,2017,00,00*61
2017-11-16 15:54:08 1510865648.368038: $GPGGA,205407,3946.9582,N,08404.9844,W,2,12,1.20,308.11,M,-33.324,M,,*73
2017-11-16 15:54:08 1510865648.368100: $GPRMC,205407,A,3946.9582,N,08404.9844,W,0.0000,0.000,161117,,*3D
2017-11-16 15:54:08 1510865648.368156: $GPGSA,A,3,11,10,14,31,18,25,21,24,15,32,12,138,1.6,1.2,1.3*05
