2017-11-16 15:16:48 1510863408.502346: {"class":"VERSION","release":"3.17","rev":"3.17","proto_major":3,"proto_minor":12}
2017-11-16 15:16:48 1510863408.502618: {"class":"DEVICES","devices":[{"class":"DEVICE","path":"/dev/ttyUSB0","driver":"SiRF","subtype":"9\u0006GSD4e_4.1.2-P1_RPATCH.05-F-GPS-4R-1510281 11/03/2015 307","activated":"2017-11-16T20:16:48.495Z","flags":1,"native":1,"bps":4800,"parity":"N","stopbits":1,"cycle":1.00}]}
2017-11-16 15:16:48 1510863408.502677: {"class":"WATCH","enable":true,"json":false,"nmea":true,"raw":0,"scaled":false,"timing":false,"split24":false,"pps":false}
2017-11-16 15:16:49 1510863409.717027: $GPGSV,3,1,12,08,07,297,30,10,66,325,51,14,26,250,45,15,14,064,40*79
2017-11-16 15:16:49 1510863409.717193: $GPGSV,3,2,12,18,73,084,46,20,11,115,32,21,33,180,45,24,47,063,49*78
2017-11-16 15:16:49 1510863409.717252: $GPGSV,3,3,12,27,08,262,40,32,43,261,48,12,07,109,31,138,38,213,44*45
2017-11-16 15:16:49 1510863409.830266: $GPZDA,201648.00,16,11,2017,00,00*6C
2017-11-16 15:16:49 1510863409.830489: $GPGGA,201648,3946.9576,N,08404.9855,W,2,12,0.80,303.10,M,-33.324,M,,*74
2017-11-16 15:16:49 1510863409.830550: $GPRMC,201648,A,3946.9576,N,08404.9855,W,0.0000,0.000,161117,,*3B
2017-11-16 15:16:49 1510863409.830606: $GPGSA,A,3,8,10,14,15,18,20,21,24,27,32,12,138,1.6,0.8,1.3*34
2017-11-16 15:16:50 1510863410.373232: $GPZDA,201649.00,16,11,2017,00,00*6D
2017-11-16 15:16:50 1510863410.373351: $GPGGA,201649,3946.9576,N,08404.9855,W,2,12,0.80,303.10,M,-33.324,M,,*75
2017-11-16 15:16:50 1510863410.373383: $GPRMC,201649,A,3946.9576,N,08404.9855,W,0.0000,0.000,161117,,*3A
2017-11-16 15:16:50 1510863410.373412: $GPGSA,A,3,8,10,14,15,18,20,21,24,27,32,12,138,1.6,0.8,1.3*34
2017-11-16 15:16:51 1510863411.377474: $GPZDA,201650.00,16,11,2017,00,00*65
2017-11-16 15:16:51 1510863411.377585: $GPGGA,201650,3946.9573,N,08404.9856,W,2,12,0.80,303.86,M,-33.324,M,,*74
2017-11-16 15:16:51 1510863411.377617: $GPRMC,201650,A,3946.9573,N,08404.9856,W,0.0000,0.000,161117,,*34
2017-11-16 15:16:51 1510863411.377645: $GPGSA,A,3,8,10,14,15,18,20,21,24,27,32,12,138,1.6,0.8,1.3*34
2017-11-16 15:16:52 1510863412.709759: $GPGSV,3,1,12,08,07,297,30,10,66,325,51,14,26,250,45,15,14,064,40*79
2017-11-16 15:16:52 1510863412.709864: $GPGSV,3,2,12,18,73,084,46,20,11,115,32,21,33,180,46,24,47,063,48*7A
2017-11-16 15:16:52 1510863412.709895: $GPGSV,3,3,12,27,08,262,40,32,43,261,48,12,07,109,32,138,38,213,44*46
2017-11-16 15:16:52 1510863412.822625: $GPZDA,201651.00,16,11,2017,00,00*64
2017-11-16 15:16:52 1510863412.822726: $GPGGA,201651,3946.9577,N,08404.9856,W,2,12,0.80,304.50,M,-33.324,M,,*7D
2017-11-16 15:16:52 1510863412.822758: $GPRMC,201651,A,3946.9577,N,08404.9856,W,0.0000,0.000,161117,,*31
2017-11-16 15:16:52 1510863412.822786: $GPGSA,A,3,8,10,14,15,18,20,21,24,27,32,12,138,1.6,0.8,1.3*34
2017-11-16 15:16:53 1510863413.378987: $GPZDA,201652.00,16,11,2017,00,00*67
2017-11-16 15:16:53 1510863413.379119: $GPGGA,201652,3946.9577,N,08404.9856,W,2,12,0.80,304.50,M,-33.324,M,,*7E
2017-11-16 15:16:53 1510863413.379152: $GPRMC,201652,A,3946.9577,N,08404.9856,W,0.0000,0.000,161117,,*32
2017-11-16 15:16:53 1510863413.379180: $GPGSA,A,3,8,10,14,15,18,20,21,24,27,32,12,138,1.6,0.8,1.3*34
2017-11-16 15:16:54 1510863414.378657: $GPZDA,201653.00,16,11,2017,00,00*66
2017-11-16 15:16:54 1510863414.378817: $GPGGA,201653,3946.9577,N,08404.9856,W,2,12,0.80,304.50,M,-33.324,M,,*7F
2017-11-16 15:16:54 1510863414.378879: $GPRMC,201653,A,3946.9577,N,08404.9856,W,0.0000,0.000,161117,,*33
2017-11-16 15:16:54 1510863414.378934: $GPGSA,A,3,8,10,14,15,18,20,21,24,27,32,12,138,1.6,0.8,1.3*34
2017-11-16 15:16:55 1510863415.715706: $GPGSV,3,1,12,08,07,297,30,10,66,325,51,14,26,250,45,15,14,064,40*79
2017-11-16 15:16:55 1510863415.715874: $GPGSV,3,2,12,18,73,084,46,20,11,115,32,21,33,180,45,24,47,063,48*79
2017-11-16 15:16:55 1510863415.715934: $GPGSV,3,3,12,27,08,262,40,32,43,261,48,12,07,109,32,138,38,213,44*46
2017-11-16 15:16:55 1510863415.829006: $GPZDA,201654.00,16,11,2017,00,00*61
2017-11-16 15:16:55 1510863415.829173: $GPGGA,201654,3946.9577,N,08404.9856,W,2,12,0.80,304.50,M,-33.324,M,,*78
2017-11-16 15:16:55 1510863415.829286: $GPRMC,201654,A,3946.9577,N,08404.9856,W,0.0000,0.000,161117,,*34
2017-11-16 15:16:55 1510863415.829343: $GPGSA,A,3,8,10,14,15,18,20,21,24,27,32,12,138,1.6,0.8,1.3*34
2017-11-16 15:16:56 1510863416.454496: $GPZDA,201655.00,16,11,2017,00,00*60
2017-11-16 15:16:56 1510863416.454673: $GPGGA,201655,3946.9577,N,08404.9856,W,2,12,0.80,304.50,M,-33.324,M,,*79
2017-11-16 15:16:56 1510863416.454736: $GPRMC,201655,A,3946.9577,N,08404.9856,W,0.0000,0.000,161117,,*35
2017-11-16 15:16:56 1510863416.454792: $GPGSA,A,3,8,10,14,15,18,20,21,24,27,32,12,138,1.6,0.8,1.3*34
2017-11-16 15:16:57 1510863417.397182: $GPZDA,201656.00,16,11,2017,00,00*63
2017-11-16 15:16:57 1510863417.397354: $GPGGA,201656,3946.9577,N,08404.9856,W,2,12,0.80,304.50,M,-33.324,M,,*7A
2017-11-16 15:16:57 1510863417.397426: $GPRMC,201656,A,3946.9577,N,08404.9856,W,0.0000,0.000,161117,,*36
2017-11-16 15:16:57 1510863417.397484: $GPGSA,A,3,8,10,14,15,18,20,21,24,27,32,12,138,1.6,0.8,1.3*34
