2018-01-12 20:02:47 1515805367.050432: {"class":"VERSION","release":"3.16","rev":"3.16-4","proto_major":3,"proto_minor":11}
2018-01-12 20:02:47 1515805367.050783: {"class":"DEVICES","devices":[{"class":"DEVICE","path":"/dev/ttyUSB0","driver":"SiRF","subtype":"9\u0006GSD4e_4.1.2-P1_RPATCH.05-F-GPS-4R-1510281 11/03/2015 307","activated":"2018-01-13T01:02:46.317Z","flags":1,"native":1,"bps":4800,"parity":"N","stopbits":1,"cycle":1.00}]}
2018-01-12 20:02:47 1515805367.050899: {"class":"WATCH","enable":true,"json":false,"nmea":true,"raw":0,"scaled":false,"timing":false,"split24":false,"pps":false}
2018-01-12 20:02:47 1515805367.177745: $GPZDA,010248.00,13,01,2018,00,00*61
2018-01-12 20:02:47 1515805367.177914: $GPGGA,010248,3946.9620,N,08404.9564,W,1,06,1.40,331.04,M,-33.324,M,,*72
2018-01-12 20:02:47 1515805367.177980: $GPRMC,010248,A,3946.9620,N,08404.9564,W,2.8544,320.691,130118,,*39
2018-01-12 20:02:47 1515805367.178041: $GPGSA,A,3,27,8,7,9,16,23,,,,,,,4.8,1.4,4.6*0C
2018-01-12 20:02:48 1515805368.513664: $GPGSV,3,1,10,27,49,054,22,08,72,138,26,07,54,313,18,09,49,231,19*72
2018-01-12 20:02:48 1515805368.513843: $GPGSV,3,2,10,16,24,058,16,30,27,306,00,23,31,190,11,11,18,168,00*7C
2018-01-12 20:02:48 1515805368.513909: $GPGSV,3,3,10,28,13,256,00,138,38,213,00*40
2018-01-12 20:02:48 1515805368.627684: $GPZDA,010249.00,13,01,2018,00,00*60
2018-01-12 20:02:48 1515805368.627857: $GPGGA,010249,3946.9624,N,08404.9564,W,1,06,1.40,331.68,M,-33.324,M,,*7D
2018-01-12 20:02:48 1515805368.627923: $GPRMC,010249,A,3946.9624,N,08404.9564,W,2.9309,314.930,130118,,*31
2018-01-12 20:02:48 1515805368.627984: $GPGSA,A,3,27,8,7,9,16,23,,,,,,,4.8,1.4,4.6*0C
2018-01-12 20:02:49 1515805369.177001: $GPZDA,010250.00,13,01,2018,00,00*68
2018-01-12 20:02:49 1515805369.177164: $GPGGA,010250,3946.9631,N,08404.9570,W,1,06,1.80,330.07,M,-33.324,M,,*70
2018-01-12 20:02:49 1515805369.177230: $GPRMC,010250,A,3946.9631,N,08404.9570,W,3.3839,328.697,130118,,*36
2018-01-12 20:02:49 1515805369.177292: $GPGSA,A,3,27,8,7,9,16,23,,,,,,,4.8,1.8,4.6*00
2018-01-12 20:02:50 1515805370.175841: $GPZDA,010251.00,13,01,2018,00,00*69
2018-01-12 20:02:50 1515805370.176013: $GPGGA,010251,3946.9639,N,08404.9576,W,1,06,1.80,329.86,M,-33.324,M,,*7E
2018-01-12 20:02:50 1515805370.176079: $GPRMC,010251,A,3946.9639,N,08404.9576,W,3.3839,328.697,130118,,*39
2018-01-12 20:02:50 1515805370.176140: $GPGSA,A,3,27,8,7,9,16,23,,,,,,,4.8,1.8,4.6*00
2018-01-12 20:02:51 1515805371.512998: $GPGSV,3,1,10,27,49,054,22,08,72,138,26,07,54,313,18,09,49,231,20*78
2018-01-12 20:02:51 1515805371.513238: $GPGSV,3,2,10,16,24,058,16,30,27,306,00,23,31,190,04,11,18,168,00*78
2018-01-12 20:02:51 1515805371.513314: $GPGSV,3,3,10,28,13,256,00,138,38,213,00*40
2018-01-12 20:02:51 1515805371.626703: $GPZDA,010252.00,13,01,2018,00,00*6A
2018-01-12 20:02:51 1515805371.626876: $GPGGA,010252,3946.9639,N,08404.9576,W,1,05,1.80,329.86,M,-33.324,M,,*7E
2018-01-12 20:02:51 1515805371.626941: $GPRMC,010252,A,3946.9639,N,08404.9576,W,2.6947,324.454,130118,,*37
2018-01-12 20:02:51 1515805371.627002: $GPGSA,A,3,27,8,7,9,16,,,,,,,,4.8,1.8,4.6*01
2018-01-12 20:02:52 1515805372.177830: $GPZDA,010253.00,13,01,2018,00,00*6B
2018-01-12 20:02:52 1515805372.178006: $GPGGA,010253,3946.9639,N,08404.9582,W,1,05,1.80,328.38,M,-33.324,M,,*70
2018-01-12 20:02:52 1515805372.178075: $GPRMC,010253,A,3946.9639,N,08404.9582,W,2.5763,315.422,130118,,*35
2018-01-12 20:02:52 1515805372.178138: $GPGSA,A,3,27,8,7,9,16,,,,,,,,4.8,1.8,4.6*01
2018-01-12 20:02:53 1515805373.178099: $GPZDA,010254.00,13,01,2018,00,00*6C
2018-01-12 20:02:53 1515805373.178282: $GPGGA,010254,3946.9639,N,08404.9582,W,1,05,1.80,328.38,M,-33.324,M,,*77
2018-01-12 20:02:53 1515805373.178349: $GPRMC,010254,A,3946.9639,N,08404.9582,W,2.4032,299.090,130118,,*38
2018-01-12 20:02:53 1515805373.178410: $GPGSA,A,3,27,8,7,9,16,,,,,,,,4.8,1.8,4.6*01
2018-01-12 20:02:53 1515805373.178466: $GPGBS,010254,14.24,M,16.36,M,105.11,M*39
2018-01-12 20:02:54 1515805374.513537: $GPGSV,3,1,10,27,49,054,22,08,72,138,26,07,54,313,18,09,49,231,19*72
2018-01-12 20:02:54 1515805374.513745: $GPGSV,3,2,10,16,24,058,16,23,31,190,06,30,27,306,00,11,18,168,00*7A
2018-01-12 20:02:54 1515805374.513866: $GPGSV,3,3,10,28,13,256,00,138,38,213,00*40
2018-01-12 20:02:54 1515805374.627189: $GPZDA,010255.00,13,01,2018,00,00*6D
2018-01-12 20:02:54 1515805374.627362: $GPGGA,010255,3946.9638,N,08404.9589,W,1,05,1.80,326.90,M,-33.324,M,,*70
2018-01-12 20:02:54 1515805374.627428: $GPRMC,010255,A,3946.9638,N,08404.9589,W,2.6758,300.028,130118,,*38
2018-01-12 20:02:54 1515805374.627489: $GPGSA,A,3,27,8,7,9,16,,,,,,,,4.8,1.8,4.6*01
2018-01-12 20:02:55 1515805375.178251: $GPZDA,010256.00,13,01,2018,00,00*6E
2018-01-12 20:02:55 1515805375.178431: $GPGGA,010256,3946.9642,N,08404.9588,W,1,05,1.80,326.13,M,-33.324,M,,*74
2018-01-12 20:02:55 1515805375.178498: $GPRMC,010256,A,3946.9642,N,08404.9588,W,2.4468,312.352,130118,,*38
2018-01-12 20:02:55 1515805375.178584: $GPGSA,A,3,27,8,7,9,16,,,,,,,,4.8,1.8,4.6*01
2018-01-12 20:02:56 1515805376.178948: $GPZDA,010257.00,13,01,2018,00,00*6F
2018-01-12 20:02:56 1515805376.179267: $GPGGA,010257,3946.9650,N,08404.9594,W,1,05,1.80,325.93,M,-33.324,M,,*70
2018-01-12 20:02:56 1515805376.179336: $GPRMC,010257,A,3946.9650,N,08404.9594,W,3.0465,330.689,130118,,*3C
2018-01-12 20:02:56 1515805376.179398: $GPGSA,A,3,27,8,7,9,16,,,,,,,,4.8,1.8,4.6*01
2018-01-12 20:02:57 1515805377.513481: $GPGSV,3,1,10,27,49,054,22,08,72,138,26,07,54,313,18,09,49,231,19*72
2018-01-12 20:02:57 1515805377.513718: $GPGSV,3,2,10,16,24,058,15,23,31,190,06,30,27,306,00,11,18,168,00*79
2018-01-12 20:02:57 1515805377.513787: $GPGSV,3,3,10,28,13,256,00,138,38,213,00*40
2018-01-12 20:02:57 1515805377.626734: $GPZDA,010258.00,13,01,2018,00,00*60
2018-01-12 20:02:57 1515805377.626909: $GPGGA,010258,3946.9657,N,08404.9600,W,1,05,1.80,325.73,M,-33.324,M,,*78
2018-01-12 20:02:57 1515805377.626977: $GPRMC,010258,A,3946.9657,N,08404.9600,W,3.0465,330.689,130118,,*3A
2018-01-12 20:02:57 1515805377.627039: $GPGSA,A,3,27,8,7,9,16,,,,,,,,4.8,1.8,4.6*01
2018-01-12 20:02:58 1515805378.176874: $GPZDA,010259.00,13,01,2018,00,00*61
2018-01-12 20:02:58 1515805378.177054: $GPGGA,010259,3946.9670,N,08404.9607,W,1,05,1.80,326.16,M,-33.324,M,,*7B
2018-01-12 20:02:58 1515805378.177122: $GPRMC,010259,A,3946.9670,N,08404.9607,W,3.3373,333.935,130118,,*31
2018-01-12 20:02:58 1515805378.177183: $GPGSA,A,3,27,8,7,9,16,,,,,,,,4.8,1.8,4.6*01
2018-01-12 20:02:59 1515805379.176556: $GPZDA,010300.00,13,01,2018,00,00*6C
2018-01-12 20:02:59 1515805379.176750: $GPGGA,010300,3946.9674,N,08404.9607,W,1,05,1.80,326.80,M,-33.324,M,,*7D
2018-01-12 20:02:59 1515805379.176819: $GPRMC,010300,A,3946.9674,N,08404.9607,W,2.7936,332.850,130118,,*35
2018-01-12 20:02:59 1515805379.176881: $GPGSA,A,3,27,8,7,9,16,,,,,,,,4.8,1.8,4.6*01
2018-01-12 20:03:00 1515805380.514099: $GPGSV,3,1,10,27,49,054,21,08,72,138,26,07,54,313,18,09,49,231,18*70
2018-01-12 20:03:00 1515805380.514280: $GPGSV,3,2,10,16,24,058,15,23,31,190,08,30,27,306,00,11,18,168,00*77
2018-01-12 20:03:00 1515805380.514346: $GPGSV,3,3,10,28,13,256,00,138,38,213,00*40
2018-01-12 20:03:00 1515805380.627480: $GPZDA,010301.00,13,01,2018,00,00*6D
2018-01-12 20:03:00 1515805380.627694: $GPGGA,010301,3946.9678,N,08404.9614,W,1,06,1.80,327.36,M,-33.324,M,,*7D
2018-01-12 20:03:00 1515805380.627763: $GPRMC,010301,A,3946.9678,N,08404.9614,W,3.2258,326.974,130118,,*3F
2018-01-12 20:03:00 1515805380.627825: $GPGSA,A,3,27,8,7,9,16,23,,,,,,,4.8,1.8,4.6*00
2018-01-12 20:03:01 1515805381.178859: $GPZDA,010302.00,13,01,2018,00,00*6E
2018-01-12 20:03:01 1515805381.179063: $GPGGA,010302,3946.9686,N,08404.9620,W,1,06,1.80,327.16,M,-33.324,M,,*7A
2018-01-12 20:03:01 1515805381.179130: $GPRMC,010302,A,3946.9686,N,08404.9620,W,3.4793,313.871,130118,,*3C
2018-01-12 20:03:01 1515805381.179193: $GPGSA,A,3,27,8,7,9,16,23,,,,,,,4.8,1.8,4.6*00
2018-01-12 20:03:02 1515805382.178984: $GPZDA,010303.00,13,01,2018,00,00*6F
2018-01-12 20:03:02 1515805382.179135: $GPGGA,010303,3946.9686,N,08404.9626,W,1,06,1.40,325.67,M,-33.324,M,,*75
2018-01-12 20:03:02 1515805382.179202: $GPRMC,010303,A,3946.9686,N,08404.9626,W,3.1566,306.626,130118,,*3E
2018-01-12 20:03:02 1515805382.179302: $GPGSA,A,3,27,8,7,9,16,23,,,,,,,4.8,1.4,4.6*0C
2018-01-12 20:03:03 1515805383.513948: $GPGSV,3,1,10,27,49,054,21,08,72,138,26,07,54,313,18,09,49,231,18*70
2018-01-12 20:03:03 1515805383.514109: $GPGSV,3,2,10,16,24,058,14,23,31,190,07,28,13,256,16,30,27,306,00*71
2018-01-12 20:03:03 1515805383.514176: $GPGSV,3,3,10,11,18,168,00,138,38,213,00*4F
2018-01-12 20:03:03 1515805383.627407: $GPZDA,010304.00,13,01,2018,00,00*68
2018-01-12 20:03:03 1515805383.627596: $GPGGA,010304,3946.9686,N,08404.9633,W,1,06,1.80,325.60,M,-33.324,M,,*7D
2018-01-12 20:03:03 1515805383.627680: $GPRMC,010304,A,3946.9686,N,08404.9633,W,2.7740,303.369,130118,,*37
2018-01-12 20:03:03 1515805383.627743: $GPGSA,A,3,27,8,7,9,16,23,,,,,,,4.8,1.8,4.6*00
2018-01-12 20:03:04 1515805384.178226: $GPZDA,010305.00,13,01,2018,00,00*69
2018-01-12 20:03:04 1515805384.178426: $GPGGA,010305,3946.9686,N,08404.9633,W,1,06,1.80,325.60,M,-33.324,M,,*7C
2018-01-12 20:03:04 1515805384.178519: $GPRMC,010305,A,3946.9686,N,08404.9633,W,2.4993,302.833,130118,,*30
2018-01-12 20:03:04 1515805384.178583: $GPGSA,A,3,27,8,7,9,16,23,,,,,,,4.8,1.8,4.6*00
2018-01-12 20:03:05 1515805385.178701: $GPZDA,010306.00,13,01,2018,00,00*6A
2018-01-12 20:03:05 1515805385.178873: $GPGGA,010306,3946.9687,N,08404.9634,W,1,06,1.80,327.00,M,-33.324,M,,*7D
2018-01-12 20:03:05 1515805385.178940: $GPRMC,010306,A,3946.9687,N,08404.9634,W,2.0890,309.296,130118,,*3D
2018-01-12 20:03:05 1515805385.179002: $GPGSA,A,3,27,8,7,9,16,23,,,,,,,4.8,1.8,4.6*00
2018-01-12 20:03:06 1515805386.514638: $GPGSV,3,1,10,27,49,054,21,08,72,138,26,07,54,313,19,09,49,231,18*71
2018-01-12 20:03:06 1515805386.514816: $GPGSV,3,2,10,16,24,058,12,23,31,190,07,30,27,306,00,11,18,168,00*7F
2018-01-12 20:03:06 1515805386.514881: $GPGSV,3,3,10,28,13,256,00,138,38,213,00*40
2018-01-12 20:03:06 1515805386.628090: $GPZDA,010307.00,13,01,2018,00,00*6B
2018-01-12 20:03:06 1515805386.628234: $GPGGA,010307,3946.9686,N,08404.9633,W,1,06,1.80,325.60,M,-33.324,M,,*7E
2018-01-12 20:03:06 1515805386.628301: $GPRMC,010307,A,3946.9686,N,08404.9633,W,2.1306,320.685,130118,,*32
2018-01-12 20:03:06 1515805386.628362: $GPGSA,A,3,27,8,7,9,16,23,,,,,,,4.8,1.8,4.6*00
