2017-11-16 13:49:27 1510858167.605620: {"class":"VERSION","release":"3.17","rev":"3.17","proto_major":3,"proto_minor":12}
2017-11-16 13:49:27 1510858167.606107: {"class":"DEVICES","devices":[{"class":"DEVICE","path":"/dev/ttyUSB0","driver":"SiRF","subtype":"9\u0006GSD4e_4.1.2-P1_RPATCH.05-F-GPS-4R-1510281 11/03/2015 307","activated":"2017-11-16T18:49:27.472Z","flags":1,"native":1,"bps":4800,"parity":"N","stopbits":1,"cycle":1.00}]}
2017-11-16 13:49:27 1510858167.606247: {"class":"WATCH","enable":true,"json":false,"nmea":true,"raw":0,"scaled":false,"timing":false,"split24":false,"pps":false}
2017-11-16 13:49:28 1510858168.666797: $GPGSV,3,1,11,10,33,292,41,13,17,046,44,15,48,049,51,18,63,316,48*75
2017-11-16 13:49:28 1510858168.666968: $GPGSV,3,2,11,20,41,085,48,21,74,208,46,24,44,126,44,27,19,300,35*7D
2017-11-16 13:49:28 1510858168.667028: $GPGSV,3,3,11,32,11,231,20,08,02,330,31,138,38,213,44*73
2017-11-16 13:49:28 1510858168.780074: $GPZDA,184927.00,16,11,2017,00,00*64
2017-11-16 13:49:28 1510858168.780211: $GPGGA,184927,3946.9608,N,08404.9827,W,2,11,0.80,307.13,M,-33.324,M,,*77
2017-11-16 13:49:28 1510858168.780269: $GPRMC,184927,A,3946.9608,N,08404.9827,W,0.0000,0.000,161117,,*3C
2017-11-16 13:49:28 1510858168.780385: $GPGSA,A,3,10,13,15,18,20,21,24,27,32,8,138,,1.6,0.8,1.3*30
2017-11-16 13:49:29 1510858169.331129: $GPZDA,184928.00,16,11,2017,00,00*6B
2017-11-16 13:49:29 1510858169.331297: $GPGGA,184928,3946.9608,N,08404.9827,W,2,11,0.80,307.13,M,-33.324,M,,*78
2017-11-16 13:49:29 1510858169.331358: $GPRMC,184928,A,3946.9608,N,08404.9827,W,0.0000,0.000,161117,,*33
2017-11-16 13:49:29 1510858169.331414: $GPGSA,A,3,10,13,15,18,20,21,24,27,32,8,138,,1.6,0.8,1.3*30
2017-11-16 13:49:30 1510858170.324590: $GPZDA,184929.00,16,11,2017,00,00*6A
2017-11-16 13:49:30 1510858170.324744: $GPGGA,184929,3946.9608,N,08404.9827,W,2,11,0.80,307.13,M,-33.324,M,,*79
2017-11-16 13:49:30 1510858170.324806: $GPRMC,184929,A,3946.9608,N,08404.9827,W,0.0000,0.000,161117,,*32
2017-11-16 13:49:30 1510858170.324861: $GPGSA,A,3,10,13,15,18,20,21,24,27,32,8,138,,1.6,0.8,1.3*30
2017-11-16 13:49:31 1510858171.669311: $GPGSV,3,1,11,10,33,292,41,13,17,046,44,15,48,049,51,18,63,316,48*75
2017-11-16 13:49:31 1510858171.669479: $GPGSV,3,2,11,20,41,085,48,21,74,208,46,24,44,126,44,27,19,300,35*7D
2017-11-16 13:49:31 1510858171.669539: $GPGSV,3,3,11,32,11,231,20,08,02,330,30,138,38,213,44*72
2017-11-16 13:49:31 1510858171.782642: $GPZDA,184930.00,16,11,2017,00,00*62
2017-11-16 13:49:31 1510858171.782779: $GPGGA,184930,3946.9608,N,08404.9827,W,2,11,0.80,307.13,M,-33.324,M,,*71
2017-11-16 13:49:31 1510858171.782839: $GPRMC,184930,A,3946.9608,N,08404.9827,W,0.0000,0.000,161117,,*3A
2017-11-16 13:49:31 1510858171.782894: $GPGSA,A,3,10,13,15,18,20,21,24,27,32,8,138,,1.6,0.8,1.3*30
2017-11-16 13:49:32 1510858172.408222: $GPZDA,184931.00,16,11,2017,00,00*63
2017-11-16 13:49:32 1510858172.408388: $GPGGA,184931,3946.9608,N,08404.9827,W,2,11,0.80,307.13,M,-33.324,M,,*70
2017-11-16 13:49:32 1510858172.408450: $GPRMC,184931,A,3946.9608,N,08404.9827,W,0.0000,0.000,161117,,*3B
2017-11-16 13:49:32 1510858172.408505: $GPGSA,A,3,10,13,15,18,20,21,24,27,32,8,138,,1.6,0.8,1.3*30
2017-11-16 13:49:33 1510858173.331666: $GPZDA,184932.00,16,11,2017,00,00*60
2017-11-16 13:49:33 1510858173.331852: $GPGGA,184932,3946.9608,N,08404.9827,W,2,11,0.80,307.13,M,-33.324,M,,*73
2017-11-16 13:49:33 1510858173.331915: $GPRMC,184932,A,3946.9608,N,08404.9827,W,0.0000,0.000,161117,,*38
2017-11-16 13:49:33 1510858173.331972: $GPGSA,A,3,10,13,15,18,20,21,24,27,32,8,138,,1.6,0.8,1.3*30
2017-11-16 13:49:34 1510858174.667585: $GPGSV,3,1,11,10,33,292,42,13,17,046,44,15,48,049,51,18,63,316,48*76
2017-11-16 13:49:34 1510858174.667758: $GPGSV,3,2,11,20,41,085,48,21,74,208,47,24,44,126,44,27,19,300,35*7C
2017-11-16 13:49:34 1510858174.667818: $GPGSV,3,3,11,32,11,231,22,08,02,330,26,138,38,213,42*71
2017-11-16 13:49:34 1510858174.781118: $GPZDA,184933.00,16,11,2017,00,00*61
2017-11-16 13:49:34 1510858174.781278: $GPGGA,184933,3946.9608,N,08404.9827,W,2,11,0.80,307.13,M,-33.324,M,,*72
2017-11-16 13:49:34 1510858174.781391: $GPRMC,184933,A,3946.9608,N,08404.9827,W,0.0000,0.000,161117,,*39
2017-11-16 13:49:34 1510858174.781448: $GPGSA,A,3,10,13,15,18,20,21,24,27,32,8,138,,1.6,0.8,1.3*30
2017-11-16 13:49:35 1510858175.333301: $GPZDA,184934.00,16,11,2017,00,00*66
2017-11-16 13:49:35 1510858175.333464: $GPGGA,184934,3946.9608,N,08404.9827,W,2,11,0.80,307.13,M,-33.324,M,,*75
2017-11-16 13:49:35 1510858175.333525: $GPRMC,184934,A,3946.9608,N,08404.9827,W,0.0000,0.000,161117,,*3E
2017-11-16 13:49:35 1510858175.333580: $GPGSA,A,3,10,13,15,18,20,21,24,27,32,8,138,,1.6,0.8,1.3*30
2017-11-16 13:49:36 1510858176.332863: $GPZDA,184935.00,16,11,2017,00,00*67
2017-11-16 13:49:36 1510858176.333025: $GPGGA,184935,3946.9608,N,08404.9827,W,2,11,0.80,307.13,M,-33.324,M,,*74
2017-11-16 13:49:36 1510858176.333086: $GPRMC,184935,A,3946.9608,N,08404.9827,W,0.0000,0.000,161117,,*3F
2017-11-16 13:49:36 1510858176.333142: $GPGSA,A,3,10,13,15,18,20,21,24,27,32,8,138,,1.6,0.8,1.3*30
