2017-12-01 13:47:17 1512154037.326786: {"class":"VERSION","release":"3.16","rev":"3.16-4","proto_major":3,"proto_minor":11}
2017-12-01 13:47:17 1512154037.327217: {"class":"DEVICES","devices":[{"class":"DEVICE","path":"/dev/ttyUSB0","driver":"SiRF","subtype":"9\u0006GSD4e_4.1.2-P1_RPATCH.05-F-GPS-4R-1510281 11/03/2015 307","activated":"2017-12-01T18:47:17.322Z","flags":1,"native":1,"bps":4800,"parity":"N","stopbits":1,"cycle":1.00}]}
2017-12-01 13:47:17 1512154037.327354: {"class":"WATCH","enable":true,"json":false,"nmea":true,"raw":0,"scaled":false,"timing":false,"split24":false,"pps":false}
2017-12-01 13:47:17 1512154037.772045: $GPGSV,3,1,11,08,08,309,32,10,55,313,48,14,16,241,40,15,24,058,46*70
2017-12-01 13:47:17 1512154037.772239: $GPGSV,3,2,11,18,77,034,43,20,21,108,47,21,46,181,44,24,53,082,47*7A
2017-12-01 13:47:17 1512154037.772309: $GPGSV,3,3,11,27,14,274,34,32,34,250,43,138,38,213,46*7A
2017-12-01 13:47:17 1512154037.884110: $GPZDA,184718.00,01,12,2017,00,00*63
2017-12-01 13:47:17 1512154037.884285: $GPGGA,184718,3946.9577,N,08404.9852,W,2,11,0.80,296.72,M,-33.324,M,,*72
2017-12-01 13:47:17 1512154037.884353: $GPRMC,184718,A,3946.9577,N,08404.9852,W,0.0000,0.000,011217,,*32
2017-12-01 13:47:17 1512154037.884416: $GPGSA,A,3,8,10,14,15,18,20,21,24,27,32,138,,2.0,0.8,1.5*34
2017-12-01 13:47:18 1512154038.437587: $GPZDA,184719.00,01,12,2017,00,00*62
2017-12-01 13:47:18 1512154038.437760: $GPGGA,184719,3946.9577,N,08404.9852,W,2,11,0.80,296.72,M,-33.324,M,,*73
2017-12-01 13:47:18 1512154038.437829: $GPRMC,184719,A,3946.9577,N,08404.9852,W,0.0000,0.000,011217,,*33
2017-12-01 13:47:18 1512154038.437892: $GPGSA,A,3,8,10,14,15,18,20,21,24,27,32,138,,2.0,0.8,1.5*34
2017-12-01 13:47:19 1512154039.435515: $GPZDA,184720.00,01,12,2017,00,00*68
2017-12-01 13:47:19 1512154039.435687: $GPGGA,184720,3946.9577,N,08404.9852,W,2,11,0.80,296.72,M,-33.324,M,,*79
2017-12-01 13:47:19 1512154039.435756: $GPRMC,184720,A,3946.9577,N,08404.9852,W,0.0000,0.000,011217,,*39
2017-12-01 13:47:19 1512154039.435825: $GPGSA,A,3,8,10,14,15,18,20,21,24,27,32,138,,2.0,0.8,1.5*34
2017-12-01 13:47:20 1512154040.770379: $GPGSV,3,1,11,08,08,309,32,10,55,313,48,14,16,241,40,15,24,058,46*70
2017-12-01 13:47:20 1512154040.770559: $GPGSV,3,2,11,18,77,034,43,20,21,108,47,21,46,181,44,24,53,082,47*7A
2017-12-01 13:47:20 1512154040.770629: $GPGSV,3,3,11,27,14,274,34,32,34,250,43,138,38,213,46*7A
2017-12-01 13:47:20 1512154040.884087: $GPZDA,184721.00,01,12,2017,00,00*69
2017-12-01 13:47:20 1512154040.884229: $GPGGA,184721,3946.9577,N,08404.9852,W,2,11,0.80,296.72,M,-33.324,M,,*78
2017-12-01 13:47:20 1512154040.884295: $GPRMC,184721,A,3946.9577,N,08404.9852,W,0.0000,0.000,011217,,*38
2017-12-01 13:47:20 1512154040.884356: $GPGSA,A,3,8,10,14,15,18,20,21,24,27,32,138,,2.0,0.8,1.5*34
2017-12-01 13:47:21 1512154041.509223: $GPZDA,184722.00,01,12,2017,00,00*6A
2017-12-01 13:47:21 1512154041.509396: $GPGGA,184722,3946.9577,N,08404.9852,W,2,11,0.80,296.72,M,-33.324,M,,*7B
2017-12-01 13:47:21 1512154041.509463: $GPRMC,184722,A,3946.9577,N,08404.9852,W,0.0000,0.000,011217,,*3B
2017-12-01 13:47:21 1512154041.509526: $GPGSA,A,3,8,10,14,15,18,20,21,24,27,32,138,,2.0,0.8,1.5*34
2017-12-01 13:47:22 1512154042.411646: $GPZDA,184723.00,01,12,2017,00,00*6B
2017-12-01 13:47:22 1512154042.411827: $GPGGA,184723,3946.9577,N,08404.9852,W,2,11,0.80,296.72,M,-33.324,M,,*7A
2017-12-01 13:47:22 1512154042.411898: $GPRMC,184723,A,3946.9577,N,08404.9852,W,0.0000,0.000,011217,,*3A
2017-12-01 13:47:22 1512154042.411959: $GPGSA,A,3,8,10,14,15,18,20,21,24,27,32,138,,2.0,0.8,1.5*34
2017-12-01 13:47:23 1512154043.745722: $GPGSV,3,1,11,08,08,309,32,10,55,313,48,14,16,241,39,15,24,058,47*7F
2017-12-01 13:47:23 1512154043.745923: $GPGSV,3,2,11,18,77,034,43,20,21,108,47,21,46,181,44,24,53,082,48*75
2017-12-01 13:47:23 1512154043.745993: $GPGSV,3,3,11,27,14,274,35,32,34,250,43,138,38,213,46*7B
2017-12-01 13:47:23 1512154043.859136: $GPZDA,184724.00,01,12,2017,00,00*6C
2017-12-01 13:47:23 1512154043.859317: $GPGGA,184724,3946.9577,N,08404.9852,W,2,11,0.80,296.72,M,-33.324,M,,*7D
2017-12-01 13:47:23 1512154043.859439: $GPRMC,184724,A,3946.9577,N,08404.9852,W,0.0000,0.000,011217,,*3D
2017-12-01 13:47:23 1512154043.859502: $GPGSA,A,3,8,10,14,15,18,20,21,24,27,32,138,,2.0,0.8,1.5*34
2017-12-01 13:47:24 1512154044.409092: $GPZDA,184725.00,01,12,2017,00,00*6D
2017-12-01 13:47:24 1512154044.409266: $GPGGA,184725,3946.9577,N,08404.9852,W,2,11,0.80,296.72,M,-33.324,M,,*7C
2017-12-01 13:47:24 1512154044.409334: $GPRMC,184725,A,3946.9577,N,08404.9852,W,0.0000,0.000,011217,,*3C
2017-12-01 13:47:24 1512154044.409396: $GPGSA,A,3,8,10,14,15,18,20,21,24,27,32,138,,2.0,0.8,1.5*34
2017-12-01 13:47:25 1512154045.436106: $GPZDA,184726.00,01,12,2017,00,00*6E
2017-12-01 13:47:25 1512154045.436278: $GPGGA,184726,3946.9577,N,08404.9852,W,2,11,0.80,296.72,M,-33.324,M,,*7F
2017-12-01 13:47:25 1512154045.436346: $GPRMC,184726,A,3946.9577,N,08404.9852,W,0.0000,0.000,011217,,*3F
2017-12-01 13:47:25 1512154045.436408: $GPGSA,A,3,8,10,14,15,18,20,21,24,27,32,138,,2.0,0.8,1.5*34
2017-12-01 13:47:26 1512154046.746070: $GPGSV,3,1,11,08,08,309,24,10,55,313,48,14,16,241,39,15,24,058,47*78
2017-12-01 13:47:26 1512154046.746252: $GPGSV,3,2,11,18,77,034,43,20,21,108,47,21,46,181,44,24,53,082,48*75
2017-12-01 13:47:26 1512154046.746319: $GPGSV,3,3,11,27,14,274,36,32,34,250,43,138,38,213,46*78
2017-12-01 13:47:26 1512154046.859406: $GPZDA,184727.00,01,12,2017,00,00*6F
2017-12-01 13:47:26 1512154046.859581: $GPGGA,184727,3946.9577,N,08404.9852,W,2,11,0.80,296.72,M,-33.324,M,,*7E
2017-12-01 13:47:26 1512154046.859649: $GPRMC,184727,A,3946.9577,N,08404.9852,W,0.0000,0.000,011217,,*3E
2017-12-01 13:47:26 1512154046.859711: $GPGSA,A,3,8,10,14,15,18,20,21,24,27,32,138,,2.0,0.8,1.5*34
