2017-11-15 18:38:02 1510789082.192458: {"class":"VERSION","release":"3.17","rev":"3.17","proto_major":3,"proto_minor":12}
2017-11-15 18:38:02 1510789082.192926: {"class":"DEVICES","devices":[{"class":"DEVICE","path":"/dev/ttyUSB0","driver":"SiRF","subtype":"9\u0006GSD4e_4.1.2-P1_RPATCH.05-F-GPS-4R-1510281 11/03/2015 307","activated":"2017-11-15T23:38:02.185Z","flags":1,"native":1,"bps":4800,"parity":"N","stopbits":1,"cycle":1.00}]}
2017-11-15 18:38:02 1510789082.193048: {"class":"WATCH","enable":true,"json":false,"nmea":true,"raw":0,"scaled":false,"timing":false,"split24":false,"pps":false}
2017-11-15 18:38:02 1510789082.362373: $GPZDA,233801.00,15,11,2017,00,00*6D
2017-11-15 18:38:02 1510789082.362531: $GPGGA,233801,3946.9528,N,08404.9626,W,1,05,1.40,301.36,M,-33.324,M,,*79
2017-11-15 18:38:02 1510789082.362592: $GPRMC,233801,A,3946.9528,N,08404.9626,W,0.3423,4.197,151117,,*36
2017-11-15 18:38:02 1510789082.362649: $GPGSA,A,3,25,14,22,31,10,,,,,,,,3.4,1.4,2.9*3A
2017-11-15 18:38:03 1510789083.699328: $GPGSV,3,1,10,25,34,055,19,14,68,046,15,22,41,301,17,12,05,031,06*7C
2017-11-15 18:38:03 1510789083.699501: $GPGSV,3,2,10,31,79,291,20,32,54,082,01,03,22,315,00,10,20,157,08*7A
2017-11-15 18:38:03 1510789083.699561: $GPGSV,3,3,10,26,27,178,04,01,18,273,00*7D
2017-11-15 18:38:03 1510789083.813025: $GPZDA,233802.00,15,11,2017,00,00*6E
2017-11-15 18:38:03 1510789083.813177: $GPGGA,233802,3946.9528,N,08404.9626,W,1,05,4.80,301.36,M,-33.324,M,,*73
2017-11-15 18:38:03 1510789083.813236: $GPRMC,233802,A,3946.9528,N,08404.9626,W,0.5287,2.716,151117,,*32
2017-11-15 18:38:03 1510789083.813293: $GPGSA,A,3,25,14,22,31,10,,,,,,,,3.4,4.8,2.9*33
2017-11-15 18:38:04 1510789084.364991: $GPZDA,233803.00,15,11,2017,00,00*6F
2017-11-15 18:38:04 1510789084.365153: $GPGGA,233803,3946.9528,N,08404.9626,W,1,05,1.40,301.36,M,-33.324,M,,*7B
2017-11-15 18:38:04 1510789084.365231: $GPRMC,233803,A,3946.9528,N,08404.9626,W,0.0000,0.000,151117,,*39
2017-11-15 18:38:04 1510789084.365289: $GPGSA,A,3,25,14,22,31,10,,,,,,,,3.4,1.4,2.9*3A
2017-11-15 18:38:05 1510789085.363550: $GPZDA,233804.00,15,11,2017,00,00*68
2017-11-15 18:38:05 1510789085.363715: $GPGGA,233804,3946.9524,N,08404.9626,W,1,05,1.40,300.72,M,-33.324,M,,*71
2017-11-15 18:38:05 1510789085.363780: $GPRMC,233804,A,3946.9524,N,08404.9626,W,0.4179,148.778,151117,,*3C
2017-11-15 18:38:05 1510789085.363836: $GPGSA,A,3,25,14,22,31,10,,,,,,,,3.4,1.4,2.9*3A
2017-11-15 18:38:06 1510789086.701000: $GPGSV,3,1,09,25,34,055,19,14,68,046,15,22,41,301,16,31,79,291,20*73
2017-11-15 18:38:06 1510789086.701171: $GPGSV,3,2,09,32,54,082,01,03,22,315,00,10,20,157,08,26,27,178,04*7D
2017-11-15 18:38:06 1510789086.701230: $GPGSV,3,3,09,01,18,273,00*4E
2017-11-15 18:38:06 1510789086.814472: $GPZDA,233805.00,15,11,2017,00,00*69
2017-11-15 18:38:06 1510789086.814659: $GPGGA,233805,3946.9524,N,08404.9626,W,1,05,1.40,300.72,M,-33.324,M,,*70
2017-11-15 18:38:06 1510789086.814720: $GPRMC,233805,A,3946.9524,N,08404.9626,W,0.7238,140.710,151117,,*3E
2017-11-15 18:38:06 1510789086.814781: $GPGSA,A,3,25,14,22,31,10,,,,,,,,3.4,1.4,2.9*3A
2017-11-15 18:38:07 1510789087.362641: $GPZDA,233806.00,15,11,2017,00,00*6A
2017-11-15 18:38:07 1510789087.362795: $GPGGA,233806,3946.9516,N,08404.9620,W,1,05,1.20,300.92,M,-33.324,M,,*7C
2017-11-15 18:38:07 1510789087.362875: $GPRMC,233806,A,3946.9516,N,08404.9620,W,1.7178,138.722,151117,,*32
2017-11-15 18:38:07 1510789087.362932: $GPGSA,A,3,25,14,22,31,10,,,,,,,,3.4,1.2,2.9*3C
2017-11-15 18:38:08 1510789088.329789: $GPZDA,233807.00,15,11,2017,00,00*6B
2017-11-15 18:38:08 1510789088.329956: $GPGGA,233807,3946.9516,N,08404.9620,W,1,05,1.40,300.92,M,-33.324,M,,*7B
2017-11-15 18:38:08 1510789088.330019: $GPRMC,233807,A,3946.9516,N,08404.9620,W,1.8340,151.803,151117,,*36
2017-11-15 18:38:08 1510789088.330075: $GPGSA,A,3,25,14,22,31,10,,,,,,,,3.4,1.4,2.9*3A
2017-11-15 18:38:09 1510789089.664280: $GPGSV,3,1,10,25,34,055,19,14,68,046,15,22,41,301,16,26,27,178,00*70
2017-11-15 18:38:09 1510789089.664454: $GPGSV,3,2,10,31,79,291,20,32,54,082,01,03,22,315,00,10,20,157,07*75
2017-11-15 18:38:09 1510789089.664568: $GPGSV,3,3,10,01,18,273,00,12,05,031,00*72
2017-11-15 18:38:09 1510789089.777669: $GPZDA,233808.00,15,11,2017,00,00*64
2017-11-15 18:38:09 1510789089.777836: $GPGGA,233808,3946.9508,N,08404.9621,W,1,05,4.80,301.05,M,-33.324,M,,*7C
2017-11-15 18:38:09 1510789089.777898: $GPRMC,233808,A,3946.9508,N,08404.9621,W,1.8340,151.803,151117,,*37
2017-11-15 18:38:09 1510789089.777954: $GPGSA,A,3,25,14,22,31,10,,,,,,,,3.4,4.8,2.9*33
2017-11-15 18:38:10 1510789090.362236: $GPZDA,233809.00,15,11,2017,00,00*65
2017-11-15 18:38:10 1510789090.362418: $GPGGA,233809,3946.9504,N,08404.9621,W,1,05,1.40,300.41,M,-33.324,M,,*79
2017-11-15 18:38:10 1510789090.362481: $GPRMC,233809,A,3946.9504,N,08404.9621,W,1.3084,135.525,151117,,*31
2017-11-15 18:38:10 1510789090.362538: $GPGSA,A,3,25,14,22,31,10,,,,,,,,3.4,1.4,2.9*3A
2017-11-15 18:38:11 1510789091.328898: $GPZDA,233810.00,15,11,2017,00,00*6D
2017-11-15 18:38:11 1510789091.329066: $GPGGA,233810,3946.9504,N,08404.9614,W,1,05,1.40,300.49,M,-33.324,M,,*7F
2017-11-15 18:38:11 1510789091.329128: $GPRMC,233810,A,3946.9504,N,08404.9614,W,1.0253,113.296,151117,,*3F
2017-11-15 18:38:11 1510789091.329185: $GPGSA,A,3,25,14,22,31,10,,,,,,,,3.4,1.4,2.9*3A
2017-11-15 18:38:12 1510789092.664648: $GPGSV,3,1,10,25,34,055,19,14,68,046,14,22,41,301,15,03,22,315,15*7D
2017-11-15 18:38:12 1510789092.664822: $GPGSV,3,2,10,31,79,291,19,32,54,082,00,26,27,178,00,10,20,157,09*7B
2017-11-15 18:38:12 1510789092.664884: $GPGSV,3,3,10,01,18,273,00,12,05,031,00*72
2017-11-15 18:38:12 1510789092.778343: $GPZDA,233811.00,15,11,2017,00,00*6C
2017-11-15 18:38:12 1510789092.778524: $GPGGA,233811,3946.9500,N,08404.9614,W,1,05,1.40,301.25,M,-33.324,M,,*71
2017-11-15 18:38:12 1510789092.778588: $GPRMC,233811,A,3946.9500,N,08404.9614,W,1.4775,101.039,151117,,*3B
2017-11-15 18:38:12 1510789092.778665: $GPGSA,A,3,25,14,22,31,10,,,,,,,,3.4,1.4,2.9*3A
2017-11-15 18:38:13 1510789093.362635: $GPZDA,233812.00,15,11,2017,00,00*6F
2017-11-15 18:38:13 1510789093.362786: $GPGGA,233812,3946.9500,N,08404.9607,W,1,05,1.40,301.33,M,-33.324,M,,*77
2017-11-15 18:38:13 1510789093.362849: $GPRMC,233812,A,3946.9500,N,08404.9607,W,1.2375,102.453,151117,,*33
2017-11-15 18:38:13 1510789093.362905: $GPGSA,A,3,25,14,22,31,10,,,,,,,,3.4,1.4,2.9*3A
2017-11-15 18:38:14 1510789094.328468: $GPZDA,233813.00,15,11,2017,00,00*6E
2017-11-15 18:38:14 1510789094.328648: $GPGGA,233813,3946.9500,N,08404.9607,W,1,05,4.80,301.33,M,-33.324,M,,*7F
2017-11-15 18:38:14 1510789094.328715: $GPRMC,233813,A,3946.9500,N,08404.9607,W,1.2375,102.453,151117,,*32
2017-11-15 18:38:14 1510789094.328771: $GPGSA,A,3,25,14,22,31,10,,,,,,,,3.4,4.8,2.9*33
2017-11-15 18:38:15 1510789095.699303: $GPGSV,3,1,11,25,34,055,19,14,68,046,15,22,41,301,15,32,54,082,00*77
2017-11-15 18:38:15 1510789095.699470: $GPGSV,3,2,11,31,79,291,19,26,27,178,00,03,22,315,00,10,20,157,07*7A
2017-11-15 18:38:15 1510789095.699532: $GPGSV,3,3,11,01,18,273,00,12,05,031,00,138,38,213,00*72
2017-11-15 18:38:15 1510789095.812595: $GPZDA,233814.00,15,11,2017,00,00*69
2017-11-15 18:38:15 1510789095.812764: $GPGGA,233814,3946.9496,N,08404.9600,W,1,05,4.80,300.77,M,-33.324,M,,*70
2017-11-15 18:38:15 1510789095.812827: $GPRMC,233814,A,3946.9496,N,08404.9600,W,1.2562,109.606,151117,,*35
2017-11-15 18:38:15 1510789095.812883: $GPGSA,A,3,25,14,22,31,10,,,,,,,,3.4,4.8,2.9*33
2017-11-15 18:38:16 1510789096.438000: $GPZDA,233815.00,15,11,2017,00,00*68
2017-11-15 18:38:16 1510789096.438174: $GPGGA,233815,3946.9496,N,08404.9600,W,1,05,4.80,300.77,M,-33.324,M,,*71
2017-11-15 18:38:16 1510789096.438237: $GPRMC,233815,A,3946.9496,N,08404.9600,W,1.2562,109.606,151117,,*34
2017-11-15 18:38:16 1510789096.438294: $GPGSA,A,3,25,14,22,31,10,,,,,,,,3.4,4.8,2.9*33
