2017-12-01 16:56:53 1512165413.277276: {"class":"VERSION","release":"3.16","rev":"3.16-4","proto_major":3,"proto_minor":11}
2017-12-01 16:56:53 1512165413.277961: {"class":"DEVICES","devices":[{"class":"DEVICE","path":"/dev/ttyUSB0","driver":"SiRF","subtype":"9\u0006GSD4e_4.1.2-P1_RPATCH.05-F-GPS-4R-1510281 11/03/2015 307","activated":"2017-12-01T21:56:53.214Z","flags":1,"native":1,"bps":4800,"parity":"N","stopbits":1,"cycle":1.00}]}
2017-12-01 16:56:53 1512165413.278083: {"class":"WATCH","enable":true,"json":false,"nmea":true,"raw":0,"scaled":false,"timing":false,"split24":false,"pps":false}
2017-12-01 16:56:53 1512165413.391915: $GPZDA,215654.00,01,12,2017,00,00*61
2017-12-01 16:56:53 1512165413.392078: $GPGGA,215654,3946.9649,N,08404.9759,W,2,12,0.80,305.69,M,-33.324,M,,*78
2017-12-01 16:56:53 1512165413.392146: $GPRMC,215654,A,3946.9649,N,08404.9759,W,0.0000,0.000,011217,,*3A
2017-12-01 16:56:53 1512165413.392206: $GPGSA,A,3,1,3,10,12,14,22,26,31,32,18,25,138,2.0,0.8,1.5*0A
2017-12-01 16:56:54 1512165414.724183: $GPGSV,3,1,12,01,22,288,42,03,09,316,40,10,35,153,36,12,16,040,26*76
2017-12-01 16:56:54 1512165414.724384: $GPGSV,3,2,12,14,70,358,46,22,29,310,42,26,13,180,35,31,68,240,46*7B
2017-12-01 16:56:54 1512165414.724453: $GPGSV,3,3,12,32,63,057,49,18,07,147,26,25,40,073,24,138,38,213,35*4F
2017-12-01 16:56:54 1512165414.837719: $GPZDA,215655.00,01,12,2017,00,00*60
2017-12-01 16:56:54 1512165414.837904: $GPGGA,215655,3946.9649,N,08404.9759,W,2,12,0.80,305.69,M,-33.324,M,,*79
2017-12-01 16:56:54 1512165414.837972: $GPRMC,215655,A,3946.9649,N,08404.9759,W,0.0000,0.000,011217,,*3B
2017-12-01 16:56:54 1512165414.838034: $GPGSA,A,3,1,3,10,12,14,22,26,31,32,18,25,138,2.0,0.8,1.5*0A
2017-12-01 16:56:55 1512165415.392248: $GPZDA,215656.00,01,12,2017,00,00*63
2017-12-01 16:56:55 1512165415.392438: $GPGGA,215656,3946.9649,N,08404.9759,W,2,12,0.80,305.69,M,-33.324,M,,*7A
2017-12-01 16:56:55 1512165415.392522: $GPRMC,215656,A,3946.9649,N,08404.9759,W,0.0000,0.000,011217,,*38
2017-12-01 16:56:55 1512165415.392584: $GPGSA,A,3,1,3,10,12,14,22,26,31,32,18,25,138,2.0,0.8,1.5*0A
2017-12-01 16:56:56 1512165416.390649: $GPZDA,215657.00,01,12,2017,00,00*62
2017-12-01 16:56:56 1512165416.390827: $GPGGA,215657,3946.9649,N,08404.9759,W,2,12,0.80,305.69,M,-33.324,M,,*7B
2017-12-01 16:56:56 1512165416.390894: $GPRMC,215657,A,3946.9649,N,08404.9759,W,0.0000,0.000,011217,,*39
2017-12-01 16:56:56 1512165416.390955: $GPGSA,A,3,1,3,10,12,14,22,26,31,32,18,25,138,2.0,0.8,1.5*0A
2017-12-01 16:56:57 1512165417.743808: $GPGSV,3,1,12,01,22,288,43,03,09,316,40,10,35,153,35,12,16,040,24*76
2017-12-01 16:56:57 1512165417.743990: $GPGSV,3,2,12,14,70,358,46,22,29,310,41,26,13,180,34,31,68,240,47*78
2017-12-01 16:56:57 1512165417.744074: $GPGSV,3,3,12,32,63,057,49,18,07,147,27,25,40,073,24,138,38,213,39*42
2017-12-01 16:56:57 1512165417.857183: $GPZDA,215658.00,01,12,2017,00,00*6D
2017-12-01 16:56:57 1512165417.857386: $GPGGA,215658,3946.9649,N,08404.9759,W,2,12,0.80,305.69,M,-33.324,M,,*74
2017-12-01 16:56:57 1512165417.857469: $GPRMC,215658,A,3946.9649,N,08404.9759,W,0.0000,0.000,011217,,*36
2017-12-01 16:56:57 1512165417.857533: $GPGSA,A,3,1,3,10,12,14,22,26,31,32,18,25,138,2.0,0.8,1.5*0A
2017-12-01 16:56:58 1512165418.390687: $GPZDA,215659.00,01,12,2017,00,00*6C
2017-12-01 16:56:58 1512165418.390857: $GPGGA,215659,3946.9649,N,08404.9759,W,2,12,0.80,305.69,M,-33.324,M,,*75
2017-12-01 16:56:58 1512165418.390924: $GPRMC,215659,A,3946.9649,N,08404.9759,W,0.0000,0.000,011217,,*37
2017-12-01 16:56:58 1512165418.390986: $GPGSA,A,3,1,3,10,12,14,22,26,31,32,18,25,138,2.0,0.8,1.5*0A
2017-12-01 16:56:59 1512165419.407225: $GPZDA,215700.00,01,12,2017,00,00*61
2017-12-01 16:56:59 1512165419.407487: $GPGGA,215700,3946.9649,N,08404.9759,W,2,12,0.80,305.69,M,-33.324,M,,*78
2017-12-01 16:56:59 1512165419.407560: $GPRMC,215700,A,3946.9649,N,08404.9759,W,0.0000,0.000,011217,,*3A
2017-12-01 16:56:59 1512165419.407621: $GPGSA,A,3,1,3,10,12,14,22,26,31,32,18,25,138,2.0,0.8,1.5*0A
2017-12-01 16:57:00 1512165420.741697: $GPGSV,3,1,12,01,22,288,43,03,09,316,40,10,35,153,35,12,16,040,20*72
2017-12-01 16:57:00 1512165420.741931: $GPGSV,3,2,12,14,70,358,46,22,29,310,41,26,13,180,34,31,68,240,47*78
2017-12-01 16:57:00 1512165420.742001: $GPGSV,3,3,12,32,63,057,49,18,07,147,27,25,40,073,25,138,38,213,40*4D
2017-12-01 16:57:00 1512165420.855043: $GPZDA,215701.00,01,12,2017,00,00*60
2017-12-01 16:57:00 1512165420.855211: $GPGGA,215701,3946.9649,N,08404.9759,W,2,12,0.80,305.69,M,-33.324,M,,*79
2017-12-01 16:57:00 1512165420.855277: $GPRMC,215701,A,3946.9649,N,08404.9759,W,0.0000,0.000,011217,,*3B
2017-12-01 16:57:00 1512165420.855358: $GPGSA,A,3,1,3,10,12,14,22,26,31,32,18,25,138,2.0,0.8,1.5*0A
2017-12-01 16:57:01 1512165421.408479: $GPZDA,215702.00,01,12,2017,00,00*63
2017-12-01 16:57:01 1512165421.408643: $GPGGA,215702,3946.9649,N,08404.9759,W,2,12,0.80,305.69,M,-33.324,M,,*7A
2017-12-01 16:57:01 1512165421.408709: $GPRMC,215702,A,3946.9649,N,08404.9759,W,0.0000,0.000,011217,,*38
2017-12-01 16:57:01 1512165421.408771: $GPGSA,A,3,1,3,10,12,14,22,26,31,32,18,25,138,2.0,0.8,1.5*0A
2017-12-01 16:57:02 1512165422.405779: $GPZDA,215703.00,01,12,2017,00,00*62
2017-12-01 16:57:02 1512165422.405965: $GPGGA,215703,3946.9649,N,08404.9759,W,2,12,0.80,305.69,M,-33.324,M,,*7B
2017-12-01 16:57:02 1512165422.406033: $GPRMC,215703,A,3946.9649,N,08404.9759,W,0.0000,0.000,011217,,*39
2017-12-01 16:57:02 1512165422.406094: $GPGSA,A,3,1,3,10,12,14,22,26,31,32,18,25,138,2.0,0.8,1.5*0A
2017-12-01 16:57:03 1512165423.727728: $GPGSV,3,1,12,01,22,288,42,03,09,316,39,10,35,153,35,12,16,040,06*79
2017-12-01 16:57:03 1512165423.727913: $GPGSV,3,2,12,14,70,358,46,22,29,310,42,26,13,180,34,31,68,240,47*7B
2017-12-01 16:57:03 1512165423.727980: $GPGSV,3,3,12,32,63,057,49,18,07,147,28,25,40,073,30,138,38,213,40*46
2017-12-01 16:57:03 1512165423.840862: $GPZDA,215704.00,01,12,2017,00,00*65
2017-12-01 16:57:03 1512165423.841048: $GPGGA,215704,3946.9649,N,08404.9759,W,2,11,1.00,305.69,M,-33.324,M,,*76
2017-12-01 16:57:03 1512165423.841117: $GPRMC,215704,A,3946.9649,N,08404.9759,W,0.0000,0.000,011217,,*3E
2017-12-01 16:57:03 1512165423.841180: $GPGSA,A,3,1,3,10,14,22,26,31,32,18,25,138,,2.0,1.0,1.5*00
2017-12-01 16:57:04 1512165424.466512: $GPZDA,215705.00,01,12,2017,00,00*64
2017-12-01 16:57:04 1512165424.466688: $GPGGA,215705,3946.9649,N,08404.9759,W,2,11,1.00,305.69,M,-33.324,M,,*77
2017-12-01 16:57:04 1512165424.466755: $GPRMC,215705,A,3946.9649,N,08404.9759,W,0.0000,0.000,011217,,*3F
2017-12-01 16:57:04 1512165424.466818: $GPGSA,A,3,1,3,10,14,22,26,31,32,18,25,138,,2.0,1.0,1.5*00
2017-12-01 16:57:05 1512165425.392429: $GPZDA,215706.00,01,12,2017,00,00*67
2017-12-01 16:57:05 1512165425.392604: $GPGGA,215706,3946.9649,N,08404.9759,W,2,11,1.00,305.69,M,-33.324,M,,*74
2017-12-01 16:57:05 1512165425.392673: $GPRMC,215706,A,3946.9649,N,08404.9759,W,0.0000,0.000,011217,,*3C
2017-12-01 16:57:05 1512165425.392734: $GPGSA,A,3,1,3,10,14,22,26,31,32,18,25,138,,2.0,1.0,1.5*00
2017-12-01 16:57:06 1512165426.744153: $GPGSV,3,1,12,01,22,288,42,03,09,316,40,10,35,153,35,12,16,040,04*75
2017-12-01 16:57:06 1512165426.744353: $GPGSV,3,2,12,14,70,358,46,22,29,310,41,26,13,180,34,31,68,240,47*78
2017-12-01 16:57:06 1512165426.744438: $GPGSV,3,3,12,32,63,057,48,18,07,147,28,25,40,073,30,138,38,213,38*48
2017-12-01 16:57:06 1512165426.858404: $GPZDA,215707.00,01,12,2017,00,00*66
2017-12-01 16:57:06 1512165426.858613: $GPGGA,215707,3946.9649,N,08404.9759,W,2,11,1.00,305.69,M,-33.324,M,,*75
2017-12-01 16:57:06 1512165426.858697: $GPRMC,215707,A,3946.9649,N,08404.9759,W,0.0000,0.000,011217,,*3D
2017-12-01 16:57:06 1512165426.858759: $GPGSA,A,3,1,3,10,14,22,26,31,32,18,25,138,,2.0,1.0,1.5*00
2017-12-01 16:57:07 1512165427.395896: $GPZDA,215708.00,01,12,2017,00,00*69
2017-12-01 16:57:07 1512165427.396066: $GPGGA,215708,3946.9650,N,08404.9760,W,2,11,1.00,307.10,M,-33.324,M,,*74
2017-12-01 16:57:07 1512165427.396133: $GPRMC,215708,A,3946.9650,N,08404.9760,W,0.0000,0.000,011217,,*30
2017-12-01 16:57:07 1512165427.396194: $GPGSA,A,3,1,3,10,14,22,26,31,32,18,25,138,,2.0,1.0,1.5*00
2017-12-01 16:57:08 1512165428.405751: $GPZDA,215709.00,01,12,2017,00,00*68
2017-12-01 16:57:08 1512165428.405963: $GPGGA,215709,3946.9650,N,08404.9767,W,2,11,1.00,307.02,M,-33.324,M,,*71
2017-12-01 16:57:08 1512165428.406033: $GPRMC,215709,A,3946.9650,N,08404.9767,W,0.0000,0.000,011217,,*36
2017-12-01 16:57:08 1512165428.406095: $GPGSA,A,3,1,3,10,14,22,26,31,32,18,25,138,,2.0,1.0,1.5*00
2017-12-01 16:57:09 1512165429.748384: $GPGSV,3,1,12,01,22,288,42,03,09,316,40,10,35,153,35,12,16,040,08*79
2017-12-01 16:57:09 1512165429.748743: $GPGSV,3,2,12,14,70,358,46,22,29,310,41,26,13,180,34,31,68,240,47*78
2017-12-01 16:57:09 1512165429.748871: $GPGSV,3,3,12,32,63,057,49,18,07,147,28,25,40,073,30,138,38,213,40*46
2017-12-01 16:57:09 1512165429.861668: $GPZDA,215710.00,01,12,2017,00,00*60
2017-12-01 16:57:09 1512165429.861837: $GPGGA,215710,3946.9650,N,08404.9767,W,2,12,0.80,307.02,M,-33.324,M,,*73
2017-12-01 16:57:09 1512165429.861908: $GPRMC,215710,A,3946.9650,N,08404.9767,W,0.0000,0.000,011217,,*3E
2017-12-01 16:57:09 1512165429.861974: $GPGSA,A,3,1,3,10,12,14,22,26,31,32,18,25,138,2.0,0.8,1.5*0A
2017-12-01 16:57:10 1512165430.411214: $GPZDA,215711.00,01,12,2017,00,00*61
2017-12-01 16:57:10 1512165430.411486: $GPGGA,215711,3946.9650,N,08404.9767,W,2,12,0.80,307.02,M,-33.324,M,,*72
2017-12-01 16:57:10 1512165430.411568: $GPRMC,215711,A,3946.9650,N,08404.9767,W,0.0000,0.000,011217,,*3F
2017-12-01 16:57:10 1512165430.411633: $GPGSA,A,3,1,3,10,12,14,22,26,31,32,18,25,138,2.0,0.8,1.5*0A
2017-12-01 16:57:11 1512165431.394871: $GPZDA,215712.00,01,12,2017,00,00*62
2017-12-01 16:57:11 1512165431.395050: $GPGGA,215712,3946.9650,N,08404.9767,W,2,12,0.80,307.02,M,-33.324,M,,*71
2017-12-01 16:57:11 1512165431.395120: $GPRMC,215712,A,3946.9650,N,08404.9767,W,0.0000,0.000,011217,,*3C
2017-12-01 16:57:11 1512165431.395184: $GPGSA,A,3,1,3,10,12,14,22,26,31,32,18,25,138,2.0,0.8,1.5*0A
2017-12-01 16:57:12 1512165432.746606: $GPGSV,3,1,12,01,22,288,42,03,09,316,40,10,35,153,35,12,16,040,12*72
2017-12-01 16:57:12 1512165432.746791: $GPGSV,3,2,12,14,70,358,46,22,29,310,42,26,13,180,35,31,68,240,47*7A
2017-12-01 16:57:12 1512165432.746860: $GPGSV,3,3,12,32,63,057,49,18,07,147,29,25,40,073,30,138,38,213,41*46
2017-12-01 16:57:12 1512165432.860183: $GPZDA,215713.00,01,12,2017,00,00*63
2017-12-01 16:57:12 1512165432.860351: $GPGGA,215713,3946.9650,N,08404.9767,W,2,12,0.80,307.02,M,-33.324,M,,*70
2017-12-01 16:57:12 1512165432.860437: $GPRMC,215713,A,3946.9650,N,08404.9767,W,0.0000,0.000,011217,,*3D
2017-12-01 16:57:12 1512165432.860502: $GPGSA,A,3,1,3,10,12,14,22,26,31,32,18,25,138,2.0,0.8,1.5*0A
