2018-01-11 19:54:26 1515718466.416418: {"class":"VERSION","release":"3.16","rev":"3.16-4","proto_major":3,"proto_minor":11}
2018-01-11 19:54:26 1515718466.416751: {"class":"DEVICES","devices":[{"class":"DEVICE","path":"/dev/ttyUSB0","driver":"SiRF","subtype":"9\u0006GSD4e_4.1.2-P1_RPATCH.05-F-GPS-4R-1510281 11/03/2015 307","activated":"2018-01-12T00:54:26.318Z","flags":1,"native":1,"bps":4800,"parity":"N","stopbits":1,"cycle":1.00}]}
2018-01-11 19:54:26 1515718466.416864: {"class":"WATCH","enable":true,"json":false,"nmea":true,"raw":0,"scaled":false,"timing":false,"split24":false,"pps":false}
2018-01-11 19:54:26 1515718466.431836: $GPZDA,005427.00,12,01,2018,00,00*6B
2018-01-11 19:54:26 1515718466.431952: $GPGGA,005427,3946.9571,N,08404.9811,W,2,11,0.80,297.96,M,-33.324,M,,*7F
2018-01-11 19:54:26 1515718466.432016: $GPRMC,005427,A,3946.9571,N,08404.9811,W,0.0000,0.000,120118,,*3B
2018-01-11 19:54:26 1515718466.432075: $GPGSA,A,3,7,8,9,11,16,23,27,30,28,26,138,,4.0,0.8,3.5*3A
2018-01-11 19:54:27 1515718467.768858: $GPGSV,3,1,11,07,48,312,43,08,67,151,45,09,53,240,44,11,13,171,35*70
2018-01-11 19:54:27 1515718467.769078: $GPGSV,3,2,11,16,29,055,46,23,37,192,47,27,53,061,50,30,22,303,26*7C
2018-01-11 19:54:27 1515718467.769153: $GPGSV,3,3,11,28,08,252,28,26,04,067,15,138,38,213,45*71
2018-01-11 19:54:27 1515718467.881453: $GPZDA,005428.00,12,01,2018,00,00*64
2018-01-11 19:54:27 1515718467.881616: $GPGGA,005428,3946.9571,N,08404.9811,W,2,11,0.80,297.96,M,-33.324,M,,*70
2018-01-11 19:54:27 1515718467.881694: $GPRMC,005428,A,3946.9571,N,08404.9811,W,0.0000,0.000,120118,,*34
2018-01-11 19:54:27 1515718467.881755: $GPGSA,A,3,7,8,9,11,16,23,27,30,28,26,138,,4.0,0.8,3.5*3A
2018-01-11 19:54:28 1515718468.432147: $GPZDA,005429.00,12,01,2018,00,00*65
2018-01-11 19:54:28 1515718468.432311: $GPGGA,005429,3946.9571,N,08404.9811,W,2,11,0.80,297.96,M,-33.324,M,,*71
2018-01-11 19:54:28 1515718468.432376: $GPRMC,005429,A,3946.9571,N,08404.9811,W,0.0000,0.000,120118,,*35
2018-01-11 19:54:28 1515718468.432436: $GPGSA,A,3,7,8,9,11,16,23,27,30,28,26,138,,4.0,0.8,3.5*3A
2018-01-11 19:54:29 1515718469.432512: $GPZDA,005430.00,12,01,2018,00,00*6D
2018-01-11 19:54:29 1515718469.432670: $GPGGA,005430,3946.9571,N,08404.9811,W,2,11,0.80,297.96,M,-33.324,M,,*79
2018-01-11 19:54:29 1515718469.432735: $GPRMC,005430,A,3946.9571,N,08404.9811,W,0.0000,0.000,120118,,*3D
2018-01-11 19:54:29 1515718469.432796: $GPGSA,A,3,7,8,9,11,16,23,27,30,28,26,138,,4.0,0.8,3.5*3A
2018-01-11 19:54:30 1515718470.769267: $GPGSV,3,1,11,07,48,312,43,08,67,151,45,09,53,240,44,11,13,171,35*70
2018-01-11 19:54:30 1515718470.769445: $GPGSV,3,2,11,16,29,055,46,23,37,192,47,27,53,061,50,30,22,303,28*72
2018-01-11 19:54:30 1515718470.769510: $GPGSV,3,3,11,28,08,252,29,26,04,067,15,138,38,213,45*70
2018-01-11 19:54:30 1515718470.883338: $GPZDA,005431.00,12,01,2018,00,00*6C
2018-01-11 19:54:30 1515718470.883510: $GPGGA,005431,3946.9571,N,08404.9811,W,2,11,0.80,297.96,M,-33.324,M,,*78
2018-01-11 19:54:30 1515718470.883577: $GPRMC,005431,A,3946.9571,N,08404.9811,W,0.0000,0.000,120118,,*3C
2018-01-11 19:54:30 1515718470.883638: $GPGSA,A,3,7,8,9,11,16,23,27,30,28,26,138,,4.0,0.8,3.5*3A
2018-01-11 19:54:31 1515718471.411232: $GPZDA,005432.00,12,01,2018,00,00*6F
2018-01-11 19:54:31 1515718471.411391: $GPGGA,005432,3946.9571,N,08404.9811,W,2,11,0.80,297.96,M,-33.324,M,,*7B
2018-01-11 19:54:31 1515718471.411457: $GPRMC,005432,A,3946.9571,N,08404.9811,W,0.0000,0.000,120118,,*3F
2018-01-11 19:54:31 1515718471.411517: $GPGSA,A,3,7,8,9,11,16,23,27,30,28,26,138,,4.0,0.8,3.5*3A
2018-01-11 19:54:32 1515718472.410837: $GPZDA,005433.00,12,01,2018,00,00*6E
2018-01-11 19:54:32 1515718472.410989: $GPGGA,005433,3946.9571,N,08404.9811,W,2,11,0.80,297.96,M,-33.324,M,,*7A
2018-01-11 19:54:32 1515718472.411053: $GPRMC,005433,A,3946.9571,N,08404.9811,W,0.0000,0.000,120118,,*3E
2018-01-11 19:54:32 1515718472.411112: $GPGSA,A,3,7,8,9,11,16,23,27,30,28,26,138,,4.0,0.8,3.5*3A
2018-01-11 19:54:33 1515718473.767538: $GPGSV,3,1,11,07,48,312,43,08,67,151,45,09,53,240,43,11,13,171,35*77
2018-01-11 19:54:33 1515718473.767742: $GPGSV,3,2,11,16,29,055,46,23,37,192,47,27,53,061,50,30,22,303,30*7B
2018-01-11 19:54:33 1515718473.767808: $GPGSV,3,3,11,28,08,252,30,26,04,067,04,138,38,213,45*78
2018-01-11 19:54:33 1515718473.881187: $GPZDA,005434.00,12,01,2018,00,00*69
2018-01-11 19:54:33 1515718473.881315: $GPGGA,005434,3946.9571,N,08404.9811,W,2,10,0.80,297.96,M,-33.324,M,,*7C
2018-01-11 19:54:33 1515718473.881378: $GPRMC,005434,A,3946.9571,N,08404.9811,W,0.0000,0.000,120118,,*39
2018-01-11 19:54:33 1515718473.881437: $GPGSA,A,3,7,8,9,11,16,23,27,30,28,138,,,4.0,0.8,3.5*3E
2018-01-11 19:54:34 1515718474.506555: $GPZDA,005435.00,12,01,2018,00,00*68
2018-01-11 19:54:34 1515718474.506707: $GPGGA,005435,3946.9571,N,08404.9811,W,2,10,0.80,297.96,M,-33.324,M,,*7D
2018-01-11 19:54:34 1515718474.506771: $GPRMC,005435,A,3946.9571,N,08404.9811,W,0.0000,0.000,120118,,*38
2018-01-11 19:54:34 1515718474.506830: $GPGSA,A,3,7,8,9,11,16,23,27,30,28,138,,,4.0,0.8,3.5*3E
2018-01-11 19:54:35 1515718475.416178: $GPZDA,005436.00,12,01,2018,00,00*6B
2018-01-11 19:54:35 1515718475.416333: $GPGGA,005436,3946.9571,N,08404.9811,W,2,10,0.80,297.96,M,-33.324,M,,*7E
2018-01-11 19:54:35 1515718475.416398: $GPRMC,005436,A,3946.9571,N,08404.9811,W,0.0000,0.000,120118,,*3B
2018-01-11 19:54:35 1515718475.416459: $GPGSA,A,3,7,8,9,11,16,23,27,30,28,138,,,4.0,0.8,3.5*3E
