2017-12-01 13:42:14 1512153734.457333: {"class":"VERSION","release":"3.16","rev":"3.16-4","proto_major":3,"proto_minor":11}
2017-12-01 13:42:14 1512153734.457737: {"class":"DEVICES","devices":[{"class":"DEVICE","path":"/dev/ttyUSB0","driver":"SiRF","subtype":"9\u0006GSD4e_4.1.2-P1_RPATCH.05-F-GPS-4R-1510281 11/03/2015 307","activated":"2017-12-01T18:42:13.372Z","flags":1,"native":1,"bps":4800,"parity":"N","stopbits":1,"cycle":1.00}]}
2017-12-01 13:42:14 1512153734.457867: {"class":"WATCH","enable":true,"json":false,"nmea":true,"raw":0,"scaled":false,"timing":false,"split24":false,"pps":false}
2017-12-01 13:42:14 1512153734.565371: $GPGSV,3,1,11,10,53,312,49,14,15,240,40,15,25,057,44,18,77,024,43*7B
2017-12-01 13:42:14 1512153734.565535: $GPGSV,3,2,11,20,23,106,47,21,48,183,46,24,53,085,47,27,15,276,37*70
2017-12-01 13:42:14 1512153734.565601: $GPGSV,3,3,11,32,32,249,46,08,08,310,32,138,38,213,47*75
2017-12-01 13:42:14 1512153734.678782: $GPZDA,184215.00,01,12,2017,00,00*6B
2017-12-01 13:42:14 1512153734.678957: $GPGGA,184215,3946.9590,N,08404.9825,W,2,11,0.80,301.76,M,-33.324,M,,*78
2017-12-01 13:42:14 1512153734.679025: $GPRMC,184215,A,3946.9590,N,08404.9825,W,0.0000,0.000,011217,,*33
2017-12-01 13:42:14 1512153734.679086: $GPGSA,A,3,10,14,15,18,20,21,24,27,32,8,138,,2.0,0.8,1.5*34
2017-12-01 13:42:15 1512153735.229954: $GPZDA,184216.00,01,12,2017,00,00*68
2017-12-01 13:42:15 1512153735.230125: $GPGGA,184216,3946.9590,N,08404.9825,W,2,11,0.80,301.76,M,-33.324,M,,*7B
2017-12-01 13:42:15 1512153735.230191: $GPRMC,184216,A,3946.9590,N,08404.9825,W,0.0000,0.000,011217,,*30
2017-12-01 13:42:15 1512153735.230251: $GPGSA,A,3,10,14,15,18,20,21,24,27,32,8,138,,2.0,0.8,1.5*34
2017-12-01 13:42:16 1512153736.229792: $GPZDA,184217.00,01,12,2017,00,00*69
2017-12-01 13:42:16 1512153736.229967: $GPGGA,184217,3946.9590,N,08404.9825,W,2,11,0.80,301.76,M,-33.324,M,,*7A
2017-12-01 13:42:16 1512153736.230035: $GPRMC,184217,A,3946.9590,N,08404.9825,W,0.0000,0.000,011217,,*31
2017-12-01 13:42:16 1512153736.230096: $GPGSA,A,3,10,14,15,18,20,21,24,27,32,8,138,,2.0,0.8,1.5*34
2017-12-01 13:42:17 1512153737.566055: $GPGSV,3,1,11,10,53,312,49,14,15,240,40,15,25,057,44,18,77,024,43*7B
2017-12-01 13:42:17 1512153737.566577: $GPGSV,3,2,11,20,23,106,47,21,48,183,46,24,53,085,47,27,15,276,37*70
2017-12-01 13:42:17 1512153737.566654: $GPGSV,3,3,11,32,32,249,45,08,08,310,32,138,38,213,46*77
2017-12-01 13:42:17 1512153737.679435: $GPZDA,184218.00,01,12,2017,00,00*66
2017-12-01 13:42:17 1512153737.679594: $GPGGA,184218,3946.9590,N,08404.9825,W,2,11,0.80,301.76,M,-33.324,M,,*75
2017-12-01 13:42:17 1512153737.679660: $GPRMC,184218,A,3946.9590,N,08404.9825,W,0.0000,0.000,011217,,*3E
2017-12-01 13:42:17 1512153737.679721: $GPGSA,A,3,10,14,15,18,20,21,24,27,32,8,138,,2.0,0.8,1.5*34
2017-12-01 13:42:18 1512153738.229580: $GPZDA,184219.00,01,12,2017,00,00*67
2017-12-01 13:42:18 1512153738.229753: $GPGGA,184219,3946.9593,N,08404.9832,W,2,11,0.80,300.92,M,-33.324,M,,*7A
2017-12-01 13:42:18 1512153738.229819: $GPRMC,184219,A,3946.9593,N,08404.9832,W,0.0000,0.000,011217,,*3A
2017-12-01 13:42:18 1512153738.229880: $GPGSA,A,3,10,14,15,18,20,21,24,27,32,8,138,,2.0,0.8,1.5*34
2017-12-01 13:42:19 1512153739.230832: $GPZDA,184220.00,01,12,2017,00,00*6D
2017-12-01 13:42:19 1512153739.231012: $GPGGA,184220,3946.9593,N,08404.9832,W,2,11,0.80,300.92,M,-33.324,M,,*70
2017-12-01 13:42:19 1512153739.231080: $GPRMC,184220,A,3946.9593,N,08404.9832,W,0.0000,0.000,011217,,*30
2017-12-01 13:42:19 1512153739.231142: $GPGSA,A,3,10,14,15,18,20,21,24,27,32,8,138,,2.0,0.8,1.5*34
2017-12-01 13:42:19 1512153739.231201: $GPGBS,184220,2.67,M,3.86,M,8.82,M*3F
2017-12-01 13:42:20 1512153740.566512: $GPGSV,3,1,11,10,53,312,49,14,15,240,40,15,25,057,44,18,77,024,43*7B
2017-12-01 13:42:20 1512153740.566692: $GPGSV,3,2,11,20,23,106,47,21,48,183,46,24,53,085,47,27,15,276,36*71
2017-12-01 13:42:20 1512153740.566760: $GPGSV,3,3,11,32,32,249,45,08,08,310,33,138,38,213,46*76
2017-12-01 13:42:20 1512153740.679926: $GPZDA,184221.00,01,12,2017,00,00*6C
2017-12-01 13:42:20 1512153740.680107: $GPGGA,184221,3946.9593,N,08404.9832,W,2,11,0.80,300.92,M,-33.324,M,,*71
2017-12-01 13:42:20 1512153740.680225: $GPRMC,184221,A,3946.9593,N,08404.9832,W,0.0000,0.000,011217,,*31
2017-12-01 13:42:20 1512153740.680288: $GPGSA,A,3,10,14,15,18,20,21,24,27,32,8,138,,2.0,0.8,1.5*34
2017-12-01 13:42:21 1512153741.230047: $GPZDA,184222.00,01,12,2017,00,00*6F
2017-12-01 13:42:21 1512153741.230225: $GPGGA,184222,3946.9593,N,08404.9832,W,2,11,0.80,300.92,M,-33.324,M,,*72
2017-12-01 13:42:21 1512153741.230291: $GPRMC,184222,A,3946.9593,N,08404.9832,W,0.0000,0.000,011217,,*32
2017-12-01 13:42:21 1512153741.230353: $GPGSA,A,3,10,14,15,18,20,21,24,27,32,8,138,,2.0,0.8,1.5*34
2017-12-01 13:42:22 1512153742.230153: $GPZDA,184223.00,01,12,2017,00,00*6E
2017-12-01 13:42:22 1512153742.230326: $GPGGA,184223,3946.9593,N,08404.9832,W,2,11,0.80,300.92,M,-33.324,M,,*73
2017-12-01 13:42:22 1512153742.230393: $GPRMC,184223,A,3946.9593,N,08404.9832,W,0.0000,0.000,011217,,*33
2017-12-01 13:42:22 1512153742.230454: $GPGSA,A,3,10,14,15,18,20,21,24,27,32,8,138,,2.0,0.8,1.5*34
2017-12-01 13:42:23 1512153743.565184: $GPGSV,3,1,11,10,53,312,49,14,15,240,40,15,25,057,45,18,77,024,43*7A
2017-12-01 13:42:23 1512153743.565376: $GPGSV,3,2,11,20,23,106,48,21,48,183,45,24,53,085,48,27,15,276,37*73
2017-12-01 13:42:23 1512153743.565446: $GPGSV,3,3,11,32,32,249,45,08,08,310,39,138,38,213,47*7D
2017-12-01 13:42:23 1512153743.678604: $GPZDA,184224.00,01,12,2017,00,00*69
2017-12-01 13:42:23 1512153743.678774: $GPGGA,184224,3946.9593,N,08404.9832,W,2,11,0.80,300.92,M,-33.324,M,,*74
2017-12-01 13:42:23 1512153743.678841: $GPRMC,184224,A,3946.9593,N,08404.9832,W,0.0000,0.000,011217,,*34
2017-12-01 13:42:23 1512153743.678902: $GPGSA,A,3,10,14,15,18,20,21,24,27,32,8,138,,2.0,0.8,1.5*34
2017-12-01 13:42:24 1512153744.231168: $GPZDA,184225.00,01,12,2017,00,00*68
2017-12-01 13:42:24 1512153744.231340: $GPGGA,184225,3946.9593,N,08404.9832,W,2,11,0.80,300.92,M,-33.324,M,,*75
2017-12-01 13:42:24 1512153744.231470: $GPRMC,184225,A,3946.9593,N,08404.9832,W,0.0000,0.000,011217,,*35
2017-12-01 13:42:24 1512153744.231533: $GPGSA,A,3,10,14,15,18,20,21,24,27,32,8,138,,2.0,0.8,1.5*34
