2017-11-16 17:15:51 1510870551.833026: {"class":"VERSION","release":"3.17","rev":"3.17","proto_major":3,"proto_minor":12}
2017-11-16 17:15:51 1510870551.833584: {"class":"DEVICES","devices":[{"class":"DEVICE","path":"/dev/ttyUSB0","driver":"SiRF","subtype":"9\u0006GSD4e_4.1.2-P1_RPATCH.05-F-GPS-4R-1510281 11/03/2015 307","activated":"2017-11-16T22:15:51.749Z","flags":1,"native":1,"bps":4800,"parity":"N","stopbits":1,"cycle":1.00}]}
2017-11-16 17:15:51 1510870551.833707: {"class":"WATCH","enable":true,"json":false,"nmea":true,"raw":0,"scaled":false,"timing":false,"split24":false,"pps":false}
2017-11-16 17:15:51 1510870551.862602: $GPZDA,221550.00,16,11,2017,00,00*64
2017-11-16 17:15:51 1510870551.862763: $GPGGA,221550,3946.9568,N,08404.9826,W,2,12,0.80,312.81,M,-33.324,M,,*7F
2017-11-16 17:15:51 1510870551.862842: $GPRMC,221550,A,3946.9568,N,08404.9826,W,0.0000,0.000,161117,,*38
2017-11-16 17:15:51 1510870551.862899: $GPGSA,A,3,1,10,22,12,14,18,24,11,25,31,32,138,1.6,0.8,1.3*38
2017-11-16 17:15:52 1510870552.419727: $GPZDA,221551.00,16,11,2017,00,00*65
2017-11-16 17:15:52 1510870552.419926: $GPGGA,221551,3946.9568,N,08404.9826,W,2,12,0.80,312.81,M,-33.324,M,,*7E
2017-11-16 17:15:52 1510870552.419988: $GPRMC,221551,A,3946.9568,N,08404.9826,W,0.0000,0.000,161117,,*39
2017-11-16 17:15:52 1510870552.420044: $GPGSA,A,3,1,10,22,12,14,18,24,11,25,31,32,138,1.6,0.8,1.3*38
2017-11-16 17:15:53 1510870553.400597: $GPZDA,221552.00,16,11,2017,00,00*66
2017-11-16 17:15:53 1510870553.400760: $GPGGA,221552,3946.9571,N,08404.9826,W,2,12,0.80,312.05,M,-33.324,M,,*79
2017-11-16 17:15:53 1510870553.400840: $GPRMC,221552,A,3946.9571,N,08404.9826,W,0.0000,0.000,161117,,*32
2017-11-16 17:15:53 1510870553.400896: $GPGSA,A,3,1,10,22,12,14,18,24,11,25,31,32,138,1.6,0.8,1.3*38
2017-11-16 17:15:54 1510870554.737716: $GPGSV,3,1,12,01,20,307,40,10,56,144,47,22,13,312,38,12,24,057,48*79
2017-11-16 17:15:54 1510870554.738044: $GPGSV,3,2,12,14,63,313,47,18,25,141,43,24,03,048,00,11,10,288,38*75
2017-11-16 17:15:54 1510870554.738146: $GPGSV,3,3,12,25,37,100,47,31,48,219,49,32,70,006,48,138,38,213,44*4F
2017-11-16 17:15:54 1510870554.850981: $GPZDA,221553.00,16,11,2017,00,00*67
2017-11-16 17:15:54 1510870554.851156: $GPGGA,221553,3946.9571,N,08404.9826,W,2,11,0.80,312.05,M,-33.324,M,,*7B
2017-11-16 17:15:54 1510870554.851217: $GPRMC,221553,A,3946.9571,N,08404.9826,W,0.0000,0.000,161117,,*33
2017-11-16 17:15:54 1510870554.851273: $GPGSA,A,3,1,10,22,12,14,18,11,25,31,32,138,,1.6,0.8,1.3*3E
2017-11-16 17:15:55 1510870555.400587: $GPZDA,221554.00,16,11,2017,00,00*60
2017-11-16 17:15:55 1510870555.400749: $GPGGA,221554,3946.9571,N,08404.9826,W,2,11,0.80,312.05,M,-33.324,M,,*7C
2017-11-16 17:15:55 1510870555.400829: $GPRMC,221554,A,3946.9571,N,08404.9826,W,0.0000,0.000,161117,,*34
2017-11-16 17:15:55 1510870555.400885: $GPGSA,A,3,1,10,22,12,14,18,11,25,31,32,138,,1.6,0.8,1.3*3E
2017-11-16 17:15:56 1510870556.414721: $GPZDA,221555.00,16,11,2017,00,00*61
2017-11-16 17:15:56 1510870556.414945: $GPGGA,221555,3946.9571,N,08404.9826,W,2,11,0.80,312.05,M,-33.324,M,,*7D
2017-11-16 17:15:56 1510870556.415060: $GPRMC,221555,A,3946.9571,N,08404.9826,W,0.0000,0.000,161117,,*35
2017-11-16 17:15:56 1510870556.415127: $GPGSA,A,3,1,10,22,12,14,18,11,25,31,32,138,,1.6,0.8,1.3*3E
2017-11-16 17:15:57 1510870557.735522: $GPGSV,3,1,12,01,20,307,40,10,56,144,47,22,13,312,37,12,24,057,49*77
2017-11-16 17:15:57 1510870557.735688: $GPGSV,3,2,12,14,63,313,47,18,25,141,43,24,03,048,00,11,10,288,39*74
2017-11-16 17:15:57 1510870557.735768: $GPGSV,3,3,12,25,37,100,47,31,48,219,49,32,70,006,49,138,38,213,43*49
2017-11-16 17:15:57 1510870557.848819: $GPZDA,221556.00,16,11,2017,00,00*62
2017-11-16 17:15:57 1510870557.848991: $GPGGA,221556,3946.9571,N,08404.9826,W,2,11,0.80,312.05,M,-33.324,M,,*7E
2017-11-16 17:15:57 1510870557.849052: $GPRMC,221556,A,3946.9571,N,08404.9826,W,0.0000,0.000,161117,,*36
2017-11-16 17:15:57 1510870557.849108: $GPGSA,A,3,1,10,22,12,14,18,11,25,31,32,138,,1.6,0.8,1.3*3E
2017-11-16 17:15:58 1510870558.399767: $GPZDA,221557.00,16,11,2017,00,00*63
2017-11-16 17:15:58 1510870558.399990: $GPGGA,221557,3946.9571,N,08404.9826,W,2,11,0.80,312.05,M,-33.324,M,,*7F
2017-11-16 17:15:58 1510870558.400054: $GPRMC,221557,A,3946.9571,N,08404.9826,W,0.0000,0.000,161117,,*37
2017-11-16 17:15:58 1510870558.400110: $GPGSA,A,3,1,10,22,12,14,18,11,25,31,32,138,,1.6,0.8,1.3*3E
2017-11-16 17:15:59 1510870559.420589: $GPZDA,221558.00,16,11,2017,00,00*6C
2017-11-16 17:15:59 1510870559.420787: $GPGGA,221558,3946.9571,N,08404.9826,W,2,11,0.80,312.05,M,-33.324,M,,*70
2017-11-16 17:15:59 1510870559.420849: $GPRMC,221558,A,3946.9571,N,08404.9826,W,0.0000,0.000,161117,,*38
2017-11-16 17:15:59 1510870559.420925: $GPGSA,A,3,1,10,22,12,14,18,11,25,31,32,138,,1.6,0.8,1.3*3E
2017-11-16 17:16:00 1510870560.756468: $GPGSV,3,1,12,01,20,307,40,10,56,144,47,22,13,312,37,12,24,057,49*77
2017-11-16 17:16:00 1510870560.756636: $GPGSV,3,2,12,14,63,313,47,18,25,141,43,24,03,048,00,11,10,288,38*75
2017-11-16 17:16:00 1510870560.756697: $GPGSV,3,3,12,25,37,100,46,31,48,219,49,32,70,006,49,138,38,213,43*48
2017-11-16 17:16:00 1510870560.870026: $GPZDA,221559.00,16,11,2017,00,00*6D
2017-11-16 17:16:00 1510870560.870315: $GPGGA,221559,3946.9571,N,08404.9826,W,2,11,0.80,312.05,M,-33.324,M,,*71
2017-11-16 17:16:00 1510870560.870436: $GPRMC,221559,A,3946.9571,N,08404.9826,W,0.0000,0.000,161117,,*39
2017-11-16 17:16:00 1510870560.870526: $GPGSA,A,3,1,10,22,12,14,18,11,25,31,32,138,,1.6,0.8,1.3*3E
2017-11-16 17:16:01 1510870561.495083: $GPZDA,221600.00,16,11,2017,00,00*62
2017-11-16 17:16:01 1510870561.495601: $GPGGA,221600,3946.9571,N,08404.9826,W,2,11,0.80,312.05,M,-33.324,M,,*7E
2017-11-16 17:16:01 1510870561.500204: $GPRMC,221600,A,3946.9571,N,08404.9826,W,0.0000,0.000,161117,,*36
2017-11-16 17:16:01 1510870561.500291: $GPGSA,A,3,1,10,22,12,14,18,11,25,31,32,138,,1.6,0.8,1.3*3E
