2017-12-31 18:15:23 1514762123.168268: {"class":"VERSION","release":"3.16","rev":"3.16-4","proto_major":3,"proto_minor":11}
2017-12-31 18:15:23 1514762123.168616: {"class":"DEVICES","devices":[{"class":"DEVICE","path":"/dev/ttyUSB0","driver":"SiRF","activated":"2017-12-31T23:15:22.491Z","flags":1,"native":1,"bps":4800,"parity":"N","stopbits":1,"cycle":1.00}]}
2017-12-31 18:15:23 1514762123.168716: {"class":"WATCH","enable":true,"json":false,"nmea":true,"raw":0,"scaled":false,"timing":false,"split24":false,"pps":false}
2017-12-31 18:15:23 1514762123.350415: $GPZDA,231524.00,31,12,2017,00,00*60
2017-12-31 18:15:23 1514762123.350578: $GPGGA,231524,3946.9563,N,08404.9865,W,2,11,0.80,306.08,M,-33.324,M,,*76
2017-12-31 18:15:23 1514762123.350643: $GPRMC,231524,A,3946.9563,N,08404.9865,W,0.0000,0.000,311217,,*30
2017-12-31 18:15:23 1514762123.350705: $GPGSA,A,3,22,23,9,3,16,8,14,31,27,26,135,,1.7,0.8,1.3*3B
2017-12-31 18:15:24 1514762124.678408: $GPGSV,3,1,11,22,20,213,33,23,56,304,45,09,23,312,42,03,30,232,43*77
2017-12-31 18:15:24 1514762124.678590: $GPGSV,3,2,11,16,84,183,43,08,02,180,22,14,13,135,32,31,26,076,46*79
2017-12-31 18:15:24 1514762124.678656: $GPGSV,3,3,11,27,25,153,36,26,59,049,48,135,22,240,44*71
2017-12-31 18:15:24 1514762124.792000: $GPZDA,231525.00,31,12,2017,00,00*61
2017-12-31 18:15:24 1514762124.792128: $GPGGA,231525,3946.9563,N,08404.9865,W,2,11,0.80,306.08,M,-33.324,M,,*77
2017-12-31 18:15:24 1514762124.792194: $GPRMC,231525,A,3946.9563,N,08404.9865,W,0.0000,0.000,311217,,*31
2017-12-31 18:15:24 1514762124.792254: $GPGSA,A,3,22,23,9,3,16,8,14,31,27,26,135,,1.7,0.8,1.3*3B
2017-12-31 18:15:25 1514762125.417284: $GPZDA,231526.00,31,12,2017,00,00*62
2017-12-31 18:15:25 1514762125.417452: $GPGGA,231526,3946.9563,N,08404.9865,W,2,11,0.80,306.08,M,-33.324,M,,*74
2017-12-31 18:15:25 1514762125.417518: $GPRMC,231526,A,3946.9563,N,08404.9865,W,0.0000,0.000,311217,,*32
2017-12-31 18:15:25 1514762125.417580: $GPGSA,A,3,22,23,9,3,16,8,14,31,27,26,135,,1.7,0.8,1.3*3B
2017-12-31 18:15:26 1514762126.383000: $GPZDA,231527.00,31,12,2017,00,00*63
2017-12-31 18:15:26 1514762126.383161: $GPGGA,231527,3946.9563,N,08404.9865,W,2,11,0.80,306.08,M,-33.324,M,,*75
2017-12-31 18:15:26 1514762126.383229: $GPRMC,231527,A,3946.9563,N,08404.9865,W,0.0000,0.000,311217,,*33
2017-12-31 18:15:26 1514762126.383290: $GPGSA,A,3,22,23,9,3,16,8,14,31,27,26,135,,1.7,0.8,1.3*3B
2017-12-31 18:15:27 1514762127.686257: $GPGSV,3,1,11,22,20,213,34,23,56,304,45,09,23,312,43,03,30,232,44*76
2017-12-31 18:15:27 1514762127.686422: $GPGSV,3,2,11,16,84,183,44,08,02,180,22,14,13,135,33,31,26,076,46*7F
2017-12-31 18:15:27 1514762127.686486: $GPGSV,3,3,11,27,25,153,36,26,59,049,48,135,22,240,44*71
2017-12-31 18:15:27 1514762127.799570: $GPZDA,231528.00,31,12,2017,00,00*6C
2017-12-31 18:15:27 1514762127.799704: $GPGGA,231528,3946.9563,N,08404.9865,W,2,11,0.80,306.08,M,-33.324,M,,*7A
2017-12-31 18:15:27 1514762127.799768: $GPRMC,231528,A,3946.9563,N,08404.9865,W,0.0000,0.000,311217,,*3C
2017-12-31 18:15:27 1514762127.799831: $GPGSA,A,3,22,23,9,3,16,8,14,31,27,26,135,,1.7,0.8,1.3*3B
2017-12-31 18:15:28 1514762128.350537: $GPZDA,231529.00,31,12,2017,00,00*6D
2017-12-31 18:15:28 1514762128.350706: $GPGGA,231529,3946.9567,N,08404.9865,W,2,11,0.80,306.72,M,-33.324,M,,*72
2017-12-31 18:15:28 1514762128.350771: $GPRMC,231529,A,3946.9567,N,08404.9865,W,0.0000,0.000,311217,,*39
2017-12-31 18:15:28 1514762128.350832: $GPGSA,A,3,22,23,9,3,16,8,14,31,27,26,135,,1.7,0.8,1.3*3B
2017-12-31 18:15:29 1514762129.383853: $GPZDA,231530.00,31,12,2017,00,00*65
2017-12-31 18:15:29 1514762129.384037: $GPGGA,231530,3946.9567,N,08404.9865,W,2,11,0.80,306.72,M,-33.324,M,,*7A
2017-12-31 18:15:29 1514762129.384104: $GPRMC,231530,A,3946.9567,N,08404.9865,W,0.0000,0.000,311217,,*31
2017-12-31 18:15:29 1514762129.384165: $GPGSA,A,3,22,23,9,3,16,8,14,31,27,26,135,,1.7,0.8,1.3*3B
2017-12-31 18:15:30 1514762130.719133: $GPGSV,3,1,11,22,20,213,34,23,56,304,44,09,23,312,43,03,30,232,44*77
2017-12-31 18:15:30 1514762130.719299: $GPGSV,3,2,11,16,84,183,43,08,02,180,22,14,13,135,32,31,26,076,46*79
2017-12-31 18:15:30 1514762130.719410: $GPGSV,3,3,11,27,25,153,36,26,59,049,48,135,22,240,44*71
2017-12-31 18:15:30 1514762130.832555: $GPZDA,231531.00,31,12,2017,00,00*64
2017-12-31 18:15:30 1514762130.832700: $GPGGA,231531,3946.9567,N,08404.9865,W,2,11,0.80,306.72,M,-33.324,M,,*7B
2017-12-31 18:15:30 1514762130.832764: $GPRMC,231531,A,3946.9567,N,08404.9865,W,0.0000,0.000,311217,,*30
2017-12-31 18:15:30 1514762130.832824: $GPGSA,A,3,22,23,9,3,16,8,14,31,27,26,135,,1.7,0.8,1.3*3B
2017-12-31 18:15:31 1514762131.354583: $GPZDA,231532.00,31,12,2017,00,00*67
2017-12-31 18:15:31 1514762131.354755: $GPGGA,231532,3946.9567,N,08404.9865,W,2,11,0.80,306.72,M,-33.324,M,,*78
2017-12-31 18:15:31 1514762131.354821: $GPRMC,231532,A,3946.9567,N,08404.9865,W,0.0000,0.000,311217,,*33
2017-12-31 18:15:31 1514762131.354881: $GPGSA,A,3,22,23,9,3,16,8,14,31,27,26,135,,1.7,0.8,1.3*3B
2017-12-31 18:15:32 1514762132.374519: $GPZDA,231533.00,31,12,2017,00,00*66
2017-12-31 18:15:32 1514762132.374688: $GPGGA,231533,3946.9567,N,08404.9865,W,2,11,0.80,306.72,M,-33.324,M,,*79
2017-12-31 18:15:32 1514762132.374753: $GPRMC,231533,A,3946.9567,N,08404.9865,W,0.0000,0.000,311217,,*32
2017-12-31 18:15:32 1514762132.374813: $GPGSA,A,3,22,23,9,3,16,8,14,31,27,26,135,,1.7,0.8,1.3*3B
