2017-12-01 12:24:37 1512149077.757808: {"class":"VERSION","release":"3.16","rev":"3.16-4","proto_major":3,"proto_minor":11}
2017-12-01 12:24:37 1512149077.758293: {"class":"DEVICES","devices":[{"class":"DEVICE","path":"/dev/ttyUSB0","driver":"SiRF","subtype":"9\u0006GSD4e_4.1.2-P1_RPATCH.05-F-GPS-4R-1510281 11/03/2015 307","activated":"2017-12-01T17:24:37.309Z","flags":1,"native":1,"bps":4800,"parity":"N","stopbits":1,"cycle":1.00}]}
2017-12-01 12:24:37 1512149077.758481: {"class":"WATCH","enable":true,"json":false,"nmea":true,"raw":0,"scaled":false,"timing":false,"split24":false,"pps":false}
2017-12-01 12:24:38 1512149078.170703: $GPZDA,172439.00,01,12,2017,00,00*6A
2017-12-01 12:24:38 1512149078.170876: $GPGGA,172439,3946.9585,N,08404.9836,W,2,12,0.80,307.43,M,-33.324,M,,*7C
2017-12-01 12:24:38 1512149078.170943: $GPRMC,172439,A,3946.9585,N,08404.9836,W,0.0000,0.000,011217,,*34
2017-12-01 12:24:38 1512149078.171005: $GPGSA,A,3,10,13,15,18,20,21,24,27,5,29,32,138,2.0,0.8,1.5*35
2017-12-01 12:24:39 1512149079.505473: $GPGSV,3,1,12,10,26,285,36,13,26,045,44,15,58,051,47,18,57,304,47*71
2017-12-01 12:24:39 1512149079.505655: $GPGSV,3,2,12,20,49,075,46,21,79,250,43,24,36,136,48,27,17,310,41*76
2017-12-01 12:24:39 1512149079.505723: $GPGSV,3,3,12,05,01,090,20,29,07,189,28,32,04,226,08,138,38,213,46*4B
2017-12-01 12:24:39 1512149079.619075: $GPZDA,172440.00,01,12,2017,00,00*64
2017-12-01 12:24:39 1512149079.619268: $GPGGA,172440,3946.9585,N,08404.9836,W,2,11,0.80,307.43,M,-33.324,M,,*71
2017-12-01 12:24:39 1512149079.619335: $GPRMC,172440,A,3946.9585,N,08404.9836,W,0.0000,0.000,011217,,*3A
2017-12-01 12:24:39 1512149079.619424: $GPGSA,A,3,10,13,15,18,20,21,24,27,5,29,138,,2.0,0.8,1.5*34
2017-12-01 12:24:40 1512149080.338454: $GPZDA,172441.00,01,12,2017,00,00*65
2017-12-01 12:24:40 1512149080.338628: $GPGGA,172441,3946.9585,N,08404.9836,W,2,11,0.80,307.43,M,-33.324,M,,*70
2017-12-01 12:24:40 1512149080.338695: $GPRMC,172441,A,3946.9585,N,08404.9836,W,0.0000,0.000,011217,,*3B
2017-12-01 12:24:40 1512149080.338756: $GPGSA,A,3,10,13,15,18,20,21,24,27,5,29,138,,2.0,0.8,1.5*34
2017-12-01 12:24:41 1512149081.338003: $GPZDA,172442.00,01,12,2017,00,00*66
2017-12-01 12:24:41 1512149081.338176: $GPGGA,172442,3946.9589,N,08404.9835,W,2,11,0.80,306.66,M,-33.324,M,,*7A
2017-12-01 12:24:41 1512149081.338262: $GPRMC,172442,A,3946.9589,N,08404.9835,W,0.0000,0.000,011217,,*37
2017-12-01 12:24:41 1512149081.338325: $GPGSA,A,3,10,13,15,18,20,21,24,27,5,29,138,,2.0,0.8,1.5*34
2017-12-01 12:24:41 1512149081.338400: $GPGBS,172442,2.67,M,3.86,M,8.82,M*34
2017-12-01 12:24:42 1512149082.674458: $GPGSV,3,1,12,10,26,285,39,13,26,045,44,15,58,051,47,18,57,304,47*7E
2017-12-01 12:24:42 1512149082.677297: $GPGSV,3,2,12,20,49,075,46,21,79,250,42,24,36,136,48,27,17,310,39*78
2017-12-01 12:24:42 1512149082.677417: $GPGSV,3,3,12,05,01,090,12,29,07,189,28,32,04,226,16,138,38,213,46*45
2017-12-01 12:24:42 1512149082.788018: $GPZDA,172443.00,01,12,2017,00,00*67
2017-12-01 12:24:42 1512149082.788184: $GPGGA,172443,3946.9589,N,08404.9835,W,2,12,0.80,306.66,M,-33.324,M,,*78
2017-12-01 12:24:42 1512149082.788269: $GPRMC,172443,A,3946.9589,N,08404.9835,W,0.0000,0.000,011217,,*36
2017-12-01 12:24:42 1512149082.788332: $GPGSA,A,3,10,13,15,18,20,21,24,27,5,29,32,138,2.0,0.8,1.5*35
2017-12-01 12:24:43 1512149083.340081: $GPZDA,172444.00,01,12,2017,00,00*60
2017-12-01 12:24:43 1512149083.340253: $GPGGA,172444,3946.9589,N,08404.9835,W,2,12,0.80,306.66,M,-33.324,M,,*7F
2017-12-01 12:24:43 1512149083.340320: $GPRMC,172444,A,3946.9589,N,08404.9835,W,0.0000,0.000,011217,,*31
2017-12-01 12:24:43 1512149083.340400: $GPGSA,A,3,10,13,15,18,20,21,24,27,5,29,32,138,2.0,0.8,1.5*35
2017-12-01 12:24:44 1512149084.335817: $GPZDA,172445.00,01,12,2017,00,00*61
2017-12-01 12:24:44 1512149084.335989: $GPGGA,172445,3946.9589,N,08404.9835,W,2,12,0.80,306.66,M,-33.324,M,,*7E
2017-12-01 12:24:44 1512149084.336054: $GPRMC,172445,A,3946.9589,N,08404.9835,W,0.0000,0.000,011217,,*30
2017-12-01 12:24:44 1512149084.336115: $GPGSA,A,3,10,13,15,18,20,21,24,27,5,29,32,138,2.0,0.8,1.5*35
2017-12-01 12:24:45 1512149085.672890: $GPGSV,3,1,12,10,26,285,39,13,26,045,44,15,58,051,47,18,57,304,47*7E
2017-12-01 12:24:45 1512149085.673078: $GPGSV,3,2,12,20,49,075,46,21,79,250,42,24,36,136,48,27,17,310,39*78
2017-12-01 12:24:45 1512149085.673145: $GPGSV,3,3,12,05,01,090,16,29,07,189,28,32,04,226,22,138,38,213,47*47
2017-12-01 12:24:45 1512149085.786479: $GPZDA,172446.00,01,12,2017,00,00*62
2017-12-01 12:24:45 1512149085.786647: $GPGGA,172446,3946.9589,N,08404.9835,W,2,12,0.80,306.66,M,-33.324,M,,*7D
2017-12-01 12:24:45 1512149085.786713: $GPRMC,172446,A,3946.9589,N,08404.9835,W,0.0000,0.000,011217,,*33
2017-12-01 12:24:45 1512149085.786774: $GPGSA,A,3,10,13,15,18,20,21,24,27,5,29,32,138,2.0,0.8,1.5*35
2017-12-01 12:24:46 1512149086.338378: $GPZDA,172447.00,01,12,2017,00,00*63
2017-12-01 12:24:46 1512149086.338544: $GPGGA,172447,3946.9589,N,08404.9835,W,2,12,0.80,306.66,M,-33.324,M,,*7C
2017-12-01 12:24:46 1512149086.338611: $GPRMC,172447,A,3946.9589,N,08404.9835,W,0.0000,0.000,011217,,*32
2017-12-01 12:24:46 1512149086.338672: $GPGSA,A,3,10,13,15,18,20,21,24,27,5,29,32,138,2.0,0.8,1.5*35
2017-12-01 12:24:47 1512149087.337766: $GPZDA,172448.00,01,12,2017,00,00*6C
2017-12-01 12:24:47 1512149087.337934: $GPGGA,172448,3946.9589,N,08404.9835,W,2,12,0.80,306.66,M,-33.324,M,,*73
2017-12-01 12:24:47 1512149087.338003: $GPRMC,172448,A,3946.9589,N,08404.9835,W,0.0000,0.000,011217,,*3D
2017-12-01 12:24:47 1512149087.338064: $GPGSA,A,3,10,13,15,18,20,21,24,27,5,29,32,138,2.0,0.8,1.5*35
