2017-11-16 13:50:38 1510858238.125603: {"class":"VERSION","release":"3.17","rev":"3.17","proto_major":3,"proto_minor":12}
2017-11-16 13:50:38 1510858238.126055: {"class":"DEVICES","devices":[{"class":"DEVICE","path":"/dev/ttyUSB0","driver":"SiRF","subtype":"9\u0006GSD4e_4.1.2-P1_RPATCH.05-F-GPS-4R-1510281 11/03/2015 307","activated":"2017-11-16T18:50:37.952Z","flags":1,"native":1,"bps":4800,"parity":"N","stopbits":1,"cycle":1.00}]}
2017-11-16 13:50:38 1510858238.126171: {"class":"WATCH","enable":true,"json":false,"nmea":true,"raw":0,"scaled":false,"timing":false,"split24":false,"pps":false}
2017-11-16 13:50:38 1510858238.339023: $GPZDA,185037.00,16,11,2017,00,00*6D
2017-11-16 13:50:38 1510858238.339197: $GPGGA,185037,3946.9612,N,08404.9827,W,2,10,0.80,307.77,M,-33.324,M,,*76
2017-11-16 13:50:38 1510858238.339258: $GPRMC,185037,A,3946.9612,N,08404.9827,W,0.0000,0.000,161117,,*3E
2017-11-16 13:50:38 1510858238.339314: $GPGSA,A,3,10,13,15,18,20,21,24,27,32,138,,,1.6,0.8,1.3*08
2017-11-16 13:50:39 1510858239.366258: $GPZDA,185038.00,16,11,2017,00,00*62
2017-11-16 13:50:39 1510858239.366428: $GPGGA,185038,3946.9612,N,08404.9827,W,2,10,0.80,307.77,M,-33.324,M,,*79
2017-11-16 13:50:39 1510858239.366489: $GPRMC,185038,A,3946.9612,N,08404.9827,W,0.0000,0.000,161117,,*31
2017-11-16 13:50:39 1510858239.366544: $GPGSA,A,3,10,13,15,18,20,21,24,27,32,138,,,1.6,0.8,1.3*08
2017-11-16 13:50:40 1510858240.704718: $GPGSV,3,1,11,10,33,292,40,13,17,046,44,15,48,049,51,18,63,316,48*74
2017-11-16 13:50:40 1510858240.704886: $GPGSV,3,2,11,20,41,085,48,21,74,208,46,24,44,126,46,27,19,300,32*78
2017-11-16 13:50:40 1510858240.704944: $GPGSV,3,3,11,32,11,231,31,08,02,330,03,138,38,213,44*72
2017-11-16 13:50:40 1510858240.818056: $GPZDA,185039.00,16,11,2017,00,00*63
2017-11-16 13:50:40 1510858240.818212: $GPGGA,185039,3946.9612,N,08404.9827,W,2,10,0.80,307.77,M,-33.324,M,,*78
2017-11-16 13:50:40 1510858240.818271: $GPRMC,185039,A,3946.9612,N,08404.9827,W,0.0000,0.000,161117,,*30
2017-11-16 13:50:40 1510858240.818326: $GPGSA,A,3,10,13,15,18,20,21,24,27,32,138,,,1.6,0.8,1.3*08
2017-11-16 13:50:41 1510858241.342712: $GPZDA,185040.00,16,11,2017,00,00*6D
2017-11-16 13:50:41 1510858241.342870: $GPGGA,185040,3946.9612,N,08404.9827,W,2,10,0.80,307.77,M,-33.324,M,,*76
2017-11-16 13:50:41 1510858241.342929: $GPRMC,185040,A,3946.9612,N,08404.9827,W,0.0000,0.000,161117,,*3E
2017-11-16 13:50:41 1510858241.342985: $GPGSA,A,3,10,13,15,18,20,21,24,27,32,138,,,1.6,0.8,1.3*08
2017-11-16 13:50:42 1510858242.360756: $GPZDA,185041.00,16,11,2017,00,00*6C
2017-11-16 13:50:42 1510858242.360922: $GPGGA,185041,3946.9612,N,08404.9827,W,2,10,0.80,307.77,M,-33.324,M,,*77
2017-11-16 13:50:42 1510858242.360982: $GPRMC,185041,A,3946.9612,N,08404.9827,W,0.0000,0.000,161117,,*3F
2017-11-16 13:50:42 1510858242.361038: $GPGSA,A,3,10,13,15,18,20,21,24,27,32,138,,,1.6,0.8,1.3*08
2017-11-16 13:50:43 1510858243.706647: $GPGSV,3,1,11,10,33,292,41,13,17,046,44,15,48,049,51,18,63,316,48*75
2017-11-16 13:50:43 1510858243.706815: $GPGSV,3,2,11,20,41,085,49,21,74,208,46,24,44,126,46,27,19,300,32*79
2017-11-16 13:50:43 1510858243.706873: $GPGSV,3,3,11,32,11,231,31,08,02,330,02,138,38,213,43*74
2017-11-16 13:50:43 1510858243.820237: $GPZDA,185042.00,16,11,2017,00,00*6F
2017-11-16 13:50:43 1510858243.820456: $GPGGA,185042,3946.9612,N,08404.9827,W,2,10,0.80,307.77,M,-33.324,M,,*74
2017-11-16 13:50:43 1510858243.820520: $GPRMC,185042,A,3946.9612,N,08404.9827,W,0.0000,0.000,161117,,*3C
2017-11-16 13:50:43 1510858243.820576: $GPGSA,A,3,10,13,15,18,20,21,24,27,32,138,,,1.6,0.8,1.3*08
2017-11-16 13:50:44 1510858244.336175: $GPZDA,185043.00,16,11,2017,00,00*6E
2017-11-16 13:50:44 1510858244.336335: $GPGGA,185043,3946.9612,N,08404.9827,W,2,10,0.80,307.77,M,-33.324,M,,*75
2017-11-16 13:50:44 1510858244.336396: $GPRMC,185043,A,3946.9612,N,08404.9827,W,0.0000,0.000,161117,,*3D
2017-11-16 13:50:44 1510858244.336451: $GPGSA,A,3,10,13,15,18,20,21,24,27,32,138,,,1.6,0.8,1.3*08
2017-11-16 13:50:45 1510858245.366979: $GPZDA,185044.00,16,11,2017,00,00*69
2017-11-16 13:50:45 1510858245.367151: $GPGGA,185044,3946.9612,N,08404.9827,W,2,10,0.80,307.77,M,-33.324,M,,*72
2017-11-16 13:50:45 1510858245.367266: $GPRMC,185044,A,3946.9612,N,08404.9827,W,0.0000,0.000,161117,,*3A
2017-11-16 13:50:45 1510858245.367324: $GPGSA,A,3,10,13,15,18,20,21,24,27,32,138,,,1.6,0.8,1.3*08
2017-11-16 13:50:46 1510858246.676597: $GPGSV,3,1,11,10,33,292,41,13,17,046,44,15,48,049,51,18,63,316,48*75
2017-11-16 13:50:46 1510858246.676766: $GPGSV,3,2,11,20,41,085,49,21,74,208,47,24,44,126,46,27,19,300,32*78
2017-11-16 13:50:46 1510858246.676826: $GPGSV,3,3,11,32,11,231,32,08,02,330,00,138,38,213,43*75
2017-11-16 13:50:46 1510858246.790015: $GPZDA,185045.00,16,11,2017,00,00*68
2017-11-16 13:50:46 1510858246.790171: $GPGGA,185045,3946.9612,N,08404.9827,W,2,10,0.80,307.77,M,-33.324,M,,*73
2017-11-16 13:50:46 1510858246.790231: $GPRMC,185045,A,3946.9612,N,08404.9827,W,0.0000,0.000,161117,,*3B
2017-11-16 13:50:46 1510858246.790333: $GPGSA,A,3,10,13,15,18,20,21,24,27,32,138,,,1.6,0.8,1.3*08
2017-11-16 13:50:47 1510858247.415437: $GPZDA,185046.00,16,11,2017,00,00*6B
2017-11-16 13:50:47 1510858247.415602: $GPGGA,185046,3946.9612,N,08404.9827,W,2,10,0.80,307.77,M,-33.324,M,,*70
2017-11-16 13:50:47 1510858247.415663: $GPRMC,185046,A,3946.9612,N,08404.9827,W,0.0000,0.000,161117,,*38
2017-11-16 13:50:47 1510858247.415719: $GPGSA,A,3,10,13,15,18,20,21,24,27,32,138,,,1.6,0.8,1.3*08
