2017-12-29 14:55:21 1514577321.525313: {"class":"VERSION","release":"3.16","rev":"3.16-4","proto_major":3,"proto_minor":11}
2017-12-29 14:55:21 1514577321.525727: {"class":"DEVICES","devices":[{"class":"DEVICE","path":"/dev/ttyUSB0","driver":"SiRF","subtype":"9\u0006GSD4e_4.1.2-P1_RPATCH.05-F-GPS-4R-1510281 11/03/2015 307","activated":"2017-12-29T19:55:21.463Z","flags":1,"native":1,"bps":4800,"parity":"N","stopbits":1,"cycle":1.00}]}
2017-12-29 14:55:21 1514577321.525924: {"class":"WATCH","enable":true,"json":false,"nmea":true,"raw":0,"scaled":false,"timing":false,"split24":false,"pps":false}
2017-12-29 14:55:22 1514577322.426086: $GPZDA,195523.00,29,12,2017,00,00*63
2017-12-29 14:55:22 1514577322.426271: $GPGGA,195523,3946.9594,N,08404.9839,W,2,12,0.80,302.24,M,-33.324,M,,*74
2017-12-29 14:55:22 1514577322.426339: $GPRMC,195523,A,3946.9594,N,08404.9839,W,0.0000,0.000,291217,,*32
2017-12-29 14:55:22 1514577322.426402: $GPGSA,A,3,1,3,10,18,12,14,22,25,31,32,26,138,1.7,0.8,1.3*08
2017-12-29 14:55:23 1514577323.760235: $GPGSV,3,1,12,01,22,292,36,03,08,316,42,10,39,151,48,18,09,147,34*7B
2017-12-29 14:55:23 1514577323.760395: $GPGSV,3,2,12,12,18,042,41,14,69,346,44,22,27,310,41,25,41,079,51*73
2017-12-29 14:55:23 1514577323.760461: $GPGSV,3,3,12,31,66,235,46,32,64,051,51,26,11,180,30,138,38,213,44*42
2017-12-29 14:55:23 1514577323.873884: $GPZDA,195524.00,29,12,2017,00,00*64
2017-12-29 14:55:23 1514577323.874031: $GPGGA,195524,3946.9594,N,08404.9839,W,2,12,0.80,302.24,M,-33.324,M,,*73
2017-12-29 14:55:23 1514577323.874102: $GPRMC,195524,A,3946.9594,N,08404.9839,W,0.0000,0.000,291217,,*35
2017-12-29 14:55:23 1514577323.874165: $GPGSA,A,3,1,3,10,18,12,14,22,25,31,32,26,138,1.7,0.8,1.3*08
2017-12-29 14:55:24 1514577324.498913: $GPZDA,195525.00,29,12,2017,00,00*65
2017-12-29 14:55:24 1514577324.499089: $GPGGA,195525,3946.9599,N,08404.9839,W,2,12,0.80,302.88,M,-33.324,M,,*79
2017-12-29 14:55:24 1514577324.499158: $GPRMC,195525,A,3946.9599,N,08404.9839,W,0.0000,0.000,291217,,*39
2017-12-29 14:55:24 1514577324.499220: $GPGSA,A,3,1,3,10,18,12,14,22,25,31,32,26,138,1.7,0.8,1.3*08
2017-12-29 14:55:25 1514577325.382601: $GPZDA,195526.00,29,12,2017,00,00*66
2017-12-29 14:55:25 1514577325.386381: $GPGGA,195526,3946.9599,N,08404.9839,W,2,12,0.80,302.88,M,-33.324,M,,*7A
2017-12-29 14:55:25 1514577325.386498: $GPRMC,195526,A,3946.9599,N,08404.9839,W,0.0000,0.000,291217,,*3A
2017-12-29 14:55:25 1514577325.386562: $GPGSA,A,3,1,3,10,18,12,14,22,25,31,32,26,138,1.7,0.8,1.3*08
2017-12-29 14:55:26 1514577326.723037: $GPGSV,3,1,12,01,22,292,36,03,08,316,42,10,39,151,48,18,09,147,34*7B
2017-12-29 14:55:26 1514577326.723220: $GPGSV,3,2,12,12,18,042,42,14,69,346,44,22,27,310,40,25,41,079,51*71
2017-12-29 14:55:26 1514577326.723286: $GPGSV,3,3,12,31,66,235,46,32,64,051,51,26,11,180,29,138,38,213,43*4D
2017-12-29 14:55:26 1514577326.836636: $GPZDA,195527.00,29,12,2017,00,00*67
2017-12-29 14:55:26 1514577326.836771: $GPGGA,195527,3946.9599,N,08404.9839,W,2,12,0.80,302.88,M,-33.324,M,,*7B
2017-12-29 14:55:26 1514577326.836836: $GPRMC,195527,A,3946.9599,N,08404.9839,W,0.0000,0.000,291217,,*3B
2017-12-29 14:55:26 1514577326.836896: $GPGSA,A,3,1,3,10,18,12,14,22,25,31,32,26,138,1.7,0.8,1.3*08
2017-12-29 14:55:27 1514577327.425050: $GPZDA,195528.00,29,12,2017,00,00*68
2017-12-29 14:55:27 1514577327.425222: $GPGGA,195528,3946.9599,N,08404.9839,W,2,12,0.80,302.88,M,-33.324,M,,*74
2017-12-29 14:55:27 1514577327.425289: $GPRMC,195528,A,3946.9599,N,08404.9839,W,0.0000,0.000,291217,,*34
2017-12-29 14:55:27 1514577327.425350: $GPGSA,A,3,1,3,10,18,12,14,22,25,31,32,26,138,1.7,0.8,1.3*08
2017-12-29 14:55:28 1514577328.387343: $GPZDA,195529.00,29,12,2017,00,00*69
2017-12-29 14:55:28 1514577328.387496: $GPGGA,195529,3946.9599,N,08404.9839,W,2,12,0.80,302.88,M,-33.324,M,,*75
2017-12-29 14:55:28 1514577328.387562: $GPRMC,195529,A,3946.9599,N,08404.9839,W,0.0000,0.000,291217,,*35
2017-12-29 14:55:28 1514577328.387670: $GPGSA,A,3,1,3,10,18,12,14,22,25,31,32,26,138,1.7,0.8,1.3*08
2017-12-29 14:55:29 1514577329.762172: $GPGSV,3,1,12,01,22,292,36,03,08,316,42,10,39,151,48,18,09,147,34*7B
2017-12-29 14:55:29 1514577329.762394: $GPGSV,3,2,12,12,18,042,42,14,69,346,43,22,27,310,40,25,41,079,51*76
2017-12-29 14:55:29 1514577329.762463: $GPGSV,3,3,12,31,66,235,45,32,64,051,51,26,11,180,29,138,38,213,44*49
2017-12-29 14:55:29 1514577329.875785: $GPZDA,195530.00,29,12,2017,00,00*61
2017-12-29 14:55:29 1514577329.875943: $GPGGA,195530,3946.9595,N,08404.9840,W,2,12,0.80,303.65,M,-33.324,M,,*7D
2017-12-29 14:55:29 1514577329.876010: $GPRMC,195530,A,3946.9595,N,08404.9840,W,0.0000,0.000,291217,,*3F
2017-12-29 14:55:29 1514577329.876114: $GPGSA,A,3,1,3,10,18,12,14,22,25,31,32,26,138,1.7,0.8,1.3*08
2017-12-29 14:55:30 1514577330.427107: $GPZDA,195531.00,29,12,2017,00,00*60
2017-12-29 14:55:30 1514577330.427277: $GPGGA,195531,3946.9595,N,08404.9840,W,2,12,0.80,303.65,M,-33.324,M,,*7C
2017-12-29 14:55:30 1514577330.427356: $GPRMC,195531,A,3946.9595,N,08404.9840,W,0.0000,0.000,291217,,*3E
2017-12-29 14:55:30 1514577330.427467: $GPGSA,A,3,1,3,10,18,12,14,22,25,31,32,26,138,1.7,0.8,1.3*08
2017-12-29 14:55:31 1514577331.424781: $GPZDA,195532.00,29,12,2017,00,00*63
2017-12-29 14:55:31 1514577331.424974: $GPGGA,195532,3946.9595,N,08404.9840,W,2,12,0.80,303.65,M,-33.324,M,,*7F
2017-12-29 14:55:31 1514577331.425062: $GPRMC,195532,A,3946.9595,N,08404.9840,W,0.0000,0.000,291217,,*3D
2017-12-29 14:55:31 1514577331.425124: $GPGSA,A,3,1,3,10,18,12,14,22,25,31,32,26,138,1.7,0.8,1.3*08
