2017-12-01 12:03:15 1512147795.385851: {"class":"VERSION","release":"3.16","rev":"3.16-4","proto_major":3,"proto_minor":11}
2017-12-01 12:03:15 1512147795.386312: {"class":"DEVICES","devices":[{"class":"DEVICE","path":"/dev/ttyUSB0","driver":"SiRF","subtype":"9\u0006GSD4e_4.1.2-P1_RPATCH.05-F-GPS-4R-1510281 11/03/2015 307","activated":"2017-12-01T17:03:15.291Z","flags":1,"native":1,"bps":4800,"parity":"N","stopbits":1,"cycle":1.00}]}
2017-12-01 12:03:15 1512147795.386435: {"class":"WATCH","enable":true,"json":false,"nmea":true,"raw":0,"scaled":false,"timing":false,"split24":false,"pps":false}
2017-12-01 12:03:15 1512147795.404596: $GPZDA,170316.00,01,12,2017,00,00*62
2017-12-01 12:03:15 1512147795.404793: $GPGGA,170316,3946.9587,N,08404.9849,W,2,11,0.80,293.02,M,-33.324,M,,*74
2017-12-01 12:03:15 1512147795.404864: $GPRMC,170316,A,3946.9587,N,08404.9849,W,0.0000,0.000,011217,,*36
2017-12-01 12:03:15 1512147795.404947: $GPGSA,A,3,10,13,15,18,20,21,24,27,29,5,138,,2.0,0.8,1.5*34
2017-12-01 12:03:16 1512147796.387968: $GPZDA,170317.00,01,12,2017,00,00*63
2017-12-01 12:03:17 1512147797.087625: $GPGGA,170317,3946.9587,N,08404.9849,W,2,11,0.80,293.02,M,-33.324,M,,*75
2017-12-01 12:03:17 1512147797.087799: $GPRMC,170317,A,3946.9587,N,08404.9849,W,0.0000,0.000,011217,,*37
2017-12-01 12:03:17 1512147797.087865: $GPGSA,A,3,10,13,15,18,20,21,24,27,29,5,138,,2.0,0.8,1.5*34
2017-12-01 12:03:17 1512147797.741302: $GPGSV,3,1,12,10,19,277,37,13,35,046,45,15,68,055,44,18,50,294,46*7B
2017-12-01 12:03:17 1512147797.741523: $GPGSV,3,2,12,20,56,063,45,21,74,292,45,24,28,144,45,27,13,318,40*73
2017-12-01 12:03:17 1512147797.741591: $GPGSV,3,3,12,29,16,192,36,05,08,082,23,04,05,133,00,138,38,213,46*4C
2017-12-01 12:03:17 1512147797.854850: $GPZDA,170318.00,01,12,2017,00,00*6C
2017-12-01 12:03:17 1512147797.855035: $GPGGA,170318,3946.9587,N,08404.9849,W,2,11,0.80,293.02,M,-33.324,M,,*7A
2017-12-01 12:03:17 1512147797.855101: $GPRMC,170318,A,3946.9587,N,08404.9849,W,0.0000,0.000,011217,,*38
2017-12-01 12:03:17 1512147797.855162: $GPGSA,A,3,10,13,15,18,20,21,24,27,29,5,138,,2.0,0.8,1.5*34
2017-12-01 12:03:18 1512147798.480412: $GPZDA,170319.00,01,12,2017,00,00*6D
2017-12-01 12:03:18 1512147798.480578: $GPGGA,170319,3946.9587,N,08404.9849,W,2,11,0.80,293.02,M,-33.324,M,,*7B
2017-12-01 12:03:18 1512147798.480645: $GPRMC,170319,A,3946.9587,N,08404.9849,W,0.0000,0.000,011217,,*39
2017-12-01 12:03:18 1512147798.480706: $GPGSA,A,3,10,13,15,18,20,21,24,27,29,5,138,,2.0,0.8,1.5*34
2017-12-01 12:03:19 1512147799.389843: $GPZDA,170320.00,01,12,2017,00,00*67
2017-12-01 12:03:19 1512147799.390028: $GPGGA,170320,3946.9587,N,08404.9849,W,2,11,0.80,293.02,M,-33.324,M,,*71
2017-12-01 12:03:19 1512147799.390094: $GPRMC,170320,A,3946.9587,N,08404.9849,W,0.0000,0.000,011217,,*33
2017-12-01 12:03:19 1512147799.390156: $GPGSA,A,3,10,13,15,18,20,21,24,27,29,5,138,,2.0,0.8,1.5*34
2017-12-01 12:03:20 1512147800.737829: $GPGSV,3,1,12,10,19,277,37,13,35,046,44,15,68,055,44,18,50,294,46*7A
2017-12-01 12:03:20 1512147800.738021: $GPGSV,3,2,12,20,56,063,45,21,74,292,45,24,28,144,45,27,13,318,40*73
2017-12-01 12:03:20 1512147800.738089: $GPGSV,3,3,12,29,16,192,36,05,08,082,22,04,05,133,00,138,38,213,46*4D
2017-12-01 12:03:20 1512147800.851516: $GPZDA,170321.00,01,12,2017,00,00*66
2017-12-01 12:03:20 1512147800.851678: $GPGGA,170321,3946.9587,N,08404.9849,W,2,11,0.80,293.02,M,-33.324,M,,*70
2017-12-01 12:03:20 1512147800.851772: $GPRMC,170321,A,3946.9587,N,08404.9849,W,0.0000,0.000,011217,,*32
2017-12-01 12:03:20 1512147800.851863: $GPGSA,A,3,10,13,15,18,20,21,24,27,29,5,138,,2.0,0.8,1.5*34
2017-12-01 12:03:21 1512147801.388330: $GPZDA,170322.00,01,12,2017,00,00*65
2017-12-01 12:03:21 1512147801.392271: $GPGGA,170322,3946.9587,N,08404.9849,W,2,11,0.80,293.02,M,-33.324,M,,*73
2017-12-01 12:03:21 1512147801.392510: $GPRMC,170322,A,3946.9587,N,08404.9849,W,0.0000,0.000,011217,,*31
2017-12-01 12:03:21 1512147801.392636: $GPGSA,A,3,10,13,15,18,20,21,24,27,29,5,138,,2.0,0.8,1.5*34
2017-12-01 12:03:22 1512147802.389469: $GPZDA,170323.00,01,12,2017,00,00*64
2017-12-01 12:03:22 1512147802.389694: $GPGGA,170323,3946.9587,N,08404.9849,W,2,11,0.80,293.02,M,-33.324,M,,*72
2017-12-01 12:03:22 1512147802.389789: $GPRMC,170323,A,3946.9587,N,08404.9849,W,0.0000,0.000,011217,,*30
2017-12-01 12:03:22 1512147802.389868: $GPGSA,A,3,10,13,15,18,20,21,24,27,29,5,138,,2.0,0.8,1.5*34
2017-12-01 12:03:23 1512147803.740677: $GPGSV,3,1,12,10,19,277,37,13,35,046,44,15,68,055,44,18,50,294,46*7A
2017-12-01 12:03:23 1512147803.740893: $GPGSV,3,2,12,20,56,063,45,21,74,292,45,24,28,144,45,27,13,318,41*72
2017-12-01 12:03:23 1512147803.740961: $GPGSV,3,3,12,29,16,192,35,05,08,082,15,04,05,133,00,138,38,213,47*4B
2017-12-01 12:03:23 1512147803.852949: $GPZDA,170324.00,01,12,2017,00,00*63
2017-12-01 12:03:23 1512147803.853311: $GPGGA,170324,3946.9587,N,08404.9849,W,2,11,0.80,293.02,M,-33.324,M,,*75
2017-12-01 12:03:23 1512147803.853445: $GPRMC,170324,A,3946.9587,N,08404.9849,W,0.0000,0.000,011217,,*37
2017-12-01 12:03:23 1512147803.853567: $GPGSA,A,3,10,13,15,18,20,21,24,27,29,5,138,,2.0,0.8,1.5*34
2017-12-01 12:03:24 1512147804.391214: $GPZDA,170325.00,01,12,2017,00,00*62
2017-12-01 12:03:24 1512147804.391445: $GPGGA,170325,3946.9587,N,08404.9849,W,2,11,0.80,293.02,M,-33.324,M,,*74
2017-12-01 12:03:24 1512147804.391526: $GPRMC,170325,A,3946.9587,N,08404.9849,W,0.0000,0.000,011217,,*36
2017-12-01 12:03:24 1512147804.391588: $GPGSA,A,3,10,13,15,18,20,21,24,27,29,5,138,,2.0,0.8,1.5*34
2017-12-01 12:03:25 1512147805.405777: $GPZDA,170326.00,01,12,2017,00,00*61
2017-12-01 12:03:25 1512147805.405970: $GPGGA,170326,3946.9587,N,08404.9849,W,2,11,0.80,293.02,M,-33.324,M,,*77
2017-12-01 12:03:25 1512147805.406038: $GPRMC,170326,A,3946.9587,N,08404.9849,W,0.0000,0.000,011217,,*35
2017-12-01 12:03:25 1512147805.406100: $GPGSA,A,3,10,13,15,18,20,21,24,27,29,5,138,,2.0,0.8,1.5*34
