2018-01-11 20:05:40 1515719140.615244: {"class":"VERSION","release":"3.16","rev":"3.16-4","proto_major":3,"proto_minor":11}
2018-01-11 20:05:40 1515719140.615582: {"class":"DEVICES","devices":[{"class":"DEVICE","path":"/dev/ttyUSB0","driver":"SiRF","subtype":"9\u0006GSD4e_4.1.2-P1_RPATCH.05-F-GPS-4R-1510281 11/03/2015 307","activated":"2018-01-12T01:05:40.499Z","flags":1,"native":1,"bps":4800,"parity":"N","stopbits":1,"cycle":1.00}]}
2018-01-11 20:05:40 1515719140.615697: {"class":"WATCH","enable":true,"json":false,"nmea":true,"raw":0,"scaled":false,"timing":false,"split24":false,"pps":false}
2018-01-11 20:05:41 1515719141.693538: $GPGSV,3,1,10,07,53,313,42,08,72,139,46,09,50,232,41,11,18,168,45*75
2018-01-11 20:05:41 1515719141.693716: $GPGSV,3,2,10,16,25,058,44,23,31,190,47,27,49,055,50,28,12,256,37*7D
2018-01-11 20:05:41 1515719141.693781: $GPGSV,3,3,10,30,27,306,36,138,38,213,46*4D
2018-01-11 20:05:41 1515719141.806914: $GPZDA,010542.00,12,01,2018,00,00*6D
2018-01-11 20:05:41 1515719141.807051: $GPGGA,010542,3946.9589,N,08404.9823,W,2,10,0.80,309.63,M,-33.324,M,,*72
2018-01-11 20:05:41 1515719141.807116: $GPRMC,010542,A,3946.9589,N,08404.9823,W,0.0000,0.000,120118,,*3B
2018-01-11 20:05:41 1515719141.807176: $GPGSA,A,3,7,8,9,11,16,23,27,28,30,138,,,4.0,0.8,3.5*3E
2018-01-11 20:05:42 1515719142.356577: $GPZDA,010543.00,12,01,2018,00,00*6C
2018-01-11 20:05:42 1515719142.356723: $GPGGA,010543,3946.9589,N,08404.9823,W,2,10,0.80,309.63,M,-33.324,M,,*73
2018-01-11 20:05:42 1515719142.356788: $GPRMC,010543,A,3946.9589,N,08404.9823,W,0.0000,0.000,120118,,*3A
2018-01-11 20:05:42 1515719142.356848: $GPGSA,A,3,7,8,9,11,16,23,27,28,30,138,,,4.0,0.8,3.5*3E
2018-01-11 20:05:43 1515719143.357459: $GPZDA,010544.00,12,01,2018,00,00*6B
2018-01-11 20:05:43 1515719143.357630: $GPGGA,010544,3946.9589,N,08404.9823,W,2,10,0.80,309.63,M,-33.324,M,,*74
2018-01-11 20:05:43 1515719143.357697: $GPRMC,010544,A,3946.9589,N,08404.9823,W,0.0000,0.000,120118,,*3D
2018-01-11 20:05:43 1515719143.357758: $GPGSA,A,3,7,8,9,11,16,23,27,28,30,138,,,4.0,0.8,3.5*3E
2018-01-11 20:05:44 1515719144.696385: $GPGSV,3,1,10,07,53,313,42,08,72,139,45,09,50,232,42,11,18,168,46*76
2018-01-11 20:05:44 1515719144.696569: $GPGSV,3,2,10,16,25,058,44,23,31,190,47,27,49,055,50,28,12,256,37*7D
2018-01-11 20:05:44 1515719144.696634: $GPGSV,3,3,10,30,27,306,36,138,38,213,45*4E
2018-01-11 20:05:44 1515719144.810256: $GPZDA,010545.00,12,01,2018,00,00*6A
2018-01-11 20:05:44 1515719144.810396: $GPGGA,010545,3946.9589,N,08404.9823,W,2,10,0.80,309.63,M,-33.324,M,,*75
2018-01-11 20:05:44 1515719144.810460: $GPRMC,010545,A,3946.9589,N,08404.9823,W,0.0000,0.000,120118,,*3C
2018-01-11 20:05:44 1515719144.810520: $GPGSA,A,3,7,8,9,11,16,23,27,28,30,138,,,4.0,0.8,3.5*3E
2018-01-11 20:05:45 1515719145.358146: $GPZDA,010546.00,12,01,2018,00,00*69
2018-01-11 20:05:45 1515719145.358306: $GPGGA,010546,3946.9589,N,08404.9823,W,2,10,0.80,309.63,M,-33.324,M,,*76
2018-01-11 20:05:45 1515719145.358372: $GPRMC,010546,A,3946.9589,N,08404.9823,W,0.0000,0.000,120118,,*3F
2018-01-11 20:05:45 1515719145.358432: $GPGSA,A,3,7,8,9,11,16,23,27,28,30,138,,,4.0,0.8,3.5*3E
2018-01-11 20:05:46 1515719146.357786: $GPZDA,010547.00,12,01,2018,00,00*68
2018-01-11 20:05:46 1515719146.357961: $GPGGA,010547,3946.9589,N,08404.9823,W,2,10,0.80,309.63,M,-33.324,M,,*77
2018-01-11 20:05:46 1515719146.358029: $GPRMC,010547,A,3946.9589,N,08404.9823,W,0.0000,0.000,120118,,*3E
2018-01-11 20:05:46 1515719146.358091: $GPGSA,A,3,7,8,9,11,16,23,27,28,30,138,,,4.0,0.8,3.5*3E
2018-01-11 20:05:47 1515719147.692244: $GPGSV,3,1,10,07,53,313,43,08,72,139,45,09,50,232,42,11,18,168,46*77
2018-01-11 20:05:47 1515719147.692423: $GPGSV,3,2,10,16,25,058,44,23,31,190,47,27,49,055,50,28,12,256,36*7C
2018-01-11 20:05:47 1515719147.692489: $GPGSV,3,3,10,30,27,306,36,138,38,213,45*4E
2018-01-11 20:05:47 1515719147.805613: $GPZDA,010548.00,12,01,2018,00,00*67
2018-01-11 20:05:47 1515719147.805751: $GPGGA,010548,3946.9589,N,08404.9823,W,2,10,0.80,309.63,M,-33.324,M,,*78
2018-01-11 20:05:47 1515719147.805816: $GPRMC,010548,A,3946.9589,N,08404.9823,W,0.0000,0.000,120118,,*31
2018-01-11 20:05:47 1515719147.805932: $GPGSA,A,3,7,8,9,11,16,23,27,28,30,138,,,4.0,0.8,3.5*3E
2018-01-11 20:05:48 1515719148.355281: $GPZDA,010549.00,12,01,2018,00,00*66
2018-01-11 20:05:48 1515719148.357655: $GPGGA,010549,3946.9589,N,08404.9823,W,2,10,0.80,309.63,M,-33.324,M,,*79
2018-01-11 20:05:48 1515719148.357766: $GPRMC,010549,A,3946.9589,N,08404.9823,W,0.0000,0.000,120118,,*30
2018-01-11 20:05:48 1515719148.357829: $GPGSA,A,3,7,8,9,11,16,23,27,28,30,138,,,4.0,0.8,3.5*3E
2018-01-11 20:05:49 1515719149.368134: $GPZDA,010550.00,12,01,2018,00,00*6E
2018-01-11 20:05:49 1515719149.368307: $GPGGA,010550,3946.9589,N,08404.9823,W,2,10,0.80,309.63,M,-33.324,M,,*71
2018-01-11 20:05:49 1515719149.368376: $GPRMC,010550,A,3946.9589,N,08404.9823,W,0.0000,0.000,120118,,*38
2018-01-11 20:05:49 1515719149.368438: $GPGSA,A,3,7,8,9,11,16,23,27,28,30,138,,,4.0,0.8,3.5*3E
2018-01-11 20:05:50 1515719150.692639: $GPGSV,3,1,10,07,53,313,43,08,72,139,45,09,50,232,42,11,18,168,46*77
2018-01-11 20:05:50 1515719150.692818: $GPGSV,3,2,10,16,25,058,44,23,31,190,47,27,49,055,50,28,12,256,36*7C
2018-01-11 20:05:50 1515719150.692883: $GPGSV,3,3,10,30,27,306,36,138,38,213,46*4D
2018-01-11 20:05:50 1515719150.806258: $GPZDA,010551.00,12,01,2018,00,00*6F
2018-01-11 20:05:50 1515719150.806398: $GPGGA,010551,3946.9589,N,08404.9823,W,2,10,0.80,309.63,M,-33.324,M,,*70
2018-01-11 20:05:50 1515719150.806464: $GPRMC,010551,A,3946.9589,N,08404.9823,W,0.0000,0.000,120118,,*39
2018-01-11 20:05:50 1515719150.806525: $GPGSA,A,3,7,8,9,11,16,23,27,28,30,138,,,4.0,0.8,3.5*3E
2018-01-11 20:05:51 1515719151.357114: $GPZDA,010552.00,12,01,2018,00,00*6C
2018-01-11 20:05:51 1515719151.357260: $GPGGA,010552,3946.9589,N,08404.9823,W,2,10,0.80,309.63,M,-33.324,M,,*73
2018-01-11 20:05:51 1515719151.357325: $GPRMC,010552,A,3946.9589,N,08404.9823,W,0.0000,0.000,120118,,*3A
2018-01-11 20:05:51 1515719151.357386: $GPGSA,A,3,7,8,9,11,16,23,27,28,30,138,,,4.0,0.8,3.5*3E
