2017-12-01 12:12:21 1512148341.527408: {"class":"VERSION","release":"3.16","rev":"3.16-4","proto_major":3,"proto_minor":11}
2017-12-01 12:12:21 1512148341.527833: {"class":"DEVICES","devices":[{"class":"DEVICE","path":"/dev/ttyUSB0","driver":"SiRF","subtype":"9\u0006GSD4e_4.1.2-P1_RPATCH.05-F-GPS-4R-1510281 11/03/2015 307","activated":"2017-12-01T17:12:21.118Z","flags":1,"native":1,"bps":4800,"parity":"N","stopbits":1,"cycle":1.00}]}
2017-12-01 12:12:21 1512148341.527951: {"class":"WATCH","enable":true,"json":false,"nmea":true,"raw":0,"scaled":false,"timing":false,"split24":false,"pps":false}
2017-12-01 12:12:21 1512148341.725236: $GPZDA,171222.42,01,12,2017,00,00*63
2017-12-01 12:12:21 1512148341.725407: $GPGGA,171222,3946.9595,N,08404.9805,W,1,11,0.80,316.12,M,-33.324,M,,*76
2017-12-01 12:12:21 1512148341.725478: $GPRMC,171222,A,3946.9595,N,08404.9805,W,0.5912,129.172,011217,,*3B
2017-12-01 12:12:21 1512148341.725540: $GPGSA,A,3,10,13,15,18,20,21,24,27,29,5,138,,2.0,0.8,1.5*34
2017-12-01 12:12:21 1512148341.725602: $GPGBS,171222,10.70,M,15.43,M,35.28,M*02
2017-12-01 12:12:22 1512148342.993015: $GPGSV,3,1,12,10,22,282,31,13,31,045,37,15,63,052,36,18,53,298,36*7C
2017-12-01 12:12:22 1512148342.993201: $GPGSV,3,2,12,20,53,069,38,21,77,277,35,24,31,139,36,27,15,315,37*74
2017-12-01 12:12:22 1512148342.993267: $GPGSV,3,3,12,29,12,190,26,05,05,085,00,04,02,135,00,138,38,213,00*43
2017-12-01 12:12:23 1512148343.106343: $GPZDA,171223.10,01,12,2017,00,00*65
2017-12-01 12:12:23 1512148343.106485: $GPGGA,171223,3946.9595,N,08404.9805,W,1,09,0.80,316.12,M,-33.324,M,,*7E
2017-12-01 12:12:23 1512148343.106556: $GPRMC,171223,A,3946.9595,N,08404.9805,W,0.3155,129.994,011217,,*37
2017-12-01 12:12:23 1512148343.106617: $GPGSA,A,3,10,13,15,18,20,21,24,27,29,,,,2.0,0.8,1.5*3B
2017-12-01 12:12:23 1512148343.715978: $GPZDA,171224.00,01,12,2017,00,00*63
2017-12-01 12:12:23 1512148343.716151: $GPGGA,171224,3946.9595,N,08404.9805,W,1,09,0.80,316.12,M,-33.324,M,,*79
2017-12-01 12:12:23 1512148343.716219: $GPRMC,171224,A,3946.9595,N,08404.9805,W,0.0000,0.000,011217,,*3C
2017-12-01 12:12:23 1512148343.716280: $GPGSA,A,3,10,13,15,18,20,21,24,27,29,,,,2.0,0.8,1.5*3B
2017-12-01 12:12:23 1512148343.716339: $GPGBS,171224,10.70,M,15.43,M,35.28,M*04
2017-12-01 12:12:24 1512148344.251188: $GPZDA,171225.00,01,12,2017,00,00*62
2017-12-01 12:12:24 1512148344.251399: $GPGGA,171225,3946.9595,N,08404.9811,W,1,09,0.80,314.64,M,-33.324,M,,*7E
2017-12-01 12:12:24 1512148344.251480: $GPRMC,171225,A,3946.9595,N,08404.9811,W,0.0000,0.000,011217,,*38
2017-12-01 12:12:24 1512148344.251545: $GPGSA,A,3,10,13,15,18,20,21,24,27,29,,,,2.0,0.8,1.5*3B
2017-12-01 12:12:24 1512148344.251603: $GPGBS,171225,10.70,M,15.43,M,35.28,M*05
2017-12-01 12:12:25 1512148345.750500: $GPGSV,3,1,12,10,22,282,41,13,31,045,45,15,63,052,45,18,53,298,46*7D
2017-12-01 12:12:25 1512148345.750669: $GPGSV,3,2,12,20,53,069,47,21,77,277,44,24,31,139,44,27,15,315,46*79
2017-12-01 12:12:25 1512148345.750735: $GPGSV,3,3,12,29,12,190,33,05,05,085,21,04,02,135,00,138,38,213,47*47
2017-12-01 12:12:25 1512148345.864144: $GPZDA,171226.00,01,12,2017,00,00*61
2017-12-01 12:12:25 1512148345.864314: $GPGGA,171226,3946.9598,N,08404.9810,W,1,11,0.80,313.88,M,-33.324,M,,*7D
2017-12-01 12:12:25 1512148345.864381: $GPRMC,171226,A,3946.9598,N,08404.9810,W,0.0000,0.000,011217,,*37
2017-12-01 12:12:25 1512148345.864447: $GPGSA,A,3,10,13,15,18,20,21,24,27,29,5,138,,2.0,0.8,1.5*34
2017-12-01 12:12:26 1512148346.489497: $GPZDA,171227.00,01,12,2017,00,00*60
2017-12-01 12:12:26 1512148346.489674: $GPGGA,171227,3946.9598,N,08404.9809,W,1,11,0.80,312.47,M,-33.324,M,,*76
2017-12-01 12:12:26 1512148346.489741: $GPRMC,171227,A,3946.9598,N,08404.9809,W,0.0000,0.000,011217,,*3E
2017-12-01 12:12:26 1512148346.489803: $GPGSA,A,3,10,13,15,18,20,21,24,27,29,5,138,,2.0,0.8,1.5*34
2017-12-01 12:12:27 1512148347.417968: $GPZDA,171228.00,01,12,2017,00,00*6F
2017-12-01 12:12:27 1512148347.418143: $GPGGA,171228,3946.9597,N,08404.9809,W,1,11,0.80,311.07,M,-33.324,M,,*71
2017-12-01 12:12:27 1512148347.418211: $GPRMC,171228,A,3946.9597,N,08404.9809,W,0.0000,0.000,011217,,*3E
2017-12-01 12:12:27 1512148347.418324: $GPGSA,A,3,10,13,15,18,20,21,24,27,29,5,138,,2.0,0.8,1.5*34
2017-12-01 12:12:28 1512148348.750798: $GPGSV,3,1,12,10,22,282,41,13,31,045,45,15,63,052,45,18,53,298,46*7D
2017-12-01 12:12:28 1512148348.750975: $GPGSV,3,2,12,20,53,069,47,21,77,277,44,24,31,139,44,27,15,315,45*7A
2017-12-01 12:12:28 1512148348.751043: $GPGSV,3,3,12,29,12,190,33,05,05,085,21,04,02,135,00,138,38,213,47*47
2017-12-01 12:12:28 1512148348.864095: $GPZDA,171229.00,01,12,2017,00,00*6E
2017-12-01 12:12:28 1512148348.864295: $GPGGA,171229,3946.9596,N,08404.9824,W,2,11,1.00,300.23,M,-33.324,M,,*72
2017-12-01 12:12:28 1512148348.864397: $GPRMC,171229,A,3946.9596,N,08404.9824,W,0.0000,0.000,011217,,*31
2017-12-01 12:12:28 1512148348.864467: $GPGSA,A,3,10,13,15,18,20,21,24,27,29,5,138,,2.0,1.0,1.5*3D
2017-12-01 12:12:29 1512148349.416198: $GPZDA,171230.00,01,12,2017,00,00*66
2017-12-01 12:12:29 1512148349.416362: $GPGGA,171230,3946.9596,N,08404.9824,W,2,11,0.80,300.23,M,-33.324,M,,*73
2017-12-01 12:12:29 1512148349.416433: $GPRMC,171230,A,3946.9596,N,08404.9824,W,0.0000,0.000,011217,,*39
2017-12-01 12:12:29 1512148349.416494: $GPGSA,A,3,10,13,15,18,20,21,24,27,29,5,138,,2.0,0.8,1.5*34
2017-12-01 12:12:30 1512148350.417153: $GPZDA,171231.00,01,12,2017,00,00*67
2017-12-01 12:12:30 1512148350.417332: $GPGGA,171231,3946.9596,N,08404.9824,W,2,11,0.80,300.23,M,-33.324,M,,*72
2017-12-01 12:12:30 1512148350.417404: $GPRMC,171231,A,3946.9596,N,08404.9824,W,0.0000,0.000,011217,,*38
2017-12-01 12:12:30 1512148350.417468: $GPGSA,A,3,10,13,15,18,20,21,24,27,29,5,138,,2.0,0.8,1.5*34
