2017-11-16 14:08:08 1510859288.657780: {"class":"VERSION","release":"3.17","rev":"3.17","proto_major":3,"proto_minor":12}
2017-11-16 14:08:08 1510859288.658277: {"class":"DEVICES","devices":[{"class":"DEVICE","path":"/dev/ttyUSB0","driver":"SiRF","subtype":"9\u0006GSD4e_4.1.2-P1_RPATCH.05-F-GPS-4R-1510281 11/03/2015 307","activated":"2017-11-16T19:08:08.594Z","flags":1,"native":1,"bps":4800,"parity":"N","stopbits":1,"cycle":1.00}]}
2017-11-16 14:08:08 1510859288.658400: {"class":"WATCH","enable":true,"json":false,"nmea":true,"raw":0,"scaled":false,"timing":false,"split24":false,"pps":false}
2017-11-16 14:08:09 1510859289.868815: $GPGSV,3,1,12,10,39,298,40,13,10,048,33,15,40,051,50,18,69,330,48*70
2017-11-16 14:08:09 1510859289.868987: $GPGSV,3,2,12,20,35,093,47,21,67,193,47,24,49,115,48,32,18,235,45*73
2017-11-16 14:08:09 1510859289.869047: $GPGSV,3,3,12,08,05,324,25,27,19,292,37,14,02,231,00,138,38,213,44*43
2017-11-16 14:08:09 1510859289.982134: $GPZDA,190808.00,16,11,2017,00,00*6D
2017-11-16 14:08:09 1510859289.982295: $GPGGA,190808,3946.9566,N,08404.9851,W,2,11,0.80,305.47,M,-33.324,M,,*77
2017-11-16 14:08:09 1510859289.982357: $GPRMC,190808,A,3946.9566,N,08404.9851,W,0.0000,0.000,161117,,*3F
2017-11-16 14:08:09 1510859289.982414: $GPGSA,A,3,10,13,15,18,20,21,24,32,8,27,138,,1.6,0.8,1.3*30
2017-11-16 14:08:10 1510859290.565599: $GPZDA,190809.00,16,11,2017,00,00*6C
2017-11-16 14:08:10 1510859290.565758: $GPGGA,190809,3946.9566,N,08404.9851,W,2,11,0.80,305.47,M,-33.324,M,,*76
2017-11-16 14:08:10 1510859290.565818: $GPRMC,190809,A,3946.9566,N,08404.9851,W,0.0000,0.000,161117,,*3E
2017-11-16 14:08:10 1510859290.565873: $GPGSA,A,3,10,13,15,18,20,21,24,32,8,27,138,,1.6,0.8,1.3*30
2017-11-16 14:08:11 1510859291.561402: $GPZDA,190810.00,16,11,2017,00,00*64
2017-11-16 14:08:11 1510859291.561570: $GPGGA,190810,3946.9566,N,08404.9851,W,2,11,0.80,305.47,M,-33.324,M,,*7E
2017-11-16 14:08:11 1510859291.561631: $GPRMC,190810,A,3946.9566,N,08404.9851,W,0.0000,0.000,161117,,*36
2017-11-16 14:08:11 1510859291.561687: $GPGSA,A,3,10,13,15,18,20,21,24,32,8,27,138,,1.6,0.8,1.3*30
2017-11-16 14:08:12 1510859292.865947: $GPGSV,3,1,12,10,39,298,41,13,10,048,33,15,40,051,51,18,69,330,48*70
2017-11-16 14:08:12 1510859292.866152: $GPGSV,3,2,12,20,35,093,47,21,67,193,47,24,49,115,48,32,18,235,46*70
2017-11-16 14:08:12 1510859292.866234: $GPGSV,3,3,12,08,05,324,25,27,19,292,36,14,02,231,00,138,38,213,45*43
2017-11-16 14:08:12 1510859292.977988: $GPZDA,190811.00,16,11,2017,00,00*65
2017-11-16 14:08:12 1510859292.978148: $GPGGA,190811,3946.9566,N,08404.9851,W,2,11,0.80,305.47,M,-33.324,M,,*7F
2017-11-16 14:08:12 1510859292.978208: $GPRMC,190811,A,3946.9566,N,08404.9851,W,0.0000,0.000,161117,,*37
2017-11-16 14:08:12 1510859292.978264: $GPGSA,A,3,10,13,15,18,20,21,24,32,8,27,138,,1.6,0.8,1.3*30
2017-11-16 14:08:13 1510859293.561392: $GPZDA,190812.00,16,11,2017,00,00*66
2017-11-16 14:08:13 1510859293.561568: $GPGGA,190812,3946.9569,N,08404.9850,W,2,11,0.80,304.71,M,-33.324,M,,*76
2017-11-16 14:08:13 1510859293.561631: $GPRMC,190812,A,3946.9569,N,08404.9850,W,0.0000,0.000,161117,,*3A
2017-11-16 14:08:13 1510859293.561687: $GPGSA,A,3,10,13,15,18,20,21,24,32,8,27,138,,1.6,0.8,1.3*30
2017-11-16 14:08:14 1510859294.532977: $GPZDA,190813.00,16,11,2017,00,00*67
2017-11-16 14:08:14 1510859294.533146: $GPGGA,190813,3946.9569,N,08404.9850,W,2,11,0.80,304.71,M,-33.324,M,,*77
2017-11-16 14:08:14 1510859294.533208: $GPRMC,190813,A,3946.9569,N,08404.9850,W,0.0000,0.000,161117,,*3B
2017-11-16 14:08:14 1510859294.533264: $GPGSA,A,3,10,13,15,18,20,21,24,32,8,27,138,,1.6,0.8,1.3*30
2017-11-16 14:08:15 1510859295.868722: $GPGSV,3,1,12,10,39,298,40,13,10,048,33,15,40,051,51,18,69,330,48*71
2017-11-16 14:08:15 1510859295.868885: $GPGSV,3,2,12,20,35,093,46,21,67,193,47,24,49,115,48,32,18,235,46*71
2017-11-16 14:08:15 1510859295.868946: $GPGSV,3,3,12,08,05,324,25,27,19,292,36,14,02,231,00,138,38,213,44*42
2017-11-16 14:08:15 1510859295.982139: $GPZDA,190814.00,16,11,2017,00,00*60
2017-11-16 14:08:15 1510859295.982297: $GPGGA,190814,3946.9569,N,08404.9850,W,2,11,0.80,304.71,M,-33.324,M,,*70
2017-11-16 14:08:15 1510859295.982410: $GPRMC,190814,A,3946.9569,N,08404.9850,W,0.0000,0.000,161117,,*3C
2017-11-16 14:08:15 1510859295.982468: $GPGSA,A,3,10,13,15,18,20,21,24,32,8,27,138,,1.6,0.8,1.3*30
2017-11-16 14:08:16 1510859296.564009: $GPZDA,190815.00,16,11,2017,00,00*61
2017-11-16 14:08:16 1510859296.564179: $GPGGA,190815,3946.9569,N,08404.9850,W,2,11,0.80,304.71,M,-33.324,M,,*71
2017-11-16 14:08:16 1510859296.564242: $GPRMC,190815,A,3946.9569,N,08404.9850,W,0.0000,0.000,161117,,*3D
2017-11-16 14:08:16 1510859296.564298: $GPGSA,A,3,10,13,15,18,20,21,24,32,8,27,138,,1.6,0.8,1.3*30
2017-11-16 14:08:17 1510859297.533788: $GPZDA,190816.00,16,11,2017,00,00*62
2017-11-16 14:08:17 1510859297.533952: $GPGGA,190816,3946.9569,N,08404.9850,W,2,11,0.80,304.71,M,-33.324,M,,*72
2017-11-16 14:08:17 1510859297.534012: $GPRMC,190816,A,3946.9569,N,08404.9850,W,0.0000,0.000,161117,,*3E
2017-11-16 14:08:17 1510859297.534068: $GPGSA,A,3,10,13,15,18,20,21,24,32,8,27,138,,1.6,0.8,1.3*30
