2017-11-15 19:27:53 1510792073.663738: {"class":"VERSION","release":"3.17","rev":"3.17","proto_major":3,"proto_minor":12}
2017-11-15 19:27:53 1510792073.664217: {"class":"DEVICES","devices":[{"class":"DEVICE","path":"/dev/ttyUSB0","driver":"SiRF","subtype":"9\u0006GSD4e_4.1.2-P1_RPATCH.05-F-GPS-4R-1510281 11/03/2015 307","activated":"2017-11-16T00:27:53.487Z","flags":1,"native":1,"bps":4800,"parity":"N","stopbits":1,"cycle":1.00}]}
2017-11-15 19:27:53 1510792073.664337: {"class":"WATCH","enable":true,"json":false,"nmea":true,"raw":0,"scaled":false,"timing":false,"split24":false,"pps":false}
2017-11-15 19:27:54 1510792074.681190: $GPGSV,3,1,12,32,37,106,23,31,68,022,22,16,21,190,17,26,52,172,22*7A
2017-11-15 19:27:54 1510792074.681376: $GPGSV,3,2,12,01,06,253,06,29,10,072,09,22,50,273,04,14,56,091,17*77
2017-11-15 19:27:54 1510792074.681437: $GPGSV,3,3,12,23,10,300,13,03,39,300,00,25,18,040,00,138,38,213,00*4A
2017-11-15 19:27:54 1510792074.794815: $GPZDA,002753.00,16,11,2017,00,00*66
2017-11-15 19:27:54 1510792074.794961: $GPGGA,002753,3946.9620,N,08404.9518,W,1,07,1.40,273.12,M,-33.324,M,,*74
2017-11-15 19:27:54 1510792074.795036: $GPRMC,002753,A,3946.9620,N,08404.9518,W,2.0841,3.445,161117,,*3C
2017-11-15 19:27:54 1510792074.795093: $GPGSA,A,3,32,31,16,26,29,14,23,,,,,,3.4,1.4,2.9*34
2017-11-15 19:27:55 1510792075.345881: $GPZDA,002754.00,16,11,2017,00,00*61
2017-11-15 19:27:55 1510792075.346040: $GPGGA,002754,3946.9624,N,08404.9511,W,1,07,1.40,273.84,M,-33.324,M,,*71
2017-11-15 19:27:55 1510792075.346100: $GPRMC,002754,A,3946.9624,N,08404.9511,W,2.2922,16.048,161117,,*0D
2017-11-15 19:27:55 1510792075.346155: $GPGSA,A,3,32,31,16,26,29,14,23,,,,,,3.4,1.4,2.9*34
2017-11-15 19:27:56 1510792076.330015: $GPZDA,002755.00,16,11,2017,00,00*60
2017-11-15 19:27:56 1510792076.330178: $GPGGA,002755,3946.9627,N,08404.9510,W,1,07,1.40,273.08,M,-33.324,M,,*76
2017-11-15 19:27:56 1510792076.330239: $GPRMC,002755,A,3946.9627,N,08404.9510,W,1.7157,28.752,161117,,*03
2017-11-15 19:27:56 1510792076.330295: $GPGSA,A,3,32,31,16,26,29,14,23,,,,,,3.4,1.4,2.9*34
2017-11-15 19:27:57 1510792077.665360: $GPGSV,3,1,12,32,37,106,23,31,68,022,22,16,21,190,17,26,52,172,22*7A
2017-11-15 19:27:57 1510792077.665539: $GPGSV,3,2,12,01,06,253,05,29,10,072,08,22,50,273,04,14,56,091,17*75
2017-11-15 19:27:57 1510792077.670738: $GPGSV,3,3,12,23,10,300,12,25,18,040,09,03,39,300,00,138,38,213,00*42
2017-11-15 19:27:57 1510792077.780345: $GPZDA,002756.00,16,11,2017,00,00*63
2017-11-15 19:27:57 1510792077.780503: $GPGGA,002756,3946.9631,N,08404.9510,W,1,07,1.40,273.72,M,-33.324,M,,*7F
2017-11-15 19:27:57 1510792077.780564: $GPRMC,002756,A,3946.9631,N,08404.9510,W,1.9132,356.511,161117,,*35
2017-11-15 19:27:57 1510792077.780619: $GPGSA,A,3,32,31,16,26,29,14,23,,,,,,3.4,1.4,2.9*34
2017-11-15 19:27:58 1510792078.345400: $GPZDA,002757.00,16,11,2017,00,00*62
2017-11-15 19:27:58 1510792078.345565: $GPGGA,002757,3946.9639,N,08404.9517,W,1,07,1.40,273.51,M,-33.324,M,,*70
2017-11-15 19:27:58 1510792078.345627: $GPRMC,002757,A,3946.9639,N,08404.9517,W,1.8120,347.792,161117,,*30
2017-11-15 19:27:58 1510792078.345684: $GPGSA,A,3,32,31,16,26,29,14,23,,,,,,3.4,1.4,2.9*34
2017-11-15 19:27:59 1510792079.345543: $GPZDA,002758.00,16,11,2017,00,00*6D
2017-11-15 19:27:59 1510792079.345714: $GPGGA,002758,3946.9639,N,08404.9517,W,1,07,1.80,273.51,M,-33.324,M,,*73
2017-11-15 19:27:59 1510792079.345776: $GPRMC,002758,A,3946.9639,N,08404.9517,W,1.1323,338.868,161117,,*35
2017-11-15 19:27:59 1510792079.345833: $GPGSA,A,3,32,31,16,26,29,14,23,,,,,,3.4,1.8,2.9*38
2017-11-15 19:28:00 1510792080.665117: $GPGSV,3,1,12,32,37,106,22,31,68,022,22,16,21,190,18,26,52,172,22*74
2017-11-15 19:28:00 1510792080.665303: $GPGSV,3,2,12,01,06,253,05,29,10,072,06,22,50,273,00,14,56,091,18*70
2017-11-15 19:28:00 1510792080.665363: $GPGSV,3,3,12,23,10,300,12,25,18,040,10,03,39,300,00,138,38,213,00*4A
2017-11-15 19:28:00 1510792080.778284: $GPZDA,002759.00,16,11,2017,00,00*6C
2017-11-15 19:28:00 1510792080.778457: $GPGGA,002759,3946.9643,N,08404.9517,W,1,06,1.80,274.15,M,-33.324,M,,*79
2017-11-15 19:28:00 1510792080.778570: $GPRMC,002759,A,3946.9643,N,08404.9517,W,0.8709,3.298,161117,,*33
2017-11-15 19:28:00 1510792080.778627: $GPGSA,A,3,32,31,16,26,14,23,,,,,,,3.4,1.8,2.9*33
2017-11-15 19:28:01 1510792081.403640: $GPZDA,002800.00,16,11,2017,00,00*6F
2017-11-15 19:28:01 1510792081.403811: $GPGGA,002800,3946.9643,N,08404.9517,W,1,06,1.80,274.15,M,-33.324,M,,*7A
2017-11-15 19:28:01 1510792081.403873: $GPRMC,002800,A,3946.9643,N,08404.9517,W,0.7278,23.636,161117,,*0E
2017-11-15 19:28:01 1510792081.403929: $GPGSA,A,3,32,31,16,26,14,23,,,,,,,3.4,1.8,2.9*33
2017-11-15 19:28:02 1510792082.330050: $GPZDA,002801.00,16,11,2017,00,00*6E
2017-11-15 19:28:02 1510792082.330212: $GPGGA,002801,3946.9644,N,08404.9524,W,1,06,1.80,274.07,M,-33.324,M,,*7F
2017-11-15 19:28:02 1510792082.330272: $GPRMC,002801,A,3946.9644,N,08404.9524,W,0.3423,4.197,161117,,*3D
2017-11-15 19:28:02 1510792082.330327: $GPGSA,A,3,32,31,16,26,14,23,,,,,,,3.4,1.8,2.9*33
2017-11-15 19:28:03 1510792083.681621: $GPGSV,3,1,12,32,37,106,22,31,68,022,22,16,21,190,12,26,52,172,21*7D
2017-11-15 19:28:03 1510792083.681782: $GPGSV,3,2,12,01,06,253,04,29,10,072,08,22,50,273,00,14,56,091,18*7F
2017-11-15 19:28:03 1510792083.681841: $GPGSV,3,3,12,23,10,300,12,25,18,040,10,03,39,300,00,135,23,238,00*44
