2017-11-15 18:25:50 1510788350.292602: {"class":"VERSION","release":"3.17","rev":"3.17","proto_major":3,"proto_minor":12}
2017-11-15 18:25:50 1510788350.293215: {"class":"DEVICES","devices":[{"class":"DEVICE","path":"/dev/ttyUSB0","driver":"SiRF","subtype":"9\u0006GSD4e_4.1.2-P1_RPATCH.05-F-GPS-4R-1510281 11/03/2015 307","activated":"2017-11-15T23:25:50.215Z","flags":1,"native":1,"bps":4800,"parity":"N","stopbits":1,"cycle":1.00}]}
2017-11-15 18:25:50 1510788350.293348: {"class":"WATCH","enable":true,"json":false,"nmea":true,"raw":0,"scaled":false,"timing":false,"split24":false,"pps":false}
2017-11-15 18:25:50 1510788350.328830: $GPZDA,232549.00,15,11,2017,00,00*6D
2017-11-15 18:25:50 1510788350.328959: $GPGGA,232549,3946.9572,N,08404.9519,W,1,08,2.80,293.17,M,-33.324,M,,*72
2017-11-15 18:25:50 1510788350.329018: $GPRMC,232549,A,3946.9572,N,08404.9519,W,0.4844,93.794,151117,,*07
2017-11-15 18:25:50 1510788350.329073: $GPGSA,A,3,10,26,25,1,31,32,14,22,,,,,3.4,2.8,2.9*01
2017-11-15 18:25:51 1510788351.696618: $GPGSV,3,1,10,10,25,156,08,26,22,178,08,25,37,060,24,01,20,277,19*7E
2017-11-15 18:25:51 1510788351.696832: $GPGSV,3,2,10,31,76,265,18,32,57,073,19,14,70,030,23,22,37,304,16*79
2017-11-15 18:25:51 1510788351.696894: $GPGSV,3,3,10,03,18,316,15,12,09,034,00*7F
2017-11-15 18:25:51 1510788351.810008: $GPZDA,232550.00,15,11,2017,00,00*65
2017-11-15 18:25:51 1510788351.810207: $GPGGA,232550,3946.9572,N,08404.9519,W,1,08,1.00,293.17,M,-33.324,M,,*71
2017-11-15 18:25:51 1510788351.810270: $GPRMC,232550,A,3946.9572,N,08404.9519,W,0.7278,203.636,151117,,*3B
2017-11-15 18:25:51 1510788351.810354: $GPGSA,A,3,10,26,25,1,31,32,14,22,,,,,3.4,1.0,2.9*0A
2017-11-15 18:25:52 1510788352.360877: $GPZDA,232551.00,15,11,2017,00,00*64
2017-11-15 18:25:52 1510788352.361042: $GPGGA,232551,3946.9568,N,08404.9519,W,1,08,1.00,292.53,M,-33.324,M,,*7A
2017-11-15 18:25:52 1510788352.361103: $GPRMC,232551,A,3946.9568,N,08404.9519,W,0.8414,219.347,151117,,*3A
2017-11-15 18:25:52 1510788352.361176: $GPGSA,A,3,10,26,25,1,31,32,14,22,,,,,3.4,1.0,2.9*0A
2017-11-15 18:25:53 1510788353.329351: $GPZDA,232552.00,15,11,2017,00,00*67
2017-11-15 18:25:53 1510788353.329531: $GPGGA,232552,3946.9568,N,08404.9519,W,1,08,1.00,292.53,M,-33.324,M,,*79
2017-11-15 18:25:53 1510788353.329593: $GPRMC,232552,A,3946.9568,N,08404.9519,W,0.7278,203.636,151117,,*32
2017-11-15 18:25:53 1510788353.329648: $GPGSA,A,3,10,26,25,1,31,32,14,22,,,,,3.4,1.0,2.9*0A
2017-11-15 18:25:54 1510788354.696297: $GPGSV,3,1,10,10,25,156,10,26,22,178,08,25,37,060,24,01,20,277,19*77
2017-11-15 18:25:54 1510788354.696474: $GPGSV,3,2,10,31,76,265,19,32,57,073,20,14,70,030,23,22,37,304,15*71
2017-11-15 18:25:54 1510788354.696535: $GPGSV,3,3,10,03,18,316,00,12,09,034,00*7B
2017-11-15 18:25:54 1510788354.809565: $GPZDA,232553.00,15,11,2017,00,00*66
2017-11-15 18:25:54 1510788354.809730: $GPGGA,232553,3946.9568,N,08404.9526,W,1,08,1.00,292.45,M,-33.324,M,,*73
2017-11-15 18:25:54 1510788354.809789: $GPRMC,232553,A,3946.9568,N,08404.9526,W,0.5951,238.684,151117,,*3C
2017-11-15 18:25:54 1510788354.809845: $GPGSA,A,3,10,26,25,1,31,32,14,22,,,,,3.4,1.0,2.9*0A
2017-11-15 18:25:55 1510788355.329176: $GPZDA,232554.00,15,11,2017,00,00*61
2017-11-15 18:25:55 1510788355.329357: $GPGGA,232554,3946.9568,N,08404.9526,W,1,08,1.00,292.45,M,-33.324,M,,*74
2017-11-15 18:25:55 1510788355.329417: $GPRMC,232554,A,3946.9568,N,08404.9526,W,0.5230,256.444,151117,,*31
2017-11-15 18:25:55 1510788355.329472: $GPGSA,A,3,10,26,25,1,31,32,14,22,,,,,3.4,1.0,2.9*0A
2017-11-15 18:25:56 1510788356.328349: $GPZDA,232555.00,15,11,2017,00,00*60
2017-11-15 18:25:56 1510788356.374610: $GPGGA,232555,3946.9568,N,08404.9526,W,1,08,1.00,292.45,M,-33.324,M,,*75
2017-11-15 18:25:56 1510788356.374748: $GPRMC,232555,A,3946.9568,N,08404.9526,W,0.4844,93.794,151117,,*0D
2017-11-15 18:25:56 1510788356.374809: $GPGSA,A,3,10,26,25,1,31,32,14,22,,,,,3.4,1.0,2.9*0A
2017-11-15 18:25:57 1510788357.665363: $GPGSV,3,1,10,10,25,156,11,26,22,178,08,25,37,060,24,01,20,277,19*76
2017-11-15 18:25:57 1510788357.665537: $GPGSV,3,2,10,31,76,265,20,32,57,073,21,14,70,030,24,22,37,304,06*7F
2017-11-15 18:25:57 1510788357.665650: $GPGSV,3,3,10,03,18,316,13,12,09,034,00*79
2017-11-15 18:25:57 1510788357.778635: $GPZDA,232556.00,15,11,2017,00,00*63
2017-11-15 18:25:57 1510788357.778778: $GPGGA,232556,3946.9568,N,08404.9526,W,1,08,1.20,292.45,M,-33.324,M,,*74
2017-11-15 18:25:57 1510788357.778838: $GPRMC,232556,A,3946.9568,N,08404.9526,W,0.4207,39.347,151117,,*09
2017-11-15 18:25:57 1510788357.778893: $GPGSA,A,3,10,26,25,1,31,32,14,22,,,,,3.4,1.2,2.9*08
2017-11-15 18:25:58 1510788358.329605: $GPZDA,232557.00,15,11,2017,00,00*62
2017-11-15 18:25:58 1510788358.329766: $GPGGA,232557,3946.9568,N,08404.9526,W,1,08,1.20,292.45,M,-33.324,M,,*75
2017-11-15 18:25:58 1510788358.329826: $GPRMC,232557,A,3946.9568,N,08404.9526,W,0.2959,54.767,151117,,*03
2017-11-15 18:25:58 1510788358.329881: $GPGSA,A,3,10,26,25,1,31,32,14,22,,,,,3.4,1.2,2.9*08
2017-11-15 18:25:59 1510788359.359222: $GPZDA,232558.00,15,11,2017,00,00*6D
2017-11-15 18:25:59 1510788359.359398: $GPGGA,232558,3946.9568,N,08404.9519,W,1,08,1.20,292.53,M,-33.324,M,,*71
2017-11-15 18:25:59 1510788359.359459: $GPRMC,232558,A,3946.9568,N,08404.9519,W,0.4844,93.794,151117,,*0C
2017-11-15 18:25:59 1510788359.359515: $GPGSA,A,3,10,26,25,1,31,32,14,22,,,,,3.4,1.2,2.9*08
