2017-11-15 19:08:19 1510790899.957195: {"class":"VERSION","release":"3.17","rev":"3.17","proto_major":3,"proto_minor":12}
2017-11-15 19:08:19 1510790899.957821: {"class":"DEVICES","devices":[{"class":"DEVICE","path":"/dev/ttyUSB0","driver":"SiRF","subtype":"9\u0006GSD4e_4.1.2-P1_RPATCH.05-F-GPS-4R-1510281 11/03/2015 307","activated":"2017-11-16T00:08:19.486Z","flags":1,"native":1,"bps":4800,"parity":"N","stopbits":1,"cycle":1.00}]}
2017-11-15 19:08:19 1510790899.957959: {"class":"WATCH","enable":true,"json":false,"nmea":true,"raw":0,"scaled":false,"timing":false,"split24":false,"pps":false}
2017-11-15 19:08:20 1510790900.329022: $GPZDA,000819.00,16,11,2017,00,00*65
2017-11-15 19:08:20 1510790900.329211: $GPGGA,000819,3946.9596,N,08404.9529,W,1,06,2.00,301.91,M,-33.324,M,,*72
2017-11-15 19:08:20 1510790900.329276: $GPRMC,000819,A,3946.9596,N,08404.9529,W,0.4179,328.778,161117,,*30
2017-11-15 19:08:20 1510790900.329352: $GPGSA,A,3,32,14,26,31,16,22,,,,,,,3.4,2.0,2.9*39
2017-11-15 19:08:21 1510790901.681722: $GPGSV,3,1,11,32,44,097,27,14,62,076,20,03,33,309,00,26,42,175,20*79
2017-11-15 19:08:21 1510790901.681892: $GPGSV,3,2,11,31,75,001,27,16,12,190,18,22,48,286,26,25,25,045,00*7C
2017-11-15 19:08:21 1510790901.681953: $GPGSV,3,3,11,01,11,261,00,29,07,081,00,10,07,159,00*43
2017-11-15 19:08:21 1510790901.795049: $GPZDA,000820.00,16,11,2017,00,00*6F
2017-11-15 19:08:21 1510790901.795234: $GPGGA,000820,3946.9600,N,08404.9529,W,1,06,2.00,302.55,M,-33.324,M,,*7F
2017-11-15 19:08:21 1510790901.795318: $GPRMC,000820,A,3946.9600,N,08404.9529,W,0.7278,23.636,161117,,*04
2017-11-15 19:08:21 1510790901.795376: $GPGSA,A,3,32,14,26,31,16,22,,,,,,,3.4,2.0,2.9*39
2017-11-15 19:08:22 1510790902.344691: $GPZDA,000821.00,16,11,2017,00,00*6E
2017-11-15 19:08:22 1510790902.344838: $GPGGA,000821,3946.9600,N,08404.9529,W,1,06,2.00,302.55,M,-33.324,M,,*7E
2017-11-15 19:08:22 1510790902.344899: $GPRMC,000821,A,3946.9600,N,08404.9529,W,0.5951,58.684,161117,,*02
2017-11-15 19:08:22 1510790902.344955: $GPGSA,A,3,32,14,26,31,16,22,,,,,,,3.4,2.0,2.9*39
2017-11-15 19:08:23 1510790903.345596: $GPZDA,000822.00,16,11,2017,00,00*6D
2017-11-15 19:08:23 1510790903.345781: $GPGGA,000822,3946.9600,N,08404.9529,W,1,06,2.00,302.55,M,-33.324,M,,*7D
2017-11-15 19:08:23 1510790903.345845: $GPRMC,000822,A,3946.9600,N,08404.9529,W,0.4207,39.347,161117,,*05
2017-11-15 19:08:23 1510790903.345901: $GPGSA,A,3,32,14,26,31,16,22,,,,,,,3.4,2.0,2.9*39
2017-11-15 19:08:24 1510790904.681341: $GPGSV,3,1,11,32,44,097,27,14,62,076,20,03,33,309,00,26,42,175,20*79
2017-11-15 19:08:24 1510790904.681484: $GPGSV,3,2,11,31,75,001,27,16,12,190,18,22,48,286,26,25,25,045,00*7C
2017-11-15 19:08:24 1510790904.681544: $GPGSV,3,3,11,01,11,261,00,29,07,081,00,10,07,159,00*43
2017-11-15 19:08:24 1510790904.794667: $GPZDA,000823.00,16,11,2017,00,00*6C
2017-11-15 19:08:24 1510790904.794832: $GPGGA,000823,3946.9600,N,08404.9529,W,1,06,2.00,302.55,M,-33.324,M,,*7C
2017-11-15 19:08:24 1510790904.794894: $GPRMC,000823,A,3946.9600,N,08404.9529,W,0.2422,93.794,161117,,*09
2017-11-15 19:08:24 1510790904.794949: $GPGSA,A,3,32,14,26,31,16,22,,,,,,,3.4,2.0,2.9*39
2017-11-15 19:08:25 1510790905.345548: $GPZDA,000824.00,16,11,2017,00,00*6B
2017-11-15 19:08:25 1510790905.345713: $GPGGA,000824,3946.9603,N,08404.9528,W,1,06,2.00,301.78,M,-33.324,M,,*75
2017-11-15 19:08:25 1510790905.345774: $GPRMC,000824,A,3946.9603,N,08404.9528,W,0.5287,2.716,161117,,*30
2017-11-15 19:08:25 1510790905.345830: $GPGSA,A,3,32,14,26,31,16,22,,,,,,,3.4,2.0,2.9*39
2017-11-15 19:08:26 1510790906.327776: $GPZDA,000825.00,16,11,2017,00,00*6A
2017-11-15 19:08:26 1510790906.327950: $GPGGA,000825,3946.9608,N,08404.9528,W,1,06,2.00,302.42,M,-33.324,M,,*75
2017-11-15 19:08:26 1510790906.328011: $GPRMC,000825,A,3946.9608,N,08404.9528,W,0.5287,2.716,161117,,*3A
2017-11-15 19:08:26 1510790906.328067: $GPGSA,A,3,32,14,26,31,16,22,,,,,,,3.4,2.0,2.9*39
2017-11-15 19:08:27 1510790907.680527: $GPGSV,3,1,11,32,44,097,27,14,62,076,20,03,33,309,00,26,42,175,20*79
2017-11-15 19:08:27 1510790907.680696: $GPGSV,3,2,11,31,75,001,27,16,12,190,18,22,48,286,26,25,25,045,00*7C
2017-11-15 19:08:27 1510790907.680806: $GPGSV,3,3,11,01,11,261,00,29,07,081,00,10,07,159,00*43
2017-11-15 19:08:27 1510790907.793927: $GPZDA,000826.00,16,11,2017,00,00*69
2017-11-15 19:08:27 1510790907.794073: $GPGGA,000826,3946.9608,N,08404.9528,W,1,06,2.00,302.42,M,-33.324,M,,*76
2017-11-15 19:08:27 1510790907.794134: $GPRMC,000826,A,3946.9608,N,08404.9528,W,0.5857,338.291,161117,,*3E
2017-11-15 19:08:27 1510790907.794190: $GPGSA,A,3,32,14,26,31,16,22,,,,,,,3.4,2.0,2.9*39
2017-11-15 19:08:28 1510790908.343734: $GPZDA,000827.00,16,11,2017,00,00*68
2017-11-15 19:08:28 1510790908.343882: $GPGGA,000827,3946.9608,N,08404.9535,W,1,06,2.00,302.34,M,-33.324,M,,*7A
2017-11-15 19:08:28 1510790908.343941: $GPRMC,000827,A,3946.9608,N,08404.9535,W,0.7267,273.794,161117,,*36
2017-11-15 19:08:28 1510790908.343997: $GPGSA,A,3,32,14,26,31,16,22,,,,,,,3.4,2.0,2.9*39
2017-11-15 19:08:29 1510790909.344791: $GPZDA,000828.00,16,11,2017,00,00*67
2017-11-15 19:08:29 1510790909.344974: $GPGGA,000828,3946.9608,N,08404.9535,W,1,06,2.00,302.34,M,-33.324,M,,*75
2017-11-15 19:08:29 1510790909.345039: $GPRMC,000828,A,3946.9608,N,08404.9535,W,0.4207,219.347,161117,,*3A
2017-11-15 19:08:29 1510790909.345096: $GPGSA,A,3,32,14,26,31,16,22,,,,,,,3.4,2.0,2.9*39
