2017-11-16 14:39:19 1510861159.448195: {"class":"VERSION","release":"3.17","rev":"3.17","proto_major":3,"proto_minor":12}
2017-11-16 14:39:19 1510861159.448604: {"class":"DEVICES","devices":[{"class":"DEVICE","path":"/dev/ttyUSB0","driver":"SiRF","subtype":"9\u0006GSD4e_4.1.2-P1_RPATCH.05-F-GPS-4R-1510281 11/03/2015 307","activated":"2017-11-16T19:39:19.419Z","flags":1,"native":1,"bps":4800,"parity":"N","stopbits":1,"cycle":1.00}]}
2017-11-16 14:39:19 1510861159.448746: {"class":"WATCH","enable":true,"json":false,"nmea":true,"raw":0,"scaled":false,"timing":false,"split24":false,"pps":false}
2017-11-16 14:39:19 1510861159.596417: $GPZDA,193918.00,16,11,2017,00,00*6E
2017-11-16 14:39:19 1510861159.596576: $GPGGA,193918,3946.9564,N,08404.9849,W,2,11,0.80,302.66,M,-33.324,M,,*7B
2017-11-16 14:39:19 1510861159.596638: $GPRMC,193918,A,3946.9564,N,08404.9849,W,0.0000,0.000,161117,,*37
2017-11-16 14:39:19 1510861159.596697: $GPGSA,A,3,8,10,15,18,21,20,24,27,32,14,138,,1.6,0.8,1.3*37
2017-11-16 14:39:20 1510861160.521380: $GPZDA,193919.00,16,11,2017,00,00*6F
2017-11-16 14:39:20 1510861160.521535: $GPGGA,193919,3946.9564,N,08404.9849,W,2,11,0.80,302.66,M,-33.324,M,,*7A
2017-11-16 14:39:20 1510861160.521601: $GPRMC,193919,A,3946.9564,N,08404.9849,W,0.0000,0.000,161117,,*36
2017-11-16 14:39:20 1510861160.521684: $GPGSA,A,3,8,10,15,18,21,20,24,27,32,14,138,,1.6,0.8,1.3*37
2017-11-16 14:39:21 1510861161.856376: $GPGSV,3,1,11,08,08,312,38,10,50,309,49,15,28,055,51,18,76,009,45*79
2017-11-16 14:39:21 1510861161.856556: $GPGSV,3,2,11,21,52,184,48,20,25,103,46,24,53,091,49,27,16,279,43*74
2017-11-16 14:39:21 1510861161.856618: $GPGSV,3,3,11,32,29,246,48,14,13,238,44,138,38,213,44*70
2017-11-16 14:39:21 1510861161.969889: $GPZDA,193920.00,16,11,2017,00,00*65
2017-11-16 14:39:21 1510861161.970037: $GPGGA,193920,3946.9564,N,08404.9849,W,2,11,0.80,302.66,M,-33.324,M,,*70
2017-11-16 14:39:21 1510861161.970098: $GPRMC,193920,A,3946.9564,N,08404.9849,W,0.0000,0.000,161117,,*3C
2017-11-16 14:39:21 1510861161.970154: $GPGSA,A,3,8,10,15,18,21,20,24,27,32,14,138,,1.6,0.8,1.3*37
2017-11-16 14:39:22 1510861162.554185: $GPZDA,193921.00,16,11,2017,00,00*64
2017-11-16 14:39:22 1510861162.554364: $GPGGA,193921,3946.9564,N,08404.9849,W,2,11,0.80,302.66,M,-33.324,M,,*71
2017-11-16 14:39:22 1510861162.554431: $GPRMC,193921,A,3946.9564,N,08404.9849,W,0.0000,0.000,161117,,*3D
2017-11-16 14:39:22 1510861162.554488: $GPGSA,A,3,8,10,15,18,21,20,24,27,32,14,138,,1.6,0.8,1.3*37
2017-11-16 14:39:23 1510861163.520073: $GPZDA,193922.00,16,11,2017,00,00*67
2017-11-16 14:39:23 1510861163.520251: $GPGGA,193922,3946.9564,N,08404.9849,W,2,11,0.80,302.66,M,-33.324,M,,*72
2017-11-16 14:39:23 1510861163.520385: $GPRMC,193922,A,3946.9564,N,08404.9849,W,0.0000,0.000,161117,,*3E
2017-11-16 14:39:23 1510861163.520447: $GPGSA,A,3,8,10,15,18,21,20,24,27,32,14,138,,1.6,0.8,1.3*37
2017-11-16 14:39:24 1510861164.851408: $GPGSV,3,1,11,08,08,312,37,10,50,309,49,15,28,055,51,18,76,009,45*76
2017-11-16 14:39:24 1510861164.851576: $GPGSV,3,2,11,21,52,184,48,20,25,103,46,24,53,091,50,27,16,279,43*7C
2017-11-16 14:39:24 1510861164.851639: $GPGSV,3,3,11,32,29,246,48,14,13,238,44,138,38,213,45*71
2017-11-16 14:39:24 1510861164.964784: $GPZDA,193923.00,16,11,2017,00,00*66
2017-11-16 14:39:24 1510861164.964954: $GPGGA,193923,3946.9564,N,08404.9849,W,2,11,0.80,302.66,M,-33.324,M,,*73
2017-11-16 14:39:24 1510861164.965016: $GPRMC,193923,A,3946.9564,N,08404.9849,W,0.0000,0.000,161117,,*3F
2017-11-16 14:39:24 1510861164.965073: $GPGSA,A,3,8,10,15,18,21,20,24,27,32,14,138,,1.6,0.8,1.3*37
2017-11-16 14:39:25 1510861165.519275: $GPZDA,193924.00,16,11,2017,00,00*61
2017-11-16 14:39:25 1510861165.519436: $GPGGA,193924,3946.9564,N,08404.9849,W,2,11,0.80,302.66,M,-33.324,M,,*74
2017-11-16 14:39:25 1510861165.519496: $GPRMC,193924,A,3946.9564,N,08404.9849,W,0.0000,0.000,161117,,*38
2017-11-16 14:39:25 1510861165.519552: $GPGSA,A,3,8,10,15,18,21,20,24,27,32,14,138,,1.6,0.8,1.3*37
2017-11-16 14:39:26 1510861166.554372: $GPZDA,193925.00,16,11,2017,00,00*60
2017-11-16 14:39:26 1510861166.554557: $GPGGA,193925,3946.9564,N,08404.9849,W,2,11,0.80,302.66,M,-33.324,M,,*75
2017-11-16 14:39:26 1510861166.554670: $GPRMC,193925,A,3946.9564,N,08404.9849,W,0.0000,0.000,161117,,*39
2017-11-16 14:39:26 1510861166.554728: $GPGSA,A,3,8,10,15,18,21,20,24,27,32,14,138,,1.6,0.8,1.3*37
2017-11-16 14:39:27 1510861167.889395: $GPGSV,3,1,11,08,08,312,27,10,50,309,49,15,28,055,51,18,76,009,45*77
2017-11-16 14:39:27 1510861167.889551: $GPGSV,3,2,11,21,52,184,48,20,25,103,46,24,53,091,49,27,16,279,44*73
2017-11-16 14:39:27 1510861167.889611: $GPGSV,3,3,11,32,29,246,48,14,13,238,44,138,38,213,44*70
2017-11-16 14:39:28 1510861168.002779: $GPZDA,193926.00,16,11,2017,00,00*63
2017-11-16 14:39:28 1510861168.002948: $GPGGA,193926,3946.9564,N,08404.9849,W,2,11,0.80,302.66,M,-33.324,M,,*76
2017-11-16 14:39:28 1510861168.003011: $GPRMC,193926,A,3946.9564,N,08404.9849,W,0.0000,0.000,161117,,*3A
2017-11-16 14:39:28 1510861168.003067: $GPGSA,A,3,8,10,15,18,21,20,24,27,32,14,138,,1.6,0.8,1.3*37
2017-11-16 14:39:28 1510861168.519956: $GPZDA,193927.00,16,11,2017,00,00*62
2017-11-16 14:39:28 1510861168.520141: $GPGGA,193927,3946.9564,N,08404.9849,W,2,11,0.80,302.66,M,-33.324,M,,*77
2017-11-16 14:39:28 1510861168.520229: $GPRMC,193927,A,3946.9564,N,08404.9849,W,0.0000,0.000,161117,,*3B
2017-11-16 14:39:28 1510861168.520345: $GPGSA,A,3,8,10,15,18,21,20,24,27,32,14,138,,1.6,0.8,1.3*37
2017-11-16 14:39:29 1510861169.520253: $GPZDA,193928.00,16,11,2017,00,00*6D
2017-11-16 14:39:29 1510861169.520461: $GPGGA,193928,3946.9564,N,08404.9849,W,2,11,0.80,302.66,M,-33.324,M,,*78
2017-11-16 14:39:29 1510861169.520542: $GPRMC,193928,A,3946.9564,N,08404.9849,W,0.0000,0.000,161117,,*34
2017-11-16 14:39:29 1510861169.520601: $GPGSA,A,3,8,10,15,18,21,20,24,27,32,14,138,,1.6,0.8,1.3*37
2017-11-16 14:39:30 1510861170.856939: $GPGSV,3,1,11,08,08,312,27,10,50,309,49,15,28,055,51,18,76,009,45*77
2017-11-16 14:39:30 1510861170.857109: $GPGSV,3,2,11,21,52,184,48,20,25,103,46,24,53,091,49,27,16,279,44*73
2017-11-16 14:39:30 1510861170.857171: $GPGSV,3,3,11,32,29,246,48,14,13,238,44,138,38,213,42*76
2017-11-16 14:39:30 1510861170.970624: $GPZDA,193929.00,16,11,2017,00,00*6C
2017-11-16 14:39:30 1510861170.970773: $GPGGA,193929,3946.9564,N,08404.9849,W,2,11,0.80,302.66,M,-33.324,M,,*79
2017-11-16 14:39:30 1510861170.970835: $GPRMC,193929,A,3946.9564,N,08404.9849,W,0.0000,0.000,161117,,*35
2017-11-16 14:39:30 1510861170.970891: $GPGSA,A,3,8,10,15,18,21,20,24,27,32,14,138,,1.6,0.8,1.3*37
2017-11-16 14:39:31 1510861171.513653: $GPZDA,193930.00,16,11,2017,00,00*64
2017-11-16 14:39:31 1510861171.513813: $GPGGA,193930,3946.9564,N,08404.9849,W,2,11,0.80,302.66,M,-33.324,M,,*71
2017-11-16 14:39:31 1510861171.513875: $GPRMC,193930,A,3946.9564,N,08404.9849,W,0.0000,0.000,161117,,*3D
2017-11-16 14:39:31 1510861171.513931: $GPGSA,A,3,8,10,15,18,21,20,24,27,32,14,138,,1.6,0.8,1.3*37
2017-11-16 14:39:32 1510861172.553143: $GPZDA,193931.00,16,11,2017,00,00*65
2017-11-16 14:39:32 1510861172.553308: $GPGGA,193931,3946.9564,N,08404.9849,W,2,11,0.80,302.66,M,-33.324,M,,*70
2017-11-16 14:39:32 1510861172.553369: $GPRMC,193931,A,3946.9564,N,08404.9849,W,0.0000,0.000,161117,,*3C
2017-11-16 14:39:32 1510861172.553427: $GPGSA,A,3,8,10,15,18,21,20,24,27,32,14,138,,1.6,0.8,1.3*37
2017-11-16 14:39:33 1510861173.889402: $GPGSV,3,1,11,08,08,312,26,10,51,310,49,15,27,057,51,18,77,015,45*7E
2017-11-16 14:39:33 1510861173.889573: $GPGSV,3,2,11,21,51,184,48,20,24,105,46,24,53,088,48,27,16,277,43*77
2017-11-16 14:39:33 1510861173.889635: $GPGSV,3,3,11,32,30,247,48,14,14,238,44,138,38,213,43*79
2017-11-16 14:39:34 1510861174.003200: $GPZDA,193932.00,16,11,2017,00,00*66
2017-11-16 14:39:34 1510861174.003372: $GPGGA,193932,3946.9564,N,08404.9849,W,2,11,0.80,302.66,M,-33.324,M,,*73
2017-11-16 14:39:34 1510861174.003436: $GPRMC,193932,A,3946.9564,N,08404.9849,W,0.0000,0.000,161117,,*3F
2017-11-16 14:39:34 1510861174.003496: $GPGSA,A,3,8,10,15,18,21,20,24,27,32,14,138,,1.6,0.8,1.3*37
2017-11-16 14:39:34 1510861174.627940: $GPZDA,193933.00,16,11,2017,00,00*67
2017-11-16 14:39:34 1510861174.628175: $GPGGA,193933,3946.9564,N,08404.9849,W,2,11,0.80,302.66,M,-33.324,M,,*72
2017-11-16 14:39:34 1510861174.628239: $GPRMC,193933,A,3946.9564,N,08404.9849,W,0.0000,0.000,161117,,*3E
2017-11-16 14:39:34 1510861174.628298: $GPGSA,A,3,8,10,15,18,21,20,24,27,32,14,138,,1.6,0.8,1.3*37
2017-11-16 14:39:35 1510861175.519135: $GPZDA,193934.00,16,11,2017,00,00*60
2017-11-16 14:39:35 1510861175.519299: $GPGGA,193934,3946.9564,N,08404.9849,W,2,11,0.80,302.66,M,-33.324,M,,*75
2017-11-16 14:39:35 1510861175.519362: $GPRMC,193934,A,3946.9564,N,08404.9849,W,0.0000,0.000,161117,,*39
2017-11-16 14:39:35 1510861175.519417: $GPGSA,A,3,8,10,15,18,21,20,24,27,32,14,138,,1.6,0.8,1.3*37
2017-11-16 14:39:36 1510861176.891994: $GPGSV,3,1,11,08,08,312,19,10,51,310,49,15,27,057,50,18,77,015,45*73
2017-11-16 14:39:36 1510861176.892166: $GPGSV,3,2,11,21,51,184,48,20,24,105,46,24,53,088,48,27,16,277,43*77
2017-11-16 14:39:36 1510861176.892227: $GPGSV,3,3,11,32,30,247,48,14,14,238,44,138,38,213,44*7E
2017-11-16 14:39:37 1510861177.005705: $GPZDA,193935.00,16,11,2017,00,00*61
2017-11-16 14:39:37 1510861177.005872: $GPGGA,193935,3946.9564,N,08404.9849,W,2,11,0.80,302.66,M,-33.324,M,,*74
2017-11-16 14:39:37 1510861177.005937: $GPRMC,193935,A,3946.9564,N,08404.9849,W,0.0000,0.000,161117,,*38
2017-11-16 14:39:37 1510861177.005994: $GPGSA,A,3,8,10,15,18,21,20,24,27,32,14,138,,1.6,0.8,1.3*37
2017-11-16 14:39:37 1510861177.553997: $GPZDA,193936.00,16,11,2017,00,00*62
2017-11-16 14:39:37 1510861177.554158: $GPGGA,193936,3946.9564,N,08404.9849,W,2,11,0.80,302.66,M,-33.324,M,,*77
2017-11-16 14:39:37 1510861177.554220: $GPRMC,193936,A,3946.9564,N,08404.9849,W,0.0000,0.000,161117,,*3B
2017-11-16 14:39:37 1510861177.554276: $GPGSA,A,3,8,10,15,18,21,20,24,27,32,14,138,,1.6,0.8,1.3*37
2017-11-16 14:39:38 1510861178.519650: $GPZDA,193937.00,16,11,2017,00,00*63
2017-11-16 14:39:38 1510861178.519811: $GPGGA,193937,3946.9564,N,08404.9849,W,2,11,0.80,302.66,M,-33.324,M,,*76
2017-11-16 14:39:38 1510861178.519872: $GPRMC,193937,A,3946.9564,N,08404.9849,W,0.0000,0.000,161117,,*3A
2017-11-16 14:39:38 1510861178.519929: $GPGSA,A,3,8,10,15,18,21,20,24,27,32,14,138,,1.6,0.8,1.3*37
2017-11-16 14:39:39 1510861179.888268: $GPGSV,3,1,11,08,08,312,29,10,51,310,49,15,27,057,50,18,77,015,45*70
2017-11-16 14:39:39 1510861179.888416: $GPGSV,3,2,11,21,51,184,48,20,24,105,46,24,53,088,48,27,16,277,43*77
2017-11-16 14:39:39 1510861179.888479: $GPGSV,3,3,11,32,30,247,47,14,14,238,44,138,38,213,44*71
2017-11-16 14:39:40 1510861180.001610: $GPZDA,193938.00,16,11,2017,00,00*6C
2017-11-16 14:39:40 1510861180.001788: $GPGGA,193938,3946.9564,N,08404.9849,W,2,11,0.80,302.66,M,-33.324,M,,*79
2017-11-16 14:39:40 1510861180.001854: $GPRMC,193938,A,3946.9564,N,08404.9849,W,0.0000,0.000,161117,,*35
2017-11-16 14:39:40 1510861180.001912: $GPGSA,A,3,8,10,15,18,21,20,24,27,32,14,138,,1.6,0.8,1.3*37
2017-11-16 14:39:40 1510861180.518912: $GPZDA,193939.00,16,11,2017,00,00*6D
2017-11-16 14:39:40 1510861180.519071: $GPGGA,193939,3946.9564,N,08404.9849,W,2,11,0.80,302.66,M,-33.324,M,,*78
2017-11-16 14:39:40 1510861180.519134: $GPRMC,193939,A,3946.9564,N,08404.9849,W,0.0000,0.000,161117,,*34
2017-11-16 14:39:40 1510861180.519190: $GPGSA,A,3,8,10,15,18,21,20,24,27,32,14,138,,1.6,0.8,1.3*37
2017-11-16 14:39:41 1510861181.518172: $GPZDA,193940.00,16,11,2017,00,00*63
2017-11-16 14:39:41 1510861181.518346: $GPGGA,193940,3946.9564,N,08404.9849,W,2,11,0.80,302.66,M,-33.324,M,,*76
2017-11-16 14:39:41 1510861181.518410: $GPRMC,193940,A,3946.9564,N,08404.9849,W,0.0000,0.000,161117,,*3A
2017-11-16 14:39:41 1510861181.518467: $GPGSA,A,3,8,10,15,18,21,20,24,27,32,14,138,,1.6,0.8,1.3*37
2017-11-16 14:39:42 1510861182.883890: $GPGSV,3,1,11,08,08,312,24,10,51,310,49,15,27,057,50,18,77,015,45*7D
2017-11-16 14:39:42 1510861182.884060: $GPGSV,3,2,11,21,51,184,48,20,24,105,46,24,53,088,48,27,16,277,43*77
2017-11-16 14:39:42 1510861182.884126: $GPGSV,3,3,11,32,30,247,47,14,14,238,44,138,38,213,43*76
2017-11-16 14:39:42 1510861182.997361: $GPZDA,193941.00,16,11,2017,00,00*62
2017-11-16 14:39:42 1510861182.997568: $GPGGA,193941,3946.9564,N,08404.9849,W,2,11,0.80,302.66,M,-33.324,M,,*77
2017-11-16 14:39:42 1510861182.997633: $GPRMC,193941,A,3946.9564,N,08404.9849,W,0.0000,0.000,161117,,*3B
2017-11-16 14:39:42 1510861182.997689: $GPGSA,A,3,8,10,15,18,21,20,24,27,32,14,138,,1.6,0.8,1.3*37
2017-11-16 14:39:43 1510861183.552977: $GPZDA,193942.00,16,11,2017,00,00*61
2017-11-16 14:39:43 1510861183.553149: $GPGGA,193942,3946.9564,N,08404.9849,W,2,11,0.80,302.66,M,-33.324,M,,*74
2017-11-16 14:39:43 1510861183.553215: $GPRMC,193942,A,3946.9564,N,08404.9849,W,0.0000,0.000,161117,,*38
2017-11-16 14:39:43 1510861183.553272: $GPGSA,A,3,8,10,15,18,21,20,24,27,32,14,138,,1.6,0.8,1.3*37
2017-11-16 14:39:44 1510861184.552218: $GPZDA,193943.00,16,11,2017,00,00*60
2017-11-16 14:39:44 1510861184.552378: $GPGGA,193943,3946.9564,N,08404.9849,W,2,11,0.80,302.66,M,-33.324,M,,*75
2017-11-16 14:39:44 1510861184.552441: $GPRMC,193943,A,3946.9564,N,08404.9849,W,0.0000,0.000,161117,,*39
2017-11-16 14:39:44 1510861184.552497: $GPGSA,A,3,8,10,15,18,21,20,24,27,32,14,138,,1.6,0.8,1.3*37
2017-11-16 14:39:45 1510861185.853955: $GPGSV,3,1,11,08,08,312,26,10,51,310,49,15,27,057,50,18,77,015,45*7F
2017-11-16 14:39:45 1510861185.854127: $GPGSV,3,2,11,21,51,184,48,20,24,105,46,24,53,088,48,27,16,277,43*77
2017-11-16 14:39:45 1510861185.854190: $GPGSV,3,3,11,32,30,247,48,14,14,238,44,138,38,213,45*7F
2017-11-16 14:39:45 1510861185.967232: $GPZDA,193944.00,16,11,2017,00,00*67
2017-11-16 14:39:45 1510861185.967396: $GPGGA,193944,3946.9564,N,08404.9849,W,2,11,0.80,302.66,M,-33.324,M,,*72
2017-11-16 14:39:45 1510861185.967458: $GPRMC,193944,A,3946.9564,N,08404.9849,W,0.0000,0.000,161117,,*3E
2017-11-16 14:39:45 1510861185.967515: $GPGSA,A,3,8,10,15,18,21,20,24,27,32,14,138,,1.6,0.8,1.3*37
2017-11-16 14:39:46 1510861186.518187: $GPZDA,193945.00,16,11,2017,00,00*66
2017-11-16 14:39:46 1510861186.518367: $GPGGA,193945,3946.9564,N,08404.9849,W,2,11,0.80,302.66,M,-33.324,M,,*73
2017-11-16 14:39:46 1510861186.518429: $GPRMC,193945,A,3946.9564,N,08404.9849,W,0.0000,0.000,161117,,*3F
2017-11-16 14:39:46 1510861186.518486: $GPGSA,A,3,8,10,15,18,21,20,24,27,32,14,138,,1.6,0.8,1.3*37
2017-11-16 14:39:47 1510861187.552514: $GPZDA,193946.00,16,11,2017,00,00*65
2017-11-16 14:39:47 1510861187.552683: $GPGGA,193946,3946.9564,N,08404.9849,W,2,11,0.80,302.66,M,-33.324,M,,*70
2017-11-16 14:39:47 1510861187.552744: $GPRMC,193946,A,3946.9564,N,08404.9849,W,0.0000,0.000,161117,,*3C
2017-11-16 14:39:47 1510861187.552801: $GPGSA,A,3,8,10,15,18,21,20,24,27,32,14,138,,1.6,0.8,1.3*37
2017-11-16 14:39:48 1510861188.849492: $GPGSV,3,1,11,08,08,312,19,10,51,310,50,15,27,057,50,18,77,015,45*7B
2017-11-16 14:39:48 1510861188.849666: $GPGSV,3,2,11,21,51,184,48,20,24,105,47,24,53,088,48,27,16,277,43*76
2017-11-16 14:39:48 1510861188.849728: $GPGSV,3,3,11,32,30,247,48,14,14,238,44,138,38,213,45*7F
2017-11-16 14:39:48 1510861188.961669: $GPZDA,193947.00,16,11,2017,00,00*64
2017-11-16 14:39:48 1510861188.961830: $GPGGA,193947,3946.9564,N,08404.9849,W,2,11,0.80,302.66,M,-33.324,M,,*71
2017-11-16 14:39:48 1510861188.961890: $GPRMC,193947,A,3946.9564,N,08404.9849,W,0.0000,0.000,161117,,*3D
2017-11-16 14:39:48 1510861188.961946: $GPGSA,A,3,8,10,15,18,21,20,24,27,32,14,138,,1.6,0.8,1.3*37
