2017-12-01 11:47:52 1512146872.387004: {"class":"VERSION","release":"3.16","rev":"3.16-4","proto_major":3,"proto_minor":11}
2017-12-01 11:47:52 1512146872.387473: {"class":"DEVICES","devices":[{"class":"DEVICE","path":"/dev/ttyUSB0","driver":"SiRF","subtype":"9\u0006GSD4e_4.1.2-P1_RPATCH.05-F-GPS-4R-1510281 11/03/2015 307","activated":"2017-12-01T16:47:52.348Z","flags":1,"native":1,"bps":4800,"parity":"N","stopbits":1,"cycle":1.00}]}
2017-12-01 11:47:52 1512146872.387669: {"class":"WATCH","enable":true,"json":false,"nmea":true,"raw":0,"scaled":false,"timing":false,"split24":false,"pps":false}
2017-12-01 11:47:53 1512146873.032057: $GPZDA,164753.47,01,12,2017,00,00*61
2017-12-01 11:47:53 1512146873.032245: $GPGGA,164753,3946.9554,N,08404.9805,W,1,11,0.80,309.72,M,-33.324,M,,*74
2017-12-01 11:47:53 1512146873.032311: $GPRMC,164753,A,3946.9554,N,08404.9805,W,0.4700,189.200,011217,,*31
2017-12-01 11:47:53 1512146873.032373: $GPGSA,A,3,5,13,15,18,20,21,24,27,29,10,138,,2.0,0.8,1.5*34
2017-12-01 11:47:53 1512146873.032431: $GPGBS,164753,10.70,M,15.43,M,35.28,M*05
2017-12-01 11:47:53 1512146873.977571: $GPGSV,3,1,12,10,14,273,38,13,41,049,48,15,74,066,47,18,45,288,45*78
2017-12-01 11:47:53 1512146873.977746: $GPGSV,3,2,12,20,61,054,43,21,69,303,47,24,22,147,43,27,10,322,44*73
2017-12-01 11:47:53 1512146873.977814: $GPGSV,3,3,12,29,22,193,45,05,12,078,00,04,11,132,00,138,38,213,25*40
2017-12-01 11:47:54 1512146874.090974: $GPZDA,164754.00,01,12,2017,00,00*65
2017-12-01 11:47:54 1512146874.091168: $GPGGA,164754,3946.9554,N,08404.9805,W,1,10,0.80,309.72,M,-33.324,M,,*72
2017-12-01 11:47:54 1512146874.091238: $GPRMC,164754,A,3946.9554,N,08404.9805,W,0.3106,249.940,011217,,*31
2017-12-01 11:47:54 1512146874.091299: $GPGSA,A,3,10,13,15,18,20,21,24,27,29,138,,,2.0,0.8,1.5*01
2017-12-01 11:47:54 1512146874.346308: $GPZDA,164755.00,01,12,2017,00,00*64
2017-12-01 11:47:54 1512146874.346514: $GPGGA,164755,3946.9554,N,08404.9805,W,1,10,0.80,309.72,M,-33.324,M,,*73
2017-12-01 11:47:54 1512146874.346589: $GPRMC,164755,A,3946.9554,N,08404.9805,W,0.1567,189.200,011217,,*31
2017-12-01 11:47:54 1512146874.346668: $GPGSA,A,3,10,13,15,18,20,21,24,27,29,138,,,2.0,0.8,1.5*01
2017-12-01 11:47:55 1512146875.221218: $GPZDA,164756.00,01,12,2017,00,00*67
2017-12-01 11:47:55 1512146875.221472: $GPGGA,164756,3946.9554,N,08404.9812,W,1,10,0.80,309.64,M,-33.324,M,,*71
2017-12-01 11:47:55 1512146875.221551: $GPRMC,164756,A,3946.9554,N,08404.9812,W,0.1567,189.200,011217,,*34
2017-12-01 11:47:55 1512146875.221614: $GPGSA,A,3,10,13,15,18,20,21,24,27,29,138,,,2.0,0.8,1.5*01
2017-12-01 11:47:56 1512146876.727662: $GPGSV,3,1,12,10,14,273,38,13,41,049,47,15,74,066,46,18,45,288,46*75
2017-12-01 11:47:56 1512146876.727843: $GPGSV,3,2,12,20,61,054,43,21,69,303,46,24,22,147,43,27,10,322,44*72
2017-12-01 11:47:56 1512146876.727909: $GPGSV,3,3,12,29,22,193,45,04,11,132,05,05,12,078,00,138,38,213,47*41
2017-12-01 11:47:56 1512146876.841089: $GPZDA,164757.00,01,12,2017,00,00*66
2017-12-01 11:47:56 1512146876.841249: $GPGGA,164757,3946.9557,N,08404.9811,W,1,10,0.80,308.88,M,-33.324,M,,*73
2017-12-01 11:47:56 1512146876.841315: $GPRMC,164757,A,3946.9557,N,08404.9811,W,0.0000,0.000,011217,,*32
2017-12-01 11:47:56 1512146876.841441: $GPGSA,A,3,10,13,15,18,20,21,24,27,29,138,,,2.0,0.8,1.5*01
2017-12-01 11:47:57 1512146877.391088: $GPZDA,164758.00,01,12,2017,00,00*69
2017-12-01 11:47:57 1512146877.391252: $GPGGA,164758,3946.9557,N,08404.9811,W,1,10,0.80,308.88,M,-33.324,M,,*7C
2017-12-01 11:47:57 1512146877.391318: $GPRMC,164758,A,3946.9557,N,08404.9811,W,0.0000,0.000,011217,,*3D
2017-12-01 11:47:57 1512146877.391453: $GPGSA,A,3,10,13,15,18,20,21,24,27,29,138,,,2.0,0.8,1.5*01
2017-12-01 11:47:58 1512146878.391660: $GPZDA,164759.00,01,12,2017,00,00*68
2017-12-01 11:47:58 1512146878.391851: $GPGGA,164759,3946.9553,N,08404.9811,W,1,10,0.80,308.24,M,-33.324,M,,*7F
2017-12-01 11:47:58 1512146878.391947: $GPRMC,164759,A,3946.9553,N,08404.9811,W,0.0000,0.000,011217,,*38
2017-12-01 11:47:58 1512146878.392010: $GPGSA,A,3,10,13,15,18,20,21,24,27,29,138,,,2.0,0.8,1.5*01
2017-12-01 11:47:58 1512146878.392142: $GPGBS,164759,10.70,M,15.43,M,35.28,M*0F
2017-12-01 11:47:59 1512146879.732124: $GPGSV,3,1,12,10,14,273,39,13,41,049,47,15,74,066,46,18,45,288,45*77
2017-12-01 11:47:59 1512146879.732301: $GPGSV,3,2,12,20,61,054,43,21,69,303,46,24,22,147,43,27,10,322,44*72
2017-12-01 11:47:59 1512146879.732369: $GPGSV,3,3,12,29,22,193,45,05,12,078,00,04,11,132,00,138,38,213,47*44
2017-12-01 11:47:59 1512146879.845543: $GPZDA,164800.00,01,12,2017,00,00*6B
2017-12-01 11:47:59 1512146879.845712: $GPGGA,164800,3946.9556,N,08404.9830,W,2,10,0.80,304.43,M,-33.324,M,,*74
2017-12-01 11:47:59 1512146879.845778: $GPRMC,164800,A,3946.9556,N,08404.9830,W,0.0000,0.000,011217,,*3D
2017-12-01 11:47:59 1512146879.845839: $GPGSA,A,3,10,13,15,18,20,21,24,27,29,138,,,2.0,0.8,1.5*01
2017-12-01 11:48:00 1512146880.394306: $GPZDA,164801.00,01,12,2017,00,00*6A
2017-12-01 11:48:00 1512146880.886385: $GPGGA,164801,3946.9556,N,08404.9830,W,2,10,0.80,304.43,M,-33.324,M,,*75
2017-12-01 11:48:00 1512146880.886545: $GPRMC,164801,A,3946.9556,N,08404.9830,W,0.0000,0.000,011217,,*3C
2017-12-01 11:48:00 1512146880.886611: $GPGSA,A,3,10,13,15,18,20,21,24,27,29,138,,,2.0,0.8,1.5*01
2017-12-01 11:48:01 1512146881.389287: $GPZDA,164802.00,01,12,2017,00,00*69
2017-12-01 11:48:01 1512146881.389463: $GPGGA,164802,3946.9556,N,08404.9830,W,2,10,0.80,304.43,M,-33.324,M,,*76
2017-12-01 11:48:01 1512146881.389532: $GPRMC,164802,A,3946.9556,N,08404.9830,W,0.0000,0.000,011217,,*3F
2017-12-01 11:48:01 1512146881.389595: $GPGSA,A,3,10,13,15,18,20,21,24,27,29,138,,,2.0,0.8,1.5*01
