2017-12-01 11:55:19 1512147319.856920: {"class":"VERSION","release":"3.16","rev":"3.16-4","proto_major":3,"proto_minor":11}
2017-12-01 11:55:19 1512147319.857356: {"class":"DEVICES","devices":[{"class":"DEVICE","path":"/dev/ttyUSB0","driver":"SiRF","subtype":"9\u0006GSD4e_4.1.2-P1_RPATCH.05-F-GPS-4R-1510281 11/03/2015 307","activated":"2017-12-01T16:55:19.821Z","flags":1,"native":1,"bps":4800,"parity":"N","stopbits":1,"cycle":1.00}]}
2017-12-01 11:55:19 1512147319.857484: {"class":"WATCH","enable":true,"json":false,"nmea":true,"raw":0,"scaled":false,"timing":false,"split24":false,"pps":false}
2017-12-01 11:55:20 1512147320.408485: $GPZDA,165521.00,01,12,2017,00,00*64
2017-12-01 11:55:20 1512147320.408652: $GPGGA,165521,3946.9587,N,08404.9843,W,2,11,0.80,294.50,M,-33.324,M,,*78
2017-12-01 11:55:20 1512147320.408719: $GPRMC,165521,A,3946.9587,N,08404.9843,W,0.0000,0.000,011217,,*3A
2017-12-01 11:55:20 1512147320.408781: $GPGSA,A,3,13,15,18,20,21,24,27,29,5,10,138,,2.0,0.8,1.5*34
2017-12-01 11:55:21 1512147321.333375: $GPZDA,165522.00,01,12,2017,00,00*67
2017-12-01 11:55:21 1512147321.333558: $GPGGA,165522,3946.9587,N,08404.9843,W,2,11,0.80,294.50,M,-33.324,M,,*7B
2017-12-01 11:55:21 1512147321.333625: $GPRMC,165522,A,3946.9587,N,08404.9843,W,0.0000,0.000,011217,,*39
2017-12-01 11:55:21 1512147321.333686: $GPGSA,A,3,13,15,18,20,21,24,27,29,5,10,138,,2.0,0.8,1.5*34
2017-12-01 11:55:22 1512147322.672580: $GPGSV,3,1,12,13,38,048,46,15,71,060,45,18,47,291,45,20,59,058,44*78
2017-12-01 11:55:22 1512147322.672763: $GPGSV,3,2,12,21,72,300,46,24,25,145,45,27,12,321,39,29,19,193,45*79
2017-12-01 11:55:22 1512147322.672829: $GPGSV,3,3,12,05,10,081,31,10,17,276,37,04,08,132,00,138,38,213,46*4A
2017-12-01 11:55:22 1512147322.786297: $GPZDA,165523.00,01,12,2017,00,00*66
2017-12-01 11:55:22 1512147322.786479: $GPGGA,165523,3946.9587,N,08404.9843,W,2,11,0.80,294.50,M,-33.324,M,,*7A
2017-12-01 11:55:22 1512147322.786546: $GPRMC,165523,A,3946.9587,N,08404.9843,W,0.0000,0.000,011217,,*38
2017-12-01 11:55:22 1512147322.786607: $GPGSA,A,3,13,15,18,20,21,24,27,29,5,10,138,,2.0,0.8,1.5*34
2017-12-01 11:55:23 1512147323.332128: $GPZDA,165524.00,01,12,2017,00,00*61
2017-12-01 11:55:23 1512147323.332301: $GPGGA,165524,3946.9587,N,08404.9843,W,2,11,0.80,294.50,M,-33.324,M,,*7D
2017-12-01 11:55:23 1512147323.332367: $GPRMC,165524,A,3946.9587,N,08404.9843,W,0.0000,0.000,011217,,*3F
2017-12-01 11:55:23 1512147323.332428: $GPGSA,A,3,13,15,18,20,21,24,27,29,5,10,138,,2.0,0.8,1.5*34
2017-12-01 11:55:24 1512147324.336717: $GPZDA,165525.00,01,12,2017,00,00*60
2017-12-01 11:55:24 1512147324.336907: $GPGGA,165525,3946.9587,N,08404.9843,W,2,11,0.80,294.50,M,-33.324,M,,*7C
2017-12-01 11:55:24 1512147324.336976: $GPRMC,165525,A,3946.9587,N,08404.9843,W,0.0000,0.000,011217,,*3E
2017-12-01 11:55:24 1512147324.337037: $GPGSA,A,3,13,15,18,20,21,24,27,29,5,10,138,,2.0,0.8,1.5*34
2017-12-01 11:55:24 1512147324.337096: $GPGBS,165525,2.67,M,3.86,M,8.82,M*32
2017-12-01 11:55:25 1512147325.674052: $GPGSV,3,1,12,13,38,048,45,15,71,060,44,18,47,291,46,20,59,058,44*79
2017-12-01 11:55:25 1512147325.674236: $GPGSV,3,2,12,21,72,300,46,24,25,145,46,27,12,321,39,29,19,193,45*7A
2017-12-01 11:55:25 1512147325.674304: $GPGSV,3,3,12,05,10,081,31,10,17,276,38,04,08,132,04,138,38,213,46*41
2017-12-01 11:55:25 1512147325.787699: $GPZDA,165526.00,01,12,2017,00,00*63
2017-12-01 11:55:25 1512147325.787868: $GPGGA,165526,3946.9587,N,08404.9843,W,2,11,0.80,294.50,M,-33.324,M,,*7F
2017-12-01 11:55:25 1512147325.787935: $GPRMC,165526,A,3946.9587,N,08404.9843,W,0.0000,0.000,011217,,*3D
2017-12-01 11:55:25 1512147325.787995: $GPGSA,A,3,13,15,18,20,21,24,27,29,5,10,138,,2.0,0.8,1.5*34
2017-12-01 11:55:26 1512147326.333396: $GPZDA,165527.00,01,12,2017,00,00*62
2017-12-01 11:55:26 1512147326.333577: $GPGGA,165527,3946.9587,N,08404.9843,W,2,11,0.80,294.50,M,-33.324,M,,*7E
2017-12-01 11:55:26 1512147326.333666: $GPRMC,165527,A,3946.9587,N,08404.9843,W,0.0000,0.000,011217,,*3C
2017-12-01 11:55:26 1512147326.333731: $GPGSA,A,3,13,15,18,20,21,24,27,29,5,10,138,,2.0,0.8,1.5*34
2017-12-01 11:55:27 1512147327.332971: $GPZDA,165528.00,01,12,2017,00,00*6D
2017-12-01 11:55:27 1512147327.333144: $GPGGA,165528,3946.9587,N,08404.9843,W,2,11,0.80,294.50,M,-33.324,M,,*71
2017-12-01 11:55:27 1512147327.333211: $GPRMC,165528,A,3946.9587,N,08404.9843,W,0.0000,0.000,011217,,*33
2017-12-01 11:55:27 1512147327.333272: $GPGSA,A,3,13,15,18,20,21,24,27,29,5,10,138,,2.0,0.8,1.5*34
2017-12-01 11:55:28 1512147328.668658: $GPGSV,3,1,12,13,38,048,45,15,71,060,45,18,47,291,45,20,59,058,43*7C
2017-12-01 11:55:28 1512147328.668842: $GPGSV,3,2,12,21,72,300,46,24,25,145,45,27,12,321,40,29,19,193,45*77
2017-12-01 11:55:28 1512147328.668909: $GPGSV,3,3,12,05,10,081,31,10,17,276,39,04,08,132,00,138,38,213,47*45
2017-12-01 11:55:28 1512147328.782847: $GPZDA,165529.00,01,12,2017,00,00*6C
2017-12-01 11:55:28 1512147328.783026: $GPGGA,165529,3946.9587,N,08404.9843,W,2,11,0.80,294.50,M,-33.324,M,,*70
2017-12-01 11:55:28 1512147328.783094: $GPRMC,165529,A,3946.9587,N,08404.9843,W,0.0000,0.000,011217,,*32
2017-12-01 11:55:28 1512147328.783155: $GPGSA,A,3,13,15,18,20,21,24,27,29,5,10,138,,2.0,0.8,1.5*34
2017-12-01 11:55:29 1512147329.332926: $GPZDA,165530.00,01,12,2017,00,00*64
2017-12-01 11:55:29 1512147329.333110: $GPGGA,165530,3946.9587,N,08404.9843,W,2,11,0.80,294.50,M,-33.324,M,,*78
2017-12-01 11:55:29 1512147329.333178: $GPRMC,165530,A,3946.9587,N,08404.9843,W,0.0000,0.000,011217,,*3A
2017-12-01 11:55:29 1512147329.333239: $GPGSA,A,3,13,15,18,20,21,24,27,29,5,10,138,,2.0,0.8,1.5*34
