2017-11-16 14:40:55 1510861255.575764: {"class":"VERSION","release":"3.17","rev":"3.17","proto_major":3,"proto_minor":12}
2017-11-16 14:40:55 1510861255.576910: {"class":"DEVICES","devices":[{"class":"DEVICE","path":"/dev/ttyUSB0","driver":"SiRF","subtype":"9\u0006GSD4e_4.1.2-P1_RPATCH.05-F-GPS-4R-1510281 11/03/2015 307","activated":"2017-11-16T19:40:55.543Z","flags":1,"native":1,"bps":4800,"parity":"N","stopbits":1,"cycle":1.00}]}
2017-11-16 14:40:55 1510861255.577084: {"class":"WATCH","enable":true,"json":false,"nmea":true,"raw":0,"scaled":false,"timing":false,"split24":false,"pps":false}
2017-11-16 14:40:56 1510861256.545722: $GPZDA,194055.00,16,11,2017,00,00*69
2017-11-16 14:40:56 1510861256.545882: $GPGGA,194055,3946.9564,N,08404.9849,W,2,11,0.80,302.66,M,-33.324,M,,*7C
2017-11-16 14:40:56 1510861256.545942: $GPRMC,194055,A,3946.9564,N,08404.9849,W,0.0000,0.000,161117,,*30
2017-11-16 14:40:56 1510861256.545999: $GPGSA,A,3,8,10,15,18,21,20,24,27,32,14,138,,1.6,0.8,1.3*37
2017-11-16 14:40:57 1510861257.846111: $GPGSV,3,1,11,08,08,312,41,10,51,310,51,15,27,057,51,18,77,015,45*76
2017-11-16 14:40:57 1510861257.846277: $GPGSV,3,2,11,21,51,184,48,20,24,105,46,24,53,088,49,27,16,277,42*77
2017-11-16 14:40:57 1510861257.846337: $GPGSV,3,3,11,32,30,247,46,14,14,238,44,138,38,213,44*70
2017-11-16 14:40:57 1510861257.959656: $GPZDA,194056.00,16,11,2017,00,00*6A
2017-11-16 14:40:57 1510861257.959810: $GPGGA,194056,3946.9564,N,08404.9849,W,2,11,0.80,302.66,M,-33.324,M,,*7F
2017-11-16 14:40:57 1510861257.959872: $GPRMC,194056,A,3946.9564,N,08404.9849,W,0.0000,0.000,161117,,*33
2017-11-16 14:40:57 1510861257.959928: $GPGSA,A,3,8,10,15,18,21,20,24,27,32,14,138,,1.6,0.8,1.3*37
2017-11-16 14:40:58 1510861258.545503: $GPZDA,194057.00,16,11,2017,00,00*6B
2017-11-16 14:40:58 1510861258.545677: $GPGGA,194057,3946.9564,N,08404.9849,W,2,11,0.80,302.66,M,-33.324,M,,*7E
2017-11-16 14:40:58 1510861258.545738: $GPRMC,194057,A,3946.9564,N,08404.9849,W,0.0000,0.000,161117,,*32
2017-11-16 14:40:58 1510861258.545795: $GPGSA,A,3,8,10,15,18,21,20,24,27,32,14,138,,1.6,0.8,1.3*37
2017-11-16 14:40:59 1510861259.544361: $GPZDA,194058.00,16,11,2017,00,00*64
2017-11-16 14:40:59 1510861259.544546: $GPGGA,194058,3946.9564,N,08404.9849,W,2,11,0.80,302.66,M,-33.324,M,,*71
2017-11-16 14:40:59 1510861259.544631: $GPRMC,194058,A,3946.9564,N,08404.9849,W,0.0000,0.000,161117,,*3D
2017-11-16 14:40:59 1510861259.544690: $GPGSA,A,3,8,10,15,18,21,20,24,27,32,14,138,,1.6,0.8,1.3*37
2017-11-16 14:41:00 1510861260.842467: $GPGSV,3,1,11,08,08,312,41,10,51,310,51,15,27,057,51,18,77,015,44*77
2017-11-16 14:41:00 1510861260.842634: $GPGSV,3,2,11,21,51,184,48,20,24,105,46,24,53,088,49,27,16,277,42*77
2017-11-16 14:41:00 1510861260.842695: $GPGSV,3,3,11,32,30,247,47,14,14,238,43,138,38,213,43*71
2017-11-16 14:41:00 1510861260.955828: $GPZDA,194059.00,16,11,2017,00,00*65
2017-11-16 14:41:00 1510861260.955985: $GPGGA,194059,3946.9564,N,08404.9849,W,2,11,0.80,302.66,M,-33.324,M,,*70
2017-11-16 14:41:00 1510861260.956045: $GPRMC,194059,A,3946.9564,N,08404.9849,W,0.0000,0.000,161117,,*3C
2017-11-16 14:41:00 1510861260.956101: $GPGSA,A,3,8,10,15,18,21,20,24,27,32,14,138,,1.6,0.8,1.3*37
2017-11-16 14:41:01 1510861261.510472: $GPZDA,194100.00,16,11,2017,00,00*68
2017-11-16 14:41:01 1510861261.510669: $GPGGA,194100,3946.9564,N,08404.9849,W,2,11,0.80,302.66,M,-33.324,M,,*7D
2017-11-16 14:41:01 1510861261.510730: $GPRMC,194100,A,3946.9564,N,08404.9849,W,0.0000,0.000,161117,,*31
2017-11-16 14:41:01 1510861261.510786: $GPGSA,A,3,8,10,15,18,21,20,24,27,32,14,138,,1.6,0.8,1.3*37
2017-11-16 14:41:02 1510861262.509803: $GPZDA,194101.00,16,11,2017,00,00*69
2017-11-16 14:41:02 1510861262.509967: $GPGGA,194101,3946.9564,N,08404.9849,W,2,11,0.80,302.66,M,-33.324,M,,*7C
2017-11-16 14:41:02 1510861262.510048: $GPRMC,194101,A,3946.9564,N,08404.9849,W,0.0000,0.000,161117,,*30
2017-11-16 14:41:02 1510861262.510106: $GPGSA,A,3,8,10,15,18,21,20,24,27,32,14,138,,1.6,0.8,1.3*37
2017-11-16 14:41:03 1510861263.845513: $GPGSV,3,1,11,08,08,312,42,10,51,310,51,15,27,057,50,18,77,015,44*75
2017-11-16 14:41:03 1510861263.845735: $GPGSV,3,2,11,21,51,184,47,20,24,105,46,24,53,088,48,27,16,277,42*79
2017-11-16 14:41:03 1510861263.845797: $GPGSV,3,3,11,32,30,247,46,14,14,238,44,138,38,213,43*77
2017-11-16 14:41:03 1510861263.958803: $GPZDA,194102.00,16,11,2017,00,00*6A
2017-11-16 14:41:03 1510861263.958985: $GPGGA,194102,3946.9564,N,08404.9849,W,2,11,0.80,302.66,M,-33.324,M,,*7F
2017-11-16 14:41:03 1510861263.959066: $GPRMC,194102,A,3946.9564,N,08404.9849,W,0.0000,0.000,161117,,*33
2017-11-16 14:41:03 1510861263.959124: $GPGSA,A,3,8,10,15,18,21,20,24,27,32,14,138,,1.6,0.8,1.3*37
2017-11-16 14:41:04 1510861264.585399: $GPZDA,194103.00,16,11,2017,00,00*6B
2017-11-16 14:41:04 1510861264.585626: $GPGGA,194103,3946.9564,N,08404.9849,W,2,11,0.80,302.66,M,-33.324,M,,*7E
2017-11-16 14:41:04 1510861264.585695: $GPRMC,194103,A,3946.9564,N,08404.9849,W,0.0000,0.000,161117,,*32
2017-11-16 14:41:04 1510861264.585776: $GPGSA,A,3,8,10,15,18,21,20,24,27,32,14,138,,1.6,0.8,1.3*37
2017-11-16 14:41:05 1510861265.509916: $GPZDA,194104.00,16,11,2017,00,00*6C
2017-11-16 14:41:05 1510861265.510071: $GPGGA,194104,3946.9564,N,08404.9849,W,2,11,0.80,302.66,M,-33.324,M,,*79
2017-11-16 14:41:05 1510861265.510135: $GPRMC,194104,A,3946.9564,N,08404.9849,W,0.0000,0.000,161117,,*35
2017-11-16 14:41:05 1510861265.510192: $GPGSA,A,3,8,10,15,18,21,20,24,27,32,14,138,,1.6,0.8,1.3*37
