2017-12-01 16:43:49 1512164629.486837: {"class":"VERSION","release":"3.16","rev":"3.16-4","proto_major":3,"proto_minor":11}
2017-12-01 16:43:49 1512164629.487245: {"class":"DEVICES","devices":[{"class":"DEVICE","path":"/dev/ttyUSB0","driver":"SiRF","subtype":"9\u0006GSD4e_4.1.2-P1_RPATCH.05-F-GPS-4R-1510281 11/03/2015 307","activated":"2017-12-01T21:43:49.436Z","flags":1,"native":1,"bps":4800,"parity":"N","stopbits":1,"cycle":1.00}]}
2017-12-01 16:43:49 1512164629.487369: {"class":"WATCH","enable":true,"json":false,"nmea":true,"raw":0,"scaled":false,"timing":false,"split24":false,"pps":false}
2017-12-01 16:43:50 1512164630.726295: $GPGSV,3,1,12,01,22,294,41,10,41,151,43,14,68,342,44,22,24,312,43*7A
2017-12-01 16:43:50 1512164630.726491: $GPGSV,3,2,12,31,62,231,50,32,66,043,49,11,06,277,35,25,41,082,17*7F
2017-12-01 16:43:50 1512164630.726558: $GPGSV,3,3,12,26,08,181,24,18,12,145,16,12,19,045,20,138,38,213,34*4B
2017-12-01 16:43:50 1512164630.839821: $GPZDA,214351.00,01,12,2017,00,00*60
2017-12-01 16:43:50 1512164630.839973: $GPGGA,214351,3946.9639,N,08404.9754,W,2,12,0.80,308.07,M,-33.324,M,,*76
2017-12-01 16:43:50 1512164630.840039: $GPRMC,214351,A,3946.9639,N,08404.9754,W,0.0000,0.000,011217,,*31
2017-12-01 16:43:50 1512164630.840100: $GPGSA,A,3,1,10,14,22,31,32,11,25,26,18,12,138,2.0,0.8,1.5*39
2017-12-01 16:43:51 1512164631.395827: $GPZDA,214352.00,01,12,2017,00,00*63
2017-12-01 16:43:51 1512164631.395997: $GPGGA,214352,3946.9639,N,08404.9754,W,2,12,0.80,308.07,M,-33.324,M,,*75
2017-12-01 16:43:51 1512164631.396063: $GPRMC,214352,A,3946.9639,N,08404.9754,W,0.0000,0.000,011217,,*32
2017-12-01 16:43:51 1512164631.396124: $GPGSA,A,3,1,10,14,22,31,32,11,25,26,18,12,138,2.0,0.8,1.5*39
2017-12-01 16:43:52 1512164632.395507: $GPZDA,214353.00,01,12,2017,00,00*62
2017-12-01 16:43:52 1512164632.395953: $GPGGA,214353,3946.9639,N,08404.9754,W,2,12,0.80,308.07,M,-33.324,M,,*74
2017-12-01 16:43:52 1512164632.396080: $GPRMC,214353,A,3946.9639,N,08404.9754,W,0.0000,0.000,011217,,*33
2017-12-01 16:43:52 1512164632.396144: $GPGSA,A,3,1,10,14,22,31,32,11,25,26,18,12,138,2.0,0.8,1.5*39
2017-12-01 16:43:53 1512164633.748334: $GPGSV,3,1,12,01,22,294,41,10,41,151,43,14,68,342,44,22,24,312,43*7A
2017-12-01 16:43:53 1512164633.748515: $GPGSV,3,2,12,31,62,231,50,32,66,043,49,11,06,277,35,25,41,082,16*7E
2017-12-01 16:43:53 1512164633.748582: $GPGSV,3,3,12,26,08,181,25,18,12,145,16,12,19,045,20,138,38,213,38*46
2017-12-01 16:43:53 1512164633.861784: $GPZDA,214354.00,01,12,2017,00,00*65
2017-12-01 16:43:53 1512164633.861940: $GPGGA,214354,3946.9639,N,08404.9754,W,2,12,0.80,308.07,M,-33.324,M,,*73
2017-12-01 16:43:53 1512164633.862008: $GPRMC,214354,A,3946.9639,N,08404.9754,W,0.0000,0.000,011217,,*34
2017-12-01 16:43:53 1512164633.862070: $GPGSA,A,3,1,10,14,22,31,32,11,25,26,18,12,138,2.0,0.8,1.5*39
2017-12-01 16:43:54 1512164634.413019: $GPZDA,214355.00,01,12,2017,00,00*64
2017-12-01 16:43:54 1512164634.413202: $GPGGA,214355,3946.9639,N,08404.9754,W,2,12,0.80,308.07,M,-33.324,M,,*72
2017-12-01 16:43:54 1512164634.413291: $GPRMC,214355,A,3946.9639,N,08404.9754,W,0.0000,0.000,011217,,*35
2017-12-01 16:43:54 1512164634.413355: $GPGSA,A,3,1,10,14,22,31,32,11,25,26,18,12,138,2.0,0.8,1.5*39
2017-12-01 16:43:55 1512164635.407013: $GPZDA,214356.00,01,12,2017,00,00*67
2017-12-01 16:43:55 1512164635.407183: $GPGGA,214356,3946.9639,N,08404.9754,W,2,12,0.80,308.07,M,-33.324,M,,*71
2017-12-01 16:43:55 1512164635.407249: $GPRMC,214356,A,3946.9639,N,08404.9754,W,0.0000,0.000,011217,,*36
2017-12-01 16:43:55 1512164635.407310: $GPGSA,A,3,1,10,14,22,31,32,11,25,26,18,12,138,2.0,0.8,1.5*39
2017-12-01 16:43:56 1512164636.741165: $GPGSV,3,1,12,01,22,294,42,10,41,151,43,14,68,342,44,22,24,312,42*78
2017-12-01 16:43:56 1512164636.741385: $GPGSV,3,2,12,31,62,231,50,32,66,043,49,11,06,277,35,25,41,082,16*7E
2017-12-01 16:43:56 1512164636.741462: $GPGSV,3,3,12,26,08,181,25,18,12,145,16,12,19,045,25,138,38,213,40*4C
2017-12-01 16:43:56 1512164636.854665: $GPZDA,214357.00,01,12,2017,00,00*66
2017-12-01 16:43:56 1512164636.854846: $GPGGA,214357,3946.9639,N,08404.9754,W,2,12,0.80,308.07,M,-33.324,M,,*70
2017-12-01 16:43:56 1512164636.854966: $GPRMC,214357,A,3946.9639,N,08404.9754,W,0.0000,0.000,011217,,*37
2017-12-01 16:43:56 1512164636.855030: $GPGSA,A,3,1,10,14,22,31,32,11,25,26,18,12,138,2.0,0.8,1.5*39
2017-12-01 16:43:57 1512164637.413075: $GPZDA,214358.00,01,12,2017,00,00*69
2017-12-01 16:43:57 1512164637.413247: $GPGGA,214358,3946.9639,N,08404.9754,W,2,12,0.80,308.07,M,-33.324,M,,*7F
2017-12-01 16:43:57 1512164637.413314: $GPRMC,214358,A,3946.9639,N,08404.9754,W,0.0000,0.000,011217,,*38
2017-12-01 16:43:57 1512164637.413375: $GPGSA,A,3,1,10,14,22,31,32,11,25,26,18,12,138,2.0,0.8,1.5*39
2017-12-01 16:43:58 1512164638.396276: $GPZDA,214359.00,01,12,2017,00,00*68
2017-12-01 16:43:58 1512164638.396458: $GPGGA,214359,3946.9639,N,08404.9754,W,2,12,0.80,308.07,M,-33.324,M,,*7E
2017-12-01 16:43:58 1512164638.396548: $GPRMC,214359,A,3946.9639,N,08404.9754,W,0.0000,0.000,011217,,*39
2017-12-01 16:43:58 1512164638.396611: $GPGSA,A,3,1,10,14,22,31,32,11,25,26,18,12,138,2.0,0.8,1.5*39
2017-12-01 16:43:59 1512164639.732286: $GPGSV,3,1,12,01,22,294,42,10,41,151,42,14,68,342,43,22,24,312,43*7F
2017-12-01 16:43:59 1512164639.732491: $GPGSV,3,2,12,31,62,231,49,32,66,043,49,11,06,277,34,25,41,082,25*77
2017-12-01 16:43:59 1512164639.733886: $GPGSV,3,3,12,26,08,181,26,03,05,316,31,12,19,045,26,138,38,213,40*41
2017-12-01 16:43:59 1512164639.844201: $GPZDA,214400.00,01,12,2017,00,00*63
2017-12-01 16:43:59 1512164639.844376: $GPGGA,214400,3946.9639,N,08404.9754,W,2,12,0.80,308.07,M,-33.324,M,,*75
2017-12-01 16:43:59 1512164639.844444: $GPRMC,214400,A,3946.9639,N,08404.9754,W,0.0000,0.000,011217,,*32
2017-12-01 16:43:59 1512164639.844505: $GPGSA,A,3,1,10,14,22,31,32,11,25,26,3,12,138,2.0,0.8,1.5*03
2017-12-01 16:44:00 1512164640.469536: $GPZDA,214401.00,01,12,2017,00,00*62
2017-12-01 16:44:00 1512164640.469712: $GPGGA,214401,3946.9639,N,08404.9754,W,2,12,0.80,308.07,M,-33.324,M,,*74
2017-12-01 16:44:00 1512164640.469778: $GPRMC,214401,A,3946.9639,N,08404.9754,W,0.0000,0.000,011217,,*33
2017-12-01 16:44:00 1512164640.469838: $GPGSA,A,3,1,10,14,22,31,32,11,25,26,3,12,138,2.0,0.8,1.5*03
2017-12-01 16:44:01 1512164641.407874: $GPZDA,214402.00,01,12,2017,00,00*61
2017-12-01 16:44:01 1512164641.408050: $GPGGA,214402,3946.9639,N,08404.9754,W,2,12,0.80,308.07,M,-33.324,M,,*77
2017-12-01 16:44:01 1512164641.408118: $GPRMC,214402,A,3946.9639,N,08404.9754,W,0.0000,0.000,011217,,*30
2017-12-01 16:44:01 1512164641.408180: $GPGSA,A,3,1,10,14,22,31,32,11,25,26,3,12,138,2.0,0.8,1.5*03
2017-12-01 16:44:02 1512164642.736173: $GPGSV,3,1,12,01,22,294,42,10,41,151,42,14,68,342,43,22,24,312,42*7E
2017-12-01 16:44:02 1512164642.736354: $GPGSV,3,2,12,31,62,231,49,32,66,043,48,11,06,277,34,25,41,082,23*70
2017-12-01 16:44:02 1512164642.736421: $GPGSV,3,3,12,26,08,181,27,18,12,145,03,12,19,045,26,138,38,213,38*46
2017-12-01 16:44:02 1512164642.849490: $GPZDA,214403.00,01,12,2017,00,00*60
2017-12-01 16:44:02 1512164642.849638: $GPGGA,214403,3946.9639,N,08404.9754,W,2,11,0.80,308.07,M,-33.324,M,,*75
2017-12-01 16:44:02 1512164642.849705: $GPRMC,214403,A,3946.9639,N,08404.9754,W,0.0000,0.000,011217,,*31
2017-12-01 16:44:02 1512164642.849766: $GPGSA,A,3,1,10,14,22,31,32,11,25,26,12,138,,2.0,0.8,1.5*30
2017-12-01 16:44:03 1512164643.412992: $GPZDA,214404.00,01,12,2017,00,00*67
2017-12-01 16:44:03 1512164643.413186: $GPGGA,214404,3946.9639,N,08404.9754,W,2,11,0.80,308.07,M,-33.324,M,,*72
2017-12-01 16:44:03 1512164643.413254: $GPRMC,214404,A,3946.9639,N,08404.9754,W,0.0000,0.000,011217,,*36
2017-12-01 16:44:03 1512164643.413315: $GPGSA,A,3,1,10,14,22,31,32,11,25,26,12,138,,2.0,0.8,1.5*30
2017-12-01 16:44:04 1512164644.411210: $GPZDA,214405.00,01,12,2017,00,00*66
2017-12-01 16:44:04 1512164644.411425: $GPGGA,214405,3946.9639,N,08404.9754,W,2,11,0.80,308.07,M,-33.324,M,,*73
2017-12-01 16:44:04 1512164644.411501: $GPRMC,214405,A,3946.9639,N,08404.9754,W,0.0000,0.000,011217,,*37
2017-12-01 16:44:04 1512164644.411563: $GPGSA,A,3,1,10,14,22,31,32,11,25,26,12,138,,2.0,0.8,1.5*30
2017-12-01 16:44:05 1512164645.748973: $GPGSV,3,1,12,01,22,294,42,10,41,151,42,14,68,342,43,22,24,312,42*7E
2017-12-01 16:44:05 1512164645.749157: $GPGSV,3,2,12,31,62,231,49,32,66,043,49,11,06,277,34,25,41,082,17*76
2017-12-01 16:44:05 1512164645.749225: $GPGSV,3,3,12,26,08,181,27,18,12,145,19,12,19,045,26,138,38,213,40*42
2017-12-01 16:44:05 1512164645.862657: $GPZDA,214406.00,01,12,2017,00,00*65
2017-12-01 16:44:05 1512164645.862829: $GPGGA,214406,3946.9639,N,08404.9754,W,2,12,0.80,308.07,M,-33.324,M,,*73
2017-12-01 16:44:05 1512164645.862897: $GPRMC,214406,A,3946.9639,N,08404.9754,W,0.0000,0.000,011217,,*34
2017-12-01 16:44:05 1512164645.862958: $GPGSA,A,3,1,10,14,22,31,32,11,25,26,18,12,138,2.0,0.8,1.5*39
2017-12-01 16:44:06 1512164646.390758: $GPZDA,214407.00,01,12,2017,00,00*64
2017-12-01 16:44:06 1512164646.390917: $GPGGA,214407,3946.9639,N,08404.9754,W,2,12,0.80,308.07,M,-33.324,M,,*72
2017-12-01 16:44:06 1512164646.390983: $GPRMC,214407,A,3946.9639,N,08404.9754,W,0.0000,0.000,011217,,*35
2017-12-01 16:44:06 1512164646.391064: $GPGSA,A,3,1,10,14,22,31,32,11,25,26,18,12,138,2.0,0.8,1.5*39
2017-12-01 16:44:07 1512164647.413191: $GPZDA,214408.00,01,12,2017,00,00*6B
2017-12-01 16:44:07 1512164647.413515: $GPGGA,214408,3946.9639,N,08404.9754,W,2,12,0.80,308.07,M,-33.324,M,,*7D
2017-12-01 16:44:07 1512164647.413649: $GPRMC,214408,A,3946.9639,N,08404.9754,W,0.0000,0.000,011217,,*3A
2017-12-01 16:44:07 1512164647.413776: $GPGSA,A,3,1,10,14,22,31,32,11,25,26,18,12,138,2.0,0.8,1.5*39
2017-12-01 16:44:08 1512164648.747458: $GPGSV,3,1,12,01,22,294,42,10,41,151,41,14,68,342,44,22,24,312,42*7A
2017-12-01 16:44:08 1512164648.747650: $GPGSV,3,2,12,31,62,231,49,32,66,043,49,11,06,277,35,25,41,082,19*79
2017-12-01 16:44:08 1512164648.747718: $GPGSV,3,3,12,26,08,181,27,18,12,145,20,12,19,045,26,138,38,213,41*49
2017-12-01 16:44:08 1512164648.860919: $GPZDA,214409.00,01,12,2017,00,00*6A
2017-12-01 16:44:08 1512164648.861084: $GPGGA,214409,3946.9639,N,08404.9754,W,2,12,0.80,308.07,M,-33.324,M,,*7C
2017-12-01 16:44:08 1512164648.861150: $GPRMC,214409,A,3946.9639,N,08404.9754,W,0.0000,0.000,011217,,*3B
2017-12-01 16:44:08 1512164648.861211: $GPGSA,A,3,1,10,14,22,31,32,11,25,26,18,12,138,2.0,0.8,1.5*39
2017-12-01 16:44:09 1512164649.413020: $GPZDA,214410.00,01,12,2017,00,00*62
2017-12-01 16:44:09 1512164649.413196: $GPGGA,214410,3946.9639,N,08404.9754,W,2,12,0.80,308.07,M,-33.324,M,,*74
2017-12-01 16:44:09 1512164649.413263: $GPRMC,214410,A,3946.9639,N,08404.9754,W,0.0000,0.000,011217,,*33
2017-12-01 16:44:09 1512164649.413323: $GPGSA,A,3,1,10,14,22,31,32,11,25,26,18,12,138,2.0,0.8,1.5*39
