2017-12-31 17:52:54 1514760774.368260: {"class":"VERSION","release":"3.16","rev":"3.16-4","proto_major":3,"proto_minor":11}
2017-12-31 17:52:54 1514760774.368753: {"class":"DEVICES","devices":[{"class":"DEVICE","path":"/dev/ttyUSB0","driver":"SiRF","activated":"2017-12-31T22:52:54.226Z","flags":1,"native":1,"bps":4800,"parity":"N","stopbits":1,"cycle":1.00}]}
2017-12-31 17:52:54 1514760774.368859: {"class":"WATCH","enable":true,"json":false,"nmea":true,"raw":0,"scaled":false,"timing":false,"split24":false,"pps":false}
2017-12-31 17:52:54 1514760774.675728: $GPGSV,3,1,12,22,28,219,36,23,47,309,38,09,14,312,40,03,37,241,43*71
2017-12-31 17:52:54 1514760774.675909: $GPGSV,3,2,12,16,72,192,37,29,09,036,18,14,21,129,20,31,33,069,41*7F
2017-12-31 17:52:54 1514760774.675974: $GPGSV,3,3,12,27,16,157,21,32,01,133,14,26,69,057,44,135,22,240,40*40
2017-12-31 17:52:54 1514760774.789190: $GPZDA,225255.00,31,12,2017,00,00*64
2017-12-31 17:52:54 1514760774.789342: $GPGGA,225255,3946.9567,N,08404.9864,W,2,12,0.60,305.31,M,-33.324,M,,*73
2017-12-31 17:52:54 1514760774.789408: $GPRMC,225255,A,3946.9567,N,08404.9864,W,0.0000,0.000,311217,,*31
2017-12-31 17:52:54 1514760774.789487: $GPGSA,A,3,22,23,9,3,16,29,14,31,27,32,26,135,1.7,0.6,1.3*07
2017-12-31 17:52:55 1514760775.414642: $GPZDA,225256.00,31,12,2017,00,00*67
2017-12-31 17:52:55 1514760775.414810: $GPGGA,225256,3946.9567,N,08404.9864,W,2,12,0.60,305.31,M,-33.324,M,,*70
2017-12-31 17:52:55 1514760775.414876: $GPRMC,225256,A,3946.9567,N,08404.9864,W,0.0000,0.000,311217,,*32
2017-12-31 17:52:55 1514760775.414937: $GPGSA,A,3,22,23,9,3,16,29,14,31,27,32,26,135,1.7,0.6,1.3*07
2017-12-31 17:52:56 1514760776.371717: $GPZDA,225257.00,31,12,2017,00,00*66
2017-12-31 17:52:56 1514760776.371885: $GPGGA,225257,3946.9567,N,08404.9864,W,2,12,0.60,305.31,M,-33.324,M,,*71
2017-12-31 17:52:56 1514760776.371952: $GPRMC,225257,A,3946.9567,N,08404.9864,W,0.0000,0.000,311217,,*33
2017-12-31 17:52:56 1514760776.372013: $GPGSA,A,3,22,23,9,3,16,29,14,31,27,32,26,135,1.7,0.6,1.3*07
2017-12-31 17:52:57 1514760777.682358: $GPGSV,3,1,12,22,28,219,39,23,47,309,41,09,14,312,43,03,37,241,45*75
2017-12-31 17:52:57 1514760777.682546: $GPGSV,3,2,12,16,72,192,40,29,09,036,22,14,21,129,24,31,33,069,42*71
2017-12-31 17:52:57 1514760777.682614: $GPGSV,3,3,12,27,16,157,22,32,01,133,15,26,69,057,46,135,22,240,44*44
2017-12-31 17:52:57 1514760777.795825: $GPZDA,225258.00,31,12,2017,00,00*69
2017-12-31 17:52:57 1514760777.795979: $GPGGA,225258,3946.9567,N,08404.9864,W,2,12,0.60,305.31,M,-33.324,M,,*7E
2017-12-31 17:52:57 1514760777.796045: $GPRMC,225258,A,3946.9567,N,08404.9864,W,0.0000,0.000,311217,,*3C
2017-12-31 17:52:57 1514760777.796106: $GPGSA,A,3,22,23,9,3,16,29,14,31,27,32,26,135,1.7,0.6,1.3*07
2017-12-31 17:52:58 1514760778.345351: $GPZDA,225259.00,31,12,2017,00,00*68
2017-12-31 17:52:58 1514760778.345536: $GPGGA,225259,3946.9567,N,08404.9864,W,2,12,0.60,305.31,M,-33.324,M,,*7F
2017-12-31 17:52:58 1514760778.345604: $GPRMC,225259,A,3946.9567,N,08404.9864,W,0.3155,129.994,311217,,*31
2017-12-31 17:52:58 1514760778.345666: $GPGSA,A,3,22,23,9,3,16,29,14,31,27,32,26,135,1.7,0.6,1.3*07
2017-12-31 17:52:59 1514760779.346724: $GPZDA,225300.00,31,12,2017,00,00*65
2017-12-31 17:52:59 1514760779.346893: $GPGGA,225300,3946.9567,N,08404.9864,W,2,12,0.60,305.31,M,-33.324,M,,*72
2017-12-31 17:52:59 1514760779.346979: $GPRMC,225300,A,3946.9567,N,08404.9864,W,0.0000,0.000,311217,,*30
2017-12-31 17:52:59 1514760779.347042: $GPGSA,A,3,22,23,9,3,16,29,14,31,27,32,26,135,1.7,0.6,1.3*07
2017-12-31 17:53:00 1514760780.675290: $GPGSV,3,1,12,22,28,219,43,23,47,309,43,09,14,312,45,03,37,241,45*7C
2017-12-31 17:53:00 1514760780.675466: $GPGSV,3,2,12,16,72,192,41,29,09,036,33,14,21,129,23,31,33,069,43*76
2017-12-31 17:53:00 1514760780.675532: $GPGSV,3,3,12,27,16,157,23,32,01,133,15,26,69,057,47,135,22,240,43*43
2017-12-31 17:53:00 1514760780.788977: $GPZDA,225301.00,31,12,2017,00,00*64
2017-12-31 17:53:00 1514760780.789122: $GPGGA,225301,3946.9567,N,08404.9864,W,2,12,0.60,305.31,M,-33.324,M,,*73
2017-12-31 17:53:00 1514760780.789189: $GPRMC,225301,A,3946.9567,N,08404.9864,W,0.0000,0.000,311217,,*31
2017-12-31 17:53:00 1514760780.789326: $GPGSA,A,3,22,23,9,3,16,29,14,31,27,32,26,135,1.7,0.6,1.3*07
2017-12-31 17:53:01 1514760781.347431: $GPZDA,225302.00,31,12,2017,00,00*67
2017-12-31 17:53:01 1514760781.347588: $GPGGA,225302,3946.9567,N,08404.9864,W,2,12,0.60,305.31,M,-33.324,M,,*70
2017-12-31 17:53:01 1514760781.347655: $GPRMC,225302,A,3946.9567,N,08404.9864,W,0.0000,0.000,311217,,*32
2017-12-31 17:53:01 1514760781.347716: $GPGSA,A,3,22,23,9,3,16,29,14,31,27,32,26,135,1.7,0.6,1.3*07
2017-12-31 17:53:02 1514760782.339538: $GPZDA,225303.00,31,12,2017,00,00*66
2017-12-31 17:53:02 1514760782.339700: $GPGGA,225303,3946.9567,N,08404.9864,W,2,12,0.60,305.31,M,-33.324,M,,*71
2017-12-31 17:53:02 1514760782.339767: $GPRMC,225303,A,3946.9567,N,08404.9864,W,0.0000,0.000,311217,,*33
2017-12-31 17:53:02 1514760782.339828: $GPGSA,A,3,22,23,9,3,16,29,14,31,27,32,26,135,1.7,0.6,1.3*07
2017-12-31 17:53:03 1514760783.682296: $GPGSV,3,1,12,22,28,219,43,23,47,309,43,09,14,312,45,03,37,241,45*7C
2017-12-31 17:53:03 1514760783.682507: $GPGSV,3,2,12,16,72,192,42,29,09,036,31,14,21,129,24,31,33,069,43*70
2017-12-31 17:53:03 1514760783.682576: $GPGSV,3,3,12,27,16,157,23,32,01,133,14,26,69,057,47,135,22,240,44*45
2017-12-31 17:53:03 1514760783.795924: $GPZDA,225304.00,31,12,2017,00,00*61
2017-12-31 17:53:03 1514760783.796074: $GPGGA,225304,3946.9567,N,08404.9864,W,2,12,0.60,305.31,M,-33.324,M,,*76
2017-12-31 17:53:03 1514760783.796140: $GPRMC,225304,A,3946.9567,N,08404.9864,W,0.0000,0.000,311217,,*34
2017-12-31 17:53:03 1514760783.796201: $GPGSA,A,3,22,23,9,3,16,29,14,31,27,32,26,135,1.7,0.6,1.3*07
2017-12-31 17:53:04 1514760784.345532: $GPZDA,225305.00,31,12,2017,00,00*60
2017-12-31 17:53:04 1514760784.345705: $GPGGA,225305,3946.9567,N,08404.9864,W,2,12,0.60,305.31,M,-33.324,M,,*77
2017-12-31 17:53:04 1514760784.345773: $GPRMC,225305,A,3946.9567,N,08404.9864,W,0.0000,0.000,311217,,*35
2017-12-31 17:53:04 1514760784.345836: $GPGSA,A,3,22,23,9,3,16,29,14,31,27,32,26,135,1.7,0.6,1.3*07
