2017-12-29 10:54:36 1514562876.106347: {"class":"VERSION","release":"3.16","rev":"3.16-4","proto_major":3,"proto_minor":11}
2017-12-29 10:54:36 1514562876.106688: {"class":"DEVICES","devices":[{"class":"DEVICE","path":"/dev/ttyUSB0","driver":"SiRF","subtype":"9\u0006GSD4e_4.1.2-P1_RPATCH.05-F-GPS-4R-1510281 11/03/2015 307","activated":"2017-12-29T15:54:35.665Z","flags":1,"native":1,"bps":4800,"parity":"N","stopbits":1,"cycle":1.00}]}
2017-12-29 10:54:36 1514562876.106800: {"class":"WATCH","enable":true,"json":false,"nmea":true,"raw":0,"scaled":false,"timing":false,"split24":false,"pps":false}
2017-12-29 10:54:36 1514562876.686903: $GPGSV,3,1,11,10,34,294,42,13,16,046,42,15,46,049,49,18,65,319,44*72
2017-12-29 10:54:36 1514562876.687055: $GPGSV,3,2,11,20,42,087,51,21,73,204,46,24,45,124,50,27,19,300,39*75
2017-12-29 10:54:36 1514562876.687120: $GPGSV,3,3,11,32,13,232,30,08,02,330,31,138,38,213,44*73
2017-12-29 10:54:36 1514562876.800617: $GPZDA,155437.00,29,12,2017,00,00*6B
2017-12-29 10:54:36 1514562876.800760: $GPGGA,155437,3946.9630,N,08404.9789,W,2,11,1.00,317.83,M,-33.324,M,,*76
2017-12-29 10:54:36 1514562876.800826: $GPRMC,155437,A,3946.9630,N,08404.9789,W,0.0000,0.000,291217,,*33
2017-12-29 10:54:36 1514562876.800886: $GPGSA,A,3,10,13,15,18,20,21,24,27,32,8,138,,1.7,1.0,1.3*38
2017-12-29 10:54:37 1514562877.354020: $GPZDA,155438.00,29,12,2017,00,00*64
2017-12-29 10:54:37 1514562877.354175: $GPGGA,155438,3946.9630,N,08404.9789,W,2,11,1.00,317.83,M,-33.324,M,,*79
2017-12-29 10:54:37 1514562877.354246: $GPRMC,155438,A,3946.9630,N,08404.9789,W,0.0000,0.000,291217,,*3C
2017-12-29 10:54:37 1514562877.354307: $GPGSA,A,3,10,13,15,18,20,21,24,27,32,8,138,,1.7,1.0,1.3*38
2017-12-29 10:54:38 1514562878.353637: $GPZDA,155439.00,29,12,2017,00,00*65
2017-12-29 10:54:38 1514562878.353792: $GPGGA,155439,3946.9626,N,08404.9789,W,2,11,1.00,317.19,M,-33.324,M,,*7C
2017-12-29 10:54:38 1514562878.353859: $GPRMC,155439,A,3946.9626,N,08404.9789,W,0.0000,0.000,291217,,*3A
2017-12-29 10:54:38 1514562878.353918: $GPGSA,A,3,10,13,15,18,20,21,24,27,32,8,138,,1.7,1.0,1.3*38
2017-12-29 10:54:39 1514562879.687762: $GPGSV,3,1,11,10,34,294,42,13,16,046,42,15,46,049,49,18,65,319,44*72
2017-12-29 10:54:39 1514562879.687920: $GPGSV,3,2,11,20,42,087,51,21,73,204,47,24,45,124,50,27,19,300,38*75
2017-12-29 10:54:39 1514562879.687986: $GPGSV,3,3,11,32,13,232,29,08,02,330,31,138,38,213,44*7B
2017-12-29 10:54:39 1514562879.801684: $GPZDA,155440.00,29,12,2017,00,00*6B
2017-12-29 10:54:39 1514562879.801786: $GPGGA,155440,3946.9626,N,08404.9789,W,2,11,0.80,317.19,M,-33.324,M,,*7B
2017-12-29 10:54:39 1514562879.801852: $GPRMC,155440,A,3946.9626,N,08404.9789,W,0.0000,0.000,291217,,*34
2017-12-29 10:54:39 1514562879.801912: $GPGSA,A,3,10,13,15,18,20,21,24,27,32,8,138,,1.7,0.8,1.3*31
2017-12-29 10:54:40 1514562880.351211: $GPZDA,155441.00,29,12,2017,00,00*6A
2017-12-29 10:54:40 1514562880.351377: $GPGGA,155441,3946.9626,N,08404.9789,W,2,11,0.80,317.19,M,-33.324,M,,*7A
2017-12-29 10:54:40 1514562880.351446: $GPRMC,155441,A,3946.9626,N,08404.9789,W,0.0000,0.000,291217,,*35
2017-12-29 10:54:40 1514562880.351507: $GPGSA,A,3,10,13,15,18,20,21,24,27,32,8,138,,1.7,0.8,1.3*31
2017-12-29 10:54:41 1514562881.354011: $GPZDA,155442.00,29,12,2017,00,00*69
2017-12-29 10:54:41 1514562881.354179: $GPGGA,155442,3946.9626,N,08404.9789,W,2,11,0.80,317.19,M,-33.324,M,,*79
2017-12-29 10:54:41 1514562881.354250: $GPRMC,155442,A,3946.9626,N,08404.9789,W,0.0000,0.000,291217,,*36
2017-12-29 10:54:41 1514562881.354314: $GPGSA,A,3,10,13,15,18,20,21,24,27,32,8,138,,1.7,0.8,1.3*31
2017-12-29 10:54:42 1514562882.689414: $GPGSV,3,1,11,10,34,294,42,13,16,046,42,15,46,049,49,18,65,319,44*72
2017-12-29 10:54:42 1514562882.689584: $GPGSV,3,2,11,20,42,087,51,21,73,204,47,24,45,124,50,27,19,300,38*75
2017-12-29 10:54:42 1514562882.689650: $GPGSV,3,3,11,32,13,232,29,08,02,330,31,138,38,213,44*7B
2017-12-29 10:54:42 1514562882.803103: $GPZDA,155443.00,29,12,2017,00,00*68
2017-12-29 10:54:42 1514562882.803226: $GPGGA,155443,3946.9626,N,08404.9789,W,2,11,0.80,317.19,M,-33.324,M,,*78
2017-12-29 10:54:42 1514562882.803352: $GPRMC,155443,A,3946.9626,N,08404.9789,W,0.0000,0.000,291217,,*37
2017-12-29 10:54:42 1514562882.803415: $GPGSA,A,3,10,13,15,18,20,21,24,27,32,8,138,,1.7,0.8,1.3*31
2017-12-29 10:54:43 1514562883.353961: $GPZDA,155444.00,29,12,2017,00,00*6F
2017-12-29 10:54:43 1514562883.354125: $GPGGA,155444,3946.9626,N,08404.9789,W,2,11,0.80,317.19,M,-33.324,M,,*7F
2017-12-29 10:54:43 1514562883.354193: $GPRMC,155444,A,3946.9626,N,08404.9789,W,0.0000,0.000,291217,,*30
2017-12-29 10:54:43 1514562883.354257: $GPGSA,A,3,10,13,15,18,20,21,24,27,32,8,138,,1.7,0.8,1.3*31
2017-12-29 10:54:44 1514562884.352407: $GPZDA,155445.00,29,12,2017,00,00*6E
2017-12-29 10:54:44 1514562884.352569: $GPGGA,155445,3946.9626,N,08404.9789,W,2,11,0.80,317.19,M,-33.324,M,,*7E
2017-12-29 10:54:44 1514562884.352635: $GPRMC,155445,A,3946.9626,N,08404.9789,W,0.0000,0.000,291217,,*31
2017-12-29 10:54:44 1514562884.352697: $GPGSA,A,3,10,13,15,18,20,21,24,27,32,8,138,,1.7,0.8,1.3*31
2017-12-29 10:54:45 1514562885.687742: $GPGSV,3,1,11,10,34,294,42,13,16,046,42,15,46,049,49,18,65,319,44*72
2017-12-29 10:54:45 1514562885.687908: $GPGSV,3,2,11,20,42,087,51,21,73,204,46,24,45,124,50,27,19,300,37*7B
2017-12-29 10:54:45 1514562885.687974: $GPGSV,3,3,11,32,13,232,29,08,02,330,30,138,38,213,46*78
2017-12-29 10:54:45 1514562885.801099: $GPZDA,155446.00,29,12,2017,00,00*6D
2017-12-29 10:54:45 1514562885.801246: $GPGGA,155446,3946.9626,N,08404.9789,W,2,11,0.80,317.19,M,-33.324,M,,*7D
2017-12-29 10:54:45 1514562885.801319: $GPRMC,155446,A,3946.9626,N,08404.9789,W,0.0000,0.000,291217,,*32
2017-12-29 10:54:45 1514562885.801380: $GPGSA,A,3,10,13,15,18,20,21,24,27,32,8,138,,1.7,0.8,1.3*31
2017-12-29 10:54:46 1514562886.426730: $GPZDA,155447.00,29,12,2017,00,00*6C
2017-12-29 10:54:46 1514562886.426890: $GPGGA,155447,3946.9626,N,08404.9789,W,2,11,0.80,317.19,M,-33.324,M,,*7C
2017-12-29 10:54:46 1514562886.426956: $GPRMC,155447,A,3946.9626,N,08404.9789,W,0.0000,0.000,291217,,*33
2017-12-29 10:54:46 1514562886.427017: $GPGSA,A,3,10,13,15,18,20,21,24,27,32,8,138,,1.7,0.8,1.3*31
2017-12-29 10:54:47 1514562887.353880: $GPZDA,155448.00,29,12,2017,00,00*63
2017-12-29 10:54:47 1514562887.354043: $GPGGA,155448,3946.9626,N,08404.9789,W,2,11,0.80,317.19,M,-33.324,M,,*73
2017-12-29 10:54:47 1514562887.354109: $GPRMC,155448,A,3946.9626,N,08404.9789,W,0.0000,0.000,291217,,*3C
2017-12-29 10:54:47 1514562887.354170: $GPGSA,A,3,10,13,15,18,20,21,24,27,32,8,138,,1.7,0.8,1.3*31
2017-12-29 10:54:48 1514562888.688076: $GPGSV,3,1,11,10,34,294,43,13,16,046,41,15,46,049,50,18,65,319,44*78
2017-12-29 10:54:48 1514562888.688228: $GPGSV,3,2,11,20,42,087,51,21,73,204,47,24,45,124,50,27,19,300,37*7A
2017-12-29 10:54:48 1514562888.688295: $GPGSV,3,3,11,32,13,232,29,08,02,330,18,138,38,213,45*71
2017-12-29 10:54:48 1514562888.801706: $GPZDA,155449.00,29,12,2017,00,00*62
2017-12-29 10:54:48 1514562888.801822: $GPGGA,155449,3946.9626,N,08404.9796,W,2,11,0.80,317.11,M,-33.324,M,,*74
2017-12-29 10:54:48 1514562888.801886: $GPRMC,155449,A,3946.9626,N,08404.9796,W,0.0000,0.000,291217,,*33
2017-12-29 10:54:48 1514562888.801945: $GPGSA,A,3,10,13,15,18,20,21,24,27,32,8,138,,1.7,0.8,1.3*31
2017-12-29 10:54:49 1514562889.858990: $GPZDA,155450.00,29,12,2017,00,00*6A
2017-12-29 10:54:49 1514562889.859149: $GPGGA,155450,3946.9621,N,08404.9788,W,2,11,0.80,315.14,M,-33.324,M,,*73
2017-12-29 10:54:49 1514562889.859220: $GPRMC,155450,A,3946.9621,N,08404.9788,W,0.2422,93.794,291217,,*05
2017-12-29 10:54:49 1514562889.859284: $GPGSA,A,3,10,13,15,18,20,21,24,27,32,8,138,,1.7,0.8,1.3*31
2017-12-29 10:54:50 1514562890.353329: $GPZDA,155451.00,29,12,2017,00,00*6B
2017-12-29 10:54:50 1514562890.353486: $GPGGA,155451,3946.9621,N,08404.9788,W,2,11,0.80,315.14,M,-33.324,M,,*72
2017-12-29 10:54:50 1514562890.353554: $GPRMC,155451,A,3946.9621,N,08404.9788,W,0.0000,0.000,291217,,*32
2017-12-29 10:54:50 1514562890.353616: $GPGSA,A,3,10,13,15,18,20,21,24,27,32,8,138,,1.7,0.8,1.3*31
2017-12-29 10:54:51 1514562891.688567: $GPGSV,3,1,11,10,34,294,43,13,16,046,42,15,46,049,49,18,65,319,44*73
2017-12-29 10:54:51 1514562891.688789: $GPGSV,3,2,11,20,42,087,51,21,73,204,47,24,45,124,50,27,19,300,35*78
2017-12-29 10:54:51 1514562891.688860: $GPGSV,3,3,11,32,13,232,30,08,02,330,10,138,38,213,44*70
2017-12-29 10:54:51 1514562891.802263: $GPZDA,155452.00,29,12,2017,00,00*68
2017-12-29 10:54:51 1514562891.802397: $GPGGA,155452,3946.9621,N,08404.9788,W,2,11,0.80,315.14,M,-33.324,M,,*71
2017-12-29 10:54:51 1514562891.802462: $GPRMC,155452,A,3946.9621,N,08404.9788,W,0.0000,0.000,291217,,*31
2017-12-29 10:54:51 1514562891.802523: $GPGSA,A,3,10,13,15,18,20,21,24,27,32,8,138,,1.7,0.8,1.3*31
2017-12-29 10:54:52 1514562892.351890: $GPZDA,155453.00,29,12,2017,00,00*69
2017-12-29 10:54:52 1514562892.352042: $GPGGA,155453,3946.9621,N,08404.9788,W,2,11,0.80,315.14,M,-33.324,M,,*70
2017-12-29 10:54:52 1514562892.352107: $GPRMC,155453,A,3946.9621,N,08404.9788,W,0.0000,0.000,291217,,*30
2017-12-29 10:54:52 1514562892.352172: $GPGSA,A,3,10,13,15,18,20,21,24,27,32,8,138,,1.7,0.8,1.3*31
2017-12-29 10:54:53 1514562893.353958: $GPZDA,155454.00,29,12,2017,00,00*6E
2017-12-29 10:54:53 1514562893.354111: $GPGGA,155454,3946.9621,N,08404.9788,W,2,11,0.80,315.14,M,-33.324,M,,*77
2017-12-29 10:54:53 1514562893.354180: $GPRMC,155454,A,3946.9621,N,08404.9788,W,0.0000,0.000,291217,,*37
2017-12-29 10:54:53 1514562893.354239: $GPGSA,A,3,10,13,15,18,20,21,24,27,32,8,138,,1.7,0.8,1.3*31
2017-12-29 10:54:54 1514562894.689436: $GPGSV,3,1,11,10,34,294,44,13,16,046,41,15,46,049,49,18,65,319,44*77
2017-12-29 10:54:54 1514562894.689598: $GPGSV,3,2,11,20,42,087,51,21,73,204,47,24,45,124,50,27,19,300,31*7C
2017-12-29 10:54:54 1514562894.689665: $GPGSV,3,3,11,32,13,232,30,08,02,330,00,138,38,213,45*70
2017-12-29 10:54:54 1514562894.803034: $GPZDA,155455.00,29,12,2017,00,00*6F
2017-12-29 10:54:54 1514562894.803164: $GPGGA,155455,3946.9621,N,08404.9788,W,2,10,0.80,315.14,M,-33.324,M,,*77
2017-12-29 10:54:54 1514562894.803228: $GPRMC,155455,A,3946.9621,N,08404.9788,W,0.0000,0.000,291217,,*36
2017-12-29 10:54:54 1514562894.803292: $GPGSA,A,3,10,13,15,18,20,21,24,27,32,138,,,1.7,0.8,1.3*09
2017-12-29 10:54:55 1514562895.857813: $GPZDA,155456.00,29,12,2017,00,00*6C
2017-12-29 10:54:55 1514562895.857989: $GPGGA,155456,3946.9621,N,08404.9788,W,2,10,0.80,315.14,M,-33.324,M,,*74
2017-12-29 10:54:55 1514562895.858056: $GPRMC,155456,A,3946.9621,N,08404.9788,W,0.0000,0.000,291217,,*35
2017-12-29 10:54:55 1514562895.858117: $GPGSA,A,3,10,13,15,18,20,21,24,27,32,138,,,1.7,0.8,1.3*09
