2017-12-01 17:21:47 1512166907.556882: {"class":"VERSION","release":"3.16","rev":"3.16-4","proto_major":3,"proto_minor":11}
2017-12-01 17:21:47 1512166907.557316: {"class":"DEVICES","devices":[{"class":"DEVICE","path":"/dev/ttyUSB0","driver":"SiRF","subtype":"9\u0006GSD4e_4.1.2-P1_RPATCH.05-F-GPS-4R-1510281 11/03/2015 307","activated":"2017-12-01T22:21:47.527Z","flags":1,"native":1,"bps":4800,"parity":"N","stopbits":1,"cycle":1.00}]}
2017-12-01 17:21:47 1512166907.557435: {"class":"WATCH","enable":true,"json":false,"nmea":true,"raw":0,"scaled":false,"timing":false,"split24":false,"pps":false}
2017-12-01 17:21:48 1512166908.700252: $GPGSV,3,1,11,01,19,277,44,03,19,316,44,10,24,156,38,14,70,031,45*70
2017-12-01 17:21:48 1512166908.700436: $GPGSV,3,2,11,22,37,304,46,25,37,060,34,26,24,178,38,31,77,271,47*79
2017-12-01 17:21:48 1512166908.700501: $GPGSV,3,3,11,32,56,076,46,12,09,033,24,138,38,213,35*73
2017-12-01 17:21:48 1512166908.813950: $GPZDA,222149.00,01,12,2017,00,00*6E
2017-12-01 17:21:48 1512166908.814102: $GPGGA,222149,3946.9681,N,08404.9747,W,2,11,0.80,301.70,M,-33.324,M,,*73
2017-12-01 17:21:48 1512166908.814167: $GPRMC,222149,A,3946.9681,N,08404.9747,W,0.0000,0.000,011217,,*3E
2017-12-01 17:21:48 1512166908.814228: $GPGSA,A,3,1,3,10,14,22,25,26,31,32,12,138,,2.0,0.8,1.5*03
2017-12-01 17:21:49 1512166909.439290: $GPZDA,222150.00,01,12,2017,00,00*66
2017-12-01 17:21:49 1512166909.439458: $GPGGA,222150,3946.9681,N,08404.9747,W,2,11,0.80,301.70,M,-33.324,M,,*7B
2017-12-01 17:21:49 1512166909.439524: $GPRMC,222150,A,3946.9681,N,08404.9747,W,0.0000,0.000,011217,,*36
2017-12-01 17:21:49 1512166909.439584: $GPGSA,A,3,1,3,10,14,22,25,26,31,32,12,138,,2.0,0.8,1.5*03
2017-12-01 17:21:50 1512166910.385171: $GPZDA,222151.00,01,12,2017,00,00*67
2017-12-01 17:21:50 1512166910.385345: $GPGGA,222151,3946.9681,N,08404.9747,W,2,11,0.80,301.70,M,-33.324,M,,*7A
2017-12-01 17:21:50 1512166910.385413: $GPRMC,222151,A,3946.9681,N,08404.9747,W,0.0000,0.000,011217,,*37
2017-12-01 17:21:50 1512166910.385474: $GPGSA,A,3,1,3,10,14,22,25,26,31,32,12,138,,2.0,0.8,1.5*03
2017-12-01 17:21:51 1512166911.723153: $GPGSV,3,1,11,01,19,277,45,03,19,316,44,10,24,156,38,14,70,031,45*71
2017-12-01 17:21:51 1512166911.723335: $GPGSV,3,2,11,22,37,304,46,25,37,060,34,26,24,178,37,31,77,271,47*76
2017-12-01 17:21:51 1512166911.723399: $GPGSV,3,3,11,32,56,076,46,12,09,033,25,138,38,213,39*7E
2017-12-01 17:21:51 1512166911.836524: $GPZDA,222152.00,01,12,2017,00,00*64
2017-12-01 17:21:51 1512166911.836697: $GPGGA,222152,3946.9681,N,08404.9747,W,2,11,0.80,301.70,M,-33.324,M,,*79
2017-12-01 17:21:51 1512166911.836763: $GPRMC,222152,A,3946.9681,N,08404.9747,W,0.0000,0.000,011217,,*34
2017-12-01 17:21:51 1512166911.836824: $GPGSA,A,3,1,3,10,14,22,25,26,31,32,12,138,,2.0,0.8,1.5*03
2017-12-01 17:21:52 1512166912.386175: $GPZDA,222153.00,01,12,2017,00,00*65
2017-12-01 17:21:52 1512166912.389844: $GPGGA,222153,3946.9681,N,08404.9747,W,2,11,0.80,301.70,M,-33.324,M,,*78
2017-12-01 17:21:52 1512166912.390019: $GPRMC,222153,A,3946.9681,N,08404.9747,W,0.0000,0.000,011217,,*35
2017-12-01 17:21:52 1512166912.390119: $GPGSA,A,3,1,3,10,14,22,25,26,31,32,12,138,,2.0,0.8,1.5*03
2017-12-01 17:21:53 1512166913.387019: $GPZDA,222154.00,01,12,2017,00,00*62
2017-12-01 17:21:53 1512166913.387191: $GPGGA,222154,3946.9681,N,08404.9747,W,2,11,0.80,301.70,M,-33.324,M,,*7F
2017-12-01 17:21:53 1512166913.387259: $GPRMC,222154,A,3946.9681,N,08404.9747,W,0.0000,0.000,011217,,*32
2017-12-01 17:21:53 1512166913.387320: $GPGSA,A,3,1,3,10,14,22,25,26,31,32,12,138,,2.0,0.8,1.5*03
2017-12-01 17:21:54 1512166914.703494: $GPGSV,3,1,11,01,19,277,44,03,19,316,44,10,24,156,38,14,70,031,45*70
2017-12-01 17:21:54 1512166914.703677: $GPGSV,3,2,11,22,37,304,46,25,37,060,34,26,24,178,36,31,77,271,47*77
2017-12-01 17:21:54 1512166914.703743: $GPGSV,3,3,11,32,56,076,46,12,09,033,25,138,38,213,40*70
2017-12-01 17:21:54 1512166914.816847: $GPZDA,222155.00,01,12,2017,00,00*63
2017-12-01 17:21:54 1512166914.817007: $GPGGA,222155,3946.9681,N,08404.9747,W,2,11,0.80,301.70,M,-33.324,M,,*7E
2017-12-01 17:21:54 1512166914.817125: $GPRMC,222155,A,3946.9681,N,08404.9747,W,0.0000,0.000,011217,,*33
2017-12-01 17:21:54 1512166914.817187: $GPGSA,A,3,1,3,10,14,22,25,26,31,32,12,138,,2.0,0.8,1.5*03
2017-12-01 17:21:55 1512166915.368994: $GPZDA,222156.00,01,12,2017,00,00*60
2017-12-01 17:21:55 1512166915.369162: $GPGGA,222156,3946.9681,N,08404.9747,W,2,11,0.80,301.70,M,-33.324,M,,*7D
2017-12-01 17:21:55 1512166915.369229: $GPRMC,222156,A,3946.9681,N,08404.9747,W,0.0000,0.000,011217,,*30
2017-12-01 17:21:55 1512166915.369289: $GPGSA,A,3,1,3,10,14,22,25,26,31,32,12,138,,2.0,0.8,1.5*03
2017-12-01 17:21:56 1512166916.366119: $GPZDA,222157.00,01,12,2017,00,00*61
2017-12-01 17:21:56 1512166916.366299: $GPGGA,222157,3946.9681,N,08404.9747,W,2,11,0.80,301.70,M,-33.324,M,,*7C
2017-12-01 17:21:56 1512166916.366366: $GPRMC,222157,A,3946.9681,N,08404.9747,W,0.0000,0.000,011217,,*31
2017-12-01 17:21:56 1512166916.366427: $GPGSA,A,3,1,3,10,14,22,25,26,31,32,12,138,,2.0,0.8,1.5*03
2017-12-01 17:21:57 1512166917.703099: $GPGSV,3,1,11,01,19,277,44,03,19,316,44,10,24,156,37,14,70,031,45*7F
2017-12-01 17:21:57 1512166917.703283: $GPGSV,3,2,11,22,37,304,46,25,37,060,34,26,24,178,37,31,77,271,47*76
2017-12-01 17:21:57 1512166917.703350: $GPGSV,3,3,11,32,56,076,46,12,09,033,26,138,38,213,40*73
2017-12-01 17:21:57 1512166917.816499: $GPZDA,222158.00,01,12,2017,00,00*6E
2017-12-01 17:21:57 1512166917.816718: $GPGGA,222158,3946.9681,N,08404.9747,W,2,11,0.80,301.70,M,-33.324,M,,*73
2017-12-01 17:21:57 1512166917.816807: $GPRMC,222158,A,3946.9681,N,08404.9747,W,0.0000,0.000,011217,,*3E
2017-12-01 17:21:57 1512166917.816869: $GPGSA,A,3,1,3,10,14,22,25,26,31,32,12,138,,2.0,0.8,1.5*03
2017-12-01 17:21:58 1512166918.367611: $GPZDA,222159.00,01,12,2017,00,00*6F
2017-12-01 17:21:58 1512166918.367806: $GPGGA,222159,3946.9681,N,08404.9747,W,2,11,0.80,301.70,M,-33.324,M,,*72
2017-12-01 17:21:58 1512166918.367874: $GPRMC,222159,A,3946.9681,N,08404.9747,W,0.0000,0.000,011217,,*3F
2017-12-01 17:21:58 1512166918.367954: $GPGSA,A,3,1,3,10,14,22,25,26,31,32,12,138,,2.0,0.8,1.5*03
2017-12-01 17:21:59 1512166919.367730: $GPZDA,222200.00,01,12,2017,00,00*60
2017-12-01 17:21:59 1512166919.367946: $GPGGA,222200,3946.9678,N,08404.9748,W,2,11,0.80,302.47,M,-33.324,M,,*73
2017-12-01 17:21:59 1512166919.368014: $GPRMC,222200,A,3946.9678,N,08404.9748,W,0.0000,0.000,011217,,*39
2017-12-01 17:21:59 1512166919.368076: $GPGSA,A,3,1,3,10,14,22,25,26,31,32,12,138,,2.0,0.8,1.5*03
2017-12-01 17:22:00 1512166920.702214: $GPGSV,3,1,11,01,19,277,44,03,19,316,44,10,24,156,37,14,70,031,45*7F
2017-12-01 17:22:00 1512166920.702394: $GPGSV,3,2,11,22,37,304,46,25,37,060,34,26,24,178,38,31,77,271,47*79
2017-12-01 17:22:00 1512166920.702459: $GPGSV,3,3,11,32,56,076,45,12,09,033,25,138,38,213,39*7D
2017-12-01 17:22:00 1512166920.815536: $GPZDA,222201.00,01,12,2017,00,00*61
2017-12-01 17:22:00 1512166920.815673: $GPGGA,222201,3946.9678,N,08404.9748,W,2,11,0.80,302.47,M,-33.324,M,,*72
2017-12-01 17:22:00 1512166920.815760: $GPRMC,222201,A,3946.9678,N,08404.9748,W,0.0000,0.000,011217,,*38
2017-12-01 17:22:00 1512166920.815823: $GPGSA,A,3,1,3,10,14,22,25,26,31,32,12,138,,2.0,0.8,1.5*03
2017-12-01 17:22:01 1512166921.369221: $GPZDA,222202.00,01,12,2017,00,00*62
2017-12-01 17:22:01 1512166921.369396: $GPGGA,222202,3946.9678,N,08404.9748,W,2,11,0.80,302.47,M,-33.324,M,,*71
2017-12-01 17:22:01 1512166921.369463: $GPRMC,222202,A,3946.9678,N,08404.9748,W,0.0000,0.000,011217,,*3B
2017-12-01 17:22:01 1512166921.369523: $GPGSA,A,3,1,3,10,14,22,25,26,31,32,12,138,,2.0,0.8,1.5*03
2017-12-01 17:22:02 1512166922.367484: $GPZDA,222203.00,01,12,2017,00,00*63
2017-12-01 17:22:02 1512166922.367642: $GPGGA,222203,3946.9681,N,08404.9747,W,2,11,0.80,301.70,M,-33.324,M,,*7E
2017-12-01 17:22:02 1512166922.367710: $GPRMC,222203,A,3946.9681,N,08404.9747,W,0.0000,0.000,011217,,*33
2017-12-01 17:22:02 1512166922.367771: $GPGSA,A,3,1,3,10,14,22,25,26,31,32,12,138,,2.0,0.8,1.5*03
2017-12-01 17:22:03 1512166923.703098: $GPGSV,3,1,11,01,19,277,44,03,19,316,45,10,24,156,38,14,70,031,44*70
2017-12-01 17:22:03 1512166923.703321: $GPGSV,3,2,11,22,37,304,46,25,37,060,34,26,24,178,38,31,77,271,48*76
2017-12-01 17:22:03 1512166923.703390: $GPGSV,3,3,11,32,56,076,46,12,09,033,25,138,38,213,40*70
2017-12-01 17:22:03 1512166923.816807: $GPZDA,222204.00,01,12,2017,00,00*64
2017-12-01 17:22:03 1512166923.816979: $GPGGA,222204,3946.9681,N,08404.9747,W,2,11,0.80,301.70,M,-33.324,M,,*79
2017-12-01 17:22:03 1512166923.817044: $GPRMC,222204,A,3946.9681,N,08404.9747,W,0.0000,0.000,011217,,*34
2017-12-01 17:22:03 1512166923.817104: $GPGSA,A,3,1,3,10,14,22,25,26,31,32,12,138,,2.0,0.8,1.5*03
2017-12-01 17:22:04 1512166924.442196: $GPZDA,222205.00,01,12,2017,00,00*65
2017-12-01 17:22:04 1512166924.442327: $GPGGA,222205,3946.9678,N,08404.9748,W,2,11,0.80,302.47,M,-33.324,M,,*76
2017-12-01 17:22:04 1512166924.442393: $GPRMC,222205,A,3946.9678,N,08404.9748,W,0.0000,0.000,011217,,*3C
2017-12-01 17:22:04 1512166924.442453: $GPGSA,A,3,1,3,10,14,22,25,26,31,32,12,138,,2.0,0.8,1.5*03
2017-12-01 17:22:05 1512166925.367986: $GPZDA,222206.00,01,12,2017,00,00*66
2017-12-01 17:22:05 1512166925.368177: $GPGGA,222206,3946.9681,N,08404.9747,W,2,11,0.80,301.70,M,-33.324,M,,*7B
2017-12-01 17:22:05 1512166925.368245: $GPRMC,222206,A,3946.9681,N,08404.9747,W,0.0000,0.000,011217,,*36
2017-12-01 17:22:05 1512166925.368306: $GPGSA,A,3,1,3,10,14,22,25,26,31,32,12,138,,2.0,0.8,1.5*03
2017-12-01 17:22:06 1512166926.707171: $GPGSV,3,1,11,01,19,277,44,03,19,316,45,10,24,156,38,14,70,031,44*70
2017-12-01 17:22:06 1512166926.707353: $GPGSV,3,2,11,22,37,304,47,25,37,060,33,26,24,178,38,31,77,271,47*7F
2017-12-01 17:22:06 1512166926.707419: $GPGSV,3,3,11,32,56,076,45,12,09,033,25,138,38,213,41*72
2017-12-01 17:22:06 1512166926.820809: $GPZDA,222207.00,01,12,2017,00,00*67
2017-12-01 17:22:06 1512166926.820966: $GPGGA,222207,3946.9681,N,08404.9747,W,2,11,0.80,301.70,M,-33.324,M,,*7A
2017-12-01 17:22:06 1512166926.821032: $GPRMC,222207,A,3946.9681,N,08404.9747,W,0.0000,0.000,011217,,*37
2017-12-01 17:22:06 1512166926.821092: $GPGSA,A,3,1,3,10,14,22,25,26,31,32,12,138,,2.0,0.8,1.5*03
2017-12-01 17:22:07 1512166927.372767: $GPZDA,222208.00,01,12,2017,00,00*68
2017-12-01 17:22:07 1512166927.372935: $GPGGA,222208,3946.9678,N,08404.9748,W,2,11,0.80,302.47,M,-33.324,M,,*7B
2017-12-01 17:22:07 1512166927.373002: $GPRMC,222208,A,3946.9678,N,08404.9748,W,0.0000,0.000,011217,,*31
2017-12-01 17:22:07 1512166927.373063: $GPGSA,A,3,1,3,10,14,22,25,26,31,32,12,138,,2.0,0.8,1.5*03
