2017-12-14 12:38:39 1513273119.773983: {"class":"VERSION","release":"3.16","rev":"3.16-4","proto_major":3,"proto_minor":11}
2017-12-14 12:38:39 1513273119.774394: {"class":"DEVICES","devices":[{"class":"DEVICE","path":"/dev/ttyUSB0","driver":"SiRF","subtype":"9\u0006GSD4e_4.1.2-P1_RPATCH.05-F-GPS-4R-1510281 11/03/2015 307","activated":"2017-12-14T17:38:39.440Z","flags":1,"native":1,"bps":4800,"parity":"N","stopbits":1,"cycle":1.00}]}
2017-12-14 12:38:39 1513273119.774545: {"class":"WATCH","enable":true,"json":false,"nmea":true,"raw":0,"scaled":false,"timing":false,"split24":false,"pps":false}
2017-12-14 12:38:40 1513273120.729391: $GPRMC,173841,V,18000.0000,N,00000.0000,W,0.0000,0.000,141217,,*19
2017-12-14 12:38:40 1513273120.729573: $GPGSA,A,1,10,18,24,32,20,,,,,,,,,,,*3F
2017-12-14 12:38:41 1513273121.697096: $GPRMC,173842,V,3946.9471,N,08404.9222,W,0.0000,0.000,141217,,*23
2017-12-14 12:38:41 1513273121.697269: $GPGSA,A,1,10,18,24,32,20,,,,,,,,,,,*3F
2017-12-14 12:38:42 1513273122.588184: $GPGSV,3,1,10,24,53,094,21,10,49,309,18,15,29,055,02,18,76,006,16*7F
2017-12-14 12:38:42 1513273122.588357: $GPGSV,3,2,10,20,27,103,09,32,29,244,00,27,17,280,00,14,11,237,00*77
2017-12-14 12:38:42 1513273122.588424: $GPGSV,3,3,10,08,08,315,00,21,53,183,00*70
2017-12-14 12:38:42 1513273122.700519: $GPRMC,173843,V,3946.9486,N,08404.9273,W,1.5201,292.928,141217,,*23
2017-12-14 12:38:42 1513273122.700713: $GPGSA,A,1,24,10,15,18,20,,,,,,,,,,,*3A
2017-12-14 12:38:43 1513273123.253118: $GPRMC,173843,V,3946.9492,N,08404.9297,W,0.7382,259.175,141217,,*22
2017-12-14 12:38:43 1513273123.253311: $GPGSA,A,1,24,10,15,18,20,,,,,,,,,,,*3A
2017-12-14 12:38:43 1513273123.508287: $GPZDA,173843.92,14,12,2017,00,00*65
2017-12-14 12:38:43 1513273123.508455: $GPGGA,173843,3946.9506,N,08404.9314,W,1,05,2.40,331.37,M,-33.324,M,,*71
2017-12-14 12:38:43 1513273123.508521: $GPRMC,173843,A,3946.9506,N,08404.9314,W,0.3006,242.540,141217,,*30
2017-12-14 12:38:43 1513273123.508582: $GPGSA,A,3,24,10,15,18,20,,,,,,,,6.6,2.4,6.2*38
2017-12-14 12:38:43 1513273123.508674: $GPGBS,173843,24.66,M,21.80,M,143.40,M*3B
2017-12-14 12:38:44 1513273124.488731: $GPGSV,3,1,11,24,53,094,24,10,49,309,20,15,29,055,15,18,76,006,17*77
2017-12-14 12:38:44 1513273124.488926: $GPGSV,3,2,11,20,27,103,14,32,29,244,16,27,17,280,00,14,11,237,00*7D
2017-12-14 12:38:44 1513273124.488992: $GPGSV,3,3,11,08,08,315,00,21,53,183,00,138,38,213,00*70
2017-12-14 12:38:44 1513273124.602425: $GPZDA,173845.00,14,12,2017,00,00*68
2017-12-14 12:38:44 1513273124.606160: $GPGGA,173845,3946.9511,N,08404.9344,W,1,06,2.40,322.43,M,-33.324,M,,*76
2017-12-14 12:38:44 1513273124.606261: $GPRMC,173845,A,3946.9511,N,08404.9344,W,0.9689,93.795,141217,,*0A
2017-12-14 12:38:44 1513273124.606343: $GPGSA,A,3,24,10,15,18,20,32,,,,,,,6.6,2.4,6.2*39
2017-12-14 12:38:45 1513273125.154281: $GPZDA,173846.00,14,12,2017,00,00*6B
2017-12-14 12:38:45 1513273125.154455: $GPGGA,173846,3946.9506,N,08404.9344,W,1,06,2.40,321.79,M,-33.324,M,,*79
2017-12-14 12:38:45 1513273125.154545: $GPRMC,173846,A,3946.9506,N,08404.9344,W,0.7645,140.779,141217,,*3C
2017-12-14 12:38:45 1513273125.154607: $GPGSA,A,3,24,10,15,18,20,32,,,,,,,6.6,2.4,6.2*39
2017-12-14 12:38:46 1513273126.153829: $GPZDA,173847.00,14,12,2017,00,00*6A
2017-12-14 12:38:46 1513273126.153999: $GPGGA,173847,3946.9510,N,08404.9343,W,1,06,2.40,321.02,M,-33.324,M,,*74
2017-12-14 12:38:46 1513273126.154065: $GPRMC,173847,A,3946.9510,N,08404.9343,W,1.3347,148.367,141217,,*3C
2017-12-14 12:38:46 1513273126.154127: $GPGSA,A,3,24,10,15,18,20,32,,,,,,,6.6,2.4,6.2*39
2017-12-14 12:38:46 1513273126.154183: $GPGBS,173847,24.66,M,21.80,M,143.40,M*3F
2017-12-14 12:38:47 1513273127.489822: $GPGSV,3,1,11,24,53,094,24,10,49,309,21,21,53,183,21,18,76,006,16*70
2017-12-14 12:38:47 1513273127.489999: $GPGSV,3,2,11,20,27,103,14,32,29,244,16,15,29,055,00,27,17,280,00*71
2017-12-14 12:38:47 1513273127.490065: $GPGSV,3,3,11,14,11,237,00,08,08,315,00,138,38,213,00*7C
2017-12-14 12:38:47 1513273127.603664: $GPZDA,173848.00,14,12,2017,00,00*65
2017-12-14 12:38:47 1513273127.603848: $GPGGA,173848,3946.9510,N,08404.9350,W,1,06,2.40,320.94,M,-33.324,M,,*77
2017-12-14 12:38:47 1513273127.603968: $GPRMC,173848,A,3946.9510,N,08404.9350,W,0.7469,180.000,141217,,*39
2017-12-14 12:38:47 1513273127.604032: $GPGSA,A,3,24,10,21,18,20,32,,,,,,,6.6,2.4,6.2*3E
2017-12-14 12:38:48 1513273128.153738: $GPZDA,173849.00,14,12,2017,00,00*64
2017-12-14 12:38:48 1513273128.153920: $GPGGA,173849,3946.9506,N,08404.9350,W,1,06,2.40,320.30,M,-33.324,M,,*7F
2017-12-14 12:38:48 1513273128.153987: $GPRMC,173849,A,3946.9506,N,08404.9350,W,0.3955,132.450,141217,,*31
2017-12-14 12:38:48 1513273128.154048: $GPGSA,A,3,24,10,21,18,20,32,,,,,,,6.6,2.4,6.2*3E
2017-12-14 12:38:49 1513273129.154156: $GPZDA,173850.00,14,12,2017,00,00*6C
2017-12-14 12:38:49 1513273129.154329: $GPGGA,173850,3946.9510,N,08404.9349,W,1,06,2.40,319.54,M,-33.324,M,,*70
2017-12-14 12:38:49 1513273129.154395: $GPRMC,173850,A,3946.9510,N,08404.9349,W,0.5616,84.027,141217,,*00
2017-12-14 12:38:49 1513273129.154456: $GPGSA,A,3,24,10,21,18,20,32,,,,,,,6.6,2.4,6.2*3E
2017-12-14 12:38:50 1513273130.490340: $GPGSV,3,1,11,24,53,094,24,10,49,309,21,21,53,183,21,18,76,006,16*70
2017-12-14 12:38:50 1513273130.490519: $GPGSV,3,2,11,20,27,103,15,32,29,244,16,15,29,055,00,27,17,280,00*70
2017-12-14 12:38:50 1513273130.490584: $GPGSV,3,3,11,14,11,237,00,08,08,315,00,138,38,213,00*7C
2017-12-14 12:38:50 1513273130.603836: $GPZDA,173851.00,14,12,2017,00,00*6D
2017-12-14 12:38:50 1513273130.604009: $GPGGA,173851,3946.9513,N,08404.9348,W,1,06,2.40,318.77,M,-33.324,M,,*73
2017-12-14 12:38:50 1513273130.604077: $GPRMC,173851,A,3946.9513,N,08404.9348,W,0.5745,15.168,141217,,*06
2017-12-14 12:38:50 1513273130.604138: $GPGSA,A,3,24,10,21,18,20,32,,,,,,,6.6,2.4,6.2*3E
2017-12-14 12:38:51 1513273131.152742: $GPZDA,173852.00,14,12,2017,00,00*6E
2017-12-14 12:38:51 1513273131.152926: $GPGGA,173852,3946.9512,N,08404.9348,W,1,06,2.40,317.37,M,-33.324,M,,*7A
2017-12-14 12:38:51 1513273131.152992: $GPRMC,173852,A,3946.9512,N,08404.9348,W,0.8212,50.499,141217,,*04
2017-12-14 12:38:51 1513273131.153052: $GPGSA,A,3,24,10,21,18,20,32,,,,,,,6.6,2.4,6.2*3E
2017-12-14 12:38:52 1513273132.152885: $GPZDA,173853.00,14,12,2017,00,00*6F
2017-12-14 12:38:52 1513273132.153051: $GPGGA,173853,3946.9516,N,08404.9347,W,1,06,2.40,316.61,M,-33.324,M,,*72
2017-12-14 12:38:52 1513273132.153118: $GPRMC,173853,A,3946.9516,N,08404.9347,W,1.0694,10.801,141217,,*04
2017-12-14 12:38:52 1513273132.153180: $GPGSA,A,3,24,10,21,18,20,32,,,,,,,6.6,2.4,6.2*3E
2017-12-14 12:38:53 1513273133.489008: $GPGSV,3,1,11,24,53,094,24,10,49,309,21,21,53,183,22,18,76,006,16*73
2017-12-14 12:38:53 1513273133.489187: $GPGSV,3,2,11,20,27,103,16,32,29,244,16,15,29,055,00,27,17,280,00*73
2017-12-14 12:38:53 1513273133.489255: $GPGSV,3,3,11,14,11,237,00,08,08,315,00,138,38,213,00*7C
2017-12-14 12:38:53 1513273133.602486: $GPZDA,173854.00,14,12,2017,00,00*68
2017-12-14 12:38:53 1513273133.602637: $GPGGA,173854,3946.9523,N,08404.9346,W,1,06,2.40,315.08,M,-33.324,M,,*7E
2017-12-14 12:38:53 1513273133.602705: $GPRMC,173854,A,3946.9523,N,08404.9346,W,1.4757,17.433,141217,,*04
2017-12-14 12:38:53 1513273133.602770: $GPGSA,A,3,24,10,21,18,20,32,,,,,,,6.6,2.4,6.2*3E
2017-12-14 12:38:54 1513273134.154216: $GPZDA,173855.00,14,12,2017,00,00*69
2017-12-14 12:38:54 1513273134.154385: $GPGGA,173855,3946.9526,N,08404.9345,W,1,06,2.40,314.31,M,-33.324,M,,*72
2017-12-14 12:38:54 1513273134.154450: $GPRMC,173855,A,3946.9526,N,08404.9345,W,1.1247,7.680,141217,,*39
2017-12-14 12:38:54 1513273134.154510: $GPGSA,A,3,24,10,21,18,20,32,,,,,,,6.6,2.4,6.2*3E
2017-12-14 12:38:55 1513273135.153672: $GPZDA,173856.00,14,12,2017,00,00*6A
2017-12-14 12:38:55 1513273135.153835: $GPGGA,173856,3946.9530,N,08404.9345,W,1,06,2.40,314.95,M,-33.324,M,,*78
2017-12-14 12:38:55 1513273135.153901: $GPRMC,173856,A,3946.9530,N,08404.9345,W,1.1097,33.261,141217,,*0E
2017-12-14 12:38:55 1513273135.153982: $GPGSA,A,3,24,10,21,18,20,32,,,,,,,6.6,2.4,6.2*3E
2017-12-14 12:38:56 1513273136.489548: $GPGSV,3,1,11,24,53,094,24,10,49,309,21,21,53,183,22,18,76,006,15*70
2017-12-14 12:38:56 1513273136.489782: $GPGSV,3,2,11,20,27,103,16,32,29,244,16,15,29,055,00,27,17,280,00*73
2017-12-14 12:38:56 1513273136.489850: $GPGSV,3,3,11,14,11,237,00,08,08,315,00,138,38,213,00*7C
2017-12-14 12:38:56 1513273136.603491: $GPZDA,173857.00,14,12,2017,00,00*6B
2017-12-14 12:38:56 1513273136.603677: $GPGGA,173857,3946.9534,N,08404.9344,W,1,06,2.40,314.19,M,-33.324,M,,*78
2017-12-14 12:38:56 1513273136.603760: $GPRMC,173857,A,3946.9534,N,08404.9344,W,1.2468,42.999,141217,,*07
2017-12-14 12:38:56 1513273136.603823: $GPGSA,A,3,24,10,21,18,20,32,,,,,,,6.6,2.4,6.2*3E
2017-12-14 12:38:57 1513273137.154762: $GPZDA,173858.00,14,12,2017,00,00*64
2017-12-14 12:38:57 1513273137.154931: $GPGGA,173858,3946.9537,N,08404.9343,W,1,06,2.40,313.42,M,-33.324,M,,*7A
2017-12-14 12:38:57 1513273137.154997: $GPRMC,173858,A,3946.9537,N,08404.9343,W,1.5977,56.588,141217,,*01
2017-12-14 12:38:57 1513273137.155058: $GPGSA,A,3,24,10,21,18,20,32,,,,,,,6.6,2.4,6.2*3E
2017-12-14 12:38:58 1513273138.154778: $GPZDA,173859.00,14,12,2017,00,00*65
2017-12-14 12:38:58 1513273138.154934: $GPGGA,173859,3946.9540,N,08404.9336,W,1,06,2.40,312.74,M,-33.324,M,,*7D
2017-12-14 12:38:58 1513273138.155001: $GPRMC,173859,A,3946.9540,N,08404.9336,W,1.7077,52.716,141217,,*08
2017-12-14 12:38:58 1513273138.155061: $GPGSA,A,3,24,10,21,18,20,32,,,,,,,6.6,2.4,6.2*3E
2017-12-14 12:38:58 1513273138.155119: $GPGBS,173859,24.66,M,21.80,M,143.40,M*30
2017-12-14 12:38:59 1513273139.490072: $GPGSV,3,1,11,24,53,094,23,10,49,309,22,21,53,183,22,18,76,006,15*74
2017-12-14 12:38:59 1513273139.490249: $GPGSV,3,2,11,20,27,103,17,32,29,244,15,15,29,055,00,27,17,280,00*71
2017-12-14 12:38:59 1513273139.490315: $GPGSV,3,3,11,14,11,237,00,08,08,315,00,138,38,213,00*7C
2017-12-14 12:38:59 1513273139.603943: $GPZDA,173900.00,14,12,2017,00,00*68
2017-12-14 12:38:59 1513273139.604072: $GPGGA,173900,3946.9544,N,08404.9336,W,1,06,2.40,313.38,M,-33.324,M,,*7D
2017-12-14 12:38:59 1513273139.604137: $GPRMC,173900,A,3946.9544,N,08404.9336,W,1.9566,43.982,141217,,*09
2017-12-14 12:38:59 1513273139.604197: $GPGSA,A,3,24,10,21,18,20,32,,,,,,,6.6,2.4,6.2*3E
