2017-12-01 17:18:57 1512166737.566892: {"class":"VERSION","release":"3.16","rev":"3.16-4","proto_major":3,"proto_minor":11}
2017-12-01 17:18:57 1512166737.567469: {"class":"DEVICES","devices":[{"class":"DEVICE","path":"/dev/ttyUSB0","driver":"SiRF","subtype":"9\u0006GSD4e_4.1.2-P1_RPATCH.05-F-GPS-4R-1510281 11/03/2015 307","activated":"2017-12-01T22:18:57.521Z","flags":1,"native":1,"bps":4800,"parity":"N","stopbits":1,"cycle":1.00}]}
2017-12-01 17:18:57 1512166737.567602: {"class":"WATCH","enable":true,"json":false,"nmea":true,"raw":0,"scaled":false,"timing":false,"split24":false,"pps":false}
2017-12-01 17:18:57 1512166737.699781: $GPZDA,221858.35,01,12,2017,00,00*62
2017-12-01 17:18:57 1512166737.699944: $GPGGA,221858,3946.9644,N,08404.9758,W,1,11,1.00,302.24,M,-33.324,M,,*76
2017-12-01 17:18:57 1512166737.700011: $GPRMC,221858,A,3946.9644,N,08404.9758,W,0.2967,46.893,011217,,*09
2017-12-01 17:18:57 1512166737.700071: $GPGSA,A,3,1,3,10,14,22,25,26,31,32,12,138,,2.0,1.0,1.5*0A
2017-12-01 17:18:57 1512166737.700129: $GPGBS,221858,10.70,M,15.43,M,35.28,M*03
2017-12-01 17:18:59 1512166739.116915: $GPGSV,3,1,11,01,20,277,35,03,18,316,35,10,25,156,29,14,70,028,36*76
2017-12-01 17:18:59 1512166739.117103: $GPGSV,3,2,11,22,37,304,37,25,37,061,27,26,23,178,30,31,77,267,38*7C
2017-12-01 17:18:59 1512166739.117171: $GPGSV,3,3,11,32,57,075,38,12,09,034,00,138,38,213,00*7F
2017-12-01 17:18:59 1512166739.230295: $GPZDA,221859.03,01,12,2017,00,00*66
2017-12-01 17:18:59 1512166739.230526: $GPGGA,221859,3946.9648,N,08404.9758,W,1,09,1.00,302.88,M,-33.324,M,,*74
2017-12-01 17:18:59 1512166739.230594: $GPRMC,221859,A,3946.9648,N,08404.9758,W,0.2202,353.469,011217,,*32
2017-12-01 17:18:59 1512166739.230656: $GPGSA,A,3,1,3,10,14,22,25,26,31,32,,,,2.0,1.0,1.5*33
2017-12-01 17:19:00 1512166740.036888: $GPZDA,221900.00,01,12,2017,00,00*68
2017-12-01 17:19:00 1512166740.037066: $GPGGA,221900,3946.9648,N,08404.9758,W,1,09,1.00,302.88,M,-33.324,M,,*79
2017-12-01 17:19:00 1512166740.037135: $GPRMC,221900,A,3946.9648,N,08404.9758,W,0.0407,322.012,011217,,*30
2017-12-01 17:19:00 1512166740.037197: $GPGSA,A,3,1,3,10,14,22,25,26,31,32,,,,2.0,1.0,1.5*33
2017-12-01 17:19:00 1512166740.037255: $GPGBS,221900,10.70,M,15.43,M,35.28,M*0F
2017-12-01 17:19:00 1512166740.487745: $GPZDA,221901.00,01,12,2017,00,00*69
2017-12-01 17:19:00 1512166740.487925: $GPGGA,221901,3946.9647,N,08404.9757,W,1,09,1.00,301.48,M,-33.324,M,,*77
2017-12-01 17:19:00 1512166740.487994: $GPRMC,221901,A,3946.9647,N,08404.9757,W,0.0407,322.012,011217,,*31
2017-12-01 17:19:00 1512166740.488056: $GPGSA,A,3,1,3,10,14,22,25,26,31,32,,,,2.0,1.0,1.5*33
2017-12-01 17:19:00 1512166740.488114: $GPGBS,221901,10.70,M,15.43,M,35.28,M*0E
2017-12-01 17:19:01 1512166741.727119: $GPGSV,3,1,11,01,20,277,44,03,18,316,43,10,25,156,36,14,70,028,45*7B
2017-12-01 17:19:01 1512166741.727278: $GPGSV,3,2,11,22,37,304,46,25,37,061,34,26,23,178,37,31,77,267,48*78
2017-12-01 17:19:01 1512166741.727344: $GPGSV,3,3,11,32,57,075,47,12,09,034,00,138,38,213,39*7D
2017-12-01 17:19:01 1512166741.841025: $GPZDA,221902.00,01,12,2017,00,00*6A
2017-12-01 17:19:01 1512166741.841189: $GPGGA,221902,3946.9647,N,08404.9750,W,1,10,1.00,301.56,M,-33.324,M,,*74
2017-12-01 17:19:01 1512166741.841255: $GPRMC,221902,A,3946.9647,N,08404.9750,W,0.0407,322.012,011217,,*35
2017-12-01 17:19:01 1512166741.841316: $GPGSA,A,3,1,3,10,14,22,25,26,31,32,138,,,2.0,1.0,1.5*09
2017-12-01 17:19:02 1512166742.466384: $GPZDA,221903.00,01,12,2017,00,00*6B
2017-12-01 17:19:02 1512166742.466555: $GPGGA,221903,3946.9650,N,08404.9749,W,1,10,1.00,300.80,M,-33.324,M,,*71
2017-12-01 17:19:02 1512166742.466622: $GPRMC,221903,A,3946.9650,N,08404.9749,W,0.0000,0.000,011217,,*39
2017-12-01 17:19:02 1512166742.466683: $GPGSA,A,3,1,3,10,14,22,25,26,31,32,138,,,2.0,1.0,1.5*09
2017-12-01 17:19:03 1512166743.390900: $GPZDA,221904.00,01,12,2017,00,00*6C
2017-12-01 17:19:03 1512166743.391070: $GPGGA,221904,3946.9650,N,08404.9749,W,1,10,1.00,300.80,M,-33.324,M,,*76
2017-12-01 17:19:03 1512166743.391138: $GPRMC,221904,A,3946.9650,N,08404.9749,W,0.2422,273.794,011217,,*34
2017-12-01 17:19:03 1512166743.391269: $GPGSA,A,3,1,3,10,14,22,25,26,31,32,138,,,2.0,1.0,1.5*09
2017-12-01 17:19:04 1512166744.727310: $GPGSV,3,1,11,01,20,277,43,03,18,316,43,10,25,156,35,14,70,028,45*7F
2017-12-01 17:19:04 1512166744.727491: $GPGSV,3,2,11,22,37,304,45,25,37,061,32,26,23,178,36,31,77,267,47*73
2017-12-01 17:19:04 1512166744.727558: $GPGSV,3,3,11,32,57,075,46,12,09,034,00,138,38,213,42*70
2017-12-01 17:19:04 1512166744.841096: $GPZDA,221905.00,01,12,2017,00,00*6D
2017-12-01 17:19:04 1512166744.841286: $GPGGA,221905,3946.9650,N,08404.9749,W,1,10,1.00,300.80,M,-33.324,M,,*77
2017-12-01 17:19:04 1512166744.841396: $GPRMC,221905,A,3946.9650,N,08404.9749,W,0.0000,0.000,011217,,*3F
2017-12-01 17:19:04 1512166744.841467: $GPGSA,A,3,1,3,10,14,22,25,26,31,32,138,,,2.0,1.0,1.5*09
2017-12-01 17:19:05 1512166745.390751: $GPZDA,221906.00,01,12,2017,00,00*6E
2017-12-01 17:19:05 1512166745.390912: $GPGGA,221906,3946.9654,N,08404.9748,W,1,10,0.80,300.03,M,-33.324,M,,*73
2017-12-01 17:19:05 1512166745.390979: $GPRMC,221906,A,3946.9654,N,08404.9748,W,0.1867,0.000,011217,,*31
2017-12-01 17:19:05 1512166745.391040: $GPGSA,A,3,1,3,10,14,22,25,26,31,32,138,,,2.0,0.8,1.5*00
2017-12-01 17:19:06 1512166746.390090: $GPZDA,221907.00,01,12,2017,00,00*6F
2017-12-01 17:19:06 1512166746.390281: $GPGGA,221907,3946.9653,N,08404.9741,W,1,10,0.80,300.11,M,-33.324,M,,*7F
2017-12-01 17:19:06 1512166746.390349: $GPRMC,221907,A,3946.9653,N,08404.9741,W,0.0000,0.000,011217,,*36
2017-12-01 17:19:06 1512166746.390410: $GPGSA,A,3,1,3,10,14,22,25,26,31,32,138,,,2.0,0.8,1.5*00
2017-12-01 17:19:07 1512166747.727696: $GPGSV,3,1,11,01,20,277,43,03,18,316,43,10,25,156,28,14,70,028,45*73
2017-12-01 17:19:07 1512166747.727881: $GPGSV,3,2,11,22,37,304,45,25,37,061,32,26,23,178,37,31,77,267,47*72
2017-12-01 17:19:07 1512166747.727948: $GPGSV,3,3,11,32,57,075,47,12,09,034,23,138,38,213,40*72
2017-12-01 17:19:07 1512166747.841466: $GPZDA,221908.00,01,12,2017,00,00*60
2017-12-01 17:19:07 1512166747.841646: $GPGGA,221908,3946.9653,N,08404.9741,W,1,11,0.80,300.11,M,-33.324,M,,*71
2017-12-01 17:19:07 1512166747.841717: $GPRMC,221908,A,3946.9653,N,08404.9741,W,0.0000,0.000,011217,,*39
2017-12-01 17:19:07 1512166747.841779: $GPGSA,A,3,1,3,10,14,22,25,26,31,32,12,138,,2.0,0.8,1.5*03
2017-12-01 17:19:08 1512166748.392340: $GPZDA,221909.00,01,12,2017,00,00*61
2017-12-01 17:19:08 1512166748.392509: $GPGGA,221909,3946.9653,N,08404.9741,W,1,11,0.80,300.11,M,-33.324,M,,*70
2017-12-01 17:19:08 1512166748.392575: $GPRMC,221909,A,3946.9653,N,08404.9741,W,0.0000,0.000,011217,,*38
2017-12-01 17:19:08 1512166748.392636: $GPGSA,A,3,1,3,10,14,22,25,26,31,32,12,138,,2.0,0.8,1.5*03
2017-12-01 17:19:09 1512166749.391992: $GPZDA,221910.00,01,12,2017,00,00*69
2017-12-01 17:19:09 1512166749.392162: $GPGGA,221910,3946.9655,N,08404.9726,W,2,11,1.20,298.10,M,-33.324,M,,*76
2017-12-01 17:19:09 1512166749.392231: $GPRMC,221910,A,3946.9655,N,08404.9726,W,0.0000,0.000,011217,,*37
2017-12-01 17:19:09 1512166749.392292: $GPGSA,A,3,1,3,10,14,22,25,26,31,32,12,138,,2.0,1.2,1.5*08
2017-12-01 17:19:10 1512166750.727331: $GPGSV,3,1,11,01,20,277,44,03,18,316,43,10,25,156,31,14,70,028,45*7C
2017-12-01 17:19:10 1512166750.727514: $GPGSV,3,2,11,22,37,304,45,25,37,061,33,26,23,178,38,31,77,267,47*7C
2017-12-01 17:19:10 1512166750.727584: $GPGSV,3,3,11,32,57,075,46,12,09,034,24,138,38,213,38*7B
2017-12-01 17:19:10 1512166750.840761: $GPZDA,221911.00,01,12,2017,00,00*68
2017-12-01 17:19:10 1512166750.840904: $GPGGA,221911,3946.9655,N,08404.9726,W,2,11,1.00,298.10,M,-33.324,M,,*75
2017-12-01 17:19:10 1512166750.840971: $GPRMC,221911,A,3946.9655,N,08404.9726,W,0.0000,0.000,011217,,*36
2017-12-01 17:19:10 1512166750.841033: $GPGSA,A,3,1,3,10,14,22,25,26,31,32,12,138,,2.0,1.0,1.5*0A
2017-12-01 17:19:11 1512166751.393084: $GPZDA,221912.00,01,12,2017,00,00*6B
2017-12-01 17:19:11 1512166751.393254: $GPGGA,221912,3946.9655,N,08404.9726,W,2,11,0.80,298.10,M,-33.324,M,,*7F
2017-12-01 17:19:11 1512166751.393320: $GPRMC,221912,A,3946.9655,N,08404.9726,W,0.0000,0.000,011217,,*35
2017-12-01 17:19:11 1512166751.393430: $GPGSA,A,3,1,3,10,14,22,25,26,31,32,12,138,,2.0,0.8,1.5*03
2017-12-01 17:19:12 1512166752.393574: $GPZDA,221913.00,01,12,2017,00,00*6A
2017-12-01 17:19:12 1512166752.393744: $GPGGA,221913,3946.9655,N,08404.9726,W,2,11,0.80,298.10,M,-33.324,M,,*7E
2017-12-01 17:19:12 1512166752.393812: $GPRMC,221913,A,3946.9655,N,08404.9726,W,0.0000,0.000,011217,,*34
2017-12-01 17:19:12 1512166752.393872: $GPGSA,A,3,1,3,10,14,22,25,26,31,32,12,138,,2.0,0.8,1.5*03
2017-12-01 17:19:13 1512166753.728934: $GPGSV,3,1,11,01,20,277,44,03,18,316,43,10,25,156,36,14,70,028,44*7A
2017-12-01 17:19:13 1512166753.729115: $GPGSV,3,2,11,22,37,304,45,25,37,061,34,26,23,178,38,31,77,267,48*74
2017-12-01 17:19:13 1512166753.729183: $GPGSV,3,3,11,32,57,075,47,12,09,034,24,138,38,213,40*75
2017-12-01 17:19:13 1512166753.842382: $GPZDA,221914.00,01,12,2017,00,00*6D
2017-12-01 17:19:13 1512166753.842582: $GPGGA,221914,3946.9655,N,08404.9726,W,2,11,0.80,298.10,M,-33.324,M,,*79
2017-12-01 17:19:13 1512166753.842651: $GPRMC,221914,A,3946.9655,N,08404.9726,W,0.0000,0.000,011217,,*33
2017-12-01 17:19:13 1512166753.842749: $GPGSA,A,3,1,3,10,14,22,25,26,31,32,12,138,,2.0,0.8,1.5*03
2017-12-01 17:19:14 1512166754.392239: $GPZDA,221915.00,01,12,2017,00,00*6C
2017-12-01 17:19:14 1512166754.392410: $GPGGA,221915,3946.9655,N,08404.9726,W,2,11,0.80,298.10,M,-33.324,M,,*78
2017-12-01 17:19:14 1512166754.392478: $GPRMC,221915,A,3946.9655,N,08404.9726,W,0.0000,0.000,011217,,*32
2017-12-01 17:19:14 1512166754.392538: $GPGSA,A,3,1,3,10,14,22,25,26,31,32,12,138,,2.0,0.8,1.5*03
2017-12-01 17:19:15 1512166755.394532: $GPZDA,221916.00,01,12,2017,00,00*6F
2017-12-01 17:19:15 1512166755.394718: $GPGGA,221916,3946.9655,N,08404.9726,W,2,11,0.80,298.10,M,-33.324,M,,*7B
2017-12-01 17:19:15 1512166755.394784: $GPRMC,221916,A,3946.9655,N,08404.9726,W,0.0000,0.000,011217,,*31
2017-12-01 17:19:15 1512166755.394845: $GPGSA,A,3,1,3,10,14,22,25,26,31,32,12,138,,2.0,0.8,1.5*03
2017-12-01 17:19:16 1512166756.729665: $GPGSV,3,1,11,01,20,277,43,03,18,316,43,10,25,156,36,14,70,028,44*7D
2017-12-01 17:19:16 1512166756.729846: $GPGSV,3,2,11,22,37,304,45,25,37,061,34,26,23,178,38,31,77,267,47*7B
2017-12-01 17:19:16 1512166756.729913: $GPGSV,3,3,11,32,57,075,47,12,09,034,24,138,38,213,41*74
2017-12-01 17:19:16 1512166756.841882: $GPZDA,221917.00,01,12,2017,00,00*6E
2017-12-01 17:19:16 1512166756.842048: $GPGGA,221917,3946.9655,N,08404.9726,W,2,11,0.80,298.10,M,-33.324,M,,*7A
2017-12-01 17:19:16 1512166756.842114: $GPRMC,221917,A,3946.9655,N,08404.9726,W,0.0000,0.000,011217,,*30
2017-12-01 17:19:16 1512166756.842175: $GPGSA,A,3,1,3,10,14,22,25,26,31,32,12,138,,2.0,0.8,1.5*03
2017-12-01 17:19:17 1512166757.468612: $GPZDA,221918.00,01,12,2017,00,00*61
2017-12-01 17:19:17 1512166757.468775: $GPGGA,221918,3946.9655,N,08404.9726,W,2,11,0.80,298.10,M,-33.324,M,,*75
2017-12-01 17:19:17 1512166757.468842: $GPRMC,221918,A,3946.9655,N,08404.9726,W,0.0000,0.000,011217,,*3F
2017-12-01 17:19:17 1512166757.468903: $GPGSA,A,3,1,3,10,14,22,25,26,31,32,12,138,,2.0,0.8,1.5*03
