2017-12-01 11:45:56 1512146756.156722: {"class":"VERSION","release":"3.16","rev":"3.16-4","proto_major":3,"proto_minor":11}
2017-12-01 11:45:56 1512146756.157126: {"class":"DEVICES","devices":[{"class":"DEVICE","path":"/dev/ttyUSB0","driver":"SiRF","subtype":"9\u0006GSD4e_4.1.2-P1_RPATCH.05-F-GPS-4R-1510281 11/03/2015 307","activated":"2017-12-01T16:45:55.537Z","flags":1,"native":1,"bps":4800,"parity":"N","stopbits":1,"cycle":1.00}]}
2017-12-01 11:45:56 1512146756.157254: {"class":"WATCH","enable":true,"json":false,"nmea":true,"raw":0,"scaled":false,"timing":false,"split24":false,"pps":false}
2017-12-01 11:45:56 1512146756.728827: $GPGSV,3,1,12,10,13,273,39,13,42,049,47,15,75,070,45,18,44,286,45*79
2017-12-01 11:45:56 1512146756.729012: $GPGSV,3,2,12,20,62,052,42,21,68,304,46,24,21,148,43,27,09,324,35*74
2017-12-01 11:45:56 1512146756.729080: $GPGSV,3,3,12,29,23,195,45,05,13,078,30,04,12,130,00,138,38,213,46*41
2017-12-01 11:45:56 1512146756.842497: $GPZDA,164557.00,01,12,2017,00,00*64
2017-12-01 11:45:56 1512146756.842655: $GPGGA,164557,3946.9559,N,08404.9841,W,2,11,0.80,300.70,M,-33.324,M,,*77
2017-12-01 11:45:56 1512146756.842720: $GPRMC,164557,A,3946.9559,N,08404.9841,W,0.0000,0.000,011217,,*3B
2017-12-01 11:45:56 1512146756.842781: $GPGSA,A,3,10,13,15,18,20,21,24,27,29,5,138,,2.0,0.8,1.5*34
2017-12-01 11:45:57 1512146757.398329: $GPZDA,164558.00,01,12,2017,00,00*6B
2017-12-01 11:45:57 1512146757.398500: $GPGGA,164558,3946.9559,N,08404.9841,W,2,11,0.80,300.70,M,-33.324,M,,*78
2017-12-01 11:45:57 1512146757.398566: $GPRMC,164558,A,3946.9559,N,08404.9841,W,0.0000,0.000,011217,,*34
2017-12-01 11:45:57 1512146757.398627: $GPGSA,A,3,10,13,15,18,20,21,24,27,29,5,138,,2.0,0.8,1.5*34
2017-12-01 11:45:58 1512146758.384221: $GPZDA,164559.00,01,12,2017,00,00*6A
2017-12-01 11:45:58 1512146758.384399: $GPGGA,164559,3946.9559,N,08404.9841,W,2,11,0.80,300.70,M,-33.324,M,,*79
2017-12-01 11:45:58 1512146758.384465: $GPRMC,164559,A,3946.9559,N,08404.9841,W,0.0000,0.000,011217,,*35
2017-12-01 11:45:58 1512146758.384526: $GPGSA,A,3,10,13,15,18,20,21,24,27,29,5,138,,2.0,0.8,1.5*34
2017-12-01 11:45:59 1512146759.736002: $GPGSV,3,1,12,10,13,273,38,13,42,049,46,15,75,070,45,18,44,286,45*79
2017-12-01 11:45:59 1512146759.736182: $GPGSV,3,2,12,20,62,052,42,21,68,304,46,24,21,148,43,27,09,324,34*75
2017-12-01 11:45:59 1512146759.736250: $GPGSV,3,3,12,29,23,195,45,05,13,078,30,04,12,130,00,138,38,213,46*41
2017-12-01 11:45:59 1512146759.849648: $GPZDA,164600.00,01,12,2017,00,00*65
2017-12-01 11:45:59 1512146759.849805: $GPGGA,164600,3946.9559,N,08404.9841,W,2,11,0.80,300.70,M,-33.324,M,,*76
2017-12-01 11:45:59 1512146759.849871: $GPRMC,164600,A,3946.9559,N,08404.9841,W,0.0000,0.000,011217,,*3A
2017-12-01 11:45:59 1512146759.849932: $GPGSA,A,3,10,13,15,18,20,21,24,27,29,5,138,,2.0,0.8,1.5*34
2017-12-01 11:46:00 1512146760.475007: $GPZDA,164601.00,01,12,2017,00,00*64
2017-12-01 11:46:00 1512146760.475179: $GPGGA,164601,3946.9559,N,08404.9841,W,2,11,0.80,300.70,M,-33.324,M,,*77
2017-12-01 11:46:00 1512146760.475247: $GPRMC,164601,A,3946.9559,N,08404.9841,W,0.0000,0.000,011217,,*3B
2017-12-01 11:46:00 1512146760.475308: $GPGSA,A,3,10,13,15,18,20,21,24,27,29,5,138,,2.0,0.8,1.5*34
2017-12-01 11:46:01 1512146761.383375: $GPZDA,164602.00,01,12,2017,00,00*67
2017-12-01 11:46:01 1512146761.383542: $GPGGA,164602,3946.9559,N,08404.9841,W,2,11,0.80,300.70,M,-33.324,M,,*74
2017-12-01 11:46:01 1512146761.383609: $GPRMC,164602,A,3946.9559,N,08404.9841,W,0.0000,0.000,011217,,*38
2017-12-01 11:46:01 1512146761.383670: $GPGSA,A,3,10,13,15,18,20,21,24,27,29,5,138,,2.0,0.8,1.5*34
2017-12-01 11:46:02 1512146762.733982: $GPGSV,3,1,12,10,13,273,38,13,42,049,46,15,75,070,45,18,44,286,45*79
2017-12-01 11:46:02 1512146762.734168: $GPGSV,3,2,12,20,62,052,43,21,68,304,46,24,21,148,43,27,09,324,35*75
2017-12-01 11:46:02 1512146762.734235: $GPGSV,3,3,12,29,23,195,45,05,13,078,30,04,12,130,00,138,38,213,46*41
2017-12-01 11:46:02 1512146762.847494: $GPZDA,164603.00,01,12,2017,00,00*66
2017-12-01 11:46:02 1512146762.847662: $GPGGA,164603,3946.9559,N,08404.9841,W,2,11,0.80,300.70,M,-33.324,M,,*75
2017-12-01 11:46:02 1512146762.847778: $GPRMC,164603,A,3946.9559,N,08404.9841,W,0.0000,0.000,011217,,*39
2017-12-01 11:46:02 1512146762.847841: $GPGSA,A,3,10,13,15,18,20,21,24,27,29,5,138,,2.0,0.8,1.5*34
2017-12-01 11:46:03 1512146763.383466: $GPZDA,164604.00,01,12,2017,00,00*61
2017-12-01 11:46:03 1512146763.383645: $GPGGA,164604,3946.9559,N,08404.9841,W,2,11,0.80,300.70,M,-33.324,M,,*72
2017-12-01 11:46:03 1512146763.383713: $GPRMC,164604,A,3946.9559,N,08404.9841,W,0.0000,0.000,011217,,*3E
2017-12-01 11:46:03 1512146763.383775: $GPGSA,A,3,10,13,15,18,20,21,24,27,29,5,138,,2.0,0.8,1.5*34
2017-12-01 11:46:04 1512146764.382813: $GPZDA,164605.00,01,12,2017,00,00*60
2017-12-01 11:46:04 1512146764.382986: $GPGGA,164605,3946.9559,N,08404.9841,W,2,11,0.80,300.70,M,-33.324,M,,*73
2017-12-01 11:46:04 1512146764.383054: $GPRMC,164605,A,3946.9559,N,08404.9841,W,0.0000,0.000,011217,,*3F
2017-12-01 11:46:04 1512146764.383115: $GPGSA,A,3,10,13,15,18,20,21,24,27,29,5,138,,2.0,0.8,1.5*34
2017-12-01 11:46:05 1512146765.734118: $GPGSV,3,1,12,10,13,273,39,13,42,049,46,15,75,070,45,18,44,286,45*78
2017-12-01 11:46:06 1512146766.072627: $GPGSV,3,2,12,20,62,052,43,21,68,304,45,24,21,148,43,27,09,324,41*75
2017-12-01 11:46:06 1512146766.072787: $GPGSV,3,3,12,29,23,195,45,05,13,078,31,04,12,130,00,138,38,213,46*40
2017-12-01 11:46:06 1512146766.072897: $GPZDA,164606.00,01,12,2017,00,00*63
2017-12-01 11:46:06 1512146766.072955: $GPGGA,164606,3946.9559,N,08404.9841,W,2,11,0.80,300.70,M,-33.324,M,,*70
2017-12-01 11:46:06 1512146766.073017: $GPRMC,164606,A,3946.9559,N,08404.9841,W,0.0000,0.000,011217,,*3C
2017-12-01 11:46:06 1512146766.073076: $GPGSA,A,3,10,13,15,18,20,21,24,27,29,5,138,,2.0,0.8,1.5*34
