2017-12-31 16:50:01 1514757001.756787: {"class":"VERSION","release":"3.16","rev":"3.16-4","proto_major":3,"proto_minor":11}
2017-12-31 16:50:01 1514757001.757165: {"class":"DEVICES","devices":[{"class":"DEVICE","path":"/dev/ttyUSB0","driver":"SiRF","activated":"2017-12-31T21:50:01.503Z","flags":1,"native":1,"bps":4800,"parity":"N","stopbits":1,"cycle":1.00}]}
2017-12-31 16:50:01 1514757001.757276: {"class":"WATCH","enable":true,"json":false,"nmea":true,"raw":0,"scaled":false,"timing":false,"split24":false,"pps":false}
2017-12-31 16:50:02 1514757002.360486: $GPZDA,215003.00,31,12,2017,00,00*66
2017-12-31 16:50:02 1514757002.360655: $GPGGA,215003,3946.9581,N,08404.9855,W,2,11,0.80,303.74,M,-33.324,M,,*71
2017-12-31 16:50:02 1514757002.360721: $GPRMC,215003,A,3946.9581,N,08404.9855,W,0.0000,0.000,311217,,*39
2017-12-31 16:50:02 1514757002.360782: $GPGSA,A,3,22,23,25,3,16,29,31,14,32,26,135,,1.7,0.8,1.3*32
2017-12-31 16:50:03 1514757003.679980: $GPGSV,3,1,11,22,48,250,44,23,21,306,41,25,08,037,23,03,45,282,33*72
2017-12-31 16:50:03 1514757003.680157: $GPGSV,3,2,11,16,38,189,47,29,14,061,16,31,56,043,51,14,46,106,45*7A
2017-12-31 16:50:03 1514757003.680222: $GPGSV,3,3,11,32,25,117,43,26,68,159,42,135,22,240,43*78
2017-12-31 16:50:03 1514757003.793426: $GPZDA,215004.00,31,12,2017,00,00*61
2017-12-31 16:50:03 1514757003.793589: $GPGGA,215004,3946.9581,N,08404.9855,W,2,11,0.80,303.74,M,-33.324,M,,*76
2017-12-31 16:50:03 1514757003.793655: $GPRMC,215004,A,3946.9581,N,08404.9855,W,0.0000,0.000,311217,,*3E
2017-12-31 16:50:03 1514757003.793716: $GPGSA,A,3,22,23,25,3,16,29,31,14,32,26,135,,1.7,0.8,1.3*32
2017-12-31 16:50:04 1514757004.345043: $GPZDA,215005.00,31,12,2017,00,00*60
2017-12-31 16:50:04 1514757004.345265: $GPGGA,215005,3946.9581,N,08404.9855,W,2,11,0.80,303.74,M,-33.324,M,,*77
2017-12-31 16:50:04 1514757004.345359: $GPRMC,215005,A,3946.9581,N,08404.9855,W,0.0000,0.000,311217,,*3F
2017-12-31 16:50:04 1514757004.345453: $GPGSA,A,3,22,23,25,3,16,29,31,14,32,26,135,,1.7,0.8,1.3*32
2017-12-31 16:50:05 1514757005.344641: $GPZDA,215006.00,31,12,2017,00,00*63
2017-12-31 16:50:05 1514757005.344821: $GPGGA,215006,3946.9581,N,08404.9855,W,2,11,0.80,303.74,M,-33.324,M,,*74
2017-12-31 16:50:05 1514757005.344888: $GPRMC,215006,A,3946.9581,N,08404.9855,W,0.0000,0.000,311217,,*3C
2017-12-31 16:50:05 1514757005.344949: $GPGSA,A,3,22,23,25,3,16,29,31,14,32,26,135,,1.7,0.8,1.3*32
2017-12-31 16:50:06 1514757006.672847: $GPGSV,3,1,11,22,48,250,45,23,21,306,41,25,08,037,23,03,45,282,34*74
2017-12-31 16:50:06 1514757006.673026: $GPGSV,3,2,11,16,38,189,47,29,14,061,14,31,56,043,51,14,46,106,45*78
2017-12-31 16:50:06 1514757006.673092: $GPGSV,3,3,11,32,25,117,44,26,68,159,42,135,22,240,44*78
2017-12-31 16:50:06 1514757006.786458: $GPZDA,215007.00,31,12,2017,00,00*62
2017-12-31 16:50:06 1514757006.786653: $GPGGA,215007,3946.9581,N,08404.9855,W,2,11,0.80,303.74,M,-33.324,M,,*75
2017-12-31 16:50:06 1514757006.786721: $GPRMC,215007,A,3946.9581,N,08404.9855,W,0.0000,0.000,311217,,*3D
2017-12-31 16:50:06 1514757006.786782: $GPGSA,A,3,22,23,25,3,16,29,31,14,32,26,135,,1.7,0.8,1.3*32
2017-12-31 16:50:07 1514757007.344598: $GPZDA,215008.00,31,12,2017,00,00*6D
2017-12-31 16:50:07 1514757007.344776: $GPGGA,215008,3946.9581,N,08404.9855,W,2,11,0.80,303.74,M,-33.324,M,,*7A
2017-12-31 16:50:07 1514757007.344841: $GPRMC,215008,A,3946.9581,N,08404.9855,W,0.0000,0.000,311217,,*32
2017-12-31 16:50:07 1514757007.344902: $GPGSA,A,3,22,23,25,3,16,29,31,14,32,26,135,,1.7,0.8,1.3*32
2017-12-31 16:50:08 1514757008.352955: $GPZDA,215009.00,31,12,2017,00,00*6C
2017-12-31 16:50:08 1514757008.353137: $GPGGA,215009,3946.9581,N,08404.9855,W,2,11,0.80,303.74,M,-33.324,M,,*7B
2017-12-31 16:50:08 1514757008.353205: $GPRMC,215009,A,3946.9581,N,08404.9855,W,0.0000,0.000,311217,,*33
2017-12-31 16:50:08 1514757008.353266: $GPGSA,A,3,22,23,25,3,16,29,31,14,32,26,135,,1.7,0.8,1.3*32
2017-12-31 16:50:09 1514757009.681175: $GPGSV,3,1,11,22,48,250,45,23,21,306,41,25,08,037,23,03,45,282,35*75
2017-12-31 16:50:09 1514757009.681337: $GPGSV,3,2,11,16,38,189,47,29,14,061,11,31,56,043,51,14,46,106,45*7D
2017-12-31 16:50:09 1514757009.681457: $GPGSV,3,3,11,32,25,117,44,26,68,159,42,135,22,240,43*7F
2017-12-31 16:50:09 1514757009.794509: $GPZDA,215010.00,31,12,2017,00,00*64
2017-12-31 16:50:09 1514757009.794690: $GPGGA,215010,3946.9581,N,08404.9855,W,2,11,0.80,303.74,M,-33.324,M,,*73
2017-12-31 16:50:09 1514757009.794757: $GPRMC,215010,A,3946.9581,N,08404.9855,W,0.0000,0.000,311217,,*3B
2017-12-31 16:50:09 1514757009.794820: $GPGSA,A,3,22,23,25,3,16,29,31,14,32,26,135,,1.7,0.8,1.3*32
2017-12-31 16:50:10 1514757010.420181: $GPZDA,215011.00,31,12,2017,00,00*65
2017-12-31 16:50:10 1514757010.420348: $GPGGA,215011,3946.9581,N,08404.9855,W,2,11,0.80,303.74,M,-33.324,M,,*72
2017-12-31 16:50:10 1514757010.420415: $GPRMC,215011,A,3946.9581,N,08404.9855,W,0.0000,0.000,311217,,*3A
2017-12-31 16:50:10 1514757010.420476: $GPGSA,A,3,22,23,25,3,16,29,31,14,32,26,135,,1.7,0.8,1.3*32
2017-12-31 16:50:11 1514757011.359624: $GPZDA,215012.00,31,12,2017,00,00*66
2017-12-31 16:50:11 1514757011.359827: $GPGGA,215012,3946.9581,N,08404.9855,W,2,11,0.80,303.74,M,-33.324,M,,*71
2017-12-31 16:50:11 1514757011.359894: $GPRMC,215012,A,3946.9581,N,08404.9855,W,0.0000,0.000,311217,,*39
2017-12-31 16:50:11 1514757011.359956: $GPGSA,A,3,22,23,25,3,16,29,31,14,32,26,135,,1.7,0.8,1.3*32
2017-12-31 16:50:12 1514757012.671582: $GPGSV,3,1,11,22,48,250,45,23,21,306,42,25,08,037,24,03,45,282,36*72
2017-12-31 16:50:12 1514757012.671762: $GPGSV,3,2,11,16,38,189,47,29,14,061,13,31,56,043,51,14,46,106,45*7F
2017-12-31 16:50:12 1514757012.671827: $GPGSV,3,3,11,32,25,117,44,26,68,159,42,135,22,240,43*7F
2017-12-31 16:50:12 1514757012.785057: $GPZDA,215013.00,31,12,2017,00,00*67
2017-12-31 16:50:12 1514757012.785223: $GPGGA,215013,3946.9581,N,08404.9855,W,2,11,0.80,303.74,M,-33.324,M,,*70
2017-12-31 16:50:12 1514757012.785288: $GPRMC,215013,A,3946.9581,N,08404.9855,W,0.0000,0.000,311217,,*38
2017-12-31 16:50:12 1514757012.785349: $GPGSA,A,3,22,23,25,3,16,29,31,14,32,26,135,,1.7,0.8,1.3*32
2017-12-31 16:50:13 1514757013.344867: $GPZDA,215014.00,31,12,2017,00,00*60
2017-12-31 16:50:13 1514757013.345035: $GPGGA,215014,3946.9581,N,08404.9855,W,2,11,0.80,303.74,M,-33.324,M,,*77
2017-12-31 16:50:13 1514757013.345100: $GPRMC,215014,A,3946.9581,N,08404.9855,W,0.0000,0.000,311217,,*3F
2017-12-31 16:50:13 1514757013.345161: $GPGSA,A,3,22,23,25,3,16,29,31,14,32,26,135,,1.7,0.8,1.3*32
2017-12-31 16:50:14 1514757014.360734: $GPZDA,215015.00,31,12,2017,00,00*61
2017-12-31 16:50:14 1514757014.360922: $GPGGA,215015,3946.9581,N,08404.9855,W,2,11,0.80,303.74,M,-33.324,M,,*76
2017-12-31 16:50:14 1514757014.360989: $GPRMC,215015,A,3946.9581,N,08404.9855,W,0.0000,0.000,311217,,*3E
2017-12-31 16:50:14 1514757014.361050: $GPGSA,A,3,22,23,25,3,16,29,31,14,32,26,135,,1.7,0.8,1.3*32
2017-12-31 16:50:15 1514757015.680630: $GPGSV,3,1,11,22,48,250,45,23,21,306,41,25,08,037,24,03,45,282,27*71
2017-12-31 16:50:15 1514757015.680813: $GPGSV,3,2,11,16,38,189,47,29,14,061,22,31,56,043,51,14,46,106,45*7D
2017-12-31 16:50:15 1514757015.680879: $GPGSV,3,3,11,32,25,117,43,26,68,159,42,135,22,240,43*78
2017-12-31 16:50:15 1514757015.794048: $GPZDA,215016.00,31,12,2017,00,00*62
2017-12-31 16:50:15 1514757015.794214: $GPGGA,215016,3946.9581,N,08404.9855,W,2,11,0.80,303.74,M,-33.324,M,,*75
2017-12-31 16:50:15 1514757015.794280: $GPRMC,215016,A,3946.9581,N,08404.9855,W,0.0000,0.000,311217,,*3D
2017-12-31 16:50:15 1514757015.794340: $GPGSA,A,3,22,23,25,3,16,29,31,14,32,26,135,,1.7,0.8,1.3*32
2017-12-31 16:50:16 1514757016.343999: $GPZDA,215017.00,31,12,2017,00,00*63
2017-12-31 16:50:16 1514757016.344165: $GPGGA,215017,3946.9581,N,08404.9855,W,2,11,0.80,303.74,M,-33.324,M,,*74
2017-12-31 16:50:16 1514757016.344230: $GPRMC,215017,A,3946.9581,N,08404.9855,W,0.0000,0.000,311217,,*3C
2017-12-31 16:50:16 1514757016.344290: $GPGSA,A,3,22,23,25,3,16,29,31,14,32,26,135,,1.7,0.8,1.3*32
2017-12-31 16:50:17 1514757017.361254: $GPZDA,215018.00,31,12,2017,00,00*6C
2017-12-31 16:50:17 1514757017.361437: $GPGGA,215018,3946.9581,N,08404.9855,W,2,11,0.80,303.74,M,-33.324,M,,*7B
2017-12-31 16:50:17 1514757017.361562: $GPRMC,215018,A,3946.9581,N,08404.9855,W,0.0000,0.000,311217,,*33
2017-12-31 16:50:17 1514757017.361624: $GPGSA,A,3,22,23,25,3,16,29,31,14,32,26,135,,1.7,0.8,1.3*32
2017-12-31 16:50:18 1514757018.689006: $GPGSV,3,1,11,22,48,250,45,23,21,306,41,25,08,037,24,03,45,282,28*7E
2017-12-31 16:50:18 1514757018.689185: $GPGSV,3,2,11,16,38,189,47,29,14,061,23,31,56,043,51,14,46,106,45*7C
2017-12-31 16:50:18 1514757018.689250: $GPGSV,3,3,11,32,25,117,43,26,68,159,42,135,22,240,43*78
2017-12-31 16:50:18 1514757018.802311: $GPZDA,215019.00,31,12,2017,00,00*6D
2017-12-31 16:50:18 1514757018.802488: $GPGGA,215019,3946.9581,N,08404.9855,W,2,11,0.80,303.74,M,-33.324,M,,*7A
2017-12-31 16:50:18 1514757018.802556: $GPRMC,215019,A,3946.9581,N,08404.9855,W,0.0000,0.000,311217,,*32
2017-12-31 16:50:18 1514757018.802617: $GPGSA,A,3,22,23,25,3,16,29,31,14,32,26,135,,1.7,0.8,1.3*32
2017-12-31 16:50:19 1514757019.344549: $GPZDA,215020.00,31,12,2017,00,00*67
2017-12-31 16:50:19 1514757019.344729: $GPGGA,215020,3946.9581,N,08404.9855,W,2,11,0.80,303.74,M,-33.324,M,,*70
2017-12-31 16:50:19 1514757019.344798: $GPRMC,215020,A,3946.9581,N,08404.9855,W,0.0000,0.000,311217,,*38
2017-12-31 16:50:19 1514757019.344858: $GPGSA,A,3,22,23,25,3,16,29,31,14,32,26,135,,1.7,0.8,1.3*32
2017-12-31 16:50:20 1514757020.336810: $GPZDA,215021.00,31,12,2017,00,00*66
2017-12-31 16:50:20 1514757020.336995: $GPGGA,215021,3946.9581,N,08404.9855,W,2,11,0.80,303.74,M,-33.324,M,,*71
2017-12-31 16:50:20 1514757020.337062: $GPRMC,215021,A,3946.9581,N,08404.9855,W,0.0000,0.000,311217,,*39
2017-12-31 16:50:20 1514757020.337200: $GPGSA,A,3,22,23,25,3,16,29,31,14,32,26,135,,1.7,0.8,1.3*32
2017-12-31 16:50:21 1514757021.680684: $GPGSV,3,1,11,22,48,250,45,23,21,306,41,25,08,037,24,03,45,282,36*71
2017-12-31 16:50:21 1514757021.680877: $GPGSV,3,2,11,16,38,189,47,29,14,061,23,31,56,043,51,14,46,106,45*7C
2017-12-31 16:50:21 1514757021.680943: $GPGSV,3,3,11,32,25,117,43,26,68,159,42,135,22,240,43*78
2017-12-31 16:50:21 1514757021.793929: $GPZDA,215022.00,31,12,2017,00,00*65
2017-12-31 16:50:21 1514757021.794107: $GPGGA,215022,3946.9581,N,08404.9855,W,2,11,0.80,303.74,M,-33.324,M,,*72
2017-12-31 16:50:21 1514757021.794174: $GPRMC,215022,A,3946.9581,N,08404.9855,W,0.0000,0.000,311217,,*3A
2017-12-31 16:50:21 1514757021.794235: $GPGSA,A,3,22,23,25,3,16,29,31,14,32,26,135,,1.7,0.8,1.3*32
