2017-12-01 11:28:39 1512145719.594026: {"class":"VERSION","release":"3.16","rev":"3.16-4","proto_major":3,"proto_minor":11}
2017-12-01 11:28:39 1512145719.594679: {"class":"DEVICES","devices":[{"class":"DEVICE","path":"/dev/ttyUSB0","driver":"SiRF","subtype":"9\u0006GSD4e_4.1.2-P1_RPATCH.05-F-GPS-4R-1510281 11/03/2015 307","activated":"2017-12-01T16:28:39.280Z","flags":1,"native":1,"bps":4800,"parity":"N","stopbits":1,"cycle":1.00}]}
2017-12-01 11:28:39 1512145719.594820: {"class":"WATCH","enable":true,"json":false,"nmea":true,"raw":0,"scaled":false,"timing":false,"split24":false,"pps":false}
2017-12-01 11:28:39 1512145719.729919: $GPGSV,3,1,12,05,19,072,38,10,08,267,33,13,49,055,45,15,79,105,48*7D
2017-12-01 11:28:39 1512145719.730104: $GPGSV,3,2,12,18,39,279,44,20,67,037,44,21,60,309,47,24,14,153,36*7E
2017-12-01 11:28:39 1512145719.730171: $GPGSV,3,3,12,29,31,198,46,30,01,030,16,27,04,328,30,138,38,213,46*4F
2017-12-01 11:28:39 1512145719.843316: $GPZDA,162840.00,01,12,2017,00,00*69
2017-12-01 11:28:39 1512145719.843527: $GPGGA,162840,3946.9578,N,08404.9835,W,2,12,1.00,291.90,M,-33.324,M,,*77
2017-12-01 11:28:39 1512145719.843607: $GPRMC,162840,A,3946.9578,N,08404.9835,W,0.0000,0.000,011217,,*36
2017-12-01 11:28:39 1512145719.843672: $GPGSA,A,3,5,10,13,15,18,20,21,24,29,30,27,138,2.0,1.0,1.5*3E
2017-12-01 11:28:40 1512145720.394159: $GPZDA,162841.00,01,12,2017,00,00*68
2017-12-01 11:28:40 1512145720.394338: $GPGGA,162841,3946.9578,N,08404.9835,W,2,12,1.00,291.90,M,-33.324,M,,*76
2017-12-01 11:28:40 1512145720.394406: $GPRMC,162841,A,3946.9578,N,08404.9835,W,0.0000,0.000,011217,,*37
2017-12-01 11:28:40 1512145720.394469: $GPGSA,A,3,5,10,13,15,18,20,21,24,29,30,27,138,2.0,1.0,1.5*3E
2017-12-01 11:28:41 1512145721.377883: $GPZDA,162842.00,01,12,2017,00,00*6B
2017-12-01 11:28:41 1512145721.378058: $GPGGA,162842,3946.9578,N,08404.9835,W,2,12,1.00,291.90,M,-33.324,M,,*75
2017-12-01 11:28:41 1512145721.378125: $GPRMC,162842,A,3946.9578,N,08404.9835,W,0.0000,0.000,011217,,*34
2017-12-01 11:28:41 1512145721.378187: $GPGSA,A,3,5,10,13,15,18,20,21,24,29,30,27,138,2.0,1.0,1.5*3E
2017-12-01 11:28:42 1512145722.734533: $GPGSV,3,1,12,05,19,072,38,10,08,267,28,13,49,055,45,15,79,105,48*77
2017-12-01 11:28:42 1512145722.734720: $GPGSV,3,2,12,18,39,279,44,20,67,037,44,21,60,309,47,24,14,153,36*7E
2017-12-01 11:28:42 1512145722.734788: $GPGSV,3,3,12,29,31,198,46,04,18,126,05,27,04,328,30,138,38,213,45*47
2017-12-01 11:28:42 1512145722.847872: $GPZDA,162843.00,01,12,2017,00,00*6A
2017-12-01 11:28:42 1512145722.848053: $GPGGA,162843,3946.9578,N,08404.9835,W,2,11,1.00,291.90,M,-33.324,M,,*77
2017-12-01 11:28:42 1512145722.848120: $GPRMC,162843,A,3946.9578,N,08404.9835,W,0.0000,0.000,011217,,*35
2017-12-01 11:28:42 1512145722.848182: $GPGSA,A,3,5,10,13,15,18,20,21,24,29,27,138,,2.0,1.0,1.5*3D
2017-12-01 11:28:43 1512145723.473559: $GPZDA,162844.00,01,12,2017,00,00*6D
2017-12-01 11:28:43 1512145723.473731: $GPGGA,162844,3946.9578,N,08404.9835,W,2,11,1.00,291.90,M,-33.324,M,,*70
2017-12-01 11:28:43 1512145723.473800: $GPRMC,162844,A,3946.9578,N,08404.9835,W,0.0000,0.000,011217,,*32
2017-12-01 11:28:43 1512145723.473861: $GPGSA,A,3,5,10,13,15,18,20,21,24,29,27,138,,2.0,1.0,1.5*3D
2017-12-01 11:28:44 1512145724.382910: $GPZDA,162845.00,01,12,2017,00,00*6C
2017-12-01 11:28:44 1512145724.383093: $GPGGA,162845,3946.9578,N,08404.9835,W,2,11,1.00,291.90,M,-33.324,M,,*71
2017-12-01 11:28:44 1512145724.383161: $GPRMC,162845,A,3946.9578,N,08404.9835,W,0.0000,0.000,011217,,*33
2017-12-01 11:28:44 1512145724.383223: $GPGSA,A,3,5,10,13,15,18,20,21,24,29,27,138,,2.0,1.0,1.5*3D
2017-12-01 11:28:45 1512145725.729878: $GPGSV,3,1,12,05,19,072,38,10,08,267,30,13,49,055,45,15,79,105,47*71
2017-12-01 11:28:45 1512145725.730062: $GPGSV,3,2,12,18,39,279,44,20,67,037,44,21,60,309,47,24,14,153,36*7E
2017-12-01 11:28:45 1512145725.730129: $GPGSV,3,3,12,29,31,198,47,30,01,030,15,27,04,328,29,138,38,213,45*46
2017-12-01 11:28:45 1512145725.843308: $GPZDA,162846.00,01,12,2017,00,00*6F
2017-12-01 11:28:45 1512145725.843520: $GPGGA,162846,3946.9578,N,08404.9835,W,2,12,1.00,291.90,M,-33.324,M,,*71
2017-12-01 11:28:45 1512145725.843653: $GPRMC,162846,A,3946.9578,N,08404.9835,W,0.0000,0.000,011217,,*30
2017-12-01 11:28:45 1512145725.843722: $GPGSA,A,3,5,10,13,15,18,20,21,24,29,30,27,138,2.0,1.0,1.5*3E
2017-12-01 11:28:46 1512145726.376654: $GPZDA,162847.00,01,12,2017,00,00*6E
2017-12-01 11:28:46 1512145726.376835: $GPGGA,162847,3946.9578,N,08404.9835,W,2,12,1.00,291.90,M,-33.324,M,,*70
2017-12-01 11:28:46 1512145726.376904: $GPRMC,162847,A,3946.9578,N,08404.9835,W,0.0000,0.000,011217,,*31
2017-12-01 11:28:46 1512145726.376966: $GPGSA,A,3,5,10,13,15,18,20,21,24,29,30,27,138,2.0,1.0,1.5*3E
2017-12-01 11:28:47 1512145727.383740: $GPZDA,162848.00,01,12,2017,00,00*61
2017-12-01 11:28:47 1512145727.383930: $GPGGA,162848,3946.9578,N,08404.9835,W,2,12,1.00,291.90,M,-33.324,M,,*7F
2017-12-01 11:28:47 1512145727.383998: $GPRMC,162848,A,3946.9578,N,08404.9835,W,0.0000,0.000,011217,,*3E
2017-12-01 11:28:47 1512145727.384062: $GPGSA,A,3,5,10,13,15,18,20,21,24,29,30,27,138,2.0,1.0,1.5*3E
2017-12-01 11:28:48 1512145728.730223: $GPGSV,3,1,12,05,19,072,38,10,08,267,37,13,49,055,45,15,79,105,48*79
2017-12-01 11:28:48 1512145728.730425: $GPGSV,3,2,12,18,39,279,44,20,67,037,44,21,60,309,47,24,14,153,36*7E
2017-12-01 11:28:48 1512145728.730512: $GPGSV,3,3,12,29,31,198,47,30,01,030,14,27,04,328,28,138,38,213,46*45
2017-12-01 11:28:48 1512145728.843610: $GPZDA,162849.00,01,12,2017,00,00*60
2017-12-01 11:28:48 1512145728.843787: $GPGGA,162849,3946.9578,N,08404.9835,W,2,12,1.00,291.90,M,-33.324,M,,*7E
2017-12-01 11:28:48 1512145728.843853: $GPRMC,162849,A,3946.9578,N,08404.9835,W,0.0000,0.000,011217,,*3F
2017-12-01 11:28:48 1512145728.843914: $GPGSA,A,3,5,10,13,15,18,20,21,24,29,30,27,138,2.0,1.0,1.5*3E
