2017-12-01 12:10:12 1512148212.516697: {"class":"VERSION","release":"3.16","rev":"3.16-4","proto_major":3,"proto_minor":11}
2017-12-01 12:10:12 1512148212.517138: {"class":"DEVICES","devices":[{"class":"DEVICE","path":"/dev/ttyUSB0","driver":"SiRF","subtype":"9\u0006GSD4e_4.1.2-P1_RPATCH.05-F-GPS-4R-1510281 11/03/2015 307","activated":"2017-12-01T17:10:12.472Z","flags":1,"native":1,"bps":4800,"parity":"N","stopbits":1,"cycle":1.00}]}
2017-12-01 12:10:12 1512148212.517259: {"class":"WATCH","enable":true,"json":false,"nmea":true,"raw":0,"scaled":false,"timing":false,"split24":false,"pps":false}
2017-12-01 12:10:13 1512148213.681815: $GPGSV,3,1,12,10,21,280,36,13,32,046,46,15,64,052,44,18,52,297,46*77
2017-12-01 12:10:13 1512148213.681998: $GPGSV,3,2,12,20,54,067,46,21,77,283,44,24,30,141,44,27,15,316,39*7F
2017-12-01 12:10:13 1512148213.682081: $GPGSV,3,3,12,29,13,190,24,05,06,085,22,04,03,135,00,138,38,213,46*40
2017-12-01 12:10:13 1512148213.795073: $GPZDA,171014.00,01,12,2017,00,00*62
2017-12-01 12:10:13 1512148213.795217: $GPGGA,171014,3946.9579,N,08404.9851,W,2,11,0.80,308.80,M,-33.324,M,,*75
2017-12-01 12:10:13 1512148213.795284: $GPRMC,171014,A,3946.9579,N,08404.9851,W,0.0000,0.000,011217,,*3E
2017-12-01 12:10:13 1512148213.795364: $GPGSA,A,3,10,13,15,18,20,21,24,27,29,5,138,,2.0,0.8,1.5*34
2017-12-01 12:10:14 1512148214.338607: $GPZDA,171015.00,01,12,2017,00,00*63
2017-12-01 12:10:14 1512148214.338779: $GPGGA,171015,3946.9579,N,08404.9851,W,2,11,0.80,308.80,M,-33.324,M,,*74
2017-12-01 12:10:14 1512148214.338845: $GPRMC,171015,A,3946.9579,N,08404.9851,W,0.0000,0.000,011217,,*3F
2017-12-01 12:10:14 1512148214.338906: $GPGSA,A,3,10,13,15,18,20,21,24,27,29,5,138,,2.0,0.8,1.5*34
2017-12-01 12:10:15 1512148215.337690: $GPZDA,171016.00,01,12,2017,00,00*60
2017-12-01 12:10:15 1512148215.337862: $GPGGA,171016,3946.9579,N,08404.9851,W,2,11,0.80,308.80,M,-33.324,M,,*77
2017-12-01 12:10:15 1512148215.337928: $GPRMC,171016,A,3946.9579,N,08404.9851,W,0.0000,0.000,011217,,*3C
2017-12-01 12:10:15 1512148215.337990: $GPGSA,A,3,10,13,15,18,20,21,24,27,29,5,138,,2.0,0.8,1.5*34
2017-12-01 12:10:16 1512148216.672242: $GPGSV,3,1,12,10,21,280,36,13,32,046,45,15,64,052,44,18,52,297,46*74
2017-12-01 12:10:16 1512148216.679588: $GPGSV,3,2,12,20,54,067,46,21,77,283,44,24,30,141,44,27,15,316,38*7E
2017-12-01 12:10:16 1512148216.679706: $GPGSV,3,3,12,29,13,190,28,05,06,085,22,04,03,135,00,138,38,213,46*4C
2017-12-01 12:10:16 1512148216.785542: $GPZDA,171017.00,01,12,2017,00,00*61
2017-12-01 12:10:16 1512148216.785708: $GPGGA,171017,3946.9579,N,08404.9851,W,2,11,0.80,308.80,M,-33.324,M,,*76
2017-12-01 12:10:16 1512148216.785774: $GPRMC,171017,A,3946.9579,N,08404.9851,W,0.0000,0.000,011217,,*3D
2017-12-01 12:10:16 1512148216.785835: $GPGSA,A,3,10,13,15,18,20,21,24,27,29,5,138,,2.0,0.8,1.5*34
2017-12-01 12:10:17 1512148217.337835: $GPZDA,171018.00,01,12,2017,00,00*6E
2017-12-01 12:10:17 1512148217.337995: $GPGGA,171018,3946.9579,N,08404.9851,W,2,11,0.80,308.80,M,-33.324,M,,*79
2017-12-01 12:10:17 1512148217.338085: $GPRMC,171018,A,3946.9579,N,08404.9851,W,0.0000,0.000,011217,,*32
2017-12-01 12:10:17 1512148217.338148: $GPGSA,A,3,10,13,15,18,20,21,24,27,29,5,138,,2.0,0.8,1.5*34
2017-12-01 12:10:18 1512148218.338566: $GPZDA,171019.00,01,12,2017,00,00*6F
2017-12-01 12:10:18 1512148218.338738: $GPGGA,171019,3946.9579,N,08404.9851,W,2,11,0.80,308.80,M,-33.324,M,,*78
2017-12-01 12:10:18 1512148218.338805: $GPRMC,171019,A,3946.9579,N,08404.9851,W,0.0000,0.000,011217,,*33
2017-12-01 12:10:18 1512148218.338866: $GPGSA,A,3,10,13,15,18,20,21,24,27,29,5,138,,2.0,0.8,1.5*34
2017-12-01 12:10:19 1512148219.674252: $GPGSV,3,1,12,10,21,280,36,13,32,046,45,15,64,052,43,18,52,297,46*73
2017-12-01 12:10:19 1512148219.674431: $GPGSV,3,2,12,20,54,067,46,21,77,283,44,24,30,141,44,27,15,316,38*7E
2017-12-01 12:10:19 1512148219.674496: $GPGSV,3,3,12,29,13,190,28,05,06,085,22,04,03,135,00,138,38,213,46*4C
2017-12-01 12:10:19 1512148219.786405: $GPZDA,171020.00,01,12,2017,00,00*65
2017-12-01 12:10:19 1512148219.786572: $GPGGA,171020,3946.9579,N,08404.9851,W,2,11,0.80,308.80,M,-33.324,M,,*72
2017-12-01 12:10:19 1512148219.786689: $GPRMC,171020,A,3946.9579,N,08404.9851,W,0.0000,0.000,011217,,*39
2017-12-01 12:10:19 1512148219.786751: $GPGSA,A,3,10,13,15,18,20,21,24,27,29,5,138,,2.0,0.8,1.5*34
2017-12-01 12:10:20 1512148220.413118: $GPZDA,171021.00,01,12,2017,00,00*64
2017-12-01 12:10:20 1512148220.413420: $GPGGA,171021,3946.9579,N,08404.9851,W,2,11,0.80,308.80,M,-33.324,M,,*73
2017-12-01 12:10:20 1512148220.413530: $GPRMC,171021,A,3946.9579,N,08404.9851,W,0.0000,0.000,011217,,*38
2017-12-01 12:10:20 1512148220.413651: $GPGSA,A,3,10,13,15,18,20,21,24,27,29,5,138,,2.0,0.8,1.5*34
2017-12-01 12:10:21 1512148221.337695: $GPZDA,171022.00,01,12,2017,00,00*67
2017-12-01 12:10:21 1512148221.337869: $GPGGA,171022,3946.9579,N,08404.9851,W,2,11,0.80,308.80,M,-33.324,M,,*70
2017-12-01 12:10:21 1512148221.337935: $GPRMC,171022,A,3946.9579,N,08404.9851,W,0.0000,0.000,011217,,*3B
2017-12-01 12:10:21 1512148221.337996: $GPGSA,A,3,10,13,15,18,20,21,24,27,29,5,138,,2.0,0.8,1.5*34
