2017-11-15 18:45:56 1510789556.633943: {"class":"VERSION","release":"3.17","rev":"3.17","proto_major":3,"proto_minor":12}
2017-11-15 18:45:56 1510789556.634397: {"class":"DEVICES","devices":[{"class":"DEVICE","path":"/dev/ttyUSB0","driver":"SiRF","subtype":"9\u0006GSD4e_4.1.2-P1_RPATCH.05-F-GPS-4R-1510281 11/03/2015 307","activated":"2017-11-15T23:45:56.472Z","flags":1,"native":1,"bps":4800,"parity":"N","stopbits":1,"cycle":1.00}]}
2017-11-15 18:45:56 1510789556.634514: {"class":"WATCH","enable":true,"json":false,"nmea":true,"raw":0,"scaled":false,"timing":false,"split24":false,"pps":false}
2017-11-15 18:45:57 1510789557.666335: $GPGSV,3,1,12,16,03,190,10,14,67,055,18,03,26,313,04,32,51,087,16*77
2017-11-15 18:45:57 1510789557.666523: $GPGSV,3,2,12,31,79,315,26,26,32,177,18,25,32,051,16,10,16,157,14*7C
2017-11-15 18:45:57 1510789557.666610: $GPGSV,3,3,12,01,16,268,00,22,43,297,22,29,02,088,13,135,23,238,00*4F
2017-11-15 18:45:57 1510789557.779707: $GPZDA,234556.00,15,11,2017,00,00*65
2017-11-15 18:45:57 1510789557.779864: $GPGGA,234556,3946.9420,N,08404.9768,W,1,09,1.20,323.83,M,-33.324,M,,*77
2017-11-15 18:45:57 1510789557.779924: $GPRMC,234556,A,3946.9420,N,08404.9768,W,1.2621,219.347,151117,,*3D
2017-11-15 18:45:57 1510789557.779979: $GPGSA,A,3,16,14,32,31,26,25,10,22,29,,,,3.4,1.2,2.9*35
2017-11-15 18:45:58 1510789558.331821: $GPZDA,234557.00,15,11,2017,00,00*64
2017-11-15 18:45:58 1510789558.331979: $GPGGA,234557,3946.9420,N,08404.9768,W,1,09,1.20,323.83,M,-33.324,M,,*76
2017-11-15 18:45:58 1510789558.332039: $GPRMC,234557,A,3946.9420,N,08404.9768,W,1.1902,238.684,151117,,*38
2017-11-15 18:45:58 1510789558.332096: $GPGSA,A,3,16,14,32,31,26,25,10,22,29,,,,3.4,1.2,2.9*35
2017-11-15 18:45:59 1510789559.371578: $GPZDA,234558.00,15,11,2017,00,00*6B
2017-11-15 18:45:59 1510789559.371734: $GPGGA,234558,3946.9420,N,08404.9775,W,1,09,1.20,323.75,M,-33.324,M,,*7C
2017-11-15 18:45:59 1510789559.371795: $GPRMC,234558,A,3946.9420,N,08404.9775,W,1.3954,244.414,151117,,*3A
2017-11-15 18:45:59 1510789559.371851: $GPGSA,A,3,16,14,32,31,26,25,10,22,29,,,,3.4,1.2,2.9*35
2017-11-15 18:46:00 1510789560.666106: $GPGSV,3,1,12,01,16,268,00,14,67,055,17,03,26,313,14,32,51,087,16*7E
2017-11-15 18:46:00 1510789560.666283: $GPGSV,3,2,12,31,79,315,26,26,32,177,18,25,32,051,16,10,16,157,13*7B
2017-11-15 18:46:00 1510789560.666346: $GPGSV,3,3,12,12,02,030,08,22,43,297,22,29,02,088,12,135,23,238,00*4E
2017-11-15 18:46:00 1510789560.779548: $GPZDA,234559.00,15,11,2017,00,00*6A
2017-11-15 18:46:00 1510789560.779713: $GPGGA,234559,3946.9420,N,08404.9775,W,1,08,1.20,323.75,M,-33.324,M,,*7C
2017-11-15 18:46:00 1510789560.779773: $GPRMC,234559,A,3946.9420,N,08404.9775,W,1.5933,233.668,151117,,*35
2017-11-15 18:46:00 1510789560.779830: $GPGSA,A,3,14,32,31,26,25,10,22,29,,,,,3.4,1.2,2.9*32
2017-11-15 18:46:01 1510789561.405192: $GPZDA,234600.00,15,11,2017,00,00*65
2017-11-15 18:46:01 1510789561.405352: $GPGGA,234600,3946.9417,N,08404.9782,W,1,08,1.20,324.44,M,-33.324,M,,*7A
2017-11-15 18:46:01 1510789561.405411: $GPRMC,234600,A,3946.9417,N,08404.9782,W,1.8343,225.514,151117,,*39
2017-11-15 18:46:01 1510789561.405467: $GPGSA,A,3,14,32,31,26,25,10,22,29,,,,,3.4,1.2,2.9*32
2017-11-15 18:46:02 1510789562.373398: $GPZDA,234601.00,15,11,2017,00,00*64
2017-11-15 18:46:02 1510789562.373575: $GPGGA,234601,3946.9413,N,08404.9782,W,1,08,1.20,323.80,M,-33.324,M,,*70
2017-11-15 18:46:02 1510789562.373637: $GPRMC,234601,A,3946.9413,N,08404.9782,W,1.2621,219.347,151117,,*38
2017-11-15 18:46:02 1510789562.373695: $GPGSA,A,3,14,32,31,26,25,10,22,29,,,,,3.4,1.2,2.9*32
2017-11-15 18:46:03 1510789563.667727: $GPGSV,3,1,12,01,16,268,10,14,67,055,17,03,26,313,13,32,51,087,16*78
2017-11-15 18:46:03 1510789563.667897: $GPGSV,3,2,12,31,79,315,26,26,32,177,19,25,32,051,16,10,16,157,13*7A
2017-11-15 18:46:03 1510789563.667959: $GPGSV,3,3,12,12,02,030,13,22,43,297,22,29,02,088,14,135,23,238,00*42
2017-11-15 18:46:03 1510789563.781263: $GPZDA,234602.00,15,11,2017,00,00*67
2017-11-15 18:46:03 1510789563.781424: $GPGGA,234602,3946.9413,N,08404.9782,W,1,10,1.20,323.80,M,-33.324,M,,*7A
2017-11-15 18:46:03 1510789563.781538: $GPRMC,234602,A,3946.9413,N,08404.9782,W,1.1385,209.379,151117,,*3F
2017-11-15 18:46:03 1510789563.781595: $GPGSA,A,3,14,3,32,31,26,25,10,12,22,29,,,3.4,1.2,2.9*02
2017-11-15 18:46:04 1510789564.329507: $GPZDA,234603.00,15,11,2017,00,00*66
2017-11-15 18:46:04 1510789564.329669: $GPGGA,234603,3946.9413,N,08404.9782,W,1,10,1.20,323.80,M,-33.324,M,,*7B
2017-11-15 18:46:04 1510789564.329729: $GPRMC,234603,A,3946.9413,N,08404.9782,W,0.8414,219.347,151117,,*35
2017-11-15 18:46:04 1510789564.329784: $GPGSA,A,3,14,3,32,31,26,25,10,12,22,29,,,3.4,1.2,2.9*02
2017-11-15 18:46:05 1510789565.330457: $GPZDA,234604.00,15,11,2017,00,00*61
2017-11-15 18:46:05 1510789565.330636: $GPGGA,234604,3946.9413,N,08404.9782,W,1,10,1.20,323.80,M,-33.324,M,,*7C
2017-11-15 18:46:05 1510789565.330697: $GPRMC,234604,A,3946.9413,N,08404.9782,W,1.2621,219.347,151117,,*3D
2017-11-15 18:46:05 1510789565.330754: $GPGSA,A,3,14,3,32,31,26,25,10,12,22,29,,,3.4,1.2,2.9*02
2017-11-15 18:46:06 1510789566.708126: $GPGSV,3,1,12,01,16,268,13,14,67,055,16,16,03,190,15,32,51,087,16*76
2017-11-15 18:46:06 1510789566.708292: $GPGSV,3,2,12,31,79,315,26,26,32,177,19,25,32,051,16,10,16,157,12*7B
2017-11-15 18:46:06 1510789566.708354: $GPGSV,3,3,12,12,02,030,08,22,43,297,22,29,02,088,15,135,23,238,00*49
2017-11-15 18:46:06 1510789566.821757: $GPZDA,234605.00,15,11,2017,00,00*60
2017-11-15 18:46:06 1510789566.821918: $GPGGA,234605,3946.9413,N,08404.9782,W,1,09,1.00,323.80,M,-33.324,M,,*77
2017-11-15 18:46:06 1510789566.821980: $GPRMC,234605,A,3946.9413,N,08404.9782,W,0.8414,219.347,151117,,*33
2017-11-15 18:46:06 1510789566.822036: $GPGSA,A,3,1,14,32,31,26,25,10,22,29,,,,3.4,1.0,2.9*01
2017-11-15 18:46:07 1510789567.372592: $GPZDA,234606.00,15,11,2017,00,00*63
2017-11-15 18:46:07 1510789567.372762: $GPGGA,234606,3946.9413,N,08404.9782,W,1,09,1.00,323.80,M,-33.324,M,,*74
2017-11-15 18:46:07 1510789567.372823: $GPRMC,234606,A,3946.9413,N,08404.9782,W,0.5951,238.684,151117,,*38
2017-11-15 18:46:07 1510789567.372880: $GPGSA,A,3,1,14,32,31,26,25,10,22,29,,,,3.4,1.0,2.9*01
2017-11-15 18:46:08 1510789568.372399: $GPZDA,234607.00,15,11,2017,00,00*62
2017-11-15 18:46:08 1510789568.372580: $GPGGA,234607,3946.9413,N,08404.9782,W,1,09,1.00,323.80,M,-33.324,M,,*75
2017-11-15 18:46:08 1510789568.372646: $GPRMC,234607,A,3946.9413,N,08404.9782,W,0.2422,273.794,151117,,*38
2017-11-15 18:46:08 1510789568.372704: $GPGSA,A,3,1,14,32,31,26,25,10,22,29,,,,3.4,1.0,2.9*01
2017-11-15 18:46:09 1510789569.666449: $GPGSV,3,1,12,01,16,268,12,14,67,055,15,03,26,313,14,32,51,087,16*7F
2017-11-15 18:46:09 1510789569.666638: $GPGSV,3,2,12,31,79,315,26,26,32,177,19,25,32,051,16,10,16,157,12*7B
2017-11-15 18:46:09 1510789569.666699: $GPGSV,3,3,12,12,02,030,08,22,43,297,21,29,02,088,15,135,23,238,00*4A
2017-11-15 18:46:09 1510789569.778494: $GPZDA,234608.00,15,11,2017,00,00*6D
2017-11-15 18:46:09 1510789569.778660: $GPGGA,234608,3946.9413,N,08404.9782,W,1,10,1.00,323.80,M,-33.324,M,,*72
2017-11-15 18:46:09 1510789569.778722: $GPRMC,234608,A,3946.9413,N,08404.9782,W,0.4179,328.778,151117,,*37
2017-11-15 18:46:09 1510789569.778778: $GPGSA,A,3,1,14,32,31,26,25,10,12,22,29,,,3.4,1.0,2.9*02
2017-11-15 18:46:10 1510789570.331065: $GPZDA,234609.00,15,11,2017,00,00*6C
2017-11-15 18:46:10 1510789570.331231: $GPGGA,234609,3946.9417,N,08404.9782,W,1,10,1.00,324.44,M,-33.324,M,,*78
2017-11-15 18:46:10 1510789570.331292: $GPRMC,234609,A,3946.9417,N,08404.9782,W,0.4179,328.778,151117,,*32
2017-11-15 18:46:10 1510789570.331349: $GPGSA,A,3,1,14,32,31,26,25,10,12,22,29,,,3.4,1.0,2.9*02
2017-11-15 18:46:11 1510789571.330413: $GPZDA,234610.00,15,11,2017,00,00*64
2017-11-15 18:46:11 1510789571.330593: $GPGGA,234610,3946.9417,N,08404.9782,W,1,10,1.00,324.44,M,-33.324,M,,*70
2017-11-15 18:46:11 1510789571.330656: $GPRMC,234610,A,3946.9417,N,08404.9782,W,0.5287,2.716,151117,,*3A
2017-11-15 18:46:11 1510789571.330716: $GPGSA,A,3,1,14,32,31,26,25,10,12,22,29,,,3.4,1.0,2.9*02
2017-11-15 18:46:12 1510789572.666922: $GPGSV,3,1,12,01,16,268,13,14,67,055,15,03,26,313,14,32,51,087,16*7E
2017-11-15 18:46:12 1510789572.667142: $GPGSV,3,2,12,31,79,315,26,26,32,177,19,25,32,051,16,10,16,157,12*7B
2017-11-15 18:46:12 1510789572.667203: $GPGSV,3,3,12,12,02,030,08,22,43,297,21,29,02,088,15,135,23,238,00*4A
2017-11-15 18:46:12 1510789572.780438: $GPZDA,234611.00,15,11,2017,00,00*65
2017-11-15 18:46:12 1510789572.780611: $GPGGA,234611,3946.9420,N,08404.9775,W,1,11,1.00,323.75,M,-33.324,M,,*79
2017-11-15 18:46:12 1510789572.780672: $GPRMC,234611,A,3946.9420,N,08404.9775,W,0.5287,2.716,151117,,*37
2017-11-15 18:46:12 1510789572.780728: $GPGSA,A,3,1,14,3,32,31,26,25,10,12,22,29,,3.4,1.0,2.9*31
2017-11-15 18:46:13 1510789573.372265: $GPZDA,234612.00,15,11,2017,00,00*66
2017-11-15 18:46:13 1510789573.372429: $GPGGA,234612,3946.9424,N,08404.9775,W,1,11,1.00,324.39,M,-33.324,M,,*71
2017-11-15 18:46:13 1510789573.372490: $GPRMC,234612,A,3946.9424,N,08404.9775,W,0.4179,328.778,151117,,*30
2017-11-15 18:46:13 1510789573.372546: $GPGSA,A,3,1,14,3,32,31,26,25,10,12,22,29,,3.4,1.0,2.9*31
2017-11-15 18:46:14 1510789574.372047: $GPZDA,234613.00,15,11,2017,00,00*67
2017-11-15 18:46:14 1510789574.372198: $GPGGA,234613,3946.9424,N,08404.9775,W,1,11,1.00,324.39,M,-33.324,M,,*70
2017-11-15 18:46:14 1510789574.372259: $GPRMC,234613,A,3946.9424,N,08404.9775,W,0.5287,2.716,151117,,*31
2017-11-15 18:46:14 1510789574.372336: $GPGSA,A,3,1,14,3,32,31,26,25,10,12,22,29,,3.4,1.0,2.9*31
2017-11-15 18:46:15 1510789575.665301: $GPGSV,3,1,12,01,16,268,13,14,67,055,14,03,26,313,00,32,51,087,17*7B
2017-11-15 18:46:15 1510789575.665508: $GPGSV,3,2,12,31,79,315,26,26,32,177,19,25,32,051,16,10,16,157,12*7B
2017-11-15 18:46:15 1510789575.665569: $GPGSV,3,3,12,12,02,030,08,22,43,297,20,29,02,088,14,135,23,238,00*4A
2017-11-15 18:46:15 1510789575.778674: $GPZDA,234614.00,15,11,2017,00,00*60
2017-11-15 18:46:15 1510789575.778837: $GPGGA,234614,3946.9424,N,08404.9775,W,1,10,1.00,324.39,M,-33.324,M,,*76
2017-11-15 18:46:15 1510789575.778899: $GPRMC,234614,A,3946.9424,N,08404.9775,W,0.4207,39.347,151117,,*07
2017-11-15 18:46:15 1510789575.778954: $GPGSA,A,3,1,14,32,31,26,25,10,12,22,29,,,3.4,1.0,2.9*02
2017-11-15 18:46:16 1510789576.403997: $GPZDA,234615.00,15,11,2017,00,00*61
2017-11-15 18:46:16 1510789576.404156: $GPGGA,234615,3946.9432,N,08404.9774,W,1,10,1.00,324.27,M,-33.324,M,,*7E
2017-11-15 18:46:16 1510789576.404218: $GPRMC,234615,A,3946.9432,N,08404.9774,W,0.3423,4.197,151117,,*36
2017-11-15 18:46:16 1510789576.404273: $GPGSA,A,3,1,14,32,31,26,25,10,12,22,29,,,3.4,1.0,2.9*02
2017-11-15 18:46:17 1510789577.336157: $GPZDA,234616.00,15,11,2017,00,00*62
2017-11-15 18:46:17 1510789577.336353: $GPGGA,234616,3946.9432,N,08404.9774,W,1,10,1.00,324.27,M,-33.324,M,,*7D
2017-11-15 18:46:17 1510789577.336415: $GPRMC,234616,A,3946.9432,N,08404.9774,W,0.4179,328.778,151117,,*32
2017-11-15 18:46:17 1510789577.336489: $GPGSA,A,3,1,14,32,31,26,25,10,12,22,29,,,3.4,1.0,2.9*02
2017-11-15 18:46:18 1510789578.666996: $GPGSV,3,1,12,01,16,268,12,14,67,055,10,03,26,313,13,32,51,087,17*7C
2017-11-15 18:46:18 1510789578.667168: $GPGSV,3,2,12,31,79,315,26,26,32,177,19,25,32,051,16,10,16,157,12*7B
2017-11-15 18:46:18 1510789578.667229: $GPGSV,3,3,12,16,03,190,16,22,43,297,20,29,02,088,13,120,07,103,00*45
2017-11-15 18:46:18 1510789578.780261: $GPZDA,234617.00,15,11,2017,00,00*63
2017-11-15 18:46:18 1510789578.780487: $GPGGA,234617,3946.9432,N,08404.9774,W,1,09,1.00,324.27,M,-33.324,M,,*74
2017-11-15 18:46:18 1510789578.780549: $GPRMC,234617,A,3946.9432,N,08404.9774,W,0.7246,344.668,151117,,*35
2017-11-15 18:46:18 1510789578.780605: $GPGSA,A,3,1,14,32,31,26,25,10,22,29,,,,3.4,1.0,2.9*01
2017-11-15 18:46:19 1510789579.329916: $GPZDA,234618.00,15,11,2017,00,00*6C
2017-11-15 18:46:19 1510789579.330082: $GPGGA,234618,3946.9436,N,08404.9774,W,1,09,1.00,324.91,M,-33.324,M,,*72
2017-11-15 18:46:19 1510789579.330144: $GPRMC,234618,A,3946.9436,N,08404.9774,W,0.5912,309.172,151117,,*33
2017-11-15 18:46:19 1510789579.330200: $GPGSA,A,3,1,14,32,31,26,25,10,22,29,,,,3.4,1.0,2.9*01
2017-11-15 18:46:20 1510789580.373238: $GPZDA,234619.00,15,11,2017,00,00*6D
2017-11-15 18:46:20 1510789580.373482: $GPGGA,234619,3946.9440,N,08404.9773,W,1,09,1.00,324.14,M,-33.324,M,,*78
2017-11-15 18:46:20 1510789580.373545: $GPRMC,234619,A,3946.9440,N,08404.9773,W,0.5912,309.172,151117,,*34
2017-11-15 18:46:20 1510789580.373602: $GPGSA,A,3,1,14,32,31,26,25,10,22,29,,,,3.4,1.0,2.9*01
2017-11-15 18:46:21 1510789581.666139: $GPGSV,3,1,12,01,16,268,12,14,67,055,10,12,02,030,08,32,51,087,17*72
2017-11-15 18:46:21 1510789581.666303: $GPGSV,3,2,12,31,79,315,26,26,32,177,19,25,32,051,16,10,16,157,12*7B
2017-11-15 18:46:21 1510789581.666365: $GPGSV,3,3,12,03,26,313,00,22,43,297,19,29,02,088,13,120,07,103,00*42
2017-11-15 18:46:21 1510789581.779566: $GPZDA,234620.00,15,11,2017,00,00*67
2017-11-15 18:46:21 1510789581.779728: $GPGGA,234620,3946.9440,N,08404.9773,W,1,10,1.00,324.14,M,-33.324,M,,*7A
2017-11-15 18:46:21 1510789581.779789: $GPRMC,234620,A,3946.9440,N,08404.9773,W,0.4844,273.794,151117,,*3F
2017-11-15 18:46:21 1510789581.779845: $GPGSA,A,3,1,14,12,32,31,26,25,10,22,29,,,3.4,1.0,2.9*02
2017-11-15 18:46:22 1510789582.330938: $GPZDA,234621.00,15,11,2017,00,00*66
2017-11-15 18:46:22 1510789582.331185: $GPGGA,234621,3946.9444,N,08404.9773,W,1,10,1.00,324.78,M,-33.324,M,,*75
2017-11-15 18:46:22 1510789582.331253: $GPRMC,234621,A,3946.9444,N,08404.9773,W,0.1567,9.200,151117,,*34
2017-11-15 18:46:22 1510789582.331312: $GPGSA,A,3,1,14,12,32,31,26,25,10,22,29,,,3.4,1.0,2.9*02
2017-11-15 18:46:23 1510789583.372688: $GPZDA,234622.00,15,11,2017,00,00*65
2017-11-15 18:46:23 1510789583.372859: $GPGGA,234622,3946.9444,N,08404.9773,W,1,10,1.00,324.78,M,-33.324,M,,*76
2017-11-15 18:46:23 1510789583.372923: $GPRMC,234622,A,3946.9444,N,08404.9773,W,0.4207,39.347,151117,,*02
2017-11-15 18:46:23 1510789583.372979: $GPGSA,A,3,1,14,12,32,31,26,25,10,22,29,,,3.4,1.0,2.9*02
2017-11-15 18:46:24 1510789584.709631: $GPGSV,3,1,12,01,16,268,11,14,67,055,08,03,26,313,08,32,51,087,17*7C
2017-11-15 18:46:24 1510789584.709800: $GPGSV,3,2,12,31,79,315,26,26,32,177,19,25,32,051,16,10,16,157,12*7B
2017-11-15 18:46:24 1510789584.709861: $GPGSV,3,3,12,16,03,190,16,22,43,297,19,29,02,088,13,120,07,103,00*4F
2017-11-15 18:46:24 1510789584.821740: $GPZDA,234623.00,15,11,2017,00,00*64
2017-11-15 18:46:24 1510789584.821898: $GPGGA,234623,3946.9443,N,08404.9766,W,1,09,1.00,324.86,M,-33.324,M,,*7D
2017-11-15 18:46:24 1510789584.821960: $GPRMC,234623,A,3946.9443,N,08404.9766,W,0.8054,68.645,151117,,*0B
2017-11-15 18:46:24 1510789584.822017: $GPGSA,A,3,1,14,32,31,26,25,10,22,29,,,,3.4,1.0,2.9*01
2017-11-15 18:46:25 1510789585.331875: $GPZDA,234624.00,15,11,2017,00,00*63
2017-11-15 18:46:25 1510789585.332033: $GPGGA,234624,3946.9447,N,08404.9766,W,1,09,1.00,324.10,M,-33.324,M,,*71
2017-11-15 18:46:25 1510789585.332095: $GPRMC,234624,A,3946.9447,N,08404.9766,W,0.4207,39.347,151117,,*03
2017-11-15 18:46:25 1510789585.332152: $GPGSA,A,3,1,14,32,31,26,25,10,22,29,,,,3.4,1.0,2.9*01
2017-11-15 18:46:26 1510789586.371970: $GPZDA,234625.00,15,11,2017,00,00*62
2017-11-15 18:46:26 1510789586.372132: $GPGGA,234625,3946.9451,N,08404.9766,W,1,09,1.00,324.74,M,-33.324,M,,*75
2017-11-15 18:46:26 1510789586.372195: $GPRMC,234625,A,3946.9451,N,08404.9766,W,0.4207,39.347,151117,,*05
2017-11-15 18:46:26 1510789586.372251: $GPGSA,A,3,1,14,32,31,26,25,10,22,29,,,,3.4,1.0,2.9*01
