2017-12-01 13:12:50 1512151970.143507: {"class":"VERSION","release":"3.16","rev":"3.16-4","proto_major":3,"proto_minor":11}
2017-12-01 13:12:50 1512151970.143919: {"class":"DEVICES","devices":[{"class":"DEVICE","path":"/dev/ttyUSB0","driver":"SiRF","subtype":"9\u0006GSD4e_4.1.2-P1_RPATCH.05-F-GPS-4R-1510281 11/03/2015 307","activated":"2017-12-01T18:12:49.346Z","flags":1,"native":1,"bps":4800,"parity":"N","stopbits":1,"cycle":1.00}]}
2017-12-01 13:12:50 1512151970.144040: {"class":"WATCH","enable":true,"json":false,"nmea":true,"raw":0,"scaled":false,"timing":false,"split24":false,"pps":false}
2017-12-01 13:12:50 1512151970.205151: $GPZDA,181251.00,01,12,2017,00,00*6E
2017-12-01 13:12:50 1512151970.205340: $GPGGA,181251,3946.9551,N,08404.9862,W,2,11,1.00,297.78,M,-33.324,M,,*7A
2017-12-01 13:12:50 1512151970.206749: $GPRMC,181251,A,3946.9551,N,08404.9862,W,0.0000,0.000,011217,,*38
2017-12-01 13:12:50 1512151970.206832: $GPGSA,A,3,8,10,15,18,20,21,24,27,32,14,138,,2.0,1.0,1.5*3D
2017-12-01 13:12:51 1512151971.541413: $GPGSV,3,1,12,08,06,322,38,10,42,301,45,15,37,052,49,18,71,337,45*79
2017-12-01 13:12:51 1512151971.541597: $GPGSV,3,2,12,20,33,096,48,21,63,189,46,24,51,109,48,27,19,289,32*77
2017-12-01 13:12:51 1512151971.541663: $GPGSV,3,3,12,32,21,238,45,13,07,048,00,14,04,232,00,138,38,213,47*49
2017-12-01 13:12:51 1512151971.654980: $GPZDA,181252.00,01,12,2017,00,00*6D
2017-12-01 13:12:51 1512151971.655150: $GPGGA,181252,3946.9555,N,08404.9862,W,2,10,1.00,298.42,M,-33.324,M,,*7A
2017-12-01 13:12:51 1512151971.655217: $GPRMC,181252,A,3946.9555,N,08404.9862,W,0.0000,0.000,011217,,*3F
2017-12-01 13:12:51 1512151971.655278: $GPGSA,A,3,8,10,15,18,20,21,24,27,32,138,,,2.0,1.0,1.5*38
2017-12-01 13:12:52 1512151972.204347: $GPZDA,181253.00,01,12,2017,00,00*6C
2017-12-01 13:12:52 1512151972.204529: $GPGGA,181253,3946.9555,N,08404.9862,W,2,10,1.00,298.42,M,-33.324,M,,*7B
2017-12-01 13:12:52 1512151972.204598: $GPRMC,181253,A,3946.9555,N,08404.9862,W,0.0000,0.000,011217,,*3E
2017-12-01 13:12:52 1512151972.204659: $GPGSA,A,3,8,10,15,18,20,21,24,27,32,138,,,2.0,1.0,1.5*38
2017-12-01 13:12:53 1512151973.203239: $GPZDA,181254.00,01,12,2017,00,00*6B
2017-12-01 13:12:53 1512151973.203418: $GPGGA,181254,3946.9555,N,08404.9862,W,2,10,1.00,298.42,M,-33.324,M,,*7C
2017-12-01 13:12:53 1512151973.203486: $GPRMC,181254,A,3946.9555,N,08404.9862,W,0.0000,0.000,011217,,*39
2017-12-01 13:12:53 1512151973.203547: $GPGSA,A,3,8,10,15,18,20,21,24,27,32,138,,,2.0,1.0,1.5*38
2017-12-01 13:12:54 1512151974.539474: $GPGSV,3,1,12,08,06,322,38,10,42,301,44,15,37,052,48,18,71,337,44*78
2017-12-01 13:12:54 1512151974.539652: $GPGSV,3,2,12,20,33,096,47,21,63,189,46,24,51,109,48,27,19,289,36*7C
2017-12-01 13:12:54 1512151974.539719: $GPGSV,3,3,12,32,21,238,44,13,07,048,00,14,04,232,00,138,38,213,47*48
2017-12-01 13:12:54 1512151974.652856: $GPZDA,181255.00,01,12,2017,00,00*6A
2017-12-01 13:12:54 1512151974.653017: $GPGGA,181255,3946.9555,N,08404.9862,W,2,10,1.00,298.42,M,-33.324,M,,*7D
2017-12-01 13:12:54 1512151974.653085: $GPRMC,181255,A,3946.9555,N,08404.9862,W,0.0000,0.000,011217,,*38
2017-12-01 13:12:54 1512151974.653145: $GPGSA,A,3,8,10,15,18,20,21,24,27,32,138,,,2.0,1.0,1.5*38
2017-12-01 13:12:55 1512151975.205451: $GPZDA,181256.00,01,12,2017,00,00*69
2017-12-01 13:12:55 1512151975.205627: $GPGGA,181256,3946.9555,N,08404.9862,W,2,10,1.00,298.42,M,-33.324,M,,*7E
2017-12-01 13:12:55 1512151975.205697: $GPRMC,181256,A,3946.9555,N,08404.9862,W,0.0000,0.000,011217,,*3B
2017-12-01 13:12:55 1512151975.205759: $GPGSA,A,3,8,10,15,18,20,21,24,27,32,138,,,2.0,1.0,1.5*38
2017-12-01 13:12:56 1512151976.213105: $GPZDA,181257.00,01,12,2017,00,00*68
2017-12-01 13:12:56 1512151976.213290: $GPGGA,181257,3946.9555,N,08404.9862,W,2,10,1.00,298.42,M,-33.324,M,,*7F
2017-12-01 13:12:56 1512151976.213359: $GPRMC,181257,A,3946.9555,N,08404.9862,W,0.0000,0.000,011217,,*3A
2017-12-01 13:12:56 1512151976.213422: $GPGSA,A,3,8,10,15,18,20,21,24,27,32,138,,,2.0,1.0,1.5*38
2017-12-01 13:12:57 1512151977.540070: $GPGSV,3,1,12,08,06,322,38,10,42,301,45,15,37,052,48,18,71,337,45*78
2017-12-01 13:12:57 1512151977.540305: $GPGSV,3,2,12,20,33,096,48,21,63,189,46,24,51,109,48,27,19,289,36*73
2017-12-01 13:12:57 1512151977.540379: $GPGSV,3,3,12,32,21,238,44,14,04,232,12,13,07,048,00,138,38,213,47*4B
2017-12-01 13:12:57 1512151977.653849: $GPZDA,181258.00,01,12,2017,00,00*67
2017-12-01 13:12:57 1512151977.654021: $GPGGA,181258,3946.9555,N,08404.9862,W,2,10,1.00,298.42,M,-33.324,M,,*70
2017-12-01 13:12:57 1512151977.654089: $GPRMC,181258,A,3946.9555,N,08404.9862,W,0.0000,0.000,011217,,*35
2017-12-01 13:12:57 1512151977.654152: $GPGSA,A,3,8,10,15,18,20,21,24,27,32,138,,,2.0,1.0,1.5*38
2017-12-01 13:12:58 1512151978.373103: $GPZDA,181259.00,01,12,2017,00,00*66
2017-12-01 13:12:58 1512151978.373296: $GPGGA,181259,3946.9555,N,08404.9862,W,2,10,1.00,298.42,M,-33.324,M,,*71
2017-12-01 13:12:58 1512151978.373370: $GPRMC,181259,A,3946.9555,N,08404.9862,W,0.0000,0.000,011217,,*34
2017-12-01 13:12:58 1512151978.373435: $GPGSA,A,3,8,10,15,18,20,21,24,27,32,138,,,2.0,1.0,1.5*38
2017-12-01 13:12:59 1512151979.373894: $GPZDA,181300.00,01,12,2017,00,00*6B
2017-12-01 13:12:59 1512151979.374071: $GPGGA,181300,3946.9555,N,08404.9862,W,2,10,1.00,298.42,M,-33.324,M,,*7C
2017-12-01 13:12:59 1512151979.374139: $GPRMC,181300,A,3946.9555,N,08404.9862,W,0.0000,0.000,011217,,*39
2017-12-01 13:12:59 1512151979.374200: $GPGSA,A,3,8,10,15,18,20,21,24,27,32,138,,,2.0,1.0,1.5*38
