2017-11-16 15:52:47 1510865567.035688: {"class":"VERSION","release":"3.17","rev":"3.17","proto_major":3,"proto_minor":12}
2017-11-16 15:52:47 1510865567.036184: {"class":"DEVICES","devices":[{"class":"DEVICE","path":"/dev/ttyUSB0","driver":"SiRF","subtype":"9\u0006GSD4e_4.1.2-P1_RPATCH.05-F-GPS-4R-1510281 11/03/2015 307","activated":"2017-11-16T20:52:46.972Z","flags":1,"native":1,"bps":4800,"parity":"N","stopbits":1,"cycle":1.00}]}
2017-11-16 15:52:47 1510865567.036309: {"class":"WATCH","enable":true,"json":false,"nmea":true,"raw":0,"scaled":false,"timing":false,"split24":false,"pps":false}
2017-11-16 15:52:47 1510865567.365443: $GPZDA,205246.00,16,11,2017,00,00*62
2017-11-16 15:52:47 1510865567.365610: $GPGGA,205246,3946.9582,N,08404.9844,W,2,12,1.20,308.11,M,-33.324,M,,*70
2017-11-16 15:52:47 1510865567.365672: $GPRMC,205246,A,3946.9582,N,08404.9844,W,0.0000,0.000,161117,,*3E
2017-11-16 15:52:47 1510865567.365728: $GPGSA,A,3,11,10,14,31,18,25,21,24,15,32,12,138,1.6,1.2,1.3*05
2017-11-16 15:52:48 1510865568.366436: $GPZDA,205247.00,16,11,2017,00,00*63
2017-11-16 15:52:48 1510865568.366597: $GPGGA,205247,3946.9582,N,08404.9844,W,2,12,1.20,308.11,M,-33.324,M,,*71
2017-11-16 15:52:48 1510865568.366659: $GPRMC,205247,A,3946.9582,N,08404.9844,W,0.0000,0.000,161117,,*3F
2017-11-16 15:52:48 1510865568.366733: $GPGSA,A,3,11,10,14,31,18,25,21,24,15,32,12,138,1.6,1.2,1.3*05
2017-11-16 15:52:49 1510865569.721067: $GPGSV,3,1,12,11,04,321,29,10,80,001,50,14,38,264,45,31,10,205,19*79
2017-11-16 15:52:49 1510865569.721223: $GPGSV,3,2,12,18,60,115,48,25,12,133,33,21,16,177,38,24,35,049,50*7E
2017-11-16 15:52:49 1510865569.721285: $GPGSV,3,3,12,15,03,073,20,32,55,280,46,12,17,096,42,138,38,213,44*4F
2017-11-16 15:52:49 1510865569.834431: $GPZDA,205248.00,16,11,2017,00,00*6C
2017-11-16 15:52:49 1510865569.834591: $GPGGA,205248,3946.9582,N,08404.9844,W,2,12,1.20,308.11,M,-33.324,M,,*7E
2017-11-16 15:52:49 1510865569.834654: $GPRMC,205248,A,3946.9582,N,08404.9844,W,0.0000,0.000,161117,,*30
2017-11-16 15:52:49 1510865569.834726: $GPGSA,A,3,11,10,14,31,18,25,21,24,15,32,12,138,1.6,1.2,1.3*05
2017-11-16 15:52:50 1510865570.382784: $GPZDA,205249.00,16,11,2017,00,00*6D
2017-11-16 15:52:50 1510865570.382949: $GPGGA,205249,3946.9582,N,08404.9844,W,2,12,1.20,308.11,M,-33.324,M,,*7F
2017-11-16 15:52:50 1510865570.383011: $GPRMC,205249,A,3946.9582,N,08404.9844,W,0.0000,0.000,161117,,*31
2017-11-16 15:52:50 1510865570.383068: $GPGSA,A,3,11,10,14,31,18,25,21,24,15,32,12,138,1.6,1.2,1.3*05
2017-11-16 15:52:51 1510865571.365639: $GPZDA,205250.00,16,11,2017,00,00*65
2017-11-16 15:52:51 1510865571.365805: $GPGGA,205250,3946.9582,N,08404.9844,W,2,12,1.20,308.11,M,-33.324,M,,*77
2017-11-16 15:52:51 1510865571.365868: $GPRMC,205250,A,3946.9582,N,08404.9844,W,0.0000,0.000,161117,,*39
2017-11-16 15:52:51 1510865571.365929: $GPGSA,A,3,11,10,14,31,18,25,21,24,15,32,12,138,1.6,1.2,1.3*05
2017-11-16 15:52:52 1510865572.702648: $GPGSV,3,1,12,11,04,321,30,10,80,001,50,14,38,264,45,31,10,205,20*7B
2017-11-16 15:52:52 1510865572.702816: $GPGSV,3,2,12,18,60,115,48,25,12,133,32,21,16,177,38,24,35,049,50*7F
2017-11-16 15:52:52 1510865572.702877: $GPGSV,3,3,12,15,03,073,20,32,55,280,47,12,17,096,42,138,38,213,44*4E
2017-11-16 15:52:52 1510865572.816177: $GPZDA,205251.00,16,11,2017,00,00*64
2017-11-16 15:52:52 1510865572.816331: $GPGGA,205251,3946.9582,N,08404.9844,W,2,12,1.20,308.11,M,-33.324,M,,*76
2017-11-16 15:52:52 1510865572.816391: $GPRMC,205251,A,3946.9582,N,08404.9844,W,0.0000,0.000,161117,,*38
2017-11-16 15:52:52 1510865572.816446: $GPGSA,A,3,11,10,14,31,18,25,21,24,15,32,12,138,1.6,1.2,1.3*05
2017-11-16 15:52:53 1510865573.366823: $GPZDA,205252.00,16,11,2017,00,00*67
2017-11-16 15:52:53 1510865573.366989: $GPGGA,205252,3946.9582,N,08404.9844,W,2,12,1.20,308.11,M,-33.324,M,,*75
2017-11-16 15:52:53 1510865573.367052: $GPRMC,205252,A,3946.9582,N,08404.9844,W,0.0000,0.000,161117,,*3B
2017-11-16 15:52:53 1510865573.367108: $GPGSA,A,3,11,10,14,31,18,25,21,24,15,32,12,138,1.6,1.2,1.3*05
2017-11-16 15:52:54 1510865574.382914: $GPZDA,205253.00,16,11,2017,00,00*66
2017-11-16 15:52:54 1510865574.383152: $GPGGA,205253,3946.9582,N,08404.9844,W,2,12,1.20,308.11,M,-33.324,M,,*74
2017-11-16 15:52:54 1510865574.383216: $GPRMC,205253,A,3946.9582,N,08404.9844,W,0.0000,0.000,161117,,*3A
2017-11-16 15:52:54 1510865574.383272: $GPGSA,A,3,11,10,14,31,18,25,21,24,15,32,12,138,1.6,1.2,1.3*05
2017-11-16 15:52:55 1510865575.703514: $GPGSV,3,1,12,11,04,321,31,10,80,001,50,14,38,264,45,31,10,205,28*72
2017-11-16 15:52:55 1510865575.703680: $GPGSV,3,2,12,18,60,115,48,25,12,133,26,21,16,177,38,24,35,049,50*7A
2017-11-16 15:52:55 1510865575.703741: $GPGSV,3,3,12,15,03,073,20,32,55,280,47,12,17,096,42,138,38,213,44*4E
2017-11-16 15:52:55 1510865575.816820: $GPZDA,205254.00,16,11,2017,00,00*61
2017-11-16 15:52:55 1510865575.816978: $GPGGA,205254,3946.9582,N,08404.9844,W,2,12,1.20,308.11,M,-33.324,M,,*73
2017-11-16 15:52:55 1510865575.817038: $GPRMC,205254,A,3946.9582,N,08404.9844,W,0.0000,0.000,161117,,*3D
2017-11-16 15:52:55 1510865575.817094: $GPGSA,A,3,11,10,14,31,18,25,21,24,15,32,12,138,1.6,1.2,1.3*05
2017-11-16 15:52:56 1510865576.442189: $GPZDA,205255.00,16,11,2017,00,00*60
2017-11-16 15:52:56 1510865576.442350: $GPGGA,205255,3946.9582,N,08404.9844,W,2,12,1.20,308.11,M,-33.324,M,,*72
2017-11-16 15:52:56 1510865576.442413: $GPRMC,205255,A,3946.9582,N,08404.9844,W,0.0000,0.000,161117,,*3C
2017-11-16 15:52:56 1510865576.442469: $GPGSA,A,3,11,10,14,31,18,25,21,24,15,32,12,138,1.6,1.2,1.3*05
