2017-11-16 16:53:32 1510869212.731021: {"class":"VERSION","release":"3.17","rev":"3.17","proto_major":3,"proto_minor":12}
2017-11-16 16:53:32 1510869212.731447: {"class":"DEVICES","devices":[{"class":"DEVICE","path":"/dev/ttyUSB0","driver":"SiRF","subtype":"9\u0006GSD4e_4.1.2-P1_RPATCH.05-F-GPS-4R-1510281 11/03/2015 307","activated":"2017-11-16T21:53:32.326Z","flags":1,"native":1,"bps":4800,"parity":"N","stopbits":1,"cycle":1.00}]}
2017-11-16 16:53:32 1510869212.731555: {"class":"WATCH","enable":true,"json":false,"nmea":true,"raw":0,"scaled":false,"timing":false,"split24":false,"pps":false}
2017-11-16 16:53:32 1510869212.775222: $GPGSV,3,1,12,01,15,316,41,10,67,135,50,11,11,298,33,12,25,069,49*7B
2017-11-16 16:53:32 1510869212.775387: $GPGSV,3,2,12,14,56,295,46,18,35,136,41,24,12,045,39,25,31,112,41*73
2017-11-16 16:53:32 1510869212.775447: $GPGSV,3,3,12,31,37,213,47,32,68,334,51,22,04,310,00,138,38,213,45*46
2017-11-16 16:53:32 1510869212.888534: $GPZDA,215331.00,16,11,2017,00,00*62
2017-11-16 16:53:32 1510869212.888685: $GPGGA,215331,3946.9581,N,08404.9830,W,2,11,0.80,308.27,M,-33.324,M,,*7D
2017-11-16 16:53:32 1510869212.888745: $GPRMC,215331,A,3946.9581,N,08404.9830,W,0.0000,0.000,161117,,*3E
2017-11-16 16:53:32 1510869212.888800: $GPGSA,A,3,1,10,11,12,14,18,24,25,31,32,138,,1.6,0.8,1.3*38
2017-11-16 16:53:33 1510869213.455459: $GPZDA,215332.00,16,11,2017,00,00*61
2017-11-16 16:53:33 1510869213.455622: $GPGGA,215332,3946.9581,N,08404.9830,W,2,11,0.80,308.27,M,-33.324,M,,*7E
2017-11-16 16:53:33 1510869213.455683: $GPRMC,215332,A,3946.9581,N,08404.9830,W,0.0000,0.000,161117,,*3D
2017-11-16 16:53:33 1510869213.455739: $GPGSA,A,3,1,10,11,12,14,18,24,25,31,32,138,,1.6,0.8,1.3*38
2017-11-16 16:53:34 1510869214.444047: $GPZDA,215333.00,16,11,2017,00,00*60
2017-11-16 16:53:34 1510869214.444225: $GPGGA,215333,3946.9585,N,08404.9829,W,2,11,0.80,307.50,M,-33.324,M,,*7C
2017-11-16 16:53:34 1510869214.444307: $GPRMC,215333,A,3946.9585,N,08404.9829,W,0.0000,0.000,161117,,*30
2017-11-16 16:53:34 1510869214.444367: $GPGSA,A,3,1,10,11,12,14,18,24,25,31,32,138,,1.6,0.8,1.3*38
2017-11-16 16:53:35 1510869215.782020: $GPGSV,3,1,12,01,15,316,40,10,67,135,50,11,11,298,34,12,25,069,48*7C
2017-11-16 16:53:35 1510869215.782198: $GPGSV,3,2,12,14,56,295,46,18,35,136,40,24,12,045,39,25,31,112,41*72
2017-11-16 16:53:35 1510869215.782262: $GPGSV,3,3,12,31,37,213,47,32,68,334,51,22,04,310,17,138,38,213,44*41
2017-11-16 16:53:35 1510869215.895544: $GPZDA,215334.00,16,11,2017,00,00*67
2017-11-16 16:53:35 1510869215.895699: $GPGGA,215334,3946.9585,N,08404.9829,W,2,11,0.80,307.50,M,-33.324,M,,*7B
2017-11-16 16:53:35 1510869215.895763: $GPRMC,215334,A,3946.9585,N,08404.9829,W,0.0000,0.000,161117,,*37
2017-11-16 16:53:35 1510869215.895821: $GPGSA,A,3,1,10,11,12,14,18,24,25,31,32,138,,1.6,0.8,1.3*38
2017-11-16 16:53:36 1510869216.520749: $GPZDA,215335.00,16,11,2017,00,00*66
2017-11-16 16:53:36 1510869216.520916: $GPGGA,215335,3946.9585,N,08404.9829,W,2,11,0.80,307.50,M,-33.324,M,,*7A
2017-11-16 16:53:36 1510869216.520982: $GPRMC,215335,A,3946.9585,N,08404.9829,W,0.0000,0.000,161117,,*36
2017-11-16 16:53:36 1510869216.521042: $GPGSA,A,3,1,10,11,12,14,18,24,25,31,32,138,,1.6,0.8,1.3*38
2017-11-16 16:53:37 1510869217.444395: $GPZDA,215336.00,16,11,2017,00,00*65
2017-11-16 16:53:37 1510869217.444556: $GPGGA,215336,3946.9585,N,08404.9829,W,2,11,0.80,307.50,M,-33.324,M,,*79
2017-11-16 16:53:37 1510869217.444620: $GPRMC,215336,A,3946.9585,N,08404.9829,W,0.0000,0.000,161117,,*35
2017-11-16 16:53:37 1510869217.444679: $GPGSA,A,3,1,10,11,12,14,18,24,25,31,32,138,,1.6,0.8,1.3*38
2017-11-16 16:53:38 1510869218.774897: $GPGSV,3,1,12,01,15,316,39,10,67,135,50,11,11,298,35,12,25,069,48*73
2017-11-16 16:53:38 1510869218.775122: $GPGSV,3,2,12,14,56,295,46,18,35,136,39,24,12,045,39,25,31,112,41*7C
2017-11-16 16:53:38 1510869218.775194: $GPGSV,3,3,12,31,37,213,46,32,68,334,51,22,04,310,00,138,38,213,44*46
2017-11-16 16:53:38 1510869218.888450: $GPZDA,215337.00,16,11,2017,00,00*64
2017-11-16 16:53:38 1510869218.888610: $GPGGA,215337,3946.9585,N,08404.9829,W,2,11,0.80,307.50,M,-33.324,M,,*78
2017-11-16 16:53:38 1510869218.888724: $GPRMC,215337,A,3946.9585,N,08404.9829,W,0.0000,0.000,161117,,*34
2017-11-16 16:53:38 1510869218.888782: $GPGSA,A,3,1,10,11,12,14,18,24,25,31,32,138,,1.6,0.8,1.3*38
2017-11-16 16:53:39 1510869219.444126: $GPZDA,215338.00,16,11,2017,00,00*6B
2017-11-16 16:53:39 1510869219.444295: $GPGGA,215338,3946.9585,N,08404.9829,W,2,11,0.80,307.50,M,-33.324,M,,*77
2017-11-16 16:53:39 1510869219.444359: $GPRMC,215338,A,3946.9585,N,08404.9829,W,0.0000,0.000,161117,,*3B
2017-11-16 16:53:39 1510869219.444416: $GPGSA,A,3,1,10,11,12,14,18,24,25,31,32,138,,1.6,0.8,1.3*38
2017-11-16 16:53:40 1510869220.455392: $GPZDA,215339.00,16,11,2017,00,00*6A
2017-11-16 16:53:40 1510869220.455552: $GPGGA,215339,3946.9585,N,08404.9829,W,2,11,0.80,307.50,M,-33.324,M,,*76
2017-11-16 16:53:40 1510869220.455615: $GPRMC,215339,A,3946.9585,N,08404.9829,W,0.0000,0.000,161117,,*3A
2017-11-16 16:53:40 1510869220.455671: $GPGSA,A,3,1,10,11,12,14,18,24,25,31,32,138,,1.6,0.8,1.3*38
2017-11-16 16:53:41 1510869221.779953: $GPGSV,3,1,12,01,15,316,37,10,67,135,50,11,11,298,35,12,25,069,48*7D
2017-11-16 16:53:41 1510869221.780198: $GPGSV,3,2,12,14,56,295,46,18,35,136,40,24,12,045,39,25,31,112,41*72
2017-11-16 16:53:41 1510869221.780260: $GPGSV,3,3,12,31,37,213,46,32,68,334,51,22,04,310,29,138,38,213,44*4D
2017-11-16 16:53:41 1510869221.892417: $GPZDA,215340.00,16,11,2017,00,00*64
2017-11-16 16:53:41 1510869221.892581: $GPGGA,215340,3946.9585,N,08404.9829,W,2,12,0.80,307.50,M,-33.324,M,,*7B
2017-11-16 16:53:41 1510869221.892682: $GPRMC,215340,A,3946.9585,N,08404.9829,W,0.0000,0.000,161117,,*34
2017-11-16 16:53:41 1510869221.892758: $GPGSA,A,3,1,10,11,12,14,18,24,25,31,32,22,138,1.6,0.8,1.3*38
2017-11-16 16:53:42 1510869222.448293: $GPZDA,215341.00,16,11,2017,00,00*65
2017-11-16 16:53:42 1510869222.448452: $GPGGA,215341,3946.9585,N,08404.9829,W,2,12,0.80,307.50,M,-33.324,M,,*7A
2017-11-16 16:53:42 1510869222.448513: $GPRMC,215341,A,3946.9585,N,08404.9829,W,0.0000,0.000,161117,,*35
2017-11-16 16:53:42 1510869222.448569: $GPGSA,A,3,1,10,11,12,14,18,24,25,31,32,22,138,1.6,0.8,1.3*38
