2018-01-12 02:35:01 1515742501.324579: {"class":"VERSION","release":"3.16","rev":"3.16-4","proto_major":3,"proto_minor":11}
2018-01-12 02:35:01 1515742501.325010: {"class":"DEVICES","devices":[{"class":"DEVICE","path":"/dev/ttyUSB0","driver":"SiRF","subtype":"9\u0006GSD4e_4.1.2-P1_RPATCH.05-F-GPS-4R-1510281 11/03/2015 307","activated":"2018-01-12T07:35:01.089Z","flags":1,"native":1,"bps":4800,"parity":"N","stopbits":1,"cycle":1.00}]}
2018-01-12 02:35:01 1515742501.325141: {"class":"WATCH","enable":true,"json":false,"nmea":true,"raw":0,"scaled":false,"timing":false,"split24":false,"pps":false}
2018-01-12 02:35:01 1515742501.693147: $GPZDA,073502.38,12,01,2018,00,00*67
2018-01-12 02:35:01 1515742501.693312: $GPGGA,073502,3946.9620,N,08404.9737,W,1,10,0.80,312.13,M,-33.324,M,,*77
2018-01-12 02:35:01 1515742501.693380: $GPRMC,073502,A,3946.9620,N,08404.9737,W,0.4179,148.778,120118,,*3E
2018-01-12 02:35:01 1515742501.693442: $GPGSA,A,3,2,3,6,12,17,19,24,28,23,138,,,2.4,0.8,2.1*32
2018-01-12 02:35:03 1515742503.134646: $GPGSV,3,1,12,02,46,250,36,03,14,039,36,06,79,298,41,12,32,313,40*7A
2018-01-12 02:35:03 1515742503.134824: $GPGSV,3,2,12,17,50,078,34,19,65,048,35,24,16,267,28,28,14,150,28*78
2018-01-12 02:35:03 1515742503.134890: $GPGSV,3,3,12,04,17,241,00,23,02,078,00,05,02,195,00,138,38,213,00*48
2018-01-12 02:35:03 1515742503.248151: $GPZDA,073503.06,12,01,2018,00,00*6B
2018-01-12 02:35:03 1515742503.248320: $GPGGA,073503,3946.9616,N,08404.9737,W,1,08,0.80,311.49,M,-33.324,M,,*76
2018-01-12 02:35:03 1515742503.248387: $GPRMC,073503,A,3946.9616,N,08404.9737,W,0.2422,93.794,120118,,*02
2018-01-12 02:35:03 1515742503.248448: $GPGSA,A,3,2,3,6,12,17,19,24,28,,,,,2.4,0.8,2.1*09
2018-01-12 02:35:03 1515742503.733204: $GPZDA,073503.27,12,01,2018,00,00*68
2018-01-12 02:35:03 1515742503.733379: $GPGGA,073503,3946.9616,N,08404.9737,W,1,08,0.80,311.49,M,-33.324,M,,*76
2018-01-12 02:35:03 1515742503.733446: $GPRMC,073503,A,3946.9616,N,08404.9737,W,0.3155,129.994,120118,,*38
2018-01-12 02:35:03 1515742503.733507: $GPGSA,A,3,2,3,6,12,17,19,24,28,,,,,2.4,0.8,2.1*09
2018-01-12 02:35:03 1515742503.733564: $GPGBS,073503,11.98,M,14.47,M,47.88,M*08
2018-01-12 02:35:04 1515742504.529673: $GPZDA,073504.00,12,01,2018,00,00*6A
2018-01-12 02:35:04 1515742504.529849: $GPGGA,073504,3946.9616,N,08404.9737,W,1,08,0.80,311.49,M,-33.324,M,,*71
2018-01-12 02:35:04 1515742504.529946: $GPRMC,073504,A,3946.9616,N,08404.9737,W,0.2422,93.794,120118,,*05
2018-01-12 02:35:04 1515742504.530010: $GPGSA,A,3,2,3,6,12,17,19,24,28,,,,,2.4,0.8,2.1*09
2018-01-12 02:35:04 1515742504.530118: $GPGBS,073504,11.98,M,14.47,M,47.88,M*0F
2018-01-12 02:35:05 1515742505.119081: $GPGSV,3,1,12,02,46,250,31,03,14,039,31,06,79,298,36,12,32,313,35*78
2018-01-12 02:35:05 1515742505.119262: $GPGSV,3,2,12,17,50,078,30,19,65,048,31,24,16,267,24,28,14,150,24*78
2018-01-12 02:35:05 1515742505.119328: $GPGSV,3,3,12,23,02,078,19,04,17,241,00,05,02,195,00,138,38,213,00*40
2018-01-12 02:35:05 1515742505.232784: $GPZDA,073505.00,12,01,2018,00,00*6B
2018-01-12 02:35:05 1515742505.232945: $GPGGA,073505,3946.9616,N,08404.9730,W,1,09,0.80,311.56,M,-33.324,M,,*78
2018-01-12 02:35:05 1515742505.233012: $GPRMC,073505,A,3946.9616,N,08404.9730,W,0.3006,62.539,120118,,*0B
2018-01-12 02:35:05 1515742505.233092: $GPGSA,A,3,2,3,6,12,17,19,24,28,23,,,,2.4,0.8,2.1*08
2018-01-12 02:35:05 1515742505.858363: $GPZDA,073506.00,12,01,2018,00,00*68
2018-01-12 02:35:05 1515742505.858533: $GPGGA,073506,3946.9612,N,08404.9731,W,1,09,0.80,312.33,M,-33.324,M,,*7E
2018-01-12 02:35:05 1515742505.858598: $GPRMC,073506,A,3946.9612,N,08404.9731,W,0.1867,180.000,120118,,*32
2018-01-12 02:35:05 1515742505.858671: $GPGSA,A,3,2,3,6,12,17,19,24,28,23,,,,2.4,0.8,2.1*08
2018-01-12 02:35:06 1515742506.382809: $GPZDA,073507.00,12,01,2018,00,00*69
2018-01-12 02:35:06 1515742506.383010: $GPGGA,073507,3946.9612,N,08404.9737,W,1,09,0.80,310.85,M,-33.324,M,,*76
2018-01-12 02:35:06 1515742506.383116: $GPRMC,073507,A,3946.9612,N,08404.9737,W,0.0000,0.000,120118,,*34
2018-01-12 02:35:06 1515742506.383179: $GPGSA,A,3,2,3,6,12,17,19,24,28,23,,,,2.4,0.8,2.1*08
2018-01-12 02:35:07 1515742507.723255: $GPGSV,3,1,12,02,46,250,44,03,14,039,44,06,79,298,51,12,32,313,50*7A
2018-01-12 02:35:07 1515742507.723458: $GPGSV,3,2,12,17,50,078,44,19,65,048,44,24,16,267,34,28,14,150,33*7E
2018-01-12 02:35:07 1515742507.723523: $GPGSV,3,3,12,23,02,078,26,05,02,195,00,04,17,241,00,138,38,213,42*4A
2018-01-12 02:35:07 1515742507.837182: $GPZDA,073508.00,12,01,2018,00,00*66
2018-01-12 02:35:07 1515742507.837353: $GPGGA,073508,3946.9612,N,08404.9744,W,1,10,0.80,310.77,M,-33.324,M,,*78
2018-01-12 02:35:07 1515742507.837421: $GPRMC,073508,A,3946.9612,N,08404.9744,W,0.1867,0.000,120118,,*37
2018-01-12 02:35:07 1515742507.837481: $GPGSA,A,3,2,3,6,12,17,19,24,28,23,138,,,2.4,0.8,2.1*32
2018-01-12 02:35:08 1515742508.382772: $GPZDA,073509.00,12,01,2018,00,00*67
2018-01-12 02:35:08 1515742508.382950: $GPGGA,073509,3946.9608,N,08404.9751,W,1,10,0.80,310.05,M,-33.324,M,,*73
2018-01-12 02:35:08 1515742508.383020: $GPRMC,073509,A,3946.9608,N,08404.9751,W,0.0000,0.000,120118,,*31
2018-01-12 02:35:08 1515742508.383081: $GPGSA,A,3,2,3,6,12,17,19,24,28,23,138,,,2.4,0.8,2.1*32
2018-01-12 02:35:08 1515742508.383140: $GPGBS,073509,11.98,M,14.47,M,47.88,M*02
2018-01-12 02:35:09 1515742509.382310: $GPZDA,073510.00,12,01,2018,00,00*6F
2018-01-12 02:35:09 1515742509.382496: $GPGGA,073510,3946.9609,N,08404.9758,W,1,10,0.80,309.97,M,-33.324,M,,*70
2018-01-12 02:35:09 1515742509.382564: $GPRMC,073510,A,3946.9609,N,08404.9758,W,0.0000,0.000,120118,,*31
2018-01-12 02:35:09 1515742509.382626: $GPGSA,A,3,2,3,6,12,17,19,24,28,23,138,,,2.4,0.8,2.1*32
2018-01-12 02:35:09 1515742509.382684: $GPGBS,073510,11.98,M,14.47,M,47.88,M*0A
2018-01-12 02:35:10 1515742510.720921: $GPGSV,3,1,12,02,46,250,44,03,14,039,44,06,79,298,51,12,32,313,50*7A
2018-01-12 02:35:10 1515742510.721080: $GPGSV,3,2,12,17,50,078,44,19,65,048,44,24,16,267,36,28,14,150,32*7D
2018-01-12 02:35:10 1515742510.721147: $GPGSV,3,3,12,23,02,078,26,05,02,195,02,04,17,241,00,138,38,213,34*49
2018-01-12 02:35:10 1515742510.834334: $GPZDA,073511.00,12,01,2018,00,00*6E
2018-01-12 02:35:10 1515742510.834518: $GPGGA,073511,3946.9612,N,08404.9757,W,1,10,0.80,309.20,M,-33.324,M,,*78
2018-01-12 02:35:10 1515742510.834585: $GPRMC,073511,A,3946.9612,N,08404.9757,W,0.0000,0.000,120118,,*35
2018-01-12 02:35:10 1515742510.834646: $GPGSA,A,3,2,3,6,12,17,19,24,28,23,138,,,2.4,0.8,2.1*32
2018-01-12 02:35:11 1515742511.387640: $GPZDA,073512.00,12,01,2018,00,00*6D
2018-01-12 02:35:11 1515742511.387833: $GPGGA,073512,3946.9608,N,08404.9764,W,1,10,0.80,308.48,M,-33.324,M,,*7F
2018-01-12 02:35:11 1515742511.387921: $GPRMC,073512,A,3946.9608,N,08404.9764,W,0.0000,0.000,120118,,*3D
2018-01-12 02:35:11 1515742511.387985: $GPGSA,A,3,2,3,6,12,17,19,24,28,23,138,,,2.4,0.8,2.1*32
2018-01-12 02:35:12 1515742512.386032: $GPZDA,073513.00,12,01,2018,00,00*6C
2018-01-12 02:35:12 1515742512.386202: $GPGGA,073513,3946.9609,N,08404.9771,W,1,10,0.80,308.41,M,-33.324,M,,*72
2018-01-12 02:35:12 1515742512.386268: $GPRMC,073513,A,3946.9609,N,08404.9771,W,0.0000,0.000,120118,,*39
2018-01-12 02:35:12 1515742512.386328: $GPGSA,A,3,2,3,6,12,17,19,24,28,23,138,,,2.4,0.8,2.1*32
2018-01-12 02:35:13 1515742513.719219: $GPGSV,3,1,12,02,46,250,44,03,14,039,44,06,79,298,51,12,32,313,50*7A
2018-01-12 02:35:13 1515742513.719399: $GPGSV,3,2,12,17,50,078,44,19,65,048,44,24,16,267,36,28,14,150,32*7D
2018-01-12 02:35:13 1515742513.719479: $GPGSV,3,3,12,23,02,078,26,04,17,241,00,05,02,195,00,138,38,213,37*48
2018-01-12 02:35:13 1515742513.832650: $GPZDA,073514.00,12,01,2018,00,00*6B
2018-01-12 02:35:13 1515742513.832798: $GPGGA,073514,3946.9609,N,08404.9771,W,1,10,0.80,308.41,M,-33.324,M,,*75
2018-01-12 02:35:13 1515742513.832881: $GPRMC,073514,A,3946.9609,N,08404.9771,W,0.0000,0.000,120118,,*3E
2018-01-12 02:35:13 1515742513.832945: $GPGSA,A,3,2,3,6,12,17,19,24,28,23,138,,,2.4,0.8,2.1*32
2018-01-12 02:35:14 1515742514.383485: $GPZDA,073515.00,12,01,2018,00,00*6A
2018-01-12 02:35:14 1515742514.383654: $GPGGA,073515,3946.9609,N,08404.9778,W,1,10,0.80,308.33,M,-33.324,M,,*78
2018-01-12 02:35:14 1515742514.383789: $GPRMC,073515,A,3946.9609,N,08404.9778,W,0.0000,0.000,120118,,*36
2018-01-12 02:35:14 1515742514.383872: $GPGSA,A,3,2,3,6,12,17,19,24,28,23,138,,,2.4,0.8,2.1*32
2018-01-12 02:35:15 1515742515.384448: $GPZDA,073516.00,12,01,2018,00,00*69
2018-01-12 02:35:15 1515742515.384620: $GPGGA,073516,3946.9606,N,08404.9818,W,2,10,2.40,304.40,M,-33.324,M,,*78
2018-01-12 02:35:15 1515742515.384686: $GPRMC,073516,A,3946.9606,N,08404.9818,W,0.0000,0.000,120118,,*33
2018-01-12 02:35:15 1515742515.384749: $GPGSA,A,3,2,3,6,12,17,19,24,28,23,138,,,2.4,2.4,2.1*3C
2018-01-12 02:35:16 1515742516.724696: $GPGSV,3,1,12,02,46,250,44,03,14,039,44,06,79,298,51,12,32,313,50*7A
2018-01-12 02:35:16 1515742516.724897: $GPGSV,3,2,12,17,50,078,44,19,65,048,44,24,16,267,36,28,14,150,32*7D
2018-01-12 02:35:16 1515742516.724963: $GPGSV,3,3,12,23,02,078,26,04,17,241,00,05,02,195,00,138,38,213,39*46
2018-01-12 02:35:16 1515742516.838151: $GPZDA,073517.00,12,01,2018,00,00*68
2018-01-12 02:35:16 1515742516.838312: $GPGGA,073517,3946.9607,N,08404.9826,W,2,10,1.80,305.73,M,-33.324,M,,*7B
2018-01-12 02:35:16 1515742516.838379: $GPRMC,073517,A,3946.9607,N,08404.9826,W,0.0000,0.000,120118,,*3E
2018-01-12 02:35:16 1515742516.838439: $GPGSA,A,3,2,3,6,12,17,19,24,28,23,138,,,2.4,1.8,2.1*33
2018-01-12 02:35:17 1515742517.385376: $GPZDA,073518.00,12,01,2018,00,00*67
2018-01-12 02:35:17 1515742517.385544: $GPGGA,073518,3946.9607,N,08404.9826,W,2,10,0.80,305.73,M,-33.324,M,,*75
2018-01-12 02:35:17 1515742517.385610: $GPRMC,073518,A,3946.9607,N,08404.9826,W,0.0000,0.000,120118,,*31
2018-01-12 02:35:17 1515742517.385671: $GPGSA,A,3,2,3,6,12,17,19,24,28,23,138,,,2.4,0.8,2.1*32
2018-01-12 02:35:18 1515742518.385093: $GPZDA,073519.00,12,01,2018,00,00*66
2018-01-12 02:35:18 1515742518.385262: $GPGGA,073519,3946.9607,N,08404.9839,W,2,10,0.80,304.16,M,-33.324,M,,*78
2018-01-12 02:35:18 1515742518.385328: $GPRMC,073519,A,3946.9607,N,08404.9839,W,0.1867,180.000,120118,,*3F
2018-01-12 02:35:18 1515742518.385389: $GPGSA,A,3,2,3,6,12,17,19,24,28,23,138,,,2.4,0.8,2.1*32
2018-01-12 02:35:19 1515742519.719267: $GPGSV,3,1,12,02,46,250,44,03,14,039,44,06,79,298,51,12,32,313,50*7A
2018-01-12 02:35:19 1515742519.719448: $GPGSV,3,2,12,17,50,078,44,19,65,048,43,24,16,267,37,28,14,150,31*78
2018-01-12 02:35:19 1515742519.719513: $GPGSV,3,3,12,23,02,078,26,04,17,241,00,05,02,195,00,138,38,213,37*48
2018-01-12 02:35:19 1515742519.832906: $GPZDA,073520.00,12,01,2018,00,00*6C
2018-01-12 02:35:19 1515742519.833057: $GPGGA,073520,3946.9607,N,08404.9839,W,2,10,0.80,304.16,M,-33.324,M,,*72
2018-01-12 02:35:19 1515742519.833124: $GPRMC,073520,A,3946.9607,N,08404.9839,W,0.0000,0.000,120118,,*34
2018-01-12 02:35:19 1515742519.833184: $GPGSA,A,3,2,3,6,12,17,19,24,28,23,138,,,2.4,0.8,2.1*32
2018-01-12 02:35:20 1515742520.479568: $GPZDA,073521.00,12,01,2018,00,00*6D
2018-01-12 02:35:20 1515742520.479738: $GPGGA,073521,3946.9607,N,08404.9839,W,2,10,0.80,304.16,M,-33.324,M,,*73
2018-01-12 02:35:20 1515742520.479805: $GPRMC,073521,A,3946.9607,N,08404.9839,W,0.0000,0.000,120118,,*35
2018-01-12 02:35:20 1515742520.479866: $GPGSA,A,3,2,3,6,12,17,19,24,28,23,138,,,2.4,0.8,2.1*32
2018-01-12 02:35:20 1515742520.479923: $GPGBS,073521,3.00,M,3.62,M,11.97,M*06
2018-01-12 02:35:21 1515742521.387912: $GPZDA,073522.00,12,01,2018,00,00*6E
2018-01-12 02:35:21 1515742521.388100: $GPGGA,073522,3946.9607,N,08404.9839,W,2,10,0.80,304.16,M,-33.324,M,,*70
2018-01-12 02:35:21 1515742521.388167: $GPRMC,073522,A,3946.9607,N,08404.9839,W,0.0000,0.000,120118,,*36
2018-01-12 02:35:21 1515742521.388228: $GPGSA,A,3,2,3,6,12,17,19,24,28,23,138,,,2.4,0.8,2.1*32
2018-01-12 02:35:21 1515742521.388285: $GPGBS,073522,3.00,M,3.62,M,11.97,M*05
