2017-12-29 11:04:23 1514563463.136257: {"class":"VERSION","release":"3.16","rev":"3.16-4","proto_major":3,"proto_minor":11}
2017-12-29 11:04:23 1514563463.136594: {"class":"DEVICES","devices":[{"class":"DEVICE","path":"/dev/ttyUSB0","driver":"SiRF","subtype":"9\u0006GSD4e_4.1.2-P1_RPATCH.05-F-GPS-4R-1510281 11/03/2015 307","activated":"2017-12-29T16:04:22.742Z","flags":1,"native":1,"bps":4800,"parity":"N","stopbits":1,"cycle":1.00}]}
2017-12-29 11:04:23 1514563463.136706: {"class":"WATCH","enable":true,"json":false,"nmea":true,"raw":0,"scaled":false,"timing":false,"split24":false,"pps":false}
2017-12-29 11:04:23 1514563463.427977: $GPZDA,160424.00,29,12,2017,00,00*6F
2017-12-29 11:04:23 1514563463.428208: $GPGGA,160424,3946.9599,N,08404.9846,W,2,11,1.00,302.81,M,-33.324,M,,*78
2017-12-29 11:04:23 1514563463.428274: $GPRMC,160424,A,3946.9599,N,08404.9846,W,0.0000,0.000,291217,,*3B
2017-12-29 11:04:23 1514563463.428335: $GPGSA,A,3,10,15,18,20,21,24,27,32,8,13,138,,1.7,1.0,1.3*38
2017-12-29 11:04:24 1514563464.762450: $GPGSV,3,1,11,10,37,297,41,15,42,051,49,18,68,327,42,20,39,090,48*76
2017-12-29 11:04:24 1514563464.762618: $GPGSV,3,2,11,21,69,196,46,24,48,118,47,27,19,295,37,32,17,234,33*7C
2017-12-29 11:04:24 1514563464.762684: $GPGSV,3,3,11,08,03,327,33,13,12,046,30,138,38,213,44*75
2017-12-29 11:04:24 1514563464.876038: $GPZDA,160425.00,29,12,2017,00,00*6E
2017-12-29 11:04:24 1514563464.876168: $GPGGA,160425,3946.9599,N,08404.9846,W,2,11,1.00,302.81,M,-33.324,M,,*79
2017-12-29 11:04:24 1514563464.876233: $GPRMC,160425,A,3946.9599,N,08404.9846,W,0.0000,0.000,291217,,*3A
2017-12-29 11:04:24 1514563464.876293: $GPGSA,A,3,10,15,18,20,21,24,27,32,8,13,138,,1.7,1.0,1.3*38
2017-12-29 11:04:25 1514563465.428230: $GPZDA,160426.00,29,12,2017,00,00*6D
2017-12-29 11:04:25 1514563465.428390: $GPGGA,160426,3946.9599,N,08404.9846,W,2,11,1.00,302.81,M,-33.324,M,,*7A
2017-12-29 11:04:25 1514563465.428456: $GPRMC,160426,A,3946.9599,N,08404.9846,W,0.0000,0.000,291217,,*39
2017-12-29 11:04:25 1514563465.428517: $GPGSA,A,3,10,15,18,20,21,24,27,32,8,13,138,,1.7,1.0,1.3*38
2017-12-29 11:04:26 1514563466.427534: $GPZDA,160427.00,29,12,2017,00,00*6C
2017-12-29 11:04:26 1514563466.427695: $GPGGA,160427,3946.9599,N,08404.9846,W,2,11,1.00,302.81,M,-33.324,M,,*7B
2017-12-29 11:04:26 1514563466.427762: $GPRMC,160427,A,3946.9599,N,08404.9846,W,0.0000,0.000,291217,,*38
2017-12-29 11:04:26 1514563466.427823: $GPGSA,A,3,10,15,18,20,21,24,27,32,8,13,138,,1.7,1.0,1.3*38
2017-12-29 11:04:27 1514563467.763283: $GPGSV,3,1,11,10,37,297,41,15,42,051,49,18,68,327,42,20,39,090,48*76
2017-12-29 11:04:27 1514563467.763457: $GPGSV,3,2,11,21,69,196,46,24,48,118,47,27,19,295,37,32,17,234,32*7D
2017-12-29 11:04:27 1514563467.763523: $GPGSV,3,3,11,08,03,327,33,13,12,046,30,138,38,213,44*75
2017-12-29 11:04:27 1514563467.876588: $GPZDA,160428.00,29,12,2017,00,00*63
2017-12-29 11:04:27 1514563467.876709: $GPGGA,160428,3946.9599,N,08404.9846,W,2,11,1.00,302.81,M,-33.324,M,,*74
2017-12-29 11:04:27 1514563467.876773: $GPRMC,160428,A,3946.9599,N,08404.9846,W,0.0000,0.000,291217,,*37
2017-12-29 11:04:27 1514563467.876832: $GPGSA,A,3,10,15,18,20,21,24,27,32,8,13,138,,1.7,1.0,1.3*38
2017-12-29 11:04:28 1514563468.502304: $GPZDA,160429.00,29,12,2017,00,00*62
2017-12-29 11:04:28 1514563468.502460: $GPGGA,160429,3946.9599,N,08404.9846,W,2,11,1.00,302.81,M,-33.324,M,,*75
2017-12-29 11:04:28 1514563468.502525: $GPRMC,160429,A,3946.9599,N,08404.9846,W,0.0000,0.000,291217,,*36
2017-12-29 11:04:28 1514563468.502585: $GPGSA,A,3,10,15,18,20,21,24,27,32,8,13,138,,1.7,1.0,1.3*38
2017-12-29 11:04:29 1514563469.428163: $GPZDA,160430.00,29,12,2017,00,00*6A
2017-12-29 11:04:29 1514563469.428329: $GPGGA,160430,3946.9599,N,08404.9846,W,2,11,1.20,302.81,M,-33.324,M,,*7F
2017-12-29 11:04:29 1514563469.428395: $GPRMC,160430,A,3946.9599,N,08404.9846,W,0.0000,0.000,291217,,*3E
2017-12-29 11:04:29 1514563469.428455: $GPGSA,A,3,10,15,18,20,21,24,27,32,8,13,138,,1.7,1.2,1.3*3A
2017-12-29 11:04:30 1514563470.763639: $GPGSV,3,1,11,10,37,297,41,15,42,051,49,18,68,327,42,20,39,090,48*76
2017-12-29 11:04:30 1514563470.763861: $GPGSV,3,2,11,21,69,196,46,24,48,118,46,27,19,295,36,32,17,234,32*7D
2017-12-29 11:04:30 1514563470.763928: $GPGSV,3,3,11,08,03,327,32,13,12,046,30,138,38,213,46*76
2017-12-29 11:04:30 1514563470.877246: $GPZDA,160431.00,29,12,2017,00,00*6B
2017-12-29 11:04:30 1514563470.877370: $GPGGA,160431,3946.9599,N,08404.9846,W,2,11,1.20,302.81,M,-33.324,M,,*7E
2017-12-29 11:04:30 1514563470.877434: $GPRMC,160431,A,3946.9599,N,08404.9846,W,0.0000,0.000,291217,,*3F
2017-12-29 11:04:30 1514563470.877492: $GPGSA,A,3,10,15,18,20,21,24,27,32,8,13,138,,1.7,1.2,1.3*3A
2017-12-29 11:04:31 1514563471.932046: $GPZDA,160432.00,29,12,2017,00,00*68
2017-12-29 11:04:31 1514563471.932207: $GPGGA,160432,3946.9599,N,08404.9852,W,2,11,1.20,301.32,M,-33.324,M,,*73
2017-12-29 11:04:31 1514563471.932273: $GPRMC,160432,A,3946.9599,N,08404.9852,W,0.0000,0.000,291217,,*39
2017-12-29 11:04:31 1514563471.932334: $GPGSA,A,3,10,15,18,20,21,24,27,32,8,13,138,,1.7,1.2,1.3*3A
2017-12-29 11:04:32 1514563472.426622: $GPZDA,160433.00,29,12,2017,00,00*69
2017-12-29 11:04:32 1514563472.426799: $GPGGA,160433,3946.9599,N,08404.9852,W,2,11,1.20,301.32,M,-33.324,M,,*72
2017-12-29 11:04:32 1514563472.426884: $GPRMC,160433,A,3946.9599,N,08404.9852,W,0.0000,0.000,291217,,*38
2017-12-29 11:04:32 1514563472.426946: $GPGSA,A,3,10,15,18,20,21,24,27,32,8,13,138,,1.7,1.2,1.3*3A
2017-12-29 11:04:33 1514563473.761610: $GPGSV,3,1,11,10,37,297,42,15,42,051,49,18,68,327,42,20,39,090,48*75
2017-12-29 11:04:33 1514563473.761769: $GPGSV,3,2,11,21,69,195,46,24,48,118,47,27,19,295,35,32,17,235,32*7D
2017-12-29 11:04:33 1514563473.761835: $GPGSV,3,3,11,08,04,327,27,13,12,046,30,138,38,213,45*76
2017-12-29 11:04:33 1514563473.875206: $GPZDA,160434.00,29,12,2017,00,00*6E
2017-12-29 11:04:33 1514563473.875329: $GPGGA,160434,3946.9599,N,08404.9852,W,2,11,1.20,301.32,M,-33.324,M,,*75
2017-12-29 11:04:33 1514563473.875392: $GPRMC,160434,A,3946.9599,N,08404.9852,W,0.0000,0.000,291217,,*3F
2017-12-29 11:04:33 1514563473.875452: $GPGSA,A,3,10,15,18,20,21,24,27,32,8,13,138,,1.7,1.2,1.3*3A
2017-12-29 11:04:34 1514563474.430955: $GPZDA,160435.00,29,12,2017,00,00*6F
2017-12-29 11:04:34 1514563474.431336: $GPGGA,160435,3946.9599,N,08404.9852,W,2,11,1.20,301.32,M,-33.324,M,,*74
2017-12-29 11:04:34 1514563474.431416: $GPRMC,160435,A,3946.9599,N,08404.9852,W,0.0000,0.000,291217,,*3E
2017-12-29 11:04:34 1514563474.431478: $GPGSA,A,3,10,15,18,20,21,24,27,32,8,13,138,,1.7,1.2,1.3*3A
2017-12-29 11:04:35 1514563475.430812: $GPZDA,160436.00,29,12,2017,00,00*6C
2017-12-29 11:04:35 1514563475.430985: $GPGGA,160436,3946.9599,N,08404.9852,W,2,11,1.20,301.32,M,-33.324,M,,*77
2017-12-29 11:04:35 1514563475.431119: $GPRMC,160436,A,3946.9599,N,08404.9852,W,0.0000,0.000,291217,,*3D
2017-12-29 11:04:35 1514563475.431197: $GPGSA,A,3,10,15,18,20,21,24,27,32,8,13,138,,1.7,1.2,1.3*3A
2017-12-29 11:04:36 1514563476.765033: $GPGSV,3,1,11,10,37,297,42,15,42,051,49,18,68,327,43,20,39,090,49*75
2017-12-29 11:04:36 1514563476.765197: $GPGSV,3,2,11,21,69,195,46,24,48,118,47,27,19,295,31,32,17,235,31*7A
2017-12-29 11:04:36 1514563476.765266: $GPGSV,3,3,11,08,04,327,26,13,12,046,31,138,38,213,45*76
2017-12-29 11:04:36 1514563476.878671: $GPZDA,160437.00,29,12,2017,00,00*6D
2017-12-29 11:04:36 1514563476.878807: $GPGGA,160437,3946.9599,N,08404.9852,W,2,11,1.20,301.32,M,-33.324,M,,*76
2017-12-29 11:04:36 1514563476.878891: $GPRMC,160437,A,3946.9599,N,08404.9852,W,0.0000,0.000,291217,,*3C
2017-12-29 11:04:36 1514563476.878956: $GPGSA,A,3,10,15,18,20,21,24,27,32,8,13,138,,1.7,1.2,1.3*3A
2017-12-29 11:04:37 1514563477.430815: $GPZDA,160438.00,29,12,2017,00,00*62
2017-12-29 11:04:37 1514563477.430990: $GPGGA,160438,3946.9599,N,08404.9852,W,2,11,1.20,301.32,M,-33.324,M,,*79
2017-12-29 11:04:37 1514563477.431136: $GPRMC,160438,A,3946.9599,N,08404.9852,W,0.0000,0.000,291217,,*33
2017-12-29 11:04:37 1514563477.431218: $GPGSA,A,3,10,15,18,20,21,24,27,32,8,13,138,,1.7,1.2,1.3*3A
2017-12-29 11:04:38 1514563478.431259: $GPZDA,160439.00,29,12,2017,00,00*63
2017-12-29 11:04:38 1514563478.431472: $GPGGA,160439,3946.9599,N,08404.9852,W,2,11,1.20,301.32,M,-33.324,M,,*78
2017-12-29 11:04:38 1514563478.431539: $GPRMC,160439,A,3946.9599,N,08404.9852,W,0.0000,0.000,291217,,*32
2017-12-29 11:04:38 1514563478.431599: $GPGSA,A,3,10,15,18,20,21,24,27,32,8,13,138,,1.7,1.2,1.3*3A
2017-12-29 11:04:39 1514563479.766613: $GPGSV,3,1,11,10,37,297,42,15,42,051,49,18,68,327,43,20,39,090,48*74
2017-12-29 11:04:39 1514563479.766782: $GPGSV,3,2,11,21,69,195,46,24,48,118,47,27,19,295,30,32,17,235,31*7B
2017-12-29 11:04:39 1514563479.766849: $GPGSV,3,3,11,08,04,327,24,13,12,046,31,138,38,213,45*74
2017-12-29 11:04:39 1514563479.879945: $GPZDA,160440.00,29,12,2017,00,00*6D
2017-12-29 11:04:39 1514563479.880061: $GPGGA,160440,3946.9599,N,08404.9852,W,2,11,1.20,301.32,M,-33.324,M,,*76
2017-12-29 11:04:39 1514563479.880124: $GPRMC,160440,A,3946.9599,N,08404.9852,W,0.0000,0.000,291217,,*3C
2017-12-29 11:04:39 1514563479.880184: $GPGSA,A,3,10,15,18,20,21,24,27,32,8,13,138,,1.7,1.2,1.3*3A
2017-12-29 11:04:40 1514563480.424838: $GPZDA,160441.00,29,12,2017,00,00*6C
2017-12-29 11:04:40 1514563480.425014: $GPGGA,160441,3946.9599,N,08404.9852,W,2,11,1.20,301.32,M,-33.324,M,,*77
2017-12-29 11:04:40 1514563480.425081: $GPRMC,160441,A,3946.9599,N,08404.9852,W,0.0000,0.000,291217,,*3D
2017-12-29 11:04:40 1514563480.425142: $GPGSA,A,3,10,15,18,20,21,24,27,32,8,13,138,,1.7,1.2,1.3*3A
2017-12-29 11:04:41 1514563481.432020: $GPZDA,160442.00,29,12,2017,00,00*6F
2017-12-29 11:04:41 1514563481.432176: $GPGGA,160442,3946.9599,N,08404.9852,W,2,11,1.20,301.32,M,-33.324,M,,*74
2017-12-29 11:04:41 1514563481.432243: $GPRMC,160442,A,3946.9599,N,08404.9852,W,0.0000,0.000,291217,,*3E
2017-12-29 11:04:41 1514563481.432304: $GPGSA,A,3,10,15,18,20,21,24,27,32,8,13,138,,1.7,1.2,1.3*3A
2017-12-29 11:04:42 1514563482.767457: $GPGSV,3,1,11,10,37,297,42,15,42,051,49,18,68,327,43,20,39,090,48*74
2017-12-29 11:04:42 1514563482.767645: $GPGSV,3,2,11,21,69,195,46,24,48,118,47,27,19,295,30,32,17,235,31*7B
2017-12-29 11:04:42 1514563482.767713: $GPGSV,3,3,11,08,04,327,20,13,12,046,31,138,38,213,44*71
2017-12-29 11:04:42 1514563482.881137: $GPZDA,160443.00,29,12,2017,00,00*6E
2017-12-29 11:04:42 1514563482.881286: $GPGGA,160443,3946.9599,N,08404.9852,W,2,11,1.20,301.32,M,-33.324,M,,*75
2017-12-29 11:04:42 1514563482.881352: $GPRMC,160443,A,3946.9599,N,08404.9852,W,0.0000,0.000,291217,,*3F
2017-12-29 11:04:42 1514563482.881413: $GPGSA,A,3,10,15,18,20,21,24,27,32,8,13,138,,1.7,1.2,1.3*3A
