2017-12-31 18:58:29 1514764709.063234: {"class":"VERSION","release":"3.16","rev":"3.16-4","proto_major":3,"proto_minor":11}
2017-12-31 18:58:29 1514764709.064887: {"class":"DEVICES","devices":[{"class":"DEVICE","path":"/dev/ttyUSB0","driver":"SiRF","activated":"2017-12-31T23:58:28.493Z","flags":1,"native":1,"bps":4800,"parity":"N","stopbits":1,"cycle":1.00}]}
2017-12-31 18:58:29 1514764709.065003: {"class":"WATCH","enable":true,"json":false,"nmea":true,"raw":0,"scaled":false,"timing":false,"split24":false,"pps":false}
2017-12-31 18:58:29 1514764709.352871: $GPZDA,235830.00,31,12,2017,00,00*6C
2017-12-31 18:58:29 1514764709.353037: $GPGGA,235830,3946.9578,N,08404.9824,W,2,11,0.80,310.52,M,-33.324,M,,*7D
2017-12-31 18:58:29 1514764709.353103: $GPRMC,235830,A,3946.9578,N,08404.9824,W,0.0000,0.000,311217,,*33
2017-12-31 18:58:29 1514764709.353165: $GPGSA,A,3,22,23,9,3,16,8,31,27,7,26,135,,1.7,0.8,1.3*09
2017-12-31 18:58:30 1514764710.689067: $GPGSV,3,1,11,22,05,201,30,23,70,270,38,09,40,307,29,03,14,217,32*77
2017-12-31 18:58:30 1514764710.689218: $GPGSV,3,2,11,16,72,036,44,08,20,175,44,31,13,091,34,27,43,139,40*74
2017-12-31 18:58:30 1514764710.689282: $GPGSV,3,3,11,07,13,288,46,26,40,048,45,135,22,240,43*77
2017-12-31 18:58:30 1514764710.802586: $GPZDA,235831.00,31,12,2017,00,00*6D
2017-12-31 18:58:30 1514764710.802723: $GPGGA,235831,3946.9578,N,08404.9824,W,2,11,0.80,310.52,M,-33.324,M,,*7C
2017-12-31 18:58:30 1514764710.802788: $GPRMC,235831,A,3946.9578,N,08404.9824,W,0.0000,0.000,311217,,*32
2017-12-31 18:58:30 1514764710.802848: $GPGSA,A,3,22,23,9,3,16,8,31,27,7,26,135,,1.7,0.8,1.3*09
2017-12-31 18:58:31 1514764711.347391: $GPZDA,235832.00,31,12,2017,00,00*6E
2017-12-31 18:58:31 1514764711.347558: $GPGGA,235832,3946.9578,N,08404.9824,W,2,11,0.80,310.52,M,-33.324,M,,*7F
2017-12-31 18:58:31 1514764711.347624: $GPRMC,235832,A,3946.9578,N,08404.9824,W,0.0000,0.000,311217,,*31
2017-12-31 18:58:31 1514764711.347685: $GPGSA,A,3,22,23,9,3,16,8,31,27,7,26,135,,1.7,0.8,1.3*09
2017-12-31 18:58:32 1514764712.353200: $GPZDA,235833.00,31,12,2017,00,00*6F
2017-12-31 18:58:32 1514764712.353361: $GPGGA,235833,3946.9578,N,08404.9824,W,2,11,0.80,310.52,M,-33.324,M,,*7E
2017-12-31 18:58:32 1514764712.353426: $GPRMC,235833,A,3946.9578,N,08404.9824,W,0.0000,0.000,311217,,*30
2017-12-31 18:58:32 1514764712.353486: $GPGSA,A,3,22,23,9,3,16,8,31,27,7,26,135,,1.7,0.8,1.3*09
2017-12-31 18:58:33 1514764713.688650: $GPGSV,3,1,11,22,05,201,30,23,70,270,38,09,40,307,23,03,14,217,32*7D
2017-12-31 18:58:33 1514764713.688825: $GPGSV,3,2,11,16,72,036,45,08,20,175,44,31,13,091,34,27,43,139,39*7B
2017-12-31 18:58:33 1514764713.688891: $GPGSV,3,3,11,07,13,288,46,26,40,048,44,135,22,240,44*71
2017-12-31 18:58:33 1514764713.802258: $GPZDA,235834.00,31,12,2017,00,00*68
2017-12-31 18:58:33 1514764713.802384: $GPGGA,235834,3946.9578,N,08404.9824,W,2,11,0.80,310.52,M,-33.324,M,,*79
2017-12-31 18:58:33 1514764713.802450: $GPRMC,235834,A,3946.9578,N,08404.9824,W,0.0000,0.000,311217,,*37
2017-12-31 18:58:33 1514764713.802511: $GPGSA,A,3,22,23,9,3,16,8,31,27,7,26,135,,1.7,0.8,1.3*09
2017-12-31 18:58:34 1514764714.353172: $GPZDA,235835.00,31,12,2017,00,00*69
2017-12-31 18:58:34 1514764714.353348: $GPGGA,235835,3946.9578,N,08404.9824,W,2,11,0.80,310.52,M,-33.324,M,,*78
2017-12-31 18:58:34 1514764714.353416: $GPRMC,235835,A,3946.9578,N,08404.9824,W,0.0000,0.000,311217,,*36
2017-12-31 18:58:34 1514764714.353478: $GPGSA,A,3,22,23,9,3,16,8,31,27,7,26,135,,1.7,0.8,1.3*09
2017-12-31 18:58:35 1514764715.352232: $GPZDA,235836.00,31,12,2017,00,00*6A
2017-12-31 18:58:35 1514764715.352405: $GPGGA,235836,3946.9578,N,08404.9824,W,2,11,0.80,310.52,M,-33.324,M,,*7B
2017-12-31 18:58:35 1514764715.352471: $GPRMC,235836,A,3946.9578,N,08404.9824,W,0.0000,0.000,311217,,*35
2017-12-31 18:58:35 1514764715.352533: $GPGSA,A,3,22,23,9,3,16,8,31,27,7,26,135,,1.7,0.8,1.3*09
2017-12-31 18:58:36 1514764716.681472: $GPGSV,3,1,11,22,05,201,30,23,70,270,37,09,40,307,27,03,14,217,32*76
2017-12-31 18:58:36 1514764716.681656: $GPGSV,3,2,11,16,72,036,45,08,20,175,44,31,13,091,34,27,43,139,38*7A
2017-12-31 18:58:36 1514764716.681776: $GPGSV,3,3,11,07,13,288,47,26,40,048,44,135,22,240,44*70
2017-12-31 18:58:36 1514764716.795062: $GPZDA,235837.00,31,12,2017,00,00*6B
2017-12-31 18:58:36 1514764716.795207: $GPGGA,235837,3946.9578,N,08404.9824,W,2,11,0.80,310.52,M,-33.324,M,,*7A
2017-12-31 18:58:36 1514764716.795275: $GPRMC,235837,A,3946.9578,N,08404.9824,W,0.0000,0.000,311217,,*34
2017-12-31 18:58:36 1514764716.795337: $GPGSA,A,3,22,23,9,3,16,8,31,27,7,26,135,,1.7,0.8,1.3*09
2017-12-31 18:58:37 1514764717.354703: $GPZDA,235838.00,31,12,2017,00,00*64
2017-12-31 18:58:37 1514764717.354874: $GPGGA,235838,3946.9578,N,08404.9824,W,2,11,0.80,310.52,M,-33.324,M,,*75
2017-12-31 18:58:37 1514764717.354942: $GPRMC,235838,A,3946.9578,N,08404.9824,W,0.0000,0.000,311217,,*3B
2017-12-31 18:58:37 1514764717.355004: $GPGSA,A,3,22,23,9,3,16,8,31,27,7,26,135,,1.7,0.8,1.3*09
2017-12-31 18:58:38 1514764718.353076: $GPZDA,235839.00,31,12,2017,00,00*65
2017-12-31 18:58:38 1514764718.353248: $GPGGA,235839,3946.9578,N,08404.9824,W,2,11,0.80,310.52,M,-33.324,M,,*74
2017-12-31 18:58:38 1514764718.353315: $GPRMC,235839,A,3946.9578,N,08404.9824,W,0.0000,0.000,311217,,*3A
2017-12-31 18:58:38 1514764718.353377: $GPGSA,A,3,22,23,9,3,16,8,31,27,7,26,135,,1.7,0.8,1.3*09
