2017-11-16 14:45:37 1510861537.705639: {"class":"VERSION","release":"3.17","rev":"3.17","proto_major":3,"proto_minor":12}
2017-11-16 14:45:37 1510861537.706112: {"class":"DEVICES","devices":[{"class":"DEVICE","path":"/dev/ttyUSB0","driver":"SiRF","subtype":"9\u0006GSD4e_4.1.2-P1_RPATCH.05-F-GPS-4R-1510281 11/03/2015 307","activated":"2017-11-16T19:45:37.636Z","flags":1,"native":1,"bps":4800,"parity":"N","stopbits":1,"cycle":1.00}]}
2017-11-16 14:45:37 1510861537.706235: {"class":"WATCH","enable":true,"json":false,"nmea":true,"raw":0,"scaled":false,"timing":false,"split24":false,"pps":false}
2017-11-16 14:45:38 1510861538.533846: $GPZDA,194537.00,16,11,2017,00,00*68
2017-11-16 14:45:38 1510861538.534004: $GPGGA,194537,3946.9564,N,08404.9842,W,2,11,0.80,302.74,M,-33.324,M,,*75
2017-11-16 14:45:38 1510861538.534065: $GPRMC,194537,A,3946.9564,N,08404.9842,W,0.0000,0.000,161117,,*3A
2017-11-16 14:45:38 1510861538.534121: $GPGSA,A,3,8,10,15,18,21,20,24,27,32,14,138,,1.6,0.8,1.3*37
2017-11-16 14:45:39 1510861539.830404: $GPGSV,3,1,11,08,08,309,30,10,53,313,50,15,25,058,51,18,77,027,44*77
2017-11-16 14:45:39 1510861539.830572: $GPGSV,3,2,11,21,48,183,48,20,22,106,44,24,53,084,48,27,15,274,43*73
2017-11-16 14:45:39 1510861539.830631: $GPGSV,3,3,11,32,32,249,48,14,16,241,38,138,38,213,44*75
2017-11-16 14:45:39 1510861539.943703: $GPZDA,194538.00,16,11,2017,00,00*67
2017-11-16 14:45:39 1510861539.943859: $GPGGA,194538,3946.9564,N,08404.9842,W,2,11,0.80,302.74,M,-33.324,M,,*7A
2017-11-16 14:45:39 1510861539.943920: $GPRMC,194538,A,3946.9564,N,08404.9842,W,0.0000,0.000,161117,,*35
2017-11-16 14:45:39 1510861539.943976: $GPGSA,A,3,8,10,15,18,21,20,24,27,32,14,138,,1.6,0.8,1.3*37
2017-11-16 14:45:40 1510861540.533238: $GPZDA,194539.00,16,11,2017,00,00*66
2017-11-16 14:45:40 1510861540.533414: $GPGGA,194539,3946.9564,N,08404.9842,W,2,11,0.80,302.74,M,-33.324,M,,*7B
2017-11-16 14:45:40 1510861540.533476: $GPRMC,194539,A,3946.9564,N,08404.9842,W,0.0000,0.000,161117,,*34
2017-11-16 14:45:40 1510861540.533532: $GPGSA,A,3,8,10,15,18,21,20,24,27,32,14,138,,1.6,0.8,1.3*37
2017-11-16 14:45:41 1510861541.495779: $GPZDA,194540.00,16,11,2017,00,00*68
2017-11-16 14:45:41 1510861541.495937: $GPGGA,194540,3946.9564,N,08404.9842,W,2,11,0.80,302.74,M,-33.324,M,,*75
2017-11-16 14:45:41 1510861541.495998: $GPRMC,194540,A,3946.9564,N,08404.9842,W,0.0000,0.000,161117,,*3A
2017-11-16 14:45:41 1510861541.496054: $GPGSA,A,3,8,10,15,18,21,20,24,27,32,14,138,,1.6,0.8,1.3*37
2017-11-16 14:45:42 1510861542.827418: $GPGSV,3,1,11,08,08,309,30,10,53,313,50,15,25,058,51,18,77,027,44*77
2017-11-16 14:45:42 1510861542.827584: $GPGSV,3,2,11,21,48,183,48,20,22,106,44,24,53,084,48,27,15,274,43*73
2017-11-16 14:45:42 1510861542.827645: $GPGSV,3,3,11,32,32,249,48,14,16,241,38,138,38,213,42*73
2017-11-16 14:45:42 1510861542.941232: $GPZDA,194541.00,16,11,2017,00,00*69
2017-11-16 14:45:42 1510861542.941390: $GPGGA,194541,3946.9564,N,08404.9842,W,2,11,0.80,302.74,M,-33.324,M,,*74
2017-11-16 14:45:42 1510861542.941450: $GPRMC,194541,A,3946.9564,N,08404.9842,W,0.0000,0.000,161117,,*3B
2017-11-16 14:45:42 1510861542.941506: $GPGSA,A,3,8,10,15,18,21,20,24,27,32,14,138,,1.6,0.8,1.3*37
2017-11-16 14:45:43 1510861543.532757: $GPZDA,194542.00,16,11,2017,00,00*6A
2017-11-16 14:45:43 1510861543.532920: $GPGGA,194542,3946.9564,N,08404.9842,W,2,11,0.80,302.74,M,-33.324,M,,*77
2017-11-16 14:45:43 1510861543.532980: $GPRMC,194542,A,3946.9564,N,08404.9842,W,0.0000,0.000,161117,,*38
2017-11-16 14:45:43 1510861543.533036: $GPGSA,A,3,8,10,15,18,21,20,24,27,32,14,138,,1.6,0.8,1.3*37
2017-11-16 14:45:44 1510861544.533113: $GPZDA,194543.00,16,11,2017,00,00*6B
2017-11-16 14:45:44 1510861544.533293: $GPGGA,194543,3946.9564,N,08404.9842,W,2,11,0.80,302.74,M,-33.324,M,,*76
2017-11-16 14:45:44 1510861544.533355: $GPRMC,194543,A,3946.9564,N,08404.9842,W,0.0000,0.000,161117,,*39
2017-11-16 14:45:44 1510861544.533411: $GPGSA,A,3,8,10,15,18,21,20,24,27,32,14,138,,1.6,0.8,1.3*37
2017-11-16 14:45:45 1510861545.831626: $GPGSV,3,1,11,08,08,309,36,10,53,313,50,15,25,058,50,18,77,027,44*70
2017-11-16 14:45:45 1510861545.831907: $GPGSV,3,2,11,21,48,183,48,20,22,106,44,24,53,084,48,27,15,274,42*72
2017-11-16 14:45:45 1510861545.832038: $GPGSV,3,3,11,32,32,249,48,14,16,241,38,138,38,213,43*72
2017-11-16 14:45:45 1510861545.944697: $GPZDA,194544.00,16,11,2017,00,00*6C
2017-11-16 14:45:45 1510861545.944875: $GPGGA,194544,3946.9564,N,08404.9842,W,2,11,0.80,302.74,M,-33.324,M,,*71
2017-11-16 14:45:45 1510861545.944936: $GPRMC,194544,A,3946.9564,N,08404.9842,W,0.0000,0.000,161117,,*3E
2017-11-16 14:45:45 1510861545.945015: $GPGSA,A,3,8,10,15,18,21,20,24,27,32,14,138,,1.6,0.8,1.3*37
2017-11-16 14:45:46 1510861546.494803: $GPZDA,194545.00,16,11,2017,00,00*6D
2017-11-16 14:45:46 1510861546.495025: $GPGGA,194545,3946.9564,N,08404.9842,W,2,11,0.80,302.74,M,-33.324,M,,*70
2017-11-16 14:45:46 1510861546.495137: $GPRMC,194545,A,3946.9564,N,08404.9842,W,0.0000,0.000,161117,,*3F
2017-11-16 14:45:46 1510861546.495206: $GPGSA,A,3,8,10,15,18,21,20,24,27,32,14,138,,1.6,0.8,1.3*37
2017-11-16 14:45:47 1510861547.495720: $GPZDA,194546.00,16,11,2017,00,00*6E
2017-11-16 14:45:47 1510861547.495912: $GPGGA,194546,3946.9564,N,08404.9842,W,2,11,0.80,302.74,M,-33.324,M,,*73
2017-11-16 14:45:47 1510861547.495994: $GPRMC,194546,A,3946.9564,N,08404.9842,W,0.0000,0.000,161117,,*3C
2017-11-16 14:45:47 1510861547.496070: $GPGSA,A,3,8,10,15,18,21,20,24,27,32,14,138,,1.6,0.8,1.3*37
