2017-12-01 16:58:06 1512165486.855121: {"class":"VERSION","release":"3.16","rev":"3.16-4","proto_major":3,"proto_minor":11}
2017-12-01 16:58:06 1512165486.855818: {"class":"DEVICES","devices":[{"class":"DEVICE","path":"/dev/ttyUSB0","driver":"SiRF","subtype":"9\u0006GSD4e_4.1.2-P1_RPATCH.05-F-GPS-4R-1510281 11/03/2015 307","activated":"2017-12-01T21:58:06.710Z","flags":1,"native":1,"bps":4800,"parity":"N","stopbits":1,"cycle":1.00}]}
2017-12-01 16:58:06 1512165486.856063: {"class":"WATCH","enable":true,"json":false,"nmea":true,"raw":0,"scaled":false,"timing":false,"split24":false,"pps":false}
2017-12-01 16:58:07 1512165487.397045: $GPZDA,215808.00,01,12,2017,00,00*66
2017-12-01 16:58:07 1512165487.397240: $GPGGA,215808,3946.9636,N,08404.9778,W,2,11,0.60,299.32,M,-33.324,M,,*73
2017-12-01 16:58:07 1512165487.397308: $GPRMC,215808,A,3946.9636,N,08404.9778,W,0.0000,0.000,011217,,*36
2017-12-01 16:58:07 1512165487.397369: $GPGSA,A,3,1,3,10,12,22,26,31,32,18,25,138,,2.0,0.6,1.5*01
2017-12-01 16:58:08 1512165488.734077: $GPGSV,3,1,11,01,22,288,41,03,10,316,39,10,35,153,37,12,16,039,30*78
2017-12-01 16:58:08 1512165488.734277: $GPGSV,3,2,11,22,29,309,41,26,13,180,35,31,69,241,47,32,63,058,49*78
2017-12-01 16:58:08 1512165488.734344: $GPGSV,3,3,11,18,06,147,27,25,40,073,27,138,38,213,36*77
2017-12-01 16:58:08 1512165488.847430: $GPZDA,215809.00,01,12,2017,00,00*67
2017-12-01 16:58:08 1512165488.847603: $GPGGA,215809,3946.9636,N,08404.9778,W,2,11,0.60,299.32,M,-33.324,M,,*72
2017-12-01 16:58:08 1512165488.847670: $GPRMC,215809,A,3946.9636,N,08404.9778,W,0.0000,0.000,011217,,*37
2017-12-01 16:58:08 1512165488.847732: $GPGSA,A,3,1,3,10,12,22,26,31,32,18,25,138,,2.0,0.6,1.5*01
2017-12-01 16:58:09 1512165489.398306: $GPZDA,215810.00,01,12,2017,00,00*6F
2017-12-01 16:58:09 1512165489.398488: $GPGGA,215810,3946.9636,N,08404.9778,W,2,11,0.60,299.32,M,-33.324,M,,*7A
2017-12-01 16:58:09 1512165489.398555: $GPRMC,215810,A,3946.9636,N,08404.9778,W,0.0000,0.000,011217,,*3F
2017-12-01 16:58:09 1512165489.398616: $GPGSA,A,3,1,3,10,12,22,26,31,32,18,25,138,,2.0,0.6,1.5*01
2017-12-01 16:58:10 1512165490.399182: $GPZDA,215811.00,01,12,2017,00,00*6E
2017-12-01 16:58:10 1512165490.399357: $GPGGA,215811,3946.9636,N,08404.9778,W,2,11,0.60,299.32,M,-33.324,M,,*7B
2017-12-01 16:58:10 1512165490.399424: $GPRMC,215811,A,3946.9636,N,08404.9778,W,0.0000,0.000,011217,,*3E
2017-12-01 16:58:10 1512165490.399485: $GPGSA,A,3,1,3,10,12,22,26,31,32,18,25,138,,2.0,0.6,1.5*01
2017-12-01 16:58:11 1512165491.734922: $GPGSV,3,1,11,01,22,288,41,03,10,316,38,10,35,153,37,12,16,039,30*79
2017-12-01 16:58:11 1512165491.735137: $GPGSV,3,2,11,22,29,309,40,26,13,180,34,31,69,241,48,32,63,058,49*77
2017-12-01 16:58:11 1512165491.735205: $GPGSV,3,3,11,18,06,147,27,25,40,073,28,138,38,213,39*77
2017-12-01 16:58:11 1512165491.848296: $GPZDA,215812.00,01,12,2017,00,00*6D
2017-12-01 16:58:11 1512165491.848462: $GPGGA,215812,3946.9636,N,08404.9778,W,2,11,0.60,299.32,M,-33.324,M,,*78
2017-12-01 16:58:11 1512165491.848529: $GPRMC,215812,A,3946.9636,N,08404.9778,W,0.0000,0.000,011217,,*3D
2017-12-01 16:58:11 1512165491.848591: $GPGSA,A,3,1,3,10,12,22,26,31,32,18,25,138,,2.0,0.6,1.5*01
2017-12-01 16:58:12 1512165492.474127: $GPZDA,215813.00,01,12,2017,00,00*6C
2017-12-01 16:58:12 1512165492.474295: $GPGGA,215813,3946.9636,N,08404.9778,W,2,11,0.60,299.32,M,-33.324,M,,*79
2017-12-01 16:58:12 1512165492.474363: $GPRMC,215813,A,3946.9636,N,08404.9778,W,0.0000,0.000,011217,,*3C
2017-12-01 16:58:12 1512165492.474425: $GPGSA,A,3,1,3,10,12,22,26,31,32,18,25,138,,2.0,0.6,1.5*01
2017-12-01 16:58:13 1512165493.402440: $GPZDA,215814.00,01,12,2017,00,00*6B
2017-12-01 16:58:13 1512165493.402609: $GPGGA,215814,3946.9632,N,08404.9778,W,2,11,0.60,300.09,M,-33.324,M,,*73
2017-12-01 16:58:13 1512165493.402677: $GPRMC,215814,A,3946.9632,N,08404.9778,W,0.0000,0.000,011217,,*3F
2017-12-01 16:58:13 1512165493.402739: $GPGSA,A,3,1,3,10,12,22,26,31,32,18,25,138,,2.0,0.6,1.5*01
2017-12-01 16:58:14 1512165494.735318: $GPGSV,3,1,11,01,22,288,41,03,10,316,39,10,35,153,37,12,16,039,30*78
2017-12-01 16:58:14 1512165494.735530: $GPGSV,3,2,11,22,29,309,41,26,13,180,34,31,69,241,48,32,63,058,49*76
2017-12-01 16:58:14 1512165494.735600: $GPGSV,3,3,11,18,06,147,27,25,40,073,28,138,38,213,40*79
2017-12-01 16:58:14 1512165494.849092: $GPZDA,215815.00,01,12,2017,00,00*6A
2017-12-01 16:58:14 1512165494.849262: $GPGGA,215815,3946.9632,N,08404.9778,W,2,11,0.60,300.09,M,-33.324,M,,*72
2017-12-01 16:58:14 1512165494.849328: $GPRMC,215815,A,3946.9632,N,08404.9778,W,0.0000,0.000,011217,,*3E
2017-12-01 16:58:14 1512165494.849389: $GPGSA,A,3,1,3,10,12,22,26,31,32,18,25,138,,2.0,0.6,1.5*01
2017-12-01 16:58:15 1512165495.399530: $GPZDA,215816.00,01,12,2017,00,00*69
2017-12-01 16:58:15 1512165495.399698: $GPGGA,215816,3946.9632,N,08404.9778,W,2,11,0.60,300.09,M,-33.324,M,,*71
2017-12-01 16:58:15 1512165495.399767: $GPRMC,215816,A,3946.9632,N,08404.9778,W,0.0000,0.000,011217,,*3D
2017-12-01 16:58:15 1512165495.399828: $GPGSA,A,3,1,3,10,12,22,26,31,32,18,25,138,,2.0,0.6,1.5*01
2017-12-01 16:58:16 1512165496.400662: $GPZDA,215817.00,01,12,2017,00,00*68
2017-12-01 16:58:16 1512165496.400829: $GPGGA,215817,3946.9636,N,08404.9778,W,2,11,0.60,300.73,M,-33.324,M,,*79
2017-12-01 16:58:16 1512165496.400896: $GPRMC,215817,A,3946.9636,N,08404.9778,W,0.0000,0.000,011217,,*38
2017-12-01 16:58:16 1512165496.400984: $GPGSA,A,3,1,3,10,12,22,26,31,32,18,25,138,,2.0,0.6,1.5*01
2017-12-01 16:58:17 1512165497.736872: $GPGSV,3,1,11,01,22,288,40,03,10,316,38,10,35,153,37,12,16,039,31*79
2017-12-01 16:58:17 1512165497.737089: $GPGSV,3,2,11,22,29,309,41,26,13,180,34,31,69,241,48,32,63,058,49*76
2017-12-01 16:58:17 1512165497.737158: $GPGSV,3,3,11,18,06,147,27,25,40,073,28,138,38,213,40*79
2017-12-01 16:58:17 1512165497.849028: $GPZDA,215818.00,01,12,2017,00,00*67
2017-12-01 16:58:17 1512165497.849220: $GPGGA,215818,3946.9636,N,08404.9778,W,2,11,0.60,300.73,M,-33.324,M,,*76
2017-12-01 16:58:17 1512165497.849289: $GPRMC,215818,A,3946.9636,N,08404.9778,W,0.0000,0.000,011217,,*37
2017-12-01 16:58:17 1512165497.849350: $GPGSA,A,3,1,3,10,12,22,26,31,32,18,25,138,,2.0,0.6,1.5*01
2017-12-01 16:58:18 1512165498.397446: $GPZDA,215819.00,01,12,2017,00,00*66
2017-12-01 16:58:18 1512165498.397621: $GPGGA,215819,3946.9636,N,08404.9778,W,2,11,0.60,300.73,M,-33.324,M,,*77
2017-12-01 16:58:18 1512165498.397690: $GPRMC,215819,A,3946.9636,N,08404.9778,W,0.0000,0.000,011217,,*36
2017-12-01 16:58:18 1512165498.397751: $GPGSA,A,3,1,3,10,12,22,26,31,32,18,25,138,,2.0,0.6,1.5*01
2017-12-01 16:58:19 1512165499.404558: $GPZDA,215820.00,01,12,2017,00,00*6C
2017-12-01 16:58:19 1512165499.404744: $GPGGA,215820,3946.9636,N,08404.9771,W,2,11,0.60,300.81,M,-33.324,M,,*79
2017-12-01 16:58:19 1512165499.404814: $GPRMC,215820,A,3946.9636,N,08404.9771,W,0.2422,93.794,011217,,*03
2017-12-01 16:58:19 1512165499.404880: $GPGSA,A,3,1,3,10,12,22,26,31,32,18,25,138,,2.0,0.6,1.5*01
2017-12-01 16:58:20 1512165500.733992: $GPGSV,3,1,11,01,22,288,41,03,10,316,39,10,35,153,37,12,16,039,31*79
2017-12-01 16:58:20 1512165500.734173: $GPGSV,3,2,11,22,29,309,40,26,13,180,34,31,69,241,47,32,63,058,49*78
2017-12-01 16:58:20 1512165500.734242: $GPGSV,3,3,11,18,06,147,26,25,40,073,29,138,38,213,38*76
2017-12-01 16:58:20 1512165500.847368: $GPZDA,215821.00,01,12,2017,00,00*6D
2017-12-01 16:58:20 1512165500.847523: $GPGGA,215821,3946.9636,N,08404.9771,W,2,11,0.60,300.81,M,-33.324,M,,*78
2017-12-01 16:58:20 1512165500.847592: $GPRMC,215821,A,3946.9636,N,08404.9771,W,0.0000,0.000,011217,,*34
2017-12-01 16:58:20 1512165500.847656: $GPGSA,A,3,1,3,10,12,22,26,31,32,18,25,138,,2.0,0.6,1.5*01
2017-12-01 16:58:21 1512165501.404541: $GPZDA,215822.00,01,12,2017,00,00*6E
2017-12-01 16:58:21 1512165501.408748: $GPGGA,215822,3946.9636,N,08404.9771,W,2,11,0.60,300.81,M,-33.324,M,,*7B
2017-12-01 16:58:21 1512165501.408857: $GPRMC,215822,A,3946.9636,N,08404.9771,W,0.0000,0.000,011217,,*37
2017-12-01 16:58:21 1512165501.408943: $GPGSA,A,3,1,3,10,12,22,26,31,32,18,25,138,,2.0,0.6,1.5*01
2017-12-01 16:58:22 1512165502.402400: $GPZDA,215823.00,01,12,2017,00,00*6F
2017-12-01 16:58:22 1512165502.402573: $GPGGA,215823,3946.9636,N,08404.9771,W,2,11,0.60,300.81,M,-33.324,M,,*7A
2017-12-01 16:58:22 1512165502.402695: $GPRMC,215823,A,3946.9636,N,08404.9771,W,0.0000,0.000,011217,,*36
2017-12-01 16:58:22 1512165502.402758: $GPGSA,A,3,1,3,10,12,22,26,31,32,18,25,138,,2.0,0.6,1.5*01
2017-12-01 16:58:23 1512165503.750641: $GPGSV,3,1,11,01,22,288,41,03,10,316,39,10,35,153,37,12,16,039,30*78
2017-12-01 16:58:23 1512165503.750826: $GPGSV,3,2,11,22,29,309,40,26,13,180,34,31,69,241,48,32,63,058,50*7F
2017-12-01 16:58:23 1512165503.750915: $GPGSV,3,3,11,18,06,147,00,25,40,073,28,138,38,213,40*7C
2017-12-01 16:58:23 1512165503.864277: $GPZDA,215824.00,01,12,2017,00,00*68
2017-12-01 16:58:23 1512165503.864441: $GPGGA,215824,3946.9636,N,08404.9771,W,2,10,0.80,300.81,M,-33.324,M,,*72
2017-12-01 16:58:23 1512165503.864508: $GPRMC,215824,A,3946.9636,N,08404.9771,W,0.0000,0.000,011217,,*31
2017-12-01 16:58:23 1512165503.864569: $GPGSA,A,3,1,3,10,12,22,26,31,32,25,138,,,2.0,0.8,1.5*06
2017-12-01 16:58:24 1512165504.405241: $GPZDA,215825.00,01,12,2017,00,00*69
2017-12-01 16:58:24 1512165504.405575: $GPGGA,215825,3946.9636,N,08404.9771,W,2,10,0.60,300.81,M,-33.324,M,,*7D
2017-12-01 16:58:24 1512165504.405678: $GPRMC,215825,A,3946.9636,N,08404.9771,W,0.0000,0.000,011217,,*30
2017-12-01 16:58:24 1512165504.405766: $GPGSA,A,3,1,3,10,12,22,26,31,32,25,138,,,2.0,0.6,1.5*08
2017-12-01 16:58:25 1512165505.399944: $GPZDA,215826.00,01,12,2017,00,00*6A
2017-12-01 16:58:25 1512165505.400154: $GPGGA,215826,3946.9636,N,08404.9771,W,2,10,0.60,300.81,M,-33.324,M,,*7E
2017-12-01 16:58:25 1512165505.400222: $GPRMC,215826,A,3946.9636,N,08404.9771,W,0.0000,0.000,011217,,*33
2017-12-01 16:58:25 1512165505.400284: $GPGSA,A,3,1,3,10,12,22,26,31,32,25,138,,,2.0,0.6,1.5*08
2017-12-01 16:58:26 1512165506.732711: $GPGSV,3,1,11,01,22,288,41,03,10,316,40,10,35,153,37,12,16,039,30*76
2017-12-01 16:58:26 1512165506.732889: $GPGSV,3,2,11,22,29,309,41,26,13,180,35,31,69,241,47,32,63,058,50*70
2017-12-01 16:58:26 1512165506.732957: $GPGSV,3,3,11,18,06,147,24,25,40,073,28,138,38,213,41*7B
2017-12-01 16:58:26 1512165506.847514: $GPZDA,215827.00,01,12,2017,00,00*6B
2017-12-01 16:58:26 1512165506.847686: $GPGGA,215827,3946.9636,N,08404.9771,W,2,11,0.60,300.81,M,-33.324,M,,*7E
2017-12-01 16:58:26 1512165506.847755: $GPRMC,215827,A,3946.9636,N,08404.9771,W,0.0000,0.000,011217,,*32
2017-12-01 16:58:26 1512165506.847816: $GPGSA,A,3,1,3,10,12,22,26,31,32,18,25,138,,2.0,0.6,1.5*01
