2017-12-29 10:42:15 1514562135.436252: {"class":"VERSION","release":"3.16","rev":"3.16-4","proto_major":3,"proto_minor":11}
2017-12-29 10:42:15 1514562135.436594: {"class":"DEVICES","devices":[{"class":"DEVICE","path":"/dev/ttyUSB0","driver":"SiRF","subtype":"9\u0006GSD4e_4.1.2-P1_RPATCH.05-F-GPS-4R-1510281 11/03/2015 307","activated":"2017-12-29T15:42:15.412Z","flags":1,"native":1,"bps":4800,"parity":"N","stopbits":1,"cycle":1.00}]}
2017-12-29 10:42:15 1514562135.436709: {"class":"WATCH","enable":true,"json":false,"nmea":true,"raw":0,"scaled":false,"timing":false,"split24":false,"pps":false}
2017-12-29 10:42:16 1514562136.415897: $GPZDA,154217.00,29,12,2017,00,00*6E
2017-12-29 10:42:16 1514562136.416072: $GPGGA,154217,3946.9596,N,08404.9858,W,2,11,0.80,286.36,M,-33.324,M,,*71
2017-12-29 10:42:16 1514562136.416136: $GPRMC,154217,A,3946.9596,N,08404.9858,W,0.0000,0.000,291217,,*3A
2017-12-29 10:42:16 1514562136.416198: $GPGSA,A,3,10,13,15,18,20,21,24,27,32,29,138,,1.7,0.8,1.3*02
2017-12-29 10:42:17 1514562137.751406: $GPGSV,3,1,11,10,30,289,44,13,21,045,44,15,52,049,50,18,61,312,44*7F
2017-12-29 10:42:17 1514562137.751567: $GPGSV,3,2,11,20,46,081,48,21,77,222,47,24,40,130,48,27,19,306,36*7E
2017-12-29 10:42:17 1514562137.751632: $GPGSV,3,3,11,32,09,229,27,29,03,187,36,138,38,213,45*7E
2017-12-29 10:42:17 1514562137.864975: $GPZDA,154218.00,29,12,2017,00,00*61
2017-12-29 10:42:17 1514562137.865102: $GPGGA,154218,3946.9596,N,08404.9858,W,2,11,0.80,286.36,M,-33.324,M,,*7E
2017-12-29 10:42:17 1514562137.865166: $GPRMC,154218,A,3946.9596,N,08404.9858,W,0.0000,0.000,291217,,*35
2017-12-29 10:42:17 1514562137.865226: $GPGSA,A,3,10,13,15,18,20,21,24,27,32,29,138,,1.7,0.8,1.3*02
2017-12-29 10:42:18 1514562138.491658: $GPZDA,154219.00,29,12,2017,00,00*60
2017-12-29 10:42:18 1514562138.491820: $GPGGA,154219,3946.9591,N,08404.9858,W,2,11,0.80,285.72,M,-33.324,M,,*7B
2017-12-29 10:42:18 1514562138.491888: $GPRMC,154219,A,3946.9591,N,08404.9858,W,0.0000,0.000,291217,,*33
2017-12-29 10:42:18 1514562138.491952: $GPGSA,A,3,10,13,15,18,20,21,24,27,32,29,138,,1.7,0.8,1.3*02
2017-12-29 10:42:19 1514562139.414994: $GPZDA,154220.00,29,12,2017,00,00*6A
2017-12-29 10:42:19 1514562139.415152: $GPGGA,154220,3946.9591,N,08404.9858,W,2,11,0.80,285.72,M,-33.324,M,,*71
2017-12-29 10:42:19 1514562139.415218: $GPRMC,154220,A,3946.9591,N,08404.9858,W,0.0000,0.000,291217,,*39
2017-12-29 10:42:19 1514562139.415278: $GPGSA,A,3,10,13,15,18,20,21,24,27,32,29,138,,1.7,0.8,1.3*02
2017-12-29 10:42:20 1514562140.751737: $GPGSV,3,1,11,10,30,289,44,13,21,045,44,15,52,049,50,18,61,312,44*7F
2017-12-29 10:42:20 1514562140.751927: $GPGSV,3,2,11,20,46,081,49,21,77,222,47,24,40,130,48,27,19,306,37*7E
2017-12-29 10:42:20 1514562140.751992: $GPGSV,3,3,11,32,09,229,27,29,03,187,36,138,38,213,46*7D
2017-12-29 10:42:20 1514562140.865337: $GPZDA,154221.00,29,12,2017,00,00*6B
2017-12-29 10:42:20 1514562140.865460: $GPGGA,154221,3946.9596,N,08404.9858,W,2,11,0.80,286.36,M,-33.324,M,,*74
2017-12-29 10:42:20 1514562140.865523: $GPRMC,154221,A,3946.9596,N,08404.9858,W,0.0000,0.000,291217,,*3F
2017-12-29 10:42:20 1514562140.865583: $GPGSA,A,3,10,13,15,18,20,21,24,27,32,29,138,,1.7,0.8,1.3*02
2017-12-29 10:42:21 1514562141.415012: $GPZDA,154222.00,29,12,2017,00,00*68
2017-12-29 10:42:21 1514562141.415181: $GPGGA,154222,3946.9595,N,08404.9851,W,2,11,0.80,286.44,M,-33.324,M,,*78
2017-12-29 10:42:21 1514562141.415247: $GPRMC,154222,A,3946.9595,N,08404.9851,W,0.0000,0.000,291217,,*36
2017-12-29 10:42:21 1514562141.415308: $GPGSA,A,3,10,13,15,18,20,21,24,27,32,29,138,,1.7,0.8,1.3*02
2017-12-29 10:42:22 1514562142.415881: $GPZDA,154223.00,29,12,2017,00,00*69
2017-12-29 10:42:22 1514562142.416059: $GPGGA,154223,3946.9595,N,08404.9851,W,2,11,0.80,286.44,M,-33.324,M,,*79
2017-12-29 10:42:22 1514562142.416124: $GPRMC,154223,A,3946.9595,N,08404.9851,W,0.0000,0.000,291217,,*37
2017-12-29 10:42:22 1514562142.416185: $GPGSA,A,3,10,13,15,18,20,21,24,27,32,29,138,,1.7,0.8,1.3*02
2017-12-29 10:42:23 1514562143.750849: $GPGSV,3,1,11,10,30,289,44,13,21,045,44,15,52,049,51,18,61,312,44*7E
2017-12-29 10:42:23 1514562143.751130: $GPGSV,3,2,11,20,46,081,49,21,77,222,47,24,40,130,48,27,19,306,38*71
2017-12-29 10:42:23 1514562143.751210: $GPGSV,3,3,11,32,09,229,27,29,03,187,36,138,38,213,45*7E
2017-12-29 10:42:23 1514562143.864203: $GPZDA,154224.00,29,12,2017,00,00*6E
2017-12-29 10:42:23 1514562143.864337: $GPGGA,154224,3946.9592,N,08404.9852,W,2,11,0.80,287.20,M,-33.324,M,,*79
2017-12-29 10:42:23 1514562143.864403: $GPRMC,154224,A,3946.9592,N,08404.9852,W,0.0000,0.000,291217,,*34
2017-12-29 10:42:23 1514562143.864463: $GPGSA,A,3,10,13,15,18,20,21,24,27,32,29,138,,1.7,0.8,1.3*02
2017-12-29 10:42:24 1514562144.417578: $GPZDA,154225.00,29,12,2017,00,00*6F
2017-12-29 10:42:24 1514562144.417748: $GPGGA,154225,3946.9592,N,08404.9852,W,2,11,0.80,287.20,M,-33.324,M,,*78
2017-12-29 10:42:24 1514562144.417822: $GPRMC,154225,A,3946.9592,N,08404.9852,W,0.0000,0.000,291217,,*35
2017-12-29 10:42:24 1514562144.417886: $GPGSA,A,3,10,13,15,18,20,21,24,27,32,29,138,,1.7,0.8,1.3*02
2017-12-29 10:42:25 1514562145.416523: $GPZDA,154226.00,29,12,2017,00,00*6C
2017-12-29 10:42:25 1514562145.416701: $GPGGA,154226,3946.9592,N,08404.9852,W,2,11,0.80,287.20,M,-33.324,M,,*7B
2017-12-29 10:42:25 1514562145.416770: $GPRMC,154226,A,3946.9592,N,08404.9852,W,0.0000,0.000,291217,,*36
2017-12-29 10:42:25 1514562145.416834: $GPGSA,A,3,10,13,15,18,20,21,24,27,32,29,138,,1.7,0.8,1.3*02
