2017-12-14 12:34:34 1513272874.693075: {"class":"VERSION","release":"3.16","rev":"3.16-4","proto_major":3,"proto_minor":11}
2017-12-14 12:34:34 1513272874.693449: {"class":"DEVICES","devices":[{"class":"DEVICE","path":"/dev/ttyUSB0","driver":"SiRF","subtype":"9\u0006GSD4e_4.1.2-P1_RPATCH.05-F-GPS-4R-1510281 11/03/2015 307","activated":"2017-12-14T17:34:34.346Z","flags":1,"native":1,"bps":4800,"parity":"N","stopbits":1,"cycle":1.00}]}
2017-12-14 12:34:34 1513272874.693576: {"class":"WATCH","enable":true,"json":false,"nmea":true,"raw":0,"scaled":false,"timing":false,"split24":false,"pps":false}
2017-12-14 12:34:35 1513272875.205670: $GPZDA,173436.00,14,12,2017,00,00*60
2017-12-14 12:34:35 1513272875.205882: $GPGGA,173436,3946.9488,N,08404.9453,W,1,06,7.60,325.95,M,-33.324,M,,*75
2017-12-14 12:34:35 1513272875.205954: $GPRMC,173436,A,3946.9488,N,08404.9453,W,1.6283,201.001,141217,,*31
2017-12-14 12:34:35 1513272875.206019: $GPGSA,A,3,24,10,18,20,21,27,,,,,,,6.6,7.6,6.2*3D
2017-12-14 12:34:36 1513272876.541334: $GPGSV,3,1,12,24,53,097,26,10,47,307,22,18,75,358,20,20,28,102,23*79
2017-12-14 12:34:36 1513272876.541516: $GPGSV,3,2,12,21,55,184,22,27,17,282,15,32,27,243,04,15,31,055,00*79
2017-12-14 12:34:36 1513272876.541587: $GPGSV,3,3,12,14,09,235,00,08,07,316,00,13,02,051,00,138,38,213,00*4C
2017-12-14 12:34:36 1513272876.654680: $GPZDA,173437.00,14,12,2017,00,00*61
2017-12-14 12:34:36 1513272876.654828: $GPGGA,173437,3946.9480,N,08404.9460,W,1,06,7.60,324.59,M,-33.324,M,,*7D
2017-12-14 12:34:36 1513272876.654896: $GPRMC,173437,A,3946.9480,N,08404.9460,W,1.6283,201.001,141217,,*38
2017-12-14 12:34:36 1513272876.654960: $GPGSA,A,3,24,10,18,20,21,27,,,,,,,6.6,7.6,6.2*3D
2017-12-14 12:34:37 1513272877.206208: $GPZDA,173438.00,14,12,2017,00,00*6E
2017-12-14 12:34:37 1513272877.206378: $GPGGA,173438,3946.9472,N,08404.9461,W,1,06,7.60,324.71,M,-33.324,M,,*74
2017-12-14 12:34:37 1513272877.206446: $GPRMC,173438,A,3946.9472,N,08404.9461,W,1.4555,203.636,141217,,*35
2017-12-14 12:34:37 1513272877.206530: $GPGSA,A,3,24,10,18,20,21,27,,,,,,,6.6,7.6,6.2*3D
2017-12-14 12:34:38 1513272878.205028: $GPZDA,173439.00,14,12,2017,00,00*6F
2017-12-14 12:34:38 1513272878.205188: $GPGGA,173439,3946.9465,N,08404.9462,W,1,06,7.60,324.84,M,-33.324,M,,*7A
2017-12-14 12:34:38 1513272878.205370: $GPRMC,173439,A,3946.9465,N,08404.9462,W,1.4555,203.636,141217,,*31
2017-12-14 12:34:38 1513272878.205437: $GPGSA,A,3,24,10,18,20,21,27,,,,,,,6.6,7.6,6.2*3D
2017-12-14 12:34:39 1513272879.542604: $GPGSV,3,1,12,24,53,097,26,10,47,307,23,18,75,358,20,20,28,102,23*78
2017-12-14 12:34:39 1513272879.542787: $GPGSV,3,2,12,21,55,184,22,27,17,282,15,32,27,243,04,15,31,055,00*79
2017-12-14 12:34:39 1513272879.542857: $GPGSV,3,3,12,14,09,235,00,08,07,316,00,13,02,051,00,138,38,213,00*4C
2017-12-14 12:34:39 1513272879.654667: $GPZDA,173440.00,14,12,2017,00,00*61
2017-12-14 12:34:39 1513272879.654835: $GPGGA,173440,3946.9465,N,08404.9469,W,1,06,7.60,324.76,M,-33.324,M,,*72
2017-12-14 12:34:39 1513272879.654905: $GPRMC,173440,A,3946.9465,N,08404.9469,W,1.4167,227.342,141217,,*31
2017-12-14 12:34:39 1513272879.654969: $GPGSA,A,3,24,10,18,20,21,27,,,,,,,6.6,7.6,6.2*3D
2017-12-14 12:34:40 1513272880.206030: $GPZDA,173441.00,14,12,2017,00,00*60
2017-12-14 12:34:40 1513272880.206205: $GPGGA,173441,3946.9458,N,08404.9476,W,1,06,7.60,324.81,M,-33.324,M,,*7B
2017-12-14 12:34:40 1513272880.206273: $GPRMC,173441,A,3946.9458,N,08404.9476,W,1.6283,201.001,141217,,*3B
2017-12-14 12:34:40 1513272880.206336: $GPGSA,A,3,24,10,18,20,21,27,,,,,,,6.6,7.6,6.2*3D
2017-12-14 12:34:41 1513272881.224957: $GPZDA,173442.00,14,12,2017,00,00*63
2017-12-14 12:34:41 1513272881.225130: $GPGGA,173442,3946.9454,N,08404.9476,W,1,06,7.60,324.17,M,-33.324,M,,*7B
2017-12-14 12:34:41 1513272881.225198: $GPRMC,173442,A,3946.9454,N,08404.9476,W,1.5738,192.547,141217,,*3C
2017-12-14 12:34:41 1513272881.225261: $GPGSA,A,3,24,10,18,20,21,27,,,,,,,6.6,7.6,6.2*3D
2017-12-14 12:34:42 1513272882.541826: $GPGSV,3,1,12,24,53,097,26,10,47,307,23,18,75,358,20,20,28,102,23*78
2017-12-14 12:34:42 1513272882.542004: $GPGSV,3,2,12,21,55,184,22,27,17,282,15,32,27,243,04,13,02,051,15*7F
2017-12-14 12:34:42 1513272882.542167: $GPGSV,3,3,12,15,31,055,00,14,09,235,00,08,07,316,00,138,38,213,00*4E
2017-12-14 12:34:42 1513272882.655253: $GPZDA,173443.00,14,12,2017,00,00*62
2017-12-14 12:34:42 1513272882.655395: $GPGGA,173443,3946.9446,N,08404.9477,W,1,06,7.60,324.29,M,-33.324,M,,*75
2017-12-14 12:34:42 1513272882.655461: $GPRMC,173443,A,3946.9446,N,08404.9477,W,1.5738,192.547,141217,,*3F
2017-12-14 12:34:42 1513272882.655521: $GPGSA,A,3,24,10,18,20,21,27,,,,,,,6.6,7.6,6.2*3D
2017-12-14 12:34:43 1513272883.221960: $GPZDA,173444.00,14,12,2017,00,00*65
2017-12-14 12:34:43 1513272883.222176: $GPGGA,173444,3946.9435,N,08404.9485,W,1,06,7.60,323.70,M,-33.324,M,,*70
2017-12-14 12:34:43 1513272883.222245: $GPRMC,173444,A,3946.9435,N,08404.9485,W,2.0320,204.738,141217,,*3C
2017-12-14 12:34:43 1513272883.222306: $GPGSA,A,3,24,10,18,20,21,27,,,,,,,6.6,7.6,6.2*3D
2017-12-14 12:34:44 1513272884.205817: $GPZDA,173445.00,14,12,2017,00,00*64
2017-12-14 12:34:44 1513272884.205972: $GPGGA,173445,3946.9430,N,08404.9485,W,1,06,7.60,323.06,M,-33.324,M,,*75
2017-12-14 12:34:44 1513272884.206039: $GPRMC,173445,A,3946.9430,N,08404.9485,W,1.7157,208.752,141217,,*3E
2017-12-14 12:34:44 1513272884.206100: $GPGSA,A,3,24,10,18,20,21,27,,,,,,,6.6,7.6,6.2*3D
2017-12-14 12:34:45 1513272885.557985: $GPGSV,3,1,12,24,53,097,26,10,47,307,23,18,75,358,20,20,28,102,23*78
2017-12-14 12:34:45 1513272885.558164: $GPGSV,3,2,12,21,55,184,23,27,17,282,16,32,27,243,04,15,31,055,00*7B
2017-12-14 12:34:45 1513272885.558230: $GPGSV,3,3,12,14,09,235,00,08,07,316,00,13,02,051,00,138,38,213,00*4C
2017-12-14 12:34:45 1513272885.671595: $GPZDA,173446.00,14,12,2017,00,00*67
2017-12-14 12:34:45 1513272885.671758: $GPGGA,173446,3946.9423,N,08404.9485,W,1,06,7.60,323.18,M,-33.324,M,,*7B
2017-12-14 12:34:45 1513272885.671823: $GPRMC,173446,A,3946.9423,N,08404.9485,W,1.9585,198.105,141217,,*34
2017-12-14 12:34:45 1513272885.671887: $GPGSA,A,3,24,10,18,20,21,27,,,,,,,6.6,7.6,6.2*3D
2017-12-14 12:34:46 1513272886.222289: $GPZDA,173447.00,14,12,2017,00,00*66
2017-12-14 12:34:46 1513272886.222466: $GPGGA,173447,3946.9416,N,08404.9493,W,1,06,7.60,323.23,M,-33.324,M,,*73
2017-12-14 12:34:46 1513272886.222539: $GPRMC,173447,A,3946.9416,N,08404.9493,W,1.9585,198.105,141217,,*34
2017-12-14 12:34:46 1513272886.222653: $GPGSA,A,3,24,10,18,20,21,27,,,,,,,6.6,7.6,6.2*3D
2017-12-14 12:34:47 1513272887.222360: $GPZDA,173448.00,14,12,2017,00,00*69
2017-12-14 12:34:47 1513272887.222544: $GPGGA,173448,3946.9411,N,08404.9493,W,1,06,7.60,322.59,M,-33.324,M,,*77
2017-12-14 12:34:47 1513272887.222616: $GPRMC,173448,A,3946.9411,N,08404.9493,W,1.6283,201.001,141217,,*34
2017-12-14 12:34:47 1513272887.222678: $GPGSA,A,3,24,10,18,20,21,27,,,,,,,6.6,7.6,6.2*3D
2017-12-14 12:34:48 1513272888.558546: $GPGSV,3,1,12,24,53,097,26,10,47,307,23,18,75,358,20,20,28,102,23*78
2017-12-14 12:34:48 1513272888.558730: $GPGSV,3,2,12,21,55,184,22,27,17,282,16,32,27,243,04,08,07,316,04*73
2017-12-14 12:34:48 1513272888.558796: $GPGSV,3,3,12,15,31,055,00,14,09,235,00,13,02,051,00,138,38,213,00*41
2017-12-14 12:34:48 1513272888.671892: $GPZDA,173449.00,14,12,2017,00,00*68
2017-12-14 12:34:48 1513272888.672018: $GPGGA,173449,3946.9408,N,08404.9500,W,1,06,7.60,321.87,M,-33.324,M,,*75
2017-12-14 12:34:48 1513272888.672146: $GPRMC,173449,A,3946.9408,N,08404.9500,W,1.7157,208.752,141217,,*35
2017-12-14 12:34:48 1513272888.672209: $GPGSA,A,3,24,10,18,20,21,27,,,,,,,6.6,7.6,6.2*3D
2017-12-14 12:34:49 1513272889.222531: $GPZDA,173450.00,14,12,2017,00,00*60
2017-12-14 12:34:49 1513272889.222706: $GPGGA,173450,3946.9400,N,08404.9501,W,1,06,7.60,321.99,M,-33.324,M,,*7B
2017-12-14 12:34:49 1513272889.222774: $GPRMC,173450,A,3946.9400,N,08404.9501,W,1.5545,212.064,141217,,*38
2017-12-14 12:34:49 1513272889.222835: $GPGSA,A,3,24,10,18,20,21,27,,,,,,,6.6,7.6,6.2*3D
2017-12-14 12:34:50 1513272890.223848: $GPZDA,173451.00,14,12,2017,00,00*61
2017-12-14 12:34:50 1513272890.224020: $GPGGA,173451,3946.9400,N,08404.9501,W,1,06,7.60,321.99,M,-33.324,M,,*7A
2017-12-14 12:34:50 1513272890.224136: $GPRMC,173451,A,3946.9400,N,08404.9501,W,1.3692,184.197,141217,,*37
2017-12-14 12:34:50 1513272890.224199: $GPGSA,A,3,24,10,18,20,21,27,,,,,,,6.6,7.6,6.2*3D
2017-12-14 12:34:51 1513272891.559275: $GPGSV,3,1,12,24,53,097,26,10,47,307,23,18,75,358,20,20,28,102,23*78
2017-12-14 12:34:51 1513272891.559454: $GPGSV,3,2,12,21,55,184,23,27,17,282,16,32,27,243,04,08,07,316,10*77
2017-12-14 12:34:51 1513272891.559525: $GPGSV,3,3,12,15,31,055,16,14,09,235,00,13,02,051,00,120,07,103,00*41
2017-12-14 12:34:51 1513272891.673020: $GPZDA,173452.00,14,12,2017,00,00*62
2017-12-14 12:34:51 1513272891.673190: $GPGGA,173452,3946.9396,N,08404.9501,W,1,06,7.60,321.35,M,-33.324,M,,*77
2017-12-14 12:34:51 1513272891.673257: $GPRMC,173452,A,3946.9396,N,08404.9501,W,0.8359,148.778,141217,,*33
2017-12-14 12:34:51 1513272891.673318: $GPGSA,A,3,24,10,18,20,21,27,,,,,,,6.6,7.6,6.2*3D
2017-12-14 12:34:52 1513272892.209251: $GPZDA,173453.00,14,12,2017,00,00*63
2017-12-14 12:34:52 1513272892.209417: $GPGGA,173453,3946.9396,N,08404.9494,W,1,06,1.80,321.43,M,-33.324,M,,*72
2017-12-14 12:34:52 1513272892.209484: $GPRMC,173453,A,3946.9396,N,08404.9494,W,0.8011,119.090,141217,,*35
2017-12-14 12:34:52 1513272892.209547: $GPGSA,A,3,24,10,18,20,21,27,,,,,,,6.6,1.8,6.2*35
2017-12-14 12:34:53 1513272893.225649: $GPZDA,173454.00,14,12,2017,00,00*64
2017-12-14 12:34:53 1513272893.225818: $GPGGA,173454,3946.9399,N,08404.9493,W,1,06,1.80,320.67,M,-33.324,M,,*7A
2017-12-14 12:34:53 1513272893.225885: $GPRMC,173454,A,3946.9399,N,08404.9493,W,0.8054,68.645,141217,,*02
2017-12-14 12:34:53 1513272893.225946: $GPGSA,A,3,24,10,18,20,21,27,,,,,,,6.6,1.8,6.2*35
2017-12-14 12:34:54 1513272894.542887: $GPGSV,3,1,12,24,53,097,26,10,47,307,22,18,75,358,20,20,28,102,23*79
2017-12-14 12:34:54 1513272894.543051: $GPGSV,3,2,12,21,55,184,23,27,17,282,17,32,27,243,00,14,09,235,00*70
2017-12-14 12:34:54 1513272894.543123: $GPGSV,3,3,12,15,31,055,17,08,07,316,00,13,02,051,00,120,07,103,00*43
2017-12-14 12:34:54 1513272894.656494: $GPZDA,173455.00,14,12,2017,00,00*65
2017-12-14 12:34:54 1513272894.656663: $GPGGA,173455,3946.9399,N,08404.9486,W,1,07,1.80,320.75,M,-33.324,M,,*7D
2017-12-14 12:34:54 1513272894.656731: $GPRMC,173455,A,3946.9399,N,08404.9486,W,1.0298,74.382,141217,,*0F
2017-12-14 12:34:54 1513272894.656791: $GPGSA,A,3,24,10,18,20,21,27,15,,,,,,6.6,1.8,6.2*31
