2017-12-31 17:48:53 1514760533.843723: {"class":"VERSION","release":"3.16","rev":"3.16-4","proto_major":3,"proto_minor":11}
2017-12-31 17:48:53 1514760533.844044: {"class":"DEVICES","devices":[{"class":"DEVICE","path":"/dev/ttyUSB0","driver":"SiRF","activated":"2017-12-31T22:48:53.487Z","flags":1,"native":1,"bps":4800,"parity":"N","stopbits":1,"cycle":1.00}]}
2017-12-31 17:48:53 1514760533.844142: {"class":"WATCH","enable":true,"json":false,"nmea":true,"raw":0,"scaled":false,"timing":false,"split24":false,"pps":false}
2017-12-31 17:48:54 1514760534.674846: $GPGSV,3,1,12,22,30,220,45,23,45,309,43,09,12,312,43,03,38,243,44*77
2017-12-31 17:48:54 1514760534.675006: $GPGSV,3,2,12,16,70,192,44,29,09,037,35,14,23,129,30,31,35,067,40*7D
2017-12-31 17:48:54 1514760534.675071: $GPGSV,3,3,12,27,14,157,23,32,02,132,00,26,71,060,47,135,22,240,44*4D
2017-12-31 17:48:54 1514760534.787240: $GPZDA,224855.00,31,12,2017,00,00*6F
2017-12-31 17:48:54 1514760534.787384: $GPGGA,224855,3946.9570,N,08404.9857,W,2,11,0.60,304.63,M,-33.324,M,,*7B
2017-12-31 17:48:54 1514760534.787449: $GPRMC,224855,A,3946.9570,N,08404.9857,W,0.0000,0.000,311217,,*3C
2017-12-31 17:48:54 1514760534.787510: $GPGSA,A,3,22,23,9,3,16,29,14,31,27,26,135,,1.7,0.6,1.3*06
2017-12-31 17:48:55 1514760535.413863: $GPZDA,224856.00,31,12,2017,00,00*6C
2017-12-31 17:48:55 1514760535.414029: $GPGGA,224856,3946.9570,N,08404.9857,W,2,11,0.60,304.63,M,-33.324,M,,*78
2017-12-31 17:48:55 1514760535.414095: $GPRMC,224856,A,3946.9570,N,08404.9857,W,0.0000,0.000,311217,,*3F
2017-12-31 17:48:55 1514760535.414155: $GPGSA,A,3,22,23,9,3,16,29,14,31,27,26,135,,1.7,0.6,1.3*06
2017-12-31 17:48:56 1514760536.371034: $GPZDA,224857.00,31,12,2017,00,00*6D
2017-12-31 17:48:56 1514760536.371201: $GPGGA,224857,3946.9570,N,08404.9857,W,2,11,0.60,304.63,M,-33.324,M,,*79
2017-12-31 17:48:56 1514760536.371268: $GPRMC,224857,A,3946.9570,N,08404.9857,W,0.0000,0.000,311217,,*3E
2017-12-31 17:48:56 1514760536.371329: $GPGSA,A,3,22,23,9,3,16,29,14,31,27,26,135,,1.7,0.6,1.3*06
2017-12-31 17:48:57 1514760537.681428: $GPGSV,3,1,12,22,30,220,46,23,45,309,44,09,12,312,44,03,38,243,44*74
2017-12-31 17:48:57 1514760537.681604: $GPGSV,3,2,12,16,70,192,44,29,09,037,35,14,23,129,29,31,35,067,39*7B
2017-12-31 17:48:57 1514760537.681670: $GPGSV,3,3,12,27,14,157,23,32,02,132,00,26,71,060,46,135,22,240,44*4C
2017-12-31 17:48:57 1514760537.795052: $GPZDA,224858.00,31,12,2017,00,00*62
2017-12-31 17:48:57 1514760537.795195: $GPGGA,224858,3946.9570,N,08404.9857,W,2,11,0.60,304.63,M,-33.324,M,,*76
2017-12-31 17:48:57 1514760537.795282: $GPRMC,224858,A,3946.9570,N,08404.9857,W,0.0000,0.000,311217,,*31
2017-12-31 17:48:57 1514760537.795345: $GPGSA,A,3,22,23,9,3,16,29,14,31,27,26,135,,1.7,0.6,1.3*06
2017-12-31 17:48:58 1514760538.345972: $GPZDA,224859.00,31,12,2017,00,00*63
2017-12-31 17:48:58 1514760538.346141: $GPGGA,224859,3946.9570,N,08404.9857,W,2,11,0.60,304.63,M,-33.324,M,,*77
2017-12-31 17:48:58 1514760538.346207: $GPRMC,224859,A,3946.9570,N,08404.9857,W,0.0000,0.000,311217,,*30
2017-12-31 17:48:58 1514760538.346268: $GPGSA,A,3,22,23,9,3,16,29,14,31,27,26,135,,1.7,0.6,1.3*06
2017-12-31 17:48:59 1514760539.371835: $GPZDA,224900.00,31,12,2017,00,00*6E
2017-12-31 17:48:59 1514760539.372004: $GPGGA,224900,3946.9570,N,08404.9857,W,2,11,0.60,304.63,M,-33.324,M,,*7A
2017-12-31 17:48:59 1514760539.372069: $GPRMC,224900,A,3946.9570,N,08404.9857,W,0.0000,0.000,311217,,*3D
2017-12-31 17:48:59 1514760539.372130: $GPGSA,A,3,22,23,9,3,16,29,14,31,27,26,135,,1.7,0.6,1.3*06
2017-12-31 17:49:00 1514760540.675532: $GPGSV,3,1,12,22,30,220,45,23,45,309,43,09,12,312,44,03,38,243,45*71
2017-12-31 17:49:00 1514760540.675701: $GPGSV,3,2,12,16,70,192,44,29,09,037,34,14,23,129,30,31,35,067,41*7D
2017-12-31 17:49:00 1514760540.675767: $GPGSV,3,3,12,27,14,157,24,32,02,132,00,26,71,060,46,135,22,240,43*4C
2017-12-31 17:49:00 1514760540.787951: $GPZDA,224901.00,31,12,2017,00,00*6F
2017-12-31 17:49:00 1514760540.788079: $GPGGA,224901,3946.9570,N,08404.9857,W,2,11,0.60,304.63,M,-33.324,M,,*7B
2017-12-31 17:49:00 1514760540.788144: $GPRMC,224901,A,3946.9570,N,08404.9857,W,0.0000,0.000,311217,,*3C
2017-12-31 17:49:00 1514760540.788259: $GPGSA,A,3,22,23,9,3,16,29,14,31,27,26,135,,1.7,0.6,1.3*06
2017-12-31 17:49:01 1514760541.372565: $GPZDA,224902.00,31,12,2017,00,00*6C
2017-12-31 17:49:01 1514760541.372746: $GPGGA,224902,3946.9570,N,08404.9857,W,2,11,0.60,304.63,M,-33.324,M,,*78
2017-12-31 17:49:01 1514760541.372813: $GPRMC,224902,A,3946.9570,N,08404.9857,W,0.0000,0.000,311217,,*3F
2017-12-31 17:49:01 1514760541.372875: $GPGSA,A,3,22,23,9,3,16,29,14,31,27,26,135,,1.7,0.6,1.3*06
2017-12-31 17:49:02 1514760542.339709: $GPZDA,224903.00,31,12,2017,00,00*6D
2017-12-31 17:49:02 1514760542.339873: $GPGGA,224903,3946.9570,N,08404.9857,W,2,11,0.60,304.63,M,-33.324,M,,*79
2017-12-31 17:49:02 1514760542.339938: $GPRMC,224903,A,3946.9570,N,08404.9857,W,0.0000,0.000,311217,,*3E
2017-12-31 17:49:02 1514760542.339999: $GPGSA,A,3,22,23,9,3,16,29,14,31,27,26,135,,1.7,0.6,1.3*06
2017-12-31 17:49:03 1514760543.706378: $GPGSV,3,1,12,22,30,220,45,23,45,309,43,09,12,312,44,03,38,243,44*70
2017-12-31 17:49:03 1514760543.706550: $GPGSV,3,2,12,16,70,192,44,29,09,037,34,14,23,129,30,31,35,067,41*7D
2017-12-31 17:49:03 1514760543.706617: $GPGSV,3,3,12,27,14,157,24,32,02,132,00,26,71,060,46,135,22,240,43*4C
2017-12-31 17:49:03 1514760543.820003: $GPZDA,224904.00,31,12,2017,00,00*6A
2017-12-31 17:49:03 1514760543.820151: $GPGGA,224904,3946.9570,N,08404.9857,W,2,11,0.60,304.63,M,-33.324,M,,*7E
2017-12-31 17:49:03 1514760543.820217: $GPRMC,224904,A,3946.9570,N,08404.9857,W,0.0000,0.000,311217,,*39
2017-12-31 17:49:03 1514760543.820277: $GPGSA,A,3,22,23,9,3,16,29,14,31,27,26,135,,1.7,0.6,1.3*06
