2018-01-11 20:15:44 1515719744.466016: {"class":"VERSION","release":"3.16","rev":"3.16-4","proto_major":3,"proto_minor":11}
2018-01-11 20:15:44 1515719744.466360: {"class":"DEVICES","devices":[{"class":"DEVICE","path":"/dev/ttyUSB0","driver":"SiRF","subtype":"9\u0006GSD4e_4.1.2-P1_RPATCH.05-F-GPS-4R-1510281 11/03/2015 307","activated":"2018-01-12T01:15:44.236Z","flags":1,"native":1,"bps":4800,"parity":"N","stopbits":1,"cycle":1.00}]}
2018-01-11 20:15:44 1515719744.466476: {"class":"WATCH","enable":true,"json":false,"nmea":true,"raw":0,"scaled":false,"timing":false,"split24":false,"pps":false}
2018-01-11 20:15:44 1515719744.684745: $GPGSV,3,1,10,07,57,315,43,08,74,124,45,09,46,228,41,11,21,166,46*74
2018-01-11 20:15:44 1515719744.684945: $GPGSV,3,2,10,16,22,061,43,23,27,189,48,27,46,052,50,28,15,259,30*70
2018-01-11 20:15:44 1515719744.685015: $GPGSV,3,3,10,30,30,306,33,138,38,213,45*4D
2018-01-11 20:15:44 1515719744.798085: $GPZDA,011545.00,12,01,2018,00,00*6B
2018-01-11 20:15:44 1515719744.798224: $GPGGA,011545,3946.9600,N,08404.9863,W,2,10,0.80,294.78,M,-33.324,M,,*7D
2018-01-11 20:15:44 1515719744.798290: $GPRMC,011545,A,3946.9600,N,08404.9863,W,0.0000,0.000,120118,,*3B
2018-01-11 20:15:44 1515719744.798351: $GPGSA,A,3,7,8,9,11,16,23,27,28,30,138,,,4.0,0.8,3.5*3E
2018-01-11 20:15:45 1515719745.350282: $GPZDA,011546.00,12,01,2018,00,00*68
2018-01-11 20:15:45 1515719745.350450: $GPGGA,011546,3946.9600,N,08404.9863,W,2,10,0.80,294.78,M,-33.324,M,,*7E
2018-01-11 20:15:45 1515719745.350517: $GPRMC,011546,A,3946.9600,N,08404.9863,W,0.0000,0.000,120118,,*38
2018-01-11 20:15:45 1515719745.350579: $GPGSA,A,3,7,8,9,11,16,23,27,28,30,138,,,4.0,0.8,3.5*3E
2018-01-11 20:15:46 1515719746.348648: $GPZDA,011547.00,12,01,2018,00,00*69
2018-01-11 20:15:46 1515719746.348846: $GPGGA,011547,3946.9600,N,08404.9863,W,2,10,0.80,294.78,M,-33.324,M,,*7F
2018-01-11 20:15:46 1515719746.348916: $GPRMC,011547,A,3946.9600,N,08404.9863,W,0.0000,0.000,120118,,*39
2018-01-11 20:15:46 1515719746.348985: $GPGSA,A,3,7,8,9,11,16,23,27,28,30,138,,,4.0,0.8,3.5*3E
2018-01-11 20:15:47 1515719747.683850: $GPGSV,3,1,10,07,57,315,43,08,74,124,45,09,46,228,41,11,21,166,46*74
2018-01-11 20:15:47 1515719747.684011: $GPGSV,3,2,10,16,22,061,43,23,27,189,48,27,46,052,50,28,15,259,30*70
2018-01-11 20:15:47 1515719747.684081: $GPGSV,3,3,10,30,30,306,33,138,38,213,45*4D
2018-01-11 20:15:47 1515719747.797189: $GPZDA,011548.00,12,01,2018,00,00*66
2018-01-11 20:15:47 1515719747.797317: $GPGGA,011548,3946.9600,N,08404.9863,W,2,10,0.80,294.78,M,-33.324,M,,*70
2018-01-11 20:15:47 1515719747.797383: $GPRMC,011548,A,3946.9600,N,08404.9863,W,0.0000,0.000,120118,,*36
2018-01-11 20:15:47 1515719747.797447: $GPGSA,A,3,7,8,9,11,16,23,27,28,30,138,,,4.0,0.8,3.5*3E
2018-01-11 20:15:48 1515719748.365570: $GPZDA,011549.00,12,01,2018,00,00*67
2018-01-11 20:15:48 1515719748.365728: $GPGGA,011549,3946.9600,N,08404.9863,W,2,10,0.80,294.78,M,-33.324,M,,*71
2018-01-11 20:15:48 1515719748.365797: $GPRMC,011549,A,3946.9600,N,08404.9863,W,0.0000,0.000,120118,,*37
2018-01-11 20:15:48 1515719748.365862: $GPGSA,A,3,7,8,9,11,16,23,27,28,30,138,,,4.0,0.8,3.5*3E
2018-01-11 20:15:49 1515719749.366486: $GPZDA,011550.00,12,01,2018,00,00*6F
2018-01-11 20:15:49 1515719749.366650: $GPGGA,011550,3946.9600,N,08404.9863,W,2,10,0.80,294.78,M,-33.324,M,,*79
2018-01-11 20:15:49 1515719749.366720: $GPRMC,011550,A,3946.9600,N,08404.9863,W,0.0000,0.000,120118,,*3F
2018-01-11 20:15:49 1515719749.366785: $GPGSA,A,3,7,8,9,11,16,23,27,28,30,138,,,4.0,0.8,3.5*3E
2018-01-11 20:15:50 1515719750.684697: $GPGSV,3,1,10,07,57,315,43,08,74,124,45,09,46,228,41,11,21,166,46*74
2018-01-11 20:15:50 1515719750.684881: $GPGSV,3,2,10,16,22,061,43,23,27,189,48,27,46,052,51,28,15,259,30*71
2018-01-11 20:15:50 1515719750.684954: $GPGSV,3,3,10,30,30,306,32,138,38,213,44*4D
2018-01-11 20:15:50 1515719750.798060: $GPZDA,011551.00,12,01,2018,00,00*6E
2018-01-11 20:15:50 1515719750.798196: $GPGGA,011551,3946.9600,N,08404.9863,W,2,10,0.80,294.78,M,-33.324,M,,*78
2018-01-11 20:15:50 1515719750.798265: $GPRMC,011551,A,3946.9600,N,08404.9863,W,0.0000,0.000,120118,,*3E
2018-01-11 20:15:50 1515719750.798375: $GPGSA,A,3,7,8,9,11,16,23,27,28,30,138,,,4.0,0.8,3.5*3E
2018-01-11 20:15:51 1515719751.350213: $GPZDA,011552.00,12,01,2018,00,00*6D
2018-01-11 20:15:51 1515719751.350356: $GPGGA,011552,3946.9600,N,08404.9863,W,2,10,0.80,294.78,M,-33.324,M,,*7B
2018-01-11 20:15:51 1515719751.350423: $GPRMC,011552,A,3946.9600,N,08404.9863,W,0.0000,0.000,120118,,*3D
2018-01-11 20:15:51 1515719751.350482: $GPGSA,A,3,7,8,9,11,16,23,27,28,30,138,,,4.0,0.8,3.5*3E
2018-01-11 20:15:52 1515719752.349380: $GPZDA,011553.00,12,01,2018,00,00*6C
2018-01-11 20:15:52 1515719752.349547: $GPGGA,011553,3946.9600,N,08404.9863,W,2,10,0.80,294.78,M,-33.324,M,,*7A
2018-01-11 20:15:52 1515719752.349617: $GPRMC,011553,A,3946.9600,N,08404.9863,W,0.0000,0.000,120118,,*3C
2018-01-11 20:15:52 1515719752.349682: $GPGSA,A,3,7,8,9,11,16,23,27,28,30,138,,,4.0,0.8,3.5*3E
2018-01-11 20:15:53 1515719753.685052: $GPGSV,3,1,10,07,57,315,44,08,74,124,45,09,46,228,42,11,21,166,46*70
2018-01-11 20:15:53 1515719753.685233: $GPGSV,3,2,10,16,22,061,43,23,27,189,48,27,46,052,50,28,15,259,30*70
2018-01-11 20:15:53 1515719753.685303: $GPGSV,3,3,10,30,30,306,32,138,38,213,45*4C
2018-01-11 20:15:53 1515719753.798388: $GPZDA,011554.00,12,01,2018,00,00*6B
2018-01-11 20:15:53 1515719753.802894: $GPGGA,011554,3946.9600,N,08404.9863,W,2,10,0.80,294.78,M,-33.324,M,,*7D
2018-01-11 20:15:53 1515719753.803003: $GPRMC,011554,A,3946.9600,N,08404.9863,W,0.0000,0.000,120118,,*3B
2018-01-11 20:15:53 1515719753.803069: $GPGSA,A,3,7,8,9,11,16,23,27,28,30,138,,,4.0,0.8,3.5*3E
2018-01-11 20:15:54 1515719754.348051: $GPZDA,011555.00,12,01,2018,00,00*6A
2018-01-11 20:15:54 1515719754.348213: $GPGGA,011555,3946.9600,N,08404.9863,W,2,10,0.80,294.78,M,-33.324,M,,*7C
2018-01-11 20:15:54 1515719754.348283: $GPRMC,011555,A,3946.9600,N,08404.9863,W,0.0000,0.000,120118,,*3A
2018-01-11 20:15:54 1515719754.348347: $GPGSA,A,3,7,8,9,11,16,23,27,28,30,138,,,4.0,0.8,3.5*3E
2018-01-11 20:15:55 1515719755.350238: $GPZDA,011556.00,12,01,2018,00,00*69
2018-01-11 20:15:55 1515719755.350416: $GPGGA,011556,3946.9600,N,08404.9863,W,2,10,0.80,294.78,M,-33.324,M,,*7F
2018-01-11 20:15:55 1515719755.350487: $GPRMC,011556,A,3946.9600,N,08404.9863,W,0.0000,0.000,120118,,*39
2018-01-11 20:15:55 1515719755.350551: $GPGSA,A,3,7,8,9,11,16,23,27,28,30,138,,,4.0,0.8,3.5*3E
