2017-12-31 16:43:32 1514756612.420148: {"class":"VERSION","release":"3.16","rev":"3.16-4","proto_major":3,"proto_minor":11}
2017-12-31 16:43:32 1514756612.420604: {"class":"DEVICES","devices":[{"class":"DEVICE","path":"/dev/ttyUSB0","driver":"SiRF","activated":"2017-12-31T21:43:32.378Z","flags":1,"native":1,"bps":4800,"parity":"N","stopbits":1,"cycle":1.00}]}
2017-12-31 16:43:32 1514756612.420703: {"class":"WATCH","enable":true,"json":false,"nmea":true,"raw":0,"scaled":false,"timing":false,"split24":false,"pps":false}
2017-12-31 16:43:33 1514756613.698115: $GPGSV,3,1,11,22,49,253,42,23,20,304,39,25,09,039,37,03,45,285,32*76
2017-12-31 16:43:33 1514756613.698320: $GPGSV,3,2,11,16,35,189,48,29,13,064,29,31,57,042,51,14,48,105,46*78
2017-12-31 16:43:33 1514756613.698387: $GPGSV,3,3,11,32,26,115,41,26,66,162,41,135,22,240,42*7F
2017-12-31 16:43:33 1514756613.811565: $GPZDA,214334.00,31,12,2017,00,00*60
2017-12-31 16:43:33 1514756613.811721: $GPGGA,214334,3946.9576,N,08404.9841,W,2,11,0.80,303.26,M,-33.324,M,,*7D
2017-12-31 16:43:33 1514756613.811787: $GPRMC,214334,A,3946.9576,N,08404.9841,W,0.0000,0.000,311217,,*32
2017-12-31 16:43:33 1514756613.811865: $GPGSA,A,3,22,23,25,3,16,29,31,14,32,26,135,,1.7,0.8,1.3*32
2017-12-31 16:43:34 1514756614.363707: $GPZDA,214335.00,31,12,2017,00,00*61
2017-12-31 16:43:34 1514756614.363891: $GPGGA,214335,3946.9576,N,08404.9841,W,2,11,0.80,303.26,M,-33.324,M,,*7C
2017-12-31 16:43:34 1514756614.363957: $GPRMC,214335,A,3946.9576,N,08404.9841,W,0.0000,0.000,311217,,*33
2017-12-31 16:43:34 1514756614.364018: $GPGSA,A,3,22,23,25,3,16,29,31,14,32,26,135,,1.7,0.8,1.3*32
2017-12-31 16:43:35 1514756615.346571: $GPZDA,214336.00,31,12,2017,00,00*62
2017-12-31 16:43:35 1514756615.346732: $GPGGA,214336,3946.9576,N,08404.9841,W,2,11,0.80,303.26,M,-33.324,M,,*7F
2017-12-31 16:43:35 1514756615.346798: $GPRMC,214336,A,3946.9576,N,08404.9841,W,0.0000,0.000,311217,,*30
2017-12-31 16:43:35 1514756615.346858: $GPGSA,A,3,22,23,25,3,16,29,31,14,32,26,135,,1.7,0.8,1.3*32
2017-12-31 16:43:36 1514756616.682184: $GPGSV,3,1,11,22,49,253,42,23,20,304,39,25,09,039,37,03,45,285,33*77
2017-12-31 16:43:36 1514756616.682387: $GPGSV,3,2,11,16,35,189,48,29,13,064,30,31,57,042,51,14,48,105,47*71
2017-12-31 16:43:36 1514756616.682455: $GPGSV,3,3,11,32,26,115,41,26,66,162,41,135,22,240,43*7E
2017-12-31 16:43:36 1514756616.795667: $GPZDA,214337.00,31,12,2017,00,00*63
2017-12-31 16:43:36 1514756616.795797: $GPGGA,214337,3946.9576,N,08404.9841,W,2,11,0.80,303.26,M,-33.324,M,,*7E
2017-12-31 16:43:36 1514756616.795863: $GPRMC,214337,A,3946.9576,N,08404.9841,W,0.0000,0.000,311217,,*31
2017-12-31 16:43:36 1514756616.795924: $GPGSA,A,3,22,23,25,3,16,29,31,14,32,26,135,,1.7,0.8,1.3*32
2017-12-31 16:43:37 1514756617.347777: $GPZDA,214338.00,31,12,2017,00,00*6C
2017-12-31 16:43:37 1514756617.347938: $GPGGA,214338,3946.9576,N,08404.9841,W,2,11,0.80,303.26,M,-33.324,M,,*71
2017-12-31 16:43:37 1514756617.348005: $GPRMC,214338,A,3946.9576,N,08404.9841,W,0.0000,0.000,311217,,*3E
2017-12-31 16:43:37 1514756617.348065: $GPGSA,A,3,22,23,25,3,16,29,31,14,32,26,135,,1.7,0.8,1.3*32
2017-12-31 16:43:38 1514756618.344839: $GPZDA,214339.00,31,12,2017,00,00*6D
2017-12-31 16:43:38 1514756618.345003: $GPGGA,214339,3946.9576,N,08404.9841,W,2,11,0.80,303.26,M,-33.324,M,,*70
2017-12-31 16:43:38 1514756618.345070: $GPRMC,214339,A,3946.9576,N,08404.9841,W,0.0000,0.000,311217,,*3F
2017-12-31 16:43:38 1514756618.345131: $GPGSA,A,3,22,23,25,3,16,29,31,14,32,26,135,,1.7,0.8,1.3*32
2017-12-31 16:43:39 1514756619.683018: $GPGSV,3,1,11,22,49,253,42,23,20,304,38,25,09,039,38,03,45,285,32*78
2017-12-31 16:43:39 1514756619.683222: $GPGSV,3,2,11,16,35,189,48,29,13,064,30,31,57,042,51,14,48,105,47*71
2017-12-31 16:43:39 1514756619.683291: $GPGSV,3,3,11,32,26,115,42,26,66,162,41,135,22,240,43*7D
2017-12-31 16:43:39 1514756619.796491: $GPZDA,214340.00,31,12,2017,00,00*63
2017-12-31 16:43:39 1514756619.796622: $GPGGA,214340,3946.9576,N,08404.9841,W,2,11,0.80,303.26,M,-33.324,M,,*7E
2017-12-31 16:43:39 1514756619.796688: $GPRMC,214340,A,3946.9576,N,08404.9841,W,0.0000,0.000,311217,,*31
2017-12-31 16:43:39 1514756619.796794: $GPGSA,A,3,22,23,25,3,16,29,31,14,32,26,135,,1.7,0.8,1.3*32
2017-12-31 16:43:40 1514756620.421809: $GPZDA,214341.00,31,12,2017,00,00*62
2017-12-31 16:43:40 1514756620.421972: $GPGGA,214341,3946.9576,N,08404.9841,W,2,11,0.80,303.26,M,-33.324,M,,*7F
2017-12-31 16:43:40 1514756620.422039: $GPRMC,214341,A,3946.9576,N,08404.9841,W,0.0000,0.000,311217,,*30
2017-12-31 16:43:40 1514756620.422100: $GPGSA,A,3,22,23,25,3,16,29,31,14,32,26,135,,1.7,0.8,1.3*32
2017-12-31 16:43:41 1514756621.346512: $GPZDA,214342.00,31,12,2017,00,00*61
2017-12-31 16:43:41 1514756621.346667: $GPGGA,214342,3946.9576,N,08404.9841,W,2,11,0.80,303.26,M,-33.324,M,,*7C
2017-12-31 16:43:41 1514756621.346733: $GPRMC,214342,A,3946.9576,N,08404.9841,W,0.0000,0.000,311217,,*33
2017-12-31 16:43:41 1514756621.346793: $GPGSA,A,3,22,23,25,3,16,29,31,14,32,26,135,,1.7,0.8,1.3*32
