2017-12-01 14:05:41 1512155141.217908: {"class":"VERSION","release":"3.16","rev":"3.16-4","proto_major":3,"proto_minor":11}
2017-12-01 14:05:41 1512155141.218375: {"class":"DEVICES","devices":[{"class":"DEVICE","path":"/dev/ttyUSB0","driver":"SiRF","subtype":"9\u0006GSD4e_4.1.2-P1_RPATCH.05-F-GPS-4R-1510281 11/03/2015 307","activated":"2017-12-01T19:05:41.158Z","flags":1,"native":1,"bps":4800,"parity":"N","stopbits":1,"cycle":1.00}]}
2017-12-01 14:05:41 1512155141.218514: {"class":"WATCH","enable":true,"json":false,"nmea":true,"raw":0,"scaled":false,"timing":false,"split24":false,"pps":false}
2017-12-01 14:05:41 1512155141.336343: $GPZDA,190542.00,01,12,2017,00,00*6B
2017-12-01 14:05:41 1512155141.336504: $GPGGA,190542,3946.9561,N,08404.9830,W,2,12,0.80,306.47,M,-33.324,M,,*74
2017-12-01 14:05:41 1512155141.336571: $GPRMC,190542,A,3946.9561,N,08404.9830,W,0.0000,0.000,011217,,*39
2017-12-01 14:05:41 1512155141.336633: $GPGSA,A,3,10,14,15,18,20,21,24,27,32,8,12,138,2.0,0.8,1.5*37
2017-12-01 14:05:42 1512155142.694345: $GPGSV,3,1,12,10,62,321,49,14,23,247,41,15,17,063,38,18,75,069,43*7F
2017-12-01 14:05:42 1512155142.694532: $GPGSV,3,2,12,20,15,112,33,21,37,180,44,24,50,069,48,27,11,267,41*72
2017-12-01 14:05:42 1512155142.694599: $GPGSV,3,3,12,32,40,256,44,08,07,301,36,12,04,114,23,138,38,213,47*46
2017-12-01 14:05:42 1512155142.807870: $GPZDA,190543.00,01,12,2017,00,00*6A
2017-12-01 14:05:42 1512155142.808054: $GPGGA,190543,3946.9561,N,08404.9830,W,2,12,0.80,306.47,M,-33.324,M,,*75
2017-12-01 14:05:42 1512155142.808122: $GPRMC,190543,A,3946.9561,N,08404.9830,W,0.0000,0.000,011217,,*38
2017-12-01 14:05:42 1512155142.808183: $GPGSA,A,3,10,14,15,18,20,21,24,27,32,8,12,138,2.0,0.8,1.5*37
2017-12-01 14:05:43 1512155143.433085: $GPZDA,190544.00,01,12,2017,00,00*6D
2017-12-01 14:05:43 1512155143.433265: $GPGGA,190544,3946.9561,N,08404.9830,W,2,12,0.80,306.47,M,-33.324,M,,*72
2017-12-01 14:05:43 1512155143.433332: $GPRMC,190544,A,3946.9561,N,08404.9830,W,0.0000,0.000,011217,,*3F
2017-12-01 14:05:43 1512155143.433395: $GPGSA,A,3,10,14,15,18,20,21,24,27,32,8,12,138,2.0,0.8,1.5*37
2017-12-01 14:05:44 1512155144.337694: $GPZDA,190545.00,01,12,2017,00,00*6C
2017-12-01 14:05:44 1512155144.337858: $GPGGA,190545,3946.9561,N,08404.9830,W,2,12,0.80,306.47,M,-33.324,M,,*73
2017-12-01 14:05:44 1512155144.337928: $GPRMC,190545,A,3946.9561,N,08404.9830,W,0.0000,0.000,011217,,*3E
2017-12-01 14:05:44 1512155144.337991: $GPGSA,A,3,10,14,15,18,20,21,24,27,32,8,12,138,2.0,0.8,1.5*37
2017-12-01 14:05:45 1512155145.672227: $GPGSV,3,1,12,10,62,321,49,14,23,247,41,15,17,063,37,18,75,069,43*70
2017-12-01 14:05:45 1512155145.672409: $GPGSV,3,2,12,20,15,112,33,21,37,180,44,24,50,069,48,27,11,267,41*72
2017-12-01 14:05:45 1512155145.672476: $GPGSV,3,3,12,32,40,256,44,08,07,301,32,12,04,114,00,138,38,213,47*43
2017-12-01 14:05:45 1512155145.785547: $GPZDA,190546.00,01,12,2017,00,00*6F
2017-12-01 14:05:45 1512155145.785708: $GPGGA,190546,3946.9561,N,08404.9830,W,2,11,0.80,306.47,M,-33.324,M,,*73
2017-12-01 14:05:45 1512155145.785774: $GPRMC,190546,A,3946.9561,N,08404.9830,W,0.0000,0.000,011217,,*3D
2017-12-01 14:05:45 1512155145.785835: $GPGSA,A,3,10,14,15,18,20,21,24,27,32,8,138,,2.0,0.8,1.5*34
2017-12-01 14:05:46 1512155146.336618: $GPZDA,190547.00,01,12,2017,00,00*6E
2017-12-01 14:05:46 1512155146.336796: $GPGGA,190547,3946.9561,N,08404.9830,W,2,11,0.80,306.47,M,-33.324,M,,*72
2017-12-01 14:05:46 1512155146.336866: $GPRMC,190547,A,3946.9561,N,08404.9830,W,0.0000,0.000,011217,,*3C
2017-12-01 14:05:46 1512155146.336931: $GPGSA,A,3,10,14,15,18,20,21,24,27,32,8,138,,2.0,0.8,1.5*34
2017-12-01 14:05:47 1512155147.338716: $GPZDA,190548.00,01,12,2017,00,00*61
2017-12-01 14:05:47 1512155147.342649: $GPGGA,190548,3946.9561,N,08404.9830,W,2,11,0.80,306.47,M,-33.324,M,,*7D
2017-12-01 14:05:47 1512155147.342777: $GPRMC,190548,A,3946.9561,N,08404.9830,W,0.0000,0.000,011217,,*33
2017-12-01 14:05:47 1512155147.342843: $GPGSA,A,3,10,14,15,18,20,21,24,27,32,8,138,,2.0,0.8,1.5*34
2017-12-01 14:05:48 1512155148.695165: $GPGSV,3,1,12,10,62,321,49,14,23,247,40,15,17,063,37,18,75,069,42*70
2017-12-01 14:05:48 1512155148.695398: $GPGSV,3,2,12,20,15,112,33,21,37,180,44,24,50,069,48,27,11,267,41*72
2017-12-01 14:05:48 1512155148.695469: $GPGSV,3,3,12,32,40,256,44,08,07,301,31,12,04,114,00,138,38,213,46*41
2017-12-01 14:05:48 1512155148.808829: $GPZDA,190549.00,01,12,2017,00,00*60
2017-12-01 14:05:48 1512155148.809011: $GPGGA,190549,3946.9561,N,08404.9830,W,2,11,0.80,306.47,M,-33.324,M,,*7C
2017-12-01 14:05:48 1512155148.809076: $GPRMC,190549,A,3946.9561,N,08404.9830,W,0.0000,0.000,011217,,*32
2017-12-01 14:05:48 1512155148.809140: $GPGSA,A,3,10,14,15,18,20,21,24,27,32,8,138,,2.0,0.8,1.5*34
2017-12-01 14:05:49 1512155149.338448: $GPZDA,190550.00,01,12,2017,00,00*68
2017-12-01 14:05:49 1512155149.338618: $GPGGA,190550,3946.9561,N,08404.9830,W,2,11,0.80,306.47,M,-33.324,M,,*74
2017-12-01 14:05:49 1512155149.338685: $GPRMC,190550,A,3946.9561,N,08404.9830,W,0.0000,0.000,011217,,*3A
2017-12-01 14:05:49 1512155149.338749: $GPGSA,A,3,10,14,15,18,20,21,24,27,32,8,138,,2.0,0.8,1.5*34
2017-12-01 14:05:50 1512155150.365614: $GPZDA,190551.00,01,12,2017,00,00*69
2017-12-01 14:05:50 1512155150.365785: $GPGGA,190551,3946.9561,N,08404.9830,W,2,11,0.80,306.47,M,-33.324,M,,*75
2017-12-01 14:05:50 1512155150.365852: $GPRMC,190551,A,3946.9561,N,08404.9830,W,0.0000,0.000,011217,,*3B
2017-12-01 14:05:50 1512155150.365916: $GPGSA,A,3,10,14,15,18,20,21,24,27,32,8,138,,2.0,0.8,1.5*34
2017-12-01 14:05:51 1512155151.673556: $GPGSV,3,1,12,10,62,321,49,14,23,247,41,15,17,063,37,18,75,069,43*70
2017-12-01 14:05:51 1512155151.673739: $GPGSV,3,2,12,20,15,112,33,21,37,180,43,24,50,069,48,27,11,267,42*76
2017-12-01 14:05:51 1512155151.673805: $GPGSV,3,3,12,32,40,256,44,08,07,301,23,12,04,114,00,138,38,213,47*43
2017-12-01 14:05:51 1512155151.787171: $GPZDA,190552.00,01,12,2017,00,00*6A
2017-12-01 14:05:51 1512155151.787343: $GPGGA,190552,3946.9561,N,08404.9830,W,2,11,0.80,306.47,M,-33.324,M,,*76
2017-12-01 14:05:51 1512155151.787410: $GPRMC,190552,A,3946.9561,N,08404.9830,W,0.0000,0.000,011217,,*38
2017-12-01 14:05:51 1512155151.787473: $GPGSA,A,3,10,14,15,18,20,21,24,27,32,8,138,,2.0,0.8,1.5*34
2017-12-01 14:05:52 1512155152.338022: $GPZDA,190553.00,01,12,2017,00,00*6B
2017-12-01 14:05:52 1512155152.339635: $GPGGA,190553,3946.9561,N,08404.9830,W,2,11,0.80,306.47,M,-33.324,M,,*77
2017-12-01 14:05:52 1512155152.339747: $GPRMC,190553,A,3946.9561,N,08404.9830,W,0.0000,0.000,011217,,*39
2017-12-01 14:05:52 1512155152.339811: $GPGSA,A,3,10,14,15,18,20,21,24,27,32,8,138,,2.0,0.8,1.5*34
2017-12-01 14:05:53 1512155153.367111: $GPZDA,190554.00,01,12,2017,00,00*6C
2017-12-01 14:05:53 1512155153.367283: $GPGGA,190554,3946.9561,N,08404.9830,W,2,11,0.80,306.47,M,-33.324,M,,*70
2017-12-01 14:05:53 1512155153.367351: $GPRMC,190554,A,3946.9561,N,08404.9830,W,0.0000,0.000,011217,,*3E
2017-12-01 14:05:53 1512155153.367412: $GPGSA,A,3,10,14,15,18,20,21,24,27,32,8,138,,2.0,0.8,1.5*34
2017-12-01 14:05:54 1512155154.672558: $GPGSV,3,1,12,10,62,321,49,14,23,247,41,15,17,063,36,18,75,069,43*71
2017-12-01 14:05:54 1512155154.672755: $GPGSV,3,2,12,20,15,112,33,21,37,180,44,24,50,069,48,27,11,267,42*71
2017-12-01 14:05:54 1512155154.672822: $GPGSV,3,3,12,32,40,256,44,08,07,301,23,12,04,114,17,138,38,213,47*45
2017-12-01 14:05:54 1512155154.786267: $GPZDA,190555.00,01,12,2017,00,00*6D
2017-12-01 14:05:54 1512155154.786437: $GPGGA,190555,3946.9561,N,08404.9830,W,2,12,0.80,306.47,M,-33.324,M,,*72
2017-12-01 14:05:54 1512155154.786503: $GPRMC,190555,A,3946.9561,N,08404.9830,W,0.0000,0.000,011217,,*3F
2017-12-01 14:05:54 1512155154.786564: $GPGSA,A,3,10,14,15,18,20,21,24,27,32,8,12,138,2.0,0.8,1.5*37
2017-12-01 14:05:55 1512155155.367121: $GPZDA,190556.00,01,12,2017,00,00*6E
2017-12-01 14:05:55 1512155155.367289: $GPGGA,190556,3946.9558,N,08404.9831,W,2,12,0.80,307.24,M,-33.324,M,,*7E
2017-12-01 14:05:55 1512155155.367357: $GPRMC,190556,A,3946.9558,N,08404.9831,W,0.0000,0.000,011217,,*37
2017-12-01 14:05:55 1512155155.367417: $GPGSA,A,3,10,14,15,18,20,21,24,27,32,8,12,138,2.0,0.8,1.5*37
