2017-12-01 11:31:45 1512145905.843754: {"class":"VERSION","release":"3.16","rev":"3.16-4","proto_major":3,"proto_minor":11}
2017-12-01 11:31:45 1512145905.844126: {"class":"DEVICES","devices":[{"class":"DEVICE","path":"/dev/ttyUSB0","driver":"SiRF","subtype":"9\u0006GSD4e_4.1.2-P1_RPATCH.05-F-GPS-4R-1510281 11/03/2015 307","activated":"2017-12-01T16:31:45.821Z","flags":1,"native":1,"bps":4800,"parity":"N","stopbits":1,"cycle":1.00}]}
2017-12-01 11:31:45 1512145905.844246: {"class":"WATCH","enable":true,"json":false,"nmea":true,"raw":0,"scaled":false,"timing":false,"split24":false,"pps":false}
2017-12-01 11:31:46 1512145906.356169: $GPZDA,163147.00,01,12,2017,00,00*66
2017-12-01 11:31:46 1512145906.356323: $GPGGA,163147,3946.9562,N,08404.9858,W,2,11,0.80,304.75,M,-33.324,M,,*74
2017-12-01 11:31:46 1512145906.356390: $GPRMC,163147,A,3946.9562,N,08404.9858,W,0.0000,0.000,011217,,*39
2017-12-01 11:31:46 1512145906.356452: $GPGSA,A,3,5,10,13,15,18,20,21,24,27,29,138,,2.0,0.8,1.5*34
2017-12-01 11:31:47 1512145907.355832: $GPZDA,163148.00,01,12,2017,00,00*69
2017-12-01 11:31:47 1512145907.356002: $GPGGA,163148,3946.9562,N,08404.9858,W,2,11,0.80,304.75,M,-33.324,M,,*7B
2017-12-01 11:31:47 1512145907.356068: $GPRMC,163148,A,3946.9562,N,08404.9858,W,0.0000,0.000,011217,,*36
2017-12-01 11:31:47 1512145907.356130: $GPGSA,A,3,5,10,13,15,18,20,21,24,27,29,138,,2.0,0.8,1.5*34
2017-12-01 11:31:48 1512145908.686196: $GPGSV,3,1,12,05,18,073,39,10,09,268,40,13,48,054,47,15,78,097,48*7F
2017-12-01 11:31:48 1512145908.686393: $GPGSV,3,2,12,18,40,280,43,20,66,040,43,21,62,309,47,24,15,151,41*76
2017-12-01 11:31:48 1512145908.686461: $GPGSV,3,3,12,27,05,327,34,29,30,196,46,30,01,030,12,138,38,213,46*4E
2017-12-01 11:31:48 1512145908.799618: $GPZDA,163149.00,01,12,2017,00,00*68
2017-12-01 11:31:48 1512145908.799785: $GPGGA,163149,3946.9562,N,08404.9858,W,2,12,0.80,304.75,M,-33.324,M,,*79
2017-12-01 11:31:48 1512145908.799851: $GPRMC,163149,A,3946.9562,N,08404.9858,W,0.0000,0.000,011217,,*37
2017-12-01 11:31:48 1512145908.799912: $GPGSA,A,3,5,10,13,15,18,20,21,24,27,29,30,138,2.0,0.8,1.5*37
2017-12-01 11:31:49 1512145909.357971: $GPZDA,163150.00,01,12,2017,00,00*60
2017-12-01 11:31:49 1512145909.358151: $GPGGA,163150,3946.9562,N,08404.9858,W,2,12,0.80,304.75,M,-33.324,M,,*71
2017-12-01 11:31:49 1512145909.358217: $GPRMC,163150,A,3946.9562,N,08404.9858,W,0.0000,0.000,011217,,*3F
2017-12-01 11:31:49 1512145909.358277: $GPGSA,A,3,5,10,13,15,18,20,21,24,27,29,30,138,2.0,0.8,1.5*37
2017-12-01 11:31:50 1512145910.377291: $GPZDA,163151.00,01,12,2017,00,00*61
2017-12-01 11:31:50 1512145910.377495: $GPGGA,163151,3946.9562,N,08404.9858,W,2,12,0.80,304.75,M,-33.324,M,,*70
2017-12-01 11:31:50 1512145910.377563: $GPRMC,163151,A,3946.9562,N,08404.9858,W,0.0000,0.000,011217,,*3E
2017-12-01 11:31:50 1512145910.377624: $GPGSA,A,3,5,10,13,15,18,20,21,24,27,29,30,138,2.0,0.8,1.5*37
2017-12-01 11:31:51 1512145911.690405: $GPGSV,3,1,12,05,18,073,39,10,09,268,41,13,48,054,47,15,78,097,48*7E
2017-12-01 11:31:51 1512145911.690573: $GPGSV,3,2,12,18,40,280,43,20,66,040,43,21,62,309,46,24,15,151,41*77
2017-12-01 11:31:51 1512145911.690640: $GPGSV,3,3,12,27,05,327,34,29,30,196,47,30,01,030,14,138,38,213,45*4A
2017-12-01 11:31:51 1512145911.804036: $GPZDA,163152.00,01,12,2017,00,00*62
2017-12-01 11:31:51 1512145911.804210: $GPGGA,163152,3946.9562,N,08404.9858,W,2,12,0.80,304.75,M,-33.324,M,,*73
2017-12-01 11:31:51 1512145911.804277: $GPRMC,163152,A,3946.9562,N,08404.9858,W,0.0000,0.000,011217,,*3D
2017-12-01 11:31:51 1512145911.804337: $GPGSA,A,3,5,10,13,15,18,20,21,24,27,29,30,138,2.0,0.8,1.5*37
2017-12-01 11:31:52 1512145912.356673: $GPZDA,163153.00,01,12,2017,00,00*63
2017-12-01 11:31:52 1512145912.356840: $GPGGA,163153,3946.9562,N,08404.9858,W,2,12,0.80,304.75,M,-33.324,M,,*72
2017-12-01 11:31:52 1512145912.356908: $GPRMC,163153,A,3946.9562,N,08404.9858,W,0.0000,0.000,011217,,*3C
2017-12-01 11:31:52 1512145912.356970: $GPGSA,A,3,5,10,13,15,18,20,21,24,27,29,30,138,2.0,0.8,1.5*37
2017-12-01 11:31:53 1512145913.372082: $GPZDA,163154.00,01,12,2017,00,00*64
2017-12-01 11:31:53 1512145913.372307: $GPGGA,163154,3946.9559,N,08404.9858,W,2,12,0.80,305.52,M,-33.324,M,,*79
2017-12-01 11:31:53 1512145913.372379: $GPRMC,163154,A,3946.9559,N,08404.9858,W,0.0000,0.000,011217,,*33
2017-12-01 11:31:53 1512145913.372441: $GPGSA,A,3,5,10,13,15,18,20,21,24,27,29,30,138,2.0,0.8,1.5*37
2017-12-01 11:31:54 1512145914.707445: $GPGSV,3,1,12,05,18,073,39,10,09,268,42,13,48,054,47,15,78,097,48*7D
2017-12-01 11:31:54 1512145914.707627: $GPGSV,3,2,12,18,40,280,43,20,66,040,43,21,62,309,46,24,15,151,41*77
2017-12-01 11:31:54 1512145914.707694: $GPGSV,3,3,12,27,05,327,34,29,30,196,47,30,01,030,14,138,38,213,47*48
2017-12-01 11:31:54 1512145914.820899: $GPZDA,163155.00,01,12,2017,00,00*65
2017-12-01 11:31:54 1512145914.821077: $GPGGA,163155,3946.9559,N,08404.9858,W,2,12,0.80,305.52,M,-33.324,M,,*78
2017-12-01 11:31:54 1512145914.821144: $GPRMC,163155,A,3946.9559,N,08404.9858,W,0.0000,0.000,011217,,*32
2017-12-01 11:31:54 1512145914.821206: $GPGSA,A,3,5,10,13,15,18,20,21,24,27,29,30,138,2.0,0.8,1.5*37
2017-12-01 11:31:55 1512145915.447424: $GPZDA,163156.00,01,12,2017,00,00*66
2017-12-01 11:31:55 1512145915.447618: $GPGGA,163156,3946.9559,N,08404.9858,W,2,12,0.80,305.52,M,-33.324,M,,*7B
2017-12-01 11:31:55 1512145915.447688: $GPRMC,163156,A,3946.9559,N,08404.9858,W,0.0000,0.000,011217,,*31
2017-12-01 11:31:55 1512145915.447750: $GPGSA,A,3,5,10,13,15,18,20,21,24,27,29,30,138,2.0,0.8,1.5*37
