2017-11-16 17:18:55 1510870735.321345: {"class":"VERSION","release":"3.17","rev":"3.17","proto_major":3,"proto_minor":12}
2017-11-16 17:18:55 1510870735.321849: {"class":"DEVICES","devices":[{"class":"DEVICE","path":"/dev/ttyUSB0","driver":"SiRF","subtype":"9\u0006GSD4e_4.1.2-P1_RPATCH.05-F-GPS-4R-1510281 11/03/2015 307","activated":"2017-11-16T22:18:55.289Z","flags":1,"native":1,"bps":4800,"parity":"N","stopbits":1,"cycle":1.00}]}
2017-11-16 17:18:55 1510870735.321969: {"class":"WATCH","enable":true,"json":false,"nmea":true,"raw":0,"scaled":false,"timing":false,"split24":false,"pps":false}
2017-11-16 17:18:55 1510870735.401400: $GPZDA,221854.00,16,11,2017,00,00*6D
2017-11-16 17:18:55 1510870735.401562: $GPGGA,221854,3946.9571,N,08404.9825,W,2,12,0.80,310.64,M,-33.324,M,,*74
2017-11-16 17:18:55 1510870735.401623: $GPRMC,221854,A,3946.9571,N,08404.9825,W,0.0000,0.000,161117,,*3A
2017-11-16 17:18:55 1510870735.401679: $GPGSA,A,3,1,10,22,12,14,18,24,11,25,31,32,138,1.6,0.8,1.3*38
2017-11-16 17:18:56 1510870736.401960: $GPZDA,221855.00,16,11,2017,00,00*6C
2017-11-16 17:18:56 1510870736.402147: $GPGGA,221855,3946.9571,N,08404.9825,W,2,12,0.80,310.64,M,-33.324,M,,*75
2017-11-16 17:18:56 1510870736.402208: $GPRMC,221855,A,3946.9571,N,08404.9825,W,0.0000,0.000,161117,,*3B
2017-11-16 17:18:56 1510870736.402265: $GPGSA,A,3,1,10,22,12,14,18,24,11,25,31,32,138,1.6,0.8,1.3*38
2017-11-16 17:18:57 1510870737.737608: $GPGSV,3,1,12,01,20,306,36,10,54,145,49,22,14,312,28,12,24,055,49*71
2017-11-16 17:18:57 1510870737.737785: $GPGSV,3,2,12,14,63,316,48,18,24,142,42,24,02,048,14,11,10,288,41*76
2017-11-16 17:18:57 1510870737.737846: $GPGSV,3,3,12,25,38,097,47,31,49,220,49,32,70,010,49,138,38,213,44*42
2017-11-16 17:18:57 1510870737.851102: $GPZDA,221856.00,16,11,2017,00,00*6F
2017-11-16 17:18:57 1510870737.851282: $GPGGA,221856,3946.9571,N,08404.9825,W,2,12,0.80,310.64,M,-33.324,M,,*76
2017-11-16 17:18:57 1510870737.851345: $GPRMC,221856,A,3946.9571,N,08404.9825,W,0.0000,0.000,161117,,*38
2017-11-16 17:18:57 1510870737.851401: $GPGSA,A,3,1,10,22,12,14,18,24,11,25,31,32,138,1.6,0.8,1.3*38
2017-11-16 17:18:58 1510870738.402925: $GPZDA,221857.00,16,11,2017,00,00*6E
2017-11-16 17:18:58 1510870738.403093: $GPGGA,221857,3946.9571,N,08404.9825,W,2,12,0.80,310.64,M,-33.324,M,,*77
2017-11-16 17:18:58 1510870738.403155: $GPRMC,221857,A,3946.9571,N,08404.9825,W,0.0000,0.000,161117,,*39
2017-11-16 17:18:58 1510870738.403211: $GPGSA,A,3,1,10,22,12,14,18,24,11,25,31,32,138,1.6,0.8,1.3*38
2017-11-16 17:18:59 1510870739.401442: $GPZDA,221858.00,16,11,2017,00,00*61
2017-11-16 17:18:59 1510870739.401608: $GPGGA,221858,3946.9571,N,08404.9825,W,2,12,0.80,310.64,M,-33.324,M,,*78
2017-11-16 17:18:59 1510870739.401670: $GPRMC,221858,A,3946.9571,N,08404.9825,W,0.0000,0.000,161117,,*36
2017-11-16 17:18:59 1510870739.401726: $GPGSA,A,3,1,10,22,12,14,18,24,11,25,31,32,138,1.6,0.8,1.3*38
2017-11-16 17:19:00 1510870740.738480: $GPGSV,3,1,12,01,20,306,35,10,54,145,49,22,14,312,28,12,24,055,49*72
2017-11-16 17:19:00 1510870740.738648: $GPGSV,3,2,12,14,63,316,48,18,24,142,42,24,02,048,15,11,10,288,40*76
2017-11-16 17:19:00 1510870740.738708: $GPGSV,3,3,12,25,38,097,47,31,49,220,49,32,70,010,49,138,38,213,44*42
2017-11-16 17:19:00 1510870740.852123: $GPZDA,221859.00,16,11,2017,00,00*60
2017-11-16 17:19:00 1510870740.852329: $GPGGA,221859,3946.9571,N,08404.9825,W,2,12,0.80,310.64,M,-33.324,M,,*79
2017-11-16 17:19:00 1510870740.852391: $GPRMC,221859,A,3946.9571,N,08404.9825,W,0.0000,0.000,161117,,*37
2017-11-16 17:19:00 1510870740.852447: $GPGSA,A,3,1,10,22,12,14,18,24,11,25,31,32,138,1.6,0.8,1.3*38
2017-11-16 17:19:01 1510870741.477225: $GPZDA,221900.00,16,11,2017,00,00*6D
2017-11-16 17:19:01 1510870741.477394: $GPGGA,221900,3946.9571,N,08404.9825,W,2,12,0.80,310.64,M,-33.324,M,,*74
2017-11-16 17:19:01 1510870741.477458: $GPRMC,221900,A,3946.9571,N,08404.9825,W,0.0000,0.000,161117,,*3A
2017-11-16 17:19:01 1510870741.477514: $GPGSA,A,3,1,10,22,12,14,18,24,11,25,31,32,138,1.6,0.8,1.3*38
2017-11-16 17:19:02 1510870742.396158: $GPZDA,221901.00,16,11,2017,00,00*6C
2017-11-16 17:19:02 1510870742.396391: $GPGGA,221901,3946.9571,N,08404.9825,W,2,12,0.80,310.64,M,-33.324,M,,*75
2017-11-16 17:19:02 1510870742.396457: $GPRMC,221901,A,3946.9571,N,08404.9825,W,0.0000,0.000,161117,,*3B
2017-11-16 17:19:02 1510870742.396514: $GPGSA,A,3,1,10,22,12,14,18,24,11,25,31,32,138,1.6,0.8,1.3*38
2017-11-16 17:19:03 1510870743.756551: $GPGSV,3,1,12,01,20,306,35,10,54,145,49,22,14,312,32,12,24,055,49*79
2017-11-16 17:19:03 1510870743.756748: $GPGSV,3,2,12,14,63,316,47,18,24,142,42,24,02,048,15,11,10,288,40*79
2017-11-16 17:19:03 1510870743.756809: $GPGSV,3,3,12,25,38,097,47,31,49,220,49,32,70,010,49,138,38,213,44*42
2017-11-16 17:19:03 1510870743.869744: $GPZDA,221902.00,16,11,2017,00,00*6F
2017-11-16 17:19:03 1510870743.869904: $GPGGA,221902,3946.9571,N,08404.9825,W,2,12,0.80,310.64,M,-33.324,M,,*76
2017-11-16 17:19:03 1510870743.869964: $GPRMC,221902,A,3946.9571,N,08404.9825,W,0.0000,0.000,161117,,*38
2017-11-16 17:19:03 1510870743.870020: $GPGSA,A,3,1,10,22,12,14,18,24,11,25,31,32,138,1.6,0.8,1.3*38
2017-11-16 17:19:04 1510870744.401876: $GPZDA,221903.00,16,11,2017,00,00*6E
2017-11-16 17:19:04 1510870744.402042: $GPGGA,221903,3946.9571,N,08404.9825,W,2,12,0.80,310.64,M,-33.324,M,,*77
2017-11-16 17:19:04 1510870744.402104: $GPRMC,221903,A,3946.9571,N,08404.9825,W,0.0000,0.000,161117,,*39
2017-11-16 17:19:04 1510870744.402160: $GPGSA,A,3,1,10,22,12,14,18,24,11,25,31,32,138,1.6,0.8,1.3*38
