2017-12-01 11:42:21 1512146541.486571: {"class":"VERSION","release":"3.16","rev":"3.16-4","proto_major":3,"proto_minor":11}
2017-12-01 11:42:21 1512146541.487042: {"class":"DEVICES","devices":[{"class":"DEVICE","path":"/dev/ttyUSB0","driver":"SiRF","subtype":"9\u0006GSD4e_4.1.2-P1_RPATCH.05-F-GPS-4R-1510281 11/03/2015 307","activated":"2017-12-01T16:42:21.249Z","flags":1,"native":1,"bps":4800,"parity":"N","stopbits":1,"cycle":1.00}]}
2017-12-01 11:42:21 1512146541.487176: {"class":"WATCH","enable":true,"json":false,"nmea":true,"raw":0,"scaled":false,"timing":false,"split24":false,"pps":false}
2017-12-01 11:42:21 1512146541.697384: $GPGSV,3,1,12,05,14,076,36,10,13,271,40,13,43,051,47,15,76,073,48*70
2017-12-01 11:42:21 1512146541.697564: $GPGSV,3,2,12,18,43,285,45,20,63,049,42,21,66,306,45,24,20,148,40*7D
2017-12-01 11:42:21 1512146541.697631: $GPGSV,3,3,12,27,08,324,40,29,25,195,40,04,13,130,00,138,38,213,46*44
2017-12-01 11:42:21 1512146541.810661: $GPZDA,164222.00,01,12,2017,00,00*61
2017-12-01 11:42:21 1512146541.810814: $GPGGA,164222,3946.9556,N,08404.9829,W,2,11,0.80,303.03,M,-33.324,M,,*74
2017-12-01 11:42:21 1512146541.810883: $GPRMC,164222,A,3946.9556,N,08404.9829,W,0.0000,0.000,011217,,*3F
2017-12-01 11:42:21 1512146541.810948: $GPGSA,A,3,5,10,13,15,18,20,21,24,27,29,138,,2.0,0.8,1.5*34
2017-12-01 11:42:22 1512146542.437377: $GPZDA,164223.00,01,12,2017,00,00*60
2017-12-01 11:42:22 1512146542.437569: $GPGGA,164223,3946.9556,N,08404.9829,W,2,11,0.80,303.03,M,-33.324,M,,*75
2017-12-01 11:42:22 1512146542.437640: $GPRMC,164223,A,3946.9556,N,08404.9829,W,0.0000,0.000,011217,,*3E
2017-12-01 11:42:22 1512146542.437701: $GPGSA,A,3,5,10,13,15,18,20,21,24,27,29,138,,2.0,0.8,1.5*34
2017-12-01 11:42:23 1512146543.356934: $GPZDA,164224.00,01,12,2017,00,00*67
2017-12-01 11:42:23 1512146543.357108: $GPGGA,164224,3946.9556,N,08404.9829,W,2,11,0.80,303.03,M,-33.324,M,,*72
2017-12-01 11:42:23 1512146543.357176: $GPRMC,164224,A,3946.9556,N,08404.9829,W,0.0000,0.000,011217,,*39
2017-12-01 11:42:23 1512146543.357239: $GPGSA,A,3,5,10,13,15,18,20,21,24,27,29,138,,2.0,0.8,1.5*34
2017-12-01 11:42:24 1512146544.691454: $GPGSV,3,1,12,05,14,076,36,10,13,271,40,13,43,051,47,15,76,073,48*70
2017-12-01 11:42:24 1512146544.691637: $GPGSV,3,2,12,18,43,285,45,20,63,049,42,21,66,306,45,24,20,148,40*7D
2017-12-01 11:42:24 1512146544.691704: $GPGSV,3,3,12,27,08,324,40,29,25,195,40,04,13,130,00,138,38,213,46*44
2017-12-01 11:42:24 1512146544.804790: $GPZDA,164225.00,01,12,2017,00,00*66
2017-12-01 11:42:24 1512146544.804969: $GPGGA,164225,3946.9556,N,08404.9829,W,2,11,0.80,303.03,M,-33.324,M,,*73
2017-12-01 11:42:24 1512146544.805036: $GPRMC,164225,A,3946.9556,N,08404.9829,W,0.0000,0.000,011217,,*38
2017-12-01 11:42:24 1512146544.805099: $GPGSA,A,3,5,10,13,15,18,20,21,24,27,29,138,,2.0,0.8,1.5*34
2017-12-01 11:42:25 1512146545.362013: $GPZDA,164226.00,01,12,2017,00,00*65
2017-12-01 11:42:25 1512146545.362202: $GPGGA,164226,3946.9556,N,08404.9829,W,2,11,0.80,303.03,M,-33.324,M,,*70
2017-12-01 11:42:25 1512146545.362272: $GPRMC,164226,A,3946.9556,N,08404.9829,W,0.0000,0.000,011217,,*3B
2017-12-01 11:42:25 1512146545.362337: $GPGSA,A,3,5,10,13,15,18,20,21,24,27,29,138,,2.0,0.8,1.5*34
2017-12-01 11:42:26 1512146546.360215: $GPZDA,164227.00,01,12,2017,00,00*64
2017-12-01 11:42:26 1512146546.360390: $GPGGA,164227,3946.9556,N,08404.9829,W,2,11,0.80,303.03,M,-33.324,M,,*71
2017-12-01 11:42:26 1512146546.360459: $GPRMC,164227,A,3946.9556,N,08404.9829,W,0.0000,0.000,011217,,*3A
2017-12-01 11:42:26 1512146546.360520: $GPGSA,A,3,5,10,13,15,18,20,21,24,27,29,138,,2.0,0.8,1.5*34
2017-12-01 11:42:26 1512146546.360580: $GPGBS,164227,2.67,M,3.86,M,8.82,M*36
2017-12-01 11:42:27 1512146547.696690: $GPGSV,3,1,12,05,14,076,36,10,13,271,41,13,43,051,47,15,76,073,48*71
2017-12-01 11:42:27 1512146547.696874: $GPGSV,3,2,12,18,43,285,45,20,63,049,42,21,66,306,45,24,20,148,40*7D
2017-12-01 11:42:27 1512146547.696945: $GPGSV,3,3,12,27,08,324,41,29,25,195,41,04,13,130,00,138,38,213,46*44
2017-12-01 11:42:27 1512146547.808760: $GPZDA,164228.00,01,12,2017,00,00*6B
2017-12-01 11:42:27 1512146547.809011: $GPGGA,164228,3946.9556,N,08404.9829,W,2,11,0.80,303.03,M,-33.324,M,,*7E
2017-12-01 11:42:27 1512146547.809084: $GPRMC,164228,A,3946.9556,N,08404.9829,W,0.0000,0.000,011217,,*35
2017-12-01 11:42:27 1512146547.809145: $GPGSA,A,3,5,10,13,15,18,20,21,24,27,29,138,,2.0,0.8,1.5*34
2017-12-01 11:42:28 1512146548.363429: $GPZDA,164229.00,01,12,2017,00,00*6A
2017-12-01 11:42:28 1512146548.363616: $GPGGA,164229,3946.9552,N,08404.9830,W,2,11,0.80,303.79,M,-33.324,M,,*7E
2017-12-01 11:42:28 1512146548.363688: $GPRMC,164229,A,3946.9552,N,08404.9830,W,0.0000,0.000,011217,,*38
2017-12-01 11:42:28 1512146548.363752: $GPGSA,A,3,5,10,13,15,18,20,21,24,27,29,138,,2.0,0.8,1.5*34
2017-12-01 11:42:29 1512146549.359270: $GPZDA,164230.00,01,12,2017,00,00*62
2017-12-01 11:42:30 1512146550.298625: $GPGGA,164230,3946.9552,N,08404.9830,W,2,11,0.80,303.79,M,-33.324,M,,*76
2017-12-01 11:42:30 1512146550.298784: $GPRMC,164230,A,3946.9552,N,08404.9830,W,0.0000,0.000,011217,,*30
2017-12-01 11:42:30 1512146550.298870: $GPGSA,A,3,5,10,13,15,18,20,21,24,27,29,138,,2.0,0.8,1.5*34
2017-12-01 11:42:30 1512146550.696268: $GPGSV,3,1,12,05,14,076,37,10,13,271,41,13,43,051,46,15,76,073,48*71
2017-12-01 11:42:30 1512146550.696452: $GPGSV,3,2,12,18,43,285,45,20,63,049,42,21,66,306,45,24,20,148,40*7D
2017-12-01 11:42:30 1512146550.696539: $GPGSV,3,3,12,27,08,324,43,29,25,195,41,04,13,130,00,138,38,213,46*46
2017-12-01 11:42:30 1512146550.810062: $GPZDA,164231.00,01,12,2017,00,00*63
2017-12-01 11:42:30 1512146550.810246: $GPGGA,164231,3946.9552,N,08404.9830,W,2,11,0.80,303.79,M,-33.324,M,,*77
2017-12-01 11:42:30 1512146550.810316: $GPRMC,164231,A,3946.9552,N,08404.9830,W,0.0000,0.000,011217,,*31
2017-12-01 11:42:30 1512146550.810377: $GPGSA,A,3,5,10,13,15,18,20,21,24,27,29,138,,2.0,0.8,1.5*34
2017-12-01 11:42:31 1512146551.356849: $GPZDA,164232.00,01,12,2017,00,00*60
2017-12-01 11:42:31 1512146551.357052: $GPGGA,164232,3946.9552,N,08404.9830,W,2,11,0.80,303.79,M,-33.324,M,,*74
2017-12-01 11:42:31 1512146551.357123: $GPRMC,164232,A,3946.9552,N,08404.9830,W,0.0000,0.000,011217,,*32
2017-12-01 11:42:31 1512146551.357186: $GPGSA,A,3,5,10,13,15,18,20,21,24,27,29,138,,2.0,0.8,1.5*34
