2017-12-01 12:28:26 1512149306.646913: {"class":"VERSION","release":"3.16","rev":"3.16-4","proto_major":3,"proto_minor":11}
2017-12-01 12:28:26 1512149306.647442: {"class":"DEVICES","devices":[{"class":"DEVICE","path":"/dev/ttyUSB0","driver":"SiRF","subtype":"9\u0006GSD4e_4.1.2-P1_RPATCH.05-F-GPS-4R-1510281 11/03/2015 307","activated":"2017-12-01T17:28:26.273Z","flags":1,"native":1,"bps":4800,"parity":"N","stopbits":1,"cycle":1.00}]}
2017-12-01 12:28:26 1512149306.647563: {"class":"WATCH","enable":true,"json":false,"nmea":true,"raw":0,"scaled":false,"timing":false,"split24":false,"pps":false}
2017-12-01 12:28:26 1512149306.723043: $GPGSV,3,1,12,10,27,286,38,13,25,045,44,15,56,049,46,18,57,306,46*7B
2017-12-01 12:28:26 1512149306.723188: $GPGSV,3,2,12,20,48,076,47,21,79,243,42,24,37,135,47,27,18,309,36*7C
2017-12-01 12:28:26 1512149306.723254: $GPGSV,3,3,12,29,06,187,28,05,01,090,24,32,05,228,00,138,38,213,46*47
2017-12-01 12:28:26 1512149306.837934: $GPZDA,172827.00,01,12,2017,00,00*69
2017-12-01 12:28:26 1512149306.838113: $GPGGA,172827,3946.9601,N,08404.9818,W,2,11,0.80,302.36,M,-33.324,M,,*78
2017-12-01 12:28:26 1512149306.838179: $GPRMC,172827,A,3946.9601,N,08404.9818,W,0.0000,0.000,011217,,*34
2017-12-01 12:28:26 1512149306.838240: $GPGSA,A,3,10,13,15,18,20,21,24,27,29,5,138,,2.0,0.8,1.5*34
2017-12-01 12:28:27 1512149307.386216: $GPZDA,172828.00,01,12,2017,00,00*66
2017-12-01 12:28:27 1512149307.386387: $GPGGA,172828,3946.9601,N,08404.9818,W,2,11,0.80,302.36,M,-33.324,M,,*77
2017-12-01 12:28:27 1512149307.386454: $GPRMC,172828,A,3946.9601,N,08404.9818,W,0.0000,0.000,011217,,*3B
2017-12-01 12:28:27 1512149307.386516: $GPGSA,A,3,10,13,15,18,20,21,24,27,29,5,138,,2.0,0.8,1.5*34
2017-12-01 12:28:28 1512149308.387036: $GPZDA,172829.00,01,12,2017,00,00*67
2017-12-01 12:28:28 1512149308.387206: $GPGGA,172829,3946.9601,N,08404.9818,W,2,11,0.80,302.36,M,-33.324,M,,*76
2017-12-01 12:28:28 1512149308.387272: $GPRMC,172829,A,3946.9601,N,08404.9818,W,0.0000,0.000,011217,,*3A
2017-12-01 12:28:28 1512149308.387333: $GPGSA,A,3,10,13,15,18,20,21,24,27,29,5,138,,2.0,0.8,1.5*34
2017-12-01 12:28:29 1512149309.727718: $GPGSV,3,1,12,10,27,286,38,13,25,045,44,15,56,049,46,18,57,306,46*7B
2017-12-01 12:28:29 1512149309.727886: $GPGSV,3,2,12,20,48,076,47,21,79,243,42,24,37,135,47,27,18,309,35*7F
2017-12-01 12:28:29 1512149309.727953: $GPGSV,3,3,12,29,06,187,28,05,01,090,24,32,05,228,01,138,38,213,46*46
2017-12-01 12:28:29 1512149309.841704: $GPZDA,172830.00,01,12,2017,00,00*6F
2017-12-01 12:28:29 1512149309.841890: $GPGGA,172830,3946.9601,N,08404.9818,W,2,11,0.80,302.36,M,-33.324,M,,*7E
2017-12-01 12:28:29 1512149309.841956: $GPRMC,172830,A,3946.9601,N,08404.9818,W,0.0000,0.000,011217,,*32
2017-12-01 12:28:29 1512149309.842017: $GPGSA,A,3,10,13,15,18,20,21,24,27,29,5,138,,2.0,0.8,1.5*34
2017-12-01 12:28:30 1512149310.466509: $GPZDA,172831.00,01,12,2017,00,00*6E
2017-12-01 12:28:30 1512149310.466710: $GPGGA,172831,3946.9601,N,08404.9818,W,2,11,0.80,302.36,M,-33.324,M,,*7F
2017-12-01 12:28:30 1512149310.466805: $GPRMC,172831,A,3946.9601,N,08404.9818,W,0.0000,0.000,011217,,*33
2017-12-01 12:28:30 1512149310.466997: $GPGSA,A,3,10,13,15,18,20,21,24,27,29,5,138,,2.0,0.8,1.5*34
2017-12-01 12:28:31 1512149311.389084: $GPZDA,172832.00,01,12,2017,00,00*6D
2017-12-01 12:28:31 1512149311.389251: $GPGGA,172832,3946.9601,N,08404.9818,W,2,11,0.80,302.36,M,-33.324,M,,*7C
2017-12-01 12:28:31 1512149311.389316: $GPRMC,172832,A,3946.9601,N,08404.9818,W,0.0000,0.000,011217,,*30
2017-12-01 12:28:31 1512149311.389377: $GPGSA,A,3,10,13,15,18,20,21,24,27,29,5,138,,2.0,0.8,1.5*34
2017-12-01 12:28:32 1512149312.721981: $GPGSV,3,1,12,10,27,286,39,13,25,045,44,15,56,049,46,18,57,306,46*7A
2017-12-01 12:28:32 1512149312.722161: $GPGSV,3,2,12,20,48,076,46,21,79,243,42,24,37,135,47,27,18,309,32*79
2017-12-01 12:28:32 1512149312.722227: $GPGSV,3,3,12,29,06,187,21,05,01,090,20,32,05,228,24,138,38,213,46*4C
2017-12-01 12:28:32 1512149312.835585: $GPZDA,172833.00,01,12,2017,00,00*6C
2017-12-01 12:28:32 1512149312.835746: $GPGGA,172833,3946.9601,N,08404.9818,W,2,12,0.80,302.36,M,-33.324,M,,*7E
2017-12-01 12:28:32 1512149312.835882: $GPRMC,172833,A,3946.9601,N,08404.9818,W,0.0000,0.000,011217,,*31
2017-12-01 12:28:32 1512149312.835945: $GPGSA,A,3,10,13,15,18,20,21,24,27,29,5,32,138,2.0,0.8,1.5*35
2017-12-01 12:28:33 1512149313.403665: $GPZDA,172834.00,01,12,2017,00,00*6B
2017-12-01 12:28:33 1512149313.403842: $GPGGA,172834,3946.9601,N,08404.9818,W,2,12,0.80,302.36,M,-33.324,M,,*79
2017-12-01 12:28:33 1512149313.403909: $GPRMC,172834,A,3946.9601,N,08404.9818,W,0.0000,0.000,011217,,*36
2017-12-01 12:28:33 1512149313.403969: $GPGSA,A,3,10,13,15,18,20,21,24,27,29,5,32,138,2.0,0.8,1.5*35
2017-12-01 12:28:34 1512149314.403834: $GPZDA,172835.00,01,12,2017,00,00*6A
2017-12-01 12:28:34 1512149314.403989: $GPGGA,172835,3946.9601,N,08404.9818,W,2,12,0.80,302.36,M,-33.324,M,,*78
2017-12-01 12:28:34 1512149314.404054: $GPRMC,172835,A,3946.9601,N,08404.9818,W,0.0000,0.000,011217,,*37
2017-12-01 12:28:34 1512149314.404115: $GPGSA,A,3,10,13,15,18,20,21,24,27,29,5,32,138,2.0,0.8,1.5*35
2017-12-01 12:28:35 1512149315.721082: $GPGSV,3,1,12,10,27,286,39,13,25,045,44,15,56,049,47,18,57,306,46*7B
2017-12-01 12:28:35 1512149315.721264: $GPGSV,3,2,12,20,48,076,46,21,79,243,41,24,37,135,47,27,18,309,22*7B
2017-12-01 12:28:35 1512149315.721331: $GPGSV,3,3,12,29,06,187,24,05,01,090,24,32,05,228,24,138,38,213,47*4C
2017-12-01 12:28:35 1512149315.834494: $GPZDA,172836.00,01,12,2017,00,00*69
2017-12-01 12:28:35 1512149315.834687: $GPGGA,172836,3946.9597,N,08404.9818,W,2,12,0.80,303.12,M,-33.324,M,,*70
2017-12-01 12:28:35 1512149315.834783: $GPRMC,172836,A,3946.9597,N,08404.9818,W,0.0000,0.000,011217,,*38
2017-12-01 12:28:35 1512149315.834847: $GPGSA,A,3,10,13,15,18,20,21,24,27,29,5,32,138,2.0,0.8,1.5*35
2017-12-01 12:28:36 1512149316.382180: $GPZDA,172837.00,01,12,2017,00,00*68
2017-12-01 12:28:36 1512149316.382351: $GPGGA,172837,3946.9597,N,08404.9818,W,2,12,0.80,303.12,M,-33.324,M,,*71
2017-12-01 12:28:36 1512149316.382417: $GPRMC,172837,A,3946.9597,N,08404.9818,W,0.0000,0.000,011217,,*39
2017-12-01 12:28:36 1512149316.382478: $GPGSA,A,3,10,13,15,18,20,21,24,27,29,5,32,138,2.0,0.8,1.5*35
