2017-12-01 16:39:46 1512164386.444193: {"class":"VERSION","release":"3.16","rev":"3.16-4","proto_major":3,"proto_minor":11}
2017-12-01 16:39:46 1512164386.444629: {"class":"DEVICES","devices":[{"class":"DEVICE","path":"/dev/ttyUSB0","driver":"SiRF","subtype":"9\u0006GSD4e_4.1.2-P1_RPATCH.05-F-GPS-4R-1510281 11/03/2015 307","activated":"2017-12-01T21:39:46.022Z","flags":1,"native":1,"bps":4800,"parity":"N","stopbits":1,"cycle":1.00}]}
2017-12-01 16:39:46 1512164386.444759: {"class":"WATCH","enable":true,"json":false,"nmea":true,"raw":0,"scaled":false,"timing":false,"split24":false,"pps":false}
2017-12-01 16:39:46 1512164386.627300: $GPZDA,213947.28,01,12,2017,00,00*60
2017-12-01 16:39:46 1512164386.627473: $GPGGA,213947,3946.9640,N,08404.9676,W,1,12,1.80,320.25,M,-33.324,M,,*7B
2017-12-01 16:39:46 1512164386.627541: $GPRMC,213947,A,3946.9640,N,08404.9676,W,1.0803,195.670,011217,,*32
2017-12-01 16:39:46 1512164386.627603: $GPGSA,A,3,1,10,11,14,22,31,32,12,25,26,18,138,2.0,1.8,1.5*38
2017-12-01 16:39:48 1512164388.066984: $GPGSV,3,1,12,01,22,295,36,10,43,150,34,11,07,279,28,14,68,337,36*7F
2017-12-01 16:39:48 1512164388.067168: $GPGSV,3,2,12,22,23,312,36,31,61,229,41,32,67,040,38,12,20,046,12*79
2017-12-01 16:39:48 1512164388.067235: $GPGSV,3,3,12,25,40,084,00,18,14,145,00,26,06,181,00,138,38,213,00*42
2017-12-01 16:39:48 1512164388.180356: $GPZDA,213947.97,01,12,2017,00,00*64
2017-12-01 16:39:48 1512164388.180509: $GPGGA,213947,3946.9643,N,08404.9676,W,1,07,1.80,319.49,M,-33.324,M,,*7C
2017-12-01 16:39:48 1512164388.180576: $GPRMC,213947,A,3946.9643,N,08404.9676,W,0.0407,142.012,011217,,*30
2017-12-01 16:39:48 1512164388.180639: $GPGSA,A,3,1,10,11,14,22,31,32,,,,,,2.0,1.8,1.5*0B
2017-12-01 16:39:49 1512164389.009522: $GPZDA,213949.00,01,12,2017,00,00*64
2017-12-01 16:39:49 1512164389.009703: $GPGGA,213949,3946.9640,N,08404.9683,W,1,07,0.80,318.77,M,-33.324,M,,*76
2017-12-01 16:39:49 1512164389.009775: $GPRMC,213949,A,3946.9640,N,08404.9683,W,0.1867,180.000,011217,,*31
2017-12-01 16:39:49 1512164389.009838: $GPGSA,A,3,1,10,11,14,22,31,32,,,,,,2.0,0.8,1.5*0A
2017-12-01 16:39:49 1512164389.009898: $GPGBS,213949,10.70,M,15.43,M,35.28,M*03
2017-12-01 16:39:49 1512164389.265144: $GPZDA,213950.00,01,12,2017,00,00*6C
2017-12-01 16:39:49 1512164389.265305: $GPGGA,213950,3946.9639,N,08404.9682,W,1,07,0.80,317.36,M,-33.324,M,,*7B
2017-12-01 16:39:49 1512164389.265373: $GPRMC,213950,A,3946.9639,N,08404.9682,W,0.1867,180.000,011217,,*36
2017-12-01 16:39:49 1512164389.265436: $GPGSA,A,3,1,10,11,14,22,31,32,,,,,,2.0,0.8,1.5*0A
2017-12-01 16:39:49 1512164389.265493: $GPGBS,213950,10.70,M,15.43,M,35.28,M*0B
2017-12-01 16:39:50 1512164390.757798: $GPGSV,3,1,12,01,22,295,45,10,43,150,42,11,07,279,36,14,68,337,46*72
2017-12-01 16:39:50 1512164390.757965: $GPGSV,3,2,12,22,23,312,44,31,61,229,50,32,67,040,48,12,20,046,29*73
2017-12-01 16:39:50 1512164390.758033: $GPGSV,3,3,12,25,40,084,29,26,06,181,31,18,14,145,17,138,38,213,42*4B
2017-12-01 16:39:50 1512164390.871201: $GPZDA,213951.00,01,12,2017,00,00*6D
2017-12-01 16:39:50 1512164390.871401: $GPGGA,213951,3946.9639,N,08404.9688,W,1,11,0.80,315.88,M,-33.324,M,,*70
2017-12-01 16:39:50 1512164390.871476: $GPRMC,213951,A,3946.9639,N,08404.9688,W,0.0000,0.000,011217,,*3C
2017-12-01 16:39:50 1512164390.871540: $GPGSA,A,3,1,10,11,14,22,31,32,12,25,26,138,,2.0,0.8,1.5*30
2017-12-01 16:39:51 1512164391.496470: $GPZDA,213952.00,01,12,2017,00,00*6E
2017-12-01 16:39:51 1512164391.496653: $GPGGA,213952,3946.9638,N,08404.9694,W,1,11,0.80,314.40,M,-33.324,M,,*7A
2017-12-01 16:39:51 1512164391.496725: $GPRMC,213952,A,3946.9638,N,08404.9694,W,0.0000,0.000,011217,,*33
2017-12-01 16:39:51 1512164391.496791: $GPGSA,A,3,1,10,11,14,22,31,32,12,25,26,138,,2.0,0.8,1.5*30
2017-12-01 16:39:52 1512164392.420133: $GPZDA,213953.00,01,12,2017,00,00*6F
2017-12-01 16:39:52 1512164392.420307: $GPGGA,213953,3946.9634,N,08404.9694,W,1,11,0.80,313.76,M,-33.324,M,,*75
2017-12-01 16:39:52 1512164392.420376: $GPRMC,213953,A,3946.9634,N,08404.9694,W,0.0000,0.000,011217,,*3E
2017-12-01 16:39:52 1512164392.420437: $GPGSA,A,3,1,10,11,14,22,31,32,12,25,26,138,,2.0,0.8,1.5*30
2017-12-01 16:39:52 1512164392.420548: $GPGBS,213953,10.70,M,15.43,M,35.28,M*08
2017-12-01 16:39:53 1512164393.756731: $GPGSV,3,1,12,01,22,295,45,10,43,150,42,11,07,279,36,14,68,337,45*71
2017-12-01 16:39:53 1512164393.756923: $GPGSV,3,2,12,22,23,312,44,31,61,229,50,32,67,040,48,12,20,046,29*73
2017-12-01 16:39:53 1512164393.756993: $GPGSV,3,3,12,25,40,084,29,26,06,181,30,18,14,145,21,138,38,213,40*4D
2017-12-01 16:39:53 1512164393.870098: $GPZDA,213954.00,01,12,2017,00,00*68
2017-12-01 16:39:53 1512164393.870277: $GPGGA,213954,3946.9618,N,08404.9730,W,2,12,1.60,300.13,M,-33.324,M,,*7D
2017-12-01 16:39:53 1512164393.870345: $GPRMC,213954,A,3946.9618,N,08404.9730,W,0.0000,0.000,011217,,*38
2017-12-01 16:39:53 1512164393.870407: $GPGSA,A,2,1,10,11,14,22,31,32,12,25,26,18,138,2.0,1.6,1.5*37
2017-12-01 16:39:54 1512164394.422249: $GPZDA,213955.00,01,12,2017,00,00*69
2017-12-01 16:39:54 1512164394.422410: $GPGGA,213955,3946.9622,N,08404.9730,W,2,12,1.60,300.77,M,-33.324,M,,*77
2017-12-01 16:39:54 1512164394.422477: $GPRMC,213955,A,3946.9622,N,08404.9730,W,0.0000,0.000,011217,,*30
2017-12-01 16:39:54 1512164394.422540: $GPGSA,A,2,1,10,11,14,22,31,32,12,25,26,18,138,2.0,1.6,1.5*37
2017-12-01 16:39:55 1512164395.422206: $GPZDA,213956.00,01,12,2017,00,00*6A
2017-12-01 16:39:55 1512164395.422391: $GPGGA,213956,3946.9622,N,08404.9730,W,2,12,1.60,300.77,M,-33.324,M,,*74
2017-12-01 16:39:55 1512164395.422464: $GPRMC,213956,A,3946.9622,N,08404.9730,W,0.0000,0.000,011217,,*33
2017-12-01 16:39:55 1512164395.422528: $GPGSA,A,2,1,10,11,14,22,31,32,12,25,26,18,138,2.0,1.6,1.5*37
2017-12-01 16:39:56 1512164396.757139: $GPGSV,3,1,12,01,22,295,44,10,43,150,42,11,07,279,36,14,68,337,45*70
2017-12-01 16:39:56 1512164396.757319: $GPGSV,3,2,12,22,23,312,44,31,61,229,50,32,67,040,48,12,20,046,28*72
2017-12-01 16:39:56 1512164396.757387: $GPGSV,3,3,12,25,40,084,29,26,06,181,30,18,14,145,16,138,38,213,40*49
2017-12-01 16:39:56 1512164396.870821: $GPZDA,213957.00,01,12,2017,00,00*6B
2017-12-01 16:39:56 1512164396.870981: $GPGGA,213957,3946.9622,N,08404.9730,W,2,12,1.80,300.77,M,-33.324,M,,*7B
2017-12-01 16:39:56 1512164396.871047: $GPRMC,213957,A,3946.9622,N,08404.9730,W,0.0000,0.000,011217,,*32
2017-12-01 16:39:56 1512164396.871109: $GPGSA,A,3,1,10,11,14,22,31,32,12,25,26,18,138,2.0,1.8,1.5*38
2017-12-01 16:39:57 1512164397.422620: $GPZDA,213958.00,01,12,2017,00,00*64
2017-12-01 16:39:57 1512164397.422803: $GPGGA,213958,3946.9622,N,08404.9730,W,2,12,0.80,300.77,M,-33.324,M,,*75
2017-12-01 16:39:57 1512164397.422872: $GPRMC,213958,A,3946.9622,N,08404.9730,W,0.0000,0.000,011217,,*3D
2017-12-01 16:39:57 1512164397.422934: $GPGSA,A,3,1,10,11,14,22,31,32,12,25,26,18,138,2.0,0.8,1.5*39
2017-12-01 16:39:58 1512164398.422257: $GPZDA,213959.00,01,12,2017,00,00*65
2017-12-01 16:39:58 1512164398.422436: $GPGGA,213959,3946.9626,N,08404.9730,W,2,12,0.80,301.41,M,-33.324,M,,*74
2017-12-01 16:39:58 1512164398.422503: $GPRMC,213959,A,3946.9626,N,08404.9730,W,0.0000,0.000,011217,,*38
2017-12-01 16:39:58 1512164398.422566: $GPGSA,A,3,1,10,11,14,22,31,32,12,25,26,18,138,2.0,0.8,1.5*39
2017-12-01 16:39:59 1512164399.757988: $GPGSV,3,1,12,01,22,295,43,10,43,150,42,11,07,279,37,14,68,337,44*77
2017-12-01 16:39:59 1512164399.758179: $GPGSV,3,2,12,22,23,312,44,31,61,229,50,32,67,040,47,12,20,046,28*7D
2017-12-01 16:39:59 1512164399.758250: $GPGSV,3,3,12,25,40,084,29,26,06,181,30,18,14,145,18,138,38,213,38*48
2017-12-01 16:39:59 1512164399.872048: $GPZDA,214000.00,01,12,2017,00,00*67
2017-12-01 16:39:59 1512164399.872221: $GPGGA,214000,3946.9634,N,08404.9736,W,2,12,0.80,299.80,M,-33.324,M,,*7E
2017-12-01 16:39:59 1512164399.872288: $GPRMC,214000,A,3946.9634,N,08404.9736,W,0.0000,0.000,011217,,*3F
2017-12-01 16:39:59 1512164399.872351: $GPGSA,A,3,1,10,11,14,22,31,32,12,25,26,18,138,2.0,0.8,1.5*39
2017-12-01 16:40:00 1512164400.423539: $GPZDA,214001.00,01,12,2017,00,00*66
2017-12-01 16:40:00 1512164400.423704: $GPGGA,214001,3946.9634,N,08404.9736,W,2,12,0.80,299.80,M,-33.324,M,,*7F
2017-12-01 16:40:00 1512164400.423821: $GPRMC,214001,A,3946.9634,N,08404.9736,W,0.0000,0.000,011217,,*3E
2017-12-01 16:40:00 1512164400.423888: $GPGSA,A,3,1,10,11,14,22,31,32,12,25,26,18,138,2.0,0.8,1.5*39
2017-12-01 16:40:01 1512164401.430122: $GPZDA,214002.00,01,12,2017,00,00*65
2017-12-01 16:40:01 1512164401.430300: $GPGGA,214002,3946.9634,N,08404.9736,W,2,12,0.80,299.80,M,-33.324,M,,*7C
2017-12-01 16:40:01 1512164401.430372: $GPRMC,214002,A,3946.9634,N,08404.9736,W,0.0000,0.000,011217,,*3D
2017-12-01 16:40:01 1512164401.430434: $GPGSA,A,3,1,10,11,14,22,31,32,12,25,26,18,138,2.0,0.8,1.5*39
2017-12-01 16:40:02 1512164402.758334: $GPGSV,3,1,12,01,22,295,43,10,43,150,42,11,07,279,38,14,68,337,44*78
2017-12-01 16:40:02 1512164402.758486: $GPGSV,3,2,12,22,23,312,44,31,61,229,50,32,67,040,47,12,20,046,28*7D
2017-12-01 16:40:02 1512164402.758551: $GPGSV,3,3,12,25,40,084,29,26,06,181,30,18,14,145,16,138,38,213,41*48
2017-12-01 16:40:02 1512164402.872116: $GPZDA,214003.00,01,12,2017,00,00*64
2017-12-01 16:40:02 1512164402.872273: $GPGGA,214003,3946.9638,N,08404.9736,W,2,12,0.80,300.44,M,-33.324,M,,*78
2017-12-01 16:40:02 1512164402.872340: $GPRMC,214003,A,3946.9638,N,08404.9736,W,0.0000,0.000,011217,,*30
2017-12-01 16:40:02 1512164402.872401: $GPGSA,A,3,1,10,11,14,22,31,32,12,25,26,18,138,2.0,0.8,1.5*39
2017-12-01 16:40:03 1512164403.418818: $GPZDA,214004.00,01,12,2017,00,00*63
2017-12-01 16:40:03 1512164403.418998: $GPGGA,214004,3946.9638,N,08404.9736,W,2,12,0.80,300.44,M,-33.324,M,,*7F
2017-12-01 16:40:03 1512164403.419067: $GPRMC,214004,A,3946.9638,N,08404.9736,W,0.2422,93.794,011217,,*01
2017-12-01 16:40:03 1512164403.419130: $GPGSA,A,3,1,10,11,14,22,31,32,12,25,26,18,138,2.0,0.8,1.5*39
2017-12-01 16:40:04 1512164404.418345: $GPZDA,214005.00,01,12,2017,00,00*62
2017-12-01 16:40:04 1512164404.418523: $GPGGA,214005,3946.9638,N,08404.9736,W,2,12,0.80,300.44,M,-33.324,M,,*7E
2017-12-01 16:40:04 1512164404.418592: $GPRMC,214005,A,3946.9638,N,08404.9736,W,0.5951,58.684,011217,,*09
2017-12-01 16:40:04 1512164404.418658: $GPGSA,A,3,1,10,11,14,22,31,32,12,25,26,18,138,2.0,0.8,1.5*39
2017-12-01 16:40:04 1512164404.418724: $GPGBS,214005,2.67,M,3.86,M,8.82,M*30
2017-12-01 16:40:05 1512164405.752796: $GPGSV,3,1,12,01,22,295,41,10,43,150,42,11,07,279,38,14,68,337,44*7A
2017-12-01 16:40:05 1512164405.752981: $GPGSV,3,2,12,22,23,312,44,31,61,229,49,32,67,040,48,12,20,046,25*77
2017-12-01 16:40:05 1512164405.753048: $GPGSV,3,3,12,25,40,084,30,26,06,181,30,18,14,145,18,138,38,213,42*4D
2017-12-01 16:40:05 1512164405.866136: $GPZDA,214006.00,01,12,2017,00,00*61
2017-12-01 16:40:05 1512164405.866285: $GPGGA,214006,3946.9643,N,08404.9744,W,2,12,0.80,302.40,M,-33.324,M,,*72
2017-12-01 16:40:05 1512164405.866351: $GPRMC,214006,A,3946.9643,N,08404.9744,W,0.3423,4.197,011217,,*31
2017-12-01 16:40:05 1512164405.866411: $GPGSA,A,3,1,10,11,14,22,31,32,12,25,26,18,138,2.0,0.8,1.5*39
2017-12-01 16:40:06 1512164406.491586: $GPZDA,214007.00,01,12,2017,00,00*60
2017-12-01 16:40:06 1512164406.491768: $GPGGA,214007,3946.9643,N,08404.9744,W,2,12,0.80,302.40,M,-33.324,M,,*73
2017-12-01 16:40:06 1512164406.491837: $GPRMC,214007,A,3946.9643,N,08404.9744,W,0.0000,0.000,011217,,*3D
2017-12-01 16:40:06 1512164406.491899: $GPGSA,A,3,1,10,11,14,22,31,32,12,25,26,18,138,2.0,0.8,1.5*39
