2017-12-01 18:03:24 1512169404.697372: {"class":"VERSION","release":"3.16","rev":"3.16-4","proto_major":3,"proto_minor":11}
2017-12-01 18:03:24 1512169404.697753: {"class":"DEVICES","devices":[{"class":"DEVICE","path":"/dev/ttyUSB0","driver":"SiRF","subtype":"9\u0006GSD4e_4.1.2-P1_RPATCH.05-F-GPS-4R-1510281 11/03/2015 307","activated":"2017-12-01T23:03:24.604Z","flags":1,"native":1,"bps":4800,"parity":"N","stopbits":1,"cycle":1.00}]}
2017-12-01 18:03:24 1512169404.697872: {"class":"WATCH","enable":true,"json":false,"nmea":true,"raw":0,"scaled":false,"timing":false,"split24":false,"pps":false}
2017-12-01 18:03:25 1512169405.438590: $GPZDA,230326.00,01,12,2017,00,00*66
2017-12-01 18:03:25 1512169405.438765: $GPGGA,230326,3946.9726,N,08404.9828,W,2,12,0.80,290.09,M,-33.325,M,,*74
2017-12-01 18:03:25 1512169405.438836: $GPRMC,230326,A,3946.9726,N,08404.9828,W,0.0000,0.000,011217,,*3C
2017-12-01 18:03:25 1512169405.438897: $GPGSA,A,3,1,3,10,14,16,22,29,25,26,31,32,138,2.0,0.8,1.5*0C
2017-12-01 18:03:26 1512169406.776738: $GPGSV,3,1,12,01,11,259,35,03,34,307,47,10,06,159,31,14,61,078,44*77
2017-12-01 18:03:26 1512169406.776928: $GPGSV,3,2,12,16,14,189,42,22,48,285,46,29,07,081,22,25,25,043,43*7B
2017-12-01 18:03:26 1512169406.776997: $GPGSV,3,3,12,26,43,175,46,31,74,007,47,32,43,099,44,138,38,213,46*48
2017-12-01 18:03:26 1512169406.890103: $GPZDA,230327.00,01,12,2017,00,00*67
2017-12-01 18:03:26 1512169406.890275: $GPGGA,230327,3946.9726,N,08404.9828,W,2,12,0.80,290.09,M,-33.325,M,,*75
2017-12-01 18:03:26 1512169406.890342: $GPRMC,230327,A,3946.9726,N,08404.9828,W,0.0000,0.000,011217,,*3D
2017-12-01 18:03:26 1512169406.890404: $GPGSA,A,3,1,3,10,14,16,22,29,25,26,31,32,138,2.0,0.8,1.5*0C
2017-12-01 18:03:27 1512169407.442295: $GPZDA,230328.00,01,12,2017,00,00*68
2017-12-01 18:03:27 1512169407.442469: $GPGGA,230328,3946.9731,N,08404.9828,W,2,12,0.80,290.73,M,-33.325,M,,*71
2017-12-01 18:03:27 1512169407.442537: $GPRMC,230328,A,3946.9731,N,08404.9828,W,0.0000,0.000,011217,,*34
2017-12-01 18:03:27 1512169407.442598: $GPGSA,A,3,1,3,10,14,16,22,29,25,26,31,32,138,2.0,0.8,1.5*0C
2017-12-01 18:03:28 1512169408.442007: $GPZDA,230329.00,01,12,2017,00,00*69
2017-12-01 18:03:28 1512169408.442191: $GPGGA,230329,3946.9731,N,08404.9828,W,2,12,0.80,290.73,M,-33.325,M,,*70
2017-12-01 18:03:28 1512169408.442263: $GPRMC,230329,A,3946.9731,N,08404.9828,W,0.0000,0.000,011217,,*35
2017-12-01 18:03:28 1512169408.442328: $GPGSA,A,3,1,3,10,14,16,22,29,25,26,31,32,138,2.0,0.8,1.5*0C
2017-12-01 18:03:29 1512169409.776311: $GPGSV,3,1,12,01,11,259,35,03,34,307,47,10,06,159,31,14,61,078,43*70
2017-12-01 18:03:29 1512169409.776498: $GPGSV,3,2,12,16,14,189,42,22,48,285,46,29,07,081,23,25,25,043,43*7A
2017-12-01 18:03:29 1512169409.776569: $GPGSV,3,3,12,26,43,175,45,31,74,007,47,32,43,099,45,138,38,213,46*4A
2017-12-01 18:03:29 1512169409.889702: $GPZDA,230330.00,01,12,2017,00,00*61
2017-12-01 18:03:29 1512169409.889873: $GPGGA,230330,3946.9731,N,08404.9828,W,2,12,0.80,290.73,M,-33.325,M,,*78
2017-12-01 18:03:29 1512169409.889942: $GPRMC,230330,A,3946.9731,N,08404.9828,W,0.0000,0.000,011217,,*3D
2017-12-01 18:03:29 1512169409.890008: $GPGSA,A,3,1,3,10,14,16,22,29,25,26,31,32,138,2.0,0.8,1.5*0C
2017-12-01 18:03:30 1512169410.515166: $GPZDA,230331.00,01,12,2017,00,00*60
2017-12-01 18:03:30 1512169410.515339: $GPGGA,230331,3946.9731,N,08404.9828,W,2,12,0.80,290.73,M,-33.325,M,,*79
2017-12-01 18:03:30 1512169410.515411: $GPRMC,230331,A,3946.9731,N,08404.9828,W,0.0000,0.000,011217,,*3C
2017-12-01 18:03:30 1512169410.515478: $GPGSA,A,3,1,3,10,14,16,22,29,25,26,31,32,138,2.0,0.8,1.5*0C
2017-12-01 18:03:31 1512169411.439964: $GPZDA,230332.00,01,12,2017,00,00*63
2017-12-01 18:03:31 1512169411.440147: $GPGGA,230332,3946.9727,N,08404.9829,W,2,12,0.80,291.50,M,-33.325,M,,*7C
2017-12-01 18:03:31 1512169411.440218: $GPRMC,230332,A,3946.9727,N,08404.9829,W,0.0000,0.000,011217,,*39
2017-12-01 18:03:31 1512169411.440283: $GPGSA,A,3,1,3,10,14,16,22,29,25,26,31,32,138,2.0,0.8,1.5*0C
2017-12-01 18:03:32 1512169412.780407: $GPGSV,3,1,12,01,11,259,35,03,34,307,47,10,06,159,29,14,61,078,43*79
2017-12-01 18:03:32 1512169412.780615: $GPGSV,3,2,12,16,14,189,42,22,48,285,47,29,07,081,23,25,25,043,44*7C
2017-12-01 18:03:32 1512169412.780685: $GPGSV,3,3,12,26,43,175,46,31,74,007,47,32,43,099,44,138,38,213,46*48
2017-12-01 18:03:32 1512169412.893776: $GPZDA,230333.00,01,12,2017,00,00*62
2017-12-01 18:03:32 1512169412.893945: $GPGGA,230333,3946.9727,N,08404.9829,W,2,12,0.60,291.50,M,-33.325,M,,*73
2017-12-01 18:03:32 1512169412.894011: $GPRMC,230333,A,3946.9727,N,08404.9829,W,0.0000,0.000,011217,,*38
2017-12-01 18:03:32 1512169412.894073: $GPGSA,A,3,1,3,10,14,16,22,29,25,26,31,32,138,2.0,0.6,1.5*02
2017-12-01 18:03:33 1512169413.443415: $GPZDA,230334.00,01,12,2017,00,00*65
2017-12-01 18:03:33 1512169413.443600: $GPGGA,230334,3946.9727,N,08404.9829,W,2,12,0.60,291.50,M,-33.325,M,,*74
2017-12-01 18:03:33 1512169413.443668: $GPRMC,230334,A,3946.9727,N,08404.9829,W,0.0000,0.000,011217,,*3F
2017-12-01 18:03:33 1512169413.443732: $GPGSA,A,3,1,3,10,14,16,22,29,25,26,31,32,138,2.0,0.6,1.5*02
2017-12-01 18:03:34 1512169414.444311: $GPZDA,230335.00,01,12,2017,00,00*64
2017-12-01 18:03:34 1512169414.444482: $GPGGA,230335,3946.9727,N,08404.9829,W,2,12,0.60,291.50,M,-33.325,M,,*75
2017-12-01 18:03:34 1512169414.444550: $GPRMC,230335,A,3946.9727,N,08404.9829,W,0.0000,0.000,011217,,*3E
2017-12-01 18:03:34 1512169414.444613: $GPGSA,A,3,1,3,10,14,16,22,29,25,26,31,32,138,2.0,0.6,1.5*02
2017-12-01 18:03:35 1512169415.780740: $GPGSV,3,1,12,01,11,259,36,03,34,307,47,10,06,159,30,14,61,078,44*75
2017-12-01 18:03:35 1512169415.780925: $GPGSV,3,2,12,16,14,189,42,22,48,285,47,29,07,081,23,25,25,043,43*7B
2017-12-01 18:03:35 1512169415.780991: $GPGSV,3,3,12,26,43,175,46,31,74,007,47,32,43,099,44,138,38,213,46*48
2017-12-01 18:03:35 1512169415.894133: $GPZDA,230336.00,01,12,2017,00,00*67
2017-12-01 18:03:35 1512169415.894291: $GPGGA,230336,3946.9727,N,08404.9829,W,2,12,0.60,291.50,M,-33.325,M,,*76
2017-12-01 18:03:35 1512169415.894359: $GPRMC,230336,A,3946.9727,N,08404.9829,W,0.0000,0.000,011217,,*3D
2017-12-01 18:03:35 1512169415.894421: $GPGSA,A,3,1,3,10,14,16,22,29,25,26,31,32,138,2.0,0.6,1.5*02
2017-12-01 18:03:36 1512169416.561542: $GPZDA,230337.00,01,12,2017,00,00*66
2017-12-01 18:03:36 1512169416.561725: $GPGGA,230337,3946.9727,N,08404.9829,W,2,12,0.60,291.50,M,-33.325,M,,*77
2017-12-01 18:03:36 1512169416.561794: $GPRMC,230337,A,3946.9727,N,08404.9829,W,0.0000,0.000,011217,,*3C
2017-12-01 18:03:36 1512169416.561855: $GPGSA,A,3,1,3,10,14,16,22,29,25,26,31,32,138,2.0,0.6,1.5*02
2017-12-01 18:03:36 1512169416.561915: $GPGBS,230337,2.67,M,3.86,M,8.82,M*34
2017-12-01 18:03:37 1512169417.443735: $GPZDA,230338.00,01,12,2017,00,00*69
2017-12-01 18:03:37 1512169417.443935: $GPGGA,230338,3946.9727,N,08404.9829,W,2,12,0.60,291.50,M,-33.325,M,,*78
2017-12-01 18:03:37 1512169417.444006: $GPRMC,230338,A,3946.9727,N,08404.9829,W,0.0000,0.000,011217,,*33
2017-12-01 18:03:37 1512169417.444068: $GPGSA,A,3,1,3,10,14,16,22,29,25,26,31,32,138,2.0,0.6,1.5*02
2017-12-01 18:03:37 1512169417.444129: $GPGBS,230338,2.67,M,3.86,M,8.82,M*3B
2017-12-01 18:03:38 1512169418.780674: $GPGSV,3,1,12,01,11,259,36,03,34,307,46,23,05,297,44,14,61,078,44*75
2017-12-01 18:03:38 1512169418.780872: $GPGSV,3,2,12,16,14,189,42,22,48,285,47,29,07,081,17,25,25,043,43*7C
2017-12-01 18:03:38 1512169418.780939: $GPGSV,3,3,12,26,43,175,46,31,74,007,48,32,43,099,43,138,38,213,47*41
2017-12-01 18:03:38 1512169418.894005: $GPZDA,230339.00,01,12,2017,00,00*68
2017-12-01 18:03:38 1512169418.894172: $GPGGA,230339,3946.9727,N,08404.9829,W,2,12,0.80,291.50,M,-33.325,M,,*77
2017-12-01 18:03:38 1512169418.894241: $GPRMC,230339,A,3946.9727,N,08404.9829,W,0.0000,0.000,011217,,*32
2017-12-01 18:03:38 1512169418.894303: $GPGSA,A,3,1,3,23,14,16,22,29,25,26,31,32,138,2.0,0.8,1.5*0C
2017-12-01 18:03:39 1512169419.446068: $GPZDA,230340.00,01,12,2017,00,00*66
2017-12-01 18:03:39 1512169419.446241: $GPGGA,230340,3946.9727,N,08404.9829,W,2,12,0.80,291.50,M,-33.325,M,,*79
2017-12-01 18:03:39 1512169419.446308: $GPRMC,230340,A,3946.9727,N,08404.9829,W,0.0000,0.000,011217,,*3C
2017-12-01 18:03:39 1512169419.446418: $GPGSA,A,3,1,3,23,14,16,22,29,25,26,31,32,138,2.0,0.8,1.5*0C
2017-12-01 18:03:40 1512169420.445271: $GPZDA,230341.00,01,12,2017,00,00*67
2017-12-01 18:03:40 1512169420.445472: $GPGGA,230341,3946.9727,N,08404.9829,W,2,12,0.80,291.50,M,-33.325,M,,*78
2017-12-01 18:03:40 1512169420.445546: $GPRMC,230341,A,3946.9727,N,08404.9829,W,0.0000,0.000,011217,,*3D
2017-12-01 18:03:40 1512169420.445613: $GPGSA,A,3,1,3,23,14,16,22,29,25,26,31,32,138,2.0,0.8,1.5*0C
2017-12-01 18:03:41 1512169421.780904: $GPGSV,3,1,12,01,11,259,35,03,34,307,46,10,06,159,27,14,61,078,43*76
2017-12-01 18:03:41 1512169421.781085: $GPGSV,3,2,12,16,14,189,43,22,48,285,47,29,07,081,17,25,25,043,43*7D
2017-12-01 18:03:41 1512169421.781153: $GPGSV,3,3,12,26,43,175,46,31,74,007,47,32,43,099,43,138,38,213,47*4E
2017-12-01 18:03:41 1512169421.893034: $GPZDA,230342.00,01,12,2017,00,00*64
2017-12-01 18:03:41 1512169421.893179: $GPGGA,230342,3946.9727,N,08404.9829,W,2,11,0.80,291.50,M,-33.325,M,,*78
2017-12-01 18:03:41 1512169421.893247: $GPRMC,230342,A,3946.9727,N,08404.9829,W,0.0000,0.000,011217,,*3E
2017-12-01 18:03:41 1512169421.893307: $GPGSA,A,3,1,3,14,16,22,29,25,26,31,32,138,,2.0,0.8,1.5*0D
2017-12-01 18:03:42 1512169422.446464: $GPZDA,230343.00,01,12,2017,00,00*65
2017-12-01 18:03:42 1512169422.446636: $GPGGA,230343,3946.9727,N,08404.9829,W,2,11,0.80,291.50,M,-33.325,M,,*79
2017-12-01 18:03:42 1512169422.446705: $GPRMC,230343,A,3946.9727,N,08404.9829,W,0.0000,0.000,011217,,*3F
2017-12-01 18:03:42 1512169422.446766: $GPGSA,A,3,1,3,14,16,22,29,25,26,31,32,138,,2.0,0.8,1.5*0D
2017-12-01 18:03:43 1512169423.444769: $GPZDA,230344.00,01,12,2017,00,00*62
2017-12-01 18:03:43 1512169423.444933: $GPGGA,230344,3946.9727,N,08404.9829,W,2,11,0.80,291.50,M,-33.325,M,,*7E
2017-12-01 18:03:43 1512169423.444999: $GPRMC,230344,A,3946.9727,N,08404.9829,W,0.0000,0.000,011217,,*38
2017-12-01 18:03:43 1512169423.445062: $GPGSA,A,3,1,3,14,16,22,29,25,26,31,32,138,,2.0,0.8,1.5*0D
