2017-12-01 14:00:31 1512154831.076883: {"class":"VERSION","release":"3.16","rev":"3.16-4","proto_major":3,"proto_minor":11}
2017-12-01 14:00:31 1512154831.077270: {"class":"DEVICES","devices":[{"class":"DEVICE","path":"/dev/ttyUSB0","driver":"SiRF","subtype":"9\u0006GSD4e_4.1.2-P1_RPATCH.05-F-GPS-4R-1510281 11/03/2015 307","activated":"2017-12-01T19:00:30.925Z","flags":1,"native":1,"bps":4800,"parity":"N","stopbits":1,"cycle":1.00}]}
2017-12-01 14:00:31 1512154831.077390: {"class":"WATCH","enable":true,"json":false,"nmea":true,"raw":0,"scaled":false,"timing":false,"split24":false,"pps":false}
2017-12-01 14:00:31 1512154831.339641: $GPZDA,190032.00,01,12,2017,00,00*69
2017-12-01 14:00:31 1512154831.339817: $GPGGA,190032,3946.9566,N,08404.9821,W,2,12,0.80,302.22,M,-33.324,M,,*76
2017-12-01 14:00:31 1512154831.339884: $GPRMC,190032,A,3946.9566,N,08404.9821,W,0.0000,0.000,011217,,*3C
2017-12-01 14:00:31 1512154831.339946: $GPGSA,A,3,10,14,15,18,20,21,24,27,32,8,12,138,2.0,0.8,1.5*37
2017-12-01 14:00:32 1512154832.336255: $GPZDA,190033.00,01,12,2017,00,00*68
2017-12-01 14:00:32 1512154832.336443: $GPGGA,190033,3946.9566,N,08404.9821,W,2,12,0.80,302.22,M,-33.324,M,,*77
2017-12-01 14:00:32 1512154832.336527: $GPRMC,190033,A,3946.9566,N,08404.9821,W,0.0000,0.000,011217,,*3D
2017-12-01 14:00:32 1512154832.336588: $GPGSA,A,3,10,14,15,18,20,21,24,27,32,8,12,138,2.0,0.8,1.5*37
2017-12-01 14:00:33 1512154833.673272: $GPGSV,3,1,12,10,60,319,50,14,21,246,39,15,19,061,39,18,76,060,43*75
2017-12-01 14:00:33 1512154833.673573: $GPGSV,3,2,12,20,17,112,43,21,40,181,46,24,51,072,48,27,12,268,41*73
2017-12-01 14:00:33 1512154833.673696: $GPGSV,3,3,12,32,38,255,42,08,08,303,36,12,03,115,25,138,38,213,47*41
2017-12-01 14:00:33 1512154833.786582: $GPZDA,190034.00,01,12,2017,00,00*6F
2017-12-01 14:00:33 1512154833.786748: $GPGGA,190034,3946.9566,N,08404.9821,W,2,12,0.80,302.22,M,-33.324,M,,*70
2017-12-01 14:00:33 1512154833.786814: $GPRMC,190034,A,3946.9566,N,08404.9821,W,0.0000,0.000,011217,,*3A
2017-12-01 14:00:33 1512154833.786876: $GPGSA,A,3,10,14,15,18,20,21,24,27,32,8,12,138,2.0,0.8,1.5*37
2017-12-01 14:00:34 1512154834.337450: $GPZDA,190035.00,01,12,2017,00,00*6E
2017-12-01 14:00:34 1512154834.337639: $GPGGA,190035,3946.9563,N,08404.9821,W,2,12,0.80,302.98,M,-33.324,M,,*75
2017-12-01 14:00:34 1512154834.337706: $GPRMC,190035,A,3946.9563,N,08404.9821,W,0.0000,0.000,011217,,*3E
2017-12-01 14:00:34 1512154834.337767: $GPGSA,A,3,10,14,15,18,20,21,24,27,32,8,12,138,2.0,0.8,1.5*37
2017-12-01 14:00:35 1512154835.338344: $GPZDA,190036.00,01,12,2017,00,00*6D
2017-12-01 14:00:35 1512154835.338550: $GPGGA,190036,3946.9567,N,08404.9821,W,2,12,0.80,303.62,M,-33.324,M,,*76
2017-12-01 14:00:35 1512154835.338622: $GPRMC,190036,A,3946.9567,N,08404.9821,W,0.0000,0.000,011217,,*39
2017-12-01 14:00:35 1512154835.338687: $GPGSA,A,3,10,14,15,18,20,21,24,27,32,8,12,138,2.0,0.8,1.5*37
2017-12-01 14:00:36 1512154836.672780: $GPGSV,3,1,12,10,60,319,50,14,21,246,38,15,19,061,39,18,76,060,43*74
2017-12-01 14:00:36 1512154836.672964: $GPGSV,3,2,12,20,17,112,44,21,40,181,46,24,51,072,48,27,12,268,40*75
2017-12-01 14:00:36 1512154836.673034: $GPGSV,3,3,12,32,38,255,42,08,08,303,36,12,03,115,24,138,38,213,47*40
2017-12-01 14:00:36 1512154836.785097: $GPZDA,190037.00,01,12,2017,00,00*6C
2017-12-01 14:00:36 1512154836.785273: $GPGGA,190037,3946.9567,N,08404.9821,W,2,12,0.80,303.62,M,-33.324,M,,*77
2017-12-01 14:00:36 1512154836.785367: $GPRMC,190037,A,3946.9567,N,08404.9821,W,0.0000,0.000,011217,,*38
2017-12-01 14:00:36 1512154836.785433: $GPGSA,A,3,10,14,15,18,20,21,24,27,32,8,12,138,2.0,0.8,1.5*37
2017-12-01 14:00:37 1512154837.411686: $GPZDA,190038.00,01,12,2017,00,00*63
2017-12-01 14:00:37 1512154837.411860: $GPGGA,190038,3946.9567,N,08404.9821,W,2,12,0.80,303.62,M,-33.324,M,,*78
2017-12-01 14:00:37 1512154837.411930: $GPRMC,190038,A,3946.9567,N,08404.9821,W,0.0000,0.000,011217,,*37
2017-12-01 14:00:37 1512154837.411994: $GPGSA,A,3,10,14,15,18,20,21,24,27,32,8,12,138,2.0,0.8,1.5*37
2017-12-01 14:00:38 1512154838.337799: $GPZDA,190039.00,01,12,2017,00,00*62
2017-12-01 14:00:38 1512154838.338038: $GPGGA,190039,3946.9567,N,08404.9821,W,2,12,0.80,303.62,M,-33.324,M,,*79
2017-12-01 14:00:38 1512154838.338110: $GPRMC,190039,A,3946.9567,N,08404.9821,W,0.0000,0.000,011217,,*36
2017-12-01 14:00:38 1512154838.338172: $GPGSA,A,3,10,14,15,18,20,21,24,27,32,8,12,138,2.0,0.8,1.5*37
2017-12-01 14:00:39 1512154839.674401: $GPGSV,3,1,12,10,60,319,50,14,21,246,38,15,19,061,39,18,76,060,43*74
2017-12-01 14:00:39 1512154839.674570: $GPGSV,3,2,12,20,17,112,44,21,40,181,46,24,51,072,48,27,12,268,41*74
2017-12-01 14:00:39 1512154839.674635: $GPGSV,3,3,12,32,38,255,43,08,08,303,29,12,03,115,23,138,38,213,46*49
2017-12-01 14:00:39 1512154839.787774: $GPZDA,190040.00,01,12,2017,00,00*6C
2017-12-01 14:00:39 1512154839.787946: $GPGGA,190040,3946.9567,N,08404.9821,W,2,12,0.80,303.62,M,-33.324,M,,*77
2017-12-01 14:00:39 1512154839.788012: $GPRMC,190040,A,3946.9567,N,08404.9821,W,0.0000,0.000,011217,,*38
2017-12-01 14:00:39 1512154839.788073: $GPGSA,A,3,10,14,15,18,20,21,24,27,32,8,12,138,2.0,0.8,1.5*37
2017-12-01 14:00:40 1512154840.338727: $GPZDA,190041.00,01,12,2017,00,00*6D
2017-12-01 14:00:40 1512154840.338919: $GPGGA,190041,3946.9567,N,08404.9821,W,2,12,0.80,303.62,M,-33.324,M,,*76
2017-12-01 14:00:40 1512154840.338991: $GPRMC,190041,A,3946.9567,N,08404.9821,W,0.0000,0.000,011217,,*39
2017-12-01 14:00:40 1512154840.339056: $GPGSA,A,3,10,14,15,18,20,21,24,27,32,8,12,138,2.0,0.8,1.5*37
2017-12-01 14:00:41 1512154841.337085: $GPZDA,190042.00,01,12,2017,00,00*6E
2017-12-01 14:00:41 1512154841.337256: $GPGGA,190042,3946.9567,N,08404.9821,W,2,12,0.80,303.62,M,-33.324,M,,*75
2017-12-01 14:00:41 1512154841.337346: $GPRMC,190042,A,3946.9567,N,08404.9821,W,0.0000,0.000,011217,,*3A
2017-12-01 14:00:41 1512154841.337412: $GPGSA,A,3,10,14,15,18,20,21,24,27,32,8,12,138,2.0,0.8,1.5*37
2017-12-01 14:00:42 1512154842.673502: $GPGSV,3,1,12,10,60,319,50,14,21,246,39,15,19,061,39,18,76,060,43*75
2017-12-01 14:00:42 1512154842.673686: $GPGSV,3,2,12,20,17,112,44,21,40,181,45,24,51,072,48,27,12,268,42*74
2017-12-01 14:00:42 1512154842.673755: $GPGSV,3,3,12,32,38,255,43,08,08,303,30,12,03,115,21,138,38,213,48*4D
2017-12-01 14:00:42 1512154842.786907: $GPZDA,190043.00,01,12,2017,00,00*6F
2017-12-01 14:00:42 1512154842.787080: $GPGGA,190043,3946.9567,N,08404.9821,W,2,12,0.80,303.62,M,-33.324,M,,*74
2017-12-01 14:00:42 1512154842.787150: $GPRMC,190043,A,3946.9567,N,08404.9821,W,0.0000,0.000,011217,,*3B
2017-12-01 14:00:42 1512154842.787214: $GPGSA,A,3,10,14,15,18,20,21,24,27,32,8,12,138,2.0,0.8,1.5*37
2017-12-01 14:00:43 1512154843.340340: $GPZDA,190044.00,01,12,2017,00,00*68
2017-12-01 14:00:43 1512154843.340531: $GPGGA,190044,3946.9567,N,08404.9821,W,2,12,0.80,303.62,M,-33.324,M,,*73
2017-12-01 14:00:43 1512154843.340602: $GPRMC,190044,A,3946.9567,N,08404.9821,W,0.0000,0.000,011217,,*3C
2017-12-01 14:00:43 1512154843.340666: $GPGSA,A,3,10,14,15,18,20,21,24,27,32,8,12,138,2.0,0.8,1.5*37
2017-12-01 14:00:44 1512154844.338680: $GPZDA,190045.00,01,12,2017,00,00*69
2017-12-01 14:00:44 1512154844.338857: $GPGGA,190045,3946.9567,N,08404.9821,W,2,12,0.80,303.62,M,-33.324,M,,*72
2017-12-01 14:00:44 1512154844.338928: $GPRMC,190045,A,3946.9567,N,08404.9821,W,0.0000,0.000,011217,,*3D
2017-12-01 14:00:44 1512154844.338992: $GPGSA,A,3,10,14,15,18,20,21,24,27,32,8,12,138,2.0,0.8,1.5*37
2017-12-01 14:00:45 1512154845.701884: $GPGSV,3,1,12,10,60,319,50,14,21,246,39,15,19,061,39,18,76,060,43*75
2017-12-01 14:00:45 1512154845.702055: $GPGSV,3,2,12,20,17,112,44,21,40,181,46,24,51,072,48,27,12,268,42*77
2017-12-01 14:00:45 1512154845.702125: $GPGSV,3,3,12,32,38,255,43,08,08,303,30,12,03,115,10,138,38,213,46*41
2017-12-01 14:00:45 1512154845.815349: $GPZDA,190046.00,01,12,2017,00,00*6A
2017-12-01 14:00:45 1512154845.815530: $GPGGA,190046,3946.9567,N,08404.9821,W,2,12,0.80,303.62,M,-33.324,M,,*71
2017-12-01 14:00:45 1512154845.815599: $GPRMC,190046,A,3946.9567,N,08404.9821,W,0.0000,0.000,011217,,*3E
2017-12-01 14:00:45 1512154845.815664: $GPGSA,A,3,10,14,15,18,20,21,24,27,32,8,12,138,2.0,0.8,1.5*37
