2017-12-14 12:32:33 1513272753.105725: {"class":"VERSION","release":"3.16","rev":"3.16-4","proto_major":3,"proto_minor":11}
2017-12-14 12:32:33 1513272753.106136: {"class":"DEVICES","devices":[{"class":"DEVICE","path":"/dev/ttyUSB0","driver":"SiRF","subtype":"9\u0006GSD4e_4.1.2-P1_RPATCH.05-F-GPS-4R-1510281 11/03/2015 307","activated":"2017-12-14T17:32:32.314Z","flags":1,"native":1,"bps":4800,"parity":"N","stopbits":1,"cycle":1.00}]}
2017-12-14 12:32:33 1513272753.106255: {"class":"WATCH","enable":true,"json":false,"nmea":true,"raw":0,"scaled":false,"timing":false,"split24":false,"pps":false}
2017-12-14 12:32:33 1513272753.509708: $GPGSV,3,1,12,15,32,054,20,18,75,355,11,20,29,100,08,27,18,283,15*77
2017-12-14 12:32:33 1513272753.509871: $GPGSV,3,2,12,32,26,243,18,24,53,099,16,10,47,306,16,14,09,235,00*7D
2017-12-14 12:32:33 1513272753.509935: $GPGSV,3,3,12,08,07,316,00,21,56,184,00,13,02,051,00,138,38,213,00*49
2017-12-14 12:32:33 1513272753.623433: $GPZDA,173234.00,14,12,2017,00,00*64
2017-12-14 12:32:33 1513272753.623598: $GPGGA,173234,3946.9588,N,08404.9407,W,1,07,1.20,347.48,M,-33.324,M,,*76
2017-12-14 12:32:33 1513272753.623664: $GPRMC,173234,A,3946.9588,N,08404.9407,W,1.1234,211.295,141217,,*30
2017-12-14 12:32:33 1513272753.623724: $GPGSA,A,3,15,18,20,27,32,24,10,,,,,,6.6,1.2,6.2*39
2017-12-14 12:32:34 1513272754.172414: $GPZDA,173235.00,14,12,2017,00,00*65
2017-12-14 12:32:34 1513272754.172579: $GPGGA,173235,3946.9581,N,08404.9416,W,1,07,1.40,348.93,M,-33.324,M,,*71
2017-12-14 12:32:34 1513272754.172644: $GPRMC,173235,A,3946.9581,N,08404.9416,W,1.5977,236.587,141217,,*31
2017-12-14 12:32:34 1513272754.172705: $GPGSA,A,3,15,18,20,27,32,24,10,,,,,,6.6,1.4,6.2*3F
2017-12-14 12:32:35 1513272755.173607: $GPZDA,173236.00,14,12,2017,00,00*66
2017-12-14 12:32:35 1513272755.173777: $GPGGA,173236,3946.9582,N,08404.9423,W,1,07,1.40,348.85,M,-33.324,M,,*70
2017-12-14 12:32:35 1513272755.173841: $GPRMC,173236,A,3946.9582,N,08404.9423,W,1.1957,240.622,141217,,*3C
2017-12-14 12:32:35 1513272755.173902: $GPGSA,A,3,15,18,20,27,32,24,10,,,,,,6.6,1.4,6.2*3F
2017-12-14 12:32:36 1513272756.505825: $GPGSV,3,1,12,15,32,054,20,18,75,355,00,20,29,100,06,27,18,283,15*79
2017-12-14 12:32:36 1513272756.506002: $GPGSV,3,2,12,32,26,243,18,24,53,099,16,10,47,306,17,21,56,184,12*7A
2017-12-14 12:32:36 1513272756.506066: $GPGSV,3,3,12,14,09,235,00,08,07,316,00,13,02,051,00,138,38,213,00*4C
2017-12-14 12:32:36 1513272756.619458: $GPZDA,173237.00,14,12,2017,00,00*67
2017-12-14 12:32:36 1513272756.619605: $GPGGA,173237,3946.9570,N,08404.9423,W,1,05,1.40,348.33,M,-33.324,M,,*73
2017-12-14 12:32:36 1513272756.619671: $GPRMC,173237,A,3946.9570,N,08404.9423,W,1.6744,220.706,141217,,*3A
2017-12-14 12:32:36 1513272756.619731: $GPGSA,A,3,15,27,32,24,10,,,,,,,,6.6,1.4,6.2*34
2017-12-14 12:32:37 1513272757.171599: $GPZDA,173238.00,14,12,2017,00,00*68
2017-12-14 12:32:37 1513272757.171765: $GPGGA,173238,3946.9570,N,08404.9430,W,1,05,1.40,348.25,M,-33.324,M,,*79
2017-12-14 12:32:37 1513272757.171830: $GPRMC,173238,A,3946.9570,N,08404.9430,W,1.3998,216.125,141217,,*3F
2017-12-14 12:32:37 1513272757.171890: $GPGSA,A,3,15,27,32,24,10,,,,,,,,6.6,1.4,6.2*34
2017-12-14 12:32:38 1513272758.171718: $GPZDA,173239.00,14,12,2017,00,00*69
2017-12-14 12:32:38 1513272758.171894: $GPGGA,173239,3946.9566,N,08404.9430,W,1,05,1.40,347.61,M,-33.324,M,,*70
2017-12-14 12:32:38 1513272758.171979: $GPRMC,173239,A,3946.9566,N,08404.9430,W,1.3998,216.125,141217,,*39
2017-12-14 12:32:38 1513272758.172042: $GPGSA,A,3,15,27,32,24,10,,,,,,,,6.6,1.4,6.2*34
2017-12-14 12:32:39 1513272759.507684: $GPGSV,3,1,12,15,32,054,20,08,07,316,12,20,29,100,07,27,18,283,15*78
2017-12-14 12:32:39 1513272759.507848: $GPGSV,3,2,12,32,26,243,18,24,53,099,15,10,47,306,18,21,56,184,11*75
2017-12-14 12:32:39 1513272759.507932: $GPGSV,3,3,12,18,75,355,00,14,09,235,00,13,02,051,00,138,38,213,00*4F
2017-12-14 12:32:39 1513272759.621398: $GPZDA,173240.00,14,12,2017,00,00*67
2017-12-14 12:32:39 1513272759.621563: $GPGGA,173240,3946.9563,N,08404.9431,W,1,07,1.40,348.38,M,-33.324,M,,*7B
2017-12-14 12:32:39 1513272759.621701: $GPRMC,173240,A,3946.9563,N,08404.9431,W,1.2538,221.162,141217,,*33
2017-12-14 12:32:39 1513272759.621765: $GPGSA,A,3,15,20,27,32,24,10,21,,,,,,6.6,1.4,6.2*35
2017-12-14 12:32:40 1513272760.175357: $GPZDA,173241.00,14,12,2017,00,00*66
2017-12-14 12:32:40 1513272760.175523: $GPGGA,173241,3946.9554,N,08404.9431,W,1,07,1.40,347.10,M,-33.324,M,,*7B
2017-12-14 12:32:40 1513272760.175588: $GPRMC,173241,A,3946.9554,N,08404.9431,W,1.0567,197.448,141217,,*3D
2017-12-14 12:32:40 1513272760.175649: $GPGSA,A,3,15,20,27,32,24,10,21,,,,,,6.6,1.4,6.2*35
2017-12-14 12:32:41 1513272761.172640: $GPZDA,173242.00,14,12,2017,00,00*65
2017-12-14 12:32:41 1513272761.172823: $GPGGA,173242,3946.9554,N,08404.9431,W,1,07,1.40,347.10,M,-33.324,M,,*78
2017-12-14 12:32:41 1513272761.172889: $GPRMC,173242,A,3946.9554,N,08404.9431,W,1.0567,197.448,141217,,*3E
2017-12-14 12:32:41 1513272761.172950: $GPGSA,A,3,15,20,27,32,24,10,21,,,,,,6.6,1.4,6.2*35
2017-12-14 12:32:42 1513272762.509511: $GPGSV,3,1,12,15,32,054,20,08,07,316,11,20,29,100,10,27,18,283,15*7D
2017-12-14 12:32:42 1513272762.509689: $GPGSV,3,2,12,32,26,243,17,24,53,099,16,10,47,306,18,18,75,355,00*7C
2017-12-14 12:32:42 1513272762.509755: $GPGSV,3,3,12,14,09,235,00,21,56,184,00,13,02,051,00,138,38,213,00*4A
2017-12-14 12:32:42 1513272762.622998: $GPZDA,173243.00,14,12,2017,00,00*64
2017-12-14 12:32:42 1513272762.623143: $GPGGA,173243,3946.9554,N,08404.9431,W,1,06,1.40,347.10,M,-33.324,M,,*78
2017-12-14 12:32:42 1513272762.623207: $GPRMC,173243,A,3946.9554,N,08404.9431,W,0.3423,184.197,141217,,*39
2017-12-14 12:32:42 1513272762.623267: $GPGSA,A,3,15,20,27,32,24,10,,,,,,,6.6,1.4,6.2*36
2017-12-14 12:32:43 1513272763.174980: $GPZDA,173244.00,14,12,2017,00,00*63
2017-12-14 12:32:43 1513272763.175479: $GPGGA,173244,3946.9550,N,08404.9431,W,1,06,1.40,346.46,M,-33.324,M,,*79
2017-12-14 12:32:43 1513272763.221265: $GPRMC,173244,A,3946.9550,N,08404.9431,W,0.5287,182.716,141217,,*3D
2017-12-14 12:32:43 1513272763.221436: $GPGSA,A,3,15,20,27,32,24,10,,,,,,,6.6,1.4,6.2*36
2017-12-14 12:32:44 1513272764.173507: $GPZDA,173245.00,14,12,2017,00,00*62
2017-12-14 12:32:44 1513272764.173674: $GPGGA,173245,3946.9547,N,08404.9432,W,1,06,1.40,347.22,M,-33.324,M,,*7E
2017-12-14 12:32:44 1513272764.173739: $GPRMC,173245,A,3946.9547,N,08404.9432,W,0.8359,148.778,141217,,*38
2017-12-14 12:32:44 1513272764.173801: $GPGSA,A,3,15,20,27,32,24,10,,,,,,,6.6,1.4,6.2*36
2017-12-14 12:32:45 1513272765.509329: $GPGSV,3,1,12,15,32,054,20,08,07,316,12,20,29,100,13,27,18,283,15*7D
2017-12-14 12:32:45 1513272765.509487: $GPGSV,3,2,12,32,26,243,17,24,53,099,16,10,47,306,17,13,02,051,14*7A
2017-12-14 12:32:45 1513272765.509554: $GPGSV,3,3,12,18,75,355,00,14,09,235,00,21,56,184,00,138,38,213,00*46
2017-12-14 12:32:45 1513272765.622773: $GPZDA,173246.00,14,12,2017,00,00*61
2017-12-14 12:32:45 1513272765.622944: $GPGGA,173246,3946.9543,N,08404.9433,W,1,07,1.40,347.99,M,-33.324,M,,*79
2017-12-14 12:32:45 1513272765.623012: $GPRMC,173246,A,3946.9543,N,08404.9433,W,0.6846,184.197,141217,,*32
2017-12-14 12:32:45 1513272765.623076: $GPGSA,A,3,15,8,20,27,32,24,10,,,,,,6.6,1.4,6.2*0E
2017-12-14 12:32:46 1513272766.172941: $GPZDA,173247.00,14,12,2017,00,00*60
2017-12-14 12:32:46 1513272766.173088: $GPGGA,173247,3946.9543,N,08404.9426,W,1,07,1.40,348.07,M,-33.324,M,,*74
2017-12-14 12:32:46 1513272766.173160: $GPRMC,173247,A,3946.9543,N,08404.9426,W,0.4179,148.778,141217,,*37
2017-12-14 12:32:46 1513272766.173221: $GPGSA,A,3,15,8,20,27,32,24,10,,,,,,6.6,1.4,6.2*0E
2017-12-14 12:32:47 1513272767.172531: $GPZDA,173248.00,14,12,2017,00,00*6F
2017-12-14 12:32:47 1513272767.172698: $GPGGA,173248,3946.9539,N,08404.9426,W,1,07,1.40,347.43,M,-33.324,M,,*79
2017-12-14 12:32:47 1513272767.172766: $GPRMC,173248,A,3946.9539,N,08404.9426,W,0.4985,185.768,141217,,*3E
2017-12-14 12:32:47 1513272767.172827: $GPGSA,A,3,15,8,20,27,32,24,10,,,,,,6.6,1.4,6.2*0E
2017-12-14 12:32:48 1513272768.508710: $GPGSV,3,1,12,15,32,054,20,08,07,316,12,20,29,100,13,27,18,283,15*7D
2017-12-14 12:32:48 1513272768.804708: $GPGSV,3,2,12,32,26,243,16,24,53,099,16,10,47,306,17,18,75,355,05*77
2017-12-14 12:32:48 1513272768.804917: $GPGSV,3,3,12,14,09,235,00,21,56,184,00,13,02,051,00,138,38,213,00*4A
2017-12-14 12:32:48 1513272768.805029: $GPZDA,173249.00,14,12,2017,00,00*6E
2017-12-14 12:32:48 1513272768.805087: $GPGGA,173249,3946.9535,N,08404.9426,W,1,07,1.40,348.19,M,-33.324,M,,*74
2017-12-14 12:32:48 1513272768.805151: $GPRMC,173249,A,3946.9535,N,08404.9426,W,0.7278,203.636,141217,,*3E
2017-12-14 12:32:48 1513272768.805210: $GPGSA,A,3,15,8,20,27,32,24,10,,,,,,6.6,1.4,6.2*0E
2017-12-14 12:32:49 1513272769.173486: $GPZDA,173250.00,14,12,2017,00,00*66
2017-12-14 12:32:49 1513272769.173655: $GPGGA,173250,3946.9531,N,08404.9426,W,1,07,1.40,347.55,M,-33.324,M,,*7F
2017-12-14 12:32:49 1513272769.173721: $GPRMC,173250,A,3946.9531,N,08404.9426,W,1.1385,209.379,141217,,*32
2017-12-14 12:32:49 1513272769.173784: $GPGSA,A,3,15,8,20,27,32,24,10,,,,,,6.6,1.4,6.2*0E
2017-12-14 12:32:50 1513272770.173570: $GPZDA,173251.00,14,12,2017,00,00*67
2017-12-14 12:32:50 1513272770.173754: $GPGGA,173251,3946.9528,N,08404.9427,W,1,07,1.40,348.32,M,-33.324,M,,*79
2017-12-14 12:32:50 1513272770.173821: $GPRMC,173251,A,3946.9528,N,08404.9427,W,1.1385,209.379,141217,,*3A
2017-12-14 12:32:50 1513272770.173884: $GPGSA,A,3,15,8,20,27,32,24,10,,,,,,6.6,1.4,6.2*0E
2017-12-14 12:32:51 1513272771.509805: $GPGSV,3,1,12,15,32,054,20,14,09,235,00,20,29,100,14,27,18,283,14*7B
2017-12-14 12:32:51 1513272771.509983: $GPGSV,3,2,12,32,26,243,15,24,53,099,16,10,47,306,18,18,75,355,06*78
2017-12-14 12:32:51 1513272771.510051: $GPGSV,3,3,12,08,07,316,00,21,56,184,00,13,02,051,00,138,38,213,00*49
2017-12-14 12:32:51 1513272771.623269: $GPZDA,173252.00,14,12,2017,00,00*64
2017-12-14 12:32:51 1513272771.623438: $GPGGA,173252,3946.9524,N,08404.9434,W,1,06,1.40,347.60,M,-33.324,M,,*7D
2017-12-14 12:32:51 1513272771.623505: $GPRMC,173252,A,3946.9524,N,08404.9434,W,0.8414,219.347,141217,,*3C
2017-12-14 12:32:51 1513272771.623566: $GPGSA,A,3,15,20,27,32,24,10,,,,,,,6.6,1.4,6.2*36
2017-12-14 12:32:52 1513272772.174076: $GPZDA,173253.00,14,12,2017,00,00*65
2017-12-14 12:32:52 1513272772.174263: $GPGGA,173253,3946.9520,N,08404.9435,W,1,06,1.40,348.36,M,-33.324,M,,*75
2017-12-14 12:32:52 1513272772.174330: $GPRMC,173253,A,3946.9520,N,08404.9435,W,0.5951,238.684,141217,,*30
2017-12-14 12:32:52 1513272772.174394: $GPGSA,A,3,15,20,27,32,24,10,,,,,,,6.6,1.4,6.2*36
