2017-12-01 17:17:19 1512166639.768107: {"class":"VERSION","release":"3.16","rev":"3.16-4","proto_major":3,"proto_minor":11}
2017-12-01 17:17:19 1512166639.768482: {"class":"DEVICES","devices":[{"class":"DEVICE","path":"/dev/ttyUSB0","driver":"SiRF","subtype":"9\u0006GSD4e_4.1.2-P1_RPATCH.05-F-GPS-4R-1510281 11/03/2015 307","activated":"2017-12-01T22:17:19.342Z","flags":1,"native":1,"bps":4800,"parity":"N","stopbits":1,"cycle":1.00}]}
2017-12-01 17:17:19 1512166639.768594: {"class":"WATCH","enable":true,"json":false,"nmea":true,"raw":0,"scaled":false,"timing":false,"split24":false,"pps":false}
2017-12-01 17:17:19 1512166639.946214: $GPZDA,221720.60,01,12,2017,00,00*62
2017-12-01 17:17:19 1512166639.946375: $GPGGA,221720,3946.9621,N,08404.9780,W,1,11,1.00,300.98,M,-33.324,M,,*75
2017-12-01 17:17:19 1512166639.946442: $GPRMC,221720,A,3946.9621,N,08404.9780,W,0.4345,85.764,011217,,*0B
2017-12-01 17:17:19 1512166639.946503: $GPGSA,A,3,1,3,10,14,22,26,31,32,12,25,138,,2.0,1.0,1.5*0A
2017-12-01 17:17:19 1512166639.946560: $GPGBS,221720,10.70,M,15.43,M,35.28,M*03
2017-12-01 17:17:21 1512166641.027724: $GPZDA,221721.28,01,12,2017,00,00*6F
2017-12-01 17:17:21 1512166641.027900: $GPGGA,221721,3946.9621,N,08404.9773,W,1,11,1.00,301.06,M,-33.324,M,,*7E
2017-12-01 17:17:21 1512166641.027967: $GPRMC,221721,A,3946.9621,N,08404.9773,W,0.1975,75.900,011217,,*09
2017-12-01 17:17:21 1512166641.028029: $GPGSA,A,3,1,3,10,14,22,26,31,32,12,25,138,,2.0,1.0,1.5*0A
2017-12-01 17:17:22 1512166642.170363: $GPGSV,3,1,11,01,20,279,43,03,18,316,43,10,26,156,40,14,70,027,46*7C
2017-12-01 17:17:22 1512166642.170543: $GPGSV,3,2,11,22,36,306,44,25,38,061,35,26,22,178,39,31,76,264,47*75
2017-12-01 17:17:22 1512166642.170609: $GPGSV,3,3,11,32,57,073,48,12,10,034,11,138,38,213,00*76
2017-12-01 17:17:22 1512166642.284064: $GPZDA,221722.00,01,12,2017,00,00*66
2017-12-01 17:17:22 1512166642.284219: $GPGGA,221722,3946.9625,N,08404.9773,W,1,10,0.80,301.70,M,-33.324,M,,*70
2017-12-01 17:17:22 1512166642.284286: $GPRMC,221722,A,3946.9625,N,08404.9773,W,0.0814,322.013,011217,,*33
2017-12-01 17:17:22 1512166642.284346: $GPGSA,A,3,1,3,10,14,22,25,26,31,32,12,,,2.0,0.8,1.5*39
2017-12-01 17:17:22 1512166642.735887: $GPZDA,221723.00,01,12,2017,00,00*67
2017-12-01 17:17:22 1512166642.736066: $GPGGA,221723,3946.9628,N,08404.9772,W,1,10,0.80,300.93,M,-33.324,M,,*71
2017-12-01 17:17:22 1512166642.736133: $GPRMC,221723,A,3946.9628,N,08404.9772,W,0.0407,322.013,011217,,*30
2017-12-01 17:17:22 1512166642.736194: $GPGSA,A,3,1,3,10,14,22,25,26,31,32,12,,,2.0,0.8,1.5*39
2017-12-01 17:17:23 1512166643.437937: $GPZDA,221724.00,01,12,2017,00,00*60
2017-12-01 17:17:23 1512166643.438153: $GPGGA,221724,3946.9628,N,08404.9772,W,1,10,0.80,300.93,M,-33.324,M,,*76
2017-12-01 17:17:23 1512166643.438224: $GPRMC,221724,A,3946.9628,N,08404.9772,W,0.0000,0.000,011217,,*35
2017-12-01 17:17:23 1512166643.438289: $GPGSA,A,3,1,3,10,14,22,25,26,31,32,12,,,2.0,0.8,1.5*39
2017-12-01 17:17:24 1512166644.774443: $GPGSV,3,1,11,01,20,279,43,03,18,316,42,10,26,156,39,14,70,027,46*73
2017-12-01 17:17:24 1512166644.774623: $GPGSV,3,2,11,22,36,306,44,25,38,061,34,26,22,178,38,31,76,264,48*7A
2017-12-01 17:17:24 1512166644.774692: $GPGSV,3,3,11,32,57,073,48,12,10,034,30,138,38,213,41*70
2017-12-01 17:17:24 1512166644.888061: $GPZDA,221725.00,01,12,2017,00,00*61
2017-12-01 17:17:24 1512166644.888224: $GPGGA,221725,3946.9632,N,08404.9771,W,1,11,0.80,300.17,M,-33.324,M,,*72
2017-12-01 17:17:24 1512166644.888292: $GPRMC,221725,A,3946.9632,N,08404.9771,W,0.0000,0.000,011217,,*3C
2017-12-01 17:17:24 1512166644.888356: $GPGSA,A,3,1,3,10,14,22,25,26,31,32,12,138,,2.0,0.8,1.5*03
2017-12-01 17:17:25 1512166645.438997: $GPZDA,221726.00,01,12,2017,00,00*62
2017-12-01 17:17:25 1512166645.439201: $GPGGA,221726,3946.9636,N,08404.9771,W,1,11,0.80,300.81,M,-33.324,M,,*7A
2017-12-01 17:17:25 1512166645.439300: $GPRMC,221726,A,3946.9636,N,08404.9771,W,0.0000,0.000,011217,,*3B
2017-12-01 17:17:25 1512166645.439365: $GPGSA,A,3,1,3,10,14,22,25,26,31,32,12,138,,2.0,0.8,1.5*03
2017-12-01 17:17:26 1512166646.438453: $GPZDA,221727.00,01,12,2017,00,00*63
2017-12-01 17:17:26 1512166646.438677: $GPGGA,221727,3946.9636,N,08404.9771,W,1,11,0.80,300.81,M,-33.324,M,,*7B
2017-12-01 17:17:26 1512166646.438746: $GPRMC,221727,A,3946.9636,N,08404.9771,W,0.0000,0.000,011217,,*3A
2017-12-01 17:17:26 1512166646.438807: $GPGSA,A,3,1,3,10,14,22,25,26,31,32,12,138,,2.0,0.8,1.5*03
2017-12-01 17:17:26 1512166646.438865: $GPGBS,221727,10.70,M,15.43,M,35.28,M*04
2017-12-01 17:17:27 1512166647.773882: $GPGSV,3,1,11,01,20,279,42,03,18,316,42,10,26,156,39,14,70,027,45*71
2017-12-01 17:17:27 1512166647.774064: $GPGSV,3,2,11,22,36,306,44,25,38,061,34,26,22,178,37,31,76,264,48*75
2017-12-01 17:17:27 1512166647.774159: $GPGSV,3,3,11,32,57,073,48,12,10,034,30,138,38,213,40*71
2017-12-01 17:17:27 1512166647.887295: $GPZDA,221728.00,01,12,2017,00,00*6C
2017-12-01 17:17:27 1512166647.887487: $GPGGA,221728,3946.9654,N,08404.9755,W,2,11,1.20,299.95,M,-33.324,M,,*7A
2017-12-01 17:17:27 1512166647.887555: $GPRMC,221728,A,3946.9654,N,08404.9755,W,0.0000,0.000,011217,,*37
2017-12-01 17:17:27 1512166647.887617: $GPGSA,A,3,1,3,10,14,22,25,26,31,32,12,138,,2.0,1.2,1.5*08
2017-12-01 17:17:28 1512166648.439717: $GPZDA,221729.00,01,12,2017,00,00*6D
2017-12-01 17:17:28 1512166648.439900: $GPGGA,221729,3946.9654,N,08404.9755,W,2,11,1.00,299.95,M,-33.324,M,,*79
2017-12-01 17:17:28 1512166648.439989: $GPRMC,221729,A,3946.9654,N,08404.9755,W,0.0000,0.000,011217,,*36
2017-12-01 17:17:28 1512166648.440052: $GPGSA,A,3,1,3,10,14,22,25,26,31,32,12,138,,2.0,1.0,1.5*0A
2017-12-01 17:17:29 1512166649.441313: $GPZDA,221730.00,01,12,2017,00,00*65
2017-12-01 17:17:29 1512166649.441542: $GPGGA,221730,3946.9654,N,08404.9755,W,2,11,0.80,299.95,M,-33.324,M,,*78
2017-12-01 17:17:29 1512166649.441610: $GPRMC,221730,A,3946.9654,N,08404.9755,W,0.0000,0.000,011217,,*3E
2017-12-01 17:17:29 1512166649.441671: $GPGSA,A,3,1,3,10,14,22,25,26,31,32,12,138,,2.0,0.8,1.5*03
2017-12-01 17:17:30 1512166650.776791: $GPGSV,3,1,11,01,20,279,43,03,18,316,42,10,26,156,34,14,70,027,45*7D
2017-12-01 17:17:30 1512166650.776973: $GPGSV,3,2,11,22,36,306,44,25,38,061,34,26,22,178,37,31,76,264,47*7A
2017-12-01 17:17:30 1512166650.777041: $GPGSV,3,3,11,32,57,073,48,12,10,034,30,138,38,213,40*71
2017-12-01 17:17:30 1512166650.890511: $GPZDA,221731.00,01,12,2017,00,00*64
2017-12-01 17:17:30 1512166650.890684: $GPGGA,221731,3946.9654,N,08404.9755,W,2,11,0.80,299.95,M,-33.324,M,,*79
2017-12-01 17:17:30 1512166650.890750: $GPRMC,221731,A,3946.9654,N,08404.9755,W,0.0000,0.000,011217,,*3F
2017-12-01 17:17:30 1512166650.890811: $GPGSA,A,3,1,3,10,14,22,25,26,31,32,12,138,,2.0,0.8,1.5*03
2017-12-01 17:17:31 1512166651.440069: $GPZDA,221732.00,01,12,2017,00,00*67
2017-12-01 17:17:31 1512166651.440257: $GPGGA,221732,3946.9654,N,08404.9755,W,2,11,0.80,299.95,M,-33.324,M,,*7A
2017-12-01 17:17:31 1512166651.440325: $GPRMC,221732,A,3946.9654,N,08404.9755,W,0.0000,0.000,011217,,*3C
2017-12-01 17:17:31 1512166651.440385: $GPGSA,A,3,1,3,10,14,22,25,26,31,32,12,138,,2.0,0.8,1.5*03
2017-12-01 17:17:32 1512166652.438411: $GPZDA,221733.00,01,12,2017,00,00*66
2017-12-01 17:17:32 1512166652.438584: $GPGGA,221733,3946.9654,N,08404.9755,W,2,11,0.80,299.95,M,-33.324,M,,*7B
2017-12-01 17:17:32 1512166652.438651: $GPRMC,221733,A,3946.9654,N,08404.9755,W,0.0000,0.000,011217,,*3D
2017-12-01 17:17:32 1512166652.438711: $GPGSA,A,3,1,3,10,14,22,25,26,31,32,12,138,,2.0,0.8,1.5*03
2017-12-01 17:17:33 1512166653.773848: $GPGSV,3,1,11,01,20,279,13,03,18,316,13,10,26,156,11,14,70,027,13*78
2017-12-01 17:17:33 1512166653.774068: $GPGSV,3,2,11,22,36,306,13,25,38,061,08,26,22,178,11,31,76,264,14*75
2017-12-01 17:17:33 1512166653.774142: $GPGSV,3,3,11,32,57,073,14,12,10,034,09,138,38,213,14*73
2017-12-01 17:17:33 1512166653.887530: $GPZDA,221734.00,01,12,2017,00,00*61
2017-12-01 17:17:33 1512166653.887703: $GPGGA,221734,3946.9654,N,08404.9755,W,2,11,0.80,299.95,M,-33.324,M,,*7C
2017-12-01 17:17:33 1512166653.887773: $GPRMC,221734,A,3946.9654,N,08404.9755,W,0.0000,0.000,011217,,*3A
2017-12-01 17:17:33 1512166653.887838: $GPGSA,A,3,1,3,10,14,22,25,26,31,32,12,138,,2.0,0.8,1.5*03
2017-12-01 17:17:34 1512166654.512681: $GPZDA,221735.00,01,12,2017,00,00*60
2017-12-01 17:17:34 1512166654.512858: $GPGGA,221735,3946.9650,N,08404.9755,W,2,11,0.80,299.31,M,-33.324,M,,*77
2017-12-01 17:17:34 1512166654.512926: $GPRMC,221735,A,3946.9650,N,08404.9755,W,0.3423,184.197,011217,,*3B
2017-12-01 17:17:34 1512166654.512987: $GPGSA,A,3,1,3,10,14,22,25,26,31,32,12,138,,2.0,0.8,1.5*03
2017-12-01 17:17:35 1512166655.436325: $GPZDA,221736.00,01,12,2017,00,00*63
2017-12-01 17:17:35 1512166655.436493: $GPGGA,221736,3946.9656,N,08404.9747,W,2,11,0.80,297.86,M,-33.324,M,,*73
2017-12-01 17:17:35 1512166655.436559: $GPRMC,221736,A,3946.9656,N,08404.9747,W,0.0000,0.000,011217,,*39
2017-12-01 17:17:35 1512166655.436620: $GPGSA,A,3,1,3,10,14,22,25,26,31,32,12,138,,2.0,0.8,1.5*03
2017-12-01 17:17:36 1512166656.774231: $GPGSV,3,1,11,01,20,279,44,03,18,316,43,10,26,156,38,14,70,027,44*76
2017-12-01 17:17:36 1512166656.774411: $GPGSV,3,2,11,22,36,306,43,25,38,061,27,26,22,178,37,31,76,264,47*7F
2017-12-01 17:17:36 1512166656.774477: $GPGSV,3,3,11,32,57,073,47,12,10,034,29,138,38,213,41*77
2017-12-01 17:17:36 1512166656.887620: $GPZDA,221737.00,01,12,2017,00,00*62
2017-12-01 17:17:36 1512166656.887793: $GPGGA,221737,3946.9656,N,08404.9747,W,2,11,0.80,297.86,M,-33.324,M,,*72
2017-12-01 17:17:36 1512166656.887861: $GPRMC,221737,A,3946.9656,N,08404.9747,W,0.0000,0.000,011217,,*38
2017-12-01 17:17:36 1512166656.887922: $GPGSA,A,3,1,3,10,14,22,25,26,31,32,12,138,,2.0,0.8,1.5*03
2017-12-01 17:17:37 1512166657.440005: $GPZDA,221738.00,01,12,2017,00,00*6D
2017-12-01 17:17:37 1512166657.440211: $GPGGA,221738,3946.9656,N,08404.9747,W,2,11,0.80,297.86,M,-33.324,M,,*7D
2017-12-01 17:17:37 1512166657.440280: $GPRMC,221738,A,3946.9656,N,08404.9747,W,0.0000,0.000,011217,,*37
2017-12-01 17:17:37 1512166657.440342: $GPGSA,A,3,1,3,10,14,22,25,26,31,32,12,138,,2.0,0.8,1.5*03
2017-12-01 17:17:38 1512166658.439251: $GPZDA,221739.00,01,12,2017,00,00*6C
2017-12-01 17:17:38 1512166658.439422: $GPGGA,221739,3946.9656,N,08404.9747,W,2,11,0.80,297.86,M,-33.324,M,,*7C
2017-12-01 17:17:38 1512166658.439488: $GPRMC,221739,A,3946.9656,N,08404.9747,W,0.0000,0.000,011217,,*36
2017-12-01 17:17:38 1512166658.439549: $GPGSA,A,3,1,3,10,14,22,25,26,31,32,12,138,,2.0,0.8,1.5*03
2017-12-01 17:17:38 1512166658.439607: $GPGBS,221739,2.67,M,3.86,M,8.82,M*3E
