2017-12-01 17:59:44 1512169184.797438: {"class":"VERSION","release":"3.16","rev":"3.16-4","proto_major":3,"proto_minor":11}
2017-12-01 17:59:44 1512169184.797807: {"class":"DEVICES","devices":[{"class":"DEVICE","path":"/dev/ttyUSB0","driver":"SiRF","subtype":"9\u0006GSD4e_4.1.2-P1_RPATCH.05-F-GPS-4R-1510281 11/03/2015 307","activated":"2017-12-01T22:59:44.413Z","flags":1,"native":1,"bps":4800,"parity":"N","stopbits":1,"cycle":1.00}]}
2017-12-01 17:59:44 1512169184.797920: {"class":"WATCH","enable":true,"json":false,"nmea":true,"raw":0,"scaled":false,"timing":false,"split24":false,"pps":false}
2017-12-01 17:59:45 1512169185.023918: $GPZDA,225945.68,01,12,2017,00,00*63
2017-12-01 17:59:45 1512169185.024098: $GPGGA,225945,3946.9706,N,08404.9824,W,1,11,0.80,304.03,M,-33.325,M,,*77
2017-12-01 17:59:45 1512169185.024166: $GPRMC,225945,A,3946.9706,N,08404.9824,W,0.1599,117.753,011217,,*3B
2017-12-01 17:59:45 1512169185.024228: $GPGSA,A,3,1,3,10,14,16,22,29,25,26,32,138,,2.0,0.8,1.5*0E
2017-12-01 17:59:46 1512169186.127418: $GPZDA,225946.37,01,12,2017,00,00*6A
2017-12-01 17:59:46 1512169186.127589: $GPGGA,225946,3946.9706,N,08404.9824,W,1,11,0.80,304.03,M,-33.325,M,,*74
2017-12-01 17:59:46 1512169186.127656: $GPRMC,225946,A,3946.9706,N,08404.9824,W,0.1324,202.230,011217,,*3F
2017-12-01 17:59:46 1512169186.127718: $GPGSA,A,3,1,3,10,14,16,22,29,25,26,32,138,,2.0,0.8,1.5*0E
2017-12-01 17:59:46 1512169186.127777: $GPGBS,225946,10.70,M,15.43,M,35.28,M*09
2017-12-01 17:59:47 1512169187.292503: $GPGSV,3,1,12,01,12,261,38,03,33,309,48,10,07,159,36,14,62,075,43*7B
2017-12-01 17:59:47 1512169187.292680: $GPGSV,3,2,12,16,12,189,41,22,48,286,46,29,07,081,07,25,26,045,42*7E
2017-12-01 17:59:47 1512169187.292747: $GPGSV,3,3,12,26,42,175,45,31,75,003,46,32,44,097,45,138,38,213,39*4E
2017-12-01 17:59:47 1512169187.405993: $GPZDA,225947.00,01,12,2017,00,00*6F
2017-12-01 17:59:47 1512169187.406162: $GPGGA,225947,3946.9706,N,08404.9824,W,1,11,0.80,304.03,M,-33.325,M,,*75
2017-12-01 17:59:47 1512169187.406229: $GPRMC,225947,A,3946.9706,N,08404.9824,W,0.0407,322.012,011217,,*38
2017-12-01 17:59:47 1512169187.406290: $GPGSA,A,3,1,3,10,14,16,22,25,26,31,32,138,,2.0,0.8,1.5*07
2017-12-01 17:59:47 1512169187.858040: $GPZDA,225948.00,01,12,2017,00,00*60
2017-12-01 17:59:47 1512169187.858226: $GPGGA,225948,3946.9709,N,08404.9823,W,1,11,0.80,303.27,M,-33.325,M,,*73
2017-12-01 17:59:47 1512169187.858293: $GPRMC,225948,A,3946.9709,N,08404.9823,W,0.0407,322.012,011217,,*3F
2017-12-01 17:59:47 1512169187.858354: $GPGSA,A,3,1,3,10,14,16,22,25,26,31,32,138,,2.0,0.8,1.5*07
2017-12-01 17:59:48 1512169188.410399: $GPZDA,225949.00,01,12,2017,00,00*61
2017-12-01 17:59:48 1512169188.410625: $GPGGA,225949,3946.9709,N,08404.9823,W,1,11,0.80,303.27,M,-33.325,M,,*72
2017-12-01 17:59:48 1512169188.410712: $GPRMC,225949,A,3946.9709,N,08404.9823,W,0.0000,0.000,011217,,*3D
2017-12-01 17:59:48 1512169188.410777: $GPGSA,A,3,1,3,10,14,16,22,25,26,31,32,138,,2.0,0.8,1.5*07
2017-12-01 17:59:49 1512169189.746613: $GPGSV,3,1,12,01,12,261,39,03,33,309,48,10,07,159,37,14,62,075,43*7B
2017-12-01 17:59:49 1512169189.746801: $GPGSV,3,2,12,16,12,189,40,22,48,286,46,29,07,081,22,25,26,045,42*78
2017-12-01 17:59:49 1512169189.746888: $GPGSV,3,3,12,26,42,175,44,31,75,003,46,32,44,097,45,138,38,213,46*47
2017-12-01 17:59:49 1512169189.859213: $GPZDA,225950.00,01,12,2017,00,00*69
2017-12-01 17:59:49 1512169189.859381: $GPGGA,225950,3946.9710,N,08404.9830,W,1,12,0.80,303.19,M,-33.325,M,,*7E
2017-12-01 17:59:49 1512169189.859448: $GPRMC,225950,A,3946.9710,N,08404.9830,W,0.0000,0.000,011217,,*3F
2017-12-01 17:59:49 1512169189.859509: $GPGSA,A,3,1,3,10,14,16,22,29,25,26,31,32,138,2.0,0.8,1.5*0C
2017-12-01 17:59:50 1512169190.409870: $GPZDA,225951.00,01,12,2017,00,00*68
2017-12-01 17:59:50 1512169190.410031: $GPGGA,225951,3946.9713,N,08404.9829,W,1,12,0.80,302.42,M,-33.325,M,,*7B
2017-12-01 17:59:50 1512169190.410098: $GPRMC,225951,A,3946.9713,N,08404.9829,W,0.0000,0.000,011217,,*35
2017-12-01 17:59:50 1512169190.410160: $GPGSA,A,3,1,3,10,14,16,22,29,25,26,31,32,138,2.0,0.8,1.5*0C
2017-12-01 17:59:51 1512169191.409086: $GPZDA,225952.00,01,12,2017,00,00*6B
2017-12-01 17:59:51 1512169191.409266: $GPGGA,225952,3946.9713,N,08404.9829,W,1,12,0.80,302.42,M,-33.325,M,,*78
2017-12-01 17:59:51 1512169191.409334: $GPRMC,225952,A,3946.9713,N,08404.9829,W,0.0000,0.000,011217,,*36
2017-12-01 17:59:51 1512169191.409395: $GPGSA,A,3,1,3,10,14,16,22,29,25,26,31,32,138,2.0,0.8,1.5*0C
2017-12-01 17:59:51 1512169191.409454: $GPGBS,225952,10.70,M,15.43,M,35.28,M*0C
2017-12-01 17:59:52 1512169192.747295: $GPGSV,3,1,12,01,12,261,39,03,33,309,48,10,07,159,37,14,62,075,43*7B
2017-12-01 17:59:52 1512169192.747479: $GPGSV,3,2,12,16,12,189,41,22,48,286,46,29,07,081,22,25,26,045,42*79
2017-12-01 17:59:52 1512169192.747546: $GPGSV,3,3,12,26,42,175,45,31,75,003,46,32,44,097,44,138,38,213,45*44
2017-12-01 17:59:52 1512169192.861081: $GPZDA,225953.00,01,12,2017,00,00*6A
2017-12-01 17:59:52 1512169192.861249: $GPGGA,225953,3946.9724,N,08404.9841,W,2,12,1.20,299.97,M,-33.325,M,,*70
2017-12-01 17:59:52 1512169192.861315: $GPRMC,225953,A,3946.9724,N,08404.9841,W,0.0000,0.000,011217,,*3D
2017-12-01 17:59:52 1512169192.861461: $GPGSA,A,3,1,3,10,14,16,22,29,25,26,31,32,138,2.0,1.2,1.5*07
2017-12-01 17:59:53 1512169193.411609: $GPZDA,225954.00,01,12,2017,00,00*6D
2017-12-01 17:59:53 1512169193.411802: $GPGGA,225954,3946.9724,N,08404.9841,W,2,12,0.80,299.97,M,-33.325,M,,*7C
2017-12-01 17:59:53 1512169193.411870: $GPRMC,225954,A,3946.9724,N,08404.9841,W,0.0000,0.000,011217,,*3A
2017-12-01 17:59:53 1512169193.411932: $GPGSA,A,3,1,3,10,14,16,22,29,25,26,31,32,138,2.0,0.8,1.5*0C
2017-12-01 17:59:54 1512169194.413706: $GPZDA,225955.00,01,12,2017,00,00*6C
2017-12-01 17:59:54 1512169194.413889: $GPGGA,225955,3946.9724,N,08404.9841,W,2,12,0.80,299.97,M,-33.325,M,,*7D
2017-12-01 17:59:54 1512169194.413959: $GPRMC,225955,A,3946.9724,N,08404.9841,W,0.0000,0.000,011217,,*3B
2017-12-01 17:59:54 1512169194.414020: $GPGSA,A,3,1,3,10,14,16,22,29,25,26,31,32,138,2.0,0.8,1.5*0C
2017-12-01 17:59:55 1512169195.746814: $GPGSV,3,1,12,01,12,261,39,03,33,309,48,10,07,159,37,14,62,075,43*7B
2017-12-01 17:59:55 1512169195.746996: $GPGSV,3,2,12,16,12,189,41,22,48,286,47,29,07,081,21,25,26,045,42*7B
2017-12-01 17:59:55 1512169195.747063: $GPGSV,3,3,12,26,42,175,46,31,75,003,46,32,44,097,44,138,38,213,46*44
2017-12-01 17:59:55 1512169195.860099: $GPZDA,225956.00,01,12,2017,00,00*6F
2017-12-01 17:59:55 1512169195.860267: $GPGGA,225956,3946.9724,N,08404.9841,W,2,12,0.80,299.97,M,-33.325,M,,*7E
2017-12-01 17:59:55 1512169195.860333: $GPRMC,225956,A,3946.9724,N,08404.9841,W,0.0000,0.000,011217,,*38
2017-12-01 17:59:55 1512169195.860395: $GPGSA,A,3,1,3,10,14,16,22,29,25,26,31,32,138,2.0,0.8,1.5*0C
2017-12-01 17:59:56 1512169196.412030: $GPZDA,225957.00,01,12,2017,00,00*6E
2017-12-01 17:59:56 1512169196.412205: $GPGGA,225957,3946.9724,N,08404.9841,W,2,12,0.80,299.97,M,-33.325,M,,*7F
2017-12-01 17:59:56 1512169196.412273: $GPRMC,225957,A,3946.9724,N,08404.9841,W,0.0000,0.000,011217,,*39
2017-12-01 17:59:56 1512169196.412335: $GPGSA,A,3,1,3,10,14,16,22,29,25,26,31,32,138,2.0,0.8,1.5*0C
2017-12-01 17:59:57 1512169197.411585: $GPZDA,225958.00,01,12,2017,00,00*61
2017-12-01 17:59:57 1512169197.411779: $GPGGA,225958,3946.9724,N,08404.9841,W,2,12,0.80,299.97,M,-33.325,M,,*70
2017-12-01 17:59:57 1512169197.411850: $GPRMC,225958,A,3946.9724,N,08404.9841,W,0.0000,0.000,011217,,*36
2017-12-01 17:59:57 1512169197.411914: $GPGSA,A,3,1,3,10,14,16,22,29,25,26,31,32,138,2.0,0.8,1.5*0C
2017-12-01 17:59:58 1512169198.747280: $GPGSV,3,1,12,01,12,261,39,03,33,309,48,10,07,159,37,14,62,075,43*7B
2017-12-01 17:59:58 1512169198.747461: $GPGSV,3,2,12,16,12,189,41,22,48,286,47,29,07,081,20,25,26,045,42*7A
2017-12-01 17:59:58 1512169198.747530: $GPGSV,3,3,12,26,42,175,46,31,75,003,47,32,44,097,43,138,38,213,46*42
2017-12-01 17:59:58 1512169198.861001: $GPZDA,225959.00,01,12,2017,00,00*60
2017-12-01 17:59:58 1512169198.861169: $GPGGA,225959,3946.9724,N,08404.9841,W,2,12,0.80,299.97,M,-33.325,M,,*71
2017-12-01 17:59:58 1512169198.861236: $GPRMC,225959,A,3946.9724,N,08404.9841,W,0.0000,0.000,011217,,*37
2017-12-01 17:59:58 1512169198.861405: $GPGSA,A,3,1,3,10,14,16,22,29,25,26,31,32,138,2.0,0.8,1.5*0C
2017-12-01 17:59:59 1512169199.486283: $GPZDA,230000.00,01,12,2017,00,00*61
2017-12-01 17:59:59 1512169199.486456: $GPGGA,230000,3946.9724,N,08404.9841,W,2,12,0.80,299.97,M,-33.325,M,,*70
2017-12-01 17:59:59 1512169199.486527: $GPRMC,230000,A,3946.9724,N,08404.9841,W,0.0000,0.000,011217,,*36
2017-12-01 17:59:59 1512169199.486589: $GPGSA,A,3,1,3,10,14,16,22,29,25,26,31,32,138,2.0,0.8,1.5*0C
2017-12-01 18:00:00 1512169200.413427: $GPZDA,230001.00,01,12,2017,00,00*60
2017-12-01 18:00:00 1512169200.413632: $GPGGA,230001,3946.9724,N,08404.9841,W,2,12,0.80,299.97,M,-33.325,M,,*71
2017-12-01 18:00:00 1512169200.414925: $GPRMC,230001,A,3946.9724,N,08404.9841,W,0.0000,0.000,011217,,*37
2017-12-01 18:00:00 1512169200.415000: $GPGSA,A,3,1,3,10,14,16,22,29,25,26,31,32,138,2.0,0.8,1.5*0C
2017-12-01 18:00:01 1512169201.748879: $GPGSV,3,1,12,01,12,261,39,03,33,309,48,10,07,159,36,14,62,075,43*7A
2017-12-01 18:00:01 1512169201.749036: $GPGSV,3,2,12,16,12,189,41,22,48,286,47,29,07,081,20,25,26,045,41*79
2017-12-01 18:00:01 1512169201.749105: $GPGSV,3,3,12,26,42,175,46,31,75,003,46,32,44,097,44,138,38,213,46*44
2017-12-01 18:00:01 1512169201.861289: $GPZDA,230002.00,01,12,2017,00,00*63
2017-12-01 18:00:01 1512169201.861522: $GPGGA,230002,3946.9724,N,08404.9841,W,2,12,0.80,299.97,M,-33.325,M,,*72
2017-12-01 18:00:01 1512169201.861600: $GPRMC,230002,A,3946.9724,N,08404.9841,W,0.0000,0.000,011217,,*34
2017-12-01 18:00:01 1512169201.861662: $GPGSA,A,3,1,3,10,14,16,22,29,25,26,31,32,138,2.0,0.8,1.5*0C
2017-12-01 18:00:02 1512169202.409643: $GPZDA,230003.00,01,12,2017,00,00*62
2017-12-01 18:00:02 1512169202.409812: $GPGGA,230003,3946.9724,N,08404.9841,W,2,12,0.80,299.97,M,-33.325,M,,*73
2017-12-01 18:00:02 1512169202.409878: $GPRMC,230003,A,3946.9724,N,08404.9841,W,0.0000,0.000,011217,,*35
2017-12-01 18:00:02 1512169202.409940: $GPGSA,A,3,1,3,10,14,16,22,29,25,26,31,32,138,2.0,0.8,1.5*0C
2017-12-01 18:00:03 1512169203.409130: $GPZDA,230004.00,01,12,2017,00,00*65
2017-12-01 18:00:03 1512169203.409299: $GPGGA,230004,3946.9724,N,08404.9841,W,2,12,0.80,299.97,M,-33.325,M,,*74
2017-12-01 18:00:03 1512169203.409367: $GPRMC,230004,A,3946.9724,N,08404.9841,W,0.2422,93.794,011217,,*04
2017-12-01 18:00:03 1512169203.409430: $GPGSA,A,3,1,3,10,14,16,22,29,25,26,31,32,138,2.0,0.8,1.5*0C
2017-12-01 18:00:03 1512169203.409491: $GPGBS,230004,2.67,M,3.86,M,8.82,M*37
2017-12-01 18:00:04 1512169204.745213: $GPGSV,3,1,12,01,12,261,40,03,33,309,47,10,07,159,35,14,62,075,43*78
2017-12-01 18:00:04 1512169204.745398: $GPGSV,3,2,12,16,12,189,41,22,48,286,46,29,07,081,21,25,26,045,41*79
2017-12-01 18:00:04 1512169204.745468: $GPGSV,3,3,12,26,42,175,45,31,75,003,47,32,44,097,42,138,38,213,48*4E
