2017-11-15 18:37:23 1510789043.543551: {"class":"VERSION","release":"3.17","rev":"3.17","proto_major":3,"proto_minor":12}
2017-11-15 18:37:23 1510789043.543989: {"class":"DEVICES","devices":[{"class":"DEVICE","path":"/dev/ttyUSB0","driver":"SiRF","subtype":"9\u0006GSD4e_4.1.2-P1_RPATCH.05-F-GPS-4R-1510281 11/03/2015 307","activated":"2017-11-15T23:37:23.504Z","flags":1,"native":1,"bps":4800,"parity":"N","stopbits":1,"cycle":1.00}]}
2017-11-15 18:37:23 1510789043.544102: {"class":"WATCH","enable":true,"json":false,"nmea":true,"raw":0,"scaled":false,"timing":false,"split24":false,"pps":false}
2017-11-15 18:37:24 1510789044.665910: $GPGSV,3,1,09,25,34,055,19,14,68,046,20,22,41,301,20,01,18,273,08*72
2017-11-15 18:37:24 1510789044.666081: $GPGSV,3,2,09,31,79,291,27,32,54,082,01,03,22,315,13,10,20,157,11*7F
2017-11-15 18:37:24 1510789044.666142: $GPGSV,3,3,09,26,27,178,15*4B
2017-11-15 18:37:24 1510789044.779272: $GPZDA,233723.00,15,11,2017,00,00*62
2017-11-15 18:37:24 1510789044.779426: $GPGGA,233723,3946.9581,N,08404.9564,W,1,08,1.40,298.95,M,-33.324,M,,*75
2017-11-15 18:37:24 1510789044.779486: $GPRMC,233723,A,3946.9581,N,08404.9564,W,0.9689,93.794,151117,,*0C
2017-11-15 18:37:24 1510789044.779541: $GPGSA,A,3,25,14,22,1,31,3,10,26,,,,,3.4,1.4,2.9*3C
2017-11-15 18:37:25 1510789045.364186: $GPZDA,233724.00,15,11,2017,00,00*65
2017-11-15 18:37:25 1510789045.364348: $GPGGA,233724,3946.9573,N,08404.9565,W,1,08,1.20,299.08,M,-33.324,M,,*7D
2017-11-15 18:37:25 1510789045.364408: $GPRMC,233724,A,3946.9573,N,08404.9565,W,0.7267,93.794,151117,,*0D
2017-11-15 18:37:25 1510789045.364463: $GPGSA,A,3,25,14,22,1,31,3,10,26,,,,,3.4,1.2,2.9*3A
2017-11-15 18:37:26 1510789046.363027: $GPZDA,233725.00,15,11,2017,00,00*64
2017-11-15 18:37:26 1510789046.363193: $GPGGA,233725,3946.9573,N,08404.9565,W,1,08,1.20,299.08,M,-33.324,M,,*7C
2017-11-15 18:37:26 1510789046.363255: $GPRMC,233725,A,3946.9573,N,08404.9565,W,0.3155,129.994,151117,,*34
2017-11-15 18:37:26 1510789046.363312: $GPGSA,A,3,25,14,22,1,31,3,10,26,,,,,3.4,1.2,2.9*3A
2017-11-15 18:37:27 1510789047.698749: $GPGSV,3,1,10,25,34,055,19,14,68,046,20,22,41,301,19,01,18,273,06*7E
2017-11-15 18:37:27 1510789047.703576: $GPGSV,3,2,10,31,79,291,27,32,54,082,01,03,22,315,00,10,20,157,10*74
2017-11-15 18:37:27 1510789047.703674: $GPGSV,3,3,10,26,27,178,14,12,05,031,00*76
2017-11-15 18:37:27 1510789047.812143: $GPZDA,233726.00,15,11,2017,00,00*67
2017-11-15 18:37:27 1510789047.812299: $GPGGA,233726,3946.9570,N,08404.9565,W,1,07,1.40,299.84,M,-33.324,M,,*71
2017-11-15 18:37:27 1510789047.812360: $GPRMC,233726,A,3946.9570,N,08404.9565,W,0.7267,93.794,151117,,*0C
2017-11-15 18:37:27 1510789047.812416: $GPGSA,A,3,25,14,22,1,31,10,26,,,,,,3.4,1.4,2.9*0F
2017-11-15 18:37:28 1510789048.329233: $GPZDA,233727.00,15,11,2017,00,00*66
2017-11-15 18:37:28 1510789048.329392: $GPGGA,233727,3946.9570,N,08404.9565,W,1,07,1.40,299.84,M,-33.324,M,,*70
2017-11-15 18:37:28 1510789048.329452: $GPRMC,233727,A,3946.9570,N,08404.9565,W,0.5230,76.444,151117,,*08
2017-11-15 18:37:28 1510789048.329508: $GPGSA,A,3,25,14,22,1,31,10,26,,,,,,3.4,1.4,2.9*0F
2017-11-15 18:37:29 1510789049.328869: $GPZDA,233728.00,15,11,2017,00,00*69
2017-11-15 18:37:29 1510789049.329034: $GPGGA,233728,3946.9566,N,08404.9565,W,1,07,1.40,299.20,M,-33.324,M,,*76
2017-11-15 18:37:29 1510789049.329095: $GPRMC,233728,A,3946.9566,N,08404.9565,W,0.5951,58.684,151117,,*0E
2017-11-15 18:37:29 1510789049.329151: $GPGSA,A,3,25,14,22,1,31,10,26,,,,,,3.4,1.4,2.9*0F
2017-11-15 18:37:30 1510789050.664624: $GPGSV,3,1,10,25,34,055,19,14,68,046,20,22,41,301,19,01,18,273,06*7E
2017-11-15 18:37:30 1510789050.664814: $GPGSV,3,2,10,31,79,291,27,32,54,082,01,03,22,315,00,10,20,157,10*74
2017-11-15 18:37:30 1510789050.664877: $GPGSV,3,3,10,26,27,178,13,12,05,031,00*71
2017-11-15 18:37:30 1510789050.778017: $GPZDA,233729.00,15,11,2017,00,00*68
2017-11-15 18:37:30 1510789050.778164: $GPGGA,233729,3946.9562,N,08404.9566,W,1,06,1.40,299.97,M,-33.324,M,,*7D
2017-11-15 18:37:30 1510789050.778224: $GPRMC,233729,A,3946.9562,N,08404.9566,W,0.5951,58.684,151117,,*08
2017-11-15 18:37:30 1510789050.778332: $GPGSA,A,3,25,14,22,31,10,26,,,,,,,3.4,1.4,2.9*3E
2017-11-15 18:37:31 1510789051.403570: $GPZDA,233730.00,15,11,2017,00,00*60
2017-11-15 18:37:31 1510789051.403731: $GPGGA,233730,3946.9562,N,08404.9566,W,1,06,1.40,299.97,M,-33.324,M,,*75
2017-11-15 18:37:31 1510789051.403811: $GPRMC,233730,A,3946.9562,N,08404.9566,W,0.7103,45.706,151117,,*0A
2017-11-15 18:37:31 1510789051.403868: $GPGSA,A,3,25,14,22,31,10,26,,,,,,,3.4,1.4,2.9*3E
2017-11-15 18:37:32 1510789052.330465: $GPZDA,233731.00,15,11,2017,00,00*61
2017-11-15 18:37:32 1510789052.330631: $GPGGA,233731,3946.9563,N,08404.9573,W,1,06,1.40,299.89,M,-33.324,M,,*7E
2017-11-15 18:37:32 1510789052.330693: $GPRMC,233731,A,3946.9563,N,08404.9573,W,0.5951,58.684,151117,,*04
2017-11-15 18:37:32 1510789052.330749: $GPGSA,A,3,25,14,22,31,10,26,,,,,,,3.4,1.4,2.9*3E
2017-11-15 18:37:33 1510789053.699986: $GPGSV,3,1,10,25,34,055,20,14,68,046,20,22,41,301,19,01,18,273,04*76
2017-11-15 18:37:33 1510789053.700157: $GPGSV,3,2,10,31,79,291,27,32,54,082,01,03,22,315,00,10,20,157,10*74
2017-11-15 18:37:33 1510789053.700216: $GPGSV,3,3,10,26,27,178,07,12,05,031,00*74
2017-11-15 18:37:33 1510789053.813710: $GPZDA,233732.00,15,11,2017,00,00*62
2017-11-15 18:37:33 1510789053.814061: $GPGGA,233732,3946.9563,N,08404.9573,W,1,06,1.40,299.89,M,-33.324,M,,*7D
2017-11-15 18:37:33 1510789053.814155: $GPRMC,233732,A,3946.9563,N,08404.9573,W,1.0018,50.691,151117,,*0B
2017-11-15 18:37:33 1510789053.814278: $GPGSA,A,3,25,14,22,31,10,26,,,,,,,3.4,1.4,2.9*3E
2017-11-15 18:37:34 1510789054.329530: $GPZDA,233733.00,15,11,2017,00,00*63
2017-11-15 18:37:34 1510789054.329688: $GPGGA,233733,3946.9563,N,08404.9573,W,1,06,1.40,299.89,M,-33.324,M,,*7C
2017-11-15 18:37:34 1510789054.329749: $GPRMC,233733,A,3946.9563,N,08404.9573,W,1.1240,45.393,151117,,*07
2017-11-15 18:37:34 1510789054.329828: $GPGSA,A,3,25,14,22,31,10,26,,,,,,,3.4,1.4,2.9*3E
2017-11-15 18:37:35 1510789055.330102: $GPZDA,233734.00,15,11,2017,00,00*64
2017-11-15 18:37:35 1510789055.330291: $GPGGA,233734,3946.9559,N,08404.9574,W,1,06,1.20,300.65,M,-33.324,M,,*70
2017-11-15 18:37:35 1510789055.330353: $GPRMC,233734,A,3946.9559,N,08404.9574,W,0.8054,68.645,151117,,*00
2017-11-15 18:37:35 1510789055.330410: $GPGSA,A,3,25,14,22,31,10,26,,,,,,,3.4,1.2,2.9*38
2017-11-15 18:37:36 1510789056.666602: $GPGSV,3,1,10,25,34,055,19,14,68,046,19,22,41,301,19,01,18,273,11*72
2017-11-15 18:37:36 1510789056.666859: $GPGSV,3,2,10,31,79,291,27,32,54,082,01,03,22,315,00,10,20,157,08*7D
2017-11-15 18:37:36 1510789056.666940: $GPGSV,3,3,10,26,27,178,06,12,05,031,00*75
2017-11-15 18:37:36 1510789056.779874: $GPZDA,233735.00,15,11,2017,00,00*65
2017-11-15 18:37:36 1510789056.780025: $GPGGA,233735,3946.9559,N,08404.9574,W,1,07,1.20,300.65,M,-33.324,M,,*70
2017-11-15 18:37:36 1510789056.780085: $GPRMC,233735,A,3946.9559,N,08404.9574,W,0.9689,93.794,151117,,*0F
2017-11-15 18:37:36 1510789056.780142: $GPGSA,A,3,25,14,22,1,31,10,26,,,,,,3.4,1.2,2.9*09
2017-11-15 18:37:37 1510789057.331283: $GPZDA,233736.00,15,11,2017,00,00*66
2017-11-15 18:37:37 1510789057.331444: $GPGGA,233736,3946.9559,N,08404.9567,W,1,07,1.40,300.73,M,-33.324,M,,*70
2017-11-15 18:37:37 1510789057.331506: $GPRMC,233736,A,3946.9559,N,08404.9567,W,1.4954,80.563,151117,,*05
2017-11-15 18:37:37 1510789057.331562: $GPGSA,A,3,25,14,22,1,31,10,26,,,,,,3.4,1.4,2.9*0F
2017-11-15 18:37:38 1510789058.363014: $GPZDA,233737.00,15,11,2017,00,00*67
2017-11-15 18:37:38 1510789058.363174: $GPGGA,233737,3946.9559,N,08404.9567,W,1,07,1.40,300.73,M,-33.324,M,,*71
2017-11-15 18:37:38 1510789058.363233: $GPRMC,233737,A,3946.9559,N,08404.9567,W,1.3954,64.414,151117,,*08
2017-11-15 18:37:38 1510789058.363289: $GPGSA,A,3,25,14,22,1,31,10,26,,,,,,3.4,1.4,2.9*0F
