2017-11-16 17:32:37 1510871557.711926: {"class":"VERSION","release":"3.17","rev":"3.17","proto_major":3,"proto_minor":12}
2017-11-16 17:32:37 1510871557.712467: {"class":"DEVICES","devices":[{"class":"DEVICE","path":"/dev/ttyUSB0","driver":"SiRF","subtype":"9\u0006GSD4e_4.1.2-P1_RPATCH.05-F-GPS-4R-1510281 11/03/2015 307","activated":"2017-11-16T22:32:37.563Z","flags":1,"native":1,"bps":4800,"parity":"N","stopbits":1,"cycle":1.00}]}
2017-11-16 17:32:37 1510871557.712588: {"class":"WATCH","enable":true,"json":false,"nmea":true,"raw":0,"scaled":false,"timing":false,"split24":false,"pps":false}
2017-11-16 17:32:38 1510871558.416589: $GPZDA,223237.00,16,11,2017,00,00*60
2017-11-16 17:32:38 1510871558.416762: $GPGGA,223237,3946.9572,N,08404.9835,W,2,11,0.80,304.10,M,-33.324,M,,*7E
2017-11-16 17:32:38 1510871558.416824: $GPRMC,223237,A,3946.9572,N,08404.9835,W,0.0000,0.000,161117,,*35
2017-11-16 17:32:38 1510871558.416881: $GPGSA,A,3,1,10,22,12,14,18,11,25,31,32,138,,1.6,0.8,1.3*3E
2017-11-16 17:32:39 1510871559.757037: $GPGSV,3,1,12,01,21,301,35,10,48,148,49,22,18,312,40,12,22,051,51*7D
2017-11-16 17:32:39 1510871559.757208: $GPGSV,3,2,12,14,66,327,48,18,19,144,39,26,01,183,00,11,08,282,38*7A
2017-11-16 17:32:39 1510871559.757268: $GPGSV,3,3,12,25,39,091,48,31,55,225,48,32,69,025,50,138,38,213,45*44
2017-11-16 17:32:39 1510871559.870363: $GPZDA,223238.00,16,11,2017,00,00*6F
2017-11-16 17:32:39 1510871559.870512: $GPGGA,223238,3946.9572,N,08404.9835,W,2,11,0.80,304.10,M,-33.324,M,,*71
2017-11-16 17:32:39 1510871559.870571: $GPRMC,223238,A,3946.9572,N,08404.9835,W,0.0000,0.000,161117,,*3A
2017-11-16 17:32:39 1510871559.870632: $GPGSA,A,3,1,10,22,12,14,18,11,25,31,32,138,,1.6,0.8,1.3*3E
2017-11-16 17:32:40 1510871560.421238: $GPZDA,223239.00,16,11,2017,00,00*6E
2017-11-16 17:32:40 1510871560.421399: $GPGGA,223239,3946.9572,N,08404.9835,W,2,11,0.80,304.10,M,-33.324,M,,*70
2017-11-16 17:32:40 1510871560.421461: $GPRMC,223239,A,3946.9572,N,08404.9835,W,0.0000,0.000,161117,,*3B
2017-11-16 17:32:40 1510871560.421517: $GPGSA,A,3,1,10,22,12,14,18,11,25,31,32,138,,1.6,0.8,1.3*3E
2017-11-16 17:32:41 1510871561.400363: $GPZDA,223240.00,16,11,2017,00,00*60
2017-11-16 17:32:41 1510871561.400529: $GPGGA,223240,3946.9572,N,08404.9842,W,2,11,0.80,304.02,M,-33.324,M,,*7D
2017-11-16 17:32:41 1510871561.400593: $GPRMC,223240,A,3946.9572,N,08404.9842,W,0.0000,0.000,161117,,*35
2017-11-16 17:32:41 1510871561.400649: $GPGSA,A,3,1,10,22,12,14,18,11,25,31,32,138,,1.6,0.8,1.3*3E
2017-11-16 17:32:42 1510871562.736098: $GPGSV,3,1,12,01,21,301,30,10,48,148,50,22,18,312,40,12,22,051,51*70
2017-11-16 17:32:42 1510871562.736273: $GPGSV,3,2,12,14,66,327,48,18,19,144,39,26,01,183,00,11,08,282,38*7A
2017-11-16 17:32:42 1510871562.736334: $GPGSV,3,3,12,25,39,091,48,31,55,225,48,32,69,025,50,138,38,213,44*45
2017-11-16 17:32:42 1510871562.849488: $GPZDA,223241.00,16,11,2017,00,00*61
2017-11-16 17:32:42 1510871562.849664: $GPGGA,223241,3946.9572,N,08404.9842,W,2,11,0.80,304.02,M,-33.324,M,,*7C
2017-11-16 17:32:42 1510871562.849725: $GPRMC,223241,A,3946.9572,N,08404.9842,W,0.0000,0.000,161117,,*34
2017-11-16 17:32:42 1510871562.849782: $GPGSA,A,3,1,10,22,12,14,18,11,25,31,32,138,,1.6,0.8,1.3*3E
2017-11-16 17:32:43 1510871563.399096: $GPZDA,223242.00,16,11,2017,00,00*62
2017-11-16 17:32:43 1510871563.399440: $GPGGA,223242,3946.9572,N,08404.9842,W,2,11,0.80,304.02,M,-33.324,M,,*7F
2017-11-16 17:32:43 1510871563.401892: $GPRMC,223242,A,3946.9572,N,08404.9842,W,0.0000,0.000,161117,,*37
2017-11-16 17:32:43 1510871563.401957: $GPGSA,A,3,1,10,22,12,14,18,11,25,31,32,138,,1.6,0.8,1.3*3E
2017-11-16 17:32:44 1510871564.394955: $GPZDA,223243.00,16,11,2017,00,00*63
2017-11-16 17:32:44 1510871564.395219: $GPGGA,223243,3946.9572,N,08404.9842,W,2,11,0.80,304.02,M,-33.324,M,,*7E
2017-11-16 17:32:44 1510871564.395289: $GPRMC,223243,A,3946.9572,N,08404.9842,W,0.0000,0.000,161117,,*36
2017-11-16 17:32:44 1510871564.395347: $GPGSA,A,3,1,10,22,12,14,18,11,25,31,32,138,,1.6,0.8,1.3*3E
2017-11-16 17:32:45 1510871565.756941: $GPGSV,3,1,12,01,21,301,30,10,48,148,50,22,18,312,40,12,22,051,50*71
2017-11-16 17:32:45 1510871565.757159: $GPGSV,3,2,12,14,66,327,47,18,19,144,39,26,01,183,00,11,08,282,37*7A
2017-11-16 17:32:45 1510871565.757223: $GPGSV,3,3,12,25,39,091,48,31,55,225,48,32,69,025,50,138,38,213,44*45
2017-11-16 17:32:45 1510871565.870273: $GPZDA,223244.00,16,11,2017,00,00*64
2017-11-16 17:32:45 1510871565.870438: $GPGGA,223244,3946.9572,N,08404.9842,W,2,11,0.80,304.02,M,-33.324,M,,*79
2017-11-16 17:32:45 1510871565.870501: $GPRMC,223244,A,3946.9572,N,08404.9842,W,0.0000,0.000,161117,,*31
2017-11-16 17:32:45 1510871565.870561: $GPGSA,A,3,1,10,22,12,14,18,11,25,31,32,138,,1.6,0.8,1.3*3E
2017-11-16 17:32:46 1510871566.496019: $GPZDA,223245.00,16,11,2017,00,00*65
2017-11-16 17:32:46 1510871566.496210: $GPGGA,223245,3946.9572,N,08404.9842,W,2,11,0.80,304.02,M,-33.324,M,,*78
2017-11-16 17:32:46 1510871566.496273: $GPRMC,223245,A,3946.9572,N,08404.9842,W,0.0000,0.000,161117,,*30
2017-11-16 17:32:46 1510871566.496329: $GPGSA,A,3,1,10,22,12,14,18,11,25,31,32,138,,1.6,0.8,1.3*3E
2017-11-16 17:32:47 1510871567.399168: $GPZDA,223246.00,16,11,2017,00,00*66
2017-11-16 17:32:47 1510871567.399330: $GPGGA,223246,3946.9572,N,08404.9842,W,2,11,0.80,304.02,M,-33.324,M,,*7B
2017-11-16 17:32:47 1510871567.399392: $GPRMC,223246,A,3946.9572,N,08404.9842,W,0.0000,0.000,161117,,*33
2017-11-16 17:32:47 1510871567.399451: $GPGSA,A,3,1,10,22,12,14,18,11,25,31,32,138,,1.6,0.8,1.3*3E
