2017-12-01 12:05:11 1512147911.386955: {"class":"VERSION","release":"3.16","rev":"3.16-4","proto_major":3,"proto_minor":11}
2017-12-01 12:05:11 1512147911.387374: {"class":"DEVICES","devices":[{"class":"DEVICE","path":"/dev/ttyUSB0","driver":"SiRF","subtype":"9\u0006GSD4e_4.1.2-P1_RPATCH.05-F-GPS-4R-1510281 11/03/2015 307","activated":"2017-12-01T17:05:11.366Z","flags":1,"native":1,"bps":4800,"parity":"N","stopbits":1,"cycle":1.00}]}
2017-12-01 12:05:11 1512147911.387552: {"class":"WATCH","enable":true,"json":false,"nmea":true,"raw":0,"scaled":false,"timing":false,"split24":false,"pps":false}
2017-12-01 12:05:11 1512147911.991907: $GPZDA,170512.43,01,12,2017,00,00*67
2017-12-01 12:05:11 1512147911.992095: $GPGGA,170512,3946.9585,N,08404.9803,W,1,11,0.80,312.03,M,-33.324,M,,*70
2017-12-01 12:05:11 1512147911.992162: $GPRMC,170512,A,3946.9585,N,08404.9803,W,0.2710,100.223,011217,,*3E
2017-12-01 12:05:11 1512147911.992224: $GPGSA,A,3,10,13,15,18,20,21,24,27,29,5,138,,2.0,0.8,1.5*34
2017-12-01 12:05:13 1512147913.134383: $GPGSV,3,1,12,10,20,279,40,13,34,046,46,15,66,054,45,18,50,295,46*72
2017-12-01 12:05:13 1512147913.134562: $GPGSV,3,2,12,20,55,064,46,21,75,289,46,24,29,142,45,27,14,318,42*7E
2017-12-01 12:05:13 1512147913.134629: $GPGSV,3,3,12,29,15,192,33,05,07,084,00,04,04,135,00,138,38,213,00*47
2017-12-01 12:05:13 1512147913.246982: $GPZDA,170513.00,01,12,2017,00,00*61
2017-12-01 12:05:13 1512147913.247158: $GPGGA,170513,3946.9581,N,08404.9803,W,1,09,0.80,311.39,M,-33.324,M,,*76
2017-12-01 12:05:13 1512147913.247225: $GPRMC,170513,A,3946.9581,N,08404.9803,W,0.0407,142.013,011217,,*3B
2017-12-01 12:05:13 1512147913.247286: $GPGSA,A,3,10,13,15,18,20,21,24,27,29,,,,2.0,0.8,1.5*3B
2017-12-01 12:05:13 1512147913.698854: $GPZDA,170514.00,01,12,2017,00,00*66
2017-12-01 12:05:13 1512147913.699023: $GPGGA,170514,3946.9585,N,08404.9802,W,1,09,0.80,310.63,M,-33.324,M,,*7A
2017-12-01 12:05:13 1512147913.699090: $GPRMC,170514,A,3946.9585,N,08404.9802,W,0.1567,9.200,011217,,*31
2017-12-01 12:05:13 1512147913.699151: $GPGSA,A,3,10,13,15,18,20,21,24,27,29,,,,2.0,0.8,1.5*3B
2017-12-01 12:05:14 1512147914.354954: $GPZDA,170515.00,01,12,2017,00,00*67
2017-12-01 12:05:14 1512147914.355298: $GPGGA,170515,3946.9581,N,08404.9802,W,1,09,0.80,309.99,M,-33.324,M,,*72
2017-12-01 12:05:14 1512147914.355430: $GPRMC,170515,A,3946.9581,N,08404.9802,W,0.1567,9.200,011217,,*34
2017-12-01 12:05:14 1512147914.355564: $GPGSA,A,3,10,13,15,18,20,21,24,27,29,,,,2.0,0.8,1.5*3B
2017-12-01 12:05:15 1512147915.684742: $GPGSV,3,1,12,10,20,279,41,13,34,046,44,15,66,054,44,18,50,295,46*70
2017-12-01 12:05:15 1512147915.684940: $GPGSV,3,2,12,20,55,064,45,21,75,289,46,24,29,142,44,27,14,318,40*7E
2017-12-01 12:05:15 1512147915.685008: $GPGSV,3,3,12,29,15,192,34,04,04,135,00,05,07,084,20,138,38,213,46*40
2017-12-01 12:05:15 1512147915.798328: $GPZDA,170516.00,01,12,2017,00,00*64
2017-12-01 12:05:15 1512147915.798494: $GPGGA,170516,3946.9580,N,08404.9802,W,1,11,0.80,308.59,M,-33.324,M,,*74
2017-12-01 12:05:15 1512147915.798559: $GPRMC,170516,A,3946.9580,N,08404.9802,W,0.0000,0.000,011217,,*38
2017-12-01 12:05:15 1512147915.798621: $GPGSA,A,3,10,13,15,18,20,21,24,27,29,5,138,,2.0,0.8,1.5*34
2017-12-01 12:05:16 1512147916.354403: $GPZDA,170517.00,01,12,2017,00,00*65
2017-12-01 12:05:16 1512147916.354556: $GPGGA,170517,3946.9580,N,08404.9802,W,1,11,0.80,308.59,M,-33.324,M,,*75
2017-12-01 12:05:16 1512147916.354622: $GPRMC,170517,A,3946.9580,N,08404.9802,W,0.0000,0.000,011217,,*39
2017-12-01 12:05:16 1512147916.354709: $GPGSA,A,3,10,13,15,18,20,21,24,27,29,5,138,,2.0,0.8,1.5*34
2017-12-01 12:05:17 1512147917.355967: $GPZDA,170518.00,01,12,2017,00,00*6A
2017-12-01 12:05:17 1512147917.356140: $GPGGA,170518,3946.9573,N,08404.9812,W,2,11,1.20,300.77,M,-33.324,M,,*7B
2017-12-01 12:05:17 1512147917.356208: $GPRMC,170518,A,3946.9573,N,08404.9812,W,0.0000,0.000,011217,,*3B
2017-12-01 12:05:17 1512147917.356269: $GPGSA,A,3,10,13,15,18,20,21,24,27,29,5,138,,2.0,1.2,1.5*3F
2017-12-01 12:05:17 1512147917.356365: $GPGBS,170518,2.67,M,3.86,M,8.82,M*38
2017-12-01 12:05:18 1512147918.684141: $GPGSV,3,1,12,10,20,279,41,13,34,046,44,15,66,054,44,18,50,295,46*70
2017-12-01 12:05:18 1512147918.684297: $GPGSV,3,2,12,20,55,064,45,21,75,289,46,24,29,142,44,27,14,318,40*7E
2017-12-01 12:05:18 1512147918.684363: $GPGSV,3,3,12,29,15,192,33,04,04,135,00,05,07,084,19,138,38,213,46*4D
2017-12-01 12:05:18 1512147918.797647: $GPZDA,170519.00,01,12,2017,00,00*6B
2017-12-01 12:05:18 1512147918.797853: $GPGGA,170519,3946.9573,N,08404.9812,W,2,11,1.20,300.77,M,-33.324,M,,*7A
2017-12-01 12:05:18 1512147918.797921: $GPRMC,170519,A,3946.9573,N,08404.9812,W,0.0000,0.000,011217,,*3A
2017-12-01 12:05:18 1512147918.797982: $GPGSA,A,3,10,13,15,18,20,21,24,27,29,5,138,,2.0,1.2,1.5*3F
2017-12-01 12:05:19 1512147919.353502: $GPZDA,170520.00,01,12,2017,00,00*61
2017-12-01 12:05:19 1512147919.353697: $GPGGA,170520,3946.9573,N,08404.9818,W,2,11,1.20,299.28,M,-33.324,M,,*71
2017-12-01 12:05:19 1512147919.353765: $GPRMC,170520,A,3946.9573,N,08404.9818,W,0.3423,4.197,011217,,*37
2017-12-01 12:05:19 1512147919.353844: $GPGSA,A,3,10,13,15,18,20,21,24,27,29,5,138,,2.0,1.2,1.5*3F
2017-12-01 12:05:20 1512147920.350241: $GPZDA,170521.00,01,12,2017,00,00*60
2017-12-01 12:05:20 1512147920.350415: $GPGGA,170521,3946.9573,N,08404.9818,W,2,11,1.20,299.28,M,-33.324,M,,*70
2017-12-01 12:05:20 1512147920.350481: $GPRMC,170521,A,3946.9573,N,08404.9818,W,0.0000,0.000,011217,,*3B
2017-12-01 12:05:20 1512147920.350542: $GPGSA,A,3,10,13,15,18,20,21,24,27,29,5,138,,2.0,1.2,1.5*3F
