2017-11-16 15:18:51 1510863531.418396: {"class":"VERSION","release":"3.17","rev":"3.17","proto_major":3,"proto_minor":12}
2017-11-16 15:18:51 1510863531.418942: {"class":"DEVICES","devices":[{"class":"DEVICE","path":"/dev/ttyUSB0","driver":"SiRF","subtype":"9\u0006GSD4e_4.1.2-P1_RPATCH.05-F-GPS-4R-1510281 11/03/2015 307","activated":"2017-11-16T20:18:51.412Z","flags":1,"native":1,"bps":4800,"parity":"N","stopbits":1,"cycle":1.00}]}
2017-11-16 15:18:51 1510863531.419077: {"class":"WATCH","enable":true,"json":false,"nmea":true,"raw":0,"scaled":false,"timing":false,"split24":false,"pps":false}
2017-11-16 15:18:52 1510863532.712357: $GPGSV,3,1,12,08,07,297,02,10,66,325,51,14,26,250,46,15,14,064,29*74
2017-11-16 15:18:52 1510863532.712687: $GPGSV,3,2,12,18,73,084,47,20,11,115,29,21,33,180,44,24,47,063,48*73
2017-11-16 15:18:52 1510863532.712805: $GPGSV,3,3,12,27,08,262,37,32,43,261,47,12,07,109,28,138,38,213,44*42
2017-11-16 15:18:52 1510863532.825731: $GPZDA,201851.00,16,11,2017,00,00*6A
2017-11-16 15:18:52 1510863532.825899: $GPGGA,201851,3946.9573,N,08404.9850,W,2,11,1.00,305.35,M,-33.324,M,,*79
2017-11-16 15:18:52 1510863532.825961: $GPRMC,201851,A,3946.9573,N,08404.9850,W,0.0000,0.000,161117,,*3D
2017-11-16 15:18:52 1510863532.826018: $GPGSA,A,3,10,14,15,18,20,21,24,27,32,12,138,,1.6,1.0,1.3*05
2017-11-16 15:18:53 1510863533.386475: $GPZDA,201852.00,16,11,2017,00,00*69
2017-11-16 15:18:53 1510863533.386637: $GPGGA,201852,3946.9573,N,08404.9850,W,2,11,1.00,305.35,M,-33.324,M,,*7A
2017-11-16 15:18:53 1510863533.386699: $GPRMC,201852,A,3946.9573,N,08404.9850,W,0.0000,0.000,161117,,*3E
2017-11-16 15:18:53 1510863533.386755: $GPGSA,A,3,10,14,15,18,20,21,24,27,32,12,138,,1.6,1.0,1.3*05
2017-11-16 15:18:54 1510863534.376113: $GPZDA,201853.00,16,11,2017,00,00*68
2017-11-16 15:18:54 1510863534.376297: $GPGGA,201853,3946.9573,N,08404.9850,W,2,11,0.80,305.35,M,-33.324,M,,*72
2017-11-16 15:18:54 1510863534.376360: $GPRMC,201853,A,3946.9573,N,08404.9850,W,0.0000,0.000,161117,,*3F
2017-11-16 15:18:54 1510863534.376416: $GPGSA,A,3,10,14,15,18,20,21,24,27,32,12,138,,1.6,0.8,1.3*0C
2017-11-16 15:18:55 1510863535.713120: $GPGSV,3,1,12,08,07,297,22,10,66,325,51,14,26,250,46,15,14,064,30*7E
2017-11-16 15:18:55 1510863535.713322: $GPGSV,3,2,12,18,73,084,46,20,11,115,29,21,33,180,45,24,47,063,48*73
2017-11-16 15:18:55 1510863535.713387: $GPGSV,3,3,12,27,08,262,36,32,43,261,47,12,07,109,30,138,38,213,44*4A
2017-11-16 15:18:55 1510863535.826588: $GPZDA,201854.00,16,11,2017,00,00*6F
2017-11-16 15:18:55 1510863535.826806: $GPGGA,201854,3946.9573,N,08404.9850,W,2,12,0.80,305.35,M,-33.324,M,,*76
2017-11-16 15:18:55 1510863535.826882: $GPRMC,201854,A,3946.9573,N,08404.9850,W,0.0000,0.000,161117,,*38
2017-11-16 15:18:55 1510863535.826955: $GPGSA,A,3,8,10,14,15,18,20,21,24,27,32,12,138,1.6,0.8,1.3*34
2017-11-16 15:18:56 1510863536.623572: $GPZDA,201855.00,16,11,2017,00,00*6E
2017-11-16 15:18:56 1510863536.623738: $GPGGA,201855,3946.9573,N,08404.9850,W,2,12,1.00,305.35,M,-33.324,M,,*7E
2017-11-16 15:18:56 1510863536.623801: $GPRMC,201855,A,3946.9573,N,08404.9850,W,0.0000,0.000,161117,,*39
2017-11-16 15:18:56 1510863536.623876: $GPGSA,A,3,8,10,14,15,18,20,21,24,27,32,12,138,1.6,1.0,1.3*3D
2017-11-16 15:18:56 1510863536.623932: $GPGBS,201855,2.12,M,3.10,M,7.47,M*32
2017-11-16 15:18:57 1510863537.391274: $GPZDA,201856.00,16,11,2017,00,00*6D
2017-11-16 15:18:57 1510863537.391387: $GPGGA,201856,3946.9573,N,08404.9850,W,2,12,1.00,305.35,M,-33.324,M,,*7D
2017-11-16 15:18:57 1510863537.391419: $GPRMC,201856,A,3946.9573,N,08404.9850,W,0.0000,0.000,161117,,*3A
2017-11-16 15:18:57 1510863537.391447: $GPGSA,A,3,8,10,14,15,18,20,21,24,27,32,12,138,1.6,1.0,1.3*3D
2017-11-16 15:18:57 1510863537.391474: $GPGBS,201856,2.12,M,3.10,M,7.47,M*31
2017-11-16 15:18:58 1510863538.704008: $GPGSV,3,1,12,08,06,295,00,10,67,327,51,14,27,252,45,15,13,064,30*79
2017-11-16 15:18:58 1510863538.704205: $GPGSV,3,2,12,18,72,087,47,20,10,117,29,21,32,180,45,24,46,061,48*71
2017-11-16 15:18:58 1510863538.704268: $GPGSV,3,3,12,27,08,262,36,32,44,262,47,12,08,109,30,138,38,213,44*41
2017-11-16 15:18:58 1510863538.817274: $GPZDA,201857.00,16,11,2017,00,00*6C
2017-11-16 15:18:58 1510863538.817446: $GPGGA,201857,3946.9573,N,08404.9850,W,2,11,1.00,305.35,M,-33.324,M,,*7F
2017-11-16 15:18:58 1510863538.817509: $GPRMC,201857,A,3946.9573,N,08404.9850,W,0.0000,0.000,161117,,*3B
2017-11-16 15:18:58 1510863538.817569: $GPGSA,A,3,10,14,15,18,20,21,24,27,32,12,138,,1.6,1.0,1.3*05
2017-11-16 15:18:59 1510863539.390676: $GPZDA,201858.00,16,11,2017,00,00*63
2017-11-16 15:18:59 1510863539.390840: $GPGGA,201858,3946.9573,N,08404.9850,W,2,11,1.00,305.35,M,-33.324,M,,*70
2017-11-16 15:18:59 1510863539.390900: $GPRMC,201858,A,3946.9573,N,08404.9850,W,0.0000,0.000,161117,,*34
2017-11-16 15:18:59 1510863539.390978: $GPGSA,A,3,10,14,15,18,20,21,24,27,32,12,138,,1.6,1.0,1.3*05
2017-11-16 15:19:00 1510863540.395409: $GPZDA,201859.00,16,11,2017,00,00*62
2017-11-16 15:19:00 1510863540.395579: $GPGGA,201859,3946.9573,N,08404.9850,W,2,11,1.00,305.35,M,-33.324,M,,*71
2017-11-16 15:19:00 1510863540.395641: $GPRMC,201859,A,3946.9573,N,08404.9850,W,0.0000,0.000,161117,,*35
2017-11-16 15:19:00 1510863540.395698: $GPGSA,A,3,10,14,15,18,20,21,24,27,32,12,138,,1.6,1.0,1.3*05
