2017-12-01 12:24:23 1512149063.206883: {"class":"VERSION","release":"3.16","rev":"3.16-4","proto_major":3,"proto_minor":11}
2017-12-01 12:24:23 1512149063.207298: {"class":"DEVICES","devices":[{"class":"DEVICE","path":"/dev/ttyUSB0","driver":"SiRF","subtype":"9\u0006GSD4e_4.1.2-P1_RPATCH.05-F-GPS-4R-1510281 11/03/2015 307","activated":"2017-12-01T17:24:23.190Z","flags":1,"native":1,"bps":4800,"parity":"N","stopbits":1,"cycle":1.00}]}
2017-12-01 12:24:23 1512149063.207418: {"class":"WATCH","enable":true,"json":false,"nmea":true,"raw":0,"scaled":false,"timing":false,"split24":false,"pps":false}
2017-12-01 12:24:24 1512149064.023720: $GPZDA,172424.32,01,12,2017,00,00*67
2017-12-01 12:24:24 1512149064.023890: $GPGGA,172424,3946.9578,N,08404.9833,W,1,12,1.20,301.17,M,-33.324,M,,*78
2017-12-01 12:24:24 1512149064.023956: $GPRMC,172424,A,3946.9578,N,08404.9833,W,0.0407,322.014,011217,,*3A
2017-12-01 12:24:24 1512149064.024018: $GPGSA,A,3,10,13,15,18,20,21,24,27,32,29,5,138,2.0,1.2,1.5*3E
2017-12-01 12:24:24 1512149064.024077: $GPGBS,172424,10.70,M,15.43,M,35.28,M*01
2017-12-01 12:24:24 1512149064.809043: $GPGSV,3,1,12,10,26,285,38,13,26,045,44,15,58,051,47,18,57,304,46*7E
2017-12-01 12:24:24 1512149064.809204: $GPGSV,3,2,12,20,49,075,46,21,79,250,42,24,36,136,48,27,17,310,42*74
2017-12-01 12:24:24 1512149064.809270: $GPGSV,3,3,12,05,01,090,07,29,07,189,07,32,04,226,08,138,38,213,20*43
2017-12-01 12:24:24 1512149064.922505: $GPZDA,172425.00,01,12,2017,00,00*67
2017-12-01 12:24:24 1512149064.922675: $GPGGA,172425,3946.9578,N,08404.9833,W,1,09,1.20,301.17,M,-33.324,M,,*73
2017-12-01 12:24:24 1512149064.922742: $GPRMC,172425,A,3946.9578,N,08404.9833,W,0.1867,0.000,011217,,*36
2017-12-01 12:24:24 1512149064.922803: $GPGSA,A,3,10,13,15,18,20,21,24,27,138,,,,2.0,1.2,1.5*01
2017-12-01 12:24:25 1512149065.176449: $GPZDA,172426.00,01,12,2017,00,00*64
2017-12-01 12:24:25 1512149065.176624: $GPGGA,172426,3946.9578,N,08404.9833,W,1,09,0.80,301.17,M,-33.324,M,,*7B
2017-12-01 12:24:25 1512149065.176690: $GPRMC,172426,A,3946.9578,N,08404.9833,W,0.1867,0.000,011217,,*35
2017-12-01 12:24:25 1512149065.176751: $GPGSA,A,3,10,13,15,18,20,21,24,27,138,,,,2.0,0.8,1.5*0A
2017-12-01 12:24:26 1512149066.168960: $GPZDA,172427.00,01,12,2017,00,00*65
2017-12-01 12:24:26 1512149066.169135: $GPGGA,172427,3946.9578,N,08404.9833,W,1,09,0.80,301.17,M,-33.324,M,,*7A
2017-12-01 12:24:26 1512149066.169204: $GPRMC,172427,A,3946.9578,N,08404.9833,W,0.0000,0.000,011217,,*3C
2017-12-01 12:24:26 1512149066.169264: $GPGSA,A,3,10,13,15,18,20,21,24,27,138,,,,2.0,0.8,1.5*0A
2017-12-01 12:24:27 1512149067.503473: $GPGSV,3,1,12,10,26,285,40,13,26,045,44,15,58,051,47,18,57,304,46*71
2017-12-01 12:24:27 1512149067.503653: $GPGSV,3,2,12,20,49,075,46,21,79,250,42,24,36,136,48,27,17,310,42*74
2017-12-01 12:24:27 1512149067.503720: $GPGSV,3,3,12,05,01,090,21,29,07,189,28,32,04,226,27,138,38,213,46*47
2017-12-01 12:24:27 1512149067.616856: $GPZDA,172428.00,01,12,2017,00,00*6A
2017-12-01 12:24:27 1512149067.617022: $GPGGA,172428,3946.9579,N,08404.9834,W,1,12,0.80,302.57,M,-33.324,M,,*7E
2017-12-01 12:24:27 1512149067.617088: $GPRMC,172428,A,3946.9579,N,08404.9834,W,0.0000,0.000,011217,,*35
2017-12-01 12:24:27 1512149067.617149: $GPGSA,A,3,10,13,15,18,20,21,24,27,5,29,32,138,2.0,0.8,1.5*35
2017-12-01 12:24:28 1512149068.154455: $GPZDA,172429.00,01,12,2017,00,00*6B
2017-12-01 12:24:28 1512149068.154644: $GPGGA,172429,3946.9581,N,08404.9836,W,2,12,1.40,306.79,M,-33.324,M,,*7C
2017-12-01 12:24:28 1512149068.154713: $GPRMC,172429,A,3946.9581,N,08404.9836,W,0.5287,2.716,011217,,*3B
2017-12-01 12:24:28 1512149068.154773: $GPGSA,A,3,10,13,15,18,20,21,24,27,5,29,32,138,2.0,1.4,1.5*38
2017-12-01 12:24:29 1512149069.168146: $GPZDA,172430.00,01,12,2017,00,00*63
2017-12-01 12:24:29 1512149069.168321: $GPGGA,172430,3946.9581,N,08404.9836,W,2,12,0.80,306.79,M,-33.324,M,,*79
2017-12-01 12:24:29 1512149069.168388: $GPRMC,172430,A,3946.9581,N,08404.9836,W,0.0000,0.000,011217,,*39
2017-12-01 12:24:29 1512149069.168448: $GPGSA,A,3,10,13,15,18,20,21,24,27,5,29,32,138,2.0,0.8,1.5*35
2017-12-01 12:24:29 1512149069.168559: $GPGBS,172430,2.67,M,3.86,M,8.82,M*31
2017-12-01 12:24:30 1512149070.503178: $GPGSV,3,1,12,10,26,285,40,13,26,045,44,15,58,051,47,18,57,304,46*71
2017-12-01 12:24:30 1512149070.503359: $GPGSV,3,2,12,20,49,075,47,21,79,250,42,24,36,136,48,27,17,310,42*75
2017-12-01 12:24:30 1512149070.503425: $GPGSV,3,3,12,05,01,090,20,29,07,189,27,32,04,226,26,138,38,213,47*49
2017-12-01 12:24:30 1512149070.615322: $GPZDA,172431.00,01,12,2017,00,00*62
2017-12-01 12:24:30 1512149070.616939: $GPGGA,172431,3946.9581,N,08404.9836,W,2,12,0.80,306.79,M,-33.324,M,,*78
2017-12-01 12:24:30 1512149070.617047: $GPRMC,172431,A,3946.9581,N,08404.9836,W,0.0000,0.000,011217,,*38
2017-12-01 12:24:30 1512149070.617111: $GPGSA,A,3,10,13,15,18,20,21,24,27,5,29,32,138,2.0,0.8,1.5*35
2017-12-01 12:24:31 1512149071.170270: $GPZDA,172432.00,01,12,2017,00,00*61
2017-12-01 12:24:31 1512149071.170459: $GPGGA,172432,3946.9581,N,08404.9836,W,2,12,0.80,306.79,M,-33.324,M,,*7B
2017-12-01 12:24:31 1512149071.170529: $GPRMC,172432,A,3946.9581,N,08404.9836,W,0.0000,0.000,011217,,*3B
2017-12-01 12:24:31 1512149071.170589: $GPGSA,A,3,10,13,15,18,20,21,24,27,5,29,32,138,2.0,0.8,1.5*35
2017-12-01 12:24:32 1512149072.169241: $GPZDA,172433.00,01,12,2017,00,00*60
2017-12-01 12:24:32 1512149072.169437: $GPGGA,172433,3946.9581,N,08404.9836,W,2,12,0.80,306.79,M,-33.324,M,,*7A
2017-12-01 12:24:32 1512149072.169504: $GPRMC,172433,A,3946.9581,N,08404.9836,W,0.0000,0.000,011217,,*3A
2017-12-01 12:24:32 1512149072.169565: $GPGSA,A,3,10,13,15,18,20,21,24,27,5,29,32,138,2.0,0.8,1.5*35
