2017-12-29 11:16:09 1514564169.074858: {"class":"VERSION","release":"3.16","rev":"3.16-4","proto_major":3,"proto_minor":11}
2017-12-29 11:16:09 1514564169.075502: {"class":"DEVICES","devices":[{"class":"DEVICE","path":"/dev/ttyUSB0","driver":"SiRF","subtype":"9\u0006GSD4e_4.1.2-P1_RPATCH.05-F-GPS-4R-1510281 11/03/2015 307","activated":"2017-12-29T16:16:08.532Z","flags":1,"native":1,"bps":4800,"parity":"N","stopbits":1,"cycle":1.00}]}
2017-12-29 11:16:09 1514564169.075669: {"class":"WATCH","enable":true,"json":false,"nmea":true,"raw":0,"scaled":false,"timing":false,"split24":false,"pps":false}
2017-12-29 11:16:09 1514564169.376955: $GPZDA,161610.00,29,12,2017,00,00*6B
2017-12-29 11:16:09 1514564169.377132: $GPGGA,161610,3946.9573,N,08404.9849,W,2,11,1.60,303.94,M,-33.324,M,,*74
2017-12-29 11:16:09 1514564169.377205: $GPRMC,161610,A,3946.9573,N,08404.9849,W,0.0000,0.000,291217,,*34
2017-12-29 11:16:09 1514564169.377266: $GPGSA,A,3,10,15,18,20,21,24,27,32,8,13,138,,1.7,1.6,1.3*3E
2017-12-29 11:16:10 1514564170.728514: $GPGSV,3,1,12,10,41,301,42,15,38,052,46,18,71,337,42,20,35,094,47*76
2017-12-29 11:16:10 1514564170.728680: $GPGSV,3,2,12,21,64,190,43,24,50,111,45,27,19,291,30,32,21,238,34*7E
2017-12-29 11:16:10 1514564170.728746: $GPGSV,3,3,12,08,05,324,35,13,08,048,24,14,03,232,00,138,38,213,44*40
2017-12-29 11:16:10 1514564170.842007: $GPZDA,161611.00,29,12,2017,00,00*6A
2017-12-29 11:16:10 1514564170.842140: $GPGGA,161611,3946.9573,N,08404.9849,W,2,11,1.60,303.94,M,-33.324,M,,*75
2017-12-29 11:16:10 1514564170.842209: $GPRMC,161611,A,3946.9573,N,08404.9849,W,0.0000,0.000,291217,,*35
2017-12-29 11:16:10 1514564170.842272: $GPGSA,A,3,10,15,18,20,21,24,27,32,8,13,138,,1.7,1.6,1.3*3E
2017-12-29 11:16:11 1514564171.467569: $GPZDA,161612.00,29,12,2017,00,00*69
2017-12-29 11:16:11 1514564171.467735: $GPGGA,161612,3946.9573,N,08404.9849,W,2,11,1.60,303.94,M,-33.324,M,,*76
2017-12-29 11:16:11 1514564171.467802: $GPRMC,161612,A,3946.9573,N,08404.9849,W,0.0000,0.000,291217,,*36
2017-12-29 11:16:11 1514564171.467865: $GPGSA,A,3,10,15,18,20,21,24,27,32,8,13,138,,1.7,1.6,1.3*3E
2017-12-29 11:16:12 1514564172.390912: $GPZDA,161613.00,29,12,2017,00,00*68
2017-12-29 11:16:12 1514564172.391129: $GPGGA,161613,3946.9573,N,08404.9849,W,2,11,1.60,303.94,M,-33.324,M,,*77
2017-12-29 11:16:12 1514564172.391209: $GPRMC,161613,A,3946.9573,N,08404.9849,W,0.0000,0.000,291217,,*37
2017-12-29 11:16:12 1514564172.391273: $GPGSA,A,3,10,15,18,20,21,24,27,32,8,13,138,,1.7,1.6,1.3*3E
2017-12-29 11:16:13 1514564173.728846: $GPGSV,3,1,12,10,41,301,41,15,38,052,46,18,71,337,41,20,35,094,47*76
2017-12-29 11:16:13 1514564173.729024: $GPGSV,3,2,12,21,64,190,44,24,50,111,44,27,19,291,30,32,21,238,35*79
2017-12-29 11:16:13 1514564173.729092: $GPGSV,3,3,12,08,05,324,36,13,08,048,24,14,03,232,06,138,38,213,44*45
2017-12-29 11:16:13 1514564173.842502: $GPZDA,161614.00,29,12,2017,00,00*6F
2017-12-29 11:16:13 1514564173.842636: $GPGGA,161614,3946.9573,N,08404.9849,W,2,11,1.60,303.94,M,-33.324,M,,*70
2017-12-29 11:16:13 1514564173.842702: $GPRMC,161614,A,3946.9573,N,08404.9849,W,0.0000,0.000,291217,,*30
2017-12-29 11:16:13 1514564173.842765: $GPGSA,A,3,10,15,18,20,21,24,27,32,8,13,138,,1.7,1.6,1.3*3E
2017-12-29 11:16:14 1514564174.375957: $GPZDA,161615.00,29,12,2017,00,00*6E
2017-12-29 11:16:14 1514564174.376121: $GPGGA,161615,3946.9573,N,08404.9849,W,2,11,1.60,303.94,M,-33.324,M,,*71
2017-12-29 11:16:14 1514564174.376191: $GPRMC,161615,A,3946.9573,N,08404.9849,W,0.0000,0.000,291217,,*31
2017-12-29 11:16:14 1514564174.376252: $GPGSA,A,3,10,15,18,20,21,24,27,32,8,13,138,,1.7,1.6,1.3*3E
2017-12-29 11:16:15 1514564175.386873: $GPZDA,161616.00,29,12,2017,00,00*6D
2017-12-29 11:16:15 1514564175.387036: $GPGGA,161616,3946.9573,N,08404.9849,W,2,11,1.60,303.94,M,-33.324,M,,*72
2017-12-29 11:16:15 1514564175.387104: $GPRMC,161616,A,3946.9573,N,08404.9849,W,0.0000,0.000,291217,,*32
2017-12-29 11:16:15 1514564175.387168: $GPGSA,A,3,10,15,18,20,21,24,27,32,8,13,138,,1.7,1.6,1.3*3E
2017-12-29 11:16:16 1514564176.711712: $GPGSV,3,1,12,10,41,301,41,15,38,052,46,18,71,337,41,20,35,094,46*77
2017-12-29 11:16:16 1514564176.711955: $GPGSV,3,2,12,21,64,190,43,24,50,111,44,27,19,291,30,32,21,238,35*7E
2017-12-29 11:16:16 1514564176.712025: $GPGSV,3,3,12,08,05,324,36,13,08,048,24,14,03,232,10,138,38,213,46*40
2017-12-29 11:16:16 1514564176.825307: $GPZDA,161617.00,29,12,2017,00,00*6C
2017-12-29 11:16:16 1514564176.825446: $GPGGA,161617,3946.9573,N,08404.9849,W,2,11,1.60,303.94,M,-33.324,M,,*73
2017-12-29 11:16:16 1514564176.825512: $GPRMC,161617,A,3946.9573,N,08404.9849,W,0.0000,0.000,291217,,*33
2017-12-29 11:16:16 1514564176.825573: $GPGSA,A,3,10,15,18,20,21,24,27,32,8,13,138,,1.7,1.6,1.3*3E
2017-12-29 11:16:17 1514564177.392486: $GPZDA,161618.00,29,12,2017,00,00*63
2017-12-29 11:16:17 1514564177.392672: $GPGGA,161618,3946.9573,N,08404.9849,W,2,11,1.60,303.94,M,-33.324,M,,*7C
2017-12-29 11:16:17 1514564177.392739: $GPRMC,161618,A,3946.9573,N,08404.9849,W,0.0000,0.000,291217,,*3C
2017-12-29 11:16:17 1514564177.392802: $GPGSA,A,3,10,15,18,20,21,24,27,32,8,13,138,,1.7,1.6,1.3*3E
2017-12-29 11:16:18 1514564178.393402: $GPZDA,161619.00,29,12,2017,00,00*62
2017-12-29 11:16:18 1514564178.393596: $GPGGA,161619,3946.9573,N,08404.9849,W,2,11,1.60,303.94,M,-33.324,M,,*7D
2017-12-29 11:16:18 1514564178.393694: $GPRMC,161619,A,3946.9573,N,08404.9849,W,0.0000,0.000,291217,,*3D
2017-12-29 11:16:18 1514564178.393759: $GPGSA,A,3,10,15,18,20,21,24,27,32,8,13,138,,1.7,1.6,1.3*3E
2017-12-29 11:16:19 1514564179.714015: $GPGSV,3,1,12,10,41,301,41,15,38,052,46,18,71,337,41,20,35,094,47*76
2017-12-29 11:16:19 1514564179.714210: $GPGSV,3,2,12,21,64,190,43,24,50,111,44,27,19,291,28,32,21,238,35*77
2017-12-29 11:16:19 1514564179.714279: $GPGSV,3,3,12,08,05,324,36,13,08,048,25,14,03,232,18,138,38,213,45*4A
2017-12-29 11:16:19 1514564179.827198: $GPZDA,161620.00,29,12,2017,00,00*68
2017-12-29 11:16:19 1514564179.827371: $GPGGA,161620,3946.9573,N,08404.9849,W,2,12,1.60,303.94,M,-33.324,M,,*74
2017-12-29 11:16:19 1514564179.827436: $GPRMC,161620,A,3946.9573,N,08404.9849,W,0.0000,0.000,291217,,*37
2017-12-29 11:16:19 1514564179.827498: $GPGSA,A,3,10,15,18,20,21,24,27,32,8,13,14,138,1.7,1.6,1.3*3B
2017-12-29 11:16:20 1514564180.392315: $GPZDA,161621.00,29,12,2017,00,00*69
2017-12-29 11:16:20 1514564180.392487: $GPGGA,161621,3946.9573,N,08404.9849,W,2,12,1.60,303.94,M,-33.324,M,,*75
2017-12-29 11:16:20 1514564180.392553: $GPRMC,161621,A,3946.9573,N,08404.9849,W,0.0000,0.000,291217,,*36
2017-12-29 11:16:20 1514564180.392633: $GPGSA,A,3,10,15,18,20,21,24,27,32,8,13,14,138,1.7,1.6,1.3*3B
2017-12-29 11:16:21 1514564181.370950: $GPZDA,161622.00,29,12,2017,00,00*6A
2017-12-29 11:16:21 1514564181.371193: $GPGGA,161622,3946.9577,N,08404.9849,W,2,12,1.60,304.58,M,-33.324,M,,*75
2017-12-29 11:16:21 1514564181.371267: $GPRMC,161622,A,3946.9577,N,08404.9849,W,0.0000,0.000,291217,,*31
2017-12-29 11:16:21 1514564181.371329: $GPGSA,A,3,10,15,18,20,21,24,27,32,8,13,14,138,1.7,1.6,1.3*3B
2017-12-29 11:16:22 1514564182.711682: $GPGSV,3,1,12,10,41,301,41,15,38,052,46,18,71,337,42,20,35,094,47*75
2017-12-29 11:16:22 1514564182.711839: $GPGSV,3,2,12,21,64,190,44,24,50,111,45,27,19,291,24,32,21,238,35*7D
2017-12-29 11:16:22 1514564182.711905: $GPGSV,3,3,12,08,05,324,36,13,08,048,24,14,03,232,12,138,38,213,45*41
2017-12-29 11:16:22 1514564182.824994: $GPZDA,161623.00,29,12,2017,00,00*6B
2017-12-29 11:16:22 1514564182.825127: $GPGGA,161623,3946.9577,N,08404.9849,W,2,12,1.60,304.58,M,-33.324,M,,*74
2017-12-29 11:16:22 1514564182.825191: $GPRMC,161623,A,3946.9577,N,08404.9849,W,0.0000,0.000,291217,,*30
2017-12-29 11:16:22 1514564182.825253: $GPGSA,A,3,10,15,18,20,21,24,27,32,8,13,14,138,1.7,1.6,1.3*3B
2017-12-29 11:16:23 1514564183.385915: $GPZDA,161624.00,29,12,2017,00,00*6C
2017-12-29 11:16:23 1514564183.386094: $GPGGA,161624,3946.9577,N,08404.9849,W,2,12,1.60,304.58,M,-33.324,M,,*73
2017-12-29 11:16:23 1514564183.386164: $GPRMC,161624,A,3946.9577,N,08404.9849,W,0.0000,0.000,291217,,*37
2017-12-29 11:16:23 1514564183.386226: $GPGSA,A,3,10,15,18,20,21,24,27,32,8,13,14,138,1.7,1.6,1.3*3B
2017-12-29 11:16:24 1514564184.391818: $GPZDA,161625.00,29,12,2017,00,00*6D
2017-12-29 11:16:24 1514564184.391993: $GPGGA,161625,3946.9577,N,08404.9849,W,2,12,1.60,304.58,M,-33.324,M,,*72
2017-12-29 11:16:24 1514564184.392063: $GPRMC,161625,A,3946.9577,N,08404.9849,W,0.0000,0.000,291217,,*36
2017-12-29 11:16:24 1514564184.392127: $GPGSA,A,3,10,15,18,20,21,24,27,32,8,13,14,138,1.7,1.6,1.3*3B
2017-12-29 11:16:25 1514564185.712547: $GPGSV,3,1,12,10,41,301,41,15,38,052,46,18,71,337,41,20,35,094,47*76
2017-12-29 11:16:25 1514564185.712717: $GPGSV,3,2,12,21,64,190,44,24,50,111,44,27,19,291,23,32,21,238,35*7B
2017-12-29 11:16:25 1514564185.712782: $GPGSV,3,3,12,08,05,324,36,13,08,048,24,14,03,232,00,138,38,213,45*42
2017-12-29 11:16:25 1514564185.826144: $GPZDA,161626.00,29,12,2017,00,00*6E
2017-12-29 11:16:25 1514564185.826275: $GPGGA,161626,3946.9577,N,08404.9849,W,2,11,1.60,304.58,M,-33.324,M,,*72
2017-12-29 11:16:25 1514564185.826341: $GPRMC,161626,A,3946.9577,N,08404.9849,W,0.0000,0.000,291217,,*35
2017-12-29 11:16:25 1514564185.826401: $GPGSA,A,3,10,15,18,20,21,24,27,32,8,13,138,,1.7,1.6,1.3*3E
2017-12-29 11:16:26 1514564186.451608: $GPZDA,161627.00,29,12,2017,00,00*6F
2017-12-29 11:16:26 1514564186.451772: $GPGGA,161627,3946.9577,N,08404.9849,W,2,11,1.60,304.58,M,-33.324,M,,*73
2017-12-29 11:16:26 1514564186.451838: $GPRMC,161627,A,3946.9577,N,08404.9849,W,0.0000,0.000,291217,,*34
2017-12-29 11:16:26 1514564186.451900: $GPGSA,A,3,10,15,18,20,21,24,27,32,8,13,138,,1.7,1.6,1.3*3E
2017-12-29 11:16:27 1514564187.387444: $GPZDA,161628.00,29,12,2017,00,00*60
2017-12-29 11:16:27 1514564187.387601: $GPGGA,161628,3946.9573,N,08404.9850,W,2,11,1.60,305.35,M,-33.324,M,,*7A
2017-12-29 11:16:27 1514564187.387666: $GPRMC,161628,A,3946.9573,N,08404.9850,W,0.0000,0.000,291217,,*37
2017-12-29 11:16:27 1514564187.387728: $GPGSA,A,3,10,15,18,20,21,24,27,32,8,13,138,,1.7,1.6,1.3*3E
2017-12-29 11:16:28 1514564188.709154: $GPGSV,3,1,12,10,41,301,42,15,38,052,45,18,71,337,41,20,35,094,47*76
2017-12-29 11:16:28 1514564188.709329: $GPGSV,3,2,12,21,64,190,43,24,50,111,45,27,19,291,22,32,21,238,35*7C
2017-12-29 11:16:28 1514564188.709416: $GPGSV,3,3,12,08,05,324,35,13,08,048,24,14,03,232,02,138,38,213,44*42
2017-12-29 11:16:28 1514564188.822788: $GPZDA,161629.00,29,12,2017,00,00*61
2017-12-29 11:16:28 1514564188.822933: $GPGGA,161629,3946.9573,N,08404.9850,W,2,11,1.60,305.35,M,-33.324,M,,*7B
2017-12-29 11:16:28 1514564188.823000: $GPRMC,161629,A,3946.9573,N,08404.9850,W,0.0000,0.000,291217,,*36
2017-12-29 11:16:28 1514564188.823061: $GPGSA,A,3,10,15,18,20,21,24,27,32,8,13,138,,1.7,1.6,1.3*3E
2017-12-29 11:16:29 1514564189.388733: $GPZDA,161630.00,29,12,2017,00,00*69
2017-12-29 11:16:29 1514564189.388909: $GPGGA,161630,3946.9573,N,08404.9850,W,2,11,1.60,305.35,M,-33.324,M,,*73
2017-12-29 11:16:29 1514564189.388977: $GPRMC,161630,A,3946.9573,N,08404.9850,W,0.0000,0.000,291217,,*3E
2017-12-29 11:16:29 1514564189.389042: $GPGSA,A,3,10,15,18,20,21,24,27,32,8,13,138,,1.7,1.6,1.3*3E
2017-12-29 11:16:30 1514564190.377043: $GPZDA,161631.00,29,12,2017,00,00*68
2017-12-29 11:16:30 1514564190.377220: $GPGGA,161631,3946.9573,N,08404.9850,W,2,11,1.60,305.35,M,-33.324,M,,*72
2017-12-29 11:16:30 1514564190.377287: $GPRMC,161631,A,3946.9573,N,08404.9850,W,0.0000,0.000,291217,,*3F
2017-12-29 11:16:30 1514564190.377349: $GPGSA,A,3,10,15,18,20,21,24,27,32,8,13,138,,1.7,1.6,1.3*3E
2017-12-29 11:16:31 1514564191.728271: $GPGSV,3,1,12,10,41,301,42,15,38,052,46,18,71,337,41,20,35,094,47*75
2017-12-29 11:16:31 1514564191.728435: $GPGSV,3,2,12,21,64,190,43,24,50,111,44,27,19,291,22,32,21,238,35*7D
2017-12-29 11:16:31 1514564191.728502: $GPGSV,3,3,12,08,05,324,35,13,08,048,23,14,03,232,19,138,38,213,44*4F
2017-12-29 11:16:31 1514564191.841894: $GPZDA,161632.00,29,12,2017,00,00*6B
2017-12-29 11:16:31 1514564191.842032: $GPGGA,161632,3946.9573,N,08404.9850,W,2,12,1.60,305.35,M,-33.324,M,,*72
2017-12-29 11:16:31 1514564191.842100: $GPRMC,161632,A,3946.9573,N,08404.9850,W,0.0000,0.000,291217,,*3C
2017-12-29 11:16:31 1514564191.842161: $GPGSA,A,3,10,15,18,20,21,24,27,32,8,13,14,138,1.7,1.6,1.3*3B
2017-12-29 11:16:32 1514564192.392682: $GPZDA,161633.00,29,12,2017,00,00*6A
2017-12-29 11:16:32 1514564192.392859: $GPGGA,161633,3946.9569,N,08404.9850,W,2,12,1.60,304.71,M,-33.324,M,,*79
2017-12-29 11:16:32 1514564192.392925: $GPRMC,161633,A,3946.9569,N,08404.9850,W,0.0000,0.000,291217,,*36
2017-12-29 11:16:32 1514564192.392991: $GPGSA,A,3,10,15,18,20,21,24,27,32,8,13,14,138,1.7,1.6,1.3*3B
2017-12-29 11:16:33 1514564193.377168: $GPZDA,161634.00,29,12,2017,00,00*6D
2017-12-29 11:16:33 1514564193.377352: $GPGGA,161634,3946.9569,N,08404.9850,W,2,12,1.60,304.71,M,-33.324,M,,*7E
2017-12-29 11:16:33 1514564193.377420: $GPRMC,161634,A,3946.9569,N,08404.9850,W,0.2422,93.794,291217,,*07
2017-12-29 11:16:33 1514564193.377483: $GPGSA,A,3,10,15,18,20,21,24,27,32,8,13,14,138,1.7,1.6,1.3*3B
