2017-12-31 18:10:07 1514761807.807234: {"class":"VERSION","release":"3.16","rev":"3.16-4","proto_major":3,"proto_minor":11}
2017-12-31 18:10:07 1514761807.807604: {"class":"DEVICES","devices":[{"class":"DEVICE","path":"/dev/ttyUSB0","driver":"SiRF","activated":"2017-12-31T23:10:07.490Z","flags":1,"native":1,"bps":4800,"parity":"N","stopbits":1,"cycle":1.00}]}
2017-12-31 18:10:07 1514761807.807702: {"class":"WATCH","enable":true,"json":false,"nmea":true,"raw":0,"scaled":false,"timing":false,"split24":false,"pps":false}
2017-12-31 18:10:08 1514761808.348684: $GPZDA,231009.00,31,12,2017,00,00*6A
2017-12-31 18:10:08 1514761808.348862: $GPGGA,231009,3946.9561,N,08404.9874,W,2,11,0.60,308.17,M,-33.324,M,,*70
2017-12-31 18:10:08 1514761808.348931: $GPRMC,231009,A,3946.9561,N,08404.9874,W,0.0000,0.000,311217,,*38
2017-12-31 18:10:08 1514761808.348992: $GPGSA,A,3,22,23,9,3,16,29,14,31,27,26,135,,1.7,0.6,1.3*06
2017-12-31 18:10:09 1514761809.683981: $GPGSV,3,1,11,22,22,214,35,23,53,306,45,09,20,312,37,03,32,234,44*71
2017-12-31 18:10:09 1514761809.684160: $GPGSV,3,2,11,16,80,189,43,29,05,031,30,14,15,133,35,31,29,075,41*77
2017-12-31 18:10:09 1514761809.684225: $GPGSV,3,3,11,27,22,154,34,26,62,051,48,135,22,240,43*75
2017-12-31 18:10:09 1514761809.797383: $GPZDA,231010.00,31,12,2017,00,00*62
2017-12-31 18:10:09 1514761809.797613: $GPGGA,231010,3946.9561,N,08404.9874,W,2,11,0.60,308.17,M,-33.324,M,,*78
2017-12-31 18:10:09 1514761809.797681: $GPRMC,231010,A,3946.9561,N,08404.9874,W,0.0000,0.000,311217,,*30
2017-12-31 18:10:09 1514761809.797743: $GPGSA,A,3,22,23,9,3,16,29,14,31,27,26,135,,1.7,0.6,1.3*06
2017-12-31 18:10:10 1514761810.423004: $GPZDA,231011.00,31,12,2017,00,00*63
2017-12-31 18:10:10 1514761810.423172: $GPGGA,231011,3946.9561,N,08404.9874,W,2,11,0.60,308.17,M,-33.324,M,,*79
2017-12-31 18:10:10 1514761810.423240: $GPRMC,231011,A,3946.9561,N,08404.9874,W,0.0000,0.000,311217,,*31
2017-12-31 18:10:10 1514761810.423301: $GPGSA,A,3,22,23,9,3,16,29,14,31,27,26,135,,1.7,0.6,1.3*06
2017-12-31 18:10:11 1514761811.348866: $GPZDA,231012.00,31,12,2017,00,00*60
2017-12-31 18:10:11 1514761811.349038: $GPGGA,231012,3946.9561,N,08404.9874,W,2,11,0.60,308.17,M,-33.324,M,,*7A
2017-12-31 18:10:11 1514761811.349104: $GPRMC,231012,A,3946.9561,N,08404.9874,W,0.0000,0.000,311217,,*32
2017-12-31 18:10:11 1514761811.349165: $GPGSA,A,3,22,23,9,3,16,29,14,31,27,26,135,,1.7,0.6,1.3*06
2017-12-31 18:10:12 1514761812.705661: $GPGSV,3,1,11,22,22,214,36,23,53,306,44,09,20,312,37,03,32,234,44*73
2017-12-31 18:10:12 1514761812.705843: $GPGSV,3,2,11,16,80,189,42,29,05,031,31,14,15,133,35,31,29,075,41*77
2017-12-31 18:10:12 1514761812.705909: $GPGSV,3,3,11,27,22,154,34,26,62,051,48,135,22,240,43*75
2017-12-31 18:10:12 1514761812.820781: $GPZDA,231013.00,31,12,2017,00,00*61
2017-12-31 18:10:12 1514761812.820933: $GPGGA,231013,3946.9561,N,08404.9874,W,2,11,0.60,308.17,M,-33.324,M,,*7B
2017-12-31 18:10:12 1514761812.820999: $GPRMC,231013,A,3946.9561,N,08404.9874,W,0.0000,0.000,311217,,*33
2017-12-31 18:10:12 1514761812.821059: $GPGSA,A,3,22,23,9,3,16,29,14,31,27,26,135,,1.7,0.6,1.3*06
2017-12-31 18:10:13 1514761813.371389: $GPZDA,231014.00,31,12,2017,00,00*66
2017-12-31 18:10:13 1514761813.371560: $GPGGA,231014,3946.9561,N,08404.9874,W,2,11,0.60,308.17,M,-33.324,M,,*7C
2017-12-31 18:10:13 1514761813.371627: $GPRMC,231014,A,3946.9561,N,08404.9874,W,0.0000,0.000,311217,,*34
2017-12-31 18:10:13 1514761813.371688: $GPGSA,A,3,22,23,9,3,16,29,14,31,27,26,135,,1.7,0.6,1.3*06
2017-12-31 18:10:14 1514761814.348219: $GPZDA,231015.00,31,12,2017,00,00*67
2017-12-31 18:10:14 1514761814.348392: $GPGGA,231015,3946.9561,N,08404.9874,W,2,11,0.60,308.17,M,-33.324,M,,*7D
2017-12-31 18:10:14 1514761814.348459: $GPRMC,231015,A,3946.9561,N,08404.9874,W,0.0000,0.000,311217,,*35
2017-12-31 18:10:14 1514761814.348537: $GPGSA,A,3,22,23,9,3,16,29,14,31,27,26,135,,1.7,0.6,1.3*06
2017-12-31 18:10:15 1514761815.684618: $GPGSV,3,1,11,22,22,214,39,23,53,306,44,09,20,312,39,03,32,234,44*72
2017-12-31 18:10:15 1514761815.684796: $GPGSV,3,2,11,16,80,189,43,29,05,031,32,14,15,133,35,31,29,075,42*76
2017-12-31 18:10:15 1514761815.684916: $GPGSV,3,3,11,27,22,154,34,26,62,051,48,135,22,240,43*75
2017-12-31 18:10:15 1514761815.798033: $GPZDA,231016.00,31,12,2017,00,00*64
2017-12-31 18:10:15 1514761815.798218: $GPGGA,231016,3946.9561,N,08404.9874,W,2,11,0.60,308.17,M,-33.324,M,,*7E
2017-12-31 18:10:15 1514761815.798285: $GPRMC,231016,A,3946.9561,N,08404.9874,W,0.0000,0.000,311217,,*36
2017-12-31 18:10:15 1514761815.798347: $GPGSA,A,3,22,23,9,3,16,29,14,31,27,26,135,,1.7,0.6,1.3*06
2017-12-31 18:10:16 1514761816.347633: $GPZDA,231017.00,31,12,2017,00,00*65
2017-12-31 18:10:16 1514761816.347805: $GPGGA,231017,3946.9561,N,08404.9874,W,2,11,0.60,308.17,M,-33.324,M,,*7F
2017-12-31 18:10:16 1514761816.347872: $GPRMC,231017,A,3946.9561,N,08404.9874,W,0.0000,0.000,311217,,*37
2017-12-31 18:10:16 1514761816.347934: $GPGSA,A,3,22,23,9,3,16,29,14,31,27,26,135,,1.7,0.6,1.3*06
2017-12-31 18:10:17 1514761817.348512: $GPZDA,231018.00,31,12,2017,00,00*6A
2017-12-31 18:10:17 1514761817.348689: $GPGGA,231018,3946.9561,N,08404.9874,W,2,11,0.60,308.17,M,-33.324,M,,*70
2017-12-31 18:10:17 1514761817.348756: $GPRMC,231018,A,3946.9561,N,08404.9874,W,0.0000,0.000,311217,,*38
2017-12-31 18:10:17 1514761817.348917: $GPGSA,A,3,22,23,9,3,16,29,14,31,27,26,135,,1.7,0.6,1.3*06
2017-12-31 18:10:18 1514761818.684232: $GPGSV,3,1,11,22,22,214,40,23,53,306,45,09,20,312,40,03,32,234,44*73
2017-12-31 18:10:18 1514761818.684412: $GPGSV,3,2,11,16,80,189,43,29,05,031,21,14,15,133,36,31,29,075,43*76
2017-12-31 18:10:18 1514761818.684478: $GPGSV,3,3,11,27,22,154,30,26,62,051,48,135,22,240,42*70
2017-12-31 18:10:18 1514761818.797669: $GPZDA,231019.00,31,12,2017,00,00*6B
2017-12-31 18:10:18 1514761818.797832: $GPGGA,231019,3946.9561,N,08404.9874,W,2,11,0.60,308.17,M,-33.324,M,,*71
2017-12-31 18:10:18 1514761818.797898: $GPRMC,231019,A,3946.9561,N,08404.9874,W,0.0000,0.000,311217,,*39
2017-12-31 18:10:18 1514761818.797959: $GPGSA,A,3,22,23,9,3,16,29,14,31,27,26,135,,1.7,0.6,1.3*06
2017-12-31 18:10:19 1514761819.349787: $GPZDA,231020.00,31,12,2017,00,00*61
2017-12-31 18:10:19 1514761819.349948: $GPGGA,231020,3946.9561,N,08404.9874,W,2,11,0.60,308.17,M,-33.324,M,,*7B
2017-12-31 18:10:19 1514761819.350014: $GPRMC,231020,A,3946.9561,N,08404.9874,W,0.0000,0.000,311217,,*33
2017-12-31 18:10:19 1514761819.350075: $GPGSA,A,3,22,23,9,3,16,29,14,31,27,26,135,,1.7,0.6,1.3*06
2017-12-31 18:10:20 1514761820.341408: $GPZDA,231021.00,31,12,2017,00,00*60
2017-12-31 18:10:20 1514761820.341575: $GPGGA,231021,3946.9561,N,08404.9874,W,2,11,0.60,308.17,M,-33.324,M,,*7A
2017-12-31 18:10:20 1514761820.341640: $GPRMC,231021,A,3946.9561,N,08404.9874,W,0.0000,0.000,311217,,*32
2017-12-31 18:10:20 1514761820.341701: $GPGSA,A,3,22,23,9,3,16,29,14,31,27,26,135,,1.7,0.6,1.3*06
2017-12-31 18:10:21 1514761821.684701: $GPGSV,3,1,11,22,22,214,40,23,53,306,46,09,20,312,39,03,32,234,44*7E
2017-12-31 18:10:21 1514761821.684892: $GPGSV,3,2,11,16,80,189,43,29,05,031,22,14,15,133,36,31,29,075,42*74
2017-12-31 18:10:21 1514761821.684959: $GPGSV,3,3,11,27,22,154,31,26,62,051,49,135,22,240,43*71
2017-12-31 18:10:21 1514761821.798171: $GPZDA,231022.00,31,12,2017,00,00*63
2017-12-31 18:10:21 1514761821.798335: $GPGGA,231022,3946.9561,N,08404.9874,W,2,11,0.60,308.17,M,-33.324,M,,*79
2017-12-31 18:10:21 1514761821.798401: $GPRMC,231022,A,3946.9561,N,08404.9874,W,0.0000,0.000,311217,,*31
2017-12-31 18:10:21 1514761821.798461: $GPGSA,A,3,22,23,9,3,16,29,14,31,27,26,135,,1.7,0.6,1.3*06
2017-12-31 18:10:22 1514761822.348972: $GPZDA,231023.00,31,12,2017,00,00*62
2017-12-31 18:10:22 1514761822.349152: $GPGGA,231023,3946.9561,N,08404.9874,W,2,11,0.60,308.17,M,-33.324,M,,*78
2017-12-31 18:10:22 1514761822.349220: $GPRMC,231023,A,3946.9561,N,08404.9874,W,0.0000,0.000,311217,,*30
2017-12-31 18:10:22 1514761822.349281: $GPGSA,A,3,22,23,9,3,16,29,14,31,27,26,135,,1.7,0.6,1.3*06
2017-12-31 18:10:23 1514761823.376156: $GPZDA,231024.00,31,12,2017,00,00*65
2017-12-31 18:10:23 1514761823.376334: $GPGGA,231024,3946.9561,N,08404.9874,W,2,11,0.60,308.17,M,-33.324,M,,*7F
2017-12-31 18:10:23 1514761823.376479: $GPRMC,231024,A,3946.9561,N,08404.9874,W,0.0000,0.000,311217,,*37
2017-12-31 18:10:23 1514761823.376542: $GPGSA,A,3,22,23,9,3,16,29,14,31,27,26,135,,1.7,0.6,1.3*06
2017-12-31 18:10:24 1514761824.713072: $GPGSV,3,1,11,22,22,214,40,23,53,306,46,09,20,312,39,03,32,234,44*7E
2017-12-31 18:10:24 1514761824.713260: $GPGSV,3,2,11,16,80,189,44,29,05,031,28,14,15,133,36,31,29,075,42*79
2017-12-31 18:10:24 1514761824.713326: $GPGSV,3,3,11,27,22,154,30,26,62,051,49,135,22,240,44*77
2017-12-31 18:10:24 1514761824.826421: $GPZDA,231025.00,31,12,2017,00,00*64
2017-12-31 18:10:24 1514761824.826585: $GPGGA,231025,3946.9561,N,08404.9874,W,2,11,0.60,308.17,M,-33.324,M,,*7E
2017-12-31 18:10:24 1514761824.826650: $GPRMC,231025,A,3946.9561,N,08404.9874,W,0.0000,0.000,311217,,*36
2017-12-31 18:10:24 1514761824.826711: $GPGSA,A,3,22,23,9,3,16,29,14,31,27,26,135,,1.7,0.6,1.3*06
2017-12-31 18:10:25 1514761825.452160: $GPZDA,231026.00,31,12,2017,00,00*67
2017-12-31 18:10:25 1514761825.452332: $GPGGA,231026,3946.9561,N,08404.9874,W,2,11,0.60,308.17,M,-33.324,M,,*7D
2017-12-31 18:10:25 1514761825.452398: $GPRMC,231026,A,3946.9561,N,08404.9874,W,0.0000,0.000,311217,,*35
2017-12-31 18:10:25 1514761825.452460: $GPGSA,A,3,22,23,9,3,16,29,14,31,27,26,135,,1.7,0.6,1.3*06
2017-12-31 18:10:26 1514761826.376581: $GPZDA,231027.00,31,12,2017,00,00*66
2017-12-31 18:10:26 1514761826.376752: $GPGGA,231027,3946.9561,N,08404.9874,W,2,11,0.60,308.17,M,-33.324,M,,*7C
2017-12-31 18:10:26 1514761826.376818: $GPRMC,231027,A,3946.9561,N,08404.9874,W,0.0000,0.000,311217,,*34
2017-12-31 18:10:26 1514761826.376878: $GPGSA,A,3,22,23,9,3,16,29,14,31,27,26,135,,1.7,0.6,1.3*06
2017-12-31 18:10:27 1514761827.684727: $GPGSV,3,1,11,22,22,214,40,23,53,306,46,09,20,312,40,03,32,234,44*70
2017-12-31 18:10:27 1514761827.684875: $GPGSV,3,2,11,16,80,189,44,29,05,031,28,14,15,133,37,31,29,075,42*78
2017-12-31 18:10:27 1514761827.684939: $GPGSV,3,3,11,27,22,154,31,26,62,051,48,135,22,240,45*76
2017-12-31 18:10:27 1514761827.798078: $GPZDA,231028.00,31,12,2017,00,00*69
2017-12-31 18:10:27 1514761827.798220: $GPGGA,231028,3946.9561,N,08404.9874,W,2,11,0.60,308.17,M,-33.324,M,,*73
2017-12-31 18:10:27 1514761827.798287: $GPRMC,231028,A,3946.9561,N,08404.9874,W,0.0000,0.000,311217,,*3B
2017-12-31 18:10:27 1514761827.798348: $GPGSA,A,3,22,23,9,3,16,29,14,31,27,26,135,,1.7,0.6,1.3*06
