2017-12-01 11:29:37 1512145777.465082: {"class":"VERSION","release":"3.16","rev":"3.16-4","proto_major":3,"proto_minor":11}
2017-12-01 11:29:37 1512145777.465479: {"class":"DEVICES","devices":[{"class":"DEVICE","path":"/dev/ttyUSB0","driver":"SiRF","subtype":"9\u0006GSD4e_4.1.2-P1_RPATCH.05-F-GPS-4R-1510281 11/03/2015 307","activated":"2017-12-01T16:29:37.307Z","flags":1,"native":1,"bps":4800,"parity":"N","stopbits":1,"cycle":1.00}]}
2017-12-01 11:29:37 1512145777.465600: {"class":"WATCH","enable":true,"json":false,"nmea":true,"raw":0,"scaled":false,"timing":false,"split24":false,"pps":false}
2017-12-01 11:29:37 1512145777.756981: $GPGSV,3,1,12,05,18,073,40,10,09,267,38,13,48,054,45,15,79,102,48*7F
2017-12-01 11:29:37 1512145777.757168: $GPGSV,3,2,12,18,39,280,44,20,66,039,42,21,61,309,47,24,15,151,38*7D
2017-12-01 11:29:37 1512145777.757235: $GPGSV,3,3,12,29,31,196,47,27,04,327,24,30,01,030,02,138,38,213,46*4F
2017-12-01 11:29:37 1512145777.870446: $GPZDA,162938.00,01,12,2017,00,00*67
2017-12-01 11:29:37 1512145777.870591: $GPGGA,162938,3946.9576,N,08404.9844,W,2,11,1.00,295.39,M,-33.324,M,,*75
2017-12-01 11:29:37 1512145777.870654: $GPRMC,162938,A,3946.9576,N,08404.9844,W,0.0000,0.000,011217,,*30
2017-12-01 11:29:37 1512145777.870714: $GPGSA,A,3,5,10,13,15,18,20,21,24,29,27,138,,2.0,1.0,1.5*3D
2017-12-01 11:29:38 1512145778.421327: $GPZDA,162939.00,01,12,2017,00,00*66
2017-12-01 11:29:38 1512145778.421558: $GPGGA,162939,3946.9576,N,08404.9844,W,2,11,1.00,295.39,M,-33.324,M,,*74
2017-12-01 11:29:38 1512145778.421626: $GPRMC,162939,A,3946.9576,N,08404.9844,W,0.0000,0.000,011217,,*31
2017-12-01 11:29:38 1512145778.421687: $GPGSA,A,3,5,10,13,15,18,20,21,24,29,27,138,,2.0,1.0,1.5*3D
2017-12-01 11:29:39 1512145779.424169: $GPZDA,162940.00,01,12,2017,00,00*68
2017-12-01 11:29:39 1512145779.424337: $GPGGA,162940,3946.9576,N,08404.9844,W,2,11,1.00,295.39,M,-33.324,M,,*7A
2017-12-01 11:29:39 1512145779.424403: $GPRMC,162940,A,3946.9576,N,08404.9844,W,0.0000,0.000,011217,,*3F
2017-12-01 11:29:39 1512145779.424463: $GPGSA,A,3,5,10,13,15,18,20,21,24,29,27,138,,2.0,1.0,1.5*3D
2017-12-01 11:29:40 1512145780.752436: $GPGSV,3,1,12,05,18,073,40,10,09,267,37,13,48,054,45,15,79,102,48*70
2017-12-01 11:29:40 1512145780.752615: $GPGSV,3,2,12,18,39,280,44,20,66,039,42,21,61,309,47,24,15,151,38*7D
2017-12-01 11:29:40 1512145780.752681: $GPGSV,3,3,12,29,31,196,47,04,17,127,00,30,01,030,02,138,38,213,45*4B
2017-12-01 11:29:40 1512145780.865687: $GPZDA,162941.00,01,12,2017,00,00*69
2017-12-01 11:29:40 1512145780.865854: $GPGGA,162941,3946.9576,N,08404.9844,W,2,10,1.00,295.39,M,-33.324,M,,*7A
2017-12-01 11:29:40 1512145780.865920: $GPRMC,162941,A,3946.9576,N,08404.9844,W,0.0000,0.000,011217,,*3E
2017-12-01 11:29:40 1512145780.865980: $GPGSA,A,3,5,10,13,15,18,20,21,24,29,138,,,2.0,1.0,1.5*38
2017-12-01 11:29:41 1512145781.424054: $GPZDA,162942.00,01,12,2017,00,00*6A
2017-12-01 11:29:41 1512145781.424237: $GPGGA,162942,3946.9576,N,08404.9844,W,2,10,1.00,295.39,M,-33.324,M,,*79
2017-12-01 11:29:41 1512145781.424326: $GPRMC,162942,A,3946.9576,N,08404.9844,W,0.0000,0.000,011217,,*3D
2017-12-01 11:29:41 1512145781.424389: $GPGSA,A,3,5,10,13,15,18,20,21,24,29,138,,,2.0,1.0,1.5*38
2017-12-01 11:29:42 1512145782.421189: $GPZDA,162943.00,01,12,2017,00,00*6B
2017-12-01 11:29:42 1512145782.421414: $GPGGA,162943,3946.9576,N,08404.9844,W,2,10,1.00,295.39,M,-33.324,M,,*78
2017-12-01 11:29:42 1512145782.421491: $GPRMC,162943,A,3946.9576,N,08404.9844,W,0.0000,0.000,011217,,*3C
2017-12-01 11:29:42 1512145782.421553: $GPGSA,A,3,5,10,13,15,18,20,21,24,29,138,,,2.0,1.0,1.5*38
2017-12-01 11:29:43 1512145783.751941: $GPGSV,3,1,12,05,18,073,40,10,09,267,37,13,48,054,46,15,79,102,48*73
2017-12-01 11:29:43 1512145783.752132: $GPGSV,3,2,12,18,39,280,44,20,66,039,42,21,61,309,47,24,15,151,39*7C
2017-12-01 11:29:43 1512145783.752199: $GPGSV,3,3,12,29,31,196,48,27,04,327,21,30,01,030,02,138,38,213,45*46
2017-12-01 11:29:43 1512145783.865817: $GPZDA,162944.00,01,12,2017,00,00*6C
2017-12-01 11:29:43 1512145783.865969: $GPGGA,162944,3946.9576,N,08404.9844,W,2,11,1.00,295.39,M,-33.324,M,,*7E
2017-12-01 11:29:43 1512145783.866087: $GPRMC,162944,A,3946.9576,N,08404.9844,W,0.0000,0.000,011217,,*3B
2017-12-01 11:29:43 1512145783.866149: $GPGSA,A,3,5,10,13,15,18,20,21,24,29,27,138,,2.0,1.0,1.5*3D
2017-12-01 11:29:44 1512145784.490640: $GPZDA,162945.00,01,12,2017,00,00*6D
2017-12-01 11:29:44 1512145784.490817: $GPGGA,162945,3946.9576,N,08404.9844,W,2,11,1.00,295.39,M,-33.324,M,,*7F
2017-12-01 11:29:44 1512145784.490884: $GPRMC,162945,A,3946.9576,N,08404.9844,W,0.0000,0.000,011217,,*3A
2017-12-01 11:29:44 1512145784.490946: $GPGSA,A,3,5,10,13,15,18,20,21,24,29,27,138,,2.0,1.0,1.5*3D
2017-12-01 11:29:45 1512145785.416537: $GPZDA,162946.00,01,12,2017,00,00*6E
2017-12-01 11:29:45 1512145785.416720: $GPGGA,162946,3946.9576,N,08404.9844,W,2,11,1.00,295.39,M,-33.324,M,,*7C
2017-12-01 11:29:45 1512145785.416789: $GPRMC,162946,A,3946.9576,N,08404.9844,W,0.0000,0.000,011217,,*39
2017-12-01 11:29:45 1512145785.416850: $GPGSA,A,3,5,10,13,15,18,20,21,24,29,27,138,,2.0,1.0,1.5*3D
2017-12-01 11:29:46 1512145786.754773: $GPGSV,3,1,12,05,18,073,41,10,09,267,38,13,48,054,46,15,79,102,48*7D
2017-12-01 11:29:46 1512145786.759439: $GPGSV,3,2,12,18,39,280,43,20,66,039,42,21,61,309,46,24,15,151,39*7A
2017-12-01 11:29:46 1512145786.759543: $GPGSV,3,3,12,29,31,196,47,27,04,327,21,30,01,030,02,138,38,213,46*4A
2017-12-01 11:29:46 1512145786.868219: $GPZDA,162947.00,01,12,2017,00,00*6F
2017-12-01 11:29:46 1512145786.868386: $GPGGA,162947,3946.9576,N,08404.9844,W,2,11,1.00,295.39,M,-33.324,M,,*7D
2017-12-01 11:29:46 1512145786.868451: $GPRMC,162947,A,3946.9576,N,08404.9844,W,0.0000,0.000,011217,,*38
2017-12-01 11:29:46 1512145786.868512: $GPGSA,A,3,5,10,13,15,18,20,21,24,29,27,138,,2.0,1.0,1.5*3D
2017-12-01 11:29:47 1512145787.417802: $GPZDA,162948.00,01,12,2017,00,00*60
2017-12-01 11:29:47 1512145787.417960: $GPGGA,162948,3946.9576,N,08404.9844,W,2,11,1.00,295.39,M,-33.324,M,,*72
2017-12-01 11:29:47 1512145787.418026: $GPRMC,162948,A,3946.9576,N,08404.9844,W,0.0000,0.000,011217,,*37
2017-12-01 11:29:47 1512145787.418086: $GPGSA,A,3,5,10,13,15,18,20,21,24,29,27,138,,2.0,1.0,1.5*3D
