2017-11-16 17:43:28 1510872208.302120: {"class":"VERSION","release":"3.17","rev":"3.17","proto_major":3,"proto_minor":12}
2017-11-16 17:43:28 1510872208.302746: {"class":"DEVICES","devices":[{"class":"DEVICE","path":"/dev/ttyUSB0","driver":"SiRF","subtype":"9\u0006GSD4e_4.1.2-P1_RPATCH.05-F-GPS-4R-1510281 11/03/2015 307","activated":"2017-11-16T22:43:28.280Z","flags":1,"native":1,"bps":4800,"parity":"N","stopbits":1,"cycle":1.00}]}
2017-11-16 17:43:28 1510872208.302866: {"class":"WATCH","enable":true,"json":false,"nmea":true,"raw":0,"scaled":false,"timing":false,"split24":false,"pps":false}
2017-11-16 17:43:28 1510872208.393937: $GPZDA,224327.00,16,11,2017,00,00*67
2017-11-16 17:43:28 1510872208.394112: $GPGGA,224327,3946.9579,N,08404.9841,W,2,12,0.80,302.49,M,-33.324,M,,*78
2017-11-16 17:43:28 1510872208.394173: $GPRMC,224327,A,3946.9579,N,08404.9841,W,0.0000,0.000,161117,,*3A
2017-11-16 17:43:28 1510872208.394248: $GPGSA,A,3,1,10,11,12,14,18,26,22,25,31,32,138,1.6,0.8,1.3*3A
2017-11-16 17:43:29 1510872209.392263: $GPZDA,224328.00,16,11,2017,00,00*68
2017-11-16 17:43:29 1510872209.392436: $GPGGA,224328,3946.9579,N,08404.9841,W,2,12,0.80,302.49,M,-33.324,M,,*77
2017-11-16 17:43:29 1510872209.392496: $GPRMC,224328,A,3946.9579,N,08404.9841,W,0.0000,0.000,161117,,*35
2017-11-16 17:43:29 1510872209.392553: $GPGSA,A,3,1,10,11,12,14,18,26,22,25,31,32,138,1.6,0.8,1.3*3A
2017-11-16 17:43:30 1510872210.751872: $GPGSV,3,1,12,01,22,295,32,10,43,150,44,11,07,277,42,12,20,045,50*72
2017-11-16 17:43:30 1510872210.752038: $GPGSV,3,2,12,14,68,339,46,18,14,145,36,26,06,183,30,22,23,312,42*7E
2017-11-16 17:43:30 1510872210.752098: $GPGSV,3,3,12,25,40,084,49,31,60,229,47,32,67,039,48,138,38,213,45*40
2017-11-16 17:43:30 1510872210.865372: $GPZDA,224329.00,16,11,2017,00,00*69
2017-11-16 17:43:30 1510872210.865529: $GPGGA,224329,3946.9579,N,08404.9841,W,2,12,0.80,302.49,M,-33.324,M,,*76
2017-11-16 17:43:30 1510872210.865589: $GPRMC,224329,A,3946.9579,N,08404.9841,W,0.0000,0.000,161117,,*34
2017-11-16 17:43:30 1510872210.865644: $GPGSA,A,3,1,10,11,12,14,18,26,22,25,31,32,138,1.6,0.8,1.3*3A
2017-11-16 17:43:31 1510872211.490602: $GPZDA,224330.00,16,11,2017,00,00*61
2017-11-16 17:43:31 1510872211.490760: $GPGGA,224330,3946.9579,N,08404.9841,W,2,12,0.80,302.49,M,-33.324,M,,*7E
2017-11-16 17:43:31 1510872211.490820: $GPRMC,224330,A,3946.9579,N,08404.9841,W,0.0000,0.000,161117,,*3C
2017-11-16 17:43:31 1510872211.490876: $GPGSA,A,3,1,10,11,12,14,18,26,22,25,31,32,138,1.6,0.8,1.3*3A
2017-11-16 17:43:32 1510872212.387757: $GPZDA,224331.00,16,11,2017,00,00*60
2017-11-16 17:43:32 1510872212.388043: $GPGGA,224331,3946.9579,N,08404.9841,W,2,12,0.80,302.49,M,-33.324,M,,*7F
2017-11-16 17:43:32 1510872212.406280: $GPRMC,224331,A,3946.9579,N,08404.9841,W,0.0000,0.000,161117,,*3D
2017-11-16 17:43:32 1510872212.406452: $GPGSA,A,3,1,10,11,12,14,18,26,22,25,31,32,138,1.6,0.8,1.3*3A
2017-11-16 17:43:33 1510872213.728368: $GPGSV,3,1,12,01,22,295,33,10,43,150,44,11,07,277,42,12,20,045,49*7B
2017-11-16 17:43:33 1510872213.728537: $GPGSV,3,2,12,14,68,339,46,18,14,145,35,26,06,183,30,22,23,312,42*7D
2017-11-16 17:43:33 1510872213.728597: $GPGSV,3,3,12,25,40,084,49,31,60,229,47,32,67,039,49,138,38,213,44*40
2017-11-16 17:43:33 1510872213.841685: $GPZDA,224332.00,16,11,2017,00,00*63
2017-11-16 17:43:33 1510872213.841840: $GPGGA,224332,3946.9579,N,08404.9841,W,2,12,0.80,302.49,M,-33.324,M,,*7C
2017-11-16 17:43:33 1510872213.841901: $GPRMC,224332,A,3946.9579,N,08404.9841,W,0.0000,0.000,161117,,*3E
2017-11-16 17:43:33 1510872213.841957: $GPGSA,A,3,1,10,11,12,14,18,26,22,25,31,32,138,1.6,0.8,1.3*3A
2017-11-16 17:43:34 1510872214.393840: $GPZDA,224333.00,16,11,2017,00,00*62
2017-11-16 17:43:34 1510872214.394019: $GPGGA,224333,3946.9579,N,08404.9841,W,2,12,0.80,302.49,M,-33.324,M,,*7D
2017-11-16 17:43:34 1510872214.394081: $GPRMC,224333,A,3946.9579,N,08404.9841,W,0.0000,0.000,161117,,*3F
2017-11-16 17:43:34 1510872214.394156: $GPGSA,A,3,1,10,11,12,14,18,26,22,25,31,32,138,1.6,0.8,1.3*3A
2017-11-16 17:43:35 1510872215.394719: $GPZDA,224334.00,16,11,2017,00,00*65
2017-11-16 17:43:35 1510872215.394965: $GPGGA,224334,3946.9579,N,08404.9841,W,2,12,0.80,302.49,M,-33.324,M,,*7A
2017-11-16 17:43:35 1510872215.395090: $GPRMC,224334,A,3946.9579,N,08404.9841,W,0.0000,0.000,161117,,*38
2017-11-16 17:43:35 1510872215.395171: $GPGSA,A,3,1,10,11,12,14,18,26,22,25,31,32,138,1.6,0.8,1.3*3A
2017-11-16 17:43:36 1510872216.752538: $GPGSV,3,1,12,01,22,295,33,10,43,150,44,11,07,277,41,12,20,045,49*78
2017-11-16 17:43:36 1510872216.752705: $GPGSV,3,2,12,14,68,339,46,18,14,145,35,26,06,183,30,22,23,312,42*7D
2017-11-16 17:43:36 1510872216.752765: $GPGSV,3,3,12,25,40,084,49,31,60,229,47,32,67,039,49,138,38,213,43*47
2017-11-16 17:43:36 1510872216.865792: $GPZDA,224335.00,16,11,2017,00,00*64
2017-11-16 17:43:36 1510872216.865950: $GPGGA,224335,3946.9579,N,08404.9841,W,2,12,0.80,302.49,M,-33.324,M,,*7B
2017-11-16 17:43:36 1510872216.866011: $GPRMC,224335,A,3946.9579,N,08404.9841,W,0.0000,0.000,161117,,*39
2017-11-16 17:43:36 1510872216.866067: $GPGSA,A,3,1,10,11,12,14,18,26,22,25,31,32,138,1.6,0.8,1.3*3A
2017-11-16 17:43:37 1510872217.416696: $GPZDA,224336.00,16,11,2017,00,00*67
