2018-01-11 19:44:37 1515717877.326431: {"class":"VERSION","release":"3.16","rev":"3.16-4","proto_major":3,"proto_minor":11}
2018-01-11 19:44:37 1515717877.326778: {"class":"DEVICES","devices":[{"class":"DEVICE","path":"/dev/ttyUSB0","driver":"SiRF","subtype":"9\u0006GSD4e_4.1.2-P1_RPATCH.05-F-GPS-4R-1510281 11/03/2015 307","activated":"2018-01-12T00:44:37.270Z","flags":1,"native":1,"bps":4800,"parity":"N","stopbits":1,"cycle":1.00}]}
2018-01-11 19:44:37 1515717877.326891: {"class":"WATCH","enable":true,"json":false,"nmea":true,"raw":0,"scaled":false,"timing":false,"split24":false,"pps":false}
2018-01-11 19:44:37 1515717877.382867: $GPZDA,004438.00,12,01,2018,00,00*64
2018-01-11 19:44:37 1515717877.383005: $GPGGA,004438,3946.9598,N,08404.9849,W,2,11,0.80,307.78,M,-33.324,M,,*72
2018-01-11 19:44:37 1515717877.383070: $GPRMC,004438,A,3946.9598,N,08404.9849,W,0.0000,0.000,120118,,*3E
2018-01-11 19:44:37 1515717877.383130: $GPGSA,A,3,7,8,9,16,23,27,30,11,26,28,138,,4.0,0.8,3.5*3A
2018-01-11 19:44:38 1515717878.713533: $GPGSV,3,1,12,07,44,310,41,08,63,157,46,09,55,247,44,16,32,052,47*7E
2018-01-11 19:44:38 1515717878.713694: $GPGSV,3,2,12,23,41,195,48,27,56,067,50,30,19,301,41,11,10,172,30*76
2018-01-11 19:44:38 1515717878.713760: $GPGSV,3,3,12,26,07,066,10,28,05,249,26,21,01,031,00,138,38,213,45*4C
2018-01-11 19:44:38 1515717878.826974: $GPZDA,004439.00,12,01,2018,00,00*65
2018-01-11 19:44:38 1515717878.827092: $GPGGA,004439,3946.9602,N,08404.9849,W,2,11,0.80,308.42,M,-33.324,M,,*75
2018-01-11 19:44:38 1515717878.827155: $GPRMC,004439,A,3946.9602,N,08404.9849,W,0.0000,0.000,120118,,*3F
2018-01-11 19:44:38 1515717878.827213: $GPGSA,A,3,7,8,9,16,23,27,30,11,26,28,138,,4.0,0.8,3.5*3A
2018-01-11 19:44:39 1515717879.382768: $GPZDA,004440.00,12,01,2018,00,00*6B
2018-01-11 19:44:39 1515717879.382933: $GPGGA,004440,3946.9602,N,08404.9849,W,2,11,0.80,308.42,M,-33.324,M,,*7B
2018-01-11 19:44:39 1515717879.382997: $GPRMC,004440,A,3946.9602,N,08404.9849,W,0.0000,0.000,120118,,*31
2018-01-11 19:44:39 1515717879.383058: $GPGSA,A,3,7,8,9,16,23,27,30,11,26,28,138,,4.0,0.8,3.5*3A
2018-01-11 19:44:40 1515717880.383624: $GPZDA,004441.00,12,01,2018,00,00*6A
2018-01-11 19:44:40 1515717880.383778: $GPGGA,004441,3946.9602,N,08404.9849,W,2,11,0.80,308.42,M,-33.324,M,,*7A
2018-01-11 19:44:40 1515717880.383841: $GPRMC,004441,A,3946.9602,N,08404.9849,W,0.0000,0.000,120118,,*30
2018-01-11 19:44:40 1515717880.383901: $GPGSA,A,3,7,8,9,16,23,27,30,11,26,28,138,,4.0,0.8,3.5*3A
2018-01-11 19:44:41 1515717881.703126: $GPGSV,3,1,12,07,44,310,40,08,63,157,46,09,55,247,44,16,32,052,47*7F
2018-01-11 19:44:41 1515717881.703288: $GPGSV,3,2,12,23,41,195,48,27,56,067,50,30,19,301,41,11,10,172,30*76
2018-01-11 19:44:41 1515717881.703352: $GPGSV,3,3,12,26,07,066,12,28,05,249,26,21,01,031,00,138,38,213,44*4F
2018-01-11 19:44:41 1515717881.816532: $GPZDA,004442.00,12,01,2018,00,00*69
2018-01-11 19:44:41 1515717881.816649: $GPGGA,004442,3946.9602,N,08404.9849,W,2,11,0.80,308.42,M,-33.324,M,,*79
2018-01-11 19:44:41 1515717881.816712: $GPRMC,004442,A,3946.9602,N,08404.9849,W,0.0000,0.000,120118,,*33
2018-01-11 19:44:41 1515717881.816771: $GPGSA,A,3,7,8,9,16,23,27,30,11,26,28,138,,4.0,0.8,3.5*3A
2018-01-11 19:44:42 1515717882.441927: $GPZDA,004443.00,12,01,2018,00,00*68
2018-01-11 19:44:42 1515717882.442074: $GPGGA,004443,3946.9602,N,08404.9849,W,2,11,0.80,308.42,M,-33.324,M,,*78
2018-01-11 19:44:42 1515717882.442138: $GPRMC,004443,A,3946.9602,N,08404.9849,W,0.0000,0.000,120118,,*32
2018-01-11 19:44:42 1515717882.442198: $GPGSA,A,3,7,8,9,16,23,27,30,11,26,28,138,,4.0,0.8,3.5*3A
2018-01-11 19:44:43 1515717883.369102: $GPZDA,004444.00,12,01,2018,00,00*6F
2018-01-11 19:44:43 1515717883.369261: $GPGGA,004444,3946.9602,N,08404.9849,W,2,11,0.80,308.42,M,-33.324,M,,*7F
2018-01-11 19:44:43 1515717883.369325: $GPRMC,004444,A,3946.9602,N,08404.9849,W,0.0000,0.000,120118,,*35
2018-01-11 19:44:43 1515717883.369385: $GPGSA,A,3,7,8,9,16,23,27,30,11,26,28,138,,4.0,0.8,3.5*3A
2018-01-11 19:44:44 1515717884.714710: $GPGSV,3,1,12,07,44,310,39,08,63,157,46,09,55,247,44,16,32,052,47*71
2018-01-11 19:44:44 1515717884.714896: $GPGSV,3,2,12,23,41,195,48,27,56,067,50,30,19,301,41,11,10,172,31*77
2018-01-11 19:44:44 1515717884.714963: $GPGSV,3,3,12,26,07,066,14,28,05,249,26,21,01,031,00,138,38,213,44*49
2018-01-11 19:44:44 1515717884.828121: $GPZDA,004445.00,12,01,2018,00,00*6E
2018-01-11 19:44:44 1515717884.828246: $GPGGA,004445,3946.9598,N,08404.9850,W,2,11,0.80,309.19,M,-33.324,M,,*79
2018-01-11 19:44:44 1515717884.828308: $GPRMC,004445,A,3946.9598,N,08404.9850,W,0.0000,0.000,120118,,*3C
2018-01-11 19:44:44 1515717884.828367: $GPGSA,A,3,7,8,9,16,23,27,30,11,26,28,138,,4.0,0.8,3.5*3A
