2017-12-01 15:39:35 1512160775.357317: {"class":"VERSION","release":"3.16","rev":"3.16-4","proto_major":3,"proto_minor":11}
2017-12-01 15:39:35 1512160775.357708: {"class":"DEVICES","devices":[{"class":"DEVICE","path":"/dev/ttyUSB0","driver":"SiRF","subtype":"9\u0006GSD4e_4.1.2-P1_RPATCH.05-F-GPS-4R-1510281 11/03/2015 307","activated":"2017-12-01T20:39:35.347Z","flags":1,"native":1,"bps":4800,"parity":"N","stopbits":1,"cycle":1.00}]}
2017-12-01 15:39:35 1512160775.357830: {"class":"WATCH","enable":true,"json":false,"nmea":true,"raw":0,"scaled":false,"timing":false,"split24":false,"pps":false}
2017-12-01 15:39:36 1512160776.684397: $GPGSV,3,1,11,01,12,319,40,10,72,127,48,11,10,303,38,12,25,073,42*76
2017-12-01 15:39:36 1512160776.684557: $GPGSV,3,2,11,14,53,288,43,18,40,133,46,24,16,045,42,25,28,117,42*7A
2017-12-01 15:39:36 1512160776.684622: $GPGSV,3,3,11,31,32,211,48,32,67,322,48,138,38,213,46*78
2017-12-01 15:39:36 1512160776.797757: $GPZDA,203937.00,01,12,2017,00,00*6C
2017-12-01 15:39:36 1512160776.797886: $GPGGA,203937,3946.9589,N,08404.9854,W,2,11,0.80,289.37,M,-33.324,M,,*75
2017-12-01 15:39:36 1512160776.797951: $GPRMC,203937,A,3946.9589,N,08404.9854,W,0.0000,0.000,011217,,*3A
2017-12-01 15:39:36 1512160776.798011: $GPGSA,A,3,1,10,11,12,14,18,24,25,31,32,138,,2.0,0.8,1.5*3B
2017-12-01 15:39:37 1512160777.348667: $GPZDA,203938.00,01,12,2017,00,00*63
2017-12-01 15:39:37 1512160777.348848: $GPGGA,203938,3946.9589,N,08404.9854,W,2,11,0.80,289.37,M,-33.324,M,,*7A
2017-12-01 15:39:37 1512160777.348916: $GPRMC,203938,A,3946.9589,N,08404.9854,W,0.0000,0.000,011217,,*35
2017-12-01 15:39:37 1512160777.348978: $GPGSA,A,3,1,10,11,12,14,18,24,25,31,32,138,,2.0,0.8,1.5*3B
2017-12-01 15:39:38 1512160778.364541: $GPZDA,203939.00,01,12,2017,00,00*62
2017-12-01 15:39:38 1512160778.364724: $GPGGA,203939,3946.9589,N,08404.9854,W,2,11,0.80,289.37,M,-33.324,M,,*7B
2017-12-01 15:39:38 1512160778.364793: $GPRMC,203939,A,3946.9589,N,08404.9854,W,0.0000,0.000,011217,,*34
2017-12-01 15:39:38 1512160778.364854: $GPGSA,A,3,1,10,11,12,14,18,24,25,31,32,138,,2.0,0.8,1.5*3B
2017-12-01 15:39:39 1512160779.700255: $GPGSV,3,1,11,01,12,319,39,10,72,127,48,11,10,303,37,12,25,073,41*74
2017-12-01 15:39:39 1512160779.700439: $GPGSV,3,2,11,14,53,288,42,18,40,133,46,24,16,045,42,25,28,117,42*7B
2017-12-01 15:39:39 1512160779.700506: $GPGSV,3,3,11,31,32,211,48,32,67,322,49,138,38,213,45*7A
2017-12-01 15:39:39 1512160779.814059: $GPZDA,203940.00,01,12,2017,00,00*6C
2017-12-01 15:39:39 1512160779.814227: $GPGGA,203940,3946.9589,N,08404.9854,W,2,11,0.80,289.37,M,-33.324,M,,*75
2017-12-01 15:39:39 1512160779.814295: $GPRMC,203940,A,3946.9589,N,08404.9854,W,0.0000,0.000,011217,,*3A
2017-12-01 15:39:39 1512160779.814356: $GPGSA,A,3,1,10,11,12,14,18,24,25,31,32,138,,2.0,0.8,1.5*3B
2017-12-01 15:39:40 1512160780.364555: $GPZDA,203941.00,01,12,2017,00,00*6D
2017-12-01 15:39:40 1512160780.364737: $GPGGA,203941,3946.9589,N,08404.9854,W,2,11,0.80,289.37,M,-33.324,M,,*74
2017-12-01 15:39:40 1512160780.364805: $GPRMC,203941,A,3946.9589,N,08404.9854,W,0.0000,0.000,011217,,*3B
2017-12-01 15:39:40 1512160780.364867: $GPGSA,A,3,1,10,11,12,14,18,24,25,31,32,138,,2.0,0.8,1.5*3B
2017-12-01 15:39:41 1512160781.364996: $GPZDA,203942.00,01,12,2017,00,00*6E
2017-12-01 15:39:41 1512160781.365171: $GPGGA,203942,3946.9589,N,08404.9854,W,2,11,0.80,289.37,M,-33.324,M,,*77
2017-12-01 15:39:41 1512160781.365238: $GPRMC,203942,A,3946.9589,N,08404.9854,W,0.0000,0.000,011217,,*38
2017-12-01 15:39:41 1512160781.365301: $GPGSA,A,3,1,10,11,12,14,18,24,25,31,32,138,,2.0,0.8,1.5*3B
2017-12-01 15:39:42 1512160782.695653: $GPGSV,3,1,11,01,12,319,39,10,72,127,47,11,10,303,37,12,25,073,41*7B
2017-12-01 15:39:42 1512160782.696144: $GPGSV,3,2,11,14,53,288,42,18,40,133,46,24,16,045,42,25,28,117,42*7B
2017-12-01 15:39:42 1512160782.696246: $GPGSV,3,3,11,31,32,211,49,32,67,322,48,138,38,213,46*79
2017-12-01 15:39:42 1512160782.808995: $GPZDA,203943.00,01,12,2017,00,00*6F
2017-12-01 15:39:42 1512160782.809157: $GPGGA,203943,3946.9589,N,08404.9854,W,2,11,0.80,289.37,M,-33.324,M,,*76
2017-12-01 15:39:42 1512160782.809275: $GPRMC,203943,A,3946.9589,N,08404.9854,W,0.0000,0.000,011217,,*39
2017-12-01 15:39:42 1512160782.809341: $GPGSA,A,3,1,10,11,12,14,18,24,25,31,32,138,,2.0,0.8,1.5*3B
2017-12-01 15:39:43 1512160783.347490: $GPZDA,203944.00,01,12,2017,00,00*68
2017-12-01 15:39:43 1512160783.347667: $GPGGA,203944,3946.9589,N,08404.9854,W,2,11,0.80,289.37,M,-33.324,M,,*71
2017-12-01 15:39:43 1512160783.347734: $GPRMC,203944,A,3946.9589,N,08404.9854,W,0.0000,0.000,011217,,*3E
2017-12-01 15:39:43 1512160783.347797: $GPGSA,A,3,1,10,11,12,14,18,24,25,31,32,138,,2.0,0.8,1.5*3B
2017-12-01 15:39:44 1512160784.348497: $GPZDA,203945.00,01,12,2017,00,00*69
2017-12-01 15:39:44 1512160784.348672: $GPGGA,203945,3946.9589,N,08404.9854,W,2,11,0.80,289.37,M,-33.324,M,,*70
2017-12-01 15:39:44 1512160784.348741: $GPRMC,203945,A,3946.9589,N,08404.9854,W,0.0000,0.000,011217,,*3F
2017-12-01 15:39:44 1512160784.348804: $GPGSA,A,3,1,10,11,12,14,18,24,25,31,32,138,,2.0,0.8,1.5*3B
2017-12-01 15:39:45 1512160785.685227: $GPGSV,3,1,11,01,12,319,39,10,72,127,47,11,10,303,37,12,25,073,41*7B
2017-12-01 15:39:45 1512160785.687803: $GPGSV,3,2,11,14,53,288,42,18,40,133,46,24,16,045,43,25,28,117,42*7A
2017-12-01 15:39:45 1512160785.687908: $GPGSV,3,3,11,31,32,211,49,32,67,322,48,138,38,213,45*7A
2017-12-01 15:39:45 1512160785.798618: $GPZDA,203946.00,01,12,2017,00,00*6A
2017-12-01 15:39:45 1512160785.798777: $GPGGA,203946,3946.9589,N,08404.9854,W,2,11,0.80,289.37,M,-33.324,M,,*73
2017-12-01 15:39:45 1512160785.798844: $GPRMC,203946,A,3946.9589,N,08404.9854,W,0.0000,0.000,011217,,*3C
2017-12-01 15:39:45 1512160785.798906: $GPGSA,A,3,1,10,11,12,14,18,24,25,31,32,138,,2.0,0.8,1.5*3B
2017-12-01 15:39:46 1512160786.424041: $GPZDA,203947.00,01,12,2017,00,00*6B
2017-12-01 15:39:46 1512160786.424213: $GPGGA,203947,3946.9589,N,08404.9854,W,2,11,0.80,289.37,M,-33.324,M,,*72
2017-12-01 15:39:46 1512160786.424281: $GPRMC,203947,A,3946.9589,N,08404.9854,W,0.0000,0.000,011217,,*3D
2017-12-01 15:39:46 1512160786.424344: $GPGSA,A,3,1,10,11,12,14,18,24,25,31,32,138,,2.0,0.8,1.5*3B
2017-12-01 15:39:47 1512160787.347475: $GPZDA,203948.00,01,12,2017,00,00*64
2017-12-01 15:39:47 1512160787.347643: $GPGGA,203948,3946.9589,N,08404.9854,W,2,11,0.80,289.37,M,-33.324,M,,*7D
2017-12-01 15:39:47 1512160787.347709: $GPRMC,203948,A,3946.9589,N,08404.9854,W,0.0000,0.000,011217,,*32
2017-12-01 15:39:47 1512160787.347771: $GPGSA,A,3,1,10,11,12,14,18,24,25,31,32,138,,2.0,0.8,1.5*3B
2017-12-01 15:39:48 1512160788.695710: $GPGSV,3,1,11,01,12,319,39,10,72,127,47,11,10,303,36,12,25,073,40*7B
2017-12-01 15:39:48 1512160788.695898: $GPGSV,3,2,11,14,53,288,42,18,40,133,46,24,16,045,43,25,28,117,42*7A
2017-12-01 15:39:48 1512160788.695966: $GPGSV,3,3,11,31,32,211,49,32,67,322,48,138,38,213,46*79
2017-12-01 15:39:48 1512160788.809102: $GPZDA,203949.00,01,12,2017,00,00*65
2017-12-01 15:39:48 1512160788.809284: $GPGGA,203949,3946.9593,N,08404.9854,W,2,11,0.80,290.01,M,-33.324,M,,*7A
2017-12-01 15:39:48 1512160788.809354: $GPRMC,203949,A,3946.9593,N,08404.9854,W,0.0000,0.000,011217,,*38
2017-12-01 15:39:48 1512160788.809419: $GPGSA,A,3,1,10,11,12,14,18,24,25,31,32,138,,2.0,0.8,1.5*3B
2017-12-01 15:39:49 1512160789.366213: $GPZDA,203950.00,01,12,2017,00,00*6D
2017-12-01 15:39:49 1512160789.366416: $GPGGA,203950,3946.9593,N,08404.9854,W,2,11,0.80,290.01,M,-33.324,M,,*72
2017-12-01 15:39:49 1512160789.366485: $GPRMC,203950,A,3946.9593,N,08404.9854,W,0.0000,0.000,011217,,*30
2017-12-01 15:39:49 1512160789.366549: $GPGSA,A,3,1,10,11,12,14,18,24,25,31,32,138,,2.0,0.8,1.5*3B
2017-12-01 15:39:50 1512160790.364886: $GPZDA,203951.00,01,12,2017,00,00*6C
2017-12-01 15:39:50 1512160790.365060: $GPGGA,203951,3946.9593,N,08404.9854,W,2,11,0.80,290.01,M,-33.324,M,,*73
2017-12-01 15:39:50 1512160790.365129: $GPRMC,203951,A,3946.9593,N,08404.9854,W,0.0000,0.000,011217,,*31
2017-12-01 15:39:50 1512160790.365190: $GPGSA,A,3,1,10,11,12,14,18,24,25,31,32,138,,2.0,0.8,1.5*3B
2017-12-01 15:39:51 1512160791.683611: $GPGSV,3,1,11,01,12,319,40,10,72,127,48,11,10,303,36,12,25,073,39*74
2017-12-01 15:39:51 1512160791.683866: $GPGSV,3,2,11,14,53,288,42,18,40,133,46,24,16,045,43,25,28,117,42*7A
2017-12-01 15:39:51 1512160791.683939: $GPGSV,3,3,11,31,32,211,49,32,67,322,48,138,38,213,47*78
2017-12-01 15:39:51 1512160791.797215: $GPZDA,203952.00,01,12,2017,00,00*6F
2017-12-01 15:39:51 1512160791.797392: $GPGGA,203952,3946.9593,N,08404.9854,W,2,11,0.80,290.01,M,-33.324,M,,*70
2017-12-01 15:39:51 1512160791.797459: $GPRMC,203952,A,3946.9593,N,08404.9854,W,0.0000,0.000,011217,,*32
2017-12-01 15:39:51 1512160791.797522: $GPGSA,A,3,1,10,11,12,14,18,24,25,31,32,138,,2.0,0.8,1.5*3B
2017-12-01 15:39:52 1512160792.364459: $GPZDA,203953.00,01,12,2017,00,00*6E
2017-12-01 15:39:52 1512160792.364632: $GPGGA,203953,3946.9593,N,08404.9854,W,2,11,0.80,290.01,M,-33.324,M,,*71
2017-12-01 15:39:52 1512160792.364699: $GPRMC,203953,A,3946.9593,N,08404.9854,W,0.0000,0.000,011217,,*33
2017-12-01 15:39:52 1512160792.364761: $GPGSA,A,3,1,10,11,12,14,18,24,25,31,32,138,,2.0,0.8,1.5*3B
2017-12-01 15:39:53 1512160793.347783: $GPZDA,203954.00,01,12,2017,00,00*69
2017-12-01 15:39:53 1512160793.347960: $GPGGA,203954,3946.9593,N,08404.9854,W,2,11,0.80,290.01,M,-33.324,M,,*76
2017-12-01 15:39:53 1512160793.348029: $GPRMC,203954,A,3946.9593,N,08404.9854,W,0.0000,0.000,011217,,*34
2017-12-01 15:39:53 1512160793.348090: $GPGSA,A,3,1,10,11,12,14,18,24,25,31,32,138,,2.0,0.8,1.5*3B
2017-12-01 15:39:54 1512160794.681939: $GPGSV,3,1,11,01,12,319,39,10,72,127,48,11,10,303,36,12,25,073,40*74
2017-12-01 15:39:54 1512160794.682109: $GPGSV,3,2,11,14,53,288,42,18,40,133,46,24,16,045,43,25,28,117,43*7B
2017-12-01 15:39:54 1512160794.682176: $GPGSV,3,3,11,31,32,211,48,32,67,322,48,138,38,213,46*78
2017-12-01 15:39:54 1512160794.795331: $GPZDA,203955.00,01,12,2017,00,00*68
2017-12-01 15:39:54 1512160794.795526: $GPGGA,203955,3946.9593,N,08404.9854,W,2,11,0.80,290.01,M,-33.324,M,,*77
2017-12-01 15:39:54 1512160794.795595: $GPRMC,203955,A,3946.9593,N,08404.9854,W,0.0000,0.000,011217,,*35
2017-12-01 15:39:54 1512160794.795659: $GPGSA,A,3,1,10,11,12,14,18,24,25,31,32,138,,2.0,0.8,1.5*3B
