2018-01-12 03:40:03 1515746403.878117: {"class":"VERSION","release":"3.16","rev":"3.16-4","proto_major":3,"proto_minor":11}
2018-01-12 03:40:03 1515746403.878518: {"class":"DEVICES","devices":[{"class":"DEVICE","path":"/dev/ttyUSB0","driver":"SiRF","subtype":"9\u0006GSD4e_4.1.2-P1_RPATCH.05-F-GPS-4R-1510281 11/03/2015 307","activated":"2018-01-12T08:40:03.509Z","flags":1,"native":1,"bps":4800,"parity":"N","stopbits":1,"cycle":1.00}]}
2018-01-12 03:40:03 1515746403.878633: {"class":"WATCH","enable":true,"json":false,"nmea":true,"raw":0,"scaled":false,"timing":false,"split24":false,"pps":false}
2018-01-12 03:40:04 1515746404.708564: $GPGSV,3,1,12,02,66,294,46,05,29,195,47,06,62,034,45,12,52,286,51*7F
2018-01-12 03:40:04 1515746404.708745: $GPGSV,3,2,12,17,29,106,45,19,47,097,40,25,20,316,43,09,15,085,34*70
2018-01-12 03:40:04 1515746404.708811: $GPGSV,3,3,12,23,09,052,23,04,40,264,00,24,01,244,00,138,38,213,37*44
2018-01-12 03:40:04 1515746404.822244: $GPZDA,084005.00,12,01,2018,00,00*66
2018-01-12 03:40:04 1515746404.822375: $GPGGA,084005,3946.9616,N,08404.9845,W,2,10,0.80,291.12,M,-33.324,M,,*7A
2018-01-12 03:40:04 1515746404.822438: $GPRMC,084005,A,3946.9616,N,08404.9845,W,0.0000,0.000,120118,,*35
2018-01-12 03:40:04 1515746404.822498: $GPGSA,A,3,2,5,6,12,17,19,25,9,23,138,,,2.4,0.8,2.1*06
2018-01-12 03:40:05 1515746405.447656: $GPZDA,084006.00,12,01,2018,00,00*65
2018-01-12 03:40:05 1515746405.447824: $GPGGA,084006,3946.9616,N,08404.9845,W,2,10,0.80,291.12,M,-33.324,M,,*79
2018-01-12 03:40:05 1515746405.447891: $GPRMC,084006,A,3946.9616,N,08404.9845,W,0.0000,0.000,120118,,*36
2018-01-12 03:40:05 1515746405.447952: $GPGSA,A,3,2,5,6,12,17,19,25,9,23,138,,,2.4,0.8,2.1*06
2018-01-12 03:40:06 1515746406.367122: $GPZDA,084007.00,12,01,2018,00,00*64
2018-01-12 03:40:06 1515746406.367294: $GPGGA,084007,3946.9616,N,08404.9845,W,2,10,0.80,291.12,M,-33.324,M,,*78
2018-01-12 03:40:06 1515746406.367402: $GPRMC,084007,A,3946.9616,N,08404.9845,W,0.0000,0.000,120118,,*37
2018-01-12 03:40:06 1515746406.367467: $GPGSA,A,3,2,5,6,12,17,19,25,9,23,138,,,2.4,0.8,2.1*06
2018-01-12 03:40:07 1515746407.701406: $GPGSV,3,1,12,02,66,294,46,05,29,195,47,06,62,034,45,12,52,286,51*7F
2018-01-12 03:40:07 1515746407.701585: $GPGSV,3,2,12,17,29,106,45,19,47,097,40,25,20,316,43,09,15,085,34*70
2018-01-12 03:40:07 1515746407.701650: $GPGSV,3,3,12,23,09,052,22,04,40,264,00,24,01,244,00,138,38,213,37*45
2018-01-12 03:40:07 1515746407.814823: $GPZDA,084008.00,12,01,2018,00,00*6B
2018-01-12 03:40:07 1515746407.814986: $GPGGA,084008,3946.9616,N,08404.9845,W,2,10,0.80,291.12,M,-33.324,M,,*77
2018-01-12 03:40:07 1515746407.815053: $GPRMC,084008,A,3946.9616,N,08404.9845,W,0.0000,0.000,120118,,*38
2018-01-12 03:40:07 1515746407.815132: $GPGSA,A,3,2,5,6,12,17,19,25,9,23,138,,,2.4,0.8,2.1*06
2018-01-12 03:40:08 1515746408.368211: $GPZDA,084009.00,12,01,2018,00,00*6A
2018-01-12 03:40:08 1515746408.368396: $GPGGA,084009,3946.9616,N,08404.9845,W,2,10,0.80,291.12,M,-33.324,M,,*76
2018-01-12 03:40:08 1515746408.368462: $GPRMC,084009,A,3946.9616,N,08404.9845,W,0.0000,0.000,120118,,*39
2018-01-12 03:40:08 1515746408.368524: $GPGSA,A,3,2,5,6,12,17,19,25,9,23,138,,,2.4,0.8,2.1*06
2018-01-12 03:40:09 1515746409.365356: $GPZDA,084010.00,12,01,2018,00,00*62
2018-01-12 03:40:09 1515746409.365528: $GPGGA,084010,3946.9616,N,08404.9845,W,2,10,0.80,291.12,M,-33.324,M,,*7E
2018-01-12 03:40:09 1515746409.365595: $GPRMC,084010,A,3946.9616,N,08404.9845,W,0.0000,0.000,120118,,*31
2018-01-12 03:40:09 1515746409.365655: $GPGSA,A,3,2,5,6,12,17,19,25,9,23,138,,,2.4,0.8,2.1*06
2018-01-12 03:40:10 1515746410.703030: $GPGSV,3,1,12,02,66,294,46,05,29,195,46,06,62,034,44,12,52,286,51*7F
2018-01-12 03:40:10 1515746410.703227: $GPGSV,3,2,12,17,29,106,45,19,47,097,40,25,20,316,43,09,15,085,34*70
2018-01-12 03:40:10 1515746410.703293: $GPGSV,3,3,12,23,09,052,22,04,40,264,00,24,01,244,00,138,38,213,40*45
2018-01-12 03:40:10 1515746410.816492: $GPZDA,084011.00,12,01,2018,00,00*63
2018-01-12 03:40:10 1515746410.816647: $GPGGA,084011,3946.9613,N,08404.9846,W,2,10,0.80,291.88,M,-33.324,M,,*7A
2018-01-12 03:40:10 1515746410.816763: $GPRMC,084011,A,3946.9613,N,08404.9846,W,0.0000,0.000,120118,,*36
2018-01-12 03:40:10 1515746410.816826: $GPGSA,A,3,2,5,6,12,17,19,25,9,23,138,,,2.4,0.8,2.1*06
2018-01-12 03:40:11 1515746411.372462: $GPZDA,084012.00,12,01,2018,00,00*60
2018-01-12 03:40:11 1515746411.372631: $GPGGA,084012,3946.9613,N,08404.9846,W,2,10,0.80,291.88,M,-33.324,M,,*79
2018-01-12 03:40:11 1515746411.372697: $GPRMC,084012,A,3946.9613,N,08404.9846,W,0.0000,0.000,120118,,*35
2018-01-12 03:40:11 1515746411.372758: $GPGSA,A,3,2,5,6,12,17,19,25,9,23,138,,,2.4,0.8,2.1*06
2018-01-12 03:40:12 1515746412.363205: $GPZDA,084013.00,12,01,2018,00,00*61
2018-01-12 03:40:12 1515746412.363375: $GPGGA,084013,3946.9613,N,08404.9846,W,2,10,0.80,291.88,M,-33.324,M,,*78
2018-01-12 03:40:12 1515746412.363440: $GPRMC,084013,A,3946.9613,N,08404.9846,W,0.0000,0.000,120118,,*34
2018-01-12 03:40:12 1515746412.363502: $GPGSA,A,3,2,5,6,12,17,19,25,9,23,138,,,2.4,0.8,2.1*06
2018-01-12 03:40:13 1515746413.701460: $GPGSV,3,1,12,02,66,294,46,05,29,195,47,06,62,034,45,12,52,286,50*7E
2018-01-12 03:40:13 1515746413.701639: $GPGSV,3,2,12,17,29,106,45,19,47,097,40,25,20,316,43,09,15,085,34*70
2018-01-12 03:40:13 1515746413.701704: $GPGSV,3,3,12,23,09,052,23,04,40,264,00,24,01,244,00,138,38,213,32*41
2018-01-12 03:40:13 1515746413.815198: $GPZDA,084014.00,12,01,2018,00,00*66
2018-01-12 03:40:13 1515746413.815348: $GPGGA,084014,3946.9613,N,08404.9846,W,2,10,0.80,291.88,M,-33.324,M,,*7F
2018-01-12 03:40:13 1515746413.815413: $GPRMC,084014,A,3946.9613,N,08404.9846,W,0.0000,0.000,120118,,*33
2018-01-12 03:40:13 1515746413.815474: $GPGSA,A,3,2,5,6,12,17,19,25,9,23,138,,,2.4,0.8,2.1*06
2018-01-12 03:40:14 1515746414.365667: $GPZDA,084015.00,12,01,2018,00,00*67
2018-01-12 03:40:14 1515746414.366140: $GPGGA,084015,3946.9613,N,08404.9846,W,2,10,0.80,291.88,M,-33.324,M,,*7E
2018-01-12 03:40:14 1515746414.366228: $GPRMC,084015,A,3946.9613,N,08404.9846,W,0.0000,0.000,120118,,*32
2018-01-12 03:40:14 1515746414.366291: $GPGSA,A,3,2,5,6,12,17,19,25,9,23,138,,,2.4,0.8,2.1*06
2018-01-12 03:40:15 1515746415.367293: $GPZDA,084016.00,12,01,2018,00,00*64
2018-01-12 03:40:15 1515746415.367468: $GPGGA,084016,3946.9613,N,08404.9846,W,2,10,0.80,291.88,M,-33.324,M,,*7D
2018-01-12 03:40:15 1515746415.367536: $GPRMC,084016,A,3946.9613,N,08404.9846,W,0.0000,0.000,120118,,*31
2018-01-12 03:40:15 1515746415.367597: $GPGSA,A,3,2,5,6,12,17,19,25,9,23,138,,,2.4,0.8,2.1*06
2018-01-12 03:40:16 1515746416.702158: $GPGSV,3,1,12,02,66,294,47,05,29,195,47,06,62,034,45,12,52,286,51*7E
2018-01-12 03:40:16 1515746416.702336: $GPGSV,3,2,12,17,29,106,44,19,47,097,40,25,20,316,43,09,15,085,34*71
2018-01-12 03:40:16 1515746416.702401: $GPGSV,3,3,12,23,09,052,26,04,40,264,00,24,01,244,00,138,38,213,36*40
2018-01-12 03:40:16 1515746416.815843: $GPZDA,084017.00,12,01,2018,00,00*65
2018-01-12 03:40:16 1515746416.815978: $GPGGA,084017,3946.9613,N,08404.9846,W,2,10,0.80,291.88,M,-33.324,M,,*7C
2018-01-12 03:40:16 1515746416.816041: $GPRMC,084017,A,3946.9613,N,08404.9846,W,0.0000,0.000,120118,,*30
2018-01-12 03:40:16 1515746416.816101: $GPGSA,A,3,2,5,6,12,17,19,25,9,23,138,,,2.4,0.8,2.1*06
2018-01-12 03:40:17 1515746417.366723: $GPZDA,084018.00,12,01,2018,00,00*6A
2018-01-12 03:40:17 1515746417.366891: $GPGGA,084018,3946.9613,N,08404.9846,W,2,10,0.80,291.88,M,-33.324,M,,*73
2018-01-12 03:40:17 1515746417.366959: $GPRMC,084018,A,3946.9613,N,08404.9846,W,0.0000,0.000,120118,,*3F
2018-01-12 03:40:17 1515746417.367020: $GPGSA,A,3,2,5,6,12,17,19,25,9,23,138,,,2.4,0.8,2.1*06
2018-01-12 03:40:18 1515746418.371090: $GPZDA,084019.00,12,01,2018,00,00*6B
2018-01-12 03:40:18 1515746418.371266: $GPGGA,084019,3946.9613,N,08404.9846,W,2,10,0.80,291.88,M,-33.324,M,,*72
2018-01-12 03:40:18 1515746418.371333: $GPRMC,084019,A,3946.9613,N,08404.9846,W,0.0000,0.000,120118,,*3E
2018-01-12 03:40:18 1515746418.371394: $GPGSA,A,3,2,5,6,12,17,19,25,9,23,138,,,2.4,0.8,2.1*06
2018-01-12 03:40:19 1515746419.699473: $GPGSV,3,1,12,02,66,294,47,05,29,195,47,06,62,034,45,12,52,286,51*7E
2018-01-12 03:40:19 1515746419.699714: $GPGSV,3,2,12,17,29,106,45,19,47,097,40,25,20,316,43,09,15,085,34*70
2018-01-12 03:40:19 1515746419.699783: $GPGSV,3,3,12,23,09,052,26,04,40,264,00,24,01,244,00,138,38,213,38*4E
2018-01-12 03:40:19 1515746419.812792: $GPZDA,084020.00,12,01,2018,00,00*61
2018-01-12 03:40:19 1515746419.812927: $GPGGA,084020,3946.9613,N,08404.9846,W,2,10,0.80,291.88,M,-33.324,M,,*78
2018-01-12 03:40:19 1515746419.812993: $GPRMC,084020,A,3946.9613,N,08404.9846,W,0.0000,0.000,120118,,*34
2018-01-12 03:40:19 1515746419.813053: $GPGSA,A,3,2,5,6,12,17,19,25,9,23,138,,,2.4,0.8,2.1*06
2018-01-12 03:40:20 1515746420.438658: $GPZDA,084021.00,12,01,2018,00,00*60
2018-01-12 03:40:20 1515746420.438839: $GPGGA,084021,3946.9613,N,08404.9846,W,2,10,0.80,291.88,M,-33.324,M,,*79
2018-01-12 03:40:20 1515746420.438906: $GPRMC,084021,A,3946.9613,N,08404.9846,W,0.0000,0.000,120118,,*35
2018-01-12 03:40:20 1515746420.438968: $GPGSA,A,3,2,5,6,12,17,19,25,9,23,138,,,2.4,0.8,2.1*06
2018-01-12 03:40:21 1515746421.374221: $GPZDA,084022.00,12,01,2018,00,00*63
2018-01-12 03:40:21 1515746421.374404: $GPGGA,084022,3946.9613,N,08404.9846,W,2,10,0.80,291.88,M,-33.324,M,,*7A
2018-01-12 03:40:21 1515746421.374474: $GPRMC,084022,A,3946.9613,N,08404.9846,W,0.0000,0.000,120118,,*36
2018-01-12 03:40:21 1515746421.374535: $GPGSA,A,3,2,5,6,12,17,19,25,9,23,138,,,2.4,0.8,2.1*06
2018-01-12 03:40:22 1515746422.704987: $GPGSV,3,1,12,02,66,294,47,05,29,195,46,06,62,034,45,12,52,286,51*7F
2018-01-12 03:40:22 1515746422.705142: $GPGSV,3,2,12,17,29,106,44,19,47,097,40,25,20,316,43,09,15,085,34*71
2018-01-12 03:40:22 1515746422.705209: $GPGSV,3,3,12,23,09,052,18,04,40,264,00,24,01,244,00,138,38,213,38*43
2018-01-12 03:40:22 1515746422.817171: $GPZDA,084023.00,12,01,2018,00,00*62
2018-01-12 03:40:22 1515746422.817295: $GPGGA,084023,3946.9613,N,08404.9846,W,2,10,0.80,291.88,M,-33.324,M,,*7B
2018-01-12 03:40:22 1515746422.817359: $GPRMC,084023,A,3946.9613,N,08404.9846,W,0.0000,0.000,120118,,*37
2018-01-12 03:40:22 1515746422.817419: $GPGSA,A,3,2,5,6,12,17,19,25,9,23,138,,,2.4,0.8,2.1*06
2018-01-12 03:40:23 1515746423.368320: $GPZDA,084024.00,12,01,2018,00,00*65
2018-01-12 03:40:23 1515746423.368491: $GPGGA,084024,3946.9613,N,08404.9846,W,2,10,0.80,291.88,M,-33.324,M,,*7C
2018-01-12 03:40:23 1515746423.368558: $GPRMC,084024,A,3946.9613,N,08404.9846,W,0.0000,0.000,120118,,*30
2018-01-12 03:40:23 1515746423.368620: $GPGSA,A,3,2,5,6,12,17,19,25,9,23,138,,,2.4,0.8,2.1*06
