2018-01-12 04:09:38 1515748178.827253: {"class":"VERSION","release":"3.16","rev":"3.16-4","proto_major":3,"proto_minor":11}
2018-01-12 04:09:38 1515748178.827596: {"class":"DEVICES","devices":[{"class":"DEVICE","path":"/dev/ttyUSB0","driver":"SiRF","subtype":"9\u0006GSD4e_4.1.2-P1_RPATCH.05-F-GPS-4R-1510281 11/03/2015 307","activated":"2018-01-12T09:09:38.759Z","flags":1,"native":1,"bps":4800,"parity":"N","stopbits":1,"cycle":1.00}]}
2018-01-12 04:09:38 1515748178.827710: {"class":"WATCH","enable":true,"json":false,"nmea":true,"raw":0,"scaled":false,"timing":false,"split24":false,"pps":false}
2018-01-12 04:09:38 1515748178.873160: $GPZDA,090939.56,12,01,2018,00,00*66
2018-01-12 04:09:38 1515748178.873291: $GPGGA,090939,3946.9659,N,08404.9766,W,1,09,1.60,294.05,M,-33.324,M,,*7B
2018-01-12 04:09:38 1515748178.873355: $GPRMC,090939,A,3946.9659,N,08404.9766,W,0.0814,322.012,120118,,*3E
2018-01-12 04:09:38 1515748178.873416: $GPGSA,A,3,2,5,6,12,25,29,9,19,138,,,,2.4,1.6,2.1*05
2018-01-12 04:09:38 1515748178.873473: $GPGBS,090939,11.98,M,14.47,M,47.88,M*00
2018-01-12 04:09:39 1515748179.805347: $GPZDA,090940.24,12,01,2018,00,00*6D
2018-01-12 04:09:39 1515748179.805506: $GPGGA,090940,3946.9659,N,08404.9766,W,1,09,1.60,294.05,M,-33.324,M,,*75
2018-01-12 04:09:39 1515748179.805572: $GPRMC,090940,A,3946.9659,N,08404.9766,W,0.0407,322.012,120118,,*3E
2018-01-12 04:09:39 1515748179.805633: $GPGSA,A,3,2,5,6,12,25,29,9,19,138,,,,2.4,1.6,2.1*05
2018-01-12 04:09:39 1515748179.805690: $GPGBS,090940,11.98,M,14.47,M,47.88,M*0E
2018-01-12 04:09:40 1515748180.947897: $GPGSV,3,1,12,02,71,328,44,05,44,198,49,06,51,049,48,12,53,261,46*7C
2018-01-12 04:09:40 1515748180.948044: $GPGSV,3,2,12,25,29,306,43,29,07,304,42,09,19,072,10,19,36,111,00*71
2018-01-12 04:09:40 1515748180.948109: $GPGSV,3,3,12,17,18,117,00,23,07,042,00,04,51,277,00,138,38,213,00*41
2018-01-12 04:09:41 1515748181.061787: $GPZDA,090941.00,12,01,2018,00,00*6A
2018-01-12 04:09:41 1515748181.061929: $GPGGA,090941,3946.9656,N,08404.9766,W,1,07,1.20,294.82,M,-33.324,M,,*7E
2018-01-12 04:09:41 1515748181.061993: $GPRMC,090941,A,3946.9656,N,08404.9766,W,0.2710,280.223,120118,,*3E
2018-01-12 04:09:41 1515748181.062053: $GPGSA,A,3,2,5,6,12,25,29,9,,,,,,2.4,1.2,2.1*33
2018-01-12 04:09:41 1515748181.513825: $GPZDA,090942.00,12,01,2018,00,00*69
2018-01-12 04:09:41 1515748181.513979: $GPGGA,090942,3946.9656,N,08404.9766,W,1,07,1.20,294.82,M,-33.324,M,,*7D
2018-01-12 04:09:41 1515748181.514044: $GPRMC,090942,A,3946.9656,N,08404.9766,W,0.0000,0.000,120118,,*30
2018-01-12 04:09:41 1515748181.514104: $GPGSA,A,3,2,5,6,12,25,29,9,,,,,,2.4,1.2,2.1*33
2018-01-12 04:09:42 1515748182.372212: $GPZDA,090943.00,12,01,2018,00,00*68
2018-01-12 04:09:42 1515748182.372382: $GPGGA,090943,3946.9656,N,08404.9766,W,1,07,1.20,294.82,M,-33.324,M,,*7C
2018-01-12 04:09:42 1515748182.372449: $GPRMC,090943,A,3946.9656,N,08404.9766,W,0.0000,0.000,120118,,*31
2018-01-12 04:09:42 1515748182.372510: $GPGSA,A,3,2,5,6,12,25,29,9,,,,,,2.4,1.2,2.1*33
2018-01-12 04:09:43 1515748183.704577: $GPGSV,3,1,12,02,71,328,44,05,44,198,50,06,51,049,48,12,53,261,46*74
2018-01-12 04:09:43 1515748183.707158: $GPGSV,3,2,12,25,29,306,43,29,07,304,43,09,19,072,25,17,18,117,20*70
2018-01-12 04:09:43 1515748183.707258: $GPGSV,3,3,12,19,36,111,00,23,07,042,00,04,51,277,00,138,38,213,49*48
2018-01-12 04:09:43 1515748183.818299: $GPZDA,090944.00,12,01,2018,00,00*6F
2018-01-12 04:09:43 1515748183.818448: $GPGGA,090944,3946.9656,N,08404.9766,W,1,09,1.00,294.82,M,-33.324,M,,*77
2018-01-12 04:09:43 1515748183.818515: $GPRMC,090944,A,3946.9656,N,08404.9766,W,0.0000,0.000,120118,,*36
2018-01-12 04:09:43 1515748183.818576: $GPGSA,A,3,2,5,6,12,25,29,9,17,138,,,,2.4,1.0,2.1*0D
2018-01-12 04:09:44 1515748184.370505: $GPZDA,090945.00,12,01,2018,00,00*6E
2018-01-12 04:09:44 1515748184.370673: $GPGGA,090945,3946.9656,N,08404.9759,W,1,09,1.20,294.90,M,-33.324,M,,*7B
2018-01-12 04:09:44 1515748184.370740: $GPRMC,090945,A,3946.9656,N,08404.9759,W,0.0000,0.000,120118,,*3B
2018-01-12 04:09:44 1515748184.370822: $GPGSA,A,3,2,5,6,12,25,29,9,17,138,,,,2.4,1.2,2.1*0F
