2018-01-11 20:26:41 1515720401.265764: {"class":"VERSION","release":"3.16","rev":"3.16-4","proto_major":3,"proto_minor":11}
2018-01-11 20:26:41 1515720401.266149: {"class":"DEVICES","devices":[{"class":"DEVICE","path":"/dev/ttyUSB0","driver":"SiRF","subtype":"9\u0006GSD4e_4.1.2-P1_RPATCH.05-F-GPS-4R-1510281 11/03/2015 307","activated":"2018-01-12T01:26:41.251Z","flags":1,"native":1,"bps":4800,"parity":"N","stopbits":1,"cycle":1.00}]}
2018-01-11 20:26:41 1515720401.266262: {"class":"WATCH","enable":true,"json":false,"nmea":true,"raw":0,"scaled":false,"timing":false,"split24":false,"pps":false}
2018-01-11 20:26:41 1515720401.700797: $GPGSV,3,1,11,07,62,316,43,08,75,100,46,09,42,222,40,11,26,165,45*7C
2018-01-11 20:26:41 1515720401.700979: $GPGSV,3,2,11,16,18,064,35,23,22,187,47,27,41,048,50,28,19,264,37*71
2018-01-11 20:26:41 1515720401.701045: $GPGSV,3,3,11,30,35,309,36,01,04,160,00,138,38,213,45*71
2018-01-11 20:26:41 1515720401.814476: $GPZDA,012642.00,12,01,2018,00,00*6C
2018-01-11 20:26:41 1515720401.814589: $GPGGA,012642,3946.9600,N,08404.9863,W,2,10,0.80,294.78,M,-33.324,M,,*7A
2018-01-11 20:26:41 1515720401.814652: $GPRMC,012642,A,3946.9600,N,08404.9863,W,0.0000,0.000,120118,,*3C
2018-01-11 20:26:41 1515720401.814711: $GPGSA,A,3,7,8,9,11,16,23,27,28,30,138,,,4.0,0.8,3.5*3E
2018-01-11 20:26:42 1515720402.365036: $GPZDA,012643.00,12,01,2018,00,00*6D
2018-01-11 20:26:42 1515720402.365190: $GPGGA,012643,3946.9600,N,08404.9863,W,2,10,0.80,294.78,M,-33.324,M,,*7B
2018-01-11 20:26:42 1515720402.365256: $GPRMC,012643,A,3946.9600,N,08404.9863,W,0.0000,0.000,120118,,*3D
2018-01-11 20:26:42 1515720402.365317: $GPGSA,A,3,7,8,9,11,16,23,27,28,30,138,,,4.0,0.8,3.5*3E
2018-01-11 20:26:43 1515720403.366190: $GPZDA,012644.00,12,01,2018,00,00*6A
2018-01-11 20:26:43 1515720403.366361: $GPGGA,012644,3946.9600,N,08404.9863,W,2,10,0.80,294.78,M,-33.324,M,,*7C
2018-01-11 20:26:43 1515720403.366427: $GPRMC,012644,A,3946.9600,N,08404.9863,W,0.0000,0.000,120118,,*3A
2018-01-11 20:26:43 1515720403.366488: $GPGSA,A,3,7,8,9,11,16,23,27,28,30,138,,,4.0,0.8,3.5*3E
2018-01-11 20:26:44 1515720404.700344: $GPGSV,3,1,11,07,62,316,43,08,75,100,46,09,42,222,41,11,26,165,45*7D
2018-01-11 20:26:44 1515720404.700507: $GPGSV,3,2,11,16,18,064,35,23,22,187,47,27,41,048,49,28,19,264,37*79
2018-01-11 20:26:44 1515720404.700573: $GPGSV,3,3,11,30,35,309,36,01,04,160,00,138,38,213,45*71
2018-01-11 20:26:44 1515720404.813995: $GPZDA,012645.00,12,01,2018,00,00*6B
2018-01-11 20:26:44 1515720404.814105: $GPGGA,012645,3946.9600,N,08404.9863,W,2,10,0.80,294.78,M,-33.324,M,,*7D
2018-01-11 20:26:44 1515720404.814168: $GPRMC,012645,A,3946.9600,N,08404.9863,W,0.0000,0.000,120118,,*3B
2018-01-11 20:26:44 1515720404.814227: $GPGSA,A,3,7,8,9,11,16,23,27,28,30,138,,,4.0,0.8,3.5*3E
2018-01-11 20:26:45 1515720405.439450: $GPZDA,012646.00,12,01,2018,00,00*68
2018-01-11 20:26:45 1515720405.443012: $GPGGA,012646,3946.9600,N,08404.9863,W,2,10,0.80,294.78,M,-33.324,M,,*7E
2018-01-11 20:26:45 1515720405.443112: $GPRMC,012646,A,3946.9600,N,08404.9863,W,0.0000,0.000,120118,,*38
2018-01-11 20:26:45 1515720405.443175: $GPGSA,A,3,7,8,9,11,16,23,27,28,30,138,,,4.0,0.8,3.5*3E
2018-01-11 20:26:46 1515720406.365246: $GPZDA,012647.00,12,01,2018,00,00*69
2018-01-11 20:26:46 1515720406.365416: $GPGGA,012647,3946.9600,N,08404.9863,W,2,10,0.80,294.78,M,-33.324,M,,*7F
2018-01-11 20:26:46 1515720406.365482: $GPRMC,012647,A,3946.9600,N,08404.9863,W,0.0000,0.000,120118,,*39
2018-01-11 20:26:46 1515720406.365542: $GPGSA,A,3,7,8,9,11,16,23,27,28,30,138,,,4.0,0.8,3.5*3E
2018-01-11 20:26:47 1515720407.700717: $GPGSV,3,1,11,07,62,316,43,08,75,100,46,09,42,222,40,11,26,165,45*7C
2018-01-11 20:26:47 1515720407.700880: $GPGSV,3,2,11,16,18,064,35,23,22,187,47,27,41,048,49,28,19,264,37*79
2018-01-11 20:26:47 1515720407.700944: $GPGSV,3,3,11,30,35,309,35,01,04,160,00,138,38,213,44*73
2018-01-11 20:26:47 1515720407.814332: $GPZDA,012648.00,12,01,2018,00,00*66
2018-01-11 20:26:47 1515720407.814439: $GPGGA,012648,3946.9600,N,08404.9863,W,2,10,0.80,294.78,M,-33.324,M,,*70
2018-01-11 20:26:47 1515720407.814502: $GPRMC,012648,A,3946.9600,N,08404.9863,W,0.0000,0.000,120118,,*36
2018-01-11 20:26:47 1515720407.814616: $GPGSA,A,3,7,8,9,11,16,23,27,28,30,138,,,4.0,0.8,3.5*3E
2018-01-11 20:26:48 1515720408.363992: $GPZDA,012649.00,12,01,2018,00,00*67
2018-01-11 20:26:48 1515720408.364161: $GPGGA,012649,3946.9600,N,08404.9863,W,2,10,0.80,294.78,M,-33.324,M,,*71
2018-01-11 20:26:48 1515720408.364226: $GPRMC,012649,A,3946.9600,N,08404.9863,W,0.0000,0.000,120118,,*37
2018-01-11 20:26:48 1515720408.364287: $GPGSA,A,3,7,8,9,11,16,23,27,28,30,138,,,4.0,0.8,3.5*3E
2018-01-11 20:26:49 1515720409.366104: $GPZDA,012650.00,12,01,2018,00,00*6F
2018-01-11 20:26:49 1515720409.366272: $GPGGA,012650,3946.9600,N,08404.9863,W,2,10,0.80,294.78,M,-33.324,M,,*79
2018-01-11 20:26:49 1515720409.366337: $GPRMC,012650,A,3946.9600,N,08404.9863,W,0.0000,0.000,120118,,*3F
2018-01-11 20:26:49 1515720409.366397: $GPGSA,A,3,7,8,9,11,16,23,27,28,30,138,,,4.0,0.8,3.5*3E
2018-01-11 20:26:50 1515720410.694833: $GPGSV,3,1,11,07,62,316,43,08,75,100,46,09,42,222,40,11,26,165,45*7C
2018-01-11 20:26:50 1515720410.695011: $GPGSV,3,2,11,16,18,064,36,23,22,187,47,27,41,048,49,28,19,264,37*7A
2018-01-11 20:26:50 1515720410.695077: $GPGSV,3,3,11,30,35,309,35,01,04,160,00,138,38,213,45*72
2018-01-11 20:26:50 1515720410.808138: $GPZDA,012651.00,12,01,2018,00,00*6E
2018-01-11 20:26:50 1515720410.808245: $GPGGA,012651,3946.9600,N,08404.9863,W,2,10,0.80,294.78,M,-33.324,M,,*78
2018-01-11 20:26:50 1515720410.808308: $GPRMC,012651,A,3946.9600,N,08404.9863,W,0.0000,0.000,120118,,*3E
2018-01-11 20:26:50 1515720410.808367: $GPGSA,A,3,7,8,9,11,16,23,27,28,30,138,,,4.0,0.8,3.5*3E
2018-01-11 20:26:51 1515720411.364351: $GPZDA,012652.00,12,01,2018,00,00*6D
2018-01-11 20:26:51 1515720411.364520: $GPGGA,012652,3946.9600,N,08404.9863,W,2,10,0.80,294.78,M,-33.324,M,,*7B
2018-01-11 20:26:51 1515720411.364585: $GPRMC,012652,A,3946.9600,N,08404.9863,W,0.0000,0.000,120118,,*3D
2018-01-11 20:26:51 1515720411.364645: $GPGSA,A,3,7,8,9,11,16,23,27,28,30,138,,,4.0,0.8,3.5*3E
2018-01-11 20:26:52 1515720412.378913: $GPZDA,012653.00,12,01,2018,00,00*6C
2018-01-11 20:26:52 1515720412.379132: $GPGGA,012653,3946.9600,N,08404.9863,W,2,10,0.80,294.78,M,-33.324,M,,*7A
2018-01-11 20:26:52 1515720412.379205: $GPRMC,012653,A,3946.9600,N,08404.9863,W,0.0000,0.000,120118,,*3C
2018-01-11 20:26:52 1515720412.379266: $GPGSA,A,3,7,8,9,11,16,23,27,28,30,138,,,4.0,0.8,3.5*3E
2018-01-11 20:26:53 1515720413.715643: $GPGSV,3,1,11,07,62,316,43,08,75,100,46,09,42,222,41,11,26,165,45*7D
2018-01-11 20:26:53 1515720413.715826: $GPGSV,3,2,11,16,18,064,36,23,22,187,47,27,41,048,49,28,19,264,37*7A
2018-01-11 20:26:53 1515720413.715891: $GPGSV,3,3,11,30,35,309,35,01,04,160,00,138,38,213,45*72
2018-01-11 20:26:53 1515720413.829300: $GPZDA,012654.00,12,01,2018,00,00*6B
2018-01-11 20:26:53 1515720413.829417: $GPGGA,012654,3946.9600,N,08404.9863,W,2,10,0.80,294.78,M,-33.324,M,,*7D
2018-01-11 20:26:53 1515720413.829481: $GPRMC,012654,A,3946.9600,N,08404.9863,W,0.0000,0.000,120118,,*3B
2018-01-11 20:26:53 1515720413.829540: $GPGSA,A,3,7,8,9,11,16,23,27,28,30,138,,,4.0,0.8,3.5*3E
