2018-01-11 20:00:34 1515718834.805599: {"class":"VERSION","release":"3.16","rev":"3.16-4","proto_major":3,"proto_minor":11}
2018-01-11 20:00:34 1515718834.805991: {"class":"DEVICES","devices":[{"class":"DEVICE","path":"/dev/ttyUSB0","driver":"SiRF","subtype":"9\u0006GSD4e_4.1.2-P1_RPATCH.05-F-GPS-4R-1510281 11/03/2015 307","activated":"2018-01-12T01:00:34.792Z","flags":1,"native":1,"bps":4800,"parity":"N","stopbits":1,"cycle":1.00}]}
2018-01-11 20:00:34 1515718834.806108: {"class":"WATCH","enable":true,"json":false,"nmea":true,"raw":0,"scaled":false,"timing":false,"split24":false,"pps":false}
2018-01-11 20:00:36 1515718836.187352: $GPGSV,3,1,11,07,51,313,17,08,70,145,17,09,51,235,17,11,16,169,16*77
2018-01-11 20:00:36 1515718836.187548: $GPGSV,3,2,11,16,26,057,18,23,34,192,19,27,51,057,20,28,11,255,13*7F
2018-01-11 20:00:36 1515718836.187615: $GPGSV,3,3,11,30,25,304,14,26,02,070,00,138,38,213,00*7F
2018-01-11 20:00:36 1515718836.300953: $GPZDA,010035.98,12,01,2018,00,00*69
2018-01-11 20:00:36 1515718836.301086: $GPGGA,010035,3946.9593,N,08404.9743,W,1,09,0.80,319.64,M,-33.324,M,,*78
2018-01-11 20:00:36 1515718836.301153: $GPRMC,010035,A,3946.9593,N,08404.9743,W,0.2172,85.763,120118,,*05
2018-01-11 20:00:36 1515718836.301216: $GPGSA,A,3,7,8,9,11,16,23,27,28,30,,,,4.0,0.8,3.5*04
2018-01-11 20:00:37 1515718837.085145: $GPZDA,010037.00,12,01,2018,00,00*6A
2018-01-11 20:00:37 1515718837.085318: $GPGGA,010037,3946.9591,N,08404.9752,W,1,09,0.80,321.73,M,-33.324,M,,*75
2018-01-11 20:00:37 1515718837.085386: $GPRMC,010037,A,3946.9591,N,08404.9752,W,0.1567,189.200,120118,,*3B
2018-01-11 20:00:37 1515718837.085450: $GPGSA,A,3,7,8,9,11,16,23,27,28,30,,,,4.0,0.8,3.5*04
2018-01-11 20:00:37 1515718837.085507: $GPGBS,010037,14.62,M,24.83,M,80.38,M*04
2018-01-11 20:00:37 1515718837.338952: $GPZDA,010038.00,12,01,2018,00,00*65
2018-01-11 20:00:37 1515718837.339152: $GPGGA,010038,3946.9598,N,08404.9801,W,1,09,0.80,321.82,M,-33.324,M,,*74
2018-01-11 20:00:37 1515718837.339221: $GPRMC,010038,A,3946.9598,N,08404.9801,W,0.1567,189.200,120118,,*34
2018-01-11 20:00:37 1515718837.339284: $GPGSA,A,3,7,8,9,11,16,23,27,28,30,,,,4.0,0.8,3.5*04
2018-01-11 20:00:37 1515718837.339342: $GPGBS,010038,14.62,M,24.83,M,80.38,M*0B
2018-01-11 20:00:38 1515718838.730578: $GPGSV,3,1,11,07,51,313,43,08,70,145,44,09,51,235,43,11,16,169,41*73
2018-01-11 20:00:38 1515718838.730745: $GPGSV,3,2,11,16,26,057,46,23,34,192,47,27,51,057,50,28,11,255,35*7C
2018-01-11 20:00:38 1515718838.730813: $GPGSV,3,3,11,30,25,304,36,26,02,070,00,138,38,213,46*7D
2018-01-11 20:00:38 1515718838.844205: $GPZDA,010039.00,12,01,2018,00,00*64
2018-01-11 20:00:38 1515718838.844375: $GPGGA,010039,3946.9598,N,08404.9801,W,1,10,0.80,321.82,M,-33.324,M,,*7D
2018-01-11 20:00:38 1515718838.844441: $GPRMC,010039,A,3946.9598,N,08404.9801,W,0.0000,0.000,120118,,*32
2018-01-11 20:00:38 1515718838.844503: $GPGSA,A,3,7,8,9,11,16,23,27,28,30,138,,,4.0,0.8,3.5*3E
2018-01-11 20:00:39 1515718839.469647: $GPZDA,010040.00,12,01,2018,00,00*6A
2018-01-11 20:00:39 1515718839.469827: $GPGGA,010040,3946.9590,N,08404.9810,W,2,10,2.60,312.60,M,-33.324,M,,*78
2018-01-11 20:00:39 1515718839.469895: $GPRMC,010040,A,3946.9590,N,08404.9810,W,0.3423,184.197,120118,,*30
2018-01-11 20:00:39 1515718839.469956: $GPGSA,A,3,7,8,9,11,16,23,27,28,30,138,,,4.0,2.6,3.5*32
2018-01-11 20:00:40 1515718840.395233: $GPZDA,010041.00,12,01,2018,00,00*6B
2018-01-11 20:00:40 1515718840.395428: $GPGGA,010041,3946.9597,N,08404.9816,W,2,10,1.40,310.99,M,-33.324,M,,*7D
2018-01-11 20:00:40 1515718840.395519: $GPRMC,010041,A,3946.9597,N,08404.9816,W,0.2422,273.794,120118,,*3E
2018-01-11 20:00:40 1515718840.395586: $GPGSA,A,3,7,8,9,11,16,23,27,28,30,138,,,4.0,1.4,3.5*33
2018-01-11 20:00:40 1515718840.395649: $GPGBS,010041,3.65,M,6.21,M,20.10,M*0C
2018-01-11 20:00:41 1515718841.732069: $GPGSV,3,1,11,07,51,313,42,08,70,145,44,09,51,235,43,11,16,169,41*72
2018-01-11 20:00:41 1515718841.732235: $GPGSV,3,2,11,16,26,057,46,23,34,192,47,27,51,057,51,28,11,255,35*7D
2018-01-11 20:00:41 1515718841.732304: $GPGSV,3,3,11,30,25,304,36,26,02,070,00,138,38,213,45*7E
2018-01-11 20:00:41 1515718841.845410: $GPZDA,010042.00,12,01,2018,00,00*68
2018-01-11 20:00:41 1515718841.845586: $GPGGA,010042,3946.9597,N,08404.9816,W,2,10,0.80,310.99,M,-33.324,M,,*73
2018-01-11 20:00:41 1515718841.845656: $GPRMC,010042,A,3946.9597,N,08404.9816,W,0.0000,0.000,120118,,*37
2018-01-11 20:00:41 1515718841.845716: $GPGSA,A,3,7,8,9,11,16,23,27,28,30,138,,,4.0,0.8,3.5*3E
2018-01-11 20:00:42 1515718842.397906: $GPZDA,010043.00,12,01,2018,00,00*69
2018-01-11 20:00:42 1515718842.398066: $GPGGA,010043,3946.9597,N,08404.9816,W,2,10,0.80,310.99,M,-33.324,M,,*72
2018-01-11 20:00:42 1515718842.398137: $GPRMC,010043,A,3946.9597,N,08404.9816,W,0.0000,0.000,120118,,*36
2018-01-11 20:00:42 1515718842.398197: $GPGSA,A,3,7,8,9,11,16,23,27,28,30,138,,,4.0,0.8,3.5*3E
2018-01-11 20:00:43 1515718843.403770: $GPZDA,010044.00,12,01,2018,00,00*6E
2018-01-11 20:00:43 1515718843.403936: $GPGGA,010044,3946.9597,N,08404.9816,W,2,10,0.80,310.99,M,-33.324,M,,*75
2018-01-11 20:00:43 1515718843.404007: $GPRMC,010044,A,3946.9597,N,08404.9816,W,0.0000,0.000,120118,,*31
2018-01-11 20:00:43 1515718843.404067: $GPGSA,A,3,7,8,9,11,16,23,27,28,30,138,,,4.0,0.8,3.5*3E
2018-01-11 20:00:44 1515718844.733669: $GPGSV,3,1,11,07,51,313,42,08,70,145,44,09,51,235,43,11,16,169,41*72
2018-01-11 20:00:44 1515718844.733825: $GPGSV,3,2,11,16,26,057,46,23,34,192,47,27,51,057,51,28,11,255,35*7D
2018-01-11 20:00:44 1515718844.733893: $GPGSV,3,3,11,30,25,304,36,26,02,070,00,138,38,213,45*7E
