2017-12-01 18:16:31 1512170191.396216: {"class":"VERSION","release":"3.16","rev":"3.16-4","proto_major":3,"proto_minor":11}
2017-12-01 18:16:31 1512170191.396596: {"class":"DEVICES","devices":[{"class":"DEVICE","path":"/dev/ttyUSB0","driver":"SiRF","subtype":"9\u0006GSD4e_4.1.2-P1_RPATCH.05-F-GPS-4R-1510281 11/03/2015 307","activated":"2017-12-01T23:16:31.331Z","flags":1,"native":1,"bps":4800,"parity":"N","stopbits":1,"cycle":1.00}]}
2017-12-01 18:16:31 1512170191.396710: {"class":"WATCH","enable":true,"json":false,"nmea":true,"raw":0,"scaled":false,"timing":false,"split24":false,"pps":false}
2017-12-01 18:16:31 1512170191.445057: $GPZDA,231632.00,01,12,2017,00,00*67
2017-12-01 18:16:31 1512170191.445204: $GPGGA,231632,3946.9711,N,08404.9834,W,2,12,0.80,298.13,M,-33.325,M,,*7F
2017-12-01 18:16:31 1512170191.445271: $GPRMC,231632,A,3946.9711,N,08404.9834,W,0.0000,0.000,011217,,*34
2017-12-01 18:16:31 1512170191.445401: $GPGSA,A,3,1,3,14,16,22,23,25,26,31,32,29,138,2.0,0.8,1.5*0C
2017-12-01 18:16:32 1512170192.790280: $GPGSV,3,1,12,01,07,255,27,03,38,303,45,14,58,087,43,16,20,189,41*70
2017-12-01 18:16:32 1512170192.790435: $GPGSV,3,2,12,22,50,276,46,23,09,300,45,25,20,042,41,26,50,172,47*75
2017-12-01 18:16:32 1512170192.790501: $GPGSV,3,3,12,31,70,021,46,32,38,105,42,29,10,075,05,138,38,213,46*48
2017-12-01 18:16:32 1512170192.903654: $GPZDA,231633.00,01,12,2017,00,00*66
2017-12-01 18:16:32 1512170192.903814: $GPGGA,231633,3946.9711,N,08404.9834,W,2,11,0.80,298.13,M,-33.325,M,,*7D
2017-12-01 18:16:32 1512170192.903879: $GPRMC,231633,A,3946.9711,N,08404.9834,W,0.0000,0.000,011217,,*35
2017-12-01 18:16:32 1512170192.903938: $GPGSA,A,3,1,3,14,16,22,23,25,26,31,32,138,,2.0,0.8,1.5*07
2017-12-01 18:16:33 1512170193.444767: $GPZDA,231634.00,01,12,2017,00,00*61
2017-12-01 18:16:33 1512170193.444946: $GPGGA,231634,3946.9711,N,08404.9834,W,2,11,0.80,298.13,M,-33.325,M,,*7A
2017-12-01 18:16:33 1512170193.445034: $GPRMC,231634,A,3946.9711,N,08404.9834,W,0.0000,0.000,011217,,*32
2017-12-01 18:16:33 1512170193.445098: $GPGSA,A,3,1,3,14,16,22,23,25,26,31,32,138,,2.0,0.8,1.5*07
2017-12-01 18:16:34 1512170194.444436: $GPZDA,231635.00,01,12,2017,00,00*60
2017-12-01 18:16:34 1512170194.444612: $GPGGA,231635,3946.9711,N,08404.9834,W,2,11,0.80,298.13,M,-33.325,M,,*7B
2017-12-01 18:16:34 1512170194.444679: $GPRMC,231635,A,3946.9711,N,08404.9834,W,0.0000,0.000,011217,,*33
2017-12-01 18:16:34 1512170194.444740: $GPGSA,A,3,1,3,14,16,22,23,25,26,31,32,138,,2.0,0.8,1.5*07
2017-12-01 18:16:35 1512170195.781116: $GPGSV,3,1,12,01,07,255,25,03,38,303,46,14,58,087,43,16,20,189,40*70
2017-12-01 18:16:35 1512170195.781298: $GPGSV,3,2,12,22,50,276,45,23,09,300,44,25,20,042,41,26,50,172,46*76
2017-12-01 18:16:35 1512170195.781416: $GPGSV,3,3,12,31,70,021,46,32,38,105,42,10,01,159,19,138,38,213,46*40
2017-12-01 18:16:35 1512170195.894786: $GPZDA,231636.00,01,12,2017,00,00*63
2017-12-01 18:16:35 1512170195.894970: $GPGGA,231636,3946.9711,N,08404.9834,W,2,12,0.80,298.13,M,-33.325,M,,*7B
2017-12-01 18:16:35 1512170195.895037: $GPRMC,231636,A,3946.9711,N,08404.9834,W,0.0000,0.000,011217,,*30
2017-12-01 18:16:35 1512170195.895098: $GPGSA,A,3,1,3,14,16,22,23,25,26,31,32,10,138,2.0,0.8,1.5*06
2017-12-01 18:16:36 1512170196.444239: $GPZDA,231637.00,01,12,2017,00,00*62
2017-12-01 18:16:36 1512170196.444419: $GPGGA,231637,3946.9711,N,08404.9834,W,2,12,0.80,298.13,M,-33.325,M,,*7A
2017-12-01 18:16:36 1512170196.444487: $GPRMC,231637,A,3946.9711,N,08404.9834,W,0.0000,0.000,011217,,*31
2017-12-01 18:16:36 1512170196.444547: $GPGSA,A,3,1,3,14,16,22,23,25,26,31,32,10,138,2.0,0.8,1.5*06
2017-12-01 18:16:37 1512170197.444755: $GPZDA,231638.00,01,12,2017,00,00*6D
2017-12-01 18:16:37 1512170197.444927: $GPGGA,231638,3946.9711,N,08404.9834,W,2,12,0.80,298.13,M,-33.325,M,,*75
2017-12-01 18:16:37 1512170197.445014: $GPRMC,231638,A,3946.9711,N,08404.9834,W,0.0000,0.000,011217,,*3E
2017-12-01 18:16:37 1512170197.445076: $GPGSA,A,3,1,3,14,16,22,23,25,26,31,32,10,138,2.0,0.8,1.5*06
2017-12-01 18:16:38 1512170198.780305: $GPGSV,3,1,12,01,07,255,26,03,38,303,46,14,58,087,43,16,20,189,40*73
2017-12-01 18:16:38 1512170198.780515: $GPGSV,3,2,12,22,50,276,45,23,09,300,45,25,20,042,42,26,50,172,46*74
2017-12-01 18:16:38 1512170198.780583: $GPGSV,3,3,12,31,70,021,46,32,38,105,41,29,10,075,22,138,38,213,46*4E
2017-12-01 18:16:38 1512170198.893934: $GPZDA,231639.00,01,12,2017,00,00*6C
2017-12-01 18:16:38 1512170198.894103: $GPGGA,231639,3946.9711,N,08404.9834,W,2,12,0.80,298.13,M,-33.325,M,,*74
2017-12-01 18:16:38 1512170198.894169: $GPRMC,231639,A,3946.9711,N,08404.9834,W,0.0000,0.000,011217,,*3F
2017-12-01 18:16:38 1512170198.894230: $GPGSA,A,3,1,3,14,16,22,23,25,26,31,32,29,138,2.0,0.8,1.5*0C
2017-12-01 18:16:39 1512170199.445956: $GPZDA,231640.00,01,12,2017,00,00*62
2017-12-01 18:16:39 1512170199.446130: $GPGGA,231640,3946.9711,N,08404.9834,W,2,12,0.80,298.13,M,-33.325,M,,*7A
2017-12-01 18:16:39 1512170199.446196: $GPRMC,231640,A,3946.9711,N,08404.9834,W,0.0000,0.000,011217,,*31
2017-12-01 18:16:39 1512170199.446257: $GPGSA,A,3,1,3,14,16,22,23,25,26,31,32,29,138,2.0,0.8,1.5*0C
2017-12-01 18:16:40 1512170200.445589: $GPZDA,231641.00,01,12,2017,00,00*63
2017-12-01 18:16:40 1512170200.445782: $GPGGA,231641,3946.9711,N,08404.9834,W,2,12,0.80,298.13,M,-33.325,M,,*7B
2017-12-01 18:16:40 1512170200.445850: $GPRMC,231641,A,3946.9711,N,08404.9834,W,0.0000,0.000,011217,,*30
2017-12-01 18:16:40 1512170200.445911: $GPGSA,A,3,1,3,14,16,22,23,25,26,31,32,29,138,2.0,0.8,1.5*0C
2017-12-01 18:16:41 1512170201.779856: $GPGSV,3,1,12,01,07,255,27,03,38,303,46,14,58,087,43,16,20,189,40*72
2017-12-01 18:16:41 1512170201.780038: $GPGSV,3,2,12,22,50,276,46,23,09,300,44,25,20,042,42,26,50,172,46*76
2017-12-01 18:16:41 1512170201.780106: $GPGSV,3,3,12,31,70,021,46,32,38,105,41,29,10,075,19,138,38,213,46*46
2017-12-01 18:16:41 1512170201.893519: $GPZDA,231642.00,01,12,2017,00,00*60
2017-12-01 18:16:41 1512170201.893719: $GPGGA,231642,3946.9711,N,08404.9834,W,2,11,0.80,298.13,M,-33.325,M,,*7B
2017-12-01 18:16:41 1512170201.893790: $GPRMC,231642,A,3946.9711,N,08404.9834,W,0.0000,0.000,011217,,*33
2017-12-01 18:16:41 1512170201.893854: $GPGSA,A,3,1,3,14,16,22,23,25,26,31,32,138,,2.0,0.8,1.5*07
2017-12-01 18:16:42 1512170202.518620: $GPZDA,231643.00,01,12,2017,00,00*61
2017-12-01 18:16:42 1512170202.518792: $GPGGA,231643,3946.9711,N,08404.9834,W,2,11,0.80,298.13,M,-33.325,M,,*7A
2017-12-01 18:16:42 1512170202.518859: $GPRMC,231643,A,3946.9711,N,08404.9834,W,0.0000,0.000,011217,,*32
2017-12-01 18:16:42 1512170202.518919: $GPGSA,A,3,1,3,14,16,22,23,25,26,31,32,138,,2.0,0.8,1.5*07
2017-12-01 18:16:43 1512170203.444806: $GPZDA,231644.00,01,12,2017,00,00*66
2017-12-01 18:16:43 1512170203.444978: $GPGGA,231644,3946.9711,N,08404.9834,W,2,11,0.80,298.13,M,-33.325,M,,*7D
2017-12-01 18:16:43 1512170203.445045: $GPRMC,231644,A,3946.9711,N,08404.9834,W,0.0000,0.000,011217,,*35
2017-12-01 18:16:43 1512170203.445106: $GPGSA,A,3,1,3,14,16,22,23,25,26,31,32,138,,2.0,0.8,1.5*07
2017-12-01 18:16:44 1512170204.777816: $GPGSV,3,1,12,01,07,255,28,03,38,303,46,14,58,087,43,16,20,189,41*7C
2017-12-01 18:16:44 1512170204.777995: $GPGSV,3,2,12,22,50,276,46,23,09,300,44,25,20,042,42,26,50,172,47*77
2017-12-01 18:16:44 1512170204.778061: $GPGSV,3,3,12,31,70,021,46,32,38,105,41,10,01,159,17,138,38,213,46*4D
2017-12-01 18:16:44 1512170204.891211: $GPZDA,231645.00,01,12,2017,00,00*67
2017-12-01 18:16:44 1512170204.891429: $GPGGA,231645,3946.9711,N,08404.9834,W,2,12,0.80,298.13,M,-33.325,M,,*7F
2017-12-01 18:16:44 1512170204.891507: $GPRMC,231645,A,3946.9711,N,08404.9834,W,0.0000,0.000,011217,,*34
2017-12-01 18:16:44 1512170204.891569: $GPGSA,A,3,1,3,14,16,22,23,25,26,31,32,10,138,2.0,0.8,1.5*06
2017-12-01 18:16:45 1512170205.444512: $GPZDA,231646.00,01,12,2017,00,00*64
2017-12-01 18:16:45 1512170205.444688: $GPGGA,231646,3946.9711,N,08404.9834,W,2,12,0.80,298.13,M,-33.325,M,,*7C
2017-12-01 18:16:45 1512170205.444755: $GPRMC,231646,A,3946.9711,N,08404.9834,W,0.0000,0.000,011217,,*37
2017-12-01 18:16:45 1512170205.444816: $GPGSA,A,3,1,3,14,16,22,23,25,26,31,32,10,138,2.0,0.8,1.5*06
2017-12-01 18:16:46 1512170206.444246: $GPZDA,231647.00,01,12,2017,00,00*65
2017-12-01 18:16:46 1512170206.444467: $GPGGA,231647,3946.9711,N,08404.9834,W,2,12,0.80,298.13,M,-33.325,M,,*7D
2017-12-01 18:16:46 1512170206.444535: $GPRMC,231647,A,3946.9711,N,08404.9834,W,0.0000,0.000,011217,,*36
2017-12-01 18:16:46 1512170206.444596: $GPGSA,A,3,1,3,14,16,22,23,25,26,31,32,10,138,2.0,0.8,1.5*06
2017-12-01 18:16:47 1512170207.780742: $GPGSV,3,1,12,01,07,255,25,03,38,303,46,14,58,087,42,16,20,189,41*70
2017-12-01 18:16:47 1512170207.780925: $GPGSV,3,2,12,22,50,276,46,23,09,300,44,25,20,042,41,26,50,172,46*75
2017-12-01 18:16:47 1512170207.780992: $GPGSV,3,3,12,31,70,021,46,32,38,105,41,10,01,159,18,138,38,213,46*42
2017-12-01 18:16:47 1512170207.894162: $GPZDA,231648.00,01,12,2017,00,00*6A
2017-12-01 18:16:47 1512170207.894328: $GPGGA,231648,3946.9711,N,08404.9834,W,2,12,0.80,298.13,M,-33.325,M,,*72
2017-12-01 18:16:47 1512170207.894394: $GPRMC,231648,A,3946.9711,N,08404.9834,W,0.0000,0.000,011217,,*39
2017-12-01 18:16:47 1512170207.894455: $GPGSA,A,3,1,3,14,16,22,23,25,26,31,32,10,138,2.0,0.8,1.5*06
2017-12-01 18:16:48 1512170208.446408: $GPZDA,231649.00,01,12,2017,00,00*6B
2017-12-01 18:16:48 1512170208.446583: $GPGGA,231649,3946.9711,N,08404.9834,W,2,12,0.80,298.13,M,-33.325,M,,*73
2017-12-01 18:16:48 1512170208.446650: $GPRMC,231649,A,3946.9711,N,08404.9834,W,0.0000,0.000,011217,,*38
2017-12-01 18:16:48 1512170208.446711: $GPGSA,A,3,1,3,14,16,22,23,25,26,31,32,10,138,2.0,0.8,1.5*06
2017-12-01 18:16:49 1512170209.448396: $GPZDA,231650.00,01,12,2017,00,00*63
2017-12-01 18:16:49 1512170209.448571: $GPGGA,231650,3946.9715,N,08404.9834,W,2,12,0.80,298.77,M,-33.325,M,,*7D
2017-12-01 18:16:49 1512170209.448638: $GPRMC,231650,A,3946.9715,N,08404.9834,W,0.0000,0.000,011217,,*34
2017-12-01 18:16:49 1512170209.448699: $GPGSA,A,3,1,3,14,16,22,23,25,26,31,32,10,138,2.0,0.8,1.5*06
2017-12-01 18:16:50 1512170210.780384: $GPGSV,3,1,12,01,07,255,28,03,38,303,46,14,58,087,43,16,20,189,40*7D
2017-12-01 18:16:50 1512170210.780541: $GPGSV,3,2,12,22,50,276,46,23,09,300,44,25,20,042,41,26,50,172,47*74
2017-12-01 18:16:50 1512170210.780607: $GPGSV,3,3,12,31,70,021,47,32,38,105,41,10,01,159,18,138,38,213,46*43
2017-12-01 18:16:50 1512170210.893726: $GPZDA,231651.00,01,12,2017,00,00*62
2017-12-01 18:16:50 1512170210.893895: $GPGGA,231651,3946.9715,N,08404.9834,W,2,12,0.80,298.77,M,-33.325,M,,*7C
2017-12-01 18:16:50 1512170210.893961: $GPRMC,231651,A,3946.9715,N,08404.9834,W,0.0000,0.000,011217,,*35
2017-12-01 18:16:50 1512170210.894021: $GPGSA,A,3,1,3,14,16,22,23,25,26,31,32,10,138,2.0,0.8,1.5*06
2017-12-01 18:16:51 1512170211.445830: $GPZDA,231652.00,01,12,2017,00,00*61
2017-12-01 18:16:51 1512170211.446011: $GPGGA,231652,3946.9715,N,08404.9834,W,2,12,0.80,298.77,M,-33.325,M,,*7F
2017-12-01 18:16:51 1512170211.446079: $GPRMC,231652,A,3946.9715,N,08404.9834,W,0.0000,0.000,011217,,*36
2017-12-01 18:16:51 1512170211.446141: $GPGSA,A,3,1,3,14,16,22,23,25,26,31,32,10,138,2.0,0.8,1.5*06
