2017-12-01 16:42:35 1512164555.766762: {"class":"VERSION","release":"3.16","rev":"3.16-4","proto_major":3,"proto_minor":11}
2017-12-01 16:42:35 1512164555.767196: {"class":"DEVICES","devices":[{"class":"DEVICE","path":"/dev/ttyUSB0","driver":"SiRF","subtype":"9\u0006GSD4e_4.1.2-P1_RPATCH.05-F-GPS-4R-1510281 11/03/2015 307","activated":"2017-12-01T21:42:35.558Z","flags":1,"native":1,"bps":4800,"parity":"N","stopbits":1,"cycle":1.00}]}
2017-12-01 16:42:35 1512164555.767325: {"class":"WATCH","enable":true,"json":false,"nmea":true,"raw":0,"scaled":false,"timing":false,"split24":false,"pps":false}
2017-12-01 16:42:36 1512164556.409846: $GPZDA,214237.00,01,12,2017,00,00*61
2017-12-01 16:42:36 1512164556.410033: $GPGGA,214237,3946.9640,N,08404.9734,W,2,11,0.80,296.87,M,-33.324,M,,*72
2017-12-01 16:42:36 1512164556.410105: $GPRMC,214237,A,3946.9640,N,08404.9734,W,0.0000,0.000,011217,,*38
2017-12-01 16:42:36 1512164556.410171: $GPGSA,A,3,1,10,14,22,31,32,11,12,25,26,138,,2.0,0.8,1.5*30
2017-12-01 16:42:37 1512164557.746827: $GPGSV,3,1,12,01,22,295,40,10,42,150,43,14,68,340,45,22,23,312,42*7D
2017-12-01 16:42:37 1512164557.747015: $GPGSV,3,2,12,31,61,231,50,32,66,042,49,11,07,277,34,12,20,045,25*74
2017-12-01 16:42:37 1512164557.747084: $GPGSV,3,3,12,25,40,084,17,26,07,181,29,18,13,145,19,138,38,213,35*47
2017-12-01 16:42:37 1512164557.860228: $GPZDA,214238.00,01,12,2017,00,00*6E
2017-12-01 16:42:37 1512164557.860401: $GPGGA,214238,3946.9640,N,08404.9734,W,2,12,0.80,296.87,M,-33.324,M,,*7E
2017-12-01 16:42:37 1512164557.860469: $GPRMC,214238,A,3946.9640,N,08404.9734,W,0.0000,0.000,011217,,*37
2017-12-01 16:42:37 1512164557.860531: $GPGSA,A,3,1,10,14,22,31,32,11,12,25,26,18,138,2.0,0.8,1.5*39
2017-12-01 16:42:38 1512164558.485929: $GPZDA,214239.00,01,12,2017,00,00*6F
2017-12-01 16:42:38 1512164558.486103: $GPGGA,214239,3946.9640,N,08404.9734,W,2,12,1.00,296.87,M,-33.324,M,,*76
2017-12-01 16:42:38 1512164558.486173: $GPRMC,214239,A,3946.9640,N,08404.9734,W,0.0000,0.000,011217,,*36
2017-12-01 16:42:38 1512164558.486235: $GPGSA,A,3,1,10,14,22,31,32,11,12,25,26,18,138,2.0,1.0,1.5*30
2017-12-01 16:42:39 1512164559.432791: $GPZDA,214240.00,01,12,2017,00,00*61
2017-12-01 16:42:39 1512164559.432981: $GPGGA,214240,3946.9640,N,08404.9734,W,2,12,1.00,296.87,M,-33.324,M,,*78
2017-12-01 16:42:39 1512164559.433057: $GPRMC,214240,A,3946.9640,N,08404.9734,W,0.0000,0.000,011217,,*38
2017-12-01 16:42:39 1512164559.433125: $GPGSA,A,3,1,10,14,22,31,32,11,12,25,26,18,138,2.0,1.0,1.5*30
2017-12-01 16:42:40 1512164560.767162: $GPGSV,3,1,12,01,22,295,41,10,42,150,43,14,68,340,46,22,23,312,42*7F
2017-12-01 16:42:40 1512164560.767359: $GPGSV,3,2,12,31,61,231,50,32,66,042,49,11,07,277,34,12,20,045,25*74
2017-12-01 16:42:40 1512164560.767429: $GPGSV,3,3,12,25,40,084,17,26,07,181,29,18,13,145,19,138,38,213,39*4B
2017-12-01 16:42:40 1512164560.880683: $GPZDA,214241.00,01,12,2017,00,00*60
2017-12-01 16:42:40 1512164560.880858: $GPGGA,214241,3946.9640,N,08404.9734,W,2,12,1.00,296.87,M,-33.324,M,,*79
2017-12-01 16:42:40 1512164560.880927: $GPRMC,214241,A,3946.9640,N,08404.9734,W,0.0000,0.000,011217,,*39
2017-12-01 16:42:40 1512164560.880990: $GPGSA,A,3,1,10,14,22,31,32,11,12,25,26,18,138,2.0,1.0,1.5*30
2017-12-01 16:42:41 1512164561.432721: $GPZDA,214242.00,01,12,2017,00,00*63
2017-12-01 16:42:41 1512164561.432898: $GPGGA,214242,3946.9640,N,08404.9734,W,2,12,1.00,296.87,M,-33.324,M,,*7A
2017-12-01 16:42:41 1512164561.432966: $GPRMC,214242,A,3946.9640,N,08404.9734,W,0.0000,0.000,011217,,*3A
2017-12-01 16:42:41 1512164561.433031: $GPGSA,A,3,1,10,14,22,31,32,11,12,25,26,18,138,2.0,1.0,1.5*30
2017-12-01 16:42:42 1512164562.418548: $GPZDA,214243.00,01,12,2017,00,00*62
2017-12-01 16:42:42 1512164562.418732: $GPGGA,214243,3946.9640,N,08404.9734,W,2,12,1.00,296.87,M,-33.324,M,,*7B
2017-12-01 16:42:42 1512164562.418800: $GPRMC,214243,A,3946.9640,N,08404.9734,W,0.0000,0.000,011217,,*3B
2017-12-01 16:42:42 1512164562.418862: $GPGSA,A,3,1,10,14,22,31,32,11,12,25,26,18,138,2.0,1.0,1.5*30
2017-12-01 16:42:43 1512164563.746354: $GPGSV,3,1,12,01,22,295,41,10,42,150,42,14,68,340,45,22,23,312,41*7E
2017-12-01 16:42:43 1512164563.746606: $GPGSV,3,2,12,31,61,231,50,32,66,042,49,11,07,277,34,12,20,045,08*7B
2017-12-01 16:42:43 1512164563.746676: $GPGSV,3,3,12,25,40,084,17,26,07,181,29,18,13,145,20,138,38,213,40*4F
2017-12-01 16:42:43 1512164563.859769: $GPZDA,214244.00,01,12,2017,00,00*65
2017-12-01 16:42:43 1512164563.859934: $GPGGA,214244,3946.9640,N,08404.9734,W,2,12,0.80,296.87,M,-33.324,M,,*75
2017-12-01 16:42:43 1512164563.860021: $GPRMC,214244,A,3946.9640,N,08404.9734,W,0.0000,0.000,011217,,*3C
2017-12-01 16:42:43 1512164563.860084: $GPGSA,A,3,1,10,14,22,31,32,11,12,25,26,18,138,2.0,0.8,1.5*39
2017-12-01 16:42:44 1512164564.409357: $GPZDA,214245.00,01,12,2017,00,00*64
2017-12-01 16:42:44 1512164564.409533: $GPGGA,214245,3946.9640,N,08404.9734,W,2,12,0.80,296.87,M,-33.324,M,,*74
2017-12-01 16:42:44 1512164564.409601: $GPRMC,214245,A,3946.9640,N,08404.9734,W,0.0000,0.000,011217,,*3D
2017-12-01 16:42:44 1512164564.409661: $GPGSA,A,3,1,10,14,22,31,32,11,12,25,26,18,138,2.0,0.8,1.5*39
2017-12-01 16:42:45 1512164565.416454: $GPZDA,214246.00,01,12,2017,00,00*67
2017-12-01 16:42:45 1512164565.416613: $GPGGA,214246,3946.9640,N,08404.9734,W,2,12,0.80,296.87,M,-33.324,M,,*77
2017-12-01 16:42:45 1512164565.416679: $GPRMC,214246,A,3946.9640,N,08404.9734,W,0.0000,0.000,011217,,*3E
2017-12-01 16:42:45 1512164565.416740: $GPGSA,A,3,1,10,14,22,31,32,11,12,25,26,18,138,2.0,0.8,1.5*39
2017-12-01 16:42:46 1512164566.752227: $GPGSV,3,1,12,01,22,295,41,10,42,150,42,14,68,340,45,22,23,312,41*7E
2017-12-01 16:42:46 1512164566.752411: $GPGSV,3,2,12,31,61,231,50,32,66,042,49,11,07,277,34,12,20,045,13*71
2017-12-01 16:42:46 1512164566.752476: $GPGSV,3,3,12,25,40,084,25,26,07,181,29,18,13,145,20,138,38,213,39*40
2017-12-01 16:42:46 1512164566.865614: $GPZDA,214247.00,01,12,2017,00,00*66
2017-12-01 16:42:46 1512164566.865789: $GPGGA,214247,3946.9640,N,08404.9734,W,2,12,1.00,296.87,M,-33.324,M,,*7F
2017-12-01 16:42:46 1512164566.865855: $GPRMC,214247,A,3946.9640,N,08404.9734,W,0.0000,0.000,011217,,*3F
2017-12-01 16:42:46 1512164566.865916: $GPGSA,A,3,1,10,14,22,31,32,11,12,25,26,18,138,2.0,1.0,1.5*30
2017-12-01 16:42:47 1512164567.415202: $GPZDA,214248.00,01,12,2017,00,00*69
2017-12-01 16:42:47 1512164567.415376: $GPGGA,214248,3946.9640,N,08404.9734,W,2,12,1.00,296.87,M,-33.324,M,,*70
2017-12-01 16:42:47 1512164567.415443: $GPRMC,214248,A,3946.9640,N,08404.9734,W,0.0000,0.000,011217,,*30
2017-12-01 16:42:47 1512164567.415504: $GPGSA,A,3,1,10,14,22,31,32,11,12,25,26,18,138,2.0,1.0,1.5*30
2017-12-01 16:42:48 1512164568.415578: $GPZDA,214249.00,01,12,2017,00,00*68
2017-12-01 16:42:48 1512164568.415754: $GPGGA,214249,3946.9640,N,08404.9734,W,2,12,1.80,296.87,M,-33.324,M,,*79
2017-12-01 16:42:48 1512164568.415821: $GPRMC,214249,A,3946.9640,N,08404.9734,W,0.0000,0.000,011217,,*31
2017-12-01 16:42:48 1512164568.415882: $GPGSA,A,3,1,10,14,22,31,32,11,12,25,26,18,138,2.0,1.8,1.5*38
2017-12-01 16:42:49 1512164569.753794: $GPGSV,3,1,12,01,22,295,40,10,42,150,42,14,68,340,45,22,23,312,41*7F
2017-12-01 16:42:49 1512164569.754000: $GPGSV,3,2,12,31,61,231,50,32,66,042,48,11,07,277,34,12,20,045,04*76
2017-12-01 16:42:49 1512164569.754095: $GPGSV,3,3,12,25,40,084,16,26,07,181,28,18,13,145,20,138,38,213,38*40
2017-12-01 16:42:49 1512164569.867193: $GPZDA,214250.00,01,12,2017,00,00*60
2017-12-01 16:42:49 1512164569.867356: $GPGGA,214250,3946.9640,N,08404.9734,W,2,11,1.80,296.87,M,-33.324,M,,*72
2017-12-01 16:42:49 1512164569.867424: $GPRMC,214250,A,3946.9640,N,08404.9734,W,0.0000,0.000,011217,,*39
2017-12-01 16:42:49 1512164569.867484: $GPGSA,A,3,1,10,14,22,31,32,11,25,26,18,138,,2.0,1.8,1.5*3B
2017-12-01 16:42:50 1512164570.416856: $GPZDA,214251.00,01,12,2017,00,00*61
2017-12-01 16:42:50 1512164570.417050: $GPGGA,214251,3946.9640,N,08404.9734,W,2,11,1.80,296.87,M,-33.324,M,,*73
2017-12-01 16:42:50 1512164570.417135: $GPRMC,214251,A,3946.9640,N,08404.9734,W,0.0000,0.000,011217,,*38
2017-12-01 16:42:50 1512164570.417197: $GPGSA,A,3,1,10,14,22,31,32,11,25,26,18,138,,2.0,1.8,1.5*3B
2017-12-01 16:42:51 1512164571.415185: $GPZDA,214252.00,01,12,2017,00,00*62
2017-12-01 16:42:51 1512164571.415360: $GPGGA,214252,3946.9640,N,08404.9734,W,2,11,1.00,296.87,M,-33.324,M,,*78
2017-12-01 16:42:51 1512164571.415427: $GPRMC,214252,A,3946.9640,N,08404.9734,W,0.0000,0.000,011217,,*3B
2017-12-01 16:42:51 1512164571.415488: $GPGSA,A,3,1,10,14,22,31,32,11,25,26,18,138,,2.0,1.0,1.5*33
2017-12-01 16:42:52 1512164572.752159: $GPGSV,3,1,12,01,22,295,40,10,42,150,42,14,68,340,44,22,23,312,41*7E
2017-12-01 16:42:52 1512164572.752330: $GPGSV,3,2,12,31,61,231,50,32,66,042,48,11,07,277,34,12,20,045,09*7B
2017-12-01 16:42:52 1512164572.752472: $GPGSV,3,3,12,25,40,084,12,26,07,181,29,18,13,145,19,138,38,213,40*40
2017-12-01 16:42:52 1512164572.865656: $GPZDA,214253.00,01,12,2017,00,00*63
2017-12-01 16:42:52 1512164572.865825: $GPGGA,214253,3946.9643,N,08404.9733,W,2,12,1.00,296.10,M,-33.324,M,,*70
2017-12-01 16:42:52 1512164572.865892: $GPRMC,214253,A,3946.9643,N,08404.9733,W,0.0000,0.000,011217,,*3E
2017-12-01 16:42:52 1512164572.865977: $GPGSA,A,3,1,10,14,22,31,32,11,12,25,26,18,138,2.0,1.0,1.5*30
2017-12-01 16:42:53 1512164573.490957: $GPZDA,214254.00,01,12,2017,00,00*64
2017-12-01 16:42:53 1512164573.491137: $GPGGA,214254,3946.9643,N,08404.9733,W,2,12,1.00,296.10,M,-33.324,M,,*77
2017-12-01 16:42:53 1512164573.491205: $GPRMC,214254,A,3946.9643,N,08404.9733,W,0.0000,0.000,011217,,*39
2017-12-01 16:42:53 1512164573.491267: $GPGSA,A,3,1,10,14,22,31,32,11,12,25,26,18,138,2.0,1.0,1.5*30
2017-12-01 16:42:54 1512164574.410965: $GPZDA,214255.00,01,12,2017,00,00*65
2017-12-01 16:42:54 1512164574.411152: $GPGGA,214255,3946.9643,N,08404.9733,W,2,12,1.00,296.10,M,-33.324,M,,*76
2017-12-01 16:42:54 1512164574.411218: $GPRMC,214255,A,3946.9643,N,08404.9733,W,0.0000,0.000,011217,,*38
2017-12-01 16:42:54 1512164574.411278: $GPGSA,A,3,1,10,14,22,31,32,11,12,25,26,18,138,2.0,1.0,1.5*30
2017-12-01 16:42:55 1512164575.752553: $GPGSV,3,1,12,01,22,295,40,10,42,150,42,14,68,340,45,22,23,312,41*7F
2017-12-01 16:42:55 1512164575.752736: $GPGSV,3,2,12,31,61,231,49,32,66,042,49,11,07,277,34,12,20,045,09*72
2017-12-01 16:42:55 1512164575.752803: $GPGSV,3,3,12,25,40,084,23,26,07,181,29,18,13,145,19,138,38,213,40*42
