2017-12-29 14:46:04 1514576764.531620: {"class":"VERSION","release":"3.16","rev":"3.16-4","proto_major":3,"proto_minor":11}
2017-12-29 14:46:04 1514576764.531962: {"class":"DEVICES","devices":[{"class":"DEVICE","path":"/dev/ttyUSB0","driver":"SiRF","subtype":"9\u0006GSD4e_4.1.2-P1_RPATCH.05-F-GPS-4R-1510281 11/03/2015 307","activated":"2017-12-29T19:46:04.467Z","flags":1,"native":1,"bps":4800,"parity":"N","stopbits":1,"cycle":1.00}]}
2017-12-29 14:46:04 1514576764.532074: {"class":"WATCH","enable":true,"json":false,"nmea":true,"raw":0,"scaled":false,"timing":false,"split24":false,"pps":false}
2017-12-29 14:46:05 1514576765.326675: $GPZDA,194606.00,29,12,2017,00,00*66
2017-12-29 14:46:05 1514576765.326836: $GPGGA,194606,3946.9565,N,08404.9804,W,2,12,0.80,310.24,M,-33.324,M,,*72
2017-12-29 14:46:05 1514576765.326903: $GPRMC,194606,A,3946.9565,N,08404.9804,W,0.0000,0.000,291217,,*37
2017-12-29 14:46:05 1514576765.326964: $GPGSA,A,3,1,26,10,11,12,14,18,22,25,31,32,138,1.7,0.8,1.3*3B
2017-12-29 14:46:06 1514576766.658622: $GPGSV,3,1,12,01,22,295,39,26,07,181,26,10,43,150,50,11,07,279,37*7A
2017-12-29 14:46:06 1514576766.658800: $GPGSV,3,2,12,12,20,046,45,14,68,336,42,18,13,145,41,22,23,312,40*79
2017-12-29 14:46:06 1514576766.658867: $GPGSV,3,3,12,25,41,085,51,31,62,229,47,32,66,042,50,138,38,213,43*49
2017-12-29 14:46:06 1514576766.772037: $GPZDA,194607.00,29,12,2017,00,00*67
2017-12-29 14:46:06 1514576766.772182: $GPGGA,194607,3946.9565,N,08404.9804,W,2,12,0.80,310.24,M,-33.324,M,,*73
2017-12-29 14:46:06 1514576766.772247: $GPRMC,194607,A,3946.9565,N,08404.9804,W,0.0000,0.000,291217,,*36
2017-12-29 14:46:06 1514576766.772308: $GPGSA,A,3,1,26,10,11,12,14,18,22,25,31,32,138,1.7,0.8,1.3*3B
2017-12-29 14:46:07 1514576767.398608: $GPZDA,194608.00,29,12,2017,00,00*68
2017-12-29 14:46:07 1514576767.398776: $GPGGA,194608,3946.9565,N,08404.9804,W,2,12,0.80,310.24,M,-33.324,M,,*7C
2017-12-29 14:46:07 1514576767.398841: $GPRMC,194608,A,3946.9565,N,08404.9804,W,0.0000,0.000,291217,,*39
2017-12-29 14:46:07 1514576767.398902: $GPGSA,A,3,1,26,10,11,12,14,18,22,25,31,32,138,1.7,0.8,1.3*3B
2017-12-29 14:46:08 1514576768.326971: $GPZDA,194609.00,29,12,2017,00,00*69
2017-12-29 14:46:08 1514576768.327138: $GPGGA,194609,3946.9565,N,08404.9804,W,2,12,0.80,310.24,M,-33.324,M,,*7D
2017-12-29 14:46:08 1514576768.327205: $GPRMC,194609,A,3946.9565,N,08404.9804,W,0.0000,0.000,291217,,*38
2017-12-29 14:46:08 1514576768.327265: $GPGSA,A,3,1,26,10,11,12,14,18,22,25,31,32,138,1.7,0.8,1.3*3B
2017-12-29 14:46:09 1514576769.663998: $GPGSV,3,1,12,01,22,295,39,26,07,181,26,10,43,150,50,11,07,279,36*7B
2017-12-29 14:46:09 1514576769.664182: $GPGSV,3,2,12,12,20,046,45,14,68,336,43,18,13,145,41,22,23,312,41*79
2017-12-29 14:46:09 1514576769.664247: $GPGSV,3,3,12,25,41,085,51,31,62,229,47,32,66,042,50,138,38,213,42*48
2017-12-29 14:46:09 1514576769.776074: $GPZDA,194610.00,29,12,2017,00,00*61
2017-12-29 14:46:09 1514576769.776214: $GPGGA,194610,3946.9565,N,08404.9804,W,2,12,0.80,310.24,M,-33.324,M,,*75
2017-12-29 14:46:09 1514576769.776279: $GPRMC,194610,A,3946.9565,N,08404.9804,W,0.0000,0.000,291217,,*30
2017-12-29 14:46:09 1514576769.776340: $GPGSA,A,3,1,26,10,11,12,14,18,22,25,31,32,138,1.7,0.8,1.3*3B
2017-12-29 14:46:10 1514576770.325714: $GPZDA,194611.00,29,12,2017,00,00*60
2017-12-29 14:46:10 1514576770.325872: $GPGGA,194611,3946.9565,N,08404.9804,W,2,12,0.80,310.24,M,-33.324,M,,*74
2017-12-29 14:46:10 1514576770.325938: $GPRMC,194611,A,3946.9565,N,08404.9804,W,0.0000,0.000,291217,,*31
2017-12-29 14:46:10 1514576770.325998: $GPGSA,A,3,1,26,10,11,12,14,18,22,25,31,32,138,1.7,0.8,1.3*3B
2017-12-29 14:46:11 1514576771.327904: $GPZDA,194612.00,29,12,2017,00,00*63
2017-12-29 14:46:11 1514576771.328075: $GPGGA,194612,3946.9565,N,08404.9804,W,2,12,0.80,310.24,M,-33.324,M,,*77
2017-12-29 14:46:11 1514576771.328142: $GPRMC,194612,A,3946.9565,N,08404.9804,W,0.0000,0.000,291217,,*32
2017-12-29 14:46:11 1514576771.328203: $GPGSA,A,3,1,26,10,11,12,14,18,22,25,31,32,138,1.7,0.8,1.3*3B
2017-12-29 14:46:12 1514576772.666879: $GPGSV,3,1,12,01,22,295,39,26,07,181,26,10,43,150,50,11,07,279,36*7B
2017-12-29 14:46:12 1514576772.667104: $GPGSV,3,2,12,12,20,046,45,14,68,336,43,18,13,145,41,22,23,312,41*79
2017-12-29 14:46:12 1514576772.667175: $GPGSV,3,3,12,25,41,085,51,31,62,229,47,32,66,042,50,138,38,213,44*4E
2017-12-29 14:46:12 1514576772.780207: $GPZDA,194613.00,29,12,2017,00,00*62
2017-12-29 14:46:12 1514576772.780379: $GPGGA,194613,3946.9565,N,08404.9804,W,2,12,0.80,310.24,M,-33.324,M,,*76
2017-12-29 14:46:12 1514576772.780444: $GPRMC,194613,A,3946.9565,N,08404.9804,W,0.0000,0.000,291217,,*33
2017-12-29 14:46:12 1514576772.780505: $GPGSA,A,3,1,26,10,11,12,14,18,22,25,31,32,138,1.7,0.8,1.3*3B
2017-12-29 14:46:13 1514576773.327311: $GPZDA,194614.00,29,12,2017,00,00*65
2017-12-29 14:46:13 1514576773.327483: $GPGGA,194614,3946.9565,N,08404.9804,W,2,12,0.80,310.24,M,-33.324,M,,*71
2017-12-29 14:46:13 1514576773.327549: $GPRMC,194614,A,3946.9565,N,08404.9804,W,0.0000,0.000,291217,,*34
2017-12-29 14:46:13 1514576773.327609: $GPGSA,A,3,1,26,10,11,12,14,18,22,25,31,32,138,1.7,0.8,1.3*3B
2017-12-29 14:46:14 1514576774.329494: $GPZDA,194615.00,29,12,2017,00,00*64
2017-12-29 14:46:14 1514576774.329663: $GPGGA,194615,3946.9565,N,08404.9804,W,2,12,0.80,310.24,M,-33.324,M,,*70
2017-12-29 14:46:14 1514576774.329728: $GPRMC,194615,A,3946.9565,N,08404.9804,W,0.0000,0.000,291217,,*35
2017-12-29 14:46:14 1514576774.329788: $GPGSA,A,3,1,26,10,11,12,14,18,22,25,31,32,138,1.7,0.8,1.3*3B
