2017-12-01 14:21:30 1512156090.816661: {"class":"VERSION","release":"3.16","rev":"3.16-4","proto_major":3,"proto_minor":11}
2017-12-01 14:21:30 1512156090.817088: {"class":"DEVICES","devices":[{"class":"DEVICE","path":"/dev/ttyUSB0","driver":"SiRF","subtype":"9\u0006GSD4e_4.1.2-P1_RPATCH.05-F-GPS-4R-1510281 11/03/2015 307","activated":"2017-12-01T19:21:30.717Z","flags":1,"native":1,"bps":4800,"parity":"N","stopbits":1,"cycle":1.00}]}
2017-12-01 14:21:30 1512156090.817230: {"class":"WATCH","enable":true,"json":false,"nmea":true,"raw":0,"scaled":false,"timing":false,"split24":false,"pps":false}
2017-12-01 14:21:31 1512156091.400412: $GPZDA,192132.00,01,12,2017,00,00*6A
2017-12-01 14:21:31 1512156091.400578: $GPGGA,192132,3946.9566,N,08404.9837,W,2,12,0.80,307.03,M,-33.324,M,,*74
2017-12-01 14:21:31 1512156091.400645: $GPRMC,192132,A,3946.9566,N,08404.9837,W,0.0000,0.000,011217,,*38
2017-12-01 14:21:31 1512156091.400708: $GPGSA,A,3,8,10,14,18,21,24,32,12,15,20,27,138,2.0,0.8,1.5*37
2017-12-01 14:21:32 1512156092.736160: $GPGSV,3,1,12,08,06,294,32,10,68,330,48,14,28,252,40,18,71,091,45*73
2017-12-01 14:21:32 1512156092.736348: $GPGSV,3,2,12,21,29,178,47,24,45,060,50,32,45,265,46,12,09,108,27*7F
2017-12-01 14:21:32 1512156092.736415: $GPGSV,3,3,12,15,12,066,34,20,09,117,30,27,07,261,26,138,38,213,47*44
2017-12-01 14:21:32 1512156092.849509: $GPZDA,192133.00,01,12,2017,00,00*6B
2017-12-01 14:21:32 1512156092.849689: $GPGGA,192133,3946.9566,N,08404.9837,W,2,12,0.80,307.03,M,-33.324,M,,*75
2017-12-01 14:21:32 1512156092.849756: $GPRMC,192133,A,3946.9566,N,08404.9837,W,0.0000,0.000,011217,,*39
2017-12-01 14:21:32 1512156092.849818: $GPGSA,A,3,8,10,14,18,21,24,32,12,15,20,27,138,2.0,0.8,1.5*37
2017-12-01 14:21:33 1512156093.395400: $GPZDA,192134.00,01,12,2017,00,00*6C
2017-12-01 14:21:33 1512156093.395591: $GPGGA,192134,3946.9566,N,08404.9837,W,2,12,1.20,307.03,M,-33.324,M,,*79
2017-12-01 14:21:33 1512156093.395662: $GPRMC,192134,A,3946.9566,N,08404.9837,W,0.0000,0.000,011217,,*3E
2017-12-01 14:21:33 1512156093.395725: $GPGSA,A,3,8,10,14,18,21,24,32,12,15,20,27,138,2.0,1.2,1.5*3C
2017-12-01 14:21:34 1512156094.391277: $GPZDA,192135.00,01,12,2017,00,00*6D
2017-12-01 14:21:34 1512156094.391531: $GPGGA,192135,3946.9562,N,08404.9838,W,2,12,0.80,307.80,M,-33.324,M,,*73
2017-12-01 14:21:34 1512156094.391605: $GPRMC,192135,A,3946.9562,N,08404.9838,W,0.1867,180.000,011217,,*35
2017-12-01 14:21:34 1512156094.391668: $GPGSA,A,3,8,10,14,18,21,24,32,12,15,20,27,138,2.0,0.8,1.5*37
2017-12-01 14:21:35 1512156095.729521: $GPGSV,3,1,12,08,06,294,29,10,68,330,48,14,28,252,38,18,71,091,44*77
2017-12-01 14:21:35 1512156095.729708: $GPGSV,3,2,12,21,29,178,46,24,45,060,48,32,45,265,46,12,09,108,27*77
2017-12-01 14:21:35 1512156095.729774: $GPGSV,3,3,12,15,12,066,35,20,09,117,30,27,07,261,28,138,38,213,48*44
2017-12-01 14:21:35 1512156095.842950: $GPZDA,192136.00,01,12,2017,00,00*6E
2017-12-01 14:21:35 1512156095.843133: $GPGGA,192136,3946.9567,N,08404.9838,W,2,12,0.80,308.44,M,-33.324,M,,*72
2017-12-01 14:21:35 1512156095.843203: $GPRMC,192136,A,3946.9567,N,08404.9838,W,0.1567,9.200,011217,,*3C
2017-12-01 14:21:35 1512156095.843264: $GPGSA,A,3,8,10,14,18,21,24,32,12,15,20,27,138,2.0,0.8,1.5*37
2017-12-01 14:21:36 1512156096.468356: $GPZDA,192137.00,01,12,2017,00,00*6F
2017-12-01 14:21:36 1512156096.468535: $GPGGA,192137,3946.9567,N,08404.9838,W,2,12,0.80,308.44,M,-33.324,M,,*73
2017-12-01 14:21:36 1512156096.468620: $GPRMC,192137,A,3946.9567,N,08404.9838,W,0.0000,0.000,011217,,*33
2017-12-01 14:21:36 1512156096.468684: $GPGSA,A,3,8,10,14,18,21,24,32,12,15,20,27,138,2.0,0.8,1.5*37
2017-12-01 14:21:37 1512156097.395847: $GPZDA,192138.00,01,12,2017,00,00*60
2017-12-01 14:21:37 1512156097.396017: $GPGGA,192138,3946.9563,N,08404.9839,W,2,12,0.80,309.20,M,-33.324,M,,*7A
2017-12-01 14:21:37 1512156097.396104: $GPRMC,192138,A,3946.9563,N,08404.9839,W,0.0000,0.000,011217,,*39
2017-12-01 14:21:37 1512156097.396181: $GPGSA,A,3,8,10,14,18,21,24,32,12,15,20,27,138,2.0,0.8,1.5*37
2017-12-01 14:21:38 1512156098.732509: $GPGSV,3,1,12,08,06,294,26,10,68,330,48,14,28,252,39,18,71,091,44*79
2017-12-01 14:21:38 1512156098.732739: $GPGSV,3,2,12,21,29,178,46,24,45,060,49,32,45,265,46,12,09,108,28*79
2017-12-01 14:21:38 1512156098.732808: $GPGSV,3,3,12,15,12,066,35,20,09,117,30,27,07,261,27,138,38,213,46*45
2017-12-01 14:21:38 1512156098.844681: $GPZDA,192139.00,01,12,2017,00,00*61
2017-12-01 14:21:38 1512156098.844851: $GPGGA,192139,3946.9563,N,08404.9839,W,2,12,0.80,309.20,M,-33.324,M,,*7B
2017-12-01 14:21:38 1512156098.844918: $GPRMC,192139,A,3946.9563,N,08404.9839,W,0.0000,0.000,011217,,*38
2017-12-01 14:21:38 1512156098.844979: $GPGSA,A,3,8,10,14,18,21,24,32,12,15,20,27,138,2.0,0.8,1.5*37
2017-12-01 14:21:39 1512156099.401866: $GPZDA,192140.00,01,12,2017,00,00*6F
2017-12-01 14:21:39 1512156099.402058: $GPGGA,192140,3946.9563,N,08404.9839,W,2,12,0.80,309.20,M,-33.324,M,,*75
2017-12-01 14:21:39 1512156099.402124: $GPRMC,192140,A,3946.9563,N,08404.9839,W,0.0000,0.000,011217,,*36
2017-12-01 14:21:39 1512156099.402185: $GPGSA,A,3,8,10,14,18,21,24,32,12,15,20,27,138,2.0,0.8,1.5*37
2017-12-01 14:21:40 1512156100.401448: $GPZDA,192141.00,01,12,2017,00,00*6E
2017-12-01 14:21:40 1512156100.401623: $GPGGA,192141,3946.9563,N,08404.9839,W,2,12,0.80,309.20,M,-33.324,M,,*74
2017-12-01 14:21:40 1512156100.401689: $GPRMC,192141,A,3946.9563,N,08404.9839,W,0.0000,0.000,011217,,*37
2017-12-01 14:21:40 1512156100.401751: $GPGSA,A,3,8,10,14,18,21,24,32,12,15,20,27,138,2.0,0.8,1.5*37
2017-12-01 14:21:41 1512156101.735291: $GPGSV,3,1,12,08,06,294,24,10,68,330,48,14,28,252,39,18,71,091,44*7B
2017-12-01 14:21:41 1512156101.739977: $GPGSV,3,2,12,21,29,178,46,24,45,060,49,32,45,265,45,12,09,108,28*7A
2017-12-01 14:21:41 1512156101.740204: $GPGSV,3,3,12,15,12,066,35,20,09,117,29,27,07,261,27,138,38,213,46*4D
2017-12-01 14:21:41 1512156101.848901: $GPZDA,192142.00,01,12,2017,00,00*6D
2017-12-01 14:21:41 1512156101.849099: $GPGGA,192142,3946.9563,N,08404.9839,W,2,12,0.80,309.20,M,-33.324,M,,*77
2017-12-01 14:21:41 1512156101.849195: $GPRMC,192142,A,3946.9563,N,08404.9839,W,0.0000,0.000,011217,,*34
2017-12-01 14:21:41 1512156101.849258: $GPGSA,A,3,8,10,14,18,21,24,32,12,15,20,27,138,2.0,0.8,1.5*37
2017-12-01 14:21:42 1512156102.395268: $GPZDA,192143.00,01,12,2017,00,00*6C
2017-12-01 14:21:42 1512156102.395620: $GPGGA,192143,3946.9563,N,08404.9839,W,2,12,0.80,309.20,M,-33.324,M,,*76
2017-12-01 14:21:42 1512156102.395863: $GPRMC,192143,A,3946.9563,N,08404.9839,W,0.0000,0.000,011217,,*35
2017-12-01 14:21:42 1512156102.395982: $GPGSA,A,3,8,10,14,18,21,24,32,12,15,20,27,138,2.0,0.8,1.5*37
2017-12-01 14:21:43 1512156103.401915: $GPZDA,192144.00,01,12,2017,00,00*6B
2017-12-01 14:21:43 1512156103.402095: $GPGGA,192144,3946.9563,N,08404.9839,W,2,12,0.80,309.20,M,-33.324,M,,*71
2017-12-01 14:21:43 1512156103.402181: $GPRMC,192144,A,3946.9563,N,08404.9839,W,0.0000,0.000,011217,,*32
2017-12-01 14:21:43 1512156103.402242: $GPGSA,A,3,8,10,14,18,21,24,32,12,15,20,27,138,2.0,0.8,1.5*37
2017-12-01 14:21:44 1512156104.731159: $GPGSV,3,1,12,08,06,294,30,10,68,330,48,14,28,252,40,18,71,091,44*70
2017-12-01 14:21:44 1512156104.731340: $GPGSV,3,2,12,21,29,178,46,24,45,060,49,32,45,265,45,12,09,108,27*75
2017-12-01 14:21:44 1512156104.731472: $GPGSV,3,3,12,15,12,066,35,20,09,117,24,27,07,261,27,138,38,213,47*41
2017-12-01 14:21:44 1512156104.845018: $GPZDA,192145.00,01,12,2017,00,00*6A
2017-12-01 14:21:44 1512156104.845203: $GPGGA,192145,3946.9563,N,08404.9839,W,2,12,0.80,309.20,M,-33.324,M,,*70
2017-12-01 14:21:44 1512156104.845270: $GPRMC,192145,A,3946.9563,N,08404.9839,W,0.0000,0.000,011217,,*33
2017-12-01 14:21:44 1512156104.845332: $GPGSA,A,3,8,10,14,18,21,24,32,12,15,20,27,138,2.0,0.8,1.5*37
2017-12-01 14:21:45 1512156105.399072: $GPZDA,192146.00,01,12,2017,00,00*69
2017-12-01 14:21:45 1512156105.399262: $GPGGA,192146,3946.9563,N,08404.9839,W,2,12,0.80,309.20,M,-33.324,M,,*73
2017-12-01 14:21:45 1512156105.399329: $GPRMC,192146,A,3946.9563,N,08404.9839,W,0.0000,0.000,011217,,*30
2017-12-01 14:21:45 1512156105.399391: $GPGSA,A,3,8,10,14,18,21,24,32,12,15,20,27,138,2.0,0.8,1.5*37
2017-12-01 14:21:46 1512156106.399462: $GPZDA,192147.00,01,12,2017,00,00*68
2017-12-01 14:21:46 1512156106.399651: $GPGGA,192147,3946.9563,N,08404.9839,W,2,12,0.80,309.20,M,-33.324,M,,*72
2017-12-01 14:21:46 1512156106.399718: $GPRMC,192147,A,3946.9563,N,08404.9839,W,0.0000,0.000,011217,,*31
2017-12-01 14:21:46 1512156106.399780: $GPGSA,A,3,8,10,14,18,21,24,32,12,15,20,27,138,2.0,0.8,1.5*37
2017-12-01 14:21:47 1512156107.736466: $GPGSV,3,1,12,08,06,294,28,10,68,330,48,14,28,252,40,18,71,091,44*79
2017-12-01 14:21:47 1512156107.736651: $GPGSV,3,2,12,21,29,178,46,24,45,060,49,32,45,265,45,12,09,108,27*75
2017-12-01 14:21:47 1512156107.736717: $GPGSV,3,3,12,15,12,066,36,20,09,117,26,27,07,261,26,138,38,213,46*40
2017-12-01 14:21:47 1512156107.850106: $GPZDA,192148.00,01,12,2017,00,00*67
2017-12-01 14:21:47 1512156107.850286: $GPGGA,192148,3946.9563,N,08404.9839,W,2,12,0.80,309.20,M,-33.324,M,,*7D
2017-12-01 14:21:47 1512156107.850352: $GPRMC,192148,A,3946.9563,N,08404.9839,W,0.0000,0.000,011217,,*3E
2017-12-01 14:21:47 1512156107.850413: $GPGSA,A,3,8,10,14,18,21,24,32,12,15,20,27,138,2.0,0.8,1.5*37
2017-12-01 14:21:48 1512156108.395856: $GPZDA,192149.00,01,12,2017,00,00*66
2017-12-01 14:21:48 1512156108.396083: $GPGGA,192149,3946.9563,N,08404.9839,W,2,12,0.80,309.20,M,-33.324,M,,*7C
2017-12-01 14:21:48 1512156108.396172: $GPRMC,192149,A,3946.9563,N,08404.9839,W,0.0000,0.000,011217,,*3F
2017-12-01 14:21:48 1512156108.396234: $GPGSA,A,3,8,10,14,18,21,24,32,12,15,20,27,138,2.0,0.8,1.5*37
2017-12-01 14:21:49 1512156109.400347: $GPZDA,192150.00,01,12,2017,00,00*6E
2017-12-01 14:21:49 1512156109.400517: $GPGGA,192150,3946.9563,N,08404.9839,W,2,12,0.80,309.20,M,-33.324,M,,*74
2017-12-01 14:21:49 1512156109.400583: $GPRMC,192150,A,3946.9563,N,08404.9839,W,0.0000,0.000,011217,,*37
2017-12-01 14:21:49 1512156109.400644: $GPGSA,A,3,8,10,14,18,21,24,32,12,15,20,27,138,2.0,0.8,1.5*37
2017-12-01 14:21:50 1512156110.729865: $GPGSV,3,1,12,08,06,294,28,10,68,330,48,14,28,252,41,18,71,091,44*78
2017-12-01 14:21:50 1512156110.730026: $GPGSV,3,2,12,21,29,178,46,24,45,060,49,32,45,265,45,12,09,108,22*70
2017-12-01 14:21:50 1512156110.730110: $GPGSV,3,3,12,15,12,066,36,20,09,117,26,27,07,261,27,138,38,213,46*41
2017-12-01 14:21:50 1512156110.842578: $GPZDA,192151.00,01,12,2017,00,00*6F
2017-12-01 14:21:50 1512156110.842760: $GPGGA,192151,3946.9563,N,08404.9839,W,2,12,0.80,309.20,M,-33.324,M,,*75
2017-12-01 14:21:50 1512156110.842826: $GPRMC,192151,A,3946.9563,N,08404.9839,W,0.0000,0.000,011217,,*36
2017-12-01 14:21:50 1512156110.842888: $GPGSA,A,3,8,10,14,18,21,24,32,12,15,20,27,138,2.0,0.8,1.5*37
