2018-01-11 20:29:25 1515720565.358011: {"class":"VERSION","release":"3.16","rev":"3.16-4","proto_major":3,"proto_minor":11}
2018-01-11 20:29:25 1515720565.358372: {"class":"DEVICES","devices":[{"class":"DEVICE","path":"/dev/ttyUSB0","driver":"SiRF","subtype":"9\u0006GSD4e_4.1.2-P1_RPATCH.05-F-GPS-4R-1510281 11/03/2015 307","activated":"2018-01-12T01:29:25.314Z","flags":1,"native":1,"bps":4800,"parity":"N","stopbits":1,"cycle":1.00}]}
2018-01-11 20:29:25 1515720565.358487: {"class":"WATCH","enable":true,"json":false,"nmea":true,"raw":0,"scaled":false,"timing":false,"split24":false,"pps":false}
2018-01-11 20:29:26 1515720566.124815: $GPZDA,012926.44,12,01,2018,00,00*61
2018-01-11 20:29:26 1515720566.124980: $GPGGA,012926,3946.9603,N,08404.9792,W,1,11,0.80,294.05,M,-33.324,M,,*7D
2018-01-11 20:29:26 1515720566.125046: $GPRMC,012926,A,3946.9603,N,08404.9792,W,0.0407,322.013,120118,,*31
2018-01-11 20:29:26 1515720566.125107: $GPGSA,A,3,7,8,9,11,23,27,28,30,16,1,138,,4.0,0.8,3.5*0F
2018-01-11 20:29:26 1515720566.125164: $GPGBS,012926,14.62,M,24.83,M,80.38,M*0F
2018-01-11 20:29:27 1515720567.244821: $GPGSV,3,1,11,07,64,316,43,08,75,094,47,09,41,220,44,11,28,165,46*7F
2018-01-11 20:29:27 1515720567.244988: $GPGSV,3,2,11,16,17,066,35,23,20,187,49,27,40,048,51,28,20,265,36*7A
2018-01-11 20:29:27 1515720567.245053: $GPGSV,3,3,11,30,36,309,39,01,05,159,04,138,38,213,26*77
2018-01-11 20:29:27 1515720567.358230: $GPZDA,012927.00,12,01,2018,00,00*60
2018-01-11 20:29:27 1515720567.358405: $GPGGA,012927,3946.9600,N,08404.9799,W,1,10,0.80,294.73,M,-33.324,M,,*74
2018-01-11 20:29:27 1515720567.358471: $GPRMC,012927,A,3946.9600,N,08404.9799,W,0.2422,93.794,120118,,*0C
2018-01-11 20:29:27 1515720567.358533: $GPGSA,A,3,7,8,9,11,16,23,27,28,30,138,,,4.0,0.8,3.5*3E
2018-01-11 20:29:27 1515720567.809074: $GPZDA,012928.00,12,01,2018,00,00*6F
2018-01-11 20:29:27 1515720567.813187: $GPGGA,012928,3946.9601,N,08404.9800,W,1,10,0.80,296.14,M,-33.324,M,,*76
2018-01-11 20:29:27 1515720567.813288: $GPRMC,012928,A,3946.9601,N,08404.9800,W,0.0000,0.000,120118,,*3B
2018-01-11 20:29:27 1515720567.813354: $GPGSA,A,3,7,8,9,11,16,23,27,28,30,138,,,4.0,0.8,3.5*3E
2018-01-11 20:29:28 1515720568.352481: $GPZDA,012929.00,12,01,2018,00,00*6E
2018-01-11 20:29:28 1515720568.352631: $GPGGA,012929,3946.9601,N,08404.9807,W,1,10,0.80,296.06,M,-33.324,M,,*73
2018-01-11 20:29:28 1515720568.352696: $GPRMC,012929,A,3946.9601,N,08404.9807,W,0.0000,0.000,120118,,*3D
2018-01-11 20:29:28 1515720568.352755: $GPGSA,A,3,7,8,9,11,16,23,27,28,30,138,,,4.0,0.8,3.5*3E
2018-01-11 20:29:29 1515720569.687660: $GPGSV,3,1,11,07,64,316,44,08,75,094,47,09,41,220,44,11,28,165,47*79
2018-01-11 20:29:29 1515720569.687827: $GPGSV,3,2,11,16,17,066,35,23,20,187,50,27,40,048,51,28,20,265,37*73
2018-01-11 20:29:29 1515720569.687892: $GPGSV,3,3,11,30,36,309,39,01,05,159,21,138,38,213,46*76
2018-01-11 20:29:29 1515720569.801044: $GPZDA,012930.00,12,01,2018,00,00*66
2018-01-11 20:29:29 1515720569.801153: $GPGGA,012930,3946.9598,N,08404.9808,W,1,11,0.80,296.82,M,-33.324,M,,*7A
2018-01-11 20:29:29 1515720569.801217: $GPRMC,012930,A,3946.9598,N,08404.9808,W,0.0000,0.000,120118,,*39
2018-01-11 20:29:29 1515720569.801276: $GPGSA,A,3,7,8,9,11,16,23,27,28,30,1,138,,4.0,0.8,3.5*0F
2018-01-11 20:29:30 1515720570.353471: $GPZDA,012931.00,12,01,2018,00,00*67
2018-01-11 20:29:30 1515720570.353604: $GPGGA,012931,3946.9594,N,08404.9808,W,1,11,0.80,297.58,M,-33.324,M,,*71
2018-01-11 20:29:30 1515720570.353667: $GPRMC,012931,A,3946.9594,N,08404.9808,W,0.0000,0.000,120118,,*34
2018-01-11 20:29:30 1515720570.353727: $GPGSA,A,3,7,8,9,11,16,23,27,28,30,1,138,,4.0,0.8,3.5*0F
2018-01-11 20:29:31 1515720571.354262: $GPZDA,012932.00,12,01,2018,00,00*64
2018-01-11 20:29:31 1515720571.354421: $GPGGA,012932,3946.9595,N,08404.9815,W,1,11,0.80,297.51,M,-33.324,M,,*76
2018-01-11 20:29:31 1515720571.354487: $GPRMC,012932,A,3946.9595,N,08404.9815,W,0.0000,0.000,120118,,*3A
2018-01-11 20:29:31 1515720571.354548: $GPGSA,A,3,7,8,9,11,16,23,27,28,30,1,138,,4.0,0.8,3.5*0F
2018-01-11 20:29:31 1515720571.354606: $GPGBS,012932,14.62,M,24.83,M,80.38,M*0A
2018-01-11 20:29:32 1515720572.688378: $GPGSV,3,1,11,07,64,316,43,08,75,094,47,09,41,220,43,11,28,165,47*79
2018-01-11 20:29:32 1515720572.688547: $GPGSV,3,2,11,16,17,066,35,23,20,187,50,27,40,048,51,28,20,265,37*73
2018-01-11 20:29:32 1515720572.688610: $GPGSV,3,3,11,30,36,309,39,01,05,159,20,138,38,213,45*74
2018-01-11 20:29:32 1515720572.801714: $GPZDA,012933.00,12,01,2018,00,00*65
2018-01-11 20:29:32 1515720572.801843: $GPGGA,012933,3946.9595,N,08404.9816,W,1,11,0.80,298.91,M,-33.324,M,,*77
2018-01-11 20:29:32 1515720572.801906: $GPRMC,012933,A,3946.9595,N,08404.9816,W,0.0000,0.000,120118,,*38
2018-01-11 20:29:32 1515720572.801965: $GPGSA,A,3,7,8,9,11,16,23,27,28,30,1,138,,4.0,0.8,3.5*0F
2018-01-11 20:29:33 1515720573.352620: $GPZDA,012934.00,12,01,2018,00,00*62
2018-01-11 20:29:33 1515720573.352782: $GPGGA,012934,3946.9592,N,08404.9817,W,1,11,0.80,299.67,M,-33.324,M,,*7E
2018-01-11 20:29:33 1515720573.352847: $GPRMC,012934,A,3946.9592,N,08404.9817,W,0.3423,184.197,120118,,*3D
2018-01-11 20:29:33 1515720573.352907: $GPGSA,A,3,7,8,9,11,16,23,27,28,30,1,138,,4.0,0.8,3.5*0F
2018-01-11 20:29:34 1515720574.352986: $GPZDA,012935.00,12,01,2018,00,00*63
2018-01-11 20:29:34 1515720574.353126: $GPGGA,012935,3946.9592,N,08404.9824,W,1,11,0.80,299.59,M,-33.324,M,,*72
2018-01-11 20:29:34 1515720574.353190: $GPRMC,012935,A,3946.9592,N,08404.9824,W,0.0000,0.000,120118,,*38
2018-01-11 20:29:34 1515720574.353250: $GPGSA,A,3,7,8,9,11,16,23,27,28,30,1,138,,4.0,0.8,3.5*0F
2018-01-11 20:29:35 1515720575.687451: $GPGSV,3,1,11,07,64,316,43,08,75,094,46,09,41,220,42,11,28,165,46*78
2018-01-11 20:29:35 1515720575.687631: $GPGSV,3,2,11,16,17,066,34,23,20,187,49,27,40,048,50,28,20,265,36*7A
2018-01-11 20:29:35 1515720575.687696: $GPGSV,3,3,11,30,36,309,37,01,05,159,02,138,38,213,46*79
2018-01-11 20:29:35 1515720575.800779: $GPZDA,012936.00,12,01,2018,00,00*60
2018-01-11 20:29:35 1515720575.800895: $GPGGA,012936,3946.9589,N,08404.9825,W,1,11,0.80,300.36,M,-33.324,M,,*72
2018-01-11 20:29:35 1515720575.800959: $GPRMC,012936,A,3946.9589,N,08404.9825,W,0.0000,0.000,120118,,*30
2018-01-11 20:29:35 1515720575.801019: $GPGSA,A,3,7,8,9,11,16,23,27,28,30,1,138,,4.0,0.8,3.5*0F
2018-01-11 20:29:36 1515720576.351943: $GPZDA,012937.00,12,01,2018,00,00*61
2018-01-11 20:29:36 1515720576.352065: $GPGGA,012937,3946.9589,N,08404.9825,W,1,11,0.80,300.36,M,-33.324,M,,*73
2018-01-11 20:29:36 1515720576.352128: $GPRMC,012937,A,3946.9589,N,08404.9825,W,0.0000,0.000,120118,,*31
2018-01-11 20:29:36 1515720576.352187: $GPGSA,A,3,7,8,9,11,16,23,27,28,30,1,138,,4.0,0.8,3.5*0F
2018-01-11 20:29:37 1515720577.354128: $GPZDA,012938.00,12,01,2018,00,00*6E
2018-01-11 20:29:37 1515720577.354275: $GPGGA,012938,3946.9585,N,08404.9825,W,1,11,0.80,301.12,M,-33.324,M,,*77
2018-01-11 20:29:37 1515720577.354337: $GPRMC,012938,A,3946.9585,N,08404.9825,W,0.0000,0.000,120118,,*32
2018-01-11 20:29:37 1515720577.354396: $GPGSA,A,3,7,8,9,11,16,23,27,28,30,1,138,,4.0,0.8,3.5*0F
