2017-12-14 12:39:51 1513273191.822705: {"class":"VERSION","release":"3.16","rev":"3.16-4","proto_major":3,"proto_minor":11}
2017-12-14 12:39:51 1513273191.823061: {"class":"DEVICES","devices":[{"class":"DEVICE","path":"/dev/ttyUSB0","driver":"SiRF","subtype":"9\u0006GSD4e_4.1.2-P1_RPATCH.05-F-GPS-4R-1510281 11/03/2015 307","activated":"2017-12-14T17:39:51.314Z","flags":1,"native":1,"bps":4800,"parity":"N","stopbits":1,"cycle":1.00}]}
2017-12-14 12:39:51 1513273191.823176: {"class":"WATCH","enable":true,"json":false,"nmea":true,"raw":0,"scaled":false,"timing":false,"split24":false,"pps":false}
2017-12-14 12:39:52 1513273192.156730: $GPZDA,173953.00,14,12,2017,00,00*6E
2017-12-14 12:39:52 1513273192.156899: $GPGGA,173953,3946.9505,N,08404.9426,W,1,07,1.80,317.39,M,-33.324,M,,*73
2017-12-14 12:39:52 1513273192.156964: $GPRMC,173953,A,3946.9505,N,08404.9426,W,0.7246,164.668,141217,,*39
2017-12-14 12:39:52 1513273192.157025: $GPGSA,A,3,24,10,21,20,32,15,27,,,,,,6.6,1.8,6.2*39
2017-12-14 12:39:53 1513273193.510199: $GPGSV,3,1,11,24,53,094,15,10,49,309,24,21,53,183,24,18,76,006,04*71
2017-12-14 12:39:53 1513273193.510376: $GPGSV,3,2,11,20,27,103,19,32,29,244,11,15,29,055,10,27,17,280,13*78
2017-12-14 12:39:53 1513273193.510442: $GPGSV,3,3,11,14,11,237,10,08,08,315,00,120,07,103,00*7A
2017-12-14 12:39:53 1513273193.623586: $GPZDA,173954.00,14,12,2017,00,00*69
2017-12-14 12:39:53 1513273193.623762: $GPGGA,173954,3946.9502,N,08404.9427,W,1,07,1.80,318.15,M,-33.324,M,,*73
2017-12-14 12:39:53 1513273193.623830: $GPRMC,173954,A,3946.9502,N,08404.9427,W,0.9060,167.792,141217,,*37
2017-12-14 12:39:53 1513273193.623909: $GPGSA,A,3,24,10,21,20,32,15,27,,,,,,6.6,1.8,6.2*39
2017-12-14 12:39:54 1513273194.174540: $GPZDA,173955.00,14,12,2017,00,00*68
2017-12-14 12:39:54 1513273194.174710: $GPGGA,173955,3946.9502,N,08404.9427,W,1,07,1.80,318.15,M,-33.324,M,,*72
2017-12-14 12:39:54 1513273194.174779: $GPRMC,173955,A,3946.9502,N,08404.9427,W,0.3423,184.197,141217,,*31
2017-12-14 12:39:54 1513273194.174840: $GPGSA,A,3,24,10,21,20,32,15,27,,,,,,6.6,1.8,6.2*39
2017-12-14 12:39:55 1513273195.157117: $GPZDA,173956.00,14,12,2017,00,00*6B
2017-12-14 12:39:55 1513273195.157295: $GPGGA,173956,3946.9502,N,08404.9427,W,1,07,1.80,318.15,M,-33.324,M,,*71
2017-12-14 12:39:55 1513273195.157361: $GPRMC,173956,A,3946.9502,N,08404.9427,W,0.2422,93.795,141217,,*01
2017-12-14 12:39:55 1513273195.157425: $GPGSA,A,3,24,10,21,20,32,15,27,,,,,,6.6,1.8,6.2*39
2017-12-14 12:39:56 1513273196.508328: $GPGSV,3,1,11,24,53,094,16,10,49,309,24,21,53,183,24,18,76,006,00*76
2017-12-14 12:39:56 1513273196.508526: $GPGSV,3,2,11,20,27,103,19,32,29,244,11,15,29,055,10,27,17,280,14*7F
2017-12-14 12:39:56 1513273196.508594: $GPGSV,3,3,11,14,11,237,12,08,08,315,00,120,07,103,00*78
2017-12-14 12:39:56 1513273196.621759: $GPZDA,173957.00,14,12,2017,00,00*6A
2017-12-14 12:39:56 1513273196.621913: $GPGGA,173957,3946.9494,N,08404.9427,W,1,07,1.80,318.28,M,-33.324,M,,*70
2017-12-14 12:39:56 1513273196.621979: $GPRMC,173957,A,3946.9494,N,08404.9427,W,0.2422,93.795,141217,,*0E
2017-12-14 12:39:56 1513273196.622042: $GPGSA,A,3,24,10,21,20,32,15,27,,,,,,6.6,1.8,6.2*39
2017-12-14 12:39:57 1513273197.170595: $GPZDA,173958.00,14,12,2017,00,00*65
2017-12-14 12:39:57 1513273197.170763: $GPGGA,173958,3946.9498,N,08404.9427,W,1,07,2.60,318.92,M,-33.324,M,,*7F
2017-12-14 12:39:57 1513273197.170830: $GPRMC,173958,A,3946.9498,N,08404.9427,W,0.4207,39.347,141217,,*01
2017-12-14 12:39:57 1513273197.170893: $GPGSA,A,3,24,10,21,20,32,15,27,,,,,,6.6,2.6,6.2*34
2017-12-14 12:39:58 1513273198.169460: $GPZDA,173959.00,14,12,2017,00,00*64
2017-12-14 12:39:58 1513273198.169642: $GPGGA,173959,3946.9498,N,08404.9420,W,1,07,2.60,319.00,M,-33.324,M,,*73
2017-12-14 12:39:58 1513273198.169711: $GPRMC,173959,A,3946.9498,N,08404.9420,W,0.8414,39.347,141217,,*0F
2017-12-14 12:39:58 1513273198.169773: $GPGSA,A,3,24,10,21,20,32,15,27,,,,,,6.6,2.6,6.2*34
2017-12-14 12:39:59 1513273199.506423: $GPGSV,3,1,11,24,53,094,16,10,49,309,24,21,53,183,25,18,76,006,00*77
2017-12-14 12:39:59 1513273199.506605: $GPGSV,3,2,11,20,27,103,20,32,29,244,10,15,29,055,04,27,17,280,07*73
2017-12-14 12:39:59 1513273199.506727: $GPGSV,3,3,11,14,11,237,00,08,08,315,00,120,07,103,00*7B
2017-12-14 12:39:59 1513273199.619766: $GPZDA,174000.00,14,12,2017,00,00*66
2017-12-14 12:39:59 1513273199.619893: $GPGGA,174000,3946.9501,N,08404.9420,W,1,06,2.60,318.23,M,-33.324,M,,*71
2017-12-14 12:39:59 1513273199.619958: $GPRMC,174000,A,3946.9501,N,08404.9420,W,1.4115,34.536,141217,,*08
2017-12-14 12:39:59 1513273199.620020: $GPGSA,A,3,24,10,21,20,32,27,,,,,,,6.6,2.6,6.2*30
2017-12-14 12:40:00 1513273200.154189: $GPZDA,174001.00,14,12,2017,00,00*67
2017-12-14 12:40:00 1513273200.154396: $GPGGA,174001,3946.9506,N,08404.9420,W,1,06,2.60,318.87,M,-33.324,M,,*79
2017-12-14 12:40:00 1513273200.154466: $GPRMC,174001,A,3946.9506,N,08404.9420,W,1.5738,12.547,141217,,*04
2017-12-14 12:40:00 1513273200.154527: $GPGSA,A,3,24,10,21,20,32,27,,,,,,,6.6,2.6,6.2*30
2017-12-14 12:40:01 1513273201.169105: $GPZDA,174002.00,14,12,2017,00,00*64
2017-12-14 12:40:01 1513273201.169287: $GPGGA,174002,3946.9506,N,08404.9420,W,1,06,2.60,318.87,M,-33.324,M,,*7A
2017-12-14 12:40:01 1513273201.169354: $GPRMC,174002,A,3946.9506,N,08404.9420,W,1.2381,352.270,141217,,*32
2017-12-14 12:40:01 1513273201.169415: $GPGSA,A,3,24,10,21,20,32,27,,,,,,,6.6,2.6,6.2*30
2017-12-14 12:40:02 1513273202.506301: $GPGSV,3,1,11,24,53,094,16,10,49,309,24,21,53,183,25,18,76,006,02*75
2017-12-14 12:40:02 1513273202.506467: $GPGSV,3,2,11,20,27,103,20,32,29,244,11,15,29,055,16,27,17,280,05*73
2017-12-14 12:40:02 1513273202.506534: $GPGSV,3,3,11,14,11,237,00,08,08,315,00,120,07,103,00*7B
2017-12-14 12:40:02 1513273202.619714: $GPZDA,174003.00,14,12,2017,00,00*65
2017-12-14 12:40:02 1513273202.619891: $GPGGA,174003,3946.9513,N,08404.9419,W,1,05,2.60,318.75,M,-33.324,M,,*7B
2017-12-14 12:40:02 1513273202.619958: $GPRMC,174003,A,3946.9513,N,08404.9419,W,1.5555,3.694,141217,,*3C
2017-12-14 12:40:02 1513273202.620019: $GPGSA,A,3,24,10,21,20,32,,,,,,,,6.6,2.6,6.2*35
2017-12-14 12:40:03 1513273203.169804: $GPZDA,174004.00,14,12,2017,00,00*62
2017-12-14 12:40:03 1513273203.169996: $GPGGA,174004,3946.9513,N,08404.9419,W,1,05,2.60,318.75,M,-33.324,M,,*7C
2017-12-14 12:40:03 1513273203.170065: $GPRMC,174004,A,3946.9513,N,08404.9419,W,1.5738,12.547,141217,,*0F
2017-12-14 12:40:03 1513273203.170127: $GPGSA,A,3,24,10,21,20,32,,,,,,,,6.6,2.6,6.2*35
2017-12-14 12:40:04 1513273204.152007: $GPZDA,174005.00,14,12,2017,00,00*63
2017-12-14 12:40:04 1513273204.152229: $GPGGA,174005,3946.9517,N,08404.9419,W,1,05,2.60,319.39,M,-33.324,M,,*70
2017-12-14 12:40:04 1513273204.152297: $GPRMC,174005,A,3946.9517,N,08404.9419,W,1.2361,14.852,141217,,*0A
2017-12-14 12:40:04 1513273204.152358: $GPGSA,A,3,24,10,21,20,32,,,,,,,,6.6,2.6,6.2*35
2017-12-14 12:40:05 1513273205.488219: $GPGSV,3,1,11,24,53,094,16,10,49,309,24,21,53,183,25,18,76,006,09*7E
2017-12-14 12:40:05 1513273205.488400: $GPGSV,3,2,11,20,27,103,20,32,29,244,12,15,29,055,00,27,17,280,04*76
2017-12-14 12:40:05 1513273205.488466: $GPGSV,3,3,11,14,11,237,00,08,08,315,00,120,07,103,00*7B
2017-12-14 12:40:05 1513273205.601839: $GPZDA,174006.00,14,12,2017,00,00*60
2017-12-14 12:40:05 1513273205.601978: $GPGGA,174006,3946.9521,N,08404.9418,W,1,05,2.60,318.62,M,-33.324,M,,*78
2017-12-14 12:40:05 1513273205.602044: $GPRMC,174006,A,3946.9521,N,08404.9418,W,0.8414,39.347,141217,,*03
2017-12-14 12:40:05 1513273205.602164: $GPGSA,A,3,24,10,21,20,32,,,,,,,,6.6,2.6,6.2*35
2017-12-14 12:40:06 1513273206.153286: $GPZDA,174007.00,14,12,2017,00,00*61
2017-12-14 12:40:06 1513273206.153454: $GPGGA,174007,3946.9517,N,08404.9412,W,1,05,2.60,319.47,M,-33.324,M,,*70
2017-12-14 12:40:06 1513273206.153520: $GPRMC,174007,A,3946.9517,N,08404.9412,W,0.7267,93.795,141217,,*0B
2017-12-14 12:40:06 1513273206.153581: $GPGSA,A,3,24,10,21,20,32,,,,,,,,6.6,2.6,6.2*35
2017-12-14 12:40:07 1513273207.158349: $GPZDA,174008.00,14,12,2017,00,00*6E
2017-12-14 12:40:07 1513273207.158513: $GPGGA,174008,3946.9517,N,08404.9412,W,1,05,2.00,319.47,M,-33.324,M,,*79
2017-12-14 12:40:07 1513273207.158579: $GPRMC,174008,A,3946.9517,N,08404.9412,W,0.2422,93.795,141217,,*06
2017-12-14 12:40:07 1513273207.158687: $GPGSA,A,3,24,10,21,20,32,,,,,,,,6.6,2.0,6.2*33
2017-12-14 12:40:08 1513273208.493088: $GPGSV,3,1,11,24,53,094,17,10,49,309,24,21,53,183,25,18,76,006,11*76
2017-12-14 12:40:08 1513273208.493267: $GPGSV,3,2,11,20,27,103,21,32,29,244,14,14,11,237,11,27,17,280,14*7C
2017-12-14 12:40:08 1513273208.493332: $GPGSV,3,3,11,15,29,055,00,08,08,315,00,120,07,103,00*77
2017-12-14 12:40:08 1513273208.606730: $GPZDA,174009.00,14,12,2017,00,00*6F
2017-12-14 12:40:08 1513273208.606885: $GPGGA,174009,3946.9517,N,08404.9412,W,1,07,2.00,319.47,M,-33.324,M,,*7A
2017-12-14 12:40:08 1513273208.606950: $GPRMC,174009,A,3946.9517,N,08404.9412,W,0.4179,148.778,141217,,*3E
2017-12-14 12:40:08 1513273208.607011: $GPGSA,A,3,24,10,21,18,20,32,27,,,,,,6.6,2.0,6.2*3F
2017-12-14 12:40:09 1513273209.156120: $GPZDA,174010.00,14,12,2017,00,00*67
2017-12-14 12:40:09 1513273209.156293: $GPGGA,174010,3946.9517,N,08404.9412,W,1,07,2.00,319.47,M,-33.324,M,,*72
2017-12-14 12:40:09 1513273209.156361: $GPRMC,174010,A,3946.9517,N,08404.9412,W,0.7246,164.668,141217,,*34
2017-12-14 12:40:09 1513273209.156422: $GPGSA,A,3,24,10,21,18,20,32,27,,,,,,6.6,2.0,6.2*3F
2017-12-14 12:40:10 1513273210.157484: $GPZDA,174011.00,14,12,2017,00,00*66
2017-12-14 12:40:10 1513273210.157640: $GPGGA,174011,3946.9513,N,08404.9412,W,1,07,2.00,318.83,M,-33.324,M,,*7E
2017-12-14 12:40:10 1513273210.157706: $GPRMC,174011,A,3946.9513,N,08404.9412,W,0.9060,167.792,141217,,*3E
2017-12-14 12:40:10 1513273210.157766: $GPGSA,A,3,24,10,21,18,20,32,27,,,,,,6.6,2.0,6.2*3F
2017-12-14 12:40:11 1513273211.494963: $GPGSV,3,1,11,24,53,094,17,10,49,309,24,21,53,183,25,18,76,006,14*73
2017-12-14 12:40:11 1513273211.495152: $GPGSV,3,2,11,20,27,103,21,32,29,244,16,14,11,237,11,27,17,280,14*7E
2017-12-14 12:40:11 1513273211.495218: $GPGSV,3,3,11,15,29,055,07,08,08,315,00,120,07,103,00*70
2017-12-14 12:40:11 1513273211.608327: $GPZDA,174012.00,14,12,2017,00,00*65
2017-12-14 12:40:11 1513273211.608502: $GPGGA,174012,3946.9509,N,08404.9406,W,1,07,2.00,319.67,M,-33.324,M,,*78
2017-12-14 12:40:11 1513273211.608570: $GPRMC,174012,A,3946.9509,N,08404.9406,W,1.0002,154.331,141217,,*32
2017-12-14 12:40:11 1513273211.608631: $GPGSA,A,3,24,10,21,18,20,32,27,,,,,,6.6,2.0,6.2*3F
