2017-11-15 18:40:55 1510789255.192527: {"class":"VERSION","release":"3.17","rev":"3.17","proto_major":3,"proto_minor":12}
2017-11-15 18:40:55 1510789255.192967: {"class":"DEVICES","devices":[{"class":"DEVICE","path":"/dev/ttyUSB0","driver":"SiRF","subtype":"9\u0006GSD4e_4.1.2-P1_RPATCH.05-F-GPS-4R-1510281 11/03/2015 307","activated":"2017-11-15T23:40:55.185Z","flags":1,"native":1,"bps":4800,"parity":"N","stopbits":1,"cycle":1.00}]}
2017-11-15 18:40:55 1510789255.193077: {"class":"WATCH","enable":true,"json":false,"nmea":true,"raw":0,"scaled":false,"timing":false,"split24":false,"pps":false}
2017-11-15 18:40:55 1510789255.363926: $GPZDA,234054.00,15,11,2017,00,00*62
2017-11-15 18:40:55 1510789255.364129: $GPGGA,234054,3946.9504,N,08404.9732,W,1,09,1.00,311.34,M,-33.324,M,,*77
2017-11-15 18:40:55 1510789255.364194: $GPRMC,234054,A,3946.9504,N,08404.9732,W,1.0018,230.691,151117,,*39
2017-11-15 18:40:55 1510789255.364253: $GPGSA,A,3,25,14,32,31,1,29,10,26,22,,,,3.4,1.0,2.9*01
2017-11-15 18:40:56 1510789256.329244: $GPZDA,234055.00,15,11,2017,00,00*63
2017-11-15 18:40:57 1510789257.213146: $GPGGA,234055,3946.9504,N,08404.9732,W,1,09,1.00,311.34,M,-33.324,M,,*76
2017-11-15 18:40:57 1510789257.213288: $GPRMC,234055,A,3946.9504,N,08404.9732,W,1.0018,230.691,151117,,*38
2017-11-15 18:40:57 1510789257.213351: $GPGSA,A,3,25,14,32,31,1,29,10,26,22,,,,3.4,1.0,2.9*01
2017-11-15 18:40:57 1510789257.665007: $GPGSV,3,1,11,25,33,054,18,14,68,049,14,16,01,190,09,32,53,084,25*7C
2017-11-15 18:40:57 1510789257.665184: $GPGSV,3,2,11,31,79,298,22,01,17,271,12,29,01,090,16,10,18,157,16*7F
2017-11-15 18:40:57 1510789257.665247: $GPGSV,3,3,11,26,29,178,08,22,41,300,24,03,23,315,00*45
2017-11-15 18:40:57 1510789257.778365: $GPZDA,234056.00,15,11,2017,00,00*60
2017-11-15 18:40:57 1510789257.778533: $GPGGA,234056,3946.9500,N,08404.9732,W,1,09,1.00,310.70,M,-33.324,M,,*70
2017-11-15 18:40:57 1510789257.778597: $GPRMC,234056,A,3946.9500,N,08404.9732,W,0.5951,238.684,151117,,*33
2017-11-15 18:40:57 1510789257.778656: $GPGSA,A,3,25,14,32,31,1,29,10,26,22,,,,3.4,1.0,2.9*01
2017-11-15 18:40:58 1510789258.330509: $GPZDA,234057.00,15,11,2017,00,00*61
2017-11-15 18:40:58 1510789258.330676: $GPGGA,234057,3946.9497,N,08404.9733,W,1,09,1.00,311.47,M,-33.324,M,,*7A
2017-11-15 18:40:58 1510789258.330741: $GPRMC,234057,A,3946.9497,N,08404.9733,W,0.4207,219.347,151117,,*3C
2017-11-15 18:40:58 1510789258.330817: $GPGSA,A,3,25,14,32,31,1,29,10,26,22,,,,3.4,1.0,2.9*01
2017-11-15 18:40:59 1510789259.363838: $GPZDA,234058.00,15,11,2017,00,00*6E
2017-11-15 18:40:59 1510789259.364002: $GPGGA,234058,3946.9497,N,08404.9733,W,1,09,1.20,311.47,M,-33.324,M,,*77
2017-11-15 18:40:59 1510789259.364067: $GPRMC,234058,A,3946.9497,N,08404.9733,W,0.4207,219.347,151117,,*33
2017-11-15 18:40:59 1510789259.364125: $GPGSA,A,3,25,14,32,31,1,29,10,26,22,,,,3.4,1.2,2.9*03
2017-11-15 18:41:00 1510789260.665882: $GPGSV,3,1,11,25,33,054,18,14,68,049,14,03,23,315,00,32,53,084,25*7E
2017-11-15 18:41:00 1510789260.666070: $GPGSV,3,2,11,31,79,298,22,01,17,271,12,29,01,090,16,10,18,157,16*7F
2017-11-15 18:41:00 1510789260.666133: $GPGSV,3,3,11,26,29,178,07,22,41,300,24,12,04,031,00*4A
2017-11-15 18:41:00 1510789260.779225: $GPZDA,234059.00,15,11,2017,00,00*6F
2017-11-15 18:41:00 1510789260.779388: $GPGGA,234059,3946.9497,N,08404.9740,W,1,09,1.20,311.39,M,-33.324,M,,*7B
2017-11-15 18:41:00 1510789260.779453: $GPRMC,234059,A,3946.9497,N,08404.9740,W,0.8054,248.645,151117,,*3D
2017-11-15 18:41:00 1510789260.779512: $GPGSA,A,3,25,14,32,31,1,29,10,26,22,,,,3.4,1.2,2.9*03
2017-11-15 18:41:01 1510789261.404559: $GPZDA,234100.00,15,11,2017,00,00*62
2017-11-15 18:41:01 1510789261.408579: $GPGGA,234100,3946.9493,N,08404.9740,W,1,09,1.20,310.75,M,-33.324,M,,*7B
2017-11-15 18:41:01 1510789261.408684: $GPRMC,234100,A,3946.9493,N,08404.9740,W,1.0018,230.691,151117,,*33
2017-11-15 18:41:01 1510789261.408744: $GPGSA,A,3,25,14,32,31,1,29,10,26,22,,,,3.4,1.2,2.9*03
2017-11-15 18:41:02 1510789262.364416: $GPZDA,234101.00,15,11,2017,00,00*63
2017-11-15 18:41:02 1510789262.364599: $GPGGA,234101,3946.9489,N,08404.9741,W,1,09,1.20,311.51,M,-33.324,M,,*77
2017-11-15 18:41:02 1510789262.364728: $GPRMC,234101,A,3946.9489,N,08404.9741,W,0.8414,219.347,151117,,*3C
2017-11-15 18:41:02 1510789262.364788: $GPGSA,A,3,25,14,32,31,1,29,10,26,22,,,,3.4,1.2,2.9*03
2017-11-15 18:41:03 1510789263.700016: $GPGSV,3,1,11,25,33,054,18,14,68,049,13,03,23,315,00,32,53,084,24*78
2017-11-15 18:41:03 1510789263.700189: $GPGSV,3,2,11,31,79,298,22,01,17,271,12,29,01,090,16,10,18,157,16*7F
2017-11-15 18:41:03 1510789263.700249: $GPGSV,3,3,11,26,29,178,07,22,41,300,24,12,04,031,00*4A
2017-11-15 18:41:03 1510789263.813281: $GPZDA,234102.00,15,11,2017,00,00*60
2017-11-15 18:41:03 1510789263.813447: $GPGGA,234102,3946.9489,N,08404.9741,W,1,09,1.20,311.51,M,-33.324,M,,*74
2017-11-15 18:41:03 1510789263.813509: $GPRMC,234102,A,3946.9489,N,08404.9741,W,0.5857,158.291,151117,,*35
2017-11-15 18:41:03 1510789263.813566: $GPGSA,A,3,25,14,32,31,1,29,10,26,22,,,,3.4,1.2,2.9*03
2017-11-15 18:41:04 1510789264.364195: $GPZDA,234103.00,15,11,2017,00,00*61
2017-11-15 18:41:04 1510789264.364363: $GPGGA,234103,3946.9485,N,08404.9741,W,1,09,1.20,310.87,M,-33.324,M,,*73
2017-11-15 18:41:04 1510789264.364425: $GPRMC,234103,A,3946.9485,N,08404.9741,W,0.8709,183.298,151117,,*3E
2017-11-15 18:41:04 1510789264.364480: $GPGSA,A,3,25,14,32,31,1,29,10,26,22,,,,3.4,1.2,2.9*03
2017-11-15 18:41:05 1510789265.330436: $GPZDA,234104.00,15,11,2017,00,00*66
2017-11-15 18:41:05 1510789265.330623: $GPGGA,234104,3946.9482,N,08404.9741,W,1,09,1.20,311.64,M,-33.324,M,,*7F
2017-11-15 18:41:05 1510789265.330690: $GPRMC,234104,A,3946.9482,N,08404.9741,W,0.8709,183.298,151117,,*3E
2017-11-15 18:41:05 1510789265.330748: $GPGSA,A,3,25,14,32,31,1,29,10,26,22,,,,3.4,1.2,2.9*03
2017-11-15 18:41:06 1510789266.669105: $GPGSV,3,1,11,25,33,054,17,14,68,049,13,16,01,190,02,32,53,084,24*7E
2017-11-15 18:41:06 1510789266.669287: $GPGSV,3,2,11,31,79,298,22,01,17,271,12,29,01,090,15,10,18,157,16*7C
2017-11-15 18:41:06 1510789266.669349: $GPGSV,3,3,11,26,29,178,08,22,41,300,24,03,23,315,00*45
2017-11-15 18:41:06 1510789266.782328: $GPZDA,234105.00,15,11,2017,00,00*67
2017-11-15 18:41:06 1510789266.782458: $GPGGA,234105,3946.9482,N,08404.9748,W,1,09,1.00,311.56,M,-33.324,M,,*74
2017-11-15 18:41:06 1510789266.782521: $GPRMC,234105,A,3946.9482,N,08404.9748,W,0.5951,238.684,151117,,*32
2017-11-15 18:41:06 1510789266.782579: $GPGSA,A,3,25,14,32,31,1,29,10,26,22,,,,3.4,1.0,2.9*01
2017-11-15 18:41:07 1510789267.330773: $GPZDA,234106.00,15,11,2017,00,00*64
2017-11-15 18:41:07 1510789267.330959: $GPGGA,234106,3946.9478,N,08404.9748,W,1,09,1.00,310.92,M,-33.324,M,,*7B
2017-11-15 18:41:07 1510789267.331025: $GPRMC,234106,A,3946.9478,N,08404.9748,W,0.4207,219.347,151117,,*34
2017-11-15 18:41:07 1510789267.331084: $GPGSA,A,3,25,14,32,31,1,29,10,26,22,,,,3.4,1.0,2.9*01
2017-11-15 18:41:08 1510789268.364150: $GPZDA,234107.00,15,11,2017,00,00*65
2017-11-15 18:41:08 1510789268.364318: $GPGGA,234107,3946.9475,N,08404.9749,W,1,09,1.00,311.68,M,-33.324,M,,*72
2017-11-15 18:41:08 1510789268.364382: $GPRMC,234107,A,3946.9475,N,08404.9749,W,0.8414,219.347,151117,,*31
2017-11-15 18:41:08 1510789268.364440: $GPGSA,A,3,25,14,32,31,1,29,10,26,22,,,,3.4,1.0,2.9*01
2017-11-15 18:41:09 1510789269.664968: $GPGSV,3,1,11,25,33,054,17,14,68,049,13,03,23,315,00,32,53,084,24*77
2017-11-15 18:41:09 1510789269.665145: $GPGSV,3,2,11,31,79,298,23,01,17,271,13,29,01,090,14,10,18,157,16*7D
2017-11-15 18:41:09 1510789269.665209: $GPGSV,3,3,11,26,29,178,10,22,41,300,24,12,04,031,00*4C
2017-11-15 18:41:09 1510789269.778525: $GPZDA,234108.00,15,11,2017,00,00*6A
2017-11-15 18:41:09 1510789269.778677: $GPGGA,234108,3946.9475,N,08404.9756,W,1,09,1.00,311.60,M,-33.324,M,,*7B
2017-11-15 18:41:09 1510789269.778748: $GPRMC,234108,A,3946.9475,N,08404.9756,W,1.3255,251.714,151117,,*37
2017-11-15 18:41:09 1510789269.778826: $GPGSA,A,3,25,14,32,31,1,29,10,26,22,,,,3.4,1.0,2.9*01
