2017-12-31 18:56:15 1514764575.039365: {"class":"VERSION","release":"3.16","rev":"3.16-4","proto_major":3,"proto_minor":11}
2017-12-31 18:56:15 1514764575.039698: {"class":"DEVICES","devices":[{"class":"DEVICE","path":"/dev/ttyUSB0","driver":"SiRF","activated":"2017-12-31T23:56:14.662Z","flags":1,"native":1,"bps":4800,"parity":"N","stopbits":1,"cycle":1.00}]}
2017-12-31 18:56:15 1514764575.039799: {"class":"WATCH","enable":true,"json":false,"nmea":true,"raw":0,"scaled":false,"timing":false,"split24":false,"pps":false}
2017-12-31 18:56:15 1514764575.688733: $GPGSV,3,1,11,22,06,202,20,23,69,274,37,09,38,309,35,03,16,219,34*73
2017-12-31 18:56:15 1514764575.688919: $GPGSV,3,2,11,16,74,036,44,08,18,175,43,31,15,090,29,27,42,141,39*75
2017-12-31 18:56:15 1514764575.688987: $GPGSV,3,3,11,07,12,286,43,26,42,048,47,135,22,240,42*7C
2017-12-31 18:56:15 1514764575.802329: $GPZDA,235616.00,31,12,2017,00,00*66
2017-12-31 18:56:15 1514764575.802461: $GPGGA,235616,3946.9582,N,08404.9824,W,2,11,0.80,311.16,M,-33.324,M,,*73
2017-12-31 18:56:15 1514764575.802528: $GPRMC,235616,A,3946.9582,N,08404.9824,W,0.0000,0.000,311217,,*3C
2017-12-31 18:56:15 1514764575.802590: $GPGSA,A,3,22,23,9,3,16,8,31,27,7,26,135,,1.7,0.8,1.3*09
2017-12-31 18:56:16 1514764576.353257: $GPZDA,235617.00,31,12,2017,00,00*67
2017-12-31 18:56:16 1514764576.353420: $GPGGA,235617,3946.9582,N,08404.9824,W,2,11,0.80,311.16,M,-33.324,M,,*72
2017-12-31 18:56:16 1514764576.353486: $GPRMC,235617,A,3946.9582,N,08404.9824,W,0.0000,0.000,311217,,*3D
2017-12-31 18:56:16 1514764576.353547: $GPGSA,A,3,22,23,9,3,16,8,31,27,7,26,135,,1.7,0.8,1.3*09
2017-12-31 18:56:17 1514764577.352857: $GPZDA,235618.00,31,12,2017,00,00*68
2017-12-31 18:56:17 1514764577.353019: $GPGGA,235618,3946.9582,N,08404.9824,W,2,11,0.80,311.16,M,-33.324,M,,*7D
2017-12-31 18:56:17 1514764577.353086: $GPRMC,235618,A,3946.9582,N,08404.9824,W,0.0000,0.000,311217,,*32
2017-12-31 18:56:17 1514764577.353148: $GPGSA,A,3,22,23,9,3,16,8,31,27,7,26,135,,1.7,0.8,1.3*09
2017-12-31 18:56:18 1514764578.689539: $GPGSV,3,1,11,22,06,202,21,23,69,274,38,09,38,309,33,03,16,219,34*7B
2017-12-31 18:56:18 1514764578.689716: $GPGSV,3,2,11,16,74,036,44,08,18,175,43,31,15,090,33,27,42,141,40*70
2017-12-31 18:56:18 1514764578.689784: $GPGSV,3,3,11,07,12,286,44,26,42,048,47,135,22,240,43*7A
2017-12-31 18:56:18 1514764578.802866: $GPZDA,235619.00,31,12,2017,00,00*69
2017-12-31 18:56:18 1514764578.802993: $GPGGA,235619,3946.9579,N,08404.9825,W,2,11,0.80,311.92,M,-33.324,M,,*75
2017-12-31 18:56:18 1514764578.803059: $GPRMC,235619,A,3946.9579,N,08404.9825,W,0.0000,0.000,311217,,*36
2017-12-31 18:56:18 1514764578.803122: $GPGSA,A,3,22,23,9,3,16,8,31,27,7,26,135,,1.7,0.8,1.3*09
2017-12-31 18:56:19 1514764579.347827: $GPZDA,235620.00,31,12,2017,00,00*63
2017-12-31 18:56:19 1514764579.347990: $GPGGA,235620,3946.9579,N,08404.9825,W,2,11,0.80,311.92,M,-33.324,M,,*7F
2017-12-31 18:56:19 1514764579.348055: $GPRMC,235620,A,3946.9579,N,08404.9825,W,0.0000,0.000,311217,,*3C
2017-12-31 18:56:19 1514764579.348117: $GPGSA,A,3,22,23,9,3,16,8,31,27,7,26,135,,1.7,0.8,1.3*09
2017-12-31 18:56:20 1514764580.346912: $GPZDA,235621.00,31,12,2017,00,00*62
2017-12-31 18:56:20 1514764580.347070: $GPGGA,235621,3946.9579,N,08404.9825,W,2,11,0.80,311.92,M,-33.324,M,,*7E
2017-12-31 18:56:20 1514764580.347193: $GPRMC,235621,A,3946.9579,N,08404.9825,W,0.0000,0.000,311217,,*3D
2017-12-31 18:56:20 1514764580.347257: $GPGSA,A,3,22,23,9,3,16,8,31,27,7,26,135,,1.7,0.8,1.3*09
2017-12-31 18:56:21 1514764581.688639: $GPGSV,3,1,11,22,06,202,22,23,69,274,38,09,38,309,30,03,16,219,34*7B
2017-12-31 18:56:21 1514764581.688828: $GPGSV,3,2,11,16,74,036,44,08,18,175,43,31,15,090,33,27,42,141,39*7E
2017-12-31 18:56:21 1514764581.688894: $GPGSV,3,3,11,07,12,286,45,26,42,048,47,135,22,240,44*7C
2017-12-31 18:56:21 1514764581.802228: $GPZDA,235622.00,31,12,2017,00,00*61
2017-12-31 18:56:21 1514764581.802362: $GPGGA,235622,3946.9579,N,08404.9825,W,2,11,0.80,311.92,M,-33.324,M,,*7D
2017-12-31 18:56:21 1514764581.802429: $GPRMC,235622,A,3946.9579,N,08404.9825,W,0.0000,0.000,311217,,*3E
2017-12-31 18:56:21 1514764581.802544: $GPGSA,A,3,22,23,9,3,16,8,31,27,7,26,135,,1.7,0.8,1.3*09
2017-12-31 18:56:22 1514764582.354380: $GPZDA,235623.00,31,12,2017,00,00*60
2017-12-31 18:56:22 1514764582.354542: $GPGGA,235623,3946.9579,N,08404.9825,W,2,11,0.80,311.92,M,-33.324,M,,*7C
2017-12-31 18:56:22 1514764582.354608: $GPRMC,235623,A,3946.9579,N,08404.9825,W,0.0000,0.000,311217,,*3F
2017-12-31 18:56:22 1514764582.354670: $GPGSA,A,3,22,23,9,3,16,8,31,27,7,26,135,,1.7,0.8,1.3*09
2017-12-31 18:56:23 1514764583.352745: $GPZDA,235624.00,31,12,2017,00,00*67
2017-12-31 18:56:23 1514764583.352932: $GPGGA,235624,3946.9579,N,08404.9825,W,2,11,0.80,311.92,M,-33.324,M,,*7B
2017-12-31 18:56:23 1514764583.352999: $GPRMC,235624,A,3946.9579,N,08404.9825,W,0.0000,0.000,311217,,*38
2017-12-31 18:56:23 1514764583.353061: $GPGSA,A,3,22,23,9,3,16,8,31,27,7,26,135,,1.7,0.8,1.3*09
2017-12-31 18:56:24 1514764584.688318: $GPGSV,3,1,11,22,06,202,23,23,69,274,33,09,38,309,37,03,16,219,34*76
2017-12-31 18:56:24 1514764584.688500: $GPGSV,3,2,11,16,74,036,44,08,18,175,43,31,15,090,32,27,42,141,40*71
2017-12-31 18:56:24 1514764584.688567: $GPGSV,3,3,11,07,12,286,46,26,42,048,47,135,22,240,44*7F
2017-12-31 18:56:24 1514764584.801923: $GPZDA,235625.00,31,12,2017,00,00*66
2017-12-31 18:56:24 1514764584.802059: $GPGGA,235625,3946.9579,N,08404.9825,W,2,11,0.80,311.92,M,-33.324,M,,*7A
2017-12-31 18:56:24 1514764584.802125: $GPRMC,235625,A,3946.9579,N,08404.9825,W,0.0000,0.000,311217,,*39
2017-12-31 18:56:24 1514764584.802187: $GPGSA,A,3,22,23,9,3,16,8,31,27,7,26,135,,1.7,0.8,1.3*09
