2018-01-12 04:15:37 1515748537.455661: {"class":"VERSION","release":"3.16","rev":"3.16-4","proto_major":3,"proto_minor":11}
2018-01-12 04:15:37 1515748537.456024: {"class":"DEVICES","devices":[{"class":"DEVICE","path":"/dev/ttyUSB0","driver":"SiRF","subtype":"9\u0006GSD4e_4.1.2-P1_RPATCH.05-F-GPS-4R-1510281 11/03/2015 307","activated":"2018-01-12T09:15:37.435Z","flags":1,"native":1,"bps":4800,"parity":"N","stopbits":1,"cycle":1.00}]}
2018-01-12 04:15:37 1515748537.456139: {"class":"WATCH","enable":true,"json":false,"nmea":true,"raw":0,"scaled":false,"timing":false,"split24":false,"pps":false}
2018-01-12 04:15:38 1515748538.394722: $GPZDA,091539.00,12,01,2018,00,00*68
2018-01-12 04:15:38 1515748538.394893: $GPGGA,091539,3946.9660,N,08404.9721,W,2,10,1.00,301.63,M,-33.324,M,,*7F
2018-01-12 04:15:38 1515748538.394959: $GPRMC,091539,A,3946.9660,N,08404.9721,W,0.0000,0.000,120118,,*37
2018-01-12 04:15:38 1515748538.395020: $GPGSA,A,3,2,5,6,12,25,29,9,23,19,138,,,2.4,1.0,2.1*02
2018-01-12 04:15:39 1515748539.736269: $GPGSV,3,1,12,02,71,336,45,05,46,198,49,06,49,051,47,12,53,256,48*75
2018-01-12 04:15:39 1515748539.736468: $GPGSV,3,2,12,25,31,304,44,29,09,306,48,09,19,070,23,23,06,039,04*7C
2018-01-12 04:15:39 1515748539.736535: $GPGSV,3,3,12,19,34,112,23,17,16,118,00,04,52,280,00,138,38,213,48*4B
2018-01-12 04:15:39 1515748539.849951: $GPZDA,091540.00,12,01,2018,00,00*66
2018-01-12 04:15:39 1515748539.850104: $GPGGA,091540,3946.9660,N,08404.9721,W,2,09,1.00,301.63,M,-33.324,M,,*79
2018-01-12 04:15:39 1515748539.850171: $GPRMC,091540,A,3946.9660,N,08404.9721,W,0.0000,0.000,120118,,*39
2018-01-12 04:15:39 1515748539.850231: $GPGSA,A,3,2,5,6,12,25,29,9,19,138,,,,2.4,1.0,2.1*03
2018-01-12 04:15:40 1515748540.398042: $GPZDA,091541.00,12,01,2018,00,00*67
2018-01-12 04:15:40 1515748540.398221: $GPGGA,091541,3946.9660,N,08404.9721,W,2,09,1.00,301.63,M,-33.324,M,,*78
2018-01-12 04:15:40 1515748540.398287: $GPRMC,091541,A,3946.9660,N,08404.9721,W,0.0000,0.000,120118,,*38
2018-01-12 04:15:40 1515748540.398365: $GPGSA,A,3,2,5,6,12,25,29,9,19,138,,,,2.4,1.0,2.1*03
2018-01-12 04:15:41 1515748541.397717: $GPZDA,091542.00,12,01,2018,00,00*64
2018-01-12 04:15:41 1515748541.397890: $GPGGA,091542,3946.9660,N,08404.9721,W,2,09,1.00,301.63,M,-33.324,M,,*7B
2018-01-12 04:15:41 1515748541.397957: $GPRMC,091542,A,3946.9660,N,08404.9721,W,0.0000,0.000,120118,,*3B
2018-01-12 04:15:41 1515748541.398018: $GPGSA,A,3,2,5,6,12,25,29,9,19,138,,,,2.4,1.0,2.1*03
2018-01-12 04:15:42 1515748542.730790: $GPGSV,3,1,12,02,71,336,44,05,46,198,49,06,49,051,47,12,53,256,48*74
2018-01-12 04:15:42 1515748542.730948: $GPGSV,3,2,12,25,31,304,44,29,09,306,48,09,19,070,23,23,06,039,21*7B
2018-01-12 04:15:42 1515748542.731014: $GPGSV,3,3,12,19,34,112,17,17,16,118,00,04,52,280,00,138,38,213,47*43
2018-01-12 04:15:42 1515748542.844337: $GPZDA,091543.00,12,01,2018,00,00*65
2018-01-12 04:15:42 1515748542.844522: $GPGGA,091543,3946.9660,N,08404.9721,W,2,10,1.00,301.63,M,-33.324,M,,*72
2018-01-12 04:15:42 1515748542.844590: $GPRMC,091543,A,3946.9660,N,08404.9721,W,0.0000,0.000,120118,,*3A
2018-01-12 04:15:42 1515748542.844650: $GPGSA,A,3,2,5,6,12,25,29,9,23,19,138,,,2.4,1.0,2.1*02
2018-01-12 04:15:43 1515748543.469871: $GPZDA,091544.00,12,01,2018,00,00*62
2018-01-12 04:15:43 1515748543.470049: $GPGGA,091544,3946.9660,N,08404.9721,W,2,10,0.80,301.63,M,-33.324,M,,*7C
2018-01-12 04:15:43 1515748543.470116: $GPRMC,091544,A,3946.9660,N,08404.9721,W,0.0000,0.000,120118,,*3D
2018-01-12 04:15:43 1515748543.470177: $GPGSA,A,3,2,5,6,12,25,29,9,23,19,138,,,2.4,0.8,2.1*0B
2018-01-12 04:15:44 1515748544.399230: $GPZDA,091545.00,12,01,2018,00,00*63
2018-01-12 04:15:44 1515748544.399414: $GPGGA,091545,3946.9661,N,08404.9728,W,2,10,0.80,301.55,M,-33.324,M,,*70
2018-01-12 04:15:44 1515748544.399482: $GPRMC,091545,A,3946.9661,N,08404.9728,W,0.0000,0.000,120118,,*34
2018-01-12 04:15:44 1515748544.399543: $GPGSA,A,3,2,5,6,12,25,29,9,23,19,138,,,2.4,0.8,2.1*0B
2018-01-12 04:15:45 1515748545.738930: $GPGSV,3,1,12,02,71,336,44,05,46,198,50,06,49,051,47,12,53,256,48*7C
2018-01-12 04:15:45 1515748545.739212: $GPGSV,3,2,12,25,31,304,44,29,09,306,49,09,19,070,23,23,06,039,12*7A
2018-01-12 04:15:45 1515748545.739288: $GPGSV,3,3,12,19,34,112,16,17,16,118,25,04,52,280,00,138,38,213,47*45
2018-01-12 04:15:45 1515748545.852169: $GPZDA,091546.00,12,01,2018,00,00*60
2018-01-12 04:15:45 1515748545.852319: $GPGGA,091546,3946.9661,N,08404.9728,W,2,11,0.80,301.55,M,-33.324,M,,*72
2018-01-12 04:15:45 1515748545.852386: $GPRMC,091546,A,3946.9661,N,08404.9728,W,0.0000,0.000,120118,,*37
2018-01-12 04:15:45 1515748545.852448: $GPGSA,A,3,2,5,6,12,25,29,9,23,19,17,138,,2.4,0.8,2.1*0D
2018-01-12 04:15:46 1515748546.399563: $GPZDA,091547.00,12,01,2018,00,00*61
2018-01-12 04:15:46 1515748546.399739: $GPGGA,091547,3946.9661,N,08404.9728,W,2,11,1.00,301.55,M,-33.324,M,,*7A
2018-01-12 04:15:46 1515748546.399804: $GPRMC,091547,A,3946.9661,N,08404.9728,W,0.0000,0.000,120118,,*36
2018-01-12 04:15:46 1515748546.399867: $GPGSA,A,3,2,5,6,12,25,29,9,23,19,17,138,,2.4,1.0,2.1*04
2018-01-12 04:15:47 1515748547.397768: $GPZDA,091548.00,12,01,2018,00,00*6E
2018-01-12 04:15:47 1515748547.397937: $GPGGA,091548,3946.9661,N,08404.9728,W,2,11,1.00,301.55,M,-33.324,M,,*75
2018-01-12 04:15:47 1515748547.398005: $GPRMC,091548,A,3946.9661,N,08404.9728,W,0.0000,0.000,120118,,*39
2018-01-12 04:15:47 1515748547.398071: $GPGSA,A,3,2,5,6,12,25,29,9,23,19,17,138,,2.4,1.0,2.1*04
2018-01-12 04:15:48 1515748548.736672: $GPGSV,3,1,12,02,71,336,44,05,46,198,50,06,49,051,47,12,53,256,48*7C
2018-01-12 04:15:48 1515748548.736851: $GPGSV,3,2,12,25,31,304,44,29,09,306,48,09,19,070,23,23,06,039,06*7E
2018-01-12 04:15:48 1515748548.736917: $GPGSV,3,3,12,19,34,112,00,17,16,118,26,04,52,280,00,138,38,213,47*41
2018-01-12 04:15:48 1515748548.850283: $GPZDA,091549.00,12,01,2018,00,00*6F
2018-01-12 04:15:48 1515748548.850458: $GPGGA,091549,3946.9661,N,08404.9734,W,2,09,1.00,301.47,M,-33.324,M,,*73
2018-01-12 04:15:48 1515748548.850524: $GPRMC,091549,A,3946.9661,N,08404.9734,W,0.0000,0.000,120118,,*35
2018-01-12 04:15:48 1515748548.850585: $GPGSA,A,3,2,5,6,12,25,29,9,17,138,,,,2.4,1.0,2.1*0D
2018-01-12 04:15:49 1515748549.396135: $GPZDA,091550.00,12,01,2018,00,00*67
2018-01-12 04:15:49 1515748549.396333: $GPGGA,091550,3946.9661,N,08404.9734,W,2,09,1.00,301.47,M,-33.324,M,,*7B
2018-01-12 04:15:49 1515748549.396419: $GPRMC,091550,A,3946.9661,N,08404.9734,W,0.0000,0.000,120118,,*3D
2018-01-12 04:15:49 1515748549.396483: $GPGSA,A,3,2,5,6,12,25,29,9,17,138,,,,2.4,1.0,2.1*0D
2018-01-12 04:15:50 1515748550.397398: $GPZDA,091551.00,12,01,2018,00,00*66
2018-01-12 04:15:50 1515748550.397582: $GPGGA,091551,3946.9661,N,08404.9734,W,2,09,1.00,301.47,M,-33.324,M,,*7A
2018-01-12 04:15:50 1515748550.397651: $GPRMC,091551,A,3946.9661,N,08404.9734,W,0.0000,0.000,120118,,*3C
2018-01-12 04:15:50 1515748550.397717: $GPGSA,A,3,2,5,6,12,25,29,9,17,138,,,,2.4,1.0,2.1*0D
2018-01-12 04:15:51 1515748551.747681: $GPGSV,3,1,12,02,71,336,44,05,46,198,49,06,49,051,47,12,53,256,48*74
2018-01-12 04:15:51 1515748551.747862: $GPGSV,3,2,12,25,31,304,44,29,09,306,48,09,19,070,23,23,06,039,04*7C
2018-01-12 04:15:51 1515748551.747929: $GPGSV,3,3,12,19,34,112,00,17,16,118,27,04,52,280,00,138,38,213,47*40
2018-01-12 04:15:51 1515748551.861269: $GPZDA,091552.00,12,01,2018,00,00*65
2018-01-12 04:15:51 1515748551.861432: $GPGGA,091552,3946.9661,N,08404.9734,W,2,09,1.00,301.47,M,-33.324,M,,*79
2018-01-12 04:15:51 1515748551.861498: $GPRMC,091552,A,3946.9661,N,08404.9734,W,0.0000,0.000,120118,,*3F
2018-01-12 04:15:51 1515748551.861561: $GPGSA,A,3,2,5,6,12,25,29,9,17,138,,,,2.4,1.0,2.1*0D
2018-01-12 04:15:52 1515748552.395918: $GPZDA,091553.00,12,01,2018,00,00*64
2018-01-12 04:15:52 1515748552.396093: $GPGGA,091553,3946.9661,N,08404.9734,W,2,09,1.00,301.47,M,-33.324,M,,*78
2018-01-12 04:15:52 1515748552.396159: $GPRMC,091553,A,3946.9661,N,08404.9734,W,0.1867,0.000,120118,,*36
2018-01-12 04:15:52 1515748552.396225: $GPGSA,A,3,2,5,6,12,25,29,9,17,138,,,,2.4,1.0,2.1*0D
2018-01-12 04:15:53 1515748553.399030: $GPZDA,091554.00,12,01,2018,00,00*63
2018-01-12 04:15:53 1515748553.399227: $GPGGA,091554,3946.9661,N,08404.9734,W,2,09,1.00,301.47,M,-33.324,M,,*7F
2018-01-12 04:15:53 1515748553.399384: $GPRMC,091554,A,3946.9661,N,08404.9734,W,0.0000,0.000,120118,,*39
2018-01-12 04:15:53 1515748553.399465: $GPGSA,A,3,2,5,6,12,25,29,9,17,138,,,,2.4,1.0,2.1*0D
2018-01-12 04:15:54 1515748554.730492: $GPGSV,3,1,12,02,71,336,44,05,46,198,50,06,49,051,47,12,53,256,48*7C
2018-01-12 04:15:54 1515748554.730685: $GPGSV,3,2,12,25,31,304,45,29,09,306,48,09,19,070,07,23,06,039,09*76
2018-01-12 04:15:54 1515748554.730752: $GPGSV,3,3,12,19,34,112,00,17,16,118,00,04,52,280,00,138,38,213,47*45
2018-01-12 04:15:54 1515748554.844112: $GPZDA,091555.00,12,01,2018,00,00*62
2018-01-12 04:15:54 1515748554.844342: $GPGGA,091555,3946.9661,N,08404.9734,W,2,09,1.20,301.47,M,-33.324,M,,*7C
2018-01-12 04:15:54 1515748554.844411: $GPRMC,091555,A,3946.9661,N,08404.9734,W,0.0000,0.000,120118,,*38
2018-01-12 04:15:54 1515748554.844473: $GPGSA,A,3,2,5,6,12,25,29,9,23,138,,,,2.4,1.2,2.1*08
2018-01-12 04:15:55 1515748555.413861: $GPZDA,091556.00,12,01,2018,00,00*61
2018-01-12 04:15:55 1515748555.414032: $GPGGA,091556,3946.9661,N,08404.9734,W,2,09,1.20,301.47,M,-33.324,M,,*7F
2018-01-12 04:15:55 1515748555.414098: $GPRMC,091556,A,3946.9661,N,08404.9734,W,0.0000,0.000,120118,,*3B
2018-01-12 04:15:55 1515748555.414160: $GPGSA,A,3,2,5,6,12,25,29,9,23,138,,,,2.4,1.2,2.1*08
2018-01-12 04:15:56 1515748556.414457: $GPZDA,091557.00,12,01,2018,00,00*60
2018-01-12 04:15:56 1515748556.414638: $GPGGA,091557,3946.9661,N,08404.9734,W,2,09,1.20,301.47,M,-33.324,M,,*7E
2018-01-12 04:15:56 1515748556.414705: $GPRMC,091557,A,3946.9661,N,08404.9734,W,0.0000,0.000,120118,,*3A
2018-01-12 04:15:56 1515748556.414788: $GPGSA,A,3,2,5,6,12,25,29,9,23,138,,,,2.4,1.2,2.1*08
