2017-11-15 19:15:38 1510791338.883778: {"class":"VERSION","release":"3.17","rev":"3.17","proto_major":3,"proto_minor":12}
2017-11-15 19:15:38 1510791338.884291: {"class":"DEVICES","devices":[{"class":"DEVICE","path":"/dev/ttyUSB0","driver":"SiRF","subtype":"9\u0006GSD4e_4.1.2-P1_RPATCH.05-F-GPS-4R-1510281 11/03/2015 307","activated":"2017-11-16T00:15:38.471Z","flags":1,"native":1,"bps":4800,"parity":"N","stopbits":1,"cycle":1.00}]}
2017-11-15 19:15:38 1510791338.884416: {"class":"WATCH","enable":true,"json":false,"nmea":true,"raw":0,"scaled":false,"timing":false,"split24":false,"pps":false}
2017-11-15 19:15:39 1510791339.667138: $GPGSV,3,1,11,32,42,100,16,14,60,081,24,22,49,282,21,26,45,175,19*7E
2017-11-15 19:15:39 1510791339.667319: $GPGSV,3,2,11,31,73,009,22,16,15,190,07,03,35,306,15,01,10,258,10*71
2017-11-15 19:15:39 1510791339.667380: $GPGSV,3,3,11,29,08,078,04,25,23,043,00,23,06,297,00*4B
2017-11-15 19:15:39 1510791339.780542: $GPZDA,001538.00,16,11,2017,00,00*6A
2017-11-15 19:15:39 1510791339.780709: $GPGGA,001538,3946.9682,N,08404.9557,W,1,08,1.40,301.55,M,-33.324,M,,*73
2017-11-15 19:15:39 1510791339.780790: $GPRMC,001538,A,3946.9682,N,08404.9557,W,0.5912,309.173,161117,,*3A
2017-11-15 19:15:39 1510791339.780862: $GPGSA,A,3,32,14,22,26,31,16,3,1,,,,,3.4,1.4,2.9*3C
2017-11-15 19:15:40 1510791340.331258: $GPZDA,001539.00,16,11,2017,00,00*6B
2017-11-15 19:15:40 1510791340.331430: $GPGGA,001539,3946.9682,N,08404.9557,W,1,08,1.40,301.55,M,-33.324,M,,*72
2017-11-15 19:15:40 1510791340.363489: $GPRMC,001539,A,3946.9682,N,08404.9557,W,0.4179,328.778,161117,,*31
2017-11-15 19:15:40 1510791340.363589: $GPGSA,A,3,32,14,22,26,31,16,3,1,,,,,3.4,1.4,2.9*3C
2017-11-15 19:15:41 1510791341.330423: $GPZDA,001540.00,16,11,2017,00,00*65
2017-11-15 19:15:41 1510791341.330586: $GPGGA,001540,3946.9686,N,08404.9557,W,1,08,1.00,302.19,M,-33.324,M,,*77
2017-11-15 19:15:41 1510791341.330646: $GPRMC,001540,A,3946.9686,N,08404.9557,W,0.5951,58.684,161117,,*0E
2017-11-15 19:15:41 1510791341.330702: $GPGSA,A,3,32,14,22,26,31,16,3,1,,,,,3.4,1.0,2.9*38
2017-11-15 19:15:42 1510791342.666222: $GPGSV,3,1,11,32,42,100,15,14,60,081,24,22,49,282,22,26,45,175,19*7E
2017-11-15 19:15:42 1510791342.666394: $GPGSV,3,2,11,31,73,009,22,16,15,190,04,03,35,306,14,01,10,258,11*72
2017-11-15 19:15:42 1510791342.666453: $GPGSV,3,3,11,29,08,078,13,25,23,043,00,23,06,297,00*4D
2017-11-15 19:15:42 1510791342.779514: $GPZDA,001541.00,16,11,2017,00,00*64
2017-11-15 19:15:42 1510791342.779666: $GPGGA,001541,3946.9689,N,08404.9549,W,1,08,1.00,301.50,M,-33.324,M,,*78
2017-11-15 19:15:42 1510791342.779726: $GPRMC,001541,A,3946.9689,N,08404.9549,W,0.7576,81.914,161117,,*06
2017-11-15 19:15:42 1510791342.779781: $GPGSA,A,3,32,14,22,26,31,3,1,29,,,,,3.4,1.0,2.9*34
2017-11-15 19:15:43 1510791343.330412: $GPZDA,001542.00,16,11,2017,00,00*67
2017-11-15 19:15:43 1510791343.330572: $GPGGA,001542,3946.9689,N,08404.9542,W,1,08,1.00,301.58,M,-33.324,M,,*78
2017-11-15 19:15:43 1510791343.330631: $GPRMC,001542,A,3946.9689,N,08404.9542,W,0.9689,93.794,161117,,*06
2017-11-15 19:15:43 1510791343.330687: $GPGSA,A,3,32,14,22,26,31,3,1,29,,,,,3.4,1.0,2.9*34
2017-11-15 19:15:44 1510791344.331298: $GPZDA,001543.00,16,11,2017,00,00*66
2017-11-15 19:15:44 1510791344.331464: $GPGGA,001543,3946.9684,N,08404.9535,W,1,08,1.00,301.02,M,-33.324,M,,*7B
2017-11-15 19:15:44 1510791344.331524: $GPRMC,001543,A,3946.9684,N,08404.9535,W,0.7267,93.794,161117,,*00
2017-11-15 19:15:44 1510791344.331580: $GPGSA,A,3,32,14,22,26,31,3,1,29,,,,,3.4,1.0,2.9*34
2017-11-15 19:15:45 1510791345.667287: $GPGSV,3,1,11,32,42,100,15,14,60,081,24,22,49,282,22,26,45,175,19*7E
2017-11-15 19:15:45 1510791345.667474: $GPGSV,3,2,11,31,73,009,22,16,15,190,09,03,35,306,14,01,10,258,10*7E
2017-11-15 19:15:45 1510791345.667534: $GPGSV,3,3,11,29,08,078,13,25,23,043,00,23,06,297,00*4D
2017-11-15 19:15:45 1510791345.780528: $GPZDA,001544.00,16,11,2017,00,00*61
2017-11-15 19:15:45 1510791345.780685: $GPGGA,001544,3946.9688,N,08404.9535,W,1,09,0.80,301.66,M,-33.324,M,,*7A
2017-11-15 19:15:45 1510791345.780745: $GPRMC,001544,A,3946.9688,N,08404.9535,W,0.5951,58.684,161117,,*00
2017-11-15 19:15:45 1510791345.780850: $GPGSA,A,3,32,14,22,26,31,16,3,1,29,,,,3.4,0.8,2.9*3A
2017-11-15 19:15:46 1510791346.405836: $GPZDA,001545.00,16,11,2017,00,00*60
2017-11-15 19:15:46 1510791346.405998: $GPGGA,001545,3946.9691,N,08404.9527,W,1,09,0.80,300.98,M,-33.324,M,,*70
2017-11-15 19:15:46 1510791346.406059: $GPRMC,001545,A,3946.9691,N,08404.9527,W,1.0567,17.448,161117,,*0E
2017-11-15 19:15:46 1510791346.406115: $GPGSA,A,3,32,14,22,26,31,16,3,1,29,,,,3.4,0.8,2.9*3A
2017-11-15 19:15:47 1510791347.331600: $GPZDA,001546.00,16,11,2017,00,00*63
2017-11-15 19:15:47 1510791347.331777: $GPGGA,001546,3946.9695,N,08404.9527,W,1,09,0.80,300.21,M,-33.324,M,,*75
2017-11-15 19:15:47 1510791347.331837: $GPRMC,001546,A,3946.9695,N,08404.9527,W,1.0567,17.448,161117,,*09
2017-11-15 19:15:47 1510791347.331894: $GPGSA,A,3,32,14,22,26,31,16,3,1,29,,,,3.4,0.8,2.9*3A
2017-11-15 19:15:48 1510791348.667501: $GPGSV,3,1,11,32,42,100,09,14,60,081,25,22,49,282,22,26,45,175,18*73
2017-11-15 19:15:48 1510791348.667691: $GPGSV,3,2,11,31,73,009,22,16,15,190,08,03,35,306,12,01,10,258,08*70
2017-11-15 19:15:48 1510791348.667753: $GPGSV,3,3,11,29,08,078,13,25,23,043,00,23,06,297,00*4D
2017-11-15 19:15:48 1510791348.781006: $GPZDA,001547.00,16,11,2017,00,00*62
2017-11-15 19:15:48 1510791348.781164: $GPGGA,001547,3946.9699,N,08404.9520,W,1,08,1.20,300.93,M,-33.324,M,,*7C
2017-11-15 19:15:48 1510791348.781223: $GPRMC,001547,A,3946.9699,N,08404.9520,W,1.0534,350.904,161117,,*30
2017-11-15 19:15:48 1510791348.781279: $GPGSA,A,3,14,22,26,31,16,3,1,29,,,,,3.4,1.2,2.9*30
