2017-12-14 12:20:10 1513272010.164195: {"class":"VERSION","release":"3.16","rev":"3.16-4","proto_major":3,"proto_minor":11}
2017-12-14 12:20:10 1513272010.164545: {"class":"DEVICES","devices":[{"class":"DEVICE","path":"/dev/ttyUSB0","driver":"SiRF","subtype":"9\u0006GSD4e_4.1.2-P1_RPATCH.05-F-GPS-4R-1510281 11/03/2015 307","activated":"2017-12-14T17:20:09.355Z","flags":1,"native":1,"bps":4800,"parity":"N","stopbits":1,"cycle":1.00}]}
2017-12-14 12:20:10 1513272010.164656: {"class":"WATCH","enable":true,"json":false,"nmea":true,"raw":0,"scaled":false,"timing":false,"split24":false,"pps":false}
2017-12-14 12:20:10 1513272010.199519: $GPZDA,172011.00,14,12,2017,00,00*60
2017-12-14 12:20:10 1513272010.199656: $GPGGA,172011,3946.9482,N,08404.9324,W,1,07,1.40,320.99,M,-33.324,M,,*74
2017-12-14 12:20:10 1513272010.199719: $GPRMC,172011,A,3946.9482,N,08404.9324,W,0.2422,273.795,141217,,*3B
2017-12-14 12:20:10 1513272010.199780: $GPGSA,A,3,15,20,24,32,21,10,18,,,,,,6.6,1.4,6.2*39
2017-12-14 12:20:11 1513272011.551656: $GPGSV,3,1,12,15,37,052,25,20,33,096,19,24,51,109,29,32,22,238,17*72
2017-12-14 12:20:11 1513272011.551813: $GPGSV,3,2,12,21,62,187,18,10,42,301,16,27,19,289,04,14,04,232,03*72
2017-12-14 12:20:11 1513272011.551878: $GPGSV,3,3,12,18,72,339,22,13,07,049,00,08,06,322,00,120,07,103,00*4C
2017-12-14 12:20:11 1513272011.665436: $GPZDA,172012.00,14,12,2017,00,00*63
2017-12-14 12:20:11 1513272011.665615: $GPGGA,172012,3946.9482,N,08404.9331,W,1,07,1.40,320.91,M,-33.324,M,,*7B
2017-12-14 12:20:11 1513272011.665680: $GPRMC,172012,A,3946.9482,N,08404.9331,W,0.3006,242.540,141217,,*37
2017-12-14 12:20:11 1513272011.665741: $GPGSA,A,3,15,20,24,32,21,10,18,,,,,,6.6,1.4,6.2*39
2017-12-14 12:20:12 1513272012.215936: $GPZDA,172013.00,14,12,2017,00,00*62
2017-12-14 12:20:12 1513272012.216113: $GPGGA,172013,3946.9482,N,08404.9331,W,1,07,1.40,320.91,M,-33.324,M,,*7A
2017-12-14 12:20:12 1513272012.216180: $GPRMC,172013,A,3946.9482,N,08404.9331,W,0.2422,273.795,141217,,*3D
2017-12-14 12:20:12 1513272012.216240: $GPGSA,A,3,15,20,24,32,21,10,18,,,,,,6.6,1.4,6.2*39
2017-12-14 12:20:13 1513272013.217394: $GPZDA,172014.00,14,12,2017,00,00*65
2017-12-14 12:20:13 1513272013.217564: $GPGGA,172014,3946.9479,N,08404.9332,W,1,07,1.40,321.68,M,-33.324,M,,*7D
2017-12-14 12:20:13 1513272013.217630: $GPRMC,172014,A,3946.9479,N,08404.9332,W,0.8054,248.645,141217,,*36
2017-12-14 12:20:13 1513272013.217690: $GPGSA,A,3,15,20,24,32,21,10,18,,,,,,6.6,1.4,6.2*39
2017-12-14 12:20:14 1513272014.552405: $GPGSV,3,1,12,15,37,052,25,20,33,096,20,24,51,109,29,32,22,238,17*78
2017-12-14 12:20:14 1513272014.552584: $GPGSV,3,2,12,21,62,187,17,10,42,301,16,27,19,289,04,14,04,232,04*7A
2017-12-14 12:20:14 1513272014.552649: $GPGSV,3,3,12,18,72,339,22,13,07,049,00,08,06,322,00,120,07,103,00*4C
2017-12-14 12:20:14 1513272014.665763: $GPZDA,172015.00,14,12,2017,00,00*64
2017-12-14 12:20:14 1513272014.665916: $GPGGA,172015,3946.9479,N,08404.9339,W,1,07,1.40,321.60,M,-33.324,M,,*7F
2017-12-14 12:20:14 1513272014.665979: $GPRMC,172015,A,3946.9479,N,08404.9339,W,0.8054,248.645,141217,,*3C
2017-12-14 12:20:14 1513272014.666040: $GPGSA,A,3,15,20,24,32,21,10,18,,,,,,6.6,1.4,6.2*39
2017-12-14 12:20:15 1513272015.217031: $GPZDA,172016.00,14,12,2017,00,00*67
2017-12-14 12:20:15 1513272015.217211: $GPGGA,172016,3946.9479,N,08404.9339,W,1,07,1.40,321.60,M,-33.324,M,,*7C
2017-12-14 12:20:15 1513272015.217278: $GPRMC,172016,A,3946.9479,N,08404.9339,W,0.5230,256.444,141217,,*3E
2017-12-14 12:20:15 1513272015.217339: $GPGSA,A,3,15,20,24,32,21,10,18,,,,,,6.6,1.4,6.2*39
2017-12-14 12:20:16 1513272016.216156: $GPZDA,172017.00,14,12,2017,00,00*66
2017-12-14 12:20:16 1513272016.216308: $GPGGA,172017,3946.9476,N,08404.9340,W,1,07,1.40,322.36,M,-33.324,M,,*7C
2017-12-14 12:20:16 1513272016.216372: $GPRMC,172017,A,3946.9476,N,08404.9340,W,0.3423,184.197,141217,,*3B
2017-12-14 12:20:16 1513272016.216432: $GPGSA,A,3,15,20,24,32,21,10,18,,,,,,6.6,1.4,6.2*39
2017-12-14 12:20:17 1513272017.536649: $GPGSV,3,1,12,15,37,052,25,20,33,096,20,24,51,109,29,32,22,238,16*79
2017-12-14 12:20:17 1513272017.536865: $GPGSV,3,2,12,21,62,187,16,10,42,301,16,27,19,289,04,14,04,232,05*7A
2017-12-14 12:20:17 1513272017.536932: $GPGSV,3,3,12,18,72,339,22,13,07,049,00,08,06,322,00,120,07,103,00*4C
2017-12-14 12:20:17 1513272017.650272: $GPZDA,172018.00,14,12,2017,00,00*69
2017-12-14 12:20:17 1513272017.650400: $GPGGA,172018,3946.9476,N,08404.9340,W,1,07,1.40,322.36,M,-33.324,M,,*73
2017-12-14 12:20:17 1513272017.650465: $GPRMC,172018,A,3946.9476,N,08404.9340,W,0.4207,219.347,141217,,*3B
2017-12-14 12:20:17 1513272017.650524: $GPGSA,A,3,15,20,24,32,21,10,18,,,,,,6.6,1.4,6.2*39
2017-12-14 12:20:18 1513272018.217816: $GPZDA,172019.00,14,12,2017,00,00*68
2017-12-14 12:20:18 1513272018.217995: $GPGGA,172019,3946.9476,N,08404.9340,W,1,07,1.40,322.36,M,-33.324,M,,*72
2017-12-14 12:20:18 1513272018.218060: $GPRMC,172019,A,3946.9476,N,08404.9340,W,0.3423,184.197,141217,,*35
2017-12-14 12:20:18 1513272018.218121: $GPGSA,A,3,15,20,24,32,21,10,18,,,,,,6.6,1.4,6.2*39
2017-12-14 12:20:19 1513272019.216503: $GPZDA,172020.00,14,12,2017,00,00*62
2017-12-14 12:20:19 1513272019.216674: $GPGGA,172020,3946.9476,N,08404.9340,W,1,07,1.40,322.36,M,-33.324,M,,*78
2017-12-14 12:20:19 1513272019.216739: $GPRMC,172020,A,3946.9476,N,08404.9340,W,0.5287,182.716,141217,,*38
2017-12-14 12:20:19 1513272019.216799: $GPGSA,A,3,15,20,24,32,21,10,18,,,,,,6.6,1.4,6.2*39
2017-12-14 12:20:20 1513272020.551608: $GPGSV,3,1,12,15,37,052,25,20,33,096,20,24,51,109,28,32,22,238,16*78
2017-12-14 12:20:20 1513272020.551805: $GPGSV,3,2,12,21,62,187,15,10,42,301,16,27,19,289,04,14,04,232,10*7D
2017-12-14 12:20:20 1513272020.551872: $GPGSV,3,3,12,18,72,339,22,13,07,049,00,08,06,322,00,120,07,103,00*4C
2017-12-14 12:20:20 1513272020.664926: $GPZDA,172021.00,14,12,2017,00,00*63
2017-12-14 12:20:20 1513272020.665087: $GPGGA,172021,3946.9468,N,08404.9340,W,1,07,1.40,322.49,M,-33.324,M,,*7E
2017-12-14 12:20:20 1513272020.665150: $GPRMC,172021,A,3946.9468,N,08404.9340,W,0.7278,203.637,141217,,*3C
2017-12-14 12:20:20 1513272020.665210: $GPGSA,A,3,15,20,24,32,21,10,18,,,,,,6.6,1.4,6.2*39
2017-12-14 12:20:21 1513272021.198762: $GPZDA,172022.00,14,12,2017,00,00*60
2017-12-14 12:20:21 1513272021.198924: $GPGGA,172022,3946.9468,N,08404.9340,W,1,07,1.40,322.49,M,-33.324,M,,*7D
2017-12-14 12:20:21 1513272021.198990: $GPRMC,172022,A,3946.9468,N,08404.9340,W,1.0534,170.904,141217,,*3E
2017-12-14 12:20:21 1513272021.199050: $GPGSA,A,3,15,20,24,32,21,10,18,,,,,,6.6,1.4,6.2*39
2017-12-14 12:20:22 1513272022.199649: $GPZDA,172023.00,14,12,2017,00,00*61
2017-12-14 12:20:22 1513272022.199824: $GPGGA,172023,3946.9465,N,08404.9341,W,1,07,1.40,323.25,M,-33.324,M,,*7B
2017-12-14 12:20:22 1513272022.199890: $GPRMC,172023,A,3946.9465,N,08404.9341,W,0.6846,184.197,141217,,*35
2017-12-14 12:20:22 1513272022.199951: $GPGSA,A,3,15,20,24,32,21,10,18,,,,,,6.6,1.4,6.2*39
2017-12-14 12:20:23 1513272023.534630: $GPGSV,3,1,12,15,37,052,25,20,33,096,20,24,51,109,28,32,22,238,16*78
2017-12-14 12:20:23 1513272023.534806: $GPGSV,3,2,12,21,62,187,14,10,42,301,16,27,19,289,04,14,04,232,06*7B
2017-12-14 12:20:23 1513272023.534871: $GPGSV,3,3,12,18,72,339,22,13,07,049,00,08,06,322,00,120,07,103,00*4C
2017-12-14 12:20:23 1513272023.647971: $GPZDA,172024.00,14,12,2017,00,00*66
2017-12-14 12:20:23 1513272023.648097: $GPGGA,172024,3946.9465,N,08404.9341,W,1,08,1.40,323.25,M,-33.324,M,,*73
2017-12-14 12:20:23 1513272023.648160: $GPRMC,172024,A,3946.9465,N,08404.9341,W,0.2422,273.795,141217,,*37
2017-12-14 12:20:23 1513272023.648220: $GPGSA,A,3,15,20,24,32,21,10,14,18,,,,,6.6,1.4,6.2*3C
2017-12-14 12:20:24 1513272024.199917: $GPZDA,172025.00,14,12,2017,00,00*67
2017-12-14 12:20:24 1513272024.200082: $GPGGA,172025,3946.9465,N,08404.9341,W,1,08,1.40,323.25,M,-33.324,M,,*72
2017-12-14 12:20:24 1513272024.200146: $GPRMC,172025,A,3946.9465,N,08404.9341,W,0.2422,273.795,141217,,*36
2017-12-14 12:20:24 1513272024.200206: $GPGSA,A,3,15,20,24,32,21,10,14,18,,,,,6.6,1.4,6.2*3C
2017-12-14 12:20:25 1513272025.200754: $GPZDA,172026.00,14,12,2017,00,00*64
2017-12-14 12:20:25 1513272025.200918: $GPGGA,172026,3946.9465,N,08404.9341,W,1,08,1.40,323.25,M,-33.324,M,,*71
2017-12-14 12:20:25 1513272025.201031: $GPRMC,172026,A,3946.9465,N,08404.9341,W,0.4179,328.779,141217,,*35
2017-12-14 12:20:25 1513272025.201093: $GPGSA,A,3,15,20,24,32,21,10,14,18,,,,,6.6,1.4,6.2*3C
2017-12-14 12:20:26 1513272026.535736: $GPGSV,3,1,12,15,37,052,26,20,33,096,20,24,51,109,28,32,22,238,16*7B
2017-12-14 12:20:26 1513272026.535914: $GPGSV,3,2,12,21,62,187,14,10,42,301,17,27,19,289,04,14,04,232,06*7A
2017-12-14 12:20:26 1513272026.535978: $GPGSV,3,3,12,18,72,339,22,13,07,049,00,08,06,322,00,120,07,103,00*4C
2017-12-14 12:20:26 1513272026.649147: $GPZDA,172027.00,14,12,2017,00,00*65
2017-12-14 12:20:26 1513272026.649328: $GPGGA,172027,3946.9465,N,08404.9341,W,1,07,1.40,323.25,M,-33.324,M,,*7F
2017-12-14 12:20:26 1513272026.649397: $GPRMC,172027,A,3946.9465,N,08404.9341,W,0.3423,4.197,141217,,*32
2017-12-14 12:20:26 1513272026.649457: $GPGSA,A,3,15,20,24,32,21,10,18,,,,,,6.6,1.4,6.2*39
2017-12-14 12:20:27 1513272027.200016: $GPZDA,172028.00,14,12,2017,00,00*6A
2017-12-14 12:20:27 1513272027.872184: $GPGGA,172028,3946.9465,N,08404.9341,W,1,07,1.40,323.25,M,-33.324,M,,*70
2017-12-14 12:20:27 1513272027.872334: $GPRMC,172028,A,3946.9465,N,08404.9341,W,0.2422,93.795,141217,,*07
2017-12-14 12:20:27 1513272027.872397: $GPGSA,A,3,15,20,24,32,21,10,18,,,,,,6.6,1.4,6.2*39
2017-12-14 12:20:28 1513272028.198968: $GPZDA,172029.00,14,12,2017,00,00*6B
2017-12-14 12:20:28 1513272028.199138: $GPGGA,172029,3946.9465,N,08404.9341,W,1,07,1.40,323.25,M,-33.324,M,,*71
2017-12-14 12:20:28 1513272028.199204: $GPRMC,172029,A,3946.9465,N,08404.9341,W,0.2422,93.795,141217,,*06
2017-12-14 12:20:28 1513272028.199263: $GPGSA,A,3,15,20,24,32,21,10,18,,,,,,6.6,1.4,6.2*39
2017-12-14 12:20:29 1513272029.535111: $GPGSV,3,1,12,15,37,052,26,20,33,096,20,24,51,109,28,32,22,238,16*7B
2017-12-14 12:20:29 1513272029.535286: $GPGSV,3,2,12,21,62,187,14,10,42,301,17,27,19,289,00,14,04,232,06*7E
2017-12-14 12:20:29 1513272029.535351: $GPGSV,3,3,12,18,72,339,22,13,07,049,00,08,06,322,00,120,07,103,00*4C
2017-12-14 12:20:29 1513272029.648474: $GPZDA,172030.00,14,12,2017,00,00*63
2017-12-14 12:20:29 1513272029.648615: $GPGGA,172030,3946.9464,N,08404.9334,W,1,08,1.40,323.33,M,-33.324,M,,*72
2017-12-14 12:20:29 1513272029.648679: $GPRMC,172030,A,3946.9464,N,08404.9334,W,0.3423,4.197,141217,,*37
2017-12-14 12:20:29 1513272029.648738: $GPGSA,A,3,15,20,24,32,21,10,14,18,,,,,6.6,1.4,6.2*3C
2017-12-14 12:20:30 1513272030.198556: $GPZDA,172031.00,14,12,2017,00,00*62
2017-12-14 12:20:30 1513272030.198728: $GPGGA,172031,3946.9464,N,08404.9334,W,1,08,1.40,323.33,M,-33.324,M,,*73
2017-12-14 12:20:30 1513272030.198795: $GPRMC,172031,A,3946.9464,N,08404.9334,W,0.0000,0.000,141217,,*3B
2017-12-14 12:20:30 1513272030.198855: $GPGSA,A,3,15,20,24,32,21,10,14,18,,,,,6.6,1.4,6.2*3C
