2018-01-11 21:05:39 1515722739.134894: {"class":"VERSION","release":"3.16","rev":"3.16-4","proto_major":3,"proto_minor":11}
2018-01-11 21:05:39 1515722739.135247: {"class":"DEVICES","devices":[{"class":"DEVICE","path":"/dev/ttyUSB0","driver":"SiRF","subtype":"9\u0006GSD4e_4.1.2-P1_RPATCH.05-F-GPS-4R-1510281 11/03/2015 307","activated":"2018-01-12T02:05:39.120Z","flags":1,"native":1,"bps":4800,"parity":"N","stopbits":1,"cycle":1.00}]}
2018-01-11 21:05:39 1515722739.135362: {"class":"WATCH","enable":true,"json":false,"nmea":true,"raw":0,"scaled":false,"timing":false,"split24":false,"pps":false}
2018-01-11 21:05:39 1515722739.455972: $GPZDA,020540.00,12,01,2018,00,00*6C
2018-01-11 21:05:39 1515722739.456156: $GPGGA,020540,3946.9590,N,08404.9835,W,2,12,2.80,293.82,M,-33.324,M,,*71
2018-01-11 21:05:39 1515722739.456222: $GPRMC,020540,A,3946.9590,N,08404.9835,W,0.0000,0.000,120118,,*35
2018-01-11 21:05:39 1515722739.456284: $GPGSA,A,3,1,7,8,9,11,27,28,30,13,23,16,138,4.0,2.8,3.5*0F
2018-01-11 21:05:40 1515722740.381843: $GPZDA,020541.00,12,01,2018,00,00*6D
2018-01-11 21:05:40 1515722740.382007: $GPGGA,020541,3946.9590,N,08404.9835,W,2,12,1.60,293.82,M,-33.324,M,,*7D
2018-01-11 21:05:40 1515722740.382076: $GPRMC,020541,A,3946.9590,N,08404.9835,W,0.0000,0.000,120118,,*34
2018-01-11 21:05:40 1515722740.382140: $GPGSA,A,3,1,7,8,9,11,27,28,30,13,23,16,138,4.0,1.6,3.5*02
2018-01-11 21:05:41 1515722741.718598: $GPGSV,3,1,12,01,18,151,44,07,81,306,45,08,64,054,47,09,26,210,42*7F
2018-01-11 21:05:41 1515722741.718772: $GPGSV,3,2,12,11,43,156,45,27,25,045,48,28,31,277,37,30,52,309,42*76
2018-01-11 21:05:41 1515722741.718837: $GPGSV,3,3,12,13,03,328,32,23,06,181,23,16,06,076,10,138,38,213,45*4C
2018-01-11 21:05:41 1515722741.832020: $GPZDA,020542.00,12,01,2018,00,00*6E
2018-01-11 21:05:41 1515722741.832157: $GPGGA,020542,3946.9590,N,08404.9835,W,2,12,0.80,293.82,M,-33.324,M,,*71
2018-01-11 21:05:41 1515722741.832221: $GPRMC,020542,A,3946.9590,N,08404.9835,W,0.0000,0.000,120118,,*37
2018-01-11 21:05:41 1515722741.832283: $GPGSA,A,3,1,7,8,9,11,27,28,30,13,23,16,138,4.0,0.8,3.5*0D
2018-01-11 21:05:42 1515722742.381930: $GPZDA,020543.00,12,01,2018,00,00*6F
2018-01-11 21:05:42 1515722742.382091: $GPGGA,020543,3946.9590,N,08404.9835,W,2,12,0.80,293.82,M,-33.324,M,,*70
2018-01-11 21:05:42 1515722742.382162: $GPRMC,020543,A,3946.9590,N,08404.9835,W,0.0000,0.000,120118,,*36
2018-01-11 21:05:42 1515722742.382222: $GPGSA,A,3,1,7,8,9,11,27,28,30,13,23,16,138,4.0,0.8,3.5*0D
2018-01-11 21:05:43 1515722743.382450: $GPZDA,020544.00,12,01,2018,00,00*68
2018-01-11 21:05:43 1515722743.382607: $GPGGA,020544,3946.9590,N,08404.9835,W,2,12,0.80,293.82,M,-33.324,M,,*77
2018-01-11 21:05:43 1515722743.382676: $GPRMC,020544,A,3946.9590,N,08404.9835,W,0.0000,0.000,120118,,*31
2018-01-11 21:05:43 1515722743.382737: $GPGSA,A,3,1,7,8,9,11,27,28,30,13,23,16,138,4.0,0.8,3.5*0D
2018-01-11 21:05:43 1515722743.382796: $GPGBS,020544,3.65,M,6.21,M,20.10,M*0F
2018-01-11 21:05:44 1515722744.717599: $GPGSV,3,1,12,01,18,151,45,07,81,306,45,08,64,054,47,09,26,210,42*7E
2018-01-11 21:05:44 1515722744.717779: $GPGSV,3,2,12,11,43,156,45,27,25,045,48,28,31,277,37,30,52,309,42*76
2018-01-11 21:05:44 1515722744.717846: $GPGSV,3,3,12,13,03,328,32,23,06,181,23,16,06,076,10,138,38,213,45*4C
2018-01-11 21:05:44 1515722744.831311: $GPZDA,020545.00,12,01,2018,00,00*69
2018-01-11 21:05:44 1515722744.831443: $GPGGA,020545,3946.9590,N,08404.9835,W,2,12,0.80,293.82,M,-33.324,M,,*76
2018-01-11 21:05:44 1515722744.831508: $GPRMC,020545,A,3946.9590,N,08404.9835,W,0.0000,0.000,120118,,*30
2018-01-11 21:05:44 1515722744.831568: $GPGSA,A,3,1,7,8,9,11,27,28,30,13,23,16,138,4.0,0.8,3.5*0D
2018-01-11 21:05:45 1515722745.383162: $GPZDA,020546.00,12,01,2018,00,00*6A
2018-01-11 21:05:45 1515722745.383338: $GPGGA,020546,3946.9590,N,08404.9835,W,2,12,0.80,293.82,M,-33.324,M,,*75
2018-01-11 21:05:45 1515722745.383408: $GPRMC,020546,A,3946.9590,N,08404.9835,W,0.0000,0.000,120118,,*33
2018-01-11 21:05:45 1515722745.383469: $GPGSA,A,3,1,7,8,9,11,27,28,30,13,23,16,138,4.0,0.8,3.5*0D
