2018-01-11 21:04:55 1515722695.707279: {"class":"VERSION","release":"3.16","rev":"3.16-4","proto_major":3,"proto_minor":11}
2018-01-11 21:04:55 1515722695.707614: {"class":"DEVICES","devices":[{"class":"DEVICE","path":"/dev/ttyUSB0","driver":"SiRF","subtype":"9\u0006GSD4e_4.1.2-P1_RPATCH.05-F-GPS-4R-1510281 11/03/2015 307","activated":"2018-01-12T02:04:55.318Z","flags":1,"native":1,"bps":4800,"parity":"N","stopbits":1,"cycle":1.00}]}
2018-01-11 21:04:55 1515722695.707730: {"class":"WATCH","enable":true,"json":false,"nmea":true,"raw":0,"scaled":false,"timing":false,"split24":false,"pps":false}
2018-01-11 21:04:55 1515722695.767787: $GPGSV,3,1,12,01,18,151,44,07,80,307,43,08,64,054,47,09,27,210,43*79
2018-01-11 21:04:55 1515722695.767923: $GPGSV,3,2,12,11,42,156,45,23,06,181,30,27,25,045,50,28,30,277,35*79
2018-01-11 21:04:55 1515722695.767986: $GPGSV,3,3,12,30,51,309,42,13,02,328,13,16,06,076,16,138,38,213,45*4D
2018-01-11 21:04:55 1515722695.881203: $GPZDA,020456.00,12,01,2018,00,00*6A
2018-01-11 21:04:55 1515722695.881348: $GPGGA,020456,3946.9585,N,08404.9849,W,2,12,1.00,305.86,M,-33.324,M,,*79
2018-01-11 21:04:55 1515722695.881411: $GPRMC,020456,A,3946.9585,N,08404.9849,W,0.0000,0.000,120118,,*3C
2018-01-11 21:04:55 1515722695.881471: $GPGSA,A,3,1,7,8,9,11,23,27,28,30,13,16,138,4.0,1.0,3.5*04
2018-01-11 21:04:56 1515722696.422030: $GPZDA,020457.00,12,01,2018,00,00*6B
2018-01-11 21:04:56 1515722696.422175: $GPGGA,020457,3946.9585,N,08404.9849,W,2,12,1.00,305.86,M,-33.324,M,,*78
2018-01-11 21:04:56 1515722696.422240: $GPRMC,020457,A,3946.9585,N,08404.9849,W,0.0000,0.000,120118,,*3D
2018-01-11 21:04:56 1515722696.422300: $GPGSA,A,3,1,7,8,9,11,23,27,28,30,13,16,138,4.0,1.0,3.5*04
2018-01-11 21:04:57 1515722697.423000: $GPZDA,020458.00,12,01,2018,00,00*64
2018-01-11 21:04:57 1515722697.423170: $GPGGA,020458,3946.9585,N,08404.9849,W,2,12,1.00,305.86,M,-33.324,M,,*77
2018-01-11 21:04:57 1515722697.423235: $GPRMC,020458,A,3946.9585,N,08404.9849,W,0.0000,0.000,120118,,*32
2018-01-11 21:04:57 1515722697.423295: $GPGSA,A,3,1,7,8,9,11,23,27,28,30,13,16,138,4.0,1.0,3.5*04
2018-01-11 21:04:58 1515722698.773679: $GPGSV,3,1,12,01,18,151,44,07,80,307,43,08,64,054,47,09,27,210,43*79
2018-01-11 21:04:58 1515722698.773857: $GPGSV,3,2,12,11,42,156,45,23,06,181,30,27,25,045,50,28,30,277,35*79
2018-01-11 21:04:58 1515722698.773923: $GPGSV,3,3,12,30,51,309,42,13,02,328,18,16,06,076,16,138,38,213,45*46
2018-01-11 21:04:58 1515722698.887131: $GPZDA,020459.00,12,01,2018,00,00*65
2018-01-11 21:04:58 1515722698.887273: $GPGGA,020459,3946.9585,N,08404.9849,W,2,12,1.00,305.86,M,-33.324,M,,*76
2018-01-11 21:04:58 1515722698.887338: $GPRMC,020459,A,3946.9585,N,08404.9849,W,0.0000,0.000,120118,,*33
2018-01-11 21:04:58 1515722698.887398: $GPGSA,A,3,1,7,8,9,11,23,27,28,30,13,16,138,4.0,1.0,3.5*04
2018-01-11 21:04:59 1515722699.512486: $GPZDA,020500.00,12,01,2018,00,00*68
2018-01-11 21:04:59 1515722699.512624: $GPGGA,020500,3946.9585,N,08404.9849,W,2,12,1.00,305.86,M,-33.324,M,,*7B
2018-01-11 21:04:59 1515722699.512689: $GPRMC,020500,A,3946.9585,N,08404.9849,W,0.0000,0.000,120118,,*3E
2018-01-11 21:04:59 1515722699.512749: $GPGSA,A,3,1,7,8,9,11,23,27,28,30,13,16,138,4.0,1.0,3.5*04
2018-01-11 21:05:00 1515722700.434660: $GPZDA,020501.00,12,01,2018,00,00*69
2018-01-11 21:05:00 1515722700.434807: $GPGGA,020501,3946.9585,N,08404.9849,W,2,12,1.00,305.86,M,-33.324,M,,*7A
2018-01-11 21:05:00 1515722700.434872: $GPRMC,020501,A,3946.9585,N,08404.9849,W,0.0000,0.000,120118,,*3F
2018-01-11 21:05:00 1515722700.434932: $GPGSA,A,3,1,7,8,9,11,23,27,28,30,13,16,138,4.0,1.0,3.5*04
2018-01-11 21:05:01 1515722701.774066: $GPGSV,3,1,12,01,18,151,44,07,80,307,43,08,64,054,47,09,27,210,43*79
2018-01-11 21:05:01 1515722701.774257: $GPGSV,3,2,12,11,42,156,45,23,06,181,30,27,25,045,50,28,30,277,34*78
2018-01-11 21:05:01 1515722701.774322: $GPGSV,3,3,12,30,51,309,42,13,02,328,18,16,06,076,16,138,38,213,44*47
2018-01-11 21:05:01 1515722701.887447: $GPZDA,020502.00,12,01,2018,00,00*6A
2018-01-11 21:05:01 1515722701.887593: $GPGGA,020502,3946.9585,N,08404.9849,W,2,12,1.00,305.86,M,-33.324,M,,*79
2018-01-11 21:05:01 1515722701.887713: $GPRMC,020502,A,3946.9585,N,08404.9849,W,0.0000,0.000,120118,,*3C
2018-01-11 21:05:01 1515722701.887775: $GPGSA,A,3,1,7,8,9,11,23,27,28,30,13,16,138,4.0,1.0,3.5*04
2018-01-11 21:05:02 1515722702.432196: $GPZDA,020503.00,12,01,2018,00,00*6B
2018-01-11 21:05:02 1515722702.432352: $GPGGA,020503,3946.9585,N,08404.9849,W,2,12,1.00,305.86,M,-33.324,M,,*78
2018-01-11 21:05:02 1515722702.432418: $GPRMC,020503,A,3946.9585,N,08404.9849,W,0.0000,0.000,120118,,*3D
2018-01-11 21:05:02 1515722702.432478: $GPGSA,A,3,1,7,8,9,11,23,27,28,30,13,16,138,4.0,1.0,3.5*04
