2017-12-01 17:14:25 1512166465.786750: {"class":"VERSION","release":"3.16","rev":"3.16-4","proto_major":3,"proto_minor":11}
2017-12-01 17:14:25 1512166465.787166: {"class":"DEVICES","devices":[{"class":"DEVICE","path":"/dev/ttyUSB0","driver":"SiRF","subtype":"9\u0006GSD4e_4.1.2-P1_RPATCH.05-F-GPS-4R-1510281 11/03/2015 307","activated":"2017-12-01T22:14:25.509Z","flags":1,"native":1,"bps":4800,"parity":"N","stopbits":1,"cycle":1.00}]}
2017-12-01 17:14:25 1512166465.787295: {"class":"WATCH","enable":true,"json":false,"nmea":true,"raw":0,"scaled":false,"timing":false,"split24":false,"pps":false}
2017-12-01 17:14:26 1512166466.701812: $GPGSV,3,1,12,01,20,280,41,03,16,316,41,10,27,156,36,12,11,034,17*70
2017-12-01 17:14:26 1512166466.701998: $GPGSV,3,2,12,14,70,022,45,22,35,306,43,26,20,178,38,31,75,259,47*72
2017-12-01 17:14:26 1512166466.702064: $GPGSV,3,3,12,32,58,070,49,11,01,265,30,25,38,063,00,138,38,213,35*41
2017-12-01 17:14:26 1512166466.815109: $GPZDA,221427.00,01,12,2017,00,00*60
2017-12-01 17:14:26 1512166466.815270: $GPGGA,221427,3946.9606,N,08404.9806,W,2,11,0.80,307.37,M,-33.324,M,,*7D
2017-12-01 17:14:26 1512166466.815338: $GPRMC,221427,A,3946.9606,N,08404.9806,W,0.0000,0.000,011217,,*35
2017-12-01 17:14:26 1512166466.815399: $GPGSA,A,3,1,3,10,12,14,22,26,31,32,11,138,,2.0,0.8,1.5*04
2017-12-01 17:14:27 1512166467.365904: $GPZDA,221428.00,01,12,2017,00,00*6F
2017-12-01 17:14:27 1512166467.366083: $GPGGA,221428,3946.9606,N,08404.9806,W,2,11,0.80,307.37,M,-33.324,M,,*72
2017-12-01 17:14:27 1512166467.366152: $GPRMC,221428,A,3946.9606,N,08404.9806,W,0.0000,0.000,011217,,*3A
2017-12-01 17:14:27 1512166467.366214: $GPGSA,A,3,1,3,10,12,14,22,26,31,32,11,138,,2.0,0.8,1.5*04
2017-12-01 17:14:28 1512166468.364426: $GPZDA,221429.00,01,12,2017,00,00*6E
2017-12-01 17:14:28 1512166468.364601: $GPGGA,221429,3946.9606,N,08404.9806,W,2,11,0.80,307.37,M,-33.324,M,,*73
2017-12-01 17:14:28 1512166468.364669: $GPRMC,221429,A,3946.9606,N,08404.9806,W,0.0000,0.000,011217,,*3B
2017-12-01 17:14:28 1512166468.364731: $GPGSA,A,3,1,3,10,12,14,22,26,31,32,11,138,,2.0,0.8,1.5*04
2017-12-01 17:14:29 1512166469.705275: $GPGSV,3,1,12,01,20,280,42,03,16,316,41,10,27,156,36,12,11,034,23*74
2017-12-01 17:14:29 1512166469.705434: $GPGSV,3,2,12,14,70,022,45,22,35,306,42,26,20,178,38,31,75,259,47*73
2017-12-01 17:14:29 1512166469.705504: $GPGSV,3,3,12,32,58,070,49,11,01,265,31,25,38,063,07,138,38,213,38*4A
2017-12-01 17:14:29 1512166469.818599: $GPZDA,221430.00,01,12,2017,00,00*66
2017-12-01 17:14:29 1512166469.818773: $GPGGA,221430,3946.9606,N,08404.9806,W,2,11,0.80,307.37,M,-33.324,M,,*7B
2017-12-01 17:14:29 1512166469.818840: $GPRMC,221430,A,3946.9606,N,08404.9806,W,0.0000,0.000,011217,,*33
2017-12-01 17:14:29 1512166469.818920: $GPGSA,A,3,1,3,10,12,14,22,26,31,32,11,138,,2.0,0.8,1.5*04
2017-12-01 17:14:30 1512166470.445567: $GPZDA,221431.00,01,12,2017,00,00*67
2017-12-01 17:14:30 1512166470.445739: $GPGGA,221431,3946.9611,N,08404.9806,W,2,11,0.80,308.01,M,-33.324,M,,*76
2017-12-01 17:14:30 1512166470.445807: $GPRMC,221431,A,3946.9611,N,08404.9806,W,0.0000,0.000,011217,,*34
2017-12-01 17:14:30 1512166470.445871: $GPGSA,A,3,1,3,10,12,14,22,26,31,32,11,138,,2.0,0.8,1.5*04
2017-12-01 17:14:31 1512166471.366416: $GPZDA,221432.00,01,12,2017,00,00*64
2017-12-01 17:14:31 1512166471.366589: $GPGGA,221432,3946.9611,N,08404.9806,W,2,11,0.80,308.01,M,-33.324,M,,*75
2017-12-01 17:14:31 1512166471.366656: $GPRMC,221432,A,3946.9611,N,08404.9806,W,0.0000,0.000,011217,,*37
2017-12-01 17:14:31 1512166471.366718: $GPGSA,A,3,1,3,10,12,14,22,26,31,32,11,138,,2.0,0.8,1.5*04
2017-12-01 17:14:32 1512166472.703022: $GPGSV,3,1,12,01,20,280,41,03,16,316,41,10,27,156,36,12,11,034,26*72
2017-12-01 17:14:32 1512166472.703225: $GPGSV,3,2,12,14,70,022,45,22,35,306,42,26,20,178,38,31,75,259,48*7C
2017-12-01 17:14:32 1512166472.703314: $GPGSV,3,3,12,32,58,070,49,11,01,265,32,25,38,063,00,138,38,213,40*41
2017-12-01 17:14:32 1512166472.815404: $GPZDA,221433.00,01,12,2017,00,00*65
2017-12-01 17:14:32 1512166472.815565: $GPGGA,221433,3946.9611,N,08404.9806,W,2,11,0.80,308.01,M,-33.324,M,,*74
2017-12-01 17:14:32 1512166472.815680: $GPRMC,221433,A,3946.9611,N,08404.9806,W,0.0000,0.000,011217,,*36
2017-12-01 17:14:32 1512166472.815744: $GPGSA,A,3,1,3,10,12,14,22,26,31,32,11,138,,2.0,0.8,1.5*04
2017-12-01 17:14:33 1512166473.366948: $GPZDA,221434.00,01,12,2017,00,00*62
2017-12-01 17:14:33 1512166473.367155: $GPGGA,221434,3946.9611,N,08404.9806,W,2,11,0.80,308.01,M,-33.324,M,,*73
2017-12-01 17:14:33 1512166473.367228: $GPRMC,221434,A,3946.9611,N,08404.9806,W,0.0000,0.000,011217,,*31
2017-12-01 17:14:33 1512166473.367295: $GPGSA,A,3,1,3,10,12,14,22,26,31,32,11,138,,2.0,0.8,1.5*04
2017-12-01 17:14:34 1512166474.367145: $GPZDA,221435.00,01,12,2017,00,00*63
2017-12-01 17:14:34 1512166474.367309: $GPGGA,221435,3946.9611,N,08404.9806,W,2,11,0.80,308.01,M,-33.324,M,,*72
2017-12-01 17:14:34 1512166474.367394: $GPRMC,221435,A,3946.9611,N,08404.9806,W,0.0000,0.000,011217,,*30
2017-12-01 17:14:34 1512166474.367457: $GPGSA,A,3,1,3,10,12,14,22,26,31,32,11,138,,2.0,0.8,1.5*04
2017-12-01 17:14:35 1512166475.703410: $GPGSV,3,1,12,01,20,280,41,03,16,316,40,10,27,156,36,12,11,034,25*70
2017-12-01 17:14:35 1512166475.703576: $GPGSV,3,2,12,14,70,022,45,22,35,306,42,26,20,178,39,31,75,259,47*72
2017-12-01 17:14:35 1512166475.703643: $GPGSV,3,3,12,32,58,070,48,11,01,265,32,25,38,063,00,138,38,213,40*40
2017-12-01 17:14:35 1512166475.816783: $GPZDA,221436.00,01,12,2017,00,00*60
2017-12-01 17:14:35 1512166475.816977: $GPGGA,221436,3946.9611,N,08404.9806,W,2,11,0.80,308.01,M,-33.324,M,,*71
2017-12-01 17:14:35 1512166475.817049: $GPRMC,221436,A,3946.9611,N,08404.9806,W,0.0000,0.000,011217,,*33
2017-12-01 17:14:35 1512166475.817113: $GPGSA,A,3,1,3,10,12,14,22,26,31,32,11,138,,2.0,0.8,1.5*04
2017-12-01 17:14:36 1512166476.364274: $GPZDA,221437.00,01,12,2017,00,00*61
2017-12-01 17:14:36 1512166476.364450: $GPGGA,221437,3946.9611,N,08404.9806,W,2,11,0.80,308.01,M,-33.324,M,,*70
2017-12-01 17:14:36 1512166476.364518: $GPRMC,221437,A,3946.9611,N,08404.9806,W,0.0000,0.000,011217,,*32
2017-12-01 17:14:36 1512166476.364581: $GPGSA,A,3,1,3,10,12,14,22,26,31,32,11,138,,2.0,0.8,1.5*04
2017-12-01 17:14:37 1512166477.372267: $GPZDA,221438.00,01,12,2017,00,00*6E
2017-12-01 17:14:37 1512166477.372448: $GPGGA,221438,3946.9611,N,08404.9806,W,2,11,0.80,308.01,M,-33.324,M,,*7F
2017-12-01 17:14:37 1512166477.372517: $GPRMC,221438,A,3946.9611,N,08404.9806,W,0.0000,0.000,011217,,*3D
2017-12-01 17:14:37 1512166477.372580: $GPGSA,A,3,1,3,10,12,14,22,26,31,32,11,138,,2.0,0.8,1.5*04
2017-12-01 17:14:38 1512166478.703106: $GPGSV,3,1,12,01,20,280,41,03,16,316,41,10,27,156,36,12,11,034,25*71
2017-12-01 17:14:38 1512166478.703310: $GPGSV,3,2,12,14,70,022,45,22,35,306,42,26,20,178,40,31,75,259,48*73
2017-12-01 17:14:38 1512166478.703379: $GPGSV,3,3,12,32,58,070,48,11,01,265,32,25,38,063,28,138,38,213,38*45
2017-12-01 17:14:38 1512166478.815208: $GPZDA,221439.00,01,12,2017,00,00*6F
2017-12-01 17:14:38 1512166478.815370: $GPGGA,221439,3946.9611,N,08404.9806,W,2,12,0.80,308.01,M,-33.324,M,,*7D
2017-12-01 17:14:38 1512166478.815436: $GPRMC,221439,A,3946.9611,N,08404.9806,W,0.0000,0.000,011217,,*3C
2017-12-01 17:14:38 1512166478.815497: $GPGSA,A,3,1,3,10,12,14,22,26,31,32,11,25,138,2.0,0.8,1.5*03
2017-12-01 17:14:39 1512166479.367307: $GPZDA,221440.00,01,12,2017,00,00*61
2017-12-01 17:14:39 1512166479.367479: $GPGGA,221440,3946.9611,N,08404.9806,W,2,12,0.80,308.01,M,-33.324,M,,*73
2017-12-01 17:14:39 1512166479.367547: $GPRMC,221440,A,3946.9611,N,08404.9806,W,0.0000,0.000,011217,,*32
2017-12-01 17:14:39 1512166479.367608: $GPGSA,A,3,1,3,10,12,14,22,26,31,32,11,25,138,2.0,0.8,1.5*03
2017-12-01 17:14:40 1512166480.366740: $GPZDA,221441.00,01,12,2017,00,00*60
2017-12-01 17:14:40 1512166480.366912: $GPGGA,221441,3946.9611,N,08404.9806,W,2,12,0.80,308.01,M,-33.324,M,,*72
2017-12-01 17:14:40 1512166480.366982: $GPRMC,221441,A,3946.9611,N,08404.9806,W,0.0000,0.000,011217,,*33
2017-12-01 17:14:40 1512166480.367047: $GPGSA,A,3,1,3,10,12,14,22,26,31,32,11,25,138,2.0,0.8,1.5*03
2017-12-01 17:14:41 1512166481.702180: $GPGSV,3,1,12,01,20,280,41,03,16,316,41,10,27,156,37,12,11,034,26*73
2017-12-01 17:14:41 1512166481.702382: $GPGSV,3,2,12,14,70,022,45,22,35,306,42,26,20,178,40,31,75,259,48*73
2017-12-01 17:14:41 1512166481.702452: $GPGSV,3,3,12,32,58,070,48,11,01,265,32,25,38,063,28,138,38,213,40*4A
2017-12-01 17:14:41 1512166481.815546: $GPZDA,221442.00,01,12,2017,00,00*63
2017-12-01 17:14:41 1512166481.815715: $GPGGA,221442,3946.9611,N,08404.9806,W,2,12,0.80,308.01,M,-33.324,M,,*71
2017-12-01 17:14:41 1512166481.815781: $GPRMC,221442,A,3946.9611,N,08404.9806,W,0.0000,0.000,011217,,*30
2017-12-01 17:14:41 1512166481.815842: $GPGSA,A,3,1,3,10,12,14,22,26,31,32,11,25,138,2.0,0.8,1.5*03
2017-12-01 17:14:42 1512166482.366399: $GPZDA,221443.00,01,12,2017,00,00*62
2017-12-01 17:14:42 1512166482.366567: $GPGGA,221443,3946.9611,N,08404.9806,W,2,12,0.80,308.01,M,-33.324,M,,*70
2017-12-01 17:14:42 1512166482.366634: $GPRMC,221443,A,3946.9611,N,08404.9806,W,0.0000,0.000,011217,,*31
2017-12-01 17:14:42 1512166482.366695: $GPGSA,A,3,1,3,10,12,14,22,26,31,32,11,25,138,2.0,0.8,1.5*03
2017-12-01 17:14:43 1512166483.367594: $GPZDA,221444.00,01,12,2017,00,00*65
2017-12-01 17:14:43 1512166483.367807: $GPGGA,221444,3946.9611,N,08404.9806,W,2,12,0.80,308.01,M,-33.324,M,,*77
2017-12-01 17:14:43 1512166483.367904: $GPRMC,221444,A,3946.9611,N,08404.9806,W,0.0000,0.000,011217,,*36
2017-12-01 17:14:43 1512166483.367968: $GPGSA,A,3,1,3,10,12,14,22,26,31,32,11,25,138,2.0,0.8,1.5*03
2017-12-01 17:14:44 1512166484.699242: $GPGSV,3,1,12,01,20,280,41,03,16,316,40,10,27,156,37,12,11,034,26*72
2017-12-01 17:14:44 1512166484.699436: $GPGSV,3,2,12,14,70,022,45,22,35,306,42,26,20,178,40,31,75,259,48*73
2017-12-01 17:14:44 1512166484.699505: $GPGSV,3,3,12,32,58,070,49,11,01,265,32,25,38,063,27,138,38,213,41*45
2017-12-01 17:14:44 1512166484.812917: $GPZDA,221445.00,01,12,2017,00,00*64
2017-12-01 17:14:44 1512166484.813087: $GPGGA,221445,3946.9614,N,08404.9805,W,2,12,0.80,307.24,M,-33.324,M,,*78
2017-12-01 17:14:44 1512166484.813153: $GPRMC,221445,A,3946.9614,N,08404.9805,W,0.0000,0.000,011217,,*31
2017-12-01 17:14:44 1512166484.813214: $GPGSA,A,3,1,3,10,12,14,22,26,31,32,11,25,138,2.0,0.8,1.5*03
2017-12-01 17:14:45 1512166485.438128: $GPZDA,221446.00,01,12,2017,00,00*67
2017-12-01 17:14:45 1512166485.438323: $GPGGA,221446,3946.9614,N,08404.9805,W,2,12,0.80,307.24,M,-33.324,M,,*7B
2017-12-01 17:14:45 1512166485.438393: $GPRMC,221446,A,3946.9614,N,08404.9805,W,0.0000,0.000,011217,,*32
2017-12-01 17:14:45 1512166485.438454: $GPGSA,A,3,1,3,10,12,14,22,26,31,32,11,25,138,2.0,0.8,1.5*03
