2017-12-01 15:48:32 1512161312.904492: {"class":"VERSION","release":"3.16","rev":"3.16-4","proto_major":3,"proto_minor":11}
2017-12-01 15:48:32 1512161312.904862: {"class":"DEVICES","devices":[{"class":"DEVICE","path":"/dev/ttyUSB0","driver":"SiRF","subtype":"9\u0006GSD4e_4.1.2-P1_RPATCH.05-F-GPS-4R-1510281 11/03/2015 307","activated":"2017-12-01T20:48:32.531Z","flags":1,"native":1,"bps":4800,"parity":"N","stopbits":1,"cycle":1.00}]}
2017-12-01 15:48:32 1512161312.904978: {"class":"WATCH","enable":true,"json":false,"nmea":true,"raw":0,"scaled":false,"timing":false,"split24":false,"pps":false}
2017-12-01 15:48:33 1512161313.396803: $GPZDA,204834.00,01,12,2017,00,00*69
2017-12-01 15:48:33 1512161313.396991: $GPGGA,204834,3946.9564,N,08404.9849,W,2,12,0.80,302.66,M,-33.324,M,,*7A
2017-12-01 15:48:33 1512161313.397059: $GPRMC,204834,A,3946.9564,N,08404.9849,W,0.0000,0.000,011217,,*30
2017-12-01 15:48:33 1512161313.397120: $GPGSA,A,3,1,10,12,14,18,22,24,25,31,32,11,138,2.0,0.8,1.5*3B
2017-12-01 15:48:34 1512161314.731201: $GPGSV,3,1,12,01,14,318,35,10,68,133,48,12,25,070,39,14,55,294,43*76
2017-12-01 15:48:34 1512161314.731451: $GPGSV,3,2,12,18,36,136,48,22,03,310,32,24,13,045,39,25,30,114,42*76
2017-12-01 15:48:34 1512161314.731529: $GPGSV,3,3,12,31,36,213,49,32,68,333,48,11,11,300,31,138,38,213,46*42
2017-12-01 15:48:34 1512161314.844757: $GPZDA,204835.00,01,12,2017,00,00*68
2017-12-01 15:48:34 1512161314.844928: $GPGGA,204835,3946.9564,N,08404.9849,W,2,12,0.80,302.66,M,-33.324,M,,*7B
2017-12-01 15:48:34 1512161314.844995: $GPRMC,204835,A,3946.9564,N,08404.9849,W,0.0000,0.000,011217,,*31
2017-12-01 15:48:34 1512161314.845056: $GPGSA,A,3,1,10,12,14,18,22,24,25,31,32,11,138,2.0,0.8,1.5*3B
2017-12-01 15:48:35 1512161315.395735: $GPZDA,204836.00,01,12,2017,00,00*6B
2017-12-01 15:48:35 1512161315.395904: $GPGGA,204836,3946.9564,N,08404.9849,W,2,12,0.80,302.66,M,-33.324,M,,*78
2017-12-01 15:48:35 1512161315.395970: $GPRMC,204836,A,3946.9564,N,08404.9849,W,0.0000,0.000,011217,,*32
2017-12-01 15:48:35 1512161315.396030: $GPGSA,A,3,1,10,12,14,18,22,24,25,31,32,11,138,2.0,0.8,1.5*3B
2017-12-01 15:48:36 1512161316.390971: $GPZDA,204837.00,01,12,2017,00,00*6A
2017-12-01 15:48:36 1512161316.391143: $GPGGA,204837,3946.9564,N,08404.9849,W,2,12,0.80,302.66,M,-33.324,M,,*79
2017-12-01 15:48:36 1512161316.391211: $GPRMC,204837,A,3946.9564,N,08404.9849,W,0.0000,0.000,011217,,*33
2017-12-01 15:48:36 1512161316.391272: $GPGSA,A,3,1,10,12,14,18,22,24,25,31,32,11,138,2.0,0.8,1.5*3B
2017-12-01 15:48:37 1512161317.734167: $GPGSV,3,1,12,01,14,318,29,10,68,133,48,12,25,070,39,14,55,294,42*7A
2017-12-01 15:48:37 1512161317.734358: $GPGSV,3,2,12,18,36,136,47,22,03,310,32,24,13,045,38,25,30,114,42*78
2017-12-01 15:48:37 1512161317.734425: $GPGSV,3,3,12,31,36,213,49,32,68,333,48,11,11,300,26,138,38,213,46*44
2017-12-01 15:48:37 1512161317.847835: $GPZDA,204838.00,01,12,2017,00,00*65
2017-12-01 15:48:37 1512161317.847971: $GPGGA,204838,3946.9564,N,08404.9849,W,2,12,0.80,302.66,M,-33.324,M,,*76
2017-12-01 15:48:37 1512161317.848036: $GPRMC,204838,A,3946.9564,N,08404.9849,W,0.0000,0.000,011217,,*3C
2017-12-01 15:48:37 1512161317.848097: $GPGSA,A,3,1,10,12,14,18,22,24,25,31,32,11,138,2.0,0.8,1.5*3B
2017-12-01 15:48:38 1512161318.395906: $GPZDA,204839.00,01,12,2017,00,00*64
2017-12-01 15:48:38 1512161318.396087: $GPGGA,204839,3946.9564,N,08404.9849,W,2,12,0.80,302.66,M,-33.324,M,,*77
2017-12-01 15:48:38 1512161318.396156: $GPRMC,204839,A,3946.9564,N,08404.9849,W,0.0000,0.000,011217,,*3D
2017-12-01 15:48:38 1512161318.396218: $GPGSA,A,3,1,10,12,14,18,22,24,25,31,32,11,138,2.0,0.8,1.5*3B
2017-12-01 15:48:39 1512161319.395581: $GPZDA,204840.00,01,12,2017,00,00*6A
2017-12-01 15:48:39 1512161319.395762: $GPGGA,204840,3946.9564,N,08404.9849,W,2,12,0.80,302.66,M,-33.324,M,,*79
2017-12-01 15:48:39 1512161319.395829: $GPRMC,204840,A,3946.9564,N,08404.9849,W,0.0000,0.000,011217,,*33
2017-12-01 15:48:39 1512161319.395890: $GPGSA,A,3,1,10,12,14,18,22,24,25,31,32,11,138,2.0,0.8,1.5*3B
2017-12-01 15:48:40 1512161320.748769: $GPGSV,3,1,12,01,14,318,33,10,68,133,47,12,25,070,39,14,55,294,43*7F
2017-12-01 15:48:40 1512161320.749003: $GPGSV,3,2,12,18,36,136,47,22,03,310,31,24,13,045,39,25,30,114,41*79
2017-12-01 15:48:40 1512161320.749074: $GPGSV,3,3,12,31,36,213,49,32,68,333,48,11,11,300,24,138,38,213,46*46
2017-12-01 15:48:40 1512161320.862328: $GPZDA,204841.00,01,12,2017,00,00*6B
2017-12-01 15:48:40 1512161320.862495: $GPGGA,204841,3946.9564,N,08404.9849,W,2,12,0.80,302.66,M,-33.324,M,,*78
2017-12-01 15:48:40 1512161320.862562: $GPRMC,204841,A,3946.9564,N,08404.9849,W,0.0000,0.000,011217,,*32
2017-12-01 15:48:40 1512161320.862622: $GPGSA,A,3,1,10,12,14,18,22,24,25,31,32,11,138,2.0,0.8,1.5*3B
2017-12-01 15:48:41 1512161321.488833: $GPZDA,204842.00,01,12,2017,00,00*68
2017-12-01 15:48:41 1512161321.489004: $GPGGA,204842,3946.9564,N,08404.9849,W,2,12,0.80,302.66,M,-33.324,M,,*7B
2017-12-01 15:48:41 1512161321.489071: $GPRMC,204842,A,3946.9564,N,08404.9849,W,0.0000,0.000,011217,,*31
2017-12-01 15:48:41 1512161321.489132: $GPGSA,A,3,1,10,12,14,18,22,24,25,31,32,11,138,2.0,0.8,1.5*3B
2017-12-01 15:48:42 1512161322.412212: $GPZDA,204843.00,01,12,2017,00,00*69
2017-12-01 15:48:42 1512161322.412399: $GPGGA,204843,3946.9564,N,08404.9849,W,2,12,0.80,302.66,M,-33.324,M,,*7A
2017-12-01 15:48:42 1512161322.412466: $GPRMC,204843,A,3946.9564,N,08404.9849,W,0.0000,0.000,011217,,*30
2017-12-01 15:48:42 1512161322.412527: $GPGSA,A,3,1,10,12,14,18,22,24,25,31,32,11,138,2.0,0.8,1.5*3B
2017-12-01 15:48:43 1512161323.750520: $GPGSV,3,1,12,01,14,318,33,10,68,133,47,12,25,070,40,14,55,294,43*71
2017-12-01 15:48:43 1512161323.750702: $GPGSV,3,2,12,18,36,136,47,22,03,310,29,24,13,045,39,25,30,114,41*70
2017-12-01 15:48:43 1512161323.750769: $GPGSV,3,3,12,31,36,213,49,32,68,333,48,11,11,300,08,138,38,213,45*4B
2017-12-01 15:48:43 1512161323.864193: $GPZDA,204844.00,01,12,2017,00,00*6E
2017-12-01 15:48:43 1512161323.864380: $GPGGA,204844,3946.9564,N,08404.9849,W,2,12,0.80,302.66,M,-33.324,M,,*7D
2017-12-01 15:48:43 1512161323.864447: $GPRMC,204844,A,3946.9564,N,08404.9849,W,0.0000,0.000,011217,,*37
2017-12-01 15:48:43 1512161323.864508: $GPGSA,A,3,1,10,12,14,18,22,24,25,31,32,11,138,2.0,0.8,1.5*3B
2017-12-01 15:48:44 1512161324.408891: $GPZDA,204845.00,01,12,2017,00,00*6F
2017-12-01 15:48:44 1512161324.409053: $GPGGA,204845,3946.9564,N,08404.9849,W,2,12,0.80,302.66,M,-33.324,M,,*7C
2017-12-01 15:48:44 1512161324.409120: $GPRMC,204845,A,3946.9564,N,08404.9849,W,0.0000,0.000,011217,,*36
2017-12-01 15:48:44 1512161324.409204: $GPGSA,A,3,1,10,12,14,18,22,24,25,31,32,11,138,2.0,0.8,1.5*3B
2017-12-01 15:48:45 1512161325.398088: $GPZDA,204846.00,01,12,2017,00,00*6C
2017-12-01 15:48:45 1512161325.398262: $GPGGA,204846,3946.9564,N,08404.9849,W,2,12,0.80,302.66,M,-33.324,M,,*7F
2017-12-01 15:48:45 1512161325.398330: $GPRMC,204846,A,3946.9564,N,08404.9849,W,0.0000,0.000,011217,,*35
2017-12-01 15:48:45 1512161325.398391: $GPGSA,A,3,1,10,12,14,18,22,24,25,31,32,11,138,2.0,0.8,1.5*3B
2017-12-01 15:48:46 1512161326.732071: $GPGSV,3,1,12,01,14,318,34,10,68,133,47,12,25,070,39,14,55,294,42*79
2017-12-01 15:48:46 1512161326.732257: $GPGSV,3,2,12,18,36,136,48,22,03,310,25,24,13,045,40,25,30,114,41*7D
2017-12-01 15:48:46 1512161326.732324: $GPGSV,3,3,12,31,36,213,49,32,68,333,48,11,11,300,24,138,38,213,46*46
2017-12-01 15:48:46 1512161326.845442: $GPZDA,204847.00,01,12,2017,00,00*6D
2017-12-01 15:48:46 1512161326.845612: $GPGGA,204847,3946.9564,N,08404.9849,W,2,12,0.80,302.66,M,-33.324,M,,*7E
2017-12-01 15:48:46 1512161326.845678: $GPRMC,204847,A,3946.9564,N,08404.9849,W,0.0000,0.000,011217,,*34
2017-12-01 15:48:46 1512161326.845739: $GPGSA,A,3,1,10,12,14,18,22,24,25,31,32,11,138,2.0,0.8,1.5*3B
2017-12-01 15:48:47 1512161327.396034: $GPZDA,204848.00,01,12,2017,00,00*62
2017-12-01 15:48:47 1512161327.396398: $GPGGA,204848,3946.9564,N,08404.9849,W,2,12,0.80,302.66,M,-33.324,M,,*71
2017-12-01 15:48:47 1512161327.396470: $GPRMC,204848,A,3946.9564,N,08404.9849,W,0.0000,0.000,011217,,*3B
2017-12-01 15:48:47 1512161327.396532: $GPGSA,A,3,1,10,12,14,18,22,24,25,31,32,11,138,2.0,0.8,1.5*3B
2017-12-01 15:48:48 1512161328.415593: $GPZDA,204849.00,01,12,2017,00,00*63
2017-12-01 15:48:48 1512161328.415911: $GPGGA,204849,3946.9564,N,08404.9849,W,2,12,0.80,302.66,M,-33.324,M,,*70
2017-12-01 15:48:48 1512161328.416052: $GPRMC,204849,A,3946.9564,N,08404.9849,W,0.0000,0.000,011217,,*3A
2017-12-01 15:48:48 1512161328.416189: $GPGSA,A,3,1,10,12,14,18,22,24,25,31,32,11,138,2.0,0.8,1.5*3B
2017-12-01 15:48:49 1512161329.734106: $GPGSV,3,1,12,01,14,318,38,10,68,133,47,12,25,070,39,14,55,294,42*75
2017-12-01 15:48:49 1512161329.734329: $GPGSV,3,2,12,18,36,136,48,22,03,310,32,24,13,045,40,25,30,114,42*78
2017-12-01 15:48:49 1512161329.734397: $GPGSV,3,3,12,31,36,213,50,32,68,333,48,11,11,300,30,138,38,213,46*4B
2017-12-01 15:48:49 1512161329.847969: $GPZDA,204850.00,01,12,2017,00,00*6B
2017-12-01 15:48:49 1512161329.848184: $GPGGA,204850,3946.9564,N,08404.9849,W,2,12,0.80,302.66,M,-33.324,M,,*78
2017-12-01 15:48:49 1512161329.848268: $GPRMC,204850,A,3946.9564,N,08404.9849,W,0.0000,0.000,011217,,*32
2017-12-01 15:48:49 1512161329.848331: $GPGSA,A,3,1,10,12,14,18,22,24,25,31,32,11,138,2.0,0.8,1.5*3B
2017-12-01 15:48:50 1512161330.407580: $GPZDA,204851.00,01,12,2017,00,00*6A
2017-12-01 15:48:50 1512161330.407739: $GPGGA,204851,3946.9564,N,08404.9849,W,2,12,0.80,302.66,M,-33.324,M,,*79
2017-12-01 15:48:50 1512161330.407806: $GPRMC,204851,A,3946.9564,N,08404.9849,W,0.0000,0.000,011217,,*33
2017-12-01 15:48:50 1512161330.407868: $GPGSA,A,3,1,10,12,14,18,22,24,25,31,32,11,138,2.0,0.8,1.5*3B
2017-12-01 15:48:51 1512161331.412546: $GPZDA,204852.00,01,12,2017,00,00*69
2017-12-01 15:48:51 1512161331.412716: $GPGGA,204852,3946.9564,N,08404.9849,W,2,12,0.80,302.66,M,-33.324,M,,*7A
2017-12-01 15:48:51 1512161331.412782: $GPRMC,204852,A,3946.9564,N,08404.9849,W,0.0000,0.000,011217,,*30
2017-12-01 15:48:51 1512161331.412843: $GPGSA,A,3,1,10,12,14,18,22,24,25,31,32,11,138,2.0,0.8,1.5*3B
2017-12-01 15:48:52 1512161332.749459: $GPGSV,3,1,12,01,14,318,36,10,68,133,48,12,25,070,39,14,55,294,42*74
2017-12-01 15:48:52 1512161332.749617: $GPGSV,3,2,12,18,36,136,47,22,03,310,31,24,13,045,40,25,30,114,42*74
2017-12-01 15:48:52 1512161332.749683: $GPGSV,3,3,12,31,36,213,49,32,68,333,47,11,11,300,30,138,38,213,45*4F
2017-12-01 15:48:52 1512161332.862925: $GPZDA,204853.00,01,12,2017,00,00*68
2017-12-01 15:48:52 1512161332.863150: $GPGGA,204853,3946.9564,N,08404.9849,W,2,12,0.80,302.66,M,-33.324,M,,*7B
2017-12-01 15:48:52 1512161332.863221: $GPRMC,204853,A,3946.9564,N,08404.9849,W,0.0000,0.000,011217,,*31
2017-12-01 15:48:52 1512161332.863302: $GPGSA,A,3,1,10,12,14,18,22,24,25,31,32,11,138,2.0,0.8,1.5*3B
