2017-12-31 16:56:52 1514757412.580180: {"class":"VERSION","release":"3.16","rev":"3.16-4","proto_major":3,"proto_minor":11}
2017-12-31 16:56:52 1514757412.580526: {"class":"DEVICES","devices":[{"class":"DEVICE","path":"/dev/ttyUSB0","driver":"SiRF","activated":"2017-12-31T21:56:52.485Z","flags":1,"native":1,"bps":4800,"parity":"N","stopbits":1,"cycle":1.00}]}
2017-12-31 16:56:52 1514757412.580623: {"class":"WATCH","enable":true,"json":false,"nmea":true,"raw":0,"scaled":false,"timing":false,"split24":false,"pps":false}
2017-12-31 16:56:53 1514757413.360510: $GPZDA,215654.00,31,12,2017,00,00*62
2017-12-31 16:56:53 1514757413.360674: $GPGGA,215654,3946.9584,N,08404.9862,W,2,11,0.80,302.90,M,-33.324,M,,*7F
2017-12-31 16:56:53 1514757413.360739: $GPRMC,215654,A,3946.9584,N,08404.9862,W,0.0000,0.000,311217,,*3C
2017-12-31 16:56:53 1514757413.360800: $GPGSA,A,3,22,23,25,3,16,29,31,14,32,26,135,,1.7,0.8,1.3*32
2017-12-31 16:56:54 1514757414.679723: $GPGSV,3,1,11,22,46,244,40,23,25,307,39,25,04,037,18,03,46,276,39*71
2017-12-31 16:56:54 1514757414.679902: $GPGSV,3,2,11,16,42,190,45,29,14,058,25,31,52,048,51,14,43,111,40*7E
2017-12-31 16:56:54 1514757414.679968: $GPGSV,3,3,11,32,21,120,44,26,72,151,45,135,22,240,43*7B
2017-12-31 16:56:54 1514757414.793335: $GPZDA,215655.00,31,12,2017,00,00*63
2017-12-31 16:56:54 1514757414.793455: $GPGGA,215655,3946.9584,N,08404.9862,W,2,11,0.80,302.90,M,-33.324,M,,*7E
2017-12-31 16:56:54 1514757414.793519: $GPRMC,215655,A,3946.9584,N,08404.9862,W,0.0000,0.000,311217,,*3D
2017-12-31 16:56:54 1514757414.793577: $GPGSA,A,3,22,23,25,3,16,29,31,14,32,26,135,,1.7,0.8,1.3*32
2017-12-31 16:56:55 1514757415.418742: $GPZDA,215656.00,31,12,2017,00,00*60
2017-12-31 16:56:55 1514757415.418879: $GPGGA,215656,3946.9584,N,08404.9862,W,2,11,0.80,302.90,M,-33.324,M,,*7D
2017-12-31 16:56:55 1514757415.418944: $GPRMC,215656,A,3946.9584,N,08404.9862,W,0.0000,0.000,311217,,*3E
2017-12-31 16:56:55 1514757415.419003: $GPGSA,A,3,22,23,25,3,16,29,31,14,32,26,135,,1.7,0.8,1.3*32
2017-12-31 16:56:56 1514757416.343392: $GPZDA,215657.00,31,12,2017,00,00*61
2017-12-31 16:56:56 1514757416.343548: $GPGGA,215657,3946.9584,N,08404.9862,W,2,11,0.80,302.90,M,-33.324,M,,*7C
2017-12-31 16:56:56 1514757416.343614: $GPRMC,215657,A,3946.9584,N,08404.9862,W,0.0000,0.000,311217,,*3F
2017-12-31 16:56:56 1514757416.343675: $GPGSA,A,3,22,23,25,3,16,29,31,14,32,26,135,,1.7,0.8,1.3*32
2017-12-31 16:56:57 1514757417.680071: $GPGSV,3,1,11,22,46,244,40,23,25,307,40,25,04,037,18,03,46,276,40*71
2017-12-31 16:56:57 1514757417.680254: $GPGSV,3,2,11,16,42,190,46,29,14,058,26,31,52,048,51,14,43,111,40*7E
2017-12-31 16:56:57 1514757417.680318: $GPGSV,3,3,11,32,21,120,44,26,72,151,45,135,22,240,43*7B
2017-12-31 16:56:57 1514757417.793721: $GPZDA,215658.00,31,12,2017,00,00*6E
2017-12-31 16:56:57 1514757417.793863: $GPGGA,215658,3946.9584,N,08404.9862,W,2,11,0.80,302.90,M,-33.324,M,,*73
2017-12-31 16:56:57 1514757417.793929: $GPRMC,215658,A,3946.9584,N,08404.9862,W,0.0000,0.000,311217,,*30
2017-12-31 16:56:57 1514757417.793990: $GPGSA,A,3,22,23,25,3,16,29,31,14,32,26,135,,1.7,0.8,1.3*32
2017-12-31 16:56:58 1514757418.359589: $GPZDA,215659.00,31,12,2017,00,00*6F
2017-12-31 16:56:58 1514757418.359736: $GPGGA,215659,3946.9584,N,08404.9862,W,2,11,0.80,302.90,M,-33.324,M,,*72
2017-12-31 16:56:58 1514757418.359802: $GPRMC,215659,A,3946.9584,N,08404.9862,W,0.0000,0.000,311217,,*31
2017-12-31 16:56:58 1514757418.359863: $GPGSA,A,3,22,23,25,3,16,29,31,14,32,26,135,,1.7,0.8,1.3*32
2017-12-31 16:56:59 1514757419.343971: $GPZDA,215700.00,31,12,2017,00,00*62
2017-12-31 16:56:59 1514757419.344146: $GPGGA,215700,3946.9584,N,08404.9862,W,2,11,0.80,302.90,M,-33.324,M,,*7F
2017-12-31 16:56:59 1514757419.344215: $GPRMC,215700,A,3946.9584,N,08404.9862,W,0.0000,0.000,311217,,*3C
2017-12-31 16:56:59 1514757419.344276: $GPGSA,A,3,22,23,25,3,16,29,31,14,32,26,135,,1.7,0.8,1.3*32
2017-12-31 16:57:00 1514757420.671714: $GPGSV,3,1,11,22,46,244,40,23,25,307,40,25,04,037,19,03,46,276,40*70
2017-12-31 16:57:00 1514757420.671890: $GPGSV,3,2,11,16,42,190,46,29,14,058,27,31,52,048,51,14,43,111,40*7F
2017-12-31 16:57:00 1514757420.672012: $GPGSV,3,3,11,32,21,120,44,26,72,151,45,135,22,240,43*7B
2017-12-31 16:57:00 1514757420.785188: $GPZDA,215701.00,31,12,2017,00,00*63
2017-12-31 16:57:00 1514757420.785340: $GPGGA,215701,3946.9584,N,08404.9862,W,2,11,0.80,302.90,M,-33.324,M,,*7E
2017-12-31 16:57:00 1514757420.785404: $GPRMC,215701,A,3946.9584,N,08404.9862,W,0.0000,0.000,311217,,*3D
2017-12-31 16:57:00 1514757420.785465: $GPGSA,A,3,22,23,25,3,16,29,31,14,32,26,135,,1.7,0.8,1.3*32
2017-12-31 16:57:01 1514757421.344747: $GPZDA,215702.00,31,12,2017,00,00*60
2017-12-31 16:57:01 1514757421.344909: $GPGGA,215702,3946.9584,N,08404.9862,W,2,11,0.80,302.90,M,-33.324,M,,*7D
2017-12-31 16:57:01 1514757421.344975: $GPRMC,215702,A,3946.9584,N,08404.9862,W,0.0000,0.000,311217,,*3E
2017-12-31 16:57:01 1514757421.345036: $GPGSA,A,3,22,23,25,3,16,29,31,14,32,26,135,,1.7,0.8,1.3*32
