2017-12-01 16:51:34 1512165094.845859: {"class":"VERSION","release":"3.16","rev":"3.16-4","proto_major":3,"proto_minor":11}
2017-12-01 16:51:34 1512165094.846240: {"class":"DEVICES","devices":[{"class":"DEVICE","path":"/dev/ttyUSB0","driver":"SiRF","subtype":"9\u0006GSD4e_4.1.2-P1_RPATCH.05-F-GPS-4R-1510281 11/03/2015 307","activated":"2017-12-01T21:51:34.693Z","flags":1,"native":1,"bps":4800,"parity":"N","stopbits":1,"cycle":1.00}]}
2017-12-01 16:51:34 1512165094.846361: {"class":"WATCH","enable":true,"json":false,"nmea":true,"raw":0,"scaled":false,"timing":false,"split24":false,"pps":false}
2017-12-01 16:51:35 1512165095.373776: $GPZDA,215136.00,01,12,2017,00,00*62
2017-12-01 16:51:35 1512165095.373970: $GPGGA,215136,3946.9641,N,08404.9742,W,2,11,0.80,299.59,M,-33.324,M,,*7D
2017-12-01 16:51:35 1512165095.374039: $GPRMC,215136,A,3946.9641,N,08404.9742,W,0.4844,93.794,011217,,*07
2017-12-01 16:51:35 1512165095.374105: $GPGSA,A,3,1,3,10,14,22,31,32,25,12,26,138,,2.0,0.8,1.5*03
2017-12-01 16:51:36 1512165096.710603: $GPGSV,3,1,12,01,22,291,39,03,08,316,36,10,38,151,38,14,69,351,44*7A
2017-12-01 16:51:36 1512165096.710783: $GPGSV,3,2,12,22,27,310,47,31,66,235,49,32,64,052,48,25,41,078,22*71
2017-12-01 16:51:36 1512165096.710850: $GPGSV,3,3,12,11,05,274,26,12,17,042,26,26,11,181,31,138,38,213,35*44
2017-12-01 16:51:36 1512165096.824273: $GPZDA,215137.00,01,12,2017,00,00*63
2017-12-01 16:51:36 1512165096.824442: $GPGGA,215137,3946.9641,N,08404.9742,W,2,12,0.80,299.59,M,-33.324,M,,*7F
2017-12-01 16:51:36 1512165096.824508: $GPRMC,215137,A,3946.9641,N,08404.9742,W,0.0000,0.000,011217,,*3A
2017-12-01 16:51:36 1512165096.824570: $GPGSA,A,3,1,3,10,14,22,31,32,25,11,12,26,138,2.0,0.8,1.5*03
2017-12-01 16:51:37 1512165097.375029: $GPZDA,215138.00,01,12,2017,00,00*6C
2017-12-01 16:51:37 1512165097.375218: $GPGGA,215138,3946.9640,N,08404.9734,W,2,12,0.80,298.27,M,-33.324,M,,*78
2017-12-01 16:51:37 1512165097.375288: $GPRMC,215138,A,3946.9640,N,08404.9734,W,0.3155,129.994,011217,,*39
2017-12-01 16:51:37 1512165097.375350: $GPGSA,A,3,1,3,10,14,22,31,32,25,11,12,26,138,2.0,0.8,1.5*03
2017-12-01 16:51:38 1512165098.376013: $GPZDA,215139.00,01,12,2017,00,00*6D
2017-12-01 16:51:38 1512165098.376191: $GPGGA,215139,3946.9640,N,08404.9734,W,2,12,0.80,298.27,M,-33.324,M,,*79
2017-12-01 16:51:38 1512165098.376256: $GPRMC,215139,A,3946.9640,N,08404.9734,W,0.0000,0.000,011217,,*34
2017-12-01 16:51:38 1512165098.376319: $GPGSA,A,3,1,3,10,14,22,31,32,25,11,12,26,138,2.0,0.8,1.5*03
2017-12-01 16:51:39 1512165099.711421: $GPGSV,3,1,12,01,22,291,40,03,08,316,35,10,38,151,38,14,69,351,44*77
2017-12-01 16:51:39 1512165099.711618: $GPGSV,3,2,12,22,27,310,47,31,66,235,49,32,64,052,49,25,41,078,19*78
2017-12-01 16:51:39 1512165099.711689: $GPGSV,3,3,12,11,05,274,27,12,17,042,25,26,11,181,30,138,38,213,38*4A
2017-12-01 16:51:39 1512165099.824901: $GPZDA,215140.00,01,12,2017,00,00*63
2017-12-01 16:51:39 1512165099.825091: $GPGGA,215140,3946.9640,N,08404.9734,W,2,11,0.80,298.27,M,-33.324,M,,*74
2017-12-01 16:51:39 1512165099.825165: $GPRMC,215140,A,3946.9640,N,08404.9734,W,0.0000,0.000,011217,,*3A
2017-12-01 16:51:39 1512165099.825226: $GPGSA,A,3,1,3,10,14,22,31,32,11,12,26,138,,2.0,0.8,1.5*04
2017-12-01 16:51:40 1512165100.450218: $GPZDA,215141.00,01,12,2017,00,00*62
2017-12-01 16:51:40 1512165100.450389: $GPGGA,215141,3946.9640,N,08404.9734,W,2,11,0.80,298.27,M,-33.324,M,,*75
2017-12-01 16:51:40 1512165100.450456: $GPRMC,215141,A,3946.9640,N,08404.9734,W,0.0000,0.000,011217,,*3B
2017-12-01 16:51:40 1512165100.450519: $GPGSA,A,3,1,3,10,14,22,31,32,11,12,26,138,,2.0,0.8,1.5*04
2017-12-01 16:51:41 1512165101.375088: $GPZDA,215142.00,01,12,2017,00,00*61
2017-12-01 16:51:41 1512165101.375266: $GPGGA,215142,3946.9640,N,08404.9734,W,2,11,0.80,298.27,M,-33.324,M,,*76
2017-12-01 16:51:41 1512165101.375333: $GPRMC,215142,A,3946.9640,N,08404.9734,W,0.0000,0.000,011217,,*38
2017-12-01 16:51:41 1512165101.375395: $GPGSA,A,3,1,3,10,14,22,31,32,11,12,26,138,,2.0,0.8,1.5*04
2017-12-01 16:51:42 1512165102.711784: $GPGSV,3,1,12,01,22,291,40,03,08,316,35,10,38,151,37,14,69,351,44*78
2017-12-01 16:51:42 1512165102.712020: $GPGSV,3,2,12,22,27,310,47,31,66,235,49,32,64,052,49,25,41,078,17*76
2017-12-01 16:51:42 1512165102.712093: $GPGSV,3,3,12,11,05,274,27,12,17,042,14,26,11,181,30,138,38,213,39*49
2017-12-01 16:51:42 1512165102.825104: $GPZDA,215143.00,01,12,2017,00,00*60
2017-12-01 16:51:42 1512165102.825290: $GPGGA,215143,3946.9640,N,08404.9734,W,2,12,0.80,298.27,M,-33.324,M,,*74
2017-12-01 16:51:42 1512165102.825358: $GPRMC,215143,A,3946.9640,N,08404.9734,W,0.0000,0.000,011217,,*39
2017-12-01 16:51:42 1512165102.825421: $GPGSA,A,3,1,3,10,14,22,31,32,25,11,12,26,138,2.0,0.8,1.5*03
2017-12-01 16:51:43 1512165103.381235: $GPZDA,215144.00,01,12,2017,00,00*67
2017-12-01 16:51:43 1512165103.381475: $GPGGA,215144,3946.9640,N,08404.9734,W,2,12,0.80,298.27,M,-33.324,M,,*73
2017-12-01 16:51:43 1512165103.381549: $GPRMC,215144,A,3946.9640,N,08404.9734,W,0.0000,0.000,011217,,*3E
2017-12-01 16:51:43 1512165103.381610: $GPGSA,A,3,1,3,10,14,22,31,32,25,11,12,26,138,2.0,0.8,1.5*03
2017-12-01 16:51:44 1512165104.378105: $GPZDA,215145.00,01,12,2017,00,00*66
2017-12-01 16:51:44 1512165104.378293: $GPGGA,215145,3946.9640,N,08404.9734,W,2,12,0.80,298.27,M,-33.324,M,,*72
2017-12-01 16:51:44 1512165104.378361: $GPRMC,215145,A,3946.9640,N,08404.9734,W,0.0000,0.000,011217,,*3F
2017-12-01 16:51:44 1512165104.378423: $GPGSA,A,3,1,3,10,14,22,31,32,25,11,12,26,138,2.0,0.8,1.5*03
2017-12-01 16:51:45 1512165105.713328: $GPGSV,3,1,12,01,22,291,39,03,08,316,35,10,38,151,37,14,69,351,44*76
2017-12-01 16:51:45 1512165105.713515: $GPGSV,3,2,12,22,27,310,47,31,66,235,49,32,64,052,49,25,41,078,18*79
2017-12-01 16:51:45 1512165105.713581: $GPGSV,3,3,12,11,05,274,26,12,17,042,16,26,11,181,30,138,38,213,39*4A
2017-12-01 16:51:45 1512165105.826646: $GPZDA,215146.00,01,12,2017,00,00*65
2017-12-01 16:51:45 1512165105.826793: $GPGGA,215146,3946.9640,N,08404.9734,W,2,12,0.80,298.27,M,-33.324,M,,*71
2017-12-01 16:51:45 1512165105.826860: $GPRMC,215146,A,3946.9640,N,08404.9734,W,0.0000,0.000,011217,,*3C
2017-12-01 16:51:45 1512165105.826921: $GPGSA,A,3,1,3,10,14,22,31,32,25,11,12,26,138,2.0,0.8,1.5*03
2017-12-01 16:51:46 1512165106.378823: $GPZDA,215147.00,01,12,2017,00,00*64
2017-12-01 16:51:46 1512165106.379002: $GPGGA,215147,3946.9640,N,08404.9734,W,2,12,0.80,298.27,M,-33.324,M,,*70
2017-12-01 16:51:46 1512165106.379075: $GPRMC,215147,A,3946.9640,N,08404.9734,W,0.0000,0.000,011217,,*3D
2017-12-01 16:51:46 1512165106.379140: $GPGSA,A,3,1,3,10,14,22,31,32,25,11,12,26,138,2.0,0.8,1.5*03
2017-12-01 16:51:47 1512165107.378447: $GPZDA,215148.00,01,12,2017,00,00*6B
2017-12-01 16:51:47 1512165107.378624: $GPGGA,215148,3946.9645,N,08404.9734,W,2,12,0.80,298.91,M,-33.324,M,,*77
2017-12-01 16:51:47 1512165107.378691: $GPRMC,215148,A,3946.9645,N,08404.9734,W,0.0000,0.000,011217,,*37
2017-12-01 16:51:47 1512165107.378754: $GPGSA,A,3,1,3,10,14,22,31,32,25,11,12,26,138,2.0,0.8,1.5*03
2017-12-01 16:51:48 1512165108.714256: $GPGSV,3,1,12,01,22,291,40,03,08,316,35,10,38,151,38,14,69,351,44*77
2017-12-01 16:51:48 1512165108.714420: $GPGSV,3,2,12,22,27,310,47,31,66,235,48,32,64,052,48,25,41,078,18*79
2017-12-01 16:51:48 1512165108.714487: $GPGSV,3,3,12,11,05,274,29,12,17,042,17,26,11,181,31,138,38,213,38*44
2017-12-01 16:51:48 1512165108.827963: $GPZDA,215149.00,01,12,2017,00,00*6A
2017-12-01 16:51:48 1512165108.828146: $GPGGA,215149,3946.9645,N,08404.9734,W,2,12,0.80,298.91,M,-33.324,M,,*76
2017-12-01 16:51:48 1512165108.828216: $GPRMC,215149,A,3946.9645,N,08404.9734,W,0.0000,0.000,011217,,*36
2017-12-01 16:51:48 1512165108.828277: $GPGSA,A,3,1,3,10,14,22,31,32,25,11,12,26,138,2.0,0.8,1.5*03
2017-12-01 16:51:49 1512165109.378518: $GPZDA,215150.00,01,12,2017,00,00*62
2017-12-01 16:51:49 1512165109.378702: $GPGGA,215150,3946.9645,N,08404.9734,W,2,12,0.80,298.91,M,-33.324,M,,*7E
2017-12-01 16:51:49 1512165109.378771: $GPRMC,215150,A,3946.9645,N,08404.9734,W,0.0000,0.000,011217,,*3E
2017-12-01 16:51:49 1512165109.378832: $GPGSA,A,3,1,3,10,14,22,31,32,25,11,12,26,138,2.0,0.8,1.5*03
2017-12-01 16:51:50 1512165110.378924: $GPZDA,215151.00,01,12,2017,00,00*63
2017-12-01 16:51:50 1512165110.379105: $GPGGA,215151,3946.9645,N,08404.9734,W,2,12,0.80,298.91,M,-33.324,M,,*7F
2017-12-01 16:51:50 1512165110.379172: $GPRMC,215151,A,3946.9645,N,08404.9734,W,0.0000,0.000,011217,,*3F
2017-12-01 16:51:50 1512165110.379235: $GPGSA,A,3,1,3,10,14,22,31,32,25,11,12,26,138,2.0,0.8,1.5*03
2017-12-01 16:51:51 1512165111.715810: $GPGSV,3,1,12,01,22,291,40,03,08,316,35,10,38,151,38,14,69,351,44*77
2017-12-01 16:51:51 1512165111.715998: $GPGSV,3,2,12,22,27,310,47,31,66,235,49,32,64,052,49,25,41,078,14*75
2017-12-01 16:51:51 1512165111.716067: $GPGSV,3,3,12,18,09,147,14,12,17,042,17,26,11,181,31,138,38,213,40*43
2017-12-01 16:51:51 1512165111.829181: $GPZDA,215152.00,01,12,2017,00,00*60
2017-12-01 16:51:51 1512165111.829352: $GPGGA,215152,3946.9645,N,08404.9734,W,2,11,0.80,298.91,M,-33.324,M,,*7F
2017-12-01 16:51:51 1512165111.829419: $GPRMC,215152,A,3946.9645,N,08404.9734,W,0.0000,0.000,011217,,*3C
2017-12-01 16:51:51 1512165111.829482: $GPGSA,A,3,1,3,10,14,22,31,32,25,12,26,138,,2.0,0.8,1.5*03
2017-12-01 16:51:52 1512165112.378808: $GPZDA,215153.00,01,12,2017,00,00*61
2017-12-01 16:51:52 1512165112.378990: $GPGGA,215153,3946.9645,N,08404.9734,W,2,11,0.80,298.91,M,-33.324,M,,*7E
2017-12-01 16:51:52 1512165112.379057: $GPRMC,215153,A,3946.9645,N,08404.9734,W,0.0000,0.000,011217,,*3D
2017-12-01 16:51:52 1512165112.379122: $GPGSA,A,3,1,3,10,14,22,31,32,25,12,26,138,,2.0,0.8,1.5*03
2017-12-01 16:51:53 1512165113.377437: $GPZDA,215154.00,01,12,2017,00,00*66
2017-12-01 16:51:53 1512165113.377609: $GPGGA,215154,3946.9645,N,08404.9734,W,2,11,0.80,298.91,M,-33.324,M,,*79
2017-12-01 16:51:53 1512165113.377677: $GPRMC,215154,A,3946.9645,N,08404.9734,W,0.0000,0.000,011217,,*3A
2017-12-01 16:51:53 1512165113.377739: $GPGSA,A,3,1,3,10,14,22,31,32,25,12,26,138,,2.0,0.8,1.5*03
2017-12-01 16:51:54 1512165114.714240: $GPGSV,3,1,12,01,22,291,41,03,08,316,35,10,38,151,38,14,69,351,44*76
2017-12-01 16:51:54 1512165114.714403: $GPGSV,3,2,12,22,27,310,47,31,66,235,48,32,64,052,49,25,41,078,18*78
2017-12-01 16:51:54 1512165114.714470: $GPGSV,3,3,12,18,09,147,19,12,17,042,19,26,11,181,32,138,38,213,40*43
2017-12-01 16:51:54 1512165114.827528: $GPZDA,215155.00,01,12,2017,00,00*67
2017-12-01 16:51:54 1512165114.827702: $GPGGA,215155,3946.9645,N,08404.9734,W,2,12,0.80,298.91,M,-33.324,M,,*7B
2017-12-01 16:51:54 1512165114.827768: $GPRMC,215155,A,3946.9645,N,08404.9734,W,0.0000,0.000,011217,,*3B
2017-12-01 16:51:54 1512165114.827830: $GPGSA,A,3,1,3,10,14,22,31,32,25,18,12,26,138,2.0,0.8,1.5*0A
