2018-01-12 03:32:46 1515745966.778597: {"class":"VERSION","release":"3.16","rev":"3.16-4","proto_major":3,"proto_minor":11}
2018-01-12 03:32:46 1515745966.779053: {"class":"DEVICES","devices":[{"class":"DEVICE","path":"/dev/ttyUSB0","driver":"SiRF","subtype":"9\u0006GSD4e_4.1.2-P1_RPATCH.05-F-GPS-4R-1510281 11/03/2015 307","activated":"2018-01-12T08:32:46.506Z","flags":1,"native":1,"bps":4800,"parity":"N","stopbits":1,"cycle":1.00}]}
2018-01-12 03:32:46 1515745966.779172: {"class":"WATCH","enable":true,"json":false,"nmea":true,"raw":0,"scaled":false,"timing":false,"split24":false,"pps":false}
2018-01-12 03:32:47 1515745967.701633: $GPGSV,3,1,12,02,64,286,47,05,26,195,45,06,64,030,47,12,51,291,51*77
2018-01-12 03:32:47 1515745967.701816: $GPGSV,3,2,12,17,31,105,45,19,49,093,41,25,18,318,43,09,14,088,29*74
2018-01-12 03:32:47 1515745967.701882: $GPGSV,3,3,12,23,09,055,25,24,03,246,24,04,38,261,00,138,38,213,38*46
2018-01-12 03:32:47 1515745967.815036: $GPZDA,083248.00,12,01,2018,00,00*6A
2018-01-12 03:32:47 1515745967.815219: $GPGGA,083248,3946.9589,N,08404.9874,W,2,11,0.80,287.73,M,-33.324,M,,*70
2018-01-12 03:32:47 1515745967.815285: $GPRMC,083248,A,3946.9589,N,08404.9874,W,0.0000,0.000,120118,,*3E
2018-01-12 03:32:47 1515745967.815348: $GPGSA,A,3,2,5,6,12,17,19,25,9,23,24,138,,2.4,0.8,2.1*00
2018-01-12 03:32:48 1515745968.441926: $GPZDA,083249.00,12,01,2018,00,00*6B
2018-01-12 03:32:48 1515745968.442114: $GPGGA,083249,3946.9589,N,08404.9874,W,2,11,0.80,287.73,M,-33.324,M,,*71
2018-01-12 03:32:48 1515745968.442197: $GPRMC,083249,A,3946.9589,N,08404.9874,W,0.0000,0.000,120118,,*3F
2018-01-12 03:32:48 1515745968.442260: $GPGSA,A,3,2,5,6,12,17,19,25,9,23,24,138,,2.4,0.8,2.1*00
2018-01-12 03:32:49 1515745969.367557: $GPZDA,083250.00,12,01,2018,00,00*63
2018-01-12 03:32:49 1515745969.367731: $GPGGA,083250,3946.9588,N,08404.9865,W,2,11,0.80,285.00,M,-33.324,M,,*7E
2018-01-12 03:32:49 1515745969.367796: $GPRMC,083250,A,3946.9588,N,08404.9865,W,0.0000,0.000,120118,,*36
2018-01-12 03:32:49 1515745969.367857: $GPGSA,A,3,2,5,6,12,17,19,25,9,23,24,138,,2.4,0.8,2.1*00
2018-01-12 03:32:50 1515745970.708249: $GPGSV,3,1,12,02,64,286,46,05,26,195,45,06,64,030,47,12,51,291,51*76
2018-01-12 03:32:50 1515745970.713630: $GPGSV,3,2,12,17,31,105,44,19,49,093,40,25,18,318,43,09,14,088,29*74
2018-01-12 03:32:50 1515745970.713738: $GPGSV,3,3,12,23,09,055,25,24,03,246,24,04,38,261,00,138,38,213,37*49
2018-01-12 03:32:50 1515745970.821773: $GPZDA,083251.00,12,01,2018,00,00*62
2018-01-12 03:32:50 1515745970.821951: $GPGGA,083251,3946.9588,N,08404.9865,W,2,11,0.80,285.00,M,-33.324,M,,*7F
2018-01-12 03:32:50 1515745970.822019: $GPRMC,083251,A,3946.9588,N,08404.9865,W,0.0000,0.000,120118,,*37
2018-01-12 03:32:50 1515745970.822084: $GPGSA,A,3,2,5,6,12,17,19,25,9,23,24,138,,2.4,0.8,2.1*00
2018-01-12 03:32:51 1515745971.367566: $GPZDA,083252.00,12,01,2018,00,00*61
2018-01-12 03:32:51 1515745971.367747: $GPGGA,083252,3946.9588,N,08404.9865,W,2,11,0.80,285.00,M,-33.324,M,,*7C
2018-01-12 03:32:51 1515745971.367819: $GPRMC,083252,A,3946.9588,N,08404.9865,W,0.0000,0.000,120118,,*34
2018-01-12 03:32:51 1515745971.367881: $GPGSA,A,3,2,5,6,12,17,19,25,9,23,24,138,,2.4,0.8,2.1*00
2018-01-12 03:32:52 1515745972.365859: $GPZDA,083253.00,12,01,2018,00,00*60
2018-01-12 03:32:52 1515745972.366021: $GPGGA,083253,3946.9588,N,08404.9865,W,2,11,0.80,285.00,M,-33.324,M,,*7D
2018-01-12 03:32:52 1515745972.366091: $GPRMC,083253,A,3946.9588,N,08404.9865,W,0.0000,0.000,120118,,*35
2018-01-12 03:32:52 1515745972.366154: $GPGSA,A,3,2,5,6,12,17,19,25,9,23,24,138,,2.4,0.8,2.1*00
2018-01-12 03:32:52 1515745972.366214: $GPGBS,083253,3.00,M,3.62,M,11.97,M*0B
2018-01-12 03:32:53 1515745973.701001: $GPGSV,3,1,12,02,64,286,46,05,26,195,45,06,64,030,47,12,51,291,51*76
2018-01-12 03:32:53 1515745973.701190: $GPGSV,3,2,12,17,31,105,44,19,49,093,41,25,18,318,43,09,14,088,29*75
2018-01-12 03:32:53 1515745973.701257: $GPGSV,3,3,12,23,09,055,25,24,03,246,26,04,38,261,00,138,38,213,40*4B
2018-01-12 03:32:53 1515745973.814758: $GPZDA,083254.00,12,01,2018,00,00*67
2018-01-12 03:32:53 1515745973.814984: $GPGGA,083254,3946.9588,N,08404.9865,W,2,11,0.80,285.00,M,-33.324,M,,*7A
2018-01-12 03:32:53 1515745973.815057: $GPRMC,083254,A,3946.9588,N,08404.9865,W,0.0000,0.000,120118,,*32
2018-01-12 03:32:53 1515745973.815119: $GPGSA,A,3,2,5,6,12,17,19,25,9,23,24,138,,2.4,0.8,2.1*00
2018-01-12 03:32:54 1515745974.366578: $GPZDA,083255.00,12,01,2018,00,00*66
2018-01-12 03:32:54 1515745974.366890: $GPGGA,083255,3946.9588,N,08404.9865,W,2,11,0.80,285.00,M,-33.324,M,,*7B
2018-01-12 03:32:54 1515745974.367044: $GPRMC,083255,A,3946.9588,N,08404.9865,W,0.0000,0.000,120118,,*33
2018-01-12 03:32:54 1515745974.367169: $GPGSA,A,3,2,5,6,12,17,19,25,9,23,24,138,,2.4,0.8,2.1*00
2018-01-12 03:32:55 1515745975.367353: $GPZDA,083256.00,12,01,2018,00,00*65
2018-01-12 03:32:55 1515745975.367527: $GPGGA,083256,3946.9588,N,08404.9865,W,2,11,0.80,285.00,M,-33.324,M,,*78
2018-01-12 03:32:55 1515745975.367594: $GPRMC,083256,A,3946.9588,N,08404.9865,W,0.0000,0.000,120118,,*30
2018-01-12 03:32:55 1515745975.367654: $GPGSA,A,3,2,5,6,12,17,19,25,9,23,24,138,,2.4,0.8,2.1*00
2018-01-12 03:32:56 1515745976.700593: $GPGSV,3,1,12,02,64,286,46,05,26,195,45,06,64,030,48,12,51,291,51*79
2018-01-12 03:32:56 1515745976.700774: $GPGSV,3,2,12,17,31,105,44,19,49,093,40,25,18,318,43,09,14,088,28*75
2018-01-12 03:32:56 1515745976.700839: $GPGSV,3,3,12,23,09,055,24,24,03,246,31,04,38,261,00,138,38,213,33*48
2018-01-12 03:32:56 1515745976.814098: $GPZDA,083257.00,12,01,2018,00,00*64
2018-01-12 03:32:56 1515745976.814545: $GPGGA,083257,3946.9588,N,08404.9865,W,2,11,0.80,285.00,M,-33.324,M,,*79
2018-01-12 03:32:56 1515745976.814625: $GPRMC,083257,A,3946.9588,N,08404.9865,W,0.0000,0.000,120118,,*31
2018-01-12 03:32:56 1515745976.814687: $GPGSA,A,3,2,5,6,12,17,19,25,9,23,24,138,,2.4,0.8,2.1*00
2018-01-12 03:32:57 1515745977.366185: $GPZDA,083258.00,12,01,2018,00,00*6B
2018-01-12 03:32:57 1515745977.366354: $GPGGA,083258,3946.9588,N,08404.9865,W,2,11,0.80,285.00,M,-33.324,M,,*76
2018-01-12 03:32:57 1515745977.366420: $GPRMC,083258,A,3946.9588,N,08404.9865,W,0.0000,0.000,120118,,*3E
2018-01-12 03:32:57 1515745977.366481: $GPGSA,A,3,2,5,6,12,17,19,25,9,23,24,138,,2.4,0.8,2.1*00
2018-01-12 03:32:58 1515745978.366516: $GPZDA,083259.00,12,01,2018,00,00*6A
2018-01-12 03:32:58 1515745978.366676: $GPGGA,083259,3946.9588,N,08404.9865,W,2,11,0.80,285.00,M,-33.324,M,,*77
2018-01-12 03:32:58 1515745978.366741: $GPRMC,083259,A,3946.9588,N,08404.9865,W,0.0000,0.000,120118,,*3F
2018-01-12 03:32:58 1515745978.366802: $GPGSA,A,3,2,5,6,12,17,19,25,9,23,24,138,,2.4,0.8,2.1*00
2018-01-12 03:32:59 1515745979.702211: $GPGSV,3,1,12,02,64,286,46,05,26,195,45,06,64,030,47,12,51,291,51*76
2018-01-12 03:32:59 1515745979.702392: $GPGSV,3,2,12,17,31,105,43,19,49,093,40,25,18,318,43,09,14,088,28*72
2018-01-12 03:32:59 1515745979.702457: $GPGSV,3,3,12,23,09,055,24,24,03,246,31,04,38,261,00,138,38,213,37*4C
2018-01-12 03:32:59 1515745979.816287: $GPZDA,083300.00,12,01,2018,00,00*67
2018-01-12 03:32:59 1515745979.816576: $GPGGA,083300,3946.9588,N,08404.9865,W,2,11,0.80,285.00,M,-33.324,M,,*7A
2018-01-12 03:32:59 1515745979.816727: $GPRMC,083300,A,3946.9588,N,08404.9865,W,0.0000,0.000,120118,,*32
2018-01-12 03:32:59 1515745979.816892: $GPGSA,A,3,2,5,6,12,17,19,25,9,23,24,138,,2.4,0.8,2.1*00
2018-01-12 03:33:00 1515745980.366968: $GPZDA,083301.00,12,01,2018,00,00*66
2018-01-12 03:33:00 1515745980.367263: $GPGGA,083301,3946.9588,N,08404.9865,W,2,11,0.80,285.00,M,-33.324,M,,*7B
2018-01-12 03:33:00 1515745980.367388: $GPRMC,083301,A,3946.9588,N,08404.9865,W,0.0000,0.000,120118,,*33
2018-01-12 03:33:00 1515745980.367538: $GPGSA,A,3,2,5,6,12,17,19,25,9,23,24,138,,2.4,0.8,2.1*00
2018-01-12 03:33:01 1515745981.368733: $GPZDA,083302.00,12,01,2018,00,00*65
2018-01-12 03:33:01 1515745981.373469: $GPGGA,083302,3946.9588,N,08404.9865,W,2,11,0.80,285.00,M,-33.324,M,,*78
2018-01-12 03:33:01 1515745981.373571: $GPRMC,083302,A,3946.9588,N,08404.9865,W,0.0000,0.000,120118,,*30
2018-01-12 03:33:01 1515745981.373648: $GPGSA,A,3,2,5,6,12,17,19,25,9,23,24,138,,2.4,0.8,2.1*00
2018-01-12 03:33:02 1515745982.703189: $GPGSV,3,1,12,02,64,286,47,05,26,195,45,06,64,030,47,12,51,291,51*77
2018-01-12 03:33:02 1515745982.703366: $GPGSV,3,2,12,17,31,105,43,19,49,093,40,25,18,318,43,09,14,088,28*72
2018-01-12 03:33:02 1515745982.703432: $GPGSV,3,3,12,23,09,055,24,24,03,246,30,04,38,261,10,138,38,213,38*43
2018-01-12 03:33:02 1515745982.816635: $GPZDA,083303.00,12,01,2018,00,00*64
2018-01-12 03:33:02 1515745982.816802: $GPGGA,083303,3946.9588,N,08404.9865,W,2,11,0.80,285.00,M,-33.324,M,,*79
2018-01-12 03:33:02 1515745982.816870: $GPRMC,083303,A,3946.9588,N,08404.9865,W,0.0000,0.000,120118,,*31
2018-01-12 03:33:02 1515745982.816930: $GPGSA,A,3,2,5,6,12,17,19,25,9,23,24,138,,2.4,0.8,2.1*00
2018-01-12 03:33:03 1515745983.442000: $GPZDA,083304.00,12,01,2018,00,00*63
2018-01-12 03:33:03 1515745983.442188: $GPGGA,083304,3946.9588,N,08404.9865,W,2,11,0.80,285.00,M,-33.324,M,,*7E
2018-01-12 03:33:03 1515745983.442269: $GPRMC,083304,A,3946.9588,N,08404.9865,W,0.0000,0.000,120118,,*36
2018-01-12 03:33:03 1515745983.442330: $GPGSA,A,3,2,5,6,12,17,19,25,9,23,24,138,,2.4,0.8,2.1*00
2018-01-12 03:33:04 1515745984.371999: $GPZDA,083305.00,12,01,2018,00,00*62
2018-01-12 03:33:04 1515745984.372183: $GPGGA,083305,3946.9588,N,08404.9865,W,2,11,0.80,285.00,M,-33.324,M,,*7F
2018-01-12 03:33:04 1515745984.372250: $GPRMC,083305,A,3946.9588,N,08404.9865,W,0.0000,0.000,120118,,*37
2018-01-12 03:33:04 1515745984.372311: $GPGSA,A,3,2,5,6,12,17,19,25,9,23,24,138,,2.4,0.8,2.1*00
2018-01-12 03:33:05 1515745985.702425: $GPGSV,3,1,12,02,64,286,47,05,26,195,45,06,64,030,47,12,51,291,51*77
2018-01-12 03:33:05 1515745985.702606: $GPGSV,3,2,12,17,31,105,43,19,49,093,40,25,18,318,43,09,14,088,28*72
2018-01-12 03:33:05 1515745985.702673: $GPGSV,3,3,12,23,09,055,24,24,03,246,24,04,38,261,00,138,38,213,38*47
2018-01-12 03:33:05 1515745985.817712: $GPZDA,083306.00,12,01,2018,00,00*61
2018-01-12 03:33:05 1515745985.818069: $GPGGA,083306,3946.9588,N,08404.9865,W,2,11,0.80,285.00,M,-33.324,M,,*7C
2018-01-12 03:33:05 1515745985.818317: $GPRMC,083306,A,3946.9588,N,08404.9865,W,0.0000,0.000,120118,,*34
2018-01-12 03:33:05 1515745985.818456: $GPGSA,A,3,2,5,6,12,17,19,25,9,23,24,138,,2.4,0.8,2.1*00
2018-01-12 03:33:06 1515745986.369123: $GPZDA,083307.00,12,01,2018,00,00*60
2018-01-12 03:33:06 1515745986.369316: $GPGGA,083307,3946.9588,N,08404.9865,W,2,11,0.80,285.00,M,-33.324,M,,*7D
2018-01-12 03:33:06 1515745986.369399: $GPRMC,083307,A,3946.9588,N,08404.9865,W,0.0000,0.000,120118,,*35
2018-01-12 03:33:06 1515745986.369462: $GPGSA,A,3,2,5,6,12,17,19,25,9,23,24,138,,2.4,0.8,2.1*00
