2017-11-16 17:24:34 1510871074.354069: {"class":"VERSION","release":"3.17","rev":"3.17","proto_major":3,"proto_minor":12}
2017-11-16 17:24:34 1510871074.354745: {"class":"DEVICES","devices":[{"class":"DEVICE","path":"/dev/ttyUSB0","driver":"SiRF","subtype":"9\u0006GSD4e_4.1.2-P1_RPATCH.05-F-GPS-4R-1510281 11/03/2015 307","activated":"2017-11-16T22:24:34.306Z","flags":1,"native":1,"bps":4800,"parity":"N","stopbits":1,"cycle":1.00}]}
2017-11-16 17:24:34 1510871074.354903: {"class":"WATCH","enable":true,"json":false,"nmea":true,"raw":0,"scaled":false,"timing":false,"split24":false,"pps":false}
2017-11-16 17:24:34 1510871074.420145: $GPZDA,222433.00,16,11,2017,00,00*63
2017-11-16 17:24:34 1510871074.420308: $GPGGA,222433,3946.9570,N,08404.9830,W,2,11,0.80,307.75,M,-33.324,M,,*7A
2017-11-16 17:24:34 1510871074.420371: $GPRMC,222433,A,3946.9570,N,08404.9830,W,0.0000,0.000,161117,,*31
2017-11-16 17:24:34 1510871074.420428: $GPGSA,A,3,1,10,22,12,14,18,11,25,31,32,138,,1.6,0.8,1.3*3E
2017-11-16 17:24:35 1510871075.421090: $GPZDA,222434.00,16,11,2017,00,00*64
2017-11-16 17:24:35 1510871075.421255: $GPGGA,222434,3946.9570,N,08404.9830,W,2,11,0.80,307.75,M,-33.324,M,,*7D
2017-11-16 17:24:35 1510871075.421316: $GPRMC,222434,A,3946.9570,N,08404.9830,W,0.0000,0.000,161117,,*36
2017-11-16 17:24:35 1510871075.421374: $GPGSA,A,3,1,10,22,12,14,18,11,25,31,32,138,,1.6,0.8,1.3*3E
2017-11-16 17:24:36 1510871076.757646: $GPGSV,3,1,11,01,21,304,38,10,51,147,50,22,16,312,43,12,23,052,50*77
2017-11-16 17:24:36 1510871076.757825: $GPGSV,3,2,11,14,65,321,47,18,21,142,40,11,09,285,39,25,39,094,49*75
2017-11-16 17:24:36 1510871076.757893: $GPGSV,3,3,11,31,52,222,49,32,69,018,49,138,38,213,44*78
2017-11-16 17:24:36 1510871076.870954: $GPZDA,222435.00,16,11,2017,00,00*65
2017-11-16 17:24:36 1510871076.871124: $GPGGA,222435,3946.9570,N,08404.9830,W,2,11,0.80,307.75,M,-33.324,M,,*7C
2017-11-16 17:24:36 1510871076.871188: $GPRMC,222435,A,3946.9570,N,08404.9830,W,0.0000,0.000,161117,,*37
2017-11-16 17:24:36 1510871076.871247: $GPGSA,A,3,1,10,22,12,14,18,11,25,31,32,138,,1.6,0.8,1.3*3E
2017-11-16 17:24:37 1510871077.422166: $GPZDA,222436.00,16,11,2017,00,00*66
2017-11-16 17:24:37 1510871077.422328: $GPGGA,222436,3946.9570,N,08404.9830,W,2,11,0.80,307.75,M,-33.324,M,,*7F
2017-11-16 17:24:37 1510871077.422391: $GPRMC,222436,A,3946.9570,N,08404.9830,W,0.0000,0.000,161117,,*34
2017-11-16 17:24:37 1510871077.422450: $GPGSA,A,3,1,10,22,12,14,18,11,25,31,32,138,,1.6,0.8,1.3*3E
2017-11-16 17:24:38 1510871078.401420: $GPZDA,222437.00,16,11,2017,00,00*67
2017-11-16 17:24:38 1510871078.401589: $GPGGA,222437,3946.9570,N,08404.9830,W,2,11,0.80,307.75,M,-33.324,M,,*7E
2017-11-16 17:24:38 1510871078.401654: $GPRMC,222437,A,3946.9570,N,08404.9830,W,0.0000,0.000,161117,,*35
2017-11-16 17:24:38 1510871078.401713: $GPGSA,A,3,1,10,22,12,14,18,11,25,31,32,138,,1.6,0.8,1.3*3E
2017-11-16 17:24:39 1510871079.737268: $GPGSV,3,1,11,01,21,304,38,10,51,147,50,22,16,312,42,12,23,052,51*77
2017-11-16 17:24:39 1510871079.737453: $GPGSV,3,2,11,14,65,321,47,18,21,142,39,11,09,285,39,25,39,094,49*7B
2017-11-16 17:24:39 1510871079.737517: $GPGSV,3,3,11,31,52,222,49,32,69,018,49,138,38,213,44*78
2017-11-16 17:24:39 1510871079.850870: $GPZDA,222438.00,16,11,2017,00,00*68
2017-11-16 17:24:39 1510871079.851047: $GPGGA,222438,3946.9570,N,08404.9830,W,2,11,0.80,307.75,M,-33.324,M,,*71
2017-11-16 17:24:39 1510871079.851111: $GPRMC,222438,A,3946.9570,N,08404.9830,W,0.0000,0.000,161117,,*3A
2017-11-16 17:24:39 1510871079.851169: $GPGSA,A,3,1,10,22,12,14,18,11,25,31,32,138,,1.6,0.8,1.3*3E
2017-11-16 17:24:40 1510871080.401367: $GPZDA,222439.00,16,11,2017,00,00*69
2017-11-16 17:24:40 1510871080.401532: $GPGGA,222439,3946.9570,N,08404.9830,W,2,11,0.80,307.75,M,-33.324,M,,*70
2017-11-16 17:24:40 1510871080.401595: $GPRMC,222439,A,3946.9570,N,08404.9830,W,0.0000,0.000,161117,,*3B
2017-11-16 17:24:40 1510871080.401654: $GPGSA,A,3,1,10,22,12,14,18,11,25,31,32,138,,1.6,0.8,1.3*3E
2017-11-16 17:24:41 1510871081.402172: $GPZDA,222440.00,16,11,2017,00,00*67
2017-11-16 17:24:41 1510871081.402333: $GPGGA,222440,3946.9570,N,08404.9830,W,2,11,0.80,307.75,M,-33.324,M,,*7E
2017-11-16 17:24:41 1510871081.402450: $GPRMC,222440,A,3946.9570,N,08404.9830,W,0.0000,0.000,161117,,*35
2017-11-16 17:24:41 1510871081.402508: $GPGSA,A,3,1,10,22,12,14,18,11,25,31,32,138,,1.6,0.8,1.3*3E
2017-11-16 17:24:42 1510871082.738764: $GPGSV,3,1,11,01,21,304,37,10,51,147,50,22,16,312,42,12,23,052,51*78
2017-11-16 17:24:42 1510871082.738957: $GPGSV,3,2,11,14,65,321,47,18,21,142,40,11,09,285,39,25,39,094,48*74
2017-11-16 17:24:42 1510871082.739019: $GPGSV,3,3,11,31,52,222,49,32,69,018,49,138,38,213,44*78
2017-11-16 17:24:42 1510871082.850871: $GPZDA,222441.00,16,11,2017,00,00*66
2017-11-16 17:24:42 1510871082.851051: $GPGGA,222441,3946.9570,N,08404.9830,W,2,11,0.80,307.75,M,-33.324,M,,*7F
2017-11-16 17:24:42 1510871082.851113: $GPRMC,222441,A,3946.9570,N,08404.9830,W,0.0000,0.000,161117,,*34
2017-11-16 17:24:42 1510871082.851169: $GPGSA,A,3,1,10,22,12,14,18,11,25,31,32,138,,1.6,0.8,1.3*3E
2017-11-16 17:24:43 1510871083.401755: $GPZDA,222442.00,16,11,2017,00,00*65
2017-11-16 17:24:43 1510871083.401966: $GPGGA,222442,3946.9570,N,08404.9830,W,2,11,0.80,307.75,M,-33.324,M,,*7C
2017-11-16 17:24:43 1510871083.402028: $GPRMC,222442,A,3946.9570,N,08404.9830,W,0.0000,0.000,161117,,*37
2017-11-16 17:24:43 1510871083.402084: $GPGSA,A,3,1,10,22,12,14,18,11,25,31,32,138,,1.6,0.8,1.3*3E
