2018-01-12 02:39:52 1515742792.534605: {"class":"VERSION","release":"3.16","rev":"3.16-4","proto_major":3,"proto_minor":11}
2018-01-12 02:39:52 1515742792.535019: {"class":"DEVICES","devices":[{"class":"DEVICE","path":"/dev/ttyUSB0","driver":"SiRF","subtype":"9\u0006GSD4e_4.1.2-P1_RPATCH.05-F-GPS-4R-1510281 11/03/2015 307","activated":"2018-01-12T07:39:52.515Z","flags":1,"native":1,"bps":4800,"parity":"N","stopbits":1,"cycle":1.00}]}
2018-01-12 02:39:52 1515742792.535135: {"class":"WATCH","enable":true,"json":false,"nmea":true,"raw":0,"scaled":false,"timing":false,"split24":false,"pps":false}
2018-01-12 02:39:53 1515742793.350899: $GPZDA,073954.00,12,01,2018,00,00*63
2018-01-12 02:39:53 1515742793.351086: $GPGGA,073954,3946.9618,N,08404.9820,W,2,12,0.80,297.05,M,-33.324,M,,*70
2018-01-12 02:39:53 1515742793.351153: $GPRMC,073954,A,3946.9618,N,08404.9820,W,0.0000,0.000,120118,,*3D
2018-01-12 02:39:53 1515742793.351215: $GPGSA,A,3,2,3,6,12,17,19,24,5,9,28,23,138,2.4,0.8,2.1*3E
2018-01-12 02:39:54 1515742794.687921: $GPGSV,3,1,12,02,48,252,44,03,13,039,44,06,79,312,51,12,33,313,49*7B
2018-01-12 02:39:54 1515742794.688102: $GPGSV,3,2,12,17,48,079,44,19,64,052,43,24,16,265,29,05,04,195,27*77
2018-01-12 02:39:54 1515742794.688166: $GPGSV,3,3,12,09,01,108,16,28,12,150,21,23,03,076,08,138,38,213,37*4C
2018-01-12 02:39:54 1515742794.801508: $GPZDA,073955.00,12,01,2018,00,00*62
2018-01-12 02:39:54 1515742794.801657: $GPGGA,073955,3946.9618,N,08404.9820,W,2,12,0.80,297.05,M,-33.324,M,,*71
2018-01-12 02:39:54 1515742794.801727: $GPRMC,073955,A,3946.9618,N,08404.9820,W,0.0000,0.000,120118,,*3C
2018-01-12 02:39:54 1515742794.801787: $GPGSA,A,3,2,3,6,12,17,19,24,5,9,28,23,138,2.4,0.8,2.1*3E
2018-01-12 02:39:55 1515742795.352568: $GPZDA,073956.00,12,01,2018,00,00*61
2018-01-12 02:39:55 1515742795.352749: $GPGGA,073956,3946.9618,N,08404.9820,W,2,12,0.80,297.05,M,-33.324,M,,*72
2018-01-12 02:39:55 1515742795.352817: $GPRMC,073956,A,3946.9618,N,08404.9820,W,0.0000,0.000,120118,,*3F
2018-01-12 02:39:55 1515742795.352878: $GPGSA,A,3,2,3,6,12,17,19,24,5,9,28,23,138,2.4,0.8,2.1*3E
2018-01-12 02:39:56 1515742796.343322: $GPZDA,073957.00,12,01,2018,00,00*60
2018-01-12 02:39:56 1515742796.343505: $GPGGA,073957,3946.9622,N,08404.9820,W,2,12,0.80,297.69,M,-33.324,M,,*70
2018-01-12 02:39:56 1515742796.343598: $GPRMC,073957,A,3946.9622,N,08404.9820,W,0.0000,0.000,120118,,*37
2018-01-12 02:39:56 1515742796.343662: $GPGSA,A,3,2,3,6,12,17,19,24,5,9,28,23,138,2.4,0.8,2.1*3E
2018-01-12 02:39:57 1515742797.686278: $GPGSV,3,1,12,02,48,252,44,03,13,039,44,06,79,312,51,12,33,313,49*7B
2018-01-12 02:39:57 1515742797.686460: $GPGSV,3,2,12,17,48,079,44,19,64,052,43,24,16,265,23,05,04,195,26*7C
2018-01-12 02:39:57 1515742797.686526: $GPGSV,3,3,12,09,01,108,16,28,12,150,21,23,03,076,06,138,38,213,38*4D
2018-01-12 02:39:57 1515742797.799883: $GPZDA,073958.00,12,01,2018,00,00*6F
2018-01-12 02:39:57 1515742797.800019: $GPGGA,073958,3946.9622,N,08404.9820,W,2,12,0.80,297.69,M,-33.324,M,,*7F
2018-01-12 02:39:57 1515742797.800084: $GPRMC,073958,A,3946.9622,N,08404.9820,W,0.0000,0.000,120118,,*38
2018-01-12 02:39:57 1515742797.800143: $GPGSA,A,3,2,3,6,12,17,19,24,5,9,28,23,138,2.4,0.8,2.1*3E
2018-01-12 02:39:58 1515742798.425089: $GPZDA,073959.00,12,01,2018,00,00*6E
2018-01-12 02:39:58 1515742798.425258: $GPGGA,073959,3946.9622,N,08404.9820,W,2,12,0.80,297.69,M,-33.324,M,,*7E
2018-01-12 02:39:58 1515742798.425325: $GPRMC,073959,A,3946.9622,N,08404.9820,W,0.0000,0.000,120118,,*39
2018-01-12 02:39:58 1515742798.425386: $GPGSA,A,3,2,3,6,12,17,19,24,5,9,28,23,138,2.4,0.8,2.1*3E
2018-01-12 02:39:59 1515742799.352131: $GPZDA,074000.00,12,01,2018,00,00*6C
2018-01-12 02:39:59 1515742799.352306: $GPGGA,074000,3946.9622,N,08404.9820,W,2,12,0.80,297.69,M,-33.324,M,,*7C
2018-01-12 02:39:59 1515742799.352376: $GPRMC,074000,A,3946.9622,N,08404.9820,W,0.0000,0.000,120118,,*3B
2018-01-12 02:39:59 1515742799.352442: $GPGSA,A,3,2,3,6,12,17,19,24,5,9,28,23,138,2.4,0.8,2.1*3E
2018-01-12 02:40:00 1515742800.684114: $GPGSV,3,1,12,02,48,252,43,03,13,039,44,06,79,312,51,12,33,313,50*74
2018-01-12 02:40:00 1515742800.684400: $GPGSV,3,2,12,17,48,079,44,19,64,052,43,24,16,265,33,05,04,195,17*7F
2018-01-12 02:40:00 1515742800.684471: $GPGSV,3,3,12,09,01,108,15,28,12,150,22,23,03,076,08,138,38,213,32*49
2018-01-12 02:40:00 1515742800.797455: $GPZDA,074001.00,12,01,2018,00,00*6D
2018-01-12 02:40:00 1515742800.797604: $GPGGA,074001,3946.9618,N,08404.9821,W,2,12,0.80,298.46,M,-33.324,M,,*77
2018-01-12 02:40:00 1515742800.797673: $GPRMC,074001,A,3946.9618,N,08404.9821,W,0.0000,0.000,120118,,*32
2018-01-12 02:40:00 1515742800.797734: $GPGSA,A,3,2,3,6,12,17,19,24,5,9,28,23,138,2.4,0.8,2.1*3E
2018-01-12 02:40:01 1515742801.344853: $GPZDA,074002.00,12,01,2018,00,00*6E
2018-01-12 02:40:01 1515742801.345275: $GPGGA,074002,3946.9618,N,08404.9821,W,2,12,0.80,298.46,M,-33.324,M,,*74
2018-01-12 02:40:01 1515742801.349895: $GPRMC,074002,A,3946.9618,N,08404.9821,W,0.0000,0.000,120118,,*31
2018-01-12 02:40:01 1515742801.350098: $GPGSA,A,3,2,3,6,12,17,19,24,5,9,28,23,138,2.4,0.8,2.1*3E
2018-01-12 02:40:02 1515742802.345734: $GPZDA,074003.00,12,01,2018,00,00*6F
2018-01-12 02:40:02 1515742802.345909: $GPGGA,074003,3946.9618,N,08404.9821,W,2,12,0.80,298.46,M,-33.324,M,,*75
2018-01-12 02:40:02 1515742802.345974: $GPRMC,074003,A,3946.9618,N,08404.9821,W,0.0000,0.000,120118,,*30
2018-01-12 02:40:02 1515742802.346034: $GPGSA,A,3,2,3,6,12,17,19,24,5,9,28,23,138,2.4,0.8,2.1*3E
2018-01-12 02:40:03 1515742803.685821: $GPGSV,3,1,12,02,48,252,43,03,13,039,44,06,79,312,51,12,33,313,50*74
2018-01-12 02:40:03 1515742803.686003: $GPGSV,3,2,12,17,48,079,44,19,64,052,43,24,16,265,32,05,04,195,20*7A
2018-01-12 02:40:03 1515742803.686068: $GPGSV,3,3,12,09,01,108,15,28,12,150,22,23,03,076,04,138,38,213,36*41
2018-01-12 02:40:03 1515742803.799723: $GPZDA,074004.00,12,01,2018,00,00*68
2018-01-12 02:40:03 1515742803.799911: $GPGGA,074004,3946.9618,N,08404.9821,W,2,11,0.80,298.46,M,-33.324,M,,*71
2018-01-12 02:40:03 1515742803.799977: $GPRMC,074004,A,3946.9618,N,08404.9821,W,0.0000,0.000,120118,,*37
2018-01-12 02:40:03 1515742803.800038: $GPGSA,A,3,2,3,6,12,17,19,24,5,9,28,138,,2.4,0.8,2.1*3F
2018-01-12 02:40:04 1515742804.349235: $GPZDA,074005.00,12,01,2018,00,00*69
2018-01-12 02:40:04 1515742804.349424: $GPGGA,074005,3946.9618,N,08404.9821,W,2,11,0.80,298.46,M,-33.324,M,,*70
2018-01-12 02:40:04 1515742804.349490: $GPRMC,074005,A,3946.9618,N,08404.9821,W,0.0000,0.000,120118,,*36
2018-01-12 02:40:04 1515742804.349551: $GPGSA,A,3,2,3,6,12,17,19,24,5,9,28,138,,2.4,0.8,2.1*3F
2018-01-12 02:40:05 1515742805.353679: $GPZDA,074006.00,12,01,2018,00,00*6A
2018-01-12 02:40:05 1515742805.353850: $GPGGA,074006,3946.9618,N,08404.9821,W,2,11,0.80,298.46,M,-33.324,M,,*73
2018-01-12 02:40:05 1515742805.353916: $GPRMC,074006,A,3946.9618,N,08404.9821,W,0.0000,0.000,120118,,*35
2018-01-12 02:40:05 1515742805.353977: $GPGSA,A,3,2,3,6,12,17,19,24,5,9,28,138,,2.4,0.8,2.1*3F
2018-01-12 02:40:06 1515742806.686660: $GPGSV,3,1,12,02,48,252,43,03,13,039,44,06,79,312,51,12,33,313,50*74
2018-01-12 02:40:06 1515742806.686844: $GPGSV,3,2,12,17,48,079,44,19,64,052,43,24,16,265,31,05,04,195,21*78
2018-01-12 02:40:06 1515742806.686911: $GPGSV,3,3,12,09,01,108,14,28,12,150,22,23,03,076,04,138,38,213,37*41
2018-01-12 02:40:06 1515742806.800446: $GPZDA,074007.00,12,01,2018,00,00*6B
2018-01-12 02:40:06 1515742806.800617: $GPGGA,074007,3946.9618,N,08404.9821,W,2,11,0.80,298.46,M,-33.324,M,,*72
2018-01-12 02:40:06 1515742806.800698: $GPRMC,074007,A,3946.9618,N,08404.9821,W,0.0000,0.000,120118,,*34
2018-01-12 02:40:06 1515742806.800760: $GPGSA,A,3,2,3,6,12,17,19,24,5,9,28,138,,2.4,0.8,2.1*3F
2018-01-12 02:40:07 1515742807.353702: $GPZDA,074008.00,12,01,2018,00,00*64
2018-01-12 02:40:07 1515742807.353871: $GPGGA,074008,3946.9618,N,08404.9821,W,2,11,0.80,298.46,M,-33.324,M,,*7D
2018-01-12 02:40:07 1515742807.353938: $GPRMC,074008,A,3946.9618,N,08404.9821,W,0.0000,0.000,120118,,*3B
2018-01-12 02:40:07 1515742807.353998: $GPGSA,A,3,2,3,6,12,17,19,24,5,9,28,138,,2.4,0.8,2.1*3F
2018-01-12 02:40:08 1515742808.350263: $GPZDA,074009.00,12,01,2018,00,00*65
2018-01-12 02:40:08 1515742808.350483: $GPGGA,074009,3946.9618,N,08404.9821,W,2,11,0.80,298.46,M,-33.324,M,,*7C
2018-01-12 02:40:08 1515742808.350552: $GPRMC,074009,A,3946.9618,N,08404.9821,W,0.0000,0.000,120118,,*3A
2018-01-12 02:40:08 1515742808.350613: $GPGSA,A,3,2,3,6,12,17,19,24,5,9,28,138,,2.4,0.8,2.1*3F
2018-01-12 02:40:09 1515742809.726973: $GPGSV,3,1,12,02,48,252,43,03,13,039,43,06,79,312,51,12,33,313,50*73
2018-01-12 02:40:09 1515742809.727155: $GPGSV,3,2,12,17,48,079,44,19,64,052,43,24,16,265,30,05,04,195,22*7A
2018-01-12 02:40:09 1515742809.727220: $GPGSV,3,3,12,09,01,108,04,28,12,150,21,23,03,076,04,138,38,213,39*4D
2018-01-12 02:40:09 1515742809.840623: $GPZDA,074010.00,12,01,2018,00,00*6D
2018-01-12 02:40:09 1515742809.840792: $GPGGA,074010,3946.9618,N,08404.9821,W,2,10,0.80,298.46,M,-33.324,M,,*75
2018-01-12 02:40:09 1515742809.840858: $GPRMC,074010,A,3946.9618,N,08404.9821,W,0.0000,0.000,120118,,*32
2018-01-12 02:40:09 1515742809.840919: $GPGSA,A,3,2,3,6,12,17,19,24,5,28,138,,,2.4,0.8,2.1*06
2018-01-12 02:40:10 1515742810.390029: $GPZDA,074011.00,12,01,2018,00,00*6C
2018-01-12 02:40:10 1515742810.390201: $GPGGA,074011,3946.9618,N,08404.9821,W,2,10,0.80,298.46,M,-33.324,M,,*74
2018-01-12 02:40:10 1515742810.390267: $GPRMC,074011,A,3946.9618,N,08404.9821,W,0.0000,0.000,120118,,*33
2018-01-12 02:40:10 1515742810.390327: $GPGSA,A,3,2,3,6,12,17,19,24,5,28,138,,,2.4,0.8,2.1*06
2018-01-12 02:40:11 1515742811.387644: $GPZDA,074012.00,12,01,2018,00,00*6F
2018-01-12 02:40:11 1515742811.387828: $GPGGA,074012,3946.9614,N,08404.9821,W,2,10,0.80,297.82,M,-33.324,M,,*7C
2018-01-12 02:40:11 1515742811.387895: $GPRMC,074012,A,3946.9614,N,08404.9821,W,0.0000,0.000,120118,,*3C
2018-01-12 02:40:11 1515742811.387956: $GPGSA,A,3,2,3,6,12,17,19,24,5,28,138,,,2.4,0.8,2.1*06
