2018-01-11 20:28:43 1515720523.410310: {"class":"VERSION","release":"3.16","rev":"3.16-4","proto_major":3,"proto_minor":11}
2018-01-11 20:28:43 1515720523.410671: {"class":"DEVICES","devices":[{"class":"DEVICE","path":"/dev/ttyUSB0","driver":"SiRF","subtype":"9\u0006GSD4e_4.1.2-P1_RPATCH.05-F-GPS-4R-1510281 11/03/2015 307","activated":"2018-01-12T01:28:43.358Z","flags":1,"native":1,"bps":4800,"parity":"N","stopbits":1,"cycle":1.00}]}
2018-01-11 20:28:43 1515720523.410787: {"class":"WATCH","enable":true,"json":false,"nmea":true,"raw":0,"scaled":false,"timing":false,"split24":false,"pps":false}
2018-01-11 20:28:43 1515720523.471347: $GPZDA,012844.00,12,01,2018,00,00*64
2018-01-11 20:28:43 1515720523.471517: $GPGGA,012844,3946.9591,N,08404.9849,W,2,11,0.80,293.66,M,-33.324,M,,*78
2018-01-11 20:28:43 1515720523.471583: $GPRMC,012844,A,3946.9591,N,08404.9849,W,0.0000,0.000,120118,,*37
2018-01-11 20:28:43 1515720523.471644: $GPGSA,A,3,7,8,9,11,23,27,28,30,16,1,138,,4.0,0.8,3.5*0F
2018-01-11 20:28:44 1515720524.392206: $GPZDA,012845.00,12,01,2018,00,00*65
2018-01-11 20:28:44 1515720524.392366: $GPGGA,012845,3946.9591,N,08404.9849,W,2,11,0.80,293.66,M,-33.324,M,,*79
2018-01-11 20:28:44 1515720524.392433: $GPRMC,012845,A,3946.9591,N,08404.9849,W,0.0000,0.000,120118,,*36
2018-01-11 20:28:44 1515720524.392494: $GPGSA,A,3,7,8,9,11,23,27,28,30,16,1,138,,4.0,0.8,3.5*0F
2018-01-11 20:28:45 1515720525.731671: $GPGSV,3,1,11,07,63,316,43,08,75,097,46,09,41,220,41,11,27,165,45*73
2018-01-11 20:28:45 1515720525.731836: $GPGSV,3,2,11,23,21,187,49,27,40,048,50,28,19,264,35,30,36,309,36*7C
2018-01-11 20:28:45 1515720525.731902: $GPGSV,3,3,11,16,17,066,30,01,05,160,00,138,38,213,46*7B
2018-01-11 20:28:45 1515720525.845301: $GPZDA,012846.00,12,01,2018,00,00*66
2018-01-11 20:28:45 1515720525.845424: $GPGGA,012846,3946.9591,N,08404.9849,W,2,10,0.80,293.66,M,-33.324,M,,*7B
2018-01-11 20:28:45 1515720525.845488: $GPRMC,012846,A,3946.9591,N,08404.9849,W,0.0000,0.000,120118,,*35
2018-01-11 20:28:45 1515720525.845548: $GPGSA,A,3,7,8,9,11,23,27,28,30,16,138,,,4.0,0.8,3.5*3E
2018-01-11 20:28:46 1515720526.379944: $GPZDA,012847.00,12,01,2018,00,00*67
2018-01-11 20:28:46 1515720526.380085: $GPGGA,012847,3946.9591,N,08404.9849,W,2,10,0.80,293.66,M,-33.324,M,,*7A
2018-01-11 20:28:46 1515720526.380149: $GPRMC,012847,A,3946.9591,N,08404.9849,W,0.0000,0.000,120118,,*34
2018-01-11 20:28:46 1515720526.380208: $GPGSA,A,3,7,8,9,11,23,27,28,30,16,138,,,4.0,0.8,3.5*3E
2018-01-11 20:28:47 1515720527.400577: $GPZDA,012848.00,12,01,2018,00,00*68
2018-01-11 20:28:47 1515720527.400735: $GPGGA,012848,3946.9591,N,08404.9849,W,2,10,0.80,293.66,M,-33.324,M,,*75
2018-01-11 20:28:47 1515720527.400803: $GPRMC,012848,A,3946.9591,N,08404.9849,W,0.0000,0.000,120118,,*3B
2018-01-11 20:28:47 1515720527.400863: $GPGSA,A,3,7,8,9,11,23,27,28,30,16,138,,,4.0,0.8,3.5*3E
2018-01-11 20:28:48 1515720528.718313: $GPGSV,3,1,11,07,63,316,43,08,75,097,46,09,41,220,41,11,27,165,45*73
2018-01-11 20:28:48 1515720528.718470: $GPGSV,3,2,11,23,21,187,49,27,40,048,50,28,19,264,36,30,36,309,36*7F
2018-01-11 20:28:48 1515720528.718535: $GPGSV,3,3,11,16,17,066,30,01,05,160,21,138,38,213,45*7B
2018-01-11 20:28:48 1515720528.831653: $GPZDA,012849.00,12,01,2018,00,00*69
2018-01-11 20:28:48 1515720528.831782: $GPGGA,012849,3946.9591,N,08404.9849,W,2,11,0.80,293.66,M,-33.324,M,,*75
2018-01-11 20:28:48 1515720528.831846: $GPRMC,012849,A,3946.9591,N,08404.9849,W,0.0000,0.000,120118,,*3A
2018-01-11 20:28:48 1515720528.831906: $GPGSA,A,3,7,8,9,11,23,27,28,30,16,1,138,,4.0,0.8,3.5*0F
2018-01-11 20:28:49 1515720529.396511: $GPZDA,012850.00,12,01,2018,00,00*61
2018-01-11 20:28:49 1515720529.396650: $GPGGA,012850,3946.9591,N,08404.9849,W,2,11,0.80,293.66,M,-33.324,M,,*7D
2018-01-11 20:28:49 1515720529.396716: $GPRMC,012850,A,3946.9591,N,08404.9849,W,0.0000,0.000,120118,,*32
2018-01-11 20:28:49 1515720529.396777: $GPGSA,A,3,7,8,9,11,23,27,28,30,16,1,138,,4.0,0.8,3.5*0F
2018-01-11 20:28:50 1515720530.396205: $GPZDA,012851.00,12,01,2018,00,00*60
2018-01-11 20:28:50 1515720530.396361: $GPGGA,012851,3946.9591,N,08404.9849,W,2,11,0.80,293.66,M,-33.324,M,,*7C
2018-01-11 20:28:50 1515720530.396481: $GPRMC,012851,A,3946.9591,N,08404.9849,W,0.0000,0.000,120118,,*33
2018-01-11 20:28:50 1515720530.396543: $GPGSA,A,3,7,8,9,11,23,27,28,30,16,1,138,,4.0,0.8,3.5*0F
2018-01-11 20:28:51 1515720531.732909: $GPGSV,3,1,11,07,63,316,43,08,75,097,45,09,41,220,41,11,27,165,45*70
2018-01-11 20:28:51 1515720531.733087: $GPGSV,3,2,11,23,21,187,49,27,40,048,50,28,19,264,36,30,36,309,36*7F
2018-01-11 20:28:51 1515720531.733153: $GPGSV,3,3,11,16,17,066,30,01,05,160,22,138,38,213,44*79
2018-01-11 20:28:51 1515720531.846534: $GPZDA,012852.00,12,01,2018,00,00*63
2018-01-11 20:28:51 1515720531.846674: $GPGGA,012852,3946.9591,N,08404.9849,W,2,11,0.80,293.66,M,-33.324,M,,*7F
2018-01-11 20:28:51 1515720531.846740: $GPRMC,012852,A,3946.9591,N,08404.9849,W,0.0000,0.000,120118,,*30
2018-01-11 20:28:51 1515720531.846800: $GPGSA,A,3,7,8,9,11,23,27,28,30,16,1,138,,4.0,0.8,3.5*0F
2018-01-11 20:28:52 1515720532.397391: $GPZDA,012853.00,12,01,2018,00,00*62
2018-01-11 20:28:52 1515720532.397529: $GPGGA,012853,3946.9591,N,08404.9849,W,2,11,0.80,293.66,M,-33.324,M,,*7E
2018-01-11 20:28:52 1515720532.397594: $GPRMC,012853,A,3946.9591,N,08404.9849,W,0.0000,0.000,120118,,*31
2018-01-11 20:28:52 1515720532.397655: $GPGSA,A,3,7,8,9,11,23,27,28,30,16,1,138,,4.0,0.8,3.5*0F
2018-01-11 20:28:53 1515720533.396569: $GPZDA,012854.00,12,01,2018,00,00*65
2018-01-11 20:28:53 1515720533.396721: $GPGGA,012854,3946.9591,N,08404.9849,W,2,11,0.80,293.66,M,-33.324,M,,*79
2018-01-11 20:28:53 1515720533.396786: $GPRMC,012854,A,3946.9591,N,08404.9849,W,0.0000,0.000,120118,,*36
2018-01-11 20:28:53 1515720533.396847: $GPGSA,A,3,7,8,9,11,23,27,28,30,16,1,138,,4.0,0.8,3.5*0F
2018-01-11 20:28:54 1515720534.712030: $GPGSV,3,1,11,07,63,316,43,08,75,097,45,09,41,220,41,11,27,165,45*70
2018-01-11 20:28:54 1515720534.712210: $GPGSV,3,2,11,23,21,187,49,27,40,048,50,28,19,264,37,30,36,309,36*7E
2018-01-11 20:28:54 1515720534.712276: $GPGSV,3,3,11,16,17,066,29,01,05,160,20,138,38,213,45*72
2018-01-11 20:28:54 1515720534.825627: $GPZDA,012855.00,12,01,2018,00,00*64
2018-01-11 20:28:54 1515720534.825747: $GPGGA,012855,3946.9591,N,08404.9849,W,2,11,0.80,293.66,M,-33.324,M,,*78
2018-01-11 20:28:54 1515720534.825812: $GPRMC,012855,A,3946.9591,N,08404.9849,W,0.0000,0.000,120118,,*37
2018-01-11 20:28:54 1515720534.825872: $GPGSA,A,3,7,8,9,11,23,27,28,30,16,1,138,,4.0,0.8,3.5*0F
2018-01-11 20:28:55 1515720535.381526: $GPZDA,012856.00,12,01,2018,00,00*67
2018-01-11 20:28:55 1515720535.381678: $GPGGA,012856,3946.9591,N,08404.9849,W,2,11,0.80,293.66,M,-33.324,M,,*7B
2018-01-11 20:28:55 1515720535.381744: $GPRMC,012856,A,3946.9591,N,08404.9849,W,0.0000,0.000,120118,,*34
2018-01-11 20:28:55 1515720535.381804: $GPGSA,A,3,7,8,9,11,23,27,28,30,16,1,138,,4.0,0.8,3.5*0F
2018-01-11 20:28:56 1515720536.398801: $GPZDA,012857.00,12,01,2018,00,00*66
2018-01-11 20:28:56 1515720536.398975: $GPGGA,012857,3946.9591,N,08404.9849,W,2,11,0.80,293.66,M,-33.324,M,,*7A
2018-01-11 20:28:56 1515720536.399105: $GPRMC,012857,A,3946.9591,N,08404.9849,W,0.0000,0.000,120118,,*35
2018-01-11 20:28:56 1515720536.399168: $GPGSA,A,3,7,8,9,11,23,27,28,30,16,1,138,,4.0,0.8,3.5*0F
