2017-12-01 15:50:37 1512161437.427223: {"class":"VERSION","release":"3.16","rev":"3.16-4","proto_major":3,"proto_minor":11}
2017-12-01 15:50:37 1512161437.427791: {"class":"DEVICES","devices":[{"class":"DEVICE","path":"/dev/ttyUSB0","driver":"SiRF","subtype":"9\u0006GSD4e_4.1.2-P1_RPATCH.05-F-GPS-4R-1510281 11/03/2015 307","activated":"2017-12-01T20:50:37.293Z","flags":1,"native":1,"bps":4800,"parity":"N","stopbits":1,"cycle":1.00}]}
2017-12-01 15:50:37 1512161437.427936: {"class":"WATCH","enable":true,"json":false,"nmea":true,"raw":0,"scaled":false,"timing":false,"split24":false,"pps":false}
2017-12-01 15:50:38 1512161438.040019: $GPGSV,3,1,12,01,15,316,24,10,67,135,29,11,11,298,19,12,25,069,22*73
2017-12-01 15:50:38 1512161438.040186: $GPGSV,3,2,12,14,56,295,26,18,35,136,28,25,31,112,26,31,38,213,29*77
2017-12-01 15:50:38 1512161438.040252: $GPGSV,3,3,12,32,69,336,29,24,12,045,00,22,04,310,00,138,38,213,00*4A
2017-12-01 15:50:38 1512161438.152475: $GPZDA,205037.98,01,12,2017,00,00*62
2017-12-01 15:50:38 1512161438.152640: $GPGGA,205037,3946.9566,N,08404.9780,W,1,09,1.00,305.50,M,-33.324,M,,*7A
2017-12-01 15:50:38 1512161438.152745: $GPRMC,205037,A,3946.9566,N,08404.9780,W,0.0407,322.013,011217,,*30
2017-12-01 15:50:38 1512161438.152810: $GPGSA,A,3,1,10,11,12,14,18,25,31,32,,,,2.0,1.0,1.5*0E
2017-12-01 15:50:38 1512161438.960423: $GPZDA,205039.00,01,12,2017,00,00*6D
2017-12-01 15:50:38 1512161438.960606: $GPGGA,205039,3946.9570,N,08404.9780,W,1,09,0.80,306.14,M,-33.324,M,,*79
2017-12-01 15:50:38 1512161438.960673: $GPRMC,205039,A,3946.9570,N,08404.9780,W,0.4207,39.347,011217,,*00
2017-12-01 15:50:38 1512161438.960766: $GPGSA,A,3,1,10,11,12,14,18,25,31,32,,,,2.0,0.8,1.5*07
2017-12-01 15:50:38 1512161438.960824: $GPGBS,205039,10.70,M,15.43,M,35.28,M*0A
2017-12-01 15:50:39 1512161439.250396: $GPZDA,205040.00,01,12,2017,00,00*63
2017-12-01 15:50:39 1512161439.250565: $GPGGA,205040,3946.9566,N,08404.9781,W,1,09,0.80,306.90,M,-33.324,M,,*7D
2017-12-01 15:50:39 1512161439.250633: $GPRMC,205040,A,3946.9566,N,08404.9781,W,0.2422,273.794,011217,,*39
2017-12-01 15:50:39 1512161439.250716: $GPGSA,A,3,1,10,11,12,14,18,25,31,32,,,,2.0,0.8,1.5*07
2017-12-01 15:50:39 1512161439.250775: $GPGBS,205040,10.70,M,15.43,M,35.28,M*04
2017-12-01 15:50:40 1512161440.753289: $GPGSV,3,1,12,01,15,316,41,10,67,135,48,11,11,298,31,12,25,069,36*78
2017-12-01 15:50:40 1512161440.753469: $GPGSV,3,2,12,14,56,295,43,18,35,136,46,25,31,112,44,31,38,213,48*7F
2017-12-01 15:50:40 1512161440.753535: $GPGSV,3,3,12,32,69,336,48,22,04,310,26,24,12,045,29,138,38,213,46*40
2017-12-01 15:50:40 1512161440.867094: $GPZDA,205041.00,01,12,2017,00,00*62
2017-12-01 15:50:40 1512161440.867267: $GPGGA,205041,3946.9567,N,08404.9788,W,1,12,0.80,306.83,M,-33.324,M,,*7C
2017-12-01 15:50:40 1512161440.867333: $GPRMC,205041,A,3946.9567,N,08404.9788,W,0.0000,0.000,011217,,*3A
2017-12-01 15:50:40 1512161440.867396: $GPGSA,A,3,1,10,11,12,14,18,25,31,32,22,24,138,2.0,0.8,1.5*3B
2017-12-01 15:50:41 1512161441.492210: $GPZDA,205042.00,01,12,2017,00,00*61
2017-12-01 15:50:41 1512161441.492383: $GPGGA,205042,3946.9564,N,08404.9796,W,1,12,0.80,307.51,M,-33.324,M,,*7D
2017-12-01 15:50:41 1512161441.492452: $GPRMC,205042,A,3946.9564,N,08404.9796,W,0.0000,0.000,011217,,*35
2017-12-01 15:50:41 1512161441.492513: $GPGSA,A,3,1,10,11,12,14,18,25,31,32,22,24,138,2.0,0.8,1.5*3B
2017-12-01 15:50:42 1512161442.416648: $GPZDA,205043.00,01,12,2017,00,00*60
2017-12-01 15:50:42 1512161442.416843: $GPGGA,205043,3946.9564,N,08404.9796,W,1,12,0.80,307.51,M,-33.324,M,,*7C
2017-12-01 15:50:42 1512161442.416932: $GPRMC,205043,A,3946.9564,N,08404.9796,W,0.0000,0.000,011217,,*34
2017-12-01 15:50:42 1512161442.416996: $GPGSA,A,3,1,10,11,12,14,18,25,31,32,22,24,138,2.0,0.8,1.5*3B
2017-12-01 15:50:42 1512161442.417079: $GPGBS,205043,10.70,M,15.43,M,35.28,M*07
2017-12-01 15:50:43 1512161443.753605: $GPGSV,3,1,12,01,15,316,40,10,67,135,48,11,11,298,32,12,25,069,36*7A
2017-12-01 15:50:43 1512161443.753808: $GPGSV,3,2,12,14,56,295,43,18,35,136,47,25,31,112,44,31,38,213,48*7E
2017-12-01 15:50:43 1512161443.753877: $GPGSV,3,3,12,32,69,336,47,22,04,310,27,24,12,045,30,138,38,213,46*46
2017-12-01 15:50:43 1512161443.867244: $GPZDA,205044.00,01,12,2017,00,00*67
2017-12-01 15:50:43 1512161443.867406: $GPGGA,205044,3946.9561,N,08404.9803,W,1,12,0.80,308.20,M,-33.324,M,,*74
2017-12-01 15:50:43 1512161443.867473: $GPRMC,205044,A,3946.9561,N,08404.9803,W,0.0000,0.000,011217,,*35
2017-12-01 15:50:43 1512161443.867534: $GPGSA,A,3,1,10,11,12,14,18,25,31,32,22,24,138,2.0,0.8,1.5*3B
2017-12-01 15:50:44 1512161444.418150: $GPZDA,205045.00,01,12,2017,00,00*66
2017-12-01 15:50:44 1512161444.418328: $GPGGA,205045,3946.9561,N,08404.9803,W,1,12,0.80,308.20,M,-33.324,M,,*75
2017-12-01 15:50:44 1512161444.418396: $GPRMC,205045,A,3946.9561,N,08404.9803,W,0.0000,0.000,011217,,*34
2017-12-01 15:50:44 1512161444.418459: $GPGSA,A,3,1,10,11,12,14,18,25,31,32,22,24,138,2.0,0.8,1.5*3B
2017-12-01 15:50:45 1512161445.417348: $GPZDA,205046.00,01,12,2017,00,00*65
2017-12-01 15:50:45 1512161445.417523: $GPGGA,205046,3946.9557,N,08404.9811,W,1,12,0.80,308.88,M,-33.324,M,,*72
2017-12-01 15:50:45 1512161445.417594: $GPRMC,205046,A,3946.9557,N,08404.9811,W,0.0000,0.000,011217,,*31
2017-12-01 15:50:45 1512161445.417654: $GPGSA,A,3,1,10,11,12,14,18,25,31,32,22,24,138,2.0,0.8,1.5*3B
2017-12-01 15:50:46 1512161446.753976: $GPGSV,3,1,12,01,15,316,40,10,67,135,47,11,11,298,32,12,25,069,38*7B
2017-12-01 15:50:46 1512161446.754158: $GPGSV,3,2,12,14,56,295,44,18,35,136,47,25,31,112,43,31,38,213,48*7E
2017-12-01 15:50:46 1512161446.754224: $GPGSV,3,3,12,32,69,336,47,22,04,310,19,24,12,045,31,138,38,213,45*49
2017-12-01 15:50:46 1512161446.867421: $GPZDA,205047.00,01,12,2017,00,00*64
2017-12-01 15:50:46 1512161446.867586: $GPGGA,205047,3946.9550,N,08404.9849,W,2,12,1.20,312.18,M,-33.324,M,,*73
2017-12-01 15:50:46 1512161446.867653: $GPRMC,205047,A,3946.9550,N,08404.9849,W,0.0000,0.000,011217,,*3A
2017-12-01 15:50:46 1512161446.867737: $GPGSA,A,3,1,10,11,12,14,18,25,31,32,22,24,138,2.0,1.2,1.5*30
2017-12-01 15:50:47 1512161447.419424: $GPZDA,205048.00,01,12,2017,00,00*6B
2017-12-01 15:50:47 1512161447.419616: $GPGGA,205048,3946.9550,N,08404.9849,W,2,12,0.80,312.18,M,-33.324,M,,*77
2017-12-01 15:50:47 1512161447.420927: $GPRMC,205048,A,3946.9550,N,08404.9849,W,0.0000,0.000,011217,,*35
2017-12-01 15:50:47 1512161447.421015: $GPGSA,A,3,1,10,11,12,14,18,25,31,32,22,24,138,2.0,0.8,1.5*3B
2017-12-01 15:50:48 1512161448.421700: $GPZDA,205049.00,01,12,2017,00,00*6A
2017-12-01 15:50:48 1512161448.421857: $GPGGA,205049,3946.9552,N,08404.9840,W,2,12,0.80,310.09,M,-33.324,M,,*7F
2017-12-01 15:50:48 1512161448.421928: $GPRMC,205049,A,3946.9552,N,08404.9840,W,0.0000,0.000,011217,,*3F
2017-12-01 15:50:48 1512161448.421989: $GPGSA,A,3,1,10,11,12,14,18,25,31,32,22,24,138,2.0,0.8,1.5*3B
2017-12-01 15:50:49 1512161449.755992: $GPGSV,3,1,12,01,15,316,40,10,67,135,47,11,11,298,32,12,25,069,38*7B
2017-12-01 15:50:49 1512161449.756179: $GPGSV,3,2,12,14,56,295,44,18,35,136,47,25,31,112,43,31,38,213,48*7E
2017-12-01 15:50:49 1512161449.756245: $GPGSV,3,3,12,32,69,336,48,22,04,310,05,24,12,045,33,138,38,213,46*4A
2017-12-01 15:50:49 1512161449.869443: $GPZDA,205050.00,01,12,2017,00,00*62
2017-12-01 15:50:49 1512161449.869582: $GPGGA,205050,3946.9552,N,08404.9840,W,2,11,0.80,310.09,M,-33.324,M,,*74
2017-12-01 15:50:49 1512161449.869649: $GPRMC,205050,A,3946.9552,N,08404.9840,W,0.0000,0.000,011217,,*37
2017-12-01 15:50:49 1512161449.869713: $GPGSA,A,3,1,10,11,12,14,18,25,31,32,24,138,,2.0,0.8,1.5*3B
2017-12-01 15:50:50 1512161450.419095: $GPZDA,205051.00,01,12,2017,00,00*63
2017-12-01 15:50:50 1512161450.419271: $GPGGA,205051,3946.9552,N,08404.9840,W,2,11,0.80,310.09,M,-33.324,M,,*75
2017-12-01 15:50:50 1512161450.419339: $GPRMC,205051,A,3946.9552,N,08404.9840,W,0.0000,0.000,011217,,*36
2017-12-01 15:50:50 1512161450.419401: $GPGSA,A,3,1,10,11,12,14,18,25,31,32,24,138,,2.0,0.8,1.5*3B
2017-12-01 15:50:51 1512161451.419330: $GPZDA,205052.00,01,12,2017,00,00*60
2017-12-01 15:50:51 1512161451.419512: $GPGGA,205052,3946.9552,N,08404.9840,W,2,11,0.80,310.09,M,-33.324,M,,*76
2017-12-01 15:50:51 1512161451.419637: $GPRMC,205052,A,3946.9552,N,08404.9840,W,0.0000,0.000,011217,,*35
2017-12-01 15:50:51 1512161451.419706: $GPGSA,A,3,1,10,11,12,14,18,25,31,32,24,138,,2.0,0.8,1.5*3B
2017-12-01 15:50:52 1512161452.755113: $GPGSV,3,1,12,01,15,316,41,10,67,135,47,11,11,298,32,12,25,069,38*7A
2017-12-01 15:50:52 1512161452.755291: $GPGSV,3,2,12,14,56,295,43,18,35,136,47,25,31,112,43,31,38,213,49*78
2017-12-01 15:50:52 1512161452.755359: $GPGSV,3,3,12,32,69,336,47,22,04,310,22,24,12,045,33,138,38,213,46*40
2017-12-01 15:50:52 1512161452.868751: $GPZDA,205053.00,01,12,2017,00,00*61
2017-12-01 15:50:52 1512161452.868934: $GPGGA,205053,3946.9552,N,08404.9840,W,2,12,0.80,310.09,M,-33.324,M,,*74
2017-12-01 15:50:52 1512161452.869000: $GPRMC,205053,A,3946.9552,N,08404.9840,W,0.0000,0.000,011217,,*34
2017-12-01 15:50:52 1512161452.869063: $GPGSA,A,3,1,10,11,12,14,18,25,31,32,22,24,138,2.0,0.8,1.5*3B
2017-12-01 15:50:53 1512161453.418484: $GPZDA,205054.00,01,12,2017,00,00*66
2017-12-01 15:50:53 1512161453.418663: $GPGGA,205054,3946.9552,N,08404.9840,W,2,12,0.80,310.09,M,-33.324,M,,*73
2017-12-01 15:50:53 1512161453.418736: $GPRMC,205054,A,3946.9552,N,08404.9840,W,0.0000,0.000,011217,,*33
2017-12-01 15:50:53 1512161453.418802: $GPGSA,A,3,1,10,11,12,14,18,25,31,32,22,24,138,2.0,0.8,1.5*3B
2017-12-01 15:50:54 1512161454.417674: $GPZDA,205055.00,01,12,2017,00,00*67
2017-12-01 15:50:54 1512161454.417868: $GPGGA,205055,3946.9552,N,08404.9840,W,2,12,0.80,310.09,M,-33.324,M,,*72
2017-12-01 15:50:54 1512161454.417938: $GPRMC,205055,A,3946.9552,N,08404.9840,W,0.0000,0.000,011217,,*32
2017-12-01 15:50:54 1512161454.418000: $GPGSA,A,3,1,10,11,12,14,18,25,31,32,22,24,138,2.0,0.8,1.5*3B
2017-12-01 15:50:54 1512161454.418061: $GPGBS,205055,2.67,M,3.86,M,8.82,M*35
2017-12-01 15:50:55 1512161455.755860: $GPGSV,3,1,12,01,15,316,41,10,67,135,47,11,11,298,32,12,25,069,39*7B
2017-12-01 15:50:55 1512161455.756042: $GPGSV,3,2,12,14,56,295,43,18,35,136,47,25,31,112,43,31,38,213,49*78
2017-12-01 15:50:55 1512161455.756128: $GPGSV,3,3,12,32,69,336,47,22,04,310,19,24,12,045,33,138,38,213,46*48
2017-12-01 15:50:55 1512161455.869449: $GPZDA,205056.00,01,12,2017,00,00*64
2017-12-01 15:50:55 1512161455.869590: $GPGGA,205056,3946.9552,N,08404.9840,W,2,12,0.80,310.09,M,-33.324,M,,*71
2017-12-01 15:50:55 1512161455.869657: $GPRMC,205056,A,3946.9552,N,08404.9840,W,0.0000,0.000,011217,,*31
2017-12-01 15:50:55 1512161455.869720: $GPGSA,A,3,1,10,11,12,14,18,25,31,32,22,24,138,2.0,0.8,1.5*3B
2017-12-01 15:50:56 1512161456.494556: $GPZDA,205057.00,01,12,2017,00,00*65
2017-12-01 15:50:56 1512161456.494733: $GPGGA,205057,3946.9552,N,08404.9840,W,2,12,0.80,310.09,M,-33.324,M,,*70
2017-12-01 15:50:56 1512161456.494804: $GPRMC,205057,A,3946.9552,N,08404.9840,W,0.0000,0.000,011217,,*30
2017-12-01 15:50:56 1512161456.494866: $GPGSA,A,3,1,10,11,12,14,18,25,31,32,22,24,138,2.0,0.8,1.5*3B
2017-12-01 15:50:57 1512161457.419489: $GPZDA,205058.00,01,12,2017,00,00*6A
2017-12-01 15:50:57 1512161457.419688: $GPGGA,205058,3946.9552,N,08404.9840,W,2,12,0.80,310.09,M,-33.324,M,,*7F
2017-12-01 15:50:57 1512161457.419761: $GPRMC,205058,A,3946.9552,N,08404.9840,W,0.0000,0.000,011217,,*3F
2017-12-01 15:50:57 1512161457.419823: $GPGSA,A,3,1,10,11,12,14,18,25,31,32,22,24,138,2.0,0.8,1.5*3B
