2017-11-15 19:53:18 1510793598.512385: {"class":"VERSION","release":"3.17","rev":"3.17","proto_major":3,"proto_minor":12}
2017-11-15 19:53:18 1510793598.512910: {"class":"DEVICES","devices":[{"class":"DEVICE","path":"/dev/ttyUSB0","driver":"SiRF","subtype":"9\u0006GSD4e_4.1.2-P1_RPATCH.05-F-GPS-4R-1510281 11/03/2015 307","activated":"2017-11-16T00:53:18.216Z","flags":1,"native":1,"bps":4800,"parity":"N","stopbits":1,"cycle":1.00}]}
2017-11-15 19:53:18 1510793598.513049: {"class":"WATCH","enable":true,"json":false,"nmea":true,"raw":0,"scaled":false,"timing":false,"split24":false,"pps":false}
2017-11-15 19:53:18 1510793598.665514: $GPGSV,3,1,11,32,28,115,04,16,33,190,21,31,59,039,20,26,64,166,22*7C
2017-11-15 19:53:18 1510793598.665666: $GPGSV,3,2,11,14,47,105,17,22,49,255,19,03,44,288,00,23,19,304,20*76
2017-11-15 19:53:18 1510793598.665727: $GPGSV,3,3,11,29,13,061,00,25,09,037,00,120,07,103,00*7B
2017-11-15 19:53:18 1510793598.778881: $GPZDA,005317.00,16,11,2017,00,00*65
2017-11-15 19:53:18 1510793598.779045: $GPGGA,005317,3946.9475,N,08404.9630,W,1,06,1.20,286.58,M,-33.324,M,,*7F
2017-11-15 19:53:18 1510793598.779108: $GPRMC,005317,A,3946.9475,N,08404.9630,W,1.1385,209.379,161117,,*35
2017-11-15 19:53:18 1510793598.779164: $GPGSA,A,3,16,31,26,14,22,23,,,,,,,3.4,1.2,2.9*38
2017-11-15 19:53:19 1510793599.345996: $GPZDA,005318.00,16,11,2017,00,00*6A
2017-11-15 19:53:19 1510793599.346169: $GPGGA,005318,3946.9475,N,08404.9630,W,1,06,1.20,286.58,M,-33.324,M,,*70
2017-11-15 19:53:19 1510793599.346258: $GPRMC,005318,A,3946.9475,N,08404.9630,W,1.1294,223.341,161117,,*38
2017-11-15 19:53:19 1510793599.346318: $GPGSA,A,3,16,31,26,14,22,23,,,,,,,3.4,1.2,2.9*38
2017-11-15 19:53:20 1510793600.344636: $GPZDA,005319.00,16,11,2017,00,00*6B
2017-11-15 19:53:20 1510793600.344795: $GPGGA,005319,3946.9471,N,08404.9630,W,1,06,1.20,285.94,M,-33.324,M,,*76
2017-11-15 19:53:20 1510793600.344855: $GPRMC,005319,A,3946.9471,N,08404.9630,W,1.1385,209.379,161117,,*3F
2017-11-15 19:53:20 1510793600.344912: $GPGSA,A,3,16,31,26,14,22,23,,,,,,,3.4,1.2,2.9*38
2017-11-15 19:53:21 1510793601.664631: $GPGSV,3,1,11,03,44,288,00,16,33,190,22,31,59,039,20,26,64,166,21*77
2017-11-15 19:53:21 1510793601.664785: $GPGSV,3,2,11,14,47,105,17,22,49,255,19,32,28,115,00,23,19,304,20*79
2017-11-15 19:53:21 1510793601.664846: $GPGSV,3,3,11,29,13,061,00,25,09,037,00,120,07,103,00*7B
2017-11-15 19:53:21 1510793601.778229: $GPZDA,005320.00,16,11,2017,00,00*61
2017-11-15 19:53:21 1510793601.778352: $GPGGA,005320,3946.9471,N,08404.9630,W,1,06,1.20,285.94,M,-33.324,M,,*7C
2017-11-15 19:53:21 1510793601.778412: $GPRMC,005320,A,3946.9471,N,08404.9630,W,1.0018,230.691,161117,,*3A
2017-11-15 19:53:21 1510793601.778490: $GPGSA,A,3,16,31,26,14,22,23,,,,,,,3.4,1.2,2.9*38
2017-11-15 19:53:22 1510793602.329122: $GPZDA,005321.00,16,11,2017,00,00*60
2017-11-15 19:53:22 1510793602.329284: $GPGGA,005321,3946.9471,N,08404.9636,W,1,06,1.20,285.86,M,-33.324,M,,*78
2017-11-15 19:53:22 1510793602.329344: $GPRMC,005321,A,3946.9471,N,08404.9636,W,1.0018,230.691,161117,,*3D
2017-11-15 19:53:22 1510793602.329400: $GPGSA,A,3,16,31,26,14,22,23,,,,,,,3.4,1.2,2.9*38
2017-11-15 19:53:23 1510793603.344976: $GPZDA,005322.00,16,11,2017,00,00*63
2017-11-15 19:53:23 1510793603.345136: $GPGGA,005322,3946.9467,N,08404.9636,W,1,06,1.20,285.22,M,-33.324,M,,*72
2017-11-15 19:53:23 1510793603.345196: $GPRMC,005322,A,3946.9467,N,08404.9636,W,0.8414,219.347,161117,,*3D
2017-11-15 19:53:23 1510793603.345252: $GPGSA,A,3,16,31,26,14,22,23,,,,,,,3.4,1.2,2.9*38
2017-11-15 19:53:24 1510793604.680516: $GPGSV,3,1,11,03,44,288,00,16,33,190,22,31,59,039,20,26,64,166,21*77
2017-11-15 19:53:24 1510793604.680706: $GPGSV,3,2,11,14,47,105,16,22,49,255,19,32,28,115,00,23,19,304,20*78
2017-11-15 19:53:24 1510793604.680767: $GPGSV,3,3,11,29,13,061,00,25,09,037,00,120,07,103,00*7B
2017-11-15 19:53:24 1510793604.793791: $GPZDA,005323.00,16,11,2017,00,00*62
2017-11-15 19:53:24 1510793604.793996: $GPGGA,005323,3946.9464,N,08404.9637,W,1,06,1.20,285.99,M,-33.324,M,,*71
2017-11-15 19:53:24 1510793604.794060: $GPRMC,005323,A,3946.9464,N,08404.9637,W,0.4207,219.347,161117,,*36
2017-11-15 19:53:24 1510793604.794167: $GPGSA,A,3,16,31,26,14,22,23,,,,,,,3.4,1.2,2.9*38
2017-11-15 19:53:25 1510793605.330170: $GPZDA,005324.00,16,11,2017,00,00*65
2017-11-15 19:53:25 1510793605.330325: $GPGGA,005324,3946.9464,N,08404.9637,W,1,06,1.20,285.99,M,-33.324,M,,*76
2017-11-15 19:53:25 1510793605.330385: $GPRMC,005324,A,3946.9464,N,08404.9637,W,0.3423,184.197,161117,,*3E
2017-11-15 19:53:25 1510793605.330462: $GPGSA,A,3,16,31,26,14,22,23,,,,,,,3.4,1.2,2.9*38
2017-11-15 19:53:26 1510793606.330974: $GPZDA,005325.00,16,11,2017,00,00*64
2017-11-15 19:53:26 1510793606.331656: $GPGGA,005325,3946.9463,N,08404.9630,W,1,06,1.20,286.07,M,-33.324,M,,*73
2017-11-15 19:53:26 1510793606.331755: $GPRMC,005325,A,3946.9463,N,08404.9630,W,0.5912,129.172,161117,,*3A
2017-11-15 19:53:26 1510793606.331814: $GPGSA,A,3,16,31,26,14,22,23,,,,,,,3.4,1.2,2.9*38
2017-11-15 19:53:27 1510793607.680983: $GPGSV,3,1,11,03,44,288,00,16,33,190,22,31,59,039,20,26,64,166,21*77
2017-11-15 19:53:27 1510793607.681149: $GPGSV,3,2,11,14,47,105,16,22,49,255,19,32,28,115,00,23,19,304,20*78
2017-11-15 19:53:27 1510793607.681211: $GPGSV,3,3,11,29,13,061,00,25,09,037,00,120,07,103,00*7B
2017-11-15 19:53:27 1510793607.794260: $GPZDA,005326.00,16,11,2017,00,00*67
2017-11-15 19:53:27 1510793607.794444: $GPGGA,005326,3946.9467,N,08404.9630,W,1,06,1.20,285.30,M,-33.324,M,,*73
2017-11-15 19:53:27 1510793607.794507: $GPRMC,005326,A,3946.9467,N,08404.9630,W,0.5075,72.256,161117,,*0F
2017-11-15 19:53:27 1510793607.794580: $GPGSA,A,3,16,31,26,14,22,23,,,,,,,3.4,1.2,2.9*38
2017-11-15 19:53:28 1510793608.328881: $GPZDA,005327.00,16,11,2017,00,00*66
2017-11-15 19:53:28 1510793608.329046: $GPGGA,005327,3946.9466,N,08404.9623,W,1,06,1.20,285.38,M,-33.324,M,,*79
2017-11-15 19:53:28 1510793608.329107: $GPRMC,005327,A,3946.9466,N,08404.9623,W,0.4844,93.794,161117,,*02
2017-11-15 19:53:28 1510793608.329163: $GPGSA,A,3,16,31,26,14,22,23,,,,,,,3.4,1.2,2.9*38
