2017-11-16 17:03:24 1510869804.851466: {"class":"VERSION","release":"3.17","rev":"3.17","proto_major":3,"proto_minor":12}
2017-11-16 17:03:24 1510869804.851949: {"class":"DEVICES","devices":[{"class":"DEVICE","path":"/dev/ttyUSB0","driver":"SiRF","subtype":"9\u0006GSD4e_4.1.2-P1_RPATCH.05-F-GPS-4R-1510281 11/03/2015 307","activated":"2017-11-16T22:03:24.752Z","flags":1,"native":1,"bps":4800,"parity":"N","stopbits":1,"cycle":1.00}]}
2017-11-16 17:03:24 1510869804.852076: {"class":"WATCH","enable":true,"json":false,"nmea":true,"raw":0,"scaled":false,"timing":false,"split24":false,"pps":false}
2017-11-16 17:03:24 1510869804.895228: $GPZDA,220323.00,16,11,2017,00,00*67
2017-11-16 17:03:24 1510869804.895386: $GPGGA,220323,3946.9590,N,08404.9823,W,2,12,0.80,311.03,M,-33.324,M,,*77
2017-11-16 17:03:24 1510869804.895446: $GPRMC,220323,A,3946.9590,N,08404.9823,W,0.0000,0.000,161117,,*39
2017-11-16 17:03:24 1510869804.895502: $GPGSA,A,3,1,10,11,12,14,18,25,31,32,22,24,138,1.6,0.8,1.3*38
2017-11-16 17:03:25 1510869805.417515: $GPZDA,220324.00,16,11,2017,00,00*60
2017-11-16 17:03:25 1510869805.417701: $GPGGA,220324,3946.9594,N,08404.9823,W,2,12,0.80,311.67,M,-33.324,M,,*76
2017-11-16 17:03:25 1510869805.417762: $GPRMC,220324,A,3946.9594,N,08404.9823,W,0.0000,0.000,161117,,*3A
2017-11-16 17:03:25 1510869805.417819: $GPGSA,A,3,1,10,11,12,14,18,25,31,32,22,24,138,1.6,0.8,1.3*38
2017-11-16 17:03:26 1510869806.394701: $GPZDA,220325.00,16,11,2017,00,00*61
2017-11-16 17:03:26 1510869806.394870: $GPGGA,220325,3946.9594,N,08404.9823,W,2,12,0.80,311.67,M,-33.324,M,,*77
2017-11-16 17:03:26 1510869806.394931: $GPRMC,220325,A,3946.9594,N,08404.9823,W,0.0000,0.000,161117,,*3B
2017-11-16 17:03:26 1510869806.394988: $GPGSA,A,3,1,10,11,12,14,18,25,31,32,22,24,138,1.6,0.8,1.3*38
2017-11-16 17:03:27 1510869807.751676: $GPGSV,3,1,12,01,17,312,41,10,62,139,48,11,11,294,41,12,25,063,50*76
2017-11-16 17:03:27 1510869807.751842: $GPGSV,3,2,12,14,59,303,47,18,30,139,42,25,34,106,45,31,42,216,48*7D
2017-11-16 17:03:27 1510869807.751902: $GPGSV,3,3,12,32,69,349,50,22,08,312,28,24,08,046,32,138,38,213,44*41
2017-11-16 17:03:27 1510869807.865004: $GPZDA,220326.00,16,11,2017,00,00*62
2017-11-16 17:03:27 1510869807.865234: $GPGGA,220326,3946.9594,N,08404.9823,W,2,12,0.80,311.67,M,-33.324,M,,*74
2017-11-16 17:03:27 1510869807.865295: $GPRMC,220326,A,3946.9594,N,08404.9823,W,0.0000,0.000,161117,,*38
2017-11-16 17:03:27 1510869807.865351: $GPGSA,A,3,1,10,11,12,14,18,25,31,32,22,24,138,1.6,0.8,1.3*38
2017-11-16 17:03:28 1510869808.399590: $GPZDA,220327.00,16,11,2017,00,00*63
2017-11-16 17:03:28 1510869808.399748: $GPGGA,220327,3946.9594,N,08404.9823,W,2,12,0.80,311.67,M,-33.324,M,,*75
2017-11-16 17:03:28 1510869808.399809: $GPRMC,220327,A,3946.9594,N,08404.9823,W,0.0000,0.000,161117,,*39
2017-11-16 17:03:28 1510869808.399865: $GPGSA,A,3,1,10,11,12,14,18,25,31,32,22,24,138,1.6,0.8,1.3*38
2017-11-16 17:03:29 1510869809.400649: $GPZDA,220328.00,16,11,2017,00,00*6C
2017-11-16 17:03:29 1510869809.400809: $GPGGA,220328,3946.9594,N,08404.9823,W,2,12,0.80,311.67,M,-33.324,M,,*7A
2017-11-16 17:03:29 1510869809.400869: $GPRMC,220328,A,3946.9594,N,08404.9823,W,0.0000,0.000,161117,,*36
2017-11-16 17:03:29 1510869809.400945: $GPGSA,A,3,1,10,11,12,14,18,25,31,32,22,24,138,1.6,0.8,1.3*38
2017-11-16 17:03:30 1510869810.736114: $GPGSV,3,1,12,01,17,312,41,10,62,139,48,11,11,294,42,12,25,063,50*75
2017-11-16 17:03:30 1510869810.736288: $GPGSV,3,2,12,14,59,303,47,18,30,139,42,25,34,106,45,31,42,216,48*7D
2017-11-16 17:03:30 1510869810.736348: $GPGSV,3,3,12,32,69,349,50,22,08,312,22,24,08,046,32,138,38,213,44*4B
2017-11-16 17:03:30 1510869810.849433: $GPZDA,220329.00,16,11,2017,00,00*6D
2017-11-16 17:03:30 1510869810.849598: $GPGGA,220329,3946.9594,N,08404.9823,W,2,12,0.80,311.67,M,-33.324,M,,*7B
2017-11-16 17:03:30 1510869810.849659: $GPRMC,220329,A,3946.9594,N,08404.9823,W,0.0000,0.000,161117,,*37
2017-11-16 17:03:30 1510869810.849715: $GPGSA,A,3,1,10,11,12,14,18,25,31,32,22,24,138,1.6,0.8,1.3*38
2017-11-16 17:03:31 1510869811.474717: $GPZDA,220330.00,16,11,2017,00,00*65
2017-11-16 17:03:31 1510869811.474967: $GPGGA,220330,3946.9594,N,08404.9823,W,2,12,0.80,311.67,M,-33.324,M,,*73
2017-11-16 17:03:31 1510869811.475089: $GPRMC,220330,A,3946.9594,N,08404.9823,W,0.0000,0.000,161117,,*3F
2017-11-16 17:03:31 1510869811.475148: $GPGSA,A,3,1,10,11,12,14,18,25,31,32,22,24,138,1.6,0.8,1.3*38
2017-11-16 17:03:32 1510869812.393084: $GPZDA,220331.00,16,11,2017,00,00*64
2017-11-16 17:03:32 1510869812.393249: $GPGGA,220331,3946.9594,N,08404.9823,W,2,12,0.80,311.67,M,-33.324,M,,*72
2017-11-16 17:03:32 1510869812.393311: $GPRMC,220331,A,3946.9594,N,08404.9823,W,0.0000,0.000,161117,,*3E
2017-11-16 17:03:32 1510869812.393367: $GPGSA,A,3,1,10,11,12,14,18,25,31,32,22,24,138,1.6,0.8,1.3*38
2017-11-16 17:03:33 1510869813.736412: $GPGSV,3,1,12,01,17,312,40,10,62,139,48,11,11,294,42,12,25,063,50*74
2017-11-16 17:03:33 1510869813.736777: $GPGSV,3,2,12,14,59,303,47,18,30,139,43,25,34,106,46,31,42,216,49*7E
2017-11-16 17:03:33 1510869813.736903: $GPGSV,3,3,12,32,69,349,50,22,08,312,20,24,08,046,32,138,38,213,44*49
2017-11-16 17:03:33 1510869813.848379: $GPZDA,220332.00,16,11,2017,00,00*67
2017-11-16 17:03:33 1510869813.848560: $GPGGA,220332,3946.9594,N,08404.9823,W,2,12,0.80,311.67,M,-33.324,M,,*71
2017-11-16 17:03:33 1510869813.848625: $GPRMC,220332,A,3946.9594,N,08404.9823,W,0.0000,0.000,161117,,*3D
2017-11-16 17:03:33 1510869813.848708: $GPGSA,A,3,1,10,11,12,14,18,25,31,32,22,24,138,1.6,0.8,1.3*38
2017-11-16 17:03:34 1510869814.399203: $GPZDA,220333.00,16,11,2017,00,00*66
2017-11-16 17:03:34 1510869814.399372: $GPGGA,220333,3946.9594,N,08404.9823,W,2,12,0.80,311.67,M,-33.324,M,,*70
2017-11-16 17:03:34 1510869814.399437: $GPRMC,220333,A,3946.9594,N,08404.9823,W,0.0000,0.000,161117,,*3C
2017-11-16 17:03:34 1510869814.399496: $GPGSA,A,3,1,10,11,12,14,18,25,31,32,22,24,138,1.6,0.8,1.3*38
