2017-12-29 14:54:37 1514577277.503671: {"class":"VERSION","release":"3.16","rev":"3.16-4","proto_major":3,"proto_minor":11}
2017-12-29 14:54:37 1514577277.504125: {"class":"DEVICES","devices":[{"class":"DEVICE","path":"/dev/ttyUSB0","driver":"SiRF","subtype":"9\u0006GSD4e_4.1.2-P1_RPATCH.05-F-GPS-4R-1510281 11/03/2015 307","activated":"2017-12-29T19:54:37.498Z","flags":1,"native":1,"bps":4800,"parity":"N","stopbits":1,"cycle":1.00}]}
2017-12-29 14:54:37 1514577277.504337: {"class":"WATCH","enable":true,"json":false,"nmea":true,"raw":0,"scaled":false,"timing":false,"split24":false,"pps":false}
2017-12-29 14:54:38 1514577278.718346: $GPGSV,3,1,12,01,22,292,37,03,08,316,41,10,39,151,48,18,09,147,34*79
2017-12-29 14:54:38 1514577278.718545: $GPGSV,3,2,12,12,18,042,43,14,69,346,42,22,27,310,41,25,41,079,51*77
2017-12-29 14:54:38 1514577278.718612: $GPGSV,3,3,12,31,66,235,46,32,64,051,51,26,11,180,26,138,38,213,43*42
2017-12-29 14:54:38 1514577278.831847: $GPZDA,195439.00,29,12,2017,00,00*69
2017-12-29 14:54:38 1514577278.831983: $GPGGA,195439,3946.9601,N,08404.9831,W,1,12,0.80,300.80,M,-33.324,M,,*76
2017-12-29 14:54:38 1514577278.832049: $GPRMC,195439,A,3946.9601,N,08404.9831,W,0.0000,0.000,291217,,*3F
2017-12-29 14:54:38 1514577278.832109: $GPGSA,A,3,1,3,10,18,12,14,22,25,31,32,26,138,1.7,0.8,1.3*08
2017-12-29 14:54:39 1514577279.457138: $GPZDA,195440.00,29,12,2017,00,00*67
2017-12-29 14:54:39 1514577279.457295: $GPGGA,195440,3946.9601,N,08404.9831,W,1,12,0.80,300.80,M,-33.324,M,,*78
2017-12-29 14:54:39 1514577279.457362: $GPRMC,195440,A,3946.9601,N,08404.9831,W,0.0000,0.000,291217,,*31
2017-12-29 14:54:39 1514577279.457442: $GPGSA,A,3,1,3,10,18,12,14,22,25,31,32,26,138,1.7,0.8,1.3*08
2017-12-29 14:54:40 1514577280.383055: $GPZDA,195441.00,29,12,2017,00,00*66
2017-12-29 14:54:40 1514577280.383222: $GPGGA,195441,3946.9594,N,08404.9852,W,2,12,0.80,300.68,M,-33.324,M,,*76
2017-12-29 14:54:40 1514577280.383287: $GPRMC,195441,A,3946.9594,N,08404.9852,W,0.0000,0.000,291217,,*3A
2017-12-29 14:54:40 1514577280.383347: $GPGSA,A,3,1,3,10,18,12,14,22,25,31,32,26,138,1.7,0.8,1.3*08
2017-12-29 14:54:41 1514577281.719949: $GPGSV,3,1,12,01,22,292,37,03,08,316,41,10,39,151,48,18,09,147,34*79
2017-12-29 14:54:41 1514577281.720098: $GPGSV,3,2,12,12,18,042,44,14,69,346,43,22,27,310,41,25,41,079,51*71
2017-12-29 14:54:41 1514577281.720162: $GPGSV,3,3,12,31,66,235,46,32,64,051,51,26,11,180,27,138,38,213,43*43
2017-12-29 14:54:41 1514577281.833323: $GPZDA,195442.00,29,12,2017,00,00*65
2017-12-29 14:54:41 1514577281.833473: $GPGGA,195442,3946.9594,N,08404.9852,W,2,12,0.80,300.68,M,-33.324,M,,*75
2017-12-29 14:54:41 1514577281.833556: $GPRMC,195442,A,3946.9594,N,08404.9852,W,0.0000,0.000,291217,,*39
2017-12-29 14:54:41 1514577281.833618: $GPGSA,A,3,1,3,10,18,12,14,22,25,31,32,26,138,1.7,0.8,1.3*08
2017-12-29 14:54:42 1514577282.384166: $GPZDA,195443.00,29,12,2017,00,00*64
2017-12-29 14:54:42 1514577282.386878: $GPGGA,195443,3946.9594,N,08404.9852,W,2,12,0.80,300.68,M,-33.324,M,,*74
2017-12-29 14:54:42 1514577282.386972: $GPRMC,195443,A,3946.9594,N,08404.9852,W,0.0000,0.000,291217,,*38
2017-12-29 14:54:42 1514577282.387035: $GPGSA,A,3,1,3,10,18,12,14,22,25,31,32,26,138,1.7,0.8,1.3*08
2017-12-29 14:54:43 1514577283.383784: $GPZDA,195444.00,29,12,2017,00,00*63
2017-12-29 14:54:43 1514577283.383938: $GPGGA,195444,3946.9594,N,08404.9852,W,2,12,0.80,300.68,M,-33.324,M,,*73
2017-12-29 14:54:43 1514577283.384004: $GPRMC,195444,A,3946.9594,N,08404.9852,W,0.0000,0.000,291217,,*3F
2017-12-29 14:54:43 1514577283.384065: $GPGSA,A,3,1,3,10,18,12,14,22,25,31,32,26,138,1.7,0.8,1.3*08
2017-12-29 14:54:43 1514577283.384124: $GPGBS,195444,2.73,M,2.59,M,7.72,M*3D
2017-12-29 14:54:44 1514577284.716419: $GPGSV,3,1,12,01,22,292,37,03,08,316,41,10,39,151,48,18,09,147,34*79
2017-12-29 14:54:44 1514577284.716610: $GPGSV,3,2,12,12,18,042,44,14,69,346,42,22,27,310,41,25,41,079,51*70
2017-12-29 14:54:44 1514577284.716677: $GPGSV,3,3,12,31,66,235,46,32,64,051,51,26,11,180,27,138,38,213,44*44
2017-12-29 14:54:44 1514577284.829826: $GPZDA,195445.00,29,12,2017,00,00*62
2017-12-29 14:54:44 1514577284.830014: $GPGGA,195445,3946.9594,N,08404.9852,W,2,12,0.80,300.68,M,-33.324,M,,*72
2017-12-29 14:54:44 1514577284.830082: $GPRMC,195445,A,3946.9594,N,08404.9852,W,0.0000,0.000,291217,,*3E
2017-12-29 14:54:44 1514577284.830143: $GPGSA,A,3,1,3,10,18,12,14,22,25,31,32,26,138,1.7,0.8,1.3*08
2017-12-29 14:54:45 1514577285.384464: $GPZDA,195446.00,29,12,2017,00,00*61
2017-12-29 14:54:45 1514577285.384642: $GPGGA,195446,3946.9594,N,08404.9852,W,2,12,0.80,300.68,M,-33.324,M,,*71
2017-12-29 14:54:45 1514577285.384708: $GPRMC,195446,A,3946.9594,N,08404.9852,W,0.0000,0.000,291217,,*3D
2017-12-29 14:54:45 1514577285.384769: $GPGSA,A,3,1,3,10,18,12,14,22,25,31,32,26,138,1.7,0.8,1.3*08
2017-12-29 14:54:46 1514577286.384058: $GPZDA,195447.00,29,12,2017,00,00*60
2017-12-29 14:54:46 1514577286.384216: $GPGGA,195447,3946.9594,N,08404.9852,W,2,12,0.80,300.68,M,-33.324,M,,*70
2017-12-29 14:54:46 1514577286.384283: $GPRMC,195447,A,3946.9594,N,08404.9852,W,0.0000,0.000,291217,,*3C
2017-12-29 14:54:46 1514577286.384369: $GPGSA,A,3,1,3,10,18,12,14,22,25,31,32,26,138,1.7,0.8,1.3*08
