2017-12-01 17:35:15 1512167715.267804: {"class":"VERSION","release":"3.16","rev":"3.16-4","proto_major":3,"proto_minor":11}
2017-12-01 17:35:15 1512167715.268268: {"class":"DEVICES","devices":[{"class":"DEVICE","path":"/dev/ttyUSB0","driver":"SiRF","subtype":"9\u0006GSD4e_4.1.2-P1_RPATCH.05-F-GPS-4R-1510281 11/03/2015 307","activated":"2017-12-01T22:35:15.134Z","flags":1,"native":1,"bps":4800,"parity":"N","stopbits":1,"cycle":1.00}]}
2017-12-01 17:35:15 1512167715.268384: {"class":"WATCH","enable":true,"json":false,"nmea":true,"raw":0,"scaled":false,"timing":false,"split24":false,"pps":false}
2017-12-01 17:35:16 1512167716.163135: $GPZDA,223516.81,01,12,2017,00,00*68
2017-12-01 17:35:16 1512167716.163308: $GPGGA,223516,3946.9701,N,08404.9860,W,1,11,1.00,305.16,M,-33.325,M,,*70
2017-12-01 17:35:16 1512167716.163373: $GPRMC,223516,A,3946.9701,N,08404.9860,W,0.3954,122.605,011217,,*3B
2017-12-01 17:35:16 1512167716.163435: $GPGSA,A,3,1,3,10,14,22,25,26,31,32,12,138,,2.0,1.0,1.5*0A
2017-12-01 17:35:16 1512167716.163493: $GPGBS,223516,10.70,M,15.43,M,35.28,M*06
2017-12-01 17:35:17 1512167717.268322: $GPZDA,223517.50,01,12,2017,00,00*65
2017-12-01 17:35:17 1512167717.268492: $GPGGA,223517,3946.9701,N,08404.9860,W,1,11,1.00,305.16,M,-33.325,M,,*71
2017-12-01 17:35:17 1512167717.268558: $GPRMC,223517,A,3946.9701,N,08404.9860,W,0.4405,353.469,011217,,*38
2017-12-01 17:35:17 1512167717.268619: $GPGSA,A,3,1,3,10,14,22,25,26,31,32,12,138,,2.0,1.0,1.5*0A
2017-12-01 17:35:18 1512167718.433354: $GPGSV,3,1,12,01,17,271,44,03,24,313,45,10,18,157,44,14,68,049,43*74
2017-12-01 17:35:18 1512167718.433536: $GPGSV,3,2,12,22,42,298,48,25,33,054,43,26,30,177,42,31,80,306,45*7D
2017-12-01 17:35:18 1512167718.433603: $GPGSV,3,3,12,32,52,085,46,12,04,031,05,16,02,190,00,138,38,213,15*4B
2017-12-01 17:35:18 1512167718.546717: $GPZDA,223518.00,01,12,2017,00,00*6F
2017-12-01 17:35:18 1512167718.546857: $GPGGA,223518,3946.9701,N,08404.9860,W,1,10,1.00,305.16,M,-33.325,M,,*7F
2017-12-01 17:35:18 1512167718.546945: $GPRMC,223518,A,3946.9701,N,08404.9860,W,0.1324,202.230,011217,,*39
2017-12-01 17:35:18 1512167718.547021: $GPGSA,A,3,1,3,10,14,22,25,26,31,32,138,,,2.0,1.0,1.5*09
2017-12-01 17:35:18 1512167718.998098: $GPZDA,223519.00,01,12,2017,00,00*6E
2017-12-01 17:35:18 1512167718.998272: $GPGGA,223519,3946.9704,N,08404.9859,W,1,10,1.00,304.40,M,-33.325,M,,*73
2017-12-01 17:35:18 1512167718.998337: $GPRMC,223519,A,3946.9704,N,08404.9859,W,0.0407,322.013,011217,,*30
2017-12-01 17:35:18 1512167718.998398: $GPGSA,A,3,1,3,10,14,22,25,26,31,32,138,,,2.0,1.0,1.5*09
2017-12-01 17:35:19 1512167719.456026: $GPZDA,223520.00,01,12,2017,00,00*64
2017-12-01 17:35:19 1512167719.456193: $GPGGA,223520,3946.9704,N,08404.9859,W,1,10,1.00,304.40,M,-33.325,M,,*79
2017-12-01 17:35:19 1512167719.456260: $GPRMC,223520,A,3946.9704,N,08404.9859,W,0.0000,0.000,011217,,*38
2017-12-01 17:35:19 1512167719.456321: $GPGSA,A,3,1,3,10,14,22,25,26,31,32,138,,,2.0,1.0,1.5*09
2017-12-01 17:35:20 1512167720.791248: $GPGSV,3,1,12,01,17,271,45,03,24,313,45,10,18,157,44,14,68,049,42*74
2017-12-01 17:35:20 1512167720.791485: $GPGSV,3,2,12,22,42,298,48,25,33,054,43,26,30,177,43,31,80,306,45*7C
2017-12-01 17:35:20 1512167720.791556: $GPGSV,3,3,12,32,52,085,46,12,04,031,24,16,02,190,00,138,38,213,46*4E
2017-12-01 17:35:20 1512167720.904597: $GPZDA,223521.00,01,12,2017,00,00*65
2017-12-01 17:35:20 1512167720.904747: $GPGGA,223521,3946.9708,N,08404.9858,W,1,11,1.00,303.63,M,-33.325,M,,*72
2017-12-01 17:35:20 1512167720.904814: $GPRMC,223521,A,3946.9708,N,08404.9858,W,0.0000,0.000,011217,,*34
2017-12-01 17:35:20 1512167720.904875: $GPGSA,A,3,1,3,10,14,22,25,26,31,32,12,138,,2.0,1.0,1.5*0A
2017-12-01 17:35:21 1512167721.456916: $GPZDA,223522.00,01,12,2017,00,00*66
2017-12-01 17:35:21 1512167721.457102: $GPGGA,223522,3946.9708,N,08404.9858,W,1,11,1.00,303.63,M,-33.325,M,,*71
2017-12-01 17:35:21 1512167721.457172: $GPRMC,223522,A,3946.9708,N,08404.9858,W,0.0000,0.000,011217,,*37
2017-12-01 17:35:21 1512167721.457233: $GPGSA,A,3,1,3,10,14,22,25,26,31,32,12,138,,2.0,1.0,1.5*0A
2017-12-01 17:35:22 1512167722.457515: $GPZDA,223523.00,01,12,2017,00,00*67
2017-12-01 17:35:22 1512167722.457684: $GPGGA,223523,3946.9724,N,08404.9847,W,2,11,1.60,298.49,M,-33.325,M,,*7E
2017-12-01 17:35:22 1512167722.457751: $GPRMC,223523,A,3946.9724,N,08404.9847,W,0.0000,0.000,011217,,*36
2017-12-01 17:35:22 1512167722.457812: $GPGSA,A,3,1,3,10,14,22,25,26,31,32,12,138,,2.0,1.6,1.5*0C
2017-12-01 17:35:22 1512167722.457915: $GPGBS,223523,2.67,M,3.86,M,8.82,M*35
2017-12-01 17:35:23 1512167723.793258: $GPGSV,3,1,12,01,17,271,46,03,24,313,45,10,18,157,44,14,68,049,42*77
2017-12-01 17:35:23 1512167723.793437: $GPGSV,3,2,12,22,42,298,48,25,33,054,44,26,30,177,43,31,80,306,45*7B
2017-12-01 17:35:23 1512167723.793504: $GPGSV,3,3,12,32,52,085,46,12,04,031,24,16,02,190,00,138,38,213,45*4D
2017-12-01 17:35:23 1512167723.906596: $GPZDA,223524.00,01,12,2017,00,00*60
2017-12-01 17:35:23 1512167723.906772: $GPGGA,223524,3946.9724,N,08404.9847,W,2,11,1.00,298.49,M,-33.325,M,,*7F
2017-12-01 17:35:23 1512167723.906861: $GPRMC,223524,A,3946.9724,N,08404.9847,W,0.0000,0.000,011217,,*31
2017-12-01 17:35:23 1512167723.906924: $GPGSA,A,3,1,3,10,14,22,25,26,31,32,12,138,,2.0,1.0,1.5*0A
2017-12-01 17:35:24 1512167724.456183: $GPZDA,223525.00,01,12,2017,00,00*61
2017-12-01 17:35:24 1512167724.456356: $GPGGA,223525,3946.9724,N,08404.9847,W,2,11,1.00,298.49,M,-33.325,M,,*7E
2017-12-01 17:35:24 1512167724.456423: $GPRMC,223525,A,3946.9724,N,08404.9847,W,0.0000,0.000,011217,,*30
2017-12-01 17:35:24 1512167724.456484: $GPGSA,A,3,1,3,10,14,22,25,26,31,32,12,138,,2.0,1.0,1.5*0A
2017-12-01 17:35:25 1512167725.456911: $GPZDA,223526.00,01,12,2017,00,00*62
2017-12-01 17:35:25 1512167725.457108: $GPGGA,223526,3946.9720,N,08404.9848,W,2,11,1.00,299.25,M,-33.325,M,,*7D
2017-12-01 17:35:25 1512167725.457175: $GPRMC,223526,A,3946.9720,N,08404.9848,W,0.0000,0.000,011217,,*38
2017-12-01 17:35:25 1512167725.457235: $GPGSA,A,3,1,3,10,14,22,25,26,31,32,12,138,,2.0,1.0,1.5*0A
2017-12-01 17:35:26 1512167726.790973: $GPGSV,3,1,12,01,17,271,46,03,24,313,45,10,18,157,44,14,68,049,42*77
2017-12-01 17:35:26 1512167726.791153: $GPGSV,3,2,12,22,42,298,48,25,33,054,44,26,30,177,44,31,80,306,45*7C
2017-12-01 17:35:26 1512167726.791220: $GPGSV,3,3,12,32,52,085,46,12,04,031,24,16,02,190,00,138,38,213,46*4E
2017-12-01 17:35:26 1512167726.904372: $GPZDA,223527.00,01,12,2017,00,00*63
2017-12-01 17:35:26 1512167726.904510: $GPGGA,223527,3946.9720,N,08404.9848,W,2,11,1.00,299.25,M,-33.325,M,,*7C
2017-12-01 17:35:26 1512167726.904576: $GPRMC,223527,A,3946.9720,N,08404.9848,W,0.0000,0.000,011217,,*39
2017-12-01 17:35:26 1512167726.904636: $GPGSA,A,3,1,3,10,14,22,25,26,31,32,12,138,,2.0,1.0,1.5*0A
2017-12-01 17:35:27 1512167727.456511: $GPZDA,223528.00,01,12,2017,00,00*6C
2017-12-01 17:35:27 1512167727.456686: $GPGGA,223528,3946.9720,N,08404.9848,W,2,11,1.00,299.25,M,-33.325,M,,*73
2017-12-01 17:35:27 1512167727.456775: $GPRMC,223528,A,3946.9720,N,08404.9848,W,0.0000,0.000,011217,,*36
2017-12-01 17:35:27 1512167727.456839: $GPGSA,A,3,1,3,10,14,22,25,26,31,32,12,138,,2.0,1.0,1.5*0A
2017-12-01 17:35:28 1512167728.456146: $GPZDA,223529.00,01,12,2017,00,00*6D
2017-12-01 17:35:28 1512167728.457848: $GPGGA,223529,3946.9720,N,08404.9848,W,2,11,1.00,299.25,M,-33.325,M,,*72
2017-12-01 17:35:28 1512167728.457985: $GPRMC,223529,A,3946.9720,N,08404.9848,W,0.0000,0.000,011217,,*37
2017-12-01 17:35:28 1512167728.458049: $GPGSA,A,3,1,3,10,14,22,25,26,31,32,12,138,,2.0,1.0,1.5*0A
2017-12-01 17:35:29 1512167729.791839: $GPGSV,3,1,12,01,17,271,46,03,24,313,45,10,18,157,44,14,68,049,42*77
2017-12-01 17:35:29 1512167729.792038: $GPGSV,3,2,12,22,42,298,48,25,33,054,44,26,30,177,43,31,80,306,45*7B
2017-12-01 17:35:29 1512167729.792105: $GPGSV,3,3,12,32,52,085,46,12,04,031,25,16,02,190,00,138,38,213,46*4F
2017-12-01 17:35:29 1512167729.905239: $GPZDA,223530.00,01,12,2017,00,00*65
2017-12-01 17:35:29 1512167729.905411: $GPGGA,223530,3946.9720,N,08404.9848,W,2,11,1.00,299.25,M,-33.325,M,,*7A
2017-12-01 17:35:29 1512167729.905478: $GPRMC,223530,A,3946.9720,N,08404.9848,W,0.0000,0.000,011217,,*3F
2017-12-01 17:35:29 1512167729.905587: $GPGSA,A,3,1,3,10,14,22,25,26,31,32,12,138,,2.0,1.0,1.5*0A
2017-12-01 17:35:30 1512167730.530578: $GPZDA,223531.00,01,12,2017,00,00*64
2017-12-01 17:35:30 1512167730.530768: $GPGGA,223531,3946.9720,N,08404.9848,W,2,11,1.00,299.25,M,-33.325,M,,*7B
2017-12-01 17:35:30 1512167730.530836: $GPRMC,223531,A,3946.9720,N,08404.9848,W,0.0000,0.000,011217,,*3E
2017-12-01 17:35:30 1512167730.530916: $GPGSA,A,3,1,3,10,14,22,25,26,31,32,12,138,,2.0,1.0,1.5*0A
2017-12-01 17:35:31 1512167731.461611: $GPZDA,223532.00,01,12,2017,00,00*67
2017-12-01 17:35:31 1512167731.461783: $GPGGA,223532,3946.9720,N,08404.9848,W,2,11,1.00,299.25,M,-33.325,M,,*78
2017-12-01 17:35:31 1512167731.461852: $GPRMC,223532,A,3946.9720,N,08404.9848,W,0.0000,0.000,011217,,*3D
2017-12-01 17:35:31 1512167731.461913: $GPGSA,A,3,1,3,10,14,22,25,26,31,32,12,138,,2.0,1.0,1.5*0A
2017-12-01 17:35:32 1512167732.789656: $GPGSV,3,1,12,01,17,271,46,03,24,313,44,10,18,157,44,14,68,049,42*76
2017-12-01 17:35:32 1512167732.789842: $GPGSV,3,2,12,22,42,298,48,25,33,054,44,26,30,177,43,31,80,306,46*78
2017-12-01 17:35:32 1512167732.789910: $GPGSV,3,3,12,32,52,085,46,12,04,031,25,16,02,190,00,138,38,213,46*4F
2017-12-01 17:35:32 1512167732.903404: $GPZDA,223533.00,01,12,2017,00,00*66
2017-12-01 17:35:32 1512167732.903539: $GPGGA,223533,3946.9720,N,08404.9848,W,2,11,1.00,299.25,M,-33.325,M,,*79
2017-12-01 17:35:32 1512167732.903603: $GPRMC,223533,A,3946.9720,N,08404.9848,W,0.0000,0.000,011217,,*3C
2017-12-01 17:35:32 1512167732.903663: $GPGSA,A,3,1,3,10,14,22,25,26,31,32,12,138,,2.0,1.0,1.5*0A
2017-12-01 17:35:33 1512167733.453908: $GPZDA,223534.00,01,12,2017,00,00*61
2017-12-01 17:35:33 1512167733.454115: $GPGGA,223534,3946.9720,N,08404.9848,W,2,11,1.00,299.25,M,-33.325,M,,*7E
2017-12-01 17:35:33 1512167733.454205: $GPRMC,223534,A,3946.9720,N,08404.9848,W,0.2422,273.794,011217,,*31
2017-12-01 17:35:33 1512167733.454270: $GPGSA,A,3,1,3,10,14,22,25,26,31,32,12,138,,2.0,1.0,1.5*0A
2017-12-01 17:35:34 1512167734.454650: $GPZDA,223535.00,01,12,2017,00,00*60
2017-12-01 17:35:34 1512167734.454855: $GPGGA,223535,3946.9720,N,08404.9848,W,2,11,1.00,299.25,M,-33.325,M,,*7F
2017-12-01 17:35:34 1512167734.454922: $GPRMC,223535,A,3946.9720,N,08404.9848,W,0.0000,0.000,011217,,*3A
2017-12-01 17:35:34 1512167734.454985: $GPGSA,A,3,1,3,10,14,22,25,26,31,32,12,138,,2.0,1.0,1.5*0A
2017-12-01 17:35:34 1512167734.455043: $GPGBS,223535,2.67,M,3.86,M,8.82,M*32
