2017-12-01 13:53:23 1512154403.706475: {"class":"VERSION","release":"3.16","rev":"3.16-4","proto_major":3,"proto_minor":11}
2017-12-01 13:53:23 1512154403.706868: {"class":"DEVICES","devices":[{"class":"DEVICE","path":"/dev/ttyUSB0","driver":"SiRF","subtype":"9\u0006GSD4e_4.1.2-P1_RPATCH.05-F-GPS-4R-1510281 11/03/2015 307","activated":"2017-12-01T18:53:23.411Z","flags":1,"native":1,"bps":4800,"parity":"N","stopbits":1,"cycle":1.00}]}
2017-12-01 13:53:23 1512154403.706993: {"class":"WATCH","enable":true,"json":false,"nmea":true,"raw":0,"scaled":false,"timing":false,"split24":false,"pps":false}
2017-12-01 13:53:24 1512154404.184469: $GPZDA,185324.48,01,12,2017,00,00*65
2017-12-01 13:53:24 1512154404.184656: $GPGGA,185324,3946.9559,N,08404.9815,W,1,11,1.00,303.82,M,-33.324,M,,*7F
2017-12-01 13:53:24 1512154404.184725: $GPRMC,185324,A,3946.9559,N,08404.9815,W,0.2172,85.763,011217,,*0E
2017-12-01 13:53:24 1512154404.184809: $GPGSA,A,3,8,10,14,15,18,20,21,24,27,32,138,,2.0,1.0,1.5*3D
2017-12-01 13:53:24 1512154404.184871: $GPGBS,185324,10.70,M,15.43,M,35.28,M*0E
2017-12-01 13:53:25 1512154405.326949: $GPGSV,3,1,12,10,57,316,49,14,19,243,40,15,21,060,44,18,77,048,42*7C
2017-12-01 13:53:25 1512154405.327133: $GPGSV,3,2,12,20,19,109,45,21,43,181,46,24,52,076,48,27,13,271,35*7F
2017-12-01 13:53:25 1512154405.327203: $GPGSV,3,3,12,32,36,252,43,08,08,306,33,12,01,117,04,138,38,213,00*49
2017-12-01 13:53:25 1512154405.440340: $GPZDA,185325.00,01,12,2017,00,00*68
2017-12-01 13:53:25 1512154405.440492: $GPGGA,185325,3946.9559,N,08404.9815,W,1,10,0.80,303.82,M,-33.324,M,,*76
2017-12-01 13:53:25 1512154405.440560: $GPRMC,185325,A,3946.9559,N,08404.9815,W,0.1567,189.200,011217,,*31
2017-12-01 13:53:25 1512154405.440624: $GPGSA,A,3,10,14,15,18,20,21,24,27,32,8,,,2.0,0.8,1.5*0E
2017-12-01 13:53:25 1512154405.892493: $GPZDA,185326.00,01,12,2017,00,00*6B
2017-12-01 13:53:25 1512154405.892670: $GPGGA,185326,3946.9559,N,08404.9815,W,1,10,0.80,303.82,M,-33.324,M,,*75
2017-12-01 13:53:25 1512154405.892740: $GPRMC,185326,A,3946.9559,N,08404.9815,W,0.1567,189.200,011217,,*32
2017-12-01 13:53:25 1512154405.892803: $GPGSA,A,3,10,14,15,18,20,21,24,27,32,8,,,2.0,0.8,1.5*0E
2017-12-01 13:53:26 1512154406.393476: $GPZDA,185327.00,01,12,2017,00,00*6A
2017-12-01 13:53:26 1512154406.393649: $GPGGA,185327,3946.9559,N,08404.9822,W,1,10,0.80,303.74,M,-33.324,M,,*79
2017-12-01 13:53:26 1512154406.393719: $GPRMC,185327,A,3946.9559,N,08404.9822,W,0.0000,0.000,011217,,*30
2017-12-01 13:53:26 1512154406.393806: $GPGSA,A,3,10,14,15,18,20,21,24,27,32,8,,,2.0,0.8,1.5*0E
2017-12-01 13:53:27 1512154407.728588: $GPGSV,3,1,12,10,57,316,49,14,19,243,40,15,21,060,44,18,77,048,43*7D
2017-12-01 13:53:27 1512154407.728769: $GPGSV,3,2,12,20,19,109,46,21,43,181,46,24,52,076,48,27,13,271,35*7C
2017-12-01 13:53:27 1512154407.728840: $GPGSV,3,3,12,32,36,252,44,08,08,306,32,12,01,117,17,138,38,213,47*4E
2017-12-01 13:53:27 1512154407.842168: $GPZDA,185328.00,01,12,2017,00,00*65
2017-12-01 13:53:27 1512154407.842323: $GPGGA,185328,3946.9567,N,08404.9821,W,1,12,0.80,303.62,M,-33.324,M,,*7D
2017-12-01 13:53:27 1512154407.842392: $GPRMC,185328,A,3946.9567,N,08404.9821,W,0.0000,0.000,011217,,*31
2017-12-01 13:53:27 1512154407.842455: $GPGSA,A,3,10,14,15,18,20,21,24,27,32,8,12,138,2.0,0.8,1.5*37
2017-12-01 13:53:28 1512154408.392917: $GPZDA,185329.00,01,12,2017,00,00*64
2017-12-01 13:53:28 1512154408.393085: $GPGGA,185329,3946.9567,N,08404.9821,W,1,12,0.80,303.62,M,-33.324,M,,*7C
2017-12-01 13:53:28 1512154408.393155: $GPRMC,185329,A,3946.9567,N,08404.9821,W,0.0000,0.000,011217,,*30
2017-12-01 13:53:28 1512154408.393218: $GPGSA,A,3,10,14,15,18,20,21,24,27,32,8,12,138,2.0,0.8,1.5*37
2017-12-01 13:53:29 1512154409.394930: $GPZDA,185330.00,01,12,2017,00,00*6C
2017-12-01 13:53:29 1512154409.395101: $GPGGA,185330,3946.9571,N,08404.9827,W,2,12,1.00,302.78,M,-33.324,M,,*75
2017-12-01 13:53:29 1512154409.395171: $GPRMC,185330,A,3946.9571,N,08404.9827,W,0.0000,0.000,011217,,*39
2017-12-01 13:53:29 1512154409.395235: $GPGSA,A,3,10,14,15,18,20,21,24,27,32,8,12,138,2.0,1.0,1.5*3E
2017-12-01 13:53:29 1512154409.395348: $GPGBS,185330,2.67,M,3.86,M,8.82,M*3E
2017-12-01 13:53:30 1512154410.731914: $GPGSV,3,1,12,10,57,316,49,14,19,243,39,15,21,060,45,18,77,048,43*72
2017-12-01 13:53:30 1512154410.732069: $GPGSV,3,2,12,20,19,109,46,21,43,181,45,24,52,076,48,27,13,271,35*7F
2017-12-01 13:53:30 1512154410.732136: $GPGSV,3,3,12,32,36,252,44,08,08,306,33,12,01,117,17,138,38,213,46*4E
2017-12-01 13:53:30 1512154410.845182: $GPZDA,185331.00,01,12,2017,00,00*6D
2017-12-01 13:53:30 1512154410.845368: $GPGGA,185331,3946.9571,N,08404.9827,W,2,12,1.00,302.78,M,-33.324,M,,*74
2017-12-01 13:53:30 1512154410.845458: $GPRMC,185331,A,3946.9571,N,08404.9827,W,0.0000,0.000,011217,,*38
2017-12-01 13:53:30 1512154410.845522: $GPGSA,A,3,10,14,15,18,20,21,24,27,32,8,12,138,2.0,1.0,1.5*3E
2017-12-01 13:53:31 1512154411.392471: $GPZDA,185332.00,01,12,2017,00,00*6E
2017-12-01 13:53:31 1512154411.392644: $GPGGA,185332,3946.9571,N,08404.9827,W,2,12,1.00,302.78,M,-33.324,M,,*77
2017-12-01 13:53:31 1512154411.392710: $GPRMC,185332,A,3946.9571,N,08404.9827,W,0.0000,0.000,011217,,*3B
2017-12-01 13:53:31 1512154411.392771: $GPGSA,A,3,10,14,15,18,20,21,24,27,32,8,12,138,2.0,1.0,1.5*3E
2017-12-01 13:53:32 1512154412.392837: $GPZDA,185333.00,01,12,2017,00,00*6F
2017-12-01 13:53:32 1512154412.393010: $GPGGA,185333,3946.9574,N,08404.9827,W,2,12,1.00,302.01,M,-33.324,M,,*7D
2017-12-01 13:53:32 1512154412.393078: $GPRMC,185333,A,3946.9574,N,08404.9827,W,0.0000,0.000,011217,,*3F
2017-12-01 13:53:32 1512154412.393139: $GPGSA,A,3,10,14,15,18,20,21,24,27,32,8,12,138,2.0,1.0,1.5*3E
2017-12-01 13:53:33 1512154413.728455: $GPGSV,3,1,12,10,57,316,14,14,19,243,12,15,21,060,13,18,77,048,13*75
2017-12-01 13:53:33 1512154413.728649: $GPGSV,3,2,12,20,19,109,14,21,43,181,13,24,52,076,14,27,13,271,11*74
2017-12-01 13:53:33 1512154413.728717: $GPGSV,3,3,12,32,36,252,13,08,08,306,10,12,01,117,05,138,38,213,16*4B
2017-12-01 13:53:33 1512154413.842149: $GPZDA,185334.00,01,12,2017,00,00*68
2017-12-01 13:53:33 1512154413.842305: $GPGGA,185334,3946.9571,N,08404.9827,W,2,12,1.00,302.78,M,-33.324,M,,*71
2017-12-01 13:53:33 1512154413.842371: $GPRMC,185334,A,3946.9571,N,08404.9827,W,0.2422,93.794,011217,,*0B
2017-12-01 13:53:33 1512154413.842432: $GPGSA,A,3,10,14,15,18,20,21,24,27,32,8,12,138,2.0,1.0,1.5*3E
2017-12-01 13:53:34 1512154414.393257: $GPZDA,185335.00,01,12,2017,00,00*69
2017-12-01 13:53:34 1512154414.393430: $GPGGA,185335,3946.9574,N,08404.9827,W,2,12,1.00,302.01,M,-33.324,M,,*7B
2017-12-01 13:53:34 1512154414.393497: $GPRMC,185335,A,3946.9574,N,08404.9827,W,0.0000,0.000,011217,,*39
2017-12-01 13:53:34 1512154414.393577: $GPGSA,A,3,10,14,15,18,20,21,24,27,32,8,12,138,2.0,1.0,1.5*3E
2017-12-01 13:53:35 1512154415.392640: $GPZDA,185336.00,01,12,2017,00,00*6A
2017-12-01 13:53:35 1512154415.392817: $GPGGA,185336,3946.9566,N,08404.9833,W,2,12,1.00,299.25,M,-33.324,M,,*7B
2017-12-01 13:53:35 1512154415.392884: $GPRMC,185336,A,3946.9566,N,08404.9833,W,0.1567,9.200,011217,,*32
2017-12-01 13:53:35 1512154415.392945: $GPGSA,A,3,10,14,15,18,20,21,24,27,32,8,12,138,2.0,1.0,1.5*3E
2017-12-01 13:53:36 1512154416.728076: $GPGSV,3,1,12,10,57,316,48,14,19,243,38,15,21,060,44,18,77,048,42*72
2017-12-01 13:53:36 1512154416.728258: $GPGSV,3,2,12,20,19,109,45,21,43,181,44,24,52,076,48,27,13,271,38*70
2017-12-01 13:53:36 1512154416.728323: $GPGSV,3,3,12,32,36,252,44,08,08,306,35,12,01,117,17,138,38,213,47*49
2017-12-01 13:53:36 1512154416.841833: $GPZDA,185337.00,01,12,2017,00,00*6B
2017-12-01 13:53:36 1512154416.842004: $GPGGA,185337,3946.9566,N,08404.9833,W,2,12,1.00,299.25,M,-33.324,M,,*7A
2017-12-01 13:53:36 1512154416.842071: $GPRMC,185337,A,3946.9566,N,08404.9833,W,0.0000,0.000,011217,,*3D
2017-12-01 13:53:36 1512154416.842132: $GPGSA,A,3,10,14,15,18,20,21,24,27,32,8,12,138,2.0,1.0,1.5*3E
2017-12-01 13:53:37 1512154417.467173: $GPZDA,185338.00,01,12,2017,00,00*64
2017-12-01 13:53:37 1512154417.467350: $GPGGA,185338,3946.9566,N,08404.9833,W,2,12,1.00,299.25,M,-33.324,M,,*75
2017-12-01 13:53:37 1512154417.467416: $GPRMC,185338,A,3946.9566,N,08404.9833,W,0.0000,0.000,011217,,*32
2017-12-01 13:53:37 1512154417.467527: $GPGSA,A,3,10,14,15,18,20,21,24,27,32,8,12,138,2.0,1.0,1.5*3E
2017-12-01 13:53:38 1512154418.394233: $GPZDA,185339.00,01,12,2017,00,00*65
2017-12-01 13:53:38 1512154418.394407: $GPGGA,185339,3946.9566,N,08404.9833,W,2,12,1.00,299.25,M,-33.324,M,,*74
2017-12-01 13:53:38 1512154418.394474: $GPRMC,185339,A,3946.9566,N,08404.9833,W,0.0000,0.000,011217,,*33
2017-12-01 13:53:38 1512154418.394534: $GPGSA,A,3,10,14,15,18,20,21,24,27,32,8,12,138,2.0,1.0,1.5*3E
