2017-12-01 14:05:22 1512155122.053922: {"class":"VERSION","release":"3.16","rev":"3.16-4","proto_major":3,"proto_minor":11}
2017-12-01 14:05:22 1512155122.054379: {"class":"DEVICES","devices":[{"class":"DEVICE","path":"/dev/ttyUSB0","driver":"SiRF","subtype":"9\u0006GSD4e_4.1.2-P1_RPATCH.05-F-GPS-4R-1510281 11/03/2015 307","activated":"2017-12-01T19:05:21.926Z","flags":1,"native":1,"bps":4800,"parity":"N","stopbits":1,"cycle":1.00}]}
2017-12-01 14:05:22 1512155122.054515: {"class":"WATCH","enable":true,"json":false,"nmea":true,"raw":0,"scaled":false,"timing":false,"split24":false,"pps":false}
2017-12-01 14:05:22 1512155122.335588: $GPZDA,190523.00,01,12,2017,00,00*6C
2017-12-01 14:05:22 1512155122.335761: $GPGGA,190523,3946.9564,N,08404.9836,W,2,12,0.80,304.23,M,-33.324,M,,*70
2017-12-01 14:05:22 1512155122.335828: $GPRMC,190523,A,3946.9564,N,08404.9836,W,0.0000,0.000,011217,,*3D
2017-12-01 14:05:22 1512155122.335889: $GPGSA,A,3,10,14,15,18,20,21,24,27,32,8,12,138,2.0,0.8,1.5*37
2017-12-01 14:05:23 1512155123.337425: $GPZDA,190524.00,01,12,2017,00,00*6B
2017-12-01 14:05:23 1512155123.337587: $GPGGA,190524,3946.9564,N,08404.9836,W,2,12,0.80,304.23,M,-33.324,M,,*77
2017-12-01 14:05:23 1512155123.337653: $GPRMC,190524,A,3946.9564,N,08404.9836,W,0.0000,0.000,011217,,*3A
2017-12-01 14:05:23 1512155123.337713: $GPGSA,A,3,10,14,15,18,20,21,24,27,32,8,12,138,2.0,0.8,1.5*37
2017-12-01 14:05:24 1512155124.668073: $GPGSV,3,1,12,10,62,321,49,14,23,247,42,15,17,063,39,18,75,069,42*7C
2017-12-01 14:05:24 1512155124.668281: $GPGSV,3,2,12,20,15,112,34,21,37,180,45,24,50,069,47,27,11,267,41*7B
2017-12-01 14:05:24 1512155124.668352: $GPGSV,3,3,12,32,40,256,44,08,07,301,34,12,04,114,24,138,38,213,46*42
2017-12-01 14:05:24 1512155124.781341: $GPZDA,190525.00,01,12,2017,00,00*6A
2017-12-01 14:05:24 1512155124.781554: $GPGGA,190525,3946.9564,N,08404.9836,W,2,12,0.80,304.23,M,-33.324,M,,*76
2017-12-01 14:05:24 1512155124.781624: $GPRMC,190525,A,3946.9564,N,08404.9836,W,0.0000,0.000,011217,,*3B
2017-12-01 14:05:24 1512155124.781688: $GPGSA,A,3,10,14,15,18,20,21,24,27,32,8,12,138,2.0,0.8,1.5*37
2017-12-01 14:05:25 1512155125.332257: $GPZDA,190526.00,01,12,2017,00,00*69
2017-12-01 14:05:25 1512155125.332432: $GPGGA,190526,3946.9564,N,08404.9836,W,2,12,0.80,304.23,M,-33.324,M,,*75
2017-12-01 14:05:25 1512155125.332502: $GPRMC,190526,A,3946.9564,N,08404.9836,W,0.0000,0.000,011217,,*38
2017-12-01 14:05:25 1512155125.332566: $GPGSA,A,3,10,14,15,18,20,21,24,27,32,8,12,138,2.0,0.8,1.5*37
2017-12-01 14:05:26 1512155126.335575: $GPZDA,190527.00,01,12,2017,00,00*68
2017-12-01 14:05:26 1512155126.734229: $GPGGA,190527,3946.9564,N,08404.9836,W,2,12,0.80,304.23,M,-33.324,M,,*74
2017-12-01 14:05:26 1512155126.734384: $GPRMC,190527,A,3946.9564,N,08404.9836,W,0.0000,0.000,011217,,*39
2017-12-01 14:05:26 1512155126.734451: $GPGSA,A,3,10,14,15,18,20,21,24,27,32,8,12,138,2.0,0.8,1.5*37
2017-12-01 14:05:27 1512155127.673795: $GPGSV,3,1,12,10,62,321,49,14,23,247,41,15,17,063,39,18,75,069,42*7F
2017-12-01 14:05:27 1512155127.673978: $GPGSV,3,2,12,20,15,112,34,21,37,180,44,24,50,069,47,27,11,267,41*7A
2017-12-01 14:05:27 1512155127.674049: $GPGSV,3,3,12,32,40,256,44,08,07,301,35,12,04,114,00,138,38,213,47*44
2017-12-01 14:05:27 1512155127.787120: $GPZDA,190528.00,01,12,2017,00,00*67
2017-12-01 14:05:27 1512155127.787260: $GPGGA,190528,3946.9569,N,08404.9836,W,2,11,0.80,304.87,M,-33.324,M,,*7B
2017-12-01 14:05:27 1512155127.787328: $GPRMC,190528,A,3946.9569,N,08404.9836,W,0.0000,0.000,011217,,*3B
2017-12-01 14:05:27 1512155127.787391: $GPGSA,A,3,10,14,15,18,20,21,24,27,32,8,138,,2.0,0.8,1.5*34
2017-12-01 14:05:28 1512155128.412706: $GPZDA,190529.00,01,12,2017,00,00*66
2017-12-01 14:05:28 1512155128.412869: $GPGGA,190529,3946.9565,N,08404.9837,W,2,11,0.80,305.63,M,-33.324,M,,*7C
2017-12-01 14:05:28 1512155128.412942: $GPRMC,190529,A,3946.9565,N,08404.9837,W,0.0000,0.000,011217,,*37
2017-12-01 14:05:28 1512155128.413005: $GPGSA,A,3,10,14,15,18,20,21,24,27,32,8,138,,2.0,0.8,1.5*34
2017-12-01 14:05:29 1512155129.335974: $GPZDA,190530.00,01,12,2017,00,00*6E
2017-12-01 14:05:29 1512155129.336204: $GPGGA,190530,3946.9565,N,08404.9837,W,2,11,0.80,305.63,M,-33.324,M,,*74
2017-12-01 14:05:29 1512155129.336274: $GPRMC,190530,A,3946.9565,N,08404.9837,W,0.0000,0.000,011217,,*3F
2017-12-01 14:05:29 1512155129.336336: $GPGSA,A,3,10,14,15,18,20,21,24,27,32,8,138,,2.0,0.8,1.5*34
2017-12-01 14:05:30 1512155130.671774: $GPGSV,3,1,12,10,62,321,49,14,23,247,41,15,17,063,39,18,75,069,42*7F
2017-12-01 14:05:30 1512155130.671956: $GPGSV,3,2,12,20,15,112,34,21,37,180,44,24,50,069,48,27,11,267,41*75
2017-12-01 14:05:30 1512155130.672024: $GPGSV,3,3,12,32,40,256,44,08,07,301,35,12,04,114,00,138,38,213,46*45
2017-12-01 14:05:30 1512155130.785147: $GPZDA,190531.00,01,12,2017,00,00*6F
2017-12-01 14:05:30 1512155130.785326: $GPGGA,190531,3946.9565,N,08404.9837,W,2,11,0.80,305.63,M,-33.324,M,,*75
2017-12-01 14:05:30 1512155130.785394: $GPRMC,190531,A,3946.9565,N,08404.9837,W,0.0000,0.000,011217,,*3E
2017-12-01 14:05:30 1512155130.785454: $GPGSA,A,3,10,14,15,18,20,21,24,27,32,8,138,,2.0,0.8,1.5*34
2017-12-01 14:05:31 1512155131.333430: $GPZDA,190532.00,01,12,2017,00,00*6C
2017-12-01 14:05:31 1512155131.333625: $GPGGA,190532,3946.9565,N,08404.9830,W,2,11,0.80,305.71,M,-33.324,M,,*72
2017-12-01 14:05:31 1512155131.333694: $GPRMC,190532,A,3946.9565,N,08404.9830,W,0.0000,0.000,011217,,*3A
2017-12-01 14:05:31 1512155131.333755: $GPGSA,A,3,10,14,15,18,20,21,24,27,32,8,138,,2.0,0.8,1.5*34
2017-12-01 14:05:32 1512155132.331824: $GPZDA,190533.00,01,12,2017,00,00*6D
2017-12-01 14:05:32 1512155132.332006: $GPGGA,190533,3946.9565,N,08404.9830,W,2,11,0.80,305.71,M,-33.324,M,,*73
2017-12-01 14:05:32 1512155132.332074: $GPRMC,190533,A,3946.9565,N,08404.9830,W,0.0000,0.000,011217,,*3B
2017-12-01 14:05:32 1512155132.332135: $GPGSA,A,3,10,14,15,18,20,21,24,27,32,8,138,,2.0,0.8,1.5*34
2017-12-01 14:05:33 1512155133.672046: $GPGSV,3,1,12,10,62,321,49,14,23,247,42,15,17,063,39,18,75,069,42*7C
2017-12-01 14:05:33 1512155133.672229: $GPGSV,3,2,12,20,15,112,34,21,37,180,44,24,50,069,48,27,11,267,41*75
2017-12-01 14:05:33 1512155133.672297: $GPGSV,3,3,12,32,40,256,44,08,07,301,36,12,04,114,22,138,38,213,48*48
2017-12-01 14:05:33 1512155133.785355: $GPZDA,190534.00,01,12,2017,00,00*6A
2017-12-01 14:05:33 1512155133.785498: $GPGGA,190534,3946.9565,N,08404.9830,W,2,12,0.80,305.71,M,-33.324,M,,*77
2017-12-01 14:05:33 1512155133.785565: $GPRMC,190534,A,3946.9565,N,08404.9830,W,0.0000,0.000,011217,,*3C
2017-12-01 14:05:33 1512155133.785625: $GPGSA,A,3,10,14,15,18,20,21,24,27,32,8,12,138,2.0,0.8,1.5*37
2017-12-01 14:05:34 1512155134.334981: $GPZDA,190535.00,01,12,2017,00,00*6B
2017-12-01 14:05:34 1512155134.335154: $GPGGA,190535,3946.9565,N,08404.9830,W,2,12,0.80,305.71,M,-33.324,M,,*76
2017-12-01 14:05:34 1512155134.335221: $GPRMC,190535,A,3946.9565,N,08404.9830,W,0.0000,0.000,011217,,*3D
2017-12-01 14:05:34 1512155134.335282: $GPGSA,A,3,10,14,15,18,20,21,24,27,32,8,12,138,2.0,0.8,1.5*37
2017-12-01 14:05:35 1512155135.337130: $GPZDA,190536.00,01,12,2017,00,00*68
2017-12-01 14:05:35 1512155135.337304: $GPGGA,190536,3946.9565,N,08404.9830,W,2,12,0.80,305.71,M,-33.324,M,,*75
2017-12-01 14:05:35 1512155135.337371: $GPRMC,190536,A,3946.9565,N,08404.9830,W,0.0000,0.000,011217,,*3E
2017-12-01 14:05:35 1512155135.337432: $GPGSA,A,3,10,14,15,18,20,21,24,27,32,8,12,138,2.0,0.8,1.5*37
2017-12-01 14:05:36 1512155136.700495: $GPGSV,3,1,12,10,62,321,49,14,23,247,42,15,17,063,38,18,75,069,43*7C
2017-12-01 14:05:36 1512155136.700689: $GPGSV,3,2,12,20,15,112,34,21,37,180,44,24,50,069,48,27,11,267,41*75
2017-12-01 14:05:36 1512155136.700757: $GPGSV,3,3,12,32,40,256,44,08,07,301,37,12,04,114,23,138,38,213,46*46
2017-12-01 14:05:36 1512155136.814071: $GPZDA,190537.00,01,12,2017,00,00*69
2017-12-01 14:05:36 1512155136.814254: $GPGGA,190537,3946.9565,N,08404.9830,W,2,12,0.80,305.71,M,-33.324,M,,*74
2017-12-01 14:05:36 1512155136.814321: $GPRMC,190537,A,3946.9565,N,08404.9830,W,0.0000,0.000,011217,,*3F
2017-12-01 14:05:36 1512155136.814382: $GPGSA,A,3,10,14,15,18,20,21,24,27,32,8,12,138,2.0,0.8,1.5*37
