2017-12-01 15:56:43 1512161803.406638: {"class":"VERSION","release":"3.16","rev":"3.16-4","proto_major":3,"proto_minor":11}
2017-12-01 15:56:43 1512161803.407037: {"class":"DEVICES","devices":[{"class":"DEVICE","path":"/dev/ttyUSB0","driver":"SiRF","subtype":"9\u0006GSD4e_4.1.2-P1_RPATCH.05-F-GPS-4R-1510281 11/03/2015 307","activated":"2017-12-01T20:56:43.404Z","flags":1,"native":1,"bps":4800,"parity":"N","stopbits":1,"cycle":1.00}]}
2017-12-01 15:56:43 1512161803.407158: {"class":"WATCH","enable":true,"json":false,"nmea":true,"raw":0,"scaled":false,"timing":false,"split24":false,"pps":false}
2017-12-01 15:56:44 1512161804.751119: $GPGSV,3,1,12,01,16,315,39,10,64,138,48,11,11,297,31,12,25,066,38*77
2017-12-01 15:56:44 1512161804.751303: $GPGSV,3,2,12,14,58,298,44,18,33,138,46,25,33,109,45,31,40,214,48*72
2017-12-01 15:56:44 1512161804.751421: $GPGSV,3,3,12,32,69,343,47,22,06,312,42,24,10,046,30,138,38,213,46*46
2017-12-01 15:56:44 1512161804.864433: $GPZDA,205645.00,01,12,2017,00,00*60
2017-12-01 15:56:44 1512161804.864571: $GPGGA,205645,3946.9566,N,08404.9858,W,2,12,0.80,305.39,M,-33.324,M,,*7C
2017-12-01 15:56:44 1512161804.864635: $GPRMC,205645,A,3946.9566,N,08404.9858,W,0.0000,0.000,011217,,*3B
2017-12-01 15:56:44 1512161804.864696: $GPGSA,A,3,1,10,11,12,14,18,25,31,32,22,24,138,2.0,0.8,1.5*3B
2017-12-01 15:56:45 1512161805.489872: $GPZDA,205646.00,01,12,2017,00,00*63
2017-12-01 15:56:45 1512161805.490047: $GPGGA,205646,3946.9566,N,08404.9858,W,2,12,0.80,305.39,M,-33.324,M,,*7F
2017-12-01 15:56:45 1512161805.490114: $GPRMC,205646,A,3946.9566,N,08404.9858,W,0.0000,0.000,011217,,*38
2017-12-01 15:56:45 1512161805.490177: $GPGSA,A,3,1,10,11,12,14,18,25,31,32,22,24,138,2.0,0.8,1.5*3B
2017-12-01 15:56:46 1512161806.419464: $GPZDA,205647.00,01,12,2017,00,00*62
2017-12-01 15:56:46 1512161806.419641: $GPGGA,205647,3946.9566,N,08404.9858,W,2,12,0.80,305.39,M,-33.324,M,,*7E
2017-12-01 15:56:46 1512161806.419707: $GPRMC,205647,A,3946.9566,N,08404.9858,W,0.0000,0.000,011217,,*39
2017-12-01 15:56:46 1512161806.419770: $GPGSA,A,3,1,10,11,12,14,18,25,31,32,22,24,138,2.0,0.8,1.5*3B
2017-12-01 15:56:47 1512161807.756483: $GPGSV,3,1,12,01,16,315,39,10,64,138,48,11,11,297,33,12,25,066,38*75
2017-12-01 15:56:47 1512161807.756668: $GPGSV,3,2,12,14,58,298,44,18,33,138,46,25,33,109,45,31,40,214,48*72
2017-12-01 15:56:47 1512161807.756734: $GPGSV,3,3,12,32,69,343,47,22,06,312,42,24,10,046,30,138,38,213,45*45
2017-12-01 15:56:47 1512161807.869990: $GPZDA,205648.00,01,12,2017,00,00*6D
2017-12-01 15:56:47 1512161807.870159: $GPGGA,205648,3946.9566,N,08404.9858,W,2,12,0.80,305.39,M,-33.324,M,,*71
2017-12-01 15:56:47 1512161807.870227: $GPRMC,205648,A,3946.9566,N,08404.9858,W,0.0000,0.000,011217,,*36
2017-12-01 15:56:47 1512161807.870289: $GPGSA,A,3,1,10,11,12,14,18,25,31,32,22,24,138,2.0,0.8,1.5*3B
2017-12-01 15:56:48 1512161808.422299: $GPZDA,205649.00,01,12,2017,00,00*6C
2017-12-01 15:56:48 1512161808.422476: $GPGGA,205649,3946.9566,N,08404.9858,W,2,12,0.80,305.39,M,-33.324,M,,*70
2017-12-01 15:56:48 1512161808.422543: $GPRMC,205649,A,3946.9566,N,08404.9858,W,0.0000,0.000,011217,,*37
2017-12-01 15:56:48 1512161808.422603: $GPGSA,A,3,1,10,11,12,14,18,25,31,32,22,24,138,2.0,0.8,1.5*3B
2017-12-01 15:56:49 1512161809.405550: $GPZDA,205650.00,01,12,2017,00,00*64
2017-12-01 15:56:49 1512161809.405743: $GPGGA,205650,3946.9566,N,08404.9851,W,2,12,0.80,305.47,M,-33.324,M,,*78
2017-12-01 15:56:49 1512161809.405832: $GPRMC,205650,A,3946.9566,N,08404.9851,W,0.0000,0.000,011217,,*36
2017-12-01 15:56:49 1512161809.405893: $GPGSA,A,3,1,10,11,12,14,18,25,31,32,22,24,138,2.0,0.8,1.5*3B
2017-12-01 15:56:50 1512161810.739446: $GPGSV,3,1,12,01,16,315,39,10,64,138,48,11,11,297,35,12,25,066,39*72
2017-12-01 15:56:50 1512161810.739594: $GPGSV,3,2,12,14,58,298,44,18,33,138,46,25,33,109,44,31,40,214,48*73
2017-12-01 15:56:50 1512161810.739659: $GPGSV,3,3,12,32,69,343,47,22,06,312,42,24,10,046,30,138,38,213,46*46
2017-12-01 15:56:50 1512161810.852812: $GPZDA,205651.00,01,12,2017,00,00*65
2017-12-01 15:56:50 1512161810.852987: $GPGGA,205651,3946.9566,N,08404.9851,W,2,12,0.80,305.47,M,-33.324,M,,*79
2017-12-01 15:56:50 1512161810.853105: $GPRMC,205651,A,3946.9566,N,08404.9851,W,0.0000,0.000,011217,,*37
2017-12-01 15:56:50 1512161810.853169: $GPGSA,A,3,1,10,11,12,14,18,25,31,32,22,24,138,2.0,0.8,1.5*3B
2017-12-01 15:56:51 1512161811.403590: $GPZDA,205652.00,01,12,2017,00,00*66
2017-12-01 15:56:51 1512161811.403765: $GPGGA,205652,3946.9566,N,08404.9851,W,2,12,0.80,305.47,M,-33.324,M,,*7A
2017-12-01 15:56:51 1512161811.403832: $GPRMC,205652,A,3946.9566,N,08404.9851,W,0.0000,0.000,011217,,*34
2017-12-01 15:56:51 1512161811.403894: $GPGSA,A,3,1,10,11,12,14,18,25,31,32,22,24,138,2.0,0.8,1.5*3B
2017-12-01 15:56:52 1512161812.403347: $GPZDA,205653.00,01,12,2017,00,00*67
2017-12-01 15:56:52 1512161812.403536: $GPGGA,205653,3946.9566,N,08404.9851,W,2,12,0.80,305.47,M,-33.324,M,,*7B
2017-12-01 15:56:52 1512161812.403624: $GPRMC,205653,A,3946.9566,N,08404.9851,W,0.0000,0.000,011217,,*35
2017-12-01 15:56:52 1512161812.403811: $GPGSA,A,3,1,10,11,12,14,18,25,31,32,22,24,138,2.0,0.8,1.5*3B
2017-12-01 15:56:53 1512161813.738961: $GPGSV,3,1,12,01,16,315,40,10,64,138,48,11,11,297,36,12,25,066,40*71
2017-12-01 15:56:53 1512161813.739147: $GPGSV,3,2,12,14,58,298,44,18,33,138,46,25,33,109,44,31,40,214,48*73
2017-12-01 15:56:53 1512161813.739214: $GPGSV,3,3,12,32,69,343,47,22,06,312,43,24,10,046,29,138,38,213,45*4C
2017-12-01 15:56:53 1512161813.852444: $GPZDA,205654.00,01,12,2017,00,00*60
2017-12-01 15:56:53 1512161813.852599: $GPGGA,205654,3946.9562,N,08404.9851,W,2,12,0.80,306.24,M,-33.324,M,,*7E
2017-12-01 15:56:53 1512161813.852667: $GPRMC,205654,A,3946.9562,N,08404.9851,W,0.0000,0.000,011217,,*36
2017-12-01 15:56:53 1512161813.852728: $GPGSA,A,3,1,10,11,12,14,18,25,31,32,22,24,138,2.0,0.8,1.5*3B
2017-12-01 15:56:54 1512161814.403547: $GPZDA,205655.00,01,12,2017,00,00*61
2017-12-01 15:56:54 1512161814.403723: $GPGGA,205655,3946.9562,N,08404.9851,W,2,12,0.80,306.24,M,-33.324,M,,*7F
2017-12-01 15:56:54 1512161814.403789: $GPRMC,205655,A,3946.9562,N,08404.9851,W,0.0000,0.000,011217,,*37
2017-12-01 15:56:54 1512161814.403851: $GPGSA,A,3,1,10,11,12,14,18,25,31,32,22,24,138,2.0,0.8,1.5*3B
2017-12-01 15:56:55 1512161815.398846: $GPZDA,205656.00,01,12,2017,00,00*62
2017-12-01 15:56:55 1512161815.399019: $GPGGA,205656,3946.9562,N,08404.9851,W,2,12,0.80,306.24,M,-33.324,M,,*7C
2017-12-01 15:56:55 1512161815.399085: $GPRMC,205656,A,3946.9562,N,08404.9851,W,0.0000,0.000,011217,,*34
2017-12-01 15:56:55 1512161815.399146: $GPGSA,A,3,1,10,11,12,14,18,25,31,32,22,24,138,2.0,0.8,1.5*3B
2017-12-01 15:56:56 1512161816.739404: $GPGSV,3,1,12,01,16,315,40,10,64,138,48,11,11,297,37,12,25,066,39*7E
2017-12-01 15:56:56 1512161816.739586: $GPGSV,3,2,12,14,58,298,44,18,33,138,46,25,33,109,44,31,40,214,48*73
2017-12-01 15:56:56 1512161816.739653: $GPGSV,3,3,12,32,69,343,47,22,06,312,43,24,10,046,30,138,38,213,46*47
2017-12-01 15:56:56 1512161816.852791: $GPZDA,205657.00,01,12,2017,00,00*63
2017-12-01 15:56:56 1512161816.852961: $GPGGA,205657,3946.9562,N,08404.9851,W,2,12,0.80,306.24,M,-33.324,M,,*7D
2017-12-01 15:56:56 1512161816.853029: $GPRMC,205657,A,3946.9562,N,08404.9851,W,0.0000,0.000,011217,,*35
2017-12-01 15:56:56 1512161816.853090: $GPGSA,A,3,1,10,11,12,14,18,25,31,32,22,24,138,2.0,0.8,1.5*3B
2017-12-01 15:56:57 1512161817.403934: $GPZDA,205658.00,01,12,2017,00,00*6C
2017-12-01 15:56:57 1512161817.404154: $GPGGA,205658,3946.9562,N,08404.9851,W,2,12,0.80,306.24,M,-33.324,M,,*72
2017-12-01 15:56:57 1512161817.404246: $GPRMC,205658,A,3946.9562,N,08404.9851,W,0.0000,0.000,011217,,*3A
2017-12-01 15:56:57 1512161817.404312: $GPGSA,A,3,1,10,11,12,14,18,25,31,32,22,24,138,2.0,0.8,1.5*3B
2017-12-01 15:56:58 1512161818.402064: $GPZDA,205659.00,01,12,2017,00,00*6D
2017-12-01 15:56:58 1512161818.402238: $GPGGA,205659,3946.9567,N,08404.9851,W,2,12,0.80,306.88,M,-33.324,M,,*70
2017-12-01 15:56:58 1512161818.402306: $GPRMC,205659,A,3946.9567,N,08404.9851,W,0.0000,0.000,011217,,*3E
2017-12-01 15:56:58 1512161818.402370: $GPGSA,A,3,1,10,11,12,14,18,25,31,32,22,24,138,2.0,0.8,1.5*3B
2017-12-01 15:56:59 1512161819.739022: $GPGSV,3,1,12,01,16,315,41,10,64,138,47,11,11,297,37,12,25,066,39*70
2017-12-01 15:56:59 1512161819.739206: $GPGSV,3,2,12,14,58,298,44,18,33,138,46,25,33,109,44,31,40,214,49*72
2017-12-01 15:56:59 1512161819.739276: $GPGSV,3,3,12,32,69,343,47,22,06,312,44,24,10,046,30,138,38,213,46*40
2017-12-01 15:56:59 1512161819.852686: $GPZDA,205700.00,01,12,2017,00,00*60
2017-12-01 15:56:59 1512161819.852834: $GPGGA,205700,3946.9567,N,08404.9851,W,2,12,0.80,306.88,M,-33.324,M,,*7D
2017-12-01 15:56:59 1512161819.852901: $GPRMC,205700,A,3946.9567,N,08404.9851,W,0.0000,0.000,011217,,*33
2017-12-01 15:56:59 1512161819.852963: $GPGSA,A,3,1,10,11,12,14,18,25,31,32,22,24,138,2.0,0.8,1.5*3B
2017-12-01 15:57:00 1512161820.479021: $GPZDA,205701.00,01,12,2017,00,00*61
2017-12-01 15:57:00 1512161820.479216: $GPGGA,205701,3946.9567,N,08404.9851,W,2,12,0.80,306.88,M,-33.324,M,,*7C
2017-12-01 15:57:00 1512161820.480951: $GPRMC,205701,A,3946.9567,N,08404.9851,W,0.0000,0.000,011217,,*32
2017-12-01 15:57:00 1512161820.481035: $GPGSA,A,3,1,10,11,12,14,18,25,31,32,22,24,138,2.0,0.8,1.5*3B
2017-12-01 15:57:01 1512161821.404866: $GPZDA,205702.00,01,12,2017,00,00*62
2017-12-01 15:57:01 1512161821.405055: $GPGGA,205702,3946.9567,N,08404.9851,W,2,12,0.80,306.88,M,-33.324,M,,*7F
2017-12-01 15:57:01 1512161821.405125: $GPRMC,205702,A,3946.9567,N,08404.9851,W,0.0000,0.000,011217,,*31
2017-12-01 15:57:01 1512161821.405186: $GPGSA,A,3,1,10,11,12,14,18,25,31,32,22,24,138,2.0,0.8,1.5*3B
2017-12-01 15:57:02 1512161822.738116: $GPGSV,3,1,12,01,16,315,40,10,64,138,48,11,11,297,37,12,25,066,39*7E
2017-12-01 15:57:02 1512161822.738289: $GPGSV,3,2,12,14,58,298,44,18,33,138,46,25,33,109,45,31,40,214,48*72
2017-12-01 15:57:02 1512161822.738359: $GPGSV,3,3,12,32,69,343,47,22,06,312,44,24,10,046,30,138,38,213,45*43
2017-12-01 15:57:02 1512161822.851838: $GPZDA,205703.00,01,12,2017,00,00*63
2017-12-01 15:57:02 1512161822.852008: $GPGGA,205703,3946.9567,N,08404.9851,W,2,12,0.80,306.88,M,-33.324,M,,*7E
2017-12-01 15:57:02 1512161822.852076: $GPRMC,205703,A,3946.9567,N,08404.9851,W,0.0000,0.000,011217,,*30
2017-12-01 15:57:02 1512161822.852137: $GPGSA,A,3,1,10,11,12,14,18,25,31,32,22,24,138,2.0,0.8,1.5*3B
2017-12-01 15:57:03 1512161823.403902: $GPZDA,205704.00,01,12,2017,00,00*64
2017-12-01 15:57:03 1512161823.404076: $GPGGA,205704,3946.9567,N,08404.9851,W,2,12,0.80,306.88,M,-33.324,M,,*79
2017-12-01 15:57:03 1512161823.404143: $GPRMC,205704,A,3946.9567,N,08404.9851,W,0.0000,0.000,011217,,*37
2017-12-01 15:57:03 1512161823.404205: $GPGSA,A,3,1,10,11,12,14,18,25,31,32,22,24,138,2.0,0.8,1.5*3B
