2017-11-16 15:15:29 1510863329.215637: {"class":"VERSION","release":"3.17","rev":"3.17","proto_major":3,"proto_minor":12}
2017-11-16 15:15:29 1510863329.216081: {"class":"DEVICES","devices":[{"class":"DEVICE","path":"/dev/ttyUSB0","driver":"SiRF","subtype":"9\u0006GSD4e_4.1.2-P1_RPATCH.05-F-GPS-4R-1510281 11/03/2015 307","activated":"2017-11-16T20:15:29.202Z","flags":1,"native":1,"bps":4800,"parity":"N","stopbits":1,"cycle":1.00}]}
2017-11-16 15:15:29 1510863329.216197: {"class":"WATCH","enable":true,"json":false,"nmea":true,"raw":0,"scaled":false,"timing":false,"split24":false,"pps":false}
2017-11-16 15:15:29 1510863329.379835: $GPZDA,201528.00,16,11,2017,00,00*69
2017-11-16 15:15:29 1510863329.380016: $GPGGA,201528,3946.9576,N,08404.9855,W,2,12,0.80,301.70,M,-33.324,M,,*75
2017-11-16 15:15:29 1510863329.380077: $GPRMC,201528,A,3946.9576,N,08404.9855,W,0.0000,0.000,161117,,*3E
2017-11-16 15:15:29 1510863329.380134: $GPGSA,A,3,8,10,14,15,18,20,21,24,27,32,12,138,1.6,0.8,1.3*34
2017-11-16 15:15:30 1510863330.379010: $GPZDA,201529.00,16,11,2017,00,00*68
2017-11-16 15:15:30 1510863330.379216: $GPGGA,201529,3946.9576,N,08404.9855,W,2,12,0.80,301.70,M,-33.324,M,,*74
2017-11-16 15:15:30 1510863330.379279: $GPRMC,201529,A,3946.9576,N,08404.9855,W,0.0000,0.000,161117,,*3F
2017-11-16 15:15:30 1510863330.379335: $GPGSA,A,3,8,10,14,15,18,20,21,24,27,32,12,138,1.6,0.8,1.3*34
2017-11-16 15:15:31 1510863331.715606: $GPGSV,3,1,12,08,07,298,35,10,64,324,51,14,25,249,45,15,15,064,33*7E
2017-11-16 15:15:31 1510863331.715787: $GPGSV,3,2,12,18,74,079,46,20,12,115,31,21,35,180,43,24,48,064,49*75
2017-11-16 15:15:31 1510863331.715848: $GPGSV,3,3,12,27,09,264,39,32,42,259,48,12,06,111,33,138,38,213,44*4C
2017-11-16 15:15:31 1510863331.829145: $GPZDA,201530.00,16,11,2017,00,00*60
2017-11-16 15:15:31 1510863331.829310: $GPGGA,201530,3946.9576,N,08404.9855,W,2,12,0.80,301.70,M,-33.324,M,,*7C
2017-11-16 15:15:31 1510863331.829375: $GPRMC,201530,A,3946.9576,N,08404.9855,W,0.0000,0.000,161117,,*37
2017-11-16 15:15:31 1510863331.829433: $GPGSA,A,3,8,10,14,15,18,20,21,24,27,32,12,138,1.6,0.8,1.3*34
2017-11-16 15:15:32 1510863332.389696: $GPZDA,201531.00,16,11,2017,00,00*61
2017-11-16 15:15:32 1510863332.389847: $GPGGA,201531,3946.9576,N,08404.9855,W,2,12,0.80,301.70,M,-33.324,M,,*7D
2017-11-16 15:15:32 1510863332.389909: $GPRMC,201531,A,3946.9576,N,08404.9855,W,0.0000,0.000,161117,,*36
2017-11-16 15:15:32 1510863332.389966: $GPGSA,A,3,8,10,14,15,18,20,21,24,27,32,12,138,1.6,0.8,1.3*34
2017-11-16 15:15:33 1510863333.374348: $GPZDA,201532.00,16,11,2017,00,00*62
2017-11-16 15:15:33 1510863333.374521: $GPGGA,201532,3946.9576,N,08404.9855,W,2,12,0.80,301.70,M,-33.324,M,,*7E
2017-11-16 15:15:33 1510863333.374585: $GPRMC,201532,A,3946.9576,N,08404.9855,W,0.0000,0.000,161117,,*35
2017-11-16 15:15:33 1510863333.374641: $GPGSA,A,3,8,10,14,15,18,20,21,24,27,32,12,138,1.6,0.8,1.3*34
2017-11-16 15:15:34 1510863334.730215: $GPGSV,3,1,12,08,07,298,34,10,64,324,51,14,25,249,45,15,15,064,32*7E
2017-11-16 15:15:34 1510863334.730454: $GPGSV,3,2,12,18,74,079,46,20,12,115,31,21,35,180,43,24,48,064,49*75
2017-11-16 15:15:34 1510863334.730519: $GPGSV,3,3,12,27,09,264,39,32,42,259,48,12,06,111,33,138,38,213,44*4C
2017-11-16 15:15:34 1510863334.843459: $GPZDA,201533.00,16,11,2017,00,00*63
2017-11-16 15:15:34 1510863334.843639: $GPGGA,201533,3946.9576,N,08404.9855,W,2,12,0.80,301.70,M,-33.324,M,,*7F
2017-11-16 15:15:34 1510863334.843702: $GPRMC,201533,A,3946.9576,N,08404.9855,W,0.0000,0.000,161117,,*34
2017-11-16 15:15:34 1510863334.843761: $GPGSA,A,3,8,10,14,15,18,20,21,24,27,32,12,138,1.6,0.8,1.3*34
2017-11-16 15:15:35 1510863335.377959: $GPZDA,201534.00,16,11,2017,00,00*64
2017-11-16 15:15:35 1510863335.378125: $GPGGA,201534,3946.9576,N,08404.9855,W,2,12,0.80,301.70,M,-33.324,M,,*78
2017-11-16 15:15:35 1510863335.378190: $GPRMC,201534,A,3946.9576,N,08404.9855,W,0.0000,0.000,161117,,*33
2017-11-16 15:15:35 1510863335.378246: $GPGSA,A,3,8,10,14,15,18,20,21,24,27,32,12,138,1.6,0.8,1.3*34
2017-11-16 15:15:36 1510863336.395786: $GPZDA,201535.00,16,11,2017,00,00*65
2017-11-16 15:15:36 1510863336.396000: $GPGGA,201535,3946.9576,N,08404.9855,W,2,12,0.80,301.70,M,-33.324,M,,*79
2017-11-16 15:15:36 1510863336.396066: $GPRMC,201535,A,3946.9576,N,08404.9855,W,0.0000,0.000,161117,,*32
2017-11-16 15:15:36 1510863336.396125: $GPGSA,A,3,8,10,14,15,18,20,21,24,27,32,12,138,1.6,0.8,1.3*34
2017-11-16 15:15:37 1510863337.734089: $GPGSV,3,1,12,08,07,298,34,10,64,324,51,14,25,249,45,15,15,064,33*7F
2017-11-16 15:15:37 1510863337.734264: $GPGSV,3,2,12,18,74,079,47,20,12,115,30,21,35,180,43,24,48,064,49*75
2017-11-16 15:15:37 1510863337.734325: $GPGSV,3,3,12,27,09,264,38,32,42,259,48,12,06,111,33,138,38,213,44*4D
2017-11-16 15:15:37 1510863337.847388: $GPZDA,201536.00,16,11,2017,00,00*66
2017-11-16 15:15:37 1510863337.847556: $GPGGA,201536,3946.9576,N,08404.9855,W,2,12,0.80,301.70,M,-33.324,M,,*7A
2017-11-16 15:15:37 1510863337.847620: $GPRMC,201536,A,3946.9576,N,08404.9855,W,0.0000,0.000,161117,,*31
2017-11-16 15:15:37 1510863337.847675: $GPGSA,A,3,8,10,14,15,18,20,21,24,27,32,12,138,1.6,0.8,1.3*34
2017-11-16 15:15:38 1510863338.394520: $GPZDA,201537.00,16,11,2017,00,00*67
2017-11-16 15:15:38 1510863338.394703: $GPGGA,201537,3946.9576,N,08404.9855,W,2,12,0.80,301.70,M,-33.324,M,,*7B
2017-11-16 15:15:38 1510863338.394764: $GPRMC,201537,A,3946.9576,N,08404.9855,W,0.0000,0.000,161117,,*30
2017-11-16 15:15:38 1510863338.394822: $GPGSA,A,3,8,10,14,15,18,20,21,24,27,32,12,138,1.6,0.8,1.3*34
