2017-12-31 16:59:55 1514757595.198965: {"class":"VERSION","release":"3.16","rev":"3.16-4","proto_major":3,"proto_minor":11}
2017-12-31 16:59:55 1514757595.199361: {"class":"DEVICES","devices":[{"class":"DEVICE","path":"/dev/ttyUSB0","driver":"SiRF","activated":"2017-12-31T21:59:55.109Z","flags":1,"native":1,"bps":4800,"parity":"N","stopbits":1,"cycle":1.00}]}
2017-12-31 16:59:55 1514757595.199500: {"class":"WATCH","enable":true,"json":false,"nmea":true,"raw":0,"scaled":false,"timing":false,"split24":false,"pps":false}
2017-12-31 16:59:55 1514757595.419868: $GPZDA,215956.00,31,12,2017,00,00*6F
2017-12-31 16:59:55 1514757595.420027: $GPGGA,215956,3946.9584,N,08404.9855,W,2,10,1.00,302.98,M,-33.324,M,,*76
2017-12-31 16:59:55 1514757595.420093: $GPRMC,215956,A,3946.9584,N,08404.9855,W,0.0000,0.000,311217,,*35
2017-12-31 16:59:55 1514757595.420155: $GPGSA,A,3,22,23,25,3,16,31,14,32,26,135,,,1.7,1.0,1.3*30
2017-12-31 16:59:56 1514757596.335492: $GPZDA,215957.00,31,12,2017,00,00*6E
2017-12-31 16:59:56 1514757596.335642: $GPGGA,215957,3946.9584,N,08404.9855,W,2,10,1.00,302.98,M,-33.324,M,,*77
2017-12-31 16:59:56 1514757596.335709: $GPRMC,215957,A,3946.9584,N,08404.9855,W,0.0000,0.000,311217,,*34
2017-12-31 16:59:56 1514757596.335770: $GPGSA,A,3,22,23,25,3,16,31,14,32,26,135,,,1.7,1.0,1.3*30
2017-12-31 16:59:57 1514757597.696232: $GPGSV,3,1,11,22,45,243,41,23,26,307,43,25,03,037,21,03,46,274,42*79
2017-12-31 16:59:57 1514757597.696448: $GPGSV,3,2,11,16,44,190,44,29,14,057,00,31,51,049,50,14,42,112,39*7E
2017-12-31 16:59:57 1514757597.696515: $GPGSV,3,3,11,32,20,121,44,26,73,148,45,135,22,240,42*73
2017-12-31 16:59:57 1514757597.809938: $GPZDA,215958.00,31,12,2017,00,00*61
2017-12-31 16:59:57 1514757597.810072: $GPGGA,215958,3946.9584,N,08404.9855,W,2,10,1.00,302.98,M,-33.324,M,,*78
2017-12-31 16:59:57 1514757597.810136: $GPRMC,215958,A,3946.9584,N,08404.9855,W,0.0000,0.000,311217,,*3B
2017-12-31 16:59:57 1514757597.810197: $GPGSA,A,3,22,23,25,3,16,31,14,32,26,135,,,1.7,1.0,1.3*30
2017-12-31 16:59:58 1514757598.342951: $GPZDA,215959.00,31,12,2017,00,00*60
2017-12-31 16:59:58 1514757598.343119: $GPGGA,215959,3946.9584,N,08404.9855,W,2,10,1.00,302.98,M,-33.324,M,,*79
2017-12-31 16:59:58 1514757598.343186: $GPRMC,215959,A,3946.9584,N,08404.9855,W,0.0000,0.000,311217,,*3A
2017-12-31 16:59:58 1514757598.343247: $GPGSA,A,3,22,23,25,3,16,31,14,32,26,135,,,1.7,1.0,1.3*30
2017-12-31 16:59:59 1514757599.347616: $GPZDA,220000.00,31,12,2017,00,00*63
2017-12-31 16:59:59 1514757599.347790: $GPGGA,220000,3946.9584,N,08404.9855,W,2,10,1.00,302.98,M,-33.324,M,,*7A
2017-12-31 16:59:59 1514757599.347857: $GPRMC,220000,A,3946.9584,N,08404.9855,W,0.0000,0.000,311217,,*39
2017-12-31 16:59:59 1514757599.347918: $GPGSA,A,3,22,23,25,3,16,31,14,32,26,135,,,1.7,1.0,1.3*30
2017-12-31 17:00:00 1514757600.679075: $GPGSV,3,1,11,22,45,243,41,23,26,307,43,25,03,037,21,03,46,274,41*7A
2017-12-31 17:00:00 1514757600.679268: $GPGSV,3,2,11,16,44,190,44,29,14,057,00,31,51,049,51,14,42,112,38*7E
2017-12-31 17:00:00 1514757600.679335: $GPGSV,3,3,11,32,20,121,43,26,73,148,45,135,22,240,42*74
2017-12-31 17:00:00 1514757600.792783: $GPZDA,220001.00,31,12,2017,00,00*62
2017-12-31 17:00:00 1514757600.792945: $GPGGA,220001,3946.9584,N,08404.9855,W,2,10,1.00,302.98,M,-33.324,M,,*7B
2017-12-31 17:00:00 1514757600.793011: $GPRMC,220001,A,3946.9584,N,08404.9855,W,0.0000,0.000,311217,,*38
2017-12-31 17:00:00 1514757600.793071: $GPGSA,A,3,22,23,25,3,16,31,14,32,26,135,,,1.7,1.0,1.3*30
2017-12-31 17:00:01 1514757601.362049: $GPZDA,220002.00,31,12,2017,00,00*61
2017-12-31 17:00:01 1514757601.362212: $GPGGA,220002,3946.9584,N,08404.9855,W,2,10,1.00,302.98,M,-33.324,M,,*78
2017-12-31 17:00:01 1514757601.362301: $GPRMC,220002,A,3946.9584,N,08404.9855,W,0.0000,0.000,311217,,*3B
2017-12-31 17:00:01 1514757601.362379: $GPGSA,A,3,22,23,25,3,16,31,14,32,26,135,,,1.7,1.0,1.3*30
2017-12-31 17:00:02 1514757602.335435: $GPZDA,220003.00,31,12,2017,00,00*60
2017-12-31 17:00:02 1514757602.335595: $GPGGA,220003,3946.9584,N,08404.9855,W,2,10,1.00,302.98,M,-33.324,M,,*79
2017-12-31 17:00:02 1514757602.335708: $GPRMC,220003,A,3946.9584,N,08404.9855,W,0.0000,0.000,311217,,*3A
2017-12-31 17:00:02 1514757602.335772: $GPGSA,A,3,22,23,25,3,16,31,14,32,26,135,,,1.7,1.0,1.3*30
2017-12-31 17:00:03 1514757603.679963: $GPGSV,3,1,11,22,45,243,41,23,26,307,43,25,03,037,21,03,46,274,41*7A
2017-12-31 17:00:03 1514757603.680126: $GPGSV,3,2,11,16,44,190,44,29,14,057,00,31,51,049,51,14,42,112,38*7E
2017-12-31 17:00:03 1514757603.680192: $GPGSV,3,3,11,32,20,121,43,26,73,148,45,135,22,240,42*74
2017-12-31 17:00:03 1514757603.793294: $GPZDA,220004.00,31,12,2017,00,00*67
2017-12-31 17:00:03 1514757603.793487: $GPGGA,220004,3946.9584,N,08404.9855,W,2,10,1.00,302.98,M,-33.324,M,,*7E
2017-12-31 17:00:03 1514757603.793555: $GPRMC,220004,A,3946.9584,N,08404.9855,W,0.0000,0.000,311217,,*3D
2017-12-31 17:00:03 1514757603.793617: $GPGSA,A,3,22,23,25,3,16,31,14,32,26,135,,,1.7,1.0,1.3*30
2017-12-31 17:00:04 1514757604.360420: $GPZDA,220005.00,31,12,2017,00,00*66
2017-12-31 17:00:04 1514757604.360596: $GPGGA,220005,3946.9584,N,08404.9855,W,2,10,1.00,302.98,M,-33.324,M,,*7F
2017-12-31 17:00:04 1514757604.360663: $GPRMC,220005,A,3946.9584,N,08404.9855,W,0.0000,0.000,311217,,*3C
2017-12-31 17:00:04 1514757604.360725: $GPGSA,A,3,22,23,25,3,16,31,14,32,26,135,,,1.7,1.0,1.3*30
