2017-12-29 14:40:22 1514576422.201085: {"class":"VERSION","release":"3.16","rev":"3.16-4","proto_major":3,"proto_minor":11}
2017-12-29 14:40:22 1514576422.201453: {"class":"DEVICES","devices":[{"class":"DEVICE","path":"/dev/ttyUSB0","driver":"SiRF","subtype":"9\u0006GSD4e_4.1.2-P1_RPATCH.05-F-GPS-4R-1510281 11/03/2015 307","activated":"2017-12-29T19:40:21.591Z","flags":1,"native":1,"bps":4800,"parity":"N","stopbits":1,"cycle":1.00}]}
2017-12-29 14:40:22 1514576422.201569: {"class":"WATCH","enable":true,"json":false,"nmea":true,"raw":0,"scaled":false,"timing":false,"split24":false,"pps":false}
2017-12-29 14:40:22 1514576422.379717: $GPZDA,194023.00,29,12,2017,00,00*67
2017-12-29 14:40:22 1514576422.379891: $GPGGA,194023,3946.9576,N,08404.9809,W,2,12,0.80,307.87,M,-33.324,M,,*73
2017-12-29 14:40:22 1514576422.379957: $GPRMC,194023,A,3946.9576,N,08404.9809,W,0.0000,0.000,291217,,*39
2017-12-29 14:40:22 1514576422.380018: $GPGSA,A,3,1,10,11,12,14,18,22,25,31,32,26,138,1.7,0.8,1.3*3B
2017-12-29 14:40:23 1514576423.716680: $GPGSV,3,1,12,01,22,298,36,10,46,148,50,11,08,282,33,12,21,048,44*78
2017-12-29 14:40:23 1514576423.716846: $GPGSV,3,2,12,14,66,330,44,18,15,144,46,22,21,312,40,25,40,088,50*71
2017-12-29 14:40:23 1514576423.716911: $GPGSV,3,3,12,31,60,226,47,32,67,036,48,26,05,181,20,138,38,213,42*4E
2017-12-29 14:40:23 1514576423.830048: $GPZDA,194024.00,29,12,2017,00,00*60
2017-12-29 14:40:23 1514576423.830217: $GPGGA,194024,3946.9576,N,08404.9809,W,2,12,0.80,307.87,M,-33.324,M,,*74
2017-12-29 14:40:23 1514576423.830283: $GPRMC,194024,A,3946.9576,N,08404.9809,W,0.0000,0.000,291217,,*3E
2017-12-29 14:40:23 1514576423.830362: $GPGSA,A,3,1,10,11,12,14,18,22,25,31,32,26,138,1.7,0.8,1.3*3B
2017-12-29 14:40:24 1514576424.380918: $GPZDA,194025.00,29,12,2017,00,00*61
2017-12-29 14:40:24 1514576424.381134: $GPGGA,194025,3946.9576,N,08404.9809,W,2,12,0.80,307.87,M,-33.324,M,,*75
2017-12-29 14:40:24 1514576424.381209: $GPRMC,194025,A,3946.9576,N,08404.9809,W,0.0000,0.000,291217,,*3F
2017-12-29 14:40:24 1514576424.381270: $GPGSA,A,3,1,10,11,12,14,18,22,25,31,32,26,138,1.7,0.8,1.3*3B
2017-12-29 14:40:25 1514576425.380561: $GPZDA,194026.00,29,12,2017,00,00*62
2017-12-29 14:40:25 1514576425.380719: $GPGGA,194026,3946.9576,N,08404.9809,W,2,12,0.80,307.87,M,-33.324,M,,*76
2017-12-29 14:40:25 1514576425.380784: $GPRMC,194026,A,3946.9576,N,08404.9809,W,0.0000,0.000,291217,,*3C
2017-12-29 14:40:25 1514576425.380845: $GPGSA,A,3,1,10,11,12,14,18,22,25,31,32,26,138,1.7,0.8,1.3*3B
2017-12-29 14:40:26 1514576426.715818: $GPGSV,3,1,12,01,22,298,36,10,46,148,50,11,08,282,33,12,21,048,44*78
2017-12-29 14:40:26 1514576426.715978: $GPGSV,3,2,12,14,66,330,44,18,15,144,46,22,21,312,39,25,40,088,51*7E
2017-12-29 14:40:26 1514576426.716044: $GPGSV,3,3,12,31,60,226,47,32,67,036,48,26,05,181,22,138,38,213,42*4C
2017-12-29 14:40:26 1514576426.829129: $GPZDA,194027.00,29,12,2017,00,00*63
2017-12-29 14:40:26 1514576426.829263: $GPGGA,194027,3946.9576,N,08404.9809,W,2,12,0.80,307.87,M,-33.324,M,,*77
2017-12-29 14:40:26 1514576426.829328: $GPRMC,194027,A,3946.9576,N,08404.9809,W,0.0000,0.000,291217,,*3D
2017-12-29 14:40:26 1514576426.829388: $GPGSA,A,3,1,10,11,12,14,18,22,25,31,32,26,138,1.7,0.8,1.3*3B
2017-12-29 14:40:27 1514576427.382544: $GPZDA,194028.00,29,12,2017,00,00*6C
2017-12-29 14:40:27 1514576427.382730: $GPGGA,194028,3946.9576,N,08404.9809,W,2,12,0.80,307.87,M,-33.324,M,,*78
2017-12-29 14:40:27 1514576427.382818: $GPRMC,194028,A,3946.9576,N,08404.9809,W,0.0000,0.000,291217,,*32
2017-12-29 14:40:27 1514576427.382881: $GPGSA,A,3,1,10,11,12,14,18,22,25,31,32,26,138,1.7,0.8,1.3*3B
2017-12-29 14:40:28 1514576428.382687: $GPZDA,194029.00,29,12,2017,00,00*6D
2017-12-29 14:40:28 1514576428.382844: $GPGGA,194029,3946.9576,N,08404.9809,W,2,12,0.80,307.87,M,-33.324,M,,*79
2017-12-29 14:40:28 1514576428.382909: $GPRMC,194029,A,3946.9576,N,08404.9809,W,0.0000,0.000,291217,,*33
2017-12-29 14:40:28 1514576428.382970: $GPGSA,A,3,1,10,11,12,14,18,22,25,31,32,26,138,1.7,0.8,1.3*3B
2017-12-29 14:40:29 1514576429.715383: $GPGSV,3,1,12,01,22,298,35,10,46,148,50,11,08,282,00,12,21,048,44*7B
2017-12-29 14:40:29 1514576429.715596: $GPGSV,3,2,12,14,66,330,43,18,15,144,46,22,21,312,39,25,40,088,51*79
2017-12-29 14:40:29 1514576429.715666: $GPGSV,3,3,12,31,60,226,47,32,67,036,48,26,05,181,23,138,38,213,42*4D
2017-12-29 14:40:29 1514576429.829005: $GPZDA,194030.00,29,12,2017,00,00*65
2017-12-29 14:40:29 1514576429.829138: $GPGGA,194030,3946.9576,N,08404.9802,W,2,11,0.80,307.95,M,-33.324,M,,*7A
2017-12-29 14:40:29 1514576429.829204: $GPRMC,194030,A,3946.9576,N,08404.9802,W,0.0000,0.000,291217,,*30
2017-12-29 14:40:29 1514576429.829264: $GPGSA,A,3,1,10,12,14,18,22,25,31,32,26,138,,1.7,0.8,1.3*3B
2017-12-29 14:40:30 1514576430.376127: $GPZDA,194031.00,29,12,2017,00,00*64
2017-12-29 14:40:30 1514576430.376297: $GPGGA,194031,3946.9576,N,08404.9802,W,2,11,0.80,307.95,M,-33.324,M,,*7B
2017-12-29 14:40:30 1514576430.376362: $GPRMC,194031,A,3946.9576,N,08404.9802,W,0.0000,0.000,291217,,*31
2017-12-29 14:40:30 1514576430.376422: $GPGSA,A,3,1,10,12,14,18,22,25,31,32,26,138,,1.7,0.8,1.3*3B
2017-12-29 14:40:31 1514576431.391546: $GPZDA,194032.00,29,12,2017,00,00*67
2017-12-29 14:40:31 1514576431.391714: $GPGGA,194032,3946.9576,N,08404.9802,W,2,11,0.80,307.95,M,-33.324,M,,*78
2017-12-29 14:40:31 1514576431.391780: $GPRMC,194032,A,3946.9576,N,08404.9802,W,0.0000,0.000,291217,,*32
2017-12-29 14:40:31 1514576431.391840: $GPGSA,A,3,1,10,12,14,18,22,25,31,32,26,138,,1.7,0.8,1.3*3B
