2017-12-31 17:04:41 1514757881.465868: {"class":"VERSION","release":"3.16","rev":"3.16-4","proto_major":3,"proto_minor":11}
2017-12-31 17:04:41 1514757881.466208: {"class":"DEVICES","devices":[{"class":"DEVICE","path":"/dev/ttyUSB0","driver":"SiRF","activated":"2017-12-31T22:04:41.459Z","flags":1,"native":1,"bps":4800,"parity":"N","stopbits":1,"cycle":1.00}]}
2017-12-31 17:04:41 1514757881.466307: {"class":"WATCH","enable":true,"json":false,"nmea":true,"raw":0,"scaled":false,"timing":false,"split24":false,"pps":false}
2017-12-31 17:04:42 1514757882.679807: $GPGSV,3,1,11,22,44,240,41,23,27,307,37,25,02,037,12,03,46,271,40*7F
2017-12-31 17:04:42 1514757882.679996: $GPGSV,3,2,11,16,46,190,44,29,14,055,33,31,50,051,51,14,40,114,38*72
2017-12-31 17:04:42 1514757882.680063: $GPGSV,3,3,11,32,19,123,40,26,74,142,46,135,22,240,43*70
2017-12-31 17:04:42 1514757882.793125: $GPZDA,220443.00,31,12,2017,00,00*60
2017-12-31 17:04:42 1514757882.793266: $GPGGA,220443,3946.9587,N,08404.9854,W,2,11,1.00,302.21,M,-33.324,M,,*78
2017-12-31 17:04:42 1514757882.793331: $GPRMC,220443,A,3946.9587,N,08404.9854,W,0.0000,0.000,311217,,*38
2017-12-31 17:04:42 1514757882.793391: $GPGSA,A,3,22,23,25,3,16,29,31,14,32,26,135,,1.7,1.0,1.3*3B
2017-12-31 17:04:43 1514757883.345524: $GPZDA,220444.00,31,12,2017,00,00*67
2017-12-31 17:04:43 1514757883.345684: $GPGGA,220444,3946.9587,N,08404.9854,W,2,11,1.00,302.21,M,-33.324,M,,*7F
2017-12-31 17:04:43 1514757883.345749: $GPRMC,220444,A,3946.9587,N,08404.9854,W,0.0000,0.000,311217,,*3F
2017-12-31 17:04:43 1514757883.345810: $GPGSA,A,3,22,23,25,3,16,29,31,14,32,26,135,,1.7,1.0,1.3*3B
2017-12-31 17:04:44 1514757884.351420: $GPZDA,220445.00,31,12,2017,00,00*66
2017-12-31 17:04:44 1514757884.351587: $GPGGA,220445,3946.9587,N,08404.9854,W,2,11,1.00,302.21,M,-33.324,M,,*7E
2017-12-31 17:04:44 1514757884.351654: $GPRMC,220445,A,3946.9587,N,08404.9854,W,0.0000,0.000,311217,,*3E
2017-12-31 17:04:44 1514757884.351715: $GPGSA,A,3,22,23,25,3,16,29,31,14,32,26,135,,1.7,1.0,1.3*3B
2017-12-31 17:04:45 1514757885.680095: $GPGSV,3,1,11,22,44,240,41,23,27,307,37,25,02,037,11,03,46,271,40*7C
2017-12-31 17:04:45 1514757885.680242: $GPGSV,3,2,11,16,46,190,44,29,14,055,33,31,50,051,51,14,40,114,38*72
2017-12-31 17:04:45 1514757885.680306: $GPGSV,3,3,11,32,19,123,40,26,74,142,46,135,22,240,42*71
2017-12-31 17:04:45 1514757885.792454: $GPZDA,220446.00,31,12,2017,00,00*65
2017-12-31 17:04:45 1514757885.792591: $GPGGA,220446,3946.9587,N,08404.9854,W,2,11,1.00,302.21,M,-33.324,M,,*7D
2017-12-31 17:04:45 1514757885.792657: $GPRMC,220446,A,3946.9587,N,08404.9854,W,0.0000,0.000,311217,,*3D
2017-12-31 17:04:45 1514757885.792717: $GPGSA,A,3,22,23,25,3,16,29,31,14,32,26,135,,1.7,1.0,1.3*3B
2017-12-31 17:04:46 1514757886.344576: $GPZDA,220447.00,31,12,2017,00,00*64
2017-12-31 17:04:46 1514757886.344719: $GPGGA,220447,3946.9587,N,08404.9854,W,2,11,1.00,302.21,M,-33.324,M,,*7C
2017-12-31 17:04:46 1514757886.344783: $GPRMC,220447,A,3946.9587,N,08404.9854,W,0.0000,0.000,311217,,*3C
2017-12-31 17:04:46 1514757886.344843: $GPGSA,A,3,22,23,25,3,16,29,31,14,32,26,135,,1.7,1.0,1.3*3B
2017-12-31 17:04:47 1514757887.344276: $GPZDA,220448.00,31,12,2017,00,00*6B
2017-12-31 17:04:47 1514757887.344443: $GPGGA,220448,3946.9587,N,08404.9854,W,2,11,1.00,302.21,M,-33.324,M,,*73
2017-12-31 17:04:47 1514757887.344510: $GPRMC,220448,A,3946.9587,N,08404.9854,W,0.0000,0.000,311217,,*33
2017-12-31 17:04:47 1514757887.344572: $GPGSA,A,3,22,23,25,3,16,29,31,14,32,26,135,,1.7,1.0,1.3*3B
2017-12-31 17:04:48 1514757888.678447: $GPGSV,3,1,11,22,44,240,41,23,27,307,37,25,02,037,10,03,46,271,40*7D
2017-12-31 17:04:48 1514757888.678632: $GPGSV,3,2,11,16,46,190,44,29,14,055,34,31,50,051,51,14,40,114,37*7A
2017-12-31 17:04:48 1514757888.678699: $GPGSV,3,3,11,32,19,123,41,26,74,142,46,135,22,240,43*71
2017-12-31 17:04:48 1514757888.792037: $GPZDA,220449.00,31,12,2017,00,00*6A
2017-12-31 17:04:48 1514757888.792158: $GPGGA,220449,3946.9587,N,08404.9854,W,2,11,1.00,302.21,M,-33.324,M,,*72
2017-12-31 17:04:48 1514757888.792222: $GPRMC,220449,A,3946.9587,N,08404.9854,W,0.0000,0.000,311217,,*32
2017-12-31 17:04:48 1514757888.792335: $GPGSA,A,3,22,23,25,3,16,29,31,14,32,26,135,,1.7,1.0,1.3*3B
2017-12-31 17:04:49 1514757889.361677: $GPZDA,220450.00,31,12,2017,00,00*62
2017-12-31 17:04:49 1514757889.361823: $GPGGA,220450,3946.9587,N,08404.9854,W,2,11,1.00,302.21,M,-33.324,M,,*7A
2017-12-31 17:04:49 1514757889.361889: $GPRMC,220450,A,3946.9587,N,08404.9854,W,0.0000,0.000,311217,,*3A
2017-12-31 17:04:49 1514757889.361949: $GPGSA,A,3,22,23,25,3,16,29,31,14,32,26,135,,1.7,1.0,1.3*3B
2017-12-31 17:04:50 1514757890.353328: $GPZDA,220451.00,31,12,2017,00,00*63
2017-12-31 17:04:50 1514757890.353492: $GPGGA,220451,3946.9587,N,08404.9854,W,2,11,1.00,302.21,M,-33.324,M,,*7B
2017-12-31 17:04:50 1514757890.353558: $GPRMC,220451,A,3946.9587,N,08404.9854,W,0.0000,0.000,311217,,*3B
2017-12-31 17:04:50 1514757890.353619: $GPGSA,A,3,22,23,25,3,16,29,31,14,32,26,135,,1.7,1.0,1.3*3B
