2017-12-01 11:52:41 1512147161.796477: {"class":"VERSION","release":"3.16","rev":"3.16-4","proto_major":3,"proto_minor":11}
2017-12-01 11:52:41 1512147161.796861: {"class":"DEVICES","devices":[{"class":"DEVICE","path":"/dev/ttyUSB0","driver":"SiRF","subtype":"9\u0006GSD4e_4.1.2-P1_RPATCH.05-F-GPS-4R-1510281 11/03/2015 307","activated":"2017-12-01T16:52:41.533Z","flags":1,"native":1,"bps":4800,"parity":"N","stopbits":1,"cycle":1.00}]}
2017-12-01 11:52:41 1512147161.796978: {"class":"WATCH","enable":true,"json":false,"nmea":true,"raw":0,"scaled":false,"timing":false,"split24":false,"pps":false}
2017-12-01 11:52:42 1512147162.729740: $GPGSV,3,1,12,10,16,274,41,13,39,048,46,15,72,063,45,18,46,289,44*71
2017-12-01 11:52:42 1512147162.729922: $GPGSV,3,2,12,20,60,057,43,21,71,301,46,24,24,147,45,27,11,321,42*7F
2017-12-01 11:52:42 1512147162.730004: $GPGSV,3,3,12,29,20,193,46,05,11,079,28,04,09,132,00,138,38,213,46*45
2017-12-01 11:52:42 1512147162.843162: $GPZDA,165243.00,01,12,2017,00,00*67
2017-12-01 11:52:42 1512147162.843339: $GPGGA,165243,3946.9565,N,08404.9844,W,2,11,0.80,305.55,M,-33.324,M,,*7C
2017-12-01 11:52:42 1512147162.843408: $GPRMC,165243,A,3946.9565,N,08404.9844,W,0.0000,0.000,011217,,*32
2017-12-01 11:52:42 1512147162.843469: $GPGSA,A,3,10,13,15,18,20,21,24,27,29,5,138,,2.0,0.8,1.5*34
2017-12-01 11:52:43 1512147163.468609: $GPZDA,165244.00,01,12,2017,00,00*60
2017-12-01 11:52:43 1512147163.468799: $GPGGA,165244,3946.9565,N,08404.9844,W,2,11,0.80,305.55,M,-33.324,M,,*7B
2017-12-01 11:52:43 1512147163.468867: $GPRMC,165244,A,3946.9565,N,08404.9844,W,0.0000,0.000,011217,,*35
2017-12-01 11:52:43 1512147163.468929: $GPGSA,A,3,10,13,15,18,20,21,24,27,29,5,138,,2.0,0.8,1.5*34
2017-12-01 11:52:44 1512147164.385635: $GPZDA,165245.00,01,12,2017,00,00*61
2017-12-01 11:52:44 1512147164.385810: $GPGGA,165245,3946.9565,N,08404.9844,W,2,11,0.80,305.55,M,-33.324,M,,*7A
2017-12-01 11:52:44 1512147164.385896: $GPRMC,165245,A,3946.9565,N,08404.9844,W,0.0000,0.000,011217,,*34
2017-12-01 11:52:44 1512147164.385958: $GPGSA,A,3,10,13,15,18,20,21,24,27,29,5,138,,2.0,0.8,1.5*34
2017-12-01 11:52:45 1512147165.728858: $GPGSV,3,1,12,10,16,274,41,13,39,048,45,15,72,063,45,18,46,289,44*72
2017-12-01 11:52:45 1512147165.729069: $GPGSV,3,2,12,20,60,057,43,21,71,301,46,24,24,147,45,27,11,321,42*7F
2017-12-01 11:52:45 1512147165.729157: $GPGSV,3,3,12,29,20,193,46,05,11,079,29,04,09,132,00,138,38,213,46*44
2017-12-01 11:52:45 1512147165.842306: $GPZDA,165246.00,01,12,2017,00,00*62
2017-12-01 11:52:45 1512147165.842475: $GPGGA,165246,3946.9565,N,08404.9844,W,2,11,0.80,305.55,M,-33.324,M,,*79
2017-12-01 11:52:45 1512147165.842558: $GPRMC,165246,A,3946.9565,N,08404.9844,W,0.0000,0.000,011217,,*37
2017-12-01 11:52:45 1512147165.842620: $GPGSA,A,3,10,13,15,18,20,21,24,27,29,5,138,,2.0,0.8,1.5*34
2017-12-01 11:52:46 1512147166.391924: $GPZDA,165247.00,01,12,2017,00,00*63
2017-12-01 11:52:46 1512147166.392104: $GPGGA,165247,3946.9565,N,08404.9844,W,2,11,0.80,305.55,M,-33.324,M,,*78
2017-12-01 11:52:46 1512147166.392172: $GPRMC,165247,A,3946.9565,N,08404.9844,W,0.0000,0.000,011217,,*36
2017-12-01 11:52:46 1512147166.392233: $GPGSA,A,3,10,13,15,18,20,21,24,27,29,5,138,,2.0,0.8,1.5*34
2017-12-01 11:52:47 1512147167.391681: $GPZDA,165248.00,01,12,2017,00,00*6C
2017-12-01 11:52:47 1512147167.391860: $GPGGA,165248,3946.9565,N,08404.9844,W,2,11,0.80,305.55,M,-33.324,M,,*77
2017-12-01 11:52:47 1512147167.391927: $GPRMC,165248,A,3946.9565,N,08404.9844,W,0.0000,0.000,011217,,*39
2017-12-01 11:52:47 1512147167.391989: $GPGSA,A,3,10,13,15,18,20,21,24,27,29,5,138,,2.0,0.8,1.5*34
2017-12-01 11:52:48 1512147168.729196: $GPGSV,3,1,12,10,16,274,41,13,39,048,45,15,72,063,44,18,46,289,44*73
2017-12-01 11:52:48 1512147168.729378: $GPGSV,3,2,12,20,60,057,42,21,71,301,46,24,24,147,45,27,11,321,42*7E
2017-12-01 11:52:48 1512147168.729445: $GPGSV,3,3,12,29,20,193,46,05,11,079,29,04,09,132,00,138,38,213,46*44
2017-12-01 11:52:48 1512147168.842731: $GPZDA,165249.00,01,12,2017,00,00*6D
2017-12-01 11:52:48 1512147168.842892: $GPGGA,165249,3946.9565,N,08404.9844,W,2,11,0.80,305.55,M,-33.324,M,,*76
2017-12-01 11:52:48 1512147168.843006: $GPRMC,165249,A,3946.9565,N,08404.9844,W,0.0000,0.000,011217,,*38
2017-12-01 11:52:48 1512147168.843067: $GPGSA,A,3,10,13,15,18,20,21,24,27,29,5,138,,2.0,0.8,1.5*34
2017-12-01 11:52:49 1512147169.388594: $GPZDA,165250.00,01,12,2017,00,00*65
2017-12-01 11:52:49 1512147169.388760: $GPGGA,165250,3946.9565,N,08404.9844,W,2,11,0.80,305.55,M,-33.324,M,,*7E
2017-12-01 11:52:49 1512147169.388829: $GPRMC,165250,A,3946.9565,N,08404.9844,W,0.0000,0.000,011217,,*30
2017-12-01 11:52:49 1512147169.388890: $GPGSA,A,3,10,13,15,18,20,21,24,27,29,5,138,,2.0,0.8,1.5*34
2017-12-01 11:52:50 1512147170.392235: $GPZDA,165251.00,01,12,2017,00,00*64
2017-12-01 11:52:50 1512147170.392410: $GPGGA,165251,3946.9565,N,08404.9844,W,2,11,0.80,305.55,M,-33.324,M,,*7F
2017-12-01 11:52:50 1512147170.392477: $GPRMC,165251,A,3946.9565,N,08404.9844,W,0.0000,0.000,011217,,*31
2017-12-01 11:52:50 1512147170.392538: $GPGSA,A,3,10,13,15,18,20,21,24,27,29,5,138,,2.0,0.8,1.5*34
2017-12-01 11:52:51 1512147171.731741: $GPGSV,3,1,12,10,16,274,41,13,39,048,46,15,72,063,45,18,46,289,44*71
2017-12-01 11:52:51 1512147171.731932: $GPGSV,3,2,12,20,60,057,42,21,71,301,46,24,24,147,45,27,11,321,42*7E
2017-12-01 11:52:51 1512147171.731998: $GPGSV,3,3,12,29,20,193,45,05,11,079,30,04,09,132,00,138,38,213,46*4F
