2017-11-16 15:20:46 1510863646.767178: {"class":"VERSION","release":"3.17","rev":"3.17","proto_major":3,"proto_minor":12}
2017-11-16 15:20:46 1510863646.767571: {"class":"DEVICES","devices":[{"class":"DEVICE","path":"/dev/ttyUSB0","driver":"SiRF","subtype":"9\u0006GSD4e_4.1.2-P1_RPATCH.05-F-GPS-4R-1510281 11/03/2015 307","activated":"2017-11-16T20:20:46.724Z","flags":1,"native":1,"bps":4800,"parity":"N","stopbits":1,"cycle":1.00}]}
2017-11-16 15:20:46 1510863646.767681: {"class":"WATCH","enable":true,"json":false,"nmea":true,"raw":0,"scaled":false,"timing":false,"split24":false,"pps":false}
2017-11-16 15:20:46 1510863646.838129: $GPZDA,202045.00,16,11,2017,00,00*64
2017-11-16 15:20:46 1510863646.838277: $GPGGA,202045,3946.9574,N,08404.9858,W,2,12,0.80,306.67,M,-33.324,M,,*76
2017-11-16 15:20:46 1510863646.838337: $GPRMC,202045,A,3946.9574,N,08404.9858,W,0.0000,0.000,161117,,*3C
2017-11-16 15:20:46 1510863646.838393: $GPGSA,A,3,8,10,14,15,18,20,21,24,27,32,12,138,1.6,0.8,1.3*34
2017-11-16 15:20:47 1510863647.372789: $GPZDA,202046.00,16,11,2017,00,00*67
2017-11-16 15:20:47 1510863647.372977: $GPGGA,202046,3946.9574,N,08404.9858,W,2,12,0.80,306.67,M,-33.324,M,,*75
2017-11-16 15:20:47 1510863647.373059: $GPRMC,202046,A,3946.9574,N,08404.9858,W,0.0000,0.000,161117,,*3F
2017-11-16 15:20:47 1510863647.373121: $GPGSA,A,3,8,10,14,15,18,20,21,24,27,32,12,138,1.6,0.8,1.3*34
2017-11-16 15:20:48 1510863648.389866: $GPZDA,202047.00,16,11,2017,00,00*66
2017-11-16 15:20:48 1510863648.390041: $GPGGA,202047,3946.9574,N,08404.9858,W,2,12,0.80,306.67,M,-33.324,M,,*74
2017-11-16 15:20:48 1510863648.390102: $GPRMC,202047,A,3946.9574,N,08404.9858,W,0.0000,0.000,161117,,*3E
2017-11-16 15:20:48 1510863648.390159: $GPGSA,A,3,8,10,14,15,18,20,21,24,27,32,12,138,1.6,0.8,1.3*34
2017-11-16 15:20:49 1510863649.728105: $GPGSV,3,1,12,08,06,295,35,10,67,327,51,14,27,252,46,15,13,064,33*7F
2017-11-16 15:20:49 1510863649.728290: $GPGSV,3,2,12,18,72,087,47,20,10,117,29,21,32,180,46,24,46,061,51*7A
2017-11-16 15:20:49 1510863649.728350: $GPGSV,3,3,12,27,08,262,31,32,44,262,48,12,08,109,31,138,38,213,45*49
2017-11-16 15:20:49 1510863649.841776: $GPZDA,202048.00,16,11,2017,00,00*69
2017-11-16 15:20:49 1510863649.841955: $GPGGA,202048,3946.9574,N,08404.9858,W,2,12,0.80,306.67,M,-33.324,M,,*7B
2017-11-16 15:20:49 1510863649.842016: $GPRMC,202048,A,3946.9574,N,08404.9858,W,0.0000,0.000,161117,,*31
2017-11-16 15:20:49 1510863649.842072: $GPGSA,A,3,8,10,14,15,18,20,21,24,27,32,12,138,1.6,0.8,1.3*34
2017-11-16 15:20:50 1510863650.382267: $GPZDA,202049.00,16,11,2017,00,00*68
2017-11-16 15:20:50 1510863650.382436: $GPGGA,202049,3946.9574,N,08404.9858,W,2,12,0.80,306.67,M,-33.324,M,,*7A
2017-11-16 15:20:50 1510863650.382516: $GPRMC,202049,A,3946.9574,N,08404.9858,W,0.0000,0.000,161117,,*30
2017-11-16 15:20:50 1510863650.382574: $GPGSA,A,3,8,10,14,15,18,20,21,24,27,32,12,138,1.6,0.8,1.3*34
2017-11-16 15:20:51 1510863651.366508: $GPZDA,202050.00,16,11,2017,00,00*60
2017-11-16 15:20:51 1510863651.366717: $GPGGA,202050,3946.9574,N,08404.9858,W,2,12,0.80,306.67,M,-33.324,M,,*72
2017-11-16 15:20:51 1510863651.366802: $GPRMC,202050,A,3946.9574,N,08404.9858,W,0.0000,0.000,161117,,*38
2017-11-16 15:20:51 1510863651.366862: $GPGSA,A,3,8,10,14,15,18,20,21,24,27,32,12,138,1.6,0.8,1.3*34
2017-11-16 15:20:52 1510863652.719605: $GPGSV,3,1,12,08,06,295,35,10,67,327,51,14,27,252,46,15,13,064,32*7E
2017-11-16 15:20:52 1510863652.719792: $GPGSV,3,2,12,18,72,087,47,20,10,117,30,21,32,180,45,24,46,061,51*71
2017-11-16 15:20:52 1510863652.719853: $GPGSV,3,3,12,27,08,262,32,32,44,262,48,12,08,109,31,138,38,213,44*4B
2017-11-16 15:20:52 1510863652.832908: $GPZDA,202051.00,16,11,2017,00,00*61
2017-11-16 15:20:52 1510863652.833068: $GPGGA,202051,3946.9574,N,08404.9858,W,2,12,0.80,306.67,M,-33.324,M,,*73
2017-11-16 15:20:52 1510863652.833128: $GPRMC,202051,A,3946.9574,N,08404.9858,W,0.0000,0.000,161117,,*39
2017-11-16 15:20:52 1510863652.833184: $GPGSA,A,3,8,10,14,15,18,20,21,24,27,32,12,138,1.6,0.8,1.3*34
2017-11-16 15:20:53 1510863653.373845: $GPZDA,202052.00,16,11,2017,00,00*62
2017-11-16 15:20:53 1510863653.374057: $GPGGA,202052,3946.9574,N,08404.9858,W,2,12,0.80,306.67,M,-33.324,M,,*70
2017-11-16 15:20:53 1510863653.374120: $GPRMC,202052,A,3946.9574,N,08404.9858,W,0.0000,0.000,161117,,*3A
2017-11-16 15:20:53 1510863653.374177: $GPGSA,A,3,8,10,14,15,18,20,21,24,27,32,12,138,1.6,0.8,1.3*34
2017-11-16 15:20:54 1510863654.372116: $GPZDA,202053.00,16,11,2017,00,00*63
2017-11-16 15:20:54 1510863654.372287: $GPGGA,202053,3946.9574,N,08404.9858,W,2,12,0.80,306.67,M,-33.324,M,,*71
2017-11-16 15:20:54 1510863654.372349: $GPRMC,202053,A,3946.9574,N,08404.9858,W,0.0000,0.000,161117,,*3B
2017-11-16 15:20:54 1510863654.372405: $GPGSA,A,3,8,10,14,15,18,20,21,24,27,32,12,138,1.6,0.8,1.3*34
2017-11-16 15:20:55 1510863655.709126: $GPGSV,3,1,12,08,06,295,35,10,67,327,51,14,27,252,47,15,13,064,33*7E
2017-11-16 15:20:55 1510863655.709270: $GPGSV,3,2,12,18,72,087,48,20,10,117,31,21,32,180,45,24,46,061,51*7F
2017-11-16 15:20:55 1510863655.709330: $GPGSV,3,3,12,27,08,262,34,32,44,262,48,12,08,109,30,138,38,213,45*4D
2017-11-16 15:20:55 1510863655.822419: $GPZDA,202054.00,16,11,2017,00,00*64
2017-11-16 15:20:55 1510863655.822597: $GPGGA,202054,3946.9575,N,08404.9864,W,2,12,0.80,306.59,M,-33.324,M,,*75
2017-11-16 15:20:55 1510863655.822675: $GPRMC,202054,A,3946.9575,N,08404.9864,W,0.0000,0.000,161117,,*32
2017-11-16 15:20:55 1510863655.822732: $GPGSA,A,3,8,10,14,15,18,20,21,24,27,32,12,138,1.6,0.8,1.3*34
2017-11-16 15:20:56 1510863656.447819: $GPZDA,202055.00,16,11,2017,00,00*65
2017-11-16 15:20:56 1510863656.447996: $GPGGA,202055,3946.9575,N,08404.9864,W,2,12,0.80,306.59,M,-33.324,M,,*74
2017-11-16 15:20:56 1510863656.448059: $GPRMC,202055,A,3946.9575,N,08404.9864,W,0.0000,0.000,161117,,*33
2017-11-16 15:20:56 1510863656.448116: $GPGSA,A,3,8,10,14,15,18,20,21,24,27,32,12,138,1.6,0.8,1.3*34
