2017-11-16 14:22:06 1510860126.497951: {"class":"VERSION","release":"3.17","rev":"3.17","proto_major":3,"proto_minor":12}
2017-11-16 14:22:06 1510860126.498508: {"class":"DEVICES","devices":[{"class":"DEVICE","path":"/dev/ttyUSB0","driver":"SiRF","subtype":"9\u0006GSD4e_4.1.2-P1_RPATCH.05-F-GPS-4R-1510281 11/03/2015 307","activated":"2017-11-16T19:22:06.384Z","flags":1,"native":1,"bps":4800,"parity":"N","stopbits":1,"cycle":1.00}]}
2017-11-16 14:22:06 1510860126.498640: {"class":"WATCH","enable":true,"json":false,"nmea":true,"raw":0,"scaled":false,"timing":false,"split24":false,"pps":false}
2017-11-16 14:22:06 1510860126.832452: $GPGSV,3,1,12,08,07,318,36,10,44,304,47,13,05,049,18,15,34,054,50*79
2017-11-16 14:22:06 1510860126.832629: $GPGSV,3,2,12,18,73,346,47,21,60,187,45,20,30,099,45,24,52,103,48*71
2017-11-16 14:22:06 1510860126.832689: $GPGSV,3,3,12,27,18,285,43,32,23,241,46,14,07,234,33,138,38,213,44*4D
2017-11-16 14:22:06 1510860126.945795: $GPZDA,192205.00,16,11,2017,00,00*68
2017-11-16 14:22:06 1510860126.945948: $GPGGA,192205,3946.9565,N,08404.9850,W,2,12,0.80,304.07,M,-33.324,M,,*76
2017-11-16 14:22:06 1510860126.946007: $GPRMC,192205,A,3946.9565,N,08404.9850,W,0.0000,0.000,161117,,*38
2017-11-16 14:22:06 1510860126.946062: $GPGSA,A,3,8,10,13,15,18,21,20,24,27,32,14,138,1.6,0.8,1.3*35
2017-11-16 14:22:07 1510860127.500491: $GPZDA,192206.00,16,11,2017,00,00*6B
2017-11-16 14:22:07 1510860127.500659: $GPGGA,192206,3946.9565,N,08404.9850,W,2,12,0.80,304.07,M,-33.324,M,,*75
2017-11-16 14:22:07 1510860127.500719: $GPRMC,192206,A,3946.9565,N,08404.9850,W,0.0000,0.000,161117,,*3B
2017-11-16 14:22:07 1510860127.500781: $GPGSA,A,3,8,10,13,15,18,21,20,24,27,32,14,138,1.6,0.8,1.3*35
2017-11-16 14:22:08 1510860128.501495: $GPZDA,192207.00,16,11,2017,00,00*6A
2017-11-16 14:22:08 1510860128.501665: $GPGGA,192207,3946.9565,N,08404.9850,W,2,12,0.80,304.07,M,-33.324,M,,*74
2017-11-16 14:22:08 1510860128.501728: $GPRMC,192207,A,3946.9565,N,08404.9850,W,0.0000,0.000,161117,,*3A
2017-11-16 14:22:08 1510860128.501784: $GPGSA,A,3,8,10,13,15,18,21,20,24,27,32,14,138,1.6,0.8,1.3*35
2017-11-16 14:22:09 1510860129.837176: $GPGSV,3,1,12,08,07,318,35,10,44,304,47,13,05,049,18,15,34,054,50*7A
2017-11-16 14:22:09 1510860129.837349: $GPGSV,3,2,12,18,73,346,46,21,60,187,45,20,30,099,44,24,52,103,48*71
2017-11-16 14:22:09 1510860129.837410: $GPGSV,3,3,12,27,18,285,42,32,23,241,45,14,07,234,32,138,38,213,45*4F
2017-11-16 14:22:09 1510860129.950676: $GPZDA,192208.00,16,11,2017,00,00*65
2017-11-16 14:22:09 1510860129.950866: $GPGGA,192208,3946.9565,N,08404.9850,W,2,12,0.80,304.07,M,-33.324,M,,*7B
2017-11-16 14:22:09 1510860129.950930: $GPRMC,192208,A,3946.9565,N,08404.9850,W,0.0000,0.000,161117,,*35
2017-11-16 14:22:09 1510860129.950990: $GPGSA,A,3,8,10,13,15,18,21,20,24,27,32,14,138,1.6,0.8,1.3*35
2017-11-16 14:22:10 1510860130.501390: $GPZDA,192209.00,16,11,2017,00,00*64
2017-11-16 14:22:10 1510860130.501577: $GPGGA,192209,3946.9565,N,08404.9850,W,2,12,0.80,304.07,M,-33.324,M,,*7A
2017-11-16 14:22:10 1510860130.501662: $GPRMC,192209,A,3946.9565,N,08404.9850,W,0.0000,0.000,161117,,*34
2017-11-16 14:22:10 1510860130.501721: $GPGSA,A,3,8,10,13,15,18,21,20,24,27,32,14,138,1.6,0.8,1.3*35
2017-11-16 14:22:11 1510860131.501173: $GPZDA,192210.00,16,11,2017,00,00*6C
2017-11-16 14:22:11 1510860131.501355: $GPGGA,192210,3946.9565,N,08404.9850,W,2,12,0.80,304.07,M,-33.324,M,,*72
2017-11-16 14:22:11 1510860131.501416: $GPRMC,192210,A,3946.9565,N,08404.9850,W,0.0000,0.000,161117,,*3C
2017-11-16 14:22:11 1510860131.501473: $GPGSA,A,3,8,10,13,15,18,21,20,24,27,32,14,138,1.6,0.8,1.3*35
2017-11-16 14:22:12 1510860132.840591: $GPGSV,3,1,12,08,07,318,33,10,44,304,46,13,05,049,18,15,34,054,50*7D
2017-11-16 14:22:12 1510860132.840747: $GPGSV,3,2,12,18,73,346,46,21,60,187,44,20,30,099,44,24,52,103,48*70
2017-11-16 14:22:12 1510860132.840808: $GPGSV,3,3,12,27,18,285,42,32,23,241,45,14,07,234,32,138,38,213,43*49
2017-11-16 14:22:12 1510860132.952640: $GPZDA,192211.00,16,11,2017,00,00*6D
2017-11-16 14:22:12 1510860132.952801: $GPGGA,192211,3946.9565,N,08404.9850,W,2,12,0.80,304.07,M,-33.324,M,,*73
2017-11-16 14:22:12 1510860132.952913: $GPRMC,192211,A,3946.9565,N,08404.9850,W,0.0000,0.000,161117,,*3D
2017-11-16 14:22:12 1510860132.952973: $GPGSA,A,3,8,10,13,15,18,21,20,24,27,32,14,138,1.6,0.8,1.3*35
2017-11-16 14:22:13 1510860133.502248: $GPZDA,192212.00,16,11,2017,00,00*6E
2017-11-16 14:22:13 1510860133.502411: $GPGGA,192212,3946.9565,N,08404.9850,W,2,12,0.80,304.07,M,-33.324,M,,*70
2017-11-16 14:22:13 1510860133.502476: $GPRMC,192212,A,3946.9565,N,08404.9850,W,0.0000,0.000,161117,,*3E
2017-11-16 14:22:13 1510860133.502532: $GPGSA,A,3,8,10,13,15,18,21,20,24,27,32,14,138,1.6,0.8,1.3*35
2017-11-16 14:22:14 1510860134.501503: $GPZDA,192213.00,16,11,2017,00,00*6F
2017-11-16 14:22:14 1510860134.501669: $GPGGA,192213,3946.9565,N,08404.9850,W,2,12,0.80,304.07,M,-33.324,M,,*71
2017-11-16 14:22:14 1510860134.501730: $GPRMC,192213,A,3946.9565,N,08404.9850,W,0.0000,0.000,161117,,*3F
2017-11-16 14:22:14 1510860134.501787: $GPGSA,A,3,8,10,13,15,18,21,20,24,27,32,14,138,1.6,0.8,1.3*35
2017-11-16 14:22:15 1510860135.837126: $GPGSV,3,1,12,08,07,318,31,10,44,304,46,13,05,049,18,15,34,054,50*7F
2017-11-16 14:22:15 1510860135.837299: $GPGSV,3,2,12,18,73,346,47,21,60,187,45,20,30,099,45,24,52,103,48*71
2017-11-16 14:22:15 1510860135.837359: $GPGSV,3,3,12,27,18,285,42,32,23,241,45,14,07,234,32,138,38,213,44*4E
2017-11-16 14:22:15 1510860135.950478: $GPZDA,192214.00,16,11,2017,00,00*68
2017-11-16 14:22:15 1510860135.950635: $GPGGA,192214,3946.9565,N,08404.9850,W,2,12,0.80,304.07,M,-33.324,M,,*76
2017-11-16 14:22:15 1510860135.950698: $GPRMC,192214,A,3946.9565,N,08404.9850,W,0.0000,0.000,161117,,*38
2017-11-16 14:22:15 1510860135.950754: $GPGSA,A,3,8,10,13,15,18,21,20,24,27,32,14,138,1.6,0.8,1.3*35
2017-11-16 14:22:16 1510860136.502606: $GPZDA,192215.00,16,11,2017,00,00*69
2017-11-16 14:22:16 1510860136.502762: $GPGGA,192215,3946.9565,N,08404.9850,W,2,12,0.80,304.07,M,-33.324,M,,*77
2017-11-16 14:22:16 1510860136.502825: $GPRMC,192215,A,3946.9565,N,08404.9850,W,0.0000,0.000,161117,,*39
2017-11-16 14:22:16 1510860136.502880: $GPGSA,A,3,8,10,13,15,18,21,20,24,27,32,14,138,1.6,0.8,1.3*35
2017-11-16 14:22:17 1510860137.502176: $GPZDA,192216.00,16,11,2017,00,00*6A
2017-11-16 14:22:17 1510860137.502326: $GPGGA,192216,3946.9565,N,08404.9850,W,2,12,0.80,304.07,M,-33.324,M,,*74
2017-11-16 14:22:17 1510860137.502389: $GPRMC,192216,A,3946.9565,N,08404.9850,W,0.0000,0.000,161117,,*3A
2017-11-16 14:22:17 1510860137.502447: $GPGSA,A,3,8,10,13,15,18,21,20,24,27,32,14,138,1.6,0.8,1.3*35
2017-11-16 14:22:18 1510860138.869321: $GPGSV,3,1,12,08,07,318,32,10,44,304,46,13,05,049,17,15,34,054,50*73
2017-11-16 14:22:18 1510860138.869527: $GPGSV,3,2,12,18,73,346,47,21,60,187,44,20,30,099,45,24,52,103,48*70
2017-11-16 14:22:18 1510860138.869588: $GPGSV,3,3,12,27,18,285,41,32,23,241,45,14,07,234,33,138,38,213,43*4B
2017-11-16 14:22:18 1510860138.982589: $GPZDA,192217.00,16,11,2017,00,00*6B
2017-11-16 14:22:18 1510860138.982749: $GPGGA,192217,3946.9565,N,08404.9850,W,2,12,0.80,304.07,M,-33.324,M,,*75
2017-11-16 14:22:18 1510860138.982811: $GPRMC,192217,A,3946.9565,N,08404.9850,W,0.0000,0.000,161117,,*3B
2017-11-16 14:22:18 1510860138.982866: $GPGSA,A,3,8,10,13,15,18,21,20,24,27,32,14,138,1.6,0.8,1.3*35
2017-11-16 14:22:19 1510860139.607909: $GPZDA,192218.00,16,11,2017,00,00*64
2017-11-16 14:22:19 1510860139.608072: $GPGGA,192218,3946.9565,N,08404.9850,W,2,12,0.80,304.07,M,-33.324,M,,*7A
2017-11-16 14:22:19 1510860139.608134: $GPRMC,192218,A,3946.9565,N,08404.9850,W,0.0000,0.000,161117,,*34
2017-11-16 14:22:19 1510860139.608191: $GPGSA,A,3,8,10,13,15,18,21,20,24,27,32,14,138,1.6,0.8,1.3*35
2017-11-16 14:22:20 1510860140.527597: $GPZDA,192219.00,16,11,2017,00,00*65
2017-11-16 14:22:20 1510860140.527763: $GPGGA,192219,3946.9565,N,08404.9850,W,2,12,0.80,304.07,M,-33.324,M,,*7B
2017-11-16 14:22:20 1510860140.527825: $GPRMC,192219,A,3946.9565,N,08404.9850,W,0.0000,0.000,161117,,*35
2017-11-16 14:22:20 1510860140.527882: $GPGSA,A,3,8,10,13,15,18,21,20,24,27,32,14,138,1.6,0.8,1.3*35
