2017-11-16 17:31:27 1510871487.355379: {"class":"VERSION","release":"3.17","rev":"3.17","proto_major":3,"proto_minor":12}
2017-11-16 17:31:27 1510871487.356076: {"class":"DEVICES","devices":[{"class":"DEVICE","path":"/dev/ttyUSB0","driver":"SiRF","subtype":"9\u0006GSD4e_4.1.2-P1_RPATCH.05-F-GPS-4R-1510281 11/03/2015 307","activated":"2017-11-16T22:31:27.297Z","flags":1,"native":1,"bps":4800,"parity":"N","stopbits":1,"cycle":1.00}]}
2017-11-16 17:31:27 1510871487.356219: {"class":"WATCH","enable":true,"json":false,"nmea":true,"raw":0,"scaled":false,"timing":false,"split24":false,"pps":false}
2017-11-16 17:31:27 1510871487.746125: $GPGSV,3,1,12,01,21,301,36,10,48,148,49,22,18,312,46,12,22,051,51*78
2017-11-16 17:31:27 1510871487.746291: $GPGSV,3,2,12,14,66,327,48,18,19,144,39,26,01,183,20,11,08,282,40*77
2017-11-16 17:31:27 1510871487.746351: $GPGSV,3,3,12,25,39,091,47,31,55,225,48,32,69,025,49,138,38,213,45*43
2017-11-16 17:31:27 1510871487.859397: $GPZDA,223126.00,16,11,2017,00,00*63
2017-11-16 17:31:27 1510871487.859558: $GPGGA,223126,3946.9572,N,08404.9835,W,2,11,0.80,304.10,M,-33.324,M,,*7D
2017-11-16 17:31:27 1510871487.859618: $GPRMC,223126,A,3946.9572,N,08404.9835,W,0.0000,0.000,161117,,*36
2017-11-16 17:31:27 1510871487.859674: $GPGSA,A,3,1,10,22,12,14,18,11,25,31,32,138,,1.6,0.8,1.3*3E
2017-11-16 17:31:28 1510871488.401523: $GPZDA,223127.00,16,11,2017,00,00*62
2017-11-16 17:31:28 1510871488.401690: $GPGGA,223127,3946.9572,N,08404.9835,W,2,11,0.80,304.10,M,-33.324,M,,*7C
2017-11-16 17:31:28 1510871488.401750: $GPRMC,223127,A,3946.9572,N,08404.9835,W,0.0000,0.000,161117,,*37
2017-11-16 17:31:28 1510871488.401806: $GPGSA,A,3,1,10,22,12,14,18,11,25,31,32,138,,1.6,0.8,1.3*3E
2017-11-16 17:31:29 1510871489.399852: $GPZDA,223128.00,16,11,2017,00,00*6D
2017-11-16 17:31:29 1510871489.400016: $GPGGA,223128,3946.9572,N,08404.9835,W,2,11,0.80,304.10,M,-33.324,M,,*73
2017-11-16 17:31:29 1510871489.400076: $GPRMC,223128,A,3946.9572,N,08404.9835,W,0.0000,0.000,161117,,*38
2017-11-16 17:31:29 1510871489.400132: $GPGSA,A,3,1,10,22,12,14,18,11,25,31,32,138,,1.6,0.8,1.3*3E
2017-11-16 17:31:30 1510871490.736894: $GPGSV,3,1,12,01,21,301,36,10,48,148,50,22,18,312,45,12,22,051,51*73
2017-11-16 17:31:30 1510871490.737061: $GPGSV,3,2,12,14,66,327,48,18,19,144,39,26,01,183,00,11,08,282,41*74
2017-11-16 17:31:30 1510871490.737121: $GPGSV,3,3,12,25,39,091,48,31,55,225,48,32,69,025,50,138,38,213,45*44
2017-11-16 17:31:30 1510871490.850194: $GPZDA,223129.00,16,11,2017,00,00*6C
2017-11-16 17:31:30 1510871490.850357: $GPGGA,223129,3946.9572,N,08404.9835,W,2,11,0.80,304.10,M,-33.324,M,,*72
2017-11-16 17:31:30 1510871490.850418: $GPRMC,223129,A,3946.9572,N,08404.9835,W,0.0000,0.000,161117,,*39
2017-11-16 17:31:30 1510871490.850474: $GPGSA,A,3,1,10,22,12,14,18,11,25,31,32,138,,1.6,0.8,1.3*3E
2017-11-16 17:31:31 1510871491.476807: $GPZDA,223130.00,16,11,2017,00,00*64
2017-11-16 17:31:31 1510871491.476979: $GPGGA,223130,3946.9572,N,08404.9835,W,2,11,0.80,304.10,M,-33.324,M,,*7A
2017-11-16 17:31:31 1510871491.477040: $GPRMC,223130,A,3946.9572,N,08404.9835,W,0.0000,0.000,161117,,*31
2017-11-16 17:31:31 1510871491.477097: $GPGSA,A,3,1,10,22,12,14,18,11,25,31,32,138,,1.6,0.8,1.3*3E
2017-11-16 17:31:32 1510871492.400140: $GPZDA,223131.00,16,11,2017,00,00*65
2017-11-16 17:31:32 1510871492.400305: $GPGGA,223131,3946.9572,N,08404.9835,W,2,11,0.80,304.10,M,-33.324,M,,*7B
2017-11-16 17:31:32 1510871492.400366: $GPRMC,223131,A,3946.9572,N,08404.9835,W,0.0000,0.000,161117,,*30
2017-11-16 17:31:32 1510871492.400422: $GPGSA,A,3,1,10,22,12,14,18,11,25,31,32,138,,1.6,0.8,1.3*3E
2017-11-16 17:31:33 1510871493.731076: $GPGSV,3,1,12,01,21,301,36,10,48,148,50,22,18,312,45,12,22,051,51*73
2017-11-16 17:31:33 1510871493.731241: $GPGSV,3,2,12,14,66,327,48,18,19,144,39,26,01,183,00,11,08,282,41*74
2017-11-16 17:31:33 1510871493.731301: $GPGSV,3,3,12,25,39,091,48,31,55,225,49,32,69,025,49,138,38,213,44*4C
2017-11-16 17:31:33 1510871493.844273: $GPZDA,223132.00,16,11,2017,00,00*66
2017-11-16 17:31:33 1510871493.844431: $GPGGA,223132,3946.9572,N,08404.9835,W,2,11,0.80,304.10,M,-33.324,M,,*78
2017-11-16 17:31:33 1510871493.844542: $GPRMC,223132,A,3946.9572,N,08404.9835,W,0.0000,0.000,161117,,*33
2017-11-16 17:31:33 1510871493.844619: $GPGSA,A,3,1,10,22,12,14,18,11,25,31,32,138,,1.6,0.8,1.3*3E
2017-11-16 17:31:34 1510871494.401333: $GPZDA,223133.00,16,11,2017,00,00*67
2017-11-16 17:31:34 1510871494.401495: $GPGGA,223133,3946.9572,N,08404.9835,W,2,11,0.80,304.10,M,-33.324,M,,*79
2017-11-16 17:31:34 1510871494.401573: $GPRMC,223133,A,3946.9572,N,08404.9835,W,0.0000,0.000,161117,,*32
2017-11-16 17:31:34 1510871494.401630: $GPGSA,A,3,1,10,22,12,14,18,11,25,31,32,138,,1.6,0.8,1.3*3E
2017-11-16 17:31:35 1510871495.405927: $GPZDA,223134.00,16,11,2017,00,00*60
2017-11-16 17:31:35 1510871495.406094: $GPGGA,223134,3946.9572,N,08404.9835,W,2,11,0.80,304.10,M,-33.324,M,,*7E
2017-11-16 17:31:35 1510871495.406157: $GPRMC,223134,A,3946.9572,N,08404.9835,W,0.0000,0.000,161117,,*35
2017-11-16 17:31:35 1510871495.406212: $GPGSA,A,3,1,10,22,12,14,18,11,25,31,32,138,,1.6,0.8,1.3*3E
2017-11-16 17:31:36 1510871496.738704: $GPGSV,3,1,12,01,21,301,38,10,48,148,50,22,18,312,45,12,22,051,51*7D
2017-11-16 17:31:36 1510871496.738880: $GPGSV,3,2,12,14,66,327,48,18,19,144,40,26,01,183,14,11,08,282,40*7E
2017-11-16 17:31:36 1510871496.738942: $GPGSV,3,3,12,25,39,091,48,31,55,225,49,32,69,025,50,138,38,213,44*44
2017-11-16 17:31:36 1510871496.852016: $GPZDA,223135.00,16,11,2017,00,00*61
2017-11-16 17:31:36 1510871496.852220: $GPGGA,223135,3946.9572,N,08404.9835,W,2,11,0.80,304.10,M,-33.324,M,,*7F
2017-11-16 17:31:36 1510871496.852284: $GPRMC,223135,A,3946.9572,N,08404.9835,W,0.0000,0.000,161117,,*34
2017-11-16 17:31:36 1510871496.852341: $GPGSA,A,3,1,10,22,12,14,18,11,25,31,32,138,,1.6,0.8,1.3*3E
