2017-11-16 16:43:39 1510868619.215929: {"class":"VERSION","release":"3.17","rev":"3.17","proto_major":3,"proto_minor":12}
2017-11-16 16:43:39 1510868619.216435: {"class":"DEVICES","devices":[{"class":"DEVICE","path":"/dev/ttyUSB0","driver":"SiRF","subtype":"9\u0006GSD4e_4.1.2-P1_RPATCH.05-F-GPS-4R-1510281 11/03/2015 307","activated":"2017-11-16T21:43:39.031Z","flags":1,"native":1,"bps":4800,"parity":"N","stopbits":1,"cycle":1.00}]}
2017-11-16 16:43:39 1510868619.216556: {"class":"WATCH","enable":true,"json":false,"nmea":true,"raw":0,"scaled":false,"timing":false,"split24":false,"pps":false}
2017-11-16 16:43:39 1510868619.441453: $GPZDA,214338.00,16,11,2017,00,00*6A
2017-11-16 16:43:39 1510868619.441620: $GPGGA,214338,3946.9580,N,08404.9815,W,2,12,0.80,307.02,M,-33.324,M,,*78
2017-11-16 16:43:39 1510868619.441682: $GPRMC,214338,A,3946.9580,N,08404.9815,W,0.0000,0.000,161117,,*30
2017-11-16 16:43:39 1510868619.441738: $GPGSA,A,3,1,10,11,12,14,18,24,25,31,32,22,138,1.6,0.8,1.3*38
2017-11-16 16:43:40 1510868620.452601: $GPZDA,214339.00,16,11,2017,00,00*6B
2017-11-16 16:43:40 1510868620.452759: $GPGGA,214339,3946.9580,N,08404.9815,W,2,12,0.80,307.02,M,-33.324,M,,*79
2017-11-16 16:43:40 1510868620.452821: $GPRMC,214339,A,3946.9580,N,08404.9815,W,0.0000,0.000,161117,,*31
2017-11-16 16:43:40 1510868620.452877: $GPGSA,A,3,1,10,11,12,14,18,24,25,31,32,22,138,1.6,0.8,1.3*38
2017-11-16 16:43:41 1510868621.792705: $GPGSV,3,1,12,01,13,319,43,10,71,129,48,11,11,303,39,12,25,073,47*7F
2017-11-16 16:43:41 1510868621.792875: $GPGSV,3,2,12,14,54,289,43,18,39,135,46,24,15,045,49,25,29,115,42*7C
2017-11-16 16:43:41 1510868621.792936: $GPGSV,3,3,12,31,33,211,45,32,67,324,51,22,01,310,29,138,38,213,45*42
2017-11-16 16:43:41 1510868621.906010: $GPZDA,214340.00,16,11,2017,00,00*65
2017-11-16 16:43:41 1510868621.906149: $GPGGA,214340,3946.9580,N,08404.9815,W,2,12,0.80,307.02,M,-33.324,M,,*77
2017-11-16 16:43:41 1510868621.906213: $GPRMC,214340,A,3946.9580,N,08404.9815,W,0.0000,0.000,161117,,*3F
2017-11-16 16:43:41 1510868621.906272: $GPGSA,A,3,1,10,11,12,14,18,24,25,31,32,22,138,1.6,0.8,1.3*38
2017-11-16 16:43:42 1510868622.458115: $GPZDA,214341.00,16,11,2017,00,00*64
2017-11-16 16:43:42 1510868622.458276: $GPGGA,214341,3946.9580,N,08404.9815,W,2,12,0.80,307.02,M,-33.324,M,,*76
2017-11-16 16:43:42 1510868622.458339: $GPRMC,214341,A,3946.9580,N,08404.9815,W,0.0000,0.000,161117,,*3E
2017-11-16 16:43:42 1510868622.458398: $GPGSA,A,3,1,10,11,12,14,18,24,25,31,32,22,138,1.6,0.8,1.3*38
2017-11-16 16:43:43 1510868623.458989: $GPZDA,214342.00,16,11,2017,00,00*67
2017-11-16 16:43:43 1510868623.459160: $GPGGA,214342,3946.9580,N,08404.9815,W,2,12,0.80,307.02,M,-33.324,M,,*75
2017-11-16 16:43:43 1510868623.459223: $GPRMC,214342,A,3946.9580,N,08404.9815,W,0.0000,0.000,161117,,*3D
2017-11-16 16:43:43 1510868623.459284: $GPGSA,A,3,1,10,11,12,14,18,24,25,31,32,22,138,1.6,0.8,1.3*38
2017-11-16 16:43:44 1510868624.777493: $GPGSV,3,1,12,01,13,319,43,10,71,129,48,11,11,303,40,12,25,073,47*71
2017-11-16 16:43:44 1510868624.777677: $GPGSV,3,2,12,14,54,289,43,18,39,135,46,24,15,045,49,25,29,115,42*7C
2017-11-16 16:43:44 1510868624.777740: $GPGSV,3,3,12,31,33,211,45,32,67,324,51,22,01,310,29,138,38,213,45*42
2017-11-16 16:43:44 1510868624.890901: $GPZDA,214343.00,16,11,2017,00,00*66
2017-11-16 16:43:44 1510868624.891059: $GPGGA,214343,3946.9580,N,08404.9815,W,2,12,0.80,307.02,M,-33.324,M,,*74
2017-11-16 16:43:44 1510868624.891120: $GPRMC,214343,A,3946.9580,N,08404.9815,W,0.0000,0.000,161117,,*3C
2017-11-16 16:43:44 1510868624.891176: $GPGSA,A,3,1,10,11,12,14,18,24,25,31,32,22,138,1.6,0.8,1.3*38
2017-11-16 16:43:45 1510868625.440660: $GPZDA,214344.00,16,11,2017,00,00*61
2017-11-16 16:43:45 1510868625.440823: $GPGGA,214344,3946.9580,N,08404.9815,W,2,12,0.80,307.02,M,-33.324,M,,*73
2017-11-16 16:43:45 1510868625.440885: $GPRMC,214344,A,3946.9580,N,08404.9815,W,0.0000,0.000,161117,,*3B
2017-11-16 16:43:45 1510868625.440941: $GPGSA,A,3,1,10,11,12,14,18,24,25,31,32,22,138,1.6,0.8,1.3*38
2017-11-16 16:43:46 1510868626.456886: $GPZDA,214345.00,16,11,2017,00,00*60
2017-11-16 16:43:46 1510868626.457110: $GPGGA,214345,3946.9580,N,08404.9815,W,2,12,0.80,307.02,M,-33.324,M,,*72
2017-11-16 16:43:46 1510868626.457177: $GPRMC,214345,A,3946.9580,N,08404.9815,W,0.0000,0.000,161117,,*3A
2017-11-16 16:43:46 1510868626.457234: $GPGSA,A,3,1,10,11,12,14,18,24,25,31,32,22,138,1.6,0.8,1.3*38
2017-11-16 16:43:47 1510868627.777767: $GPGSV,3,1,12,01,13,319,43,10,71,129,49,11,11,303,40,12,25,073,47*70
2017-11-16 16:43:47 1510868627.777920: $GPGSV,3,2,12,14,54,289,43,18,39,135,46,24,15,045,49,25,29,115,43*7D
2017-11-16 16:43:47 1510868627.777979: $GPGSV,3,3,12,31,33,211,45,32,67,324,51,22,01,310,29,138,38,213,44*43
2017-11-16 16:43:47 1510868627.891409: $GPZDA,214346.00,16,11,2017,00,00*63
2017-11-16 16:43:47 1510868627.891572: $GPGGA,214346,3946.9580,N,08404.9815,W,2,12,0.80,307.02,M,-33.324,M,,*71
2017-11-16 16:43:47 1510868627.891632: $GPRMC,214346,A,3946.9580,N,08404.9815,W,0.0000,0.000,161117,,*39
2017-11-16 16:43:47 1510868627.891689: $GPGSA,A,3,1,10,11,12,14,18,24,25,31,32,22,138,1.6,0.8,1.3*38
2017-11-16 16:43:48 1510868628.443571: $GPZDA,214347.00,16,11,2017,00,00*62
2017-11-16 16:43:48 1510868628.443749: $GPGGA,214347,3946.9580,N,08404.9815,W,2,12,0.80,307.02,M,-33.324,M,,*70
2017-11-16 16:43:48 1510868628.443812: $GPRMC,214347,A,3946.9580,N,08404.9815,W,0.0000,0.000,161117,,*38
2017-11-16 16:43:48 1510868628.443869: $GPGSA,A,3,1,10,11,12,14,18,24,25,31,32,22,138,1.6,0.8,1.3*38
