2017-11-16 16:49:33 1510868973.231171: {"class":"VERSION","release":"3.17","rev":"3.17","proto_major":3,"proto_minor":12}
2017-11-16 16:49:33 1510868973.231669: {"class":"DEVICES","devices":[{"class":"DEVICE","path":"/dev/ttyUSB0","driver":"SiRF","subtype":"9\u0006GSD4e_4.1.2-P1_RPATCH.05-F-GPS-4R-1510281 11/03/2015 307","activated":"2017-11-16T21:49:33.036Z","flags":1,"native":1,"bps":4800,"parity":"N","stopbits":1,"cycle":1.00}]}
2017-11-16 16:49:33 1510868973.231796: {"class":"WATCH","enable":true,"json":false,"nmea":true,"raw":0,"scaled":false,"timing":false,"split24":false,"pps":false}
2017-11-16 16:49:33 1510868973.455807: $GPZDA,214932.00,16,11,2017,00,00*6A
2017-11-16 16:49:33 1510868973.455967: $GPGGA,214932,3946.9580,N,08404.9822,W,2,12,0.80,306.94,M,-33.324,M,,*72
2017-11-16 16:49:33 1510868973.456026: $GPRMC,214932,A,3946.9580,N,08404.9822,W,0.0000,0.000,161117,,*34
2017-11-16 16:49:33 1510868973.456082: $GPGSA,A,3,1,10,11,12,14,18,24,25,31,32,22,138,1.6,0.8,1.3*38
2017-11-16 16:49:34 1510868974.445457: $GPZDA,214933.00,16,11,2017,00,00*6B
2017-11-16 16:49:34 1510868974.445636: $GPGGA,214933,3946.9580,N,08404.9822,W,2,12,0.80,306.94,M,-33.324,M,,*73
2017-11-16 16:49:34 1510868974.445697: $GPRMC,214933,A,3946.9580,N,08404.9822,W,0.0000,0.000,161117,,*35
2017-11-16 16:49:34 1510868974.445753: $GPGSA,A,3,1,10,11,12,14,18,24,25,31,32,22,138,1.6,0.8,1.3*38
2017-11-16 16:49:35 1510868975.782435: $GPGSV,3,1,12,01,14,318,42,10,68,133,49,11,11,300,29,12,25,070,48*74
2017-11-16 16:49:35 1510868975.782603: $GPGSV,3,2,12,14,56,294,45,18,36,136,44,24,13,045,42,25,30,112,42*78
2017-11-16 16:49:35 1510868975.782664: $GPGSV,3,3,12,31,35,213,45,32,68,331,51,22,03,310,24,138,38,213,44*43
2017-11-16 16:49:35 1510868975.895799: $GPZDA,214934.00,16,11,2017,00,00*6C
2017-11-16 16:49:35 1510868975.895951: $GPGGA,214934,3946.9580,N,08404.9822,W,2,12,0.80,306.94,M,-33.324,M,,*74
2017-11-16 16:49:35 1510868975.896012: $GPRMC,214934,A,3946.9580,N,08404.9822,W,0.0000,0.000,161117,,*32
2017-11-16 16:49:35 1510868975.896068: $GPGSA,A,3,1,10,11,12,14,18,24,25,31,32,22,138,1.6,0.8,1.3*38
2017-11-16 16:49:36 1510868976.521932: $GPZDA,214935.00,16,11,2017,00,00*6D
2017-11-16 16:49:36 1510868976.522100: $GPGGA,214935,3946.9584,N,08404.9822,W,2,12,0.80,307.58,M,-33.324,M,,*70
2017-11-16 16:49:36 1510868976.522161: $GPRMC,214935,A,3946.9584,N,08404.9822,W,0.0000,0.000,161117,,*37
2017-11-16 16:49:36 1510868976.522217: $GPGSA,A,3,1,10,11,12,14,18,24,25,31,32,22,138,1.6,0.8,1.3*38
2017-11-16 16:49:37 1510868977.461967: $GPZDA,214936.00,16,11,2017,00,00*6E
2017-11-16 16:49:37 1510868977.462125: $GPGGA,214936,3946.9584,N,08404.9822,W,2,12,0.80,307.58,M,-33.324,M,,*73
2017-11-16 16:49:37 1510868977.462185: $GPRMC,214936,A,3946.9584,N,08404.9822,W,0.0000,0.000,161117,,*34
2017-11-16 16:49:37 1510868977.462240: $GPGSA,A,3,1,10,11,12,14,18,24,25,31,32,22,138,1.6,0.8,1.3*38
2017-11-16 16:49:38 1510868978.781474: $GPGSV,3,1,12,01,14,318,41,10,68,133,49,11,11,300,29,12,25,070,48*77
2017-11-16 16:49:38 1510868978.781626: $GPGSV,3,2,12,14,56,294,45,18,36,136,43,24,13,045,42,25,30,112,42*7F
2017-11-16 16:49:38 1510868978.781686: $GPGSV,3,3,12,31,35,213,45,32,68,331,51,22,03,310,24,138,38,213,44*43
2017-11-16 16:49:38 1510868978.895107: $GPZDA,214937.00,16,11,2017,00,00*6F
2017-11-16 16:49:38 1510868978.895266: $GPGGA,214937,3946.9584,N,08404.9822,W,2,12,0.80,307.58,M,-33.324,M,,*72
2017-11-16 16:49:38 1510868978.895327: $GPRMC,214937,A,3946.9584,N,08404.9822,W,0.0000,0.000,161117,,*35
2017-11-16 16:49:38 1510868978.895382: $GPGSA,A,3,1,10,11,12,14,18,24,25,31,32,22,138,1.6,0.8,1.3*38
2017-11-16 16:49:39 1510868979.447118: $GPZDA,214938.00,16,11,2017,00,00*60
2017-11-16 16:49:39 1510868979.447293: $GPGGA,214938,3946.9584,N,08404.9822,W,2,12,0.80,307.58,M,-33.324,M,,*7D
2017-11-16 16:49:39 1510868979.447353: $GPRMC,214938,A,3946.9584,N,08404.9822,W,0.0000,0.000,161117,,*3A
2017-11-16 16:49:39 1510868979.447409: $GPGSA,A,3,1,10,11,12,14,18,24,25,31,32,22,138,1.6,0.8,1.3*38
2017-11-16 16:49:40 1510868980.457979: $GPZDA,214939.00,16,11,2017,00,00*61
2017-11-16 16:49:40 1510868980.458265: $GPGGA,214939,3946.9584,N,08404.9822,W,2,12,0.80,307.58,M,-33.324,M,,*7C
2017-11-16 16:49:40 1510868980.458333: $GPRMC,214939,A,3946.9584,N,08404.9822,W,0.0000,0.000,161117,,*3B
2017-11-16 16:49:40 1510868980.458391: $GPGSA,A,3,1,10,11,12,14,18,24,25,31,32,22,138,1.6,0.8,1.3*38
2017-11-16 16:49:41 1510868981.798066: $GPGSV,3,1,12,01,14,318,41,10,68,133,49,11,11,300,30,12,25,070,48*7F
2017-11-16 16:49:41 1510868981.798231: $GPGSV,3,2,12,14,56,294,45,18,36,136,43,24,13,045,43,25,30,112,42*7E
2017-11-16 16:49:41 1510868981.798290: $GPGSV,3,3,12,31,35,213,45,32,68,331,50,22,03,310,27,138,38,213,44*41
2017-11-16 16:49:41 1510868981.911309: $GPZDA,214940.00,16,11,2017,00,00*6F
2017-11-16 16:49:41 1510868981.911461: $GPGGA,214940,3946.9584,N,08404.9822,W,2,12,0.80,307.58,M,-33.324,M,,*72
2017-11-16 16:49:41 1510868981.911522: $GPRMC,214940,A,3946.9584,N,08404.9822,W,0.0000,0.000,161117,,*35
2017-11-16 16:49:41 1510868981.911577: $GPGSA,A,3,1,10,11,12,14,18,24,25,31,32,22,138,1.6,0.8,1.3*38
2017-11-16 16:49:42 1510868982.464919: $GPZDA,214941.00,16,11,2017,00,00*6E
2017-11-16 16:49:42 1510868982.465124: $GPGGA,214941,3946.9584,N,08404.9822,W,2,12,0.80,307.58,M,-33.324,M,,*73
2017-11-16 16:49:42 1510868982.465186: $GPRMC,214941,A,3946.9584,N,08404.9822,W,0.0000,0.000,161117,,*34
2017-11-16 16:49:42 1510868982.465241: $GPGSA,A,3,1,10,11,12,14,18,24,25,31,32,22,138,1.6,0.8,1.3*38
