2017-11-15 19:22:42 1510791762.054072: {"class":"VERSION","release":"3.17","rev":"3.17","proto_major":3,"proto_minor":12}
2017-11-15 19:22:42 1510791762.054541: {"class":"DEVICES","devices":[{"class":"DEVICE","path":"/dev/ttyUSB0","driver":"SiRF","subtype":"9\u0006GSD4e_4.1.2-P1_RPATCH.05-F-GPS-4R-1510281 11/03/2015 307","activated":"2017-11-16T00:22:41.486Z","flags":1,"native":1,"bps":4800,"parity":"N","stopbits":1,"cycle":1.00}]}
2017-11-15 19:22:42 1510791762.054664: {"class":"WATCH","enable":true,"json":false,"nmea":true,"raw":0,"scaled":false,"timing":false,"split24":false,"pps":false}
2017-11-15 19:22:42 1510791762.681721: $GPGSV,3,1,11,32,39,105,21,14,58,087,17,22,50,276,18,26,49,174,22*72
2017-11-15 19:22:42 1510791762.681894: $GPGSV,3,2,11,31,71,018,14,29,09,075,08,25,20,042,00,03,37,303,19*74
2017-11-15 19:22:42 1510791762.681954: $GPGSV,3,3,11,01,08,255,12,16,18,190,00,23,08,298,00*4D
2017-11-15 19:22:42 1510791762.795430: $GPZDA,002241.00,16,11,2017,00,00*60
2017-11-15 19:22:42 1510791762.795592: $GPGGA,002241,3946.9594,N,08404.9440,W,1,07,1.20,292.91,M,-33.324,M,,*70
2017-11-15 19:22:42 1510791762.795651: $GPRMC,002241,A,3946.9594,N,08404.9440,W,0.5951,58.684,161117,,*0C
2017-11-15 19:22:42 1510791762.795707: $GPGSA,A,3,32,14,22,26,29,3,1,,,,,,3.4,1.2,2.9*34
2017-11-15 19:22:43 1510791763.347205: $GPZDA,002242.00,16,11,2017,00,00*63
2017-11-15 19:22:43 1510791763.347380: $GPGGA,002242,3946.9594,N,08404.9440,W,1,07,1.20,292.91,M,-33.324,M,,*73
2017-11-15 19:22:43 1510791763.347441: $GPRMC,002242,A,3946.9594,N,08404.9440,W,0.9929,32.499,161117,,*0E
2017-11-15 19:22:43 1510791763.347497: $GPGSA,A,3,32,14,22,26,29,3,1,,,,,,3.4,1.2,2.9*34
2017-11-15 19:22:44 1510791764.330524: $GPZDA,002243.00,16,11,2017,00,00*62
2017-11-15 19:22:44 1510791764.330688: $GPGGA,002243,3946.9594,N,08404.9440,W,1,07,1.60,292.91,M,-33.324,M,,*76
2017-11-15 19:22:44 1510791764.330748: $GPRMC,002243,A,3946.9594,N,08404.9440,W,0.8414,39.347,161117,,*02
2017-11-15 19:22:44 1510791764.330804: $GPGSA,A,3,32,14,22,26,29,3,1,,,,,,3.4,1.6,2.9*30
2017-11-15 19:22:45 1510791765.666646: $GPGSV,3,1,11,32,39,105,21,14,58,087,17,22,50,276,17,26,49,174,22*7D
2017-11-15 19:22:45 1510791765.666861: $GPGSV,3,2,11,31,71,018,16,29,09,075,07,25,20,042,00,03,37,303,19*79
2017-11-15 19:22:45 1510791765.666925: $GPGSV,3,3,11,01,08,255,11,16,18,190,00,23,08,298,00*4E
2017-11-15 19:22:45 1510791765.780197: $GPZDA,002244.00,16,11,2017,00,00*65
2017-11-15 19:22:45 1510791765.780356: $GPGGA,002244,3946.9601,N,08404.9432,W,1,08,1.60,292.86,M,-33.324,M,,*72
2017-11-15 19:22:45 1510791765.780417: $GPRMC,002244,A,3946.9601,N,08404.9432,W,0.8414,39.347,161117,,*0F
2017-11-15 19:22:45 1510791765.780473: $GPGSA,A,3,32,14,22,26,31,29,3,1,,,,,3.4,1.6,2.9*32
2017-11-15 19:22:46 1510791766.405074: $GPZDA,002245.00,16,11,2017,00,00*64
2017-11-15 19:22:46 1510791766.405274: $GPGGA,002245,3946.9601,N,08404.9432,W,1,08,1.60,292.86,M,-33.324,M,,*73
2017-11-15 19:22:46 1510791766.405335: $GPRMC,002245,A,3946.9601,N,08404.9432,W,0.7278,23.636,161117,,*05
2017-11-15 19:22:46 1510791766.405391: $GPGSA,A,3,32,14,22,26,31,29,3,1,,,,,3.4,1.6,2.9*32
2017-11-15 19:22:47 1510791767.345924: $GPZDA,002246.00,16,11,2017,00,00*67
2017-11-15 19:22:47 1510791767.346112: $GPGGA,002246,3946.9606,N,08404.9432,W,1,08,1.60,293.50,M,-33.324,M,,*7D
2017-11-15 19:22:47 1510791767.346174: $GPRMC,002246,A,3946.9606,N,08404.9432,W,0.7278,23.636,161117,,*01
2017-11-15 19:22:47 1510791767.346257: $GPGSA,A,3,32,14,22,26,31,29,3,1,,,,,3.4,1.6,2.9*32
2017-11-15 19:22:48 1510791768.682931: $GPGSV,3,1,11,32,39,105,21,14,58,087,18,22,50,276,17,26,49,174,23*73
2017-11-15 19:22:48 1510791768.683123: $GPGSV,3,2,11,31,71,018,17,29,09,075,06,25,20,042,00,03,37,303,19*79
2017-11-15 19:22:48 1510791768.683184: $GPGSV,3,3,11,01,08,255,10,16,18,190,00,23,08,298,00*4F
2017-11-15 19:22:48 1510791768.796307: $GPZDA,002247.00,16,11,2017,00,00*66
2017-11-15 19:22:48 1510791768.796478: $GPGGA,002247,3946.9606,N,08404.9432,W,1,08,1.60,293.50,M,-33.324,M,,*7C
2017-11-15 19:22:48 1510791768.796539: $GPRMC,002247,A,3946.9606,N,08404.9432,W,1.2361,14.852,161117,,*05
2017-11-15 19:22:48 1510791768.796647: $GPGSA,A,3,32,14,22,26,31,29,3,1,,,,,3.4,1.6,2.9*32
2017-11-15 19:22:49 1510791769.345904: $GPZDA,002248.00,16,11,2017,00,00*69
2017-11-15 19:22:49 1510791769.346065: $GPGGA,002248,3946.9613,N,08404.9431,W,1,08,1.60,293.38,M,-33.324,M,,*7A
2017-11-15 19:22:49 1510791769.346147: $GPRMC,002248,A,3946.9613,N,08404.9431,W,0.7278,23.636,161117,,*08
2017-11-15 19:22:49 1510791769.346203: $GPGSA,A,3,32,14,22,26,31,29,3,1,,,,,3.4,1.6,2.9*32
2017-11-15 19:22:50 1510791770.345554: $GPZDA,002249.00,16,11,2017,00,00*68
2017-11-15 19:22:50 1510791770.345718: $GPGGA,002249,3946.9613,N,08404.9431,W,1,08,1.40,293.38,M,-33.324,M,,*79
2017-11-15 19:22:50 1510791770.345780: $GPRMC,002249,A,3946.9613,N,08404.9431,W,0.7103,45.706,161117,,*04
2017-11-15 19:22:50 1510791770.345836: $GPGSA,A,3,32,14,22,26,31,29,3,1,,,,,3.4,1.4,2.9*30
2017-11-15 19:22:51 1510791771.665784: $GPGSV,3,1,11,32,39,105,21,14,58,087,18,22,50,276,17,26,49,174,23*73
2017-11-15 19:22:51 1510791771.665958: $GPGSV,3,2,11,31,71,018,19,29,09,075,07,16,18,190,11,03,37,303,19*73
2017-11-15 19:22:51 1510791771.666018: $GPGSV,3,3,11,01,08,255,10,25,20,042,00,23,08,298,00*4A
2017-11-15 19:22:51 1510791771.779181: $GPZDA,002250.00,16,11,2017,00,00*60
2017-11-15 19:22:51 1510791771.779368: $GPGGA,002250,3946.9613,N,08404.9431,W,1,08,1.40,293.38,M,-33.324,M,,*71
2017-11-15 19:22:51 1510791771.779430: $GPRMC,002250,A,3946.9613,N,08404.9431,W,0.8054,68.645,161117,,*09
2017-11-15 19:22:51 1510791771.779486: $GPGSA,A,3,32,14,22,26,31,29,3,1,,,,,3.4,1.4,2.9*30
