2017-11-15 19:32:07 1510792327.483487: {"class":"VERSION","release":"3.17","rev":"3.17","proto_major":3,"proto_minor":12}
2017-11-15 19:32:07 1510792327.483996: {"class":"DEVICES","devices":[{"class":"DEVICE","path":"/dev/ttyUSB0","driver":"SiRF","subtype":"9\u0006GSD4e_4.1.2-P1_RPATCH.05-F-GPS-4R-1510281 11/03/2015 307","activated":"2017-11-16T00:32:07.462Z","flags":1,"native":1,"bps":4800,"parity":"N","stopbits":1,"cycle":1.00}]}
2017-11-15 19:32:07 1510792327.484109: {"class":"WATCH","enable":true,"json":false,"nmea":true,"raw":0,"scaled":false,"timing":false,"split24":false,"pps":false}
2017-11-15 19:32:08 1510792328.329367: $GPZDA,003207.00,16,11,2017,00,00*63
2017-11-15 19:32:08 1510792328.329542: $GPGGA,003207,3946.9610,N,08404.9511,W,1,07,1.40,284.76,M,-33.324,M,,*71
2017-11-15 19:32:08 1510792328.329607: $GPRMC,003207,A,3946.9610,N,08404.9511,W,0.2422,93.794,161117,,*0C
2017-11-15 19:32:08 1510792328.329664: $GPGSA,A,3,32,16,26,14,31,3,22,,,,,,3.4,1.4,2.9*0D
2017-11-15 19:32:09 1510792329.681433: $GPGSV,3,1,12,32,36,108,21,29,11,070,10,16,23,190,13,26,53,172,20*73
2017-11-15 19:32:09 1510792329.681609: $GPGSV,3,2,12,14,55,093,19,31,67,025,13,03,40,298,20,25,17,040,00*79
2017-11-15 19:32:09 1510792329.681670: $GPGSV,3,3,12,23,11,301,00,01,05,252,00,22,50,270,19,120,07,103,00*46
2017-11-15 19:32:09 1510792329.795108: $GPZDA,003208.00,16,11,2017,00,00*6C
2017-11-15 19:32:09 1510792329.795267: $GPGGA,003208,3946.9610,N,08404.9511,W,1,08,1.40,284.76,M,-33.324,M,,*71
2017-11-15 19:32:09 1510792329.795328: $GPRMC,003208,A,3946.9610,N,08404.9511,W,0.4207,39.347,161117,,*0E
2017-11-15 19:32:09 1510792329.795383: $GPGSA,A,3,32,29,16,26,14,31,3,22,,,,,3.4,1.4,2.9*06
2017-11-15 19:32:10 1510792330.345963: $GPZDA,003209.00,16,11,2017,00,00*6D
2017-11-15 19:32:10 1510792330.346124: $GPGGA,003209,3946.9610,N,08404.9511,W,1,08,1.40,284.76,M,-33.324,M,,*70
2017-11-15 19:32:10 1510792330.346184: $GPRMC,003209,A,3946.9610,N,08404.9511,W,0.0000,0.000,161117,,*34
2017-11-15 19:32:10 1510792330.346241: $GPGSA,A,3,32,29,16,26,14,31,3,22,,,,,3.4,1.4,2.9*06
2017-11-15 19:32:11 1510792331.346328: $GPZDA,003210.00,16,11,2017,00,00*65
2017-11-15 19:32:11 1510792331.346494: $GPGGA,003210,3946.9613,N,08404.9504,W,1,08,1.40,284.08,M,-33.324,M,,*76
2017-11-15 19:32:11 1510792331.346555: $GPRMC,003210,A,3946.9613,N,08404.9504,W,0.4207,39.347,161117,,*00
2017-11-15 19:32:11 1510792331.346614: $GPGSA,A,3,32,29,16,26,14,31,3,22,,,,,3.4,1.4,2.9*06
2017-11-15 19:32:12 1510792332.681810: $GPGSV,3,1,12,32,36,108,21,29,11,070,10,16,23,190,12,26,53,172,20*72
2017-11-15 19:32:12 1510792332.681982: $GPGSV,3,2,12,14,55,093,18,31,67,025,11,03,40,298,20,25,17,040,00*7A
2017-11-15 19:32:12 1510792332.682041: $GPGSV,3,3,12,23,11,301,00,01,05,252,00,22,50,270,19,120,07,103,00*46
2017-11-15 19:32:12 1510792332.795469: $GPZDA,003211.00,16,11,2017,00,00*64
2017-11-15 19:32:12 1510792332.795624: $GPGGA,003211,3946.9609,N,08404.9504,W,1,08,1.40,283.44,M,-33.324,M,,*73
2017-11-15 19:32:12 1510792332.795685: $GPRMC,003211,A,3946.9609,N,08404.9504,W,0.8054,68.645,161117,,*01
2017-11-15 19:32:12 1510792332.795740: $GPGSA,A,3,32,29,16,26,14,31,3,22,,,,,3.4,1.4,2.9*06
2017-11-15 19:32:13 1510792333.329763: $GPZDA,003212.00,16,11,2017,00,00*67
2017-11-15 19:32:13 1510792333.329927: $GPGGA,003212,3946.9605,N,08404.9497,W,1,08,1.40,284.28,M,-33.324,M,,*7A
2017-11-15 19:32:13 1510792333.329987: $GPRMC,003212,A,3946.9605,N,08404.9497,W,0.2422,93.794,161117,,*03
2017-11-15 19:32:13 1510792333.330043: $GPGSA,A,3,32,29,16,26,14,31,3,22,,,,,3.4,1.4,2.9*06
2017-11-15 19:32:14 1510792334.328180: $GPZDA,003213.00,16,11,2017,00,00*66
2017-11-15 19:32:14 1510792334.328360: $GPGGA,003213,3946.9605,N,08404.9497,W,1,08,1.40,284.28,M,-33.324,M,,*7B
2017-11-15 19:32:14 1510792334.328426: $GPRMC,003213,A,3946.9605,N,08404.9497,W,0.7238,140.710,161117,,*39
2017-11-15 19:32:14 1510792334.328488: $GPGSA,A,3,32,29,16,26,14,31,3,22,,,,,3.4,1.4,2.9*06
2017-11-15 19:32:15 1510792335.681396: $GPGSV,3,1,12,32,36,108,21,29,11,070,06,16,23,190,14,26,53,172,20*73
2017-11-15 19:32:15 1510792335.681578: $GPGSV,3,2,12,14,55,093,18,31,67,025,13,03,40,298,20,25,17,040,00*78
2017-11-15 19:32:15 1510792335.681691: $GPGSV,3,3,12,23,11,301,00,01,05,252,00,22,50,270,20,120,07,103,00*4C
2017-11-15 19:32:15 1510792335.794700: $GPZDA,003214.00,16,11,2017,00,00*61
2017-11-15 19:32:15 1510792335.794876: $GPGGA,003214,3946.9601,N,08404.9497,W,1,07,1.40,283.64,M,-33.324,M,,*78
2017-11-15 19:32:15 1510792335.794939: $GPRMC,003214,A,3946.9601,N,08404.9497,W,0.9060,167.792,161117,,*34
2017-11-15 19:32:15 1510792335.794994: $GPGSA,A,3,32,16,26,14,31,3,22,,,,,,3.4,1.4,2.9*0D
2017-11-15 19:32:16 1510792336.420110: $GPZDA,003215.00,16,11,2017,00,00*60
2017-11-15 19:32:16 1510792336.420271: $GPGGA,003215,3946.9597,N,08404.9491,W,1,07,1.40,284.49,M,-33.324,M,,*7B
2017-11-15 19:32:16 1510792336.420334: $GPRMC,003215,A,3946.9597,N,08404.9491,W,0.7246,164.668,161117,,*30
2017-11-15 19:32:16 1510792336.420389: $GPGSA,A,3,32,16,26,14,31,3,22,,,,,,3.4,1.4,2.9*0D
2017-11-15 19:32:17 1510792337.330114: $GPZDA,003216.00,16,11,2017,00,00*63
2017-11-15 19:32:17 1510792337.330275: $GPGGA,003216,3946.9593,N,08404.9491,W,1,07,1.40,283.85,M,-33.324,M,,*7B
2017-11-15 19:32:17 1510792337.330338: $GPRMC,003216,A,3946.9593,N,08404.9491,W,0.2422,273.794,161117,,*31
2017-11-15 19:32:17 1510792337.330393: $GPGSA,A,3,32,16,26,14,31,3,22,,,,,,3.4,1.4,2.9*0D
