2017-11-16 14:06:44 1510859204.080751: {"class":"VERSION","release":"3.17","rev":"3.17","proto_major":3,"proto_minor":12}
2017-11-16 14:06:44 1510859204.081497: {"class":"DEVICES","devices":[{"class":"DEVICE","path":"/dev/ttyUSB0","driver":"SiRF","subtype":"9\u0006GSD4e_4.1.2-P1_RPATCH.05-F-GPS-4R-1510281 11/03/2015 307","activated":"2017-11-16T19:06:43.875Z","flags":1,"native":1,"bps":4800,"parity":"N","stopbits":1,"cycle":1.00}]}
2017-11-16 14:06:44 1510859204.081626: {"class":"WATCH","enable":true,"json":false,"nmea":true,"raw":0,"scaled":false,"timing":false,"split24":false,"pps":false}
2017-11-16 14:06:44 1510859204.556632: $GPZDA,190643.00,16,11,2017,00,00*6C
2017-11-16 14:06:44 1510859204.556816: $GPGGA,190643,3946.9570,N,08404.9844,W,2,11,0.80,306.19,M,-33.324,M,,*7D
2017-11-16 14:06:44 1510859204.556878: $GPRMC,190643,A,3946.9570,N,08404.9844,W,0.0000,0.000,161117,,*3D
2017-11-16 14:06:44 1510859204.556935: $GPGSA,A,3,10,13,15,18,20,21,24,32,8,27,138,,1.6,0.8,1.3*30
2017-11-16 14:06:45 1510859205.868390: $GPGSV,3,1,12,10,39,298,44,13,10,048,25,15,40,051,51,18,69,330,48*72
2017-11-16 14:06:45 1510859205.868572: $GPGSV,3,2,12,20,35,093,46,21,67,193,46,24,49,115,48,32,18,235,45*73
2017-11-16 14:06:45 1510859205.868634: $GPGSV,3,3,12,08,05,324,29,27,19,292,35,14,02,231,09,138,38,213,45*45
2017-11-16 14:06:45 1510859205.983415: $GPZDA,190644.00,16,11,2017,00,00*6B
2017-11-16 14:06:45 1510859205.983586: $GPGGA,190644,3946.9570,N,08404.9844,W,2,11,0.80,306.19,M,-33.324,M,,*7A
2017-11-16 14:06:45 1510859205.983648: $GPRMC,190644,A,3946.9570,N,08404.9844,W,0.0000,0.000,161117,,*3A
2017-11-16 14:06:45 1510859205.983705: $GPGSA,A,3,10,13,15,18,20,21,24,32,8,27,138,,1.6,0.8,1.3*30
2017-11-16 14:06:46 1510859206.560532: $GPZDA,190645.00,16,11,2017,00,00*6A
2017-11-16 14:06:46 1510859206.560711: $GPGGA,190645,3946.9570,N,08404.9844,W,2,11,0.80,306.19,M,-33.324,M,,*7B
2017-11-16 14:06:46 1510859206.560774: $GPRMC,190645,A,3946.9570,N,08404.9844,W,0.0000,0.000,161117,,*3B
2017-11-16 14:06:46 1510859206.560831: $GPGSA,A,3,10,13,15,18,20,21,24,32,8,27,138,,1.6,0.8,1.3*30
2017-11-16 14:06:47 1510859207.561131: $GPZDA,190646.00,16,11,2017,00,00*69
2017-11-16 14:06:47 1510859207.561301: $GPGGA,190646,3946.9570,N,08404.9844,W,2,11,0.80,306.19,M,-33.324,M,,*78
2017-11-16 14:06:47 1510859207.561363: $GPRMC,190646,A,3946.9570,N,08404.9844,W,0.0000,0.000,161117,,*38
2017-11-16 14:06:47 1510859207.561420: $GPGSA,A,3,10,13,15,18,20,21,24,32,8,27,138,,1.6,0.8,1.3*30
2017-11-16 14:06:48 1510859208.897012: $GPGSV,3,1,12,10,39,298,43,13,10,048,26,15,40,051,51,18,69,330,48*76
2017-11-16 14:06:48 1510859208.897194: $GPGSV,3,2,12,20,35,093,46,21,67,193,46,24,49,115,47,32,18,235,45*7C
2017-11-16 14:06:48 1510859208.897255: $GPGSV,3,3,12,08,05,324,34,27,19,292,35,14,02,231,10,138,38,213,44*40
2017-11-16 14:06:49 1510859209.010368: $GPZDA,190647.00,16,11,2017,00,00*68
2017-11-16 14:06:49 1510859209.010532: $GPGGA,190647,3946.9573,N,08404.9843,W,2,11,0.80,305.43,M,-33.324,M,,*71
2017-11-16 14:06:49 1510859209.010592: $GPRMC,190647,A,3946.9573,N,08404.9843,W,0.0000,0.000,161117,,*3D
2017-11-16 14:06:49 1510859209.010649: $GPGSA,A,3,10,13,15,18,20,21,24,32,8,27,138,,1.6,0.8,1.3*30
2017-11-16 14:06:49 1510859209.636977: $GPZDA,190648.00,16,11,2017,00,00*67
2017-11-16 14:06:49 1510859209.637142: $GPGGA,190648,3946.9573,N,08404.9843,W,2,11,0.80,305.43,M,-33.324,M,,*7E
2017-11-16 14:06:49 1510859209.637204: $GPRMC,190648,A,3946.9573,N,08404.9843,W,0.0000,0.000,161117,,*32
2017-11-16 14:06:49 1510859209.637277: $GPGSA,A,3,10,13,15,18,20,21,24,32,8,27,138,,1.6,0.8,1.3*30
2017-11-16 14:06:50 1510859210.531786: $GPZDA,190649.00,16,11,2017,00,00*66
2017-11-16 14:06:50 1510859210.531958: $GPGGA,190649,3946.9573,N,08404.9843,W,2,11,0.80,305.43,M,-33.324,M,,*7F
2017-11-16 14:06:50 1510859210.532019: $GPRMC,190649,A,3946.9573,N,08404.9843,W,0.0000,0.000,161117,,*33
2017-11-16 14:06:50 1510859210.532075: $GPGSA,A,3,10,13,15,18,20,21,24,32,8,27,138,,1.6,0.8,1.3*30
2017-11-16 14:06:51 1510859211.866357: $GPGSV,3,1,12,10,39,298,42,13,10,048,26,15,40,051,51,18,69,330,48*77
2017-11-16 14:06:51 1510859211.866600: $GPGSV,3,2,12,20,35,093,46,21,67,193,46,24,49,115,47,32,18,235,44*7D
2017-11-16 14:06:51 1510859211.866664: $GPGSV,3,3,12,08,05,324,34,27,19,292,35,14,02,231,00,138,38,213,43*46
2017-11-16 14:06:51 1510859211.979747: $GPZDA,190650.00,16,11,2017,00,00*6E
2017-11-16 14:06:51 1510859211.979900: $GPGGA,190650,3946.9573,N,08404.9843,W,2,11,0.80,305.43,M,-33.324,M,,*77
2017-11-16 14:06:51 1510859211.979962: $GPRMC,190650,A,3946.9573,N,08404.9843,W,0.0000,0.000,161117,,*3B
2017-11-16 14:06:51 1510859211.980017: $GPGSA,A,3,10,13,15,18,20,21,24,32,8,27,138,,1.6,0.8,1.3*30
2017-11-16 14:06:52 1510859212.530676: $GPZDA,190651.00,16,11,2017,00,00*6F
2017-11-16 14:06:52 1510859212.530828: $GPGGA,190651,3946.9573,N,08404.9843,W,2,11,0.80,305.43,M,-33.324,M,,*76
2017-11-16 14:06:52 1510859212.530889: $GPRMC,190651,A,3946.9573,N,08404.9843,W,0.0000,0.000,161117,,*3A
2017-11-16 14:06:52 1510859212.530946: $GPGSA,A,3,10,13,15,18,20,21,24,32,8,27,138,,1.6,0.8,1.3*30
2017-11-16 14:06:53 1510859213.536663: $GPZDA,190652.00,16,11,2017,00,00*6C
2017-11-16 14:06:53 1510859213.536820: $GPGGA,190652,3946.9573,N,08404.9843,W,2,11,0.80,305.43,M,-33.324,M,,*75
2017-11-16 14:06:53 1510859213.536881: $GPRMC,190652,A,3946.9573,N,08404.9843,W,0.0000,0.000,161117,,*39
2017-11-16 14:06:53 1510859213.536937: $GPGSA,A,3,10,13,15,18,20,21,24,32,8,27,138,,1.6,0.8,1.3*30
