2017-12-31 18:35:28 1514763328.578028: {"class":"VERSION","release":"3.16","rev":"3.16-4","proto_major":3,"proto_minor":11}
2017-12-31 18:35:28 1514763328.578428: {"class":"DEVICES","devices":[{"class":"DEVICE","path":"/dev/ttyUSB0","driver":"SiRF","activated":"2017-12-31T23:35:28.493Z","flags":1,"native":1,"bps":4800,"parity":"N","stopbits":1,"cycle":1.00}]}
2017-12-31 18:35:28 1514763328.578526: {"class":"WATCH","enable":true,"json":false,"nmea":true,"raw":0,"scaled":false,"timing":false,"split24":false,"pps":false}
2017-12-31 18:35:29 1514763329.387900: $GPZDA,233530.00,31,12,2017,00,00*67
2017-12-31 18:35:29 1514763329.388063: $GPGGA,233530,3946.9574,N,08404.9830,W,2,12,0.80,308.39,M,-33.324,M,,*78
2017-12-31 18:35:29 1514763329.388129: $GPRMC,233530,A,3946.9574,N,08404.9830,W,0.0000,0.000,311217,,*31
2017-12-31 18:35:29 1514763329.388190: $GPGSA,A,3,22,23,9,3,16,8,14,31,27,7,26,135,1.7,0.8,1.3*0C
2017-12-31 18:35:30 1514763330.688094: $GPGSV,3,1,12,22,13,207,22,23,64,294,41,09,31,312,41,03,23,225,40*7B
2017-12-31 18:35:30 1514763330.688272: $GPGSV,3,2,12,16,84,043,41,08,10,177,25,14,05,138,22,31,20,084,40*7F
2017-12-31 18:35:30 1514763330.688338: $GPGSV,3,3,12,27,33,147,40,07,06,280,34,26,50,046,47,135,22,240,43*43
2017-12-31 18:35:30 1514763330.801418: $GPZDA,233531.00,31,12,2017,00,00*66
2017-12-31 18:35:30 1514763330.801559: $GPGGA,233531,3946.9574,N,08404.9830,W,2,12,0.80,308.39,M,-33.324,M,,*79
2017-12-31 18:35:30 1514763330.801624: $GPRMC,233531,A,3946.9574,N,08404.9830,W,0.0000,0.000,311217,,*30
2017-12-31 18:35:30 1514763330.801684: $GPGSA,A,3,22,23,9,3,16,8,14,31,27,7,26,135,1.7,0.8,1.3*0C
2017-12-31 18:35:31 1514763331.351031: $GPZDA,233532.00,31,12,2017,00,00*65
2017-12-31 18:35:31 1514763331.351190: $GPGGA,233532,3946.9574,N,08404.9830,W,2,12,1.00,308.39,M,-33.324,M,,*73
2017-12-31 18:35:31 1514763331.351256: $GPRMC,233532,A,3946.9574,N,08404.9830,W,0.0000,0.000,311217,,*33
2017-12-31 18:35:31 1514763331.351316: $GPGSA,A,3,22,23,9,3,16,8,14,31,27,7,26,135,1.7,1.0,1.3*05
2017-12-31 18:35:32 1514763332.379584: $GPZDA,233533.00,31,12,2017,00,00*64
2017-12-31 18:35:32 1514763332.379740: $GPGGA,233533,3946.9574,N,08404.9830,W,2,12,0.80,308.39,M,-33.324,M,,*7B
2017-12-31 18:35:32 1514763332.379805: $GPRMC,233533,A,3946.9574,N,08404.9830,W,0.0000,0.000,311217,,*32
2017-12-31 18:35:32 1514763332.379865: $GPGSA,A,3,22,23,9,3,16,8,14,31,27,7,26,135,1.7,0.8,1.3*0C
2017-12-31 18:35:33 1514763333.687688: $GPGSV,3,1,12,22,13,207,23,23,64,294,40,09,31,312,41,03,23,225,40*7B
2017-12-31 18:35:33 1514763333.687871: $GPGSV,3,2,12,16,84,043,42,08,10,177,28,14,05,138,22,31,20,084,40*71
2017-12-31 18:35:33 1514763333.687936: $GPGSV,3,3,12,27,33,147,40,07,06,280,35,26,50,046,47,135,22,240,44*45
2017-12-31 18:35:33 1514763333.801013: $GPZDA,233534.00,31,12,2017,00,00*63
2017-12-31 18:35:33 1514763333.801168: $GPGGA,233534,3946.9574,N,08404.9830,W,2,12,0.80,308.39,M,-33.324,M,,*7C
2017-12-31 18:35:33 1514763333.801233: $GPRMC,233534,A,3946.9574,N,08404.9830,W,0.0000,0.000,311217,,*35
2017-12-31 18:35:33 1514763333.801293: $GPGSA,A,3,22,23,9,3,16,8,14,31,27,7,26,135,1.7,0.8,1.3*0C
2017-12-31 18:35:34 1514763334.351915: $GPZDA,233535.00,31,12,2017,00,00*62
2017-12-31 18:35:34 1514763334.352068: $GPGGA,233535,3946.9574,N,08404.9830,W,2,12,0.80,308.39,M,-33.324,M,,*7D
2017-12-31 18:35:34 1514763334.352135: $GPRMC,233535,A,3946.9574,N,08404.9830,W,0.0000,0.000,311217,,*34
2017-12-31 18:35:34 1514763334.352196: $GPGSA,A,3,22,23,9,3,16,8,14,31,27,7,26,135,1.7,0.8,1.3*0C
2017-12-31 18:35:35 1514763335.352618: $GPZDA,233536.00,31,12,2017,00,00*61
2017-12-31 18:35:35 1514763335.352790: $GPGGA,233536,3946.9574,N,08404.9830,W,2,12,0.80,308.39,M,-33.324,M,,*7E
2017-12-31 18:35:35 1514763335.352856: $GPRMC,233536,A,3946.9574,N,08404.9830,W,0.0000,0.000,311217,,*37
2017-12-31 18:35:35 1514763335.352917: $GPGSA,A,3,22,23,9,3,16,8,14,31,27,7,26,135,1.7,0.8,1.3*0C
2017-12-31 18:35:36 1514763336.690554: $GPGSV,3,1,12,22,13,207,00,23,64,294,40,09,31,312,41,03,23,225,39*74
2017-12-31 18:35:36 1514763336.690697: $GPGSV,3,2,12,16,84,043,42,08,10,177,28,14,05,138,22,31,20,084,40*71
2017-12-31 18:35:36 1514763336.690802: $GPGSV,3,3,12,27,33,147,40,07,06,280,34,26,50,046,47,135,22,240,44*44
2017-12-31 18:35:36 1514763336.804182: $GPZDA,233537.00,31,12,2017,00,00*60
2017-12-31 18:35:36 1514763336.804354: $GPGGA,233537,3946.9574,N,08404.9830,W,2,11,0.80,308.39,M,-33.324,M,,*7C
2017-12-31 18:35:36 1514763336.804435: $GPRMC,233537,A,3946.9574,N,08404.9830,W,0.0000,0.000,311217,,*36
2017-12-31 18:35:36 1514763336.804497: $GPGSA,A,3,23,9,3,16,8,14,31,27,7,26,135,,1.7,0.8,1.3*0C
2017-12-31 18:35:37 1514763337.392511: $GPZDA,233538.00,31,12,2017,00,00*6F
2017-12-31 18:35:37 1514763337.392689: $GPGGA,233538,3946.9578,N,08404.9830,W,2,11,0.80,309.03,M,-33.324,M,,*77
2017-12-31 18:35:37 1514763337.392757: $GPRMC,233538,A,3946.9578,N,08404.9830,W,0.0000,0.000,311217,,*35
2017-12-31 18:35:37 1514763337.392819: $GPGSA,A,3,23,9,3,16,8,14,31,27,7,26,135,,1.7,0.8,1.3*0C
2017-12-31 18:35:38 1514763338.353396: $GPZDA,233539.00,31,12,2017,00,00*6E
2017-12-31 18:35:38 1514763338.353582: $GPGGA,233539,3946.9578,N,08404.9830,W,2,11,0.80,309.03,M,-33.324,M,,*76
2017-12-31 18:35:38 1514763338.353651: $GPRMC,233539,A,3946.9578,N,08404.9830,W,0.0000,0.000,311217,,*34
2017-12-31 18:35:38 1514763338.353712: $GPGSA,A,3,23,9,3,16,8,14,31,27,7,26,135,,1.7,0.8,1.3*0C
