2017-12-29 11:55:48 1514566548.027734: {"class":"VERSION","release":"3.16","rev":"3.16-4","proto_major":3,"proto_minor":11}
2017-12-29 11:55:48 1514566548.028069: {"class":"DEVICES","devices":[{"class":"DEVICE","path":"/dev/ttyUSB0","driver":"SiRF","subtype":"9\u0006GSD4e_4.1.2-P1_RPATCH.05-F-GPS-4R-1510281 11/03/2015 307","activated":"2017-12-29T16:55:47.728Z","flags":1,"native":1,"bps":4800,"parity":"N","stopbits":1,"cycle":1.00}]}
2017-12-29 11:55:48 1514566548.028183: {"class":"WATCH","enable":true,"json":false,"nmea":true,"raw":0,"scaled":false,"timing":false,"split24":false,"pps":false}
2017-12-29 11:55:48 1514566548.748719: $GPGSV,3,1,11,08,08,307,33,10,56,315,46,15,22,060,45,18,77,043,45*74
2017-12-29 11:55:48 1514566548.748925: $GPGSV,3,2,11,20,21,108,49,21,44,181,46,24,52,079,50,32,36,252,37*7B
2017-12-29 11:55:48 1514566548.748998: $GPGSV,3,3,11,14,17,243,29,27,14,273,31,138,38,213,44*71
2017-12-29 11:55:48 1514566548.860652: $GPZDA,165549.00,29,12,2017,00,00*60
2017-12-29 11:55:48 1514566548.860818: $GPGGA,165549,3946.9636,N,08404.9883,W,2,11,0.80,311.74,M,-33.324,M,,*79
2017-12-29 11:55:48 1514566548.860885: $GPRMC,165549,A,3946.9636,N,08404.9883,W,0.0000,0.000,291217,,*3B
2017-12-29 11:55:48 1514566548.860945: $GPGSA,A,3,8,10,15,18,20,21,24,32,14,27,138,,1.7,0.8,1.3*36
2017-12-29 11:55:49 1514566549.414016: $GPZDA,165550.00,29,12,2017,00,00*68
2017-12-29 11:55:49 1514566549.414196: $GPGGA,165550,3946.9636,N,08404.9883,W,2,11,0.80,311.74,M,-33.324,M,,*71
2017-12-29 11:55:49 1514566549.414269: $GPRMC,165550,A,3946.9636,N,08404.9883,W,0.0000,0.000,291217,,*33
2017-12-29 11:55:49 1514566549.414333: $GPGSA,A,3,8,10,15,18,20,21,24,32,14,27,138,,1.7,0.8,1.3*36
2017-12-29 11:55:50 1514566550.414943: $GPZDA,165551.02,29,12,2017,00,00*6B
2017-12-29 11:55:50 1514566550.415116: $GPGGA,165551,3946.9630,N,08404.9879,W,2,11,0.80,316.16,M,-33.324,M,,*70
2017-12-29 11:55:50 1514566550.415185: $GPRMC,165551,A,3946.9630,N,08404.9879,W,0.4207,39.346,291217,,*0B
2017-12-29 11:55:50 1514566550.415251: $GPGSA,A,3,8,10,15,18,20,21,24,32,14,27,138,,1.7,0.8,1.3*36
2017-12-29 11:55:51 1514566551.749361: $GPGSV,3,1,11,08,08,307,34,10,56,315,46,15,22,060,45,18,77,043,45*73
2017-12-29 11:55:51 1514566551.749543: $GPGSV,3,2,11,20,21,108,49,21,44,181,46,24,52,079,50,32,36,252,38*74
2017-12-29 11:55:51 1514566551.749613: $GPGSV,3,3,11,14,17,243,29,27,14,273,32,138,38,213,46*70
2017-12-29 11:55:51 1514566551.862811: $GPZDA,165552.02,29,12,2017,00,00*68
2017-12-29 11:55:51 1514566551.862997: $GPGGA,165552,3946.9620,N,08404.9861,W,2,11,0.80,320.09,M,-33.324,M,,*70
2017-12-29 11:55:51 1514566551.863067: $GPRMC,165552,A,3946.9620,N,08404.9861,W,0.2422,93.794,291217,,*0C
2017-12-29 11:55:51 1514566551.863131: $GPGSA,A,3,8,10,15,18,20,21,24,32,14,27,138,,1.7,0.8,1.3*36
2017-12-29 11:55:52 1514566552.406084: $GPZDA,165553.02,29,12,2017,00,00*69
2017-12-29 11:55:52 1514566552.406263: $GPGGA,165553,3946.9624,N,08404.9861,W,2,11,0.80,320.73,M,-33.324,M,,*78
2017-12-29 11:55:52 1514566552.406332: $GPRMC,165553,A,3946.9624,N,08404.9861,W,0.0000,0.000,291217,,*3F
2017-12-29 11:55:52 1514566552.406396: $GPGSA,A,3,8,10,15,18,20,21,24,32,14,27,138,,1.7,0.8,1.3*36
2017-12-29 11:55:53 1514566553.412677: $GPZDA,165554.00,29,12,2017,00,00*6C
2017-12-29 11:55:53 1514566553.412851: $GPGGA,165554,3946.9624,N,08404.9861,W,2,11,0.80,320.73,M,-33.324,M,,*7F
2017-12-29 11:55:53 1514566553.412918: $GPRMC,165554,A,3946.9624,N,08404.9861,W,0.0000,0.000,291217,,*38
2017-12-29 11:55:53 1514566553.412982: $GPGSA,A,3,8,10,15,18,20,21,24,32,14,27,138,,1.7,0.8,1.3*36
2017-12-29 11:55:54 1514566554.748403: $GPGSV,3,1,11,08,08,307,33,10,56,315,46,15,22,060,45,18,77,043,45*74
2017-12-29 11:55:54 1514566554.748595: $GPGSV,3,2,11,20,21,108,49,21,44,181,46,24,52,079,50,32,36,252,38*74
2017-12-29 11:55:54 1514566554.748663: $GPGSV,3,3,11,14,17,243,30,27,14,273,32,138,38,213,45*7B
2017-12-29 11:55:54 1514566554.861821: $GPZDA,165555.00,29,12,2017,00,00*6D
2017-12-29 11:55:54 1514566554.861981: $GPGGA,165555,3946.9623,N,08404.9854,W,2,11,0.80,320.81,M,-33.324,M,,*72
2017-12-29 11:55:54 1514566554.862102: $GPRMC,165555,A,3946.9623,N,08404.9854,W,0.0000,0.000,291217,,*38
2017-12-29 11:55:54 1514566554.862165: $GPGSA,A,3,8,10,15,18,20,21,24,32,14,27,138,,1.7,0.8,1.3*36
2017-12-29 11:55:55 1514566555.412692: $GPZDA,165556.00,29,12,2017,00,00*6E
2017-12-29 11:55:55 1514566555.412850: $GPGGA,165556,3946.9620,N,08404.9855,W,2,11,1.00,321.58,M,-33.324,M,,*7F
2017-12-29 11:55:55 1514566555.412917: $GPRMC,165556,A,3946.9620,N,08404.9855,W,0.0000,0.000,291217,,*39
2017-12-29 11:55:55 1514566555.412978: $GPGSA,A,3,8,10,15,18,20,21,24,32,14,27,138,,1.7,1.0,1.3*3F
2017-12-29 11:55:56 1514566556.409803: $GPZDA,165557.00,29,12,2017,00,00*6F
2017-12-29 11:55:56 1514566556.409954: $GPGGA,165557,3946.9620,N,08404.9842,W,2,11,1.00,323.14,M,-33.324,M,,*72
2017-12-29 11:55:56 1514566556.410021: $GPRMC,165557,A,3946.9620,N,08404.9842,W,0.0000,0.000,291217,,*3E
2017-12-29 11:55:56 1514566556.410081: $GPGSA,A,3,8,10,15,18,20,21,24,32,14,27,138,,1.7,1.0,1.3*3F
2017-12-29 11:55:57 1514566557.751735: $GPGSV,3,1,11,08,08,307,33,10,56,315,46,15,22,060,45,18,77,043,45*74
2017-12-29 11:55:57 1514566557.751917: $GPGSV,3,2,11,20,21,108,49,21,44,181,46,24,52,079,50,32,36,252,38*74
2017-12-29 11:55:57 1514566557.751982: $GPGSV,3,3,11,14,17,243,17,27,14,273,30,138,38,213,44*7D
2017-12-29 11:55:57 1514566557.865129: $GPZDA,165558.00,29,12,2017,00,00*60
2017-12-29 11:55:57 1514566557.865286: $GPGGA,165558,3946.9620,N,08404.9842,W,2,10,1.00,323.14,M,-33.324,M,,*7C
2017-12-29 11:55:57 1514566557.865350: $GPRMC,165558,A,3946.9620,N,08404.9842,W,0.0000,0.000,291217,,*31
2017-12-29 11:55:57 1514566557.865410: $GPGSA,A,3,8,10,15,18,20,21,24,32,27,138,,,1.7,1.0,1.3*3A
2017-12-29 11:55:58 1514566558.490499: $GPZDA,165559.00,29,12,2017,00,00*61
2017-12-29 11:55:58 1514566558.490656: $GPGGA,165559,3946.9616,N,08404.9842,W,2,10,0.80,323.90,M,-33.324,M,,*7D
2017-12-29 11:55:58 1514566558.490722: $GPRMC,165559,A,3946.9616,N,08404.9842,W,0.0000,0.000,291217,,*35
2017-12-29 11:55:58 1514566558.490783: $GPGSA,A,3,8,10,15,18,20,21,24,32,27,138,,,1.7,0.8,1.3*33
2017-12-29 11:55:59 1514566559.412698: $GPZDA,165600.00,29,12,2017,00,00*6E
2017-12-29 11:55:59 1514566559.684911: $GPGGA,165600,3946.9616,N,08404.9842,W,2,10,0.80,323.90,M,-33.324,M,,*72
2017-12-29 11:55:59 1514566559.685075: $GPRMC,165600,A,3946.9616,N,08404.9842,W,0.0000,0.000,291217,,*3A
2017-12-29 11:55:59 1514566559.685142: $GPGSA,A,3,8,10,15,18,20,21,24,32,27,138,,,1.7,0.8,1.3*33
2017-12-29 11:56:00 1514566560.748477: $GPGSV,3,1,11,08,08,307,34,10,56,315,46,15,22,060,45,18,77,043,45*73
2017-12-29 11:56:00 1514566560.748670: $GPGSV,3,2,11,20,21,108,48,21,44,181,46,24,52,079,50,32,36,252,38*75
2017-12-29 11:56:00 1514566560.748738: $GPGSV,3,3,11,14,17,243,30,27,14,273,31,138,38,213,44*79
2017-12-29 11:56:00 1514566560.861887: $GPZDA,165601.00,29,12,2017,00,00*6F
2017-12-29 11:56:00 1514566560.862041: $GPGGA,165601,3946.9616,N,08404.9842,W,2,11,0.80,323.90,M,-33.324,M,,*72
2017-12-29 11:56:00 1514566560.862110: $GPRMC,165601,A,3946.9616,N,08404.9842,W,0.0000,0.000,291217,,*3B
2017-12-29 11:56:00 1514566560.862173: $GPGSA,A,3,8,10,15,18,20,21,24,32,14,27,138,,1.7,0.8,1.3*36
2017-12-29 11:56:01 1514566561.412675: $GPZDA,165602.00,29,12,2017,00,00*6C
2017-12-29 11:56:01 1514566561.412848: $GPGGA,165602,3946.9616,N,08404.9842,W,2,11,0.80,323.90,M,-33.324,M,,*71
2017-12-29 11:56:01 1514566561.412917: $GPRMC,165602,A,3946.9616,N,08404.9842,W,0.0000,0.000,291217,,*38
2017-12-29 11:56:01 1514566561.412980: $GPGSA,A,3,8,10,15,18,20,21,24,32,14,27,138,,1.7,0.8,1.3*36
2017-12-29 11:56:02 1514566562.413608: $GPZDA,165603.00,29,12,2017,00,00*6D
2017-12-29 11:56:02 1514566562.413782: $GPGGA,165603,3946.9616,N,08404.9835,W,2,11,0.80,323.98,M,-33.324,M,,*78
2017-12-29 11:56:02 1514566562.413851: $GPRMC,165603,A,3946.9616,N,08404.9835,W,0.0000,0.000,291217,,*39
2017-12-29 11:56:02 1514566562.413915: $GPGSA,A,3,8,10,15,18,20,21,24,32,14,27,138,,1.7,0.8,1.3*36
