2017-11-16 13:52:45 1510858365.176125: {"class":"VERSION","release":"3.17","rev":"3.17","proto_major":3,"proto_minor":12}
2017-11-16 13:52:45 1510858365.176618: {"class":"DEVICES","devices":[{"class":"DEVICE","path":"/dev/ttyUSB0","driver":"SiRF","subtype":"9\u0006GSD4e_4.1.2-P1_RPATCH.05-F-GPS-4R-1510281 11/03/2015 307","activated":"2017-11-16T18:52:45.175Z","flags":1,"native":1,"bps":4800,"parity":"N","stopbits":1,"cycle":1.00}]}
2017-11-16 13:52:45 1510858365.176737: {"class":"WATCH","enable":true,"json":false,"nmea":true,"raw":0,"scaled":false,"timing":false,"split24":false,"pps":false}
2017-11-16 13:52:45 1510858365.351870: $GPZDA,185244.00,16,11,2017,00,00*6B
2017-11-16 13:52:45 1510858365.352046: $GPGGA,185244,3946.9608,N,08404.9827,W,2,10,0.80,307.13,M,-33.324,M,,*79
2017-11-16 13:52:45 1510858365.352109: $GPRMC,185244,A,3946.9608,N,08404.9827,W,0.0000,0.000,161117,,*33
2017-11-16 13:52:45 1510858365.352181: $GPGSA,A,3,10,13,15,18,20,21,24,27,32,138,,,1.6,0.8,1.3*08
2017-11-16 13:52:46 1510858366.690215: $GPGSV,3,1,11,10,34,294,40,13,16,046,45,15,47,049,51,18,64,318,49*72
2017-11-16 13:52:46 1510858366.690499: $GPGSV,3,2,11,20,40,087,48,21,73,205,47,24,45,124,45,27,19,300,38*7A
2017-11-16 13:52:46 1510858366.690562: $GPGSV,3,3,11,32,12,232,31,08,02,328,01,138,38,213,44*79
2017-11-16 13:52:46 1510858366.803627: $GPZDA,185245.00,16,11,2017,00,00*6A
2017-11-16 13:52:46 1510858366.803805: $GPGGA,185245,3946.9608,N,08404.9827,W,2,10,0.80,307.13,M,-33.324,M,,*78
2017-11-16 13:52:46 1510858366.803866: $GPRMC,185245,A,3946.9608,N,08404.9827,W,0.0000,0.000,161117,,*32
2017-11-16 13:52:46 1510858366.803922: $GPGSA,A,3,10,13,15,18,20,21,24,27,32,138,,,1.6,0.8,1.3*08
2017-11-16 13:52:47 1510858367.429081: $GPZDA,185246.00,16,11,2017,00,00*69
2017-11-16 13:52:47 1510858367.429257: $GPGGA,185246,3946.9608,N,08404.9827,W,2,10,0.80,307.13,M,-33.324,M,,*7B
2017-11-16 13:52:47 1510858367.429335: $GPRMC,185246,A,3946.9608,N,08404.9827,W,0.0000,0.000,161117,,*31
2017-11-16 13:52:47 1510858367.429393: $GPGSA,A,3,10,13,15,18,20,21,24,27,32,138,,,1.6,0.8,1.3*08
2017-11-16 13:52:48 1510858368.352481: $GPZDA,185247.00,16,11,2017,00,00*68
2017-11-16 13:52:48 1510858368.352651: $GPGGA,185247,3946.9608,N,08404.9827,W,2,10,0.80,307.13,M,-33.324,M,,*7A
2017-11-16 13:52:48 1510858368.352713: $GPRMC,185247,A,3946.9608,N,08404.9827,W,0.0000,0.000,161117,,*30
2017-11-16 13:52:48 1510858368.352768: $GPGSA,A,3,10,13,15,18,20,21,24,27,32,138,,,1.6,0.8,1.3*08
2017-11-16 13:52:49 1510858369.688313: $GPGSV,3,1,11,10,34,294,42,13,16,046,44,15,47,049,51,18,64,318,49*71
2017-11-16 13:52:49 1510858369.688518: $GPGSV,3,2,11,20,40,087,48,21,73,205,47,24,45,124,45,27,19,300,38*7A
2017-11-16 13:52:49 1510858369.688580: $GPGSV,3,3,11,32,12,232,32,08,02,328,20,138,38,213,44*79
2017-11-16 13:52:49 1510858369.801702: $GPZDA,185248.00,16,11,2017,00,00*67
2017-11-16 13:52:49 1510858369.801862: $GPGGA,185248,3946.9608,N,08404.9827,W,2,11,0.80,307.13,M,-33.324,M,,*74
2017-11-16 13:52:49 1510858369.801922: $GPRMC,185248,A,3946.9608,N,08404.9827,W,0.0000,0.000,161117,,*3F
2017-11-16 13:52:49 1510858369.801977: $GPGSA,A,3,10,13,15,18,20,21,24,27,32,8,138,,1.6,0.8,1.3*30
2017-11-16 13:52:50 1510858370.351346: $GPZDA,185249.00,16,11,2017,00,00*66
2017-11-16 13:52:50 1510858370.351551: $GPGGA,185249,3946.9608,N,08404.9827,W,2,11,0.80,307.13,M,-33.324,M,,*75
2017-11-16 13:52:50 1510858370.351612: $GPRMC,185249,A,3946.9608,N,08404.9827,W,0.0000,0.000,161117,,*3E
2017-11-16 13:52:50 1510858370.351669: $GPGSA,A,3,10,13,15,18,20,21,24,27,32,8,138,,1.6,0.8,1.3*30
2017-11-16 13:52:51 1510858371.354870: $GPZDA,185250.00,16,11,2017,00,00*6E
2017-11-16 13:52:51 1510858371.355067: $GPGGA,185250,3946.9608,N,08404.9827,W,2,11,0.80,307.13,M,-33.324,M,,*7D
2017-11-16 13:52:51 1510858371.355151: $GPRMC,185250,A,3946.9608,N,08404.9827,W,0.0000,0.000,161117,,*36
2017-11-16 13:52:51 1510858371.355210: $GPGSA,A,3,10,13,15,18,20,21,24,27,32,8,138,,1.6,0.8,1.3*30
2017-11-16 13:52:52 1510858372.688909: $GPGSV,3,1,11,10,34,294,42,13,16,046,44,15,47,049,51,18,64,318,49*71
2017-11-16 13:52:52 1510858372.689132: $GPGSV,3,2,11,20,40,087,48,21,73,205,47,24,45,124,45,27,19,300,38*7A
2017-11-16 13:52:52 1510858372.689194: $GPGSV,3,3,11,32,12,232,32,08,02,328,15,138,38,213,44*7F
2017-11-16 13:52:52 1510858372.802225: $GPZDA,185251.00,16,11,2017,00,00*6F
2017-11-16 13:52:52 1510858372.802385: $GPGGA,185251,3946.9608,N,08404.9827,W,2,11,0.80,307.13,M,-33.324,M,,*7C
2017-11-16 13:52:52 1510858372.802446: $GPRMC,185251,A,3946.9608,N,08404.9827,W,0.0000,0.000,161117,,*37
2017-11-16 13:52:52 1510858372.802502: $GPGSA,A,3,10,13,15,18,20,21,24,27,32,8,138,,1.6,0.8,1.3*30
2017-11-16 13:52:53 1510858373.352052: $GPZDA,185252.00,16,11,2017,00,00*6C
2017-11-16 13:52:53 1510858373.352228: $GPGGA,185252,3946.9608,N,08404.9827,W,2,11,0.80,307.13,M,-33.324,M,,*7F
2017-11-16 13:52:53 1510858373.352290: $GPRMC,185252,A,3946.9608,N,08404.9827,W,0.0000,0.000,161117,,*34
2017-11-16 13:52:53 1510858373.352346: $GPGSA,A,3,10,13,15,18,20,21,24,27,32,8,138,,1.6,0.8,1.3*30
2017-11-16 13:52:54 1510858374.352865: $GPZDA,185253.00,16,11,2017,00,00*6D
2017-11-16 13:52:54 1510858374.353033: $GPGGA,185253,3946.9608,N,08404.9827,W,2,11,0.80,307.13,M,-33.324,M,,*7E
2017-11-16 13:52:54 1510858374.353094: $GPRMC,185253,A,3946.9608,N,08404.9827,W,0.0000,0.000,161117,,*35
2017-11-16 13:52:54 1510858374.353149: $GPGSA,A,3,10,13,15,18,20,21,24,27,32,8,138,,1.6,0.8,1.3*30
