2018-01-12 19:57:22 1515805042.220775: {"class":"VERSION","release":"3.16","rev":"3.16-4","proto_major":3,"proto_minor":11}
2018-01-12 19:57:22 1515805042.221120: {"class":"DEVICES","devices":[{"class":"DEVICE","path":"/dev/ttyUSB0","driver":"SiRF","subtype":"9\u0006GSD4e_4.1.2-P1_RPATCH.05-F-GPS-4R-1510281 11/03/2015 307","activated":"2018-01-13T00:57:22.195Z","flags":1,"native":1,"bps":4800,"parity":"N","stopbits":1,"cycle":1.00}]}
2018-01-12 19:57:22 1515805042.221235: {"class":"WATCH","enable":true,"json":false,"nmea":true,"raw":0,"scaled":false,"timing":false,"split24":false,"pps":false}
2018-01-12 19:57:23 1515805043.156217: $GPZDA,005724.00,13,01,2018,00,00*6A
2018-01-12 19:57:23 1515805043.156401: $GPGGA,005724,3946.9535,N,08404.9438,W,1,08,0.80,330.98,M,-33.324,M,,*71
2018-01-12 19:57:23 1515805043.156468: $GPRMC,005724,A,3946.9535,N,08404.9438,W,0.6087,90.538,130118,,*03
2018-01-12 19:57:23 1515805043.156530: $GPGSA,A,3,7,23,27,8,11,9,30,16,,,,,4.8,0.8,4.6*02
2018-01-12 19:57:24 1515805044.492093: $GPGSV,3,1,11,07,51,313,26,23,33,190,25,27,51,057,25,08,70,144,20*7B
2018-01-12 19:57:24 1515805044.492283: $GPGSV,3,2,11,11,16,169,15,09,51,235,14,30,25,304,14,16,26,057,14*7B
2018-01-12 19:57:24 1515805044.492352: $GPGSV,3,3,11,28,11,255,00,26,01,070,00,138,38,213,00*72
2018-01-12 19:57:24 1515805044.605888: $GPZDA,005725.00,13,01,2018,00,00*6B
2018-01-12 19:57:24 1515805044.606058: $GPGGA,005725,3946.9538,N,08404.9436,W,1,08,0.80,328.81,M,-33.324,M,,*72
2018-01-12 19:57:24 1515805044.606125: $GPRMC,005725,A,3946.9538,N,08404.9436,W,0.2353,39.708,130118,,*0D
2018-01-12 19:57:24 1515805044.606187: $GPGSA,A,3,7,23,27,8,11,9,30,16,,,,,4.8,0.8,4.6*02
2018-01-12 19:57:25 1515805045.156945: $GPZDA,005726.00,13,01,2018,00,00*68
2018-01-12 19:57:25 1515805045.157134: $GPGGA,005726,3946.9542,N,08404.9436,W,1,08,0.80,328.04,M,-33.324,M,,*71
2018-01-12 19:57:25 1515805045.157204: $GPRMC,005726,A,3946.9542,N,08404.9436,W,0.3945,346.606,130118,,*3B
2018-01-12 19:57:25 1515805045.157270: $GPGSA,A,3,7,23,27,8,11,9,30,16,,,,,4.8,0.8,4.6*02
2018-01-12 19:57:26 1515805046.155730: $GPZDA,005727.00,13,01,2018,00,00*69
2018-01-12 19:57:26 1515805046.155918: $GPGGA,005727,3946.9541,N,08404.9435,W,1,08,0.80,326.64,M,-33.324,M,,*78
2018-01-12 19:57:26 1515805046.155986: $GPRMC,005727,A,3946.9541,N,08404.9435,W,0.2353,39.708,130118,,*02
2018-01-12 19:57:26 1515805046.156049: $GPGSA,A,3,7,23,27,8,11,9,30,16,,,,,4.8,0.8,4.6*02
2018-01-12 19:57:27 1515805047.491434: $GPGSV,3,1,11,07,51,313,26,23,33,190,25,27,51,057,25,08,70,144,21*7A
2018-01-12 19:57:27 1515805047.491601: $GPGSV,3,2,11,11,16,169,15,09,51,235,09,30,25,304,14,16,26,057,14*77
2018-01-12 19:57:27 1515805047.491669: $GPGSV,3,3,11,28,11,255,00,26,01,070,00,138,38,213,00*72
2018-01-12 19:57:27 1515805047.604831: $GPZDA,005728.00,13,01,2018,00,00*66
2018-01-12 19:57:27 1515805047.605043: $GPGGA,005728,3946.9548,N,08404.9434,W,1,08,0.80,325.11,M,-33.324,M,,*7E
2018-01-12 19:57:27 1515805047.605135: $GPRMC,005728,A,3946.9548,N,08404.9434,W,0.5254,52.534,130118,,*04
2018-01-12 19:57:27 1515805047.605199: $GPGSA,A,3,7,23,27,8,11,9,30,16,,,,,4.8,0.8,4.6*02
2018-01-12 19:57:28 1515805048.156478: $GPZDA,005729.00,13,01,2018,00,00*67
2018-01-12 19:57:28 1515805048.156651: $GPGGA,005729,3946.9547,N,08404.9433,W,1,08,0.80,323.71,M,-33.324,M,,*77
2018-01-12 19:57:28 1515805048.156717: $GPRMC,005729,A,3946.9547,N,08404.9433,W,0.8311,132.916,130118,,*3B
2018-01-12 19:57:28 1515805048.156779: $GPGSA,A,3,7,23,27,8,11,9,30,16,,,,,4.8,0.8,4.6*02
2018-01-12 19:57:29 1515805049.156339: $GPZDA,005730.00,13,01,2018,00,00*6F
2018-01-12 19:57:29 1515805049.156525: $GPGGA,005730,3946.9542,N,08404.9432,W,1,08,0.80,321.66,M,-33.324,M,,*7F
2018-01-12 19:57:29 1515805049.156593: $GPRMC,005730,A,3946.9542,N,08404.9432,W,0.7554,122.983,130118,,*32
2018-01-12 19:57:29 1515805049.156657: $GPGSA,A,3,7,23,27,8,11,9,30,16,,,,,4.8,0.8,4.6*02
2018-01-12 19:57:30 1515805050.492274: $GPGSV,3,1,11,07,51,313,26,23,33,190,25,27,51,057,25,08,70,144,20*7B
2018-01-12 19:57:30 1515805050.492466: $GPGSV,3,2,11,11,16,169,15,09,51,235,10,30,25,304,14,16,26,057,14*7F
2018-01-12 19:57:30 1515805050.492594: $GPGSV,3,3,11,28,11,255,00,26,01,070,00,138,38,213,00*72
2018-01-12 19:57:30 1515805050.605409: $GPZDA,005731.00,13,01,2018,00,00*6E
2018-01-12 19:57:30 1515805050.605556: $GPGGA,005731,3946.9549,N,08404.9431,W,1,08,0.80,320.13,M,-33.324,M,,*75
2018-01-12 19:57:30 1515805050.605622: $GPRMC,005731,A,3946.9549,N,08404.9431,W,0.9045,95.449,130118,,*06
2018-01-12 19:57:30 1515805050.605683: $GPGSA,A,3,7,23,27,8,11,9,30,16,,,,,4.8,0.8,4.6*02
2018-01-12 19:57:31 1515805051.156690: $GPZDA,005732.00,13,01,2018,00,00*6D
2018-01-12 19:57:31 1515805051.156866: $GPGGA,005732,3946.9548,N,08404.9423,W,1,08,0.80,318.81,M,-33.324,M,,*74
2018-01-12 19:57:31 1515805051.156935: $GPRMC,005732,A,3946.9548,N,08404.9423,W,0.6723,109.510,130118,,*36
2018-01-12 19:57:31 1515805051.156999: $GPGSA,A,3,7,23,27,8,11,9,30,16,,,,,4.8,0.8,4.6*02
2018-01-12 19:57:32 1515805052.156866: $GPZDA,005733.00,13,01,2018,00,00*6C
2018-01-12 19:57:32 1515805052.157026: $GPGGA,005733,3946.9547,N,08404.9422,W,1,08,0.80,317.41,M,-33.324,M,,*78
2018-01-12 19:57:32 1515805052.157094: $GPRMC,005733,A,3946.9547,N,08404.9422,W,0.9741,116.017,130118,,*3E
2018-01-12 19:57:32 1515805052.157155: $GPGSA,A,3,7,23,27,8,11,9,30,16,,,,,4.8,0.8,4.6*02
2018-01-12 19:57:33 1515805053.491847: $GPGSV,3,1,11,07,51,313,26,23,33,190,25,27,51,057,25,08,70,144,21*7A
2018-01-12 19:57:33 1515805053.491999: $GPGSV,3,2,11,11,16,169,15,09,51,235,11,30,25,304,14,16,26,057,10*7A
2018-01-12 19:57:33 1515805053.492064: $GPGSV,3,3,11,26,01,070,05,28,11,255,00,138,38,213,00*77
2018-01-12 19:57:33 1515805053.605507: $GPZDA,005734.00,13,01,2018,00,00*6B
2018-01-12 19:57:33 1515805053.605681: $GPGGA,005734,3946.9550,N,08404.9421,W,1,08,0.80,315.24,M,-33.324,M,,*7B
2018-01-12 19:57:33 1515805053.605748: $GPRMC,005734,A,3946.9550,N,08404.9421,W,0.6690,79.940,130118,,*0D
2018-01-12 19:57:33 1515805053.605810: $GPGSA,A,3,7,23,27,8,11,9,30,16,,,,,4.8,0.8,4.6*02
2018-01-12 19:57:34 1515805054.156877: $GPZDA,005735.00,13,01,2018,00,00*6A
2018-01-12 19:57:34 1515805054.157049: $GPGGA,005735,3946.9553,N,08404.9420,W,1,08,0.80,314.47,M,-33.324,M,,*7C
2018-01-12 19:57:34 1515805054.157119: $GPRMC,005735,A,3946.9553,N,08404.9420,W,0.6560,39.476,130118,,*0E
2018-01-12 19:57:34 1515805054.157180: $GPGSA,A,3,7,23,27,8,11,9,30,16,,,,,4.8,0.8,4.6*02
2018-01-12 19:57:35 1515805055.157973: $GPZDA,005736.00,13,01,2018,00,00*69
2018-01-12 19:57:35 1515805055.158145: $GPGGA,005736,3946.9553,N,08404.9419,W,1,08,0.80,313.07,M,-33.324,M,,*76
2018-01-12 19:57:35 1515805055.158213: $GPRMC,005736,A,3946.9553,N,08404.9419,W,0.5510,18.557,130118,,*02
2018-01-12 19:57:35 1515805055.158277: $GPGSA,A,3,7,23,27,8,11,9,30,16,,,,,4.8,0.8,4.6*02
2018-01-12 19:57:36 1515805056.493700: $GPGSV,3,1,11,07,51,313,26,23,33,190,25,27,51,057,25,08,70,144,21*7A
2018-01-12 19:57:36 1515805056.493881: $GPGSV,3,2,11,11,16,169,15,09,51,235,10,30,25,304,14,16,26,057,09*73
2018-01-12 19:57:36 1515805056.493950: $GPGSV,3,3,11,26,01,070,15,28,11,255,00,138,38,213,00*76
2018-01-12 19:57:36 1515805056.606071: $GPZDA,005737.00,13,01,2018,00,00*68
2018-01-12 19:57:36 1515805056.606218: $GPGGA,005737,3946.9556,N,08404.9419,W,1,09,0.80,312.30,M,-33.324,M,,*76
2018-01-12 19:57:36 1515805056.606286: $GPRMC,005737,A,3946.9556,N,08404.9419,W,0.8867,13.063,130118,,*0F
2018-01-12 19:57:36 1515805056.606352: $GPGSA,A,3,7,23,27,8,11,9,30,16,26,,,,4.8,0.8,4.6*06
2018-01-12 19:57:37 1515805057.158858: $GPZDA,005738.00,13,01,2018,00,00*67
2018-01-12 19:57:37 1515805057.159023: $GPGGA,005738,3946.9560,N,08404.9425,W,1,09,0.80,311.46,M,-33.324,M,,*71
2018-01-12 19:57:37 1515805057.159090: $GPRMC,005738,A,3946.9560,N,08404.9425,W,0.5777,350.899,130118,,*30
2018-01-12 19:57:37 1515805057.159151: $GPGSA,A,3,7,23,27,8,11,9,30,16,26,,,,4.8,0.8,4.6*06
2018-01-12 19:57:38 1515805058.158892: $GPZDA,005739.00,13,01,2018,00,00*66
2018-01-12 19:57:38 1515805058.159066: $GPGGA,005739,3946.9563,N,08404.9424,W,1,09,0.80,310.70,M,-33.324,M,,*76
2018-01-12 19:57:38 1515805058.159187: $GPRMC,005739,A,3946.9563,N,08404.9424,W,0.8732,316.615,130118,,*37
2018-01-12 19:57:38 1515805058.159253: $GPGSA,A,3,7,23,27,8,11,9,30,16,26,,,,4.8,0.8,4.6*06
2018-01-12 19:57:39 1515805059.494868: $GPGSV,3,1,11,07,51,313,26,23,33,190,25,27,51,057,25,08,70,144,21*7A
2018-01-12 19:57:39 1515805059.495023: $GPGSV,3,2,11,11,16,169,16,09,51,235,11,30,25,304,14,16,26,057,10*79
2018-01-12 19:57:39 1515805059.495090: $GPGSV,3,3,11,26,01,070,14,28,11,255,00,138,38,213,00*77
2018-01-12 19:57:39 1515805059.608701: $GPZDA,005740.00,13,01,2018,00,00*68
2018-01-12 19:57:39 1515805059.608840: $GPGGA,005740,3946.9567,N,08404.9423,W,1,09,0.80,309.93,M,-33.324,M,,*7E
2018-01-12 19:57:39 1515805059.608905: $GPRMC,005740,A,3946.9567,N,08404.9423,W,0.8419,336.696,130118,,*39
2018-01-12 19:57:39 1515805059.608967: $GPGSA,A,3,7,23,27,8,11,9,30,16,26,,,,4.8,0.8,4.6*06
2018-01-12 19:57:40 1515805060.157779: $GPZDA,005741.00,13,01,2018,00,00*69
2018-01-12 19:57:40 1515805060.157954: $GPGGA,005741,3946.9567,N,08404.9430,W,1,09,0.80,309.85,M,-33.324,M,,*7A
2018-01-12 19:57:40 1515805060.158022: $GPRMC,005741,A,3946.9567,N,08404.9430,W,0.4340,304.391,130118,,*3E
2018-01-12 19:57:40 1515805060.158085: $GPGSA,A,3,7,23,27,8,11,9,30,16,26,,,,4.8,0.8,4.6*06
2018-01-12 19:57:41 1515805061.157910: $GPZDA,005742.00,13,01,2018,00,00*6A
2018-01-12 19:57:41 1515805061.158089: $GPGGA,005742,3946.9566,N,08404.9430,W,1,09,0.80,308.45,M,-33.324,M,,*75
2018-01-12 19:57:41 1515805061.158155: $GPRMC,005742,A,3946.9566,N,08404.9430,W,0.1806,231.566,130118,,*39
2018-01-12 19:57:41 1515805061.158222: $GPGSA,A,3,7,23,27,8,11,9,30,16,26,,,,4.8,0.8,4.6*06
