2018-01-11 20:23:17 1515720197.197467: {"class":"VERSION","release":"3.16","rev":"3.16-4","proto_major":3,"proto_minor":11}
2018-01-11 20:23:17 1515720197.197809: {"class":"DEVICES","devices":[{"class":"DEVICE","path":"/dev/ttyUSB0","driver":"SiRF","subtype":"9\u0006GSD4e_4.1.2-P1_RPATCH.05-F-GPS-4R-1510281 11/03/2015 307","activated":"2018-01-12T01:23:17.151Z","flags":1,"native":1,"bps":4800,"parity":"N","stopbits":1,"cycle":1.00}]}
2018-01-11 20:23:17 1515720197.197921: {"class":"WATCH","enable":true,"json":false,"nmea":true,"raw":0,"scaled":false,"timing":false,"split24":false,"pps":false}
2018-01-11 20:23:17 1515720197.665345: $GPGSV,3,1,11,07,61,316,44,08,75,109,45,09,43,223,42,11,25,165,45*73
2018-01-11 20:23:17 1515720197.665526: $GPGSV,3,2,11,16,19,063,39,23,23,187,49,27,43,049,50,28,18,262,37*70
2018-01-11 20:23:17 1515720197.665592: $GPGSV,3,3,11,30,34,307,35,01,03,160,04,138,38,213,45*7E
2018-01-11 20:23:17 1515720197.777726: $GPZDA,012318.00,12,01,2018,00,00*66
2018-01-11 20:23:17 1515720197.777828: $GPGGA,012318,3946.9588,N,08404.9855,W,2,10,0.80,303.62,M,-33.324,M,,*72
2018-01-11 20:23:17 1515720197.777892: $GPRMC,012318,A,3946.9588,N,08404.9855,W,0.0000,0.000,120118,,*30
2018-01-11 20:23:17 1515720197.777951: $GPGSA,A,3,7,8,9,11,16,23,27,28,30,138,,,4.0,0.8,3.5*3E
2018-01-11 20:23:18 1515720198.329927: $GPZDA,012319.00,12,01,2018,00,00*67
2018-01-11 20:23:18 1515720198.330081: $GPGGA,012319,3946.9588,N,08404.9855,W,2,10,0.80,303.62,M,-33.324,M,,*73
2018-01-11 20:23:18 1515720198.330146: $GPRMC,012319,A,3946.9588,N,08404.9855,W,0.0000,0.000,120118,,*31
2018-01-11 20:23:18 1515720198.330207: $GPGSA,A,3,7,8,9,11,16,23,27,28,30,138,,,4.0,0.8,3.5*3E
2018-01-11 20:23:19 1515720199.330742: $GPZDA,012320.00,12,01,2018,00,00*6D
2018-01-11 20:23:19 1515720199.330913: $GPGGA,012320,3946.9588,N,08404.9855,W,2,10,0.80,303.62,M,-33.324,M,,*79
2018-01-11 20:23:19 1515720199.330979: $GPRMC,012320,A,3946.9588,N,08404.9855,W,0.0000,0.000,120118,,*3B
2018-01-11 20:23:19 1515720199.331039: $GPGSA,A,3,7,8,9,11,16,23,27,28,30,138,,,4.0,0.8,3.5*3E
2018-01-11 20:23:20 1515720200.664936: $GPGSV,3,1,11,07,61,316,44,08,75,109,45,09,43,223,42,11,25,165,45*73
2018-01-11 20:23:20 1515720200.665100: $GPGSV,3,2,11,16,19,063,38,23,23,187,49,27,43,049,50,28,18,262,38*7E
2018-01-11 20:23:20 1515720200.665164: $GPGSV,3,3,11,30,34,307,35,01,03,160,04,138,38,213,45*7E
2018-01-11 20:23:20 1515720200.778561: $GPZDA,012321.00,12,01,2018,00,00*6C
2018-01-11 20:23:20 1515720200.778671: $GPGGA,012321,3946.9588,N,08404.9855,W,2,10,0.80,303.62,M,-33.324,M,,*78
2018-01-11 20:23:20 1515720200.778734: $GPRMC,012321,A,3946.9588,N,08404.9855,W,0.0000,0.000,120118,,*3A
2018-01-11 20:23:20 1515720200.778794: $GPGSA,A,3,7,8,9,11,16,23,27,28,30,138,,,4.0,0.8,3.5*3E
2018-01-11 20:23:21 1515720201.329548: $GPZDA,012322.00,12,01,2018,00,00*6F
2018-01-11 20:23:21 1515720201.329725: $GPGGA,012322,3946.9588,N,08404.9855,W,2,10,0.80,303.62,M,-33.324,M,,*7B
2018-01-11 20:23:21 1515720201.329813: $GPRMC,012322,A,3946.9588,N,08404.9855,W,0.0000,0.000,120118,,*39
2018-01-11 20:23:21 1515720201.329875: $GPGSA,A,3,7,8,9,11,16,23,27,28,30,138,,,4.0,0.8,3.5*3E
2018-01-11 20:23:22 1515720202.327346: $GPZDA,012323.00,12,01,2018,00,00*6E
2018-01-11 20:23:22 1515720202.327515: $GPGGA,012323,3946.9588,N,08404.9855,W,2,10,0.80,303.62,M,-33.324,M,,*7A
2018-01-11 20:23:22 1515720202.327580: $GPRMC,012323,A,3946.9588,N,08404.9855,W,0.0000,0.000,120118,,*38
2018-01-11 20:23:22 1515720202.327640: $GPGSA,A,3,7,8,9,11,16,23,27,28,30,138,,,4.0,0.8,3.5*3E
2018-01-11 20:23:23 1515720203.664046: $GPGSV,3,1,11,07,61,316,43,08,75,109,45,09,43,223,42,11,25,165,45*74
2018-01-11 20:23:23 1515720203.664206: $GPGSV,3,2,11,16,19,063,38,23,23,187,49,27,43,049,50,28,18,262,38*7E
2018-01-11 20:23:23 1515720203.664271: $GPGSV,3,3,11,30,34,307,35,01,03,160,00,138,38,213,44*7B
2018-01-11 20:23:23 1515720203.777683: $GPZDA,012324.00,12,01,2018,00,00*69
2018-01-11 20:23:23 1515720203.777805: $GPGGA,012324,3946.9592,N,08404.9854,W,2,10,0.80,302.85,M,-33.324,M,,*7F
2018-01-11 20:23:23 1515720203.777869: $GPRMC,012324,A,3946.9592,N,08404.9854,W,0.0000,0.000,120118,,*35
2018-01-11 20:23:23 1515720203.777983: $GPGSA,A,3,7,8,9,11,16,23,27,28,30,138,,,4.0,0.8,3.5*3E
2018-01-11 20:23:24 1515720204.323575: $GPZDA,012325.00,12,01,2018,00,00*68
2018-01-11 20:23:24 1515720204.323743: $GPGGA,012325,3946.9592,N,08404.9854,W,2,10,0.80,302.85,M,-33.324,M,,*7E
2018-01-11 20:23:24 1515720204.323809: $GPRMC,012325,A,3946.9592,N,08404.9854,W,0.0000,0.000,120118,,*34
2018-01-11 20:23:24 1515720204.323869: $GPGSA,A,3,7,8,9,11,16,23,27,28,30,138,,,4.0,0.8,3.5*3E
2018-01-11 20:23:25 1515720205.324448: $GPZDA,012326.00,12,01,2018,00,00*6B
2018-01-11 20:23:25 1515720205.324618: $GPGGA,012326,3946.9592,N,08404.9854,W,2,10,0.80,302.85,M,-33.324,M,,*7D
2018-01-11 20:23:25 1515720205.324683: $GPRMC,012326,A,3946.9592,N,08404.9854,W,0.0000,0.000,120118,,*37
2018-01-11 20:23:25 1515720205.324744: $GPGSA,A,3,7,8,9,11,16,23,27,28,30,138,,,4.0,0.8,3.5*3E
2018-01-11 20:23:26 1515720206.658683: $GPGSV,3,1,11,07,61,316,43,08,75,109,45,09,43,223,41,11,25,165,45*77
2018-01-11 20:23:26 1515720206.658864: $GPGSV,3,2,11,16,19,063,38,23,23,187,49,27,43,049,50,28,18,262,37*71
2018-01-11 20:23:26 1515720206.658929: $GPGSV,3,3,11,30,34,307,35,01,03,160,00,138,38,213,45*7A
2018-01-11 20:23:26 1515720206.772080: $GPZDA,012327.00,12,01,2018,00,00*6A
2018-01-11 20:23:26 1515720206.772194: $GPGGA,012327,3946.9592,N,08404.9854,W,2,10,0.80,302.85,M,-33.324,M,,*7C
2018-01-11 20:23:26 1515720206.772257: $GPRMC,012327,A,3946.9592,N,08404.9854,W,0.0000,0.000,120118,,*36
2018-01-11 20:23:26 1515720206.772316: $GPGSA,A,3,7,8,9,11,16,23,27,28,30,138,,,4.0,0.8,3.5*3E
2018-01-11 20:23:27 1515720207.397488: $GPZDA,012328.00,12,01,2018,00,00*65
2018-01-11 20:23:27 1515720207.397656: $GPGGA,012328,3946.9592,N,08404.9854,W,2,10,0.80,302.85,M,-33.324,M,,*73
2018-01-11 20:23:27 1515720207.397723: $GPRMC,012328,A,3946.9592,N,08404.9854,W,0.0000,0.000,120118,,*39
2018-01-11 20:23:27 1515720207.397783: $GPGSA,A,3,7,8,9,11,16,23,27,28,30,138,,,4.0,0.8,3.5*3E
2018-01-11 20:23:28 1515720208.328259: $GPZDA,012329.00,12,01,2018,00,00*64
2018-01-11 20:23:28 1515720208.328429: $GPGGA,012329,3946.9592,N,08404.9854,W,2,10,0.80,302.85,M,-33.324,M,,*72
2018-01-11 20:23:28 1515720208.328494: $GPRMC,012329,A,3946.9592,N,08404.9854,W,0.0000,0.000,120118,,*38
2018-01-11 20:23:28 1515720208.328554: $GPGSA,A,3,7,8,9,11,16,23,27,28,30,138,,,4.0,0.8,3.5*3E
2018-01-11 20:23:29 1515720209.680240: $GPGSV,3,1,11,07,61,316,43,08,75,109,45,09,43,223,42,11,25,165,45*74
2018-01-11 20:23:29 1515720209.680422: $GPGSV,3,2,11,16,19,063,38,23,23,187,49,27,43,049,49,28,18,262,36*78
2018-01-11 20:23:29 1515720209.680489: $GPGSV,3,3,11,30,34,307,35,01,03,160,00,138,38,213,45*7A
2018-01-11 20:23:29 1515720209.793574: $GPZDA,012330.00,12,01,2018,00,00*6C
2018-01-11 20:23:29 1515720209.793718: $GPGGA,012330,3946.9592,N,08404.9854,W,2,10,0.80,302.85,M,-33.324,M,,*7A
2018-01-11 20:23:29 1515720209.793783: $GPRMC,012330,A,3946.9592,N,08404.9854,W,0.0000,0.000,120118,,*30
2018-01-11 20:23:29 1515720209.793843: $GPGSA,A,3,7,8,9,11,16,23,27,28,30,138,,,4.0,0.8,3.5*3E
