2017-12-31 17:48:25 1514760505.186919: {"class":"VERSION","release":"3.16","rev":"3.16-4","proto_major":3,"proto_minor":11}
2017-12-31 17:48:25 1514760505.187324: {"class":"DEVICES","devices":[{"class":"DEVICE","path":"/dev/ttyUSB0","driver":"SiRF","activated":"2017-12-31T22:48:25.135Z","flags":1,"native":1,"bps":4800,"parity":"N","stopbits":1,"cycle":1.00}]}
2017-12-31 17:48:25 1514760505.187431: {"class":"WATCH","enable":true,"json":false,"nmea":true,"raw":0,"scaled":false,"timing":false,"split24":false,"pps":false}
2017-12-31 17:48:25 1514760505.445316: $GPZDA,224826.00,31,12,2017,00,00*6B
2017-12-31 17:48:25 1514760505.445492: $GPGGA,224826,3946.9570,N,08404.9857,W,2,11,0.80,304.63,M,-33.324,M,,*71
2017-12-31 17:48:25 1514760505.445558: $GPRMC,224826,A,3946.9570,N,08404.9857,W,0.0000,0.000,311217,,*38
2017-12-31 17:48:25 1514760505.445620: $GPGSA,A,3,22,23,9,3,16,29,14,31,32,26,135,,1.7,0.8,1.3*0C
2017-12-31 17:48:26 1514760506.346285: $GPZDA,224827.00,31,12,2017,00,00*6A
2017-12-31 17:48:26 1514760506.346450: $GPGGA,224827,3946.9570,N,08404.9857,W,2,11,0.80,304.63,M,-33.324,M,,*70
2017-12-31 17:48:26 1514760506.346516: $GPRMC,224827,A,3946.9570,N,08404.9857,W,0.0000,0.000,311217,,*39
2017-12-31 17:48:26 1514760506.346576: $GPGSA,A,3,22,23,9,3,16,29,14,31,32,26,135,,1.7,0.8,1.3*0C
2017-12-31 17:48:27 1514760507.680735: $GPGSV,3,1,11,22,30,220,45,23,45,309,45,09,12,312,38,03,38,243,44*7E
2017-12-31 17:48:27 1514760507.680909: $GPGSV,3,2,11,16,70,192,44,29,10,037,34,14,23,129,31,31,35,067,39*78
2017-12-31 17:48:27 1514760507.680973: $GPGSV,3,3,11,27,14,157,00,26,71,061,47,135,22,240,44*7D
2017-12-31 17:48:27 1514760507.794164: $GPZDA,224828.00,31,12,2017,00,00*65
2017-12-31 17:48:27 1514760507.794304: $GPGGA,224828,3946.9570,N,08404.9857,W,2,10,0.80,304.63,M,-33.324,M,,*7E
2017-12-31 17:48:27 1514760507.794368: $GPRMC,224828,A,3946.9570,N,08404.9857,W,0.0000,0.000,311217,,*36
2017-12-31 17:48:27 1514760507.794427: $GPGSA,A,3,22,23,9,3,16,29,14,31,26,135,,,1.7,0.8,1.3*0D
2017-12-31 17:48:28 1514760508.349046: $GPZDA,224829.00,31,12,2017,00,00*64
2017-12-31 17:48:28 1514760508.349182: $GPGGA,224829,3946.9570,N,08404.9857,W,2,10,0.80,304.63,M,-33.324,M,,*7F
2017-12-31 17:48:28 1514760508.349247: $GPRMC,224829,A,3946.9570,N,08404.9857,W,0.0000,0.000,311217,,*37
2017-12-31 17:48:28 1514760508.349307: $GPGSA,A,3,22,23,9,3,16,29,14,31,26,135,,,1.7,0.8,1.3*0D
2017-12-31 17:48:29 1514760509.347429: $GPZDA,224830.00,31,12,2017,00,00*6C
2017-12-31 17:48:29 1514760509.347602: $GPGGA,224830,3946.9570,N,08404.9857,W,2,10,0.60,304.63,M,-33.324,M,,*79
2017-12-31 17:48:29 1514760509.347667: $GPRMC,224830,A,3946.9570,N,08404.9857,W,0.0000,0.000,311217,,*3F
2017-12-31 17:48:29 1514760509.347726: $GPGSA,A,3,22,23,9,3,16,29,14,31,26,135,,,1.7,0.6,1.3*03
2017-12-31 17:48:30 1514760510.682296: $GPGSV,3,1,12,22,30,220,45,23,45,309,45,09,12,312,39,03,38,243,44*7C
2017-12-31 17:48:30 1514760510.682473: $GPGSV,3,2,12,16,70,192,44,29,10,037,35,14,23,129,30,31,35,067,38*7A
2017-12-31 17:48:30 1514760510.682538: $GPGSV,3,3,12,27,14,157,20,32,02,132,20,26,71,061,47,135,22,240,45*4C
2017-12-31 17:48:30 1514760510.796026: $GPZDA,224831.00,31,12,2017,00,00*6D
2017-12-31 17:48:30 1514760510.796193: $GPGGA,224831,3946.9570,N,08404.9857,W,2,11,0.60,304.63,M,-33.324,M,,*79
2017-12-31 17:48:30 1514760510.796258: $GPRMC,224831,A,3946.9570,N,08404.9857,W,0.0000,0.000,311217,,*3E
2017-12-31 17:48:30 1514760510.796318: $GPGSA,A,3,22,23,9,3,16,29,14,31,27,26,135,,1.7,0.6,1.3*06
2017-12-31 17:48:31 1514760511.346915: $GPZDA,224832.00,31,12,2017,00,00*6E
2017-12-31 17:48:31 1514760511.347082: $GPGGA,224832,3946.9570,N,08404.9857,W,2,11,0.60,304.63,M,-33.324,M,,*7A
2017-12-31 17:48:31 1514760511.347214: $GPRMC,224832,A,3946.9570,N,08404.9857,W,0.0000,0.000,311217,,*3D
2017-12-31 17:48:31 1514760511.347276: $GPGSA,A,3,22,23,9,3,16,29,14,31,27,26,135,,1.7,0.6,1.3*06
2017-12-31 17:48:32 1514760512.345250: $GPZDA,224833.00,31,12,2017,00,00*6F
2017-12-31 17:48:32 1514760512.345420: $GPGGA,224833,3946.9570,N,08404.9857,W,2,11,0.60,304.63,M,-33.324,M,,*7B
2017-12-31 17:48:32 1514760512.345541: $GPRMC,224833,A,3946.9570,N,08404.9857,W,0.0000,0.000,311217,,*3C
2017-12-31 17:48:32 1514760512.345603: $GPGSA,A,3,22,23,9,3,16,29,14,31,27,26,135,,1.7,0.6,1.3*06
2017-12-31 17:48:33 1514760513.682007: $GPGSV,3,1,12,22,30,220,45,23,45,309,45,09,12,312,40,03,38,243,44*72
2017-12-31 17:48:33 1514760513.682171: $GPGSV,3,2,12,16,70,192,44,29,10,037,35,14,23,129,30,31,35,067,38*7A
2017-12-31 17:48:33 1514760513.682236: $GPGSV,3,3,12,27,14,157,21,32,02,132,20,26,71,061,47,135,22,240,43*4B
2017-12-31 17:48:33 1514760513.795922: $GPZDA,224834.00,31,12,2017,00,00*68
2017-12-31 17:48:33 1514760513.796091: $GPGGA,224834,3946.9570,N,08404.9857,W,2,12,0.60,304.63,M,-33.324,M,,*7F
2017-12-31 17:48:33 1514760513.796156: $GPRMC,224834,A,3946.9570,N,08404.9857,W,0.0000,0.000,311217,,*3B
2017-12-31 17:48:33 1514760513.796217: $GPGSA,A,3,22,23,9,3,16,29,14,31,27,32,26,135,1.7,0.6,1.3*07
2017-12-31 17:48:34 1514760514.371325: $GPZDA,224835.00,31,12,2017,00,00*69
2017-12-31 17:48:34 1514760514.371504: $GPGGA,224835,3946.9570,N,08404.9857,W,2,12,0.60,304.63,M,-33.324,M,,*7E
2017-12-31 17:48:34 1514760514.371571: $GPRMC,224835,A,3946.9570,N,08404.9857,W,0.0000,0.000,311217,,*3A
2017-12-31 17:48:34 1514760514.371632: $GPGSA,A,3,22,23,9,3,16,29,14,31,27,32,26,135,1.7,0.6,1.3*07
