2017-11-15 19:28:35 1510792115.862848: {"class":"VERSION","release":"3.17","rev":"3.17","proto_major":3,"proto_minor":12}
2017-11-15 19:28:35 1510792115.863302: {"class":"DEVICES","devices":[{"class":"DEVICE","path":"/dev/ttyUSB0","driver":"SiRF","subtype":"9\u0006GSD4e_4.1.2-P1_RPATCH.05-F-GPS-4R-1510281 11/03/2015 307","activated":"2017-11-16T00:28:35.660Z","flags":1,"native":1,"bps":4800,"parity":"N","stopbits":1,"cycle":1.00}]}
2017-11-15 19:28:35 1510792115.863428: {"class":"WATCH","enable":true,"json":false,"nmea":true,"raw":0,"scaled":false,"timing":false,"split24":false,"pps":false}
2017-11-15 19:28:36 1510792116.665229: $GPGSV,3,1,12,32,37,106,20,31,68,022,20,16,21,190,12,26,52,172,19*76
2017-11-15 19:28:36 1510792116.665395: $GPGSV,3,2,12,25,18,040,00,29,10,072,00,03,39,300,18,14,56,091,20*71
2017-11-15 19:28:36 1510792116.665474: $GPGSV,3,3,12,23,10,300,14,01,06,253,00,22,50,273,16,120,07,103,00*4D
2017-11-15 19:28:36 1510792116.779540: $GPZDA,002835.00,16,11,2017,00,00*69
2017-11-15 19:28:36 1510792116.779749: $GPGGA,002835,3946.9585,N,08404.9488,W,1,08,1.40,276.18,M,-33.324,M,,*7F
2017-11-15 19:28:36 1510792116.779812: $GPRMC,002835,A,3946.9585,N,08404.9488,W,0.5774,207.515,161117,,*3B
2017-11-15 19:28:36 1510792116.779885: $GPGSA,A,3,32,31,16,26,3,14,23,22,,,,,3.4,1.4,2.9*0C
2017-11-15 19:28:37 1510792117.345652: $GPZDA,002836.00,16,11,2017,00,00*6A
2017-11-15 19:28:37 1510792117.345815: $GPGGA,002836,3946.9582,N,08404.9488,W,1,08,1.40,276.95,M,-33.324,M,,*7E
2017-11-15 19:28:37 1510792117.345875: $GPRMC,002836,A,3946.9582,N,08404.9488,W,0.4207,219.347,161117,,*31
2017-11-15 19:28:37 1510792117.345931: $GPGSA,A,3,32,31,16,26,3,14,23,22,,,,,3.4,1.4,2.9*0C
2017-11-15 19:28:38 1510792118.329017: $GPZDA,002837.00,16,11,2017,00,00*6B
2017-11-15 19:28:38 1510792118.329178: $GPGGA,002837,3946.9577,N,08404.9488,W,1,08,1.40,276.31,M,-33.324,M,,*7B
2017-11-15 19:28:38 1510792118.329239: $GPRMC,002837,A,3946.9577,N,08404.9488,W,0.2422,93.794,161117,,*07
2017-11-15 19:28:38 1510792118.329295: $GPGSA,A,3,32,31,16,26,3,14,23,22,,,,,3.4,1.4,2.9*0C
2017-11-15 19:28:39 1510792119.681040: $GPGSV,3,1,12,32,37,106,20,31,68,022,19,16,21,190,13,26,52,172,20*77
2017-11-15 19:28:39 1510792119.681210: $GPGSV,3,2,12,25,18,040,00,29,10,072,00,03,39,300,18,14,56,091,20*71
2017-11-15 19:28:39 1510792119.681270: $GPGSV,3,3,12,23,10,300,14,01,06,253,00,22,50,273,16,120,07,103,00*4D
2017-11-15 19:28:39 1510792119.794380: $GPZDA,002838.00,16,11,2017,00,00*64
2017-11-15 19:28:39 1510792119.794562: $GPGGA,002838,3946.9577,N,08404.9481,W,1,08,1.40,276.39,M,-33.324,M,,*75
2017-11-15 19:28:39 1510792119.794641: $GPRMC,002838,A,3946.9577,N,08404.9481,W,0.5857,158.291,161117,,*3E
2017-11-15 19:28:39 1510792119.794698: $GPGSA,A,3,32,31,16,26,3,14,23,22,,,,,3.4,1.4,2.9*0C
2017-11-15 19:28:40 1510792120.345255: $GPZDA,002839.00,16,11,2017,00,00*65
2017-11-15 19:28:40 1510792120.345416: $GPGGA,002839,3946.9577,N,08404.9481,W,1,08,1.40,276.39,M,-33.324,M,,*74
2017-11-15 19:28:40 1510792120.345498: $GPRMC,002839,A,3946.9577,N,08404.9481,W,0.9060,167.792,161117,,*35
2017-11-15 19:28:40 1510792120.345556: $GPGSA,A,3,32,31,16,26,3,14,23,22,,,,,3.4,1.4,2.9*0C
2017-11-15 19:28:41 1510792121.329384: $GPZDA,002840.00,16,11,2017,00,00*6B
2017-11-15 19:28:41 1510792121.329590: $GPGGA,002840,3946.9570,N,08404.9482,W,1,08,1.40,276.51,M,-33.324,M,,*70
2017-11-15 19:28:41 1510792121.329654: $GPRMC,002840,A,3946.9570,N,08404.9482,W,0.7278,203.636,161117,,*34
2017-11-15 19:28:41 1510792121.329710: $GPGSA,A,3,32,31,16,26,3,14,23,22,,,,,3.4,1.4,2.9*0C
2017-11-15 19:28:42 1510792122.681400: $GPGSV,3,1,12,32,37,106,20,31,68,022,19,16,21,190,14,26,52,172,20*70
2017-11-15 19:28:42 1510792122.681593: $GPGSV,3,2,12,25,18,040,00,29,10,072,00,03,39,300,17,14,56,091,20*7E
2017-11-15 19:28:42 1510792122.681654: $GPGSV,3,3,12,23,10,300,15,01,06,253,00,22,50,273,16,120,07,103,00*4C
2017-11-15 19:28:42 1510792122.795004: $GPZDA,002841.00,16,11,2017,00,00*6A
2017-11-15 19:28:42 1510792122.795177: $GPGGA,002841,3946.9570,N,08404.9482,W,1,08,1.40,276.51,M,-33.324,M,,*71
2017-11-15 19:28:42 1510792122.795290: $GPRMC,002841,A,3946.9570,N,08404.9482,W,0.1867,180.000,161117,,*3C
2017-11-15 19:28:42 1510792122.795348: $GPGSA,A,3,32,31,16,26,3,14,23,22,,,,,3.4,1.4,2.9*0C
2017-11-15 19:28:43 1510792123.329380: $GPZDA,002842.00,16,11,2017,00,00*69
2017-11-15 19:28:43 1510792123.329619: $GPGGA,002842,3946.9570,N,08404.9482,W,1,08,1.40,276.51,M,-33.324,M,,*72
2017-11-15 19:28:43 1510792123.329683: $GPRMC,002842,A,3946.9570,N,08404.9482,W,0.4207,219.347,161117,,*35
2017-11-15 19:28:43 1510792123.329739: $GPGSA,A,3,32,31,16,26,3,14,23,22,,,,,3.4,1.4,2.9*0C
2017-11-15 19:28:44 1510792124.345474: $GPZDA,002843.00,16,11,2017,00,00*68
2017-11-15 19:28:44 1510792124.345655: $GPGGA,002843,3946.9570,N,08404.9482,W,1,08,1.40,276.51,M,-33.324,M,,*73
2017-11-15 19:28:44 1510792124.345717: $GPRMC,002843,A,3946.9570,N,08404.9482,W,0.1567,9.201,161117,,*30
2017-11-15 19:28:44 1510792124.345772: $GPGSA,A,3,32,31,16,26,3,14,23,22,,,,,3.4,1.4,2.9*0C
2017-11-15 19:28:45 1510792125.681011: $GPGSV,3,1,12,32,37,106,20,31,68,022,18,16,21,190,15,26,52,172,21*71
2017-11-15 19:28:45 1510792125.681183: $GPGSV,3,2,12,25,18,040,00,29,10,072,00,03,39,300,17,14,56,091,20*7E
2017-11-15 19:28:45 1510792125.681243: $GPGSV,3,3,12,23,10,300,14,01,06,253,00,22,50,273,15,120,07,103,00*4E
2017-11-15 19:28:45 1510792125.794316: $GPZDA,002844.00,16,11,2017,00,00*6F
2017-11-15 19:28:45 1510792125.794494: $GPGGA,002844,3946.9569,N,08404.9475,W,1,08,1.40,276.59,M,-33.324,M,,*7C
2017-11-15 19:28:45 1510792125.794573: $GPRMC,002844,A,3946.9569,N,08404.9475,W,0.1567,9.201,161117,,*37
2017-11-15 19:28:45 1510792125.794631: $GPGSA,A,3,32,31,16,26,3,14,23,22,,,,,3.4,1.4,2.9*0C
