2018-01-11 19:55:19 1515718519.375041: {"class":"VERSION","release":"3.16","rev":"3.16-4","proto_major":3,"proto_minor":11}
2018-01-11 19:55:19 1515718519.375401: {"class":"DEVICES","devices":[{"class":"DEVICE","path":"/dev/ttyUSB0","driver":"SiRF","subtype":"9\u0006GSD4e_4.1.2-P1_RPATCH.05-F-GPS-4R-1510281 11/03/2015 307","activated":"2018-01-12T00:55:19.371Z","flags":1,"native":1,"bps":4800,"parity":"N","stopbits":1,"cycle":1.00}]}
2018-01-11 19:55:19 1515718519.375517: {"class":"WATCH","enable":true,"json":false,"nmea":true,"raw":0,"scaled":false,"timing":false,"split24":false,"pps":false}
2018-01-11 19:55:20 1515718520.217592: $GPGSV,3,1,11,07,49,312,42,08,68,150,46,09,52,238,42,11,14,169,35*7B
2018-01-11 19:55:20 1515718520.217756: $GPGSV,3,2,11,16,28,055,46,23,36,192,48,27,53,060,50,28,09,253,33*72
2018-01-11 19:55:20 1515718520.217822: $GPGSV,3,3,11,30,23,303,39,26,03,069,00,138,38,213,45*79
2018-01-11 19:55:20 1515718520.329780: $GPZDA,005520.00,12,01,2018,00,00*6D
2018-01-11 19:55:20 1515718520.329896: $GPGGA,005520,3946.9576,N,08404.9816,W,2,10,0.80,307.79,M,-33.324,M,,*71
2018-01-11 19:55:20 1515718520.329962: $GPRMC,005520,A,3946.9576,N,08404.9816,W,0.0000,0.000,120118,,*3D
2018-01-11 19:55:20 1515718520.330022: $GPGSA,A,3,7,8,9,11,16,23,27,28,30,138,,,4.0,0.8,3.5*3E
2018-01-11 19:55:20 1515718520.781893: $GPZDA,005521.00,12,01,2018,00,00*6C
2018-01-11 19:55:20 1515718520.782058: $GPGGA,005521,3946.9576,N,08404.9816,W,2,10,0.80,307.79,M,-33.324,M,,*70
2018-01-11 19:55:20 1515718520.782123: $GPRMC,005521,A,3946.9576,N,08404.9816,W,0.0000,0.000,120118,,*3C
2018-01-11 19:55:20 1515718520.782183: $GPGSA,A,3,7,8,9,11,16,23,27,28,30,138,,,4.0,0.8,3.5*3E
2018-01-11 19:55:21 1515718521.386364: $GPZDA,005522.00,12,01,2018,00,00*6F
2018-01-11 19:55:21 1515718521.386547: $GPGGA,005522,3946.9576,N,08404.9816,W,2,10,0.80,307.79,M,-33.324,M,,*73
2018-01-11 19:55:21 1515718521.386615: $GPRMC,005522,A,3946.9576,N,08404.9816,W,0.0000,0.000,120118,,*3F
2018-01-11 19:55:21 1515718521.386675: $GPGSA,A,3,7,8,9,11,16,23,27,28,30,138,,,4.0,0.8,3.5*3E
2018-01-11 19:55:22 1515718522.720889: $GPGSV,3,1,11,07,49,312,42,08,68,150,46,09,52,238,42,11,14,169,35*7B
2018-01-11 19:55:22 1515718522.721048: $GPGSV,3,2,11,16,28,055,46,23,36,192,48,27,53,060,50,28,09,253,33*72
2018-01-11 19:55:22 1515718522.721112: $GPGSV,3,3,11,30,23,303,39,26,03,069,00,138,38,213,45*79
2018-01-11 19:55:22 1515718522.834496: $GPZDA,005523.00,12,01,2018,00,00*6E
2018-01-11 19:55:22 1515718522.834619: $GPGGA,005523,3946.9576,N,08404.9816,W,2,10,0.80,307.79,M,-33.324,M,,*72
2018-01-11 19:55:22 1515718522.834683: $GPRMC,005523,A,3946.9576,N,08404.9816,W,0.0000,0.000,120118,,*3E
2018-01-11 19:55:22 1515718522.834743: $GPGSA,A,3,7,8,9,11,16,23,27,28,30,138,,,4.0,0.8,3.5*3E
2018-01-11 19:55:23 1515718523.387878: $GPZDA,005524.00,12,01,2018,00,00*69
2018-01-11 19:55:23 1515718523.698666: $GPGGA,005524,3946.9576,N,08404.9816,W,2,10,0.80,307.79,M,-33.324,M,,*75
2018-01-11 19:55:23 1515718523.698810: $GPRMC,005524,A,3946.9576,N,08404.9816,W,0.0000,0.000,120118,,*39
2018-01-11 19:55:23 1515718523.698875: $GPGSA,A,3,7,8,9,11,16,23,27,28,30,138,,,4.0,0.8,3.5*3E
2018-01-11 19:55:24 1515718524.382040: $GPZDA,005525.00,12,01,2018,00,00*68
2018-01-11 19:55:24 1515718524.382212: $GPGGA,005525,3946.9576,N,08404.9816,W,2,10,0.80,307.79,M,-33.324,M,,*74
2018-01-11 19:55:24 1515718524.382278: $GPRMC,005525,A,3946.9576,N,08404.9816,W,0.0000,0.000,120118,,*38
2018-01-11 19:55:24 1515718524.382339: $GPGSA,A,3,7,8,9,11,16,23,27,28,30,138,,,4.0,0.8,3.5*3E
2018-01-11 19:55:25 1515718525.722481: $GPGSV,3,1,11,07,49,312,43,08,68,150,46,09,52,238,42,11,14,169,35*7A
2018-01-11 19:55:25 1515718525.722631: $GPGSV,3,2,11,16,28,055,46,23,36,192,48,27,53,060,51,28,09,253,33*73
2018-01-11 19:55:25 1515718525.722694: $GPGSV,3,3,11,30,23,303,38,26,03,069,00,138,38,213,44*79
2018-01-11 19:55:25 1515718525.836102: $GPZDA,005526.00,12,01,2018,00,00*6B
2018-01-11 19:55:25 1515718525.836221: $GPGGA,005526,3946.9581,N,08404.9816,W,2,10,0.80,308.43,M,-33.324,M,,*79
2018-01-11 19:55:25 1515718525.836285: $GPRMC,005526,A,3946.9581,N,08404.9816,W,0.0000,0.000,120118,,*33
2018-01-11 19:55:25 1515718525.836396: $GPGSA,A,3,7,8,9,11,16,23,27,28,30,138,,,4.0,0.8,3.5*3E
2018-01-11 19:55:26 1515718526.385722: $GPZDA,005527.00,12,01,2018,00,00*6A
2018-01-11 19:55:26 1515718526.385861: $GPGGA,005527,3946.9581,N,08404.9816,W,2,10,0.80,308.43,M,-33.324,M,,*78
2018-01-11 19:55:26 1515718526.385925: $GPRMC,005527,A,3946.9581,N,08404.9816,W,0.0000,0.000,120118,,*32
2018-01-11 19:55:26 1515718526.385985: $GPGSA,A,3,7,8,9,11,16,23,27,28,30,138,,,4.0,0.8,3.5*3E
2018-01-11 19:55:27 1515718527.386634: $GPZDA,005528.00,12,01,2018,00,00*65
2018-01-11 19:55:27 1515718527.386779: $GPGGA,005528,3946.9581,N,08404.9816,W,2,10,0.80,308.43,M,-33.324,M,,*77
2018-01-11 19:55:27 1515718527.386844: $GPRMC,005528,A,3946.9581,N,08404.9816,W,0.0000,0.000,120118,,*3D
2018-01-11 19:55:27 1515718527.386905: $GPGSA,A,3,7,8,9,11,16,23,27,28,30,138,,,4.0,0.8,3.5*3E
2018-01-11 19:55:28 1515718528.723330: $GPGSV,3,1,11,07,49,312,43,08,68,150,46,09,52,238,42,11,14,169,35*7A
2018-01-11 19:55:28 1515718528.723521: $GPGSV,3,2,11,16,28,055,46,23,36,192,48,27,53,060,51,28,09,253,33*73
2018-01-11 19:55:28 1515718528.723587: $GPGSV,3,3,11,30,23,303,38,26,03,069,00,138,38,213,45*78
2018-01-11 19:55:28 1515718528.835719: $GPZDA,005529.00,12,01,2018,00,00*64
2018-01-11 19:55:28 1515718528.835851: $GPGGA,005529,3946.9581,N,08404.9816,W,2,10,0.80,308.43,M,-33.324,M,,*76
2018-01-11 19:55:28 1515718528.835914: $GPRMC,005529,A,3946.9581,N,08404.9816,W,0.0000,0.000,120118,,*3C
2018-01-11 19:55:28 1515718528.835974: $GPGSA,A,3,7,8,9,11,16,23,27,28,30,138,,,4.0,0.8,3.5*3E
