2018-01-11 21:02:48 1515722568.065207: {"class":"VERSION","release":"3.16","rev":"3.16-4","proto_major":3,"proto_minor":11}
2018-01-11 21:02:48 1515722568.065553: {"class":"DEVICES","devices":[{"class":"DEVICE","path":"/dev/ttyUSB0","driver":"SiRF","subtype":"9\u0006GSD4e_4.1.2-P1_RPATCH.05-F-GPS-4R-1510281 11/03/2015 307","activated":"2018-01-12T02:02:47.942Z","flags":1,"native":1,"bps":4800,"parity":"N","stopbits":1,"cycle":1.00}]}
2018-01-11 21:02:48 1515722568.065669: {"class":"WATCH","enable":true,"json":false,"nmea":true,"raw":0,"scaled":false,"timing":false,"split24":false,"pps":false}
2018-01-11 21:02:48 1515722568.349958: $GPZDA,020249.00,12,01,2018,00,00*62
2018-01-11 21:02:48 1515722568.350134: $GPGGA,020249,3946.9587,N,08404.9849,W,2,12,0.80,293.02,M,-33.324,M,,*78
2018-01-11 21:02:48 1515722568.350201: $GPRMC,020249,A,3946.9587,N,08404.9849,W,0.0000,0.000,120118,,*36
2018-01-11 21:02:48 1515722568.350262: $GPGSA,A,3,1,7,8,9,11,23,27,28,30,13,16,138,4.0,0.8,3.5*0D
2018-01-11 21:02:49 1515722569.353105: $GPZDA,020250.00,12,01,2018,00,00*6A
2018-01-11 21:02:49 1515722569.353272: $GPGGA,020250,3946.9584,N,08404.9837,W,2,12,0.80,296.75,M,-33.324,M,,*7F
2018-01-11 21:02:49 1515722569.353338: $GPRMC,020250,A,3946.9584,N,08404.9837,W,0.0000,0.000,120118,,*34
2018-01-11 21:02:49 1515722569.353398: $GPGSA,A,3,1,7,8,9,11,23,27,28,30,13,16,138,4.0,0.8,3.5*0D
2018-01-11 21:02:50 1515722570.687168: $GPGSV,3,1,12,01,17,153,43,07,79,309,43,08,65,055,46,09,27,210,43*7A
2018-01-11 21:02:50 1515722570.687338: $GPGSV,3,2,12,11,42,157,45,23,07,183,35,27,26,045,50,28,30,277,27*7E
2018-01-11 21:02:50 1515722570.687405: $GPGSV,3,3,12,30,50,309,41,13,02,328,21,16,07,075,21,138,38,213,45*48
2018-01-11 21:02:50 1515722570.800925: $GPZDA,020251.00,12,01,2018,00,00*6B
2018-01-11 21:02:50 1515722570.801047: $GPGGA,020251,3946.9584,N,08404.9837,W,2,12,0.80,296.75,M,-33.324,M,,*7E
2018-01-11 21:02:50 1515722570.801110: $GPRMC,020251,A,3946.9584,N,08404.9837,W,0.0000,0.000,120118,,*35
2018-01-11 21:02:50 1515722570.801169: $GPGSA,A,3,1,7,8,9,11,23,27,28,30,13,16,138,4.0,0.8,3.5*0D
2018-01-11 21:02:51 1515722571.351806: $GPZDA,020252.00,12,01,2018,00,00*68
2018-01-11 21:02:51 1515722571.351963: $GPGGA,020252,3946.9584,N,08404.9837,W,2,12,0.80,296.75,M,-33.324,M,,*7D
2018-01-11 21:02:51 1515722571.352030: $GPRMC,020252,A,3946.9584,N,08404.9837,W,0.0000,0.000,120118,,*36
2018-01-11 21:02:51 1515722571.352090: $GPGSA,A,3,1,7,8,9,11,23,27,28,30,13,16,138,4.0,0.8,3.5*0D
2018-01-11 21:02:52 1515722572.350212: $GPZDA,020253.00,12,01,2018,00,00*69
2018-01-11 21:02:52 1515722572.350368: $GPGGA,020253,3946.9584,N,08404.9837,W,2,12,0.80,296.75,M,-33.324,M,,*7C
2018-01-11 21:02:52 1515722572.350433: $GPRMC,020253,A,3946.9584,N,08404.9837,W,0.0000,0.000,120118,,*37
2018-01-11 21:02:52 1515722572.350494: $GPGSA,A,3,1,7,8,9,11,23,27,28,30,13,16,138,4.0,0.8,3.5*0D
2018-01-11 21:02:53 1515722573.686702: $GPGSV,3,1,12,01,17,153,43,07,79,309,43,08,65,055,47,09,27,210,42*7A
2018-01-11 21:02:53 1515722573.686869: $GPGSV,3,2,12,11,42,157,45,23,07,183,34,27,26,045,50,28,30,277,26*7E
2018-01-11 21:02:53 1515722573.686934: $GPGSV,3,3,12,30,50,309,42,13,02,328,21,16,07,075,20,138,38,213,45*4A
2018-01-11 21:02:53 1515722573.800401: $GPZDA,020254.00,12,01,2018,00,00*6E
2018-01-11 21:02:53 1515722573.800531: $GPGGA,020254,3946.9584,N,08404.9837,W,2,12,0.80,296.75,M,-33.324,M,,*7B
2018-01-11 21:02:53 1515722573.800595: $GPRMC,020254,A,3946.9584,N,08404.9837,W,0.0000,0.000,120118,,*30
2018-01-11 21:02:53 1515722573.800655: $GPGSA,A,3,1,7,8,9,11,23,27,28,30,13,16,138,4.0,0.8,3.5*0D
2018-01-11 21:02:54 1515722574.425677: $GPZDA,020255.00,12,01,2018,00,00*6F
2018-01-11 21:02:54 1515722574.425832: $GPGGA,020255,3946.9584,N,08404.9837,W,2,12,0.80,296.75,M,-33.324,M,,*7A
2018-01-11 21:02:54 1515722574.425897: $GPRMC,020255,A,3946.9584,N,08404.9837,W,0.0000,0.000,120118,,*31
2018-01-11 21:02:54 1515722574.425957: $GPGSA,A,3,1,7,8,9,11,23,27,28,30,13,16,138,4.0,0.8,3.5*0D
