2017-12-29 14:46:19 1514576779.563867: {"class":"VERSION","release":"3.16","rev":"3.16-4","proto_major":3,"proto_minor":11}
2017-12-29 14:46:19 1514576779.564214: {"class":"DEVICES","devices":[{"class":"DEVICE","path":"/dev/ttyUSB0","driver":"SiRF","subtype":"9\u0006GSD4e_4.1.2-P1_RPATCH.05-F-GPS-4R-1510281 11/03/2015 307","activated":"2017-12-29T19:46:19.474Z","flags":1,"native":1,"bps":4800,"parity":"N","stopbits":1,"cycle":1.00}]}
2017-12-29 14:46:19 1514576779.564326: {"class":"WATCH","enable":true,"json":false,"nmea":true,"raw":0,"scaled":false,"timing":false,"split24":false,"pps":false}
2017-12-29 14:46:20 1514576780.325986: $GPZDA,194621.00,29,12,2017,00,00*63
2017-12-29 14:46:20 1514576780.326155: $GPGGA,194621,3946.9565,N,08404.9804,W,2,12,0.80,310.24,M,-33.324,M,,*77
2017-12-29 14:46:20 1514576780.326221: $GPRMC,194621,A,3946.9565,N,08404.9804,W,0.0000,0.000,291217,,*32
2017-12-29 14:46:20 1514576780.326283: $GPGSA,A,3,1,26,10,11,12,14,18,22,25,31,32,138,1.7,0.8,1.3*3B
2017-12-29 14:46:21 1514576781.667669: $GPGSV,3,1,12,01,22,295,40,26,07,181,25,10,43,150,50,11,07,279,34*74
2017-12-29 14:46:21 1514576781.667848: $GPGSV,3,2,12,12,20,046,46,14,68,336,43,18,13,145,41,22,23,312,41*7A
2017-12-29 14:46:21 1514576781.667915: $GPGSV,3,3,12,25,41,085,51,31,62,229,47,32,66,042,50,138,38,213,42*48
2017-12-29 14:46:21 1514576781.780056: $GPZDA,194622.00,29,12,2017,00,00*60
2017-12-29 14:46:21 1514576781.780206: $GPGGA,194622,3946.9565,N,08404.9804,W,2,12,0.80,310.24,M,-33.324,M,,*74
2017-12-29 14:46:21 1514576781.780271: $GPRMC,194622,A,3946.9565,N,08404.9804,W,0.0000,0.000,291217,,*31
2017-12-29 14:46:21 1514576781.780331: $GPGSA,A,3,1,26,10,11,12,14,18,22,25,31,32,138,1.7,0.8,1.3*3B
2017-12-29 14:46:22 1514576782.406411: $GPZDA,194623.00,29,12,2017,00,00*61
2017-12-29 14:46:22 1514576782.406588: $GPGGA,194623,3946.9570,N,08404.9804,W,2,12,0.80,310.88,M,-33.324,M,,*77
2017-12-29 14:46:22 1514576782.406655: $GPRMC,194623,A,3946.9570,N,08404.9804,W,0.0000,0.000,291217,,*34
2017-12-29 14:46:22 1514576782.406715: $GPGSA,A,3,1,26,10,11,12,14,18,22,25,31,32,138,1.7,0.8,1.3*3B
2017-12-29 14:46:23 1514576783.331360: $GPZDA,194624.00,29,12,2017,00,00*66
2017-12-29 14:46:23 1514576783.331514: $GPGGA,194624,3946.9570,N,08404.9804,W,2,12,0.80,310.88,M,-33.324,M,,*70
2017-12-29 14:46:23 1514576783.331580: $GPRMC,194624,A,3946.9570,N,08404.9804,W,0.0000,0.000,291217,,*33
2017-12-29 14:46:23 1514576783.331641: $GPGSA,A,3,1,26,10,11,12,14,18,22,25,31,32,138,1.7,0.8,1.3*3B
2017-12-29 14:46:24 1514576784.667966: $GPGSV,3,1,12,01,22,295,40,26,07,181,25,10,43,150,50,11,07,279,30*70
2017-12-29 14:46:24 1514576784.668147: $GPGSV,3,2,12,12,20,046,46,14,68,336,43,18,13,145,41,22,23,312,40*7B
2017-12-29 14:46:24 1514576784.668213: $GPGSV,3,3,12,25,41,085,51,31,62,229,47,32,66,042,50,138,38,213,42*48
2017-12-29 14:46:24 1514576784.781625: $GPZDA,194625.00,29,12,2017,00,00*67
2017-12-29 14:46:24 1514576784.781757: $GPGGA,194625,3946.9570,N,08404.9804,W,2,12,0.80,310.88,M,-33.324,M,,*71
2017-12-29 14:46:24 1514576784.781822: $GPRMC,194625,A,3946.9570,N,08404.9804,W,0.0000,0.000,291217,,*32
2017-12-29 14:46:24 1514576784.781883: $GPGSA,A,3,1,26,10,11,12,14,18,22,25,31,32,138,1.7,0.8,1.3*3B
2017-12-29 14:46:25 1514576785.333742: $GPZDA,194626.00,29,12,2017,00,00*64
2017-12-29 14:46:25 1514576785.333914: $GPGGA,194626,3946.9570,N,08404.9804,W,2,12,0.80,310.88,M,-33.324,M,,*72
2017-12-29 14:46:25 1514576785.333980: $GPRMC,194626,A,3946.9570,N,08404.9804,W,0.0000,0.000,291217,,*31
2017-12-29 14:46:25 1514576785.334041: $GPGSA,A,3,1,26,10,11,12,14,18,22,25,31,32,138,1.7,0.8,1.3*3B
2017-12-29 14:46:26 1514576786.330868: $GPZDA,194627.00,29,12,2017,00,00*65
2017-12-29 14:46:26 1514576786.331089: $GPGGA,194627,3946.9569,N,08404.9797,W,2,12,0.80,310.96,M,-33.324,M,,*71
2017-12-29 14:46:26 1514576786.331164: $GPRMC,194627,A,3946.9569,N,08404.9797,W,0.0000,0.000,291217,,*3D
2017-12-29 14:46:26 1514576786.331226: $GPGSA,A,3,1,26,10,11,12,14,18,22,25,31,32,138,1.7,0.8,1.3*3B
2017-12-29 14:46:27 1514576787.667048: $GPGSV,3,1,12,01,22,295,39,26,07,181,24,10,43,150,50,11,07,279,32*7D
2017-12-29 14:46:27 1514576787.667279: $GPGSV,3,2,12,12,20,046,46,14,68,336,43,18,13,145,41,22,23,312,40*7B
2017-12-29 14:46:27 1514576787.667348: $GPGSV,3,3,12,25,41,085,51,31,62,229,47,32,66,042,50,138,38,213,43*49
2017-12-29 14:46:27 1514576787.780678: $GPZDA,194628.00,29,12,2017,00,00*6A
2017-12-29 14:46:27 1514576787.780815: $GPGGA,194628,3946.9569,N,08404.9797,W,2,12,0.80,310.96,M,-33.324,M,,*7E
2017-12-29 14:46:27 1514576787.780881: $GPRMC,194628,A,3946.9569,N,08404.9797,W,0.0000,0.000,291217,,*32
2017-12-29 14:46:27 1514576787.780941: $GPGSA,A,3,1,26,10,11,12,14,18,22,25,31,32,138,1.7,0.8,1.3*3B
2017-12-29 14:46:28 1514576788.331635: $GPZDA,194629.00,29,12,2017,00,00*6B
2017-12-29 14:46:28 1514576788.331830: $GPGGA,194629,3946.9569,N,08404.9797,W,2,12,0.80,310.96,M,-33.324,M,,*7F
2017-12-29 14:46:28 1514576788.331922: $GPRMC,194629,A,3946.9569,N,08404.9797,W,0.0000,0.000,291217,,*33
2017-12-29 14:46:28 1514576788.331986: $GPGSA,A,3,1,26,10,11,12,14,18,22,25,31,32,138,1.7,0.8,1.3*3B
2017-12-29 14:46:29 1514576789.331236: $GPZDA,194630.00,29,12,2017,00,00*63
2017-12-29 14:46:29 1514576789.331402: $GPGGA,194630,3946.9569,N,08404.9797,W,2,12,0.80,310.96,M,-33.324,M,,*77
2017-12-29 14:46:29 1514576789.331469: $GPRMC,194630,A,3946.9569,N,08404.9797,W,0.0000,0.000,291217,,*3B
2017-12-29 14:46:29 1514576789.331530: $GPGSA,A,3,1,26,10,11,12,14,18,22,25,31,32,138,1.7,0.8,1.3*3B
