2017-12-01 16:34:02 1512164042.816952: {"class":"VERSION","release":"3.16","rev":"3.16-4","proto_major":3,"proto_minor":11}
2017-12-01 16:34:02 1512164042.817383: {"class":"DEVICES","devices":[{"class":"DEVICE","path":"/dev/ttyUSB0","driver":"SiRF","subtype":"9\u0006GSD4e_4.1.2-P1_RPATCH.05-F-GPS-4R-1510281 11/03/2015 307","activated":"2017-12-01T21:34:02.541Z","flags":1,"native":1,"bps":4800,"parity":"N","stopbits":1,"cycle":1.00}]}
2017-12-01 16:34:02 1512164042.817511: {"class":"WATCH","enable":true,"json":false,"nmea":true,"raw":0,"scaled":false,"timing":false,"split24":false,"pps":false}
2017-12-01 16:34:03 1512164043.398879: $GPZDA,213404.00,01,12,2017,00,00*60
2017-12-01 16:34:03 1512164043.399049: $GPGGA,213404,3946.9651,N,08404.9728,W,2,10,1.00,288.19,M,-33.324,M,,*7E
2017-12-01 16:34:03 1512164043.399114: $GPRMC,213404,A,3946.9651,N,08404.9728,W,0.0000,0.000,011217,,*34
2017-12-01 16:34:03 1512164043.399175: $GPGSA,A,3,1,10,14,22,26,31,32,11,12,138,,,2.0,1.0,1.5*3E
2017-12-01 16:34:04 1512164044.735158: $GPGSV,3,1,12,01,22,298,41,10,46,148,44,14,67,331,43,22,20,312,41*74
2017-12-01 16:34:04 1512164044.735342: $GPGSV,3,2,12,26,04,183,37,31,58,226,50,32,68,033,48,11,08,280,24*7E
2017-12-01 16:34:04 1512164044.735410: $GPGSV,3,3,12,12,21,048,25,25,40,088,00,18,16,144,00,138,38,213,36*49
2017-12-01 16:34:04 1512164044.848662: $GPZDA,213405.00,01,12,2017,00,00*61
2017-12-01 16:34:04 1512164044.848840: $GPGGA,213405,3946.9651,N,08404.9728,W,2,10,1.00,288.19,M,-33.324,M,,*7F
2017-12-01 16:34:04 1512164044.848909: $GPRMC,213405,A,3946.9651,N,08404.9728,W,0.0000,0.000,011217,,*35
2017-12-01 16:34:04 1512164044.848973: $GPGSA,A,3,1,10,14,22,26,31,32,11,12,138,,,2.0,1.0,1.5*3E
2017-12-01 16:34:05 1512164045.399486: $GPZDA,213406.00,01,12,2017,00,00*62
2017-12-01 16:34:05 1512164045.399658: $GPGGA,213406,3946.9651,N,08404.9728,W,2,10,1.00,288.19,M,-33.324,M,,*7C
2017-12-01 16:34:05 1512164045.399724: $GPRMC,213406,A,3946.9651,N,08404.9728,W,0.0000,0.000,011217,,*36
2017-12-01 16:34:05 1512164045.399786: $GPGSA,A,3,1,10,14,22,26,31,32,11,12,138,,,2.0,1.0,1.5*3E
2017-12-01 16:34:06 1512164046.397980: $GPZDA,213407.00,01,12,2017,00,00*63
2017-12-01 16:34:06 1512164046.398159: $GPGGA,213407,3946.9651,N,08404.9728,W,2,10,1.00,288.19,M,-33.324,M,,*7D
2017-12-01 16:34:06 1512164046.398226: $GPRMC,213407,A,3946.9651,N,08404.9728,W,0.0000,0.000,011217,,*37
2017-12-01 16:34:06 1512164046.398288: $GPGSA,A,3,1,10,14,22,26,31,32,11,12,138,,,2.0,1.0,1.5*3E
2017-12-01 16:34:07 1512164047.752389: $GPGSV,3,1,12,01,22,298,41,10,46,148,44,14,67,331,43,22,20,312,40*75
2017-12-01 16:34:07 1512164047.752558: $GPGSV,3,2,12,26,04,183,37,31,58,226,50,32,68,033,48,11,08,280,14*7D
2017-12-01 16:34:07 1512164047.752625: $GPGSV,3,3,12,12,21,048,25,25,40,088,00,18,16,144,00,138,38,213,39*46
2017-12-01 16:34:07 1512164047.865581: $GPZDA,213408.00,01,12,2017,00,00*6C
2017-12-01 16:34:07 1512164047.865762: $GPGGA,213408,3946.9651,N,08404.9728,W,2,10,1.00,288.19,M,-33.324,M,,*72
2017-12-01 16:34:07 1512164047.865830: $GPRMC,213408,A,3946.9651,N,08404.9728,W,0.0000,0.000,011217,,*38
2017-12-01 16:34:07 1512164047.865893: $GPGSA,A,3,1,10,14,22,26,31,32,11,12,138,,,2.0,1.0,1.5*3E
2017-12-01 16:34:08 1512164048.416459: $GPZDA,213409.00,01,12,2017,00,00*6D
2017-12-01 16:34:08 1512164048.416644: $GPGGA,213409,3946.9651,N,08404.9728,W,2,10,1.00,288.19,M,-33.324,M,,*73
2017-12-01 16:34:08 1512164048.416713: $GPRMC,213409,A,3946.9651,N,08404.9728,W,0.0000,0.000,011217,,*39
2017-12-01 16:34:08 1512164048.416776: $GPGSA,A,3,1,10,14,22,26,31,32,11,12,138,,,2.0,1.0,1.5*3E
2017-12-01 16:34:09 1512164049.425895: $GPZDA,213410.00,01,12,2017,00,00*65
2017-12-01 16:34:09 1512164049.426074: $GPGGA,213410,3946.9651,N,08404.9728,W,2,10,1.00,288.19,M,-33.324,M,,*7B
2017-12-01 16:34:09 1512164049.426142: $GPRMC,213410,A,3946.9651,N,08404.9728,W,0.0000,0.000,011217,,*31
2017-12-01 16:34:09 1512164049.426203: $GPGSA,A,3,1,10,14,22,26,31,32,11,12,138,,,2.0,1.0,1.5*3E
2017-12-01 16:34:10 1512164050.756360: $GPGSV,3,1,12,01,22,298,42,10,46,148,44,14,67,331,42,22,20,312,40*77
2017-12-01 16:34:10 1512164050.756596: $GPGSV,3,2,12,26,04,183,37,31,58,226,50,32,68,033,48,11,08,280,33*78
2017-12-01 16:34:10 1512164050.756665: $GPGSV,3,3,12,12,21,048,25,25,40,088,00,18,16,144,00,138,38,213,40*48
2017-12-01 16:34:10 1512164050.869763: $GPZDA,213411.00,01,12,2017,00,00*64
2017-12-01 16:34:10 1512164050.869926: $GPGGA,213411,3946.9651,N,08404.9728,W,2,10,1.00,288.19,M,-33.324,M,,*7A
2017-12-01 16:34:10 1512164050.869991: $GPRMC,213411,A,3946.9651,N,08404.9728,W,0.0000,0.000,011217,,*30
2017-12-01 16:34:10 1512164050.870051: $GPGSA,A,3,1,10,14,22,26,31,32,11,12,138,,,2.0,1.0,1.5*3E
2017-12-01 16:34:11 1512164051.417260: $GPZDA,213412.00,01,12,2017,00,00*67
2017-12-01 16:34:11 1512164051.417434: $GPGGA,213412,3946.9651,N,08404.9728,W,2,10,1.00,288.19,M,-33.324,M,,*79
2017-12-01 16:34:11 1512164051.417501: $GPRMC,213412,A,3946.9651,N,08404.9728,W,0.0000,0.000,011217,,*33
2017-12-01 16:34:11 1512164051.417563: $GPGSA,A,3,1,10,14,22,26,31,32,11,12,138,,,2.0,1.0,1.5*3E
2017-12-01 16:34:12 1512164052.399049: $GPZDA,213413.00,01,12,2017,00,00*66
2017-12-01 16:34:12 1512164052.399220: $GPGGA,213413,3946.9651,N,08404.9728,W,2,10,1.00,288.19,M,-33.324,M,,*78
2017-12-01 16:34:12 1512164052.399286: $GPRMC,213413,A,3946.9651,N,08404.9728,W,0.0000,0.000,011217,,*32
2017-12-01 16:34:12 1512164052.399347: $GPGSA,A,3,1,10,14,22,26,31,32,11,12,138,,,2.0,1.0,1.5*3E
2017-12-01 16:34:13 1512164053.735939: $GPGSV,3,1,12,01,22,298,41,10,46,148,44,14,67,331,42,22,20,312,41*75
2017-12-01 16:34:13 1512164053.736143: $GPGSV,3,2,12,26,04,183,37,31,58,226,50,32,68,033,48,11,08,280,28*72
2017-12-01 16:34:13 1512164053.736211: $GPGSV,3,3,12,12,21,048,26,25,40,088,00,18,16,144,00,138,38,213,40*4B
2017-12-01 16:34:13 1512164053.849389: $GPZDA,213414.00,01,12,2017,00,00*61
2017-12-01 16:34:13 1512164053.849562: $GPGGA,213414,3946.9651,N,08404.9728,W,2,10,1.00,288.19,M,-33.324,M,,*7F
2017-12-01 16:34:13 1512164053.849627: $GPRMC,213414,A,3946.9651,N,08404.9728,W,0.0000,0.000,011217,,*35
2017-12-01 16:34:13 1512164053.849688: $GPGSA,A,3,1,10,14,22,26,31,32,11,12,138,,,2.0,1.0,1.5*3E
2017-12-01 16:34:14 1512164054.475279: $GPZDA,213415.00,01,12,2017,00,00*60
2017-12-01 16:34:14 1512164054.475447: $GPGGA,213415,3946.9647,N,08404.9729,W,2,10,1.00,288.96,M,-33.324,M,,*7F
2017-12-01 16:34:14 1512164054.475514: $GPRMC,213415,A,3946.9647,N,08404.9729,W,0.0000,0.000,011217,,*32
2017-12-01 16:34:14 1512164054.475574: $GPGSA,A,3,1,10,14,22,26,31,32,11,12,138,,,2.0,1.0,1.5*3E
2017-12-01 16:34:15 1512164055.419656: $GPZDA,213416.00,01,12,2017,00,00*63
2017-12-01 16:34:15 1512164055.420007: $GPGGA,213416,3946.9647,N,08404.9729,W,2,10,1.00,288.96,M,-33.324,M,,*7C
2017-12-01 16:34:15 1512164055.420133: $GPRMC,213416,A,3946.9647,N,08404.9729,W,0.0000,0.000,011217,,*31
2017-12-01 16:34:15 1512164055.420252: $GPGSA,A,3,1,10,14,22,26,31,32,11,12,138,,,2.0,1.0,1.5*3E
2017-12-01 16:34:16 1512164056.738913: $GPGSV,3,1,12,01,22,298,40,10,46,148,44,14,67,331,42,22,20,312,41*74
2017-12-01 16:34:16 1512164056.739253: $GPGSV,3,2,12,26,04,183,37,31,58,226,50,32,68,033,47,11,08,280,29*7C
2017-12-01 16:34:16 1512164056.739380: $GPGSV,3,3,12,12,21,048,26,25,40,088,07,18,16,144,00,138,38,213,38*43
2017-12-01 16:34:16 1512164056.852823: $GPZDA,213417.00,01,12,2017,00,00*62
2017-12-01 16:34:16 1512164056.853159: $GPGGA,213417,3946.9647,N,08404.9729,W,2,10,1.00,288.96,M,-33.324,M,,*7D
2017-12-01 16:34:16 1512164056.853246: $GPRMC,213417,A,3946.9647,N,08404.9729,W,0.0000,0.000,011217,,*30
2017-12-01 16:34:16 1512164056.853309: $GPGSA,A,3,1,10,14,22,26,31,32,11,12,138,,,2.0,1.0,1.5*3E
2017-12-01 16:34:17 1512164057.418244: $GPZDA,213418.00,01,12,2017,00,00*6D
2017-12-01 16:34:17 1512164057.418424: $GPGGA,213418,3946.9647,N,08404.9729,W,2,10,1.00,288.96,M,-33.324,M,,*72
2017-12-01 16:34:17 1512164057.418511: $GPRMC,213418,A,3946.9647,N,08404.9729,W,0.0000,0.000,011217,,*3F
2017-12-01 16:34:17 1512164057.418576: $GPGSA,A,3,1,10,14,22,26,31,32,11,12,138,,,2.0,1.0,1.5*3E
2017-12-01 16:34:18 1512164058.421804: $GPZDA,213419.00,01,12,2017,00,00*6C
2017-12-01 16:34:18 1512164058.422027: $GPGGA,213419,3946.9647,N,08404.9729,W,2,10,1.00,288.96,M,-33.324,M,,*73
2017-12-01 16:34:18 1512164058.422096: $GPRMC,213419,A,3946.9647,N,08404.9729,W,0.0000,0.000,011217,,*3E
2017-12-01 16:34:18 1512164058.422156: $GPGSA,A,3,1,10,14,22,26,31,32,11,12,138,,,2.0,1.0,1.5*3E
2017-12-01 16:34:19 1512164059.755469: $GPGSV,3,1,12,01,22,298,40,10,46,148,44,14,67,331,42,22,20,312,41*74
2017-12-01 16:34:19 1512164059.755654: $GPGSV,3,2,12,26,04,183,37,31,58,226,50,32,68,033,48,11,08,280,29*73
2017-12-01 16:34:19 1512164059.755721: $GPGSV,3,3,12,12,21,048,27,25,40,088,26,18,16,144,00,138,38,213,41*4F
2017-12-01 16:34:19 1512164059.869333: $GPZDA,213420.00,01,12,2017,00,00*66
2017-12-01 16:34:19 1512164059.869516: $GPGGA,213420,3946.9647,N,08404.9729,W,2,11,1.00,288.96,M,-33.324,M,,*78
2017-12-01 16:34:19 1512164059.869583: $GPRMC,213420,A,3946.9647,N,08404.9729,W,0.0000,0.000,011217,,*34
2017-12-01 16:34:19 1512164059.869645: $GPGSA,A,3,1,10,14,22,26,31,32,11,12,25,138,,2.0,1.0,1.5*39
2017-12-01 16:34:20 1512164060.397315: $GPZDA,213421.00,01,12,2017,00,00*67
2017-12-01 16:34:20 1512164060.397497: $GPGGA,213421,3946.9647,N,08404.9729,W,2,11,1.00,288.96,M,-33.324,M,,*79
2017-12-01 16:34:20 1512164060.397565: $GPRMC,213421,A,3946.9647,N,08404.9729,W,0.0000,0.000,011217,,*35
2017-12-01 16:34:20 1512164060.397626: $GPGSA,A,3,1,10,14,22,26,31,32,11,12,25,138,,2.0,1.0,1.5*39
2017-12-01 16:34:21 1512164061.416888: $GPZDA,213422.00,01,12,2017,00,00*64
2017-12-01 16:34:21 1512164061.417075: $GPGGA,213422,3946.9647,N,08404.9729,W,2,11,1.00,288.96,M,-33.324,M,,*7A
2017-12-01 16:34:21 1512164061.417142: $GPRMC,213422,A,3946.9647,N,08404.9729,W,0.0000,0.000,011217,,*36
2017-12-01 16:34:21 1512164061.417202: $GPGSA,A,3,1,10,14,22,26,31,32,11,12,25,138,,2.0,1.0,1.5*39
2017-12-01 16:34:22 1512164062.753775: $GPGSV,3,1,12,01,22,298,41,10,46,148,44,14,67,331,42,22,20,312,42*76
2017-12-01 16:34:22 1512164062.753991: $GPGSV,3,2,12,26,04,183,36,31,58,226,50,32,68,033,48,11,08,280,25*7E
2017-12-01 16:34:22 1512164062.754060: $GPGSV,3,3,12,12,21,048,27,03,01,316,28,25,40,088,00,138,38,213,40*49
