2017-12-01 17:42:59 1512168179.197120: {"class":"VERSION","release":"3.16","rev":"3.16-4","proto_major":3,"proto_minor":11}
2017-12-01 17:42:59 1512168179.197669: {"class":"DEVICES","devices":[{"class":"DEVICE","path":"/dev/ttyUSB0","driver":"SiRF","subtype":"9\u0006GSD4e_4.1.2-P1_RPATCH.05-F-GPS-4R-1510281 11/03/2015 307","activated":"2017-12-01T22:42:58.571Z","flags":1,"native":1,"bps":4800,"parity":"N","stopbits":1,"cycle":1.00}]}
2017-12-01 17:42:59 1512168179.197785: {"class":"WATCH","enable":true,"json":false,"nmea":true,"raw":0,"scaled":false,"timing":false,"split24":false,"pps":false}
2017-12-01 17:42:59 1512168179.408943: $GPZDA,224300.00,01,12,2017,00,00*67
2017-12-01 17:42:59 1512168179.409115: $GPGGA,224300,3946.9730,N,08404.9839,W,2,12,0.80,297.04,M,-33.325,M,,*78
2017-12-01 17:42:59 1512168179.409182: $GPRMC,224300,A,3946.9730,N,08404.9839,W,0.0000,0.000,011217,,*3A
2017-12-01 17:42:59 1512168179.409243: $GPGSA,A,3,1,3,10,14,22,25,26,31,32,16,29,138,2.0,0.8,1.5*0C
2017-12-01 17:43:00 1512168180.739681: $GPGSV,3,1,12,01,15,268,43,03,27,312,45,10,14,157,43,14,67,058,41*7D
2017-12-01 17:43:00 1512168180.739860: $GPGSV,3,2,12,22,44,295,47,25,31,051,43,26,33,177,44,31,79,327,46*7D
2017-12-01 17:43:00 1512168180.739927: $GPGSV,3,3,12,32,50,088,45,16,05,190,24,29,03,088,35,138,38,213,45*4D
2017-12-01 17:43:00 1512168180.853352: $GPZDA,224301.00,01,12,2017,00,00*66
2017-12-01 17:43:00 1512168180.853515: $GPGGA,224301,3946.9730,N,08404.9839,W,2,12,0.80,297.04,M,-33.325,M,,*79
2017-12-01 17:43:00 1512168180.853581: $GPRMC,224301,A,3946.9730,N,08404.9839,W,0.0000,0.000,011217,,*3B
2017-12-01 17:43:00 1512168180.853643: $GPGSA,A,3,1,3,10,14,22,25,26,31,32,16,29,138,2.0,0.8,1.5*0C
2017-12-01 17:43:01 1512168181.478767: $GPZDA,224302.00,01,12,2017,00,00*65
2017-12-01 17:43:01 1512168181.478945: $GPGGA,224302,3946.9730,N,08404.9839,W,2,12,0.80,297.04,M,-33.325,M,,*7A
2017-12-01 17:43:01 1512168181.479012: $GPRMC,224302,A,3946.9730,N,08404.9839,W,0.0000,0.000,011217,,*38
2017-12-01 17:43:01 1512168181.479074: $GPGSA,A,3,1,3,10,14,22,25,26,31,32,16,29,138,2.0,0.8,1.5*0C
2017-12-01 17:43:02 1512168182.430776: $GPZDA,224303.00,01,12,2017,00,00*64
2017-12-01 17:43:02 1512168182.430939: $GPGGA,224303,3946.9730,N,08404.9839,W,2,12,0.80,297.04,M,-33.325,M,,*7B
2017-12-01 17:43:02 1512168182.431005: $GPRMC,224303,A,3946.9730,N,08404.9839,W,0.0000,0.000,011217,,*39
2017-12-01 17:43:02 1512168182.431065: $GPGSA,A,3,1,3,10,14,22,25,26,31,32,16,29,138,2.0,0.8,1.5*0C
2017-12-01 17:43:03 1512168183.767479: $GPGSV,3,1,12,01,15,268,42,03,27,312,45,10,14,157,43,14,67,058,41*7C
2017-12-01 17:43:03 1512168183.767660: $GPGSV,3,2,12,22,44,295,47,25,31,051,43,26,33,177,44,31,79,327,46*7D
2017-12-01 17:43:03 1512168183.767746: $GPGSV,3,3,12,32,50,088,45,16,05,190,22,29,03,088,34,138,38,213,45*4A
2017-12-01 17:43:03 1512168183.881141: $GPZDA,224304.00,01,12,2017,00,00*63
2017-12-01 17:43:03 1512168183.881313: $GPGGA,224304,3946.9730,N,08404.9839,W,2,12,0.80,297.04,M,-33.325,M,,*7C
2017-12-01 17:43:03 1512168183.881462: $GPRMC,224304,A,3946.9730,N,08404.9839,W,0.0000,0.000,011217,,*3E
2017-12-01 17:43:03 1512168183.881528: $GPGSA,A,3,1,3,10,14,22,25,26,31,32,16,29,138,2.0,0.8,1.5*0C
2017-12-01 17:43:04 1512168184.410570: $GPZDA,224305.00,01,12,2017,00,00*62
2017-12-01 17:43:04 1512168184.410745: $GPGGA,224305,3946.9730,N,08404.9839,W,2,12,0.80,297.04,M,-33.325,M,,*7D
2017-12-01 17:43:04 1512168184.410813: $GPRMC,224305,A,3946.9730,N,08404.9839,W,0.0000,0.000,011217,,*3F
2017-12-01 17:43:04 1512168184.410873: $GPGSA,A,3,1,3,10,14,22,25,26,31,32,16,29,138,2.0,0.8,1.5*0C
2017-12-01 17:43:05 1512168185.407887: $GPZDA,224306.00,01,12,2017,00,00*61
2017-12-01 17:43:05 1512168185.408055: $GPGGA,224306,3946.9730,N,08404.9839,W,2,12,0.80,297.04,M,-33.325,M,,*7E
2017-12-01 17:43:05 1512168185.408121: $GPRMC,224306,A,3946.9730,N,08404.9839,W,0.0000,0.000,011217,,*3C
2017-12-01 17:43:05 1512168185.408182: $GPGSA,A,3,1,3,10,14,22,25,26,31,32,16,29,138,2.0,0.8,1.5*0C
2017-12-01 17:43:06 1512168186.744080: $GPGSV,3,1,12,01,15,268,42,03,27,312,45,10,14,157,43,14,67,058,40*7D
2017-12-01 17:43:06 1512168186.744328: $GPGSV,3,2,12,22,44,295,47,25,31,051,43,26,33,177,44,31,79,327,45*7E
2017-12-01 17:43:06 1512168186.744398: $GPGSV,3,3,12,32,50,088,45,16,05,190,22,29,03,088,35,138,38,213,45*4B
2017-12-01 17:43:06 1512168186.856456: $GPZDA,224307.00,01,12,2017,00,00*60
2017-12-01 17:43:06 1512168186.856626: $GPGGA,224307,3946.9730,N,08404.9839,W,2,12,0.80,297.04,M,-33.325,M,,*7F
2017-12-01 17:43:06 1512168186.856691: $GPRMC,224307,A,3946.9730,N,08404.9839,W,0.0000,0.000,011217,,*3D
2017-12-01 17:43:06 1512168186.856751: $GPGSA,A,3,1,3,10,14,22,25,26,31,32,16,29,138,2.0,0.8,1.5*0C
2017-12-01 17:43:07 1512168187.411068: $GPZDA,224308.00,01,12,2017,00,00*6F
2017-12-01 17:43:07 1512168187.411233: $GPGGA,224308,3946.9730,N,08404.9839,W,2,12,0.80,297.04,M,-33.325,M,,*70
2017-12-01 17:43:07 1512168187.411299: $GPRMC,224308,A,3946.9730,N,08404.9839,W,0.0000,0.000,011217,,*32
2017-12-01 17:43:07 1512168187.411425: $GPGSA,A,3,1,3,10,14,22,25,26,31,32,16,29,138,2.0,0.8,1.5*0C
2017-12-01 17:43:08 1512168188.402897: $GPZDA,224309.00,01,12,2017,00,00*6E
2017-12-01 17:43:08 1512168188.403079: $GPGGA,224309,3946.9730,N,08404.9839,W,2,12,0.80,297.04,M,-33.325,M,,*71
2017-12-01 17:43:08 1512168188.403148: $GPRMC,224309,A,3946.9730,N,08404.9839,W,0.0000,0.000,011217,,*33
2017-12-01 17:43:08 1512168188.403209: $GPGSA,A,3,1,3,10,14,22,25,26,31,32,16,29,138,2.0,0.8,1.5*0C
2017-12-01 17:43:09 1512168189.743610: $GPGSV,3,1,12,01,15,268,42,03,27,312,46,10,14,157,43,14,67,058,40*7E
2017-12-01 17:43:09 1512168189.743776: $GPGSV,3,2,12,22,44,295,48,25,31,051,43,26,33,177,44,31,79,327,46*72
2017-12-01 17:43:09 1512168189.743842: $GPGSV,3,3,12,32,50,088,45,16,05,190,23,29,03,088,35,138,38,213,46*49
2017-12-01 17:43:09 1512168189.856968: $GPZDA,224310.00,01,12,2017,00,00*66
2017-12-01 17:43:09 1512168189.857147: $GPGGA,224310,3946.9730,N,08404.9839,W,2,12,0.80,297.04,M,-33.325,M,,*79
2017-12-01 17:43:09 1512168189.857215: $GPRMC,224310,A,3946.9730,N,08404.9839,W,0.0000,0.000,011217,,*3B
2017-12-01 17:43:09 1512168189.857276: $GPGSA,A,3,1,3,10,14,22,25,26,31,32,16,29,138,2.0,0.8,1.5*0C
2017-12-01 17:43:10 1512168190.407905: $GPZDA,224311.00,01,12,2017,00,00*67
2017-12-01 17:43:10 1512168190.408073: $GPGGA,224311,3946.9730,N,08404.9839,W,2,12,0.80,297.04,M,-33.325,M,,*78
2017-12-01 17:43:10 1512168190.408139: $GPRMC,224311,A,3946.9730,N,08404.9839,W,0.0000,0.000,011217,,*3A
2017-12-01 17:43:10 1512168190.408199: $GPGSA,A,3,1,3,10,14,22,25,26,31,32,16,29,138,2.0,0.8,1.5*0C
2017-12-01 17:43:11 1512168191.409753: $GPZDA,224312.00,01,12,2017,00,00*64
2017-12-01 17:43:11 1512168191.409923: $GPGGA,224312,3946.9730,N,08404.9839,W,2,12,0.80,297.04,M,-33.325,M,,*7B
2017-12-01 17:43:11 1512168191.409990: $GPRMC,224312,A,3946.9730,N,08404.9839,W,0.0000,0.000,011217,,*39
2017-12-01 17:43:11 1512168191.410051: $GPGSA,A,3,1,3,10,14,22,25,26,31,32,16,29,138,2.0,0.8,1.5*0C
2017-12-01 17:43:12 1512168192.738903: $GPGSV,3,1,12,01,15,268,42,03,27,312,46,10,14,157,43,14,67,058,41*7F
2017-12-01 17:43:12 1512168192.739086: $GPGSV,3,2,12,22,44,295,47,25,31,051,43,26,33,177,44,31,79,327,46*7D
2017-12-01 17:43:12 1512168192.739152: $GPGSV,3,3,12,32,50,088,45,16,05,190,23,29,03,088,35,138,38,213,46*49
2017-12-01 17:43:12 1512168192.852590: $GPZDA,224313.00,01,12,2017,00,00*65
2017-12-01 17:43:12 1512168192.852751: $GPGGA,224313,3946.9730,N,08404.9839,W,2,12,0.80,297.04,M,-33.325,M,,*7A
2017-12-01 17:43:12 1512168192.852818: $GPRMC,224313,A,3946.9730,N,08404.9839,W,0.0000,0.000,011217,,*38
2017-12-01 17:43:12 1512168192.852879: $GPGSA,A,3,1,3,10,14,22,25,26,31,32,16,29,138,2.0,0.8,1.5*0C
2017-12-01 17:43:13 1512168193.408140: $GPZDA,224314.00,01,12,2017,00,00*62
2017-12-01 17:43:13 1512168193.409795: $GPGGA,224314,3946.9730,N,08404.9839,W,2,12,0.80,297.04,M,-33.325,M,,*7D
2017-12-01 17:43:13 1512168193.409911: $GPRMC,224314,A,3946.9730,N,08404.9839,W,0.0000,0.000,011217,,*3F
2017-12-01 17:43:13 1512168193.409975: $GPGSA,A,3,1,3,10,14,22,25,26,31,32,16,29,138,2.0,0.8,1.5*0C
2017-12-01 17:43:14 1512168194.407751: $GPZDA,224315.00,01,12,2017,00,00*63
2017-12-01 17:43:14 1512168194.407920: $GPGGA,224315,3946.9730,N,08404.9839,W,2,12,0.80,297.04,M,-33.325,M,,*7C
2017-12-01 17:43:14 1512168194.407988: $GPRMC,224315,A,3946.9730,N,08404.9839,W,0.0000,0.000,011217,,*3E
2017-12-01 17:43:14 1512168194.408050: $GPGSA,A,3,1,3,10,14,22,25,26,31,32,16,29,138,2.0,0.8,1.5*0C
2017-12-01 17:43:15 1512168195.744727: $GPGSV,3,1,12,01,15,268,42,03,27,312,45,10,14,157,43,14,67,058,41*7C
2017-12-01 17:43:15 1512168195.744912: $GPGSV,3,2,12,22,44,295,48,25,31,051,43,26,33,177,44,31,79,327,46*72
2017-12-01 17:43:15 1512168195.744978: $GPGSV,3,3,12,32,50,088,46,16,05,190,23,29,03,088,35,138,38,213,46*4A
2017-12-01 17:43:15 1512168195.858465: $GPZDA,224316.00,01,12,2017,00,00*60
2017-12-01 17:43:15 1512168195.858638: $GPGGA,224316,3946.9730,N,08404.9839,W,2,12,0.80,297.04,M,-33.325,M,,*7F
2017-12-01 17:43:15 1512168195.858705: $GPRMC,224316,A,3946.9730,N,08404.9839,W,0.0000,0.000,011217,,*3D
2017-12-01 17:43:15 1512168195.858766: $GPGSA,A,3,1,3,10,14,22,25,26,31,32,16,29,138,2.0,0.8,1.5*0C
2017-12-01 17:43:16 1512168196.483867: $GPZDA,224317.00,01,12,2017,00,00*61
2017-12-01 17:43:16 1512168196.484033: $GPGGA,224317,3946.9730,N,08404.9839,W,2,12,0.80,297.04,M,-33.325,M,,*7E
2017-12-01 17:43:16 1512168196.484100: $GPRMC,224317,A,3946.9730,N,08404.9839,W,0.0000,0.000,011217,,*3C
2017-12-01 17:43:16 1512168196.484161: $GPGSA,A,3,1,3,10,14,22,25,26,31,32,16,29,138,2.0,0.8,1.5*0C
2017-12-01 17:43:17 1512168197.408277: $GPZDA,224318.00,01,12,2017,00,00*6E
2017-12-01 17:43:17 1512168197.408459: $GPGGA,224318,3946.9730,N,08404.9839,W,2,12,0.80,297.04,M,-33.325,M,,*71
2017-12-01 17:43:17 1512168197.408526: $GPRMC,224318,A,3946.9730,N,08404.9839,W,0.0000,0.000,011217,,*33
2017-12-01 17:43:17 1512168197.408587: $GPGSA,A,3,1,3,10,14,22,25,26,31,32,16,29,138,2.0,0.8,1.5*0C
2017-12-01 17:43:18 1512168198.743930: $GPGSV,3,1,12,01,15,268,42,03,27,312,45,10,14,157,43,14,67,058,41*7C
2017-12-01 17:43:18 1512168198.744141: $GPGSV,3,2,12,22,44,295,48,25,31,051,43,26,33,177,44,31,79,327,46*72
2017-12-01 17:43:18 1512168198.744207: $GPGSV,3,3,12,32,50,088,45,16,05,190,16,29,03,088,36,138,38,213,46*4C
2017-12-01 17:43:18 1512168198.857509: $GPZDA,224319.00,01,12,2017,00,00*6F
2017-12-01 17:43:18 1512168198.857681: $GPGGA,224319,3946.9730,N,08404.9839,W,2,12,0.80,297.04,M,-33.325,M,,*70
2017-12-01 17:43:18 1512168198.857747: $GPRMC,224319,A,3946.9730,N,08404.9839,W,0.0000,0.000,011217,,*32
2017-12-01 17:43:18 1512168198.857807: $GPGSA,A,3,1,3,10,14,22,25,26,31,32,16,29,138,2.0,0.8,1.5*0C
