2017-11-16 13:29:03 1510856943.706483: {"class":"VERSION","release":"3.17","rev":"3.17","proto_major":3,"proto_minor":12}
2017-11-16 13:29:03 1510856943.706897: {"class":"DEVICES","devices":[{"class":"DEVICE","path":"/dev/ttyUSB0","driver":"SiRF","subtype":"9\u0006GSD4e_4.1.2-P1_RPATCH.05-F-GPS-4R-1510281 11/03/2015 307","activated":"2017-11-16T18:29:03.603Z","flags":1,"native":1,"bps":4800,"parity":"N","stopbits":1,"cycle":1.00}]}
2017-11-16 13:29:03 1510856943.707024: {"class":"WATCH","enable":true,"json":false,"nmea":true,"raw":0,"scaled":false,"timing":false,"split24":false,"pps":false}
2017-11-16 13:29:03 1510856943.716503: $GPZDA,182902.00,16,11,2017,00,00*65
2017-11-16 13:29:03 1510856943.716655: $GPGGA,182902,3946.9615,N,08404.9845,W,2,12,0.80,303.96,M,-33.324,M,,*74
2017-11-16 13:29:03 1510856943.716715: $GPRMC,182902,A,3946.9615,N,08404.9845,W,0.0000,0.000,161117,,*35
2017-11-16 13:29:03 1510856943.716770: $GPGSA,A,3,10,13,15,18,20,21,24,27,29,5,32,138,1.6,0.8,1.3*36
2017-11-16 13:29:04 1510856944.266385: $GPZDA,182903.00,16,11,2017,00,00*64
2017-11-16 13:29:04 1510856944.266583: $GPGGA,182903,3946.9615,N,08404.9845,W,2,12,0.80,303.96,M,-33.324,M,,*75
2017-11-16 13:29:04 1510856944.266644: $GPRMC,182903,A,3946.9615,N,08404.9845,W,0.0000,0.000,161117,,*34
2017-11-16 13:29:04 1510856944.266701: $GPGSA,A,3,10,13,15,18,20,21,24,27,29,5,32,138,1.6,0.8,1.3*36
2017-11-16 13:29:05 1510856945.268053: $GPZDA,182904.00,16,11,2017,00,00*63
2017-11-16 13:29:05 1510856945.268214: $GPGGA,182904,3946.9615,N,08404.9845,W,2,12,0.80,303.96,M,-33.324,M,,*72
2017-11-16 13:29:05 1510856945.268275: $GPRMC,182904,A,3946.9615,N,08404.9845,W,0.0000,0.000,161117,,*33
2017-11-16 13:29:05 1510856945.268331: $GPGSA,A,3,10,13,15,18,20,21,24,27,29,5,32,138,1.6,0.8,1.3*36
2017-11-16 13:29:06 1510856946.603395: $GPGSV,3,1,12,10,26,286,45,13,26,045,45,15,57,049,49,18,57,304,46*7E
2017-11-16 13:29:06 1510856946.603583: $GPGSV,3,2,12,20,48,076,48,21,79,252,46,24,36,135,43,27,17,309,41*7D
2017-11-16 13:29:06 1510856946.603643: $GPGSV,3,3,12,29,06,187,29,05,02,090,21,32,04,226,22,138,38,213,45*4C
2017-11-16 13:29:06 1510856946.717172: $GPZDA,182905.00,16,11,2017,00,00*62
2017-11-16 13:29:06 1510856946.717348: $GPGGA,182905,3946.9615,N,08404.9845,W,2,12,0.80,303.96,M,-33.324,M,,*73
2017-11-16 13:29:06 1510856946.717409: $GPRMC,182905,A,3946.9615,N,08404.9845,W,0.0000,0.000,161117,,*32
2017-11-16 13:29:06 1510856946.717481: $GPGSA,A,3,10,13,15,18,20,21,24,27,29,5,32,138,1.6,0.8,1.3*36
2017-11-16 13:29:07 1510856947.281356: $GPZDA,182906.00,16,11,2017,00,00*61
2017-11-16 13:29:07 1510856947.281524: $GPGGA,182906,3946.9615,N,08404.9845,W,2,12,0.80,303.96,M,-33.324,M,,*70
2017-11-16 13:29:07 1510856947.281585: $GPRMC,182906,A,3946.9615,N,08404.9845,W,0.0000,0.000,161117,,*31
2017-11-16 13:29:07 1510856947.281642: $GPGSA,A,3,10,13,15,18,20,21,24,27,29,5,32,138,1.6,0.8,1.3*36
2017-11-16 13:29:08 1510856948.285750: $GPZDA,182907.00,16,11,2017,00,00*60
2017-11-16 13:29:08 1510856948.285926: $GPGGA,182907,3946.9615,N,08404.9845,W,2,12,0.80,303.96,M,-33.324,M,,*71
2017-11-16 13:29:08 1510856948.285989: $GPRMC,182907,A,3946.9615,N,08404.9845,W,0.0000,0.000,161117,,*30
2017-11-16 13:29:08 1510856948.286045: $GPGSA,A,3,10,13,15,18,20,21,24,27,29,5,32,138,1.6,0.8,1.3*36
2017-11-16 13:29:09 1510856949.602754: $GPGSV,3,1,12,10,26,286,45,13,26,045,45,15,57,049,49,18,57,304,46*7E
2017-11-16 13:29:09 1510856949.602926: $GPGSV,3,2,12,20,48,076,48,21,79,252,47,24,36,135,44,27,17,309,40*7A
2017-11-16 13:29:09 1510856949.602987: $GPGSV,3,3,12,29,06,187,34,05,02,090,20,32,04,226,22,138,38,213,44*40
2017-11-16 13:29:09 1510856949.716328: $GPZDA,182908.00,16,11,2017,00,00*6F
2017-11-16 13:29:09 1510856949.716501: $GPGGA,182908,3946.9615,N,08404.9845,W,2,12,0.80,303.96,M,-33.324,M,,*7E
2017-11-16 13:29:09 1510856949.716564: $GPRMC,182908,A,3946.9615,N,08404.9845,W,0.0000,0.000,161117,,*3F
2017-11-16 13:29:09 1510856949.716620: $GPGSA,A,3,10,13,15,18,20,21,24,27,29,5,32,138,1.6,0.8,1.3*36
2017-11-16 13:29:10 1510856950.341624: $GPZDA,182909.00,16,11,2017,00,00*6E
2017-11-16 13:29:10 1510856950.341856: $GPGGA,182909,3946.9614,N,08404.9839,W,2,12,0.80,304.04,M,-33.324,M,,*79
2017-11-16 13:29:10 1510856950.341925: $GPRMC,182909,A,3946.9614,N,08404.9839,W,0.0000,0.000,161117,,*34
2017-11-16 13:29:10 1510856950.341985: $GPGSA,A,3,10,13,15,18,20,21,24,27,29,5,32,138,1.6,0.8,1.3*36
2017-11-16 13:29:11 1510856951.286090: $GPZDA,182910.00,16,11,2017,00,00*66
2017-11-16 13:29:11 1510856951.286269: $GPGGA,182910,3946.9614,N,08404.9839,W,2,12,0.80,304.04,M,-33.324,M,,*71
2017-11-16 13:29:11 1510856951.286330: $GPRMC,182910,A,3946.9614,N,08404.9839,W,0.0000,0.000,161117,,*3C
2017-11-16 13:29:11 1510856951.286386: $GPGSA,A,3,10,13,15,18,20,21,24,27,29,5,32,138,1.6,0.8,1.3*36
2017-11-16 13:29:12 1510856952.621786: $GPGSV,3,1,12,10,26,286,44,13,26,045,45,15,57,049,50,18,57,304,46*77
2017-11-16 13:29:12 1510856952.621975: $GPGSV,3,2,12,20,48,076,48,21,79,252,47,24,36,135,44,27,17,309,40*7A
2017-11-16 13:29:12 1510856952.622036: $GPGSV,3,3,12,29,06,187,32,05,02,090,15,32,04,226,21,138,38,213,44*43
2017-11-16 13:29:12 1510856952.735014: $GPZDA,182911.00,16,11,2017,00,00*67
2017-11-16 13:29:12 1510856952.735185: $GPGGA,182911,3946.9614,N,08404.9839,W,2,12,0.80,304.04,M,-33.324,M,,*70
2017-11-16 13:29:12 1510856952.735246: $GPRMC,182911,A,3946.9614,N,08404.9839,W,0.0000,0.000,161117,,*3D
2017-11-16 13:29:12 1510856952.735302: $GPGSA,A,3,10,13,15,18,20,21,24,27,29,5,32,138,1.6,0.8,1.3*36
2017-11-16 13:29:13 1510856953.288492: $GPZDA,182912.00,16,11,2017,00,00*64
2017-11-16 13:29:13 1510856953.288652: $GPGGA,182912,3946.9614,N,08404.9839,W,2,12,0.80,304.04,M,-33.324,M,,*73
2017-11-16 13:29:13 1510856953.288713: $GPRMC,182912,A,3946.9614,N,08404.9839,W,0.0000,0.000,161117,,*3E
2017-11-16 13:29:13 1510856953.288769: $GPGSA,A,3,10,13,15,18,20,21,24,27,29,5,32,138,1.6,0.8,1.3*36
2017-11-16 13:29:14 1510856954.266731: $GPZDA,182913.00,16,11,2017,00,00*65
2017-11-16 13:29:14 1510856954.266887: $GPGGA,182913,3946.9614,N,08404.9839,W,2,12,0.80,304.04,M,-33.324,M,,*72
2017-11-16 13:29:14 1510856954.266969: $GPRMC,182913,A,3946.9614,N,08404.9839,W,0.0000,0.000,161117,,*3F
2017-11-16 13:29:14 1510856954.267027: $GPGSA,A,3,10,13,15,18,20,21,24,27,29,5,32,138,1.6,0.8,1.3*36
2017-11-16 13:29:15 1510856955.622084: $GPGSV,3,1,12,10,26,286,44,13,26,045,46,15,57,049,50,18,57,304,46*74
2017-11-16 13:29:15 1510856955.622255: $GPGSV,3,2,12,20,48,076,48,21,79,252,47,24,36,135,44,27,17,309,39*74
2017-11-16 13:29:15 1510856955.622316: $GPGSV,3,3,12,29,06,187,32,05,02,090,25,32,04,226,21,138,38,213,45*41
2017-11-16 13:29:15 1510856955.735346: $GPZDA,182914.00,16,11,2017,00,00*62
2017-11-16 13:29:15 1510856955.735524: $GPGGA,182914,3946.9614,N,08404.9839,W,2,12,0.80,304.04,M,-33.324,M,,*75
2017-11-16 13:29:15 1510856955.735584: $GPRMC,182914,A,3946.9614,N,08404.9839,W,0.0000,0.000,161117,,*38
2017-11-16 13:29:15 1510856955.735641: $GPGSA,A,3,10,13,15,18,20,21,24,27,29,5,32,138,1.6,0.8,1.3*36
2017-11-16 13:29:16 1510856956.266129: $GPZDA,182915.00,16,11,2017,00,00*63
2017-11-16 13:29:16 1510856956.266298: $GPGGA,182915,3946.9614,N,08404.9839,W,2,12,0.80,304.04,M,-33.324,M,,*74
2017-11-16 13:29:16 1510856956.266360: $GPRMC,182915,A,3946.9614,N,08404.9839,W,0.0000,0.000,161117,,*39
2017-11-16 13:29:16 1510856956.266416: $GPGSA,A,3,10,13,15,18,20,21,24,27,29,5,32,138,1.6,0.8,1.3*36
2017-11-16 13:29:17 1510856957.268296: $GPZDA,182916.00,16,11,2017,00,00*60
2017-11-16 13:29:17 1510856957.268457: $GPGGA,182916,3946.9614,N,08404.9839,W,2,12,0.80,304.04,M,-33.324,M,,*77
2017-11-16 13:29:17 1510856957.268518: $GPRMC,182916,A,3946.9614,N,08404.9839,W,0.0000,0.000,161117,,*3A
2017-11-16 13:29:17 1510856957.268574: $GPGSA,A,3,10,13,15,18,20,21,24,27,29,5,32,138,1.6,0.8,1.3*36
2017-11-16 13:29:18 1510856958.602717: $GPGSV,3,1,12,10,26,286,43,13,26,045,46,15,57,049,51,18,57,304,46*72
2017-11-16 13:29:18 1510856958.602904: $GPGSV,3,2,12,20,48,076,48,21,79,252,47,24,36,135,44,27,17,309,39*74
2017-11-16 13:29:18 1510856958.602965: $GPGSV,3,3,12,29,06,187,32,05,02,090,25,32,04,226,06,138,38,213,44*45
2017-11-16 13:29:18 1510856958.716039: $GPZDA,182917.00,16,11,2017,00,00*61
2017-11-16 13:29:18 1510856958.716199: $GPGGA,182917,3946.9614,N,08404.9839,W,2,12,0.80,304.04,M,-33.324,M,,*76
2017-11-16 13:29:18 1510856958.716260: $GPRMC,182917,A,3946.9614,N,08404.9839,W,0.0000,0.000,161117,,*3B
2017-11-16 13:29:18 1510856958.716316: $GPGSA,A,3,10,13,15,18,20,21,24,27,29,5,32,138,1.6,0.8,1.3*36
