2017-12-31 16:42:02 1514756522.820587: {"class":"VERSION","release":"3.16","rev":"3.16-4","proto_major":3,"proto_minor":11}
2017-12-31 16:42:02 1514756522.820922: {"class":"DEVICES","devices":[{"class":"DEVICE","path":"/dev/ttyUSB0","driver":"SiRF","activated":"2017-12-31T21:42:02.503Z","flags":1,"native":1,"bps":4800,"parity":"N","stopbits":1,"cycle":1.00}]}
2017-12-31 16:42:02 1514756522.821020: {"class":"WATCH","enable":true,"json":false,"nmea":true,"raw":0,"scaled":false,"timing":false,"split24":false,"pps":false}
2017-12-31 16:42:03 1514756523.699484: $GPGSV,3,1,12,22,49,255,43,23,19,304,36,25,11,039,37,03,45,286,34*7B
2017-12-31 16:42:03 1514756523.699673: $GPGSV,3,2,12,16,34,189,47,29,13,066,08,01,01,246,00,31,58,040,51*76
2017-12-31 16:42:03 1514756523.699739: $GPGSV,3,3,12,14,49,103,47,32,27,115,36,26,64,163,42,135,22,240,43*45
2017-12-31 16:42:03 1514756523.812825: $GPZDA,214204.00,31,12,2017,00,00*62
2017-12-31 16:42:03 1514756523.812966: $GPGGA,214204,3946.9579,N,08404.9841,W,2,11,0.80,302.49,M,-33.324,M,,*78
2017-12-31 16:42:03 1514756523.813033: $GPRMC,214204,A,3946.9579,N,08404.9841,W,0.0000,0.000,311217,,*3F
2017-12-31 16:42:03 1514756523.813094: $GPGSA,A,3,22,23,25,3,16,29,31,14,32,26,135,,1.7,0.8,1.3*32
2017-12-31 16:42:04 1514756524.346661: $GPZDA,214205.00,31,12,2017,00,00*63
2017-12-31 16:42:04 1514756524.346817: $GPGGA,214205,3946.9579,N,08404.9841,W,2,11,0.80,302.49,M,-33.324,M,,*79
2017-12-31 16:42:04 1514756524.346883: $GPRMC,214205,A,3946.9579,N,08404.9841,W,0.0000,0.000,311217,,*3E
2017-12-31 16:42:04 1514756524.346943: $GPGSA,A,3,22,23,25,3,16,29,31,14,32,26,135,,1.7,0.8,1.3*32
2017-12-31 16:42:05 1514756525.363180: $GPZDA,214206.00,31,12,2017,00,00*60
2017-12-31 16:42:05 1514756525.363357: $GPGGA,214206,3946.9579,N,08404.9841,W,2,11,0.80,302.49,M,-33.324,M,,*7A
2017-12-31 16:42:05 1514756525.363430: $GPRMC,214206,A,3946.9579,N,08404.9841,W,0.0000,0.000,311217,,*3D
2017-12-31 16:42:05 1514756525.363497: $GPGSA,A,3,22,23,25,3,16,29,31,14,32,26,135,,1.7,0.8,1.3*32
2017-12-31 16:42:06 1514756526.673581: $GPGSV,3,1,12,22,49,255,43,23,19,304,36,25,11,039,37,03,45,286,34*7B
2017-12-31 16:42:06 1514756526.673751: $GPGSV,3,2,12,16,34,189,47,29,13,066,27,01,01,246,00,31,58,040,51*7B
2017-12-31 16:42:06 1514756526.673819: $GPGSV,3,3,12,14,49,103,47,32,27,115,36,26,64,163,42,135,22,240,42*44
2017-12-31 16:42:06 1514756526.786894: $GPZDA,214207.00,31,12,2017,00,00*61
2017-12-31 16:42:06 1514756526.787031: $GPGGA,214207,3946.9579,N,08404.9841,W,2,11,0.80,302.49,M,-33.324,M,,*7B
2017-12-31 16:42:06 1514756526.787154: $GPRMC,214207,A,3946.9579,N,08404.9841,W,0.0000,0.000,311217,,*3C
2017-12-31 16:42:06 1514756526.787227: $GPGSA,A,3,22,23,25,3,16,29,31,14,32,26,135,,1.7,0.8,1.3*32
2017-12-31 16:42:07 1514756527.349037: $GPZDA,214208.00,31,12,2017,00,00*6E
2017-12-31 16:42:07 1514756527.349220: $GPGGA,214208,3946.9579,N,08404.9841,W,2,11,0.80,302.49,M,-33.324,M,,*74
2017-12-31 16:42:07 1514756527.349291: $GPRMC,214208,A,3946.9579,N,08404.9841,W,0.0000,0.000,311217,,*33
2017-12-31 16:42:07 1514756527.349356: $GPGSA,A,3,22,23,25,3,16,29,31,14,32,26,135,,1.7,0.8,1.3*32
2017-12-31 16:42:08 1514756528.363671: $GPZDA,214209.00,31,12,2017,00,00*6F
2017-12-31 16:42:08 1514756528.363843: $GPGGA,214209,3946.9579,N,08404.9841,W,2,11,0.80,302.49,M,-33.324,M,,*75
2017-12-31 16:42:08 1514756528.363913: $GPRMC,214209,A,3946.9579,N,08404.9841,W,0.0000,0.000,311217,,*32
2017-12-31 16:42:08 1514756528.363978: $GPGSA,A,3,22,23,25,3,16,29,31,14,32,26,135,,1.7,0.8,1.3*32
2017-12-31 16:42:09 1514756529.699428: $GPGSV,3,1,12,22,49,255,43,23,19,304,30,25,11,039,36,03,45,286,34*7C
2017-12-31 16:42:09 1514756529.699616: $GPGSV,3,2,12,16,34,189,47,29,13,066,27,01,01,246,13,31,58,040,51*79
2017-12-31 16:42:09 1514756529.699707: $GPGSV,3,3,12,14,49,103,47,32,27,115,37,26,64,163,42,135,22,240,43*44
2017-12-31 16:42:09 1514756529.813053: $GPZDA,214210.00,31,12,2017,00,00*67
2017-12-31 16:42:09 1514756529.813209: $GPGGA,214210,3946.9579,N,08404.9841,W,2,11,0.80,302.49,M,-33.324,M,,*7D
2017-12-31 16:42:09 1514756529.813275: $GPRMC,214210,A,3946.9579,N,08404.9841,W,0.0000,0.000,311217,,*3A
2017-12-31 16:42:09 1514756529.813390: $GPGSA,A,3,22,23,25,3,16,29,31,14,32,26,135,,1.7,0.8,1.3*32
2017-12-31 16:42:10 1514756530.438459: $GPZDA,214211.00,31,12,2017,00,00*66
2017-12-31 16:42:10 1514756530.438611: $GPGGA,214211,3946.9579,N,08404.9841,W,2,11,0.80,302.49,M,-33.324,M,,*7C
2017-12-31 16:42:10 1514756530.438675: $GPRMC,214211,A,3946.9579,N,08404.9841,W,0.0000,0.000,311217,,*3B
2017-12-31 16:42:10 1514756530.438736: $GPGSA,A,3,22,23,25,3,16,29,31,14,32,26,135,,1.7,0.8,1.3*32
2017-12-31 16:42:11 1514756531.346505: $GPZDA,214212.00,31,12,2017,00,00*65
2017-12-31 16:42:11 1514756531.346673: $GPGGA,214212,3946.9579,N,08404.9841,W,2,11,0.80,302.49,M,-33.324,M,,*7F
2017-12-31 16:42:11 1514756531.346739: $GPRMC,214212,A,3946.9579,N,08404.9841,W,0.0000,0.000,311217,,*38
2017-12-31 16:42:11 1514756531.346800: $GPGSA,A,3,22,23,25,3,16,29,31,14,32,26,135,,1.7,0.8,1.3*32
2017-12-31 16:42:12 1514756532.690991: $GPGSV,3,1,12,22,49,255,43,23,19,304,32,25,11,039,36,03,45,286,34*7E
2017-12-31 16:42:12 1514756532.691147: $GPGSV,3,2,12,16,34,189,47,29,13,066,27,01,01,246,00,31,58,040,51*7B
2017-12-31 16:42:12 1514756532.691211: $GPGSV,3,3,12,14,49,103,47,32,27,115,38,26,64,163,42,135,22,240,43*4B
2017-12-31 16:42:12 1514756532.804655: $GPZDA,214213.00,31,12,2017,00,00*64
2017-12-31 16:42:12 1514756532.804810: $GPGGA,214213,3946.9579,N,08404.9841,W,2,11,0.80,302.49,M,-33.324,M,,*7E
2017-12-31 16:42:12 1514756532.804873: $GPRMC,214213,A,3946.9579,N,08404.9841,W,0.0000,0.000,311217,,*39
2017-12-31 16:42:12 1514756532.804935: $GPGSA,A,3,22,23,25,3,16,29,31,14,32,26,135,,1.7,0.8,1.3*32
