2017-12-01 18:05:26 1512169526.947276: {"class":"VERSION","release":"3.16","rev":"3.16-4","proto_major":3,"proto_minor":11}
2017-12-01 18:05:26 1512169526.947650: {"class":"DEVICES","devices":[{"class":"DEVICE","path":"/dev/ttyUSB0","driver":"SiRF","subtype":"9\u0006GSD4e_4.1.2-P1_RPATCH.05-F-GPS-4R-1510281 11/03/2015 307","activated":"2017-12-01T23:05:26.516Z","flags":1,"native":1,"bps":4800,"parity":"N","stopbits":1,"cycle":1.00}]}
2017-12-01 18:05:26 1512169526.947763: {"class":"WATCH","enable":true,"json":false,"nmea":true,"raw":0,"scaled":false,"timing":false,"split24":false,"pps":false}
2017-12-01 18:05:27 1512169527.712575: $GPGSV,3,1,12,03,35,306,48,14,61,079,43,16,15,189,42,22,49,283,46*7C
2017-12-01 18:05:27 1512169527.712756: $GPGSV,3,2,12,29,07,079,21,25,24,043,43,26,44,174,45,31,74,009,47*77
2017-12-01 18:05:27 1512169527.712821: $GPGSV,3,3,12,32,42,100,43,01,10,259,29,10,05,159,12,138,38,213,46*47
2017-12-01 18:05:27 1512169527.825950: $GPZDA,230528.00,01,12,2017,00,00*6E
2017-12-01 18:05:27 1512169527.826126: $GPGGA,230528,3946.9710,N,08404.9853,W,2,12,0.60,293.68,M,-33.325,M,,*7F
2017-12-01 18:05:27 1512169527.826196: $GPRMC,230528,A,3946.9710,N,08404.9853,W,0.0000,0.000,011217,,*3D
2017-12-01 18:05:27 1512169527.826257: $GPGSA,A,3,3,14,16,22,29,25,26,31,32,1,10,138,2.0,0.6,1.5*02
2017-12-01 18:05:28 1512169528.451293: $GPZDA,230529.00,01,12,2017,00,00*6F
2017-12-01 18:05:28 1512169528.451518: $GPGGA,230529,3946.9710,N,08404.9853,W,2,12,0.60,293.68,M,-33.325,M,,*7E
2017-12-01 18:05:28 1512169528.451604: $GPRMC,230529,A,3946.9710,N,08404.9853,W,0.0000,0.000,011217,,*3C
2017-12-01 18:05:28 1512169528.451668: $GPGSA,A,3,3,14,16,22,29,25,26,31,32,1,10,138,2.0,0.6,1.5*02
2017-12-01 18:05:29 1512169529.377101: $GPZDA,230530.00,01,12,2017,00,00*67
2017-12-01 18:05:29 1512169529.377285: $GPGGA,230530,3946.9710,N,08404.9853,W,2,12,0.60,293.68,M,-33.325,M,,*76
2017-12-01 18:05:29 1512169529.377373: $GPRMC,230530,A,3946.9710,N,08404.9853,W,0.0000,0.000,011217,,*34
2017-12-01 18:05:29 1512169529.377438: $GPGSA,A,3,3,14,16,22,29,25,26,31,32,1,10,138,2.0,0.6,1.5*02
2017-12-01 18:05:30 1512169530.711624: $GPGSV,3,1,12,03,35,306,48,14,61,079,43,16,15,189,41,22,49,283,46*7F
2017-12-01 18:05:30 1512169530.711826: $GPGSV,3,2,12,29,07,079,13,25,24,043,43,26,44,174,45,31,74,009,47*76
2017-12-01 18:05:30 1512169530.711896: $GPGSV,3,3,12,32,42,100,44,01,10,259,29,10,05,159,27,138,38,213,45*45
2017-12-01 18:05:30 1512169530.824992: $GPZDA,230531.00,01,12,2017,00,00*66
2017-12-01 18:05:30 1512169530.825187: $GPGGA,230531,3946.9710,N,08404.9853,W,2,12,0.80,293.68,M,-33.325,M,,*79
2017-12-01 18:05:30 1512169530.825255: $GPRMC,230531,A,3946.9710,N,08404.9853,W,0.0000,0.000,011217,,*35
2017-12-01 18:05:30 1512169530.825316: $GPGSA,A,3,3,14,16,22,29,25,26,31,32,1,10,138,2.0,0.8,1.5*0C
2017-12-01 18:05:31 1512169531.405830: $GPZDA,230532.00,01,12,2017,00,00*65
2017-12-01 18:05:31 1512169531.406006: $GPGGA,230532,3946.9710,N,08404.9853,W,2,12,0.80,293.68,M,-33.325,M,,*7A
2017-12-01 18:05:31 1512169531.406073: $GPRMC,230532,A,3946.9710,N,08404.9853,W,0.0000,0.000,011217,,*36
2017-12-01 18:05:31 1512169531.406139: $GPGSA,A,3,3,14,16,22,29,25,26,31,32,1,10,138,2.0,0.8,1.5*0C
2017-12-01 18:05:32 1512169532.370510: $GPZDA,230533.00,01,12,2017,00,00*64
2017-12-01 18:05:32 1512169532.370688: $GPGGA,230533,3946.9710,N,08404.9853,W,2,12,0.80,293.68,M,-33.325,M,,*7B
2017-12-01 18:05:32 1512169532.370758: $GPRMC,230533,A,3946.9710,N,08404.9853,W,0.0000,0.000,011217,,*37
2017-12-01 18:05:32 1512169532.370820: $GPGSA,A,3,3,14,16,22,29,25,26,31,32,1,10,138,2.0,0.8,1.5*0C
2017-12-01 18:05:33 1512169533.740755: $GPGSV,3,1,12,03,35,306,47,14,61,079,43,16,15,189,42,22,49,283,46*73
2017-12-01 18:05:33 1512169533.740933: $GPGSV,3,2,12,29,07,079,14,25,24,043,44,26,44,174,45,31,74,009,47*76
2017-12-01 18:05:33 1512169533.741002: $GPGSV,3,3,12,32,42,100,44,01,10,259,29,23,05,297,43,138,38,213,46*45
2017-12-01 18:05:33 1512169533.854381: $GPZDA,230534.00,01,12,2017,00,00*63
2017-12-01 18:05:33 1512169533.854530: $GPGGA,230534,3946.9710,N,08404.9853,W,2,11,0.80,293.68,M,-33.325,M,,*7F
2017-12-01 18:05:33 1512169533.854666: $GPRMC,230534,A,3946.9710,N,08404.9853,W,0.0000,0.000,011217,,*30
2017-12-01 18:05:33 1512169533.854732: $GPGSA,A,3,3,14,16,22,25,26,31,32,1,23,138,,2.0,0.8,1.5*07
2017-12-01 18:05:34 1512169534.406507: $GPZDA,230535.00,01,12,2017,00,00*62
2017-12-01 18:05:34 1512169534.406671: $GPGGA,230535,3946.9710,N,08404.9853,W,2,11,0.80,293.68,M,-33.325,M,,*7E
2017-12-01 18:05:34 1512169534.406740: $GPRMC,230535,A,3946.9710,N,08404.9853,W,0.0000,0.000,011217,,*31
2017-12-01 18:05:34 1512169534.406801: $GPGSA,A,3,3,14,16,22,25,26,31,32,1,23,138,,2.0,0.8,1.5*07
2017-12-01 18:05:35 1512169535.408416: $GPZDA,230536.00,01,12,2017,00,00*61
2017-12-01 18:05:35 1512169535.408589: $GPGGA,230536,3946.9710,N,08404.9853,W,2,11,0.80,293.68,M,-33.325,M,,*7D
2017-12-01 18:05:35 1512169535.408674: $GPRMC,230536,A,3946.9710,N,08404.9853,W,0.0000,0.000,011217,,*32
2017-12-01 18:05:35 1512169535.408736: $GPGSA,A,3,3,14,16,22,25,26,31,32,1,23,138,,2.0,0.8,1.5*07
2017-12-01 18:05:36 1512169536.740336: $GPGSV,3,1,12,03,35,306,47,14,61,079,43,16,15,189,42,22,49,283,46*73
2017-12-01 18:05:36 1512169536.740519: $GPGSV,3,2,12,29,07,079,10,25,24,043,44,26,44,174,45,31,74,009,47*72
2017-12-01 18:05:36 1512169536.740586: $GPGSV,3,3,12,32,42,100,43,01,10,259,30,23,05,297,43,138,38,213,45*49
2017-12-01 18:05:36 1512169536.853702: $GPZDA,230537.00,01,12,2017,00,00*60
2017-12-01 18:05:36 1512169536.853873: $GPGGA,230537,3946.9714,N,08404.9853,W,2,12,0.80,294.32,M,-33.325,M,,*73
2017-12-01 18:05:36 1512169536.853941: $GPRMC,230537,A,3946.9714,N,08404.9853,W,0.0000,0.000,011217,,*37
2017-12-01 18:05:36 1512169536.854005: $GPGSA,A,3,3,14,16,22,29,25,26,31,32,1,23,138,2.0,0.8,1.5*0C
2017-12-01 18:05:37 1512169537.372891: $GPZDA,230538.00,01,12,2017,00,00*6F
2017-12-01 18:05:37 1512169537.373065: $GPGGA,230538,3946.9714,N,08404.9853,W,2,12,0.60,294.32,M,-33.325,M,,*72
2017-12-01 18:05:37 1512169537.373146: $GPRMC,230538,A,3946.9714,N,08404.9853,W,0.0000,0.000,011217,,*38
2017-12-01 18:05:37 1512169537.373238: $GPGSA,A,3,3,14,16,22,29,25,26,31,32,1,23,138,2.0,0.6,1.5*02
2017-12-01 18:05:38 1512169538.398931: $GPZDA,230539.00,01,12,2017,00,00*6E
2017-12-01 18:05:38 1512169538.399097: $GPGGA,230539,3946.9714,N,08404.9853,W,2,12,0.60,294.32,M,-33.325,M,,*73
2017-12-01 18:05:38 1512169538.399164: $GPRMC,230539,A,3946.9714,N,08404.9853,W,0.0000,0.000,011217,,*39
2017-12-01 18:05:38 1512169538.399225: $GPGSA,A,3,3,14,16,22,29,25,26,31,32,1,23,138,2.0,0.6,1.5*02
2017-12-01 18:05:39 1512169539.740617: $GPGSV,3,1,12,03,35,306,46,14,61,079,43,16,15,189,42,22,49,283,46*72
2017-12-01 18:05:39 1512169539.740796: $GPGSV,3,2,12,29,07,079,22,25,24,043,44,26,44,174,45,31,74,009,47*73
2017-12-01 18:05:39 1512169539.740862: $GPGSV,3,3,12,32,42,100,43,01,10,259,31,10,05,159,21,138,38,213,46*4E
2017-12-01 18:05:39 1512169539.854030: $GPZDA,230540.00,01,12,2017,00,00*60
2017-12-01 18:05:39 1512169539.854199: $GPGGA,230540,3946.9714,N,08404.9853,W,2,12,0.60,294.32,M,-33.325,M,,*7D
2017-12-01 18:05:39 1512169539.854266: $GPRMC,230540,A,3946.9714,N,08404.9853,W,0.0000,0.000,011217,,*37
2017-12-01 18:05:39 1512169539.854327: $GPGSA,A,3,3,14,16,22,29,25,26,31,32,1,10,138,2.0,0.6,1.5*02
2017-12-01 18:05:40 1512169540.406146: $GPZDA,230541.00,01,12,2017,00,00*61
2017-12-01 18:05:40 1512169540.406316: $GPGGA,230541,3946.9714,N,08404.9853,W,2,12,0.60,294.32,M,-33.325,M,,*7C
2017-12-01 18:05:40 1512169540.406382: $GPRMC,230541,A,3946.9714,N,08404.9853,W,0.0000,0.000,011217,,*36
2017-12-01 18:05:40 1512169540.406442: $GPGSA,A,3,3,14,16,22,29,25,26,31,32,1,10,138,2.0,0.6,1.5*02
2017-12-01 18:05:41 1512169541.382016: $GPZDA,230542.00,01,12,2017,00,00*62
2017-12-01 18:05:41 1512169541.382190: $GPGGA,230542,3946.9714,N,08404.9853,W,2,12,0.80,294.32,M,-33.325,M,,*71
2017-12-01 18:05:41 1512169541.382255: $GPRMC,230542,A,3946.9714,N,08404.9853,W,0.0000,0.000,011217,,*35
2017-12-01 18:05:41 1512169541.382317: $GPGSA,A,3,3,14,16,22,29,25,26,31,32,1,10,138,2.0,0.8,1.5*0C
2017-12-01 18:05:42 1512169542.738923: $GPGSV,3,1,12,03,35,306,46,14,61,079,43,16,15,189,42,22,49,283,46*72
2017-12-01 18:05:42 1512169542.739148: $GPGSV,3,2,12,29,07,079,22,25,24,043,44,26,44,174,45,31,74,009,47*73
2017-12-01 18:05:42 1512169542.739219: $GPGSV,3,3,12,32,42,100,43,01,10,259,31,23,05,297,42,138,38,213,46*4A
2017-12-01 18:05:42 1512169542.852330: $GPZDA,230543.00,01,12,2017,00,00*63
2017-12-01 18:05:42 1512169542.852478: $GPGGA,230543,3946.9714,N,08404.9853,W,2,12,0.60,294.32,M,-33.325,M,,*7E
2017-12-01 18:05:42 1512169542.852544: $GPRMC,230543,A,3946.9714,N,08404.9853,W,0.0000,0.000,011217,,*34
2017-12-01 18:05:42 1512169542.852605: $GPGSA,A,3,3,14,16,22,29,25,26,31,32,1,23,138,2.0,0.6,1.5*02
2017-12-01 18:05:43 1512169543.478966: $GPZDA,230544.00,01,12,2017,00,00*64
2017-12-01 18:05:43 1512169543.479141: $GPGGA,230544,3946.9714,N,08404.9853,W,2,12,0.60,294.32,M,-33.325,M,,*79
2017-12-01 18:05:43 1512169543.479207: $GPRMC,230544,A,3946.9714,N,08404.9853,W,0.0000,0.000,011217,,*33
2017-12-01 18:05:43 1512169543.479269: $GPGSA,A,3,3,14,16,22,29,25,26,31,32,1,23,138,2.0,0.6,1.5*02
2017-12-01 18:05:44 1512169544.411064: $GPZDA,230545.00,01,12,2017,00,00*65
2017-12-01 18:05:44 1512169544.411235: $GPGGA,230545,3946.9714,N,08404.9853,W,2,12,0.80,294.32,M,-33.325,M,,*76
2017-12-01 18:05:44 1512169544.411301: $GPRMC,230545,A,3946.9714,N,08404.9853,W,0.0000,0.000,011217,,*32
2017-12-01 18:05:44 1512169544.411419: $GPGSA,A,3,3,14,16,22,29,25,26,31,32,1,23,138,2.0,0.8,1.5*0C
2017-12-01 18:05:45 1512169545.740509: $GPGSV,3,1,12,03,35,306,46,14,61,079,43,16,15,189,42,22,49,283,46*72
2017-12-01 18:05:45 1512169545.740674: $GPGSV,3,2,12,29,07,079,23,25,24,043,43,26,44,174,45,31,74,009,47*75
2017-12-01 18:05:45 1512169545.740742: $GPGSV,3,3,12,32,42,100,42,01,10,259,26,23,05,297,42,138,38,213,46*4D
2017-12-01 18:05:45 1512169545.853925: $GPZDA,230546.00,01,12,2017,00,00*66
2017-12-01 18:05:45 1512169545.854098: $GPGGA,230546,3946.9714,N,08404.9853,W,2,12,0.60,294.32,M,-33.325,M,,*7B
2017-12-01 18:05:45 1512169545.854165: $GPRMC,230546,A,3946.9714,N,08404.9853,W,0.0000,0.000,011217,,*31
2017-12-01 18:05:45 1512169545.854226: $GPGSA,A,3,3,14,16,22,29,25,26,31,32,1,23,138,2.0,0.6,1.5*02
2017-12-01 18:05:46 1512169546.403502: $GPZDA,230547.00,01,12,2017,00,00*67
2017-12-01 18:05:46 1512169546.403674: $GPGGA,230547,3946.9714,N,08404.9853,W,2,12,0.60,294.32,M,-33.325,M,,*7A
2017-12-01 18:05:46 1512169546.403741: $GPRMC,230547,A,3946.9714,N,08404.9853,W,0.0000,0.000,011217,,*30
2017-12-01 18:05:46 1512169546.403802: $GPGSA,A,3,3,14,16,22,29,25,26,31,32,1,23,138,2.0,0.6,1.5*02
