2017-12-01 18:30:23 1512171023.037255: {"class":"VERSION","release":"3.16","rev":"3.16-4","proto_major":3,"proto_minor":11}
2017-12-01 18:30:23 1512171023.037631: {"class":"DEVICES","devices":[{"class":"DEVICE","path":"/dev/ttyUSB0","driver":"SiRF","subtype":"9\u0006GSD4e_4.1.2-P1_RPATCH.05-F-GPS-4R-1510281 11/03/2015 307","activated":"2017-12-01T23:30:22.556Z","flags":1,"native":1,"bps":4800,"parity":"N","stopbits":1,"cycle":1.00}]}
2017-12-01 18:30:23 1512171023.037742: {"class":"WATCH","enable":true,"json":false,"nmea":true,"raw":0,"scaled":false,"timing":false,"split24":false,"pps":false}
2017-12-01 18:30:23 1512171023.448004: $GPZDA,233024.00,01,12,2017,00,00*64
2017-12-01 18:30:23 1512171023.448172: $GPGGA,233024,3946.9730,N,08404.9839,W,2,11,0.80,297.04,M,-33.325,M,,*78
2017-12-01 18:30:23 1512171023.448238: $GPRMC,233024,A,3946.9730,N,08404.9839,W,0.0000,0.000,011217,,*39
2017-12-01 18:30:23 1512171023.448300: $GPGSA,A,3,1,3,14,16,22,23,25,26,31,32,138,,2.0,0.8,1.5*07
2017-12-01 18:30:24 1512171024.750976: $GPGSV,3,1,12,01,04,250,25,03,41,295,48,14,53,096,43,16,26,190,44*79
2017-12-01 18:30:24 1512171024.751169: $GPGSV,3,2,12,22,50,265,44,23,13,301,44,25,15,039,40,26,56,171,47*70
2017-12-01 18:30:24 1512171024.751237: $GPGSV,3,3,12,31,65,030,46,32,33,109,40,29,11,069,00,138,38,213,46*40
2017-12-01 18:30:24 1512171024.863443: $GPZDA,233025.00,01,12,2017,00,00*65
2017-12-01 18:30:24 1512171024.863627: $GPGGA,233025,3946.9730,N,08404.9839,W,2,11,0.80,297.04,M,-33.325,M,,*79
2017-12-01 18:30:24 1512171024.863695: $GPRMC,233025,A,3946.9730,N,08404.9839,W,0.0000,0.000,011217,,*38
2017-12-01 18:30:24 1512171024.863755: $GPGSA,A,3,1,3,14,16,22,23,25,26,31,32,138,,2.0,0.8,1.5*07
2017-12-01 18:30:25 1512171025.489802: $GPZDA,233026.00,01,12,2017,00,00*66
2017-12-01 18:30:25 1512171025.489983: $GPGGA,233026,3946.9730,N,08404.9839,W,2,11,0.80,297.04,M,-33.325,M,,*7A
2017-12-01 18:30:25 1512171025.490051: $GPRMC,233026,A,3946.9730,N,08404.9839,W,0.0000,0.000,011217,,*3B
2017-12-01 18:30:25 1512171025.490112: $GPGSA,A,3,1,3,14,16,22,23,25,26,31,32,138,,2.0,0.8,1.5*07
2017-12-01 18:30:26 1512171026.449368: $GPZDA,233027.00,01,12,2017,00,00*67
2017-12-01 18:30:26 1512171026.449555: $GPGGA,233027,3946.9730,N,08404.9839,W,2,11,0.80,297.04,M,-33.325,M,,*7B
2017-12-01 18:30:26 1512171026.449622: $GPRMC,233027,A,3946.9730,N,08404.9839,W,0.0000,0.000,011217,,*3A
2017-12-01 18:30:26 1512171026.449683: $GPGSA,A,3,1,3,14,16,22,23,25,26,31,32,138,,2.0,0.8,1.5*07
2017-12-01 18:30:27 1512171027.785046: $GPGSV,3,1,12,01,04,250,25,03,41,295,48,14,53,096,43,16,26,190,44*79
2017-12-01 18:30:27 1512171027.785225: $GPGSV,3,2,12,22,50,265,44,23,13,301,44,25,15,039,40,26,56,171,47*70
2017-12-01 18:30:27 1512171027.785292: $GPGSV,3,3,12,31,65,030,46,32,33,109,41,29,11,069,07,138,38,213,45*45
2017-12-01 18:30:27 1512171027.898418: $GPZDA,233028.00,01,12,2017,00,00*68
2017-12-01 18:30:27 1512171027.898565: $GPGGA,233028,3946.9730,N,08404.9839,W,2,11,0.80,297.04,M,-33.325,M,,*74
2017-12-01 18:30:27 1512171027.898629: $GPRMC,233028,A,3946.9730,N,08404.9839,W,0.0000,0.000,011217,,*35
2017-12-01 18:30:27 1512171027.898690: $GPGSA,A,3,1,3,14,16,22,23,25,26,31,32,138,,2.0,0.8,1.5*07
2017-12-01 18:30:28 1512171028.414328: $GPZDA,233029.00,01,12,2017,00,00*69
2017-12-01 18:30:28 1512171028.414517: $GPGGA,233029,3946.9730,N,08404.9839,W,2,11,0.80,297.04,M,-33.325,M,,*75
2017-12-01 18:30:28 1512171028.414583: $GPRMC,233029,A,3946.9730,N,08404.9839,W,0.0000,0.000,011217,,*34
2017-12-01 18:30:28 1512171028.414644: $GPGSA,A,3,1,3,14,16,22,23,25,26,31,32,138,,2.0,0.8,1.5*07
2017-12-01 18:30:29 1512171029.450204: $GPZDA,233030.00,01,12,2017,00,00*61
2017-12-01 18:30:29 1512171029.450392: $GPGGA,233030,3946.9730,N,08404.9839,W,2,11,0.80,297.04,M,-33.325,M,,*7D
2017-12-01 18:30:29 1512171029.450459: $GPRMC,233030,A,3946.9730,N,08404.9839,W,0.0000,0.000,011217,,*3C
2017-12-01 18:30:29 1512171029.450519: $GPGSA,A,3,1,3,14,16,22,23,25,26,31,32,138,,2.0,0.8,1.5*07
2017-12-01 18:30:30 1512171030.747908: $GPGSV,3,1,12,01,04,250,10,03,41,295,48,14,53,096,42,16,26,190,44*7E
2017-12-01 18:30:30 1512171030.748154: $GPGSV,3,2,12,22,50,265,44,23,13,301,44,25,15,039,39,26,56,171,47*7E
2017-12-01 18:30:30 1512171030.748223: $GPGSV,3,3,12,31,65,030,45,32,33,109,36,29,11,069,19,138,38,213,46*4A
2017-12-01 18:30:30 1512171030.862259: $GPZDA,233031.00,01,12,2017,00,00*60
2017-12-01 18:30:30 1512171030.862419: $GPGGA,233031,3946.9730,N,08404.9839,W,2,11,0.80,297.04,M,-33.325,M,,*7C
2017-12-01 18:30:30 1512171030.862486: $GPRMC,233031,A,3946.9730,N,08404.9839,W,0.0000,0.000,011217,,*3D
2017-12-01 18:30:30 1512171030.862548: $GPGSA,A,3,3,14,16,22,23,25,26,31,32,29,138,,2.0,0.8,1.5*3D
2017-12-01 18:30:31 1512171031.413468: $GPZDA,233032.00,01,12,2017,00,00*63
2017-12-01 18:30:31 1512171031.413653: $GPGGA,233032,3946.9730,N,08404.9839,W,2,11,0.80,297.04,M,-33.325,M,,*7F
2017-12-01 18:30:31 1512171031.413721: $GPRMC,233032,A,3946.9730,N,08404.9839,W,0.0000,0.000,011217,,*3E
2017-12-01 18:30:31 1512171031.413782: $GPGSA,A,3,3,14,16,22,23,25,26,31,32,29,138,,2.0,0.8,1.5*3D
2017-12-01 18:30:32 1512171032.413017: $GPZDA,233033.00,01,12,2017,00,00*62
2017-12-01 18:30:32 1512171032.413185: $GPGGA,233033,3946.9730,N,08404.9839,W,2,11,0.80,297.04,M,-33.325,M,,*7E
2017-12-01 18:30:32 1512171032.413252: $GPRMC,233033,A,3946.9730,N,08404.9839,W,0.0000,0.000,011217,,*3F
2017-12-01 18:30:32 1512171032.413314: $GPGSA,A,3,3,14,16,22,23,25,26,31,32,29,138,,2.0,0.8,1.5*3D
2017-12-01 18:30:33 1512171033.749955: $GPGSV,3,1,12,01,04,250,13,03,41,295,48,14,53,096,43,16,26,190,44*7C
2017-12-01 18:30:33 1512171033.750130: $GPGSV,3,2,12,22,50,265,44,23,13,301,44,25,15,039,40,26,56,171,47*70
2017-12-01 18:30:33 1512171033.750197: $GPGSV,3,3,12,31,65,030,46,32,33,109,38,29,11,069,16,138,38,213,46*48
2017-12-01 18:30:33 1512171033.863321: $GPZDA,233034.00,01,12,2017,00,00*65
2017-12-01 18:30:33 1512171033.863489: $GPGGA,233034,3946.9730,N,08404.9839,W,2,12,0.80,297.04,M,-33.325,M,,*7A
2017-12-01 18:30:33 1512171033.863555: $GPRMC,233034,A,3946.9730,N,08404.9839,W,0.0000,0.000,011217,,*38
2017-12-01 18:30:33 1512171033.863617: $GPGSA,A,3,1,3,14,16,22,23,25,26,31,32,29,138,2.0,0.8,1.5*0C
2017-12-01 18:30:34 1512171034.414211: $GPZDA,233035.00,01,12,2017,00,00*64
2017-12-01 18:30:34 1512171034.414382: $GPGGA,233035,3946.9730,N,08404.9839,W,2,12,0.80,297.04,M,-33.325,M,,*7B
2017-12-01 18:30:34 1512171034.414449: $GPRMC,233035,A,3946.9730,N,08404.9839,W,0.0000,0.000,011217,,*39
2017-12-01 18:30:34 1512171034.414510: $GPGSA,A,3,1,3,14,16,22,23,25,26,31,32,29,138,2.0,0.8,1.5*0C
2017-12-01 18:30:35 1512171035.413290: $GPZDA,233036.00,01,12,2017,00,00*67
2017-12-01 18:30:35 1512171035.413463: $GPGGA,233036,3946.9730,N,08404.9839,W,2,12,0.80,297.04,M,-33.325,M,,*78
2017-12-01 18:30:35 1512171035.413529: $GPRMC,233036,A,3946.9730,N,08404.9839,W,0.0000,0.000,011217,,*3A
2017-12-01 18:30:35 1512171035.413590: $GPGSA,A,3,1,3,14,16,22,23,25,26,31,32,29,138,2.0,0.8,1.5*0C
2017-12-01 18:30:36 1512171036.744076: $GPGSV,3,1,12,01,04,250,16,03,41,295,47,14,53,096,43,16,26,190,44*76
2017-12-01 18:30:36 1512171036.744256: $GPGSV,3,2,12,22,50,265,44,23,13,301,44,25,15,039,40,26,56,171,47*70
2017-12-01 18:30:36 1512171036.744324: $GPGSV,3,3,12,31,65,030,46,32,33,109,38,29,11,069,00,138,38,213,46*4F
2017-12-01 18:30:36 1512171036.857502: $GPZDA,233037.00,01,12,2017,00,00*66
2017-12-01 18:30:36 1512171036.857670: $GPGGA,233037,3946.9730,N,08404.9839,W,2,11,0.80,297.04,M,-33.325,M,,*7A
2017-12-01 18:30:36 1512171036.857737: $GPRMC,233037,A,3946.9730,N,08404.9839,W,0.0000,0.000,011217,,*3B
2017-12-01 18:30:36 1512171036.857799: $GPGSA,A,3,1,3,14,16,22,23,25,26,31,32,138,,2.0,0.8,1.5*07
2017-12-01 18:30:37 1512171037.414974: $GPZDA,233038.00,01,12,2017,00,00*69
2017-12-01 18:30:37 1512171037.415156: $GPGGA,233038,3946.9730,N,08404.9839,W,2,11,0.80,297.04,M,-33.325,M,,*75
2017-12-01 18:30:37 1512171037.415224: $GPRMC,233038,A,3946.9730,N,08404.9839,W,0.0000,0.000,011217,,*34
2017-12-01 18:30:37 1512171037.415284: $GPGSA,A,3,1,3,14,16,22,23,25,26,31,32,138,,2.0,0.8,1.5*07
2017-12-01 18:30:38 1512171038.414565: $GPZDA,233039.00,01,12,2017,00,00*68
2017-12-01 18:30:38 1512171038.414797: $GPGGA,233039,3946.9730,N,08404.9839,W,2,11,0.80,297.04,M,-33.325,M,,*74
2017-12-01 18:30:38 1512171038.414867: $GPRMC,233039,A,3946.9730,N,08404.9839,W,0.0000,0.000,011217,,*35
2017-12-01 18:30:38 1512171038.414928: $GPGSA,A,3,1,3,14,16,22,23,25,26,31,32,138,,2.0,0.8,1.5*07
2017-12-01 18:30:39 1512171039.748639: $GPGSV,3,1,12,01,04,250,17,03,41,295,47,14,53,096,44,16,26,190,44*70
2017-12-01 18:30:39 1512171039.748824: $GPGSV,3,2,12,22,50,265,44,23,13,301,44,25,15,039,40,26,56,171,46*71
2017-12-01 18:30:39 1512171039.748891: $GPGSV,3,3,12,31,65,030,46,32,33,109,39,29,11,069,00,138,38,213,46*4E
2017-12-01 18:30:39 1512171039.862041: $GPZDA,233040.00,01,12,2017,00,00*66
2017-12-01 18:30:39 1512171039.862218: $GPGGA,233040,3946.9730,N,08404.9839,W,2,11,0.80,297.04,M,-33.325,M,,*7A
2017-12-01 18:30:39 1512171039.862287: $GPRMC,233040,A,3946.9730,N,08404.9839,W,0.0000,0.000,011217,,*3B
2017-12-01 18:30:39 1512171039.862348: $GPGSA,A,3,1,3,14,16,22,23,25,26,31,32,138,,2.0,0.8,1.5*07
2017-12-01 18:30:40 1512171040.487399: $GPZDA,233041.00,01,12,2017,00,00*67
2017-12-01 18:30:40 1512171040.487571: $GPGGA,233041,3946.9730,N,08404.9839,W,2,11,0.80,297.04,M,-33.325,M,,*7B
2017-12-01 18:30:40 1512171040.487657: $GPRMC,233041,A,3946.9730,N,08404.9839,W,0.0000,0.000,011217,,*3A
2017-12-01 18:30:40 1512171040.487721: $GPGSA,A,3,1,3,14,16,22,23,25,26,31,32,138,,2.0,0.8,1.5*07
2017-12-01 18:30:41 1512171041.424901: $GPZDA,233042.00,01,12,2017,00,00*64
2017-12-01 18:30:41 1512171041.425072: $GPGGA,233042,3946.9730,N,08404.9839,W,2,11,0.80,297.04,M,-33.325,M,,*78
2017-12-01 18:30:41 1512171041.425141: $GPRMC,233042,A,3946.9730,N,08404.9839,W,0.0000,0.000,011217,,*39
2017-12-01 18:30:41 1512171041.425202: $GPGSA,A,3,1,3,14,16,22,23,25,26,31,32,138,,2.0,0.8,1.5*07
2017-12-01 18:30:42 1512171042.751592: $GPGSV,3,1,12,01,04,250,17,03,41,295,47,14,53,096,44,16,26,190,44*70
2017-12-01 18:30:42 1512171042.751785: $GPGSV,3,2,12,22,50,265,44,23,13,301,43,25,15,039,40,26,56,171,47*77
2017-12-01 18:30:42 1512171042.751852: $GPGSV,3,3,12,31,65,030,46,32,33,109,40,29,11,069,16,138,38,213,46*47
2017-12-01 18:30:42 1512171042.865205: $GPZDA,233043.00,01,12,2017,00,00*65
2017-12-01 18:30:42 1512171042.865374: $GPGGA,233043,3946.9730,N,08404.9839,W,2,12,0.80,297.04,M,-33.325,M,,*7A
2017-12-01 18:30:42 1512171042.865442: $GPRMC,233043,A,3946.9730,N,08404.9839,W,0.0000,0.000,011217,,*38
2017-12-01 18:30:42 1512171042.865504: $GPGSA,A,3,1,3,14,16,22,23,25,26,31,32,29,138,2.0,0.8,1.5*0C
