2017-11-16 15:40:47 1510864847.956949: {"class":"VERSION","release":"3.17","rev":"3.17","proto_major":3,"proto_minor":12}
2017-11-16 15:40:47 1510864847.957427: {"class":"DEVICES","devices":[{"class":"DEVICE","path":"/dev/ttyUSB0","driver":"SiRF","subtype":"9\u0006GSD4e_4.1.2-P1_RPATCH.05-F-GPS-4R-1510281 11/03/2015 307","activated":"2017-11-16T20:40:47.508Z","flags":1,"native":1,"bps":4800,"parity":"N","stopbits":1,"cycle":1.00}]}
2017-11-16 15:40:47 1510864847.957548: {"class":"WATCH","enable":true,"json":false,"nmea":true,"raw":0,"scaled":false,"timing":false,"split24":false,"pps":false}
2017-11-16 15:40:48 1510864848.365802: $GPZDA,204047.00,16,11,2017,00,00*60
2017-11-16 15:40:48 1510864848.365902: $GPGGA,204047,3946.9568,N,08404.9859,W,2,12,1.00,308.20,M,-33.324,M,,*7A
2017-11-16 15:40:48 1510864848.365932: $GPRMC,204047,A,3946.9568,N,08404.9859,W,0.0000,0.000,161117,,*34
2017-11-16 15:40:48 1510864848.365960: $GPGSA,A,3,15,10,14,31,18,25,21,24,8,32,12,138,1.6,1.0,1.3*3F
2017-11-16 15:40:49 1510864849.703318: $GPGSV,3,1,12,15,06,070,25,10,76,343,51,14,34,259,44,31,05,204,34*70
2017-11-16 15:40:49 1510864849.703439: $GPGSV,3,2,12,18,65,108,48,27,02,255,25,21,22,178,43,24,39,052,50*72
2017-11-16 15:40:49 1510864849.703471: $GPGSV,3,3,12,08,03,288,29,32,51,274,45,12,13,102,33,138,38,213,44*4E
2017-11-16 15:40:49 1510864849.816176: $GPZDA,204048.00,16,11,2017,00,00*6F
2017-11-16 15:40:49 1510864849.816283: $GPGGA,204048,3946.9568,N,08404.9859,W,2,12,1.00,308.20,M,-33.324,M,,*75
2017-11-16 15:40:49 1510864849.816324: $GPRMC,204048,A,3946.9568,N,08404.9859,W,0.0000,0.000,161117,,*3B
2017-11-16 15:40:49 1510864849.816353: $GPGSA,A,3,15,10,14,31,18,27,21,24,8,32,12,138,1.6,1.0,1.3*3D
2017-11-16 15:40:50 1510864850.360275: $GPZDA,204049.00,16,11,2017,00,00*6E
2017-11-16 15:40:50 1510864850.360485: $GPGGA,204049,3946.9568,N,08404.9859,W,2,12,1.00,308.20,M,-33.324,M,,*74
2017-11-16 15:40:50 1510864850.360548: $GPRMC,204049,A,3946.9568,N,08404.9859,W,0.0000,0.000,161117,,*3A
2017-11-16 15:40:50 1510864850.360605: $GPGSA,A,3,15,10,14,31,18,27,21,24,8,32,12,138,1.6,1.0,1.3*3D
2017-11-16 15:40:51 1510864851.366962: $GPZDA,204050.00,16,11,2017,00,00*66
2017-11-16 15:40:51 1510864851.367139: $GPGGA,204050,3946.9568,N,08404.9859,W,2,12,1.00,308.20,M,-33.324,M,,*7C
2017-11-16 15:40:51 1510864851.367200: $GPRMC,204050,A,3946.9568,N,08404.9859,W,0.0000,0.000,161117,,*32
2017-11-16 15:40:51 1510864851.367257: $GPGSA,A,3,15,10,14,31,18,27,21,24,8,32,12,138,1.6,1.0,1.3*3D
2017-11-16 15:40:52 1510864852.695306: $GPGSV,3,1,12,15,06,070,26,10,76,343,51,14,34,259,44,31,05,204,34*73
2017-11-16 15:40:52 1510864852.695494: $GPGSV,3,2,12,18,65,108,48,27,02,255,25,21,22,178,43,24,39,052,50*72
2017-11-16 15:40:52 1510864852.695559: $GPGSV,3,3,12,08,03,288,29,32,51,274,45,12,13,102,34,138,38,213,44*49
2017-11-16 15:40:52 1510864852.808440: $GPZDA,204051.00,16,11,2017,00,00*67
2017-11-16 15:40:52 1510864852.808609: $GPGGA,204051,3946.9568,N,08404.9859,W,2,12,1.00,308.20,M,-33.324,M,,*7D
2017-11-16 15:40:52 1510864852.808672: $GPRMC,204051,A,3946.9568,N,08404.9859,W,0.0000,0.000,161117,,*33
2017-11-16 15:40:52 1510864852.808728: $GPGSA,A,3,15,10,14,31,18,27,21,24,8,32,12,138,1.6,1.0,1.3*3D
2017-11-16 15:40:53 1510864853.366433: $GPZDA,204052.00,16,11,2017,00,00*64
2017-11-16 15:40:53 1510864853.366667: $GPGGA,204052,3946.9568,N,08404.9859,W,2,12,1.00,308.20,M,-33.324,M,,*7E
2017-11-16 15:40:53 1510864853.366738: $GPRMC,204052,A,3946.9568,N,08404.9859,W,0.0000,0.000,161117,,*30
2017-11-16 15:40:53 1510864853.366797: $GPGSA,A,3,15,10,14,31,18,27,21,24,8,32,12,138,1.6,1.0,1.3*3D
2017-11-16 15:40:54 1510864854.381910: $GPZDA,204053.00,16,11,2017,00,00*65
2017-11-16 15:40:54 1510864854.382072: $GPGGA,204053,3946.9568,N,08404.9859,W,2,12,1.00,308.20,M,-33.324,M,,*7F
2017-11-16 15:40:54 1510864854.382132: $GPRMC,204053,A,3946.9568,N,08404.9859,W,0.0000,0.000,161117,,*31
2017-11-16 15:40:54 1510864854.382188: $GPGSA,A,3,15,10,14,31,18,27,21,24,8,32,12,138,1.6,1.0,1.3*3D
2017-11-16 15:40:55 1510864855.718396: $GPGSV,3,1,12,15,06,070,25,10,76,343,51,14,34,259,44,31,05,204,34*70
2017-11-16 15:40:55 1510864855.718541: $GPGSV,3,2,12,18,65,108,47,27,02,255,25,21,22,178,43,24,39,052,50*7D
2017-11-16 15:40:55 1510864855.718574: $GPGSV,3,3,12,08,03,288,30,32,51,274,45,12,13,102,34,138,38,213,44*41
2017-11-16 15:40:55 1510864855.831247: $GPZDA,204054.00,16,11,2017,00,00*62
2017-11-16 15:40:55 1510864855.831326: $GPGGA,204054,3946.9568,N,08404.9859,W,2,12,1.00,308.20,M,-33.324,M,,*78
2017-11-16 15:40:55 1510864855.831355: $GPRMC,204054,A,3946.9568,N,08404.9859,W,0.0000,0.000,161117,,*36
2017-11-16 15:40:55 1510864855.831383: $GPGSA,A,3,15,10,14,31,18,27,21,24,8,32,12,138,1.6,1.0,1.3*3D
2017-11-16 15:40:56 1510864856.457457: $GPZDA,204055.00,16,11,2017,00,00*63
2017-11-16 15:40:56 1510864856.457631: $GPGGA,204055,3946.9568,N,08404.9859,W,2,12,1.00,308.20,M,-33.324,M,,*79
2017-11-16 15:40:56 1510864856.457693: $GPRMC,204055,A,3946.9568,N,08404.9859,W,0.0000,0.000,161117,,*37
2017-11-16 15:40:56 1510864856.457749: $GPGSA,A,3,15,10,14,31,18,27,21,24,8,32,12,138,1.6,1.0,1.3*3D
2017-11-16 15:40:57 1510864857.383339: $GPZDA,204056.00,16,11,2017,00,00*60
2017-11-16 15:40:57 1510864857.383522: $GPGGA,204056,3946.9568,N,08404.9859,W,2,12,1.00,308.20,M,-33.324,M,,*7A
2017-11-16 15:40:57 1510864857.383605: $GPRMC,204056,A,3946.9568,N,08404.9859,W,0.0000,0.000,161117,,*34
2017-11-16 15:40:57 1510864857.383664: $GPGSA,A,3,15,10,14,31,18,27,21,24,8,32,12,138,1.6,1.0,1.3*3D
