2017-12-01 15:57:57 1512161877.396865: {"class":"VERSION","release":"3.16","rev":"3.16-4","proto_major":3,"proto_minor":11}
2017-12-01 15:57:57 1512161877.397266: {"class":"DEVICES","devices":[{"class":"DEVICE","path":"/dev/ttyUSB0","driver":"SiRF","subtype":"9\u0006GSD4e_4.1.2-P1_RPATCH.05-F-GPS-4R-1510281 11/03/2015 307","activated":"2017-12-01T20:57:57.295Z","flags":1,"native":1,"bps":4800,"parity":"N","stopbits":1,"cycle":1.00}]}
2017-12-01 15:57:57 1512161877.397389: {"class":"WATCH","enable":true,"json":false,"nmea":true,"raw":0,"scaled":false,"timing":false,"split24":false,"pps":false}
2017-12-01 15:57:57 1512161877.408073: $GPZDA,205758.00,01,12,2017,00,00*6D
2017-12-01 15:57:57 1512161877.408207: $GPGGA,205758,3946.9579,N,08404.9867,W,2,12,0.80,299.37,M,-33.324,M,,*79
2017-12-01 15:57:57 1512161877.408271: $GPRMC,205758,A,3946.9579,N,08404.9867,W,0.0000,0.000,011217,,*34
2017-12-01 15:57:57 1512161877.408331: $GPGSA,A,3,1,10,12,14,18,22,25,31,32,11,24,138,2.0,0.8,1.5*3B
2017-12-01 15:57:58 1512161878.744605: $GPGSV,3,1,12,01,17,313,30,10,64,138,48,12,25,066,41,14,58,300,44*72
2017-12-01 15:57:58 1512161878.744786: $GPGSV,3,2,12,18,32,138,46,22,07,312,35,25,33,109,45,31,41,214,49*79
2017-12-01 15:57:58 1512161878.744853: $GPGSV,3,3,12,32,69,345,48,11,11,295,31,24,09,046,30,138,38,213,46*4B
2017-12-01 15:57:58 1512161878.858011: $GPZDA,205759.00,01,12,2017,00,00*6C
2017-12-01 15:57:58 1512161878.858138: $GPGGA,205759,3946.9579,N,08404.9867,W,2,12,0.80,299.37,M,-33.324,M,,*78
2017-12-01 15:57:58 1512161878.858202: $GPRMC,205759,A,3946.9579,N,08404.9867,W,0.0000,0.000,011217,,*35
2017-12-01 15:57:58 1512161878.858262: $GPGSA,A,3,1,10,12,14,18,22,25,31,32,11,24,138,2.0,0.8,1.5*3B
2017-12-01 15:57:59 1512161879.407552: $GPZDA,205800.00,01,12,2017,00,00*6F
2017-12-01 15:57:59 1512161879.407729: $GPGGA,205800,3946.9579,N,08404.9867,W,2,12,0.80,299.37,M,-33.324,M,,*7B
2017-12-01 15:57:59 1512161879.407798: $GPRMC,205800,A,3946.9579,N,08404.9867,W,0.0000,0.000,011217,,*36
2017-12-01 15:57:59 1512161879.407858: $GPGSA,A,3,1,10,12,14,18,22,25,31,32,11,24,138,2.0,0.8,1.5*3B
2017-12-01 15:58:00 1512161880.407162: $GPZDA,205801.00,01,12,2017,00,00*6E
2017-12-01 15:58:00 1512161880.407333: $GPGGA,205801,3946.9579,N,08404.9867,W,2,12,0.80,299.37,M,-33.324,M,,*7A
2017-12-01 15:58:00 1512161880.407401: $GPRMC,205801,A,3946.9579,N,08404.9867,W,0.0000,0.000,011217,,*37
2017-12-01 15:58:00 1512161880.407462: $GPGSA,A,3,1,10,12,14,18,22,25,31,32,11,24,138,2.0,0.8,1.5*3B
2017-12-01 15:58:01 1512161881.761748: $GPGSV,3,1,12,01,17,313,26,10,64,138,48,12,25,066,41,14,58,300,43*72
2017-12-01 15:58:01 1512161881.761929: $GPGSV,3,2,12,18,32,138,46,22,07,312,35,25,33,109,45,31,41,214,49*79
2017-12-01 15:58:01 1512161881.761997: $GPGSV,3,3,12,32,69,345,48,11,11,295,31,24,09,046,30,138,38,213,45*48
2017-12-01 15:58:01 1512161881.875522: $GPZDA,205802.00,01,12,2017,00,00*6D
2017-12-01 15:58:01 1512161881.875688: $GPGGA,205802,3946.9579,N,08404.9867,W,2,12,0.80,299.37,M,-33.324,M,,*79
2017-12-01 15:58:01 1512161881.875754: $GPRMC,205802,A,3946.9579,N,08404.9867,W,0.0000,0.000,011217,,*34
2017-12-01 15:58:01 1512161881.875814: $GPGSA,A,3,1,10,12,14,18,22,25,31,32,11,24,138,2.0,0.8,1.5*3B
2017-12-01 15:58:02 1512161882.424707: $GPZDA,205803.00,01,12,2017,00,00*6C
2017-12-01 15:58:02 1512161882.424895: $GPGGA,205803,3946.9579,N,08404.9867,W,2,12,0.80,299.37,M,-33.324,M,,*78
2017-12-01 15:58:02 1512161882.424966: $GPRMC,205803,A,3946.9579,N,08404.9867,W,0.0000,0.000,011217,,*35
2017-12-01 15:58:02 1512161882.425028: $GPGSA,A,3,1,10,12,14,18,22,25,31,32,11,24,138,2.0,0.8,1.5*3B
2017-12-01 15:58:03 1512161883.424153: $GPZDA,205804.00,01,12,2017,00,00*6B
2017-12-01 15:58:03 1512161883.424319: $GPGGA,205804,3946.9579,N,08404.9867,W,2,12,0.80,299.37,M,-33.324,M,,*7F
2017-12-01 15:58:03 1512161883.424385: $GPRMC,205804,A,3946.9579,N,08404.9867,W,0.0000,0.000,011217,,*32
2017-12-01 15:58:03 1512161883.424447: $GPGSA,A,3,1,10,12,14,18,22,25,31,32,11,24,138,2.0,0.8,1.5*3B
2017-12-01 15:58:04 1512161884.759597: $GPGSV,3,1,12,01,17,313,25,10,64,138,48,12,25,066,42,14,58,300,43*72
2017-12-01 15:58:04 1512161884.759827: $GPGSV,3,2,12,18,32,138,46,22,07,312,34,25,33,109,45,31,41,214,49*78
2017-12-01 15:58:04 1512161884.759897: $GPGSV,3,3,12,32,69,345,47,11,11,295,32,24,09,046,28,138,38,213,46*4E
2017-12-01 15:58:04 1512161884.873335: $GPZDA,205805.00,01,12,2017,00,00*6A
2017-12-01 15:58:04 1512161884.873466: $GPGGA,205805,3946.9579,N,08404.9867,W,2,12,0.80,299.37,M,-33.324,M,,*7E
2017-12-01 15:58:04 1512161884.873532: $GPRMC,205805,A,3946.9579,N,08404.9867,W,0.0000,0.000,011217,,*33
2017-12-01 15:58:04 1512161884.873592: $GPGSA,A,3,1,10,12,14,18,22,25,31,32,11,24,138,2.0,0.8,1.5*3B
2017-12-01 15:58:05 1512161885.425443: $GPZDA,205806.00,01,12,2017,00,00*69
2017-12-01 15:58:05 1512161885.425606: $GPGGA,205806,3946.9579,N,08404.9867,W,2,12,0.80,299.37,M,-33.324,M,,*7D
2017-12-01 15:58:05 1512161885.425672: $GPRMC,205806,A,3946.9579,N,08404.9867,W,0.0000,0.000,011217,,*30
2017-12-01 15:58:05 1512161885.425733: $GPGSA,A,3,1,10,12,14,18,22,25,31,32,11,24,138,2.0,0.8,1.5*3B
2017-12-01 15:58:06 1512161886.408450: $GPZDA,205807.00,01,12,2017,00,00*68
2017-12-01 15:58:06 1512161886.408630: $GPGGA,205807,3946.9579,N,08404.9867,W,2,12,0.80,299.37,M,-33.324,M,,*7C
2017-12-01 15:58:06 1512161886.408699: $GPRMC,205807,A,3946.9579,N,08404.9867,W,0.0000,0.000,011217,,*31
2017-12-01 15:58:06 1512161886.408760: $GPGSA,A,3,1,10,12,14,18,22,25,31,32,11,24,138,2.0,0.8,1.5*3B
2017-12-01 15:58:07 1512161887.743009: $GPGSV,3,1,12,01,17,313,26,10,64,138,48,12,25,066,42,14,58,300,43*71
2017-12-01 15:58:07 1512161887.743241: $GPGSV,3,2,12,18,32,138,46,22,07,312,34,25,33,109,45,31,41,214,49*78
2017-12-01 15:58:07 1512161887.743330: $GPGSV,3,3,12,32,69,345,48,11,11,295,31,24,09,046,27,138,38,213,45*4E
2017-12-01 15:58:07 1512161887.856342: $GPZDA,205808.00,01,12,2017,00,00*67
2017-12-01 15:58:07 1512161887.856510: $GPGGA,205808,3946.9579,N,08404.9867,W,2,12,0.80,299.37,M,-33.324,M,,*73
2017-12-01 15:58:07 1512161887.856576: $GPRMC,205808,A,3946.9579,N,08404.9867,W,0.0000,0.000,011217,,*3E
2017-12-01 15:58:07 1512161887.856637: $GPGSA,A,3,1,10,12,14,18,22,25,31,32,11,24,138,2.0,0.8,1.5*3B
2017-12-01 15:58:08 1512161888.481747: $GPZDA,205809.00,01,12,2017,00,00*66
2017-12-01 15:58:08 1512161888.481923: $GPGGA,205809,3946.9579,N,08404.9867,W,2,12,0.80,299.37,M,-33.324,M,,*72
2017-12-01 15:58:08 1512161888.482014: $GPRMC,205809,A,3946.9579,N,08404.9867,W,0.0000,0.000,011217,,*3F
2017-12-01 15:58:08 1512161888.482076: $GPGSA,A,3,1,10,12,14,18,22,25,31,32,11,24,138,2.0,0.8,1.5*3B
2017-12-01 15:58:09 1512161889.425181: $GPZDA,205810.00,01,12,2017,00,00*6E
2017-12-01 15:58:09 1512161889.425355: $GPGGA,205810,3946.9579,N,08404.9867,W,2,12,0.80,299.37,M,-33.324,M,,*7A
2017-12-01 15:58:09 1512161889.425422: $GPRMC,205810,A,3946.9579,N,08404.9867,W,0.0000,0.000,011217,,*37
2017-12-01 15:58:09 1512161889.425483: $GPGSA,A,3,1,10,12,14,18,22,25,31,32,11,24,138,2.0,0.8,1.5*3B
2017-12-01 15:58:10 1512161890.744558: $GPGSV,3,1,12,01,17,313,26,10,64,138,48,12,25,066,42,14,58,300,43*71
2017-12-01 15:58:10 1512161890.744740: $GPGSV,3,2,12,18,32,138,46,22,07,312,33,25,33,109,45,31,41,214,49*7F
2017-12-01 15:58:10 1512161890.744808: $GPGSV,3,3,12,32,69,345,48,11,11,295,31,24,09,046,28,138,38,213,46*42
2017-12-01 15:58:10 1512161890.858002: $GPZDA,205811.00,01,12,2017,00,00*6F
2017-12-01 15:58:10 1512161890.858188: $GPGGA,205811,3946.9579,N,08404.9867,W,2,12,0.80,299.37,M,-33.324,M,,*7B
2017-12-01 15:58:10 1512161890.858256: $GPRMC,205811,A,3946.9579,N,08404.9867,W,0.0000,0.000,011217,,*36
2017-12-01 15:58:10 1512161890.858317: $GPGSA,A,3,1,10,12,14,18,22,25,31,32,11,24,138,2.0,0.8,1.5*3B
2017-12-01 15:58:11 1512161891.423811: $GPZDA,205812.00,01,12,2017,00,00*6C
2017-12-01 15:58:11 1512161891.424002: $GPGGA,205812,3946.9579,N,08404.9867,W,2,12,0.80,299.37,M,-33.324,M,,*78
2017-12-01 15:58:11 1512161891.424071: $GPRMC,205812,A,3946.9579,N,08404.9867,W,0.0000,0.000,011217,,*35
2017-12-01 15:58:11 1512161891.424150: $GPGSA,A,3,1,10,12,14,18,22,25,31,32,11,24,138,2.0,0.8,1.5*3B
2017-12-01 15:58:12 1512161892.423481: $GPZDA,205813.00,01,12,2017,00,00*6D
2017-12-01 15:58:12 1512161892.423654: $GPGGA,205813,3946.9579,N,08404.9867,W,2,12,0.80,299.37,M,-33.324,M,,*79
2017-12-01 15:58:12 1512161892.423720: $GPRMC,205813,A,3946.9579,N,08404.9867,W,0.0000,0.000,011217,,*34
2017-12-01 15:58:12 1512161892.423781: $GPGSA,A,3,1,10,12,14,18,22,25,31,32,11,24,138,2.0,0.8,1.5*3B
2017-12-01 15:58:13 1512161893.761145: $GPGSV,3,1,12,01,17,313,26,10,64,138,48,12,25,066,41,14,58,300,43*72
2017-12-01 15:58:13 1512161893.761326: $GPGSV,3,2,12,18,32,138,46,22,07,312,33,25,33,109,45,31,41,214,50*77
2017-12-01 15:58:13 1512161893.761438: $GPGSV,3,3,12,32,69,345,47,11,11,295,31,24,09,046,29,138,38,213,47*4D
2017-12-01 15:58:13 1512161893.875044: $GPZDA,205814.00,01,12,2017,00,00*6A
2017-12-01 15:58:13 1512161893.875245: $GPGGA,205814,3946.9579,N,08404.9860,W,2,12,0.80,299.45,M,-33.324,M,,*7C
2017-12-01 15:58:13 1512161893.875317: $GPRMC,205814,A,3946.9579,N,08404.9860,W,0.0000,0.000,011217,,*34
2017-12-01 15:58:13 1512161893.875382: $GPGSA,A,3,1,10,12,14,18,22,25,31,32,11,24,138,2.0,0.8,1.5*3B
2017-12-01 15:58:14 1512161894.408006: $GPZDA,205815.00,01,12,2017,00,00*6B
2017-12-01 15:58:14 1512161894.408194: $GPGGA,205815,3946.9579,N,08404.9860,W,2,12,0.80,299.45,M,-33.324,M,,*7D
2017-12-01 15:58:14 1512161894.408261: $GPRMC,205815,A,3946.9579,N,08404.9860,W,0.0000,0.000,011217,,*35
2017-12-01 15:58:14 1512161894.408321: $GPGSA,A,3,1,10,12,14,18,22,25,31,32,11,24,138,2.0,0.8,1.5*3B
2017-12-01 15:58:15 1512161895.424215: $GPZDA,205816.00,01,12,2017,00,00*68
2017-12-01 15:58:15 1512161895.424384: $GPGGA,205816,3946.9579,N,08404.9860,W,2,12,0.80,299.45,M,-33.324,M,,*7E
2017-12-01 15:58:15 1512161895.424451: $GPRMC,205816,A,3946.9579,N,08404.9860,W,0.0000,0.000,011217,,*36
2017-12-01 15:58:15 1512161895.424513: $GPGSA,A,3,1,10,12,14,18,22,25,31,32,11,24,138,2.0,0.8,1.5*3B
2017-12-01 15:58:16 1512161896.759656: $GPGSV,3,1,12,01,17,313,27,10,64,138,48,12,25,066,40,14,58,300,44*75
2017-12-01 15:58:16 1512161896.760011: $GPGSV,3,2,12,18,32,138,46,22,07,312,33,25,33,109,46,31,41,214,49*7C
2017-12-01 15:58:16 1512161896.760142: $GPGSV,3,3,12,32,69,345,47,11,11,295,31,24,09,046,29,138,38,213,45*4F
2017-12-01 15:58:16 1512161896.872954: $GPZDA,205817.00,01,12,2017,00,00*69
2017-12-01 15:58:16 1512161896.873144: $GPGGA,205817,3946.9579,N,08404.9860,W,2,12,0.80,299.45,M,-33.324,M,,*7F
2017-12-01 15:58:16 1512161896.873214: $GPRMC,205817,A,3946.9579,N,08404.9860,W,0.0000,0.000,011217,,*37
2017-12-01 15:58:16 1512161896.873275: $GPGSA,A,3,1,10,12,14,18,22,25,31,32,11,24,138,2.0,0.8,1.5*3B
