2018-01-12 19:58:42 1515805122.731194: {"class":"VERSION","release":"3.16","rev":"3.16-4","proto_major":3,"proto_minor":11}
2018-01-12 19:58:42 1515805122.731538: {"class":"DEVICES","devices":[{"class":"DEVICE","path":"/dev/ttyUSB0","driver":"SiRF","subtype":"9\u0006GSD4e_4.1.2-P1_RPATCH.05-F-GPS-4R-1510281 11/03/2015 307","activated":"2018-01-13T00:58:42.359Z","flags":1,"native":1,"bps":4800,"parity":"N","stopbits":1,"cycle":1.00}]}
2018-01-12 19:58:42 1515805122.731656: {"class":"WATCH","enable":true,"json":false,"nmea":true,"raw":0,"scaled":false,"timing":false,"split24":false,"pps":false}
2018-01-12 19:58:43 1515805123.556535: $GPGSV,3,1,11,08,71,142,25,07,52,313,26,11,17,169,18,23,33,190,18*71
2018-01-12 19:58:43 1515805123.556720: $GPGSV,3,2,11,27,50,057,23,30,26,304,15,09,50,234,00,16,26,058,00*78
2018-01-12 19:58:43 1515805123.556789: $GPGSV,3,3,11,28,11,255,00,26,01,070,00,138,38,213,00*72
2018-01-12 19:58:43 1515805123.668656: $GPZDA,005844.00,13,01,2018,00,00*63
2018-01-12 19:58:43 1515805123.668803: $GPGGA,005844,3946.9622,N,08404.9438,W,1,06,1.40,294.58,M,-33.324,M,,*7D
2018-01-12 19:58:43 1515805123.668871: $GPRMC,005844,A,3946.9622,N,08404.9438,W,0.3133,9.201,130118,,*39
2018-01-12 19:58:43 1515805123.668935: $GPGSA,A,3,8,7,11,23,27,30,,,,,,,4.8,1.4,4.6*31
2018-01-12 19:58:44 1515805124.215144: $GPZDA,005845.00,13,01,2018,00,00*62
2018-01-12 19:58:44 1515805124.215319: $GPGGA,005845,3946.9622,N,08404.9438,W,1,06,1.60,294.58,M,-33.324,M,,*7E
2018-01-12 19:58:44 1515805124.215388: $GPRMC,005845,A,3946.9622,N,08404.9438,W,0.7093,26.530,130118,,*0F
2018-01-12 19:58:44 1515805124.215449: $GPGSA,A,3,8,7,11,23,27,30,,,,,,,4.8,1.6,4.6*33
2018-01-12 19:58:45 1515805125.216445: $GPZDA,005846.00,13,01,2018,00,00*61
2018-01-12 19:58:45 1515805125.216619: $GPGGA,005846,3946.9622,N,08404.9438,W,1,06,1.40,294.58,M,-33.324,M,,*7F
2018-01-12 19:58:45 1515805125.216686: $GPRMC,005846,A,3946.9622,N,08404.9438,W,0.4207,39.347,130118,,*08
2018-01-12 19:58:45 1515805125.216749: $GPGSA,A,3,8,7,11,23,27,30,,,,,,,4.8,1.4,4.6*31
2018-01-12 19:58:46 1515805126.552654: $GPGSV,3,1,11,08,71,142,26,07,52,313,26,11,17,169,18,23,33,190,19*73
2018-01-12 19:58:46 1515805126.552840: $GPGSV,3,2,11,27,50,057,23,30,26,304,15,09,50,234,00,16,26,058,00*78
2018-01-12 19:58:46 1515805126.552910: $GPGSV,3,3,11,28,11,255,00,26,01,070,00,138,38,213,00*72
2018-01-12 19:58:46 1515805126.666012: $GPZDA,005847.00,13,01,2018,00,00*60
2018-01-12 19:58:46 1515805126.666174: $GPGGA,005847,3946.9622,N,08404.9438,W,1,06,1.40,294.58,M,-33.324,M,,*7E
2018-01-12 19:58:46 1515805126.666244: $GPRMC,005847,A,3946.9622,N,08404.9438,W,0.7278,23.636,130118,,*0A
2018-01-12 19:58:46 1515805126.666306: $GPGSA,A,3,8,7,11,23,27,30,,,,,,,4.8,1.4,4.6*31
2018-01-12 19:58:47 1515805127.217270: $GPZDA,005848.00,13,01,2018,00,00*6F
2018-01-12 19:58:47 1515805127.217461: $GPGGA,005848,3946.9622,N,08404.9438,W,1,06,1.40,294.58,M,-33.324,M,,*71
2018-01-12 19:58:47 1515805127.217528: $GPRMC,005848,A,3946.9622,N,08404.9438,W,0.3423,4.197,130118,,*30
2018-01-12 19:58:47 1515805127.217591: $GPGSA,A,3,8,7,11,23,27,30,,,,,,,4.8,1.4,4.6*31
2018-01-12 19:58:48 1515805128.217052: $GPZDA,005849.00,13,01,2018,00,00*6E
2018-01-12 19:58:48 1515805128.217228: $GPGGA,005849,3946.9622,N,08404.9438,W,1,06,1.40,294.58,M,-33.324,M,,*70
2018-01-12 19:58:48 1515805128.217295: $GPRMC,005849,A,3946.9622,N,08404.9438,W,0.2758,308.233,130118,,*3D
2018-01-12 19:58:48 1515805128.217358: $GPGSA,A,3,8,7,11,23,27,30,,,,,,,4.8,1.4,4.6*31
2018-01-12 19:58:49 1515805129.553381: $GPGSV,3,1,11,08,71,142,26,07,52,313,27,11,17,169,18,23,33,190,17*7C
2018-01-12 19:58:49 1515805129.553540: $GPGSV,3,2,11,27,50,057,23,30,26,304,15,09,50,234,00,16,26,058,00*78
2018-01-12 19:58:49 1515805129.553606: $GPGSV,3,3,11,28,11,255,00,26,01,070,00,138,38,213,00*72
2018-01-12 19:58:49 1515805129.666728: $GPZDA,005850.00,13,01,2018,00,00*66
2018-01-12 19:58:49 1515805129.666921: $GPGGA,005850,3946.9621,N,08404.9438,W,1,06,1.40,293.17,M,-33.324,M,,*77
2018-01-12 19:58:49 1515805129.666992: $GPRMC,005850,A,3946.9621,N,08404.9438,W,0.3423,4.197,130118,,*3A
2018-01-12 19:58:49 1515805129.667113: $GPGSA,A,3,8,7,11,23,27,30,,,,,,,4.8,1.4,4.6*31
2018-01-12 19:58:50 1515805130.216850: $GPZDA,005851.00,13,01,2018,00,00*67
2018-01-12 19:58:50 1515805130.217036: $GPGGA,005851,3946.9618,N,08404.9438,W,1,06,1.40,293.94,M,-33.324,M,,*77
2018-01-12 19:58:50 1515805130.217104: $GPRMC,005851,A,3946.9618,N,08404.9438,W,0.0000,0.000,130118,,*3C
2018-01-12 19:58:50 1515805130.217166: $GPGSA,A,3,8,7,11,23,27,30,,,,,,,4.8,1.4,4.6*31
2018-01-12 19:58:51 1515805131.220570: $GPZDA,005852.00,13,01,2018,00,00*64
2018-01-12 19:58:51 1515805131.220724: $GPGGA,005852,3946.9618,N,08404.9438,W,1,06,1.40,293.94,M,-33.324,M,,*74
2018-01-12 19:58:51 1515805131.220791: $GPRMC,005852,A,3946.9618,N,08404.9438,W,0.2422,93.795,130118,,*08
2018-01-12 19:58:51 1515805131.220853: $GPGSA,A,3,8,7,11,23,27,30,,,,,,,4.8,1.4,4.6*31
2018-01-12 19:58:51 1515805131.220910: $GPGBS,005852,14.24,M,16.36,M,105.11,M*31
2018-01-12 19:58:52 1515805132.555080: $GPGSV,3,1,11,08,71,142,26,07,52,313,27,11,17,169,18,23,33,190,16*7D
2018-01-12 19:58:52 1515805132.555263: $GPGSV,3,2,11,27,50,057,23,30,26,304,15,28,11,255,16,09,50,234,00*79
2018-01-12 19:58:52 1515805132.555330: $GPGSV,3,3,11,16,26,058,00,26,01,070,00,138,38,213,00*74
2018-01-12 19:58:52 1515805132.668893: $GPZDA,005853.00,13,01,2018,00,00*65
2018-01-12 19:58:52 1515805132.669050: $GPGGA,005853,3946.9618,N,08404.9438,W,1,07,1.40,293.94,M,-33.324,M,,*74
2018-01-12 19:58:52 1515805132.669116: $GPRMC,005853,A,3946.9618,N,08404.9438,W,1.1124,122.165,130118,,*3A
2018-01-12 19:58:52 1515805132.669178: $GPGSA,A,3,8,7,11,23,27,30,28,,,,,,4.8,1.4,4.6*3B
2018-01-12 19:58:53 1515805133.219096: $GPZDA,005854.00,13,01,2018,00,00*62
2018-01-12 19:58:53 1515805133.219263: $GPGGA,005854,3946.9614,N,08404.9438,W,1,07,1.40,293.30,M,-33.324,M,,*71
2018-01-12 19:58:53 1515805133.219331: $GPRMC,005854,A,3946.9614,N,08404.9438,W,0.2422,93.795,130118,,*02
2018-01-12 19:58:53 1515805133.219393: $GPGSA,A,3,8,7,11,23,27,30,28,,,,,,4.8,1.4,4.6*3B
2018-01-12 19:58:54 1515805134.217744: $GPZDA,005855.00,13,01,2018,00,00*63
2018-01-12 19:58:54 1515805134.217919: $GPGGA,005855,3946.9610,N,08404.9439,W,1,07,1.40,294.06,M,-33.324,M,,*77
2018-01-12 19:58:54 1515805134.217986: $GPRMC,005855,A,3946.9610,N,08404.9439,W,0.2758,128.233,130118,,*30
2018-01-12 19:58:54 1515805134.218048: $GPGSA,A,3,8,7,11,23,27,30,28,,,,,,4.8,1.4,4.6*3B
2018-01-12 19:58:55 1515805135.553701: $GPGSV,3,1,11,08,71,142,26,07,52,313,27,11,17,169,18,23,33,190,17*7C
2018-01-12 19:58:55 1515805135.553885: $GPGSV,3,2,11,27,50,057,23,30,26,304,15,09,50,234,10,16,26,058,00*79
2018-01-12 19:58:55 1515805135.553952: $GPGSV,3,3,11,28,11,255,00,26,01,070,00,138,38,213,00*72
2018-01-12 19:58:55 1515805135.667232: $GPZDA,005856.00,13,01,2018,00,00*60
2018-01-12 19:58:55 1515805135.667412: $GPGGA,005856,3946.9610,N,08404.9439,W,1,06,1.40,294.06,M,-33.324,M,,*75
2018-01-12 19:58:55 1515805135.667478: $GPRMC,005856,A,3946.9610,N,08404.9439,W,0.4949,112.165,130118,,*32
2018-01-12 19:58:55 1515805135.667540: $GPGSA,A,3,8,7,11,23,27,30,,,,,,,4.8,1.4,4.6*31
2018-01-12 19:58:56 1515805136.217226: $GPZDA,005857.00,13,01,2018,00,00*61
2018-01-12 19:58:56 1515805136.217400: $GPGGA,005857,3946.9610,N,08404.9432,W,1,06,1.40,294.14,M,-33.324,M,,*7C
2018-01-12 19:58:56 1515805136.217466: $GPRMC,005857,A,3946.9610,N,08404.9432,W,0.3775,149.506,130118,,*31
2018-01-12 19:58:56 1515805136.217527: $GPGSA,A,3,8,7,11,23,27,30,,,,,,,4.8,1.4,4.6*31
2018-01-12 19:58:57 1515805137.218239: $GPZDA,005858.00,13,01,2018,00,00*6E
2018-01-12 19:58:57 1515805137.218448: $GPGGA,005858,3946.9602,N,08404.9433,W,1,06,1.40,294.26,M,-33.324,M,,*70
2018-01-12 19:58:57 1515805137.218517: $GPRMC,005858,A,3946.9602,N,08404.9433,W,0.4700,189.201,130118,,*35
2018-01-12 19:58:57 1515805137.218580: $GPGSA,A,3,8,7,11,23,27,30,,,,,,,4.8,1.4,4.6*31
2018-01-12 19:58:58 1515805138.556864: $GPGSV,3,1,11,08,71,142,26,07,52,313,27,11,17,169,18,23,33,190,16*7D
2018-01-12 19:58:58 1515805138.557071: $GPGSV,3,2,11,27,50,057,23,30,26,304,15,09,50,234,13,28,11,255,12*7F
2018-01-12 19:58:58 1515805138.557200: $GPGSV,3,3,11,16,26,058,00,26,01,070,00,138,38,213,00*74
2018-01-12 19:58:58 1515805138.670407: $GPZDA,005859.00,13,01,2018,00,00*6F
2018-01-12 19:58:58 1515805138.670580: $GPGGA,005859,3946.9602,N,08404.9433,W,1,07,1.20,294.26,M,-33.324,M,,*76
2018-01-12 19:58:58 1515805138.670648: $GPRMC,005859,A,3946.9602,N,08404.9433,W,0.4137,224.855,130118,,*39
2018-01-12 19:58:58 1515805138.670709: $GPGSA,A,3,8,7,11,23,27,30,9,,,,,,4.8,1.2,4.6*0E
2018-01-12 19:58:59 1515805139.219001: $GPZDA,005900.00,13,01,2018,00,00*62
2018-01-12 19:58:59 1515805139.219178: $GPGGA,005900,3946.9603,N,08404.9440,W,1,07,1.20,294.18,M,-33.324,M,,*73
2018-01-12 19:58:59 1515805139.219246: $GPRMC,005900,A,3946.9603,N,08404.9440,W,0.5306,294.352,130118,,*37
2018-01-12 19:58:59 1515805139.219308: $GPGSA,A,3,8,7,11,23,27,30,9,,,,,,4.8,1.2,4.6*0E
2018-01-12 19:59:00 1515805140.220388: $GPZDA,005901.00,13,01,2018,00,00*63
2018-01-12 19:59:00 1515805140.220568: $GPGGA,005901,3946.9603,N,08404.9440,W,1,07,1.20,294.18,M,-33.324,M,,*72
2018-01-12 19:59:00 1515805140.220635: $GPRMC,005901,A,3946.9603,N,08404.9440,W,0.8011,299.090,130118,,*3E
2018-01-12 19:59:00 1515805140.220698: $GPGSA,A,3,8,7,11,23,27,30,9,,,,,,4.8,1.2,4.6*0E
2018-01-12 19:59:01 1515805141.556663: $GPGSV,3,1,11,08,71,142,26,07,52,313,28,11,17,169,18,23,33,190,15*71
2018-01-12 19:59:01 1515805141.556869: $GPGSV,3,2,11,27,50,057,23,30,26,304,15,09,50,234,14,16,26,058,00*7D
2018-01-12 19:59:01 1515805141.556935: $GPGSV,3,3,11,28,11,255,00,26,01,070,00,138,38,213,00*72
2018-01-12 19:59:01 1515805141.669988: $GPZDA,005902.00,13,01,2018,00,00*60
2018-01-12 19:59:01 1515805141.670152: $GPGGA,005902,3946.9603,N,08404.9440,W,1,07,1.20,294.18,M,-33.324,M,,*71
2018-01-12 19:59:01 1515805141.670218: $GPRMC,005902,A,3946.9603,N,08404.9440,W,0.7621,287.945,130118,,*39
2018-01-12 19:59:01 1515805141.670280: $GPGSA,A,3,8,7,11,23,27,30,9,,,,,,4.8,1.2,4.6*0E
2018-01-12 19:59:02 1515805142.219633: $GPZDA,005903.00,13,01,2018,00,00*61
2018-01-12 19:59:02 1515805142.219812: $GPGGA,005903,3946.9603,N,08404.9440,W,1,07,1.20,294.18,M,-33.324,M,,*70
2018-01-12 19:59:02 1515805142.219880: $GPRMC,005903,A,3946.9603,N,08404.9440,W,0.6309,309.994,130118,,*3D
2018-01-12 19:59:02 1515805142.219942: $GPGSA,A,3,8,7,11,23,27,30,9,,,,,,4.8,1.2,4.6*0E
