2017-12-31 17:01:29 1514757689.306628: {"class":"VERSION","release":"3.16","rev":"3.16-4","proto_major":3,"proto_minor":11}
2017-12-31 17:01:29 1514757689.306970: {"class":"DEVICES","devices":[{"class":"DEVICE","path":"/dev/ttyUSB0","driver":"SiRF","activated":"2017-12-31T22:01:29.248Z","flags":1,"native":1,"bps":4800,"parity":"N","stopbits":1,"cycle":1.00}]}
2017-12-31 17:01:29 1514757689.307069: {"class":"WATCH","enable":true,"json":false,"nmea":true,"raw":0,"scaled":false,"timing":false,"split24":false,"pps":false}
2017-12-31 17:01:29 1514757689.360499: $GPZDA,220130.00,31,12,2017,00,00*61
2017-12-31 17:01:29 1514757689.360673: $GPGGA,220130,3946.9584,N,08404.9855,W,2,10,1.00,302.98,M,-33.324,M,,*78
2017-12-31 17:01:29 1514757689.360742: $GPRMC,220130,A,3946.9584,N,08404.9855,W,0.0000,0.000,311217,,*3B
2017-12-31 17:01:29 1514757689.360803: $GPGSA,A,3,22,23,25,3,16,31,14,32,26,135,,,1.7,1.0,1.3*30
2017-12-31 17:01:30 1514757690.696962: $GPGSV,3,1,11,22,45,243,41,23,26,307,40,25,03,037,21,03,46,274,40*78
2017-12-31 17:01:30 1514757690.697174: $GPGSV,3,2,11,16,44,190,44,29,14,057,00,31,51,049,50,14,42,112,39*7E
2017-12-31 17:01:30 1514757690.697250: $GPGSV,3,3,11,32,20,121,44,26,73,148,45,135,22,240,42*73
2017-12-31 17:01:30 1514757690.810239: $GPZDA,220131.00,31,12,2017,00,00*60
2017-12-31 17:01:30 1514757690.810399: $GPGGA,220131,3946.9584,N,08404.9855,W,2,10,1.00,302.98,M,-33.324,M,,*79
2017-12-31 17:01:30 1514757690.810469: $GPRMC,220131,A,3946.9584,N,08404.9855,W,0.0000,0.000,311217,,*3A
2017-12-31 17:01:30 1514757690.810531: $GPGSA,A,3,22,23,25,3,16,31,14,32,26,135,,,1.7,1.0,1.3*30
2017-12-31 17:01:31 1514757691.366103: $GPZDA,220132.00,31,12,2017,00,00*63
2017-12-31 17:01:31 1514757691.366274: $GPGGA,220132,3946.9584,N,08404.9855,W,2,10,1.00,302.98,M,-33.324,M,,*7A
2017-12-31 17:01:31 1514757691.366343: $GPRMC,220132,A,3946.9584,N,08404.9855,W,0.0000,0.000,311217,,*39
2017-12-31 17:01:31 1514757691.366407: $GPGSA,A,3,22,23,25,3,16,31,14,32,26,135,,,1.7,1.0,1.3*30
2017-12-31 17:01:32 1514757692.353203: $GPZDA,220133.00,31,12,2017,00,00*62
2017-12-31 17:01:32 1514757692.353375: $GPGGA,220133,3946.9584,N,08404.9855,W,2,10,1.00,302.98,M,-33.324,M,,*7B
2017-12-31 17:01:32 1514757692.353442: $GPRMC,220133,A,3946.9584,N,08404.9855,W,0.0000,0.000,311217,,*38
2017-12-31 17:01:32 1514757692.353504: $GPGSA,A,3,22,23,25,3,16,31,14,32,26,135,,,1.7,1.0,1.3*30
2017-12-31 17:01:33 1514757693.697642: $GPGSV,3,1,11,22,45,243,40,23,26,307,39,25,03,037,21,03,46,274,39*79
2017-12-31 17:01:33 1514757693.697809: $GPGSV,3,2,11,16,44,190,44,29,14,057,00,31,51,049,51,14,42,112,39*7F
2017-12-31 17:01:33 1514757693.697876: $GPGSV,3,3,11,32,20,121,43,26,73,148,45,135,22,240,42*74
2017-12-31 17:01:33 1514757693.809763: $GPZDA,220134.00,31,12,2017,00,00*65
2017-12-31 17:01:33 1514757693.809913: $GPGGA,220134,3946.9584,N,08404.9855,W,2,10,1.00,302.98,M,-33.324,M,,*7C
2017-12-31 17:01:33 1514757693.809979: $GPRMC,220134,A,3946.9584,N,08404.9855,W,0.0000,0.000,311217,,*3F
2017-12-31 17:01:33 1514757693.810040: $GPGSA,A,3,22,23,25,3,16,31,14,32,26,135,,,1.7,1.0,1.3*30
2017-12-31 17:01:34 1514757694.362070: $GPZDA,220135.00,31,12,2017,00,00*64
2017-12-31 17:01:34 1514757694.362237: $GPGGA,220135,3946.9584,N,08404.9855,W,2,10,1.00,302.98,M,-33.324,M,,*7D
2017-12-31 17:01:34 1514757694.362302: $GPRMC,220135,A,3946.9584,N,08404.9855,W,0.0000,0.000,311217,,*3E
2017-12-31 17:01:34 1514757694.362363: $GPGSA,A,3,22,23,25,3,16,31,14,32,26,135,,,1.7,1.0,1.3*30
2017-12-31 17:01:35 1514757695.343532: $GPZDA,220136.00,31,12,2017,00,00*67
2017-12-31 17:01:35 1514757695.343703: $GPGGA,220136,3946.9584,N,08404.9855,W,2,10,1.00,302.98,M,-33.324,M,,*7E
2017-12-31 17:01:35 1514757695.343772: $GPRMC,220136,A,3946.9584,N,08404.9855,W,0.0000,0.000,311217,,*3D
2017-12-31 17:01:35 1514757695.343833: $GPGSA,A,3,22,23,25,3,16,31,14,32,26,135,,,1.7,1.0,1.3*30
2017-12-31 17:01:36 1514757696.679224: $GPGSV,3,1,11,22,45,243,41,23,26,307,40,25,03,037,21,03,46,274,40*78
2017-12-31 17:01:36 1514757696.679370: $GPGSV,3,2,11,16,44,190,44,29,14,057,00,31,51,049,50,14,42,112,39*7E
2017-12-31 17:01:36 1514757696.679471: $GPGSV,3,3,11,32,20,121,43,26,73,148,46,135,22,240,42*77
2017-12-31 17:01:36 1514757696.792864: $GPZDA,220137.00,31,12,2017,00,00*66
2017-12-31 17:01:36 1514757696.793010: $GPGGA,220137,3946.9584,N,08404.9855,W,2,10,1.00,302.98,M,-33.324,M,,*7F
2017-12-31 17:01:36 1514757696.793076: $GPRMC,220137,A,3946.9584,N,08404.9855,W,0.0000,0.000,311217,,*3C
2017-12-31 17:01:36 1514757696.793136: $GPGSA,A,3,22,23,25,3,16,31,14,32,26,135,,,1.7,1.0,1.3*30
2017-12-31 17:01:37 1514757697.362493: $GPZDA,220138.00,31,12,2017,00,00*69
2017-12-31 17:01:37 1514757697.362647: $GPGGA,220138,3946.9584,N,08404.9855,W,2,10,1.00,302.98,M,-33.324,M,,*70
2017-12-31 17:01:37 1514757697.362728: $GPRMC,220138,A,3946.9584,N,08404.9855,W,0.0000,0.000,311217,,*33
2017-12-31 17:01:37 1514757697.362791: $GPGSA,A,3,22,23,25,3,16,31,14,32,26,135,,,1.7,1.0,1.3*30
2017-12-31 17:01:38 1514757698.343395: $GPZDA,220139.00,31,12,2017,00,00*68
2017-12-31 17:01:38 1514757698.343579: $GPGGA,220139,3946.9584,N,08404.9855,W,2,10,1.00,302.98,M,-33.324,M,,*71
2017-12-31 17:01:38 1514757698.343648: $GPRMC,220139,A,3946.9584,N,08404.9855,W,0.0000,0.000,311217,,*32
2017-12-31 17:01:38 1514757698.343709: $GPGSA,A,3,22,23,25,3,16,31,14,32,26,135,,,1.7,1.0,1.3*30
