2017-12-01 12:25:06 1512149106.017965: {"class":"VERSION","release":"3.16","rev":"3.16-4","proto_major":3,"proto_minor":11}
2017-12-01 12:25:06 1512149106.018513: {"class":"DEVICES","devices":[{"class":"DEVICE","path":"/dev/ttyUSB0","driver":"SiRF","subtype":"9\u0006GSD4e_4.1.2-P1_RPATCH.05-F-GPS-4R-1510281 11/03/2015 307","activated":"2017-12-01T17:25:05.475Z","flags":1,"native":1,"bps":4800,"parity":"N","stopbits":1,"cycle":1.00}]}
2017-12-01 12:25:06 1512149106.018643: {"class":"WATCH","enable":true,"json":false,"nmea":true,"raw":0,"scaled":false,"timing":false,"split24":false,"pps":false}
2017-12-01 12:25:06 1512149106.670724: $GPGSV,3,1,12,10,26,285,35,13,26,045,43,15,58,051,46,18,57,304,46*75
2017-12-01 12:25:06 1512149106.670897: $GPGSV,3,2,12,20,49,075,45,21,79,250,42,24,36,136,47,27,17,310,30*7D
2017-12-01 12:25:06 1512149106.670965: $GPGSV,3,3,12,05,01,090,00,29,07,189,21,32,04,226,19,138,38,213,45*43
2017-12-01 12:25:06 1512149106.783908: $GPZDA,172507.00,01,12,2017,00,00*66
2017-12-01 12:25:06 1512149106.784119: $GPGGA,172507,3946.9582,N,08404.9839,W,2,11,0.80,300.33,M,-33.324,M,,*7B
2017-12-01 12:25:06 1512149106.784188: $GPRMC,172507,A,3946.9582,N,08404.9839,W,0.4179,328.778,011217,,*3A
2017-12-01 12:25:06 1512149106.784270: $GPGSA,A,3,10,13,15,18,20,21,24,27,29,32,138,,2.0,0.8,1.5*00
2017-12-01 12:25:07 1512149107.409532: $GPZDA,172508.00,01,12,2017,00,00*69
2017-12-01 12:25:07 1512149107.409702: $GPGGA,172508,3946.9582,N,08404.9839,W,2,11,0.80,300.33,M,-33.324,M,,*74
2017-12-01 12:25:07 1512149107.409787: $GPRMC,172508,A,3946.9582,N,08404.9839,W,0.0000,0.000,011217,,*3F
2017-12-01 12:25:07 1512149107.409849: $GPGSA,A,3,10,13,15,18,20,21,24,27,29,32,138,,2.0,0.8,1.5*00
2017-12-01 12:25:08 1512149108.335454: $GPZDA,172509.00,01,12,2017,00,00*68
2017-12-01 12:25:08 1512149108.335637: $GPGGA,172509,3946.9582,N,08404.9839,W,2,11,0.80,300.33,M,-33.324,M,,*75
2017-12-01 12:25:08 1512149108.335705: $GPRMC,172509,A,3946.9582,N,08404.9839,W,0.0000,0.000,011217,,*3E
2017-12-01 12:25:08 1512149108.335767: $GPGSA,A,3,10,13,15,18,20,21,24,27,29,32,138,,2.0,0.8,1.5*00
2017-12-01 12:25:09 1512149109.670904: $GPGSV,3,1,12,10,26,285,35,13,26,045,43,15,58,051,47,18,57,304,46*74
2017-12-01 12:25:09 1512149109.671103: $GPGSV,3,2,12,20,49,075,45,21,79,250,42,24,36,136,47,27,17,310,31*7C
2017-12-01 12:25:09 1512149109.671173: $GPGSV,3,3,12,05,01,090,23,29,07,189,21,32,04,226,16,138,38,213,46*4E
2017-12-01 12:25:09 1512149109.784660: $GPZDA,172510.00,01,12,2017,00,00*60
2017-12-01 12:25:09 1512149109.785006: $GPGGA,172510,3946.9582,N,08404.9839,W,2,12,0.80,300.33,M,-33.324,M,,*7E
2017-12-01 12:25:09 1512149109.785144: $GPRMC,172510,A,3946.9582,N,08404.9839,W,0.0000,0.000,011217,,*36
2017-12-01 12:25:09 1512149109.785276: $GPGSA,A,3,10,13,15,18,20,21,24,27,5,29,32,138,2.0,0.8,1.5*35
2017-12-01 12:25:10 1512149110.335435: $GPZDA,172511.00,01,12,2017,00,00*61
2017-12-01 12:25:10 1512149110.335605: $GPGGA,172511,3946.9582,N,08404.9839,W,2,12,0.80,300.33,M,-33.324,M,,*7F
2017-12-01 12:25:10 1512149110.335671: $GPRMC,172511,A,3946.9582,N,08404.9839,W,0.0000,0.000,011217,,*37
2017-12-01 12:25:10 1512149110.335732: $GPGSA,A,3,10,13,15,18,20,21,24,27,5,29,32,138,2.0,0.8,1.5*35
2017-12-01 12:25:11 1512149111.336007: $GPZDA,172512.00,01,12,2017,00,00*62
2017-12-01 12:25:11 1512149111.336188: $GPGGA,172512,3946.9582,N,08404.9839,W,2,12,0.80,300.33,M,-33.324,M,,*7C
2017-12-01 12:25:11 1512149111.336256: $GPRMC,172512,A,3946.9582,N,08404.9839,W,0.0000,0.000,011217,,*34
2017-12-01 12:25:11 1512149111.336318: $GPGSA,A,3,10,13,15,18,20,21,24,27,5,29,32,138,2.0,0.8,1.5*35
2017-12-01 12:25:12 1512149112.672574: $GPGSV,3,1,12,10,26,285,36,13,26,045,42,15,58,051,47,18,57,304,46*76
2017-12-01 12:25:12 1512149112.672757: $GPGSV,3,2,12,20,49,075,46,21,79,250,42,24,36,136,47,27,17,310,32*7C
2017-12-01 12:25:12 1512149112.672822: $GPGSV,3,3,12,05,01,090,23,29,07,189,21,32,04,226,24,138,38,213,46*4F
2017-12-01 12:25:12 1512149112.786599: $GPZDA,172513.00,01,12,2017,00,00*63
2017-12-01 12:25:12 1512149112.786774: $GPGGA,172513,3946.9578,N,08404.9839,W,2,12,0.80,299.69,M,-33.324,M,,*76
2017-12-01 12:25:12 1512149112.786896: $GPRMC,172513,A,3946.9578,N,08404.9839,W,0.0000,0.000,011217,,*30
2017-12-01 12:25:12 1512149112.786960: $GPGSA,A,3,10,13,15,18,20,21,24,27,5,29,32,138,2.0,0.8,1.5*35
2017-12-01 12:25:13 1512149113.339364: $GPZDA,172514.00,01,12,2017,00,00*64
2017-12-01 12:25:13 1512149113.339539: $GPGGA,172514,3946.9578,N,08404.9839,W,2,12,0.80,299.69,M,-33.324,M,,*71
2017-12-01 12:25:13 1512149113.339607: $GPRMC,172514,A,3946.9578,N,08404.9839,W,0.0000,0.000,011217,,*37
2017-12-01 12:25:13 1512149113.339669: $GPGSA,A,3,10,13,15,18,20,21,24,27,5,29,32,138,2.0,0.8,1.5*35
2017-12-01 12:25:14 1512149114.335237: $GPZDA,172515.00,01,12,2017,00,00*65
2017-12-01 12:25:14 1512149114.335400: $GPGGA,172515,3946.9578,N,08404.9839,W,2,12,0.80,299.69,M,-33.324,M,,*70
2017-12-01 12:25:14 1512149114.335467: $GPRMC,172515,A,3946.9578,N,08404.9839,W,0.0000,0.000,011217,,*36
2017-12-01 12:25:14 1512149114.335528: $GPGSA,A,3,10,13,15,18,20,21,24,27,5,29,32,138,2.0,0.8,1.5*35
2017-12-01 12:25:15 1512149115.692193: $GPGSV,3,1,12,10,26,285,36,13,26,045,43,15,58,051,47,18,57,304,46*77
2017-12-01 12:25:15 1512149115.692374: $GPGSV,3,2,12,20,49,075,46,21,79,250,42,24,36,136,47,27,17,310,33*7D
2017-12-01 12:25:15 1512149115.692442: $GPGSV,3,3,12,05,01,090,24,29,07,189,21,32,04,226,23,138,38,213,46*4F
2017-12-01 12:25:15 1512149115.805638: $GPZDA,172516.00,01,12,2017,00,00*66
2017-12-01 12:25:15 1512149115.806055: $GPGGA,172516,3946.9578,N,08404.9839,W,2,12,0.80,299.69,M,-33.324,M,,*73
2017-12-01 12:25:15 1512149115.806163: $GPRMC,172516,A,3946.9578,N,08404.9839,W,0.0000,0.000,011217,,*35
2017-12-01 12:25:15 1512149115.806261: $GPGSA,A,3,10,13,15,18,20,21,24,27,5,29,32,138,2.0,0.8,1.5*35
