2018-01-11 19:53:36 1515718416.040547: {"class":"VERSION","release":"3.16","rev":"3.16-4","proto_major":3,"proto_minor":11}
2018-01-11 19:53:36 1515718416.040880: {"class":"DEVICES","devices":[{"class":"DEVICE","path":"/dev/ttyUSB0","driver":"SiRF","subtype":"9\u0006GSD4e_4.1.2-P1_RPATCH.05-F-GPS-4R-1510281 11/03/2015 307","activated":"2018-01-12T00:53:35.549Z","flags":1,"native":1,"bps":4800,"parity":"N","stopbits":1,"cycle":1.00}]}
2018-01-11 19:53:36 1515718416.040992: {"class":"WATCH","enable":true,"json":false,"nmea":true,"raw":0,"scaled":false,"timing":false,"split24":false,"pps":false}
2018-01-11 19:53:36 1515718416.744712: $GPGSV,3,1,11,07,48,312,42,08,67,151,45,09,53,240,43,11,13,171,33*70
2018-01-11 19:53:36 1515718416.744874: $GPGSV,3,2,11,16,29,055,45,23,37,192,46,27,53,061,50,30,22,303,39*70
2018-01-11 19:53:36 1515718416.744939: $GPGSV,3,3,11,28,08,252,00,26,04,067,18,138,38,213,46*75
2018-01-11 19:53:36 1515718416.858331: $GPZDA,005337.00,12,01,2018,00,00*6D
2018-01-11 19:53:36 1515718416.858461: $GPGGA,005337,3946.9575,N,08404.9816,W,2,10,0.80,295.71,M,-33.324,M,,*70
2018-01-11 19:53:36 1515718416.858526: $GPRMC,005337,A,3946.9575,N,08404.9816,W,0.0000,0.000,120118,,*3E
2018-01-11 19:53:36 1515718416.858585: $GPGSA,A,3,7,8,9,11,16,23,27,30,26,138,,,4.0,0.8,3.5*30
2018-01-11 19:53:37 1515718417.409287: $GPZDA,005338.00,12,01,2018,00,00*62
2018-01-11 19:53:37 1515718417.409449: $GPGGA,005338,3946.9575,N,08404.9816,W,2,10,0.80,295.71,M,-33.324,M,,*7F
2018-01-11 19:53:37 1515718417.409514: $GPRMC,005338,A,3946.9575,N,08404.9816,W,0.0000,0.000,120118,,*31
2018-01-11 19:53:37 1515718417.409575: $GPGSA,A,3,7,8,9,11,16,23,27,30,26,138,,,4.0,0.8,3.5*30
2018-01-11 19:53:38 1515718418.410024: $GPZDA,005339.00,12,01,2018,00,00*63
2018-01-11 19:53:38 1515718418.410185: $GPGGA,005339,3946.9575,N,08404.9816,W,2,10,0.80,295.71,M,-33.324,M,,*7E
2018-01-11 19:53:38 1515718418.410252: $GPRMC,005339,A,3946.9575,N,08404.9816,W,0.0000,0.000,120118,,*30
2018-01-11 19:53:38 1515718418.410313: $GPGSA,A,3,7,8,9,11,16,23,27,30,26,138,,,4.0,0.8,3.5*30
2018-01-11 19:53:38 1515718418.410371: $GPGBS,005339,3.65,M,6.21,M,20.10,M*04
2018-01-11 19:53:39 1515718419.743648: $GPGSV,3,1,11,07,48,312,42,08,67,151,45,09,53,240,43,11,13,171,33*70
2018-01-11 19:53:39 1515718419.743801: $GPGSV,3,2,11,16,29,055,45,23,37,192,47,27,53,061,50,30,22,303,39*71
2018-01-11 19:53:39 1515718419.743881: $GPGSV,3,3,11,28,08,252,00,26,04,067,19,138,38,213,45*77
2018-01-11 19:53:39 1515718419.857282: $GPZDA,005340.00,12,01,2018,00,00*6D
2018-01-11 19:53:39 1515718419.857417: $GPGGA,005340,3946.9575,N,08404.9816,W,2,10,0.80,295.71,M,-33.324,M,,*70
2018-01-11 19:53:39 1515718419.857484: $GPRMC,005340,A,3946.9575,N,08404.9816,W,0.0000,0.000,120118,,*3E
2018-01-11 19:53:39 1515718419.857545: $GPGSA,A,3,7,8,9,11,16,23,27,30,26,138,,,4.0,0.8,3.5*30
2018-01-11 19:53:40 1515718420.410710: $GPZDA,005341.00,12,01,2018,00,00*6C
2018-01-11 19:53:40 1515718420.410889: $GPGGA,005341,3946.9575,N,08404.9816,W,2,10,0.80,295.71,M,-33.324,M,,*71
2018-01-11 19:53:40 1515718420.410957: $GPRMC,005341,A,3946.9575,N,08404.9816,W,0.0000,0.000,120118,,*3F
2018-01-11 19:53:40 1515718420.411017: $GPGSA,A,3,7,8,9,11,16,23,27,30,26,138,,,4.0,0.8,3.5*30
2018-01-11 19:53:41 1515718421.410373: $GPZDA,005342.00,12,01,2018,00,00*6F
2018-01-11 19:53:41 1515718421.410537: $GPGGA,005342,3946.9575,N,08404.9816,W,2,10,1.20,295.71,M,-33.324,M,,*79
2018-01-11 19:53:41 1515718421.410604: $GPRMC,005342,A,3946.9575,N,08404.9816,W,0.0000,0.000,120118,,*3C
2018-01-11 19:53:41 1515718421.410665: $GPGSA,A,3,7,8,9,11,16,23,27,30,26,138,,,4.0,1.2,3.5*3B
2018-01-11 19:53:42 1515718422.750765: $GPGSV,3,1,11,07,48,312,42,08,67,151,45,09,53,240,43,11,13,171,33*70
2018-01-11 19:53:42 1515718422.750926: $GPGSV,3,2,11,16,29,055,45,23,37,192,47,27,53,061,50,30,22,303,40*7F
2018-01-11 19:53:42 1515718422.750993: $GPGSV,3,3,11,28,08,252,11,26,04,067,18,138,38,213,45*76
2018-01-11 19:53:42 1515718422.864384: $GPZDA,005343.00,12,01,2018,00,00*6E
2018-01-11 19:53:42 1515718422.864516: $GPGGA,005343,3946.9575,N,08404.9816,W,2,10,0.80,295.71,M,-33.324,M,,*73
2018-01-11 19:53:42 1515718422.864635: $GPRMC,005343,A,3946.9575,N,08404.9816,W,0.0000,0.000,120118,,*3D
2018-01-11 19:53:42 1515718422.864697: $GPGSA,A,3,7,8,9,11,16,23,27,30,26,138,,,4.0,0.8,3.5*30
2018-01-11 19:53:43 1515718423.409080: $GPZDA,005344.00,12,01,2018,00,00*69
2018-01-11 19:53:43 1515718423.409237: $GPGGA,005344,3946.9575,N,08404.9816,W,2,10,0.80,295.71,M,-33.324,M,,*74
2018-01-11 19:53:43 1515718423.409304: $GPRMC,005344,A,3946.9575,N,08404.9816,W,0.0000,0.000,120118,,*3A
2018-01-11 19:53:43 1515718423.409364: $GPGSA,A,3,7,8,9,11,16,23,27,30,26,138,,,4.0,0.8,3.5*30
2018-01-11 19:53:44 1515718424.410695: $GPZDA,005345.00,12,01,2018,00,00*68
2018-01-11 19:53:44 1515718424.410857: $GPGGA,005345,3946.9575,N,08404.9816,W,2,10,0.80,295.71,M,-33.324,M,,*75
2018-01-11 19:53:44 1515718424.410923: $GPRMC,005345,A,3946.9575,N,08404.9816,W,0.0000,0.000,120118,,*3B
2018-01-11 19:53:44 1515718424.410984: $GPGSA,A,3,7,8,9,11,16,23,27,30,26,138,,,4.0,0.8,3.5*30
