2017-12-01 11:44:01 1512146641.996678: {"class":"VERSION","release":"3.16","rev":"3.16-4","proto_major":3,"proto_minor":11}
2017-12-01 11:44:01 1512146641.997159: {"class":"DEVICES","devices":[{"class":"DEVICE","path":"/dev/ttyUSB0","driver":"SiRF","subtype":"9\u0006GSD4e_4.1.2-P1_RPATCH.05-F-GPS-4R-1510281 11/03/2015 307","activated":"2017-12-01T16:44:01.987Z","flags":1,"native":1,"bps":4800,"parity":"N","stopbits":1,"cycle":1.00}]}
2017-12-01 11:44:01 1512146641.997288: {"class":"WATCH","enable":true,"json":false,"nmea":true,"raw":0,"scaled":false,"timing":false,"split24":false,"pps":false}
2017-12-01 11:44:02 1512146642.399348: $GPZDA,164403.00,01,12,2017,00,00*64
2017-12-01 11:44:02 1512146642.399532: $GPGGA,164403,3946.9567,N,08404.9841,W,2,11,0.80,300.57,M,-33.324,M,,*7F
2017-12-01 11:44:02 1512146642.399600: $GPRMC,164403,A,3946.9567,N,08404.9841,W,0.0000,0.000,011217,,*36
2017-12-01 11:44:02 1512146642.399661: $GPGSA,A,3,10,13,15,18,20,21,24,27,29,5,138,,2.0,0.8,1.5*34
2017-12-01 11:44:03 1512146643.403724: $GPZDA,164404.00,01,12,2017,00,00*63
2017-12-01 11:44:03 1512146643.403907: $GPGGA,164404,3946.9567,N,08404.9841,W,2,11,0.80,300.57,M,-33.324,M,,*78
2017-12-01 11:44:03 1512146643.403975: $GPRMC,164404,A,3946.9567,N,08404.9841,W,0.0000,0.000,011217,,*31
2017-12-01 11:44:03 1512146643.404035: $GPGSA,A,3,10,13,15,18,20,21,24,27,29,5,138,,2.0,0.8,1.5*34
2017-12-01 11:44:04 1512146644.734237: $GPGSV,3,1,12,10,13,271,35,13,43,049,47,15,75,072,47,18,44,285,44*74
2017-12-01 11:44:04 1512146644.734419: $GPGSV,3,2,12,20,62,051,42,21,67,306,45,24,20,148,44,27,09,324,43*7E
2017-12-01 11:44:04 1512146644.734485: $GPGSV,3,3,12,29,24,195,43,05,14,078,28,04,12,130,00,138,38,213,46*4E
2017-12-01 11:44:04 1512146644.847921: $GPZDA,164405.00,01,12,2017,00,00*62
2017-12-01 11:44:04 1512146644.848091: $GPGGA,164405,3946.9567,N,08404.9841,W,2,11,0.80,300.57,M,-33.324,M,,*79
2017-12-01 11:44:04 1512146644.848157: $GPRMC,164405,A,3946.9567,N,08404.9841,W,0.0000,0.000,011217,,*30
2017-12-01 11:44:04 1512146644.848218: $GPGSA,A,3,10,13,15,18,20,21,24,27,29,5,138,,2.0,0.8,1.5*34
2017-12-01 11:44:05 1512146645.398595: $GPZDA,164406.00,01,12,2017,00,00*61
2017-12-01 11:44:05 1512146645.398768: $GPGGA,164406,3946.9567,N,08404.9841,W,2,11,0.80,300.57,M,-33.324,M,,*7A
2017-12-01 11:44:05 1512146645.398835: $GPRMC,164406,A,3946.9567,N,08404.9841,W,0.0000,0.000,011217,,*33
2017-12-01 11:44:05 1512146645.398897: $GPGSA,A,3,10,13,15,18,20,21,24,27,29,5,138,,2.0,0.8,1.5*34
2017-12-01 11:44:06 1512146646.403402: $GPZDA,164407.00,01,12,2017,00,00*60
2017-12-01 11:44:06 1512146646.403593: $GPGGA,164407,3946.9567,N,08404.9841,W,2,11,0.80,300.57,M,-33.324,M,,*7B
2017-12-01 11:44:06 1512146646.403661: $GPRMC,164407,A,3946.9567,N,08404.9841,W,0.0000,0.000,011217,,*32
2017-12-01 11:44:06 1512146646.403722: $GPGSA,A,3,10,13,15,18,20,21,24,27,29,5,138,,2.0,0.8,1.5*34
2017-12-01 11:44:07 1512146647.730147: $GPGSV,3,1,12,10,13,271,34,13,43,049,46,15,75,072,47,18,44,285,44*74
2017-12-01 11:44:07 1512146647.730309: $GPGSV,3,2,12,20,62,051,42,21,67,306,45,24,20,148,44,27,09,324,42*7F
2017-12-01 11:44:07 1512146647.730375: $GPGSV,3,3,12,29,24,195,44,05,14,078,28,04,12,130,00,138,38,213,45*4A
2017-12-01 11:44:07 1512146647.843795: $GPZDA,164408.00,01,12,2017,00,00*6F
2017-12-01 11:44:07 1512146647.843967: $GPGGA,164408,3946.9567,N,08404.9841,W,2,11,0.80,300.57,M,-33.324,M,,*74
2017-12-01 11:44:07 1512146647.844033: $GPRMC,164408,A,3946.9567,N,08404.9841,W,0.0000,0.000,011217,,*3D
2017-12-01 11:44:07 1512146647.844095: $GPGSA,A,3,10,13,15,18,20,21,24,27,29,5,138,,2.0,0.8,1.5*34
2017-12-01 11:44:08 1512146648.468899: $GPZDA,164409.00,01,12,2017,00,00*6E
2017-12-01 11:44:08 1512146648.469087: $GPGGA,164409,3946.9567,N,08404.9841,W,2,11,0.80,300.57,M,-33.324,M,,*75
2017-12-01 11:44:08 1512146648.469178: $GPRMC,164409,A,3946.9567,N,08404.9841,W,0.0000,0.000,011217,,*3C
2017-12-01 11:44:08 1512146648.469243: $GPGSA,A,3,10,13,15,18,20,21,24,27,29,5,138,,2.0,0.8,1.5*34
2017-12-01 11:44:09 1512146649.403536: $GPZDA,164410.00,01,12,2017,00,00*66
2017-12-01 11:44:09 1512146649.403764: $GPGGA,164410,3946.9567,N,08404.9841,W,2,11,0.80,300.57,M,-33.324,M,,*7D
2017-12-01 11:44:09 1512146649.403833: $GPRMC,164410,A,3946.9567,N,08404.9841,W,0.0000,0.000,011217,,*34
2017-12-01 11:44:09 1512146649.403893: $GPGSA,A,3,10,13,15,18,20,21,24,27,29,5,138,,2.0,0.8,1.5*34
2017-12-01 11:44:10 1512146650.740530: $GPGSV,3,1,12,10,13,271,35,13,43,049,47,15,75,072,47,18,44,285,44*74
2017-12-01 11:44:10 1512146650.740713: $GPGSV,3,2,12,20,62,051,42,21,67,306,44,24,20,148,44,27,09,324,43*7F
2017-12-01 11:44:10 1512146650.740779: $GPGSV,3,3,12,29,24,195,43,05,14,078,28,04,12,130,00,138,38,213,46*4E
2017-12-01 11:44:10 1512146650.853903: $GPZDA,164411.00,01,12,2017,00,00*67
2017-12-01 11:44:10 1512146650.854067: $GPGGA,164411,3946.9567,N,08404.9841,W,2,11,0.80,300.57,M,-33.324,M,,*7C
2017-12-01 11:44:10 1512146650.854133: $GPRMC,164411,A,3946.9567,N,08404.9841,W,0.0000,0.000,011217,,*35
2017-12-01 11:44:10 1512146650.854194: $GPGSA,A,3,10,13,15,18,20,21,24,27,29,5,138,,2.0,0.8,1.5*34
2017-12-01 11:44:11 1512146651.398543: $GPZDA,164412.00,01,12,2017,00,00*64
2017-12-01 11:44:11 1512146651.398720: $GPGGA,164412,3946.9567,N,08404.9841,W,2,11,0.80,300.57,M,-33.324,M,,*7F
2017-12-01 11:44:11 1512146651.398786: $GPRMC,164412,A,3946.9567,N,08404.9841,W,0.0000,0.000,011217,,*36
2017-12-01 11:44:11 1512146651.398848: $GPGSA,A,3,10,13,15,18,20,21,24,27,29,5,138,,2.0,0.8,1.5*34
