2017-11-16 14:51:30 1510861890.769183: {"class":"VERSION","release":"3.17","rev":"3.17","proto_major":3,"proto_minor":12}
2017-11-16 14:51:30 1510861890.769609: {"class":"DEVICES","devices":[{"class":"DEVICE","path":"/dev/ttyUSB0","driver":"SiRF","subtype":"9\u0006GSD4e_4.1.2-P1_RPATCH.05-F-GPS-4R-1510281 11/03/2015 307","activated":"2017-11-16T19:51:30.419Z","flags":1,"native":1,"bps":4800,"parity":"N","stopbits":1,"cycle":1.00}]}
2017-11-16 14:51:30 1510861890.769797: {"class":"WATCH","enable":true,"json":false,"nmea":true,"raw":0,"scaled":false,"timing":false,"split24":false,"pps":false}
2017-11-16 14:51:30 1510861890.868571: $GPGSV,3,1,11,08,08,307,01,10,55,313,50,15,24,058,50,18,77,033,44*78
2017-11-16 14:51:30 1510861890.868752: $GPGSV,3,2,11,21,46,183,47,20,21,108,41,24,53,081,49,27,14,273,42*79
2017-11-16 14:51:30 1510861890.868812: $GPGSV,3,3,11,32,33,250,46,14,17,241,44,138,38,213,44*78
2017-11-16 14:51:30 1510861890.982423: $GPZDA,195129.00,16,11,2017,00,00*62
2017-11-16 14:51:30 1510861890.982605: $GPGGA,195129,3946.9572,N,08404.9841,W,2,10,1.00,302.62,M,-33.324,M,,*74
2017-11-16 14:51:30 1510861890.982666: $GPRMC,195129,A,3946.9572,N,08404.9841,W,0.0000,0.000,161117,,*34
2017-11-16 14:51:30 1510861890.982722: $GPGSA,A,3,10,15,18,21,20,24,27,32,14,138,,,1.6,1.0,1.3*06
2017-11-16 14:51:31 1510861891.490247: $GPZDA,195130.00,16,11,2017,00,00*6A
2017-11-16 14:51:31 1510861891.490467: $GPGGA,195130,3946.9572,N,08404.9841,W,2,10,0.80,302.62,M,-33.324,M,,*75
2017-11-16 14:51:31 1510861891.490529: $GPRMC,195130,A,3946.9572,N,08404.9841,W,0.0000,0.000,161117,,*3C
2017-11-16 14:51:31 1510861891.490585: $GPGSA,A,3,10,15,18,21,20,24,27,32,14,138,,,1.6,0.8,1.3*0F
2017-11-16 14:51:32 1510861892.483806: $GPZDA,195131.00,16,11,2017,00,00*6B
2017-11-16 14:51:32 1510861892.483982: $GPGGA,195131,3946.9572,N,08404.9841,W,2,10,1.00,302.62,M,-33.324,M,,*7D
2017-11-16 14:51:32 1510861892.484046: $GPRMC,195131,A,3946.9572,N,08404.9841,W,0.0000,0.000,161117,,*3D
2017-11-16 14:51:32 1510861892.484104: $GPGSA,A,3,10,15,18,21,20,24,27,32,14,138,,,1.6,1.0,1.3*06
2017-11-16 14:51:33 1510861893.864422: $GPGSV,3,1,11,10,55,313,50,08,08,307,00,15,24,058,50,18,77,033,44*79
2017-11-16 14:51:33 1510861893.864593: $GPGSV,3,2,11,21,46,183,47,20,21,108,41,24,53,081,50,27,14,273,42*71
2017-11-16 14:51:33 1510861893.864655: $GPGSV,3,3,11,32,33,250,46,14,17,241,43,138,38,213,44*7F
2017-11-16 14:51:33 1510861893.977876: $GPZDA,195132.00,16,11,2017,00,00*68
2017-11-16 14:51:33 1510861893.978034: $GPGGA,195132,3946.9572,N,08404.9841,W,2,10,1.00,302.62,M,-33.324,M,,*7E
2017-11-16 14:51:33 1510861893.978097: $GPRMC,195132,A,3946.9572,N,08404.9841,W,0.0000,0.000,161117,,*3E
2017-11-16 14:51:33 1510861893.978154: $GPGSA,A,3,10,15,18,21,20,24,27,32,14,138,,,1.6,1.0,1.3*06
2017-11-16 14:51:34 1510861894.603154: $GPZDA,195133.00,16,11,2017,00,00*69
2017-11-16 14:51:34 1510861894.603314: $GPGGA,195133,3946.9572,N,08404.9841,W,2,10,1.00,302.62,M,-33.324,M,,*7F
2017-11-16 14:51:34 1510861894.603375: $GPRMC,195133,A,3946.9572,N,08404.9841,W,0.0000,0.000,161117,,*3F
2017-11-16 14:51:34 1510861894.603431: $GPGSA,A,3,10,15,18,21,20,24,27,32,14,138,,,1.6,1.0,1.3*06
2017-11-16 14:51:35 1510861895.489017: $GPZDA,195134.00,16,11,2017,00,00*6E
2017-11-16 14:51:35 1510861895.489178: $GPGGA,195134,3946.9572,N,08404.9841,W,2,10,1.00,302.62,M,-33.324,M,,*78
2017-11-16 14:51:35 1510861895.489239: $GPRMC,195134,A,3946.9572,N,08404.9841,W,0.0000,0.000,161117,,*38
2017-11-16 14:51:35 1510861895.489295: $GPGSA,A,3,10,15,18,21,20,24,27,32,14,138,,,1.6,1.0,1.3*06
2017-11-16 14:51:36 1510861896.827430: $GPGSV,3,1,11,10,55,313,50,08,08,307,00,15,24,058,50,18,77,033,44*79
2017-11-16 14:51:36 1510861896.827615: $GPGSV,3,2,11,21,46,183,47,20,21,108,41,24,53,081,50,27,14,273,42*71
2017-11-16 14:51:36 1510861896.827679: $GPGSV,3,3,11,32,33,250,46,14,17,241,43,138,38,213,43*78
2017-11-16 14:51:36 1510861896.941118: $GPZDA,195135.00,16,11,2017,00,00*6F
2017-11-16 14:51:36 1510861896.941294: $GPGGA,195135,3946.9572,N,08404.9841,W,2,10,1.00,302.62,M,-33.324,M,,*79
2017-11-16 14:51:36 1510861896.941430: $GPRMC,195135,A,3946.9572,N,08404.9841,W,0.0000,0.000,161117,,*39
2017-11-16 14:51:36 1510861896.941490: $GPGSA,A,3,10,15,18,21,20,24,27,32,14,138,,,1.6,1.0,1.3*06
2017-11-16 14:51:37 1510861897.552658: $GPZDA,195136.00,16,11,2017,00,00*6C
2017-11-16 14:51:37 1510861897.552824: $GPGGA,195136,3946.9572,N,08404.9841,W,2,10,1.00,302.62,M,-33.324,M,,*7A
2017-11-16 14:51:37 1510861897.552886: $GPRMC,195136,A,3946.9572,N,08404.9841,W,0.0000,0.000,161117,,*3A
2017-11-16 14:51:37 1510861897.552946: $GPGSA,A,3,10,15,18,21,20,24,27,32,14,138,,,1.6,1.0,1.3*06
2017-11-16 14:51:37 1510861897.553002: $GPGBS,195136,2.12,M,3.10,M,7.47,M*30
2017-11-16 14:51:38 1510861898.491222: $GPZDA,195137.00,16,11,2017,00,00*6D
2017-11-16 14:51:38 1510861898.491402: $GPGGA,195137,3946.9572,N,08404.9841,W,2,10,0.80,302.62,M,-33.324,M,,*72
2017-11-16 14:51:38 1510861898.491464: $GPRMC,195137,A,3946.9572,N,08404.9841,W,0.0000,0.000,161117,,*3B
2017-11-16 14:51:38 1510861898.491521: $GPGSA,A,3,10,15,18,21,20,24,27,32,14,138,,,1.6,0.8,1.3*0F
2017-11-16 14:51:38 1510861898.491574: $GPGBS,195137,2.12,M,3.10,M,7.47,M*31
2017-11-16 14:51:39 1510861899.827586: $GPGSV,3,1,11,08,08,306,31,10,56,315,50,15,23,058,50,18,77,039,44*72
2017-11-16 14:51:39 1510861899.827758: $GPGSV,3,2,11,21,45,183,47,20,20,109,41,24,52,079,49,27,14,273,42*7C
2017-11-16 14:51:39 1510861899.827818: $GPGSV,3,3,11,32,34,250,46,14,18,243,43,138,38,213,43*72
2017-11-16 14:51:39 1510861899.941049: $GPZDA,195138.00,16,11,2017,00,00*62
2017-11-16 14:51:39 1510861899.941221: $GPGGA,195138,3946.9572,N,08404.9841,W,2,11,0.80,302.62,M,-33.324,M,,*7C
2017-11-16 14:51:39 1510861899.941285: $GPRMC,195138,A,3946.9572,N,08404.9841,W,0.0000,0.000,161117,,*34
2017-11-16 14:51:39 1510861899.941341: $GPGSA,A,3,8,10,15,18,21,20,24,27,32,14,138,,1.6,0.8,1.3*37
2017-11-16 14:51:40 1510861900.491778: $GPZDA,195139.00,16,11,2017,00,00*63
2017-11-16 14:51:40 1510861900.491945: $GPGGA,195139,3946.9572,N,08404.9841,W,2,11,0.80,302.62,M,-33.324,M,,*7D
2017-11-16 14:51:40 1510861900.492010: $GPRMC,195139,A,3946.9572,N,08404.9841,W,0.0000,0.000,161117,,*35
2017-11-16 14:51:40 1510861900.492067: $GPGSA,A,3,8,10,15,18,21,20,24,27,32,14,138,,1.6,0.8,1.3*37
