2018-01-12 20:08:21 1515805701.547529: {"class":"VERSION","release":"3.16","rev":"3.16-4","proto_major":3,"proto_minor":11}
2018-01-12 20:08:21 1515805701.547911: {"class":"DEVICES","devices":[{"class":"DEVICE","path":"/dev/ttyUSB0","driver":"SiRF","subtype":"9\u0006GSD4e_4.1.2-P1_RPATCH.05-F-GPS-4R-1510281 11/03/2015 307","activated":"2018-01-13T01:08:21.300Z","flags":1,"native":1,"bps":4800,"parity":"N","stopbits":1,"cycle":1.00}]}
2018-01-12 20:08:21 1515805701.548026: {"class":"WATCH","enable":true,"json":false,"nmea":true,"raw":0,"scaled":false,"timing":false,"split24":false,"pps":false}
2018-01-12 20:08:22 1515805702.495235: $GPGSV,3,1,10,09,47,228,25,08,74,129,24,27,47,052,19,07,56,315,15*76
2018-01-12 20:08:22 1515805702.495415: $GPGSV,3,2,10,11,21,168,13,30,30,306,00,23,28,189,00,16,22,060,00*78
2018-01-12 20:08:22 1515805702.495481: $GPGSV,3,3,10,28,14,259,00,138,38,213,00*48
2018-01-12 20:08:22 1515805702.608577: $GPZDA,010823.00,13,01,2018,00,00*66
2018-01-12 20:08:22 1515805702.608773: $GPGGA,010823,3946.9586,N,08404.9530,W,1,05,1.60,288.55,M,-33.324,M,,*7D
2018-01-12 20:08:22 1515805702.608841: $GPRMC,010823,A,3946.9586,N,08404.9530,W,0.6290,0.803,130118,,*36
2018-01-12 20:08:22 1515805702.608921: $GPGSA,A,3,9,8,27,7,11,,,,,,,,4.8,1.6,4.6*08
2018-01-12 20:08:23 1515805703.159969: $GPZDA,010824.00,13,01,2018,00,00*61
2018-01-12 20:08:23 1515805703.160163: $GPGGA,010824,3946.9585,N,08404.9529,W,1,05,1.60,287.15,M,-33.324,M,,*7A
2018-01-12 20:08:23 1515805703.160229: $GPRMC,010824,A,3946.9585,N,08404.9529,W,0.6316,303.832,130118,,*37
2018-01-12 20:08:23 1515805703.160291: $GPGSA,A,3,9,8,27,7,11,,,,,,,,4.8,1.6,4.6*08
2018-01-12 20:08:24 1515805704.158941: $GPZDA,010825.00,13,01,2018,00,00*60
2018-01-12 20:08:24 1515805704.159111: $GPGGA,010825,3946.9584,N,08404.9528,W,1,05,1.60,285.74,M,-33.324,M,,*7E
2018-01-12 20:08:24 1515805704.159180: $GPRMC,010825,A,3946.9584,N,08404.9528,W,0.3081,268.931,130118,,*30
2018-01-12 20:08:24 1515805704.159242: $GPGSA,A,3,9,8,27,7,11,,,,,,,,4.8,1.6,4.6*08
2018-01-12 20:08:25 1515805705.495115: $GPGSV,3,1,10,09,47,228,25,08,74,129,24,27,47,052,18,07,56,315,15*77
2018-01-12 20:08:25 1515805705.495313: $GPGSV,3,2,10,11,21,168,13,30,30,306,00,23,28,189,00,16,22,060,00*78
2018-01-12 20:08:25 1515805705.495380: $GPGSV,3,3,10,28,14,259,00,138,38,213,00*48
2018-01-12 20:08:25 1515805705.608423: $GPZDA,010826.00,13,01,2018,00,00*63
2018-01-12 20:08:25 1515805705.608596: $GPGGA,010826,3946.9580,N,08404.9528,W,1,05,1.60,285.10,M,-33.324,M,,*7B
2018-01-12 20:08:25 1515805705.608662: $GPRMC,010826,A,3946.9580,N,08404.9528,W,0.4205,97.356,130118,,*07
2018-01-12 20:08:25 1515805705.608747: $GPGSA,A,3,9,8,27,7,11,,,,,,,,4.8,1.6,4.6*08
2018-01-12 20:08:26 1515805706.159309: $GPZDA,010827.00,13,01,2018,00,00*62
2018-01-12 20:08:26 1515805706.159481: $GPGGA,010827,3946.9579,N,08404.9527,W,1,05,1.60,283.70,M,-33.324,M,,*73
2018-01-12 20:08:26 1515805706.159547: $GPRMC,010827,A,3946.9579,N,08404.9527,W,0.7069,111.282,130118,,*33
2018-01-12 20:08:26 1515805706.159608: $GPGSA,A,3,9,8,27,7,11,,,,,,,,4.8,1.6,4.6*08
2018-01-12 20:08:27 1515805707.160707: $GPZDA,010828.00,13,01,2018,00,00*6D
2018-01-12 20:08:27 1515805707.160914: $GPGGA,010828,3946.9578,N,08404.9520,W,1,05,1.60,282.37,M,-33.324,M,,*78
2018-01-12 20:08:27 1515805707.160982: $GPRMC,010828,A,3946.9578,N,08404.9520,W,1.2018,111.646,130118,,*34
2018-01-12 20:08:27 1515805707.161044: $GPGSA,A,3,9,8,27,7,11,,,,,,,,4.8,1.6,4.6*08
2018-01-12 20:08:28 1515805708.495742: $GPGSV,3,1,10,09,47,228,25,08,74,129,24,27,47,052,18,07,56,315,15*77
2018-01-12 20:08:28 1515805708.495964: $GPGSV,3,2,10,11,21,168,13,30,30,306,00,23,28,189,00,16,22,060,00*78
2018-01-12 20:08:28 1515805708.496033: $GPGSV,3,3,10,28,14,259,00,138,38,213,00*48
2018-01-12 20:08:28 1515805708.609040: $GPZDA,010829.00,13,01,2018,00,00*6C
2018-01-12 20:08:28 1515805708.609209: $GPGGA,010829,3946.9578,N,08404.9520,W,1,05,1.60,282.37,M,-33.324,M,,*79
2018-01-12 20:08:28 1515805708.609275: $GPRMC,010829,A,3946.9578,N,08404.9520,W,1.0304,124.386,130118,,*36
2018-01-12 20:08:28 1515805708.609391: $GPGSA,A,3,9,8,27,7,11,,,,,,,,4.8,1.6,4.6*08
2018-01-12 20:08:29 1515805709.160424: $GPZDA,010830.00,13,01,2018,00,00*64
2018-01-12 20:08:29 1515805709.160596: $GPGGA,010830,3946.9577,N,08404.9512,W,1,05,1.60,281.05,M,-33.324,M,,*7D
2018-01-12 20:08:29 1515805709.160663: $GPRMC,010830,A,3946.9577,N,08404.9512,W,1.2018,111.646,130118,,*33
2018-01-12 20:08:29 1515805709.160748: $GPGSA,A,3,9,8,27,7,11,,,,,,,,4.8,1.6,4.6*08
2018-01-12 20:08:30 1515805710.160474: $GPZDA,010831.00,13,01,2018,00,00*65
2018-01-12 20:08:30 1515805710.160643: $GPGGA,010831,3946.9573,N,08404.9512,W,1,05,1.60,280.41,M,-33.324,M,,*79
2018-01-12 20:08:30 1515805710.160733: $GPRMC,010831,A,3946.9573,N,08404.9512,W,0.9045,95.449,130118,,*04
2018-01-12 20:08:30 1515805710.160797: $GPGSA,A,3,9,8,27,7,11,,,,,,,,4.8,1.6,4.6*08
2018-01-12 20:08:30 1515805710.160871: $GPGBS,010831,14.24,M,16.36,M,105.11,M*30
2018-01-12 20:08:31 1515805711.497402: $GPGSV,3,1,10,09,47,228,25,08,74,129,23,27,47,052,18,07,56,315,14*71
2018-01-12 20:08:31 1515805711.497584: $GPGSV,3,2,10,11,21,168,13,28,14,259,04,23,28,189,03,30,30,306,00*7F
2018-01-12 20:08:31 1515805711.497650: $GPGSV,3,3,10,16,22,060,00,138,38,213,00*48
2018-01-12 20:08:31 1515805711.610975: $GPZDA,010832.00,13,01,2018,00,00*66
2018-01-12 20:08:31 1515805711.611149: $GPGGA,010832,3946.9572,N,08404.9504,W,1,05,1.60,279.08,M,-33.324,M,,*77
2018-01-12 20:08:31 1515805711.611216: $GPRMC,010832,A,3946.9572,N,08404.9504,W,1.1466,95.100,130118,,*05
2018-01-12 20:08:31 1515805711.611277: $GPGSA,A,3,9,8,27,7,11,,,,,,,,4.8,1.6,4.6*08
2018-01-12 20:08:32 1515805712.160945: $GPZDA,010833.00,13,01,2018,00,00*67
2018-01-12 20:08:32 1515805712.161118: $GPGGA,010833,3946.9575,N,08404.9504,W,1,05,1.60,278.32,M,-33.324,M,,*79
2018-01-12 20:08:32 1515805712.161185: $GPRMC,010833,A,3946.9575,N,08404.9504,W,0.6723,109.510,130118,,*36
2018-01-12 20:08:32 1515805712.161247: $GPGSA,A,3,9,8,27,7,11,,,,,,,,4.8,1.6,4.6*08
2018-01-12 20:08:33 1515805713.161142: $GPZDA,010834.00,13,01,2018,00,00*60
2018-01-12 20:08:33 1515805713.161315: $GPGGA,010834,3946.9571,N,08404.9497,W,1,05,1.60,277.76,M,-33.324,M,,*7E
2018-01-12 20:08:33 1515805713.161383: $GPRMC,010834,A,3946.9571,N,08404.9497,W,0.8713,133.339,130118,,*37
2018-01-12 20:08:33 1515805713.161445: $GPGSA,A,3,9,8,27,7,11,,,,,,,,4.8,1.6,4.6*08
2018-01-12 20:08:34 1515805714.498536: $GPGSV,3,1,10,09,47,228,26,08,74,129,24,27,47,052,18,07,56,315,14*75
2018-01-12 20:08:34 1515805714.498739: $GPGSV,3,2,10,11,21,168,13,28,14,259,11,23,28,189,07,30,30,306,00*7F
2018-01-12 20:08:34 1515805714.498807: $GPGSV,3,3,10,16,22,060,00,138,38,213,00*48
2018-01-12 20:08:34 1515805714.611894: $GPZDA,010835.00,13,01,2018,00,00*61
2018-01-12 20:08:34 1515805714.612067: $GPGGA,010835,3946.9570,N,08404.9496,W,1,06,1.60,276.35,M,-33.324,M,,*7A
2018-01-12 20:08:34 1515805714.612134: $GPRMC,010835,A,3946.9570,N,08404.9496,W,0.4814,119.978,130118,,*35
2018-01-12 20:08:34 1515805714.612196: $GPGSA,A,3,9,8,27,7,11,28,,,,,,,4.8,1.6,4.6*02
2018-01-12 20:08:35 1515805715.159556: $GPZDA,010836.00,13,01,2018,00,00*62
2018-01-12 20:08:35 1515805715.159735: $GPGGA,010836,3946.9574,N,08404.9495,W,1,06,1.60,275.59,M,-33.324,M,,*77
2018-01-12 20:08:35 1515805715.159804: $GPRMC,010836,A,3946.9574,N,08404.9495,W,0.6432,46.572,130118,,*06
2018-01-12 20:08:35 1515805715.159885: $GPGSA,A,3,9,8,27,7,11,28,,,,,,,4.8,1.6,4.6*02
2018-01-12 20:08:36 1515805716.160401: $GPZDA,010837.00,13,01,2018,00,00*63
2018-01-12 20:08:36 1515805716.160574: $GPGGA,010837,3946.9573,N,08404.9494,W,1,06,1.60,274.19,M,-33.324,M,,*75
2018-01-12 20:08:36 1515805716.160640: $GPRMC,010837,A,3946.9573,N,08404.9494,W,0.8271,58.985,130118,,*05
2018-01-12 20:08:36 1515805716.160723: $GPGSA,A,3,9,8,27,7,11,28,,,,,,,4.8,1.6,4.6*02
2018-01-12 20:08:37 1515805717.496715: $GPGSV,3,1,10,09,47,228,26,08,74,129,24,27,47,052,18,07,56,315,14*75
2018-01-12 20:08:37 1515805717.497023: $GPGSV,3,2,10,11,21,168,13,30,30,306,00,23,28,189,09,16,22,060,00*71
2018-01-12 20:08:37 1515805717.497150: $GPGSV,3,3,10,28,14,259,00,138,38,213,00*48
2018-01-12 20:08:37 1515805717.610025: $GPZDA,010838.00,13,01,2018,00,00*6C
2018-01-12 20:08:37 1515805717.610208: $GPGGA,010838,3946.9576,N,08404.9494,W,1,05,1.60,273.42,M,-33.324,M,,*75
2018-01-12 20:08:37 1515805717.610276: $GPRMC,010838,A,3946.9576,N,08404.9494,W,0.5274,56.960,130118,,*02
2018-01-12 20:08:37 1515805717.610338: $GPGSA,A,3,9,8,27,7,11,,,,,,,,4.8,1.6,4.6*08
2018-01-12 20:08:38 1515805718.160189: $GPZDA,010839.00,13,01,2018,00,00*6D
2018-01-12 20:08:38 1515805718.160362: $GPGGA,010839,3946.9576,N,08404.9493,W,1,05,1.60,272.02,M,-33.324,M,,*76
2018-01-12 20:08:38 1515805718.160429: $GPRMC,010839,A,3946.9576,N,08404.9493,W,0.6432,46.572,130118,,*0D
2018-01-12 20:08:38 1515805718.160491: $GPGSA,A,3,9,8,27,7,11,,,,,,,,4.8,1.6,4.6*08
2018-01-12 20:08:39 1515805719.162788: $GPZDA,010840.00,13,01,2018,00,00*63
2018-01-12 20:08:39 1515805719.162981: $GPGGA,010840,3946.9575,N,08404.9485,W,1,05,1.60,270.69,M,-33.324,M,,*73
2018-01-12 20:08:39 1515805719.163049: $GPRMC,010840,A,3946.9575,N,08404.9485,W,0.2320,59.756,130118,,*0D
2018-01-12 20:08:39 1515805719.163110: $GPGSA,A,3,9,8,27,7,11,,,,,,,,4.8,1.6,4.6*08
2018-01-12 20:08:40 1515805720.497757: $GPGSV,3,1,10,09,47,228,26,08,74,129,24,27,47,052,18,07,56,315,12*73
2018-01-12 20:08:40 1515805720.497953: $GPGSV,3,2,10,11,21,168,14,28,14,259,15,23,28,189,11,30,30,306,00*7B
2018-01-12 20:08:40 1515805720.498020: $GPGSV,3,3,10,16,22,060,00,138,38,213,00*48
2018-01-12 20:08:40 1515805720.611146: $GPZDA,010841.00,13,01,2018,00,00*62
2018-01-12 20:08:40 1515805720.611321: $GPGGA,010841,3946.9578,N,08404.9492,W,1,06,1.60,269.85,M,-33.324,M,,*70
2018-01-12 20:08:40 1515805720.611406: $GPRMC,010841,A,3946.9578,N,08404.9492,W,0.3223,352.640,130118,,*3A
2018-01-12 20:08:40 1515805720.611469: $GPGSA,A,3,9,8,27,7,11,23,,,,,,,4.8,1.6,4.6*09
2018-01-12 20:08:41 1515805721.160967: $GPZDA,010842.00,13,01,2018,00,00*61
2018-01-12 20:08:41 1515805721.161125: $GPGGA,010842,3946.9578,N,08404.9491,W,1,06,1.60,268.44,M,-33.324,M,,*7C
2018-01-12 20:08:41 1515805721.161192: $GPRMC,010842,A,3946.9578,N,08404.9491,W,0.3638,33.431,130118,,*04
2018-01-12 20:08:41 1515805721.161254: $GPGSA,A,3,9,8,27,7,11,23,,,,,,,4.8,1.6,4.6*09
