2017-11-15 19:32:49 1510792369.735336: {"class":"VERSION","release":"3.17","rev":"3.17","proto_major":3,"proto_minor":12}
2017-11-15 19:32:49 1510792369.735787: {"class":"DEVICES","devices":[{"class":"DEVICE","path":"/dev/ttyUSB0","driver":"SiRF","subtype":"9\u0006GSD4e_4.1.2-P1_RPATCH.05-F-GPS-4R-1510281 11/03/2015 307","activated":"2017-11-16T00:32:49.485Z","flags":1,"native":1,"bps":4800,"parity":"N","stopbits":1,"cycle":1.00}]}
2017-11-15 19:32:49 1510792369.735903: {"class":"WATCH","enable":true,"json":false,"nmea":true,"raw":0,"scaled":false,"timing":false,"split24":false,"pps":false}
2017-11-15 19:32:50 1510792370.326980: $GPZDA,003249.00,16,11,2017,00,00*69
2017-11-15 19:32:50 1510792370.327151: $GPGGA,003249,3946.9568,N,08404.9451,W,1,07,2.40,284.69,M,-33.324,M,,*7F
2017-11-15 19:32:50 1510792370.327212: $GPRMC,003249,A,3946.9568,N,08404.9451,W,0.3423,184.197,161117,,*3D
2017-11-15 19:32:50 1510792370.327269: $GPGSA,A,3,32,16,26,14,31,3,22,,,,,,3.4,2.4,2.9*0E
2017-11-15 19:32:51 1510792371.679417: $GPGSV,3,1,11,32,35,109,24,31,66,027,00,16,24,190,16,26,55,172,20*79
2017-11-15 19:32:51 1510792371.679598: $GPGSV,3,2,11,14,54,094,00,25,16,039,00,03,40,297,18,23,12,301,00*79
2017-11-15 19:32:51 1510792371.679658: $GPGSV,3,3,11,29,11,070,00,01,05,252,00,22,50,268,23*4C
2017-11-15 19:32:51 1510792371.792974: $GPZDA,003250.00,16,11,2017,00,00*61
2017-11-15 19:32:51 1510792371.793133: $GPGGA,003250,3946.9560,N,08404.9452,W,1,05,2.40,284.82,M,-33.324,M,,*7B
2017-11-15 19:32:51 1510792371.793194: $GPRMC,003250,A,3946.9560,N,08404.9452,W,0.6846,184.197,161117,,*34
2017-11-15 19:32:51 1510792371.793250: $GPGSA,A,3,32,16,26,3,22,,,,,,,,3.4,2.4,2.9*09
2017-11-15 19:32:52 1510792372.343841: $GPZDA,003251.00,16,11,2017,00,00*60
2017-11-15 19:32:52 1510792372.344003: $GPGGA,003251,3946.9561,N,08404.9459,W,1,05,2.40,284.74,M,-33.324,M,,*79
2017-11-15 19:32:52 1510792372.344064: $GPRMC,003251,A,3946.9561,N,08404.9459,W,0.7278,203.636,161117,,*39
2017-11-15 19:32:52 1510792372.344120: $GPGSA,A,3,32,16,26,3,22,,,,,,,,3.4,2.4,2.9*09
2017-11-15 19:32:53 1510792373.328283: $GPZDA,003252.00,16,11,2017,00,00*63
2017-11-15 19:32:53 1510792373.328453: $GPGGA,003252,3946.9561,N,08404.9459,W,1,05,2.40,284.74,M,-33.324,M,,*7A
2017-11-15 19:32:53 1510792373.328514: $GPRMC,003252,A,3946.9561,N,08404.9459,W,0.6846,184.197,161117,,*3C
2017-11-15 19:32:53 1510792373.328570: $GPGSA,A,3,32,16,26,3,22,,,,,,,,3.4,2.4,2.9*09
2017-11-15 19:32:54 1510792374.667763: $GPGSV,3,1,11,32,35,109,24,14,54,094,18,16,24,190,17,26,55,172,20*7F
2017-11-15 19:32:54 1510792374.667933: $GPGSV,3,2,11,29,11,070,01,31,66,027,05,03,40,297,18,25,16,039,00*7F
2017-11-15 19:32:54 1510792374.667994: $GPGSV,3,3,11,23,12,301,00,01,05,252,00,22,50,268,22*41
2017-11-15 19:32:54 1510792374.781020: $GPZDA,003253.00,16,11,2017,00,00*62
2017-11-15 19:32:54 1510792374.781173: $GPGGA,003253,3946.9557,N,08404.9460,W,1,06,2.00,285.50,M,-33.324,M,,*74
2017-11-15 19:32:54 1510792374.781234: $GPRMC,003253,A,3946.9557,N,08404.9460,W,0.3423,184.197,161117,,*38
2017-11-15 19:32:54 1510792374.781291: $GPGSA,A,3,32,14,16,26,3,22,,,,,,,3.4,2.0,2.9*08
2017-11-15 19:32:55 1510792375.345688: $GPZDA,003254.00,16,11,2017,00,00*65
2017-11-15 19:32:55 1510792375.351347: $GPGGA,003254,3946.9561,N,08404.9459,W,1,06,2.00,284.74,M,-33.324,M,,*7B
2017-11-15 19:32:55 1510792375.351462: $GPRMC,003254,A,3946.9561,N,08404.9459,W,0.8054,68.645,161117,,*04
2017-11-15 19:32:55 1510792375.351521: $GPGSA,A,3,32,14,16,26,3,22,,,,,,,3.4,2.0,2.9*08
2017-11-15 19:32:56 1510792376.346043: $GPZDA,003255.00,16,11,2017,00,00*64
2017-11-15 19:32:56 1510792376.346215: $GPGGA,003255,3946.9560,N,08404.9452,W,1,06,2.00,284.82,M,-33.324,M,,*79
2017-11-15 19:32:56 1510792376.346276: $GPRMC,003255,A,3946.9560,N,08404.9452,W,0.7267,93.794,161117,,*0B
2017-11-15 19:32:56 1510792376.346333: $GPGSA,A,3,32,14,16,26,3,22,,,,,,,3.4,2.0,2.9*08
2017-11-15 19:32:57 1510792377.681816: $GPGSV,3,1,11,32,35,109,24,14,54,094,18,16,24,190,16,26,55,172,19*74
2017-11-15 19:32:57 1510792377.681987: $GPGSV,3,2,11,29,11,070,10,31,66,027,15,03,40,297,18,25,16,039,00*7E
2017-11-15 19:32:57 1510792377.682112: $GPGSV,3,3,11,23,12,301,00,01,05,252,00,22,50,268,22*41
2017-11-15 19:32:57 1510792377.795544: $GPZDA,003256.00,16,11,2017,00,00*67
2017-11-15 19:32:57 1510792377.795715: $GPGGA,003256,3946.9560,N,08404.9452,W,1,07,1.40,284.82,M,-33.324,M,,*7C
2017-11-15 19:32:57 1510792377.795775: $GPRMC,003256,A,3946.9560,N,08404.9452,W,0.5912,129.173,161117,,*3C
2017-11-15 19:32:57 1510792377.795831: $GPGSA,A,3,32,14,16,26,31,3,22,,,,,,3.4,1.4,2.9*0D
2017-11-15 19:32:58 1510792378.329842: $GPZDA,003257.00,16,11,2017,00,00*66
2017-11-15 19:32:58 1510792378.330010: $GPGGA,003257,3946.9557,N,08404.9453,W,1,07,1.40,285.58,M,-33.324,M,,*7E
2017-11-15 19:32:58 1510792378.330072: $GPRMC,003257,A,3946.9557,N,08404.9453,W,0.3423,184.197,161117,,*3C
2017-11-15 19:32:58 1510792378.330129: $GPGSA,A,3,32,14,16,26,31,3,22,,,,,,3.4,1.4,2.9*0D
2017-11-15 19:32:59 1510792379.345990: $GPZDA,003258.00,16,11,2017,00,00*69
2017-11-15 19:32:59 1510792379.346150: $GPGGA,003258,3946.9557,N,08404.9453,W,1,07,1.40,285.58,M,-33.324,M,,*71
2017-11-15 19:32:59 1510792379.346211: $GPRMC,003258,A,3946.9557,N,08404.9453,W,0.0000,0.000,161117,,*37
2017-11-15 19:32:59 1510792379.346267: $GPGSA,A,3,32,14,16,26,31,3,22,,,,,,3.4,1.4,2.9*0D
