2017-12-14 12:13:32 1513271612.106834: {"class":"VERSION","release":"3.16","rev":"3.16-4","proto_major":3,"proto_minor":11}
2017-12-14 12:13:32 1513271612.107180: {"class":"DEVICES","devices":[{"class":"DEVICE","path":"/dev/ttyUSB0","driver":"SiRF","subtype":"9\u0006GSD4e_4.1.2-P1_RPATCH.05-F-GPS-4R-1510281 11/03/2015 307","activated":"2017-12-14T17:13:31.848Z","flags":1,"native":1,"bps":4800,"parity":"N","stopbits":1,"cycle":1.00}]}
2017-12-14 12:13:32 1513271612.107299: {"class":"WATCH","enable":true,"json":false,"nmea":true,"raw":0,"scaled":false,"timing":false,"split24":false,"pps":false}
2017-12-14 12:13:32 1513271612.225983: $GPZDA,171333.00,14,12,2017,00,00*60
2017-12-14 12:13:32 1513271612.226135: $GPGGA,171333,3946.9560,N,08404.9480,W,1,07,1.40,384.95,M,-33.324,M,,*72
2017-12-14 12:13:32 1513271612.226199: $GPRMC,171333,A,3946.9560,N,08404.9480,W,0.3155,309.994,141217,,*38
2017-12-14 12:13:32 1513271612.226259: $GPGSA,A,3,10,15,20,24,32,21,27,,,,,,6.6,1.4,6.2*35
2017-12-14 12:13:33 1513271613.561441: $GPGSV,3,1,12,10,40,300,22,15,39,052,19,18,70,333,00,20,35,094,15*7F
2017-12-14 12:13:33 1513271613.561617: $GPGSV,3,2,12,24,50,114,30,32,19,237,19,21,65,189,22,27,19,291,17*79
2017-12-14 12:13:33 1513271613.561682: $GPGSV,3,3,12,13,09,048,00,08,05,324,00,14,02,231,00,120,07,103,00*44
2017-12-14 12:13:33 1513271613.674951: $GPZDA,171334.00,14,12,2017,00,00*67
2017-12-14 12:13:33 1513271613.675110: $GPGGA,171334,3946.9556,N,08404.9481,W,1,07,1.40,385.71,M,-33.324,M,,*7A
2017-12-14 12:13:33 1513271613.675175: $GPRMC,171334,A,3946.9556,N,08404.9481,W,0.0000,0.000,141217,,*37
2017-12-14 12:13:33 1513271613.675235: $GPGSA,A,3,10,15,20,24,32,21,27,,,,,,6.6,1.4,6.2*35
2017-12-14 12:13:34 1513271614.210418: $GPZDA,171335.00,14,12,2017,00,00*66
2017-12-14 12:13:34 1513271614.210580: $GPGGA,171335,3946.9561,N,08404.9481,W,1,07,1.40,386.35,M,-33.324,M,,*7C
2017-12-14 12:13:34 1513271614.210645: $GPRMC,171335,A,3946.9561,N,08404.9481,W,0.6846,4.197,141217,,*35
2017-12-14 12:13:34 1513271614.210706: $GPGSA,A,3,10,15,20,24,32,21,27,,,,,,6.6,1.4,6.2*35
2017-12-14 12:13:35 1513271615.228418: $GPZDA,171336.00,14,12,2017,00,00*65
2017-12-14 12:13:35 1513271615.228585: $GPGGA,171336,3946.9561,N,08404.9481,W,1,07,1.40,386.35,M,-33.324,M,,*7F
2017-12-14 12:13:35 1513271615.228652: $GPRMC,171336,A,3946.9561,N,08404.9481,W,0.1867,0.000,141217,,*39
2017-12-14 12:13:35 1513271615.228713: $GPGSA,A,3,10,15,20,24,32,21,27,,,,,,6.6,1.4,6.2*35
2017-12-14 12:13:36 1513271616.563812: $GPGSV,3,1,12,10,40,300,22,15,39,052,18,18,70,333,10,20,35,094,15*7F
2017-12-14 12:13:36 1513271616.563989: $GPGSV,3,2,12,24,50,114,31,32,19,237,19,21,65,189,22,27,19,291,17*78
2017-12-14 12:13:36 1513271616.564055: $GPGSV,3,3,12,13,09,048,00,08,05,324,00,14,02,231,00,120,07,103,00*44
2017-12-14 12:13:36 1513271616.677152: $GPZDA,171337.00,14,12,2017,00,00*64
2017-12-14 12:13:36 1513271616.677300: $GPGGA,171337,3946.9561,N,08404.9481,W,1,07,1.40,386.35,M,-33.324,M,,*7E
2017-12-14 12:13:36 1513271616.677365: $GPRMC,171337,A,3946.9561,N,08404.9481,W,0.3423,184.197,141217,,*34
2017-12-14 12:13:36 1513271616.677425: $GPGSA,A,3,10,15,20,24,32,21,27,,,,,,6.6,1.4,6.2*35
2017-12-14 12:13:37 1513271617.236215: $GPZDA,171338.00,14,12,2017,00,00*6B
2017-12-14 12:13:37 1513271617.236414: $GPGGA,171338,3946.9561,N,08404.9481,W,1,07,1.20,386.35,M,-33.324,M,,*77
2017-12-14 12:13:37 1513271617.236480: $GPRMC,171338,A,3946.9561,N,08404.9481,W,0.3423,184.197,141217,,*3B
2017-12-14 12:13:37 1513271617.236540: $GPGSA,A,3,10,15,20,24,32,21,27,,,,,,6.6,1.2,6.2*33
2017-12-14 12:13:38 1513271618.214423: $GPZDA,171339.00,14,12,2017,00,00*6A
2017-12-14 12:13:38 1513271618.214580: $GPGGA,171339,3946.9561,N,08404.9481,W,1,07,1.20,386.35,M,-33.324,M,,*76
2017-12-14 12:13:38 1513271618.214646: $GPRMC,171339,A,3946.9561,N,08404.9481,W,0.3423,184.197,141217,,*3A
2017-12-14 12:13:38 1513271618.214707: $GPGSA,A,3,10,15,20,24,32,21,27,,,,,,6.6,1.2,6.2*33
2017-12-14 12:13:39 1513271619.549433: $GPGSV,3,1,12,10,40,300,21,15,39,052,17,18,70,333,17,20,35,094,17*76
2017-12-14 12:13:39 1513271619.549592: $GPGSV,3,2,12,24,50,114,31,32,19,237,19,21,65,189,22,27,19,291,18*77
2017-12-14 12:13:39 1513271619.549709: $GPGSV,3,3,12,13,09,048,00,08,05,324,00,14,02,231,00,120,07,103,00*44
2017-12-14 12:13:39 1513271619.662909: $GPZDA,171340.00,14,12,2017,00,00*64
2017-12-14 12:13:39 1513271619.663081: $GPGGA,171340,3946.9557,N,08404.9481,W,1,08,1.20,387.11,M,-33.324,M,,*75
2017-12-14 12:13:39 1513271619.663146: $GPRMC,171340,A,3946.9557,N,08404.9481,W,0.5287,182.716,141217,,*36
2017-12-14 12:13:39 1513271619.663207: $GPGSA,A,3,10,15,18,20,24,32,21,27,,,,,6.6,1.2,6.2*3A
2017-12-14 12:13:40 1513271620.213024: $GPZDA,171341.00,14,12,2017,00,00*65
2017-12-14 12:13:40 1513271620.213204: $GPGGA,171341,3946.9557,N,08404.9481,W,1,08,1.20,387.11,M,-33.324,M,,*74
2017-12-14 12:13:40 1513271620.213270: $GPRMC,171341,A,3946.9557,N,08404.9481,W,1.0018,230.691,141217,,*33
2017-12-14 12:13:40 1513271620.213331: $GPGSA,A,3,10,15,18,20,24,32,21,27,,,,,6.6,1.2,6.2*3A
2017-12-14 12:13:41 1513271621.213132: $GPZDA,171342.00,14,12,2017,00,00*66
2017-12-14 12:13:41 1513271621.213304: $GPGGA,171342,3946.9553,N,08404.9481,W,1,08,1.20,386.47,M,-33.324,M,,*71
2017-12-14 12:13:41 1513271621.213369: $GPRMC,171342,A,3946.9553,N,08404.9481,W,0.5951,238.684,141217,,*38
2017-12-14 12:13:41 1513271621.213429: $GPGSA,A,3,10,15,18,20,24,32,21,27,,,,,6.6,1.2,6.2*3A
2017-12-14 12:13:42 1513271622.548060: $GPGSV,3,1,12,10,40,300,21,15,39,052,17,18,70,333,17,20,35,094,18*79
2017-12-14 12:13:42 1513271622.548272: $GPGSV,3,2,12,24,50,114,32,32,19,237,20,21,65,189,21,27,19,291,18*7D
2017-12-14 12:13:42 1513271622.548342: $GPGSV,3,3,12,13,09,048,00,08,05,324,00,14,02,231,00,120,07,103,00*44
2017-12-14 12:13:42 1513271622.662013: $GPZDA,171343.00,14,12,2017,00,00*67
2017-12-14 12:13:42 1513271622.662224: $GPGGA,171343,3946.9553,N,08404.9481,W,1,08,1.20,386.47,M,-33.324,M,,*70
2017-12-14 12:13:42 1513271622.662296: $GPRMC,171343,A,3946.9553,N,08404.9481,W,0.0000,0.000,141217,,*32
2017-12-14 12:13:42 1513271622.662359: $GPGSA,A,3,10,15,18,20,24,32,21,27,,,,,6.6,1.2,6.2*3A
2017-12-14 12:13:43 1513271623.212394: $GPZDA,171344.00,14,12,2017,00,00*60
2017-12-14 12:13:43 1513271623.212550: $GPGGA,171344,3946.9557,N,08404.9481,W,1,08,1.20,387.11,M,-33.324,M,,*71
2017-12-14 12:13:43 1513271623.212618: $GPRMC,171344,A,3946.9557,N,08404.9481,W,0.5287,2.716,141217,,*3B
2017-12-14 12:13:43 1513271623.212680: $GPGSA,A,3,10,15,18,20,24,32,21,27,,,,,6.6,1.2,6.2*3A
2017-12-14 12:13:44 1513271624.212462: $GPZDA,171345.00,14,12,2017,00,00*61
2017-12-14 12:13:44 1513271624.212628: $GPGGA,171345,3946.9561,N,08404.9481,W,1,08,1.20,386.35,M,-33.324,M,,*72
2017-12-14 12:13:44 1513271624.212696: $GPRMC,171345,A,3946.9561,N,08404.9481,W,1.2361,14.852,141217,,*08
2017-12-14 12:13:44 1513271624.212760: $GPGSA,A,3,10,15,18,20,24,32,21,27,,,,,6.6,1.2,6.2*3A
2017-12-14 12:13:45 1513271625.549963: $GPGSV,3,1,12,10,40,300,21,15,39,052,17,18,70,333,17,20,35,094,18*79
2017-12-14 12:13:45 1513271625.550144: $GPGSV,3,2,12,24,50,114,32,32,19,237,20,21,65,189,21,27,19,291,18*7D
2017-12-14 12:13:45 1513271625.550212: $GPGSV,3,3,12,13,09,048,00,08,05,324,00,14,02,231,00,120,07,103,00*44
2017-12-14 12:13:45 1513271625.662157: $GPZDA,171346.00,14,12,2017,00,00*62
2017-12-14 12:13:45 1513271625.662367: $GPGGA,171346,3946.9565,N,08404.9481,W,1,08,1.20,386.99,M,-33.324,M,,*73
2017-12-14 12:13:45 1513271625.662437: $GPRMC,171346,A,3946.9565,N,08404.9481,W,1.2132,3.552,141217,,*30
2017-12-14 12:13:45 1513271625.662499: $GPGSA,A,3,10,15,18,20,24,32,21,27,,,,,6.6,1.2,6.2*3A
2017-12-14 12:13:46 1513271626.213502: $GPZDA,171347.00,14,12,2017,00,00*63
2017-12-14 12:13:46 1513271626.213673: $GPGGA,171347,3946.9565,N,08404.9481,W,1,08,1.20,386.99,M,-33.324,M,,*72
2017-12-14 12:13:46 1513271626.213741: $GPRMC,171347,A,3946.9565,N,08404.9481,W,0.7278,23.636,141217,,*0B
2017-12-14 12:13:46 1513271626.213825: $GPGSA,A,3,10,15,18,20,24,32,21,27,,,,,6.6,1.2,6.2*3A
2017-12-14 12:13:47 1513271627.212405: $GPZDA,171348.00,14,12,2017,00,00*6C
2017-12-14 12:13:47 1513271627.212575: $GPGGA,171348,3946.9564,N,08404.9474,W,1,08,1.20,387.07,M,-33.324,M,,*70
2017-12-14 12:13:47 1513271627.212723: $GPRMC,171348,A,3946.9564,N,08404.9474,W,0.5951,58.684,141217,,*08
2017-12-14 12:13:47 1513271627.212787: $GPGSA,A,3,10,15,18,20,24,32,21,27,,,,,6.6,1.2,6.2*3A
2017-12-14 12:13:48 1513271628.549414: $GPGSV,3,1,12,10,40,300,21,15,39,052,16,18,70,333,17,20,35,094,18*78
2017-12-14 12:13:48 1513271628.549620: $GPGSV,3,2,12,24,50,114,32,32,19,237,20,21,65,189,21,27,19,291,18*7D
2017-12-14 12:13:48 1513271628.549686: $GPGSV,3,3,12,13,09,048,00,08,05,324,00,14,02,231,00,138,38,213,00*43
2017-12-14 12:13:48 1513271628.663312: $GPZDA,171349.00,14,12,2017,00,00*6D
2017-12-14 12:13:48 1513271628.663445: $GPGGA,171349,3946.9564,N,08404.9474,W,1,08,1.20,387.07,M,-33.324,M,,*71
2017-12-14 12:13:48 1513271628.663511: $GPRMC,171349,A,3946.9564,N,08404.9474,W,0.2422,93.794,141217,,*00
2017-12-14 12:13:48 1513271628.663571: $GPGSA,A,3,10,15,18,20,24,32,21,27,,,,,6.6,1.2,6.2*3A
2017-12-14 12:13:49 1513271629.212852: $GPZDA,171350.00,14,12,2017,00,00*65
2017-12-14 12:13:49 1513271629.213039: $GPGGA,171350,3946.9568,N,08404.9473,W,1,08,1.20,386.30,M,-33.324,M,,*77
2017-12-14 12:13:49 1513271629.213129: $GPRMC,171350,A,3946.9568,N,08404.9473,W,0.4207,39.347,141217,,*0E
2017-12-14 12:13:49 1513271629.213207: $GPGSA,A,3,10,15,18,20,24,32,21,27,,,,,6.6,1.2,6.2*3A
2017-12-14 12:13:50 1513271630.212992: $GPZDA,171351.00,14,12,2017,00,00*64
2017-12-14 12:13:50 1513271630.213215: $GPGGA,171351,3946.9568,N,08404.9473,W,1,08,1.20,386.30,M,-33.324,M,,*76
2017-12-14 12:13:50 1513271630.213283: $GPRMC,171351,A,3946.9568,N,08404.9473,W,0.4844,93.794,141217,,*08
2017-12-14 12:13:50 1513271630.213361: $GPGSA,A,3,10,15,18,20,24,32,21,27,,,,,6.6,1.2,6.2*3A
2017-12-14 12:13:51 1513271631.549161: $GPGSV,3,1,12,10,40,300,21,15,39,052,14,18,70,333,13,20,35,094,18*7E
2017-12-14 12:13:51 1513271631.549369: $GPGSV,3,2,12,24,50,114,32,32,19,237,21,21,65,189,21,27,19,291,18*7C
2017-12-14 12:13:51 1513271631.549449: $GPGSV,3,3,12,13,09,048,00,08,05,324,00,14,02,231,00,138,38,213,00*43
2017-12-14 12:13:51 1513271631.662656: $GPZDA,171352.00,14,12,2017,00,00*67
2017-12-14 12:13:51 1513271631.662788: $GPGGA,171352,3946.9560,N,08404.9474,W,1,08,1.20,386.43,M,-33.324,M,,*7E
2017-12-14 12:13:51 1513271631.662853: $GPRMC,171352,A,3946.9560,N,08404.9474,W,1.0002,154.331,141217,,*3A
2017-12-14 12:13:51 1513271631.662914: $GPGSA,A,3,10,15,18,20,24,32,21,27,,,,,6.6,1.2,6.2*3A
