2017-12-01 12:31:19 1512149479.537655: {"class":"VERSION","release":"3.16","rev":"3.16-4","proto_major":3,"proto_minor":11}
2017-12-01 12:31:19 1512149479.538027: {"class":"DEVICES","devices":[{"class":"DEVICE","path":"/dev/ttyUSB0","driver":"SiRF","subtype":"9\u0006GSD4e_4.1.2-P1_RPATCH.05-F-GPS-4R-1510281 11/03/2015 307","activated":"2017-12-01T17:31:19.513Z","flags":1,"native":1,"bps":4800,"parity":"N","stopbits":1,"cycle":1.00}]}
2017-12-01 12:31:19 1512149479.538141: {"class":"WATCH","enable":true,"json":false,"nmea":true,"raw":0,"scaled":false,"timing":false,"split24":false,"pps":false}
2017-12-01 12:31:20 1512149480.689667: $GPGSV,3,1,11,10,27,288,41,13,24,045,42,15,55,049,45,18,58,307,46*71
2017-12-01 12:31:20 1512149480.689850: $GPGSV,3,2,11,20,47,078,46,21,79,235,43,24,38,133,47,27,18,307,32*7C
2017-12-01 12:31:20 1512149480.689919: $GPGSV,3,3,11,29,05,187,22,32,06,228,24,138,38,213,46*73
2017-12-01 12:31:20 1512149480.803093: $GPZDA,173121.00,01,12,2017,00,00*67
2017-12-01 12:31:20 1512149480.803263: $GPGGA,173121,3946.9563,N,08404.9828,W,2,11,0.80,302.90,M,-33.324,M,,*7E
2017-12-01 12:31:20 1512149480.803329: $GPRMC,173121,A,3946.9563,N,08404.9828,W,0.0000,0.000,011217,,*3E
2017-12-01 12:31:20 1512149480.803389: $GPGSA,A,3,10,13,15,18,20,21,24,27,29,32,138,,2.0,0.8,1.5*00
2017-12-01 12:31:21 1512149481.356540: $GPZDA,173122.00,01,12,2017,00,00*64
2017-12-01 12:31:21 1512149481.356699: $GPGGA,173122,3946.9563,N,08404.9828,W,2,11,0.80,302.90,M,-33.324,M,,*7D
2017-12-01 12:31:21 1512149481.356766: $GPRMC,173122,A,3946.9563,N,08404.9828,W,0.0000,0.000,011217,,*3D
2017-12-01 12:31:21 1512149481.356829: $GPGSA,A,3,10,13,15,18,20,21,24,27,29,32,138,,2.0,0.8,1.5*00
2017-12-01 12:31:22 1512149482.356181: $GPZDA,173123.00,01,12,2017,00,00*65
2017-12-01 12:31:22 1512149482.356354: $GPGGA,173123,3946.9563,N,08404.9828,W,2,11,0.80,302.90,M,-33.324,M,,*7C
2017-12-01 12:31:22 1512149482.356421: $GPRMC,173123,A,3946.9563,N,08404.9828,W,0.0000,0.000,011217,,*3C
2017-12-01 12:31:22 1512149482.356483: $GPGSA,A,3,10,13,15,18,20,21,24,27,29,32,138,,2.0,0.8,1.5*00
2017-12-01 12:31:23 1512149483.691921: $GPGSV,3,1,11,10,27,288,42,13,24,045,42,15,55,049,45,18,58,307,46*72
2017-12-01 12:31:23 1512149483.692220: $GPGSV,3,2,11,20,47,078,46,21,79,235,43,24,38,133,47,27,18,307,27*78
2017-12-01 12:31:23 1512149483.692360: $GPGSV,3,3,11,29,05,187,22,32,06,228,25,138,38,213,46*72
2017-12-01 12:31:23 1512149483.805282: $GPZDA,173124.00,01,12,2017,00,00*62
2017-12-01 12:31:23 1512149483.805449: $GPGGA,173124,3946.9563,N,08404.9828,W,2,11,0.80,302.90,M,-33.324,M,,*7B
2017-12-01 12:31:23 1512149483.805516: $GPRMC,173124,A,3946.9563,N,08404.9828,W,0.0000,0.000,011217,,*3B
2017-12-01 12:31:23 1512149483.805577: $GPGSA,A,3,10,13,15,18,20,21,24,27,29,32,138,,2.0,0.8,1.5*00
2017-12-01 12:31:24 1512149484.430752: $GPZDA,173125.00,01,12,2017,00,00*63
2017-12-01 12:31:24 1512149484.430935: $GPGGA,173125,3946.9567,N,08404.9828,W,2,11,0.80,303.54,M,-33.324,M,,*77
2017-12-01 12:31:24 1512149484.431006: $GPRMC,173125,A,3946.9567,N,08404.9828,W,0.0000,0.000,011217,,*3E
2017-12-01 12:31:24 1512149484.431067: $GPGSA,A,3,10,13,15,18,20,21,24,27,29,32,138,,2.0,0.8,1.5*00
2017-12-01 12:31:25 1512149485.358337: $GPZDA,173126.00,01,12,2017,00,00*60
2017-12-01 12:31:25 1512149485.358504: $GPGGA,173126,3946.9567,N,08404.9828,W,2,11,0.80,303.54,M,-33.324,M,,*74
2017-12-01 12:31:25 1512149485.358571: $GPRMC,173126,A,3946.9567,N,08404.9828,W,0.0000,0.000,011217,,*3D
2017-12-01 12:31:25 1512149485.358656: $GPGSA,A,3,10,13,15,18,20,21,24,27,29,32,138,,2.0,0.8,1.5*00
2017-12-01 12:31:26 1512149486.692398: $GPGSV,3,1,11,10,27,288,42,13,24,045,42,15,55,049,45,18,58,307,46*72
2017-12-01 12:31:26 1512149486.692578: $GPGSV,3,2,11,20,47,078,46,21,79,235,43,24,38,133,47,27,18,307,30*7E
2017-12-01 12:31:26 1512149486.692669: $GPGSV,3,3,11,29,05,187,22,32,06,228,26,138,38,213,46*71
2017-12-01 12:31:26 1512149486.806089: $GPZDA,173127.00,01,12,2017,00,00*61
2017-12-01 12:31:26 1512149486.806235: $GPGGA,173127,3946.9567,N,08404.9828,W,2,11,0.80,303.54,M,-33.324,M,,*75
2017-12-01 12:31:26 1512149486.806353: $GPRMC,173127,A,3946.9567,N,08404.9828,W,0.0000,0.000,011217,,*3C
2017-12-01 12:31:26 1512149486.806415: $GPGSA,A,3,10,13,15,18,20,21,24,27,29,32,138,,2.0,0.8,1.5*00
2017-12-01 12:31:27 1512149487.372643: $GPZDA,173128.00,01,12,2017,00,00*6E
2017-12-01 12:31:27 1512149487.372839: $GPGGA,173128,3946.9567,N,08404.9828,W,2,11,0.80,303.54,M,-33.324,M,,*7A
2017-12-01 12:31:27 1512149487.373236: $GPRMC,173128,A,3946.9567,N,08404.9828,W,0.0000,0.000,011217,,*33
2017-12-01 12:31:27 1512149487.373327: $GPGSA,A,3,10,13,15,18,20,21,24,27,29,32,138,,2.0,0.8,1.5*00
2017-12-01 12:31:28 1512149488.374382: $GPZDA,173129.00,01,12,2017,00,00*6F
2017-12-01 12:31:28 1512149488.374535: $GPGGA,173129,3946.9567,N,08404.9828,W,2,11,0.80,303.54,M,-33.324,M,,*7B
2017-12-01 12:31:28 1512149488.374622: $GPRMC,173129,A,3946.9567,N,08404.9828,W,0.0000,0.000,011217,,*32
2017-12-01 12:31:28 1512149488.374685: $GPGSA,A,3,10,13,15,18,20,21,24,27,29,32,138,,2.0,0.8,1.5*00
