2018-01-11 20:21:35 1515720095.235772: {"class":"VERSION","release":"3.16","rev":"3.16-4","proto_major":3,"proto_minor":11}
2018-01-11 20:21:35 1515720095.236180: {"class":"DEVICES","devices":[{"class":"DEVICE","path":"/dev/ttyUSB0","driver":"SiRF","subtype":"9\u0006GSD4e_4.1.2-P1_RPATCH.05-F-GPS-4R-1510281 11/03/2015 307","activated":"2018-01-12T01:21:35.212Z","flags":1,"native":1,"bps":4800,"parity":"N","stopbits":1,"cycle":1.00}]}
2018-01-11 20:21:35 1515720095.236309: {"class":"WATCH","enable":true,"json":false,"nmea":true,"raw":0,"scaled":false,"timing":false,"split24":false,"pps":false}
2018-01-11 20:21:35 1515720095.390800: $GPZDA,012136.00,12,01,2018,00,00*68
2018-01-11 20:21:35 1515720095.390969: $GPGGA,012136,3946.9598,N,08404.9835,W,2,10,0.80,295.10,M,-33.324,M,,*70
2018-01-11 20:21:35 1515720095.391034: $GPRMC,012136,A,3946.9598,N,08404.9835,W,0.0000,0.000,120118,,*39
2018-01-11 20:21:35 1515720095.391095: $GPGSA,A,3,7,8,9,11,16,23,27,28,30,138,,,4.0,0.8,3.5*3E
2018-01-11 20:21:36 1515720096.391442: $GPZDA,012137.00,12,01,2018,00,00*69
2018-01-11 20:21:36 1515720096.391589: $GPGGA,012137,3946.9598,N,08404.9835,W,2,10,0.80,295.10,M,-33.324,M,,*71
2018-01-11 20:21:36 1515720096.391653: $GPRMC,012137,A,3946.9598,N,08404.9835,W,0.0000,0.000,120118,,*38
2018-01-11 20:21:36 1515720096.391713: $GPGSA,A,3,7,8,9,11,16,23,27,28,30,138,,,4.0,0.8,3.5*3E
2018-01-11 20:21:37 1515720097.725640: $GPGSV,3,1,11,07,60,316,44,08,75,112,44,09,44,223,42,11,24,166,45*7C
2018-01-11 20:21:37 1515720097.725808: $GPGSV,3,2,11,16,19,063,37,23,24,189,49,27,43,049,51,28,17,262,29*76
2018-01-11 20:21:37 1515720097.725874: $GPGSV,3,3,11,30,33,307,31,01,02,162,04,138,38,213,45*7E
2018-01-11 20:21:37 1515720097.839315: $GPZDA,012138.00,12,01,2018,00,00*66
2018-01-11 20:21:37 1515720097.839433: $GPGGA,012138,3946.9598,N,08404.9835,W,2,10,0.80,295.10,M,-33.324,M,,*7E
2018-01-11 20:21:37 1515720097.839496: $GPRMC,012138,A,3946.9598,N,08404.9835,W,0.0000,0.000,120118,,*37
2018-01-11 20:21:37 1515720097.839555: $GPGSA,A,3,7,8,9,11,16,23,27,28,30,138,,,4.0,0.8,3.5*3E
2018-01-11 20:21:38 1515720098.387669: $GPZDA,012139.00,12,01,2018,00,00*67
2018-01-11 20:21:38 1515720098.387806: $GPGGA,012139,3946.9598,N,08404.9835,W,2,10,0.80,295.10,M,-33.324,M,,*7F
2018-01-11 20:21:38 1515720098.387869: $GPRMC,012139,A,3946.9598,N,08404.9835,W,0.0000,0.000,120118,,*36
2018-01-11 20:21:38 1515720098.387929: $GPGSA,A,3,7,8,9,11,16,23,27,28,30,138,,,4.0,0.8,3.5*3E
2018-01-11 20:21:39 1515720099.389837: $GPZDA,012140.00,12,01,2018,00,00*69
2018-01-11 20:21:39 1515720099.393492: $GPGGA,012140,3946.9598,N,08404.9835,W,2,10,0.80,295.10,M,-33.324,M,,*71
2018-01-11 20:21:39 1515720099.393588: $GPRMC,012140,A,3946.9598,N,08404.9835,W,0.0000,0.000,120118,,*38
2018-01-11 20:21:39 1515720099.393650: $GPGSA,A,3,7,8,9,11,16,23,27,28,30,138,,,4.0,0.8,3.5*3E
2018-01-11 20:21:40 1515720100.725236: $GPGSV,3,1,11,07,60,316,44,08,75,112,44,09,44,223,41,11,24,166,45*7F
2018-01-11 20:21:40 1515720100.725393: $GPGSV,3,2,11,16,19,063,37,23,24,189,49,27,43,049,51,28,17,262,31*7F
2018-01-11 20:21:40 1515720100.725458: $GPGSV,3,3,11,30,33,307,33,01,02,162,16,138,38,213,44*7E
2018-01-11 20:21:40 1515720100.838854: $GPZDA,012141.00,12,01,2018,00,00*68
2018-01-11 20:21:40 1515720100.838985: $GPGGA,012141,3946.9598,N,08404.9835,W,2,11,0.80,295.10,M,-33.324,M,,*71
2018-01-11 20:21:40 1515720100.839116: $GPRMC,012141,A,3946.9598,N,08404.9835,W,0.0000,0.000,120118,,*39
2018-01-11 20:21:40 1515720100.839178: $GPGSA,A,3,7,8,9,11,16,23,27,28,30,1,138,,4.0,0.8,3.5*0F
2018-01-11 20:21:41 1515720101.465524: $GPZDA,012142.00,12,01,2018,00,00*6B
2018-01-11 20:21:41 1515720101.465684: $GPGGA,012142,3946.9598,N,08404.9835,W,2,11,0.80,295.10,M,-33.324,M,,*72
2018-01-11 20:21:41 1515720101.465749: $GPRMC,012142,A,3946.9598,N,08404.9835,W,0.0000,0.000,120118,,*3A
2018-01-11 20:21:41 1515720101.465809: $GPGSA,A,3,7,8,9,11,16,23,27,28,30,1,138,,4.0,0.8,3.5*0F
2018-01-11 20:21:42 1515720102.391405: $GPZDA,012143.00,12,01,2018,00,00*6A
2018-01-11 20:21:42 1515720102.391567: $GPGGA,012143,3946.9598,N,08404.9835,W,2,11,0.80,295.10,M,-33.324,M,,*73
2018-01-11 20:21:42 1515720102.391685: $GPRMC,012143,A,3946.9598,N,08404.9835,W,0.0000,0.000,120118,,*3B
2018-01-11 20:21:42 1515720102.391748: $GPGSA,A,3,7,8,9,11,16,23,27,28,30,1,138,,4.0,0.8,3.5*0F
2018-01-11 20:21:43 1515720103.725626: $GPGSV,3,1,11,07,60,316,44,08,75,112,44,09,44,223,40,11,24,166,45*7E
2018-01-11 20:21:43 1515720103.725787: $GPGSV,3,2,11,16,19,063,37,23,24,189,49,27,43,049,51,28,17,262,31*7F
2018-01-11 20:21:43 1515720103.725853: $GPGSV,3,3,11,30,33,307,33,01,02,162,16,138,38,213,45*7F
2018-01-11 20:21:43 1515720103.838067: $GPZDA,012144.00,12,01,2018,00,00*6D
2018-01-11 20:21:43 1515720103.838217: $GPGGA,012144,3946.9598,N,08404.9835,W,2,11,0.80,295.10,M,-33.324,M,,*74
2018-01-11 20:21:43 1515720103.838284: $GPRMC,012144,A,3946.9598,N,08404.9835,W,0.0000,0.000,120118,,*3C
2018-01-11 20:21:43 1515720103.838345: $GPGSA,A,3,7,8,9,11,16,23,27,28,30,1,138,,4.0,0.8,3.5*0F
2018-01-11 20:21:44 1515720104.390221: $GPZDA,012145.00,12,01,2018,00,00*6C
2018-01-11 20:21:44 1515720104.390400: $GPGGA,012145,3946.9598,N,08404.9835,W,2,11,0.80,295.10,M,-33.324,M,,*75
2018-01-11 20:21:44 1515720104.390467: $GPRMC,012145,A,3946.9598,N,08404.9835,W,0.0000,0.000,120118,,*3D
2018-01-11 20:21:44 1515720104.390528: $GPGSA,A,3,7,8,9,11,16,23,27,28,30,1,138,,4.0,0.8,3.5*0F
2018-01-11 20:21:45 1515720105.389834: $GPZDA,012146.00,12,01,2018,00,00*6F
2018-01-11 20:21:45 1515720105.390007: $GPGGA,012146,3946.9598,N,08404.9835,W,2,11,0.80,295.10,M,-33.324,M,,*76
2018-01-11 20:21:45 1515720105.390072: $GPRMC,012146,A,3946.9598,N,08404.9835,W,0.0000,0.000,120118,,*3E
2018-01-11 20:21:45 1515720105.390133: $GPGSA,A,3,7,8,9,11,16,23,27,28,30,1,138,,4.0,0.8,3.5*0F
2018-01-11 20:21:46 1515720106.725964: $GPGSV,3,1,11,07,60,316,44,08,75,112,45,09,44,223,41,11,24,166,45*7E
2018-01-11 20:21:46 1515720106.726118: $GPGSV,3,2,11,16,19,063,37,23,24,189,49,27,43,049,51,28,17,262,31*7F
2018-01-11 20:21:46 1515720106.726184: $GPGSV,3,3,11,30,33,307,33,01,02,162,04,138,38,213,45*7C
2018-01-11 20:21:46 1515720106.839628: $GPZDA,012147.00,12,01,2018,00,00*6E
2018-01-11 20:21:46 1515720106.839760: $GPGGA,012147,3946.9594,N,08404.9835,W,2,10,0.80,294.46,M,-33.324,M,,*78
2018-01-11 20:21:46 1515720106.839826: $GPRMC,012147,A,3946.9594,N,08404.9835,W,0.0000,0.000,120118,,*33
2018-01-11 20:21:46 1515720106.839887: $GPGSA,A,3,7,8,9,11,16,23,27,28,30,138,,,4.0,0.8,3.5*3E
2018-01-11 20:21:47 1515720107.391736: $GPZDA,012148.00,12,01,2018,00,00*61
2018-01-11 20:21:47 1515720107.391908: $GPGGA,012148,3946.9594,N,08404.9835,W,2,10,0.80,294.46,M,-33.324,M,,*77
2018-01-11 20:21:47 1515720107.391973: $GPRMC,012148,A,3946.9594,N,08404.9835,W,0.0000,0.000,120118,,*3C
2018-01-11 20:21:47 1515720107.392034: $GPGSA,A,3,7,8,9,11,16,23,27,28,30,138,,,4.0,0.8,3.5*3E
