2017-11-16 14:42:34 1510861354.445958: {"class":"VERSION","release":"3.17","rev":"3.17","proto_major":3,"proto_minor":12}
2017-11-16 14:42:34 1510861354.446554: {"class":"DEVICES","devices":[{"class":"DEVICE","path":"/dev/ttyUSB0","driver":"SiRF","subtype":"9\u0006GSD4e_4.1.2-P1_RPATCH.05-F-GPS-4R-1510281 11/03/2015 307","activated":"2017-11-16T19:42:34.417Z","flags":1,"native":1,"bps":4800,"parity":"N","stopbits":1,"cycle":1.00}]}
2017-11-16 14:42:34 1510861354.446708: {"class":"WATCH","enable":true,"json":false,"nmea":true,"raw":0,"scaled":false,"timing":false,"split24":false,"pps":false}
2017-11-16 14:42:34 1510861354.728000: $GPZDA,194233.00,16,11,2017,00,00*6B
2017-11-16 14:42:34 1510861354.728149: $GPGGA,194233,3946.9564,N,08404.9842,W,2,11,0.80,302.74,M,-33.324,M,,*76
2017-11-16 14:42:34 1510861354.728210: $GPRMC,194233,A,3946.9564,N,08404.9842,W,0.0000,0.000,161117,,*39
2017-11-16 14:42:34 1510861354.728265: $GPGSA,A,3,8,10,15,18,21,20,24,27,32,14,138,,1.6,0.8,1.3*37
2017-11-16 14:42:34 1510861354.728319: $GPGBS,194233,2.12,M,3.10,M,7.47,M*37
2017-11-16 14:42:35 1510861355.537695: $GPZDA,194234.00,16,11,2017,00,00*6C
2017-11-16 14:42:35 1510861355.537858: $GPGGA,194234,3946.9564,N,08404.9842,W,2,11,0.80,302.74,M,-33.324,M,,*71
2017-11-16 14:42:35 1510861355.537918: $GPRMC,194234,A,3946.9564,N,08404.9842,W,0.0000,0.000,161117,,*3E
2017-11-16 14:42:35 1510861355.537973: $GPGSA,A,3,8,10,15,18,21,20,24,27,32,14,138,,1.6,0.8,1.3*37
2017-11-16 14:42:35 1510861355.538026: $GPGBS,194234,2.12,M,3.10,M,7.47,M*30
2017-11-16 14:42:36 1510861356.868478: $GPGSV,3,1,11,08,08,310,29,10,52,312,50,15,26,057,51,18,77,021,44*7D
2017-11-16 14:42:36 1510861356.868697: $GPGSV,3,2,11,21,49,183,47,20,23,106,46,24,53,087,49,27,15,276,42*7F
2017-11-16 14:42:36 1510861356.868761: $GPGSV,3,3,11,32,31,247,48,14,15,240,42,138,38,213,44*77
2017-11-16 14:42:36 1510861356.981839: $GPZDA,194235.00,16,11,2017,00,00*6D
2017-11-16 14:42:36 1510861356.982005: $GPGGA,194235,3946.9564,N,08404.9842,W,2,11,0.80,302.74,M,-33.324,M,,*70
2017-11-16 14:42:36 1510861356.982066: $GPRMC,194235,A,3946.9564,N,08404.9842,W,0.0000,0.000,161117,,*3F
2017-11-16 14:42:36 1510861356.982122: $GPGSA,A,3,8,10,15,18,21,20,24,27,32,14,138,,1.6,0.8,1.3*37
2017-11-16 14:42:37 1510861357.497556: $GPZDA,194236.00,16,11,2017,00,00*6E
2017-11-16 14:42:37 1510861357.497720: $GPGGA,194236,3946.9564,N,08404.9842,W,2,11,0.80,302.74,M,-33.324,M,,*73
2017-11-16 14:42:37 1510861357.497780: $GPRMC,194236,A,3946.9564,N,08404.9842,W,0.0000,0.000,161117,,*3C
2017-11-16 14:42:37 1510861357.497836: $GPGSA,A,3,8,10,15,18,21,20,24,27,32,14,138,,1.6,0.8,1.3*37
2017-11-16 14:42:38 1510861358.532088: $GPZDA,194237.00,16,11,2017,00,00*6F
2017-11-16 14:42:38 1510861358.532253: $GPGGA,194237,3946.9564,N,08404.9842,W,2,11,0.80,302.74,M,-33.324,M,,*72
2017-11-16 14:42:38 1510861358.532314: $GPRMC,194237,A,3946.9564,N,08404.9842,W,0.0000,0.000,161117,,*3D
2017-11-16 14:42:38 1510861358.532370: $GPGSA,A,3,8,10,15,18,21,20,24,27,32,14,138,,1.6,0.8,1.3*37
2017-11-16 14:42:39 1510861359.873560: $GPGSV,3,1,11,08,08,310,27,10,52,312,50,15,26,057,51,18,77,021,44*73
2017-11-16 14:42:39 1510861359.873723: $GPGSV,3,2,11,21,49,183,47,20,23,106,46,24,53,087,49,27,15,276,42*7F
2017-11-16 14:42:39 1510861359.873783: $GPGSV,3,3,11,32,31,247,48,14,15,240,42,138,38,213,43*70
2017-11-16 14:42:39 1510861359.986854: $GPZDA,194238.00,16,11,2017,00,00*60
2017-11-16 14:42:39 1510861359.987019: $GPGGA,194238,3946.9564,N,08404.9842,W,2,11,0.80,302.74,M,-33.324,M,,*7D
2017-11-16 14:42:39 1510861359.987079: $GPRMC,194238,A,3946.9564,N,08404.9842,W,0.0000,0.000,161117,,*32
2017-11-16 14:42:39 1510861359.987136: $GPGSA,A,3,8,10,15,18,21,20,24,27,32,14,138,,1.6,0.8,1.3*37
2017-11-16 14:42:40 1510861360.537697: $GPZDA,194239.00,16,11,2017,00,00*61
2017-11-16 14:42:40 1510861360.537857: $GPGGA,194239,3946.9564,N,08404.9842,W,2,11,0.80,302.74,M,-33.324,M,,*7C
2017-11-16 14:42:40 1510861360.537917: $GPRMC,194239,A,3946.9564,N,08404.9842,W,0.0000,0.000,161117,,*33
2017-11-16 14:42:40 1510861360.537973: $GPGSA,A,3,8,10,15,18,21,20,24,27,32,14,138,,1.6,0.8,1.3*37
2017-11-16 14:42:41 1510861361.503583: $GPZDA,194240.00,16,11,2017,00,00*6F
2017-11-16 14:42:41 1510861361.503763: $GPGGA,194240,3946.9564,N,08404.9842,W,2,11,0.80,302.74,M,-33.324,M,,*72
2017-11-16 14:42:41 1510861361.503823: $GPRMC,194240,A,3946.9564,N,08404.9842,W,0.0000,0.000,161117,,*3D
2017-11-16 14:42:41 1510861361.503879: $GPGSA,A,3,8,10,15,18,21,20,24,27,32,14,138,,1.6,0.8,1.3*37
2017-11-16 14:42:42 1510861362.841725: $GPGSV,3,1,11,08,08,310,16,10,52,312,50,15,26,057,51,18,77,021,44*71
2017-11-16 14:42:42 1510861362.841902: $GPGSV,3,2,11,21,49,183,47,20,23,106,45,24,53,087,48,27,15,276,42*7D
2017-11-16 14:42:42 1510861362.841962: $GPGSV,3,3,11,32,31,247,47,14,15,240,42,138,38,213,43*7F
2017-11-16 14:42:42 1510861362.955013: $GPZDA,194241.00,16,11,2017,00,00*6E
2017-11-16 14:42:42 1510861362.955168: $GPGGA,194241,3946.9564,N,08404.9842,W,2,11,0.80,302.74,M,-33.324,M,,*73
2017-11-16 14:42:42 1510861362.955229: $GPRMC,194241,A,3946.9564,N,08404.9842,W,0.0000,0.000,161117,,*3C
2017-11-16 14:42:42 1510861362.955284: $GPGSA,A,3,8,10,15,18,21,20,24,27,32,14,138,,1.6,0.8,1.3*37
2017-11-16 14:42:43 1510861363.497124: $GPZDA,194242.00,16,11,2017,00,00*6D
2017-11-16 14:42:43 1510861363.497288: $GPGGA,194242,3946.9564,N,08404.9842,W,2,11,0.80,302.74,M,-33.324,M,,*70
2017-11-16 14:42:43 1510861363.497350: $GPRMC,194242,A,3946.9564,N,08404.9842,W,0.0000,0.000,161117,,*3F
2017-11-16 14:42:43 1510861363.497405: $GPGSA,A,3,8,10,15,18,21,20,24,27,32,14,138,,1.6,0.8,1.3*37
