2017-12-01 14:10:53 1512155453.367452: {"class":"VERSION","release":"3.16","rev":"3.16-4","proto_major":3,"proto_minor":11}
2017-12-01 14:10:53 1512155453.367826: {"class":"DEVICES","devices":[{"class":"DEVICE","path":"/dev/ttyUSB0","driver":"SiRF","subtype":"9\u0006GSD4e_4.1.2-P1_RPATCH.05-F-GPS-4R-1510281 11/03/2015 307","activated":"2017-12-01T19:10:53.358Z","flags":1,"native":1,"bps":4800,"parity":"N","stopbits":1,"cycle":1.00}]}
2017-12-01 14:10:53 1512155453.367938: {"class":"WATCH","enable":true,"json":false,"nmea":true,"raw":0,"scaled":false,"timing":false,"split24":false,"pps":false}
2017-12-01 14:10:54 1512155454.664796: $GPGSV,3,1,12,08,07,298,22,10,64,324,49,14,24,249,41,18,74,078,43*74
2017-12-01 14:10:54 1512155454.664975: $GPGSV,3,2,12,20,13,114,35,21,35,180,44,24,49,066,47,27,10,265,40*7C
2017-12-01 14:10:54 1512155454.665042: $GPGSV,3,3,12,32,42,259,45,12,05,112,23,15,16,063,36,138,38,213,46*47
2017-12-01 14:10:54 1512155454.778088: $GPZDA,191055.00,01,12,2017,00,00*69
2017-12-01 14:10:54 1512155454.778257: $GPGGA,191055,3946.9519,N,08404.9822,W,2,12,0.80,323.67,M,-33.324,M,,*7F
2017-12-01 14:10:54 1512155454.778322: $GPRMC,191055,A,3946.9519,N,08404.9822,W,0.0000,0.000,011217,,*37
2017-12-01 14:10:54 1512155454.778383: $GPGSA,A,3,8,10,14,18,20,21,24,27,32,12,15,138,2.0,0.8,1.5*37
2017-12-01 14:10:55 1512155455.403696: $GPZDA,191056.00,01,12,2017,00,00*6A
2017-12-01 14:10:55 1512155455.403897: $GPGGA,191056,3946.9519,N,08404.9822,W,2,12,0.80,323.67,M,-33.324,M,,*7C
2017-12-01 14:10:55 1512155455.403966: $GPRMC,191056,A,3946.9519,N,08404.9822,W,0.0000,0.000,011217,,*34
2017-12-01 14:10:55 1512155455.404028: $GPGSA,A,3,8,10,14,18,20,21,24,27,32,12,15,138,2.0,0.8,1.5*37
2017-12-01 14:10:56 1512155456.360545: $GPZDA,191057.00,01,12,2017,00,00*6B
2017-12-01 14:10:56 1512155456.360739: $GPGGA,191057,3946.9519,N,08404.9822,W,2,12,0.80,323.67,M,-33.324,M,,*7D
2017-12-01 14:10:56 1512155456.360807: $GPRMC,191057,A,3946.9519,N,08404.9822,W,0.0000,0.000,011217,,*35
2017-12-01 14:10:56 1512155456.360869: $GPGSA,A,3,8,10,14,18,20,21,24,27,32,12,15,138,2.0,0.8,1.5*37
2017-12-01 14:10:57 1512155457.695050: $GPGSV,3,1,12,08,07,298,26,10,64,324,50,14,24,249,40,18,74,078,43*79
2017-12-01 14:10:57 1512155457.695232: $GPGSV,3,2,12,20,13,114,35,21,35,180,44,24,49,066,47,27,10,265,39*72
2017-12-01 14:10:57 1512155457.695299: $GPGSV,3,3,12,32,42,259,45,12,05,112,22,15,16,063,37,138,38,213,46*47
2017-12-01 14:10:57 1512155457.808653: $GPZDA,191058.00,01,12,2017,00,00*64
2017-12-01 14:10:57 1512155457.808821: $GPGGA,191058,3946.9519,N,08404.9822,W,2,12,0.80,323.67,M,-33.324,M,,*72
2017-12-01 14:10:57 1512155457.808888: $GPRMC,191058,A,3946.9519,N,08404.9822,W,0.0000,0.000,011217,,*3A
2017-12-01 14:10:57 1512155457.808947: $GPGSA,A,3,8,10,14,18,20,21,24,27,32,12,15,138,2.0,0.8,1.5*37
2017-12-01 14:10:58 1512155458.359293: $GPZDA,191059.00,01,12,2017,00,00*65
2017-12-01 14:10:58 1512155458.359470: $GPGGA,191059,3946.9519,N,08404.9822,W,2,12,0.80,323.67,M,-33.324,M,,*73
2017-12-01 14:10:58 1512155458.359536: $GPRMC,191059,A,3946.9519,N,08404.9822,W,0.0000,0.000,011217,,*3B
2017-12-01 14:10:58 1512155458.359597: $GPGSA,A,3,8,10,14,18,20,21,24,27,32,12,15,138,2.0,0.8,1.5*37
2017-12-01 14:10:59 1512155459.332986: $GPZDA,191100.00,01,12,2017,00,00*68
2017-12-01 14:10:59 1512155459.333156: $GPGGA,191100,3946.9519,N,08404.9822,W,2,12,0.80,323.67,M,-33.324,M,,*7E
2017-12-01 14:10:59 1512155459.333223: $GPRMC,191100,A,3946.9519,N,08404.9822,W,0.0000,0.000,011217,,*36
2017-12-01 14:10:59 1512155459.333283: $GPGSA,A,3,8,10,14,18,20,21,24,27,32,12,15,138,2.0,0.8,1.5*37
2017-12-01 14:11:00 1512155460.665415: $GPGSV,3,1,12,08,07,298,30,10,64,324,49,14,24,249,40,18,74,078,43*76
2017-12-01 14:11:00 1512155460.665596: $GPGSV,3,2,12,20,13,114,35,21,35,180,44,24,49,066,47,27,10,265,39*72
2017-12-01 14:11:00 1512155460.665663: $GPGSV,3,3,12,32,42,259,45,12,05,112,22,15,16,063,37,138,38,213,47*46
2017-12-01 14:11:00 1512155460.778777: $GPZDA,191101.00,01,12,2017,00,00*69
2017-12-01 14:11:00 1512155460.778945: $GPGGA,191101,3946.9519,N,08404.9822,W,2,12,0.80,323.67,M,-33.324,M,,*7F
2017-12-01 14:11:00 1512155460.779061: $GPRMC,191101,A,3946.9519,N,08404.9822,W,0.0000,0.000,011217,,*37
2017-12-01 14:11:00 1512155460.779124: $GPGSA,A,3,8,10,14,18,20,21,24,27,32,12,15,138,2.0,0.8,1.5*37
2017-12-01 14:11:01 1512155461.332324: $GPZDA,191102.00,01,12,2017,00,00*6A
2017-12-01 14:11:01 1512155461.332516: $GPGGA,191102,3946.9516,N,08404.9823,W,2,12,0.80,324.43,M,-33.324,M,,*73
2017-12-01 14:11:01 1512155461.332590: $GPRMC,191102,A,3946.9516,N,08404.9823,W,0.0000,0.000,011217,,*3A
2017-12-01 14:11:01 1512155461.332651: $GPGSA,A,3,8,10,14,18,20,21,24,27,32,12,15,138,2.0,0.8,1.5*37
2017-12-01 14:11:02 1512155462.330525: $GPZDA,191103.00,01,12,2017,00,00*6B
2017-12-01 14:11:02 1512155462.330698: $GPGGA,191103,3946.9516,N,08404.9823,W,2,12,0.80,324.43,M,-33.324,M,,*72
2017-12-01 14:11:02 1512155462.330765: $GPRMC,191103,A,3946.9516,N,08404.9823,W,0.0000,0.000,011217,,*3B
2017-12-01 14:11:02 1512155462.330827: $GPGSA,A,3,8,10,14,18,20,21,24,27,32,12,15,138,2.0,0.8,1.5*37
2017-12-01 14:11:03 1512155463.667547: $GPGSV,3,1,12,08,07,298,30,10,64,324,49,14,24,249,40,18,74,078,43*76
2017-12-01 14:11:03 1512155463.667725: $GPGSV,3,2,12,20,13,114,35,21,35,180,43,24,49,066,48,27,10,265,40*74
2017-12-01 14:11:03 1512155463.667791: $GPGSV,3,3,12,32,42,259,44,12,05,112,24,15,16,063,38,138,38,213,46*4F
2017-12-01 14:11:03 1512155463.780908: $GPZDA,191104.00,01,12,2017,00,00*6C
2017-12-01 14:11:03 1512155463.781041: $GPGGA,191104,3946.9516,N,08404.9823,W,2,12,0.80,324.43,M,-33.324,M,,*75
2017-12-01 14:11:03 1512155463.781107: $GPRMC,191104,A,3946.9516,N,08404.9823,W,0.0000,0.000,011217,,*3C
2017-12-01 14:11:03 1512155463.781167: $GPGSA,A,3,8,10,14,18,20,21,24,27,32,12,15,138,2.0,0.8,1.5*37
2017-12-01 14:11:04 1512155464.331799: $GPZDA,191105.00,01,12,2017,00,00*6D
2017-12-01 14:11:04 1512155464.331970: $GPGGA,191105,3946.9516,N,08404.9823,W,2,12,0.80,324.43,M,-33.324,M,,*74
2017-12-01 14:11:04 1512155464.332037: $GPRMC,191105,A,3946.9516,N,08404.9823,W,0.0000,0.000,011217,,*3D
2017-12-01 14:11:04 1512155464.332098: $GPGSA,A,3,8,10,14,18,20,21,24,27,32,12,15,138,2.0,0.8,1.5*37
2017-12-01 14:11:05 1512155465.331221: $GPZDA,191106.00,01,12,2017,00,00*6E
2017-12-01 14:11:05 1512155465.331484: $GPGGA,191106,3946.9516,N,08404.9823,W,2,12,0.80,324.43,M,-33.324,M,,*77
2017-12-01 14:11:05 1512155465.331564: $GPRMC,191106,A,3946.9516,N,08404.9823,W,0.0000,0.000,011217,,*3E
2017-12-01 14:11:05 1512155465.331626: $GPGSA,A,3,8,10,14,18,20,21,24,27,32,12,15,138,2.0,0.8,1.5*37
2017-12-01 14:11:06 1512155466.666675: $GPGSV,3,1,12,08,07,298,31,10,64,324,49,14,24,249,40,18,74,078,43*77
2017-12-01 14:11:06 1512155466.666877: $GPGSV,3,2,12,20,13,114,35,21,35,180,43,24,49,066,48,27,10,265,40*74
2017-12-01 14:11:06 1512155466.666945: $GPGSV,3,3,12,32,42,259,45,12,05,112,23,15,16,063,37,138,38,213,47*47
2017-12-01 14:11:06 1512155466.780426: $GPZDA,191107.00,01,12,2017,00,00*6F
2017-12-01 14:11:06 1512155466.780595: $GPGGA,191107,3946.9516,N,08404.9823,W,2,12,0.80,324.43,M,-33.324,M,,*76
2017-12-01 14:11:06 1512155466.780662: $GPRMC,191107,A,3946.9516,N,08404.9823,W,0.0000,0.000,011217,,*3F
2017-12-01 14:11:06 1512155466.780724: $GPGSA,A,3,8,10,14,18,20,21,24,27,32,12,15,138,2.0,0.8,1.5*37
2017-12-01 14:11:07 1512155467.333470: $GPZDA,191108.00,01,12,2017,00,00*60
2017-12-01 14:11:07 1512155467.333641: $GPGGA,191108,3946.9516,N,08404.9823,W,2,12,0.80,324.43,M,-33.324,M,,*79
2017-12-01 14:11:07 1512155467.333707: $GPRMC,191108,A,3946.9516,N,08404.9823,W,0.0000,0.000,011217,,*30
2017-12-01 14:11:07 1512155467.333767: $GPGSA,A,3,8,10,14,18,20,21,24,27,32,12,15,138,2.0,0.8,1.5*37
2017-12-01 14:11:08 1512155468.330576: $GPZDA,191109.00,01,12,2017,00,00*61
2017-12-01 14:11:08 1512155468.330757: $GPGGA,191109,3946.9516,N,08404.9823,W,2,12,0.80,324.43,M,-33.324,M,,*78
2017-12-01 14:11:08 1512155468.330824: $GPRMC,191109,A,3946.9516,N,08404.9823,W,0.0000,0.000,011217,,*31
2017-12-01 14:11:08 1512155468.330886: $GPGSA,A,3,8,10,14,18,20,21,24,27,32,12,15,138,2.0,0.8,1.5*37
2017-12-01 14:11:09 1512155469.666255: $GPGSV,3,1,12,08,07,298,37,10,64,324,50,14,24,249,40,18,74,078,43*79
2017-12-01 14:11:09 1512155469.666468: $GPGSV,3,2,12,20,13,114,36,21,35,180,43,24,49,066,48,27,10,265,39*79
2017-12-01 14:11:09 1512155469.666537: $GPGSV,3,3,12,32,42,259,45,12,05,112,26,15,16,063,38,138,38,213,47*4D
2017-12-01 14:11:09 1512155469.779668: $GPZDA,191110.00,01,12,2017,00,00*69
2017-12-01 14:11:09 1512155469.779842: $GPGGA,191110,3946.9516,N,08404.9823,W,2,12,0.80,324.43,M,-33.324,M,,*70
2017-12-01 14:11:09 1512155469.779910: $GPRMC,191110,A,3946.9516,N,08404.9823,W,0.0000,0.000,011217,,*39
2017-12-01 14:11:09 1512155469.779971: $GPGSA,A,3,8,10,14,18,20,21,24,27,32,12,15,138,2.0,0.8,1.5*37
2017-12-01 14:11:10 1512155470.405322: $GPZDA,191111.00,01,12,2017,00,00*68
2017-12-01 14:11:10 1512155470.405489: $GPGGA,191111,3946.9516,N,08404.9823,W,2,12,0.80,324.43,M,-33.324,M,,*71
2017-12-01 14:11:10 1512155470.405628: $GPRMC,191111,A,3946.9516,N,08404.9823,W,0.0000,0.000,011217,,*38
2017-12-01 14:11:10 1512155470.405695: $GPGSA,A,3,8,10,14,18,20,21,24,27,32,12,15,138,2.0,0.8,1.5*37
2017-12-01 14:11:11 1512155471.330894: $GPZDA,191112.00,01,12,2017,00,00*6B
2017-12-01 14:11:11 1512155471.954076: $GPGGA,191112,3946.9516,N,08404.9823,W,2,12,0.80,324.43,M,-33.324,M,,*72
2017-12-01 14:11:11 1512155471.954247: $GPRMC,191112,A,3946.9516,N,08404.9823,W,0.0000,0.000,011217,,*3B
2017-12-01 14:11:11 1512155471.954316: $GPGSA,A,3,8,10,14,18,20,21,24,27,32,12,15,138,2.0,0.8,1.5*37
2017-12-01 14:11:12 1512155472.666682: $GPGSV,3,1,12,08,07,298,37,10,64,324,50,14,24,249,40,18,74,078,43*79
2017-12-01 14:11:12 1512155472.666855: $GPGSV,3,2,12,20,13,114,36,21,35,180,44,24,49,066,49,27,10,265,39*7F
2017-12-01 14:11:12 1512155472.666924: $GPGSV,3,3,12,32,42,259,45,12,05,112,26,15,16,063,38,138,38,213,46*4C
2017-12-01 14:11:12 1512155472.780328: $GPZDA,191113.00,01,12,2017,00,00*6A
2017-12-01 14:11:12 1512155472.780500: $GPGGA,191113,3946.9516,N,08404.9823,W,2,12,0.80,324.43,M,-33.324,M,,*73
2017-12-01 14:11:12 1512155472.780566: $GPRMC,191113,A,3946.9516,N,08404.9823,W,0.0000,0.000,011217,,*3A
2017-12-01 14:11:12 1512155472.780626: $GPGSA,A,3,8,10,14,18,20,21,24,27,32,12,15,138,2.0,0.8,1.5*37
2017-12-01 14:11:13 1512155473.331196: $GPZDA,191114.00,01,12,2017,00,00*6D
2017-12-01 14:11:13 1512155473.331423: $GPGGA,191114,3946.9516,N,08404.9823,W,2,12,0.80,324.43,M,-33.324,M,,*74
2017-12-01 14:11:13 1512155473.331501: $GPRMC,191114,A,3946.9516,N,08404.9823,W,0.0000,0.000,011217,,*3D
2017-12-01 14:11:13 1512155473.331563: $GPGSA,A,3,8,10,14,18,20,21,24,27,32,12,15,138,2.0,0.8,1.5*37
