2018-01-11 20:03:12 1515718992.548641: {"class":"VERSION","release":"3.16","rev":"3.16-4","proto_major":3,"proto_minor":11}
2018-01-11 20:03:12 1515718992.548989: {"class":"DEVICES","devices":[{"class":"DEVICE","path":"/dev/ttyUSB0","driver":"SiRF","subtype":"9\u0006GSD4e_4.1.2-P1_RPATCH.05-F-GPS-4R-1510281 11/03/2015 307","activated":"2018-01-12T01:03:12.295Z","flags":1,"native":1,"bps":4800,"parity":"N","stopbits":1,"cycle":1.00}]}
2018-01-11 20:03:12 1515718992.549160: {"class":"WATCH","enable":true,"json":false,"nmea":true,"raw":0,"scaled":false,"timing":false,"split24":false,"pps":false}
2018-01-11 20:03:12 1515718992.744959: $GPGSV,3,1,11,07,52,313,42,08,71,144,45,09,50,234,42,11,17,169,43*72
2018-01-11 20:03:12 1515718992.745140: $GPGSV,3,2,11,16,26,058,45,23,33,190,46,27,50,057,51,28,11,255,38*79
2018-01-11 20:03:12 1515718992.745205: $GPGSV,3,3,11,30,26,304,35,26,01,070,23,138,38,213,45*7C
2018-01-11 20:03:12 1515718992.858659: $GPZDA,010313.00,12,01,2018,00,00*6F
2018-01-11 20:03:12 1515718992.858803: $GPGGA,010313,3946.9584,N,08404.9824,W,2,11,0.80,298.32,M,-33.324,M,,*76
2018-01-11 20:03:12 1515718992.858868: $GPRMC,010313,A,3946.9584,N,08404.9824,W,0.0000,0.000,120118,,*33
2018-01-11 20:03:12 1515718992.858928: $GPGSA,A,3,7,8,9,11,16,23,27,28,30,26,138,,4.0,0.8,3.5*3A
2018-01-11 20:03:13 1515718993.392016: $GPZDA,010314.00,12,01,2018,00,00*68
2018-01-11 20:03:13 1515718993.392160: $GPGGA,010314,3946.9584,N,08404.9824,W,2,11,0.80,298.32,M,-33.324,M,,*71
2018-01-11 20:03:13 1515718993.392224: $GPRMC,010314,A,3946.9584,N,08404.9824,W,0.0000,0.000,120118,,*34
2018-01-11 20:03:13 1515718993.392283: $GPGSA,A,3,7,8,9,11,16,23,27,28,30,26,138,,4.0,0.8,3.5*3A
2018-01-11 20:03:14 1515718994.389242: $GPZDA,010315.00,12,01,2018,00,00*69
2018-01-11 20:03:14 1515718994.389405: $GPGGA,010315,3946.9584,N,08404.9824,W,2,11,0.80,298.32,M,-33.324,M,,*70
2018-01-11 20:03:14 1515718994.389470: $GPRMC,010315,A,3946.9584,N,08404.9824,W,0.0000,0.000,120118,,*35
2018-01-11 20:03:14 1515718994.389530: $GPGSA,A,3,7,8,9,11,16,23,27,28,30,26,138,,4.0,0.8,3.5*3A
2018-01-11 20:03:15 1515718995.743296: $GPGSV,3,1,11,07,52,313,42,08,71,144,45,09,50,234,43,11,17,169,43*73
2018-01-11 20:03:15 1515718995.743449: $GPGSV,3,2,11,16,26,058,45,23,33,190,46,27,50,057,50,28,11,255,38*78
2018-01-11 20:03:15 1515718995.743514: $GPGSV,3,3,11,30,26,304,35,26,01,070,23,138,38,213,46*7F
2018-01-11 20:03:15 1515718995.856995: $GPZDA,010316.00,12,01,2018,00,00*6A
2018-01-11 20:03:15 1515718995.857115: $GPGGA,010316,3946.9584,N,08404.9824,W,2,11,0.80,298.32,M,-33.324,M,,*73
2018-01-11 20:03:15 1515718995.857178: $GPRMC,010316,A,3946.9584,N,08404.9824,W,0.0000,0.000,120118,,*36
2018-01-11 20:03:15 1515718995.857237: $GPGSA,A,3,7,8,9,11,16,23,27,28,30,26,138,,4.0,0.8,3.5*3A
2018-01-11 20:03:16 1515718996.482366: $GPZDA,010317.00,12,01,2018,00,00*6B
2018-01-11 20:03:16 1515718996.482510: $GPGGA,010317,3946.9584,N,08404.9824,W,2,11,0.80,298.32,M,-33.324,M,,*72
2018-01-11 20:03:16 1515718996.482574: $GPRMC,010317,A,3946.9584,N,08404.9824,W,0.0000,0.000,120118,,*37
2018-01-11 20:03:16 1515718996.482634: $GPGSA,A,3,7,8,9,11,16,23,27,28,30,26,138,,4.0,0.8,3.5*3A
2018-01-11 20:03:17 1515718997.392031: $GPZDA,010318.00,12,01,2018,00,00*64
2018-01-11 20:03:17 1515718997.392190: $GPGGA,010318,3946.9584,N,08404.9824,W,2,11,0.80,298.32,M,-33.324,M,,*7D
2018-01-11 20:03:17 1515718997.392254: $GPRMC,010318,A,3946.9584,N,08404.9824,W,0.0000,0.000,120118,,*38
2018-01-11 20:03:17 1515718997.392314: $GPGSA,A,3,7,8,9,11,16,23,27,28,30,26,138,,4.0,0.8,3.5*3A
2018-01-11 20:03:18 1515718998.726138: $GPGSV,3,1,11,07,52,313,43,08,71,144,45,09,50,234,43,11,17,169,44*75
2018-01-11 20:03:18 1515718998.726315: $GPGSV,3,2,11,16,26,058,45,23,33,190,45,27,50,057,50,28,11,255,39*7A
2018-01-11 20:03:18 1515718998.726380: $GPGSV,3,3,11,30,26,304,35,26,01,070,23,138,38,213,45*7C
2018-01-11 20:03:18 1515718998.839890: $GPZDA,010319.00,12,01,2018,00,00*65
2018-01-11 20:03:18 1515718998.840012: $GPGGA,010319,3946.9584,N,08404.9824,W,2,11,0.80,298.32,M,-33.324,M,,*7C
2018-01-11 20:03:18 1515718998.840131: $GPRMC,010319,A,3946.9584,N,08404.9824,W,0.0000,0.000,120118,,*39
2018-01-11 20:03:18 1515718998.840192: $GPGSA,A,3,7,8,9,11,16,23,27,28,30,26,138,,4.0,0.8,3.5*3A
2018-01-11 20:03:19 1515718999.392008: $GPZDA,010320.00,12,01,2018,00,00*6F
2018-01-11 20:03:19 1515718999.392148: $GPGGA,010320,3946.9584,N,08404.9824,W,2,11,0.80,298.32,M,-33.324,M,,*76
2018-01-11 20:03:19 1515718999.392212: $GPRMC,010320,A,3946.9584,N,08404.9824,W,0.0000,0.000,120118,,*33
2018-01-11 20:03:19 1515718999.392271: $GPGSA,A,3,7,8,9,11,16,23,27,28,30,26,138,,4.0,0.8,3.5*3A
2018-01-11 20:03:20 1515719000.390409: $GPZDA,010321.00,12,01,2018,00,00*6E
2018-01-11 20:03:20 1515719000.390581: $GPGGA,010321,3946.9584,N,08404.9824,W,2,11,0.80,298.32,M,-33.324,M,,*77
2018-01-11 20:03:20 1515719000.390647: $GPRMC,010321,A,3946.9584,N,08404.9824,W,0.0000,0.000,120118,,*32
2018-01-11 20:03:20 1515719000.390708: $GPGSA,A,3,7,8,9,11,16,23,27,28,30,26,138,,4.0,0.8,3.5*3A
2018-01-11 20:03:21 1515719001.731499: $GPGSV,3,1,11,07,52,313,43,08,71,144,45,09,50,234,43,11,17,169,44*75
2018-01-11 20:03:21 1515719001.731680: $GPGSV,3,2,11,16,26,058,45,23,33,190,46,27,50,057,50,28,11,255,39*79
2018-01-11 20:03:21 1515719001.731746: $GPGSV,3,3,11,30,26,304,34,26,01,070,23,138,38,213,45*7D
2018-01-11 20:03:21 1515719001.845123: $GPZDA,010322.00,12,01,2018,00,00*6D
2018-01-11 20:03:21 1515719001.845241: $GPGGA,010322,3946.9584,N,08404.9824,W,2,11,0.80,298.32,M,-33.324,M,,*74
2018-01-11 20:03:21 1515719001.845303: $GPRMC,010322,A,3946.9584,N,08404.9824,W,0.0000,0.000,120118,,*31
2018-01-11 20:03:21 1515719001.845363: $GPGSA,A,3,7,8,9,11,16,23,27,28,30,26,138,,4.0,0.8,3.5*3A
2018-01-11 20:03:22 1515719002.411019: $GPZDA,010323.00,12,01,2018,00,00*6C
2018-01-11 20:03:22 1515719002.414309: $GPGGA,010323,3946.9584,N,08404.9824,W,2,11,0.80,298.32,M,-33.324,M,,*75
2018-01-11 20:03:22 1515719002.414403: $GPRMC,010323,A,3946.9584,N,08404.9824,W,0.0000,0.000,120118,,*30
2018-01-11 20:03:22 1515719002.414465: $GPGSA,A,3,7,8,9,11,16,23,27,28,30,26,138,,4.0,0.8,3.5*3A
2018-01-11 20:03:23 1515719003.410665: $GPZDA,010324.00,12,01,2018,00,00*6B
2018-01-11 20:03:23 1515719003.410830: $GPGGA,010324,3946.9584,N,08404.9824,W,2,11,0.80,298.32,M,-33.324,M,,*72
2018-01-11 20:03:23 1515719003.410895: $GPRMC,010324,A,3946.9584,N,08404.9824,W,0.0000,0.000,120118,,*37
2018-01-11 20:03:23 1515719003.410955: $GPGSA,A,3,7,8,9,11,16,23,27,28,30,26,138,,4.0,0.8,3.5*3A
