2017-11-16 13:29:42 1510856982.795542: {"class":"VERSION","release":"3.17","rev":"3.17","proto_major":3,"proto_minor":12}
2017-11-16 13:29:42 1510856982.796009: {"class":"DEVICES","devices":[{"class":"DEVICE","path":"/dev/ttyUSB0","driver":"SiRF","subtype":"9\u0006GSD4e_4.1.2-P1_RPATCH.05-F-GPS-4R-1510281 11/03/2015 307","activated":"2017-11-16T18:29:42.748Z","flags":1,"native":1,"bps":4800,"parity":"N","stopbits":1,"cycle":1.00}]}
2017-11-16 13:29:42 1510856982.796129: {"class":"WATCH","enable":true,"json":false,"nmea":true,"raw":0,"scaled":false,"timing":false,"split24":false,"pps":false}
2017-11-16 13:29:43 1510856983.281441: $GPZDA,182942.00,16,11,2017,00,00*61
2017-11-16 13:29:43 1510856983.281610: $GPGGA,182942,3946.9615,N,08404.9845,W,2,12,0.80,303.96,M,-33.324,M,,*70
2017-11-16 13:29:43 1510856983.281672: $GPRMC,182942,A,3946.9615,N,08404.9845,W,0.0000,0.000,161117,,*31
2017-11-16 13:29:43 1510856983.281729: $GPGSA,A,3,10,13,15,18,20,21,24,27,29,5,32,138,1.6,0.8,1.3*36
2017-11-16 13:29:44 1510856984.265133: $GPZDA,182943.00,16,11,2017,00,00*60
2017-11-16 13:29:44 1510856984.265292: $GPGGA,182943,3946.9615,N,08404.9845,W,2,12,0.80,303.96,M,-33.324,M,,*71
2017-11-16 13:29:44 1510856984.265353: $GPRMC,182943,A,3946.9615,N,08404.9845,W,0.0000,0.000,161117,,*30
2017-11-16 13:29:44 1510856984.265409: $GPGSA,A,3,10,13,15,18,20,21,24,27,29,5,32,138,1.6,0.8,1.3*36
2017-11-16 13:29:45 1510856985.601347: $GPGSV,3,1,12,10,26,286,44,13,26,045,46,15,57,049,51,18,57,304,45*76
2017-11-16 13:29:45 1510856985.610887: $GPGSV,3,2,12,20,48,076,48,21,79,252,46,24,36,135,43,27,17,309,40*7C
2017-11-16 13:29:45 1510856985.611000: $GPGSV,3,3,12,29,06,187,20,05,02,090,27,32,04,226,26,138,38,213,45*47
2017-11-16 13:29:45 1510856985.714874: $GPZDA,182944.00,16,11,2017,00,00*67
2017-11-16 13:29:45 1510856985.715031: $GPGGA,182944,3946.9615,N,08404.9845,W,2,12,0.80,303.96,M,-33.324,M,,*76
2017-11-16 13:29:45 1510856985.715093: $GPRMC,182944,A,3946.9615,N,08404.9845,W,0.0000,0.000,161117,,*37
2017-11-16 13:29:45 1510856985.715149: $GPGSA,A,3,10,13,15,18,20,21,24,27,29,5,32,138,1.6,0.8,1.3*36
2017-11-16 13:29:46 1510856986.265434: $GPZDA,182945.00,16,11,2017,00,00*66
2017-11-16 13:29:46 1510856986.265620: $GPGGA,182945,3946.9615,N,08404.9845,W,2,12,0.80,303.96,M,-33.324,M,,*77
2017-11-16 13:29:46 1510856986.265684: $GPRMC,182945,A,3946.9615,N,08404.9845,W,0.0000,0.000,161117,,*36
2017-11-16 13:29:46 1510856986.265741: $GPGSA,A,3,10,13,15,18,20,21,24,27,29,5,32,138,1.6,0.8,1.3*36
2017-11-16 13:29:47 1510856987.265002: $GPZDA,182946.00,16,11,2017,00,00*65
2017-11-16 13:29:47 1510856987.265147: $GPGGA,182946,3946.9615,N,08404.9845,W,2,12,0.80,303.96,M,-33.324,M,,*74
2017-11-16 13:29:47 1510856987.265209: $GPRMC,182946,A,3946.9615,N,08404.9845,W,0.0000,0.000,161117,,*35
2017-11-16 13:29:47 1510856987.265266: $GPGSA,A,3,10,13,15,18,20,21,24,27,29,5,32,138,1.6,0.8,1.3*36
2017-11-16 13:29:48 1510856988.600779: $GPGSV,3,1,12,10,26,286,44,13,26,045,46,15,57,049,50,18,57,304,45*77
2017-11-16 13:29:48 1510856988.600944: $GPGSV,3,2,12,20,48,076,48,21,79,252,46,24,36,135,44,27,17,309,40*7B
2017-11-16 13:29:48 1510856988.601005: $GPGSV,3,3,12,29,06,187,23,05,02,090,21,32,04,226,27,138,38,213,44*42
2017-11-16 13:29:48 1510856988.714102: $GPZDA,182947.00,16,11,2017,00,00*64
2017-11-16 13:29:48 1510856988.714285: $GPGGA,182947,3946.9615,N,08404.9845,W,2,12,0.80,303.96,M,-33.324,M,,*75
2017-11-16 13:29:48 1510856988.714347: $GPRMC,182947,A,3946.9615,N,08404.9845,W,0.0000,0.000,161117,,*34
2017-11-16 13:29:48 1510856988.714422: $GPGSA,A,3,10,13,15,18,20,21,24,27,29,5,32,138,1.6,0.8,1.3*36
2017-11-16 13:29:49 1510856989.267421: $GPZDA,182948.00,16,11,2017,00,00*6B
2017-11-16 13:29:49 1510856989.267607: $GPGGA,182948,3946.9615,N,08404.9845,W,2,12,0.80,303.96,M,-33.324,M,,*7A
2017-11-16 13:29:49 1510856989.267671: $GPRMC,182948,A,3946.9615,N,08404.9845,W,0.0000,0.000,161117,,*3B
2017-11-16 13:29:49 1510856989.267728: $GPGSA,A,3,10,13,15,18,20,21,24,27,29,5,32,138,1.6,0.8,1.3*36
2017-11-16 13:29:50 1510856990.266483: $GPZDA,182949.00,16,11,2017,00,00*6A
2017-11-16 13:29:50 1510856990.266706: $GPGGA,182949,3946.9615,N,08404.9845,W,2,12,0.80,303.96,M,-33.324,M,,*7B
2017-11-16 13:29:50 1510856990.266772: $GPRMC,182949,A,3946.9615,N,08404.9845,W,0.0000,0.000,161117,,*3A
2017-11-16 13:29:50 1510856990.266830: $GPGSA,A,3,10,13,15,18,20,21,24,27,29,5,32,138,1.6,0.8,1.3*36
2017-11-16 13:29:51 1510856991.601184: $GPGSV,3,1,12,10,26,286,44,13,26,045,46,15,57,049,51,18,57,304,45*76
2017-11-16 13:29:51 1510856991.601380: $GPGSV,3,2,12,20,48,076,47,21,79,252,46,24,36,135,44,27,17,309,40*74
2017-11-16 13:29:51 1510856991.601448: $GPGSV,3,3,12,29,06,187,22,05,02,090,21,32,04,226,28,138,38,213,44*4C
2017-11-16 13:29:51 1510856991.714306: $GPZDA,182950.00,16,11,2017,00,00*62
2017-11-16 13:29:51 1510856991.714456: $GPGGA,182950,3946.9615,N,08404.9845,W,2,12,0.80,303.96,M,-33.324,M,,*73
2017-11-16 13:29:51 1510856991.714516: $GPRMC,182950,A,3946.9615,N,08404.9845,W,0.0000,0.000,161117,,*32
2017-11-16 13:29:51 1510856991.714572: $GPGSA,A,3,10,13,15,18,20,21,24,27,29,5,32,138,1.6,0.8,1.3*36
2017-11-16 13:29:52 1510856992.265182: $GPZDA,182951.00,16,11,2017,00,00*63
2017-11-16 13:29:52 1510856992.265373: $GPGGA,182951,3946.9615,N,08404.9845,W,2,12,0.80,303.96,M,-33.324,M,,*72
2017-11-16 13:29:52 1510856992.265435: $GPRMC,182951,A,3946.9615,N,08404.9845,W,0.0000,0.000,161117,,*33
2017-11-16 13:29:52 1510856992.265492: $GPGSA,A,3,10,13,15,18,20,21,24,27,29,5,32,138,1.6,0.8,1.3*36
2017-11-16 13:29:53 1510856993.266246: $GPZDA,182952.00,16,11,2017,00,00*60
2017-11-16 13:29:53 1510856993.266391: $GPGGA,182952,3946.9615,N,08404.9845,W,2,12,0.80,303.96,M,-33.324,M,,*71
2017-11-16 13:29:53 1510856993.266451: $GPRMC,182952,A,3946.9615,N,08404.9845,W,0.0000,0.000,161117,,*30
2017-11-16 13:29:53 1510856993.266507: $GPGSA,A,3,10,13,15,18,20,21,24,27,29,5,32,138,1.6,0.8,1.3*36
2017-11-16 13:29:54 1510856994.601783: $GPGSV,3,1,12,10,26,286,43,13,26,045,46,15,57,049,51,18,57,304,45*71
2017-11-16 13:29:54 1510856994.602127: $GPGSV,3,2,12,20,48,076,47,21,79,252,46,24,36,135,44,27,17,309,41*75
2017-11-16 13:29:54 1510856994.602245: $GPGSV,3,3,12,29,06,187,22,05,02,090,22,32,04,226,29,138,38,213,44*4E
2017-11-16 13:29:54 1510856994.715022: $GPZDA,182953.00,16,11,2017,00,00*61
2017-11-16 13:29:54 1510856994.715197: $GPGGA,182953,3946.9615,N,08404.9845,W,2,12,0.80,303.96,M,-33.324,M,,*70
2017-11-16 13:29:54 1510856994.715258: $GPRMC,182953,A,3946.9615,N,08404.9845,W,0.0000,0.000,161117,,*31
2017-11-16 13:29:54 1510856994.715315: $GPGSA,A,3,10,13,15,18,20,21,24,27,29,5,32,138,1.6,0.8,1.3*36
2017-11-16 13:29:55 1510856995.340815: $GPZDA,182954.00,16,11,2017,00,00*66
2017-11-16 13:29:55 1510856995.340976: $GPGGA,182954,3946.9615,N,08404.9845,W,2,12,0.80,303.96,M,-33.324,M,,*77
2017-11-16 13:29:55 1510856995.341039: $GPRMC,182954,A,3946.9615,N,08404.9845,W,0.0000,0.000,161117,,*36
2017-11-16 13:29:55 1510856995.341112: $GPGSA,A,3,10,13,15,18,20,21,24,27,29,5,32,138,1.6,0.8,1.3*36
2017-11-16 13:29:56 1510856996.259105: $GPZDA,182955.00,16,11,2017,00,00*67
2017-11-16 13:29:56 1510856996.259272: $GPGGA,182955,3946.9615,N,08404.9845,W,2,12,0.80,303.96,M,-33.324,M,,*76
2017-11-16 13:29:56 1510856996.259332: $GPRMC,182955,A,3946.9615,N,08404.9845,W,0.0000,0.000,161117,,*37
2017-11-16 13:29:56 1510856996.259389: $GPGSA,A,3,10,13,15,18,20,21,24,27,29,5,32,138,1.6,0.8,1.3*36
2017-11-16 13:29:57 1510856997.623208: $GPGSV,3,1,12,10,27,286,42,13,24,045,46,15,56,049,51,18,58,306,45*7F
2017-11-16 13:29:57 1510856997.623378: $GPGSV,3,2,12,20,47,078,47,21,78,244,46,24,38,135,44,27,18,309,42*70
2017-11-16 13:29:57 1510856997.623438: $GPGSV,3,3,12,29,05,187,22,05,01,090,22,32,05,228,30,138,38,213,45*48
2017-11-16 13:29:57 1510856997.736500: $GPZDA,182956.00,16,11,2017,00,00*64
2017-11-16 13:29:57 1510856997.736661: $GPGGA,182956,3946.9615,N,08404.9845,W,2,12,0.80,303.96,M,-33.324,M,,*75
2017-11-16 13:29:57 1510856997.736723: $GPRMC,182956,A,3946.9615,N,08404.9845,W,0.0000,0.000,161117,,*34
2017-11-16 13:29:57 1510856997.736779: $GPGSA,A,3,10,13,15,18,20,21,24,27,29,5,32,138,1.6,0.8,1.3*36
