2017-12-01 16:52:23 1512165143.023945: {"class":"VERSION","release":"3.16","rev":"3.16-4","proto_major":3,"proto_minor":11}
2017-12-01 16:52:23 1512165143.024353: {"class":"DEVICES","devices":[{"class":"DEVICE","path":"/dev/ttyUSB0","driver":"SiRF","subtype":"9\u0006GSD4e_4.1.2-P1_RPATCH.05-F-GPS-4R-1510281 11/03/2015 307","activated":"2017-12-01T21:52:22.536Z","flags":1,"native":1,"bps":4800,"parity":"N","stopbits":1,"cycle":1.00}]}
2017-12-01 16:52:23 1512165143.024475: {"class":"WATCH","enable":true,"json":false,"nmea":true,"raw":0,"scaled":false,"timing":false,"split24":false,"pps":false}
2017-12-01 16:52:23 1512165143.395630: $GPZDA,215224.00,01,12,2017,00,00*62
2017-12-01 16:52:23 1512165143.395812: $GPGGA,215224,3946.9645,N,08404.9735,W,2,12,0.80,300.31,M,-33.324,M,,*75
2017-12-01 16:52:23 1512165143.395884: $GPRMC,215224,A,3946.9645,N,08404.9735,W,0.0000,0.000,011217,,*3F
2017-12-01 16:52:23 1512165143.395951: $GPGSA,A,3,1,3,10,14,22,31,32,25,18,12,26,138,2.0,0.8,1.5*0A
2017-12-01 16:52:24 1512165144.712536: $GPGSV,3,1,12,01,22,291,43,03,08,316,37,10,38,151,38,14,69,351,45*77
2017-12-01 16:52:24 1512165144.712715: $GPGSV,3,2,12,22,27,310,46,31,66,235,49,32,64,052,48,25,41,078,27*75
2017-12-01 16:52:24 1512165144.712783: $GPGSV,3,3,12,18,09,147,17,12,17,042,08,26,11,181,33,138,38,213,34*4F
2017-12-01 16:52:24 1512165144.825946: $GPZDA,215225.00,01,12,2017,00,00*63
2017-12-01 16:52:24 1512165144.826087: $GPGGA,215225,3946.9645,N,08404.9735,W,2,12,0.80,300.31,M,-33.324,M,,*74
2017-12-01 16:52:24 1512165144.826155: $GPRMC,215225,A,3946.9645,N,08404.9735,W,0.0000,0.000,011217,,*3E
2017-12-01 16:52:24 1512165144.826215: $GPGSA,A,3,1,3,10,14,22,31,32,25,18,12,26,138,2.0,0.8,1.5*0A
2017-12-01 16:52:25 1512165145.451690: $GPZDA,215226.00,01,12,2017,00,00*60
2017-12-01 16:52:25 1512165145.451858: $GPGGA,215226,3946.9645,N,08404.9735,W,2,12,0.80,300.31,M,-33.324,M,,*77
2017-12-01 16:52:25 1512165145.451928: $GPRMC,215226,A,3946.9645,N,08404.9735,W,0.0000,0.000,011217,,*3D
2017-12-01 16:52:25 1512165145.451989: $GPGSA,A,3,1,3,10,14,22,31,32,25,18,12,26,138,2.0,0.8,1.5*0A
2017-12-01 16:52:26 1512165146.394681: $GPZDA,215227.00,01,12,2017,00,00*61
2017-12-01 16:52:26 1512165146.394870: $GPGGA,215227,3946.9645,N,08404.9735,W,2,12,0.80,300.31,M,-33.324,M,,*76
2017-12-01 16:52:26 1512165146.394954: $GPRMC,215227,A,3946.9645,N,08404.9735,W,0.0000,0.000,011217,,*3C
2017-12-01 16:52:26 1512165146.395016: $GPGSA,A,3,1,3,10,14,22,31,32,25,18,12,26,138,2.0,0.8,1.5*0A
2017-12-01 16:52:27 1512165147.731655: $GPGSV,3,1,12,01,22,291,43,03,08,316,37,10,38,151,37,14,69,351,46*7B
2017-12-01 16:52:27 1512165147.731854: $GPGSV,3,2,12,22,27,310,46,31,66,235,49,32,64,052,48,25,41,078,27*75
2017-12-01 16:52:27 1512165147.731938: $GPGSV,3,3,12,18,09,147,18,12,17,042,15,26,11,181,33,138,38,213,38*40
2017-12-01 16:52:27 1512165147.845069: $GPZDA,215228.00,01,12,2017,00,00*6E
2017-12-01 16:52:27 1512165147.845254: $GPGGA,215228,3946.9645,N,08404.9735,W,2,12,0.80,300.31,M,-33.324,M,,*79
2017-12-01 16:52:27 1512165147.845343: $GPRMC,215228,A,3946.9645,N,08404.9735,W,0.0000,0.000,011217,,*33
2017-12-01 16:52:27 1512165147.845407: $GPGSA,A,3,1,3,10,14,22,31,32,25,18,12,26,138,2.0,0.8,1.5*0A
2017-12-01 16:52:28 1512165148.395967: $GPZDA,215229.00,01,12,2017,00,00*6F
2017-12-01 16:52:28 1512165148.396138: $GPGGA,215229,3946.9645,N,08404.9735,W,2,12,0.80,300.31,M,-33.324,M,,*78
2017-12-01 16:52:28 1512165148.396204: $GPRMC,215229,A,3946.9645,N,08404.9735,W,0.0000,0.000,011217,,*32
2017-12-01 16:52:28 1512165148.396265: $GPGSA,A,3,1,3,10,14,22,31,32,25,18,12,26,138,2.0,0.8,1.5*0A
2017-12-01 16:52:29 1512165149.394271: $GPZDA,215230.00,01,12,2017,00,00*67
2017-12-01 16:52:29 1512165149.394444: $GPGGA,215230,3946.9645,N,08404.9735,W,2,12,0.80,300.31,M,-33.324,M,,*70
2017-12-01 16:52:29 1512165149.394511: $GPRMC,215230,A,3946.9645,N,08404.9735,W,0.0000,0.000,011217,,*3A
2017-12-01 16:52:29 1512165149.394571: $GPGSA,A,3,1,3,10,14,22,31,32,25,18,12,26,138,2.0,0.8,1.5*0A
2017-12-01 16:52:30 1512165150.714609: $GPGSV,3,1,12,01,22,291,43,03,08,316,38,10,38,151,37,14,69,351,46*74
2017-12-01 16:52:30 1512165150.714893: $GPGSV,3,2,12,22,27,310,46,31,66,235,49,32,64,052,48,25,41,078,27*75
2017-12-01 16:52:30 1512165150.714962: $GPGSV,3,3,12,18,09,147,19,12,17,042,16,26,11,181,33,138,38,213,39*43
2017-12-01 16:52:30 1512165150.828282: $GPZDA,215231.00,01,12,2017,00,00*66
2017-12-01 16:52:30 1512165150.828451: $GPGGA,215231,3946.9645,N,08404.9735,W,2,12,0.80,300.31,M,-33.324,M,,*71
2017-12-01 16:52:30 1512165150.828518: $GPRMC,215231,A,3946.9645,N,08404.9735,W,0.0000,0.000,011217,,*3B
2017-12-01 16:52:30 1512165150.828578: $GPGSA,A,3,1,3,10,14,22,31,32,25,18,12,26,138,2.0,0.8,1.5*0A
2017-12-01 16:52:31 1512165151.380332: $GPZDA,215232.00,01,12,2017,00,00*65
2017-12-01 16:52:31 1512165151.380505: $GPGGA,215232,3946.9646,N,08404.9742,W,2,12,0.80,300.23,M,-33.324,M,,*72
2017-12-01 16:52:31 1512165151.380573: $GPRMC,215232,A,3946.9646,N,08404.9742,W,0.0000,0.000,011217,,*3B
2017-12-01 16:52:31 1512165151.380634: $GPGSA,A,3,1,3,10,14,22,31,32,25,18,12,26,138,2.0,0.8,1.5*0A
2017-12-01 16:52:32 1512165152.378373: $GPZDA,215233.00,01,12,2017,00,00*64
2017-12-01 16:52:32 1512165152.378542: $GPGGA,215233,3946.9646,N,08404.9742,W,2,12,0.80,300.23,M,-33.324,M,,*73
2017-12-01 16:52:32 1512165152.378609: $GPRMC,215233,A,3946.9646,N,08404.9742,W,0.0000,0.000,011217,,*3A
2017-12-01 16:52:32 1512165152.378669: $GPGSA,A,3,1,3,10,14,22,31,32,25,18,12,26,138,2.0,0.8,1.5*0A
2017-12-01 16:52:33 1512165153.712833: $GPGSV,3,1,12,01,22,291,42,03,08,316,38,10,38,151,36,14,69,351,45*77
2017-12-01 16:52:33 1512165153.713032: $GPGSV,3,2,12,22,27,310,46,31,66,235,49,32,64,052,48,25,41,078,27*75
2017-12-01 16:52:33 1512165153.713101: $GPGSV,3,3,12,18,09,147,19,12,17,042,22,26,11,181,27,138,38,213,39*41
2017-12-01 16:52:33 1512165153.826205: $GPZDA,215234.00,01,12,2017,00,00*63
2017-12-01 16:52:33 1512165153.826348: $GPGGA,215234,3946.9646,N,08404.9742,W,2,12,0.80,300.23,M,-33.324,M,,*74
2017-12-01 16:52:33 1512165153.826414: $GPRMC,215234,A,3946.9646,N,08404.9742,W,0.0000,0.000,011217,,*3D
2017-12-01 16:52:33 1512165153.826475: $GPGSA,A,3,1,3,10,14,22,31,32,25,18,12,26,138,2.0,0.8,1.5*0A
2017-12-01 16:52:34 1512165154.378488: $GPZDA,215235.00,01,12,2017,00,00*62
2017-12-01 16:52:34 1512165154.378656: $GPGGA,215235,3946.9646,N,08404.9742,W,2,12,0.80,300.23,M,-33.324,M,,*75
2017-12-01 16:52:34 1512165154.378748: $GPRMC,215235,A,3946.9646,N,08404.9742,W,0.0000,0.000,011217,,*3C
2017-12-01 16:52:34 1512165154.378810: $GPGSA,A,3,1,3,10,14,22,31,32,25,18,12,26,138,2.0,0.8,1.5*0A
2017-12-01 16:52:35 1512165155.379158: $GPZDA,215236.00,01,12,2017,00,00*61
2017-12-01 16:52:35 1512165155.379325: $GPGGA,215236,3946.9646,N,08404.9742,W,2,12,0.80,300.23,M,-33.324,M,,*76
2017-12-01 16:52:35 1512165155.379391: $GPRMC,215236,A,3946.9646,N,08404.9742,W,0.0000,0.000,011217,,*3F
2017-12-01 16:52:35 1512165155.379452: $GPGSA,A,3,1,3,10,14,22,31,32,25,18,12,26,138,2.0,0.8,1.5*0A
2017-12-01 16:52:36 1512165156.711946: $GPGSV,3,1,12,01,22,291,42,03,08,316,38,10,38,151,36,14,69,351,45*77
2017-12-01 16:52:36 1512165156.712129: $GPGSV,3,2,12,22,27,310,46,31,66,235,49,32,64,052,48,25,41,078,23*71
2017-12-01 16:52:36 1512165156.712197: $GPGSV,3,3,12,18,09,147,19,12,17,042,23,26,11,181,29,138,38,213,38*4F
2017-12-01 16:52:36 1512165156.825349: $GPZDA,215237.00,01,12,2017,00,00*60
2017-12-01 16:52:36 1512165156.825524: $GPGGA,215237,3946.9646,N,08404.9742,W,2,12,0.80,300.23,M,-33.324,M,,*77
2017-12-01 16:52:36 1512165156.825593: $GPRMC,215237,A,3946.9646,N,08404.9742,W,0.0000,0.000,011217,,*3E
2017-12-01 16:52:36 1512165156.825656: $GPGSA,A,3,1,3,10,14,22,31,32,25,18,12,26,138,2.0,0.8,1.5*0A
2017-12-01 16:52:37 1512165157.377517: $GPZDA,215238.00,01,12,2017,00,00*6F
2017-12-01 16:52:37 1512165157.377689: $GPGGA,215238,3946.9646,N,08404.9742,W,2,12,0.80,300.23,M,-33.324,M,,*78
2017-12-01 16:52:37 1512165157.377777: $GPRMC,215238,A,3946.9646,N,08404.9742,W,0.0000,0.000,011217,,*31
2017-12-01 16:52:37 1512165157.377856: $GPGSA,A,3,1,3,10,14,22,31,32,25,18,12,26,138,2.0,0.8,1.5*0A
2017-12-01 16:52:38 1512165158.378597: $GPZDA,215239.00,01,12,2017,00,00*6E
2017-12-01 16:52:38 1512165158.378792: $GPGGA,215239,3946.9650,N,08404.9742,W,2,12,0.80,300.87,M,-33.324,M,,*70
2017-12-01 16:52:38 1512165158.378878: $GPRMC,215239,A,3946.9650,N,08404.9742,W,0.0000,0.000,011217,,*37
2017-12-01 16:52:38 1512165158.378940: $GPGSA,A,3,1,3,10,14,22,31,32,25,18,12,26,138,2.0,0.8,1.5*0A
2017-12-01 16:52:39 1512165159.714056: $GPGSV,3,1,12,01,22,291,42,03,08,316,38,10,38,151,36,14,69,351,45*77
2017-12-01 16:52:39 1512165159.714208: $GPGSV,3,2,12,22,27,310,46,31,66,235,49,32,64,052,48,25,41,078,22*70
2017-12-01 16:52:39 1512165159.714273: $GPGSV,3,3,12,18,09,147,20,12,17,042,23,26,11,181,30,138,38,213,40*42
2017-12-01 16:52:39 1512165159.827388: $GPZDA,215240.00,01,12,2017,00,00*60
2017-12-01 16:52:39 1512165159.827554: $GPGGA,215240,3946.9650,N,08404.9742,W,2,12,0.80,300.87,M,-33.324,M,,*7E
2017-12-01 16:52:39 1512165159.827620: $GPRMC,215240,A,3946.9650,N,08404.9742,W,0.0000,0.000,011217,,*39
2017-12-01 16:52:39 1512165159.827681: $GPGSA,A,3,1,3,10,14,22,31,32,25,18,12,26,138,2.0,0.8,1.5*0A
2017-12-01 16:52:40 1512165160.452804: $GPZDA,215241.00,01,12,2017,00,00*61
2017-12-01 16:52:40 1512165160.452997: $GPGGA,215241,3946.9650,N,08404.9742,W,2,12,0.80,300.87,M,-33.324,M,,*7F
2017-12-01 16:52:40 1512165160.453065: $GPRMC,215241,A,3946.9650,N,08404.9742,W,0.0000,0.000,011217,,*38
2017-12-01 16:52:40 1512165160.453126: $GPGSA,A,3,1,3,10,14,22,31,32,25,18,12,26,138,2.0,0.8,1.5*0A
2017-12-01 16:52:41 1512165161.377436: $GPZDA,215242.00,01,12,2017,00,00*62
2017-12-01 16:52:41 1512165161.377629: $GPGGA,215242,3946.9650,N,08404.9742,W,2,12,0.80,300.87,M,-33.324,M,,*7C
2017-12-01 16:52:41 1512165161.377717: $GPRMC,215242,A,3946.9650,N,08404.9742,W,0.0000,0.000,011217,,*3B
2017-12-01 16:52:41 1512165161.377781: $GPGSA,A,3,1,3,10,14,22,31,32,25,18,12,26,138,2.0,0.8,1.5*0A
2017-12-01 16:52:42 1512165162.714404: $GPGSV,3,1,12,01,22,291,42,03,08,316,38,10,38,151,35,14,69,351,45*74
2017-12-01 16:52:42 1512165162.714588: $GPGSV,3,2,12,22,27,310,47,31,66,235,49,32,64,052,48,25,41,078,21*72
2017-12-01 16:52:42 1512165162.714656: $GPGSV,3,3,12,18,09,147,20,12,17,042,23,26,11,181,30,138,38,213,41*43
2017-12-01 16:52:42 1512165162.828043: $GPZDA,215243.00,01,12,2017,00,00*63
2017-12-01 16:52:42 1512165162.828225: $GPGGA,215243,3946.9650,N,08404.9742,W,2,12,0.80,300.87,M,-33.324,M,,*7D
2017-12-01 16:52:42 1512165162.828293: $GPRMC,215243,A,3946.9650,N,08404.9742,W,0.0000,0.000,011217,,*3A
2017-12-01 16:52:42 1512165162.828355: $GPGSA,A,3,1,3,10,14,22,31,32,25,18,12,26,138,2.0,0.8,1.5*0A
