2017-11-16 13:19:04 1510856344.287470: {"class":"VERSION","release":"3.17","rev":"3.17","proto_major":3,"proto_minor":12}
2017-11-16 13:19:04 1510856344.288062: {"class":"DEVICES","devices":[{"class":"DEVICE","path":"/dev/ttyUSB0","driver":"SiRF","subtype":"9\u0006GSD4e_4.1.2-P1_RPATCH.05-F-GPS-4R-1510281 11/03/2015 307","activated":"2017-11-16T18:19:04.177Z","flags":1,"native":1,"bps":4800,"parity":"N","stopbits":1,"cycle":1.00}]}
2017-11-16 13:19:04 1510856344.288186: {"class":"WATCH","enable":true,"json":false,"nmea":true,"raw":0,"scaled":false,"timing":false,"split24":false,"pps":false}
2017-11-16 13:19:04 1510856344.291065: $GPZDA,181903.00,16,11,2017,00,00*67
2017-11-16 13:19:04 1510856344.291237: $GPGGA,181903,3946.9590,N,08404.9845,W,2,12,0.80,300.12,M,-33.324,M,,*77
2017-11-16 13:19:04 1510856344.291299: $GPRMC,181903,A,3946.9590,N,08404.9845,W,0.0000,0.000,161117,,*39
2017-11-16 13:19:04 1510856344.291355: $GPGSA,A,3,10,13,15,18,20,21,24,27,5,29,32,138,1.6,0.8,1.3*36
2017-11-16 13:19:05 1510856345.310973: $GPZDA,181904.00,16,11,2017,00,00*60
2017-11-16 13:19:05 1510856345.311141: $GPGGA,181904,3946.9590,N,08404.9845,W,2,12,0.80,300.12,M,-33.324,M,,*70
2017-11-16 13:19:05 1510856345.311203: $GPRMC,181904,A,3946.9590,N,08404.9845,W,0.0000,0.000,161117,,*3E
2017-11-16 13:19:05 1510856345.311259: $GPGSA,A,3,10,13,15,18,20,21,24,27,5,29,32,138,1.6,0.8,1.3*36
2017-11-16 13:19:06 1510856346.627921: $GPGSV,3,1,12,10,23,283,43,13,29,045,47,15,61,051,50,18,54,300,46*76
2017-11-16 13:19:06 1510856346.628073: $GPGSV,3,2,12,20,51,072,47,21,78,270,47,24,33,138,42,27,16,313,41*7D
2017-11-16 13:19:06 1510856346.628150: $GPGSV,3,3,12,05,04,087,24,29,09,189,32,32,01,225,20,138,38,213,46*45
2017-11-16 13:19:06 1510856346.741257: $GPZDA,181905.00,16,11,2017,00,00*61
2017-11-16 13:19:06 1510856346.741442: $GPGGA,181905,3946.9590,N,08404.9845,W,2,12,0.80,300.12,M,-33.324,M,,*71
2017-11-16 13:19:06 1510856346.741504: $GPRMC,181905,A,3946.9590,N,08404.9845,W,0.0000,0.000,161117,,*3F
2017-11-16 13:19:06 1510856346.741560: $GPGSA,A,3,10,13,15,18,20,21,24,27,5,29,32,138,1.6,0.8,1.3*36
2017-11-16 13:19:07 1510856347.310852: $GPZDA,181906.00,16,11,2017,00,00*62
2017-11-16 13:19:07 1510856347.311025: $GPGGA,181906,3946.9590,N,08404.9845,W,2,12,0.80,300.12,M,-33.324,M,,*72
2017-11-16 13:19:07 1510856347.311086: $GPRMC,181906,A,3946.9590,N,08404.9845,W,0.0000,0.000,161117,,*3C
2017-11-16 13:19:07 1510856347.311143: $GPGSA,A,3,10,13,15,18,20,21,24,27,5,29,32,138,1.6,0.8,1.3*36
2017-11-16 13:19:08 1510856348.284139: $GPZDA,181907.00,16,11,2017,00,00*63
2017-11-16 13:19:08 1510856348.284303: $GPGGA,181907,3946.9590,N,08404.9845,W,2,12,0.80,300.12,M,-33.324,M,,*73
2017-11-16 13:19:08 1510856348.284365: $GPRMC,181907,A,3946.9590,N,08404.9845,W,0.0000,0.000,161117,,*3D
2017-11-16 13:19:08 1510856348.284438: $GPGSA,A,3,10,13,15,18,20,21,24,27,5,29,32,138,1.6,0.8,1.3*36
2017-11-16 13:19:09 1510856349.646186: $GPGSV,3,1,12,10,23,283,43,13,29,045,47,15,61,051,51,18,54,300,46*77
2017-11-16 13:19:09 1510856349.646349: $GPGSV,3,2,12,20,51,072,47,21,78,270,47,24,33,138,42,27,16,313,41*7D
2017-11-16 13:19:09 1510856349.646410: $GPGSV,3,3,12,05,04,087,24,29,09,189,32,32,01,225,19,138,38,213,45*4C
2017-11-16 13:19:09 1510856349.759436: $GPZDA,181908.00,16,11,2017,00,00*6C
2017-11-16 13:19:09 1510856349.759589: $GPGGA,181908,3946.9590,N,08404.9845,W,2,12,0.80,300.12,M,-33.324,M,,*7C
2017-11-16 13:19:09 1510856349.759648: $GPRMC,181908,A,3946.9590,N,08404.9845,W,0.0000,0.000,161117,,*32
2017-11-16 13:19:09 1510856349.759704: $GPGSA,A,3,10,13,15,18,20,21,24,27,5,29,32,138,1.6,0.8,1.3*36
2017-11-16 13:19:10 1510856350.384796: $GPZDA,181909.00,16,11,2017,00,00*6D
2017-11-16 13:19:10 1510856350.384982: $GPGGA,181909,3946.9590,N,08404.9845,W,2,12,0.80,300.12,M,-33.324,M,,*7D
2017-11-16 13:19:10 1510856350.385065: $GPRMC,181909,A,3946.9590,N,08404.9845,W,0.0000,0.000,161117,,*33
2017-11-16 13:19:10 1510856350.385123: $GPGSA,A,3,10,13,15,18,20,21,24,27,5,29,32,138,1.6,0.8,1.3*36
2017-11-16 13:19:11 1510856351.309400: $GPZDA,181910.00,16,11,2017,00,00*65
2017-11-16 13:19:11 1510856351.309621: $GPGGA,181910,3946.9590,N,08404.9845,W,2,12,0.80,300.12,M,-33.324,M,,*75
2017-11-16 13:19:11 1510856351.309687: $GPRMC,181910,A,3946.9590,N,08404.9845,W,0.0000,0.000,161117,,*3B
2017-11-16 13:19:11 1510856351.309744: $GPGSA,A,3,10,13,15,18,20,21,24,27,5,29,32,138,1.6,0.8,1.3*36
2017-11-16 13:19:12 1510856352.646403: $GPGSV,3,1,12,10,23,283,42,13,29,045,47,15,61,051,51,18,54,300,46*76
2017-11-16 13:19:12 1510856352.646570: $GPGSV,3,2,12,20,51,072,47,21,78,270,47,24,33,138,43,27,16,313,42*7F
2017-11-16 13:19:12 1510856352.646631: $GPGSV,3,3,12,05,04,087,23,29,09,189,32,32,01,225,06,138,38,213,45*45
2017-11-16 13:19:12 1510856352.759677: $GPZDA,181911.00,16,11,2017,00,00*64
2017-11-16 13:19:12 1510856352.759831: $GPGGA,181911,3946.9590,N,08404.9845,W,2,11,0.80,300.12,M,-33.324,M,,*77
2017-11-16 13:19:12 1510856352.759892: $GPRMC,181911,A,3946.9590,N,08404.9845,W,0.0000,0.000,161117,,*3A
2017-11-16 13:19:12 1510856352.759948: $GPGSA,A,3,10,13,15,18,20,21,24,27,5,29,138,,1.6,0.8,1.3*37
2017-11-16 13:19:13 1510856353.293044: $GPZDA,181912.00,16,11,2017,00,00*67
2017-11-16 13:19:13 1510856353.293206: $GPGGA,181912,3946.9590,N,08404.9845,W,2,11,0.80,300.12,M,-33.324,M,,*74
2017-11-16 13:19:13 1510856353.293268: $GPRMC,181912,A,3946.9590,N,08404.9845,W,0.0000,0.000,161117,,*39
2017-11-16 13:19:13 1510856353.293324: $GPGSA,A,3,10,13,15,18,20,21,24,27,5,29,138,,1.6,0.8,1.3*37
2017-11-16 13:19:14 1510856354.312713: $GPZDA,181913.00,16,11,2017,00,00*66
2017-11-16 13:19:14 1510856354.312877: $GPGGA,181913,3946.9590,N,08404.9845,W,2,11,0.80,300.12,M,-33.324,M,,*75
2017-11-16 13:19:14 1510856354.312956: $GPRMC,181913,A,3946.9590,N,08404.9845,W,0.0000,0.000,161117,,*38
2017-11-16 13:19:14 1510856354.313014: $GPGSA,A,3,10,13,15,18,20,21,24,27,5,29,138,,1.6,0.8,1.3*37
