2017-11-15 18:14:08 1510787648.482182: {"class":"VERSION","release":"3.17","rev":"3.17","proto_major":3,"proto_minor":12}
2017-11-15 18:14:08 1510787648.482656: {"class":"DEVICES","devices":[{"class":"DEVICE","path":"/dev/ttyUSB0","driver":"SiRF","subtype":"9\u0006GSD4e_4.1.2-P1_RPATCH.05-F-GPS-4R-1510281 11/03/2015 307","activated":"2017-11-15T23:14:08.472Z","flags":1,"native":1,"bps":4800,"parity":"N","stopbits":1,"cycle":1.00}]}
2017-11-15 18:14:08 1510787648.482776: {"class":"WATCH","enable":true,"json":false,"nmea":true,"raw":0,"scaled":false,"timing":false,"split24":false,"pps":false}
2017-11-15 18:14:09 1510787649.665511: $GPGSV,3,1,12,10,30,154,19,22,32,307,14,01,21,283,16,26,17,180,13*77
2017-11-15 18:14:09 1510787649.665686: $GPGSV,3,2,12,31,71,249,04,32,61,064,18,25,39,067,16,14,70,013,00*72
2017-11-15 18:14:09 1510787649.665747: $GPGSV,3,3,12,03,13,316,00,12,13,037,00,18,03,148,00,135,23,238,00*42
2017-11-15 18:14:09 1510787649.778856: $GPZDA,231408.00,15,11,2017,00,00*6A
2017-11-15 18:14:09 1510787649.779021: $GPGGA,231408,3946.9522,N,08404.9621,W,1,06,1.60,304.37,M,-33.324,M,,*76
2017-11-15 18:14:09 1510787649.779082: $GPRMC,231408,A,3946.9522,N,08404.9621,W,0.4179,148.778,151117,,*3F
2017-11-15 18:14:09 1510787649.779138: $GPGSA,A,3,10,22,1,26,32,25,,,,,,,3.4,1.6,2.9*0B
2017-11-15 18:14:10 1510787650.358619: $GPZDA,231409.00,15,11,2017,00,00*6B
2017-11-15 18:14:10 1510787650.358800: $GPGGA,231409,3946.9517,N,08404.9621,W,1,06,1.60,303.73,M,-33.324,M,,*76
2017-11-15 18:14:10 1510787650.358861: $GPRMC,231409,A,3946.9517,N,08404.9621,W,1.0534,170.904,151117,,*3E
2017-11-15 18:14:10 1510787650.358917: $GPGSA,A,3,10,22,1,26,32,25,,,,,,,3.4,1.6,2.9*0B
2017-11-15 18:14:11 1510787651.357694: $GPZDA,231410.00,15,11,2017,00,00*63
2017-11-15 18:14:11 1510787651.357853: $GPGGA,231410,3946.9517,N,08404.9621,W,1,06,1.60,303.73,M,-33.324,M,,*7E
2017-11-15 18:14:11 1510787651.357914: $GPRMC,231410,A,3946.9517,N,08404.9621,W,0.8359,148.778,151117,,*3C
2017-11-15 18:14:11 1510787651.357989: $GPGSA,A,3,10,22,1,26,32,25,,,,,,,3.4,1.6,2.9*0B
2017-11-15 18:14:12 1510787652.694629: $GPGSV,3,1,12,10,30,154,19,22,32,307,14,01,21,283,15,26,17,180,13*74
2017-11-15 18:14:13 1510787653.135451: $GPGSV,3,2,12,31,71,249,04,32,61,064,18,25,39,067,16,14,70,013,00*72
2017-11-15 18:14:13 1510787653.135632: $GPGSV,3,3,12,03,13,316,00,12,13,037,00,18,03,148,00,135,23,238,00*42
2017-11-15 18:14:13 1510787653.135768: $GPZDA,231411.00,15,11,2017,00,00*62
2017-11-15 18:14:13 1510787653.135822: $GPGGA,231411,3946.9510,N,08404.9622,W,1,06,1.60,303.86,M,-33.324,M,,*71
2017-11-15 18:14:13 1510787653.135879: $GPRMC,231411,A,3946.9510,N,08404.9622,W,0.7238,140.710,151117,,*36
2017-11-15 18:14:13 1510787653.135933: $GPGSA,A,3,10,22,1,26,32,25,,,,,,,3.4,1.6,2.9*0B
2017-11-15 18:14:13 1510787653.330508: $GPZDA,231412.00,15,11,2017,00,00*61
2017-11-15 18:14:13 1510787653.330706: $GPGGA,231412,3946.9510,N,08404.9622,W,1,06,1.60,303.86,M,-33.324,M,,*72
2017-11-15 18:14:13 1510787653.330768: $GPRMC,231412,A,3946.9510,N,08404.9622,W,0.7267,93.794,151117,,*0C
2017-11-15 18:14:13 1510787653.330824: $GPGSA,A,3,10,22,1,26,32,25,,,,,,,3.4,1.6,2.9*0B
2017-11-15 18:14:14 1510787654.358451: $GPZDA,231413.00,15,11,2017,00,00*60
2017-11-15 18:14:14 1510787654.358630: $GPGGA,231413,3946.9510,N,08404.9622,W,1,06,1.60,303.86,M,-33.324,M,,*73
2017-11-15 18:14:14 1510787654.358708: $GPRMC,231413,A,3946.9510,N,08404.9622,W,0.8054,68.645,151117,,*09
2017-11-15 18:14:14 1510787654.358764: $GPGSA,A,3,10,22,1,26,32,25,,,,,,,3.4,1.6,2.9*0B
2017-11-15 18:14:15 1510787655.696835: $GPGSV,3,1,12,10,30,154,19,22,32,307,13,01,21,283,05,26,17,180,13*72
2017-11-15 18:14:15 1510787655.697006: $GPGSV,3,2,12,31,71,249,04,32,61,064,18,25,39,067,16,12,13,037,02*75
2017-11-15 18:14:15 1510787655.697066: $GPGSV,3,3,12,14,70,013,00,03,13,316,00,18,03,148,00,135,23,238,00*47
2017-11-15 18:14:15 1510787655.810446: $GPZDA,231414.00,15,11,2017,00,00*67
2017-11-15 18:14:15 1510787655.810624: $GPGGA,231414,3946.9510,N,08404.9622,W,1,05,1.60,303.86,M,-33.324,M,,*77
2017-11-15 18:14:15 1510787655.810702: $GPRMC,231414,A,3946.9510,N,08404.9622,W,0.5774,27.515,151117,,*0B
2017-11-15 18:14:15 1510787655.810808: $GPGSA,A,3,10,22,26,32,25,,,,,,,,3.4,1.6,2.9*3A
2017-11-15 18:14:16 1510787656.435471: $GPZDA,231415.00,15,11,2017,00,00*66
2017-11-15 18:14:16 1510787656.435672: $GPGGA,231415,3946.9517,N,08404.9614,W,1,05,4.40,303.81,M,-33.324,M,,*74
2017-11-15 18:14:16 1510787656.435733: $GPRMC,231415,A,3946.9517,N,08404.9614,W,1.3044,25.352,151117,,*0C
2017-11-15 18:14:16 1510787656.435789: $GPGSA,A,3,10,22,26,32,25,,,,,,,,3.4,4.4,2.9*3D
2017-11-15 18:14:17 1510787657.327666: $GPZDA,231416.00,15,11,2017,00,00*65
2017-11-15 18:14:17 1510787657.327826: $GPGGA,231416,3946.9517,N,08404.9614,W,1,05,4.40,303.81,M,-33.324,M,,*77
2017-11-15 18:14:17 1510787657.327886: $GPRMC,231416,A,3946.9517,N,08404.9614,W,1.1385,29.379,151117,,*06
2017-11-15 18:14:17 1510787657.327941: $GPGSA,A,3,10,22,26,32,25,,,,,,,,3.4,4.4,2.9*3D
2017-11-15 18:14:18 1510787658.664580: $GPGSV,3,1,12,10,30,154,20,22,32,307,07,01,21,283,06,26,17,180,13*7E
2017-11-15 18:14:18 1510787658.664770: $GPGSV,3,2,12,31,71,249,00,32,61,064,18,25,39,067,15,12,13,037,04*74
2017-11-15 18:14:18 1510787658.664829: $GPGSV,3,3,12,14,70,013,00,03,13,316,00,18,03,148,00,135,23,238,00*47
2017-11-15 18:14:18 1510787658.778079: $GPZDA,231417.00,15,11,2017,00,00*64
2017-11-15 18:14:18 1510787658.778256: $GPGGA,231417,3946.9517,N,08404.9614,W,1,05,4.40,303.81,M,-33.324,M,,*76
2017-11-15 18:14:18 1510787658.778318: $GPRMC,231417,A,3946.9517,N,08404.9614,W,1.0018,50.691,151117,,*0C
2017-11-15 18:14:18 1510787658.778374: $GPGSA,A,3,10,22,26,32,25,,,,,,,,3.4,4.4,2.9*3D
2017-11-15 18:14:19 1510787659.357664: $GPZDA,231418.00,15,11,2017,00,00*6B
2017-11-15 18:14:19 1510787659.357838: $GPGGA,231418,3946.9517,N,08404.9614,W,1,05,1.60,303.81,M,-33.324,M,,*7E
2017-11-15 18:14:19 1510787659.357900: $GPRMC,231418,A,3946.9517,N,08404.9614,W,1.4115,34.536,151117,,*07
2017-11-15 18:14:19 1510787659.357955: $GPGSA,A,3,10,22,26,32,25,,,,,,,,3.4,1.6,2.9*3A
2017-11-15 18:14:20 1510787660.357220: $GPZDA,231419.00,15,11,2017,00,00*6A
2017-11-15 18:14:20 1510787660.357382: $GPGGA,231419,3946.9525,N,08404.9614,W,1,05,1.60,303.69,M,-33.324,M,,*78
2017-11-15 18:14:20 1510787660.357443: $GPRMC,231419,A,3946.9525,N,08404.9614,W,1.1385,29.379,151117,,*08
2017-11-15 18:14:20 1510787660.357497: $GPGSA,A,3,10,22,26,32,25,,,,,,,,3.4,1.6,2.9*3A
2017-11-15 18:14:21 1510787661.692627: $GPGSV,3,1,12,10,30,154,20,22,32,307,12,01,21,283,07,26,17,180,12*7A
2017-11-15 18:14:21 1510787661.692806: $GPGSV,3,2,12,31,71,249,00,32,61,064,18,25,39,067,13,12,13,037,04*72
2017-11-15 18:14:21 1510787661.692866: $GPGSV,3,3,12,14,70,013,00,03,13,316,00,18,03,148,00,135,23,238,00*47
2017-11-15 18:14:21 1510787661.806145: $GPZDA,231420.00,15,11,2017,00,00*60
2017-11-15 18:14:21 1510787661.806302: $GPGGA,231420,3946.9525,N,08404.9614,W,1,06,1.60,303.69,M,-33.324,M,,*71
2017-11-15 18:14:21 1510787661.806361: $GPRMC,231420,A,3946.9525,N,08404.9614,W,1.3044,25.352,151117,,*0B
2017-11-15 18:14:21 1510787661.806417: $GPGSA,A,3,10,22,1,26,32,25,,,,,,,3.4,1.6,2.9*0B
2017-11-15 18:14:22 1510787662.329265: $GPZDA,231421.00,15,11,2017,00,00*61
2017-11-15 18:14:22 1510787662.329473: $GPGGA,231421,3946.9528,N,08404.9607,W,1,06,1.60,304.41,M,-33.324,M,,*72
2017-11-15 18:14:22 1510787662.329551: $GPRMC,231421,A,3946.9528,N,08404.9607,W,1.2621,39.347,151117,,*08
2017-11-15 18:14:22 1510787662.329608: $GPGSA,A,3,10,22,1,26,32,25,,,,,,,3.4,1.6,2.9*0B
2017-11-15 18:14:23 1510787663.330066: $GPZDA,231422.00,15,11,2017,00,00*62
2017-11-15 18:14:23 1510787663.330221: $GPGGA,231422,3946.9528,N,08404.9607,W,1,06,1.60,304.41,M,-33.324,M,,*71
2017-11-15 18:14:23 1510787663.330283: $GPRMC,231422,A,3946.9528,N,08404.9607,W,1.4167,47.342,151117,,*04
2017-11-15 18:14:23 1510787663.330339: $GPGSA,A,3,10,22,1,26,32,25,,,,,,,3.4,1.6,2.9*0B
2017-11-15 18:14:24 1510787664.665820: $GPGSV,3,1,12,10,30,154,20,22,32,307,12,01,21,283,07,26,17,180,10*78
2017-11-15 18:14:24 1510787664.665977: $GPGSV,3,2,12,31,71,249,00,32,61,064,18,25,39,067,13,12,13,037,04*72
2017-11-15 18:14:24 1510787664.666081: $GPGSV,3,3,12,14,70,013,00,03,13,316,00,18,03,148,00,135,23,238,00*47
2017-11-15 18:14:24 1510787664.781316: $GPZDA,231423.00,15,11,2017,00,00*63
2017-11-15 18:14:24 1510787664.781527: $GPGGA,231423,3946.9532,N,08404.9606,W,1,06,1.60,303.64,M,-33.324,M,,*7A
2017-11-15 18:14:24 1510787664.781647: $GPRMC,231423,A,3946.9532,N,08404.9606,W,1.0018,50.691,151117,,*0F
2017-11-15 18:14:24 1510787664.781706: $GPGSA,A,3,10,22,1,26,32,25,,,,,,,3.4,1.6,2.9*0B
2017-11-15 18:14:25 1510787665.330441: $GPZDA,231424.00,15,11,2017,00,00*64
2017-11-15 18:14:25 1510787665.330637: $GPGGA,231424,3946.9532,N,08404.9606,W,1,06,1.80,303.64,M,-33.324,M,,*73
2017-11-15 18:14:25 1510787665.330699: $GPRMC,231424,A,3946.9532,N,08404.9606,W,1.2621,39.347,151117,,*07
2017-11-15 18:14:25 1510787665.330756: $GPGSA,A,3,10,22,1,26,32,25,,,,,,,3.4,1.8,2.9*05
2017-11-15 18:14:26 1510787666.330419: $GPZDA,231425.00,15,11,2017,00,00*65
2017-11-15 18:14:26 1510787666.330619: $GPGGA,231425,3946.9531,N,08404.9599,W,1,06,1.60,303.72,M,-33.324,M,,*7D
2017-11-15 18:14:26 1510787666.330681: $GPRMC,231425,A,3946.9531,N,08404.9599,W,0.8414,39.347,151117,,*0F
2017-11-15 18:14:26 1510787666.330737: $GPGSA,A,3,10,22,1,26,32,25,,,,,,,3.4,1.6,2.9*0B
2017-11-15 18:14:27 1510787667.693664: $GPGSV,3,1,12,10,30,154,20,22,32,307,13,01,21,283,07,26,17,180,04*7C
2017-11-15 18:14:27 1510787667.693838: $GPGSV,3,2,12,31,71,249,16,32,61,064,18,25,39,067,13,12,13,037,04*75
2017-11-15 18:14:27 1510787667.693897: $GPGSV,3,3,12,14,70,013,00,03,13,316,00,18,03,148,00,135,23,238,00*47
2017-11-15 18:14:27 1510787667.807117: $GPZDA,231426.00,15,11,2017,00,00*66
2017-11-15 18:14:27 1510787667.807281: $GPGGA,231426,3946.9536,N,08404.9606,W,1,06,1.20,304.28,M,-33.324,M,,*70
2017-11-15 18:14:27 1510787667.807341: $GPRMC,231426,A,3946.9536,N,08404.9606,W,0.7278,23.636,151117,,*05
2017-11-15 18:14:27 1510787667.807396: $GPGSA,A,3,10,22,1,31,32,25,,,,,,,3.4,1.2,2.9*09
2017-11-15 18:14:28 1510787668.357931: $GPZDA,231427.00,15,11,2017,00,00*67
2017-11-15 18:14:28 1510787668.358085: $GPGGA,231427,3946.9536,N,08404.9606,W,1,06,1.20,304.28,M,-33.324,M,,*71
2017-11-15 18:14:28 1510787668.358146: $GPRMC,231427,A,3946.9536,N,08404.9606,W,0.5951,58.684,151117,,*03
2017-11-15 18:14:28 1510787668.358201: $GPGSA,A,3,10,22,1,31,32,25,,,,,,,3.4,1.2,2.9*09
2017-11-15 18:14:29 1510787669.328820: $GPZDA,231428.00,15,11,2017,00,00*68
2017-11-15 18:14:29 1510787669.328989: $GPGGA,231428,3946.9536,N,08404.9606,W,1,06,1.20,304.28,M,-33.324,M,,*7E
2017-11-15 18:14:29 1510787669.329049: $GPRMC,231428,A,3946.9536,N,08404.9606,W,0.7278,23.636,151117,,*0B
2017-11-15 18:14:29 1510787669.329104: $GPGSA,A,3,10,22,1,31,32,25,,,,,,,3.4,1.2,2.9*09
2017-11-15 18:14:30 1510787670.664519: $GPGSV,3,1,12,10,30,154,20,22,32,307,16,01,21,283,07,26,17,180,04*79
2017-11-15 18:14:30 1510787670.664707: $GPGSV,3,2,12,31,71,249,17,32,61,064,18,25,39,067,14,12,13,037,04*73
2017-11-15 18:14:30 1510787670.664767: $GPGSV,3,3,12,14,70,013,00,03,13,316,00,18,03,148,00,135,23,238,00*47
2017-11-15 18:14:30 1510787670.777957: $GPZDA,231429.00,15,11,2017,00,00*69
2017-11-15 18:14:30 1510787670.778124: $GPGGA,231429,3946.9536,N,08404.9606,W,1,06,1.20,304.28,M,-33.324,M,,*7F
2017-11-15 18:14:30 1510787670.778186: $GPRMC,231429,A,3946.9536,N,08404.9606,W,0.3006,62.539,151117,,*0C
2017-11-15 18:14:30 1510787670.778241: $GPGSA,A,3,10,22,1,31,32,25,,,,,,,3.4,1.2,2.9*09
2017-11-15 18:14:31 1510787671.404546: $GPZDA,231430.00,15,11,2017,00,00*61
2017-11-15 18:14:31 1510787671.404737: $GPGGA,231430,3946.9536,N,08404.9606,W,1,06,1.20,304.28,M,-33.324,M,,*77
2017-11-15 18:14:31 1510787671.404798: $GPRMC,231430,A,3946.9536,N,08404.9606,W,0.5857,158.291,151117,,*33
2017-11-15 18:14:31 1510787671.404854: $GPGSA,A,3,10,22,1,31,32,25,,,,,,,3.4,1.2,2.9*09
2017-11-15 18:14:32 1510787672.329176: $GPZDA,231431.00,15,11,2017,00,00*60
2017-11-15 18:14:32 1510787672.329338: $GPGGA,231431,3946.9532,N,08404.9606,W,1,06,1.20,303.64,M,-33.324,M,,*7D
2017-11-15 18:14:32 1510787672.329485: $GPRMC,231431,A,3946.9532,N,08404.9606,W,0.3423,184.197,151117,,*3B
2017-11-15 18:14:32 1510787672.329544: $GPGSA,A,3,10,22,1,31,32,25,,,,,,,3.4,1.2,2.9*09
2017-11-15 18:14:33 1510787673.692396: $GPGSV,3,1,12,10,30,154,20,22,32,307,17,01,21,283,07,26,17,180,05*79
2017-11-15 18:14:33 1510787673.692601: $GPGSV,3,2,12,31,71,249,18,32,61,064,18,25,39,067,14,12,13,037,04*7C
2017-11-15 18:14:33 1510787673.692663: $GPGSV,3,3,12,14,70,013,00,03,13,316,00,18,03,148,00,135,23,238,00*47
2017-11-15 18:14:33 1510787673.805786: $GPZDA,231432.00,15,11,2017,00,00*63
2017-11-15 18:14:33 1510787673.805950: $GPGGA,231432,3946.9532,N,08404.9606,W,1,06,1.20,303.64,M,-33.324,M,,*7E
2017-11-15 18:14:33 1510787673.806010: $GPRMC,231432,A,3946.9532,N,08404.9606,W,0.2422,93.794,151117,,*0A
2017-11-15 18:14:33 1510787673.806065: $GPGSA,A,3,10,22,1,31,32,25,,,,,,,3.4,1.2,2.9*09
2017-11-15 18:14:34 1510787674.330387: $GPZDA,231433.00,15,11,2017,00,00*62
2017-11-15 18:14:34 1510787674.330597: $GPGGA,231433,3946.9532,N,08404.9606,W,1,06,1.20,303.64,M,-33.324,M,,*7F
2017-11-15 18:14:34 1510787674.330660: $GPRMC,231433,A,3946.9532,N,08404.9606,W,0.4207,39.347,151117,,*06
2017-11-15 18:14:34 1510787674.330715: $GPGSA,A,3,10,22,1,31,32,25,,,,,,,3.4,1.2,2.9*09
2017-11-15 18:14:35 1510787675.328778: $GPZDA,231434.00,15,11,2017,00,00*65
2017-11-15 18:14:35 1510787675.328934: $GPGGA,231434,3946.9529,N,08404.9614,W,1,06,1.20,304.33,M,-33.324,M,,*74
2017-11-15 18:14:35 1510787675.328994: $GPRMC,231434,A,3946.9529,N,08404.9614,W,0.2422,273.794,151117,,*39
2017-11-15 18:14:35 1510787675.329050: $GPGSA,A,3,10,22,1,31,32,25,,,,,,,3.4,1.2,2.9*09
2017-11-15 18:14:36 1510787676.692746: $GPGSV,3,1,12,10,30,154,20,22,32,307,17,01,21,283,08,26,17,180,04*77
2017-11-15 18:14:36 1510787676.692920: $GPGSV,3,2,12,31,71,249,18,32,61,064,18,25,39,067,14,14,70,013,00*7D
2017-11-15 18:14:36 1510787676.692980: $GPGSV,3,3,12,03,13,316,00,12,13,037,00,18,03,148,00,135,23,238,00*42
2017-11-15 18:14:36 1510787676.806093: $GPZDA,231435.00,15,11,2017,00,00*64
2017-11-15 18:14:36 1510787676.806244: $GPGGA,231435,3946.9529,N,08404.9614,W,1,06,1.20,304.33,M,-33.324,M,,*75
2017-11-15 18:14:36 1510787676.806305: $GPRMC,231435,A,3946.9529,N,08404.9614,W,0.0000,0.000,151117,,*32
2017-11-15 18:14:36 1510787676.806361: $GPGSA,A,3,10,22,1,31,32,25,,,,,,,3.4,1.2,2.9*09
2017-11-15 18:14:37 1510787677.329527: $GPZDA,231436.00,15,11,2017,00,00*67
2017-11-15 18:14:37 1510787677.329716: $GPGGA,231436,3946.9529,N,08404.9614,W,1,06,1.20,304.33,M,-33.324,M,,*76
2017-11-15 18:14:37 1510787677.329776: $GPRMC,231436,A,3946.9529,N,08404.9614,W,0.1867,180.000,151117,,*30
2017-11-15 18:14:37 1510787677.329832: $GPGSA,A,3,10,22,1,31,32,25,,,,,,,3.4,1.2,2.9*09
2017-11-15 18:14:38 1510787678.358015: $GPZDA,231437.00,15,11,2017,00,00*66
2017-11-15 18:14:38 1510787678.358179: $GPGGA,231437,3946.9529,N,08404.9621,W,1,06,1.20,304.25,M,-33.324,M,,*76
2017-11-15 18:14:38 1510787678.358240: $GPRMC,231437,A,3946.9529,N,08404.9621,W,0.7278,203.636,151117,,*3E
2017-11-15 18:14:38 1510787678.358295: $GPGSA,A,3,10,22,1,31,32,25,,,,,,,3.4,1.2,2.9*09
