2017-11-15 17:32:54 1510785174.805007: {"class":"VERSION","release":"3.17","rev":"3.17","proto_major":3,"proto_minor":12}
2017-11-15 17:32:54 1510785174.805417: {"class":"DEVICES","devices":[{"class":"DEVICE","path":"/dev/ttyUSB0","driver":"SiRF","subtype":"9\u0006GSD4e_4.1.2-P1_RPATCH.05-F-GPS-4R-1510281 11/03/2015 307","activated":"2017-11-15T22:32:54.736Z","flags":1,"native":1,"bps":4800,"parity":"N","stopbits":1,"cycle":1.00}]}
2017-11-15 17:32:54 1510785174.805542: {"class":"WATCH","enable":true,"json":false,"nmea":true,"raw":0,"scaled":false,"timing":false,"split24":false,"pps":false}
2017-11-15 17:32:55 1510785175.145861: $GPZDA,223254.00,15,11,2017,00,00*66
2017-11-15 17:32:55 1510785175.146027: $GPGGA,223254,3946.9433,N,08404.9355,W,1,06,2.80,342.90,M,-33.324,M,,*7F
2017-11-15 17:32:55 1510785175.146088: $GPRMC,223254,A,3946.9433,N,08404.9355,W,0.0000,0.000,151117,,*3A
2017-11-15 17:32:55 1510785175.146144: $GPGSA,A,3,10,25,32,11,26,31,,,,,,,3.4,2.8,2.9*35
2017-11-15 17:32:56 1510785176.145482: $GPZDA,223255.00,15,11,2017,00,00*67
2017-11-15 17:32:56 1510785176.145650: $GPGGA,223255,3946.9436,N,08404.9347,W,1,06,2.80,342.21,M,-33.324,M,,*72
2017-11-15 17:32:56 1510785176.145738: $GPRMC,223255,A,3946.9436,N,08404.9347,W,0.7576,81.915,151117,,*0A
2017-11-15 17:32:56 1510785176.145821: $GPGSA,A,3,10,25,32,11,26,31,,,,,,,3.4,2.8,2.9*35
2017-11-15 17:32:57 1510785177.481736: $GPGSV,3,1,12,10,49,147,18,25,39,091,26,32,69,024,24,11,09,283,09*79
2017-11-15 17:32:57 1510785177.481902: $GPGSV,3,2,12,12,22,051,04,26,01,184,07,31,54,223,26,01,21,301,04*77
2017-11-15 17:32:57 1510785177.481962: $GPGSV,3,3,12,14,66,325,00,18,19,144,00,22,18,312,00,138,38,213,00*43
2017-11-15 17:32:57 1510785177.595103: $GPZDA,223256.00,15,11,2017,00,00*64
2017-11-15 17:32:57 1510785177.595281: $GPGGA,223256,3946.9440,N,08404.9347,W,1,05,2.80,342.85,M,-33.324,M,,*7D
2017-11-15 17:32:57 1510785177.595342: $GPRMC,223256,A,3946.9440,N,08404.9347,W,1.2621,39.347,151117,,*03
2017-11-15 17:32:57 1510785177.595399: $GPGSA,A,3,10,25,32,11,31,,,,,,,,3.4,2.8,2.9*31
2017-11-15 17:32:58 1510785178.145209: $GPZDA,223257.00,15,11,2017,00,00*65
2017-11-15 17:32:58 1510785178.145372: $GPGGA,223257,3946.9439,N,08404.9340,W,1,05,2.80,342.93,M,-33.324,M,,*72
2017-11-15 17:32:58 1510785178.145433: $GPRMC,223257,A,3946.9439,N,08404.9340,W,1.2621,39.347,151117,,*0B
2017-11-15 17:32:58 1510785178.145489: $GPGSA,A,3,10,25,32,11,31,,,,,,,,3.4,2.8,2.9*31
2017-11-15 17:32:59 1510785179.145305: $GPZDA,223258.00,15,11,2017,00,00*6A
2017-11-15 17:32:59 1510785179.145465: $GPGGA,223258,3946.9439,N,08404.9340,W,1,05,2.80,342.93,M,-33.324,M,,*7D
2017-11-15 17:32:59 1510785179.145525: $GPRMC,223258,A,3946.9439,N,08404.9340,W,1.1902,58.684,151117,,*04
2017-11-15 17:32:59 1510785179.145582: $GPGSA,A,3,10,25,32,11,31,,,,,,,,3.4,2.8,2.9*31
2017-11-15 17:33:00 1510785180.481600: $GPGSV,3,1,12,10,49,147,17,25,39,091,25,32,69,024,24,11,09,283,08*74
2017-11-15 17:33:00 1510785180.481821: $GPGSV,3,2,12,12,22,051,04,26,01,184,04,31,54,223,25,01,21,301,04*77
2017-11-15 17:33:00 1510785180.481883: $GPGSV,3,3,12,14,66,325,00,18,19,144,00,22,18,312,00,138,38,213,00*43
2017-11-15 17:33:00 1510785180.594969: $GPZDA,223259.00,15,11,2017,00,00*6B
2017-11-15 17:33:00 1510785180.595145: $GPGGA,223259,3946.9443,N,08404.9339,W,1,05,2.80,342.17,M,-33.324,M,,*73
2017-11-15 17:33:00 1510785180.595207: $GPRMC,223259,A,3946.9443,N,08404.9339,W,0.8414,39.347,151117,,*09
2017-11-15 17:33:00 1510785180.595264: $GPGSA,A,3,10,25,32,11,31,,,,,,,,3.4,2.8,2.9*31
2017-11-15 17:33:01 1510785181.144826: $GPZDA,223300.00,15,11,2017,00,00*66
2017-11-15 17:33:01 1510785181.144977: $GPGGA,223300,3946.9443,N,08404.9339,W,1,05,2.80,342.17,M,-33.324,M,,*7E
2017-11-15 17:33:01 1510785181.145038: $GPRMC,223300,A,3946.9443,N,08404.9339,W,0.5951,58.684,151117,,*08
2017-11-15 17:33:01 1510785181.145094: $GPGSA,A,3,10,25,32,11,31,,,,,,,,3.4,2.8,2.9*31
2017-11-15 17:33:02 1510785182.145950: $GPZDA,223301.00,15,11,2017,00,00*67
2017-11-15 17:33:02 1510785182.146114: $GPGGA,223301,3946.9447,N,08404.9339,W,1,05,2.80,342.80,M,-33.324,M,,*75
2017-11-15 17:33:02 1510785182.146225: $GPRMC,223301,A,3946.9447,N,08404.9339,W,0.6846,4.197,151117,,*35
2017-11-15 17:33:02 1510785182.146282: $GPGSA,A,3,10,25,32,11,31,,,,,,,,3.4,2.8,2.9*31
2017-11-15 17:33:03 1510785183.482205: $GPGSV,3,1,12,10,49,147,17,25,39,091,25,32,69,024,24,14,66,325,09*74
2017-11-15 17:33:03 1510785183.927106: $GPGSV,3,2,12,12,22,051,04,26,01,184,04,31,54,223,24,01,21,301,04*76
2017-11-15 17:33:03 1510785183.927252: $GPGSV,3,3,12,18,19,144,06,22,18,312,00,11,09,283,00,138,38,213,00*44
2017-11-15 17:33:03 1510785183.927345: $GPZDA,223302.00,15,11,2017,00,00*64
2017-11-15 17:33:03 1510785183.927400: $GPGGA,223302,3946.9443,N,08404.9346,W,1,04,2.80,342.09,M,-33.324,M,,*7A
2017-11-15 17:33:03 1510785183.927459: $GPRMC,223302,A,3946.9443,N,08404.9346,W,0.3423,4.197,151117,,*30
2017-11-15 17:33:03 1510785183.927516: $GPGSA,A,3,10,25,32,31,,,,,,,,,3.4,2.8,2.9*31
2017-11-15 17:33:04 1510785184.145711: $GPZDA,223303.00,15,11,2017,00,00*65
2017-11-15 17:33:04 1510785184.145880: $GPGGA,223303,3946.9443,N,08404.9346,W,1,04,2.80,342.09,M,-33.324,M,,*7B
2017-11-15 17:33:04 1510785184.145944: $GPRMC,223303,A,3946.9443,N,08404.9346,W,0.4844,273.795,151117,,*3D
2017-11-15 17:33:04 1510785184.146003: $GPGSA,A,3,10,25,32,31,,,,,,,,,3.4,2.8,2.9*31
2017-11-15 17:33:05 1510785185.175829: $GPZDA,223304.00,15,11,2017,00,00*62
2017-11-15 17:33:05 1510785185.175992: $GPGGA,223304,3946.9443,N,08404.9346,W,1,04,2.60,342.09,M,-33.324,M,,*72
2017-11-15 17:33:05 1510785185.176055: $GPRMC,223304,A,3946.9443,N,08404.9346,W,0.5287,2.716,151117,,*31
2017-11-15 17:33:05 1510785185.176114: $GPGSA,A,3,10,25,32,31,,,,,,,,,3.4,2.6,2.9*3F
2017-11-15 17:33:06 1510785186.514134: $GPGSV,3,1,12,10,49,147,17,25,39,091,25,32,69,024,25,14,66,325,15*78
2017-11-15 17:33:06 1510785186.514307: $GPGSV,3,2,12,12,22,051,00,26,01,184,07,31,54,223,24,01,21,301,04*71
2017-11-15 17:33:06 1510785186.514370: $GPGSV,3,3,12,18,19,144,15,22,18,312,00,11,09,283,00,138,38,213,00*46
2017-11-15 17:33:06 1510785186.627520: $GPZDA,223305.00,15,11,2017,00,00*63
2017-11-15 17:33:06 1510785186.627686: $GPGGA,223305,3946.9443,N,08404.9346,W,1,07,2.00,342.09,M,-33.324,M,,*76
2017-11-15 17:33:06 1510785186.627749: $GPRMC,223305,A,3946.9443,N,08404.9346,W,0.4207,39.347,151117,,*01
2017-11-15 17:33:06 1510785186.627807: $GPGSA,A,3,10,25,32,14,26,31,18,,,,,,3.4,2.0,2.9*31
2017-11-15 17:33:07 1510785187.173836: $GPZDA,223306.00,15,11,2017,00,00*60
2017-11-15 17:33:07 1510785187.173989: $GPGGA,223306,3946.9443,N,08404.9346,W,1,07,2.40,342.09,M,-33.324,M,,*71
2017-11-15 17:33:07 1510785187.174053: $GPRMC,223306,A,3946.9443,N,08404.9346,W,0.3155,129.994,151117,,*35
2017-11-15 17:33:07 1510785187.174112: $GPGSA,A,3,10,25,32,14,26,31,18,,,,,,3.4,2.4,2.9*35
2017-11-15 17:33:08 1510785188.170169: $GPZDA,223307.00,15,11,2017,00,00*61
2017-11-15 17:33:08 1510785188.170325: $GPGGA,223307,3946.9443,N,08404.9346,W,1,07,2.40,342.09,M,-33.324,M,,*70
2017-11-15 17:33:08 1510785188.170390: $GPRMC,223307,A,3946.9443,N,08404.9346,W,0.3155,129.994,151117,,*34
2017-11-15 17:33:08 1510785188.170448: $GPGSA,A,3,10,25,32,14,26,31,18,,,,,,3.4,2.4,2.9*35
2017-11-15 17:33:09 1510785189.505185: $GPGSV,3,1,12,10,49,147,17,25,39,091,25,32,69,024,25,14,66,325,14*79
2017-11-15 17:33:09 1510785189.505357: $GPGSV,3,2,12,12,22,051,00,26,01,184,08,31,54,223,23,01,21,301,04*79
2017-11-15 17:33:09 1510785189.505420: $GPGSV,3,3,12,18,19,144,00,22,18,312,00,11,09,283,00,138,38,213,00*42
2017-11-15 17:33:09 1510785189.618504: $GPZDA,223308.00,15,11,2017,00,00*6E
2017-11-15 17:33:09 1510785189.618667: $GPGGA,223308,3946.9439,N,08404.9346,W,1,06,2.40,341.45,M,-33.324,M,,*78
2017-11-15 17:33:09 1510785189.618752: $GPRMC,223308,A,3946.9439,N,08404.9346,W,0.5951,238.684,151117,,*31
2017-11-15 17:33:09 1510785189.618812: $GPGSA,A,3,10,25,32,14,26,31,,,,,,,3.4,2.4,2.9*3C
2017-11-15 17:33:10 1510785190.170069: $GPZDA,223309.00,15,11,2017,00,00*6F
2017-11-15 17:33:10 1510785190.170243: $GPGGA,223309,3946.9439,N,08404.9353,W,1,06,2.40,341.37,M,-33.324,M,,*78
2017-11-15 17:33:10 1510785190.170359: $GPRMC,223309,A,3946.9439,N,08404.9353,W,0.4207,219.347,151117,,*34
2017-11-15 17:33:10 1510785190.170417: $GPGSA,A,3,10,25,32,14,26,31,,,,,,,3.4,2.4,2.9*3C
2017-11-15 17:33:11 1510785191.168253: $GPZDA,223310.00,15,11,2017,00,00*67
2017-11-15 17:33:11 1510785191.168412: $GPGGA,223310,3946.9435,N,08404.9346,W,1,06,2.40,340.81,M,-33.324,M,,*74
2017-11-15 17:33:11 1510785191.168473: $GPRMC,223310,A,3946.9435,N,08404.9346,W,0.7238,140.710,151117,,*32
2017-11-15 17:33:11 1510785191.168529: $GPGSA,A,3,10,25,32,14,26,31,,,,,,,3.4,2.4,2.9*3C
2017-11-15 17:33:12 1510785192.510794: $GPGSV,3,1,12,10,49,147,17,25,39,091,25,32,69,024,26,14,66,325,14*7A
2017-11-15 17:33:12 1510785192.510964: $GPGSV,3,2,12,18,19,144,07,26,01,184,08,31,54,223,22,12,22,051,00*7B
2017-11-15 17:33:12 1510785192.511024: $GPGSV,3,3,12,01,21,301,00,22,18,312,00,11,09,283,00,138,38,213,00*42
2017-11-15 17:33:12 1510785192.624157: $GPZDA,223311.00,15,11,2017,00,00*66
2017-11-15 17:33:12 1510785192.624310: $GPGGA,223311,3946.9435,N,08404.9353,W,1,06,2.40,340.73,M,-33.324,M,,*7C
2017-11-15 17:33:12 1510785192.624369: $GPRMC,223311,A,3946.9435,N,08404.9353,W,0.0000,0.000,151117,,*3A
2017-11-15 17:33:12 1510785192.624424: $GPGSA,A,3,10,25,32,14,26,31,,,,,,,3.4,2.4,2.9*3C
2017-11-15 17:33:13 1510785193.149262: $GPZDA,223312.00,15,11,2017,00,00*65
2017-11-15 17:33:13 1510785193.149417: $GPGGA,223312,3946.9435,N,08404.9353,W,1,06,2.40,340.73,M,-33.324,M,,*7F
2017-11-15 17:33:13 1510785193.149477: $GPRMC,223312,A,3946.9435,N,08404.9353,W,0.8011,299.090,151117,,*3A
2017-11-15 17:33:13 1510785193.149532: $GPGSA,A,3,10,25,32,14,26,31,,,,,,,3.4,2.4,2.9*3C
2017-11-15 17:33:14 1510785194.169359: $GPZDA,223313.00,15,11,2017,00,00*64
2017-11-15 17:33:14 1510785194.169522: $GPGGA,223313,3946.9436,N,08404.9360,W,1,06,2.40,340.65,M,-33.324,M,,*7A
2017-11-15 17:33:14 1510785194.169583: $GPRMC,223313,A,3946.9436,N,08404.9360,W,0.8011,299.090,151117,,*38
2017-11-15 17:33:14 1510785194.169639: $GPGSA,A,3,10,25,32,14,26,31,,,,,,,3.4,2.4,2.9*3C
2017-11-15 17:33:15 1510785195.484386: $GPGSV,3,1,12,10,49,147,17,25,39,091,24,32,69,024,26,14,66,325,14*7B
2017-11-15 17:33:15 1510785195.484537: $GPGSV,3,2,12,18,19,144,15,26,01,184,10,31,54,223,22,12,22,051,00*71
2017-11-15 17:33:15 1510785195.484596: $GPGSV,3,3,12,01,21,301,00,22,18,312,00,11,09,283,00,138,38,213,00*42
2017-11-15 17:33:15 1510785195.597776: $GPZDA,223314.00,15,11,2017,00,00*63
2017-11-15 17:33:15 1510785195.597943: $GPGGA,223314,3946.9440,N,08404.9360,W,1,07,2.40,341.29,M,-33.324,M,,*74
2017-11-15 17:33:15 1510785195.598004: $GPRMC,223314,A,3946.9440,N,08404.9360,W,0.6846,4.197,151117,,*3A
2017-11-15 17:33:15 1510785195.598059: $GPGSA,A,3,10,25,32,14,18,26,31,,,,,,3.4,2.4,2.9*35
2017-11-15 17:33:16 1510785196.176699: $GPZDA,223315.00,15,11,2017,00,00*62
2017-11-15 17:33:16 1510785196.176980: $GPGGA,223315,3946.9443,N,08404.9360,W,1,07,2.00,340.52,M,-33.324,M,,*7F
2017-11-15 17:33:16 1510785196.177042: $GPRMC,223315,A,3946.9443,N,08404.9360,W,0.4179,328.779,151117,,*34
2017-11-15 17:33:16 1510785196.177099: $GPGSA,A,3,10,25,32,14,18,26,31,,,,,,3.4,2.0,2.9*31
2017-11-15 17:33:17 1510785197.147498: $GPZDA,223316.00,15,11,2017,00,00*61
2017-11-15 17:33:17 1510785197.147671: $GPGGA,223316,3946.9444,N,08404.9367,W,1,07,2.40,340.44,M,-33.324,M,,*7F
2017-11-15 17:33:17 1510785197.147733: $GPRMC,223316,A,3946.9444,N,08404.9367,W,0.5912,309.173,151117,,*3C
2017-11-15 17:33:17 1510785197.147790: $GPGSA,A,3,10,25,32,14,18,26,31,,,,,,3.4,2.4,2.9*35
2017-11-15 17:33:18 1510785198.505188: $GPGSV,3,1,12,10,49,147,18,25,39,091,24,32,69,024,26,14,66,325,14*74
2017-11-15 17:33:18 1510785198.505373: $GPGSV,3,2,12,12,22,051,00,26,01,184,12,31,54,223,22,01,21,301,00*77
2017-11-15 17:33:18 1510785198.505434: $GPGSV,3,3,12,18,19,144,00,22,18,312,00,11,09,283,00,138,38,213,00*42
2017-11-15 17:33:18 1510785198.618385: $GPZDA,223317.00,15,11,2017,00,00*60
2017-11-15 17:33:18 1510785198.618543: $GPGGA,223317,3946.9444,N,08404.9367,W,1,06,2.40,340.44,M,-33.324,M,,*7F
2017-11-15 17:33:18 1510785198.618653: $GPRMC,223317,A,3946.9444,N,08404.9367,W,0.0000,0.000,151117,,*3D
2017-11-15 17:33:18 1510785198.618709: $GPGSA,A,3,10,25,32,14,26,31,,,,,,,3.4,2.4,2.9*3C
2017-11-15 17:33:19 1510785199.169901: $GPZDA,223318.00,15,11,2017,00,00*6F
2017-11-15 17:33:19 1510785199.170062: $GPGGA,223318,3946.9444,N,08404.9367,W,1,06,2.40,340.44,M,-33.324,M,,*70
2017-11-15 17:33:19 1510785199.170122: $GPRMC,223318,A,3946.9444,N,08404.9367,W,0.4207,39.347,151117,,*09
2017-11-15 17:33:19 1510785199.170178: $GPGSA,A,3,10,25,32,14,26,31,,,,,,,3.4,2.4,2.9*3C
2017-11-15 17:33:20 1510785200.169842: $GPZDA,223319.00,15,11,2017,00,00*6E
2017-11-15 17:33:20 1510785200.170044: $GPGGA,223319,3946.9444,N,08404.9367,W,1,06,2.40,340.44,M,-33.324,M,,*71
2017-11-15 17:33:20 1510785200.170106: $GPRMC,223319,A,3946.9444,N,08404.9367,W,0.0000,0.000,151117,,*33
2017-11-15 17:33:20 1510785200.170163: $GPGSA,A,3,10,25,32,14,26,31,,,,,,,3.4,2.4,2.9*3C
2017-11-15 17:33:21 1510785201.483120: $GPGSV,3,1,12,10,49,147,18,25,39,091,25,32,69,024,26,14,66,325,14*75
2017-11-15 17:33:21 1510785201.483292: $GPGSV,3,2,12,11,09,283,08,26,01,184,13,31,54,223,22,12,22,051,00*7E
2017-11-15 17:33:21 1510785201.483353: $GPGSV,3,3,12,01,21,301,00,18,19,144,00,22,18,312,00,138,38,213,00*42
2017-11-15 17:33:21 1510785201.596739: $GPZDA,223320.00,15,11,2017,00,00*64
2017-11-15 17:33:21 1510785201.596900: $GPGGA,223320,3946.9440,N,08404.9374,W,1,06,2.40,339.72,M,-33.324,M,,*76
2017-11-15 17:33:21 1510785201.596960: $GPRMC,223320,A,3946.9440,N,08404.9374,W,0.4207,219.347,151117,,*34
2017-11-15 17:33:21 1510785201.597016: $GPGSA,A,3,10,25,32,14,26,31,,,,,,,3.4,2.4,2.9*3C
2017-11-15 17:33:22 1510785202.169069: $GPZDA,223321.00,15,11,2017,00,00*65
2017-11-15 17:33:22 1510785202.169237: $GPGGA,223321,3946.9440,N,08404.9374,W,1,06,2.40,339.72,M,-33.324,M,,*77
2017-11-15 17:33:22 1510785202.169299: $GPRMC,223321,A,3946.9440,N,08404.9374,W,0.5857,158.291,151117,,*37
2017-11-15 17:33:22 1510785202.169356: $GPGSA,A,3,10,25,32,14,26,31,,,,,,,3.4,2.4,2.9*3C
2017-11-15 17:33:23 1510785203.169451: $GPZDA,223322.00,15,11,2017,00,00*66
2017-11-15 17:33:23 1510785203.169611: $GPGGA,223322,3946.9440,N,08404.9374,W,1,06,2.40,339.72,M,-33.324,M,,*74
2017-11-15 17:33:23 1510785203.169671: $GPRMC,223322,A,3946.9440,N,08404.9374,W,0.3423,184.197,151117,,*39
2017-11-15 17:33:23 1510785203.169727: $GPGSA,A,3,10,25,32,14,26,31,,,,,,,3.4,2.4,2.9*3C
2017-11-15 17:33:24 1510785204.483116: $GPGSV,3,1,12,10,49,147,19,25,39,091,25,32,69,024,26,14,66,325,14*74
2017-11-15 17:33:24 1510785204.483294: $GPGSV,3,2,12,12,22,051,00,26,01,184,14,31,54,223,22,01,21,301,00*71
2017-11-15 17:33:24 1510785204.483353: $GPGSV,3,3,12,18,19,144,00,22,18,312,00,11,09,283,00,135,23,238,00*4C
2017-11-15 17:33:24 1510785204.596567: $GPZDA,223323.00,15,11,2017,00,00*67
2017-11-15 17:33:24 1510785204.596769: $GPGGA,223323,3946.9440,N,08404.9374,W,1,06,2.40,339.72,M,-33.324,M,,*75
2017-11-15 17:33:24 1510785204.596838: $GPRMC,223323,A,3946.9440,N,08404.9374,W,0.2959,54.767,151117,,*0C
2017-11-15 17:33:24 1510785204.596895: $GPGSA,A,3,10,25,32,14,26,31,,,,,,,3.4,2.4,2.9*3C
