2018-01-11 19:45:24 1515717924.015395: {"class":"VERSION","release":"3.16","rev":"3.16-4","proto_major":3,"proto_minor":11}
2018-01-11 19:45:24 1515717924.015778: {"class":"DEVICES","devices":[{"class":"DEVICE","path":"/dev/ttyUSB0","driver":"SiRF","subtype":"9\u0006GSD4e_4.1.2-P1_RPATCH.05-F-GPS-4R-1510281 11/03/2015 307","activated":"2018-01-12T00:45:23.602Z","flags":1,"native":1,"bps":4800,"parity":"N","stopbits":1,"cycle":1.00}]}
2018-01-11 19:45:24 1515717924.015892: {"class":"WATCH","enable":true,"json":false,"nmea":true,"raw":0,"scaled":false,"timing":false,"split24":false,"pps":false}
2018-01-11 19:45:24 1515717924.385826: $GPZDA,004525.00,12,01,2018,00,00*69
2018-01-11 19:45:24 1515717924.386007: $GPGGA,004525,3946.9612,N,08404.9853,W,2,11,0.80,304.65,M,-33.324,M,,*7A
2018-01-11 19:45:24 1515717924.386081: $GPRMC,004525,A,3946.9612,N,08404.9853,W,0.0000,0.000,120118,,*39
2018-01-11 19:45:24 1515717924.386148: $GPGSA,A,3,7,8,9,11,16,23,27,30,26,28,138,,4.0,0.8,3.5*3A
2018-01-11 19:45:25 1515717925.720209: $GPGSV,3,1,12,07,45,310,40,08,64,157,46,09,55,246,45,11,10,172,32*7F
2018-01-11 19:45:25 1515717925.720366: $GPGSV,3,2,12,16,32,054,48,23,41,193,48,27,56,067,51,30,19,301,20*7B
2018-01-11 19:45:25 1515717925.720432: $GPGSV,3,3,12,21,01,031,00,26,06,066,11,28,06,250,29,138,38,213,46*4B
2018-01-11 19:45:25 1515717925.833858: $GPZDA,004526.00,12,01,2018,00,00*6A
2018-01-11 19:45:25 1515717925.833992: $GPGGA,004526,3946.9612,N,08404.9853,W,2,11,0.80,304.65,M,-33.324,M,,*79
2018-01-11 19:45:25 1515717925.834060: $GPRMC,004526,A,3946.9612,N,08404.9853,W,0.0000,0.000,120118,,*3A
2018-01-11 19:45:25 1515717925.834125: $GPGSA,A,3,7,8,9,11,16,23,27,30,26,28,138,,4.0,0.8,3.5*3A
2018-01-11 19:45:26 1515717926.386019: $GPZDA,004527.00,12,01,2018,00,00*6B
2018-01-11 19:45:26 1515717926.386189: $GPGGA,004527,3946.9612,N,08404.9853,W,2,11,0.80,304.65,M,-33.324,M,,*78
2018-01-11 19:45:26 1515717926.386257: $GPRMC,004527,A,3946.9612,N,08404.9853,W,0.0000,0.000,120118,,*3B
2018-01-11 19:45:26 1515717926.386319: $GPGSA,A,3,7,8,9,11,16,23,27,30,26,28,138,,4.0,0.8,3.5*3A
2018-01-11 19:45:27 1515717927.386797: $GPZDA,004528.00,12,01,2018,00,00*64
2018-01-11 19:45:27 1515717927.386980: $GPGGA,004528,3946.9612,N,08404.9853,W,2,11,0.80,304.65,M,-33.324,M,,*77
2018-01-11 19:45:27 1515717927.387048: $GPRMC,004528,A,3946.9612,N,08404.9853,W,0.0000,0.000,120118,,*34
2018-01-11 19:45:27 1515717927.387114: $GPGSA,A,3,7,8,9,11,16,23,27,30,26,28,138,,4.0,0.8,3.5*3A
2018-01-11 19:45:27 1515717927.387173: $GPGBS,004528,3.65,M,6.21,M,20.10,M*03
2018-01-11 19:45:28 1515717928.722885: $GPGSV,3,1,12,07,45,310,40,08,64,157,46,09,55,246,45,11,10,172,32*7F
2018-01-11 19:45:28 1515717928.723073: $GPGSV,3,2,12,16,32,054,48,23,41,193,49,27,56,067,51,30,19,301,30*7B
2018-01-11 19:45:28 1515717928.723141: $GPGSV,3,3,12,21,01,031,00,26,06,066,18,28,06,250,30,138,38,213,45*49
2018-01-11 19:45:28 1515717928.836312: $GPZDA,004529.00,12,01,2018,00,00*65
2018-01-11 19:45:28 1515717928.836447: $GPGGA,004529,3946.9612,N,08404.9853,W,2,11,0.80,304.65,M,-33.324,M,,*76
2018-01-11 19:45:28 1515717928.836513: $GPRMC,004529,A,3946.9612,N,08404.9853,W,0.0000,0.000,120118,,*35
2018-01-11 19:45:28 1515717928.836574: $GPGSA,A,3,7,8,9,11,16,23,27,30,26,28,138,,4.0,0.8,3.5*3A
2018-01-11 19:45:29 1515717929.387376: $GPZDA,004530.00,12,01,2018,00,00*6D
2018-01-11 19:45:29 1515717929.387542: $GPGGA,004530,3946.9612,N,08404.9853,W,2,11,0.80,304.65,M,-33.324,M,,*7E
2018-01-11 19:45:29 1515717929.387608: $GPRMC,004530,A,3946.9612,N,08404.9853,W,0.0000,0.000,120118,,*3D
2018-01-11 19:45:29 1515717929.387670: $GPGSA,A,3,7,8,9,11,16,23,27,30,26,28,138,,4.0,0.8,3.5*3A
2018-01-11 19:45:30 1515717930.388227: $GPZDA,004531.00,12,01,2018,00,00*6C
2018-01-11 19:45:30 1515717930.388387: $GPGGA,004531,3946.9612,N,08404.9853,W,2,11,0.80,304.65,M,-33.324,M,,*7F
2018-01-11 19:45:30 1515717930.388454: $GPRMC,004531,A,3946.9612,N,08404.9853,W,0.0000,0.000,120118,,*3C
2018-01-11 19:45:30 1515717930.388516: $GPGSA,A,3,7,8,9,11,16,23,27,30,26,28,138,,4.0,0.8,3.5*3A
2018-01-11 19:45:31 1515717931.722449: $GPGSV,3,1,12,07,45,310,40,08,64,157,46,09,55,246,44,11,10,172,32*7E
2018-01-11 19:45:31 1515717931.722652: $GPGSV,3,2,12,16,32,054,48,23,41,193,49,27,56,067,51,30,19,301,31*7A
2018-01-11 19:45:31 1515717931.722721: $GPGSV,3,3,12,21,01,031,00,26,06,066,18,28,06,250,30,138,38,213,45*49
2018-01-11 19:45:31 1515717931.836043: $GPZDA,004532.00,12,01,2018,00,00*6F
2018-01-11 19:45:31 1515717931.836161: $GPGGA,004532,3946.9608,N,08404.9854,W,2,11,0.80,305.41,M,-33.324,M,,*77
2018-01-11 19:45:31 1515717931.836225: $GPRMC,004532,A,3946.9608,N,08404.9854,W,0.0000,0.000,120118,,*33
2018-01-11 19:45:31 1515717931.836286: $GPGSA,A,3,7,8,9,11,16,23,27,30,26,28,138,,4.0,0.8,3.5*3A
