2017-11-16 15:34:59 1510864499.096735: {"class":"VERSION","release":"3.17","rev":"3.17","proto_major":3,"proto_minor":12}
2017-11-16 15:34:59 1510864499.097229: {"class":"DEVICES","devices":[{"class":"DEVICE","path":"/dev/ttyUSB0","driver":"SiRF","subtype":"9\u0006GSD4e_4.1.2-P1_RPATCH.05-F-GPS-4R-1510281 11/03/2015 307","activated":"2017-11-16T20:34:58.973Z","flags":1,"native":1,"bps":4800,"parity":"N","stopbits":1,"cycle":1.00}]}
2017-11-16 15:34:59 1510864499.097349: {"class":"WATCH","enable":true,"json":false,"nmea":true,"raw":0,"scaled":false,"timing":false,"split24":false,"pps":false}
2017-11-16 15:34:59 1510864499.384173: $GPZDA,203458.00,16,11,2017,00,00*6D
2017-11-16 15:34:59 1510864499.384342: $GPGGA,203458,3946.9568,N,08404.9860,W,2,12,1.00,309.61,M,-33.324,M,,*79
2017-11-16 15:34:59 1510864499.384405: $GPRMC,203458,A,3946.9568,N,08404.9860,W,0.0000,0.000,161117,,*33
2017-11-16 15:34:59 1510864499.384461: $GPGSA,A,3,8,10,14,15,18,20,21,24,25,32,12,138,1.6,1.0,1.3*3F
2017-11-16 15:35:00 1510864500.367944: $GPZDA,203459.00,16,11,2017,00,00*6C
2017-11-16 15:35:00 1510864500.368108: $GPGGA,203459,3946.9568,N,08404.9860,W,2,12,1.00,309.61,M,-33.324,M,,*78
2017-11-16 15:35:00 1510864500.368169: $GPRMC,203459,A,3946.9568,N,08404.9860,W,0.0000,0.000,161117,,*32
2017-11-16 15:35:00 1510864500.368226: $GPGSA,A,3,8,10,14,15,18,20,21,24,25,32,12,138,1.6,1.0,1.3*3F
2017-11-16 15:35:01 1510864501.705347: $GPGSV,3,1,12,08,04,289,38,10,73,337,50,14,32,256,46,15,08,069,31*7D
2017-11-16 15:35:01 1510864501.705522: $GPGSV,3,2,12,18,67,102,48,20,05,120,26,21,25,178,45,24,42,055,49*7A
2017-11-16 15:35:01 1510864501.705582: $GPGSV,3,3,12,25,06,139,23,32,49,270,45,12,12,103,34,138,38,213,45*4C
2017-11-16 15:35:01 1510864501.818636: $GPZDA,203500.00,16,11,2017,00,00*61
2017-11-16 15:35:01 1510864501.818792: $GPGGA,203500,3946.9568,N,08404.9860,W,2,12,1.00,309.61,M,-33.324,M,,*75
2017-11-16 15:35:01 1510864501.818855: $GPRMC,203500,A,3946.9568,N,08404.9860,W,0.0000,0.000,161117,,*3F
2017-11-16 15:35:01 1510864501.818913: $GPGSA,A,3,8,10,14,15,18,20,21,24,25,32,12,138,1.6,1.0,1.3*3F
2017-11-16 15:35:02 1510864502.383253: $GPZDA,203501.00,16,11,2017,00,00*60
2017-11-16 15:35:02 1510864502.383405: $GPGGA,203501,3946.9568,N,08404.9860,W,2,12,1.00,309.61,M,-33.324,M,,*74
2017-11-16 15:35:02 1510864502.383467: $GPRMC,203501,A,3946.9568,N,08404.9860,W,0.0000,0.000,161117,,*3E
2017-11-16 15:35:02 1510864502.383523: $GPGSA,A,3,8,10,14,15,18,20,21,24,25,32,12,138,1.6,1.0,1.3*3F
2017-11-16 15:35:03 1510864503.359080: $GPZDA,203502.00,16,11,2017,00,00*63
2017-11-16 15:35:03 1510864503.359237: $GPGGA,203502,3946.9568,N,08404.9860,W,2,12,1.00,309.61,M,-33.324,M,,*77
2017-11-16 15:35:03 1510864503.359298: $GPRMC,203502,A,3946.9568,N,08404.9860,W,0.0000,0.000,161117,,*3D
2017-11-16 15:35:03 1510864503.359355: $GPGSA,A,3,8,10,14,15,18,20,21,24,25,32,12,138,1.6,1.0,1.3*3F
2017-11-16 15:35:04 1510864504.719904: $GPGSV,3,1,12,08,04,289,38,10,73,337,51,14,32,256,45,15,08,069,31*7F
2017-11-16 15:35:04 1510864504.720082: $GPGSV,3,2,12,18,67,102,48,20,05,120,25,21,25,178,44,24,42,055,49*78
2017-11-16 15:35:04 1510864504.720142: $GPGSV,3,3,12,25,06,139,24,32,49,270,45,12,12,103,34,138,38,213,44*4A
2017-11-16 15:35:04 1510864504.833208: $GPZDA,203503.00,16,11,2017,00,00*62
2017-11-16 15:35:04 1510864504.833429: $GPGGA,203503,3946.9568,N,08404.9860,W,2,12,1.00,309.61,M,-33.324,M,,*76
2017-11-16 15:35:04 1510864504.833491: $GPRMC,203503,A,3946.9568,N,08404.9860,W,0.0000,0.000,161117,,*3C
2017-11-16 15:35:04 1510864504.833548: $GPGSA,A,3,8,10,14,15,18,20,21,24,25,32,12,138,1.6,1.0,1.3*3F
2017-11-16 15:35:05 1510864505.367817: $GPZDA,203504.00,16,11,2017,00,00*65
2017-11-16 15:35:05 1510864505.368045: $GPGGA,203504,3946.9568,N,08404.9860,W,2,12,1.00,309.61,M,-33.324,M,,*71
2017-11-16 15:35:05 1510864505.368107: $GPRMC,203504,A,3946.9568,N,08404.9860,W,0.0000,0.000,161117,,*3B
2017-11-16 15:35:05 1510864505.368164: $GPGSA,A,3,8,10,14,15,18,20,21,24,25,32,12,138,1.6,1.0,1.3*3F
2017-11-16 15:35:06 1510864506.384799: $GPZDA,203505.00,16,11,2017,00,00*64
2017-11-16 15:35:06 1510864506.385025: $GPGGA,203505,3946.9568,N,08404.9860,W,2,12,1.00,309.61,M,-33.324,M,,*70
2017-11-16 15:35:06 1510864506.385088: $GPRMC,203505,A,3946.9568,N,08404.9860,W,0.0000,0.000,161117,,*3A
2017-11-16 15:35:06 1510864506.385144: $GPGSA,A,3,8,10,14,15,18,20,21,24,25,32,12,138,1.6,1.0,1.3*3F
2017-11-16 15:35:07 1510864507.704004: $GPGSV,3,1,12,08,04,289,38,10,73,337,51,14,32,256,46,15,08,069,30*7D
2017-11-16 15:35:08 1510864508.427035: $GPGSV,3,2,12,18,67,102,47,20,05,120,24,21,25,178,44,24,42,055,49*76
2017-11-16 15:35:08 1510864508.427165: $GPGSV,3,3,12,25,06,139,24,32,49,270,44,12,12,103,34,138,38,213,44*4B
2017-11-16 15:35:08 1510864508.427263: $GPZDA,203506.00,16,11,2017,00,00*67
2017-11-16 15:35:08 1510864508.427315: $GPGGA,203506,3946.9568,N,08404.9860,W,2,12,1.00,309.61,M,-33.324,M,,*73
2017-11-16 15:35:08 1510864508.427372: $GPRMC,203506,A,3946.9568,N,08404.9860,W,0.0000,0.000,161117,,*39
2017-11-16 15:35:08 1510864508.427427: $GPGSA,A,3,8,10,14,15,18,20,21,24,25,32,12,138,1.6,1.0,1.3*3F
2017-11-16 15:35:08 1510864508.427481: $GPZDA,203507.00,16,11,2017,00,00*66
2017-11-16 15:35:08 1510864508.427531: $GPGGA,203507,3946.9568,N,08404.9860,W,2,12,1.00,309.61,M,-33.324,M,,*72
2017-11-16 15:35:08 1510864508.427586: $GPRMC,203507,A,3946.9568,N,08404.9860,W,0.0000,0.000,161117,,*38
2017-11-16 15:35:08 1510864508.427641: $GPGSA,A,3,8,10,14,15,18,20,21,24,25,32,12,138,1.6,1.0,1.3*3F
