2017-12-01 11:41:52 1512146512.766748: {"class":"VERSION","release":"3.16","rev":"3.16-4","proto_major":3,"proto_minor":11}
2017-12-01 11:41:52 1512146512.767166: {"class":"DEVICES","devices":[{"class":"DEVICE","path":"/dev/ttyUSB0","driver":"SiRF","subtype":"9\u0006GSD4e_4.1.2-P1_RPATCH.05-F-GPS-4R-1510281 11/03/2015 307","activated":"2017-12-01T16:41:52.726Z","flags":1,"native":1,"bps":4800,"parity":"N","stopbits":1,"cycle":1.00}]}
2017-12-01 11:41:52 1512146512.767293: {"class":"WATCH","enable":true,"json":false,"nmea":true,"raw":0,"scaled":false,"timing":false,"split24":false,"pps":false}
2017-12-01 11:41:52 1512146512.839461: $GPZDA,164153.00,01,12,2017,00,00*64
2017-12-01 11:41:52 1512146512.839617: $GPGGA,164153,3946.9594,N,08404.9847,W,2,11,0.80,291.49,M,-33.324,M,,*73
2017-12-01 11:41:52 1512146512.839682: $GPRMC,164153,A,3946.9594,N,08404.9847,W,0.0000,0.000,011217,,*3C
2017-12-01 11:41:52 1512146512.839742: $GPGSA,A,3,5,10,13,15,18,20,21,24,27,29,138,,2.0,0.8,1.5*34
2017-12-01 11:41:53 1512146513.390298: $GPZDA,164154.00,01,12,2017,00,00*63
2017-12-01 11:41:53 1512146513.390475: $GPGGA,164154,3946.9594,N,08404.9847,W,2,11,0.80,291.49,M,-33.324,M,,*74
2017-12-01 11:41:53 1512146513.390543: $GPRMC,164154,A,3946.9594,N,08404.9847,W,0.0000,0.000,011217,,*3B
2017-12-01 11:41:53 1512146513.390605: $GPGSA,A,3,5,10,13,15,18,20,21,24,27,29,138,,2.0,0.8,1.5*34
2017-12-01 11:41:54 1512146514.391499: $GPZDA,164155.00,01,12,2017,00,00*62
2017-12-01 11:41:54 1512146514.391693: $GPGGA,164155,3946.9594,N,08404.9847,W,2,11,0.80,291.49,M,-33.324,M,,*75
2017-12-01 11:41:54 1512146514.391762: $GPRMC,164155,A,3946.9594,N,08404.9847,W,0.0000,0.000,011217,,*3A
2017-12-01 11:41:54 1512146514.391840: $GPGSA,A,3,5,10,13,15,18,20,21,24,27,29,138,,2.0,0.8,1.5*34
2017-12-01 11:41:55 1512146515.733138: $GPGSV,3,1,12,05,14,076,28,10,12,271,40,13,44,051,47,15,76,076,47*73
2017-12-01 11:41:55 1512146515.733332: $GPGSV,3,2,12,18,43,285,45,20,63,048,41,21,66,306,46,24,19,150,40*7F
2017-12-01 11:41:55 1512146515.733400: $GPGSV,3,3,12,27,08,325,44,29,25,195,41,04,13,129,00,138,38,213,46*48
2017-12-01 11:41:55 1512146515.846833: $GPZDA,164156.00,01,12,2017,00,00*61
2017-12-01 11:41:55 1512146515.847015: $GPGGA,164156,3946.9594,N,08404.9847,W,2,11,0.80,291.49,M,-33.324,M,,*76
2017-12-01 11:41:55 1512146515.847083: $GPRMC,164156,A,3946.9594,N,08404.9847,W,0.0000,0.000,011217,,*39
2017-12-01 11:41:55 1512146515.847145: $GPGSA,A,3,5,10,13,15,18,20,21,24,27,29,138,,2.0,0.8,1.5*34
2017-12-01 11:41:56 1512146516.472285: $GPZDA,164157.00,01,12,2017,00,00*60
2017-12-01 11:41:56 1512146516.472454: $GPGGA,164157,3946.9594,N,08404.9847,W,2,11,0.80,291.49,M,-33.324,M,,*77
2017-12-01 11:41:56 1512146516.472520: $GPRMC,164157,A,3946.9594,N,08404.9847,W,0.0000,0.000,011217,,*38
2017-12-01 11:41:56 1512146516.472581: $GPGSA,A,3,5,10,13,15,18,20,21,24,27,29,138,,2.0,0.8,1.5*34
2017-12-01 11:41:57 1512146517.390299: $GPZDA,164158.00,01,12,2017,00,00*6F
2017-12-01 11:41:57 1512146517.390477: $GPGGA,164158,3946.9594,N,08404.9847,W,2,11,0.80,291.49,M,-33.324,M,,*78
2017-12-01 11:41:57 1512146517.390544: $GPRMC,164158,A,3946.9594,N,08404.9847,W,0.0000,0.000,011217,,*37
2017-12-01 11:41:57 1512146517.390606: $GPGSA,A,3,5,10,13,15,18,20,21,24,27,29,138,,2.0,0.8,1.5*34
2017-12-01 11:41:58 1512146518.726066: $GPGSV,3,1,12,05,14,076,28,10,12,271,40,13,44,051,47,15,76,076,47*73
2017-12-01 11:41:58 1512146518.726252: $GPGSV,3,2,12,18,43,285,45,20,63,048,41,21,66,306,46,24,19,150,40*7F
2017-12-01 11:41:58 1512146518.726317: $GPGSV,3,3,12,27,08,325,43,29,25,195,42,04,13,129,00,138,38,213,46*4C
2017-12-01 11:41:58 1512146518.838309: $GPZDA,164159.00,01,12,2017,00,00*6E
2017-12-01 11:41:58 1512146518.838492: $GPGGA,164159,3946.9594,N,08404.9847,W,2,11,0.80,291.49,M,-33.324,M,,*79
2017-12-01 11:41:58 1512146518.838557: $GPRMC,164159,A,3946.9594,N,08404.9847,W,0.0000,0.000,011217,,*36
2017-12-01 11:41:58 1512146518.838618: $GPGSA,A,3,5,10,13,15,18,20,21,24,27,29,138,,2.0,0.8,1.5*34
2017-12-01 11:41:59 1512146519.409216: $GPZDA,164200.00,01,12,2017,00,00*61
2017-12-01 11:41:59 1512146519.409437: $GPGGA,164200,3946.9594,N,08404.9847,W,2,11,0.80,291.49,M,-33.324,M,,*76
2017-12-01 11:41:59 1512146519.409506: $GPRMC,164200,A,3946.9594,N,08404.9847,W,0.0000,0.000,011217,,*39
2017-12-01 11:41:59 1512146519.409568: $GPGSA,A,3,5,10,13,15,18,20,21,24,27,29,138,,2.0,0.8,1.5*34
2017-12-01 11:42:00 1512146520.411180: $GPZDA,164201.00,01,12,2017,00,00*60
2017-12-01 11:42:00 1512146520.411407: $GPGGA,164201,3946.9594,N,08404.9847,W,2,11,0.80,291.49,M,-33.324,M,,*77
2017-12-01 11:42:00 1512146520.411485: $GPRMC,164201,A,3946.9594,N,08404.9847,W,0.0000,0.000,011217,,*38
2017-12-01 11:42:00 1512146520.411547: $GPGSA,A,3,5,10,13,15,18,20,21,24,27,29,138,,2.0,0.8,1.5*34
2017-12-01 11:42:01 1512146521.721428: $GPGSV,3,1,12,05,14,076,29,10,12,271,40,13,44,051,47,15,76,076,48*7D
2017-12-01 11:42:01 1512146521.721611: $GPGSV,3,2,12,18,43,285,45,20,63,048,41,21,66,306,45,24,19,150,40*7C
2017-12-01 11:42:01 1512146521.721678: $GPGSV,3,3,12,27,08,325,43,29,25,195,42,04,13,129,00,138,38,213,46*4C
2017-12-01 11:42:01 1512146521.834768: $GPZDA,164202.00,01,12,2017,00,00*63
2017-12-01 11:42:01 1512146521.834943: $GPGGA,164202,3946.9594,N,08404.9847,W,2,11,0.80,291.49,M,-33.324,M,,*74
2017-12-01 11:42:01 1512146521.835008: $GPRMC,164202,A,3946.9594,N,08404.9847,W,0.0000,0.000,011217,,*3B
2017-12-01 11:42:01 1512146521.835070: $GPGSA,A,3,5,10,13,15,18,20,21,24,27,29,138,,2.0,0.8,1.5*34
2017-12-01 11:42:02 1512146522.390666: $GPZDA,164203.00,01,12,2017,00,00*62
2017-12-01 11:42:02 1512146522.390847: $GPGGA,164203,3946.9594,N,08404.9847,W,2,11,0.80,291.49,M,-33.324,M,,*75
2017-12-01 11:42:02 1512146522.390915: $GPRMC,164203,A,3946.9594,N,08404.9847,W,0.0000,0.000,011217,,*3A
2017-12-01 11:42:02 1512146522.390976: $GPGSA,A,3,5,10,13,15,18,20,21,24,27,29,138,,2.0,0.8,1.5*34
