2017-12-31 16:42:17 1514756537.906838: {"class":"VERSION","release":"3.16","rev":"3.16-4","proto_major":3,"proto_minor":11}
2017-12-31 16:42:17 1514756537.907265: {"class":"DEVICES","devices":[{"class":"DEVICE","path":"/dev/ttyUSB0","driver":"SiRF","activated":"2017-12-31T21:42:17.488Z","flags":1,"native":1,"bps":4800,"parity":"N","stopbits":1,"cycle":1.00}]}
2017-12-31 16:42:17 1514756537.907405: {"class":"WATCH","enable":true,"json":false,"nmea":true,"raw":0,"scaled":false,"timing":false,"split24":false,"pps":false}
2017-12-31 16:42:18 1514756538.682136: $GPGSV,3,1,12,22,49,255,44,23,19,304,36,25,11,039,35,03,45,286,34*7E
2017-12-31 16:42:18 1514756538.682309: $GPGSV,3,2,12,16,34,189,47,29,13,066,26,01,01,246,00,31,58,040,51*7A
2017-12-31 16:42:18 1514756538.682391: $GPGSV,3,3,12,14,49,103,47,32,27,115,38,26,64,163,42,135,22,240,43*4B
2017-12-31 16:42:18 1514756538.795774: $GPZDA,214219.00,31,12,2017,00,00*6E
2017-12-31 16:42:18 1514756538.795913: $GPGGA,214219,3946.9579,N,08404.9841,W,2,11,0.80,302.49,M,-33.324,M,,*74
2017-12-31 16:42:18 1514756538.795979: $GPRMC,214219,A,3946.9579,N,08404.9841,W,0.0000,0.000,311217,,*33
2017-12-31 16:42:18 1514756538.796039: $GPGSA,A,3,22,23,25,3,16,29,31,14,32,26,135,,1.7,0.8,1.3*32
2017-12-31 16:42:19 1514756539.350472: $GPZDA,214220.00,31,12,2017,00,00*64
2017-12-31 16:42:19 1514756539.350639: $GPGGA,214220,3946.9579,N,08404.9841,W,2,11,0.80,302.49,M,-33.324,M,,*7E
2017-12-31 16:42:19 1514756539.350705: $GPRMC,214220,A,3946.9579,N,08404.9841,W,0.0000,0.000,311217,,*39
2017-12-31 16:42:19 1514756539.350765: $GPGSA,A,3,22,23,25,3,16,29,31,14,32,26,135,,1.7,0.8,1.3*32
2017-12-31 16:42:20 1514756540.354620: $GPZDA,214221.00,31,12,2017,00,00*65
2017-12-31 16:42:20 1514756540.354779: $GPGGA,214221,3946.9579,N,08404.9841,W,2,11,0.80,302.49,M,-33.324,M,,*7F
2017-12-31 16:42:20 1514756540.354845: $GPRMC,214221,A,3946.9579,N,08404.9841,W,0.0000,0.000,311217,,*38
2017-12-31 16:42:20 1514756540.354905: $GPGSA,A,3,22,23,25,3,16,29,31,14,32,26,135,,1.7,0.8,1.3*32
2017-12-31 16:42:21 1514756541.698761: $GPGSV,3,1,12,22,49,255,44,23,19,304,37,25,11,039,35,03,45,286,34*7F
2017-12-31 16:42:21 1514756541.698923: $GPGSV,3,2,12,16,34,189,47,29,13,066,27,01,01,246,00,31,58,040,51*7B
2017-12-31 16:42:21 1514756541.698990: $GPGSV,3,3,12,14,49,103,46,32,27,115,38,26,64,163,42,135,22,240,43*4A
2017-12-31 16:42:21 1514756541.812391: $GPZDA,214222.00,31,12,2017,00,00*66
2017-12-31 16:42:21 1514756541.812572: $GPGGA,214222,3946.9579,N,08404.9841,W,2,11,0.80,302.49,M,-33.324,M,,*7C
2017-12-31 16:42:21 1514756541.812657: $GPRMC,214222,A,3946.9579,N,08404.9841,W,0.0000,0.000,311217,,*3B
2017-12-31 16:42:21 1514756541.812720: $GPGSA,A,3,22,23,25,3,16,29,31,14,32,26,135,,1.7,0.8,1.3*32
2017-12-31 16:42:22 1514756542.345889: $GPZDA,214223.00,31,12,2017,00,00*67
2017-12-31 16:42:22 1514756542.346051: $GPGGA,214223,3946.9579,N,08404.9841,W,2,11,0.80,302.49,M,-33.324,M,,*7D
2017-12-31 16:42:22 1514756542.346118: $GPRMC,214223,A,3946.9579,N,08404.9841,W,0.0000,0.000,311217,,*3A
2017-12-31 16:42:22 1514756542.346202: $GPGSA,A,3,22,23,25,3,16,29,31,14,32,26,135,,1.7,0.8,1.3*32
2017-12-31 16:42:23 1514756543.346378: $GPZDA,214224.00,31,12,2017,00,00*60
2017-12-31 16:42:23 1514756543.346545: $GPGGA,214224,3946.9579,N,08404.9841,W,2,11,0.80,302.49,M,-33.324,M,,*7A
2017-12-31 16:42:23 1514756543.346614: $GPRMC,214224,A,3946.9579,N,08404.9841,W,0.0000,0.000,311217,,*3D
2017-12-31 16:42:23 1514756543.346676: $GPGSA,A,3,22,23,25,3,16,29,31,14,32,26,135,,1.7,0.8,1.3*32
2017-12-31 16:42:24 1514756544.680849: $GPGSV,3,1,12,22,49,255,44,23,19,304,37,25,11,039,35,03,45,286,34*7F
2017-12-31 16:42:24 1514756544.681020: $GPGSV,3,2,12,16,34,189,47,29,13,066,28,01,01,246,00,31,58,040,51*74
2017-12-31 16:42:24 1514756544.681085: $GPGSV,3,3,12,14,49,103,46,32,27,115,39,26,64,163,42,135,22,240,44*4C
2017-12-31 16:42:24 1514756544.794475: $GPZDA,214225.00,31,12,2017,00,00*61
2017-12-31 16:42:24 1514756544.794632: $GPGGA,214225,3946.9579,N,08404.9841,W,2,11,0.80,302.49,M,-33.324,M,,*7B
2017-12-31 16:42:24 1514756544.794698: $GPRMC,214225,A,3946.9579,N,08404.9841,W,0.0000,0.000,311217,,*3C
2017-12-31 16:42:24 1514756544.794813: $GPGSA,A,3,22,23,25,3,16,29,31,14,32,26,135,,1.7,0.8,1.3*32
2017-12-31 16:42:25 1514756545.419871: $GPZDA,214226.00,31,12,2017,00,00*62
2017-12-31 16:42:25 1514756545.420037: $GPGGA,214226,3946.9579,N,08404.9841,W,2,11,0.80,302.49,M,-33.324,M,,*78
2017-12-31 16:42:25 1514756545.420103: $GPRMC,214226,A,3946.9579,N,08404.9841,W,0.0000,0.000,311217,,*3F
2017-12-31 16:42:25 1514756545.420186: $GPGSA,A,3,22,23,25,3,16,29,31,14,32,26,135,,1.7,0.8,1.3*32
2017-12-31 16:42:26 1514756546.345891: $GPZDA,214227.00,31,12,2017,00,00*63
2017-12-31 16:42:26 1514756546.346055: $GPGGA,214227,3946.9579,N,08404.9841,W,2,11,0.80,302.49,M,-33.324,M,,*79
2017-12-31 16:42:26 1514756546.346143: $GPRMC,214227,A,3946.9579,N,08404.9841,W,0.0000,0.000,311217,,*3E
2017-12-31 16:42:26 1514756546.346205: $GPGSA,A,3,22,23,25,3,16,29,31,14,32,26,135,,1.7,0.8,1.3*32
2017-12-31 16:42:27 1514756547.685028: $GPGSV,3,1,12,22,49,255,44,23,19,304,37,25,11,039,35,03,45,286,34*7F
2017-12-31 16:42:27 1514756547.685250: $GPGSV,3,2,12,16,34,189,47,29,13,066,28,01,01,246,01,31,58,040,51*75
2017-12-31 16:42:27 1514756547.685318: $GPGSV,3,3,12,14,49,103,47,32,27,115,39,26,64,163,42,135,22,240,43*4A
2017-12-31 16:42:27 1514756547.798733: $GPZDA,214228.00,31,12,2017,00,00*6C
2017-12-31 16:42:27 1514756547.798872: $GPGGA,214228,3946.9579,N,08404.9841,W,2,11,0.80,302.49,M,-33.324,M,,*76
2017-12-31 16:42:27 1514756547.798936: $GPRMC,214228,A,3946.9579,N,08404.9841,W,0.0000,0.000,311217,,*31
2017-12-31 16:42:27 1514756547.798996: $GPGSA,A,3,22,23,25,3,16,29,31,14,32,26,135,,1.7,0.8,1.3*32
