2017-11-15 19:41:04 1510792864.235228: {"class":"VERSION","release":"3.17","rev":"3.17","proto_major":3,"proto_minor":12}
2017-11-15 19:41:04 1510792864.235771: {"class":"DEVICES","devices":[{"class":"DEVICE","path":"/dev/ttyUSB0","driver":"SiRF","subtype":"9\u0006GSD4e_4.1.2-P1_RPATCH.05-F-GPS-4R-1510281 11/03/2015 307","activated":"2017-11-16T00:41:04.216Z","flags":1,"native":1,"bps":4800,"parity":"N","stopbits":1,"cycle":1.00}]}
2017-11-15 19:41:04 1510792864.236094: {"class":"WATCH","enable":true,"json":false,"nmea":true,"raw":0,"scaled":false,"timing":false,"split24":false,"pps":false}
2017-11-15 19:41:04 1510792864.329743: $GPZDA,004103.00,16,11,2017,00,00*63
2017-11-15 19:41:04 1510792864.329907: $GPGGA,004103,3946.9604,N,08404.9545,W,1,06,1.80,293.76,M,-33.324,M,,*7E
2017-11-15 19:41:04 1510792864.329987: $GPRMC,004103,A,3946.9604,N,08404.9545,W,0.4844,93.794,161117,,*02
2017-11-15 19:41:04 1510792864.330044: $GPGSA,A,3,32,16,22,26,14,31,,,,,,,3.4,1.8,2.9*32
2017-11-15 19:41:05 1510792865.329748: $GPZDA,004104.00,16,11,2017,00,00*64
2017-11-15 19:41:05 1510792865.330046: $GPGGA,004104,3946.9604,N,08404.9538,W,1,06,1.80,293.84,M,-33.324,M,,*7E
2017-11-15 19:41:05 1510792865.330154: $GPRMC,004104,A,3946.9604,N,08404.9538,W,0.8054,68.645,161117,,*03
2017-11-15 19:41:05 1510792865.330212: $GPGSA,A,3,32,16,22,26,14,31,,,,,,,3.4,1.8,2.9*32
2017-11-15 19:41:06 1510792866.665863: $GPGSV,3,1,11,32,32,111,14,16,27,190,19,22,50,264,09,26,58,171,19*77
2017-11-15 19:41:06 1510792866.666069: $GPGSV,3,2,11,14,52,097,11,31,64,031,17,03,42,294,00,23,14,303,00*7E
2017-11-15 19:41:06 1510792866.666130: $GPGSV,3,3,11,25,13,039,00,29,12,067,00,01,03,249,00*42
2017-11-15 19:41:06 1510792866.779389: $GPZDA,004105.00,16,11,2017,00,00*65
2017-11-15 19:41:06 1510792866.779568: $GPGGA,004105,3946.9604,N,08404.9538,W,1,06,1.80,293.84,M,-33.324,M,,*7F
2017-11-15 19:41:06 1510792866.779629: $GPRMC,004105,A,3946.9604,N,08404.9538,W,0.9689,93.794,161117,,*0C
2017-11-15 19:41:06 1510792866.779684: $GPGSA,A,3,32,16,22,26,14,31,,,,,,,3.4,1.8,2.9*32
2017-11-15 19:41:07 1510792867.328877: $GPZDA,004106.00,16,11,2017,00,00*66
2017-11-15 19:41:07 1510792867.329089: $GPGGA,004106,3946.9604,N,08404.9538,W,1,06,1.80,293.84,M,-33.324,M,,*7C
2017-11-15 19:41:07 1510792867.329151: $GPRMC,004106,A,3946.9604,N,08404.9538,W,0.8359,148.778,161117,,*33
2017-11-15 19:41:07 1510792867.329207: $GPGSA,A,3,32,16,22,26,14,31,,,,,,,3.4,1.8,2.9*32
2017-11-15 19:41:08 1510792868.328610: $GPZDA,004107.00,16,11,2017,00,00*67
2017-11-15 19:41:08 1510792868.328772: $GPGGA,004107,3946.9604,N,08404.9531,W,1,06,1.80,293.92,M,-33.324,M,,*73
2017-11-15 19:41:08 1510792868.328833: $GPRMC,004107,A,3946.9604,N,08404.9531,W,0.4844,93.794,161117,,*05
2017-11-15 19:41:08 1510792868.328888: $GPGSA,A,3,32,16,22,26,14,31,,,,,,,3.4,1.8,2.9*32
2017-11-15 19:41:09 1510792869.664229: $GPGSV,3,1,11,32,32,111,13,16,27,190,19,22,50,264,10,26,58,171,18*79
2017-11-15 19:41:09 1510792869.668674: $GPGSV,3,2,11,14,52,097,04,31,64,031,17,03,42,294,00,23,14,303,00*7A
2017-11-15 19:41:09 1510792869.668792: $GPGSV,3,3,11,25,13,039,00,29,12,067,00,01,03,249,00*42
2017-11-15 19:41:09 1510792869.777695: $GPZDA,004108.00,16,11,2017,00,00*68
2017-11-15 19:41:09 1510792869.777882: $GPGGA,004108,3946.9604,N,08404.9531,W,1,05,1.80,293.92,M,-33.324,M,,*7F
2017-11-15 19:41:09 1510792869.777984: $GPRMC,004108,A,3946.9604,N,08404.9531,W,0.2422,93.794,161117,,*00
2017-11-15 19:41:09 1510792869.778076: $GPGSA,A,3,32,16,22,26,31,,,,,,,,3.4,1.8,2.9*37
2017-11-15 19:41:10 1510792870.327238: $GPZDA,004109.00,16,11,2017,00,00*69
2017-11-15 19:41:10 1510792870.327414: $GPGGA,004109,3946.9604,N,08404.9531,W,1,05,1.80,293.92,M,-33.324,M,,*7E
2017-11-15 19:41:10 1510792870.327479: $GPRMC,004109,A,3946.9604,N,08404.9531,W,0.2422,93.794,161117,,*01
2017-11-15 19:41:10 1510792870.327538: $GPGSA,A,3,32,16,22,26,31,,,,,,,,3.4,1.8,2.9*37
2017-11-15 19:41:11 1510792871.343980: $GPZDA,004110.00,16,11,2017,00,00*61
2017-11-15 19:41:11 1510792871.344175: $GPGGA,004110,3946.9604,N,08404.9531,W,1,05,2.60,293.92,M,-33.324,M,,*7B
2017-11-15 19:41:11 1510792871.344289: $GPRMC,004110,A,3946.9604,N,08404.9531,W,0.4179,148.778,161117,,*31
2017-11-15 19:41:11 1510792871.344346: $GPGSA,A,3,32,16,22,26,31,,,,,,,,3.4,2.6,2.9*3A
2017-11-15 19:41:12 1510792872.664587: $GPGSV,3,1,11,32,32,111,13,16,27,190,19,22,50,264,04,26,58,171,18*7C
2017-11-15 19:41:12 1510792872.664759: $GPGSV,3,2,11,14,52,097,04,31,64,031,16,03,42,294,00,23,14,303,00*7B
2017-11-15 19:41:12 1510792872.664819: $GPGSV,3,3,11,25,13,039,00,29,12,067,00,01,03,249,00*42
2017-11-15 19:41:12 1510792872.777975: $GPZDA,004111.00,16,11,2017,00,00*60
2017-11-15 19:41:12 1510792872.778155: $GPGGA,004111,3946.9604,N,08404.9531,W,1,04,2.60,293.92,M,-33.324,M,,*7B
2017-11-15 19:41:12 1510792872.778216: $GPRMC,004111,A,3946.9604,N,08404.9531,W,0.7238,140.710,161117,,*33
2017-11-15 19:41:12 1510792872.778272: $GPGSA,A,3,32,16,26,31,,,,,,,,,3.4,2.6,2.9*3A
2017-11-15 19:41:13 1510792873.328988: $GPZDA,004112.00,16,11,2017,00,00*63
2017-11-15 19:41:13 1510792873.329167: $GPGGA,004112,3946.9599,N,08404.9524,W,1,04,2.60,293.36,M,-33.324,M,,*75
2017-11-15 19:41:13 1510792873.329228: $GPRMC,004112,A,3946.9599,N,08404.9524,W,0.7246,164.668,161117,,*32
2017-11-15 19:41:13 1510792873.329284: $GPGSA,A,3,32,16,26,31,,,,,,,,,3.4,2.6,2.9*3A
