2017-12-01 11:42:49 1512146569.584324: {"class":"VERSION","release":"3.16","rev":"3.16-4","proto_major":3,"proto_minor":11}
2017-12-01 11:42:49 1512146569.584741: {"class":"DEVICES","devices":[{"class":"DEVICE","path":"/dev/ttyUSB0","driver":"SiRF","subtype":"9\u0006GSD4e_4.1.2-P1_RPATCH.05-F-GPS-4R-1510281 11/03/2015 307","activated":"2017-12-01T16:42:49.497Z","flags":1,"native":1,"bps":4800,"parity":"N","stopbits":1,"cycle":1.00}]}
2017-12-01 11:42:49 1512146569.585061: {"class":"WATCH","enable":true,"json":false,"nmea":true,"raw":0,"scaled":false,"timing":false,"split24":false,"pps":false}
2017-12-01 11:42:50 1512146570.360245: $GPZDA,164251.00,01,12,2017,00,00*65
2017-12-01 11:42:50 1512146570.360422: $GPGGA,164251,3946.9556,N,08404.9823,W,2,11,0.80,304.51,M,-33.324,M,,*7A
2017-12-01 11:42:50 1512146570.360490: $GPRMC,164251,A,3946.9556,N,08404.9823,W,0.0000,0.000,011217,,*31
2017-12-01 11:42:50 1512146570.360552: $GPGSA,A,3,5,10,13,15,18,20,21,24,27,29,138,,2.0,0.8,1.5*34
2017-12-01 11:42:51 1512146571.700687: $GPGSV,3,1,12,05,14,076,36,10,13,271,38,13,43,051,47,15,76,073,46*71
2017-12-01 11:42:51 1512146571.700870: $GPGSV,3,2,12,18,43,285,46,20,63,049,41,21,66,306,45,24,20,148,41*7C
2017-12-01 11:42:51 1512146571.700955: $GPGSV,3,3,12,27,08,324,45,29,25,195,42,04,13,130,00,138,38,213,46*43
2017-12-01 11:42:51 1512146571.814850: $GPZDA,164252.00,01,12,2017,00,00*66
2017-12-01 11:42:51 1512146571.815117: $GPGGA,164252,3946.9556,N,08404.9823,W,2,11,0.80,304.51,M,-33.324,M,,*79
2017-12-01 11:42:51 1512146571.815207: $GPRMC,164252,A,3946.9556,N,08404.9823,W,0.0000,0.000,011217,,*32
2017-12-01 11:42:51 1512146571.815299: $GPGSA,A,3,5,10,13,15,18,20,21,24,27,29,138,,2.0,0.8,1.5*34
2017-12-01 11:42:52 1512146572.439433: $GPZDA,164253.00,01,12,2017,00,00*67
2017-12-01 11:42:52 1512146572.439624: $GPGGA,164253,3946.9553,N,08404.9823,W,2,11,0.80,305.27,M,-33.324,M,,*7D
2017-12-01 11:42:52 1512146572.439694: $GPRMC,164253,A,3946.9553,N,08404.9823,W,0.0000,0.000,011217,,*36
2017-12-01 11:42:52 1512146572.439756: $GPGSA,A,3,5,10,13,15,18,20,21,24,27,29,138,,2.0,0.8,1.5*34
2017-12-01 11:42:53 1512146573.359310: $GPZDA,164254.00,01,12,2017,00,00*60
2017-12-01 11:42:53 1512146573.359490: $GPGGA,164254,3946.9553,N,08404.9823,W,2,11,0.80,305.27,M,-33.324,M,,*7A
2017-12-01 11:42:53 1512146573.359558: $GPRMC,164254,A,3946.9553,N,08404.9823,W,0.0000,0.000,011217,,*31
2017-12-01 11:42:53 1512146573.359619: $GPGSA,A,3,5,10,13,15,18,20,21,24,27,29,138,,2.0,0.8,1.5*34
2017-12-01 11:42:54 1512146574.691103: $GPGSV,3,1,12,05,14,076,35,10,13,271,37,13,43,051,47,15,76,073,46*7D
2017-12-01 11:42:54 1512146574.691279: $GPGSV,3,2,12,18,43,285,46,20,63,049,41,21,66,306,45,24,20,148,41*7C
2017-12-01 11:42:54 1512146574.691434: $GPGSV,3,3,12,27,08,324,46,29,25,195,42,04,13,130,00,138,38,213,46*40
2017-12-01 11:42:54 1512146574.804767: $GPZDA,164255.00,01,12,2017,00,00*61
2017-12-01 11:42:54 1512146574.804936: $GPGGA,164255,3946.9553,N,08404.9823,W,2,11,0.80,305.27,M,-33.324,M,,*7B
2017-12-01 11:42:54 1512146574.805002: $GPRMC,164255,A,3946.9553,N,08404.9823,W,0.0000,0.000,011217,,*30
2017-12-01 11:42:54 1512146574.805063: $GPGSA,A,3,5,10,13,15,18,20,21,24,27,29,138,,2.0,0.8,1.5*34
2017-12-01 11:42:55 1512146575.361695: $GPZDA,164256.00,01,12,2017,00,00*62
2017-12-01 11:42:55 1512146575.361875: $GPGGA,164256,3946.9553,N,08404.9823,W,2,11,0.80,305.27,M,-33.324,M,,*78
2017-12-01 11:42:55 1512146575.361943: $GPRMC,164256,A,3946.9553,N,08404.9823,W,0.0000,0.000,011217,,*33
2017-12-01 11:42:55 1512146575.362004: $GPGSA,A,3,5,10,13,15,18,20,21,24,27,29,138,,2.0,0.8,1.5*34
2017-12-01 11:42:56 1512146576.361518: $GPZDA,164257.00,01,12,2017,00,00*63
2017-12-01 11:42:56 1512146576.363217: $GPGGA,164257,3946.9553,N,08404.9823,W,2,11,0.80,305.27,M,-33.324,M,,*79
2017-12-01 11:42:56 1512146576.363317: $GPRMC,164257,A,3946.9553,N,08404.9823,W,0.0000,0.000,011217,,*32
2017-12-01 11:42:56 1512146576.363381: $GPGSA,A,3,5,10,13,15,18,20,21,24,27,29,138,,2.0,0.8,1.5*34
2017-12-01 11:42:57 1512146577.695125: $GPGSV,3,1,12,05,14,076,34,10,13,271,38,13,43,051,47,15,76,073,46*73
2017-12-01 11:42:57 1512146577.695356: $GPGSV,3,2,12,18,43,285,46,20,63,049,41,21,66,306,45,24,20,148,41*7C
2017-12-01 11:42:57 1512146577.695423: $GPGSV,3,3,12,27,08,324,46,29,25,195,42,04,13,130,00,138,38,213,46*40
2017-12-01 11:42:57 1512146577.808517: $GPZDA,164258.00,01,12,2017,00,00*6C
2017-12-01 11:42:57 1512146577.808702: $GPGGA,164258,3946.9553,N,08404.9823,W,2,11,0.80,305.27,M,-33.324,M,,*76
2017-12-01 11:42:57 1512146577.808770: $GPRMC,164258,A,3946.9553,N,08404.9823,W,0.0000,0.000,011217,,*3D
2017-12-01 11:42:57 1512146577.808831: $GPGSA,A,3,5,10,13,15,18,20,21,24,27,29,138,,2.0,0.8,1.5*34
2017-12-01 11:42:58 1512146578.360636: $GPZDA,164259.00,01,12,2017,00,00*6D
2017-12-01 11:42:58 1512146578.360818: $GPGGA,164259,3946.9553,N,08404.9823,W,2,11,0.80,305.27,M,-33.324,M,,*77
2017-12-01 11:42:58 1512146578.360886: $GPRMC,164259,A,3946.9553,N,08404.9823,W,0.0000,0.000,011217,,*3C
2017-12-01 11:42:58 1512146578.360948: $GPGSA,A,3,5,10,13,15,18,20,21,24,27,29,138,,2.0,0.8,1.5*34
2017-12-01 11:42:59 1512146579.366500: $GPZDA,164300.00,01,12,2017,00,00*60
2017-12-01 11:42:59 1512146579.366685: $GPGGA,164300,3946.9553,N,08404.9823,W,2,11,0.80,305.27,M,-33.324,M,,*7A
2017-12-01 11:42:59 1512146579.366752: $GPRMC,164300,A,3946.9553,N,08404.9823,W,0.0000,0.000,011217,,*31
2017-12-01 11:42:59 1512146579.366814: $GPGSA,A,3,5,10,13,15,18,20,21,24,27,29,138,,2.0,0.8,1.5*34
