2017-11-16 17:06:28 1510869988.103474: {"class":"VERSION","release":"3.17","rev":"3.17","proto_major":3,"proto_minor":12}
2017-11-16 17:06:28 1510869988.103932: {"class":"DEVICES","devices":[{"class":"DEVICE","path":"/dev/ttyUSB0","driver":"SiRF","subtype":"9\u0006GSD4e_4.1.2-P1_RPATCH.05-F-GPS-4R-1510281 11/03/2015 307","activated":"2017-11-16T22:06:27.998Z","flags":1,"native":1,"bps":4800,"parity":"N","stopbits":1,"cycle":1.00}]}
2017-11-16 17:06:28 1510869988.104041: {"class":"WATCH","enable":true,"json":false,"nmea":true,"raw":0,"scaled":false,"timing":false,"split24":false,"pps":false}
2017-11-16 17:06:28 1510869988.408810: $GPZDA,220627.00,16,11,2017,00,00*66
2017-11-16 17:06:28 1510869988.408967: $GPGGA,220627,3946.9579,N,08404.9818,W,2,12,0.80,312.00,M,-33.324,M,,*79
2017-11-16 17:06:28 1510869988.409027: $GPRMC,220627,A,3946.9579,N,08404.9818,W,0.0000,0.000,161117,,*37
2017-11-16 17:06:28 1510869988.409083: $GPGSA,A,3,1,10,11,12,14,18,22,24,25,31,32,138,1.6,0.8,1.3*38
2017-11-16 17:06:29 1510869989.413480: $GPZDA,220628.00,16,11,2017,00,00*69
2017-11-16 17:06:29 1510869989.413650: $GPGGA,220628,3946.9579,N,08404.9818,W,2,12,0.80,312.00,M,-33.324,M,,*76
2017-11-16 17:06:29 1510869989.413710: $GPRMC,220628,A,3946.9579,N,08404.9818,W,0.0000,0.000,161117,,*38
2017-11-16 17:06:29 1510869989.413765: $GPGSA,A,3,1,10,11,12,14,18,22,24,25,31,32,138,1.6,0.8,1.3*38
2017-11-16 17:06:30 1510869990.750237: $GPGSV,3,1,12,01,18,312,40,10,60,141,47,11,10,292,42,12,25,061,49*74
2017-11-16 17:06:30 1510869990.750420: $GPGSV,3,2,12,14,60,306,46,18,29,139,44,22,09,312,30,24,06,046,34*79
2017-11-16 17:06:30 1510869990.750481: $GPGSV,3,3,12,25,35,105,47,31,43,217,48,32,70,354,49,138,38,213,45*48
2017-11-16 17:06:30 1510869990.864214: $GPZDA,220629.00,16,11,2017,00,00*68
2017-11-16 17:06:30 1510869990.864387: $GPGGA,220629,3946.9579,N,08404.9818,W,2,12,0.80,312.00,M,-33.324,M,,*77
2017-11-16 17:06:30 1510869990.864466: $GPRMC,220629,A,3946.9579,N,08404.9818,W,0.0000,0.000,161117,,*39
2017-11-16 17:06:30 1510869990.864534: $GPGSA,A,3,1,10,11,12,14,18,22,24,25,31,32,138,1.6,0.8,1.3*38
2017-11-16 17:06:31 1510869991.488965: $GPZDA,220630.00,16,11,2017,00,00*60
2017-11-16 17:06:31 1510869991.489124: $GPGGA,220630,3946.9579,N,08404.9818,W,2,12,0.80,312.00,M,-33.324,M,,*7F
2017-11-16 17:06:31 1510869991.489185: $GPRMC,220630,A,3946.9579,N,08404.9818,W,0.0000,0.000,161117,,*31
2017-11-16 17:06:31 1510869991.489241: $GPGSA,A,3,1,10,11,12,14,18,22,24,25,31,32,138,1.6,0.8,1.3*38
2017-11-16 17:06:32 1510869992.397201: $GPZDA,220631.00,16,11,2017,00,00*61
2017-11-16 17:06:32 1510869992.397383: $GPGGA,220631,3946.9579,N,08404.9818,W,2,12,0.80,312.00,M,-33.324,M,,*7E
2017-11-16 17:06:32 1510869992.397462: $GPRMC,220631,A,3946.9579,N,08404.9818,W,0.0000,0.000,161117,,*30
2017-11-16 17:06:32 1510869992.397519: $GPGSA,A,3,1,10,11,12,14,18,22,24,25,31,32,138,1.6,0.8,1.3*38
2017-11-16 17:06:33 1510869993.744363: $GPGSV,3,1,12,01,18,312,40,10,60,141,47,11,10,292,43,12,25,061,49*75
2017-11-16 17:06:33 1510869993.744565: $GPGSV,3,2,12,14,60,306,46,18,29,139,44,22,09,312,32,24,06,046,34*7B
2017-11-16 17:06:33 1510869993.744671: $GPGSV,3,3,12,25,35,105,46,31,43,217,47,32,70,354,49,138,38,213,44*47
2017-11-16 17:06:33 1510869993.856759: $GPZDA,220632.00,16,11,2017,00,00*62
2017-11-16 17:06:33 1510869993.857063: $GPGGA,220632,3946.9579,N,08404.9818,W,2,12,0.80,312.00,M,-33.324,M,,*7D
2017-11-16 17:06:33 1510869993.857181: $GPRMC,220632,A,3946.9579,N,08404.9818,W,0.0000,0.000,161117,,*33
2017-11-16 17:06:33 1510869993.857309: $GPGSA,A,3,1,10,11,12,14,18,22,24,25,31,32,138,1.6,0.8,1.3*38
2017-11-16 17:06:34 1510869994.397195: $GPZDA,220633.00,16,11,2017,00,00*63
2017-11-16 17:06:34 1510869994.397382: $GPGGA,220633,3946.9579,N,08404.9818,W,2,12,0.80,312.00,M,-33.324,M,,*7C
2017-11-16 17:06:34 1510869994.397461: $GPRMC,220633,A,3946.9579,N,08404.9818,W,0.0000,0.000,161117,,*32
2017-11-16 17:06:34 1510869994.397518: $GPGSA,A,3,1,10,11,12,14,18,22,24,25,31,32,138,1.6,0.8,1.3*38
2017-11-16 17:06:35 1510869995.396903: $GPZDA,220634.00,16,11,2017,00,00*64
2017-11-16 17:06:35 1510869995.397180: $GPGGA,220634,3946.9579,N,08404.9818,W,2,12,0.80,312.00,M,-33.324,M,,*7B
2017-11-16 17:06:35 1510869995.397252: $GPRMC,220634,A,3946.9579,N,08404.9818,W,0.0000,0.000,161117,,*35
2017-11-16 17:06:35 1510869995.397310: $GPGSA,A,3,1,10,11,12,14,18,22,24,25,31,32,138,1.6,0.8,1.3*38
2017-11-16 17:06:36 1510869996.734654: $GPGSV,3,1,12,01,18,312,39,10,60,141,47,11,10,292,43,12,25,061,49*7B
2017-11-16 17:06:36 1510869996.734824: $GPGSV,3,2,12,14,60,306,46,18,29,139,44,22,09,312,28,24,06,046,34*70
2017-11-16 17:06:36 1510869996.734885: $GPGSV,3,3,12,25,35,105,46,31,43,217,47,32,70,354,49,138,38,213,44*47
2017-11-16 17:06:36 1510869996.848826: $GPZDA,220635.00,16,11,2017,00,00*65
2017-11-16 17:06:36 1510869996.848989: $GPGGA,220635,3946.9579,N,08404.9818,W,2,12,0.80,312.00,M,-33.324,M,,*7A
2017-11-16 17:06:36 1510869996.849050: $GPRMC,220635,A,3946.9579,N,08404.9818,W,0.0000,0.000,161117,,*34
2017-11-16 17:06:36 1510869996.849106: $GPGSA,A,3,1,10,11,12,14,18,22,24,25,31,32,138,1.6,0.8,1.3*38
2017-11-16 17:06:37 1510869997.397630: $GPZDA,220636.00,16,11,2017,00,00*66
2017-11-16 17:06:37 1510869997.397792: $GPGGA,220636,3946.9579,N,08404.9818,W,2,12,0.80,312.00,M,-33.324,M,,*79
2017-11-16 17:06:37 1510869997.397853: $GPRMC,220636,A,3946.9579,N,08404.9818,W,0.0000,0.000,161117,,*37
2017-11-16 17:06:37 1510869997.397909: $GPGSA,A,3,1,10,11,12,14,18,22,24,25,31,32,138,1.6,0.8,1.3*38
