2017-12-01 12:16:42 1512148602.116518: {"class":"VERSION","release":"3.16","rev":"3.16-4","proto_major":3,"proto_minor":11}
2017-12-01 12:16:42 1512148602.116905: {"class":"DEVICES","devices":[{"class":"DEVICE","path":"/dev/ttyUSB0","driver":"SiRF","subtype":"9\u0006GSD4e_4.1.2-P1_RPATCH.05-F-GPS-4R-1510281 11/03/2015 307","activated":"2017-12-01T17:16:41.896Z","flags":1,"native":1,"bps":4800,"parity":"N","stopbits":1,"cycle":1.00}]}
2017-12-01 12:16:42 1512148602.117025: {"class":"WATCH","enable":true,"json":false,"nmea":true,"raw":0,"scaled":false,"timing":false,"split24":false,"pps":false}
2017-12-01 12:16:42 1512148602.873912: $GPZDA,171643.57,01,12,2017,00,00*64
2017-12-01 12:16:42 1512148602.874097: $GPGGA,171643,3946.9595,N,08404.9802,W,1,11,0.80,299.07,M,-33.324,M,,*70
2017-12-01 12:16:42 1512148602.874164: $GPRMC,171643,A,3946.9595,N,08404.9802,W,0.3031,39.208,011217,,*0F
2017-12-01 12:16:42 1512148602.874226: $GPGSA,A,3,10,13,15,18,20,21,24,27,5,29,138,,2.0,0.8,1.5*34
2017-12-01 12:16:42 1512148602.874284: $GPGBS,171643,10.70,M,15.43,M,35.28,M*01
2017-12-01 12:16:43 1512148603.977975: $GPZDA,171644.25,01,12,2017,00,00*66
2017-12-01 12:16:43 1512148603.978153: $GPGGA,171644,3946.9584,N,08404.9818,W,1,11,0.80,299.80,M,-33.324,M,,*73
2017-12-01 12:16:43 1512148603.978221: $GPRMC,171644,A,3946.9584,N,08404.9818,W,0.1867,0.000,011217,,*3A
2017-12-01 12:16:43 1512148603.978282: $GPGSA,A,3,10,13,15,18,20,21,24,27,5,29,138,,2.0,0.8,1.5*34
2017-12-01 12:16:45 1512148605.142990: $GPGSV,3,1,11,10,23,283,42,13,29,045,45,15,61,051,46,18,54,300,45*72
2017-12-01 12:16:45 1512148605.143170: $GPGSV,3,2,11,20,52,072,46,21,78,268,43,24,33,138,47,27,16,313,37*75
2017-12-01 12:16:45 1512148605.143237: $GPGSV,3,3,11,29,10,190,33,05,04,087,00,138,38,213,00*74
2017-12-01 12:16:45 1512148605.256543: $GPZDA,171645.00,01,12,2017,00,00*60
2017-12-01 12:16:45 1512148605.256725: $GPGGA,171645,3946.9585,N,08404.9825,W,1,09,0.80,299.72,M,-33.324,M,,*79
2017-12-01 12:16:45 1512148605.256792: $GPRMC,171645,A,3946.9585,N,08404.9825,W,0.0000,0.000,011217,,*3C
2017-12-01 12:16:45 1512148605.256853: $GPGSA,A,3,10,13,15,18,20,21,24,27,29,,,,2.0,0.8,1.5*3B
2017-12-01 12:16:45 1512148605.708549: $GPZDA,171646.00,01,12,2017,00,00*63
2017-12-01 12:16:45 1512148605.708723: $GPGGA,171646,3946.9583,N,08404.9829,W,1,09,0.80,295.43,M,-33.324,M,,*7E
2017-12-01 12:16:45 1512148605.708791: $GPRMC,171646,A,3946.9583,N,08404.9829,W,0.0000,0.000,011217,,*35
2017-12-01 12:16:45 1512148605.708852: $GPGSA,A,3,10,13,15,18,20,21,24,27,29,,,,2.0,0.8,1.5*3B
2017-12-01 12:16:46 1512148606.363132: $GPZDA,171647.00,01,12,2017,00,00*62
2017-12-01 12:16:46 1512148606.363301: $GPGGA,171647,3946.9583,N,08404.9829,W,1,09,0.80,295.43,M,-33.324,M,,*7F
2017-12-01 12:16:46 1512148606.363368: $GPRMC,171647,A,3946.9583,N,08404.9829,W,0.0000,0.000,011217,,*34
2017-12-01 12:16:46 1512148606.363429: $GPGSA,A,3,10,13,15,18,20,21,24,27,29,,,,2.0,0.8,1.5*3B
2017-12-01 12:16:47 1512148607.702129: $GPGSV,3,1,12,10,23,283,43,13,29,045,44,15,61,051,46,18,54,300,45*71
2017-12-01 12:16:47 1512148607.706547: $GPGSV,3,2,12,20,52,072,46,21,78,268,43,24,33,138,47,27,16,313,37*76
2017-12-01 12:16:47 1512148607.706654: $GPGSV,3,3,12,29,10,190,33,05,04,087,13,32,01,225,00,138,38,213,48*4C
2017-12-01 12:16:47 1512148607.815483: $GPZDA,171648.00,01,12,2017,00,00*6D
2017-12-01 12:16:47 1512148607.815634: $GPGGA,171648,3946.9583,N,08404.9829,W,1,11,0.80,295.43,M,-33.324,M,,*79
2017-12-01 12:16:47 1512148607.815699: $GPRMC,171648,A,3946.9583,N,08404.9829,W,0.0000,0.000,011217,,*3B
2017-12-01 12:16:47 1512148607.815760: $GPGSA,A,3,10,13,15,18,20,21,24,27,29,5,138,,2.0,0.8,1.5*34
2017-12-01 12:16:48 1512148608.362880: $GPZDA,171649.00,01,12,2017,00,00*6C
2017-12-01 12:16:48 1512148608.363053: $GPGGA,171649,3946.9583,N,08404.9836,W,1,11,0.80,295.35,M,-33.324,M,,*77
2017-12-01 12:16:48 1512148608.363121: $GPRMC,171649,A,3946.9583,N,08404.9836,W,0.0000,0.000,011217,,*34
2017-12-01 12:16:48 1512148608.363183: $GPGSA,A,3,10,13,15,18,20,21,24,27,29,5,138,,2.0,0.8,1.5*34
2017-12-01 12:16:49 1512148609.363554: $GPZDA,171650.00,01,12,2017,00,00*64
2017-12-01 12:16:49 1512148609.363783: $GPGGA,171650,3946.9583,N,08404.9836,W,1,11,0.80,295.35,M,-33.324,M,,*7F
2017-12-01 12:16:49 1512148609.363851: $GPRMC,171650,A,3946.9583,N,08404.9836,W,0.0000,0.000,011217,,*3C
2017-12-01 12:16:49 1512148609.363912: $GPGSA,A,3,10,13,15,18,20,21,24,27,29,5,138,,2.0,0.8,1.5*34
2017-12-01 12:16:49 1512148609.363970: $GPGBS,171650,10.70,M,15.43,M,35.28,M*03
2017-12-01 12:16:50 1512148610.704232: $GPGSV,3,1,12,10,23,283,43,13,29,045,44,15,61,051,46,18,54,300,45*71
2017-12-01 12:16:50 1512148610.704415: $GPGSV,3,2,12,20,52,072,46,21,78,268,43,24,33,138,48,27,16,313,37*79
2017-12-01 12:16:50 1512148610.704483: $GPGSV,3,3,12,29,10,190,33,05,04,087,14,32,01,225,00,138,38,213,47*44
2017-12-01 12:16:50 1512148610.817644: $GPZDA,171651.00,01,12,2017,00,00*65
2017-12-01 12:16:50 1512148610.817825: $GPGGA,171651,3946.9583,N,08404.9836,W,1,11,0.80,295.35,M,-33.324,M,,*7E
2017-12-01 12:16:50 1512148610.817894: $GPRMC,171651,A,3946.9583,N,08404.9836,W,0.0000,0.000,011217,,*3D
2017-12-01 12:16:50 1512148610.817954: $GPGSA,A,3,10,13,15,18,20,21,24,27,29,5,138,,2.0,0.8,1.5*34
2017-12-01 12:16:51 1512148611.363879: $GPZDA,171652.00,01,12,2017,00,00*66
2017-12-01 12:16:51 1512148611.364053: $GPGGA,171652,3946.9583,N,08404.9836,W,1,11,0.80,295.35,M,-33.324,M,,*7D
2017-12-01 12:16:51 1512148611.364121: $GPRMC,171652,A,3946.9583,N,08404.9836,W,0.0000,0.000,011217,,*3E
2017-12-01 12:16:51 1512148611.364182: $GPGSA,A,3,10,13,15,18,20,21,24,27,29,5,138,,2.0,0.8,1.5*34
