2017-11-15 19:11:23 1510791083.624881: {"class":"VERSION","release":"3.17","rev":"3.17","proto_major":3,"proto_minor":12}
2017-11-15 19:11:23 1510791083.625320: {"class":"DEVICES","devices":[{"class":"DEVICE","path":"/dev/ttyUSB0","driver":"SiRF","subtype":"9\u0006GSD4e_4.1.2-P1_RPATCH.05-F-GPS-4R-1510281 11/03/2015 307","activated":"2017-11-16T00:11:23.469Z","flags":1,"native":1,"bps":4800,"parity":"N","stopbits":1,"cycle":1.00}]}
2017-11-15 19:11:23 1510791083.625433: {"class":"WATCH","enable":true,"json":false,"nmea":true,"raw":0,"scaled":false,"timing":false,"split24":false,"pps":false}
2017-11-15 19:11:24 1510791084.665168: $GPGSV,3,1,12,32,43,099,22,14,61,079,24,22,49,283,00,26,43,175,11*70
2017-11-15 19:11:24 1510791084.665364: $GPGSV,3,2,12,31,74,006,26,16,14,190,18,25,24,043,00,03,34,307,18*74
2017-11-15 19:11:24 1510791084.665430: $GPGSV,3,3,12,01,10,259,00,29,07,079,00,10,05,159,00,120,07,103,00*49
2017-11-15 19:11:24 1510791084.778504: $GPZDA,001123.00,16,11,2017,00,00*64
2017-11-15 19:11:24 1510791084.778669: $GPGGA,001123,3946.9653,N,08404.9434,W,1,06,1.60,304.75,M,-33.324,M,,*7E
2017-11-15 19:11:24 1510791084.778729: $GPRMC,001123,A,3946.9653,N,08404.9434,W,0.7278,23.636,161117,,*04
2017-11-15 19:11:24 1510791084.778785: $GPGSA,A,3,32,14,26,31,16,3,,,,,,,3.4,1.6,2.9*0F
2017-11-15 19:11:25 1510791085.334550: $GPZDA,001124.00,16,11,2017,00,00*63
2017-11-15 19:11:25 1510791085.334723: $GPGGA,001124,3946.9657,N,08404.9433,W,1,06,1.60,303.99,M,-33.324,M,,*7F
2017-11-15 19:11:25 1510791085.334784: $GPRMC,001124,A,3946.9657,N,08404.9433,W,1.0298,74.382,161117,,*00
2017-11-15 19:11:25 1510791085.334840: $GPGSA,A,3,32,14,26,31,16,3,,,,,,,3.4,1.6,2.9*0F
2017-11-15 19:11:26 1510791086.328348: $GPZDA,001125.00,16,11,2017,00,00*62
2017-11-15 19:11:26 1510791086.328524: $GPGGA,001125,3946.9661,N,08404.9433,W,1,06,1.60,304.63,M,-33.324,M,,*79
2017-11-15 19:11:26 1510791086.328585: $GPRMC,001125,A,3946.9661,N,08404.9433,W,1.0298,74.382,161117,,*04
2017-11-15 19:11:26 1510791086.328641: $GPGSA,A,3,32,14,26,31,16,3,,,,,,,3.4,1.6,2.9*0F
2017-11-15 19:11:27 1510791087.664083: $GPGSV,3,1,11,32,43,099,22,14,61,079,24,22,49,283,00,26,43,175,10*72
2017-11-15 19:11:27 1510791087.664251: $GPGSV,3,2,11,31,74,006,26,16,14,190,18,25,24,043,00,03,34,307,18*77
2017-11-15 19:11:27 1510791087.664311: $GPGSV,3,3,11,01,10,259,00,29,07,079,00,10,05,159,00*4C
2017-11-15 19:11:27 1510791087.777648: $GPZDA,001126.00,16,11,2017,00,00*61
2017-11-15 19:11:27 1510791087.777811: $GPGGA,001126,3946.9661,N,08404.9433,W,1,06,1.60,304.63,M,-33.324,M,,*7A
2017-11-15 19:11:27 1510791087.777871: $GPRMC,001126,A,3946.9661,N,08404.9433,W,0.7576,81.915,161117,,*08
2017-11-15 19:11:27 1510791087.777927: $GPGSA,A,3,32,14,26,31,16,3,,,,,,,3.4,1.6,2.9*0F
2017-11-15 19:11:28 1510791088.328467: $GPZDA,001127.00,16,11,2017,00,00*60
2017-11-15 19:11:28 1510791088.328638: $GPGGA,001127,3946.9664,N,08404.9433,W,1,06,1.60,303.86,M,-33.324,M,,*72
2017-11-15 19:11:28 1510791088.328699: $GPRMC,001127,A,3946.9664,N,08404.9433,W,1.1902,58.684,161117,,*07
2017-11-15 19:11:28 1510791088.328755: $GPGSA,A,3,32,14,26,31,16,3,,,,,,,3.4,1.6,2.9*0F
2017-11-15 19:11:29 1510791089.329221: $GPZDA,001128.00,16,11,2017,00,00*6F
2017-11-15 19:11:29 1510791089.329393: $GPGGA,001128,3946.9669,N,08404.9433,W,1,06,2.20,304.50,M,-33.324,M,,*7B
2017-11-15 19:11:29 1510791089.329454: $GPRMC,001128,A,3946.9669,N,08404.9433,W,1.0018,50.691,161117,,*0A
2017-11-15 19:11:29 1510791089.329510: $GPGSA,A,3,32,14,26,31,16,3,,,,,,,3.4,2.2,2.9*08
2017-11-15 19:11:30 1510791090.663828: $GPGSV,3,1,11,32,43,099,23,14,61,079,24,22,49,283,00,26,43,175,06*74
2017-11-15 19:11:30 1510791090.663998: $GPGSV,3,2,11,31,74,006,26,16,14,190,18,25,24,043,00,03,34,307,18*77
2017-11-15 19:11:30 1510791090.664057: $GPGSV,3,3,11,01,10,259,00,29,07,079,00,10,05,159,00*4C
2017-11-15 19:11:30 1510791090.777244: $GPZDA,001129.00,16,11,2017,00,00*6E
2017-11-15 19:11:30 1510791090.777413: $GPGGA,001129,3946.9669,N,08404.9433,W,1,05,2.20,304.50,M,-33.324,M,,*79
2017-11-15 19:11:30 1510791090.777473: $GPRMC,001129,A,3946.9669,N,08404.9433,W,0.8414,39.347,161117,,*0B
2017-11-15 19:11:30 1510791090.777579: $GPGSA,A,3,32,14,31,16,3,,,,,,,,3.4,2.2,2.9*0C
2017-11-15 19:11:31 1510791091.402713: $GPZDA,001130.00,16,11,2017,00,00*66
2017-11-15 19:11:31 1510791091.402879: $GPGGA,001130,3946.9676,N,08404.9432,W,1,05,2.20,304.38,M,-33.324,M,,*70
2017-11-15 19:11:31 1510791091.402940: $GPRMC,001130,A,3946.9676,N,08404.9432,W,1.2971,51.620,161117,,*03
2017-11-15 19:11:31 1510791091.402996: $GPGSA,A,3,32,14,31,16,3,,,,,,,,3.4,2.2,2.9*0C
2017-11-15 19:11:32 1510791092.328695: $GPZDA,001131.00,16,11,2017,00,00*67
2017-11-15 19:11:32 1510791092.328858: $GPGGA,001131,3946.9676,N,08404.9432,W,1,05,1.60,304.38,M,-33.324,M,,*76
2017-11-15 19:11:32 1510791092.328920: $GPRMC,001131,A,3946.9676,N,08404.9432,W,1.3954,64.414,161117,,*07
2017-11-15 19:11:32 1510791092.328976: $GPGSA,A,3,32,14,31,16,3,,,,,,,,3.4,1.6,2.9*0B
2017-11-15 19:11:33 1510791093.665165: $GPGSV,3,1,11,32,43,099,23,14,61,079,24,22,49,283,00,26,43,175,10*73
2017-11-15 19:11:34 1510791094.019051: $GPGSV,3,2,11,31,74,006,26,16,14,190,18,25,24,043,00,03,34,307,18*77
2017-11-15 19:11:34 1510791094.019199: $GPGSV,3,3,11,01,10,259,00,29,07,079,00,10,05,159,00*4C
2017-11-15 19:11:34 1510791094.019293: $GPZDA,001132.00,16,11,2017,00,00*64
2017-11-15 19:11:34 1510791094.019346: $GPGGA,001132,3946.9680,N,08404.9432,W,1,06,1.60,305.02,M,-33.324,M,,*77
2017-11-15 19:11:34 1510791094.019403: $GPRMC,001132,A,3946.9680,N,08404.9432,W,1.6108,68.645,161117,,*03
2017-11-15 19:11:34 1510791094.019457: $GPGSA,A,3,32,14,26,31,16,3,,,,,,,3.4,1.6,2.9*0F
