2017-12-01 13:53:42 1512154422.773982: {"class":"VERSION","release":"3.16","rev":"3.16-4","proto_major":3,"proto_minor":11}
2017-12-01 13:53:42 1512154422.774362: {"class":"DEVICES","devices":[{"class":"DEVICE","path":"/dev/ttyUSB0","driver":"SiRF","subtype":"9\u0006GSD4e_4.1.2-P1_RPATCH.05-F-GPS-4R-1510281 11/03/2015 307","activated":"2017-12-01T18:53:42.737Z","flags":1,"native":1,"bps":4800,"parity":"N","stopbits":1,"cycle":1.00}]}
2017-12-01 13:53:42 1512154422.774496: {"class":"WATCH","enable":true,"json":false,"nmea":true,"raw":0,"scaled":false,"timing":false,"split24":false,"pps":false}
2017-12-01 13:53:42 1512154422.850832: $GPZDA,185343.00,01,12,2017,00,00*68
2017-12-01 13:53:42 1512154422.851003: $GPGGA,185343,3946.9566,N,08404.9833,W,2,12,0.80,299.25,M,-33.324,M,,*70
2017-12-01 13:53:42 1512154422.851070: $GPRMC,185343,A,3946.9566,N,08404.9833,W,0.0000,0.000,011217,,*3E
2017-12-01 13:53:42 1512154422.851131: $GPGSA,A,3,10,14,15,18,20,21,24,27,32,8,12,138,2.0,0.8,1.5*37
2017-12-01 13:53:43 1512154423.398144: $GPZDA,185344.00,01,12,2017,00,00*6F
2017-12-01 13:53:43 1512154423.398352: $GPGGA,185344,3946.9566,N,08404.9833,W,2,12,0.80,299.25,M,-33.324,M,,*77
2017-12-01 13:53:43 1512154423.398420: $GPRMC,185344,A,3946.9566,N,08404.9833,W,0.0000,0.000,011217,,*39
2017-12-01 13:53:43 1512154423.398482: $GPGSA,A,3,10,14,15,18,20,21,24,27,32,8,12,138,2.0,0.8,1.5*37
2017-12-01 13:53:44 1512154424.392632: $GPZDA,185345.00,01,12,2017,00,00*6E
2017-12-01 13:53:44 1512154424.392794: $GPGGA,185345,3946.9566,N,08404.9833,W,2,12,0.80,299.25,M,-33.324,M,,*76
2017-12-01 13:53:44 1512154424.392860: $GPRMC,185345,A,3946.9566,N,08404.9833,W,0.0000,0.000,011217,,*38
2017-12-01 13:53:44 1512154424.392920: $GPGSA,A,3,10,14,15,18,20,21,24,27,32,8,12,138,2.0,0.8,1.5*37
2017-12-01 13:53:45 1512154425.734509: $GPGSV,3,1,12,10,57,316,48,14,19,243,39,15,21,060,44,18,77,048,43*72
2017-12-01 13:53:45 1512154425.734688: $GPGSV,3,2,12,20,19,109,45,21,43,181,45,24,52,076,49,27,13,271,36*7E
2017-12-01 13:53:45 1512154425.734754: $GPGSV,3,3,12,32,36,252,43,08,08,306,34,12,01,117,14,138,38,213,46*4D
2017-12-01 13:53:45 1512154425.847857: $GPZDA,185346.00,01,12,2017,00,00*6D
2017-12-01 13:53:45 1512154425.848031: $GPGGA,185346,3946.9566,N,08404.9833,W,2,12,0.80,299.25,M,-33.324,M,,*75
2017-12-01 13:53:45 1512154425.848098: $GPRMC,185346,A,3946.9566,N,08404.9833,W,0.0000,0.000,011217,,*3B
2017-12-01 13:53:45 1512154425.848181: $GPGSA,A,3,10,14,15,18,20,21,24,27,32,8,12,138,2.0,0.8,1.5*37
2017-12-01 13:53:46 1512154426.400000: $GPZDA,185347.00,01,12,2017,00,00*6C
2017-12-01 13:53:46 1512154426.400210: $GPGGA,185347,3946.9566,N,08404.9833,W,2,12,0.80,299.25,M,-33.324,M,,*74
2017-12-01 13:53:46 1512154426.400293: $GPRMC,185347,A,3946.9566,N,08404.9833,W,0.0000,0.000,011217,,*3A
2017-12-01 13:53:46 1512154426.400356: $GPGSA,A,3,10,14,15,18,20,21,24,27,32,8,12,138,2.0,0.8,1.5*37
2017-12-01 13:53:47 1512154427.399168: $GPZDA,185348.00,01,12,2017,00,00*63
2017-12-01 13:53:47 1512154427.399356: $GPGGA,185348,3946.9566,N,08404.9833,W,2,12,0.80,299.25,M,-33.324,M,,*7B
2017-12-01 13:53:47 1512154427.399424: $GPRMC,185348,A,3946.9566,N,08404.9833,W,0.0000,0.000,011217,,*35
2017-12-01 13:53:47 1512154427.399485: $GPGSA,A,3,10,14,15,18,20,21,24,27,32,8,12,138,2.0,0.8,1.5*37
2017-12-01 13:53:48 1512154428.736172: $GPGSV,3,1,12,10,57,316,48,14,19,243,39,15,21,060,44,18,77,048,43*72
2017-12-01 13:53:48 1512154428.736367: $GPGSV,3,2,12,20,19,109,45,21,43,181,45,24,52,076,48,27,13,271,36*7F
2017-12-01 13:53:48 1512154428.736434: $GPGSV,3,3,12,32,36,252,43,08,08,306,33,12,01,117,00,138,38,213,47*4E
2017-12-01 13:53:48 1512154428.849477: $GPZDA,185349.00,01,12,2017,00,00*62
2017-12-01 13:53:48 1512154428.849678: $GPGGA,185349,3946.9569,N,08404.9839,W,2,11,0.80,298.41,M,-33.324,M,,*7F
2017-12-01 13:53:48 1512154428.849746: $GPRMC,185349,A,3946.9569,N,08404.9839,W,0.0000,0.000,011217,,*31
2017-12-01 13:53:48 1512154428.849808: $GPGSA,A,3,10,14,15,18,20,21,24,27,32,8,138,,2.0,0.8,1.5*34
2017-12-01 13:53:49 1512154429.395490: $GPZDA,185350.00,01,12,2017,00,00*6A
2017-12-01 13:53:49 1512154429.395891: $GPGGA,185350,3946.9569,N,08404.9839,W,2,11,0.80,298.41,M,-33.324,M,,*77
2017-12-01 13:53:49 1512154429.396234: $GPRMC,185350,A,3946.9569,N,08404.9839,W,0.0000,0.000,011217,,*39
2017-12-01 13:53:49 1512154429.396338: $GPGSA,A,3,10,14,15,18,20,21,24,27,32,8,138,,2.0,0.8,1.5*34
2017-12-01 13:53:50 1512154430.399988: $GPZDA,185351.00,01,12,2017,00,00*6B
2017-12-01 13:53:50 1512154430.400185: $GPGGA,185351,3946.9569,N,08404.9839,W,2,11,0.80,298.41,M,-33.324,M,,*76
2017-12-01 13:53:50 1512154430.400252: $GPRMC,185351,A,3946.9569,N,08404.9839,W,0.0000,0.000,011217,,*38
2017-12-01 13:53:50 1512154430.400333: $GPGSA,A,3,10,14,15,18,20,21,24,27,32,8,138,,2.0,0.8,1.5*34
2017-12-01 13:53:51 1512154431.734935: $GPGSV,3,1,12,10,57,316,48,14,19,243,39,15,21,060,45,18,77,048,43*73
2017-12-01 13:53:51 1512154431.735341: $GPGSV,3,2,12,20,19,109,45,21,43,181,45,24,52,076,49,27,13,271,36*7E
2017-12-01 13:53:51 1512154431.737947: $GPGSV,3,3,12,32,36,252,43,08,08,306,26,12,01,117,00,138,38,213,46*4B
2017-12-01 13:53:51 1512154431.847935: $GPZDA,185352.00,01,12,2017,00,00*68
2017-12-01 13:53:51 1512154431.848103: $GPGGA,185352,3946.9569,N,08404.9839,W,2,11,0.80,298.41,M,-33.324,M,,*75
2017-12-01 13:53:51 1512154431.848188: $GPRMC,185352,A,3946.9569,N,08404.9839,W,0.0000,0.000,011217,,*3B
2017-12-01 13:53:51 1512154431.848250: $GPGSA,A,3,10,14,15,18,20,21,24,27,32,8,138,,2.0,0.8,1.5*34
2017-12-01 13:53:52 1512154432.473220: $GPZDA,185353.00,01,12,2017,00,00*69
2017-12-01 13:53:52 1512154432.473413: $GPGGA,185353,3946.9569,N,08404.9839,W,2,11,0.80,298.41,M,-33.324,M,,*74
2017-12-01 13:53:52 1512154432.473479: $GPRMC,185353,A,3946.9569,N,08404.9839,W,0.0000,0.000,011217,,*3A
2017-12-01 13:53:52 1512154432.473540: $GPGSA,A,3,10,14,15,18,20,21,24,27,32,8,138,,2.0,0.8,1.5*34
2017-12-01 13:53:53 1512154433.399276: $GPZDA,185354.00,01,12,2017,00,00*6E
2017-12-01 13:53:53 1512154433.399447: $GPGGA,185354,3946.9569,N,08404.9839,W,2,11,0.80,298.41,M,-33.324,M,,*73
2017-12-01 13:53:53 1512154433.399514: $GPRMC,185354,A,3946.9569,N,08404.9839,W,0.0000,0.000,011217,,*3D
2017-12-01 13:53:53 1512154433.399575: $GPGSA,A,3,10,14,15,18,20,21,24,27,32,8,138,,2.0,0.8,1.5*34
2017-12-01 13:53:54 1512154434.739912: $GPGSV,3,1,12,10,57,316,49,14,19,243,39,15,21,060,45,18,77,048,43*72
2017-12-01 13:53:54 1512154434.740093: $GPGSV,3,2,12,20,19,109,45,21,43,181,45,24,52,076,48,27,13,271,36*7F
2017-12-01 13:53:54 1512154434.740183: $GPGSV,3,3,12,32,36,252,43,08,08,306,31,12,01,117,01,138,38,213,47*4D
2017-12-01 13:53:54 1512154434.853552: $GPZDA,185355.00,01,12,2017,00,00*6F
2017-12-01 13:53:54 1512154434.853765: $GPGGA,185355,3946.9569,N,08404.9839,W,2,11,0.80,298.41,M,-33.324,M,,*72
2017-12-01 13:53:54 1512154434.853854: $GPRMC,185355,A,3946.9569,N,08404.9839,W,0.0000,0.000,011217,,*3C
2017-12-01 13:53:54 1512154434.853927: $GPGSA,A,3,10,14,15,18,20,21,24,27,32,8,138,,2.0,0.8,1.5*34
2017-12-01 13:53:55 1512154435.392904: $GPZDA,185356.00,01,12,2017,00,00*6C
2017-12-01 13:53:55 1512154435.393080: $GPGGA,185356,3946.9569,N,08404.9839,W,2,11,0.80,298.41,M,-33.324,M,,*71
2017-12-01 13:53:55 1512154435.393172: $GPRMC,185356,A,3946.9569,N,08404.9839,W,0.0000,0.000,011217,,*3F
2017-12-01 13:53:55 1512154435.393266: $GPGSA,A,3,10,14,15,18,20,21,24,27,32,8,138,,2.0,0.8,1.5*34
2017-12-01 13:53:56 1512154436.392488: $GPZDA,185357.00,01,12,2017,00,00*6D
2017-12-01 13:53:56 1512154436.392656: $GPGGA,185357,3946.9569,N,08404.9839,W,2,11,0.80,298.41,M,-33.324,M,,*70
2017-12-01 13:53:56 1512154436.392724: $GPRMC,185357,A,3946.9569,N,08404.9839,W,0.0000,0.000,011217,,*3E
2017-12-01 13:53:56 1512154436.392786: $GPGSA,A,3,10,14,15,18,20,21,24,27,32,8,138,,2.0,0.8,1.5*34
2017-12-01 13:53:57 1512154437.735304: $GPGSV,3,1,12,10,57,316,49,14,19,243,40,15,21,060,45,18,77,048,43*7C
2017-12-01 13:53:57 1512154437.735657: $GPGSV,3,2,12,20,19,109,45,21,43,181,45,24,52,076,48,27,13,271,36*7F
2017-12-01 13:53:57 1512154437.735782: $GPGSV,3,3,12,32,36,252,44,08,08,306,31,12,01,117,17,138,38,213,46*4C
