2018-01-11 20:19:19 1515719959.536090: {"class":"VERSION","release":"3.16","rev":"3.16-4","proto_major":3,"proto_minor":11}
2018-01-11 20:19:19 1515719959.536435: {"class":"DEVICES","devices":[{"class":"DEVICE","path":"/dev/ttyUSB0","driver":"SiRF","subtype":"9\u0006GSD4e_4.1.2-P1_RPATCH.05-F-GPS-4R-1510281 11/03/2015 307","activated":"2018-01-12T01:19:19.480Z","flags":1,"native":1,"bps":4800,"parity":"N","stopbits":1,"cycle":1.00}]}
2018-01-11 20:19:19 1515719959.536548: {"class":"WATCH","enable":true,"json":false,"nmea":true,"raw":0,"scaled":false,"timing":false,"split24":false,"pps":false}
2018-01-11 20:19:20 1515719960.230029: $GPZDA,011920.36,12,01,2018,00,00*61
2018-01-11 20:19:20 1515719960.230202: $GPGGA,011920,3946.9579,N,08404.9821,W,1,10,1.00,304.14,M,-33.324,M,,*71
2018-01-11 20:19:20 1515719960.230268: $GPRMC,011920,A,3946.9579,N,08404.9821,W,0.1867,0.000,120118,,*37
2018-01-11 20:19:20 1515719960.230330: $GPGSA,A,3,7,8,9,11,16,23,27,28,30,138,,,4.0,1.0,3.5*37
2018-01-11 20:19:20 1515719960.230387: $GPGBS,011920,14.62,M,24.83,M,80.38,M*0A
2018-01-11 20:19:21 1515719961.350002: $GPGSV,3,1,11,07,59,315,45,08,75,115,46,09,45,225,44,11,23,166,47*75
2018-01-11 20:19:21 1515719961.350171: $GPGSV,3,2,11,16,20,063,38,23,25,189,49,27,44,051,51,28,17,261,38*7F
2018-01-11 20:19:21 1515719961.350239: $GPGSV,3,3,11,30,32,307,03,01,02,162,00,138,38,213,10*7A
2018-01-11 20:19:21 1515719961.463362: $GPZDA,011921.00,12,01,2018,00,00*65
2018-01-11 20:19:21 1515719961.463527: $GPGGA,011921,3946.9582,N,08404.9820,W,1,09,1.00,303.37,M,-33.324,M,,*7B
2018-01-11 20:19:21 1515719961.463594: $GPRMC,011921,A,3946.9582,N,08404.9820,W,0.1567,189.200,120118,,*3C
2018-01-11 20:19:21 1515719961.463655: $GPGSA,A,3,7,8,9,11,16,23,27,28,138,,,,4.0,1.0,3.5*34
2018-01-11 20:19:21 1515719961.914261: $GPZDA,011922.00,12,01,2018,00,00*66
2018-01-11 20:19:21 1515719961.914428: $GPGGA,011922,3946.9578,N,08404.9827,W,1,09,0.80,302.65,M,-33.324,M,,*75
2018-01-11 20:19:21 1515719961.914494: $GPRMC,011922,A,3946.9578,N,08404.9827,W,0.0000,0.000,120118,,*3A
2018-01-11 20:19:21 1515719961.914555: $GPGSA,A,3,7,8,9,11,16,23,27,28,138,,,,4.0,0.8,3.5*3D
2018-01-11 20:19:22 1515719962.370108: $GPZDA,011923.00,12,01,2018,00,00*67
2018-01-11 20:19:22 1515719962.370256: $GPGGA,011923,3946.9582,N,08404.9826,W,1,09,0.80,301.89,M,-33.324,M,,*71
2018-01-11 20:19:22 1515719962.370322: $GPRMC,011923,A,3946.9582,N,08404.9826,W,0.0000,0.000,120118,,*3F
2018-01-11 20:19:22 1515719962.370382: $GPGSA,A,3,7,8,9,11,16,23,27,28,138,,,,4.0,0.8,3.5*3D
2018-01-11 20:19:23 1515719963.706591: $GPGSV,3,1,11,07,59,315,45,08,75,115,46,09,45,225,44,11,23,166,48*7A
2018-01-11 20:19:23 1515719963.706734: $GPGSV,3,2,11,16,20,063,39,23,25,189,49,27,44,051,51,28,17,261,39*7F
2018-01-11 20:19:23 1515719963.706800: $GPGSV,3,3,11,30,32,307,30,01,02,162,00,138,38,213,46*79
2018-01-11 20:19:23 1515719963.820013: $GPZDA,011924.00,12,01,2018,00,00*60
2018-01-11 20:19:23 1515719963.820146: $GPGGA,011924,3946.9582,N,08404.9833,W,1,10,0.80,301.81,M,-33.324,M,,*72
2018-01-11 20:19:23 1515719963.820213: $GPRMC,011924,A,3946.9582,N,08404.9833,W,0.0000,0.000,120118,,*3C
2018-01-11 20:19:23 1515719963.820275: $GPGSA,A,3,7,8,9,11,16,23,27,28,30,138,,,4.0,0.8,3.5*3E
2018-01-11 20:19:24 1515719964.370813: $GPZDA,011925.00,12,01,2018,00,00*61
2018-01-11 20:19:24 1515719964.370957: $GPGGA,011925,3946.9582,N,08404.9833,W,1,10,0.80,301.81,M,-33.324,M,,*73
2018-01-11 20:19:24 1515719964.371023: $GPRMC,011925,A,3946.9582,N,08404.9833,W,0.2422,93.794,120118,,*0B
2018-01-11 20:19:24 1515719964.371084: $GPGSA,A,3,7,8,9,11,16,23,27,28,30,138,,,4.0,0.8,3.5*3E
2018-01-11 20:19:25 1515719965.371612: $GPZDA,011926.00,12,01,2018,00,00*62
2018-01-11 20:19:25 1515719965.371776: $GPGGA,011926,3946.9586,N,08404.9839,W,1,10,0.80,300.97,M,-33.324,M,,*78
2018-01-11 20:19:25 1515719965.371842: $GPRMC,011926,A,3946.9586,N,08404.9839,W,0.0000,0.000,120118,,*30
2018-01-11 20:19:25 1515719965.371904: $GPGSA,A,3,7,8,9,11,16,23,27,28,30,138,,,4.0,0.8,3.5*3E
2018-01-11 20:19:25 1515719965.371962: $GPGBS,011926,14.62,M,24.83,M,80.38,M*0C
2018-01-11 20:19:26 1515719966.706055: $GPGSV,3,1,11,07,59,315,44,08,75,115,46,09,45,225,43,11,23,166,48*7C
2018-01-11 20:19:26 1515719966.708695: $GPGSV,3,2,11,16,20,063,39,23,25,189,49,27,44,051,51,28,17,261,39*7F
2018-01-11 20:19:26 1515719966.708801: $GPGSV,3,3,11,30,32,307,30,01,02,162,00,138,38,213,45*7A
2018-01-11 20:19:26 1515719966.819483: $GPZDA,011927.00,12,01,2018,00,00*63
2018-01-11 20:19:26 1515719966.819597: $GPGGA,011927,3946.9586,N,08404.9839,W,1,10,0.80,300.97,M,-33.324,M,,*79
2018-01-11 20:19:26 1515719966.819662: $GPRMC,011927,A,3946.9586,N,08404.9839,W,0.0000,0.000,120118,,*31
2018-01-11 20:19:26 1515719966.819722: $GPGSA,A,3,7,8,9,11,16,23,27,28,30,138,,,4.0,0.8,3.5*3E
2018-01-11 20:19:27 1515719967.372818: $GPZDA,011928.00,12,01,2018,00,00*6C
2018-01-11 20:19:27 1515719967.372969: $GPGGA,011928,3946.9586,N,08404.9839,W,1,10,0.80,300.97,M,-33.324,M,,*76
2018-01-11 20:19:27 1515719967.373053: $GPRMC,011928,A,3946.9586,N,08404.9839,W,0.0000,0.000,120118,,*3E
2018-01-11 20:19:27 1515719967.373115: $GPGSA,A,3,7,8,9,11,16,23,27,28,30,138,,,4.0,0.8,3.5*3E
2018-01-11 20:19:28 1515719968.371940: $GPZDA,011929.00,12,01,2018,00,00*6D
2018-01-11 20:19:28 1515719968.372137: $GPGGA,011929,3946.9598,N,08404.9865,W,2,10,1.40,298.36,M,-33.324,M,,*74
2018-01-11 20:19:28 1515719968.372203: $GPRMC,011929,A,3946.9598,N,08404.9865,W,0.0000,0.000,120118,,*39
2018-01-11 20:19:28 1515719968.372264: $GPGSA,A,3,7,8,9,11,16,23,27,28,30,138,,,4.0,1.4,3.5*33
2018-01-11 20:19:29 1515719969.707709: $GPGSV,3,1,11,07,59,315,44,08,75,115,46,09,45,225,44,11,23,166,48*7B
2018-01-11 20:19:29 1515719969.707887: $GPGSV,3,2,11,16,20,063,39,23,25,189,49,27,44,051,50,28,17,261,39*7E
2018-01-11 20:19:29 1515719969.707953: $GPGSV,3,3,11,30,32,307,30,01,02,162,00,138,38,213,46*79
2018-01-11 20:19:29 1515719969.821157: $GPZDA,011930.00,12,01,2018,00,00*65
2018-01-11 20:19:29 1515719969.821292: $GPGGA,011930,3946.9598,N,08404.9865,W,2,10,0.80,298.36,M,-33.324,M,,*71
2018-01-11 20:19:29 1515719969.821356: $GPRMC,011930,A,3946.9598,N,08404.9865,W,0.0000,0.000,120118,,*31
2018-01-11 20:19:29 1515719969.821416: $GPGSA,A,3,7,8,9,11,16,23,27,28,30,138,,,4.0,0.8,3.5*3E
2018-01-11 20:19:30 1515719970.371937: $GPZDA,011931.00,12,01,2018,00,00*64
2018-01-11 20:19:30 1515719970.372146: $GPGGA,011931,3946.9598,N,08404.9865,W,2,10,0.80,298.36,M,-33.324,M,,*70
2018-01-11 20:19:30 1515719970.372215: $GPRMC,011931,A,3946.9598,N,08404.9865,W,0.0000,0.000,120118,,*30
2018-01-11 20:19:30 1515719970.372276: $GPGSA,A,3,7,8,9,11,16,23,27,28,30,138,,,4.0,0.8,3.5*3E
2018-01-11 20:19:31 1515719971.373091: $GPZDA,011932.00,12,01,2018,00,00*67
2018-01-11 20:19:31 1515719971.373271: $GPGGA,011932,3946.9598,N,08404.9865,W,2,10,0.80,298.36,M,-33.324,M,,*73
2018-01-11 20:19:31 1515719971.373336: $GPRMC,011932,A,3946.9598,N,08404.9865,W,0.0000,0.000,120118,,*33
2018-01-11 20:19:31 1515719971.373396: $GPGSA,A,3,7,8,9,11,16,23,27,28,30,138,,,4.0,0.8,3.5*3E
