2017-11-16 15:28:51 1510864131.228252: {"class":"VERSION","release":"3.17","rev":"3.17","proto_major":3,"proto_minor":12}
2017-11-16 15:28:51 1510864131.228821: {"class":"DEVICES","devices":[{"class":"DEVICE","path":"/dev/ttyUSB0","driver":"SiRF","subtype":"9\u0006GSD4e_4.1.2-P1_RPATCH.05-F-GPS-4R-1510281 11/03/2015 307","activated":"2017-11-16T20:28:51.189Z","flags":1,"native":1,"bps":4800,"parity":"N","stopbits":1,"cycle":1.00}]}
2017-11-16 15:28:51 1510864131.228946: {"class":"WATCH","enable":true,"json":false,"nmea":true,"raw":0,"scaled":false,"timing":false,"split24":false,"pps":false}
2017-11-16 15:28:51 1510864131.367605: $GPZDA,202850.00,16,11,2017,00,00*68
2017-11-16 15:28:51 1510864131.367780: $GPGGA,202850,3946.9568,N,08404.9860,W,2,12,0.80,309.61,M,-33.324,M,,*75
2017-11-16 15:28:51 1510864131.367841: $GPRMC,202850,A,3946.9568,N,08404.9860,W,0.0000,0.000,161117,,*36
2017-11-16 15:28:51 1510864131.367898: $GPGSA,A,3,8,10,14,20,18,15,21,24,27,32,12,138,1.6,0.8,1.3*34
2017-11-16 15:28:52 1510864132.704635: $GPGSV,3,1,12,08,05,292,34,10,70,333,51,14,30,255,44,20,07,118,24*75
2017-11-16 15:28:52 1510864132.704803: $GPGSV,3,2,12,18,70,097,47,15,10,067,23,21,28,180,43,24,44,057,50*7B
2017-11-16 15:28:52 1510864132.704864: $GPGSV,3,3,12,27,05,258,36,32,47,267,48,12,10,106,31,138,38,213,44*4B
2017-11-16 15:28:52 1510864132.817959: $GPZDA,202851.00,16,11,2017,00,00*69
2017-11-16 15:28:52 1510864132.818137: $GPGGA,202851,3946.9568,N,08404.9860,W,2,12,0.80,309.61,M,-33.324,M,,*74
2017-11-16 15:28:52 1510864132.818214: $GPRMC,202851,A,3946.9568,N,08404.9860,W,0.0000,0.000,161117,,*37
2017-11-16 15:28:52 1510864132.818271: $GPGSA,A,3,8,10,14,20,18,15,21,24,27,32,12,138,1.6,0.8,1.3*34
2017-11-16 15:28:53 1510864133.388845: $GPZDA,202852.00,16,11,2017,00,00*6A
2017-11-16 15:28:53 1510864133.389039: $GPGGA,202852,3946.9568,N,08404.9860,W,2,12,0.80,309.61,M,-33.324,M,,*77
2017-11-16 15:28:53 1510864133.389100: $GPRMC,202852,A,3946.9568,N,08404.9860,W,0.0000,0.000,161117,,*34
2017-11-16 15:28:53 1510864133.389173: $GPGSA,A,3,8,10,14,20,18,15,21,24,27,32,12,138,1.6,0.8,1.3*34
2017-11-16 15:28:54 1510864134.365930: $GPZDA,202853.00,16,11,2017,00,00*6B
2017-11-16 15:28:54 1510864134.366112: $GPGGA,202853,3946.9568,N,08404.9860,W,2,12,0.80,309.61,M,-33.324,M,,*76
2017-11-16 15:28:54 1510864134.366191: $GPRMC,202853,A,3946.9568,N,08404.9860,W,0.0000,0.000,161117,,*35
2017-11-16 15:28:54 1510864134.366248: $GPGSA,A,3,8,10,14,20,18,15,21,24,27,32,12,138,1.6,0.8,1.3*34
2017-11-16 15:28:55 1510864135.719267: $GPGSV,3,1,12,08,05,292,35,10,70,333,51,14,30,255,43,20,07,118,25*72
2017-11-16 15:28:55 1510864135.719442: $GPGSV,3,2,12,18,70,097,47,15,10,067,24,21,28,180,43,24,44,057,51*7D
2017-11-16 15:28:55 1510864135.719504: $GPGSV,3,3,12,27,05,258,36,32,47,267,48,12,10,106,30,138,38,213,44*4A
2017-11-16 15:28:55 1510864135.832499: $GPZDA,202854.00,16,11,2017,00,00*6C
2017-11-16 15:28:55 1510864135.832658: $GPGGA,202854,3946.9568,N,08404.9860,W,2,12,0.80,309.61,M,-33.324,M,,*71
2017-11-16 15:28:55 1510864135.832718: $GPRMC,202854,A,3946.9568,N,08404.9860,W,0.0000,0.000,161117,,*32
2017-11-16 15:28:55 1510864135.832774: $GPGSA,A,3,8,10,14,20,18,15,21,24,27,32,12,138,1.6,0.8,1.3*34
2017-11-16 15:28:56 1510864136.458050: $GPZDA,202855.00,16,11,2017,00,00*6D
2017-11-16 15:28:56 1510864136.458223: $GPGGA,202855,3946.9568,N,08404.9860,W,2,12,0.80,309.61,M,-33.324,M,,*70
2017-11-16 15:28:56 1510864136.458283: $GPRMC,202855,A,3946.9568,N,08404.9860,W,0.0000,0.000,161117,,*33
2017-11-16 15:28:56 1510864136.458339: $GPGSA,A,3,8,10,14,20,18,15,21,24,27,32,12,138,1.6,0.8,1.3*34
2017-11-16 15:28:57 1510864137.383860: $GPZDA,202856.00,16,11,2017,00,00*6E
2017-11-16 15:28:57 1510864137.448285: $GPGGA,202856,3946.9568,N,08404.9860,W,2,12,0.80,309.61,M,-33.324,M,,*73
2017-11-16 15:28:57 1510864137.448437: $GPRMC,202856,A,3946.9568,N,08404.9860,W,0.0000,0.000,161117,,*30
2017-11-16 15:28:57 1510864137.448532: $GPGSA,A,3,8,10,14,20,18,15,21,24,27,32,12,138,1.6,0.8,1.3*34
2017-11-16 15:28:58 1510864138.704534: $GPGSV,3,1,12,08,05,292,35,10,70,333,51,14,30,255,43,20,07,118,25*72
2017-11-16 15:28:58 1510864138.704766: $GPGSV,3,2,12,18,70,097,47,15,10,067,25,21,28,180,42,24,44,057,51*7D
2017-11-16 15:28:58 1510864138.704830: $GPGSV,3,3,12,27,05,258,35,32,47,267,47,12,10,106,30,138,38,213,44*46
2017-11-16 15:28:58 1510864138.818238: $GPZDA,202857.00,16,11,2017,00,00*6F
2017-11-16 15:28:58 1510864138.818453: $GPGGA,202857,3946.9568,N,08404.9860,W,2,12,0.80,309.61,M,-33.324,M,,*72
2017-11-16 15:28:58 1510864138.818517: $GPRMC,202857,A,3946.9568,N,08404.9860,W,0.0000,0.000,161117,,*31
2017-11-16 15:28:58 1510864138.818588: $GPGSA,A,3,8,10,14,20,18,15,21,24,27,32,12,138,1.6,0.8,1.3*34
2017-11-16 15:28:59 1510864139.366333: $GPZDA,202858.00,16,11,2017,00,00*60
2017-11-16 15:28:59 1510864139.366506: $GPGGA,202858,3946.9568,N,08404.9860,W,2,12,0.80,309.61,M,-33.324,M,,*7D
2017-11-16 15:28:59 1510864139.366570: $GPRMC,202858,A,3946.9568,N,08404.9860,W,0.0000,0.000,161117,,*3E
2017-11-16 15:28:59 1510864139.366626: $GPGSA,A,3,8,10,14,20,18,15,21,24,27,32,12,138,1.6,0.8,1.3*34
2017-11-16 15:29:00 1510864140.368453: $GPZDA,202859.00,16,11,2017,00,00*61
2017-11-16 15:29:00 1510864140.368617: $GPGGA,202859,3946.9568,N,08404.9860,W,2,12,0.80,309.61,M,-33.324,M,,*7C
2017-11-16 15:29:00 1510864140.368678: $GPRMC,202859,A,3946.9568,N,08404.9860,W,0.0000,0.000,161117,,*3F
2017-11-16 15:29:00 1510864140.368735: $GPGSA,A,3,8,10,14,20,18,15,21,24,27,32,12,138,1.6,0.8,1.3*34
