2017-12-01 11:57:28 1512147448.583987: {"class":"VERSION","release":"3.16","rev":"3.16-4","proto_major":3,"proto_minor":11}
2017-12-01 11:57:28 1512147448.584545: {"class":"DEVICES","devices":[{"class":"DEVICE","path":"/dev/ttyUSB0","driver":"SiRF","subtype":"9\u0006GSD4e_4.1.2-P1_RPATCH.05-F-GPS-4R-1510281 11/03/2015 307","activated":"2017-12-01T16:57:28.484Z","flags":1,"native":1,"bps":4800,"parity":"N","stopbits":1,"cycle":1.00}]}
2017-12-01 11:57:28 1512147448.584674: {"class":"WATCH","enable":true,"json":false,"nmea":true,"raw":0,"scaled":false,"timing":false,"split24":false,"pps":false}
2017-12-01 11:57:29 1512147449.326232: $GPZDA,165730.00,01,12,2017,00,00*66
2017-12-01 11:57:29 1512147449.326405: $GPGGA,165730,3946.9558,N,08404.9834,W,2,11,0.80,299.37,M,-33.324,M,,*74
2017-12-01 11:57:29 1512147449.326472: $GPRMC,165730,A,3946.9558,N,08404.9834,W,0.0000,0.000,011217,,*3A
2017-12-01 11:57:29 1512147449.326534: $GPGSA,A,3,10,13,15,18,20,21,24,27,29,5,138,,2.0,0.8,1.5*34
2017-12-01 11:57:30 1512147450.679255: $GPGSV,3,1,12,10,17,276,35,13,37,046,45,15,70,058,45,18,48,291,43*78
2017-12-01 11:57:30 1512147450.679447: $GPGSV,3,2,12,20,58,060,43,21,72,298,45,24,25,145,45,27,12,319,42*7A
2017-12-01 11:57:30 1512147450.679534: $GPGSV,3,3,12,29,18,193,44,05,09,081,29,04,07,133,00,138,38,213,46*4C
2017-12-01 11:57:30 1512147450.793083: $GPZDA,165731.00,01,12,2017,00,00*67
2017-12-01 11:57:30 1512147450.793266: $GPGGA,165731,3946.9558,N,08404.9834,W,2,11,0.80,299.37,M,-33.324,M,,*75
2017-12-01 11:57:30 1512147450.793336: $GPRMC,165731,A,3946.9558,N,08404.9834,W,0.0000,0.000,011217,,*3B
2017-12-01 11:57:30 1512147450.793400: $GPGSA,A,3,10,13,15,18,20,21,24,27,29,5,138,,2.0,0.8,1.5*34
2017-12-01 11:57:31 1512147451.418281: $GPZDA,165732.00,01,12,2017,00,00*64
2017-12-01 11:57:31 1512147451.418451: $GPGGA,165732,3946.9558,N,08404.9834,W,2,11,0.80,299.37,M,-33.324,M,,*76
2017-12-01 11:57:31 1512147451.418520: $GPRMC,165732,A,3946.9558,N,08404.9834,W,0.0000,0.000,011217,,*38
2017-12-01 11:57:31 1512147451.418583: $GPGSA,A,3,10,13,15,18,20,21,24,27,29,5,138,,2.0,0.8,1.5*34
2017-12-01 11:57:32 1512147452.327945: $GPZDA,165733.00,01,12,2017,00,00*65
2017-12-01 11:57:32 1512147452.328110: $GPGGA,165733,3946.9562,N,08404.9834,W,2,11,0.80,300.01,M,-33.324,M,,*7A
2017-12-01 11:57:32 1512147452.328179: $GPRMC,165733,A,3946.9562,N,08404.9834,W,0.0000,0.000,011217,,*30
2017-12-01 11:57:32 1512147452.328243: $GPGSA,A,3,10,13,15,18,20,21,24,27,29,5,138,,2.0,0.8,1.5*34
2017-12-01 11:57:33 1512147453.678261: $GPGSV,3,1,12,10,17,276,36,13,37,046,44,15,70,058,45,18,48,291,44*7D
2017-12-01 11:57:33 1512147453.678445: $GPGSV,3,2,12,20,58,060,43,21,72,298,45,24,25,145,46,27,12,319,41*7A
2017-12-01 11:57:33 1512147453.678535: $GPGSV,3,3,12,29,18,193,44,05,09,081,29,04,07,133,00,138,38,213,46*4C
2017-12-01 11:57:33 1512147453.791713: $GPZDA,165734.00,01,12,2017,00,00*62
2017-12-01 11:57:33 1512147453.791887: $GPGGA,165734,3946.9563,N,08404.9841,W,2,11,0.80,299.93,M,-33.324,M,,*74
2017-12-01 11:57:33 1512147453.791955: $GPRMC,165734,A,3946.9563,N,08404.9841,W,0.0000,0.000,011217,,*34
2017-12-01 11:57:33 1512147453.792019: $GPGSA,A,3,10,13,15,18,20,21,24,27,29,5,138,,2.0,0.8,1.5*34
2017-12-01 11:57:34 1512147454.327528: $GPZDA,165735.00,01,12,2017,00,00*63
2017-12-01 11:57:34 1512147454.327702: $GPGGA,165735,3946.9563,N,08404.9841,W,2,11,0.80,299.93,M,-33.324,M,,*75
2017-12-01 11:57:34 1512147454.327772: $GPRMC,165735,A,3946.9563,N,08404.9841,W,0.0000,0.000,011217,,*35
2017-12-01 11:57:34 1512147454.327836: $GPGSA,A,3,10,13,15,18,20,21,24,27,29,5,138,,2.0,0.8,1.5*34
2017-12-01 11:57:35 1512147455.327153: $GPZDA,165736.00,01,12,2017,00,00*60
2017-12-01 11:57:35 1512147455.327328: $GPGGA,165736,3946.9563,N,08404.9841,W,2,11,0.80,299.93,M,-33.324,M,,*76
2017-12-01 11:57:35 1512147455.327396: $GPRMC,165736,A,3946.9563,N,08404.9841,W,0.0000,0.000,011217,,*36
2017-12-01 11:57:35 1512147455.327460: $GPGSA,A,3,10,13,15,18,20,21,24,27,29,5,138,,2.0,0.8,1.5*34
2017-12-01 11:57:36 1512147456.679936: $GPGSV,3,1,12,10,17,276,37,13,37,046,44,15,70,058,45,18,48,291,44*7C
2017-12-01 11:57:36 1512147456.680176: $GPGSV,3,2,12,20,58,060,43,21,72,298,45,24,25,145,46,27,12,319,41*7A
2017-12-01 11:57:36 1512147456.680246: $GPGSV,3,3,12,29,18,193,43,05,09,081,29,04,07,133,00,138,38,213,47*4A
2017-12-01 11:57:36 1512147456.793621: $GPZDA,165737.00,01,12,2017,00,00*61
2017-12-01 11:57:36 1512147456.793785: $GPGGA,165737,3946.9559,N,08404.9841,W,2,11,0.80,300.70,M,-33.324,M,,*72
2017-12-01 11:57:36 1512147456.793851: $GPRMC,165737,A,3946.9559,N,08404.9841,W,0.0000,0.000,011217,,*3E
2017-12-01 11:57:36 1512147456.793913: $GPGSA,A,3,10,13,15,18,20,21,24,27,29,5,138,,2.0,0.8,1.5*34
2017-12-01 11:57:37 1512147457.321680: $GPZDA,165738.00,01,12,2017,00,00*6E
2017-12-01 11:57:37 1512147457.321852: $GPGGA,165738,3946.9559,N,08404.9841,W,2,11,0.80,300.70,M,-33.324,M,,*7D
2017-12-01 11:57:37 1512147457.321919: $GPRMC,165738,A,3946.9559,N,08404.9841,W,0.0000,0.000,011217,,*31
2017-12-01 11:57:37 1512147457.321980: $GPGSA,A,3,10,13,15,18,20,21,24,27,29,5,138,,2.0,0.8,1.5*34
2017-12-01 11:57:38 1512147458.343779: $GPZDA,165739.00,01,12,2017,00,00*6F
2017-12-01 11:57:38 1512147458.343962: $GPGGA,165739,3946.9559,N,08404.9841,W,2,11,0.80,300.70,M,-33.324,M,,*7C
2017-12-01 11:57:38 1512147458.344028: $GPRMC,165739,A,3946.9559,N,08404.9841,W,0.0000,0.000,011217,,*30
2017-12-01 11:57:38 1512147458.344089: $GPGSA,A,3,10,13,15,18,20,21,24,27,29,5,138,,2.0,0.8,1.5*34
