2018-01-12 03:05:12 1515744312.778976: {"class":"VERSION","release":"3.16","rev":"3.16-4","proto_major":3,"proto_minor":11}
2018-01-12 03:05:12 1515744312.779354: {"class":"DEVICES","devices":[{"class":"DEVICE","path":"/dev/ttyUSB0","driver":"SiRF","subtype":"9\u0006GSD4e_4.1.2-P1_RPATCH.05-F-GPS-4R-1510281 11/03/2015 307","activated":"2018-01-12T08:05:12.539Z","flags":1,"native":1,"bps":4800,"parity":"N","stopbits":1,"cycle":1.00}]}
2018-01-12 03:05:12 1515744312.779467: {"class":"WATCH","enable":true,"json":false,"nmea":true,"raw":0,"scaled":false,"timing":false,"split24":false,"pps":false}
2018-01-12 03:05:13 1515744313.738317: $GPGSV,3,1,12,02,56,265,48,05,14,193,35,06,74,004,50,12,43,306,51*78
2018-01-12 03:05:13 1515744313.738513: $GPGSV,3,2,12,17,41,093,41,19,58,075,44,24,10,255,32,25,08,322,36*7D
2018-01-12 03:05:13 1515744313.738579: $GPGSV,3,3,12,09,08,099,22,03,04,034,26,23,07,066,00,138,38,213,38*43
2018-01-12 03:05:13 1515744313.851935: $GPZDA,080514.00,12,01,2018,00,00*67
2018-01-12 03:05:13 1515744313.852104: $GPGGA,080514,3946.9636,N,08404.9849,W,2,11,1.20,300.70,M,-33.324,M,,*72
2018-01-12 03:05:13 1515744313.852171: $GPRMC,080514,A,3946.9636,N,08404.9849,W,0.0000,0.000,120118,,*3A
2018-01-12 03:05:13 1515744313.852252: $GPGSA,A,3,2,5,6,12,17,19,24,25,9,3,138,,2.4,1.2,2.1*39
2018-01-12 03:05:14 1515744314.395115: $GPZDA,080515.00,12,01,2018,00,00*66
2018-01-12 03:05:14 1515744314.395291: $GPGGA,080515,3946.9636,N,08404.9849,W,2,11,1.20,300.70,M,-33.324,M,,*73
2018-01-12 03:05:14 1515744314.395359: $GPRMC,080515,A,3946.9636,N,08404.9849,W,0.0000,0.000,120118,,*3B
2018-01-12 03:05:14 1515744314.395420: $GPGSA,A,3,2,5,6,12,17,19,24,25,9,3,138,,2.4,1.2,2.1*39
2018-01-12 03:05:15 1515744315.393639: $GPZDA,080516.00,12,01,2018,00,00*65
2018-01-12 03:05:15 1515744315.393812: $GPGGA,080516,3946.9636,N,08404.9849,W,2,11,1.20,300.70,M,-33.324,M,,*70
2018-01-12 03:05:15 1515744315.393878: $GPRMC,080516,A,3946.9636,N,08404.9849,W,0.0000,0.000,120118,,*38
2018-01-12 03:05:15 1515744315.393940: $GPGSA,A,3,2,5,6,12,17,19,24,25,9,3,138,,2.4,1.2,2.1*39
2018-01-12 03:05:16 1515744316.736700: $GPGSV,3,1,12,02,56,265,48,05,14,193,35,06,74,004,50,12,43,306,51*78
2018-01-12 03:05:16 1515744316.736904: $GPGSV,3,2,12,17,41,093,40,19,58,075,44,24,10,255,31,25,08,322,36*7F
2018-01-12 03:05:16 1515744316.736972: $GPGSV,3,3,12,09,08,099,24,03,04,034,27,23,07,066,00,138,38,213,38*44
2018-01-12 03:05:16 1515744316.850593: $GPZDA,080517.00,12,01,2018,00,00*64
2018-01-12 03:05:16 1515744316.850775: $GPGGA,080517,3946.9636,N,08404.9849,W,2,11,1.20,300.70,M,-33.324,M,,*71
2018-01-12 03:05:16 1515744316.850841: $GPRMC,080517,A,3946.9636,N,08404.9849,W,0.0000,0.000,120118,,*39
2018-01-12 03:05:16 1515744316.850914: $GPGSA,A,3,2,5,6,12,17,19,24,25,9,3,138,,2.4,1.2,2.1*39
2018-01-12 03:05:17 1515744317.475826: $GPZDA,080518.00,12,01,2018,00,00*6B
2018-01-12 03:05:17 1515744317.475995: $GPGGA,080518,3946.9636,N,08404.9849,W,2,11,1.20,300.70,M,-33.324,M,,*7E
2018-01-12 03:05:17 1515744317.476084: $GPRMC,080518,A,3946.9636,N,08404.9849,W,0.0000,0.000,120118,,*36
2018-01-12 03:05:17 1515744317.476146: $GPGSA,A,3,2,5,6,12,17,19,24,25,9,3,138,,2.4,1.2,2.1*39
2018-01-12 03:05:18 1515744318.395466: $GPZDA,080519.00,12,01,2018,00,00*6A
2018-01-12 03:05:18 1515744318.395643: $GPGGA,080519,3946.9636,N,08404.9848,W,2,11,1.20,299.30,M,-33.324,M,,*7B
2018-01-12 03:05:18 1515744318.395711: $GPRMC,080519,A,3946.9636,N,08404.9848,W,0.3155,129.994,120118,,*3A
2018-01-12 03:05:18 1515744318.395774: $GPGSA,A,3,2,5,6,12,17,19,24,25,9,3,138,,2.4,1.2,2.1*39
2018-01-12 03:05:19 1515744319.734547: $GPGSV,3,1,12,02,56,265,47,05,14,193,34,06,74,004,49,12,43,306,51*7E
2018-01-12 03:05:19 1515744319.734726: $GPGSV,3,2,12,17,41,093,40,19,58,075,44,24,10,255,31,25,08,322,36*7F
2018-01-12 03:05:19 1515744319.734792: $GPGSV,3,3,12,09,08,099,24,03,04,034,27,23,07,066,01,138,38,213,41*4B
2018-01-12 03:05:19 1515744319.848035: $GPZDA,080520.00,12,01,2018,00,00*60
2018-01-12 03:05:19 1515744319.848223: $GPGGA,080520,3946.9636,N,08404.9848,W,2,11,1.20,299.30,M,-33.324,M,,*71
2018-01-12 03:05:19 1515744319.848344: $GPRMC,080520,A,3946.9636,N,08404.9848,W,0.0000,0.000,120118,,*3C
2018-01-12 03:05:19 1515744319.848408: $GPGSA,A,3,2,5,6,12,17,19,24,25,9,3,138,,2.4,1.2,2.1*39
2018-01-12 03:05:20 1515744320.398758: $GPZDA,080521.00,12,01,2018,00,00*61
2018-01-12 03:05:20 1515744320.398939: $GPGGA,080521,3946.9636,N,08404.9848,W,2,11,1.20,299.30,M,-33.324,M,,*70
2018-01-12 03:05:20 1515744320.399008: $GPRMC,080521,A,3946.9636,N,08404.9848,W,0.0000,0.000,120118,,*3D
2018-01-12 03:05:20 1515744320.399092: $GPGSA,A,3,2,5,6,12,17,19,24,25,9,3,138,,2.4,1.2,2.1*39
2018-01-12 03:05:21 1515744321.394714: $GPZDA,080522.00,12,01,2018,00,00*62
2018-01-12 03:05:21 1515744321.394887: $GPGGA,080522,3946.9636,N,08404.9848,W,2,11,1.20,299.30,M,-33.324,M,,*73
2018-01-12 03:05:21 1515744321.394953: $GPRMC,080522,A,3946.9636,N,08404.9848,W,0.0000,0.000,120118,,*3E
2018-01-12 03:05:21 1515744321.395034: $GPGSA,A,3,2,5,6,12,17,19,24,25,9,3,138,,2.4,1.2,2.1*39
2018-01-12 03:05:22 1515744322.733798: $GPGSV,3,1,12,02,56,265,47,05,14,193,35,06,74,004,50,12,43,306,51*77
2018-01-12 03:05:22 1515744322.733979: $GPGSV,3,2,12,17,41,093,40,19,58,075,44,24,10,255,31,25,08,322,36*7F
2018-01-12 03:05:22 1515744322.734064: $GPGSV,3,3,12,09,08,099,24,03,04,034,31,23,07,066,00,138,38,213,35*4E
2018-01-12 03:05:22 1515744322.842404: $GPZDA,080523.00,12,01,2018,00,00*63
2018-01-12 03:05:22 1515744322.842573: $GPGGA,080523,3946.9636,N,08404.9848,W,2,11,1.20,299.30,M,-33.324,M,,*72
2018-01-12 03:05:22 1515744322.842639: $GPRMC,080523,A,3946.9636,N,08404.9848,W,0.0000,0.000,120118,,*3F
2018-01-12 03:05:22 1515744322.842701: $GPGSA,A,3,2,5,6,12,17,19,24,25,9,3,138,,2.4,1.2,2.1*39
2018-01-12 03:05:23 1515744323.390385: $GPZDA,080524.00,12,01,2018,00,00*64
2018-01-12 03:05:23 1515744323.390560: $GPGGA,080524,3946.9636,N,08404.9848,W,2,11,1.20,299.30,M,-33.324,M,,*75
2018-01-12 03:05:23 1515744323.390628: $GPRMC,080524,A,3946.9636,N,08404.9848,W,0.0000,0.000,120118,,*38
2018-01-12 03:05:23 1515744323.390689: $GPGSA,A,3,2,5,6,12,17,19,24,25,9,3,138,,2.4,1.2,2.1*39
2018-01-12 03:05:24 1515744324.932345: $GPZDA,080525.00,12,01,2018,00,00*65
2018-01-12 03:05:24 1515744324.932544: $GPGGA,080525,3946.9636,N,08404.9848,W,2,11,1.20,299.30,M,-33.324,M,,*74
2018-01-12 03:05:24 1515744324.932614: $GPRMC,080525,A,3946.9636,N,08404.9848,W,0.0000,0.000,120118,,*39
2018-01-12 03:05:24 1515744324.932676: $GPGSA,A,3,2,5,6,12,17,19,24,25,9,3,138,,2.4,1.2,2.1*39
2018-01-12 03:05:26 1515744326.273505: $GPGSV,3,1,12,02,57,267,48,05,14,193,34,06,74,004,50,12,43,306,51*7A
2018-01-12 03:05:26 1515744326.273725: $GPGSV,3,2,12,17,40,093,40,19,58,075,44,24,10,255,32,25,08,322,36*7D
2018-01-12 03:05:26 1515744326.273793: $GPGSV,3,3,12,09,08,099,21,03,04,034,30,23,07,066,00,138,38,213,38*47
2018-01-12 03:05:26 1515744326.387464: $GPZDA,080526.00,12,01,2018,00,00*66
2018-01-12 03:05:26 1515744326.387634: $GPGGA,080526,3946.9636,N,08404.9848,W,2,11,1.20,299.30,M,-33.324,M,,*77
2018-01-12 03:05:26 1515744326.387701: $GPRMC,080526,A,3946.9636,N,08404.9848,W,0.0000,0.000,120118,,*3A
2018-01-12 03:05:26 1515744326.387775: $GPGSA,A,3,2,5,6,12,17,19,24,25,9,3,138,,2.4,1.2,2.1*39
2018-01-12 03:05:26 1515744326.839663: $GPZDA,080527.00,12,01,2018,00,00*67
2018-01-12 03:05:26 1515744326.839857: $GPGGA,080527,3946.9636,N,08404.9848,W,2,11,1.60,299.30,M,-33.324,M,,*72
2018-01-12 03:05:26 1515744326.839925: $GPRMC,080527,A,3946.9636,N,08404.9848,W,0.0000,0.000,120118,,*3B
2018-01-12 03:05:26 1515744326.840013: $GPGSA,A,3,2,5,6,12,17,19,24,25,9,3,138,,2.4,1.6,2.1*3D
2018-01-12 03:05:27 1515744327.821433: $GPZDA,080528.00,12,01,2018,00,00*68
2018-01-12 03:05:27 1515744327.821603: $GPGGA,080528,3946.9636,N,08404.9848,W,2,11,1.60,299.30,M,-33.324,M,,*7D
2018-01-12 03:05:27 1515744327.821669: $GPRMC,080528,A,3946.9636,N,08404.9848,W,0.0000,0.000,120118,,*34
2018-01-12 03:05:27 1515744327.821731: $GPGSA,A,3,2,5,6,12,17,19,24,25,9,3,138,,2.4,1.6,2.1*3D
2018-01-12 03:05:27 1515744327.821789: $GPGBS,080528,3.00,M,3.62,M,11.97,M*03
2018-01-12 03:05:28 1515744328.793344: $GPGSV,3,1,12,02,57,267,48,05,14,193,34,06,74,004,50,12,43,306,51*7A
2018-01-12 03:05:28 1515744328.793540: $GPGSV,3,2,12,17,40,093,40,19,58,075,44,24,10,255,33,25,08,322,36*7C
2018-01-12 03:05:28 1515744328.793609: $GPGSV,3,3,12,09,08,099,19,03,04,034,29,23,07,066,04,138,38,213,40*4F
2018-01-12 03:05:28 1515744328.906991: $GPZDA,080529.00,12,01,2018,00,00*69
2018-01-12 03:05:28 1515744328.907167: $GPGGA,080529,3946.9636,N,08404.9848,W,2,11,1.00,299.30,M,-33.324,M,,*7A
2018-01-12 03:05:28 1515744328.907236: $GPRMC,080529,A,3946.9636,N,08404.9848,W,0.0000,0.000,120118,,*35
2018-01-12 03:05:28 1515744328.907300: $GPGSA,A,3,2,5,6,12,17,19,24,25,9,3,138,,2.4,1.0,2.1*3B
2018-01-12 03:05:29 1515744329.397605: $GPZDA,080530.00,12,01,2018,00,00*61
2018-01-12 03:05:29 1515744329.397783: $GPGGA,080530,3946.9636,N,08404.9848,W,2,11,1.00,299.30,M,-33.324,M,,*72
2018-01-12 03:05:29 1515744329.397856: $GPRMC,080530,A,3946.9636,N,08404.9848,W,0.0000,0.000,120118,,*3D
2018-01-12 03:05:29 1515744329.397921: $GPGSA,A,3,2,5,6,12,17,19,24,25,9,3,138,,2.4,1.0,2.1*3B
2018-01-12 03:05:30 1515744330.403744: $GPZDA,080531.00,12,01,2018,00,00*60
2018-01-12 03:05:30 1515744330.403917: $GPGGA,080531,3946.9636,N,08404.9848,W,2,11,1.00,299.30,M,-33.324,M,,*73
2018-01-12 03:05:30 1515744330.403987: $GPRMC,080531,A,3946.9636,N,08404.9848,W,0.0000,0.000,120118,,*3C
2018-01-12 03:05:30 1515744330.404052: $GPGSA,A,3,2,5,6,12,17,19,24,25,9,3,138,,2.4,1.0,2.1*3B
2018-01-12 03:05:31 1515744331.736894: $GPGSV,3,1,12,02,57,267,48,05,14,193,34,06,74,004,50,12,43,306,51*7A
2018-01-12 03:05:31 1515744331.737099: $GPGSV,3,2,12,17,40,093,40,19,58,075,43,24,10,255,33,25,08,322,36*7B
2018-01-12 03:05:31 1515744331.737189: $GPGSV,3,3,12,09,08,099,18,03,04,034,29,23,07,066,11,138,38,213,38*45
2018-01-12 03:05:31 1515744331.850337: $GPZDA,080532.00,12,01,2018,00,00*63
2018-01-12 03:05:31 1515744331.850512: $GPGGA,080532,3946.9636,N,08404.9848,W,2,11,1.00,299.30,M,-33.324,M,,*70
2018-01-12 03:05:31 1515744331.850582: $GPRMC,080532,A,3946.9636,N,08404.9848,W,0.0000,0.000,120118,,*3F
2018-01-12 03:05:31 1515744331.850647: $GPGSA,A,3,2,5,6,12,17,19,24,25,9,3,138,,2.4,1.0,2.1*3B
2018-01-12 03:05:32 1515744332.475447: $GPZDA,080533.00,12,01,2018,00,00*62
2018-01-12 03:05:32 1515744332.475622: $GPGGA,080533,3946.9636,N,08404.9848,W,2,11,1.00,299.30,M,-33.324,M,,*71
2018-01-12 03:05:32 1515744332.475692: $GPRMC,080533,A,3946.9636,N,08404.9848,W,0.0000,0.000,120118,,*3E
2018-01-12 03:05:32 1515744332.475756: $GPGSA,A,3,2,5,6,12,17,19,24,25,9,3,138,,2.4,1.0,2.1*3B
