2017-12-01 11:59:08 1512147548.956789: {"class":"VERSION","release":"3.16","rev":"3.16-4","proto_major":3,"proto_minor":11}
2017-12-01 11:59:08 1512147548.957265: {"class":"DEVICES","devices":[{"class":"DEVICE","path":"/dev/ttyUSB0","driver":"SiRF","subtype":"9\u0006GSD4e_4.1.2-P1_RPATCH.05-F-GPS-4R-1510281 11/03/2015 307","activated":"2017-12-01T16:59:08.932Z","flags":1,"native":1,"bps":4800,"parity":"N","stopbits":1,"cycle":1.00}]}
2017-12-01 11:59:08 1512147548.957414: {"class":"WATCH","enable":true,"json":false,"nmea":true,"raw":0,"scaled":false,"timing":false,"split24":false,"pps":false}
2017-12-01 11:59:09 1512147549.324691: $GPZDA,165910.00,01,12,2017,00,00*6A
2017-12-01 11:59:09 1512147549.325015: $GPGGA,165910,3946.9584,N,08404.9837,W,2,11,0.80,296.75,M,-33.324,M,,*73
2017-12-01 11:59:09 1512147549.325098: $GPRMC,165910,A,3946.9584,N,08404.9837,W,0.0000,0.000,011217,,*34
2017-12-01 11:59:09 1512147549.325190: $GPGSA,A,3,10,13,15,18,20,21,24,27,29,5,138,,2.0,0.8,1.5*34
2017-12-01 11:59:10 1512147550.321488: $GPZDA,165911.00,01,12,2017,00,00*6B
2017-12-01 11:59:10 1512147550.321662: $GPGGA,165911,3946.9584,N,08404.9837,W,2,11,0.80,296.75,M,-33.324,M,,*72
2017-12-01 11:59:10 1512147550.321729: $GPRMC,165911,A,3946.9584,N,08404.9837,W,0.0000,0.000,011217,,*35
2017-12-01 11:59:10 1512147550.321789: $GPGSA,A,3,10,13,15,18,20,21,24,27,29,5,138,,2.0,0.8,1.5*34
2017-12-01 11:59:11 1512147551.659680: $GPGSV,3,1,12,10,17,277,37,13,37,046,45,15,69,058,45,18,48,291,46*76
2017-12-01 11:59:11 1512147551.659860: $GPGSV,3,2,12,20,58,061,44,21,73,297,44,24,26,144,45,27,12,319,41*72
2017-12-01 11:59:11 1512147551.659927: $GPGSV,3,3,12,29,18,192,45,04,07,133,00,05,09,081,25,138,38,213,46*40
2017-12-01 11:59:11 1512147551.773116: $GPZDA,165912.00,01,12,2017,00,00*68
2017-12-01 11:59:11 1512147551.773291: $GPGGA,165912,3946.9584,N,08404.9837,W,2,11,0.80,296.75,M,-33.324,M,,*71
2017-12-01 11:59:11 1512147551.773358: $GPRMC,165912,A,3946.9584,N,08404.9837,W,0.0000,0.000,011217,,*36
2017-12-01 11:59:11 1512147551.773419: $GPGSA,A,3,10,13,15,18,20,21,24,27,29,5,138,,2.0,0.8,1.5*34
2017-12-01 11:59:12 1512147552.323922: $GPZDA,165913.00,01,12,2017,00,00*69
2017-12-01 11:59:12 1512147552.324134: $GPGGA,165913,3946.9584,N,08404.9837,W,2,11,0.80,296.75,M,-33.324,M,,*70
2017-12-01 11:59:12 1512147552.324201: $GPRMC,165913,A,3946.9584,N,08404.9837,W,0.0000,0.000,011217,,*37
2017-12-01 11:59:12 1512147552.324263: $GPGSA,A,3,10,13,15,18,20,21,24,27,29,5,138,,2.0,0.8,1.5*34
2017-12-01 11:59:13 1512147553.339284: $GPZDA,165914.00,01,12,2017,00,00*6E
2017-12-01 11:59:13 1512147553.339458: $GPGGA,165914,3946.9584,N,08404.9837,W,2,11,0.80,296.75,M,-33.324,M,,*77
2017-12-01 11:59:13 1512147553.339525: $GPRMC,165914,A,3946.9584,N,08404.9837,W,0.0000,0.000,011217,,*30
2017-12-01 11:59:13 1512147553.339587: $GPGSA,A,3,10,13,15,18,20,21,24,27,29,5,138,,2.0,0.8,1.5*34
2017-12-01 11:59:14 1512147554.656282: $GPGSV,3,1,12,10,17,277,38,13,37,046,45,15,69,058,45,18,48,291,46*79
2017-12-01 11:59:14 1512147554.656436: $GPGSV,3,2,12,20,58,061,44,21,73,297,44,24,26,144,45,27,12,319,40*73
2017-12-01 11:59:14 1512147554.656500: $GPGSV,3,3,12,29,18,192,45,04,07,133,00,05,09,081,25,138,38,213,46*40
2017-12-01 11:59:14 1512147554.769628: $GPZDA,165915.00,01,12,2017,00,00*6F
2017-12-01 11:59:14 1512147554.769799: $GPGGA,165915,3946.9584,N,08404.9837,W,2,11,0.80,296.75,M,-33.324,M,,*76
2017-12-01 11:59:14 1512147554.769867: $GPRMC,165915,A,3946.9584,N,08404.9837,W,0.0000,0.000,011217,,*31
2017-12-01 11:59:14 1512147554.769955: $GPGSA,A,3,10,13,15,18,20,21,24,27,29,5,138,,2.0,0.8,1.5*34
2017-12-01 11:59:15 1512147555.324322: $GPZDA,165916.00,01,12,2017,00,00*6C
2017-12-01 11:59:15 1512147555.324510: $GPGGA,165916,3946.9584,N,08404.9837,W,2,11,0.80,296.75,M,-33.324,M,,*75
2017-12-01 11:59:15 1512147555.324578: $GPRMC,165916,A,3946.9584,N,08404.9837,W,0.0000,0.000,011217,,*32
2017-12-01 11:59:15 1512147555.324639: $GPGSA,A,3,10,13,15,18,20,21,24,27,29,5,138,,2.0,0.8,1.5*34
2017-12-01 11:59:16 1512147556.340116: $GPZDA,165917.00,01,12,2017,00,00*6D
2017-12-01 11:59:16 1512147556.340341: $GPGGA,165917,3946.9584,N,08404.9837,W,2,11,0.80,296.75,M,-33.324,M,,*74
2017-12-01 11:59:16 1512147556.340412: $GPRMC,165917,A,3946.9584,N,08404.9837,W,0.0000,0.000,011217,,*33
2017-12-01 11:59:16 1512147556.340473: $GPGSA,A,3,10,13,15,18,20,21,24,27,29,5,138,,2.0,0.8,1.5*34
2017-12-01 11:59:17 1512147557.675969: $GPGSV,3,1,12,10,17,277,38,13,37,046,45,15,69,058,45,18,48,291,45*7A
2017-12-01 11:59:17 1512147557.676167: $GPGSV,3,2,12,20,58,061,44,21,73,297,44,24,26,144,45,27,12,319,40*73
2017-12-01 11:59:17 1512147557.676234: $GPGSV,3,3,12,29,18,192,45,04,07,133,00,05,09,081,25,138,38,213,47*41
2017-12-01 11:59:17 1512147557.789313: $GPZDA,165918.00,01,12,2017,00,00*62
2017-12-01 11:59:17 1512147557.789490: $GPGGA,165918,3946.9584,N,08404.9837,W,2,11,0.80,296.75,M,-33.324,M,,*7B
2017-12-01 11:59:17 1512147557.789557: $GPRMC,165918,A,3946.9584,N,08404.9837,W,0.0000,0.000,011217,,*3C
2017-12-01 11:59:17 1512147557.789618: $GPGSA,A,3,10,13,15,18,20,21,24,27,29,5,138,,2.0,0.8,1.5*34
2017-12-01 11:59:18 1512147558.414785: $GPZDA,165919.00,01,12,2017,00,00*63
2017-12-01 11:59:18 1512147558.414974: $GPGGA,165919,3946.9584,N,08404.9837,W,2,11,0.80,296.75,M,-33.324,M,,*7A
2017-12-01 11:59:18 1512147558.415058: $GPRMC,165919,A,3946.9584,N,08404.9837,W,0.0000,0.000,011217,,*3D
2017-12-01 11:59:18 1512147558.415121: $GPGSA,A,3,10,13,15,18,20,21,24,27,29,5,138,,2.0,0.8,1.5*34
