2017-11-16 13:50:09 1510858209.756966: {"class":"VERSION","release":"3.17","rev":"3.17","proto_major":3,"proto_minor":12}
2017-11-16 13:50:09 1510858209.757496: {"class":"DEVICES","devices":[{"class":"DEVICE","path":"/dev/ttyUSB0","driver":"SiRF","subtype":"9\u0006GSD4e_4.1.2-P1_RPATCH.05-F-GPS-4R-1510281 11/03/2015 307","activated":"2017-11-16T18:50:09.477Z","flags":1,"native":1,"bps":4800,"parity":"N","stopbits":1,"cycle":1.00}]}
2017-11-16 13:50:09 1510858209.757620: {"class":"WATCH","enable":true,"json":false,"nmea":true,"raw":0,"scaled":false,"timing":false,"split24":false,"pps":false}
2017-11-16 13:50:10 1510858210.698084: $GPGSV,3,1,11,10,33,292,41,13,17,046,44,15,48,049,51,18,63,316,48*75
2017-11-16 13:50:10 1510858210.698252: $GPGSV,3,2,11,20,41,085,48,21,74,208,47,24,44,126,45,27,19,300,25*7C
2017-11-16 13:50:10 1510858210.698312: $GPGSV,3,3,11,32,11,231,15,08,02,330,25,138,38,213,44*70
2017-11-16 13:50:10 1510858210.811508: $GPZDA,185009.00,16,11,2017,00,00*60
2017-11-16 13:50:10 1510858210.811688: $GPGGA,185009,3946.9612,N,08404.9827,W,2,11,0.80,307.77,M,-33.324,M,,*7A
2017-11-16 13:50:10 1510858210.811755: $GPRMC,185009,A,3946.9612,N,08404.9827,W,0.0000,0.000,161117,,*33
2017-11-16 13:50:10 1510858210.811811: $GPGSA,A,3,10,13,15,18,20,21,24,27,32,8,138,,1.6,0.8,1.3*30
2017-11-16 13:50:11 1510858211.363553: $GPZDA,185010.00,16,11,2017,00,00*68
2017-11-16 13:50:11 1510858211.363717: $GPGGA,185010,3946.9612,N,08404.9827,W,2,11,0.80,307.77,M,-33.324,M,,*72
2017-11-16 13:50:11 1510858211.363778: $GPRMC,185010,A,3946.9612,N,08404.9827,W,0.0000,0.000,161117,,*3B
2017-11-16 13:50:11 1510858211.363834: $GPGSA,A,3,10,13,15,18,20,21,24,27,32,8,138,,1.6,0.8,1.3*30
2017-11-16 13:50:12 1510858212.332819: $GPZDA,185011.00,16,11,2017,00,00*69
2017-11-16 13:50:12 1510858212.332976: $GPGGA,185011,3946.9612,N,08404.9827,W,2,11,0.80,307.77,M,-33.324,M,,*73
2017-11-16 13:50:12 1510858212.333037: $GPRMC,185011,A,3946.9612,N,08404.9827,W,0.0000,0.000,161117,,*3A
2017-11-16 13:50:12 1510858212.333093: $GPGSA,A,3,10,13,15,18,20,21,24,27,32,8,138,,1.6,0.8,1.3*30
2017-11-16 13:50:13 1510858213.668746: $GPGSV,3,1,11,10,33,292,41,13,17,046,44,15,48,049,51,18,63,316,48*75
2017-11-16 13:50:13 1510858213.668924: $GPGSV,3,2,11,20,41,085,48,21,74,208,46,24,44,126,45,27,19,300,21*79
2017-11-16 13:50:13 1510858213.669006: $GPGSV,3,3,11,32,11,231,15,08,02,330,26,138,38,213,44*73
2017-11-16 13:50:13 1510858213.782435: $GPZDA,185012.00,16,11,2017,00,00*6A
2017-11-16 13:50:13 1510858213.782621: $GPGGA,185012,3946.9612,N,08404.9827,W,2,11,0.80,307.77,M,-33.324,M,,*70
2017-11-16 13:50:13 1510858213.782708: $GPRMC,185012,A,3946.9612,N,08404.9827,W,0.0000,0.000,161117,,*39
2017-11-16 13:50:13 1510858213.782790: $GPGSA,A,3,10,13,15,18,20,21,24,27,32,8,138,,1.6,0.8,1.3*30
2017-11-16 13:50:14 1510858214.336770: $GPZDA,185013.00,16,11,2017,00,00*6B
2017-11-16 13:50:14 1510858214.336935: $GPGGA,185013,3946.9612,N,08404.9827,W,2,11,0.80,307.77,M,-33.324,M,,*71
2017-11-16 13:50:14 1510858214.336997: $GPRMC,185013,A,3946.9612,N,08404.9827,W,0.0000,0.000,161117,,*38
2017-11-16 13:50:14 1510858214.337053: $GPGSA,A,3,10,13,15,18,20,21,24,27,32,8,138,,1.6,0.8,1.3*30
2017-11-16 13:50:15 1510858215.339004: $GPZDA,185014.00,16,11,2017,00,00*6C
2017-11-16 13:50:15 1510858215.339171: $GPGGA,185014,3946.9612,N,08404.9827,W,2,11,0.80,307.77,M,-33.324,M,,*76
2017-11-16 13:50:15 1510858215.339232: $GPRMC,185014,A,3946.9612,N,08404.9827,W,0.0000,0.000,161117,,*3F
2017-11-16 13:50:15 1510858215.339288: $GPGSA,A,3,10,13,15,18,20,21,24,27,32,8,138,,1.6,0.8,1.3*30
2017-11-16 13:50:16 1510858216.675033: $GPGSV,3,1,11,10,33,292,41,13,17,046,45,15,48,049,51,18,63,316,48*74
2017-11-16 13:50:16 1510858216.675175: $GPGSV,3,2,11,20,41,085,48,21,74,208,47,24,44,126,45,27,19,300,24*7D
2017-11-16 13:50:16 1510858216.675234: $GPGSV,3,3,11,32,11,231,21,08,02,330,00,138,38,213,42*76
2017-11-16 13:50:16 1510858216.788366: $GPZDA,185015.00,16,11,2017,00,00*6D
2017-11-16 13:50:16 1510858216.788551: $GPGGA,185015,3946.9612,N,08404.9827,W,2,10,0.80,307.77,M,-33.324,M,,*76
2017-11-16 13:50:16 1510858216.788682: $GPRMC,185015,A,3946.9612,N,08404.9827,W,0.0000,0.000,161117,,*3E
2017-11-16 13:50:16 1510858216.788741: $GPGSA,A,3,10,13,15,18,20,21,24,27,32,138,,,1.6,0.8,1.3*08
2017-11-16 13:50:17 1510858217.413797: $GPZDA,185016.00,16,11,2017,00,00*6E
2017-11-16 13:50:17 1510858217.413978: $GPGGA,185016,3946.9612,N,08404.9827,W,2,10,0.80,307.77,M,-33.324,M,,*75
2017-11-16 13:50:17 1510858217.414040: $GPRMC,185016,A,3946.9612,N,08404.9827,W,0.0000,0.000,161117,,*3D
2017-11-16 13:50:17 1510858217.414097: $GPGSA,A,3,10,13,15,18,20,21,24,27,32,138,,,1.6,0.8,1.3*08
2017-11-16 13:50:18 1510858218.337655: $GPZDA,185017.00,16,11,2017,00,00*6F
2017-11-16 13:50:18 1510858218.337841: $GPGGA,185017,3946.9612,N,08404.9827,W,2,10,0.80,307.77,M,-33.324,M,,*74
2017-11-16 13:50:18 1510858218.337903: $GPRMC,185017,A,3946.9612,N,08404.9827,W,0.0000,0.000,161117,,*3C
2017-11-16 13:50:18 1510858218.337987: $GPGSA,A,3,10,13,15,18,20,21,24,27,32,138,,,1.6,0.8,1.3*08
2017-11-16 13:50:19 1510858219.675730: $GPGSV,3,1,11,10,33,292,40,13,17,046,44,15,48,049,51,18,63,316,48*74
2017-11-16 13:50:19 1510858219.675900: $GPGSV,3,2,11,20,41,085,48,21,74,208,47,24,44,126,45,27,19,300,28*71
2017-11-16 13:50:19 1510858219.675980: $GPGSV,3,3,11,32,11,231,22,08,02,330,00,138,38,213,43*74
