2017-11-16 13:14:48 1510856088.358404: {"class":"VERSION","release":"3.17","rev":"3.17","proto_major":3,"proto_minor":12}
2017-11-16 13:14:48 1510856088.358835: {"class":"DEVICES","devices":[{"class":"DEVICE","path":"/dev/ttyUSB0","driver":"SiRF","subtype":"9\u0006GSD4e_4.1.2-P1_RPATCH.05-F-GPS-4R-1510281 11/03/2015 307","activated":"2017-11-16T18:14:48.206Z","flags":1,"native":1,"bps":4800,"parity":"N","stopbits":1,"cycle":1.00}]}
2017-11-16 13:14:48 1510856088.358947: {"class":"WATCH","enable":true,"json":false,"nmea":true,"raw":0,"scaled":false,"timing":false,"split24":false,"pps":false}
2017-11-16 13:14:48 1510856088.655922: $GPGSV,3,1,12,10,22,280,43,13,31,045,48,15,64,052,50,18,52,297,44*7F
2017-11-16 13:14:48 1510856088.656103: $GPGSV,3,2,12,20,53,069,46,21,76,282,46,24,31,141,42,27,15,315,44*7A
2017-11-16 13:14:48 1510856088.656163: $GPGSV,3,3,12,05,06,085,07,29,12,190,32,04,02,135,00,138,38,213,45*43
2017-11-16 13:14:48 1510856088.769258: $GPZDA,181447.00,16,11,2017,00,00*6A
2017-11-16 13:14:48 1510856088.769393: $GPGGA,181447,3946.9589,N,08404.9851,W,2,11,0.80,297.23,M,-33.324,M,,*79
2017-11-16 13:14:48 1510856088.769452: $GPRMC,181447,A,3946.9589,N,08404.9851,W,0.0000,0.000,161117,,*39
2017-11-16 13:14:48 1510856088.769507: $GPGSA,A,3,10,13,15,18,20,21,24,27,5,29,138,,1.6,0.8,1.3*37
2017-11-16 13:14:49 1510856089.302510: $GPZDA,181448.00,16,11,2017,00,00*65
2017-11-16 13:14:49 1510856089.302683: $GPGGA,181448,3946.9589,N,08404.9851,W,2,11,0.80,297.23,M,-33.324,M,,*76
2017-11-16 13:14:49 1510856089.302745: $GPRMC,181448,A,3946.9589,N,08404.9851,W,0.0000,0.000,161117,,*36
2017-11-16 13:14:49 1510856089.302801: $GPGSA,A,3,10,13,15,18,20,21,24,27,5,29,138,,1.6,0.8,1.3*37
2017-11-16 13:14:50 1510856090.320395: $GPZDA,181449.00,16,11,2017,00,00*64
2017-11-16 13:14:50 1510856090.320566: $GPGGA,181449,3946.9589,N,08404.9851,W,2,11,0.80,297.23,M,-33.324,M,,*77
2017-11-16 13:14:50 1510856090.320628: $GPRMC,181449,A,3946.9589,N,08404.9851,W,0.0000,0.000,161117,,*37
2017-11-16 13:14:50 1510856090.320685: $GPGSA,A,3,10,13,15,18,20,21,24,27,5,29,138,,1.6,0.8,1.3*37
2017-11-16 13:14:51 1510856091.637336: $GPGSV,3,1,12,10,22,280,43,13,31,045,48,15,64,052,50,18,52,297,44*7F
2017-11-16 13:14:51 1510856091.637521: $GPGSV,3,2,12,20,53,069,46,21,76,282,46,24,31,141,42,27,15,315,44*7A
2017-11-16 13:14:51 1510856091.637583: $GPGSV,3,3,12,05,06,085,07,29,12,190,32,04,02,135,00,138,38,213,45*43
2017-11-16 13:14:51 1510856091.750720: $GPZDA,181450.00,16,11,2017,00,00*6C
2017-11-16 13:14:51 1510856091.750888: $GPGGA,181450,3946.9589,N,08404.9851,W,2,11,0.80,297.23,M,-33.324,M,,*7F
2017-11-16 13:14:51 1510856091.750951: $GPRMC,181450,A,3946.9589,N,08404.9851,W,0.0000,0.000,161117,,*3F
2017-11-16 13:14:51 1510856091.751007: $GPGSA,A,3,10,13,15,18,20,21,24,27,5,29,138,,1.6,0.8,1.3*37
2017-11-16 13:14:52 1510856092.300243: $GPZDA,181451.00,16,11,2017,00,00*6D
2017-11-16 13:14:52 1510856092.300478: $GPGGA,181451,3946.9589,N,08404.9851,W,2,11,0.80,297.23,M,-33.324,M,,*7E
2017-11-16 13:14:52 1510856092.300560: $GPRMC,181451,A,3946.9589,N,08404.9851,W,0.0000,0.000,161117,,*3E
2017-11-16 13:14:52 1510856092.300618: $GPGSA,A,3,10,13,15,18,20,21,24,27,5,29,138,,1.6,0.8,1.3*37
2017-11-16 13:14:53 1510856093.323664: $GPZDA,181452.00,16,11,2017,00,00*6E
2017-11-16 13:14:53 1510856093.323853: $GPGGA,181452,3946.9589,N,08404.9851,W,2,11,0.80,297.23,M,-33.324,M,,*7D
2017-11-16 13:14:53 1510856093.323917: $GPRMC,181452,A,3946.9589,N,08404.9851,W,0.0000,0.000,161117,,*3D
2017-11-16 13:14:53 1510856093.323973: $GPGSA,A,3,10,13,15,18,20,21,24,27,5,29,138,,1.6,0.8,1.3*37
2017-11-16 13:14:54 1510856094.650591: $GPGSV,3,1,12,10,22,280,43,13,31,045,48,15,64,052,50,18,52,297,44*7F
2017-11-16 13:14:54 1510856094.650734: $GPGSV,3,2,12,20,53,069,46,21,76,282,46,24,31,141,42,27,15,315,44*7A
2017-11-16 13:14:54 1510856094.650809: $GPGSV,3,3,12,05,06,085,06,29,12,190,32,04,02,135,00,138,38,213,44*43
2017-11-16 13:14:54 1510856094.763858: $GPZDA,181453.00,16,11,2017,00,00*6F
2017-11-16 13:14:54 1510856094.764025: $GPGGA,181453,3946.9585,N,08404.9852,W,2,10,0.80,298.00,M,-33.324,M,,*7C
2017-11-16 13:14:54 1510856094.764155: $GPRMC,181453,A,3946.9585,N,08404.9852,W,0.0000,0.000,161117,,*33
2017-11-16 13:14:54 1510856094.764215: $GPGSA,A,3,10,13,15,18,20,21,24,27,29,138,,,1.6,0.8,1.3*02
2017-11-16 13:14:55 1510856095.389209: $GPZDA,181454.00,16,11,2017,00,00*68
2017-11-16 13:14:55 1510856095.389378: $GPGGA,181454,3946.9585,N,08404.9852,W,2,10,0.80,298.00,M,-33.324,M,,*7B
2017-11-16 13:14:55 1510856095.389439: $GPRMC,181454,A,3946.9585,N,08404.9852,W,0.0000,0.000,161117,,*34
2017-11-16 13:14:55 1510856095.389495: $GPGSA,A,3,10,13,15,18,20,21,24,27,29,138,,,1.6,0.8,1.3*02
2017-11-16 13:14:56 1510856096.320041: $GPZDA,181455.00,16,11,2017,00,00*69
2017-11-16 13:14:56 1510856096.320207: $GPGGA,181455,3946.9585,N,08404.9852,W,2,10,0.80,298.00,M,-33.324,M,,*7A
2017-11-16 13:14:56 1510856096.320267: $GPRMC,181455,A,3946.9585,N,08404.9852,W,0.0000,0.000,161117,,*35
2017-11-16 13:14:56 1510856096.320371: $GPGSA,A,3,10,13,15,18,20,21,24,27,29,138,,,1.6,0.8,1.3*02
2017-11-16 13:14:57 1510856097.658278: $GPGSV,3,1,12,10,22,280,42,13,31,045,48,15,64,052,50,18,52,297,45*7F
2017-11-16 13:14:57 1510856097.658450: $GPGSV,3,2,12,20,53,069,46,21,76,282,46,24,31,141,42,27,15,315,44*7A
2017-11-16 13:14:57 1510856097.658510: $GPGSV,3,3,12,05,06,085,06,29,12,190,32,04,02,135,00,138,38,213,45*42
2017-11-16 13:14:57 1510856097.771944: $GPZDA,181456.00,16,11,2017,00,00*6A
2017-11-16 13:14:57 1510856097.772096: $GPGGA,181456,3946.9585,N,08404.9845,W,2,11,0.80,298.08,M,-33.324,M,,*76
2017-11-16 13:14:57 1510856097.772157: $GPRMC,181456,A,3946.9585,N,08404.9845,W,0.0000,0.000,161117,,*30
2017-11-16 13:14:57 1510856097.772212: $GPGSA,A,3,10,13,15,18,20,21,24,27,5,29,138,,1.6,0.8,1.3*37
2017-11-16 13:14:58 1510856098.319949: $GPZDA,181457.00,16,11,2017,00,00*6B
2017-11-16 13:14:58 1510856098.320106: $GPGGA,181457,3946.9585,N,08404.9845,W,2,11,0.80,298.08,M,-33.324,M,,*77
2017-11-16 13:14:58 1510856098.320167: $GPRMC,181457,A,3946.9585,N,08404.9845,W,0.0000,0.000,161117,,*31
2017-11-16 13:14:58 1510856098.320222: $GPGSA,A,3,10,13,15,18,20,21,24,27,5,29,138,,1.6,0.8,1.3*37
