2017-12-01 17:42:35 1512168155.166874: {"class":"VERSION","release":"3.16","rev":"3.16-4","proto_major":3,"proto_minor":11}
2017-12-01 17:42:35 1512168155.167260: {"class":"DEVICES","devices":[{"class":"DEVICE","path":"/dev/ttyUSB0","driver":"SiRF","subtype":"9\u0006GSD4e_4.1.2-P1_RPATCH.05-F-GPS-4R-1510281 11/03/2015 307","activated":"2017-12-01T22:42:34.545Z","flags":1,"native":1,"bps":4800,"parity":"N","stopbits":1,"cycle":1.00}]}
2017-12-01 17:42:35 1512168155.167382: {"class":"WATCH","enable":true,"json":false,"nmea":true,"raw":0,"scaled":false,"timing":false,"split24":false,"pps":false}
2017-12-01 17:42:35 1512168155.405803: $GPZDA,224236.00,01,12,2017,00,00*63
2017-12-01 17:42:35 1512168155.405973: $GPGGA,224236,3946.9730,N,08404.9839,W,2,12,0.80,297.04,M,-33.325,M,,*7C
2017-12-01 17:42:35 1512168155.406040: $GPRMC,224236,A,3946.9730,N,08404.9839,W,0.0000,0.000,011217,,*3E
2017-12-01 17:42:35 1512168155.406101: $GPGSA,A,3,1,3,10,14,22,25,26,31,32,16,29,138,2.0,0.8,1.5*0C
2017-12-01 17:42:36 1512168156.742238: $GPGSV,3,1,12,01,15,268,44,03,27,312,45,10,14,157,42,14,67,058,41*7B
2017-12-01 17:42:36 1512168156.742417: $GPGSV,3,2,12,22,44,295,47,25,31,051,43,26,33,177,44,31,79,327,46*7D
2017-12-01 17:42:36 1512168156.742485: $GPGSV,3,3,12,32,50,088,45,16,05,190,29,29,03,088,34,138,38,213,45*41
2017-12-01 17:42:36 1512168156.854330: $GPZDA,224237.00,01,12,2017,00,00*62
2017-12-01 17:42:36 1512168156.854474: $GPGGA,224237,3946.9730,N,08404.9839,W,2,12,0.80,297.04,M,-33.325,M,,*7D
2017-12-01 17:42:36 1512168156.854541: $GPRMC,224237,A,3946.9730,N,08404.9839,W,0.0000,0.000,011217,,*3F
2017-12-01 17:42:36 1512168156.854602: $GPGSA,A,3,1,3,10,14,22,25,26,31,32,16,29,138,2.0,0.8,1.5*0C
2017-12-01 17:42:37 1512168157.405227: $GPZDA,224238.00,01,12,2017,00,00*6D
2017-12-01 17:42:37 1512168157.405401: $GPGGA,224238,3946.9730,N,08404.9839,W,2,12,0.80,297.04,M,-33.325,M,,*72
2017-12-01 17:42:37 1512168157.405468: $GPRMC,224238,A,3946.9730,N,08404.9839,W,0.0000,0.000,011217,,*30
2017-12-01 17:42:37 1512168157.405529: $GPGSA,A,3,1,3,10,14,22,25,26,31,32,16,29,138,2.0,0.8,1.5*0C
2017-12-01 17:42:38 1512168158.404847: $GPZDA,224239.00,01,12,2017,00,00*6C
2017-12-01 17:42:38 1512168158.405042: $GPGGA,224239,3946.9730,N,08404.9839,W,2,12,0.80,297.04,M,-33.325,M,,*73
2017-12-01 17:42:38 1512168158.405111: $GPRMC,224239,A,3946.9730,N,08404.9839,W,0.0000,0.000,011217,,*31
2017-12-01 17:42:38 1512168158.405172: $GPGSA,A,3,1,3,10,14,22,25,26,31,32,16,29,138,2.0,0.8,1.5*0C
2017-12-01 17:42:39 1512168159.764302: $GPGSV,3,1,12,01,15,268,44,03,27,312,45,10,14,157,43,14,67,058,41*7A
2017-12-01 17:42:39 1512168159.764485: $GPGSV,3,2,12,22,44,295,47,25,31,051,42,26,33,177,44,31,79,327,46*7C
2017-12-01 17:42:39 1512168159.764552: $GPGSV,3,3,12,32,50,088,46,16,05,190,29,29,03,088,34,138,38,213,45*42
2017-12-01 17:42:39 1512168159.877755: $GPZDA,224240.00,01,12,2017,00,00*62
2017-12-01 17:42:39 1512168159.877911: $GPGGA,224240,3946.9730,N,08404.9839,W,2,12,0.80,297.04,M,-33.325,M,,*7D
2017-12-01 17:42:39 1512168159.877976: $GPRMC,224240,A,3946.9730,N,08404.9839,W,0.0000,0.000,011217,,*3F
2017-12-01 17:42:39 1512168159.878037: $GPGSA,A,3,1,3,10,14,22,25,26,31,32,16,29,138,2.0,0.8,1.5*0C
2017-12-01 17:42:40 1512168160.406476: $GPZDA,224241.00,01,12,2017,00,00*63
2017-12-01 17:42:40 1512168160.406655: $GPGGA,224241,3946.9730,N,08404.9839,W,2,12,0.80,297.04,M,-33.325,M,,*7C
2017-12-01 17:42:40 1512168160.406741: $GPRMC,224241,A,3946.9730,N,08404.9839,W,0.0000,0.000,011217,,*3E
2017-12-01 17:42:40 1512168160.406804: $GPGSA,A,3,1,3,10,14,22,25,26,31,32,16,29,138,2.0,0.8,1.5*0C
2017-12-01 17:42:41 1512168161.426406: $GPZDA,224242.00,01,12,2017,00,00*60
2017-12-01 17:42:41 1512168161.426599: $GPGGA,224242,3946.9730,N,08404.9839,W,2,12,0.80,297.04,M,-33.325,M,,*7F
2017-12-01 17:42:41 1512168161.426667: $GPRMC,224242,A,3946.9730,N,08404.9839,W,0.0000,0.000,011217,,*3D
2017-12-01 17:42:41 1512168161.426746: $GPGSA,A,3,1,3,10,14,22,25,26,31,32,16,29,138,2.0,0.8,1.5*0C
2017-12-01 17:42:42 1512168162.762251: $GPGSV,3,1,12,01,15,268,44,03,27,312,45,10,14,157,43,14,67,058,41*7A
2017-12-01 17:42:42 1512168162.762658: $GPGSV,3,2,12,22,44,295,48,25,31,051,43,26,33,177,45,31,79,327,46*73
2017-12-01 17:42:42 1512168162.762802: $GPGSV,3,3,12,32,50,088,46,16,05,190,29,29,03,088,34,138,38,213,45*42
2017-12-01 17:42:42 1512168162.875772: $GPZDA,224243.00,01,12,2017,00,00*61
2017-12-01 17:42:42 1512168162.875940: $GPGGA,224243,3946.9730,N,08404.9839,W,2,12,0.80,297.04,M,-33.325,M,,*7E
2017-12-01 17:42:42 1512168162.876005: $GPRMC,224243,A,3946.9730,N,08404.9839,W,0.0000,0.000,011217,,*3C
2017-12-01 17:42:42 1512168162.876066: $GPGSA,A,3,1,3,10,14,22,25,26,31,32,16,29,138,2.0,0.8,1.5*0C
2017-12-01 17:42:43 1512168163.429047: $GPZDA,224244.00,01,12,2017,00,00*66
2017-12-01 17:42:43 1512168163.429219: $GPGGA,224244,3946.9730,N,08404.9839,W,2,12,0.80,297.04,M,-33.325,M,,*79
2017-12-01 17:42:43 1512168163.429286: $GPRMC,224244,A,3946.9730,N,08404.9839,W,0.0000,0.000,011217,,*3B
2017-12-01 17:42:43 1512168163.429347: $GPGSA,A,3,1,3,10,14,22,25,26,31,32,16,29,138,2.0,0.8,1.5*0C
2017-12-01 17:42:44 1512168164.426409: $GPZDA,224245.00,01,12,2017,00,00*67
2017-12-01 17:42:44 1512168164.426607: $GPGGA,224245,3946.9730,N,08404.9839,W,2,12,0.80,297.04,M,-33.325,M,,*78
2017-12-01 17:42:44 1512168164.426692: $GPRMC,224245,A,3946.9730,N,08404.9839,W,0.0000,0.000,011217,,*3A
2017-12-01 17:42:44 1512168164.426755: $GPGSA,A,3,1,3,10,14,22,25,26,31,32,16,29,138,2.0,0.8,1.5*0C
2017-12-01 17:42:45 1512168165.744219: $GPGSV,3,1,12,01,15,268,44,03,27,312,45,10,14,157,43,14,67,058,41*7A
2017-12-01 17:42:45 1512168165.744401: $GPGSV,3,2,12,22,44,295,48,25,31,051,43,26,33,177,45,31,79,327,46*73
2017-12-01 17:42:45 1512168165.744468: $GPGSV,3,3,12,32,50,088,46,16,05,190,29,29,03,088,34,138,38,213,46*41
2017-12-01 17:42:45 1512168165.857551: $GPZDA,224246.00,01,12,2017,00,00*64
2017-12-01 17:42:45 1512168165.857702: $GPGGA,224246,3946.9730,N,08404.9839,W,2,12,0.80,297.04,M,-33.325,M,,*7B
2017-12-01 17:42:45 1512168165.857769: $GPRMC,224246,A,3946.9730,N,08404.9839,W,0.0000,0.000,011217,,*39
2017-12-01 17:42:45 1512168165.857830: $GPGSA,A,3,1,3,10,14,22,25,26,31,32,16,29,138,2.0,0.8,1.5*0C
2017-12-01 17:42:46 1512168166.483229: $GPZDA,224247.00,01,12,2017,00,00*65
2017-12-01 17:42:46 1512168166.483402: $GPGGA,224247,3946.9730,N,08404.9839,W,2,12,0.80,297.04,M,-33.325,M,,*7A
2017-12-01 17:42:46 1512168166.483494: $GPRMC,224247,A,3946.9730,N,08404.9839,W,0.0000,0.000,011217,,*38
2017-12-01 17:42:46 1512168166.483557: $GPGSA,A,3,1,3,10,14,22,25,26,31,32,16,29,138,2.0,0.8,1.5*0C
2017-12-01 17:42:47 1512168167.410077: $GPZDA,224248.00,01,12,2017,00,00*6A
2017-12-01 17:42:47 1512168167.410262: $GPGGA,224248,3946.9730,N,08404.9839,W,2,12,0.80,297.04,M,-33.325,M,,*75
2017-12-01 17:42:47 1512168167.410330: $GPRMC,224248,A,3946.9730,N,08404.9839,W,0.0000,0.000,011217,,*37
2017-12-01 17:42:47 1512168167.410391: $GPGSA,A,3,1,3,10,14,22,25,26,31,32,16,29,138,2.0,0.8,1.5*0C
2017-12-01 17:42:48 1512168168.768662: $GPGSV,3,1,12,01,15,268,44,03,27,312,44,10,14,157,43,14,67,058,41*7B
2017-12-01 17:42:48 1512168168.768857: $GPGSV,3,2,12,22,44,295,48,25,31,051,43,26,33,177,44,31,79,327,46*72
2017-12-01 17:42:48 1512168168.768927: $GPGSV,3,3,12,32,50,088,46,16,05,190,29,29,03,088,34,138,38,213,46*41
2017-12-01 17:42:48 1512168168.880511: $GPZDA,224249.00,01,12,2017,00,00*6B
2017-12-01 17:42:48 1512168168.880666: $GPGGA,224249,3946.9730,N,08404.9839,W,2,12,0.80,297.04,M,-33.325,M,,*74
2017-12-01 17:42:48 1512168168.880730: $GPRMC,224249,A,3946.9730,N,08404.9839,W,0.0000,0.000,011217,,*36
2017-12-01 17:42:48 1512168168.880790: $GPGSA,A,3,1,3,10,14,22,25,26,31,32,16,29,138,2.0,0.8,1.5*0C
2017-12-01 17:42:49 1512168169.410219: $GPZDA,224250.00,01,12,2017,00,00*63
2017-12-01 17:42:49 1512168169.410388: $GPGGA,224250,3946.9730,N,08404.9839,W,2,12,0.80,297.04,M,-33.325,M,,*7C
2017-12-01 17:42:49 1512168169.410476: $GPRMC,224250,A,3946.9730,N,08404.9839,W,0.0000,0.000,011217,,*3E
2017-12-01 17:42:49 1512168169.410539: $GPGSA,A,3,1,3,10,14,22,25,26,31,32,16,29,138,2.0,0.8,1.5*0C
2017-12-01 17:42:50 1512168170.431015: $GPZDA,224251.00,01,12,2017,00,00*62
2017-12-01 17:42:50 1512168170.431192: $GPGGA,224251,3946.9730,N,08404.9839,W,2,12,0.80,297.04,M,-33.325,M,,*7D
2017-12-01 17:42:50 1512168170.431259: $GPRMC,224251,A,3946.9730,N,08404.9839,W,0.0000,0.000,011217,,*3F
2017-12-01 17:42:50 1512168170.431320: $GPGSA,A,3,1,3,10,14,22,25,26,31,32,16,29,138,2.0,0.8,1.5*0C
2017-12-01 17:42:51 1512168171.767472: $GPGSV,3,1,12,01,15,268,44,03,27,312,44,10,14,157,43,14,67,058,42*78
2017-12-01 17:42:51 1512168171.767669: $GPGSV,3,2,12,22,44,295,48,25,31,051,43,26,33,177,44,31,79,327,46*72
2017-12-01 17:42:51 1512168171.767736: $GPGSV,3,3,12,32,50,088,46,16,05,190,28,29,03,088,34,138,38,213,46*40
2017-12-01 17:42:51 1512168171.880897: $GPZDA,224252.00,01,12,2017,00,00*61
2017-12-01 17:42:51 1512168171.881047: $GPGGA,224252,3946.9730,N,08404.9839,W,2,12,0.80,297.04,M,-33.325,M,,*7E
2017-12-01 17:42:51 1512168171.881112: $GPRMC,224252,A,3946.9730,N,08404.9839,W,0.0000,0.000,011217,,*3C
2017-12-01 17:42:51 1512168171.881173: $GPGSA,A,3,1,3,10,14,22,25,26,31,32,16,29,138,2.0,0.8,1.5*0C
2017-12-01 17:42:52 1512168172.432101: $GPZDA,224253.00,01,12,2017,00,00*60
2017-12-01 17:42:52 1512168172.432271: $GPGGA,224253,3946.9730,N,08404.9839,W,2,12,0.80,297.04,M,-33.325,M,,*7F
2017-12-01 17:42:52 1512168172.432339: $GPRMC,224253,A,3946.9730,N,08404.9839,W,0.0000,0.000,011217,,*3D
2017-12-01 17:42:52 1512168172.432424: $GPGSA,A,3,1,3,10,14,22,25,26,31,32,16,29,138,2.0,0.8,1.5*0C
2017-12-01 17:42:53 1512168173.430339: $GPZDA,224254.00,01,12,2017,00,00*67
2017-12-01 17:42:53 1512168173.430539: $GPGGA,224254,3946.9730,N,08404.9839,W,2,12,0.80,297.04,M,-33.325,M,,*78
2017-12-01 17:42:53 1512168173.430608: $GPRMC,224254,A,3946.9730,N,08404.9839,W,0.0000,0.000,011217,,*3A
2017-12-01 17:42:53 1512168173.430669: $GPGSA,A,3,1,3,10,14,22,25,26,31,32,16,29,138,2.0,0.8,1.5*0C
2017-12-01 17:42:54 1512168174.765937: $GPGSV,3,1,12,01,15,268,44,03,27,312,44,10,14,157,43,14,67,058,41*7B
2017-12-01 17:42:54 1512168174.766100: $GPGSV,3,2,12,22,44,295,48,25,31,051,43,26,33,177,44,31,79,327,46*72
2017-12-01 17:42:54 1512168174.766169: $GPGSV,3,3,12,32,50,088,45,16,05,190,28,29,03,088,35,138,38,213,45*41
2017-12-01 17:42:54 1512168174.879382: $GPZDA,224255.00,01,12,2017,00,00*66
2017-12-01 17:42:54 1512168174.879573: $GPGGA,224255,3946.9730,N,08404.9839,W,2,12,0.80,297.04,M,-33.325,M,,*79
2017-12-01 17:42:54 1512168174.879640: $GPRMC,224255,A,3946.9730,N,08404.9839,W,0.0000,0.000,011217,,*3B
2017-12-01 17:42:54 1512168174.879701: $GPGSA,A,3,1,3,10,14,22,25,26,31,32,16,29,138,2.0,0.8,1.5*0C
