2018-01-12 02:36:42 1515742602.742890: {"class":"VERSION","release":"3.16","rev":"3.16-4","proto_major":3,"proto_minor":11}
2018-01-12 02:36:42 1515742602.743281: {"class":"DEVICES","devices":[{"class":"DEVICE","path":"/dev/ttyUSB0","driver":"SiRF","subtype":"9\u0006GSD4e_4.1.2-P1_RPATCH.05-F-GPS-4R-1510281 11/03/2015 307","activated":"2018-01-12T07:36:42.397Z","flags":1,"native":1,"bps":4800,"parity":"N","stopbits":1,"cycle":1.00}]}
2018-01-12 02:36:42 1515742602.743394: {"class":"WATCH","enable":true,"json":false,"nmea":true,"raw":0,"scaled":false,"timing":false,"split24":false,"pps":false}
2018-01-12 02:36:43 1515742603.003313: $GPZDA,073643.69,12,01,2018,00,00*65
2018-01-12 02:36:43 1515742603.003498: $GPGGA,073643,3946.9596,N,08404.9797,W,1,09,2.00,301.96,M,-33.324,M,,*78
2018-01-12 02:36:43 1515742603.003565: $GPRMC,073643,A,3946.9596,N,08404.9797,W,0.5516,308.233,120118,,*3C
2018-01-12 02:36:43 1515742603.003646: $GPGSA,A,3,2,3,6,12,17,19,24,28,138,,,,2.4,2.0,2.1*39
2018-01-12 02:36:43 1515742603.003704: $GPGBS,073643,11.98,M,14.47,M,47.88,M*0F
2018-01-12 02:36:44 1515742604.108409: $GPZDA,073644.37,12,01,2018,00,00*69
2018-01-12 02:36:44 1515742604.108608: $GPGGA,073644,3946.9592,N,08404.9797,W,1,09,2.00,301.32,M,-33.324,M,,*75
2018-01-12 02:36:44 1515742604.108676: $GPRMC,073644,A,3946.9592,N,08404.9797,W,0.0407,142.013,120118,,*37
2018-01-12 02:36:44 1515742604.108738: $GPGSA,A,3,2,3,6,12,17,19,24,28,138,,,,2.4,2.0,2.1*39
2018-01-12 02:36:44 1515742604.732522: $GPGSV,3,1,12,02,47,250,44,03,14,039,40,06,79,303,51,12,32,313,49*74
2018-01-12 02:36:44 1515742604.732708: $GPGSV,3,2,12,17,49,078,43,19,65,049,43,24,16,267,00,28,14,150,00*70
2018-01-12 02:36:44 1515742604.732776: $GPGSV,3,3,12,04,18,241,00,23,02,076,00,05,02,195,00,138,38,213,00*49
2018-01-12 02:36:44 1515742604.846211: $GPZDA,073644.58,12,01,2018,00,00*60
2018-01-12 02:36:44 1515742604.846384: $GPGGA,073644,3946.9595,N,08404.9796,W,1,06,2.00,300.55,M,-33.324,M,,*7C
2018-01-12 02:36:44 1515742604.846470: $GPRMC,073644,A,3946.9595,N,08404.9796,W,0.3155,129.994,120118,,*3B
2018-01-12 02:36:44 1515742604.846534: $GPGSA,A,3,2,3,6,12,17,19,,,,,,,2.4,2.0,2.1*0F
2018-01-12 02:36:45 1515742605.640908: $GPZDA,073645.00,12,01,2018,00,00*6C
2018-01-12 02:36:45 1515742605.641063: $GPGGA,073645,3946.9595,N,08404.9803,W,1,06,2.00,300.47,M,-33.324,M,,*7D
2018-01-12 02:36:45 1515742605.641129: $GPRMC,073645,A,3946.9595,N,08404.9803,W,0.1567,9.200,120118,,*3B
2018-01-12 02:36:45 1515742605.641190: $GPGSA,A,3,2,3,6,12,17,19,,,,,,,2.4,2.0,2.1*0F
2018-01-12 02:36:46 1515742606.092922: $GPZDA,073646.00,12,01,2018,00,00*6F
2018-01-12 02:36:46 1515742606.093085: $GPGGA,073646,3946.9599,N,08404.9802,W,1,06,0.80,299.71,M,-33.324,M,,*7D
2018-01-12 02:36:46 1515742606.093152: $GPRMC,073646,A,3946.9599,N,08404.9802,W,0.3423,4.197,120118,,*36
2018-01-12 02:36:46 1515742606.093213: $GPGSA,A,3,2,3,6,12,17,19,,,,,,,2.4,0.8,2.1*05
2018-01-12 02:36:47 1515742607.054120: $GPGSV,3,1,12,02,47,250,45,03,14,039,41,06,79,303,52,12,32,313,50*7F
2018-01-12 02:36:47 1515742607.054336: $GPGSV,3,2,12,17,49,078,43,19,65,049,44,24,16,267,34,28,14,150,34*77
2018-01-12 02:36:47 1515742607.054405: $GPGSV,3,3,12,09,01,109,10,23,02,076,01,04,18,241,00,138,38,213,00*43
2018-01-12 02:36:47 1515742607.167770: $GPZDA,073647.00,12,01,2018,00,00*6E
2018-01-12 02:36:47 1515742607.167889: $GPGGA,073647,3946.9595,N,08404.9809,W,1,08,0.80,298.99,M,-33.324,M,,*72
2018-01-12 02:36:47 1515742607.167953: $GPRMC,073647,A,3946.9595,N,08404.9809,W,0.0000,0.000,120118,,*3D
2018-01-12 02:36:47 1515742607.168013: $GPGSA,A,3,2,3,6,12,17,19,24,28,,,,,2.4,0.8,2.1*09
2018-01-12 02:36:47 1515742607.618617: $GPZDA,073648.00,12,01,2018,00,00*61
2018-01-12 02:36:47 1515742607.618778: $GPGGA,073648,3946.9598,N,08404.9808,W,1,08,0.80,298.22,M,-33.324,M,,*71
2018-01-12 02:36:47 1515742607.618860: $GPRMC,073648,A,3946.9598,N,08404.9808,W,0.1567,9.200,120118,,*30
2018-01-12 02:36:47 1515742607.618922: $GPGSA,A,3,2,3,6,12,17,19,24,28,,,,,2.4,0.8,2.1*09
2018-01-12 02:36:48 1515742608.394617: $GPZDA,073649.00,12,01,2018,00,00*60
2018-01-12 02:36:48 1515742608.394868: $GPGGA,073649,3946.9598,N,08404.9808,W,1,08,0.80,298.22,M,-33.324,M,,*70
2018-01-12 02:36:48 1515742608.394938: $GPRMC,073649,A,3946.9598,N,08404.9808,W,0.0000,0.000,120118,,*3F
2018-01-12 02:36:48 1515742608.395000: $GPGSA,A,3,2,3,6,12,17,19,24,28,,,,,2.4,0.8,2.1*09
