2017-12-01 17:18:31 1512166711.987882: {"class":"VERSION","release":"3.16","rev":"3.16-4","proto_major":3,"proto_minor":11}
2017-12-01 17:18:31 1512166711.988290: {"class":"DEVICES","devices":[{"class":"DEVICE","path":"/dev/ttyUSB0","driver":"SiRF","subtype":"9\u0006GSD4e_4.1.2-P1_RPATCH.05-F-GPS-4R-1510281 11/03/2015 307","activated":"2017-12-01T22:18:31.604Z","flags":1,"native":1,"bps":4800,"parity":"N","stopbits":1,"cycle":1.00}]}
2017-12-01 17:18:31 1512166711.988411: {"class":"WATCH","enable":true,"json":false,"nmea":true,"raw":0,"scaled":false,"timing":false,"split24":false,"pps":false}
2017-12-01 17:18:32 1512166712.463294: $GPZDA,221833.00,01,12,2017,00,00*69
2017-12-01 17:18:32 1512166712.463466: $GPGGA,221833,3946.9653,N,08404.9748,W,2,11,0.80,298.63,M,-33.324,M,,*77
2017-12-01 17:18:32 1512166712.463533: $GPRMC,221833,A,3946.9653,N,08404.9748,W,0.0000,0.000,011217,,*39
2017-12-01 17:18:32 1512166712.463596: $GPGSA,A,3,1,3,10,14,22,25,26,31,32,12,138,,2.0,0.8,1.5*03
2017-12-01 17:18:33 1512166713.775137: $GPGSV,3,1,11,01,20,279,44,03,18,316,43,10,26,156,36,14,70,027,45*79
2017-12-01 17:18:33 1512166713.775320: $GPGSV,3,2,11,22,36,306,44,25,38,061,35,26,22,178,38,31,76,264,47*74
2017-12-01 17:18:33 1512166713.775388: $GPGSV,3,3,11,32,57,073,47,12,10,034,32,138,38,213,35*7E
2017-12-01 17:18:33 1512166713.888620: $GPZDA,221834.00,01,12,2017,00,00*6E
2017-12-01 17:18:33 1512166713.888802: $GPGGA,221834,3946.9649,N,08404.9748,W,2,11,0.80,299.39,M,-33.324,M,,*75
2017-12-01 17:18:33 1512166713.888869: $GPRMC,221834,A,3946.9649,N,08404.9748,W,0.0000,0.000,011217,,*35
2017-12-01 17:18:33 1512166713.888930: $GPGSA,A,3,1,3,10,14,22,25,26,31,32,12,138,,2.0,0.8,1.5*03
2017-12-01 17:18:34 1512166714.513861: $GPZDA,221835.00,01,12,2017,00,00*6F
2017-12-01 17:18:34 1512166714.514052: $GPGGA,221835,3946.9649,N,08404.9748,W,2,11,0.80,299.39,M,-33.324,M,,*74
2017-12-01 17:18:34 1512166714.514118: $GPRMC,221835,A,3946.9649,N,08404.9748,W,0.0000,0.000,011217,,*34
2017-12-01 17:18:34 1512166714.514179: $GPGSA,A,3,1,3,10,14,22,25,26,31,32,12,138,,2.0,0.8,1.5*03
2017-12-01 17:18:35 1512166715.463804: $GPZDA,221836.00,01,12,2017,00,00*6C
2017-12-01 17:18:35 1512166715.463974: $GPGGA,221836,3946.9649,N,08404.9748,W,2,11,0.80,299.39,M,-33.324,M,,*77
2017-12-01 17:18:35 1512166715.464040: $GPRMC,221836,A,3946.9649,N,08404.9748,W,0.0000,0.000,011217,,*37
2017-12-01 17:18:35 1512166715.464101: $GPGSA,A,3,1,3,10,14,22,25,26,31,32,12,138,,2.0,0.8,1.5*03
2017-12-01 17:18:36 1512166716.800448: $GPGSV,3,1,11,01,20,279,44,03,18,316,42,10,26,156,36,14,70,027,45*78
2017-12-01 17:18:36 1512166716.800630: $GPGSV,3,2,11,22,36,306,44,25,38,061,35,26,22,178,37,31,76,264,47*7B
2017-12-01 17:18:36 1512166716.800697: $GPGSV,3,3,11,32,57,073,47,12,10,034,32,138,38,213,39*72
2017-12-01 17:18:36 1512166716.913788: $GPZDA,221837.00,01,12,2017,00,00*6D
2017-12-01 17:18:36 1512166716.913926: $GPGGA,221837,3946.9649,N,08404.9748,W,2,11,0.80,299.39,M,-33.324,M,,*76
2017-12-01 17:18:36 1512166716.913991: $GPRMC,221837,A,3946.9649,N,08404.9748,W,0.0000,0.000,011217,,*36
2017-12-01 17:18:36 1512166716.914050: $GPGSA,A,3,1,3,10,14,22,25,26,31,32,12,138,,2.0,0.8,1.5*03
2017-12-01 17:18:37 1512166717.465055: $GPZDA,221838.00,01,12,2017,00,00*62
2017-12-01 17:18:37 1512166717.465234: $GPGGA,221838,3946.9649,N,08404.9748,W,2,11,0.80,299.39,M,-33.324,M,,*79
2017-12-01 17:18:37 1512166717.465303: $GPRMC,221838,A,3946.9649,N,08404.9748,W,0.0000,0.000,011217,,*39
2017-12-01 17:18:37 1512166717.465364: $GPGSA,A,3,1,3,10,14,22,25,26,31,32,12,138,,2.0,0.8,1.5*03
2017-12-01 17:18:38 1512166718.464319: $GPZDA,221839.00,01,12,2017,00,00*63
2017-12-01 17:18:38 1512166718.464491: $GPGGA,221839,3946.9649,N,08404.9748,W,2,11,0.80,299.39,M,-33.324,M,,*78
2017-12-01 17:18:38 1512166718.464558: $GPRMC,221839,A,3946.9649,N,08404.9748,W,0.0000,0.000,011217,,*38
2017-12-01 17:18:38 1512166718.464619: $GPGSA,A,3,1,3,10,14,22,25,26,31,32,12,138,,2.0,0.8,1.5*03
2017-12-01 17:18:39 1512166719.779552: $GPGSV,3,1,11,01,20,279,43,03,18,316,42,10,26,156,36,14,70,027,45*7F
2017-12-01 17:18:39 1512166719.779786: $GPGSV,3,2,11,22,36,306,44,25,38,061,34,26,22,178,37,31,76,264,47*7A
2017-12-01 17:18:39 1512166719.779856: $GPGSV,3,3,11,32,57,073,47,12,10,034,32,138,38,213,39*72
2017-12-01 17:18:39 1512166719.892938: $GPZDA,221840.00,01,12,2017,00,00*6D
2017-12-01 17:18:39 1512166719.893109: $GPGGA,221840,3946.9649,N,08404.9748,W,2,11,0.80,299.39,M,-33.324,M,,*76
2017-12-01 17:18:39 1512166719.893175: $GPRMC,221840,A,3946.9649,N,08404.9748,W,0.0000,0.000,011217,,*36
2017-12-01 17:18:39 1512166719.893236: $GPGSA,A,3,1,3,10,14,22,25,26,31,32,12,138,,2.0,0.8,1.5*03
2017-12-01 17:18:40 1512166720.443813: $GPZDA,221841.00,01,12,2017,00,00*6C
2017-12-01 17:18:40 1512166720.443988: $GPGGA,221841,3946.9649,N,08404.9748,W,2,11,0.80,299.39,M,-33.324,M,,*77
2017-12-01 17:18:40 1512166720.444054: $GPRMC,221841,A,3946.9649,N,08404.9748,W,0.0000,0.000,011217,,*37
2017-12-01 17:18:40 1512166720.444115: $GPGSA,A,3,1,3,10,14,22,25,26,31,32,12,138,,2.0,0.8,1.5*03
2017-12-01 17:18:41 1512166721.444827: $GPZDA,221842.00,01,12,2017,00,00*6F
2017-12-01 17:18:41 1512166721.444999: $GPGGA,221842,3946.9649,N,08404.9748,W,2,11,0.80,299.39,M,-33.324,M,,*74
2017-12-01 17:18:41 1512166721.445064: $GPRMC,221842,A,3946.9649,N,08404.9748,W,0.0000,0.000,011217,,*34
2017-12-01 17:18:41 1512166721.445125: $GPGSA,A,3,1,3,10,14,22,25,26,31,32,12,138,,2.0,0.8,1.5*03
2017-12-01 17:18:42 1512166722.781738: $GPGSV,3,1,11,01,20,279,43,03,18,316,42,10,26,156,30,14,70,027,45*79
2017-12-01 17:18:42 1512166722.781932: $GPGSV,3,2,11,22,36,306,44,25,38,061,34,26,22,178,38,31,76,264,47*75
2017-12-01 17:18:42 1512166722.782002: $GPGSV,3,3,11,32,57,073,47,12,10,034,31,138,38,213,39*71
2017-12-01 17:18:42 1512166722.895377: $GPZDA,221843.00,01,12,2017,00,00*6E
2017-12-01 17:18:42 1512166722.895548: $GPGGA,221843,3946.9649,N,08404.9748,W,2,11,0.80,299.39,M,-33.324,M,,*75
2017-12-01 17:18:42 1512166722.895617: $GPRMC,221843,A,3946.9649,N,08404.9748,W,0.0000,0.000,011217,,*35
2017-12-01 17:18:42 1512166722.895678: $GPGSA,A,3,1,3,10,14,22,25,26,31,32,12,138,,2.0,0.8,1.5*03
2017-12-01 17:18:43 1512166723.443510: $GPZDA,221844.00,01,12,2017,00,00*69
2017-12-01 17:18:43 1512166723.445151: $GPGGA,221844,3946.9649,N,08404.9748,W,2,11,0.80,299.39,M,-33.324,M,,*72
2017-12-01 17:18:43 1512166723.445273: $GPRMC,221844,A,3946.9649,N,08404.9748,W,0.0000,0.000,011217,,*32
2017-12-01 17:18:43 1512166723.445338: $GPGSA,A,3,1,3,10,14,22,25,26,31,32,12,138,,2.0,0.8,1.5*03
2017-12-01 17:18:44 1512166724.437538: $GPZDA,221845.00,01,12,2017,00,00*68
2017-12-01 17:18:44 1512166724.437722: $GPGGA,221845,3946.9649,N,08404.9748,W,2,11,0.80,299.39,M,-33.324,M,,*73
2017-12-01 17:18:44 1512166724.437792: $GPRMC,221845,A,3946.9649,N,08404.9748,W,0.0000,0.000,011217,,*33
2017-12-01 17:18:44 1512166724.437857: $GPGSA,A,3,1,3,10,14,22,25,26,31,32,12,138,,2.0,0.8,1.5*03
2017-12-01 17:18:45 1512166725.780854: $GPGSV,3,1,11,01,20,279,43,03,18,316,43,10,26,156,33,14,70,027,44*7A
2017-12-01 17:18:45 1512166725.781039: $GPGSV,3,2,11,22,36,306,44,25,38,061,34,26,22,178,38,31,76,264,47*75
2017-12-01 17:18:45 1512166725.781108: $GPGSV,3,3,11,32,57,073,46,12,10,034,31,138,38,213,38*71
2017-12-01 17:18:45 1512166725.894459: $GPZDA,221846.00,01,12,2017,00,00*6B
2017-12-01 17:18:45 1512166725.894652: $GPGGA,221846,3946.9649,N,08404.9748,W,2,11,0.80,299.39,M,-33.324,M,,*70
2017-12-01 17:18:45 1512166725.894724: $GPRMC,221846,A,3946.9649,N,08404.9748,W,0.0000,0.000,011217,,*30
2017-12-01 17:18:45 1512166725.894785: $GPGSA,A,3,1,3,10,14,22,25,26,31,32,12,138,,2.0,0.8,1.5*03
2017-12-01 17:18:46 1512166726.445332: $GPZDA,221847.00,01,12,2017,00,00*6A
2017-12-01 17:18:46 1512166726.445514: $GPGGA,221847,3946.9649,N,08404.9748,W,2,11,0.80,299.39,M,-33.324,M,,*71
2017-12-01 17:18:46 1512166726.445582: $GPRMC,221847,A,3946.9649,N,08404.9748,W,0.0000,0.000,011217,,*31
2017-12-01 17:18:46 1512166726.445643: $GPGSA,A,3,1,3,10,14,22,25,26,31,32,12,138,,2.0,0.8,1.5*03
2017-12-01 17:18:47 1512166727.443790: $GPZDA,221848.00,01,12,2017,00,00*65
2017-12-01 17:18:47 1512166727.443965: $GPGGA,221848,3946.9649,N,08404.9748,W,2,11,0.80,299.39,M,-33.324,M,,*7E
2017-12-01 17:18:47 1512166727.444082: $GPRMC,221848,A,3946.9649,N,08404.9748,W,0.0000,0.000,011217,,*3E
2017-12-01 17:18:47 1512166727.444145: $GPGSA,A,3,1,3,10,14,22,25,26,31,32,12,138,,2.0,0.8,1.5*03
2017-12-01 17:18:48 1512166728.780407: $GPGSV,3,1,11,01,20,279,44,03,18,316,43,10,26,156,34,14,70,027,44*7A
2017-12-01 17:18:48 1512166728.780587: $GPGSV,3,2,11,22,36,306,44,25,38,061,33,26,22,178,38,31,76,264,47*72
2017-12-01 17:18:48 1512166728.780656: $GPGSV,3,3,11,32,57,073,47,12,10,034,30,138,38,213,40*7E
2017-12-01 17:18:48 1512166728.894191: $GPZDA,221849.00,01,12,2017,00,00*64
2017-12-01 17:18:48 1512166728.894360: $GPGGA,221849,3946.9649,N,08404.9748,W,2,11,0.80,299.39,M,-33.324,M,,*7F
2017-12-01 17:18:48 1512166728.894427: $GPRMC,221849,A,3946.9649,N,08404.9748,W,0.0000,0.000,011217,,*3F
2017-12-01 17:18:48 1512166728.894487: $GPGSA,A,3,1,3,10,14,22,25,26,31,32,12,138,,2.0,0.8,1.5*03
2017-12-01 17:18:49 1512166729.519713: $GPZDA,221850.00,01,12,2017,00,00*6C
2017-12-01 17:18:49 1512166729.519890: $GPGGA,221850,3946.9649,N,08404.9748,W,2,11,0.80,299.39,M,-33.324,M,,*77
2017-12-01 17:18:49 1512166729.519958: $GPRMC,221850,A,3946.9649,N,08404.9748,W,0.0000,0.000,011217,,*37
2017-12-01 17:18:49 1512166729.520019: $GPGSA,A,3,1,3,10,14,22,25,26,31,32,12,138,,2.0,0.8,1.5*03
2017-12-01 17:18:50 1512166730.438869: $GPZDA,221851.00,01,12,2017,00,00*6D
2017-12-01 17:18:50 1512166730.439038: $GPGGA,221851,3946.9649,N,08404.9748,W,2,11,0.80,299.39,M,-33.324,M,,*76
2017-12-01 17:18:50 1512166730.439104: $GPRMC,221851,A,3946.9649,N,08404.9748,W,0.0000,0.000,011217,,*36
2017-12-01 17:18:50 1512166730.439165: $GPGSA,A,3,1,3,10,14,22,25,26,31,32,12,138,,2.0,0.8,1.5*03
2017-12-01 17:18:51 1512166731.779497: $GPGSV,3,1,11,01,20,279,44,03,18,316,44,10,26,156,36,14,70,027,44*7F
2017-12-01 17:18:51 1512166731.779696: $GPGSV,3,2,11,22,36,306,44,25,38,061,33,26,22,178,39,31,76,264,47*73
2017-12-01 17:18:51 1512166731.779763: $GPGSV,3,3,11,32,57,073,47,12,10,034,26,138,38,213,40*79
2017-12-01 17:18:51 1512166731.891797: $GPZDA,221852.00,01,12,2017,00,00*6E
2017-12-01 17:18:51 1512166731.891966: $GPGGA,221852,3946.9649,N,08404.9748,W,2,11,0.80,299.39,M,-33.324,M,,*75
2017-12-01 17:18:51 1512166731.892032: $GPRMC,221852,A,3946.9649,N,08404.9748,W,0.0000,0.000,011217,,*35
2017-12-01 17:18:51 1512166731.892093: $GPGSA,A,3,1,3,10,14,22,25,26,31,32,12,138,,2.0,0.8,1.5*03
