2017-11-16 13:23:38 1510856618.737053: {"class":"VERSION","release":"3.17","rev":"3.17","proto_major":3,"proto_minor":12}
2017-11-16 13:23:38 1510856618.737464: {"class":"DEVICES","devices":[{"class":"DEVICE","path":"/dev/ttyUSB0","driver":"SiRF","subtype":"9\u0006GSD4e_4.1.2-P1_RPATCH.05-F-GPS-4R-1510281 11/03/2015 307","activated":"2017-11-16T18:23:38.440Z","flags":1,"native":1,"bps":4800,"parity":"N","stopbits":1,"cycle":1.00}]}
2017-11-16 13:23:38 1510856618.737576: {"class":"WATCH","enable":true,"json":false,"nmea":true,"raw":0,"scaled":false,"timing":false,"split24":false,"pps":false}
2017-11-16 13:23:39 1510856619.635833: $GPGSV,3,1,12,10,24,283,44,13,28,045,46,15,59,051,50,18,55,301,47*7C
2017-11-16 13:23:39 1510856619.636002: $GPGSV,3,2,12,20,50,073,48,21,78,264,46,24,35,138,40,27,17,312,42*71
2017-11-16 13:23:39 1510856619.636063: $GPGSV,3,3,12,05,03,088,00,29,08,189,28,32,02,226,29,138,38,213,45*4B
2017-11-16 13:23:39 1510856619.749061: $GPZDA,182338.00,16,11,2017,00,00*66
2017-11-16 13:23:39 1510856619.749255: $GPGGA,182338,3946.9614,N,08404.9845,W,2,11,0.80,302.56,M,-33.324,M,,*78
2017-11-16 13:23:39 1510856619.749317: $GPRMC,182338,A,3946.9614,N,08404.9845,W,0.0000,0.000,161117,,*37
2017-11-16 13:23:39 1510856619.749375: $GPGSA,A,3,10,13,15,18,20,21,24,27,29,32,138,,1.6,0.8,1.3*03
2017-11-16 13:23:40 1510856620.374475: $GPZDA,182339.00,16,11,2017,00,00*67
2017-11-16 13:23:40 1510856620.374641: $GPGGA,182339,3946.9614,N,08404.9845,W,2,11,0.80,302.56,M,-33.324,M,,*79
2017-11-16 13:23:40 1510856620.374704: $GPRMC,182339,A,3946.9614,N,08404.9845,W,0.0000,0.000,161117,,*36
2017-11-16 13:23:40 1510856620.374759: $GPGSA,A,3,10,13,15,18,20,21,24,27,29,32,138,,1.6,0.8,1.3*03
2017-11-16 13:23:41 1510856621.280586: $GPZDA,182340.00,16,11,2017,00,00*69
2017-11-16 13:23:41 1510856621.280743: $GPGGA,182340,3946.9614,N,08404.9845,W,2,11,0.80,302.56,M,-33.324,M,,*77
2017-11-16 13:23:41 1510856621.280806: $GPRMC,182340,A,3946.9614,N,08404.9845,W,0.0000,0.000,161117,,*38
2017-11-16 13:23:41 1510856621.280862: $GPGSA,A,3,10,13,15,18,20,21,24,27,29,32,138,,1.6,0.8,1.3*03
2017-11-16 13:23:42 1510856622.611116: $GPGSV,3,1,12,10,24,283,44,13,28,045,46,15,59,051,50,18,55,301,47*7C
2017-11-16 13:23:42 1510856622.611305: $GPGSV,3,2,12,20,50,073,48,21,78,264,46,24,35,138,39,27,17,312,41*7C
2017-11-16 13:23:42 1510856622.611388: $GPGSV,3,3,12,05,03,088,00,29,08,189,29,32,02,226,29,138,38,213,46*49
2017-11-16 13:23:42 1510856622.724353: $GPZDA,182341.00,16,11,2017,00,00*68
2017-11-16 13:23:42 1510856622.724526: $GPGGA,182341,3946.9614,N,08404.9845,W,2,11,0.80,302.56,M,-33.324,M,,*76
2017-11-16 13:23:42 1510856622.724590: $GPRMC,182341,A,3946.9614,N,08404.9845,W,0.0000,0.000,161117,,*39
2017-11-16 13:23:42 1510856622.724647: $GPGSA,A,3,10,13,15,18,20,21,24,27,29,32,138,,1.6,0.8,1.3*03
2017-11-16 13:23:43 1510856623.281751: $GPZDA,182342.00,16,11,2017,00,00*6B
2017-11-16 13:23:43 1510856623.281911: $GPGGA,182342,3946.9614,N,08404.9845,W,2,11,0.80,302.56,M,-33.324,M,,*75
2017-11-16 13:23:43 1510856623.281975: $GPRMC,182342,A,3946.9614,N,08404.9845,W,0.0000,0.000,161117,,*3A
2017-11-16 13:23:43 1510856623.282033: $GPGSA,A,3,10,13,15,18,20,21,24,27,29,32,138,,1.6,0.8,1.3*03
2017-11-16 13:23:44 1510856624.281323: $GPZDA,182343.00,16,11,2017,00,00*6A
2017-11-16 13:23:44 1510856624.281484: $GPGGA,182343,3946.9614,N,08404.9845,W,2,11,0.80,302.56,M,-33.324,M,,*74
2017-11-16 13:23:44 1510856624.281545: $GPRMC,182343,A,3946.9614,N,08404.9845,W,0.0000,0.000,161117,,*3B
2017-11-16 13:23:44 1510856624.281600: $GPGSA,A,3,10,13,15,18,20,21,24,27,29,32,138,,1.6,0.8,1.3*03
2017-11-16 13:23:45 1510856625.638867: $GPGSV,3,1,12,10,24,283,44,13,28,045,46,15,59,051,50,18,55,301,47*7C
2017-11-16 13:23:45 1510856625.639037: $GPGSV,3,2,12,20,50,073,48,21,78,264,47,24,35,138,39,27,17,312,40*7C
2017-11-16 13:23:45 1510856625.639099: $GPGSV,3,3,12,05,03,088,02,29,08,189,30,32,02,226,29,138,38,213,45*40
2017-11-16 13:23:45 1510856625.752151: $GPZDA,182344.00,16,11,2017,00,00*6D
2017-11-16 13:23:45 1510856625.752320: $GPGGA,182344,3946.9614,N,08404.9845,W,2,11,0.80,302.56,M,-33.324,M,,*73
2017-11-16 13:23:45 1510856625.752433: $GPRMC,182344,A,3946.9614,N,08404.9845,W,0.0000,0.000,161117,,*3C
2017-11-16 13:23:45 1510856625.752490: $GPGSA,A,3,10,13,15,18,20,21,24,27,29,32,138,,1.6,0.8,1.3*03
2017-11-16 13:23:46 1510856626.299210: $GPZDA,182345.00,16,11,2017,00,00*6C
2017-11-16 13:23:46 1510856626.299370: $GPGGA,182345,3946.9614,N,08404.9845,W,2,11,0.80,302.56,M,-33.324,M,,*72
2017-11-16 13:23:46 1510856626.299433: $GPRMC,182345,A,3946.9614,N,08404.9845,W,0.0000,0.000,161117,,*3D
2017-11-16 13:23:46 1510856626.299489: $GPGSA,A,3,10,13,15,18,20,21,24,27,29,32,138,,1.6,0.8,1.3*03
2017-11-16 13:23:47 1510856627.280001: $GPZDA,182346.00,16,11,2017,00,00*6F
2017-11-16 13:23:47 1510856627.280157: $GPGGA,182346,3946.9614,N,08404.9845,W,2,11,0.80,302.56,M,-33.324,M,,*71
2017-11-16 13:23:47 1510856627.280220: $GPRMC,182346,A,3946.9614,N,08404.9845,W,0.0000,0.000,161117,,*3E
2017-11-16 13:23:47 1510856627.280276: $GPGSA,A,3,10,13,15,18,20,21,24,27,29,32,138,,1.6,0.8,1.3*03
2017-11-16 13:23:48 1510856628.609511: $GPGSV,3,1,12,10,24,283,43,13,28,045,46,15,59,051,51,18,55,301,47*7A
2017-11-16 13:23:48 1510856628.609681: $GPGSV,3,2,12,20,50,073,47,21,78,264,47,24,35,138,40,27,17,312,41*7C
2017-11-16 13:23:48 1510856628.609743: $GPGSV,3,3,12,05,03,088,00,29,08,189,30,32,02,226,28,138,38,213,44*42
2017-11-16 13:23:48 1510856628.722795: $GPZDA,182347.00,16,11,2017,00,00*6E
2017-11-16 13:23:48 1510856628.722963: $GPGGA,182347,3946.9614,N,08404.9845,W,2,11,0.80,302.56,M,-33.324,M,,*70
2017-11-16 13:23:48 1510856628.723025: $GPRMC,182347,A,3946.9614,N,08404.9845,W,0.0000,0.000,161117,,*3F
2017-11-16 13:23:48 1510856628.723080: $GPGSA,A,3,10,13,15,18,20,21,24,27,29,32,138,,1.6,0.8,1.3*03
2017-11-16 13:23:49 1510856629.284990: $GPZDA,182348.00,16,11,2017,00,00*61
2017-11-16 13:23:49 1510856629.285152: $GPGGA,182348,3946.9614,N,08404.9845,W,2,11,0.80,302.56,M,-33.324,M,,*7F
2017-11-16 13:23:49 1510856629.285212: $GPRMC,182348,A,3946.9614,N,08404.9845,W,0.0000,0.000,161117,,*30
2017-11-16 13:23:49 1510856629.285269: $GPGSA,A,3,10,13,15,18,20,21,24,27,29,32,138,,1.6,0.8,1.3*03
2017-11-16 13:23:50 1510856630.290338: $GPZDA,182349.00,16,11,2017,00,00*60
2017-11-16 13:23:50 1510856630.290503: $GPGGA,182349,3946.9614,N,08404.9845,W,2,11,0.80,302.56,M,-33.324,M,,*7E
2017-11-16 13:23:50 1510856630.290566: $GPRMC,182349,A,3946.9614,N,08404.9845,W,0.0000,0.000,161117,,*31
2017-11-16 13:23:50 1510856630.290625: $GPGSA,A,3,10,13,15,18,20,21,24,27,29,32,138,,1.6,0.8,1.3*03
2017-11-16 13:23:51 1510856631.615095: $GPGSV,3,1,12,10,24,283,42,13,28,045,46,15,59,051,51,18,55,301,47*7B
2017-11-16 13:23:51 1510856631.615256: $GPGSV,3,2,12,20,50,073,47,21,78,264,47,24,35,138,40,27,17,312,41*7C
2017-11-16 13:23:51 1510856631.615316: $GPGSV,3,3,12,05,03,088,00,29,08,189,30,32,02,226,28,138,38,213,45*43
2017-11-16 13:23:51 1510856631.728142: $GPZDA,182350.00,16,11,2017,00,00*68
2017-11-16 13:23:51 1510856631.728298: $GPGGA,182350,3946.9614,N,08404.9845,W,2,11,0.80,302.56,M,-33.324,M,,*76
2017-11-16 13:23:51 1510856631.728358: $GPRMC,182350,A,3946.9614,N,08404.9845,W,0.0000,0.000,161117,,*39
2017-11-16 13:23:51 1510856631.728415: $GPGSA,A,3,10,13,15,18,20,21,24,27,29,32,138,,1.6,0.8,1.3*03
2017-11-16 13:23:52 1510856632.280147: $GPZDA,182351.00,16,11,2017,00,00*69
2017-11-16 13:23:52 1510856632.280370: $GPGGA,182351,3946.9614,N,08404.9845,W,2,11,0.80,302.56,M,-33.324,M,,*77
2017-11-16 13:23:52 1510856632.280442: $GPRMC,182351,A,3946.9614,N,08404.9845,W,0.0000,0.000,161117,,*38
2017-11-16 13:23:52 1510856632.280500: $GPGSA,A,3,10,13,15,18,20,21,24,27,29,32,138,,1.6,0.8,1.3*03
2017-11-16 13:23:53 1510856633.289680: $GPZDA,182352.00,16,11,2017,00,00*6A
2017-11-16 13:23:53 1510856633.289855: $GPGGA,182352,3946.9614,N,08404.9845,W,2,11,0.80,302.56,M,-33.324,M,,*74
2017-11-16 13:23:53 1510856633.289918: $GPRMC,182352,A,3946.9614,N,08404.9845,W,0.0000,0.000,161117,,*3B
2017-11-16 13:23:53 1510856633.289976: $GPGSA,A,3,10,13,15,18,20,21,24,27,29,32,138,,1.6,0.8,1.3*03
