2017-11-15 19:16:49 1510791409.384715: {"class":"VERSION","release":"3.17","rev":"3.17","proto_major":3,"proto_minor":12}
2017-11-15 19:16:49 1510791409.385181: {"class":"DEVICES","devices":[{"class":"DEVICE","path":"/dev/ttyUSB0","driver":"SiRF","subtype":"9\u0006GSD4e_4.1.2-P1_RPATCH.05-F-GPS-4R-1510281 11/03/2015 307","activated":"2017-11-16T00:16:49.346Z","flags":1,"native":1,"bps":4800,"parity":"N","stopbits":1,"cycle":1.00}]}
2017-11-15 19:16:49 1510791409.385298: {"class":"WATCH","enable":true,"json":false,"nmea":true,"raw":0,"scaled":false,"timing":false,"split24":false,"pps":false}
2017-11-15 19:16:50 1510791410.330841: $GPZDA,001649.00,16,11,2017,00,00*6F
2017-11-15 19:16:50 1510791410.331015: $GPGGA,001649,3946.9689,N,08404.9430,W,1,07,1.40,290.65,M,-33.324,M,,*78
2017-11-15 19:16:50 1510791410.331078: $GPRMC,001649,A,3946.9689,N,08404.9430,W,0.5306,114.352,161117,,*34
2017-11-15 19:16:50 1510791410.331134: $GPGSA,A,3,32,14,22,26,31,3,1,,,,,,3.4,1.4,2.9*3B
2017-11-15 19:16:51 1510791411.681127: $GPGSV,3,1,11,32,41,102,20,14,59,084,26,22,49,280,24,26,46,175,17*7D
2017-11-15 19:16:51 1510791411.681298: $GPGSV,3,2,11,31,72,013,20,25,22,042,00,03,36,304,23,01,09,256,11*77
2017-11-15 19:16:51 1510791411.681359: $GPGSV,3,3,11,29,09,076,10,16,16,190,00,23,07,298,00*46
2017-11-15 19:16:51 1510791411.794491: $GPZDA,001650.00,16,11,2017,00,00*67
2017-11-15 19:16:51 1510791411.794666: $GPGGA,001650,3946.9685,N,08404.9430,W,1,07,1.40,290.01,M,-33.324,M,,*7E
2017-11-15 19:16:51 1510791411.794730: $GPRMC,001650,A,3946.9685,N,08404.9430,W,0.4179,148.778,161117,,*3E
2017-11-15 19:16:51 1510791411.794788: $GPGSA,A,3,32,14,22,26,31,3,1,,,,,,3.4,1.4,2.9*3B
2017-11-15 19:16:52 1510791412.330342: $GPZDA,001651.00,16,11,2017,00,00*66
2017-11-15 19:16:52 1510791412.330516: $GPGGA,001651,3946.9685,N,08404.9430,W,1,07,1.40,290.01,M,-33.324,M,,*7F
2017-11-15 19:16:52 1510791412.330579: $GPRMC,001651,A,3946.9685,N,08404.9430,W,0.5857,158.291,161117,,*38
2017-11-15 19:16:52 1510791412.330636: $GPGSA,A,3,32,14,22,26,31,3,1,,,,,,3.4,1.4,2.9*3B
2017-11-15 19:16:53 1510791413.344958: $GPZDA,001652.00,16,11,2017,00,00*65
2017-11-15 19:16:53 1510791413.345150: $GPGGA,001652,3946.9677,N,08404.9438,W,1,07,1.40,290.05,M,-33.324,M,,*7D
2017-11-15 19:16:53 1510791413.345232: $GPRMC,001652,A,3946.9677,N,08404.9438,W,0.4207,219.347,161117,,*3C
2017-11-15 19:16:53 1510791413.345292: $GPGSA,A,3,32,14,22,26,31,3,1,,,,,,3.4,1.4,2.9*3B
2017-11-15 19:16:54 1510791414.680876: $GPGSV,3,1,11,32,41,102,20,14,59,084,26,22,49,280,24,26,46,175,17*7D
2017-11-15 19:16:54 1510791414.681050: $GPGSV,3,2,11,31,72,013,20,25,22,042,00,03,36,304,23,01,09,256,11*77
2017-11-15 19:16:54 1510791414.681110: $GPGSV,3,3,11,16,16,190,00,29,09,076,00,23,07,298,00*47
2017-11-15 19:16:54 1510791414.794073: $GPZDA,001653.00,16,11,2017,00,00*64
2017-11-15 19:16:54 1510791414.794237: $GPGGA,001653,3946.9673,N,08404.9438,W,1,07,1.40,289.41,M,-33.324,M,,*70
2017-11-15 19:16:54 1510791414.794298: $GPRMC,001653,A,3946.9673,N,08404.9438,W,0.7278,203.636,161117,,*3A
2017-11-15 19:16:54 1510791414.794354: $GPGSA,A,3,32,14,22,26,31,3,1,,,,,,3.4,1.4,2.9*3B
2017-11-15 19:16:55 1510791415.329940: $GPZDA,001654.00,16,11,2017,00,00*63
2017-11-15 19:16:55 1510791415.330109: $GPGGA,001654,3946.9673,N,08404.9438,W,1,07,1.40,289.41,M,-33.324,M,,*77
2017-11-15 19:16:55 1510791415.330174: $GPRMC,001654,A,3946.9673,N,08404.9438,W,0.5287,182.716,161117,,*36
2017-11-15 19:16:55 1510791415.330231: $GPGSA,A,3,32,14,22,26,31,3,1,,,,,,3.4,1.4,2.9*3B
2017-11-15 19:16:56 1510791416.329074: $GPZDA,001655.00,16,11,2017,00,00*62
2017-11-15 19:16:56 1510791416.329239: $GPGGA,001655,3946.9666,N,08404.9439,W,1,07,1.40,289.54,M,-33.324,M,,*77
2017-11-15 19:16:56 1510791416.329301: $GPRMC,001655,A,3946.9666,N,08404.9439,W,0.5857,158.291,161117,,*38
2017-11-15 19:16:56 1510791416.329357: $GPGSA,A,3,32,14,22,26,31,3,1,,,,,,3.4,1.4,2.9*3B
2017-11-15 19:16:57 1510791417.682345: $GPGSV,3,1,12,32,41,102,21,14,59,084,26,22,49,280,24,26,46,175,18*70
2017-11-15 19:16:57 1510791417.682518: $GPGSV,3,2,12,31,72,013,20,25,22,042,00,03,36,304,23,01,09,256,11*74
2017-11-15 19:16:57 1510791417.682631: $GPGSV,3,3,12,16,16,190,00,29,09,076,00,23,07,298,00,138,38,213,00*45
2017-11-15 19:16:57 1510791417.795677: $GPZDA,001656.00,16,11,2017,00,00*61
2017-11-15 19:16:57 1510791417.795839: $GPGGA,001656,3946.9661,N,08404.9439,W,1,07,1.40,288.90,M,-33.324,M,,*7A
2017-11-15 19:16:57 1510791417.795906: $GPRMC,001656,A,3946.9661,N,08404.9439,W,0.7246,164.668,161117,,*39
2017-11-15 19:16:57 1510791417.795962: $GPGSA,A,3,32,14,22,26,31,3,1,,,,,,3.4,1.4,2.9*3B
2017-11-15 19:16:58 1510791418.345642: $GPZDA,001657.00,16,11,2017,00,00*60
2017-11-15 19:16:58 1510791418.345835: $GPGGA,001657,3946.9658,N,08404.9446,W,1,07,1.40,288.18,M,-33.324,M,,*79
2017-11-15 19:16:58 1510791418.347245: $GPRMC,001657,A,3946.9658,N,08404.9446,W,0.0000,0.000,161117,,*36
2017-11-15 19:16:58 1510791418.347331: $GPGSA,A,3,32,14,22,26,31,3,1,,,,,,3.4,1.4,2.9*3B
2017-11-15 19:16:59 1510791419.345280: $GPZDA,001658.00,16,11,2017,00,00*6F
2017-11-15 19:16:59 1510791419.345442: $GPGGA,001658,3946.9658,N,08404.9446,W,1,07,1.40,288.18,M,-33.324,M,,*76
2017-11-15 19:16:59 1510791419.345503: $GPRMC,001658,A,3946.9658,N,08404.9446,W,0.5306,294.352,161117,,*32
2017-11-15 19:16:59 1510791419.345559: $GPGSA,A,3,32,14,22,26,31,3,1,,,,,,3.4,1.4,2.9*3B
