2017-11-16 13:51:20 1510858280.387671: {"class":"VERSION","release":"3.17","rev":"3.17","proto_major":3,"proto_minor":12}
2017-11-16 13:51:20 1510858280.388173: {"class":"DEVICES","devices":[{"class":"DEVICE","path":"/dev/ttyUSB0","driver":"SiRF","subtype":"9\u0006GSD4e_4.1.2-P1_RPATCH.05-F-GPS-4R-1510281 11/03/2015 307","activated":"2017-11-16T18:51:20.383Z","flags":1,"native":1,"bps":4800,"parity":"N","stopbits":1,"cycle":1.00}]}
2017-11-16 13:51:20 1510858280.388306: {"class":"WATCH","enable":true,"json":false,"nmea":true,"raw":0,"scaled":false,"timing":false,"split24":false,"pps":false}
2017-11-16 13:51:21 1510858281.369563: $GPZDA,185120.00,16,11,2017,00,00*6A
2017-11-16 13:51:21 1510858281.369727: $GPGGA,185120,3946.9615,N,08404.9826,W,2,11,0.80,307.01,M,-33.324,M,,*77
2017-11-16 13:51:21 1510858281.369787: $GPRMC,185120,A,3946.9615,N,08404.9826,W,0.0000,0.000,161117,,*3F
2017-11-16 13:51:21 1510858281.369843: $GPGSA,A,3,10,13,15,18,20,21,24,27,32,8,138,,1.6,0.8,1.3*30
2017-11-16 13:51:22 1510858282.681193: $GPGSV,3,1,11,10,34,294,42,13,16,046,45,15,47,049,50,18,64,318,48*70
2017-11-16 13:51:22 1510858282.681347: $GPGSV,3,2,11,20,40,087,48,21,73,205,47,24,45,124,46,27,19,300,29*79
2017-11-16 13:51:22 1510858282.681407: $GPGSV,3,3,11,32,12,232,30,08,02,328,00,138,38,213,44*79
2017-11-16 13:51:22 1510858282.794583: $GPZDA,185121.00,16,11,2017,00,00*6B
2017-11-16 13:51:22 1510858282.794751: $GPGGA,185121,3946.9615,N,08404.9826,W,2,10,0.80,307.01,M,-33.324,M,,*77
2017-11-16 13:51:22 1510858282.794814: $GPRMC,185121,A,3946.9615,N,08404.9826,W,0.0000,0.000,161117,,*3E
2017-11-16 13:51:22 1510858282.794869: $GPGSA,A,3,10,13,15,18,20,21,24,27,32,138,,,1.6,0.8,1.3*08
2017-11-16 13:51:23 1510858283.372051: $GPZDA,185122.00,16,11,2017,00,00*68
2017-11-16 13:51:23 1510858283.372230: $GPGGA,185122,3946.9615,N,08404.9826,W,2,10,0.80,307.01,M,-33.324,M,,*74
2017-11-16 13:51:23 1510858283.372293: $GPRMC,185122,A,3946.9615,N,08404.9826,W,0.0000,0.000,161117,,*3D
2017-11-16 13:51:23 1510858283.372352: $GPGSA,A,3,10,13,15,18,20,21,24,27,32,138,,,1.6,0.8,1.3*08
2017-11-16 13:51:24 1510858284.340152: $GPZDA,185123.00,16,11,2017,00,00*69
2017-11-16 13:51:24 1510858284.340361: $GPGGA,185123,3946.9615,N,08404.9826,W,2,10,0.80,307.01,M,-33.324,M,,*75
2017-11-16 13:51:24 1510858284.340431: $GPRMC,185123,A,3946.9615,N,08404.9826,W,0.0000,0.000,161117,,*3C
2017-11-16 13:51:24 1510858284.340487: $GPGSA,A,3,10,13,15,18,20,21,24,27,32,138,,,1.6,0.8,1.3*08
2017-11-16 13:51:25 1510858285.682494: $GPGSV,3,1,11,10,34,294,42,13,16,046,45,15,47,049,51,18,64,318,48*71
2017-11-16 13:51:25 1510858285.682680: $GPGSV,3,2,11,20,40,087,48,21,73,205,47,24,45,124,46,27,19,300,30*71
2017-11-16 13:51:25 1510858285.682740: $GPGSV,3,3,11,32,12,232,30,08,02,328,00,138,38,213,43*7E
2017-11-16 13:51:25 1510858285.795669: $GPZDA,185124.00,16,11,2017,00,00*6E
2017-11-16 13:51:25 1510858285.795847: $GPGGA,185124,3946.9615,N,08404.9826,W,2,10,0.80,307.01,M,-33.324,M,,*72
2017-11-16 13:51:25 1510858285.795910: $GPRMC,185124,A,3946.9615,N,08404.9826,W,0.0000,0.000,161117,,*3B
2017-11-16 13:51:25 1510858285.795965: $GPGSA,A,3,10,13,15,18,20,21,24,27,32,138,,,1.6,0.8,1.3*08
2017-11-16 13:51:26 1510858286.369114: $GPZDA,185125.00,16,11,2017,00,00*6F
2017-11-16 13:51:26 1510858286.369272: $GPGGA,185125,3946.9615,N,08404.9826,W,2,10,0.80,307.01,M,-33.324,M,,*73
2017-11-16 13:51:26 1510858286.369331: $GPRMC,185125,A,3946.9615,N,08404.9826,W,0.0000,0.000,161117,,*3A
2017-11-16 13:51:26 1510858286.369387: $GPGSA,A,3,10,13,15,18,20,21,24,27,32,138,,,1.6,0.8,1.3*08
2017-11-16 13:51:27 1510858287.345936: $GPZDA,185126.00,16,11,2017,00,00*6C
2017-11-16 13:51:27 1510858287.346099: $GPGGA,185126,3946.9615,N,08404.9826,W,2,10,0.80,307.01,M,-33.324,M,,*70
2017-11-16 13:51:27 1510858287.346160: $GPRMC,185126,A,3946.9615,N,08404.9826,W,0.0000,0.000,161117,,*39
2017-11-16 13:51:27 1510858287.346215: $GPGSA,A,3,10,13,15,18,20,21,24,27,32,138,,,1.6,0.8,1.3*08
2017-11-16 13:51:28 1510858288.706917: $GPGSV,3,1,11,10,34,294,42,13,16,046,46,15,47,049,51,18,64,318,48*72
2017-11-16 13:51:28 1510858288.707138: $GPGSV,3,2,11,20,40,087,48,21,73,205,47,24,45,124,46,27,19,300,30*71
2017-11-16 13:51:28 1510858288.707200: $GPGSV,3,3,11,32,12,232,31,08,02,328,00,138,38,213,43*7F
2017-11-16 13:51:28 1510858288.820234: $GPZDA,185127.00,16,11,2017,00,00*6D
2017-11-16 13:51:28 1510858288.820414: $GPGGA,185127,3946.9615,N,08404.9826,W,2,10,0.80,307.01,M,-33.324,M,,*71
2017-11-16 13:51:28 1510858288.820474: $GPRMC,185127,A,3946.9615,N,08404.9826,W,0.0000,0.000,161117,,*38
2017-11-16 13:51:28 1510858288.820529: $GPGSA,A,3,10,13,15,18,20,21,24,27,32,138,,,1.6,0.8,1.3*08
2017-11-16 13:51:29 1510858289.354905: $GPZDA,185128.00,16,11,2017,00,00*62
2017-11-16 13:51:29 1510858289.355069: $GPGGA,185128,3946.9615,N,08404.9826,W,2,10,0.80,307.01,M,-33.324,M,,*7E
2017-11-16 13:51:29 1510858289.355131: $GPRMC,185128,A,3946.9615,N,08404.9826,W,0.0000,0.000,161117,,*37
2017-11-16 13:51:29 1510858289.355186: $GPGSA,A,3,10,13,15,18,20,21,24,27,32,138,,,1.6,0.8,1.3*08
2017-11-16 13:51:30 1510858290.371057: $GPZDA,185129.00,16,11,2017,00,00*63
2017-11-16 13:51:30 1510858290.371224: $GPGGA,185129,3946.9615,N,08404.9826,W,2,10,0.80,307.01,M,-33.324,M,,*7F
2017-11-16 13:51:30 1510858290.371285: $GPRMC,185129,A,3946.9615,N,08404.9826,W,0.0000,0.000,161117,,*36
2017-11-16 13:51:30 1510858290.371341: $GPGSA,A,3,10,13,15,18,20,21,24,27,32,138,,,1.6,0.8,1.3*08
