2017-12-31 17:58:22 1514761102.970494: {"class":"VERSION","release":"3.16","rev":"3.16-4","proto_major":3,"proto_minor":11}
2017-12-31 17:58:22 1514761102.970827: {"class":"DEVICES","devices":[{"class":"DEVICE","path":"/dev/ttyUSB0","driver":"SiRF","activated":"2017-12-31T22:58:22.485Z","flags":1,"native":1,"bps":4800,"parity":"N","stopbits":1,"cycle":1.00}]}
2017-12-31 17:58:22 1514761102.970923: {"class":"WATCH","enable":true,"json":false,"nmea":true,"raw":0,"scaled":false,"timing":false,"split24":false,"pps":false}
2017-12-31 17:58:23 1514761103.345181: $GPZDA,225824.00,31,12,2017,00,00*68
2017-12-31 17:58:23 1514761103.345354: $GPGGA,225824,3946.9567,N,08404.9865,W,2,11,0.60,306.72,M,-33.324,M,,*79
2017-12-31 17:58:23 1514761103.345421: $GPRMC,225824,A,3946.9567,N,08404.9865,W,0.0000,0.000,311217,,*3C
2017-12-31 17:58:23 1514761103.345481: $GPGSA,A,3,22,23,9,3,16,29,14,31,27,26,135,,1.7,0.6,1.3*06
2017-12-31 17:58:24 1514761104.680936: $GPGSV,3,1,11,22,26,217,43,23,49,307,41,09,16,312,41,03,35,238,46*74
2017-12-31 17:58:24 1514761104.681095: $GPGSV,3,2,11,16,75,192,42,29,08,034,28,14,19,130,34,31,32,070,43*74
2017-12-31 17:58:24 1514761104.681160: $GPGSV,3,3,11,27,18,156,22,26,67,054,49,135,22,240,44*7F
2017-12-31 17:58:24 1514761104.794388: $GPZDA,225825.00,31,12,2017,00,00*69
2017-12-31 17:58:24 1514761104.794558: $GPGGA,225825,3946.9567,N,08404.9865,W,2,11,0.60,306.72,M,-33.324,M,,*78
2017-12-31 17:58:24 1514761104.794624: $GPRMC,225825,A,3946.9567,N,08404.9865,W,0.0000,0.000,311217,,*3D
2017-12-31 17:58:24 1514761104.794703: $GPGSA,A,3,22,23,9,3,16,29,14,31,27,26,135,,1.7,0.6,1.3*06
2017-12-31 17:58:25 1514761105.419613: $GPZDA,225826.00,31,12,2017,00,00*6A
2017-12-31 17:58:25 1514761105.419793: $GPGGA,225826,3946.9567,N,08404.9865,W,2,11,0.60,306.72,M,-33.324,M,,*7B
2017-12-31 17:58:25 1514761105.419861: $GPRMC,225826,A,3946.9567,N,08404.9865,W,0.0000,0.000,311217,,*3E
2017-12-31 17:58:25 1514761105.419922: $GPGSA,A,3,22,23,9,3,16,29,14,31,27,26,135,,1.7,0.6,1.3*06
2017-12-31 17:58:26 1514761106.364475: $GPZDA,225827.00,31,12,2017,00,00*6B
2017-12-31 17:58:26 1514761106.364643: $GPGGA,225827,3946.9567,N,08404.9865,W,2,11,0.60,306.72,M,-33.324,M,,*7A
2017-12-31 17:58:26 1514761106.364709: $GPRMC,225827,A,3946.9567,N,08404.9865,W,0.0000,0.000,311217,,*3F
2017-12-31 17:58:26 1514761106.364770: $GPGSA,A,3,22,23,9,3,16,29,14,31,27,26,135,,1.7,0.6,1.3*06
2017-12-31 17:58:27 1514761107.679975: $GPGSV,3,1,11,22,26,217,42,23,49,307,40,09,16,312,40,03,35,238,46*75
2017-12-31 17:58:27 1514761107.680132: $GPGSV,3,2,11,16,75,192,42,29,08,034,37,14,19,130,33,31,32,070,43*7D
2017-12-31 17:58:27 1514761107.680197: $GPGSV,3,3,11,27,18,156,22,26,67,054,48,135,22,240,43*79
2017-12-31 17:58:27 1514761107.793848: $GPZDA,225828.00,31,12,2017,00,00*64
2017-12-31 17:58:27 1514761107.794016: $GPGGA,225828,3946.9567,N,08404.9865,W,2,11,0.60,306.72,M,-33.324,M,,*75
2017-12-31 17:58:27 1514761107.794082: $GPRMC,225828,A,3946.9567,N,08404.9865,W,0.0000,0.000,311217,,*30
2017-12-31 17:58:27 1514761107.794143: $GPGSA,A,3,22,23,9,3,16,29,14,31,27,26,135,,1.7,0.6,1.3*06
2017-12-31 17:58:28 1514761108.371026: $GPZDA,225829.00,31,12,2017,00,00*65
2017-12-31 17:58:28 1514761108.371207: $GPGGA,225829,3946.9567,N,08404.9865,W,2,11,0.60,306.72,M,-33.324,M,,*74
2017-12-31 17:58:28 1514761108.371273: $GPRMC,225829,A,3946.9567,N,08404.9865,W,0.0000,0.000,311217,,*31
2017-12-31 17:58:28 1514761108.371335: $GPGSA,A,3,22,23,9,3,16,29,14,31,27,26,135,,1.7,0.6,1.3*06
2017-12-31 17:58:29 1514761109.345475: $GPZDA,225830.00,31,12,2017,00,00*6D
2017-12-31 17:58:29 1514761109.345642: $GPGGA,225830,3946.9567,N,08404.9865,W,2,11,0.60,306.72,M,-33.324,M,,*7C
2017-12-31 17:58:29 1514761109.345708: $GPRMC,225830,A,3946.9567,N,08404.9865,W,0.0000,0.000,311217,,*39
2017-12-31 17:58:29 1514761109.345768: $GPGSA,A,3,22,23,9,3,16,29,14,31,27,26,135,,1.7,0.6,1.3*06
2017-12-31 17:58:30 1514761110.680315: $GPGSV,3,1,11,22,26,217,42,23,49,307,40,09,16,312,40,03,35,238,46*75
2017-12-31 17:58:30 1514761110.680494: $GPGSV,3,2,11,16,75,192,42,29,08,034,38,14,19,130,33,31,32,070,44*75
2017-12-31 17:58:30 1514761110.680614: $GPGSV,3,3,11,27,18,156,24,26,67,054,48,135,22,240,42*7E
2017-12-31 17:58:30 1514761110.793729: $GPZDA,225831.00,31,12,2017,00,00*6C
2017-12-31 17:58:30 1514761110.793901: $GPGGA,225831,3946.9567,N,08404.9865,W,2,11,0.60,306.72,M,-33.324,M,,*7D
2017-12-31 17:58:30 1514761110.793967: $GPRMC,225831,A,3946.9567,N,08404.9865,W,0.0000,0.000,311217,,*38
2017-12-31 17:58:30 1514761110.794027: $GPGSA,A,3,22,23,9,3,16,29,14,31,27,26,135,,1.7,0.6,1.3*06
2017-12-31 17:58:31 1514761111.370881: $GPZDA,225832.00,31,12,2017,00,00*6F
2017-12-31 17:58:31 1514761111.371039: $GPGGA,225832,3946.9567,N,08404.9865,W,2,11,0.60,306.72,M,-33.324,M,,*7E
2017-12-31 17:58:31 1514761111.371122: $GPRMC,225832,A,3946.9567,N,08404.9865,W,0.0000,0.000,311217,,*3B
2017-12-31 17:58:31 1514761111.371185: $GPGSA,A,3,22,23,9,3,16,29,14,31,27,26,135,,1.7,0.6,1.3*06
2017-12-31 17:58:32 1514761112.338177: $GPZDA,225833.00,31,12,2017,00,00*6E
2017-12-31 17:58:32 1514761112.342494: $GPGGA,225833,3946.9567,N,08404.9865,W,2,11,0.60,306.72,M,-33.324,M,,*7F
2017-12-31 17:58:32 1514761112.342592: $GPRMC,225833,A,3946.9567,N,08404.9865,W,0.0000,0.000,311217,,*3A
2017-12-31 17:58:32 1514761112.342655: $GPGSA,A,3,22,23,9,3,16,29,14,31,27,26,135,,1.7,0.6,1.3*06
2017-12-31 17:58:33 1514761113.680056: $GPGSV,3,1,11,22,26,217,43,23,49,307,42,09,16,312,40,03,35,238,45*75
2017-12-31 17:58:33 1514761113.680213: $GPGSV,3,2,11,16,75,192,42,29,08,034,38,14,19,130,33,31,32,070,44*75
2017-12-31 17:58:33 1514761113.680279: $GPGSV,3,3,11,27,18,156,24,26,67,054,49,135,22,240,43*7E
2017-12-31 17:58:33 1514761113.793893: $GPZDA,225834.00,31,12,2017,00,00*69
2017-12-31 17:58:33 1514761113.794079: $GPGGA,225834,3946.9567,N,08404.9865,W,2,11,0.60,306.72,M,-33.324,M,,*78
2017-12-31 17:58:33 1514761113.794144: $GPRMC,225834,A,3946.9567,N,08404.9865,W,0.0000,0.000,311217,,*3D
2017-12-31 17:58:33 1514761113.794205: $GPGSA,A,3,22,23,9,3,16,29,14,31,27,26,135,,1.7,0.6,1.3*06
2017-12-31 17:58:34 1514761114.344688: $GPZDA,225835.00,31,12,2017,00,00*68
2017-12-31 17:58:34 1514761114.344882: $GPGGA,225835,3946.9567,N,08404.9865,W,2,11,0.60,306.72,M,-33.324,M,,*79
2017-12-31 17:58:34 1514761114.344950: $GPRMC,225835,A,3946.9567,N,08404.9865,W,0.0000,0.000,311217,,*3C
2017-12-31 17:58:34 1514761114.345013: $GPGSA,A,3,22,23,9,3,16,29,14,31,27,26,135,,1.7,0.6,1.3*06
2017-12-31 17:58:35 1514761115.369865: $GPZDA,225836.00,31,12,2017,00,00*6B
2017-12-31 17:58:35 1514761115.370032: $GPGGA,225836,3946.9567,N,08404.9865,W,2,11,0.60,306.72,M,-33.324,M,,*7A
2017-12-31 17:58:35 1514761115.370098: $GPRMC,225836,A,3946.9567,N,08404.9865,W,0.0000,0.000,311217,,*3F
2017-12-31 17:58:35 1514761115.370158: $GPGSA,A,3,22,23,9,3,16,29,14,31,27,26,135,,1.7,0.6,1.3*06
2017-12-31 17:58:36 1514761116.700271: $GPGSV,3,1,11,22,26,217,44,23,49,307,42,09,16,312,40,03,35,238,44*73
2017-12-31 17:58:36 1514761116.700453: $GPGSV,3,2,11,16,75,192,43,29,08,034,31,14,19,130,32,31,32,070,44*7C
2017-12-31 17:58:36 1514761116.700519: $GPGSV,3,3,11,27,18,156,26,26,67,054,49,135,22,240,42*7D
2017-12-31 17:58:36 1514761116.813691: $GPZDA,225837.00,31,12,2017,00,00*6A
2017-12-31 17:58:36 1514761116.813860: $GPGGA,225837,3946.9567,N,08404.9865,W,2,11,0.60,306.72,M,-33.324,M,,*7B
2017-12-31 17:58:36 1514761116.813926: $GPRMC,225837,A,3946.9567,N,08404.9865,W,0.0000,0.000,311217,,*3E
2017-12-31 17:58:36 1514761116.813986: $GPGSA,A,3,22,23,9,3,16,29,14,31,27,26,135,,1.7,0.6,1.3*06
2017-12-31 17:58:37 1514761117.555295: $GPZDA,225838.00,31,12,2017,00,00*65
2017-12-31 17:58:37 1514761117.555462: $GPGGA,225838,3946.9564,N,08404.9866,W,2,11,0.60,307.48,M,-33.324,M,,*7C
2017-12-31 17:58:37 1514761117.555528: $GPRMC,225838,A,3946.9564,N,08404.9866,W,0.0000,0.000,311217,,*31
2017-12-31 17:58:37 1514761117.555589: $GPGSA,A,3,22,23,9,3,16,29,14,31,27,26,135,,1.7,0.6,1.3*06
2017-12-31 17:58:37 1514761117.555648: $GPGBS,225838,2.22,M,3.43,M,7.66,M*39
2017-12-31 17:58:38 1514761118.339901: $GPZDA,225839.00,31,12,2017,00,00*64
2017-12-31 17:58:38 1514761118.340076: $GPGGA,225839,3946.9564,N,08404.9866,W,2,11,0.60,307.48,M,-33.324,M,,*7D
2017-12-31 17:58:38 1514761118.340195: $GPRMC,225839,A,3946.9564,N,08404.9866,W,0.0000,0.000,311217,,*30
2017-12-31 17:58:38 1514761118.340258: $GPGSA,A,3,22,23,9,3,16,29,14,31,27,26,135,,1.7,0.6,1.3*06
2017-12-31 17:58:38 1514761118.340316: $GPGBS,225839,2.22,M,3.43,M,7.66,M*38
2017-12-31 17:58:39 1514761119.680619: $GPGSV,3,1,11,22,26,217,44,23,49,307,42,09,16,312,40,03,35,238,44*73
2017-12-31 17:58:39 1514761119.680772: $GPGSV,3,2,11,16,75,192,42,29,07,033,22,14,19,130,28,31,32,072,44*7E
2017-12-31 17:58:39 1514761119.680836: $GPGSV,3,3,11,27,18,156,32,26,67,054,49,135,22,240,43*79
2017-12-31 17:58:39 1514761119.794023: $GPZDA,225840.00,31,12,2017,00,00*6A
2017-12-31 17:58:39 1514761119.794183: $GPGGA,225840,3946.9564,N,08404.9866,W,2,11,0.60,307.48,M,-33.324,M,,*73
2017-12-31 17:58:39 1514761119.794249: $GPRMC,225840,A,3946.9564,N,08404.9866,W,0.0000,0.000,311217,,*3E
2017-12-31 17:58:39 1514761119.794310: $GPGSA,A,3,22,23,9,3,16,29,14,31,27,26,135,,1.7,0.6,1.3*06
2017-12-31 17:58:40 1514761120.420661: $GPZDA,225841.00,31,12,2017,00,00*6B
2017-12-31 17:58:40 1514761120.420852: $GPGGA,225841,3946.9564,N,08404.9866,W,2,11,0.60,307.48,M,-33.324,M,,*72
2017-12-31 17:58:40 1514761120.420919: $GPRMC,225841,A,3946.9564,N,08404.9866,W,0.0000,0.000,311217,,*3F
2017-12-31 17:58:40 1514761120.420980: $GPGSA,A,3,22,23,9,3,16,29,14,31,27,26,135,,1.7,0.6,1.3*06
2017-12-31 17:58:41 1514761121.345352: $GPZDA,225842.00,31,12,2017,00,00*68
2017-12-31 17:58:41 1514761121.345518: $GPGGA,225842,3946.9567,N,08404.9865,W,2,11,0.60,306.72,M,-33.324,M,,*79
2017-12-31 17:58:41 1514761121.345584: $GPRMC,225842,A,3946.9567,N,08404.9865,W,0.0000,0.000,311217,,*3C
2017-12-31 17:58:41 1514761121.345645: $GPGSA,A,3,22,23,9,3,16,29,14,31,27,26,135,,1.7,0.6,1.3*06
2017-12-31 17:58:42 1514761122.700975: $GPGSV,3,1,11,22,26,217,44,23,49,307,42,09,16,312,39,03,35,238,44*7D
2017-12-31 17:58:42 1514761122.701168: $GPGSV,3,2,11,16,75,192,43,29,07,033,29,14,19,130,29,31,32,072,44*75
2017-12-31 17:58:42 1514761122.701239: $GPGSV,3,3,11,27,18,156,30,26,67,054,49,135,22,240,44*7C
2017-12-31 17:58:42 1514761122.814424: $GPZDA,225843.00,31,12,2017,00,00*69
2017-12-31 17:58:42 1514761122.814598: $GPGGA,225843,3946.9567,N,08404.9865,W,2,11,0.60,306.72,M,-33.324,M,,*78
2017-12-31 17:58:42 1514761122.814667: $GPRMC,225843,A,3946.9567,N,08404.9865,W,0.0000,0.000,311217,,*3D
2017-12-31 17:58:42 1514761122.814730: $GPGSA,A,3,22,23,9,3,16,29,14,31,27,26,135,,1.7,0.6,1.3*06
