2017-11-15 18:27:02 1510788422.134527: {"class":"VERSION","release":"3.17","rev":"3.17","proto_major":3,"proto_minor":12}
2017-11-15 18:27:02 1510788422.134977: {"class":"DEVICES","devices":[{"class":"DEVICE","path":"/dev/ttyUSB0","driver":"SiRF","subtype":"9\u0006GSD4e_4.1.2-P1_RPATCH.05-F-GPS-4R-1510281 11/03/2015 307","activated":"2017-11-15T23:27:01.575Z","flags":1,"native":1,"bps":4800,"parity":"N","stopbits":1,"cycle":1.00}]}
2017-11-15 18:27:02 1510788422.135101: {"class":"WATCH","enable":true,"json":false,"nmea":true,"raw":0,"scaled":false,"timing":false,"split24":false,"pps":false}
2017-11-15 18:27:02 1510788422.361082: $GPZDA,232701.00,15,11,2017,00,00*63
2017-11-15 18:27:02 1510788422.361260: $GPGGA,232701,3946.9656,N,08404.9475,W,1,06,1.40,290.03,M,-33.324,M,,*75
2017-11-15 18:27:02 1510788422.361324: $GPRMC,232701,A,3946.9656,N,08404.9475,W,0.5951,58.684,151117,,*04
2017-11-15 18:27:02 1510788422.361380: $GPGSA,A,3,10,14,25,31,32,22,,,,,,,3.4,1.4,2.9*3B
2017-11-15 18:27:03 1510788423.695520: $GPGSV,3,1,10,10,25,156,12,14,70,030,23,25,37,060,19,01,20,277,05*74
2017-11-15 18:27:03 1510788423.695693: $GPGSV,3,2,10,31,76,265,20,32,57,073,17,26,22,178,00,22,37,304,19*79
2017-11-15 18:27:03 1510788423.695754: $GPGSV,3,3,10,03,18,316,00,12,09,034,00*7B
2017-11-15 18:27:03 1510788423.808847: $GPZDA,232702.00,15,11,2017,00,00*60
2017-11-15 18:27:03 1510788423.809016: $GPGGA,232702,3946.9656,N,08404.9475,W,1,06,1.40,290.03,M,-33.324,M,,*76
2017-11-15 18:27:03 1510788423.809080: $GPRMC,232702,A,3946.9656,N,08404.9475,W,0.3155,129.994,151117,,*34
2017-11-15 18:27:03 1510788423.809136: $GPGSA,A,3,10,14,25,31,32,22,,,,,,,3.4,1.4,2.9*3B
2017-11-15 18:27:04 1510788424.358493: $GPZDA,232703.00,15,11,2017,00,00*61
2017-11-15 18:27:04 1510788424.358656: $GPGGA,232703,3946.9653,N,08404.9469,W,1,06,1.40,290.87,M,-33.324,M,,*73
2017-11-15 18:27:04 1510788424.358718: $GPRMC,232703,A,3946.9653,N,08404.9469,W,0.7576,81.915,151117,,*06
2017-11-15 18:27:04 1510788424.358774: $GPGSA,A,3,10,14,25,31,32,22,,,,,,,3.4,1.4,2.9*3B
2017-11-15 18:27:05 1510788425.359507: $GPZDA,232704.00,15,11,2017,00,00*66
2017-11-15 18:27:05 1510788425.359714: $GPGGA,232704,3946.9653,N,08404.9469,W,1,06,1.40,290.87,M,-33.324,M,,*74
2017-11-15 18:27:05 1510788425.359776: $GPRMC,232704,A,3946.9653,N,08404.9469,W,0.8054,68.645,151117,,*06
2017-11-15 18:27:05 1510788425.359834: $GPGSA,A,3,10,14,25,31,32,22,,,,,,,3.4,1.4,2.9*3B
2017-11-15 18:27:06 1510788426.666015: $GPGSV,3,1,10,10,25,156,13,14,70,030,19,25,37,060,19,01,20,277,05*7C
2017-11-15 18:27:06 1510788426.666200: $GPGSV,3,2,10,31,76,265,20,32,57,073,17,26,22,178,00,22,37,304,19*79
2017-11-15 18:27:06 1510788426.666259: $GPGSV,3,3,10,03,18,316,00,12,09,034,00*7B
2017-11-15 18:27:06 1510788426.779212: $GPZDA,232705.00,15,11,2017,00,00*67
2017-11-15 18:27:06 1510788426.779380: $GPGGA,232705,3946.9653,N,08404.9469,W,1,06,1.40,290.87,M,-33.324,M,,*75
2017-11-15 18:27:06 1510788426.779442: $GPRMC,232705,A,3946.9653,N,08404.9469,W,0.5951,58.684,151117,,*08
2017-11-15 18:27:06 1510788426.779497: $GPGSA,A,3,10,14,25,31,32,22,,,,,,,3.4,1.4,2.9*3B
2017-11-15 18:27:07 1510788427.328854: $GPZDA,232706.00,15,11,2017,00,00*64
2017-11-15 18:27:07 1510788427.329025: $GPGGA,232706,3946.9653,N,08404.9469,W,1,06,1.40,290.87,M,-33.324,M,,*76
2017-11-15 18:27:07 1510788427.329088: $GPRMC,232706,A,3946.9653,N,08404.9469,W,0.0000,0.000,151117,,*34
2017-11-15 18:27:07 1510788427.329143: $GPGSA,A,3,10,14,25,31,32,22,,,,,,,3.4,1.4,2.9*3B
2017-11-15 18:27:08 1510788428.329772: $GPZDA,232707.00,15,11,2017,00,00*65
2017-11-15 18:27:08 1510788428.329983: $GPGGA,232707,3946.9653,N,08404.9469,W,1,06,1.40,290.87,M,-33.324,M,,*77
2017-11-15 18:27:08 1510788428.330045: $GPRMC,232707,A,3946.9653,N,08404.9469,W,0.2422,273.794,151117,,*3F
2017-11-15 18:27:08 1510788428.330101: $GPGSA,A,3,10,14,25,31,32,22,,,,,,,3.4,1.4,2.9*3B
2017-11-15 18:27:09 1510788429.664329: $GPGSV,3,1,10,10,25,156,13,14,70,030,23,25,37,060,19,01,20,277,04*74
2017-11-15 18:27:09 1510788429.664518: $GPGSV,3,2,10,31,76,265,21,32,57,073,17,26,22,178,00,22,37,304,19*78
2017-11-15 18:27:09 1510788429.664633: $GPGSV,3,3,10,03,18,316,00,12,09,034,00*7B
2017-11-15 18:27:09 1510788429.777670: $GPZDA,232708.00,15,11,2017,00,00*6A
2017-11-15 18:27:09 1510788429.777858: $GPGGA,232708,3946.9648,N,08404.9469,W,1,06,1.40,290.23,M,-33.324,M,,*7C
2017-11-15 18:27:09 1510788429.777948: $GPRMC,232708,A,3946.9648,N,08404.9469,W,0.4844,273.794,151117,,*30
2017-11-15 18:27:09 1510788429.778005: $GPGSA,A,3,10,14,25,31,32,22,,,,,,,3.4,1.4,2.9*3B
2017-11-15 18:27:10 1510788430.360149: $GPZDA,232709.00,15,11,2017,00,00*6B
2017-11-15 18:27:10 1510788430.360309: $GPGGA,232709,3946.9648,N,08404.9469,W,1,06,1.40,290.23,M,-33.324,M,,*7D
2017-11-15 18:27:10 1510788430.360370: $GPRMC,232709,A,3946.9648,N,08404.9469,W,0.0000,0.000,151117,,*31
2017-11-15 18:27:10 1510788430.360425: $GPGSA,A,3,10,14,25,31,32,22,,,,,,,3.4,1.4,2.9*3B
2017-11-15 18:27:11 1510788431.328889: $GPZDA,232710.00,15,11,2017,00,00*63
2017-11-15 18:27:11 1510788431.329058: $GPGGA,232710,3946.9645,N,08404.9470,W,1,06,1.40,291.00,M,-33.324,M,,*70
2017-11-15 18:27:11 1510788431.329118: $GPRMC,232710,A,3946.9645,N,08404.9470,W,0.4844,93.794,151117,,*00
2017-11-15 18:27:11 1510788431.329174: $GPGSA,A,3,10,14,25,31,32,22,,,,,,,3.4,1.4,2.9*3B
