2017-12-31 18:40:56 1514763656.642334: {"class":"VERSION","release":"3.16","rev":"3.16-4","proto_major":3,"proto_minor":11}
2017-12-31 18:40:56 1514763656.642675: {"class":"DEVICES","devices":[{"class":"DEVICE","path":"/dev/ttyUSB0","driver":"SiRF","activated":"2017-12-31T23:40:56.528Z","flags":1,"native":1,"bps":4800,"parity":"N","stopbits":1,"cycle":1.00}]}
2017-12-31 18:40:56 1514763656.642781: {"class":"WATCH","enable":true,"json":false,"nmea":true,"raw":0,"scaled":false,"timing":false,"split24":false,"pps":false}
2017-12-31 18:40:57 1514763657.687779: $GPGSV,3,1,12,22,11,205,19,23,66,289,41,09,33,310,41,03,21,223,38*76
2017-12-31 18:40:57 1514763657.687961: $GPGSV,3,2,12,16,81,039,42,08,13,177,29,14,02,139,20,31,19,085,37*74
2017-12-31 18:40:57 1514763657.688026: $GPGSV,3,3,12,27,36,145,41,07,08,282,42,26,48,046,46,135,22,240,44*47
2017-12-31 18:40:57 1514763657.801103: $GPZDA,234058.00,31,12,2017,00,00*6B
2017-12-31 18:40:57 1514763657.801221: $GPGGA,234058,3946.9581,N,08404.9836,W,2,12,0.80,306.79,M,-33.324,M,,*72
2017-12-31 18:40:57 1514763657.801286: $GPRMC,234058,A,3946.9581,N,08404.9836,W,0.0000,0.000,311217,,*31
2017-12-31 18:40:57 1514763657.801347: $GPGSA,A,3,22,23,9,3,16,8,14,31,27,7,26,135,1.7,0.8,1.3*0C
2017-12-31 18:40:58 1514763658.388332: $GPZDA,234059.00,31,12,2017,00,00*6A
2017-12-31 18:40:58 1514763658.388508: $GPGGA,234059,3946.9581,N,08404.9836,W,2,12,0.80,306.79,M,-33.324,M,,*73
2017-12-31 18:40:58 1514763658.388579: $GPRMC,234059,A,3946.9581,N,08404.9836,W,0.0000,0.000,311217,,*30
2017-12-31 18:40:58 1514763658.388642: $GPGSA,A,3,22,23,9,3,16,8,14,31,27,7,26,135,1.7,0.8,1.3*0C
2017-12-31 18:40:59 1514763659.352882: $GPZDA,234100.00,31,12,2017,00,00*67
2017-12-31 18:40:59 1514763659.353042: $GPGGA,234100,3946.9581,N,08404.9836,W,2,12,0.80,306.79,M,-33.324,M,,*7E
2017-12-31 18:40:59 1514763659.353112: $GPRMC,234100,A,3946.9581,N,08404.9836,W,0.0000,0.000,311217,,*3D
2017-12-31 18:40:59 1514763659.353172: $GPGSA,A,3,22,23,9,3,16,8,14,31,27,7,26,135,1.7,0.8,1.3*0C
2017-12-31 18:41:00 1514763660.715614: $GPGSV,3,1,12,22,11,205,19,23,66,289,40,09,33,310,42,03,21,223,38*74
2017-12-31 18:41:00 1514763660.715796: $GPGSV,3,2,12,16,81,039,42,08,13,177,29,14,02,139,20,31,19,085,37*74
2017-12-31 18:41:00 1514763660.715862: $GPGSV,3,3,12,27,36,145,42,07,08,282,42,26,48,046,46,135,22,240,44*44
2017-12-31 18:41:00 1514763660.829246: $GPZDA,234101.00,31,12,2017,00,00*66
2017-12-31 18:41:00 1514763660.829363: $GPGGA,234101,3946.9581,N,08404.9836,W,2,12,0.80,306.79,M,-33.324,M,,*7F
2017-12-31 18:41:00 1514763660.829428: $GPRMC,234101,A,3946.9581,N,08404.9836,W,0.0000,0.000,311217,,*3C
2017-12-31 18:41:00 1514763660.829490: $GPGSA,A,3,22,23,9,3,16,8,14,31,27,7,26,135,1.7,0.8,1.3*0C
2017-12-31 18:41:01 1514763661.353869: $GPZDA,234102.00,31,12,2017,00,00*65
2017-12-31 18:41:01 1514763661.354028: $GPGGA,234102,3946.9581,N,08404.9836,W,2,12,0.80,306.79,M,-33.324,M,,*7C
2017-12-31 18:41:01 1514763661.354093: $GPRMC,234102,A,3946.9581,N,08404.9836,W,0.0000,0.000,311217,,*3F
2017-12-31 18:41:01 1514763661.354153: $GPGSA,A,3,22,23,9,3,16,8,14,31,27,7,26,135,1.7,0.8,1.3*0C
2017-12-31 18:41:02 1514763662.346001: $GPZDA,234103.00,31,12,2017,00,00*64
2017-12-31 18:41:02 1514763662.346150: $GPGGA,234103,3946.9581,N,08404.9836,W,2,12,0.80,306.79,M,-33.324,M,,*7D
2017-12-31 18:41:02 1514763662.346216: $GPRMC,234103,A,3946.9581,N,08404.9836,W,0.0000,0.000,311217,,*3E
2017-12-31 18:41:02 1514763662.346276: $GPGSA,A,3,22,23,9,3,16,8,14,31,27,7,26,135,1.7,0.8,1.3*0C
2017-12-31 18:41:03 1514763663.723991: $GPGSV,3,1,12,22,11,205,18,23,66,289,42,09,33,310,41,03,21,223,38*74
2017-12-31 18:41:03 1514763663.724170: $GPGSV,3,2,12,16,81,039,42,08,13,177,29,14,02,139,20,31,19,085,38*7B
2017-12-31 18:41:03 1514763663.724235: $GPGSV,3,3,12,27,36,145,42,07,08,282,42,26,48,046,46,135,22,240,44*44
2017-12-31 18:41:03 1514763663.837411: $GPZDA,234104.00,31,12,2017,00,00*63
2017-12-31 18:41:03 1514763663.837555: $GPGGA,234104,3946.9581,N,08404.9836,W,2,12,0.80,306.79,M,-33.324,M,,*7A
2017-12-31 18:41:03 1514763663.837620: $GPRMC,234104,A,3946.9581,N,08404.9836,W,0.0000,0.000,311217,,*39
2017-12-31 18:41:03 1514763663.837740: $GPGSA,A,3,22,23,9,3,16,8,14,31,27,7,26,135,1.7,0.8,1.3*0C
2017-12-31 18:41:04 1514763664.388595: $GPZDA,234105.00,31,12,2017,00,00*62
2017-12-31 18:41:04 1514763664.388772: $GPGGA,234105,3946.9581,N,08404.9836,W,2,12,0.80,306.79,M,-33.324,M,,*7B
2017-12-31 18:41:04 1514763664.388838: $GPRMC,234105,A,3946.9581,N,08404.9836,W,0.0000,0.000,311217,,*38
2017-12-31 18:41:04 1514763664.388901: $GPGSA,A,3,22,23,9,3,16,8,14,31,27,7,26,135,1.7,0.8,1.3*0C
2017-12-31 18:41:05 1514763665.352326: $GPZDA,234106.00,31,12,2017,00,00*61
2017-12-31 18:41:05 1514763665.352507: $GPGGA,234106,3946.9581,N,08404.9836,W,2,12,0.80,306.79,M,-33.324,M,,*78
2017-12-31 18:41:05 1514763665.352579: $GPRMC,234106,A,3946.9581,N,08404.9836,W,0.0000,0.000,311217,,*3B
2017-12-31 18:41:05 1514763665.352645: $GPGSA,A,3,22,23,9,3,16,8,14,31,27,7,26,135,1.7,0.8,1.3*0C
