2017-11-16 17:40:10 1510872010.443715: {"class":"VERSION","release":"3.17","rev":"3.17","proto_major":3,"proto_minor":12}
2017-11-16 17:40:10 1510872010.444198: {"class":"DEVICES","devices":[{"class":"DEVICE","path":"/dev/ttyUSB0","driver":"SiRF","subtype":"9\u0006GSD4e_4.1.2-P1_RPATCH.05-F-GPS-4R-1510281 11/03/2015 307","activated":"2017-11-16T22:40:10.433Z","flags":1,"native":1,"bps":4800,"parity":"N","stopbits":1,"cycle":1.00}]}
2017-11-16 17:40:10 1510872010.444487: {"class":"WATCH","enable":true,"json":false,"nmea":true,"raw":0,"scaled":false,"timing":false,"split24":false,"pps":false}
2017-11-16 17:40:11 1510872011.416940: $GPZDA,224010.00,16,11,2017,00,00*60
2017-11-16 17:40:11 1510872011.417120: $GPGGA,224010,3946.9576,N,08404.9841,W,2,11,0.80,303.26,M,-33.324,M,,*7B
2017-11-16 17:40:11 1510872011.417186: $GPRMC,224010,A,3946.9576,N,08404.9841,W,0.0000,0.000,161117,,*32
2017-11-16 17:40:11 1510872011.417241: $GPGSA,A,3,1,10,22,12,14,18,11,25,31,32,138,,1.6,0.8,1.3*3E
2017-11-16 17:40:12 1510872012.731464: $GPGSV,3,1,12,01,22,297,39,10,44,150,46,22,22,312,41,12,20,046,49*73
2017-11-16 17:40:12 1510872012.731633: $GPGSV,3,2,12,14,68,337,47,18,15,145,39,26,05,183,00,11,07,279,39*79
2017-11-16 17:40:12 1510872012.731695: $GPGSV,3,3,12,25,40,085,50,31,59,228,47,32,67,037,50,138,38,213,45*45
2017-11-16 17:40:12 1510872012.844763: $GPZDA,224011.00,16,11,2017,00,00*61
2017-11-16 17:40:12 1510872012.844923: $GPGGA,224011,3946.9576,N,08404.9841,W,2,11,0.80,303.26,M,-33.324,M,,*7A
2017-11-16 17:40:12 1510872012.845001: $GPRMC,224011,A,3946.9576,N,08404.9841,W,0.0000,0.000,161117,,*33
2017-11-16 17:40:12 1510872012.845133: $GPGSA,A,3,1,10,22,12,14,18,11,25,31,32,138,,1.6,0.8,1.3*3E
2017-11-16 17:40:13 1510872013.419402: $GPZDA,224012.00,16,11,2017,00,00*62
2017-11-16 17:40:13 1510872013.419569: $GPGGA,224012,3946.9576,N,08404.9841,W,2,11,0.80,303.26,M,-33.324,M,,*79
2017-11-16 17:40:13 1510872013.419633: $GPRMC,224012,A,3946.9576,N,08404.9841,W,0.0000,0.000,161117,,*30
2017-11-16 17:40:13 1510872013.419688: $GPGSA,A,3,1,10,22,12,14,18,11,25,31,32,138,,1.6,0.8,1.3*3E
2017-11-16 17:40:14 1510872014.416502: $GPZDA,224013.00,16,11,2017,00,00*63
2017-11-16 17:40:14 1510872014.416729: $GPGGA,224013,3946.9576,N,08404.9841,W,2,11,0.80,303.26,M,-33.324,M,,*78
2017-11-16 17:40:14 1510872014.416792: $GPRMC,224013,A,3946.9576,N,08404.9841,W,0.0000,0.000,161117,,*31
2017-11-16 17:40:14 1510872014.416849: $GPGSA,A,3,1,10,22,12,14,18,11,25,31,32,138,,1.6,0.8,1.3*3E
2017-11-16 17:40:15 1510872015.724786: $GPGSV,3,1,12,01,22,297,39,10,44,150,46,22,22,312,41,12,20,046,49*73
2017-11-16 17:40:15 1510872015.724932: $GPGSV,3,2,12,14,68,337,47,18,15,145,39,26,05,183,00,11,07,279,39*79
2017-11-16 17:40:15 1510872015.724996: $GPGSV,3,3,12,25,40,085,50,31,59,228,47,32,67,037,50,138,38,213,44*44
2017-11-16 17:40:15 1510872015.838104: $GPZDA,224014.00,16,11,2017,00,00*64
2017-11-16 17:40:15 1510872015.838278: $GPGGA,224014,3946.9576,N,08404.9841,W,2,11,0.80,303.26,M,-33.324,M,,*7F
2017-11-16 17:40:15 1510872015.838341: $GPRMC,224014,A,3946.9576,N,08404.9841,W,0.0000,0.000,161117,,*36
2017-11-16 17:40:15 1510872015.838397: $GPGSA,A,3,1,10,22,12,14,18,11,25,31,32,138,,1.6,0.8,1.3*3E
2017-11-16 17:40:16 1510872016.463415: $GPZDA,224015.00,16,11,2017,00,00*65
2017-11-16 17:40:16 1510872016.463599: $GPGGA,224015,3946.9576,N,08404.9841,W,2,11,0.80,303.26,M,-33.324,M,,*7E
2017-11-16 17:40:16 1510872016.463661: $GPRMC,224015,A,3946.9576,N,08404.9841,W,0.0000,0.000,161117,,*37
2017-11-16 17:40:16 1510872016.463719: $GPGSA,A,3,1,10,22,12,14,18,11,25,31,32,138,,1.6,0.8,1.3*3E
2017-11-16 17:40:17 1510872017.420569: $GPZDA,224016.00,16,11,2017,00,00*66
2017-11-16 17:40:17 1510872017.420731: $GPGGA,224016,3946.9576,N,08404.9841,W,2,11,0.80,303.26,M,-33.324,M,,*7D
2017-11-16 17:40:17 1510872017.420794: $GPRMC,224016,A,3946.9576,N,08404.9841,W,0.0000,0.000,161117,,*34
2017-11-16 17:40:17 1510872017.420850: $GPGSA,A,3,1,10,22,12,14,18,11,25,31,32,138,,1.6,0.8,1.3*3E
2017-11-16 17:40:18 1510872018.732617: $GPGSV,3,1,12,01,22,297,39,10,44,150,46,22,22,312,41,12,20,046,49*73
2017-11-16 17:40:18 1510872018.732837: $GPGSV,3,2,12,14,68,337,47,18,15,145,39,03,02,316,24,11,07,279,39*71
2017-11-16 17:40:18 1510872018.732900: $GPGSV,3,3,12,25,40,085,49,31,59,228,47,32,67,037,50,138,38,213,44*4C
2017-11-16 17:40:18 1510872018.846003: $GPZDA,224017.00,16,11,2017,00,00*67
2017-11-16 17:40:18 1510872018.846160: $GPGGA,224017,3946.9576,N,08404.9841,W,2,11,0.80,303.26,M,-33.324,M,,*7C
2017-11-16 17:40:18 1510872018.846220: $GPRMC,224017,A,3946.9576,N,08404.9841,W,0.0000,0.000,161117,,*35
2017-11-16 17:40:18 1510872018.846276: $GPGSA,A,3,1,10,22,12,14,18,11,25,31,32,138,,1.6,0.8,1.3*3E
2017-11-16 17:40:19 1510872019.404636: $GPZDA,224018.00,16,11,2017,00,00*68
2017-11-16 17:40:19 1510872019.404797: $GPGGA,224018,3946.9576,N,08404.9841,W,2,11,0.80,303.26,M,-33.324,M,,*73
2017-11-16 17:40:19 1510872019.404858: $GPRMC,224018,A,3946.9576,N,08404.9841,W,0.0000,0.000,161117,,*3A
2017-11-16 17:40:19 1510872019.404917: $GPGSA,A,3,1,10,22,12,14,18,11,25,31,32,138,,1.6,0.8,1.3*3E
2017-11-16 17:40:20 1510872020.410140: $GPZDA,224019.00,16,11,2017,00,00*69
2017-11-16 17:40:20 1510872020.410293: $GPGGA,224019,3946.9576,N,08404.9841,W,2,11,0.80,303.26,M,-33.324,M,,*72
2017-11-16 17:40:20 1510872020.410355: $GPRMC,224019,A,3946.9576,N,08404.9841,W,0.0000,0.000,161117,,*3B
2017-11-16 17:40:20 1510872020.410413: $GPGSA,A,3,1,10,22,12,14,18,11,25,31,32,138,,1.6,0.8,1.3*3E
