2017-12-01 14:44:39 1512157479.546971: {"class":"VERSION","release":"3.16","rev":"3.16-4","proto_major":3,"proto_minor":11}
2017-12-01 14:44:39 1512157479.547412: {"class":"DEVICES","devices":[{"class":"DEVICE","path":"/dev/ttyUSB0","driver":"SiRF","subtype":"9\u0006GSD4e_4.1.2-P1_RPATCH.05-F-GPS-4R-1510281 11/03/2015 307","activated":"2017-12-01T19:44:39.492Z","flags":1,"native":1,"bps":4800,"parity":"N","stopbits":1,"cycle":1.00}]}
2017-12-01 14:44:39 1512157479.547528: {"class":"WATCH","enable":true,"json":false,"nmea":true,"raw":0,"scaled":false,"timing":false,"split24":false,"pps":false}
2017-12-01 14:44:40 1512157480.722504: $GPGSV,3,1,12,10,78,351,47,14,36,261,43,18,63,111,47,21,19,177,45*75
2017-12-01 14:44:40 1512157480.722699: $GPGSV,3,2,12,24,37,051,46,25,10,136,29,32,53,277,44,15,04,072,16*71
2017-12-01 14:44:40 1512157480.722770: $GPGSV,3,3,12,12,15,099,38,11,02,324,32,31,08,204,27,138,38,213,47*4B
2017-12-01 14:44:40 1512157480.835962: $GPZDA,194441.00,01,12,2017,00,00*6D
2017-12-01 14:44:40 1512157480.836130: $GPGGA,194441,3946.9587,N,08404.9863,W,2,12,1.20,292.86,M,-33.324,M,,*76
2017-12-01 14:44:40 1512157480.836221: $GPRMC,194441,A,3946.9587,N,08404.9863,W,0.0000,0.000,011217,,*31
2017-12-01 14:44:40 1512157480.836287: $GPGSA,A,3,10,14,18,21,24,25,32,15,12,11,31,138,2.0,1.2,1.5*06
2017-12-01 14:44:41 1512157481.461596: $GPZDA,194442.00,01,12,2017,00,00*6E
2017-12-01 14:44:41 1512157481.461769: $GPGGA,194442,3946.9587,N,08404.9863,W,2,12,1.20,292.86,M,-33.324,M,,*75
2017-12-01 14:44:41 1512157481.461838: $GPRMC,194442,A,3946.9587,N,08404.9863,W,0.0000,0.000,011217,,*32
2017-12-01 14:44:41 1512157481.461918: $GPGSA,A,3,10,14,18,21,24,25,32,15,12,11,31,138,2.0,1.2,1.5*06
2017-12-01 14:44:42 1512157482.348683: $GPZDA,194443.00,01,12,2017,00,00*6F
2017-12-01 14:44:42 1512157482.348858: $GPGGA,194443,3946.9587,N,08404.9863,W,2,12,1.20,292.86,M,-33.324,M,,*74
2017-12-01 14:44:42 1512157482.348928: $GPRMC,194443,A,3946.9587,N,08404.9863,W,0.0000,0.000,011217,,*33
2017-12-01 14:44:42 1512157482.348992: $GPGSA,A,3,10,14,18,21,24,25,32,15,12,11,31,138,2.0,1.2,1.5*06
2017-12-01 14:44:43 1512157483.724191: $GPGSV,3,1,12,10,78,351,47,14,36,261,43,18,63,111,46,21,19,177,45*74
2017-12-01 14:44:43 1512157483.724366: $GPGSV,3,2,12,24,37,051,46,25,10,136,29,32,53,277,44,15,04,072,16*71
2017-12-01 14:44:43 1512157483.724436: $GPGSV,3,3,12,12,15,099,38,11,02,324,32,31,08,204,26,138,38,213,47*4A
2017-12-01 14:44:43 1512157483.837542: $GPZDA,194444.00,01,12,2017,00,00*68
2017-12-01 14:44:43 1512157483.837713: $GPGGA,194444,3946.9587,N,08404.9863,W,2,12,1.20,292.86,M,-33.324,M,,*73
2017-12-01 14:44:43 1512157483.837784: $GPRMC,194444,A,3946.9587,N,08404.9863,W,0.0000,0.000,011217,,*34
2017-12-01 14:44:43 1512157483.837848: $GPGSA,A,3,10,14,18,21,24,25,32,15,12,11,31,138,2.0,1.2,1.5*06
2017-12-01 14:44:44 1512157484.394639: $GPZDA,194445.00,01,12,2017,00,00*69
2017-12-01 14:44:44 1512157484.394820: $GPGGA,194445,3946.9587,N,08404.9863,W,2,12,1.20,292.86,M,-33.324,M,,*72
2017-12-01 14:44:44 1512157484.394891: $GPRMC,194445,A,3946.9587,N,08404.9863,W,0.0000,0.000,011217,,*35
2017-12-01 14:44:44 1512157484.394956: $GPGSA,A,3,10,14,18,21,24,25,32,15,12,11,31,138,2.0,1.2,1.5*06
2017-12-01 14:44:45 1512157485.349603: $GPZDA,194446.00,01,12,2017,00,00*6A
2017-12-01 14:44:45 1512157485.349781: $GPGGA,194446,3946.9587,N,08404.9863,W,2,12,1.20,292.86,M,-33.324,M,,*71
2017-12-01 14:44:45 1512157485.349850: $GPRMC,194446,A,3946.9587,N,08404.9863,W,0.0000,0.000,011217,,*36
2017-12-01 14:44:45 1512157485.349914: $GPGSA,A,3,10,14,18,21,24,25,32,15,12,11,31,138,2.0,1.2,1.5*06
2017-12-01 14:44:46 1512157486.727015: $GPGSV,3,1,12,10,78,351,47,14,36,261,43,18,63,111,46,21,19,177,45*74
2017-12-01 14:44:46 1512157486.727227: $GPGSV,3,2,12,24,37,051,46,25,10,136,30,32,53,277,44,15,04,072,16*79
2017-12-01 14:44:46 1512157486.727314: $GPGSV,3,3,12,12,15,099,38,11,02,324,32,31,08,204,26,138,38,213,47*4A
2017-12-01 14:44:46 1512157486.840385: $GPZDA,194447.00,01,12,2017,00,00*6B
2017-12-01 14:44:46 1512157486.840536: $GPGGA,194447,3946.9587,N,08404.9863,W,2,12,1.20,292.86,M,-33.324,M,,*70
2017-12-01 14:44:46 1512157486.840658: $GPRMC,194447,A,3946.9587,N,08404.9863,W,0.0000,0.000,011217,,*37
2017-12-01 14:44:46 1512157486.840720: $GPGSA,A,3,10,14,18,21,24,25,32,15,12,11,31,138,2.0,1.2,1.5*06
2017-12-01 14:44:47 1512157487.351595: $GPZDA,194448.00,01,12,2017,00,00*64
2017-12-01 14:44:47 1512157487.351752: $GPGGA,194448,3946.9587,N,08404.9863,W,2,12,1.20,292.86,M,-33.324,M,,*7F
2017-12-01 14:44:47 1512157487.351819: $GPRMC,194448,A,3946.9587,N,08404.9863,W,0.0000,0.000,011217,,*38
2017-12-01 14:44:47 1512157487.351880: $GPGSA,A,3,10,14,18,21,24,25,32,15,12,11,31,138,2.0,1.2,1.5*06
2017-12-01 14:44:48 1512157488.391129: $GPZDA,194449.00,01,12,2017,00,00*65
2017-12-01 14:44:48 1512157488.391430: $GPGGA,194449,3946.9587,N,08404.9863,W,2,12,1.20,292.86,M,-33.324,M,,*7E
2017-12-01 14:44:48 1512157488.391509: $GPRMC,194449,A,3946.9587,N,08404.9863,W,0.0000,0.000,011217,,*39
2017-12-01 14:44:48 1512157488.391571: $GPGSA,A,3,10,14,18,21,24,25,32,15,12,11,31,138,2.0,1.2,1.5*06
2017-12-01 14:44:49 1512157489.686619: $GPGSV,3,1,12,10,78,351,47,14,36,261,43,18,63,111,47,21,19,177,44*74
2017-12-01 14:44:49 1512157489.686794: $GPGSV,3,2,12,24,37,051,46,25,10,136,30,32,53,277,44,15,04,072,16*79
2017-12-01 14:44:49 1512157489.686860: $GPGSV,3,3,12,12,15,099,38,11,02,324,32,31,08,204,27,138,38,213,47*4B
2017-12-01 14:44:49 1512157489.800267: $GPZDA,194450.00,01,12,2017,00,00*6D
2017-12-01 14:44:49 1512157489.800452: $GPGGA,194450,3946.9587,N,08404.9863,W,2,12,1.20,292.86,M,-33.324,M,,*76
2017-12-01 14:44:49 1512157489.800517: $GPRMC,194450,A,3946.9587,N,08404.9863,W,0.0000,0.000,011217,,*31
2017-12-01 14:44:49 1512157489.800578: $GPGSA,A,3,10,14,18,21,24,25,32,15,12,11,31,138,2.0,1.2,1.5*06
2017-12-01 14:44:50 1512157490.395900: $GPZDA,194451.00,01,12,2017,00,00*6C
2017-12-01 14:44:50 1512157490.396099: $GPGGA,194451,3946.9587,N,08404.9863,W,2,12,1.20,292.86,M,-33.324,M,,*77
2017-12-01 14:44:50 1512157490.396186: $GPRMC,194451,A,3946.9587,N,08404.9863,W,0.0000,0.000,011217,,*30
2017-12-01 14:44:50 1512157490.396248: $GPGSA,A,3,10,14,18,21,24,25,32,15,12,11,31,138,2.0,1.2,1.5*06
2017-12-01 14:44:51 1512157491.356313: $GPZDA,194452.00,01,12,2017,00,00*6F
2017-12-01 14:44:51 1512157491.356519: $GPGGA,194452,3946.9587,N,08404.9863,W,2,12,1.20,292.86,M,-33.324,M,,*74
2017-12-01 14:44:51 1512157491.356592: $GPRMC,194452,A,3946.9587,N,08404.9863,W,0.0000,0.000,011217,,*33
2017-12-01 14:44:51 1512157491.356656: $GPGSA,A,3,10,14,18,21,24,25,32,15,12,11,31,138,2.0,1.2,1.5*06
2017-12-01 14:44:52 1512157492.732066: $GPGSV,3,1,12,10,78,351,47,14,36,261,43,18,63,111,47,21,19,177,45*75
2017-12-01 14:44:52 1512157492.732463: $GPGSV,3,2,12,24,37,051,45,25,10,136,30,32,53,277,44,15,04,072,15*79
2017-12-01 14:44:52 1512157492.732613: $GPGSV,3,3,12,12,15,099,38,11,02,324,31,31,08,204,28,138,38,213,46*46
2017-12-01 14:44:52 1512157492.845628: $GPZDA,194453.00,01,12,2017,00,00*6E
2017-12-01 14:44:52 1512157492.845817: $GPGGA,194453,3946.9592,N,08404.9863,W,2,12,1.20,293.50,M,-33.324,M,,*7B
2017-12-01 14:44:52 1512157492.845888: $GPRMC,194453,A,3946.9592,N,08404.9863,W,0.0000,0.000,011217,,*36
2017-12-01 14:44:52 1512157492.845952: $GPGSA,A,3,10,14,18,21,24,25,32,15,12,11,31,138,2.0,1.2,1.5*06
2017-12-01 14:44:53 1512157493.394029: $GPZDA,194454.00,01,12,2017,00,00*69
2017-12-01 14:44:53 1512157493.394228: $GPGGA,194454,3946.9592,N,08404.9863,W,2,12,1.20,293.50,M,-33.324,M,,*7C
2017-12-01 14:44:53 1512157493.394316: $GPRMC,194454,A,3946.9592,N,08404.9863,W,0.0000,0.000,011217,,*31
2017-12-01 14:44:53 1512157493.394381: $GPGSA,A,3,10,14,18,21,24,25,32,15,12,11,31,138,2.0,1.2,1.5*06
2017-12-01 14:44:54 1512157494.394788: $GPZDA,194455.00,01,12,2017,00,00*68
2017-12-01 14:44:54 1512157494.394963: $GPGGA,194455,3946.9588,N,08404.9863,W,2,12,1.20,294.27,M,-33.324,M,,*71
2017-12-01 14:44:54 1512157494.395032: $GPRMC,194455,A,3946.9588,N,08404.9863,W,0.0000,0.000,011217,,*3B
2017-12-01 14:44:54 1512157494.395096: $GPGSA,A,3,10,14,18,21,24,25,32,15,12,11,31,138,2.0,1.2,1.5*06
2017-12-01 14:44:56 1512157496.241854: $GPGSV,3,1,12,10,78,351,48,14,36,262,42,18,62,111,47,21,19,177,45*79
2017-12-01 14:44:56 1512157496.242030: $GPGSV,3,2,12,24,37,051,46,25,10,135,31,32,53,277,44,15,04,072,12*7F
2017-12-01 14:44:56 1512157496.242100: $GPGSV,3,3,12,12,15,099,38,11,02,324,30,31,08,204,29,138,38,213,47*47
2017-12-01 14:44:56 1512157496.355731: $GPZDA,194456.00,01,12,2017,00,00*6B
2017-12-01 14:44:56 1512157496.360798: $GPGGA,194456,3946.9588,N,08404.9863,W,2,12,1.20,294.27,M,-33.324,M,,*72
2017-12-01 14:44:56 1512157496.360987: $GPRMC,194456,A,3946.9588,N,08404.9863,W,0.0000,0.000,011217,,*38
2017-12-01 14:44:56 1512157496.361058: $GPGSA,A,3,10,14,18,21,24,25,32,15,12,11,31,138,2.0,1.2,1.5*06
2017-12-01 14:44:56 1512157496.980536: $GPZDA,194457.00,01,12,2017,00,00*6A
2017-12-01 14:44:56 1512157496.980709: $GPGGA,194457,3946.9588,N,08404.9863,W,2,12,1.20,294.27,M,-33.324,M,,*73
2017-12-01 14:44:56 1512157496.980778: $GPRMC,194457,A,3946.9588,N,08404.9863,W,0.0000,0.000,011217,,*39
2017-12-01 14:44:56 1512157496.980841: $GPGSA,A,3,10,14,18,21,24,25,32,15,12,11,31,138,2.0,1.2,1.5*06
2017-12-01 14:44:57 1512157497.432951: $GPZDA,194458.00,01,12,2017,00,00*65
2017-12-01 14:44:57 1512157497.433122: $GPGGA,194458,3946.9588,N,08404.9863,W,2,12,1.20,294.27,M,-33.324,M,,*7C
2017-12-01 14:44:57 1512157497.433191: $GPRMC,194458,A,3946.9588,N,08404.9863,W,0.0000,0.000,011217,,*36
2017-12-01 14:44:57 1512157497.433254: $GPGSA,A,3,10,14,18,21,24,25,32,15,12,11,31,138,2.0,1.2,1.5*06
2017-12-01 14:44:58 1512157498.693567: $GPGSV,3,1,12,10,78,351,47,14,36,262,42,18,62,111,47,21,19,177,45*76
2017-12-01 14:44:58 1512157498.693764: $GPGSV,3,2,12,24,37,051,46,25,10,135,31,32,53,277,44,15,04,072,12*7F
2017-12-01 14:44:58 1512157498.693833: $GPGSV,3,3,12,12,15,099,38,11,02,324,24,31,08,204,33,138,38,213,47*49
2017-12-01 14:44:58 1512157498.807082: $GPZDA,194459.00,01,12,2017,00,00*64
2017-12-01 14:44:58 1512157498.807237: $GPGGA,194459,3946.9588,N,08404.9863,W,2,11,1.20,294.27,M,-33.324,M,,*7E
2017-12-01 14:44:58 1512157498.807306: $GPRMC,194459,A,3946.9588,N,08404.9863,W,0.0000,0.000,011217,,*37
2017-12-01 14:44:58 1512157498.807370: $GPGSA,A,3,10,14,18,21,24,25,32,12,11,31,138,,2.0,1.2,1.5*02
2017-12-01 14:44:59 1512157499.357949: $GPZDA,194500.00,01,12,2017,00,00*69
2017-12-01 14:44:59 1512157499.358106: $GPGGA,194500,3946.9588,N,08404.9863,W,2,11,1.00,294.27,M,-33.324,M,,*71
2017-12-01 14:44:59 1512157499.358175: $GPRMC,194500,A,3946.9588,N,08404.9863,W,0.0000,0.000,011217,,*3A
2017-12-01 14:44:59 1512157499.358237: $GPGSA,A,3,10,14,18,21,24,25,32,12,11,31,138,,2.0,1.0,1.5*00
2017-12-01 14:45:00 1512157500.348887: $GPZDA,194501.00,01,12,2017,00,00*68
2017-12-01 14:45:00 1512157500.349057: $GPGGA,194501,3946.9588,N,08404.9863,W,2,11,1.00,294.27,M,-33.324,M,,*70
2017-12-01 14:45:00 1512157500.349126: $GPRMC,194501,A,3946.9588,N,08404.9863,W,0.0000,0.000,011217,,*3B
2017-12-01 14:45:00 1512157500.349190: $GPGSA,A,3,10,14,18,21,24,25,32,12,11,31,138,,2.0,1.0,1.5*00
2017-12-01 14:45:01 1512157501.690025: $GPGSV,3,1,12,10,78,351,47,14,36,262,43,18,62,111,47,21,19,177,45*77
2017-12-01 14:45:01 1512157501.690206: $GPGSV,3,2,12,24,37,051,47,25,10,135,31,32,53,277,44,15,04,072,20*7F
2017-12-01 14:45:01 1512157501.690275: $GPGSV,3,3,12,12,15,099,39,11,02,324,24,31,08,204,33,138,38,213,47*48
2017-12-01 14:45:01 1512157501.803681: $GPZDA,194502.00,01,12,2017,00,00*6B
2017-12-01 14:45:01 1512157501.803867: $GPGGA,194502,3946.9588,N,08404.9863,W,2,12,1.00,294.27,M,-33.324,M,,*70
2017-12-01 14:45:01 1512157501.803937: $GPRMC,194502,A,3946.9588,N,08404.9863,W,0.0000,0.000,011217,,*38
2017-12-01 14:45:01 1512157501.804001: $GPGSA,A,3,10,14,18,21,24,25,32,15,12,11,31,138,2.0,1.0,1.5*04
2017-12-01 14:45:02 1512157502.355871: $GPZDA,194503.00,01,12,2017,00,00*6A
2017-12-01 14:45:02 1512157502.356046: $GPGGA,194503,3946.9588,N,08404.9863,W,2,12,1.20,294.27,M,-33.324,M,,*73
2017-12-01 14:45:02 1512157502.356114: $GPRMC,194503,A,3946.9588,N,08404.9863,W,0.0000,0.000,011217,,*39
2017-12-01 14:45:02 1512157502.356227: $GPGSA,A,3,10,14,18,21,24,25,32,15,12,11,31,138,2.0,1.2,1.5*06
2017-12-01 14:45:03 1512157503.355180: $GPZDA,194504.00,01,12,2017,00,00*6D
2017-12-01 14:45:03 1512157503.355366: $GPGGA,194504,3946.9588,N,08404.9863,W,2,12,1.20,294.27,M,-33.324,M,,*74
2017-12-01 14:45:03 1512157503.355433: $GPRMC,194504,A,3946.9588,N,08404.9863,W,0.0000,0.000,011217,,*3E
2017-12-01 14:45:03 1512157503.355494: $GPGSA,A,3,10,14,18,21,24,25,32,15,12,11,31,138,2.0,1.2,1.5*06
