2017-11-15 18:30:48 1510788648.153761: {"class":"VERSION","release":"3.17","rev":"3.17","proto_major":3,"proto_minor":12}
2017-11-15 18:30:48 1510788648.154194: {"class":"DEVICES","devices":[{"class":"DEVICE","path":"/dev/ttyUSB0","driver":"SiRF","subtype":"9\u0006GSD4e_4.1.2-P1_RPATCH.05-F-GPS-4R-1510281 11/03/2015 307","activated":"2017-11-15T23:30:47.467Z","flags":1,"native":1,"bps":4800,"parity":"N","stopbits":1,"cycle":1.00}]}
2017-11-15 18:30:48 1510788648.154305: {"class":"WATCH","enable":true,"json":false,"nmea":true,"raw":0,"scaled":false,"timing":false,"split24":false,"pps":false}
2017-11-15 18:30:48 1510788648.695539: $GPGSV,3,1,10,25,36,057,00,14,69,037,16,10,22,156,00,26,25,178,12*7E
2017-11-15 18:30:48 1510788648.695712: $GPGSV,3,2,10,31,77,276,24,32,56,078,09,01,19,276,17,22,39,303,04*78
2017-11-15 18:30:48 1510788648.695771: $GPGSV,3,3,10,03,20,315,00,12,07,033,00*7A
2017-11-15 18:30:48 1510788648.808907: $GPZDA,233047.00,15,11,2017,00,00*67
2017-11-15 18:30:48 1510788648.809072: $GPGGA,233047,3946.9609,N,08404.9490,W,1,05,1.80,285.00,M,-33.324,M,,*78
2017-11-15 18:30:48 1510788648.809133: $GPRMC,233047,A,3946.9609,N,08404.9490,W,1.1391,143.662,151117,,*31
2017-11-15 18:30:48 1510788648.809188: $GPGSA,A,3,14,26,31,32,1,,,,,,,,3.4,1.8,2.9*04
2017-11-15 18:30:49 1510788649.326113: $GPZDA,233048.00,15,11,2017,00,00*68
2017-11-15 18:30:49 1510788649.326281: $GPGGA,233048,3946.9608,N,08404.9483,W,1,05,1.80,285.08,M,-33.324,M,,*7C
2017-11-15 18:30:49 1510788649.326341: $GPRMC,233048,A,3946.9608,N,08404.9483,W,0.8359,148.778,151117,,*30
2017-11-15 18:30:49 1510788649.326398: $GPGSA,A,3,14,26,31,32,1,,,,,,,,3.4,1.8,2.9*04
2017-11-15 18:30:50 1510788650.327012: $GPZDA,233049.00,15,11,2017,00,00*69
2017-11-15 18:30:50 1510788650.327162: $GPGGA,233049,3946.9604,N,08404.9483,W,1,05,1.80,284.44,M,-33.324,M,,*78
2017-11-15 18:30:50 1510788650.327224: $GPRMC,233049,A,3946.9604,N,08404.9483,W,0.4179,148.778,151117,,*31
2017-11-15 18:30:50 1510788650.327280: $GPGSA,A,3,14,26,31,32,1,,,,,,,,3.4,1.8,2.9*04
2017-11-15 18:30:51 1510788651.697204: $GPGSV,3,1,10,25,36,057,00,14,69,037,15,10,22,156,00,26,25,178,12*7D
2017-11-15 18:30:51 1510788651.697375: $GPGSV,3,2,10,31,77,276,24,32,56,078,09,01,19,276,18,22,39,303,04*77
2017-11-15 18:30:51 1510788651.697435: $GPGSV,3,3,10,03,20,315,00,12,07,033,00*7A
2017-11-15 18:30:51 1510788651.810496: $GPZDA,233050.00,15,11,2017,00,00*61
2017-11-15 18:30:51 1510788651.810637: $GPGGA,233050,3946.9601,N,08404.9484,W,1,05,1.80,285.20,M,-33.324,M,,*71
2017-11-15 18:30:51 1510788651.810696: $GPRMC,233050,A,3946.9601,N,08404.9484,W,0.5857,158.291,151117,,*3C
2017-11-15 18:30:51 1510788651.810750: $GPGSA,A,3,14,26,31,32,1,,,,,,,,3.4,1.8,2.9*04
2017-11-15 18:30:52 1510788652.327663: $GPZDA,233051.00,15,11,2017,00,00*60
2017-11-15 18:30:52 1510788652.327838: $GPGGA,233051,3946.9597,N,08404.9484,W,1,05,1.80,284.56,M,-33.324,M,,*7C
2017-11-15 18:30:52 1510788652.336013: $GPRMC,233051,A,3946.9597,N,08404.9484,W,0.5857,158.291,151117,,*31
2017-11-15 18:30:52 1510788652.336081: $GPGSA,A,3,14,26,31,32,1,,,,,,,,3.4,1.8,2.9*04
2017-11-15 18:30:53 1510788653.327349: $GPZDA,233052.00,15,11,2017,00,00*63
2017-11-15 18:30:53 1510788653.327512: $GPGGA,233052,3946.9596,N,08404.9477,W,1,05,1.80,284.64,M,-33.324,M,,*73
2017-11-15 18:30:53 1510788653.327572: $GPRMC,233052,A,3946.9596,N,08404.9477,W,0.5912,129.173,151117,,*36
2017-11-15 18:30:53 1510788653.327628: $GPGSA,A,3,14,26,31,32,1,,,,,,,,3.4,1.8,2.9*04
2017-11-15 18:30:54 1510788654.696792: $GPGSV,3,1,10,10,22,156,14,14,69,037,15,25,36,057,00,26,25,178,11*7B
2017-11-15 18:30:54 1510788654.696972: $GPGSV,3,2,10,31,77,276,24,32,56,078,10,01,19,276,18,22,39,303,12*78
2017-11-15 18:30:54 1510788654.697032: $GPGSV,3,3,10,03,20,315,00,12,07,033,00*7A
2017-11-15 18:30:54 1510788654.810130: $GPZDA,233053.00,15,11,2017,00,00*62
2017-11-15 18:30:54 1510788654.810306: $GPGGA,233053,3946.9596,N,08404.9477,W,1,06,1.80,284.64,M,-33.324,M,,*71
2017-11-15 18:30:54 1510788654.810366: $GPRMC,233053,A,3946.9596,N,08404.9477,W,0.7576,81.915,151117,,*00
2017-11-15 18:30:54 1510788654.810500: $GPGSA,A,3,14,26,31,32,1,22,,,,,,,3.4,1.8,2.9*04
2017-11-15 18:30:55 1510788655.326111: $GPZDA,233054.00,15,11,2017,00,00*65
2017-11-15 18:30:55 1510788655.326273: $GPGGA,233054,3946.9596,N,08404.9470,W,1,06,1.80,284.72,M,-33.324,M,,*76
2017-11-15 18:30:55 1510788655.326333: $GPRMC,233054,A,3946.9596,N,08404.9470,W,0.8414,39.347,151117,,*04
2017-11-15 18:30:55 1510788655.326388: $GPGSA,A,3,14,26,31,32,1,22,,,,,,,3.4,1.8,2.9*04
2017-11-15 18:30:56 1510788656.361461: $GPZDA,233055.00,15,11,2017,00,00*64
2017-11-15 18:30:56 1510788656.361643: $GPGGA,233055,3946.9596,N,08404.9470,W,1,06,1.80,284.72,M,-33.324,M,,*77
2017-11-15 18:30:56 1510788656.361704: $GPRMC,233055,A,3946.9596,N,08404.9470,W,0.5951,58.684,151117,,*09
2017-11-15 18:30:56 1510788656.361760: $GPGSA,A,3,14,26,31,32,1,22,,,,,,,3.4,1.8,2.9*04
2017-11-15 18:30:57 1510788657.697254: $GPGSV,3,1,10,10,22,156,14,14,69,037,15,25,36,057,00,26,25,178,12*78
2017-11-15 18:30:57 1510788657.697424: $GPGSV,3,2,10,31,77,276,23,32,56,078,11,01,19,276,17,22,39,303,04*76
2017-11-15 18:30:57 1510788657.697484: $GPGSV,3,3,10,03,20,315,00,12,07,033,00*7A
2017-11-15 18:30:57 1510788657.810592: $GPZDA,233056.00,15,11,2017,00,00*67
2017-11-15 18:30:57 1510788657.810759: $GPGGA,233056,3946.9592,N,08404.9470,W,1,06,1.80,284.08,M,-33.324,M,,*7D
2017-11-15 18:30:57 1510788657.810835: $GPRMC,233056,A,3946.9592,N,08404.9470,W,0.2422,93.794,151117,,*07
2017-11-15 18:30:57 1510788657.810891: $GPGSA,A,3,10,14,26,31,32,1,,,,,,,3.4,1.8,2.9*05
