2017-12-01 12:02:03 1512147723.327115: {"class":"VERSION","release":"3.16","rev":"3.16-4","proto_major":3,"proto_minor":11}
2017-12-01 12:02:03 1512147723.327513: {"class":"DEVICES","devices":[{"class":"DEVICE","path":"/dev/ttyUSB0","driver":"SiRF","subtype":"9\u0006GSD4e_4.1.2-P1_RPATCH.05-F-GPS-4R-1510281 11/03/2015 307","activated":"2017-12-01T17:02:03.288Z","flags":1,"native":1,"bps":4800,"parity":"N","stopbits":1,"cycle":1.00}]}
2017-12-01 12:02:03 1512147723.327630: {"class":"WATCH","enable":true,"json":false,"nmea":true,"raw":0,"scaled":false,"timing":false,"split24":false,"pps":false}
2017-12-01 12:02:03 1512147723.737997: $GPGSV,3,1,12,13,36,046,45,15,68,057,45,18,49,292,46,20,57,063,45*7E
2017-12-01 12:02:03 1512147723.738177: $GPGSV,3,2,12,21,74,294,45,24,27,144,47,27,13,319,41,29,17,192,38*71
2017-12-01 12:02:03 1512147723.738244: $GPGSV,3,3,12,10,18,277,41,05,08,082,19,04,06,133,00,138,38,213,46*4A
2017-12-01 12:02:03 1512147723.851702: $GPZDA,170204.00,01,12,2017,00,00*60
2017-12-01 12:02:03 1512147723.851864: $GPGGA,170204,3946.9575,N,08404.9834,W,2,11,0.80,303.34,M,-33.324,M,,*7C
2017-12-01 12:02:03 1512147723.851930: $GPRMC,170204,A,3946.9575,N,08404.9834,W,0.0000,0.000,011217,,*33
2017-12-01 12:02:03 1512147723.851990: $GPGSA,A,3,13,15,18,20,21,24,27,29,10,5,138,,2.0,0.8,1.5*34
2017-12-01 12:02:04 1512147724.402591: $GPZDA,170205.00,01,12,2017,00,00*61
2017-12-01 12:02:04 1512147724.402771: $GPGGA,170205,3946.9575,N,08404.9834,W,2,11,0.80,303.34,M,-33.324,M,,*7D
2017-12-01 12:02:04 1512147724.402838: $GPRMC,170205,A,3946.9575,N,08404.9834,W,0.0000,0.000,011217,,*32
2017-12-01 12:02:04 1512147724.402899: $GPGSA,A,3,13,15,18,20,21,24,27,29,10,5,138,,2.0,0.8,1.5*34
2017-12-01 12:02:05 1512147725.402180: $GPZDA,170206.00,01,12,2017,00,00*62
2017-12-01 12:02:05 1512147725.402355: $GPGGA,170206,3946.9575,N,08404.9834,W,2,11,0.80,303.34,M,-33.324,M,,*7E
2017-12-01 12:02:05 1512147725.402421: $GPRMC,170206,A,3946.9575,N,08404.9834,W,0.0000,0.000,011217,,*31
2017-12-01 12:02:05 1512147725.402482: $GPGSA,A,3,13,15,18,20,21,24,27,29,10,5,138,,2.0,0.8,1.5*34
2017-12-01 12:02:06 1512147726.736358: $GPGSV,3,1,12,13,36,046,45,15,68,057,45,18,49,292,46,20,57,063,45*7E
2017-12-01 12:02:06 1512147726.736522: $GPGSV,3,2,12,21,74,294,45,24,27,144,47,27,13,319,41,29,17,192,38*71
2017-12-01 12:02:06 1512147726.736607: $GPGSV,3,3,12,10,18,277,41,05,08,082,19,04,06,133,00,138,38,213,46*4A
2017-12-01 12:02:06 1512147726.849865: $GPZDA,170207.00,01,12,2017,00,00*63
2017-12-01 12:02:06 1512147726.850041: $GPGGA,170207,3946.9580,N,08404.9834,W,2,11,0.80,303.98,M,-33.324,M,,*73
2017-12-01 12:02:06 1512147726.850110: $GPRMC,170207,A,3946.9580,N,08404.9834,W,0.0000,0.000,011217,,*3A
2017-12-01 12:02:06 1512147726.850171: $GPGSA,A,3,13,15,18,20,21,24,27,29,10,5,138,,2.0,0.8,1.5*34
2017-12-01 12:02:07 1512147727.475887: $GPZDA,170208.00,01,12,2017,00,00*6C
2017-12-01 12:02:07 1512147727.476076: $GPGGA,170208,3946.9580,N,08404.9834,W,2,11,0.80,303.98,M,-33.324,M,,*7C
2017-12-01 12:02:07 1512147727.476145: $GPRMC,170208,A,3946.9580,N,08404.9834,W,0.0000,0.000,011217,,*35
2017-12-01 12:02:07 1512147727.476208: $GPGSA,A,3,13,15,18,20,21,24,27,29,10,5,138,,2.0,0.8,1.5*34
2017-12-01 12:02:08 1512147728.402648: $GPZDA,170209.00,01,12,2017,00,00*6D
2017-12-01 12:02:08 1512147728.402818: $GPGGA,170209,3946.9580,N,08404.9834,W,2,11,0.80,303.98,M,-33.324,M,,*7D
2017-12-01 12:02:08 1512147728.402885: $GPRMC,170209,A,3946.9580,N,08404.9834,W,0.0000,0.000,011217,,*34
2017-12-01 12:02:08 1512147728.402946: $GPGSA,A,3,13,15,18,20,21,24,27,29,10,5,138,,2.0,0.8,1.5*34
2017-12-01 12:02:09 1512147729.737964: $GPGSV,3,1,12,13,36,046,44,15,68,057,45,18,49,292,46,20,57,063,45*7F
2017-12-01 12:02:09 1512147729.738163: $GPGSV,3,2,12,21,74,294,45,24,27,144,47,27,13,319,42,29,17,192,38*72
2017-12-01 12:02:09 1512147729.738230: $GPGSV,3,3,12,10,18,277,42,05,08,082,19,04,06,133,00,138,38,213,46*49
2017-12-01 12:02:09 1512147729.851745: $GPZDA,170210.00,01,12,2017,00,00*65
2017-12-01 12:02:09 1512147729.851903: $GPGGA,170210,3946.9580,N,08404.9834,W,2,11,0.80,303.98,M,-33.324,M,,*75
2017-12-01 12:02:09 1512147729.852037: $GPRMC,170210,A,3946.9580,N,08404.9834,W,0.0000,0.000,011217,,*3C
2017-12-01 12:02:09 1512147729.852101: $GPGSA,A,3,13,15,18,20,21,24,27,29,10,5,138,,2.0,0.8,1.5*34
2017-12-01 12:02:10 1512147730.418808: $GPZDA,170211.00,01,12,2017,00,00*64
2017-12-01 12:02:10 1512147730.418979: $GPGGA,170211,3946.9580,N,08404.9834,W,2,11,0.80,303.98,M,-33.324,M,,*74
2017-12-01 12:02:10 1512147730.419065: $GPRMC,170211,A,3946.9580,N,08404.9834,W,0.0000,0.000,011217,,*3D
2017-12-01 12:02:10 1512147730.419128: $GPGSA,A,3,13,15,18,20,21,24,27,29,10,5,138,,2.0,0.8,1.5*34
2017-12-01 12:02:11 1512147731.420011: $GPZDA,170212.00,01,12,2017,00,00*67
2017-12-01 12:02:11 1512147731.420211: $GPGGA,170212,3946.9580,N,08404.9834,W,2,11,0.80,303.98,M,-33.324,M,,*77
2017-12-01 12:02:11 1512147731.420279: $GPRMC,170212,A,3946.9580,N,08404.9834,W,0.0000,0.000,011217,,*3E
2017-12-01 12:02:11 1512147731.420341: $GPGSA,A,3,13,15,18,20,21,24,27,29,10,5,138,,2.0,0.8,1.5*34
2017-12-01 12:02:12 1512147732.737106: $GPGSV,3,1,12,13,36,046,45,15,68,057,45,18,49,292,45,20,57,063,45*7D
2017-12-01 12:02:12 1512147732.737255: $GPGSV,3,2,12,21,74,294,45,24,27,144,47,27,13,319,42,29,17,192,37*7D
2017-12-01 12:02:12 1512147732.737322: $GPGSV,3,3,12,10,18,277,42,05,08,082,19,04,06,133,00,138,38,213,46*49
2017-12-01 12:02:12 1512147732.850501: $GPZDA,170213.00,01,12,2017,00,00*66
2017-12-01 12:02:12 1512147732.850671: $GPGGA,170213,3946.9580,N,08404.9834,W,2,11,0.80,303.98,M,-33.324,M,,*76
2017-12-01 12:02:12 1512147732.850737: $GPRMC,170213,A,3946.9580,N,08404.9834,W,0.0000,0.000,011217,,*3F
2017-12-01 12:02:12 1512147732.850799: $GPGSA,A,3,13,15,18,20,21,24,27,29,10,5,138,,2.0,0.8,1.5*34
