2017-12-01 13:15:00 1512152100.046583: {"class":"VERSION","release":"3.16","rev":"3.16-4","proto_major":3,"proto_minor":11}
2017-12-01 13:15:00 1512152100.047019: {"class":"DEVICES","devices":[{"class":"DEVICE","path":"/dev/ttyUSB0","driver":"SiRF","subtype":"9\u0006GSD4e_4.1.2-P1_RPATCH.05-F-GPS-4R-1510281 11/03/2015 307","activated":"2017-12-01T18:15:00.025Z","flags":1,"native":1,"bps":4800,"parity":"N","stopbits":1,"cycle":1.00}]}
2017-12-01 13:15:00 1512152100.047140: {"class":"WATCH","enable":true,"json":false,"nmea":true,"raw":0,"scaled":false,"timing":false,"split24":false,"pps":false}
2017-12-01 13:15:01 1512152101.070051: $GPZDA,181501.36,01,12,2017,00,00*69
2017-12-01 13:15:01 1512152101.070247: $GPGGA,181501,3946.9591,N,08404.9853,W,1,11,1.00,301.45,M,-33.324,M,,*75
2017-12-01 13:15:01 1512152101.070314: $GPRMC,181501,A,3946.9591,N,08404.9853,W,0.1176,219.704,011217,,*3C
2017-12-01 13:15:01 1512152101.070376: $GPGSA,A,3,8,10,15,18,20,21,24,27,32,13,138,,2.0,1.0,1.5*3A
2017-12-01 13:15:01 1512152101.070435: $GPGBS,181501,10.70,M,15.43,M,35.28,M*0B
2017-12-01 13:15:02 1512152102.212490: $GPGSV,3,1,12,10,43,303,46,15,36,052,46,18,72,340,44,20,32,097,47*7D
2017-12-01 13:15:02 1512152102.212683: $GPGSV,3,2,12,21,61,187,45,24,51,108,47,27,19,288,33,32,22,240,43*77
2017-12-01 13:15:02 1512152102.212751: $GPGSV,3,3,12,08,06,321,24,13,06,049,08,14,05,232,00,138,38,213,00*41
2017-12-01 13:15:02 1512152102.325815: $GPZDA,181502.00,01,12,2017,00,00*6F
2017-12-01 13:15:02 1512152102.325997: $GPGGA,181502,3946.9594,N,08404.9852,W,1,09,1.00,300.68,M,-33.324,M,,*75
2017-12-01 13:15:02 1512152102.326065: $GPRMC,181502,A,3946.9594,N,08404.9852,W,0.1324,202.230,011217,,*36
2017-12-01 13:15:02 1512152102.326126: $GPGSA,A,3,10,15,18,20,21,24,27,32,8,,,,2.0,1.0,1.5*02
2017-12-01 13:15:02 1512152102.776722: $GPZDA,181503.00,01,12,2017,00,00*6E
2017-12-01 13:15:02 1512152102.776894: $GPGGA,181503,3946.9594,N,08404.9852,W,1,09,0.80,300.68,M,-33.324,M,,*7D
2017-12-01 13:15:02 1512152102.776961: $GPRMC,181503,A,3946.9594,N,08404.9852,W,0.0407,322.014,011217,,*37
2017-12-01 13:15:02 1512152102.777023: $GPGSA,A,3,10,15,18,20,21,24,27,32,8,,,,2.0,0.8,1.5*0B
2017-12-01 13:15:03 1512152103.380346: $GPZDA,181504.00,01,12,2017,00,00*69
2017-12-01 13:15:03 1512152103.380521: $GPGGA,181504,3946.9594,N,08404.9852,W,1,09,0.80,300.68,M,-33.324,M,,*7A
2017-12-01 13:15:03 1512152103.380589: $GPRMC,181504,A,3946.9594,N,08404.9852,W,0.0000,0.000,011217,,*35
2017-12-01 13:15:03 1512152103.380650: $GPGSA,A,3,10,15,18,20,21,24,27,32,8,,,,2.0,0.8,1.5*0B
2017-12-01 13:15:04 1512152104.715300: $GPGSV,3,1,12,10,43,303,14,15,36,052,14,18,72,340,13,20,32,097,14*79
2017-12-01 13:15:04 1512152104.715482: $GPGSV,3,2,12,21,61,187,13,24,51,108,14,27,19,288,11,32,22,240,13*77
2017-12-01 13:15:04 1512152104.715549: $GPGSV,3,3,12,08,06,321,10,13,06,049,07,14,05,232,00,138,38,213,16*4E
2017-12-01 13:15:04 1512152104.828928: $GPZDA,181505.00,01,12,2017,00,00*68
2017-12-01 13:15:04 1512152104.829080: $GPGGA,181505,3946.9590,N,08404.9852,W,1,11,0.80,300.04,M,-33.324,M,,*7C
2017-12-01 13:15:04 1512152104.829165: $GPRMC,181505,A,3946.9590,N,08404.9852,W,0.2422,273.794,011217,,*3A
2017-12-01 13:15:04 1512152104.829228: $GPGSA,A,3,10,15,18,20,21,24,27,32,8,13,138,,2.0,0.8,1.5*33
2017-12-01 13:15:05 1512152105.379836: $GPZDA,181506.00,01,12,2017,00,00*6B
2017-12-01 13:15:05 1512152105.380008: $GPGGA,181506,3946.9594,N,08404.9852,W,1,11,1.00,299.28,M,-33.324,M,,*7D
2017-12-01 13:15:05 1512152105.380076: $GPRMC,181506,A,3946.9594,N,08404.9852,W,0.0000,0.000,011217,,*37
2017-12-01 13:15:05 1512152105.380138: $GPGSA,A,3,10,15,18,20,21,24,27,32,8,13,138,,2.0,1.0,1.5*3A
2017-12-01 13:15:06 1512152106.379364: $GPZDA,181507.00,01,12,2017,00,00*6A
2017-12-01 13:15:06 1512152106.379539: $GPGGA,181507,3946.9594,N,08404.9852,W,1,11,1.00,299.28,M,-33.324,M,,*7C
2017-12-01 13:15:06 1512152106.379608: $GPRMC,181507,A,3946.9594,N,08404.9852,W,0.0000,0.000,011217,,*36
2017-12-01 13:15:06 1512152106.379668: $GPGSA,A,3,10,15,18,20,21,24,27,32,8,13,138,,2.0,1.0,1.5*3A
2017-12-01 13:15:06 1512152106.379778: $GPGBS,181507,10.70,M,15.43,M,35.28,M*0D
2017-12-01 13:15:07 1512152107.716044: $GPGSV,3,1,12,10,43,303,46,15,36,052,46,18,72,340,44,20,32,097,46*7C
2017-12-01 13:15:07 1512152107.716229: $GPGSV,3,2,12,21,61,187,45,24,51,108,47,27,19,288,38,32,22,240,42*7D
2017-12-01 13:15:07 1512152107.716296: $GPGSV,3,3,12,08,06,321,34,13,06,049,22,14,05,232,00,138,38,213,47*4B
2017-12-01 13:15:07 1512152107.829358: $GPZDA,181508.00,01,12,2017,00,00*65
2017-12-01 13:15:07 1512152107.829495: $GPGGA,181508,3946.9594,N,08404.9852,W,1,11,0.80,299.28,M,-33.324,M,,*7A
2017-12-01 13:15:07 1512152107.829561: $GPRMC,181508,A,3946.9594,N,08404.9852,W,0.0000,0.000,011217,,*39
2017-12-01 13:15:07 1512152107.829622: $GPGSA,A,3,10,15,18,20,21,24,27,32,8,13,138,,2.0,0.8,1.5*33
2017-12-01 13:15:08 1512152108.379391: $GPZDA,181509.00,01,12,2017,00,00*64
2017-12-01 13:15:08 1512152108.379568: $GPGGA,181509,3946.9597,N,08404.9844,W,1,11,1.00,298.59,M,-33.324,M,,*71
2017-12-01 13:15:08 1512152108.379637: $GPRMC,181509,A,3946.9597,N,08404.9844,W,0.0000,0.000,011217,,*3C
2017-12-01 13:15:08 1512152108.379697: $GPGSA,A,3,10,15,18,20,21,24,27,32,8,13,138,,2.0,1.0,1.5*3A
2017-12-01 13:15:09 1512152109.384822: $GPZDA,181510.00,01,12,2017,00,00*6C
2017-12-01 13:15:09 1512152109.384993: $GPGGA,181510,3946.9593,N,08404.9844,W,1,11,1.00,297.95,M,-33.324,M,,*72
2017-12-01 13:15:09 1512152109.385061: $GPRMC,181510,A,3946.9593,N,08404.9844,W,0.0000,0.000,011217,,*30
2017-12-01 13:15:09 1512152109.385122: $GPGSA,A,3,10,15,18,20,21,24,27,32,8,13,138,,2.0,1.0,1.5*3A
