2017-12-01 15:57:33 1512161853.146900: {"class":"VERSION","release":"3.16","rev":"3.16-4","proto_major":3,"proto_minor":11}
2017-12-01 15:57:33 1512161853.147283: {"class":"DEVICES","devices":[{"class":"DEVICE","path":"/dev/ttyUSB0","driver":"SiRF","subtype":"9\u0006GSD4e_4.1.2-P1_RPATCH.05-F-GPS-4R-1510281 11/03/2015 307","activated":"2017-12-01T20:57:32.720Z","flags":1,"native":1,"bps":4800,"parity":"N","stopbits":1,"cycle":1.00}]}
2017-12-01 15:57:33 1512161853.147406: {"class":"WATCH","enable":true,"json":false,"nmea":true,"raw":0,"scaled":false,"timing":false,"split24":false,"pps":false}
2017-12-01 15:57:33 1512161853.405052: $GPZDA,205734.00,01,12,2017,00,00*67
2017-12-01 15:57:33 1512161853.405334: $GPGGA,205734,3946.9583,N,08404.9860,W,2,12,0.80,300.09,M,-33.324,M,,*7D
2017-12-01 15:57:33 1512161853.405429: $GPRMC,205734,A,3946.9583,N,08404.9860,W,0.4207,39.346,011217,,*06
2017-12-01 15:57:33 1512161853.405516: $GPGSA,A,3,1,10,12,14,18,22,25,31,32,11,24,138,2.0,0.8,1.5*3B
2017-12-01 15:57:34 1512161854.740232: $GPGSV,3,1,12,01,17,313,39,10,64,138,48,12,25,066,39,14,58,300,43*73
2017-12-01 15:57:34 1512161854.745023: $GPGSV,3,2,12,18,32,138,45,22,07,312,40,25,33,109,44,31,41,214,48*78
2017-12-01 15:57:34 1512161854.745153: $GPGSV,3,3,12,32,69,345,47,11,11,295,28,24,09,046,30,138,38,213,47*4D
2017-12-01 15:57:34 1512161854.853832: $GPZDA,205735.00,01,12,2017,00,00*66
2017-12-01 15:57:34 1512161854.853997: $GPGGA,205735,3946.9583,N,08404.9867,W,2,12,0.80,300.01,M,-33.324,M,,*73
2017-12-01 15:57:34 1512161854.854064: $GPRMC,205735,A,3946.9583,N,08404.9867,W,0.0000,0.000,011217,,*3A
2017-12-01 15:57:34 1512161854.854124: $GPGSA,A,3,1,10,12,14,18,22,25,31,32,11,24,138,2.0,0.8,1.5*3B
2017-12-01 15:57:35 1512161855.403201: $GPZDA,205736.00,01,12,2017,00,00*65
2017-12-01 15:57:35 1512161855.403383: $GPGGA,205736,3946.9579,N,08404.9860,W,2,12,0.80,299.45,M,-33.324,M,,*73
2017-12-01 15:57:35 1512161855.403451: $GPRMC,205736,A,3946.9579,N,08404.9860,W,0.4207,219.346,011217,,*31
2017-12-01 15:57:35 1512161855.403512: $GPGSA,A,3,1,10,12,14,18,22,25,31,32,11,24,138,2.0,0.8,1.5*3B
2017-12-01 15:57:36 1512161856.404044: $GPZDA,205737.00,01,12,2017,00,00*64
2017-12-01 15:57:36 1512161856.404223: $GPGGA,205737,3946.9579,N,08404.9860,W,2,12,0.80,299.45,M,-33.324,M,,*72
2017-12-01 15:57:36 1512161856.404291: $GPRMC,205737,A,3946.9579,N,08404.9860,W,0.0000,0.000,011217,,*3A
2017-12-01 15:57:36 1512161856.404352: $GPGSA,A,3,1,10,12,14,18,22,25,31,32,11,24,138,2.0,0.8,1.5*3B
2017-12-01 15:57:37 1512161857.742296: $GPGSV,3,1,12,01,17,313,39,10,64,138,48,12,25,066,38,14,58,300,43*72
2017-12-01 15:57:37 1512161857.742477: $GPGSV,3,2,12,18,32,138,45,22,07,312,40,25,33,109,44,31,41,214,48*78
2017-12-01 15:57:37 1512161857.742545: $GPGSV,3,3,12,32,69,345,47,11,11,295,30,24,09,046,30,138,38,213,46*45
2017-12-01 15:57:37 1512161857.855626: $GPZDA,205738.00,01,12,2017,00,00*6B
2017-12-01 15:57:37 1512161857.855763: $GPGGA,205738,3946.9579,N,08404.9860,W,2,12,0.80,299.45,M,-33.324,M,,*7D
2017-12-01 15:57:37 1512161857.855829: $GPRMC,205738,A,3946.9579,N,08404.9860,W,0.0000,0.000,011217,,*35
2017-12-01 15:57:37 1512161857.855889: $GPGSA,A,3,1,10,12,14,18,22,25,31,32,11,24,138,2.0,0.8,1.5*3B
2017-12-01 15:57:38 1512161858.481316: $GPZDA,205739.00,01,12,2017,00,00*6A
2017-12-01 15:57:38 1512161858.481571: $GPGGA,205739,3946.9579,N,08404.9860,W,2,12,0.80,299.45,M,-33.324,M,,*7C
2017-12-01 15:57:38 1512161858.481640: $GPRMC,205739,A,3946.9579,N,08404.9860,W,0.0000,0.000,011217,,*34
2017-12-01 15:57:38 1512161858.481703: $GPGSA,A,3,1,10,12,14,18,22,25,31,32,11,24,138,2.0,0.8,1.5*3B
2017-12-01 15:57:39 1512161859.406896: $GPZDA,205740.00,01,12,2017,00,00*64
2017-12-01 15:57:39 1512161859.407088: $GPGGA,205740,3946.9579,N,08404.9860,W,2,12,0.80,299.45,M,-33.324,M,,*72
2017-12-01 15:57:39 1512161859.407162: $GPRMC,205740,A,3946.9579,N,08404.9860,W,0.0000,0.000,011217,,*3A
2017-12-01 15:57:39 1512161859.407228: $GPGSA,A,3,1,10,12,14,18,22,25,31,32,11,24,138,2.0,0.8,1.5*3B
2017-12-01 15:57:40 1512161860.742650: $GPGSV,3,1,12,01,17,313,39,10,64,138,48,12,25,066,39,14,58,300,44*74
2017-12-01 15:57:40 1512161860.742892: $GPGSV,3,2,12,18,32,138,45,22,07,312,39,25,33,109,44,31,41,214,48*76
2017-12-01 15:57:40 1512161860.742962: $GPGSV,3,3,12,32,69,345,46,11,11,295,26,24,09,046,29,138,38,213,46*4B
2017-12-01 15:57:40 1512161860.856043: $GPZDA,205741.00,01,12,2017,00,00*65
2017-12-01 15:57:40 1512161860.856219: $GPGGA,205741,3946.9579,N,08404.9860,W,2,12,0.80,299.45,M,-33.324,M,,*73
2017-12-01 15:57:40 1512161860.856284: $GPRMC,205741,A,3946.9579,N,08404.9860,W,0.0000,0.000,011217,,*3B
2017-12-01 15:57:40 1512161860.856347: $GPGSA,A,3,1,10,12,14,18,22,25,31,32,11,24,138,2.0,0.8,1.5*3B
2017-12-01 15:57:41 1512161861.408138: $GPZDA,205742.00,01,12,2017,00,00*66
2017-12-01 15:57:41 1512161861.408333: $GPGGA,205742,3946.9579,N,08404.9860,W,2,12,0.80,299.45,M,-33.324,M,,*70
2017-12-01 15:57:41 1512161861.408402: $GPRMC,205742,A,3946.9579,N,08404.9860,W,0.0000,0.000,011217,,*38
2017-12-01 15:57:41 1512161861.408465: $GPGSA,A,3,1,10,12,14,18,22,25,31,32,11,24,138,2.0,0.8,1.5*3B
2017-12-01 15:57:42 1512161862.409043: $GPZDA,205743.00,01,12,2017,00,00*67
2017-12-01 15:57:42 1512161862.409236: $GPGGA,205743,3946.9579,N,08404.9860,W,2,12,0.80,299.45,M,-33.324,M,,*71
2017-12-01 15:57:42 1512161862.409305: $GPRMC,205743,A,3946.9579,N,08404.9860,W,0.0000,0.000,011217,,*39
2017-12-01 15:57:42 1512161862.409368: $GPGSA,A,3,1,10,12,14,18,22,25,31,32,11,24,138,2.0,0.8,1.5*3B
2017-12-01 15:57:43 1512161863.740524: $GPGSV,3,1,12,01,17,313,39,10,64,138,48,12,25,066,40,14,58,300,44*7A
2017-12-01 15:57:43 1512161863.740709: $GPGSV,3,2,12,18,32,138,46,22,07,312,38,25,33,109,44,31,41,214,48*74
2017-12-01 15:57:43 1512161863.740775: $GPGSV,3,3,12,32,69,345,47,11,11,295,23,24,09,046,29,138,38,213,45*4C
2017-12-01 15:57:43 1512161863.854116: $GPZDA,205744.00,01,12,2017,00,00*60
2017-12-01 15:57:43 1512161863.854285: $GPGGA,205744,3946.9579,N,08404.9860,W,2,12,0.80,299.45,M,-33.324,M,,*76
2017-12-01 15:57:43 1512161863.854354: $GPRMC,205744,A,3946.9579,N,08404.9860,W,0.0000,0.000,011217,,*3E
2017-12-01 15:57:43 1512161863.854417: $GPGSA,A,3,1,10,12,14,18,22,25,31,32,11,24,138,2.0,0.8,1.5*3B
2017-12-01 15:57:44 1512161864.406087: $GPZDA,205745.00,01,12,2017,00,00*61
2017-12-01 15:57:44 1512161864.406282: $GPGGA,205745,3946.9579,N,08404.9860,W,2,12,0.80,299.45,M,-33.324,M,,*77
2017-12-01 15:57:44 1512161864.406353: $GPRMC,205745,A,3946.9579,N,08404.9860,W,0.0000,0.000,011217,,*3F
2017-12-01 15:57:44 1512161864.406416: $GPGSA,A,3,1,10,12,14,18,22,25,31,32,11,24,138,2.0,0.8,1.5*3B
2017-12-01 15:57:45 1512161865.408145: $GPZDA,205746.00,01,12,2017,00,00*62
2017-12-01 15:57:45 1512161865.408334: $GPGGA,205746,3946.9579,N,08404.9860,W,2,12,0.80,299.45,M,-33.324,M,,*74
2017-12-01 15:57:45 1512161865.408402: $GPRMC,205746,A,3946.9579,N,08404.9860,W,0.0000,0.000,011217,,*3C
2017-12-01 15:57:45 1512161865.408464: $GPGSA,A,3,1,10,12,14,18,22,25,31,32,11,24,138,2.0,0.8,1.5*3B
2017-12-01 15:57:46 1512161866.743880: $GPGSV,3,1,12,01,17,313,38,10,64,138,48,12,25,066,40,14,58,300,44*7B
2017-12-01 15:57:46 1512161866.744042: $GPGSV,3,2,12,18,32,138,46,22,07,312,38,25,33,109,44,31,41,214,49*75
2017-12-01 15:57:46 1512161866.744112: $GPGSV,3,3,12,32,69,345,47,11,11,295,30,24,09,046,29,138,38,213,46*4D
2017-12-01 15:57:46 1512161866.857658: $GPZDA,205747.00,01,12,2017,00,00*63
2017-12-01 15:57:46 1512161866.857829: $GPGGA,205747,3946.9579,N,08404.9860,W,2,12,0.80,299.45,M,-33.324,M,,*75
2017-12-01 15:57:46 1512161866.857897: $GPRMC,205747,A,3946.9579,N,08404.9860,W,0.0000,0.000,011217,,*3D
2017-12-01 15:57:46 1512161866.857960: $GPGSA,A,3,1,10,12,14,18,22,25,31,32,11,24,138,2.0,0.8,1.5*3B
2017-12-01 15:57:47 1512161867.407265: $GPZDA,205748.00,01,12,2017,00,00*6C
2017-12-01 15:57:47 1512161867.407441: $GPGGA,205748,3946.9579,N,08404.9860,W,2,12,0.80,299.45,M,-33.324,M,,*7A
2017-12-01 15:57:47 1512161867.407508: $GPRMC,205748,A,3946.9579,N,08404.9860,W,0.0000,0.000,011217,,*32
2017-12-01 15:57:47 1512161867.407571: $GPGSA,A,3,1,10,12,14,18,22,25,31,32,11,24,138,2.0,0.8,1.5*3B
2017-12-01 15:57:48 1512161868.405097: $GPZDA,205749.00,01,12,2017,00,00*6D
2017-12-01 15:57:48 1512161868.405291: $GPGGA,205749,3946.9579,N,08404.9860,W,2,12,0.80,299.45,M,-33.324,M,,*7B
2017-12-01 15:57:48 1512161868.405363: $GPRMC,205749,A,3946.9579,N,08404.9860,W,0.0000,0.000,011217,,*33
2017-12-01 15:57:48 1512161868.405427: $GPGSA,A,3,1,10,12,14,18,22,25,31,32,11,24,138,2.0,0.8,1.5*3B
2017-12-01 15:57:49 1512161869.743095: $GPGSV,3,1,12,01,17,313,38,10,64,138,48,12,25,066,40,14,58,300,44*7B
2017-12-01 15:57:49 1512161869.743296: $GPGSV,3,2,12,18,32,138,46,22,07,312,38,25,33,109,45,31,41,214,49*74
2017-12-01 15:57:49 1512161869.743363: $GPGSV,3,3,12,32,69,345,46,11,11,295,30,24,09,046,29,138,38,213,46*4C
2017-12-01 15:57:49 1512161869.856712: $GPZDA,205750.00,01,12,2017,00,00*65
2017-12-01 15:57:49 1512161869.856856: $GPGGA,205750,3946.9579,N,08404.9860,W,2,12,0.80,299.45,M,-33.324,M,,*73
2017-12-01 15:57:49 1512161869.856924: $GPRMC,205750,A,3946.9579,N,08404.9860,W,0.0000,0.000,011217,,*3B
2017-12-01 15:57:49 1512161869.856985: $GPGSA,A,3,1,10,12,14,18,22,25,31,32,11,24,138,2.0,0.8,1.5*3B
2017-12-01 15:57:50 1512161870.406367: $GPZDA,205751.00,01,12,2017,00,00*64
2017-12-01 15:57:50 1512161870.406542: $GPGGA,205751,3946.9579,N,08404.9860,W,2,12,0.80,299.45,M,-33.324,M,,*72
2017-12-01 15:57:50 1512161870.406610: $GPRMC,205751,A,3946.9579,N,08404.9860,W,0.0000,0.000,011217,,*3A
2017-12-01 15:57:50 1512161870.406672: $GPGSA,A,3,1,10,12,14,18,22,25,31,32,11,24,138,2.0,0.8,1.5*3B
2017-12-01 15:57:51 1512161871.407232: $GPZDA,205752.00,01,12,2017,00,00*67
2017-12-01 15:57:51 1512161871.407391: $GPGGA,205752,3946.9579,N,08404.9860,W,2,12,0.80,299.45,M,-33.324,M,,*71
2017-12-01 15:57:51 1512161871.407458: $GPRMC,205752,A,3946.9579,N,08404.9860,W,0.0000,0.000,011217,,*39
2017-12-01 15:57:51 1512161871.407520: $GPGSA,A,3,1,10,12,14,18,22,25,31,32,11,24,138,2.0,0.8,1.5*3B
2017-12-01 15:57:52 1512161872.742614: $GPGSV,3,1,12,01,17,313,37,10,64,138,48,12,25,066,41,14,58,300,44*75
2017-12-01 15:57:52 1512161872.742802: $GPGSV,3,2,12,18,32,138,46,22,07,312,37,25,33,109,45,31,41,214,49*7B
2017-12-01 15:57:52 1512161872.742869: $GPGSV,3,3,12,32,69,345,46,11,11,295,29,24,09,046,30,138,38,213,45*4F
2017-12-01 15:57:52 1512161872.856171: $GPZDA,205753.00,01,12,2017,00,00*66
2017-12-01 15:57:52 1512161872.856348: $GPGGA,205753,3946.9579,N,08404.9860,W,2,12,0.80,299.45,M,-33.324,M,,*70
2017-12-01 15:57:52 1512161872.856414: $GPRMC,205753,A,3946.9579,N,08404.9860,W,0.0000,0.000,011217,,*38
2017-12-01 15:57:52 1512161872.856475: $GPGSA,A,3,1,10,12,14,18,22,25,31,32,11,24,138,2.0,0.8,1.5*3B
