2017-12-01 16:32:49 1512163969.106903: {"class":"VERSION","release":"3.16","rev":"3.16-4","proto_major":3,"proto_minor":11}
2017-12-01 16:32:49 1512163969.107332: {"class":"DEVICES","devices":[{"class":"DEVICE","path":"/dev/ttyUSB0","driver":"SiRF","subtype":"9\u0006GSD4e_4.1.2-P1_RPATCH.05-F-GPS-4R-1510281 11/03/2015 307","activated":"2017-12-01T21:32:48.532Z","flags":1,"native":1,"bps":4800,"parity":"N","stopbits":1,"cycle":1.00}]}
2017-12-01 16:32:49 1512163969.107456: {"class":"WATCH","enable":true,"json":false,"nmea":true,"raw":0,"scaled":false,"timing":false,"split24":false,"pps":false}
2017-12-01 16:32:49 1512163969.378149: $GPZDA,213250.00,01,12,2017,00,00*67
2017-12-01 16:32:49 1512163969.378339: $GPGGA,213250,3946.9629,N,08404.9729,W,2,11,1.00,299.24,M,-33.324,M,,*78
2017-12-01 16:32:49 1512163969.378407: $GPRMC,213250,A,3946.9629,N,08404.9729,W,0.0000,0.000,011217,,*3D
2017-12-01 16:32:49 1512163969.378470: $GPGSA,A,3,1,10,11,14,22,31,32,26,12,25,138,,2.0,1.0,1.5*39
2017-12-01 16:32:50 1512163970.712547: $GPGSV,3,1,12,01,21,300,40,10,47,148,44,11,08,282,25,14,66,328,45*78
2017-12-01 16:32:50 1512163970.712730: $GPGSV,3,2,12,22,20,312,42,25,40,090,00,31,57,226,50,32,68,030,48*76
2017-12-01 16:32:50 1512163970.712799: $GPGSV,3,3,12,26,03,183,36,12,22,049,22,18,17,144,00,138,38,213,35*45
2017-12-01 16:32:50 1512163970.825946: $GPZDA,213251.00,01,12,2017,00,00*66
2017-12-01 16:32:50 1512163970.826106: $GPGGA,213251,3946.9629,N,08404.9729,W,2,10,1.00,299.24,M,-33.324,M,,*78
2017-12-01 16:32:50 1512163970.826174: $GPRMC,213251,A,3946.9629,N,08404.9729,W,0.0000,0.000,011217,,*3C
2017-12-01 16:32:50 1512163970.826239: $GPGSA,A,3,1,10,11,14,22,31,32,26,12,138,,,2.0,1.0,1.5*3E
2017-12-01 16:32:51 1512163971.451510: $GPZDA,213252.00,01,12,2017,00,00*65
2017-12-01 16:32:51 1512163971.451694: $GPGGA,213252,3946.9629,N,08404.9729,W,2,10,1.00,299.24,M,-33.324,M,,*7B
2017-12-01 16:32:51 1512163971.451761: $GPRMC,213252,A,3946.9629,N,08404.9729,W,0.0000,0.000,011217,,*3F
2017-12-01 16:32:51 1512163971.451824: $GPGSA,A,3,1,10,11,14,22,31,32,26,12,138,,,2.0,1.0,1.5*3E
2017-12-01 16:32:52 1512163972.400847: $GPZDA,213253.00,01,12,2017,00,00*64
2017-12-01 16:32:52 1512163972.401018: $GPGGA,213253,3946.9629,N,08404.9729,W,2,10,1.00,299.24,M,-33.324,M,,*7A
2017-12-01 16:32:52 1512163972.401086: $GPRMC,213253,A,3946.9629,N,08404.9729,W,0.0000,0.000,011217,,*3E
2017-12-01 16:32:52 1512163972.401147: $GPGSA,A,3,1,10,11,14,22,31,32,26,12,138,,,2.0,1.0,1.5*3E
2017-12-01 16:32:53 1512163973.736627: $GPGSV,3,1,12,01,21,300,40,10,47,148,44,11,08,282,27,14,66,328,45*7A
2017-12-01 16:32:53 1512163973.736810: $GPGSV,3,2,12,22,20,312,41,25,40,090,00,31,57,226,51,32,68,030,49*75
2017-12-01 16:32:53 1512163973.736876: $GPGSV,3,3,12,26,03,183,36,12,22,049,23,18,17,144,00,138,38,213,38*49
2017-12-01 16:32:53 1512163973.850136: $GPZDA,213254.00,01,12,2017,00,00*63
2017-12-01 16:32:53 1512163973.850320: $GPGGA,213254,3946.9629,N,08404.9729,W,2,10,1.00,299.24,M,-33.324,M,,*7D
2017-12-01 16:32:53 1512163973.850387: $GPRMC,213254,A,3946.9629,N,08404.9729,W,0.0000,0.000,011217,,*39
2017-12-01 16:32:53 1512163973.850451: $GPGSA,A,3,1,10,11,14,22,31,32,26,12,138,,,2.0,1.0,1.5*3E
2017-12-01 16:32:54 1512163974.399998: $GPZDA,213255.00,01,12,2017,00,00*62
2017-12-01 16:32:54 1512163974.400182: $GPGGA,213255,3946.9629,N,08404.9729,W,2,10,1.00,299.24,M,-33.324,M,,*7C
2017-12-01 16:32:54 1512163974.400253: $GPRMC,213255,A,3946.9629,N,08404.9729,W,0.0000,0.000,011217,,*38
2017-12-01 16:32:54 1512163974.400320: $GPGSA,A,3,1,10,11,14,22,31,32,26,12,138,,,2.0,1.0,1.5*3E
2017-12-01 16:32:55 1512163975.378413: $GPZDA,213256.00,01,12,2017,00,00*61
2017-12-01 16:32:55 1512163975.378578: $GPGGA,213256,3946.9629,N,08404.9729,W,2,10,1.80,299.24,M,-33.324,M,,*77
2017-12-01 16:32:55 1512163975.378647: $GPRMC,213256,A,3946.9629,N,08404.9729,W,0.0000,0.000,011217,,*3B
2017-12-01 16:32:55 1512163975.378708: $GPGSA,A,3,1,10,11,14,22,31,32,26,12,138,,,2.0,1.8,1.5*36
2017-12-01 16:32:56 1512163976.719698: $GPGSV,3,1,12,01,21,300,40,10,47,148,44,11,08,282,35,14,66,328,45*79
2017-12-01 16:32:56 1512163976.719959: $GPGSV,3,2,12,22,20,312,41,12,22,049,20,31,57,226,50,32,68,030,49*72
2017-12-01 16:32:56 1512163976.720030: $GPGSV,3,3,12,26,03,183,36,18,17,144,15,25,40,090,03,138,38,213,40*44
2017-12-01 16:32:56 1512163976.831759: $GPZDA,213257.00,01,12,2017,00,00*60
2017-12-01 16:32:56 1512163976.831921: $GPGGA,213257,3946.9629,N,08404.9729,W,2,09,1.80,299.24,M,-33.324,M,,*7E
2017-12-01 16:32:56 1512163976.831985: $GPRMC,213257,A,3946.9629,N,08404.9729,W,0.0000,0.000,011217,,*3A
2017-12-01 16:32:56 1512163976.832048: $GPGSA,A,3,1,10,11,14,22,31,32,26,138,,,,2.0,1.8,1.5*35
2017-12-01 16:32:57 1512163977.382546: $GPZDA,213258.00,01,12,2017,00,00*6F
2017-12-01 16:32:57 1512163977.382721: $GPGGA,213258,3946.9629,N,08404.9729,W,2,09,1.00,299.24,M,-33.324,M,,*79
2017-12-01 16:32:57 1512163977.382789: $GPRMC,213258,A,3946.9629,N,08404.9729,W,0.0000,0.000,011217,,*35
2017-12-01 16:32:57 1512163977.382851: $GPGSA,A,3,1,10,11,14,22,31,32,26,138,,,,2.0,1.0,1.5*3D
2017-12-01 16:32:58 1512163978.383372: $GPZDA,213259.00,01,12,2017,00,00*6E
2017-12-01 16:32:58 1512163978.383548: $GPGGA,213259,3946.9629,N,08404.9729,W,2,09,0.80,299.24,M,-33.324,M,,*71
2017-12-01 16:32:58 1512163978.383615: $GPRMC,213259,A,3946.9629,N,08404.9729,W,0.0000,0.000,011217,,*34
2017-12-01 16:32:58 1512163978.383677: $GPGSA,A,3,1,10,11,14,22,31,32,26,138,,,,2.0,0.8,1.5*34
2017-12-01 16:32:59 1512163979.717878: $GPGSV,3,1,12,01,21,300,40,10,47,148,44,11,08,282,35,14,66,328,44*78
2017-12-01 16:32:59 1512163979.718060: $GPGSV,3,2,12,22,20,312,41,12,22,049,20,31,57,226,50,32,68,030,49*72
2017-12-01 16:32:59 1512163979.718126: $GPGSV,3,3,12,26,03,183,36,18,17,144,19,25,40,090,11,138,38,213,39*45
2017-12-01 16:32:59 1512163979.831173: $GPZDA,213300.00,01,12,2017,00,00*63
2017-12-01 16:32:59 1512163979.831317: $GPGGA,213300,3946.9629,N,08404.9729,W,2,11,0.80,299.24,M,-33.324,M,,*75
2017-12-01 16:32:59 1512163979.831434: $GPRMC,213300,A,3946.9629,N,08404.9729,W,0.0000,0.000,011217,,*39
2017-12-01 16:32:59 1512163979.831498: $GPGSA,A,3,1,10,11,14,22,12,31,32,26,18,138,,2.0,0.8,1.5*3E
2017-12-01 16:33:00 1512163980.381148: $GPZDA,213301.00,01,12,2017,00,00*62
2017-12-01 16:33:00 1512163980.385575: $GPGGA,213301,3946.9629,N,08404.9729,W,2,11,0.80,299.24,M,-33.324,M,,*74
2017-12-01 16:33:00 1512163980.385701: $GPRMC,213301,A,3946.9629,N,08404.9729,W,0.0000,0.000,011217,,*38
2017-12-01 16:33:00 1512163980.385767: $GPGSA,A,3,1,10,11,14,22,12,31,32,26,18,138,,2.0,0.8,1.5*3E
2017-12-01 16:33:01 1512163981.382626: $GPZDA,213302.00,01,12,2017,00,00*61
2017-12-01 16:33:01 1512163981.382789: $GPGGA,213302,3946.9629,N,08404.9729,W,2,11,0.80,299.24,M,-33.324,M,,*77
2017-12-01 16:33:01 1512163981.382856: $GPRMC,213302,A,3946.9629,N,08404.9729,W,0.0000,0.000,011217,,*3B
2017-12-01 16:33:01 1512163981.382919: $GPGSA,A,3,1,10,11,14,22,12,31,32,26,18,138,,2.0,0.8,1.5*3E
2017-12-01 16:33:02 1512163982.711973: $GPGSV,3,1,12,01,21,300,40,10,47,148,44,11,08,282,35,14,66,328,44*78
2017-12-01 16:33:02 1512163982.712165: $GPGSV,3,2,12,22,20,312,41,12,22,049,19,31,57,226,50,32,68,030,48*79
2017-12-01 16:33:02 1512163982.712233: $GPGSV,3,3,12,26,03,183,38,18,17,144,20,25,40,090,00,138,38,213,38*40
2017-12-01 16:33:02 1512163982.825480: $GPZDA,213303.00,01,12,2017,00,00*60
2017-12-01 16:33:02 1512163982.825650: $GPGGA,213303,3946.9629,N,08404.9729,W,2,11,0.80,299.24,M,-33.324,M,,*76
2017-12-01 16:33:02 1512163982.825717: $GPRMC,213303,A,3946.9629,N,08404.9729,W,0.0000,0.000,011217,,*3A
2017-12-01 16:33:02 1512163982.825779: $GPGSA,A,3,1,10,11,14,22,12,31,32,26,18,138,,2.0,0.8,1.5*3E
2017-12-01 16:33:03 1512163983.382677: $GPZDA,213304.00,01,12,2017,00,00*67
2017-12-01 16:33:03 1512163983.382850: $GPGGA,213304,3946.9629,N,08404.9729,W,2,11,0.80,299.24,M,-33.324,M,,*71
2017-12-01 16:33:03 1512163983.382920: $GPRMC,213304,A,3946.9629,N,08404.9729,W,0.0000,0.000,011217,,*3D
2017-12-01 16:33:03 1512163983.382981: $GPGSA,A,3,1,10,11,14,22,12,31,32,26,18,138,,2.0,0.8,1.5*3E
2017-12-01 16:33:04 1512163984.384900: $GPZDA,213305.00,01,12,2017,00,00*66
2017-12-01 16:33:04 1512163984.385138: $GPGGA,213305,3946.9629,N,08404.9729,W,2,11,0.80,299.24,M,-33.324,M,,*70
2017-12-01 16:33:04 1512163984.385211: $GPRMC,213305,A,3946.9629,N,08404.9729,W,0.0000,0.000,011217,,*3C
2017-12-01 16:33:04 1512163984.385277: $GPGSA,A,3,1,10,11,14,22,12,31,32,26,18,138,,2.0,0.8,1.5*3E
2017-12-01 16:33:05 1512163985.717886: $GPGSV,3,1,12,01,21,300,40,10,47,148,44,11,08,282,35,14,66,328,44*78
2017-12-01 16:33:05 1512163985.722112: $GPGSV,3,2,12,22,20,312,42,12,22,049,19,31,57,226,50,32,68,030,48*7A
2017-12-01 16:33:05 1512163985.722235: $GPGSV,3,3,12,26,03,183,37,18,17,144,20,25,40,090,00,138,38,213,40*40
2017-12-01 16:33:05 1512163985.831186: $GPZDA,213306.00,01,12,2017,00,00*65
2017-12-01 16:33:05 1512163985.831400: $GPGGA,213306,3946.9629,N,08404.9729,W,2,11,0.80,299.24,M,-33.324,M,,*73
2017-12-01 16:33:05 1512163985.831476: $GPRMC,213306,A,3946.9629,N,08404.9729,W,0.0000,0.000,011217,,*3F
2017-12-01 16:33:05 1512163985.831538: $GPGSA,A,3,1,10,11,14,22,12,31,32,26,18,138,,2.0,0.8,1.5*3E
2017-12-01 16:33:06 1512163986.456654: $GPZDA,213307.00,01,12,2017,00,00*64
2017-12-01 16:33:06 1512163986.456824: $GPGGA,213307,3946.9629,N,08404.9729,W,2,11,0.80,299.24,M,-33.324,M,,*72
2017-12-01 16:33:06 1512163986.456891: $GPRMC,213307,A,3946.9629,N,08404.9729,W,0.0000,0.000,011217,,*3E
2017-12-01 16:33:06 1512163986.456952: $GPGSA,A,3,1,10,11,14,22,12,31,32,26,18,138,,2.0,0.8,1.5*3E
2017-12-01 16:33:07 1512163987.385043: $GPZDA,213308.00,01,12,2017,00,00*6B
2017-12-01 16:33:07 1512163987.385214: $GPGGA,213308,3946.9629,N,08404.9729,W,2,11,0.80,299.24,M,-33.324,M,,*7D
2017-12-01 16:33:07 1512163987.385280: $GPRMC,213308,A,3946.9629,N,08404.9729,W,0.0000,0.000,011217,,*31
2017-12-01 16:33:07 1512163987.385341: $GPGSA,A,3,1,10,11,14,22,12,31,32,26,18,138,,2.0,0.8,1.5*3E
2017-12-01 16:33:08 1512163988.714446: $GPGSV,3,1,12,01,21,300,40,10,47,148,44,11,08,282,35,14,66,328,44*78
2017-12-01 16:33:08 1512163988.714634: $GPGSV,3,2,12,22,20,312,42,12,22,049,18,31,57,226,50,32,68,030,48*7B
2017-12-01 16:33:08 1512163988.714701: $GPGSV,3,3,12,26,03,183,37,18,17,144,21,25,40,090,29,138,38,213,40*4A
2017-12-01 16:33:08 1512163988.827781: $GPZDA,213309.00,01,12,2017,00,00*6A
2017-12-01 16:33:08 1512163988.827929: $GPGGA,213309,3946.9629,N,08404.9729,W,2,12,0.80,299.24,M,-33.324,M,,*7F
2017-12-01 16:33:08 1512163988.827996: $GPRMC,213309,A,3946.9629,N,08404.9729,W,0.0000,0.000,011217,,*30
2017-12-01 16:33:08 1512163988.828057: $GPGSA,A,3,1,10,11,14,22,12,31,32,26,18,25,138,2.0,0.8,1.5*39
