2017-12-31 17:51:08 1514760668.557868: {"class":"VERSION","release":"3.16","rev":"3.16-4","proto_major":3,"proto_minor":11}
2017-12-31 17:51:08 1514760668.558240: {"class":"DEVICES","devices":[{"class":"DEVICE","path":"/dev/ttyUSB0","driver":"SiRF","activated":"2017-12-31T22:51:08.479Z","flags":1,"native":1,"bps":4800,"parity":"N","stopbits":1,"cycle":1.00}]}
2017-12-31 17:51:08 1514760668.558356: {"class":"WATCH","enable":true,"json":false,"nmea":true,"raw":0,"scaled":false,"timing":false,"split24":false,"pps":false}
2017-12-31 17:51:09 1514760669.681858: $GPGSV,3,1,12,22,29,219,44,23,46,309,44,09,13,312,42,03,37,241,45*7C
2017-12-31 17:51:09 1514760669.682011: $GPGSV,3,2,12,16,71,192,44,29,09,036,35,14,22,129,23,31,34,069,42*73
2017-12-31 17:51:09 1514760669.682076: $GPGSV,3,3,12,27,15,157,28,32,01,133,19,26,70,058,47,135,22,240,42*41
2017-12-31 17:51:09 1514760669.795328: $GPZDA,225110.00,31,12,2017,00,00*66
2017-12-31 17:51:09 1514760669.795482: $GPGGA,225110,3946.9567,N,08404.9864,W,2,12,0.60,305.31,M,-33.324,M,,*71
2017-12-31 17:51:09 1514760669.795549: $GPRMC,225110,A,3946.9567,N,08404.9864,W,0.0000,0.000,311217,,*33
2017-12-31 17:51:09 1514760669.795609: $GPGSA,A,3,22,23,9,3,16,29,14,31,27,32,26,135,1.7,0.6,1.3*07
2017-12-31 17:51:10 1514760670.420632: $GPZDA,225111.00,31,12,2017,00,00*67
2017-12-31 17:51:10 1514760670.420808: $GPGGA,225111,3946.9567,N,08404.9864,W,2,12,0.60,305.31,M,-33.324,M,,*70
2017-12-31 17:51:10 1514760670.420895: $GPRMC,225111,A,3946.9567,N,08404.9864,W,0.0000,0.000,311217,,*32
2017-12-31 17:51:10 1514760670.420959: $GPGSA,A,3,22,23,9,3,16,29,14,31,27,32,26,135,1.7,0.6,1.3*07
2017-12-31 17:51:11 1514760671.345309: $GPZDA,225112.00,31,12,2017,00,00*64
2017-12-31 17:51:11 1514760671.345466: $GPGGA,225112,3946.9567,N,08404.9864,W,2,12,0.60,305.31,M,-33.324,M,,*73
2017-12-31 17:51:11 1514760671.345533: $GPRMC,225112,A,3946.9567,N,08404.9864,W,0.0000,0.000,311217,,*31
2017-12-31 17:51:11 1514760671.345594: $GPGSA,A,3,22,23,9,3,16,29,14,31,27,32,26,135,1.7,0.6,1.3*07
2017-12-31 17:51:12 1514760672.680941: $GPGSV,3,1,12,22,29,219,44,23,46,309,44,09,13,312,42,03,37,241,45*7C
2017-12-31 17:51:12 1514760672.681138: $GPGSV,3,2,12,16,71,192,43,29,09,036,35,14,22,129,24,31,34,069,42*73
2017-12-31 17:51:12 1514760672.681206: $GPGSV,3,3,12,27,15,157,28,32,01,133,20,26,70,058,48,135,22,240,44*42
2017-12-31 17:51:12 1514760672.794310: $GPZDA,225113.00,31,12,2017,00,00*65
2017-12-31 17:51:12 1514760672.794434: $GPGGA,225113,3946.9567,N,08404.9864,W,2,12,0.60,305.31,M,-33.324,M,,*72
2017-12-31 17:51:12 1514760672.794499: $GPRMC,225113,A,3946.9567,N,08404.9864,W,0.0000,0.000,311217,,*30
2017-12-31 17:51:12 1514760672.794560: $GPGSA,A,3,22,23,9,3,16,29,14,31,27,32,26,135,1.7,0.6,1.3*07
2017-12-31 17:51:13 1514760673.567928: $GPZDA,225114.00,31,12,2017,00,00*62
2017-12-31 17:51:13 1514760673.568125: $GPGGA,225114,3946.9567,N,08404.9864,W,2,12,0.60,305.31,M,-33.324,M,,*75
2017-12-31 17:51:13 1514760673.568193: $GPRMC,225114,A,3946.9567,N,08404.9864,W,0.0000,0.000,311217,,*37
2017-12-31 17:51:13 1514760673.568273: $GPGSA,A,3,22,23,9,3,16,29,14,31,27,32,26,135,1.7,0.6,1.3*07
2017-12-31 17:51:13 1514760673.568334: $GPGBS,225114,2.22,M,3.43,M,7.66,M*3E
2017-12-31 17:51:14 1514760674.346378: $GPZDA,225115.00,31,12,2017,00,00*63
2017-12-31 17:51:14 1514760674.346527: $GPGGA,225115,3946.9567,N,08404.9864,W,2,12,0.60,305.31,M,-33.324,M,,*74
2017-12-31 17:51:14 1514760674.346593: $GPRMC,225115,A,3946.9567,N,08404.9864,W,0.0000,0.000,311217,,*36
2017-12-31 17:51:14 1514760674.346653: $GPGSA,A,3,22,23,9,3,16,29,14,31,27,32,26,135,1.7,0.6,1.3*07
2017-12-31 17:51:14 1514760674.346712: $GPGBS,225115,2.22,M,3.43,M,7.66,M*3F
2017-12-31 17:51:15 1514760675.706322: $GPGSV,3,1,12,22,29,219,45,23,46,309,44,09,13,312,42,03,37,241,45*7D
2017-12-31 17:51:15 1514760675.706511: $GPGSV,3,2,12,16,71,192,44,29,09,036,36,14,22,129,28,31,34,069,42*7B
2017-12-31 17:51:15 1514760675.706598: $GPGSV,3,3,12,27,15,157,28,32,01,133,19,26,70,058,48,135,22,240,44*48
2017-12-31 17:51:15 1514760675.819952: $GPZDA,225116.00,31,12,2017,00,00*60
2017-12-31 17:51:15 1514760675.820193: $GPGGA,225116,3946.9567,N,08404.9864,W,2,12,0.60,305.31,M,-33.324,M,,*77
2017-12-31 17:51:15 1514760675.820282: $GPRMC,225116,A,3946.9567,N,08404.9864,W,0.0000,0.000,311217,,*35
2017-12-31 17:51:15 1514760675.820344: $GPGSA,A,3,22,23,9,3,16,29,14,31,27,32,26,135,1.7,0.6,1.3*07
2017-12-31 17:51:16 1514760676.345819: $GPZDA,225117.00,31,12,2017,00,00*61
2017-12-31 17:51:16 1514760676.345988: $GPGGA,225117,3946.9567,N,08404.9864,W,2,12,0.60,305.31,M,-33.324,M,,*76
2017-12-31 17:51:16 1514760676.346055: $GPRMC,225117,A,3946.9567,N,08404.9864,W,0.0000,0.000,311217,,*34
2017-12-31 17:51:16 1514760676.346145: $GPGSA,A,3,22,23,9,3,16,29,14,31,27,32,26,135,1.7,0.6,1.3*07
2017-12-31 17:51:17 1514760677.345449: $GPZDA,225118.00,31,12,2017,00,00*6E
2017-12-31 17:51:17 1514760677.345615: $GPGGA,225118,3946.9567,N,08404.9864,W,2,12,0.60,305.31,M,-33.324,M,,*79
2017-12-31 17:51:17 1514760677.345681: $GPRMC,225118,A,3946.9567,N,08404.9864,W,0.0000,0.000,311217,,*3B
2017-12-31 17:51:17 1514760677.345742: $GPGSA,A,3,22,23,9,3,16,29,14,31,27,32,26,135,1.7,0.6,1.3*07
