2017-11-16 17:22:27 1510870947.190630: {"class":"VERSION","release":"3.17","rev":"3.17","proto_major":3,"proto_minor":12}
2017-11-16 17:22:27 1510870947.191359: {"class":"DEVICES","devices":[{"class":"DEVICE","path":"/dev/ttyUSB0","driver":"SiRF","subtype":"9\u0006GSD4e_4.1.2-P1_RPATCH.05-F-GPS-4R-1510281 11/03/2015 307","activated":"2017-11-16T22:22:26.536Z","flags":1,"native":1,"bps":4800,"parity":"N","stopbits":1,"cycle":1.00}]}
2017-11-16 17:22:27 1510870947.191491: {"class":"WATCH","enable":true,"json":false,"nmea":true,"raw":0,"scaled":false,"timing":false,"split24":false,"pps":false}
2017-11-16 17:22:27 1510870947.737756: $GPGSV,3,1,12,01,20,304,37,10,53,145,48,22,15,312,39,12,23,054,50*7B
2017-11-16 17:22:27 1510870947.738024: $GPGSV,3,2,12,14,64,318,47,18,22,142,39,24,01,048,09,11,09,286,37*72
2017-11-16 17:22:27 1510870947.738102: $GPGSV,3,3,12,25,38,096,48,31,51,222,49,32,69,013,49,138,38,213,44*4C
2017-11-16 17:22:27 1510870947.850919: $GPZDA,222226.00,16,11,2017,00,00*61
2017-11-16 17:22:27 1510870947.851080: $GPGGA,222226,3946.9574,N,08404.9830,W,2,12,0.80,308.39,M,-33.324,M,,*78
2017-11-16 17:22:27 1510870947.851159: $GPRMC,222226,A,3946.9574,N,08404.9830,W,0.0000,0.000,161117,,*37
2017-11-16 17:22:27 1510870947.851217: $GPGSA,A,3,1,10,22,12,14,18,24,11,25,31,32,138,1.6,0.8,1.3*38
2017-11-16 17:22:28 1510870948.415514: $GPZDA,222227.00,16,11,2017,00,00*60
2017-11-16 17:22:28 1510870948.415690: $GPGGA,222227,3946.9574,N,08404.9830,W,2,12,0.80,308.39,M,-33.324,M,,*79
2017-11-16 17:22:28 1510870948.415772: $GPRMC,222227,A,3946.9574,N,08404.9830,W,0.0000,0.000,161117,,*36
2017-11-16 17:22:28 1510870948.415834: $GPGSA,A,3,1,10,22,12,14,18,24,11,25,31,32,138,1.6,0.8,1.3*38
2017-11-16 17:22:29 1510870949.421331: $GPZDA,222228.00,16,11,2017,00,00*6F
2017-11-16 17:22:29 1510870949.421512: $GPGGA,222228,3946.9574,N,08404.9830,W,2,12,0.80,308.39,M,-33.324,M,,*76
2017-11-16 17:22:29 1510870949.421576: $GPRMC,222228,A,3946.9574,N,08404.9830,W,0.0000,0.000,161117,,*39
2017-11-16 17:22:29 1510870949.421635: $GPGSA,A,3,1,10,22,12,14,18,24,11,25,31,32,138,1.6,0.8,1.3*38
2017-11-16 17:22:30 1510870950.757081: $GPGSV,3,1,12,01,20,304,37,10,53,145,49,22,15,312,39,12,23,054,50*7A
2017-11-16 17:22:30 1510870950.757300: $GPGSV,3,2,12,14,64,318,47,18,22,142,39,24,01,048,10,11,09,286,38*75
2017-11-16 17:22:30 1510870950.757364: $GPGSV,3,3,12,25,38,096,48,31,51,222,50,32,69,013,49,138,38,213,44*44
2017-11-16 17:22:30 1510870950.870434: $GPZDA,222229.00,16,11,2017,00,00*6E
2017-11-16 17:22:30 1510870950.870597: $GPGGA,222229,3946.9574,N,08404.9830,W,2,12,0.80,308.39,M,-33.324,M,,*77
2017-11-16 17:22:30 1510870950.870660: $GPRMC,222229,A,3946.9574,N,08404.9830,W,0.0000,0.000,161117,,*38
2017-11-16 17:22:30 1510870950.870718: $GPGSA,A,3,1,10,22,12,14,18,24,11,25,31,32,138,1.6,0.8,1.3*38
2017-11-16 17:22:31 1510870951.495793: $GPZDA,222230.00,16,11,2017,00,00*66
2017-11-16 17:22:31 1510870951.495982: $GPGGA,222230,3946.9574,N,08404.9830,W,2,12,0.80,308.39,M,-33.324,M,,*7F
2017-11-16 17:22:31 1510870951.496048: $GPRMC,222230,A,3946.9574,N,08404.9830,W,0.0000,0.000,161117,,*30
2017-11-16 17:22:31 1510870951.496129: $GPGSA,A,3,1,10,22,12,14,18,24,11,25,31,32,138,1.6,0.8,1.3*38
2017-11-16 17:22:32 1510870952.401618: $GPZDA,222231.00,16,11,2017,00,00*67
2017-11-16 17:22:32 1510870952.401802: $GPGGA,222231,3946.9574,N,08404.9830,W,2,12,0.80,308.39,M,-33.324,M,,*7E
2017-11-16 17:22:32 1510870952.401868: $GPRMC,222231,A,3946.9574,N,08404.9830,W,0.0000,0.000,161117,,*31
2017-11-16 17:22:32 1510870952.401928: $GPGSA,A,3,1,10,22,12,14,18,24,11,25,31,32,138,1.6,0.8,1.3*38
2017-11-16 17:22:33 1510870953.756261: $GPGSV,3,1,12,01,20,304,37,10,53,145,49,22,15,312,39,12,23,054,50*7A
2017-11-16 17:22:33 1510870953.756537: $GPGSV,3,2,12,14,64,318,47,18,22,142,39,24,01,048,10,11,09,286,39*74
2017-11-16 17:22:33 1510870953.756657: $GPGSV,3,3,12,25,38,096,48,31,51,222,50,32,69,013,48,138,38,213,44*45
2017-11-16 17:22:33 1510870953.869489: $GPZDA,222232.00,16,11,2017,00,00*64
2017-11-16 17:22:33 1510870953.869659: $GPGGA,222232,3946.9574,N,08404.9830,W,2,12,0.80,308.39,M,-33.324,M,,*7D
2017-11-16 17:22:33 1510870953.869792: $GPRMC,222232,A,3946.9574,N,08404.9830,W,0.0000,0.000,161117,,*32
2017-11-16 17:22:33 1510870953.869851: $GPGSA,A,3,1,10,22,12,14,18,24,11,25,31,32,138,1.6,0.8,1.3*38
2017-11-16 17:22:34 1510870954.401598: $GPZDA,222233.00,16,11,2017,00,00*65
2017-11-16 17:22:34 1510870954.401761: $GPGGA,222233,3946.9574,N,08404.9830,W,2,12,0.80,308.39,M,-33.324,M,,*7C
2017-11-16 17:22:34 1510870954.401822: $GPRMC,222233,A,3946.9574,N,08404.9830,W,0.0000,0.000,161117,,*33
2017-11-16 17:22:34 1510870954.401877: $GPGSA,A,3,1,10,22,12,14,18,24,11,25,31,32,138,1.6,0.8,1.3*38
2017-11-16 17:22:35 1510870955.401236: $GPZDA,222234.00,16,11,2017,00,00*62
2017-11-16 17:22:35 1510870955.401405: $GPGGA,222234,3946.9574,N,08404.9830,W,2,12,0.80,308.39,M,-33.324,M,,*7B
2017-11-16 17:22:35 1510870955.401467: $GPRMC,222234,A,3946.9574,N,08404.9830,W,0.0000,0.000,161117,,*34
2017-11-16 17:22:35 1510870955.401524: $GPGSA,A,3,1,10,22,12,14,18,24,11,25,31,32,138,1.6,0.8,1.3*38
2017-11-16 17:22:36 1510870956.737749: $GPGSV,3,1,12,01,20,304,37,10,53,145,49,22,15,312,39,12,23,054,50*7A
2017-11-16 17:22:36 1510870956.737912: $GPGSV,3,2,12,14,64,318,46,18,22,142,39,24,01,048,10,11,09,286,39*75
2017-11-16 17:22:36 1510870956.737972: $GPGSV,3,3,12,25,38,096,48,31,51,222,50,32,69,013,48,138,38,213,44*45
2017-11-16 17:22:36 1510870956.851067: $GPZDA,222235.00,16,11,2017,00,00*63
2017-11-16 17:22:36 1510870956.851255: $GPGGA,222235,3946.9574,N,08404.9830,W,2,12,0.80,308.39,M,-33.324,M,,*7A
2017-11-16 17:22:36 1510870956.851318: $GPRMC,222235,A,3946.9574,N,08404.9830,W,0.0000,0.000,161117,,*35
2017-11-16 17:22:36 1510870956.851375: $GPGSA,A,3,1,10,22,12,14,18,24,11,25,31,32,138,1.6,0.8,1.3*38
