2017-12-01 18:24:16 1512170656.827616: {"class":"VERSION","release":"3.16","rev":"3.16-4","proto_major":3,"proto_minor":11}
2017-12-01 18:24:16 1512170656.828010: {"class":"DEVICES","devices":[{"class":"DEVICE","path":"/dev/ttyUSB0","driver":"SiRF","subtype":"9\u0006GSD4e_4.1.2-P1_RPATCH.05-F-GPS-4R-1510281 11/03/2015 307","activated":"2017-12-01T23:24:16.450Z","flags":1,"native":1,"bps":4800,"parity":"N","stopbits":1,"cycle":1.00}]}
2017-12-01 18:24:16 1512170656.828140: {"class":"WATCH","enable":true,"json":false,"nmea":true,"raw":0,"scaled":false,"timing":false,"split24":false,"pps":false}
2017-12-01 18:24:17 1512170657.057122: $GPZDA,232417.72,01,12,2017,00,00*64
2017-12-01 18:24:17 1512170657.057307: $GPGGA,232417,3946.9736,N,08404.9846,W,1,11,0.80,299.00,M,-33.325,M,,*7A
2017-12-01 18:24:17 1512170657.057375: $GPRMC,232417,A,3946.9736,N,08404.9846,W,0.6708,130.717,011217,,*38
2017-12-01 18:24:17 1512170657.057438: $GPGSA,A,3,1,3,14,16,22,23,25,26,31,32,138,,2.0,0.8,1.5*07
2017-12-01 18:24:18 1512170658.138744: $GPZDA,232418.41,01,12,2017,00,00*6B
2017-12-01 18:24:18 1512170658.138916: $GPGGA,232418,3946.9735,N,08404.9846,W,1,11,0.80,297.60,M,-33.325,M,,*7E
2017-12-01 18:24:18 1512170658.139003: $GPRMC,232418,A,3946.9735,N,08404.9846,W,0.2710,100.223,011217,,*38
2017-12-01 18:24:18 1512170658.139087: $GPGSA,A,3,1,3,14,16,22,23,25,26,31,32,138,,2.0,0.8,1.5*07
2017-12-01 18:24:18 1512170658.139163: $GPGBS,232418,10.70,M,15.43,M,35.28,M*09
2017-12-01 18:24:19 1512170659.281329: $GPGSV,3,1,12,01,05,252,42,03,40,298,47,14,55,093,43,16,24,189,41*74
2017-12-01 18:24:19 1512170659.281546: $GPGSV,3,2,12,22,50,270,45,23,11,301,42,25,17,040,37,26,54,171,46*7E
2017-12-01 18:24:19 1512170659.281613: $GPGSV,3,3,12,31,67,027,47,32,35,108,43,29,11,072,05,138,38,213,00*4C
2017-12-01 18:24:19 1512170659.396857: $GPZDA,232419.00,01,12,2017,00,00*6F
2017-12-01 18:24:19 1512170659.397493: $GPGGA,232419,3946.9735,N,08404.9846,W,1,10,0.80,297.60,M,-33.325,M,,*7E
2017-12-01 18:24:19 1512170659.397625: $GPRMC,232419,A,3946.9735,N,08404.9846,W,0.1567,9.200,011217,,*31
2017-12-01 18:24:19 1512170659.397745: $GPGSA,A,3,1,3,14,16,22,23,25,26,31,32,,,2.0,0.8,1.5*3D
2017-12-01 18:24:19 1512170659.845520: $GPZDA,232420.00,01,12,2017,00,00*65
2017-12-01 18:24:19 1512170659.845690: $GPGGA,232420,3946.9731,N,08404.9846,W,1,10,0.80,296.96,M,-33.325,M,,*78
2017-12-01 18:24:19 1512170659.845757: $GPRMC,232420,A,3946.9731,N,08404.9846,W,0.2710,100.223,011217,,*37
2017-12-01 18:24:19 1512170659.845818: $GPGSA,A,3,1,3,14,16,22,23,25,26,31,32,,,2.0,0.8,1.5*3D
2017-12-01 18:24:20 1512170660.347717: $GPZDA,232421.00,01,12,2017,00,00*64
2017-12-01 18:24:20 1512170660.347889: $GPGGA,232421,3946.9731,N,08404.9846,W,1,10,0.80,296.96,M,-33.325,M,,*79
2017-12-01 18:24:20 1512170660.347956: $GPRMC,232421,A,3946.9731,N,08404.9846,W,0.0000,0.000,011217,,*30
2017-12-01 18:24:20 1512170660.348021: $GPGSA,A,3,1,3,14,16,22,23,25,26,31,32,,,2.0,0.8,1.5*3D
2017-12-01 18:24:21 1512170661.682912: $GPGSV,3,1,12,01,05,252,42,03,40,298,48,14,55,093,43,16,24,189,41*7B
2017-12-01 18:24:21 1512170661.685636: $GPGSV,3,2,12,22,50,270,45,23,11,301,42,25,17,040,40,26,54,171,46*7E
2017-12-01 18:24:21 1512170661.685746: $GPGSV,3,3,12,31,67,027,47,32,35,108,43,29,11,072,00,138,38,213,47*4A
2017-12-01 18:24:21 1512170661.796540: $GPZDA,232422.00,01,12,2017,00,00*67
2017-12-01 18:24:21 1512170661.796717: $GPGGA,232422,3946.9731,N,08404.9846,W,1,11,0.80,296.96,M,-33.325,M,,*7B
2017-12-01 18:24:21 1512170661.796786: $GPRMC,232422,A,3946.9731,N,08404.9846,W,0.0000,0.000,011217,,*33
2017-12-01 18:24:21 1512170661.796849: $GPGSA,A,3,1,3,14,16,22,23,25,26,31,32,138,,2.0,0.8,1.5*07
2017-12-01 18:24:22 1512170662.348362: $GPZDA,232423.00,01,12,2017,00,00*66
2017-12-01 18:24:22 1512170662.348537: $GPGGA,232423,3946.9731,N,08404.9846,W,1,11,0.80,296.96,M,-33.325,M,,*7A
2017-12-01 18:24:22 1512170662.348604: $GPRMC,232423,A,3946.9731,N,08404.9846,W,0.0000,0.000,011217,,*32
2017-12-01 18:24:22 1512170662.348665: $GPGSA,A,3,1,3,14,16,22,23,25,26,31,32,138,,2.0,0.8,1.5*07
2017-12-01 18:24:23 1512170663.346743: $GPZDA,232424.00,01,12,2017,00,00*61
2017-12-01 18:24:23 1512170663.346916: $GPGGA,232424,3946.9726,N,08404.9839,W,1,11,0.80,296.40,M,-33.325,M,,*78
2017-12-01 18:24:23 1512170663.347009: $GPRMC,232424,A,3946.9726,N,08404.9839,W,0.0000,0.000,011217,,*3B
2017-12-01 18:24:23 1512170663.347071: $GPGSA,A,3,1,3,14,16,22,23,25,26,31,32,138,,2.0,0.8,1.5*07
2017-12-01 18:24:23 1512170663.347148: $GPGBS,232424,10.70,M,15.43,M,35.28,M*06
2017-12-01 18:24:24 1512170664.683596: $GPGSV,3,1,12,01,05,252,42,03,40,298,48,14,55,093,44,16,24,189,41*7C
2017-12-01 18:24:24 1512170664.683777: $GPGSV,3,2,12,22,50,270,45,23,11,301,42,25,17,040,39,26,54,171,46*70
2017-12-01 18:24:24 1512170664.683844: $GPGSV,3,3,12,31,67,027,46,32,35,108,38,29,11,072,00,138,38,213,46*46
2017-12-01 18:24:24 1512170664.797299: $GPZDA,232425.00,01,12,2017,00,00*60
2017-12-01 18:24:24 1512170664.797467: $GPGGA,232425,3946.9726,N,08404.9839,W,1,11,0.80,296.40,M,-33.325,M,,*79
2017-12-01 18:24:24 1512170664.797533: $GPRMC,232425,A,3946.9726,N,08404.9839,W,0.0000,0.000,011217,,*3A
2017-12-01 18:24:24 1512170664.797594: $GPGSA,A,3,1,3,14,16,22,23,25,26,31,32,138,,2.0,0.8,1.5*07
2017-12-01 18:24:25 1512170665.347796: $GPZDA,232426.00,01,12,2017,00,00*63
2017-12-01 18:24:25 1512170665.347988: $GPGGA,232426,3946.9726,N,08404.9839,W,1,11,0.80,296.40,M,-33.325,M,,*7A
2017-12-01 18:24:25 1512170665.348056: $GPRMC,232426,A,3946.9726,N,08404.9839,W,0.0000,0.000,011217,,*39
2017-12-01 18:24:25 1512170665.348136: $GPGSA,A,3,1,3,14,16,22,23,25,26,31,32,138,,2.0,0.8,1.5*07
2017-12-01 18:24:26 1512170666.350647: $GPZDA,232427.00,01,12,2017,00,00*62
2017-12-01 18:24:26 1512170666.350833: $GPGGA,232427,3946.9726,N,08404.9839,W,1,11,0.80,296.40,M,-33.325,M,,*7B
2017-12-01 18:24:26 1512170666.350963: $GPRMC,232427,A,3946.9726,N,08404.9839,W,0.0000,0.000,011217,,*38
2017-12-01 18:24:26 1512170666.351028: $GPGSA,A,3,1,3,14,16,22,23,25,26,31,32,138,,2.0,0.8,1.5*07
2017-12-01 18:24:27 1512170667.687639: $GPGSV,3,1,12,01,05,252,42,03,40,298,48,14,55,093,44,16,24,189,41*7C
2017-12-01 18:24:27 1512170667.687823: $GPGSV,3,2,12,22,50,270,45,23,11,301,42,25,17,040,40,26,54,171,47*7F
2017-12-01 18:24:27 1512170667.687890: $GPGSV,3,3,12,31,67,027,47,32,35,108,39,29,11,072,07,138,38,213,46*41
2017-12-01 18:24:27 1512170667.801062: $GPZDA,232428.00,01,12,2017,00,00*6D
2017-12-01 18:24:27 1512170667.801231: $GPGGA,232428,3946.9722,N,08404.9839,W,1,11,0.80,295.76,M,-33.325,M,,*76
2017-12-01 18:24:27 1512170667.801298: $GPRMC,232428,A,3946.9722,N,08404.9839,W,0.0000,0.000,011217,,*33
2017-12-01 18:24:27 1512170667.801419: $GPGSA,A,3,1,3,14,16,22,23,25,26,31,32,138,,2.0,0.8,1.5*07
2017-12-01 18:24:28 1512170668.350648: $GPZDA,232429.00,01,12,2017,00,00*6C
2017-12-01 18:24:28 1512170668.350819: $GPGGA,232429,3946.9722,N,08404.9839,W,1,11,0.80,295.76,M,-33.325,M,,*77
2017-12-01 18:24:28 1512170668.350905: $GPRMC,232429,A,3946.9722,N,08404.9839,W,0.0000,0.000,011217,,*32
2017-12-01 18:24:28 1512170668.350970: $GPGSA,A,3,1,3,14,16,22,23,25,26,31,32,138,,2.0,0.8,1.5*07
2017-12-01 18:24:29 1512170669.351645: $GPZDA,232430.00,01,12,2017,00,00*64
2017-12-01 18:24:29 1512170669.351829: $GPGGA,232430,3946.9717,N,08404.9838,W,2,11,0.80,293.71,M,-33.325,M,,*7A
2017-12-01 18:24:29 1512170669.351897: $GPRMC,232430,A,3946.9717,N,08404.9838,W,0.0000,0.000,011217,,*3D
2017-12-01 18:24:29 1512170669.351958: $GPGSA,A,3,1,3,14,16,22,23,25,26,31,32,138,,2.0,0.8,1.5*07
2017-12-01 18:24:30 1512170670.687292: $GPGSV,3,1,12,01,05,252,42,03,40,298,48,14,55,093,44,16,24,189,41*7C
2017-12-01 18:24:30 1512170670.687488: $GPGSV,3,2,12,22,50,270,45,23,11,301,42,25,17,040,40,26,54,171,47*7F
2017-12-01 18:24:30 1512170670.687556: $GPGSV,3,3,12,31,67,027,47,32,35,108,40,29,11,072,00,138,38,213,46*48
2017-12-01 18:24:30 1512170670.800656: $GPZDA,232431.00,01,12,2017,00,00*65
2017-12-01 18:24:30 1512170670.800824: $GPGGA,232431,3946.9714,N,08404.9839,W,2,11,0.80,294.48,M,-33.325,M,,*74
2017-12-01 18:24:30 1512170670.800913: $GPRMC,232431,A,3946.9714,N,08404.9839,W,0.0000,0.000,011217,,*3E
2017-12-01 18:24:30 1512170670.801043: $GPGSA,A,3,1,3,14,16,22,23,25,26,31,32,138,,2.0,0.8,1.5*07
2017-12-01 18:24:31 1512170671.426035: $GPZDA,232432.00,01,12,2017,00,00*66
2017-12-01 18:24:31 1512170671.426195: $GPGGA,232432,3946.9714,N,08404.9839,W,2,11,0.80,294.48,M,-33.325,M,,*77
2017-12-01 18:24:31 1512170671.426261: $GPRMC,232432,A,3946.9714,N,08404.9839,W,0.0000,0.000,011217,,*3D
2017-12-01 18:24:31 1512170671.426323: $GPGSA,A,3,1,3,14,16,22,23,25,26,31,32,138,,2.0,0.8,1.5*07
2017-12-01 18:24:32 1512170672.353084: $GPZDA,232433.00,01,12,2017,00,00*67
2017-12-01 18:24:32 1512170672.353254: $GPGGA,232433,3946.9714,N,08404.9839,W,2,11,0.80,294.48,M,-33.325,M,,*76
2017-12-01 18:24:32 1512170672.353320: $GPRMC,232433,A,3946.9714,N,08404.9839,W,0.0000,0.000,011217,,*3C
2017-12-01 18:24:32 1512170672.353380: $GPGSA,A,3,1,3,14,16,22,23,25,26,31,32,138,,2.0,0.8,1.5*07
2017-12-01 18:24:33 1512170673.687673: $GPGSV,3,1,12,01,05,252,42,03,40,298,48,14,55,093,44,16,24,189,41*7C
2017-12-01 18:24:33 1512170673.687880: $GPGSV,3,2,12,22,50,270,45,23,11,301,43,25,17,040,40,26,54,171,47*7E
2017-12-01 18:24:33 1512170673.687949: $GPGSV,3,3,12,31,67,027,47,32,35,108,40,29,11,072,12,138,38,213,46*4B
2017-12-01 18:24:33 1512170673.801292: $GPZDA,232434.00,01,12,2017,00,00*60
2017-12-01 18:24:33 1512170673.801593: $GPGGA,232434,3946.9714,N,08404.9839,W,2,12,0.80,294.48,M,-33.325,M,,*72
2017-12-01 18:24:33 1512170673.801664: $GPRMC,232434,A,3946.9714,N,08404.9839,W,0.0000,0.000,011217,,*3B
2017-12-01 18:24:33 1512170673.801725: $GPGSA,A,3,1,3,14,16,22,23,25,26,31,32,29,138,2.0,0.8,1.5*0C
2017-12-01 18:24:34 1512170674.345897: $GPZDA,232435.00,01,12,2017,00,00*61
2017-12-01 18:24:34 1512170674.346094: $GPGGA,232435,3946.9718,N,08404.9839,W,2,12,0.80,295.12,M,-33.325,M,,*71
2017-12-01 18:24:34 1512170674.346163: $GPRMC,232435,A,3946.9718,N,08404.9839,W,0.6846,4.197,011217,,*31
2017-12-01 18:24:34 1512170674.346223: $GPGSA,A,3,1,3,14,16,22,23,25,26,31,32,29,138,2.0,0.8,1.5*0C
2017-12-01 18:24:35 1512170675.345205: $GPZDA,232436.00,01,12,2017,00,00*62
2017-12-01 18:24:35 1512170675.345364: $GPGGA,232436,3946.9715,N,08404.9846,W,2,12,0.80,295.80,M,-33.325,M,,*7C
2017-12-01 18:24:35 1512170675.345431: $GPRMC,232436,A,3946.9715,N,08404.9846,W,0.0000,0.000,011217,,*30
2017-12-01 18:24:35 1512170675.345492: $GPGSA,A,3,1,3,14,16,22,23,25,26,31,32,29,138,2.0,0.8,1.5*0C
2017-12-01 18:24:35 1512170675.345551: $GPGBS,232436,2.67,M,3.86,M,8.82,M*30
2017-12-01 18:24:36 1512170676.684259: $GPGSV,3,1,12,01,05,252,41,03,40,298,47,14,55,093,44,16,24,189,41*70
2017-12-01 18:24:36 1512170676.684425: $GPGSV,3,2,12,22,50,270,45,23,11,301,42,25,17,040,40,26,54,171,47*7F
2017-12-01 18:24:36 1512170676.684492: $GPGSV,3,3,12,31,67,027,47,32,35,108,40,29,11,072,11,138,38,213,46*48
2017-12-01 18:24:36 1512170676.797595: $GPZDA,232437.00,01,12,2017,00,00*63
2017-12-01 18:24:36 1512170676.797766: $GPGGA,232437,3946.9715,N,08404.9846,W,2,11,0.80,295.80,M,-33.325,M,,*7E
2017-12-01 18:24:36 1512170676.797851: $GPRMC,232437,A,3946.9715,N,08404.9846,W,0.0000,0.000,011217,,*31
2017-12-01 18:24:36 1512170676.797913: $GPGSA,A,3,1,3,14,16,22,23,25,26,31,32,138,,2.0,0.8,1.5*07
