2018-01-12 20:07:40 1515805660.301803: {"class":"VERSION","release":"3.16","rev":"3.16-4","proto_major":3,"proto_minor":11}
2018-01-12 20:07:40 1515805660.302148: {"class":"DEVICES","devices":[{"class":"DEVICE","path":"/dev/ttyUSB0","driver":"SiRF","subtype":"9\u0006GSD4e_4.1.2-P1_RPATCH.05-F-GPS-4R-1510281 11/03/2015 307","activated":"2018-01-13T01:07:40.254Z","flags":1,"native":1,"bps":4800,"parity":"N","stopbits":1,"cycle":1.00}]}
2018-01-12 20:07:40 1515805660.302264: {"class":"WATCH","enable":true,"json":false,"nmea":true,"raw":0,"scaled":false,"timing":false,"split24":false,"pps":false}
2018-01-12 20:07:41 1515805661.216077: $GPZDA,010742.00,13,01,2018,00,00*6E
2018-01-12 20:07:41 1515805661.216193: $GPGGA,010742,3946.9476,N,08404.9502,W,1,05,1.40,311.40,M,-33.324,M,,*7D
2018-01-12 20:07:41 1515805661.216227: $GPRMC,010742,A,3946.9476,N,08404.9502,W,0.8011,119.090,130118,,*3F
2018-01-12 20:07:41 1515805661.216258: $GPGSA,A,3,8,23,27,7,9,,,,,,,,4.8,1.4,4.6*0B
2018-01-12 20:07:42 1515805662.569146: $GPGSV,3,1,10,08,73,132,18,23,29,189,18,27,47,052,17,07,56,315,18*71
2018-01-12 20:07:42 1515805662.569328: $GPGSV,3,2,10,30,29,306,00,09,48,229,21,28,14,258,11,16,23,060,00*7B
2018-01-12 20:07:42 1515805662.569394: $GPGSV,3,3,10,11,20,168,00,138,38,213,00*44
2018-01-12 20:07:42 1515805662.682573: $GPZDA,010743.00,13,01,2018,00,00*6F
2018-01-12 20:07:42 1515805662.682743: $GPGGA,010743,3946.9475,N,08404.9502,W,1,06,1.40,309.99,M,-33.324,M,,*71
2018-01-12 20:07:42 1515805662.682810: $GPRMC,010743,A,3946.9475,N,08404.9502,W,1.2221,129.597,130118,,*36
2018-01-12 20:07:42 1515805662.682872: $GPGSA,A,3,8,23,27,7,9,28,,,,,,,4.8,1.4,4.6*01
2018-01-12 20:07:43 1515805663.233860: $GPZDA,010744.00,13,01,2018,00,00*68
2018-01-12 20:07:43 1515805663.234046: $GPGGA,010744,3946.9479,N,08404.9501,W,1,06,1.40,309.23,M,-33.324,M,,*78
2018-01-12 20:07:43 1515805663.234113: $GPRMC,010744,A,3946.9479,N,08404.9501,W,0.6309,129.994,130118,,*3F
2018-01-12 20:07:43 1515805663.234175: $GPGSA,A,3,8,23,27,7,9,28,,,,,,,4.8,1.4,4.6*01
2018-01-12 20:07:44 1515805664.234180: $GPZDA,010745.00,13,01,2018,00,00*69
2018-01-12 20:07:44 1515805664.234385: $GPGGA,010745,3946.9481,N,08404.9500,W,1,06,1.40,307.06,M,-33.324,M,,*76
2018-01-12 20:07:44 1515805664.234456: $GPRMC,010745,A,3946.9481,N,08404.9500,W,0.7544,96.100,130118,,*06
2018-01-12 20:07:44 1515805664.234520: $GPGSA,A,3,8,23,27,7,9,28,,,,,,,4.8,1.4,4.6*01
2018-01-12 20:07:45 1515805665.570224: $GPGSV,3,1,10,08,73,132,19,23,29,189,18,27,47,052,18,07,56,315,18*7F
2018-01-12 20:07:45 1515805665.570382: $GPGSV,3,2,10,30,29,306,00,09,48,229,21,28,14,258,11,16,23,060,00*7B
2018-01-12 20:07:45 1515805665.570451: $GPGSV,3,3,10,11,20,168,00,138,38,213,00*44
2018-01-12 20:07:45 1515805665.683731: $GPZDA,010746.00,13,01,2018,00,00*6A
2018-01-12 20:07:45 1515805665.683910: $GPGGA,010746,3946.9477,N,08404.9493,W,1,06,1.40,306.50,M,-33.324,M,,*75
2018-01-12 20:07:45 1515805665.683980: $GPRMC,010746,A,3946.9477,N,08404.9493,W,0.5669,116.262,130118,,*37
2018-01-12 20:07:45 1515805665.684045: $GPGSA,A,3,8,23,27,7,9,28,,,,,,,4.8,1.4,4.6*01
2018-01-12 20:07:46 1515805666.234495: $GPZDA,010747.00,13,01,2018,00,00*6B
2018-01-12 20:07:46 1515805666.234677: $GPGGA,010747,3946.9480,N,08404.9492,W,1,06,1.40,305.74,M,-33.324,M,,*78
2018-01-12 20:07:46 1515805666.234747: $GPRMC,010747,A,3946.9480,N,08404.9492,W,0.3026,105.366,130118,,*33
2018-01-12 20:07:46 1515805666.234812: $GPGSA,A,3,8,23,27,7,9,28,,,,,,,4.8,1.4,4.6*01
2018-01-12 20:07:47 1515805667.218595: $GPZDA,010748.00,13,01,2018,00,00*64
2018-01-12 20:07:47 1515805667.218784: $GPGGA,010748,3946.9473,N,08404.9486,W,1,06,1.40,307.34,M,-33.324,M,,*78
2018-01-12 20:07:47 1515805667.218855: $GPRMC,010748,A,3946.9473,N,08404.9486,W,0.5602,180.000,130118,,*3D
2018-01-12 20:07:47 1515805667.218921: $GPGSA,A,3,8,23,27,7,9,28,,,,,,,4.8,1.4,4.6*01
2018-01-12 20:07:48 1515805668.555755: $GPGSV,3,1,10,08,73,132,20,23,29,189,17,27,47,052,18,07,56,315,18*7A
2018-01-12 20:07:48 1515805668.555943: $GPGSV,3,2,10,30,29,306,00,09,48,229,22,28,14,258,08,16,23,060,00*70
2018-01-12 20:07:48 1515805668.556081: $GPGSV,3,3,10,11,20,168,00,138,38,213,00*44
2018-01-12 20:07:48 1515805668.668071: $GPZDA,010749.00,13,01,2018,00,00*65
2018-01-12 20:07:48 1515805668.668225: $GPGGA,010749,3946.9472,N,08404.9479,W,1,06,1.40,306.02,M,-33.324,M,,*7C
2018-01-12 20:07:48 1515805668.668292: $GPRMC,010749,A,3946.9472,N,08404.9479,W,0.7698,198.298,130118,,*36
2018-01-12 20:07:48 1515805668.668354: $GPGSA,A,3,8,23,27,7,9,28,,,,,,,4.8,1.4,4.6*01
2018-01-12 20:07:49 1515805669.219337: $GPZDA,010750.00,13,01,2018,00,00*6D
2018-01-12 20:07:49 1515805669.219518: $GPGGA,010750,3946.9465,N,08404.9473,W,1,06,1.40,307.63,M,-33.324,M,,*7E
2018-01-12 20:07:49 1515805669.219585: $GPRMC,010750,A,3946.9465,N,08404.9473,W,0.4989,147.677,130118,,*39
2018-01-12 20:07:49 1515805669.219647: $GPGSA,A,3,8,23,27,7,9,28,,,,,,,4.8,1.4,4.6*01
2018-01-12 20:07:50 1515805670.234550: $GPZDA,010751.00,13,01,2018,00,00*6C
2018-01-12 20:07:50 1515805670.573509: $GPGGA,010751,3946.9465,N,08404.9473,W,1,06,1.40,307.63,M,-33.324,M,,*7F
2018-01-12 20:07:50 1515805670.573667: $GPRMC,010751,A,3946.9465,N,08404.9473,W,0.8003,162.423,130118,,*3B
2018-01-12 20:07:50 1515805670.573734: $GPGSA,A,3,8,23,27,7,9,28,,,,,,,4.8,1.4,4.6*01
2018-01-12 20:07:51 1515805671.570190: $GPGSV,3,1,10,08,73,132,20,23,29,189,16,27,47,052,18,07,56,315,18*7B
2018-01-12 20:07:51 1515805671.570369: $GPGSV,3,2,10,30,29,306,00,09,48,229,22,28,14,258,09,16,23,060,00*71
2018-01-12 20:07:51 1515805671.570437: $GPGSV,3,3,10,11,20,168,00,120,07,103,00*43
2018-01-12 20:07:51 1515805671.683677: $GPZDA,010752.00,13,01,2018,00,00*6F
2018-01-12 20:07:51 1515805671.683853: $GPGGA,010752,3946.9457,N,08404.9468,W,1,06,1.40,309.23,M,-33.324,M,,*7D
2018-01-12 20:07:51 1515805671.683923: $GPRMC,010752,A,3946.9457,N,08404.9468,W,0.8387,120.173,130118,,*3A
2018-01-12 20:07:51 1515805671.683987: $GPGSA,A,3,8,23,27,7,9,28,,,,,,,4.8,1.4,4.6*01
2018-01-12 20:07:52 1515805672.234925: $GPZDA,010753.00,13,01,2018,00,00*6E
2018-01-12 20:07:52 1515805672.235108: $GPGGA,010753,3946.9455,N,08404.9469,W,1,06,1.40,311.40,M,-33.324,M,,*73
2018-01-12 20:07:52 1515805672.235177: $GPRMC,010753,A,3946.9455,N,08404.9469,W,0.5602,180.000,130118,,*32
2018-01-12 20:07:52 1515805672.235242: $GPGSA,A,3,8,23,27,7,9,28,,,,,,,4.8,1.4,4.6*01
2018-01-12 20:07:53 1515805673.235060: $GPZDA,010754.00,13,01,2018,00,00*69
2018-01-12 20:07:53 1515805673.235236: $GPGGA,010754,3946.9452,N,08404.9464,W,1,06,1.40,313.65,M,-33.324,M,,*7B
2018-01-12 20:07:53 1515805673.235306: $GPRMC,010754,A,3946.9452,N,08404.9464,W,0.5287,182.716,130118,,*34
2018-01-12 20:07:53 1515805673.235371: $GPGSA,A,3,8,23,27,7,9,28,,,,,,,4.8,1.4,4.6*01
2018-01-12 20:07:54 1515805674.571250: $GPGSV,3,1,10,08,73,132,21,23,29,189,15,27,47,052,18,07,56,315,18*79
2018-01-12 20:07:54 1515805674.571450: $GPGSV,3,2,10,11,20,168,09,09,48,229,22,28,14,258,08,30,29,306,00*74
2018-01-12 20:07:54 1515805674.571521: $GPGSV,3,3,10,16,23,060,00,120,07,103,00*4E
2018-01-12 20:07:54 1515805674.684756: $GPZDA,010755.00,13,01,2018,00,00*68
2018-01-12 20:07:54 1515805674.684921: $GPGGA,010755,3946.9452,N,08404.9464,W,1,06,1.40,313.65,M,-33.324,M,,*7A
2018-01-12 20:07:54 1515805674.684991: $GPRMC,010755,A,3946.9452,N,08404.9464,W,0.4985,5.768,130118,,*3A
2018-01-12 20:07:54 1515805674.685055: $GPGSA,A,3,8,23,27,7,9,28,,,,,,,4.8,1.4,4.6*01
2018-01-12 20:07:55 1515805675.234787: $GPZDA,010756.00,13,01,2018,00,00*6B
2018-01-12 20:07:55 1515805675.234971: $GPGGA,010756,3946.9456,N,08404.9464,W,1,06,1.40,314.29,M,-33.324,M,,*72
2018-01-12 20:07:55 1515805675.235043: $GPRMC,010756,A,3946.9456,N,08404.9464,W,0.5467,339.487,130118,,*33
2018-01-12 20:07:55 1515805675.235183: $GPGSA,A,3,8,23,27,7,9,28,,,,,,,4.8,1.4,4.6*01
2018-01-12 20:07:56 1515805676.216938: $GPZDA,010757.00,13,01,2018,00,00*6A
2018-01-12 20:07:56 1515805676.217116: $GPGGA,010757,3946.9456,N,08404.9464,W,1,06,1.60,314.29,M,-33.324,M,,*71
2018-01-12 20:07:56 1515805676.217185: $GPRMC,010757,A,3946.9456,N,08404.9464,W,0.4844,273.794,130118,,*30
2018-01-12 20:07:56 1515805676.217250: $GPGSA,A,3,8,23,27,7,9,28,,,,,,,4.8,1.6,4.6*03
2018-01-12 20:07:57 1515805677.569379: $GPGSV,3,1,10,08,73,132,22,23,29,189,15,27,47,052,18,07,56,315,18*7A
2018-01-12 20:07:57 1515805677.569560: $GPGSV,3,2,10,11,20,168,08,09,48,229,23,28,14,258,07,30,29,306,00*7B
2018-01-12 20:07:57 1515805677.569627: $GPGSV,3,3,10,16,23,060,00,120,07,103,00*4E
2018-01-12 20:07:57 1515805677.682927: $GPZDA,010758.00,13,01,2018,00,00*65
2018-01-12 20:07:57 1515805677.683101: $GPGGA,010758,3946.9459,N,08404.9469,W,1,06,1.60,312.04,M,-33.324,M,,*75
2018-01-12 20:07:57 1515805677.683227: $GPRMC,010758,A,3946.9459,N,08404.9469,W,0.4583,269.998,130118,,*32
2018-01-12 20:07:57 1515805677.683291: $GPGSA,A,3,8,23,27,7,9,28,,,,,,,4.8,1.6,4.6*03
2018-01-12 20:07:58 1515805678.234295: $GPZDA,010759.00,13,01,2018,00,00*64
2018-01-12 20:07:58 1515805678.234469: $GPGGA,010759,3946.9459,N,08404.9469,W,1,06,1.60,312.04,M,-33.324,M,,*74
2018-01-12 20:07:58 1515805678.234535: $GPRMC,010759,A,3946.9459,N,08404.9469,W,0.3735,180.000,130118,,*37
2018-01-12 20:07:58 1515805678.234597: $GPGSA,A,3,8,23,27,7,9,28,,,,,,,4.8,1.6,4.6*03
2018-01-12 20:07:59 1515805679.234332: $GPZDA,010800.00,13,01,2018,00,00*67
2018-01-12 20:07:59 1515805679.234504: $GPGGA,010800,3946.9461,N,08404.9474,W,1,06,1.60,308.39,M,-33.324,M,,*75
2018-01-12 20:07:59 1515805679.234571: $GPRMC,010800,A,3946.9461,N,08404.9474,W,0.0814,142.012,130118,,*31
2018-01-12 20:07:59 1515805679.234634: $GPGSA,A,3,8,23,27,7,9,28,,,,,,,4.8,1.6,4.6*03
