2018-01-11 20:10:19 1515719419.996969: {"class":"VERSION","release":"3.16","rev":"3.16-4","proto_major":3,"proto_minor":11}
2018-01-11 20:10:19 1515719419.997314: {"class":"DEVICES","devices":[{"class":"DEVICE","path":"/dev/ttyUSB0","driver":"SiRF","subtype":"9\u0006GSD4e_4.1.2-P1_RPATCH.05-F-GPS-4R-1510281 11/03/2015 307","activated":"2018-01-12T01:10:19.497Z","flags":1,"native":1,"bps":4800,"parity":"N","stopbits":1,"cycle":1.00}]}
2018-01-11 20:10:19 1515719419.997428: {"class":"WATCH","enable":true,"json":false,"nmea":true,"raw":0,"scaled":false,"timing":false,"split24":false,"pps":false}
2018-01-11 20:10:20 1515719420.353900: $GPZDA,011021.00,12,01,2018,00,00*6C
2018-01-11 20:10:20 1515719420.354067: $GPGGA,011021,3946.9574,N,08404.9840,W,2,10,0.80,300.45,M,-33.324,M,,*79
2018-01-11 20:10:20 1515719420.354134: $GPRMC,011021,A,3946.9574,N,08404.9840,W,0.0000,0.000,120118,,*3D
2018-01-11 20:10:20 1515719420.354194: $GPGSA,A,3,7,8,9,11,16,23,27,28,30,138,,,4.0,0.8,3.5*3E
2018-01-11 20:10:21 1515719421.689642: $GPGSV,3,1,10,07,55,315,44,08,73,133,46,09,48,229,42,11,20,168,47*71
2018-01-11 20:10:21 1515719421.689800: $GPGSV,3,2,10,16,23,060,46,23,29,190,46,27,48,054,50,28,14,258,39*7C
2018-01-11 20:10:21 1515719421.689868: $GPGSV,3,3,10,30,29,306,30,138,38,213,45*46
2018-01-11 20:10:21 1515719421.802986: $GPZDA,011022.00,12,01,2018,00,00*6F
2018-01-11 20:10:21 1515719421.803123: $GPGGA,011022,3946.9574,N,08404.9840,W,2,10,0.80,300.45,M,-33.324,M,,*7A
2018-01-11 20:10:21 1515719421.803188: $GPRMC,011022,A,3946.9574,N,08404.9840,W,0.0000,0.000,120118,,*3E
2018-01-11 20:10:21 1515719421.803249: $GPGSA,A,3,7,8,9,11,16,23,27,28,30,138,,,4.0,0.8,3.5*3E
2018-01-11 20:10:22 1515719422.353900: $GPZDA,011023.00,12,01,2018,00,00*6E
2018-01-11 20:10:22 1515719422.354063: $GPGGA,011023,3946.9574,N,08404.9840,W,2,10,0.80,300.45,M,-33.324,M,,*7B
2018-01-11 20:10:22 1515719422.354130: $GPRMC,011023,A,3946.9574,N,08404.9840,W,0.0000,0.000,120118,,*3F
2018-01-11 20:10:22 1515719422.354191: $GPGSA,A,3,7,8,9,11,16,23,27,28,30,138,,,4.0,0.8,3.5*3E
2018-01-11 20:10:23 1515719423.354260: $GPZDA,011024.00,12,01,2018,00,00*69
2018-01-11 20:10:23 1515719423.354426: $GPGGA,011024,3946.9574,N,08404.9840,W,2,10,0.80,300.45,M,-33.324,M,,*7C
2018-01-11 20:10:23 1515719423.354493: $GPRMC,011024,A,3946.9574,N,08404.9840,W,0.0000,0.000,120118,,*38
2018-01-11 20:10:23 1515719423.354553: $GPGSA,A,3,7,8,9,11,16,23,27,28,30,138,,,4.0,0.8,3.5*3E
2018-01-11 20:10:24 1515719424.690000: $GPGSV,3,1,10,07,55,315,44,08,73,133,45,09,48,229,42,11,20,168,47*72
2018-01-11 20:10:24 1515719424.690175: $GPGSV,3,2,10,16,23,060,46,23,29,190,46,27,48,054,49,28,14,258,39*74
2018-01-11 20:10:24 1515719424.690241: $GPGSV,3,3,10,30,29,306,33,138,38,213,45*45
2018-01-11 20:10:24 1515719424.803323: $GPZDA,011025.00,12,01,2018,00,00*68
2018-01-11 20:10:24 1515719424.803451: $GPGGA,011025,3946.9574,N,08404.9840,W,2,10,0.80,300.45,M,-33.324,M,,*7D
2018-01-11 20:10:24 1515719424.803516: $GPRMC,011025,A,3946.9574,N,08404.9840,W,0.0000,0.000,120118,,*39
2018-01-11 20:10:24 1515719424.803577: $GPGSA,A,3,7,8,9,11,16,23,27,28,30,138,,,4.0,0.8,3.5*3E
2018-01-11 20:10:25 1515719425.355484: $GPZDA,011026.00,12,01,2018,00,00*6B
2018-01-11 20:10:25 1515719425.355659: $GPGGA,011026,3946.9574,N,08404.9840,W,2,10,0.80,300.45,M,-33.324,M,,*7E
2018-01-11 20:10:25 1515719425.355729: $GPRMC,011026,A,3946.9574,N,08404.9840,W,0.0000,0.000,120118,,*3A
2018-01-11 20:10:25 1515719425.355792: $GPGSA,A,3,7,8,9,11,16,23,27,28,30,138,,,4.0,0.8,3.5*3E
2018-01-11 20:10:26 1515719426.353864: $GPZDA,011027.00,12,01,2018,00,00*6A
2018-01-11 20:10:26 1515719426.354035: $GPGGA,011027,3946.9574,N,08404.9840,W,2,10,0.80,300.45,M,-33.324,M,,*7F
2018-01-11 20:10:26 1515719426.354102: $GPRMC,011027,A,3946.9574,N,08404.9840,W,0.0000,0.000,120118,,*3B
2018-01-11 20:10:26 1515719426.354180: $GPGSA,A,3,7,8,9,11,16,23,27,28,30,138,,,4.0,0.8,3.5*3E
2018-01-11 20:10:27 1515719427.690839: $GPGSV,3,1,10,07,55,315,45,08,73,133,45,09,48,229,42,11,20,168,47*73
2018-01-11 20:10:27 1515719427.691003: $GPGSV,3,2,10,16,23,060,46,23,29,190,46,27,48,054,50,28,14,258,39*7C
2018-01-11 20:10:27 1515719427.691139: $GPGSV,3,3,10,30,29,306,33,138,38,213,45*45
2018-01-11 20:10:27 1515719427.802919: $GPZDA,011028.00,12,01,2018,00,00*65
2018-01-11 20:10:27 1515719427.803049: $GPGGA,011028,3946.9574,N,08404.9840,W,2,10,0.80,300.45,M,-33.324,M,,*70
2018-01-11 20:10:27 1515719427.803114: $GPRMC,011028,A,3946.9574,N,08404.9840,W,0.0000,0.000,120118,,*34
2018-01-11 20:10:27 1515719427.803175: $GPGSA,A,3,7,8,9,11,16,23,27,28,30,138,,,4.0,0.8,3.5*3E
2018-01-11 20:10:28 1515719428.429644: $GPZDA,011029.00,12,01,2018,00,00*64
2018-01-11 20:10:28 1515719428.429815: $GPGGA,011029,3946.9574,N,08404.9833,W,2,10,0.80,300.53,M,-33.324,M,,*72
2018-01-11 20:10:28 1515719428.429882: $GPRMC,011029,A,3946.9574,N,08404.9833,W,0.0000,0.000,120118,,*31
2018-01-11 20:10:28 1515719428.429944: $GPGSA,A,3,7,8,9,11,16,23,27,28,30,138,,,4.0,0.8,3.5*3E
2018-01-11 20:10:29 1515719429.353225: $GPZDA,011030.00,12,01,2018,00,00*6C
2018-01-11 20:10:29 1515719429.353413: $GPGGA,011030,3946.9574,N,08404.9833,W,2,10,0.80,300.53,M,-33.324,M,,*7A
2018-01-11 20:10:29 1515719429.353480: $GPRMC,011030,A,3946.9574,N,08404.9833,W,0.0000,0.000,120118,,*39
2018-01-11 20:10:29 1515719429.353561: $GPGSA,A,3,7,8,9,11,16,23,27,28,30,138,,,4.0,0.8,3.5*3E
2018-01-11 20:10:30 1515719430.687436: $GPGSV,3,1,10,07,55,315,44,08,73,133,46,09,48,229,42,11,20,168,47*71
2018-01-11 20:10:30 1515719430.687609: $GPGSV,3,2,10,16,23,060,46,23,29,190,46,27,48,054,49,28,14,258,38*75
2018-01-11 20:10:30 1515719430.687678: $GPGSV,3,3,10,30,29,306,33,138,38,213,45*45
2018-01-11 20:10:30 1515719430.801056: $GPZDA,011031.00,12,01,2018,00,00*6D
2018-01-11 20:10:30 1515719430.801204: $GPGGA,011031,3946.9574,N,08404.9833,W,2,10,0.80,300.53,M,-33.324,M,,*7B
2018-01-11 20:10:30 1515719430.801272: $GPRMC,011031,A,3946.9574,N,08404.9833,W,0.0000,0.000,120118,,*38
2018-01-11 20:10:30 1515719430.801332: $GPGSA,A,3,7,8,9,11,16,23,27,28,30,138,,,4.0,0.8,3.5*3E
