2017-11-16 14:24:31 1510860271.336898: {"class":"VERSION","release":"3.17","rev":"3.17","proto_major":3,"proto_minor":12}
2017-11-16 14:24:31 1510860271.337359: {"class":"DEVICES","devices":[{"class":"DEVICE","path":"/dev/ttyUSB0","driver":"SiRF","subtype":"9\u0006GSD4e_4.1.2-P1_RPATCH.05-F-GPS-4R-1510281 11/03/2015 307","activated":"2017-11-16T19:24:31.324Z","flags":1,"native":1,"bps":4800,"parity":"N","stopbits":1,"cycle":1.00}]}
2017-11-16 14:24:31 1510860271.337476: {"class":"WATCH","enable":true,"json":false,"nmea":true,"raw":0,"scaled":false,"timing":false,"split24":false,"pps":false}
2017-11-16 14:24:31 1510860271.501451: $GPZDA,192430.00,16,11,2017,00,00*68
2017-11-16 14:24:31 1510860271.501612: $GPGGA,192430,3946.9569,N,08404.9849,W,2,11,0.80,303.30,M,-33.324,M,,*72
2017-11-16 14:24:31 1510860271.501673: $GPRMC,192430,A,3946.9569,N,08404.9849,W,0.0000,0.000,161117,,*3C
2017-11-16 14:24:31 1510860271.501730: $GPGSA,A,3,8,10,15,18,21,20,24,27,32,14,138,,1.6,0.8,1.3*37
2017-11-16 14:24:32 1510860272.534998: $GPZDA,192431.00,16,11,2017,00,00*69
2017-11-16 14:24:32 1510860272.535173: $GPGGA,192431,3946.9569,N,08404.9849,W,2,11,0.80,303.30,M,-33.324,M,,*73
2017-11-16 14:24:32 1510860272.535236: $GPRMC,192431,A,3946.9569,N,08404.9849,W,0.0000,0.000,161117,,*3D
2017-11-16 14:24:32 1510860272.535292: $GPGSA,A,3,8,10,15,18,21,20,24,27,32,14,138,,1.6,0.8,1.3*37
2017-11-16 14:24:33 1510860273.870569: $GPGSV,3,1,12,08,07,318,34,10,46,306,48,13,03,051,10,15,33,054,50*74
2017-11-16 14:24:33 1510860273.870754: $GPGSV,3,2,12,18,74,349,47,21,58,187,45,20,29,100,45,24,52,102,47*75
2017-11-16 14:24:33 1510860273.870816: $GPGSV,3,3,12,27,18,283,37,32,25,241,45,14,08,235,36,138,38,213,43*41
2017-11-16 14:24:33 1510860273.983842: $GPZDA,192432.00,16,11,2017,00,00*6A
2017-11-16 14:24:33 1510860273.983991: $GPGGA,192432,3946.9569,N,08404.9849,W,2,11,0.80,303.30,M,-33.324,M,,*70
2017-11-16 14:24:33 1510860273.984053: $GPRMC,192432,A,3946.9569,N,08404.9849,W,0.0000,0.000,161117,,*3E
2017-11-16 14:24:33 1510860273.984108: $GPGSA,A,3,8,10,15,18,21,20,24,27,32,14,138,,1.6,0.8,1.3*37
2017-11-16 14:24:34 1510860274.609267: $GPZDA,192433.00,16,11,2017,00,00*6B
2017-11-16 14:24:34 1510860274.609436: $GPGGA,192433,3946.9569,N,08404.9849,W,2,11,0.80,303.30,M,-33.324,M,,*71
2017-11-16 14:24:34 1510860274.609498: $GPRMC,192433,A,3946.9569,N,08404.9849,W,0.0000,0.000,161117,,*3F
2017-11-16 14:24:34 1510860274.609554: $GPGSA,A,3,8,10,15,18,21,20,24,27,32,14,138,,1.6,0.8,1.3*37
2017-11-16 14:24:35 1510860275.502984: $GPZDA,192434.00,16,11,2017,00,00*6C
2017-11-16 14:24:35 1510860275.503180: $GPGGA,192434,3946.9569,N,08404.9849,W,2,11,0.80,303.30,M,-33.324,M,,*76
2017-11-16 14:24:35 1510860275.503244: $GPRMC,192434,A,3946.9569,N,08404.9849,W,0.0000,0.000,161117,,*38
2017-11-16 14:24:35 1510860275.503301: $GPGSA,A,3,8,10,15,18,21,20,24,27,32,14,138,,1.6,0.8,1.3*37
2017-11-16 14:24:36 1510860276.840874: $GPGSV,3,1,12,08,07,318,35,10,46,306,48,13,03,051,15,15,33,054,50*70
2017-11-16 14:24:36 1510860276.841042: $GPGSV,3,2,12,18,74,349,46,21,58,187,45,20,29,100,45,24,52,102,47*74
2017-11-16 14:24:36 1510860276.841102: $GPGSV,3,3,12,27,18,283,38,32,25,241,45,14,08,235,36,138,38,213,44*49
2017-11-16 14:24:36 1510860276.954124: $GPZDA,192435.00,16,11,2017,00,00*6D
2017-11-16 14:24:36 1510860276.954318: $GPGGA,192435,3946.9569,N,08404.9849,W,2,12,0.80,303.30,M,-33.324,M,,*74
2017-11-16 14:24:36 1510860276.954383: $GPRMC,192435,A,3946.9569,N,08404.9849,W,0.0000,0.000,161117,,*39
2017-11-16 14:24:36 1510860276.954439: $GPGSA,A,3,8,10,13,15,18,21,20,24,27,32,14,138,1.6,0.8,1.3*35
2017-11-16 14:24:37 1510860277.496292: $GPZDA,192436.00,16,11,2017,00,00*6E
2017-11-16 14:24:37 1510860277.496471: $GPGGA,192436,3946.9569,N,08404.9849,W,2,12,0.80,303.30,M,-33.324,M,,*77
2017-11-16 14:24:37 1510860277.496533: $GPRMC,192436,A,3946.9569,N,08404.9849,W,0.0000,0.000,161117,,*3A
2017-11-16 14:24:37 1510860277.496590: $GPGSA,A,3,8,10,13,15,18,21,20,24,27,32,14,138,1.6,0.8,1.3*35
2017-11-16 14:24:38 1510860278.502230: $GPZDA,192437.00,16,11,2017,00,00*6F
2017-11-16 14:24:38 1510860278.502460: $GPGGA,192437,3946.9569,N,08404.9849,W,2,12,0.80,303.30,M,-33.324,M,,*76
2017-11-16 14:24:38 1510860278.502527: $GPRMC,192437,A,3946.9569,N,08404.9849,W,0.0000,0.000,161117,,*3B
2017-11-16 14:24:38 1510860278.502584: $GPGSA,A,3,8,10,13,15,18,21,20,24,27,32,14,138,1.6,0.8,1.3*35
2017-11-16 14:24:39 1510860279.837505: $GPGSV,3,1,12,08,07,318,35,10,46,306,48,13,03,051,16,15,33,054,50*73
2017-11-16 14:24:39 1510860279.837674: $GPGSV,3,2,12,18,74,349,46,21,58,187,45,20,29,100,45,24,52,102,47*74
2017-11-16 14:24:39 1510860279.837734: $GPGSV,3,3,12,27,18,283,39,32,25,241,45,14,08,235,36,138,38,213,43*4F
2017-11-16 14:24:39 1510860279.950863: $GPZDA,192438.00,16,11,2017,00,00*60
2017-11-16 14:24:39 1510860279.951035: $GPGGA,192438,3946.9569,N,08404.9849,W,2,12,0.80,303.30,M,-33.324,M,,*79
2017-11-16 14:24:39 1510860279.951116: $GPRMC,192438,A,3946.9569,N,08404.9849,W,0.0000,0.000,161117,,*34
2017-11-16 14:24:39 1510860279.951176: $GPGSA,A,3,8,10,13,15,18,21,20,24,27,32,14,138,1.6,0.8,1.3*35
2017-11-16 14:24:40 1510860280.501682: $GPZDA,192439.00,16,11,2017,00,00*61
2017-11-16 14:24:40 1510860280.501839: $GPGGA,192439,3946.9569,N,08404.9849,W,2,12,0.80,303.30,M,-33.324,M,,*78
2017-11-16 14:24:40 1510860280.501899: $GPRMC,192439,A,3946.9569,N,08404.9849,W,0.0000,0.000,161117,,*35
2017-11-16 14:24:40 1510860280.501956: $GPGSA,A,3,8,10,13,15,18,21,20,24,27,32,14,138,1.6,0.8,1.3*35
2017-11-16 14:24:41 1510860281.502573: $GPZDA,192440.00,16,11,2017,00,00*6F
2017-11-16 14:24:41 1510860281.502794: $GPGGA,192440,3946.9569,N,08404.9849,W,2,12,0.80,303.30,M,-33.324,M,,*76
2017-11-16 14:24:41 1510860281.502856: $GPRMC,192440,A,3946.9569,N,08404.9849,W,0.0000,0.000,161117,,*3B
2017-11-16 14:24:41 1510860281.502912: $GPGSA,A,3,8,10,13,15,18,21,20,24,27,32,14,138,1.6,0.8,1.3*35
2017-11-16 14:24:42 1510860282.839641: $GPGSV,3,1,12,08,07,318,37,10,46,306,48,13,03,051,18,15,33,054,50*7F
2017-11-16 14:24:42 1510860282.839811: $GPGSV,3,2,12,18,74,349,47,21,58,187,45,20,29,100,46,24,52,102,47*76
2017-11-16 14:24:42 1510860282.839872: $GPGSV,3,3,12,27,18,283,39,32,25,241,45,14,08,235,36,138,38,213,42*4E
2017-11-16 14:24:42 1510860282.952934: $GPZDA,192441.00,16,11,2017,00,00*6E
2017-11-16 14:24:42 1510860282.953096: $GPGGA,192441,3946.9569,N,08404.9849,W,2,12,0.80,303.30,M,-33.324,M,,*77
2017-11-16 14:24:42 1510860282.953157: $GPRMC,192441,A,3946.9569,N,08404.9849,W,0.0000,0.000,161117,,*3A
2017-11-16 14:24:42 1510860282.953214: $GPGSA,A,3,8,10,13,15,18,21,20,24,27,32,14,138,1.6,0.8,1.3*35
2017-11-16 14:24:43 1510860283.501357: $GPZDA,192442.00,16,11,2017,00,00*6D
2017-11-16 14:24:43 1510860283.501518: $GPGGA,192442,3946.9569,N,08404.9849,W,2,12,0.80,303.30,M,-33.324,M,,*74
2017-11-16 14:24:43 1510860283.501579: $GPRMC,192442,A,3946.9569,N,08404.9849,W,0.0000,0.000,161117,,*39
2017-11-16 14:24:43 1510860283.501635: $GPGSA,A,3,8,10,13,15,18,21,20,24,27,32,14,138,1.6,0.8,1.3*35
2017-11-16 14:24:44 1510860284.501712: $GPZDA,192443.00,16,11,2017,00,00*6C
2017-11-16 14:24:44 1510860284.501872: $GPGGA,192443,3946.9569,N,08404.9849,W,2,12,0.80,303.30,M,-33.324,M,,*75
2017-11-16 14:24:44 1510860284.501934: $GPRMC,192443,A,3946.9569,N,08404.9849,W,0.0000,0.000,161117,,*38
2017-11-16 14:24:44 1510860284.501991: $GPGSA,A,3,8,10,13,15,18,21,20,24,27,32,14,138,1.6,0.8,1.3*35
2017-11-16 14:24:45 1510860285.838866: $GPGSV,3,1,12,08,07,318,38,10,46,306,47,13,03,051,18,15,33,054,50*7F
2017-11-16 14:24:45 1510860285.839051: $GPGSV,3,2,12,18,74,349,47,21,58,187,46,20,29,100,46,24,52,102,47*75
2017-11-16 14:24:45 1510860285.839113: $GPGSV,3,3,12,27,18,283,39,32,25,241,45,14,08,235,37,138,38,213,43*4E
2017-11-16 14:24:45 1510860285.952230: $GPZDA,192444.00,16,11,2017,00,00*6B
2017-11-16 14:24:45 1510860285.952407: $GPGGA,192444,3946.9569,N,08404.9849,W,2,12,0.80,303.30,M,-33.324,M,,*72
2017-11-16 14:24:45 1510860285.952469: $GPRMC,192444,A,3946.9569,N,08404.9849,W,0.0000,0.000,161117,,*3F
2017-11-16 14:24:45 1510860285.952526: $GPGSA,A,3,8,10,13,15,18,21,20,24,27,32,14,138,1.6,0.8,1.3*35
2017-11-16 14:24:46 1510860286.501797: $GPZDA,192445.00,16,11,2017,00,00*6A
2017-11-16 14:24:46 1510860286.501957: $GPGGA,192445,3946.9569,N,08404.9849,W,2,12,0.80,303.30,M,-33.324,M,,*73
2017-11-16 14:24:46 1510860286.502018: $GPRMC,192445,A,3946.9569,N,08404.9849,W,0.0000,0.000,161117,,*3E
2017-11-16 14:24:46 1510860286.502074: $GPGSA,A,3,8,10,13,15,18,21,20,24,27,32,14,138,1.6,0.8,1.3*35
2017-11-16 14:24:47 1510860287.501818: $GPZDA,192446.00,16,11,2017,00,00*69
2017-11-16 14:24:47 1510860287.501980: $GPGGA,192446,3946.9569,N,08404.9849,W,2,12,0.80,303.30,M,-33.324,M,,*70
2017-11-16 14:24:47 1510860287.502041: $GPRMC,192446,A,3946.9569,N,08404.9849,W,0.0000,0.000,161117,,*3D
2017-11-16 14:24:47 1510860287.502096: $GPGSA,A,3,8,10,13,15,18,21,20,24,27,32,14,138,1.6,0.8,1.3*35
2017-11-16 14:24:48 1510860288.838545: $GPGSV,3,1,12,08,07,318,38,10,46,306,48,13,03,051,18,15,33,054,50*70
2017-11-16 14:24:48 1510860288.838715: $GPGSV,3,2,12,18,74,349,47,21,58,187,46,20,29,100,46,24,52,102,47*75
2017-11-16 14:24:48 1510860288.838777: $GPGSV,3,3,12,27,18,283,39,32,25,241,45,14,08,235,37,138,38,213,44*49
2017-11-16 14:24:48 1510860288.951904: $GPZDA,192447.00,16,11,2017,00,00*68
2017-11-16 14:24:48 1510860288.952060: $GPGGA,192447,3946.9569,N,08404.9849,W,2,12,0.80,303.30,M,-33.324,M,,*71
2017-11-16 14:24:48 1510860288.952120: $GPRMC,192447,A,3946.9569,N,08404.9849,W,0.0000,0.000,161117,,*3C
2017-11-16 14:24:48 1510860288.952176: $GPGSA,A,3,8,10,13,15,18,21,20,24,27,32,14,138,1.6,0.8,1.3*35
2017-11-16 14:24:49 1510860289.578414: $GPZDA,192448.00,16,11,2017,00,00*67
2017-11-16 14:24:49 1510860289.578603: $GPGGA,192448,3946.9569,N,08404.9849,W,2,12,0.80,303.30,M,-33.324,M,,*7E
2017-11-16 14:24:49 1510860289.578667: $GPRMC,192448,A,3946.9569,N,08404.9849,W,0.0000,0.000,161117,,*33
2017-11-16 14:24:49 1510860289.578724: $GPGSA,A,3,8,10,13,15,18,21,20,24,27,32,14,138,1.6,0.8,1.3*35
2017-11-16 14:24:50 1510860290.526741: $GPZDA,192449.00,16,11,2017,00,00*66
2017-11-16 14:24:50 1510860290.527339: $GPGGA,192449,3946.9569,N,08404.9849,W,2,12,0.80,303.30,M,-33.324,M,,*7F
2017-11-16 14:24:51 1510860291.492873: $GPRMC,192449,A,3946.9569,N,08404.9849,W,0.0000,0.000,161117,,*32
2017-11-16 14:24:51 1510860291.493005: $GPGSA,A,3,8,10,13,15,18,21,20,24,27,32,14,138,1.6,0.8,1.3*35
2017-11-16 14:24:51 1510860291.837635: $GPGSV,3,1,12,08,07,318,39,10,46,306,48,13,03,051,19,15,33,054,50*70
2017-11-16 14:24:51 1510860291.837810: $GPGSV,3,2,12,18,74,349,47,21,58,187,46,20,29,100,46,24,52,102,47*75
2017-11-16 14:24:51 1510860291.837893: $GPGSV,3,3,12,27,18,283,39,32,25,241,44,14,08,235,38,138,38,213,44*47
2017-11-16 14:24:51 1510860291.951013: $GPZDA,192450.00,16,11,2017,00,00*6E
2017-11-16 14:24:51 1510860291.951183: $GPGGA,192450,3946.9569,N,08404.9849,W,2,12,0.80,303.30,M,-33.324,M,,*77
2017-11-16 14:24:51 1510860291.951247: $GPRMC,192450,A,3946.9569,N,08404.9849,W,0.0000,0.000,161117,,*3A
2017-11-16 14:24:51 1510860291.951306: $GPGSA,A,3,8,10,13,15,18,21,20,24,27,32,14,138,1.6,0.8,1.3*35
2017-11-16 14:24:52 1510860292.533031: $GPZDA,192451.00,16,11,2017,00,00*6F
2017-11-16 14:24:52 1510860292.533198: $GPGGA,192451,3946.9569,N,08404.9849,W,2,12,0.80,303.30,M,-33.324,M,,*76
2017-11-16 14:24:52 1510860292.533262: $GPRMC,192451,A,3946.9569,N,08404.9849,W,0.0000,0.000,161117,,*3B
2017-11-16 14:24:52 1510860292.533321: $GPGSA,A,3,8,10,13,15,18,21,20,24,27,32,14,138,1.6,0.8,1.3*35
2017-11-16 14:24:53 1510860293.532652: $GPZDA,192452.00,16,11,2017,00,00*6C
2017-11-16 14:24:53 1510860293.532816: $GPGGA,192452,3946.9569,N,08404.9849,W,2,12,0.80,303.30,M,-33.324,M,,*75
2017-11-16 14:24:53 1510860293.532879: $GPRMC,192452,A,3946.9569,N,08404.9849,W,0.0000,0.000,161117,,*38
2017-11-16 14:24:53 1510860293.532937: $GPGSA,A,3,8,10,13,15,18,21,20,24,27,32,14,138,1.6,0.8,1.3*35
2017-11-16 14:24:54 1510860294.870540: $GPGSV,3,1,12,08,07,318,38,10,46,306,47,13,03,051,00,15,33,054,50*76
2017-11-16 14:24:54 1510860294.870725: $GPGSV,3,2,12,18,74,349,47,21,58,187,46,20,29,100,46,24,52,102,47*75
2017-11-16 14:24:54 1510860294.870790: $GPGSV,3,3,12,27,18,283,39,32,25,241,44,14,08,235,37,138,38,213,43*4F
2017-11-16 14:24:54 1510860294.983741: $GPZDA,192453.00,16,11,2017,00,00*6D
2017-11-16 14:24:54 1510860294.983901: $GPGGA,192453,3946.9569,N,08404.9849,W,2,11,0.80,303.30,M,-33.324,M,,*77
2017-11-16 14:24:54 1510860294.983963: $GPRMC,192453,A,3946.9569,N,08404.9849,W,0.0000,0.000,161117,,*39
2017-11-16 14:24:54 1510860294.984019: $GPGSA,A,3,8,10,15,18,21,20,24,27,32,14,138,,1.6,0.8,1.3*37
2017-11-16 14:24:55 1510860295.495921: $GPZDA,192454.00,16,11,2017,00,00*6A
2017-11-16 14:24:55 1510860295.496092: $GPGGA,192454,3946.9569,N,08404.9849,W,2,11,0.80,303.30,M,-33.324,M,,*70
2017-11-16 14:24:55 1510860295.496154: $GPRMC,192454,A,3946.9569,N,08404.9849,W,0.0000,0.000,161117,,*3E
2017-11-16 14:24:55 1510860295.496211: $GPGSA,A,3,8,10,15,18,21,20,24,27,32,14,138,,1.6,0.8,1.3*37
2017-11-16 14:24:56 1510860296.537996: $GPZDA,192455.00,16,11,2017,00,00*6B
2017-11-16 14:24:56 1510860296.538162: $GPGGA,192455,3946.9569,N,08404.9849,W,2,11,0.80,303.30,M,-33.324,M,,*71
2017-11-16 14:24:56 1510860296.538222: $GPRMC,192455,A,3946.9569,N,08404.9849,W,0.0000,0.000,161117,,*3F
2017-11-16 14:24:56 1510860296.538298: $GPGSA,A,3,8,10,15,18,21,20,24,27,32,14,138,,1.6,0.8,1.3*37
2017-11-16 14:24:57 1510860297.838941: $GPGSV,3,1,12,08,07,318,37,10,46,306,47,13,03,051,11,15,33,054,51*78
2017-11-16 14:24:57 1510860297.839120: $GPGSV,3,2,12,18,74,349,47,21,58,187,46,20,29,100,46,24,52,102,47*75
2017-11-16 14:24:57 1510860297.839181: $GPGSV,3,3,12,27,18,283,38,32,25,241,44,14,08,235,36,138,38,213,44*48
2017-11-16 14:24:57 1510860297.952575: $GPZDA,192456.00,16,11,2017,00,00*68
2017-11-16 14:24:57 1510860297.952726: $GPGGA,192456,3946.9569,N,08404.9849,W,2,11,0.80,303.30,M,-33.324,M,,*72
2017-11-16 14:24:57 1510860297.952788: $GPRMC,192456,A,3946.9569,N,08404.9849,W,0.0000,0.000,161117,,*3C
2017-11-16 14:24:57 1510860297.952844: $GPGSA,A,3,8,10,15,18,21,20,24,27,32,14,138,,1.6,0.8,1.3*37
2017-11-16 14:24:58 1510860298.503472: $GPZDA,192457.00,16,11,2017,00,00*69
2017-11-16 14:24:58 1510860298.503631: $GPGGA,192457,3946.9569,N,08404.9849,W,2,11,0.80,303.30,M,-33.324,M,,*73
2017-11-16 14:24:58 1510860298.503693: $GPRMC,192457,A,3946.9569,N,08404.9849,W,0.0000,0.000,161117,,*3D
2017-11-16 14:24:58 1510860298.503748: $GPGSA,A,3,8,10,15,18,21,20,24,27,32,14,138,,1.6,0.8,1.3*37
2017-11-16 14:24:59 1510860299.502666: $GPZDA,192458.00,16,11,2017,00,00*66
2017-11-16 14:24:59 1510860299.502821: $GPGGA,192458,3946.9569,N,08404.9849,W,2,11,0.80,303.30,M,-33.324,M,,*7C
2017-11-16 14:24:59 1510860299.502881: $GPRMC,192458,A,3946.9569,N,08404.9849,W,0.0000,0.000,161117,,*32
2017-11-16 14:24:59 1510860299.502937: $GPGSA,A,3,8,10,15,18,21,20,24,27,32,14,138,,1.6,0.8,1.3*37
2017-11-16 14:25:00 1510860300.833088: $GPGSV,3,1,12,08,07,318,35,10,46,306,47,13,03,051,18,15,33,054,50*72
2017-11-16 14:25:00 1510860300.833335: $GPGSV,3,2,12,18,74,349,47,21,58,187,46,20,29,100,46,24,52,102,47*75
2017-11-16 14:25:00 1510860300.833425: $GPGSV,3,3,12,27,18,283,39,32,25,241,44,14,08,235,35,138,38,213,44*4A
2017-11-16 14:25:00 1510860300.946349: $GPZDA,192459.00,16,11,2017,00,00*67
2017-11-16 14:25:00 1510860300.946532: $GPGGA,192459,3946.9569,N,08404.9849,W,2,12,0.80,303.30,M,-33.324,M,,*7E
2017-11-16 14:25:00 1510860300.946597: $GPRMC,192459,A,3946.9569,N,08404.9849,W,0.0000,0.000,161117,,*33
2017-11-16 14:25:00 1510860300.946657: $GPGSA,A,3,8,10,13,15,18,21,20,24,27,32,14,138,1.6,0.8,1.3*35
