2017-12-31 18:02:18 1514761338.688348: {"class":"VERSION","release":"3.16","rev":"3.16-4","proto_major":3,"proto_minor":11}
2017-12-31 18:02:18 1514761338.688698: {"class":"DEVICES","devices":[{"class":"DEVICE","path":"/dev/ttyUSB0","driver":"SiRF","activated":"2017-12-31T23:02:18.680Z","flags":1,"native":1,"bps":4800,"parity":"N","stopbits":1,"cycle":1.00}]}
2017-12-31 18:02:18 1514761338.688797: {"class":"WATCH","enable":true,"json":false,"nmea":true,"raw":0,"scaled":false,"timing":false,"split24":false,"pps":false}
2017-12-31 18:02:18 1514761338.794251: $GPZDA,230219.00,31,12,2017,00,00*68
2017-12-31 18:02:18 1514761338.794403: $GPGGA,230219,3946.9561,N,08404.9874,W,2,11,0.60,308.17,M,-33.324,M,,*72
2017-12-31 18:02:18 1514761338.794469: $GPRMC,230219,A,3946.9561,N,08404.9874,W,0.0000,0.000,311217,,*3A
2017-12-31 18:02:18 1514761338.794530: $GPGSA,A,3,22,23,9,3,16,29,14,31,27,26,135,,1.7,0.6,1.3*06
2017-12-31 18:02:19 1514761339.346455: $GPZDA,230220.00,31,12,2017,00,00*62
2017-12-31 18:02:19 1514761339.346612: $GPGGA,230220,3946.9561,N,08404.9874,W,2,11,0.60,308.17,M,-33.324,M,,*78
2017-12-31 18:02:19 1514761339.346678: $GPRMC,230220,A,3946.9561,N,08404.9874,W,0.0000,0.000,311217,,*30
2017-12-31 18:02:19 1514761339.346741: $GPGSA,A,3,22,23,9,3,16,29,14,31,27,26,135,,1.7,0.6,1.3*06
2017-12-31 18:02:20 1514761340.372633: $GPZDA,230221.00,31,12,2017,00,00*63
2017-12-31 18:02:20 1514761340.372799: $GPGGA,230221,3946.9561,N,08404.9874,W,2,11,0.60,308.17,M,-33.324,M,,*79
2017-12-31 18:02:20 1514761340.372870: $GPRMC,230221,A,3946.9561,N,08404.9874,W,0.0000,0.000,311217,,*31
2017-12-31 18:02:20 1514761340.372939: $GPGSA,A,3,22,23,9,3,16,29,14,31,27,26,135,,1.7,0.6,1.3*06
2017-12-31 18:02:21 1514761341.708340: $GPGSV,3,1,11,22,25,216,42,23,51,307,44,09,18,312,38,03,34,237,44*77
2017-12-31 18:02:21 1514761341.708520: $GPGSV,3,2,11,16,77,192,43,29,07,033,38,14,18,132,35,31,30,072,36*7E
2017-12-31 18:02:21 1514761341.708588: $GPGSV,3,3,11,27,19,156,35,26,65,052,50,135,22,240,44*74
2017-12-31 18:02:21 1514761341.822062: $GPZDA,230222.00,31,12,2017,00,00*60
2017-12-31 18:02:21 1514761341.822200: $GPGGA,230222,3946.9561,N,08404.9874,W,2,11,0.60,308.17,M,-33.324,M,,*7A
2017-12-31 18:02:21 1514761341.822264: $GPRMC,230222,A,3946.9561,N,08404.9874,W,0.0000,0.000,311217,,*32
2017-12-31 18:02:21 1514761341.822325: $GPGSA,A,3,22,23,9,3,16,29,14,31,27,26,135,,1.7,0.6,1.3*06
2017-12-31 18:02:22 1514761342.345123: $GPZDA,230223.00,31,12,2017,00,00*61
2017-12-31 18:02:22 1514761342.345288: $GPGGA,230223,3946.9561,N,08404.9874,W,2,11,0.60,308.17,M,-33.324,M,,*7B
2017-12-31 18:02:22 1514761342.345354: $GPRMC,230223,A,3946.9561,N,08404.9874,W,0.0000,0.000,311217,,*33
2017-12-31 18:02:22 1514761342.345416: $GPGSA,A,3,22,23,9,3,16,29,14,31,27,26,135,,1.7,0.6,1.3*06
2017-12-31 18:02:23 1514761343.347364: $GPZDA,230224.00,31,12,2017,00,00*66
2017-12-31 18:02:23 1514761343.347536: $GPGGA,230224,3946.9561,N,08404.9874,W,2,11,0.80,308.17,M,-33.324,M,,*72
2017-12-31 18:02:23 1514761343.347602: $GPRMC,230224,A,3946.9561,N,08404.9874,W,0.0000,0.000,311217,,*34
2017-12-31 18:02:23 1514761343.347664: $GPGSA,A,3,22,23,9,3,16,29,14,31,27,26,135,,1.7,0.8,1.3*08
2017-12-31 18:02:24 1514761344.680550: $GPGSV,3,1,11,22,25,216,41,23,51,307,44,09,18,312,38,03,34,237,45*75
2017-12-31 18:02:24 1514761344.680730: $GPGSV,3,2,11,16,77,192,44,29,07,033,36,14,18,132,35,31,30,072,34*75
2017-12-31 18:02:24 1514761344.680800: $GPGSV,3,3,11,27,19,156,35,26,65,052,49,135,22,240,44*7C
2017-12-31 18:02:24 1514761344.794125: $GPZDA,230225.00,31,12,2017,00,00*67
2017-12-31 18:02:24 1514761344.794296: $GPGGA,230225,3946.9561,N,08404.9874,W,2,11,0.60,308.17,M,-33.324,M,,*7D
2017-12-31 18:02:24 1514761344.794362: $GPRMC,230225,A,3946.9561,N,08404.9874,W,0.0000,0.000,311217,,*35
2017-12-31 18:02:24 1514761344.794424: $GPGSA,A,3,22,23,9,3,16,29,14,31,27,26,135,,1.7,0.6,1.3*06
2017-12-31 18:02:25 1514761345.419211: $GPZDA,230226.00,31,12,2017,00,00*64
2017-12-31 18:02:25 1514761345.419370: $GPGGA,230226,3946.9561,N,08404.9874,W,2,11,0.60,308.17,M,-33.324,M,,*7E
2017-12-31 18:02:25 1514761345.419488: $GPRMC,230226,A,3946.9561,N,08404.9874,W,0.0000,0.000,311217,,*36
2017-12-31 18:02:25 1514761345.419551: $GPGSA,A,3,22,23,9,3,16,29,14,31,27,26,135,,1.7,0.6,1.3*06
2017-12-31 18:02:26 1514761346.367937: $GPZDA,230227.00,31,12,2017,00,00*65
2017-12-31 18:02:26 1514761346.368111: $GPGGA,230227,3946.9561,N,08404.9874,W,2,11,0.60,308.17,M,-33.324,M,,*7F
2017-12-31 18:02:26 1514761346.368183: $GPRMC,230227,A,3946.9561,N,08404.9874,W,0.0000,0.000,311217,,*37
2017-12-31 18:02:26 1514761346.368247: $GPGSA,A,3,22,23,9,3,16,29,14,31,27,26,135,,1.7,0.6,1.3*06
2017-12-31 18:02:27 1514761347.709567: $GPGSV,3,1,11,22,25,216,41,23,51,307,43,09,18,312,37,03,34,237,45*7D
2017-12-31 18:02:27 1514761347.709748: $GPGSV,3,2,11,16,77,192,44,29,07,033,30,14,18,132,33,31,30,072,37*76
2017-12-31 18:02:27 1514761347.709820: $GPGSV,3,3,11,27,19,156,35,26,65,052,49,135,22,240,44*7C
2017-12-31 18:02:27 1514761347.823070: $GPZDA,230228.00,31,12,2017,00,00*6A
2017-12-31 18:02:27 1514761347.823245: $GPGGA,230228,3946.9561,N,08404.9874,W,2,11,0.60,308.17,M,-33.324,M,,*70
2017-12-31 18:02:27 1514761347.823314: $GPRMC,230228,A,3946.9561,N,08404.9874,W,0.0000,0.000,311217,,*38
2017-12-31 18:02:27 1514761347.823379: $GPGSA,A,3,22,23,9,3,16,29,14,31,27,26,135,,1.7,0.6,1.3*06
2017-12-31 18:02:28 1514761348.345439: $GPZDA,230229.00,31,12,2017,00,00*6B
2017-12-31 18:02:28 1514761348.345608: $GPGGA,230229,3946.9561,N,08404.9874,W,2,11,0.60,308.17,M,-33.324,M,,*71
2017-12-31 18:02:28 1514761348.345678: $GPRMC,230229,A,3946.9561,N,08404.9874,W,0.0000,0.000,311217,,*39
2017-12-31 18:02:28 1514761348.345742: $GPGSA,A,3,22,23,9,3,16,29,14,31,27,26,135,,1.7,0.6,1.3*06
