2017-11-16 14:18:36 1510859916.497637: {"class":"VERSION","release":"3.17","rev":"3.17","proto_major":3,"proto_minor":12}
2017-11-16 14:18:36 1510859916.498113: {"class":"DEVICES","devices":[{"class":"DEVICE","path":"/dev/ttyUSB0","driver":"SiRF","subtype":"9\u0006GSD4e_4.1.2-P1_RPATCH.05-F-GPS-4R-1510281 11/03/2015 307","activated":"2017-11-16T19:18:36.418Z","flags":1,"native":1,"bps":4800,"parity":"N","stopbits":1,"cycle":1.00}]}
2017-11-16 14:18:36 1510859916.498233: {"class":"WATCH","enable":true,"json":false,"nmea":true,"raw":0,"scaled":false,"timing":false,"split24":false,"pps":false}
2017-11-16 14:18:36 1510859916.867940: $GPGSV,3,1,12,08,07,319,42,10,43,303,44,13,06,049,26,15,35,052,50*71
2017-11-16 14:18:36 1510859916.868104: $GPGSV,3,2,12,18,72,342,46,21,61,189,47,20,31,097,45,24,52,106,49*73
2017-11-16 14:18:36 1510859916.868164: $GPGSV,3,3,12,27,19,286,41,32,22,240,45,14,06,234,00,138,38,213,45*4E
2017-11-16 14:18:36 1510859916.981296: $GPZDA,191835.00,16,11,2017,00,00*62
2017-11-16 14:18:36 1510859916.981467: $GPGGA,191835,3946.9562,N,08404.9851,W,2,11,0.80,304.83,M,-33.324,M,,*75
2017-11-16 14:18:36 1510859916.981529: $GPRMC,191835,A,3946.9562,N,08404.9851,W,0.0000,0.000,161117,,*34
2017-11-16 14:18:36 1510859916.981585: $GPGSA,A,3,8,10,13,15,18,21,20,24,27,32,138,,1.6,0.8,1.3*30
2017-11-16 14:18:37 1510859917.532521: $GPZDA,191836.00,16,11,2017,00,00*61
2017-11-16 14:18:37 1510859917.532681: $GPGGA,191836,3946.9562,N,08404.9851,W,2,11,0.80,304.83,M,-33.324,M,,*76
2017-11-16 14:18:37 1510859917.532744: $GPRMC,191836,A,3946.9562,N,08404.9851,W,0.0000,0.000,161117,,*37
2017-11-16 14:18:37 1510859917.532799: $GPGSA,A,3,8,10,13,15,18,21,20,24,27,32,138,,1.6,0.8,1.3*30
2017-11-16 14:18:38 1510859918.499228: $GPZDA,191837.00,16,11,2017,00,00*60
2017-11-16 14:18:38 1510859918.499419: $GPGGA,191837,3946.9562,N,08404.9851,W,2,11,0.80,304.83,M,-33.324,M,,*77
2017-11-16 14:18:38 1510859918.499485: $GPRMC,191837,A,3946.9562,N,08404.9851,W,0.0000,0.000,161117,,*36
2017-11-16 14:18:38 1510859918.499544: $GPGSA,A,3,8,10,13,15,18,21,20,24,27,32,138,,1.6,0.8,1.3*30
2017-11-16 14:18:39 1510859919.839455: $GPGSV,3,1,12,08,07,319,41,10,43,303,45,13,06,049,26,15,35,052,50*73
2017-11-16 14:18:39 1510859919.839620: $GPGSV,3,2,12,18,72,342,46,21,61,189,47,20,31,097,45,24,52,106,49*73
2017-11-16 14:18:39 1510859919.839683: $GPGSV,3,3,12,27,19,286,41,32,22,240,45,14,06,234,00,138,38,213,46*4D
2017-11-16 14:18:39 1510859919.952792: $GPZDA,191838.00,16,11,2017,00,00*6F
2017-11-16 14:18:39 1510859919.952979: $GPGGA,191838,3946.9562,N,08404.9851,W,2,11,0.80,304.83,M,-33.324,M,,*78
2017-11-16 14:18:39 1510859919.953047: $GPRMC,191838,A,3946.9562,N,08404.9851,W,0.0000,0.000,161117,,*39
2017-11-16 14:18:39 1510859919.953129: $GPGSA,A,3,8,10,13,15,18,21,20,24,27,32,138,,1.6,0.8,1.3*30
2017-11-16 14:18:40 1510859920.504860: $GPZDA,191839.00,16,11,2017,00,00*6E
2017-11-16 14:18:40 1510859920.505044: $GPGGA,191839,3946.9562,N,08404.9851,W,2,11,0.80,304.83,M,-33.324,M,,*79
2017-11-16 14:18:40 1510859920.505112: $GPRMC,191839,A,3946.9562,N,08404.9851,W,0.0000,0.000,161117,,*38
2017-11-16 14:18:40 1510859920.505173: $GPGSA,A,3,8,10,13,15,18,21,20,24,27,32,138,,1.6,0.8,1.3*30
2017-11-16 14:18:41 1510859921.504456: $GPZDA,191840.00,16,11,2017,00,00*60
2017-11-16 14:18:41 1510859921.504624: $GPGGA,191840,3946.9562,N,08404.9851,W,2,11,0.80,304.83,M,-33.324,M,,*77
2017-11-16 14:18:41 1510859921.504709: $GPRMC,191840,A,3946.9562,N,08404.9851,W,0.0000,0.000,161117,,*36
2017-11-16 14:18:41 1510859921.504769: $GPGSA,A,3,8,10,13,15,18,21,20,24,27,32,138,,1.6,0.8,1.3*30
2017-11-16 14:18:42 1510859922.838969: $GPGSV,3,1,12,08,07,319,41,10,43,303,45,13,06,049,25,15,35,052,50*70
2017-11-16 14:18:42 1510859922.839136: $GPGSV,3,2,12,18,72,342,46,21,61,189,47,20,31,097,45,24,52,106,49*73
2017-11-16 14:18:42 1510859922.839200: $GPGSV,3,3,12,27,19,286,41,32,22,240,45,14,06,234,00,138,38,213,43*48
2017-11-16 14:18:42 1510859922.952291: $GPZDA,191841.00,16,11,2017,00,00*61
2017-11-16 14:18:42 1510859922.952532: $GPGGA,191841,3946.9562,N,08404.9851,W,2,11,0.80,304.83,M,-33.324,M,,*76
2017-11-16 14:18:42 1510859922.952650: $GPRMC,191841,A,3946.9562,N,08404.9851,W,0.0000,0.000,161117,,*37
2017-11-16 14:18:42 1510859922.952708: $GPGSA,A,3,8,10,13,15,18,21,20,24,27,32,138,,1.6,0.8,1.3*30
2017-11-16 14:18:43 1510859923.506872: $GPZDA,191842.00,16,11,2017,00,00*62
2017-11-16 14:18:43 1510859923.507043: $GPGGA,191842,3946.9562,N,08404.9851,W,2,11,0.80,304.83,M,-33.324,M,,*75
2017-11-16 14:18:43 1510859923.507107: $GPRMC,191842,A,3946.9562,N,08404.9851,W,0.0000,0.000,161117,,*34
2017-11-16 14:18:43 1510859923.507165: $GPGSA,A,3,8,10,13,15,18,21,20,24,27,32,138,,1.6,0.8,1.3*30
2017-11-16 14:18:44 1510859924.504727: $GPZDA,191843.00,16,11,2017,00,00*63
2017-11-16 14:18:44 1510859924.504890: $GPGGA,191843,3946.9562,N,08404.9851,W,2,11,0.80,304.83,M,-33.324,M,,*74
2017-11-16 14:18:44 1510859924.504953: $GPRMC,191843,A,3946.9562,N,08404.9851,W,0.0000,0.000,161117,,*35
2017-11-16 14:18:44 1510859924.505011: $GPGSA,A,3,8,10,13,15,18,21,20,24,27,32,138,,1.6,0.8,1.3*30
2017-11-16 14:18:45 1510859925.840635: $GPGSV,3,1,12,08,07,319,40,10,43,303,45,13,06,049,25,15,35,052,50*71
2017-11-16 14:18:45 1510859925.840797: $GPGSV,3,2,12,18,72,342,46,21,61,189,47,20,31,097,45,24,52,106,49*73
2017-11-16 14:18:45 1510859925.840857: $GPGSV,3,3,12,27,19,286,40,32,22,240,45,14,06,234,24,138,38,213,44*48
2017-11-16 14:18:45 1510859925.953903: $GPZDA,191844.00,16,11,2017,00,00*64
2017-11-16 14:18:45 1510859925.954081: $GPGGA,191844,3946.9562,N,08404.9851,W,2,12,0.80,304.83,M,-33.324,M,,*70
2017-11-16 14:18:45 1510859925.954141: $GPRMC,191844,A,3946.9562,N,08404.9851,W,0.0000,0.000,161117,,*32
2017-11-16 14:18:45 1510859925.954197: $GPGSA,A,3,8,10,13,15,18,21,20,24,27,32,14,138,1.6,0.8,1.3*35
2017-11-16 14:18:46 1510859926.505080: $GPZDA,191845.00,16,11,2017,00,00*65
2017-11-16 14:18:46 1510859926.505254: $GPGGA,191845,3946.9562,N,08404.9851,W,2,12,0.80,304.83,M,-33.324,M,,*71
2017-11-16 14:18:46 1510859926.505315: $GPRMC,191845,A,3946.9562,N,08404.9851,W,0.0000,0.000,161117,,*33
2017-11-16 14:18:46 1510859926.505372: $GPGSA,A,3,8,10,13,15,18,21,20,24,27,32,14,138,1.6,0.8,1.3*35
2017-11-16 14:18:47 1510859927.504283: $GPZDA,191846.00,16,11,2017,00,00*66
2017-11-16 14:18:47 1510859927.504437: $GPGGA,191846,3946.9562,N,08404.9851,W,2,12,0.80,304.83,M,-33.324,M,,*72
2017-11-16 14:18:47 1510859927.504498: $GPRMC,191846,A,3946.9562,N,08404.9851,W,0.0000,0.000,161117,,*30
2017-11-16 14:18:47 1510859927.504554: $GPGSA,A,3,8,10,13,15,18,21,20,24,27,32,14,138,1.6,0.8,1.3*35
2017-11-16 14:18:48 1510859928.842642: $GPGSV,3,1,12,08,07,319,39,10,43,303,46,13,06,049,25,15,35,052,51*7D
2017-11-16 14:18:48 1510859928.842847: $GPGSV,3,2,12,18,72,342,46,21,61,189,47,20,31,097,45,24,52,106,49*73
2017-11-16 14:18:48 1510859928.842908: $GPGSV,3,3,12,27,19,286,34,32,22,240,44,14,06,234,00,138,38,213,43*4B
2017-11-16 14:18:48 1510859928.954880: $GPZDA,191847.00,16,11,2017,00,00*67
2017-11-16 14:18:48 1510859928.955063: $GPGGA,191847,3946.9562,N,08404.9851,W,2,11,0.80,304.83,M,-33.324,M,,*70
2017-11-16 14:18:48 1510859928.955124: $GPRMC,191847,A,3946.9562,N,08404.9851,W,0.0000,0.000,161117,,*31
2017-11-16 14:18:48 1510859928.955180: $GPGSA,A,3,8,10,13,15,18,21,20,24,27,32,138,,1.6,0.8,1.3*30
2017-11-16 14:18:49 1510859929.581340: $GPZDA,191848.00,16,11,2017,00,00*68
2017-11-16 14:18:49 1510859929.581503: $GPGGA,191848,3946.9562,N,08404.9851,W,2,11,0.80,304.83,M,-33.324,M,,*7F
2017-11-16 14:18:49 1510859929.581564: $GPRMC,191848,A,3946.9562,N,08404.9851,W,0.0000,0.000,161117,,*3E
2017-11-16 14:18:49 1510859929.581619: $GPGSA,A,3,8,10,13,15,18,21,20,24,27,32,138,,1.6,0.8,1.3*30
2017-11-16 14:18:50 1510859930.504521: $GPZDA,191849.00,16,11,2017,00,00*69
2017-11-16 14:18:50 1510859930.504701: $GPGGA,191849,3946.9562,N,08404.9851,W,2,11,0.80,304.83,M,-33.324,M,,*7E
2017-11-16 14:18:50 1510859930.504782: $GPRMC,191849,A,3946.9562,N,08404.9851,W,0.0000,0.000,161117,,*3F
2017-11-16 14:18:50 1510859930.504840: $GPGSA,A,3,8,10,13,15,18,21,20,24,27,32,138,,1.6,0.8,1.3*30
