2017-11-16 15:40:16 1510864816.733082: {"class":"VERSION","release":"3.17","rev":"3.17","proto_major":3,"proto_minor":12}
2017-11-16 15:40:16 1510864816.733400: {"class":"DEVICES","devices":[{"class":"DEVICE","path":"/dev/ttyUSB0","driver":"SiRF","subtype":"9\u0006GSD4e_4.1.2-P1_RPATCH.05-F-GPS-4R-1510281 11/03/2015 307","activated":"2017-11-16T20:40:16.719Z","flags":1,"native":1,"bps":4800,"parity":"N","stopbits":1,"cycle":1.00}]}
2017-11-16 15:40:16 1510864816.733472: {"class":"WATCH","enable":true,"json":false,"nmea":true,"raw":0,"scaled":false,"timing":false,"split24":false,"pps":false}
2017-11-16 15:40:16 1510864816.831960: $GPZDA,204015.00,16,11,2017,00,00*67
2017-11-16 15:40:16 1510864816.832064: $GPGGA,204015,3946.9568,N,08404.9859,W,2,12,1.00,308.20,M,-33.324,M,,*7D
2017-11-16 15:40:16 1510864816.832095: $GPRMC,204015,A,3946.9568,N,08404.9859,W,0.0000,0.000,161117,,*33
2017-11-16 15:40:16 1510864816.832123: $GPGSA,A,3,15,10,14,31,18,25,21,24,8,32,12,138,1.6,1.0,1.3*3F
2017-11-16 15:40:17 1510864817.367203: $GPZDA,204016.00,16,11,2017,00,00*64
2017-11-16 15:40:17 1510864817.367364: $GPGGA,204016,3946.9568,N,08404.9859,W,2,12,1.00,308.20,M,-33.324,M,,*7E
2017-11-16 15:40:17 1510864817.367442: $GPRMC,204016,A,3946.9568,N,08404.9859,W,0.0000,0.000,161117,,*30
2017-11-16 15:40:17 1510864817.367500: $GPGSA,A,3,15,10,14,31,18,25,21,24,8,32,12,138,1.6,1.0,1.3*3F
2017-11-16 15:40:18 1510864818.383063: $GPZDA,204017.00,16,11,2017,00,00*65
2017-11-16 15:40:18 1510864818.383220: $GPGGA,204017,3946.9568,N,08404.9859,W,2,12,1.00,308.20,M,-33.324,M,,*7F
2017-11-16 15:40:18 1510864818.383281: $GPRMC,204017,A,3946.9568,N,08404.9859,W,0.0000,0.000,161117,,*31
2017-11-16 15:40:18 1510864818.383336: $GPGSA,A,3,15,10,14,31,18,25,21,24,8,32,12,138,1.6,1.0,1.3*3F
2017-11-16 15:40:19 1510864819.705121: $GPGSV,3,1,12,15,07,069,22,10,74,340,50,14,33,258,46,31,04,204,30*7F
2017-11-16 15:40:19 1510864819.705299: $GPGSV,3,2,12,18,66,105,47,25,07,138,10,21,23,178,42,24,40,054,50*72
2017-11-16 15:40:19 1510864819.705360: $GPGSV,3,3,12,08,04,288,29,32,50,271,45,12,13,102,34,138,38,213,44*4A
2017-11-16 15:40:19 1510864819.818819: $GPZDA,204018.00,16,11,2017,00,00*6A
2017-11-16 15:40:19 1510864819.819028: $GPGGA,204018,3946.9568,N,08404.9859,W,2,11,1.00,308.20,M,-33.324,M,,*73
2017-11-16 15:40:19 1510864819.819094: $GPRMC,204018,A,3946.9568,N,08404.9859,W,0.0000,0.000,161117,,*3E
2017-11-16 15:40:19 1510864819.819151: $GPGSA,A,3,15,10,14,31,18,21,24,8,32,12,138,,1.6,1.0,1.3*38
2017-11-16 15:40:20 1510864820.464910: $GPZDA,204019.00,16,11,2017,00,00*6B
2017-11-16 15:40:20 1510864820.465083: $GPGGA,204019,3946.9568,N,08404.9859,W,2,11,1.00,308.20,M,-33.324,M,,*72
2017-11-16 15:40:20 1510864820.465145: $GPRMC,204019,A,3946.9568,N,08404.9859,W,0.0000,0.000,161117,,*3F
2017-11-16 15:40:20 1510864820.465201: $GPGSA,A,3,15,10,14,31,18,21,24,8,32,12,138,,1.6,1.0,1.3*38
2017-11-16 15:40:20 1510864820.465254: $GPGBS,204019,2.12,M,3.10,M,7.47,M*37
2017-11-16 15:40:21 1510864821.359364: $GPZDA,204020.00,16,11,2017,00,00*61
2017-11-16 15:40:21 1510864821.359575: $GPGGA,204020,3946.9568,N,08404.9859,W,2,11,1.00,308.20,M,-33.324,M,,*78
2017-11-16 15:40:21 1510864821.359636: $GPRMC,204020,A,3946.9568,N,08404.9859,W,0.0000,0.000,161117,,*35
2017-11-16 15:40:21 1510864821.359694: $GPGSA,A,3,15,10,14,31,18,21,24,8,32,12,138,,1.6,1.0,1.3*38
2017-11-16 15:40:21 1510864821.359749: $GPGBS,204020,2.12,M,3.10,M,7.47,M*3D
2017-11-16 15:40:22 1510864822.702462: $GPGSV,3,1,12,15,06,070,22,10,76,343,51,14,34,259,45,31,05,204,31*73
2017-11-16 15:40:22 1510864822.702578: $GPGSV,3,2,12,18,65,108,47,27,02,255,24,21,22,178,42,24,39,052,50*7D
2017-11-16 15:40:22 1510864822.702609: $GPGSV,3,3,12,08,03,288,30,32,51,274,45,12,13,102,35,138,38,213,44*40
2017-11-16 15:40:22 1510864822.815337: $GPZDA,204021.00,16,11,2017,00,00*60
2017-11-16 15:40:22 1510864822.815439: $GPGGA,204021,3946.9568,N,08404.9859,W,2,12,1.00,308.20,M,-33.324,M,,*7A
2017-11-16 15:40:22 1510864822.815470: $GPRMC,204021,A,3946.9568,N,08404.9859,W,0.0000,0.000,161117,,*34
2017-11-16 15:40:22 1510864822.815498: $GPGSA,A,3,15,10,14,31,18,27,21,24,8,32,12,138,1.6,1.0,1.3*3D
2017-11-16 15:40:23 1510864823.383254: $GPZDA,204022.00,16,11,2017,00,00*63
2017-11-16 15:40:23 1510864823.383440: $GPGGA,204022,3946.9568,N,08404.9859,W,2,12,1.00,308.20,M,-33.324,M,,*79
2017-11-16 15:40:23 1510864823.383505: $GPRMC,204022,A,3946.9568,N,08404.9859,W,0.0000,0.000,161117,,*37
2017-11-16 15:40:23 1510864823.383561: $GPGSA,A,3,15,10,14,31,18,27,21,24,8,32,12,138,1.6,1.0,1.3*3D
2017-11-16 15:40:24 1510864824.370205: $GPZDA,204023.00,16,11,2017,00,00*62
2017-11-16 15:40:24 1510864824.370538: $GPGGA,204023,3946.9568,N,08404.9859,W,2,12,1.00,308.20,M,-33.324,M,,*78
2017-11-16 15:40:24 1510864824.370604: $GPRMC,204023,A,3946.9568,N,08404.9859,W,0.0000,0.000,161117,,*36
2017-11-16 15:40:24 1510864824.370661: $GPGSA,A,3,15,10,14,31,18,27,21,24,8,32,12,138,1.6,1.0,1.3*3D
2017-11-16 15:40:25 1510864825.721037: $GPGSV,3,1,12,15,06,070,23,10,76,343,50,14,34,259,45,31,05,204,31*73
2017-11-16 15:40:25 1510864825.721208: $GPGSV,3,2,12,18,65,108,47,25,08,136,22,21,22,178,42,24,39,052,50*75
2017-11-16 15:40:25 1510864825.721270: $GPGSV,3,3,12,08,03,288,31,32,51,274,45,12,13,102,34,138,38,213,44*40
2017-11-16 15:40:25 1510864825.834374: $GPZDA,204024.00,16,11,2017,00,00*65
2017-11-16 15:40:25 1510864825.834539: $GPGGA,204024,3946.9568,N,08404.9859,W,2,12,1.00,308.20,M,-33.324,M,,*7F
2017-11-16 15:40:25 1510864825.834601: $GPRMC,204024,A,3946.9568,N,08404.9859,W,0.0000,0.000,161117,,*31
2017-11-16 15:40:25 1510864825.834658: $GPGSA,A,3,15,10,14,31,18,25,21,24,8,32,12,138,1.6,1.0,1.3*3F
2017-11-16 15:40:26 1510864826.459623: $GPZDA,204025.00,16,11,2017,00,00*64
2017-11-16 15:40:26 1510864826.459797: $GPGGA,204025,3946.9568,N,08404.9859,W,2,12,1.00,308.20,M,-33.324,M,,*7E
2017-11-16 15:40:26 1510864826.459860: $GPRMC,204025,A,3946.9568,N,08404.9859,W,0.0000,0.000,161117,,*30
2017-11-16 15:40:26 1510864826.459916: $GPGSA,A,3,15,10,14,31,18,25,21,24,8,32,12,138,1.6,1.0,1.3*3F
