2017-12-01 14:20:41 1512156041.117751: {"class":"VERSION","release":"3.16","rev":"3.16-4","proto_major":3,"proto_minor":11}
2017-12-01 14:20:41 1512156041.118127: {"class":"DEVICES","devices":[{"class":"DEVICE","path":"/dev/ttyUSB0","driver":"SiRF","subtype":"9\u0006GSD4e_4.1.2-P1_RPATCH.05-F-GPS-4R-1510281 11/03/2015 307","activated":"2017-12-01T19:20:40.507Z","flags":1,"native":1,"bps":4800,"parity":"N","stopbits":1,"cycle":1.00}]}
2017-12-01 14:20:41 1512156041.118390: {"class":"WATCH","enable":true,"json":false,"nmea":true,"raw":0,"scaled":false,"timing":false,"split24":false,"pps":false}
2017-12-01 14:20:41 1512156041.366889: $GPZDA,192042.00,01,12,2017,00,00*6C
2017-12-01 14:20:41 1512156041.367060: $GPGGA,192042,3946.9567,N,08404.9839,W,2,12,0.80,309.84,M,-33.324,M,,*7C
2017-12-01 14:20:41 1512156041.367127: $GPRMC,192042,A,3946.9567,N,08404.9839,W,0.0000,0.000,011217,,*31
2017-12-01 14:20:41 1512156041.367189: $GPGSA,A,3,10,14,18,21,24,27,32,8,12,20,15,138,2.0,0.8,1.5*37
2017-12-01 14:20:42 1512156042.670056: $GPGSV,3,1,12,10,68,328,49,14,28,252,42,18,72,090,45,21,30,180,45*73
2017-12-01 14:20:42 1512156042.670211: $GPGSV,3,2,12,24,46,060,49,27,07,261,32,32,45,264,46,08,06,295,33*70
2017-12-01 14:20:42 1512156042.670277: $GPGSV,3,3,12,12,08,108,28,20,10,117,18,15,12,066,28,138,38,213,46*41
2017-12-01 14:20:42 1512156042.782230: $GPZDA,192043.00,01,12,2017,00,00*6D
2017-12-01 14:20:42 1512156042.782423: $GPGGA,192043,3946.9567,N,08404.9839,W,2,12,0.80,309.84,M,-33.324,M,,*7D
2017-12-01 14:20:42 1512156042.782508: $GPRMC,192043,A,3946.9567,N,08404.9839,W,0.0000,0.000,011217,,*30
2017-12-01 14:20:42 1512156042.782570: $GPGSA,A,3,10,14,18,21,24,27,32,8,12,20,15,138,2.0,0.8,1.5*37
2017-12-01 14:20:43 1512156043.408887: $GPZDA,192044.00,01,12,2017,00,00*6A
2017-12-01 14:20:43 1512156043.409056: $GPGGA,192044,3946.9567,N,08404.9839,W,2,12,0.80,309.84,M,-33.324,M,,*7A
2017-12-01 14:20:43 1512156043.409123: $GPRMC,192044,A,3946.9567,N,08404.9839,W,0.0000,0.000,011217,,*37
2017-12-01 14:20:43 1512156043.409185: $GPGSA,A,3,10,14,18,21,24,27,32,8,12,20,15,138,2.0,0.8,1.5*37
2017-12-01 14:20:44 1512156044.357497: $GPZDA,192045.00,01,12,2017,00,00*6B
2017-12-01 14:20:44 1512156044.357665: $GPGGA,192045,3946.9567,N,08404.9839,W,2,12,0.80,309.84,M,-33.324,M,,*7B
2017-12-01 14:20:44 1512156044.357732: $GPRMC,192045,A,3946.9567,N,08404.9839,W,0.0000,0.000,011217,,*36
2017-12-01 14:20:44 1512156044.357793: $GPGSA,A,3,10,14,18,21,24,27,32,8,12,20,15,138,2.0,0.8,1.5*37
2017-12-01 14:20:45 1512156045.702944: $GPGSV,3,1,12,10,68,328,49,14,28,252,41,18,72,090,45,21,30,180,46*73
2017-12-01 14:20:45 1512156045.703123: $GPGSV,3,2,12,24,46,060,49,27,07,261,32,32,45,264,46,08,06,295,33*70
2017-12-01 14:20:45 1512156045.703190: $GPGSV,3,3,12,12,08,108,28,20,10,117,26,15,12,066,28,138,38,213,46*4C
2017-12-01 14:20:45 1512156045.816327: $GPZDA,192046.00,01,12,2017,00,00*68
2017-12-01 14:20:45 1512156045.816500: $GPGGA,192046,3946.9567,N,08404.9839,W,2,12,0.80,309.84,M,-33.324,M,,*78
2017-12-01 14:20:45 1512156045.816566: $GPRMC,192046,A,3946.9567,N,08404.9839,W,0.0000,0.000,011217,,*35
2017-12-01 14:20:45 1512156045.816628: $GPGSA,A,3,10,14,18,21,24,27,32,8,12,20,15,138,2.0,0.8,1.5*37
2017-12-01 14:20:46 1512156046.367176: $GPZDA,192047.00,01,12,2017,00,00*69
2017-12-01 14:20:46 1512156046.367351: $GPGGA,192047,3946.9567,N,08404.9839,W,2,12,0.80,309.84,M,-33.324,M,,*79
2017-12-01 14:20:46 1512156046.367419: $GPRMC,192047,A,3946.9567,N,08404.9839,W,0.0000,0.000,011217,,*34
2017-12-01 14:20:46 1512156046.367481: $GPGSA,A,3,10,14,18,21,24,27,32,8,12,20,15,138,2.0,0.8,1.5*37
2017-12-01 14:20:47 1512156047.333170: $GPZDA,192048.00,01,12,2017,00,00*66
2017-12-01 14:20:47 1512156047.333379: $GPGGA,192048,3946.9568,N,08404.9839,W,2,12,0.80,311.25,M,-33.324,M,,*7B
2017-12-01 14:20:47 1512156047.333448: $GPRMC,192048,A,3946.9568,N,08404.9839,W,0.0000,0.000,011217,,*34
2017-12-01 14:20:47 1512156047.333511: $GPGSA,A,3,10,14,18,21,24,27,32,8,12,20,15,138,2.0,0.8,1.5*37
2017-12-01 14:20:48 1512156048.668361: $GPGSV,3,1,12,10,68,328,49,14,28,252,41,18,72,090,44,21,30,180,45*71
2017-12-01 14:20:48 1512156048.668588: $GPGSV,3,2,12,24,46,060,49,27,07,261,32,32,45,264,46,08,06,295,33*70
2017-12-01 14:20:48 1512156048.668660: $GPGSV,3,3,12,12,08,108,28,20,10,117,26,15,12,066,29,138,38,213,47*4C
2017-12-01 14:20:48 1512156048.780467: $GPZDA,192049.00,01,12,2017,00,00*67
2017-12-01 14:20:48 1512156048.780636: $GPGGA,192049,3946.9568,N,08404.9839,W,2,12,0.80,311.25,M,-33.324,M,,*7A
2017-12-01 14:20:48 1512156048.780702: $GPRMC,192049,A,3946.9568,N,08404.9839,W,0.0000,0.000,011217,,*35
2017-12-01 14:20:48 1512156048.780764: $GPGSA,A,3,10,14,18,21,24,27,32,8,12,20,15,138,2.0,0.8,1.5*37
2017-12-01 14:20:49 1512156049.333751: $GPZDA,192050.00,01,12,2017,00,00*6F
2017-12-01 14:20:49 1512156049.333934: $GPGGA,192050,3946.9568,N,08404.9839,W,2,12,0.80,311.25,M,-33.324,M,,*72
2017-12-01 14:20:49 1512156049.334003: $GPRMC,192050,A,3946.9568,N,08404.9839,W,0.0000,0.000,011217,,*3D
2017-12-01 14:20:49 1512156049.334064: $GPGSA,A,3,10,14,18,21,24,27,32,8,12,20,15,138,2.0,0.8,1.5*37
2017-12-01 14:20:50 1512156050.333374: $GPZDA,192051.00,01,12,2017,00,00*6E
2017-12-01 14:20:50 1512156050.333560: $GPGGA,192051,3946.9568,N,08404.9839,W,2,12,0.80,311.25,M,-33.324,M,,*73
2017-12-01 14:20:50 1512156050.333629: $GPRMC,192051,A,3946.9568,N,08404.9839,W,0.0000,0.000,011217,,*3C
2017-12-01 14:20:50 1512156050.333690: $GPGSA,A,3,10,14,18,21,24,27,32,8,12,20,15,138,2.0,0.8,1.5*37
2017-12-01 14:20:51 1512156051.669120: $GPGSV,3,1,12,10,68,328,49,14,28,252,41,18,72,090,44,21,30,180,45*71
2017-12-01 14:20:51 1512156051.669306: $GPGSV,3,2,12,24,46,060,49,27,07,261,31,32,45,264,46,08,06,295,33*73
2017-12-01 14:20:51 1512156051.669372: $GPGSV,3,3,12,12,08,108,28,20,10,117,26,15,12,066,29,138,38,213,46*4D
2017-12-01 14:20:51 1512156051.782960: $GPZDA,192052.00,01,12,2017,00,00*6D
2017-12-01 14:20:51 1512156051.783132: $GPGGA,192052,3946.9568,N,08404.9839,W,2,12,0.80,311.25,M,-33.324,M,,*70
2017-12-01 14:20:51 1512156051.783199: $GPRMC,192052,A,3946.9568,N,08404.9839,W,0.0000,0.000,011217,,*3F
2017-12-01 14:20:51 1512156051.783260: $GPGSA,A,3,10,14,18,21,24,27,32,8,12,20,15,138,2.0,0.8,1.5*37
2017-12-01 14:20:52 1512156052.334628: $GPZDA,192053.00,01,12,2017,00,00*6C
2017-12-01 14:20:52 1512156052.335041: $GPGGA,192053,3946.9568,N,08404.9839,W,2,12,0.80,311.25,M,-33.324,M,,*71
2017-12-01 14:20:52 1512156052.338704: $GPRMC,192053,A,3946.9568,N,08404.9839,W,0.0000,0.000,011217,,*3E
2017-12-01 14:20:52 1512156052.338791: $GPGSA,A,3,10,14,18,21,24,27,32,8,12,20,15,138,2.0,0.8,1.5*37
2017-12-01 14:20:53 1512156053.332888: $GPZDA,192054.00,01,12,2017,00,00*6B
2017-12-01 14:20:53 1512156053.333057: $GPGGA,192054,3946.9568,N,08404.9839,W,2,12,0.80,311.25,M,-33.324,M,,*76
2017-12-01 14:20:53 1512156053.333123: $GPRMC,192054,A,3946.9568,N,08404.9839,W,0.0000,0.000,011217,,*39
2017-12-01 14:20:53 1512156053.333184: $GPGSA,A,3,10,14,18,21,24,27,32,8,12,20,15,138,2.0,0.8,1.5*37
2017-12-01 14:20:54 1512156054.668247: $GPGSV,3,1,12,10,68,328,49,14,28,252,41,18,72,090,44,21,30,180,45*71
2017-12-01 14:20:54 1512156054.668413: $GPGSV,3,2,12,24,46,060,49,27,07,261,27,32,45,264,46,08,06,295,32*75
2017-12-01 14:20:54 1512156054.668480: $GPGSV,3,3,12,12,08,108,28,20,10,117,26,15,12,066,30,138,38,213,47*44
2017-12-01 14:20:54 1512156054.781655: $GPZDA,192055.00,01,12,2017,00,00*6A
2017-12-01 14:20:54 1512156054.781839: $GPGGA,192055,3946.9568,N,08404.9839,W,2,12,0.80,311.25,M,-33.324,M,,*77
2017-12-01 14:20:54 1512156054.781909: $GPRMC,192055,A,3946.9568,N,08404.9839,W,0.0000,0.000,011217,,*38
2017-12-01 14:20:54 1512156054.781971: $GPGSA,A,3,10,14,18,21,24,27,32,8,12,20,15,138,2.0,0.8,1.5*37
2017-12-01 14:20:55 1512156055.329027: $GPZDA,192056.00,01,12,2017,00,00*69
2017-12-01 14:20:55 1512156055.329200: $GPGGA,192056,3946.9568,N,08404.9839,W,2,12,0.80,311.25,M,-33.324,M,,*74
2017-12-01 14:20:55 1512156055.329267: $GPRMC,192056,A,3946.9568,N,08404.9839,W,0.0000,0.000,011217,,*3B
2017-12-01 14:20:55 1512156055.329328: $GPGSA,A,3,10,14,18,21,24,27,32,8,12,20,15,138,2.0,0.8,1.5*37
2017-12-01 14:20:56 1512156056.332363: $GPZDA,192057.00,01,12,2017,00,00*68
2017-12-01 14:20:56 1512156056.332535: $GPGGA,192057,3946.9568,N,08404.9839,W,2,12,0.80,311.25,M,-33.324,M,,*75
2017-12-01 14:20:56 1512156056.332602: $GPRMC,192057,A,3946.9568,N,08404.9839,W,0.0000,0.000,011217,,*3A
2017-12-01 14:20:56 1512156056.332663: $GPGSA,A,3,10,14,18,21,24,27,32,8,12,20,15,138,2.0,0.8,1.5*37
2017-12-01 14:20:57 1512156057.670356: $GPGSV,3,1,12,10,68,328,48,14,28,252,41,18,72,090,44,21,30,180,45*70
2017-12-01 14:20:57 1512156057.670558: $GPGSV,3,2,12,24,46,060,49,27,07,261,27,32,45,264,45,08,06,295,26*73
2017-12-01 14:20:57 1512156057.670650: $GPGSV,3,3,12,12,08,108,28,20,10,117,27,15,12,066,30,138,38,213,47*45
2017-12-01 14:20:57 1512156057.782551: $GPZDA,192058.00,01,12,2017,00,00*67
2017-12-01 14:20:57 1512156057.782687: $GPGGA,192058,3946.9568,N,08404.9839,W,2,12,0.80,311.25,M,-33.324,M,,*7A
2017-12-01 14:20:57 1512156057.782752: $GPRMC,192058,A,3946.9568,N,08404.9839,W,0.0000,0.000,011217,,*35
2017-12-01 14:20:57 1512156057.782812: $GPGSA,A,3,10,14,18,21,24,27,32,8,12,20,15,138,2.0,0.8,1.5*37
2017-12-01 14:20:58 1512156058.409285: $GPZDA,192059.00,01,12,2017,00,00*66
2017-12-01 14:20:58 1512156058.409471: $GPGGA,192059,3946.9568,N,08404.9839,W,2,12,0.80,311.25,M,-33.324,M,,*7B
2017-12-01 14:20:58 1512156058.409540: $GPRMC,192059,A,3946.9568,N,08404.9839,W,0.0000,0.000,011217,,*34
2017-12-01 14:20:58 1512156058.409602: $GPGSA,A,3,10,14,18,21,24,27,32,8,12,20,15,138,2.0,0.8,1.5*37
2017-12-01 14:20:59 1512156059.333699: $GPZDA,192100.00,01,12,2017,00,00*6B
2017-12-01 14:20:59 1512156059.333878: $GPGGA,192100,3946.9568,N,08404.9839,W,2,12,0.80,311.25,M,-33.324,M,,*76
2017-12-01 14:20:59 1512156059.333945: $GPRMC,192100,A,3946.9568,N,08404.9839,W,0.0000,0.000,011217,,*39
2017-12-01 14:20:59 1512156059.334007: $GPGSA,A,3,10,14,18,21,24,27,32,8,12,20,15,138,2.0,0.8,1.5*37
2017-12-01 14:21:00 1512156060.663205: $GPGSV,3,1,12,10,68,328,48,14,28,252,41,18,72,090,44,21,30,180,46*73
2017-12-01 14:21:00 1512156060.663385: $GPGSV,3,2,12,24,46,060,49,27,07,261,27,32,45,264,46,08,06,295,27*71
2017-12-01 14:21:00 1512156060.663452: $GPGSV,3,3,12,12,08,108,27,20,10,117,27,15,12,066,30,138,38,213,46*4B
2017-12-01 14:21:00 1512156060.776583: $GPZDA,192101.00,01,12,2017,00,00*6A
2017-12-01 14:21:00 1512156060.776769: $GPGGA,192101,3946.9568,N,08404.9839,W,2,12,0.80,311.25,M,-33.324,M,,*77
2017-12-01 14:21:00 1512156060.776839: $GPRMC,192101,A,3946.9568,N,08404.9839,W,0.0000,0.000,011217,,*38
2017-12-01 14:21:00 1512156060.776902: $GPGSA,A,3,10,14,18,21,24,27,32,8,12,20,15,138,2.0,0.8,1.5*37
