2017-11-16 17:33:34 1510871614.134448: {"class":"VERSION","release":"3.17","rev":"3.17","proto_major":3,"proto_minor":12}
2017-11-16 17:33:34 1510871614.134898: {"class":"DEVICES","devices":[{"class":"DEVICE","path":"/dev/ttyUSB0","driver":"SiRF","subtype":"9\u0006GSD4e_4.1.2-P1_RPATCH.05-F-GPS-4R-1510281 11/03/2015 307","activated":"2017-11-16T22:33:33.989Z","flags":1,"native":1,"bps":4800,"parity":"N","stopbits":1,"cycle":1.00}]}
2017-11-16 17:33:34 1510871614.135122: {"class":"WATCH","enable":true,"json":false,"nmea":true,"raw":0,"scaled":false,"timing":false,"split24":false,"pps":false}
2017-11-16 17:33:34 1510871614.398802: $GPZDA,223333.00,16,11,2017,00,00*65
2017-11-16 17:33:34 1510871614.398981: $GPGGA,223333,3946.9572,N,08404.9842,W,2,11,0.80,304.02,M,-33.324,M,,*78
2017-11-16 17:33:34 1510871614.399042: $GPRMC,223333,A,3946.9572,N,08404.9842,W,0.0000,0.000,161117,,*30
2017-11-16 17:33:34 1510871614.399097: $GPGSA,A,3,1,10,22,12,14,18,11,25,31,32,138,,1.6,0.8,1.3*3E
2017-11-16 17:33:35 1510871615.409676: $GPZDA,223334.00,16,11,2017,00,00*62
2017-11-16 17:33:35 1510871615.409850: $GPGGA,223334,3946.9572,N,08404.9842,W,2,11,0.80,304.02,M,-33.324,M,,*7F
2017-11-16 17:33:35 1510871615.409912: $GPRMC,223334,A,3946.9572,N,08404.9842,W,0.0000,0.000,161117,,*37
2017-11-16 17:33:35 1510871615.409969: $GPGSA,A,3,1,10,22,12,14,18,11,25,31,32,138,,1.6,0.8,1.3*3E
2017-11-16 17:33:36 1510871616.762258: $GPGSV,3,1,11,01,21,300,35,10,47,148,47,22,19,312,41,12,22,049,50*76
2017-11-16 17:33:36 1510871616.762426: $GPGSV,3,2,11,14,66,330,48,18,17,144,39,11,08,280,36,25,40,088,48*7D
2017-11-16 17:33:36 1510871616.762486: $GPGSV,3,3,11,31,56,226,47,32,68,030,50,138,38,213,44*75
2017-11-16 17:33:36 1510871616.875890: $GPZDA,223335.00,16,11,2017,00,00*63
2017-11-16 17:33:36 1510871616.876049: $GPGGA,223335,3946.9572,N,08404.9842,W,2,11,0.80,304.02,M,-33.324,M,,*7E
2017-11-16 17:33:36 1510871616.876109: $GPRMC,223335,A,3946.9572,N,08404.9842,W,0.0000,0.000,161117,,*36
2017-11-16 17:33:36 1510871616.876165: $GPGSA,A,3,1,10,22,12,14,18,11,25,31,32,138,,1.6,0.8,1.3*3E
2017-11-16 17:33:37 1510871617.424382: $GPZDA,223336.00,16,11,2017,00,00*60
2017-11-16 17:33:37 1510871617.424597: $GPGGA,223336,3946.9576,N,08404.9841,W,2,11,0.80,303.26,M,-33.324,M,,*7B
2017-11-16 17:33:37 1510871617.424691: $GPRMC,223336,A,3946.9576,N,08404.9841,W,0.0000,0.000,161117,,*32
2017-11-16 17:33:37 1510871617.424749: $GPGSA,A,3,1,10,22,12,14,18,11,25,31,32,138,,1.6,0.8,1.3*3E
2017-11-16 17:33:38 1510871618.399756: $GPZDA,223337.00,16,11,2017,00,00*61
2017-11-16 17:33:38 1510871618.399915: $GPGGA,223337,3946.9576,N,08404.9841,W,2,11,0.80,303.26,M,-33.324,M,,*7A
2017-11-16 17:33:38 1510871618.399975: $GPRMC,223337,A,3946.9576,N,08404.9841,W,0.0000,0.000,161117,,*33
2017-11-16 17:33:38 1510871618.400050: $GPGSA,A,3,1,10,22,12,14,18,11,25,31,32,138,,1.6,0.8,1.3*3E
2017-11-16 17:33:39 1510871619.735858: $GPGSV,3,1,11,01,21,300,36,10,47,148,47,22,19,312,41,12,22,049,50*75
2017-11-16 17:33:39 1510871619.736049: $GPGSV,3,2,11,14,66,330,48,18,17,144,39,11,08,280,37,25,40,088,48*7C
2017-11-16 17:33:39 1510871619.736110: $GPGSV,3,3,11,31,56,226,48,32,68,030,49,138,38,213,44*72
2017-11-16 17:33:39 1510871619.849133: $GPZDA,223338.00,16,11,2017,00,00*6E
2017-11-16 17:33:39 1510871619.849304: $GPGGA,223338,3946.9576,N,08404.9841,W,2,11,0.80,303.26,M,-33.324,M,,*75
2017-11-16 17:33:39 1510871619.849365: $GPRMC,223338,A,3946.9576,N,08404.9841,W,0.0000,0.000,161117,,*3C
2017-11-16 17:33:39 1510871619.849421: $GPGSA,A,3,1,10,22,12,14,18,11,25,31,32,138,,1.6,0.8,1.3*3E
2017-11-16 17:33:40 1510871620.397208: $GPZDA,223339.00,16,11,2017,00,00*6F
2017-11-16 17:33:40 1510871620.397428: $GPGGA,223339,3946.9576,N,08404.9841,W,2,11,0.80,303.26,M,-33.324,M,,*74
2017-11-16 17:33:40 1510871620.397490: $GPRMC,223339,A,3946.9576,N,08404.9841,W,0.0000,0.000,161117,,*3D
2017-11-16 17:33:40 1510871620.397546: $GPGSA,A,3,1,10,22,12,14,18,11,25,31,32,138,,1.6,0.8,1.3*3E
2017-11-16 17:33:41 1510871621.398876: $GPZDA,223340.00,16,11,2017,00,00*61
2017-11-16 17:33:41 1510871621.399045: $GPGGA,223340,3946.9576,N,08404.9841,W,2,11,0.80,303.26,M,-33.324,M,,*7A
2017-11-16 17:33:41 1510871621.399155: $GPRMC,223340,A,3946.9576,N,08404.9841,W,0.0000,0.000,161117,,*33
2017-11-16 17:33:41 1510871621.399212: $GPGSA,A,3,1,10,22,12,14,18,11,25,31,32,138,,1.6,0.8,1.3*3E
2017-11-16 17:33:42 1510871622.735913: $GPGSV,3,1,11,01,21,300,34,10,47,148,47,22,19,312,42,12,22,049,50*74
2017-11-16 17:33:42 1510871622.736081: $GPGSV,3,2,11,14,66,330,47,18,17,144,39,11,08,280,37,25,40,088,48*73
2017-11-16 17:33:42 1510871622.736140: $GPGSV,3,3,11,31,56,226,48,32,68,030,49,138,38,213,44*72
2017-11-16 17:33:42 1510871622.849243: $GPZDA,223341.00,16,11,2017,00,00*60
2017-11-16 17:33:42 1510871622.849421: $GPGGA,223341,3946.9576,N,08404.9841,W,2,11,0.80,303.26,M,-33.324,M,,*7B
2017-11-16 17:33:42 1510871622.849486: $GPRMC,223341,A,3946.9576,N,08404.9841,W,0.0000,0.000,161117,,*32
2017-11-16 17:33:42 1510871622.849544: $GPGSA,A,3,1,10,22,12,14,18,11,25,31,32,138,,1.6,0.8,1.3*3E
2017-11-16 17:33:43 1510871623.422602: $GPZDA,223342.00,16,11,2017,00,00*63
2017-11-16 17:33:43 1510871623.422794: $GPGGA,223342,3946.9576,N,08404.9841,W,2,11,0.80,303.26,M,-33.324,M,,*78
2017-11-16 17:33:43 1510871623.422878: $GPRMC,223342,A,3946.9576,N,08404.9841,W,0.0000,0.000,161117,,*31
2017-11-16 17:33:43 1510871623.422936: $GPGSA,A,3,1,10,22,12,14,18,11,25,31,32,138,,1.6,0.8,1.3*3E
