2017-12-29 11:47:23 1514566043.015756: {"class":"VERSION","release":"3.16","rev":"3.16-4","proto_major":3,"proto_minor":11}
2017-12-29 11:47:23 1514566043.016098: {"class":"DEVICES","devices":[{"class":"DEVICE","path":"/dev/ttyUSB0","driver":"SiRF","subtype":"9\u0006GSD4e_4.1.2-P1_RPATCH.05-F-GPS-4R-1510281 11/03/2015 307","activated":"2017-12-29T16:47:22.332Z","flags":1,"native":1,"bps":4800,"parity":"N","stopbits":1,"cycle":1.00}]}
2017-12-29 11:47:23 1514566043.016214: {"class":"WATCH","enable":true,"json":false,"nmea":true,"raw":0,"scaled":false,"timing":false,"split24":false,"pps":false}
2017-12-29 11:47:23 1514566043.921189: $GPZDA,164724.29,29,12,2017,00,00*63
2017-12-29 11:47:23 1514566043.921399: $GPGGA,164724,3946.9588,N,08404.9858,W,1,11,0.80,334.92,M,-33.324,M,,*7D
2017-12-29 11:47:23 1514566043.921467: $GPRMC,164724,A,3946.9588,N,08404.9858,W,0.0000,0.000,291217,,*33
2017-12-29 11:47:23 1514566043.921528: $GPGSA,A,3,8,10,14,15,18,20,21,24,32,27,138,,1.7,0.8,1.3*36
2017-12-29 11:47:25 1514566045.349848: $GPZDA,164725.29,29,12,2017,00,00*62
2017-12-29 11:47:25 1514566045.350016: $GPGGA,164725,3946.9588,N,08404.9858,W,1,11,0.80,334.92,M,-33.324,M,,*7C
2017-12-29 11:47:25 1514566045.350087: $GPRMC,164725,A,3946.9588,N,08404.9858,W,0.1567,9.200,291217,,*3C
2017-12-29 11:47:25 1514566045.350164: $GPGSA,A,3,8,10,14,15,18,20,21,24,32,27,138,,1.7,0.8,1.3*36
2017-12-29 11:47:25 1514566045.350225: $GPGBS,164725,10.91,M,10.38,M,30.89,M*0C
2017-12-29 11:47:26 1514566046.135967: $GPGSV,3,1,11,08,08,310,37,10,53,312,47,14,14,240,39,15,25,057,46*76
2017-12-29 11:47:26 1514566046.136148: $GPGSV,3,2,11,18,77,027,45,20,24,106,49,21,48,183,48,24,53,085,53*79
2017-12-29 11:47:26 1514566046.136213: $GPGSV,3,3,11,27,15,276,39,32,33,249,39,138,38,213,29*7F
2017-12-29 11:47:26 1514566046.249429: $GPZDA,164725.49,29,12,2017,00,00*64
2017-12-29 11:47:26 1514566046.249598: $GPGGA,164725,3946.9588,N,08404.9858,W,1,11,0.80,334.92,M,-33.324,M,,*7C
2017-12-29 11:47:26 1514566046.249662: $GPRMC,164725,A,3946.9588,N,08404.9858,W,0.3006,62.539,291217,,*0C
2017-12-29 11:47:26 1514566046.249722: $GPGSA,A,3,8,10,14,15,18,20,21,24,27,32,138,,1.7,0.8,1.3*36
2017-12-29 11:47:26 1514566046.503255: $GPZDA,164726.00,29,12,2017,00,00*6A
2017-12-29 11:47:26 1514566046.503426: $GPGGA,164726,3946.9588,N,08404.9858,W,1,11,0.80,334.92,M,-33.324,M,,*7F
2017-12-29 11:47:26 1514566046.503493: $GPRMC,164726,A,3946.9588,N,08404.9858,W,0.1567,9.200,291217,,*3F
2017-12-29 11:47:26 1514566046.503553: $GPGSA,A,3,8,10,14,15,18,20,21,24,27,32,138,,1.7,0.8,1.3*36
2017-12-29 11:47:26 1514566046.955368: $GPZDA,164727.00,29,12,2017,00,00*6B
2017-12-29 11:47:26 1514566046.955545: $GPGGA,164727,3946.9588,N,08404.9858,W,1,11,0.80,334.92,M,-33.324,M,,*7E
2017-12-29 11:47:26 1514566046.955611: $GPRMC,164727,A,3946.9588,N,08404.9858,W,0.0000,0.000,291217,,*30
2017-12-29 11:47:26 1514566046.955671: $GPGSA,A,3,8,10,14,15,18,20,21,24,27,32,138,,1.7,0.8,1.3*36
2017-12-29 11:47:27 1514566047.916871: $GPGSV,3,1,11,08,08,310,38,10,53,312,46,14,14,240,38,15,25,057,46*79
2017-12-29 11:47:27 1514566047.917059: $GPGSV,3,2,11,18,77,027,45,20,24,106,50,21,48,183,48,24,53,085,53*71
2017-12-29 11:47:27 1514566047.917164: $GPGSV,3,3,11,27,15,276,41,32,33,249,39,138,38,213,47*78
2017-12-29 11:47:28 1514566048.030258: $GPZDA,164728.00,29,12,2017,00,00*64
2017-12-29 11:47:28 1514566048.030432: $GPGGA,164728,3946.9591,N,08404.9857,W,1,11,0.80,334.15,M,-33.324,M,,*79
2017-12-29 11:47:28 1514566048.030499: $GPRMC,164728,A,3946.9591,N,08404.9857,W,0.0000,0.000,291217,,*38
2017-12-29 11:47:28 1514566048.030559: $GPGSA,A,3,8,10,14,15,18,20,21,24,27,32,138,,1.7,0.8,1.3*36
2017-12-29 11:47:28 1514566048.481240: $GPZDA,164729.00,29,12,2017,00,00*65
2017-12-29 11:47:28 1514566048.481412: $GPGGA,164729,3946.9595,N,08404.9857,W,1,11,0.80,333.39,M,-33.324,M,,*75
2017-12-29 11:47:28 1514566048.481477: $GPRMC,164729,A,3946.9595,N,08404.9857,W,0.0000,0.000,291217,,*3D
2017-12-29 11:47:28 1514566048.481538: $GPGSA,A,3,8,10,14,15,18,20,21,24,27,32,138,,1.7,0.8,1.3*36
2017-12-29 11:47:29 1514566049.427281: $GPZDA,164730.00,29,12,2017,00,00*6D
2017-12-29 11:47:29 1514566049.427505: $GPGGA,164730,3946.9598,N,08404.9856,W,1,11,0.80,332.62,M,-33.324,M,,*7E
2017-12-29 11:47:29 1514566049.427578: $GPRMC,164730,A,3946.9598,N,08404.9856,W,0.0000,0.000,291217,,*39
2017-12-29 11:47:29 1514566049.427725: $GPGSA,A,3,8,10,14,15,18,20,21,24,27,32,138,,1.7,0.8,1.3*36
2017-12-29 11:47:29 1514566049.427825: $GPGBS,164730,10.91,M,10.38,M,30.89,M*08
2017-12-29 11:47:30 1514566050.763991: $GPGSV,3,1,11,08,08,310,38,10,53,312,46,14,14,240,38,15,25,057,46*79
2017-12-29 11:47:30 1514566050.764183: $GPGSV,3,2,11,18,77,027,46,20,24,106,50,21,48,183,48,24,53,085,53*72
2017-12-29 11:47:30 1514566050.764249: $GPGSV,3,3,11,27,15,276,41,32,33,249,39,138,38,213,46*79
2017-12-29 11:47:30 1514566050.877261: $GPZDA,164731.00,29,12,2017,00,00*6C
2017-12-29 11:47:30 1514566050.877432: $GPGGA,164731,3946.9634,N,08404.9870,W,2,11,1.40,326.15,M,-33.324,M,,*75
2017-12-29 11:47:30 1514566050.877497: $GPRMC,164731,A,3946.9634,N,08404.9870,W,0.0000,0.000,291217,,*39
2017-12-29 11:47:30 1514566050.877557: $GPGSA,A,3,8,10,14,15,18,20,21,24,27,32,138,,1.7,1.4,1.3*3B
2017-12-29 11:47:31 1514566051.429449: $GPZDA,164732.00,29,12,2017,00,00*6F
2017-12-29 11:47:31 1514566051.429631: $GPGGA,164732,3946.9634,N,08404.9870,W,2,11,0.80,326.15,M,-33.324,M,,*7B
2017-12-29 11:47:31 1514566051.429698: $GPRMC,164732,A,3946.9634,N,08404.9870,W,0.0000,0.000,291217,,*3A
2017-12-29 11:47:31 1514566051.429776: $GPGSA,A,3,8,10,14,15,18,20,21,24,27,32,138,,1.7,0.8,1.3*36
2017-12-29 11:47:32 1514566052.428684: $GPZDA,164733.00,29,12,2017,00,00*6E
2017-12-29 11:47:32 1514566052.428872: $GPGGA,164733,3946.9634,N,08404.9870,W,2,11,0.80,326.15,M,-33.324,M,,*7A
2017-12-29 11:47:32 1514566052.428940: $GPRMC,164733,A,3946.9634,N,08404.9870,W,0.0000,0.000,291217,,*3B
2017-12-29 11:47:32 1514566052.429000: $GPGSA,A,3,8,10,14,15,18,20,21,24,27,32,138,,1.7,0.8,1.3*36
2017-12-29 11:47:33 1514566053.763057: $GPGSV,3,1,11,08,08,310,11,10,53,312,14,14,14,240,11,15,25,057,14*79
2017-12-29 11:47:33 1514566053.763377: $GPGSV,3,2,11,18,77,027,14,20,24,106,15,21,48,183,14,24,53,085,16*7C
2017-12-29 11:47:33 1514566053.763504: $GPGSV,3,3,11,27,15,276,12,32,33,249,11,138,38,213,15*73
2017-12-29 11:47:33 1514566053.876495: $GPZDA,164734.00,29,12,2017,00,00*69
2017-12-29 11:47:33 1514566053.876682: $GPGGA,164734,3946.9634,N,08404.9870,W,2,11,0.80,326.15,M,-33.324,M,,*7D
2017-12-29 11:47:33 1514566053.876905: $GPRMC,164734,A,3946.9634,N,08404.9870,W,0.0000,0.000,291217,,*3C
2017-12-29 11:47:33 1514566053.876972: $GPGSA,A,3,8,10,14,15,18,20,21,24,27,32,138,,1.7,0.8,1.3*36
2017-12-29 11:47:34 1514566054.427507: $GPZDA,164735.00,29,12,2017,00,00*68
2017-12-29 11:47:34 1514566054.427708: $GPGGA,164735,3946.9631,N,08404.9871,W,2,11,0.80,326.91,M,-33.324,M,,*74
2017-12-29 11:47:34 1514566054.427804: $GPRMC,164735,A,3946.9631,N,08404.9871,W,0.0000,0.000,291217,,*39
2017-12-29 11:47:34 1514566054.427866: $GPGSA,A,3,8,10,14,15,18,20,21,24,27,32,138,,1.7,0.8,1.3*36
2017-12-29 11:47:35 1514566055.426017: $GPZDA,164736.00,29,12,2017,00,00*6B
2017-12-29 11:47:35 1514566055.426188: $GPGGA,164736,3946.9633,N,08404.9882,W,2,11,0.80,321.77,M,-33.324,M,,*76
2017-12-29 11:47:35 1514566055.426255: $GPRMC,164736,A,3946.9633,N,08404.9882,W,0.0000,0.000,291217,,*34
2017-12-29 11:47:35 1514566055.426315: $GPGSA,A,3,8,10,14,15,18,20,21,24,27,32,138,,1.7,0.8,1.3*36
2017-12-29 11:47:36 1514566056.762589: $GPGSV,3,1,11,08,08,310,37,10,53,312,44,14,14,240,38,15,25,057,46*74
2017-12-29 11:47:36 1514566056.762785: $GPGSV,3,2,11,18,77,027,45,20,24,106,48,21,48,183,46,24,53,085,51*74
2017-12-29 11:47:36 1514566056.762852: $GPGSV,3,3,11,27,15,276,40,32,33,249,37,138,38,213,45*75
2017-12-29 11:47:36 1514566056.876146: $GPZDA,164737.00,29,12,2017,00,00*6A
2017-12-29 11:47:36 1514566056.876315: $GPGGA,164737,3946.9633,N,08404.9882,W,2,11,0.80,321.77,M,-33.324,M,,*77
2017-12-29 11:47:36 1514566056.876381: $GPRMC,164737,A,3946.9633,N,08404.9882,W,0.0000,0.000,291217,,*35
2017-12-29 11:47:36 1514566056.876442: $GPGSA,A,3,8,10,14,15,18,20,21,24,27,32,138,,1.7,0.8,1.3*36
2017-12-29 11:47:37 1514566057.501627: $GPZDA,164738.00,29,12,2017,00,00*65
2017-12-29 11:47:37 1514566057.501807: $GPGGA,164738,3946.9633,N,08404.9882,W,2,11,0.80,321.77,M,-33.324,M,,*78
2017-12-29 11:47:37 1514566057.501873: $GPRMC,164738,A,3946.9633,N,08404.9882,W,0.0000,0.000,291217,,*3A
2017-12-29 11:47:37 1514566057.501935: $GPGSA,A,3,8,10,14,15,18,20,21,24,27,32,138,,1.7,0.8,1.3*36
