2017-12-31 17:01:15 1514757675.511779: {"class":"VERSION","release":"3.16","rev":"3.16-4","proto_major":3,"proto_minor":11}
2017-12-31 17:01:15 1514757675.512117: {"class":"DEVICES","devices":[{"class":"DEVICE","path":"/dev/ttyUSB0","driver":"SiRF","activated":"2017-12-31T22:01:15.247Z","flags":1,"native":1,"bps":4800,"parity":"N","stopbits":1,"cycle":1.00}]}
2017-12-31 17:01:15 1514757675.512218: {"class":"WATCH","enable":true,"json":false,"nmea":true,"raw":0,"scaled":false,"timing":false,"split24":false,"pps":false}
2017-12-31 17:01:15 1514757675.695352: $GPGSV,3,1,11,22,45,243,40,23,26,307,40,25,03,037,21,03,46,274,41*78
2017-12-31 17:01:15 1514757675.695516: $GPGSV,3,2,11,16,44,190,44,29,14,057,25,31,51,049,51,14,42,112,38*79
2017-12-31 17:01:15 1514757675.695580: $GPGSV,3,3,11,32,20,121,44,26,73,148,46,135,22,240,42*70
2017-12-31 17:01:15 1514757675.808065: $GPZDA,220116.00,31,12,2017,00,00*65
2017-12-31 17:01:15 1514757675.808170: $GPGGA,220116,3946.9584,N,08404.9855,W,2,11,1.00,302.98,M,-33.324,M,,*7D
2017-12-31 17:01:15 1514757675.808203: $GPRMC,220116,A,3946.9584,N,08404.9855,W,0.0000,0.000,311217,,*3F
2017-12-31 17:01:15 1514757675.808233: $GPGSA,A,3,22,23,25,3,16,29,31,14,32,26,135,,1.7,1.0,1.3*3B
2017-12-31 17:01:16 1514757676.358894: $GPZDA,220117.00,31,12,2017,00,00*64
2017-12-31 17:01:16 1514757676.358987: $GPGGA,220117,3946.9584,N,08404.9855,W,2,11,1.00,302.98,M,-33.324,M,,*7C
2017-12-31 17:01:16 1514757676.359020: $GPRMC,220117,A,3946.9584,N,08404.9855,W,0.0000,0.000,311217,,*3E
2017-12-31 17:01:16 1514757676.359050: $GPGSA,A,3,22,23,25,3,16,29,31,14,32,26,135,,1.7,1.0,1.3*3B
2017-12-31 17:01:17 1514757677.344200: $GPZDA,220118.00,31,12,2017,00,00*6B
2017-12-31 17:01:17 1514757677.344376: $GPGGA,220118,3946.9584,N,08404.9855,W,2,11,1.00,302.98,M,-33.324,M,,*73
2017-12-31 17:01:17 1514757677.344444: $GPRMC,220118,A,3946.9584,N,08404.9855,W,0.0000,0.000,311217,,*31
2017-12-31 17:01:17 1514757677.344504: $GPGSA,A,3,22,23,25,3,16,29,31,14,32,26,135,,1.7,1.0,1.3*3B
2017-12-31 17:01:18 1514757678.671135: $GPGSV,3,1,11,22,45,243,40,23,26,307,39,25,03,037,21,03,46,274,40*77
2017-12-31 17:01:18 1514757678.671315: $GPGSV,3,2,11,16,44,190,44,29,14,057,24,31,51,049,50,14,42,112,38*79
2017-12-31 17:01:18 1514757678.671382: $GPGSV,3,3,11,32,20,121,44,26,73,148,46,135,22,240,42*70
2017-12-31 17:01:18 1514757678.784904: $GPZDA,220119.00,31,12,2017,00,00*6A
2017-12-31 17:01:18 1514757678.785053: $GPGGA,220119,3946.9584,N,08404.9855,W,2,11,1.00,302.98,M,-33.324,M,,*72
2017-12-31 17:01:18 1514757678.785118: $GPRMC,220119,A,3946.9584,N,08404.9855,W,0.0000,0.000,311217,,*30
2017-12-31 17:01:18 1514757678.785178: $GPGSA,A,3,22,23,25,3,16,29,31,14,32,26,135,,1.7,1.0,1.3*3B
2017-12-31 17:01:19 1514757679.344154: $GPZDA,220120.00,31,12,2017,00,00*60
2017-12-31 17:01:19 1514757679.344302: $GPGGA,220120,3946.9584,N,08404.9855,W,2,11,1.00,302.98,M,-33.324,M,,*78
2017-12-31 17:01:19 1514757679.344368: $GPRMC,220120,A,3946.9584,N,08404.9855,W,0.0000,0.000,311217,,*3A
2017-12-31 17:01:19 1514757679.344428: $GPGSA,A,3,22,23,25,3,16,29,31,14,32,26,135,,1.7,1.0,1.3*3B
2017-12-31 17:01:20 1514757680.344539: $GPZDA,220121.00,31,12,2017,00,00*61
2017-12-31 17:01:20 1514757680.344705: $GPGGA,220121,3946.9584,N,08404.9855,W,2,11,1.00,302.98,M,-33.324,M,,*79
2017-12-31 17:01:20 1514757680.344771: $GPRMC,220121,A,3946.9584,N,08404.9855,W,0.0000,0.000,311217,,*3B
2017-12-31 17:01:20 1514757680.344831: $GPGSA,A,3,22,23,25,3,16,29,31,14,32,26,135,,1.7,1.0,1.3*3B
2017-12-31 17:01:21 1514757681.680234: $GPGSV,3,1,11,22,45,243,40,23,26,307,39,25,03,037,21,03,46,274,40*77
2017-12-31 17:01:21 1514757681.682705: $GPGSV,3,2,11,16,44,190,44,29,14,057,00,31,51,049,51,14,42,112,38*7E
2017-12-31 17:01:21 1514757681.682804: $GPGSV,3,3,11,32,20,121,44,26,73,148,46,135,22,240,43*71
2017-12-31 17:01:21 1514757681.793664: $GPZDA,220122.00,31,12,2017,00,00*62
2017-12-31 17:01:21 1514757681.793831: $GPGGA,220122,3946.9584,N,08404.9855,W,2,10,1.00,302.98,M,-33.324,M,,*7B
2017-12-31 17:01:21 1514757681.793897: $GPRMC,220122,A,3946.9584,N,08404.9855,W,0.0000,0.000,311217,,*38
2017-12-31 17:01:21 1514757681.794008: $GPGSA,A,3,22,23,25,3,16,31,14,32,26,135,,,1.7,1.0,1.3*30
2017-12-31 17:01:22 1514757682.349517: $GPZDA,220123.00,31,12,2017,00,00*63
2017-12-31 17:01:22 1514757682.349676: $GPGGA,220123,3946.9584,N,08404.9855,W,2,10,1.00,302.98,M,-33.324,M,,*7A
2017-12-31 17:01:22 1514757682.349743: $GPRMC,220123,A,3946.9584,N,08404.9855,W,0.0000,0.000,311217,,*39
2017-12-31 17:01:22 1514757682.349804: $GPGSA,A,3,22,23,25,3,16,31,14,32,26,135,,,1.7,1.0,1.3*30
2017-12-31 17:01:23 1514757683.360418: $GPZDA,220124.00,31,12,2017,00,00*64
2017-12-31 17:01:23 1514757683.360579: $GPGGA,220124,3946.9584,N,08404.9855,W,2,10,1.00,302.98,M,-33.324,M,,*7D
2017-12-31 17:01:23 1514757683.360663: $GPRMC,220124,A,3946.9584,N,08404.9855,W,0.0000,0.000,311217,,*3E
2017-12-31 17:01:23 1514757683.360726: $GPGSA,A,3,22,23,25,3,16,31,14,32,26,135,,,1.7,1.0,1.3*30
2017-12-31 17:01:24 1514757684.671068: $GPGSV,3,1,11,22,45,243,41,23,26,307,39,25,03,037,21,03,46,274,40*76
2017-12-31 17:01:24 1514757684.671249: $GPGSV,3,2,11,16,44,190,44,29,14,057,00,31,51,049,51,14,42,112,39*7F
2017-12-31 17:01:24 1514757684.671315: $GPGSV,3,3,11,32,20,121,44,26,73,148,46,135,22,240,42*70
2017-12-31 17:01:24 1514757684.784437: $GPZDA,220125.00,31,12,2017,00,00*65
2017-12-31 17:01:24 1514757684.784598: $GPGGA,220125,3946.9584,N,08404.9855,W,2,10,1.00,302.98,M,-33.324,M,,*7C
2017-12-31 17:01:24 1514757684.784666: $GPRMC,220125,A,3946.9584,N,08404.9855,W,0.0000,0.000,311217,,*3F
2017-12-31 17:01:24 1514757684.784727: $GPGSA,A,3,22,23,25,3,16,31,14,32,26,135,,,1.7,1.0,1.3*30
2017-12-31 17:01:25 1514757685.409852: $GPZDA,220126.00,31,12,2017,00,00*66
2017-12-31 17:01:25 1514757685.410021: $GPGGA,220126,3946.9584,N,08404.9855,W,2,10,1.00,302.98,M,-33.324,M,,*7F
2017-12-31 17:01:25 1514757685.410087: $GPRMC,220126,A,3946.9584,N,08404.9855,W,0.0000,0.000,311217,,*3C
2017-12-31 17:01:25 1514757685.410149: $GPGSA,A,3,22,23,25,3,16,31,14,32,26,135,,,1.7,1.0,1.3*30
