2018-01-11 19:59:24 1515718764.605988: {"class":"VERSION","release":"3.16","rev":"3.16-4","proto_major":3,"proto_minor":11}
2018-01-11 19:59:24 1515718764.606327: {"class":"DEVICES","devices":[{"class":"DEVICE","path":"/dev/ttyUSB0","driver":"SiRF","subtype":"9\u0006GSD4e_4.1.2-P1_RPATCH.05-F-GPS-4R-1510281 11/03/2015 307","activated":"2018-01-12T00:59:24.230Z","flags":1,"native":1,"bps":4800,"parity":"N","stopbits":1,"cycle":1.00}]}
2018-01-11 19:59:24 1515718764.606446: {"class":"WATCH","enable":true,"json":false,"nmea":true,"raw":0,"scaled":false,"timing":false,"split24":false,"pps":false}
2018-01-11 19:59:24 1515718764.679711: $GPGSV,3,1,11,07,51,313,42,08,70,147,46,09,51,237,44,11,16,169,40*76
2018-01-11 19:59:24 1515718764.679899: $GPGSV,3,2,11,16,27,057,46,23,34,192,46,27,51,058,50,30,24,304,31*7D
2018-01-11 19:59:24 1515718764.679964: $GPGSV,3,3,11,28,10,255,19,26,02,069,00,138,38,213,46*72
2018-01-11 19:59:24 1515718764.793177: $GPZDA,005925.00,12,01,2018,00,00*64
2018-01-11 19:59:24 1515718764.793330: $GPGGA,005925,3946.9584,N,08404.9850,W,2,10,0.80,295.19,M,-33.324,M,,*7B
2018-01-11 19:59:24 1515718764.793398: $GPRMC,005925,A,3946.9584,N,08404.9850,W,0.0000,0.000,120118,,*3B
2018-01-11 19:59:24 1515718764.793458: $GPGSA,A,3,7,8,9,11,16,23,27,30,28,138,,,4.0,0.8,3.5*3E
2018-01-11 19:59:25 1515718765.345175: $GPZDA,005926.00,12,01,2018,00,00*67
2018-01-11 19:59:25 1515718765.345323: $GPGGA,005926,3946.9584,N,08404.9850,W,2,10,0.80,295.19,M,-33.324,M,,*78
2018-01-11 19:59:25 1515718765.345390: $GPRMC,005926,A,3946.9584,N,08404.9850,W,0.0000,0.000,120118,,*38
2018-01-11 19:59:25 1515718765.345449: $GPGSA,A,3,7,8,9,11,16,23,27,30,28,138,,,4.0,0.8,3.5*3E
2018-01-11 19:59:26 1515718766.344724: $GPZDA,005927.00,12,01,2018,00,00*66
2018-01-11 19:59:26 1515718766.344906: $GPGGA,005927,3946.9580,N,08404.9850,W,2,10,0.80,294.55,M,-33.324,M,,*74
2018-01-11 19:59:26 1515718766.344974: $GPRMC,005927,A,3946.9580,N,08404.9850,W,0.0000,0.000,120118,,*3D
2018-01-11 19:59:26 1515718766.345036: $GPGSA,A,3,7,8,9,11,16,23,27,30,28,138,,,4.0,0.8,3.5*3E
2018-01-11 19:59:26 1515718766.345094: $GPGBS,005927,3.65,M,6.21,M,20.10,M*01
2018-01-11 19:59:27 1515718767.684926: $GPGSV,3,1,11,07,51,313,42,08,70,147,46,09,51,237,44,11,16,169,40*76
2018-01-11 19:59:27 1515718767.685107: $GPGSV,3,2,11,16,27,057,46,23,34,192,47,27,51,058,50,30,24,304,32*7F
2018-01-11 19:59:27 1515718767.685172: $GPGSV,3,3,11,28,10,255,04,26,02,069,00,138,38,213,46*7E
2018-01-11 19:59:27 1515718767.797019: $GPZDA,005928.00,12,01,2018,00,00*69
2018-01-11 19:59:27 1515718767.797148: $GPGGA,005928,3946.9580,N,08404.9850,W,2,09,0.80,294.55,M,-33.324,M,,*73
2018-01-11 19:59:27 1515718767.797213: $GPRMC,005928,A,3946.9580,N,08404.9850,W,0.0000,0.000,120118,,*32
2018-01-11 19:59:27 1515718767.797274: $GPGSA,A,3,7,8,9,11,16,23,27,30,138,,,,4.0,0.8,3.5*34
2018-01-11 19:59:28 1515718768.352893: $GPZDA,005929.00,12,01,2018,00,00*68
2018-01-11 19:59:28 1515718768.353046: $GPGGA,005929,3946.9580,N,08404.9850,W,2,09,0.80,294.55,M,-33.324,M,,*72
2018-01-11 19:59:28 1515718768.353114: $GPRMC,005929,A,3946.9580,N,08404.9850,W,0.0000,0.000,120118,,*33
2018-01-11 19:59:28 1515718768.353174: $GPGSA,A,3,7,8,9,11,16,23,27,30,138,,,,4.0,0.8,3.5*34
2018-01-11 19:59:29 1515718769.350458: $GPZDA,005930.00,12,01,2018,00,00*60
2018-01-11 19:59:29 1515718769.350609: $GPGGA,005930,3946.9580,N,08404.9850,W,2,09,0.80,294.55,M,-33.324,M,,*7A
2018-01-11 19:59:29 1515718769.350674: $GPRMC,005930,A,3946.9580,N,08404.9850,W,0.0000,0.000,120118,,*3B
2018-01-11 19:59:29 1515718769.350736: $GPGSA,A,3,7,8,9,11,16,23,27,30,138,,,,4.0,0.8,3.5*34
2018-01-11 19:59:30 1515718770.685766: $GPGSV,3,1,11,07,51,313,43,08,70,147,46,09,51,237,44,11,16,169,41*76
2018-01-11 19:59:30 1515718770.685949: $GPGSV,3,2,11,16,27,057,46,23,34,192,47,27,51,058,50,30,24,304,31*7C
2018-01-11 19:59:30 1515718770.686014: $GPGSV,3,3,11,28,10,255,26,26,02,069,00,138,38,213,45*7D
2018-01-11 19:59:30 1515718770.797839: $GPZDA,005931.00,12,01,2018,00,00*61
2018-01-11 19:59:30 1515718770.797966: $GPGGA,005931,3946.9580,N,08404.9850,W,2,10,0.80,294.55,M,-33.324,M,,*73
2018-01-11 19:59:30 1515718770.798086: $GPRMC,005931,A,3946.9580,N,08404.9850,W,0.0000,0.000,120118,,*3A
2018-01-11 19:59:30 1515718770.798147: $GPGSA,A,3,7,8,9,11,16,23,27,30,28,138,,,4.0,0.8,3.5*3E
2018-01-11 19:59:31 1515718771.351271: $GPZDA,005932.00,12,01,2018,00,00*62
2018-01-11 19:59:31 1515718771.351457: $GPGGA,005932,3946.9580,N,08404.9850,W,2,10,0.80,294.55,M,-33.324,M,,*70
2018-01-11 19:59:31 1515718771.351524: $GPRMC,005932,A,3946.9580,N,08404.9850,W,0.0000,0.000,120118,,*39
2018-01-11 19:59:31 1515718771.351587: $GPGSA,A,3,7,8,9,11,16,23,27,30,28,138,,,4.0,0.8,3.5*3E
2018-01-11 19:59:32 1515718772.344476: $GPZDA,005933.00,12,01,2018,00,00*63
2018-01-11 19:59:32 1515718772.344644: $GPGGA,005933,3946.9580,N,08404.9850,W,2,10,0.80,294.55,M,-33.324,M,,*71
2018-01-11 19:59:32 1515718772.344716: $GPRMC,005933,A,3946.9580,N,08404.9850,W,0.0000,0.000,120118,,*38
2018-01-11 19:59:32 1515718772.344777: $GPGSA,A,3,7,8,9,11,16,23,27,30,28,138,,,4.0,0.8,3.5*3E
2018-01-11 19:59:33 1515718773.684860: $GPGSV,3,1,11,07,51,313,43,08,70,147,46,09,51,237,44,11,16,169,41*76
2018-01-11 19:59:33 1515718773.685044: $GPGSV,3,2,11,16,27,057,46,23,34,192,47,27,51,058,50,30,24,304,31*7C
2018-01-11 19:59:33 1515718773.685109: $GPGSV,3,3,11,28,10,255,04,26,02,069,00,138,38,213,46*7E
2018-01-11 19:59:33 1515718773.798202: $GPZDA,005934.00,12,01,2018,00,00*64
2018-01-11 19:59:33 1515718773.798353: $GPGGA,005934,3946.9580,N,08404.9850,W,2,09,0.80,294.55,M,-33.324,M,,*7E
2018-01-11 19:59:33 1515718773.798421: $GPRMC,005934,A,3946.9580,N,08404.9850,W,0.0000,0.000,120118,,*3F
2018-01-11 19:59:33 1515718773.798482: $GPGSA,A,3,7,8,9,11,16,23,27,30,138,,,,4.0,0.8,3.5*34
2018-01-11 19:59:34 1515718774.349091: $GPZDA,005935.00,12,01,2018,00,00*65
2018-01-11 19:59:34 1515718774.349247: $GPGGA,005935,3946.9580,N,08404.9850,W,2,09,0.80,294.55,M,-33.324,M,,*7F
2018-01-11 19:59:34 1515718774.349315: $GPRMC,005935,A,3946.9580,N,08404.9850,W,0.0000,0.000,120118,,*3E
2018-01-11 19:59:34 1515718774.349375: $GPGSA,A,3,7,8,9,11,16,23,27,30,138,,,,4.0,0.8,3.5*34
