2017-12-01 13:49:13 1512154153.667065: {"class":"VERSION","release":"3.16","rev":"3.16-4","proto_major":3,"proto_minor":11}
2017-12-01 13:49:13 1512154153.667814: {"class":"DEVICES","devices":[{"class":"DEVICE","path":"/dev/ttyUSB0","driver":"SiRF","subtype":"9\u0006GSD4e_4.1.2-P1_RPATCH.05-F-GPS-4R-1510281 11/03/2015 307","activated":"2017-12-01T18:49:13.648Z","flags":1,"native":1,"bps":4800,"parity":"N","stopbits":1,"cycle":1.00}]}
2017-12-01 13:49:13 1512154153.667950: {"class":"WATCH","enable":true,"json":false,"nmea":true,"raw":0,"scaled":false,"timing":false,"split24":false,"pps":false}
2017-12-01 13:49:14 1512154154.917554: $GPGSV,3,1,11,10,55,315,38,14,17,243,32,15,23,058,37,18,77,039,33*7E
2017-12-01 13:49:14 1512154154.917733: $GPGSV,3,2,11,20,20,108,34,21,45,181,35,24,52,079,37,27,14,273,29*7C
2017-12-01 13:49:14 1512154154.917799: $GPGSV,3,3,11,32,34,250,32,08,08,307,00,138,38,213,00*7C
2017-12-01 13:49:15 1512154155.030946: $GPZDA,184915.02,01,12,2017,00,00*62
2017-12-01 13:49:15 1512154155.031115: $GPGGA,184915,3946.9573,N,08404.9792,W,1,09,1.00,302.41,M,-33.324,M,,*79
2017-12-01 13:49:15 1512154155.031182: $GPRMC,184915,A,3946.9573,N,08404.9792,W,0.3026,285.365,011217,,*3E
2017-12-01 13:49:15 1512154155.031244: $GPGSA,A,3,10,14,15,18,20,21,24,27,32,,,,2.0,1.0,1.5*3F
2017-12-01 13:49:15 1512154155.640669: $GPZDA,184916.00,01,12,2017,00,00*63
2017-12-01 13:49:15 1512154155.640844: $GPGGA,184916,3946.9569,N,08404.9793,W,1,09,0.80,303.17,M,-33.324,M,,*7B
2017-12-01 13:49:15 1512154155.640911: $GPRMC,184916,A,3946.9569,N,08404.9793,W,0.2365,125.883,011217,,*38
2017-12-01 13:49:15 1512154155.640973: $GPGSA,A,3,10,14,15,18,20,21,24,27,32,,,,2.0,0.8,1.5*36
2017-12-01 13:49:15 1512154155.641030: $GPGBS,184916,10.70,M,15.43,M,35.28,M*04
2017-12-01 13:49:16 1512154156.170801: $GPZDA,184917.00,01,12,2017,00,00*62
2017-12-01 13:49:16 1512154156.170989: $GPGGA,184917,3946.9569,N,08404.9800,W,1,09,0.80,303.09,M,-33.324,M,,*70
2017-12-01 13:49:16 1512154156.171058: $GPRMC,184917,A,3946.9569,N,08404.9800,W,0.0407,322.013,011217,,*39
2017-12-01 13:49:16 1512154156.171123: $GPGSA,A,3,10,14,15,18,20,21,24,27,32,,,,2.0,0.8,1.5*36
2017-12-01 13:49:16 1512154156.171184: $GPGBS,184917,10.70,M,15.43,M,35.28,M*05
2017-12-01 13:49:17 1512154157.506741: $GPGSV,3,1,11,10,55,315,48,14,17,243,40,15,23,058,46,18,77,039,42*7C
2017-12-01 13:49:17 1512154157.506928: $GPGSV,3,2,11,20,20,108,44,21,45,181,44,24,52,079,46,27,14,273,37*74
2017-12-01 13:49:17 1512154157.506998: $GPGSV,3,3,11,32,34,250,42,08,08,307,11,138,38,213,46*79
2017-12-01 13:49:17 1512154157.620353: $GPZDA,184918.00,01,12,2017,00,00*6D
2017-12-01 13:49:17 1512154157.620548: $GPGGA,184918,3946.9569,N,08404.9800,W,1,10,1.00,303.09,M,-33.324,M,,*7E
2017-12-01 13:49:17 1512154157.620620: $GPRMC,184918,A,3946.9569,N,08404.9800,W,0.0000,0.000,011217,,*34
2017-12-01 13:49:17 1512154157.620684: $GPGSA,A,3,10,14,15,18,20,21,24,27,32,138,,,2.0,1.0,1.5*05
2017-12-01 13:49:18 1512154158.169812: $GPZDA,184919.00,01,12,2017,00,00*6C
2017-12-01 13:49:18 1512154158.169989: $GPGGA,184919,3946.9569,N,08404.9800,W,1,10,0.80,303.09,M,-33.324,M,,*76
2017-12-01 13:49:18 1512154158.170061: $GPRMC,184919,A,3946.9569,N,08404.9800,W,0.0000,0.000,011217,,*35
2017-12-01 13:49:18 1512154158.170125: $GPGSA,A,3,10,14,15,18,20,21,24,27,32,138,,,2.0,0.8,1.5*0C
2017-12-01 13:49:19 1512154159.174863: $GPZDA,184920.00,01,12,2017,00,00*66
2017-12-01 13:49:19 1512154159.175022: $GPGGA,184920,3946.9570,N,08404.9807,W,1,10,0.80,303.01,M,-33.324,M,,*7B
2017-12-01 13:49:19 1512154159.175091: $GPRMC,184920,A,3946.9570,N,08404.9807,W,0.0000,0.000,011217,,*30
2017-12-01 13:49:19 1512154159.175156: $GPGSA,A,3,10,14,15,18,20,21,24,27,32,138,,,2.0,0.8,1.5*0C
2017-12-01 13:49:20 1512154160.508531: $GPGSV,3,1,11,10,55,315,49,14,17,243,39,15,23,058,47,18,77,039,43*73
2017-12-01 13:49:20 1512154160.508713: $GPGSV,3,2,11,20,20,108,44,21,45,181,44,24,52,079,47,27,14,273,38*7A
2017-12-01 13:49:20 1512154160.508781: $GPGSV,3,3,11,32,34,250,42,08,08,307,21,138,38,213,46*7A
2017-12-01 13:49:20 1512154160.622149: $GPZDA,184921.00,01,12,2017,00,00*67
2017-12-01 13:49:20 1512154160.622388: $GPGGA,184921,3946.9570,N,08404.9807,W,1,11,1.00,303.01,M,-33.324,M,,*72
2017-12-01 13:49:20 1512154160.622475: $GPRMC,184921,A,3946.9570,N,08404.9807,W,0.0000,0.000,011217,,*31
2017-12-01 13:49:20 1512154160.622537: $GPGSA,A,3,10,14,15,18,20,21,24,27,32,8,138,,2.0,1.0,1.5*3D
2017-12-01 13:49:21 1512154161.340736: $GPZDA,184922.00,01,12,2017,00,00*64
2017-12-01 13:49:21 1512154161.340923: $GPGGA,184922,3946.9570,N,08404.9807,W,1,11,1.00,303.01,M,-33.324,M,,*71
2017-12-01 13:49:21 1512154161.340994: $GPRMC,184922,A,3946.9570,N,08404.9807,W,0.0000,0.000,011217,,*32
2017-12-01 13:49:21 1512154161.341057: $GPGSA,A,3,10,14,15,18,20,21,24,27,32,8,138,,2.0,1.0,1.5*3D
2017-12-01 13:49:22 1512154162.341736: $GPZDA,184923.00,01,12,2017,00,00*65
2017-12-01 13:49:22 1512154162.341915: $GPGGA,184923,3946.9570,N,08404.9814,W,1,11,0.80,302.94,M,-33.324,M,,*76
2017-12-01 13:49:22 1512154162.341985: $GPRMC,184923,A,3946.9570,N,08404.9814,W,0.0000,0.000,011217,,*31
2017-12-01 13:49:22 1512154162.342051: $GPGSA,A,3,10,14,15,18,20,21,24,27,32,8,138,,2.0,0.8,1.5*34
