2017-12-14 12:03:37 1513271017.723557: {"class":"VERSION","release":"3.16","rev":"3.16-4","proto_major":3,"proto_minor":11}
2017-12-14 12:03:37 1513271017.723929: {"class":"DEVICES","devices":[{"class":"DEVICE","path":"/dev/ttyUSB0","driver":"SiRF","subtype":"9\u0006GSD4e_4.1.2-P1_RPATCH.05-F-GPS-4R-1510281 11/03/2015 307","activated":"2017-12-14T17:03:37.657Z","flags":1,"native":1,"bps":4800,"parity":"N","stopbits":1,"cycle":1.00}]}
2017-12-14 12:03:37 1513271017.724050: {"class":"WATCH","enable":true,"json":false,"nmea":true,"raw":0,"scaled":false,"timing":false,"split24":false,"pps":false}
2017-12-14 12:03:38 1513271018.171297: $GPZDA,170339.00,14,12,2017,00,00*6B
2017-12-14 12:03:38 1513271018.171498: $GPGGA,170339,3946.9499,N,08404.9327,W,1,07,1.40,340.61,M,-33.324,M,,*77
2017-12-14 12:03:38 1513271018.171569: $GPRMC,170339,A,3946.9499,N,08404.9327,W,0.5230,76.444,141217,,*03
2017-12-14 12:03:38 1513271018.171636: $GPGSA,A,3,10,15,32,21,24,20,18,,,,,,6.6,1.4,6.2*39
2017-12-14 12:03:39 1513271019.151529: $GPZDA,170340.00,14,12,2017,00,00*65
2017-12-14 12:03:39 1513271019.151695: $GPGGA,170340,3946.9507,N,08404.9326,W,1,07,1.80,340.48,M,-33.324,M,,*79
2017-12-14 12:03:39 1513271019.151762: $GPRMC,170340,A,3946.9507,N,08404.9326,W,0.3423,4.197,141217,,*36
2017-12-14 12:03:39 1513271019.151825: $GPGSA,A,3,10,15,32,21,24,20,18,,,,,,6.6,1.8,6.2*35
2017-12-14 12:03:40 1513271020.503766: $GPGSV,3,1,11,10,36,297,15,15,43,051,27,32,16,234,12,21,69,195,27*71
2017-12-14 12:03:40 1513271020.503931: $GPGSV,3,2,11,24,47,120,23,20,39,090,21,18,67,324,13,13,13,046,00*70
2017-12-14 12:03:40 1513271020.503997: $GPGSV,3,3,11,27,19,295,04,08,03,327,00,120,07,103,00*75
2017-12-14 12:03:40 1513271020.617765: $GPZDA,170341.00,14,12,2017,00,00*64
2017-12-14 12:03:40 1513271020.617956: $GPGGA,170341,3946.9507,N,08404.9326,W,1,07,1.80,340.48,M,-33.324,M,,*78
2017-12-14 12:03:40 1513271020.618022: $GPRMC,170341,A,3946.9507,N,08404.9326,W,0.3423,4.197,141217,,*37
2017-12-14 12:03:40 1513271020.618084: $GPGSA,A,3,10,15,32,21,24,20,18,,,,,,6.6,1.8,6.2*35
2017-12-14 12:03:41 1513271021.168785: $GPZDA,170342.00,14,12,2017,00,00*67
2017-12-14 12:03:41 1513271021.168953: $GPGGA,170342,3946.9507,N,08404.9333,W,1,07,1.80,340.40,M,-33.324,M,,*77
2017-12-14 12:03:41 1513271021.169019: $GPRMC,170342,A,3946.9507,N,08404.9333,W,0.4179,328.779,141217,,*36
2017-12-14 12:03:41 1513271021.169082: $GPGSA,A,3,10,15,32,21,24,20,18,,,,,,6.6,1.8,6.2*35
2017-12-14 12:03:42 1513271022.171408: $GPZDA,170343.00,14,12,2017,00,00*66
2017-12-14 12:03:42 1513271022.171599: $GPGGA,170343,3946.9511,N,08404.9333,W,1,07,1.80,341.04,M,-33.324,M,,*70
2017-12-14 12:03:42 1513271022.171669: $GPRMC,170343,A,3946.9511,N,08404.9333,W,0.4207,219.347,141217,,*30
2017-12-14 12:03:42 1513271022.171733: $GPGSA,A,3,10,15,32,21,24,20,18,,,,,,6.6,1.8,6.2*35
2017-12-14 12:03:43 1513271023.504391: $GPGSV,3,1,11,10,36,297,14,15,43,051,27,32,16,234,13,21,69,195,27*71
2017-12-14 12:03:43 1513271023.504548: $GPGSV,3,2,11,24,47,120,23,20,39,090,21,18,67,324,12,13,13,046,13*73
2017-12-14 12:03:43 1513271023.504616: $GPGSV,3,3,11,27,19,295,00,08,03,327,00,120,07,103,00*71
2017-12-14 12:03:43 1513271023.618153: $GPZDA,170344.00,14,12,2017,00,00*61
2017-12-14 12:03:43 1513271023.618315: $GPGGA,170344,3946.9507,N,08404.9333,W,1,07,1.80,340.40,M,-33.324,M,,*71
2017-12-14 12:03:43 1513271023.618380: $GPRMC,170344,A,3946.9507,N,08404.9333,W,0.5857,158.291,141217,,*32
2017-12-14 12:03:43 1513271023.618442: $GPGSA,A,3,10,15,32,21,24,20,18,,,,,,6.6,1.8,6.2*35
2017-12-14 12:03:44 1513271024.150385: $GPZDA,170345.00,14,12,2017,00,00*60
2017-12-14 12:03:44 1513271024.150562: $GPGGA,170345,3946.9515,N,08404.9332,W,1,07,1.80,340.28,M,-33.324,M,,*7C
2017-12-14 12:03:44 1513271024.150632: $GPRMC,170345,A,3946.9515,N,08404.9332,W,0.2422,93.795,141217,,*0F
2017-12-14 12:03:44 1513271024.150699: $GPGSA,A,3,10,15,32,21,24,20,18,,,,,,6.6,1.8,6.2*35
2017-12-14 12:03:45 1513271025.165517: $GPZDA,170346.00,14,12,2017,00,00*63
2017-12-14 12:03:45 1513271025.165710: $GPGGA,170346,3946.9515,N,08404.9332,W,1,07,3.20,340.28,M,-33.324,M,,*77
2017-12-14 12:03:45 1513271025.165835: $GPRMC,170346,A,3946.9515,N,08404.9332,W,0.2422,93.795,141217,,*0C
2017-12-14 12:03:45 1513271025.165899: $GPGSA,A,3,10,15,32,21,24,20,18,,,,,,6.6,3.2,6.2*3D
2017-12-14 12:03:46 1513271026.500474: $GPGSV,3,1,11,10,36,297,05,15,43,051,27,32,16,234,12,21,69,195,27*70
2017-12-14 12:03:46 1513271026.500666: $GPGSV,3,2,11,24,47,120,23,20,39,090,21,18,67,324,04,13,13,046,12*75
2017-12-14 12:03:46 1513271026.500734: $GPGSV,3,3,11,27,19,295,00,08,03,327,00,120,07,103,00*71
2017-12-14 12:03:46 1513271026.613832: $GPZDA,170347.00,14,12,2017,00,00*62
2017-12-14 12:03:46 1513271026.613968: $GPGGA,170347,3946.9515,N,08404.9332,W,1,05,3.20,340.28,M,-33.324,M,,*74
2017-12-14 12:03:46 1513271026.614033: $GPRMC,170347,A,3946.9515,N,08404.9332,W,0.3155,129.994,141217,,*36
2017-12-14 12:03:46 1513271026.614094: $GPGSA,A,3,15,32,21,24,20,,,,,,,,6.6,3.2,6.2*35
2017-12-14 12:03:47 1513271027.165401: $GPZDA,170348.00,14,12,2017,00,00*6D
2017-12-14 12:03:47 1513271027.165613: $GPGGA,170348,3946.9515,N,08404.9332,W,1,05,3.20,340.28,M,-33.324,M,,*7B
2017-12-14 12:03:47 1513271027.165688: $GPRMC,170348,A,3946.9515,N,08404.9332,W,0.4844,93.795,141217,,*08
2017-12-14 12:03:47 1513271027.165751: $GPGSA,A,3,15,32,21,24,20,,,,,,,,6.6,3.2,6.2*35
2017-12-14 12:03:48 1513271028.147617: $GPZDA,170349.00,14,12,2017,00,00*6C
2017-12-14 12:03:48 1513271028.150952: $GPGGA,170349,3946.9515,N,08404.9332,W,1,05,3.20,340.28,M,-33.324,M,,*7A
2017-12-14 12:03:48 1513271028.151061: $GPRMC,170349,A,3946.9515,N,08404.9332,W,0.5912,129.173,141217,,*34
2017-12-14 12:03:48 1513271028.151127: $GPGSA,A,3,15,32,21,24,20,,,,,,,,6.6,3.2,6.2*35
2017-12-14 12:03:49 1513271029.487434: $GPGSV,3,1,11,10,36,297,04,15,43,051,27,32,16,234,13,21,69,195,27*70
2017-12-14 12:03:49 1513271029.487623: $GPGSV,3,2,11,24,47,120,23,20,39,090,21,18,67,324,16,13,13,046,02*77
2017-12-14 12:03:49 1513271029.487695: $GPGSV,3,3,11,27,19,295,00,08,03,327,00,120,07,103,00*71
2017-12-14 12:03:49 1513271029.600999: $GPZDA,170350.00,14,12,2017,00,00*64
2017-12-14 12:03:49 1513271029.601166: $GPGGA,170350,3946.9515,N,08404.9332,W,1,05,3.20,340.28,M,-33.324,M,,*72
2017-12-14 12:03:49 1513271029.601249: $GPRMC,170350,A,3946.9515,N,08404.9332,W,1.0002,154.332,141217,,*3D
2017-12-14 12:03:49 1513271029.601313: $GPGSA,A,3,15,32,21,24,20,,,,,,,,6.6,3.2,6.2*35
2017-12-14 12:03:50 1513271030.147319: $GPZDA,170351.00,14,12,2017,00,00*65
2017-12-14 12:03:50 1513271030.147492: $GPGGA,170351,3946.9515,N,08404.9332,W,1,05,3.20,340.28,M,-33.324,M,,*73
2017-12-14 12:03:50 1513271030.147564: $GPRMC,170351,A,3946.9515,N,08404.9332,W,0.7238,140.710,141217,,*30
2017-12-14 12:03:50 1513271030.147625: $GPGSA,A,3,15,32,21,24,20,,,,,,,,6.6,3.2,6.2*35
2017-12-14 12:03:51 1513271031.147363: $GPZDA,170352.00,14,12,2017,00,00*66
2017-12-14 12:03:51 1513271031.147533: $GPGGA,170352,3946.9514,N,08404.9324,W,1,05,3.20,338.96,M,-33.324,M,,*7C
2017-12-14 12:03:51 1513271031.147602: $GPRMC,170352,A,3946.9514,N,08404.9324,W,0.7238,140.710,141217,,*35
2017-12-14 12:03:51 1513271031.147667: $GPGSA,A,3,15,32,21,24,20,,,,,,,,6.6,3.2,6.2*35
2017-12-14 12:03:52 1513271032.483591: $GPGSV,3,1,11,10,36,297,04,15,43,051,26,32,16,234,12,21,69,195,27*70
2017-12-14 12:03:52 1513271032.483792: $GPGSV,3,2,11,24,47,120,23,20,39,090,21,18,67,324,00,13,13,046,14*77
2017-12-14 12:03:52 1513271032.483863: $GPGSV,3,3,11,27,19,295,00,08,03,327,00,120,07,103,00*71
2017-12-14 12:03:52 1513271032.596924: $GPZDA,170353.00,14,12,2017,00,00*67
2017-12-14 12:03:52 1513271032.597092: $GPGGA,170353,3946.9514,N,08404.9324,W,1,05,3.20,338.96,M,-33.324,M,,*7D
2017-12-14 12:03:52 1513271032.597157: $GPRMC,170353,A,3946.9514,N,08404.9324,W,0.5912,129.173,141217,,*39
2017-12-14 12:03:52 1513271032.597218: $GPGSA,A,3,15,32,21,24,20,,,,,,,,6.6,3.2,6.2*35
2017-12-14 12:03:53 1513271033.148082: $GPZDA,170354.00,14,12,2017,00,00*60
2017-12-14 12:03:53 1513271033.148264: $GPGGA,170354,3946.9514,N,08404.9324,W,1,05,3.20,338.96,M,-33.324,M,,*7A
2017-12-14 12:03:53 1513271033.148352: $GPRMC,170354,A,3946.9514,N,08404.9324,W,0.5306,114.353,141217,,*3F
2017-12-14 12:03:53 1513271033.148455: $GPGSA,A,3,15,32,21,24,20,,,,,,,,6.6,3.2,6.2*35
2017-12-14 12:03:54 1513271034.149428: $GPZDA,170355.00,14,12,2017,00,00*61
2017-12-14 12:03:54 1513271034.149595: $GPGGA,170355,3946.9514,N,08404.9324,W,1,05,3.20,338.96,M,-33.324,M,,*7B
2017-12-14 12:03:54 1513271034.149662: $GPRMC,170355,A,3946.9514,N,08404.9324,W,0.7238,140.710,141217,,*32
2017-12-14 12:03:54 1513271034.149723: $GPGSA,A,3,15,32,21,24,20,,,,,,,,6.6,3.2,6.2*35
2017-12-14 12:03:55 1513271035.482837: $GPGSV,3,1,11,10,36,297,04,15,43,051,26,32,16,234,13,21,69,195,27*71
2017-12-14 12:03:55 1513271035.482982: $GPGSV,3,2,11,24,47,120,23,20,39,090,21,18,67,324,17,27,19,295,00*75
2017-12-14 12:03:55 1513271035.483048: $GPGSV,3,3,11,13,13,046,00,08,03,327,00,120,07,103,00*70
2017-12-14 12:03:55 1513271035.596242: $GPZDA,170356.00,14,12,2017,00,00*62
2017-12-14 12:03:55 1513271035.596406: $GPGGA,170356,3946.9514,N,08404.9324,W,1,05,3.20,338.96,M,-33.324,M,,*78
2017-12-14 12:03:55 1513271035.596471: $GPRMC,170356,A,3946.9514,N,08404.9324,W,0.5912,129.173,141217,,*3C
2017-12-14 12:03:55 1513271035.596532: $GPGSA,A,3,15,32,21,24,20,,,,,,,,6.6,3.2,6.2*35
2017-12-14 12:03:56 1513271036.147623: $GPZDA,170357.00,14,12,2017,00,00*63
2017-12-14 12:03:56 1513271036.147794: $GPGGA,170357,3946.9517,N,08404.9324,W,1,05,3.20,338.19,M,-33.324,M,,*7D
2017-12-14 12:03:56 1513271036.147861: $GPRMC,170357,A,3946.9517,N,08404.9324,W,0.5857,158.291,141217,,*37
2017-12-14 12:03:56 1513271036.147922: $GPGSA,A,3,15,32,21,24,20,,,,,,,,6.6,3.2,6.2*35
2017-12-14 12:03:57 1513271037.147728: $GPZDA,170358.00,14,12,2017,00,00*6C
2017-12-14 12:03:57 1513271037.147890: $GPGGA,170358,3946.9517,N,08404.9324,W,1,05,3.20,338.19,M,-33.324,M,,*72
2017-12-14 12:03:57 1513271037.147956: $GPRMC,170358,A,3946.9517,N,08404.9324,W,0.6846,184.197,141217,,*3F
2017-12-14 12:03:57 1513271037.148017: $GPGSA,A,3,15,32,21,24,20,,,,,,,,6.6,3.2,6.2*35
