2017-11-16 17:05:31 1510869931.742386: {"class":"VERSION","release":"3.17","rev":"3.17","proto_major":3,"proto_minor":12}
2017-11-16 17:05:31 1510869931.742875: {"class":"DEVICES","devices":[{"class":"DEVICE","path":"/dev/ttyUSB0","driver":"SiRF","subtype":"9\u0006GSD4e_4.1.2-P1_RPATCH.05-F-GPS-4R-1510281 11/03/2015 307","activated":"2017-11-16T22:05:31.612Z","flags":1,"native":1,"bps":4800,"parity":"N","stopbits":1,"cycle":1.00}]}
2017-11-16 17:05:31 1510869931.743001: {"class":"WATCH","enable":true,"json":false,"nmea":true,"raw":0,"scaled":false,"timing":false,"split24":false,"pps":false}
2017-11-16 17:05:32 1510869932.391515: $GPZDA,220531.00,16,11,2017,00,00*62
2017-11-16 17:05:32 1510869932.391733: $GPGGA,220531,3946.9579,N,08404.9818,W,2,12,0.80,312.00,M,-33.324,M,,*7D
2017-11-16 17:05:32 1510869932.391795: $GPRMC,220531,A,3946.9579,N,08404.9818,W,0.0000,0.000,161117,,*33
2017-11-16 17:05:32 1510869932.391852: $GPGSA,A,3,1,10,11,12,14,18,22,24,25,31,32,138,1.6,0.8,1.3*38
2017-11-16 17:05:33 1510869933.747589: $GPGSV,3,1,12,01,18,312,39,10,61,141,49,11,11,292,37,12,25,061,49*76
2017-11-16 17:05:33 1510869933.747778: $GPGSV,3,2,12,14,60,304,46,18,29,139,44,22,09,312,40,24,07,046,29*71
2017-11-16 17:05:33 1510869933.747844: $GPGSV,3,3,12,25,35,105,46,31,43,216,48,32,70,352,49,138,38,213,44*4F
2017-11-16 17:05:33 1510869933.860840: $GPZDA,220532.00,16,11,2017,00,00*61
2017-11-16 17:05:33 1510869933.860990: $GPGGA,220532,3946.9579,N,08404.9818,W,2,12,0.80,312.00,M,-33.324,M,,*7E
2017-11-16 17:05:33 1510869933.861051: $GPRMC,220532,A,3946.9579,N,08404.9818,W,0.0000,0.000,161117,,*30
2017-11-16 17:05:33 1510869933.861108: $GPGSA,A,3,1,10,11,12,14,18,22,24,25,31,32,138,1.6,0.8,1.3*38
2017-11-16 17:05:34 1510869934.411526: $GPZDA,220533.00,16,11,2017,00,00*60
2017-11-16 17:05:34 1510869934.411689: $GPGGA,220533,3946.9579,N,08404.9818,W,2,12,0.80,312.00,M,-33.324,M,,*7F
2017-11-16 17:05:34 1510869934.411752: $GPRMC,220533,A,3946.9579,N,08404.9818,W,0.0000,0.000,161117,,*31
2017-11-16 17:05:34 1510869934.411808: $GPGSA,A,3,1,10,11,12,14,18,22,24,25,31,32,138,1.6,0.8,1.3*38
2017-11-16 17:05:35 1510869935.412479: $GPZDA,220534.00,16,11,2017,00,00*67
2017-11-16 17:05:35 1510869935.412648: $GPGGA,220534,3946.9579,N,08404.9818,W,2,12,0.80,312.00,M,-33.324,M,,*78
2017-11-16 17:05:35 1510869935.412710: $GPRMC,220534,A,3946.9579,N,08404.9818,W,0.0000,0.000,161117,,*36
2017-11-16 17:05:35 1510869935.412766: $GPGSA,A,3,1,10,11,12,14,18,22,24,25,31,32,138,1.6,0.8,1.3*38
2017-11-16 17:05:36 1510869936.748968: $GPGSV,3,1,12,01,18,312,39,10,61,141,49,11,11,292,37,12,25,061,49*76
2017-11-16 17:05:36 1510869936.749147: $GPGSV,3,2,12,14,60,304,46,18,29,139,43,22,09,312,39,24,07,046,29*78
2017-11-16 17:05:36 1510869936.749208: $GPGSV,3,3,12,25,35,105,46,31,43,216,48,32,70,352,49,138,38,213,44*4F
2017-11-16 17:05:36 1510869936.862305: $GPZDA,220535.00,16,11,2017,00,00*66
2017-11-16 17:05:36 1510869936.862486: $GPGGA,220535,3946.9579,N,08404.9818,W,2,12,0.80,312.00,M,-33.324,M,,*79
2017-11-16 17:05:36 1510869936.862547: $GPRMC,220535,A,3946.9579,N,08404.9818,W,0.0000,0.000,161117,,*37
2017-11-16 17:05:36 1510869936.862605: $GPGSA,A,3,1,10,11,12,14,18,22,24,25,31,32,138,1.6,0.8,1.3*38
2017-11-16 17:05:37 1510869937.413590: $GPZDA,220536.00,16,11,2017,00,00*65
2017-11-16 17:05:37 1510869937.413797: $GPGGA,220536,3946.9579,N,08404.9818,W,2,12,0.80,312.00,M,-33.324,M,,*7A
2017-11-16 17:05:37 1510869937.413865: $GPRMC,220536,A,3946.9579,N,08404.9818,W,0.0000,0.000,161117,,*34
2017-11-16 17:05:37 1510869937.413923: $GPGSA,A,3,1,10,11,12,14,18,22,24,25,31,32,138,1.6,0.8,1.3*38
2017-11-16 17:05:38 1510869938.412802: $GPZDA,220537.00,16,11,2017,00,00*64
2017-11-16 17:05:38 1510869938.412969: $GPGGA,220537,3946.9579,N,08404.9818,W,2,12,0.80,312.00,M,-33.324,M,,*7B
2017-11-16 17:05:38 1510869938.413030: $GPRMC,220537,A,3946.9579,N,08404.9818,W,0.0000,0.000,161117,,*35
2017-11-16 17:05:38 1510869938.413107: $GPGSA,A,3,1,10,11,12,14,18,22,24,25,31,32,138,1.6,0.8,1.3*38
2017-11-16 17:05:39 1510869939.748629: $GPGSV,3,1,12,01,18,312,38,10,61,141,48,11,11,292,30,12,25,061,49*71
2017-11-16 17:05:39 1510869939.748862: $GPGSV,3,2,12,14,60,304,46,18,29,139,43,22,09,312,38,24,07,046,29*79
2017-11-16 17:05:39 1510869939.748928: $GPGSV,3,3,12,25,35,105,46,31,43,216,48,32,70,352,49,138,38,213,43*48
2017-11-16 17:05:39 1510869939.861865: $GPZDA,220538.00,16,11,2017,00,00*6B
2017-11-16 17:05:39 1510869939.862040: $GPGGA,220538,3946.9579,N,08404.9818,W,2,12,0.80,312.00,M,-33.324,M,,*74
2017-11-16 17:05:39 1510869939.862102: $GPRMC,220538,A,3946.9579,N,08404.9818,W,0.0000,0.000,161117,,*3A
2017-11-16 17:05:39 1510869939.862158: $GPGSA,A,3,1,10,11,12,14,18,22,24,25,31,32,138,1.6,0.8,1.3*38
2017-11-16 17:05:40 1510869940.391495: $GPZDA,220539.00,16,11,2017,00,00*6A
2017-11-16 17:05:40 1510869940.391673: $GPGGA,220539,3946.9579,N,08404.9818,W,2,12,0.80,312.00,M,-33.324,M,,*75
2017-11-16 17:05:40 1510869940.391738: $GPRMC,220539,A,3946.9579,N,08404.9818,W,0.0000,0.000,161117,,*3B
2017-11-16 17:05:40 1510869940.391795: $GPGSA,A,3,1,10,11,12,14,18,22,24,25,31,32,138,1.6,0.8,1.3*38
2017-11-16 17:05:41 1510869941.398784: $GPZDA,220540.00,16,11,2017,00,00*64
2017-11-16 17:05:41 1510869941.398963: $GPGGA,220540,3946.9579,N,08404.9818,W,2,12,0.80,312.00,M,-33.324,M,,*7B
2017-11-16 17:05:41 1510869941.399027: $GPRMC,220540,A,3946.9579,N,08404.9818,W,0.0000,0.000,161117,,*35
2017-11-16 17:05:41 1510869941.399085: $GPGSA,A,3,1,10,11,12,14,18,22,24,25,31,32,138,1.6,0.8,1.3*38
