2017-12-01 12:04:41 1512147881.656677: {"class":"VERSION","release":"3.16","rev":"3.16-4","proto_major":3,"proto_minor":11}
2017-12-01 12:04:41 1512147881.657072: {"class":"DEVICES","devices":[{"class":"DEVICE","path":"/dev/ttyUSB0","driver":"SiRF","subtype":"9\u0006GSD4e_4.1.2-P1_RPATCH.05-F-GPS-4R-1510281 11/03/2015 307","activated":"2017-12-01T17:04:41.540Z","flags":1,"native":1,"bps":4800,"parity":"N","stopbits":1,"cycle":1.00}]}
2017-12-01 12:04:41 1512147881.657197: {"class":"WATCH","enable":true,"json":false,"nmea":true,"raw":0,"scaled":false,"timing":false,"split24":false,"pps":false}
2017-12-01 12:04:42 1512147882.399330: $GPZDA,170443.00,01,12,2017,00,00*65
2017-12-01 12:04:42 1512147882.399510: $GPGGA,170443,3946.9614,N,08404.9833,W,2,11,0.80,294.85,M,-33.324,M,,*7F
2017-12-01 12:04:42 1512147882.399579: $GPRMC,170443,A,3946.9614,N,08404.9833,W,0.0000,0.000,011217,,*35
2017-12-01 12:04:42 1512147882.399642: $GPGSA,A,3,10,13,15,18,20,21,24,27,29,5,138,,2.0,0.8,1.5*34
2017-12-01 12:04:43 1512147883.736330: $GPGSV,3,1,12,10,19,279,39,13,34,046,44,15,67,055,45,18,50,294,46*75
2017-12-01 12:04:43 1512147883.736513: $GPGSV,3,2,12,20,56,064,45,21,75,291,45,24,28,142,44,27,14,318,37*76
2017-12-01 12:04:43 1512147883.736579: $GPGSV,3,3,12,29,15,192,31,05,07,084,17,04,05,135,00,138,38,213,46*40
2017-12-01 12:04:43 1512147883.849680: $GPZDA,170444.00,01,12,2017,00,00*62
2017-12-01 12:04:43 1512147883.849852: $GPGGA,170444,3946.9614,N,08404.9833,W,2,11,0.80,294.85,M,-33.324,M,,*78
2017-12-01 12:04:43 1512147883.849918: $GPRMC,170444,A,3946.9614,N,08404.9833,W,0.0000,0.000,011217,,*32
2017-12-01 12:04:43 1512147883.849982: $GPGSA,A,3,10,13,15,18,20,21,24,27,29,5,138,,2.0,0.8,1.5*34
2017-12-01 12:04:44 1512147884.476464: $GPZDA,170445.00,01,12,2017,00,00*63
2017-12-01 12:04:44 1512147884.476636: $GPGGA,170445,3946.9614,N,08404.9833,W,2,11,0.80,294.85,M,-33.324,M,,*79
2017-12-01 12:04:44 1512147884.476704: $GPRMC,170445,A,3946.9614,N,08404.9833,W,0.0000,0.000,011217,,*33
2017-12-01 12:04:44 1512147884.476766: $GPGSA,A,3,10,13,15,18,20,21,24,27,29,5,138,,2.0,0.8,1.5*34
2017-12-01 12:04:45 1512147885.399687: $GPZDA,170446.00,01,12,2017,00,00*60
2017-12-01 12:04:45 1512147885.399875: $GPGGA,170446,3946.9614,N,08404.9833,W,2,11,0.80,294.85,M,-33.324,M,,*7A
2017-12-01 12:04:45 1512147885.399944: $GPRMC,170446,A,3946.9614,N,08404.9833,W,0.0000,0.000,011217,,*30
2017-12-01 12:04:45 1512147885.400012: $GPGSA,A,3,10,13,15,18,20,21,24,27,29,5,138,,2.0,0.8,1.5*34
2017-12-01 12:04:46 1512147886.723233: $GPGSV,3,1,12,10,19,279,40,13,34,046,43,15,67,055,44,18,50,294,46*7D
2017-12-01 12:04:46 1512147886.723442: $GPGSV,3,2,12,20,56,064,45,21,75,291,45,24,28,142,44,27,14,318,37*76
2017-12-01 12:04:46 1512147886.723514: $GPGSV,3,3,12,29,15,192,32,05,07,084,18,04,05,135,00,138,38,213,46*4C
2017-12-01 12:04:46 1512147886.832856: $GPZDA,170447.00,01,12,2017,00,00*61
2017-12-01 12:04:46 1512147886.833025: $GPGGA,170447,3946.9614,N,08404.9833,W,2,11,0.80,294.85,M,-33.324,M,,*7B
2017-12-01 12:04:46 1512147886.833113: $GPRMC,170447,A,3946.9614,N,08404.9833,W,0.0000,0.000,011217,,*31
2017-12-01 12:04:46 1512147886.833176: $GPGSA,A,3,10,13,15,18,20,21,24,27,29,5,138,,2.0,0.8,1.5*34
2017-12-01 12:04:47 1512147887.383528: $GPZDA,170448.00,01,12,2017,00,00*6E
2017-12-01 12:04:47 1512147887.383700: $GPGGA,170448,3946.9614,N,08404.9833,W,2,11,0.80,294.85,M,-33.324,M,,*74
2017-12-01 12:04:47 1512147887.383767: $GPRMC,170448,A,3946.9614,N,08404.9833,W,0.0000,0.000,011217,,*3E
2017-12-01 12:04:47 1512147887.383830: $GPGSA,A,3,10,13,15,18,20,21,24,27,29,5,138,,2.0,0.8,1.5*34
2017-12-01 12:04:48 1512147888.400795: $GPZDA,170449.00,01,12,2017,00,00*6F
2017-12-01 12:04:48 1512147888.400984: $GPGGA,170449,3946.9614,N,08404.9833,W,2,11,0.80,294.85,M,-33.324,M,,*75
2017-12-01 12:04:48 1512147888.401074: $GPRMC,170449,A,3946.9614,N,08404.9833,W,0.0000,0.000,011217,,*3F
2017-12-01 12:04:48 1512147888.401136: $GPGSA,A,3,10,13,15,18,20,21,24,27,29,5,138,,2.0,0.8,1.5*34
2017-12-01 12:04:49 1512147889.718245: $GPGSV,3,1,12,10,19,279,40,13,34,046,43,15,67,055,44,18,50,294,46*7D
2017-12-01 12:04:49 1512147889.718481: $GPGSV,3,2,12,20,56,064,45,21,75,291,45,24,28,142,44,27,14,318,38*79
2017-12-01 12:04:49 1512147889.718552: $GPGSV,3,3,12,29,15,192,32,05,07,084,17,04,05,135,00,138,38,213,47*42
2017-12-01 12:04:49 1512147889.831814: $GPZDA,170450.00,01,12,2017,00,00*67
2017-12-01 12:04:49 1512147889.831992: $GPGGA,170450,3946.9614,N,08404.9833,W,2,11,0.80,294.85,M,-33.324,M,,*7D
2017-12-01 12:04:49 1512147889.832061: $GPRMC,170450,A,3946.9614,N,08404.9833,W,0.0000,0.000,011217,,*37
2017-12-01 12:04:49 1512147889.832124: $GPGSA,A,3,10,13,15,18,20,21,24,27,29,5,138,,2.0,0.8,1.5*34
2017-12-01 12:04:50 1512147890.395250: $GPZDA,170451.00,01,12,2017,00,00*66
2017-12-01 12:04:50 1512147890.395422: $GPGGA,170451,3946.9614,N,08404.9833,W,2,11,0.80,294.85,M,-33.324,M,,*7C
2017-12-01 12:04:50 1512147890.395489: $GPRMC,170451,A,3946.9614,N,08404.9833,W,0.0000,0.000,011217,,*36
2017-12-01 12:04:50 1512147890.395551: $GPGSA,A,3,10,13,15,18,20,21,24,27,29,5,138,,2.0,0.8,1.5*34
2017-12-01 12:04:51 1512147891.383382: $GPZDA,170452.00,01,12,2017,00,00*65
2017-12-01 12:04:51 1512147891.383563: $GPGGA,170452,3946.9614,N,08404.9833,W,2,11,0.80,294.85,M,-33.324,M,,*7F
2017-12-01 12:04:51 1512147891.383632: $GPRMC,170452,A,3946.9614,N,08404.9833,W,0.0000,0.000,011217,,*35
2017-12-01 12:04:51 1512147891.383695: $GPGSA,A,3,10,13,15,18,20,21,24,27,29,5,138,,2.0,0.8,1.5*34
