2017-12-01 16:46:16 1512164776.878438: {"class":"VERSION","release":"3.16","rev":"3.16-4","proto_major":3,"proto_minor":11}
2017-12-01 16:46:16 1512164776.878812: {"class":"DEVICES","devices":[{"class":"DEVICE","path":"/dev/ttyUSB0","driver":"SiRF","subtype":"9\u0006GSD4e_4.1.2-P1_RPATCH.05-F-GPS-4R-1510281 11/03/2015 307","activated":"2017-12-01T21:46:16.862Z","flags":1,"native":1,"bps":4800,"parity":"N","stopbits":1,"cycle":1.00}]}
2017-12-01 16:46:16 1512164776.878925: {"class":"WATCH","enable":true,"json":false,"nmea":true,"raw":0,"scaled":false,"timing":false,"split24":false,"pps":false}
2017-12-01 16:46:17 1512164777.040753: $GPZDA,214617.69,01,12,2017,00,00*68
2017-12-01 16:46:17 1512164777.040926: $GPGGA,214617,3946.9646,N,08404.9796,W,1,12,1.80,295.39,M,-33.324,M,,*7D
2017-12-01 16:46:17 1512164777.040994: $GPRMC,214617,A,3946.9646,N,08404.9796,W,0.2967,46.893,011217,,*0A
2017-12-01 16:46:17 1512164777.041055: $GPGSA,A,3,1,10,14,22,31,32,25,11,3,18,26,138,2.0,1.8,1.5*08
2017-12-01 16:46:18 1512164778.144817: $GPZDA,214618.38,01,12,2017,00,00*63
2017-12-01 16:46:18 1512164778.144986: $GPGGA,214618,3946.9646,N,08404.9796,W,1,12,1.80,295.39,M,-33.324,M,,*72
2017-12-01 16:46:18 1512164778.145053: $GPRMC,214618,A,3946.9646,N,08404.9796,W,0.1975,75.900,011217,,*0E
2017-12-01 16:46:18 1512164778.145114: $GPGSA,A,3,1,10,14,22,31,32,25,11,3,18,26,138,2.0,1.8,1.5*08
2017-12-01 16:46:18 1512164778.145173: $GPGBS,214618,10.70,M,15.43,M,35.28,M*0F
2017-12-01 16:46:19 1512164779.309875: $GPGSV,3,1,12,01,22,292,37,10,40,151,44,14,69,345,46,22,25,310,45*7A
2017-12-01 16:46:19 1512164779.310063: $GPGSV,3,2,12,31,64,232,51,32,65,046,48,11,06,276,05,12,19,043,08*74
2017-12-01 16:46:19 1512164779.310130: $GPGSV,3,3,12,18,11,145,06,25,41,081,09,26,09,181,07,138,38,213,00*44
2017-12-01 16:46:19 1512164779.423634: $GPZDA,214619.00,01,12,2017,00,00*69
2017-12-01 16:46:19 1512164779.423838: $GPGGA,214619,3946.9646,N,08404.9795,W,1,06,1.80,293.98,M,-33.324,M,,*78
2017-12-01 16:46:19 1512164779.423921: $GPRMC,214619,A,3946.9646,N,08404.9795,W,0.0407,322.013,011217,,*3F
2017-12-01 16:46:19 1512164779.424012: $GPGSA,A,3,1,10,14,22,31,32,,,,,,,2.0,1.8,1.5*0B
2017-12-01 16:46:19 1512164779.875645: $GPZDA,214620.00,01,12,2017,00,00*63
2017-12-01 16:46:19 1512164779.875818: $GPGGA,214620,3946.9645,N,08404.9788,W,1,06,0.80,294.06,M,-33.324,M,,*7C
2017-12-01 16:46:19 1512164779.875884: $GPRMC,214620,A,3946.9645,N,08404.9788,W,0.3006,62.539,011217,,*06
2017-12-01 16:46:19 1512164779.875945: $GPGSA,A,3,1,10,14,22,31,32,,,,,,,2.0,0.8,1.5*0A
2017-12-01 16:46:20 1512164780.435226: $GPZDA,214621.00,01,12,2017,00,00*62
2017-12-01 16:46:20 1512164780.435401: $GPGGA,214621,3946.9645,N,08404.9788,W,1,06,0.80,294.06,M,-33.324,M,,*7D
2017-12-01 16:46:20 1512164780.435468: $GPRMC,214621,A,3946.9645,N,08404.9788,W,0.0000,0.000,011217,,*39
2017-12-01 16:46:20 1512164780.435529: $GPGSA,A,3,1,10,14,22,31,32,,,,,,,2.0,0.8,1.5*0A
2017-12-01 16:46:21 1512164781.771693: $GPGSV,3,1,12,01,22,292,38,10,40,151,43,14,69,345,46,22,25,310,44*73
2017-12-01 16:46:21 1512164781.771982: $GPGSV,3,2,12,31,64,232,51,32,65,046,48,11,06,276,12,12,19,043,26*7E
2017-12-01 16:46:21 1512164781.772082: $GPGSV,3,3,12,18,11,145,20,25,41,081,29,26,09,181,26,138,38,213,39*4B
2017-12-01 16:46:21 1512164781.885809: $GPZDA,214622.00,01,12,2017,00,00*61
2017-12-01 16:46:21 1512164781.885982: $GPGGA,214622,3946.9649,N,08404.9787,W,1,12,0.80,293.30,M,-33.324,M,,*7A
2017-12-01 16:46:21 1512164781.886048: $GPRMC,214622,A,3946.9649,N,08404.9787,W,0.0000,0.000,011217,,*39
2017-12-01 16:46:21 1512164781.886108: $GPGSA,A,3,1,10,14,22,31,32,11,12,18,25,26,138,2.0,0.8,1.5*39
2017-12-01 16:46:22 1512164782.436015: $GPZDA,214623.00,01,12,2017,00,00*60
2017-12-01 16:46:22 1512164782.436182: $GPGGA,214623,3946.9648,N,08404.9780,W,1,12,0.80,293.38,M,-33.324,M,,*75
2017-12-01 16:46:22 1512164782.436248: $GPRMC,214623,A,3946.9648,N,08404.9780,W,0.0000,0.000,011217,,*3E
2017-12-01 16:46:22 1512164782.436310: $GPGSA,A,3,1,10,14,22,31,32,11,12,18,25,26,138,2.0,0.8,1.5*39
2017-12-01 16:46:23 1512164783.436768: $GPZDA,214624.00,01,12,2017,00,00*67
2017-12-01 16:46:23 1512164783.437009: $GPGGA,214624,3946.9650,N,08404.9764,W,2,12,1.60,289.96,M,-33.324,M,,*72
2017-12-01 16:46:23 1512164783.437080: $GPRMC,214624,A,3946.9650,N,08404.9764,W,0.0000,0.000,011217,,*3A
2017-12-01 16:46:23 1512164783.437141: $GPGSA,A,3,1,10,14,22,31,32,11,12,18,25,26,138,2.0,1.6,1.5*36
2017-12-01 16:46:23 1512164783.437200: $GPGBS,214624,2.67,M,3.86,M,8.82,M*35
2017-12-01 16:46:24 1512164784.773486: $GPGSV,3,1,12,01,22,292,38,10,40,151,42,14,69,345,46,22,25,310,44*72
2017-12-01 16:46:24 1512164784.773666: $GPGSV,3,2,12,31,64,232,50,32,65,046,48,11,06,276,25,12,19,043,26*7B
2017-12-01 16:46:24 1512164784.773731: $GPGSV,3,3,12,18,11,145,19,25,41,081,29,26,09,181,25,138,38,213,40*4C
2017-12-01 16:46:24 1512164784.887099: $GPZDA,214625.00,01,12,2017,00,00*66
2017-12-01 16:46:24 1512164784.887266: $GPGGA,214625,3946.9650,N,08404.9764,W,2,12,1.60,289.96,M,-33.324,M,,*73
2017-12-01 16:46:24 1512164784.887332: $GPRMC,214625,A,3946.9650,N,08404.9764,W,0.0000,0.000,011217,,*3B
2017-12-01 16:46:24 1512164784.887393: $GPGSA,A,3,1,10,14,22,31,32,11,12,18,25,26,138,2.0,1.6,1.5*36
2017-12-01 16:46:25 1512164785.436759: $GPZDA,214626.00,01,12,2017,00,00*65
2017-12-01 16:46:25 1512164785.436943: $GPGGA,214626,3946.9648,N,08404.9766,W,2,12,1.60,293.54,M,-33.324,M,,*7E
2017-12-01 16:46:25 1512164785.437012: $GPRMC,214626,A,3946.9648,N,08404.9766,W,0.3006,62.539,011217,,*0D
2017-12-01 16:46:25 1512164785.437073: $GPGSA,A,3,1,10,14,22,31,32,11,12,18,25,26,138,2.0,1.6,1.5*36
2017-12-01 16:46:26 1512164786.435552: $GPZDA,214627.00,01,12,2017,00,00*64
2017-12-01 16:46:26 1512164786.435736: $GPGGA,214627,3946.9648,N,08404.9766,W,2,12,1.60,293.54,M,-33.324,M,,*7F
2017-12-01 16:46:26 1512164786.435809: $GPRMC,214627,A,3946.9648,N,08404.9766,W,0.0000,0.000,011217,,*32
2017-12-01 16:46:26 1512164786.435875: $GPGSA,A,3,1,10,14,22,31,32,11,12,18,25,26,138,2.0,1.6,1.5*36
2017-12-01 16:46:27 1512164787.773817: $GPGSV,3,1,12,01,22,292,38,10,40,151,41,14,69,345,45,22,25,310,44*72
2017-12-01 16:46:27 1512164787.774019: $GPGSV,3,2,12,31,64,232,50,32,65,046,48,11,06,276,24,12,19,043,21*7D
2017-12-01 16:46:27 1512164787.774085: $GPGSV,3,3,12,18,11,145,19,25,41,081,28,26,09,181,26,138,38,213,40*4E
2017-12-01 16:46:27 1512164787.885937: $GPZDA,214628.00,01,12,2017,00,00*6B
2017-12-01 16:46:27 1512164787.886114: $GPGGA,214628,3946.9648,N,08404.9766,W,2,12,0.80,293.54,M,-33.324,M,,*7F
2017-12-01 16:46:27 1512164787.886182: $GPRMC,214628,A,3946.9648,N,08404.9766,W,0.0000,0.000,011217,,*3D
2017-12-01 16:46:27 1512164787.886243: $GPGSA,A,3,1,10,14,22,31,32,11,12,18,25,26,138,2.0,0.8,1.5*39
2017-12-01 16:46:28 1512164788.438080: $GPZDA,214629.00,01,12,2017,00,00*6A
2017-12-01 16:46:28 1512164788.438275: $GPGGA,214629,3946.9648,N,08404.9766,W,2,12,0.80,293.54,M,-33.324,M,,*7E
2017-12-01 16:46:28 1512164788.438343: $GPRMC,214629,A,3946.9648,N,08404.9766,W,0.0000,0.000,011217,,*3C
2017-12-01 16:46:28 1512164788.438405: $GPGSA,A,3,1,10,14,22,31,32,11,12,18,25,26,138,2.0,0.8,1.5*39
2017-12-01 16:46:29 1512164789.437688: $GPZDA,214630.00,01,12,2017,00,00*62
2017-12-01 16:46:29 1512164789.437900: $GPGGA,214630,3946.9648,N,08404.9766,W,2,12,0.80,293.54,M,-33.324,M,,*76
2017-12-01 16:46:29 1512164789.437968: $GPRMC,214630,A,3946.9648,N,08404.9766,W,0.0000,0.000,011217,,*34
2017-12-01 16:46:29 1512164789.438030: $GPGSA,A,3,1,10,14,22,31,32,11,12,18,25,26,138,2.0,0.8,1.5*39
2017-12-01 16:46:30 1512164790.774666: $GPGSV,3,1,12,01,22,292,38,10,40,151,41,14,69,345,45,22,25,310,44*72
2017-12-01 16:46:30 1512164790.774882: $GPGSV,3,2,12,31,64,232,50,32,65,046,47,11,06,276,25,12,19,043,20*72
2017-12-01 16:46:30 1512164790.774951: $GPGSV,3,3,12,18,11,145,19,25,41,081,22,26,09,181,26,138,38,213,39*4A
2017-12-01 16:46:30 1512164790.888021: $GPZDA,214631.00,01,12,2017,00,00*63
2017-12-01 16:46:30 1512164790.888195: $GPGGA,214631,3946.9648,N,08404.9766,W,2,12,0.80,293.54,M,-33.324,M,,*77
2017-12-01 16:46:30 1512164790.888262: $GPRMC,214631,A,3946.9648,N,08404.9766,W,0.0000,0.000,011217,,*35
2017-12-01 16:46:30 1512164790.888372: $GPGSA,A,3,1,10,14,22,31,32,11,12,18,25,26,138,2.0,0.8,1.5*39
2017-12-01 16:46:31 1512164791.513873: $GPZDA,214632.00,01,12,2017,00,00*60
2017-12-01 16:46:31 1512164791.514192: $GPGGA,214632,3946.9648,N,08404.9766,W,2,12,0.80,293.54,M,-33.324,M,,*74
2017-12-01 16:46:31 1512164791.514345: $GPRMC,214632,A,3946.9648,N,08404.9766,W,0.0000,0.000,011217,,*36
2017-12-01 16:46:31 1512164791.514478: $GPGSA,A,3,1,10,14,22,31,32,11,12,18,25,26,138,2.0,0.8,1.5*39
2017-12-01 16:46:32 1512164792.435842: $GPZDA,214633.00,01,12,2017,00,00*61
2017-12-01 16:46:32 1512164792.436019: $GPGGA,214633,3946.9648,N,08404.9766,W,2,12,0.80,293.54,M,-33.324,M,,*75
2017-12-01 16:46:32 1512164792.436109: $GPRMC,214633,A,3946.9648,N,08404.9766,W,0.0000,0.000,011217,,*37
2017-12-01 16:46:32 1512164792.436174: $GPGSA,A,3,1,10,14,22,31,32,11,12,18,25,26,138,2.0,0.8,1.5*39
2017-12-01 16:46:33 1512164793.768762: $GPGSV,3,1,12,01,22,292,11,10,40,151,12,14,69,345,13,22,25,310,13*7E
2017-12-01 16:46:33 1512164793.768971: $GPGSV,3,2,12,31,64,232,15,32,65,046,14,11,06,276,07,12,19,043,05*72
2017-12-01 16:46:33 1512164793.769037: $GPGSV,3,3,12,18,11,145,05,25,41,081,07,26,09,181,08,138,38,213,14*43
2017-12-01 16:46:33 1512164793.882637: $GPZDA,214634.00,01,12,2017,00,00*66
2017-12-01 16:46:33 1512164793.882848: $GPGGA,214634,3946.9648,N,08404.9766,W,2,12,0.80,293.54,M,-33.324,M,,*72
2017-12-01 16:46:33 1512164793.882916: $GPRMC,214634,A,3946.9648,N,08404.9766,W,0.0000,0.000,011217,,*30
2017-12-01 16:46:33 1512164793.882978: $GPGSA,A,3,1,10,14,22,31,32,11,12,18,25,26,138,2.0,0.8,1.5*39
2017-12-01 16:46:34 1512164794.433067: $GPZDA,214635.00,01,12,2017,00,00*67
2017-12-01 16:46:34 1512164794.433245: $GPGGA,214635,3946.9647,N,08404.9759,W,2,12,0.80,293.62,M,-33.324,M,,*75
2017-12-01 16:46:34 1512164794.433312: $GPRMC,214635,A,3946.9647,N,08404.9759,W,0.3155,129.994,011217,,*3E
2017-12-01 16:46:34 1512164794.433375: $GPGSA,A,3,1,10,14,22,31,32,11,12,18,25,26,138,2.0,0.8,1.5*39
2017-12-01 16:46:35 1512164795.431603: $GPZDA,214636.00,01,12,2017,00,00*64
2017-12-01 16:46:35 1512164795.431796: $GPGGA,214636,3946.9648,N,08404.9760,W,2,12,0.80,295.02,M,-33.324,M,,*73
2017-12-01 16:46:35 1512164795.431881: $GPRMC,214636,A,3946.9648,N,08404.9760,W,0.0000,0.000,011217,,*34
2017-12-01 16:46:35 1512164795.431942: $GPGSA,A,3,1,10,14,22,31,32,11,12,18,25,26,138,2.0,0.8,1.5*39
2017-12-01 16:46:35 1512164795.432001: $GPGBS,214636,2.67,M,3.86,M,8.82,M*36
2017-12-01 16:46:36 1512164796.770373: $GPGSV,3,1,12,01,22,292,40,10,40,151,39,14,69,345,44,22,25,310,44*73
2017-12-01 16:46:36 1512164796.770635: $GPGSV,3,2,12,31,64,232,49,32,65,046,47,11,06,276,26,12,19,043,20*79
2017-12-01 16:46:36 1512164796.770755: $GPGSV,3,3,12,18,11,145,18,25,41,081,20,26,09,181,28,138,38,213,40*49
