2017-12-01 14:04:43 1512155083.836750: {"class":"VERSION","release":"3.16","rev":"3.16-4","proto_major":3,"proto_minor":11}
2017-12-01 14:04:43 1512155083.837159: {"class":"DEVICES","devices":[{"class":"DEVICE","path":"/dev/ttyUSB0","driver":"SiRF","subtype":"9\u0006GSD4e_4.1.2-P1_RPATCH.05-F-GPS-4R-1510281 11/03/2015 307","activated":"2017-12-01T19:04:43.827Z","flags":1,"native":1,"bps":4800,"parity":"N","stopbits":1,"cycle":1.00}]}
2017-12-01 14:04:43 1512155083.837292: {"class":"WATCH","enable":true,"json":false,"nmea":true,"raw":0,"scaled":false,"timing":false,"split24":false,"pps":false}
2017-12-01 14:04:43 1512155083.940498: $GPZDA,190444.63,01,12,2017,00,00*69
2017-12-01 14:04:43 1512155083.940666: $GPGGA,190444,3946.9582,N,08404.9797,W,1,12,1.00,312.88,M,-33.324,M,,*70
2017-12-01 14:04:43 1512155083.940732: $GPRMC,190444,A,3946.9582,N,08404.9797,W,0.4063,356.465,011217,,*37
2017-12-01 14:04:43 1512155083.940794: $GPGSA,A,3,10,14,15,18,20,21,24,27,32,8,12,138,2.0,1.0,1.5*3E
2017-12-01 14:04:43 1512155083.940853: $GPGBS,190444,10.70,M,15.43,M,35.28,M*0B
2017-12-01 14:04:45 1512155085.021947: $GPZDA,190445.31,01,12,2017,00,00*6F
2017-12-01 14:04:45 1512155085.022115: $GPGGA,190445,3946.9582,N,08404.9804,W,1,12,1.00,312.80,M,-33.324,M,,*7C
2017-12-01 14:04:45 1512155085.022180: $GPRMC,190445,A,3946.9582,N,08404.9804,W,0.1567,189.200,011217,,*32
2017-12-01 14:04:45 1512155085.022241: $GPGSA,A,3,10,14,15,18,20,21,24,27,32,8,12,138,2.0,1.0,1.5*3E
2017-12-01 14:04:46 1512155086.164569: $GPGSV,3,1,12,10,62,321,49,14,23,247,41,15,17,063,39,18,75,069,42*7F
2017-12-01 14:04:46 1512155086.164746: $GPGSV,3,2,12,20,15,112,36,21,37,180,46,24,50,069,46,27,11,267,39*74
2017-12-01 14:04:46 1512155086.164813: $GPGSV,3,3,12,32,40,256,43,08,07,301,07,12,04,114,00,138,38,213,26*45
2017-12-01 14:04:46 1512155086.277925: $GPZDA,190446.00,01,12,2017,00,00*6E
2017-12-01 14:04:46 1512155086.278100: $GPGGA,190446,3946.9578,N,08404.9804,W,1,10,1.00,312.16,M,-33.324,M,,*77
2017-12-01 14:04:46 1512155086.278168: $GPRMC,190446,A,3946.9578,N,08404.9804,W,0.1567,9.200,011217,,*3D
2017-12-01 14:04:46 1512155086.278229: $GPGSA,A,3,10,14,15,18,20,21,24,27,32,138,,,2.0,1.0,1.5*05
2017-12-01 14:04:46 1512155086.728760: $GPZDA,190447.00,01,12,2017,00,00*6F
2017-12-01 14:04:46 1512155086.728935: $GPGGA,190447,3946.9581,N,08404.9803,W,1,10,0.80,311.39,M,-33.324,M,,*70
2017-12-01 14:04:46 1512155086.729001: $GPRMC,190447,A,3946.9581,N,08404.9803,W,0.1567,9.200,011217,,*3D
2017-12-01 14:04:46 1512155086.729062: $GPGSA,A,3,10,14,15,18,20,21,24,27,32,138,,,2.0,0.8,1.5*0C
2017-12-01 14:04:47 1512155087.330835: $GPZDA,190448.00,01,12,2017,00,00*60
2017-12-01 14:04:47 1512155087.331010: $GPGGA,190448,3946.9577,N,08404.9803,W,1,10,0.80,310.75,M,-33.324,M,,*7F
2017-12-01 14:04:47 1512155087.331077: $GPRMC,190448,A,3946.9577,N,08404.9803,W,0.0000,0.000,011217,,*35
2017-12-01 14:04:47 1512155087.331138: $GPGSA,A,3,10,14,15,18,20,21,24,27,32,138,,,2.0,0.8,1.5*0C
2017-12-01 14:04:48 1512155088.671104: $GPGSV,3,1,12,10,62,321,49,14,23,247,41,15,17,063,39,18,75,069,42*7F
2017-12-01 14:04:48 1512155088.673668: $GPGSV,3,2,12,20,15,112,37,21,37,180,46,24,50,069,47,27,11,267,39*74
2017-12-01 14:04:48 1512155088.673790: $GPGSV,3,3,12,32,40,256,44,08,07,301,17,12,04,114,00,138,38,213,47*44
2017-12-01 14:04:48 1512155088.784457: $GPZDA,190449.00,01,12,2017,00,00*61
2017-12-01 14:04:48 1512155088.784644: $GPGGA,190449,3946.9581,N,08404.9809,W,1,11,0.80,309.91,M,-33.324,M,,*7E
2017-12-01 14:04:48 1512155088.784713: $GPRMC,190449,A,3946.9581,N,08404.9809,W,0.0000,0.000,011217,,*37
2017-12-01 14:04:48 1512155088.784773: $GPGSA,A,3,10,14,15,18,20,21,24,27,32,8,138,,2.0,0.8,1.5*34
2017-12-01 14:04:49 1512155089.331687: $GPZDA,190450.00,01,12,2017,00,00*69
2017-12-01 14:04:49 1512155089.331856: $GPGGA,190450,3946.9577,N,08404.9809,W,1,11,0.80,309.27,M,-33.324,M,,*72
2017-12-01 14:04:49 1512155089.331924: $GPRMC,190450,A,3946.9577,N,08404.9809,W,0.0000,0.000,011217,,*36
2017-12-01 14:04:49 1512155089.331985: $GPGSA,A,3,10,14,15,18,20,21,24,27,32,8,138,,2.0,0.8,1.5*34
2017-12-01 14:04:50 1512155090.329863: $GPZDA,190451.00,01,12,2017,00,00*68
2017-12-01 14:04:50 1512155090.330035: $GPGGA,190451,3946.9577,N,08404.9809,W,1,11,0.80,309.27,M,-33.324,M,,*73
2017-12-01 14:04:50 1512155090.330103: $GPRMC,190451,A,3946.9577,N,08404.9809,W,0.0000,0.000,011217,,*37
2017-12-01 14:04:50 1512155090.330164: $GPGSA,A,3,10,14,15,18,20,21,24,27,32,8,138,,2.0,0.8,1.5*34
2017-12-01 14:04:50 1512155090.330222: $GPGBS,190451,10.70,M,15.43,M,35.28,M*0F
2017-12-01 14:04:51 1512155091.676846: $GPGSV,3,1,12,10,62,321,49,14,23,247,41,15,17,063,39,18,75,069,42*7F
2017-12-01 14:04:51 1512155091.677023: $GPGSV,3,2,12,20,15,112,38,21,37,180,45,24,50,069,47,27,11,267,40*76
2017-12-01 14:04:51 1512155091.677089: $GPGSV,3,3,12,32,40,256,44,08,07,301,27,12,04,114,05,138,38,213,46*43
2017-12-01 14:04:51 1512155091.790188: $GPZDA,190452.00,01,12,2017,00,00*6B
2017-12-01 14:04:51 1512155091.790350: $GPGGA,190452,3946.9581,N,08404.9816,W,1,11,0.80,308.43,M,-33.324,M,,*74
2017-12-01 14:04:51 1512155091.790414: $GPRMC,190452,A,3946.9581,N,08404.9816,W,0.0000,0.000,011217,,*33
2017-12-01 14:04:51 1512155091.790474: $GPGSA,A,3,10,14,15,18,20,21,24,27,32,8,138,,2.0,0.8,1.5*34
2017-12-01 14:04:52 1512155092.332401: $GPZDA,190453.00,01,12,2017,00,00*6A
2017-12-01 14:04:52 1512155092.332573: $GPGGA,190453,3946.9576,N,08404.9816,W,1,11,0.80,307.79,M,-33.324,M,,*7B
2017-12-01 14:04:52 1512155092.332640: $GPRMC,190453,A,3946.9576,N,08404.9816,W,0.0000,0.000,011217,,*3A
2017-12-01 14:04:52 1512155092.332700: $GPGSA,A,3,10,14,15,18,20,21,24,27,32,8,138,,2.0,0.8,1.5*34
2017-12-01 14:04:53 1512155093.332735: $GPZDA,190454.00,01,12,2017,00,00*6D
2017-12-01 14:04:53 1512155093.332907: $GPGGA,190454,3946.9579,N,08404.9834,W,2,11,0.80,302.57,M,-33.324,M,,*79
2017-12-01 14:04:53 1512155093.332973: $GPRMC,190454,A,3946.9579,N,08404.9834,W,0.0000,0.000,011217,,*32
2017-12-01 14:04:53 1512155093.333054: $GPGSA,A,3,10,14,15,18,20,21,24,27,32,8,138,,2.0,0.8,1.5*34
2017-12-01 14:04:54 1512155094.672216: $GPGSV,3,1,12,10,62,321,49,14,23,247,41,15,17,063,39,18,75,069,42*7F
2017-12-01 14:04:54 1512155094.672402: $GPGSV,3,2,12,20,15,112,38,21,37,180,45,24,50,069,47,27,11,267,41*77
2017-12-01 14:04:54 1512155094.672469: $GPGSV,3,3,12,32,40,256,44,08,07,301,28,12,04,114,00,138,38,213,48*47
2017-12-01 14:04:54 1512155094.785583: $GPZDA,190455.00,01,12,2017,00,00*6C
2017-12-01 14:04:54 1512155094.785745: $GPGGA,190455,3946.9578,N,08404.9833,W,2,11,0.80,301.17,M,-33.324,M,,*79
2017-12-01 14:04:54 1512155094.785813: $GPRMC,190455,A,3946.9578,N,08404.9833,W,0.0000,0.000,011217,,*35
2017-12-01 14:04:54 1512155094.785874: $GPGSA,A,3,10,14,15,18,20,21,24,27,32,8,138,,2.0,0.8,1.5*34
2017-12-01 14:04:55 1512155095.334042: $GPZDA,190456.00,01,12,2017,00,00*6F
2017-12-01 14:04:55 1512155095.334209: $GPGGA,190456,3946.9578,N,08404.9833,W,2,11,0.80,301.17,M,-33.324,M,,*7A
2017-12-01 14:04:55 1512155095.334278: $GPRMC,190456,A,3946.9578,N,08404.9833,W,0.0000,0.000,011217,,*36
2017-12-01 14:04:55 1512155095.334339: $GPGSA,A,3,10,14,15,18,20,21,24,27,32,8,138,,2.0,0.8,1.5*34
2017-12-01 14:04:56 1512155096.333719: $GPZDA,190457.00,01,12,2017,00,00*6E
2017-12-01 14:04:56 1512155096.333894: $GPGGA,190457,3946.9578,N,08404.9833,W,2,11,0.80,301.17,M,-33.324,M,,*7B
2017-12-01 14:04:56 1512155096.333963: $GPRMC,190457,A,3946.9578,N,08404.9833,W,0.0000,0.000,011217,,*37
2017-12-01 14:04:56 1512155096.334024: $GPGSA,A,3,10,14,15,18,20,21,24,27,32,8,138,,2.0,0.8,1.5*34
2017-12-01 14:04:57 1512155097.669328: $GPGSV,3,1,12,10,62,321,50,14,23,247,41,15,17,063,39,18,75,069,43*76
2017-12-01 14:04:57 1512155097.669476: $GPGSV,3,2,12,20,15,112,38,21,37,180,45,24,50,069,48,27,11,267,41*78
2017-12-01 14:04:57 1512155097.669541: $GPGSV,3,3,12,32,40,256,44,08,07,301,21,12,04,114,00,138,38,213,47*41
2017-12-01 14:04:57 1512155097.782722: $GPZDA,190458.00,01,12,2017,00,00*61
2017-12-01 14:04:57 1512155097.782880: $GPGGA,190458,3946.9575,N,08404.9834,W,2,11,0.80,301.93,M,-33.324,M,,*72
2017-12-01 14:04:57 1512155097.782944: $GPRMC,190458,A,3946.9575,N,08404.9834,W,0.0000,0.000,011217,,*32
2017-12-01 14:04:57 1512155097.783080: $GPGSA,A,3,10,14,15,18,20,21,24,27,32,8,138,,2.0,0.8,1.5*34
2017-12-01 14:04:58 1512155098.409544: $GPZDA,190459.00,01,12,2017,00,00*60
2017-12-01 14:04:58 1512155098.409728: $GPGGA,190459,3946.9575,N,08404.9834,W,2,11,0.80,301.93,M,-33.324,M,,*73
2017-12-01 14:04:58 1512155098.409796: $GPRMC,190459,A,3946.9575,N,08404.9834,W,0.0000,0.000,011217,,*33
2017-12-01 14:04:58 1512155098.409856: $GPGSA,A,3,10,14,15,18,20,21,24,27,32,8,138,,2.0,0.8,1.5*34
