2017-12-01 14:09:15 1512155355.543418: {"class":"VERSION","release":"3.16","rev":"3.16-4","proto_major":3,"proto_minor":11}
2017-12-01 14:09:15 1512155355.543800: {"class":"DEVICES","devices":[{"class":"DEVICE","path":"/dev/ttyUSB0","driver":"SiRF","subtype":"9\u0006GSD4e_4.1.2-P1_RPATCH.05-F-GPS-4R-1510281 11/03/2015 307","activated":"2017-12-01T19:09:15.521Z","flags":1,"native":1,"bps":4800,"parity":"N","stopbits":1,"cycle":1.00}]}
2017-12-01 14:09:15 1512155355.543921: {"class":"WATCH","enable":true,"json":false,"nmea":true,"raw":0,"scaled":false,"timing":false,"split24":false,"pps":false}
2017-12-01 14:09:16 1512155356.377585: $GPZDA,190917.00,01,12,2017,00,00*67
2017-12-01 14:09:16 1512155356.377762: $GPGGA,190917,3946.9553,N,08404.9824,W,2,12,0.80,306.68,M,-33.324,M,,*71
2017-12-01 14:09:16 1512155356.377831: $GPRMC,190917,A,3946.9553,N,08404.9824,W,0.0000,0.000,011217,,*31
2017-12-01 14:09:16 1512155356.377893: $GPGSA,A,3,10,14,15,18,20,21,24,27,32,8,12,138,2.0,0.8,1.5*37
2017-12-01 14:09:17 1512155357.685825: $GPGSV,3,1,12,10,63,322,49,14,24,247,37,15,16,063,35,18,75,075,42*7B
2017-12-01 14:09:17 1512155357.686014: $GPGSV,3,2,12,20,14,114,34,21,36,180,45,24,49,067,48,27,10,265,38*79
2017-12-01 14:09:17 1512155357.686081: $GPGSV,3,3,12,32,41,258,45,08,07,300,35,12,05,112,21,138,38,213,46*4E
2017-12-01 14:09:17 1512155357.799190: $GPZDA,190918.00,01,12,2017,00,00*68
2017-12-01 14:09:17 1512155357.799350: $GPGGA,190918,3946.9553,N,08404.9824,W,2,12,0.80,306.68,M,-33.324,M,,*7E
2017-12-01 14:09:17 1512155357.799416: $GPRMC,190918,A,3946.9553,N,08404.9824,W,0.0000,0.000,011217,,*3E
2017-12-01 14:09:17 1512155357.799476: $GPGSA,A,3,10,14,15,18,20,21,24,27,32,8,12,138,2.0,0.8,1.5*37
2017-12-01 14:09:18 1512155358.426090: $GPZDA,190919.00,01,12,2017,00,00*69
2017-12-01 14:09:18 1512155358.426263: $GPGGA,190919,3946.9553,N,08404.9824,W,2,12,0.80,306.68,M,-33.324,M,,*7F
2017-12-01 14:09:18 1512155358.426330: $GPRMC,190919,A,3946.9553,N,08404.9824,W,0.0000,0.000,011217,,*3F
2017-12-01 14:09:18 1512155358.426392: $GPGSA,A,3,10,14,15,18,20,21,24,27,32,8,12,138,2.0,0.8,1.5*37
2017-12-01 14:09:19 1512155359.380692: $GPZDA,190920.00,01,12,2017,00,00*63
2017-12-01 14:09:19 1512155359.380864: $GPGGA,190920,3946.9553,N,08404.9824,W,2,12,0.80,306.68,M,-33.324,M,,*75
2017-12-01 14:09:19 1512155359.380931: $GPRMC,190920,A,3946.9553,N,08404.9824,W,0.0000,0.000,011217,,*35
2017-12-01 14:09:19 1512155359.380992: $GPGSA,A,3,10,14,15,18,20,21,24,27,32,8,12,138,2.0,0.8,1.5*37
2017-12-01 14:09:20 1512155360.713646: $GPGSV,3,1,12,10,63,322,50,14,24,247,37,15,16,063,34,18,75,075,42*72
2017-12-01 14:09:20 1512155360.713838: $GPGSV,3,2,12,20,14,114,34,21,36,180,45,24,49,067,48,27,10,265,38*79
2017-12-01 14:09:20 1512155360.713905: $GPGSV,3,3,12,32,41,258,44,08,07,300,35,12,05,112,22,138,38,213,46*4C
2017-12-01 14:09:20 1512155360.827120: $GPZDA,190921.00,01,12,2017,00,00*62
2017-12-01 14:09:20 1512155360.827265: $GPGGA,190921,3946.9553,N,08404.9824,W,2,12,0.80,306.68,M,-33.324,M,,*74
2017-12-01 14:09:20 1512155360.827331: $GPRMC,190921,A,3946.9553,N,08404.9824,W,0.0000,0.000,011217,,*34
2017-12-01 14:09:20 1512155360.827392: $GPGSA,A,3,10,14,15,18,20,21,24,27,32,8,12,138,2.0,0.8,1.5*37
2017-12-01 14:09:21 1512155361.379527: $GPZDA,190922.00,01,12,2017,00,00*61
2017-12-01 14:09:21 1512155361.379687: $GPGGA,190922,3946.9553,N,08404.9824,W,2,12,0.80,306.68,M,-33.324,M,,*77
2017-12-01 14:09:21 1512155361.379752: $GPRMC,190922,A,3946.9553,N,08404.9824,W,0.0000,0.000,011217,,*37
2017-12-01 14:09:21 1512155361.379813: $GPGSA,A,3,10,14,15,18,20,21,24,27,32,8,12,138,2.0,0.8,1.5*37
2017-12-01 14:09:22 1512155362.351680: $GPZDA,190923.00,01,12,2017,00,00*60
2017-12-01 14:09:22 1512155362.351856: $GPGGA,190923,3946.9550,N,08404.9825,W,2,12,0.80,307.44,M,-33.324,M,,*7B
2017-12-01 14:09:22 1512155362.351922: $GPRMC,190923,A,3946.9550,N,08404.9825,W,0.0000,0.000,011217,,*34
2017-12-01 14:09:22 1512155362.351983: $GPGSA,A,3,10,14,15,18,20,21,24,27,32,8,12,138,2.0,0.8,1.5*37
2017-12-01 14:09:23 1512155363.686720: $GPGSV,3,1,12,10,63,322,50,14,24,247,37,15,16,063,34,18,75,075,42*72
2017-12-01 14:09:23 1512155363.687009: $GPGSV,3,2,12,20,14,114,35,21,36,180,44,24,49,067,48,27,10,265,38*79
2017-12-01 14:09:23 1512155363.687084: $GPGSV,3,3,12,32,41,258,44,08,07,300,36,12,05,112,21,138,38,213,46*4C
2017-12-01 14:09:23 1512155363.799937: $GPZDA,190924.00,01,12,2017,00,00*67
2017-12-01 14:09:23 1512155363.800107: $GPGGA,190924,3946.9550,N,08404.9825,W,2,12,0.80,307.44,M,-33.324,M,,*7C
2017-12-01 14:09:23 1512155363.800175: $GPRMC,190924,A,3946.9550,N,08404.9825,W,0.0000,0.000,011217,,*33
2017-12-01 14:09:23 1512155363.800236: $GPGSA,A,3,10,14,15,18,20,21,24,27,32,8,12,138,2.0,0.8,1.5*37
2017-12-01 14:09:24 1512155364.349900: $GPZDA,190925.00,01,12,2017,00,00*66
2017-12-01 14:09:24 1512155364.350072: $GPGGA,190925,3946.9550,N,08404.9825,W,2,12,0.80,307.44,M,-33.324,M,,*7D
2017-12-01 14:09:24 1512155364.350138: $GPRMC,190925,A,3946.9550,N,08404.9825,W,0.0000,0.000,011217,,*32
2017-12-01 14:09:24 1512155364.350199: $GPGSA,A,3,10,14,15,18,20,21,24,27,32,8,12,138,2.0,0.8,1.5*37
2017-12-01 14:09:25 1512155365.351999: $GPZDA,190926.00,01,12,2017,00,00*65
2017-12-01 14:09:25 1512155365.352178: $GPGGA,190926,3946.9550,N,08404.9825,W,2,12,0.80,307.44,M,-33.324,M,,*7E
2017-12-01 14:09:25 1512155365.352245: $GPRMC,190926,A,3946.9550,N,08404.9825,W,0.0000,0.000,011217,,*31
2017-12-01 14:09:25 1512155365.352307: $GPGSA,A,3,10,14,15,18,20,21,24,27,32,8,12,138,2.0,0.8,1.5*37
2017-12-01 14:09:26 1512155366.686503: $GPGSV,3,1,12,10,63,322,50,14,24,247,36,15,16,063,33,18,75,075,42*74
2017-12-01 14:09:26 1512155366.686686: $GPGSV,3,2,12,20,14,114,35,21,36,180,44,24,49,067,48,27,10,265,38*79
2017-12-01 14:09:26 1512155366.686752: $GPGSV,3,3,12,32,41,258,44,08,07,300,36,12,05,112,21,138,38,213,46*4C
2017-12-01 14:09:26 1512155366.799506: $GPZDA,190927.00,01,12,2017,00,00*64
2017-12-01 14:09:26 1512155366.799668: $GPGGA,190927,3946.9550,N,08404.9825,W,2,12,0.80,307.44,M,-33.324,M,,*7F
2017-12-01 14:09:26 1512155366.799734: $GPRMC,190927,A,3946.9550,N,08404.9825,W,0.0000,0.000,011217,,*30
2017-12-01 14:09:26 1512155366.799796: $GPGSA,A,3,10,14,15,18,20,21,24,27,32,8,12,138,2.0,0.8,1.5*37
2017-12-01 14:09:27 1512155367.350377: $GPZDA,190928.00,01,12,2017,00,00*6B
2017-12-01 14:09:27 1512155367.350555: $GPGGA,190928,3946.9550,N,08404.9825,W,2,12,0.80,307.44,M,-33.324,M,,*70
2017-12-01 14:09:27 1512155367.350623: $GPRMC,190928,A,3946.9550,N,08404.9825,W,0.0000,0.000,011217,,*3F
2017-12-01 14:09:27 1512155367.350684: $GPGSA,A,3,10,14,15,18,20,21,24,27,32,8,12,138,2.0,0.8,1.5*37
2017-12-01 14:09:28 1512155368.349526: $GPZDA,190929.00,01,12,2017,00,00*6A
2017-12-01 14:09:28 1512155368.349704: $GPGGA,190929,3946.9550,N,08404.9825,W,2,12,0.80,307.44,M,-33.324,M,,*71
2017-12-01 14:09:28 1512155368.349771: $GPRMC,190929,A,3946.9550,N,08404.9825,W,0.0000,0.000,011217,,*3E
2017-12-01 14:09:28 1512155368.349834: $GPGSA,A,3,10,14,15,18,20,21,24,27,32,8,12,138,2.0,0.8,1.5*37
2017-12-01 14:09:29 1512155369.686552: $GPGSV,3,1,12,10,63,322,49,14,24,247,37,15,16,063,29,18,75,075,43*77
2017-12-01 14:09:29 1512155369.686728: $GPGSV,3,2,12,20,14,114,34,21,36,180,44,24,49,067,48,27,10,265,38*78
2017-12-01 14:09:29 1512155369.686793: $GPGSV,3,3,12,32,41,258,44,08,07,300,35,12,05,112,00,138,38,213,47*4D
2017-12-01 14:09:29 1512155369.800134: $GPZDA,190930.00,01,12,2017,00,00*62
2017-12-01 14:09:29 1512155369.800308: $GPGGA,190930,3946.9550,N,08404.9825,W,2,11,0.80,307.44,M,-33.324,M,,*7A
2017-12-01 14:09:29 1512155369.800374: $GPRMC,190930,A,3946.9550,N,08404.9825,W,0.0000,0.000,011217,,*36
2017-12-01 14:09:29 1512155369.800435: $GPGSA,A,3,10,14,15,18,20,21,24,27,32,8,138,,2.0,0.8,1.5*34
2017-12-01 14:09:30 1512155370.354910: $GPZDA,190931.00,01,12,2017,00,00*63
2017-12-01 14:09:30 1512155370.355069: $GPGGA,190931,3946.9550,N,08404.9825,W,2,11,0.80,307.44,M,-33.324,M,,*7B
2017-12-01 14:09:30 1512155370.355134: $GPRMC,190931,A,3946.9550,N,08404.9825,W,0.0000,0.000,011217,,*37
2017-12-01 14:09:30 1512155370.355195: $GPGSA,A,3,10,14,15,18,20,21,24,27,32,8,138,,2.0,0.8,1.5*34
2017-12-01 14:09:31 1512155371.352049: $GPZDA,190932.00,01,12,2017,00,00*60
2017-12-01 14:09:31 1512155371.352220: $GPGGA,190932,3946.9550,N,08404.9825,W,2,11,0.80,307.44,M,-33.324,M,,*78
2017-12-01 14:09:31 1512155371.352290: $GPRMC,190932,A,3946.9550,N,08404.9825,W,0.0000,0.000,011217,,*34
2017-12-01 14:09:31 1512155371.352352: $GPGSA,A,3,10,14,15,18,20,21,24,27,32,8,138,,2.0,0.8,1.5*34
2017-12-01 14:09:32 1512155372.680049: $GPGSV,3,1,12,10,63,322,50,14,24,247,38,15,16,063,30,18,75,075,43*78
2017-12-01 14:09:32 1512155372.680271: $GPGSV,3,2,12,20,14,114,34,21,36,180,44,24,49,067,48,27,10,265,38*78
2017-12-01 14:09:32 1512155372.680342: $GPGSV,3,3,12,32,41,258,44,08,07,300,29,12,05,112,00,138,38,213,46*41
2017-12-01 14:09:32 1512155372.793228: $GPZDA,190933.00,01,12,2017,00,00*61
2017-12-01 14:09:32 1512155372.793385: $GPGGA,190933,3946.9550,N,08404.9825,W,2,11,0.80,307.44,M,-33.324,M,,*79
2017-12-01 14:09:32 1512155372.793470: $GPRMC,190933,A,3946.9550,N,08404.9825,W,0.0000,0.000,011217,,*35
2017-12-01 14:09:32 1512155372.793534: $GPGSA,A,3,10,14,15,18,20,21,24,27,32,8,138,,2.0,0.8,1.5*34
2017-12-01 14:09:33 1512155373.418619: $GPZDA,190934.00,01,12,2017,00,00*66
2017-12-01 14:09:33 1512155373.418795: $GPGGA,190934,3946.9550,N,08404.9825,W,2,11,0.80,307.44,M,-33.324,M,,*7E
2017-12-01 14:09:33 1512155373.418864: $GPRMC,190934,A,3946.9550,N,08404.9825,W,0.0000,0.000,011217,,*32
2017-12-01 14:09:33 1512155373.418926: $GPGSA,A,3,10,14,15,18,20,21,24,27,32,8,138,,2.0,0.8,1.5*34
2017-12-01 14:09:34 1512155374.350819: $GPZDA,190935.00,01,12,2017,00,00*67
2017-12-01 14:09:34 1512155374.350990: $GPGGA,190935,3946.9550,N,08404.9825,W,2,11,0.80,307.44,M,-33.324,M,,*7F
2017-12-01 14:09:34 1512155374.351057: $GPRMC,190935,A,3946.9550,N,08404.9825,W,0.0000,0.000,011217,,*33
2017-12-01 14:09:34 1512155374.351119: $GPGSA,A,3,10,14,15,18,20,21,24,27,32,8,138,,2.0,0.8,1.5*34
