2017-12-29 11:54:30 1514566470.231107: {"class":"VERSION","release":"3.16","rev":"3.16-4","proto_major":3,"proto_minor":11}
2017-12-29 11:54:30 1514566470.231462: {"class":"DEVICES","devices":[{"class":"DEVICE","path":"/dev/ttyUSB0","driver":"SiRF","subtype":"9\u0006GSD4e_4.1.2-P1_RPATCH.05-F-GPS-4R-1510281 11/03/2015 307","activated":"2017-12-29T16:54:30.222Z","flags":1,"native":1,"bps":4800,"parity":"N","stopbits":1,"cycle":1.00}]}
2017-12-29 11:54:30 1514566470.231575: {"class":"WATCH","enable":true,"json":false,"nmea":true,"raw":0,"scaled":false,"timing":false,"split24":false,"pps":false}
2017-12-29 11:54:30 1514566470.335367: $GPZDA,165431.00,29,12,2017,00,00*6E
2017-12-29 11:54:30 1514566470.335529: $GPGGA,165431,3946.9642,N,08404.9907,W,2,11,0.80,305.68,M,-33.324,M,,*71
2017-12-29 11:54:30 1514566470.335596: $GPRMC,165431,A,3946.9642,N,08404.9907,W,0.0000,0.000,291217,,*3B
2017-12-29 11:54:30 1514566470.335658: $GPGSA,A,3,10,14,15,18,20,21,24,27,32,8,138,,1.7,0.8,1.3*36
2017-12-29 11:54:31 1514566471.335679: $GPZDA,165432.00,29,12,2017,00,00*6D
2017-12-29 11:54:31 1514566471.335857: $GPGGA,165432,3946.9642,N,08404.9907,W,2,11,0.80,305.68,M,-33.324,M,,*72
2017-12-29 11:54:31 1514566471.335924: $GPRMC,165432,A,3946.9642,N,08404.9907,W,0.0000,0.000,291217,,*38
2017-12-29 11:54:31 1514566471.335986: $GPGSA,A,3,10,14,15,18,20,21,24,27,32,8,138,,1.7,0.8,1.3*36
2017-12-29 11:54:32 1514566472.670367: $GPGSV,3,1,11,10,55,315,46,14,16,241,32,15,23,058,46,18,77,040,45*7D
2017-12-29 11:54:32 1514566472.670547: $GPGSV,3,2,11,20,22,108,49,21,45,181,47,24,52,081,50,27,14,273,25*7B
2017-12-29 11:54:32 1514566472.670616: $GPGSV,3,3,11,32,35,250,36,08,08,309,34,138,38,213,44*70
2017-12-29 11:54:32 1514566472.784050: $GPZDA,165433.00,29,12,2017,00,00*6C
2017-12-29 11:54:32 1514566472.784209: $GPGGA,165433,3946.9642,N,08404.9907,W,2,11,0.80,305.68,M,-33.324,M,,*73
2017-12-29 11:54:32 1514566472.784277: $GPRMC,165433,A,3946.9642,N,08404.9907,W,0.0000,0.000,291217,,*39
2017-12-29 11:54:32 1514566472.784341: $GPGSA,A,3,10,14,15,18,20,21,24,27,32,8,138,,1.7,0.8,1.3*36
2017-12-29 11:54:33 1514566473.334891: $GPZDA,165434.00,29,12,2017,00,00*6B
2017-12-29 11:54:33 1514566473.335063: $GPGGA,165434,3946.9642,N,08404.9907,W,2,11,0.80,305.68,M,-33.324,M,,*74
2017-12-29 11:54:33 1514566473.335129: $GPRMC,165434,A,3946.9642,N,08404.9907,W,0.0000,0.000,291217,,*3E
2017-12-29 11:54:33 1514566473.335191: $GPGSA,A,3,10,14,15,18,20,21,24,27,32,8,138,,1.7,0.8,1.3*36
2017-12-29 11:54:34 1514566474.335823: $GPZDA,165435.00,29,12,2017,00,00*6A
2017-12-29 11:54:34 1514566474.335992: $GPGGA,165435,3946.9642,N,08404.9900,W,2,11,0.80,305.76,M,-33.324,M,,*7D
2017-12-29 11:54:34 1514566474.336059: $GPRMC,165435,A,3946.9642,N,08404.9900,W,0.0000,0.000,291217,,*38
2017-12-29 11:54:34 1514566474.336120: $GPGSA,A,3,10,14,15,18,20,21,24,27,32,8,138,,1.7,0.8,1.3*36
2017-12-29 11:54:35 1514566475.671185: $GPGSV,3,1,11,10,55,315,46,14,16,241,32,15,23,058,46,18,77,040,45*7D
2017-12-29 11:54:35 1514566475.671379: $GPGSV,3,2,11,20,22,108,49,21,45,181,47,24,52,081,50,27,14,273,25*7B
2017-12-29 11:54:35 1514566475.671448: $GPGSV,3,3,11,32,35,250,36,08,08,309,33,138,38,213,45*76
2017-12-29 11:54:35 1514566475.784607: $GPZDA,165436.00,29,12,2017,00,00*69
2017-12-29 11:54:35 1514566475.784754: $GPGGA,165436,3946.9642,N,08404.9900,W,2,11,0.80,305.76,M,-33.324,M,,*7E
2017-12-29 11:54:35 1514566475.784820: $GPRMC,165436,A,3946.9642,N,08404.9900,W,0.0000,0.000,291217,,*3B
2017-12-29 11:54:35 1514566475.784881: $GPGSA,A,3,10,14,15,18,20,21,24,27,32,8,138,,1.7,0.8,1.3*36
2017-12-29 11:54:36 1514566476.410261: $GPZDA,165437.00,29,12,2017,00,00*68
2017-12-29 11:54:36 1514566476.410436: $GPGGA,165437,3946.9638,N,08404.9901,W,2,11,0.80,306.53,M,-33.324,M,,*77
2017-12-29 11:54:36 1514566476.410503: $GPRMC,165437,A,3946.9638,N,08404.9901,W,0.0000,0.000,291217,,*36
2017-12-29 11:54:36 1514566476.410565: $GPGSA,A,3,10,14,15,18,20,21,24,27,32,8,138,,1.7,0.8,1.3*36
2017-12-29 11:54:37 1514566477.335873: $GPZDA,165438.00,29,12,2017,00,00*67
2017-12-29 11:54:37 1514566477.336028: $GPGGA,165438,3946.9638,N,08404.9901,W,2,11,0.80,306.53,M,-33.324,M,,*78
2017-12-29 11:54:37 1514566477.336140: $GPRMC,165438,A,3946.9638,N,08404.9901,W,0.0000,0.000,291217,,*39
2017-12-29 11:54:37 1514566477.336205: $GPGSA,A,3,10,14,15,18,20,21,24,27,32,8,138,,1.7,0.8,1.3*36
2017-12-29 11:54:38 1514566478.671591: $GPGSV,3,1,11,10,55,315,46,14,16,241,32,15,23,058,46,18,77,040,46*7E
2017-12-29 11:54:38 1514566478.671754: $GPGSV,3,2,11,20,22,108,49,21,45,181,46,24,52,081,50,27,14,273,26*79
2017-12-29 11:54:38 1514566478.671820: $GPGSV,3,3,11,32,35,250,36,08,08,309,34,138,38,213,44*70
2017-12-29 11:54:38 1514566478.783915: $GPZDA,165439.00,29,12,2017,00,00*66
2017-12-29 11:54:38 1514566478.784066: $GPGGA,165439,3946.9638,N,08404.9901,W,2,11,0.80,306.53,M,-33.324,M,,*79
2017-12-29 11:54:38 1514566478.784133: $GPRMC,165439,A,3946.9638,N,08404.9901,W,0.0000,0.000,291217,,*38
2017-12-29 11:54:38 1514566478.784196: $GPGSA,A,3,10,14,15,18,20,21,24,27,32,8,138,,1.7,0.8,1.3*36
2017-12-29 11:54:39 1514566479.329585: $GPZDA,165440.00,29,12,2017,00,00*68
2017-12-29 11:54:39 1514566479.329781: $GPGGA,165440,3946.9638,N,08404.9901,W,2,11,0.80,306.53,M,-33.324,M,,*77
2017-12-29 11:54:39 1514566479.329851: $GPRMC,165440,A,3946.9638,N,08404.9901,W,0.0000,0.000,291217,,*36
2017-12-29 11:54:39 1514566479.329914: $GPGSA,A,3,10,14,15,18,20,21,24,27,32,8,138,,1.7,0.8,1.3*36
2017-12-29 11:54:40 1514566480.334050: $GPZDA,165441.00,29,12,2017,00,00*69
2017-12-29 11:54:40 1514566480.334227: $GPGGA,165441,3946.9638,N,08404.9901,W,2,11,0.80,306.53,M,-33.324,M,,*76
2017-12-29 11:54:40 1514566480.334296: $GPRMC,165441,A,3946.9638,N,08404.9901,W,0.0000,0.000,291217,,*37
2017-12-29 11:54:40 1514566480.334358: $GPGSA,A,3,10,14,15,18,20,21,24,27,32,8,138,,1.7,0.8,1.3*36
2017-12-29 11:54:41 1514566481.670634: $GPGSV,3,1,11,10,55,315,46,14,16,241,32,15,23,058,46,18,77,040,46*7E
2017-12-29 11:54:41 1514566481.670815: $GPGSV,3,2,11,20,22,108,49,21,45,181,46,24,52,081,50,27,14,273,30*7E
2017-12-29 11:54:41 1514566481.670883: $GPGSV,3,3,11,32,35,250,36,08,08,309,34,138,38,213,45*71
2017-12-29 11:54:41 1514566481.784252: $GPZDA,165442.00,29,12,2017,00,00*6A
2017-12-29 11:54:41 1514566481.784401: $GPGGA,165442,3946.9638,N,08404.9901,W,2,11,0.80,306.53,M,-33.324,M,,*75
2017-12-29 11:54:41 1514566481.784469: $GPRMC,165442,A,3946.9638,N,08404.9901,W,0.0000,0.000,291217,,*34
2017-12-29 11:54:41 1514566481.784529: $GPGSA,A,3,10,14,15,18,20,21,24,27,32,8,138,,1.7,0.8,1.3*36
2017-12-29 11:54:42 1514566482.335220: $GPZDA,165443.00,29,12,2017,00,00*6B
2017-12-29 11:54:42 1514566482.335391: $GPGGA,165443,3946.9638,N,08404.9901,W,2,11,0.80,306.53,M,-33.324,M,,*74
2017-12-29 11:54:42 1514566482.335457: $GPRMC,165443,A,3946.9638,N,08404.9901,W,0.0000,0.000,291217,,*35
2017-12-29 11:54:42 1514566482.335518: $GPGSA,A,3,10,14,15,18,20,21,24,27,32,8,138,,1.7,0.8,1.3*36
2017-12-29 11:54:43 1514566483.335793: $GPZDA,165444.00,29,12,2017,00,00*6C
2017-12-29 11:54:43 1514566483.335945: $GPGGA,165444,3946.9635,N,08404.9895,W,2,11,0.80,307.37,M,-33.324,M,,*71
2017-12-29 11:54:43 1514566483.336011: $GPRMC,165444,A,3946.9635,N,08404.9895,W,0.0000,0.000,291217,,*33
2017-12-29 11:54:43 1514566483.336073: $GPGSA,A,3,10,14,15,18,20,21,24,27,32,8,138,,1.7,0.8,1.3*36
2017-12-29 11:54:44 1514566484.686461: $GPGSV,3,1,11,10,55,315,46,14,16,241,32,15,23,058,46,18,77,040,46*7E
2017-12-29 11:54:44 1514566484.686641: $GPGSV,3,2,11,20,22,108,49,21,45,181,46,24,52,081,50,27,14,273,32*7C
2017-12-29 11:54:44 1514566484.686708: $GPGSV,3,3,11,32,35,250,35,08,08,309,33,138,38,213,44*74
2017-12-29 11:54:44 1514566484.798903: $GPZDA,165445.00,29,12,2017,00,00*6D
2017-12-29 11:54:44 1514566484.799076: $GPGGA,165445,3946.9635,N,08404.9895,W,2,11,0.80,307.37,M,-33.324,M,,*70
2017-12-29 11:54:44 1514566484.799144: $GPRMC,165445,A,3946.9635,N,08404.9895,W,0.0000,0.000,291217,,*32
2017-12-29 11:54:44 1514566484.799210: $GPGSA,A,3,10,14,15,18,20,21,24,27,32,8,138,,1.7,0.8,1.3*36
