2017-11-16 17:25:31 1510871131.721265: {"class":"VERSION","release":"3.17","rev":"3.17","proto_major":3,"proto_minor":12}
2017-11-16 17:25:31 1510871131.721684: {"class":"DEVICES","devices":[{"class":"DEVICE","path":"/dev/ttyUSB0","driver":"SiRF","subtype":"9\u0006GSD4e_4.1.2-P1_RPATCH.05-F-GPS-4R-1510281 11/03/2015 307","activated":"2017-11-16T22:25:31.618Z","flags":1,"native":1,"bps":4800,"parity":"N","stopbits":1,"cycle":1.00}]}
2017-11-16 17:25:31 1510871131.721792: {"class":"WATCH","enable":true,"json":false,"nmea":true,"raw":0,"scaled":false,"timing":false,"split24":false,"pps":false}
2017-11-16 17:25:32 1510871132.401455: $GPZDA,222531.00,16,11,2017,00,00*60
2017-11-16 17:25:32 1510871132.401629: $GPGGA,222531,3946.9573,N,08404.9837,W,2,11,0.80,306.91,M,-33.324,M,,*76
2017-11-16 17:25:32 1510871132.401693: $GPRMC,222531,A,3946.9573,N,08404.9837,W,0.0000,0.000,161117,,*36
2017-11-16 17:25:32 1510871132.401752: $GPGSA,A,3,1,10,22,12,14,18,11,25,31,32,138,,1.6,0.8,1.3*3E
2017-11-16 17:25:33 1510871133.737245: $GPGSV,3,1,11,01,21,304,38,10,51,147,49,22,16,312,38,12,23,052,50*73
2017-11-16 17:25:33 1510871133.737420: $GPGSV,3,2,11,14,65,321,46,18,21,142,37,11,09,285,41,25,39,094,48*7A
2017-11-16 17:25:33 1510871133.737484: $GPGSV,3,3,11,31,52,222,49,32,69,018,50,138,38,213,44*70
2017-11-16 17:25:33 1510871133.850598: $GPZDA,222532.00,16,11,2017,00,00*63
2017-11-16 17:25:33 1510871133.850750: $GPGGA,222532,3946.9573,N,08404.9837,W,2,11,0.80,306.91,M,-33.324,M,,*75
2017-11-16 17:25:33 1510871133.850813: $GPRMC,222532,A,3946.9573,N,08404.9837,W,0.0000,0.000,161117,,*35
2017-11-16 17:25:33 1510871133.850872: $GPGSA,A,3,1,10,22,12,14,18,11,25,31,32,138,,1.6,0.8,1.3*3E
2017-11-16 17:25:34 1510871134.401700: $GPZDA,222533.00,16,11,2017,00,00*62
2017-11-16 17:25:34 1510871134.401948: $GPGGA,222533,3946.9573,N,08404.9837,W,2,11,0.80,306.91,M,-33.324,M,,*74
2017-11-16 17:25:34 1510871134.402013: $GPRMC,222533,A,3946.9573,N,08404.9837,W,0.0000,0.000,161117,,*34
2017-11-16 17:25:34 1510871134.402072: $GPGSA,A,3,1,10,22,12,14,18,11,25,31,32,138,,1.6,0.8,1.3*3E
2017-11-16 17:25:35 1510871135.402340: $GPZDA,222534.00,16,11,2017,00,00*65
2017-11-16 17:25:35 1510871135.402522: $GPGGA,222534,3946.9573,N,08404.9837,W,2,11,0.80,306.91,M,-33.324,M,,*73
2017-11-16 17:25:35 1510871135.402586: $GPRMC,222534,A,3946.9573,N,08404.9837,W,0.0000,0.000,161117,,*33
2017-11-16 17:25:35 1510871135.402645: $GPGSA,A,3,1,10,22,12,14,18,11,25,31,32,138,,1.6,0.8,1.3*3E
2017-11-16 17:25:36 1510871136.738762: $GPGSV,3,1,11,01,21,304,37,10,51,147,49,22,16,312,37,12,23,052,50*73
2017-11-16 17:25:36 1510871136.738935: $GPGSV,3,2,11,14,65,321,46,18,21,142,36,11,09,285,41,25,39,094,48*7B
2017-11-16 17:25:36 1510871136.738998: $GPGSV,3,3,11,31,52,222,50,32,69,018,49,138,38,213,44*70
2017-11-16 17:25:36 1510871136.852100: $GPZDA,222535.00,16,11,2017,00,00*64
2017-11-16 17:25:36 1510871136.852264: $GPGGA,222535,3946.9573,N,08404.9837,W,2,11,0.80,306.91,M,-33.324,M,,*72
2017-11-16 17:25:36 1510871136.852345: $GPRMC,222535,A,3946.9573,N,08404.9837,W,0.0000,0.000,161117,,*32
2017-11-16 17:25:36 1510871136.852405: $GPGSA,A,3,1,10,22,12,14,18,11,25,31,32,138,,1.6,0.8,1.3*3E
2017-11-16 17:25:37 1510871137.401740: $GPZDA,222536.00,16,11,2017,00,00*67
2017-11-16 17:25:37 1510871137.401904: $GPGGA,222536,3946.9573,N,08404.9837,W,2,11,0.80,306.91,M,-33.324,M,,*71
2017-11-16 17:25:37 1510871137.401967: $GPRMC,222536,A,3946.9573,N,08404.9837,W,0.0000,0.000,161117,,*31
2017-11-16 17:25:37 1510871137.402026: $GPGSA,A,3,1,10,22,12,14,18,11,25,31,32,138,,1.6,0.8,1.3*3E
2017-11-16 17:25:38 1510871138.396462: $GPZDA,222537.00,16,11,2017,00,00*66
2017-11-16 17:25:38 1510871138.396627: $GPGGA,222537,3946.9573,N,08404.9837,W,2,11,0.80,306.91,M,-33.324,M,,*70
2017-11-16 17:25:38 1510871138.396691: $GPRMC,222537,A,3946.9573,N,08404.9837,W,0.0000,0.000,161117,,*30
2017-11-16 17:25:38 1510871138.396750: $GPGSA,A,3,1,10,22,12,14,18,11,25,31,32,138,,1.6,0.8,1.3*3E
2017-11-16 17:25:39 1510871139.732098: $GPGSV,3,1,11,01,21,304,38,10,51,147,49,22,16,312,37,12,23,052,50*7C
2017-11-16 17:25:39 1510871139.734422: $GPGSV,3,2,11,14,65,321,46,18,21,142,36,11,09,285,40,25,39,094,47*75
2017-11-16 17:25:39 1510871139.734568: $GPGSV,3,3,11,31,52,222,50,32,69,018,49,138,38,213,43*77
2017-11-16 17:25:39 1510871139.845983: $GPZDA,222538.00,16,11,2017,00,00*69
2017-11-16 17:25:39 1510871139.846161: $GPGGA,222538,3946.9573,N,08404.9837,W,2,11,0.80,306.91,M,-33.324,M,,*7F
2017-11-16 17:25:39 1510871139.846223: $GPRMC,222538,A,3946.9573,N,08404.9837,W,0.0000,0.000,161117,,*3F
2017-11-16 17:25:39 1510871139.846297: $GPGSA,A,3,1,10,22,12,14,18,11,25,31,32,138,,1.6,0.8,1.3*3E
2017-11-16 17:25:40 1510871140.396808: $GPZDA,222539.00,16,11,2017,00,00*68
2017-11-16 17:25:40 1510871140.396969: $GPGGA,222539,3946.9573,N,08404.9837,W,2,11,0.80,306.91,M,-33.324,M,,*7E
2017-11-16 17:25:40 1510871140.397029: $GPRMC,222539,A,3946.9573,N,08404.9837,W,0.0000,0.000,161117,,*3E
2017-11-16 17:25:40 1510871140.397085: $GPGSA,A,3,1,10,22,12,14,18,11,25,31,32,138,,1.6,0.8,1.3*3E
2017-11-16 17:25:41 1510871141.402140: $GPZDA,222540.00,16,11,2017,00,00*66
2017-11-16 17:25:41 1510871141.402320: $GPGGA,222540,3946.9573,N,08404.9837,W,2,11,0.80,306.91,M,-33.324,M,,*70
2017-11-16 17:25:41 1510871141.402382: $GPRMC,222540,A,3946.9573,N,08404.9837,W,0.0000,0.000,161117,,*30
2017-11-16 17:25:41 1510871141.402456: $GPGSA,A,3,1,10,22,12,14,18,11,25,31,32,138,,1.6,0.8,1.3*3E
