2017-12-01 15:42:26 1512160946.903527: {"class":"VERSION","release":"3.16","rev":"3.16-4","proto_major":3,"proto_minor":11}
2017-12-01 15:42:26 1512160946.903935: {"class":"DEVICES","devices":[{"class":"DEVICE","path":"/dev/ttyUSB0","driver":"SiRF","subtype":"9\u0006GSD4e_4.1.2-P1_RPATCH.05-F-GPS-4R-1510281 11/03/2015 307","activated":"2017-12-01T20:42:26.685Z","flags":1,"native":1,"bps":4800,"parity":"N","stopbits":1,"cycle":1.00}]}
2017-12-01 15:42:26 1512160946.904080: {"class":"WATCH","enable":true,"json":false,"nmea":true,"raw":0,"scaled":false,"timing":false,"split24":false,"pps":false}
2017-12-01 15:42:27 1512160947.368194: $GPZDA,204228.00,01,12,2017,00,00*6E
2017-12-01 15:42:27 1512160947.368377: $GPGGA,204228,3946.9563,N,08404.9828,W,2,11,0.80,302.90,M,-33.324,M,,*77
2017-12-01 15:42:27 1512160947.368444: $GPRMC,204228,A,3946.9563,N,08404.9828,W,0.0000,0.000,011217,,*37
2017-12-01 15:42:27 1512160947.368505: $GPGSA,A,3,1,10,11,12,14,18,24,25,31,32,138,,2.0,0.8,1.5*3B
2017-12-01 15:42:28 1512160948.705204: $GPGSV,3,1,12,01,13,319,41,10,71,130,48,11,10,303,36,12,25,073,40*7C
2017-12-01 15:42:28 1512160948.705388: $GPGSV,3,2,12,14,54,289,41,18,38,135,47,24,15,045,43,25,29,115,41*77
2017-12-01 15:42:28 1512160948.705454: $GPGSV,3,3,12,31,34,211,49,32,68,325,48,22,01,310,00,138,38,213,46*47
2017-12-01 15:42:28 1512160948.818570: $GPZDA,204229.00,01,12,2017,00,00*6F
2017-12-01 15:42:28 1512160948.818763: $GPGGA,204229,3946.9563,N,08404.9828,W,2,11,0.80,302.90,M,-33.324,M,,*76
2017-12-01 15:42:28 1512160948.818831: $GPRMC,204229,A,3946.9563,N,08404.9828,W,0.0000,0.000,011217,,*36
2017-12-01 15:42:28 1512160948.818892: $GPGSA,A,3,1,10,11,12,14,18,24,25,31,32,138,,2.0,0.8,1.5*3B
2017-12-01 15:42:29 1512160949.370694: $GPZDA,204230.00,01,12,2017,00,00*67
2017-12-01 15:42:29 1512160949.370876: $GPGGA,204230,3946.9563,N,08404.9828,W,2,11,0.80,302.90,M,-33.324,M,,*7E
2017-12-01 15:42:29 1512160949.370945: $GPRMC,204230,A,3946.9563,N,08404.9828,W,0.0000,0.000,011217,,*3E
2017-12-01 15:42:29 1512160949.371006: $GPGSA,A,3,1,10,11,12,14,18,24,25,31,32,138,,2.0,0.8,1.5*3B
2017-12-01 15:42:30 1512160950.371653: $GPZDA,204231.00,01,12,2017,00,00*66
2017-12-01 15:42:30 1512160950.371831: $GPGGA,204231,3946.9563,N,08404.9828,W,2,11,0.80,302.90,M,-33.324,M,,*7F
2017-12-01 15:42:30 1512160950.371916: $GPRMC,204231,A,3946.9563,N,08404.9828,W,0.0000,0.000,011217,,*3F
2017-12-01 15:42:30 1512160950.371978: $GPGSA,A,3,1,10,11,12,14,18,24,25,31,32,138,,2.0,0.8,1.5*3B
2017-12-01 15:42:31 1512160951.703650: $GPGSV,3,1,12,01,13,319,40,10,71,130,48,11,10,303,31,12,25,073,39*74
2017-12-01 15:42:31 1512160951.703832: $GPGSV,3,2,12,14,54,289,41,18,38,135,47,24,15,045,43,25,29,115,41*77
2017-12-01 15:42:31 1512160951.703897: $GPGSV,3,3,12,31,34,211,49,32,68,325,48,22,01,310,00,138,38,213,45*44
2017-12-01 15:42:31 1512160951.816971: $GPZDA,204232.00,01,12,2017,00,00*65
2017-12-01 15:42:31 1512160951.817185: $GPGGA,204232,3946.9563,N,08404.9828,W,2,11,0.80,302.90,M,-33.324,M,,*7C
2017-12-01 15:42:31 1512160951.817257: $GPRMC,204232,A,3946.9563,N,08404.9828,W,0.0000,0.000,011217,,*3C
2017-12-01 15:42:31 1512160951.817319: $GPGSA,A,3,1,10,11,12,14,18,24,25,31,32,138,,2.0,0.8,1.5*3B
2017-12-01 15:42:32 1512160952.442472: $GPZDA,204233.00,01,12,2017,00,00*64
2017-12-01 15:42:32 1512160952.442643: $GPGGA,204233,3946.9563,N,08404.9828,W,2,11,0.80,302.90,M,-33.324,M,,*7D
2017-12-01 15:42:32 1512160952.442711: $GPRMC,204233,A,3946.9563,N,08404.9828,W,0.0000,0.000,011217,,*3D
2017-12-01 15:42:32 1512160952.442773: $GPGSA,A,3,1,10,11,12,14,18,24,25,31,32,138,,2.0,0.8,1.5*3B
2017-12-01 15:42:33 1512160953.373250: $GPZDA,204234.00,01,12,2017,00,00*63
2017-12-01 15:42:33 1512160953.373420: $GPGGA,204234,3946.9563,N,08404.9828,W,2,11,0.80,302.90,M,-33.324,M,,*7A
2017-12-01 15:42:33 1512160953.373487: $GPRMC,204234,A,3946.9563,N,08404.9828,W,0.0000,0.000,011217,,*3A
2017-12-01 15:42:33 1512160953.373549: $GPGSA,A,3,1,10,11,12,14,18,24,25,31,32,138,,2.0,0.8,1.5*3B
2017-12-01 15:42:34 1512160954.712719: $GPGSV,3,1,12,01,13,319,40,10,71,130,47,11,10,303,36,12,25,073,39*7C
2017-12-01 15:42:34 1512160954.712955: $GPGSV,3,2,12,14,54,289,42,18,38,135,47,24,15,045,43,25,29,115,40*75
2017-12-01 15:42:34 1512160954.713025: $GPGSV,3,3,12,31,34,211,49,32,68,325,48,22,01,310,03,138,38,213,46*44
2017-12-01 15:42:34 1512160954.826163: $GPZDA,204235.00,01,12,2017,00,00*62
2017-12-01 15:42:34 1512160954.826333: $GPGGA,204235,3946.9563,N,08404.9828,W,2,11,0.80,302.90,M,-33.324,M,,*7B
2017-12-01 15:42:34 1512160954.826401: $GPRMC,204235,A,3946.9563,N,08404.9828,W,0.0000,0.000,011217,,*3B
2017-12-01 15:42:34 1512160954.826462: $GPGSA,A,3,1,10,11,12,14,18,24,25,31,32,138,,2.0,0.8,1.5*3B
2017-12-01 15:42:35 1512160955.372013: $GPZDA,204236.00,01,12,2017,00,00*61
2017-12-01 15:42:35 1512160955.372190: $GPGGA,204236,3946.9563,N,08404.9828,W,2,11,0.80,302.90,M,-33.324,M,,*78
2017-12-01 15:42:35 1512160955.372258: $GPRMC,204236,A,3946.9563,N,08404.9828,W,0.0000,0.000,011217,,*38
2017-12-01 15:42:35 1512160955.372319: $GPGSA,A,3,1,10,11,12,14,18,24,25,31,32,138,,2.0,0.8,1.5*3B
2017-12-01 15:42:36 1512160956.366588: $GPZDA,204237.00,01,12,2017,00,00*60
2017-12-01 15:42:36 1512160956.366771: $GPGGA,204237,3946.9563,N,08404.9828,W,2,11,0.80,302.90,M,-33.324,M,,*79
2017-12-01 15:42:36 1512160956.366838: $GPRMC,204237,A,3946.9563,N,08404.9828,W,0.0000,0.000,011217,,*39
2017-12-01 15:42:36 1512160956.366899: $GPGSA,A,3,1,10,11,12,14,18,24,25,31,32,138,,2.0,0.8,1.5*3B
2017-12-01 15:42:37 1512160957.703461: $GPGSV,3,1,12,01,13,319,40,10,71,130,47,11,10,303,35,12,25,073,39*7F
2017-12-01 15:42:37 1512160957.703659: $GPGSV,3,2,12,14,54,289,42,18,38,135,47,24,15,045,44,25,29,115,40*72
2017-12-01 15:42:37 1512160957.703727: $GPGSV,3,3,12,31,34,211,49,32,68,325,48,22,01,310,26,138,38,213,45*40
2017-12-01 15:42:37 1512160957.816502: $GPZDA,204238.00,01,12,2017,00,00*6F
2017-12-01 15:42:37 1512160957.816672: $GPGGA,204238,3946.9563,N,08404.9828,W,2,12,0.80,302.90,M,-33.324,M,,*75
2017-12-01 15:42:37 1512160957.816739: $GPRMC,204238,A,3946.9563,N,08404.9828,W,0.0000,0.000,011217,,*36
2017-12-01 15:42:37 1512160957.816799: $GPGSA,A,3,1,10,11,12,14,18,24,25,31,32,22,138,2.0,0.8,1.5*3B
2017-12-01 15:42:38 1512160958.372424: $GPZDA,204239.00,01,12,2017,00,00*6E
2017-12-01 15:42:38 1512160958.372613: $GPGGA,204239,3946.9563,N,08404.9828,W,2,12,0.80,302.90,M,-33.324,M,,*74
2017-12-01 15:42:38 1512160958.372682: $GPRMC,204239,A,3946.9563,N,08404.9828,W,0.0000,0.000,011217,,*37
2017-12-01 15:42:38 1512160958.372761: $GPGSA,A,3,1,10,11,12,14,18,24,25,31,32,22,138,2.0,0.8,1.5*3B
2017-12-01 15:42:39 1512160959.372010: $GPZDA,204240.00,01,12,2017,00,00*60
2017-12-01 15:42:39 1512160959.372180: $GPGGA,204240,3946.9563,N,08404.9828,W,2,12,0.80,302.90,M,-33.324,M,,*7A
2017-12-01 15:42:39 1512160959.372247: $GPRMC,204240,A,3946.9563,N,08404.9828,W,0.0000,0.000,011217,,*39
2017-12-01 15:42:39 1512160959.372308: $GPGSA,A,3,1,10,11,12,14,18,24,25,31,32,22,138,2.0,0.8,1.5*3B
2017-12-01 15:42:40 1512160960.708930: $GPGSV,3,1,12,01,13,319,39,10,71,130,47,11,10,303,34,12,25,073,38*71
2017-12-01 15:42:40 1512160960.709114: $GPGSV,3,2,12,14,54,289,42,18,38,135,47,24,15,045,44,25,29,115,40*72
2017-12-01 15:42:40 1512160960.709182: $GPGSV,3,3,12,31,34,211,49,32,68,325,48,22,01,310,25,138,38,213,46*40
2017-12-01 15:42:40 1512160960.822775: $GPZDA,204241.00,01,12,2017,00,00*61
2017-12-01 15:42:40 1512160960.822944: $GPGGA,204241,3946.9563,N,08404.9828,W,2,12,0.80,302.90,M,-33.324,M,,*7B
2017-12-01 15:42:40 1512160960.823019: $GPRMC,204241,A,3946.9563,N,08404.9828,W,0.0000,0.000,011217,,*38
2017-12-01 15:42:40 1512160960.823082: $GPGSA,A,3,1,10,11,12,14,18,24,25,31,32,22,138,2.0,0.8,1.5*3B
2017-12-01 15:42:41 1512160961.373300: $GPZDA,204242.00,01,12,2017,00,00*62
2017-12-01 15:42:41 1512160961.373512: $GPGGA,204242,3946.9563,N,08404.9828,W,2,12,0.80,302.90,M,-33.324,M,,*78
2017-12-01 15:42:41 1512160961.375027: $GPRMC,204242,A,3946.9563,N,08404.9828,W,0.0000,0.000,011217,,*3B
2017-12-01 15:42:41 1512160961.375114: $GPGSA,A,3,1,10,11,12,14,18,24,25,31,32,22,138,2.0,0.8,1.5*3B
2017-12-01 15:42:42 1512160962.375335: $GPZDA,204243.00,01,12,2017,00,00*63
2017-12-01 15:42:42 1512160962.375656: $GPGGA,204243,3946.9563,N,08404.9828,W,2,12,0.80,302.90,M,-33.324,M,,*79
2017-12-01 15:42:42 1512160962.375859: $GPRMC,204243,A,3946.9563,N,08404.9828,W,0.0000,0.000,011217,,*3A
2017-12-01 15:42:42 1512160962.375926: $GPGSA,A,3,1,10,11,12,14,18,24,25,31,32,22,138,2.0,0.8,1.5*3B
2017-12-01 15:42:43 1512160963.709401: $GPGSV,3,1,12,01,13,319,40,10,71,130,47,11,10,303,35,12,25,073,38*7E
2017-12-01 15:42:43 1512160963.709601: $GPGSV,3,2,12,14,54,289,42,18,38,135,47,24,15,045,44,25,29,115,40*72
2017-12-01 15:42:43 1512160963.709670: $GPGSV,3,3,12,31,34,211,49,32,68,325,48,22,01,310,34,138,38,213,46*40
2017-12-01 15:42:43 1512160963.822247: $GPZDA,204244.00,01,12,2017,00,00*64
2017-12-01 15:42:43 1512160963.822431: $GPGGA,204244,3946.9563,N,08404.9828,W,2,12,0.80,302.90,M,-33.324,M,,*7E
2017-12-01 15:42:43 1512160963.822514: $GPRMC,204244,A,3946.9563,N,08404.9828,W,0.0000,0.000,011217,,*3D
2017-12-01 15:42:43 1512160963.822783: $GPGSA,A,3,1,10,11,12,14,18,24,25,31,32,22,138,2.0,0.8,1.5*3B
2017-12-01 15:42:44 1512160964.366462: $GPZDA,204245.00,01,12,2017,00,00*65
2017-12-01 15:42:44 1512160964.366650: $GPGGA,204245,3946.9563,N,08404.9828,W,2,12,0.80,302.90,M,-33.324,M,,*7F
2017-12-01 15:42:44 1512160964.366734: $GPRMC,204245,A,3946.9563,N,08404.9828,W,0.0000,0.000,011217,,*3C
2017-12-01 15:42:44 1512160964.366796: $GPGSA,A,3,1,10,11,12,14,18,24,25,31,32,22,138,2.0,0.8,1.5*3B
2017-12-01 15:42:45 1512160965.372133: $GPZDA,204246.00,01,12,2017,00,00*66
2017-12-01 15:42:45 1512160965.372303: $GPGGA,204246,3946.9563,N,08404.9828,W,2,12,0.80,302.90,M,-33.324,M,,*7C
2017-12-01 15:42:45 1512160965.372369: $GPRMC,204246,A,3946.9563,N,08404.9828,W,0.0000,0.000,011217,,*3F
2017-12-01 15:42:45 1512160965.372431: $GPGSA,A,3,1,10,11,12,14,18,24,25,31,32,22,138,2.0,0.8,1.5*3B
2017-12-01 15:42:46 1512160966.707886: $GPGSV,3,1,12,01,13,319,40,10,71,130,47,11,10,303,36,12,25,073,38*7D
2017-12-01 15:42:46 1512160966.708076: $GPGSV,3,2,12,14,54,289,42,18,38,135,47,24,15,045,44,25,29,115,41*73
2017-12-01 15:42:46 1512160966.708165: $GPGSV,3,3,12,31,34,211,49,32,68,325,48,22,01,310,34,138,38,213,45*43
2017-12-01 15:42:46 1512160966.821592: $GPZDA,204247.00,01,12,2017,00,00*67
2017-12-01 15:42:46 1512160966.821768: $GPGGA,204247,3946.9563,N,08404.9828,W,2,12,0.80,302.90,M,-33.324,M,,*7D
2017-12-01 15:42:46 1512160966.821836: $GPRMC,204247,A,3946.9563,N,08404.9828,W,0.0000,0.000,011217,,*3E
2017-12-01 15:42:46 1512160966.821896: $GPGSA,A,3,1,10,11,12,14,18,24,25,31,32,22,138,2.0,0.8,1.5*3B
