2017-11-16 14:23:03 1510860183.916321: {"class":"VERSION","release":"3.17","rev":"3.17","proto_major":3,"proto_minor":12}
2017-11-16 14:23:03 1510860183.916850: {"class":"DEVICES","devices":[{"class":"DEVICE","path":"/dev/ttyUSB0","driver":"SiRF","subtype":"9\u0006GSD4e_4.1.2-P1_RPATCH.05-F-GPS-4R-1510281 11/03/2015 307","activated":"2017-11-16T19:23:03.837Z","flags":1,"native":1,"bps":4800,"parity":"N","stopbits":1,"cycle":1.00}]}
2017-11-16 14:23:03 1510860183.916964: {"class":"WATCH","enable":true,"json":false,"nmea":true,"raw":0,"scaled":false,"timing":false,"split24":false,"pps":false}
2017-11-16 14:23:03 1510860183.960505: $GPZDA,192302.00,16,11,2017,00,00*6E
2017-11-16 14:23:03 1510860183.960635: $GPGGA,192302,3946.9565,N,08404.9850,W,2,12,0.80,304.07,M,-33.324,M,,*70
2017-11-16 14:23:03 1510860183.960695: $GPRMC,192302,A,3946.9565,N,08404.9850,W,0.0000,0.000,161117,,*3E
2017-11-16 14:23:03 1510860183.960751: $GPGSA,A,3,8,10,13,15,18,21,20,24,27,32,14,138,1.6,0.8,1.3*35
2017-11-16 14:23:04 1510860184.576843: $GPZDA,192303.00,16,11,2017,00,00*6F
2017-11-16 14:23:04 1510860184.577005: $GPGGA,192303,3946.9565,N,08404.9850,W,2,12,0.80,304.07,M,-33.324,M,,*71
2017-11-16 14:23:04 1510860184.577066: $GPRMC,192303,A,3946.9565,N,08404.9850,W,0.0000,0.000,161117,,*3F
2017-11-16 14:23:04 1510860184.577122: $GPGSA,A,3,8,10,13,15,18,21,20,24,27,32,14,138,1.6,0.8,1.3*35
2017-11-16 14:23:05 1510860185.501405: $GPZDA,192304.00,16,11,2017,00,00*68
2017-11-16 14:23:05 1510860185.501556: $GPGGA,192304,3946.9565,N,08404.9850,W,2,12,0.80,304.07,M,-33.324,M,,*76
2017-11-16 14:23:05 1510860185.501616: $GPRMC,192304,A,3946.9565,N,08404.9850,W,0.0000,0.000,161117,,*38
2017-11-16 14:23:05 1510860185.501672: $GPGSA,A,3,8,10,13,15,18,21,20,24,27,32,14,138,1.6,0.8,1.3*35
2017-11-16 14:23:06 1510860186.838104: $GPGSV,3,1,12,08,07,318,38,10,44,304,48,13,05,049,22,15,34,054,49*79
2017-11-16 14:23:06 1510860186.838274: $GPGSV,3,2,12,18,73,346,46,21,60,187,45,20,30,099,46,24,52,103,48*73
2017-11-16 14:23:06 1510860186.838334: $GPGSV,3,3,12,27,18,285,42,32,23,241,43,14,07,234,29,138,38,213,45*43
2017-11-16 14:23:06 1510860186.951900: $GPZDA,192305.00,16,11,2017,00,00*69
2017-11-16 14:23:06 1510860186.952065: $GPGGA,192305,3946.9565,N,08404.9850,W,2,12,0.80,304.07,M,-33.324,M,,*77
2017-11-16 14:23:06 1510860186.952126: $GPRMC,192305,A,3946.9565,N,08404.9850,W,0.0000,0.000,161117,,*39
2017-11-16 14:23:06 1510860186.952182: $GPGSA,A,3,8,10,13,15,18,21,20,24,27,32,14,138,1.6,0.8,1.3*35
2017-11-16 14:23:07 1510860187.501096: $GPZDA,192306.00,16,11,2017,00,00*6A
2017-11-16 14:23:07 1510860187.501268: $GPGGA,192306,3946.9565,N,08404.9850,W,2,12,0.80,304.07,M,-33.324,M,,*74
2017-11-16 14:23:07 1510860187.501329: $GPRMC,192306,A,3946.9565,N,08404.9850,W,0.0000,0.000,161117,,*3A
2017-11-16 14:23:07 1510860187.501387: $GPGSA,A,3,8,10,13,15,18,21,20,24,27,32,14,138,1.6,0.8,1.3*35
2017-11-16 14:23:08 1510860188.495613: $GPZDA,192307.00,16,11,2017,00,00*6B
2017-11-16 14:23:08 1510860188.495779: $GPGGA,192307,3946.9565,N,08404.9850,W,2,12,0.80,304.07,M,-33.324,M,,*75
2017-11-16 14:23:08 1510860188.495841: $GPRMC,192307,A,3946.9565,N,08404.9850,W,0.0000,0.000,161117,,*3B
2017-11-16 14:23:08 1510860188.495898: $GPGSA,A,3,8,10,13,15,18,21,20,24,27,32,14,138,1.6,0.8,1.3*35
2017-11-16 14:23:09 1510860189.868428: $GPGSV,3,1,12,08,07,318,37,10,44,304,48,13,05,049,22,15,34,054,49*76
2017-11-16 14:23:09 1510860189.868612: $GPGSV,3,2,12,18,73,346,46,21,60,187,45,20,30,099,46,24,52,103,48*73
2017-11-16 14:23:09 1510860189.868673: $GPGSV,3,3,12,27,18,285,43,32,23,241,44,14,07,234,18,138,38,213,43*41
2017-11-16 14:23:09 1510860189.981998: $GPZDA,192308.00,16,11,2017,00,00*64
2017-11-16 14:23:09 1510860189.982171: $GPGGA,192308,3946.9565,N,08404.9850,W,2,11,1.00,304.07,M,-33.324,M,,*70
2017-11-16 14:23:09 1510860189.982236: $GPRMC,192308,A,3946.9565,N,08404.9850,W,0.0000,0.000,161117,,*34
2017-11-16 14:23:09 1510860189.982293: $GPGSA,A,3,8,10,13,15,18,21,20,24,27,32,138,,1.6,1.0,1.3*39
2017-11-16 14:23:10 1510860190.532670: $GPZDA,192309.00,16,11,2017,00,00*65
2017-11-16 14:23:10 1510860190.532888: $GPGGA,192309,3946.9565,N,08404.9850,W,2,11,1.00,304.07,M,-33.324,M,,*71
2017-11-16 14:23:10 1510860190.532951: $GPRMC,192309,A,3946.9565,N,08404.9850,W,0.0000,0.000,161117,,*35
2017-11-16 14:23:10 1510860190.533009: $GPGSA,A,3,8,10,13,15,18,21,20,24,27,32,138,,1.6,1.0,1.3*39
2017-11-16 14:23:11 1510860191.532311: $GPZDA,192310.00,16,11,2017,00,00*6D
2017-11-16 14:23:11 1510860191.532503: $GPGGA,192310,3946.9565,N,08404.9850,W,2,11,1.00,304.07,M,-33.324,M,,*79
2017-11-16 14:23:11 1510860191.532568: $GPRMC,192310,A,3946.9565,N,08404.9850,W,0.0000,0.000,161117,,*3D
2017-11-16 14:23:11 1510860191.532627: $GPGSA,A,3,8,10,13,15,18,21,20,24,27,32,138,,1.6,1.0,1.3*39
2017-11-16 14:23:12 1510860192.840585: $GPGSV,3,1,12,08,07,318,32,10,44,304,48,13,05,049,22,15,34,054,49*73
2017-11-16 14:23:12 1510860192.840756: $GPGSV,3,2,12,18,73,346,46,21,60,187,45,20,30,099,46,24,52,103,48*73
2017-11-16 14:23:12 1510860192.840817: $GPGSV,3,3,12,27,18,285,43,32,23,241,43,14,07,234,16,138,38,213,44*4F
2017-11-16 14:23:12 1510860192.954282: $GPZDA,192311.00,16,11,2017,00,00*6C
2017-11-16 14:23:12 1510860192.954456: $GPGGA,192311,3946.9565,N,08404.9850,W,2,12,0.80,304.07,M,-33.324,M,,*72
2017-11-16 14:23:12 1510860192.954517: $GPRMC,192311,A,3946.9565,N,08404.9850,W,0.0000,0.000,161117,,*3C
2017-11-16 14:23:12 1510860192.954575: $GPGSA,A,3,8,10,13,15,18,21,20,24,27,32,14,138,1.6,0.8,1.3*35
2017-11-16 14:23:13 1510860193.527496: $GPZDA,192312.00,16,11,2017,00,00*6F
2017-11-16 14:23:13 1510860193.527655: $GPGGA,192312,3946.9565,N,08404.9850,W,2,12,0.80,304.07,M,-33.324,M,,*71
2017-11-16 14:23:13 1510860193.527716: $GPRMC,192312,A,3946.9565,N,08404.9850,W,0.0000,0.000,161117,,*3F
2017-11-16 14:23:13 1510860193.527772: $GPGSA,A,3,8,10,13,15,18,21,20,24,27,32,14,138,1.6,0.8,1.3*35
2017-11-16 14:23:14 1510860194.527623: $GPZDA,192313.00,16,11,2017,00,00*6E
2017-11-16 14:23:14 1510860194.527808: $GPGGA,192313,3946.9565,N,08404.9850,W,2,12,0.80,304.07,M,-33.324,M,,*70
2017-11-16 14:23:14 1510860194.527873: $GPRMC,192313,A,3946.9565,N,08404.9850,W,0.0000,0.000,161117,,*3E
2017-11-16 14:23:14 1510860194.527929: $GPGSA,A,3,8,10,13,15,18,21,20,24,27,32,14,138,1.6,0.8,1.3*35
2017-11-16 14:23:15 1510860195.842237: $GPGSV,3,1,12,08,07,318,31,10,44,304,48,13,05,049,22,15,34,054,50*78
2017-11-16 14:23:15 1510860195.842398: $GPGSV,3,2,12,18,73,346,46,21,60,187,45,20,30,099,46,24,52,103,48*73
2017-11-16 14:23:15 1510860195.842459: $GPGSV,3,3,12,27,18,285,43,32,23,241,43,14,07,234,00,138,38,213,43*4F
2017-11-16 14:23:15 1510860195.956903: $GPZDA,192314.00,16,11,2017,00,00*69
2017-11-16 14:23:15 1510860195.957075: $GPGGA,192314,3946.9565,N,08404.9850,W,2,11,1.00,304.07,M,-33.324,M,,*7D
2017-11-16 14:23:15 1510860195.957135: $GPRMC,192314,A,3946.9565,N,08404.9850,W,0.0000,0.000,161117,,*39
2017-11-16 14:23:15 1510860195.957193: $GPGSA,A,3,8,10,13,15,18,21,20,24,27,32,138,,1.6,1.0,1.3*39
2017-11-16 14:23:16 1510860196.501952: $GPZDA,192315.00,16,11,2017,00,00*68
2017-11-16 14:23:16 1510860196.502117: $GPGGA,192315,3946.9565,N,08404.9850,W,2,11,0.80,304.07,M,-33.324,M,,*75
2017-11-16 14:23:16 1510860196.502179: $GPRMC,192315,A,3946.9565,N,08404.9850,W,0.0000,0.000,161117,,*38
2017-11-16 14:23:16 1510860196.502235: $GPGSA,A,3,8,10,13,15,18,21,20,24,27,32,138,,1.6,0.8,1.3*30
2017-11-16 14:23:17 1510860197.504113: $GPZDA,192316.00,16,11,2017,00,00*6B
2017-11-16 14:23:17 1510860197.504275: $GPGGA,192316,3946.9565,N,08404.9850,W,2,11,0.80,304.07,M,-33.324,M,,*76
2017-11-16 14:23:17 1510860197.504336: $GPRMC,192316,A,3946.9565,N,08404.9850,W,0.0000,0.000,161117,,*3B
2017-11-16 14:23:17 1510860197.504392: $GPGSA,A,3,8,10,13,15,18,21,20,24,27,32,138,,1.6,0.8,1.3*30
2017-11-16 14:23:18 1510860198.839456: $GPGSV,3,1,12,08,07,318,30,10,44,304,48,13,05,049,22,15,34,054,50*79
2017-11-16 14:23:18 1510860198.839621: $GPGSV,3,2,12,18,73,346,46,21,60,187,45,20,30,099,46,24,52,103,48*73
2017-11-16 14:23:18 1510860198.839682: $GPGSV,3,3,12,27,18,285,43,32,23,241,43,14,07,234,31,138,38,213,44*4A
