2017-12-01 13:08:02 1512151682.238112: {"class":"VERSION","release":"3.16","rev":"3.16-4","proto_major":3,"proto_minor":11}
2017-12-01 13:08:02 1512151682.238472: {"class":"DEVICES","devices":[{"class":"DEVICE","path":"/dev/ttyUSB0","driver":"SiRF","subtype":"9\u0006GSD4e_4.1.2-P1_RPATCH.05-F-GPS-4R-1510281 11/03/2015 307","activated":"2017-12-01T18:08:02.212Z","flags":1,"native":1,"bps":4800,"parity":"N","stopbits":1,"cycle":1.00}]}
2017-12-01 13:08:02 1512151682.238585: {"class":"WATCH","enable":true,"json":false,"nmea":true,"raw":0,"scaled":false,"timing":false,"split24":false,"pps":false}
2017-12-01 13:08:02 1512151682.727064: $GPGSV,3,1,12,10,40,300,45,15,39,052,48,18,70,333,45,20,35,094,46*7D
2017-12-01 13:08:02 1512151682.727246: $GPGSV,3,2,12,21,65,190,45,24,50,112,47,27,19,291,34,32,19,237,40*7B
2017-12-01 13:08:02 1512151682.727312: $GPGSV,3,3,12,08,05,324,32,13,09,048,23,14,03,231,00,138,38,213,47*41
2017-12-01 13:08:02 1512151682.839144: $GPZDA,180803.00,01,12,2017,00,00*62
2017-12-01 13:08:02 1512151682.839316: $GPGGA,180803,3946.9571,N,08404.9860,W,2,11,0.80,298.17,M,-33.324,M,,*79
2017-12-01 13:08:02 1512151682.839383: $GPRMC,180803,A,3946.9571,N,08404.9860,W,0.0000,0.000,011217,,*34
2017-12-01 13:08:02 1512151682.839444: $GPGSA,A,3,10,15,18,20,21,24,27,32,8,13,138,,2.0,0.8,1.5*33
2017-12-01 13:08:03 1512151683.465770: $GPZDA,180804.00,01,12,2017,00,00*65
2017-12-01 13:08:03 1512151683.465957: $GPGGA,180804,3946.9571,N,08404.9860,W,2,11,0.80,298.17,M,-33.324,M,,*7E
2017-12-01 13:08:03 1512151683.466026: $GPRMC,180804,A,3946.9571,N,08404.9860,W,0.0000,0.000,011217,,*33
2017-12-01 13:08:03 1512151683.466087: $GPGSA,A,3,10,15,18,20,21,24,27,32,8,13,138,,2.0,0.8,1.5*33
2017-12-01 13:08:04 1512151684.391795: $GPZDA,180805.00,01,12,2017,00,00*64
2017-12-01 13:08:04 1512151684.391984: $GPGGA,180805,3946.9571,N,08404.9860,W,2,11,0.80,298.17,M,-33.324,M,,*7F
2017-12-01 13:08:04 1512151684.392050: $GPRMC,180805,A,3946.9571,N,08404.9860,W,0.0000,0.000,011217,,*32
2017-12-01 13:08:04 1512151684.392112: $GPGSA,A,3,10,15,18,20,21,24,27,32,8,13,138,,2.0,0.8,1.5*33
2017-12-01 13:08:05 1512151685.726199: $GPGSV,3,1,12,10,40,300,45,15,39,052,48,18,70,333,45,20,35,094,46*7D
2017-12-01 13:08:05 1512151685.726377: $GPGSV,3,2,12,21,65,190,45,24,50,112,47,27,19,291,41,32,19,237,40*79
2017-12-01 13:08:05 1512151685.726459: $GPGSV,3,3,12,08,05,324,32,13,09,048,23,14,03,231,22,138,38,213,46*40
2017-12-01 13:08:05 1512151685.839682: $GPZDA,180806.00,01,12,2017,00,00*67
2017-12-01 13:08:05 1512151685.839868: $GPGGA,180806,3946.9571,N,08404.9860,W,2,12,0.80,298.17,M,-33.324,M,,*7F
2017-12-01 13:08:05 1512151685.839937: $GPRMC,180806,A,3946.9571,N,08404.9860,W,0.0000,0.000,011217,,*31
2017-12-01 13:08:05 1512151685.839998: $GPGSA,A,3,10,15,18,20,21,24,27,32,8,13,14,138,2.0,0.8,1.5*36
2017-12-01 13:08:06 1512151686.392887: $GPZDA,180807.00,01,12,2017,00,00*66
2017-12-01 13:08:06 1512151686.393069: $GPGGA,180807,3946.9571,N,08404.9860,W,2,12,0.80,298.17,M,-33.324,M,,*7E
2017-12-01 13:08:06 1512151686.393137: $GPRMC,180807,A,3946.9571,N,08404.9860,W,0.0000,0.000,011217,,*30
2017-12-01 13:08:06 1512151686.393198: $GPGSA,A,3,10,15,18,20,21,24,27,32,8,13,14,138,2.0,0.8,1.5*36
2017-12-01 13:08:07 1512151687.388773: $GPZDA,180808.00,01,12,2017,00,00*69
2017-12-01 13:08:07 1512151687.388952: $GPGGA,180808,3946.9571,N,08404.9860,W,2,12,0.80,298.17,M,-33.324,M,,*71
2017-12-01 13:08:07 1512151687.389019: $GPRMC,180808,A,3946.9571,N,08404.9860,W,0.0000,0.000,011217,,*3F
2017-12-01 13:08:07 1512151687.389079: $GPGSA,A,3,10,15,18,20,21,24,27,32,8,13,14,138,2.0,0.8,1.5*36
2017-12-01 13:08:08 1512151688.726578: $GPGSV,3,1,12,10,40,300,44,15,39,052,48,18,70,333,45,20,35,094,46*7C
2017-12-01 13:08:08 1512151688.726755: $GPGSV,3,2,12,21,65,190,45,24,50,112,47,27,19,291,40,32,19,237,39*76
2017-12-01 13:08:08 1512151688.726822: $GPGSV,3,3,12,08,05,324,32,13,09,048,23,14,03,231,20,138,38,213,46*42
2017-12-01 13:08:08 1512151688.840216: $GPZDA,180809.00,01,12,2017,00,00*68
2017-12-01 13:08:08 1512151688.840381: $GPGGA,180809,3946.9571,N,08404.9860,W,2,12,0.80,298.17,M,-33.324,M,,*70
2017-12-01 13:08:08 1512151688.840499: $GPRMC,180809,A,3946.9571,N,08404.9860,W,0.0000,0.000,011217,,*3E
2017-12-01 13:08:08 1512151688.840562: $GPGSA,A,3,10,15,18,20,21,24,27,32,8,13,14,138,2.0,0.8,1.5*36
2017-12-01 13:08:09 1512151689.389479: $GPZDA,180810.00,01,12,2017,00,00*60
2017-12-01 13:08:09 1512151689.389649: $GPGGA,180810,3946.9571,N,08404.9860,W,2,12,0.80,298.17,M,-33.324,M,,*78
2017-12-01 13:08:09 1512151689.389716: $GPRMC,180810,A,3946.9571,N,08404.9860,W,0.0000,0.000,011217,,*36
2017-12-01 13:08:09 1512151689.389776: $GPGSA,A,3,10,15,18,20,21,24,27,32,8,13,14,138,2.0,0.8,1.5*36
2017-12-01 13:08:10 1512151690.390369: $GPZDA,180811.00,01,12,2017,00,00*61
2017-12-01 13:08:10 1512151690.390555: $GPGGA,180811,3946.9571,N,08404.9860,W,2,12,0.80,298.17,M,-33.324,M,,*79
2017-12-01 13:08:10 1512151690.390642: $GPRMC,180811,A,3946.9571,N,08404.9860,W,0.0000,0.000,011217,,*37
2017-12-01 13:08:10 1512151690.390706: $GPGSA,A,3,10,15,18,20,21,24,27,32,8,13,14,138,2.0,0.8,1.5*36
2017-12-01 13:08:11 1512151691.727433: $GPGSV,3,1,12,10,40,300,44,15,39,052,48,18,70,333,44,20,35,094,46*7D
2017-12-01 13:08:11 1512151691.727611: $GPGSV,3,2,12,21,65,190,45,24,50,112,47,27,19,291,40,32,19,237,39*76
2017-12-01 13:08:11 1512151691.727678: $GPGSV,3,3,12,08,05,324,32,13,09,048,23,14,03,231,20,138,38,213,46*42
2017-12-01 13:08:11 1512151691.841111: $GPZDA,180812.00,01,12,2017,00,00*62
2017-12-01 13:08:11 1512151691.841279: $GPGGA,180812,3946.9571,N,08404.9860,W,2,12,0.80,298.17,M,-33.324,M,,*7A
2017-12-01 13:08:11 1512151691.841400: $GPRMC,180812,A,3946.9571,N,08404.9860,W,0.0000,0.000,011217,,*34
2017-12-01 13:08:11 1512151691.841472: $GPGSA,A,3,10,15,18,20,21,24,27,32,8,13,14,138,2.0,0.8,1.5*36
