2017-11-16 14:20:31 1510860031.257118: {"class":"VERSION","release":"3.17","rev":"3.17","proto_major":3,"proto_minor":12}
2017-11-16 14:20:31 1510860031.257705: {"class":"DEVICES","devices":[{"class":"DEVICE","path":"/dev/ttyUSB0","driver":"SiRF","subtype":"9\u0006GSD4e_4.1.2-P1_RPATCH.05-F-GPS-4R-1510281 11/03/2015 307","activated":"2017-11-16T19:20:31.093Z","flags":1,"native":1,"bps":4800,"parity":"N","stopbits":1,"cycle":1.00}]}
2017-11-16 14:20:31 1510860031.257851: {"class":"WATCH","enable":true,"json":false,"nmea":true,"raw":0,"scaled":false,"timing":false,"split24":false,"pps":false}
2017-11-16 14:20:31 1510860031.508689: $GPZDA,192030.00,16,11,2017,00,00*6C
2017-11-16 14:20:31 1510860031.508851: $GPGGA,192030,3946.9565,N,08404.9857,W,2,11,0.80,303.99,M,-33.324,M,,*76
2017-11-16 14:20:31 1510860031.508913: $GPRMC,192030,A,3946.9565,N,08404.9857,W,0.0000,0.000,161117,,*3B
2017-11-16 14:20:31 1510860031.508970: $GPGSA,A,3,8,10,13,15,18,21,20,24,27,32,138,,1.6,0.8,1.3*30
2017-11-16 14:20:32 1510860032.503446: $GPZDA,192031.00,16,11,2017,00,00*6D
2017-11-16 14:20:32 1510860032.503607: $GPGGA,192031,3946.9565,N,08404.9857,W,2,11,0.80,303.99,M,-33.324,M,,*77
2017-11-16 14:20:32 1510860032.503669: $GPRMC,192031,A,3946.9565,N,08404.9857,W,0.0000,0.000,161117,,*3A
2017-11-16 14:20:32 1510860032.503725: $GPGSA,A,3,8,10,13,15,18,21,20,24,27,32,138,,1.6,0.8,1.3*30
2017-11-16 14:20:33 1510860033.840409: $GPGSV,3,1,12,08,07,319,38,10,43,303,46,13,06,049,16,15,35,052,51*7C
2017-11-16 14:20:33 1510860033.840649: $GPGSV,3,2,12,18,72,342,46,21,61,189,46,20,31,097,45,24,52,106,48*73
2017-11-16 14:20:33 1510860033.840724: $GPGSV,3,3,12,27,19,286,39,32,22,240,46,14,06,234,07,138,38,213,45*45
2017-11-16 14:20:33 1510860033.953794: $GPZDA,192032.00,16,11,2017,00,00*6E
2017-11-16 14:20:33 1510860033.953952: $GPGGA,192032,3946.9565,N,08404.9857,W,2,11,0.80,303.99,M,-33.324,M,,*74
2017-11-16 14:20:33 1510860033.954012: $GPRMC,192032,A,3946.9565,N,08404.9857,W,0.0000,0.000,161117,,*39
2017-11-16 14:20:33 1510860033.954068: $GPGSA,A,3,8,10,13,15,18,21,20,24,27,32,138,,1.6,0.8,1.3*30
2017-11-16 14:20:34 1510860034.578865: $GPZDA,192033.00,16,11,2017,00,00*6F
2017-11-16 14:20:34 1510860034.579044: $GPGGA,192033,3946.9565,N,08404.9857,W,2,11,0.80,303.99,M,-33.324,M,,*75
2017-11-16 14:20:34 1510860034.579107: $GPRMC,192033,A,3946.9565,N,08404.9857,W,0.0000,0.000,161117,,*38
2017-11-16 14:20:34 1510860034.579163: $GPGSA,A,3,8,10,13,15,18,21,20,24,27,32,138,,1.6,0.8,1.3*30
2017-11-16 14:20:35 1510860035.502527: $GPZDA,192034.00,16,11,2017,00,00*68
2017-11-16 14:20:35 1510860035.502685: $GPGGA,192034,3946.9565,N,08404.9857,W,2,11,0.80,303.99,M,-33.324,M,,*72
2017-11-16 14:20:35 1510860035.502745: $GPRMC,192034,A,3946.9565,N,08404.9857,W,0.0000,0.000,161117,,*3F
2017-11-16 14:20:35 1510860035.502818: $GPGSA,A,3,8,10,13,15,18,21,20,24,27,32,138,,1.6,0.8,1.3*30
2017-11-16 14:20:36 1510860036.833038: $GPGSV,3,1,12,08,07,319,37,10,43,303,46,13,06,049,17,15,35,052,51*72
2017-11-16 14:20:36 1510860036.833187: $GPGSV,3,2,12,18,72,342,46,21,61,189,46,20,31,097,46,24,52,106,48*70
2017-11-16 14:20:36 1510860036.833247: $GPGSV,3,3,12,27,19,286,38,32,22,240,47,14,06,234,28,138,38,213,44*49
2017-11-16 14:20:36 1510860036.946316: $GPZDA,192035.00,16,11,2017,00,00*69
2017-11-16 14:20:36 1510860036.946489: $GPGGA,192035,3946.9565,N,08404.9857,W,2,12,0.80,303.99,M,-33.324,M,,*70
2017-11-16 14:20:36 1510860036.946569: $GPRMC,192035,A,3946.9565,N,08404.9857,W,0.0000,0.000,161117,,*3E
2017-11-16 14:20:36 1510860036.946627: $GPGSA,A,3,8,10,13,15,18,21,20,24,27,32,14,138,1.6,0.8,1.3*35
2017-11-16 14:20:37 1510860037.533867: $GPZDA,192036.00,16,11,2017,00,00*6A
2017-11-16 14:20:37 1510860037.534008: $GPGGA,192036,3946.9565,N,08404.9857,W,2,12,0.80,303.99,M,-33.324,M,,*73
2017-11-16 14:20:37 1510860037.534068: $GPRMC,192036,A,3946.9565,N,08404.9857,W,0.0000,0.000,161117,,*3D
2017-11-16 14:20:37 1510860037.534124: $GPGSA,A,3,8,10,13,15,18,21,20,24,27,32,14,138,1.6,0.8,1.3*35
2017-11-16 14:20:38 1510860038.533414: $GPZDA,192037.00,16,11,2017,00,00*6B
2017-11-16 14:20:38 1510860038.533625: $GPGGA,192037,3946.9565,N,08404.9857,W,2,12,0.80,303.99,M,-33.324,M,,*72
2017-11-16 14:20:38 1510860038.533689: $GPRMC,192037,A,3946.9565,N,08404.9857,W,0.0000,0.000,161117,,*3C
2017-11-16 14:20:38 1510860038.533745: $GPGSA,A,3,8,10,13,15,18,21,20,24,27,32,14,138,1.6,0.8,1.3*35
2017-11-16 14:20:39 1510860039.870915: $GPGSV,3,1,12,08,07,319,38,10,43,303,46,13,06,049,19,15,35,052,51*73
2017-11-16 14:20:39 1510860039.871086: $GPGSV,3,2,12,18,72,342,46,21,61,189,46,20,31,097,46,24,52,106,47*7F
2017-11-16 14:20:39 1510860039.871146: $GPGSV,3,3,12,27,19,286,38,32,22,240,47,14,06,234,16,138,38,213,44*44
2017-11-16 14:20:39 1510860039.984249: $GPZDA,192038.00,16,11,2017,00,00*64
2017-11-16 14:20:39 1510860039.984401: $GPGGA,192038,3946.9565,N,08404.9857,W,2,11,0.80,303.99,M,-33.324,M,,*7E
2017-11-16 14:20:39 1510860039.984461: $GPRMC,192038,A,3946.9565,N,08404.9857,W,0.0000,0.000,161117,,*33
2017-11-16 14:20:39 1510860039.984516: $GPGSA,A,3,8,10,13,15,18,21,20,24,27,32,138,,1.6,0.8,1.3*30
2017-11-16 14:20:40 1510860040.502899: $GPZDA,192039.00,16,11,2017,00,00*65
2017-11-16 14:20:40 1510860040.507219: $GPGGA,192039,3946.9565,N,08404.9857,W,2,11,0.80,303.99,M,-33.324,M,,*7F
2017-11-16 14:20:40 1510860040.507326: $GPRMC,192039,A,3946.9565,N,08404.9857,W,0.0000,0.000,161117,,*32
2017-11-16 14:20:40 1510860040.507386: $GPGSA,A,3,8,10,13,15,18,21,20,24,27,32,138,,1.6,0.8,1.3*30
2017-11-16 14:20:41 1510860041.533643: $GPZDA,192040.00,16,11,2017,00,00*6B
2017-11-16 14:20:41 1510860041.533800: $GPGGA,192040,3946.9565,N,08404.9857,W,2,11,0.80,303.99,M,-33.324,M,,*71
2017-11-16 14:20:41 1510860041.533883: $GPRMC,192040,A,3946.9565,N,08404.9857,W,0.0000,0.000,161117,,*3C
2017-11-16 14:20:41 1510860041.533940: $GPGSA,A,3,8,10,13,15,18,21,20,24,27,32,138,,1.6,0.8,1.3*30
2017-11-16 14:20:42 1510860042.876684: $GPGSV,3,1,12,08,07,319,38,10,43,303,46,13,06,049,19,15,35,052,51*73
2017-11-16 14:20:42 1510860042.876877: $GPGSV,3,2,12,18,72,342,46,21,61,189,46,20,31,097,46,24,52,106,48*70
2017-11-16 14:20:42 1510860042.876938: $GPGSV,3,3,12,27,19,286,38,32,22,240,47,14,06,234,00,138,38,213,44*43
2017-11-16 14:20:42 1510860042.990511: $GPZDA,192041.00,16,11,2017,00,00*6A
2017-11-16 14:20:42 1510860042.990651: $GPGGA,192041,3946.9565,N,08404.9857,W,2,11,0.80,303.99,M,-33.324,M,,*70
2017-11-16 14:20:42 1510860042.990731: $GPRMC,192041,A,3946.9565,N,08404.9857,W,0.0000,0.000,161117,,*3D
2017-11-16 14:20:42 1510860042.990788: $GPGSA,A,3,8,10,13,15,18,21,20,24,27,32,138,,1.6,0.8,1.3*30
2017-11-16 14:20:43 1510860043.502147: $GPZDA,192042.00,16,11,2017,00,00*69
2017-11-16 14:20:43 1510860043.502428: $GPGGA,192042,3946.9565,N,08404.9857,W,2,11,0.80,303.99,M,-33.324,M,,*73
2017-11-16 14:20:43 1510860043.502548: $GPRMC,192042,A,3946.9565,N,08404.9857,W,0.0000,0.000,161117,,*3E
2017-11-16 14:20:43 1510860043.502662: $GPGSA,A,3,8,10,13,15,18,21,20,24,27,32,138,,1.6,0.8,1.3*30
2017-11-16 14:20:44 1510860044.496212: $GPZDA,192043.00,16,11,2017,00,00*68
2017-11-16 14:20:44 1510860044.496375: $GPGGA,192043,3946.9565,N,08404.9857,W,2,11,0.80,303.99,M,-33.324,M,,*72
2017-11-16 14:20:44 1510860044.496436: $GPRMC,192043,A,3946.9565,N,08404.9857,W,0.0000,0.000,161117,,*3F
2017-11-16 14:20:44 1510860044.496492: $GPGSA,A,3,8,10,13,15,18,21,20,24,27,32,138,,1.6,0.8,1.3*30
2017-11-16 14:20:45 1510860045.838261: $GPGSV,3,1,12,08,07,319,37,10,43,303,46,13,06,049,19,15,35,052,51*7C
2017-11-16 14:20:45 1510860045.838440: $GPGSV,3,2,12,18,72,342,46,21,61,189,46,20,31,097,46,24,52,106,48*70
2017-11-16 14:20:45 1510860045.838500: $GPGSV,3,3,12,27,19,286,38,32,22,240,47,14,06,234,00,138,38,213,44*43
2017-11-16 14:20:45 1510860045.951705: $GPZDA,192044.00,16,11,2017,00,00*6F
2017-11-16 14:20:45 1510860045.951875: $GPGGA,192044,3946.9565,N,08404.9857,W,2,11,0.80,303.99,M,-33.324,M,,*75
2017-11-16 14:20:45 1510860045.951935: $GPRMC,192044,A,3946.9565,N,08404.9857,W,0.0000,0.000,161117,,*38
2017-11-16 14:20:45 1510860045.951991: $GPGSA,A,3,8,10,13,15,18,21,20,24,27,32,138,,1.6,0.8,1.3*30
