2017-12-29 11:31:12 1514565072.277270: {"class":"VERSION","release":"3.16","rev":"3.16-4","proto_major":3,"proto_minor":11}
2017-12-29 11:31:12 1514565072.277612: {"class":"DEVICES","devices":[{"class":"DEVICE","path":"/dev/ttyUSB0","driver":"SiRF","subtype":"9\u0006GSD4e_4.1.2-P1_RPATCH.05-F-GPS-4R-1510281 11/03/2015 307","activated":"2017-12-29T16:31:11.481Z","flags":1,"native":1,"bps":4800,"parity":"N","stopbits":1,"cycle":1.00}]}
2017-12-29 11:31:12 1514565072.277729: {"class":"WATCH","enable":true,"json":false,"nmea":true,"raw":0,"scaled":false,"timing":false,"split24":false,"pps":false}
2017-12-29 11:31:12 1514565072.895236: $GPZDA,163113.24,29,12,2017,00,00*6B
2017-12-29 11:31:12 1514565072.895407: $GPGGA,163113,3946.9584,N,08404.9900,W,1,11,1.00,321.72,M,-33.324,M,,*7B
2017-12-29 11:31:12 1514565072.895473: $GPRMC,163113,A,3946.9584,N,08404.9900,W,0.2758,128.232,291217,,*36
2017-12-29 11:31:12 1514565072.895534: $GPGSA,A,3,8,10,15,18,20,21,24,27,32,14,138,,1.7,1.0,1.3*3F
2017-12-29 11:31:12 1514565072.895593: $GPGBS,163113,10.91,M,10.38,M,30.89,M*08
2017-12-29 11:31:13 1514565073.976614: $GPZDA,163113.43,29,12,2017,00,00*6A
2017-12-29 11:31:13 1514565073.976799: $GPGGA,163113,3946.9579,N,08404.9893,W,1,11,1.00,319.76,M,-33.324,M,,*7D
2017-12-29 11:31:13 1514565073.976868: $GPRMC,163113,A,3946.9579,N,08404.9893,W,0.2172,85.763,291217,,*06
2017-12-29 11:31:13 1514565073.976957: $GPGSA,A,3,8,10,15,18,20,21,24,27,32,14,138,,1.7,1.0,1.3*3F
2017-12-29 11:31:15 1514565075.119191: $GPGSV,3,1,12,08,07,318,38,10,47,306,46,15,31,054,49,18,75,357,46*71
2017-12-29 11:31:15 1514565075.119403: $GPGSV,3,2,12,20,30,100,51,21,56,186,37,24,53,099,41,27,18,283,19*7C
2017-12-29 11:31:15 1514565075.119472: $GPGSV,3,3,12,32,27,243,29,14,08,235,00,13,02,051,00,138,38,213,00*4C
2017-12-29 11:31:15 1514565075.231637: $GPZDA,163114.00,29,12,2017,00,00*6A
2017-12-29 11:31:15 1514565075.231768: $GPGGA,163114,3946.9577,N,08404.9904,W,1,09,1.00,315.39,M,-33.324,M,,*75
2017-12-29 11:31:15 1514565075.231877: $GPRMC,163114,A,3946.9577,N,08404.9904,W,0.0407,322.014,291217,,*3C
2017-12-29 11:31:15 1514565075.231941: $GPGSA,A,3,8,10,15,18,20,21,24,27,32,,,,1.7,1.0,1.3*00
2017-12-29 11:31:15 1514565075.683575: $GPZDA,163115.00,29,12,2017,00,00*6B
2017-12-29 11:31:15 1514565075.683753: $GPGGA,163115,3946.9622,N,08404.9936,W,1,09,0.80,316.41,M,-33.324,M,,*73
2017-12-29 11:31:15 1514565075.683819: $GPRMC,163115,A,3946.9622,N,08404.9936,W,0.1867,0.000,291217,,*32
2017-12-29 11:31:15 1514565075.683903: $GPGSA,A,3,8,10,15,18,20,21,24,27,32,,,,1.7,0.8,1.3*09
2017-12-29 11:31:16 1514565076.134339: $GPZDA,163116.00,29,12,2017,00,00*68
2017-12-29 11:31:16 1514565076.134511: $GPGGA,163116,3946.9622,N,08404.9929,W,1,09,1.00,316.49,M,-33.324,M,,*7F
2017-12-29 11:31:16 1514565076.134577: $GPRMC,163116,A,3946.9622,N,08404.9929,W,0.0000,0.000,291217,,*37
2017-12-29 11:31:16 1514565076.134638: $GPGSA,A,3,8,10,15,18,20,21,24,27,32,,,,1.7,1.0,1.3*00
2017-12-29 11:31:17 1514565077.095815: $GPGSV,3,1,12,08,07,318,39,10,47,306,47,15,31,054,49,18,75,357,45*72
2017-12-29 11:31:17 1514565077.096011: $GPGSV,3,2,12,20,30,100,51,21,56,186,48,24,53,099,52,27,18,283,33*7E
2017-12-29 11:31:17 1514565077.096079: $GPGSV,3,3,12,32,27,243,37,14,08,235,07,13,02,051,00,138,38,213,46*46
2017-12-29 11:31:17 1514565077.209185: $GPZDA,163117.00,29,12,2017,00,00*69
2017-12-29 11:31:17 1514565077.209368: $GPGGA,163117,3946.9622,N,08404.9917,W,1,10,1.00,319.46,M,-33.324,M,,*7B
2017-12-29 11:31:17 1514565077.209435: $GPRMC,163117,A,3946.9622,N,08404.9917,W,0.0000,0.000,291217,,*3B
2017-12-29 11:31:17 1514565077.209496: $GPGSA,A,3,8,10,15,18,20,21,24,27,32,138,,,1.7,1.0,1.3*3A
2017-12-29 11:31:17 1514565077.662337: $GPZDA,163118.00,29,12,2017,00,00*66
2017-12-29 11:31:17 1514565077.664753: $GPGGA,163118,3946.9622,N,08404.9917,W,1,10,0.80,319.46,M,-33.324,M,,*7D
2017-12-29 11:31:17 1514565077.665013: $GPRMC,163118,A,3946.9622,N,08404.9917,W,0.0000,0.000,291217,,*34
2017-12-29 11:31:17 1514565077.665147: $GPGSA,A,3,8,10,15,18,20,21,24,27,32,138,,,1.7,0.8,1.3*33
2017-12-29 11:31:18 1514565078.376264: $GPZDA,163119.00,29,12,2017,00,00*67
2017-12-29 11:31:18 1514565078.376430: $GPGGA,163119,3946.9622,N,08404.9917,W,2,10,1.40,319.46,M,-33.324,M,,*72
2017-12-29 11:31:18 1514565078.376497: $GPRMC,163119,A,3946.9622,N,08404.9917,W,0.0000,0.000,291217,,*35
2017-12-29 11:31:18 1514565078.376558: $GPGSA,A,3,8,10,15,18,20,21,24,27,32,138,,,1.7,1.4,1.3*3E
2017-12-29 11:31:18 1514565078.376617: $GPGBS,163119,2.73,M,2.59,M,7.72,M*39
2017-12-29 11:31:19 1514565079.712804: $GPGSV,3,1,12,08,07,318,39,10,47,306,46,15,31,054,49,18,75,357,45*73
2017-12-29 11:31:19 1514565079.713001: $GPGSV,3,2,12,20,30,100,52,21,56,186,48,24,53,099,52,27,18,283,33*7D
2017-12-29 11:31:19 1514565079.713069: $GPGSV,3,3,12,32,27,243,38,14,08,235,26,13,02,051,00,138,38,213,47*4B
2017-12-29 11:31:19 1514565079.827172: $GPZDA,163120.00,29,12,2017,00,00*6D
2017-12-29 11:31:19 1514565079.827555: $GPGGA,163120,3946.9622,N,08404.9917,W,2,11,1.00,319.46,M,-33.324,M,,*7D
2017-12-29 11:31:19 1514565079.827625: $GPRMC,163120,A,3946.9622,N,08404.9917,W,0.0000,0.000,291217,,*3F
2017-12-29 11:31:19 1514565079.827686: $GPGSA,A,3,8,10,15,18,20,21,24,27,32,14,138,,1.7,1.0,1.3*3F
2017-12-29 11:31:20 1514565080.377356: $GPZDA,163121.00,29,12,2017,00,00*6C
2017-12-29 11:31:20 1514565080.377522: $GPGGA,163121,3946.9622,N,08404.9917,W,2,11,1.00,319.46,M,-33.324,M,,*7C
2017-12-29 11:31:20 1514565080.377587: $GPRMC,163121,A,3946.9622,N,08404.9917,W,0.0000,0.000,291217,,*3E
2017-12-29 11:31:20 1514565080.377647: $GPGSA,A,3,8,10,15,18,20,21,24,27,32,14,138,,1.7,1.0,1.3*3F
2017-12-29 11:31:21 1514565081.376771: $GPZDA,163122.00,29,12,2017,00,00*6F
2017-12-29 11:31:21 1514565081.377001: $GPGGA,163122,3946.9622,N,08404.9910,W,2,11,1.00,319.54,M,-33.324,M,,*7B
2017-12-29 11:31:21 1514565081.377121: $GPRMC,163122,A,3946.9622,N,08404.9910,W,0.0000,0.000,291217,,*3A
2017-12-29 11:31:21 1514565081.377232: $GPGSA,A,3,8,10,15,18,20,21,24,27,32,14,138,,1.7,1.0,1.3*3F
2017-12-29 11:31:22 1514565082.713082: $GPGSV,3,1,12,08,07,318,40,10,47,306,46,15,31,054,49,18,75,357,46*7E
2017-12-29 11:31:22 1514565082.713273: $GPGSV,3,2,12,20,30,100,52,21,56,186,48,24,53,099,52,27,18,283,33*7D
2017-12-29 11:31:22 1514565082.713340: $GPGSV,3,3,12,32,27,243,38,14,08,235,00,13,02,051,00,138,38,213,46*4E
2017-12-29 11:31:22 1514565082.826607: $GPZDA,163123.00,29,12,2017,00,00*6E
2017-12-29 11:31:22 1514565082.826835: $GPGGA,163123,3946.9622,N,08404.9910,W,2,10,1.00,319.54,M,-33.324,M,,*7B
2017-12-29 11:31:22 1514565082.826908: $GPRMC,163123,A,3946.9622,N,08404.9910,W,0.0000,0.000,291217,,*3B
2017-12-29 11:31:22 1514565082.826968: $GPGSA,A,3,8,10,15,18,20,21,24,27,32,138,,,1.7,1.0,1.3*3A
2017-12-29 11:31:23 1514565083.377257: $GPZDA,163124.00,29,12,2017,00,00*69
2017-12-29 11:31:23 1514565083.377426: $GPGGA,163124,3946.9622,N,08404.9910,W,2,10,1.00,319.54,M,-33.324,M,,*7C
2017-12-29 11:31:23 1514565083.377491: $GPRMC,163124,A,3946.9622,N,08404.9910,W,0.0000,0.000,291217,,*3C
2017-12-29 11:31:23 1514565083.377552: $GPGSA,A,3,8,10,15,18,20,21,24,27,32,138,,,1.7,1.0,1.3*3A
2017-12-29 11:31:24 1514565084.380001: $GPZDA,163125.00,29,12,2017,00,00*68
2017-12-29 11:31:24 1514565084.380324: $GPGGA,163125,3946.9622,N,08404.9910,W,2,10,0.80,319.54,M,-33.324,M,,*74
2017-12-29 11:31:24 1514565084.380460: $GPRMC,163125,A,3946.9622,N,08404.9910,W,0.0000,0.000,291217,,*3D
2017-12-29 11:31:24 1514565084.380661: $GPGSA,A,3,8,10,15,18,20,21,24,27,32,138,,,1.7,0.8,1.3*33
2017-12-29 11:31:25 1514565085.715038: $GPGSV,3,1,12,08,07,318,40,10,47,306,47,15,31,054,49,18,75,357,46*7F
2017-12-29 11:31:25 1514565085.715219: $GPGSV,3,2,12,20,30,100,52,21,56,186,48,24,53,099,52,27,18,283,33*7D
2017-12-29 11:31:25 1514565085.715285: $GPGSV,3,3,12,32,27,243,38,14,08,235,25,13,02,051,00,138,38,213,46*49
2017-12-29 11:31:25 1514565085.827186: $GPZDA,163126.00,29,12,2017,00,00*6B
2017-12-29 11:31:25 1514565085.827371: $GPGGA,163126,3946.9622,N,08404.9910,W,2,11,0.80,319.54,M,-33.324,M,,*76
2017-12-29 11:31:25 1514565085.827438: $GPRMC,163126,A,3946.9622,N,08404.9910,W,0.0000,0.000,291217,,*3E
2017-12-29 11:31:25 1514565085.827550: $GPGSA,A,3,8,10,15,18,20,21,24,27,32,14,138,,1.7,0.8,1.3*36
2017-12-29 11:31:26 1514565086.453857: $GPZDA,163127.00,29,12,2017,00,00*6A
2017-12-29 11:31:26 1514565086.454019: $GPGGA,163127,3946.9622,N,08404.9910,W,2,11,0.80,319.54,M,-33.324,M,,*77
2017-12-29 11:31:26 1514565086.454085: $GPRMC,163127,A,3946.9622,N,08404.9910,W,0.0000,0.000,291217,,*3F
2017-12-29 11:31:26 1514565086.454146: $GPGSA,A,3,8,10,15,18,20,21,24,27,32,14,138,,1.7,0.8,1.3*36
