2017-12-29 11:10:44 1514563844.096641: {"class":"VERSION","release":"3.16","rev":"3.16-4","proto_major":3,"proto_minor":11}
2017-12-29 11:10:44 1514563844.096982: {"class":"DEVICES","devices":[{"class":"DEVICE","path":"/dev/ttyUSB0","driver":"SiRF","subtype":"9\u0006GSD4e_4.1.2-P1_RPATCH.05-F-GPS-4R-1510281 11/03/2015 307","activated":"2017-12-29T16:10:43.993Z","flags":1,"native":1,"bps":4800,"parity":"N","stopbits":1,"cycle":1.00}]}
2017-12-29 11:10:44 1514563844.097097: {"class":"WATCH","enable":true,"json":false,"nmea":true,"raw":0,"scaled":false,"timing":false,"split24":false,"pps":false}
2017-12-29 11:10:44 1514563844.402327: $GPZDA,161045.00,29,12,2017,00,00*6D
2017-12-29 11:10:44 1514563844.402501: $GPGGA,161045,3946.9573,N,08404.9856,W,2,11,1.80,303.86,M,-33.324,M,,*71
2017-12-29 11:10:44 1514563844.402569: $GPRMC,161045,A,3946.9573,N,08404.9856,W,0.0000,0.000,291217,,*3C
2017-12-29 11:10:44 1514563844.402630: $GPGSA,A,3,8,10,15,18,20,21,24,27,32,13,138,,1.7,1.8,1.3*30
2017-12-29 11:10:45 1514563845.396860: $GPZDA,161046.00,29,12,2017,00,00*6E
2017-12-29 11:10:45 1514563845.397021: $GPGGA,161046,3946.9573,N,08404.9856,W,2,11,1.80,303.86,M,-33.324,M,,*72
2017-12-29 11:10:45 1514563845.397086: $GPRMC,161046,A,3946.9573,N,08404.9856,W,0.0000,0.000,291217,,*3F
2017-12-29 11:10:45 1514563845.397146: $GPGSA,A,3,8,10,15,18,20,21,24,27,32,13,138,,1.7,1.8,1.3*30
2017-12-29 11:10:46 1514563846.738792: $GPGSV,3,1,12,08,04,325,24,10,39,298,41,15,40,051,48,18,69,331,42*72
2017-12-29 11:10:46 1514563846.738963: $GPGSV,3,2,12,20,37,093,48,21,67,193,44,24,49,115,47,27,19,292,39*71
2017-12-29 11:10:46 1514563846.739030: $GPGSV,3,3,12,32,19,235,36,13,10,048,24,14,01,231,00,138,38,213,45*4F
2017-12-29 11:10:46 1514563846.850971: $GPZDA,161047.00,29,12,2017,00,00*6F
2017-12-29 11:10:46 1514563846.851150: $GPGGA,161047,3946.9573,N,08404.9856,W,1,11,1.00,303.86,M,-33.324,M,,*78
2017-12-29 11:10:46 1514563846.851218: $GPRMC,161047,A,3946.9573,N,08404.9856,W,0.0000,0.000,291217,,*3E
2017-12-29 11:10:46 1514563846.851277: $GPGSA,A,3,8,10,15,18,20,21,24,27,32,13,138,,1.7,1.0,1.3*38
2017-12-29 11:10:47 1514563847.477630: $GPZDA,161048.00,29,12,2017,00,00*60
2017-12-29 11:10:47 1514563847.477791: $GPGGA,161048,3946.9573,N,08404.9856,W,1,11,1.00,303.86,M,-33.324,M,,*77
2017-12-29 11:10:47 1514563847.477857: $GPRMC,161048,A,3946.9573,N,08404.9856,W,0.0000,0.000,291217,,*31
2017-12-29 11:10:47 1514563847.477917: $GPGSA,A,3,8,10,15,18,20,21,24,27,32,13,138,,1.7,1.0,1.3*38
2017-12-29 11:10:48 1514563848.402297: $GPZDA,161049.00,29,12,2017,00,00*61
2017-12-29 11:10:48 1514563848.402459: $GPGGA,161049,3946.9573,N,08404.9856,W,1,11,1.00,303.86,M,-33.324,M,,*76
2017-12-29 11:10:48 1514563848.402526: $GPRMC,161049,A,3946.9573,N,08404.9856,W,0.0000,0.000,291217,,*30
2017-12-29 11:10:48 1514563848.402586: $GPGSA,A,3,8,10,15,18,20,21,24,27,32,13,138,,1.7,1.0,1.3*38
2017-12-29 11:10:49 1514563849.739142: $GPGSV,3,1,12,08,04,325,24,10,39,298,41,15,40,051,48,18,69,331,42*72
2017-12-29 11:10:49 1514563849.739310: $GPGSV,3,2,12,20,37,093,48,21,67,193,45,24,49,115,46,27,19,292,40*7F
2017-12-29 11:10:49 1514563849.739376: $GPGSV,3,3,12,32,19,235,36,13,10,048,24,14,01,231,00,138,38,213,45*4F
2017-12-29 11:10:49 1514563849.852543: $GPZDA,161050.00,29,12,2017,00,00*69
2017-12-29 11:10:49 1514563849.852658: $GPGGA,161050,3946.9573,N,08404.9856,W,1,11,1.00,303.86,M,-33.324,M,,*7E
2017-12-29 11:10:49 1514563849.852721: $GPRMC,161050,A,3946.9573,N,08404.9856,W,0.3423,4.196,291217,,*34
2017-12-29 11:10:49 1514563849.852780: $GPGSA,A,3,8,10,15,18,20,21,24,27,32,13,138,,1.7,1.0,1.3*38
2017-12-29 11:10:50 1514563850.403542: $GPZDA,161051.00,29,12,2017,00,00*68
2017-12-29 11:10:50 1514563850.403692: $GPGGA,161051,3946.9573,N,08404.9856,W,1,11,1.00,303.86,M,-33.324,M,,*7F
2017-12-29 11:10:50 1514563850.403757: $GPRMC,161051,A,3946.9573,N,08404.9856,W,0.1567,9.200,291217,,*37
2017-12-29 11:10:50 1514563850.403817: $GPGSA,A,3,8,10,15,18,20,21,24,27,32,13,138,,1.7,1.0,1.3*38
2017-12-29 11:10:51 1514563851.401881: $GPZDA,161052.00,29,12,2017,00,00*6B
2017-12-29 11:10:51 1514563851.402098: $GPGGA,161052,3946.9569,N,08404.9856,W,1,11,1.00,303.22,M,-33.324,M,,*79
2017-12-29 11:10:51 1514563851.402165: $GPRMC,161052,A,3946.9569,N,08404.9856,W,0.1867,180.000,291217,,*30
2017-12-29 11:10:51 1514563851.402226: $GPGSA,A,3,8,10,15,18,20,21,24,27,32,13,138,,1.7,1.0,1.3*38
2017-12-29 11:10:52 1514563852.738253: $GPGSV,3,1,12,08,04,325,22,10,39,298,42,15,40,051,48,18,69,331,42*77
2017-12-29 11:10:52 1514563852.738418: $GPGSV,3,2,12,20,37,093,48,21,67,193,44,24,49,115,46,27,19,292,40*7E
2017-12-29 11:10:52 1514563852.738484: $GPGSV,3,3,12,32,19,235,36,13,10,048,23,14,01,231,00,138,38,213,46*4B
2017-12-29 11:10:52 1514563852.851697: $GPZDA,161053.00,29,12,2017,00,00*6A
2017-12-29 11:10:52 1514563852.851820: $GPGGA,161053,3946.9569,N,08404.9856,W,1,11,1.00,303.22,M,-33.324,M,,*78
2017-12-29 11:10:52 1514563852.851881: $GPRMC,161053,A,3946.9569,N,08404.9856,W,0.0000,0.000,291217,,*30
2017-12-29 11:10:52 1514563852.851940: $GPGSA,A,3,8,10,15,18,20,21,24,27,32,13,138,,1.7,1.0,1.3*38
2017-12-29 11:10:53 1514563853.402568: $GPZDA,161054.00,29,12,2017,00,00*6D
2017-12-29 11:10:53 1514563853.402731: $GPGGA,161054,3946.9569,N,08404.9856,W,1,11,1.00,303.22,M,-33.324,M,,*7F
2017-12-29 11:10:53 1514563853.402797: $GPRMC,161054,A,3946.9569,N,08404.9856,W,0.0000,0.000,291217,,*37
2017-12-29 11:10:53 1514563853.402857: $GPGSA,A,3,8,10,15,18,20,21,24,27,32,13,138,,1.7,1.0,1.3*38
2017-12-29 11:10:54 1514563854.403365: $GPZDA,161055.00,29,12,2017,00,00*6C
2017-12-29 11:10:54 1514563854.406868: $GPGGA,161055,3946.9569,N,08404.9856,W,1,11,1.00,303.22,M,-33.324,M,,*7E
2017-12-29 11:10:54 1514563854.406976: $GPRMC,161055,A,3946.9569,N,08404.9856,W,0.0000,0.000,291217,,*36
2017-12-29 11:10:54 1514563854.407038: $GPGSA,A,3,8,10,15,18,20,21,24,27,32,13,138,,1.7,1.0,1.3*38
2017-12-29 11:10:55 1514563855.739108: $GPGSV,3,1,12,08,04,325,24,10,39,298,42,15,40,051,48,18,69,331,42*71
2017-12-29 11:10:55 1514563855.739268: $GPGSV,3,2,12,20,37,093,48,21,67,193,45,24,49,115,46,27,19,292,41*7E
2017-12-29 11:10:55 1514563855.739334: $GPGSV,3,3,12,32,19,235,36,13,10,048,23,14,01,231,00,138,38,213,45*48
2017-12-29 11:10:55 1514563855.852702: $GPZDA,161056.00,29,12,2017,00,00*6F
2017-12-29 11:10:55 1514563855.852823: $GPGGA,161056,3946.9569,N,08404.9856,W,1,11,1.00,303.22,M,-33.324,M,,*7D
2017-12-29 11:10:55 1514563855.852887: $GPRMC,161056,A,3946.9569,N,08404.9856,W,0.0000,0.000,291217,,*35
2017-12-29 11:10:55 1514563855.852947: $GPGSA,A,3,8,10,15,18,20,21,24,27,32,13,138,,1.7,1.0,1.3*38
2017-12-29 11:10:56 1514563856.402386: $GPZDA,161057.00,29,12,2017,00,00*6E
2017-12-29 11:10:56 1514563856.402553: $GPGGA,161057,3946.9569,N,08404.9856,W,1,11,1.00,303.22,M,-33.324,M,,*7C
2017-12-29 11:10:56 1514563856.402619: $GPRMC,161057,A,3946.9569,N,08404.9856,W,0.0000,0.000,291217,,*34
2017-12-29 11:10:56 1514563856.402679: $GPGSA,A,3,8,10,15,18,20,21,24,27,32,13,138,,1.7,1.0,1.3*38
2017-12-29 11:10:57 1514563857.402722: $GPZDA,161058.00,29,12,2017,00,00*61
2017-12-29 11:10:57 1514563857.402887: $GPGGA,161058,3946.9565,N,08404.9857,W,1,11,1.00,303.99,M,-33.324,M,,*7E
2017-12-29 11:10:57 1514563857.402953: $GPRMC,161058,A,3946.9565,N,08404.9857,W,0.0000,0.000,291217,,*36
2017-12-29 11:10:57 1514563857.403013: $GPGSA,A,3,8,10,15,18,20,21,24,27,32,13,138,,1.7,1.0,1.3*38
2017-12-29 11:10:58 1514563858.738223: $GPGSV,3,1,12,08,04,325,24,10,39,298,43,15,40,051,48,18,69,331,42*70
2017-12-29 11:10:58 1514563858.738377: $GPGSV,3,2,12,20,37,093,48,21,67,193,45,24,49,115,47,27,19,292,41*7F
2017-12-29 11:10:58 1514563858.738459: $GPGSV,3,3,12,32,19,235,36,13,10,048,24,14,01,231,00,138,38,213,44*4E
2017-12-29 11:10:58 1514563858.851696: $GPZDA,161059.00,29,12,2017,00,00*60
2017-12-29 11:10:58 1514563858.851824: $GPGGA,161059,3946.9565,N,08404.9857,W,1,11,1.00,303.99,M,-33.324,M,,*7F
2017-12-29 11:10:58 1514563858.851888: $GPRMC,161059,A,3946.9565,N,08404.9857,W,0.0000,0.000,291217,,*37
2017-12-29 11:10:58 1514563858.851948: $GPGSA,A,3,8,10,15,18,20,21,24,27,32,13,138,,1.7,1.0,1.3*38
2017-12-29 11:10:59 1514563859.402535: $GPZDA,161100.00,29,12,2017,00,00*6D
2017-12-29 11:10:59 1514563859.405998: $GPGGA,161100,3946.9565,N,08404.9857,W,1,11,1.00,303.99,M,-33.324,M,,*72
2017-12-29 11:10:59 1514563859.406102: $GPRMC,161100,A,3946.9565,N,08404.9857,W,0.0000,0.000,291217,,*3A
2017-12-29 11:10:59 1514563859.406164: $GPGSA,A,3,8,10,15,18,20,21,24,27,32,13,138,,1.7,1.0,1.3*38
2017-12-29 11:11:00 1514563860.418417: $GPZDA,161101.00,29,12,2017,00,00*6C
2017-12-29 11:11:00 1514563860.418579: $GPGGA,161101,3946.9565,N,08404.9850,W,1,11,1.00,304.07,M,-33.324,M,,*74
2017-12-29 11:11:00 1514563860.418645: $GPRMC,161101,A,3946.9565,N,08404.9850,W,0.0000,0.000,291217,,*3C
2017-12-29 11:11:00 1514563860.418705: $GPGSA,A,3,8,10,15,18,20,21,24,27,32,13,138,,1.7,1.0,1.3*38
2017-12-29 11:11:01 1514563861.740335: $GPGSV,3,1,12,08,04,325,25,10,39,298,43,15,40,051,48,18,69,331,42*71
2017-12-29 11:11:01 1514563861.740503: $GPGSV,3,2,12,20,37,093,48,21,67,193,45,24,49,115,47,27,19,292,41*7F
2017-12-29 11:11:01 1514563861.740570: $GPGSV,3,3,12,32,19,235,36,13,10,048,23,14,01,231,00,138,38,213,45*48
2017-12-29 11:11:01 1514563861.853926: $GPZDA,161102.00,29,12,2017,00,00*6F
2017-12-29 11:11:01 1514563861.854032: $GPGGA,161102,3946.9565,N,08404.9850,W,1,11,1.00,304.07,M,-33.324,M,,*77
2017-12-29 11:11:01 1514563861.854095: $GPRMC,161102,A,3946.9565,N,08404.9850,W,0.0000,0.000,291217,,*3F
2017-12-29 11:11:01 1514563861.854154: $GPGSA,A,3,8,10,15,18,20,21,24,27,32,13,138,,1.7,1.0,1.3*38
2017-12-29 11:11:02 1514563862.479333: $GPZDA,161103.00,29,12,2017,00,00*6E
2017-12-29 11:11:02 1514563862.479497: $GPGGA,161103,3946.9561,N,08404.9850,W,1,11,1.00,303.43,M,-33.324,M,,*75
2017-12-29 11:11:02 1514563862.479563: $GPRMC,161103,A,3946.9561,N,08404.9850,W,0.4207,219.346,291217,,*30
2017-12-29 11:11:02 1514563862.479624: $GPGSA,A,3,8,10,15,18,20,21,24,27,32,13,138,,1.7,1.0,1.3*38
2017-12-29 11:11:03 1514563863.412956: $GPZDA,161104.00,29,12,2017,00,00*69
2017-12-29 11:11:03 1514563863.413107: $GPGGA,161104,3946.9561,N,08404.9850,W,1,11,1.00,303.43,M,-33.324,M,,*72
2017-12-29 11:11:03 1514563863.413172: $GPRMC,161104,A,3946.9561,N,08404.9850,W,0.4179,148.778,291217,,*33
2017-12-29 11:11:03 1514563863.413232: $GPGSA,A,3,8,10,15,18,20,21,24,27,32,13,138,,1.7,1.0,1.3*38
2017-12-29 11:11:04 1514563864.754464: $GPGSV,3,1,12,08,04,325,31,10,39,298,44,15,40,051,48,18,69,331,42*73
2017-12-29 11:11:04 1514563864.754647: $GPGSV,3,2,12,20,37,093,48,21,67,193,45,24,49,115,47,27,19,292,41*7F
2017-12-29 11:11:04 1514563864.754714: $GPGSV,3,3,12,32,19,235,36,13,10,048,24,14,01,231,00,138,38,213,44*4E
2017-12-29 11:11:04 1514563864.868039: $GPZDA,161105.00,29,12,2017,00,00*68
2017-12-29 11:11:04 1514563864.868157: $GPGGA,161105,3946.9561,N,08404.9850,W,1,11,1.00,303.43,M,-33.324,M,,*73
2017-12-29 11:11:04 1514563864.868221: $GPRMC,161105,A,3946.9561,N,08404.9850,W,0.0000,0.000,291217,,*3C
2017-12-29 11:11:04 1514563864.868280: $GPGSA,A,3,8,10,15,18,20,21,24,27,32,13,138,,1.7,1.0,1.3*38
2017-12-29 11:11:05 1514563865.420181: $GPZDA,161106.00,29,12,2017,00,00*6B
2017-12-29 11:11:05 1514563865.420352: $GPGGA,161106,3946.9561,N,08404.9850,W,1,11,1.00,303.43,M,-33.324,M,,*70
2017-12-29 11:11:05 1514563865.420418: $GPRMC,161106,A,3946.9561,N,08404.9850,W,0.0000,0.000,291217,,*3F
2017-12-29 11:11:05 1514563865.420478: $GPGSA,A,3,8,10,15,18,20,21,24,27,32,13,138,,1.7,1.0,1.3*38
2017-12-29 11:11:06 1514563866.403564: $GPZDA,161107.00,29,12,2017,00,00*6A
2017-12-29 11:11:06 1514563866.403731: $GPGGA,161107,3946.9557,N,08404.9851,W,1,11,1.00,304.19,M,-33.324,M,,*7D
2017-12-29 11:11:06 1514563866.403796: $GPRMC,161107,A,3946.9557,N,08404.9851,W,0.0000,0.000,291217,,*3A
2017-12-29 11:11:06 1514563866.403857: $GPGSA,A,3,8,10,15,18,20,21,24,27,32,13,138,,1.7,1.0,1.3*38
2017-12-29 11:11:07 1514563867.754802: $GPGSV,3,1,12,08,04,325,31,10,39,298,44,15,40,051,49,18,69,331,43*73
2017-12-29 11:11:07 1514563867.754965: $GPGSV,3,2,12,20,37,093,48,21,67,193,45,24,49,115,47,27,19,292,40*7E
2017-12-29 11:11:07 1514563867.755031: $GPGSV,3,3,12,32,19,235,36,13,10,048,23,14,01,231,00,138,38,213,44*49
2017-12-29 11:11:07 1514563867.868547: $GPZDA,161108.00,29,12,2017,00,00*65
2017-12-29 11:11:07 1514563867.868670: $GPGGA,161108,3946.9557,N,08404.9844,W,1,11,1.00,304.27,M,-33.324,M,,*7B
2017-12-29 11:11:07 1514563867.868733: $GPRMC,161108,A,3946.9557,N,08404.9844,W,0.0000,0.000,291217,,*31
2017-12-29 11:11:07 1514563867.868793: $GPGSA,A,3,8,10,15,18,20,21,24,27,32,13,138,,1.7,1.0,1.3*38
2017-12-29 11:11:08 1514563868.403122: $GPZDA,161109.00,29,12,2017,00,00*64
2017-12-29 11:11:08 1514563868.403291: $GPGGA,161109,3946.9557,N,08404.9844,W,1,11,1.00,304.27,M,-33.324,M,,*7A
2017-12-29 11:11:08 1514563868.403356: $GPRMC,161109,A,3946.9557,N,08404.9844,W,0.0000,0.000,291217,,*30
2017-12-29 11:11:08 1514563868.403416: $GPGSA,A,3,8,10,15,18,20,21,24,27,32,13,138,,1.7,1.0,1.3*38
