2017-11-15 18:28:41 1510788521.087096: {"class":"VERSION","release":"3.17","rev":"3.17","proto_major":3,"proto_minor":12}
2017-11-15 18:28:41 1510788521.087615: {"class":"DEVICES","devices":[{"class":"DEVICE","path":"/dev/ttyUSB0","driver":"SiRF","subtype":"9\u0006GSD4e_4.1.2-P1_RPATCH.05-F-GPS-4R-1510281 11/03/2015 307","activated":"2017-11-15T23:28:40.673Z","flags":1,"native":1,"bps":4800,"parity":"N","stopbits":1,"cycle":1.00}]}
2017-11-15 18:28:41 1510788521.087733: {"class":"WATCH","enable":true,"json":false,"nmea":true,"raw":0,"scaled":false,"timing":false,"split24":false,"pps":false}
2017-11-15 18:28:41 1510788521.327892: $GPZDA,232840.00,15,11,2017,00,00*69
2017-11-15 18:28:41 1510788521.328069: $GPGGA,232840,3946.9602,N,08404.9573,W,1,07,1.20,292.80,M,-33.324,M,,*77
2017-11-15 18:28:41 1510788521.328134: $GPRMC,232840,A,3946.9602,N,08404.9573,W,0.4207,219.347,151117,,*3C
2017-11-15 18:28:41 1510788521.328192: $GPGSA,A,3,10,14,25,26,31,32,22,,,,,,3.4,1.2,2.9*39
2017-11-15 18:28:42 1510788522.696021: $GPGSV,3,1,11,10,24,156,13,14,69,034,22,25,36,058,15,26,23,178,16*76
2017-11-15 18:28:42 1510788522.696191: $GPGSV,3,2,11,31,77,270,25,32,57,076,18,01,19,276,00,22,38,304,12*76
2017-11-15 18:28:42 1510788522.696251: $GPGSV,3,3,11,03,19,316,00,12,08,033,00,120,07,103,00*7B
2017-11-15 18:28:42 1510788522.809668: $GPZDA,232841.00,15,11,2017,00,00*68
2017-11-15 18:28:42 1510788522.809827: $GPGGA,232841,3946.9602,N,08404.9573,W,1,07,1.20,292.80,M,-33.324,M,,*76
2017-11-15 18:28:42 1510788522.809888: $GPRMC,232841,A,3946.9602,N,08404.9573,W,0.5287,182.716,151117,,*35
2017-11-15 18:28:42 1510788522.809944: $GPGSA,A,3,10,14,25,26,31,32,22,,,,,,3.4,1.2,2.9*39
2017-11-15 18:28:43 1510788523.358966: $GPZDA,232842.00,15,11,2017,00,00*6B
2017-11-15 18:28:43 1510788523.359130: $GPGGA,232842,3946.9602,N,08404.9573,W,1,07,1.20,292.80,M,-33.324,M,,*75
2017-11-15 18:28:43 1510788523.359191: $GPRMC,232842,A,3946.9602,N,08404.9573,W,0.2422,93.794,151117,,*03
2017-11-15 18:28:43 1510788523.359248: $GPGSA,A,3,10,14,25,26,31,32,22,,,,,,3.4,1.2,2.9*39
2017-11-15 18:28:44 1510788524.360045: $GPZDA,232843.00,15,11,2017,00,00*6A
2017-11-15 18:28:44 1510788524.360210: $GPGGA,232843,3946.9605,N,08404.9572,W,1,07,1.20,292.04,M,-33.324,M,,*7E
2017-11-15 18:28:44 1510788524.360271: $GPRMC,232843,A,3946.9605,N,08404.9572,W,0.4207,39.347,151117,,*09
2017-11-15 18:28:44 1510788524.360327: $GPGSA,A,3,10,14,25,26,31,32,22,,,,,,3.4,1.2,2.9*39
2017-11-15 18:28:45 1510788525.694282: $GPGSV,3,1,11,10,24,156,12,14,69,034,22,25,36,058,15,26,23,178,16*77
2017-11-15 18:28:45 1510788525.694460: $GPGSV,3,2,11,31,77,270,25,32,57,076,18,01,19,276,08,22,38,304,10*7C
2017-11-15 18:28:45 1510788525.694520: $GPGSV,3,3,11,03,19,316,00,12,08,033,00,120,07,103,00*7B
2017-11-15 18:28:45 1510788525.807764: $GPZDA,232844.00,15,11,2017,00,00*6D
2017-11-15 18:28:45 1510788525.807922: $GPGGA,232844,3946.9605,N,08404.9572,W,1,07,1.20,292.04,M,-33.324,M,,*79
2017-11-15 18:28:45 1510788525.807984: $GPRMC,232844,A,3946.9605,N,08404.9572,W,0.3423,4.197,151117,,*38
2017-11-15 18:28:45 1510788525.808040: $GPGSA,A,3,10,14,25,26,31,32,22,,,,,,3.4,1.2,2.9*39
2017-11-15 18:28:46 1510788526.432990: $GPZDA,232845.00,15,11,2017,00,00*6C
2017-11-15 18:28:46 1510788526.433160: $GPGGA,232845,3946.9605,N,08404.9579,W,1,07,1.20,291.96,M,-33.324,M,,*7B
2017-11-15 18:28:46 1510788526.433224: $GPRMC,232845,A,3946.9605,N,08404.9579,W,0.4179,328.778,151117,,*35
2017-11-15 18:28:46 1510788526.433281: $GPGSA,A,3,10,14,25,26,31,32,22,,,,,,3.4,1.2,2.9*39
2017-11-15 18:28:47 1510788527.359158: $GPZDA,232846.00,15,11,2017,00,00*6F
2017-11-15 18:28:47 1510788527.359323: $GPGGA,232846,3946.9605,N,08404.9579,W,1,07,1.20,291.96,M,-33.324,M,,*78
2017-11-15 18:28:47 1510788527.359386: $GPRMC,232846,A,3946.9605,N,08404.9579,W,0.5951,238.684,151117,,*37
2017-11-15 18:28:47 1510788527.359444: $GPGSA,A,3,10,14,25,26,31,32,22,,,,,,3.4,1.2,2.9*39
2017-11-15 18:28:48 1510788528.663397: $GPGSV,3,1,11,10,24,156,12,14,69,034,22,25,36,058,14,26,23,178,17*77
2017-11-15 18:28:48 1510788528.663575: $GPGSV,3,2,11,31,77,270,25,32,57,076,18,01,19,276,00,22,38,304,10*74
2017-11-15 18:28:48 1510788528.663686: $GPGSV,3,3,11,03,19,316,15,12,08,033,00,120,07,103,00*7F
2017-11-15 18:28:48 1510788528.777112: $GPZDA,232847.00,15,11,2017,00,00*6E
2017-11-15 18:28:48 1510788528.777278: $GPGGA,232847,3946.9605,N,08404.9579,W,1,07,1.20,291.96,M,-33.324,M,,*79
2017-11-15 18:28:48 1510788528.777341: $GPRMC,232847,A,3946.9605,N,08404.9579,W,0.7278,203.636,151117,,*35
2017-11-15 18:28:48 1510788528.777399: $GPGSA,A,3,10,14,25,26,31,32,22,,,,,,3.4,1.2,2.9*39
2017-11-15 18:28:49 1510788529.327793: $GPZDA,232848.00,15,11,2017,00,00*61
2017-11-15 18:28:49 1510788529.327955: $GPGGA,232848,3946.9601,N,08404.9579,W,1,07,1.20,291.32,M,-33.324,M,,*7C
2017-11-15 18:28:49 1510788529.328015: $GPRMC,232848,A,3946.9601,N,08404.9579,W,0.5857,158.291,151117,,*3F
2017-11-15 18:28:49 1510788529.328072: $GPGSA,A,3,10,14,25,26,31,32,22,,,,,,3.4,1.2,2.9*39
2017-11-15 18:28:50 1510788530.327578: $GPZDA,232849.00,15,11,2017,00,00*60
2017-11-15 18:28:50 1510788530.327761: $GPGGA,232849,3946.9602,N,08404.9586,W,1,07,1.20,291.24,M,-33.324,M,,*79
2017-11-15 18:28:50 1510788530.329029: $GPRMC,232849,A,3946.9602,N,08404.9586,W,0.0000,0.000,151117,,*34
2017-11-15 18:28:50 1510788530.329101: $GPGSA,A,3,10,14,25,26,31,32,22,,,,,,3.4,1.2,2.9*39
