2017-12-01 16:15:56 1512162956.277127: {"class":"VERSION","release":"3.16","rev":"3.16-4","proto_major":3,"proto_minor":11}
2017-12-01 16:15:56 1512162956.277646: {"class":"DEVICES","devices":[{"class":"DEVICE","path":"/dev/ttyUSB0","driver":"SiRF","subtype":"9\u0006GSD4e_4.1.2-P1_RPATCH.05-F-GPS-4R-1510281 11/03/2015 307","activated":"2017-12-01T21:15:56.245Z","flags":1,"native":1,"bps":4800,"parity":"N","stopbits":1,"cycle":1.00}]}
2017-12-01 16:15:56 1512162956.277781: {"class":"WATCH","enable":true,"json":false,"nmea":true,"raw":0,"scaled":false,"timing":false,"split24":false,"pps":false}
2017-12-01 16:15:56 1512162956.358506: $GPZDA,211557.00,01,12,2017,00,00*65
2017-12-01 16:15:56 1512162956.358668: $GPGGA,211557,3946.9587,N,08404.9850,W,2,11,0.80,294.43,M,-33.324,M,,*79
2017-12-01 16:15:56 1512162956.358734: $GPRMC,211557,A,3946.9587,N,08404.9850,W,0.0000,0.000,011217,,*39
2017-12-01 16:15:56 1512162956.358795: $GPGSA,A,3,10,12,14,18,25,31,32,1,11,22,138,,2.0,0.8,1.5*3D
2017-12-01 16:15:57 1512162957.693499: $GPGSV,3,1,12,10,55,144,47,12,24,057,45,14,63,313,45,18,24,141,45*77
2017-12-01 16:15:57 1512162957.693681: $GPGSV,3,2,12,25,37,099,46,31,49,220,49,32,70,009,46,01,20,307,35*74
2017-12-01 16:15:57 1512162957.693747: $GPGSV,3,3,12,11,10,288,25,22,13,312,36,24,03,048,00,138,38,213,46*43
2017-12-01 16:15:57 1512162957.807183: $GPZDA,211558.00,01,12,2017,00,00*6A
2017-12-01 16:15:57 1512162957.807342: $GPGGA,211558,3946.9587,N,08404.9850,W,2,11,0.80,294.43,M,-33.324,M,,*76
2017-12-01 16:15:57 1512162957.807407: $GPRMC,211558,A,3946.9587,N,08404.9850,W,0.0000,0.000,011217,,*36
2017-12-01 16:15:57 1512162957.807467: $GPGSA,A,3,10,12,14,18,25,31,32,1,11,22,138,,2.0,0.8,1.5*3D
2017-12-01 16:15:58 1512162958.358063: $GPZDA,211559.00,01,12,2017,00,00*6B
2017-12-01 16:15:58 1512162958.358221: $GPGGA,211559,3946.9587,N,08404.9850,W,2,11,0.80,294.43,M,-33.324,M,,*77
2017-12-01 16:15:58 1512162958.358286: $GPRMC,211559,A,3946.9587,N,08404.9850,W,0.0000,0.000,011217,,*37
2017-12-01 16:15:58 1512162958.358348: $GPGSA,A,3,10,12,14,18,25,31,32,1,11,22,138,,2.0,0.8,1.5*3D
2017-12-01 16:15:59 1512162959.357787: $GPZDA,211600.00,01,12,2017,00,00*64
2017-12-01 16:15:59 1512162959.357982: $GPGGA,211600,3946.9587,N,08404.9850,W,2,11,0.80,294.43,M,-33.324,M,,*78
2017-12-01 16:15:59 1512162959.358068: $GPRMC,211600,A,3946.9587,N,08404.9850,W,0.0000,0.000,011217,,*38
2017-12-01 16:15:59 1512162959.358131: $GPGSA,A,3,10,12,14,18,25,31,32,1,11,22,138,,2.0,0.8,1.5*3D
2017-12-01 16:16:00 1512162960.710724: $GPGSV,3,1,12,10,55,144,47,12,24,057,45,14,63,313,45,18,24,141,45*77
2017-12-01 16:16:00 1512162960.710925: $GPGSV,3,2,12,25,37,099,46,31,49,220,49,32,70,009,46,01,20,307,35*74
2017-12-01 16:16:00 1512162960.710993: $GPGSV,3,3,12,11,10,288,25,22,13,312,36,24,03,048,00,138,38,213,45*40
2017-12-01 16:16:00 1512162960.824196: $GPZDA,211601.00,01,12,2017,00,00*65
2017-12-01 16:16:00 1512162960.824369: $GPGGA,211601,3946.9587,N,08404.9850,W,2,11,0.80,294.43,M,-33.324,M,,*79
2017-12-01 16:16:00 1512162960.824459: $GPRMC,211601,A,3946.9587,N,08404.9850,W,0.0000,0.000,011217,,*39
2017-12-01 16:16:00 1512162960.824523: $GPGSA,A,3,10,12,14,18,25,31,32,1,11,22,138,,2.0,0.8,1.5*3D
2017-12-01 16:16:01 1512162961.376411: $GPZDA,211602.00,01,12,2017,00,00*66
2017-12-01 16:16:01 1512162961.376576: $GPGGA,211602,3946.9587,N,08404.9850,W,2,11,0.80,294.43,M,-33.324,M,,*7A
2017-12-01 16:16:01 1512162961.376644: $GPRMC,211602,A,3946.9587,N,08404.9850,W,0.0000,0.000,011217,,*3A
2017-12-01 16:16:01 1512162961.376705: $GPGSA,A,3,10,12,14,18,25,31,32,1,11,22,138,,2.0,0.8,1.5*3D
2017-12-01 16:16:02 1512162962.374043: $GPZDA,211603.00,01,12,2017,00,00*67
2017-12-01 16:16:02 1512162962.374211: $GPGGA,211603,3946.9587,N,08404.9850,W,2,11,0.80,294.43,M,-33.324,M,,*7B
2017-12-01 16:16:02 1512162962.374277: $GPRMC,211603,A,3946.9587,N,08404.9850,W,0.0000,0.000,011217,,*3B
2017-12-01 16:16:02 1512162962.374338: $GPGSA,A,3,10,12,14,18,25,31,32,1,11,22,138,,2.0,0.8,1.5*3D
2017-12-01 16:16:03 1512162963.711099: $GPGSV,3,1,12,10,55,144,48,12,24,057,45,14,63,313,45,18,24,141,45*78
2017-12-01 16:16:03 1512162963.711331: $GPGSV,3,2,12,25,37,099,45,31,49,220,49,32,70,009,46,01,20,307,35*77
2017-12-01 16:16:03 1512162963.711452: $GPGSV,3,3,12,11,10,288,24,22,13,312,36,24,03,048,00,138,38,213,46*42
2017-12-01 16:16:03 1512162963.824445: $GPZDA,211604.00,01,12,2017,00,00*60
2017-12-01 16:16:03 1512162963.824601: $GPGGA,211604,3946.9592,N,08404.9850,W,2,11,0.80,295.07,M,-33.324,M,,*79
2017-12-01 16:16:03 1512162963.824669: $GPRMC,211604,A,3946.9592,N,08404.9850,W,0.0000,0.000,011217,,*38
2017-12-01 16:16:03 1512162963.824730: $GPGSA,A,3,10,12,14,18,25,31,32,1,11,22,138,,2.0,0.8,1.5*3D
2017-12-01 16:16:04 1512162964.374225: $GPZDA,211605.00,01,12,2017,00,00*61
2017-12-01 16:16:04 1512162964.374399: $GPGGA,211605,3946.9592,N,08404.9850,W,2,11,0.80,295.07,M,-33.324,M,,*78
2017-12-01 16:16:04 1512162964.374466: $GPRMC,211605,A,3946.9592,N,08404.9850,W,0.0000,0.000,011217,,*39
2017-12-01 16:16:04 1512162964.374527: $GPGSA,A,3,10,12,14,18,25,31,32,1,11,22,138,,2.0,0.8,1.5*3D
2017-12-01 16:16:05 1512162965.357509: $GPZDA,211606.00,01,12,2017,00,00*62
2017-12-01 16:16:05 1512162965.357746: $GPGGA,211606,3946.9592,N,08404.9850,W,2,11,0.80,295.07,M,-33.324,M,,*7B
2017-12-01 16:16:05 1512162965.357819: $GPRMC,211606,A,3946.9592,N,08404.9850,W,0.0000,0.000,011217,,*3A
2017-12-01 16:16:05 1512162965.357902: $GPGSA,A,3,10,12,14,18,25,31,32,1,11,22,138,,2.0,0.8,1.5*3D
2017-12-01 16:16:06 1512162966.691860: $GPGSV,3,1,12,10,55,144,47,12,24,057,46,14,63,313,45,18,24,141,45*74
2017-12-01 16:16:06 1512162966.692059: $GPGSV,3,2,12,25,37,099,45,31,49,220,49,32,70,009,46,01,20,307,34*76
2017-12-01 16:16:06 1512162966.692126: $GPGSV,3,3,12,11,10,288,26,22,13,312,36,24,03,048,00,138,38,213,45*43
2017-12-01 16:16:06 1512162966.805371: $GPZDA,211607.00,01,12,2017,00,00*63
2017-12-01 16:16:06 1512162966.805718: $GPGGA,211607,3946.9592,N,08404.9850,W,2,11,0.80,295.07,M,-33.324,M,,*7A
2017-12-01 16:16:06 1512162966.805792: $GPRMC,211607,A,3946.9592,N,08404.9850,W,0.0000,0.000,011217,,*3B
2017-12-01 16:16:06 1512162966.806103: $GPGSA,A,3,10,12,14,18,25,31,32,1,11,22,138,,2.0,0.8,1.5*3D
2017-12-01 16:16:07 1512162967.430787: $GPZDA,211608.00,01,12,2017,00,00*6C
2017-12-01 16:16:07 1512162967.430965: $GPGGA,211608,3946.9588,N,08404.9850,W,2,11,0.80,295.83,M,-33.324,M,,*72
2017-12-01 16:16:07 1512162967.431036: $GPRMC,211608,A,3946.9588,N,08404.9850,W,0.0000,0.000,011217,,*3F
2017-12-01 16:16:07 1512162967.431097: $GPGSA,A,3,10,12,14,18,25,31,32,1,11,22,138,,2.0,0.8,1.5*3D
2017-12-01 16:16:08 1512162968.372784: $GPZDA,211609.00,01,12,2017,00,00*6D
2017-12-01 16:16:08 1512162968.372966: $GPGGA,211609,3946.9588,N,08404.9850,W,2,11,0.80,295.83,M,-33.324,M,,*73
2017-12-01 16:16:08 1512162968.373036: $GPRMC,211609,A,3946.9588,N,08404.9850,W,0.0000,0.000,011217,,*3E
2017-12-01 16:16:08 1512162968.373098: $GPGSA,A,3,10,12,14,18,25,31,32,1,11,22,138,,2.0,0.8,1.5*3D
2017-12-01 16:16:09 1512162969.693508: $GPGSV,3,1,12,10,55,144,47,12,24,057,46,14,63,313,45,18,24,141,45*74
2017-12-01 16:16:09 1512162969.693713: $GPGSV,3,2,12,25,37,099,46,31,49,220,49,32,70,009,46,01,20,307,33*72
2017-12-01 16:16:09 1512162969.693785: $GPGSV,3,3,12,11,10,288,26,22,13,312,36,24,03,048,00,138,38,213,46*40
2017-12-01 16:16:09 1512162969.806884: $GPZDA,211610.00,01,12,2017,00,00*65
2017-12-01 16:16:09 1512162969.807044: $GPGGA,211610,3946.9588,N,08404.9850,W,2,11,0.80,295.83,M,-33.324,M,,*7B
2017-12-01 16:16:09 1512162969.807111: $GPRMC,211610,A,3946.9588,N,08404.9850,W,0.0000,0.000,011217,,*36
2017-12-01 16:16:09 1512162969.807172: $GPGSA,A,3,10,12,14,18,25,31,32,1,11,22,138,,2.0,0.8,1.5*3D
2017-12-01 16:16:10 1512162970.374067: $GPZDA,211611.00,01,12,2017,00,00*64
2017-12-01 16:16:10 1512162970.374230: $GPGGA,211611,3946.9588,N,08404.9850,W,2,11,0.80,295.83,M,-33.324,M,,*7A
2017-12-01 16:16:10 1512162970.374297: $GPRMC,211611,A,3946.9588,N,08404.9850,W,0.0000,0.000,011217,,*37
2017-12-01 16:16:10 1512162970.374359: $GPGSA,A,3,10,12,14,18,25,31,32,1,11,22,138,,2.0,0.8,1.5*3D
2017-12-01 16:16:11 1512162971.373686: $GPZDA,211612.00,01,12,2017,00,00*67
2017-12-01 16:16:11 1512162971.373902: $GPGGA,211612,3946.9588,N,08404.9850,W,2,11,0.80,295.83,M,-33.324,M,,*79
2017-12-01 16:16:11 1512162971.373971: $GPRMC,211612,A,3946.9588,N,08404.9850,W,0.0000,0.000,011217,,*34
2017-12-01 16:16:11 1512162971.374035: $GPGSA,A,3,10,12,14,18,25,31,32,1,11,22,138,,2.0,0.8,1.5*3D
2017-12-01 16:16:12 1512162972.705195: $GPGSV,3,1,12,10,55,144,47,12,24,057,46,14,63,313,45,18,24,141,45*74
2017-12-01 16:16:12 1512162972.705380: $GPGSV,3,2,12,25,37,099,46,31,49,220,50,32,70,009,46,01,20,307,24*7C
2017-12-01 16:16:12 1512162972.705447: $GPGSV,3,3,12,11,10,288,33,22,13,312,37,24,03,048,00,138,38,213,46*45
2017-12-01 16:16:12 1512162972.818580: $GPZDA,211613.00,01,12,2017,00,00*66
2017-12-01 16:16:12 1512162972.818749: $GPGGA,211613,3946.9588,N,08404.9850,W,2,11,0.80,295.83,M,-33.324,M,,*78
2017-12-01 16:16:12 1512162972.818814: $GPRMC,211613,A,3946.9588,N,08404.9850,W,0.0000,0.000,011217,,*35
2017-12-01 16:16:12 1512162972.818880: $GPGSA,A,3,10,12,14,18,25,31,32,1,11,22,138,,2.0,0.8,1.5*3D
2017-12-01 16:16:13 1512162973.358413: $GPZDA,211614.00,01,12,2017,00,00*61
2017-12-01 16:16:13 1512162973.358584: $GPGGA,211614,3946.9588,N,08404.9850,W,2,11,0.80,295.83,M,-33.324,M,,*7F
2017-12-01 16:16:13 1512162973.358652: $GPRMC,211614,A,3946.9588,N,08404.9850,W,0.0000,0.000,011217,,*32
2017-12-01 16:16:13 1512162973.358714: $GPGSA,A,3,10,12,14,18,25,31,32,1,11,22,138,,2.0,0.8,1.5*3D
2017-12-01 16:16:14 1512162974.374406: $GPZDA,211615.00,01,12,2017,00,00*60
2017-12-01 16:16:14 1512162974.374578: $GPGGA,211615,3946.9588,N,08404.9843,W,2,11,0.80,295.91,M,-33.324,M,,*7F
2017-12-01 16:16:14 1512162974.374645: $GPRMC,211615,A,3946.9588,N,08404.9843,W,0.0000,0.000,011217,,*31
2017-12-01 16:16:14 1512162974.374707: $GPGSA,A,3,10,12,14,18,25,31,32,1,11,22,138,,2.0,0.8,1.5*3D
2017-12-01 16:16:15 1512162975.709910: $GPGSV,3,1,12,10,55,144,47,12,24,057,45,14,63,313,45,18,24,141,45*77
2017-12-01 16:16:15 1512162975.710096: $GPGSV,3,2,12,25,37,099,46,31,49,220,50,32,70,009,46,01,20,307,26*7E
2017-12-01 16:16:15 1512162975.710162: $GPGSV,3,3,12,11,10,288,32,22,13,312,36,24,03,048,00,138,38,213,45*46
2017-12-01 16:16:15 1512162975.823619: $GPZDA,211616.00,01,12,2017,00,00*63
2017-12-01 16:16:15 1512162975.823790: $GPGGA,211616,3946.9588,N,08404.9843,W,2,11,0.80,295.91,M,-33.324,M,,*7C
2017-12-01 16:16:15 1512162975.823859: $GPRMC,211616,A,3946.9588,N,08404.9843,W,0.0000,0.000,011217,,*32
2017-12-01 16:16:15 1512162975.823923: $GPGSA,A,3,10,12,14,18,25,31,32,1,11,22,138,,2.0,0.8,1.5*3D
