2017-12-14 12:17:42 1513271862.245384: {"class":"VERSION","release":"3.16","rev":"3.16-4","proto_major":3,"proto_minor":11}
2017-12-14 12:17:42 1513271862.245899: {"class":"DEVICES","devices":[{"class":"DEVICE","path":"/dev/ttyUSB0","driver":"SiRF","subtype":"9\u0006GSD4e_4.1.2-P1_RPATCH.05-F-GPS-4R-1510281 11/03/2015 307","activated":"2017-12-14T17:17:42.223Z","flags":1,"native":1,"bps":4800,"parity":"N","stopbits":1,"cycle":1.00}]}
2017-12-14 12:17:42 1513271862.246028: {"class":"WATCH","enable":true,"json":false,"nmea":true,"raw":0,"scaled":false,"timing":false,"split24":false,"pps":false}
2017-12-14 12:17:43 1513271863.223405: $GPZDA,171744.00,14,12,2017,00,00*64
2017-12-14 12:17:43 1513271863.223573: $GPGGA,171744,3946.9637,N,08404.9288,W,1,06,1.80,367.82,M,-33.324,M,,*7F
2017-12-14 12:17:43 1513271863.223638: $GPRMC,171744,A,3946.9637,N,08404.9288,W,1.9998,31.400,141217,,*09
2017-12-14 12:17:43 1513271863.223700: $GPGSA,A,3,21,15,18,20,24,32,,,,,,,6.6,1.8,6.2*34
2017-12-14 12:17:44 1513271864.559501: $GPGSV,3,1,12,21,63,187,29,15,37,052,20,18,71,337,22,20,34,096,19*74
2017-12-14 12:17:44 1513271864.559680: $GPGSV,3,2,12,24,50,111,24,10,41,301,00,27,19,289,00,32,21,238,16*7B
2017-12-14 12:17:44 1513271864.559745: $GPGSV,3,3,12,13,08,048,00,08,05,322,00,14,03,232,00,138,38,213,00*46
2017-12-14 12:17:44 1513271864.672976: $GPZDA,171745.00,14,12,2017,00,00*65
2017-12-14 12:17:44 1513271864.673135: $GPGGA,171745,3946.9644,N,08404.9286,W,1,06,1.80,366.29,M,-33.324,M,,*74
2017-12-14 12:17:44 1513271864.673201: $GPRMC,171745,A,3946.9644,N,08404.9286,W,2.2030,22.705,141217,,*05
2017-12-14 12:17:44 1513271864.673261: $GPGSA,A,3,21,15,18,20,24,32,,,,,,,6.6,1.8,6.2*34
2017-12-14 12:17:45 1513271865.224279: $GPZDA,171746.00,14,12,2017,00,00*66
2017-12-14 12:17:45 1513271865.224444: $GPGGA,171746,3946.9647,N,08404.9286,W,1,06,1.80,365.52,M,-33.324,M,,*7B
2017-12-14 12:17:45 1513271865.224509: $GPRMC,171746,A,3946.9647,N,08404.9286,W,1.9131,11.058,141217,,*02
2017-12-14 12:17:45 1513271865.224570: $GPGSA,A,3,21,15,18,20,24,32,,,,,,,6.6,1.8,6.2*34
2017-12-14 12:17:46 1513271866.223183: $GPZDA,171747.00,14,12,2017,00,00*67
2017-12-14 12:17:46 1513271866.223351: $GPGGA,171747,3946.9647,N,08404.9286,W,1,06,1.80,365.52,M,-33.324,M,,*7A
2017-12-14 12:17:46 1513271866.223417: $GPRMC,171747,A,3946.9647,N,08404.9286,W,1.3044,25.352,141217,,*04
2017-12-14 12:17:46 1513271866.223478: $GPGSA,A,3,21,15,18,20,24,32,,,,,,,6.6,1.8,6.2*34
2017-12-14 12:17:47 1513271867.560176: $GPGSV,3,1,12,21,63,187,29,15,37,052,20,18,71,337,22,20,34,096,19*74
2017-12-14 12:17:47 1513271867.560329: $GPGSV,3,2,12,24,50,111,24,10,41,301,00,27,19,289,00,32,21,238,17*7A
2017-12-14 12:17:47 1513271867.560395: $GPGSV,3,3,12,13,08,048,00,08,05,322,00,14,03,232,00,138,38,213,00*46
2017-12-14 12:17:47 1513271867.673846: $GPZDA,171748.00,14,12,2017,00,00*68
2017-12-14 12:17:47 1513271867.674008: $GPGGA,171748,3946.9646,N,08404.9285,W,1,06,1.80,364.12,M,-33.324,M,,*72
2017-12-14 12:17:47 1513271867.674073: $GPRMC,171748,A,3946.9646,N,08404.9285,W,0.9019,18.875,141217,,*0A
2017-12-14 12:17:47 1513271867.674134: $GPGSA,A,3,21,15,18,20,24,32,,,,,,,6.6,1.8,6.2*34
2017-12-14 12:17:48 1513271868.380209: $GPZDA,171749.00,14,12,2017,00,00*69
2017-12-14 12:17:48 1513271868.380371: $GPGGA,171749,3946.9650,N,08404.9284,W,1,06,1.80,363.36,M,-33.324,M,,*74
2017-12-14 12:17:48 1513271868.380436: $GPRMC,171749,A,3946.9650,N,08404.9284,W,0.9019,18.875,141217,,*0D
2017-12-14 12:17:48 1513271868.380496: $GPGSA,A,3,21,15,18,20,24,32,,,,,,,6.6,1.8,6.2*34
2017-12-14 12:17:48 1513271868.380552: $GPGBS,171749,24.66,M,21.80,M,143.40,M*3C
2017-12-14 12:17:49 1513271869.225600: $GPZDA,171750.00,14,12,2017,00,00*61
2017-12-14 12:17:49 1513271869.225802: $GPGGA,171750,3946.9646,N,08404.9291,W,1,06,1.80,362.64,M,-33.324,M,,*79
2017-12-14 12:17:49 1513271869.225890: $GPRMC,171750,A,3946.9646,N,08404.9291,W,1.0002,334.332,141217,,*31
2017-12-14 12:17:49 1513271869.225953: $GPGSA,A,3,21,15,18,20,24,32,,,,,,,6.6,1.8,6.2*34
2017-12-14 12:17:49 1513271869.226011: $GPGBS,171750,24.66,M,21.80,M,143.40,M*34
2017-12-14 12:17:50 1513271870.561280: $GPGSV,3,1,12,21,63,187,29,15,37,052,20,18,71,337,22,20,34,096,20*7E
2017-12-14 12:17:50 1513271870.561455: $GPGSV,3,2,12,24,50,111,23,10,41,301,00,27,19,289,00,32,21,238,17*7D
2017-12-14 12:17:50 1513271870.561520: $GPGSV,3,3,12,13,08,048,00,08,06,322,00,14,03,232,00,138,38,213,00*45
2017-12-14 12:17:50 1513271870.674776: $GPZDA,171751.00,14,12,2017,00,00*60
2017-12-14 12:17:50 1513271870.674931: $GPGGA,171751,3946.9646,N,08404.9291,W,1,06,1.80,362.64,M,-33.324,M,,*78
2017-12-14 12:17:50 1513271870.674997: $GPRMC,171751,A,3946.9646,N,08404.9291,W,0.5857,338.291,141217,,*38
2017-12-14 12:17:50 1513271870.675058: $GPGSA,A,3,21,15,18,20,24,32,,,,,,,6.6,1.8,6.2*34
2017-12-14 12:17:51 1513271871.224819: $GPZDA,171752.00,14,12,2017,00,00*63
2017-12-14 12:17:51 1513271871.224978: $GPGGA,171752,3946.9645,N,08404.9290,W,1,06,1.80,361.23,M,-33.324,M,,*79
2017-12-14 12:17:51 1513271871.225044: $GPRMC,171752,A,3946.9645,N,08404.9290,W,0.8414,39.347,141217,,*07
2017-12-14 12:17:51 1513271871.225105: $GPGSA,A,3,21,15,18,20,24,32,,,,,,,6.6,1.8,6.2*34
2017-12-14 12:17:52 1513271872.225724: $GPZDA,171753.00,14,12,2017,00,00*62
2017-12-14 12:17:52 1513271872.225892: $GPGGA,171753,3946.9645,N,08404.9290,W,1,06,1.80,361.23,M,-33.324,M,,*78
2017-12-14 12:17:52 1513271872.225959: $GPRMC,171753,A,3946.9645,N,08404.9290,W,1.2361,14.852,141217,,*08
2017-12-14 12:17:52 1513271872.226020: $GPGSA,A,3,21,15,18,20,24,32,,,,,,,6.6,1.8,6.2*34
2017-12-14 12:17:53 1513271873.559370: $GPGSV,3,1,12,21,63,187,29,15,37,052,20,18,71,337,23,20,34,096,20*7F
2017-12-14 12:17:53 1513271873.559547: $GPGSV,3,2,12,24,50,111,23,10,41,301,06,27,19,289,00,32,21,238,14*78
2017-12-14 12:17:53 1513271873.559612: $GPGSV,3,3,12,13,08,048,00,08,06,322,00,14,03,232,00,138,38,213,00*45
2017-12-14 12:17:53 1513271873.672881: $GPZDA,171754.00,14,12,2017,00,00*65
2017-12-14 12:17:53 1513271873.673019: $GPGGA,171754,3946.9645,N,08404.9290,W,1,06,2.80,359.83,M,-33.324,M,,*7D
2017-12-14 12:17:53 1513271873.673085: $GPRMC,171754,A,3946.9645,N,08404.9290,W,0.8414,39.347,141217,,*01
2017-12-14 12:17:53 1513271873.673146: $GPGSA,A,3,21,15,18,20,24,32,,,,,,,6.6,2.8,6.2*37
2017-12-14 12:17:54 1513271874.222984: $GPZDA,171755.00,14,12,2017,00,00*64
2017-12-14 12:17:54 1513271874.223164: $GPGGA,171755,3946.9644,N,08404.9283,W,1,06,2.80,359.91,M,-33.324,M,,*7C
2017-12-14 12:17:54 1513271874.223252: $GPRMC,171755,A,3946.9644,N,08404.9283,W,0.8414,39.347,141217,,*03
2017-12-14 12:17:54 1513271874.223315: $GPGSA,A,3,21,15,18,20,24,32,,,,,,,6.6,2.8,6.2*37
2017-12-14 12:17:55 1513271875.223163: $GPZDA,171756.00,14,12,2017,00,00*67
2017-12-14 12:17:55 1513271875.223333: $GPGGA,171756,3946.9640,N,08404.9283,W,1,06,2.80,359.27,M,-33.324,M,,*76
2017-12-14 12:17:55 1513271875.223400: $GPRMC,171756,A,3946.9640,N,08404.9283,W,1.0018,50.691,141217,,*04
2017-12-14 12:17:55 1513271875.223461: $GPGSA,A,3,21,15,18,20,24,32,,,,,,,6.6,2.8,6.2*37
2017-12-14 12:17:56 1513271876.559386: $GPGSV,3,1,12,21,63,187,29,15,37,052,20,18,71,337,23,20,34,096,21*7E
2017-12-14 12:17:56 1513271876.559561: $GPGSV,3,2,12,24,50,111,23,10,41,301,00,27,19,289,00,32,21,238,16*7C
2017-12-14 12:17:56 1513271876.559627: $GPGSV,3,3,12,13,08,048,00,08,06,322,00,14,03,232,00,138,38,213,00*45
2017-12-14 12:17:56 1513271876.673221: $GPZDA,171757.00,14,12,2017,00,00*66
2017-12-14 12:17:56 1513271876.673392: $GPGGA,171757,3946.9640,N,08404.9283,W,1,06,1.80,359.27,M,-33.324,M,,*74
2017-12-14 12:17:56 1513271876.673459: $GPRMC,171757,A,3946.9640,N,08404.9283,W,0.7576,81.915,141217,,*01
2017-12-14 12:17:56 1513271876.673520: $GPGSA,A,3,21,15,18,20,24,32,,,,,,,6.6,1.8,6.2*34
2017-12-14 12:17:57 1513271877.224062: $GPZDA,171758.00,14,12,2017,00,00*69
2017-12-14 12:17:57 1513271877.224230: $GPGGA,171758,3946.9636,N,08404.9283,W,1,06,1.80,358.63,M,-33.324,M,,*7B
2017-12-14 12:17:57 1513271877.224296: $GPRMC,171758,A,3946.9636,N,08404.9283,W,0.8414,39.347,141217,,*0B
2017-12-14 12:17:57 1513271877.224357: $GPGSA,A,3,21,15,18,20,24,32,,,,,,,6.6,1.8,6.2*34
2017-12-14 12:17:58 1513271878.224104: $GPZDA,171759.00,14,12,2017,00,00*68
2017-12-14 12:17:58 1513271878.224281: $GPGGA,171759,3946.9636,N,08404.9283,W,1,06,1.80,358.63,M,-33.324,M,,*7A
2017-12-14 12:17:58 1513271878.224348: $GPRMC,171759,A,3946.9636,N,08404.9283,W,1.1385,29.379,141217,,*01
2017-12-14 12:17:58 1513271878.224409: $GPGSA,A,3,21,15,18,20,24,32,,,,,,,6.6,1.8,6.2*34
2017-12-14 12:17:59 1513271879.560015: $GPGSV,3,1,12,21,63,187,29,15,37,052,19,18,71,337,23,20,34,096,21*74
2017-12-14 12:17:59 1513271879.560193: $GPGSV,3,2,12,24,50,111,22,10,41,301,00,27,19,289,00,32,21,238,17*7C
2017-12-14 12:17:59 1513271879.560258: $GPGSV,3,3,12,13,08,048,00,08,06,322,00,14,03,232,00,138,38,213,00*45
2017-12-14 12:17:59 1513271879.673741: $GPZDA,171800.00,14,12,2017,00,00*6B
2017-12-14 12:17:59 1513271879.674008: $GPGGA,171800,3946.9639,N,08404.9282,W,1,06,1.80,357.86,M,-33.324,M,,*73
2017-12-14 12:17:59 1513271879.674077: $GPRMC,171800,A,3946.9639,N,08404.9282,W,1.0567,17.448,141217,,*0F
2017-12-14 12:17:59 1513271879.674139: $GPGSA,A,3,21,15,18,20,24,32,,,,,,,6.6,1.8,6.2*34
2017-12-14 12:18:00 1513271880.223656: $GPZDA,171801.00,14,12,2017,00,00*6A
2017-12-14 12:18:00 1513271880.223824: $GPGGA,171801,3946.9632,N,08404.9283,W,1,06,1.80,357.99,M,-33.324,M,,*76
2017-12-14 12:18:00 1513271880.223890: $GPRMC,171801,A,3946.9632,N,08404.9283,W,0.3423,4.197,141217,,*32
2017-12-14 12:18:00 1513271880.223951: $GPGSA,A,3,21,15,18,20,24,32,,,,,,,6.6,1.8,6.2*34
2017-12-14 12:18:01 1513271881.225099: $GPZDA,171802.00,14,12,2017,00,00*69
2017-12-14 12:18:01 1513271881.225261: $GPGGA,171802,3946.9632,N,08404.9283,W,1,06,1.80,357.99,M,-33.324,M,,*75
2017-12-14 12:18:01 1513271881.225328: $GPRMC,171802,A,3946.9632,N,08404.9283,W,0.3155,129.994,141217,,*30
2017-12-14 12:18:01 1513271881.225389: $GPGSA,A,3,21,15,18,20,24,32,,,,,,,6.6,1.8,6.2*34
