2017-12-31 18:00:34 1514761234.961085: {"class":"VERSION","release":"3.16","rev":"3.16-4","proto_major":3,"proto_minor":11}
2017-12-31 18:00:34 1514761234.961471: {"class":"DEVICES","devices":[{"class":"DEVICE","path":"/dev/ttyUSB0","driver":"SiRF","activated":"2017-12-31T23:00:34.688Z","flags":1,"native":1,"bps":4800,"parity":"N","stopbits":1,"cycle":1.00}]}
2017-12-31 18:00:34 1514761234.961573: {"class":"WATCH","enable":true,"json":false,"nmea":true,"raw":0,"scaled":false,"timing":false,"split24":false,"pps":false}
2017-12-31 18:00:35 1514761235.338570: $GPZDA,230036.00,31,12,2017,00,00*67
2017-12-31 18:00:35 1514761235.338723: $GPGGA,230036,3946.9564,N,08404.9866,W,2,11,0.60,307.48,M,-33.324,M,,*7E
2017-12-31 18:00:35 1514761235.338793: $GPRMC,230036,A,3946.9564,N,08404.9866,W,0.0000,0.000,311217,,*33
2017-12-31 18:00:35 1514761235.338854: $GPGSA,A,3,22,23,9,3,16,29,14,31,27,26,135,,1.7,0.6,1.3*06
2017-12-31 18:00:36 1514761236.680475: $GPGSV,3,1,11,22,26,217,43,23,50,307,42,09,16,312,37,03,35,238,44*7C
2017-12-31 18:00:36 1514761236.680634: $GPGSV,3,2,11,16,76,192,43,29,07,033,36,14,19,130,34,31,31,072,42*71
2017-12-31 18:00:36 1514761236.680703: $GPGSV,3,3,11,27,18,156,31,26,66,054,50,135,22,240,44*74
2017-12-31 18:00:36 1514761236.793901: $GPZDA,230037.00,31,12,2017,00,00*66
2017-12-31 18:00:36 1514761236.794041: $GPGGA,230037,3946.9564,N,08404.9866,W,2,11,0.60,307.48,M,-33.324,M,,*7F
2017-12-31 18:00:36 1514761236.794107: $GPRMC,230037,A,3946.9564,N,08404.9866,W,0.0000,0.000,311217,,*32
2017-12-31 18:00:36 1514761236.794167: $GPGSA,A,3,22,23,9,3,16,29,14,31,27,26,135,,1.7,0.6,1.3*06
2017-12-31 18:00:37 1514761237.346206: $GPZDA,230038.00,31,12,2017,00,00*69
2017-12-31 18:00:37 1514761237.346356: $GPGGA,230038,3946.9564,N,08404.9866,W,2,11,0.60,307.48,M,-33.324,M,,*70
2017-12-31 18:00:37 1514761237.346422: $GPRMC,230038,A,3946.9564,N,08404.9866,W,0.0000,0.000,311217,,*3D
2017-12-31 18:00:37 1514761237.346484: $GPGSA,A,3,22,23,9,3,16,29,14,31,27,26,135,,1.7,0.6,1.3*06
2017-12-31 18:00:38 1514761238.345684: $GPZDA,230039.00,31,12,2017,00,00*68
2017-12-31 18:00:38 1514761238.345856: $GPGGA,230039,3946.9564,N,08404.9866,W,2,11,0.60,307.48,M,-33.324,M,,*71
2017-12-31 18:00:38 1514761238.345923: $GPRMC,230039,A,3946.9564,N,08404.9866,W,0.0000,0.000,311217,,*3C
2017-12-31 18:00:38 1514761238.345985: $GPGSA,A,3,22,23,9,3,16,29,14,31,27,26,135,,1.7,0.6,1.3*06
2017-12-31 18:00:39 1514761239.710052: $GPGSV,3,1,11,22,26,217,43,23,50,307,42,09,16,312,37,03,35,238,44*7C
2017-12-31 18:00:39 1514761239.710235: $GPGSV,3,2,11,16,76,192,44,29,07,033,37,14,19,130,34,31,31,072,37*75
2017-12-31 18:00:39 1514761239.710301: $GPGSV,3,3,11,27,18,156,31,26,66,054,49,135,22,240,44*7C
2017-12-31 18:00:39 1514761239.823398: $GPZDA,230040.00,31,12,2017,00,00*66
2017-12-31 18:00:39 1514761239.823538: $GPGGA,230040,3946.9564,N,08404.9866,W,2,11,0.60,307.48,M,-33.324,M,,*7F
2017-12-31 18:00:39 1514761239.823605: $GPRMC,230040,A,3946.9564,N,08404.9866,W,0.0000,0.000,311217,,*32
2017-12-31 18:00:39 1514761239.823670: $GPGSA,A,3,22,23,9,3,16,29,14,31,27,26,135,,1.7,0.6,1.3*06
2017-12-31 18:00:40 1514761240.448782: $GPZDA,230041.00,31,12,2017,00,00*67
2017-12-31 18:00:40 1514761240.448948: $GPGGA,230041,3946.9564,N,08404.9866,W,2,11,0.60,307.48,M,-33.324,M,,*7E
2017-12-31 18:00:40 1514761240.449017: $GPRMC,230041,A,3946.9564,N,08404.9866,W,0.0000,0.000,311217,,*33
2017-12-31 18:00:40 1514761240.449080: $GPGSA,A,3,22,23,9,3,16,29,14,31,27,26,135,,1.7,0.6,1.3*06
2017-12-31 18:00:41 1514761241.345909: $GPZDA,230042.00,31,12,2017,00,00*64
2017-12-31 18:00:41 1514761241.346059: $GPGGA,230042,3946.9564,N,08404.9866,W,2,11,0.60,307.48,M,-33.324,M,,*7D
2017-12-31 18:00:41 1514761241.346127: $GPRMC,230042,A,3946.9564,N,08404.9866,W,0.0000,0.000,311217,,*30
2017-12-31 18:00:41 1514761241.346188: $GPGSA,A,3,22,23,9,3,16,29,14,31,27,26,135,,1.7,0.6,1.3*06
2017-12-31 18:00:42 1514761242.681638: $GPGSV,3,1,11,22,26,217,42,23,50,307,42,09,16,312,36,03,35,238,44*7C
2017-12-31 18:00:42 1514761242.681793: $GPGSV,3,2,11,16,76,192,43,29,07,033,38,14,19,130,34,31,31,072,38*72
2017-12-31 18:00:42 1514761242.681900: $GPGSV,3,3,11,27,18,156,31,26,66,054,49,135,22,240,43*7B
2017-12-31 18:00:42 1514761242.794969: $GPZDA,230043.00,31,12,2017,00,00*65
2017-12-31 18:00:42 1514761242.795098: $GPGGA,230043,3946.9564,N,08404.9866,W,2,11,0.60,307.48,M,-33.324,M,,*7C
2017-12-31 18:00:42 1514761242.795163: $GPRMC,230043,A,3946.9564,N,08404.9866,W,0.0000,0.000,311217,,*31
2017-12-31 18:00:42 1514761242.795226: $GPGSA,A,3,22,23,9,3,16,29,14,31,27,26,135,,1.7,0.6,1.3*06
2017-12-31 18:00:43 1514761243.347139: $GPZDA,230044.00,31,12,2017,00,00*62
2017-12-31 18:00:43 1514761243.347297: $GPGGA,230044,3946.9564,N,08404.9866,W,2,11,0.60,307.48,M,-33.324,M,,*7B
2017-12-31 18:00:43 1514761243.347366: $GPRMC,230044,A,3946.9564,N,08404.9866,W,0.0000,0.000,311217,,*36
2017-12-31 18:00:43 1514761243.347427: $GPGSA,A,3,22,23,9,3,16,29,14,31,27,26,135,,1.7,0.6,1.3*06
2017-12-31 18:00:44 1514761244.373008: $GPZDA,230045.00,31,12,2017,00,00*63
2017-12-31 18:00:44 1514761244.374597: $GPGGA,230045,3946.9564,N,08404.9866,W,2,11,0.60,307.48,M,-33.324,M,,*7A
2017-12-31 18:00:44 1514761244.374709: $GPRMC,230045,A,3946.9564,N,08404.9866,W,0.0000,0.000,311217,,*37
2017-12-31 18:00:44 1514761244.374772: $GPGSA,A,3,22,23,9,3,16,29,14,31,27,26,135,,1.7,0.6,1.3*06
