2017-11-15 18:31:58 1510788718.623031: {"class":"VERSION","release":"3.17","rev":"3.17","proto_major":3,"proto_minor":12}
2017-11-15 18:31:58 1510788718.623457: {"class":"DEVICES","devices":[{"class":"DEVICE","path":"/dev/ttyUSB0","driver":"SiRF","subtype":"9\u0006GSD4e_4.1.2-P1_RPATCH.05-F-GPS-4R-1510281 11/03/2015 307","activated":"2017-11-15T23:31:58.504Z","flags":1,"native":1,"bps":4800,"parity":"N","stopbits":1,"cycle":1.00}]}
2017-11-15 18:31:58 1510788718.623564: {"class":"WATCH","enable":true,"json":false,"nmea":true,"raw":0,"scaled":false,"timing":false,"split24":false,"pps":false}
2017-11-15 18:31:59 1510788719.328374: $GPZDA,233158.00,15,11,2017,00,00*68
2017-11-15 18:31:59 1510788719.328542: $GPGGA,233158,3946.9579,N,08404.9481,W,1,08,1.00,288.47,M,-33.324,M,,*78
2017-11-15 18:31:59 1510788719.328602: $GPRMC,233158,A,3946.9579,N,08404.9481,W,0.0000,0.000,151117,,*35
2017-11-15 18:31:59 1510788719.328657: $GPGSA,A,3,25,14,22,26,31,32,1,3,,,,,3.4,1.0,2.9*38
2017-11-15 18:32:00 1510788720.699210: $GPGSV,3,1,11,25,36,057,23,14,69,037,13,22,39,303,11,26,25,178,09*78
2017-11-15 18:32:00 1510788720.699352: $GPGSV,3,2,11,31,77,276,22,32,56,078,16,01,19,276,10,10,22,156,07*7C
2017-11-15 18:32:00 1510788720.699411: $GPGSV,3,3,11,03,20,315,10,12,07,033,00,135,23,238,00*75
2017-11-15 18:32:00 1510788720.812506: $GPZDA,233159.00,15,11,2017,00,00*69
2017-11-15 18:32:00 1510788720.812682: $GPGGA,233159,3946.9579,N,08404.9488,W,1,09,1.00,288.39,M,-33.324,M,,*78
2017-11-15 18:32:00 1510788720.812743: $GPRMC,233159,A,3946.9579,N,08404.9488,W,0.4179,328.778,151117,,*37
2017-11-15 18:32:00 1510788720.812798: $GPGSA,A,3,25,14,22,26,31,32,1,10,3,,,,3.4,1.0,2.9*39
2017-11-15 18:32:01 1510788721.437876: $GPZDA,233200.00,15,11,2017,00,00*66
2017-11-15 18:32:01 1510788721.438037: $GPGGA,233200,3946.9579,N,08404.9488,W,1,09,1.00,288.39,M,-33.324,M,,*77
2017-11-15 18:32:01 1510788721.438098: $GPRMC,233200,A,3946.9579,N,08404.9488,W,0.8359,328.778,151117,,*34
2017-11-15 18:32:01 1510788721.438154: $GPGSA,A,3,25,14,22,26,31,32,1,10,3,,,,3.4,1.0,2.9*39
2017-11-15 18:32:02 1510788722.329119: $GPZDA,233201.00,15,11,2017,00,00*67
2017-11-15 18:32:02 1510788722.329270: $GPGGA,233201,3946.9580,N,08404.9495,W,1,09,1.00,288.31,M,-33.324,M,,*74
2017-11-15 18:32:02 1510788722.329331: $GPRMC,233201,A,3946.9580,N,08404.9495,W,0.9948,317.276,151117,,*33
2017-11-15 18:32:02 1510788722.329406: $GPGSA,A,3,25,14,22,26,31,32,1,10,3,,,,3.4,1.0,2.9*39
2017-11-15 18:32:03 1510788723.699596: $GPGSV,3,1,11,25,36,057,23,14,69,037,12,22,39,303,11,26,25,178,08*78
2017-11-15 18:32:03 1510788723.699768: $GPGSV,3,2,11,31,77,276,23,32,56,078,16,01,19,276,09,10,22,156,07*75
2017-11-15 18:32:03 1510788723.699829: $GPGSV,3,3,11,03,20,315,10,12,07,033,00,135,23,238,00*75
2017-11-15 18:32:03 1510788723.811942: $GPZDA,233202.00,15,11,2017,00,00*64
2017-11-15 18:32:03 1510788723.812070: $GPGGA,233202,3946.9584,N,08404.9502,W,1,09,1.00,288.87,M,-33.324,M,,*71
2017-11-15 18:32:03 1510788723.812129: $GPRMC,233202,A,3946.9584,N,08404.9502,W,1.1391,323.662,151117,,*3A
2017-11-15 18:32:03 1510788723.812185: $GPGSA,A,3,25,14,22,26,31,32,1,10,3,,,,3.4,1.0,2.9*39
2017-11-15 18:32:04 1510788724.328981: $GPZDA,233203.00,15,11,2017,00,00*65
2017-11-15 18:32:04 1510788724.329119: $GPGGA,233203,3946.9585,N,08404.9509,W,1,09,1.00,288.79,M,-33.324,M,,*7B
2017-11-15 18:32:04 1510788724.329197: $GPRMC,233203,A,3946.9585,N,08404.9509,W,1.0002,334.331,151117,,*3C
2017-11-15 18:32:04 1510788724.329254: $GPGSA,A,3,25,14,22,26,31,32,1,10,3,,,,3.4,1.0,2.9*39
2017-11-15 18:32:05 1510788725.363923: $GPZDA,233204.00,15,11,2017,00,00*62
2017-11-15 18:32:05 1510788725.364083: $GPGGA,233204,3946.9581,N,08404.9509,W,1,09,1.00,289.55,M,-33.324,M,,*77
2017-11-15 18:32:05 1510788725.364143: $GPRMC,233204,A,3946.9581,N,08404.9509,W,0.5912,309.173,151117,,*39
2017-11-15 18:32:05 1510788725.364199: $GPGSA,A,3,25,14,22,26,31,32,1,10,3,,,,3.4,1.0,2.9*39
2017-11-15 18:32:06 1510788726.697436: $GPGSV,3,1,11,25,36,057,23,14,69,037,12,22,39,303,10,26,25,178,08*79
2017-11-15 18:32:06 1510788726.697637: $GPGSV,3,2,11,31,77,276,23,32,56,078,17,01,19,276,07,10,22,156,07*7A
2017-11-15 18:32:06 1510788726.697749: $GPGSV,3,3,11,03,20,315,09,12,07,033,00,135,23,238,00*7D
2017-11-15 18:32:06 1510788726.810783: $GPZDA,233205.00,15,11,2017,00,00*63
2017-11-15 18:32:06 1510788726.810962: $GPGGA,233205,3946.9582,N,08404.9516,W,1,09,1.20,289.47,M,-33.324,M,,*7A
2017-11-15 18:32:06 1510788726.811025: $GPRMC,233205,A,3946.9582,N,08404.9516,W,0.3155,309.994,151117,,*39
2017-11-15 18:32:06 1510788726.811081: $GPGSA,A,3,25,14,22,26,31,32,1,10,3,,,,3.4,1.2,2.9*3B
2017-11-15 18:32:07 1510788727.363166: $GPZDA,233206.00,15,11,2017,00,00*60
2017-11-15 18:32:07 1510788727.363324: $GPGGA,233206,3946.9582,N,08404.9516,W,1,09,1.00,289.47,M,-33.324,M,,*7B
2017-11-15 18:32:07 1510788727.363406: $GPRMC,233206,A,3946.9582,N,08404.9516,W,0.5306,294.352,151117,,*3D
2017-11-15 18:32:07 1510788727.363463: $GPGSA,A,3,25,14,22,26,31,32,1,10,3,,,,3.4,1.0,2.9*39
2017-11-15 18:32:08 1510788728.362798: $GPZDA,233207.00,15,11,2017,00,00*61
2017-11-15 18:32:08 1510788728.362960: $GPGGA,233207,3946.9574,N,08404.9524,W,1,09,1.00,289.52,M,-33.324,M,,*76
2017-11-15 18:32:08 1510788728.363020: $GPRMC,233207,A,3946.9574,N,08404.9524,W,0.5306,294.352,151117,,*34
2017-11-15 18:32:08 1510788728.363075: $GPGSA,A,3,25,14,22,26,31,32,1,10,3,,,,3.4,1.0,2.9*39
