2018-01-11 20:21:16 1515720076.115305: {"class":"VERSION","release":"3.16","rev":"3.16-4","proto_major":3,"proto_minor":11}
2018-01-11 20:21:16 1515720076.115700: {"class":"DEVICES","devices":[{"class":"DEVICE","path":"/dev/ttyUSB0","driver":"SiRF","subtype":"9\u0006GSD4e_4.1.2-P1_RPATCH.05-F-GPS-4R-1510281 11/03/2015 307","activated":"2018-01-12T01:21:15.705Z","flags":1,"native":1,"bps":4800,"parity":"N","stopbits":1,"cycle":1.00}]}
2018-01-11 20:21:16 1515720076.115818: {"class":"WATCH","enable":true,"json":false,"nmea":true,"raw":0,"scaled":false,"timing":false,"split24":false,"pps":false}
2018-01-11 20:21:16 1515720076.725486: $GPGSV,3,1,11,07,60,316,42,08,75,112,45,09,44,223,43,11,24,166,44*7B
2018-01-11 20:21:16 1515720076.725642: $GPGSV,3,2,11,16,19,063,37,23,24,189,50,27,43,049,50,28,17,262,36*71
2018-01-11 20:21:16 1515720076.725707: $GPGSV,3,3,11,30,33,307,29,01,02,162,00,138,38,213,45*73
2018-01-11 20:21:16 1515720076.839163: $GPZDA,012117.00,12,01,2018,00,00*6B
2018-01-11 20:21:16 1515720076.839304: $GPGGA,012117,3946.9590,N,08404.9828,W,2,10,0.80,293.90,M,-33.324,M,,*79
2018-01-11 20:21:16 1515720076.839370: $GPRMC,012117,A,3946.9590,N,08404.9828,W,0.0000,0.000,120118,,*3E
2018-01-11 20:21:16 1515720076.839430: $GPGSA,A,3,7,8,9,11,16,23,27,28,30,138,,,4.0,0.8,3.5*3E
2018-01-11 20:21:17 1515720077.390021: $GPZDA,012118.00,12,01,2018,00,00*64
2018-01-11 20:21:17 1515720077.390187: $GPGGA,012118,3946.9590,N,08404.9828,W,2,10,0.80,293.90,M,-33.324,M,,*76
2018-01-11 20:21:17 1515720077.390254: $GPRMC,012118,A,3946.9590,N,08404.9828,W,0.0000,0.000,120118,,*31
2018-01-11 20:21:17 1515720077.390314: $GPGSA,A,3,7,8,9,11,16,23,27,28,30,138,,,4.0,0.8,3.5*3E
2018-01-11 20:21:18 1515720078.390874: $GPZDA,012119.00,12,01,2018,00,00*65
2018-01-11 20:21:18 1515720078.391033: $GPGGA,012119,3946.9598,N,08404.9828,W,2,10,0.80,295.18,M,-33.324,M,,*79
2018-01-11 20:21:18 1515720078.391099: $GPRMC,012119,A,3946.9598,N,08404.9828,W,0.0000,0.000,120118,,*38
2018-01-11 20:21:18 1515720078.391160: $GPGSA,A,3,7,8,9,11,16,23,27,28,30,138,,,4.0,0.8,3.5*3E
2018-01-11 20:21:19 1515720079.726310: $GPGSV,3,1,11,07,60,316,43,08,75,112,44,09,44,223,43,11,24,166,44*7B
2018-01-11 20:21:19 1515720079.726480: $GPGSV,3,2,11,16,19,063,37,23,24,189,49,27,43,049,49,28,17,262,36*71
2018-01-11 20:21:19 1515720079.726547: $GPGSV,3,3,11,30,33,307,29,01,02,162,12,138,38,213,45*70
2018-01-11 20:21:19 1515720079.839984: $GPZDA,012120.00,12,01,2018,00,00*6F
2018-01-11 20:21:19 1515720079.840154: $GPGGA,012120,3946.9598,N,08404.9828,W,2,10,0.80,295.18,M,-33.324,M,,*73
2018-01-11 20:21:19 1515720079.840243: $GPRMC,012120,A,3946.9598,N,08404.9828,W,0.0000,0.000,120118,,*32
2018-01-11 20:21:19 1515720079.840305: $GPGSA,A,3,7,8,9,11,16,23,27,28,30,138,,,4.0,0.8,3.5*3E
2018-01-11 20:21:20 1515720080.392090: $GPZDA,012121.00,12,01,2018,00,00*6E
2018-01-11 20:21:20 1515720080.392248: $GPGGA,012121,3946.9598,N,08404.9828,W,2,10,0.80,295.18,M,-33.324,M,,*72
2018-01-11 20:21:20 1515720080.392313: $GPRMC,012121,A,3946.9598,N,08404.9828,W,0.0000,0.000,120118,,*33
2018-01-11 20:21:20 1515720080.392374: $GPGSA,A,3,7,8,9,11,16,23,27,28,30,138,,,4.0,0.8,3.5*3E
2018-01-11 20:21:21 1515720081.390003: $GPZDA,012122.00,12,01,2018,00,00*6D
2018-01-11 20:21:21 1515720081.390162: $GPGGA,012122,3946.9598,N,08404.9828,W,2,10,0.80,295.18,M,-33.324,M,,*71
2018-01-11 20:21:21 1515720081.390228: $GPRMC,012122,A,3946.9598,N,08404.9828,W,0.0000,0.000,120118,,*30
2018-01-11 20:21:21 1515720081.390288: $GPGSA,A,3,7,8,9,11,16,23,27,28,30,138,,,4.0,0.8,3.5*3E
2018-01-11 20:21:22 1515720082.726668: $GPGSV,3,1,11,07,60,316,43,08,75,112,44,09,44,223,42,11,24,166,45*7B
2018-01-11 20:21:22 1515720082.726834: $GPGSV,3,2,11,16,19,063,37,23,24,189,49,27,43,049,50,28,17,262,36*79
2018-01-11 20:21:22 1515720082.726899: $GPGSV,3,3,11,30,33,307,29,01,02,162,05,138,38,213,44*77
2018-01-11 20:21:22 1515720082.840325: $GPZDA,012123.00,12,01,2018,00,00*6C
2018-01-11 20:21:22 1515720082.840447: $GPGGA,012123,3946.9598,N,08404.9828,W,2,10,0.80,295.18,M,-33.324,M,,*70
2018-01-11 20:21:22 1515720082.840513: $GPRMC,012123,A,3946.9598,N,08404.9828,W,0.0000,0.000,120118,,*31
2018-01-11 20:21:22 1515720082.840627: $GPGSA,A,3,7,8,9,11,16,23,27,28,30,138,,,4.0,0.8,3.5*3E
2018-01-11 20:21:23 1515720083.391183: $GPZDA,012124.00,12,01,2018,00,00*6B
2018-01-11 20:21:23 1515720083.391352: $GPGGA,012124,3946.9598,N,08404.9828,W,2,10,0.80,295.18,M,-33.324,M,,*77
2018-01-11 20:21:23 1515720083.391417: $GPRMC,012124,A,3946.9598,N,08404.9828,W,0.0000,0.000,120118,,*36
2018-01-11 20:21:23 1515720083.391477: $GPGSA,A,3,7,8,9,11,16,23,27,28,30,138,,,4.0,0.8,3.5*3E
2018-01-11 20:21:24 1515720084.389596: $GPZDA,012125.00,12,01,2018,00,00*6A
2018-01-11 20:21:24 1515720084.389765: $GPGGA,012125,3946.9598,N,08404.9828,W,2,10,0.80,295.18,M,-33.324,M,,*76
2018-01-11 20:21:24 1515720084.389831: $GPRMC,012125,A,3946.9598,N,08404.9828,W,0.0000,0.000,120118,,*37
2018-01-11 20:21:24 1515720084.389891: $GPGSA,A,3,7,8,9,11,16,23,27,28,30,138,,,4.0,0.8,3.5*3E
2018-01-11 20:21:25 1515720085.726266: $GPGSV,3,1,11,07,60,316,43,08,75,112,44,09,44,223,42,11,24,166,45*7B
2018-01-11 20:21:25 1515720085.726426: $GPGSV,3,2,11,16,19,063,37,23,24,189,49,27,43,049,50,28,17,262,36*79
2018-01-11 20:21:25 1515720085.726492: $GPGSV,3,3,11,30,33,307,28,01,02,162,04,138,38,213,45*76
2018-01-11 20:21:25 1515720085.838643: $GPZDA,012126.00,12,01,2018,00,00*69
2018-01-11 20:21:25 1515720085.838782: $GPGGA,012126,3946.9598,N,08404.9835,W,2,10,0.80,295.10,M,-33.324,M,,*71
2018-01-11 20:21:25 1515720085.838846: $GPRMC,012126,A,3946.9598,N,08404.9835,W,0.0000,0.000,120118,,*38
2018-01-11 20:21:25 1515720085.838907: $GPGSA,A,3,7,8,9,11,16,23,27,28,30,138,,,4.0,0.8,3.5*3E
2018-01-11 20:21:26 1515720086.465286: $GPZDA,012127.00,12,01,2018,00,00*68
2018-01-11 20:21:26 1515720086.465456: $GPGGA,012127,3946.9598,N,08404.9835,W,2,10,0.80,295.10,M,-33.324,M,,*70
2018-01-11 20:21:26 1515720086.465521: $GPRMC,012127,A,3946.9598,N,08404.9835,W,0.0000,0.000,120118,,*39
2018-01-11 20:21:26 1515720086.465582: $GPGSA,A,3,7,8,9,11,16,23,27,28,30,138,,,4.0,0.8,3.5*3E
2018-01-11 20:21:27 1515720087.389645: $GPZDA,012128.00,12,01,2018,00,00*67
2018-01-11 20:21:27 1515720087.389822: $GPGGA,012128,3946.9598,N,08404.9835,W,2,10,0.80,295.10,M,-33.324,M,,*7F
2018-01-11 20:21:27 1515720087.389889: $GPRMC,012128,A,3946.9598,N,08404.9835,W,0.0000,0.000,120118,,*36
2018-01-11 20:21:27 1515720087.389950: $GPGSA,A,3,7,8,9,11,16,23,27,28,30,138,,,4.0,0.8,3.5*3E
