2017-12-01 14:02:27 1512154947.236970: {"class":"VERSION","release":"3.16","rev":"3.16-4","proto_major":3,"proto_minor":11}
2017-12-01 14:02:27 1512154947.237390: {"class":"DEVICES","devices":[{"class":"DEVICE","path":"/dev/ttyUSB0","driver":"SiRF","subtype":"9\u0006GSD4e_4.1.2-P1_RPATCH.05-F-GPS-4R-1510281 11/03/2015 307","activated":"2017-12-01T19:02:26.587Z","flags":1,"native":1,"bps":4800,"parity":"N","stopbits":1,"cycle":1.00}]}
2017-12-01 14:02:27 1512154947.237509: {"class":"WATCH","enable":true,"json":false,"nmea":true,"raw":0,"scaled":false,"timing":false,"split24":false,"pps":false}
2017-12-01 14:02:27 1512154947.446538: $GPZDA,190228.00,01,12,2017,00,00*60
2017-12-01 14:02:28 1512154948.089502: $GPGGA,190228,3946.9554,N,08404.9825,W,2,11,0.80,308.08,M,-33.324,M,,*7B
2017-12-01 14:02:28 1512154948.089658: $GPRMC,190228,A,3946.9554,N,08404.9825,W,0.0000,0.000,011217,,*30
2017-12-01 14:02:28 1512154948.089723: $GPGSA,A,3,8,10,14,15,18,20,21,24,27,32,138,,2.0,0.8,1.5*34
2017-12-01 14:02:28 1512154948.780904: $GPGSV,3,1,12,08,08,303,35,10,61,321,49,14,22,246,36,15,18,061,38*74
2017-12-01 14:02:28 1512154948.781089: $GPGSV,3,2,12,18,76,064,43,20,16,112,41,21,39,180,45,24,50,070,49*7C
2017-12-01 14:02:28 1512154948.781155: $GPGSV,3,3,12,27,11,268,42,32,39,256,43,12,03,114,00,138,38,213,47*4E
2017-12-01 14:02:28 1512154948.894257: $GPZDA,190229.00,01,12,2017,00,00*61
2017-12-01 14:02:28 1512154948.894419: $GPGGA,190229,3946.9554,N,08404.9825,W,2,11,0.80,308.08,M,-33.324,M,,*7A
2017-12-01 14:02:28 1512154948.894484: $GPRMC,190229,A,3946.9554,N,08404.9825,W,0.0000,0.000,011217,,*31
2017-12-01 14:02:28 1512154948.894544: $GPGSA,A,3,8,10,14,15,18,20,21,24,27,32,138,,2.0,0.8,1.5*34
2017-12-01 14:02:29 1512154949.520025: $GPZDA,190230.00,01,12,2017,00,00*69
2017-12-01 14:02:29 1512154949.520198: $GPGGA,190230,3946.9554,N,08404.9825,W,2,11,0.80,308.08,M,-33.324,M,,*72
2017-12-01 14:02:29 1512154949.520264: $GPRMC,190230,A,3946.9554,N,08404.9825,W,0.0000,0.000,011217,,*39
2017-12-01 14:02:29 1512154949.520324: $GPGSA,A,3,8,10,14,15,18,20,21,24,27,32,138,,2.0,0.8,1.5*34
2017-12-01 14:02:30 1512154950.419309: $GPZDA,190231.00,01,12,2017,00,00*68
2017-12-01 14:02:30 1512154950.419483: $GPGGA,190231,3946.9554,N,08404.9825,W,2,11,0.80,308.08,M,-33.324,M,,*73
2017-12-01 14:02:30 1512154950.419551: $GPRMC,190231,A,3946.9554,N,08404.9825,W,0.0000,0.000,011217,,*38
2017-12-01 14:02:30 1512154950.419612: $GPGSA,A,3,8,10,14,15,18,20,21,24,27,32,138,,2.0,0.8,1.5*34
2017-12-01 14:02:31 1512154951.748874: $GPGSV,3,1,12,08,08,303,36,10,61,321,49,14,22,246,36,15,18,061,38*77
2017-12-01 14:02:31 1512154951.749057: $GPGSV,3,2,12,18,76,064,43,20,16,112,41,21,39,180,45,24,50,070,49*7C
2017-12-01 14:02:31 1512154951.749124: $GPGSV,3,3,12,27,11,268,41,32,39,256,43,12,03,114,00,138,38,213,47*4D
2017-12-01 14:02:31 1512154951.862207: $GPZDA,190232.00,01,12,2017,00,00*6B
2017-12-01 14:02:31 1512154951.862324: $GPGGA,190232,3946.9554,N,08404.9825,W,2,11,0.80,308.08,M,-33.324,M,,*70
2017-12-01 14:02:31 1512154951.862388: $GPRMC,190232,A,3946.9554,N,08404.9825,W,0.0000,0.000,011217,,*3B
2017-12-01 14:02:31 1512154951.862447: $GPGSA,A,3,8,10,14,15,18,20,21,24,27,32,138,,2.0,0.8,1.5*34
2017-12-01 14:02:32 1512154952.417244: $GPZDA,190233.00,01,12,2017,00,00*6A
2017-12-01 14:02:32 1512154952.417417: $GPGGA,190233,3946.9554,N,08404.9825,W,2,11,0.80,308.08,M,-33.324,M,,*71
2017-12-01 14:02:32 1512154952.417485: $GPRMC,190233,A,3946.9554,N,08404.9825,W,0.0000,0.000,011217,,*3A
2017-12-01 14:02:32 1512154952.417546: $GPGSA,A,3,8,10,14,15,18,20,21,24,27,32,138,,2.0,0.8,1.5*34
2017-12-01 14:02:33 1512154953.445259: $GPZDA,190234.00,01,12,2017,00,00*6D
2017-12-01 14:02:33 1512154953.445445: $GPGGA,190234,3946.9554,N,08404.9825,W,2,11,0.80,308.08,M,-33.324,M,,*76
2017-12-01 14:02:33 1512154953.445514: $GPRMC,190234,A,3946.9554,N,08404.9825,W,0.0000,0.000,011217,,*3D
2017-12-01 14:02:33 1512154953.445575: $GPGSA,A,3,8,10,14,15,18,20,21,24,27,32,138,,2.0,0.8,1.5*34
2017-12-01 14:02:34 1512154954.754243: $GPGSV,3,1,12,08,08,303,36,10,61,321,49,14,22,246,33,15,18,061,38*72
2017-12-01 14:02:34 1512154954.754475: $GPGSV,3,2,12,18,76,064,42,20,16,112,41,21,39,180,45,24,50,070,49*7D
2017-12-01 14:02:34 1512154954.754545: $GPGSV,3,3,12,27,11,268,41,32,39,256,42,12,03,114,00,138,38,213,46*4D
2017-12-01 14:02:34 1512154954.868012: $GPZDA,190235.00,01,12,2017,00,00*6C
2017-12-01 14:02:34 1512154954.868179: $GPGGA,190235,3946.9554,N,08404.9825,W,2,11,0.80,308.08,M,-33.324,M,,*77
2017-12-01 14:02:34 1512154954.868245: $GPRMC,190235,A,3946.9554,N,08404.9825,W,0.0000,0.000,011217,,*3C
2017-12-01 14:02:34 1512154954.868306: $GPGSA,A,3,8,10,14,15,18,20,21,24,27,32,138,,2.0,0.8,1.5*34
2017-12-01 14:02:35 1512154955.446368: $GPZDA,190236.00,01,12,2017,00,00*6F
2017-12-01 14:02:35 1512154955.446540: $GPGGA,190236,3946.9551,N,08404.9826,W,2,11,0.80,308.85,M,-33.324,M,,*77
2017-12-01 14:02:35 1512154955.446607: $GPRMC,190236,A,3946.9551,N,08404.9826,W,0.0000,0.000,011217,,*39
2017-12-01 14:02:35 1512154955.446668: $GPGSA,A,3,8,10,14,15,18,20,21,24,27,32,138,,2.0,0.8,1.5*34
2017-12-01 14:02:36 1512154956.412224: $GPZDA,190237.00,01,12,2017,00,00*6E
2017-12-01 14:02:36 1512154956.412398: $GPGGA,190237,3946.9551,N,08404.9826,W,2,11,0.80,308.85,M,-33.324,M,,*76
2017-12-01 14:02:36 1512154956.412464: $GPRMC,190237,A,3946.9551,N,08404.9826,W,0.0000,0.000,011217,,*38
2017-12-01 14:02:36 1512154956.412527: $GPGSA,A,3,8,10,14,15,18,20,21,24,27,32,138,,2.0,0.8,1.5*34
2017-12-01 14:02:37 1512154957.752685: $GPGSV,3,1,12,08,08,303,36,10,61,321,49,14,22,246,35,15,18,061,38*74
2017-12-01 14:02:37 1512154957.752871: $GPGSV,3,2,12,18,76,064,42,20,16,112,41,21,39,180,44,24,50,070,48*7D
2017-12-01 14:02:37 1512154957.752939: $GPGSV,3,3,12,27,11,268,41,32,39,256,42,12,03,114,00,138,38,213,47*4C
2017-12-01 14:02:37 1512154957.866288: $GPZDA,190238.00,01,12,2017,00,00*61
2017-12-01 14:02:37 1512154957.866431: $GPGGA,190238,3946.9551,N,08404.9826,W,2,11,0.80,308.85,M,-33.324,M,,*79
2017-12-01 14:02:37 1512154957.866499: $GPRMC,190238,A,3946.9551,N,08404.9826,W,0.0000,0.000,011217,,*37
2017-12-01 14:02:37 1512154957.866560: $GPGSA,A,3,8,10,14,15,18,20,21,24,27,32,138,,2.0,0.8,1.5*34
2017-12-01 14:02:38 1512154958.440916: $GPZDA,190239.00,01,12,2017,00,00*60
2017-12-01 14:02:38 1512154958.441088: $GPGGA,190239,3946.9551,N,08404.9826,W,2,11,0.80,308.85,M,-33.324,M,,*78
2017-12-01 14:02:38 1512154958.441155: $GPRMC,190239,A,3946.9551,N,08404.9826,W,0.0000,0.000,011217,,*36
2017-12-01 14:02:38 1512154958.441216: $GPGSA,A,3,8,10,14,15,18,20,21,24,27,32,138,,2.0,0.8,1.5*34
2017-12-01 14:02:39 1512154959.417462: $GPZDA,190240.00,01,12,2017,00,00*6E
2017-12-01 14:02:39 1512154959.417638: $GPGGA,190240,3946.9551,N,08404.9826,W,2,11,0.80,308.85,M,-33.324,M,,*76
2017-12-01 14:02:39 1512154959.417705: $GPRMC,190240,A,3946.9551,N,08404.9826,W,0.0000,0.000,011217,,*38
2017-12-01 14:02:39 1512154959.417768: $GPGSA,A,3,8,10,14,15,18,20,21,24,27,32,138,,2.0,0.8,1.5*34
2017-12-01 14:02:40 1512154960.785457: $GPGSV,3,1,12,08,08,303,37,10,61,321,50,14,22,246,35,15,18,061,37*72
2017-12-01 14:02:40 1512154960.785641: $GPGSV,3,2,12,18,76,064,43,20,16,112,41,21,39,180,44,24,50,070,48*7C
2017-12-01 14:02:40 1512154960.785708: $GPGSV,3,3,12,27,11,268,42,32,39,256,43,12,03,114,08,138,38,213,47*46
2017-12-01 14:02:40 1512154960.899096: $GPZDA,190241.00,01,12,2017,00,00*6F
2017-12-01 14:02:40 1512154960.899285: $GPGGA,190241,3946.9551,N,08404.9826,W,2,11,0.80,308.85,M,-33.324,M,,*77
2017-12-01 14:02:40 1512154960.899353: $GPRMC,190241,A,3946.9551,N,08404.9826,W,0.0000,0.000,011217,,*39
2017-12-01 14:02:40 1512154960.899415: $GPGSA,A,3,8,10,14,15,18,20,21,24,27,32,138,,2.0,0.8,1.5*34
2017-12-01 14:02:41 1512154961.446216: $GPZDA,190242.00,01,12,2017,00,00*6C
2017-12-01 14:02:41 1512154961.446391: $GPGGA,190242,3946.9550,N,08404.9819,W,2,11,0.80,308.93,M,-33.324,M,,*7E
2017-12-01 14:02:41 1512154961.446458: $GPRMC,190242,A,3946.9550,N,08404.9819,W,0.0000,0.000,011217,,*37
2017-12-01 14:02:41 1512154961.446538: $GPGSA,A,3,8,10,14,15,18,20,21,24,27,32,138,,2.0,0.8,1.5*34
