2017-12-01 13:12:36 1512151956.096936: {"class":"VERSION","release":"3.16","rev":"3.16-4","proto_major":3,"proto_minor":11}
2017-12-01 13:12:36 1512151956.097330: {"class":"DEVICES","devices":[{"class":"DEVICE","path":"/dev/ttyUSB0","driver":"SiRF","subtype":"9\u0006GSD4e_4.1.2-P1_RPATCH.05-F-GPS-4R-1510281 11/03/2015 307","activated":"2017-12-01T18:12:35.344Z","flags":1,"native":1,"bps":4800,"parity":"N","stopbits":1,"cycle":1.00}]}
2017-12-01 13:12:36 1512151956.097478: {"class":"WATCH","enable":true,"json":false,"nmea":true,"raw":0,"scaled":false,"timing":false,"split24":false,"pps":false}
2017-12-01 13:12:36 1512151956.537301: $GPGSV,3,1,12,08,06,322,35,10,42,301,45,15,37,052,49,18,71,337,45*74
2017-12-01 13:12:36 1512151956.537519: $GPGSV,3,2,12,20,33,096,48,21,63,189,46,24,51,109,48,27,19,289,28*7C
2017-12-01 13:12:36 1512151956.537587: $GPGSV,3,3,12,32,21,238,44,13,07,048,16,14,04,232,00,138,38,213,47*4F
2017-12-01 13:12:36 1512151956.650988: $GPZDA,181237.00,01,12,2017,00,00*6E
2017-12-01 13:12:36 1512151956.651157: $GPGGA,181237,3946.9551,N,08404.9862,W,2,10,1.00,297.78,M,-33.324,M,,*7B
2017-12-01 13:12:36 1512151956.651222: $GPRMC,181237,A,3946.9551,N,08404.9862,W,0.0000,0.000,011217,,*38
2017-12-01 13:12:36 1512151956.651283: $GPGSA,A,3,8,10,15,18,20,21,24,27,32,138,,,2.0,1.0,1.5*38
2017-12-01 13:12:37 1512151957.198079: $GPZDA,181238.00,01,12,2017,00,00*61
2017-12-01 13:12:37 1512151957.198257: $GPGGA,181238,3946.9551,N,08404.9862,W,2,10,1.00,297.78,M,-33.324,M,,*74
2017-12-01 13:12:37 1512151957.198324: $GPRMC,181238,A,3946.9551,N,08404.9862,W,0.0000,0.000,011217,,*37
2017-12-01 13:12:37 1512151957.198385: $GPGSA,A,3,8,10,15,18,20,21,24,27,32,138,,,2.0,1.0,1.5*38
2017-12-01 13:12:38 1512151958.200804: $GPZDA,181239.00,01,12,2017,00,00*60
2017-12-01 13:12:38 1512151958.200970: $GPGGA,181239,3946.9551,N,08404.9862,W,2,10,1.00,297.78,M,-33.324,M,,*75
2017-12-01 13:12:38 1512151958.201037: $GPRMC,181239,A,3946.9551,N,08404.9862,W,0.0000,0.000,011217,,*36
2017-12-01 13:12:38 1512151958.201097: $GPGSA,A,3,8,10,15,18,20,21,24,27,32,138,,,2.0,1.0,1.5*38
2017-12-01 13:12:39 1512151959.536662: $GPGSV,3,1,12,08,06,322,35,10,42,301,45,15,37,052,49,18,71,337,45*74
2017-12-01 13:12:39 1512151959.536823: $GPGSV,3,2,12,20,33,096,48,21,63,189,46,24,51,109,48,27,19,289,37*72
2017-12-01 13:12:39 1512151959.536888: $GPGSV,3,3,12,32,21,238,44,13,07,048,00,14,04,232,00,138,38,213,47*48
2017-12-01 13:12:39 1512151959.650385: $GPZDA,181240.00,01,12,2017,00,00*6E
2017-12-01 13:12:39 1512151959.650553: $GPGGA,181240,3946.9551,N,08404.9862,W,2,10,1.00,297.78,M,-33.324,M,,*7B
2017-12-01 13:12:39 1512151959.650620: $GPRMC,181240,A,3946.9551,N,08404.9862,W,0.0000,0.000,011217,,*38
2017-12-01 13:12:39 1512151959.650681: $GPGSA,A,3,8,10,15,18,20,21,24,27,32,138,,,2.0,1.0,1.5*38
2017-12-01 13:12:40 1512151960.205545: $GPZDA,181241.00,01,12,2017,00,00*6F
2017-12-01 13:12:40 1512151960.205726: $GPGGA,181241,3946.9551,N,08404.9862,W,2,10,1.00,297.78,M,-33.324,M,,*7A
2017-12-01 13:12:40 1512151960.205794: $GPRMC,181241,A,3946.9551,N,08404.9862,W,0.0000,0.000,011217,,*39
2017-12-01 13:12:40 1512151960.205855: $GPGSA,A,3,8,10,15,18,20,21,24,27,32,138,,,2.0,1.0,1.5*38
2017-12-01 13:12:41 1512151961.200898: $GPZDA,181242.00,01,12,2017,00,00*6C
2017-12-01 13:12:41 1512151961.201091: $GPGGA,181242,3946.9551,N,08404.9862,W,2,10,1.00,297.78,M,-33.324,M,,*79
2017-12-01 13:12:41 1512151961.201159: $GPRMC,181242,A,3946.9551,N,08404.9862,W,0.0000,0.000,011217,,*3A
2017-12-01 13:12:41 1512151961.201220: $GPGSA,A,3,8,10,15,18,20,21,24,27,32,138,,,2.0,1.0,1.5*38
2017-12-01 13:12:42 1512151962.537336: $GPGSV,3,1,12,08,06,322,34,10,42,301,44,15,37,052,48,18,71,337,45*75
2017-12-01 13:12:42 1512151962.537520: $GPGSV,3,2,12,20,33,096,48,21,63,189,46,24,51,109,48,27,19,289,36*73
2017-12-01 13:12:42 1512151962.537586: $GPGSV,3,3,12,32,21,238,44,13,07,048,00,14,04,232,00,138,38,213,47*48
2017-12-01 13:12:42 1512151962.650981: $GPZDA,181243.00,01,12,2017,00,00*6D
2017-12-01 13:12:42 1512151962.651152: $GPGGA,181243,3946.9551,N,08404.9862,W,2,10,1.00,297.78,M,-33.324,M,,*78
2017-12-01 13:12:42 1512151962.651269: $GPRMC,181243,A,3946.9551,N,08404.9862,W,0.0000,0.000,011217,,*3B
2017-12-01 13:12:42 1512151962.651332: $GPGSA,A,3,8,10,15,18,20,21,24,27,32,138,,,2.0,1.0,1.5*38
2017-12-01 13:12:43 1512151963.202386: $GPZDA,181244.00,01,12,2017,00,00*6A
2017-12-01 13:12:43 1512151963.202558: $GPGGA,181244,3946.9551,N,08404.9862,W,2,10,1.00,297.78,M,-33.324,M,,*7F
2017-12-01 13:12:43 1512151963.202625: $GPRMC,181244,A,3946.9551,N,08404.9862,W,0.0000,0.000,011217,,*3C
2017-12-01 13:12:43 1512151963.202685: $GPGSA,A,3,8,10,15,18,20,21,24,27,32,138,,,2.0,1.0,1.5*38
2017-12-01 13:12:44 1512151964.203742: $GPZDA,181245.00,01,12,2017,00,00*6B
2017-12-01 13:12:44 1512151964.203912: $GPGGA,181245,3946.9551,N,08404.9862,W,2,10,1.00,297.78,M,-33.324,M,,*7E
2017-12-01 13:12:44 1512151964.203978: $GPRMC,181245,A,3946.9551,N,08404.9862,W,0.0000,0.000,011217,,*3D
2017-12-01 13:12:44 1512151964.204040: $GPGSA,A,3,8,10,15,18,20,21,24,27,32,138,,,2.0,1.0,1.5*38
2017-12-01 13:12:45 1512151965.539823: $GPGSV,3,1,12,08,06,322,39,10,42,301,45,15,37,052,49,18,71,337,45*78
2017-12-01 13:12:45 1512151965.540015: $GPGSV,3,2,12,20,33,096,48,21,63,189,46,24,51,109,48,27,19,289,32*77
2017-12-01 13:12:45 1512151965.540082: $GPGSV,3,3,12,32,21,238,44,13,07,048,00,14,04,232,00,138,38,213,47*48
2017-12-01 13:12:45 1512151965.653328: $GPZDA,181246.00,01,12,2017,00,00*68
2017-12-01 13:12:45 1512151965.653500: $GPGGA,181246,3946.9551,N,08404.9862,W,2,10,1.00,297.78,M,-33.324,M,,*7D
2017-12-01 13:12:45 1512151965.653566: $GPRMC,181246,A,3946.9551,N,08404.9862,W,0.0000,0.000,011217,,*3E
2017-12-01 13:12:45 1512151965.653627: $GPGSA,A,3,8,10,15,18,20,21,24,27,32,138,,,2.0,1.0,1.5*38
