2017-12-01 13:55:19 1512154519.927746: {"class":"VERSION","release":"3.16","rev":"3.16-4","proto_major":3,"proto_minor":11}
2017-12-01 13:55:19 1512154519.928128: {"class":"DEVICES","devices":[{"class":"DEVICE","path":"/dev/ttyUSB0","driver":"SiRF","subtype":"9\u0006GSD4e_4.1.2-P1_RPATCH.05-F-GPS-4R-1510281 11/03/2015 307","activated":"2017-12-01T18:55:19.725Z","flags":1,"native":1,"bps":4800,"parity":"N","stopbits":1,"cycle":1.00}]}
2017-12-01 13:55:19 1512154519.928243: {"class":"WATCH","enable":true,"json":false,"nmea":true,"raw":0,"scaled":false,"timing":false,"split24":false,"pps":false}
2017-12-01 13:55:20 1512154520.749196: $GPGSV,3,1,12,08,08,304,32,10,58,318,49,14,19,244,36,15,21,060,44*7E
2017-12-01 13:55:20 1512154520.749386: $GPGSV,3,2,12,18,77,051,42,20,18,111,44,21,42,181,46,24,52,075,48*7A
2017-12-01 13:55:20 1512154520.749454: $GPGSV,3,3,12,32,36,253,42,27,13,270,36,12,01,117,16,138,38,213,47*4B
2017-12-01 13:55:20 1512154520.862571: $GPZDA,185521.00,01,12,2017,00,00*6A
2017-12-01 13:55:20 1512154520.862723: $GPGGA,185521,3946.9591,N,08404.9856,W,2,12,0.80,293.58,M,-33.324,M,,*79
2017-12-01 13:55:20 1512154520.862797: $GPRMC,185521,A,3946.9591,N,08404.9856,W,0.0000,0.000,011217,,*37
2017-12-01 13:55:20 1512154520.862861: $GPGSA,A,3,8,10,14,15,18,20,21,24,32,27,12,138,2.0,0.8,1.5*37
2017-12-01 13:55:21 1512154521.413453: $GPZDA,185522.00,01,12,2017,00,00*69
2017-12-01 13:55:21 1512154521.413642: $GPGGA,185522,3946.9591,N,08404.9856,W,2,12,0.80,293.58,M,-33.324,M,,*7A
2017-12-01 13:55:21 1512154521.413710: $GPRMC,185522,A,3946.9591,N,08404.9856,W,0.0000,0.000,011217,,*34
2017-12-01 13:55:21 1512154521.413775: $GPGSA,A,3,8,10,14,15,18,20,21,24,32,27,12,138,2.0,0.8,1.5*37
2017-12-01 13:55:22 1512154522.411872: $GPZDA,185523.00,01,12,2017,00,00*68
2017-12-01 13:55:22 1512154522.412054: $GPGGA,185523,3946.9591,N,08404.9856,W,2,12,0.80,293.58,M,-33.324,M,,*7B
2017-12-01 13:55:22 1512154522.412122: $GPRMC,185523,A,3946.9591,N,08404.9856,W,0.0000,0.000,011217,,*35
2017-12-01 13:55:22 1512154522.412183: $GPGSA,A,3,8,10,14,15,18,20,21,24,32,27,12,138,2.0,0.8,1.5*37
2017-12-01 13:55:23 1512154523.747562: $GPGSV,3,1,12,08,08,304,31,10,58,318,49,14,19,244,36,15,21,060,43*7A
2017-12-01 13:55:23 1512154523.751062: $GPGSV,3,2,12,18,77,051,42,20,18,111,44,21,42,181,46,24,52,075,48*7A
2017-12-01 13:55:23 1512154523.751175: $GPGSV,3,3,12,32,36,253,42,27,13,270,35,12,01,117,16,138,38,213,46*49
2017-12-01 13:55:23 1512154523.861198: $GPZDA,185524.00,01,12,2017,00,00*6F
2017-12-01 13:55:23 1512154523.861403: $GPGGA,185524,3946.9591,N,08404.9856,W,2,12,0.80,293.58,M,-33.324,M,,*7C
2017-12-01 13:55:23 1512154523.861481: $GPRMC,185524,A,3946.9591,N,08404.9856,W,0.0000,0.000,011217,,*32
2017-12-01 13:55:23 1512154523.861543: $GPGSA,A,3,8,10,14,15,18,20,21,24,32,27,12,138,2.0,0.8,1.5*37
2017-12-01 13:55:24 1512154524.411970: $GPZDA,185525.00,01,12,2017,00,00*6E
2017-12-01 13:55:24 1512154524.412138: $GPGGA,185525,3946.9591,N,08404.9856,W,2,12,0.80,293.58,M,-33.324,M,,*7D
2017-12-01 13:55:24 1512154524.412203: $GPRMC,185525,A,3946.9591,N,08404.9856,W,0.0000,0.000,011217,,*33
2017-12-01 13:55:24 1512154524.412264: $GPGSA,A,3,8,10,14,15,18,20,21,24,32,27,12,138,2.0,0.8,1.5*37
2017-12-01 13:55:25 1512154525.410983: $GPZDA,185526.00,01,12,2017,00,00*6D
2017-12-01 13:55:25 1512154525.411150: $GPGGA,185526,3946.9591,N,08404.9856,W,2,12,0.80,293.58,M,-33.324,M,,*7E
2017-12-01 13:55:25 1512154525.411217: $GPRMC,185526,A,3946.9591,N,08404.9856,W,0.0000,0.000,011217,,*30
2017-12-01 13:55:25 1512154525.411278: $GPGSA,A,3,8,10,14,15,18,20,21,24,32,27,12,138,2.0,0.8,1.5*37
2017-12-01 13:55:26 1512154526.745506: $GPGSV,3,1,12,08,08,304,30,10,58,318,49,14,19,244,36,15,21,060,44*7C
2017-12-01 13:55:26 1512154526.745684: $GPGSV,3,2,12,18,77,051,42,20,18,111,44,21,42,181,45,24,52,075,48*79
2017-12-01 13:55:26 1512154526.745753: $GPGSV,3,3,12,32,36,253,42,27,13,270,35,12,01,117,17,138,38,213,46*48
2017-12-01 13:55:26 1512154526.859140: $GPZDA,185527.00,01,12,2017,00,00*6C
2017-12-01 13:55:26 1512154526.859310: $GPGGA,185527,3946.9588,N,08404.9857,W,2,12,0.80,294.35,M,-33.324,M,,*7A
2017-12-01 13:55:26 1512154526.859427: $GPRMC,185527,A,3946.9588,N,08404.9857,W,0.0000,0.000,011217,,*38
2017-12-01 13:55:26 1512154526.859490: $GPGSA,A,3,8,10,14,15,18,20,21,24,32,27,12,138,2.0,0.8,1.5*37
2017-12-01 13:55:27 1512154527.412249: $GPZDA,185528.00,01,12,2017,00,00*63
2017-12-01 13:55:27 1512154527.412418: $GPGGA,185528,3946.9588,N,08404.9857,W,2,12,0.80,294.35,M,-33.324,M,,*75
2017-12-01 13:55:27 1512154527.412484: $GPRMC,185528,A,3946.9588,N,08404.9857,W,0.0000,0.000,011217,,*37
2017-12-01 13:55:27 1512154527.412545: $GPGSA,A,3,8,10,14,15,18,20,21,24,32,27,12,138,2.0,0.8,1.5*37
2017-12-01 13:55:28 1512154528.413043: $GPZDA,185529.00,01,12,2017,00,00*62
2017-12-01 13:55:28 1512154528.413216: $GPGGA,185529,3946.9588,N,08404.9857,W,2,12,0.80,294.35,M,-33.324,M,,*74
2017-12-01 13:55:28 1512154528.413282: $GPRMC,185529,A,3946.9588,N,08404.9857,W,0.0000,0.000,011217,,*36
2017-12-01 13:55:28 1512154528.413343: $GPGSA,A,3,8,10,14,15,18,20,21,24,32,27,12,138,2.0,0.8,1.5*37
2017-12-01 13:55:29 1512154529.748790: $GPGSV,3,1,12,08,08,304,25,10,58,318,49,14,19,244,36,15,21,060,43*7F
2017-12-01 13:55:29 1512154529.748989: $GPGSV,3,2,12,18,77,051,42,20,18,111,44,21,42,181,45,24,52,075,48*79
2017-12-01 13:55:29 1512154529.749059: $GPGSV,3,3,12,32,36,253,42,27,13,270,36,12,01,117,18,138,38,213,47*45
2017-12-01 13:55:29 1512154529.862614: $GPZDA,185530.00,01,12,2017,00,00*6A
2017-12-01 13:55:29 1512154529.862798: $GPGGA,185530,3946.9588,N,08404.9857,W,2,12,0.80,294.35,M,-33.324,M,,*7C
2017-12-01 13:55:29 1512154529.862867: $GPRMC,185530,A,3946.9588,N,08404.9857,W,0.0000,0.000,011217,,*3E
2017-12-01 13:55:29 1512154529.862931: $GPGSA,A,3,8,10,14,15,18,20,21,24,32,27,12,138,2.0,0.8,1.5*37
2017-12-01 13:55:30 1512154530.487961: $GPZDA,185531.00,01,12,2017,00,00*6B
2017-12-01 13:55:30 1512154530.488153: $GPGGA,185531,3946.9588,N,08404.9857,W,2,12,0.80,294.35,M,-33.324,M,,*7D
2017-12-01 13:55:30 1512154530.488224: $GPRMC,185531,A,3946.9588,N,08404.9857,W,0.0000,0.000,011217,,*3F
2017-12-01 13:55:30 1512154530.488288: $GPGSA,A,3,8,10,14,15,18,20,21,24,32,27,12,138,2.0,0.8,1.5*37
2017-12-01 13:55:31 1512154531.412541: $GPZDA,185532.00,01,12,2017,00,00*68
2017-12-01 13:55:31 1512154531.412730: $GPGGA,185532,3946.9591,N,08404.9856,W,2,12,0.80,293.58,M,-33.324,M,,*7B
2017-12-01 13:55:31 1512154531.412802: $GPRMC,185532,A,3946.9591,N,08404.9856,W,0.0000,0.000,011217,,*35
2017-12-01 13:55:31 1512154531.412900: $GPGSA,A,3,8,10,14,15,18,20,21,24,32,27,12,138,2.0,0.8,1.5*37
2017-12-01 13:55:32 1512154532.749200: $GPGSV,3,1,12,08,08,304,27,10,58,318,49,14,19,244,36,15,21,060,43*7D
2017-12-01 13:55:32 1512154532.749398: $GPGSV,3,2,12,18,77,051,42,20,18,111,44,21,42,181,44,24,52,075,49*79
2017-12-01 13:55:32 1512154532.749469: $GPGSV,3,3,12,32,36,253,42,27,13,270,37,12,01,117,19,138,38,213,47*45
2017-12-01 13:55:32 1512154532.862575: $GPZDA,185533.00,01,12,2017,00,00*69
2017-12-01 13:55:32 1512154532.862750: $GPGGA,185533,3946.9591,N,08404.9856,W,2,12,0.80,293.58,M,-33.324,M,,*7A
2017-12-01 13:55:32 1512154532.862820: $GPRMC,185533,A,3946.9591,N,08404.9856,W,0.0000,0.000,011217,,*34
2017-12-01 13:55:32 1512154532.862884: $GPGSA,A,3,8,10,14,15,18,20,21,24,32,27,12,138,2.0,0.8,1.5*37
2017-12-01 13:55:33 1512154533.413411: $GPZDA,185534.00,01,12,2017,00,00*6E
2017-12-01 13:55:33 1512154533.413590: $GPGGA,185534,3946.9591,N,08404.9856,W,2,12,0.80,293.58,M,-33.324,M,,*7D
2017-12-01 13:55:33 1512154533.413661: $GPRMC,185534,A,3946.9591,N,08404.9856,W,0.0000,0.000,011217,,*33
2017-12-01 13:55:33 1512154533.413725: $GPGSA,A,3,8,10,14,15,18,20,21,24,32,27,12,138,2.0,0.8,1.5*37
2017-12-01 13:55:34 1512154534.411842: $GPZDA,185535.00,01,12,2017,00,00*6F
2017-12-01 13:55:34 1512154534.412016: $GPGGA,185535,3946.9591,N,08404.9856,W,2,12,0.80,293.58,M,-33.324,M,,*7C
2017-12-01 13:55:34 1512154534.412086: $GPRMC,185535,A,3946.9591,N,08404.9856,W,0.0000,0.000,011217,,*32
2017-12-01 13:55:34 1512154534.412150: $GPGSA,A,3,8,10,14,15,18,20,21,24,32,27,12,138,2.0,0.8,1.5*37
