2017-12-29 11:02:21 1514563341.575973: {"class":"VERSION","release":"3.16","rev":"3.16-4","proto_major":3,"proto_minor":11}
2017-12-29 11:02:21 1514563341.576311: {"class":"DEVICES","devices":[{"class":"DEVICE","path":"/dev/ttyUSB0","driver":"SiRF","subtype":"9\u0006GSD4e_4.1.2-P1_RPATCH.05-F-GPS-4R-1510281 11/03/2015 307","activated":"2017-12-29T16:02:21.336Z","flags":1,"native":1,"bps":4800,"parity":"N","stopbits":1,"cycle":1.00}]}
2017-12-29 11:02:21 1514563341.576428: {"class":"WATCH","enable":true,"json":false,"nmea":true,"raw":0,"scaled":false,"timing":false,"split24":false,"pps":false}
2017-12-29 11:02:22 1514563342.134007: $GPZDA,160222.80,29,12,2017,00,00*67
2017-12-29 11:02:22 1514563342.134174: $GPGGA,160222,3946.9611,N,08404.9837,W,1,10,1.00,312.67,M,-33.324,M,,*76
2017-12-29 11:02:22 1514563342.134241: $GPRMC,160222,A,3946.9611,N,08404.9837,W,0.1567,189.200,291217,,*39
2017-12-29 11:02:22 1514563342.134302: $GPGSA,A,3,10,13,15,18,20,21,24,27,32,138,,,1.7,1.0,1.3*00
2017-12-29 11:02:22 1514563342.134360: $GPGBS,160222,10.91,M,10.38,M,30.89,M*0A
2017-12-29 11:02:23 1514563343.055425: $GPZDA,160223.29,29,12,2017,00,00*65
2017-12-29 11:02:23 1514563343.055605: $GPGGA,160223,3946.9607,N,08404.9837,W,1,10,1.00,312.03,M,-33.324,M,,*72
2017-12-29 11:02:23 1514563343.055672: $GPRMC,160223,A,3946.9607,N,08404.9837,W,0.4315,34.066,291217,,*0C
2017-12-29 11:02:23 1514563343.055733: $GPGSA,A,3,10,13,15,18,20,21,24,27,32,138,,,1.7,1.0,1.3*00
2017-12-29 11:02:23 1514563343.055792: $GPGBS,160223,10.91,M,10.38,M,30.89,M*0B
2017-12-29 11:02:24 1514563344.174291: $GPGSV,3,1,11,10,37,297,42,13,13,046,35,15,43,051,50,18,67,325,45*7F
2017-12-29 11:02:24 1514563344.174496: $GPGSV,3,2,11,20,39,090,50,21,70,196,48,24,47,120,49,27,19,295,38*79
2017-12-29 11:02:24 1514563344.174584: $GPGSV,3,3,11,32,16,234,36,08,03,328,00,138,38,213,29*77
2017-12-29 11:02:24 1514563344.287937: $GPZDA,160224.00,29,12,2017,00,00*69
2017-12-29 11:02:24 1514563344.288084: $GPGGA,160224,3946.9610,N,08404.9836,W,1,10,1.00,311.27,M,-33.324,M,,*77
2017-12-29 11:02:24 1514563344.288150: $GPRMC,160224,A,3946.9610,N,08404.9836,W,0.1867,0.000,291217,,*30
2017-12-29 11:02:24 1514563344.288211: $GPGSA,A,3,10,13,15,18,20,21,24,27,32,138,,,1.7,1.0,1.3*00
2017-12-29 11:02:24 1514563344.740066: $GPZDA,160225.00,29,12,2017,00,00*68
2017-12-29 11:02:24 1514563344.740231: $GPGGA,160225,3946.9606,N,08404.9836,W,1,10,1.00,310.63,M,-33.324,M,,*70
2017-12-29 11:02:24 1514563344.740297: $GPRMC,160225,A,3946.9606,N,08404.9836,W,0.1567,189.200,291217,,*39
2017-12-29 11:02:24 1514563344.740359: $GPGSA,A,3,10,13,15,18,20,21,24,27,32,138,,,1.7,1.0,1.3*00
2017-12-29 11:02:25 1514563345.432217: $GPZDA,160226.00,29,12,2017,00,00*6B
2017-12-29 11:02:25 1514563345.432372: $GPGGA,160226,3946.9609,N,08404.9835,W,1,10,1.00,309.86,M,-33.324,M,,*7C
2017-12-29 11:02:25 1514563345.432438: $GPRMC,160226,A,3946.9609,N,08404.9835,W,0.0000,0.000,291217,,*31
2017-12-29 11:02:25 1514563345.432498: $GPGSA,A,3,10,13,15,18,20,21,24,27,32,138,,,1.7,1.0,1.3*00
2017-12-29 11:02:26 1514563346.768372: $GPGSV,3,1,11,10,37,297,42,13,13,046,33,15,43,051,50,18,67,325,45*79
2017-12-29 11:02:26 1514563346.768550: $GPGSV,3,2,11,20,39,090,50,21,70,196,48,24,47,120,49,27,19,295,37*76
2017-12-29 11:02:26 1514563346.768615: $GPGSV,3,3,11,32,16,234,36,08,03,328,00,138,38,213,45*7D
2017-12-29 11:02:26 1514563346.880735: $GPZDA,160227.00,29,12,2017,00,00*6A
2017-12-29 11:02:26 1514563346.880876: $GPGGA,160227,3946.9609,N,08404.9841,W,1,10,1.00,308.38,M,-33.324,M,,*7A
2017-12-29 11:02:26 1514563346.880940: $GPRMC,160227,A,3946.9609,N,08404.9841,W,0.0000,0.000,291217,,*33
2017-12-29 11:02:26 1514563346.881000: $GPGSA,A,3,10,13,15,18,20,21,24,27,32,138,,,1.7,1.0,1.3*00
2017-12-29 11:02:27 1514563347.435329: $GPZDA,160228.00,29,12,2017,00,00*65
2017-12-29 11:02:27 1514563347.435463: $GPGGA,160228,3946.9605,N,08404.9841,W,1,10,1.00,307.74,M,-33.324,M,,*7E
2017-12-29 11:02:27 1514563347.435529: $GPRMC,160228,A,3946.9605,N,08404.9841,W,0.0000,0.000,291217,,*30
2017-12-29 11:02:27 1514563347.435589: $GPGSA,A,3,10,13,15,18,20,21,24,27,32,138,,,1.7,1.0,1.3*00
2017-12-29 11:02:28 1514563348.432444: $GPZDA,160229.00,29,12,2017,00,00*64
2017-12-29 11:02:28 1514563348.432593: $GPGGA,160229,3946.9608,N,08404.9841,W,1,10,1.00,306.97,M,-33.324,M,,*7E
2017-12-29 11:02:28 1514563348.432659: $GPRMC,160229,A,3946.9608,N,08404.9841,W,0.0000,0.000,291217,,*3C
2017-12-29 11:02:28 1514563348.432719: $GPGSA,A,3,10,13,15,18,20,21,24,27,32,138,,,1.7,1.0,1.3*00
2017-12-29 11:02:28 1514563348.432777: $GPGBS,160229,10.91,M,10.38,M,30.89,M*01
2017-12-29 11:02:29 1514563349.767876: $GPGSV,3,1,11,10,37,297,42,13,13,046,34,15,43,051,50,18,67,325,45*7E
2017-12-29 11:02:29 1514563349.768052: $GPGSV,3,2,11,20,39,090,50,21,70,196,47,24,47,120,49,27,19,295,38*76
2017-12-29 11:02:29 1514563349.768119: $GPGSV,3,3,11,32,16,234,36,08,03,328,24,138,38,213,47*79
2017-12-29 11:02:29 1514563349.881516: $GPZDA,160230.00,29,12,2017,00,00*6C
2017-12-29 11:02:29 1514563349.881643: $GPGGA,160230,3946.9604,N,08404.9841,W,1,11,1.00,306.33,M,-33.324,M,,*75
2017-12-29 11:02:29 1514563349.881706: $GPRMC,160230,A,3946.9604,N,08404.9841,W,0.0000,0.000,291217,,*38
2017-12-29 11:02:29 1514563349.881765: $GPGSA,A,3,10,13,15,18,20,21,24,27,32,8,138,,1.7,1.0,1.3*38
2017-12-29 11:02:30 1514563350.433582: $GPZDA,160231.00,29,12,2017,00,00*6D
2017-12-29 11:02:30 1514563350.433727: $GPGGA,160231,3946.9604,N,08404.9843,W,2,11,1.20,298.47,M,-33.324,M,,*72
2017-12-29 11:02:30 1514563350.433792: $GPRMC,160231,A,3946.9604,N,08404.9843,W,0.0000,0.000,291217,,*3B
2017-12-29 11:02:30 1514563350.433852: $GPGSA,A,3,10,13,15,18,20,21,24,27,32,8,138,,1.7,1.2,1.3*3A
2017-12-29 11:02:31 1514563351.435265: $GPZDA,160232.00,29,12,2017,00,00*6E
2017-12-29 11:02:31 1514563351.435432: $GPGGA,160232,3946.9604,N,08404.9843,W,2,11,1.00,298.47,M,-33.324,M,,*73
2017-12-29 11:02:31 1514563351.435499: $GPRMC,160232,A,3946.9604,N,08404.9843,W,0.0000,0.000,291217,,*38
2017-12-29 11:02:31 1514563351.435559: $GPGSA,A,3,10,13,15,18,20,21,24,27,32,8,138,,1.7,1.0,1.3*38
2017-12-29 11:02:32 1514563352.770765: $GPGSV,3,1,11,10,37,297,43,13,13,046,34,15,43,051,50,18,67,325,45*7F
2017-12-29 11:02:32 1514563352.770939: $GPGSV,3,2,11,20,39,090,50,21,70,196,47,24,47,120,49,27,19,295,38*76
2017-12-29 11:02:32 1514563352.771006: $GPGSV,3,3,11,32,16,234,36,08,03,328,26,138,38,213,46*7A
2017-12-29 11:02:32 1514563352.884512: $GPZDA,160233.00,29,12,2017,00,00*6F
2017-12-29 11:02:32 1514563352.884644: $GPGGA,160233,3946.9604,N,08404.9843,W,2,11,1.00,298.47,M,-33.324,M,,*72
2017-12-29 11:02:32 1514563352.884707: $GPRMC,160233,A,3946.9604,N,08404.9843,W,0.0000,0.000,291217,,*39
2017-12-29 11:02:32 1514563352.884767: $GPGSA,A,3,10,13,15,18,20,21,24,27,32,8,138,,1.7,1.0,1.3*38
2017-12-29 11:02:33 1514563353.432462: $GPZDA,160234.00,29,12,2017,00,00*68
2017-12-29 11:02:33 1514563353.432615: $GPGGA,160234,3946.9604,N,08404.9843,W,2,11,1.00,298.47,M,-33.324,M,,*75
2017-12-29 11:02:33 1514563353.432681: $GPRMC,160234,A,3946.9604,N,08404.9843,W,0.4207,219.346,291217,,*34
2017-12-29 11:02:33 1514563353.432741: $GPGSA,A,3,10,13,15,18,20,21,24,27,32,8,138,,1.7,1.0,1.3*38
2017-12-29 11:02:34 1514563354.432148: $GPZDA,160235.00,29,12,2017,00,00*69
2017-12-29 11:02:34 1514563354.434880: $GPGGA,160235,3946.9604,N,08404.9843,W,2,11,1.00,298.47,M,-33.324,M,,*74
2017-12-29 11:02:34 1514563354.434984: $GPRMC,160235,A,3946.9604,N,08404.9843,W,0.0000,0.000,291217,,*3F
2017-12-29 11:02:34 1514563354.435047: $GPGSA,A,3,10,13,15,18,20,21,24,27,32,8,138,,1.7,1.0,1.3*38
2017-12-29 11:02:35 1514563355.766657: $GPGSV,3,1,11,10,37,297,43,13,13,046,33,15,43,051,49,18,67,325,44*71
2017-12-29 11:02:35 1514563355.766810: $GPGSV,3,2,11,20,39,090,49,21,70,196,46,24,47,120,48,27,19,295,36*70
2017-12-29 11:02:35 1514563355.766874: $GPGSV,3,3,11,32,16,234,35,08,03,328,26,138,38,213,45*7A
2017-12-29 11:02:35 1514563355.879953: $GPZDA,160236.00,29,12,2017,00,00*6A
2017-12-29 11:02:35 1514563355.880094: $GPGGA,160236,3946.9600,N,08404.9836,W,2,11,1.00,297.91,M,-33.324,M,,*75
2017-12-29 11:02:35 1514563355.880160: $GPRMC,160236,A,3946.9600,N,08404.9836,W,0.2422,93.794,291217,,*0C
2017-12-29 11:02:35 1514563355.880271: $GPGSA,A,3,10,13,15,18,20,21,24,27,32,8,138,,1.7,1.0,1.3*38
2017-12-29 11:02:36 1514563356.505256: $GPZDA,160237.00,29,12,2017,00,00*6B
2017-12-29 11:02:36 1514563356.505401: $GPGGA,160237,3946.9600,N,08404.9836,W,2,11,1.00,297.91,M,-33.324,M,,*74
2017-12-29 11:02:36 1514563356.505467: $GPRMC,160237,A,3946.9600,N,08404.9836,W,0.0000,0.000,291217,,*3B
2017-12-29 11:02:36 1514563356.505528: $GPGSA,A,3,10,13,15,18,20,21,24,27,32,8,138,,1.7,1.0,1.3*38
2017-12-29 11:02:37 1514563357.435399: $GPZDA,160238.00,29,12,2017,00,00*64
2017-12-29 11:02:37 1514563357.435557: $GPGGA,160238,3946.9600,N,08404.9836,W,2,11,1.00,297.91,M,-33.324,M,,*7B
2017-12-29 11:02:37 1514563357.435624: $GPRMC,160238,A,3946.9600,N,08404.9836,W,0.0000,0.000,291217,,*34
2017-12-29 11:02:37 1514563357.435684: $GPGSA,A,3,10,13,15,18,20,21,24,27,32,8,138,,1.7,1.0,1.3*38
2017-12-29 11:02:38 1514563358.770829: $GPGSV,3,1,11,10,37,297,43,13,13,046,33,15,43,051,49,18,67,325,44*71
2017-12-29 11:02:38 1514563358.771001: $GPGSV,3,2,11,20,39,090,49,21,70,196,46,24,47,120,48,27,19,295,36*70
2017-12-29 11:02:38 1514563358.771121: $GPGSV,3,3,11,32,16,234,35,08,03,328,27,138,38,213,44*7A
2017-12-29 11:02:38 1514563358.884660: $GPZDA,160239.00,29,12,2017,00,00*65
2017-12-29 11:02:38 1514563358.884798: $GPGGA,160239,3946.9600,N,08404.9836,W,2,11,1.00,297.91,M,-33.324,M,,*7A
2017-12-29 11:02:38 1514563358.884865: $GPRMC,160239,A,3946.9600,N,08404.9836,W,0.0000,0.000,291217,,*35
2017-12-29 11:02:38 1514563358.884925: $GPGSA,A,3,10,13,15,18,20,21,24,27,32,8,138,,1.7,1.0,1.3*38
2017-12-29 11:02:39 1514563359.431604: $GPZDA,160240.00,29,12,2017,00,00*6B
2017-12-29 11:02:39 1514563359.434808: $GPGGA,160240,3946.9600,N,08404.9836,W,2,11,1.00,297.91,M,-33.324,M,,*74
2017-12-29 11:02:39 1514563359.434913: $GPRMC,160240,A,3946.9600,N,08404.9836,W,0.0000,0.000,291217,,*3B
2017-12-29 11:02:39 1514563359.434976: $GPGSA,A,3,10,13,15,18,20,21,24,27,32,8,138,,1.7,1.0,1.3*38
2017-12-29 11:02:40 1514563360.433589: $GPZDA,160241.00,29,12,2017,00,00*6A
2017-12-29 11:02:40 1514563360.433762: $GPGGA,160241,3946.9600,N,08404.9836,W,2,11,1.00,297.91,M,-33.324,M,,*75
2017-12-29 11:02:40 1514563360.433830: $GPRMC,160241,A,3946.9600,N,08404.9836,W,0.0000,0.000,291217,,*3A
2017-12-29 11:02:40 1514563360.433892: $GPGSA,A,3,10,13,15,18,20,21,24,27,32,8,138,,1.7,1.0,1.3*38
2017-12-29 11:02:40 1514563360.433950: $GPGBS,160241,2.73,M,2.59,M,7.72,M*34
