2017-11-16 14:10:58 1510859458.205438: {"class":"VERSION","release":"3.17","rev":"3.17","proto_major":3,"proto_minor":12}
2017-11-16 14:10:58 1510859458.205910: {"class":"DEVICES","devices":[{"class":"DEVICE","path":"/dev/ttyUSB0","driver":"SiRF","subtype":"9\u0006GSD4e_4.1.2-P1_RPATCH.05-F-GPS-4R-1510281 11/03/2015 307","activated":"2017-11-16T19:10:58.146Z","flags":1,"native":1,"bps":4800,"parity":"N","stopbits":1,"cycle":1.00}]}
2017-11-16 14:10:58 1510859458.206029: {"class":"WATCH","enable":true,"json":false,"nmea":true,"raw":0,"scaled":false,"timing":false,"split24":false,"pps":false}
2017-11-16 14:10:58 1510859458.556655: $GPZDA,191057.00,16,11,2017,00,00*6E
2017-11-16 14:10:58 1510859458.556825: $GPGGA,191057,3946.9546,N,08404.9852,W,2,11,0.80,305.08,M,-33.324,M,,*7E
2017-11-16 14:10:58 1510859458.556907: $GPRMC,191057,A,3946.9546,N,08404.9852,W,0.0000,0.000,161117,,*3D
2017-11-16 14:10:58 1510859458.556987: $GPGSA,A,3,8,10,13,15,18,21,20,24,27,32,138,,1.6,0.8,1.3*30
2017-11-16 14:10:59 1510859459.528054: $GPZDA,191058.00,16,11,2017,00,00*61
2017-11-16 14:10:59 1510859459.528218: $GPGGA,191058,3946.9546,N,08404.9852,W,2,11,0.80,305.08,M,-33.324,M,,*71
2017-11-16 14:10:59 1510859459.528279: $GPRMC,191058,A,3946.9546,N,08404.9852,W,0.0000,0.000,161117,,*32
2017-11-16 14:10:59 1510859459.528335: $GPGSA,A,3,8,10,13,15,18,21,20,24,27,32,138,,1.6,0.8,1.3*30
2017-11-16 14:11:00 1510859460.895122: $GPGSV,3,1,12,08,05,324,36,10,40,300,44,13,09,048,31,15,39,052,50*7A
2017-11-16 14:11:00 1510859460.895285: $GPGSV,3,2,12,18,70,331,47,21,66,192,46,20,34,094,46,24,50,114,47*72
2017-11-16 14:11:00 1510859460.895347: $GPGSV,3,3,12,27,19,291,38,32,19,237,46,14,03,231,00,138,38,213,45*4D
2017-11-16 14:11:01 1510859461.007234: $GPZDA,191059.00,16,11,2017,00,00*60
2017-11-16 14:11:01 1510859461.007409: $GPGGA,191059,3946.9546,N,08404.9852,W,2,11,0.80,305.08,M,-33.324,M,,*70
2017-11-16 14:11:01 1510859461.007472: $GPRMC,191059,A,3946.9546,N,08404.9852,W,0.0000,0.000,161117,,*33
2017-11-16 14:11:01 1510859461.007528: $GPGSA,A,3,8,10,13,15,18,21,20,24,27,32,138,,1.6,0.8,1.3*30
2017-11-16 14:11:01 1510859461.556875: $GPZDA,191100.00,16,11,2017,00,00*6D
2017-11-16 14:11:01 1510859461.557058: $GPGGA,191100,3946.9546,N,08404.9852,W,2,11,0.80,305.08,M,-33.324,M,,*7D
2017-11-16 14:11:01 1510859461.557123: $GPRMC,191100,A,3946.9546,N,08404.9852,W,0.0000,0.000,161117,,*3E
2017-11-16 14:11:01 1510859461.557180: $GPGSA,A,3,8,10,13,15,18,21,20,24,27,32,138,,1.6,0.8,1.3*30
2017-11-16 14:11:02 1510859462.556436: $GPZDA,191101.00,16,11,2017,00,00*6C
2017-11-16 14:11:02 1510859462.556613: $GPGGA,191101,3946.9546,N,08404.9852,W,2,11,0.80,305.08,M,-33.324,M,,*7C
2017-11-16 14:11:02 1510859462.556676: $GPRMC,191101,A,3946.9546,N,08404.9852,W,0.0000,0.000,161117,,*3F
2017-11-16 14:11:02 1510859462.556733: $GPGSA,A,3,8,10,13,15,18,21,20,24,27,32,138,,1.6,0.8,1.3*30
2017-11-16 14:11:03 1510859463.892267: $GPGSV,3,1,12,08,05,324,36,10,40,300,44,13,09,048,31,15,39,052,50*7A
2017-11-16 14:11:03 1510859463.892435: $GPGSV,3,2,12,18,70,331,47,21,66,192,46,20,34,094,45,24,50,114,47*71
2017-11-16 14:11:03 1510859463.892496: $GPGSV,3,3,12,27,19,291,37,32,19,237,45,14,03,231,00,138,38,213,44*40
2017-11-16 14:11:04 1510859464.005665: $GPZDA,191102.00,16,11,2017,00,00*6F
2017-11-16 14:11:04 1510859464.005826: $GPGGA,191102,3946.9546,N,08404.9852,W,2,11,0.80,305.08,M,-33.324,M,,*7F
2017-11-16 14:11:04 1510859464.005887: $GPRMC,191102,A,3946.9546,N,08404.9852,W,0.0000,0.000,161117,,*3C
2017-11-16 14:11:04 1510859464.005943: $GPGSA,A,3,8,10,13,15,18,21,20,24,27,32,138,,1.6,0.8,1.3*30
2017-11-16 14:11:04 1510859464.631650: $GPZDA,191103.00,16,11,2017,00,00*6E
2017-11-16 14:11:04 1510859464.631814: $GPGGA,191103,3946.9546,N,08404.9852,W,2,11,0.80,305.08,M,-33.324,M,,*7E
2017-11-16 14:11:04 1510859464.631876: $GPRMC,191103,A,3946.9546,N,08404.9852,W,0.0000,0.000,161117,,*3D
2017-11-16 14:11:04 1510859464.631932: $GPGSA,A,3,8,10,13,15,18,21,20,24,27,32,138,,1.6,0.8,1.3*30
2017-11-16 14:11:05 1510859465.529282: $GPZDA,191104.00,16,11,2017,00,00*69
2017-11-16 14:11:05 1510859465.529563: $GPGGA,191104,3946.9546,N,08404.9852,W,1,11,0.80,305.08,M,-33.324,M,,*7A
2017-11-16 14:11:05 1510859465.529627: $GPRMC,191104,A,3946.9546,N,08404.9852,W,0.0000,0.000,161117,,*3A
2017-11-16 14:11:05 1510859465.529683: $GPGSA,A,3,8,10,13,15,18,21,20,24,27,32,138,,1.6,0.8,1.3*30
