2017-12-14 12:37:26 1513273046.097334: {"class":"VERSION","release":"3.16","rev":"3.16-4","proto_major":3,"proto_minor":11}
2017-12-14 12:37:26 1513273046.097728: {"class":"DEVICES","devices":[{"class":"DEVICE","path":"/dev/ttyUSB0","driver":"SiRF","subtype":"9\u0006GSD4e_4.1.2-P1_RPATCH.05-F-GPS-4R-1510281 11/03/2015 307","activated":"2017-12-14T17:37:25.684Z","flags":1,"native":1,"bps":4800,"parity":"N","stopbits":1,"cycle":1.00}]}
2017-12-14 12:37:26 1513273046.097843: {"class":"WATCH","enable":true,"json":false,"nmea":true,"raw":0,"scaled":false,"timing":false,"split24":false,"pps":false}
2017-12-14 12:37:26 1513273046.373250: $GPZDA,173727.00,14,12,2017,00,00*63
2017-12-14 12:37:26 1513273046.373419: $GPGGA,173727,3946.9483,N,08404.9136,W,1,07,1.40,337.89,M,-33.324,M,,*70
2017-12-14 12:37:26 1513273046.373485: $GPRMC,173727,A,3946.9483,N,08404.9136,W,0.2202,353.468,141217,,*3E
2017-12-14 12:37:26 1513273046.373546: $GPGSA,A,3,10,18,21,24,32,15,20,,,,,,6.6,1.4,6.2*39
2017-12-14 12:37:27 1513273047.706000: $GPGSV,3,1,12,10,48,307,16,18,76,003,16,21,53,183,21,24,53,096,21*7A
2017-12-14 12:37:27 1513273047.710348: $GPGSV,3,2,12,32,28,244,17,15,30,055,09,20,27,102,17,27,17,280,00*71
2017-12-14 12:37:27 1513273047.710453: $GPGSV,3,3,12,14,10,237,00,08,07,315,00,13,01,051,00,138,38,213,00*46
2017-12-14 12:37:27 1513273047.818132: $GPZDA,173728.00,14,12,2017,00,00*6C
2017-12-14 12:37:27 1513273047.818273: $GPGGA,173728,3946.9494,N,08404.9135,W,1,07,1.40,337.01,M,-33.324,M,,*7A
2017-12-14 12:37:27 1513273047.818338: $GPRMC,173728,A,3946.9494,N,08404.9135,W,0.4315,34.066,141217,,*0D
2017-12-14 12:37:27 1513273047.818398: $GPGSA,A,3,10,18,21,24,32,15,20,,,,,,6.6,1.4,6.2*39
2017-12-14 12:37:28 1513273048.370451: $GPZDA,173729.00,14,12,2017,00,00*6D
2017-12-14 12:37:28 1513273048.370649: $GPGGA,173729,3946.9501,N,08404.9134,W,1,07,2.40,335.48,M,-33.324,M,,*7B
2017-12-14 12:37:28 1513273048.370717: $GPRMC,173729,A,3946.9501,N,08404.9134,W,1.2981,49.824,141217,,*04
2017-12-14 12:37:28 1513273048.370777: $GPGSA,A,3,10,18,21,24,32,15,20,,,,,,6.6,2.4,6.2*3A
2017-12-14 12:37:29 1513273049.369901: $GPZDA,173730.00,14,12,2017,00,00*65
2017-12-14 12:37:29 1513273049.370138: $GPGGA,173730,3946.9504,N,08404.9126,W,1,07,2.40,334.79,M,-33.324,M,,*76
2017-12-14 12:37:29 1513273049.370206: $GPRMC,173730,A,3946.9504,N,08404.9126,W,1.1294,43.342,141217,,*07
2017-12-14 12:37:29 1513273049.370266: $GPGSA,A,3,10,18,21,24,32,15,20,,,,,,6.6,2.4,6.2*3A
2017-12-14 12:37:30 1513273050.705612: $GPGSV,3,1,12,10,48,307,15,18,76,003,16,21,53,183,21,24,53,096,21*79
2017-12-14 12:37:30 1513273050.705787: $GPGSV,3,2,12,32,28,244,17,15,30,055,04,20,27,102,17,27,17,280,00*7C
2017-12-14 12:37:30 1513273050.705853: $GPGSV,3,3,12,14,10,237,00,08,07,315,00,13,01,051,00,138,38,213,00*46
2017-12-14 12:37:30 1513273050.819334: $GPZDA,173731.00,14,12,2017,00,00*64
2017-12-14 12:37:30 1513273050.819498: $GPGGA,173731,3946.9504,N,08404.9126,W,1,06,2.40,334.79,M,-33.324,M,,*76
2017-12-14 12:37:30 1513273050.819563: $GPRMC,173731,A,3946.9504,N,08404.9126,W,1.1294,43.342,141217,,*06
2017-12-14 12:37:30 1513273050.819623: $GPGSA,A,3,10,18,21,24,32,20,,,,,,,6.6,2.4,6.2*3E
2017-12-14 12:37:31 1513273051.444823: $GPZDA,173732.00,14,12,2017,00,00*67
2017-12-14 12:37:31 1513273051.445000: $GPGGA,173732,3946.9500,N,08404.9120,W,1,06,2.40,335.64,M,-33.324,M,,*7A
2017-12-14 12:37:31 1513273051.445084: $GPRMC,173732,A,3946.9500,N,08404.9120,W,1.0950,64.929,141217,,*07
2017-12-14 12:37:31 1513273051.445146: $GPGSA,A,3,10,18,21,24,32,20,,,,,,,6.6,2.4,6.2*3E
2017-12-14 12:37:32 1513273052.370397: $GPZDA,173733.00,14,12,2017,00,00*66
2017-12-14 12:37:32 1513273052.370559: $GPGGA,173733,3946.9504,N,08404.9119,W,1,06,2.40,334.87,M,-33.324,M,,*79
2017-12-14 12:37:32 1513273052.370625: $GPRMC,173733,A,3946.9504,N,08404.9119,W,0.8905,57.384,141217,,*0C
2017-12-14 12:37:32 1513273052.370685: $GPGSA,A,3,10,18,21,24,32,20,,,,,,,6.6,2.4,6.2*3E
2017-12-14 12:37:33 1513273053.706005: $GPGSV,3,1,12,10,48,307,15,18,76,003,16,21,53,183,21,24,53,096,21*79
2017-12-14 12:37:34 1513273054.013260: $GPGSV,3,2,12,32,28,244,17,15,30,055,04,20,27,102,18,27,17,280,00*73
2017-12-14 12:37:34 1513273054.013458: $GPGSV,3,3,12,14,10,237,00,08,07,315,00,13,01,051,00,138,38,213,00*46
2017-12-14 12:37:34 1513273054.013559: $GPZDA,173734.00,14,12,2017,00,00*61
2017-12-14 12:37:34 1513273054.013616: $GPGGA,173734,3946.9500,N,08404.9119,W,1,06,2.40,334.23,M,-33.324,M,,*74
2017-12-14 12:37:34 1513273054.013678: $GPRMC,173734,A,3946.9500,N,08404.9119,W,0.7266,93.795,141217,,*02
2017-12-14 12:37:34 1513273054.013757: $GPGSA,A,3,10,18,21,24,32,20,,,,,,,6.6,2.4,6.2*3E
2017-12-14 12:37:34 1513273054.370310: $GPZDA,173735.00,14,12,2017,00,00*60
2017-12-14 12:37:34 1513273054.370475: $GPGGA,173735,3946.9492,N,08404.9113,W,1,06,2.40,334.44,M,-33.324,M,,*74
2017-12-14 12:37:34 1513273054.370540: $GPRMC,173735,A,3946.9492,N,08404.9113,W,0.8011,119.091,141217,,*3E
2017-12-14 12:37:34 1513273054.370601: $GPGSA,A,3,10,18,21,24,32,20,,,,,,,6.6,2.4,6.2*3E
2017-12-14 12:37:35 1513273055.369867: $GPZDA,173736.00,14,12,2017,00,00*63
2017-12-14 12:37:35 1513273055.370081: $GPGGA,173736,3946.9491,N,08404.9106,W,1,06,2.40,334.51,M,-33.324,M,,*74
2017-12-14 12:37:35 1513273055.370149: $GPRMC,173736,A,3946.9491,N,08404.9106,W,1.0253,113.297,141217,,*39
2017-12-14 12:37:35 1513273055.370209: $GPGSA,A,3,10,18,21,24,32,20,,,,,,,6.6,2.4,6.2*3E
2017-12-14 12:37:36 1513273056.707586: $GPGSV,3,1,12,10,48,307,11,18,76,003,16,21,53,183,21,24,53,096,21*7D
2017-12-14 12:37:36 1513273056.707759: $GPGSV,3,2,12,32,28,244,17,15,30,055,04,20,27,102,18,27,17,280,00*73
2017-12-14 12:37:36 1513273056.707824: $GPGSV,3,3,12,14,10,237,00,08,07,315,00,13,01,051,00,138,38,213,00*46
2017-12-14 12:37:36 1513273056.820987: $GPZDA,173737.00,14,12,2017,00,00*62
2017-12-14 12:37:36 1513273056.821177: $GPGGA,173737,3946.9477,N,08404.9108,W,1,06,2.40,336.17,M,-33.324,M,,*73
2017-12-14 12:37:36 1513273056.821243: $GPRMC,173737,A,3946.9477,N,08404.9108,W,1.6717,148.779,141217,,*36
2017-12-14 12:37:36 1513273056.821304: $GPGSA,A,3,10,18,21,24,32,20,,,,,,,6.6,2.4,6.2*3E
2017-12-14 12:37:37 1513273057.370857: $GPZDA,173738.00,14,12,2017,00,00*6D
2017-12-14 12:37:37 1513273057.371054: $GPGGA,173738,3946.9469,N,08404.9109,W,1,06,2.40,336.29,M,-33.324,M,,*7F
2017-12-14 12:37:37 1513273057.371123: $GPRMC,173738,A,3946.9469,N,08404.9109,W,1.8340,151.804,141217,,*32
2017-12-14 12:37:37 1513273057.371184: $GPGSA,A,3,10,18,21,24,32,20,,,,,,,6.6,2.4,6.2*3E
2017-12-14 12:37:38 1513273058.370398: $GPZDA,173739.00,14,12,2017,00,00*6C
2017-12-14 12:37:38 1513273058.370727: $GPGGA,173739,3946.9466,N,08404.9109,W,1,06,2.40,337.06,M,-33.324,M,,*7D
2017-12-14 12:37:38 1513273058.370906: $GPRMC,173739,A,3946.9466,N,08404.9109,W,1.2381,172.270,141217,,*33
2017-12-14 12:37:38 1513273058.371011: $GPGSA,A,3,10,18,21,24,32,20,,,,,,,6.6,2.4,6.2*3E
2017-12-14 12:37:39 1513273059.705971: $GPGSV,3,1,12,10,48,307,12,18,76,003,15,21,53,183,21,24,53,096,21*7D
2017-12-14 12:37:39 1513273059.706163: $GPGSV,3,2,12,32,28,244,17,15,30,055,04,20,27,102,18,27,17,280,00*73
2017-12-14 12:37:39 1513273059.706229: $GPGSV,3,3,12,14,10,237,00,08,07,315,00,13,01,051,00,138,38,213,00*46
2017-12-14 12:37:39 1513273059.819343: $GPZDA,173740.00,14,12,2017,00,00*62
2017-12-14 12:37:39 1513273059.819533: $GPGGA,173740,3946.9462,N,08404.9110,W,1,06,2.40,337.82,M,-33.324,M,,*73
2017-12-14 12:37:39 1513273059.819601: $GPRMC,173740,A,3946.9462,N,08404.9110,W,1.3888,174.153,141217,,*36
2017-12-14 12:37:39 1513273059.819662: $GPGSA,A,3,10,18,21,24,32,20,,,,,,,6.6,2.4,6.2*3E
2017-12-14 12:37:40 1513273060.370310: $GPZDA,173741.00,14,12,2017,00,00*63
2017-12-14 12:37:40 1513273060.370483: $GPGGA,173741,3946.9451,N,08404.9111,W,1,06,2.40,338.71,M,-33.324,M,,*70
2017-12-14 12:37:40 1513273060.370549: $GPRMC,173741,A,3946.9451,N,08404.9111,W,1.5555,183.694,141217,,*39
2017-12-14 12:37:40 1513273060.370610: $GPGSA,A,3,10,18,21,24,32,20,,,,,,,6.6,2.4,6.2*3E
2017-12-14 12:37:41 1513273061.369346: $GPZDA,173742.00,14,12,2017,00,00*60
2017-12-14 12:37:41 1513273061.369515: $GPGGA,173742,3946.9448,N,08404.9119,W,1,06,2.40,339.40,M,-33.324,M,,*70
2017-12-14 12:37:41 1513273061.369642: $GPRMC,173742,A,3946.9448,N,08404.9119,W,1.3044,205.352,141217,,*3B
2017-12-14 12:37:41 1513273061.369705: $GPGSA,A,3,10,18,21,24,32,20,,,,,,,6.6,2.4,6.2*3E
2017-12-14 12:37:42 1513273062.706310: $GPGSV,3,1,12,10,48,307,12,18,76,003,15,21,53,183,21,24,53,096,21*7D
2017-12-14 12:37:42 1513273062.706488: $GPGSV,3,2,12,32,28,244,17,15,30,055,04,20,27,102,19,27,17,280,00*72
2017-12-14 12:37:42 1513273062.706554: $GPGSV,3,3,12,14,10,237,00,08,07,315,00,13,01,051,00,138,38,213,00*46
2017-12-14 12:37:42 1513273062.819835: $GPZDA,173743.00,14,12,2017,00,00*61
2017-12-14 12:37:42 1513273062.820070: $GPGGA,173743,3946.9441,N,08404.9120,W,1,06,2.40,339.52,M,-33.324,M,,*71
2017-12-14 12:37:42 1513273062.820168: $GPRMC,173743,A,3946.9441,N,08404.9120,W,1.3044,205.352,141217,,*39
2017-12-14 12:37:42 1513273062.820232: $GPGSA,A,3,10,18,21,24,32,20,,,,,,,6.6,2.4,6.2*3E
2017-12-14 12:37:43 1513273063.370582: $GPZDA,173744.00,14,12,2017,00,00*66
2017-12-14 12:37:43 1513273063.370749: $GPGGA,173744,3946.9433,N,08404.9128,W,1,06,2.40,339.56,M,-33.324,M,,*7F
2017-12-14 12:37:43 1513273063.370815: $GPRMC,173744,A,3946.9433,N,08404.9128,W,1.9697,221.636,141217,,*30
2017-12-14 12:37:43 1513273063.370900: $GPGSA,A,3,10,18,21,24,32,20,,,,,,,6.6,2.4,6.2*3E
2017-12-14 12:37:44 1513273064.370457: $GPZDA,173745.00,14,12,2017,00,00*67
2017-12-14 12:37:44 1513273064.370612: $GPGGA,173745,3946.9434,N,08404.9134,W,1,06,2.40,339.49,M,-33.324,M,,*7A
2017-12-14 12:37:44 1513273064.370678: $GPRMC,173745,A,3946.9434,N,08404.9134,W,1.8343,225.515,141217,,*30
2017-12-14 12:37:44 1513273064.370738: $GPGSA,A,3,10,18,21,24,32,20,,,,,,,6.6,2.4,6.2*3E
2017-12-14 12:37:45 1513273065.705935: $GPGSV,3,1,12,10,48,307,12,18,76,003,14,21,53,183,20,24,53,096,21*7D
2017-12-14 12:37:45 1513273065.706107: $GPGSV,3,2,12,32,28,244,17,15,30,055,10,20,27,102,19,13,01,051,07*7E
2017-12-14 12:37:45 1513273065.706172: $GPGSV,3,3,12,27,17,280,00,14,10,237,00,08,07,315,00,138,38,213,00*48
2017-12-14 12:37:45 1513273065.819578: $GPZDA,173746.00,14,12,2017,00,00*64
2017-12-14 12:37:45 1513273065.819744: $GPGGA,173746,3946.9426,N,08404.9135,W,1,07,1.40,339.61,M,-33.324,M,,*73
2017-12-14 12:37:45 1513273065.819808: $GPRMC,173746,A,3946.9426,N,08404.9135,W,1.1385,209.380,141217,,*36
2017-12-14 12:37:45 1513273065.819892: $GPGSA,A,3,10,18,21,24,32,15,20,,,,,,6.6,1.4,6.2*39
