2017-12-14 12:28:24 1513272504.763191: {"class":"VERSION","release":"3.16","rev":"3.16-4","proto_major":3,"proto_minor":11}
2017-12-14 12:28:24 1513272504.763582: {"class":"DEVICES","devices":[{"class":"DEVICE","path":"/dev/ttyUSB0","driver":"SiRF","subtype":"9\u0006GSD4e_4.1.2-P1_RPATCH.05-F-GPS-4R-1510281 11/03/2015 307","activated":"2017-12-14T17:28:24.337Z","flags":1,"native":1,"bps":4800,"parity":"N","stopbits":1,"cycle":1.00}]}
2017-12-14 12:28:24 1513272504.763697: {"class":"WATCH","enable":true,"json":false,"nmea":true,"raw":0,"scaled":false,"timing":false,"split24":false,"pps":false}
2017-12-14 12:28:25 1513272505.180477: $GPRMC,172826,V,3946.9472,N,08404.9383,W,1.3044,205.352,141217,,*28
2017-12-14 12:28:25 1513272505.180624: $GPGSA,A,1,24,10,20,21,27,,,,,,,,,,,*31
2017-12-14 12:28:26 1513272506.534096: $GPGSV,3,1,12,24,52,103,26,10,45,304,23,15,33,054,00,20,31,099,23*7D
2017-12-14 12:28:26 1513272506.534322: $GPGSV,3,2,12,21,58,186,26,32,25,241,05,27,18,285,09,18,74,349,04*70
2017-12-14 12:28:26 1513272506.534389: $GPGSV,3,3,12,14,07,234,00,08,07,319,00,13,04,049,00,120,07,103,00*44
2017-12-14 12:28:26 1513272506.646336: $GPRMC,172827,V,3946.9468,N,08404.9390,W,1.9585,198.105,141217,,*25
2017-12-14 12:28:26 1513272506.646522: $GPGSA,A,1,24,10,20,21,27,,,,,,,,,,,*31
2017-12-14 12:28:27 1513272507.198473: $GPRMC,172828,V,3946.9461,N,08404.9390,W,1.7302,192.244,141217,,*28
2017-12-14 12:28:27 1513272507.198621: $GPGSA,A,1,24,10,20,21,27,,,,,,,,,,,*31
2017-12-14 12:28:28 1513272508.197341: $GPRMC,172829,V,3946.9449,N,08404.9391,W,2.2400,183.847,141217,,*28
2017-12-14 12:28:28 1513272508.197529: $GPGSA,A,1,24,10,20,21,27,,,,,,,,,,,*31
2017-12-14 12:28:29 1513272509.534607: $GPGSV,3,1,12,24,52,103,26,10,45,304,22,13,04,049,15,20,31,099,24*71
2017-12-14 12:28:29 1513272509.534759: $GPGSV,3,2,12,21,58,186,26,32,25,241,06,27,18,285,08,18,74,349,05*73
2017-12-14 12:28:29 1513272509.534824: $GPGSV,3,3,12,15,33,054,00,14,07,234,00,08,07,319,00,120,07,103,00*4A
2017-12-14 12:28:29 1513272509.646876: $GPRMC,172830,V,3946.9442,N,08404.9399,W,2.4099,189.965,141217,,*2A
2017-12-14 12:28:29 1513272509.646978: $GPGSA,A,1,24,10,20,21,27,,,,,,,,,,,*31
2017-12-14 12:28:30 1513272510.197137: $GPRMC,172831,V,3946.9434,N,08404.9400,W,2.1134,197.448,141217,,*23
2017-12-14 12:28:30 1513272510.197493: $GPGSA,A,1,24,10,20,21,27,,,,,,,,,,,*31
2017-12-14 12:28:31 1513272511.198248: $GPZDA,172832.00,14,12,2017,00,00*69
2017-12-14 12:28:31 1513272511.198445: $GPGGA,172832,3946.9422,N,08404.9400,W,1,05,6.60,284.20,M,-33.324,M,,*7C
2017-12-14 12:28:31 1513272511.198513: $GPRMC,172832,A,3946.9422,N,08404.9400,W,2.2533,190.018,141217,,*36
2017-12-14 12:28:31 1513272511.198575: $GPGSA,A,3,24,10,20,21,27,,,,,,,,6.6,6.6,6.2*35
2017-12-14 12:28:31 1513272511.198631: $GPGBS,172832,24.66,M,21.80,M,143.40,M*3C
2017-12-14 12:28:32 1513272512.517713: $GPGSV,3,1,12,24,52,103,26,10,45,304,23,15,33,054,00,20,31,099,24*7A
2017-12-14 12:28:32 1513272512.517886: $GPGSV,3,2,12,21,58,186,26,32,25,241,05,27,18,285,09,18,74,349,06*72
2017-12-14 12:28:32 1513272512.517951: $GPGSV,3,3,12,14,07,234,00,08,07,319,00,13,04,049,00,120,07,103,00*44
2017-12-14 12:28:32 1513272512.631107: $GPZDA,172833.00,14,12,2017,00,00*68
2017-12-14 12:28:32 1513272512.631326: $GPGGA,172833,3946.9415,N,08404.9408,W,1,05,6.60,284.25,M,-33.324,M,,*74
2017-12-14 12:28:32 1513272512.631412: $GPRMC,172833,A,3946.9415,N,08404.9408,W,2.1134,197.448,141217,,*3D
2017-12-14 12:28:32 1513272512.631475: $GPGSA,A,3,24,10,20,21,27,,,,,,,,6.6,6.6,6.2*35
2017-12-14 12:28:33 1513272513.198723: $GPZDA,172834.00,14,12,2017,00,00*6F
2017-12-14 12:28:33 1513272513.198878: $GPGGA,172834,3946.9408,N,08404.9409,W,1,05,6.60,284.37,M,-33.324,M,,*7D
2017-12-14 12:28:33 1513272513.198944: $GPRMC,172834,A,3946.9408,N,08404.9409,W,1.3692,184.197,141217,,*38
2017-12-14 12:28:33 1513272513.199005: $GPGSA,A,3,24,10,20,21,27,,,,,,,,6.6,6.6,6.2*35
2017-12-14 12:28:34 1513272514.200089: $GPZDA,172835.00,14,12,2017,00,00*6E
2017-12-14 12:28:34 1513272514.200275: $GPGGA,172835,3946.9400,N,08404.9409,W,1,05,6.60,284.49,M,-33.324,M,,*7D
2017-12-14 12:28:34 1513272514.200410: $GPRMC,172835,A,3946.9400,N,08404.9409,W,1.7302,192.244,141217,,*33
2017-12-14 12:28:34 1513272514.200474: $GPGSA,A,3,24,10,20,21,27,,,,,,,,6.6,6.6,6.2*35
2017-12-14 12:28:35 1513272515.538830: $GPGSV,3,1,12,24,52,103,26,10,45,304,22,13,04,049,15,20,31,099,24*71
2017-12-14 12:28:35 1513272515.539009: $GPGSV,3,2,12,21,58,186,26,32,25,241,09,27,18,285,10,18,74,349,07*77
2017-12-14 12:28:35 1513272515.539074: $GPGSV,3,3,12,15,33,054,15,14,07,234,00,08,07,319,00,120,07,103,00*4E
2017-12-14 12:28:35 1513272515.652649: $GPZDA,172836.00,14,12,2017,00,00*6D
2017-12-14 12:28:35 1513272515.652799: $GPGGA,172836,3946.9400,N,08404.9416,W,1,07,1.60,284.42,M,-33.324,M,,*7E
2017-12-14 12:28:35 1513272515.652864: $GPRMC,172836,A,3946.9400,N,08404.9416,W,0.7070,228.986,141217,,*3E
2017-12-14 12:28:35 1513272515.652924: $GPGSA,A,3,24,10,20,21,32,27,18,,,,,,6.6,1.6,6.2*3A
2017-12-14 12:28:36 1513272516.186416: $GPZDA,172837.00,14,12,2017,00,00*6C
2017-12-14 12:28:36 1513272516.186574: $GPGGA,172837,3946.9401,N,08404.9417,W,1,07,1.60,285.82,M,-33.324,M,,*72
2017-12-14 12:28:36 1513272516.186641: $GPRMC,172837,A,3946.9401,N,08404.9417,W,0.2710,280.224,141217,,*3A
2017-12-14 12:28:36 1513272516.186701: $GPGSA,A,3,24,10,20,21,32,27,18,,,,,,6.6,1.6,6.2*3A
2017-12-14 12:28:37 1513272517.286461: $GPZDA,172838.00,14,12,2017,00,00*63
2017-12-14 12:28:37 1513272517.286630: $GPGGA,172838,3946.9405,N,08404.9417,W,1,07,1.60,286.46,M,-33.324,M,,*72
2017-12-14 12:28:37 1513272517.286697: $GPRMC,172838,A,3946.9405,N,08404.9417,W,0.4584,328.179,141217,,*30
2017-12-14 12:28:37 1513272517.286758: $GPGSA,A,3,24,10,20,21,32,27,18,,,,,,6.6,1.6,6.2*3A
2017-12-14 12:28:37 1513272517.286814: $GPGBS,172838,24.66,M,21.80,M,143.40,M*36
2017-12-14 12:28:38 1513272518.522266: $GPGSV,3,1,12,24,52,103,26,10,45,304,22,15,33,054,00,20,31,099,25*7A
2017-12-14 12:28:38 1513272518.522470: $GPGSV,3,2,12,21,58,186,26,32,25,241,09,27,18,285,11,18,74,349,08*79
2017-12-14 12:28:38 1513272518.522538: $GPGSV,3,3,12,14,07,234,00,08,07,319,00,13,04,049,00,120,07,103,00*44
2017-12-14 12:28:38 1513272518.635604: $GPZDA,172839.00,14,12,2017,00,00*62
2017-12-14 12:28:38 1513272518.635757: $GPGGA,172839,3946.9405,N,08404.9417,W,1,07,1.80,286.46,M,-33.324,M,,*7D
2017-12-14 12:28:38 1513272518.635824: $GPRMC,172839,A,3946.9405,N,08404.9417,W,0.4584,328.179,141217,,*31
2017-12-14 12:28:38 1513272518.635886: $GPGSA,A,3,24,10,20,21,32,27,18,,,,,,6.6,1.8,6.2*34
2017-12-14 12:28:39 1513272519.186980: $GPZDA,172840.00,14,12,2017,00,00*6C
2017-12-14 12:28:39 1513272519.187204: $GPGGA,172840,3946.9409,N,08404.9410,W,1,07,1.80,287.18,M,-33.324,M,,*72
2017-12-14 12:28:39 1513272519.187293: $GPRMC,172840,A,3946.9409,N,08404.9410,W,0.2959,54.767,141217,,*0F
2017-12-14 12:28:39 1513272519.187375: $GPGSA,A,3,24,10,20,21,32,27,18,,,,,,6.6,1.8,6.2*34
2017-12-14 12:28:40 1513272520.185860: $GPZDA,172841.00,14,12,2017,00,00*6D
2017-12-14 12:28:40 1513272520.186030: $GPGGA,172841,3946.9413,N,08404.9410,W,1,07,1.80,287.82,M,-33.324,M,,*7B
2017-12-14 12:28:40 1513272520.186097: $GPRMC,172841,A,3946.9413,N,08404.9410,W,0.4844,93.795,141217,,*08
2017-12-14 12:28:40 1513272520.186158: $GPGSA,A,3,24,10,20,21,32,27,18,,,,,,6.6,1.8,6.2*34
2017-12-14 12:28:41 1513272521.522090: $GPGSV,3,1,12,24,52,103,26,10,45,304,22,13,04,049,16,20,31,099,25*73
2017-12-14 12:28:41 1513272521.522424: $GPGSV,3,2,12,21,58,186,26,32,25,241,11,27,18,285,12,18,74,349,10*7A
2017-12-14 12:28:41 1513272521.522574: $GPGSV,3,3,12,15,33,054,00,14,07,234,00,08,07,319,00,120,07,103,00*4A
2017-12-14 12:28:41 1513272521.635418: $GPZDA,172842.00,14,12,2017,00,00*6E
2017-12-14 12:28:41 1513272521.635578: $GPGGA,172842,3946.9413,N,08404.9410,W,1,07,1.80,287.82,M,-33.324,M,,*78
2017-12-14 12:28:41 1513272521.635644: $GPRMC,172842,A,3946.9413,N,08404.9410,W,0.4844,93.795,141217,,*0B
2017-12-14 12:28:41 1513272521.635705: $GPGSA,A,3,24,10,20,21,32,27,18,,,,,,6.6,1.8,6.2*34
2017-12-14 12:28:42 1513272522.186315: $GPZDA,172843.00,14,12,2017,00,00*6F
2017-12-14 12:28:42 1513272522.186568: $GPGGA,172843,3946.9417,N,08404.9403,W,1,07,1.80,288.54,M,-33.324,M,,*7B
2017-12-14 12:28:42 1513272522.186640: $GPRMC,172843,A,3946.9417,N,08404.9403,W,0.5306,114.353,141217,,*30
2017-12-14 12:28:42 1513272522.186700: $GPGSA,A,3,24,10,20,21,32,27,18,,,,,,6.6,1.8,6.2*34
2017-12-14 12:28:43 1513272523.187135: $GPZDA,172844.00,14,12,2017,00,00*68
2017-12-14 12:28:43 1513272523.187405: $GPGGA,172844,3946.9417,N,08404.9403,W,1,07,1.80,288.54,M,-33.324,M,,*7C
2017-12-14 12:28:43 1513272523.187486: $GPRMC,172844,A,3946.9417,N,08404.9403,W,0.3006,62.540,141217,,*06
2017-12-14 12:28:43 1513272523.187595: $GPGSA,A,3,24,10,20,21,32,27,18,,,,,,6.6,1.8,6.2*34
2017-12-14 12:28:44 1513272524.521400: $GPGSV,3,1,12,24,52,103,26,10,45,304,22,15,33,054,00,20,31,099,25*7A
2017-12-14 12:28:44 1513272524.521605: $GPGSV,3,2,12,21,58,186,26,32,25,241,11,27,18,285,11,18,74,349,10*79
2017-12-14 12:28:44 1513272524.521673: $GPGSV,3,3,12,14,07,234,00,08,07,319,00,13,04,049,00,120,07,103,00*44
2017-12-14 12:28:44 1513272524.634778: $GPZDA,172845.00,14,12,2017,00,00*69
2017-12-14 12:28:44 1513272524.634923: $GPGGA,172845,3946.9425,N,08404.9403,W,1,07,1.80,288.41,M,-33.324,M,,*78
2017-12-14 12:28:44 1513272524.634989: $GPRMC,172845,A,3946.9425,N,08404.9403,W,0.3423,4.197,141217,,*3B
2017-12-14 12:28:44 1513272524.635049: $GPGSA,A,3,24,10,20,21,32,27,18,,,,,,6.6,1.8,6.2*34
