2018-01-11 20:22:57 1515720177.198533: {"class":"VERSION","release":"3.16","rev":"3.16-4","proto_major":3,"proto_minor":11}
2018-01-11 20:22:57 1515720177.198869: {"class":"DEVICES","devices":[{"class":"DEVICE","path":"/dev/ttyUSB0","driver":"SiRF","subtype":"9\u0006GSD4e_4.1.2-P1_RPATCH.05-F-GPS-4R-1510281 11/03/2015 307","activated":"2018-01-12T01:22:57.092Z","flags":1,"native":1,"bps":4800,"parity":"N","stopbits":1,"cycle":1.00}]}
2018-01-11 20:22:57 1515720177.198980: {"class":"WATCH","enable":true,"json":false,"nmea":true,"raw":0,"scaled":false,"timing":false,"split24":false,"pps":false}
2018-01-11 20:22:57 1515720177.403125: $GPZDA,012258.00,12,01,2018,00,00*63
2018-01-11 20:22:57 1515720177.403284: $GPGGA,012258,3946.9592,N,08404.9855,W,2,11,0.80,304.26,M,-33.324,M,,*7A
2018-01-11 20:22:57 1515720177.403370: $GPRMC,012258,A,3946.9592,N,08404.9855,W,0.0000,0.000,120118,,*3E
2018-01-11 20:22:57 1515720177.403432: $GPGSA,A,3,7,8,9,11,16,23,27,28,30,1,138,,4.0,0.8,3.5*0F
2018-01-11 20:22:58 1515720178.327756: $GPZDA,012259.00,12,01,2018,00,00*62
2018-01-11 20:22:58 1515720178.327909: $GPGGA,012259,3946.9588,N,08404.9855,W,2,11,0.80,303.62,M,-33.324,M,,*77
2018-01-11 20:22:58 1515720178.327974: $GPRMC,012259,A,3946.9588,N,08404.9855,W,0.0000,0.000,120118,,*34
2018-01-11 20:22:58 1515720178.328035: $GPGSA,A,3,7,8,9,11,16,23,27,28,30,1,138,,4.0,0.8,3.5*0F
2018-01-11 20:22:59 1515720179.664743: $GPGSV,3,1,11,07,61,316,44,08,75,109,46,09,43,223,42,11,25,165,44*71
2018-01-11 20:22:59 1515720179.664912: $GPGSV,3,2,11,16,19,063,39,23,23,187,49,27,43,049,50,28,18,262,37*70
2018-01-11 20:22:59 1515720179.664980: $GPGSV,3,3,11,30,34,307,35,01,03,160,17,138,38,213,45*7C
2018-01-11 20:22:59 1515720179.778117: $GPZDA,012300.00,12,01,2018,00,00*6F
2018-01-11 20:22:59 1515720179.778274: $GPGGA,012300,3946.9588,N,08404.9855,W,2,11,0.80,303.62,M,-33.324,M,,*7A
2018-01-11 20:22:59 1515720179.778376: $GPRMC,012300,A,3946.9588,N,08404.9855,W,0.0000,0.000,120118,,*39
2018-01-11 20:22:59 1515720179.778453: $GPGSA,A,3,7,8,9,11,16,23,27,28,30,1,138,,4.0,0.8,3.5*0F
2018-01-11 20:23:00 1515720180.329002: $GPZDA,012301.00,12,01,2018,00,00*6E
2018-01-11 20:23:00 1515720180.329235: $GPGGA,012301,3946.9588,N,08404.9855,W,2,11,0.80,303.62,M,-33.324,M,,*7B
2018-01-11 20:23:00 1515720180.329320: $GPRMC,012301,A,3946.9588,N,08404.9855,W,0.0000,0.000,120118,,*38
2018-01-11 20:23:00 1515720180.329382: $GPGSA,A,3,7,8,9,11,16,23,27,28,30,1,138,,4.0,0.8,3.5*0F
2018-01-11 20:23:01 1515720181.329933: $GPZDA,012302.00,12,01,2018,00,00*6D
2018-01-11 20:23:01 1515720181.330106: $GPGGA,012302,3946.9588,N,08404.9855,W,2,11,0.80,303.62,M,-33.324,M,,*78
2018-01-11 20:23:01 1515720181.330174: $GPRMC,012302,A,3946.9588,N,08404.9855,W,0.0000,0.000,120118,,*3B
2018-01-11 20:23:01 1515720181.330235: $GPGSA,A,3,7,8,9,11,16,23,27,28,30,1,138,,4.0,0.8,3.5*0F
2018-01-11 20:23:02 1515720182.663854: $GPGSV,3,1,11,07,61,316,44,08,75,109,46,09,43,223,41,11,25,165,44*72
2018-01-11 20:23:02 1515720182.664029: $GPGSV,3,2,11,16,19,063,39,23,23,187,49,27,43,049,50,28,18,262,37*70
2018-01-11 20:23:02 1515720182.664095: $GPGSV,3,3,11,30,34,307,35,01,03,160,16,138,38,213,45*7D
2018-01-11 20:23:02 1515720182.777221: $GPZDA,012303.00,12,01,2018,00,00*6C
2018-01-11 20:23:02 1515720182.777386: $GPGGA,012303,3946.9588,N,08404.9855,W,2,11,0.80,303.62,M,-33.324,M,,*79
2018-01-11 20:23:02 1515720182.777471: $GPRMC,012303,A,3946.9588,N,08404.9855,W,0.0000,0.000,120118,,*3A
2018-01-11 20:23:02 1515720182.777532: $GPGSA,A,3,7,8,9,11,16,23,27,28,30,1,138,,4.0,0.8,3.5*0F
2018-01-11 20:23:03 1515720183.328058: $GPZDA,012304.00,12,01,2018,00,00*6B
2018-01-11 20:23:03 1515720183.328227: $GPGGA,012304,3946.9588,N,08404.9855,W,2,11,0.80,303.62,M,-33.324,M,,*7E
2018-01-11 20:23:03 1515720183.328314: $GPRMC,012304,A,3946.9588,N,08404.9855,W,0.0000,0.000,120118,,*3D
2018-01-11 20:23:03 1515720183.328376: $GPGSA,A,3,7,8,9,11,16,23,27,28,30,1,138,,4.0,0.8,3.5*0F
2018-01-11 20:23:04 1515720184.329092: $GPZDA,012305.00,12,01,2018,00,00*6A
2018-01-11 20:23:04 1515720184.329285: $GPGGA,012305,3946.9588,N,08404.9855,W,2,11,0.80,303.62,M,-33.324,M,,*7F
2018-01-11 20:23:04 1515720184.329425: $GPRMC,012305,A,3946.9588,N,08404.9855,W,0.0000,0.000,120118,,*3C
2018-01-11 20:23:04 1515720184.329490: $GPGSA,A,3,7,8,9,11,16,23,27,28,30,1,138,,4.0,0.8,3.5*0F
2018-01-11 20:23:05 1515720185.664691: $GPGSV,3,1,11,07,61,316,44,08,75,109,46,09,43,223,41,11,25,165,45*73
2018-01-11 20:23:05 1515720185.664856: $GPGSV,3,2,11,16,19,063,39,23,23,187,49,27,43,049,50,28,18,262,37*70
2018-01-11 20:23:05 1515720185.664922: $GPGSV,3,3,11,30,34,307,35,01,03,160,16,138,38,213,45*7D
2018-01-11 20:23:05 1515720185.778067: $GPZDA,012306.00,12,01,2018,00,00*69
2018-01-11 20:23:05 1515720185.778211: $GPGGA,012306,3946.9588,N,08404.9855,W,2,11,0.80,303.62,M,-33.324,M,,*7C
2018-01-11 20:23:05 1515720185.778296: $GPRMC,012306,A,3946.9588,N,08404.9855,W,0.0000,0.000,120118,,*3F
2018-01-11 20:23:05 1515720185.778358: $GPGSA,A,3,7,8,9,11,16,23,27,28,30,1,138,,4.0,0.8,3.5*0F
2018-01-11 20:23:06 1515720186.327690: $GPZDA,012307.00,12,01,2018,00,00*68
2018-01-11 20:23:06 1515720186.327860: $GPGGA,012307,3946.9588,N,08404.9855,W,2,11,0.80,303.62,M,-33.324,M,,*7D
2018-01-11 20:23:06 1515720186.327925: $GPRMC,012307,A,3946.9588,N,08404.9855,W,0.0000,0.000,120118,,*3E
2018-01-11 20:23:06 1515720186.327986: $GPGSA,A,3,7,8,9,11,16,23,27,28,30,1,138,,4.0,0.8,3.5*0F
2018-01-11 20:23:07 1515720187.324455: $GPZDA,012308.00,12,01,2018,00,00*67
2018-01-11 20:23:07 1515720187.324626: $GPGGA,012308,3946.9588,N,08404.9855,W,2,11,0.80,303.62,M,-33.324,M,,*72
2018-01-11 20:23:07 1515720187.324692: $GPRMC,012308,A,3946.9588,N,08404.9855,W,0.0000,0.000,120118,,*31
2018-01-11 20:23:07 1515720187.324752: $GPGSA,A,3,7,8,9,11,16,23,27,28,30,1,138,,4.0,0.8,3.5*0F
2018-01-11 20:23:08 1515720188.658835: $GPGSV,3,1,11,07,61,316,44,08,75,109,46,09,43,223,42,11,25,165,45*70
2018-01-11 20:23:08 1515720188.659019: $GPGSV,3,2,11,16,19,063,39,23,23,187,49,27,43,049,50,28,18,262,38*7F
2018-01-11 20:23:08 1515720188.659140: $GPGSV,3,3,11,30,34,307,35,01,03,160,15,138,38,213,45*7E
2018-01-11 20:23:08 1515720188.772181: $GPZDA,012309.00,12,01,2018,00,00*66
2018-01-11 20:23:08 1515720188.772314: $GPGGA,012309,3946.9588,N,08404.9855,W,2,11,0.80,303.62,M,-33.324,M,,*73
2018-01-11 20:23:08 1515720188.772379: $GPRMC,012309,A,3946.9588,N,08404.9855,W,0.0000,0.000,120118,,*30
2018-01-11 20:23:08 1515720188.772440: $GPGSA,A,3,7,8,9,11,16,23,27,28,30,1,138,,4.0,0.8,3.5*0F
2018-01-11 20:23:09 1515720189.329384: $GPZDA,012310.00,12,01,2018,00,00*6E
2018-01-11 20:23:09 1515720189.329564: $GPGGA,012310,3946.9588,N,08404.9855,W,2,11,0.80,303.62,M,-33.324,M,,*7B
2018-01-11 20:23:09 1515720189.329632: $GPRMC,012310,A,3946.9588,N,08404.9855,W,0.0000,0.000,120118,,*38
2018-01-11 20:23:09 1515720189.329693: $GPGSA,A,3,7,8,9,11,16,23,27,28,30,1,138,,4.0,0.8,3.5*0F
