2017-12-31 18:08:05 1514761685.808887: {"class":"VERSION","release":"3.16","rev":"3.16-4","proto_major":3,"proto_minor":11}
2017-12-31 18:08:05 1514761685.809244: {"class":"DEVICES","devices":[{"class":"DEVICE","path":"/dev/ttyUSB0","driver":"SiRF","activated":"2017-12-31T23:08:05.488Z","flags":1,"native":1,"bps":4800,"parity":"N","stopbits":1,"cycle":1.00}]}
2017-12-31 18:08:05 1514761685.809343: {"class":"WATCH","enable":true,"json":false,"nmea":true,"raw":0,"scaled":false,"timing":false,"split24":false,"pps":false}
2017-12-31 18:08:06 1514761686.681983: $GPGSV,3,1,11,22,23,216,41,23,52,307,46,09,19,312,40,03,33,235,45*79
2017-12-31 18:08:06 1514761686.682146: $GPGSV,3,2,11,16,79,190,44,29,06,031,30,14,16,132,35,31,29,073,41*79
2017-12-31 18:08:06 1514761686.682211: $GPGSV,3,3,11,27,21,154,33,26,64,051,49,135,22,240,43*76
2017-12-31 18:08:06 1514761686.795515: $GPZDA,230807.00,31,12,2017,00,00*6D
2017-12-31 18:08:06 1514761686.795688: $GPGGA,230807,3946.9561,N,08404.9874,W,2,11,0.60,308.17,M,-33.324,M,,*77
2017-12-31 18:08:06 1514761686.795754: $GPRMC,230807,A,3946.9561,N,08404.9874,W,0.0000,0.000,311217,,*3F
2017-12-31 18:08:06 1514761686.795815: $GPGSA,A,3,22,23,9,3,16,29,14,31,27,26,135,,1.7,0.6,1.3*06
2017-12-31 18:08:07 1514761687.342750: $GPZDA,230808.00,31,12,2017,00,00*62
2017-12-31 18:08:07 1514761687.342904: $GPGGA,230808,3946.9561,N,08404.9874,W,2,11,0.60,308.17,M,-33.324,M,,*78
2017-12-31 18:08:07 1514761687.342969: $GPRMC,230808,A,3946.9561,N,08404.9874,W,0.0000,0.000,311217,,*30
2017-12-31 18:08:07 1514761687.343028: $GPGSA,A,3,22,23,9,3,16,29,14,31,27,26,135,,1.7,0.6,1.3*06
2017-12-31 18:08:08 1514761688.346121: $GPZDA,230809.00,31,12,2017,00,00*63
2017-12-31 18:08:08 1514761688.346312: $GPGGA,230809,3946.9561,N,08404.9874,W,2,11,0.60,308.17,M,-33.324,M,,*79
2017-12-31 18:08:08 1514761688.346381: $GPRMC,230809,A,3946.9561,N,08404.9874,W,0.0000,0.000,311217,,*31
2017-12-31 18:08:08 1514761688.346443: $GPGSA,A,3,22,23,9,3,16,29,14,31,27,26,135,,1.7,0.6,1.3*06
2017-12-31 18:08:09 1514761689.711570: $GPGSV,3,1,11,22,23,216,41,23,52,307,46,09,19,312,40,03,33,235,44*78
2017-12-31 18:08:09 1514761689.711753: $GPGSV,3,2,11,16,79,190,44,29,06,031,30,14,16,132,35,31,29,073,41*79
2017-12-31 18:08:09 1514761689.711820: $GPGSV,3,3,11,27,21,154,33,26,64,051,49,135,22,240,43*76
2017-12-31 18:08:09 1514761689.825213: $GPZDA,230810.00,31,12,2017,00,00*6B
2017-12-31 18:08:09 1514761689.825396: $GPGGA,230810,3946.9561,N,08404.9874,W,2,11,0.60,308.17,M,-33.324,M,,*71
2017-12-31 18:08:09 1514761689.825462: $GPRMC,230810,A,3946.9561,N,08404.9874,W,0.0000,0.000,311217,,*39
2017-12-31 18:08:09 1514761689.825524: $GPGSA,A,3,22,23,9,3,16,29,14,31,27,26,135,,1.7,0.6,1.3*06
2017-12-31 18:08:10 1514761690.450595: $GPZDA,230811.00,31,12,2017,00,00*6A
2017-12-31 18:08:10 1514761690.450762: $GPGGA,230811,3946.9561,N,08404.9874,W,2,11,0.60,308.17,M,-33.324,M,,*70
2017-12-31 18:08:10 1514761690.450828: $GPRMC,230811,A,3946.9561,N,08404.9874,W,0.0000,0.000,311217,,*38
2017-12-31 18:08:10 1514761690.450890: $GPGSA,A,3,22,23,9,3,16,29,14,31,27,26,135,,1.7,0.6,1.3*06
2017-12-31 18:08:11 1514761691.375218: $GPZDA,230812.00,31,12,2017,00,00*69
2017-12-31 18:08:11 1514761691.375400: $GPGGA,230812,3946.9561,N,08404.9874,W,2,11,0.60,308.17,M,-33.324,M,,*73
2017-12-31 18:08:11 1514761691.375467: $GPRMC,230812,A,3946.9561,N,08404.9874,W,0.0000,0.000,311217,,*3B
2017-12-31 18:08:11 1514761691.375529: $GPGSA,A,3,22,23,9,3,16,29,14,31,27,26,135,,1.7,0.6,1.3*06
2017-12-31 18:08:12 1514761692.675680: $GPGSV,3,1,11,22,23,216,41,23,52,307,46,09,19,312,40,03,33,235,44*78
2017-12-31 18:08:12 1514761692.675841: $GPGSV,3,2,11,16,79,190,44,29,06,031,31,14,16,132,35,31,29,073,42*7B
2017-12-31 18:08:12 1514761692.675907: $GPGSV,3,3,11,27,21,154,33,26,64,051,49,135,22,240,45*70
2017-12-31 18:08:12 1514761692.789283: $GPZDA,230813.00,31,12,2017,00,00*68
2017-12-31 18:08:12 1514761692.789431: $GPGGA,230813,3946.9561,N,08404.9874,W,2,11,0.60,308.17,M,-33.324,M,,*72
2017-12-31 18:08:12 1514761692.789497: $GPRMC,230813,A,3946.9561,N,08404.9874,W,0.0000,0.000,311217,,*3A
2017-12-31 18:08:12 1514761692.789609: $GPGSA,A,3,22,23,9,3,16,29,14,31,27,26,135,,1.7,0.6,1.3*06
2017-12-31 18:08:13 1514761693.401468: $GPZDA,230814.00,31,12,2017,00,00*6F
2017-12-31 18:08:13 1514761693.401640: $GPGGA,230814,3946.9561,N,08404.9874,W,2,11,0.60,308.17,M,-33.324,M,,*75
2017-12-31 18:08:13 1514761693.401708: $GPRMC,230814,A,3946.9561,N,08404.9874,W,0.0000,0.000,311217,,*3D
2017-12-31 18:08:13 1514761693.401770: $GPGSA,A,3,22,23,9,3,16,29,14,31,27,26,135,,1.7,0.6,1.3*06
2017-12-31 18:08:13 1514761693.401828: $GPGBS,230814,2.22,M,3.43,M,7.66,M*33
2017-12-31 18:08:14 1514761694.371095: $GPZDA,230815.00,31,12,2017,00,00*6E
2017-12-31 18:08:14 1514761694.371261: $GPGGA,230815,3946.9561,N,08404.9874,W,2,11,0.60,308.17,M,-33.324,M,,*74
2017-12-31 18:08:14 1514761694.371328: $GPRMC,230815,A,3946.9561,N,08404.9874,W,0.0000,0.000,311217,,*3C
2017-12-31 18:08:14 1514761694.371388: $GPGSA,A,3,22,23,9,3,16,29,14,31,27,26,135,,1.7,0.6,1.3*06
2017-12-31 18:08:14 1514761694.371447: $GPGBS,230815,2.22,M,3.43,M,7.66,M*32
2017-12-31 18:08:15 1514761695.684774: $GPGSV,3,1,11,22,22,214,40,23,53,306,46,09,20,312,39,03,32,234,45*7F
2017-12-31 18:08:15 1514761695.684957: $GPGSV,3,2,11,16,80,189,44,29,05,031,33,14,15,133,34,31,29,075,41*72
2017-12-31 18:08:15 1514761695.685037: $GPGSV,3,3,11,27,22,154,33,26,62,051,49,135,22,240,44*74
2017-12-31 18:08:15 1514761695.798549: $GPZDA,230816.00,31,12,2017,00,00*6D
2017-12-31 18:08:15 1514761695.798715: $GPGGA,230816,3946.9561,N,08404.9874,W,2,11,0.60,308.17,M,-33.324,M,,*77
2017-12-31 18:08:15 1514761695.798780: $GPRMC,230816,A,3946.9561,N,08404.9874,W,0.0000,0.000,311217,,*3F
2017-12-31 18:08:15 1514761695.798842: $GPGSA,A,3,22,23,9,3,16,29,14,31,27,26,135,,1.7,0.6,1.3*06
