2017-11-15 19:48:08 1510793288.184263: {"class":"VERSION","release":"3.17","rev":"3.17","proto_major":3,"proto_minor":12}
2017-11-15 19:48:08 1510793288.184735: {"class":"DEVICES","devices":[{"class":"DEVICE","path":"/dev/ttyUSB0","driver":"SiRF","subtype":"9\u0006GSD4e_4.1.2-P1_RPATCH.05-F-GPS-4R-1510281 11/03/2015 307","activated":"2017-11-16T00:48:08.171Z","flags":1,"native":1,"bps":4800,"parity":"N","stopbits":1,"cycle":1.00}]}
2017-11-15 19:48:08 1510793288.184852: {"class":"WATCH","enable":true,"json":false,"nmea":true,"raw":0,"scaled":false,"timing":false,"split24":false,"pps":false}
2017-11-15 19:48:08 1510793288.346998: $GPZDA,004807.00,16,11,2017,00,00*6E
2017-11-15 19:48:08 1510793288.347152: $GPGGA,004807,3946.9661,N,08404.9358,W,1,07,1.20,345.30,M,-33.324,M,,*79
2017-11-15 19:48:08 1510793288.347211: $GPRMC,004807,A,3946.9661,N,08404.9358,W,0.5287,182.716,161117,,*39
2017-11-15 19:48:08 1510793288.347267: $GPGSA,A,3,32,16,31,26,14,23,3,,,,,,3.4,1.2,2.9*0A
2017-11-15 19:48:09 1510793289.679889: $GPGSV,3,1,11,32,29,114,21,16,31,190,25,31,61,037,18,26,62,168,17*7D
2017-11-15 19:48:09 1510793289.680064: $GPGSV,3,2,11,14,48,103,19,22,49,256,12,29,13,063,00,23,18,304,16*70
2017-11-15 19:48:09 1510793289.680124: $GPGSV,3,3,11,03,43,289,20,25,10,037,00,01,01,246,00*4E
2017-11-15 19:48:09 1510793289.793220: $GPZDA,004808.00,16,11,2017,00,00*61
2017-11-15 19:48:09 1510793289.793367: $GPGGA,004808,3946.9657,N,08404.9358,W,1,07,1.20,344.66,M,-33.324,M,,*71
2017-11-15 19:48:09 1510793289.793429: $GPRMC,004808,A,3946.9657,N,08404.9358,W,0.2422,93.795,161117,,*07
2017-11-15 19:48:09 1510793289.793485: $GPGSA,A,3,32,16,31,26,14,23,3,,,,,,3.4,1.2,2.9*0A
2017-11-15 19:48:10 1510793290.329120: $GPZDA,004809.00,16,11,2017,00,00*60
2017-11-15 19:48:10 1510793290.329277: $GPGGA,004809,3946.9649,N,08404.9358,W,1,07,1.20,344.79,M,-33.324,M,,*71
2017-11-15 19:48:10 1510793290.329339: $GPRMC,004809,A,3946.9649,N,08404.9358,W,0.2422,93.795,161117,,*09
2017-11-15 19:48:10 1510793290.329395: $GPGSA,A,3,32,16,31,26,14,23,3,,,,,,3.4,1.2,2.9*0A
2017-11-15 19:48:11 1510793291.344485: $GPZDA,004810.00,16,11,2017,00,00*68
2017-11-15 19:48:11 1510793291.344649: $GPGGA,004810,3946.9645,N,08404.9365,W,1,07,1.20,344.07,M,-33.324,M,,*72
2017-11-15 19:48:11 1510793291.344711: $GPRMC,004810,A,3946.9645,N,08404.9365,W,0.2422,93.795,161117,,*03
2017-11-15 19:48:11 1510793291.344767: $GPGSA,A,3,32,16,31,26,14,23,3,,,,,,3.4,1.2,2.9*0A
2017-11-15 19:48:12 1510793292.680281: $GPGSV,3,1,11,32,29,114,21,16,31,190,25,31,61,037,18,26,62,168,18*72
2017-11-15 19:48:12 1510793292.680450: $GPGSV,3,2,11,14,48,103,19,22,49,256,15,29,13,063,00,23,18,304,16*77
2017-11-15 19:48:12 1510793292.680510: $GPGSV,3,3,11,03,43,289,19,25,10,037,00,01,01,246,00*44
2017-11-15 19:48:12 1510793292.793867: $GPZDA,004811.00,16,11,2017,00,00*69
2017-11-15 19:48:12 1510793292.793983: $GPGGA,004811,3946.9645,N,08404.9365,W,1,07,1.20,344.07,M,-33.324,M,,*73
2017-11-15 19:48:12 1510793292.794042: $GPRMC,004811,A,3946.9645,N,08404.9365,W,0.2422,93.795,161117,,*02
2017-11-15 19:48:12 1510793292.794096: $GPGSA,A,3,32,16,31,26,14,23,3,,,,,,3.4,1.2,2.9*0A
2017-11-15 19:48:13 1510793293.347366: $GPZDA,004812.00,16,11,2017,00,00*6A
2017-11-15 19:48:13 1510793293.347527: $GPGGA,004812,3946.9638,N,08404.9366,W,1,07,1.00,344.19,M,-33.324,M,,*74
2017-11-15 19:48:13 1510793293.347587: $GPRMC,004812,A,3946.9638,N,08404.9366,W,0.8011,119.090,161117,,*37
2017-11-15 19:48:13 1510793293.347642: $GPGSA,A,3,32,16,31,26,14,23,3,,,,,,3.4,1.0,2.9*08
2017-11-15 19:48:14 1510793294.329032: $GPZDA,004813.00,16,11,2017,00,00*6B
2017-11-15 19:48:14 1510793294.329186: $GPGGA,004813,3946.9634,N,08404.9366,W,1,07,1.00,343.55,M,-33.324,M,,*76
2017-11-15 19:48:14 1510793294.329245: $GPRMC,004813,A,3946.9634,N,08404.9366,W,0.7621,107.945,161117,,*3E
2017-11-15 19:48:14 1510793294.329300: $GPGSA,A,3,32,16,31,26,14,23,3,,,,,,3.4,1.0,2.9*08
2017-11-15 19:48:15 1510793295.666137: $GPGSV,3,1,11,32,29,114,21,16,31,190,26,31,61,037,18,26,62,168,18*71
2017-11-15 19:48:15 1510793295.666295: $GPGSV,3,2,11,14,48,103,19,22,49,256,14,29,13,063,00,23,18,304,16*76
2017-11-15 19:48:15 1510793295.666406: $GPGSV,3,3,11,03,43,289,19,25,10,037,00,01,01,246,00*44
2017-11-15 19:48:15 1510793295.779514: $GPZDA,004814.00,16,11,2017,00,00*6C
2017-11-15 19:48:15 1510793295.779659: $GPGGA,004814,3946.9629,N,08404.9366,W,1,08,1.00,342.91,M,-33.324,M,,*7B
2017-11-15 19:48:15 1510793295.779718: $GPRMC,004814,A,3946.9629,N,08404.9366,W,0.7238,140.710,161117,,*34
2017-11-15 19:48:15 1510793295.779773: $GPGSA,A,3,32,16,31,26,14,22,23,3,,,,,3.4,1.0,2.9*08
2017-11-15 19:48:16 1510793296.405182: $GPZDA,004815.00,16,11,2017,00,00*6D
2017-11-15 19:48:16 1510793296.405329: $GPGGA,004815,3946.9622,N,08404.9374,W,1,08,1.00,342.96,M,-33.324,M,,*75
2017-11-15 19:48:16 1510793296.405388: $GPRMC,004815,A,3946.9622,N,08404.9374,W,0.4207,219.347,161117,,*3B
2017-11-15 19:48:16 1510793296.405443: $GPGSA,A,3,32,16,31,26,14,22,23,3,,,,,3.4,1.0,2.9*08
2017-11-15 19:48:17 1510793297.329488: $GPZDA,004816.00,16,11,2017,00,00*6E
2017-11-15 19:48:17 1510793297.331040: $GPGGA,004816,3946.9618,N,08404.9374,W,1,08,1.00,342.32,M,-33.324,M,,*71
2017-11-15 19:48:17 1510793297.331133: $GPRMC,004816,A,3946.9618,N,08404.9374,W,0.5287,182.716,161117,,*39
2017-11-15 19:48:17 1510793297.331191: $GPGSA,A,3,32,16,31,26,14,22,23,3,,,,,3.4,1.0,2.9*08
