2017-11-15 19:42:43 1510792963.152329: {"class":"VERSION","release":"3.17","rev":"3.17","proto_major":3,"proto_minor":12}
2017-11-15 19:42:43 1510792963.152877: {"class":"DEVICES","devices":[{"class":"DEVICE","path":"/dev/ttyUSB0","driver":"SiRF","subtype":"9\u0006GSD4e_4.1.2-P1_RPATCH.05-F-GPS-4R-1510281 11/03/2015 307","activated":"2017-11-16T00:42:42.938Z","flags":1,"native":1,"bps":4800,"parity":"N","stopbits":1,"cycle":1.00}]}
2017-11-15 19:42:43 1510792963.152992: {"class":"WATCH","enable":true,"json":false,"nmea":true,"raw":0,"scaled":false,"timing":false,"split24":false,"pps":false}
2017-11-15 19:42:43 1510792963.331225: $GPZDA,004242.00,16,11,2017,00,00*65
2017-11-15 19:42:43 1510792963.331411: $GPGGA,004242,3946.9617,N,08404.9474,W,1,09,0.80,320.63,M,-33.324,M,,*7A
2017-11-15 19:42:43 1510792963.331503: $GPRMC,004242,A,3946.9617,N,08404.9474,W,0.5774,207.515,161117,,*3C
2017-11-15 19:42:43 1510792963.331581: $GPGSA,A,3,32,16,22,26,14,31,29,23,3,,,,3.4,0.8,2.9*0A
2017-11-15 19:42:44 1510792964.346937: $GPZDA,004243.00,16,11,2017,00,00*64
2017-11-15 19:42:44 1510792964.347111: $GPGGA,004243,3946.9617,N,08404.9481,W,1,09,0.80,320.55,M,-33.324,M,,*74
2017-11-15 19:42:44 1510792964.347174: $GPRMC,004243,A,3946.9617,N,08404.9481,W,0.8414,219.347,161117,,*31
2017-11-15 19:42:44 1510792964.347230: $GPGSA,A,3,32,16,22,26,14,31,29,23,3,,,,3.4,0.8,2.9*0A
2017-11-15 19:42:45 1510792965.683675: $GPGSV,3,1,12,32,31,112,14,16,28,190,24,22,50,261,11,26,59,169,23*78
2017-11-15 19:42:45 1510792965.683846: $GPGSV,3,2,12,14,51,100,21,31,63,033,17,29,12,066,09,23,15,303,18*74
2017-11-15 19:42:45 1510792965.683906: $GPGSV,3,3,12,03,42,292,19,25,12,039,00,01,02,249,00,120,07,103,00*4A
2017-11-15 19:42:45 1510792965.795743: $GPZDA,004244.00,16,11,2017,00,00*63
2017-11-15 19:42:45 1510792965.795891: $GPGGA,004244,3946.9614,N,08404.9482,W,1,09,0.80,321.31,M,-33.324,M,,*70
2017-11-15 19:42:45 1510792965.795952: $GPRMC,004244,A,3946.9614,N,08404.9482,W,0.8414,219.347,161117,,*36
2017-11-15 19:42:45 1510792965.796008: $GPGSA,A,3,32,16,22,26,14,31,29,23,3,,,,3.4,0.8,2.9*0A
2017-11-15 19:42:46 1510792966.422939: $GPZDA,004245.00,16,11,2017,00,00*62
2017-11-15 19:42:46 1510792966.423084: $GPGGA,004245,3946.9614,N,08404.9489,W,1,09,0.80,321.23,M,-33.324,M,,*79
2017-11-15 19:42:46 1510792966.423145: $GPRMC,004245,A,3946.9614,N,08404.9489,W,0.5951,238.684,161117,,*34
2017-11-15 19:42:46 1510792966.423201: $GPGSA,A,3,32,16,22,26,14,31,29,23,3,,,,3.4,0.8,2.9*0A
2017-11-15 19:42:47 1510792967.330731: $GPZDA,004246.00,16,11,2017,00,00*61
2017-11-15 19:42:47 1510792967.330878: $GPGGA,004246,3946.9611,N,08404.9490,W,1,09,0.80,322.00,M,-33.324,M,,*75
2017-11-15 19:42:47 1510792967.330939: $GPRMC,004246,A,3946.9611,N,08404.9490,W,0.7278,203.636,161117,,*39
2017-11-15 19:42:47 1510792967.330996: $GPGSA,A,3,32,16,22,26,14,31,29,23,3,,,,3.4,0.8,2.9*0A
2017-11-15 19:42:48 1510792968.666520: $GPGSV,3,1,12,32,31,112,15,16,28,190,24,22,50,261,12,26,59,169,22*7B
2017-11-15 19:42:48 1510792968.666683: $GPGSV,3,2,12,14,51,100,20,31,63,033,17,29,12,066,09,23,15,303,18*75
2017-11-15 19:42:48 1510792968.666801: $GPGSV,3,3,12,03,42,292,19,25,12,039,00,01,02,249,00,120,07,103,00*4A
2017-11-15 19:42:48 1510792968.779877: $GPZDA,004247.00,16,11,2017,00,00*60
2017-11-15 19:42:48 1510792968.780034: $GPGGA,004247,3946.9615,N,08404.9490,W,1,09,0.80,322.64,M,-33.324,M,,*72
2017-11-15 19:42:48 1510792968.780095: $GPRMC,004247,A,3946.9615,N,08404.9490,W,0.8414,219.347,161117,,*37
2017-11-15 19:42:48 1510792968.780151: $GPGSA,A,3,32,16,22,26,14,31,29,23,3,,,,3.4,0.8,2.9*0A
2017-11-15 19:42:49 1510792969.329496: $GPZDA,004248.00,16,11,2017,00,00*6F
2017-11-15 19:42:49 1510792969.329675: $GPGGA,004248,3946.9612,N,08404.9497,W,1,09,0.80,323.32,M,-33.324,M,,*7F
2017-11-15 19:42:49 1510792969.329755: $GPRMC,004248,A,3946.9612,N,08404.9497,W,0.8414,219.347,161117,,*38
2017-11-15 19:42:49 1510792969.329813: $GPGSA,A,3,32,16,22,26,14,31,29,23,3,,,,3.4,0.8,2.9*0A
2017-11-15 19:42:50 1510792970.329099: $GPZDA,004249.00,16,11,2017,00,00*6E
2017-11-15 19:42:50 1510792970.329265: $GPGGA,004249,3946.9612,N,08404.9497,W,1,09,0.80,323.32,M,-33.324,M,,*7E
2017-11-15 19:42:50 1510792970.329380: $GPRMC,004249,A,3946.9612,N,08404.9497,W,0.4207,219.347,161117,,*31
2017-11-15 19:42:50 1510792970.329465: $GPGSA,A,3,32,16,22,26,14,31,29,23,3,,,,3.4,0.8,2.9*0A
2017-11-15 19:42:51 1510792971.665763: $GPGSV,3,1,12,32,31,112,15,16,28,190,24,22,50,261,12,26,59,169,22*7B
2017-11-15 19:42:51 1510792971.665934: $GPGSV,3,2,12,14,51,100,20,31,63,033,17,29,12,066,09,23,15,303,18*75
2017-11-15 19:42:51 1510792971.665995: $GPGSV,3,3,12,03,42,292,19,25,12,039,00,01,02,249,00,120,07,103,00*4A
2017-11-15 19:42:51 1510792971.779292: $GPZDA,004250.00,16,11,2017,00,00*66
2017-11-15 19:42:51 1510792971.779470: $GPGGA,004250,3946.9609,N,08404.9498,W,1,09,0.80,324.09,M,-33.324,M,,*7C
2017-11-15 19:42:51 1510792971.779531: $GPRMC,004250,A,3946.9609,N,08404.9498,W,0.4207,219.347,161117,,*3C
2017-11-15 19:42:51 1510792971.779587: $GPGSA,A,3,32,16,22,26,14,31,29,23,3,,,,3.4,0.8,2.9*0A
2017-11-15 19:42:52 1510792972.330025: $GPZDA,004251.00,16,11,2017,00,00*67
2017-11-15 19:42:52 1510792972.330203: $GPGGA,004251,3946.9609,N,08404.9498,W,1,09,1.00,324.09,M,-33.324,M,,*74
2017-11-15 19:42:52 1510792972.330264: $GPRMC,004251,A,3946.9609,N,08404.9498,W,0.9019,198.875,161117,,*3D
2017-11-15 19:42:52 1510792972.330319: $GPGSA,A,3,32,16,22,26,14,31,29,23,3,,,,3.4,1.0,2.9*03
