2017-12-01 12:13:17 1512148397.916518: {"class":"VERSION","release":"3.16","rev":"3.16-4","proto_major":3,"proto_minor":11}
2017-12-01 12:13:17 1512148397.916956: {"class":"DEVICES","devices":[{"class":"DEVICE","path":"/dev/ttyUSB0","driver":"SiRF","subtype":"9\u0006GSD4e_4.1.2-P1_RPATCH.05-F-GPS-4R-1510281 11/03/2015 307","activated":"2017-12-01T17:13:17.578Z","flags":1,"native":1,"bps":4800,"parity":"N","stopbits":1,"cycle":1.00}]}
2017-12-01 12:13:17 1512148397.917086: {"class":"WATCH","enable":true,"json":false,"nmea":true,"raw":0,"scaled":false,"timing":false,"split24":false,"pps":false}
2017-12-01 12:13:18 1512148398.943914: $GPZDA,171319.00,01,12,2017,00,00*6C
2017-12-01 12:13:18 1512148398.944084: $GPGGA,171319,3946.9586,N,08404.9839,W,2,10,0.80,300.97,M,-33.324,M,,*7A
2017-12-01 12:13:18 1512148398.944151: $GPRMC,171319,A,3946.9586,N,08404.9839,W,0.3423,4.197,011217,,*33
2017-12-01 12:13:18 1512148398.944213: $GPGSA,A,3,10,13,15,18,20,21,24,27,5,138,,,2.0,0.8,1.5*3F
2017-12-01 12:13:19 1512148399.768096: $GPGSV,3,1,12,10,22,282,40,13,31,045,46,15,63,052,46,18,53,298,44*7E
2017-12-01 12:13:19 1512148399.768285: $GPGSV,3,2,12,20,53,070,46,21,78,276,43,24,32,139,45,27,15,315,44*79
2017-12-01 12:13:19 1512148399.768352: $GPGSV,3,3,12,29,12,190,19,05,05,087,24,04,01,136,00,138,38,213,46*49
2017-12-01 12:13:19 1512148399.881918: $GPZDA,171320.00,01,12,2017,00,00*66
2017-12-01 12:13:19 1512148399.882100: $GPGGA,171320,3946.9586,N,08404.9839,W,2,11,0.80,300.97,M,-33.324,M,,*71
2017-12-01 12:13:19 1512148399.882167: $GPRMC,171320,A,3946.9586,N,08404.9839,W,0.0000,0.000,011217,,*34
2017-12-01 12:13:19 1512148399.882228: $GPGSA,A,3,10,13,15,18,20,21,24,27,29,5,138,,2.0,0.8,1.5*34
2017-12-01 12:13:20 1512148400.434849: $GPZDA,171321.00,01,12,2017,00,00*67
2017-12-01 12:13:20 1512148400.435021: $GPGGA,171321,3946.9586,N,08404.9839,W,2,11,0.80,300.97,M,-33.324,M,,*70
2017-12-01 12:13:20 1512148400.435088: $GPRMC,171321,A,3946.9586,N,08404.9839,W,0.0000,0.000,011217,,*35
2017-12-01 12:13:20 1512148400.435149: $GPGSA,A,3,10,13,15,18,20,21,24,27,29,5,138,,2.0,0.8,1.5*34
2017-12-01 12:13:21 1512148401.421911: $GPZDA,171322.00,01,12,2017,00,00*64
2017-12-01 12:13:21 1512148401.422084: $GPGGA,171322,3946.9586,N,08404.9839,W,2,11,0.80,300.97,M,-33.324,M,,*73
2017-12-01 12:13:21 1512148401.422152: $GPRMC,171322,A,3946.9586,N,08404.9839,W,0.0000,0.000,011217,,*36
2017-12-01 12:13:21 1512148401.422214: $GPGSA,A,3,10,13,15,18,20,21,24,27,29,5,138,,2.0,0.8,1.5*34
2017-12-01 12:13:22 1512148402.771041: $GPGSV,3,1,12,10,22,282,41,13,31,045,45,15,63,052,46,18,53,298,44*7C
2017-12-01 12:13:22 1512148402.771222: $GPGSV,3,2,12,20,53,070,46,21,78,276,43,24,32,139,45,27,15,315,44*79
2017-12-01 12:13:22 1512148402.771289: $GPGSV,3,3,12,29,12,190,20,05,05,087,24,04,01,136,00,138,38,213,46*43
2017-12-01 12:13:22 1512148402.884416: $GPZDA,171323.00,01,12,2017,00,00*65
2017-12-01 12:13:22 1512148402.884599: $GPGGA,171323,3946.9586,N,08404.9839,W,2,11,0.80,300.97,M,-33.324,M,,*72
2017-12-01 12:13:22 1512148402.884668: $GPRMC,171323,A,3946.9586,N,08404.9839,W,0.0000,0.000,011217,,*37
2017-12-01 12:13:22 1512148402.884729: $GPGSA,A,3,10,13,15,18,20,21,24,27,29,5,138,,2.0,0.8,1.5*34
2017-12-01 12:13:23 1512148403.417012: $GPZDA,171324.00,01,12,2017,00,00*62
2017-12-01 12:13:23 1512148403.417187: $GPGGA,171324,3946.9586,N,08404.9839,W,2,11,0.80,300.97,M,-33.324,M,,*75
2017-12-01 12:13:23 1512148403.417255: $GPRMC,171324,A,3946.9586,N,08404.9839,W,0.0000,0.000,011217,,*30
2017-12-01 12:13:23 1512148403.417316: $GPGSA,A,3,10,13,15,18,20,21,24,27,29,5,138,,2.0,0.8,1.5*34
2017-12-01 12:13:24 1512148404.417380: $GPZDA,171325.00,01,12,2017,00,00*63
2017-12-01 12:13:24 1512148404.417556: $GPGGA,171325,3946.9586,N,08404.9839,W,2,11,0.80,300.97,M,-33.324,M,,*74
2017-12-01 12:13:24 1512148404.417627: $GPRMC,171325,A,3946.9586,N,08404.9839,W,0.0000,0.000,011217,,*31
2017-12-01 12:13:24 1512148404.417689: $GPGSA,A,3,10,13,15,18,20,21,24,27,29,5,138,,2.0,0.8,1.5*34
2017-12-01 12:13:25 1512148405.770568: $GPGSV,3,1,12,10,22,282,40,13,31,045,45,15,63,052,45,18,53,298,44*7E
2017-12-01 12:13:25 1512148405.770784: $GPGSV,3,2,12,20,53,070,46,21,78,276,43,24,32,139,45,27,15,315,45*78
2017-12-01 12:13:25 1512148405.770853: $GPGSV,3,3,12,29,12,190,20,05,05,087,24,04,01,136,00,138,38,213,46*43
2017-12-01 12:13:25 1512148405.884274: $GPZDA,171326.00,01,12,2017,00,00*60
2017-12-01 12:13:25 1512148405.884444: $GPGGA,171326,3946.9586,N,08404.9839,W,2,11,0.80,300.97,M,-33.324,M,,*77
2017-12-01 12:13:25 1512148405.884511: $GPRMC,171326,A,3946.9586,N,08404.9839,W,0.0000,0.000,011217,,*32
2017-12-01 12:13:25 1512148405.884572: $GPGSA,A,3,10,13,15,18,20,21,24,27,29,5,138,,2.0,0.8,1.5*34
2017-12-01 12:13:26 1512148406.509648: $GPZDA,171327.00,01,12,2017,00,00*61
2017-12-01 12:13:26 1512148406.509815: $GPGGA,171327,3946.9586,N,08404.9839,W,2,11,0.80,300.97,M,-33.324,M,,*76
2017-12-01 12:13:26 1512148406.509880: $GPRMC,171327,A,3946.9586,N,08404.9839,W,0.0000,0.000,011217,,*33
2017-12-01 12:13:26 1512148406.509941: $GPGSA,A,3,10,13,15,18,20,21,24,27,29,5,138,,2.0,0.8,1.5*34
2017-12-01 12:13:27 1512148407.435626: $GPZDA,171328.00,01,12,2017,00,00*6E
2017-12-01 12:13:27 1512148407.435796: $GPGGA,171328,3946.9590,N,08404.9839,W,2,11,0.80,301.60,M,-33.324,M,,*77
2017-12-01 12:13:27 1512148407.435863: $GPRMC,171328,A,3946.9590,N,08404.9839,W,0.0000,0.000,011217,,*3B
2017-12-01 12:13:27 1512148407.435924: $GPGSA,A,3,10,13,15,18,20,21,24,27,29,5,138,,2.0,0.8,1.5*34
