2017-11-16 14:08:50 1510859330.980129: {"class":"VERSION","release":"3.17","rev":"3.17","proto_major":3,"proto_minor":12}
2017-11-16 14:08:50 1510859330.980664: {"class":"DEVICES","devices":[{"class":"DEVICE","path":"/dev/ttyUSB0","driver":"SiRF","subtype":"9\u0006GSD4e_4.1.2-P1_RPATCH.05-F-GPS-4R-1510281 11/03/2015 307","activated":"2017-11-16T19:08:50.694Z","flags":1,"native":1,"bps":4800,"parity":"N","stopbits":1,"cycle":1.00}]}
2017-11-16 14:08:50 1510859330.980780: {"class":"WATCH","enable":true,"json":false,"nmea":true,"raw":0,"scaled":false,"timing":false,"split24":false,"pps":false}
2017-11-16 14:08:51 1510859331.868170: $GPGSV,3,1,12,10,40,300,44,13,09,048,30,15,39,052,50,18,70,331,48*75
2017-11-16 14:08:51 1510859331.868323: $GPGSV,3,2,12,20,34,094,47,21,66,192,46,24,50,114,48,32,19,237,45*7E
2017-11-16 14:08:51 1510859331.868384: $GPGSV,3,3,12,08,05,324,36,27,19,291,36,14,03,231,30,138,38,213,44*41
2017-11-16 14:08:51 1510859331.981523: $GPZDA,190850.00,16,11,2017,00,00*60
2017-11-16 14:08:51 1510859331.981686: $GPGGA,190850,3946.9569,N,08404.9850,W,2,12,0.80,304.71,M,-33.324,M,,*73
2017-11-16 14:08:51 1510859331.981746: $GPRMC,190850,A,3946.9569,N,08404.9850,W,0.0000,0.000,161117,,*3C
2017-11-16 14:08:51 1510859331.981802: $GPGSA,A,3,10,13,15,18,20,21,24,32,8,27,14,138,1.6,0.8,1.3*35
2017-11-16 14:08:52 1510859332.559849: $GPZDA,190851.00,16,11,2017,00,00*61
2017-11-16 14:08:52 1510859332.560016: $GPGGA,190851,3946.9569,N,08404.9850,W,2,12,0.80,304.71,M,-33.324,M,,*72
2017-11-16 14:08:52 1510859332.560077: $GPRMC,190851,A,3946.9569,N,08404.9850,W,0.0000,0.000,161117,,*3D
2017-11-16 14:08:52 1510859332.560133: $GPGSA,A,3,10,13,15,18,20,21,24,32,8,27,14,138,1.6,0.8,1.3*35
2017-11-16 14:08:53 1510859333.560779: $GPZDA,190852.00,16,11,2017,00,00*62
2017-11-16 14:08:53 1510859333.560953: $GPGGA,190852,3946.9569,N,08404.9850,W,2,12,0.80,304.71,M,-33.324,M,,*71
2017-11-16 14:08:53 1510859333.561018: $GPRMC,190852,A,3946.9569,N,08404.9850,W,0.0000,0.000,161117,,*3E
2017-11-16 14:08:53 1510859333.561074: $GPGSA,A,3,10,13,15,18,20,21,24,32,8,27,14,138,1.6,0.8,1.3*35
2017-11-16 14:08:54 1510859334.896016: $GPGSV,3,1,12,10,40,300,44,13,09,048,30,15,39,052,50,18,70,331,48*75
2017-11-16 14:08:54 1510859334.896184: $GPGSV,3,2,12,20,34,094,47,21,66,192,46,24,50,114,47,32,19,237,45*71
2017-11-16 14:08:54 1510859334.896244: $GPGSV,3,3,12,08,05,324,37,27,19,291,36,14,03,231,30,138,38,213,45*41
2017-11-16 14:08:55 1510859335.009439: $GPZDA,190853.00,16,11,2017,00,00*63
2017-11-16 14:08:55 1510859335.009631: $GPGGA,190853,3946.9569,N,08404.9850,W,2,12,0.80,304.71,M,-33.324,M,,*70
2017-11-16 14:08:55 1510859335.009695: $GPRMC,190853,A,3946.9569,N,08404.9850,W,0.0000,0.000,161117,,*3F
2017-11-16 14:08:55 1510859335.009751: $GPGSA,A,3,10,13,15,18,20,21,24,32,8,27,14,138,1.6,0.8,1.3*35
2017-11-16 14:08:55 1510859335.560519: $GPZDA,190854.00,16,11,2017,00,00*64
2017-11-16 14:08:55 1510859335.560678: $GPGGA,190854,3946.9569,N,08404.9850,W,2,12,0.80,304.71,M,-33.324,M,,*77
2017-11-16 14:08:55 1510859335.560739: $GPRMC,190854,A,3946.9569,N,08404.9850,W,0.0000,0.000,161117,,*38
2017-11-16 14:08:55 1510859335.560795: $GPGSA,A,3,10,13,15,18,20,21,24,32,8,27,14,138,1.6,0.8,1.3*35
2017-11-16 14:08:56 1510859336.527352: $GPZDA,190855.00,16,11,2017,00,00*65
2017-11-16 14:08:56 1510859336.527504: $GPGGA,190855,3946.9569,N,08404.9850,W,2,12,0.80,304.71,M,-33.324,M,,*76
2017-11-16 14:08:56 1510859336.527564: $GPRMC,190855,A,3946.9569,N,08404.9850,W,0.0000,0.000,161117,,*39
2017-11-16 14:08:56 1510859336.527621: $GPGSA,A,3,10,13,15,18,20,21,24,32,8,27,14,138,1.6,0.8,1.3*35
2017-11-16 14:08:57 1510859337.878092: $GPGSV,3,1,12,10,40,300,44,13,09,048,30,15,39,052,50,18,70,331,48*75
2017-11-16 14:08:57 1510859337.878254: $GPGSV,3,2,12,20,34,094,46,21,66,192,46,24,50,114,47,32,19,237,45*70
2017-11-16 14:08:57 1510859337.878315: $GPGSV,3,3,12,08,05,324,37,27,19,291,36,14,03,231,05,138,38,213,44*46
2017-11-16 14:08:57 1510859337.991459: $GPZDA,190856.00,16,11,2017,00,00*66
2017-11-16 14:08:57 1510859337.991626: $GPGGA,190856,3946.9569,N,08404.9850,W,2,11,0.80,304.71,M,-33.324,M,,*76
2017-11-16 14:08:57 1510859337.991755: $GPRMC,190856,A,3946.9569,N,08404.9850,W,0.0000,0.000,161117,,*3A
2017-11-16 14:08:57 1510859337.991814: $GPGSA,A,3,10,13,15,18,20,21,24,32,8,27,138,,1.6,0.8,1.3*30
2017-11-16 14:08:58 1510859338.532281: $GPZDA,190857.00,16,11,2017,00,00*67
2017-11-16 14:08:58 1510859338.532457: $GPGGA,190857,3946.9569,N,08404.9850,W,2,11,0.80,304.71,M,-33.324,M,,*77
2017-11-16 14:08:58 1510859338.532520: $GPRMC,190857,A,3946.9569,N,08404.9850,W,0.0000,0.000,161117,,*3B
2017-11-16 14:08:58 1510859338.532577: $GPGSA,A,3,10,13,15,18,20,21,24,32,8,27,138,,1.6,0.8,1.3*30
2017-11-16 14:08:59 1510859339.560137: $GPZDA,190858.00,16,11,2017,00,00*68
2017-11-16 14:08:59 1510859339.560363: $GPGGA,190858,3946.9569,N,08404.9850,W,2,11,0.80,304.71,M,-33.324,M,,*78
2017-11-16 14:08:59 1510859339.560437: $GPRMC,190858,A,3946.9569,N,08404.9850,W,0.0000,0.000,161117,,*34
2017-11-16 14:08:59 1510859339.560496: $GPGSA,A,3,10,13,15,18,20,21,24,32,8,27,138,,1.6,0.8,1.3*30
2017-11-16 14:09:00 1510859340.863482: $GPGSV,3,1,12,10,40,300,43,13,09,048,30,15,39,052,51,18,70,331,48*73
2017-11-16 14:09:00 1510859340.863658: $GPGSV,3,2,12,20,34,094,46,21,66,192,46,24,50,114,48,32,19,237,45*7F
2017-11-16 14:09:00 1510859340.863721: $GPGSV,3,3,12,08,05,324,36,27,19,291,36,14,03,231,28,138,38,213,44*48
2017-11-16 14:09:00 1510859340.976847: $GPZDA,190859.00,16,11,2017,00,00*69
2017-11-16 14:09:00 1510859340.977021: $GPGGA,190859,3946.9569,N,08404.9850,W,2,12,0.80,304.71,M,-33.324,M,,*7A
2017-11-16 14:09:00 1510859340.977084: $GPRMC,190859,A,3946.9569,N,08404.9850,W,0.0000,0.000,161117,,*35
2017-11-16 14:09:00 1510859340.977140: $GPGSA,A,3,10,13,15,18,20,21,24,32,8,27,14,138,1.6,0.8,1.3*35
