2017-11-16 16:44:21 1510868661.592225: {"class":"VERSION","release":"3.17","rev":"3.17","proto_major":3,"proto_minor":12}
2017-11-16 16:44:21 1510868661.592646: {"class":"DEVICES","devices":[{"class":"DEVICE","path":"/dev/ttyUSB0","driver":"SiRF","subtype":"9\u0006GSD4e_4.1.2-P1_RPATCH.05-F-GPS-4R-1510281 11/03/2015 307","activated":"2017-11-16T21:44:21.549Z","flags":1,"native":1,"bps":4800,"parity":"N","stopbits":1,"cycle":1.00}]}
2017-11-16 16:44:21 1510868661.592815: {"class":"WATCH","enable":true,"json":false,"nmea":true,"raw":0,"scaled":false,"timing":false,"split24":false,"pps":false}
2017-11-16 16:44:22 1510868662.458027: $GPZDA,214421.00,16,11,2017,00,00*65
2017-11-16 16:44:22 1510868662.458220: $GPGGA,214421,3946.9580,N,08404.9815,W,2,12,0.80,307.02,M,-33.324,M,,*77
2017-11-16 16:44:22 1510868662.458283: $GPRMC,214421,A,3946.9580,N,08404.9815,W,0.0000,0.000,161117,,*3F
2017-11-16 16:44:22 1510868662.458339: $GPGSA,A,3,1,10,11,12,14,18,24,25,31,32,22,138,1.6,0.8,1.3*38
2017-11-16 16:44:23 1510868663.777598: $GPGSV,3,1,12,01,13,319,38,10,71,129,48,11,11,303,38,12,25,073,49*7C
2017-11-16 16:44:23 1510868663.777758: $GPGSV,3,2,12,14,54,289,44,18,39,135,46,24,15,045,47,25,29,115,43*74
2017-11-16 16:44:23 1510868663.777820: $GPGSV,3,3,12,31,33,211,45,32,67,324,51,22,01,310,32,138,38,213,45*48
2017-11-16 16:44:23 1510868663.890901: $GPZDA,214422.00,16,11,2017,00,00*66
2017-11-16 16:44:23 1510868663.891061: $GPGGA,214422,3946.9580,N,08404.9815,W,2,12,0.80,307.02,M,-33.324,M,,*74
2017-11-16 16:44:23 1510868663.891123: $GPRMC,214422,A,3946.9580,N,08404.9815,W,0.0000,0.000,161117,,*3C
2017-11-16 16:44:23 1510868663.891197: $GPGSA,A,3,1,10,11,12,14,18,24,25,31,32,22,138,1.6,0.8,1.3*38
2017-11-16 16:44:24 1510868664.459658: $GPZDA,214423.00,16,11,2017,00,00*67
2017-11-16 16:44:24 1510868664.459828: $GPGGA,214423,3946.9580,N,08404.9815,W,2,12,0.80,307.02,M,-33.324,M,,*75
2017-11-16 16:44:24 1510868664.459891: $GPRMC,214423,A,3946.9580,N,08404.9815,W,0.0000,0.000,161117,,*3D
2017-11-16 16:44:24 1510868664.459948: $GPGSA,A,3,1,10,11,12,14,18,24,25,31,32,22,138,1.6,0.8,1.3*38
2017-11-16 16:44:25 1510868665.458075: $GPZDA,214424.00,16,11,2017,00,00*60
2017-11-16 16:44:25 1510868665.458235: $GPGGA,214424,3946.9580,N,08404.9815,W,2,12,0.80,307.02,M,-33.324,M,,*72
2017-11-16 16:44:25 1510868665.458297: $GPRMC,214424,A,3946.9580,N,08404.9815,W,0.0000,0.000,161117,,*3A
2017-11-16 16:44:25 1510868665.458353: $GPGSA,A,3,1,10,11,12,14,18,24,25,31,32,22,138,1.6,0.8,1.3*38
2017-11-16 16:44:26 1510868666.776820: $GPGSV,3,1,12,01,13,319,38,10,71,129,48,11,11,303,38,12,25,073,49*7C
2017-11-16 16:44:26 1510868666.776992: $GPGSV,3,2,12,14,54,289,44,18,39,135,46,24,15,045,47,25,29,115,43*74
2017-11-16 16:44:26 1510868666.777054: $GPGSV,3,3,12,31,33,211,45,32,67,324,51,22,01,310,31,138,38,213,44*4A
2017-11-16 16:44:26 1510868666.890184: $GPZDA,214425.00,16,11,2017,00,00*61
2017-11-16 16:44:26 1510868666.890496: $GPGGA,214425,3946.9580,N,08404.9815,W,2,12,0.80,307.02,M,-33.324,M,,*73
2017-11-16 16:44:26 1510868666.890618: $GPRMC,214425,A,3946.9580,N,08404.9815,W,0.0000,0.000,161117,,*3B
2017-11-16 16:44:26 1510868666.890761: $GPGSA,A,3,1,10,11,12,14,18,24,25,31,32,22,138,1.6,0.8,1.3*38
2017-11-16 16:44:27 1510868667.458714: $GPZDA,214426.00,16,11,2017,00,00*62
2017-11-16 16:44:27 1510868667.459019: $GPGGA,214426,3946.9580,N,08404.9815,W,2,12,0.80,307.02,M,-33.324,M,,*70
2017-11-16 16:44:27 1510868667.459139: $GPRMC,214426,A,3946.9580,N,08404.9815,W,0.0000,0.000,161117,,*38
2017-11-16 16:44:27 1510868667.459254: $GPGSA,A,3,1,10,11,12,14,18,24,25,31,32,22,138,1.6,0.8,1.3*38
2017-11-16 16:44:28 1510868668.437017: $GPZDA,214427.00,16,11,2017,00,00*63
2017-11-16 16:44:28 1510868668.437182: $GPGGA,214427,3946.9580,N,08404.9815,W,2,12,0.80,307.02,M,-33.324,M,,*71
2017-11-16 16:44:28 1510868668.437243: $GPRMC,214427,A,3946.9580,N,08404.9815,W,0.0000,0.000,161117,,*39
2017-11-16 16:44:28 1510868668.437300: $GPGSA,A,3,1,10,11,12,14,18,24,25,31,32,22,138,1.6,0.8,1.3*38
2017-11-16 16:44:29 1510868669.777800: $GPGSV,3,1,12,01,13,319,38,10,71,129,48,11,11,303,37,12,25,073,49*73
2017-11-16 16:44:29 1510868669.778033: $GPGSV,3,2,12,14,54,289,45,18,39,135,45,24,15,045,46,25,29,115,43*77
2017-11-16 16:44:29 1510868669.778097: $GPGSV,3,3,12,31,33,211,45,32,67,324,50,22,01,310,31,138,38,213,44*4B
2017-11-16 16:44:29 1510868669.889867: $GPZDA,214428.00,16,11,2017,00,00*6C
2017-11-16 16:44:29 1510868669.889997: $GPGGA,214428,3946.9580,N,08404.9815,W,2,12,0.80,307.02,M,-33.324,M,,*7E
2017-11-16 16:44:29 1510868669.890057: $GPRMC,214428,A,3946.9580,N,08404.9815,W,0.0000,0.000,161117,,*36
2017-11-16 16:44:29 1510868669.890113: $GPGSA,A,3,1,10,11,12,14,18,24,25,31,32,22,138,1.6,0.8,1.3*38
2017-11-16 16:44:30 1510868670.442013: $GPZDA,214429.00,16,11,2017,00,00*6D
2017-11-16 16:44:30 1510868670.442177: $GPGGA,214429,3946.9580,N,08404.9815,W,2,12,0.80,307.02,M,-33.324,M,,*7F
2017-11-16 16:44:30 1510868670.442238: $GPRMC,214429,A,3946.9580,N,08404.9815,W,0.0000,0.000,161117,,*37
2017-11-16 16:44:30 1510868670.442293: $GPGSA,A,3,1,10,11,12,14,18,24,25,31,32,22,138,1.6,0.8,1.3*38
2017-11-16 16:44:31 1510868671.458643: $GPZDA,214430.00,16,11,2017,00,00*65
2017-11-16 16:44:31 1510868671.458829: $GPGGA,214430,3946.9580,N,08404.9815,W,2,12,0.80,307.02,M,-33.324,M,,*77
2017-11-16 16:44:31 1510868671.458907: $GPRMC,214430,A,3946.9580,N,08404.9815,W,0.0000,0.000,161117,,*3F
2017-11-16 16:44:31 1510868671.458963: $GPGSA,A,3,1,10,11,12,14,18,24,25,31,32,22,138,1.6,0.8,1.3*38
