2017-12-29 11:47:42 1514566062.345962: {"class":"VERSION","release":"3.16","rev":"3.16-4","proto_major":3,"proto_minor":11}
2017-12-29 11:47:42 1514566062.346308: {"class":"DEVICES","devices":[{"class":"DEVICE","path":"/dev/ttyUSB0","driver":"SiRF","subtype":"9\u0006GSD4e_4.1.2-P1_RPATCH.05-F-GPS-4R-1510281 11/03/2015 307","activated":"2017-12-29T16:47:42.316Z","flags":1,"native":1,"bps":4800,"parity":"N","stopbits":1,"cycle":1.00}]}
2017-12-29 11:47:42 1514566062.346424: {"class":"WATCH","enable":true,"json":false,"nmea":true,"raw":0,"scaled":false,"timing":false,"split24":false,"pps":false}
2017-12-29 11:47:42 1514566062.765620: $GPGSV,3,1,11,08,08,310,38,10,53,312,45,14,14,240,39,15,25,057,46*7B
2017-12-29 11:47:42 1514566062.765783: $GPGSV,3,2,11,18,77,027,45,20,24,106,48,21,48,183,47,24,53,085,51*75
2017-12-29 11:47:42 1514566062.765848: $GPGSV,3,3,11,27,15,276,40,32,33,249,38,138,38,213,45*7A
2017-12-29 11:47:42 1514566062.879267: $GPZDA,164743.00,29,12,2017,00,00*69
2017-12-29 11:47:42 1514566062.879433: $GPGGA,164743,3946.9630,N,08404.9883,W,2,11,0.80,322.54,M,-33.324,M,,*74
2017-12-29 11:47:42 1514566062.879498: $GPRMC,164743,A,3946.9630,N,08404.9883,W,0.0000,0.000,291217,,*34
2017-12-29 11:47:42 1514566062.879558: $GPGSA,A,3,8,10,14,15,18,20,21,24,27,32,138,,1.7,0.8,1.3*36
2017-12-29 11:47:43 1514566063.427658: $GPZDA,164744.00,29,12,2017,00,00*6E
2017-12-29 11:47:43 1514566063.427825: $GPGGA,164744,3946.9630,N,08404.9883,W,2,11,0.80,322.54,M,-33.324,M,,*73
2017-12-29 11:47:43 1514566063.427890: $GPRMC,164744,A,3946.9630,N,08404.9883,W,0.0000,0.000,291217,,*33
2017-12-29 11:47:43 1514566063.427951: $GPGSA,A,3,8,10,14,15,18,20,21,24,27,32,138,,1.7,0.8,1.3*36
2017-12-29 11:47:44 1514566064.428731: $GPZDA,164745.00,29,12,2017,00,00*6F
2017-12-29 11:47:44 1514566064.428902: $GPGGA,164745,3946.9629,N,08404.9876,W,2,11,0.80,322.62,M,-33.324,M,,*75
2017-12-29 11:47:44 1514566064.428967: $GPRMC,164745,A,3946.9629,N,08404.9876,W,0.0000,0.000,291217,,*30
2017-12-29 11:47:44 1514566064.429027: $GPGSA,A,3,8,10,14,15,18,20,21,24,27,32,138,,1.7,0.8,1.3*36
2017-12-29 11:47:45 1514566065.765441: $GPGSV,3,1,11,08,08,310,38,10,53,312,46,14,14,240,39,15,25,057,45*7B
2017-12-29 11:47:45 1514566065.765649: $GPGSV,3,2,11,18,77,027,45,20,24,106,49,21,48,183,47,24,53,085,51*74
2017-12-29 11:47:45 1514566065.765715: $GPGSV,3,3,11,27,15,276,41,32,33,249,38,138,38,213,45*7B
2017-12-29 11:47:45 1514566065.878872: $GPZDA,164746.00,29,12,2017,00,00*6C
2017-12-29 11:47:45 1514566065.879026: $GPGGA,164746,3946.9629,N,08404.9876,W,2,11,0.80,322.62,M,-33.324,M,,*76
2017-12-29 11:47:45 1514566065.879091: $GPRMC,164746,A,3946.9629,N,08404.9876,W,0.0000,0.000,291217,,*33
2017-12-29 11:47:45 1514566065.879151: $GPGSA,A,3,8,10,14,15,18,20,21,24,27,32,138,,1.7,0.8,1.3*36
2017-12-29 11:47:46 1514566066.432232: $GPZDA,164747.00,29,12,2017,00,00*6D
2017-12-29 11:47:46 1514566066.432399: $GPGGA,164747,3946.9629,N,08404.9876,W,2,11,0.80,322.62,M,-33.324,M,,*77
2017-12-29 11:47:46 1514566066.432466: $GPRMC,164747,A,3946.9629,N,08404.9876,W,0.0000,0.000,291217,,*32
2017-12-29 11:47:46 1514566066.432526: $GPGSA,A,3,8,10,14,15,18,20,21,24,27,32,138,,1.7,0.8,1.3*36
2017-12-29 11:47:47 1514566067.431305: $GPZDA,164748.00,29,12,2017,00,00*62
2017-12-29 11:47:47 1514566067.431485: $GPGGA,164748,3946.9629,N,08404.9876,W,2,11,0.80,322.62,M,-33.324,M,,*78
2017-12-29 11:47:47 1514566067.431555: $GPRMC,164748,A,3946.9629,N,08404.9876,W,0.0000,0.000,291217,,*3D
2017-12-29 11:47:47 1514566067.431616: $GPGSA,A,3,8,10,14,15,18,20,21,24,27,32,138,,1.7,0.8,1.3*36
2017-12-29 11:47:48 1514566068.768205: $GPGSV,3,1,11,08,08,310,37,10,53,312,45,14,14,240,39,15,25,057,46*74
2017-12-29 11:47:48 1514566068.768383: $GPGSV,3,2,11,18,77,027,45,20,24,106,49,21,48,183,47,24,53,085,51*74
2017-12-29 11:47:48 1514566068.768448: $GPGSV,3,3,11,27,15,276,41,32,33,249,38,138,38,213,45*7B
2017-12-29 11:47:48 1514566068.881673: $GPZDA,164749.00,29,12,2017,00,00*63
2017-12-29 11:47:48 1514566068.881844: $GPGGA,164749,3946.9626,N,08404.9876,W,2,11,0.80,323.38,M,-33.324,M,,*78
2017-12-29 11:47:48 1514566068.881980: $GPRMC,164749,A,3946.9626,N,08404.9876,W,0.0000,0.000,291217,,*33
2017-12-29 11:47:48 1514566068.882045: $GPGSA,A,3,8,10,14,15,18,20,21,24,27,32,138,,1.7,0.8,1.3*36
2017-12-29 11:47:49 1514566069.431449: $GPRMC,164750,V,3946.9626,N,08404.9876,W,0.0000,0.000,291217,,*2C
2017-12-29 11:47:49 1514566069.431635: $GPGSA,A,1,8,10,14,15,18,20,21,24,27,32,138,,,,,*3A
2017-12-29 11:47:50 1514566070.432140: $GPZDA,164751.02,29,12,2017,00,00*68
2017-12-29 11:47:50 1514566070.432305: $GPGGA,164751,3946.9626,N,08404.9876,W,2,11,0.80,323.38,M,-33.324,M,,*71
2017-12-29 11:47:50 1514566070.432371: $GPRMC,164751,A,3946.9626,N,08404.9876,W,0.0000,0.000,291217,,*3A
2017-12-29 11:47:50 1514566070.432430: $GPGSA,A,3,8,10,14,15,18,20,21,24,27,32,138,,1.7,0.8,1.3*36
2017-12-29 11:47:51 1514566071.767816: $GPGSV,3,1,11,08,08,310,36,10,53,312,46,14,14,240,38,15,25,057,46*77
2017-12-29 11:47:51 1514566071.767996: $GPGSV,3,2,11,18,77,027,45,20,24,106,49,21,48,183,47,24,53,085,51*74
2017-12-29 11:47:51 1514566071.768062: $GPGSV,3,3,11,27,15,276,41,32,33,249,39,138,38,213,45*7A
2017-12-29 11:47:51 1514566071.879954: $GPZDA,164752.11,29,12,2017,00,00*69
2017-12-29 11:47:51 1514566071.880126: $GPGGA,164752,3946.9613,N,08404.9856,W,2,11,0.80,323.11,M,-33.324,M,,*7D
2017-12-29 11:47:51 1514566071.880193: $GPRMC,164752,A,3946.9613,N,08404.9856,W,0.0000,0.000,291217,,*3D
2017-12-29 11:47:51 1514566071.880254: $GPGSA,A,3,8,10,14,15,18,20,21,24,27,32,138,,1.7,0.8,1.3*36
2017-12-29 11:47:52 1514566072.506567: $GPZDA,164753.00,29,12,2017,00,00*68
2017-12-29 11:47:52 1514566072.506750: $GPGGA,164753,3946.9609,N,08404.9850,W,2,11,0.80,323.95,M,-33.324,M,,*7D
2017-12-29 11:47:52 1514566072.506818: $GPRMC,164753,A,3946.9609,N,08404.9850,W,0.0000,0.000,291217,,*31
2017-12-29 11:47:52 1514566072.506879: $GPGSA,A,3,8,10,14,15,18,20,21,24,27,32,138,,1.7,0.8,1.3*36
2017-12-29 11:47:53 1514566073.332521: $GPZDA,164754.00,29,12,2017,00,00*6F
2017-12-29 11:47:53 1514566073.332700: $GPGGA,164754,3946.9600,N,08404.9836,W,2,11,0.80,322.83,M,-33.324,M,,*75
2017-12-29 11:47:53 1514566073.332768: $GPRMC,164754,A,3946.9600,N,08404.9836,W,0.1567,9.200,291217,,*31
2017-12-29 11:47:53 1514566073.332828: $GPGSA,A,3,8,10,14,15,18,20,21,24,27,32,138,,1.7,0.8,1.3*36
2017-12-29 11:47:54 1514566074.668152: $GPGSV,3,1,11,08,08,310,28,10,53,312,46,14,14,240,38,15,25,057,46*78
2017-12-29 11:47:54 1514566074.668332: $GPGSV,3,2,11,18,77,027,45,20,24,106,48,21,48,183,47,24,53,085,51*75
2017-12-29 11:47:54 1514566074.668398: $GPGSV,3,3,11,27,15,276,41,32,33,249,38,138,38,213,44*7A
2017-12-29 11:47:54 1514566074.781661: $GPZDA,164755.00,29,12,2017,00,00*6E
2017-12-29 11:47:54 1514566074.781832: $GPGGA,164755,3946.9597,N,08404.9837,W,2,11,0.80,323.59,M,-33.324,M,,*7E
2017-12-29 11:47:54 1514566074.781899: $GPRMC,164755,A,3946.9597,N,08404.9837,W,0.0000,0.000,291217,,*32
2017-12-29 11:47:54 1514566074.781960: $GPGSA,A,3,8,10,14,15,18,20,21,24,27,32,138,,1.7,0.8,1.3*36
2017-12-29 11:47:55 1514566075.333695: $GPZDA,164756.00,29,12,2017,00,00*6D
2017-12-29 11:47:55 1514566075.333867: $GPGGA,164756,3946.9597,N,08404.9837,W,2,11,0.80,323.59,M,-33.324,M,,*7D
2017-12-29 11:47:55 1514566075.333934: $GPRMC,164756,A,3946.9597,N,08404.9837,W,0.0000,0.000,291217,,*31
2017-12-29 11:47:55 1514566075.333995: $GPGSA,A,3,8,10,14,15,18,20,21,24,27,32,138,,1.7,0.8,1.3*36
2017-12-29 11:47:56 1514566076.334715: $GPZDA,164757.00,29,12,2017,00,00*6C
2017-12-29 11:47:57 1514566077.021348: $GPGGA,164757,3946.9597,N,08404.9837,W,2,11,0.80,323.59,M,-33.324,M,,*7C
2017-12-29 11:47:57 1514566077.021494: $GPRMC,164757,A,3946.9597,N,08404.9837,W,0.0000,0.000,291217,,*30
2017-12-29 11:47:57 1514566077.021558: $GPGSA,A,3,8,10,14,15,18,20,21,24,27,32,138,,1.7,0.8,1.3*36
