2018-01-11 20:28:03 1515720483.338189: {"class":"VERSION","release":"3.16","rev":"3.16-4","proto_major":3,"proto_minor":11}
2018-01-11 20:28:03 1515720483.338579: {"class":"DEVICES","devices":[{"class":"DEVICE","path":"/dev/ttyUSB0","driver":"SiRF","subtype":"9\u0006GSD4e_4.1.2-P1_RPATCH.05-F-GPS-4R-1510281 11/03/2015 307","activated":"2018-01-12T01:28:03.262Z","flags":1,"native":1,"bps":4800,"parity":"N","stopbits":1,"cycle":1.00}]}
2018-01-11 20:28:03 1515720483.338705: {"class":"WATCH","enable":true,"json":false,"nmea":true,"raw":0,"scaled":false,"timing":false,"split24":false,"pps":false}
2018-01-11 20:28:03 1515720483.710844: $GPGSV,3,1,11,07,63,316,13,08,75,099,14,09,41,222,12,11,27,165,13*78
2018-01-11 20:28:03 1515720483.711044: $GPGSV,3,2,11,23,21,187,14,27,41,048,15,28,19,264,10,30,36,309,10*77
2018-01-11 20:28:03 1515720483.711127: $GPGSV,3,3,11,16,17,064,10,01,04,160,00,138,38,213,16*7F
2018-01-11 20:28:03 1515720483.824203: $GPZDA,012804.00,12,01,2018,00,00*60
2018-01-11 20:28:03 1515720483.824330: $GPGGA,012804,3946.9603,N,08404.9855,W,2,10,0.80,294.10,M,-33.324,M,,*7E
2018-01-11 20:28:03 1515720483.824394: $GPRMC,012804,A,3946.9603,N,08404.9855,W,0.1867,180.000,120118,,*37
2018-01-11 20:28:03 1515720483.824455: $GPGSA,A,3,7,8,9,11,23,27,28,30,16,138,,,4.0,0.8,3.5*3E
2018-01-11 20:28:04 1515720484.375091: $GPZDA,012805.00,12,01,2018,00,00*61
2018-01-11 20:28:04 1515720484.375247: $GPGGA,012805,3946.9603,N,08404.9855,W,2,10,0.80,294.10,M,-33.324,M,,*7F
2018-01-11 20:28:04 1515720484.375313: $GPRMC,012805,A,3946.9603,N,08404.9855,W,0.2422,273.794,120118,,*3D
2018-01-11 20:28:04 1515720484.375375: $GPGSA,A,3,7,8,9,11,23,27,28,30,16,138,,,4.0,0.8,3.5*3E
2018-01-11 20:28:05 1515720485.374711: $GPZDA,012806.00,12,01,2018,00,00*62
2018-01-11 20:28:05 1515720485.374876: $GPGGA,012806,3946.9599,N,08404.9849,W,2,10,0.80,294.94,M,-33.324,M,,*7D
2018-01-11 20:28:05 1515720485.374965: $GPRMC,012806,A,3946.9599,N,08404.9849,W,0.0000,0.000,120118,,*39
2018-01-11 20:28:05 1515720485.375027: $GPGSA,A,3,7,8,9,11,23,27,28,30,16,138,,,4.0,0.8,3.5*3E
2018-01-11 20:28:06 1515720486.710458: $GPGSV,3,1,11,07,63,316,43,08,75,099,45,09,41,222,43,11,27,165,44*7F
2018-01-11 20:28:06 1515720486.710614: $GPGSV,3,2,11,23,21,187,48,27,41,048,50,28,19,264,34,30,36,309,37*7C
2018-01-11 20:28:06 1515720486.710680: $GPGSV,3,3,11,16,17,064,32,01,04,160,00,138,38,213,46*7A
2018-01-11 20:28:06 1515720486.823762: $GPZDA,012807.00,12,01,2018,00,00*63
2018-01-11 20:28:06 1515720486.823913: $GPGGA,012807,3946.9599,N,08404.9849,W,2,10,0.80,294.94,M,-33.324,M,,*7C
2018-01-11 20:28:06 1515720486.823978: $GPRMC,012807,A,3946.9599,N,08404.9849,W,0.0000,0.000,120118,,*38
2018-01-11 20:28:06 1515720486.824054: $GPGSA,A,3,7,8,9,11,23,27,28,30,16,138,,,4.0,0.8,3.5*3E
2018-01-11 20:28:07 1515720487.375957: $GPZDA,012808.00,12,01,2018,00,00*6C
2018-01-11 20:28:07 1515720487.376140: $GPGGA,012808,3946.9599,N,08404.9849,W,2,10,0.80,294.94,M,-33.324,M,,*73
2018-01-11 20:28:07 1515720487.376207: $GPRMC,012808,A,3946.9599,N,08404.9849,W,0.0000,0.000,120118,,*37
2018-01-11 20:28:07 1515720487.376268: $GPGSA,A,3,7,8,9,11,23,27,28,30,16,138,,,4.0,0.8,3.5*3E
2018-01-11 20:28:08 1515720488.376320: $GPZDA,012809.00,12,01,2018,00,00*6D
2018-01-11 20:28:08 1515720488.376521: $GPGGA,012809,3946.9599,N,08404.9849,W,2,10,0.80,294.94,M,-33.324,M,,*72
2018-01-11 20:28:08 1515720488.376610: $GPRMC,012809,A,3946.9599,N,08404.9849,W,0.0000,0.000,120118,,*36
2018-01-11 20:28:08 1515720488.376673: $GPGSA,A,3,7,8,9,11,23,27,28,30,16,138,,,4.0,0.8,3.5*3E
2018-01-11 20:28:09 1515720489.710824: $GPGSV,3,1,11,07,63,316,43,08,75,099,45,09,41,222,42,11,27,165,44*7E
2018-01-11 20:28:09 1515720489.710998: $GPGSV,3,2,11,23,21,187,48,27,41,048,50,28,19,264,34,30,36,309,37*7C
2018-01-11 20:28:09 1515720489.711082: $GPGSV,3,3,11,16,17,064,31,01,04,160,00,138,38,213,45*7A
2018-01-11 20:28:09 1515720489.824178: $GPZDA,012810.00,12,01,2018,00,00*65
2018-01-11 20:28:09 1515720489.824300: $GPGGA,012810,3946.9599,N,08404.9849,W,2,10,0.80,294.94,M,-33.324,M,,*7A
2018-01-11 20:28:09 1515720489.824366: $GPRMC,012810,A,3946.9599,N,08404.9849,W,0.0000,0.000,120118,,*3E
2018-01-11 20:28:09 1515720489.824482: $GPGSA,A,3,7,8,9,11,23,27,28,30,16,138,,,4.0,0.8,3.5*3E
2018-01-11 20:28:10 1515720490.375050: $GPZDA,012811.00,12,01,2018,00,00*64
2018-01-11 20:28:10 1515720490.375216: $GPGGA,012811,3946.9599,N,08404.9849,W,2,10,0.80,294.94,M,-33.324,M,,*7B
2018-01-11 20:28:10 1515720490.375283: $GPRMC,012811,A,3946.9599,N,08404.9849,W,0.0000,0.000,120118,,*3F
2018-01-11 20:28:10 1515720490.375344: $GPGSA,A,3,7,8,9,11,23,27,28,30,16,138,,,4.0,0.8,3.5*3E
2018-01-11 20:28:11 1515720491.377160: $GPZDA,012812.00,12,01,2018,00,00*67
2018-01-11 20:28:11 1515720491.377328: $GPGGA,012812,3946.9599,N,08404.9849,W,2,10,0.80,294.94,M,-33.324,M,,*78
2018-01-11 20:28:11 1515720491.377394: $GPRMC,012812,A,3946.9599,N,08404.9849,W,0.0000,0.000,120118,,*3C
2018-01-11 20:28:11 1515720491.377454: $GPGSA,A,3,7,8,9,11,23,27,28,30,16,138,,,4.0,0.8,3.5*3E
2018-01-11 20:28:12 1515720492.714168: $GPGSV,3,1,11,07,63,316,44,08,75,099,46,09,41,222,42,11,27,165,44*7A
2018-01-11 20:28:12 1515720492.714338: $GPGSV,3,2,11,23,21,187,48,27,41,048,50,28,19,264,34,30,36,309,37*7C
2018-01-11 20:28:12 1515720492.714403: $GPGSV,3,3,11,16,17,064,31,01,04,160,00,138,38,213,45*7A
2018-01-11 20:28:12 1515720492.827509: $GPZDA,012813.00,12,01,2018,00,00*66
2018-01-11 20:28:12 1515720492.827627: $GPGGA,012813,3946.9599,N,08404.9849,W,2,10,0.80,294.94,M,-33.324,M,,*79
2018-01-11 20:28:12 1515720492.827691: $GPRMC,012813,A,3946.9599,N,08404.9849,W,0.0000,0.000,120118,,*3D
2018-01-11 20:28:12 1515720492.827751: $GPGSA,A,3,7,8,9,11,23,27,28,30,16,138,,,4.0,0.8,3.5*3E
2018-01-11 20:28:13 1515720493.452924: $GPZDA,012814.00,12,01,2018,00,00*61
2018-01-11 20:28:13 1515720493.453129: $GPGGA,012814,3946.9599,N,08404.9849,W,2,10,0.80,294.94,M,-33.324,M,,*7E
2018-01-11 20:28:13 1515720493.453218: $GPRMC,012814,A,3946.9599,N,08404.9849,W,0.0000,0.000,120118,,*3A
2018-01-11 20:28:13 1515720493.453281: $GPGSA,A,3,7,8,9,11,23,27,28,30,16,138,,,4.0,0.8,3.5*3E
2018-01-11 20:28:14 1515720494.373937: $GPZDA,012815.00,12,01,2018,00,00*60
2018-01-11 20:28:14 1515720494.374120: $GPGGA,012815,3946.9599,N,08404.9849,W,2,10,0.80,294.94,M,-33.324,M,,*7F
2018-01-11 20:28:14 1515720494.374185: $GPRMC,012815,A,3946.9599,N,08404.9849,W,0.0000,0.000,120118,,*3B
2018-01-11 20:28:14 1515720494.374246: $GPGSA,A,3,7,8,9,11,23,27,28,30,16,138,,,4.0,0.8,3.5*3E
2018-01-11 20:28:15 1515720495.713290: $GPGSV,3,1,11,07,63,316,44,08,75,099,46,09,41,222,42,11,27,165,44*7A
2018-01-11 20:28:15 1515720495.713470: $GPGSV,3,2,11,23,21,187,48,27,41,048,50,28,19,264,34,30,36,309,37*7C
2018-01-11 20:28:15 1515720495.713537: $GPGSV,3,3,11,16,17,064,31,01,04,160,00,138,38,213,45*7A
2018-01-11 20:28:15 1515720495.826642: $GPZDA,012816.00,12,01,2018,00,00*63
2018-01-11 20:28:15 1515720495.826775: $GPGGA,012816,3946.9599,N,08404.9849,W,2,10,0.80,294.94,M,-33.324,M,,*7C
2018-01-11 20:28:15 1515720495.826860: $GPRMC,012816,A,3946.9599,N,08404.9849,W,0.0000,0.000,120118,,*38
2018-01-11 20:28:15 1515720495.826922: $GPGSA,A,3,7,8,9,11,23,27,28,30,16,138,,,4.0,0.8,3.5*3E
