2017-11-16 13:14:34 1510856074.335951: {"class":"VERSION","release":"3.17","rev":"3.17","proto_major":3,"proto_minor":12}
2017-11-16 13:14:34 1510856074.336403: {"class":"DEVICES","devices":[{"class":"DEVICE","path":"/dev/ttyUSB0","driver":"SiRF","subtype":"9\u0006GSD4e_4.1.2-P1_RPATCH.05-F-GPS-4R-1510281 11/03/2015 307","activated":"2017-11-16T18:14:34.300Z","flags":1,"native":1,"bps":4800,"parity":"N","stopbits":1,"cycle":1.00}]}
2017-11-16 13:14:34 1510856074.336515: {"class":"WATCH","enable":true,"json":false,"nmea":true,"raw":0,"scaled":false,"timing":false,"split24":false,"pps":false}
2017-11-16 13:14:35 1510856075.301804: $GPZDA,181434.00,16,11,2017,00,00*6E
2017-11-16 13:14:35 1510856075.301971: $GPGGA,181434,3946.9585,N,08404.9851,W,2,11,0.80,296.59,M,-33.324,M,,*7D
2017-11-16 13:14:35 1510856075.302032: $GPRMC,181434,A,3946.9585,N,08404.9851,W,0.0000,0.000,161117,,*31
2017-11-16 13:14:35 1510856075.302089: $GPGSA,A,3,10,13,15,18,20,21,24,27,5,29,138,,1.6,0.8,1.3*37
2017-11-16 13:14:36 1510856076.633830: $GPGSV,3,1,12,10,22,280,43,13,31,045,48,15,64,052,50,18,52,297,44*7F
2017-11-16 13:14:36 1510856076.633998: $GPGSV,3,2,12,20,53,069,47,21,76,282,46,24,31,141,42,27,15,315,42*7D
2017-11-16 13:14:36 1510856076.634059: $GPGSV,3,3,12,05,06,085,19,29,12,190,32,04,02,135,00,138,38,213,46*4F
2017-11-16 13:14:36 1510856076.747122: $GPZDA,181435.00,16,11,2017,00,00*6F
2017-11-16 13:14:36 1510856076.747284: $GPGGA,181435,3946.9585,N,08404.9851,W,2,11,0.80,296.59,M,-33.324,M,,*7C
2017-11-16 13:14:36 1510856076.747345: $GPRMC,181435,A,3946.9585,N,08404.9851,W,0.0000,0.000,161117,,*30
2017-11-16 13:14:36 1510856076.747400: $GPGSA,A,3,10,13,15,18,20,21,24,27,5,29,138,,1.6,0.8,1.3*37
2017-11-16 13:14:37 1510856077.305451: $GPZDA,181436.00,16,11,2017,00,00*6C
2017-11-16 13:14:37 1510856077.305615: $GPGGA,181436,3946.9585,N,08404.9851,W,2,11,0.80,296.59,M,-33.324,M,,*7F
2017-11-16 13:14:37 1510856077.305675: $GPRMC,181436,A,3946.9585,N,08404.9851,W,0.0000,0.000,161117,,*33
2017-11-16 13:14:37 1510856077.305730: $GPGSA,A,3,10,13,15,18,20,21,24,27,5,29,138,,1.6,0.8,1.3*37
2017-11-16 13:14:38 1510856078.302541: $GPZDA,181437.00,16,11,2017,00,00*6D
2017-11-16 13:14:38 1510856078.302704: $GPGGA,181437,3946.9585,N,08404.9851,W,2,11,0.80,296.59,M,-33.324,M,,*7E
2017-11-16 13:14:38 1510856078.302765: $GPRMC,181437,A,3946.9585,N,08404.9851,W,0.0000,0.000,161117,,*32
2017-11-16 13:14:38 1510856078.302822: $GPGSA,A,3,10,13,15,18,20,21,24,27,5,29,138,,1.6,0.8,1.3*37
2017-11-16 13:14:39 1510856079.637091: $GPGSV,3,1,12,10,22,280,44,13,31,045,48,15,64,052,50,18,52,297,44*78
2017-11-16 13:14:39 1510856079.637260: $GPGSV,3,2,12,20,53,069,47,21,76,282,46,24,31,141,42,27,15,315,43*7C
2017-11-16 13:14:39 1510856079.637320: $GPGSV,3,3,12,05,06,085,19,29,12,190,32,04,02,135,00,138,38,213,44*4D
2017-11-16 13:14:39 1510856079.750345: $GPZDA,181438.00,16,11,2017,00,00*62
2017-11-16 13:14:39 1510856079.750490: $GPGGA,181438,3946.9589,N,08404.9851,W,2,11,0.80,297.23,M,-33.324,M,,*71
2017-11-16 13:14:39 1510856079.750552: $GPRMC,181438,A,3946.9589,N,08404.9851,W,0.0000,0.000,161117,,*31
2017-11-16 13:14:39 1510856079.750607: $GPGSA,A,3,10,13,15,18,20,21,24,27,5,29,138,,1.6,0.8,1.3*37
2017-11-16 13:14:40 1510856080.376576: $GPZDA,181439.00,16,11,2017,00,00*63
2017-11-16 13:14:40 1510856080.376727: $GPGGA,181439,3946.9589,N,08404.9851,W,2,11,0.80,297.23,M,-33.324,M,,*70
2017-11-16 13:14:40 1510856080.376789: $GPRMC,181439,A,3946.9589,N,08404.9851,W,0.0000,0.000,161117,,*30
2017-11-16 13:14:40 1510856080.376845: $GPGSA,A,3,10,13,15,18,20,21,24,27,5,29,138,,1.6,0.8,1.3*37
2017-11-16 13:14:41 1510856081.301880: $GPZDA,181440.00,16,11,2017,00,00*6D
2017-11-16 13:14:41 1510856081.302039: $GPGGA,181440,3946.9589,N,08404.9851,W,2,11,0.80,297.23,M,-33.324,M,,*7E
2017-11-16 13:14:41 1510856081.302099: $GPRMC,181440,A,3946.9589,N,08404.9851,W,0.0000,0.000,161117,,*3E
2017-11-16 13:14:41 1510856081.302156: $GPGSA,A,3,10,13,15,18,20,21,24,27,5,29,138,,1.6,0.8,1.3*37
2017-11-16 13:14:42 1510856082.639771: $GPGSV,3,1,12,10,22,280,43,13,31,045,48,15,64,052,50,18,52,297,44*7F
2017-11-16 13:14:42 1510856082.639964: $GPGSV,3,2,12,20,53,069,46,21,76,282,46,24,31,141,42,27,15,315,44*7A
2017-11-16 13:14:42 1510856082.640025: $GPGSV,3,3,12,05,06,085,18,29,12,190,32,04,02,135,00,138,38,213,45*4D
2017-11-16 13:14:42 1510856082.753088: $GPZDA,181441.00,16,11,2017,00,00*6C
2017-11-16 13:14:42 1510856082.753251: $GPGGA,181441,3946.9589,N,08404.9851,W,2,11,0.80,297.23,M,-33.324,M,,*7F
2017-11-16 13:14:42 1510856082.753312: $GPRMC,181441,A,3946.9589,N,08404.9851,W,0.0000,0.000,161117,,*3F
2017-11-16 13:14:42 1510856082.753368: $GPGSA,A,3,10,13,15,18,20,21,24,27,5,29,138,,1.6,0.8,1.3*37
2017-11-16 13:14:43 1510856083.301885: $GPZDA,181442.00,16,11,2017,00,00*6F
2017-11-16 13:14:43 1510856083.302068: $GPGGA,181442,3946.9589,N,08404.9851,W,2,11,0.80,297.23,M,-33.324,M,,*7C
2017-11-16 13:14:43 1510856083.302135: $GPRMC,181442,A,3946.9589,N,08404.9851,W,0.0000,0.000,161117,,*3C
2017-11-16 13:14:43 1510856083.302195: $GPGSA,A,3,10,13,15,18,20,21,24,27,5,29,138,,1.6,0.8,1.3*37
