2017-12-01 14:23:56 1512156236.907433: {"class":"VERSION","release":"3.16","rev":"3.16-4","proto_major":3,"proto_minor":11}
2017-12-01 14:23:56 1512156236.907807: {"class":"DEVICES","devices":[{"class":"DEVICE","path":"/dev/ttyUSB0","driver":"SiRF","subtype":"9\u0006GSD4e_4.1.2-P1_RPATCH.05-F-GPS-4R-1510281 11/03/2015 307","activated":"2017-12-01T19:23:56.531Z","flags":1,"native":1,"bps":4800,"parity":"N","stopbits":1,"cycle":1.00}]}
2017-12-01 14:23:56 1512156236.907918: {"class":"WATCH","enable":true,"json":false,"nmea":true,"raw":0,"scaled":false,"timing":false,"split24":false,"pps":false}
2017-12-01 14:23:57 1512156237.390528: $GPZDA,192358.00,01,12,2017,00,00*64
2017-12-01 14:23:57 1512156237.390704: $GPGGA,192358,3946.9577,N,08404.9867,W,2,12,0.80,310.81,M,-33.324,M,,*73
2017-12-01 14:23:57 1512156237.390775: $GPRMC,192358,A,3946.9577,N,08404.9867,W,0.0000,0.000,011217,,*33
2017-12-01 14:23:57 1512156237.390837: $GPGSA,A,3,10,12,14,15,18,21,24,27,32,8,20,138,2.0,0.8,1.5*37
2017-12-01 14:23:58 1512156238.691224: $GPGSV,3,1,12,10,69,331,49,12,09,108,26,14,29,253,40,15,11,066,31*75
2017-12-01 14:23:58 1512156238.691446: $GPGSV,3,2,12,18,70,093,45,21,29,178,45,24,45,058,48,27,06,259,28*78
2017-12-01 14:23:58 1512156238.691524: $GPGSV,3,3,12,32,46,265,45,08,06,294,28,20,09,118,27,138,38,213,46*47
2017-12-01 14:23:58 1512156238.804608: $GPZDA,192359.00,01,12,2017,00,00*65
2017-12-01 14:23:58 1512156238.804780: $GPGGA,192359,3946.9573,N,08404.9867,W,2,12,0.80,310.17,M,-33.324,M,,*79
2017-12-01 14:23:58 1512156238.804846: $GPRMC,192359,A,3946.9573,N,08404.9867,W,0.0000,0.000,011217,,*36
2017-12-01 14:23:58 1512156238.804911: $GPGSA,A,3,10,12,14,15,18,21,24,27,32,8,20,138,2.0,0.8,1.5*37
2017-12-01 14:23:59 1512156239.430319: $GPZDA,192400.00,01,12,2017,00,00*6E
2017-12-01 14:23:59 1512156239.430491: $GPGGA,192400,3946.9573,N,08404.9867,W,2,12,0.80,310.17,M,-33.324,M,,*72
2017-12-01 14:23:59 1512156239.430559: $GPRMC,192400,A,3946.9573,N,08404.9867,W,0.0000,0.000,011217,,*3D
2017-12-01 14:23:59 1512156239.430620: $GPGSA,A,3,10,12,14,15,18,21,24,27,32,8,20,138,2.0,0.8,1.5*37
2017-12-01 14:24:00 1512156240.391190: $GPZDA,192401.00,01,12,2017,00,00*6F
2017-12-01 14:24:00 1512156240.391411: $GPGGA,192401,3946.9573,N,08404.9867,W,2,12,0.80,310.17,M,-33.324,M,,*73
2017-12-01 14:24:00 1512156240.391489: $GPRMC,192401,A,3946.9573,N,08404.9867,W,0.0000,0.000,011217,,*3C
2017-12-01 14:24:00 1512156240.391551: $GPGSA,A,3,10,12,14,15,18,21,24,27,32,8,20,138,2.0,0.8,1.5*37
2017-12-01 14:24:01 1512156241.717836: $GPGSV,3,1,12,10,69,331,49,12,09,108,26,14,29,253,40,15,11,066,31*75
2017-12-01 14:24:01 1512156241.718024: $GPGSV,3,2,12,18,70,093,45,21,29,178,46,24,45,058,48,27,06,259,27*74
2017-12-01 14:24:01 1512156241.718092: $GPGSV,3,3,12,32,46,265,45,08,06,294,25,20,09,118,28,138,38,213,46*45
2017-12-01 14:24:01 1512156241.831260: $GPZDA,192402.00,01,12,2017,00,00*6C
2017-12-01 14:24:01 1512156241.831471: $GPGGA,192402,3946.9573,N,08404.9867,W,2,12,0.80,310.17,M,-33.324,M,,*70
2017-12-01 14:24:01 1512156241.831546: $GPRMC,192402,A,3946.9573,N,08404.9867,W,0.0000,0.000,011217,,*3F
2017-12-01 14:24:01 1512156241.831610: $GPGSA,A,3,10,12,14,15,18,21,24,27,32,8,20,138,2.0,0.8,1.5*37
2017-12-01 14:24:02 1512156242.380829: $GPZDA,192403.00,01,12,2017,00,00*6D
2017-12-01 14:24:02 1512156242.380992: $GPGGA,192403,3946.9573,N,08404.9867,W,2,12,0.80,310.17,M,-33.324,M,,*71
2017-12-01 14:24:02 1512156242.381058: $GPRMC,192403,A,3946.9573,N,08404.9867,W,0.0000,0.000,011217,,*3E
2017-12-01 14:24:02 1512156242.381121: $GPGSA,A,3,10,12,14,15,18,21,24,27,32,8,20,138,2.0,0.8,1.5*37
2017-12-01 14:24:03 1512156243.358019: $GPZDA,192404.00,01,12,2017,00,00*6A
2017-12-01 14:24:03 1512156243.358204: $GPGGA,192404,3946.9573,N,08404.9867,W,2,12,0.80,310.17,M,-33.324,M,,*76
2017-12-01 14:24:03 1512156243.358272: $GPRMC,192404,A,3946.9573,N,08404.9867,W,0.0000,0.000,011217,,*39
2017-12-01 14:24:03 1512156243.358334: $GPGSA,A,3,10,12,14,15,18,21,24,27,32,8,20,138,2.0,0.8,1.5*37
2017-12-01 14:24:04 1512156244.703241: $GPGSV,3,1,12,10,69,331,49,12,09,108,25,14,29,253,40,15,11,066,32*75
2017-12-01 14:24:04 1512156244.703498: $GPGSV,3,2,12,18,70,093,44,21,29,178,45,24,45,058,48,27,06,259,27*76
2017-12-01 14:24:04 1512156244.703569: $GPGSV,3,3,12,32,46,265,46,08,06,294,00,20,09,118,28,138,38,213,47*40
2017-12-01 14:24:04 1512156244.814356: $GPZDA,192405.00,01,12,2017,00,00*6B
2017-12-01 14:24:04 1512156244.814526: $GPGGA,192405,3946.9573,N,08404.9867,W,2,11,1.00,310.17,M,-33.324,M,,*7D
2017-12-01 14:24:04 1512156244.814593: $GPRMC,192405,A,3946.9573,N,08404.9867,W,0.0000,0.000,011217,,*38
2017-12-01 14:24:04 1512156244.814653: $GPGSA,A,3,10,12,14,15,18,21,24,27,32,20,138,,2.0,1.0,1.5*06
2017-12-01 14:24:05 1512156245.358992: $GPZDA,192406.00,01,12,2017,00,00*68
2017-12-01 14:24:05 1512156245.359163: $GPGGA,192406,3946.9573,N,08404.9867,W,2,11,0.80,310.17,M,-33.324,M,,*77
2017-12-01 14:24:05 1512156245.359230: $GPRMC,192406,A,3946.9573,N,08404.9867,W,0.0000,0.000,011217,,*3B
2017-12-01 14:24:05 1512156245.359291: $GPGSA,A,3,10,12,14,15,18,21,24,27,32,20,138,,2.0,0.8,1.5*0F
2017-12-01 14:24:06 1512156246.354779: $GPZDA,192407.00,01,12,2017,00,00*69
2017-12-01 14:24:06 1512156246.354963: $GPGGA,192407,3946.9577,N,08404.9867,W,2,11,0.80,310.81,M,-33.324,M,,*7D
2017-12-01 14:24:06 1512156246.355029: $GPRMC,192407,A,3946.9577,N,08404.9867,W,0.0000,0.000,011217,,*3E
2017-12-01 14:24:06 1512156246.355090: $GPGSA,A,3,10,12,14,15,18,21,24,27,32,20,138,,2.0,0.8,1.5*0F
2017-12-01 14:24:07 1512156247.694331: $GPGSV,3,1,12,10,69,331,49,12,09,108,25,14,29,253,40,15,11,066,32*75
2017-12-01 14:24:07 1512156247.694512: $GPGSV,3,2,12,18,70,093,44,21,29,178,45,24,45,058,48,27,06,259,28*79
2017-12-01 14:24:07 1512156247.694597: $GPGSV,3,3,12,32,46,265,46,08,06,294,28,20,09,118,28,138,38,213,46*4B
2017-12-01 14:24:07 1512156247.807665: $GPZDA,192408.00,01,12,2017,00,00*66
2017-12-01 14:24:07 1512156247.807835: $GPGGA,192408,3946.9577,N,08404.9867,W,2,12,0.80,310.81,M,-33.324,M,,*71
2017-12-01 14:24:07 1512156247.807921: $GPRMC,192408,A,3946.9577,N,08404.9867,W,0.0000,0.000,011217,,*31
2017-12-01 14:24:07 1512156247.807984: $GPGSA,A,3,10,12,14,15,18,21,24,27,32,8,20,138,2.0,0.8,1.5*37
2017-12-01 14:24:08 1512156248.349708: $GPZDA,192409.00,01,12,2017,00,00*67
2017-12-01 14:24:08 1512156248.349907: $GPGGA,192409,3946.9577,N,08404.9867,W,2,12,0.80,310.81,M,-33.324,M,,*70
2017-12-01 14:24:08 1512156248.349978: $GPRMC,192409,A,3946.9577,N,08404.9867,W,0.0000,0.000,011217,,*30
2017-12-01 14:24:08 1512156248.350040: $GPGSA,A,3,10,12,14,15,18,21,24,27,32,8,20,138,2.0,0.8,1.5*37
2017-12-01 14:24:09 1512156249.355259: $GPZDA,192410.00,01,12,2017,00,00*6F
2017-12-01 14:24:09 1512156249.355429: $GPGGA,192410,3946.9577,N,08404.9867,W,2,12,0.80,310.81,M,-33.324,M,,*78
2017-12-01 14:24:09 1512156249.355498: $GPRMC,192410,A,3946.9577,N,08404.9867,W,0.0000,0.000,011217,,*38
2017-12-01 14:24:09 1512156249.355582: $GPGSA,A,3,10,12,14,15,18,21,24,27,32,8,20,138,2.0,0.8,1.5*37
2017-12-01 14:24:10 1512156250.690848: $GPGSV,3,1,12,10,69,331,48,12,09,108,26,14,29,253,40,15,11,066,32*77
2017-12-01 14:24:10 1512156250.691010: $GPGSV,3,2,12,18,70,093,45,21,29,178,45,24,45,058,49,27,06,259,28*79
2017-12-01 14:24:10 1512156250.691077: $GPGSV,3,3,12,32,46,265,46,08,06,294,35,20,09,118,28,138,38,213,48*49
2017-12-01 14:24:10 1512156250.804322: $GPZDA,192411.00,01,12,2017,00,00*6E
2017-12-01 14:24:10 1512156250.804497: $GPGGA,192411,3946.9577,N,08404.9867,W,2,12,0.80,310.81,M,-33.324,M,,*79
2017-12-01 14:24:10 1512156250.804564: $GPRMC,192411,A,3946.9577,N,08404.9867,W,0.0000,0.000,011217,,*39
2017-12-01 14:24:10 1512156250.804626: $GPGSA,A,3,10,12,14,15,18,21,24,27,32,8,20,138,2.0,0.8,1.5*37
2017-12-01 14:24:11 1512156251.356676: $GPZDA,192412.00,01,12,2017,00,00*6D
2017-12-01 14:24:11 1512156251.356887: $GPGGA,192412,3946.9577,N,08404.9867,W,2,12,0.80,310.81,M,-33.324,M,,*7A
2017-12-01 14:24:11 1512156251.356956: $GPRMC,192412,A,3946.9577,N,08404.9867,W,0.0000,0.000,011217,,*3A
2017-12-01 14:24:11 1512156251.357018: $GPGSA,A,3,10,12,14,15,18,21,24,27,32,8,20,138,2.0,0.8,1.5*37
2017-12-01 14:24:12 1512156252.349743: $GPZDA,192413.00,01,12,2017,00,00*6C
2017-12-01 14:24:12 1512156252.349930: $GPGGA,192413,3946.9573,N,08404.9867,W,2,12,0.80,310.17,M,-33.324,M,,*70
2017-12-01 14:24:12 1512156252.349997: $GPRMC,192413,A,3946.9573,N,08404.9867,W,0.0000,0.000,011217,,*3F
2017-12-01 14:24:12 1512156252.350059: $GPGSA,A,3,10,12,14,15,18,21,24,27,32,8,20,138,2.0,0.8,1.5*37
2017-12-01 14:24:13 1512156253.685427: $GPGSV,3,1,12,10,69,331,48,12,09,108,26,14,29,253,40,15,11,066,33*76
2017-12-01 14:24:13 1512156253.685611: $GPGSV,3,2,12,18,70,093,45,21,29,178,45,24,45,058,49,27,06,259,28*79
2017-12-01 14:24:13 1512156253.685679: $GPGSV,3,3,12,32,46,265,46,08,06,294,34,20,09,118,28,138,38,213,47*47
2017-12-01 14:24:13 1512156253.798844: $GPZDA,192414.00,01,12,2017,00,00*6B
2017-12-01 14:24:13 1512156253.799013: $GPGGA,192414,3946.9573,N,08404.9867,W,2,12,0.80,310.17,M,-33.324,M,,*77
2017-12-01 14:24:13 1512156253.799081: $GPRMC,192414,A,3946.9573,N,08404.9867,W,0.0000,0.000,011217,,*38
2017-12-01 14:24:13 1512156253.799141: $GPGSA,A,3,10,12,14,15,18,21,24,27,32,8,20,138,2.0,0.8,1.5*37
2017-12-01 14:24:14 1512156254.424234: $GPZDA,192415.00,01,12,2017,00,00*6A
2017-12-01 14:24:14 1512156254.424407: $GPGGA,192415,3946.9573,N,08404.9867,W,2,12,0.80,310.17,M,-33.324,M,,*76
2017-12-01 14:24:14 1512156254.424473: $GPRMC,192415,A,3946.9573,N,08404.9867,W,0.0000,0.000,011217,,*39
2017-12-01 14:24:14 1512156254.424534: $GPGSA,A,3,10,12,14,15,18,21,24,27,32,8,20,138,2.0,0.8,1.5*37
2017-12-01 14:24:15 1512156255.356792: $GPZDA,192416.00,01,12,2017,00,00*69
2017-12-01 14:24:15 1512156255.356980: $GPGGA,192416,3946.9573,N,08404.9867,W,2,12,0.80,310.17,M,-33.324,M,,*75
2017-12-01 14:24:15 1512156255.357049: $GPRMC,192416,A,3946.9573,N,08404.9867,W,0.0000,0.000,011217,,*3A
2017-12-01 14:24:15 1512156255.357110: $GPGSA,A,3,10,12,14,15,18,21,24,27,32,8,20,138,2.0,0.8,1.5*37
2017-12-01 14:24:16 1512156256.693393: $GPGSV,3,1,12,10,69,331,48,12,09,108,26,14,29,253,40,15,11,066,33*76
2017-12-01 14:24:16 1512156256.693543: $GPGSV,3,2,12,18,70,093,45,21,29,178,46,24,45,058,50,27,06,259,26*7C
2017-12-01 14:24:16 1512156256.693609: $GPGSV,3,3,12,32,46,265,46,08,06,294,34,20,09,118,22,138,38,213,46*4C
2017-12-01 14:24:16 1512156256.806770: $GPZDA,192417.00,01,12,2017,00,00*68
2017-12-01 14:24:16 1512156256.806964: $GPGGA,192417,3946.9573,N,08404.9867,W,2,12,0.80,310.17,M,-33.324,M,,*74
2017-12-01 14:24:16 1512156256.807032: $GPRMC,192417,A,3946.9573,N,08404.9867,W,0.0000,0.000,011217,,*3B
2017-12-01 14:24:16 1512156256.807094: $GPGSA,A,3,10,12,14,15,18,21,24,27,32,8,20,138,2.0,0.8,1.5*37
