2017-12-01 14:43:41 1512157421.497393: {"class":"VERSION","release":"3.16","rev":"3.16-4","proto_major":3,"proto_minor":11}
2017-12-01 14:43:41 1512157421.497778: {"class":"DEVICES","devices":[{"class":"DEVICE","path":"/dev/ttyUSB0","driver":"SiRF","subtype":"9\u0006GSD4e_4.1.2-P1_RPATCH.05-F-GPS-4R-1510281 11/03/2015 307","activated":"2017-12-01T19:43:41.348Z","flags":1,"native":1,"bps":4800,"parity":"N","stopbits":1,"cycle":1.00}]}
2017-12-01 14:43:41 1512157421.497889: {"class":"WATCH","enable":true,"json":false,"nmea":true,"raw":0,"scaled":false,"timing":false,"split24":false,"pps":false}
2017-12-01 14:43:41 1512157421.953369: $GPZDA,194342.64,01,12,2017,00,00*6B
2017-12-01 14:43:41 1512157421.953558: $GPGGA,194342,3946.9594,N,08404.9912,W,1,12,1.40,292.95,M,-33.324,M,,*70
2017-12-01 14:43:41 1512157421.953640: $GPRMC,194342,A,3946.9594,N,08404.9912,W,0.0814,322.014,011217,,*3B
2017-12-01 14:43:41 1512157421.953725: $GPGSA,A,3,8,10,12,14,18,21,24,32,15,25,31,138,2.0,1.4,1.5*38
2017-12-01 14:43:43 1512157423.104507: $GPZDA,194343.32,01,12,2017,00,00*69
2017-12-01 14:43:43 1512157423.104676: $GPGGA,194343,3946.9598,N,08404.9912,W,1,12,1.40,293.59,M,-33.324,M,,*7C
2017-12-01 14:43:43 1512157423.104742: $GPRMC,194343,A,3946.9598,N,08404.9912,W,0.4137,224.854,011217,,*31
2017-12-01 14:43:43 1512157423.104804: $GPGSA,A,3,8,10,12,14,18,21,24,32,15,25,31,138,2.0,1.4,1.5*38
2017-12-01 14:43:43 1512157423.104862: $GPGBS,194343,10.70,M,15.43,M,35.28,M*0F
2017-12-01 14:43:44 1512157424.314292: $GPGSV,3,1,12,10,77,349,48,14,36,261,42,18,63,111,46,21,19,177,45*7C
2017-12-01 14:43:44 1512157424.314507: $GPGSV,3,2,12,24,38,051,47,25,09,136,30,32,53,277,43,08,03,286,12*7E
2017-12-01 14:43:44 1512157424.314575: $GPGSV,3,3,12,12,15,099,10,15,05,072,06,31,08,204,12,138,38,213,00*40
2017-12-01 14:43:44 1512157424.427966: $GPZDA,194344.00,01,12,2017,00,00*6F
2017-12-01 14:43:44 1512157424.428137: $GPGGA,194344,3946.9598,N,08404.9905,W,1,09,1.20,293.67,M,-33.324,M,,*7C
2017-12-01 14:43:44 1512157424.428203: $GPRMC,194344,A,3946.9598,N,08404.9905,W,0.1567,189.200,011217,,*3B
2017-12-01 14:43:44 1512157424.428264: $GPGSA,A,3,10,14,18,21,24,25,32,8,31,,,,2.0,1.2,1.5*03
2017-12-01 14:43:44 1512157424.879816: $GPZDA,194345.00,01,12,2017,00,00*6E
2017-12-01 14:43:44 1512157424.879992: $GPGGA,194345,3946.9598,N,08404.9905,W,1,09,1.00,293.67,M,-33.324,M,,*7F
2017-12-01 14:43:44 1512157424.880061: $GPRMC,194345,A,3946.9598,N,08404.9905,W,0.0000,0.000,011217,,*3D
2017-12-01 14:43:44 1512157424.880122: $GPGSA,A,3,10,14,18,21,24,25,32,8,31,,,,2.0,1.0,1.5*01
2017-12-01 14:43:45 1512157425.348544: $GPZDA,194346.00,01,12,2017,00,00*6D
2017-12-01 14:43:45 1512157425.348734: $GPGGA,194346,3946.9597,N,08404.9898,W,1,09,1.00,293.75,M,-33.324,M,,*75
2017-12-01 14:43:45 1512157425.348803: $GPRMC,194346,A,3946.9597,N,08404.9898,W,0.0000,0.000,011217,,*34
2017-12-01 14:43:45 1512157425.348863: $GPGSA,A,3,10,14,18,21,24,25,32,8,31,,,,2.0,1.0,1.5*01
2017-12-01 14:43:46 1512157426.683439: $GPGSV,3,1,12,10,77,349,48,14,36,261,43,18,63,111,46,21,19,177,46*7E
2017-12-01 14:43:46 1512157426.683649: $GPGSV,3,2,12,24,38,051,47,25,09,136,31,32,53,277,43,08,03,286,30*7F
2017-12-01 14:43:46 1512157426.683737: $GPGSV,3,3,12,12,15,099,32,15,05,072,22,31,08,204,32,138,38,213,48*48
2017-12-01 14:43:46 1512157426.795784: $GPZDA,194347.00,01,12,2017,00,00*6C
2017-12-01 14:43:46 1512157426.795957: $GPGGA,194347,3946.9601,N,08404.9897,W,1,12,1.00,292.98,M,-33.324,M,,*7F
2017-12-01 14:43:46 1512157426.796022: $GPRMC,194347,A,3946.9601,N,08404.9897,W,0.0000,0.000,011217,,*36
2017-12-01 14:43:46 1512157426.796083: $GPGSA,A,3,10,14,18,21,24,25,32,8,12,15,31,138,2.0,1.0,1.5*3C
2017-12-01 14:43:47 1512157427.347725: $GPZDA,194348.00,01,12,2017,00,00*63
2017-12-01 14:43:47 1512157427.347900: $GPGGA,194348,3946.9601,N,08404.9897,W,1,12,1.00,292.98,M,-33.324,M,,*70
2017-12-01 14:43:47 1512157427.347967: $GPRMC,194348,A,3946.9601,N,08404.9897,W,0.0000,0.000,011217,,*39
2017-12-01 14:43:47 1512157427.348028: $GPGSA,A,3,10,14,18,21,24,25,32,8,12,15,31,138,2.0,1.0,1.5*3C
2017-12-01 14:43:48 1512157428.345976: $GPZDA,194349.00,01,12,2017,00,00*62
2017-12-01 14:43:48 1512157428.346152: $GPGGA,194349,3946.9601,N,08404.9890,W,1,12,1.00,293.06,M,-33.324,M,,*70
2017-12-01 14:43:48 1512157428.346218: $GPRMC,194349,A,3946.9601,N,08404.9890,W,0.0000,0.000,011217,,*3F
2017-12-01 14:43:48 1512157428.346279: $GPGSA,A,3,10,14,18,21,24,25,32,8,12,15,31,138,2.0,1.0,1.5*3C
2017-12-01 14:43:48 1512157428.346365: $GPGBS,194349,10.70,M,15.43,M,35.28,M*05
2017-12-01 14:43:49 1512157429.684169: $GPGSV,3,1,12,10,77,349,47,14,36,261,43,18,63,111,46,21,19,177,46*71
2017-12-01 14:43:49 1512157429.684383: $GPGSV,3,2,12,24,38,051,47,25,09,136,32,32,53,277,43,08,03,286,29*74
2017-12-01 14:43:49 1512157429.684471: $GPGSV,3,3,12,12,15,099,32,15,05,072,22,31,08,204,31,138,38,213,47*44
2017-12-01 14:43:49 1512157429.797537: $GPZDA,194350.00,01,12,2017,00,00*6A
2017-12-01 14:43:49 1512157429.797684: $GPGGA,194350,3946.9596,N,08404.9890,W,1,12,1.00,292.42,M,-33.324,M,,*74
2017-12-01 14:43:49 1512157429.797753: $GPRMC,194350,A,3946.9596,N,08404.9890,W,0.2422,93.794,011217,,*0C
2017-12-01 14:43:49 1512157429.797817: $GPGSA,A,3,10,14,18,21,24,25,32,8,12,15,31,138,2.0,1.0,1.5*3C
2017-12-01 14:43:50 1512157430.349772: $GPZDA,194351.00,01,12,2017,00,00*6B
2017-12-01 14:43:50 1512157430.350142: $GPGGA,194351,3946.9596,N,08404.9883,W,1,12,1.00,292.50,M,-33.324,M,,*74
2017-12-01 14:43:50 1512157430.350275: $GPRMC,194351,A,3946.9596,N,08404.9883,W,0.0000,0.000,011217,,*39
2017-12-01 14:43:50 1512157430.350415: $GPGSA,A,3,10,14,18,21,24,25,32,8,12,15,31,138,2.0,1.0,1.5*3C
2017-12-01 14:43:51 1512157431.347701: $GPZDA,194352.00,01,12,2017,00,00*68
2017-12-01 14:43:51 1512157431.347873: $GPGGA,194352,3946.9599,N,08404.9882,W,1,12,1.00,291.74,M,-33.324,M,,*7C
2017-12-01 14:43:51 1512157431.347942: $GPRMC,194352,A,3946.9599,N,08404.9882,W,0.0000,0.000,011217,,*34
2017-12-01 14:43:51 1512157431.348005: $GPGSA,A,3,10,14,18,21,24,25,32,8,12,15,31,138,2.0,1.0,1.5*3C
2017-12-01 14:43:52 1512157432.683268: $GPGSV,3,1,12,10,77,349,47,14,36,261,43,18,63,111,46,21,19,177,45*72
2017-12-01 14:43:52 1512157432.683489: $GPGSV,3,2,12,24,38,051,47,25,09,136,32,32,53,277,44,08,03,286,29*73
2017-12-01 14:43:52 1512157432.683576: $GPGSV,3,3,12,12,15,099,33,15,05,072,23,31,08,204,31,138,38,213,48*4B
2017-12-01 14:43:52 1512157432.796747: $GPZDA,194353.00,01,12,2017,00,00*69
2017-12-01 14:43:52 1512157432.796925: $GPGGA,194353,3946.9601,N,08404.9853,W,2,12,5.00,289.88,M,-33.324,M,,*7E
2017-12-01 14:43:52 1512157432.796995: $GPRMC,194353,A,3946.9601,N,08404.9853,W,0.0000,0.000,011217,,*3B
2017-12-01 14:43:52 1512157432.797058: $GPGSA,A,2,10,14,18,21,24,25,32,8,12,15,31,138,2.0,5.0,1.5*39
2017-12-01 14:43:53 1512157433.348934: $GPZDA,194354.00,01,12,2017,00,00*6E
2017-12-01 14:43:53 1512157433.349106: $GPGGA,194354,3946.9601,N,08404.9853,W,2,12,1.00,289.88,M,-33.324,M,,*7D
2017-12-01 14:43:53 1512157433.349176: $GPRMC,194354,A,3946.9601,N,08404.9853,W,0.0000,0.000,011217,,*3C
2017-12-01 14:43:53 1512157433.349241: $GPGSA,A,3,10,14,18,21,24,25,32,8,12,15,31,138,2.0,1.0,1.5*3C
2017-12-01 14:43:54 1512157434.349904: $GPZDA,194355.00,01,12,2017,00,00*6F
2017-12-01 14:43:54 1512157434.350076: $GPGGA,194355,3946.9597,N,08404.9854,W,2,12,1.00,290.65,M,-33.324,M,,*7C
2017-12-01 14:43:54 1512157434.350146: $GPRMC,194355,A,3946.9597,N,08404.9854,W,0.0000,0.000,011217,,*36
2017-12-01 14:43:54 1512157434.350210: $GPGSA,A,3,10,14,18,21,24,25,32,8,12,15,31,138,2.0,1.0,1.5*3C
2017-12-01 14:43:55 1512157435.690414: $GPGSV,3,1,12,10,77,349,48,14,36,261,43,18,63,111,46,21,19,177,46*7E
2017-12-01 14:43:55 1512157435.690608: $GPGSV,3,2,12,24,38,051,47,25,09,136,31,32,53,277,45,08,03,286,29*71
2017-12-01 14:43:55 1512157435.690678: $GPGSV,3,3,12,12,15,099,34,15,05,072,22,31,08,204,32,138,38,213,47*41
2017-12-01 14:43:55 1512157435.803763: $GPZDA,194356.00,01,12,2017,00,00*6C
2017-12-01 14:43:55 1512157435.803917: $GPGGA,194356,3946.9601,N,08404.9854,W,2,12,1.00,291.29,M,-33.324,M,,*7A
2017-12-01 14:43:55 1512157435.803987: $GPRMC,194356,A,3946.9601,N,08404.9854,W,0.0000,0.000,011217,,*39
2017-12-01 14:43:55 1512157435.804099: $GPGSA,A,3,10,14,18,21,24,25,32,8,12,15,31,138,2.0,1.0,1.5*3C
2017-12-01 14:43:56 1512157436.429327: $GPZDA,194357.00,01,12,2017,00,00*6D
2017-12-01 14:43:56 1512157436.429509: $GPGGA,194357,3946.9601,N,08404.9854,W,2,12,1.00,291.29,M,-33.324,M,,*7B
2017-12-01 14:43:56 1512157436.429576: $GPRMC,194357,A,3946.9601,N,08404.9854,W,0.0000,0.000,011217,,*38
2017-12-01 14:43:56 1512157436.429638: $GPGSA,A,3,10,14,18,21,24,25,32,8,12,15,31,138,2.0,1.0,1.5*3C
2017-12-01 14:43:57 1512157437.349027: $GPZDA,194358.00,01,12,2017,00,00*62
2017-12-01 14:43:57 1512157437.349198: $GPGGA,194358,3946.9601,N,08404.9854,W,2,12,1.00,291.29,M,-33.324,M,,*74
2017-12-01 14:43:57 1512157437.349264: $GPRMC,194358,A,3946.9601,N,08404.9854,W,0.0000,0.000,011217,,*37
2017-12-01 14:43:57 1512157437.349350: $GPGSA,A,3,10,14,18,21,24,25,32,8,12,15,31,138,2.0,1.0,1.5*3C
2017-12-01 14:43:58 1512157438.685830: $GPGSV,3,1,12,10,77,349,48,14,36,261,43,18,63,111,46,21,19,177,46*7E
2017-12-01 14:43:58 1512157438.686013: $GPGSV,3,2,12,24,38,051,47,25,09,136,31,32,53,277,45,08,03,286,30*79
2017-12-01 14:43:58 1512157438.686080: $GPGSV,3,3,12,12,15,099,34,15,05,072,17,31,08,204,32,138,38,213,48*48
2017-12-01 14:43:58 1512157438.799274: $GPZDA,194359.00,01,12,2017,00,00*63
2017-12-01 14:43:58 1512157438.799490: $GPGGA,194359,3946.9601,N,08404.9854,W,2,12,1.00,291.29,M,-33.324,M,,*75
2017-12-01 14:43:58 1512157438.799557: $GPRMC,194359,A,3946.9601,N,08404.9854,W,0.0000,0.000,011217,,*36
2017-12-01 14:43:58 1512157438.799618: $GPGSA,A,3,10,14,18,21,24,25,32,8,12,15,31,138,2.0,1.0,1.5*3C
2017-12-01 14:43:59 1512157439.348899: $GPZDA,194400.00,01,12,2017,00,00*68
2017-12-01 14:43:59 1512157439.349074: $GPGGA,194400,3946.9601,N,08404.9854,W,2,12,1.00,291.29,M,-33.324,M,,*7E
2017-12-01 14:43:59 1512157439.349141: $GPRMC,194400,A,3946.9601,N,08404.9854,W,0.0000,0.000,011217,,*3D
2017-12-01 14:43:59 1512157439.349203: $GPGSA,A,3,10,14,18,21,24,25,32,8,12,15,31,138,2.0,1.0,1.5*3C
2017-12-01 14:44:00 1512157440.348578: $GPZDA,194401.00,01,12,2017,00,00*69
2017-12-01 14:44:00 1512157440.348749: $GPGGA,194401,3946.9601,N,08404.9854,W,2,12,1.00,291.29,M,-33.324,M,,*7F
2017-12-01 14:44:00 1512157440.348819: $GPRMC,194401,A,3946.9601,N,08404.9854,W,0.0000,0.000,011217,,*3C
2017-12-01 14:44:00 1512157440.348884: $GPGSA,A,3,10,14,18,21,24,25,32,8,12,15,31,138,2.0,1.0,1.5*3C
2017-12-01 14:44:00 1512157440.348945: $GPGBS,194401,2.67,M,3.86,M,8.82,M*3B
2017-12-01 14:44:01 1512157441.684885: $GPGSV,3,1,12,10,77,349,48,14,36,261,43,18,63,111,46,21,19,177,46*7E
2017-12-01 14:44:01 1512157441.685051: $GPGSV,3,2,12,24,38,051,48,11,02,324,28,32,53,277,45,08,03,286,31*72
2017-12-01 14:44:01 1512157441.685121: $GPGSV,3,3,12,12,15,099,35,15,05,072,19,31,08,204,27,138,38,213,48*43
2017-12-01 14:44:01 1512157441.798438: $GPZDA,194402.00,01,12,2017,00,00*6A
2017-12-01 14:44:01 1512157441.798650: $GPGGA,194402,3946.9601,N,08404.9854,W,2,12,1.00,291.29,M,-33.324,M,,*7C
2017-12-01 14:44:01 1512157441.798721: $GPRMC,194402,A,3946.9601,N,08404.9854,W,0.0000,0.000,011217,,*3F
2017-12-01 14:44:01 1512157441.798785: $GPGSA,A,3,10,14,18,21,24,11,32,8,12,15,31,138,2.0,1.0,1.5*3B
2017-12-01 14:44:02 1512157442.350448: $GPZDA,194403.00,01,12,2017,00,00*6B
2017-12-01 14:44:02 1512157442.350638: $GPGGA,194403,3946.9601,N,08404.9854,W,2,12,1.00,291.29,M,-33.324,M,,*7D
2017-12-01 14:44:02 1512157442.350709: $GPRMC,194403,A,3946.9601,N,08404.9854,W,0.0000,0.000,011217,,*3E
2017-12-01 14:44:02 1512157442.350774: $GPGSA,A,3,10,14,18,21,24,11,32,8,12,15,31,138,2.0,1.0,1.5*3B
2017-12-01 14:44:03 1512157443.348815: $GPZDA,194404.00,01,12,2017,00,00*6C
2017-12-01 14:44:03 1512157443.348989: $GPGGA,194404,3946.9601,N,08404.9854,W,2,12,1.00,291.29,M,-33.324,M,,*7A
2017-12-01 14:44:03 1512157443.349060: $GPRMC,194404,A,3946.9601,N,08404.9854,W,0.0000,0.000,011217,,*39
2017-12-01 14:44:03 1512157443.349124: $GPGSA,A,3,10,14,18,21,24,11,32,8,12,15,31,138,2.0,1.0,1.5*3B
2017-12-01 14:44:04 1512157444.686997: $GPGSV,3,1,12,10,77,349,48,14,36,261,43,18,63,111,46,21,19,177,46*7E
2017-12-01 14:44:04 1512157444.687234: $GPGSV,3,2,12,24,38,051,48,25,09,136,31,32,53,277,45,08,03,286,30*76
2017-12-01 14:44:04 1512157444.687323: $GPGSV,3,3,12,12,15,099,35,15,05,072,18,31,08,204,28,138,38,213,47*42
2017-12-01 14:44:04 1512157444.800575: $GPZDA,194405.00,01,12,2017,00,00*6D
2017-12-01 14:44:04 1512157444.800714: $GPGGA,194405,3946.9601,N,08404.9854,W,2,12,1.00,291.29,M,-33.324,M,,*7B
2017-12-01 14:44:04 1512157444.800779: $GPRMC,194405,A,3946.9601,N,08404.9854,W,0.0000,0.000,011217,,*38
2017-12-01 14:44:04 1512157444.800841: $GPGSA,A,3,10,14,18,21,24,25,32,8,12,15,31,138,2.0,1.0,1.5*3C
2017-12-01 14:44:05 1512157445.342845: $GPZDA,194406.00,01,12,2017,00,00*6E
2017-12-01 14:44:05 1512157445.343026: $GPGGA,194406,3946.9601,N,08404.9854,W,2,12,1.00,291.29,M,-33.324,M,,*78
2017-12-01 14:44:05 1512157445.343097: $GPRMC,194406,A,3946.9601,N,08404.9854,W,0.3423,4.196,011217,,*37
2017-12-01 14:44:05 1512157445.343161: $GPGSA,A,3,10,14,18,21,24,25,32,8,12,15,31,138,2.0,1.0,1.5*3C
2017-12-01 14:44:06 1512157446.345399: $GPZDA,194407.00,01,12,2017,00,00*6F
2017-12-01 14:44:06 1512157446.345581: $GPGGA,194407,3946.9601,N,08404.9854,W,2,12,1.00,291.29,M,-33.324,M,,*79
2017-12-01 14:44:06 1512157446.345650: $GPRMC,194407,A,3946.9601,N,08404.9854,W,0.0000,0.000,011217,,*3A
2017-12-01 14:44:06 1512157446.345714: $GPGSA,A,3,10,14,18,21,24,25,32,8,12,15,31,138,2.0,1.0,1.5*3C
