2017-12-01 15:53:03 1512161583.587511: {"class":"VERSION","release":"3.16","rev":"3.16-4","proto_major":3,"proto_minor":11}
2017-12-01 15:53:03 1512161583.587896: {"class":"DEVICES","devices":[{"class":"DEVICE","path":"/dev/ttyUSB0","driver":"SiRF","subtype":"9\u0006GSD4e_4.1.2-P1_RPATCH.05-F-GPS-4R-1510281 11/03/2015 307","activated":"2017-12-01T20:53:03.562Z","flags":1,"native":1,"bps":4800,"parity":"N","stopbits":1,"cycle":1.00}]}
2017-12-01 15:53:03 1512161583.588010: {"class":"WATCH","enable":true,"json":false,"nmea":true,"raw":0,"scaled":false,"timing":false,"split24":false,"pps":false}
2017-12-01 15:53:04 1512161584.421223: $GPZDA,205305.00,01,12,2017,00,00*61
2017-12-01 15:53:04 1512161584.421451: $GPGGA,205305,3946.9595,N,08404.9849,W,2,12,0.80,294.30,M,-33.324,M,,*71
2017-12-01 15:53:04 1512161584.421524: $GPRMC,205305,A,3946.9595,N,08404.9849,W,0.0000,0.000,011217,,*36
2017-12-01 15:53:04 1512161584.421587: $GPGSA,A,3,10,12,14,18,25,31,32,1,11,24,22,138,2.0,0.8,1.5*3B
2017-12-01 15:53:05 1512161585.757710: $GPGSV,3,1,12,10,66,135,47,12,25,067,40,14,57,297,43,18,34,136,47*79
2017-12-01 15:53:05 1512161585.757893: $GPGSV,3,2,12,25,32,111,42,31,38,213,49,32,69,339,47,01,16,316,42*7E
2017-12-01 15:53:05 1512161585.757960: $GPGSV,3,3,12,11,11,298,31,24,11,046,27,22,05,312,32,138,38,213,46*4D
2017-12-01 15:53:05 1512161585.871529: $GPZDA,205306.00,01,12,2017,00,00*62
2017-12-01 15:53:05 1512161585.871735: $GPGGA,205306,3946.9595,N,08404.9849,W,2,12,0.80,294.30,M,-33.324,M,,*72
2017-12-01 15:53:05 1512161585.871803: $GPRMC,205306,A,3946.9595,N,08404.9849,W,0.0000,0.000,011217,,*35
2017-12-01 15:53:05 1512161585.871868: $GPGSA,A,3,10,12,14,18,25,31,32,1,11,24,22,138,2.0,0.8,1.5*3B
2017-12-01 15:53:06 1512161586.424959: $GPZDA,205307.00,01,12,2017,00,00*63
2017-12-01 15:53:06 1512161586.425133: $GPGGA,205307,3946.9595,N,08404.9849,W,2,12,0.80,294.30,M,-33.324,M,,*73
2017-12-01 15:53:06 1512161586.425200: $GPRMC,205307,A,3946.9595,N,08404.9849,W,0.0000,0.000,011217,,*34
2017-12-01 15:53:06 1512161586.425261: $GPGSA,A,3,10,12,14,18,25,31,32,1,11,24,22,138,2.0,0.8,1.5*3B
2017-12-01 15:53:07 1512161587.421649: $GPZDA,205308.00,01,12,2017,00,00*6C
2017-12-01 15:53:07 1512161587.425657: $GPGGA,205308,3946.9595,N,08404.9849,W,2,12,0.80,294.30,M,-33.324,M,,*7C
2017-12-01 15:53:07 1512161587.425774: $GPRMC,205308,A,3946.9595,N,08404.9849,W,0.0000,0.000,011217,,*3B
2017-12-01 15:53:07 1512161587.425839: $GPGSA,A,3,10,12,14,18,25,31,32,1,11,24,22,138,2.0,0.8,1.5*3B
2017-12-01 15:53:08 1512161588.768585: $GPGSV,3,1,12,10,66,135,47,12,25,067,39,14,57,297,43,18,34,136,46*76
2017-12-01 15:53:08 1512161588.768763: $GPGSV,3,2,12,25,32,111,43,31,38,213,49,32,69,339,47,01,16,316,41*7C
2017-12-01 15:53:08 1512161588.768829: $GPGSV,3,3,12,11,11,298,31,24,11,046,28,22,05,312,23,138,38,213,45*41
2017-12-01 15:53:08 1512161588.882261: $GPZDA,205309.00,01,12,2017,00,00*6D
2017-12-01 15:53:08 1512161588.882427: $GPGGA,205309,3946.9595,N,08404.9849,W,2,12,0.80,294.30,M,-33.324,M,,*7D
2017-12-01 15:53:08 1512161588.882492: $GPRMC,205309,A,3946.9595,N,08404.9849,W,0.0000,0.000,011217,,*3A
2017-12-01 15:53:08 1512161588.882553: $GPGSA,A,3,10,12,14,18,25,31,32,1,11,24,22,138,2.0,0.8,1.5*3B
2017-12-01 15:53:09 1512161589.439357: $GPZDA,205310.00,01,12,2017,00,00*65
2017-12-01 15:53:09 1512161589.439532: $GPGGA,205310,3946.9595,N,08404.9849,W,2,12,0.80,294.30,M,-33.324,M,,*75
2017-12-01 15:53:09 1512161589.439599: $GPRMC,205310,A,3946.9595,N,08404.9849,W,0.0000,0.000,011217,,*32
2017-12-01 15:53:09 1512161589.439660: $GPGSA,A,3,10,12,14,18,25,31,32,1,11,24,22,138,2.0,0.8,1.5*3B
2017-12-01 15:53:10 1512161590.438349: $GPZDA,205311.00,01,12,2017,00,00*64
2017-12-01 15:53:10 1512161590.438520: $GPGGA,205311,3946.9595,N,08404.9849,W,2,12,0.80,294.30,M,-33.324,M,,*74
2017-12-01 15:53:10 1512161590.438587: $GPRMC,205311,A,3946.9595,N,08404.9849,W,0.0000,0.000,011217,,*33
2017-12-01 15:53:10 1512161590.438647: $GPGSA,A,3,10,12,14,18,25,31,32,1,11,24,22,138,2.0,0.8,1.5*3B
2017-12-01 15:53:11 1512161591.773946: $GPGSV,3,1,12,10,66,135,47,12,25,067,40,14,57,297,43,18,34,136,47*79
2017-12-01 15:53:11 1512161591.774181: $GPGSV,3,2,12,25,32,111,42,31,38,213,49,32,69,339,47,01,16,316,40*7C
2017-12-01 15:53:11 1512161591.774252: $GPGSV,3,3,12,11,11,298,30,24,11,046,28,22,05,312,34,138,38,213,46*45
2017-12-01 15:53:11 1512161591.887287: $GPZDA,205312.00,01,12,2017,00,00*67
2017-12-01 15:53:11 1512161591.887431: $GPGGA,205312,3946.9595,N,08404.9849,W,2,12,0.80,294.30,M,-33.324,M,,*77
2017-12-01 15:53:11 1512161591.887497: $GPRMC,205312,A,3946.9595,N,08404.9849,W,0.0000,0.000,011217,,*30
2017-12-01 15:53:11 1512161591.887557: $GPGSA,A,3,10,12,14,18,25,31,32,1,11,24,22,138,2.0,0.8,1.5*3B
2017-12-01 15:53:12 1512161592.438354: $GPZDA,205313.00,01,12,2017,00,00*66
2017-12-01 15:53:12 1512161592.438819: $GPGGA,205313,3946.9595,N,08404.9849,W,2,12,0.80,294.30,M,-33.324,M,,*76
2017-12-01 15:53:12 1512161592.439986: $GPRMC,205313,A,3946.9595,N,08404.9849,W,0.0000,0.000,011217,,*31
2017-12-01 15:53:12 1512161592.440096: $GPGSA,A,3,10,12,14,18,25,31,32,1,11,24,22,138,2.0,0.8,1.5*3B
2017-12-01 15:53:13 1512161593.422808: $GPZDA,205314.00,01,12,2017,00,00*61
2017-12-01 15:53:13 1512161593.422995: $GPGGA,205314,3946.9595,N,08404.9849,W,2,12,0.80,294.30,M,-33.324,M,,*71
2017-12-01 15:53:13 1512161593.423062: $GPRMC,205314,A,3946.9595,N,08404.9849,W,0.0000,0.000,011217,,*36
2017-12-01 15:53:13 1512161593.423123: $GPGSA,A,3,10,12,14,18,25,31,32,1,11,24,22,138,2.0,0.8,1.5*3B
2017-12-01 15:53:14 1512161594.758613: $GPGSV,3,1,12,10,66,135,47,12,25,067,40,14,57,297,43,18,34,136,47*79
2017-12-01 15:53:14 1512161594.758810: $GPGSV,3,2,12,25,32,111,43,31,38,213,49,32,69,339,47,01,16,316,39*73
2017-12-01 15:53:14 1512161594.758880: $GPGSV,3,3,12,11,11,298,30,24,11,046,29,22,05,312,31,138,38,213,45*42
2017-12-01 15:53:14 1512161594.872116: $GPZDA,205315.00,01,12,2017,00,00*60
2017-12-01 15:53:14 1512161594.872320: $GPGGA,205315,3946.9595,N,08404.9849,W,2,12,0.80,294.30,M,-33.324,M,,*70
2017-12-01 15:53:14 1512161594.872393: $GPRMC,205315,A,3946.9595,N,08404.9849,W,0.0000,0.000,011217,,*37
2017-12-01 15:53:14 1512161594.872458: $GPGSA,A,3,10,12,14,18,25,31,32,1,11,24,22,138,2.0,0.8,1.5*3B
2017-12-01 15:53:15 1512161595.497556: $GPZDA,205316.00,01,12,2017,00,00*63
2017-12-01 15:53:15 1512161595.497732: $GPGGA,205316,3946.9599,N,08404.9849,W,2,12,0.80,294.94,M,-33.324,M,,*71
2017-12-01 15:53:15 1512161595.497803: $GPRMC,205316,A,3946.9599,N,08404.9849,W,0.0000,0.000,011217,,*38
2017-12-01 15:53:15 1512161595.497867: $GPGSA,A,3,10,12,14,18,25,31,32,1,11,24,22,138,2.0,0.8,1.5*3B
2017-12-01 15:53:16 1512161596.438335: $GPZDA,205317.00,01,12,2017,00,00*62
2017-12-01 15:53:16 1512161596.438508: $GPGGA,205317,3946.9599,N,08404.9849,W,2,12,0.80,294.94,M,-33.324,M,,*70
2017-12-01 15:53:16 1512161596.438577: $GPRMC,205317,A,3946.9599,N,08404.9849,W,0.0000,0.000,011217,,*39
2017-12-01 15:53:16 1512161596.438641: $GPGSA,A,3,10,12,14,18,25,31,32,1,11,24,22,138,2.0,0.8,1.5*3B
2017-12-01 15:53:17 1512161597.757883: $GPGSV,3,1,12,10,66,135,47,12,25,067,39,14,57,297,43,18,34,136,47*77
2017-12-01 15:53:17 1512161597.758065: $GPGSV,3,2,12,25,32,111,43,31,38,213,49,32,69,339,47,01,16,316,38*72
2017-12-01 15:53:17 1512161597.758135: $GPGSV,3,3,12,11,11,298,29,24,11,046,30,22,05,312,30,138,38,213,46*40
2017-12-01 15:53:17 1512161597.871490: $GPZDA,205318.00,01,12,2017,00,00*6D
2017-12-01 15:53:17 1512161597.871649: $GPGGA,205318,3946.9599,N,08404.9849,W,2,12,0.80,294.94,M,-33.324,M,,*7F
2017-12-01 15:53:17 1512161597.871719: $GPRMC,205318,A,3946.9599,N,08404.9849,W,0.0000,0.000,011217,,*36
2017-12-01 15:53:17 1512161597.871782: $GPGSA,A,3,10,12,14,18,25,31,32,1,11,24,22,138,2.0,0.8,1.5*3B
2017-12-01 15:53:18 1512161598.434811: $GPZDA,205319.00,01,12,2017,00,00*6C
2017-12-01 15:53:18 1512161598.434991: $GPGGA,205319,3946.9599,N,08404.9849,W,2,12,0.80,294.94,M,-33.324,M,,*7E
2017-12-01 15:53:18 1512161598.435061: $GPRMC,205319,A,3946.9599,N,08404.9849,W,0.0000,0.000,011217,,*37
2017-12-01 15:53:18 1512161598.435125: $GPGSA,A,3,10,12,14,18,25,31,32,1,11,24,22,138,2.0,0.8,1.5*3B
2017-12-01 15:53:19 1512161599.431725: $GPZDA,205320.00,01,12,2017,00,00*66
2017-12-01 15:53:19 1512161599.431897: $GPGGA,205320,3946.9599,N,08404.9849,W,2,12,0.80,294.94,M,-33.324,M,,*74
2017-12-01 15:53:19 1512161599.431964: $GPRMC,205320,A,3946.9599,N,08404.9849,W,0.0000,0.000,011217,,*3D
2017-12-01 15:53:19 1512161599.432025: $GPGSA,A,3,10,12,14,18,25,31,32,1,11,24,22,138,2.0,0.8,1.5*3B
2017-12-01 15:53:20 1512161600.773473: $GPGSV,3,1,12,10,66,135,47,12,25,067,39,14,57,297,43,18,34,136,47*77
2017-12-01 15:53:20 1512161600.773629: $GPGSV,3,2,12,25,32,111,43,31,38,213,50,32,69,339,47,01,16,316,38*7A
2017-12-01 15:53:20 1512161600.773695: $GPGSV,3,3,12,11,11,298,26,24,11,046,30,22,05,312,38,138,38,213,46*47
2017-12-01 15:53:20 1512161600.886894: $GPZDA,205321.00,01,12,2017,00,00*67
2017-12-01 15:53:20 1512161600.887068: $GPGGA,205321,3946.9599,N,08404.9849,W,2,12,0.80,294.94,M,-33.324,M,,*75
2017-12-01 15:53:20 1512161600.887135: $GPRMC,205321,A,3946.9599,N,08404.9849,W,0.0000,0.000,011217,,*3C
2017-12-01 15:53:20 1512161600.887196: $GPGSA,A,3,10,12,14,18,25,31,32,1,11,24,22,138,2.0,0.8,1.5*3B
2017-12-01 15:53:21 1512161601.421590: $GPZDA,205322.00,01,12,2017,00,00*64
2017-12-01 15:53:21 1512161601.421760: $GPGGA,205322,3946.9599,N,08404.9849,W,2,12,0.80,294.94,M,-33.324,M,,*76
2017-12-01 15:53:21 1512161601.421827: $GPRMC,205322,A,3946.9599,N,08404.9849,W,0.0000,0.000,011217,,*3F
2017-12-01 15:53:21 1512161601.421888: $GPGSA,A,3,10,12,14,18,25,31,32,1,11,24,22,138,2.0,0.8,1.5*3B
2017-12-01 15:53:22 1512161602.438815: $GPZDA,205323.00,01,12,2017,00,00*65
2017-12-01 15:53:22 1512161602.438988: $GPGGA,205323,3946.9599,N,08404.9849,W,2,12,0.80,294.94,M,-33.324,M,,*77
2017-12-01 15:53:22 1512161602.439054: $GPRMC,205323,A,3946.9599,N,08404.9849,W,0.0000,0.000,011217,,*3E
2017-12-01 15:53:22 1512161602.439115: $GPGSA,A,3,10,12,14,18,25,31,32,1,11,24,22,138,2.0,0.8,1.5*3B
