2017-12-01 14:26:58 1512156418.566871: {"class":"VERSION","release":"3.16","rev":"3.16-4","proto_major":3,"proto_minor":11}
2017-12-01 14:26:58 1512156418.567285: {"class":"DEVICES","devices":[{"class":"DEVICE","path":"/dev/ttyUSB0","driver":"SiRF","subtype":"9\u0006GSD4e_4.1.2-P1_RPATCH.05-F-GPS-4R-1510281 11/03/2015 307","activated":"2017-12-01T19:26:58.252Z","flags":1,"native":1,"bps":4800,"parity":"N","stopbits":1,"cycle":1.00}]}
2017-12-01 14:26:58 1512156418.567406: {"class":"WATCH","enable":true,"json":false,"nmea":true,"raw":0,"scaled":false,"timing":false,"split24":false,"pps":false}
2017-12-01 14:26:58 1512156418.701691: $GPGSV,3,1,12,08,05,292,28,10,70,333,48,14,30,255,39,18,69,097,45*78
2017-12-01 14:26:58 1512156418.701874: $GPGSV,3,2,12,21,27,178,46,24,44,057,49,32,47,267,45,12,10,106,26*79
2017-12-01 14:26:58 1512156418.701940: $GPGSV,3,3,12,15,10,067,33,20,08,118,20,27,06,259,18,138,38,213,46*49
2017-12-01 14:26:58 1512156418.815058: $GPZDA,192659.00,01,12,2017,00,00*60
2017-12-01 14:26:58 1512156418.815238: $GPGGA,192659,3946.9560,N,08404.9860,W,2,12,0.80,308.33,M,-33.324,M,,*76
2017-12-01 14:26:58 1512156418.815305: $GPRMC,192659,A,3946.9560,N,08404.9860,W,0.0000,0.000,011217,,*36
2017-12-01 14:26:58 1512156418.815367: $GPGSA,A,3,8,10,14,18,21,24,32,12,15,20,27,138,2.0,0.8,1.5*37
2017-12-01 14:26:59 1512156419.440421: $GPZDA,192700.00,01,12,2017,00,00*6D
2017-12-01 14:26:59 1512156419.440615: $GPGGA,192700,3946.9560,N,08404.9860,W,2,12,0.80,308.33,M,-33.324,M,,*7B
2017-12-01 14:26:59 1512156419.440682: $GPRMC,192700,A,3946.9560,N,08404.9860,W,0.0000,0.000,011217,,*3B
2017-12-01 14:26:59 1512156419.440745: $GPGSA,A,3,8,10,14,18,21,24,32,12,15,20,27,138,2.0,0.8,1.5*37
2017-12-01 14:27:00 1512156420.325109: $GPZDA,192701.00,01,12,2017,00,00*6C
2017-12-01 14:27:00 1512156420.325284: $GPGGA,192701,3946.9560,N,08404.9860,W,2,12,0.80,308.33,M,-33.324,M,,*7A
2017-12-01 14:27:00 1512156420.325353: $GPRMC,192701,A,3946.9560,N,08404.9860,W,0.0000,0.000,011217,,*3A
2017-12-01 14:27:00 1512156420.325414: $GPGSA,A,3,8,10,14,18,21,24,32,12,15,20,27,138,2.0,0.8,1.5*37
2017-12-01 14:27:01 1512156421.668348: $GPGSV,3,1,12,08,05,292,33,10,70,333,48,14,30,255,40,18,69,097,45*7C
2017-12-01 14:27:01 1512156421.668548: $GPGSV,3,2,12,21,27,178,46,24,44,057,49,32,47,267,45,12,10,106,26*79
2017-12-01 14:27:01 1512156421.668619: $GPGSV,3,3,12,15,10,067,33,20,08,118,21,27,06,259,19,138,38,213,46*49
2017-12-01 14:27:01 1512156421.781684: $GPZDA,192702.00,01,12,2017,00,00*6F
2017-12-01 14:27:01 1512156421.781863: $GPGGA,192702,3946.9557,N,08404.9860,W,2,12,0.80,309.09,M,-33.324,M,,*75
2017-12-01 14:27:01 1512156421.781930: $GPRMC,192702,A,3946.9557,N,08404.9860,W,0.0000,0.000,011217,,*3D
2017-12-01 14:27:01 1512156421.781993: $GPGSA,A,3,8,10,14,18,21,24,32,12,15,20,27,138,2.0,0.8,1.5*37
2017-12-01 14:27:02 1512156422.330026: $GPZDA,192703.00,01,12,2017,00,00*6E
2017-12-01 14:27:02 1512156422.330203: $GPGGA,192703,3946.9557,N,08404.9860,W,2,12,0.80,309.09,M,-33.324,M,,*74
2017-12-01 14:27:02 1512156422.330270: $GPRMC,192703,A,3946.9557,N,08404.9860,W,0.0000,0.000,011217,,*3C
2017-12-01 14:27:02 1512156422.330332: $GPGSA,A,3,8,10,14,18,21,24,32,12,15,20,27,138,2.0,0.8,1.5*37
2017-12-01 14:27:03 1512156423.364645: $GPZDA,192704.00,01,12,2017,00,00*69
2017-12-01 14:27:03 1512156423.364825: $GPGGA,192704,3946.9557,N,08404.9860,W,2,12,0.80,309.09,M,-33.324,M,,*73
2017-12-01 14:27:03 1512156423.364894: $GPRMC,192704,A,3946.9557,N,08404.9860,W,0.0000,0.000,011217,,*3B
2017-12-01 14:27:03 1512156423.364957: $GPGSA,A,3,8,10,14,18,21,24,32,12,15,20,27,138,2.0,0.8,1.5*37
2017-12-01 14:27:04 1512156424.702401: $GPGSV,3,1,12,08,05,292,31,10,70,333,48,14,30,255,39,18,69,097,45*70
2017-12-01 14:27:04 1512156424.702595: $GPGSV,3,2,12,21,27,178,45,24,44,057,49,32,47,267,45,12,10,106,26*7A
2017-12-01 14:27:04 1512156424.702663: $GPGSV,3,3,12,15,10,067,32,20,08,118,22,27,06,259,26,138,38,213,47*46
2017-12-01 14:27:04 1512156424.815788: $GPZDA,192705.00,01,12,2017,00,00*68
2017-12-01 14:27:04 1512156424.815955: $GPGGA,192705,3946.9557,N,08404.9860,W,2,12,0.80,309.09,M,-33.324,M,,*72
2017-12-01 14:27:04 1512156424.816069: $GPRMC,192705,A,3946.9557,N,08404.9860,W,0.0000,0.000,011217,,*3A
2017-12-01 14:27:04 1512156424.816133: $GPGSA,A,3,8,10,14,18,21,24,32,12,15,20,27,138,2.0,0.8,1.5*37
2017-12-01 14:27:05 1512156425.332045: $GPZDA,192706.00,01,12,2017,00,00*6B
2017-12-01 14:27:05 1512156425.332188: $GPGGA,192706,3946.9557,N,08404.9860,W,2,12,0.80,309.09,M,-33.324,M,,*71
2017-12-01 14:27:05 1512156425.332253: $GPRMC,192706,A,3946.9557,N,08404.9860,W,0.0000,0.000,011217,,*39
2017-12-01 14:27:05 1512156425.332315: $GPGSA,A,3,8,10,14,18,21,24,32,12,15,20,27,138,2.0,0.8,1.5*37
2017-12-01 14:27:06 1512156426.365025: $GPZDA,192707.00,01,12,2017,00,00*6A
2017-12-01 14:27:06 1512156426.365203: $GPGGA,192707,3946.9557,N,08404.9860,W,2,12,0.80,309.09,M,-33.324,M,,*70
2017-12-01 14:27:06 1512156426.365273: $GPRMC,192707,A,3946.9557,N,08404.9860,W,0.0000,0.000,011217,,*38
2017-12-01 14:27:06 1512156426.365337: $GPGSA,A,3,8,10,14,18,21,24,32,12,15,20,27,138,2.0,0.8,1.5*37
2017-12-01 14:27:07 1512156427.672112: $GPGSV,3,1,12,08,05,292,30,10,70,333,48,14,30,255,40,18,69,097,45*7F
2017-12-01 14:27:07 1512156427.672296: $GPGSV,3,2,12,21,27,178,45,24,44,057,48,32,47,267,45,12,10,106,26*7B
2017-12-01 14:27:07 1512156427.672362: $GPGSV,3,3,12,15,10,067,32,20,08,118,23,27,06,259,26,138,38,213,47*47
2017-12-01 14:27:07 1512156427.785763: $GPZDA,192708.00,01,12,2017,00,00*65
2017-12-01 14:27:07 1512156427.785933: $GPGGA,192708,3946.9557,N,08404.9860,W,2,12,0.80,309.09,M,-33.324,M,,*7F
2017-12-01 14:27:07 1512156427.786000: $GPRMC,192708,A,3946.9557,N,08404.9860,W,0.0000,0.000,011217,,*37
2017-12-01 14:27:07 1512156427.786061: $GPGSA,A,3,8,10,14,18,21,24,32,12,15,20,27,138,2.0,0.8,1.5*37
2017-12-01 14:27:08 1512156428.332643: $GPZDA,192709.00,01,12,2017,00,00*64
2017-12-01 14:27:08 1512156428.332816: $GPGGA,192709,3946.9557,N,08404.9860,W,2,12,0.80,309.09,M,-33.324,M,,*7E
2017-12-01 14:27:08 1512156428.332883: $GPRMC,192709,A,3946.9557,N,08404.9860,W,0.0000,0.000,011217,,*36
2017-12-01 14:27:08 1512156428.332943: $GPGSA,A,3,8,10,14,18,21,24,32,12,15,20,27,138,2.0,0.8,1.5*37
2017-12-01 14:27:09 1512156429.365734: $GPZDA,192710.00,01,12,2017,00,00*6C
2017-12-01 14:27:09 1512156429.365901: $GPGGA,192710,3946.9557,N,08404.9860,W,2,12,0.80,309.09,M,-33.324,M,,*76
2017-12-01 14:27:09 1512156429.365967: $GPRMC,192710,A,3946.9557,N,08404.9860,W,0.0000,0.000,011217,,*3E
2017-12-01 14:27:09 1512156429.366028: $GPGSA,A,3,8,10,14,18,21,24,32,12,15,20,27,138,2.0,0.8,1.5*37
2017-12-01 14:27:10 1512156430.667402: $GPGSV,3,1,12,08,05,292,30,10,70,333,48,14,30,255,40,18,69,097,45*7F
2017-12-01 14:27:10 1512156430.667585: $GPGSV,3,2,12,21,27,178,44,24,44,057,49,32,47,267,45,12,10,106,26*7B
2017-12-01 14:27:10 1512156430.667650: $GPGSV,3,3,12,15,10,067,32,20,08,118,24,27,06,259,26,138,38,213,46*41
2017-12-01 14:27:10 1512156430.780903: $GPZDA,192711.00,01,12,2017,00,00*6D
2017-12-01 14:27:10 1512156430.781076: $GPGGA,192711,3946.9557,N,08404.9860,W,2,12,0.80,309.09,M,-33.324,M,,*77
2017-12-01 14:27:10 1512156430.781143: $GPRMC,192711,A,3946.9557,N,08404.9860,W,0.0000,0.000,011217,,*3F
2017-12-01 14:27:10 1512156430.781204: $GPGSA,A,3,8,10,14,18,21,24,32,12,15,20,27,138,2.0,0.8,1.5*37
2017-12-01 14:27:11 1512156431.365421: $GPZDA,192712.00,01,12,2017,00,00*6E
2017-12-01 14:27:11 1512156431.365600: $GPGGA,192712,3946.9557,N,08404.9860,W,2,12,0.80,309.09,M,-33.324,M,,*74
2017-12-01 14:27:11 1512156431.365666: $GPRMC,192712,A,3946.9557,N,08404.9860,W,0.0000,0.000,011217,,*3C
2017-12-01 14:27:11 1512156431.365727: $GPGSA,A,3,8,10,14,18,21,24,32,12,15,20,27,138,2.0,0.8,1.5*37
2017-12-01 14:27:12 1512156432.367598: $GPZDA,192713.00,01,12,2017,00,00*6F
2017-12-01 14:27:12 1512156432.367767: $GPGGA,192713,3946.9557,N,08404.9860,W,2,12,0.80,309.09,M,-33.324,M,,*75
2017-12-01 14:27:12 1512156432.367834: $GPRMC,192713,A,3946.9557,N,08404.9860,W,0.0000,0.000,011217,,*3D
2017-12-01 14:27:12 1512156432.367896: $GPGSA,A,3,8,10,14,18,21,24,32,12,15,20,27,138,2.0,0.8,1.5*37
2017-12-01 14:27:13 1512156433.669579: $GPGSV,3,1,12,08,05,292,30,10,70,333,48,14,30,255,40,18,69,097,45*7F
2017-12-01 14:27:13 1512156433.669725: $GPGSV,3,2,12,21,27,178,44,24,44,057,49,32,47,267,45,12,10,106,26*7B
2017-12-01 14:27:13 1512156433.669790: $GPGSV,3,3,12,15,10,067,32,20,08,118,29,27,06,259,08,138,38,213,47*41
2017-12-01 14:27:13 1512156433.783244: $GPZDA,192714.00,01,12,2017,00,00*68
2017-12-01 14:27:13 1512156433.783415: $GPGGA,192714,3946.9557,N,08404.9860,W,2,12,0.80,309.09,M,-33.324,M,,*72
2017-12-01 14:27:13 1512156433.783485: $GPRMC,192714,A,3946.9557,N,08404.9860,W,0.0000,0.000,011217,,*3A
2017-12-01 14:27:13 1512156433.783548: $GPGSA,A,3,8,10,14,18,21,24,32,12,15,20,27,138,2.0,0.8,1.5*37
2017-12-01 14:27:14 1512156434.409648: $GPZDA,192715.00,01,12,2017,00,00*69
2017-12-01 14:27:14 1512156434.409822: $GPGGA,192715,3946.9557,N,08404.9860,W,2,12,0.80,309.09,M,-33.324,M,,*73
2017-12-01 14:27:14 1512156434.409888: $GPRMC,192715,A,3946.9557,N,08404.9860,W,0.0000,0.000,011217,,*3B
2017-12-01 14:27:14 1512156434.409950: $GPGSA,A,3,8,10,14,18,21,24,32,12,15,20,27,138,2.0,0.8,1.5*37
2017-12-01 14:27:15 1512156435.365450: $GPZDA,192716.00,01,12,2017,00,00*6A
2017-12-01 14:27:15 1512156435.365628: $GPGGA,192716,3946.9557,N,08404.9860,W,2,12,0.80,309.09,M,-33.324,M,,*70
2017-12-01 14:27:15 1512156435.365696: $GPRMC,192716,A,3946.9557,N,08404.9860,W,0.0000,0.000,011217,,*38
2017-12-01 14:27:15 1512156435.365757: $GPGSA,A,3,8,10,14,18,21,24,32,12,15,20,27,138,2.0,0.8,1.5*37
2017-12-01 14:27:16 1512156436.702414: $GPGSV,3,1,12,08,05,292,30,10,70,333,48,14,30,255,40,18,69,097,45*7F
2017-12-01 14:27:16 1512156436.702604: $GPGSV,3,2,12,21,27,178,45,24,44,057,49,32,47,267,45,12,10,106,26*7A
2017-12-01 14:27:16 1512156436.702672: $GPGSV,3,3,12,15,10,067,32,20,08,118,30,27,06,259,15,138,38,213,48*4A
2017-12-01 14:27:16 1512156436.815779: $GPZDA,192717.00,01,12,2017,00,00*6B
2017-12-01 14:27:16 1512156436.815945: $GPGGA,192717,3946.9557,N,08404.9860,W,2,12,0.80,309.09,M,-33.324,M,,*71
2017-12-01 14:27:16 1512156436.816012: $GPRMC,192717,A,3946.9557,N,08404.9860,W,0.0000,0.000,011217,,*39
2017-12-01 14:27:16 1512156436.816074: $GPGSA,A,3,8,10,14,18,21,24,32,12,15,20,27,138,2.0,0.8,1.5*37
2017-12-01 14:27:17 1512156437.367939: $GPZDA,192718.00,01,12,2017,00,00*64
2017-12-01 14:27:17 1512156437.368121: $GPGGA,192718,3946.9557,N,08404.9860,W,2,12,0.80,309.09,M,-33.324,M,,*7E
2017-12-01 14:27:17 1512156437.368190: $GPRMC,192718,A,3946.9557,N,08404.9860,W,0.0000,0.000,011217,,*36
2017-12-01 14:27:17 1512156437.368253: $GPGSA,A,3,8,10,14,18,21,24,32,12,15,20,27,138,2.0,0.8,1.5*37
2017-12-01 14:27:18 1512156438.331260: $GPZDA,192719.00,01,12,2017,00,00*65
2017-12-01 14:27:18 1512156438.331497: $GPGGA,192719,3946.9557,N,08404.9860,W,2,12,0.80,309.09,M,-33.324,M,,*7F
2017-12-01 14:27:18 1512156438.331571: $GPRMC,192719,A,3946.9557,N,08404.9860,W,0.0000,0.000,011217,,*37
2017-12-01 14:27:18 1512156438.331633: $GPGSA,A,3,8,10,14,18,21,24,32,12,15,20,27,138,2.0,0.8,1.5*37
2017-12-01 14:27:19 1512156439.661725: $GPGSV,3,1,12,08,05,292,30,10,70,333,48,14,30,255,40,18,69,097,46*7C
2017-12-01 14:27:19 1512156439.662031: $GPGSV,3,2,12,21,27,178,45,24,44,057,49,32,47,267,44,12,10,106,26*7B
2017-12-01 14:27:19 1512156439.662156: $GPGSV,3,3,12,15,10,067,31,20,08,118,29,27,06,259,16,138,38,213,47*4D
2017-12-01 14:27:19 1512156439.775256: $GPZDA,192720.00,01,12,2017,00,00*6F
2017-12-01 14:27:19 1512156439.775433: $GPGGA,192720,3946.9557,N,08404.9860,W,2,12,0.80,309.09,M,-33.324,M,,*75
2017-12-01 14:27:19 1512156439.775502: $GPRMC,192720,A,3946.9557,N,08404.9860,W,0.0000,0.000,011217,,*3D
2017-12-01 14:27:19 1512156439.775567: $GPGSA,A,3,8,10,14,18,21,24,32,12,15,20,27,138,2.0,0.8,1.5*37
2017-12-01 14:27:20 1512156440.333360: $GPZDA,192721.00,01,12,2017,00,00*6E
2017-12-01 14:27:20 1512156440.333535: $GPGGA,192721,3946.9557,N,08404.9860,W,2,12,0.80,309.09,M,-33.324,M,,*74
2017-12-01 14:27:20 1512156440.333604: $GPRMC,192721,A,3946.9557,N,08404.9860,W,0.0000,0.000,011217,,*3C
2017-12-01 14:27:20 1512156440.333669: $GPGSA,A,3,8,10,14,18,21,24,32,12,15,20,27,138,2.0,0.8,1.5*37
2017-12-01 14:27:21 1512156441.331745: $GPZDA,192722.00,01,12,2017,00,00*6D
2017-12-01 14:27:21 1512156441.331921: $GPGGA,192722,3946.9557,N,08404.9860,W,2,12,0.80,309.09,M,-33.324,M,,*77
2017-12-01 14:27:21 1512156441.331988: $GPRMC,192722,A,3946.9557,N,08404.9860,W,0.0000,0.000,011217,,*3F
2017-12-01 14:27:21 1512156441.332049: $GPGSA,A,3,8,10,14,18,21,24,32,12,15,20,27,138,2.0,0.8,1.5*37
2017-12-01 14:27:22 1512156442.667372: $GPGSV,3,1,12,08,05,292,30,10,70,333,48,14,30,255,41,18,69,097,46*7D
2017-12-01 14:27:22 1512156442.667558: $GPGSV,3,2,12,21,27,178,45,24,44,057,49,32,47,267,45,12,10,106,26*7A
2017-12-01 14:27:22 1512156442.667625: $GPGSV,3,3,12,15,10,067,31,20,08,118,29,27,06,259,21,138,38,213,47*49
2017-12-01 14:27:22 1512156442.780814: $GPZDA,192723.00,01,12,2017,00,00*6C
2017-12-01 14:27:22 1512156442.780984: $GPGGA,192723,3946.9557,N,08404.9860,W,2,12,0.80,309.09,M,-33.324,M,,*76
2017-12-01 14:27:22 1512156442.781050: $GPRMC,192723,A,3946.9557,N,08404.9860,W,0.0000,0.000,011217,,*3E
2017-12-01 14:27:22 1512156442.781111: $GPGSA,A,3,8,10,14,18,21,24,32,12,15,20,27,138,2.0,0.8,1.5*37
2017-12-01 14:27:23 1512156443.330524: $GPZDA,192724.00,01,12,2017,00,00*6B
2017-12-01 14:27:23 1512156443.330696: $GPGGA,192724,3946.9557,N,08404.9860,W,2,12,0.80,309.09,M,-33.324,M,,*71
2017-12-01 14:27:23 1512156443.330762: $GPRMC,192724,A,3946.9557,N,08404.9860,W,0.0000,0.000,011217,,*39
2017-12-01 14:27:23 1512156443.330823: $GPGSA,A,3,8,10,14,18,21,24,32,12,15,20,27,138,2.0,0.8,1.5*37
