2017-12-29 14:46:33 1514576793.977429: {"class":"VERSION","release":"3.16","rev":"3.16-4","proto_major":3,"proto_minor":11}
2017-12-29 14:46:33 1514576793.978043: {"class":"DEVICES","devices":[{"class":"DEVICE","path":"/dev/ttyUSB0","driver":"SiRF","subtype":"9\u0006GSD4e_4.1.2-P1_RPATCH.05-F-GPS-4R-1510281 11/03/2015 307","activated":"2017-12-29T19:46:33.959Z","flags":1,"native":1,"bps":4800,"parity":"N","stopbits":1,"cycle":1.00}]}
2017-12-29 14:46:33 1514576793.978168: {"class":"WATCH","enable":true,"json":false,"nmea":true,"raw":0,"scaled":false,"timing":false,"split24":false,"pps":false}
2017-12-29 14:46:34 1514576794.368789: $GPZDA,194635.00,29,12,2017,00,00*66
2017-12-29 14:46:34 1514576794.368957: $GPGGA,194635,3946.9569,N,08404.9797,W,2,12,0.80,310.96,M,-33.324,M,,*72
2017-12-29 14:46:34 1514576794.369023: $GPRMC,194635,A,3946.9569,N,08404.9797,W,0.0000,0.000,291217,,*3E
2017-12-29 14:46:34 1514576794.369085: $GPGSA,A,3,1,26,10,11,12,14,18,22,25,31,32,138,1.7,0.8,1.3*3B
2017-12-29 14:46:35 1514576795.369707: $GPZDA,194636.00,29,12,2017,00,00*65
2017-12-29 14:46:35 1514576795.369868: $GPGGA,194636,3946.9569,N,08404.9797,W,2,12,0.80,310.96,M,-33.324,M,,*71
2017-12-29 14:46:35 1514576795.369934: $GPRMC,194636,A,3946.9569,N,08404.9797,W,0.0000,0.000,291217,,*3D
2017-12-29 14:46:35 1514576795.369994: $GPGSA,A,3,1,26,10,11,12,14,18,22,25,31,32,138,1.7,0.8,1.3*3B
2017-12-29 14:46:36 1514576796.705365: $GPGSV,3,1,12,01,22,295,38,26,07,181,23,10,43,150,50,11,07,279,33*7A
2017-12-29 14:46:36 1514576796.705513: $GPGSV,3,2,12,12,20,046,45,14,68,336,42,18,13,145,41,22,23,312,39*77
2017-12-29 14:46:36 1514576796.705576: $GPGSV,3,3,12,25,41,085,51,31,62,229,47,32,66,042,50,138,38,213,43*49
2017-12-29 14:46:36 1514576796.818698: $GPZDA,194637.00,29,12,2017,00,00*64
2017-12-29 14:46:36 1514576796.818837: $GPGGA,194637,3946.9569,N,08404.9797,W,2,12,0.80,310.96,M,-33.324,M,,*70
2017-12-29 14:46:36 1514576796.818902: $GPRMC,194637,A,3946.9569,N,08404.9797,W,0.0000,0.000,291217,,*3C
2017-12-29 14:46:36 1514576796.818963: $GPGSA,A,3,1,26,10,11,12,14,18,22,25,31,32,138,1.7,0.8,1.3*3B
2017-12-29 14:46:37 1514576797.445508: $GPZDA,194638.00,29,12,2017,00,00*6B
2017-12-29 14:46:37 1514576797.445660: $GPGGA,194638,3946.9569,N,08404.9797,W,2,12,0.80,310.96,M,-33.324,M,,*7F
2017-12-29 14:46:37 1514576797.445726: $GPRMC,194638,A,3946.9569,N,08404.9797,W,0.0000,0.000,291217,,*33
2017-12-29 14:46:37 1514576797.445786: $GPGSA,A,3,1,26,10,11,12,14,18,22,25,31,32,138,1.7,0.8,1.3*3B
2017-12-29 14:46:38 1514576798.329985: $GPZDA,194639.00,29,12,2017,00,00*6A
2017-12-29 14:46:38 1514576798.330150: $GPGGA,194639,3946.9569,N,08404.9797,W,2,12,0.80,310.96,M,-33.324,M,,*7E
2017-12-29 14:46:38 1514576798.330216: $GPRMC,194639,A,3946.9569,N,08404.9797,W,0.0000,0.000,291217,,*32
2017-12-29 14:46:38 1514576798.330277: $GPGSA,A,3,1,26,10,11,12,14,18,22,25,31,32,138,1.7,0.8,1.3*3B
2017-12-29 14:46:39 1514576799.666998: $GPGSV,3,1,12,01,22,295,38,26,07,181,23,10,43,150,50,11,07,279,33*7A
2017-12-29 14:46:39 1514576799.667166: $GPGSV,3,2,12,12,20,046,46,14,68,336,42,18,13,145,41,22,23,312,39*74
2017-12-29 14:46:39 1514576799.667232: $GPGSV,3,3,12,25,41,085,51,31,62,229,46,32,66,042,50,138,38,213,42*49
2017-12-29 14:46:39 1514576799.780610: $GPZDA,194640.00,29,12,2017,00,00*64
2017-12-29 14:46:39 1514576799.780760: $GPGGA,194640,3946.9569,N,08404.9797,W,2,12,0.80,310.96,M,-33.324,M,,*70
2017-12-29 14:46:39 1514576799.780826: $GPRMC,194640,A,3946.9569,N,08404.9797,W,0.0000,0.000,291217,,*3C
2017-12-29 14:46:39 1514576799.780886: $GPGSA,A,3,1,26,10,11,12,14,18,22,25,31,32,138,1.7,0.8,1.3*3B
2017-12-29 14:46:40 1514576800.370508: $GPZDA,194641.00,29,12,2017,00,00*65
2017-12-29 14:46:40 1514576800.370668: $GPGGA,194641,3946.9569,N,08404.9797,W,2,12,0.80,310.96,M,-33.324,M,,*71
2017-12-29 14:46:40 1514576800.370734: $GPRMC,194641,A,3946.9569,N,08404.9797,W,0.0000,0.000,291217,,*3D
2017-12-29 14:46:40 1514576800.370795: $GPGSA,A,3,1,26,10,11,12,14,18,22,25,31,32,138,1.7,0.8,1.3*3B
2017-12-29 14:46:41 1514576801.332426: $GPZDA,194642.00,29,12,2017,00,00*66
2017-12-29 14:46:41 1514576801.332625: $GPGGA,194642,3946.9569,N,08404.9797,W,2,12,0.80,310.96,M,-33.324,M,,*72
2017-12-29 14:46:41 1514576801.332695: $GPRMC,194642,A,3946.9569,N,08404.9797,W,0.0000,0.000,291217,,*3E
2017-12-29 14:46:41 1514576801.332756: $GPGSA,A,3,1,26,10,11,12,14,18,22,25,31,32,138,1.7,0.8,1.3*3B
2017-12-29 14:46:42 1514576802.697343: $GPGSV,3,1,12,01,22,295,38,26,07,181,22,10,43,150,50,11,07,279,33*7B
2017-12-29 14:46:42 1514576802.697505: $GPGSV,3,2,12,12,20,046,46,14,68,336,42,18,13,145,41,22,23,312,39*74
2017-12-29 14:46:42 1514576802.697571: $GPGSV,3,3,12,25,41,085,51,31,62,229,46,32,66,042,50,138,38,213,43*48
2017-12-29 14:46:42 1514576802.810954: $GPZDA,194643.00,29,12,2017,00,00*67
2017-12-29 14:46:42 1514576802.811172: $GPGGA,194643,3946.9569,N,08404.9797,W,2,12,0.80,310.96,M,-33.324,M,,*73
2017-12-29 14:46:42 1514576802.811242: $GPRMC,194643,A,3946.9569,N,08404.9797,W,0.0000,0.000,291217,,*3F
2017-12-29 14:46:42 1514576802.811303: $GPGSA,A,3,1,26,10,11,12,14,18,22,25,31,32,138,1.7,0.8,1.3*3B
2017-12-29 14:46:43 1514576803.371892: $GPZDA,194644.00,29,12,2017,00,00*60
2017-12-29 14:46:43 1514576803.372063: $GPGGA,194644,3946.9569,N,08404.9797,W,2,12,0.80,310.96,M,-33.324,M,,*74
2017-12-29 14:46:43 1514576803.372129: $GPRMC,194644,A,3946.9569,N,08404.9797,W,0.0000,0.000,291217,,*38
2017-12-29 14:46:43 1514576803.372190: $GPGSA,A,3,1,26,10,11,12,14,18,22,25,31,32,138,1.7,0.8,1.3*3B
