2017-12-01 11:40:25 1512146425.086978: {"class":"VERSION","release":"3.16","rev":"3.16-4","proto_major":3,"proto_minor":11}
2017-12-01 11:40:25 1512146425.087500: {"class":"DEVICES","devices":[{"class":"DEVICE","path":"/dev/ttyUSB0","driver":"SiRF","subtype":"9\u0006GSD4e_4.1.2-P1_RPATCH.05-F-GPS-4R-1510281 11/03/2015 307","activated":"2017-12-01T16:40:24.992Z","flags":1,"native":1,"bps":4800,"parity":"N","stopbits":1,"cycle":1.00}]}
2017-12-01 11:40:25 1512146425.087618: {"class":"WATCH","enable":true,"json":false,"nmea":true,"raw":0,"scaled":false,"timing":false,"split24":false,"pps":false}
2017-12-01 11:40:25 1512146425.405744: $GPZDA,164026.00,01,12,2017,00,00*67
2017-12-01 11:40:25 1512146425.405932: $GPGGA,164026,3946.9561,N,08404.9830,W,2,11,0.80,305.07,M,-33.324,M,,*7C
2017-12-01 11:40:25 1512146425.406000: $GPRMC,164026,A,3946.9561,N,08404.9830,W,0.0000,0.000,011217,,*35
2017-12-01 11:40:25 1512146425.406062: $GPGSA,A,3,5,10,13,15,18,20,21,24,29,27,138,,2.0,0.8,1.5*34
2017-12-01 11:40:26 1512146426.402832: $GPZDA,164027.00,01,12,2017,00,00*66
2017-12-01 11:40:26 1512146426.403017: $GPGGA,164027,3946.9561,N,08404.9830,W,2,11,0.80,305.07,M,-33.324,M,,*7D
2017-12-01 11:40:26 1512146426.403084: $GPRMC,164027,A,3946.9561,N,08404.9830,W,0.0000,0.000,011217,,*34
2017-12-01 11:40:26 1512146426.403146: $GPGSA,A,3,5,10,13,15,18,20,21,24,29,27,138,,2.0,0.8,1.5*34
2017-12-01 11:40:27 1512146427.739705: $GPGSV,3,1,12,05,15,076,34,10,12,271,40,13,45,051,46,15,77,079,48*7E
2017-12-01 11:40:27 1512146427.739885: $GPGSV,3,2,12,18,42,283,45,20,64,048,41,21,65,307,46,24,19,150,41*7C
2017-12-01 11:40:27 1512146427.739952: $GPGSV,3,3,12,04,14,129,00,29,26,195,43,27,07,325,43,138,38,213,46*46
2017-12-01 11:40:27 1512146427.853065: $GPZDA,164028.00,01,12,2017,00,00*69
2017-12-01 11:40:27 1512146427.853240: $GPGGA,164028,3946.9561,N,08404.9830,W,2,11,0.80,305.07,M,-33.324,M,,*72
2017-12-01 11:40:27 1512146427.853307: $GPRMC,164028,A,3946.9561,N,08404.9830,W,0.0000,0.000,011217,,*3B
2017-12-01 11:40:27 1512146427.853367: $GPGSA,A,3,5,10,13,15,18,20,21,24,29,27,138,,2.0,0.8,1.5*34
2017-12-01 11:40:28 1512146428.478978: $GPZDA,164029.00,01,12,2017,00,00*68
2017-12-01 11:40:28 1512146428.479161: $GPGGA,164029,3946.9561,N,08404.9830,W,2,11,0.80,305.07,M,-33.324,M,,*73
2017-12-01 11:40:28 1512146428.479227: $GPRMC,164029,A,3946.9561,N,08404.9830,W,0.0000,0.000,011217,,*3A
2017-12-01 11:40:28 1512146428.479288: $GPGSA,A,3,5,10,13,15,18,20,21,24,29,27,138,,2.0,0.8,1.5*34
2017-12-01 11:40:29 1512146429.403406: $GPZDA,164030.00,01,12,2017,00,00*60
2017-12-01 11:40:29 1512146429.403578: $GPGGA,164030,3946.9561,N,08404.9830,W,2,11,0.80,305.07,M,-33.324,M,,*7B
2017-12-01 11:40:29 1512146429.403644: $GPRMC,164030,A,3946.9561,N,08404.9830,W,0.0000,0.000,011217,,*32
2017-12-01 11:40:29 1512146429.403705: $GPGSA,A,3,5,10,13,15,18,20,21,24,29,27,138,,2.0,0.8,1.5*34
2017-12-01 11:40:30 1512146430.740082: $GPGSV,3,1,12,05,15,076,34,10,12,271,39,13,45,051,46,15,77,079,47*7F
2017-12-01 11:40:30 1512146430.740264: $GPGSV,3,2,12,18,42,283,45,20,64,048,41,21,65,307,46,24,19,150,41*7C
2017-12-01 11:40:30 1512146430.740332: $GPGSV,3,3,12,04,14,129,00,29,26,195,43,27,07,325,42,138,38,213,46*47
2017-12-01 11:40:30 1512146430.853795: $GPZDA,164031.00,01,12,2017,00,00*61
2017-12-01 11:40:30 1512146430.853965: $GPGGA,164031,3946.9561,N,08404.9830,W,2,11,0.80,305.07,M,-33.324,M,,*7A
2017-12-01 11:40:30 1512146430.854032: $GPRMC,164031,A,3946.9561,N,08404.9830,W,0.0000,0.000,011217,,*33
2017-12-01 11:40:30 1512146430.854093: $GPGSA,A,3,5,10,13,15,18,20,21,24,29,27,138,,2.0,0.8,1.5*34
2017-12-01 11:40:31 1512146431.419645: $GPZDA,164032.00,01,12,2017,00,00*62
2017-12-01 11:40:31 1512146431.419815: $GPGGA,164032,3946.9561,N,08404.9830,W,2,11,0.80,305.07,M,-33.324,M,,*79
2017-12-01 11:40:31 1512146431.419884: $GPRMC,164032,A,3946.9561,N,08404.9830,W,0.0000,0.000,011217,,*30
2017-12-01 11:40:31 1512146431.419944: $GPGSA,A,3,5,10,13,15,18,20,21,24,29,27,138,,2.0,0.8,1.5*34
2017-12-01 11:40:32 1512146432.418121: $GPZDA,164033.00,01,12,2017,00,00*63
2017-12-01 11:40:32 1512146432.418344: $GPGGA,164033,3946.9561,N,08404.9830,W,2,11,0.80,305.07,M,-33.324,M,,*78
2017-12-01 11:40:32 1512146432.418413: $GPRMC,164033,A,3946.9561,N,08404.9830,W,0.0000,0.000,011217,,*31
2017-12-01 11:40:32 1512146432.418474: $GPGSA,A,3,5,10,13,15,18,20,21,24,29,27,138,,2.0,0.8,1.5*34
2017-12-01 11:40:33 1512146433.737927: $GPGSV,3,1,12,05,15,076,35,10,12,271,40,13,45,051,46,15,77,079,48*7F
2017-12-01 11:40:33 1512146433.738106: $GPGSV,3,2,12,18,42,283,45,20,64,048,41,21,65,307,46,24,19,150,40*7D
2017-12-01 11:40:33 1512146433.738174: $GPGSV,3,3,12,04,14,129,00,29,26,195,43,27,07,325,42,138,38,213,47*46
2017-12-01 11:40:33 1512146433.851745: $GPZDA,164034.00,01,12,2017,00,00*64
2017-12-01 11:40:33 1512146433.851917: $GPGGA,164034,3946.9561,N,08404.9830,W,2,11,0.80,305.07,M,-33.324,M,,*7F
2017-12-01 11:40:33 1512146433.851983: $GPRMC,164034,A,3946.9561,N,08404.9830,W,0.0000,0.000,011217,,*36
2017-12-01 11:40:33 1512146433.852044: $GPGSA,A,3,5,10,13,15,18,20,21,24,29,27,138,,2.0,0.8,1.5*34
2017-12-01 11:40:34 1512146434.402500: $GPZDA,164035.00,01,12,2017,00,00*65
2017-12-01 11:40:34 1512146434.402664: $GPGGA,164035,3946.9561,N,08404.9830,W,2,11,0.80,305.07,M,-33.324,M,,*7E
2017-12-01 11:40:34 1512146434.402732: $GPRMC,164035,A,3946.9561,N,08404.9830,W,0.0000,0.000,011217,,*37
2017-12-01 11:40:34 1512146434.402794: $GPGSA,A,3,5,10,13,15,18,20,21,24,29,27,138,,2.0,0.8,1.5*34
