2017-11-16 15:08:48 1510862928.219497: {"class":"VERSION","release":"3.17","rev":"3.17","proto_major":3,"proto_minor":12}
2017-11-16 15:08:48 1510862928.219753: {"class":"DEVICES","devices":[{"class":"DEVICE","path":"/dev/ttyUSB0","driver":"SiRF","subtype":"9\u0006GSD4e_4.1.2-P1_RPATCH.05-F-GPS-4R-1510281 11/03/2015 307","activated":"2017-11-16T20:08:47.552Z","flags":1,"native":1,"bps":4800,"parity":"N","stopbits":1,"cycle":1.00}]}
2017-11-16 15:08:48 1510862928.219833: {"class":"WATCH","enable":true,"json":false,"nmea":true,"raw":0,"scaled":false,"timing":false,"split24":false,"pps":false}
2017-11-16 15:08:48 1510862928.412461: $GPZDA,200847.00,16,11,2017,00,00*6C
2017-11-16 15:08:48 1510862928.412564: $GPGGA,200847,3946.9589,N,08404.9845,W,2,12,0.80,298.72,M,-33.324,M,,*72
2017-11-16 15:08:48 1510862928.412596: $GPRMC,200847,A,3946.9589,N,08404.9845,W,0.0000,0.000,161117,,*3A
2017-11-16 15:08:48 1510862928.412669: $GPGSA,A,3,8,10,14,15,18,20,21,24,27,32,12,138,1.6,0.8,1.3*34
2017-11-16 15:08:49 1510862929.750100: $GPGSV,3,1,12,08,07,300,28,10,62,321,51,14,23,247,43,15,17,063,42*7C
2017-11-16 15:08:49 1510862929.750262: $GPGSV,3,2,12,18,76,069,47,20,14,114,36,21,38,181,45,24,50,069,48*78
2017-11-16 15:08:49 1510862929.750398: $GPGSV,3,3,12,27,11,267,43,32,40,258,47,12,04,114,24,138,38,213,44*46
2017-11-16 15:08:49 1510862929.863215: $GPZDA,200848.00,16,11,2017,00,00*63
2017-11-16 15:08:49 1510862929.863379: $GPGGA,200848,3946.9589,N,08404.9845,W,2,12,0.80,298.72,M,-33.324,M,,*7D
2017-11-16 15:08:49 1510862929.863442: $GPRMC,200848,A,3946.9589,N,08404.9845,W,0.0000,0.000,161117,,*35
2017-11-16 15:08:49 1510862929.863498: $GPGSA,A,3,8,10,14,15,18,20,21,24,27,32,12,138,1.6,0.8,1.3*34
2017-11-16 15:08:50 1510862930.395299: $GPZDA,200849.00,16,11,2017,00,00*62
2017-11-16 15:08:50 1510862930.395493: $GPGGA,200849,3946.9589,N,08404.9845,W,2,12,0.80,298.72,M,-33.324,M,,*7C
2017-11-16 15:08:50 1510862930.395558: $GPRMC,200849,A,3946.9589,N,08404.9845,W,0.0000,0.000,161117,,*34
2017-11-16 15:08:50 1510862930.395632: $GPGSA,A,3,8,10,14,15,18,20,21,24,27,32,12,138,1.6,0.8,1.3*34
2017-11-16 15:08:51 1510862931.412054: $GPZDA,200850.00,16,11,2017,00,00*6A
2017-11-16 15:08:51 1510862931.412233: $GPGGA,200850,3946.9586,N,08404.9845,W,2,12,0.80,299.48,M,-33.324,M,,*73
2017-11-16 15:08:51 1510862931.412296: $GPRMC,200850,A,3946.9586,N,08404.9845,W,0.0000,0.000,161117,,*33
2017-11-16 15:08:51 1510862931.412353: $GPGSA,A,3,8,10,14,15,18,20,21,24,27,32,12,138,1.6,0.8,1.3*34
2017-11-16 15:08:52 1510862932.743926: $GPGSV,3,1,12,08,07,300,29,10,62,321,51,14,23,247,43,15,17,063,42*7D
2017-11-16 15:08:52 1510862932.744092: $GPGSV,3,2,12,18,76,069,47,20,14,114,36,21,38,181,45,24,50,069,48*78
2017-11-16 15:08:52 1510862932.744153: $GPGSV,3,3,12,27,11,267,43,32,40,258,47,12,04,114,24,138,38,213,43*41
2017-11-16 15:08:52 1510862932.857431: $GPZDA,200851.00,16,11,2017,00,00*6B
2017-11-16 15:08:52 1510862932.857966: $GPGGA,200851,3946.9586,N,08404.9845,W,2,12,0.80,299.48,M,-33.324,M,,*72
2017-11-16 15:08:52 1510862932.864788: $GPRMC,200851,A,3946.9586,N,08404.9845,W,0.0000,0.000,161117,,*32
2017-11-16 15:08:52 1510862932.864947: $GPGSA,A,3,8,10,14,15,18,20,21,24,27,32,12,138,1.6,0.8,1.3*34
2017-11-16 15:08:53 1510862933.396750: $GPZDA,200852.00,16,11,2017,00,00*68
2017-11-16 15:08:53 1510862933.396920: $GPGGA,200852,3946.9586,N,08404.9845,W,2,12,0.80,299.48,M,-33.324,M,,*71
2017-11-16 15:08:53 1510862933.396999: $GPRMC,200852,A,3946.9586,N,08404.9845,W,0.0000,0.000,161117,,*31
2017-11-16 15:08:53 1510862933.397057: $GPGSA,A,3,8,10,14,15,18,20,21,24,27,32,12,138,1.6,0.8,1.3*34
2017-11-16 15:08:54 1510862934.411585: $GPZDA,200853.00,16,11,2017,00,00*69
2017-11-16 15:08:54 1510862934.411769: $GPGGA,200853,3946.9586,N,08404.9845,W,2,12,0.80,299.48,M,-33.324,M,,*70
2017-11-16 15:08:54 1510862934.411833: $GPRMC,200853,A,3946.9586,N,08404.9845,W,0.0000,0.000,161117,,*30
2017-11-16 15:08:54 1510862934.411889: $GPGSA,A,3,8,10,14,15,18,20,21,24,27,32,12,138,1.6,0.8,1.3*34
2017-11-16 15:08:55 1510862935.749543: $GPGSV,3,1,12,08,07,300,30,10,62,321,51,14,23,247,43,15,17,063,42*75
2017-11-16 15:08:55 1510862935.749761: $GPGSV,3,2,12,18,76,069,47,20,14,114,36,21,38,181,44,24,50,069,48*79
2017-11-16 15:08:55 1510862935.749825: $GPGSV,3,3,12,27,11,267,43,32,40,258,47,12,04,114,24,138,38,213,44*46
2017-11-16 15:08:55 1510862935.863423: $GPZDA,200854.00,16,11,2017,00,00*6E
2017-11-16 15:08:55 1510862935.863584: $GPGGA,200854,3946.9586,N,08404.9845,W,2,12,0.80,299.48,M,-33.324,M,,*77
2017-11-16 15:08:55 1510862935.863646: $GPRMC,200854,A,3946.9586,N,08404.9845,W,0.0000,0.000,161117,,*37
2017-11-16 15:08:55 1510862935.863704: $GPGSA,A,3,8,10,14,15,18,20,21,24,27,32,12,138,1.6,0.8,1.3*34
2017-11-16 15:08:56 1510862936.488410: $GPZDA,200855.00,16,11,2017,00,00*6F
2017-11-16 15:08:56 1510862936.488595: $GPGGA,200855,3946.9586,N,08404.9845,W,2,12,0.80,299.48,M,-33.324,M,,*76
2017-11-16 15:08:56 1510862936.488658: $GPRMC,200855,A,3946.9586,N,08404.9845,W,0.0000,0.000,161117,,*36
2017-11-16 15:08:56 1510862936.488714: $GPGSA,A,3,8,10,14,15,18,20,21,24,27,32,12,138,1.6,0.8,1.3*34
2017-11-16 15:08:57 1510862937.412738: $GPZDA,200856.00,16,11,2017,00,00*6C
2017-11-16 15:08:57 1510862937.412903: $GPGGA,200856,3946.9586,N,08404.9845,W,2,12,0.80,299.48,M,-33.324,M,,*75
2017-11-16 15:08:57 1510862937.412964: $GPRMC,200856,A,3946.9586,N,08404.9845,W,0.0000,0.000,161117,,*35
2017-11-16 15:08:57 1510862937.413020: $GPGSA,A,3,8,10,14,15,18,20,21,24,27,32,12,138,1.6,0.8,1.3*34
