2017-11-15 19:00:33 1510790433.038551: {"class":"VERSION","release":"3.17","rev":"3.17","proto_major":3,"proto_minor":12}
2017-11-15 19:00:33 1510790433.039291: {"class":"DEVICES","devices":[{"class":"DEVICE","path":"/dev/ttyUSB0","driver":"SiRF","subtype":"9\u0006GSD4e_4.1.2-P1_RPATCH.05-F-GPS-4R-1510281 11/03/2015 307","activated":"2017-11-16T00:00:32.467Z","flags":1,"native":1,"bps":4800,"parity":"N","stopbits":1,"cycle":1.00}]}
2017-11-15 19:00:33 1510790433.039435: {"class":"WATCH","enable":true,"json":false,"nmea":true,"raw":0,"scaled":false,"timing":false,"split24":false,"pps":false}
2017-11-15 19:00:33 1510790433.663210: $GPGSV,3,1,12,16,09,190,15,14,63,070,12,03,31,310,14,32,46,094,18*7F
2017-11-15 19:00:33 1510790433.663401: $GPGSV,3,2,12,31,77,349,26,26,38,177,18,22,47,289,22,25,27,046,13*76
2017-11-15 19:00:33 1510790433.663477: $GPGSV,3,3,12,29,05,082,14,10,09,159,00,01,13,262,00,120,07,103,00*4D
2017-11-15 19:00:33 1510790433.776568: $GPZDA,000032.00,16,11,2017,00,00*64
2017-11-15 19:00:33 1510790433.776799: $GPGGA,000032,3946.9530,N,08404.9608,W,1,09,2.80,307.21,M,-33.324,M,,*75
2017-11-15 19:00:33 1510790433.776869: $GPRMC,000032,A,3946.9530,N,08404.9608,W,2.2781,323.662,161117,,*39
2017-11-15 19:00:33 1510790433.776926: $GPGSA,A,3,16,14,3,32,31,26,22,25,29,,,,3.4,2.8,2.9*0E
2017-11-15 19:00:34 1510790434.326237: $GPZDA,000033.00,16,11,2017,00,00*65
2017-11-15 19:00:34 1510790434.326438: $GPGGA,000033,3946.9538,N,08404.9614,W,1,09,2.80,307.01,M,-33.324,M,,*73
2017-11-15 19:00:34 1510790434.326519: $GPRMC,000033,A,3946.9538,N,08404.9614,W,2.2514,331.242,161117,,*36
2017-11-15 19:00:34 1510790434.326575: $GPGSA,A,3,16,14,3,32,31,26,22,25,29,,,,3.4,2.8,2.9*0E
2017-11-15 19:00:35 1510790435.327064: $GPZDA,000034.00,16,11,2017,00,00*62
2017-11-15 19:00:35 1510790435.327225: $GPGGA,000034,3946.9545,N,08404.9614,W,1,09,2.80,306.89,M,-33.324,M,,*7F
2017-11-15 19:00:35 1510790435.327286: $GPRMC,000034,A,3946.9545,N,08404.9614,W,2.2514,331.242,161117,,*3B
2017-11-15 19:00:35 1510790435.327362: $GPGSA,A,3,16,14,3,32,31,26,22,25,29,,,,3.4,2.8,2.9*0E
2017-11-15 19:00:36 1510790436.662427: $GPGSV,3,1,12,16,09,190,15,14,63,070,12,03,31,310,14,32,46,094,17*70
2017-11-15 19:00:36 1510790436.662610: $GPGSV,3,2,12,31,77,349,26,26,38,177,18,22,47,289,22,25,27,046,14*71
2017-11-15 19:00:36 1510790436.662670: $GPGSV,3,3,12,29,05,082,14,10,09,159,00,01,13,262,00,120,07,103,00*4D
2017-11-15 19:00:36 1510790436.775661: $GPZDA,000035.00,16,11,2017,00,00*63
2017-11-15 19:00:36 1510790436.775815: $GPGGA,000035,3946.9553,N,08404.9620,W,1,09,2.80,306.68,M,-33.324,M,,*71
2017-11-15 19:00:36 1510790436.775875: $GPRMC,000035,A,3946.9553,N,08404.9620,W,2.7164,337.074,161117,,*3D
2017-11-15 19:00:36 1510790436.775930: $GPGSA,A,3,16,14,3,32,31,26,22,25,29,,,,3.4,2.8,2.9*0E
2017-11-15 19:00:37 1510790437.327797: $GPZDA,000036.00,16,11,2017,00,00*60
2017-11-15 19:00:37 1510790437.327956: $GPGGA,000036,3946.9565,N,08404.9619,W,1,09,2.80,307.20,M,-33.324,M,,*70
2017-11-15 19:00:37 1510790437.328017: $GPRMC,000036,A,3946.9565,N,08404.9619,W,2.9633,354.520,161117,,*3B
2017-11-15 19:00:37 1510790437.328074: $GPGSA,A,3,16,14,3,32,31,26,22,25,29,,,,3.4,2.8,2.9*0E
2017-11-15 19:00:38 1510790438.327476: $GPZDA,000037.00,16,11,2017,00,00*61
2017-11-15 19:00:38 1510790438.327625: $GPGGA,000037,3946.9573,N,08404.9618,W,1,09,2.80,307.07,M,-33.324,M,,*72
2017-11-15 19:00:38 1510790438.327685: $GPRMC,000037,A,3946.9573,N,08404.9618,W,2.4264,3.551,161117,,*30
2017-11-15 19:00:38 1510790438.327740: $GPGSA,A,3,16,14,3,32,31,26,22,25,29,,,,3.4,2.8,2.9*0E
2017-11-15 19:00:39 1510790439.663135: $GPGSV,3,1,12,10,09,159,00,14,63,070,14,03,31,310,14,32,46,094,17*71
2017-11-15 19:00:39 1510790439.663327: $GPGSV,3,2,12,31,77,349,26,26,38,177,18,22,47,289,21,25,27,046,14*72
2017-11-15 19:00:39 1510790439.663389: $GPGSV,3,3,12,29,05,082,14,01,13,262,00,16,09,190,00,120,07,103,00*4E
2017-11-15 19:00:39 1510790439.776502: $GPZDA,000038.00,16,11,2017,00,00*6E
2017-11-15 19:00:39 1510790439.776664: $GPGGA,000038,3946.9584,N,08404.9618,W,1,08,2.80,307.59,M,-33.324,M,,*7F
2017-11-15 19:00:39 1510790439.776890: $GPRMC,000038,A,3946.9584,N,08404.9618,W,2.5941,9.251,161117,,*37
2017-11-15 19:00:39 1510790439.776951: $GPGSA,A,3,14,3,32,31,26,22,25,29,,,,,3.4,2.8,2.9*09
2017-11-15 19:00:40 1510790440.327778: $GPZDA,000039.00,16,11,2017,00,00*6F
2017-11-15 19:00:40 1510790440.328029: $GPGGA,000039,3946.9592,N,08404.9617,W,1,08,2.80,307.46,M,-33.324,M,,*78
2017-11-15 19:00:40 1510790440.328132: $GPRMC,000039,A,3946.9592,N,08404.9617,W,2.5932,358.534,161117,,*39
2017-11-15 19:00:40 1510790440.328247: $GPGSA,A,3,14,3,32,31,26,22,25,29,,,,,3.4,2.8,2.9*09
2017-11-15 19:00:41 1510790441.327825: $GPZDA,000040.00,16,11,2017,00,00*61
2017-11-15 19:00:41 1510790441.327987: $GPGGA,000040,3946.9600,N,08404.9616,W,1,08,2.80,307.34,M,-33.324,M,,*7A
2017-11-15 19:00:41 1510790441.328048: $GPRMC,000040,A,3946.9600,N,08404.9616,W,2.6265,353.265,161117,,*3C
2017-11-15 19:00:41 1510790441.328104: $GPGSA,A,3,14,3,32,31,26,22,25,29,,,,,3.4,2.8,2.9*09
2017-11-15 19:00:42 1510790442.662240: $GPGSV,3,1,12,10,09,159,00,14,63,070,16,03,31,310,12,32,46,094,09*7A
2017-11-15 19:00:42 1510790442.662447: $GPGSV,3,2,12,31,77,349,26,26,38,177,18,22,47,289,20,25,27,046,14*73
2017-11-15 19:00:42 1510790442.662526: $GPGSV,3,3,12,29,05,082,14,01,13,262,00,16,09,190,00,120,07,103,00*4E
2017-11-15 19:00:42 1510790442.776465: $GPZDA,000041.00,16,11,2017,00,00*60
2017-11-15 19:00:42 1510790442.776862: $GPGGA,000041,3946.9607,N,08404.9616,W,1,08,2.80,307.21,M,-33.324,M,,*78
2017-11-15 19:00:42 1510790442.777055: $GPRMC,000041,A,3946.9607,N,08404.9616,W,2.6165,341.818,161117,,*3A
2017-11-15 19:00:42 1510790442.777159: $GPGSA,A,3,14,3,32,31,26,22,25,29,,,,,3.4,2.8,2.9*09
