2017-12-01 11:56:32 1512147392.194596: {"class":"VERSION","release":"3.16","rev":"3.16-4","proto_major":3,"proto_minor":11}
2017-12-01 11:56:32 1512147392.194996: {"class":"DEVICES","devices":[{"class":"DEVICE","path":"/dev/ttyUSB0","driver":"SiRF","subtype":"9\u0006GSD4e_4.1.2-P1_RPATCH.05-F-GPS-4R-1510281 11/03/2015 307","activated":"2017-12-01T16:56:32.181Z","flags":1,"native":1,"bps":4800,"parity":"N","stopbits":1,"cycle":1.00}]}
2017-12-01 11:56:32 1512147392.195127: {"class":"WATCH","enable":true,"json":false,"nmea":true,"raw":0,"scaled":false,"timing":false,"split24":false,"pps":false}
2017-12-01 11:56:32 1512147392.864389: $GPZDA,165633.30,01,12,2017,00,00*67
2017-12-01 11:56:32 1512147392.864580: $GPGGA,165633,3946.9540,N,08404.9823,W,1,11,0.80,303.35,M,-33.324,M,,*7A
2017-12-01 11:56:32 1512147392.864648: $GPRMC,165633,A,3946.9540,N,08404.9823,W,0.1567,189.200,011217,,*30
2017-12-01 11:56:32 1512147392.864709: $GPGSA,A,3,13,15,18,20,21,24,27,29,5,10,138,,2.0,0.8,1.5*34
2017-12-01 11:56:32 1512147392.864768: $GPGBS,165633,10.70,M,15.43,M,35.28,M*03
2017-12-01 11:56:34 1512147394.006826: $GPGSV,3,1,12,10,17,276,37,13,38,048,47,15,70,058,46,18,48,291,45*7C
2017-12-01 11:56:34 1512147394.007004: $GPGSV,3,2,12,20,58,060,45,21,72,298,46,24,25,145,46,27,12,321,40*75
2017-12-01 11:56:34 1512147394.007073: $GPGSV,3,3,12,29,18,193,45,05,10,081,06,04,07,133,00,138,38,213,00*4A
2017-12-01 11:56:34 1512147394.120342: $GPZDA,165634.00,01,12,2017,00,00*63
2017-12-01 11:56:34 1512147394.120506: $GPGGA,165634,3946.9540,N,08404.9816,W,1,09,0.80,303.43,M,-33.324,M,,*73
2017-12-01 11:56:34 1512147394.120571: $GPRMC,165634,A,3946.9540,N,08404.9816,W,0.1567,189.200,011217,,*31
2017-12-01 11:56:34 1512147394.120631: $GPGSA,A,3,10,13,15,18,20,21,24,27,29,,,,2.0,0.8,1.5*3B
2017-12-01 11:56:34 1512147394.572355: $GPZDA,165635.00,01,12,2017,00,00*62
2017-12-01 11:56:34 1512147394.572536: $GPGGA,165635,3946.9540,N,08404.9816,W,1,09,0.80,303.43,M,-33.324,M,,*72
2017-12-01 11:56:34 1512147394.572604: $GPRMC,165635,A,3946.9540,N,08404.9816,W,0.2422,93.794,011217,,*01
2017-12-01 11:56:34 1512147394.572665: $GPGSA,A,3,10,13,15,18,20,21,24,27,29,,,,2.0,0.8,1.5*3B
2017-12-01 11:56:35 1512147395.322023: $GPZDA,165636.00,01,12,2017,00,00*61
2017-12-01 11:56:35 1512147395.322195: $GPGGA,165636,3946.9540,N,08404.9816,W,1,09,0.80,303.43,M,-33.324,M,,*71
2017-12-01 11:56:35 1512147395.322261: $GPRMC,165636,A,3946.9540,N,08404.9816,W,0.0000,0.000,011217,,*34
2017-12-01 11:56:35 1512147395.322321: $GPGSA,A,3,10,13,15,18,20,21,24,27,29,,,,2.0,0.8,1.5*3B
2017-12-01 11:56:36 1512147396.657253: $GPGSV,3,1,12,10,17,276,37,13,38,048,45,15,70,058,45,18,48,291,45*7D
2017-12-01 11:56:36 1512147396.657429: $GPGSV,3,2,12,20,58,060,44,21,72,298,45,24,25,145,45,27,12,321,41*75
2017-12-01 11:56:36 1512147396.657497: $GPGSV,3,3,12,29,18,193,44,05,10,081,00,04,07,133,00,138,38,213,46*4F
2017-12-01 11:56:36 1512147396.770576: $GPZDA,165637.00,01,12,2017,00,00*60
2017-12-01 11:56:36 1512147396.770746: $GPGGA,165637,3946.9543,N,08404.9816,W,1,10,0.80,302.67,M,-33.324,M,,*7C
2017-12-01 11:56:36 1512147396.770812: $GPRMC,165637,A,3946.9543,N,08404.9816,W,0.0000,0.000,011217,,*36
2017-12-01 11:56:36 1512147396.770873: $GPGSA,A,3,10,13,15,18,20,21,24,27,29,138,,,2.0,0.8,1.5*01
2017-12-01 11:56:37 1512147397.321483: $GPZDA,165638.00,01,12,2017,00,00*6F
2017-12-01 11:56:37 1512147397.323248: $GPGGA,165638,3946.9543,N,08404.9816,W,1,10,0.80,302.67,M,-33.324,M,,*73
2017-12-01 11:56:37 1512147397.323377: $GPRMC,165638,A,3946.9543,N,08404.9816,W,0.0000,0.000,011217,,*39
2017-12-01 11:56:37 1512147397.323441: $GPGSA,A,3,10,13,15,18,20,21,24,27,29,138,,,2.0,0.8,1.5*01
2017-12-01 11:56:38 1512147398.322231: $GPZDA,165639.00,01,12,2017,00,00*6E
2017-12-01 11:56:38 1512147398.322405: $GPGGA,165639,3946.9543,N,08404.9816,W,1,10,0.80,302.67,M,-33.324,M,,*72
2017-12-01 11:56:38 1512147398.322472: $GPRMC,165639,A,3946.9543,N,08404.9816,W,0.0000,0.000,011217,,*38
2017-12-01 11:56:38 1512147398.322532: $GPGSA,A,3,10,13,15,18,20,21,24,27,29,138,,,2.0,0.8,1.5*01
2017-12-01 11:56:38 1512147398.322641: $GPGBS,165639,10.70,M,15.43,M,35.28,M*09
2017-12-01 11:56:39 1512147399.660472: $GPGSV,3,1,12,10,17,276,38,13,38,048,45,15,70,058,45,18,48,291,45*72
2017-12-01 11:56:39 1512147399.660650: $GPGSV,3,2,12,20,58,060,44,21,72,298,45,24,25,145,45,27,12,321,41*75
2017-12-01 11:56:39 1512147399.660716: $GPGSV,3,3,12,29,18,193,43,05,10,081,00,04,07,133,00,138,38,213,46*48
2017-12-01 11:56:39 1512147399.772644: $GPZDA,165640.00,01,12,2017,00,00*60
2017-12-01 11:56:39 1512147399.772821: $GPGGA,165640,3946.9544,N,08404.9823,W,1,10,0.80,302.59,M,-33.324,M,,*70
2017-12-01 11:56:39 1512147399.772887: $GPRMC,165640,A,3946.9544,N,08404.9823,W,0.0000,0.000,011217,,*37
2017-12-01 11:56:39 1512147399.772949: $GPGSA,A,3,10,13,15,18,20,21,24,27,29,138,,,2.0,0.8,1.5*01
2017-12-01 11:56:40 1512147400.323422: $GPZDA,165641.00,01,12,2017,00,00*61
2017-12-01 11:56:40 1512147400.323613: $GPGGA,165641,3946.9544,N,08404.9823,W,1,10,0.80,302.59,M,-33.324,M,,*71
2017-12-01 11:56:40 1512147400.323681: $GPRMC,165641,A,3946.9544,N,08404.9823,W,0.0000,0.000,011217,,*36
2017-12-01 11:56:40 1512147400.323785: $GPGSA,A,3,10,13,15,18,20,21,24,27,29,138,,,2.0,0.8,1.5*01
2017-12-01 11:56:41 1512147401.327607: $GPZDA,165642.00,01,12,2017,00,00*62
2017-12-01 11:56:41 1512147401.327779: $GPGGA,165642,3946.9546,N,08404.9821,W,2,10,0.80,300.42,M,-33.324,M,,*79
2017-12-01 11:56:41 1512147401.327847: $GPRMC,165642,A,3946.9546,N,08404.9821,W,0.0000,0.000,011217,,*35
2017-12-01 11:56:41 1512147401.327908: $GPGSA,A,3,10,13,15,18,20,21,24,27,29,138,,,2.0,0.8,1.5*01
