2017-12-01 11:45:28 1512146728.016732: {"class":"VERSION","release":"3.16","rev":"3.16-4","proto_major":3,"proto_minor":11}
2017-12-01 11:45:28 1512146728.017172: {"class":"DEVICES","devices":[{"class":"DEVICE","path":"/dev/ttyUSB0","driver":"SiRF","subtype":"9\u0006GSD4e_4.1.2-P1_RPATCH.05-F-GPS-4R-1510281 11/03/2015 307","activated":"2017-12-01T16:45:27.524Z","flags":1,"native":1,"bps":4800,"parity":"N","stopbits":1,"cycle":1.00}]}
2017-12-01 11:45:28 1512146728.017426: {"class":"WATCH","enable":true,"json":false,"nmea":true,"raw":0,"scaled":false,"timing":false,"split24":false,"pps":false}
2017-12-01 11:45:28 1512146728.382336: $GPZDA,164529.00,01,12,2017,00,00*6D
2017-12-01 11:45:28 1512146728.382548: $GPGGA,164529,3946.9555,N,08404.9841,W,2,11,1.00,300.06,M,-33.324,M,,*7A
2017-12-01 11:45:28 1512146728.382621: $GPRMC,164529,A,3946.9555,N,08404.9841,W,0.0000,0.000,011217,,*3E
2017-12-01 11:45:28 1512146728.382685: $GPGSA,A,3,10,13,15,18,20,21,24,27,29,5,138,,2.0,1.0,1.5*3D
2017-12-01 11:45:29 1512146729.717945: $GPGSV,3,1,12,10,13,273,37,13,42,049,47,15,75,070,46,18,44,286,45*74
2017-12-01 11:45:29 1512146729.718131: $GPGSV,3,2,12,20,62,052,42,21,68,304,45,24,21,148,43,27,09,324,44*71
2017-12-01 11:45:29 1512146729.718200: $GPGSV,3,3,12,29,23,195,43,05,13,078,15,04,12,130,00,138,38,213,46*40
2017-12-01 11:45:29 1512146729.831445: $GPZDA,164530.00,01,12,2017,00,00*65
2017-12-01 11:45:29 1512146729.831619: $GPGGA,164530,3946.9555,N,08404.9841,W,2,11,1.00,300.06,M,-33.324,M,,*72
2017-12-01 11:45:29 1512146729.831688: $GPRMC,164530,A,3946.9555,N,08404.9841,W,0.0000,0.000,011217,,*36
2017-12-01 11:45:29 1512146729.831753: $GPGSA,A,3,10,13,15,18,20,21,24,27,29,5,138,,2.0,1.0,1.5*3D
2017-12-01 11:45:30 1512146730.456744: $GPZDA,164531.00,01,12,2017,00,00*64
2017-12-01 11:45:30 1512146730.456918: $GPGGA,164531,3946.9555,N,08404.9841,W,2,11,1.00,300.06,M,-33.324,M,,*73
2017-12-01 11:45:30 1512146730.456987: $GPRMC,164531,A,3946.9555,N,08404.9841,W,0.0000,0.000,011217,,*37
2017-12-01 11:45:30 1512146730.457052: $GPGSA,A,3,10,13,15,18,20,21,24,27,29,5,138,,2.0,1.0,1.5*3D
2017-12-01 11:45:31 1512146731.382643: $GPZDA,164532.00,01,12,2017,00,00*67
2017-12-01 11:45:31 1512146731.382822: $GPGGA,164532,3946.9555,N,08404.9841,W,2,11,1.00,300.06,M,-33.324,M,,*70
2017-12-01 11:45:31 1512146731.382892: $GPRMC,164532,A,3946.9555,N,08404.9841,W,0.0000,0.000,011217,,*34
2017-12-01 11:45:31 1512146731.382956: $GPGSA,A,3,10,13,15,18,20,21,24,27,29,5,138,,2.0,1.0,1.5*3D
2017-12-01 11:45:32 1512146732.713311: $GPGSV,3,1,12,10,13,273,37,13,42,049,47,15,75,070,45,18,44,286,45*77
2017-12-01 11:45:32 1512146732.861638: $GPGSV,3,2,12,20,62,052,42,21,68,304,45,24,21,148,43,27,09,324,44*71
2017-12-01 11:45:32 1512146732.861798: $GPGSV,3,3,12,29,23,195,44,05,13,078,15,04,12,130,00,138,38,213,46*47
2017-12-01 11:45:32 1512146732.861902: $GPZDA,164533.00,01,12,2017,00,00*66
2017-12-01 11:45:32 1512146732.861981: $GPGGA,164533,3946.9555,N,08404.9841,W,2,11,1.00,300.06,M,-33.324,M,,*71
2017-12-01 11:45:32 1512146732.862047: $GPRMC,164533,A,3946.9555,N,08404.9841,W,0.0000,0.000,011217,,*35
2017-12-01 11:45:32 1512146732.862128: $GPGSA,A,3,10,13,15,18,20,21,24,27,29,5,138,,2.0,1.0,1.5*3D
2017-12-01 11:45:33 1512146733.382689: $GPZDA,164534.00,01,12,2017,00,00*61
2017-12-01 11:45:33 1512146733.382864: $GPGGA,164534,3946.9555,N,08404.9841,W,2,11,1.00,300.06,M,-33.324,M,,*76
2017-12-01 11:45:33 1512146733.382935: $GPRMC,164534,A,3946.9555,N,08404.9841,W,0.0000,0.000,011217,,*32
2017-12-01 11:45:33 1512146733.383000: $GPGSA,A,3,10,13,15,18,20,21,24,27,29,5,138,,2.0,1.0,1.5*3D
2017-12-01 11:45:34 1512146734.382479: $GPZDA,164535.00,01,12,2017,00,00*60
2017-12-01 11:45:34 1512146734.382684: $GPGGA,164535,3946.9555,N,08404.9841,W,2,11,1.00,300.06,M,-33.324,M,,*77
2017-12-01 11:45:34 1512146734.382758: $GPRMC,164535,A,3946.9555,N,08404.9841,W,0.0000,0.000,011217,,*33
2017-12-01 11:45:34 1512146734.382824: $GPGSA,A,3,10,13,15,18,20,21,24,27,29,5,138,,2.0,1.0,1.5*3D
2017-12-01 11:45:35 1512146735.718769: $GPGSV,3,1,12,10,13,273,38,13,42,049,47,15,75,070,45,18,44,286,45*78
2017-12-01 11:45:35 1512146735.719003: $GPGSV,3,2,12,20,62,052,42,21,68,304,45,24,21,148,43,27,09,324,43*76
2017-12-01 11:45:35 1512146735.719072: $GPGSV,3,3,12,29,23,195,44,05,13,078,15,04,12,130,00,138,38,213,46*47
2017-12-01 11:45:35 1512146735.832180: $GPZDA,164536.00,01,12,2017,00,00*63
2017-12-01 11:45:35 1512146735.832350: $GPGGA,164536,3946.9555,N,08404.9841,W,2,11,1.00,300.06,M,-33.324,M,,*74
2017-12-01 11:45:35 1512146735.832418: $GPRMC,164536,A,3946.9555,N,08404.9841,W,0.0000,0.000,011217,,*30
2017-12-01 11:45:35 1512146735.832479: $GPGSA,A,3,10,13,15,18,20,21,24,27,29,5,138,,2.0,1.0,1.5*3D
2017-12-01 11:45:36 1512146736.383376: $GPZDA,164537.00,01,12,2017,00,00*62
2017-12-01 11:45:36 1512146736.383569: $GPGGA,164537,3946.9555,N,08404.9841,W,2,11,1.00,300.06,M,-33.324,M,,*75
2017-12-01 11:45:36 1512146736.383637: $GPRMC,164537,A,3946.9555,N,08404.9841,W,0.0000,0.000,011217,,*31
2017-12-01 11:45:36 1512146736.383699: $GPGSA,A,3,10,13,15,18,20,21,24,27,29,5,138,,2.0,1.0,1.5*3D
2017-12-01 11:45:37 1512146737.383879: $GPZDA,164538.00,01,12,2017,00,00*6D
2017-12-01 11:45:37 1512146737.384329: $GPGGA,164538,3946.9555,N,08404.9841,W,2,11,1.00,300.06,M,-33.324,M,,*7A
2017-12-01 11:45:37 1512146737.389959: $GPRMC,164538,A,3946.9555,N,08404.9841,W,0.0000,0.000,011217,,*3E
2017-12-01 11:45:37 1512146737.390052: $GPGSA,A,3,10,13,15,18,20,21,24,27,29,5,138,,2.0,1.0,1.5*3D
