2017-12-29 10:52:19 1514562739.536164: {"class":"VERSION","release":"3.16","rev":"3.16-4","proto_major":3,"proto_minor":11}
2017-12-29 10:52:19 1514562739.536551: {"class":"DEVICES","devices":[{"class":"DEVICE","path":"/dev/ttyUSB0","driver":"SiRF","subtype":"9\u0006GSD4e_4.1.2-P1_RPATCH.05-F-GPS-4R-1510281 11/03/2015 307","activated":"2017-12-29T15:52:19.503Z","flags":1,"native":1,"bps":4800,"parity":"N","stopbits":1,"cycle":1.00}]}
2017-12-29 10:52:19 1514562739.536666: {"class":"WATCH","enable":true,"json":false,"nmea":true,"raw":0,"scaled":false,"timing":false,"split24":false,"pps":false}
2017-12-29 10:52:20 1514562740.464225: $GPZDA,155221.00,29,12,2017,00,00*6A
2017-12-29 10:52:20 1514562740.464394: $GPGGA,155221,3946.9604,N,08404.9823,W,2,11,0.80,300.11,M,-33.324,M,,*7B
2017-12-29 10:52:20 1514562740.464461: $GPRMC,155221,A,3946.9604,N,08404.9823,W,0.0000,0.000,291217,,*3A
2017-12-29 10:52:20 1514562740.464524: $GPGSA,A,3,10,13,15,18,20,21,24,27,8,32,138,,1.7,0.8,1.3*31
2017-12-29 10:52:21 1514562741.761285: $GPGSV,3,1,11,10,33,292,44,13,17,046,44,15,48,049,49,18,64,316,45*73
2017-12-29 10:52:21 1514562741.761446: $GPGSV,3,2,11,20,43,085,50,21,74,208,47,24,44,126,50,27,19,301,37*71
2017-12-29 10:52:21 1514562741.761512: $GPGSV,3,3,11,08,01,331,28,32,12,231,21,138,38,213,44*7B
2017-12-29 10:52:21 1514562741.874597: $GPZDA,155222.00,29,12,2017,00,00*69
2017-12-29 10:52:21 1514562741.874739: $GPGGA,155222,3946.9604,N,08404.9823,W,2,11,1.40,300.11,M,-33.324,M,,*75
2017-12-29 10:52:21 1514562741.874808: $GPRMC,155222,A,3946.9604,N,08404.9823,W,0.0000,0.000,291217,,*39
2017-12-29 10:52:21 1514562741.874868: $GPGSA,A,3,10,13,15,18,20,21,24,27,8,32,138,,1.7,1.4,1.3*3C
2017-12-29 10:52:22 1514562742.500251: $GPZDA,155223.00,29,12,2017,00,00*68
2017-12-29 10:52:22 1514562742.500396: $GPGGA,155223,3946.9604,N,08404.9823,W,2,11,1.40,300.11,M,-33.324,M,,*74
2017-12-29 10:52:22 1514562742.500461: $GPRMC,155223,A,3946.9604,N,08404.9823,W,0.0000,0.000,291217,,*38
2017-12-29 10:52:22 1514562742.500522: $GPGSA,A,3,10,13,15,18,20,21,24,27,8,32,138,,1.7,1.4,1.3*3C
2017-12-29 10:52:23 1514562743.427078: $GPZDA,155224.00,29,12,2017,00,00*6F
2017-12-29 10:52:23 1514562743.427237: $GPGGA,155224,3946.9604,N,08404.9823,W,2,11,1.40,300.11,M,-33.324,M,,*73
2017-12-29 10:52:23 1514562743.427307: $GPRMC,155224,A,3946.9604,N,08404.9823,W,0.0000,0.000,291217,,*3F
2017-12-29 10:52:23 1514562743.427369: $GPGSA,A,3,10,13,15,18,20,21,24,27,8,32,138,,1.7,1.4,1.3*3C
2017-12-29 10:52:24 1514562744.800311: $GPGSV,3,1,11,10,33,292,44,13,17,046,44,15,48,049,49,18,64,316,45*73
2017-12-29 10:52:24 1514562744.800478: $GPGSV,3,2,11,20,43,085,50,21,74,208,47,24,44,126,51,27,19,301,36*71
2017-12-29 10:52:24 1514562744.800545: $GPGSV,3,3,11,08,01,331,00,32,12,231,21,138,38,213,44*71
2017-12-29 10:52:24 1514562744.914085: $GPZDA,155225.00,29,12,2017,00,00*6E
2017-12-29 10:52:24 1514562744.914227: $GPGGA,155225,3946.9604,N,08404.9823,W,2,10,1.40,300.11,M,-33.324,M,,*73
2017-12-29 10:52:24 1514562744.914294: $GPRMC,155225,A,3946.9604,N,08404.9823,W,0.0000,0.000,291217,,*3E
2017-12-29 10:52:24 1514562744.914355: $GPGSA,A,3,10,13,15,18,20,21,24,27,32,138,,,1.7,1.4,1.3*04
2017-12-29 10:52:25 1514562745.466145: $GPZDA,155226.00,29,12,2017,00,00*6D
2017-12-29 10:52:25 1514562745.466292: $GPGGA,155226,3946.9604,N,08404.9823,W,2,10,0.80,300.11,M,-33.324,M,,*7D
2017-12-29 10:52:25 1514562745.466359: $GPRMC,155226,A,3946.9604,N,08404.9823,W,0.0000,0.000,291217,,*3D
2017-12-29 10:52:25 1514562745.466419: $GPGSA,A,3,10,13,15,18,20,21,24,27,32,138,,,1.7,0.8,1.3*09
2017-12-29 10:52:26 1514562746.428329: $GPZDA,155227.00,29,12,2017,00,00*6C
2017-12-29 10:52:26 1514562746.428486: $GPGGA,155227,3946.9604,N,08404.9823,W,2,10,0.80,300.11,M,-33.324,M,,*7C
2017-12-29 10:52:26 1514562746.428552: $GPRMC,155227,A,3946.9604,N,08404.9823,W,0.0000,0.000,291217,,*3C
2017-12-29 10:52:26 1514562746.428614: $GPGSA,A,3,10,13,15,18,20,21,24,27,32,138,,,1.7,0.8,1.3*09
2017-12-29 10:52:27 1514562747.756964: $GPGSV,3,1,11,10,33,292,44,13,17,046,44,15,48,049,49,18,64,316,45*73
2017-12-29 10:52:27 1514562747.757197: $GPGSV,3,2,11,20,43,085,50,21,74,208,47,24,44,126,50,27,19,301,36*70
2017-12-29 10:52:27 1514562747.757267: $GPGSV,3,3,11,08,01,331,28,32,12,231,27,138,38,213,46*7F
2017-12-29 10:52:27 1514562747.870666: $GPZDA,155228.00,29,12,2017,00,00*63
2017-12-29 10:52:27 1514562747.870807: $GPGGA,155228,3946.9604,N,08404.9823,W,2,11,0.80,300.11,M,-33.324,M,,*72
2017-12-29 10:52:27 1514562747.870877: $GPRMC,155228,A,3946.9604,N,08404.9823,W,0.0000,0.000,291217,,*33
2017-12-29 10:52:27 1514562747.870937: $GPGSA,A,3,10,13,15,18,20,21,24,27,8,32,138,,1.7,0.8,1.3*31
2017-12-29 10:52:28 1514562748.420231: $GPZDA,155229.00,29,12,2017,00,00*62
2017-12-29 10:52:28 1514562748.420376: $GPGGA,155229,3946.9604,N,08404.9823,W,2,11,0.80,300.11,M,-33.324,M,,*73
2017-12-29 10:52:28 1514562748.420440: $GPRMC,155229,A,3946.9604,N,08404.9823,W,0.0000,0.000,291217,,*32
2017-12-29 10:52:28 1514562748.420502: $GPGSA,A,3,10,13,15,18,20,21,24,27,8,32,138,,1.7,0.8,1.3*31
2017-12-29 10:52:29 1514562749.419924: $GPZDA,155230.00,29,12,2017,00,00*6A
2017-12-29 10:52:29 1514562749.420092: $GPGGA,155230,3946.9604,N,08404.9823,W,2,11,0.80,300.11,M,-33.324,M,,*7B
2017-12-29 10:52:29 1514562749.420158: $GPRMC,155230,A,3946.9604,N,08404.9823,W,0.0000,0.000,291217,,*3A
2017-12-29 10:52:29 1514562749.420220: $GPGSA,A,3,10,13,15,18,20,21,24,27,8,32,138,,1.7,0.8,1.3*31
2017-12-29 10:52:30 1514562750.764063: $GPGSV,3,1,11,10,33,292,44,13,17,046,44,15,48,049,50,18,64,316,45*7B
2017-12-29 10:52:30 1514562750.764243: $GPGSV,3,2,11,20,43,085,50,21,74,208,47,24,44,126,51,27,19,301,36*71
2017-12-29 10:52:30 1514562750.764308: $GPGSV,3,3,11,08,01,331,22,32,12,231,27,138,38,213,45*76
2017-12-29 10:52:30 1514562750.877921: $GPZDA,155231.00,29,12,2017,00,00*6B
2017-12-29 10:52:30 1514562750.878060: $GPGGA,155231,3946.9604,N,08404.9823,W,2,11,0.80,300.11,M,-33.324,M,,*7A
2017-12-29 10:52:30 1514562750.878125: $GPRMC,155231,A,3946.9604,N,08404.9823,W,0.0000,0.000,291217,,*3B
2017-12-29 10:52:30 1514562750.878183: $GPGSA,A,3,10,13,15,18,20,21,24,27,8,32,138,,1.7,0.8,1.3*31
2017-12-29 10:52:31 1514562751.426141: $GPZDA,155232.00,29,12,2017,00,00*68
2017-12-29 10:52:31 1514562751.426289: $GPGGA,155232,3946.9604,N,08404.9823,W,2,11,0.80,300.11,M,-33.324,M,,*79
2017-12-29 10:52:31 1514562751.426355: $GPRMC,155232,A,3946.9604,N,08404.9823,W,0.0000,0.000,291217,,*38
2017-12-29 10:52:31 1514562751.426414: $GPGSA,A,3,10,13,15,18,20,21,24,27,8,32,138,,1.7,0.8,1.3*31
2017-12-29 10:52:32 1514562752.425266: $GPZDA,155233.00,29,12,2017,00,00*69
2017-12-29 10:52:32 1514562752.425430: $GPGGA,155233,3946.9604,N,08404.9823,W,2,11,0.80,300.11,M,-33.324,M,,*78
2017-12-29 10:52:32 1514562752.425498: $GPRMC,155233,A,3946.9604,N,08404.9823,W,0.0000,0.000,291217,,*39
2017-12-29 10:52:32 1514562752.425558: $GPGSA,A,3,10,13,15,18,20,21,24,27,8,32,138,,1.7,0.8,1.3*31
2017-12-29 10:52:33 1514562753.760657: $GPGSV,3,1,11,10,33,292,45,13,17,046,44,15,48,049,49,18,64,316,45*72
2017-12-29 10:52:33 1514562753.760815: $GPGSV,3,2,11,20,43,085,50,21,74,208,47,24,44,126,51,27,19,301,36*71
2017-12-29 10:52:33 1514562753.760885: $GPGSV,3,3,11,08,01,331,27,32,12,231,26,138,38,213,45*72
2017-12-29 10:52:33 1514562753.874348: $GPZDA,155234.00,29,12,2017,00,00*6E
2017-12-29 10:52:33 1514562753.874477: $GPGGA,155234,3946.9604,N,08404.9823,W,2,11,0.80,300.11,M,-33.324,M,,*7F
2017-12-29 10:52:33 1514562753.874539: $GPRMC,155234,A,3946.9604,N,08404.9823,W,0.0000,0.000,291217,,*3E
2017-12-29 10:52:33 1514562753.874600: $GPGSA,A,3,10,13,15,18,20,21,24,27,8,32,138,,1.7,0.8,1.3*31
2017-12-29 10:52:34 1514562754.421590: $GPZDA,155235.00,29,12,2017,00,00*6F
2017-12-29 10:52:34 1514562754.421760: $GPGGA,155235,3946.9604,N,08404.9823,W,2,11,0.80,300.11,M,-33.324,M,,*7E
2017-12-29 10:52:34 1514562754.421828: $GPRMC,155235,A,3946.9604,N,08404.9823,W,0.0000,0.000,291217,,*3F
2017-12-29 10:52:34 1514562754.421891: $GPGSA,A,3,10,13,15,18,20,21,24,27,8,32,138,,1.7,0.8,1.3*31
