2017-12-31 18:04:35 1514761475.015932: {"class":"VERSION","release":"3.16","rev":"3.16-4","proto_major":3,"proto_minor":11}
2017-12-31 18:04:35 1514761475.016275: {"class":"DEVICES","devices":[{"class":"DEVICE","path":"/dev/ttyUSB0","driver":"SiRF","activated":"2017-12-31T23:04:34.661Z","flags":1,"native":1,"bps":4800,"parity":"N","stopbits":1,"cycle":1.00}]}
2017-12-31 18:04:35 1514761475.016376: {"class":"WATCH","enable":true,"json":false,"nmea":true,"raw":0,"scaled":false,"timing":false,"split24":false,"pps":false}
2017-12-31 18:04:35 1514761475.346657: $GPZDA,230436.00,31,12,2017,00,00*63
2017-12-31 18:04:35 1514761475.346830: $GPGGA,230436,3946.9561,N,08404.9874,W,2,11,0.60,308.17,M,-33.324,M,,*79
2017-12-31 18:04:35 1514761475.346897: $GPRMC,230436,A,3946.9561,N,08404.9874,W,0.0000,0.000,311217,,*31
2017-12-31 18:04:35 1514761475.346959: $GPGSA,A,3,22,23,9,3,16,29,14,31,27,26,135,,1.7,0.6,1.3*06
2017-12-31 18:04:36 1514761476.703610: $GPGSV,3,1,11,22,25,216,40,23,51,307,44,09,18,312,41,03,34,237,41*7E
2017-12-31 18:04:36 1514761476.703772: $GPGSV,3,2,11,16,77,192,43,29,07,033,29,14,18,132,30,31,30,072,36*7B
2017-12-31 18:04:36 1514761476.703838: $GPGSV,3,3,11,27,19,156,29,26,65,052,47,135,22,240,45*7E
2017-12-31 18:04:36 1514761476.816962: $GPZDA,230437.00,31,12,2017,00,00*62
2017-12-31 18:04:36 1514761476.817162: $GPGGA,230437,3946.9561,N,08404.9874,W,2,11,0.60,308.17,M,-33.324,M,,*78
2017-12-31 18:04:36 1514761476.817238: $GPRMC,230437,A,3946.9561,N,08404.9874,W,0.0000,0.000,311217,,*30
2017-12-31 18:04:36 1514761476.817300: $GPGSA,A,3,22,23,9,3,16,29,14,31,27,26,135,,1.7,0.6,1.3*06
2017-12-31 18:04:37 1514761477.346594: $GPZDA,230438.00,31,12,2017,00,00*6D
2017-12-31 18:04:37 1514761477.346773: $GPGGA,230438,3946.9561,N,08404.9874,W,2,11,0.60,308.17,M,-33.324,M,,*77
2017-12-31 18:04:37 1514761477.346844: $GPRMC,230438,A,3946.9561,N,08404.9874,W,0.0000,0.000,311217,,*3F
2017-12-31 18:04:37 1514761477.346908: $GPGSA,A,3,22,23,9,3,16,29,14,31,27,26,135,,1.7,0.6,1.3*06
2017-12-31 18:04:38 1514761478.346212: $GPZDA,230439.00,31,12,2017,00,00*6C
2017-12-31 18:04:38 1514761478.346377: $GPGGA,230439,3946.9561,N,08404.9874,W,2,11,0.60,308.17,M,-33.324,M,,*76
2017-12-31 18:04:38 1514761478.346446: $GPRMC,230439,A,3946.9561,N,08404.9874,W,0.0000,0.000,311217,,*3E
2017-12-31 18:04:38 1514761478.346510: $GPGSA,A,3,22,23,9,3,16,29,14,31,27,26,135,,1.7,0.6,1.3*06
2017-12-31 18:04:39 1514761479.681967: $GPGSV,3,1,11,22,25,216,40,23,51,307,45,09,18,312,42,03,34,237,43*7E
2017-12-31 18:04:39 1514761479.682150: $GPGSV,3,2,11,16,77,192,43,29,07,033,29,14,18,132,31,31,30,072,37*7B
2017-12-31 18:04:39 1514761479.682220: $GPGSV,3,3,11,27,19,156,34,26,65,052,48,135,22,240,44*7C
2017-12-31 18:04:39 1514761479.795289: $GPZDA,230440.00,31,12,2017,00,00*62
2017-12-31 18:04:39 1514761479.795427: $GPGGA,230440,3946.9561,N,08404.9874,W,2,11,0.60,308.17,M,-33.324,M,,*78
2017-12-31 18:04:39 1514761479.795495: $GPRMC,230440,A,3946.9561,N,08404.9874,W,0.0000,0.000,311217,,*30
2017-12-31 18:04:39 1514761479.795560: $GPGSA,A,3,22,23,9,3,16,29,14,31,27,26,135,,1.7,0.6,1.3*06
2017-12-31 18:04:40 1514761480.420684: $GPZDA,230441.00,31,12,2017,00,00*63
2017-12-31 18:04:40 1514761480.420849: $GPGGA,230441,3946.9561,N,08404.9874,W,2,11,0.60,308.17,M,-33.324,M,,*79
2017-12-31 18:04:40 1514761480.420919: $GPRMC,230441,A,3946.9561,N,08404.9874,W,0.0000,0.000,311217,,*31
2017-12-31 18:04:40 1514761480.420983: $GPGSA,A,3,22,23,9,3,16,29,14,31,27,26,135,,1.7,0.6,1.3*06
2017-12-31 18:04:41 1514761481.374067: $GPZDA,230442.00,31,12,2017,00,00*60
2017-12-31 18:04:41 1514761481.374229: $GPGGA,230442,3946.9561,N,08404.9874,W,2,11,0.60,308.17,M,-33.324,M,,*7A
2017-12-31 18:04:41 1514761481.374299: $GPRMC,230442,A,3946.9561,N,08404.9874,W,0.0000,0.000,311217,,*32
2017-12-31 18:04:41 1514761481.374363: $GPGSA,A,3,22,23,9,3,16,29,14,31,27,26,135,,1.7,0.6,1.3*06
2017-12-31 18:04:42 1514761482.709793: $GPGSV,3,1,11,22,25,216,40,23,51,307,45,09,18,312,42,03,34,237,44*79
2017-12-31 18:04:42 1514761482.709989: $GPGSV,3,2,11,16,77,192,44,29,07,033,30,14,18,132,32,31,30,072,41*76
2017-12-31 18:04:42 1514761482.710109: $GPGSV,3,3,11,27,19,156,34,26,65,052,48,135,22,240,44*7C
2017-12-31 18:04:42 1514761482.823114: $GPZDA,230443.00,31,12,2017,00,00*61
2017-12-31 18:04:42 1514761482.823241: $GPGGA,230443,3946.9561,N,08404.9874,W,2,11,0.60,308.17,M,-33.324,M,,*7B
2017-12-31 18:04:42 1514761482.823306: $GPRMC,230443,A,3946.9561,N,08404.9874,W,0.0000,0.000,311217,,*33
2017-12-31 18:04:42 1514761482.823366: $GPGSA,A,3,22,23,9,3,16,29,14,31,27,26,135,,1.7,0.6,1.3*06
2017-12-31 18:04:43 1514761483.347911: $GPZDA,230444.00,31,12,2017,00,00*66
2017-12-31 18:04:43 1514761483.348083: $GPGGA,230444,3946.9561,N,08404.9874,W,2,11,0.60,308.17,M,-33.324,M,,*7C
2017-12-31 18:04:43 1514761483.348151: $GPRMC,230444,A,3946.9561,N,08404.9874,W,0.0000,0.000,311217,,*34
2017-12-31 18:04:43 1514761483.348213: $GPGSA,A,3,22,23,9,3,16,29,14,31,27,26,135,,1.7,0.6,1.3*06
2017-12-31 18:04:44 1514761484.339924: $GPZDA,230445.00,31,12,2017,00,00*67
2017-12-31 18:04:44 1514761484.340096: $GPGGA,230445,3946.9561,N,08404.9874,W,2,11,0.60,308.17,M,-33.324,M,,*7D
2017-12-31 18:04:44 1514761484.340163: $GPRMC,230445,A,3946.9561,N,08404.9874,W,0.0000,0.000,311217,,*35
2017-12-31 18:04:44 1514761484.340224: $GPGSA,A,3,22,23,9,3,16,29,14,31,27,26,135,,1.7,0.6,1.3*06
