2017-11-16 17:36:53 1510871813.251960: {"class":"VERSION","release":"3.17","rev":"3.17","proto_major":3,"proto_minor":12}
2017-11-16 17:36:53 1510871813.252438: {"class":"DEVICES","devices":[{"class":"DEVICE","path":"/dev/ttyUSB0","driver":"SiRF","subtype":"9\u0006GSD4e_4.1.2-P1_RPATCH.05-F-GPS-4R-1510281 11/03/2015 307","activated":"2017-11-16T22:36:53.218Z","flags":1,"native":1,"bps":4800,"parity":"N","stopbits":1,"cycle":1.00}]}
2017-11-16 17:36:53 1510871813.252588: {"class":"WATCH","enable":true,"json":false,"nmea":true,"raw":0,"scaled":false,"timing":false,"split24":false,"pps":false}
2017-11-16 17:36:53 1510871813.396571: $GPZDA,223652.00,16,11,2017,00,00*67
2017-11-16 17:36:53 1510871813.396751: $GPGGA,223652,3946.9575,N,08404.9834,W,2,12,0.80,303.34,M,-33.324,M,,*7D
2017-11-16 17:36:53 1510871813.396815: $GPRMC,223652,A,3946.9575,N,08404.9834,W,0.0000,0.000,161117,,*34
2017-11-16 17:36:53 1510871813.396871: $GPGSA,A,3,1,10,22,12,14,18,26,11,25,31,32,138,1.6,0.8,1.3*3A
2017-11-16 17:36:54 1510871814.754912: $GPGSV,3,1,12,01,22,298,35,10,46,148,45,22,21,312,41,12,21,048,49*74
2017-11-16 17:36:54 1510871814.755123: $GPGSV,3,2,12,14,67,333,46,18,16,145,41,26,04,183,25,11,08,280,38*71
2017-11-16 17:36:54 1510871814.755184: $GPGSV,3,3,12,25,40,087,49,31,58,228,48,32,68,033,49,138,38,213,44*43
2017-11-16 17:36:54 1510871814.868553: $GPZDA,223653.00,16,11,2017,00,00*66
2017-11-16 17:36:54 1510871814.868713: $GPGGA,223653,3946.9575,N,08404.9834,W,2,12,0.80,303.34,M,-33.324,M,,*7C
2017-11-16 17:36:54 1510871814.868775: $GPRMC,223653,A,3946.9575,N,08404.9834,W,0.0000,0.000,161117,,*35
2017-11-16 17:36:54 1510871814.868830: $GPGSA,A,3,1,10,22,12,14,18,26,11,25,31,32,138,1.6,0.8,1.3*3A
2017-11-16 17:36:55 1510871815.419071: $GPZDA,223654.00,16,11,2017,00,00*61
2017-11-16 17:36:55 1510871815.419302: $GPGGA,223654,3946.9575,N,08404.9834,W,2,12,0.80,303.34,M,-33.324,M,,*7B
2017-11-16 17:36:55 1510871815.419373: $GPRMC,223654,A,3946.9575,N,08404.9834,W,0.0000,0.000,161117,,*32
2017-11-16 17:36:55 1510871815.419431: $GPGSA,A,3,1,10,22,12,14,18,26,11,25,31,32,138,1.6,0.8,1.3*3A
2017-11-16 17:36:56 1510871816.395715: $GPZDA,223655.00,16,11,2017,00,00*60
2017-11-16 17:36:56 1510871816.395875: $GPGGA,223655,3946.9575,N,08404.9834,W,2,12,0.80,303.34,M,-33.324,M,,*7A
2017-11-16 17:36:56 1510871816.395935: $GPRMC,223655,A,3946.9575,N,08404.9834,W,0.0000,0.000,161117,,*33
2017-11-16 17:36:56 1510871816.395992: $GPGSA,A,3,1,10,22,12,14,18,26,11,25,31,32,138,1.6,0.8,1.3*3A
2017-11-16 17:36:57 1510871817.732695: $GPGSV,3,1,12,01,22,298,35,10,46,148,45,22,21,312,41,12,21,048,49*74
2017-11-16 17:36:57 1510871817.732863: $GPGSV,3,2,12,14,67,333,46,18,16,145,41,26,04,183,24,11,08,280,38*70
2017-11-16 17:36:57 1510871817.732922: $GPGSV,3,3,12,25,40,087,49,31,58,228,48,32,68,033,49,138,38,213,44*43
2017-11-16 17:36:57 1510871817.846360: $GPZDA,223656.00,16,11,2017,00,00*63
2017-11-16 17:36:57 1510871817.846525: $GPGGA,223656,3946.9575,N,08404.9834,W,2,12,0.80,303.34,M,-33.324,M,,*79
2017-11-16 17:36:57 1510871817.846592: $GPRMC,223656,A,3946.9575,N,08404.9834,W,0.0000,0.000,161117,,*30
2017-11-16 17:36:57 1510871817.846649: $GPGSA,A,3,1,10,22,12,14,18,26,11,25,31,32,138,1.6,0.8,1.3*3A
2017-11-16 17:36:58 1510871818.418247: $GPZDA,223657.00,16,11,2017,00,00*62
2017-11-16 17:36:58 1510871818.418412: $GPGGA,223657,3946.9575,N,08404.9834,W,2,12,0.80,303.34,M,-33.324,M,,*78
2017-11-16 17:36:58 1510871818.418476: $GPRMC,223657,A,3946.9575,N,08404.9834,W,0.0000,0.000,161117,,*31
2017-11-16 17:36:58 1510871818.418533: $GPGSA,A,3,1,10,22,12,14,18,26,11,25,31,32,138,1.6,0.8,1.3*3A
2017-11-16 17:36:59 1510871819.396489: $GPZDA,223658.00,16,11,2017,00,00*6D
2017-11-16 17:36:59 1510871819.396667: $GPGGA,223658,3946.9575,N,08404.9834,W,2,12,0.80,303.34,M,-33.324,M,,*77
2017-11-16 17:36:59 1510871819.396729: $GPRMC,223658,A,3946.9575,N,08404.9834,W,0.0000,0.000,161117,,*3E
2017-11-16 17:36:59 1510871819.396786: $GPGSA,A,3,1,10,22,12,14,18,26,11,25,31,32,138,1.6,0.8,1.3*3A
2017-11-16 17:37:00 1510871820.754755: $GPGSV,3,1,12,01,22,298,34,10,46,148,45,22,21,312,41,12,21,048,49*75
2017-11-16 17:37:00 1510871820.754976: $GPGSV,3,2,12,14,67,333,46,18,16,145,42,26,04,183,24,11,08,280,38*73
2017-11-16 17:37:00 1510871820.755102: $GPGSV,3,3,12,25,40,087,49,31,58,228,48,32,68,033,49,138,38,213,44*43
2017-11-16 17:37:00 1510871820.868058: $GPZDA,223659.00,16,11,2017,00,00*6C
2017-11-16 17:37:00 1510871820.868215: $GPGGA,223659,3946.9575,N,08404.9834,W,2,12,0.80,303.34,M,-33.324,M,,*76
2017-11-16 17:37:00 1510871820.868278: $GPRMC,223659,A,3946.9575,N,08404.9834,W,0.0000,0.000,161117,,*3F
2017-11-16 17:37:00 1510871820.868334: $GPGSA,A,3,1,10,22,12,14,18,26,11,25,31,32,138,1.6,0.8,1.3*3A
2017-11-16 17:37:01 1510871821.493578: $GPZDA,223700.00,16,11,2017,00,00*61
2017-11-16 17:37:01 1510871821.493779: $GPGGA,223700,3946.9575,N,08404.9834,W,2,12,0.80,303.34,M,-33.324,M,,*7B
2017-11-16 17:37:01 1510871821.493857: $GPRMC,223700,A,3946.9575,N,08404.9834,W,0.0000,0.000,161117,,*32
2017-11-16 17:37:01 1510871821.493925: $GPGSA,A,3,1,10,22,12,14,18,26,11,25,31,32,138,1.6,0.8,1.3*3A
2017-11-16 17:37:02 1510871822.395531: $GPZDA,223701.00,16,11,2017,00,00*60
2017-11-16 17:37:02 1510871822.395694: $GPGGA,223701,3946.9575,N,08404.9834,W,2,12,0.80,303.34,M,-33.324,M,,*7A
2017-11-16 17:37:02 1510871822.395756: $GPRMC,223701,A,3946.9575,N,08404.9834,W,0.0000,0.000,161117,,*33
2017-11-16 17:37:02 1510871822.395812: $GPGSA,A,3,1,10,22,12,14,18,26,11,25,31,32,138,1.6,0.8,1.3*3A
