2017-11-16 17:20:47 1510870847.592731: {"class":"VERSION","release":"3.17","rev":"3.17","proto_major":3,"proto_minor":12}
2017-11-16 17:20:47 1510870847.593194: {"class":"DEVICES","devices":[{"class":"DEVICE","path":"/dev/ttyUSB0","driver":"SiRF","subtype":"9\u0006GSD4e_4.1.2-P1_RPATCH.05-F-GPS-4R-1510281 11/03/2015 307","activated":"2017-11-16T22:20:47.561Z","flags":1,"native":1,"bps":4800,"parity":"N","stopbits":1,"cycle":1.00}]}
2017-11-16 17:20:47 1510870847.593313: {"class":"WATCH","enable":true,"json":false,"nmea":true,"raw":0,"scaled":false,"timing":false,"split24":false,"pps":false}
2017-11-16 17:20:48 1510870848.756783: $GPGSV,3,1,12,01,20,306,39,10,54,145,48,22,14,312,42,12,24,055,50*7B
2017-11-16 17:20:48 1510870848.756967: $GPGSV,3,2,12,14,63,316,46,18,24,142,41,24,02,048,14,11,10,288,42*78
2017-11-16 17:20:48 1510870848.757027: $GPGSV,3,3,12,25,38,097,48,31,49,220,49,32,70,010,48,138,38,213,44*4C
2017-11-16 17:20:48 1510870848.870498: $GPZDA,222047.00,16,11,2017,00,00*64
2017-11-16 17:20:48 1510870848.870651: $GPGGA,222047,3946.9570,N,08404.9831,W,2,12,0.80,309.16,M,-33.324,M,,*74
2017-11-16 17:20:48 1510870848.870735: $GPRMC,222047,A,3946.9570,N,08404.9831,W,0.0000,0.000,161117,,*37
2017-11-16 17:20:48 1510870848.870792: $GPGSA,A,3,1,10,22,12,14,18,24,11,25,31,32,138,1.6,0.8,1.3*38
2017-11-16 17:20:49 1510870849.402270: $GPZDA,222048.00,16,11,2017,00,00*6B
2017-11-16 17:20:49 1510870849.402469: $GPGGA,222048,3946.9570,N,08404.9831,W,2,12,0.80,309.16,M,-33.324,M,,*7B
2017-11-16 17:20:49 1510870849.402532: $GPRMC,222048,A,3946.9570,N,08404.9831,W,0.0000,0.000,161117,,*38
2017-11-16 17:20:49 1510870849.402589: $GPGSA,A,3,1,10,22,12,14,18,24,11,25,31,32,138,1.6,0.8,1.3*38
2017-11-16 17:20:50 1510870850.414323: $GPZDA,222049.00,16,11,2017,00,00*6A
2017-11-16 17:20:50 1510870850.414504: $GPGGA,222049,3946.9570,N,08404.9831,W,2,12,0.80,309.16,M,-33.324,M,,*7A
2017-11-16 17:20:50 1510870850.414564: $GPRMC,222049,A,3946.9570,N,08404.9831,W,0.0000,0.000,161117,,*39
2017-11-16 17:20:50 1510870850.414620: $GPGSA,A,3,1,10,22,12,14,18,24,11,25,31,32,138,1.6,0.8,1.3*38
2017-11-16 17:20:51 1510870851.730921: $GPGSV,3,1,12,01,20,306,38,10,54,145,49,22,14,312,42,12,24,055,50*7B
2017-11-16 17:20:51 1510870851.731113: $GPGSV,3,2,12,14,63,316,47,18,24,142,40,24,02,048,15,11,10,288,43*78
2017-11-16 17:20:51 1510870851.731198: $GPGSV,3,3,12,25,38,097,48,31,49,220,49,32,70,010,48,138,38,213,44*4C
2017-11-16 17:20:51 1510870851.844237: $GPZDA,222050.00,16,11,2017,00,00*62
2017-11-16 17:20:51 1510870851.844408: $GPGGA,222050,3946.9570,N,08404.9831,W,2,12,0.80,309.16,M,-33.324,M,,*72
2017-11-16 17:20:51 1510870851.844475: $GPRMC,222050,A,3946.9570,N,08404.9831,W,0.0000,0.000,161117,,*31
2017-11-16 17:20:51 1510870851.844535: $GPGSA,A,3,1,10,22,12,14,18,24,11,25,31,32,138,1.6,0.8,1.3*38
2017-11-16 17:20:52 1510870852.415444: $GPZDA,222051.00,16,11,2017,00,00*63
2017-11-16 17:20:52 1510870852.415608: $GPGGA,222051,3946.9570,N,08404.9831,W,2,12,0.80,309.16,M,-33.324,M,,*73
2017-11-16 17:20:52 1510870852.415672: $GPRMC,222051,A,3946.9570,N,08404.9831,W,0.0000,0.000,161117,,*30
2017-11-16 17:20:52 1510870852.415755: $GPGSA,A,3,1,10,22,12,14,18,24,11,25,31,32,138,1.6,0.8,1.3*38
2017-11-16 17:20:53 1510870853.401296: $GPZDA,222052.00,16,11,2017,00,00*60
2017-11-16 17:20:53 1510870853.401459: $GPGGA,222052,3946.9570,N,08404.9831,W,2,12,0.80,309.16,M,-33.324,M,,*70
2017-11-16 17:20:53 1510870853.401521: $GPRMC,222052,A,3946.9570,N,08404.9831,W,0.0000,0.000,161117,,*33
2017-11-16 17:20:53 1510870853.401580: $GPGSA,A,3,1,10,22,12,14,18,24,11,25,31,32,138,1.6,0.8,1.3*38
2017-11-16 17:20:54 1510870854.738020: $GPGSV,3,1,12,01,20,306,38,10,54,145,49,22,14,312,42,12,24,055,50*7B
2017-11-16 17:20:54 1510870854.738167: $GPGSV,3,2,12,14,63,316,47,18,24,142,40,24,02,048,14,11,10,288,43*79
2017-11-16 17:20:54 1510870854.738229: $GPGSV,3,3,12,25,38,097,48,31,49,220,48,32,70,010,48,138,38,213,44*4D
2017-11-16 17:20:54 1510870854.851301: $GPZDA,222053.00,16,11,2017,00,00*61
2017-11-16 17:20:54 1510870854.851529: $GPGGA,222053,3946.9570,N,08404.9831,W,2,12,0.80,309.16,M,-33.324,M,,*71
2017-11-16 17:20:54 1510870854.851649: $GPRMC,222053,A,3946.9570,N,08404.9831,W,0.0000,0.000,161117,,*32
2017-11-16 17:20:54 1510870854.851727: $GPGSA,A,3,1,10,22,12,14,18,24,11,25,31,32,138,1.6,0.8,1.3*38
2017-11-16 17:20:55 1510870855.401231: $GPZDA,222054.00,16,11,2017,00,00*66
2017-11-16 17:20:55 1510870855.401389: $GPGGA,222054,3946.9570,N,08404.9831,W,2,12,0.80,309.16,M,-33.324,M,,*76
2017-11-16 17:20:55 1510870855.401449: $GPRMC,222054,A,3946.9570,N,08404.9831,W,0.0000,0.000,161117,,*35
2017-11-16 17:20:55 1510870855.401505: $GPGSA,A,3,1,10,22,12,14,18,24,11,25,31,32,138,1.6,0.8,1.3*38
2017-11-16 17:20:56 1510870856.421412: $GPZDA,222055.00,16,11,2017,00,00*67
2017-11-16 17:20:56 1510870856.421578: $GPGGA,222055,3946.9570,N,08404.9831,W,2,12,0.80,309.16,M,-33.324,M,,*77
2017-11-16 17:20:56 1510870856.421641: $GPRMC,222055,A,3946.9570,N,08404.9831,W,0.0000,0.000,161117,,*34
2017-11-16 17:20:56 1510870856.421726: $GPGSA,A,3,1,10,22,12,14,18,24,11,25,31,32,138,1.6,0.8,1.3*38
