2017-12-31 16:48:58 1514756938.900741: {"class":"VERSION","release":"3.16","rev":"3.16-4","proto_major":3,"proto_minor":11}
2017-12-31 16:48:58 1514756938.901068: {"class":"DEVICES","devices":[{"class":"DEVICE","path":"/dev/ttyUSB0","driver":"SiRF","activated":"2017-12-31T21:48:58.486Z","flags":1,"native":1,"bps":4800,"parity":"N","stopbits":1,"cycle":1.00}]}
2017-12-31 16:48:58 1514756938.901169: {"class":"WATCH","enable":true,"json":false,"nmea":true,"raw":0,"scaled":false,"timing":false,"split24":false,"pps":false}
2017-12-31 16:48:59 1514756939.344660: $GPZDA,214900.00,31,12,2017,00,00*6D
2017-12-31 16:48:59 1514756939.344818: $GPGGA,214900,3946.9576,N,08404.9848,W,2,11,0.80,303.18,M,-33.324,M,,*74
2017-12-31 16:48:59 1514756939.344886: $GPRMC,214900,A,3946.9576,N,08404.9848,W,0.0000,0.000,311217,,*36
2017-12-31 16:48:59 1514756939.344946: $GPGSA,A,3,22,23,25,3,16,29,31,14,32,26,135,,1.7,0.8,1.3*32
2017-12-31 16:49:00 1514756940.683314: $GPGSV,3,1,11,22,48,250,45,23,21,306,40,25,08,037,03,03,45,282,31*72
2017-12-31 16:49:00 1514756940.683497: $GPGSV,3,2,11,16,38,189,48,29,14,061,23,31,56,043,51,14,46,106,46*70
2017-12-31 16:49:00 1514756940.683566: $GPGSV,3,3,11,32,25,117,43,26,68,159,42,135,22,240,43*78
2017-12-31 16:49:00 1514756940.796692: $GPZDA,214901.00,31,12,2017,00,00*6C
2017-12-31 16:49:00 1514756940.796838: $GPGGA,214901,3946.9576,N,08404.9848,W,2,10,1.00,303.18,M,-33.324,M,,*7D
2017-12-31 16:49:00 1514756940.796904: $GPRMC,214901,A,3946.9576,N,08404.9848,W,0.0000,0.000,311217,,*37
2017-12-31 16:49:00 1514756940.796965: $GPGSA,A,3,22,23,3,16,29,31,14,32,26,135,,,1.7,1.0,1.3*3C
2017-12-31 16:49:01 1514756941.362952: $GPZDA,214902.00,31,12,2017,00,00*6F
2017-12-31 16:49:01 1514756941.363121: $GPGGA,214902,3946.9576,N,08404.9848,W,2,10,0.80,303.18,M,-33.324,M,,*77
2017-12-31 16:49:01 1514756941.363188: $GPRMC,214902,A,3946.9576,N,08404.9848,W,0.0000,0.000,311217,,*34
2017-12-31 16:49:01 1514756941.363250: $GPGSA,A,3,22,23,3,16,29,31,14,32,26,135,,,1.7,0.8,1.3*35
2017-12-31 16:49:02 1514756942.345039: $GPZDA,214903.00,31,12,2017,00,00*6E
2017-12-31 16:49:02 1514756942.345208: $GPGGA,214903,3946.9576,N,08404.9848,W,2,10,0.80,303.18,M,-33.324,M,,*76
2017-12-31 16:49:02 1514756942.345276: $GPRMC,214903,A,3946.9576,N,08404.9848,W,0.0000,0.000,311217,,*35
2017-12-31 16:49:02 1514756942.345337: $GPGSA,A,3,22,23,3,16,29,31,14,32,26,135,,,1.7,0.8,1.3*35
2017-12-31 16:49:03 1514756943.680463: $GPGSV,3,1,11,22,48,250,44,23,21,306,39,25,08,037,25,03,45,282,18*72
2017-12-31 16:49:03 1514756943.680620: $GPGSV,3,2,11,16,38,189,48,29,14,061,23,31,56,043,51,14,46,106,46*70
2017-12-31 16:49:03 1514756943.680687: $GPGSV,3,3,11,32,25,117,43,26,68,159,42,135,22,240,43*78
2017-12-31 16:49:03 1514756943.794070: $GPZDA,214904.00,31,12,2017,00,00*69
2017-12-31 16:49:03 1514756943.794206: $GPGGA,214904,3946.9576,N,08404.9848,W,2,10,1.00,303.18,M,-33.324,M,,*78
2017-12-31 16:49:03 1514756943.794271: $GPRMC,214904,A,3946.9576,N,08404.9848,W,0.0000,0.000,311217,,*32
2017-12-31 16:49:03 1514756943.794333: $GPGSA,A,3,22,23,25,16,29,31,14,32,26,135,,,1.7,1.0,1.3*08
2017-12-31 16:49:04 1514756944.345022: $GPZDA,214905.00,31,12,2017,00,00*68
2017-12-31 16:49:04 1514756944.345190: $GPGGA,214905,3946.9576,N,08404.9848,W,2,10,0.80,303.18,M,-33.324,M,,*70
2017-12-31 16:49:04 1514756944.345257: $GPRMC,214905,A,3946.9576,N,08404.9848,W,0.0000,0.000,311217,,*33
2017-12-31 16:49:04 1514756944.345318: $GPGSA,A,3,22,23,25,16,29,31,14,32,26,135,,,1.7,0.8,1.3*01
2017-12-31 16:49:05 1514756945.345372: $GPZDA,214906.00,31,12,2017,00,00*6B
2017-12-31 16:49:05 1514756945.345540: $GPGGA,214906,3946.9576,N,08404.9848,W,2,10,0.80,303.18,M,-33.324,M,,*73
2017-12-31 16:49:05 1514756945.345609: $GPRMC,214906,A,3946.9576,N,08404.9848,W,0.0000,0.000,311217,,*30
2017-12-31 16:49:05 1514756945.345669: $GPGSA,A,3,22,23,25,16,29,31,14,32,26,135,,,1.7,0.8,1.3*01
2017-12-31 16:49:06 1514756946.697079: $GPGSV,3,1,11,22,48,250,44,23,21,306,38,25,08,037,25,03,45,282,28*70
2017-12-31 16:49:06 1514756946.697296: $GPGSV,3,2,11,16,38,189,48,29,14,061,23,31,56,043,51,14,46,106,46*70
2017-12-31 16:49:06 1514756946.697423: $GPGSV,3,3,11,32,25,117,44,26,68,159,42,135,22,240,43*7F
2017-12-31 16:49:06 1514756946.810706: $GPZDA,214907.00,31,12,2017,00,00*6A
2017-12-31 16:49:06 1514756946.810849: $GPGGA,214907,3946.9576,N,08404.9848,W,2,11,0.80,303.18,M,-33.324,M,,*73
2017-12-31 16:49:06 1514756946.810915: $GPRMC,214907,A,3946.9576,N,08404.9848,W,0.0000,0.000,311217,,*31
2017-12-31 16:49:06 1514756946.810976: $GPGSA,A,3,22,23,25,3,16,29,31,14,32,26,135,,1.7,0.8,1.3*32
2017-12-31 16:49:07 1514756947.345388: $GPZDA,214908.00,31,12,2017,00,00*65
2017-12-31 16:49:07 1514756947.345559: $GPGGA,214908,3946.9576,N,08404.9848,W,2,11,0.80,303.18,M,-33.324,M,,*7C
2017-12-31 16:49:07 1514756947.345625: $GPRMC,214908,A,3946.9576,N,08404.9848,W,0.0000,0.000,311217,,*3E
2017-12-31 16:49:07 1514756947.345687: $GPGSA,A,3,22,23,25,3,16,29,31,14,32,26,135,,1.7,0.8,1.3*32
2017-12-31 16:49:08 1514756948.353693: $GPZDA,214909.00,31,12,2017,00,00*64
2017-12-31 16:49:08 1514756948.353857: $GPGGA,214909,3946.9576,N,08404.9848,W,2,11,0.80,303.18,M,-33.324,M,,*7D
2017-12-31 16:49:08 1514756948.353924: $GPRMC,214909,A,3946.9576,N,08404.9848,W,0.0000,0.000,311217,,*3F
2017-12-31 16:49:08 1514756948.353986: $GPGSA,A,3,22,23,25,3,16,29,31,14,32,26,135,,1.7,0.8,1.3*32
