2017-11-15 18:45:22 1510789522.602923: {"class":"VERSION","release":"3.17","rev":"3.17","proto_major":3,"proto_minor":12}
2017-11-15 18:45:22 1510789522.603502: {"class":"DEVICES","devices":[{"class":"DEVICE","path":"/dev/ttyUSB0","driver":"SiRF","subtype":"9\u0006GSD4e_4.1.2-P1_RPATCH.05-F-GPS-4R-1510281 11/03/2015 307","activated":"2017-11-15T23:45:22.512Z","flags":1,"native":1,"bps":4800,"parity":"N","stopbits":1,"cycle":1.00}]}
2017-11-15 18:45:22 1510789522.603618: {"class":"WATCH","enable":true,"json":false,"nmea":true,"raw":0,"scaled":false,"timing":false,"split24":false,"pps":false}
2017-11-15 18:45:23 1510789523.366874: $GPZDA,234522.00,15,11,2017,00,00*66
2017-11-15 18:45:23 1510789523.367042: $GPGGA,234522,3946.9479,N,08404.9690,W,1,08,1.40,320.06,M,-33.324,M,,*77
2017-11-15 18:45:23 1510789523.367104: $GPRMC,234522,A,3946.9479,N,08404.9690,W,0.3423,4.197,151117,,*35
2017-11-15 18:45:23 1510789523.367160: $GPGSA,A,3,25,14,3,32,31,10,22,29,,,,,3.4,1.4,2.9*03
2017-11-15 18:45:24 1510789524.664746: $GPGSV,3,1,12,25,33,052,16,14,67,052,24,03,24,313,13,32,52,085,15*73
2017-11-15 18:45:24 1510789524.664917: $GPGSV,3,2,12,31,79,306,26,12,03,030,15,26,30,177,00,10,17,157,13*71
2017-11-15 18:45:24 1510789524.664977: $GPGSV,3,3,12,01,17,270,00,22,42,298,24,29,02,090,11,138,38,213,00*4A
2017-11-15 18:45:24 1510789524.778373: $GPZDA,234523.00,15,11,2017,00,00*67
2017-11-15 18:45:24 1510789524.778532: $GPGGA,234523,3946.9476,N,08404.9691,W,1,08,1.40,320.82,M,-33.324,M,,*74
2017-11-15 18:45:24 1510789524.778596: $GPRMC,234523,A,3946.9476,N,08404.9691,W,0.1567,9.201,151117,,*38
2017-11-15 18:45:24 1510789524.778652: $GPGSA,A,3,25,14,3,32,31,10,22,29,,,,,3.4,1.4,2.9*03
2017-11-15 18:45:25 1510789525.330469: $GPZDA,234524.00,15,11,2017,00,00*60
2017-11-15 18:45:25 1510789525.330631: $GPGGA,234524,3946.9476,N,08404.9691,W,1,08,1.40,320.82,M,-33.324,M,,*73
2017-11-15 18:45:25 1510789525.330694: $GPRMC,234524,A,3946.9476,N,08404.9691,W,0.2758,308.233,151117,,*31
2017-11-15 18:45:25 1510789525.330750: $GPGSA,A,3,25,14,3,32,31,10,22,29,,,,,3.4,1.4,2.9*03
2017-11-15 18:45:26 1510789526.329582: $GPZDA,234525.00,15,11,2017,00,00*61
2017-11-15 18:45:26 1510789526.329740: $GPGGA,234525,3946.9476,N,08404.9691,W,1,08,1.40,320.82,M,-33.324,M,,*72
2017-11-15 18:45:26 1510789526.329801: $GPRMC,234525,A,3946.9476,N,08404.9691,W,0.5912,309.172,151117,,*30
2017-11-15 18:45:26 1510789526.329857: $GPGSA,A,3,25,14,3,32,31,10,22,29,,,,,3.4,1.4,2.9*03
2017-11-15 18:45:27 1510789527.665018: $GPGSV,3,1,12,25,33,052,16,14,67,052,23,03,24,313,14,32,52,085,15*73
2017-11-15 18:45:27 1510789527.665188: $GPGSV,3,2,12,31,79,306,26,12,03,030,13,26,30,177,00,10,17,157,13*77
2017-11-15 18:45:27 1510789527.665248: $GPGSV,3,3,12,01,17,270,00,22,42,298,24,29,02,090,12,138,38,213,00*49
2017-11-15 18:45:27 1510789527.778320: $GPZDA,234526.00,15,11,2017,00,00*62
2017-11-15 18:45:27 1510789527.778484: $GPGGA,234526,3946.9476,N,08404.9698,W,1,08,1.40,320.74,M,-33.324,M,,*71
2017-11-15 18:45:27 1510789527.778547: $GPRMC,234526,A,3946.9476,N,08404.9698,W,0.8011,299.090,151117,,*38
2017-11-15 18:45:27 1510789527.778607: $GPGSA,A,3,25,14,3,32,31,10,22,29,,,,,3.4,1.4,2.9*03
2017-11-15 18:45:28 1510789528.330448: $GPZDA,234527.00,15,11,2017,00,00*63
2017-11-15 18:45:28 1510789528.330604: $GPGGA,234527,3946.9476,N,08404.9698,W,1,08,1.40,320.74,M,-33.324,M,,*70
2017-11-15 18:45:28 1510789528.330670: $GPRMC,234527,A,3946.9476,N,08404.9698,W,0.7267,273.794,151117,,*32
2017-11-15 18:45:28 1510789528.330729: $GPGSA,A,3,25,14,3,32,31,10,22,29,,,,,3.4,1.4,2.9*03
2017-11-15 18:45:29 1510789529.329100: $GPZDA,234528.00,15,11,2017,00,00*6C
2017-11-15 18:45:29 1510789529.329262: $GPGGA,234528,3946.9476,N,08404.9698,W,1,08,1.40,320.74,M,-33.324,M,,*7F
2017-11-15 18:45:29 1510789529.329323: $GPRMC,234528,A,3946.9476,N,08404.9698,W,0.7267,273.794,151117,,*3D
2017-11-15 18:45:29 1510789529.329379: $GPGSA,A,3,25,14,3,32,31,10,22,29,,,,,3.4,1.4,2.9*03
2017-11-15 18:45:30 1510789530.702239: $GPGSV,3,1,12,25,33,052,00,14,67,052,23,03,24,313,14,32,52,085,15*74
2017-11-15 18:45:30 1510789530.702484: $GPGSV,3,2,12,31,79,306,26,26,30,177,00,01,17,270,00,10,17,157,14*73
2017-11-15 18:45:30 1510789530.702547: $GPGSV,3,3,12,12,03,030,00,22,42,298,24,29,02,090,12,138,38,213,00*48
2017-11-15 18:45:30 1510789530.815666: $GPZDA,234529.00,15,11,2017,00,00*6D
2017-11-15 18:45:30 1510789530.815796: $GPGGA,234529,3946.9476,N,08404.9698,W,1,07,2.80,320.74,M,-33.324,M,,*7E
2017-11-15 18:45:30 1510789530.815855: $GPRMC,234529,A,3946.9476,N,08404.9698,W,0.8054,248.645,151117,,*34
2017-11-15 18:45:30 1510789530.815911: $GPGSA,A,3,14,3,32,31,10,22,29,,,,,,3.4,2.8,2.9*0B
2017-11-15 18:45:31 1510789531.441075: $GPZDA,234530.00,15,11,2017,00,00*65
2017-11-15 18:45:31 1510789531.441228: $GPGGA,234530,3946.9473,N,08404.9699,W,1,07,2.80,321.51,M,-33.324,M,,*74
2017-11-15 18:45:31 1510789531.441289: $GPRMC,234530,A,3946.9473,N,08404.9699,W,0.8414,219.347,151117,,*3B
2017-11-15 18:45:31 1510789531.441345: $GPGSA,A,3,14,3,32,31,10,22,29,,,,,,3.4,2.8,2.9*0B
2017-11-15 18:45:32 1510789532.365692: $GPZDA,234531.00,15,11,2017,00,00*64
2017-11-15 18:45:32 1510789532.365853: $GPGGA,234531,3946.9473,N,08404.9699,W,1,07,2.80,321.51,M,-33.324,M,,*75
2017-11-15 18:45:32 1510789532.365934: $GPRMC,234531,A,3946.9473,N,08404.9699,W,0.5287,182.716,151117,,*3A
2017-11-15 18:45:32 1510789532.365993: $GPGSA,A,3,14,3,32,31,10,22,29,,,,,,3.4,2.8,2.9*0B
2017-11-15 18:45:33 1510789533.702558: $GPGSV,3,1,12,12,03,030,15,14,67,052,22,03,24,313,14,32,52,085,15*72
2017-11-15 18:45:33 1510789533.702734: $GPGSV,3,2,12,31,79,306,26,25,33,052,00,26,30,177,00,10,17,157,12*77
2017-11-15 18:45:33 1510789533.702795: $GPGSV,3,3,12,01,17,270,00,22,42,298,23,29,02,090,12,138,38,213,00*4E
2017-11-15 18:45:33 1510789533.814811: $GPZDA,234532.00,15,11,2017,00,00*67
2017-11-15 18:45:33 1510789533.814965: $GPGGA,234532,3946.9468,N,08404.9699,W,1,07,2.80,320.87,M,-33.324,M,,*76
2017-11-15 18:45:33 1510789533.815027: $GPRMC,234532,A,3946.9468,N,08404.9699,W,0.8709,183.298,151117,,*3F
2017-11-15 18:45:33 1510789533.815083: $GPGSA,A,3,14,3,32,31,10,22,29,,,,,,3.4,2.8,2.9*0B
2017-11-15 18:45:34 1510789534.438951: $GPZDA,234533.00,15,11,2017,00,00*66
2017-11-15 18:45:34 1510789534.439115: $GPGGA,234533,3946.9465,N,08404.9699,W,1,07,2.80,321.63,M,-33.324,M,,*71
2017-11-15 18:45:34 1510789534.439177: $GPRMC,234533,A,3946.9465,N,08404.9699,W,1.3044,205.352,151117,,*3D
2017-11-15 18:45:34 1510789534.439233: $GPGSA,A,3,14,3,32,31,10,22,29,,,,,,3.4,2.8,2.9*0B
2017-11-15 18:45:34 1510789534.439286: $GPGBS,234533,13.59,M,20.35,M,67.34,M*02
2017-11-15 18:45:35 1510789535.374537: $GPZDA,234534.00,15,11,2017,00,00*61
2017-11-15 18:45:35 1510789535.374706: $GPGGA,234534,3946.9458,N,08404.9707,W,1,07,3.60,321.68,M,-33.324,M,,*7A
2017-11-15 18:45:35 1510789535.374769: $GPRMC,234534,A,3946.9458,N,08404.9707,W,1.2621,219.347,151117,,*3F
2017-11-15 18:45:35 1510789535.374825: $GPGSA,A,3,14,3,32,31,10,22,29,,,,,,3.4,3.6,2.9*04
2017-11-15 18:45:35 1510789535.374877: $GPGBS,234534,13.59,M,20.35,M,67.34,M*05
2017-11-15 18:45:36 1510789536.707228: $GPGSV,3,1,12,12,02,030,14,14,67,055,22,03,26,313,14,32,51,087,09*7B
2017-11-15 18:45:36 1510789536.707397: $GPGSV,3,2,12,31,79,315,26,26,32,177,16,25,32,051,00,10,16,157,09*79
2017-11-15 18:45:36 1510789536.707457: $GPGSV,3,3,12,01,16,268,00,22,43,297,23,29,02,088,11,138,38,213,00*42
2017-11-15 18:45:36 1510789536.820777: $GPZDA,234535.00,15,11,2017,00,00*60
2017-11-15 18:45:36 1510789536.820949: $GPGGA,234535,3946.9458,N,08404.9707,W,1,08,2.80,321.68,M,-33.324,M,,*7B
2017-11-15 18:45:36 1510789536.821013: $GPRMC,234535,A,3946.9458,N,08404.9707,W,1.7106,228.623,151117,,*3C
2017-11-15 18:45:36 1510789536.821069: $GPGSA,A,3,12,14,3,32,31,10,22,29,,,,,3.4,2.8,2.9*08
2017-11-15 18:45:37 1510789537.366925: $GPZDA,234536.00,15,11,2017,00,00*63
2017-11-15 18:45:37 1510789537.367090: $GPGGA,234536,3946.9450,N,08404.9715,W,1,08,3.60,321.72,M,-33.324,M,,*77
2017-11-15 18:45:37 1510789537.367152: $GPRMC,234536,A,3946.9450,N,08404.9715,W,1.4115,214.535,151117,,*3E
2017-11-15 18:45:37 1510789537.367207: $GPGSA,A,3,12,14,3,32,31,10,22,29,,,,,3.4,3.6,2.9*07
2017-11-15 18:45:38 1510789538.376235: $GPZDA,234537.00,15,11,2017,00,00*62
2017-11-15 18:45:38 1510789538.376402: $GPGGA,234537,3946.9447,N,08404.9715,W,1,08,2.40,322.49,M,-33.324,M,,*78
2017-11-15 18:45:38 1510789538.376484: $GPRMC,234537,A,3946.9447,N,08404.9715,W,1.8343,225.514,151117,,*35
2017-11-15 18:45:38 1510789538.376546: $GPGSA,A,3,12,14,3,32,31,10,22,29,,,,,3.4,2.4,2.9*04
2017-11-15 18:45:39 1510789539.708202: $GPGSV,3,1,12,16,03,190,08,14,67,055,22,03,26,313,13,32,51,087,15*72
2017-11-15 18:45:39 1510789539.708375: $GPGSV,3,2,12,31,79,315,26,26,32,177,16,25,32,051,00,10,16,157,10*71
2017-11-15 18:45:39 1510789539.708436: $GPGSV,3,3,12,01,16,268,00,22,43,297,23,29,02,088,13,138,38,213,00*40
2017-11-15 18:45:39 1510789539.821689: $GPZDA,234538.00,15,11,2017,00,00*6D
2017-11-15 18:45:39 1510789539.821854: $GPGGA,234538,3946.9443,N,08404.9722,W,1,07,2.40,321.77,M,-33.324,M,,*76
2017-11-15 18:45:39 1510789539.821914: $GPRMC,234538,A,3946.9443,N,08404.9722,W,1.6958,244.082,151117,,*39
2017-11-15 18:45:39 1510789539.821970: $GPGSA,A,3,14,32,31,26,10,22,29,,,,,,3.4,2.4,2.9*30
2017-11-15 18:45:40 1510789540.371519: $GPZDA,234539.00,15,11,2017,00,00*6C
2017-11-15 18:45:40 1510789540.371685: $GPGGA,234539,3946.9440,N,08404.9730,W,1,07,2.40,322.45,M,-33.324,M,,*75
2017-11-15 18:45:40 1510789540.371747: $GPRMC,234539,A,3946.9440,N,08404.9730,W,1.9884,242.702,151117,,*3E
2017-11-15 18:45:40 1510789540.371804: $GPGSA,A,3,14,32,31,26,10,22,29,,,,,,3.4,2.4,2.9*30
2017-11-15 18:45:41 1510789541.330391: $GPZDA,234540.00,15,11,2017,00,00*62
2017-11-15 18:45:41 1510789541.330548: $GPGGA,234540,3946.9436,N,08404.9737,W,1,07,3.00,321.73,M,-33.324,M,,*7E
2017-11-15 18:45:41 1510789541.330614: $GPRMC,234540,A,3946.9436,N,08404.9737,W,1.9100,247.685,151117,,*38
2017-11-15 18:45:41 1510789541.330671: $GPGSA,A,3,14,32,31,26,10,22,29,,,,,,3.4,3.0,2.9*35
2017-11-15 18:45:42 1510789542.666151: $GPGSV,3,1,12,16,03,190,04,14,67,055,21,03,26,313,07,32,51,087,16*7B
2017-11-15 18:45:42 1510789542.666332: $GPGSV,3,2,12,31,79,315,26,26,32,177,16,25,32,051,05,10,16,157,13*77
2017-11-15 18:45:42 1510789542.666392: $GPGSV,3,3,12,01,16,268,00,22,43,297,23,29,02,088,14,138,38,213,00*47
2017-11-15 18:45:42 1510789542.779826: $GPZDA,234541.00,15,11,2017,00,00*63
2017-11-15 18:45:42 1510789542.779971: $GPGGA,234541,3946.9433,N,08404.9738,W,1,08,3.00,322.50,M,-33.324,M,,*78
2017-11-15 18:45:42 1510789542.780031: $GPRMC,234541,A,3946.9433,N,08404.9738,W,1.4903,239.461,151117,,*34
2017-11-15 18:45:42 1510789542.780086: $GPGSA,A,3,14,3,32,31,26,10,22,29,,,,,3.4,3.0,2.9*06
2017-11-15 18:45:43 1510789543.330282: $GPZDA,234542.00,15,11,2017,00,00*60
2017-11-15 18:45:43 1510789543.330452: $GPGGA,234542,3946.9433,N,08404.9738,W,1,08,3.00,322.50,M,-33.324,M,,*7B
2017-11-15 18:45:43 1510789543.330538: $GPRMC,234542,A,3946.9433,N,08404.9738,W,1.0018,230.691,151117,,*34
2017-11-15 18:45:43 1510789543.330595: $GPGSA,A,3,14,3,32,31,26,10,22,29,,,,,3.4,3.0,2.9*06
2017-11-15 18:45:44 1510789544.372968: $GPZDA,234543.00,15,11,2017,00,00*61
2017-11-15 18:45:44 1510789544.373131: $GPGGA,234543,3946.9433,N,08404.9738,W,1,08,2.00,322.50,M,-33.324,M,,*7B
2017-11-15 18:45:44 1510789544.373191: $GPRMC,234543,A,3946.9433,N,08404.9738,W,0.4207,219.347,151117,,*39
2017-11-15 18:45:44 1510789544.373247: $GPGSA,A,3,14,3,32,31,26,10,22,29,,,,,3.4,2.0,2.9*07
2017-11-15 18:45:45 1510789545.709418: $GPGSV,3,1,12,16,03,190,04,14,67,055,20,03,26,313,06,32,51,087,16*7B
2017-11-15 18:45:45 1510789545.709625: $GPGSV,3,2,12,31,79,315,26,26,32,177,17,25,32,051,15,10,16,157,14*70
2017-11-15 18:45:45 1510789545.709687: $GPGSV,3,3,12,01,16,268,00,22,43,297,23,29,02,088,13,138,38,213,00*40
2017-11-15 18:45:45 1510789545.822800: $GPZDA,234544.00,15,11,2017,00,00*66
2017-11-15 18:45:45 1510789545.822964: $GPGGA,234544,3946.9430,N,08404.9745,W,1,08,1.20,323.18,M,-33.324,M,,*79
2017-11-15 18:45:45 1510789545.823024: $GPRMC,234544,A,3946.9430,N,08404.9745,W,0.7576,261.914,151117,,*36
2017-11-15 18:45:45 1510789545.823080: $GPGSA,A,3,14,32,31,26,25,10,22,29,,,,,3.4,1.2,2.9*32
2017-11-15 18:45:46 1510789546.448455: $GPZDA,234545.00,15,11,2017,00,00*67
2017-11-15 18:45:46 1510789546.448628: $GPGGA,234545,3946.9430,N,08404.9745,W,1,08,1.20,323.18,M,-33.324,M,,*78
2017-11-15 18:45:46 1510789546.448691: $GPRMC,234545,A,3946.9430,N,08404.9745,W,1.0298,254.381,151117,,*36
2017-11-15 18:45:46 1510789546.448746: $GPGSA,A,3,14,32,31,26,25,10,22,29,,,,,3.4,1.2,2.9*32
2017-11-15 18:45:47 1510789547.372756: $GPZDA,234546.00,15,11,2017,00,00*64
2017-11-15 18:45:47 1510789547.372918: $GPGGA,234546,3946.9430,N,08404.9745,W,1,08,1.20,323.18,M,-33.324,M,,*7B
2017-11-15 18:45:47 1510789547.372996: $GPRMC,234546,A,3946.9430,N,08404.9745,W,0.9988,284.546,151117,,*37
2017-11-15 18:45:47 1510789547.373053: $GPGSA,A,3,14,32,31,26,25,10,22,29,,,,,3.4,1.2,2.9*32
2017-11-15 18:45:48 1510789548.667301: $GPGSV,3,1,12,16,03,190,04,14,67,055,20,03,26,313,09,32,51,087,17*75
2017-11-15 18:45:48 1510789548.667469: $GPGSV,3,2,12,31,79,315,26,26,32,177,18,25,32,051,16,10,16,157,14*7C
2017-11-15 18:45:48 1510789548.667529: $GPGSV,3,3,12,01,16,268,00,22,43,297,23,29,02,088,12,135,23,238,00*4F
2017-11-15 18:45:48 1510789548.779760: $GPZDA,234547.00,15,11,2017,00,00*65
2017-11-15 18:45:48 1510789548.779922: $GPGGA,234547,3946.9434,N,08404.9745,W,1,09,1.20,323.82,M,-33.324,M,,*7C
2017-11-15 18:45:48 1510789548.779982: $GPRMC,234547,A,3946.9434,N,08404.9745,W,0.9689,273.794,151117,,*39
2017-11-15 18:45:48 1510789548.780038: $GPGSA,A,3,14,3,32,31,26,25,10,22,29,,,,3.4,1.2,2.9*01
2017-11-15 18:45:49 1510789549.372753: $GPZDA,234548.00,15,11,2017,00,00*6A
2017-11-15 18:45:49 1510789549.372914: $GPGGA,234548,3946.9434,N,08404.9752,W,1,09,1.20,323.74,M,-33.324,M,,*7C
2017-11-15 18:45:49 1510789549.372974: $GPRMC,234548,A,3946.9434,N,08404.9752,W,0.8054,248.645,151117,,*32
2017-11-15 18:45:49 1510789549.373030: $GPGSA,A,3,14,3,32,31,26,25,10,22,29,,,,3.4,1.2,2.9*01
2017-11-15 18:45:50 1510789550.329931: $GPZDA,234549.00,15,11,2017,00,00*6B
2017-11-15 18:45:50 1510789550.330092: $GPGGA,234549,3946.9430,N,08404.9752,W,1,09,1.20,323.10,M,-33.324,M,,*7B
2017-11-15 18:45:50 1510789550.330153: $GPRMC,234549,A,3946.9430,N,08404.9752,W,1.5933,233.668,151117,,*30
2017-11-15 18:45:50 1510789550.330208: $GPGSA,A,3,14,3,32,31,26,25,10,22,29,,,,3.4,1.2,2.9*01
2017-11-15 18:45:51 1510789551.666445: $GPGSV,3,1,12,16,03,190,04,14,67,055,19,03,26,313,07,32,51,087,16*70
2017-11-15 18:45:51 1510789551.666617: $GPGSV,3,2,12,31,79,315,26,26,32,177,18,25,32,051,16,10,16,157,14*7C
2017-11-15 18:45:51 1510789551.666678: $GPGSV,3,3,12,01,16,268,00,22,43,297,22,29,02,088,12,135,23,238,00*4E
2017-11-15 18:45:51 1510789551.779803: $GPZDA,234550.00,15,11,2017,00,00*63
2017-11-15 18:45:51 1510789551.779975: $GPGGA,234550,3946.9430,N,08404.9752,W,1,09,1.20,323.10,M,-33.324,M,,*73
2017-11-15 18:45:51 1510789551.780036: $GPRMC,234550,A,3946.9430,N,08404.9752,W,1.1902,238.684,151117,,*37
2017-11-15 18:45:51 1510789551.780092: $GPGSA,A,3,14,3,32,31,26,25,10,22,29,,,,3.4,1.2,2.9*01
2017-11-15 18:45:52 1510789552.373489: $GPZDA,234551.00,15,11,2017,00,00*62
2017-11-15 18:45:52 1510789552.373657: $GPGGA,234551,3946.9431,N,08404.9759,W,1,09,1.20,323.02,M,-33.324,M,,*7B
2017-11-15 18:45:52 1510789552.373718: $GPRMC,234551,A,3946.9431,N,08404.9759,W,1.1294,223.341,151117,,*3E
2017-11-15 18:45:52 1510789552.373773: $GPGSA,A,3,14,3,32,31,26,25,10,22,29,,,,3.4,1.2,2.9*01
