2017-12-31 18:45:57 1514763957.225765: {"class":"VERSION","release":"3.16","rev":"3.16-4","proto_major":3,"proto_minor":11}
2017-12-31 18:45:57 1514763957.226114: {"class":"DEVICES","devices":[{"class":"DEVICE","path":"/dev/ttyUSB0","driver":"SiRF","activated":"2017-12-31T23:45:57.176Z","flags":1,"native":1,"bps":4800,"parity":"N","stopbits":1,"cycle":1.00}]}
2017-12-31 18:45:57 1514763957.226216: {"class":"WATCH","enable":true,"json":false,"nmea":true,"raw":0,"scaled":false,"timing":false,"split24":false,"pps":false}
2017-12-31 18:45:57 1514763957.689361: $GPGSV,3,1,12,22,09,205,20,23,67,285,40,09,35,310,40,03,19,222,38*74
2017-12-31 18:45:57 1514763957.695766: $GPGSV,3,2,12,16,79,036,43,08,14,175,32,14,01,139,10,31,17,087,33*7A
2017-12-31 18:45:57 1514763957.695878: $GPGSV,3,3,12,27,38,144,41,07,09,283,44,26,46,048,46,135,22,240,44*4E
2017-12-31 18:45:57 1514763957.803305: $GPZDA,234558.00,31,12,2017,00,00*6E
2017-12-31 18:45:57 1514763957.803441: $GPGGA,234558,3946.9581,N,08404.9856,W,2,11,0.80,305.14,M,-33.324,M,,*7A
2017-12-31 18:45:57 1514763957.803506: $GPRMC,234558,A,3946.9581,N,08404.9856,W,0.0000,0.000,311217,,*32
2017-12-31 18:45:57 1514763957.803567: $GPGSA,A,3,22,23,9,3,16,8,31,27,7,26,135,,1.7,0.8,1.3*09
2017-12-31 18:45:58 1514763958.354028: $GPZDA,234559.00,31,12,2017,00,00*6F
2017-12-31 18:45:58 1514763958.354205: $GPGGA,234559,3946.9581,N,08404.9856,W,2,11,0.80,305.14,M,-33.324,M,,*7B
2017-12-31 18:45:58 1514763958.354272: $GPRMC,234559,A,3946.9581,N,08404.9856,W,0.0000,0.000,311217,,*33
2017-12-31 18:45:58 1514763958.354333: $GPGSA,A,3,22,23,9,3,16,8,31,27,7,26,135,,1.7,0.8,1.3*09
2017-12-31 18:45:59 1514763959.353263: $GPZDA,234600.00,31,12,2017,00,00*60
2017-12-31 18:45:59 1514763959.353418: $GPGGA,234600,3946.9581,N,08404.9856,W,2,11,0.80,305.14,M,-33.324,M,,*74
2017-12-31 18:45:59 1514763959.353485: $GPRMC,234600,A,3946.9581,N,08404.9856,W,0.0000,0.000,311217,,*3C
2017-12-31 18:45:59 1514763959.353546: $GPGSA,A,3,22,23,9,3,16,8,31,27,7,26,135,,1.7,0.8,1.3*09
2017-12-31 18:46:00 1514763960.689700: $GPGSV,3,1,12,22,09,205,20,23,67,285,40,09,35,310,41,03,19,222,38*75
2017-12-31 18:46:00 1514763960.689868: $GPGSV,3,2,12,16,79,036,44,08,14,175,33,14,01,139,13,31,17,087,33*7F
2017-12-31 18:46:00 1514763960.689936: $GPGSV,3,3,12,27,38,144,41,07,09,283,44,26,46,048,45,135,22,240,44*4D
2017-12-31 18:46:00 1514763960.803159: $GPZDA,234601.00,31,12,2017,00,00*61
2017-12-31 18:46:00 1514763960.803298: $GPGGA,234601,3946.9581,N,08404.9856,W,2,12,0.80,305.14,M,-33.324,M,,*76
2017-12-31 18:46:00 1514763960.803365: $GPRMC,234601,A,3946.9581,N,08404.9856,W,0.0000,0.000,311217,,*3D
2017-12-31 18:46:00 1514763960.803426: $GPGSA,A,3,22,23,9,3,16,8,14,31,27,7,26,135,1.7,0.8,1.3*0C
2017-12-31 18:46:01 1514763961.394035: $GPZDA,234602.00,31,12,2017,00,00*62
2017-12-31 18:46:01 1514763961.394235: $GPGGA,234602,3946.9581,N,08404.9856,W,2,12,0.80,305.14,M,-33.324,M,,*75
2017-12-31 18:46:01 1514763961.394304: $GPRMC,234602,A,3946.9581,N,08404.9856,W,0.0000,0.000,311217,,*3E
2017-12-31 18:46:01 1514763961.394364: $GPGSA,A,3,22,23,9,3,16,8,14,31,27,7,26,135,1.7,0.8,1.3*0C
2017-12-31 18:46:02 1514763962.392746: $GPZDA,234603.00,31,12,2017,00,00*63
2017-12-31 18:46:02 1514763962.392916: $GPGGA,234603,3946.9581,N,08404.9856,W,2,12,0.80,305.14,M,-33.324,M,,*74
2017-12-31 18:46:02 1514763962.393004: $GPRMC,234603,A,3946.9581,N,08404.9856,W,0.0000,0.000,311217,,*3F
2017-12-31 18:46:02 1514763962.393067: $GPGSA,A,3,22,23,9,3,16,8,14,31,27,7,26,135,1.7,0.8,1.3*0C
2017-12-31 18:46:03 1514763963.729395: $GPGSV,3,1,12,22,09,205,20,23,67,285,39,09,35,310,41,03,19,222,38*7B
2017-12-31 18:46:03 1514763963.729610: $GPGSV,3,2,12,16,79,036,43,08,14,175,34,14,01,139,13,31,17,087,32*7E
2017-12-31 18:46:03 1514763963.729678: $GPGSV,3,3,12,27,38,144,42,07,09,283,44,26,46,048,46,135,22,240,44*4D
2017-12-31 18:46:03 1514763963.841464: $GPZDA,234604.00,31,12,2017,00,00*64
2017-12-31 18:46:03 1514763963.841613: $GPGGA,234604,3946.9581,N,08404.9856,W,2,12,0.80,305.14,M,-33.324,M,,*73
2017-12-31 18:46:03 1514763963.841680: $GPRMC,234604,A,3946.9581,N,08404.9856,W,0.0000,0.000,311217,,*38
2017-12-31 18:46:03 1514763963.841796: $GPGSA,A,3,22,23,9,3,16,8,14,31,27,7,26,135,1.7,0.8,1.3*0C
2017-12-31 18:46:04 1514763964.354178: $GPZDA,234605.00,31,12,2017,00,00*65
2017-12-31 18:46:04 1514763964.354344: $GPGGA,234605,3946.9581,N,08404.9856,W,2,12,0.80,305.14,M,-33.324,M,,*72
2017-12-31 18:46:04 1514763964.354410: $GPRMC,234605,A,3946.9581,N,08404.9856,W,0.0000,0.000,311217,,*39
2017-12-31 18:46:04 1514763964.354472: $GPGSA,A,3,22,23,9,3,16,8,14,31,27,7,26,135,1.7,0.8,1.3*0C
2017-12-31 18:46:05 1514763965.354083: $GPZDA,234606.00,31,12,2017,00,00*66
2017-12-31 18:46:05 1514763965.354255: $GPGGA,234606,3946.9581,N,08404.9856,W,2,12,0.80,305.14,M,-33.324,M,,*71
2017-12-31 18:46:05 1514763965.354321: $GPRMC,234606,A,3946.9581,N,08404.9856,W,0.0000,0.000,311217,,*3A
2017-12-31 18:46:05 1514763965.354382: $GPGSA,A,3,22,23,9,3,16,8,14,31,27,7,26,135,1.7,0.8,1.3*0C
2017-12-31 18:46:06 1514763966.682193: $GPGSV,3,1,12,22,09,205,21,23,67,285,40,09,35,310,42,03,19,222,39*76
2017-12-31 18:46:06 1514763966.682352: $GPGSV,3,2,12,16,79,036,43,08,14,175,34,14,01,139,12,31,17,087,32*7F
2017-12-31 18:46:06 1514763966.682418: $GPGSV,3,3,12,27,38,144,42,07,09,283,44,26,46,048,46,135,22,240,44*4D
2017-12-31 18:46:06 1514763966.795828: $GPZDA,234607.00,31,12,2017,00,00*67
2017-12-31 18:46:06 1514763966.795953: $GPGGA,234607,3946.9581,N,08404.9856,W,2,12,0.80,305.14,M,-33.324,M,,*70
2017-12-31 18:46:06 1514763966.796018: $GPRMC,234607,A,3946.9581,N,08404.9856,W,0.0000,0.000,311217,,*3B
2017-12-31 18:46:06 1514763966.796078: $GPGSA,A,3,22,23,9,3,16,8,14,31,27,7,26,135,1.7,0.8,1.3*0C
