2017-12-01 12:00:07 1512147607.795196: {"class":"VERSION","release":"3.16","rev":"3.16-4","proto_major":3,"proto_minor":11}
2017-12-01 12:00:07 1512147607.795571: {"class":"DEVICES","devices":[{"class":"DEVICE","path":"/dev/ttyUSB0","driver":"SiRF","subtype":"9\u0006GSD4e_4.1.2-P1_RPATCH.05-F-GPS-4R-1510281 11/03/2015 307","activated":"2017-12-01T17:00:07.557Z","flags":1,"native":1,"bps":4800,"parity":"N","stopbits":1,"cycle":1.00}]}
2017-12-01 12:00:07 1512147607.795686: {"class":"WATCH","enable":true,"json":false,"nmea":true,"raw":0,"scaled":false,"timing":false,"split24":false,"pps":false}
2017-12-01 12:00:08 1512147608.751428: $GPGSV,3,1,12,10,18,277,37,13,36,046,44,15,69,057,44,18,49,292,46*75
2017-12-01 12:00:08 1512147608.751638: $GPGSV,3,2,12,20,57,061,46,21,73,295,46,24,26,144,46,27,13,319,42*7E
2017-12-01 12:00:08 1512147608.751706: $GPGSV,3,3,12,29,17,192,41,05,09,082,24,04,06,133,00,138,38,213,46*48
2017-12-01 12:00:08 1512147608.864775: $GPZDA,170009.00,01,12,2017,00,00*6F
2017-12-01 12:00:08 1512147608.864959: $GPGGA,170009,3946.9590,N,08404.9845,W,2,11,0.80,300.12,M,-33.324,M,,*79
2017-12-01 12:00:08 1512147608.865025: $GPRMC,170009,A,3946.9590,N,08404.9845,W,0.0000,0.000,011217,,*31
2017-12-01 12:00:08 1512147608.865085: $GPGSA,A,3,10,13,15,18,20,21,24,27,29,5,138,,2.0,0.8,1.5*34
2017-12-01 12:00:09 1512147609.490181: $GPZDA,170010.00,01,12,2017,00,00*67
2017-12-01 12:00:09 1512147609.490357: $GPGGA,170010,3946.9590,N,08404.9845,W,2,11,0.80,300.12,M,-33.324,M,,*71
2017-12-01 12:00:09 1512147609.490424: $GPRMC,170010,A,3946.9590,N,08404.9845,W,0.0000,0.000,011217,,*39
2017-12-01 12:00:09 1512147609.490485: $GPGSA,A,3,10,13,15,18,20,21,24,27,29,5,138,,2.0,0.8,1.5*34
2017-12-01 12:00:10 1512147610.422338: $GPZDA,170011.00,01,12,2017,00,00*66
2017-12-01 12:00:10 1512147610.422510: $GPGGA,170011,3946.9590,N,08404.9845,W,2,11,0.80,300.12,M,-33.324,M,,*70
2017-12-01 12:00:10 1512147610.422577: $GPRMC,170011,A,3946.9590,N,08404.9845,W,0.0000,0.000,011217,,*38
2017-12-01 12:00:10 1512147610.422638: $GPGSA,A,3,10,13,15,18,20,21,24,27,29,5,138,,2.0,0.8,1.5*34
2017-12-01 12:00:11 1512147611.760710: $GPGSV,3,1,12,10,18,277,36,13,36,046,44,15,69,057,44,18,49,292,46*74
2017-12-01 12:00:11 1512147611.760901: $GPGSV,3,2,12,20,57,061,45,21,73,295,46,24,26,144,46,27,13,319,42*7D
2017-12-01 12:00:11 1512147611.760990: $GPGSV,3,3,12,29,17,192,41,05,09,082,23,04,06,133,00,138,38,213,46*4F
2017-12-01 12:00:11 1512147611.873873: $GPZDA,170012.00,01,12,2017,00,00*65
2017-12-01 12:00:11 1512147611.874046: $GPGGA,170012,3946.9590,N,08404.9845,W,2,11,0.80,300.12,M,-33.324,M,,*73
2017-12-01 12:00:11 1512147611.874112: $GPRMC,170012,A,3946.9590,N,08404.9845,W,0.0000,0.000,011217,,*3B
2017-12-01 12:00:11 1512147611.874173: $GPGSA,A,3,10,13,15,18,20,21,24,27,29,5,138,,2.0,0.8,1.5*34
2017-12-01 12:00:12 1512147612.423921: $GPZDA,170013.00,01,12,2017,00,00*64
2017-12-01 12:00:12 1512147612.424098: $GPGGA,170013,3946.9590,N,08404.9845,W,2,11,0.80,300.12,M,-33.324,M,,*72
2017-12-01 12:00:12 1512147612.424166: $GPRMC,170013,A,3946.9590,N,08404.9845,W,0.0000,0.000,011217,,*3A
2017-12-01 12:00:12 1512147612.424228: $GPGSA,A,3,10,13,15,18,20,21,24,27,29,5,138,,2.0,0.8,1.5*34
2017-12-01 12:00:13 1512147613.422005: $GPZDA,170014.00,01,12,2017,00,00*63
2017-12-01 12:00:13 1512147613.422175: $GPGGA,170014,3946.9590,N,08404.9845,W,2,11,0.80,300.12,M,-33.324,M,,*75
2017-12-01 12:00:13 1512147613.422240: $GPRMC,170014,A,3946.9590,N,08404.9845,W,0.0000,0.000,011217,,*3D
2017-12-01 12:00:13 1512147613.422301: $GPGSA,A,3,10,13,15,18,20,21,24,27,29,5,138,,2.0,0.8,1.5*34
2017-12-01 12:00:14 1512147614.758386: $GPGSV,3,1,12,10,18,277,36,13,36,046,44,15,69,057,44,18,49,292,46*74
2017-12-01 12:00:14 1512147614.758573: $GPGSV,3,2,12,20,57,061,46,21,73,295,46,24,26,144,46,27,13,319,41*7D
2017-12-01 12:00:14 1512147614.758641: $GPGSV,3,3,12,29,17,192,40,05,09,082,20,04,06,133,00,138,38,213,46*4D
2017-12-01 12:00:14 1512147614.871808: $GPZDA,170015.00,01,12,2017,00,00*62
2017-12-01 12:00:14 1512147614.871978: $GPGGA,170015,3946.9590,N,08404.9845,W,2,11,0.80,300.12,M,-33.324,M,,*74
2017-12-01 12:00:14 1512147614.872119: $GPRMC,170015,A,3946.9590,N,08404.9845,W,0.0000,0.000,011217,,*3C
2017-12-01 12:00:14 1512147614.872182: $GPGSA,A,3,10,13,15,18,20,21,24,27,29,5,138,,2.0,0.8,1.5*34
2017-12-01 12:00:15 1512147615.421419: $GPZDA,170016.00,01,12,2017,00,00*61
2017-12-01 12:00:15 1512147615.421591: $GPGGA,170016,3946.9590,N,08404.9845,W,2,11,0.80,300.12,M,-33.324,M,,*77
2017-12-01 12:00:15 1512147615.421657: $GPRMC,170016,A,3946.9590,N,08404.9845,W,0.0000,0.000,011217,,*3F
2017-12-01 12:00:15 1512147615.421718: $GPGSA,A,3,10,13,15,18,20,21,24,27,29,5,138,,2.0,0.8,1.5*34
2017-12-01 12:00:16 1512147616.421012: $GPZDA,170017.00,01,12,2017,00,00*60
2017-12-01 12:00:16 1512147616.421180: $GPGGA,170017,3946.9590,N,08404.9845,W,2,11,0.80,300.12,M,-33.324,M,,*76
2017-12-01 12:00:16 1512147616.421246: $GPRMC,170017,A,3946.9590,N,08404.9845,W,0.0000,0.000,011217,,*3E
2017-12-01 12:00:16 1512147616.421307: $GPGSA,A,3,10,13,15,18,20,21,24,27,29,5,138,,2.0,0.8,1.5*34
