2017-11-16 14:38:45 1510861125.525697: {"class":"VERSION","release":"3.17","rev":"3.17","proto_major":3,"proto_minor":12}
2017-11-16 14:38:45 1510861125.526181: {"class":"DEVICES","devices":[{"class":"DEVICE","path":"/dev/ttyUSB0","driver":"SiRF","subtype":"9\u0006GSD4e_4.1.2-P1_RPATCH.05-F-GPS-4R-1510281 11/03/2015 307","activated":"2017-11-16T19:38:45.445Z","flags":1,"native":1,"bps":4800,"parity":"N","stopbits":1,"cycle":1.00}]}
2017-11-16 14:38:45 1510861125.526300: {"class":"WATCH","enable":true,"json":false,"nmea":true,"raw":0,"scaled":false,"timing":false,"split24":false,"pps":false}
2017-11-16 14:38:45 1510861125.895317: $GPGSV,3,1,11,08,08,312,37,10,50,309,49,15,28,055,50,18,76,009,44*76
2017-11-16 14:38:45 1510861125.895491: $GPGSV,3,2,11,21,52,184,48,20,25,103,47,24,53,091,49,27,16,279,41*77
2017-11-16 14:38:45 1510861125.895551: $GPGSV,3,3,11,32,29,246,48,14,13,238,44,138,38,213,44*70
2017-11-16 14:38:46 1510861126.008619: $GPZDA,193844.00,16,11,2017,00,00*66
2017-11-16 14:38:46 1510861126.008760: $GPGGA,193844,3946.9564,N,08404.9849,W,2,11,0.80,302.66,M,-33.324,M,,*73
2017-11-16 14:38:46 1510861126.008819: $GPRMC,193844,A,3946.9564,N,08404.9849,W,0.0000,0.000,161117,,*3F
2017-11-16 14:38:46 1510861126.008875: $GPGSA,A,3,8,10,15,18,21,20,24,27,32,14,138,,1.6,0.8,1.3*37
2017-11-16 14:38:46 1510861126.524215: $GPZDA,193845.00,16,11,2017,00,00*67
2017-11-16 14:38:46 1510861126.524398: $GPGGA,193845,3946.9564,N,08404.9849,W,2,11,0.80,302.66,M,-33.324,M,,*72
2017-11-16 14:38:46 1510861126.524463: $GPRMC,193845,A,3946.9564,N,08404.9849,W,0.0000,0.000,161117,,*3E
2017-11-16 14:38:46 1510861126.524520: $GPGSA,A,3,8,10,15,18,21,20,24,27,32,14,138,,1.6,0.8,1.3*37
2017-11-16 14:38:47 1510861127.558553: $GPZDA,193846.00,16,11,2017,00,00*64
2017-11-16 14:38:47 1510861127.558731: $GPGGA,193846,3946.9564,N,08404.9849,W,2,11,0.80,302.66,M,-33.324,M,,*71
2017-11-16 14:38:47 1510861127.558794: $GPRMC,193846,A,3946.9564,N,08404.9849,W,0.0000,0.000,161117,,*3D
2017-11-16 14:38:47 1510861127.558850: $GPGSA,A,3,8,10,15,18,21,20,24,27,32,14,138,,1.6,0.8,1.3*37
2017-11-16 14:38:48 1510861128.860530: $GPGSV,3,1,11,08,08,312,37,10,50,309,50,15,28,055,50,18,76,009,44*7E
2017-11-16 14:38:48 1510861128.860709: $GPGSV,3,2,11,21,52,184,48,20,25,103,46,24,53,091,50,27,16,279,41*7E
2017-11-16 14:38:48 1510861128.860772: $GPGSV,3,3,11,32,29,246,48,14,13,238,44,138,38,213,44*70
2017-11-16 14:38:48 1510861128.973739: $GPZDA,193847.00,16,11,2017,00,00*65
2017-11-16 14:38:48 1510861128.973883: $GPGGA,193847,3946.9564,N,08404.9849,W,2,11,0.80,302.66,M,-33.324,M,,*70
2017-11-16 14:38:48 1510861128.973940: $GPRMC,193847,A,3946.9564,N,08404.9849,W,0.0000,0.000,161117,,*3C
2017-11-16 14:38:48 1510861128.973995: $GPGSA,A,3,8,10,15,18,21,20,24,27,32,14,138,,1.6,0.8,1.3*37
2017-11-16 14:38:49 1510861129.600341: $GPZDA,193848.00,16,11,2017,00,00*6A
2017-11-16 14:38:49 1510861129.600520: $GPGGA,193848,3946.9564,N,08404.9849,W,2,11,0.80,302.66,M,-33.324,M,,*7F
2017-11-16 14:38:49 1510861129.600583: $GPRMC,193848,A,3946.9564,N,08404.9849,W,0.0000,0.000,161117,,*33
2017-11-16 14:38:49 1510861129.600639: $GPGSA,A,3,8,10,15,18,21,20,24,27,32,14,138,,1.6,0.8,1.3*37
2017-11-16 14:38:50 1510861130.523661: $GPZDA,193849.00,16,11,2017,00,00*6B
2017-11-16 14:38:50 1510861130.523823: $GPGGA,193849,3946.9564,N,08404.9849,W,2,11,0.80,302.66,M,-33.324,M,,*7E
2017-11-16 14:38:50 1510861130.523884: $GPRMC,193849,A,3946.9564,N,08404.9849,W,0.0000,0.000,161117,,*32
2017-11-16 14:38:50 1510861130.523940: $GPGSA,A,3,8,10,15,18,21,20,24,27,32,14,138,,1.6,0.8,1.3*37
2017-11-16 14:38:51 1510861131.894268: $GPGSV,3,1,11,08,08,312,34,10,50,309,50,15,28,055,50,18,76,009,44*7D
2017-11-16 14:38:51 1510861131.894436: $GPGSV,3,2,11,21,52,184,48,20,25,103,46,24,53,091,50,27,16,279,42*7D
2017-11-16 14:38:51 1510861131.894498: $GPGSV,3,3,11,32,29,246,48,14,13,238,44,138,38,213,44*70
2017-11-16 14:38:52 1510861132.007543: $GPZDA,193850.00,16,11,2017,00,00*63
2017-11-16 14:38:52 1510861132.007699: $GPGGA,193850,3946.9564,N,08404.9849,W,2,11,0.80,302.66,M,-33.324,M,,*76
2017-11-16 14:38:52 1510861132.007810: $GPRMC,193850,A,3946.9564,N,08404.9849,W,0.0000,0.000,161117,,*3A
2017-11-16 14:38:52 1510861132.007868: $GPGSA,A,3,8,10,15,18,21,20,24,27,32,14,138,,1.6,0.8,1.3*37
2017-11-16 14:38:52 1510861132.523290: $GPZDA,193851.00,16,11,2017,00,00*62
2017-11-16 14:38:52 1510861132.523451: $GPGGA,193851,3946.9564,N,08404.9849,W,2,11,0.80,302.66,M,-33.324,M,,*77
2017-11-16 14:38:52 1510861132.523512: $GPRMC,193851,A,3946.9564,N,08404.9849,W,0.0000,0.000,161117,,*3B
2017-11-16 14:38:52 1510861132.523568: $GPGSA,A,3,8,10,15,18,21,20,24,27,32,14,138,,1.6,0.8,1.3*37
2017-11-16 14:38:53 1510861133.559049: $GPZDA,193852.00,16,11,2017,00,00*61
2017-11-16 14:38:53 1510861133.559212: $GPGGA,193852,3946.9564,N,08404.9849,W,2,11,0.80,302.66,M,-33.324,M,,*74
2017-11-16 14:38:53 1510861133.559274: $GPRMC,193852,A,3946.9564,N,08404.9849,W,0.0000,0.000,161117,,*38
2017-11-16 14:38:53 1510861133.559330: $GPGSA,A,3,8,10,15,18,21,20,24,27,32,14,138,,1.6,0.8,1.3*37
2017-11-16 14:38:54 1510861134.889205: $GPGSV,3,1,11,08,08,312,32,10,50,309,49,15,28,055,51,18,76,009,44*72
2017-11-16 14:38:54 1510861134.889373: $GPGSV,3,2,11,21,52,184,48,20,25,103,46,24,53,091,50,27,16,279,43*7C
2017-11-16 14:38:54 1510861134.889432: $GPGSV,3,3,11,32,29,246,48,14,13,238,44,138,38,213,43*77
2017-11-16 14:38:55 1510861135.002559: $GPZDA,193853.00,16,11,2017,00,00*60
2017-11-16 14:38:55 1510861135.002734: $GPGGA,193853,3946.9564,N,08404.9849,W,2,11,0.80,302.66,M,-33.324,M,,*75
2017-11-16 14:38:55 1510861135.002796: $GPRMC,193853,A,3946.9564,N,08404.9849,W,0.0000,0.000,161117,,*39
2017-11-16 14:38:55 1510861135.002851: $GPGSA,A,3,8,10,15,18,21,20,24,27,32,14,138,,1.6,0.8,1.3*37
2017-11-16 14:38:55 1510861135.523316: $GPZDA,193854.00,16,11,2017,00,00*67
2017-11-16 14:38:55 1510861135.523485: $GPGGA,193854,3946.9564,N,08404.9849,W,2,11,0.80,302.66,M,-33.324,M,,*72
2017-11-16 14:38:55 1510861135.523546: $GPRMC,193854,A,3946.9564,N,08404.9849,W,0.0000,0.000,161117,,*3E
2017-11-16 14:38:55 1510861135.523602: $GPGSA,A,3,8,10,15,18,21,20,24,27,32,14,138,,1.6,0.8,1.3*37
2017-11-16 14:38:56 1510861136.559137: $GPZDA,193855.00,16,11,2017,00,00*66
2017-11-16 14:38:56 1510861136.559300: $GPGGA,193855,3946.9564,N,08404.9849,W,2,11,0.80,302.66,M,-33.324,M,,*73
2017-11-16 14:38:56 1510861136.559362: $GPRMC,193855,A,3946.9564,N,08404.9849,W,0.0000,0.000,161117,,*3F
2017-11-16 14:38:56 1510861136.559422: $GPGSA,A,3,8,10,15,18,21,20,24,27,32,14,138,,1.6,0.8,1.3*37
2017-11-16 14:38:57 1510861137.858453: $GPGSV,3,1,11,08,08,312,32,10,50,309,50,15,28,055,51,18,76,009,44*7A
2017-11-16 14:38:57 1510861137.858629: $GPGSV,3,2,11,21,52,184,48,20,25,103,46,24,53,091,49,27,16,279,44*73
2017-11-16 14:38:57 1510861137.858689: $GPGSV,3,3,11,32,29,246,48,14,13,238,44,138,38,213,42*76
2017-11-16 14:38:57 1510861137.971909: $GPZDA,193856.00,16,11,2017,00,00*65
2017-11-16 14:38:57 1510861137.972079: $GPGGA,193856,3946.9564,N,08404.9849,W,2,11,0.80,302.66,M,-33.324,M,,*70
2017-11-16 14:38:57 1510861137.972139: $GPRMC,193856,A,3946.9564,N,08404.9849,W,0.0000,0.000,161117,,*3C
2017-11-16 14:38:57 1510861137.972195: $GPGSA,A,3,8,10,15,18,21,20,24,27,32,14,138,,1.6,0.8,1.3*37
2017-11-16 14:38:58 1510861138.523811: $GPZDA,193857.00,16,11,2017,00,00*64
2017-11-16 14:38:58 1510861138.523992: $GPGGA,193857,3946.9564,N,08404.9849,W,2,11,0.80,302.66,M,-33.324,M,,*71
2017-11-16 14:38:58 1510861138.524056: $GPRMC,193857,A,3946.9564,N,08404.9849,W,0.0000,0.000,161117,,*3D
2017-11-16 14:38:58 1510861138.524113: $GPGSA,A,3,8,10,15,18,21,20,24,27,32,14,138,,1.6,0.8,1.3*37
2017-11-16 14:38:59 1510861139.557933: $GPZDA,193858.00,16,11,2017,00,00*6B
2017-11-16 14:38:59 1510861139.558106: $GPGGA,193858,3946.9564,N,08404.9849,W,2,11,0.80,302.66,M,-33.324,M,,*7E
2017-11-16 14:38:59 1510861139.558172: $GPRMC,193858,A,3946.9564,N,08404.9849,W,0.0000,0.000,161117,,*32
2017-11-16 14:38:59 1510861139.558229: $GPGSA,A,3,8,10,15,18,21,20,24,27,32,14,138,,1.6,0.8,1.3*37
2017-11-16 14:39:00 1510861140.854786: $GPGSV,3,1,11,08,08,312,32,10,50,309,50,15,28,055,50,18,76,009,44*7B
2017-11-16 14:39:00 1510861140.855027: $GPGSV,3,2,11,21,52,184,48,20,25,103,46,24,53,091,49,27,16,279,43*74
2017-11-16 14:39:00 1510861140.855091: $GPGSV,3,3,11,32,29,246,48,14,13,238,44,138,38,213,43*77
2017-11-16 14:39:00 1510861140.968265: $GPZDA,193859.00,16,11,2017,00,00*6A
2017-11-16 14:39:00 1510861140.968435: $GPGGA,193859,3946.9564,N,08404.9849,W,2,11,0.80,302.66,M,-33.324,M,,*7F
2017-11-16 14:39:00 1510861140.968499: $GPRMC,193859,A,3946.9564,N,08404.9849,W,0.0000,0.000,161117,,*33
2017-11-16 14:39:00 1510861140.968556: $GPGSA,A,3,8,10,15,18,21,20,24,27,32,14,138,,1.6,0.8,1.3*37
2017-11-16 14:39:01 1510861141.517534: $GPZDA,193900.00,16,11,2017,00,00*67
2017-11-16 14:39:01 1510861141.517704: $GPGGA,193900,3946.9564,N,08404.9849,W,2,11,0.80,302.66,M,-33.324,M,,*72
2017-11-16 14:39:01 1510861141.517765: $GPRMC,193900,A,3946.9564,N,08404.9849,W,0.0000,0.000,161117,,*3E
2017-11-16 14:39:01 1510861141.517825: $GPGSA,A,3,8,10,15,18,21,20,24,27,32,14,138,,1.6,0.8,1.3*37
2017-11-16 14:39:02 1510861142.523287: $GPZDA,193901.00,16,11,2017,00,00*66
2017-11-16 14:39:02 1510861142.523511: $GPGGA,193901,3946.9564,N,08404.9849,W,2,11,0.80,302.66,M,-33.324,M,,*73
2017-11-16 14:39:02 1510861142.523575: $GPRMC,193901,A,3946.9564,N,08404.9849,W,0.0000,0.000,161117,,*3F
2017-11-16 14:39:02 1510861142.523631: $GPGSA,A,3,8,10,15,18,21,20,24,27,32,14,138,,1.6,0.8,1.3*37
2017-11-16 14:39:03 1510861143.858948: $GPGSV,3,1,11,08,08,312,33,10,50,309,50,15,28,055,50,18,76,009,44*7A
2017-11-16 14:39:03 1510861143.859102: $GPGSV,3,2,11,21,52,184,48,20,25,103,46,24,53,091,48,27,16,279,43*75
2017-11-16 14:39:03 1510861143.859164: $GPGSV,3,3,11,32,29,246,48,14,13,238,44,138,38,213,44*70
2017-11-16 14:39:03 1510861143.972264: $GPZDA,193902.00,16,11,2017,00,00*65
2017-11-16 14:39:03 1510861143.972484: $GPGGA,193902,3946.9564,N,08404.9849,W,2,11,0.80,302.66,M,-33.324,M,,*70
2017-11-16 14:39:03 1510861143.972548: $GPRMC,193902,A,3946.9564,N,08404.9849,W,0.0000,0.000,161117,,*3C
2017-11-16 14:39:03 1510861143.972606: $GPGSA,A,3,8,10,15,18,21,20,24,27,32,14,138,,1.6,0.8,1.3*37
2017-11-16 14:39:04 1510861144.597709: $GPZDA,193903.00,16,11,2017,00,00*64
2017-11-16 14:39:04 1510861144.597873: $GPGGA,193903,3946.9564,N,08404.9849,W,2,11,0.80,302.66,M,-33.324,M,,*71
2017-11-16 14:39:04 1510861144.597934: $GPRMC,193903,A,3946.9564,N,08404.9849,W,0.0000,0.000,161117,,*3D
2017-11-16 14:39:04 1510861144.597990: $GPGSA,A,3,8,10,15,18,21,20,24,27,32,14,138,,1.6,0.8,1.3*37
2017-11-16 14:39:05 1510861145.522596: $GPZDA,193904.00,16,11,2017,00,00*63
2017-11-16 14:39:05 1510861145.522756: $GPGGA,193904,3946.9564,N,08404.9849,W,2,11,0.80,302.66,M,-33.324,M,,*76
2017-11-16 14:39:05 1510861145.522818: $GPRMC,193904,A,3946.9564,N,08404.9849,W,0.0000,0.000,161117,,*3A
2017-11-16 14:39:05 1510861145.522874: $GPGSA,A,3,8,10,15,18,21,20,24,27,32,14,138,,1.6,0.8,1.3*37
2017-11-16 14:39:06 1510861146.858970: $GPGSV,3,1,11,08,08,312,38,10,50,309,50,15,28,055,50,18,76,009,44*71
2017-11-16 14:39:06 1510861146.859162: $GPGSV,3,2,11,21,52,184,48,20,25,103,46,24,53,091,48,27,16,279,43*75
2017-11-16 14:39:06 1510861146.859227: $GPGSV,3,3,11,32,29,246,47,14,13,238,44,138,38,213,44*7F
2017-11-16 14:39:06 1510861146.972796: $GPZDA,193905.00,16,11,2017,00,00*62
2017-11-16 14:39:06 1510861146.972956: $GPGGA,193905,3946.9564,N,08404.9849,W,2,11,0.80,302.66,M,-33.324,M,,*77
2017-11-16 14:39:06 1510861146.973017: $GPRMC,193905,A,3946.9564,N,08404.9849,W,0.0000,0.000,161117,,*3B
2017-11-16 14:39:06 1510861146.973074: $GPGSA,A,3,8,10,15,18,21,20,24,27,32,14,138,,1.6,0.8,1.3*37
2017-11-16 14:39:07 1510861147.522244: $GPZDA,193906.00,16,11,2017,00,00*61
2017-11-16 14:39:07 1510861147.522404: $GPGGA,193906,3946.9564,N,08404.9849,W,2,11,0.80,302.66,M,-33.324,M,,*74
2017-11-16 14:39:07 1510861147.522466: $GPRMC,193906,A,3946.9564,N,08404.9849,W,0.0000,0.000,161117,,*38
2017-11-16 14:39:07 1510861147.522522: $GPGSA,A,3,8,10,15,18,21,20,24,27,32,14,138,,1.6,0.8,1.3*37
2017-11-16 14:39:08 1510861148.516735: $GPZDA,193907.00,16,11,2017,00,00*60
2017-11-16 14:39:08 1510861148.516948: $GPGGA,193907,3946.9564,N,08404.9849,W,2,11,0.80,302.66,M,-33.324,M,,*75
2017-11-16 14:39:08 1510861148.517014: $GPRMC,193907,A,3946.9564,N,08404.9849,W,0.0000,0.000,161117,,*39
2017-11-16 14:39:08 1510861148.517087: $GPGSA,A,3,8,10,15,18,21,20,24,27,32,14,138,,1.6,0.8,1.3*37
2017-11-16 14:39:09 1510861149.857865: $GPGSV,3,1,11,08,08,312,38,10,50,309,50,15,28,055,50,18,76,009,44*71
2017-11-16 14:39:09 1510861149.858048: $GPGSV,3,2,11,21,52,184,48,20,25,103,46,24,53,091,48,27,16,279,43*75
2017-11-16 14:39:09 1510861149.858109: $GPGSV,3,3,11,32,29,246,47,14,13,238,44,138,38,213,44*7F
2017-11-16 14:39:09 1510861149.971348: $GPZDA,193908.00,16,11,2017,00,00*6F
2017-11-16 14:39:09 1510861149.971506: $GPGGA,193908,3946.9564,N,08404.9849,W,2,11,0.80,302.66,M,-33.324,M,,*7A
2017-11-16 14:39:09 1510861149.971567: $GPRMC,193908,A,3946.9564,N,08404.9849,W,0.0000,0.000,161117,,*36
2017-11-16 14:39:09 1510861149.971624: $GPGSA,A,3,8,10,15,18,21,20,24,27,32,14,138,,1.6,0.8,1.3*37
2017-11-16 14:39:10 1510861150.523438: $GPZDA,193909.00,16,11,2017,00,00*6E
2017-11-16 14:39:10 1510861150.523749: $GPGGA,193909,3946.9564,N,08404.9849,W,2,11,0.80,302.66,M,-33.324,M,,*7B
2017-11-16 14:39:10 1510861150.523873: $GPRMC,193909,A,3946.9564,N,08404.9849,W,0.0000,0.000,161117,,*37
2017-11-16 14:39:10 1510861150.523985: $GPGSA,A,3,8,10,15,18,21,20,24,27,32,14,138,,1.6,0.8,1.3*37
2017-11-16 14:39:11 1510861151.521758: $GPZDA,193910.00,16,11,2017,00,00*66
2017-11-16 14:39:11 1510861151.521915: $GPGGA,193910,3946.9564,N,08404.9849,W,2,11,0.80,302.66,M,-33.324,M,,*73
2017-11-16 14:39:11 1510861151.521977: $GPRMC,193910,A,3946.9564,N,08404.9849,W,0.0000,0.000,161117,,*3F
2017-11-16 14:39:11 1510861151.522035: $GPGSA,A,3,8,10,15,18,21,20,24,27,32,14,138,,1.6,0.8,1.3*37
2017-11-16 14:39:12 1510861152.892016: $GPGSV,3,1,11,08,08,312,37,10,50,309,50,15,28,055,50,18,76,009,45*7F
2017-11-16 14:39:12 1510861152.892190: $GPGSV,3,2,11,21,52,184,48,20,25,103,46,24,53,091,48,27,16,279,42*74
2017-11-16 14:39:12 1510861152.892251: $GPGSV,3,3,11,32,29,246,47,14,13,238,44,138,38,213,45*7E
2017-11-16 14:39:13 1510861153.007073: $GPZDA,193911.00,16,11,2017,00,00*67
2017-11-16 14:39:13 1510861153.007350: $GPGGA,193911,3946.9564,N,08404.9849,W,2,11,0.80,302.66,M,-33.324,M,,*72
2017-11-16 14:39:13 1510861153.007480: $GPRMC,193911,A,3946.9564,N,08404.9849,W,0.0000,0.000,161117,,*3E
2017-11-16 14:39:13 1510861153.007597: $GPGSA,A,3,8,10,15,18,21,20,24,27,32,14,138,,1.6,0.8,1.3*37
2017-11-16 14:39:13 1510861153.521209: $GPZDA,193912.00,16,11,2017,00,00*64
2017-11-16 14:39:13 1510861153.521408: $GPGGA,193912,3946.9564,N,08404.9849,W,2,11,0.80,302.66,M,-33.324,M,,*71
2017-11-16 14:39:13 1510861153.521486: $GPRMC,193912,A,3946.9564,N,08404.9849,W,0.0000,0.000,161117,,*3D
2017-11-16 14:39:13 1510861153.521545: $GPGSA,A,3,8,10,15,18,21,20,24,27,32,14,138,,1.6,0.8,1.3*37
2017-11-16 14:39:14 1510861154.548906: $GPZDA,193913.00,16,11,2017,00,00*65
2017-11-16 14:39:14 1510861154.549068: $GPGGA,193913,3946.9564,N,08404.9849,W,2,11,0.80,302.66,M,-33.324,M,,*70
2017-11-16 14:39:14 1510861154.549129: $GPRMC,193913,A,3946.9564,N,08404.9849,W,0.0000,0.000,161117,,*3C
2017-11-16 14:39:14 1510861154.549185: $GPGSA,A,3,8,10,15,18,21,20,24,27,32,14,138,,1.6,0.8,1.3*37
