2017-11-16 16:53:18 1510869198.670916: {"class":"VERSION","release":"3.17","rev":"3.17","proto_major":3,"proto_minor":12}
2017-11-16 16:53:18 1510869198.671404: {"class":"DEVICES","devices":[{"class":"DEVICE","path":"/dev/ttyUSB0","driver":"SiRF","subtype":"9\u0006GSD4e_4.1.2-P1_RPATCH.05-F-GPS-4R-1510281 11/03/2015 307","activated":"2017-11-16T21:53:18.587Z","flags":1,"native":1,"bps":4800,"parity":"N","stopbits":1,"cycle":1.00}]}
2017-11-16 16:53:18 1510869198.671518: {"class":"WATCH","enable":true,"json":false,"nmea":true,"raw":0,"scaled":false,"timing":false,"split24":false,"pps":false}
2017-11-16 16:53:19 1510869199.444669: $GPZDA,215318.00,16,11,2017,00,00*69
2017-11-16 16:53:19 1510869199.444835: $GPGGA,215318,3946.9581,N,08404.9830,W,2,11,0.80,308.27,M,-33.324,M,,*76
2017-11-16 16:53:19 1510869199.444897: $GPRMC,215318,A,3946.9581,N,08404.9830,W,0.0000,0.000,161117,,*35
2017-11-16 16:53:19 1510869199.444954: $GPGSA,A,3,1,10,11,12,14,18,24,25,31,32,138,,1.6,0.8,1.3*38
2017-11-16 16:53:20 1510869200.780437: $GPGSV,3,1,12,01,15,316,42,10,67,135,50,22,04,310,32,12,25,069,49*7C
2017-11-16 16:53:20 1510869200.780584: $GPGSV,3,2,12,14,56,295,46,18,35,136,42,24,12,045,39,25,31,112,41*70
2017-11-16 16:53:20 1510869200.780644: $GPGSV,3,3,12,31,37,213,47,32,68,334,51,11,11,298,00,138,38,213,45*43
2017-11-16 16:53:20 1510869200.893743: $GPZDA,215319.00,16,11,2017,00,00*68
2017-11-16 16:53:20 1510869200.893903: $GPGGA,215319,3946.9581,N,08404.9830,W,2,11,0.80,308.27,M,-33.324,M,,*77
2017-11-16 16:53:20 1510869200.893965: $GPRMC,215319,A,3946.9581,N,08404.9830,W,0.0000,0.000,161117,,*34
2017-11-16 16:53:20 1510869200.894021: $GPGSA,A,3,1,10,22,12,14,18,24,25,31,32,138,,1.6,0.8,1.3*38
2017-11-16 16:53:21 1510869201.519463: $GPZDA,215320.00,16,11,2017,00,00*62
2017-11-16 16:53:21 1510869201.519623: $GPGGA,215320,3946.9581,N,08404.9830,W,2,11,0.80,308.27,M,-33.324,M,,*7D
2017-11-16 16:53:21 1510869201.519683: $GPRMC,215320,A,3946.9581,N,08404.9830,W,0.0000,0.000,161117,,*3E
2017-11-16 16:53:21 1510869201.519739: $GPGSA,A,3,1,10,22,12,14,18,24,25,31,32,138,,1.6,0.8,1.3*38
2017-11-16 16:53:22 1510869202.440319: $GPZDA,215321.00,16,11,2017,00,00*63
2017-11-16 16:53:22 1510869202.440472: $GPGGA,215321,3946.9581,N,08404.9830,W,2,11,0.80,308.27,M,-33.324,M,,*7C
2017-11-16 16:53:22 1510869202.440533: $GPRMC,215321,A,3946.9581,N,08404.9830,W,0.0000,0.000,161117,,*3F
2017-11-16 16:53:22 1510869202.440589: $GPGSA,A,3,1,10,22,12,14,18,24,25,31,32,138,,1.6,0.8,1.3*38
2017-11-16 16:53:23 1510869203.788331: $GPGSV,3,1,12,01,15,316,42,10,67,135,50,11,11,298,23,12,25,069,49*79
2017-11-16 16:53:23 1510869203.788491: $GPGSV,3,2,12,14,56,295,46,18,35,136,41,24,12,045,39,25,31,112,41*73
2017-11-16 16:53:23 1510869203.788551: $GPGSV,3,3,12,31,37,213,46,32,68,334,51,22,04,310,00,138,38,213,44*46
2017-11-16 16:53:23 1510869203.901914: $GPZDA,215322.00,16,11,2017,00,00*60
2017-11-16 16:53:23 1510869203.902067: $GPGGA,215322,3946.9581,N,08404.9830,W,2,11,0.80,308.27,M,-33.324,M,,*7F
2017-11-16 16:53:23 1510869203.902127: $GPRMC,215322,A,3946.9581,N,08404.9830,W,0.0000,0.000,161117,,*3C
2017-11-16 16:53:23 1510869203.902183: $GPGSA,A,3,1,10,11,12,14,18,24,25,31,32,138,,1.6,0.8,1.3*38
2017-11-16 16:53:24 1510869204.455359: $GPZDA,215323.00,16,11,2017,00,00*61
2017-11-16 16:53:24 1510869204.455514: $GPGGA,215323,3946.9581,N,08404.9830,W,2,11,0.80,308.27,M,-33.324,M,,*7E
2017-11-16 16:53:24 1510869204.455574: $GPRMC,215323,A,3946.9581,N,08404.9830,W,0.0000,0.000,161117,,*3D
2017-11-16 16:53:24 1510869204.455629: $GPGSA,A,3,1,10,11,12,14,18,24,25,31,32,138,,1.6,0.8,1.3*38
2017-11-16 16:53:25 1510869205.461168: $GPZDA,215324.00,16,11,2017,00,00*66
2017-11-16 16:53:25 1510869205.461319: $GPGGA,215324,3946.9581,N,08404.9830,W,2,11,0.80,308.27,M,-33.324,M,,*79
2017-11-16 16:53:25 1510869205.461379: $GPRMC,215324,A,3946.9581,N,08404.9830,W,0.0000,0.000,161117,,*3A
2017-11-16 16:53:25 1510869205.461435: $GPGSA,A,3,1,10,11,12,14,18,24,25,31,32,138,,1.6,0.8,1.3*38
2017-11-16 16:53:26 1510869206.789921: $GPGSV,3,1,12,01,15,316,42,10,67,135,50,11,11,298,25,12,25,069,49*7F
2017-11-16 16:53:26 1510869206.790145: $GPGSV,3,2,12,14,56,295,46,18,35,136,41,24,12,045,39,25,31,112,42*70
2017-11-16 16:53:26 1510869206.790206: $GPGSV,3,3,12,31,37,213,46,32,68,334,51,22,04,310,30,138,38,213,44*45
2017-11-16 16:53:26 1510869206.903211: $GPZDA,215325.00,16,11,2017,00,00*67
2017-11-16 16:53:26 1510869206.903372: $GPGGA,215325,3946.9581,N,08404.9830,W,2,12,0.80,308.27,M,-33.324,M,,*7B
2017-11-16 16:53:26 1510869206.903433: $GPRMC,215325,A,3946.9581,N,08404.9830,W,0.0000,0.000,161117,,*3B
2017-11-16 16:53:26 1510869206.903488: $GPGSA,A,3,1,10,11,12,14,18,24,25,31,32,22,138,1.6,0.8,1.3*38
2017-11-16 16:53:27 1510869207.445396: $GPZDA,215326.00,16,11,2017,00,00*64
2017-11-16 16:53:27 1510869207.445567: $GPGGA,215326,3946.9581,N,08404.9830,W,2,12,0.80,308.27,M,-33.324,M,,*78
2017-11-16 16:53:27 1510869207.445629: $GPRMC,215326,A,3946.9581,N,08404.9830,W,0.0000,0.000,161117,,*38
2017-11-16 16:53:27 1510869207.445685: $GPGSA,A,3,1,10,11,12,14,18,24,25,31,32,22,138,1.6,0.8,1.3*38
2017-11-16 16:53:28 1510869208.461463: $GPZDA,215327.00,16,11,2017,00,00*65
2017-11-16 16:53:28 1510869208.461622: $GPGGA,215327,3946.9581,N,08404.9830,W,2,12,0.80,308.27,M,-33.324,M,,*79
2017-11-16 16:53:28 1510869208.461683: $GPRMC,215327,A,3946.9581,N,08404.9830,W,0.0000,0.000,161117,,*39
2017-11-16 16:53:28 1510869208.461738: $GPGSA,A,3,1,10,11,12,14,18,24,25,31,32,22,138,1.6,0.8,1.3*38
