2017-12-01 13:48:29 1512154109.596872: {"class":"VERSION","release":"3.16","rev":"3.16-4","proto_major":3,"proto_minor":11}
2017-12-01 13:48:29 1512154109.597354: {"class":"DEVICES","devices":[{"class":"DEVICE","path":"/dev/ttyUSB0","driver":"SiRF","subtype":"9\u0006GSD4e_4.1.2-P1_RPATCH.05-F-GPS-4R-1510281 11/03/2015 307","activated":"2017-12-01T18:48:29.462Z","flags":1,"native":1,"bps":4800,"parity":"N","stopbits":1,"cycle":1.00}]}
2017-12-01 13:48:29 1512154109.597596: {"class":"WATCH","enable":true,"json":false,"nmea":true,"raw":0,"scaled":false,"timing":false,"split24":false,"pps":false}
2017-12-01 13:48:30 1512154110.655172: $GPGSV,3,1,11,10,55,315,48,14,17,241,38,15,23,058,46,18,77,036,42*7E
2017-12-01 13:48:30 1512154110.655327: $GPGSV,3,2,11,20,21,108,45,21,45,181,44,24,53,081,47,27,14,273,40*73
2017-12-01 13:48:30 1512154110.655392: $GPGSV,3,3,11,32,34,250,42,08,08,307,23,138,38,213,46*78
2017-12-01 13:48:30 1512154110.768573: $GPZDA,184831.00,01,12,2017,00,00*67
2017-12-01 13:48:30 1512154110.768723: $GPGGA,184831,3946.9572,N,08404.9851,W,2,11,0.80,294.67,M,-33.324,M,,*76
2017-12-01 13:48:30 1512154110.768789: $GPRMC,184831,A,3946.9572,N,08404.9851,W,0.0000,0.000,011217,,*30
2017-12-01 13:48:30 1512154110.768850: $GPGSA,A,3,10,14,15,18,20,21,24,27,32,8,138,,2.0,0.8,1.5*34
2017-12-01 13:48:31 1512154111.324446: $GPZDA,184832.00,01,12,2017,00,00*64
2017-12-01 13:48:31 1512154111.324652: $GPGGA,184832,3946.9572,N,08404.9851,W,2,11,0.80,294.67,M,-33.324,M,,*75
2017-12-01 13:48:31 1512154111.324721: $GPRMC,184832,A,3946.9572,N,08404.9851,W,0.0000,0.000,011217,,*33
2017-12-01 13:48:31 1512154111.324782: $GPGSA,A,3,10,14,15,18,20,21,24,27,32,8,138,,2.0,0.8,1.5*34
2017-12-01 13:48:32 1512154112.322359: $GPZDA,184833.00,01,12,2017,00,00*65
2017-12-01 13:48:32 1512154112.322548: $GPGGA,184833,3946.9572,N,08404.9851,W,2,11,0.80,294.67,M,-33.324,M,,*74
2017-12-01 13:48:32 1512154112.322643: $GPRMC,184833,A,3946.9572,N,08404.9851,W,0.0000,0.000,011217,,*32
2017-12-01 13:48:32 1512154112.322705: $GPGSA,A,3,10,14,15,18,20,21,24,27,32,8,138,,2.0,0.8,1.5*34
2017-12-01 13:48:33 1512154113.658030: $GPGSV,3,1,11,10,55,315,48,14,17,241,39,15,23,058,46,18,77,036,43*7E
2017-12-01 13:48:33 1512154113.658222: $GPGSV,3,2,11,20,21,108,45,21,45,181,44,24,53,081,47,27,14,273,39*7D
2017-12-01 13:48:33 1512154113.658293: $GPGSV,3,3,11,32,34,250,42,08,08,307,27,138,38,213,46*7C
2017-12-01 13:48:33 1512154113.771541: $GPZDA,184834.00,01,12,2017,00,00*62
2017-12-01 13:48:33 1512154113.771724: $GPGGA,184834,3946.9572,N,08404.9851,W,2,11,0.80,294.67,M,-33.324,M,,*73
2017-12-01 13:48:33 1512154113.771794: $GPRMC,184834,A,3946.9572,N,08404.9851,W,0.0000,0.000,011217,,*35
2017-12-01 13:48:33 1512154113.771858: $GPGSA,A,3,10,14,15,18,20,21,24,27,32,8,138,,2.0,0.8,1.5*34
2017-12-01 13:48:34 1512154114.322443: $GPZDA,184835.00,01,12,2017,00,00*63
2017-12-01 13:48:34 1512154114.322663: $GPGGA,184835,3946.9572,N,08404.9851,W,2,11,0.80,294.67,M,-33.324,M,,*72
2017-12-01 13:48:34 1512154114.322734: $GPRMC,184835,A,3946.9572,N,08404.9851,W,0.0000,0.000,011217,,*34
2017-12-01 13:48:34 1512154114.322798: $GPGSA,A,3,10,14,15,18,20,21,24,27,32,8,138,,2.0,0.8,1.5*34
2017-12-01 13:48:35 1512154115.323221: $GPZDA,184836.00,01,12,2017,00,00*60
2017-12-01 13:48:35 1512154115.323390: $GPGGA,184836,3946.9572,N,08404.9851,W,2,11,0.80,294.67,M,-33.324,M,,*71
2017-12-01 13:48:35 1512154115.323481: $GPRMC,184836,A,3946.9572,N,08404.9851,W,0.0000,0.000,011217,,*37
2017-12-01 13:48:35 1512154115.323546: $GPGSA,A,3,10,14,15,18,20,21,24,27,32,8,138,,2.0,0.8,1.5*34
2017-12-01 13:48:36 1512154116.658896: $GPGSV,3,1,11,10,55,315,49,14,17,241,39,15,23,058,46,18,77,036,43*7F
2017-12-01 13:48:36 1512154116.659079: $GPGSV,3,2,11,20,21,108,45,21,45,181,44,24,53,081,47,27,14,273,40*73
2017-12-01 13:48:36 1512154116.659147: $GPGSV,3,3,11,32,34,250,42,08,08,307,28,138,38,213,46*73
2017-12-01 13:48:36 1512154116.772335: $GPZDA,184837.00,01,12,2017,00,00*61
2017-12-01 13:48:36 1512154116.772523: $GPGGA,184837,3946.9572,N,08404.9851,W,2,11,0.80,294.67,M,-33.324,M,,*70
2017-12-01 13:48:36 1512154116.772665: $GPRMC,184837,A,3946.9572,N,08404.9851,W,0.0000,0.000,011217,,*36
2017-12-01 13:48:36 1512154116.772729: $GPGSA,A,3,10,14,15,18,20,21,24,27,32,8,138,,2.0,0.8,1.5*34
2017-12-01 13:48:37 1512154117.397688: $GPZDA,184838.00,01,12,2017,00,00*6E
2017-12-01 13:48:37 1512154117.397845: $GPGGA,184838,3946.9572,N,08404.9851,W,2,11,0.80,294.67,M,-33.324,M,,*7F
2017-12-01 13:48:37 1512154117.397914: $GPRMC,184838,A,3946.9572,N,08404.9851,W,0.0000,0.000,011217,,*39
2017-12-01 13:48:37 1512154117.397975: $GPGSA,A,3,10,14,15,18,20,21,24,27,32,8,138,,2.0,0.8,1.5*34
2017-12-01 13:48:38 1512154118.321190: $GPZDA,184839.00,01,12,2017,00,00*6F
2017-12-01 13:48:38 1512154118.321491: $GPGGA,184839,3946.9572,N,08404.9851,W,2,11,0.80,294.67,M,-33.324,M,,*7E
2017-12-01 13:48:38 1512154118.321587: $GPRMC,184839,A,3946.9572,N,08404.9851,W,0.0000,0.000,011217,,*38
2017-12-01 13:48:38 1512154118.321651: $GPGSA,A,3,10,14,15,18,20,21,24,27,32,8,138,,2.0,0.8,1.5*34
