2018-01-12 04:40:15 1515750015.263779: {"class":"VERSION","release":"3.16","rev":"3.16-4","proto_major":3,"proto_minor":11}
2018-01-12 04:40:15 1515750015.264123: {"class":"DEVICES","devices":[{"class":"DEVICE","path":"/dev/ttyUSB0","driver":"SiRF","subtype":"9\u0006GSD4e_4.1.2-P1_RPATCH.05-F-GPS-4R-1510281 11/03/2015 307","activated":"2018-01-12T09:40:15.226Z","flags":1,"native":1,"bps":4800,"parity":"N","stopbits":1,"cycle":1.00}]}
2018-01-12 04:40:15 1515750015.264294: {"class":"WATCH","enable":true,"json":false,"nmea":true,"raw":0,"scaled":false,"timing":false,"split24":false,"pps":false}
2018-01-12 04:40:15 1515750015.739710: $GPGSV,3,1,12,02,70,010,43,05,59,201,50,06,41,061,35,12,47,240,50*75
2018-01-12 04:40:15 1515750015.739891: $GPGSV,3,2,12,20,07,220,22,25,35,292,39,29,18,310,50,09,19,058,21*76
2018-01-12 04:40:15 1515750015.739956: $GPGSV,3,3,12,17,07,126,26,19,25,121,22,04,60,297,00,138,38,213,48*44
2018-01-12 04:40:15 1515750015.853072: $GPZDA,094016.00,12,01,2018,00,00*65
2018-01-12 04:40:15 1515750015.853224: $GPGGA,094016,3946.9655,N,08404.9747,W,2,11,0.80,310.70,M,-33.324,M,,*7E
2018-01-12 04:40:15 1515750015.853290: $GPRMC,094016,A,3946.9655,N,08404.9747,W,0.0000,0.000,120118,,*3C
2018-01-12 04:40:15 1515750015.853350: $GPGSA,A,3,2,5,6,12,20,25,29,9,17,19,138,,2.4,0.8,2.1*0E
2018-01-12 04:40:16 1515750016.402954: $GPZDA,094017.00,12,01,2018,00,00*64
2018-01-12 04:40:16 1515750016.403115: $GPGGA,094017,3946.9655,N,08404.9747,W,2,11,0.80,310.70,M,-33.324,M,,*7F
2018-01-12 04:40:16 1515750016.403181: $GPRMC,094017,A,3946.9655,N,08404.9747,W,0.0000,0.000,120118,,*3D
2018-01-12 04:40:16 1515750016.403243: $GPGSA,A,3,2,5,6,12,20,25,29,9,17,19,138,,2.4,0.8,2.1*0E
2018-01-12 04:40:17 1515750017.403837: $GPZDA,094018.00,12,01,2018,00,00*6B
2018-01-12 04:40:17 1515750017.404020: $GPGGA,094018,3946.9655,N,08404.9747,W,2,11,0.80,310.70,M,-33.324,M,,*70
2018-01-12 04:40:17 1515750017.404087: $GPRMC,094018,A,3946.9655,N,08404.9747,W,0.0000,0.000,120118,,*32
2018-01-12 04:40:17 1515750017.404149: $GPGSA,A,3,2,5,6,12,20,25,29,9,17,19,138,,2.4,0.8,2.1*0E
2018-01-12 04:40:18 1515750018.740567: $GPGSV,3,1,12,02,70,010,44,05,59,201,49,06,41,061,35,12,47,240,50*7A
2018-01-12 04:40:18 1515750018.740750: $GPGSV,3,2,12,20,07,220,22,25,35,292,40,29,18,310,50,09,19,058,21*78
2018-01-12 04:40:18 1515750018.740817: $GPGSV,3,3,12,17,07,126,26,19,25,121,23,04,60,297,00,138,38,213,48*45
2018-01-12 04:40:18 1515750018.854023: $GPZDA,094019.00,12,01,2018,00,00*6A
2018-01-12 04:40:18 1515750018.854232: $GPGGA,094019,3946.9655,N,08404.9747,W,2,11,0.80,310.70,M,-33.324,M,,*71
2018-01-12 04:40:18 1515750018.854310: $GPRMC,094019,A,3946.9655,N,08404.9747,W,0.0000,0.000,120118,,*33
2018-01-12 04:40:18 1515750018.854371: $GPGSA,A,3,2,5,6,12,20,25,29,9,17,19,138,,2.4,0.8,2.1*0E
2018-01-12 04:40:19 1515750019.406189: $GPZDA,094020.00,12,01,2018,00,00*60
2018-01-12 04:40:19 1515750019.406367: $GPGGA,094020,3946.9655,N,08404.9747,W,2,11,0.80,310.70,M,-33.324,M,,*7B
2018-01-12 04:40:19 1515750019.406433: $GPRMC,094020,A,3946.9655,N,08404.9747,W,0.0000,0.000,120118,,*39
2018-01-12 04:40:19 1515750019.406494: $GPGSA,A,3,2,5,6,12,20,25,29,9,17,19,138,,2.4,0.8,2.1*0E
2018-01-12 04:40:20 1515750020.407870: $GPZDA,094021.00,12,01,2018,00,00*61
2018-01-12 04:40:20 1515750020.408040: $GPGGA,094021,3946.9655,N,08404.9747,W,2,11,0.80,310.70,M,-33.324,M,,*7A
2018-01-12 04:40:20 1515750020.408105: $GPRMC,094021,A,3946.9655,N,08404.9747,W,0.0000,0.000,120118,,*38
2018-01-12 04:40:20 1515750020.408166: $GPGSA,A,3,2,5,6,12,20,25,29,9,17,19,138,,2.4,0.8,2.1*0E
2018-01-12 04:40:21 1515750021.738668: $GPGSV,3,1,12,02,70,010,44,05,59,201,50,06,41,061,35,12,47,240,50*72
2018-01-12 04:40:21 1515750021.738872: $GPGSV,3,2,12,20,07,220,23,25,35,292,40,29,18,310,50,09,19,058,21*79
2018-01-12 04:40:21 1515750021.738939: $GPGSV,3,3,12,17,07,126,25,19,25,121,22,04,60,297,00,138,38,213,47*48
2018-01-12 04:40:21 1515750021.851866: $GPZDA,094022.00,12,01,2018,00,00*62
2018-01-12 04:40:21 1515750021.852023: $GPGGA,094022,3946.9655,N,08404.9747,W,2,11,0.80,310.70,M,-33.324,M,,*79
2018-01-12 04:40:21 1515750021.852144: $GPRMC,094022,A,3946.9655,N,08404.9747,W,0.0000,0.000,120118,,*3B
2018-01-12 04:40:21 1515750021.852207: $GPGSA,A,3,2,5,6,12,20,25,29,9,17,19,138,,2.4,0.8,2.1*0E
2018-01-12 04:40:22 1515750022.407636: $GPZDA,094023.00,12,01,2018,00,00*63
2018-01-12 04:40:22 1515750022.407809: $GPGGA,094023,3946.9655,N,08404.9747,W,2,11,0.80,310.70,M,-33.324,M,,*78
2018-01-12 04:40:22 1515750022.407876: $GPRMC,094023,A,3946.9655,N,08404.9747,W,0.0000,0.000,120118,,*3A
2018-01-12 04:40:22 1515750022.407937: $GPGSA,A,3,2,5,6,12,20,25,29,9,17,19,138,,2.4,0.8,2.1*0E
2018-01-12 04:40:23 1515750023.405186: $GPZDA,094024.00,12,01,2018,00,00*64
2018-01-12 04:40:23 1515750023.405357: $GPGGA,094024,3946.9655,N,08404.9747,W,2,11,0.80,310.70,M,-33.324,M,,*7F
2018-01-12 04:40:23 1515750023.405423: $GPRMC,094024,A,3946.9655,N,08404.9747,W,0.0000,0.000,120118,,*3D
2018-01-12 04:40:23 1515750023.405483: $GPGSA,A,3,2,5,6,12,20,25,29,9,17,19,138,,2.4,0.8,2.1*0E
2018-01-12 04:40:24 1515750024.740545: $GPGSV,3,1,12,02,70,010,43,05,59,201,49,06,41,061,34,12,47,240,50*7C
2018-01-12 04:40:24 1515750024.740727: $GPGSV,3,2,12,20,07,220,27,25,35,292,39,29,18,310,50,09,19,058,23*71
2018-01-12 04:40:24 1515750024.740792: $GPGSV,3,3,12,17,07,126,25,19,25,121,22,23,02,031,14,138,38,213,47*42
2018-01-12 04:40:24 1515750024.852631: $GPZDA,094025.00,12,01,2018,00,00*65
2018-01-12 04:40:24 1515750024.852768: $GPGGA,094025,3946.9655,N,08404.9747,W,2,11,0.80,310.70,M,-33.324,M,,*7E
2018-01-12 04:40:24 1515750024.852833: $GPRMC,094025,A,3946.9655,N,08404.9747,W,0.0000,0.000,120118,,*3C
2018-01-12 04:40:24 1515750024.852893: $GPGSA,A,3,2,5,6,12,20,25,29,9,17,19,138,,2.4,0.8,2.1*0E
2018-01-12 04:40:25 1515750025.479418: $GPZDA,094026.00,12,01,2018,00,00*66
2018-01-12 04:40:25 1515750025.479628: $GPGGA,094026,3946.9655,N,08404.9747,W,2,11,0.80,310.70,M,-33.324,M,,*7D
2018-01-12 04:40:25 1515750025.479697: $GPRMC,094026,A,3946.9655,N,08404.9747,W,0.0000,0.000,120118,,*3F
2018-01-12 04:40:25 1515750025.479758: $GPGSA,A,3,2,5,6,12,20,25,29,9,17,19,138,,2.4,0.8,2.1*0E
2018-01-12 04:40:26 1515750026.405200: $GPZDA,094027.00,12,01,2018,00,00*67
2018-01-12 04:40:26 1515750026.405376: $GPGGA,094027,3946.9655,N,08404.9747,W,2,11,0.80,310.70,M,-33.324,M,,*7C
2018-01-12 04:40:26 1515750026.405443: $GPRMC,094027,A,3946.9655,N,08404.9747,W,0.0000,0.000,120118,,*3E
2018-01-12 04:40:26 1515750026.405503: $GPGSA,A,3,2,5,6,12,20,25,29,9,17,19,138,,2.4,0.8,2.1*0E
2018-01-12 04:40:27 1515750027.757211: $GPGSV,3,1,12,02,70,010,43,05,59,201,49,06,41,061,33,12,47,240,50*7B
2018-01-12 04:40:27 1515750027.757389: $GPGSV,3,2,12,20,07,220,29,25,35,292,39,29,18,310,49,09,19,058,24*70
2018-01-12 04:40:27 1515750027.757454: $GPGSV,3,3,12,17,07,126,25,19,25,121,12,23,02,031,13,138,38,213,46*47
2018-01-12 04:40:27 1515750027.870528: $GPZDA,094028.00,12,01,2018,00,00*68
2018-01-12 04:40:27 1515750027.870664: $GPGGA,094028,3946.9655,N,08404.9747,W,2,12,0.80,310.70,M,-33.324,M,,*70
2018-01-12 04:40:27 1515750027.870729: $GPRMC,094028,A,3946.9655,N,08404.9747,W,0.0000,0.000,120118,,*31
2018-01-12 04:40:27 1515750027.870790: $GPGSA,A,3,2,5,6,12,20,25,29,9,17,19,23,138,2.4,0.8,2.1*0F
2018-01-12 04:40:28 1515750028.402624: $GPZDA,094029.00,12,01,2018,00,00*69
2018-01-12 04:40:28 1515750028.402783: $GPGGA,094029,3946.9655,N,08404.9747,W,2,12,0.80,310.70,M,-33.324,M,,*71
2018-01-12 04:40:28 1515750028.402848: $GPRMC,094029,A,3946.9655,N,08404.9747,W,0.0000,0.000,120118,,*30
2018-01-12 04:40:28 1515750028.402908: $GPGSA,A,3,2,5,6,12,20,25,29,9,17,19,23,138,2.4,0.8,2.1*0F
2018-01-12 04:40:29 1515750029.419781: $GPZDA,094030.00,12,01,2018,00,00*61
2018-01-12 04:40:29 1515750029.419951: $GPGGA,094030,3946.9655,N,08404.9747,W,2,12,0.80,310.70,M,-33.324,M,,*79
2018-01-12 04:40:29 1515750029.420019: $GPRMC,094030,A,3946.9655,N,08404.9747,W,0.0000,0.000,120118,,*38
2018-01-12 04:40:29 1515750029.420079: $GPGSA,A,3,2,5,6,12,20,25,29,9,17,19,23,138,2.4,0.8,2.1*0F
2018-01-12 04:40:30 1515750030.736243: $GPGSV,3,1,12,02,70,010,43,05,59,201,49,06,41,061,33,12,47,240,51*7A
2018-01-12 04:40:30 1515750030.736472: $GPGSV,3,2,12,20,07,220,30,25,35,292,38,29,18,310,48,09,19,058,24*78
2018-01-12 04:40:30 1515750030.736542: $GPGSV,3,3,12,17,07,126,24,19,25,121,00,04,60,297,00,138,38,213,46*48
2018-01-12 04:40:30 1515750030.848350: $GPZDA,094031.00,12,01,2018,00,00*60
2018-01-12 04:40:30 1515750030.848482: $GPGGA,094031,3946.9659,N,08404.9747,W,2,10,0.80,311.34,M,-33.324,M,,*77
2018-01-12 04:40:30 1515750030.848546: $GPRMC,094031,A,3946.9659,N,08404.9747,W,0.0000,0.000,120118,,*35
2018-01-12 04:40:30 1515750030.848607: $GPGSA,A,3,2,5,6,12,20,25,29,9,17,138,,,2.4,0.8,2.1*06
2018-01-12 04:40:31 1515750031.402993: $GPZDA,094032.00,12,01,2018,00,00*63
2018-01-12 04:40:31 1515750031.403165: $GPGGA,094032,3946.9659,N,08404.9747,W,2,10,0.80,311.34,M,-33.324,M,,*74
2018-01-12 04:40:31 1515750031.403231: $GPRMC,094032,A,3946.9659,N,08404.9747,W,0.0000,0.000,120118,,*36
2018-01-12 04:40:31 1515750031.403291: $GPGSA,A,3,2,5,6,12,20,25,29,9,17,138,,,2.4,0.8,2.1*06
2018-01-12 04:40:32 1515750032.421413: $GPZDA,094033.00,12,01,2018,00,00*62
2018-01-12 04:40:32 1515750032.421603: $GPGGA,094033,3946.9659,N,08404.9747,W,2,10,0.80,311.34,M,-33.324,M,,*75
2018-01-12 04:40:32 1515750032.421685: $GPRMC,094033,A,3946.9659,N,08404.9747,W,0.0000,0.000,120118,,*37
2018-01-12 04:40:32 1515750032.421747: $GPGSA,A,3,2,5,6,12,20,25,29,9,17,138,,,2.4,0.8,2.1*06
2018-01-12 04:40:33 1515750033.760865: $GPGSV,3,1,12,02,70,010,43,05,59,201,49,06,41,061,33,12,47,240,51*7A
2018-01-12 04:40:33 1515750033.761045: $GPGSV,3,2,12,20,07,220,31,25,35,292,38,29,18,310,48,09,19,058,24*79
2018-01-12 04:40:33 1515750033.761111: $GPGSV,3,3,12,17,07,126,18,23,02,031,22,19,25,121,00,138,38,213,46*48
2018-01-12 04:40:33 1515750033.874970: $GPZDA,094034.00,12,01,2018,00,00*65
2018-01-12 04:40:33 1515750033.875181: $GPGGA,094034,3946.9659,N,08404.9747,W,2,11,0.80,311.34,M,-33.324,M,,*73
2018-01-12 04:40:33 1515750033.876723: $GPRMC,094034,A,3946.9659,N,08404.9747,W,0.0000,0.000,120118,,*30
2018-01-12 04:40:33 1515750033.876810: $GPGSA,A,3,2,5,6,12,20,25,29,9,17,23,138,,2.4,0.8,2.1*07
2018-01-12 04:40:34 1515750034.404606: $GPZDA,094035.00,12,01,2018,00,00*64
2018-01-12 04:40:34 1515750034.404809: $GPGGA,094035,3946.9659,N,08404.9747,W,2,11,0.80,311.34,M,-33.324,M,,*72
2018-01-12 04:40:34 1515750034.404895: $GPRMC,094035,A,3946.9659,N,08404.9747,W,0.0000,0.000,120118,,*31
2018-01-12 04:40:34 1515750034.404958: $GPGSA,A,3,2,5,6,12,20,25,29,9,17,23,138,,2.4,0.8,2.1*07
