2017-12-29 14:58:32 1514577512.285734: {"class":"VERSION","release":"3.16","rev":"3.16-4","proto_major":3,"proto_minor":11}
2017-12-29 14:58:32 1514577512.286156: {"class":"DEVICES","devices":[{"class":"DEVICE","path":"/dev/ttyUSB0","driver":"SiRF","subtype":"9\u0006GSD4e_4.1.2-P1_RPATCH.05-F-GPS-4R-1510281 11/03/2015 307","activated":"2017-12-29T19:58:32.281Z","flags":1,"native":1,"bps":4800,"parity":"N","stopbits":1,"cycle":1.00}]}
2017-12-29 14:58:32 1514577512.286376: {"class":"WATCH","enable":true,"json":false,"nmea":true,"raw":0,"scaled":false,"timing":false,"split24":false,"pps":false}
2017-12-29 14:58:32 1514577512.730890: $GPGSV,3,1,12,01,22,291,36,03,09,316,43,10,37,153,48,18,08,147,24*74
2017-12-29 14:58:32 1514577512.731108: $GPGSV,3,2,12,12,17,042,43,14,69,351,43,22,28,310,41,25,41,078,50*70
2017-12-29 14:58:32 1514577512.731202: $GPGSV,3,3,12,31,68,237,47,32,63,055,51,26,12,180,26,138,38,213,43*4F
2017-12-29 14:58:32 1514577512.844489: $GPZDA,195833.00,29,12,2017,00,00*6F
2017-12-29 14:58:32 1514577512.844603: $GPGGA,195833,3946.9577,N,08404.9830,W,2,12,0.80,307.63,M,-33.324,M,,*7A
2017-12-29 14:58:32 1514577512.844667: $GPRMC,195833,A,3946.9577,N,08404.9830,W,0.0000,0.000,291217,,*3A
2017-12-29 14:58:32 1514577512.844727: $GPGSA,A,3,1,3,10,18,12,14,22,25,31,32,26,138,1.7,0.8,1.3*08
2017-12-29 14:58:33 1514577513.469879: $GPZDA,195834.00,29,12,2017,00,00*68
2017-12-29 14:58:33 1514577513.470035: $GPGGA,195834,3946.9577,N,08404.9830,W,2,12,0.80,307.63,M,-33.324,M,,*7D
2017-12-29 14:58:33 1514577513.470101: $GPRMC,195834,A,3946.9577,N,08404.9830,W,0.0000,0.000,291217,,*3D
2017-12-29 14:58:33 1514577513.470162: $GPGSA,A,3,1,3,10,18,12,14,22,25,31,32,26,138,1.7,0.8,1.3*08
2017-12-29 14:58:34 1514577514.434534: $GPZDA,195835.00,29,12,2017,00,00*69
2017-12-29 14:58:34 1514577514.434691: $GPGGA,195835,3946.9577,N,08404.9830,W,2,12,0.80,307.63,M,-33.324,M,,*7C
2017-12-29 14:58:34 1514577514.434757: $GPRMC,195835,A,3946.9577,N,08404.9830,W,0.0000,0.000,291217,,*3C
2017-12-29 14:58:34 1514577514.434818: $GPGSA,A,3,1,3,10,18,12,14,22,25,31,32,26,138,1.7,0.8,1.3*08
2017-12-29 14:58:35 1514577515.768747: $GPGSV,3,1,12,01,22,291,36,03,09,316,43,10,37,153,48,11,05,274,35*73
2017-12-29 14:58:35 1514577515.768916: $GPGSV,3,2,12,12,17,042,43,14,69,351,44,22,28,310,41,25,41,078,50*77
2017-12-29 14:58:35 1514577515.768982: $GPGSV,3,3,12,31,68,237,47,32,63,055,51,26,12,180,26,138,38,213,43*4F
2017-12-29 14:58:35 1514577515.882386: $GPZDA,195836.00,29,12,2017,00,00*6A
2017-12-29 14:58:35 1514577515.882529: $GPGGA,195836,3946.9577,N,08404.9830,W,2,12,0.80,307.63,M,-33.324,M,,*7F
2017-12-29 14:58:35 1514577515.882594: $GPRMC,195836,A,3946.9577,N,08404.9830,W,0.0000,0.000,291217,,*3F
2017-12-29 14:58:35 1514577515.882654: $GPGSA,A,3,1,3,10,11,12,14,22,25,31,32,26,138,1.7,0.8,1.3*01
2017-12-29 14:58:36 1514577516.428231: $GPZDA,195837.00,29,12,2017,00,00*6B
2017-12-29 14:58:36 1514577516.431467: $GPGGA,195837,3946.9577,N,08404.9830,W,2,12,0.80,307.63,M,-33.324,M,,*7E
2017-12-29 14:58:36 1514577516.431571: $GPRMC,195837,A,3946.9577,N,08404.9830,W,0.0000,0.000,291217,,*3E
2017-12-29 14:58:36 1514577516.431635: $GPGSA,A,3,1,3,10,11,12,14,22,25,31,32,26,138,1.7,0.8,1.3*01
2017-12-29 14:58:37 1514577517.435336: $GPZDA,195838.00,29,12,2017,00,00*64
2017-12-29 14:58:37 1514577517.435505: $GPGGA,195838,3946.9577,N,08404.9830,W,2,12,0.80,307.63,M,-33.324,M,,*71
2017-12-29 14:58:37 1514577517.435572: $GPRMC,195838,A,3946.9577,N,08404.9830,W,0.0000,0.000,291217,,*31
2017-12-29 14:58:37 1514577517.435633: $GPGSA,A,3,1,3,10,11,12,14,22,25,31,32,26,138,1.7,0.8,1.3*01
2017-12-29 14:58:38 1514577518.732860: $GPGSV,3,1,12,01,22,291,37,03,09,316,44,10,37,153,48,11,05,274,34*74
2017-12-29 14:58:38 1514577518.733021: $GPGSV,3,2,12,12,17,042,43,14,69,351,43,22,28,310,41,25,41,078,50*70
2017-12-29 14:58:38 1514577518.733087: $GPGSV,3,3,12,31,68,237,47,32,63,055,51,26,12,180,27,138,38,213,44*49
2017-12-29 14:58:38 1514577518.846426: $GPZDA,195839.00,29,12,2017,00,00*65
2017-12-29 14:58:38 1514577518.846557: $GPGGA,195839,3946.9577,N,08404.9830,W,2,12,0.80,307.63,M,-33.324,M,,*70
2017-12-29 14:58:38 1514577518.846672: $GPRMC,195839,A,3946.9577,N,08404.9830,W,0.0000,0.000,291217,,*30
2017-12-29 14:58:38 1514577518.846735: $GPGSA,A,3,1,3,10,11,12,14,22,25,31,32,26,138,1.7,0.8,1.3*01
2017-12-29 14:58:39 1514577519.396075: $GPZDA,195840.00,29,12,2017,00,00*6B
2017-12-29 14:58:39 1514577519.396276: $GPGGA,195840,3946.9577,N,08404.9830,W,2,12,1.00,307.63,M,-33.324,M,,*77
2017-12-29 14:58:39 1514577519.396343: $GPRMC,195840,A,3946.9577,N,08404.9830,W,0.0000,0.000,291217,,*3E
2017-12-29 14:58:39 1514577519.396404: $GPGSA,A,3,1,3,10,11,12,14,22,25,31,32,26,138,1.7,1.0,1.3*08
2017-12-29 14:58:40 1514577520.395699: $GPZDA,195841.00,29,12,2017,00,00*6A
2017-12-29 14:58:40 1514577520.395867: $GPGGA,195841,3946.9577,N,08404.9830,W,2,12,0.80,307.63,M,-33.324,M,,*7F
2017-12-29 14:58:40 1514577520.395933: $GPRMC,195841,A,3946.9577,N,08404.9830,W,0.0000,0.000,291217,,*3F
2017-12-29 14:58:40 1514577520.395993: $GPGSA,A,3,1,3,10,11,12,14,22,25,31,32,26,138,1.7,0.8,1.3*01
2017-12-29 14:58:41 1514577521.731258: $GPGSV,3,1,12,01,22,291,38,03,09,316,43,10,37,153,48,11,05,274,34*7C
2017-12-29 14:58:41 1514577521.731428: $GPGSV,3,2,12,12,17,042,42,14,69,351,44,22,28,310,41,25,41,078,50*76
2017-12-29 14:58:41 1514577521.731495: $GPGSV,3,3,12,31,68,237,47,32,63,055,51,26,12,180,28,138,38,213,42*40
2017-12-29 14:58:41 1514577521.844773: $GPZDA,195842.00,29,12,2017,00,00*69
2017-12-29 14:58:41 1514577521.844901: $GPGGA,195842,3946.9577,N,08404.9830,W,2,12,0.80,307.63,M,-33.324,M,,*7C
2017-12-29 14:58:41 1514577521.844966: $GPRMC,195842,A,3946.9577,N,08404.9830,W,0.0000,0.000,291217,,*3C
2017-12-29 14:58:41 1514577521.845026: $GPGSA,A,3,1,3,10,11,12,14,22,25,31,32,26,138,1.7,0.8,1.3*01
