2017-11-15 19:17:17 1510791437.693812: {"class":"VERSION","release":"3.17","rev":"3.17","proto_major":3,"proto_minor":12}
2017-11-15 19:17:17 1510791437.694250: {"class":"DEVICES","devices":[{"class":"DEVICE","path":"/dev/ttyUSB0","driver":"SiRF","subtype":"9\u0006GSD4e_4.1.2-P1_RPATCH.05-F-GPS-4R-1510281 11/03/2015 307","activated":"2017-11-16T00:17:17.471Z","flags":1,"native":1,"bps":4800,"parity":"N","stopbits":1,"cycle":1.00}]}
2017-11-15 19:17:17 1510791437.694366: {"class":"WATCH","enable":true,"json":false,"nmea":true,"raw":0,"scaled":false,"timing":false,"split24":false,"pps":false}
2017-11-15 19:17:18 1510791438.682729: $GPGSV,3,1,12,32,41,102,21,14,59,084,26,22,49,280,24,26,46,175,20*7B
2017-11-15 19:17:18 1510791438.683199: $GPGSV,3,2,12,31,72,013,21,25,22,042,00,03,36,304,23,01,09,256,04*71
2017-11-15 19:17:18 1510791438.691348: $GPGSV,3,3,12,16,16,190,00,29,09,076,00,23,07,298,00,138,38,213,00*45
2017-11-15 19:17:18 1510791438.796032: $GPZDA,001717.00,16,11,2017,00,00*65
2017-11-15 19:17:18 1510791438.796207: $GPGGA,001717,3946.9661,N,08404.9478,W,1,06,1.40,282.80,M,-33.324,M,,*71
2017-11-15 19:17:18 1510791438.796269: $GPRMC,001717,A,3946.9661,N,08404.9478,W,0.7246,344.668,161117,,*38
2017-11-15 19:17:18 1510791438.796325: $GPGSA,A,3,32,14,22,26,31,3,,,,,,,3.4,1.4,2.9*0A
2017-11-15 19:17:19 1510791439.330983: $GPZDA,001718.00,16,11,2017,00,00*6A
2017-11-15 19:17:19 1510791439.331124: $GPGGA,001718,3946.9661,N,08404.9478,W,1,06,1.40,282.80,M,-33.324,M,,*7E
2017-11-15 19:17:19 1510791439.331184: $GPRMC,001718,A,3946.9661,N,08404.9478,W,0.5857,338.291,161117,,*36
2017-11-15 19:17:19 1510791439.331241: $GPGSA,A,3,32,14,22,26,31,3,,,,,,,3.4,1.4,2.9*0A
2017-11-15 19:17:20 1510791440.330393: $GPZDA,001719.00,16,11,2017,00,00*6B
2017-11-15 19:17:20 1510791440.330563: $GPGGA,001719,3946.9661,N,08404.9485,W,1,06,1.40,282.73,M,-33.324,M,,*71
2017-11-15 19:17:20 1510791440.330625: $GPRMC,001719,A,3946.9661,N,08404.9485,W,1.1824,309.173,161117,,*39
2017-11-15 19:17:20 1510791440.330682: $GPGSA,A,3,32,14,22,26,31,3,,,,,,,3.4,1.4,2.9*0A
2017-11-15 19:17:21 1510791441.665596: $GPGSV,3,1,12,32,41,102,20,14,59,084,26,22,49,280,24,26,46,175,20*7A
2017-11-15 19:17:21 1510791441.665769: $GPGSV,3,2,12,31,72,013,21,16,16,190,12,03,36,304,23,25,22,042,00*77
2017-11-15 19:17:21 1510791441.665829: $GPGSV,3,3,12,01,09,256,00,29,09,076,00,23,07,298,00,138,38,213,00*44
2017-11-15 19:17:21 1510791441.781978: $GPZDA,001720.00,16,11,2017,00,00*61
2017-11-15 19:17:21 1510791441.782145: $GPGGA,001720,3946.9661,N,08404.9485,W,1,06,1.40,282.73,M,-33.324,M,,*7B
2017-11-15 19:17:21 1510791441.782205: $GPRMC,001720,A,3946.9661,N,08404.9485,W,0.7267,273.794,161117,,*3A
2017-11-15 19:17:21 1510791441.782260: $GPGSA,A,3,32,14,22,26,31,3,,,,,,,3.4,1.4,2.9*0A
2017-11-15 19:17:22 1510791442.328558: $GPZDA,001721.00,16,11,2017,00,00*60
2017-11-15 19:17:22 1510791442.328727: $GPGGA,001721,3946.9657,N,08404.9485,W,1,06,1.40,282.09,M,-33.324,M,,*72
2017-11-15 19:17:22 1510791442.328787: $GPRMC,001721,A,3946.9657,N,08404.9485,W,0.5951,238.684,161117,,*3D
2017-11-15 19:17:22 1510791442.328843: $GPGSA,A,3,32,14,22,26,31,3,,,,,,,3.4,1.4,2.9*0A
2017-11-15 19:17:23 1510791443.329493: $GPZDA,001722.00,16,11,2017,00,00*63
2017-11-15 19:17:23 1510791443.329698: $GPGGA,001722,3946.9653,N,08404.9492,W,1,06,1.40,281.37,M,-33.324,M,,*7D
2017-11-15 19:17:23 1510791443.329765: $GPRMC,001722,A,3946.9653,N,08404.9492,W,0.4207,219.347,161117,,*3C
2017-11-15 19:17:23 1510791443.329825: $GPGSA,A,3,32,14,22,26,31,3,,,,,,,3.4,1.4,2.9*0A
2017-11-15 19:17:24 1510791444.665217: $GPGSV,3,1,12,32,41,102,20,14,59,084,26,22,49,280,24,26,46,175,20*7A
2017-11-15 19:17:25 1510791445.448299: $GPGSV,3,2,12,31,72,013,21,25,22,042,00,03,36,304,23,16,16,190,00*74
2017-11-15 19:17:25 1510791445.448432: $GPGSV,3,3,12,01,09,256,00,29,09,076,00,23,07,298,00,138,38,213,00*44
2017-11-15 19:17:25 1510791445.448528: $GPZDA,001723.00,16,11,2017,00,00*62
2017-11-15 19:17:25 1510791445.448584: $GPGGA,001723,3946.9653,N,08404.9492,W,1,06,1.40,281.37,M,-33.324,M,,*7C
2017-11-15 19:17:25 1510791445.448672: $GPRMC,001723,A,3946.9653,N,08404.9492,W,0.4207,39.347,161117,,*0D
2017-11-15 19:17:25 1510791445.448728: $GPGSA,A,3,32,14,22,26,31,3,,,,,,,3.4,1.4,2.9*0A
2017-11-15 19:17:25 1510791445.448779: $GPZDA,001724.00,16,11,2017,00,00*65
2017-11-15 19:17:25 1510791445.448827: $GPGGA,001724,3946.9653,N,08404.9492,W,1,06,1.40,281.37,M,-33.324,M,,*7B
2017-11-15 19:17:25 1510791445.448882: $GPRMC,001724,A,3946.9653,N,08404.9492,W,0.2422,273.794,161117,,*3B
2017-11-15 19:17:25 1510791445.448935: $GPGSA,A,3,32,14,22,26,31,3,,,,,,,3.4,1.4,2.9*0A
2017-11-15 19:17:26 1510791446.328599: $GPZDA,001725.00,16,11,2017,00,00*64
2017-11-15 19:17:26 1510791446.328761: $GPGGA,001725,3946.9649,N,08404.9492,W,1,06,1.40,280.73,M,-33.324,M,,*70
2017-11-15 19:17:26 1510791446.328820: $GPRMC,001725,A,3946.9649,N,08404.9492,W,0.5774,207.515,161117,,*3E
2017-11-15 19:17:26 1510791446.328877: $GPGSA,A,3,32,14,22,26,31,3,,,,,,,3.4,1.4,2.9*0A
2017-11-15 19:17:27 1510791447.669363: $GPGSV,3,1,12,32,41,102,20,14,59,084,25,22,49,280,24,26,46,175,21*78
2017-11-15 19:17:27 1510791447.669533: $GPGSV,3,2,12,31,72,013,21,25,22,042,00,03,36,304,24,16,16,190,00*73
2017-11-15 19:17:27 1510791447.669593: $GPGSV,3,3,12,01,09,256,00,29,09,076,00,23,07,298,00,135,23,238,00*4A
