2017-12-29 10:41:47 1514562107.217696: {"class":"VERSION","release":"3.16","rev":"3.16-4","proto_major":3,"proto_minor":11}
2017-12-29 10:41:47 1514562107.218042: {"class":"DEVICES","devices":[{"class":"DEVICE","path":"/dev/ttyUSB0","driver":"SiRF","subtype":"9\u0006GSD4e_4.1.2-P1_RPATCH.05-F-GPS-4R-1510281 11/03/2015 307","activated":"2017-12-29T15:41:47.060Z","flags":1,"native":1,"bps":4800,"parity":"N","stopbits":1,"cycle":1.00}]}
2017-12-29 10:41:47 1514562107.218166: {"class":"WATCH","enable":true,"json":false,"nmea":true,"raw":0,"scaled":false,"timing":false,"split24":false,"pps":false}
2017-12-29 10:41:48 1514562108.862845: $GPZDA,154149.38,29,12,2017,00,00*6D
2017-12-29 10:41:48 1514562108.863010: $GPGGA,154149,3946.9611,N,08404.9895,W,1,11,1.20,290.69,M,-33.324,M,,*71
2017-12-29 10:41:48 1514562108.863081: $GPRMC,154149,A,3946.9611,N,08404.9895,W,0.3146,31.961,291217,,*03
2017-12-29 10:41:48 1514562108.863147: $GPGSA,A,3,10,13,15,18,20,21,24,29,27,32,138,,1.7,1.2,1.3*09
2017-12-29 10:41:50 1514562110.290982: $GPZDA,154150.38,29,12,2017,00,00*65
2017-12-29 10:41:50 1514562110.291213: $GPGGA,154150,3946.9611,N,08404.9888,W,1,11,1.20,290.77,M,-33.324,M,,*7A
2017-12-29 10:41:50 1514562110.291283: $GPRMC,154150,A,3946.9611,N,08404.9888,W,0.4315,34.066,291217,,*0F
2017-12-29 10:41:50 1514562110.291345: $GPGSA,A,3,10,13,15,18,20,21,24,29,27,32,138,,1.7,1.2,1.3*09
2017-12-29 10:41:50 1514562110.291405: $GPGBS,154150,10.91,M,10.38,M,30.89,M*0B
2017-12-29 10:41:51 1514562111.030059: $GPGSV,3,1,11,10,30,289,42,13,21,045,44,15,52,049,50,18,61,312,44*79
2017-12-29 10:41:51 1514562111.030215: $GPGSV,3,2,11,20,46,081,48,21,77,222,47,24,40,130,49,27,19,306,28*70
2017-12-29 10:41:51 1514562111.030282: $GPGSV,3,3,11,32,09,229,34,29,03,187,05,138,38,213,00*7D
2017-12-29 10:41:51 1514562111.143657: $GPZDA,154150.89,29,12,2017,00,00*6F
2017-12-29 10:41:51 1514562111.143787: $GPGGA,154150,3946.9614,N,08404.9887,W,1,09,0.80,290.00,M,-33.324,M,,*72
2017-12-29 10:41:51 1514562111.143852: $GPRMC,154150,A,3946.9614,N,08404.9887,W,0.1867,0.000,291217,,*39
2017-12-29 10:41:51 1514562111.143913: $GPGSA,A,3,10,13,15,18,20,21,24,27,32,,,,1.7,0.8,1.3*33
2017-12-29 10:41:51 1514562111.595849: $GPZDA,154152.00,29,12,2017,00,00*6C
2017-12-29 10:41:51 1514562111.596018: $GPGGA,154152,3946.9614,N,08404.9887,W,1,09,0.80,290.00,M,-33.324,M,,*70
2017-12-29 10:41:51 1514562111.596087: $GPRMC,154152,A,3946.9614,N,08404.9887,W,0.0000,0.000,291217,,*33
2017-12-29 10:41:51 1514562111.596152: $GPGSA,A,3,10,13,15,18,20,21,24,27,32,,,,1.7,0.8,1.3*33
2017-12-29 10:41:52 1514562112.414181: $GPZDA,154153.00,29,12,2017,00,00*6D
2017-12-29 10:41:52 1514562112.418383: $GPGGA,154153,3946.9614,N,08404.9880,W,1,09,0.80,290.08,M,-33.324,M,,*7E
2017-12-29 10:41:52 1514562112.418485: $GPRMC,154153,A,3946.9614,N,08404.9880,W,0.0000,0.000,291217,,*35
2017-12-29 10:41:52 1514562112.418549: $GPGSA,A,3,10,13,15,18,20,21,24,27,32,,,,1.7,0.8,1.3*33
2017-12-29 10:41:53 1514562113.749204: $GPGSV,3,1,11,10,30,289,43,13,21,045,45,15,52,049,51,18,61,312,43*7F
2017-12-29 10:41:53 1514562113.749374: $GPGSV,3,2,11,20,46,081,49,21,77,222,47,24,40,130,49,27,19,306,29*70
2017-12-29 10:41:53 1514562113.749441: $GPGSV,3,3,11,32,09,229,35,29,03,187,32,138,38,213,47*7B
2017-12-29 10:41:53 1514562113.862841: $GPZDA,154154.00,29,12,2017,00,00*6A
2017-12-29 10:41:53 1514562113.862981: $GPGGA,154154,3946.9614,N,08404.9880,W,1,11,0.80,290.08,M,-33.324,M,,*70
2017-12-29 10:41:53 1514562113.863048: $GPRMC,154154,A,3946.9614,N,08404.9880,W,0.0000,0.000,291217,,*32
2017-12-29 10:41:53 1514562113.863113: $GPGSA,A,3,10,13,15,18,20,21,24,27,32,29,138,,1.7,0.8,1.3*02
2017-12-29 10:41:54 1514562114.423632: $GPZDA,154155.00,29,12,2017,00,00*6B
2017-12-29 10:41:54 1514562114.423799: $GPGGA,154155,3946.9610,N,08404.9880,W,1,11,1.00,289.44,M,-33.324,M,,*7C
2017-12-29 10:41:54 1514562114.423866: $GPRMC,154155,A,3946.9610,N,08404.9880,W,0.0000,0.000,291217,,*37
2017-12-29 10:41:54 1514562114.423927: $GPGSA,A,3,10,13,15,18,20,21,24,27,32,29,138,,1.7,1.0,1.3*0B
2017-12-29 10:41:54 1514562114.423987: $GPGBS,154155,10.91,M,10.38,M,30.89,M*0E
2017-12-29 10:41:55 1514562115.414526: $GPZDA,154156.00,29,12,2017,00,00*68
2017-12-29 10:41:55 1514562115.414690: $GPGGA,154156,3946.9609,N,08404.9873,W,1,11,0.80,289.52,M,-33.324,M,,*75
2017-12-29 10:41:55 1514562115.414757: $GPRMC,154156,A,3946.9609,N,08404.9873,W,0.0000,0.000,291217,,*30
2017-12-29 10:41:55 1514562115.414818: $GPGSA,A,3,10,13,15,18,20,21,24,27,32,29,138,,1.7,0.8,1.3*02
2017-12-29 10:41:55 1514562115.414878: $GPGBS,154156,10.91,M,10.38,M,30.89,M*0D
2017-12-29 10:41:56 1514562116.749905: $GPGSV,3,1,11,10,30,289,42,13,21,045,45,15,52,049,51,18,61,312,44*79
2017-12-29 10:41:56 1514562116.750096: $GPGSV,3,2,11,20,46,081,49,21,77,222,47,24,40,130,49,27,19,306,27*7E
2017-12-29 10:41:56 1514562116.750164: $GPGSV,3,3,11,32,09,229,35,29,03,187,32,138,38,213,45*79
2017-12-29 10:41:56 1514562116.863517: $GPZDA,154157.00,29,12,2017,00,00*69
2017-12-29 10:41:56 1514562116.863770: $GPGGA,154157,3946.9609,N,08404.9873,W,1,11,0.80,289.52,M,-33.324,M,,*74
2017-12-29 10:41:56 1514562116.863843: $GPRMC,154157,A,3946.9609,N,08404.9873,W,0.0000,0.000,291217,,*31
2017-12-29 10:41:56 1514562116.863905: $GPGSA,A,3,10,13,15,18,20,21,24,27,32,29,138,,1.7,0.8,1.3*02
