2018-01-12 03:21:17 1515745277.788959: {"class":"VERSION","release":"3.16","rev":"3.16-4","proto_major":3,"proto_minor":11}
2018-01-12 03:21:17 1515745277.789302: {"class":"DEVICES","devices":[{"class":"DEVICE","path":"/dev/ttyUSB0","driver":"SiRF","subtype":"9\u0006GSD4e_4.1.2-P1_RPATCH.05-F-GPS-4R-1510281 11/03/2015 307","activated":"2018-01-12T08:21:17.364Z","flags":1,"native":1,"bps":4800,"parity":"N","stopbits":1,"cycle":1.00}]}
2018-01-12 03:21:17 1515745277.789418: {"class":"WATCH","enable":true,"json":false,"nmea":true,"raw":0,"scaled":false,"timing":false,"split24":false,"pps":false}
2018-01-12 03:21:17 1515745277.971658: $GPZDA,082118.66,12,01,2018,00,00*6D
2018-01-12 03:21:17 1515745277.971828: $GPGGA,082118,3946.9533,N,08404.9858,W,1,11,1.00,300.27,M,-33.324,M,,*7D
2018-01-12 03:21:17 1515745277.971894: $GPRMC,082118,A,3946.9533,N,08404.9858,W,0.4854,63.204,120118,,*08
2018-01-12 03:21:17 1515745277.971955: $GPGSA,A,3,2,5,6,9,12,17,19,24,25,23,138,,2.4,1.0,2.1*09
2018-01-12 03:21:19 1515745279.052814: $GPZDA,082119.34,12,01,2018,00,00*6B
2018-01-12 03:21:19 1515745279.052983: $GPGGA,082119,3946.9533,N,08404.9858,W,1,11,1.00,300.27,M,-33.324,M,,*7C
2018-01-12 03:21:19 1515745279.053052: $GPRMC,082119,A,3946.9533,N,08404.9858,W,0.2365,125.883,120118,,*30
2018-01-12 03:21:19 1515745279.053113: $GPGSA,A,3,2,5,6,9,12,17,19,24,25,23,138,,2.4,1.0,2.1*09
2018-01-12 03:21:19 1515745279.053171: $GPGBS,082119,11.98,M,14.47,M,47.88,M*09
2018-01-12 03:21:20 1515745280.195298: $GPGSV,3,1,12,02,61,277,48,05,21,195,45,06,69,021,49,12,48,298,51*76
2018-01-12 03:21:20 1515745280.195469: $GPGSV,3,2,12,17,35,100,47,19,53,087,41,25,14,319,42,09,11,093,09*78
2018-01-12 03:21:20 1515745280.195535: $GPGSV,3,3,12,23,08,060,08,24,06,250,05,04,34,256,00,138,38,213,00*4C
2018-01-12 03:21:20 1515745280.308650: $GPZDA,082120.00,12,01,2018,00,00*66
2018-01-12 03:21:20 1515745280.308782: $GPGGA,082120,3946.9541,N,08404.9857,W,1,07,1.00,300.15,M,-33.324,M,,*7A
2018-01-12 03:21:20 1515745280.308846: $GPRMC,082120,A,3946.9541,N,08404.9857,W,0.0407,322.014,120118,,*32
2018-01-12 03:21:20 1515745280.308906: $GPGSA,A,3,2,5,6,12,17,19,25,,,,,,2.4,1.0,2.1*0D
2018-01-12 03:21:20 1515745280.759779: $GPZDA,082121.00,12,01,2018,00,00*67
2018-01-12 03:21:20 1515745280.759918: $GPGGA,082121,3946.9544,N,08404.9856,W,1,07,0.80,299.39,M,-33.324,M,,*79
2018-01-12 03:21:20 1515745280.759983: $GPRMC,082121,A,3946.9544,N,08404.9856,W,0.2172,85.763,120118,,*0B
2018-01-12 03:21:20 1515745280.760042: $GPGSA,A,3,2,5,6,12,17,19,25,,,,,,2.4,0.8,2.1*04
2018-01-12 03:21:21 1515745281.361934: $GPZDA,082122.00,12,01,2018,00,00*64
2018-01-12 03:21:21 1515745281.362103: $GPGGA,082122,3946.9544,N,08404.9856,W,1,07,0.80,299.39,M,-33.324,M,,*7A
2018-01-12 03:21:21 1515745281.362169: $GPRMC,082122,A,3946.9544,N,08404.9856,W,0.0000,0.000,120118,,*31
2018-01-12 03:21:21 1515745281.362229: $GPGSA,A,3,2,5,6,12,17,19,25,,,,,,2.4,0.8,2.1*04
2018-01-12 03:21:22 1515745282.696926: $GPGSV,3,1,12,02,61,277,48,05,21,195,45,06,69,021,49,12,48,298,51*76
2018-01-12 03:21:22 1515745282.702014: $GPGSV,3,2,12,17,35,100,47,19,53,087,41,25,14,319,42,09,11,093,30*72
2018-01-12 03:21:22 1515745282.702112: $GPGSV,3,3,12,23,08,060,28,24,06,250,18,04,34,256,00,138,38,213,40*46
2018-01-12 03:21:22 1515745282.810962: $GPZDA,082123.00,12,01,2018,00,00*65
2018-01-12 03:21:22 1515745282.811129: $GPGGA,082123,3946.9547,N,08404.9855,W,1,11,0.80,298.62,M,-33.324,M,,*73
2018-01-12 03:21:22 1515745282.811192: $GPRMC,082123,A,3946.9547,N,08404.9855,W,0.0000,0.000,120118,,*30
2018-01-12 03:21:22 1515745282.811253: $GPGSA,A,3,2,5,6,12,17,19,25,9,23,24,138,,2.4,0.8,2.1*00
2018-01-12 03:21:23 1515745283.361432: $GPZDA,082124.00,12,01,2018,00,00*62
2018-01-12 03:21:23 1515745283.361596: $GPGGA,082124,3946.9547,N,08404.9855,W,1,11,0.80,298.62,M,-33.324,M,,*74
2018-01-12 03:21:23 1515745283.361661: $GPRMC,082124,A,3946.9547,N,08404.9855,W,0.0000,0.000,120118,,*37
2018-01-12 03:21:23 1515745283.361721: $GPGSA,A,3,2,5,6,12,17,19,25,9,23,24,138,,2.4,0.8,2.1*00
