2017-11-16 13:55:48 1510858548.600685: {"class":"VERSION","release":"3.17","rev":"3.17","proto_major":3,"proto_minor":12}
2017-11-16 13:55:48 1510858548.601216: {"class":"DEVICES","devices":[{"class":"DEVICE","path":"/dev/ttyUSB0","driver":"SiRF","subtype":"9\u0006GSD4e_4.1.2-P1_RPATCH.05-F-GPS-4R-1510281 11/03/2015 307","activated":"2017-11-16T18:55:48.512Z","flags":1,"native":1,"bps":4800,"parity":"N","stopbits":1,"cycle":1.00}]}
2017-11-16 13:55:48 1510858548.601337: {"class":"WATCH","enable":true,"json":false,"nmea":true,"raw":0,"scaled":false,"timing":false,"split24":false,"pps":false}
2017-11-16 13:55:49 1510858549.733222: $GPGSV,3,1,11,10,35,295,40,13,15,046,43,15,45,051,51,18,65,321,48*76
2017-11-16 13:55:49 1510858549.733419: $GPGSV,3,2,11,20,39,088,48,21,72,202,47,24,46,123,45,27,19,298,00*72
2017-11-16 13:55:49 1510858549.733483: $GPGSV,3,3,11,32,14,232,36,08,03,328,14,138,38,213,43*7A
2017-11-16 13:55:49 1510858549.846806: $GPZDA,185548.00,16,11,2017,00,00*60
2017-11-16 13:55:49 1510858549.846953: $GPGGA,185548,3946.9607,N,08404.9833,W,2,09,1.00,305.65,M,-33.324,M,,*7A
2017-11-16 13:55:49 1510858549.847016: $GPRMC,185548,A,3946.9607,N,08404.9833,W,0.0000,0.000,161117,,*32
2017-11-16 13:55:49 1510858549.847092: $GPGSA,A,3,10,13,15,18,20,21,24,32,138,,,,1.6,1.0,1.3*04
2017-11-16 13:55:50 1510858550.377892: $GPZDA,185549.00,16,11,2017,00,00*61
2017-11-16 13:55:50 1510858550.378077: $GPGGA,185549,3946.9607,N,08404.9833,W,2,09,1.00,305.65,M,-33.324,M,,*7B
2017-11-16 13:55:50 1510858550.378142: $GPRMC,185549,A,3946.9607,N,08404.9833,W,0.0000,0.000,161117,,*33
2017-11-16 13:55:50 1510858550.378202: $GPGSA,A,3,10,13,15,18,20,21,24,32,138,,,,1.6,1.0,1.3*04
2017-11-16 13:55:51 1510858551.403880: $GPZDA,185550.00,16,11,2017,00,00*69
2017-11-16 13:55:51 1510858551.404087: $GPGGA,185550,3946.9607,N,08404.9833,W,2,09,1.00,305.65,M,-33.324,M,,*73
2017-11-16 13:55:51 1510858551.404156: $GPRMC,185550,A,3946.9607,N,08404.9833,W,0.0000,0.000,161117,,*3B
2017-11-16 13:55:51 1510858551.404221: $GPGSA,A,3,10,13,15,18,20,21,24,32,138,,,,1.6,1.0,1.3*04
2017-11-16 13:55:52 1510858552.714601: $GPGSV,3,1,11,10,35,295,40,13,15,046,43,15,45,051,51,18,65,321,48*76
2017-11-16 13:55:52 1510858552.714782: $GPGSV,3,2,11,20,39,088,48,21,72,202,47,24,46,123,46,27,19,298,32*70
2017-11-16 13:55:52 1510858552.714845: $GPGSV,3,3,11,32,14,232,36,08,03,328,16,138,38,213,44*7F
2017-11-16 13:55:52 1510858552.828170: $GPZDA,185551.00,16,11,2017,00,00*68
2017-11-16 13:55:52 1510858552.828369: $GPGGA,185551,3946.9607,N,08404.9833,W,2,11,1.00,305.65,M,-33.324,M,,*7B
2017-11-16 13:55:52 1510858552.828434: $GPRMC,185551,A,3946.9607,N,08404.9833,W,0.0000,0.000,161117,,*3A
2017-11-16 13:55:52 1510858552.828491: $GPGSA,A,3,10,13,15,18,20,21,24,27,32,8,138,,1.6,1.0,1.3*39
2017-11-16 13:55:53 1510858553.378157: $GPZDA,185552.00,16,11,2017,00,00*6B
2017-11-16 13:55:53 1510858553.378324: $GPGGA,185552,3946.9607,N,08404.9833,W,2,11,1.00,305.65,M,-33.324,M,,*78
2017-11-16 13:55:53 1510858553.378389: $GPRMC,185552,A,3946.9607,N,08404.9833,W,0.0000,0.000,161117,,*39
2017-11-16 13:55:53 1510858553.378447: $GPGSA,A,3,10,13,15,18,20,21,24,27,32,8,138,,1.6,1.0,1.3*39
2017-11-16 13:55:54 1510858554.402999: $GPZDA,185553.00,16,11,2017,00,00*6A
2017-11-16 13:55:54 1510858554.403178: $GPGGA,185553,3946.9607,N,08404.9833,W,2,11,1.00,305.65,M,-33.324,M,,*79
2017-11-16 13:55:54 1510858554.403246: $GPRMC,185553,A,3946.9607,N,08404.9833,W,0.0000,0.000,161117,,*38
2017-11-16 13:55:54 1510858554.403323: $GPGSA,A,3,10,13,15,18,20,21,24,27,32,8,138,,1.6,1.0,1.3*39
2017-11-16 13:55:55 1510858555.716272: $GPGSV,3,1,11,10,35,295,41,13,15,046,43,15,45,051,51,18,65,321,48*77
2017-11-16 13:55:55 1510858555.716392: $GPGSV,3,2,11,20,39,088,48,21,72,202,47,24,46,123,45,27,19,298,32*73
2017-11-16 13:55:55 1510858555.716425: $GPGSV,3,3,11,32,14,232,36,08,03,328,24,138,38,213,42*78
2017-11-16 13:55:55 1510858555.829125: $GPZDA,185554.00,16,11,2017,00,00*6D
2017-11-16 13:55:55 1510858555.829187: $GPGGA,185554,3946.9607,N,08404.9833,W,2,11,1.00,305.65,M,-33.324,M,,*7E
2017-11-16 13:55:55 1510858555.829253: $GPRMC,185554,A,3946.9607,N,08404.9833,W,0.0000,0.000,161117,,*3F
2017-11-16 13:55:55 1510858555.829282: $GPGSA,A,3,10,13,15,18,20,21,24,27,32,8,138,,1.6,1.0,1.3*39
2017-11-16 13:55:56 1510858556.399179: $GPZDA,185555.00,16,11,2017,00,00*6C
2017-11-16 13:55:56 1510858556.399290: $GPGGA,185555,3946.9607,N,08404.9833,W,2,11,1.00,305.65,M,-33.324,M,,*7F
2017-11-16 13:55:56 1510858556.399321: $GPRMC,185555,A,3946.9607,N,08404.9833,W,0.0000,0.000,161117,,*3E
2017-11-16 13:55:56 1510858556.399349: $GPGSA,A,3,10,13,15,18,20,21,24,27,32,8,138,,1.6,1.0,1.3*39
2017-11-16 13:55:57 1510858557.379120: $GPZDA,185556.00,16,11,2017,00,00*6F
2017-11-16 13:55:57 1510858557.379255: $GPGGA,185556,3946.9607,N,08404.9833,W,2,11,1.00,305.65,M,-33.324,M,,*7C
2017-11-16 13:55:57 1510858557.379287: $GPRMC,185556,A,3946.9607,N,08404.9833,W,0.0000,0.000,161117,,*3D
2017-11-16 13:55:57 1510858557.379317: $GPGSA,A,3,10,13,15,18,20,21,24,27,32,8,138,,1.6,1.0,1.3*39
2017-11-16 13:55:58 1510858558.715929: $GPGSV,3,1,11,10,35,295,41,13,15,046,43,15,45,051,51,18,65,321,48*77
2017-11-16 13:55:58 1510858558.716103: $GPGSV,3,2,11,20,39,088,47,21,72,202,46,24,46,123,45,27,19,298,32*7D
2017-11-16 13:55:58 1510858558.716164: $GPGSV,3,3,11,32,14,232,37,08,03,328,25,138,38,213,43*79
2017-11-16 13:55:58 1510858558.829303: $GPZDA,185557.00,16,11,2017,00,00*6E
2017-11-16 13:55:58 1510858558.829522: $GPGGA,185557,3946.9607,N,08404.9833,W,2,11,1.00,305.65,M,-33.324,M,,*7D
2017-11-16 13:55:58 1510858558.829588: $GPRMC,185557,A,3946.9607,N,08404.9833,W,0.0000,0.000,161117,,*3C
2017-11-16 13:55:58 1510858558.829643: $GPGSA,A,3,10,13,15,18,20,21,24,27,32,8,138,,1.6,1.0,1.3*39
2017-11-16 13:55:59 1510858559.406006: $GPZDA,185558.00,16,11,2017,00,00*61
2017-11-16 13:55:59 1510858559.406126: $GPGGA,185558,3946.9607,N,08404.9833,W,2,11,1.00,305.65,M,-33.324,M,,*72
2017-11-16 13:55:59 1510858559.406159: $GPRMC,185558,A,3946.9607,N,08404.9833,W,0.0000,0.000,161117,,*33
2017-11-16 13:55:59 1510858559.406187: $GPGSA,A,3,10,13,15,18,20,21,24,27,32,8,138,,1.6,1.0,1.3*39
2017-11-16 13:56:00 1510858560.406241: $GPZDA,185559.00,16,11,2017,00,00*60
2017-11-16 13:56:00 1510858560.406429: $GPGGA,185559,3946.9607,N,08404.9833,W,2,11,1.00,305.65,M,-33.324,M,,*73
2017-11-16 13:56:01 1510858561.791693: $GPRMC,185559,A,3946.9607,N,08404.9833,W,0.0000,0.000,161117,,*32
2017-11-16 13:56:01 1510858561.791845: $GPGSA,A,3,10,13,15,18,20,21,24,27,32,8,138,,1.6,1.0,1.3*39
2017-11-16 13:56:01 1510858561.791949: $GPGSV,3,1,11,10,35,295,35,13,15,046,43,15,45,051,51,18,65,321,48*74
2017-11-16 13:56:01 1510858561.792013: $GPGSV,3,2,11,20,39,088,47,21,72,202,46,24,46,123,45,27,19,298,32*7D
2017-11-16 13:56:01 1510858561.792072: $GPGSV,3,3,11,32,14,232,36,08,03,328,25,138,38,213,43*78
2017-11-16 13:56:01 1510858561.826180: $GPZDA,185600.00,16,11,2017,00,00*6F
2017-11-16 13:56:01 1510858561.826336: $GPGGA,185600,3946.9604,N,08404.9834,W,2,11,1.00,306.41,M,-33.324,M,,*7D
2017-11-16 13:56:01 1510858561.826399: $GPRMC,185600,A,3946.9604,N,08404.9834,W,0.0000,0.000,161117,,*39
2017-11-16 13:56:01 1510858561.826457: $GPGSA,A,3,10,13,15,18,20,21,24,27,32,8,138,,1.6,1.0,1.3*39
2017-11-16 13:56:02 1510858562.451767: $GPZDA,185601.00,16,11,2017,00,00*6E
2017-11-16 13:56:02 1510858562.451947: $GPGGA,185601,3946.9604,N,08404.9834,W,2,11,1.00,306.41,M,-33.324,M,,*7C
2017-11-16 13:56:02 1510858562.452013: $GPRMC,185601,A,3946.9604,N,08404.9834,W,0.0000,0.000,161117,,*38
2017-11-16 13:56:02 1510858562.452072: $GPGSA,A,3,10,13,15,18,20,21,24,27,32,8,138,,1.6,1.0,1.3*39
2017-11-16 13:56:03 1510858563.408419: $GPZDA,185602.00,16,11,2017,00,00*6D
2017-11-16 13:56:03 1510858563.408601: $GPGGA,185602,3946.9604,N,08404.9834,W,2,11,1.00,306.41,M,-33.324,M,,*7F
2017-11-16 13:56:03 1510858563.408666: $GPRMC,185602,A,3946.9604,N,08404.9834,W,0.0000,0.000,161117,,*3B
2017-11-16 13:56:03 1510858563.408724: $GPGSA,A,3,10,13,15,18,20,21,24,27,32,8,138,,1.6,1.0,1.3*39
