2018-01-12 04:20:05 1515748805.423211: {"class":"VERSION","release":"3.16","rev":"3.16-4","proto_major":3,"proto_minor":11}
2018-01-12 04:20:05 1515748805.423557: {"class":"DEVICES","devices":[{"class":"DEVICE","path":"/dev/ttyUSB0","driver":"SiRF","subtype":"9\u0006GSD4e_4.1.2-P1_RPATCH.05-F-GPS-4R-1510281 11/03/2015 307","activated":"2018-01-12T09:20:05.314Z","flags":1,"native":1,"bps":4800,"parity":"N","stopbits":1,"cycle":1.00}]}
2018-01-12 04:20:05 1515748805.423673: {"class":"WATCH","enable":true,"json":false,"nmea":true,"raw":0,"scaled":false,"timing":false,"split24":false,"pps":false}
2018-01-12 04:20:05 1515748805.950522: $GPZDA,092006.38,12,01,2018,00,00*69
2018-01-12 04:20:05 1515748805.950694: $GPGGA,092006,3946.9657,N,08404.9730,W,1,10,1.60,293.04,M,-33.324,M,,*7F
2018-01-12 04:20:05 1515748805.950761: $GPRMC,092006,A,3946.9657,N,08404.9730,W,0.0000,0.000,120118,,*39
2018-01-12 04:20:05 1515748805.950822: $GPGSA,A,3,2,5,6,12,25,29,9,19,23,138,,,2.4,1.6,2.1*04
2018-01-12 04:20:07 1515748807.116621: $GPGSV,3,1,12,02,71,343,44,05,49,198,49,06,47,054,44,12,52,252,50*7D
2018-01-12 04:20:07 1515748807.116792: $GPGSV,3,2,12,25,32,301,41,29,10,307,43,09,19,067,02,17,15,120,03*73
2018-01-12 04:20:07 1515748807.116859: $GPGSV,3,3,12,19,32,114,02,23,06,037,02,04,54,283,00,138,38,213,00*49
2018-01-12 04:20:07 1515748807.230063: $GPZDA,092007.00,12,01,2018,00,00*63
2018-01-12 04:20:07 1515748807.230180: $GPGGA,092007,3946.9660,N,08404.9729,W,1,06,1.60,292.28,M,-33.324,M,,*7A
2018-01-12 04:20:07 1515748807.230246: $GPRMC,092007,A,3946.9660,N,08404.9729,W,0.0000,0.000,120118,,*34
2018-01-12 04:20:07 1515748807.230306: $GPGSA,A,3,2,5,6,12,25,29,,,,,,,2.4,1.6,2.1*0E
2018-01-12 04:20:07 1515748807.681238: $GPZDA,092008.00,12,01,2018,00,00*6C
2018-01-12 04:20:07 1515748807.681398: $GPGGA,092008,3946.9660,N,08404.9729,W,1,06,0.80,292.28,M,-33.324,M,,*7A
2018-01-12 04:20:07 1515748807.681464: $GPRMC,092008,A,3946.9660,N,08404.9729,W,0.0000,0.000,120118,,*3B
2018-01-12 04:20:07 1515748807.681525: $GPGSA,A,3,2,5,6,12,25,29,,,,,,,2.4,0.8,2.1*01
2018-01-12 04:20:08 1515748808.405882: $GPZDA,092009.00,12,01,2018,00,00*6D
2018-01-12 04:20:08 1515748808.406043: $GPGGA,092009,3946.9660,N,08404.9729,W,1,06,0.80,292.28,M,-33.324,M,,*7B
2018-01-12 04:20:08 1515748808.406110: $GPRMC,092009,A,3946.9660,N,08404.9729,W,0.0000,0.000,120118,,*3A
2018-01-12 04:20:08 1515748808.406171: $GPGSA,A,3,2,5,6,12,25,29,,,,,,,2.4,0.8,2.1*01
2018-01-12 04:20:09 1515748809.741970: $GPGSV,3,1,12,02,71,343,44,05,49,198,49,06,47,054,44,12,52,252,50*7D
2018-01-12 04:20:09 1515748809.742136: $GPGSV,3,2,12,25,32,301,42,29,10,307,43,09,19,067,21,17,15,120,28*78
2018-01-12 04:20:09 1515748809.742202: $GPGSV,3,3,12,19,32,114,18,23,06,037,23,04,54,283,00,138,38,213,04*45
2018-01-12 04:20:09 1515748809.855718: $GPZDA,092010.00,12,01,2018,00,00*65
2018-01-12 04:20:09 1515748809.855849: $GPGGA,092010,3946.9660,N,08404.9729,W,1,11,0.80,292.28,M,-33.324,M,,*75
2018-01-12 04:20:09 1515748809.855913: $GPRMC,092010,A,3946.9660,N,08404.9729,W,0.0000,0.000,120118,,*32
2018-01-12 04:20:09 1515748809.855973: $GPGSA,A,3,2,5,6,12,25,29,9,17,19,23,138,,2.4,0.8,2.1*0D
2018-01-12 04:20:10 1515748810.407788: $GPZDA,092011.00,12,01,2018,00,00*64
2018-01-12 04:20:10 1515748810.407935: $GPGGA,092011,3946.9660,N,08404.9729,W,1,11,0.80,292.28,M,-33.324,M,,*74
2018-01-12 04:20:10 1515748810.408001: $GPRMC,092011,A,3946.9660,N,08404.9729,W,0.0000,0.000,120118,,*33
2018-01-12 04:20:10 1515748810.408061: $GPGSA,A,3,2,5,6,12,25,29,9,17,19,23,138,,2.4,0.8,2.1*0D
2018-01-12 04:20:11 1515748811.407386: $GPZDA,092012.00,12,01,2018,00,00*67
2018-01-12 04:20:11 1515748811.407553: $GPGGA,092012,3946.9660,N,08404.9729,W,1,11,0.80,292.28,M,-33.324,M,,*77
2018-01-12 04:20:11 1515748811.407619: $GPRMC,092012,A,3946.9660,N,08404.9729,W,0.0000,0.000,120118,,*30
2018-01-12 04:20:11 1515748811.407680: $GPGSA,A,3,2,5,6,12,25,29,9,17,19,23,138,,2.4,0.8,2.1*0D
2018-01-12 04:20:11 1515748811.407738: $GPGBS,092012,11.98,M,14.47,M,47.88,M*02
