2017-12-01 17:56:29 1512168989.147271: {"class":"VERSION","release":"3.16","rev":"3.16-4","proto_major":3,"proto_minor":11}
2017-12-01 17:56:29 1512168989.147674: {"class":"DEVICES","devices":[{"class":"DEVICE","path":"/dev/ttyUSB0","driver":"SiRF","subtype":"9\u0006GSD4e_4.1.2-P1_RPATCH.05-F-GPS-4R-1510281 11/03/2015 307","activated":"2017-12-01T22:56:29.123Z","flags":1,"native":1,"bps":4800,"parity":"N","stopbits":1,"cycle":1.00}]}
2017-12-01 17:56:29 1512168989.147791: {"class":"WATCH","enable":true,"json":false,"nmea":true,"raw":0,"scaled":false,"timing":false,"split24":false,"pps":false}
2017-12-01 17:56:30 1512168990.087862: $GPZDA,225630.33,01,12,2017,00,00*60
2017-12-01 17:56:30 1512168990.088044: $GPGGA,225630,3946.9740,N,08404.9833,W,1,12,0.80,301.20,M,-33.325,M,,*79
2017-12-01 17:56:30 1512168990.088111: $GPRMC,225630,A,3946.9740,N,08404.9833,W,0.1867,0.000,011217,,*38
2017-12-01 17:56:30 1512168990.088175: $GPGSA,A,3,1,3,10,14,16,22,29,25,26,31,32,138,2.0,0.8,1.5*0C
2017-12-01 17:56:30 1512168990.088234: $GPGBS,225630,10.70,M,15.43,M,35.28,M*07
2017-12-01 17:56:31 1512168991.253593: $GPGSV,3,1,12,01,12,262,34,03,32,309,48,10,09,159,41,14,63,072,43*7D
2017-12-01 17:56:31 1512168991.253779: $GPGSV,3,2,12,16,11,189,40,22,47,288,45,29,06,082,07,25,27,046,43*7F
2017-12-01 17:56:31 1512168991.253845: $GPGSV,3,3,12,26,40,175,45,31,76,357,46,32,45,096,45,138,38,213,40*43
2017-12-01 17:56:31 1512168991.365679: $GPZDA,225631.00,01,12,2017,00,00*61
2017-12-01 17:56:31 1512168991.365826: $GPGGA,225631,3946.9743,N,08404.9832,W,1,11,0.80,300.44,M,-33.325,M,,*7A
2017-12-01 17:56:31 1512168991.365893: $GPRMC,225631,A,3946.9743,N,08404.9832,W,0.2959,54.767,011217,,*03
2017-12-01 17:56:31 1512168991.365953: $GPGSA,A,3,1,3,10,14,16,22,25,26,31,32,138,,2.0,0.8,1.5*07
2017-12-01 17:56:31 1512168991.817837: $GPZDA,225632.00,01,12,2017,00,00*62
2017-12-01 17:56:31 1512168991.818025: $GPGGA,225632,3946.9739,N,08404.9832,W,1,11,0.80,299.80,M,-33.325,M,,*7D
2017-12-01 17:56:31 1512168991.818095: $GPRMC,225632,A,3946.9739,N,08404.9832,W,0.0000,0.000,011217,,*3D
2017-12-01 17:56:31 1512168991.818157: $GPGSA,A,3,1,3,10,14,16,22,25,26,31,32,138,,2.0,0.8,1.5*07
2017-12-01 17:56:32 1512168992.373683: $GPZDA,225633.00,01,12,2017,00,00*63
2017-12-01 17:56:32 1512168992.373872: $GPGGA,225633,3946.9739,N,08404.9832,W,1,11,0.80,299.80,M,-33.325,M,,*7C
2017-12-01 17:56:32 1512168992.373940: $GPRMC,225633,A,3946.9739,N,08404.9832,W,0.0000,0.000,011217,,*3C
2017-12-01 17:56:32 1512168992.374003: $GPGSA,A,3,1,3,10,14,16,22,25,26,31,32,138,,2.0,0.8,1.5*07
2017-12-01 17:56:33 1512168993.710179: $GPGSV,3,1,12,01,12,262,35,03,32,309,48,10,09,159,42,14,63,072,43*7F
2017-12-01 17:56:33 1512168993.710374: $GPGSV,3,2,12,16,11,189,40,22,47,288,46,29,06,082,22,25,27,046,43*7B
2017-12-01 17:56:33 1512168993.710442: $GPGSV,3,3,12,26,40,175,44,31,76,357,46,32,45,096,45,138,38,213,46*44
2017-12-01 17:56:33 1512168993.823541: $GPZDA,225634.00,01,12,2017,00,00*64
2017-12-01 17:56:33 1512168993.823715: $GPGGA,225634,3946.9739,N,08404.9832,W,1,12,0.80,299.80,M,-33.325,M,,*78
2017-12-01 17:56:33 1512168993.823781: $GPRMC,225634,A,3946.9739,N,08404.9832,W,0.0000,0.000,011217,,*3B
2017-12-01 17:56:33 1512168993.823843: $GPGSA,A,3,1,3,10,14,16,22,29,25,26,31,32,138,2.0,0.8,1.5*0C
2017-12-01 17:56:34 1512168994.373443: $GPZDA,225635.00,01,12,2017,00,00*65
2017-12-01 17:56:34 1512168994.373619: $GPGGA,225635,3946.9739,N,08404.9832,W,1,12,0.80,299.80,M,-33.325,M,,*79
2017-12-01 17:56:34 1512168994.373687: $GPRMC,225635,A,3946.9739,N,08404.9832,W,0.3423,4.197,011217,,*37
2017-12-01 17:56:34 1512168994.373748: $GPGSA,A,3,1,3,10,14,16,22,29,25,26,31,32,138,2.0,0.8,1.5*0C
2017-12-01 17:56:35 1512168995.372745: $GPZDA,225636.00,01,12,2017,00,00*66
2017-12-01 17:56:35 1512168995.372915: $GPGGA,225636,3946.9739,N,08404.9832,W,1,12,0.80,299.80,M,-33.325,M,,*7A
2017-12-01 17:56:35 1512168995.372988: $GPRMC,225636,A,3946.9739,N,08404.9832,W,0.2422,93.794,011217,,*0F
2017-12-01 17:56:35 1512168995.373054: $GPGSA,A,3,1,3,10,14,16,22,29,25,26,31,32,138,2.0,0.8,1.5*0C
2017-12-01 17:56:35 1512168995.373200: $GPGBS,225636,10.70,M,15.43,M,35.28,M*01
2017-12-01 17:56:36 1512168996.707251: $GPGSV,3,1,12,01,12,262,35,03,32,309,48,10,09,159,41,14,63,072,42*7D
2017-12-01 17:56:36 1512168996.707437: $GPGSV,3,2,12,16,11,189,41,22,47,288,46,29,06,082,20,25,27,046,43*78
2017-12-01 17:56:36 1512168996.707505: $GPGSV,3,3,12,26,40,175,45,31,76,357,45,32,45,096,43,138,38,213,45*43
2017-12-01 17:56:36 1512168996.820811: $GPZDA,225637.00,01,12,2017,00,00*67
2017-12-01 17:56:36 1512168996.820965: $GPGGA,225637,3946.9739,N,08404.9839,W,1,12,0.80,299.72,M,-33.325,M,,*7D
2017-12-01 17:56:36 1512168996.821032: $GPRMC,225637,A,3946.9739,N,08404.9839,W,0.0000,0.000,011217,,*33
2017-12-01 17:56:36 1512168996.821093: $GPGSA,A,3,1,3,10,14,16,22,29,25,26,31,32,138,2.0,0.8,1.5*0C
2017-12-01 17:56:37 1512168997.374324: $GPZDA,225638.00,01,12,2017,00,00*68
2017-12-01 17:56:37 1512168997.374509: $GPGGA,225638,3946.9736,N,08404.9840,W,1,12,0.80,300.49,M,-33.325,M,,*7A
2017-12-01 17:56:37 1512168997.374576: $GPRMC,225638,A,3946.9736,N,08404.9840,W,0.0000,0.000,011217,,*3D
2017-12-01 17:56:37 1512168997.374637: $GPGSA,A,3,1,3,10,14,16,22,29,25,26,31,32,138,2.0,0.8,1.5*0C
2017-12-01 17:56:38 1512168998.374504: $GPZDA,225639.00,01,12,2017,00,00*69
2017-12-01 17:56:38 1512168998.374679: $GPGGA,225639,3946.9732,N,08404.9840,W,1,12,0.80,299.85,M,-33.325,M,,*7E
2017-12-01 17:56:38 1512168998.374746: $GPRMC,225639,A,3946.9732,N,08404.9840,W,0.0000,0.000,011217,,*38
2017-12-01 17:56:38 1512168998.374807: $GPGSA,A,3,1,3,10,14,16,22,29,25,26,31,32,138,2.0,0.8,1.5*0C
2017-12-01 17:56:39 1512168999.709962: $GPGSV,3,1,12,01,12,262,35,03,32,309,48,10,09,159,42,14,63,072,42*7E
2017-12-01 17:56:39 1512168999.710143: $GPGSV,3,2,12,16,11,189,41,22,47,288,46,29,06,082,19,25,27,046,42*73
2017-12-01 17:56:39 1512168999.710210: $GPGSV,3,3,12,26,40,175,46,31,76,357,46,32,45,096,43,138,38,213,45*43
2017-12-01 17:56:39 1512168999.823741: $GPZDA,225640.00,01,12,2017,00,00*67
2017-12-01 17:56:39 1512168999.823917: $GPGGA,225640,3946.9732,N,08404.9840,W,1,12,0.80,299.85,M,-33.325,M,,*70
2017-12-01 17:56:39 1512168999.823984: $GPRMC,225640,A,3946.9732,N,08404.9840,W,0.0000,0.000,011217,,*36
2017-12-01 17:56:39 1512168999.824045: $GPGSA,A,3,1,3,10,14,16,22,29,25,26,31,32,138,2.0,0.8,1.5*0C
2017-12-01 17:56:40 1512169000.373151: $GPZDA,225641.00,01,12,2017,00,00*66
2017-12-01 17:56:40 1512169000.373329: $GPGGA,225641,3946.9728,N,08404.9847,W,2,12,1.20,299.13,M,-33.325,M,,*7A
2017-12-01 17:56:40 1512169000.373403: $GPRMC,225641,A,3946.9728,N,08404.9847,W,0.0000,0.000,011217,,*3B
2017-12-01 17:56:40 1512169000.373465: $GPGSA,A,3,1,3,10,14,16,22,29,25,26,31,32,138,2.0,1.2,1.5*07
2017-12-01 17:56:41 1512169001.375060: $GPZDA,225642.00,01,12,2017,00,00*65
2017-12-01 17:56:41 1512169001.375244: $GPGGA,225642,3946.9728,N,08404.9847,W,2,12,0.80,299.13,M,-33.325,M,,*72
2017-12-01 17:56:41 1512169001.375317: $GPRMC,225642,A,3946.9728,N,08404.9847,W,0.0000,0.000,011217,,*38
2017-12-01 17:56:41 1512169001.375404: $GPGSA,A,3,1,3,10,14,16,22,29,25,26,31,32,138,2.0,0.8,1.5*0C
2017-12-01 17:56:42 1512169002.710826: $GPGSV,3,1,12,01,12,262,35,03,32,309,47,10,09,159,41,14,63,072,42*72
2017-12-01 17:56:42 1512169002.710987: $GPGSV,3,2,12,16,11,189,41,22,47,288,46,29,06,082,10,25,27,046,42*7A
2017-12-01 17:56:42 1512169002.711053: $GPGSV,3,3,12,26,40,175,45,31,76,357,46,32,45,096,43,138,38,213,46*43
2017-12-01 17:56:42 1512169002.824713: $GPZDA,225643.00,01,12,2017,00,00*64
2017-12-01 17:56:42 1512169002.824872: $GPGGA,225643,3946.9728,N,08404.9847,W,2,12,0.80,299.13,M,-33.325,M,,*73
2017-12-01 17:56:42 1512169002.824937: $GPRMC,225643,A,3946.9728,N,08404.9847,W,0.0000,0.000,011217,,*39
2017-12-01 17:56:42 1512169002.824999: $GPGSA,A,3,1,3,10,14,16,22,29,25,26,31,32,138,2.0,0.8,1.5*0C
2017-12-01 17:56:43 1512169003.449661: $GPZDA,225644.00,01,12,2017,00,00*63
2017-12-01 17:56:43 1512169003.449836: $GPGGA,225644,3946.9728,N,08404.9847,W,2,12,0.80,299.13,M,-33.325,M,,*74
2017-12-01 17:56:43 1512169003.449904: $GPRMC,225644,A,3946.9728,N,08404.9847,W,0.0000,0.000,011217,,*3E
2017-12-01 17:56:43 1512169003.450017: $GPGSA,A,3,1,3,10,14,16,22,29,25,26,31,32,138,2.0,0.8,1.5*0C
2017-12-01 17:56:44 1512169004.374525: $GPZDA,225645.00,01,12,2017,00,00*62
2017-12-01 17:56:44 1512169004.374698: $GPGGA,225645,3946.9728,N,08404.9847,W,2,12,0.80,299.13,M,-33.325,M,,*75
2017-12-01 17:56:44 1512169004.374766: $GPRMC,225645,A,3946.9728,N,08404.9847,W,0.0000,0.000,011217,,*3F
2017-12-01 17:56:44 1512169004.374829: $GPGSA,A,3,1,3,10,14,16,22,29,25,26,31,32,138,2.0,0.8,1.5*0C
2017-12-01 17:56:45 1512169005.711152: $GPGSV,3,1,12,01,12,262,35,03,32,309,47,10,09,159,41,14,63,072,42*72
2017-12-01 17:56:45 1512169005.711388: $GPGSV,3,2,12,16,11,189,41,22,47,288,46,29,06,082,18,25,27,046,42*72
2017-12-01 17:56:45 1512169005.711467: $GPGSV,3,3,12,26,40,175,45,31,76,357,46,32,45,096,44,138,38,213,46*44
2017-12-01 17:56:45 1512169005.824506: $GPZDA,225646.00,01,12,2017,00,00*61
2017-12-01 17:56:45 1512169005.824663: $GPGGA,225646,3946.9732,N,08404.9847,W,2,12,0.80,299.77,M,-33.325,M,,*7F
2017-12-01 17:56:45 1512169005.824730: $GPRMC,225646,A,3946.9732,N,08404.9847,W,0.0000,0.000,011217,,*37
2017-12-01 17:56:45 1512169005.824793: $GPGSA,A,3,1,3,10,14,16,22,29,25,26,31,32,138,2.0,0.8,1.5*0C
2017-12-01 17:56:46 1512169006.375397: $GPZDA,225647.00,01,12,2017,00,00*60
2017-12-01 17:56:46 1512169006.375572: $GPGGA,225647,3946.9732,N,08404.9847,W,2,12,0.80,299.77,M,-33.325,M,,*7E
2017-12-01 17:56:46 1512169006.375640: $GPRMC,225647,A,3946.9732,N,08404.9847,W,0.0000,0.000,011217,,*36
2017-12-01 17:56:46 1512169006.375701: $GPGSA,A,3,1,3,10,14,16,22,29,25,26,31,32,138,2.0,0.8,1.5*0C
2017-12-01 17:56:47 1512169007.374894: $GPZDA,225648.00,01,12,2017,00,00*6F
2017-12-01 17:56:47 1512169007.375071: $GPGGA,225648,3946.9729,N,08404.9848,W,2,12,0.80,300.53,M,-33.325,M,,*73
2017-12-01 17:56:47 1512169007.375142: $GPRMC,225648,A,3946.9729,N,08404.9848,W,0.0000,0.000,011217,,*3C
2017-12-01 17:56:47 1512169007.375206: $GPGSA,A,3,1,3,10,14,16,22,29,25,26,31,32,138,2.0,0.8,1.5*0C
2017-12-01 17:56:47 1512169007.375271: $GPGBS,225648,2.67,M,3.86,M,8.82,M*3D
2017-12-01 17:56:48 1512169008.710094: $GPGSV,3,1,12,01,12,262,36,03,32,309,47,10,09,159,41,14,63,072,42*71
2017-12-01 17:56:48 1512169008.710261: $GPGSV,3,2,12,16,11,189,41,22,47,288,46,29,06,082,21,25,27,046,41*7B
2017-12-01 17:56:48 1512169008.710327: $GPGSV,3,3,12,26,40,175,45,31,76,357,46,32,45,096,44,138,38,213,45*47
2017-12-01 17:56:48 1512169008.823473: $GPZDA,225649.00,01,12,2017,00,00*6E
2017-12-01 17:56:48 1512169008.823660: $GPGGA,225649,3946.9729,N,08404.9848,W,2,12,0.80,300.53,M,-33.325,M,,*72
2017-12-01 17:56:48 1512169008.823728: $GPRMC,225649,A,3946.9729,N,08404.9848,W,0.0000,0.000,011217,,*3D
2017-12-01 17:56:48 1512169008.823791: $GPGSA,A,3,1,3,10,14,16,22,29,25,26,31,32,138,2.0,0.8,1.5*0C
