2017-12-01 16:14:18 1512162858.206756: {"class":"VERSION","release":"3.16","rev":"3.16-4","proto_major":3,"proto_minor":11}
2017-12-01 16:14:18 1512162858.207182: {"class":"DEVICES","devices":[{"class":"DEVICE","path":"/dev/ttyUSB0","driver":"SiRF","subtype":"9\u0006GSD4e_4.1.2-P1_RPATCH.05-F-GPS-4R-1510281 11/03/2015 307","activated":"2017-12-01T21:14:17.985Z","flags":1,"native":1,"bps":4800,"parity":"N","stopbits":1,"cycle":1.00}]}
2017-12-01 16:14:18 1512162858.207307: {"class":"WATCH","enable":true,"json":false,"nmea":true,"raw":0,"scaled":false,"timing":false,"split24":false,"pps":false}
2017-12-01 16:14:18 1512162858.385013: $GPZDA,211419.00,01,12,2017,00,00*6E
2017-12-01 16:14:18 1512162858.385161: $GPGGA,211419,3946.9599,N,08404.9827,W,2,11,0.80,305.85,M,-33.324,M,,*7E
2017-12-01 16:14:18 1512162858.385226: $GPRMC,211419,A,3946.9599,N,08404.9827,W,0.0000,0.000,011217,,*3D
2017-12-01 16:14:18 1512162858.385287: $GPGSA,A,3,1,10,12,14,18,22,25,31,32,11,138,,2.0,0.8,1.5*3D
2017-12-01 16:14:19 1512162859.388202: $GPZDA,211420.00,01,12,2017,00,00*64
2017-12-01 16:14:19 1512162859.388381: $GPGGA,211420,3946.9599,N,08404.9827,W,2,11,0.80,305.85,M,-33.324,M,,*74
2017-12-01 16:14:19 1512162859.388447: $GPRMC,211420,A,3946.9599,N,08404.9827,W,0.0000,0.000,011217,,*37
2017-12-01 16:14:19 1512162859.388508: $GPGSA,A,3,1,10,12,14,18,22,25,31,32,11,138,,2.0,0.8,1.5*3D
2017-12-01 16:14:20 1512162860.717105: $GPGSV,3,1,12,01,20,307,35,10,56,144,48,12,24,057,44,14,62,312,44*70
2017-12-01 16:14:20 1512162860.717285: $GPGSV,3,2,12,18,25,141,44,22,13,312,32,25,37,100,47,31,48,219,49*7A
2017-12-01 16:14:20 1512162860.717352: $GPGSV,3,3,12,32,70,007,47,11,10,289,30,24,03,048,00,138,38,213,46*43
2017-12-01 16:14:20 1512162860.830511: $GPZDA,211421.00,01,12,2017,00,00*65
2017-12-01 16:14:20 1512162860.830668: $GPGGA,211421,3946.9599,N,08404.9827,W,2,11,0.80,305.85,M,-33.324,M,,*75
2017-12-01 16:14:20 1512162860.830736: $GPRMC,211421,A,3946.9599,N,08404.9827,W,0.0000,0.000,011217,,*36
2017-12-01 16:14:20 1512162860.830798: $GPGSA,A,3,1,10,12,14,18,22,25,31,32,11,138,,2.0,0.8,1.5*3D
2017-12-01 16:14:21 1512162861.386750: $GPZDA,211422.00,01,12,2017,00,00*66
2017-12-01 16:14:21 1512162861.386919: $GPGGA,211422,3946.9599,N,08404.9827,W,2,11,0.80,305.85,M,-33.324,M,,*76
2017-12-01 16:14:21 1512162861.386986: $GPRMC,211422,A,3946.9599,N,08404.9827,W,0.0000,0.000,011217,,*35
2017-12-01 16:14:21 1512162861.387046: $GPGSA,A,3,1,10,12,14,18,22,25,31,32,11,138,,2.0,0.8,1.5*3D
2017-12-01 16:14:22 1512162862.384855: $GPZDA,211423.00,01,12,2017,00,00*67
2017-12-01 16:14:22 1512162862.385029: $GPGGA,211423,3946.9599,N,08404.9827,W,2,11,0.80,305.85,M,-33.324,M,,*77
2017-12-01 16:14:22 1512162862.385096: $GPRMC,211423,A,3946.9599,N,08404.9827,W,0.0000,0.000,011217,,*34
2017-12-01 16:14:22 1512162862.385157: $GPGSA,A,3,1,10,12,14,18,22,25,31,32,11,138,,2.0,0.8,1.5*3D
2017-12-01 16:14:23 1512162863.739233: $GPGSV,3,1,12,01,20,307,36,10,56,144,48,12,24,057,44,14,62,312,44*73
2017-12-01 16:14:23 1512162863.739418: $GPGSV,3,2,12,18,25,141,44,22,13,312,24,25,37,100,46,31,48,219,49*7C
2017-12-01 16:14:23 1512162863.739484: $GPGSV,3,3,12,32,70,007,46,11,10,289,27,24,03,048,00,138,38,213,46*44
2017-12-01 16:14:23 1512162863.853004: $GPZDA,211424.00,01,12,2017,00,00*60
2017-12-01 16:14:23 1512162863.853158: $GPGGA,211424,3946.9600,N,08404.9834,W,2,11,0.80,305.77,M,-33.324,M,,*7C
2017-12-01 16:14:23 1512162863.853225: $GPRMC,211424,A,3946.9600,N,08404.9834,W,0.0000,0.000,011217,,*32
2017-12-01 16:14:23 1512162863.853286: $GPGSA,A,3,1,10,12,14,18,22,25,31,32,11,138,,2.0,0.8,1.5*3D
2017-12-01 16:14:24 1512162864.403606: $GPZDA,211425.00,01,12,2017,00,00*61
2017-12-01 16:14:24 1512162864.403782: $GPGGA,211425,3946.9600,N,08404.9834,W,2,11,0.80,305.77,M,-33.324,M,,*7D
2017-12-01 16:14:24 1512162864.403847: $GPRMC,211425,A,3946.9600,N,08404.9834,W,0.0000,0.000,011217,,*33
2017-12-01 16:14:24 1512162864.403908: $GPGSA,A,3,1,10,12,14,18,22,25,31,32,11,138,,2.0,0.8,1.5*3D
2017-12-01 16:14:25 1512162865.404306: $GPZDA,211426.00,01,12,2017,00,00*62
2017-12-01 16:14:25 1512162865.404527: $GPGGA,211426,3946.9600,N,08404.9834,W,2,11,0.80,305.77,M,-33.324,M,,*7E
2017-12-01 16:14:25 1512162865.404595: $GPRMC,211426,A,3946.9600,N,08404.9834,W,0.0000,0.000,011217,,*30
2017-12-01 16:14:25 1512162865.404657: $GPGSA,A,3,1,10,12,14,18,22,25,31,32,11,138,,2.0,0.8,1.5*3D
2017-12-01 16:14:26 1512162866.732154: $GPGSV,3,1,12,01,20,307,36,10,56,144,48,12,24,057,45,14,62,312,44*72
2017-12-01 16:14:26 1512162866.732335: $GPGSV,3,2,12,18,25,141,44,22,13,312,25,25,37,100,46,31,48,219,49*7D
2017-12-01 16:14:26 1512162866.732402: $GPGSV,3,3,12,32,70,007,46,11,10,289,27,24,03,048,00,138,38,213,46*44
2017-12-01 16:14:26 1512162866.845935: $GPZDA,211427.00,01,12,2017,00,00*63
2017-12-01 16:14:26 1512162866.846110: $GPGGA,211427,3946.9600,N,08404.9834,W,2,11,0.80,305.77,M,-33.324,M,,*7F
2017-12-01 16:14:26 1512162866.846177: $GPRMC,211427,A,3946.9600,N,08404.9834,W,0.0000,0.000,011217,,*31
2017-12-01 16:14:26 1512162866.846239: $GPGSA,A,3,1,10,12,14,18,22,25,31,32,11,138,,2.0,0.8,1.5*3D
2017-12-01 16:14:27 1512162867.404337: $GPZDA,211428.00,01,12,2017,00,00*6C
2017-12-01 16:14:27 1512162867.404517: $GPGGA,211428,3946.9600,N,08404.9834,W,2,11,0.80,305.77,M,-33.324,M,,*70
2017-12-01 16:14:27 1512162867.404585: $GPRMC,211428,A,3946.9600,N,08404.9834,W,0.0000,0.000,011217,,*3E
2017-12-01 16:14:27 1512162867.404646: $GPGSA,A,3,1,10,12,14,18,22,25,31,32,11,138,,2.0,0.8,1.5*3D
2017-12-01 16:14:28 1512162868.386530: $GPZDA,211429.00,01,12,2017,00,00*6D
2017-12-01 16:14:28 1512162868.386691: $GPGGA,211429,3946.9600,N,08404.9834,W,2,11,0.80,305.77,M,-33.324,M,,*71
2017-12-01 16:14:28 1512162868.386775: $GPRMC,211429,A,3946.9600,N,08404.9834,W,0.0000,0.000,011217,,*3F
2017-12-01 16:14:28 1512162868.386837: $GPGSA,A,3,1,10,12,14,18,22,25,31,32,11,138,,2.0,0.8,1.5*3D
2017-12-01 16:14:29 1512162869.723094: $GPGSV,3,1,12,01,20,307,37,10,56,144,48,12,24,057,45,14,62,312,44*73
2017-12-01 16:14:29 1512162869.723258: $GPGSV,3,2,12,18,25,141,45,22,13,312,25,25,37,100,47,31,48,219,49*7D
2017-12-01 16:14:29 1512162869.723324: $GPGSV,3,3,12,32,70,007,46,11,10,289,27,24,03,048,00,138,38,213,46*44
2017-12-01 16:14:29 1512162869.836789: $GPZDA,211430.00,01,12,2017,00,00*65
2017-12-01 16:14:29 1512162869.836957: $GPGGA,211430,3946.9600,N,08404.9834,W,2,11,0.80,305.77,M,-33.324,M,,*79
2017-12-01 16:14:29 1512162869.837022: $GPRMC,211430,A,3946.9600,N,08404.9834,W,0.0000,0.000,011217,,*37
2017-12-01 16:14:29 1512162869.837083: $GPGSA,A,3,1,10,12,14,18,22,25,31,32,11,138,,2.0,0.8,1.5*3D
2017-12-01 16:14:30 1512162870.463203: $GPZDA,211431.00,01,12,2017,00,00*64
2017-12-01 16:14:30 1512162870.463385: $GPGGA,211431,3946.9600,N,08404.9834,W,2,11,0.80,305.77,M,-33.324,M,,*78
2017-12-01 16:14:30 1512162870.463452: $GPRMC,211431,A,3946.9600,N,08404.9834,W,0.0000,0.000,011217,,*36
2017-12-01 16:14:30 1512162870.463513: $GPGSA,A,3,1,10,12,14,18,22,25,31,32,11,138,,2.0,0.8,1.5*3D
2017-12-01 16:14:31 1512162871.405542: $GPZDA,211432.00,01,12,2017,00,00*67
2017-12-01 16:14:31 1512162871.405710: $GPGGA,211432,3946.9600,N,08404.9834,W,2,11,0.80,305.77,M,-33.324,M,,*7B
2017-12-01 16:14:31 1512162871.405777: $GPRMC,211432,A,3946.9600,N,08404.9834,W,0.0000,0.000,011217,,*35
2017-12-01 16:14:31 1512162871.405838: $GPGSA,A,3,1,10,12,14,18,22,25,31,32,11,138,,2.0,0.8,1.5*3D
2017-12-01 16:14:32 1512162872.717232: $GPGSV,3,1,12,01,20,307,38,10,56,144,47,12,24,057,45,14,62,312,44*73
2017-12-01 16:14:32 1512162872.717412: $GPGSV,3,2,12,18,25,141,45,22,13,312,25,25,37,100,47,31,48,219,49*7D
2017-12-01 16:14:32 1512162872.717478: $GPGSV,3,3,12,32,70,007,46,11,10,289,27,24,03,048,17,138,38,213,46*42
2017-12-01 16:14:32 1512162872.830831: $GPZDA,211433.00,01,12,2017,00,00*66
2017-12-01 16:14:32 1512162872.830971: $GPGGA,211433,3946.9600,N,08404.9834,W,2,11,0.80,305.77,M,-33.324,M,,*7A
2017-12-01 16:14:32 1512162872.831036: $GPRMC,211433,A,3946.9600,N,08404.9834,W,0.0000,0.000,011217,,*34
2017-12-01 16:14:32 1512162872.831098: $GPGSA,A,3,1,10,12,14,18,22,25,31,32,11,138,,2.0,0.8,1.5*3D
2017-12-01 16:14:33 1512162873.404405: $GPZDA,211434.00,01,12,2017,00,00*61
2017-12-01 16:14:33 1512162873.404640: $GPGGA,211434,3946.9600,N,08404.9834,W,2,11,0.80,305.77,M,-33.324,M,,*7D
2017-12-01 16:14:33 1512162873.404708: $GPRMC,211434,A,3946.9600,N,08404.9834,W,0.0000,0.000,011217,,*33
2017-12-01 16:14:33 1512162873.404770: $GPGSA,A,3,1,10,12,14,18,22,25,31,32,11,138,,2.0,0.8,1.5*3D
2017-12-01 16:14:34 1512162874.403711: $GPZDA,211435.00,01,12,2017,00,00*60
2017-12-01 16:14:34 1512162874.403879: $GPGGA,211435,3946.9595,N,08404.9834,W,2,11,0.80,305.13,M,-33.324,M,,*71
2017-12-01 16:14:34 1512162874.403946: $GPRMC,211435,A,3946.9595,N,08404.9834,W,0.0000,0.000,011217,,*3D
2017-12-01 16:14:34 1512162874.404010: $GPGSA,A,3,1,10,12,14,18,22,25,31,32,11,138,,2.0,0.8,1.5*3D
2017-12-01 16:14:35 1512162875.738807: $GPGSV,3,1,12,01,20,307,37,10,56,144,48,12,24,057,45,14,62,312,45*72
2017-12-01 16:14:35 1512162875.738983: $GPGSV,3,2,12,18,25,141,44,22,13,312,25,25,37,100,47,31,48,219,49*7C
2017-12-01 16:14:35 1512162875.739052: $GPGSV,3,3,12,32,70,007,45,11,10,289,22,24,03,048,10,138,38,213,46*43
2017-12-01 16:14:35 1512162875.852456: $GPZDA,211436.00,01,12,2017,00,00*63
2017-12-01 16:14:35 1512162875.852629: $GPGGA,211436,3946.9595,N,08404.9834,W,2,12,0.80,305.13,M,-33.324,M,,*71
2017-12-01 16:14:35 1512162875.852696: $GPRMC,211436,A,3946.9595,N,08404.9834,W,0.0000,0.000,011217,,*3E
2017-12-01 16:14:35 1512162875.852759: $GPGSA,A,3,1,10,12,14,18,22,25,31,32,11,24,138,2.0,0.8,1.5*3B
2017-12-01 16:14:36 1512162876.382217: $GPZDA,211437.00,01,12,2017,00,00*62
2017-12-01 16:14:36 1512162876.382403: $GPGGA,211437,3946.9595,N,08404.9834,W,2,12,0.80,305.13,M,-33.324,M,,*70
2017-12-01 16:14:36 1512162876.382472: $GPRMC,211437,A,3946.9595,N,08404.9834,W,0.0000,0.000,011217,,*3F
2017-12-01 16:14:36 1512162876.382533: $GPGSA,A,3,1,10,12,14,18,22,25,31,32,11,24,138,2.0,0.8,1.5*3B
2017-12-01 16:14:37 1512162877.399009: $GPZDA,211438.00,01,12,2017,00,00*6D
2017-12-01 16:14:37 1512162877.399182: $GPGGA,211438,3946.9595,N,08404.9834,W,2,12,0.80,305.13,M,-33.324,M,,*7F
2017-12-01 16:14:37 1512162877.399255: $GPRMC,211438,A,3946.9595,N,08404.9834,W,0.0000,0.000,011217,,*30
2017-12-01 16:14:37 1512162877.399316: $GPGSA,A,3,1,10,12,14,18,22,25,31,32,11,24,138,2.0,0.8,1.5*3B
