2017-12-01 11:50:15 1512147015.956887: {"class":"VERSION","release":"3.16","rev":"3.16-4","proto_major":3,"proto_minor":11}
2017-12-01 11:50:15 1512147015.957490: {"class":"DEVICES","devices":[{"class":"DEVICE","path":"/dev/ttyUSB0","driver":"SiRF","subtype":"9\u0006GSD4e_4.1.2-P1_RPATCH.05-F-GPS-4R-1510281 11/03/2015 307","activated":"2017-12-01T16:50:15.509Z","flags":1,"native":1,"bps":4800,"parity":"N","stopbits":1,"cycle":1.00}]}
2017-12-01 11:50:15 1512147015.957618: {"class":"WATCH","enable":true,"json":false,"nmea":true,"raw":0,"scaled":false,"timing":false,"split24":false,"pps":false}
2017-12-01 11:50:16 1512147016.366095: $GPZDA,165017.00,01,12,2017,00,00*64
2017-12-01 11:50:16 1512147016.366270: $GPGGA,165017,3946.9587,N,08404.9843,W,2,11,0.80,294.50,M,-33.324,M,,*78
2017-12-01 11:50:16 1512147016.366336: $GPRMC,165017,A,3946.9587,N,08404.9843,W,0.0000,0.000,011217,,*3A
2017-12-01 11:50:16 1512147016.366398: $GPGSA,A,3,13,15,18,20,21,24,27,29,10,5,138,,2.0,0.8,1.5*34
2017-12-01 11:50:17 1512147017.693029: $GPGSV,3,1,12,13,40,048,46,15,73,064,46,18,45,288,44,20,60,055,44*7E
2017-12-01 11:50:17 1512147017.693209: $GPGSV,3,2,12,21,69,303,46,24,22,147,44,27,10,322,43,29,22,193,44*71
2017-12-01 11:50:17 1512147017.693275: $GPGSV,3,3,12,10,15,274,41,04,10,132,00,05,12,079,32,138,38,213,46*44
2017-12-01 11:50:17 1512147017.807297: $GPZDA,165018.00,01,12,2017,00,00*6B
2017-12-01 11:50:17 1512147017.807466: $GPGGA,165018,3946.9587,N,08404.9843,W,2,11,0.80,294.50,M,-33.324,M,,*77
2017-12-01 11:50:17 1512147017.807531: $GPRMC,165018,A,3946.9587,N,08404.9843,W,0.0000,0.000,011217,,*35
2017-12-01 11:50:17 1512147017.807592: $GPGSA,A,3,13,15,18,20,21,24,27,29,10,5,138,,2.0,0.8,1.5*34
2017-12-01 11:50:18 1512147018.367284: $GPZDA,165019.00,01,12,2017,00,00*6A
2017-12-01 11:50:18 1512147018.367454: $GPGGA,165019,3946.9587,N,08404.9843,W,2,11,0.80,294.50,M,-33.324,M,,*76
2017-12-01 11:50:18 1512147018.367521: $GPRMC,165019,A,3946.9587,N,08404.9843,W,0.0000,0.000,011217,,*34
2017-12-01 11:50:18 1512147018.367581: $GPGSA,A,3,13,15,18,20,21,24,27,29,10,5,138,,2.0,0.8,1.5*34
2017-12-01 11:50:20 1512147020.224169: $GPZDA,165020.00,01,12,2017,00,00*60
2017-12-01 11:50:20 1512147020.224349: $GPGGA,165020,3946.9587,N,08404.9843,W,2,11,0.80,294.50,M,-33.324,M,,*7C
2017-12-01 11:50:20 1512147020.224418: $GPRMC,165020,A,3946.9587,N,08404.9843,W,0.0000,0.000,011217,,*3E
2017-12-01 11:50:20 1512147020.224480: $GPGSA,A,3,13,15,18,20,21,24,27,29,10,5,138,,2.0,0.8,1.5*34
2017-12-01 11:50:20 1512147020.224538: $GPGBS,165020,2.67,M,3.86,M,8.82,M*32
2017-12-01 11:50:21 1512147021.011142: $GPGSV,3,1,12,13,40,048,45,15,73,064,45,18,46,288,44,20,60,055,44*7D
2017-12-01 11:50:21 1512147021.011324: $GPGSV,3,2,12,21,70,303,46,24,23,147,44,27,10,322,43,29,21,193,44*7B
2017-12-01 11:50:21 1512147021.011448: $GPGSV,3,3,12,10,15,274,41,04,10,132,00,05,12,079,32,138,38,213,46*44
2017-12-01 11:50:21 1512147021.124780: $GPZDA,165021.00,01,12,2017,00,00*61
2017-12-01 11:50:21 1512147021.124949: $GPGGA,165021,3946.9587,N,08404.9843,W,2,11,0.80,294.50,M,-33.324,M,,*7D
2017-12-01 11:50:21 1512147021.125014: $GPRMC,165021,A,3946.9587,N,08404.9843,W,0.0000,0.000,011217,,*3F
2017-12-01 11:50:21 1512147021.125074: $GPGSA,A,3,13,15,18,20,21,24,27,29,10,5,138,,2.0,0.8,1.5*34
2017-12-01 11:50:21 1512147021.575754: $GPZDA,165022.00,01,12,2017,00,00*62
2017-12-01 11:50:21 1512147021.575926: $GPGGA,165022,3946.9584,N,08404.9843,W,2,11,0.80,295.27,M,-33.324,M,,*7C
2017-12-01 11:50:21 1512147021.575993: $GPRMC,165022,A,3946.9584,N,08404.9843,W,0.0000,0.000,011217,,*3F
2017-12-01 11:50:21 1512147021.576053: $GPGSA,A,3,13,15,18,20,21,24,27,29,10,5,138,,2.0,0.8,1.5*34
2017-12-01 11:50:22 1512147022.351561: $GPZDA,165023.00,01,12,2017,00,00*63
2017-12-01 11:50:22 1512147022.351745: $GPGGA,165023,3946.9584,N,08404.9843,W,2,11,0.80,295.27,M,-33.324,M,,*7D
2017-12-01 11:50:22 1512147022.351817: $GPRMC,165023,A,3946.9584,N,08404.9843,W,0.0000,0.000,011217,,*3E
2017-12-01 11:50:22 1512147022.351878: $GPGSA,A,3,13,15,18,20,21,24,27,29,10,5,138,,2.0,0.8,1.5*34
2017-12-01 11:50:23 1512147023.685800: $GPGSV,3,1,12,13,40,048,46,15,73,064,45,18,46,288,44,20,60,055,44*7E
2017-12-01 11:50:23 1512147023.685982: $GPGSV,3,2,12,21,70,303,46,24,23,147,44,27,10,322,44,29,21,193,44*7C
2017-12-01 11:50:23 1512147023.686050: $GPGSV,3,3,12,10,15,274,42,04,10,132,00,05,12,079,31,138,38,213,46*44
2017-12-01 11:50:23 1512147023.799218: $GPZDA,165024.00,01,12,2017,00,00*64
2017-12-01 11:50:23 1512147023.799389: $GPGGA,165024,3946.9584,N,08404.9843,W,2,11,0.80,295.27,M,-33.324,M,,*7A
2017-12-01 11:50:23 1512147023.799457: $GPRMC,165024,A,3946.9584,N,08404.9843,W,0.0000,0.000,011217,,*39
2017-12-01 11:50:23 1512147023.799519: $GPGSA,A,3,13,15,18,20,21,24,27,29,10,5,138,,2.0,0.8,1.5*34
2017-12-01 11:50:24 1512147024.424859: $GPZDA,165025.00,01,12,2017,00,00*65
2017-12-01 11:50:24 1512147024.425028: $GPGGA,165025,3946.9584,N,08404.9843,W,2,11,0.80,295.27,M,-33.324,M,,*7B
2017-12-01 11:50:24 1512147024.425094: $GPRMC,165025,A,3946.9584,N,08404.9843,W,0.0000,0.000,011217,,*38
2017-12-01 11:50:24 1512147024.425157: $GPGSA,A,3,13,15,18,20,21,24,27,29,10,5,138,,2.0,0.8,1.5*34
2017-12-01 11:50:25 1512147025.347844: $GPZDA,165026.00,01,12,2017,00,00*66
2017-12-01 11:50:25 1512147025.348031: $GPGGA,165026,3946.9584,N,08404.9843,W,2,11,0.80,295.27,M,-33.324,M,,*78
2017-12-01 11:50:25 1512147025.348100: $GPRMC,165026,A,3946.9584,N,08404.9843,W,0.0000,0.000,011217,,*3B
2017-12-01 11:50:25 1512147025.348163: $GPGSA,A,3,13,15,18,20,21,24,27,29,10,5,138,,2.0,0.8,1.5*34
