2017-11-15 19:18:56 1510791536.735591: {"class":"VERSION","release":"3.17","rev":"3.17","proto_major":3,"proto_minor":12}
2017-11-15 19:18:56 1510791536.736009: {"class":"DEVICES","devices":[{"class":"DEVICE","path":"/dev/ttyUSB0","driver":"SiRF","subtype":"9\u0006GSD4e_4.1.2-P1_RPATCH.05-F-GPS-4R-1510281 11/03/2015 307","activated":"2017-11-16T00:18:56.488Z","flags":1,"native":1,"bps":4800,"parity":"N","stopbits":1,"cycle":1.00}]}
2017-11-15 19:18:56 1510791536.736171: {"class":"WATCH","enable":true,"json":false,"nmea":true,"raw":0,"scaled":false,"timing":false,"split24":false,"pps":false}
2017-11-15 19:18:57 1510791537.680748: $GPGSV,3,1,11,32,39,103,29,14,58,085,20,22,50,277,16,26,48,174,22*74
2017-11-15 19:18:57 1510791537.681146: $GPGSV,3,2,11,31,71,016,20,29,09,075,12,03,37,304,14,25,21,042,00*7D
2017-11-15 19:18:57 1510791537.681295: $GPGSV,3,3,11,16,18,190,00,01,08,256,00,23,08,298,00*4D
2017-11-15 19:18:57 1510791537.793973: $GPZDA,001856.00,16,11,2017,00,00*6F
2017-11-15 19:18:57 1510791537.794132: $GPGGA,001856,3946.9592,N,08404.9596,W,1,07,1.20,269.94,M,-33.324,M,,*72
2017-11-15 19:18:57 1510791537.794213: $GPRMC,001856,A,3946.9592,N,08404.9596,W,0.1867,180.000,161117,,*31
2017-11-15 19:18:57 1510791537.794271: $GPGSA,A,3,32,14,22,26,31,29,3,,,,,,3.4,1.2,2.9*07
2017-11-15 19:18:58 1510791538.344870: $GPZDA,001857.00,16,11,2017,00,00*6E
2017-11-15 19:18:58 1510791538.345032: $GPGGA,001857,3946.9588,N,08404.9590,W,1,07,1.20,270.78,M,-33.324,M,,*74
2017-11-15 19:18:58 1510791538.345093: $GPRMC,001857,A,3946.9588,N,08404.9590,W,0.9060,167.792,161117,,*3F
2017-11-15 19:18:58 1510791538.345150: $GPGSA,A,3,32,14,22,26,31,29,3,,,,,,3.4,1.2,2.9*07
2017-11-15 19:18:59 1510791539.345733: $GPZDA,001858.00,16,11,2017,00,00*61
2017-11-15 19:18:59 1510791539.345897: $GPGGA,001858,3946.9588,N,08404.9590,W,1,07,1.20,270.78,M,-33.324,M,,*7B
2017-11-15 19:18:59 1510791539.345957: $GPRMC,001858,A,3946.9588,N,08404.9590,W,1.4168,152.696,161117,,*36
2017-11-15 19:18:59 1510791539.346013: $GPGSA,A,3,32,14,22,26,31,29,3,,,,,,3.4,1.2,2.9*07
2017-11-15 19:19:00 1510791540.666496: $GPGSV,3,1,11,32,39,103,29,14,58,085,20,22,50,277,16,26,48,174,22*74
2017-11-15 19:19:00 1510791540.666663: $GPGSV,3,2,11,31,71,016,21,29,09,075,12,03,37,304,15,25,21,042,00*7D
2017-11-15 19:19:00 1510791540.666780: $GPGSV,3,3,11,16,18,190,00,01,08,256,00,23,08,298,00*4D
2017-11-15 19:19:00 1510791540.780351: $GPZDA,001859.00,16,11,2017,00,00*60
2017-11-15 19:19:00 1510791540.780512: $GPGGA,001859,3946.9584,N,08404.9590,W,1,07,1.20,270.14,M,-33.324,M,,*7C
2017-11-15 19:19:00 1510791540.780574: $GPRMC,001859,A,3946.9584,N,08404.9590,W,1.0269,184.197,161117,,*30
2017-11-15 19:19:00 1510791540.780630: $GPGSA,A,3,32,14,22,26,31,29,3,,,,,,3.4,1.2,2.9*07
2017-11-15 19:19:01 1510791541.405226: $GPZDA,001900.00,16,11,2017,00,00*6D
2017-11-15 19:19:01 1510791541.405411: $GPGGA,001900,3946.9584,N,08404.9590,W,1,07,1.20,270.14,M,-33.324,M,,*71
2017-11-15 19:19:01 1510791541.405473: $GPRMC,001900,A,3946.9584,N,08404.9590,W,1.0269,184.197,161117,,*3D
2017-11-15 19:19:01 1510791541.405529: $GPGSA,A,3,32,14,22,26,31,29,3,,,,,,3.4,1.2,2.9*07
2017-11-15 19:19:02 1510791542.329901: $GPZDA,001901.00,16,11,2017,00,00*6C
2017-11-15 19:19:02 1510791542.330236: $GPGGA,001901,3946.9581,N,08404.9591,W,1,07,1.40,270.91,M,-33.324,M,,*7F
2017-11-15 19:19:02 1510791542.330317: $GPRMC,001901,A,3946.9581,N,08404.9591,W,1.3082,161.818,161117,,*39
2017-11-15 19:19:02 1510791542.330376: $GPGSA,A,3,32,14,22,26,31,29,3,,,,,,3.4,1.4,2.9*01
2017-11-15 19:19:03 1510791543.665645: $GPGSV,3,1,11,32,39,103,29,14,58,085,19,22,50,277,17,26,48,174,22*7F
2017-11-15 19:19:03 1510791543.665822: $GPGSV,3,2,11,31,71,016,21,29,09,075,04,03,37,304,15,25,21,042,00*7A
2017-11-15 19:19:03 1510791543.665884: $GPGSV,3,3,11,16,18,190,00,01,08,256,00,23,08,298,00*4D
2017-11-15 19:19:03 1510791543.779207: $GPZDA,001902.00,16,11,2017,00,00*6F
2017-11-15 19:19:03 1510791543.779392: $GPGGA,001902,3946.9580,N,08404.9584,W,1,06,1.40,270.99,M,-33.324,M,,*70
2017-11-15 19:19:03 1510791543.779454: $GPRMC,001902,A,3946.9580,N,08404.9584,W,1.4168,152.696,161117,,*35
2017-11-15 19:19:03 1510791543.779560: $GPGSA,A,3,32,14,22,26,31,3,,,,,,,3.4,1.4,2.9*0A
2017-11-15 19:19:04 1510791544.331076: $GPZDA,001903.00,16,11,2017,00,00*6E
2017-11-15 19:19:04 1510791544.331326: $GPGGA,001903,3946.9580,N,08404.9584,W,1,06,1.40,270.99,M,-33.324,M,,*71
2017-11-15 19:19:04 1510791544.331394: $GPRMC,001903,A,3946.9580,N,08404.9584,W,1.5558,145.035,161117,,*3B
2017-11-15 19:19:04 1510791544.331451: $GPGSA,A,3,32,14,22,26,31,3,,,,,,,3.4,1.4,2.9*0A
2017-11-15 19:19:05 1510791545.330687: $GPZDA,001904.00,16,11,2017,00,00*69
2017-11-15 19:19:05 1510791545.330877: $GPGGA,001904,3946.9577,N,08404.9577,W,1,06,1.40,271.83,M,-33.324,M,,*78
2017-11-15 19:19:05 1510791545.330961: $GPRMC,001904,A,3946.9577,N,08404.9577,W,0.9066,129.458,161117,,*38
2017-11-15 19:19:05 1510791545.331019: $GPGSA,A,3,32,14,22,26,31,3,,,,,,,3.4,1.4,2.9*0A
2017-11-15 19:19:06 1510791546.665964: $GPGSV,3,1,11,32,39,103,29,14,58,085,19,22,50,277,17,26,48,174,22*7F
2017-11-15 19:19:06 1510791546.666158: $GPGSV,3,2,11,31,71,016,21,29,09,075,04,03,37,304,15,16,18,190,07*79
2017-11-15 19:19:06 1510791546.666220: $GPGSV,3,3,11,25,21,042,00,01,08,256,00,23,08,298,00*49
