2018-01-12 04:27:12 1515749232.674102: {"class":"VERSION","release":"3.16","rev":"3.16-4","proto_major":3,"proto_minor":11}
2018-01-12 04:27:12 1515749232.674577: {"class":"DEVICES","devices":[{"class":"DEVICE","path":"/dev/ttyUSB0","driver":"SiRF","subtype":"9\u0006GSD4e_4.1.2-P1_RPATCH.05-F-GPS-4R-1510281 11/03/2015 307","activated":"2018-01-12T09:27:12.646Z","flags":1,"native":1,"bps":4800,"parity":"N","stopbits":1,"cycle":1.00}]}
2018-01-12 04:27:12 1515749232.674700: {"class":"WATCH","enable":true,"json":false,"nmea":true,"raw":0,"scaled":false,"timing":false,"split24":false,"pps":false}
2018-01-12 04:27:12 1515749232.824130: $GPZDA,092713.51,12,01,2018,00,00*65
2018-01-12 04:27:12 1515749232.824371: $GPGGA,092713,3946.9688,N,08404.9706,W,1,12,1.60,304.86,M,-33.324,M,,*7C
2018-01-12 04:27:12 1515749232.824438: $GPRMC,092713,A,3946.9688,N,08404.9706,W,0.4106,230.498,120118,,*3A
2018-01-12 04:27:12 1515749232.824501: $GPGSA,A,3,2,5,6,12,25,29,9,17,19,20,23,138,2.4,1.6,2.1*00
2018-01-12 04:27:12 1515749232.824560: $GPGBS,092713,11.98,M,14.47,M,47.88,M*04
2018-01-12 04:27:13 1515749233.768274: $GPZDA,092714.19,12,01,2018,00,00*6E
2018-01-12 04:27:13 1515749233.768433: $GPGGA,092714,3946.9688,N,08404.9706,W,1,12,1.60,304.86,M,-33.324,M,,*7B
2018-01-12 04:27:13 1515749233.768500: $GPRMC,092714,A,3946.9688,N,08404.9706,W,0.2558,348.707,120118,,*3F
2018-01-12 04:27:13 1515749233.768561: $GPGSA,A,3,2,5,6,12,25,29,9,17,19,20,23,138,2.4,1.6,2.1*00
2018-01-12 04:27:13 1515749233.768620: $GPGBS,092714,11.98,M,14.47,M,47.88,M*03
2018-01-12 04:27:14 1515749234.949473: $GPGSV,3,1,12,02,71,354,44,05,53,199,50,06,45,057,40,12,50,247,50*7A
2018-01-12 04:27:14 1515749234.949635: $GPGSV,3,2,12,25,33,298,40,29,13,307,49,09,20,064,14,17,12,123,11*72
2018-01-12 04:27:14 1515749234.949700: $GPGSV,3,3,12,20,02,219,14,23,05,036,12,19,30,117,00,138,38,213,00*4A
2018-01-12 04:27:15 1515749235.062883: $GPZDA,092715.00,12,01,2018,00,00*67
2018-01-12 04:27:15 1515749235.063002: $GPGGA,092715,3946.9688,N,08404.9713,W,1,06,1.60,304.78,M,-33.324,M,,*7A
2018-01-12 04:27:15 1515749235.063067: $GPRMC,092715,A,3946.9688,N,08404.9713,W,0.2202,353.469,120118,,*33
2018-01-12 04:27:15 1515749235.063130: $GPGSA,A,3,2,5,6,12,25,29,,,,,,,2.4,1.6,2.1*0E
2018-01-12 04:27:15 1515749235.515045: $GPZDA,092716.00,12,01,2018,00,00*64
2018-01-12 04:27:15 1515749235.515193: $GPGGA,092716,3946.9688,N,08404.9713,W,1,06,1.20,304.78,M,-33.324,M,,*7D
2018-01-12 04:27:15 1515749235.515264: $GPRMC,092716,A,3946.9688,N,08404.9713,W,0.2959,54.767,120118,,*0C
2018-01-12 04:27:15 1515749235.515325: $GPGSA,A,3,2,5,6,12,25,29,,,,,,,2.4,1.2,2.1*0A
2018-01-12 04:27:16 1515749236.422444: $GPZDA,092717.00,12,01,2018,00,00*65
2018-01-12 04:27:16 1515749236.422587: $GPGGA,092717,3946.9689,N,08404.9720,W,1,06,0.80,304.70,M,-33.324,M,,*7E
2018-01-12 04:27:16 1515749236.422653: $GPRMC,092717,A,3946.9689,N,08404.9720,W,0.0000,0.000,120118,,*3C
2018-01-12 04:27:16 1515749236.422713: $GPGSA,A,3,2,5,6,12,25,29,,,,,,,2.4,0.8,2.1*01
2018-01-12 04:27:17 1515749237.754797: $GPGSV,3,1,12,02,71,354,44,05,53,199,50,06,45,057,40,12,50,247,50*7A
2018-01-12 04:27:17 1515749237.754966: $GPGSV,3,2,12,25,33,298,40,29,13,307,49,09,20,064,29,17,12,123,24*7A
2018-01-12 04:27:17 1515749237.755032: $GPGSV,3,3,12,20,02,219,28,23,05,036,22,19,30,117,12,138,38,213,48*49
2018-01-12 04:27:17 1515749237.868144: $GPZDA,092718.00,12,01,2018,00,00*6A
2018-01-12 04:27:17 1515749237.868287: $GPGGA,092718,3946.9685,N,08404.9721,W,1,12,0.80,305.47,M,-33.324,M,,*7C
2018-01-12 04:27:17 1515749237.868352: $GPRMC,092718,A,3946.9685,N,08404.9721,W,0.0000,0.000,120118,,*3E
2018-01-12 04:27:17 1515749237.868413: $GPGSA,A,3,2,5,6,12,25,29,9,17,20,23,19,138,2.4,0.8,2.1*0F
2018-01-12 04:27:18 1515749238.419282: $GPZDA,092719.00,12,01,2018,00,00*6B
2018-01-12 04:27:18 1515749238.419447: $GPGGA,092719,3946.9686,N,08404.9728,W,1,12,0.80,305.39,M,-33.324,M,,*7E
2018-01-12 04:27:18 1515749238.419532: $GPRMC,092719,A,3946.9686,N,08404.9728,W,0.0000,0.000,120118,,*35
2018-01-12 04:27:18 1515749238.419596: $GPGSA,A,3,2,5,6,12,25,29,9,17,20,23,19,138,2.4,0.8,2.1*0F
