2017-11-16 15:23:26 1510863806.217621: {"class":"VERSION","release":"3.17","rev":"3.17","proto_major":3,"proto_minor":12}
2017-11-16 15:23:26 1510863806.218113: {"class":"DEVICES","devices":[{"class":"DEVICE","path":"/dev/ttyUSB0","driver":"SiRF","subtype":"9\u0006GSD4e_4.1.2-P1_RPATCH.05-F-GPS-4R-1510281 11/03/2015 307","activated":"2017-11-16T20:23:26.136Z","flags":1,"native":1,"bps":4800,"parity":"N","stopbits":1,"cycle":1.00}]}
2017-11-16 15:23:26 1510863806.218235: {"class":"WATCH","enable":true,"json":false,"nmea":true,"raw":0,"scaled":false,"timing":false,"split24":false,"pps":false}
2017-11-16 15:23:26 1510863806.446297: $GPZDA,202325.00,16,11,2017,00,00*61
2017-11-16 15:23:26 1510863806.446463: $GPGGA,202325,3946.9575,N,08404.9858,W,2,12,1.00,308.08,M,-33.324,M,,*7C
2017-11-16 15:23:26 1510863806.446524: $GPRMC,202325,A,3946.9575,N,08404.9858,W,0.0000,0.000,161117,,*38
2017-11-16 15:23:26 1510863806.446581: $GPGSA,A,3,8,10,14,15,18,20,21,24,27,32,12,138,1.6,1.0,1.3*3D
2017-11-16 15:23:27 1510863807.369654: $GPZDA,202326.00,16,11,2017,00,00*62
2017-11-16 15:23:27 1510863807.369830: $GPGGA,202326,3946.9575,N,08404.9858,W,2,12,0.80,308.08,M,-33.324,M,,*76
2017-11-16 15:23:27 1510863807.369891: $GPRMC,202326,A,3946.9575,N,08404.9858,W,0.0000,0.000,161117,,*3B
2017-11-16 15:23:27 1510863807.369947: $GPGSA,A,3,8,10,14,15,18,20,21,24,27,32,12,138,1.6,0.8,1.3*34
2017-11-16 15:23:28 1510863808.706688: $GPGSV,3,1,12,08,06,294,36,10,68,330,51,14,28,252,46,15,12,066,27*7D
2017-11-16 15:23:28 1510863808.706864: $GPGSV,3,2,12,18,71,090,48,20,09,117,22,21,30,180,45,24,46,060,51*73
2017-11-16 15:23:28 1510863808.706924: $GPGSV,3,3,12,27,07,261,36,32,45,264,49,12,08,108,30,138,38,213,46*47
2017-11-16 15:23:28 1510863808.819973: $GPZDA,202327.00,16,11,2017,00,00*63
2017-11-16 15:23:28 1510863808.820130: $GPGGA,202327,3946.9575,N,08404.9858,W,2,12,0.80,308.08,M,-33.324,M,,*77
2017-11-16 15:23:28 1510863808.820190: $GPRMC,202327,A,3946.9575,N,08404.9858,W,0.0000,0.000,161117,,*3A
2017-11-16 15:23:28 1510863808.820246: $GPGSA,A,3,8,10,14,15,18,20,21,24,27,32,12,138,1.6,0.8,1.3*34
2017-11-16 15:23:29 1510863809.370910: $GPZDA,202328.00,16,11,2017,00,00*6C
2017-11-16 15:23:29 1510863809.371082: $GPGGA,202328,3946.9575,N,08404.9858,W,2,12,0.80,308.08,M,-33.324,M,,*78
2017-11-16 15:23:29 1510863809.371145: $GPRMC,202328,A,3946.9575,N,08404.9858,W,0.0000,0.000,161117,,*35
2017-11-16 15:23:29 1510863809.371201: $GPGSA,A,3,8,10,14,15,18,20,21,24,27,32,12,138,1.6,0.8,1.3*34
2017-11-16 15:23:30 1510863810.369289: $GPZDA,202329.00,16,11,2017,00,00*6D
2017-11-16 15:23:30 1510863810.369456: $GPGGA,202329,3946.9575,N,08404.9858,W,2,12,0.80,308.08,M,-33.324,M,,*79
2017-11-16 15:23:30 1510863810.369520: $GPRMC,202329,A,3946.9575,N,08404.9858,W,0.0000,0.000,161117,,*34
2017-11-16 15:23:30 1510863810.369576: $GPGSA,A,3,8,10,14,15,18,20,21,24,27,32,12,138,1.6,0.8,1.3*34
2017-11-16 15:23:31 1510863811.707087: $GPGSV,3,1,12,08,06,294,33,10,68,330,51,14,28,252,45,15,12,066,28*74
2017-11-16 15:23:31 1510863811.707251: $GPGSV,3,2,12,18,71,090,48,20,09,117,20,21,30,180,45,24,46,060,51*71
2017-11-16 15:23:31 1510863811.707311: $GPGSV,3,3,12,27,07,261,35,32,45,264,49,12,08,108,30,138,38,213,44*46
2017-11-16 15:23:31 1510863811.820393: $GPZDA,202330.00,16,11,2017,00,00*65
2017-11-16 15:23:31 1510863811.820579: $GPGGA,202330,3946.9575,N,08404.9858,W,2,12,0.80,308.08,M,-33.324,M,,*71
2017-11-16 15:23:31 1510863811.820657: $GPRMC,202330,A,3946.9575,N,08404.9858,W,0.0000,0.000,161117,,*3C
2017-11-16 15:23:31 1510863811.820715: $GPGSA,A,3,8,10,14,15,18,20,21,24,27,32,12,138,1.6,0.8,1.3*34
2017-11-16 15:23:32 1510863812.369944: $GPZDA,202331.00,16,11,2017,00,00*64
2017-11-16 15:23:32 1510863812.370119: $GPGGA,202331,3946.9575,N,08404.9858,W,2,12,0.80,308.08,M,-33.324,M,,*70
2017-11-16 15:23:32 1510863812.370200: $GPRMC,202331,A,3946.9575,N,08404.9858,W,0.0000,0.000,161117,,*3D
2017-11-16 15:23:32 1510863812.370259: $GPGSA,A,3,8,10,14,15,18,20,21,24,27,32,12,138,1.6,0.8,1.3*34
2017-11-16 15:23:33 1510863813.370995: $GPZDA,202332.00,16,11,2017,00,00*67
2017-11-16 15:23:33 1510863813.371247: $GPGGA,202332,3946.9575,N,08404.9858,W,2,12,0.80,308.08,M,-33.324,M,,*73
2017-11-16 15:23:33 1510863813.371315: $GPRMC,202332,A,3946.9575,N,08404.9858,W,0.0000,0.000,161117,,*3E
2017-11-16 15:23:33 1510863813.371373: $GPGSA,A,3,8,10,14,15,18,20,21,24,27,32,12,138,1.6,0.8,1.3*34
2017-11-16 15:23:34 1510863814.705294: $GPGSV,3,1,12,08,06,294,32,10,68,330,51,14,28,252,46,15,12,066,28*76
2017-11-16 15:23:34 1510863814.705483: $GPGSV,3,2,12,18,71,090,48,20,09,117,20,21,30,180,45,24,46,060,51*71
2017-11-16 15:23:34 1510863814.705545: $GPGSV,3,3,12,27,07,261,34,32,45,264,49,12,08,108,30,138,38,213,45*46
2017-11-16 15:23:34 1510863814.818612: $GPZDA,202333.00,16,11,2017,00,00*66
2017-11-16 15:23:34 1510863814.818773: $GPGGA,202333,3946.9575,N,08404.9858,W,2,12,0.80,308.08,M,-33.324,M,,*72
2017-11-16 15:23:34 1510863814.818834: $GPRMC,202333,A,3946.9575,N,08404.9858,W,0.0000,0.000,161117,,*3F
2017-11-16 15:23:34 1510863814.818890: $GPGSA,A,3,8,10,14,15,18,20,21,24,27,32,12,138,1.6,0.8,1.3*34
2017-11-16 15:23:35 1510863815.370757: $GPZDA,202334.00,16,11,2017,00,00*61
2017-11-16 15:23:35 1510863815.370919: $GPGGA,202334,3946.9575,N,08404.9858,W,2,12,0.80,308.08,M,-33.324,M,,*75
2017-11-16 15:23:35 1510863815.370980: $GPRMC,202334,A,3946.9575,N,08404.9858,W,0.0000,0.000,161117,,*38
2017-11-16 15:23:35 1510863815.371036: $GPGSA,A,3,8,10,14,15,18,20,21,24,27,32,12,138,1.6,0.8,1.3*34
