2017-11-16 17:07:38 1510870058.370864: {"class":"VERSION","release":"3.17","rev":"3.17","proto_major":3,"proto_minor":12}
2017-11-16 17:07:38 1510870058.371299: {"class":"DEVICES","devices":[{"class":"DEVICE","path":"/dev/ttyUSB0","driver":"SiRF","subtype":"9\u0006GSD4e_4.1.2-P1_RPATCH.05-F-GPS-4R-1510281 11/03/2015 307","activated":"2017-11-16T22:07:38.300Z","flags":1,"native":1,"bps":4800,"parity":"N","stopbits":1,"cycle":1.00}]}
2017-11-16 17:07:38 1510870058.371546: {"class":"WATCH","enable":true,"json":false,"nmea":true,"raw":0,"scaled":false,"timing":false,"split24":false,"pps":false}
2017-11-16 17:07:38 1510870058.415266: $GPZDA,220737.00,16,11,2017,00,00*66
2017-11-16 17:07:38 1510870058.415431: $GPGGA,220737,3946.9572,N,08404.9819,W,2,12,0.80,313.53,M,-33.324,M,,*74
2017-11-16 17:07:38 1510870058.415493: $GPRMC,220737,A,3946.9572,N,08404.9819,W,0.0000,0.000,161117,,*3D
2017-11-16 17:07:38 1510870058.415549: $GPGSA,A,3,1,10,11,12,14,18,22,24,25,31,32,138,1.6,0.8,1.3*38
2017-11-16 17:07:39 1510870059.744577: $GPGSV,3,1,12,01,18,312,40,10,60,141,48,11,10,292,30,12,25,061,50*76
2017-11-16 17:07:39 1510870059.744744: $GPGSV,3,2,12,14,60,306,46,18,29,139,43,22,09,312,36,24,06,046,37*7B
2017-11-16 17:07:39 1510870059.744804: $GPGSV,3,3,12,25,35,105,47,31,43,217,47,32,70,354,49,138,38,213,44*46
2017-11-16 17:07:39 1510870059.858328: $GPZDA,220738.00,16,11,2017,00,00*69
2017-11-16 17:07:39 1510870059.858480: $GPGGA,220738,3946.9572,N,08404.9819,W,2,12,0.80,313.53,M,-33.324,M,,*7B
2017-11-16 17:07:39 1510870059.858540: $GPRMC,220738,A,3946.9572,N,08404.9819,W,0.0000,0.000,161117,,*32
2017-11-16 17:07:39 1510870059.858596: $GPGSA,A,3,1,10,11,12,14,18,22,24,25,31,32,138,1.6,0.8,1.3*38
2017-11-16 17:07:40 1510870060.409067: $GPZDA,220739.00,16,11,2017,00,00*68
2017-11-16 17:07:40 1510870060.409229: $GPGGA,220739,3946.9572,N,08404.9819,W,2,12,0.80,313.53,M,-33.324,M,,*7A
2017-11-16 17:07:40 1510870060.409291: $GPRMC,220739,A,3946.9572,N,08404.9819,W,0.0000,0.000,161117,,*33
2017-11-16 17:07:40 1510870060.409346: $GPGSA,A,3,1,10,11,12,14,18,22,24,25,31,32,138,1.6,0.8,1.3*38
2017-11-16 17:07:41 1510870061.414225: $GPZDA,220740.00,16,11,2017,00,00*66
2017-11-16 17:07:41 1510870061.414407: $GPGGA,220740,3946.9572,N,08404.9819,W,2,12,0.80,313.53,M,-33.324,M,,*74
2017-11-16 17:07:41 1510870061.414488: $GPRMC,220740,A,3946.9572,N,08404.9819,W,0.0000,0.000,161117,,*3D
2017-11-16 17:07:41 1510870061.414566: $GPGSA,A,3,1,10,11,12,14,18,22,24,25,31,32,138,1.6,0.8,1.3*38
2017-11-16 17:07:42 1510870062.734943: $GPGSV,3,1,12,01,18,312,41,10,60,141,48,11,10,292,35,12,25,061,50*72
2017-11-16 17:07:42 1510870062.735148: $GPGSV,3,2,12,14,60,306,46,18,29,139,43,22,09,312,33,24,06,046,37*7E
2017-11-16 17:07:42 1510870062.735211: $GPGSV,3,3,12,25,35,105,47,31,43,217,47,32,70,354,49,138,38,213,44*46
2017-11-16 17:07:42 1510870062.848821: $GPZDA,220741.00,16,11,2017,00,00*67
2017-11-16 17:07:42 1510870062.848994: $GPGGA,220741,3946.9572,N,08404.9819,W,2,12,0.80,313.53,M,-33.324,M,,*75
2017-11-16 17:07:42 1510870062.849055: $GPRMC,220741,A,3946.9572,N,08404.9819,W,0.0000,0.000,161117,,*3C
2017-11-16 17:07:42 1510870062.849111: $GPGSA,A,3,1,10,11,12,14,18,22,24,25,31,32,138,1.6,0.8,1.3*38
2017-11-16 17:07:43 1510870063.397939: $GPZDA,220742.00,16,11,2017,00,00*64
2017-11-16 17:07:43 1510870063.398113: $GPGGA,220742,3946.9572,N,08404.9819,W,2,12,0.80,313.53,M,-33.324,M,,*76
2017-11-16 17:07:43 1510870063.398177: $GPRMC,220742,A,3946.9572,N,08404.9819,W,0.0000,0.000,161117,,*3F
2017-11-16 17:07:43 1510870063.398234: $GPGSA,A,3,1,10,11,12,14,18,22,24,25,31,32,138,1.6,0.8,1.3*38
2017-11-16 17:07:44 1510870064.398692: $GPZDA,220743.00,16,11,2017,00,00*65
2017-11-16 17:07:44 1510870064.398866: $GPGGA,220743,3946.9572,N,08404.9819,W,2,12,0.80,313.53,M,-33.324,M,,*77
2017-11-16 17:07:44 1510870064.398928: $GPRMC,220743,A,3946.9572,N,08404.9819,W,0.0000,0.000,161117,,*3E
2017-11-16 17:07:44 1510870064.398986: $GPGSA,A,3,1,10,11,12,14,18,22,24,25,31,32,138,1.6,0.8,1.3*38
2017-11-16 17:07:45 1510870065.733287: $GPGSV,3,1,12,01,18,312,42,10,60,141,48,11,10,292,34,12,25,061,50*70
2017-11-16 17:07:45 1510870065.733532: $GPGSV,3,2,12,14,60,306,46,18,29,139,43,22,09,312,33,24,06,046,37*7E
2017-11-16 17:07:45 1510870065.733598: $GPGSV,3,3,12,25,35,105,46,31,43,217,47,32,70,354,50,138,38,213,43*48
2017-11-16 17:07:45 1510870065.847426: $GPZDA,220744.00,16,11,2017,00,00*62
2017-11-16 17:07:45 1510870065.847592: $GPGGA,220744,3946.9572,N,08404.9819,W,2,12,0.80,313.53,M,-33.324,M,,*70
2017-11-16 17:07:45 1510870065.847653: $GPRMC,220744,A,3946.9572,N,08404.9819,W,0.0000,0.000,161117,,*39
2017-11-16 17:07:45 1510870065.847709: $GPGSA,A,3,1,10,11,12,14,18,22,24,25,31,32,138,1.6,0.8,1.3*38
2017-11-16 17:07:46 1510870066.471900: $GPZDA,220745.00,16,11,2017,00,00*63
2017-11-16 17:07:46 1510870066.472069: $GPGGA,220745,3946.9572,N,08404.9819,W,2,12,0.80,313.53,M,-33.324,M,,*71
2017-11-16 17:07:46 1510870066.472133: $GPRMC,220745,A,3946.9572,N,08404.9819,W,0.0000,0.000,161117,,*38
2017-11-16 17:07:46 1510870066.472190: $GPGSA,A,3,1,10,11,12,14,18,22,24,25,31,32,138,1.6,0.8,1.3*38
2017-11-16 17:07:47 1510870067.397852: $GPZDA,220746.00,16,11,2017,00,00*60
2017-11-16 17:07:47 1510870067.398041: $GPGGA,220746,3946.9572,N,08404.9819,W,2,12,0.80,313.53,M,-33.324,M,,*72
2017-11-16 17:07:47 1510870067.398105: $GPRMC,220746,A,3946.9572,N,08404.9819,W,0.0000,0.000,161117,,*3B
2017-11-16 17:07:47 1510870067.398183: $GPGSA,A,3,1,10,11,12,14,18,22,24,25,31,32,138,1.6,0.8,1.3*38
