2017-11-16 17:09:44 1510870184.890147: {"class":"VERSION","release":"3.17","rev":"3.17","proto_major":3,"proto_minor":12}
2017-11-16 17:09:44 1510870184.890591: {"class":"DEVICES","devices":[{"class":"DEVICE","path":"/dev/ttyUSB0","driver":"SiRF","subtype":"9\u0006GSD4e_4.1.2-P1_RPATCH.05-F-GPS-4R-1510281 11/03/2015 307","activated":"2017-11-16T22:09:44.540Z","flags":1,"native":1,"bps":4800,"parity":"N","stopbits":1,"cycle":1.00}]}
2017-11-16 17:09:44 1510870184.890711: {"class":"WATCH","enable":true,"json":false,"nmea":true,"raw":0,"scaled":false,"timing":false,"split24":false,"pps":false}
2017-11-16 17:09:45 1510870185.750731: $GPGSV,3,1,12,01,19,310,42,10,59,142,48,11,10,291,34,12,25,060,49*70
2017-11-16 17:09:45 1510870185.750909: $GPGSV,3,2,12,14,61,309,46,18,28,141,43,22,11,312,30,24,05,046,32*72
2017-11-16 17:09:45 1510870185.750992: $GPGSV,3,3,12,25,36,103,46,31,45,217,49,32,70,358,49,138,38,213,44*46
2017-11-16 17:09:45 1510870185.864061: $GPZDA,220944.00,16,11,2017,00,00*6C
2017-11-16 17:09:45 1510870185.864223: $GPGGA,220944,3946.9568,N,08404.9826,W,2,12,0.80,312.81,M,-33.324,M,,*77
2017-11-16 17:09:45 1510870185.864285: $GPRMC,220944,A,3946.9568,N,08404.9826,W,0.0000,0.000,161117,,*30
2017-11-16 17:09:45 1510870185.864340: $GPGSA,A,3,1,10,11,12,14,18,22,24,25,31,32,138,1.6,0.8,1.3*38
2017-11-16 17:09:46 1510870186.489413: $GPZDA,220945.00,16,11,2017,00,00*6D
2017-11-16 17:09:46 1510870186.489567: $GPGGA,220945,3946.9568,N,08404.9826,W,2,12,0.80,312.81,M,-33.324,M,,*76
2017-11-16 17:09:46 1510870186.489628: $GPRMC,220945,A,3946.9568,N,08404.9826,W,0.0000,0.000,161117,,*31
2017-11-16 17:09:46 1510870186.489684: $GPGSA,A,3,1,10,11,12,14,18,22,24,25,31,32,138,1.6,0.8,1.3*38
2017-11-16 17:09:47 1510870187.397821: $GPZDA,220946.00,16,11,2017,00,00*6E
2017-11-16 17:09:47 1510870187.398016: $GPGGA,220946,3946.9568,N,08404.9826,W,2,12,0.80,312.81,M,-33.324,M,,*75
2017-11-16 17:09:47 1510870187.398080: $GPRMC,220946,A,3946.9568,N,08404.9826,W,0.0000,0.000,161117,,*32
2017-11-16 17:09:47 1510870187.398136: $GPGSA,A,3,1,10,11,12,14,18,22,24,25,31,32,138,1.6,0.8,1.3*38
2017-11-16 17:09:48 1510870188.752358: $GPGSV,3,1,12,01,19,310,43,10,59,142,48,11,10,291,36,12,25,060,49*73
2017-11-16 17:09:48 1510870188.752525: $GPGSV,3,2,12,14,61,309,46,18,28,141,43,22,11,312,29,24,05,046,32*7A
2017-11-16 17:09:48 1510870188.752585: $GPGSV,3,3,12,25,36,103,46,31,45,217,49,32,70,358,49,138,38,213,44*46
2017-11-16 17:09:48 1510870188.865785: $GPZDA,220947.00,16,11,2017,00,00*6F
2017-11-16 17:09:48 1510870188.865970: $GPGGA,220947,3946.9568,N,08404.9826,W,2,12,0.80,312.81,M,-33.324,M,,*74
2017-11-16 17:09:48 1510870188.866048: $GPRMC,220947,A,3946.9568,N,08404.9826,W,0.0000,0.000,161117,,*33
2017-11-16 17:09:48 1510870188.866104: $GPGSA,A,3,1,10,11,12,14,18,22,24,25,31,32,138,1.6,0.8,1.3*38
2017-11-16 17:09:49 1510870189.399062: $GPZDA,220948.00,16,11,2017,00,00*60
2017-11-16 17:09:49 1510870189.399225: $GPGGA,220948,3946.9568,N,08404.9826,W,2,12,0.80,312.81,M,-33.324,M,,*7B
2017-11-16 17:09:49 1510870189.399288: $GPRMC,220948,A,3946.9568,N,08404.9826,W,0.0000,0.000,161117,,*3C
2017-11-16 17:09:49 1510870189.399343: $GPGSA,A,3,1,10,11,12,14,18,22,24,25,31,32,138,1.6,0.8,1.3*38
2017-11-16 17:09:50 1510870190.413690: $GPZDA,220949.00,16,11,2017,00,00*61
2017-11-16 17:09:50 1510870190.413875: $GPGGA,220949,3946.9568,N,08404.9826,W,2,12,0.80,312.81,M,-33.324,M,,*7A
2017-11-16 17:09:50 1510870190.413938: $GPRMC,220949,A,3946.9568,N,08404.9826,W,0.0000,0.000,161117,,*3D
2017-11-16 17:09:50 1510870190.414011: $GPGSA,A,3,1,10,11,12,14,18,22,24,25,31,32,138,1.6,0.8,1.3*38
2017-11-16 17:09:51 1510870191.750228: $GPGSV,3,1,12,01,19,310,43,10,59,142,48,11,10,291,37,12,25,060,49*72
2017-11-16 17:09:51 1510870191.859950: $GPGSV,3,2,12,14,61,309,46,18,28,141,43,22,11,312,29,24,05,046,31*79
2017-11-16 17:09:51 1510870191.860099: $GPGSV,3,3,12,25,36,103,46,31,45,217,49,32,70,358,50,138,38,213,43*49
2017-11-16 17:09:51 1510870191.863563: $GPZDA,220950.00,16,11,2017,00,00*69
2017-11-16 17:09:51 1510870191.863720: $GPGGA,220950,3946.9568,N,08404.9826,W,2,12,0.80,312.81,M,-33.324,M,,*72
2017-11-16 17:09:51 1510870191.863833: $GPRMC,220950,A,3946.9568,N,08404.9826,W,0.0000,0.000,161117,,*35
2017-11-16 17:09:51 1510870191.863891: $GPGSA,A,3,1,10,11,12,14,18,22,24,25,31,32,138,1.6,0.8,1.3*38
2017-11-16 17:09:52 1510870192.415869: $GPZDA,220951.00,16,11,2017,00,00*68
2017-11-16 17:09:52 1510870192.416032: $GPGGA,220951,3946.9568,N,08404.9826,W,2,12,0.80,312.81,M,-33.324,M,,*73
2017-11-16 17:09:52 1510870192.416092: $GPRMC,220951,A,3946.9568,N,08404.9826,W,0.0000,0.000,161117,,*34
2017-11-16 17:09:52 1510870192.416148: $GPGSA,A,3,1,10,11,12,14,18,22,24,25,31,32,138,1.6,0.8,1.3*38
2017-11-16 17:09:53 1510870193.415722: $GPZDA,220952.00,16,11,2017,00,00*6B
2017-11-16 17:09:53 1510870193.415883: $GPGGA,220952,3946.9568,N,08404.9826,W,2,12,0.80,312.81,M,-33.324,M,,*70
2017-11-16 17:09:53 1510870193.415945: $GPRMC,220952,A,3946.9568,N,08404.9826,W,0.0000,0.000,161117,,*37
2017-11-16 17:09:53 1510870193.416001: $GPGSA,A,3,1,10,11,12,14,18,22,24,25,31,32,138,1.6,0.8,1.3*38
2017-11-16 17:09:54 1510870194.751151: $GPGSV,3,1,12,01,19,310,42,10,59,142,48,11,10,291,37,12,25,060,49*73
2017-11-16 17:09:54 1510870194.751318: $GPGSV,3,2,12,14,61,309,46,18,28,141,44,22,11,312,30,24,05,046,31*76
2017-11-16 17:09:54 1510870194.751379: $GPGSV,3,3,12,25,36,103,46,31,45,217,49,32,70,358,49,138,38,213,44*46
2017-11-16 17:09:54 1510870194.864697: $GPZDA,220953.00,16,11,2017,00,00*6A
2017-11-16 17:09:54 1510870194.864858: $GPGGA,220953,3946.9568,N,08404.9826,W,2,12,0.80,312.81,M,-33.324,M,,*71
2017-11-16 17:09:54 1510870194.864919: $GPRMC,220953,A,3946.9568,N,08404.9826,W,0.0000,0.000,161117,,*36
2017-11-16 17:09:54 1510870194.864975: $GPGSA,A,3,1,10,11,12,14,18,22,24,25,31,32,138,1.6,0.8,1.3*38
