2018-01-11 20:30:45 1515720645.738661: {"class":"VERSION","release":"3.16","rev":"3.16-4","proto_major":3,"proto_minor":11}
2018-01-11 20:30:45 1515720645.738996: {"class":"DEVICES","devices":[{"class":"DEVICE","path":"/dev/ttyUSB0","driver":"SiRF","subtype":"9\u0006GSD4e_4.1.2-P1_RPATCH.05-F-GPS-4R-1510281 11/03/2015 307","activated":"2018-01-12T01:30:45.516Z","flags":1,"native":1,"bps":4800,"parity":"N","stopbits":1,"cycle":1.00}]}
2018-01-11 20:30:45 1515720645.739172: {"class":"WATCH","enable":true,"json":false,"nmea":true,"raw":0,"scaled":false,"timing":false,"split24":false,"pps":false}
2018-01-11 20:30:46 1515720646.358307: $GPZDA,013047.00,12,01,2018,00,00*6E
2018-01-11 20:30:46 1515720646.358479: $GPGGA,013047,3946.9581,N,08404.9842,W,2,11,0.80,305.30,M,-33.324,M,,*75
2018-01-11 20:30:46 1515720646.358545: $GPRMC,013047,A,3946.9581,N,08404.9842,W,0.0000,0.000,120118,,*37
2018-01-11 20:30:46 1515720646.358606: $GPGSA,A,3,7,8,9,11,16,23,27,28,30,1,138,,4.0,0.8,3.5*0F
2018-01-11 20:30:47 1515720647.692552: $GPGSV,3,1,11,07,64,316,44,08,75,094,44,09,41,220,43,11,28,165,46*7C
2018-01-11 20:30:47 1515720647.692718: $GPGSV,3,2,11,16,17,066,34,23,20,187,49,27,40,048,50,28,20,265,37*7B
2018-01-11 20:30:47 1515720647.692784: $GPGSV,3,3,11,30,37,309,36,01,05,159,17,138,38,213,45*7E
2018-01-11 20:30:47 1515720647.806167: $GPZDA,013048.00,12,01,2018,00,00*61
2018-01-11 20:30:47 1515720647.806341: $GPGGA,013048,3946.9581,N,08404.9842,W,2,11,0.80,305.30,M,-33.324,M,,*7A
2018-01-11 20:30:47 1515720647.806424: $GPRMC,013048,A,3946.9581,N,08404.9842,W,0.0000,0.000,120118,,*38
2018-01-11 20:30:47 1515720647.806485: $GPGSA,A,3,7,8,9,11,16,23,27,28,30,1,138,,4.0,0.8,3.5*0F
2018-01-11 20:30:48 1515720648.357009: $GPZDA,013049.00,12,01,2018,00,00*60
2018-01-11 20:30:48 1515720648.357155: $GPGGA,013049,3946.9581,N,08404.9842,W,2,11,0.80,305.30,M,-33.324,M,,*7B
2018-01-11 20:30:48 1515720648.357243: $GPRMC,013049,A,3946.9581,N,08404.9842,W,0.0000,0.000,120118,,*39
2018-01-11 20:30:48 1515720648.357306: $GPGSA,A,3,7,8,9,11,16,23,27,28,30,1,138,,4.0,0.8,3.5*0F
2018-01-11 20:30:49 1515720649.354952: $GPZDA,013050.00,12,01,2018,00,00*68
2018-01-11 20:30:49 1515720649.355110: $GPGGA,013050,3946.9581,N,08404.9842,W,2,11,0.80,305.30,M,-33.324,M,,*73
2018-01-11 20:30:49 1515720649.355177: $GPRMC,013050,A,3946.9581,N,08404.9842,W,0.0000,0.000,120118,,*31
2018-01-11 20:30:49 1515720649.355263: $GPGSA,A,3,7,8,9,11,16,23,27,28,30,1,138,,4.0,0.8,3.5*0F
2018-01-11 20:30:50 1515720650.694150: $GPGSV,3,1,11,07,64,316,44,08,75,094,44,09,41,220,44,11,28,165,45*78
2018-01-11 20:30:50 1515720650.694325: $GPGSV,3,2,11,16,17,066,33,23,20,187,49,27,40,048,50,28,20,265,36*7D
2018-01-11 20:30:50 1515720650.694408: $GPGSV,3,3,11,30,37,309,36,01,05,159,00,138,38,213,45*78
2018-01-11 20:30:50 1515720650.807798: $GPZDA,013051.00,12,01,2018,00,00*69
2018-01-11 20:30:50 1515720650.807953: $GPGGA,013051,3946.9581,N,08404.9842,W,2,10,0.80,305.30,M,-33.324,M,,*73
2018-01-11 20:30:50 1515720650.808019: $GPRMC,013051,A,3946.9581,N,08404.9842,W,0.0000,0.000,120118,,*30
2018-01-11 20:30:50 1515720650.808079: $GPGSA,A,3,7,8,9,11,16,23,27,28,30,138,,,4.0,0.8,3.5*3E
2018-01-11 20:30:51 1515720651.357386: $GPZDA,013052.00,12,01,2018,00,00*6A
2018-01-11 20:30:51 1515720651.357528: $GPGGA,013052,3946.9584,N,08404.9841,W,2,10,0.80,304.54,M,-33.324,M,,*75
2018-01-11 20:30:51 1515720651.357594: $GPRMC,013052,A,3946.9584,N,08404.9841,W,0.0000,0.000,120118,,*35
2018-01-11 20:30:51 1515720651.357655: $GPGSA,A,3,7,8,9,11,16,23,27,28,30,138,,,4.0,0.8,3.5*3E
2018-01-11 20:30:52 1515720652.357038: $GPZDA,013053.00,12,01,2018,00,00*6B
2018-01-11 20:30:52 1515720652.357193: $GPGGA,013053,3946.9584,N,08404.9841,W,2,10,0.80,304.54,M,-33.324,M,,*74
2018-01-11 20:30:52 1515720652.357283: $GPRMC,013053,A,3946.9584,N,08404.9841,W,0.0000,0.000,120118,,*34
2018-01-11 20:30:52 1515720652.357361: $GPGSA,A,3,7,8,9,11,16,23,27,28,30,138,,,4.0,0.8,3.5*3E
2018-01-11 20:30:53 1515720653.693767: $GPGSV,3,1,11,07,64,316,44,08,75,094,44,09,41,220,44,11,28,165,45*78
2018-01-11 20:30:53 1515720653.693919: $GPGSV,3,2,11,16,17,066,32,23,20,187,48,27,40,048,50,28,20,265,36*7D
2018-01-11 20:30:53 1515720653.694038: $GPGSV,3,3,11,30,37,309,36,01,05,159,00,138,38,213,44*79
2018-01-11 20:30:53 1515720653.807391: $GPZDA,013054.00,12,01,2018,00,00*6C
2018-01-11 20:30:53 1515720653.807547: $GPGGA,013054,3946.9584,N,08404.9841,W,2,10,0.80,304.54,M,-33.324,M,,*73
2018-01-11 20:30:53 1515720653.807611: $GPRMC,013054,A,3946.9584,N,08404.9841,W,0.0000,0.000,120118,,*33
2018-01-11 20:30:53 1515720653.807671: $GPGSA,A,3,7,8,9,11,16,23,27,28,30,138,,,4.0,0.8,3.5*3E
2018-01-11 20:30:54 1515720654.432756: $GPZDA,013055.00,12,01,2018,00,00*6D
2018-01-11 20:30:54 1515720654.432899: $GPGGA,013055,3946.9584,N,08404.9841,W,2,10,0.80,304.54,M,-33.324,M,,*72
2018-01-11 20:30:54 1515720654.432964: $GPRMC,013055,A,3946.9584,N,08404.9841,W,0.0000,0.000,120118,,*32
2018-01-11 20:30:54 1515720654.433025: $GPGSA,A,3,7,8,9,11,16,23,27,28,30,138,,,4.0,0.8,3.5*3E
2018-01-11 20:30:55 1515720655.358648: $GPZDA,013056.00,12,01,2018,00,00*6E
2018-01-11 20:30:55 1515720655.358800: $GPGGA,013056,3946.9584,N,08404.9841,W,2,10,0.80,304.54,M,-33.324,M,,*71
2018-01-11 20:30:55 1515720655.358865: $GPRMC,013056,A,3946.9584,N,08404.9841,W,0.0000,0.000,120118,,*31
2018-01-11 20:30:55 1515720655.358926: $GPGSA,A,3,7,8,9,11,16,23,27,28,30,138,,,4.0,0.8,3.5*3E
2018-01-11 20:30:56 1515720656.694116: $GPGSV,3,1,11,07,64,316,44,08,75,094,45,09,41,220,44,11,28,165,45*79
2018-01-11 20:30:56 1515720656.694277: $GPGSV,3,2,11,16,17,066,32,23,20,187,48,27,40,048,50,28,20,265,36*7D
2018-01-11 20:30:56 1515720656.694359: $GPGSV,3,3,11,30,37,309,36,01,05,159,00,138,38,213,45*78
2018-01-11 20:30:56 1515720656.807789: $GPZDA,013057.00,12,01,2018,00,00*6F
2018-01-11 20:30:56 1515720656.807940: $GPGGA,013057,3946.9584,N,08404.9841,W,2,10,0.80,304.54,M,-33.324,M,,*70
2018-01-11 20:30:56 1515720656.808004: $GPRMC,013057,A,3946.9584,N,08404.9841,W,0.0000,0.000,120118,,*30
2018-01-11 20:30:56 1515720656.808065: $GPGSA,A,3,7,8,9,11,16,23,27,28,30,138,,,4.0,0.8,3.5*3E
2018-01-11 20:30:57 1515720657.358611: $GPZDA,013058.00,12,01,2018,00,00*60
2018-01-11 20:30:57 1515720657.358754: $GPGGA,013058,3946.9584,N,08404.9841,W,2,10,0.80,304.54,M,-33.324,M,,*7F
2018-01-11 20:30:57 1515720657.358820: $GPRMC,013058,A,3946.9584,N,08404.9841,W,0.0000,0.000,120118,,*3F
2018-01-11 20:30:57 1515720657.358881: $GPGSA,A,3,7,8,9,11,16,23,27,28,30,138,,,4.0,0.8,3.5*3E
2018-01-11 20:30:58 1515720658.358264: $GPZDA,013059.00,12,01,2018,00,00*61
2018-01-11 20:30:58 1515720658.358431: $GPGGA,013059,3946.9584,N,08404.9841,W,2,10,0.80,304.54,M,-33.324,M,,*7E
2018-01-11 20:30:58 1515720658.358497: $GPRMC,013059,A,3946.9584,N,08404.9841,W,0.0000,0.000,120118,,*3E
2018-01-11 20:30:58 1515720658.358557: $GPGSA,A,3,7,8,9,11,16,23,27,28,30,138,,,4.0,0.8,3.5*3E
