2017-11-15 19:05:16 1510790716.202209: {"class":"VERSION","release":"3.17","rev":"3.17","proto_major":3,"proto_minor":12}
2017-11-15 19:05:16 1510790716.202662: {"class":"DEVICES","devices":[{"class":"DEVICE","path":"/dev/ttyUSB0","driver":"SiRF","subtype":"9\u0006GSD4e_4.1.2-P1_RPATCH.05-F-GPS-4R-1510281 11/03/2015 307","activated":"2017-11-16T00:05:16.110Z","flags":1,"native":1,"bps":4800,"parity":"N","stopbits":1,"cycle":1.00}]}
2017-11-15 19:05:16 1510790716.202780: {"class":"WATCH","enable":true,"json":false,"nmea":true,"raw":0,"scaled":false,"timing":false,"split24":false,"pps":false}
2017-11-15 19:05:16 1510790716.421159: $GPZDA,000515.00,16,11,2017,00,00*64
2017-11-15 19:05:16 1510790716.421364: $GPGGA,000515,3946.9606,N,08404.9445,W,1,08,1.40,291.94,M,-33.324,M,,*76
2017-11-15 19:05:16 1510790716.421430: $GPRMC,000515,A,3946.9606,N,08404.9445,W,1.2381,352.270,161117,,*32
2017-11-15 19:05:16 1510790716.421487: $GPGSA,A,3,32,14,3,26,31,16,22,1,,,,,3.4,1.4,2.9*3C
2017-11-15 19:05:17 1510790717.347167: $GPZDA,000516.00,16,11,2017,00,00*67
2017-11-15 19:05:17 1510790717.347348: $GPGGA,000516,3946.9613,N,08404.9445,W,1,08,1.40,291.81,M,-33.324,M,,*75
2017-11-15 19:05:17 1510790717.347409: $GPRMC,000516,A,3946.9613,N,08404.9445,W,1.9587,349.465,161117,,*36
2017-11-15 19:05:17 1510790717.347466: $GPGSA,A,3,32,14,3,26,31,16,22,1,,,,,3.4,1.4,2.9*3C
2017-11-15 19:05:18 1510790718.682774: $GPGSV,3,1,11,32,45,096,18,14,63,073,19,03,32,309,20,26,40,175,17*7E
2017-11-15 19:05:18 1510790718.682950: $GPGSV,3,2,11,31,76,355,26,16,11,190,18,22,47,288,16,25,26,045,00*7E
2017-11-15 19:05:18 1510790718.683028: $GPGSV,3,3,11,10,08,159,00,01,12,262,04,29,06,081,00*49
2017-11-15 19:05:18 1510790718.794865: $GPZDA,000517.00,16,11,2017,00,00*66
2017-11-15 19:05:18 1510790718.795028: $GPGGA,000517,3946.9621,N,08404.9444,W,1,07,1.40,291.69,M,-33.324,M,,*7D
2017-11-15 19:05:18 1510790718.795091: $GPRMC,000517,A,3946.9621,N,08404.9444,W,1.3692,4.197,161117,,*38
2017-11-15 19:05:18 1510790718.795167: $GPGSA,A,3,32,14,3,26,31,16,22,,,,,,3.4,1.4,2.9*0D
2017-11-15 19:05:19 1510790719.347851: $GPZDA,000518.00,16,11,2017,00,00*69
2017-11-15 19:05:19 1510790719.348023: $GPGGA,000518,3946.9620,N,08404.9437,W,1,07,1.40,291.77,M,-33.324,M,,*78
2017-11-15 19:05:19 1510790719.348085: $GPRMC,000518,A,3946.9620,N,08404.9437,W,1.1294,43.342,161117,,*0B
2017-11-15 19:05:19 1510790719.348141: $GPGSA,A,3,32,14,3,26,31,16,22,,,,,,3.4,1.4,2.9*0D
2017-11-15 19:05:20 1510790720.346988: $GPZDA,000519.00,16,11,2017,00,00*68
2017-11-15 19:05:20 1510790720.347169: $GPGGA,000519,3946.9625,N,08404.9437,W,1,07,1.40,292.41,M,-33.324,M,,*7A
2017-11-15 19:05:20 1510790720.347230: $GPRMC,000519,A,3946.9625,N,08404.9437,W,1.4115,34.536,161117,,*05
2017-11-15 19:05:20 1510790720.347286: $GPGSA,A,3,32,14,3,26,31,16,22,,,,,,3.4,1.4,2.9*0D
2017-11-15 19:05:21 1510790721.681915: $GPGSV,3,1,11,32,45,096,18,14,63,073,19,03,32,309,20,26,40,175,18*71
2017-11-15 19:05:21 1510790721.682104: $GPGSV,3,2,11,31,76,355,26,16,11,190,18,22,47,288,15,25,26,045,00*7D
2017-11-15 19:05:21 1510790721.682167: $GPGSV,3,3,11,10,08,159,00,01,12,262,04,29,06,081,00*49
2017-11-15 19:05:21 1510790721.795521: $GPZDA,000520.00,16,11,2017,00,00*62
2017-11-15 19:05:21 1510790721.795679: $GPGGA,000520,3946.9632,N,08404.9436,W,1,07,1.40,292.28,M,-33.324,M,,*78
2017-11-15 19:05:21 1510790721.795739: $GPRMC,000520,A,3946.9632,N,08404.9436,W,1.1294,43.342,161117,,*02
2017-11-15 19:05:21 1510790721.795795: $GPGSA,A,3,32,14,3,26,31,16,22,,,,,,3.4,1.4,2.9*0D
2017-11-15 19:05:22 1510790722.328588: $GPZDA,000521.00,16,11,2017,00,00*63
2017-11-15 19:05:22 1510790722.328758: $GPGGA,000521,3946.9632,N,08404.9429,W,1,07,1.40,292.36,M,-33.324,M,,*78
2017-11-15 19:05:22 1510790722.328820: $GPRMC,000521,A,3946.9632,N,08404.9429,W,1.1902,58.684,161117,,*0C
2017-11-15 19:05:22 1510790722.328876: $GPGSA,A,3,32,14,3,26,31,16,22,,,,,,3.4,1.4,2.9*0D
2017-11-15 19:05:23 1510790723.333420: $GPZDA,000522.00,16,11,2017,00,00*60
2017-11-15 19:05:23 1510790723.333604: $GPGGA,000522,3946.9632,N,08404.9429,W,1,07,1.40,292.36,M,-33.324,M,,*7B
2017-11-15 19:05:23 1510790723.333729: $GPRMC,000522,A,3946.9632,N,08404.9429,W,0.8953,59.978,161117,,*0E
2017-11-15 19:05:23 1510790723.333793: $GPGSA,A,3,32,14,3,26,31,16,22,,,,,,3.4,1.4,2.9*0D
2017-11-15 19:05:24 1510790724.666447: $GPGSV,3,1,11,32,45,096,18,14,63,073,19,03,32,309,20,26,40,175,19*70
2017-11-15 19:05:24 1510790724.666620: $GPGSV,3,2,11,31,76,355,25,16,11,190,18,22,47,288,14,29,06,081,10*78
2017-11-15 19:05:24 1510790724.666681: $GPGSV,3,3,11,25,26,045,00,01,12,262,04,10,08,159,00*4F
2017-11-15 19:05:24 1510790724.779795: $GPZDA,000523.00,16,11,2017,00,00*61
2017-11-15 19:05:24 1510790724.779958: $GPGGA,000523,3946.9639,N,08404.9428,W,1,07,1.40,292.24,M,-33.324,M,,*73
2017-11-15 19:05:24 1510790724.780039: $GPRMC,000523,A,3946.9639,N,08404.9428,W,1.1385,29.379,161117,,*00
2017-11-15 19:05:24 1510790724.780095: $GPGSA,A,3,32,14,3,26,31,16,22,,,,,,3.4,1.4,2.9*0D
2017-11-15 19:05:25 1510790725.330664: $GPZDA,000524.00,16,11,2017,00,00*66
2017-11-15 19:05:25 1510790725.330829: $GPGGA,000524,3946.9639,N,08404.9421,W,1,07,1.40,292.32,M,-33.324,M,,*7A
2017-11-15 19:05:25 1510790725.330888: $GPRMC,000524,A,3946.9639,N,08404.9421,W,0.9929,32.499,161117,,*08
2017-11-15 19:05:25 1510790725.330943: $GPGSA,A,3,32,14,3,26,31,16,22,,,,,,3.4,1.4,2.9*0D
