2017-12-01 16:48:19 1512164899.007332: {"class":"VERSION","release":"3.16","rev":"3.16-4","proto_major":3,"proto_minor":11}
2017-12-01 16:48:19 1512164899.007698: {"class":"DEVICES","devices":[{"class":"DEVICE","path":"/dev/ttyUSB0","driver":"SiRF","subtype":"9\u0006GSD4e_4.1.2-P1_RPATCH.05-F-GPS-4R-1510281 11/03/2015 307","activated":"2017-12-01T21:48:18.764Z","flags":1,"native":1,"bps":4800,"parity":"N","stopbits":1,"cycle":1.00}]}
2017-12-01 16:48:19 1512164899.007809: {"class":"WATCH","enable":true,"json":false,"nmea":true,"raw":0,"scaled":false,"timing":false,"split24":false,"pps":false}
2017-12-01 16:48:19 1512164899.446493: $GPZDA,214820.00,01,12,2017,00,00*6D
2017-12-01 16:48:19 1512164899.446664: $GPGGA,214820,3946.9663,N,08404.9762,W,2,12,0.80,301.15,M,-33.324,M,,*7B
2017-12-01 16:48:19 1512164899.446730: $GPRMC,214820,A,3946.9663,N,08404.9762,W,0.0000,0.000,011217,,*36
2017-12-01 16:48:19 1512164899.446792: $GPGSA,A,3,1,10,14,22,31,32,3,12,18,25,26,138,2.0,0.8,1.5*0A
2017-12-01 16:48:20 1512164900.791954: $GPGSV,3,1,12,01,22,292,40,10,39,151,42,14,69,348,44,22,26,310,47*7C
2017-12-01 16:48:20 1512164900.792154: $GPGSV,3,2,12,31,64,234,49,32,65,048,49,03,06,316,30,12,18,043,00*7F
2017-12-01 16:48:20 1512164900.792249: $GPGSV,3,3,12,18,10,147,20,25,41,079,28,26,09,181,29,138,38,213,35*4D
2017-12-01 16:48:20 1512164900.905341: $GPZDA,214821.00,01,12,2017,00,00*6C
2017-12-01 16:48:20 1512164900.905511: $GPGGA,214821,3946.9663,N,08404.9762,W,2,11,1.00,301.15,M,-33.324,M,,*70
2017-12-01 16:48:20 1512164900.905578: $GPRMC,214821,A,3946.9663,N,08404.9762,W,0.0000,0.000,011217,,*37
2017-12-01 16:48:20 1512164900.905639: $GPGSA,A,3,1,10,14,22,31,32,3,18,25,26,138,,2.0,1.0,1.5*00
2017-12-01 16:48:21 1512164901.449945: $GPZDA,214822.00,01,12,2017,00,00*6F
2017-12-01 16:48:21 1512164901.450165: $GPGGA,214822,3946.9663,N,08404.9762,W,2,11,0.80,301.15,M,-33.324,M,,*7A
2017-12-01 16:48:21 1512164901.450253: $GPRMC,214822,A,3946.9663,N,08404.9762,W,0.0000,0.000,011217,,*34
2017-12-01 16:48:21 1512164901.450360: $GPGSA,A,3,1,10,14,22,31,32,3,18,25,26,138,,2.0,0.8,1.5*09
2017-12-01 16:48:22 1512164902.448605: $GPZDA,214823.00,01,12,2017,00,00*6E
2017-12-01 16:48:22 1512164902.448776: $GPGGA,214823,3946.9663,N,08404.9762,W,2,11,0.80,301.15,M,-33.324,M,,*7B
2017-12-01 16:48:22 1512164902.448844: $GPRMC,214823,A,3946.9663,N,08404.9762,W,0.0000,0.000,011217,,*35
2017-12-01 16:48:22 1512164902.448904: $GPGSA,A,3,1,10,14,22,31,32,3,18,25,26,138,,2.0,0.8,1.5*09
2017-12-01 16:48:23 1512164903.782819: $GPGSV,3,1,12,01,22,292,41,10,39,151,41,14,69,348,44,22,26,310,47*7E
2017-12-01 16:48:23 1512164903.783003: $GPGSV,3,2,12,31,64,234,49,32,65,048,49,03,06,316,30,12,18,043,21*7C
2017-12-01 16:48:23 1512164903.783069: $GPGSV,3,3,12,18,10,147,20,25,41,079,28,26,09,181,29,138,38,213,38*40
2017-12-01 16:48:23 1512164903.896416: $GPZDA,214824.00,01,12,2017,00,00*69
2017-12-01 16:48:23 1512164903.896546: $GPGGA,214824,3946.9663,N,08404.9762,W,2,12,0.80,301.15,M,-33.324,M,,*7F
2017-12-01 16:48:23 1512164903.896612: $GPRMC,214824,A,3946.9663,N,08404.9762,W,0.0000,0.000,011217,,*32
2017-12-01 16:48:23 1512164903.896672: $GPGSA,A,3,1,10,14,22,31,32,3,12,18,25,26,138,2.0,0.8,1.5*0A
2017-12-01 16:48:24 1512164904.521804: $GPZDA,214825.00,01,12,2017,00,00*68
2017-12-01 16:48:24 1512164904.521974: $GPGGA,214825,3946.9663,N,08404.9762,W,2,12,0.80,301.15,M,-33.324,M,,*7E
2017-12-01 16:48:24 1512164904.522041: $GPRMC,214825,A,3946.9663,N,08404.9762,W,0.0000,0.000,011217,,*33
2017-12-01 16:48:24 1512164904.522126: $GPGSA,A,3,1,10,14,22,31,32,3,12,18,25,26,138,2.0,0.8,1.5*0A
2017-12-01 16:48:25 1512164905.447709: $GPZDA,214826.00,01,12,2017,00,00*6B
2017-12-01 16:48:25 1512164905.447881: $GPGGA,214826,3946.9663,N,08404.9762,W,2,12,0.80,301.15,M,-33.324,M,,*7D
2017-12-01 16:48:25 1512164905.447947: $GPRMC,214826,A,3946.9663,N,08404.9762,W,0.0000,0.000,011217,,*30
2017-12-01 16:48:25 1512164905.448009: $GPGSA,A,3,1,10,14,22,31,32,3,12,18,25,26,138,2.0,0.8,1.5*0A
2017-12-01 16:48:26 1512164906.783241: $GPGSV,3,1,12,01,22,292,42,10,39,151,41,14,69,348,44,22,26,310,47*7D
2017-12-01 16:48:26 1512164906.783445: $GPGSV,3,2,12,31,64,234,49,32,65,048,49,03,06,316,30,12,18,043,20*7D
2017-12-01 16:48:26 1512164906.783512: $GPGSV,3,3,12,18,10,147,20,25,41,079,27,26,09,181,28,138,38,213,39*4F
2017-12-01 16:48:26 1512164906.896941: $GPZDA,214827.00,01,12,2017,00,00*6A
2017-12-01 16:48:26 1512164906.897129: $GPGGA,214827,3946.9658,N,08404.9762,W,2,12,0.80,300.51,M,-33.324,M,,*75
2017-12-01 16:48:26 1512164906.897214: $GPRMC,214827,A,3946.9658,N,08404.9762,W,0.0000,0.000,011217,,*39
2017-12-01 16:48:26 1512164906.897277: $GPGSA,A,3,1,10,14,22,31,32,3,12,18,25,26,138,2.0,0.8,1.5*0A
2017-12-01 16:48:27 1512164907.447462: $GPZDA,214828.00,01,12,2017,00,00*65
2017-12-01 16:48:27 1512164907.447636: $GPGGA,214828,3946.9658,N,08404.9762,W,2,12,0.80,300.51,M,-33.324,M,,*7A
2017-12-01 16:48:27 1512164907.447703: $GPRMC,214828,A,3946.9658,N,08404.9762,W,0.0000,0.000,011217,,*36
2017-12-01 16:48:27 1512164907.447764: $GPGSA,A,3,1,10,14,22,31,32,3,12,18,25,26,138,2.0,0.8,1.5*0A
2017-12-01 16:48:28 1512164908.448821: $GPZDA,214829.00,01,12,2017,00,00*64
2017-12-01 16:48:28 1512164908.449077: $GPGGA,214829,3946.9658,N,08404.9762,W,2,12,0.80,300.51,M,-33.324,M,,*7B
2017-12-01 16:48:28 1512164908.449150: $GPRMC,214829,A,3946.9658,N,08404.9762,W,0.0000,0.000,011217,,*37
2017-12-01 16:48:28 1512164908.449241: $GPGSA,A,3,1,10,14,22,31,32,3,12,18,25,26,138,2.0,0.8,1.5*0A
2017-12-01 16:48:29 1512164909.783632: $GPGSV,3,1,12,01,22,292,42,10,39,151,40,14,69,348,44,22,26,310,47*7C
2017-12-01 16:48:29 1512164909.783815: $GPGSV,3,2,12,31,64,234,50,32,65,048,49,03,06,316,30,12,18,043,20*75
2017-12-01 16:48:29 1512164909.783885: $GPGSV,3,3,12,18,10,147,20,25,41,079,27,26,09,181,28,138,38,213,39*4F
2017-12-01 16:48:29 1512164909.896916: $GPZDA,214830.00,01,12,2017,00,00*6C
2017-12-01 16:48:29 1512164909.897117: $GPGGA,214830,3946.9658,N,08404.9762,W,2,12,0.80,300.51,M,-33.324,M,,*73
2017-12-01 16:48:29 1512164909.897206: $GPRMC,214830,A,3946.9658,N,08404.9762,W,0.0000,0.000,011217,,*3F
2017-12-01 16:48:29 1512164909.897272: $GPGSA,A,3,1,10,14,22,31,32,3,12,18,25,26,138,2.0,0.8,1.5*0A
2017-12-01 16:48:30 1512164910.448294: $GPZDA,214831.00,01,12,2017,00,00*6D
2017-12-01 16:48:30 1512164910.448457: $GPGGA,214831,3946.9663,N,08404.9762,W,2,12,0.80,301.15,M,-33.324,M,,*7B
2017-12-01 16:48:30 1512164910.448528: $GPRMC,214831,A,3946.9663,N,08404.9762,W,0.0000,0.000,011217,,*36
2017-12-01 16:48:30 1512164910.448593: $GPGSA,A,3,1,10,14,22,31,32,3,12,18,25,26,138,2.0,0.8,1.5*0A
2017-12-01 16:48:31 1512164911.446204: $GPZDA,214832.00,01,12,2017,00,00*6E
2017-12-01 16:48:31 1512164911.446380: $GPGGA,214832,3946.9663,N,08404.9762,W,2,12,0.80,301.15,M,-33.324,M,,*78
2017-12-01 16:48:31 1512164911.446449: $GPRMC,214832,A,3946.9663,N,08404.9762,W,0.0000,0.000,011217,,*35
2017-12-01 16:48:31 1512164911.446513: $GPGSA,A,3,1,10,14,22,31,32,3,12,18,25,26,138,2.0,0.8,1.5*0A
2017-12-01 16:48:32 1512164912.784396: $GPGSV,3,1,12,01,22,292,42,10,39,151,40,14,69,348,44,22,26,310,47*7C
2017-12-01 16:48:32 1512164912.784586: $GPGSV,3,2,12,31,64,234,49,32,65,048,49,03,06,316,31,12,18,043,20*7C
2017-12-01 16:48:32 1512164912.784656: $GPGSV,3,3,12,18,10,147,21,25,41,079,26,26,09,181,25,138,38,213,38*43
2017-12-01 16:48:32 1512164912.896879: $GPZDA,214833.00,01,12,2017,00,00*6F
2017-12-01 16:48:32 1512164912.897083: $GPGGA,214833,3946.9663,N,08404.9762,W,2,12,0.80,301.15,M,-33.324,M,,*79
2017-12-01 16:48:32 1512164912.897188: $GPRMC,214833,A,3946.9663,N,08404.9762,W,0.0000,0.000,011217,,*34
2017-12-01 16:48:32 1512164912.897259: $GPGSA,A,3,1,10,14,22,31,32,3,12,18,25,26,138,2.0,0.8,1.5*0A
2017-12-01 16:48:33 1512164913.447412: $GPZDA,214834.00,01,12,2017,00,00*68
2017-12-01 16:48:33 1512164913.447594: $GPGGA,214834,3946.9663,N,08404.9762,W,2,12,0.80,301.15,M,-33.324,M,,*7E
2017-12-01 16:48:33 1512164913.447665: $GPRMC,214834,A,3946.9663,N,08404.9762,W,0.0000,0.000,011217,,*33
2017-12-01 16:48:33 1512164913.447730: $GPGSA,A,3,1,10,14,22,31,32,3,12,18,25,26,138,2.0,0.8,1.5*0A
2017-12-01 16:48:34 1512164914.447725: $GPZDA,214835.00,01,12,2017,00,00*69
2017-12-01 16:48:34 1512164914.447943: $GPGGA,214835,3946.9663,N,08404.9762,W,2,12,0.80,301.15,M,-33.324,M,,*7F
2017-12-01 16:48:34 1512164914.448013: $GPRMC,214835,A,3946.9663,N,08404.9762,W,0.0000,0.000,011217,,*32
2017-12-01 16:48:34 1512164914.448079: $GPGSA,A,3,1,10,14,22,31,32,3,12,18,25,26,138,2.0,0.8,1.5*0A
2017-12-01 16:48:35 1512164915.783502: $GPGSV,3,1,12,01,22,292,42,10,39,151,40,14,69,348,44,22,26,310,47*7C
2017-12-01 16:48:35 1512164915.783684: $GPGSV,3,2,12,31,64,234,50,32,65,048,49,03,06,316,30,12,18,043,16*70
2017-12-01 16:48:35 1512164915.783751: $GPGSV,3,3,12,18,10,147,21,25,41,079,26,26,09,181,23,138,38,213,40*4A
2017-12-01 16:48:35 1512164915.896829: $GPZDA,214836.00,01,12,2017,00,00*6A
2017-12-01 16:48:35 1512164915.897013: $GPGGA,214836,3946.9663,N,08404.9762,W,2,11,1.00,301.15,M,-33.324,M,,*76
2017-12-01 16:48:35 1512164915.897083: $GPRMC,214836,A,3946.9663,N,08404.9762,W,0.0000,0.000,011217,,*31
2017-12-01 16:48:35 1512164915.897147: $GPGSA,A,3,1,10,14,22,31,32,3,18,25,26,138,,2.0,1.0,1.5*00
2017-12-01 16:48:36 1512164916.564559: $GPZDA,214837.00,01,12,2017,00,00*6B
2017-12-01 16:48:36 1512164916.564773: $GPGGA,214837,3946.9663,N,08404.9762,W,2,11,0.80,301.15,M,-33.324,M,,*7E
2017-12-01 16:48:36 1512164916.564847: $GPRMC,214837,A,3946.9663,N,08404.9762,W,0.0000,0.000,011217,,*30
2017-12-01 16:48:36 1512164916.564913: $GPGSA,A,3,1,10,14,22,31,32,3,18,25,26,138,,2.0,0.8,1.5*09
2017-12-01 16:48:36 1512164916.564972: $GPGBS,214837,2.67,M,3.86,M,8.82,M*39
2017-12-01 16:48:37 1512164917.451417: $GPZDA,214838.00,01,12,2017,00,00*64
2017-12-01 16:48:37 1512164917.451603: $GPGGA,214838,3946.9663,N,08404.9762,W,2,11,1.00,301.15,M,-33.324,M,,*78
2017-12-01 16:48:37 1512164917.451673: $GPRMC,214838,A,3946.9663,N,08404.9762,W,0.0000,0.000,011217,,*3F
2017-12-01 16:48:37 1512164917.451735: $GPGSA,A,3,1,10,14,22,31,32,3,18,25,26,138,,2.0,1.0,1.5*00
2017-12-01 16:48:37 1512164917.451795: $GPGBS,214838,2.67,M,3.86,M,8.82,M*36
2017-12-01 16:48:38 1512164918.784603: $GPGSV,3,1,12,01,22,292,42,10,39,151,40,14,69,348,44,22,26,310,47*7C
2017-12-01 16:48:38 1512164918.784789: $GPGSV,3,2,12,31,64,234,49,32,65,048,49,03,06,316,30,11,06,276,36*72
2017-12-01 16:48:38 1512164918.784857: $GPGSV,3,3,12,18,10,147,21,25,41,079,20,26,09,181,27,138,38,213,40*48
2017-12-01 16:48:38 1512164918.898106: $GPZDA,214839.00,01,12,2017,00,00*65
2017-12-01 16:48:38 1512164918.898264: $GPGGA,214839,3946.9663,N,08404.9762,W,2,12,0.80,301.15,M,-33.324,M,,*73
2017-12-01 16:48:38 1512164918.898329: $GPRMC,214839,A,3946.9663,N,08404.9762,W,0.0000,0.000,011217,,*3E
2017-12-01 16:48:38 1512164918.898391: $GPGSA,A,3,1,10,14,22,31,32,3,11,18,25,26,138,2.0,0.8,1.5*09
