2017-11-16 17:34:02 1510871642.254890: {"class":"VERSION","release":"3.17","rev":"3.17","proto_major":3,"proto_minor":12}
2017-11-16 17:34:02 1510871642.255441: {"class":"DEVICES","devices":[{"class":"DEVICE","path":"/dev/ttyUSB0","driver":"SiRF","subtype":"9\u0006GSD4e_4.1.2-P1_RPATCH.05-F-GPS-4R-1510281 11/03/2015 307","activated":"2017-11-16T22:34:02.222Z","flags":1,"native":1,"bps":4800,"parity":"N","stopbits":1,"cycle":1.00}]}
2017-11-16 17:34:02 1510871642.255555: {"class":"WATCH","enable":true,"json":false,"nmea":true,"raw":0,"scaled":false,"timing":false,"split24":false,"pps":false}
2017-11-16 17:34:02 1510871642.398946: $GPZDA,223401.00,16,11,2017,00,00*63
2017-11-16 17:34:02 1510871642.399101: $GPGGA,223401,3946.9576,N,08404.9841,W,2,11,0.80,303.26,M,-33.324,M,,*78
2017-11-16 17:34:02 1510871642.399161: $GPRMC,223401,A,3946.9576,N,08404.9841,W,0.0000,0.000,161117,,*31
2017-11-16 17:34:02 1510871642.399217: $GPGSA,A,3,1,10,22,12,14,18,11,25,31,32,138,,1.6,0.8,1.3*3E
2017-11-16 17:34:03 1510871643.735936: $GPGSV,3,1,11,01,21,300,34,10,47,148,47,22,19,312,44,12,22,049,50*72
2017-11-16 17:34:03 1510871643.736121: $GPGSV,3,2,11,14,66,330,47,18,17,144,40,11,08,280,39,25,40,088,48*73
2017-11-16 17:34:03 1510871643.736183: $GPGSV,3,3,11,31,56,226,48,32,68,030,48,138,38,213,44*73
2017-11-16 17:34:03 1510871643.848876: $GPZDA,223402.00,16,11,2017,00,00*60
2017-11-16 17:34:03 1510871643.849050: $GPGGA,223402,3946.9576,N,08404.9841,W,2,11,0.80,303.26,M,-33.324,M,,*7B
2017-11-16 17:34:03 1510871643.849112: $GPRMC,223402,A,3946.9576,N,08404.9841,W,0.0000,0.000,161117,,*32
2017-11-16 17:34:03 1510871643.849167: $GPGSA,A,3,1,10,22,12,14,18,11,25,31,32,138,,1.6,0.8,1.3*3E
2017-11-16 17:34:04 1510871644.394428: $GPZDA,223403.00,16,11,2017,00,00*61
2017-11-16 17:34:04 1510871644.394589: $GPGGA,223403,3946.9576,N,08404.9841,W,2,11,0.80,303.26,M,-33.324,M,,*7A
2017-11-16 17:34:04 1510871644.394651: $GPRMC,223403,A,3946.9576,N,08404.9841,W,0.0000,0.000,161117,,*33
2017-11-16 17:34:04 1510871644.394725: $GPGSA,A,3,1,10,22,12,14,18,11,25,31,32,138,,1.6,0.8,1.3*3E
2017-11-16 17:34:05 1510871645.400907: $GPZDA,223404.00,16,11,2017,00,00*66
2017-11-16 17:34:05 1510871645.401080: $GPGGA,223404,3946.9576,N,08404.9841,W,2,11,0.80,303.26,M,-33.324,M,,*7D
2017-11-16 17:34:05 1510871645.401142: $GPRMC,223404,A,3946.9576,N,08404.9841,W,0.0000,0.000,161117,,*34
2017-11-16 17:34:05 1510871645.401197: $GPGSA,A,3,1,10,22,12,14,18,11,25,31,32,138,,1.6,0.8,1.3*3E
2017-11-16 17:34:06 1510871646.735134: $GPGSV,3,1,11,01,21,300,35,10,47,148,46,22,19,312,44,12,22,049,50*72
2017-11-16 17:34:06 1510871646.735302: $GPGSV,3,2,11,14,66,330,47,18,17,144,40,11,08,280,39,25,40,088,48*73
2017-11-16 17:34:06 1510871646.735363: $GPGSV,3,3,11,31,56,226,48,32,68,030,48,138,38,213,44*73
2017-11-16 17:34:06 1510871646.848344: $GPZDA,223405.00,16,11,2017,00,00*67
2017-11-16 17:34:06 1510871646.848501: $GPGGA,223405,3946.9576,N,08404.9841,W,2,11,0.80,303.26,M,-33.324,M,,*7C
2017-11-16 17:34:06 1510871646.848561: $GPRMC,223405,A,3946.9576,N,08404.9841,W,0.0000,0.000,161117,,*35
2017-11-16 17:34:06 1510871646.848617: $GPGSA,A,3,1,10,22,12,14,18,11,25,31,32,138,,1.6,0.8,1.3*3E
2017-11-16 17:34:07 1510871647.400448: $GPZDA,223406.00,16,11,2017,00,00*64
2017-11-16 17:34:07 1510871647.400615: $GPGGA,223406,3946.9576,N,08404.9841,W,2,11,0.80,303.26,M,-33.324,M,,*7F
2017-11-16 17:34:07 1510871647.400677: $GPRMC,223406,A,3946.9576,N,08404.9841,W,0.0000,0.000,161117,,*36
2017-11-16 17:34:07 1510871647.400733: $GPGSA,A,3,1,10,22,12,14,18,11,25,31,32,138,,1.6,0.8,1.3*3E
2017-11-16 17:34:08 1510871648.399096: $GPZDA,223407.00,16,11,2017,00,00*65
2017-11-16 17:34:08 1510871648.399261: $GPGGA,223407,3946.9576,N,08404.9841,W,2,11,0.80,303.26,M,-33.324,M,,*7E
2017-11-16 17:34:08 1510871648.399321: $GPRMC,223407,A,3946.9576,N,08404.9841,W,0.0000,0.000,161117,,*37
2017-11-16 17:34:08 1510871648.399381: $GPGSA,A,3,1,10,22,12,14,18,11,25,31,32,138,,1.6,0.8,1.3*3E
2017-11-16 17:34:09 1510871649.735860: $GPGSV,3,1,11,01,21,300,35,10,47,148,46,22,19,312,44,12,22,049,50*72
2017-11-16 17:34:09 1510871649.736080: $GPGSV,3,2,11,14,66,330,47,18,17,144,40,11,08,280,40,25,40,088,48*7D
2017-11-16 17:34:09 1510871649.736143: $GPGSV,3,3,11,31,56,226,48,32,68,030,48,138,38,213,43*74
2017-11-16 17:34:09 1510871649.849476: $GPZDA,223408.00,16,11,2017,00,00*6A
2017-11-16 17:34:09 1510871649.849632: $GPGGA,223408,3946.9576,N,08404.9841,W,2,11,0.80,303.26,M,-33.324,M,,*71
2017-11-16 17:34:09 1510871649.849694: $GPRMC,223408,A,3946.9576,N,08404.9841,W,0.0000,0.000,161117,,*38
2017-11-16 17:34:09 1510871649.849750: $GPGSA,A,3,1,10,22,12,14,18,11,25,31,32,138,,1.6,0.8,1.3*3E
2017-11-16 17:34:10 1510871650.400056: $GPZDA,223409.00,16,11,2017,00,00*6B
2017-11-16 17:34:10 1510871650.400234: $GPGGA,223409,3946.9576,N,08404.9841,W,2,11,0.80,303.26,M,-33.324,M,,*70
2017-11-16 17:34:10 1510871650.400298: $GPRMC,223409,A,3946.9576,N,08404.9841,W,0.0000,0.000,161117,,*39
2017-11-16 17:34:10 1510871650.400357: $GPGSA,A,3,1,10,22,12,14,18,11,25,31,32,138,,1.6,0.8,1.3*3E
2017-11-16 17:34:11 1510871651.399049: $GPZDA,223410.00,16,11,2017,00,00*63
2017-11-16 17:34:11 1510871651.399272: $GPGGA,223410,3946.9576,N,08404.9841,W,2,11,0.80,303.26,M,-33.324,M,,*78
2017-11-16 17:34:11 1510871651.399363: $GPRMC,223410,A,3946.9576,N,08404.9841,W,0.0000,0.000,161117,,*31
2017-11-16 17:34:11 1510871651.399423: $GPGSA,A,3,1,10,22,12,14,18,11,25,31,32,138,,1.6,0.8,1.3*3E
