2017-12-01 17:00:58 1512165658.736891: {"class":"VERSION","release":"3.16","rev":"3.16-4","proto_major":3,"proto_minor":11}
2017-12-01 17:00:58 1512165658.737300: {"class":"DEVICES","devices":[{"class":"DEVICE","path":"/dev/ttyUSB0","driver":"SiRF","subtype":"9\u0006GSD4e_4.1.2-P1_RPATCH.05-F-GPS-4R-1510281 11/03/2015 307","activated":"2017-12-01T22:00:58.412Z","flags":1,"native":1,"bps":4800,"parity":"N","stopbits":1,"cycle":1.00}]}
2017-12-01 17:00:58 1512165658.737433: {"class":"WATCH","enable":true,"json":false,"nmea":true,"raw":0,"scaled":false,"timing":false,"split24":false,"pps":false}
2017-12-01 17:00:59 1512165659.017988: $GPZDA,220059.67,01,12,2017,00,00*6D
2017-12-01 17:00:59 1512165659.018162: $GPGGA,220059,3946.9636,N,08404.9748,W,1,11,1.40,296.07,M,-33.324,M,,*73
2017-12-01 17:00:59 1512165659.018233: $GPRMC,220059,A,3946.9636,N,08404.9748,W,0.2967,46.893,011217,,*05
2017-12-01 17:00:59 1512165659.018294: $GPGSA,A,3,1,3,10,12,14,22,26,31,32,25,138,,2.0,1.4,1.5*0E
2017-12-01 17:01:00 1512165660.122056: $GPZDA,220100.35,01,12,2017,00,00*67
2017-12-01 17:01:00 1512165660.122239: $GPGGA,220100,3946.9636,N,08404.9741,W,1,11,1.40,296.15,M,-33.324,M,,*74
2017-12-01 17:01:00 1512165660.122309: $GPRMC,220100,A,3946.9636,N,08404.9741,W,0.3006,62.539,011217,,*05
2017-12-01 17:01:00 1512165660.122371: $GPGSA,A,3,1,3,10,12,14,22,26,31,32,25,138,,2.0,1.4,1.5*0E
2017-12-01 17:01:00 1512165660.122452: $GPGBS,220100,10.70,M,15.43,M,35.28,M*06
2017-12-01 17:01:01 1512165661.288268: $GPGSV,3,1,12,01,21,286,42,03,11,316,42,10,33,153,39,11,03,270,36*7E
2017-12-01 17:01:01 1512165661.288454: $GPGSV,3,2,12,14,70,004,46,22,30,309,47,26,15,180,33,31,70,244,49*76
2017-12-01 17:01:01 1512165661.288520: $GPGSV,3,3,12,32,62,061,49,12,15,039,08,25,40,070,00,138,38,213,00*45
2017-12-01 17:01:01 1512165661.400387: $GPZDA,220101.00,01,12,2017,00,00*60
2017-12-01 17:01:01 1512165661.400578: $GPGGA,220101,3946.9636,N,08404.9741,W,1,09,1.40,296.15,M,-33.324,M,,*7C
2017-12-01 17:01:01 1512165661.400646: $GPRMC,220101,A,3946.9636,N,08404.9741,W,0.1867,180.000,011217,,*3B
2017-12-01 17:01:01 1512165661.400709: $GPGSA,A,3,1,3,10,11,14,22,26,31,32,,,,2.0,1.4,1.5*30
2017-12-01 17:01:01 1512165661.852589: $GPZDA,220102.00,01,12,2017,00,00*63
2017-12-01 17:01:01 1512165661.852749: $GPGGA,220102,3946.9636,N,08404.9741,W,1,09,0.80,296.15,M,-33.324,M,,*72
2017-12-01 17:01:01 1512165661.852817: $GPRMC,220102,A,3946.9636,N,08404.9741,W,0.0000,0.000,011217,,*39
2017-12-01 17:01:01 1512165661.852879: $GPGSA,A,3,1,3,10,11,14,22,26,31,32,,,,2.0,0.8,1.5*3D
2017-12-01 17:01:02 1512165662.407135: $GPZDA,220103.00,01,12,2017,00,00*62
2017-12-01 17:01:02 1512165662.407318: $GPGGA,220103,3946.9636,N,08404.9741,W,1,09,0.80,296.15,M,-33.324,M,,*73
2017-12-01 17:01:02 1512165662.407386: $GPRMC,220103,A,3946.9636,N,08404.9741,W,0.0000,0.000,011217,,*38
2017-12-01 17:01:02 1512165662.407448: $GPGSA,A,3,1,3,10,11,14,22,26,31,32,,,,2.0,0.8,1.5*3D
2017-12-01 17:01:03 1512165663.743704: $GPGSV,3,1,12,01,21,286,41,03,11,316,42,10,33,153,38,11,03,270,39*73
2017-12-01 17:01:03 1512165663.743935: $GPGSV,3,2,12,14,70,004,46,22,30,309,47,26,15,180,32,31,70,244,49*77
2017-12-01 17:01:03 1512165663.744032: $GPGSV,3,3,12,32,62,061,48,12,15,039,27,25,40,070,00,138,38,213,04*4D
2017-12-01 17:01:03 1512165663.857369: $GPZDA,220104.00,01,12,2017,00,00*65
2017-12-01 17:01:03 1512165663.857540: $GPGGA,220104,3946.9636,N,08404.9741,W,1,11,0.80,296.15,M,-33.324,M,,*7D
2017-12-01 17:01:03 1512165663.857607: $GPRMC,220104,A,3946.9636,N,08404.9741,W,0.0000,0.000,011217,,*3F
2017-12-01 17:01:03 1512165663.857670: $GPGSA,A,3,1,3,10,11,14,22,26,31,32,12,138,,2.0,0.8,1.5*04
2017-12-01 17:01:04 1512165664.407960: $GPZDA,220105.00,01,12,2017,00,00*64
2017-12-01 17:01:04 1512165664.408133: $GPGGA,220105,3946.9636,N,08404.9741,W,1,11,0.80,296.15,M,-33.324,M,,*7C
2017-12-01 17:01:04 1512165664.408204: $GPRMC,220105,A,3946.9636,N,08404.9741,W,0.4207,39.347,011217,,*05
2017-12-01 17:01:04 1512165664.408266: $GPGSA,A,3,1,3,10,11,14,22,26,31,32,12,138,,2.0,0.8,1.5*04
2017-12-01 17:01:05 1512165665.408775: $GPZDA,220106.00,01,12,2017,00,00*67
2017-12-01 17:01:05 1512165665.408998: $GPGGA,220106,3946.9636,N,08404.9741,W,1,11,0.80,296.15,M,-33.324,M,,*7F
2017-12-01 17:01:05 1512165665.409071: $GPRMC,220106,A,3946.9636,N,08404.9741,W,0.0000,0.000,011217,,*3D
2017-12-01 17:01:05 1512165665.409133: $GPGSA,A,3,1,3,10,11,14,22,26,31,32,12,138,,2.0,0.8,1.5*04
2017-12-01 17:01:05 1512165665.409196: $GPGBS,220106,10.70,M,15.43,M,35.28,M*00
2017-12-01 17:01:06 1512165666.744361: $GPGSV,3,1,12,01,21,286,41,03,11,316,42,10,33,153,36,11,03,270,36*72
2017-12-01 17:01:06 1512165666.744543: $GPGSV,3,2,12,14,70,004,46,22,30,309,47,26,15,180,32,31,70,244,49*77
2017-12-01 17:01:06 1512165666.744610: $GPGSV,3,3,12,32,62,061,48,12,15,039,27,25,40,070,00,138,38,213,39*43
2017-12-01 17:01:06 1512165666.857730: $GPZDA,220107.00,01,12,2017,00,00*66
2017-12-01 17:01:06 1512165666.857887: $GPGGA,220107,3946.9636,N,08404.9741,W,1,11,0.80,296.15,M,-33.324,M,,*7E
2017-12-01 17:01:06 1512165666.857951: $GPRMC,220107,A,3946.9636,N,08404.9741,W,0.1867,0.000,011217,,*34
2017-12-01 17:01:06 1512165666.858013: $GPGSA,A,3,1,3,10,11,14,22,26,31,32,12,138,,2.0,0.8,1.5*04
2017-12-01 17:01:07 1512165667.409932: $GPZDA,220108.00,01,12,2017,00,00*69
2017-12-01 17:01:07 1512165667.410117: $GPGGA,220108,3946.9639,N,08404.9740,W,1,11,0.80,295.38,M,-33.324,M,,*73
2017-12-01 17:01:07 1512165667.410189: $GPRMC,220108,A,3946.9639,N,08404.9740,W,0.0000,0.000,011217,,*3D
2017-12-01 17:01:07 1512165667.410250: $GPGSA,A,3,1,3,10,11,14,22,26,31,32,12,138,,2.0,0.8,1.5*04
2017-12-01 17:01:08 1512165668.410225: $GPZDA,220109.00,01,12,2017,00,00*68
2017-12-01 17:01:08 1512165668.410400: $GPGGA,220109,3946.9639,N,08404.9740,W,1,11,0.80,295.38,M,-33.324,M,,*72
2017-12-01 17:01:08 1512165668.410468: $GPRMC,220109,A,3946.9639,N,08404.9740,W,0.0000,0.000,011217,,*3C
2017-12-01 17:01:08 1512165668.410530: $GPGSA,A,3,1,3,10,11,14,22,26,31,32,12,138,,2.0,0.8,1.5*04
2017-12-01 17:01:09 1512165669.747213: $GPGSV,3,1,12,01,21,286,41,03,11,316,41,10,33,153,36,18,05,147,07*7B
2017-12-01 17:01:09 1512165669.747398: $GPGSV,3,2,12,14,70,004,46,22,30,309,47,26,15,180,33,31,70,244,48*77
2017-12-01 17:01:09 1512165669.747465: $GPGSV,3,3,12,32,62,061,48,12,15,039,27,25,40,070,18,138,38,213,39*4A
2017-12-01 17:01:09 1512165669.860564: $GPZDA,220110.00,01,12,2017,00,00*60
2017-12-01 17:01:09 1512165669.860738: $GPGGA,220110,3946.9639,N,08404.9740,W,1,11,0.80,295.38,M,-33.324,M,,*7A
2017-12-01 17:01:09 1512165669.860807: $GPRMC,220110,A,3946.9639,N,08404.9740,W,0.0000,0.000,011217,,*34
2017-12-01 17:01:09 1512165669.860868: $GPGSA,A,3,1,3,10,14,22,26,31,32,12,25,138,,2.0,0.8,1.5*03
2017-12-01 17:01:10 1512165670.410203: $GPZDA,220111.00,01,12,2017,00,00*61
2017-12-01 17:01:10 1512165670.410371: $GPGGA,220111,3946.9642,N,08404.9725,W,2,11,1.20,294.78,M,-33.324,M,,*79
2017-12-01 17:01:10 1512165670.410437: $GPRMC,220111,A,3946.9642,N,08404.9725,W,0.0000,0.000,011217,,*3A
2017-12-01 17:01:10 1512165670.410499: $GPGSA,A,3,1,3,10,14,22,26,31,32,12,25,138,,2.0,1.2,1.5*08
2017-12-01 17:01:11 1512165671.411077: $GPZDA,220112.00,01,12,2017,00,00*62
2017-12-01 17:01:11 1512165671.411256: $GPGGA,220112,3946.9642,N,08404.9725,W,2,11,0.60,294.78,M,-33.324,M,,*7F
2017-12-01 17:01:11 1512165671.411323: $GPRMC,220112,A,3946.9642,N,08404.9725,W,0.0000,0.000,011217,,*39
2017-12-01 17:01:11 1512165671.411434: $GPGSA,A,3,1,3,10,14,22,26,31,32,12,25,138,,2.0,0.6,1.5*0D
2017-12-01 17:01:12 1512165672.748142: $GPGSV,3,1,12,01,21,286,41,03,11,316,41,10,33,153,36,18,05,147,16*7B
2017-12-01 17:01:12 1512165672.748341: $GPGSV,3,2,12,14,70,004,45,22,30,309,47,26,15,180,34,31,70,244,48*73
2017-12-01 17:01:12 1512165672.748410: $GPGSV,3,3,12,32,62,061,47,12,15,039,27,25,40,070,19,138,38,213,38*45
2017-12-01 17:01:12 1512165672.861580: $GPZDA,220113.00,01,12,2017,00,00*63
2017-12-01 17:01:12 1512165672.861765: $GPGGA,220113,3946.9642,N,08404.9725,W,2,12,0.60,294.78,M,-33.324,M,,*7D
2017-12-01 17:01:12 1512165672.861832: $GPRMC,220113,A,3946.9642,N,08404.9725,W,0.0000,0.000,011217,,*38
2017-12-01 17:01:12 1512165672.861939: $GPGSA,A,3,1,3,10,18,14,22,26,31,32,12,25,138,2.0,0.6,1.5*04
2017-12-01 17:01:13 1512165673.486848: $GPZDA,220114.00,01,12,2017,00,00*64
2017-12-01 17:01:13 1512165673.487039: $GPGGA,220114,3946.9642,N,08404.9725,W,2,12,0.60,294.78,M,-33.324,M,,*7A
2017-12-01 17:01:13 1512165673.487107: $GPRMC,220114,A,3946.9642,N,08404.9725,W,0.0000,0.000,011217,,*3F
2017-12-01 17:01:13 1512165673.487185: $GPGSA,A,3,1,3,10,18,14,22,26,31,32,12,25,138,2.0,0.6,1.5*04
2017-12-01 17:01:14 1512165674.409013: $GPZDA,220115.00,01,12,2017,00,00*65
2017-12-01 17:01:14 1512165674.409207: $GPGGA,220115,3946.9642,N,08404.9725,W,2,12,0.60,294.78,M,-33.324,M,,*7B
2017-12-01 17:01:14 1512165674.409276: $GPRMC,220115,A,3946.9642,N,08404.9725,W,0.0000,0.000,011217,,*3E
2017-12-01 17:01:14 1512165674.409337: $GPGSA,A,3,1,3,10,18,14,22,26,31,32,12,25,138,2.0,0.6,1.5*04
2017-12-01 17:01:15 1512165675.750958: $GPGSV,3,1,12,01,21,286,42,03,11,316,41,10,33,153,36,18,05,147,16*78
2017-12-01 17:01:15 1512165675.751173: $GPGSV,3,2,12,14,70,004,45,22,30,309,47,26,15,180,34,31,70,244,48*73
2017-12-01 17:01:15 1512165675.751241: $GPGSV,3,3,12,32,62,061,48,12,15,039,27,25,40,070,19,138,38,213,40*45
2017-12-01 17:01:15 1512165675.864361: $GPZDA,220116.00,01,12,2017,00,00*66
2017-12-01 17:01:15 1512165675.864530: $GPGGA,220116,3946.9642,N,08404.9725,W,2,12,0.60,294.78,M,-33.324,M,,*78
2017-12-01 17:01:15 1512165675.864596: $GPRMC,220116,A,3946.9642,N,08404.9725,W,0.0000,0.000,011217,,*3D
2017-12-01 17:01:15 1512165675.864659: $GPGSA,A,3,1,3,10,18,14,22,26,31,32,12,25,138,2.0,0.6,1.5*04
2017-12-01 17:01:16 1512165676.415223: $GPZDA,220117.00,01,12,2017,00,00*67
2017-12-01 17:01:16 1512165676.415383: $GPGGA,220117,3946.9643,N,08404.9726,W,2,12,0.60,296.18,M,-33.324,M,,*7F
2017-12-01 17:01:16 1512165676.415449: $GPRMC,220117,A,3946.9643,N,08404.9726,W,0.0000,0.000,011217,,*3E
2017-12-01 17:01:16 1512165676.415510: $GPGSA,A,3,1,3,10,18,14,22,26,31,32,12,25,138,2.0,0.6,1.5*04
2017-12-01 17:01:17 1512165677.415942: $GPZDA,220118.00,01,12,2017,00,00*68
2017-12-01 17:01:17 1512165677.416148: $GPGGA,220118,3946.9643,N,08404.9726,W,2,12,0.60,296.18,M,-33.324,M,,*70
2017-12-01 17:01:17 1512165677.416234: $GPRMC,220118,A,3946.9643,N,08404.9726,W,0.0000,0.000,011217,,*31
2017-12-01 17:01:17 1512165677.416296: $GPGSA,A,3,1,3,10,18,14,22,26,31,32,12,25,138,2.0,0.6,1.5*04
2017-12-01 17:01:17 1512165677.416355: $GPGBS,220118,2.67,M,3.86,M,8.82,M*3A
