2017-11-15 18:59:02 1510790342.562341: {"class":"VERSION","release":"3.17","rev":"3.17","proto_major":3,"proto_minor":12}
2017-11-15 18:59:02 1510790342.562815: {"class":"DEVICES","devices":[{"class":"DEVICE","path":"/dev/ttyUSB0","driver":"SiRF","subtype":"9\u0006GSD4e_4.1.2-P1_RPATCH.05-F-GPS-4R-1510281 11/03/2015 307","activated":"2017-11-15T23:59:02.470Z","flags":1,"native":1,"bps":4800,"parity":"N","stopbits":1,"cycle":1.00}]}
2017-11-15 18:59:02 1510790342.562936: {"class":"WATCH","enable":true,"json":false,"nmea":true,"raw":0,"scaled":false,"timing":false,"split24":false,"pps":false}
2017-11-15 18:59:03 1510790343.666058: $GPGSV,3,1,11,16,08,190,11,14,64,069,14,03,30,310,19,32,47,094,28*7E
2017-11-15 18:59:03 1510790343.666230: $GPGSV,3,2,11,31,78,345,20,26,37,177,17,22,46,291,10,25,28,046,00*74
2017-11-15 18:59:03 1510790343.666291: $GPGSV,3,3,11,29,05,084,22,10,10,159,00,01,13,264,15*41
2017-11-15 18:59:03 1510790343.779410: $GPZDA,235902.00,15,11,2017,00,00*69
2017-11-15 18:59:03 1510790343.779574: $GPGGA,235902,3946.9513,N,08404.9538,W,1,09,0.80,304.68,M,-33.324,M,,*76
2017-11-15 18:59:03 1510790343.779636: $GPRMC,235902,A,3946.9513,N,08404.9538,W,1.2381,172.270,151117,,*33
2017-11-15 18:59:03 1510790343.779692: $GPGSA,A,3,16,14,3,32,31,26,22,29,1,,,,3.4,0.8,2.9*3A
2017-11-15 18:59:04 1510790344.372768: $GPZDA,235903.00,15,11,2017,00,00*68
2017-11-15 18:59:04 1510790344.372942: $GPGGA,235903,3946.9513,N,08404.9538,W,1,09,0.80,304.68,M,-33.324,M,,*77
2017-11-15 18:59:04 1510790344.373005: $GPRMC,235903,A,3946.9513,N,08404.9538,W,1.2132,183.551,151117,,*32
2017-11-15 18:59:04 1510790344.373061: $GPGSA,A,3,16,14,3,32,31,26,22,29,1,,,,3.4,0.8,2.9*3A
2017-11-15 18:59:05 1510790345.331270: $GPZDA,235904.00,15,11,2017,00,00*6F
2017-11-15 18:59:05 1510790345.331433: $GPGGA,235904,3946.9509,N,08404.9538,W,1,09,0.80,304.04,M,-33.324,M,,*71
2017-11-15 18:59:05 1510790345.331495: $GPRMC,235904,A,3946.9509,N,08404.9538,W,1.4868,164.064,151117,,*34
2017-11-15 18:59:05 1510790345.331551: $GPGSA,A,3,16,14,3,32,31,26,22,29,1,,,,3.4,0.8,2.9*3A
2017-11-15 18:59:06 1510790346.707720: $GPGSV,3,1,11,16,08,190,11,14,64,069,14,03,30,310,19,32,47,094,28*7E
2017-11-15 18:59:06 1510790346.707913: $GPGSV,3,2,11,31,78,345,20,26,37,177,17,22,46,291,10,25,28,046,00*74
2017-11-15 18:59:06 1510790346.707974: $GPGSV,3,3,11,29,05,084,22,10,10,159,00,01,13,264,16*42
2017-11-15 18:59:06 1510790346.821003: $GPZDA,235905.00,15,11,2017,00,00*6E
2017-11-15 18:59:06 1510790346.821167: $GPGGA,235905,3946.9509,N,08404.9538,W,1,09,0.80,304.04,M,-33.324,M,,*70
2017-11-15 18:59:06 1510790346.821230: $GPRMC,235905,A,3946.9509,N,08404.9538,W,1.5746,174.845,151117,,*3D
2017-11-15 18:59:06 1510790346.821287: $GPGSA,A,3,16,14,3,32,31,26,22,29,1,,,,3.4,0.8,2.9*3A
2017-11-15 18:59:07 1510790347.372148: $GPZDA,235906.00,15,11,2017,00,00*6D
2017-11-15 18:59:07 1510790347.372323: $GPGGA,235906,3946.9509,N,08404.9538,W,1,09,0.80,304.04,M,-33.324,M,,*73
2017-11-15 18:59:07 1510790347.372384: $GPRMC,235906,A,3946.9509,N,08404.9538,W,1.2381,172.270,151117,,*3C
2017-11-15 18:59:07 1510790347.372440: $GPGSA,A,3,16,14,3,32,31,26,22,29,1,,,,3.4,0.8,2.9*3A
2017-11-15 18:59:08 1510790348.366662: $GPZDA,235907.00,15,11,2017,00,00*6C
2017-11-15 18:59:08 1510790348.372229: $GPGGA,235907,3946.9505,N,08404.9538,W,1,09,0.80,303.40,M,-33.324,M,,*79
2017-11-15 18:59:08 1510790348.372329: $GPRMC,235907,A,3946.9505,N,08404.9538,W,1.0534,170.904,151117,,*31
2017-11-15 18:59:08 1510790348.372388: $GPGSA,A,3,16,14,3,32,31,26,22,29,1,,,,3.4,0.8,2.9*3A
2017-11-15 18:59:09 1510790349.708734: $GPGSV,3,1,11,16,08,190,11,14,64,069,15,03,30,310,19,32,47,094,28*7F
2017-11-15 18:59:09 1510790349.708907: $GPGSV,3,2,11,31,78,345,20,26,37,177,17,22,46,291,04,25,28,046,09*78
2017-11-15 18:59:09 1510790349.708967: $GPGSV,3,3,11,29,05,084,22,10,10,159,00,01,13,264,15*41
2017-11-15 18:59:09 1510790349.822089: $GPZDA,235908.00,15,11,2017,00,00*63
2017-11-15 18:59:09 1510790349.822259: $GPGGA,235908,3946.9505,N,08404.9538,W,1,08,0.80,303.40,M,-33.324,M,,*77
2017-11-15 18:59:09 1510790349.822322: $GPRMC,235908,A,3946.9505,N,08404.9538,W,1.0567,197.448,151117,,*34
2017-11-15 18:59:09 1510790349.822430: $GPGSA,A,3,16,14,3,32,31,26,29,1,,,,,3.4,0.8,2.9*3A
2017-11-15 18:59:10 1510790350.331877: $GPZDA,235909.00,15,11,2017,00,00*62
2017-11-15 18:59:10 1510790350.332036: $GPGGA,235909,3946.9505,N,08404.9538,W,1,08,0.80,303.40,M,-33.324,M,,*76
2017-11-15 18:59:10 1510790350.332097: $GPRMC,235909,A,3946.9505,N,08404.9538,W,0.5951,238.684,151117,,*3C
2017-11-15 18:59:10 1510790350.332152: $GPGSA,A,3,16,14,3,32,31,26,29,1,,,,,3.4,0.8,2.9*3A
2017-11-15 18:59:11 1510790351.372256: $GPZDA,235910.00,15,11,2017,00,00*6A
2017-11-15 18:59:11 1510790351.372431: $GPGGA,235910,3946.9509,N,08404.9545,W,1,08,0.80,303.96,M,-33.324,M,,*73
2017-11-15 18:59:11 1510790351.372496: $GPRMC,235910,A,3946.9509,N,08404.9545,W,0.5230,256.444,151117,,*38
2017-11-15 18:59:11 1510790351.372555: $GPGSA,A,3,16,14,3,32,31,26,29,1,,,,,3.4,0.8,2.9*3A
2017-11-15 18:59:12 1510790352.709031: $GPGSV,3,1,11,16,08,190,13,14,64,069,15,03,30,310,19,32,47,094,28*7D
2017-11-15 18:59:12 1510790352.709210: $GPGSV,3,2,11,31,78,345,20,26,37,177,18,22,46,291,04,25,28,046,13*7C
2017-11-15 18:59:12 1510790352.709273: $GPGSV,3,3,11,29,05,084,22,10,10,159,00,01,13,264,15*41
2017-11-15 18:59:12 1510790352.822317: $GPZDA,235911.00,15,11,2017,00,00*6B
2017-11-15 18:59:12 1510790352.822524: $GPGGA,235911,3946.9509,N,08404.9545,W,1,09,0.80,303.96,M,-33.324,M,,*73
2017-11-15 18:59:12 1510790352.822590: $GPRMC,235911,A,3946.9509,N,08404.9545,W,0.5306,294.352,151117,,*33
2017-11-15 18:59:12 1510790352.822668: $GPGSA,A,3,16,14,3,32,31,26,25,29,1,,,,3.4,0.8,2.9*3D
2017-11-15 18:59:13 1510790353.331001: $GPZDA,235912.00,15,11,2017,00,00*68
2017-11-15 18:59:13 1510790353.331168: $GPGGA,235912,3946.9513,N,08404.9545,W,1,09,0.80,304.60,M,-33.324,M,,*75
2017-11-15 18:59:13 1510790353.331247: $GPRMC,235912,A,3946.9513,N,08404.9545,W,0.5912,309.173,151117,,*30
2017-11-15 18:59:13 1510790353.331307: $GPGSA,A,3,16,14,3,32,31,26,25,29,1,,,,3.4,0.8,2.9*3D
2017-11-15 18:59:14 1510790354.372900: $GPZDA,235913.00,15,11,2017,00,00*69
2017-11-15 18:59:14 1510790354.373066: $GPGGA,235913,3946.9517,N,08404.9551,W,1,09,0.80,303.76,M,-33.324,M,,*75
2017-11-15 18:59:14 1510790354.373129: $GPRMC,235913,A,3946.9517,N,08404.9551,W,0.4179,328.778,151117,,*3A
2017-11-15 18:59:14 1510790354.373187: $GPGSA,A,3,16,14,3,32,31,26,25,29,1,,,,3.4,0.8,2.9*3D
2017-11-15 18:59:15 1510790355.709952: $GPGSV,3,1,11,16,08,190,13,14,64,069,16,03,30,310,19,32,47,094,29*7F
2017-11-15 18:59:15 1510790355.710099: $GPGSV,3,2,11,31,78,345,20,26,37,177,18,22,46,291,04,25,28,046,13*7C
2017-11-15 18:59:15 1510790355.710160: $GPGSV,3,3,11,29,05,084,22,10,10,159,00,01,13,264,15*41
2017-11-15 18:59:15 1510790355.823337: $GPZDA,235914.00,15,11,2017,00,00*6E
2017-11-15 18:59:15 1510790355.823569: $GPGGA,235914,3946.9517,N,08404.9551,W,1,09,0.80,303.76,M,-33.324,M,,*72
2017-11-15 18:59:15 1510790355.823637: $GPRMC,235914,A,3946.9517,N,08404.9551,W,0.7246,344.668,151117,,*3B
2017-11-15 18:59:15 1510790355.823696: $GPGSA,A,3,16,14,3,32,31,26,25,29,1,,,,3.4,0.8,2.9*3D
2017-11-15 18:59:16 1510790356.448832: $GPZDA,235915.00,15,11,2017,00,00*6F
2017-11-15 18:59:16 1510790356.448964: $GPGGA,235915,3946.9525,N,08404.9550,W,1,09,0.80,303.64,M,-33.324,M,,*70
2017-11-15 18:59:16 1510790356.449026: $GPRMC,235915,A,3946.9525,N,08404.9550,W,0.4844,93.794,151117,,*0A
2017-11-15 18:59:16 1510790356.449085: $GPGSA,A,3,16,14,3,32,31,26,25,29,1,,,,3.4,0.8,2.9*3D
2017-11-15 18:59:17 1510790357.330741: $GPZDA,235916.00,15,11,2017,00,00*6C
2017-11-15 18:59:17 1510790357.330914: $GPGGA,235916,3946.9525,N,08404.9550,W,1,09,0.80,303.64,M,-33.324,M,,*73
2017-11-15 18:59:17 1510790357.330978: $GPRMC,235916,A,3946.9525,N,08404.9550,W,0.3423,4.197,151117,,*38
2017-11-15 18:59:17 1510790357.331036: $GPGSA,A,3,16,14,3,32,31,26,25,29,1,,,,3.4,0.8,2.9*3D
2017-11-15 18:59:18 1510790358.710348: $GPGSV,3,1,11,16,08,190,12,14,64,069,16,03,30,310,19,32,47,094,29*7E
2017-11-15 18:59:18 1510790358.711949: $GPGSV,3,2,11,31,78,345,20,26,37,177,18,22,46,291,04,25,28,046,12*7D
2017-11-15 18:59:18 1510790358.712086: $GPGSV,3,3,11,29,05,084,22,10,10,159,00,01,13,264,15*41
2017-11-15 18:59:18 1510790358.822660: $GPZDA,235917.00,15,11,2017,00,00*6D
2017-11-15 18:59:18 1510790358.822826: $GPGGA,235917,3946.9532,N,08404.9550,W,1,09,0.80,303.51,M,-33.324,M,,*72
2017-11-15 18:59:18 1510790358.822887: $GPRMC,235917,A,3946.9532,N,08404.9550,W,0.5951,58.684,151117,,*0D
2017-11-15 18:59:18 1510790358.822943: $GPGSA,A,3,16,14,3,32,31,26,25,29,1,,,,3.4,0.8,2.9*3D
2017-11-15 18:59:19 1510790359.374821: $GPZDA,235918.00,15,11,2017,00,00*62
2017-11-15 18:59:19 1510790359.374969: $GPGGA,235918,3946.9532,N,08404.9550,W,1,09,0.80,303.51,M,-33.324,M,,*7D
2017-11-15 18:59:19 1510790359.375029: $GPRMC,235918,A,3946.9532,N,08404.9550,W,0.8414,39.347,151117,,*0E
2017-11-15 18:59:19 1510790359.375085: $GPGSA,A,3,16,14,3,32,31,26,25,29,1,,,,3.4,0.8,2.9*3D
2017-11-15 18:59:20 1510790360.373122: $GPZDA,235919.00,15,11,2017,00,00*63
2017-11-15 18:59:20 1510790360.373267: $GPGGA,235919,3946.9540,N,08404.9549,W,1,09,0.80,303.39,M,-33.324,M,,*7F
2017-11-15 18:59:20 1510790360.373327: $GPRMC,235919,A,3946.9540,N,08404.9549,W,0.9060,347.792,151117,,*32
2017-11-15 18:59:20 1510790360.373383: $GPGSA,A,3,16,14,3,32,31,26,25,29,1,,,,3.4,0.8,2.9*3D
2017-11-15 18:59:21 1510790361.708114: $GPGSV,3,1,11,16,08,190,12,14,64,069,16,03,30,310,19,32,47,094,28*7F
2017-11-15 18:59:21 1510790361.708285: $GPGSV,3,2,11,31,78,345,20,26,37,177,18,22,46,291,06,25,28,046,12*7F
2017-11-15 18:59:21 1510790361.708345: $GPGSV,3,3,11,29,05,084,21,10,10,159,00,01,13,264,15*42
2017-11-15 18:59:21 1510790361.821409: $GPZDA,235920.00,15,11,2017,00,00*69
2017-11-15 18:59:21 1510790361.821577: $GPGGA,235920,3946.9540,N,08404.9549,W,1,09,0.80,303.39,M,-33.324,M,,*75
2017-11-15 18:59:21 1510790361.821639: $GPRMC,235920,A,3946.9540,N,08404.9549,W,0.5857,338.291,151117,,*36
2017-11-15 18:59:21 1510790361.821695: $GPGSA,A,3,16,14,3,32,31,26,25,29,1,,,,3.4,0.8,2.9*3D
2017-11-15 18:59:22 1510790362.331343: $GPZDA,235921.00,15,11,2017,00,00*68
2017-11-15 18:59:22 1510790362.331499: $GPGGA,235921,3946.9548,N,08404.9548,W,1,09,0.80,303.26,M,-33.324,M,,*73
2017-11-15 18:59:22 1510790362.331560: $GPRMC,235921,A,3946.9548,N,08404.9548,W,0.4179,148.778,151117,,*3D
2017-11-15 18:59:22 1510790362.331615: $GPGSA,A,3,16,14,3,32,31,26,25,29,1,,,,3.4,0.8,2.9*3D
2017-11-15 18:59:23 1510790363.373182: $GPZDA,235922.00,15,11,2017,00,00*6B
2017-11-15 18:59:23 1510790363.373365: $GPGGA,235922,3946.9548,N,08404.9548,W,1,09,0.80,303.26,M,-33.324,M,,*70
2017-11-15 18:59:23 1510790363.373427: $GPRMC,235922,A,3946.9548,N,08404.9548,W,0.6846,184.197,151117,,*3E
2017-11-15 18:59:23 1510790363.373484: $GPGSA,A,3,16,14,3,32,31,26,25,29,1,,,,3.4,0.8,2.9*3D
2017-11-15 18:59:24 1510790364.708988: $GPGSV,3,1,12,16,08,190,12,14,64,069,17,03,30,310,19,32,47,094,28*7D
2017-11-15 18:59:24 1510790364.709160: $GPGSV,3,2,12,31,78,345,20,26,37,177,18,22,46,291,14,25,28,046,11*7C
2017-11-15 18:59:24 1510790364.709220: $GPGSV,3,3,12,29,05,084,21,10,10,159,00,01,13,264,14,138,38,213,00*41
2017-11-15 18:59:24 1510790364.822279: $GPZDA,235923.00,15,11,2017,00,00*6A
2017-11-15 18:59:24 1510790364.822455: $GPGGA,235923,3946.9548,N,08404.9555,W,1,10,0.80,303.18,M,-33.324,M,,*78
2017-11-15 18:59:24 1510790364.822516: $GPRMC,235923,A,3946.9548,N,08404.9555,W,0.4207,219.347,151117,,*36
2017-11-15 18:59:24 1510790364.822573: $GPGSA,A,3,16,14,3,32,31,26,22,25,29,1,,,3.4,0.8,2.9*3D
2017-11-15 18:59:25 1510790365.330929: $GPZDA,235924.00,15,11,2017,00,00*6D
2017-11-15 18:59:25 1510790365.331091: $GPGGA,235924,3946.9548,N,08404.9555,W,1,10,0.80,303.18,M,-33.324,M,,*7F
2017-11-15 18:59:25 1510790365.331152: $GPRMC,235924,A,3946.9548,N,08404.9555,W,0.4844,273.794,151117,,*3A
2017-11-15 18:59:25 1510790365.331225: $GPGSA,A,3,16,14,3,32,31,26,22,25,29,1,,,3.4,0.8,2.9*3D
2017-11-15 18:59:26 1510790366.372554: $GPZDA,235925.00,15,11,2017,00,00*6C
2017-11-15 18:59:26 1510790366.372714: $GPGGA,235925,3946.9552,N,08404.9555,W,1,10,0.80,303.82,M,-33.324,M,,*76
2017-11-15 18:59:26 1510790366.372825: $GPRMC,235925,A,3946.9552,N,08404.9555,W,0.1867,180.000,151117,,*31
2017-11-15 18:59:26 1510790366.372882: $GPGSA,A,3,16,14,3,32,31,26,22,25,29,1,,,3.4,0.8,2.9*3D
2017-11-15 18:59:27 1510790367.666878: $GPGSV,3,1,12,16,08,190,12,14,64,069,17,03,30,310,18,32,47,094,28*7C
2017-11-15 18:59:27 1510790367.667027: $GPGSV,3,2,12,31,78,345,20,26,37,177,19,22,46,291,15,25,28,046,11*7C
2017-11-15 18:59:27 1510790367.667087: $GPGSV,3,3,12,29,05,084,20,10,10,159,00,01,13,264,14,138,38,213,00*40
2017-11-15 18:59:27 1510790367.780150: $GPZDA,235926.00,15,11,2017,00,00*6F
2017-11-15 18:59:27 1510790367.780314: $GPGGA,235926,3946.9556,N,08404.9554,W,1,10,0.80,303.06,M,-33.324,M,,*7C
2017-11-15 18:59:27 1510790367.780375: $GPRMC,235926,A,3946.9556,N,08404.9554,W,0.0000,0.000,151117,,*36
2017-11-15 18:59:27 1510790367.780450: $GPGSA,A,3,16,14,3,32,31,26,22,25,29,1,,,3.4,0.8,2.9*3D
2017-11-15 18:59:28 1510790368.373637: $GPZDA,235927.00,15,11,2017,00,00*6E
2017-11-15 18:59:28 1510790368.373797: $GPGGA,235927,3946.9556,N,08404.9561,W,1,10,0.80,302.98,M,-33.324,M,,*7D
2017-11-15 18:59:28 1510790368.373858: $GPRMC,235927,A,3946.9556,N,08404.9561,W,0.4844,273.794,151117,,*31
2017-11-15 18:59:28 1510790368.373913: $GPGSA,A,3,16,14,3,32,31,26,22,25,29,1,,,3.4,0.8,2.9*3D
2017-11-15 18:59:29 1510790369.331905: $GPZDA,235928.00,15,11,2017,00,00*61
2017-11-15 18:59:29 1510790369.332079: $GPGGA,235928,3946.9560,N,08404.9561,W,1,10,0.80,303.62,M,-33.324,M,,*73
2017-11-15 18:59:29 1510790369.332141: $GPRMC,235928,A,3946.9560,N,08404.9561,W,1.0253,293.297,151117,,*3A
2017-11-15 18:59:29 1510790369.332197: $GPGSA,A,3,16,14,3,32,31,26,22,25,29,1,,,3.4,0.8,2.9*3D
2017-11-15 18:59:30 1510790370.667752: $GPGSV,3,1,12,16,08,190,10,14,64,069,18,03,30,310,18,32,47,094,28*71
2017-11-15 18:59:30 1510790370.667924: $GPGSV,3,2,12,31,78,345,20,26,37,177,19,22,46,291,15,25,28,046,11*7C
2017-11-15 18:59:30 1510790370.667984: $GPGSV,3,3,12,29,05,084,20,10,10,159,00,01,13,264,14,138,38,213,00*40
2017-11-15 18:59:30 1510790370.781111: $GPZDA,235929.00,15,11,2017,00,00*60
2017-11-15 18:59:30 1510790370.781254: $GPGGA,235929,3946.9564,N,08404.9568,W,1,10,0.80,302.77,M,-33.324,M,,*7A
2017-11-15 18:59:30 1510790370.781315: $GPRMC,235929,A,3946.9564,N,08404.9568,W,0.9948,317.276,151117,,*3D
2017-11-15 18:59:30 1510790370.781370: $GPGSA,A,3,16,14,3,32,31,26,22,25,29,1,,,3.4,0.8,2.9*3D
2017-11-15 18:59:31 1510790371.406466: $GPZDA,235930.00,15,11,2017,00,00*68
2017-11-15 18:59:31 1510790371.406632: $GPGGA,235930,3946.9568,N,08404.9568,W,1,10,0.80,303.41,M,-33.324,M,,*7A
2017-11-15 18:59:31 1510790371.406693: $GPRMC,235930,A,3946.9568,N,08404.9568,W,0.7238,320.710,151117,,*3A
2017-11-15 18:59:31 1510790371.406805: $GPGSA,A,3,16,14,3,32,31,26,22,25,29,1,,,3.4,0.8,2.9*3D
2017-11-15 18:59:32 1510790372.373505: $GPZDA,235931.00,15,11,2017,00,00*69
2017-11-15 18:59:32 1510790372.373662: $GPGGA,235931,3946.9576,N,08404.9574,W,1,10,0.80,303.21,M,-33.324,M,,*7F
2017-11-15 18:59:32 1510790372.373724: $GPRMC,235931,A,3946.9576,N,08404.9574,W,0.6846,4.197,151117,,*37
2017-11-15 18:59:32 1510790372.373779: $GPGSA,A,3,16,14,3,32,31,26,22,25,29,1,,,3.4,0.8,2.9*3D
