2017-12-01 17:07:53 1512166073.996771: {"class":"VERSION","release":"3.16","rev":"3.16-4","proto_major":3,"proto_minor":11}
2017-12-01 17:07:53 1512166073.997183: {"class":"DEVICES","devices":[{"class":"DEVICE","path":"/dev/ttyUSB0","driver":"SiRF","subtype":"9\u0006GSD4e_4.1.2-P1_RPATCH.05-F-GPS-4R-1510281 11/03/2015 307","activated":"2017-12-01T22:07:53.769Z","flags":1,"native":1,"bps":4800,"parity":"N","stopbits":1,"cycle":1.00}]}
2017-12-01 17:07:53 1512166073.997308: {"class":"WATCH","enable":true,"json":false,"nmea":true,"raw":0,"scaled":false,"timing":false,"split24":false,"pps":false}
2017-12-01 17:07:54 1512166074.453899: $GPZDA,220755.00,01,12,2017,00,00*67
2017-12-01 17:07:54 1512166074.454107: $GPGGA,220755,3946.9666,N,08404.9724,W,2,12,0.80,295.81,M,-33.324,M,,*77
2017-12-01 17:07:54 1512166074.454174: $GPRMC,220755,A,3946.9666,N,08404.9724,W,0.0000,0.000,011217,,*3B
2017-12-01 17:07:54 1512166074.454235: $GPGSA,A,3,1,3,10,14,22,26,31,32,18,12,25,138,2.0,0.8,1.5*0A
2017-12-01 17:07:55 1512166075.789168: $GPGSV,3,1,12,01,21,283,40,03,14,316,41,10,30,154,36,14,70,013,45*76
2017-12-01 17:07:55 1512166075.789349: $GPGSV,3,2,12,22,33,307,47,26,18,180,37,31,73,250,48,32,60,066,48*7A
2017-12-01 17:07:55 1512166075.789416: $GPGSV,3,3,12,18,02,148,11,12,13,037,19,25,39,067,32,138,38,213,36*48
2017-12-01 17:07:55 1512166075.902565: $GPZDA,220756.00,01,12,2017,00,00*64
2017-12-01 17:07:55 1512166075.902733: $GPGGA,220756,3946.9666,N,08404.9724,W,2,12,0.80,295.81,M,-33.324,M,,*74
2017-12-01 17:07:55 1512166075.902800: $GPRMC,220756,A,3946.9666,N,08404.9724,W,0.0000,0.000,011217,,*38
2017-12-01 17:07:55 1512166075.902861: $GPGSA,A,3,1,3,10,14,22,26,31,32,18,12,25,138,2.0,0.8,1.5*0A
2017-12-01 17:07:56 1512166076.454975: $GPZDA,220757.00,01,12,2017,00,00*65
2017-12-01 17:07:56 1512166076.455150: $GPGGA,220757,3946.9666,N,08404.9724,W,2,12,0.80,295.81,M,-33.324,M,,*75
2017-12-01 17:07:56 1512166076.455218: $GPRMC,220757,A,3946.9666,N,08404.9724,W,0.0000,0.000,011217,,*39
2017-12-01 17:07:56 1512166076.455279: $GPGSA,A,3,1,3,10,14,22,26,31,32,18,12,25,138,2.0,0.8,1.5*0A
2017-12-01 17:07:57 1512166077.454290: $GPZDA,220758.00,01,12,2017,00,00*6A
2017-12-01 17:07:57 1512166077.454468: $GPGGA,220758,3946.9666,N,08404.9724,W,2,12,0.80,295.81,M,-33.324,M,,*7A
2017-12-01 17:07:57 1512166077.454535: $GPRMC,220758,A,3946.9666,N,08404.9724,W,0.0000,0.000,011217,,*36
2017-12-01 17:07:57 1512166077.454596: $GPGSA,A,3,1,3,10,14,22,26,31,32,18,12,25,138,2.0,0.8,1.5*0A
2017-12-01 17:07:58 1512166078.788755: $GPGSV,3,1,12,01,21,283,41,03,14,316,41,10,30,154,36,14,70,013,45*77
2017-12-01 17:07:58 1512166078.788940: $GPGSV,3,2,12,22,33,307,47,26,18,180,36,31,73,250,48,32,60,066,48*7B
2017-12-01 17:07:58 1512166078.789006: $GPGSV,3,3,12,18,02,148,11,12,13,037,20,25,39,067,27,138,38,213,39*49
2017-12-01 17:07:58 1512166078.902956: $GPZDA,220759.00,01,12,2017,00,00*6B
2017-12-01 17:07:58 1512166078.903129: $GPGGA,220759,3946.9666,N,08404.9724,W,2,12,0.80,295.81,M,-33.324,M,,*7B
2017-12-01 17:07:58 1512166078.903201: $GPRMC,220759,A,3946.9666,N,08404.9724,W,0.0000,0.000,011217,,*37
2017-12-01 17:07:58 1512166078.903263: $GPGSA,A,3,1,3,10,14,22,26,31,32,18,12,25,138,2.0,0.8,1.5*0A
2017-12-01 17:07:59 1512166079.527844: $GPZDA,220800.00,01,12,2017,00,00*68
2017-12-01 17:07:59 1512166079.528016: $GPGGA,220800,3946.9666,N,08404.9724,W,2,12,0.80,295.81,M,-33.324,M,,*78
2017-12-01 17:07:59 1512166079.528083: $GPRMC,220800,A,3946.9666,N,08404.9724,W,0.0000,0.000,011217,,*34
2017-12-01 17:07:59 1512166079.528144: $GPGSA,A,3,1,3,10,14,22,26,31,32,18,12,25,138,2.0,0.8,1.5*0A
2017-12-01 17:08:00 1512166080.454606: $GPZDA,220801.00,01,12,2017,00,00*69
2017-12-01 17:08:00 1512166080.454780: $GPGGA,220801,3946.9666,N,08404.9724,W,2,12,0.80,295.81,M,-33.324,M,,*79
2017-12-01 17:08:00 1512166080.454848: $GPRMC,220801,A,3946.9666,N,08404.9724,W,0.0000,0.000,011217,,*35
2017-12-01 17:08:00 1512166080.454909: $GPGSA,A,3,1,3,10,14,22,26,31,32,18,12,25,138,2.0,0.8,1.5*0A
2017-12-01 17:08:01 1512166081.784110: $GPGSV,3,1,12,01,21,283,40,03,14,316,41,10,30,154,36,14,70,013,46*75
2017-12-01 17:08:01 1512166081.784327: $GPGSV,3,2,12,22,33,307,47,26,18,180,36,31,73,250,48,32,60,066,48*7B
2017-12-01 17:08:01 1512166081.784415: $GPGSV,3,3,12,18,02,148,12,12,13,037,20,25,39,067,24,138,38,213,40*47
2017-12-01 17:08:01 1512166081.897638: $GPZDA,220802.00,01,12,2017,00,00*6A
2017-12-01 17:08:01 1512166081.897812: $GPGGA,220802,3946.9662,N,08404.9725,W,2,12,0.80,296.57,M,-33.324,M,,*77
2017-12-01 17:08:01 1512166081.897878: $GPRMC,220802,A,3946.9662,N,08404.9725,W,0.0000,0.000,011217,,*33
2017-12-01 17:08:01 1512166081.897939: $GPGSA,A,3,1,3,10,14,22,26,31,32,18,12,25,138,2.0,0.8,1.5*0A
2017-12-01 17:08:02 1512166082.447151: $GPZDA,220803.00,01,12,2017,00,00*6B
2017-12-01 17:08:02 1512166082.447323: $GPGGA,220803,3946.9666,N,08404.9724,W,2,12,0.80,295.81,M,-33.324,M,,*7B
2017-12-01 17:08:02 1512166082.447389: $GPRMC,220803,A,3946.9666,N,08404.9724,W,0.0000,0.000,011217,,*37
2017-12-01 17:08:02 1512166082.447451: $GPGSA,A,3,1,3,10,14,22,26,31,32,18,12,25,138,2.0,0.8,1.5*0A
2017-12-01 17:08:03 1512166083.454238: $GPZDA,220804.00,01,12,2017,00,00*6C
2017-12-01 17:08:03 1512166083.454412: $GPGGA,220804,3946.9666,N,08404.9724,W,2,12,0.80,295.81,M,-33.324,M,,*7C
2017-12-01 17:08:03 1512166083.454479: $GPRMC,220804,A,3946.9666,N,08404.9724,W,0.0000,0.000,011217,,*30
2017-12-01 17:08:03 1512166083.454541: $GPGSA,A,3,1,3,10,14,22,26,31,32,18,12,25,138,2.0,0.8,1.5*0A
2017-12-01 17:08:04 1512166084.789488: $GPGSV,3,1,12,01,21,283,40,03,14,316,40,10,30,154,36,14,70,013,46*74
2017-12-01 17:08:04 1512166084.789672: $GPGSV,3,2,12,22,33,307,47,26,18,180,36,31,73,250,47,32,60,066,48*74
2017-12-01 17:08:04 1512166084.789740: $GPGSV,3,3,12,18,02,148,13,12,13,037,20,25,39,067,16,138,38,213,39*49
2017-12-01 17:08:04 1512166084.903100: $GPZDA,220805.00,01,12,2017,00,00*6D
2017-12-01 17:08:04 1512166084.903237: $GPGGA,220805,3946.9666,N,08404.9724,W,2,12,0.80,295.81,M,-33.324,M,,*7D
2017-12-01 17:08:04 1512166084.903303: $GPRMC,220805,A,3946.9666,N,08404.9724,W,0.0000,0.000,011217,,*31
2017-12-01 17:08:04 1512166084.903363: $GPGSA,A,3,1,3,10,14,22,26,31,32,18,12,25,138,2.0,0.8,1.5*0A
2017-12-01 17:08:05 1512166085.454060: $GPZDA,220806.00,01,12,2017,00,00*6E
2017-12-01 17:08:05 1512166085.454212: $GPGGA,220806,3946.9666,N,08404.9724,W,2,12,0.80,295.81,M,-33.324,M,,*7E
2017-12-01 17:08:05 1512166085.454278: $GPRMC,220806,A,3946.9666,N,08404.9724,W,0.0000,0.000,011217,,*32
2017-12-01 17:08:05 1512166085.454339: $GPGSA,A,3,1,3,10,14,22,26,31,32,18,12,25,138,2.0,0.8,1.5*0A
2017-12-01 17:08:06 1512166086.456256: $GPZDA,220807.00,01,12,2017,00,00*6F
2017-12-01 17:08:06 1512166086.456430: $GPGGA,220807,3946.9666,N,08404.9724,W,2,12,0.80,295.81,M,-33.324,M,,*7F
2017-12-01 17:08:06 1512166086.456496: $GPRMC,220807,A,3946.9666,N,08404.9724,W,0.0000,0.000,011217,,*33
2017-12-01 17:08:06 1512166086.456558: $GPGSA,A,3,1,3,10,14,22,26,31,32,18,12,25,138,2.0,0.8,1.5*0A
2017-12-01 17:08:07 1512166087.789160: $GPGSV,3,1,12,01,21,283,40,03,14,316,41,10,30,154,36,14,70,013,45*76
2017-12-01 17:08:07 1512166087.789342: $GPGSV,3,2,12,22,33,307,47,26,18,180,36,31,73,250,47,32,60,066,48*74
2017-12-01 17:08:07 1512166087.789409: $GPGSV,3,3,12,18,02,148,14,12,13,037,20,25,39,067,25,138,38,213,38*4F
2017-12-01 17:08:07 1512166087.902892: $GPZDA,220808.00,01,12,2017,00,00*60
2017-12-01 17:08:07 1512166087.903073: $GPGGA,220808,3946.9666,N,08404.9724,W,2,12,0.80,295.81,M,-33.324,M,,*70
2017-12-01 17:08:07 1512166087.903140: $GPRMC,220808,A,3946.9666,N,08404.9724,W,0.0000,0.000,011217,,*3C
2017-12-01 17:08:07 1512166087.903202: $GPGSA,A,3,1,3,10,14,22,26,31,32,18,12,25,138,2.0,0.8,1.5*0A
2017-12-01 17:08:08 1512166088.453338: $GPZDA,220809.00,01,12,2017,00,00*61
2017-12-01 17:08:08 1512166088.453529: $GPGGA,220809,3946.9666,N,08404.9724,W,2,12,0.80,295.81,M,-33.324,M,,*71
2017-12-01 17:08:08 1512166088.453619: $GPRMC,220809,A,3946.9666,N,08404.9724,W,0.0000,0.000,011217,,*3D
2017-12-01 17:08:08 1512166088.453683: $GPGSA,A,3,1,3,10,14,22,26,31,32,18,12,25,138,2.0,0.8,1.5*0A
2017-12-01 17:08:09 1512166089.453759: $GPZDA,220810.00,01,12,2017,00,00*69
2017-12-01 17:08:09 1512166089.453930: $GPGGA,220810,3946.9662,N,08404.9725,W,2,12,0.80,296.57,M,-33.324,M,,*74
2017-12-01 17:08:09 1512166089.453996: $GPRMC,220810,A,3946.9662,N,08404.9725,W,0.0000,0.000,011217,,*30
2017-12-01 17:08:09 1512166089.454056: $GPGSA,A,3,1,3,10,14,22,26,31,32,18,12,25,138,2.0,0.8,1.5*0A
2017-12-01 17:08:10 1512166090.788235: $GPGSV,3,1,12,01,21,283,41,03,14,316,41,10,30,154,36,14,70,013,45*77
2017-12-01 17:08:10 1512166090.788416: $GPGSV,3,2,12,22,33,307,46,26,18,180,36,31,73,250,47,32,60,066,48*75
2017-12-01 17:08:10 1512166090.788483: $GPGSV,3,3,12,18,02,148,14,12,13,037,21,25,39,067,28,138,38,213,40*4C
2017-12-01 17:08:10 1512166090.901603: $GPZDA,220811.00,01,12,2017,00,00*68
2017-12-01 17:08:10 1512166090.901751: $GPGGA,220811,3946.9662,N,08404.9732,W,2,12,0.80,296.49,M,-33.324,M,,*7C
2017-12-01 17:08:10 1512166090.901818: $GPRMC,220811,A,3946.9662,N,08404.9732,W,0.0000,0.000,011217,,*37
2017-12-01 17:08:10 1512166090.901879: $GPGSA,A,3,1,3,10,14,22,26,31,32,18,12,25,138,2.0,0.8,1.5*0A
2017-12-01 17:08:11 1512166091.453712: $GPZDA,220812.00,01,12,2017,00,00*6B
2017-12-01 17:08:11 1512166091.453873: $GPGGA,220812,3946.9662,N,08404.9732,W,2,12,0.80,296.49,M,-33.324,M,,*7F
2017-12-01 17:08:11 1512166091.453940: $GPRMC,220812,A,3946.9662,N,08404.9732,W,0.0000,0.000,011217,,*34
2017-12-01 17:08:11 1512166091.454001: $GPGSA,A,3,1,3,10,14,22,26,31,32,18,12,25,138,2.0,0.8,1.5*0A
2017-12-01 17:08:12 1512166092.449551: $GPZDA,220813.00,01,12,2017,00,00*6A
2017-12-01 17:08:12 1512166092.449731: $GPGGA,220813,3946.9662,N,08404.9732,W,2,12,0.80,296.49,M,-33.324,M,,*7E
2017-12-01 17:08:12 1512166092.449798: $GPRMC,220813,A,3946.9662,N,08404.9732,W,0.0000,0.000,011217,,*35
2017-12-01 17:08:12 1512166092.449859: $GPGSA,A,3,1,3,10,14,22,26,31,32,18,12,25,138,2.0,0.8,1.5*0A
2017-12-01 17:08:13 1512166093.784075: $GPGSV,3,1,12,01,21,283,40,03,14,316,41,10,30,154,35,14,70,013,46*76
2017-12-01 17:08:13 1512166093.784242: $GPGSV,3,2,12,22,33,307,47,26,18,180,37,31,73,250,47,32,60,066,48*75
2017-12-01 17:08:13 1512166093.784309: $GPGSV,3,3,12,11,02,268,31,12,13,037,21,25,39,067,29,138,38,213,40*42
2017-12-01 17:08:13 1512166093.896226: $GPZDA,220814.00,01,12,2017,00,00*6D
2017-12-01 17:08:13 1512166093.896393: $GPGGA,220814,3946.9662,N,08404.9732,W,2,12,0.80,296.49,M,-33.324,M,,*79
2017-12-01 17:08:13 1512166093.896459: $GPRMC,220814,A,3946.9662,N,08404.9732,W,0.0000,0.000,011217,,*32
2017-12-01 17:08:13 1512166093.896519: $GPGSA,A,3,1,3,10,14,22,26,31,32,11,12,25,138,2.0,0.8,1.5*03
