2017-12-31 17:06:35 1514757995.936292: {"class":"VERSION","release":"3.16","rev":"3.16-4","proto_major":3,"proto_minor":11}
2017-12-31 17:06:35 1514757995.936677: {"class":"DEVICES","devices":[{"class":"DEVICE","path":"/dev/ttyUSB0","driver":"SiRF","activated":"2017-12-31T22:06:35.502Z","flags":1,"native":1,"bps":4800,"parity":"N","stopbits":1,"cycle":1.00}]}
2017-12-31 17:06:35 1514757995.936775: {"class":"WATCH","enable":true,"json":false,"nmea":true,"raw":0,"scaled":false,"timing":false,"split24":false,"pps":false}
2017-12-31 17:06:36 1514757996.687459: $GPGSV,3,1,11,22,44,238,41,23,28,307,38,25,01,037,04,03,46,270,41*74
2017-12-31 17:06:36 1514757996.687632: $GPGSV,3,2,11,16,47,190,43,29,14,054,35,31,49,051,50,14,40,114,37*75
2017-12-31 17:06:36 1514757996.687697: $GPGSV,3,3,11,32,18,123,40,26,75,139,47,135,22,240,42*7C
2017-12-31 17:06:36 1514757996.800757: $GPZDA,220637.00,31,12,2017,00,00*61
2017-12-31 17:06:36 1514757996.800879: $GPGGA,220637,3946.9587,N,08404.9854,W,2,10,1.00,302.21,M,-33.324,M,,*78
2017-12-31 17:06:36 1514757996.800944: $GPRMC,220637,A,3946.9587,N,08404.9854,W,0.0000,0.000,311217,,*39
2017-12-31 17:06:36 1514757996.801003: $GPGSA,A,3,22,23,3,16,29,31,14,32,26,135,,,1.7,1.0,1.3*3C
2017-12-31 17:06:37 1514757997.344413: $GPZDA,220638.00,31,12,2017,00,00*6E
2017-12-31 17:06:37 1514757997.344578: $GPGGA,220638,3946.9587,N,08404.9854,W,2,10,1.00,302.21,M,-33.324,M,,*77
2017-12-31 17:06:37 1514757997.344645: $GPRMC,220638,A,3946.9587,N,08404.9854,W,0.0000,0.000,311217,,*36
2017-12-31 17:06:37 1514757997.344706: $GPGSA,A,3,22,23,3,16,29,31,14,32,26,135,,,1.7,1.0,1.3*3C
2017-12-31 17:06:38 1514757998.360272: $GPZDA,220639.00,31,12,2017,00,00*6F
2017-12-31 17:06:38 1514757998.360437: $GPGGA,220639,3946.9587,N,08404.9854,W,2,10,1.00,302.21,M,-33.324,M,,*76
2017-12-31 17:06:38 1514757998.360505: $GPRMC,220639,A,3946.9587,N,08404.9854,W,0.0000,0.000,311217,,*37
2017-12-31 17:06:38 1514757998.360566: $GPGSA,A,3,22,23,3,16,29,31,14,32,26,135,,,1.7,1.0,1.3*3C
2017-12-31 17:06:39 1514757999.682011: $GPGSV,3,1,11,22,44,238,41,23,28,307,38,25,01,037,04,03,46,270,41*74
2017-12-31 17:06:39 1514757999.682175: $GPGSV,3,2,11,16,47,190,43,29,14,054,35,31,49,051,50,14,40,114,37*75
2017-12-31 17:06:39 1514757999.682242: $GPGSV,3,3,11,32,18,123,40,26,75,139,47,135,22,240,42*7C
2017-12-31 17:06:39 1514757999.794343: $GPZDA,220640.00,31,12,2017,00,00*61
2017-12-31 17:06:39 1514757999.794461: $GPGGA,220640,3946.9587,N,08404.9854,W,2,10,1.00,302.21,M,-33.324,M,,*78
2017-12-31 17:06:39 1514757999.794525: $GPRMC,220640,A,3946.9587,N,08404.9854,W,0.0000,0.000,311217,,*39
2017-12-31 17:06:39 1514757999.794585: $GPGSA,A,3,22,23,3,16,29,31,14,32,26,135,,,1.7,1.0,1.3*3C
2017-12-31 17:06:40 1514758000.421007: $GPZDA,220641.00,31,12,2017,00,00*60
2017-12-31 17:06:40 1514758000.421177: $GPGGA,220641,3946.9587,N,08404.9854,W,2,10,1.00,302.21,M,-33.324,M,,*79
2017-12-31 17:06:40 1514758000.421245: $GPRMC,220641,A,3946.9587,N,08404.9854,W,0.0000,0.000,311217,,*38
2017-12-31 17:06:40 1514758000.421306: $GPGSA,A,3,22,23,3,16,29,31,14,32,26,135,,,1.7,1.0,1.3*3C
2017-12-31 17:06:41 1514758001.343153: $GPZDA,220642.00,31,12,2017,00,00*63
2017-12-31 17:06:41 1514758001.343318: $GPGGA,220642,3946.9587,N,08404.9854,W,2,10,1.00,302.21,M,-33.324,M,,*7A
2017-12-31 17:06:41 1514758001.343384: $GPRMC,220642,A,3946.9587,N,08404.9854,W,0.0000,0.000,311217,,*3B
2017-12-31 17:06:41 1514758001.343446: $GPGSA,A,3,22,23,3,16,29,31,14,32,26,135,,,1.7,1.0,1.3*3C
2017-12-31 17:06:42 1514758002.678623: $GPGSV,3,1,11,22,44,238,41,23,28,307,38,25,01,037,08,03,46,270,41*78
2017-12-31 17:06:42 1514758002.678792: $GPGSV,3,2,11,16,47,190,43,29,14,054,35,31,49,051,51,14,40,114,37*74
2017-12-31 17:06:42 1514758002.678858: $GPGSV,3,3,11,32,18,123,40,26,75,139,47,135,22,240,42*7C
2017-12-31 17:06:42 1514758002.792236: $GPZDA,220643.00,31,12,2017,00,00*62
2017-12-31 17:06:42 1514758002.792377: $GPGGA,220643,3946.9587,N,08404.9854,W,2,11,1.00,302.21,M,-33.324,M,,*7A
2017-12-31 17:06:42 1514758002.792442: $GPRMC,220643,A,3946.9587,N,08404.9854,W,0.0000,0.000,311217,,*3A
2017-12-31 17:06:42 1514758002.792552: $GPGSA,A,3,22,23,25,3,16,29,31,14,32,26,135,,1.7,1.0,1.3*3B
2017-12-31 17:06:43 1514758003.344433: $GPZDA,220644.00,31,12,2017,00,00*65
2017-12-31 17:06:43 1514758003.344595: $GPGGA,220644,3946.9587,N,08404.9854,W,2,11,1.00,302.21,M,-33.324,M,,*7D
2017-12-31 17:06:43 1514758003.344662: $GPRMC,220644,A,3946.9587,N,08404.9854,W,0.0000,0.000,311217,,*3D
2017-12-31 17:06:43 1514758003.344724: $GPGSA,A,3,22,23,25,3,16,29,31,14,32,26,135,,1.7,1.0,1.3*3B
2017-12-31 17:06:44 1514758004.335334: $GPZDA,220645.00,31,12,2017,00,00*64
2017-12-31 17:06:44 1514758004.335494: $GPGGA,220645,3946.9587,N,08404.9854,W,2,11,1.00,302.21,M,-33.324,M,,*7C
2017-12-31 17:06:44 1514758004.335560: $GPRMC,220645,A,3946.9587,N,08404.9854,W,0.0000,0.000,311217,,*3C
2017-12-31 17:06:44 1514758004.335621: $GPGSA,A,3,22,23,25,3,16,29,31,14,32,26,135,,1.7,1.0,1.3*3B
2017-12-31 17:06:45 1514758005.695203: $GPGSV,3,1,11,22,44,238,41,23,28,307,38,25,01,037,07,03,46,270,41*77
2017-12-31 17:06:45 1514758005.695367: $GPGSV,3,2,11,16,47,190,43,29,14,054,35,31,49,051,51,14,40,114,37*74
2017-12-31 17:06:45 1514758005.695434: $GPGSV,3,3,11,32,18,123,40,26,75,139,47,135,22,240,43*7D
2017-12-31 17:06:45 1514758005.808537: $GPZDA,220646.00,31,12,2017,00,00*67
2017-12-31 17:06:45 1514758005.808652: $GPGGA,220646,3946.9587,N,08404.9854,W,2,11,1.00,302.21,M,-33.324,M,,*7F
2017-12-31 17:06:45 1514758005.808717: $GPRMC,220646,A,3946.9587,N,08404.9854,W,0.0000,0.000,311217,,*3F
2017-12-31 17:06:45 1514758005.808777: $GPGSA,A,3,22,23,25,3,16,29,31,14,32,26,135,,1.7,1.0,1.3*3B
