2017-12-01 15:23:14 1512159794.736727: {"class":"VERSION","release":"3.16","rev":"3.16-4","proto_major":3,"proto_minor":11}
2017-12-01 15:23:14 1512159794.737121: {"class":"DEVICES","devices":[{"class":"DEVICE","path":"/dev/ttyUSB0","driver":"SiRF","subtype":"9\u0006GSD4e_4.1.2-P1_RPATCH.05-F-GPS-4R-1510281 11/03/2015 307","activated":"2017-12-01T20:23:14.546Z","flags":1,"native":1,"bps":4800,"parity":"N","stopbits":1,"cycle":1.00}]}
2017-12-01 15:23:14 1512159794.737239: {"class":"WATCH","enable":true,"json":false,"nmea":true,"raw":0,"scaled":false,"timing":false,"split24":false,"pps":false}
2017-12-01 15:23:15 1512159795.738740: $GPGSV,3,1,12,01,08,324,38,10,79,108,47,11,09,310,28,12,23,082,44*73
2017-12-01 15:23:15 1512159795.738918: $GPGSV,3,2,12,14,48,279,44,18,47,129,48,24,23,045,44,25,22,123,45*72
2017-12-01 15:23:15 1512159795.738983: $GPGSV,3,3,12,31,25,208,46,32,64,306,48,21,03,174,00,138,38,213,46*4C
2017-12-01 15:23:15 1512159795.852413: $GPZDA,202316.00,01,12,2017,00,00*64
2017-12-01 15:23:15 1512159795.852581: $GPGGA,202316,3946.9597,N,08404.9844,W,2,11,0.80,298.59,M,-33.324,M,,*7B
2017-12-01 15:23:15 1512159795.852648: $GPRMC,202316,A,3946.9597,N,08404.9844,W,0.0000,0.000,011217,,*3C
2017-12-01 15:23:15 1512159795.852708: $GPGSA,A,3,1,10,11,12,14,18,24,25,31,32,138,,2.0,0.8,1.5*3B
2017-12-01 15:23:16 1512159796.479036: $GPZDA,202317.00,01,12,2017,00,00*65
2017-12-01 15:23:16 1512159796.479204: $GPGGA,202317,3946.9597,N,08404.9844,W,2,11,0.80,298.59,M,-33.324,M,,*7A
2017-12-01 15:23:16 1512159796.479271: $GPRMC,202317,A,3946.9597,N,08404.9844,W,0.0000,0.000,011217,,*3D
2017-12-01 15:23:16 1512159796.479332: $GPGSA,A,3,1,10,11,12,14,18,24,25,31,32,138,,2.0,0.8,1.5*3B
2017-12-01 15:23:17 1512159797.404862: $GPZDA,202318.00,01,12,2017,00,00*6A
2017-12-01 15:23:17 1512159797.405034: $GPGGA,202318,3946.9597,N,08404.9844,W,2,11,0.80,298.59,M,-33.324,M,,*75
2017-12-01 15:23:17 1512159797.405100: $GPRMC,202318,A,3946.9597,N,08404.9844,W,0.0000,0.000,011217,,*32
2017-12-01 15:23:17 1512159797.405162: $GPGSA,A,3,1,10,11,12,14,18,24,25,31,32,138,,2.0,0.8,1.5*3B
2017-12-01 15:23:18 1512159798.742755: $GPGSV,3,1,12,01,08,324,38,10,79,108,46,11,09,310,19,12,23,082,44*70
2017-12-01 15:23:18 1512159798.742938: $GPGSV,3,2,12,14,48,279,44,18,47,129,48,24,23,045,44,25,22,123,45*72
2017-12-01 15:23:18 1512159798.743006: $GPGSV,3,3,12,31,25,208,46,32,64,306,48,21,03,174,00,138,38,213,45*4F
2017-12-01 15:23:18 1512159798.856600: $GPZDA,202319.00,01,12,2017,00,00*6B
2017-12-01 15:23:18 1512159798.856897: $GPGGA,202319,3946.9597,N,08404.9844,W,2,11,0.80,298.59,M,-33.324,M,,*74
2017-12-01 15:23:18 1512159798.857021: $GPRMC,202319,A,3946.9597,N,08404.9844,W,0.0000,0.000,011217,,*33
2017-12-01 15:23:18 1512159798.857146: $GPGSA,A,3,1,10,11,12,14,18,24,25,31,32,138,,2.0,0.8,1.5*3B
2017-12-01 15:23:19 1512159799.414573: $GPZDA,202320.00,01,12,2017,00,00*61
2017-12-01 15:23:19 1512159799.414878: $GPGGA,202320,3946.9597,N,08404.9844,W,2,11,0.80,298.59,M,-33.324,M,,*7E
2017-12-01 15:23:19 1512159799.415004: $GPRMC,202320,A,3946.9597,N,08404.9844,W,0.0000,0.000,011217,,*39
2017-12-01 15:23:19 1512159799.415123: $GPGSA,A,3,1,10,11,12,14,18,24,25,31,32,138,,2.0,0.8,1.5*3B
2017-12-01 15:23:20 1512159800.419154: $GPZDA,202321.00,01,12,2017,00,00*60
2017-12-01 15:23:20 1512159800.419333: $GPGGA,202321,3946.9597,N,08404.9844,W,2,11,0.80,298.59,M,-33.324,M,,*7F
2017-12-01 15:23:20 1512159800.419401: $GPRMC,202321,A,3946.9597,N,08404.9844,W,0.0000,0.000,011217,,*38
2017-12-01 15:23:20 1512159800.419479: $GPGSA,A,3,1,10,11,12,14,18,24,25,31,32,138,,2.0,0.8,1.5*3B
2017-12-01 15:23:21 1512159801.757113: $GPGSV,3,1,12,01,08,324,38,10,79,108,47,11,09,310,29,12,23,082,44*72
2017-12-01 15:23:21 1512159801.757342: $GPGSV,3,2,12,14,48,279,44,18,47,129,48,24,23,045,44,25,22,123,44*73
2017-12-01 15:23:21 1512159801.757411: $GPGSV,3,3,12,31,25,208,46,32,64,306,48,21,03,174,00,138,38,213,46*4C
2017-12-01 15:23:21 1512159801.870357: $GPZDA,202322.00,01,12,2017,00,00*63
2017-12-01 15:23:21 1512159801.870547: $GPGGA,202322,3946.9597,N,08404.9844,W,2,11,0.80,298.59,M,-33.324,M,,*7C
2017-12-01 15:23:21 1512159801.870666: $GPRMC,202322,A,3946.9597,N,08404.9844,W,0.0000,0.000,011217,,*3B
2017-12-01 15:23:21 1512159801.870729: $GPGSA,A,3,1,10,11,12,14,18,24,25,31,32,138,,2.0,0.8,1.5*3B
2017-12-01 15:23:22 1512159802.421202: $GPZDA,202323.00,01,12,2017,00,00*62
2017-12-01 15:23:22 1512159802.421489: $GPGGA,202323,3946.9597,N,08404.9844,W,2,11,0.80,298.59,M,-33.324,M,,*7D
2017-12-01 15:23:22 1512159802.421568: $GPRMC,202323,A,3946.9597,N,08404.9844,W,0.0000,0.000,011217,,*3A
2017-12-01 15:23:22 1512159802.421629: $GPGSA,A,3,1,10,11,12,14,18,24,25,31,32,138,,2.0,0.8,1.5*3B
2017-12-01 15:23:23 1512159803.419639: $GPZDA,202324.00,01,12,2017,00,00*65
2017-12-01 15:23:23 1512159803.419810: $GPGGA,202324,3946.9597,N,08404.9844,W,2,11,0.80,298.59,M,-33.324,M,,*7A
2017-12-01 15:23:23 1512159803.419876: $GPRMC,202324,A,3946.9597,N,08404.9844,W,0.0000,0.000,011217,,*3D
2017-12-01 15:23:23 1512159803.419937: $GPGSA,A,3,1,10,11,12,14,18,24,25,31,32,138,,2.0,0.8,1.5*3B
2017-12-01 15:23:24 1512159804.733977: $GPGSV,3,1,12,01,08,324,38,10,79,108,46,11,09,310,31,12,23,082,43*7D
2017-12-01 15:23:24 1512159804.734157: $GPGSV,3,2,12,14,48,279,44,18,47,129,48,24,23,045,44,25,22,123,45*72
2017-12-01 15:23:24 1512159804.734224: $GPGSV,3,3,12,31,25,208,46,32,64,306,48,21,03,174,00,138,38,213,45*4F
2017-12-01 15:23:24 1512159804.847374: $GPZDA,202325.00,01,12,2017,00,00*64
2017-12-01 15:23:24 1512159804.847539: $GPGGA,202325,3946.9597,N,08404.9844,W,2,11,0.80,298.59,M,-33.324,M,,*7B
2017-12-01 15:23:24 1512159804.847606: $GPRMC,202325,A,3946.9597,N,08404.9844,W,0.0000,0.000,011217,,*3C
2017-12-01 15:23:24 1512159804.847667: $GPGSA,A,3,1,10,11,12,14,18,24,25,31,32,138,,2.0,0.8,1.5*3B
2017-12-01 15:23:25 1512159805.405809: $GPZDA,202326.00,01,12,2017,00,00*67
2017-12-01 15:23:25 1512159805.405977: $GPGGA,202326,3946.9597,N,08404.9844,W,2,11,0.80,298.59,M,-33.324,M,,*78
2017-12-01 15:23:25 1512159805.406043: $GPRMC,202326,A,3946.9597,N,08404.9844,W,0.0000,0.000,011217,,*3F
2017-12-01 15:23:25 1512159805.406105: $GPGSA,A,3,1,10,11,12,14,18,24,25,31,32,138,,2.0,0.8,1.5*3B
2017-12-01 15:23:26 1512159806.404891: $GPZDA,202327.00,01,12,2017,00,00*66
2017-12-01 15:23:26 1512159806.405068: $GPGGA,202327,3946.9597,N,08404.9844,W,2,11,0.80,298.59,M,-33.324,M,,*79
2017-12-01 15:23:26 1512159806.405134: $GPRMC,202327,A,3946.9597,N,08404.9844,W,0.0000,0.000,011217,,*3E
2017-12-01 15:23:26 1512159806.405195: $GPGSA,A,3,1,10,11,12,14,18,24,25,31,32,138,,2.0,0.8,1.5*3B
2017-12-01 15:23:27 1512159807.755581: $GPGSV,3,1,12,01,08,324,38,10,79,108,46,11,09,310,28,12,23,082,43*75
2017-12-01 15:23:27 1512159807.755737: $GPGSV,3,2,12,14,48,279,44,18,47,129,48,24,23,045,44,25,22,123,45*72
2017-12-01 15:23:27 1512159807.755802: $GPGSV,3,3,12,31,25,208,46,32,64,306,48,21,03,174,00,138,38,213,46*4C
2017-12-01 15:23:27 1512159807.869113: $GPZDA,202328.00,01,12,2017,00,00*69
2017-12-01 15:23:27 1512159807.869307: $GPGGA,202328,3946.9597,N,08404.9844,W,2,11,0.80,298.59,M,-33.324,M,,*76
2017-12-01 15:23:27 1512159807.869377: $GPRMC,202328,A,3946.9597,N,08404.9844,W,0.0000,0.000,011217,,*31
2017-12-01 15:23:27 1512159807.869457: $GPGSA,A,3,1,10,11,12,14,18,24,25,31,32,138,,2.0,0.8,1.5*3B
2017-12-01 15:23:28 1512159808.403693: $GPZDA,202329.00,01,12,2017,00,00*68
2017-12-01 15:23:28 1512159808.403865: $GPGGA,202329,3946.9597,N,08404.9844,W,2,11,0.80,298.59,M,-33.324,M,,*77
2017-12-01 15:23:28 1512159808.403931: $GPRMC,202329,A,3946.9597,N,08404.9844,W,0.0000,0.000,011217,,*30
2017-12-01 15:23:28 1512159808.403992: $GPGSA,A,3,1,10,11,12,14,18,24,25,31,32,138,,2.0,0.8,1.5*3B
2017-12-01 15:23:29 1512159809.420845: $GPZDA,202330.00,01,12,2017,00,00*60
2017-12-01 15:23:29 1512159809.421020: $GPGGA,202330,3946.9597,N,08404.9844,W,2,11,0.80,298.59,M,-33.324,M,,*7F
2017-12-01 15:23:29 1512159809.421086: $GPRMC,202330,A,3946.9597,N,08404.9844,W,0.0000,0.000,011217,,*38
2017-12-01 15:23:29 1512159809.421147: $GPGSA,A,3,1,10,11,12,14,18,24,25,31,32,138,,2.0,0.8,1.5*3B
2017-12-01 15:23:30 1512159810.756476: $GPGSV,3,1,12,01,08,324,40,10,79,108,46,11,09,310,38,12,23,082,43*7B
2017-12-01 15:23:30 1512159810.756709: $GPGSV,3,2,12,14,48,279,43,18,47,129,48,24,23,045,44,25,22,123,45*75
2017-12-01 15:23:30 1512159810.756779: $GPGSV,3,3,12,31,25,208,46,32,64,306,48,21,03,174,00,138,38,213,47*4D
2017-12-01 15:23:30 1512159810.870095: $GPZDA,202331.00,01,12,2017,00,00*61
2017-12-01 15:23:30 1512159810.870235: $GPGGA,202331,3946.9593,N,08404.9844,W,2,11,0.80,297.95,M,-33.324,M,,*75
2017-12-01 15:23:30 1512159810.870326: $GPRMC,202331,A,3946.9593,N,08404.9844,W,0.0000,0.000,011217,,*3D
2017-12-01 15:23:30 1512159810.870405: $GPGSA,A,3,1,10,11,12,14,18,24,25,31,32,138,,2.0,0.8,1.5*3B
2017-12-01 15:23:31 1512159811.495289: $GPZDA,202332.00,01,12,2017,00,00*62
2017-12-01 15:23:31 1512159811.495481: $GPGGA,202332,3946.9593,N,08404.9844,W,2,11,0.80,297.95,M,-33.324,M,,*76
2017-12-01 15:23:31 1512159811.495551: $GPRMC,202332,A,3946.9593,N,08404.9844,W,0.0000,0.000,011217,,*3E
2017-12-01 15:23:31 1512159811.495613: $GPGSA,A,3,1,10,11,12,14,18,24,25,31,32,138,,2.0,0.8,1.5*3B
2017-12-01 15:23:32 1512159812.397449: $GPZDA,202333.00,01,12,2017,00,00*63
2017-12-01 15:23:32 1512159812.397618: $GPGGA,202333,3946.9593,N,08404.9844,W,2,11,0.80,297.95,M,-33.324,M,,*77
2017-12-01 15:23:32 1512159812.397684: $GPRMC,202333,A,3946.9593,N,08404.9844,W,0.0000,0.000,011217,,*3F
2017-12-01 15:23:32 1512159812.397745: $GPGSA,A,3,1,10,11,12,14,18,24,25,31,32,138,,2.0,0.8,1.5*3B
2017-12-01 15:23:33 1512159813.755558: $GPGSV,3,1,12,01,08,324,40,10,79,108,47,11,09,310,38,12,23,082,44*7D
2017-12-01 15:23:33 1512159813.755739: $GPGSV,3,2,12,14,48,279,43,18,47,129,48,24,23,045,44,25,22,123,45*75
2017-12-01 15:23:33 1512159813.755806: $GPGSV,3,3,12,31,25,208,46,32,64,306,48,21,03,174,00,138,38,213,45*4F
2017-12-01 15:23:33 1512159813.868971: $GPZDA,202334.00,01,12,2017,00,00*64
2017-12-01 15:23:33 1512159813.869141: $GPGGA,202334,3946.9593,N,08404.9844,W,2,11,0.80,297.95,M,-33.324,M,,*70
2017-12-01 15:23:33 1512159813.869207: $GPRMC,202334,A,3946.9593,N,08404.9844,W,0.0000,0.000,011217,,*38
2017-12-01 15:23:33 1512159813.869294: $GPGSA,A,3,1,10,11,12,14,18,24,25,31,32,138,,2.0,0.8,1.5*3B
2017-12-01 15:23:34 1512159814.404855: $GPZDA,202335.00,01,12,2017,00,00*65
2017-12-01 15:23:34 1512159814.405214: $GPGGA,202335,3946.9593,N,08404.9844,W,2,11,0.80,297.95,M,-33.324,M,,*71
2017-12-01 15:23:34 1512159814.405362: $GPRMC,202335,A,3946.9593,N,08404.9844,W,0.0000,0.000,011217,,*39
2017-12-01 15:23:34 1512159814.405495: $GPGSA,A,3,1,10,11,12,14,18,24,25,31,32,138,,2.0,0.8,1.5*3B
