2017-12-01 16:42:11 1512164531.667350: {"class":"VERSION","release":"3.16","rev":"3.16-4","proto_major":3,"proto_minor":11}
2017-12-01 16:42:11 1512164531.667743: {"class":"DEVICES","devices":[{"class":"DEVICE","path":"/dev/ttyUSB0","driver":"SiRF","subtype":"9\u0006GSD4e_4.1.2-P1_RPATCH.05-F-GPS-4R-1510281 11/03/2015 307","activated":"2017-12-01T21:42:11.552Z","flags":1,"native":1,"bps":4800,"parity":"N","stopbits":1,"cycle":1.00}]}
2017-12-01 16:42:11 1512164531.667864: {"class":"WATCH","enable":true,"json":false,"nmea":true,"raw":0,"scaled":false,"timing":false,"split24":false,"pps":false}
2017-12-01 16:42:12 1512164532.412071: $GPZDA,214213.00,01,12,2017,00,00*67
2017-12-01 16:42:12 1512164532.412401: $GPGGA,214213,3946.9640,N,08404.9734,W,2,12,1.00,296.87,M,-33.324,M,,*7E
2017-12-01 16:42:12 1512164532.412528: $GPRMC,214213,A,3946.9640,N,08404.9734,W,0.0000,0.000,011217,,*3E
2017-12-01 16:42:12 1512164532.412677: $GPGSA,A,3,1,10,14,22,31,32,11,12,25,26,18,138,2.0,1.0,1.5*30
2017-12-01 16:42:13 1512164533.750815: $GPGSV,3,1,12,01,22,295,41,10,42,150,44,14,68,340,45,22,23,312,42*7B
2017-12-01 16:42:13 1512164533.750973: $GPGSV,3,2,12,31,61,231,49,32,66,042,49,11,07,277,31,12,20,045,23*7F
2017-12-01 16:42:13 1512164533.751040: $GPGSV,3,3,12,25,40,084,30,26,07,181,31,18,13,145,21,138,38,213,36*43
2017-12-01 16:42:13 1512164533.864108: $GPZDA,214214.00,01,12,2017,00,00*60
2017-12-01 16:42:13 1512164533.864312: $GPGGA,214214,3946.9640,N,08404.9734,W,2,12,1.00,296.87,M,-33.324,M,,*79
2017-12-01 16:42:13 1512164533.864380: $GPRMC,214214,A,3946.9640,N,08404.9734,W,0.0000,0.000,011217,,*39
2017-12-01 16:42:13 1512164533.864441: $GPGSA,A,3,1,10,14,22,31,32,11,12,25,26,18,138,2.0,1.0,1.5*30
2017-12-01 16:42:14 1512164534.415053: $GPZDA,214215.00,01,12,2017,00,00*61
2017-12-01 16:42:14 1512164534.415227: $GPGGA,214215,3946.9640,N,08404.9734,W,2,12,1.00,296.87,M,-33.324,M,,*78
2017-12-01 16:42:14 1512164534.415293: $GPRMC,214215,A,3946.9640,N,08404.9734,W,0.0000,0.000,011217,,*38
2017-12-01 16:42:14 1512164534.415354: $GPGSA,A,3,1,10,14,22,31,32,11,12,25,26,18,138,2.0,1.0,1.5*30
2017-12-01 16:42:15 1512164535.413391: $GPZDA,214216.00,01,12,2017,00,00*62
2017-12-01 16:42:15 1512164535.413577: $GPGGA,214216,3946.9640,N,08404.9734,W,2,12,1.00,296.87,M,-33.324,M,,*7B
2017-12-01 16:42:15 1512164535.413645: $GPRMC,214216,A,3946.9640,N,08404.9734,W,0.0000,0.000,011217,,*3B
2017-12-01 16:42:15 1512164535.413706: $GPGSA,A,3,1,10,14,22,31,32,11,12,25,26,18,138,2.0,1.0,1.5*30
2017-12-01 16:42:16 1512164536.765365: $GPGSV,3,1,12,01,22,295,41,10,42,150,44,14,68,340,45,22,23,312,42*7B
2017-12-01 16:42:16 1512164536.765611: $GPGSV,3,2,12,31,61,231,49,32,66,042,49,11,07,277,30,12,20,045,24*79
2017-12-01 16:42:16 1512164536.765702: $GPGSV,3,3,12,25,40,084,30,26,07,181,30,18,13,145,21,138,38,213,40*43
2017-12-01 16:42:16 1512164536.879111: $GPZDA,214217.00,01,12,2017,00,00*63
2017-12-01 16:42:16 1512164536.879266: $GPGGA,214217,3946.9640,N,08404.9734,W,2,12,1.00,296.87,M,-33.324,M,,*7A
2017-12-01 16:42:16 1512164536.879332: $GPRMC,214217,A,3946.9640,N,08404.9734,W,0.0000,0.000,011217,,*3A
2017-12-01 16:42:16 1512164536.879393: $GPGSA,A,3,1,10,14,22,31,32,11,12,25,26,18,138,2.0,1.0,1.5*30
2017-12-01 16:42:17 1512164537.429954: $GPZDA,214218.00,01,12,2017,00,00*6C
2017-12-01 16:42:17 1512164537.430127: $GPGGA,214218,3946.9640,N,08404.9734,W,2,12,1.00,296.87,M,-33.324,M,,*75
2017-12-01 16:42:17 1512164537.430193: $GPRMC,214218,A,3946.9640,N,08404.9734,W,0.0000,0.000,011217,,*35
2017-12-01 16:42:17 1512164537.430253: $GPGSA,A,3,1,10,14,22,31,32,11,12,25,26,18,138,2.0,1.0,1.5*30
2017-12-01 16:42:18 1512164538.429991: $GPZDA,214219.00,01,12,2017,00,00*6D
2017-12-01 16:42:18 1512164538.430170: $GPGGA,214219,3946.9640,N,08404.9734,W,2,12,1.00,296.87,M,-33.324,M,,*74
2017-12-01 16:42:18 1512164538.430254: $GPRMC,214219,A,3946.9640,N,08404.9734,W,0.0000,0.000,011217,,*34
2017-12-01 16:42:18 1512164538.430316: $GPGSA,A,3,1,10,14,22,31,32,11,12,25,26,18,138,2.0,1.0,1.5*30
2017-12-01 16:42:19 1512164539.769439: $GPGSV,3,1,12,01,22,295,41,10,42,150,44,14,68,340,45,22,23,312,41*78
2017-12-01 16:42:19 1512164539.769674: $GPGSV,3,2,12,31,61,231,49,32,66,042,49,11,07,277,30,12,20,045,24*79
2017-12-01 16:42:19 1512164539.769746: $GPGSV,3,3,12,25,40,084,30,26,07,181,30,18,13,145,21,138,38,213,40*43
2017-12-01 16:42:19 1512164539.881618: $GPZDA,214220.00,01,12,2017,00,00*67
2017-12-01 16:42:19 1512164539.881787: $GPGGA,214220,3946.9640,N,08404.9734,W,2,12,1.00,296.87,M,-33.324,M,,*7E
2017-12-01 16:42:19 1512164539.881853: $GPRMC,214220,A,3946.9640,N,08404.9734,W,0.0000,0.000,011217,,*3E
2017-12-01 16:42:19 1512164539.881933: $GPGSA,A,3,1,10,14,22,31,32,11,12,25,26,18,138,2.0,1.0,1.5*30
2017-12-01 16:42:20 1512164540.426275: $GPZDA,214221.00,01,12,2017,00,00*66
2017-12-01 16:42:20 1512164540.426465: $GPGGA,214221,3946.9640,N,08404.9734,W,2,12,1.00,296.87,M,-33.324,M,,*7F
2017-12-01 16:42:20 1512164540.426534: $GPRMC,214221,A,3946.9640,N,08404.9734,W,0.0000,0.000,011217,,*3F
2017-12-01 16:42:20 1512164540.426595: $GPGSA,A,3,1,10,14,22,31,32,11,12,25,26,18,138,2.0,1.0,1.5*30
2017-12-01 16:42:21 1512164541.417162: $GPZDA,214222.00,01,12,2017,00,00*65
2017-12-01 16:42:21 1512164541.417357: $GPGGA,214222,3946.9640,N,08404.9734,W,2,12,1.00,296.87,M,-33.324,M,,*7C
2017-12-01 16:42:21 1512164541.417425: $GPRMC,214222,A,3946.9640,N,08404.9734,W,0.0000,0.000,011217,,*3C
2017-12-01 16:42:21 1512164541.417486: $GPGSA,A,3,1,10,14,22,31,32,11,12,25,26,18,138,2.0,1.0,1.5*30
2017-12-01 16:42:22 1512164542.752875: $GPGSV,3,1,12,01,22,295,40,10,42,150,43,14,68,340,45,22,23,312,41*7E
2017-12-01 16:42:22 1512164542.753098: $GPGSV,3,2,12,31,61,231,49,32,66,042,49,11,07,277,31,12,20,045,24*78
2017-12-01 16:42:22 1512164542.753168: $GPGSV,3,3,12,25,40,084,25,26,07,181,30,18,13,145,20,138,38,213,39*48
2017-12-01 16:42:22 1512164542.867988: $GPZDA,214223.00,01,12,2017,00,00*64
2017-12-01 16:42:22 1512164542.868316: $GPGGA,214223,3946.9640,N,08404.9734,W,2,12,1.00,296.87,M,-33.324,M,,*7D
2017-12-01 16:42:22 1512164542.868441: $GPRMC,214223,A,3946.9640,N,08404.9734,W,0.0000,0.000,011217,,*3D
2017-12-01 16:42:22 1512164542.868567: $GPGSA,A,3,1,10,14,22,31,32,11,12,25,26,18,138,2.0,1.0,1.5*30
2017-12-01 16:42:23 1512164543.491588: $GPZDA,214224.00,01,12,2017,00,00*63
2017-12-01 16:42:23 1512164543.491765: $GPGGA,214224,3946.9640,N,08404.9734,W,2,12,1.00,296.87,M,-33.324,M,,*7A
2017-12-01 16:42:23 1512164543.491830: $GPRMC,214224,A,3946.9640,N,08404.9734,W,0.0000,0.000,011217,,*3A
2017-12-01 16:42:23 1512164543.491892: $GPGSA,A,3,1,10,14,22,31,32,11,12,25,26,18,138,2.0,1.0,1.5*30
2017-12-01 16:42:24 1512164544.433261: $GPZDA,214225.00,01,12,2017,00,00*62
2017-12-01 16:42:24 1512164544.433429: $GPGGA,214225,3946.9640,N,08404.9734,W,2,12,1.00,296.87,M,-33.324,M,,*7B
2017-12-01 16:42:24 1512164544.433530: $GPRMC,214225,A,3946.9640,N,08404.9734,W,0.0000,0.000,011217,,*3B
2017-12-01 16:42:24 1512164544.433621: $GPGSA,A,3,1,10,14,22,31,32,11,12,25,26,18,138,2.0,1.0,1.5*30
2017-12-01 16:42:25 1512164545.746977: $GPGSV,3,1,12,01,22,295,40,10,42,150,43,14,68,340,44,22,23,312,42*7C
2017-12-01 16:42:25 1512164545.747316: $GPGSV,3,2,12,31,61,231,49,32,66,042,48,11,07,277,34,12,20,045,23*7B
2017-12-01 16:42:25 1512164545.747456: $GPGSV,3,3,12,25,40,084,27,26,07,181,29,18,13,145,20,138,38,213,38*43
2017-12-01 16:42:25 1512164545.860311: $GPZDA,214226.00,01,12,2017,00,00*61
2017-12-01 16:42:25 1512164545.860482: $GPGGA,214226,3946.9640,N,08404.9734,W,2,12,1.00,296.87,M,-33.324,M,,*78
2017-12-01 16:42:25 1512164545.860548: $GPRMC,214226,A,3946.9640,N,08404.9734,W,0.0000,0.000,011217,,*38
2017-12-01 16:42:25 1512164545.860609: $GPGSA,A,3,1,10,14,22,31,32,11,12,25,26,18,138,2.0,1.0,1.5*30
2017-12-01 16:42:26 1512164546.427509: $GPZDA,214227.00,01,12,2017,00,00*60
2017-12-01 16:42:26 1512164546.427687: $GPGGA,214227,3946.9640,N,08404.9734,W,2,12,1.00,296.87,M,-33.324,M,,*79
2017-12-01 16:42:26 1512164546.427754: $GPRMC,214227,A,3946.9640,N,08404.9734,W,0.0000,0.000,011217,,*39
2017-12-01 16:42:26 1512164546.427815: $GPGSA,A,3,1,10,14,22,31,32,11,12,25,26,18,138,2.0,1.0,1.5*30
2017-12-01 16:42:27 1512164547.432137: $GPZDA,214228.00,01,12,2017,00,00*6F
2017-12-01 16:42:27 1512164547.432326: $GPGGA,214228,3946.9640,N,08404.9734,W,2,12,1.00,296.87,M,-33.324,M,,*76
2017-12-01 16:42:27 1512164547.432393: $GPRMC,214228,A,3946.9640,N,08404.9734,W,0.0000,0.000,011217,,*36
2017-12-01 16:42:27 1512164547.432454: $GPGSA,A,3,1,10,14,22,31,32,11,12,25,26,18,138,2.0,1.0,1.5*30
2017-12-01 16:42:28 1512164548.767271: $GPGSV,3,1,12,01,22,295,39,10,42,150,43,14,68,340,44,22,23,312,42*72
2017-12-01 16:42:28 1512164548.767454: $GPGSV,3,2,12,31,61,231,50,32,66,042,49,11,07,277,34,12,20,045,23*72
2017-12-01 16:42:28 1512164548.767521: $GPGSV,3,3,12,25,40,084,27,26,07,181,29,03,04,316,26,138,38,213,40*42
2017-12-01 16:42:28 1512164548.880660: $GPZDA,214229.00,01,12,2017,00,00*6E
2017-12-01 16:42:28 1512164548.880807: $GPGGA,214229,3946.9640,N,08404.9734,W,2,12,1.00,296.87,M,-33.324,M,,*77
2017-12-01 16:42:28 1512164548.880874: $GPRMC,214229,A,3946.9640,N,08404.9734,W,0.0000,0.000,011217,,*37
2017-12-01 16:42:28 1512164548.880935: $GPGSA,A,3,1,10,14,22,31,32,11,12,25,26,3,138,2.0,1.0,1.5*0A
2017-12-01 16:42:29 1512164549.416561: $GPZDA,214230.00,01,12,2017,00,00*66
2017-12-01 16:42:29 1512164549.416730: $GPGGA,214230,3946.9640,N,08404.9734,W,2,12,1.00,296.87,M,-33.324,M,,*7F
2017-12-01 16:42:29 1512164549.416797: $GPRMC,214230,A,3946.9640,N,08404.9734,W,0.0000,0.000,011217,,*3F
2017-12-01 16:42:29 1512164549.416858: $GPGSA,A,3,1,10,14,22,31,32,11,12,25,26,3,138,2.0,1.0,1.5*0A
2017-12-01 16:42:30 1512164550.433695: $GPZDA,214231.00,01,12,2017,00,00*67
2017-12-01 16:42:30 1512164550.433855: $GPGGA,214231,3946.9640,N,08404.9734,W,2,12,0.80,296.87,M,-33.324,M,,*77
2017-12-01 16:42:30 1512164550.433921: $GPRMC,214231,A,3946.9640,N,08404.9734,W,0.0000,0.000,011217,,*3E
2017-12-01 16:42:30 1512164550.433982: $GPGSA,A,3,1,10,14,22,31,32,11,12,25,26,3,138,2.0,0.8,1.5*03
