2017-11-16 15:25:05 1510863905.146709: {"class":"VERSION","release":"3.17","rev":"3.17","proto_major":3,"proto_minor":12}
2017-11-16 15:25:05 1510863905.147135: {"class":"DEVICES","devices":[{"class":"DEVICE","path":"/dev/ttyUSB0","driver":"SiRF","subtype":"9\u0006GSD4e_4.1.2-P1_RPATCH.05-F-GPS-4R-1510281 11/03/2015 307","activated":"2017-11-16T20:25:04.986Z","flags":1,"native":1,"bps":4800,"parity":"N","stopbits":1,"cycle":1.00}]}
2017-11-16 15:25:05 1510863905.147244: {"class":"WATCH","enable":true,"json":false,"nmea":true,"raw":0,"scaled":false,"timing":false,"split24":false,"pps":false}
2017-11-16 15:25:05 1510863905.386079: $GPZDA,202504.00,16,11,2017,00,00*64
2017-11-16 15:25:05 1510863905.386263: $GPGGA,202504,3946.9572,N,08404.9866,W,2,11,1.20,308.76,M,-33.324,M,,*7B
2017-11-16 15:25:05 1510863905.386328: $GPRMC,202504,A,3946.9572,N,08404.9866,W,0.0000,0.000,161117,,*37
2017-11-16 15:25:05 1510863905.386386: $GPGSA,A,3,10,14,15,18,20,21,24,27,32,12,138,,1.6,1.2,1.3*07
2017-11-16 15:25:06 1510863906.388783: $GPZDA,202505.00,16,11,2017,00,00*65
2017-11-16 15:25:06 1510863906.388948: $GPGGA,202505,3946.9572,N,08404.9866,W,2,11,0.80,308.76,M,-33.324,M,,*71
2017-11-16 15:25:06 1510863906.389011: $GPRMC,202505,A,3946.9572,N,08404.9866,W,0.0000,0.000,161117,,*36
2017-11-16 15:25:06 1510863906.389067: $GPGSA,A,3,10,14,15,18,20,21,24,27,32,12,138,,1.6,0.8,1.3*0C
2017-11-16 15:25:07 1510863907.706807: $GPGSV,3,1,12,25,03,141,18,10,69,331,51,14,29,253,47,15,11,066,30*74
2017-11-16 15:25:07 1510863907.706975: $GPGSV,3,2,12,18,71,094,48,20,08,118,30,21,29,180,42,24,45,058,51*7D
2017-11-16 15:25:07 1510863907.707035: $GPGSV,3,3,12,27,06,259,26,32,46,265,49,12,09,106,29,138,38,213,45*4A
2017-11-16 15:25:07 1510863907.818830: $GPZDA,202506.00,16,11,2017,00,00*66
2017-11-16 15:25:07 1510863907.819012: $GPGGA,202506,3946.9572,N,08404.9866,W,2,11,1.00,308.76,M,-33.324,M,,*7B
2017-11-16 15:25:07 1510863907.819075: $GPRMC,202506,A,3946.9572,N,08404.9866,W,0.0000,0.000,161117,,*35
2017-11-16 15:25:07 1510863907.819132: $GPGSA,A,3,10,14,15,18,20,21,24,27,32,12,138,,1.6,1.0,1.3*05
2017-11-16 15:25:08 1510863908.371009: $GPZDA,202507.00,16,11,2017,00,00*67
2017-11-16 15:25:08 1510863908.371173: $GPGGA,202507,3946.9572,N,08404.9866,W,2,11,0.80,308.76,M,-33.324,M,,*73
2017-11-16 15:25:08 1510863908.371252: $GPRMC,202507,A,3946.9572,N,08404.9866,W,0.0000,0.000,161117,,*34
2017-11-16 15:25:08 1510863908.371309: $GPGSA,A,3,10,14,15,18,20,21,24,27,32,12,138,,1.6,0.8,1.3*0C
2017-11-16 15:25:09 1510863909.363046: $GPZDA,202508.00,16,11,2017,00,00*68
2017-11-16 15:25:09 1510863909.363262: $GPGGA,202508,3946.9572,N,08404.9866,W,2,11,0.80,308.76,M,-33.324,M,,*7C
2017-11-16 15:25:09 1510863909.363349: $GPRMC,202508,A,3946.9572,N,08404.9866,W,0.0000,0.000,161117,,*3B
2017-11-16 15:25:09 1510863909.363407: $GPGSA,A,3,10,14,15,18,20,21,24,27,32,12,138,,1.6,0.8,1.3*0C
2017-11-16 15:25:10 1510863910.705206: $GPGSV,3,1,12,08,06,292,27,10,69,331,51,14,29,253,47,15,11,066,31*7E
2017-11-16 15:25:10 1510863910.705376: $GPGSV,3,2,12,18,71,094,48,20,08,118,30,21,29,180,42,24,45,058,51*7D
2017-11-16 15:25:10 1510863910.705436: $GPGSV,3,3,12,27,06,259,24,32,46,265,49,12,09,106,34,138,38,213,44*45
2017-11-16 15:25:10 1510863910.818822: $GPZDA,202509.00,16,11,2017,00,00*69
2017-11-16 15:25:10 1510863910.818980: $GPGGA,202509,3946.9572,N,08404.9866,W,2,12,0.80,308.76,M,-33.324,M,,*7E
2017-11-16 15:25:10 1510863910.819040: $GPRMC,202509,A,3946.9572,N,08404.9866,W,0.0000,0.000,161117,,*3A
2017-11-16 15:25:10 1510863910.819096: $GPGSA,A,3,8,10,14,15,18,20,21,24,27,32,12,138,1.6,0.8,1.3*34
2017-11-16 15:25:11 1510863911.444109: $GPZDA,202510.00,16,11,2017,00,00*61
2017-11-16 15:25:11 1510863911.444267: $GPGGA,202510,3946.9572,N,08404.9866,W,2,12,0.80,308.76,M,-33.324,M,,*76
2017-11-16 15:25:11 1510863911.444328: $GPRMC,202510,A,3946.9572,N,08404.9866,W,0.0000,0.000,161117,,*32
2017-11-16 15:25:11 1510863911.444383: $GPGSA,A,3,8,10,14,15,18,20,21,24,27,32,12,138,1.6,0.8,1.3*34
2017-11-16 15:25:12 1510863912.371329: $GPZDA,202511.00,16,11,2017,00,00*60
2017-11-16 15:25:12 1510863912.371553: $GPGGA,202511,3946.9572,N,08404.9866,W,2,12,0.80,308.76,M,-33.324,M,,*77
2017-11-16 15:25:12 1510863912.371616: $GPRMC,202511,A,3946.9572,N,08404.9866,W,0.0000,0.000,161117,,*33
2017-11-16 15:25:12 1510863912.371672: $GPGSA,A,3,8,10,14,15,18,20,21,24,27,32,12,138,1.6,0.8,1.3*34
2017-11-16 15:25:13 1510863913.710603: $GPGSV,3,1,12,08,06,292,28,10,69,331,51,14,29,253,47,15,11,066,32*72
2017-11-16 15:25:13 1510863913.710805: $GPGSV,3,2,12,18,71,094,48,20,08,118,29,21,29,180,41,24,45,058,51*76
2017-11-16 15:25:13 1510863913.710866: $GPGSV,3,3,12,27,06,259,26,32,46,265,49,12,09,106,33,138,38,213,44*40
2017-11-16 15:25:13 1510863913.823728: $GPZDA,202512.00,16,11,2017,00,00*63
2017-11-16 15:25:13 1510863913.823890: $GPGGA,202512,3946.9572,N,08404.9866,W,2,12,0.80,308.76,M,-33.324,M,,*74
2017-11-16 15:25:13 1510863913.823951: $GPRMC,202512,A,3946.9572,N,08404.9866,W,0.0000,0.000,161117,,*30
2017-11-16 15:25:13 1510863913.824008: $GPGSA,A,3,8,10,14,15,18,20,21,24,27,32,12,138,1.6,0.8,1.3*34
2017-11-16 15:25:14 1510863914.369632: $GPZDA,202513.00,16,11,2017,00,00*62
2017-11-16 15:25:14 1510863914.374046: $GPGGA,202513,3946.9572,N,08404.9866,W,2,12,0.80,308.76,M,-33.324,M,,*75
2017-11-16 15:25:14 1510863914.374159: $GPRMC,202513,A,3946.9572,N,08404.9866,W,0.0000,0.000,161117,,*31
2017-11-16 15:25:14 1510863914.374238: $GPGSA,A,3,8,10,14,15,18,20,21,24,27,32,12,138,1.6,0.8,1.3*34
