2017-12-31 16:48:12 1514756892.258089: {"class":"VERSION","release":"3.16","rev":"3.16-4","proto_major":3,"proto_minor":11}
2017-12-31 16:48:12 1514756892.258440: {"class":"DEVICES","devices":[{"class":"DEVICE","path":"/dev/ttyUSB0","driver":"SiRF","activated":"2017-12-31T21:48:12.224Z","flags":1,"native":1,"bps":4800,"parity":"N","stopbits":1,"cycle":1.00}]}
2017-12-31 16:48:12 1514756892.258538: {"class":"WATCH","enable":true,"json":false,"nmea":true,"raw":0,"scaled":false,"timing":false,"split24":false,"pps":false}
2017-12-31 16:48:12 1514756892.673352: $GPGSV,3,1,11,22,48,250,44,23,21,306,41,25,08,037,00,03,45,282,31*71
2017-12-31 16:48:12 1514756892.673515: $GPGSV,3,2,11,16,38,189,48,29,14,061,24,31,56,043,51,14,46,106,46*77
2017-12-31 16:48:12 1514756892.673580: $GPGSV,3,3,11,32,25,117,42,26,68,159,41,135,22,240,43*7A
2017-12-31 16:48:12 1514756892.787000: $GPZDA,214813.00,31,12,2017,00,00*6E
2017-12-31 16:48:12 1514756892.787213: $GPGGA,214813,3946.9576,N,08404.9848,W,2,10,1.00,303.18,M,-33.324,M,,*7F
2017-12-31 16:48:12 1514756892.787280: $GPRMC,214813,A,3946.9576,N,08404.9848,W,0.0000,0.000,311217,,*35
2017-12-31 16:48:12 1514756892.787340: $GPGSA,A,3,22,23,3,16,29,31,14,32,26,135,,,1.7,1.0,1.3*3C
2017-12-31 16:48:13 1514756893.345400: $GPZDA,214814.00,31,12,2017,00,00*69
2017-12-31 16:48:13 1514756893.345555: $GPGGA,214814,3946.9576,N,08404.9848,W,2,10,1.00,303.18,M,-33.324,M,,*78
2017-12-31 16:48:13 1514756893.345622: $GPRMC,214814,A,3946.9576,N,08404.9848,W,0.0000,0.000,311217,,*32
2017-12-31 16:48:13 1514756893.345683: $GPGSA,A,3,22,23,3,16,29,31,14,32,26,135,,,1.7,1.0,1.3*3C
2017-12-31 16:48:14 1514756894.362525: $GPZDA,214815.00,31,12,2017,00,00*68
2017-12-31 16:48:14 1514756894.362693: $GPGGA,214815,3946.9576,N,08404.9848,W,2,10,1.00,303.18,M,-33.324,M,,*79
2017-12-31 16:48:14 1514756894.362760: $GPRMC,214815,A,3946.9576,N,08404.9848,W,0.0000,0.000,311217,,*33
2017-12-31 16:48:14 1514756894.362820: $GPGSA,A,3,22,23,3,16,29,31,14,32,26,135,,,1.7,1.0,1.3*3C
2017-12-31 16:48:15 1514756895.697507: $GPGSV,3,1,11,22,48,250,43,23,21,306,41,25,08,037,20,03,45,282,27*73
2017-12-31 16:48:15 1514756895.697672: $GPGSV,3,2,11,16,38,189,48,29,14,061,25,31,56,043,51,14,46,106,46*76
2017-12-31 16:48:15 1514756895.697738: $GPGSV,3,3,11,32,25,117,42,26,68,159,41,135,22,240,43*7A
2017-12-31 16:48:15 1514756895.811090: $GPZDA,214816.00,31,12,2017,00,00*6B
2017-12-31 16:48:15 1514756895.811213: $GPGGA,214816,3946.9576,N,08404.9848,W,2,10,1.00,303.18,M,-33.324,M,,*7A
2017-12-31 16:48:15 1514756895.811277: $GPRMC,214816,A,3946.9576,N,08404.9848,W,0.0000,0.000,311217,,*30
2017-12-31 16:48:15 1514756895.811337: $GPGSA,A,3,22,23,3,16,29,31,14,32,26,135,,,1.7,1.0,1.3*3C
2017-12-31 16:48:16 1514756896.344532: $GPZDA,214817.00,31,12,2017,00,00*6A
2017-12-31 16:48:16 1514756896.344698: $GPGGA,214817,3946.9576,N,08404.9848,W,2,10,0.80,303.18,M,-33.324,M,,*72
2017-12-31 16:48:16 1514756896.344765: $GPRMC,214817,A,3946.9576,N,08404.9848,W,0.0000,0.000,311217,,*31
2017-12-31 16:48:16 1514756896.344825: $GPGSA,A,3,22,23,3,16,29,31,14,32,26,135,,,1.7,0.8,1.3*35
2017-12-31 16:48:17 1514756897.345102: $GPZDA,214818.00,31,12,2017,00,00*65
2017-12-31 16:48:17 1514756897.345311: $GPGGA,214818,3946.9576,N,08404.9848,W,2,10,1.00,303.18,M,-33.324,M,,*74
2017-12-31 16:48:17 1514756897.345381: $GPRMC,214818,A,3946.9576,N,08404.9848,W,0.0000,0.000,311217,,*3E
2017-12-31 16:48:17 1514756897.345443: $GPGSA,A,3,22,23,3,16,29,31,14,32,26,135,,,1.7,1.0,1.3*3C
2017-12-31 16:48:18 1514756898.697075: $GPGSV,3,1,11,22,48,250,43,23,21,306,40,25,08,037,20,03,45,282,36*72
2017-12-31 16:48:18 1514756898.697284: $GPGSV,3,2,11,16,38,189,48,29,14,061,26,31,56,043,52,14,46,106,46*76
2017-12-31 16:48:18 1514756898.697351: $GPGSV,3,3,11,32,25,117,42,26,68,159,41,135,22,240,43*7A
2017-12-31 16:48:18 1514756898.810442: $GPZDA,214819.00,31,12,2017,00,00*64
2017-12-31 16:48:18 1514756898.810590: $GPGGA,214819,3946.9576,N,08404.9848,W,2,11,0.80,303.18,M,-33.324,M,,*7D
2017-12-31 16:48:18 1514756898.810656: $GPRMC,214819,A,3946.9576,N,08404.9848,W,0.0000,0.000,311217,,*3F
2017-12-31 16:48:18 1514756898.810780: $GPGSA,A,3,22,23,25,3,16,29,31,14,32,26,135,,1.7,0.8,1.3*32
2017-12-31 16:48:19 1514756899.345053: $GPZDA,214820.00,31,12,2017,00,00*6E
2017-12-31 16:48:19 1514756899.345221: $GPGGA,214820,3946.9576,N,08404.9848,W,2,11,0.80,303.18,M,-33.324,M,,*77
2017-12-31 16:48:19 1514756899.345287: $GPRMC,214820,A,3946.9576,N,08404.9848,W,0.0000,0.000,311217,,*35
2017-12-31 16:48:19 1514756899.345347: $GPGSA,A,3,22,23,25,3,16,29,31,14,32,26,135,,1.7,0.8,1.3*32
2017-12-31 16:48:20 1514756900.336685: $GPZDA,214821.00,31,12,2017,00,00*6F
2017-12-31 16:48:20 1514756900.336890: $GPGGA,214821,3946.9576,N,08404.9848,W,2,11,0.80,303.18,M,-33.324,M,,*76
2017-12-31 16:48:20 1514756900.336957: $GPRMC,214821,A,3946.9576,N,08404.9848,W,0.0000,0.000,311217,,*34
2017-12-31 16:48:20 1514756900.337070: $GPGSA,A,3,22,23,25,3,16,29,31,14,32,26,135,,1.7,0.8,1.3*32
2017-12-31 16:48:21 1514756901.681177: $GPGSV,3,1,11,22,48,250,44,23,21,306,40,25,08,037,19,03,45,282,30*79
2017-12-31 16:48:21 1514756901.681336: $GPGSV,3,2,11,16,38,189,48,29,14,061,26,31,56,043,51,14,46,106,46*75
2017-12-31 16:48:21 1514756901.681401: $GPGSV,3,3,11,32,25,117,43,26,68,159,42,135,22,240,44*7F
2017-12-31 16:48:21 1514756901.794537: $GPZDA,214822.00,31,12,2017,00,00*6C
2017-12-31 16:48:21 1514756901.794655: $GPGGA,214822,3946.9576,N,08404.9848,W,2,11,0.80,303.18,M,-33.324,M,,*75
2017-12-31 16:48:21 1514756901.794721: $GPRMC,214822,A,3946.9576,N,08404.9848,W,0.0000,0.000,311217,,*37
2017-12-31 16:48:21 1514756901.794781: $GPGSA,A,3,22,23,25,3,16,29,31,14,32,26,135,,1.7,0.8,1.3*32
