2017-11-15 19:11:51 1510791111.907935: {"class":"VERSION","release":"3.17","rev":"3.17","proto_major":3,"proto_minor":12}
2017-11-15 19:11:51 1510791111.908562: {"class":"DEVICES","devices":[{"class":"DEVICE","path":"/dev/ttyUSB0","driver":"SiRF","subtype":"9\u0006GSD4e_4.1.2-P1_RPATCH.05-F-GPS-4R-1510281 11/03/2015 307","activated":"2017-11-16T00:11:51.831Z","flags":1,"native":1,"bps":4800,"parity":"N","stopbits":1,"cycle":1.00}]}
2017-11-15 19:11:51 1510791111.908684: {"class":"WATCH","enable":true,"json":false,"nmea":true,"raw":0,"scaled":false,"timing":false,"split24":false,"pps":false}
2017-11-15 19:11:52 1510791112.345282: $GPZDA,001151.00,16,11,2017,00,00*61
2017-11-15 19:11:52 1510791112.345463: $GPGGA,001151,3946.9717,N,08404.9464,W,1,04,2.60,304.76,M,-33.324,M,,*7D
2017-11-15 19:11:52 1510791112.345524: $GPRMC,001151,A,3946.9717,N,08404.9464,W,1.0253,293.297,161117,,*3C
2017-11-15 19:11:52 1510791112.345580: $GPGSA,A,3,32,14,31,16,,,,,,,,,3.4,2.6,2.9*3B
2017-11-15 19:11:53 1510791113.344608: $GPZDA,001152.00,16,11,2017,00,00*62
2017-11-15 19:11:53 1510791113.344773: $GPGGA,001152,3946.9717,N,08404.9471,W,1,04,2.60,304.68,M,-33.324,M,,*75
2017-11-15 19:11:53 1510791113.344833: $GPRMC,001152,A,3946.9717,N,08404.9471,W,1.4954,260.563,161117,,*33
2017-11-15 19:11:53 1510791113.344889: $GPGSA,A,3,32,14,31,16,,,,,,,,,3.4,2.6,2.9*3B
2017-11-15 19:11:54 1510791114.665368: $GPGSV,3,1,11,32,43,099,25,14,61,079,23,01,10,259,09,26,43,175,12*73
2017-11-15 19:11:54 1510791114.665540: $GPGSV,3,2,11,31,74,006,27,16,14,190,18,22,49,283,00,03,34,307,00*7D
2017-11-15 19:11:54 1510791114.665600: $GPGSV,3,3,11,25,24,043,00,29,07,079,00,10,05,159,00*44
2017-11-15 19:11:54 1510791114.777510: $GPZDA,001153.00,16,11,2017,00,00*63
2017-11-15 19:11:54 1510791114.777671: $GPGGA,001153,3946.9717,N,08404.9478,W,1,06,1.60,304.60,M,-33.324,M,,*74
2017-11-15 19:11:54 1510791114.777733: $GPRMC,001153,A,3946.9717,N,08404.9478,W,1.4533,273.794,161117,,*3E
2017-11-15 19:11:54 1510791114.777789: $GPGSA,A,3,32,14,1,26,31,16,,,,,,,3.4,1.6,2.9*0D
2017-11-15 19:11:55 1510791115.344601: $GPZDA,001154.00,16,11,2017,00,00*64
2017-11-15 19:11:55 1510791115.344766: $GPGGA,001154,3946.9718,N,08404.9485,W,1,06,1.60,304.53,M,-33.324,M,,*7E
2017-11-15 19:11:55 1510791115.344826: $GPRMC,001154,A,3946.9718,N,08404.9485,W,0.7267,273.794,161117,,*30
2017-11-15 19:11:55 1510791115.344882: $GPGSA,A,3,32,14,1,26,31,16,,,,,,,3.4,1.6,2.9*0D
2017-11-15 19:11:56 1510791116.346238: $GPZDA,001155.00,16,11,2017,00,00*65
2017-11-15 19:11:56 1510791116.346428: $GPGGA,001155,3946.9718,N,08404.9485,W,1,06,1.60,304.53,M,-33.324,M,,*7F
2017-11-15 19:11:56 1510791116.346489: $GPRMC,001155,A,3946.9718,N,08404.9485,W,0.8054,248.645,161117,,*39
2017-11-15 19:11:56 1510791116.346546: $GPGSA,A,3,32,14,1,26,31,16,,,,,,,3.4,1.6,2.9*0D
2017-11-15 19:11:57 1510791117.665743: $GPGSV,3,1,11,32,43,099,25,14,61,079,23,01,10,259,11,26,43,175,13*7B
2017-11-15 19:11:57 1510791117.665912: $GPGSV,3,2,11,31,74,006,27,16,14,190,17,03,34,307,07,22,49,283,15*71
2017-11-15 19:11:57 1510791117.665973: $GPGSV,3,3,11,25,24,043,00,29,07,079,00,10,05,159,00*44
2017-11-15 19:11:57 1510791117.779091: $GPZDA,001156.00,16,11,2017,00,00*66
2017-11-15 19:11:57 1510791117.779311: $GPGGA,001156,3946.9715,N,08404.9493,W,1,06,1.60,305.21,M,-33.324,M,,*72
2017-11-15 19:11:57 1510791117.779375: $GPRMC,001156,A,3946.9715,N,08404.9493,W,0.5774,207.515,161117,,*35
2017-11-15 19:11:57 1510791117.779432: $GPGSA,A,3,32,14,1,26,31,16,,,,,,,3.4,1.6,2.9*0D
2017-11-15 19:11:58 1510791118.346881: $GPZDA,001157.00,16,11,2017,00,00*67
2017-11-15 19:11:58 1510791118.347173: $GPGGA,001157,3946.9710,N,08404.9493,W,1,06,1.60,304.57,M,-33.324,M,,*76
2017-11-15 19:11:58 1510791118.347256: $GPRMC,001157,A,3946.9710,N,08404.9493,W,0.5857,158.291,161117,,*3D
2017-11-15 19:11:58 1510791118.347383: $GPGSA,A,3,32,14,1,26,31,16,,,,,,,3.4,1.6,2.9*0D
2017-11-15 19:11:59 1510791119.345829: $GPZDA,001158.00,16,11,2017,00,00*68
2017-11-15 19:11:59 1510791119.345990: $GPGGA,001158,3946.9710,N,08404.9493,W,1,06,1.40,304.57,M,-33.324,M,,*7B
2017-11-15 19:11:59 1510791119.346104: $GPRMC,001158,A,3946.9710,N,08404.9493,W,1.1824,129.173,161117,,*3A
2017-11-15 19:11:59 1510791119.346184: $GPGSA,A,3,32,14,1,26,31,16,,,,,,,3.4,1.4,2.9*0F
2017-11-15 19:12:00 1510791120.682895: $GPGSV,3,1,11,32,43,099,25,14,61,079,22,01,10,259,08,26,43,175,13*72
2017-11-15 19:12:00 1510791120.683076: $GPGSV,3,2,11,31,74,006,27,16,14,190,17,03,34,307,15,22,49,283,16*71
2017-11-15 19:12:01 1510791121.646287: $GPGSV,3,3,11,25,24,043,00,29,07,079,00,10,05,159,00*44
2017-11-15 19:12:01 1510791121.646486: $GPZDA,001159.00,16,11,2017,00,00*69
2017-11-15 19:12:01 1510791121.646556: $GPGGA,001159,3946.9710,N,08404.9486,W,1,08,1.40,304.65,M,-33.324,M,,*71
2017-11-15 19:12:01 1510791121.646614: $GPRMC,001159,A,3946.9710,N,08404.9486,W,1.1124,122.165,161117,,*3A
2017-11-15 19:12:01 1510791121.646688: $GPGSA,A,3,32,14,1,26,31,16,3,22,,,,,3.4,1.4,2.9*3C
2017-11-15 19:12:01 1510791121.646910: $GPZDA,001200.00,16,11,2017,00,00*66
2017-11-15 19:12:01 1510791121.646980: $GPGGA,001200,3946.9703,N,08404.9486,W,1,08,1.40,304.77,M,-33.324,M,,*7F
2017-11-15 19:12:01 1510791121.647037: $GPRMC,001200,A,3946.9703,N,08404.9486,W,1.1824,129.173,161117,,*32
2017-11-15 19:12:01 1510791121.647091: $GPGSA,A,3,32,14,1,26,31,16,3,22,,,,,3.4,1.4,2.9*3C
