2018-01-11 20:14:07 1515719647.584297: {"class":"VERSION","release":"3.16","rev":"3.16-4","proto_major":3,"proto_minor":11}
2018-01-11 20:14:07 1515719647.584640: {"class":"DEVICES","devices":[{"class":"DEVICE","path":"/dev/ttyUSB0","driver":"SiRF","subtype":"9\u0006GSD4e_4.1.2-P1_RPATCH.05-F-GPS-4R-1510281 11/03/2015 307","activated":"2018-01-12T01:14:07.282Z","flags":1,"native":1,"bps":4800,"parity":"N","stopbits":1,"cycle":1.00}]}
2018-01-11 20:14:07 1515719647.584755: {"class":"WATCH","enable":true,"json":false,"nmea":true,"raw":0,"scaled":false,"timing":false,"split24":false,"pps":false}
2018-01-11 20:14:07 1515719647.730727: $GPGSV,3,1,10,07,57,315,42,08,74,127,46,09,47,228,42,11,21,166,45*74
2018-01-11 20:14:07 1515719647.730922: $GPGSV,3,2,10,16,22,061,45,23,28,189,48,27,46,052,50,28,15,259,39*70
2018-01-11 20:14:07 1515719647.730988: $GPGSV,3,3,10,30,30,306,30,138,38,213,45*4E
2018-01-11 20:14:07 1515719647.844400: $GPZDA,011408.00,12,01,2018,00,00*63
2018-01-11 20:14:07 1515719647.844540: $GPGGA,011408,3946.9575,N,08404.9834,W,2,10,0.80,301.93,M,-33.324,M,,*7E
2018-01-11 20:14:07 1515719647.844605: $GPRMC,011408,A,3946.9575,N,08404.9834,W,0.0000,0.000,120118,,*30
2018-01-11 20:14:07 1515719647.844666: $GPGSA,A,3,7,8,9,11,16,23,27,28,30,138,,,4.0,0.8,3.5*3E
2018-01-11 20:14:08 1515719648.395018: $GPZDA,011409.00,12,01,2018,00,00*62
2018-01-11 20:14:08 1515719648.395177: $GPGGA,011409,3946.9575,N,08404.9834,W,2,10,0.80,301.93,M,-33.324,M,,*7F
2018-01-11 20:14:08 1515719648.395244: $GPRMC,011409,A,3946.9575,N,08404.9834,W,0.0000,0.000,120118,,*31
2018-01-11 20:14:08 1515719648.395304: $GPGSA,A,3,7,8,9,11,16,23,27,28,30,138,,,4.0,0.8,3.5*3E
2018-01-11 20:14:09 1515719649.392716: $GPZDA,011410.00,12,01,2018,00,00*6A
2018-01-11 20:14:09 1515719649.392828: $GPGGA,011410,3946.9575,N,08404.9834,W,2,10,0.80,301.93,M,-33.324,M,,*77
2018-01-11 20:14:09 1515719649.392862: $GPRMC,011410,A,3946.9575,N,08404.9834,W,0.0000,0.000,120118,,*39
2018-01-11 20:14:09 1515719649.392892: $GPGSA,A,3,7,8,9,11,16,23,27,28,30,138,,,4.0,0.8,3.5*3E
2018-01-11 20:14:10 1515719650.746030: $GPGSV,3,1,10,07,57,315,42,08,74,127,46,09,47,228,42,11,21,166,45*74
2018-01-11 20:14:10 1515719650.746206: $GPGSV,3,2,10,16,22,061,45,23,28,189,48,27,46,052,50,28,15,259,39*70
2018-01-11 20:14:10 1515719650.746272: $GPGSV,3,3,10,30,30,306,30,138,38,213,45*4E
2018-01-11 20:14:10 1515719650.858156: $GPZDA,011411.00,12,01,2018,00,00*6B
2018-01-11 20:14:10 1515719650.858284: $GPGGA,011411,3946.9575,N,08404.9834,W,2,10,0.80,301.93,M,-33.324,M,,*76
2018-01-11 20:14:10 1515719650.858349: $GPRMC,011411,A,3946.9575,N,08404.9834,W,0.0000,0.000,120118,,*38
2018-01-11 20:14:10 1515719650.858409: $GPGSA,A,3,7,8,9,11,16,23,27,28,30,138,,,4.0,0.8,3.5*3E
2018-01-11 20:14:11 1515719651.411557: $GPZDA,011412.00,12,01,2018,00,00*68
2018-01-11 20:14:11 1515719651.411732: $GPGGA,011412,3946.9575,N,08404.9834,W,2,10,0.80,301.93,M,-33.324,M,,*75
2018-01-11 20:14:11 1515719651.411815: $GPRMC,011412,A,3946.9575,N,08404.9834,W,0.0000,0.000,120118,,*3B
2018-01-11 20:14:11 1515719651.411877: $GPGSA,A,3,7,8,9,11,16,23,27,28,30,138,,,4.0,0.8,3.5*3E
2018-01-11 20:14:12 1515719652.393707: $GPZDA,011413.00,12,01,2018,00,00*69
2018-01-11 20:14:12 1515719652.393882: $GPGGA,011413,3946.9575,N,08404.9834,W,2,10,0.80,301.93,M,-33.324,M,,*74
2018-01-11 20:14:12 1515719652.393949: $GPRMC,011413,A,3946.9575,N,08404.9834,W,0.0000,0.000,120118,,*3A
2018-01-11 20:14:12 1515719652.394010: $GPGSA,A,3,7,8,9,11,16,23,27,28,30,138,,,4.0,0.8,3.5*3E
2018-01-11 20:14:13 1515719653.726911: $GPGSV,3,1,10,07,57,315,43,08,74,127,46,09,47,228,42,11,21,166,46*76
2018-01-11 20:14:13 1515719653.727090: $GPGSV,3,2,10,16,22,061,45,23,28,189,48,27,46,052,50,28,15,259,39*70
2018-01-11 20:14:13 1515719653.727156: $GPGSV,3,3,10,30,30,306,16,138,38,213,44*4B
2018-01-11 20:14:13 1515719653.840354: $GPZDA,011414.00,12,01,2018,00,00*6E
2018-01-11 20:14:13 1515719653.840491: $GPGGA,011414,3946.9575,N,08404.9834,W,2,10,0.80,301.93,M,-33.324,M,,*73
2018-01-11 20:14:13 1515719653.840556: $GPRMC,011414,A,3946.9575,N,08404.9834,W,0.0000,0.000,120118,,*3D
2018-01-11 20:14:13 1515719653.840690: $GPGSA,A,3,7,8,9,11,16,23,27,28,30,138,,,4.0,0.8,3.5*3E
2018-01-11 20:14:14 1515719654.393756: $GPZDA,011415.00,12,01,2018,00,00*6F
2018-01-11 20:14:14 1515719654.393956: $GPGGA,011415,3946.9575,N,08404.9834,W,2,10,0.80,301.93,M,-33.324,M,,*72
2018-01-11 20:14:14 1515719654.394026: $GPRMC,011415,A,3946.9575,N,08404.9834,W,0.0000,0.000,120118,,*3C
2018-01-11 20:14:14 1515719654.394090: $GPGSA,A,3,7,8,9,11,16,23,27,28,30,138,,,4.0,0.8,3.5*3E
2018-01-11 20:14:15 1515719655.394099: $GPZDA,011416.00,12,01,2018,00,00*6C
2018-01-11 20:14:15 1515719655.394264: $GPGGA,011416,3946.9575,N,08404.9834,W,2,10,0.80,301.93,M,-33.324,M,,*71
2018-01-11 20:14:15 1515719655.394333: $GPRMC,011416,A,3946.9575,N,08404.9834,W,0.0000,0.000,120118,,*3F
2018-01-11 20:14:15 1515719655.394396: $GPGSA,A,3,7,8,9,11,16,23,27,28,30,138,,,4.0,0.8,3.5*3E
2018-01-11 20:14:16 1515719656.730997: $GPGSV,3,1,10,07,57,315,43,08,74,127,46,09,47,228,42,11,21,166,46*76
2018-01-11 20:14:16 1515719656.731175: $GPGSV,3,2,10,16,22,061,44,23,28,189,48,27,46,052,50,28,15,259,39*71
2018-01-11 20:14:16 1515719656.731243: $GPGSV,3,3,10,30,30,306,21,138,38,213,45*4E
2018-01-11 20:14:16 1515719656.844391: $GPZDA,011417.00,12,01,2018,00,00*6D
2018-01-11 20:14:16 1515719656.844537: $GPGGA,011417,3946.9575,N,08404.9834,W,2,10,0.80,301.93,M,-33.324,M,,*70
2018-01-11 20:14:16 1515719656.844626: $GPRMC,011417,A,3946.9575,N,08404.9834,W,0.0000,0.000,120118,,*3E
2018-01-11 20:14:16 1515719656.844708: $GPGSA,A,3,7,8,9,11,16,23,27,28,30,138,,,4.0,0.8,3.5*3E
2018-01-11 20:14:17 1515719657.394018: $GPZDA,011418.00,12,01,2018,00,00*62
2018-01-11 20:14:17 1515719657.394196: $GPGGA,011418,3946.9575,N,08404.9834,W,2,10,0.80,301.93,M,-33.324,M,,*7F
2018-01-11 20:14:17 1515719657.394266: $GPRMC,011418,A,3946.9575,N,08404.9834,W,0.0000,0.000,120118,,*31
2018-01-11 20:14:17 1515719657.394330: $GPGSA,A,3,7,8,9,11,16,23,27,28,30,138,,,4.0,0.8,3.5*3E
2018-01-11 20:14:18 1515719658.394901: $GPZDA,011419.00,12,01,2018,00,00*63
2018-01-11 20:14:18 1515719658.395071: $GPGGA,011419,3946.9575,N,08404.9834,W,2,10,0.80,301.93,M,-33.324,M,,*7E
2018-01-11 20:14:18 1515719658.395143: $GPRMC,011419,A,3946.9575,N,08404.9834,W,0.0000,0.000,120118,,*30
2018-01-11 20:14:18 1515719658.395207: $GPGSA,A,3,7,8,9,11,16,23,27,28,30,138,,,4.0,0.8,3.5*3E
