2017-12-29 10:45:51 1514562351.306287: {"class":"VERSION","release":"3.16","rev":"3.16-4","proto_major":3,"proto_minor":11}
2017-12-29 10:45:51 1514562351.306633: {"class":"DEVICES","devices":[{"class":"DEVICE","path":"/dev/ttyUSB0","driver":"SiRF","subtype":"9\u0006GSD4e_4.1.2-P1_RPATCH.05-F-GPS-4R-1510281 11/03/2015 307","activated":"2017-12-29T15:45:51.230Z","flags":1,"native":1,"bps":4800,"parity":"N","stopbits":1,"cycle":1.00}]}
2017-12-29 10:45:51 1514562351.306748: {"class":"WATCH","enable":true,"json":false,"nmea":true,"raw":0,"scaled":false,"timing":false,"split24":false,"pps":false}
2017-12-29 10:45:51 1514562351.343904: $GPZDA,154552.00,29,12,2017,00,00*68
2017-12-29 10:45:51 1514562351.344079: $GPGGA,154552,3946.9608,N,08404.9823,W,2,10,0.80,300.75,M,-33.324,M,,*76
2017-12-29 10:45:51 1514562351.344145: $GPRMC,154552,A,3946.9608,N,08404.9823,W,0.0000,0.000,291217,,*34
2017-12-29 10:45:51 1514562351.344207: $GPGSA,A,3,10,13,15,18,20,21,24,27,32,138,,,1.7,0.8,1.3*09
2017-12-29 10:45:52 1514562352.393664: $GPZDA,154553.00,29,12,2017,00,00*69
2017-12-29 10:45:52 1514562352.393833: $GPGGA,154553,3946.9608,N,08404.9823,W,2,10,0.80,300.75,M,-33.324,M,,*77
2017-12-29 10:45:52 1514562352.393899: $GPRMC,154553,A,3946.9608,N,08404.9823,W,0.0000,0.000,291217,,*35
2017-12-29 10:45:52 1514562352.393959: $GPGSA,A,3,10,13,15,18,20,21,24,27,32,138,,,1.7,0.8,1.3*09
2017-12-29 10:45:53 1514562353.715500: $GPGSV,3,1,11,10,31,291,43,13,20,045,43,15,51,049,49,18,62,313,43*78
2017-12-29 10:45:53 1514562353.715671: $GPGSV,3,2,11,20,45,082,49,21,77,217,47,24,41,129,50,27,19,304,40*7A
2017-12-29 10:45:53 1514562353.715736: $GPGSV,3,3,11,32,10,229,31,29,02,187,25,138,38,213,45*72
2017-12-29 10:45:53 1514562353.829183: $GPZDA,154554.00,29,12,2017,00,00*6E
2017-12-29 10:45:53 1514562353.829302: $GPGGA,154554,3946.9608,N,08404.9823,W,2,11,0.80,300.75,M,-33.324,M,,*71
2017-12-29 10:45:53 1514562353.829364: $GPRMC,154554,A,3946.9608,N,08404.9823,W,0.0000,0.000,291217,,*32
2017-12-29 10:45:53 1514562353.829424: $GPGSA,A,3,10,13,15,18,20,21,24,27,32,29,138,,1.7,0.8,1.3*02
2017-12-29 10:45:54 1514562354.455505: $GPZDA,154555.00,29,12,2017,00,00*6F
2017-12-29 10:45:54 1514562354.455689: $GPGGA,154555,3946.9608,N,08404.9823,W,2,11,0.80,300.75,M,-33.324,M,,*70
2017-12-29 10:45:54 1514562354.455757: $GPRMC,154555,A,3946.9608,N,08404.9823,W,0.0000,0.000,291217,,*33
2017-12-29 10:45:54 1514562354.455818: $GPGSA,A,3,10,13,15,18,20,21,24,27,32,29,138,,1.7,0.8,1.3*02
2017-12-29 10:45:55 1514562355.390405: $GPZDA,154556.00,29,12,2017,00,00*6C
2017-12-29 10:45:55 1514562355.390585: $GPGGA,154556,3946.9605,N,08404.9824,W,2,11,0.80,301.51,M,-33.324,M,,*7E
2017-12-29 10:45:55 1514562355.390652: $GPRMC,154556,A,3946.9605,N,08404.9824,W,0.0000,0.000,291217,,*3A
2017-12-29 10:45:55 1514562355.390712: $GPGSA,A,3,10,13,15,18,20,21,24,27,32,29,138,,1.7,0.8,1.3*02
2017-12-29 10:45:56 1514562356.723375: $GPGSV,3,1,11,10,31,291,44,13,20,045,42,15,51,049,49,18,62,313,43*7E
2017-12-29 10:45:56 1514562356.723542: $GPGSV,3,2,11,20,45,082,49,21,77,217,47,24,41,129,50,27,19,304,41*7B
2017-12-29 10:45:56 1514562356.723607: $GPGSV,3,3,11,32,10,229,33,29,02,187,26,138,38,213,45*73
2017-12-29 10:45:56 1514562356.836721: $GPZDA,154557.00,29,12,2017,00,00*6D
2017-12-29 10:45:56 1514562356.836860: $GPGGA,154557,3946.9604,N,08404.9817,W,2,11,0.80,301.59,M,-33.324,M,,*76
2017-12-29 10:45:56 1514562356.836925: $GPRMC,154557,A,3946.9604,N,08404.9817,W,0.0000,0.000,291217,,*3A
2017-12-29 10:45:56 1514562356.836986: $GPGSA,A,3,10,13,15,18,20,21,24,27,32,29,138,,1.7,0.8,1.3*02
2017-12-29 10:45:57 1514562357.344142: $GPZDA,154558.00,29,12,2017,00,00*62
2017-12-29 10:45:57 1514562357.344304: $GPGGA,154558,3946.9604,N,08404.9817,W,2,11,0.80,301.59,M,-33.324,M,,*79
2017-12-29 10:45:57 1514562357.344371: $GPRMC,154558,A,3946.9604,N,08404.9817,W,0.0000,0.000,291217,,*35
2017-12-29 10:45:57 1514562357.344432: $GPGSA,A,3,10,13,15,18,20,21,24,27,32,29,138,,1.7,0.8,1.3*02
2017-12-29 10:45:58 1514562358.386062: $GPZDA,154559.00,29,12,2017,00,00*63
2017-12-29 10:45:58 1514562358.386233: $GPGGA,154559,3946.9608,N,08404.9817,W,2,11,0.80,302.23,M,-33.324,M,,*7A
2017-12-29 10:45:58 1514562358.386354: $GPRMC,154559,A,3946.9608,N,08404.9817,W,0.0000,0.000,291217,,*38
2017-12-29 10:45:58 1514562358.386418: $GPGSA,A,3,10,13,15,18,20,21,24,27,32,29,138,,1.7,0.8,1.3*02
2017-12-29 10:45:59 1514562359.679966: $GPGSV,3,1,11,10,31,291,44,13,20,045,42,15,51,049,49,18,62,313,43*7E
2017-12-29 10:45:59 1514562359.680117: $GPGSV,3,2,11,20,45,082,49,21,77,217,47,24,41,129,50,27,19,304,42*78
2017-12-29 10:45:59 1514562359.680182: $GPGSV,3,3,11,32,10,229,33,29,02,187,26,138,38,213,46*70
2017-12-29 10:45:59 1514562359.793582: $GPZDA,154600.00,29,12,2017,00,00*6C
2017-12-29 10:45:59 1514562359.793701: $GPGGA,154600,3946.9608,N,08404.9817,W,2,11,0.80,302.23,M,-33.324,M,,*75
2017-12-29 10:45:59 1514562359.793765: $GPRMC,154600,A,3946.9608,N,08404.9817,W,0.0000,0.000,291217,,*37
2017-12-29 10:45:59 1514562359.793824: $GPGSA,A,3,10,13,15,18,20,21,24,27,32,29,138,,1.7,0.8,1.3*02
2017-12-29 10:46:00 1514562360.386809: $GPZDA,154601.00,29,12,2017,00,00*6D
2017-12-29 10:46:00 1514562360.386982: $GPGGA,154601,3946.9608,N,08404.9817,W,2,11,0.80,302.23,M,-33.324,M,,*74
2017-12-29 10:46:00 1514562360.387049: $GPRMC,154601,A,3946.9608,N,08404.9817,W,0.0000,0.000,291217,,*36
2017-12-29 10:46:00 1514562360.387110: $GPGSA,A,3,10,13,15,18,20,21,24,27,32,29,138,,1.7,0.8,1.3*02
2017-12-29 10:46:01 1514562361.387950: $GPZDA,154602.00,29,12,2017,00,00*6E
2017-12-29 10:46:01 1514562361.388119: $GPGGA,154602,3946.9608,N,08404.9817,W,2,11,0.80,302.23,M,-33.324,M,,*77
2017-12-29 10:46:01 1514562361.388185: $GPRMC,154602,A,3946.9608,N,08404.9817,W,0.0000,0.000,291217,,*35
2017-12-29 10:46:01 1514562361.388245: $GPGSA,A,3,10,13,15,18,20,21,24,27,32,29,138,,1.7,0.8,1.3*02
2017-12-29 10:46:02 1514562362.683336: $GPGSV,3,1,11,10,31,291,43,13,20,045,43,15,51,049,50,18,62,313,42*71
2017-12-29 10:46:02 1514562362.683518: $GPGSV,3,2,11,20,45,082,50,21,77,217,48,24,41,129,50,27,19,304,42*7F
2017-12-29 10:46:02 1514562362.683583: $GPGSV,3,3,11,32,10,229,33,29,02,187,26,138,38,213,45*73
2017-12-29 10:46:02 1514562362.796744: $GPZDA,154603.00,29,12,2017,00,00*6F
2017-12-29 10:46:02 1514562362.796854: $GPGGA,154603,3946.9608,N,08404.9817,W,2,11,0.80,302.23,M,-33.324,M,,*76
2017-12-29 10:46:02 1514562362.796919: $GPRMC,154603,A,3946.9608,N,08404.9817,W,0.0000,0.000,291217,,*34
2017-12-29 10:46:02 1514562362.796978: $GPGSA,A,3,10,13,15,18,20,21,24,27,32,29,138,,1.7,0.8,1.3*02
2017-12-29 10:46:03 1514562363.348901: $GPZDA,154604.00,29,12,2017,00,00*68
2017-12-29 10:46:03 1514562363.349055: $GPGGA,154604,3946.9608,N,08404.9817,W,2,11,0.80,302.23,M,-33.324,M,,*71
2017-12-29 10:46:03 1514562363.349120: $GPRMC,154604,A,3946.9608,N,08404.9817,W,0.0000,0.000,291217,,*33
2017-12-29 10:46:03 1514562363.349180: $GPGSA,A,3,10,13,15,18,20,21,24,27,32,29,138,,1.7,0.8,1.3*02
2017-12-29 10:46:04 1514562364.343294: $GPZDA,154605.00,29,12,2017,00,00*69
2017-12-29 10:46:04 1514562364.343446: $GPGGA,154605,3946.9608,N,08404.9817,W,2,11,0.80,302.23,M,-33.324,M,,*70
2017-12-29 10:46:04 1514562364.343511: $GPRMC,154605,A,3946.9608,N,08404.9817,W,0.0000,0.000,291217,,*32
2017-12-29 10:46:04 1514562364.343573: $GPGSA,A,3,10,13,15,18,20,21,24,27,32,29,138,,1.7,0.8,1.3*02
2017-12-29 10:46:05 1514562365.683680: $GPGSV,3,1,11,10,31,291,43,13,20,045,43,15,51,049,49,18,62,313,43*78
2017-12-29 10:46:05 1514562365.683854: $GPGSV,3,2,11,20,45,082,49,21,77,217,47,24,41,129,50,27,19,304,43*79
2017-12-29 10:46:05 1514562365.683920: $GPGSV,3,3,11,32,10,229,33,29,02,187,00,138,38,213,45*77
2017-12-29 10:46:05 1514562365.796997: $GPZDA,154606.00,29,12,2017,00,00*6A
2017-12-29 10:46:05 1514562365.800274: $GPGGA,154606,3946.9608,N,08404.9817,W,2,10,0.80,302.23,M,-33.324,M,,*72
2017-12-29 10:46:05 1514562365.800386: $GPRMC,154606,A,3946.9608,N,08404.9817,W,0.0000,0.000,291217,,*31
2017-12-29 10:46:05 1514562365.800450: $GPGSA,A,3,10,13,15,18,20,21,24,27,32,138,,,1.7,0.8,1.3*09
