2017-12-01 18:02:35 1512169355.007600: {"class":"VERSION","release":"3.16","rev":"3.16-4","proto_major":3,"proto_minor":11}
2017-12-01 18:02:35 1512169355.008125: {"class":"DEVICES","devices":[{"class":"DEVICE","path":"/dev/ttyUSB0","driver":"SiRF","subtype":"9\u0006GSD4e_4.1.2-P1_RPATCH.05-F-GPS-4R-1510281 11/03/2015 307","activated":"2017-12-01T23:02:34.567Z","flags":1,"native":1,"bps":4800,"parity":"N","stopbits":1,"cycle":1.00}]}
2017-12-01 18:02:35 1512169355.008263: {"class":"WATCH","enable":true,"json":false,"nmea":true,"raw":0,"scaled":false,"timing":false,"split24":false,"pps":false}
2017-12-01 18:02:35 1512169355.454165: $GPZDA,230236.00,01,12,2017,00,00*66
2017-12-01 18:02:35 1512169355.454370: $GPGGA,230236,3946.9732,N,08404.9847,W,2,12,0.80,299.77,M,-33.325,M,,*78
2017-12-01 18:02:35 1512169355.454438: $GPRMC,230236,A,3946.9732,N,08404.9847,W,0.0000,0.000,011217,,*30
2017-12-01 18:02:35 1512169355.454517: $GPGSA,A,3,1,3,10,14,16,22,29,25,26,31,32,138,2.0,0.8,1.5*0C
2017-12-01 18:02:36 1512169356.755927: $GPGSV,3,1,12,01,11,261,36,03,34,307,46,10,06,159,33,14,62,076,44*71
2017-12-01 18:02:36 1512169356.756109: $GPGSV,3,2,12,16,13,189,42,22,48,285,47,29,07,081,24,25,25,045,43*7D
2017-12-01 18:02:36 1512169356.756177: $GPGSV,3,3,12,26,43,175,45,31,75,004,47,32,43,099,44,138,38,213,46*49
2017-12-01 18:02:36 1512169356.869562: $GPZDA,230237.00,01,12,2017,00,00*67
2017-12-01 18:02:36 1512169356.869733: $GPGGA,230237,3946.9732,N,08404.9847,W,2,12,0.80,299.77,M,-33.325,M,,*79
2017-12-01 18:02:36 1512169356.869802: $GPRMC,230237,A,3946.9732,N,08404.9847,W,0.0000,0.000,011217,,*31
2017-12-01 18:02:36 1512169356.869863: $GPGSA,A,3,1,3,10,14,16,22,29,25,26,31,32,138,2.0,0.8,1.5*0C
2017-12-01 18:02:37 1512169357.495063: $GPZDA,230238.00,01,12,2017,00,00*68
2017-12-01 18:02:37 1512169357.495231: $GPGGA,230238,3946.9732,N,08404.9847,W,2,12,0.80,299.77,M,-33.325,M,,*76
2017-12-01 18:02:37 1512169357.495297: $GPRMC,230238,A,3946.9732,N,08404.9847,W,0.0000,0.000,011217,,*3E
2017-12-01 18:02:37 1512169357.495386: $GPGSA,A,3,1,3,10,14,16,22,29,25,26,31,32,138,2.0,0.8,1.5*0C
2017-12-01 18:02:38 1512169358.449533: $GPZDA,230239.00,01,12,2017,00,00*69
2017-12-01 18:02:38 1512169358.449704: $GPGGA,230239,3946.9732,N,08404.9847,W,2,12,0.80,299.77,M,-33.325,M,,*77
2017-12-01 18:02:38 1512169358.449771: $GPRMC,230239,A,3946.9732,N,08404.9847,W,0.0000,0.000,011217,,*3F
2017-12-01 18:02:38 1512169358.449832: $GPGSA,A,3,1,3,10,14,16,22,29,25,26,31,32,138,2.0,0.8,1.5*0C
2017-12-01 18:02:39 1512169359.790013: $GPGSV,3,1,12,01,11,261,37,03,34,307,46,10,06,159,33,14,62,076,43*77
2017-12-01 18:02:39 1512169359.790196: $GPGSV,3,2,12,16,13,189,42,22,48,285,47,29,07,081,24,25,25,045,43*7D
2017-12-01 18:02:39 1512169359.790263: $GPGSV,3,3,12,26,43,175,45,31,75,004,47,32,43,099,45,138,38,213,46*48
2017-12-01 18:02:39 1512169359.903804: $GPZDA,230240.00,01,12,2017,00,00*67
2017-12-01 18:02:39 1512169359.903989: $GPGGA,230240,3946.9732,N,08404.9847,W,2,12,0.80,299.77,M,-33.325,M,,*79
2017-12-01 18:02:39 1512169359.904054: $GPRMC,230240,A,3946.9732,N,08404.9847,W,0.0000,0.000,011217,,*31
2017-12-01 18:02:39 1512169359.904115: $GPGSA,A,3,1,3,10,14,16,22,29,25,26,31,32,138,2.0,0.8,1.5*0C
2017-12-01 18:02:40 1512169360.429526: $GPZDA,230241.00,01,12,2017,00,00*66
2017-12-01 18:02:40 1512169360.429696: $GPGGA,230241,3946.9732,N,08404.9847,W,2,12,0.80,299.77,M,-33.325,M,,*78
2017-12-01 18:02:40 1512169360.429765: $GPRMC,230241,A,3946.9732,N,08404.9847,W,0.0000,0.000,011217,,*30
2017-12-01 18:02:40 1512169360.429826: $GPGSA,A,3,1,3,10,14,16,22,29,25,26,31,32,138,2.0,0.8,1.5*0C
2017-12-01 18:02:41 1512169361.455296: $GPZDA,230242.00,01,12,2017,00,00*65
2017-12-01 18:02:41 1512169361.455481: $GPGGA,230242,3946.9732,N,08404.9847,W,2,12,0.80,299.77,M,-33.325,M,,*7B
2017-12-01 18:02:41 1512169361.455550: $GPRMC,230242,A,3946.9732,N,08404.9847,W,0.0000,0.000,011217,,*33
2017-12-01 18:02:41 1512169361.455611: $GPGSA,A,3,1,3,10,14,16,22,29,25,26,31,32,138,2.0,0.8,1.5*0C
2017-12-01 18:02:42 1512169362.765365: $GPGSV,3,1,12,01,11,261,37,03,34,307,47,10,06,159,33,14,62,076,43*76
2017-12-01 18:02:42 1512169362.765628: $GPGSV,3,2,12,16,13,189,42,22,48,285,47,29,07,081,14,25,25,045,44*79
2017-12-01 18:02:42 1512169362.765700: $GPGSV,3,3,12,26,43,175,45,31,75,004,47,32,43,099,44,138,38,213,46*49
2017-12-01 18:02:42 1512169362.879115: $GPZDA,230243.00,01,12,2017,00,00*64
2017-12-01 18:02:42 1512169362.879308: $GPGGA,230243,3946.9732,N,08404.9847,W,2,12,0.80,299.77,M,-33.325,M,,*7A
2017-12-01 18:02:42 1512169362.879392: $GPRMC,230243,A,3946.9732,N,08404.9847,W,0.0000,0.000,011217,,*32
2017-12-01 18:02:42 1512169362.879454: $GPGSA,A,3,1,3,10,14,16,22,29,25,26,31,32,138,2.0,0.8,1.5*0C
2017-12-01 18:02:43 1512169363.420851: $GPZDA,230244.00,01,12,2017,00,00*63
2017-12-01 18:02:43 1512169363.421042: $GPGGA,230244,3946.9732,N,08404.9847,W,2,12,0.80,299.77,M,-33.325,M,,*7D
2017-12-01 18:02:43 1512169363.421108: $GPRMC,230244,A,3946.9732,N,08404.9847,W,0.0000,0.000,011217,,*35
2017-12-01 18:02:43 1512169363.421169: $GPGSA,A,3,1,3,10,14,16,22,29,25,26,31,32,138,2.0,0.8,1.5*0C
2017-12-01 18:02:44 1512169364.419204: $GPZDA,230245.00,01,12,2017,00,00*62
2017-12-01 18:02:44 1512169364.419416: $GPGGA,230245,3946.9732,N,08404.9847,W,2,12,0.80,299.77,M,-33.325,M,,*7C
2017-12-01 18:02:44 1512169364.419486: $GPRMC,230245,A,3946.9732,N,08404.9847,W,0.0000,0.000,011217,,*34
2017-12-01 18:02:44 1512169364.419548: $GPGSA,A,3,1,3,10,14,16,22,29,25,26,31,32,138,2.0,0.8,1.5*0C
2017-12-01 18:02:45 1512169365.762438: $GPGSV,3,1,12,01,11,261,37,03,34,307,47,10,06,159,33,14,62,076,44*71
2017-12-01 18:02:45 1512169365.762637: $GPGSV,3,2,12,16,13,189,43,22,48,285,47,29,07,081,25,25,25,045,44*7A
2017-12-01 18:02:45 1512169365.762705: $GPGSV,3,3,12,26,43,175,46,31,75,004,47,32,43,099,44,138,38,213,46*4A
2017-12-01 18:02:45 1512169365.876075: $GPZDA,230246.00,01,12,2017,00,00*61
2017-12-01 18:02:45 1512169365.876266: $GPGGA,230246,3946.9732,N,08404.9847,W,2,12,0.80,299.77,M,-33.325,M,,*7F
2017-12-01 18:02:45 1512169365.876350: $GPRMC,230246,A,3946.9732,N,08404.9847,W,0.0000,0.000,011217,,*37
2017-12-01 18:02:45 1512169365.876414: $GPGSA,A,3,1,3,10,14,16,22,29,25,26,31,32,138,2.0,0.8,1.5*0C
2017-12-01 18:02:46 1512169366.429154: $GPZDA,230247.00,01,12,2017,00,00*60
2017-12-01 18:02:46 1512169366.429370: $GPGGA,230247,3946.9732,N,08404.9847,W,2,12,0.80,299.77,M,-33.325,M,,*7E
2017-12-01 18:02:46 1512169366.429440: $GPRMC,230247,A,3946.9732,N,08404.9847,W,0.0000,0.000,011217,,*36
2017-12-01 18:02:46 1512169366.429502: $GPGSA,A,3,1,3,10,14,16,22,29,25,26,31,32,138,2.0,0.8,1.5*0C
2017-12-01 18:02:47 1512169367.424536: $GPZDA,230248.00,01,12,2017,00,00*6F
2017-12-01 18:02:47 1512169367.424728: $GPGGA,230248,3946.9732,N,08404.9847,W,2,12,0.80,299.77,M,-33.325,M,,*71
2017-12-01 18:02:47 1512169367.424796: $GPRMC,230248,A,3946.9732,N,08404.9847,W,0.0000,0.000,011217,,*39
2017-12-01 18:02:47 1512169367.424858: $GPGSA,A,3,1,3,10,14,16,22,29,25,26,31,32,138,2.0,0.8,1.5*0C
2017-12-01 18:02:48 1512169368.761549: $GPGSV,3,1,12,01,11,261,37,03,34,307,46,10,06,159,33,14,62,076,44*70
2017-12-01 18:02:48 1512169368.761732: $GPGSV,3,2,12,16,13,189,43,22,48,285,46,29,07,081,26,25,25,045,43*7F
2017-12-01 18:02:48 1512169368.761799: $GPGSV,3,3,12,26,43,175,46,31,75,004,48,32,43,099,44,138,38,213,47*44
2017-12-01 18:02:48 1512169368.874891: $GPZDA,230249.00,01,12,2017,00,00*6E
2017-12-01 18:02:48 1512169368.875067: $GPGGA,230249,3946.9732,N,08404.9847,W,2,12,0.80,299.77,M,-33.325,M,,*70
2017-12-01 18:02:48 1512169368.875135: $GPRMC,230249,A,3946.9732,N,08404.9847,W,0.0000,0.000,011217,,*38
2017-12-01 18:02:48 1512169368.875221: $GPGSA,A,3,1,3,10,14,16,22,29,25,26,31,32,138,2.0,0.8,1.5*0C
2017-12-01 18:02:49 1512169369.425776: $GPZDA,230250.00,01,12,2017,00,00*66
2017-12-01 18:02:49 1512169369.425964: $GPGGA,230250,3946.9732,N,08404.9847,W,2,12,0.80,299.77,M,-33.325,M,,*78
2017-12-01 18:02:49 1512169369.426032: $GPRMC,230250,A,3946.9732,N,08404.9847,W,0.0000,0.000,011217,,*30
2017-12-01 18:02:49 1512169369.426093: $GPGSA,A,3,1,3,10,14,16,22,29,25,26,31,32,138,2.0,0.8,1.5*0C
2017-12-01 18:02:50 1512169370.430419: $GPZDA,230251.00,01,12,2017,00,00*67
2017-12-01 18:02:50 1512169370.430707: $GPGGA,230251,3946.9732,N,08404.9847,W,2,12,0.80,299.77,M,-33.325,M,,*79
2017-12-01 18:02:50 1512169370.430835: $GPRMC,230251,A,3946.9732,N,08404.9847,W,0.0000,0.000,011217,,*31
2017-12-01 18:02:50 1512169370.430954: $GPGSA,A,3,1,3,10,14,16,22,29,25,26,31,32,138,2.0,0.8,1.5*0C
2017-12-01 18:02:51 1512169371.761148: $GPGSV,3,1,12,01,11,261,36,03,34,307,46,10,06,159,33,14,62,076,43*76
2017-12-01 18:02:51 1512169371.761455: $GPGSV,3,2,12,16,13,189,43,22,48,285,46,29,07,081,29,25,25,045,43*70
2017-12-01 18:02:51 1512169371.761614: $GPGSV,3,3,12,26,43,175,46,31,75,004,47,32,43,099,44,138,38,213,47*4B
2017-12-01 18:02:51 1512169371.874460: $GPZDA,230252.00,01,12,2017,00,00*64
2017-12-01 18:02:51 1512169371.874634: $GPGGA,230252,3946.9732,N,08404.9847,W,2,12,0.80,299.77,M,-33.325,M,,*7A
2017-12-01 18:02:51 1512169371.874704: $GPRMC,230252,A,3946.9732,N,08404.9847,W,0.0000,0.000,011217,,*32
2017-12-01 18:02:51 1512169371.874768: $GPGSA,A,3,1,3,10,14,16,22,29,25,26,31,32,138,2.0,0.8,1.5*0C
2017-12-01 18:02:52 1512169372.499873: $GPZDA,230253.00,01,12,2017,00,00*65
2017-12-01 18:02:53 1512169373.454080: $GPGGA,230253,3946.9732,N,08404.9847,W,2,12,0.80,299.77,M,-33.325,M,,*7B
2017-12-01 18:02:53 1512169373.454271: $GPRMC,230253,A,3946.9732,N,08404.9847,W,0.0000,0.000,011217,,*33
2017-12-01 18:02:53 1512169373.454370: $GPGSA,A,3,1,3,10,14,16,22,29,25,26,31,32,138,2.0,0.8,1.5*0C
2017-12-01 18:02:53 1512169373.454483: $GPZDA,230254.00,01,12,2017,00,00*62
2017-12-01 18:02:53 1512169373.454546: $GPGGA,230254,3946.9732,N,08404.9847,W,2,12,0.80,299.77,M,-33.325,M,,*7C
2017-12-01 18:02:53 1512169373.454659: $GPRMC,230254,A,3946.9732,N,08404.9847,W,0.0000,0.000,011217,,*34
2017-12-01 18:02:53 1512169373.454725: $GPGSA,A,3,1,3,10,14,16,22,29,25,26,31,32,138,2.0,0.8,1.5*0C
2017-12-01 18:02:54 1512169374.757676: $GPGSV,3,1,12,01,11,261,36,03,34,307,46,10,06,159,33,14,62,076,43*76
2017-12-01 18:02:54 1512169374.757863: $GPGSV,3,2,12,16,13,189,43,22,48,285,47,29,07,081,30,25,25,045,42*78
2017-12-01 18:02:54 1512169374.757933: $GPGSV,3,3,12,26,43,175,46,31,75,004,48,32,43,099,44,138,38,213,46*45
2017-12-01 18:02:54 1512169374.871066: $GPZDA,230255.00,01,12,2017,00,00*63
2017-12-01 18:02:54 1512169374.871278: $GPGGA,230255,3946.9732,N,08404.9847,W,2,12,0.80,299.77,M,-33.325,M,,*7D
2017-12-01 18:02:54 1512169374.871405: $GPRMC,230255,A,3946.9732,N,08404.9847,W,0.0000,0.000,011217,,*35
2017-12-01 18:02:54 1512169374.871479: $GPGSA,A,3,1,3,10,14,16,22,29,25,26,31,32,138,2.0,0.8,1.5*0C
