2017-11-16 13:17:25 1510856245.375272: {"class":"VERSION","release":"3.17","rev":"3.17","proto_major":3,"proto_minor":12}
2017-11-16 13:17:25 1510856245.375771: {"class":"DEVICES","devices":[{"class":"DEVICE","path":"/dev/ttyUSB0","driver":"SiRF","subtype":"9\u0006GSD4e_4.1.2-P1_RPATCH.05-F-GPS-4R-1510281 11/03/2015 307","activated":"2017-11-16T18:17:25.271Z","flags":1,"native":1,"bps":4800,"parity":"N","stopbits":1,"cycle":1.00}]}
2017-11-16 13:17:25 1510856245.375886: {"class":"WATCH","enable":true,"json":false,"nmea":true,"raw":0,"scaled":false,"timing":false,"split24":false,"pps":false}
2017-11-16 13:17:25 1510856245.384764: $GPZDA,181724.00,16,11,2017,00,00*6C
2017-11-16 13:17:25 1510856245.384898: $GPGGA,181724,3946.9589,N,08404.9845,W,2,11,0.80,298.72,M,-33.324,M,,*71
2017-11-16 13:17:25 1510856245.384958: $GPRMC,181724,A,3946.9589,N,08404.9845,W,0.0000,0.000,161117,,*3A
2017-11-16 13:17:25 1510856245.385013: $GPGSA,A,3,10,13,15,18,20,21,24,27,5,29,138,,1.6,0.8,1.3*37
2017-11-16 13:17:26 1510856246.290676: $GPZDA,181725.00,16,11,2017,00,00*6D
2017-11-16 13:17:26 1510856246.290839: $GPGGA,181725,3946.9589,N,08404.9845,W,2,11,0.80,298.72,M,-33.324,M,,*70
2017-11-16 13:17:26 1510856246.290900: $GPRMC,181725,A,3946.9589,N,08404.9845,W,0.0000,0.000,161117,,*3B
2017-11-16 13:17:26 1510856246.290956: $GPGSA,A,3,10,13,15,18,20,21,24,27,5,29,138,,1.6,0.8,1.3*37
2017-11-16 13:17:27 1510856247.632740: $GPGSV,3,1,11,10,22,282,43,13,30,045,48,15,62,052,51,18,53,298,46*74
2017-11-16 13:17:27 1510856247.633047: $GPGSV,3,2,11,20,52,070,47,21,77,276,47,24,32,139,41,27,16,313,42*76
2017-11-16 13:17:27 1510856247.633171: $GPGSV,3,3,11,05,05,087,20,29,10,189,28,138,38,213,46*77
2017-11-16 13:17:27 1510856247.745935: $GPZDA,181726.00,16,11,2017,00,00*6E
2017-11-16 13:17:27 1510856247.746130: $GPGGA,181726,3946.9589,N,08404.9845,W,2,11,0.80,298.72,M,-33.324,M,,*73
2017-11-16 13:17:27 1510856247.746192: $GPRMC,181726,A,3946.9589,N,08404.9845,W,0.0000,0.000,161117,,*38
2017-11-16 13:17:27 1510856247.746274: $GPGSA,A,3,10,13,15,18,20,21,24,27,5,29,138,,1.6,0.8,1.3*37
2017-11-16 13:17:28 1510856248.316824: $GPZDA,181727.00,16,11,2017,00,00*6F
2017-11-16 13:17:28 1510856248.317001: $GPGGA,181727,3946.9589,N,08404.9845,W,2,11,0.80,298.72,M,-33.324,M,,*72
2017-11-16 13:17:28 1510856248.317063: $GPRMC,181727,A,3946.9589,N,08404.9845,W,0.0000,0.000,161117,,*39
2017-11-16 13:17:28 1510856248.317138: $GPGSA,A,3,10,13,15,18,20,21,24,27,5,29,138,,1.6,0.8,1.3*37
2017-11-16 13:17:29 1510856249.297594: $GPZDA,181728.00,16,11,2017,00,00*60
2017-11-16 13:17:29 1510856249.297759: $GPGGA,181728,3946.9589,N,08404.9845,W,2,11,0.80,298.72,M,-33.324,M,,*7D
2017-11-16 13:17:29 1510856249.297820: $GPRMC,181728,A,3946.9589,N,08404.9845,W,0.0000,0.000,161117,,*36
2017-11-16 13:17:29 1510856249.297875: $GPGSA,A,3,10,13,15,18,20,21,24,27,5,29,138,,1.6,0.8,1.3*37
2017-11-16 13:17:30 1510856250.656564: $GPGSV,3,1,11,10,22,282,43,13,30,045,48,15,62,052,51,18,53,298,46*74
2017-11-16 13:17:30 1510856250.656720: $GPGSV,3,2,11,20,52,070,48,21,77,276,47,24,32,139,41,27,16,313,42*79
2017-11-16 13:17:30 1510856250.656780: $GPGSV,3,3,11,05,05,087,21,29,10,189,27,138,38,213,45*7A
2017-11-16 13:17:30 1510856250.769921: $GPZDA,181729.00,16,11,2017,00,00*61
2017-11-16 13:17:30 1510856250.770133: $GPGGA,181729,3946.9589,N,08404.9845,W,2,11,0.80,298.72,M,-33.324,M,,*7C
2017-11-16 13:17:30 1510856250.770194: $GPRMC,181729,A,3946.9589,N,08404.9845,W,0.0000,0.000,161117,,*37
2017-11-16 13:17:30 1510856250.770250: $GPGSA,A,3,10,13,15,18,20,21,24,27,5,29,138,,1.6,0.8,1.3*37
2017-11-16 13:17:31 1510856251.322016: $GPZDA,181730.00,16,11,2017,00,00*69
2017-11-16 13:17:31 1510856251.322206: $GPGGA,181730,3946.9589,N,08404.9845,W,2,11,0.80,298.72,M,-33.324,M,,*74
2017-11-16 13:17:31 1510856251.322266: $GPRMC,181730,A,3946.9589,N,08404.9845,W,0.0000,0.000,161117,,*3F
2017-11-16 13:17:31 1510856251.322322: $GPGSA,A,3,10,13,15,18,20,21,24,27,5,29,138,,1.6,0.8,1.3*37
2017-11-16 13:17:32 1510856252.291682: $GPZDA,181731.00,16,11,2017,00,00*68
2017-11-16 13:17:32 1510856252.291854: $GPGGA,181731,3946.9589,N,08404.9845,W,2,11,0.80,298.72,M,-33.324,M,,*75
2017-11-16 13:17:32 1510856252.291994: $GPRMC,181731,A,3946.9589,N,08404.9845,W,0.0000,0.000,161117,,*3E
2017-11-16 13:17:32 1510856252.292072: $GPGSA,A,3,10,13,15,18,20,21,24,27,5,29,138,,1.6,0.8,1.3*37
2017-11-16 13:17:33 1510856253.652359: $GPGSV,3,1,11,10,22,282,42,13,30,045,48,15,62,052,51,18,53,298,46*75
2017-11-16 13:17:33 1510856253.652669: $GPGSV,3,2,11,20,52,070,47,21,77,276,47,24,32,139,41,27,16,313,42*76
2017-11-16 13:17:33 1510856253.652784: $GPGSV,3,3,11,05,05,087,22,29,10,189,27,138,38,213,45*79
2017-11-16 13:17:33 1510856253.765649: $GPZDA,181732.00,16,11,2017,00,00*6B
2017-11-16 13:17:33 1510856253.765838: $GPGGA,181732,3946.9589,N,08404.9845,W,2,11,0.80,298.72,M,-33.324,M,,*76
2017-11-16 13:17:33 1510856253.765902: $GPRMC,181732,A,3946.9589,N,08404.9845,W,0.0000,0.000,161117,,*3D
2017-11-16 13:17:33 1510856253.765974: $GPGSA,A,3,10,13,15,18,20,21,24,27,5,29,138,,1.6,0.8,1.3*37
2017-11-16 13:17:34 1510856254.298992: $GPZDA,181733.00,16,11,2017,00,00*6A
2017-11-16 13:17:34 1510856254.299154: $GPGGA,181733,3946.9586,N,08404.9845,W,2,11,0.80,299.48,M,-33.324,M,,*70
2017-11-16 13:17:34 1510856254.299215: $GPRMC,181733,A,3946.9586,N,08404.9845,W,0.0000,0.000,161117,,*33
2017-11-16 13:17:34 1510856254.299270: $GPGSA,A,3,10,13,15,18,20,21,24,27,5,29,138,,1.6,0.8,1.3*37
2017-11-16 13:17:35 1510856255.315566: $GPZDA,181734.00,16,11,2017,00,00*6D
2017-11-16 13:17:35 1510856255.315758: $GPGGA,181734,3946.9586,N,08404.9845,W,2,11,0.80,299.48,M,-33.324,M,,*77
2017-11-16 13:17:35 1510856255.315821: $GPRMC,181734,A,3946.9586,N,08404.9845,W,0.0000,0.000,161117,,*34
2017-11-16 13:17:35 1510856255.315892: $GPGSA,A,3,10,13,15,18,20,21,24,27,5,29,138,,1.6,0.8,1.3*37
