2017-12-01 11:38:16 1512146296.346874: {"class":"VERSION","release":"3.16","rev":"3.16-4","proto_major":3,"proto_minor":11}
2017-12-01 11:38:16 1512146296.347350: {"class":"DEVICES","devices":[{"class":"DEVICE","path":"/dev/ttyUSB0","driver":"SiRF","subtype":"9\u0006GSD4e_4.1.2-P1_RPATCH.05-F-GPS-4R-1510281 11/03/2015 307","activated":"2017-12-01T16:38:16.230Z","flags":1,"native":1,"bps":4800,"parity":"N","stopbits":1,"cycle":1.00}]}
2017-12-01 11:38:16 1512146296.347480: {"class":"WATCH","enable":true,"json":false,"nmea":true,"raw":0,"scaled":false,"timing":false,"split24":false,"pps":false}
2017-12-01 11:38:16 1512146296.680365: $GPGSV,3,1,12,05,15,075,36,10,11,270,43,13,45,051,46,15,77,081,47*76
2017-12-01 11:38:16 1512146296.680546: $GPGSV,3,2,12,18,42,283,44,20,64,046,42,21,65,307,45,24,18,150,42*71
2017-12-01 11:38:16 1512146296.680612: $GPGSV,3,3,12,27,07,325,32,29,27,195,42,04,14,129,00,138,38,213,46*40
2017-12-01 11:38:16 1512146296.793763: $GPZDA,163817.00,01,12,2017,00,00*6A
2017-12-01 11:38:16 1512146296.793969: $GPGGA,163817,3946.9560,N,08404.9849,W,2,11,0.80,302.02,M,-33.324,M,,*7C
2017-12-01 11:38:16 1512146296.794040: $GPRMC,163817,A,3946.9560,N,08404.9849,W,0.0000,0.000,011217,,*37
2017-12-01 11:38:16 1512146296.794121: $GPGSA,A,3,5,10,13,15,18,20,21,24,27,29,138,,2.0,0.8,1.5*34
2017-12-01 11:38:17 1512146297.419214: $GPZDA,163818.00,01,12,2017,00,00*65
2017-12-01 11:38:17 1512146297.419392: $GPGGA,163818,3946.9560,N,08404.9849,W,2,11,0.80,302.02,M,-33.324,M,,*73
2017-12-01 11:38:17 1512146297.419462: $GPRMC,163818,A,3946.9560,N,08404.9849,W,0.0000,0.000,011217,,*38
2017-12-01 11:38:17 1512146297.419526: $GPGSA,A,3,5,10,13,15,18,20,21,24,27,29,138,,2.0,0.8,1.5*34
2017-12-01 11:38:18 1512146298.342438: $GPZDA,163819.00,01,12,2017,00,00*64
2017-12-01 11:38:18 1512146298.342610: $GPGGA,163819,3946.9560,N,08404.9849,W,2,11,0.80,302.02,M,-33.324,M,,*72
2017-12-01 11:38:18 1512146298.342679: $GPRMC,163819,A,3946.9560,N,08404.9849,W,0.0000,0.000,011217,,*39
2017-12-01 11:38:18 1512146298.342742: $GPGSA,A,3,5,10,13,15,18,20,21,24,27,29,138,,2.0,0.8,1.5*34
2017-12-01 11:38:19 1512146299.681873: $GPGSV,3,1,12,05,15,075,36,10,11,270,42,13,45,051,47,15,77,081,47*76
2017-12-01 11:38:19 1512146299.682091: $GPGSV,3,2,12,18,42,283,44,20,64,046,42,21,65,307,45,24,18,150,42*71
2017-12-01 11:38:19 1512146299.682161: $GPGSV,3,3,12,27,07,325,30,29,27,195,42,04,14,129,00,138,38,213,45*41
2017-12-01 11:38:19 1512146299.795313: $GPZDA,163820.00,01,12,2017,00,00*6E
2017-12-01 11:38:19 1512146299.795481: $GPGGA,163820,3946.9560,N,08404.9849,W,2,11,0.80,302.02,M,-33.324,M,,*78
2017-12-01 11:38:19 1512146299.795551: $GPRMC,163820,A,3946.9560,N,08404.9849,W,0.0000,0.000,011217,,*33
2017-12-01 11:38:19 1512146299.795615: $GPGSA,A,3,5,10,13,15,18,20,21,24,27,29,138,,2.0,0.8,1.5*34
2017-12-01 11:38:20 1512146300.344871: $GPZDA,163821.00,01,12,2017,00,00*6F
2017-12-01 11:38:20 1512146300.345257: $GPGGA,163821,3946.9560,N,08404.9849,W,2,11,0.80,302.02,M,-33.324,M,,*79
2017-12-01 11:38:20 1512146300.345387: $GPRMC,163821,A,3946.9560,N,08404.9849,W,0.0000,0.000,011217,,*32
2017-12-01 11:38:20 1512146300.345510: $GPGSA,A,3,5,10,13,15,18,20,21,24,27,29,138,,2.0,0.8,1.5*34
2017-12-01 11:38:21 1512146301.343263: $GPZDA,163822.00,01,12,2017,00,00*6C
2017-12-01 11:38:21 1512146301.343436: $GPGGA,163822,3946.9557,N,08404.9850,W,2,11,0.80,302.79,M,-33.324,M,,*7A
2017-12-01 11:38:21 1512146301.343506: $GPRMC,163822,A,3946.9557,N,08404.9850,W,0.0000,0.000,011217,,*3D
2017-12-01 11:38:21 1512146301.343570: $GPGSA,A,3,5,10,13,15,18,20,21,24,27,29,138,,2.0,0.8,1.5*34
2017-12-01 11:38:22 1512146302.678488: $GPGSV,3,1,12,05,15,075,36,10,11,270,43,13,45,051,47,15,77,081,47*77
2017-12-01 11:38:22 1512146302.678671: $GPGSV,3,2,12,18,42,283,44,20,64,046,42,21,65,307,45,24,18,150,42*71
2017-12-01 11:38:22 1512146302.678740: $GPGSV,3,3,12,27,07,325,26,29,27,195,43,04,14,129,00,138,38,213,45*47
2017-12-01 11:38:22 1512146302.792432: $GPZDA,163823.00,01,12,2017,00,00*6D
2017-12-01 11:38:22 1512146302.792611: $GPGGA,163823,3946.9561,N,08404.9850,W,2,11,0.80,303.43,M,-33.324,M,,*76
2017-12-01 11:38:22 1512146302.792729: $GPRMC,163823,A,3946.9561,N,08404.9850,W,0.0000,0.000,011217,,*39
2017-12-01 11:38:22 1512146302.792810: $GPGSA,A,3,5,10,13,15,18,20,21,24,27,29,138,,2.0,0.8,1.5*34
2017-12-01 11:38:23 1512146303.343991: $GPZDA,163824.00,01,12,2017,00,00*6A
2017-12-01 11:38:23 1512146303.344183: $GPGGA,163824,3946.9561,N,08404.9850,W,2,11,0.80,303.43,M,-33.324,M,,*71
2017-12-01 11:38:23 1512146303.344249: $GPRMC,163824,A,3946.9561,N,08404.9850,W,0.0000,0.000,011217,,*3E
2017-12-01 11:38:23 1512146303.344310: $GPGSA,A,3,5,10,13,15,18,20,21,24,27,29,138,,2.0,0.8,1.5*34
2017-12-01 11:38:24 1512146304.348590: $GPZDA,163825.00,01,12,2017,00,00*6B
2017-12-01 11:38:24 1512146304.348765: $GPGGA,163825,3946.9561,N,08404.9850,W,2,11,0.80,303.43,M,-33.324,M,,*70
2017-12-01 11:38:24 1512146304.348832: $GPRMC,163825,A,3946.9561,N,08404.9850,W,0.0000,0.000,011217,,*3F
2017-12-01 11:38:24 1512146304.348914: $GPGSA,A,3,5,10,13,15,18,20,21,24,27,29,138,,2.0,0.8,1.5*34
2017-12-01 11:38:25 1512146305.678081: $GPGSV,3,1,12,05,15,075,37,10,11,270,43,13,45,051,47,15,77,081,48*79
2017-12-01 11:38:25 1512146305.678261: $GPGSV,3,2,12,18,42,283,44,20,64,046,42,21,65,307,45,24,18,150,42*71
2017-12-01 11:38:25 1512146305.678327: $GPGSV,3,3,12,27,07,325,25,29,27,195,43,04,14,129,00,138,38,213,46*47
2017-12-01 11:38:25 1512146305.791495: $GPZDA,163826.00,01,12,2017,00,00*68
2017-12-01 11:38:25 1512146305.791667: $GPGGA,163826,3946.9561,N,08404.9850,W,2,11,0.80,303.43,M,-33.324,M,,*73
2017-12-01 11:38:25 1512146305.791735: $GPRMC,163826,A,3946.9561,N,08404.9850,W,0.0000,0.000,011217,,*3C
2017-12-01 11:38:25 1512146305.791796: $GPGSA,A,3,5,10,13,15,18,20,21,24,27,29,138,,2.0,0.8,1.5*34
