2017-12-01 11:32:44 1512145964.776813: {"class":"VERSION","release":"3.16","rev":"3.16-4","proto_major":3,"proto_minor":11}
2017-12-01 11:32:44 1512145964.777203: {"class":"DEVICES","devices":[{"class":"DEVICE","path":"/dev/ttyUSB0","driver":"SiRF","subtype":"9\u0006GSD4e_4.1.2-P1_RPATCH.05-F-GPS-4R-1510281 11/03/2015 307","activated":"2017-12-01T16:32:44.485Z","flags":1,"native":1,"bps":4800,"parity":"N","stopbits":1,"cycle":1.00}]}
2017-12-01 11:32:44 1512145964.777324: {"class":"WATCH","enable":true,"json":false,"nmea":true,"raw":0,"scaled":false,"timing":false,"split24":false,"pps":false}
2017-12-01 11:32:45 1512145965.683249: $GPGSV,3,1,12,05,17,073,35,10,10,268,45,13,47,052,48,15,78,093,48*73
2017-12-01 11:32:45 1512145965.683434: $GPGSV,3,2,12,18,40,282,45,20,65,042,43,21,62,309,46,24,16,151,42*72
2017-12-01 11:32:45 1512145965.683501: $GPGSV,3,3,12,29,29,196,45,27,05,327,28,04,16,127,00,138,38,213,46*4D
2017-12-01 11:32:45 1512145965.797008: $GPZDA,163246.00,01,12,2017,00,00*64
2017-12-01 11:32:45 1512145965.797177: $GPGGA,163246,3946.9555,N,08404.9828,W,2,11,0.80,301.62,M,-33.324,M,,*76
2017-12-01 11:32:45 1512145965.797246: $GPRMC,163246,A,3946.9555,N,08404.9828,W,0.0000,0.000,011217,,*38
2017-12-01 11:32:45 1512145965.797309: $GPGSA,A,3,5,10,13,15,18,20,21,24,29,27,138,,2.0,0.8,1.5*34
2017-12-01 11:32:46 1512145966.422091: $GPZDA,163247.00,01,12,2017,00,00*65
2017-12-01 11:32:46 1512145966.422269: $GPGGA,163247,3946.9555,N,08404.9828,W,2,11,0.80,301.62,M,-33.324,M,,*77
2017-12-01 11:32:46 1512145966.422338: $GPRMC,163247,A,3946.9555,N,08404.9828,W,0.0000,0.000,011217,,*39
2017-12-01 11:32:46 1512145966.422402: $GPGSA,A,3,5,10,13,15,18,20,21,24,29,27,138,,2.0,0.8,1.5*34
2017-12-01 11:32:47 1512145967.346885: $GPZDA,163248.00,01,12,2017,00,00*6A
2017-12-01 11:32:47 1512145967.347061: $GPGGA,163248,3946.9555,N,08404.9828,W,2,11,0.80,301.62,M,-33.324,M,,*78
2017-12-01 11:32:47 1512145967.347127: $GPRMC,163248,A,3946.9555,N,08404.9828,W,0.0000,0.000,011217,,*36
2017-12-01 11:32:47 1512145967.347189: $GPGSA,A,3,5,10,13,15,18,20,21,24,29,27,138,,2.0,0.8,1.5*34
2017-12-01 11:32:48 1512145968.688589: $GPGSV,3,1,12,05,17,073,35,10,10,268,45,13,47,052,47,15,78,093,48*7C
2017-12-01 11:32:48 1512145968.688780: $GPGSV,3,2,12,18,40,282,45,20,65,042,43,21,62,309,45,24,16,151,42*71
2017-12-01 11:32:48 1512145968.688848: $GPGSV,3,3,12,29,29,196,45,27,05,327,29,04,16,127,00,138,38,213,46*4C
2017-12-01 11:32:48 1512145968.802406: $GPZDA,163249.00,01,12,2017,00,00*6B
2017-12-01 11:32:48 1512145968.802590: $GPGGA,163249,3946.9555,N,08404.9821,W,2,11,0.80,301.70,M,-33.324,M,,*73
2017-12-01 11:32:48 1512145968.802659: $GPRMC,163249,A,3946.9555,N,08404.9821,W,0.0000,0.000,011217,,*3E
2017-12-01 11:32:48 1512145968.802721: $GPGSA,A,3,5,10,13,15,18,20,21,24,29,27,138,,2.0,0.8,1.5*34
2017-12-01 11:32:49 1512145969.352850: $GPZDA,163250.00,01,12,2017,00,00*63
2017-12-01 11:32:49 1512145969.353035: $GPGGA,163250,3946.9555,N,08404.9821,W,2,11,0.80,301.70,M,-33.324,M,,*7B
2017-12-01 11:32:49 1512145969.353103: $GPRMC,163250,A,3946.9555,N,08404.9821,W,0.0000,0.000,011217,,*36
2017-12-01 11:32:49 1512145969.353167: $GPGSA,A,3,5,10,13,15,18,20,21,24,29,27,138,,2.0,0.8,1.5*34
2017-12-01 11:32:50 1512145970.346474: $GPZDA,163251.00,01,12,2017,00,00*62
2017-12-01 11:32:50 1512145970.346661: $GPGGA,163251,3946.9551,N,08404.9822,W,2,11,1.00,302.47,M,-33.324,M,,*73
2017-12-01 11:32:50 1512145970.346728: $GPRMC,163251,A,3946.9551,N,08404.9822,W,0.0000,0.000,011217,,*30
2017-12-01 11:32:50 1512145970.346790: $GPGSA,A,3,5,10,13,15,18,20,21,24,29,27,138,,2.0,1.0,1.5*3D
2017-12-01 11:32:51 1512145971.686601: $GPGSV,3,1,12,05,17,073,35,10,10,268,45,13,47,052,47,15,78,093,48*7C
2017-12-01 11:32:51 1512145971.686804: $GPGSV,3,2,12,18,40,282,45,20,65,042,42,21,62,309,46,24,16,151,42*73
2017-12-01 11:32:51 1512145971.686875: $GPGSV,3,3,12,29,29,196,46,27,05,327,18,04,16,127,00,138,38,213,46*4D
2017-12-01 11:32:51 1512145971.800573: $GPZDA,163252.00,01,12,2017,00,00*61
2017-12-01 11:32:51 1512145971.800739: $GPGGA,163252,3946.9551,N,08404.9822,W,2,11,0.80,302.47,M,-33.324,M,,*79
2017-12-01 11:32:51 1512145971.800862: $GPRMC,163252,A,3946.9551,N,08404.9822,W,0.0000,0.000,011217,,*33
2017-12-01 11:32:51 1512145971.800930: $GPGSA,A,3,5,10,13,15,18,20,21,24,29,27,138,,2.0,0.8,1.5*34
2017-12-01 11:32:52 1512145972.347461: $GPZDA,163253.00,01,12,2017,00,00*60
2017-12-01 11:32:52 1512145972.347657: $GPGGA,163253,3946.9551,N,08404.9822,W,2,11,0.80,302.47,M,-33.324,M,,*78
2017-12-01 11:32:52 1512145972.347727: $GPRMC,163253,A,3946.9551,N,08404.9822,W,0.0000,0.000,011217,,*32
2017-12-01 11:32:52 1512145972.347792: $GPGSA,A,3,5,10,13,15,18,20,21,24,29,27,138,,2.0,0.8,1.5*34
2017-12-01 11:32:53 1512145973.353254: $GPZDA,163254.00,01,12,2017,00,00*67
2017-12-01 11:32:53 1512145973.353424: $GPGGA,163254,3946.9551,N,08404.9822,W,2,11,0.80,302.47,M,-33.324,M,,*7F
2017-12-01 11:32:53 1512145973.353491: $GPRMC,163254,A,3946.9551,N,08404.9822,W,0.0000,0.000,011217,,*35
2017-12-01 11:32:53 1512145973.353554: $GPGSA,A,3,5,10,13,15,18,20,21,24,29,27,138,,2.0,0.8,1.5*34
2017-12-01 11:32:54 1512145974.703548: $GPGSV,3,1,12,05,17,073,35,10,10,268,45,13,47,052,47,15,78,093,49*7D
2017-12-01 11:32:54 1512145974.703737: $GPGSV,3,2,12,18,40,282,44,20,65,042,43,21,62,309,46,24,16,151,42*73
2017-12-01 11:32:54 1512145974.703805: $GPGSV,3,3,12,29,29,196,46,27,05,327,33,04,16,127,00,138,38,213,45*47
