2018-01-12 20:00:05 1515805205.218165: {"class":"VERSION","release":"3.16","rev":"3.16-4","proto_major":3,"proto_minor":11}
2018-01-12 20:00:05 1515805205.220896: {"class":"DEVICES","devices":[{"class":"DEVICE","path":"/dev/ttyUSB0","driver":"SiRF","subtype":"9\u0006GSD4e_4.1.2-P1_RPATCH.05-F-GPS-4R-1510281 11/03/2015 307","activated":"2018-01-13T01:00:05.187Z","flags":1,"native":1,"bps":4800,"parity":"N","stopbits":1,"cycle":1.00}]}
2018-01-12 20:00:05 1515805205.221040: {"class":"WATCH","enable":true,"json":false,"nmea":true,"raw":0,"scaled":false,"timing":false,"split24":false,"pps":false}
2018-01-12 20:00:06 1515805206.188953: $GPZDA,010007.00,13,01,2018,00,00*68
2018-01-12 20:00:06 1515805206.189163: $GPGGA,010007,3946.9520,N,08404.9529,W,1,05,1.80,303.23,M,-33.324,M,,*7A
2018-01-12 20:00:06 1515805206.189234: $GPRMC,010007,A,3946.9520,N,08404.9529,W,1.1049,13.970,130118,,*0B
2018-01-12 20:00:06 1515805206.189296: $GPGSA,A,3,7,8,27,9,16,,,,,,,,4.8,1.8,4.6*01
2018-01-12 20:00:07 1515805207.525091: $GPGSV,3,1,10,07,53,313,29,08,71,141,24,27,50,055,21,09,50,232,18*78
2018-01-12 20:00:07 1515805207.525286: $GPGSV,3,2,10,16,25,058,14,23,32,190,00,30,26,304,00,11,17,169,00*71
2018-01-12 20:00:07 1515805207.525355: $GPGSV,3,3,10,28,12,256,00,138,38,213,00*41
2018-01-12 20:00:07 1515805207.638663: $GPZDA,010008.00,13,01,2018,00,00*67
2018-01-12 20:00:07 1515805207.638819: $GPGGA,010008,3946.9520,N,08404.9536,W,1,05,1.80,303.15,M,-33.324,M,,*7E
2018-01-12 20:00:07 1515805207.638885: $GPRMC,010008,A,3946.9520,N,08404.9536,W,0.8877,54.767,130118,,*0C
2018-01-12 20:00:07 1515805207.638948: $GPGSA,A,3,7,8,27,9,16,,,,,,,,4.8,1.8,4.6*01
2018-01-12 20:00:08 1515805208.189534: $GPZDA,010009.00,13,01,2018,00,00*66
2018-01-12 20:00:08 1515805208.189711: $GPGGA,010009,3946.9520,N,08404.9536,W,1,05,1.80,303.15,M,-33.324,M,,*7F
2018-01-12 20:00:08 1515805208.189778: $GPRMC,010009,A,3946.9520,N,08404.9536,W,0.2202,353.469,130118,,*36
2018-01-12 20:00:08 1515805208.189840: $GPGSA,A,3,7,8,27,9,16,,,,,,,,4.8,1.8,4.6*01
2018-01-12 20:00:09 1515805209.188149: $GPZDA,010010.00,13,01,2018,00,00*6E
2018-01-12 20:00:09 1515805209.188327: $GPGGA,010010,3946.9518,N,08404.9545,W,1,05,1.80,305.24,M,-33.324,M,,*7C
2018-01-12 20:00:09 1515805209.188396: $GPRMC,010010,A,3946.9518,N,08404.9545,W,0.2970,151.554,130118,,*30
2018-01-12 20:00:09 1515805209.188463: $GPGSA,A,3,7,8,27,9,16,,,,,,,,4.8,1.8,4.6*01
2018-01-12 20:00:10 1515805210.525613: $GPGSV,3,1,10,07,53,313,29,08,71,141,23,27,50,055,20,09,50,232,18*7E
2018-01-12 20:00:10 1515805210.525798: $GPGSV,3,2,10,16,25,058,14,23,32,190,00,30,26,304,00,11,17,169,00*71
2018-01-12 20:00:10 1515805210.525865: $GPGSV,3,3,10,28,12,256,00,138,38,213,00*41
2018-01-12 20:00:10 1515805210.638991: $GPZDA,010011.00,13,01,2018,00,00*6F
2018-01-12 20:00:10 1515805210.639167: $GPGGA,010011,3946.9518,N,08404.9545,W,1,05,1.80,306.65,M,-33.324,M,,*7B
2018-01-12 20:00:10 1515805210.639235: $GPRMC,010011,A,3946.9518,N,08404.9545,W,0.1599,117.753,130118,,*3E
2018-01-12 20:00:10 1515805210.639298: $GPGSA,A,3,7,8,27,9,16,,,,,,,,4.8,1.8,4.6*01
2018-01-12 20:00:11 1515805211.191383: $GPZDA,010012.00,13,01,2018,00,00*6C
2018-01-12 20:00:11 1515805211.191581: $GPGGA,010012,3946.9524,N,08404.9553,W,1,05,1.80,308.61,M,-33.324,M,,*7A
2018-01-12 20:00:11 1515805211.191648: $GPRMC,010012,A,3946.9524,N,08404.9553,W,0.8126,356.465,130118,,*3D
2018-01-12 20:00:11 1515805211.191714: $GPGSA,A,3,7,8,27,9,16,,,,,,,,4.8,1.8,4.6*01
2018-01-12 20:00:12 1515805212.190683: $GPZDA,010013.00,13,01,2018,00,00*6D
2018-01-12 20:00:12 1515805212.190856: $GPGGA,010013,3946.9520,N,08404.9547,W,1,05,1.80,309.46,M,-33.324,M,,*7E
2018-01-12 20:00:12 1515805212.190924: $GPRMC,010013,A,3946.9520,N,08404.9547,W,0.5985,43.009,130118,,*08
2018-01-12 20:00:12 1515805212.190985: $GPGSA,A,3,7,8,27,9,16,,,,,,,,4.8,1.8,4.6*01
2018-01-12 20:00:12 1515805212.191043: $GPGBS,010013,14.24,M,16.36,M,105.11,M*38
2018-01-12 20:00:13 1515805213.526107: $GPGSV,3,1,10,07,53,313,29,08,71,141,23,27,50,055,19,09,50,232,18*74
2018-01-12 20:00:13 1515805213.526286: $GPGSV,3,2,10,16,25,058,14,23,32,190,00,30,26,304,00,11,17,169,00*71
2018-01-12 20:00:13 1515805213.526407: $GPGSV,3,3,10,28,12,256,00,138,38,213,00*41
2018-01-12 20:00:13 1515805213.639623: $GPZDA,010014.00,13,01,2018,00,00*6A
2018-01-12 20:00:13 1515805213.639776: $GPGGA,010014,3946.9520,N,08404.9548,W,1,05,1.80,310.86,M,-33.324,M,,*72
2018-01-12 20:00:13 1515805213.639842: $GPRMC,010014,A,3946.9520,N,08404.9548,W,0.4763,53.554,130118,,*0B
2018-01-12 20:00:13 1515805213.639905: $GPGSA,A,3,7,8,27,9,16,,,,,,,,4.8,1.8,4.6*01
2018-01-12 20:00:14 1515805214.191006: $GPZDA,010015.00,13,01,2018,00,00*6B
2018-01-12 20:00:14 1515805214.191187: $GPGGA,010015,3946.9521,N,08404.9555,W,1,05,1.80,310.78,M,-33.324,M,,*7F
2018-01-12 20:00:14 1515805214.191256: $GPRMC,010015,A,3946.9521,N,08404.9555,W,0.3308,25.323,130118,,*0E
2018-01-12 20:00:14 1515805214.191320: $GPGSA,A,3,7,8,27,9,16,,,,,,,,4.8,1.8,4.6*01
2018-01-12 20:00:15 1515805215.190011: $GPZDA,010016.00,13,01,2018,00,00*68
2018-01-12 20:00:15 1515805215.190183: $GPGGA,010016,3946.9517,N,08404.9555,W,1,05,1.80,311.55,M,-33.324,M,,*77
2018-01-12 20:00:15 1515805215.190251: $GPRMC,010016,A,3946.9517,N,08404.9555,W,0.6607,353.469,130118,,*3C
2018-01-12 20:00:15 1515805215.190314: $GPGSA,A,3,7,8,27,9,16,,,,,,,,4.8,1.8,4.6*01
2018-01-12 20:00:16 1515805216.525971: $GPGSV,3,1,10,07,53,313,29,08,71,141,23,27,50,055,18,09,50,232,18*75
2018-01-12 20:00:16 1515805216.526153: $GPGSV,3,2,10,16,25,058,14,23,32,190,15,30,26,304,00,11,17,169,00*75
2018-01-12 20:00:16 1515805216.526218: $GPGSV,3,3,10,28,12,256,00,138,38,213,00*41
2018-01-12 20:00:16 1515805216.639397: $GPZDA,010017.00,13,01,2018,00,00*69
2018-01-12 20:00:16 1515805216.639536: $GPGGA,010017,3946.9522,N,08404.9555,W,1,05,1.80,312.19,M,-33.324,M,,*7B
2018-01-12 20:00:16 1515805216.639602: $GPRMC,010017,A,3946.9522,N,08404.9555,W,0.7747,57.029,130118,,*08
2018-01-12 20:00:16 1515805216.639665: $GPGSA,A,3,7,8,27,9,16,,,,,,,,4.8,1.8,4.6*01
2018-01-12 20:00:17 1515805217.188671: $GPZDA,010018.00,13,01,2018,00,00*66
2018-01-12 20:00:17 1515805217.188855: $GPGGA,010018,3946.9525,N,08404.9555,W,1,05,1.80,311.42,M,-33.324,M,,*7E
2018-01-12 20:00:17 1515805217.188925: $GPRMC,010018,A,3946.9525,N,08404.9555,W,0.8437,11.384,130118,,*0D
2018-01-12 20:00:17 1515805217.188987: $GPGSA,A,3,7,8,27,9,16,,,,,,,,4.8,1.8,4.6*01
2018-01-12 20:00:18 1515805218.189124: $GPZDA,010019.00,13,01,2018,00,00*67
2018-01-12 20:00:18 1515805218.189312: $GPGGA,010019,3946.9526,N,08404.9555,W,1,05,1.80,312.83,M,-33.324,M,,*72
2018-01-12 20:00:18 1515805218.189383: $GPRMC,010019,A,3946.9526,N,08404.9555,W,0.5117,348.707,130118,,*35
2018-01-12 20:00:18 1515805218.189447: $GPGSA,A,3,7,8,27,9,16,,,,,,,,4.8,1.8,4.6*01
2018-01-12 20:00:19 1515805219.526630: $GPGSV,3,1,10,07,53,313,29,08,71,141,23,27,50,055,13,09,50,232,18*7E
2018-01-12 20:00:19 1515805219.526826: $GPGSV,3,2,10,16,25,058,12,23,32,190,00,30,26,304,00,11,17,169,00*77
2018-01-12 20:00:19 1515805219.526896: $GPGSV,3,3,10,28,12,256,00,138,38,213,00*41
2018-01-12 20:00:19 1515805219.640034: $GPZDA,010020.00,13,01,2018,00,00*6D
2018-01-12 20:00:19 1515805219.640182: $GPGGA,010020,3946.9521,N,08404.9555,W,1,05,1.80,310.78,M,-33.324,M,,*79
2018-01-12 20:00:19 1515805219.640248: $GPRMC,010020,A,3946.9521,N,08404.9555,W,0.4833,20.158,130118,,*07
2018-01-12 20:00:19 1515805219.640309: $GPGSA,A,3,7,8,27,9,16,,,,,,,,4.8,1.8,4.6*01
2018-01-12 20:00:20 1515805220.190397: $GPZDA,010021.00,13,01,2018,00,00*6C
2018-01-12 20:00:20 1515805220.190581: $GPGGA,010021,3946.9521,N,08404.9555,W,1,05,1.80,310.78,M,-33.324,M,,*78
2018-01-12 20:00:20 1515805220.190648: $GPRMC,010021,A,3946.9521,N,08404.9555,W,0.4757,350.910,130118,,*3B
2018-01-12 20:00:20 1515805220.190709: $GPGSA,A,3,7,8,27,9,16,,,,,,,,4.8,1.8,4.6*01
2018-01-12 20:00:21 1515805221.188966: $GPZDA,010022.00,13,01,2018,00,00*6F
2018-01-12 20:00:21 1515805221.189143: $GPGGA,010022,3946.9521,N,08404.9562,W,1,05,1.80,310.70,M,-33.324,M,,*77
2018-01-12 20:00:21 1515805221.189209: $GPRMC,010022,A,3946.9521,N,08404.9562,W,1.1198,332.998,130118,,*39
2018-01-12 20:00:21 1515805221.189322: $GPGSA,A,3,7,8,27,9,16,,,,,,,,4.8,1.8,4.6*01
2018-01-12 20:00:22 1515805222.525159: $GPGSV,3,1,10,07,53,313,29,08,71,141,22,27,50,055,12,09,50,232,18*7E
2018-01-12 20:00:22 1515805222.525336: $GPGSV,3,2,10,16,25,058,13,23,32,190,00,30,26,304,00,11,17,169,00*76
2018-01-12 20:00:22 1515805222.525421: $GPGSV,3,3,10,28,12,256,00,138,38,213,00*41
2018-01-12 20:00:22 1515805222.638783: $GPZDA,010023.00,13,01,2018,00,00*6E
2018-01-12 20:00:22 1515805222.638917: $GPGGA,010023,3946.9522,N,08404.9569,W,1,05,1.80,310.62,M,-33.324,M,,*7D
2018-01-12 20:00:22 1515805222.638984: $GPRMC,010023,A,3946.9522,N,08404.9569,W,0.6412,299.423,130118,,*3C
2018-01-12 20:00:22 1515805222.639045: $GPGSA,A,3,7,8,27,9,16,,,,,,,,4.8,1.8,4.6*01
2018-01-12 20:00:23 1515805223.189708: $GPZDA,010024.00,13,01,2018,00,00*69
2018-01-12 20:00:23 1515805223.189877: $GPGGA,010024,3946.9522,N,08404.9569,W,1,05,1.80,310.62,M,-33.324,M,,*7A
2018-01-12 20:00:23 1515805223.189944: $GPRMC,010024,A,3946.9522,N,08404.9569,W,0.5842,267.414,130118,,*34
2018-01-12 20:00:23 1515805223.190005: $GPGSA,A,3,7,8,27,9,16,,,,,,,,4.8,1.8,4.6*01
2018-01-12 20:00:24 1515805224.189600: $GPZDA,010025.00,13,01,2018,00,00*68
2018-01-12 20:00:24 1515805224.189778: $GPGGA,010025,3946.9522,N,08404.9575,W,1,05,1.80,310.54,M,-33.324,M,,*73
2018-01-12 20:00:24 1515805224.189845: $GPRMC,010025,A,3946.9522,N,08404.9575,W,1.1166,317.793,130118,,*38
2018-01-12 20:00:24 1515805224.189907: $GPGSA,A,3,7,8,27,9,16,,,,,,,,4.8,1.8,4.6*01
