2017-12-01 11:49:47 1512146987.836929: {"class":"VERSION","release":"3.16","rev":"3.16-4","proto_major":3,"proto_minor":11}
2017-12-01 11:49:47 1512146987.837349: {"class":"DEVICES","devices":[{"class":"DEVICE","path":"/dev/ttyUSB0","driver":"SiRF","subtype":"9\u0006GSD4e_4.1.2-P1_RPATCH.05-F-GPS-4R-1510281 11/03/2015 307","activated":"2017-12-01T16:49:47.836Z","flags":1,"native":1,"bps":4800,"parity":"N","stopbits":1,"cycle":1.00}]}
2017-12-01 11:49:47 1512146987.837469: {"class":"WATCH","enable":true,"json":false,"nmea":true,"raw":0,"scaled":false,"timing":false,"split24":false,"pps":false}
2017-12-01 11:49:48 1512146988.345713: $GPZDA,164949.00,01,12,2017,00,00*67
2017-12-01 11:49:48 1512146988.345881: $GPGGA,164949,3946.9591,N,08404.9849,W,2,11,0.80,293.66,M,-33.324,M,,*74
2017-12-01 11:49:48 1512146988.345968: $GPRMC,164949,A,3946.9591,N,08404.9849,W,0.0000,0.000,011217,,*34
2017-12-01 11:49:48 1512146988.346032: $GPGSA,A,3,13,15,18,20,21,24,27,29,10,5,138,,2.0,0.8,1.5*34
2017-12-01 11:49:49 1512146989.353884: $GPZDA,164950.00,01,12,2017,00,00*6F
2017-12-01 11:49:49 1512146989.354089: $GPGGA,164950,3946.9587,N,08404.9849,W,2,11,0.80,293.02,M,-33.324,M,,*79
2017-12-01 11:49:49 1512146989.354157: $GPRMC,164950,A,3946.9587,N,08404.9849,W,0.0000,0.000,011217,,*3B
2017-12-01 11:49:49 1512146989.354219: $GPGSA,A,3,13,15,18,20,21,24,27,29,10,5,138,,2.0,0.8,1.5*34
2017-12-01 11:49:50 1512146990.684155: $GPGSV,3,1,12,13,40,048,46,15,73,064,46,18,45,288,46,20,60,055,43*7B
2017-12-01 11:49:50 1512146990.684337: $GPGSV,3,2,12,21,69,303,46,24,22,147,44,27,10,322,27,29,22,193,44*73
2017-12-01 11:49:50 1512146990.684405: $GPGSV,3,3,12,10,15,274,38,04,10,132,00,05,12,079,28,138,38,213,46*41
2017-12-01 11:49:50 1512146990.797499: $GPZDA,164951.00,01,12,2017,00,00*6E
2017-12-01 11:49:50 1512146990.797676: $GPGGA,164951,3946.9587,N,08404.9849,W,2,11,0.80,293.02,M,-33.324,M,,*78
2017-12-01 11:49:50 1512146990.797745: $GPRMC,164951,A,3946.9587,N,08404.9849,W,0.0000,0.000,011217,,*3A
2017-12-01 11:49:50 1512146990.797806: $GPGSA,A,3,13,15,18,20,21,24,27,29,10,5,138,,2.0,0.8,1.5*34
2017-12-01 11:49:51 1512146991.353658: $GPZDA,164952.00,01,12,2017,00,00*6D
2017-12-01 11:49:51 1512146991.353830: $GPGGA,164952,3946.9587,N,08404.9849,W,2,11,0.80,293.02,M,-33.324,M,,*7B
2017-12-01 11:49:51 1512146991.353896: $GPRMC,164952,A,3946.9587,N,08404.9849,W,0.0000,0.000,011217,,*39
2017-12-01 11:49:51 1512146991.353982: $GPGSA,A,3,13,15,18,20,21,24,27,29,10,5,138,,2.0,0.8,1.5*34
2017-12-01 11:49:52 1512146992.346804: $GPZDA,164953.00,01,12,2017,00,00*6C
2017-12-01 11:49:52 1512146992.347006: $GPGGA,164953,3946.9587,N,08404.9849,W,2,11,0.80,293.02,M,-33.324,M,,*7A
2017-12-01 11:49:52 1512146992.347103: $GPRMC,164953,A,3946.9587,N,08404.9849,W,0.0000,0.000,011217,,*38
2017-12-01 11:49:52 1512146992.347165: $GPGSA,A,3,13,15,18,20,21,24,27,29,10,5,138,,2.0,0.8,1.5*34
2017-12-01 11:49:53 1512146993.683764: $GPGSV,3,1,12,13,40,048,46,15,73,064,46,18,45,288,46,20,60,055,43*7B
2017-12-01 11:49:53 1512146993.683958: $GPGSV,3,2,12,21,69,303,46,24,22,147,44,27,10,322,28,29,22,193,44*7C
2017-12-01 11:49:53 1512146993.684025: $GPGSV,3,3,12,10,15,274,39,04,10,132,00,05,12,079,28,138,38,213,46*40
2017-12-01 11:49:53 1512146993.797157: $GPZDA,164954.00,01,12,2017,00,00*6B
2017-12-01 11:49:53 1512146993.797334: $GPGGA,164954,3946.9587,N,08404.9849,W,2,11,0.80,293.02,M,-33.324,M,,*7D
2017-12-01 11:49:53 1512146993.797401: $GPRMC,164954,A,3946.9587,N,08404.9849,W,0.0000,0.000,011217,,*3F
2017-12-01 11:49:53 1512146993.797463: $GPGSA,A,3,13,15,18,20,21,24,27,29,10,5,138,,2.0,0.8,1.5*34
2017-12-01 11:49:54 1512146994.422549: $GPZDA,164955.00,01,12,2017,00,00*6A
2017-12-01 11:49:54 1512146994.422720: $GPGGA,164955,3946.9587,N,08404.9849,W,2,11,0.80,293.02,M,-33.324,M,,*7C
2017-12-01 11:49:54 1512146994.422788: $GPRMC,164955,A,3946.9587,N,08404.9849,W,0.0000,0.000,011217,,*3E
2017-12-01 11:49:54 1512146994.422849: $GPGSA,A,3,13,15,18,20,21,24,27,29,10,5,138,,2.0,0.8,1.5*34
2017-12-01 11:49:55 1512146995.350922: $GPZDA,164956.00,01,12,2017,00,00*69
2017-12-01 11:49:55 1512146995.351171: $GPGGA,164956,3946.9587,N,08404.9849,W,2,11,0.80,293.02,M,-33.324,M,,*7F
2017-12-01 11:49:55 1512146995.351244: $GPRMC,164956,A,3946.9587,N,08404.9849,W,0.0000,0.000,011217,,*3D
2017-12-01 11:49:55 1512146995.351306: $GPGSA,A,3,13,15,18,20,21,24,27,29,10,5,138,,2.0,0.8,1.5*34
2017-12-01 11:49:56 1512146996.684128: $GPGSV,3,1,12,13,40,048,46,15,73,064,46,18,45,288,46,20,60,055,44*7C
2017-12-01 11:49:56 1512146996.684316: $GPGSV,3,2,12,21,69,303,46,24,22,147,44,27,10,322,37,29,22,193,44*72
2017-12-01 11:49:56 1512146996.684384: $GPGSV,3,3,12,10,15,274,40,04,10,132,00,05,12,079,29,138,38,213,46*4F
2017-12-01 11:49:56 1512146996.797501: $GPZDA,164957.00,01,12,2017,00,00*68
2017-12-01 11:49:56 1512146996.797678: $GPGGA,164957,3946.9587,N,08404.9849,W,2,11,0.80,293.02,M,-33.324,M,,*7E
2017-12-01 11:49:56 1512146996.797745: $GPRMC,164957,A,3946.9587,N,08404.9849,W,0.0000,0.000,011217,,*3C
2017-12-01 11:49:56 1512146996.797806: $GPGSA,A,3,13,15,18,20,21,24,27,29,10,5,138,,2.0,0.8,1.5*34
2017-12-01 11:49:57 1512146997.352161: $GPZDA,164958.00,01,12,2017,00,00*67
2017-12-01 11:49:57 1512146997.352335: $GPGGA,164958,3946.9587,N,08404.9849,W,2,11,0.80,293.02,M,-33.324,M,,*71
2017-12-01 11:49:57 1512146997.352401: $GPRMC,164958,A,3946.9587,N,08404.9849,W,0.0000,0.000,011217,,*33
2017-12-01 11:49:57 1512146997.352462: $GPGSA,A,3,13,15,18,20,21,24,27,29,10,5,138,,2.0,0.8,1.5*34
