2017-12-29 14:45:36 1514576736.791315: {"class":"VERSION","release":"3.16","rev":"3.16-4","proto_major":3,"proto_minor":11}
2017-12-29 14:45:36 1514576736.791698: {"class":"DEVICES","devices":[{"class":"DEVICE","path":"/dev/ttyUSB0","driver":"SiRF","subtype":"9\u0006GSD4e_4.1.2-P1_RPATCH.05-F-GPS-4R-1510281 11/03/2015 307","activated":"2017-12-29T19:45:36.782Z","flags":1,"native":1,"bps":4800,"parity":"N","stopbits":1,"cycle":1.00}]}
2017-12-29 14:45:36 1514576736.791816: {"class":"WATCH","enable":true,"json":false,"nmea":true,"raw":0,"scaled":false,"timing":false,"split24":false,"pps":false}
2017-12-29 14:45:37 1514576737.833538: $GPZDA,194538.53,29,12,2017,00,00*6E
2017-12-29 14:45:37 1514576737.833720: $GPGGA,194538,3946.9571,N,08404.9763,W,1,12,0.80,326.24,M,-33.324,M,,*71
2017-12-29 14:45:37 1514576737.833787: $GPRMC,194538,A,3946.9571,N,08404.9763,W,0.4207,219.347,291217,,*39
2017-12-29 14:45:37 1514576737.833848: $GPGSA,A,3,1,26,10,11,12,14,18,22,25,31,32,138,1.7,0.8,1.3*3B
2017-12-29 14:45:37 1514576737.833908: $GPGBS,194538,10.91,M,10.38,M,30.89,M*0D
2017-12-29 14:45:38 1514576738.777541: $GPZDA,194539.21,29,12,2017,00,00*6A
2017-12-29 14:45:38 1514576738.777714: $GPGGA,194539,3946.9572,N,08404.9771,W,1,12,0.80,327.57,M,-33.324,M,,*75
2017-12-29 14:45:38 1514576738.777783: $GPRMC,194539,A,3946.9572,N,08404.9771,W,0.1567,189.200,291217,,*34
2017-12-29 14:45:38 1514576738.777843: $GPGSA,A,3,1,26,10,11,12,14,18,22,25,31,32,138,1.7,0.8,1.3*3B
2017-12-29 14:45:38 1514576738.777902: $GPGBS,194539,10.91,M,10.38,M,30.89,M*0C
2017-12-29 14:45:40 1514576740.260097: $GPGSV,3,1,12,01,22,295,40,26,07,181,05,10,43,150,52,11,07,279,40*77
2017-12-29 14:45:40 1514576740.260259: $GPGSV,3,2,12,12,20,046,46,14,68,336,43,18,13,145,42,22,23,312,40*78
2017-12-29 14:45:40 1514576740.260325: $GPGSV,3,3,12,25,41,085,52,31,62,229,48,32,66,042,50,138,38,213,00*42
2017-12-29 14:45:40 1514576740.373835: $GPZDA,194540.00,29,12,2017,00,00*67
2017-12-29 14:45:40 1514576740.373955: $GPGGA,194540,3946.9572,N,08404.9771,W,1,10,0.80,327.57,M,-33.324,M,,*79
2017-12-29 14:45:40 1514576740.374019: $GPRMC,194540,A,3946.9572,N,08404.9771,W,0.0000,0.000,291217,,*3D
2017-12-29 14:45:40 1514576740.374079: $GPGSA,A,3,1,10,11,12,14,18,22,25,31,32,,,1.7,0.8,1.3*05
2017-12-29 14:45:40 1514576740.799605: $GPZDA,194541.00,29,12,2017,00,00*66
2017-12-29 14:45:40 1514576740.799773: $GPGGA,194541,3946.9568,N,08404.9778,W,1,10,0.80,326.85,M,-33.324,M,,*74
2017-12-29 14:45:40 1514576740.799839: $GPRMC,194541,A,3946.9568,N,08404.9778,W,0.0000,0.000,291217,,*3E
2017-12-29 14:45:40 1514576740.799900: $GPGSA,A,3,1,10,11,12,14,18,22,25,31,32,,,1.7,0.8,1.3*05
2017-12-29 14:45:40 1514576740.799957: $GPGBS,194541,10.91,M,10.38,M,30.89,M*03
2017-12-29 14:45:41 1514576741.325538: $GPZDA,194542.00,29,12,2017,00,00*65
2017-12-29 14:45:41 1514576741.325699: $GPGGA,194542,3946.9568,N,08404.9778,W,1,10,0.80,326.85,M,-33.324,M,,*77
2017-12-29 14:45:41 1514576741.325766: $GPRMC,194542,A,3946.9568,N,08404.9778,W,0.0000,0.000,291217,,*3D
2017-12-29 14:45:41 1514576741.325827: $GPGSA,A,3,1,10,11,12,14,18,22,25,31,32,,,1.7,0.8,1.3*05
2017-12-29 14:45:41 1514576741.325884: $GPGBS,194542,10.91,M,10.38,M,30.89,M*00
2017-12-29 14:45:42 1514576742.659087: $GPGSV,3,1,12,01,22,295,40,26,07,181,25,10,43,150,51,11,07,279,40*76
2017-12-29 14:45:42 1514576742.659253: $GPGSV,3,2,12,12,20,046,46,14,68,336,42,18,13,145,41,22,23,312,40*7A
2017-12-29 14:45:42 1514576742.659318: $GPGSV,3,3,12,25,41,085,51,31,62,229,47,32,66,042,50,138,38,213,43*49
2017-12-29 14:45:42 1514576742.772807: $GPZDA,194543.00,29,12,2017,00,00*64
2017-12-29 14:45:42 1514576742.772923: $GPGGA,194543,3946.9568,N,08404.9785,W,1,12,0.80,326.77,M,-33.324,M,,*7B
2017-12-29 14:45:42 1514576742.772987: $GPRMC,194543,A,3946.9568,N,08404.9785,W,0.0000,0.000,291217,,*3E
2017-12-29 14:45:42 1514576742.773047: $GPGSA,A,3,1,26,10,11,12,14,18,22,25,31,32,138,1.7,0.8,1.3*3B
2017-12-29 14:45:43 1514576743.324914: $GPZDA,194544.00,29,12,2017,00,00*63
2017-12-29 14:45:43 1514576743.325072: $GPGGA,194544,3946.9564,N,08404.9785,W,1,12,0.80,326.13,M,-33.324,M,,*72
2017-12-29 14:45:43 1514576743.325188: $GPRMC,194544,A,3946.9564,N,08404.9785,W,0.0000,0.000,291217,,*35
2017-12-29 14:45:43 1514576743.325250: $GPGSA,A,3,1,26,10,11,12,14,18,22,25,31,32,138,1.7,0.8,1.3*3B
2017-12-29 14:45:44 1514576744.324488: $GPZDA,194545.00,29,12,2017,00,00*62
2017-12-29 14:45:44 1514576744.324653: $GPGGA,194545,3946.9565,N,08404.9792,W,1,12,0.80,326.05,M,-33.324,M,,*73
2017-12-29 14:45:44 1514576744.324720: $GPRMC,194545,A,3946.9565,N,08404.9792,W,0.0000,0.000,291217,,*33
2017-12-29 14:45:44 1514576744.324780: $GPGSA,A,3,1,26,10,11,12,14,18,22,25,31,32,138,1.7,0.8,1.3*3B
2017-12-29 14:45:44 1514576744.324838: $GPGBS,194545,10.91,M,10.38,M,30.89,M*07
2017-12-29 14:45:45 1514576745.661090: $GPGSV,3,1,12,01,22,295,39,26,07,181,24,10,43,150,50,11,07,279,40*78
2017-12-29 14:45:45 1514576745.661273: $GPGSV,3,2,12,12,20,046,46,14,68,336,42,18,13,145,41,22,23,312,39*74
2017-12-29 14:45:45 1514576745.661338: $GPGSV,3,3,12,25,41,085,51,31,62,229,46,32,66,042,50,138,38,213,42*49
2017-12-29 14:45:45 1514576745.774749: $GPZDA,194546.00,29,12,2017,00,00*61
2017-12-29 14:45:45 1514576745.774878: $GPGGA,194546,3946.9568,N,08404.9791,W,1,12,0.80,325.28,M,-33.324,M,,*72
2017-12-29 14:45:45 1514576745.774943: $GPRMC,194546,A,3946.9568,N,08404.9791,W,0.0000,0.000,291217,,*3E
2017-12-29 14:45:45 1514576745.775002: $GPGSA,A,3,1,26,10,11,12,14,18,22,25,31,32,138,1.7,0.8,1.3*3B
2017-12-29 14:45:46 1514576746.325642: $GPZDA,194547.00,29,12,2017,00,00*60
2017-12-29 14:45:46 1514576746.325801: $GPGGA,194547,3946.9561,N,08404.9825,W,2,12,0.80,322.20,M,-33.324,M,,*76
2017-12-29 14:45:46 1514576746.325866: $GPRMC,194547,A,3946.9561,N,08404.9825,W,0.0000,0.000,291217,,*36
2017-12-29 14:45:46 1514576746.325926: $GPGSA,A,2,1,26,10,11,12,14,18,22,25,31,32,138,1.7,0.8,1.3*3A
