2017-11-16 14:37:03 1510861023.216194: {"class":"VERSION","release":"3.17","rev":"3.17","proto_major":3,"proto_minor":12}
2017-11-16 14:37:03 1510861023.216659: {"class":"DEVICES","devices":[{"class":"DEVICE","path":"/dev/ttyUSB0","driver":"SiRF","subtype":"9\u0006GSD4e_4.1.2-P1_RPATCH.05-F-GPS-4R-1510281 11/03/2015 307","activated":"2017-11-16T19:37:02.700Z","flags":1,"native":1,"bps":4800,"parity":"N","stopbits":1,"cycle":1.00}]}
2017-11-16 14:37:03 1510861023.216772: {"class":"WATCH","enable":true,"json":false,"nmea":true,"raw":0,"scaled":false,"timing":false,"split24":false,"pps":false}
2017-11-16 14:37:03 1510861023.860226: $GPGSV,3,1,11,08,08,312,33,10,50,309,49,15,28,055,51,18,76,009,45*72
2017-11-16 14:37:03 1510861023.860451: $GPGSV,3,2,11,21,52,184,46,20,25,103,47,24,53,091,49,27,16,279,44*7C
2017-11-16 14:37:03 1510861023.860515: $GPGSV,3,3,11,32,29,246,47,14,13,238,41,138,38,213,44*7A
2017-11-16 14:37:03 1510861023.973797: $GPZDA,193702.00,16,11,2017,00,00*6B
2017-11-16 14:37:03 1510861023.973937: $GPGGA,193702,3946.9564,N,08404.9849,W,2,11,0.80,302.66,M,-33.324,M,,*7E
2017-11-16 14:37:03 1510861023.973995: $GPRMC,193702,A,3946.9564,N,08404.9849,W,0.0000,0.000,161117,,*32
2017-11-16 14:37:03 1510861023.974049: $GPGSA,A,3,8,10,15,18,21,20,24,27,32,14,138,,1.6,0.8,1.3*37
2017-11-16 14:37:04 1510861024.599292: $GPZDA,193703.00,16,11,2017,00,00*6A
2017-11-16 14:37:04 1510861024.599463: $GPGGA,193703,3946.9564,N,08404.9849,W,2,11,0.80,302.66,M,-33.324,M,,*7F
2017-11-16 14:37:04 1510861024.599545: $GPRMC,193703,A,3946.9564,N,08404.9849,W,0.0000,0.000,161117,,*33
2017-11-16 14:37:04 1510861024.599604: $GPGSA,A,3,8,10,15,18,21,20,24,27,32,14,138,,1.6,0.8,1.3*37
2017-11-16 14:37:05 1510861025.559817: $GPZDA,193704.00,16,11,2017,00,00*6D
2017-11-16 14:37:05 1510861025.559989: $GPGGA,193704,3946.9564,N,08404.9849,W,2,11,0.80,302.66,M,-33.324,M,,*78
2017-11-16 14:37:05 1510861025.560051: $GPRMC,193704,A,3946.9564,N,08404.9849,W,0.0000,0.000,161117,,*34
2017-11-16 14:37:05 1510861025.560107: $GPGSA,A,3,8,10,15,18,21,20,24,27,32,14,138,,1.6,0.8,1.3*37
2017-11-16 14:37:06 1510861026.863250: $GPGSV,3,1,11,08,08,312,34,10,50,309,49,15,28,055,51,18,76,009,45*75
2017-11-16 14:37:06 1510861026.863394: $GPGSV,3,2,11,21,52,184,46,20,25,103,46,24,53,091,50,27,16,279,44*75
2017-11-16 14:37:06 1510861026.863454: $GPGSV,3,3,11,32,29,246,48,14,13,238,41,138,38,213,44*75
2017-11-16 14:37:06 1510861026.977275: $GPZDA,193705.00,16,11,2017,00,00*6C
2017-11-16 14:37:06 1510861026.977439: $GPGGA,193705,3946.9564,N,08404.9849,W,2,11,0.80,302.66,M,-33.324,M,,*79
2017-11-16 14:37:06 1510861026.977501: $GPRMC,193705,A,3946.9564,N,08404.9849,W,0.0000,0.000,161117,,*35
2017-11-16 14:37:06 1510861026.977557: $GPGSA,A,3,8,10,15,18,21,20,24,27,32,14,138,,1.6,0.8,1.3*37
2017-11-16 14:37:07 1510861027.525191: $GPZDA,193706.00,16,11,2017,00,00*6F
2017-11-16 14:37:07 1510861027.525353: $GPGGA,193706,3946.9564,N,08404.9849,W,2,11,0.80,302.66,M,-33.324,M,,*7A
2017-11-16 14:37:07 1510861027.525414: $GPRMC,193706,A,3946.9564,N,08404.9849,W,0.0000,0.000,161117,,*36
2017-11-16 14:37:07 1510861027.525469: $GPGSA,A,3,8,10,15,18,21,20,24,27,32,14,138,,1.6,0.8,1.3*37
2017-11-16 14:37:08 1510861028.553357: $GPZDA,193707.00,16,11,2017,00,00*6E
2017-11-16 14:37:08 1510861028.553517: $GPGGA,193707,3946.9564,N,08404.9849,W,2,11,0.80,302.66,M,-33.324,M,,*7B
2017-11-16 14:37:08 1510861028.553579: $GPRMC,193707,A,3946.9564,N,08404.9849,W,0.0000,0.000,161117,,*37
2017-11-16 14:37:08 1510861028.553635: $GPGSA,A,3,8,10,15,18,21,20,24,27,32,14,138,,1.6,0.8,1.3*37
2017-11-16 14:37:09 1510861029.861211: $GPGSV,3,1,11,08,08,312,35,10,50,309,49,15,28,055,51,18,76,009,45*74
2017-11-16 14:37:09 1510861029.861423: $GPGSV,3,2,11,21,52,184,46,20,25,103,46,24,53,091,50,27,16,279,44*75
2017-11-16 14:37:09 1510861029.861504: $GPGSV,3,3,11,32,29,246,48,14,13,238,41,138,38,213,44*75
2017-11-16 14:37:09 1510861029.973584: $GPZDA,193708.00,16,11,2017,00,00*61
2017-11-16 14:37:09 1510861029.973721: $GPGGA,193708,3946.9564,N,08404.9849,W,2,11,0.80,302.66,M,-33.324,M,,*74
2017-11-16 14:37:09 1510861029.973826: $GPRMC,193708,A,3946.9564,N,08404.9849,W,0.0000,0.000,161117,,*38
2017-11-16 14:37:09 1510861029.973883: $GPGSA,A,3,8,10,15,18,21,20,24,27,32,14,138,,1.6,0.8,1.3*37
2017-11-16 14:37:10 1510861030.559126: $GPZDA,193709.00,16,11,2017,00,00*60
2017-11-16 14:37:10 1510861030.559288: $GPGGA,193709,3946.9564,N,08404.9849,W,2,11,0.80,302.66,M,-33.324,M,,*75
2017-11-16 14:37:10 1510861030.559349: $GPRMC,193709,A,3946.9564,N,08404.9849,W,0.0000,0.000,161117,,*39
2017-11-16 14:37:10 1510861030.559405: $GPGSA,A,3,8,10,15,18,21,20,24,27,32,14,138,,1.6,0.8,1.3*37
2017-11-16 14:37:11 1510861031.558789: $GPZDA,193710.00,16,11,2017,00,00*68
2017-11-16 14:37:11 1510861031.558945: $GPGGA,193710,3946.9564,N,08404.9849,W,2,11,0.80,302.66,M,-33.324,M,,*7D
2017-11-16 14:37:11 1510861031.559008: $GPRMC,193710,A,3946.9564,N,08404.9849,W,0.0000,0.000,161117,,*31
2017-11-16 14:37:11 1510861031.559064: $GPGSA,A,3,8,10,15,18,21,20,24,27,32,14,138,,1.6,0.8,1.3*37
2017-11-16 14:37:12 1510861032.862133: $GPGSV,3,1,11,08,08,312,36,10,50,309,48,15,28,055,51,18,76,009,45*76
2017-11-16 14:37:12 1510861032.862321: $GPGSV,3,2,11,21,52,184,46,20,25,103,46,24,53,091,50,27,16,279,44*75
2017-11-16 14:37:12 1510861032.862385: $GPGSV,3,3,11,32,29,246,48,14,13,238,41,138,38,213,43*72
2017-11-16 14:37:12 1510861032.975476: $GPZDA,193711.00,16,11,2017,00,00*69
2017-11-16 14:37:12 1510861032.975645: $GPGGA,193711,3946.9564,N,08404.9849,W,2,11,0.80,302.66,M,-33.324,M,,*7C
2017-11-16 14:37:12 1510861032.975710: $GPRMC,193711,A,3946.9564,N,08404.9849,W,0.0000,0.000,161117,,*30
2017-11-16 14:37:12 1510861032.975770: $GPGSA,A,3,8,10,15,18,21,20,24,27,32,14,138,,1.6,0.8,1.3*37
2017-11-16 14:37:13 1510861033.560521: $GPZDA,193712.00,16,11,2017,00,00*6A
2017-11-16 14:37:13 1510861033.560686: $GPGGA,193712,3946.9564,N,08404.9849,W,2,11,0.80,302.66,M,-33.324,M,,*7F
2017-11-16 14:37:13 1510861033.560751: $GPRMC,193712,A,3946.9564,N,08404.9849,W,0.0000,0.000,161117,,*33
2017-11-16 14:37:13 1510861033.560809: $GPGSA,A,3,8,10,15,18,21,20,24,27,32,14,138,,1.6,0.8,1.3*37
2017-11-16 14:37:14 1510861034.519659: $GPZDA,193713.00,16,11,2017,00,00*6B
2017-11-16 14:37:14 1510861034.519822: $GPGGA,193713,3946.9564,N,08404.9849,W,2,11,0.80,302.66,M,-33.324,M,,*7E
2017-11-16 14:37:14 1510861034.519887: $GPRMC,193713,A,3946.9564,N,08404.9849,W,0.0000,0.000,161117,,*32
2017-11-16 14:37:14 1510861034.519945: $GPGSA,A,3,8,10,15,18,21,20,24,27,32,14,138,,1.6,0.8,1.3*37
2017-11-16 14:37:15 1510861035.896429: $GPGSV,3,1,11,08,08,312,37,10,50,309,48,15,28,055,51,18,76,009,45*77
2017-11-16 14:37:15 1510861035.896610: $GPGSV,3,2,11,21,52,184,47,20,25,103,46,24,53,091,49,27,16,279,44*7C
2017-11-16 14:37:15 1510861035.896673: $GPGSV,3,3,11,32,29,246,48,14,13,238,41,138,38,213,42*73
2017-11-16 14:37:16 1510861036.008495: $GPZDA,193714.00,16,11,2017,00,00*6C
2017-11-16 14:37:16 1510861036.008665: $GPGGA,193714,3946.9564,N,08404.9849,W,2,11,0.80,302.66,M,-33.324,M,,*79
2017-11-16 14:37:16 1510861036.008729: $GPRMC,193714,A,3946.9564,N,08404.9849,W,0.0000,0.000,161117,,*35
2017-11-16 14:37:16 1510861036.008788: $GPGSA,A,3,8,10,15,18,21,20,24,27,32,14,138,,1.6,0.8,1.3*37
2017-11-16 14:37:16 1510861036.559348: $GPZDA,193715.00,16,11,2017,00,00*6D
2017-11-16 14:37:16 1510861036.559529: $GPGGA,193715,3946.9564,N,08404.9849,W,2,11,0.80,302.66,M,-33.324,M,,*78
2017-11-16 14:37:16 1510861036.559594: $GPRMC,193715,A,3946.9564,N,08404.9849,W,0.0000,0.000,161117,,*34
2017-11-16 14:37:16 1510861036.559652: $GPGSA,A,3,8,10,15,18,21,20,24,27,32,14,138,,1.6,0.8,1.3*37
2017-11-16 14:37:17 1510861037.525246: $GPZDA,193716.00,16,11,2017,00,00*6E
2017-11-16 14:37:17 1510861037.525431: $GPGGA,193716,3946.9564,N,08404.9849,W,2,11,0.80,302.66,M,-33.324,M,,*7B
2017-11-16 14:37:17 1510861037.525512: $GPRMC,193716,A,3946.9564,N,08404.9849,W,0.0000,0.000,161117,,*37
2017-11-16 14:37:17 1510861037.525573: $GPGSA,A,3,8,10,15,18,21,20,24,27,32,14,138,,1.6,0.8,1.3*37
2017-11-16 14:37:18 1510861038.856207: $GPGSV,3,1,11,08,08,312,38,10,50,309,49,15,28,055,51,18,76,009,45*79
2017-11-16 14:37:18 1510861038.856417: $GPGSV,3,2,11,21,52,184,47,20,25,103,46,24,53,091,48,27,16,279,43*7A
2017-11-16 14:37:18 1510861038.856479: $GPGSV,3,3,11,32,29,246,48,14,13,238,41,138,38,213,44*75
2017-11-16 14:37:18 1510861038.969544: $GPZDA,193717.00,16,11,2017,00,00*6F
2017-11-16 14:37:18 1510861038.969711: $GPGGA,193717,3946.9564,N,08404.9849,W,2,11,0.80,302.66,M,-33.324,M,,*7A
2017-11-16 14:37:18 1510861038.969774: $GPRMC,193717,A,3946.9564,N,08404.9849,W,0.0000,0.000,161117,,*36
2017-11-16 14:37:18 1510861038.969830: $GPGSA,A,3,8,10,15,18,21,20,24,27,32,14,138,,1.6,0.8,1.3*37
2017-11-16 14:37:19 1510861039.594982: $GPZDA,193718.00,16,11,2017,00,00*60
2017-11-16 14:37:19 1510861039.595148: $GPGGA,193718,3946.9564,N,08404.9849,W,2,11,0.80,302.66,M,-33.324,M,,*75
2017-11-16 14:37:19 1510861039.595209: $GPRMC,193718,A,3946.9564,N,08404.9849,W,0.0000,0.000,161117,,*39
2017-11-16 14:37:19 1510861039.595264: $GPGSA,A,3,8,10,15,18,21,20,24,27,32,14,138,,1.6,0.8,1.3*37
2017-11-16 14:37:20 1510861040.526339: $GPZDA,193719.00,16,11,2017,00,00*61
2017-11-16 14:37:20 1510861040.526517: $GPGGA,193719,3946.9564,N,08404.9849,W,2,11,0.80,302.66,M,-33.324,M,,*74
2017-11-16 14:37:20 1510861040.526595: $GPRMC,193719,A,3946.9564,N,08404.9849,W,0.0000,0.000,161117,,*38
2017-11-16 14:37:20 1510861040.526652: $GPGSA,A,3,8,10,15,18,21,20,24,27,32,14,138,,1.6,0.8,1.3*37
2017-11-16 14:37:21 1510861041.861825: $GPGSV,3,1,11,08,08,312,39,10,50,309,49,15,28,055,50,18,76,009,45*79
2017-11-16 14:37:21 1510861041.862005: $GPGSV,3,2,11,21,52,184,47,20,25,103,46,24,53,091,49,27,16,279,43*7B
2017-11-16 14:37:21 1510861041.862065: $GPGSV,3,3,11,32,29,246,48,14,13,238,42,138,38,213,44*76
2017-11-16 14:37:21 1510861041.973886: $GPZDA,193720.00,16,11,2017,00,00*6B
2017-11-16 14:37:21 1510861041.974053: $GPGGA,193720,3946.9564,N,08404.9849,W,2,11,0.80,302.66,M,-33.324,M,,*7E
2017-11-16 14:37:21 1510861041.974114: $GPRMC,193720,A,3946.9564,N,08404.9849,W,0.0000,0.000,161117,,*32
2017-11-16 14:37:21 1510861041.974169: $GPGSA,A,3,8,10,15,18,21,20,24,27,32,14,138,,1.6,0.8,1.3*37
2017-11-16 14:37:22 1510861042.525999: $GPZDA,193721.00,16,11,2017,00,00*6A
2017-11-16 14:37:22 1510861042.526183: $GPGGA,193721,3946.9564,N,08404.9849,W,2,11,0.80,302.66,M,-33.324,M,,*7F
2017-11-16 14:37:22 1510861042.526246: $GPRMC,193721,A,3946.9564,N,08404.9849,W,0.0000,0.000,161117,,*33
2017-11-16 14:37:22 1510861042.526301: $GPGSA,A,3,8,10,15,18,21,20,24,27,32,14,138,,1.6,0.8,1.3*37
2017-11-16 14:37:23 1510861043.526090: $GPZDA,193722.00,16,11,2017,00,00*69
2017-11-16 14:37:23 1510861043.526241: $GPGGA,193722,3946.9564,N,08404.9849,W,2,11,0.80,302.66,M,-33.324,M,,*7C
2017-11-16 14:37:23 1510861043.526301: $GPRMC,193722,A,3946.9564,N,08404.9849,W,0.0000,0.000,161117,,*30
2017-11-16 14:37:23 1510861043.526357: $GPGSA,A,3,8,10,15,18,21,20,24,27,32,14,138,,1.6,0.8,1.3*37
2017-11-16 14:37:24 1510861044.857261: $GPGSV,3,1,11,08,08,312,40,10,50,309,49,15,28,055,50,18,76,009,45*77
2017-11-16 14:37:24 1510861044.857431: $GPGSV,3,2,11,21,52,184,47,20,25,103,46,24,53,091,48,27,16,279,42*7B
2017-11-16 14:37:24 1510861044.857492: $GPGSV,3,3,11,32,29,246,48,14,13,238,42,138,38,213,44*76
2017-11-16 14:37:24 1510861044.970669: $GPZDA,193723.00,16,11,2017,00,00*68
2017-11-16 14:37:24 1510861044.970827: $GPGGA,193723,3946.9564,N,08404.9849,W,2,11,0.80,302.66,M,-33.324,M,,*7D
2017-11-16 14:37:24 1510861044.970888: $GPRMC,193723,A,3946.9564,N,08404.9849,W,0.0000,0.000,161117,,*31
2017-11-16 14:37:24 1510861044.970944: $GPGSA,A,3,8,10,15,18,21,20,24,27,32,14,138,,1.6,0.8,1.3*37
2017-11-16 14:37:25 1510861045.525496: $GPZDA,193724.00,16,11,2017,00,00*6F
2017-11-16 14:37:25 1510861045.525659: $GPGGA,193724,3946.9564,N,08404.9849,W,2,11,0.80,302.66,M,-33.324,M,,*7A
2017-11-16 14:37:25 1510861045.525719: $GPRMC,193724,A,3946.9564,N,08404.9849,W,0.0000,0.000,161117,,*36
2017-11-16 14:37:25 1510861045.525775: $GPGSA,A,3,8,10,15,18,21,20,24,27,32,14,138,,1.6,0.8,1.3*37
2017-11-16 14:37:26 1510861046.526463: $GPZDA,193725.00,16,11,2017,00,00*6E
2017-11-16 14:37:26 1510861046.526681: $GPGGA,193725,3946.9564,N,08404.9849,W,2,11,0.80,302.66,M,-33.324,M,,*7B
2017-11-16 14:37:26 1510861046.526745: $GPRMC,193725,A,3946.9564,N,08404.9849,W,0.0000,0.000,161117,,*37
2017-11-16 14:37:26 1510861046.526801: $GPGSA,A,3,8,10,15,18,21,20,24,27,32,14,138,,1.6,0.8,1.3*37
2017-11-16 14:37:27 1510861047.861984: $GPGSV,3,1,11,08,08,312,40,10,50,309,49,15,28,055,50,18,76,009,45*77
2017-11-16 14:37:27 1510861047.862155: $GPGSV,3,2,11,21,52,184,47,20,25,103,46,24,53,091,48,27,16,279,43*7A
2017-11-16 14:37:27 1510861047.862214: $GPGSV,3,3,11,32,29,246,48,14,13,238,42,138,38,213,44*76
2017-11-16 14:37:27 1510861047.975361: $GPZDA,193726.00,16,11,2017,00,00*6D
2017-11-16 14:37:27 1510861047.975523: $GPGGA,193726,3946.9564,N,08404.9849,W,2,11,0.80,302.66,M,-33.324,M,,*78
2017-11-16 14:37:27 1510861047.975585: $GPRMC,193726,A,3946.9564,N,08404.9849,W,0.0000,0.000,161117,,*34
2017-11-16 14:37:27 1510861047.975641: $GPGSA,A,3,8,10,15,18,21,20,24,27,32,14,138,,1.6,0.8,1.3*37
2017-11-16 14:37:28 1510861048.526484: $GPZDA,193727.00,16,11,2017,00,00*6C
2017-11-16 14:37:28 1510861048.526644: $GPGGA,193727,3946.9564,N,08404.9849,W,2,11,0.80,302.66,M,-33.324,M,,*79
2017-11-16 14:37:28 1510861048.526706: $GPRMC,193727,A,3946.9564,N,08404.9849,W,0.0000,0.000,161117,,*35
2017-11-16 14:37:28 1510861048.526762: $GPGSA,A,3,8,10,15,18,21,20,24,27,32,14,138,,1.6,0.8,1.3*37
2017-11-16 14:37:29 1510861049.526935: $GPZDA,193728.00,16,11,2017,00,00*63
2017-11-16 14:37:29 1510861049.527094: $GPGGA,193728,3946.9564,N,08404.9849,W,2,11,0.80,302.66,M,-33.324,M,,*76
2017-11-16 14:37:29 1510861049.527155: $GPRMC,193728,A,3946.9564,N,08404.9849,W,0.0000,0.000,161117,,*3A
2017-11-16 14:37:29 1510861049.527211: $GPGSA,A,3,8,10,15,18,21,20,24,27,32,14,138,,1.6,0.8,1.3*37
2017-11-16 14:37:30 1510861050.862408: $GPGSV,3,1,11,08,08,312,39,10,50,309,49,15,28,055,50,18,76,009,46*7A
2017-11-16 14:37:30 1510861050.862576: $GPGSV,3,2,11,21,52,184,47,20,25,103,46,24,53,091,49,27,16,279,42*7A
2017-11-16 14:37:30 1510861050.862636: $GPGSV,3,3,11,32,29,246,48,14,13,238,42,138,38,213,45*77
2017-11-16 14:37:30 1510861050.975731: $GPZDA,193729.00,16,11,2017,00,00*62
2017-11-16 14:37:30 1510861050.975896: $GPGGA,193729,3946.9564,N,08404.9849,W,2,11,0.80,302.66,M,-33.324,M,,*77
2017-11-16 14:37:30 1510861050.975957: $GPRMC,193729,A,3946.9564,N,08404.9849,W,0.0000,0.000,161117,,*3B
2017-11-16 14:37:30 1510861050.976013: $GPGSA,A,3,8,10,15,18,21,20,24,27,32,14,138,,1.6,0.8,1.3*37
2017-11-16 14:37:31 1510861051.559470: $GPZDA,193730.00,16,11,2017,00,00*6A
2017-11-16 14:37:31 1510861051.559640: $GPGGA,193730,3946.9564,N,08404.9849,W,2,11,0.80,302.66,M,-33.324,M,,*7F
2017-11-16 14:37:31 1510861051.559700: $GPRMC,193730,A,3946.9564,N,08404.9849,W,0.0000,0.000,161117,,*33
2017-11-16 14:37:31 1510861051.559757: $GPGSA,A,3,8,10,15,18,21,20,24,27,32,14,138,,1.6,0.8,1.3*37
2017-11-16 14:37:32 1510861052.525065: $GPZDA,193731.00,16,11,2017,00,00*6B
2017-11-16 14:37:32 1510861052.525244: $GPGGA,193731,3946.9564,N,08404.9849,W,2,11,0.80,302.66,M,-33.324,M,,*7E
2017-11-16 14:37:32 1510861052.525308: $GPRMC,193731,A,3946.9564,N,08404.9849,W,0.0000,0.000,161117,,*32
2017-11-16 14:37:32 1510861052.525367: $GPGSA,A,3,8,10,15,18,21,20,24,27,32,14,138,,1.6,0.8,1.3*37
