2017-11-16 17:16:48 1510870608.431220: {"class":"VERSION","release":"3.17","rev":"3.17","proto_major":3,"proto_minor":12}
2017-11-16 17:16:48 1510870608.431708: {"class":"DEVICES","devices":[{"class":"DEVICE","path":"/dev/ttyUSB0","driver":"SiRF","subtype":"9\u0006GSD4e_4.1.2-P1_RPATCH.05-F-GPS-4R-1510281 11/03/2015 307","activated":"2017-11-16T22:16:48.288Z","flags":1,"native":1,"bps":4800,"parity":"N","stopbits":1,"cycle":1.00}]}
2017-11-16 17:16:48 1510870608.431840: {"class":"WATCH","enable":true,"json":false,"nmea":true,"raw":0,"scaled":false,"timing":false,"split24":false,"pps":false}
2017-11-16 17:16:48 1510870608.738019: $GPGSV,3,1,12,01,20,307,39,10,56,144,47,22,13,312,36,12,24,057,49*78
2017-11-16 17:16:48 1510870608.738202: $GPGSV,3,2,12,14,63,313,46,18,25,141,44,24,03,048,00,11,10,288,39*72
2017-11-16 17:16:48 1510870608.738263: $GPGSV,3,3,12,25,37,100,48,31,48,219,49,32,70,006,48,138,38,213,44*40
2017-11-16 17:16:48 1510870608.851248: $GPZDA,221647.00,16,11,2017,00,00*61
2017-11-16 17:16:48 1510870608.851417: $GPGGA,221647,3946.9567,N,08404.9826,W,2,11,0.80,311.41,M,-33.324,M,,*79
2017-11-16 17:16:48 1510870608.851480: $GPRMC,221647,A,3946.9567,N,08404.9826,W,0.0000,0.000,161117,,*32
2017-11-16 17:16:48 1510870608.851536: $GPGSA,A,3,1,10,22,12,14,18,11,25,31,32,138,,1.6,0.8,1.3*3E
2017-11-16 17:16:49 1510870609.420894: $GPZDA,221648.00,16,11,2017,00,00*6E
2017-11-16 17:16:49 1510870609.421064: $GPGGA,221648,3946.9567,N,08404.9826,W,2,11,0.80,311.41,M,-33.324,M,,*76
2017-11-16 17:16:49 1510870609.421126: $GPRMC,221648,A,3946.9567,N,08404.9826,W,0.0000,0.000,161117,,*3D
2017-11-16 17:16:49 1510870609.421181: $GPGSA,A,3,1,10,22,12,14,18,11,25,31,32,138,,1.6,0.8,1.3*3E
2017-11-16 17:16:50 1510870610.415564: $GPZDA,221649.00,16,11,2017,00,00*6F
2017-11-16 17:16:50 1510870610.415746: $GPGGA,221649,3946.9567,N,08404.9826,W,2,11,0.80,311.41,M,-33.324,M,,*77
2017-11-16 17:16:50 1510870610.415809: $GPRMC,221649,A,3946.9567,N,08404.9826,W,0.0000,0.000,161117,,*3C
2017-11-16 17:16:50 1510870610.415865: $GPGSA,A,3,1,10,22,12,14,18,11,25,31,32,138,,1.6,0.8,1.3*3E
2017-11-16 17:16:51 1510870611.757142: $GPGSV,3,1,12,01,20,307,40,10,56,144,48,22,13,312,37,12,24,057,49*78
2017-11-16 17:16:51 1510870611.757308: $GPGSV,3,2,12,14,63,313,47,18,25,141,43,24,03,048,00,11,10,288,39*74
2017-11-16 17:16:51 1510870611.757368: $GPGSV,3,3,12,25,37,100,48,31,48,219,49,32,70,006,48,138,38,213,44*40
2017-11-16 17:16:51 1510870611.870481: $GPZDA,221650.00,16,11,2017,00,00*67
2017-11-16 17:16:51 1510870611.870673: $GPGGA,221650,3946.9567,N,08404.9826,W,2,11,0.80,311.41,M,-33.324,M,,*7F
2017-11-16 17:16:51 1510870611.870751: $GPRMC,221650,A,3946.9567,N,08404.9826,W,0.0000,0.000,161117,,*34
2017-11-16 17:16:51 1510870611.870808: $GPGSA,A,3,1,10,22,12,14,18,11,25,31,32,138,,1.6,0.8,1.3*3E
2017-11-16 17:16:52 1510870612.401927: $GPZDA,221651.00,16,11,2017,00,00*66
2017-11-16 17:16:52 1510870612.402086: $GPGGA,221651,3946.9567,N,08404.9826,W,2,11,0.80,311.41,M,-33.324,M,,*7E
2017-11-16 17:16:52 1510870612.402146: $GPRMC,221651,A,3946.9567,N,08404.9826,W,0.0000,0.000,161117,,*35
2017-11-16 17:16:52 1510870612.402202: $GPGSA,A,3,1,10,22,12,14,18,11,25,31,32,138,,1.6,0.8,1.3*3E
2017-11-16 17:16:53 1510870613.421523: $GPZDA,221652.00,16,11,2017,00,00*65
2017-11-16 17:16:53 1510870613.421718: $GPGGA,221652,3946.9567,N,08404.9826,W,2,11,0.80,311.41,M,-33.324,M,,*7D
2017-11-16 17:16:53 1510870613.421780: $GPRMC,221652,A,3946.9567,N,08404.9826,W,0.0000,0.000,161117,,*36
2017-11-16 17:16:53 1510870613.421836: $GPGSA,A,3,1,10,22,12,14,18,11,25,31,32,138,,1.6,0.8,1.3*3E
2017-11-16 17:16:54 1510870614.757038: $GPGSV,3,1,12,01,20,307,40,10,56,144,48,22,13,312,37,12,24,057,49*78
2017-11-16 17:16:54 1510870614.757175: $GPGSV,3,2,12,14,63,313,47,18,25,141,43,24,03,048,00,11,10,288,39*74
2017-11-16 17:16:54 1510870614.757235: $GPGSV,3,3,12,25,37,100,48,31,48,219,49,32,70,006,48,138,38,213,43*47
2017-11-16 17:16:54 1510870614.870653: $GPZDA,221653.00,16,11,2017,00,00*64
2017-11-16 17:16:54 1510870614.870827: $GPGGA,221653,3946.9567,N,08404.9826,W,2,11,0.80,311.41,M,-33.324,M,,*7C
2017-11-16 17:16:54 1510870614.870944: $GPRMC,221653,A,3946.9567,N,08404.9826,W,0.0000,0.000,161117,,*37
2017-11-16 17:16:54 1510870614.871001: $GPGSA,A,3,1,10,22,12,14,18,11,25,31,32,138,,1.6,0.8,1.3*3E
2017-11-16 17:16:55 1510870615.421631: $GPZDA,221654.00,16,11,2017,00,00*63
2017-11-16 17:16:55 1510870615.421808: $GPGGA,221654,3946.9567,N,08404.9826,W,2,11,0.80,311.41,M,-33.324,M,,*7B
2017-11-16 17:16:55 1510870615.421869: $GPRMC,221654,A,3946.9567,N,08404.9826,W,0.0000,0.000,161117,,*30
2017-11-16 17:16:55 1510870615.421923: $GPGSA,A,3,1,10,22,12,14,18,11,25,31,32,138,,1.6,0.8,1.3*3E
2017-11-16 17:16:56 1510870616.420242: $GPZDA,221655.00,16,11,2017,00,00*62
2017-11-16 17:16:56 1510870616.420406: $GPGGA,221655,3946.9567,N,08404.9826,W,2,11,0.80,311.41,M,-33.324,M,,*7A
2017-11-16 17:16:56 1510870616.420467: $GPRMC,221655,A,3946.9567,N,08404.9826,W,0.0000,0.000,161117,,*31
2017-11-16 17:16:56 1510870616.420523: $GPGSA,A,3,1,10,22,12,14,18,11,25,31,32,138,,1.6,0.8,1.3*3E
2017-11-16 17:16:57 1510870617.736122: $GPGSV,3,1,12,01,20,307,40,10,56,144,48,22,13,312,37,12,24,057,49*78
2017-11-16 17:16:57 1510870617.736290: $GPGSV,3,2,12,14,63,313,46,18,25,141,43,24,03,048,00,11,10,288,38*74
2017-11-16 17:16:57 1510870617.736349: $GPGSV,3,3,12,25,37,100,47,31,48,219,49,32,70,006,48,138,38,213,43*48
2017-11-16 17:16:57 1510870617.849955: $GPZDA,221656.00,16,11,2017,00,00*61
2017-11-16 17:16:57 1510870617.850117: $GPGGA,221656,3946.9567,N,08404.9826,W,2,11,0.80,311.41,M,-33.324,M,,*79
2017-11-16 17:16:57 1510870617.850177: $GPRMC,221656,A,3946.9567,N,08404.9826,W,0.0000,0.000,161117,,*32
2017-11-16 17:16:57 1510870617.850233: $GPGSA,A,3,1,10,22,12,14,18,11,25,31,32,138,,1.6,0.8,1.3*3E
2017-11-16 17:16:58 1510870618.421266: $GPZDA,221657.00,16,11,2017,00,00*60
2017-11-16 17:16:58 1510870618.421613: $GPGGA,221657,3946.9567,N,08404.9826,W,2,11,0.80,311.41,M,-33.324,M,,*78
2017-11-16 17:16:58 1510870618.421714: $GPRMC,221657,A,3946.9567,N,08404.9826,W,0.0000,0.000,161117,,*33
2017-11-16 17:16:58 1510870618.421772: $GPGSA,A,3,1,10,22,12,14,18,11,25,31,32,138,,1.6,0.8,1.3*3E
