2017-11-16 17:08:06 1510870086.402510: {"class":"VERSION","release":"3.17","rev":"3.17","proto_major":3,"proto_minor":12}
2017-11-16 17:08:06 1510870086.402965: {"class":"DEVICES","devices":[{"class":"DEVICE","path":"/dev/ttyUSB0","driver":"SiRF","subtype":"9\u0006GSD4e_4.1.2-P1_RPATCH.05-F-GPS-4R-1510281 11/03/2015 307","activated":"2017-11-16T22:08:06.285Z","flags":1,"native":1,"bps":4800,"parity":"N","stopbits":1,"cycle":1.00}]}
2017-11-16 17:08:06 1510870086.403081: {"class":"WATCH","enable":true,"json":false,"nmea":true,"raw":0,"scaled":false,"timing":false,"split24":false,"pps":false}
2017-11-16 17:08:06 1510870086.734523: $GPGSV,3,1,12,01,18,312,42,10,60,141,47,11,10,292,35,12,25,061,50*7E
2017-11-16 17:08:06 1510870086.734702: $GPGSV,3,2,12,14,60,306,46,18,29,139,44,22,09,312,33,24,06,046,36*78
2017-11-16 17:08:06 1510870086.734784: $GPGSV,3,3,12,25,35,105,46,31,43,217,48,32,70,354,50,138,38,213,44*40
2017-11-16 17:08:06 1510870086.848287: $GPZDA,220805.00,16,11,2017,00,00*68
2017-11-16 17:08:06 1510870086.848437: $GPGGA,220805,3946.9572,N,08404.9819,W,2,12,0.80,313.53,M,-33.324,M,,*7A
2017-11-16 17:08:06 1510870086.848499: $GPRMC,220805,A,3946.9572,N,08404.9819,W,0.0000,0.000,161117,,*33
2017-11-16 17:08:06 1510870086.848555: $GPGSA,A,3,1,10,11,12,14,18,22,24,25,31,32,138,1.6,0.8,1.3*38
2017-11-16 17:08:07 1510870087.413620: $GPZDA,220806.00,16,11,2017,00,00*6B
2017-11-16 17:08:07 1510870087.413782: $GPGGA,220806,3946.9572,N,08404.9819,W,2,12,0.80,313.53,M,-33.324,M,,*79
2017-11-16 17:08:07 1510870087.413844: $GPRMC,220806,A,3946.9572,N,08404.9819,W,0.0000,0.000,161117,,*30
2017-11-16 17:08:07 1510870087.413899: $GPGSA,A,3,1,10,11,12,14,18,22,24,25,31,32,138,1.6,0.8,1.3*38
2017-11-16 17:08:08 1510870088.414445: $GPZDA,220807.00,16,11,2017,00,00*6A
2017-11-16 17:08:08 1510870088.414634: $GPGGA,220807,3946.9572,N,08404.9819,W,2,12,0.80,313.53,M,-33.324,M,,*78
2017-11-16 17:08:08 1510870088.414699: $GPRMC,220807,A,3946.9572,N,08404.9819,W,0.0000,0.000,161117,,*31
2017-11-16 17:08:08 1510870088.414756: $GPGSA,A,3,1,10,11,12,14,18,22,24,25,31,32,138,1.6,0.8,1.3*38
2017-11-16 17:08:09 1510870089.749124: $GPGSV,3,1,12,01,18,312,42,10,60,141,48,11,10,292,36,12,25,061,50*72
2017-11-16 17:08:09 1510870089.749308: $GPGSV,3,2,12,14,60,306,46,18,29,139,43,22,09,312,33,24,06,046,36*7F
2017-11-16 17:08:09 1510870089.749370: $GPGSV,3,3,12,25,35,105,47,31,43,217,48,32,70,354,49,138,38,213,44*49
2017-11-16 17:08:09 1510870089.862631: $GPZDA,220808.00,16,11,2017,00,00*65
2017-11-16 17:08:09 1510870089.862788: $GPGGA,220808,3946.9572,N,08404.9819,W,2,12,0.80,313.53,M,-33.324,M,,*77
2017-11-16 17:08:09 1510870089.862848: $GPRMC,220808,A,3946.9572,N,08404.9819,W,0.0000,0.000,161117,,*3E
2017-11-16 17:08:09 1510870089.862904: $GPGSA,A,3,1,10,11,12,14,18,22,24,25,31,32,138,1.6,0.8,1.3*38
2017-11-16 17:08:10 1510870090.414236: $GPZDA,220809.00,16,11,2017,00,00*64
2017-11-16 17:08:10 1510870090.414399: $GPGGA,220809,3946.9572,N,08404.9819,W,2,12,0.80,313.53,M,-33.324,M,,*76
2017-11-16 17:08:10 1510870090.414463: $GPRMC,220809,A,3946.9572,N,08404.9819,W,0.0000,0.000,161117,,*3F
2017-11-16 17:08:10 1510870090.414557: $GPGSA,A,3,1,10,11,12,14,18,22,24,25,31,32,138,1.6,0.8,1.3*38
2017-11-16 17:08:11 1510870091.413976: $GPZDA,220810.00,16,11,2017,00,00*6C
2017-11-16 17:08:11 1510870091.414142: $GPGGA,220810,3946.9572,N,08404.9819,W,2,12,0.80,313.53,M,-33.324,M,,*7E
2017-11-16 17:08:11 1510870091.414205: $GPRMC,220810,A,3946.9572,N,08404.9819,W,0.0000,0.000,161117,,*37
2017-11-16 17:08:11 1510870091.414261: $GPGSA,A,3,1,10,11,12,14,18,22,24,25,31,32,138,1.6,0.8,1.3*38
2017-11-16 17:08:12 1510870092.750760: $GPGSV,3,1,12,01,18,312,40,10,60,141,48,11,10,292,38,12,25,061,50*7E
2017-11-16 17:08:12 1510870092.750964: $GPGSV,3,2,12,14,60,306,46,18,29,139,43,22,09,312,30,24,06,046,36*7C
2017-11-16 17:08:12 1510870092.751026: $GPGSV,3,3,12,25,35,105,46,31,43,217,48,32,70,354,50,138,38,213,44*40
2017-11-16 17:08:12 1510870092.863981: $GPZDA,220811.00,16,11,2017,00,00*6D
2017-11-16 17:08:12 1510870092.864146: $GPGGA,220811,3946.9572,N,08404.9819,W,2,12,0.80,313.53,M,-33.324,M,,*7F
2017-11-16 17:08:12 1510870092.864262: $GPRMC,220811,A,3946.9572,N,08404.9819,W,0.0000,0.000,161117,,*36
2017-11-16 17:08:12 1510870092.864321: $GPGSA,A,3,1,10,11,12,14,18,22,24,25,31,32,138,1.6,0.8,1.3*38
2017-11-16 17:08:13 1510870093.397363: $GPZDA,220812.00,16,11,2017,00,00*6E
2017-11-16 17:08:13 1510870093.397524: $GPGGA,220812,3946.9572,N,08404.9819,W,2,12,0.80,313.53,M,-33.324,M,,*7C
2017-11-16 17:08:13 1510870093.397585: $GPRMC,220812,A,3946.9572,N,08404.9819,W,0.0000,0.000,161117,,*35
2017-11-16 17:08:13 1510870093.397641: $GPGSA,A,3,1,10,11,12,14,18,22,24,25,31,32,138,1.6,0.8,1.3*38
2017-11-16 17:08:14 1510870094.413609: $GPZDA,220813.00,16,11,2017,00,00*6F
2017-11-16 17:08:14 1510870094.413768: $GPGGA,220813,3946.9572,N,08404.9819,W,2,12,0.80,313.53,M,-33.324,M,,*7D
2017-11-16 17:08:14 1510870094.413831: $GPRMC,220813,A,3946.9572,N,08404.9819,W,0.0000,0.000,161117,,*34
2017-11-16 17:08:14 1510870094.413886: $GPGSA,A,3,1,10,11,12,14,18,22,24,25,31,32,138,1.6,0.8,1.3*38
2017-11-16 17:08:15 1510870095.733067: $GPGSV,3,1,12,01,18,312,34,10,60,141,48,11,10,292,38,12,25,061,50*7D
2017-11-16 17:08:15 1510870095.733269: $GPGSV,3,2,12,14,60,306,46,18,29,139,44,22,09,312,32,24,06,046,36*79
2017-11-16 17:08:15 1510870095.733344: $GPGSV,3,3,12,25,35,105,46,31,43,217,48,32,70,354,49,138,38,213,44*48
2017-11-16 17:08:15 1510870095.846629: $GPZDA,220814.00,16,11,2017,00,00*68
2017-11-16 17:08:15 1510870095.846793: $GPGGA,220814,3946.9572,N,08404.9819,W,2,12,0.80,313.53,M,-33.324,M,,*7A
2017-11-16 17:08:15 1510870095.846857: $GPRMC,220814,A,3946.9572,N,08404.9819,W,0.0000,0.000,161117,,*33
2017-11-16 17:08:15 1510870095.846916: $GPGSA,A,3,1,10,11,12,14,18,22,24,25,31,32,138,1.6,0.8,1.3*38
