2018-01-11 20:18:01 1515719881.149871: {"class":"VERSION","release":"3.16","rev":"3.16-4","proto_major":3,"proto_minor":11}
2018-01-11 20:18:01 1515719881.150229: {"class":"DEVICES","devices":[{"class":"DEVICE","path":"/dev/ttyUSB0","driver":"SiRF","subtype":"9\u0006GSD4e_4.1.2-P1_RPATCH.05-F-GPS-4R-1510281 11/03/2015 307","activated":"2018-01-12T01:18:00.725Z","flags":1,"native":1,"bps":4800,"parity":"N","stopbits":1,"cycle":1.00}]}
2018-01-11 20:18:01 1515719881.150344: {"class":"WATCH","enable":true,"json":false,"nmea":true,"raw":0,"scaled":false,"timing":false,"split24":false,"pps":false}
2018-01-11 20:18:01 1515719881.742602: $GPGSV,3,1,11,07,58,315,44,08,75,118,46,09,45,226,43,11,23,166,47*7C
2018-01-11 20:18:01 1515719881.742748: $GPGSV,3,2,11,16,21,061,41,23,26,189,48,27,45,051,49,28,16,261,42*74
2018-01-11 20:18:01 1515719881.742815: $GPGSV,3,3,11,30,32,307,37,01,01,162,00,138,38,213,46*7D
2018-01-11 20:18:01 1515719881.855952: $GPZDA,011802.00,12,01,2018,00,00*65
2018-01-11 20:18:01 1515719881.856074: $GPGGA,011802,3946.9582,N,08404.9813,W,2,10,0.80,303.45,M,-33.324,M,,*7C
2018-01-11 20:18:01 1515719881.856138: $GPRMC,011802,A,3946.9582,N,08404.9813,W,0.0000,0.000,120118,,*3B
2018-01-11 20:18:01 1515719881.856198: $GPGSA,A,3,7,8,9,11,16,23,27,28,30,138,,,4.0,0.8,3.5*3E
2018-01-11 20:18:02 1515719882.409426: $GPZDA,011803.00,12,01,2018,00,00*64
2018-01-11 20:18:02 1515719882.409602: $GPGGA,011803,3946.9582,N,08404.9813,W,2,10,0.80,303.45,M,-33.324,M,,*7D
2018-01-11 20:18:02 1515719882.409670: $GPRMC,011803,A,3946.9582,N,08404.9813,W,0.0000,0.000,120118,,*3A
2018-01-11 20:18:02 1515719882.409734: $GPGSA,A,3,7,8,9,11,16,23,27,28,30,138,,,4.0,0.8,3.5*3E
2018-01-11 20:18:03 1515719883.406475: $GPZDA,011804.00,12,01,2018,00,00*63
2018-01-11 20:18:03 1515719883.406648: $GPGGA,011804,3946.9582,N,08404.9813,W,2,10,0.80,303.45,M,-33.324,M,,*7A
2018-01-11 20:18:03 1515719883.406718: $GPRMC,011804,A,3946.9582,N,08404.9813,W,0.2422,93.794,120118,,*0B
2018-01-11 20:18:03 1515719883.406779: $GPGSA,A,3,7,8,9,11,16,23,27,28,30,138,,,4.0,0.8,3.5*3E
2018-01-11 20:18:04 1515719884.742219: $GPGSV,3,1,11,07,58,315,44,08,75,118,44,09,45,226,43,11,23,166,46*7F
2018-01-11 20:18:04 1515719884.742383: $GPGSV,3,2,11,16,21,061,40,23,26,189,47,27,45,051,48,28,16,261,42*7B
2018-01-11 20:18:04 1515719884.742451: $GPGSV,3,3,11,30,32,307,35,01,01,162,00,138,38,213,47*7E
2018-01-11 20:18:04 1515719884.855554: $GPZDA,011805.00,12,01,2018,00,00*62
2018-01-11 20:18:04 1515719884.855701: $GPGGA,011805,3946.9582,N,08404.9813,W,2,10,0.80,303.45,M,-33.324,M,,*7B
2018-01-11 20:18:04 1515719884.855766: $GPRMC,011805,A,3946.9582,N,08404.9813,W,0.0000,0.000,120118,,*3C
2018-01-11 20:18:04 1515719884.855830: $GPGSA,A,3,7,8,9,11,16,23,27,28,30,138,,,4.0,0.8,3.5*3E
2018-01-11 20:18:05 1515719885.405245: $GPZDA,011806.00,12,01,2018,00,00*61
2018-01-11 20:18:05 1515719885.405423: $GPGGA,011806,3946.9585,N,08404.9805,W,2,10,0.80,302.77,M,-33.324,M,,*78
2018-01-11 20:18:05 1515719885.405489: $GPRMC,011806,A,3946.9585,N,08404.9805,W,0.1567,9.200,120118,,*31
2018-01-11 20:18:05 1515719885.405551: $GPGSA,A,3,7,8,9,11,16,23,27,28,30,138,,,4.0,0.8,3.5*3E
2018-01-11 20:18:06 1515719886.405572: $GPZDA,011807.00,12,01,2018,00,00*60
2018-01-11 20:18:06 1515719886.405723: $GPGGA,011807,3946.9585,N,08404.9805,W,2,10,0.80,302.77,M,-33.324,M,,*79
2018-01-11 20:18:06 1515719886.405792: $GPRMC,011807,A,3946.9585,N,08404.9805,W,0.0000,0.000,120118,,*3E
2018-01-11 20:18:06 1515719886.405853: $GPGSA,A,3,7,8,9,11,16,23,27,28,30,138,,,4.0,0.8,3.5*3E
2018-01-11 20:18:07 1515719887.742568: $GPGSV,3,1,11,07,58,315,44,08,75,118,45,09,45,226,42,11,23,166,46*7F
2018-01-11 20:18:07 1515719887.742731: $GPGSV,3,2,11,16,21,061,40,23,26,189,47,27,45,051,49,28,16,261,42*7A
2018-01-11 20:18:07 1515719887.742800: $GPGSV,3,3,11,30,32,307,34,01,01,162,09,138,38,213,44*75
2018-01-11 20:18:07 1515719887.855893: $GPZDA,011808.00,12,01,2018,00,00*6F
2018-01-11 20:18:07 1515719887.856020: $GPGGA,011808,3946.9585,N,08404.9805,W,2,10,0.80,302.77,M,-33.324,M,,*76
2018-01-11 20:18:07 1515719887.856083: $GPRMC,011808,A,3946.9585,N,08404.9805,W,0.0000,0.000,120118,,*31
2018-01-11 20:18:07 1515719887.856195: $GPGSA,A,3,7,8,9,11,16,23,27,28,30,138,,,4.0,0.8,3.5*3E
2018-01-11 20:18:08 1515719888.408051: $GPZDA,011809.00,12,01,2018,00,00*6E
2018-01-11 20:18:08 1515719888.408240: $GPGGA,011809,3946.9585,N,08404.9805,W,2,10,0.80,302.77,M,-33.324,M,,*77
2018-01-11 20:18:08 1515719888.408308: $GPRMC,011809,A,3946.9585,N,08404.9805,W,0.0000,0.000,120118,,*30
2018-01-11 20:18:08 1515719888.408368: $GPGSA,A,3,7,8,9,11,16,23,27,28,30,138,,,4.0,0.8,3.5*3E
2018-01-11 20:18:09 1515719889.407950: $GPZDA,011810.00,12,01,2018,00,00*66
2018-01-11 20:18:09 1515719889.408122: $GPGGA,011810,3946.9585,N,08404.9805,W,2,10,0.80,302.77,M,-33.324,M,,*7F
2018-01-11 20:18:09 1515719889.408189: $GPRMC,011810,A,3946.9585,N,08404.9805,W,0.0000,0.000,120118,,*38
2018-01-11 20:18:09 1515719889.408250: $GPGSA,A,3,7,8,9,11,16,23,27,28,30,138,,,4.0,0.8,3.5*3E
2018-01-11 20:18:10 1515719890.744700: $GPGSV,3,1,11,07,58,315,44,08,75,118,45,09,45,226,42,11,23,166,46*7F
2018-01-11 20:18:10 1515719890.744880: $GPGSV,3,2,11,16,21,061,40,23,26,189,47,27,45,051,49,28,16,261,42*7A
2018-01-11 20:18:10 1515719890.744945: $GPGSV,3,3,11,30,32,307,33,01,01,162,16,138,38,213,45*7D
2018-01-11 20:18:10 1515719890.858031: $GPZDA,011811.00,12,01,2018,00,00*67
2018-01-11 20:18:10 1515719890.858160: $GPGGA,011811,3946.9585,N,08404.9805,W,2,11,0.80,302.77,M,-33.324,M,,*7F
2018-01-11 20:18:10 1515719890.858224: $GPRMC,011811,A,3946.9585,N,08404.9805,W,0.0000,0.000,120118,,*39
2018-01-11 20:18:10 1515719890.858287: $GPGSA,A,3,7,8,9,11,16,23,27,28,30,1,138,,4.0,0.8,3.5*0F
2018-01-11 20:18:11 1515719891.483420: $GPZDA,011812.00,12,01,2018,00,00*64
2018-01-11 20:18:11 1515719891.483595: $GPGGA,011812,3946.9585,N,08404.9805,W,2,11,0.80,302.77,M,-33.324,M,,*7C
2018-01-11 20:18:11 1515719891.483668: $GPRMC,011812,A,3946.9585,N,08404.9805,W,0.0000,0.000,120118,,*3A
2018-01-11 20:18:11 1515719891.483728: $GPGSA,A,3,7,8,9,11,16,23,27,28,30,1,138,,4.0,0.8,3.5*0F
2018-01-11 20:18:12 1515719892.409637: $GPZDA,011813.00,12,01,2018,00,00*65
2018-01-11 20:18:12 1515719892.409814: $GPGGA,011813,3946.9585,N,08404.9805,W,2,11,0.80,302.77,M,-33.324,M,,*7D
2018-01-11 20:18:12 1515719892.409882: $GPRMC,011813,A,3946.9585,N,08404.9805,W,0.0000,0.000,120118,,*3B
2018-01-11 20:18:12 1515719892.410043: $GPGSA,A,3,7,8,9,11,16,23,27,28,30,1,138,,4.0,0.8,3.5*0F
