2017-12-31 18:11:06 1514761866.487472: {"class":"VERSION","release":"3.16","rev":"3.16-4","proto_major":3,"proto_minor":11}
2017-12-31 18:11:06 1514761866.487846: {"class":"DEVICES","devices":[{"class":"DEVICE","path":"/dev/ttyUSB0","driver":"SiRF","activated":"2017-12-31T23:11:06.234Z","flags":1,"native":1,"bps":4800,"parity":"N","stopbits":1,"cycle":1.00}]}
2017-12-31 18:11:06 1514761866.487951: {"class":"WATCH","enable":true,"json":false,"nmea":true,"raw":0,"scaled":false,"timing":false,"split24":false,"pps":false}
2017-12-31 18:11:06 1514761866.684224: $GPGSV,3,1,11,22,22,214,40,23,53,306,46,09,20,312,40,03,32,234,44*70
2017-12-31 18:11:06 1514761866.684398: $GPGSV,3,2,11,16,80,189,43,29,05,031,34,14,15,133,33,31,29,075,44*70
2017-12-31 18:11:06 1514761866.684463: $GPGSV,3,3,11,27,22,154,35,26,62,051,48,135,22,240,44*73
2017-12-31 18:11:06 1514761866.797912: $GPZDA,231107.00,31,12,2017,00,00*65
2017-12-31 18:11:06 1514761866.798064: $GPGGA,231107,3946.9561,N,08404.9874,W,2,11,0.60,308.17,M,-33.324,M,,*7F
2017-12-31 18:11:06 1514761866.798132: $GPRMC,231107,A,3946.9561,N,08404.9874,W,0.0000,0.000,311217,,*37
2017-12-31 18:11:06 1514761866.798191: $GPGSA,A,3,22,23,9,3,16,29,14,31,27,26,135,,1.7,0.6,1.3*06
2017-12-31 18:11:07 1514761867.343451: $GPZDA,231108.00,31,12,2017,00,00*6A
2017-12-31 18:11:07 1514761867.343632: $GPGGA,231108,3946.9561,N,08404.9874,W,2,11,0.60,308.17,M,-33.324,M,,*70
2017-12-31 18:11:07 1514761867.343700: $GPRMC,231108,A,3946.9561,N,08404.9874,W,0.0000,0.000,311217,,*38
2017-12-31 18:11:07 1514761867.343764: $GPGSA,A,3,22,23,9,3,16,29,14,31,27,26,135,,1.7,0.6,1.3*06
2017-12-31 18:11:08 1514761868.348134: $GPZDA,231109.00,31,12,2017,00,00*6B
2017-12-31 18:11:08 1514761868.348303: $GPGGA,231109,3946.9561,N,08404.9874,W,2,11,0.60,308.17,M,-33.324,M,,*71
2017-12-31 18:11:08 1514761868.348373: $GPRMC,231109,A,3946.9561,N,08404.9874,W,0.0000,0.000,311217,,*39
2017-12-31 18:11:08 1514761868.348434: $GPGSA,A,3,22,23,9,3,16,29,14,31,27,26,135,,1.7,0.6,1.3*06
2017-12-31 18:11:09 1514761869.683828: $GPGSV,3,1,11,22,22,214,40,23,53,306,46,09,20,312,40,03,32,234,43*77
2017-12-31 18:11:09 1514761869.683995: $GPGSV,3,2,11,16,80,189,43,29,05,031,29,14,15,133,33,31,29,075,44*7C
2017-12-31 18:11:09 1514761869.684061: $GPGSV,3,3,11,27,22,154,35,26,62,051,48,135,22,240,44*73
2017-12-31 18:11:09 1514761869.797191: $GPZDA,231110.00,31,12,2017,00,00*63
2017-12-31 18:11:09 1514761869.797314: $GPGGA,231110,3946.9557,N,08404.9874,W,2,11,0.60,308.93,M,-33.324,M,,*70
2017-12-31 18:11:09 1514761869.797380: $GPRMC,231110,A,3946.9557,N,08404.9874,W,0.0000,0.000,311217,,*34
2017-12-31 18:11:09 1514761869.797440: $GPGSA,A,3,22,23,9,3,16,29,14,31,27,26,135,,1.7,0.6,1.3*06
2017-12-31 18:11:10 1514761870.422829: $GPZDA,231111.00,31,12,2017,00,00*62
2017-12-31 18:11:10 1514761870.423005: $GPGGA,231111,3946.9557,N,08404.9874,W,2,11,0.60,308.93,M,-33.324,M,,*71
2017-12-31 18:11:10 1514761870.423072: $GPRMC,231111,A,3946.9557,N,08404.9874,W,0.0000,0.000,311217,,*35
2017-12-31 18:11:10 1514761870.423134: $GPGSA,A,3,22,23,9,3,16,29,14,31,27,26,135,,1.7,0.6,1.3*06
2017-12-31 18:11:11 1514761871.348719: $GPZDA,231112.00,31,12,2017,00,00*61
2017-12-31 18:11:11 1514761871.348899: $GPGGA,231112,3946.9557,N,08404.9874,W,2,11,0.60,308.93,M,-33.324,M,,*72
2017-12-31 18:11:11 1514761871.348966: $GPRMC,231112,A,3946.9557,N,08404.9874,W,0.0000,0.000,311217,,*36
2017-12-31 18:11:11 1514761871.349029: $GPGSA,A,3,22,23,9,3,16,29,14,31,27,26,135,,1.7,0.6,1.3*06
2017-12-31 18:11:12 1514761872.684165: $GPGSV,3,1,11,22,22,214,40,23,53,306,46,09,20,312,40,03,32,234,44*70
2017-12-31 18:11:12 1514761872.684359: $GPGSV,3,2,11,16,80,189,43,29,05,031,30,14,15,133,33,31,29,075,44*74
2017-12-31 18:11:12 1514761872.684425: $GPGSV,3,3,11,27,22,154,35,26,62,051,48,135,22,240,44*73
2017-12-31 18:11:12 1514761872.797560: $GPZDA,231113.00,31,12,2017,00,00*60
2017-12-31 18:11:12 1514761872.797703: $GPGGA,231113,3946.9557,N,08404.9874,W,2,11,0.60,308.93,M,-33.324,M,,*73
2017-12-31 18:11:12 1514761872.797774: $GPRMC,231113,A,3946.9557,N,08404.9874,W,0.0000,0.000,311217,,*37
2017-12-31 18:11:12 1514761872.797910: $GPGSA,A,3,22,23,9,3,16,29,14,31,27,26,135,,1.7,0.6,1.3*06
2017-12-31 18:11:13 1514761873.369667: $GPZDA,231114.00,31,12,2017,00,00*67
2017-12-31 18:11:13 1514761873.369859: $GPGGA,231114,3946.9557,N,08404.9874,W,2,11,0.60,308.93,M,-33.324,M,,*74
2017-12-31 18:11:13 1514761873.369926: $GPRMC,231114,A,3946.9557,N,08404.9874,W,0.0000,0.000,311217,,*30
2017-12-31 18:11:13 1514761873.369989: $GPGSA,A,3,22,23,9,3,16,29,14,31,27,26,135,,1.7,0.6,1.3*06
2017-12-31 18:11:14 1514761874.370853: $GPZDA,231115.00,31,12,2017,00,00*66
2017-12-31 18:11:14 1514761874.371001: $GPGGA,231115,3946.9557,N,08404.9874,W,2,11,0.60,308.93,M,-33.324,M,,*75
2017-12-31 18:11:14 1514761874.371065: $GPRMC,231115,A,3946.9557,N,08404.9874,W,0.0000,0.000,311217,,*31
2017-12-31 18:11:14 1514761874.371128: $GPGSA,A,3,22,23,9,3,16,29,14,31,27,26,135,,1.7,0.6,1.3*06
2017-12-31 18:11:14 1514761874.371185: $GPGBS,231115,2.22,M,3.43,M,7.66,M*3A
2017-12-31 18:11:15 1514761875.683305: $GPGSV,3,1,12,22,21,213,40,23,55,306,46,09,21,312,40,03,31,234,44*73
2017-12-31 18:11:15 1514761875.683489: $GPGSV,3,2,12,16,82,187,43,29,05,030,37,14,14,133,33,31,28,076,44*7E
2017-12-31 18:11:15 1514761875.683554: $GPGSV,3,3,12,27,23,153,36,08,01,180,21,26,61,049,48,135,22,240,44*4C
2017-12-31 18:11:15 1514761875.796997: $GPZDA,231116.00,31,12,2017,00,00*65
2017-12-31 18:11:15 1514761875.797193: $GPGGA,231116,3946.9557,N,08404.9874,W,2,12,0.60,308.93,M,-33.324,M,,*75
2017-12-31 18:11:15 1514761875.797266: $GPRMC,231116,A,3946.9557,N,08404.9874,W,0.0000,0.000,311217,,*32
2017-12-31 18:11:15 1514761875.797329: $GPGSA,A,3,22,23,9,3,16,29,14,31,27,8,26,135,1.7,0.6,1.3*3E
2017-12-31 18:11:16 1514761876.347958: $GPZDA,231117.00,31,12,2017,00,00*64
2017-12-31 18:11:16 1514761876.348131: $GPGGA,231117,3946.9557,N,08404.9874,W,2,12,0.60,308.93,M,-33.324,M,,*74
2017-12-31 18:11:16 1514761876.348198: $GPRMC,231117,A,3946.9557,N,08404.9874,W,0.0000,0.000,311217,,*33
2017-12-31 18:11:16 1514761876.348259: $GPGSA,A,3,22,23,9,3,16,29,14,31,27,8,26,135,1.7,0.6,1.3*3E
