2017-12-29 11:07:48 1514563668.336696: {"class":"VERSION","release":"3.16","rev":"3.16-4","proto_major":3,"proto_minor":11}
2017-12-29 11:07:48 1514563668.337086: {"class":"DEVICES","devices":[{"class":"DEVICE","path":"/dev/ttyUSB0","driver":"SiRF","subtype":"9\u0006GSD4e_4.1.2-P1_RPATCH.05-F-GPS-4R-1510281 11/03/2015 307","activated":"2017-12-29T16:07:48.286Z","flags":1,"native":1,"bps":4800,"parity":"N","stopbits":1,"cycle":1.00}]}
2017-12-29 11:07:48 1514563668.337200: {"class":"WATCH","enable":true,"json":false,"nmea":true,"raw":0,"scaled":false,"timing":false,"split24":false,"pps":false}
2017-12-29 11:07:48 1514563668.735594: $GPGSV,3,1,11,10,38,298,43,15,41,051,49,18,69,330,42,20,38,091,48*70
2017-12-29 11:07:48 1514563668.735763: $GPGSV,3,2,11,21,68,193,45,24,48,117,47,27,19,294,41,32,18,235,36*7F
2017-12-29 11:07:48 1514563668.735827: $GPGSV,3,3,11,08,04,325,34,13,11,048,26,138,38,213,45*7C
2017-12-29 11:07:48 1514563668.848914: $GPZDA,160749.00,29,12,2017,00,00*67
2017-12-29 11:07:48 1514563668.849031: $GPGGA,160749,3946.9580,N,08404.9846,W,2,11,1.00,311.68,M,-33.324,M,,*7D
2017-12-29 11:07:48 1514563668.849095: $GPRMC,160749,A,3946.9580,N,08404.9846,W,0.0000,0.000,291217,,*3B
2017-12-29 11:07:48 1514563668.849154: $GPGSA,A,3,10,15,18,20,21,24,27,32,8,13,138,,1.7,1.0,1.3*38
2017-12-29 11:07:49 1514563669.474351: $GPZDA,160750.00,29,12,2017,00,00*6F
2017-12-29 11:07:49 1514563669.474507: $GPGGA,160750,3946.9577,N,08404.9846,W,2,11,1.00,312.45,M,-33.324,M,,*71
2017-12-29 11:07:49 1514563669.474572: $GPRMC,160750,A,3946.9577,N,08404.9846,W,0.0000,0.000,291217,,*3B
2017-12-29 11:07:49 1514563669.474632: $GPGSA,A,3,10,15,18,20,21,24,27,32,8,13,138,,1.7,1.0,1.3*38
2017-12-29 11:07:50 1514563670.401507: $GPZDA,160751.00,29,12,2017,00,00*6E
2017-12-29 11:07:50 1514563670.401681: $GPGGA,160751,3946.9572,N,08404.9846,W,2,11,1.00,311.81,M,-33.324,M,,*7E
2017-12-29 11:07:50 1514563670.401748: $GPRMC,160751,A,3946.9572,N,08404.9846,W,0.1567,9.200,291217,,*31
2017-12-29 11:07:50 1514563670.401808: $GPGSA,A,3,10,15,18,20,21,24,27,32,8,13,138,,1.7,1.0,1.3*38
2017-12-29 11:07:51 1514563671.730950: $GPGSV,3,1,11,10,38,298,42,15,41,051,49,18,69,330,42,20,38,091,48*71
2017-12-29 11:07:51 1514563671.731148: $GPGSV,3,2,11,21,68,193,45,24,48,117,47,27,19,294,41,32,18,235,37*7E
2017-12-29 11:07:51 1514563671.731216: $GPGSV,3,3,11,08,04,325,33,13,11,048,26,138,38,213,45*7B
2017-12-29 11:07:51 1514563671.844295: $GPZDA,160752.00,29,12,2017,00,00*6D
2017-12-29 11:07:51 1514563671.844427: $GPGGA,160752,3946.9568,N,08404.9846,W,2,11,1.00,309.76,M,-33.324,M,,*77
2017-12-29 11:07:51 1514563671.844493: $GPRMC,160752,A,3946.9568,N,08404.9846,W,0.0000,0.000,291217,,*37
2017-12-29 11:07:51 1514563671.844554: $GPGSA,A,3,10,15,18,20,21,24,27,32,8,13,138,,1.7,1.0,1.3*38
2017-12-29 11:07:52 1514563672.400173: $GPZDA,160753.00,29,12,2017,00,00*6C
2017-12-29 11:07:52 1514563672.405321: $GPGGA,160753,3946.9568,N,08404.9846,W,2,11,1.00,309.76,M,-33.324,M,,*76
2017-12-29 11:07:52 1514563672.405457: $GPRMC,160753,A,3946.9568,N,08404.9846,W,0.0000,0.000,291217,,*36
2017-12-29 11:07:52 1514563672.405523: $GPGSA,A,3,10,15,18,20,21,24,27,32,8,13,138,,1.7,1.0,1.3*38
2017-12-29 11:07:53 1514563673.401205: $GPZDA,160754.00,29,12,2017,00,00*6B
2017-12-29 11:07:53 1514563673.401366: $GPGGA,160754,3946.9568,N,08404.9846,W,2,11,1.00,309.76,M,-33.324,M,,*71
2017-12-29 11:07:53 1514563673.401431: $GPRMC,160754,A,3946.9568,N,08404.9846,W,0.0000,0.000,291217,,*31
2017-12-29 11:07:53 1514563673.401491: $GPGSA,A,3,10,15,18,20,21,24,27,32,8,13,138,,1.7,1.0,1.3*38
2017-12-29 11:07:54 1514563674.738861: $GPGSV,3,1,11,10,38,298,42,15,41,051,49,18,69,330,42,20,38,091,47*7E
2017-12-29 11:07:54 1514563674.739016: $GPGSV,3,2,11,21,68,193,45,24,48,117,47,27,19,294,41,32,18,235,37*7E
2017-12-29 11:07:54 1514563674.739081: $GPGSV,3,3,11,08,04,325,32,13,11,048,26,138,38,213,46*79
2017-12-29 11:07:54 1514563674.851421: $GPZDA,160755.00,29,12,2017,00,00*6A
2017-12-29 11:07:54 1514563674.851545: $GPGGA,160755,3946.9568,N,08404.9846,W,2,11,1.00,309.76,M,-33.324,M,,*70
2017-12-29 11:07:54 1514563674.851661: $GPRMC,160755,A,3946.9568,N,08404.9846,W,0.0000,0.000,291217,,*30
2017-12-29 11:07:54 1514563674.851723: $GPGSA,A,3,10,15,18,20,21,24,27,32,8,13,138,,1.7,1.0,1.3*38
2017-12-29 11:07:55 1514563675.400589: $GPZDA,160756.00,29,12,2017,00,00*69
2017-12-29 11:07:55 1514563675.400750: $GPGGA,160756,3946.9568,N,08404.9846,W,2,11,1.00,309.76,M,-33.324,M,,*73
2017-12-29 11:07:55 1514563675.400815: $GPRMC,160756,A,3946.9568,N,08404.9846,W,0.0000,0.000,291217,,*33
2017-12-29 11:07:55 1514563675.400875: $GPGSA,A,3,10,15,18,20,21,24,27,32,8,13,138,,1.7,1.0,1.3*38
2017-12-29 11:07:56 1514563676.401498: $GPZDA,160757.00,29,12,2017,00,00*68
2017-12-29 11:07:56 1514563676.401658: $GPGGA,160757,3946.9568,N,08404.9846,W,2,11,1.00,309.76,M,-33.324,M,,*72
2017-12-29 11:07:56 1514563676.401724: $GPRMC,160757,A,3946.9568,N,08404.9846,W,0.0000,0.000,291217,,*32
2017-12-29 11:07:56 1514563676.401784: $GPGSA,A,3,10,15,18,20,21,24,27,32,8,13,138,,1.7,1.0,1.3*38
2017-12-29 11:07:57 1514563677.732191: $GPGSV,3,1,11,10,38,298,42,15,41,051,49,18,69,330,42,20,38,091,48*71
2017-12-29 11:07:57 1514563677.736239: $GPGSV,3,2,11,21,68,193,44,24,48,117,46,27,19,294,41,32,18,235,38*71
2017-12-29 11:07:57 1514563677.736347: $GPGSV,3,3,11,08,04,325,32,13,11,048,26,138,38,213,45*7A
2017-12-29 11:07:57 1514563677.845576: $GPZDA,160758.00,29,12,2017,00,00*67
2017-12-29 11:07:57 1514563677.845724: $GPGGA,160758,3946.9568,N,08404.9846,W,2,11,1.00,309.76,M,-33.324,M,,*7D
2017-12-29 11:07:57 1514563677.845790: $GPRMC,160758,A,3946.9568,N,08404.9846,W,0.0000,0.000,291217,,*3D
2017-12-29 11:07:57 1514563677.845850: $GPGSA,A,3,10,15,18,20,21,24,27,32,8,13,138,,1.7,1.0,1.3*38
2017-12-29 11:07:58 1514563678.401477: $GPZDA,160759.00,29,12,2017,00,00*66
2017-12-29 11:07:58 1514563678.401638: $GPGGA,160759,3946.9564,N,08404.9846,W,2,11,1.00,310.53,M,-33.324,M,,*7F
2017-12-29 11:07:58 1514563678.401704: $GPRMC,160759,A,3946.9564,N,08404.9846,W,0.0000,0.000,291217,,*30
2017-12-29 11:07:58 1514563678.401764: $GPGSA,A,3,10,15,18,20,21,24,27,32,8,13,138,,1.7,1.0,1.3*38
2017-12-29 11:07:59 1514563679.400828: $GPZDA,160800.00,29,12,2017,00,00*65
2017-12-29 11:07:59 1514563679.400994: $GPGGA,160800,3946.9564,N,08404.9839,W,2,11,1.00,310.61,M,-33.324,M,,*75
2017-12-29 11:07:59 1514563679.401126: $GPRMC,160800,A,3946.9564,N,08404.9839,W,0.0000,0.000,291217,,*3B
2017-12-29 11:07:59 1514563679.401190: $GPGSA,A,3,10,15,18,20,21,24,27,32,8,13,138,,1.7,1.0,1.3*38
2017-12-29 11:08:00 1514563680.737545: $GPGSV,3,1,11,10,38,298,42,15,41,051,49,18,69,330,42,20,38,091,48*71
2017-12-29 11:08:00 1514563680.737721: $GPGSV,3,2,11,21,68,193,45,24,48,117,47,27,19,294,40,32,18,235,38*70
2017-12-29 11:08:00 1514563680.737787: $GPGSV,3,3,11,08,04,325,27,13,11,048,26,138,38,213,45*7E
2017-12-29 11:08:00 1514563680.851227: $GPZDA,160801.00,29,12,2017,00,00*64
2017-12-29 11:08:00 1514563680.851352: $GPGGA,160801,3946.9564,N,08404.9839,W,2,11,1.00,310.61,M,-33.324,M,,*74
2017-12-29 11:08:00 1514563680.851416: $GPRMC,160801,A,3946.9564,N,08404.9839,W,0.0000,0.000,291217,,*3A
2017-12-29 11:08:00 1514563680.851475: $GPGSA,A,3,10,15,18,20,21,24,27,32,8,13,138,,1.7,1.0,1.3*38
2017-12-29 11:08:01 1514563681.403336: $GPZDA,160802.00,29,12,2017,00,00*67
2017-12-29 11:08:01 1514563681.403488: $GPGGA,160802,3946.9564,N,08404.9839,W,2,11,1.00,310.61,M,-33.324,M,,*77
2017-12-29 11:08:01 1514563681.403553: $GPRMC,160802,A,3946.9564,N,08404.9839,W,0.0000,0.000,291217,,*39
2017-12-29 11:08:01 1514563681.403612: $GPGSA,A,3,10,15,18,20,21,24,27,32,8,13,138,,1.7,1.0,1.3*38
2017-12-29 11:08:02 1514563682.402938: $GPZDA,160803.00,29,12,2017,00,00*66
2017-12-29 11:08:02 1514563682.403102: $GPGGA,160803,3946.9568,N,08404.9839,W,2,11,1.00,311.25,M,-33.324,M,,*7B
2017-12-29 11:08:02 1514563682.403168: $GPRMC,160803,A,3946.9568,N,08404.9839,W,0.0000,0.000,291217,,*34
2017-12-29 11:08:02 1514563682.403229: $GPGSA,A,3,10,15,18,20,21,24,27,32,8,13,138,,1.7,1.0,1.3*38
2017-12-29 11:08:03 1514563683.737177: $GPGSV,3,1,11,10,38,298,42,15,41,051,49,18,69,330,42,20,38,091,48*71
2017-12-29 11:08:03 1514563683.737397: $GPGSV,3,2,11,21,68,193,45,24,48,117,47,27,19,294,39,32,18,235,38*7E
2017-12-29 11:08:03 1514563683.737466: $GPGSV,3,3,11,08,04,325,26,13,11,048,26,138,38,213,45*7F
2017-12-29 11:08:03 1514563683.850535: $GPZDA,160804.00,29,12,2017,00,00*61
2017-12-29 11:08:03 1514563683.850658: $GPGGA,160804,3946.9568,N,08404.9839,W,2,11,1.00,311.25,M,-33.324,M,,*7C
2017-12-29 11:08:03 1514563683.850722: $GPRMC,160804,A,3946.9568,N,08404.9839,W,0.0000,0.000,291217,,*33
2017-12-29 11:08:03 1514563683.850782: $GPGSA,A,3,10,15,18,20,21,24,27,32,8,13,138,,1.7,1.0,1.3*38
2017-12-29 11:08:04 1514563684.475933: $GPZDA,160805.00,29,12,2017,00,00*60
2017-12-29 11:08:04 1514563684.476103: $GPGGA,160805,3946.9572,N,08404.9839,W,2,11,1.00,311.89,M,-33.324,M,,*70
2017-12-29 11:08:04 1514563684.476170: $GPRMC,160805,A,3946.9572,N,08404.9839,W,0.3423,4.197,291217,,*34
2017-12-29 11:08:04 1514563684.476230: $GPGSA,A,3,10,15,18,20,21,24,27,32,8,13,138,,1.7,1.0,1.3*38
2017-12-29 11:08:05 1514563685.401836: $GPZDA,160806.00,29,12,2017,00,00*63
2017-12-29 11:08:05 1514563685.402003: $GPGGA,160806,3946.9572,N,08404.9839,W,2,11,1.00,311.89,M,-33.324,M,,*73
2017-12-29 11:08:05 1514563685.402069: $GPRMC,160806,A,3946.9572,N,08404.9839,W,0.4207,39.346,291217,,*00
2017-12-29 11:08:05 1514563685.402130: $GPGSA,A,3,10,15,18,20,21,24,27,32,8,13,138,,1.7,1.0,1.3*38
2017-12-29 11:08:06 1514563686.738776: $GPGSV,3,1,11,10,38,298,42,15,41,051,49,18,69,330,42,20,38,091,48*71
2017-12-29 11:08:06 1514563686.738936: $GPGSV,3,2,11,21,68,193,45,24,48,117,47,27,19,294,38,32,18,235,39*7E
2017-12-29 11:08:06 1514563686.739002: $GPGSV,3,3,11,08,04,325,27,13,11,048,26,138,38,213,45*7E
2017-12-29 11:08:06 1514563686.852496: $GPZDA,160807.00,29,12,2017,00,00*62
2017-12-29 11:08:06 1514563686.852618: $GPGGA,160807,3946.9572,N,08404.9833,W,2,11,1.00,313.37,M,-33.324,M,,*7F
2017-12-29 11:08:06 1514563686.852682: $GPRMC,160807,A,3946.9572,N,08404.9833,W,0.0000,0.000,291217,,*31
2017-12-29 11:08:06 1514563686.852741: $GPGSA,A,3,10,15,18,20,21,24,27,32,8,13,138,,1.7,1.0,1.3*38
2017-12-29 11:08:07 1514563687.402101: $GPZDA,160808.00,29,12,2017,00,00*6D
2017-12-29 11:08:07 1514563687.402264: $GPGGA,160808,3946.9572,N,08404.9833,W,2,11,1.00,313.37,M,-33.324,M,,*70
2017-12-29 11:08:07 1514563687.402330: $GPRMC,160808,A,3946.9572,N,08404.9833,W,0.0000,0.000,291217,,*3E
2017-12-29 11:08:07 1514563687.402390: $GPGSA,A,3,10,15,18,20,21,24,27,32,8,13,138,,1.7,1.0,1.3*38
2017-12-29 11:08:08 1514563688.400392: $GPZDA,160809.00,29,12,2017,00,00*6C
2017-12-29 11:08:08 1514563688.400577: $GPGGA,160809,3946.9572,N,08404.9833,W,2,11,1.00,313.37,M,-33.324,M,,*71
2017-12-29 11:08:08 1514563688.400645: $GPRMC,160809,A,3946.9572,N,08404.9833,W,0.0000,0.000,291217,,*3F
2017-12-29 11:08:08 1514563688.400705: $GPGSA,A,3,10,15,18,20,21,24,27,32,8,13,138,,1.7,1.0,1.3*38
2017-12-29 11:08:09 1514563689.737880: $GPGSV,3,1,11,10,38,298,42,15,41,051,49,18,69,330,42,20,38,091,48*71
2017-12-29 11:08:09 1514563689.738039: $GPGSV,3,2,11,21,68,193,45,24,48,117,47,27,19,294,37,32,18,235,39*71
2017-12-29 11:08:09 1514563689.738106: $GPGSV,3,3,11,08,04,325,28,13,11,048,26,138,38,213,45*71
2017-12-29 11:08:09 1514563689.851291: $GPZDA,160810.00,29,12,2017,00,00*64
2017-12-29 11:08:09 1514563689.851417: $GPGGA,160810,3946.9572,N,08404.9833,W,2,11,1.00,313.37,M,-33.324,M,,*79
2017-12-29 11:08:09 1514563689.851483: $GPRMC,160810,A,3946.9572,N,08404.9833,W,0.0000,0.000,291217,,*37
2017-12-29 11:08:09 1514563689.851544: $GPGSA,A,3,10,15,18,20,21,24,27,32,8,13,138,,1.7,1.0,1.3*38
2017-12-29 11:08:10 1514563690.402188: $GPZDA,160811.00,29,12,2017,00,00*65
2017-12-29 11:08:10 1514563690.402349: $GPGGA,160811,3946.9572,N,08404.9833,W,2,11,1.00,313.37,M,-33.324,M,,*78
2017-12-29 11:08:10 1514563690.402416: $GPRMC,160811,A,3946.9572,N,08404.9833,W,0.0000,0.000,291217,,*36
2017-12-29 11:08:10 1514563690.402477: $GPGSA,A,3,10,15,18,20,21,24,27,32,8,13,138,,1.7,1.0,1.3*38
2017-12-29 11:08:11 1514563691.401848: $GPZDA,160812.00,29,12,2017,00,00*66
2017-12-29 11:08:11 1514563691.402078: $GPGGA,160812,3946.9576,N,08404.9833,W,2,11,1.00,312.61,M,-33.324,M,,*7D
2017-12-29 11:08:11 1514563691.402152: $GPRMC,160812,A,3946.9576,N,08404.9833,W,0.0000,0.000,291217,,*31
2017-12-29 11:08:11 1514563691.402214: $GPGSA,A,3,10,15,18,20,21,24,27,32,8,13,138,,1.7,1.0,1.3*38
2017-12-29 11:08:12 1514563692.753765: $GPGSV,3,1,11,10,38,298,42,15,41,051,49,18,69,330,42,20,38,091,48*71
2017-12-29 11:08:12 1514563692.753943: $GPGSV,3,2,11,21,68,193,45,24,48,117,47,27,19,294,32,32,18,235,39*74
2017-12-29 11:08:12 1514563692.754009: $GPGSV,3,3,11,08,04,325,29,13,11,048,25,138,38,213,44*72
2017-12-29 11:08:12 1514563692.867440: $GPZDA,160813.00,29,12,2017,00,00*67
2017-12-29 11:08:12 1514563692.867555: $GPGGA,160813,3946.9576,N,08404.9833,W,2,11,1.00,312.61,M,-33.324,M,,*7C
2017-12-29 11:08:12 1514563692.867618: $GPRMC,160813,A,3946.9576,N,08404.9833,W,0.0000,0.000,291217,,*30
2017-12-29 11:08:12 1514563692.867677: $GPGSA,A,3,10,15,18,20,21,24,27,32,8,13,138,,1.7,1.0,1.3*38
