2017-12-29 10:47:28 1514562448.347040: {"class":"VERSION","release":"3.16","rev":"3.16-4","proto_major":3,"proto_minor":11}
2017-12-29 10:47:28 1514562448.347377: {"class":"DEVICES","devices":[{"class":"DEVICE","path":"/dev/ttyUSB0","driver":"SiRF","subtype":"9\u0006GSD4e_4.1.2-P1_RPATCH.05-F-GPS-4R-1510281 11/03/2015 307","activated":"2017-12-29T15:47:28.263Z","flags":1,"native":1,"bps":4800,"parity":"N","stopbits":1,"cycle":1.00}]}
2017-12-29 10:47:28 1514562448.347492: {"class":"WATCH","enable":true,"json":false,"nmea":true,"raw":0,"scaled":false,"timing":false,"split24":false,"pps":false}
2017-12-29 10:47:28 1514562448.377148: $GPZDA,154729.00,29,12,2017,00,00*66
2017-12-29 10:47:28 1514562448.377286: $GPGGA,154729,3946.9594,N,08404.9826,W,2,11,0.80,303.81,M,-33.324,M,,*72
2017-12-29 10:47:28 1514562448.377350: $GPRMC,154729,A,3946.9594,N,08404.9826,W,0.0000,0.000,291217,,*39
2017-12-29 10:47:28 1514562448.377410: $GPGSA,A,3,10,13,15,18,20,21,24,27,29,32,138,,1.7,0.8,1.3*02
2017-12-29 10:47:29 1514562449.750303: $GPGSV,3,1,11,10,31,291,39,13,19,046,42,15,50,049,50,18,62,315,44*75
2017-12-29 10:47:29 1514562449.750476: $GPGSV,3,2,11,20,45,082,49,21,76,214,48,24,42,129,50,27,19,303,38*7C
2017-12-29 10:47:29 1514562449.750542: $GPGSV,3,3,11,29,02,186,33,32,11,231,33,138,38,213,45*7E
2017-12-29 10:47:29 1514562449.863720: $GPZDA,154730.00,29,12,2017,00,00*6E
2017-12-29 10:47:29 1514562449.863846: $GPGGA,154730,3946.9594,N,08404.9826,W,2,11,0.80,303.81,M,-33.324,M,,*7A
2017-12-29 10:47:29 1514562449.863909: $GPRMC,154730,A,3946.9594,N,08404.9826,W,0.0000,0.000,291217,,*31
2017-12-29 10:47:29 1514562449.863969: $GPGSA,A,3,10,13,15,18,20,21,24,27,29,32,138,,1.7,0.8,1.3*02
2017-12-29 10:47:30 1514562450.378309: $GPZDA,154731.00,29,12,2017,00,00*6F
2017-12-29 10:47:30 1514562450.378474: $GPGGA,154731,3946.9594,N,08404.9826,W,2,11,0.80,303.81,M,-33.324,M,,*7B
2017-12-29 10:47:30 1514562450.378541: $GPRMC,154731,A,3946.9594,N,08404.9826,W,0.0000,0.000,291217,,*30
2017-12-29 10:47:30 1514562450.378601: $GPGSA,A,3,10,13,15,18,20,21,24,27,29,32,138,,1.7,0.8,1.3*02
2017-12-29 10:47:31 1514562451.419210: $GPZDA,154732.00,29,12,2017,00,00*6C
2017-12-29 10:47:31 1514562451.419380: $GPGGA,154732,3946.9594,N,08404.9826,W,2,11,0.80,303.81,M,-33.324,M,,*78
2017-12-29 10:47:31 1514562451.419448: $GPRMC,154732,A,3946.9594,N,08404.9826,W,0.0000,0.000,291217,,*33
2017-12-29 10:47:31 1514562451.419509: $GPGSA,A,3,10,13,15,18,20,21,24,27,29,32,138,,1.7,0.8,1.3*02
2017-12-29 10:47:32 1514562452.750622: $GPGSV,3,1,11,10,31,291,39,13,19,046,42,15,50,049,50,18,62,315,44*75
2017-12-29 10:47:32 1514562452.750783: $GPGSV,3,2,11,20,45,082,49,21,76,214,48,24,42,129,50,27,19,303,38*7C
2017-12-29 10:47:32 1514562452.750850: $GPGSV,3,3,11,29,02,186,33,32,11,231,33,138,38,213,44*7F
2017-12-29 10:47:32 1514562452.864383: $GPZDA,154733.00,29,12,2017,00,00*6D
2017-12-29 10:47:32 1514562452.864511: $GPGGA,154733,3946.9594,N,08404.9826,W,2,11,0.80,303.81,M,-33.324,M,,*79
2017-12-29 10:47:32 1514562452.864576: $GPRMC,154733,A,3946.9594,N,08404.9826,W,0.0000,0.000,291217,,*32
2017-12-29 10:47:32 1514562452.864636: $GPGSA,A,3,10,13,15,18,20,21,24,27,29,32,138,,1.7,0.8,1.3*02
2017-12-29 10:47:33 1514562453.371526: $GPZDA,154734.00,29,12,2017,00,00*6A
2017-12-29 10:47:33 1514562453.371688: $GPGGA,154734,3946.9594,N,08404.9826,W,2,11,0.80,303.81,M,-33.324,M,,*7E
2017-12-29 10:47:33 1514562453.371755: $GPRMC,154734,A,3946.9594,N,08404.9826,W,0.0000,0.000,291217,,*35
2017-12-29 10:47:33 1514562453.371815: $GPGSA,A,3,10,13,15,18,20,21,24,27,29,32,138,,1.7,0.8,1.3*02
2017-12-29 10:47:34 1514562454.377403: $GPZDA,154735.00,29,12,2017,00,00*6B
2017-12-29 10:47:34 1514562454.377573: $GPGGA,154735,3946.9594,N,08404.9826,W,2,11,0.80,303.81,M,-33.324,M,,*7F
2017-12-29 10:47:34 1514562454.377639: $GPRMC,154735,A,3946.9594,N,08404.9826,W,0.0000,0.000,291217,,*34
2017-12-29 10:47:34 1514562454.377700: $GPGSA,A,3,10,13,15,18,20,21,24,27,29,32,138,,1.7,0.8,1.3*02
2017-12-29 10:47:35 1514562455.707741: $GPGSV,3,1,11,10,31,291,40,13,19,046,42,15,50,049,50,18,62,315,44*7B
2017-12-29 10:47:35 1514562455.707949: $GPGSV,3,2,11,20,45,082,49,21,76,214,47,24,42,129,50,27,19,303,38*73
2017-12-29 10:47:35 1514562455.708016: $GPGSV,3,3,11,29,02,186,33,32,11,231,33,138,38,213,46*7D
2017-12-29 10:47:35 1514562455.821566: $GPZDA,154736.00,29,12,2017,00,00*68
2017-12-29 10:47:35 1514562455.821704: $GPGGA,154736,3946.9594,N,08404.9826,W,2,11,0.80,303.81,M,-33.324,M,,*7C
2017-12-29 10:47:35 1514562455.821768: $GPRMC,154736,A,3946.9594,N,08404.9826,W,0.0000,0.000,291217,,*37
2017-12-29 10:47:35 1514562455.821828: $GPGSA,A,3,10,13,15,18,20,21,24,27,29,32,138,,1.7,0.8,1.3*02
2017-12-29 10:47:36 1514562456.387326: $GPZDA,154737.00,29,12,2017,00,00*69
2017-12-29 10:47:36 1514562456.387483: $GPGGA,154737,3946.9594,N,08404.9826,W,2,11,0.80,303.81,M,-33.324,M,,*7D
2017-12-29 10:47:36 1514562456.387549: $GPRMC,154737,A,3946.9594,N,08404.9826,W,0.0000,0.000,291217,,*36
2017-12-29 10:47:36 1514562456.387609: $GPGSA,A,3,10,13,15,18,20,21,24,27,29,32,138,,1.7,0.8,1.3*02
2017-12-29 10:47:37 1514562457.378924: $GPZDA,154738.00,29,12,2017,00,00*66
2017-12-29 10:47:37 1514562457.379093: $GPGGA,154738,3946.9594,N,08404.9826,W,2,11,0.80,303.81,M,-33.324,M,,*72
2017-12-29 10:47:37 1514562457.379159: $GPRMC,154738,A,3946.9594,N,08404.9826,W,0.0000,0.000,291217,,*39
2017-12-29 10:47:37 1514562457.379220: $GPGSA,A,3,10,13,15,18,20,21,24,27,29,32,138,,1.7,0.8,1.3*02
2017-12-29 10:47:38 1514562458.723109: $GPGSV,3,1,11,10,31,291,40,13,19,046,42,15,50,049,50,18,62,315,44*7B
2017-12-29 10:47:38 1514562458.723289: $GPGSV,3,2,11,20,45,082,50,21,76,214,48,24,42,129,50,27,19,303,38*74
2017-12-29 10:47:38 1514562458.723357: $GPGSV,3,3,11,29,02,186,33,32,11,231,32,138,38,213,45*7F
2017-12-29 10:47:38 1514562458.835533: $GPZDA,154739.00,29,12,2017,00,00*67
2017-12-29 10:47:38 1514562458.835667: $GPGGA,154739,3946.9594,N,08404.9826,W,2,11,0.80,303.81,M,-33.324,M,,*73
2017-12-29 10:47:38 1514562458.835732: $GPRMC,154739,A,3946.9594,N,08404.9826,W,0.0000,0.000,291217,,*38
2017-12-29 10:47:38 1514562458.835792: $GPGSA,A,3,10,13,15,18,20,21,24,27,29,32,138,,1.7,0.8,1.3*02
2017-12-29 10:47:39 1514562459.372767: $GPZDA,154740.00,29,12,2017,00,00*69
2017-12-29 10:47:39 1514562459.372926: $GPGGA,154740,3946.9594,N,08404.9826,W,2,11,0.80,303.81,M,-33.324,M,,*7D
2017-12-29 10:47:39 1514562459.372992: $GPRMC,154740,A,3946.9594,N,08404.9826,W,0.0000,0.000,291217,,*36
2017-12-29 10:47:39 1514562459.373051: $GPGSA,A,3,10,13,15,18,20,21,24,27,29,32,138,,1.7,0.8,1.3*02
2017-12-29 10:47:40 1514562460.372403: $GPZDA,154741.00,29,12,2017,00,00*68
2017-12-29 10:47:40 1514562460.372573: $GPGGA,154741,3946.9594,N,08404.9826,W,2,11,0.80,303.81,M,-33.324,M,,*7C
2017-12-29 10:47:40 1514562460.372641: $GPRMC,154741,A,3946.9594,N,08404.9826,W,0.0000,0.000,291217,,*37
2017-12-29 10:47:40 1514562460.372703: $GPGSA,A,3,10,13,15,18,20,21,24,27,29,32,138,,1.7,0.8,1.3*02
2017-12-29 10:47:41 1514562461.706455: $GPGSV,3,1,11,10,31,291,41,13,19,046,42,15,50,049,50,18,62,315,45*7B
2017-12-29 10:47:41 1514562461.706631: $GPGSV,3,2,11,20,45,082,50,21,76,214,48,24,42,129,50,27,19,303,38*74
2017-12-29 10:47:41 1514562461.706699: $GPGSV,3,3,11,29,02,186,32,32,11,231,32,138,38,213,45*7E
2017-12-29 10:47:41 1514562461.820209: $GPZDA,154742.00,29,12,2017,00,00*6B
2017-12-29 10:47:41 1514562461.820334: $GPGGA,154742,3946.9594,N,08404.9826,W,2,11,0.80,303.81,M,-33.324,M,,*7F
2017-12-29 10:47:41 1514562461.820398: $GPRMC,154742,A,3946.9594,N,08404.9826,W,0.0000,0.000,291217,,*34
2017-12-29 10:47:41 1514562461.820457: $GPGSA,A,3,10,13,15,18,20,21,24,27,29,32,138,,1.7,0.8,1.3*02
2017-12-29 10:47:42 1514562462.445574: $GPZDA,154743.00,29,12,2017,00,00*6A
2017-12-29 10:47:42 1514562462.445737: $GPGGA,154743,3946.9594,N,08404.9826,W,2,11,0.80,303.81,M,-33.324,M,,*7E
2017-12-29 10:47:42 1514562462.445804: $GPRMC,154743,A,3946.9594,N,08404.9826,W,0.0000,0.000,291217,,*35
2017-12-29 10:47:42 1514562462.445865: $GPGSA,A,3,10,13,15,18,20,21,24,27,29,32,138,,1.7,0.8,1.3*02
2017-12-29 10:47:43 1514562463.380168: $GPZDA,154744.00,29,12,2017,00,00*6D
2017-12-29 10:47:43 1514562463.380389: $GPGGA,154744,3946.9594,N,08404.9826,W,2,11,0.80,303.81,M,-33.324,M,,*79
2017-12-29 10:47:43 1514562463.380459: $GPRMC,154744,A,3946.9594,N,08404.9826,W,0.0000,0.000,291217,,*32
2017-12-29 10:47:43 1514562463.380520: $GPGSA,A,3,10,13,15,18,20,21,24,27,29,32,138,,1.7,0.8,1.3*02
