2017-12-01 14:12:31 1512155551.366637: {"class":"VERSION","release":"3.16","rev":"3.16-4","proto_major":3,"proto_minor":11}
2017-12-01 14:12:31 1512155551.367080: {"class":"DEVICES","devices":[{"class":"DEVICE","path":"/dev/ttyUSB0","driver":"SiRF","subtype":"9\u0006GSD4e_4.1.2-P1_RPATCH.05-F-GPS-4R-1510281 11/03/2015 307","activated":"2017-12-01T19:12:31.266Z","flags":1,"native":1,"bps":4800,"parity":"N","stopbits":1,"cycle":1.00}]}
2017-12-01 14:12:31 1512155551.367210: {"class":"WATCH","enable":true,"json":false,"nmea":true,"raw":0,"scaled":false,"timing":false,"split24":false,"pps":false}
2017-12-01 14:12:31 1512155551.380263: $GPZDA,191232.00,01,12,2017,00,00*6A
2017-12-01 14:12:31 1512155551.380434: $GPGGA,191232,3946.9536,N,08404.9845,W,2,12,0.80,315.32,M,-33.324,M,,*75
2017-12-01 14:12:31 1512155551.380502: $GPRMC,191232,A,3946.9536,N,08404.9845,W,0.0000,0.000,011217,,*38
2017-12-01 14:12:31 1512155551.380564: $GPGSA,A,3,8,10,14,15,18,20,21,24,27,32,12,138,2.0,0.8,1.5*37
2017-12-01 14:12:32 1512155552.687149: $GPGSV,3,1,12,08,07,298,33,10,64,324,49,14,25,249,42,15,15,064,31*74
2017-12-01 14:12:32 1512155552.687331: $GPGSV,3,2,12,18,74,079,43,20,13,115,31,21,34,180,45,24,48,064,48*77
2017-12-01 14:12:32 1512155552.687399: $GPGSV,3,3,12,27,09,264,37,32,42,259,44,12,06,111,22,138,38,213,46*4C
2017-12-01 14:12:32 1512155552.799523: $GPZDA,191233.00,01,12,2017,00,00*6B
2017-12-01 14:12:32 1512155552.799652: $GPGGA,191233,3946.9536,N,08404.9845,W,2,12,0.80,315.32,M,-33.324,M,,*74
2017-12-01 14:12:32 1512155552.799717: $GPRMC,191233,A,3946.9536,N,08404.9845,W,0.0000,0.000,011217,,*39
2017-12-01 14:12:32 1512155552.799777: $GPGSA,A,3,8,10,14,15,18,20,21,24,27,32,12,138,2.0,0.8,1.5*37
2017-12-01 14:12:33 1512155553.425887: $GPZDA,191234.00,01,12,2017,00,00*6C
2017-12-01 14:12:33 1512155553.426056: $GPGGA,191234,3946.9536,N,08404.9845,W,2,12,0.80,315.32,M,-33.324,M,,*73
2017-12-01 14:12:33 1512155553.426124: $GPRMC,191234,A,3946.9536,N,08404.9845,W,0.0000,0.000,011217,,*3E
2017-12-01 14:12:33 1512155553.426185: $GPGSA,A,3,8,10,14,15,18,20,21,24,27,32,12,138,2.0,0.8,1.5*37
2017-12-01 14:12:34 1512155554.380807: $GPZDA,191235.00,01,12,2017,00,00*6D
2017-12-01 14:12:34 1512155554.380997: $GPGGA,191235,3946.9536,N,08404.9845,W,2,12,0.80,315.32,M,-33.324,M,,*72
2017-12-01 14:12:34 1512155554.381068: $GPRMC,191235,A,3946.9536,N,08404.9845,W,0.0000,0.000,011217,,*3F
2017-12-01 14:12:34 1512155554.381132: $GPGSA,A,3,8,10,14,15,18,20,21,24,27,32,12,138,2.0,0.8,1.5*37
2017-12-01 14:12:35 1512155555.714951: $GPGSV,3,1,12,08,07,298,34,10,64,324,49,14,25,249,42,15,15,064,30*72
2017-12-01 14:12:35 1512155555.715149: $GPGSV,3,2,12,18,74,079,43,20,13,115,31,21,34,180,45,24,48,064,48*77
2017-12-01 14:12:35 1512155555.715221: $GPGSV,3,3,12,27,09,264,37,32,42,259,44,12,06,111,22,138,38,213,46*4C
2017-12-01 14:12:35 1512155555.828579: $GPZDA,191236.00,01,12,2017,00,00*6E
2017-12-01 14:12:35 1512155555.828752: $GPGGA,191236,3946.9536,N,08404.9845,W,2,12,0.80,315.32,M,-33.324,M,,*71
2017-12-01 14:12:35 1512155555.828821: $GPRMC,191236,A,3946.9536,N,08404.9845,W,0.0000,0.000,011217,,*3C
2017-12-01 14:12:35 1512155555.828884: $GPGSA,A,3,8,10,14,15,18,20,21,24,27,32,12,138,2.0,0.8,1.5*37
2017-12-01 14:12:36 1512155556.374547: $GPZDA,191237.00,01,12,2017,00,00*6F
2017-12-01 14:12:36 1512155556.374718: $GPGGA,191237,3946.9532,N,08404.9845,W,2,12,0.80,316.08,M,-33.324,M,,*7E
2017-12-01 14:12:36 1512155556.374786: $GPRMC,191237,A,3946.9532,N,08404.9845,W,0.0000,0.000,011217,,*39
2017-12-01 14:12:36 1512155556.374850: $GPGSA,A,3,8,10,14,15,18,20,21,24,27,32,12,138,2.0,0.8,1.5*37
2017-12-01 14:12:37 1512155557.352597: $GPZDA,191238.00,01,12,2017,00,00*60
2017-12-01 14:12:37 1512155557.352773: $GPGGA,191238,3946.9532,N,08404.9845,W,2,12,0.80,316.08,M,-33.324,M,,*71
2017-12-01 14:12:37 1512155557.352843: $GPRMC,191238,A,3946.9532,N,08404.9845,W,0.0000,0.000,011217,,*36
2017-12-01 14:12:37 1512155557.352907: $GPGSA,A,3,8,10,14,15,18,20,21,24,27,32,12,138,2.0,0.8,1.5*37
2017-12-01 14:12:38 1512155558.687871: $GPGSV,3,1,12,08,07,298,33,10,64,324,49,14,25,249,42,15,15,064,30*75
2017-12-01 14:12:38 1512155558.688129: $GPGSV,3,2,12,18,74,079,43,20,13,115,32,21,34,180,44,24,48,064,48*75
2017-12-01 14:12:38 1512155558.688199: $GPGSV,3,3,12,27,09,264,36,32,42,259,44,12,06,111,22,138,38,213,47*4C
2017-12-01 14:12:38 1512155558.801320: $GPZDA,191239.00,01,12,2017,00,00*61
2017-12-01 14:12:38 1512155558.801545: $GPGGA,191239,3946.9532,N,08404.9845,W,2,12,0.80,316.08,M,-33.324,M,,*70
2017-12-01 14:12:38 1512155558.801616: $GPRMC,191239,A,3946.9532,N,08404.9845,W,0.0000,0.000,011217,,*37
2017-12-01 14:12:38 1512155558.801681: $GPGSA,A,3,8,10,14,15,18,20,21,24,27,32,12,138,2.0,0.8,1.5*37
2017-12-01 14:12:39 1512155559.350772: $GPZDA,191240.00,01,12,2017,00,00*6F
2017-12-01 14:12:39 1512155559.350963: $GPGGA,191240,3946.9532,N,08404.9845,W,2,12,0.80,316.08,M,-33.324,M,,*7E
2017-12-01 14:12:39 1512155559.351034: $GPRMC,191240,A,3946.9532,N,08404.9845,W,0.0000,0.000,011217,,*39
2017-12-01 14:12:39 1512155559.351098: $GPGSA,A,3,8,10,14,15,18,20,21,24,27,32,12,138,2.0,0.8,1.5*37
2017-12-01 14:12:40 1512155560.350467: $GPZDA,191241.00,01,12,2017,00,00*6E
2017-12-01 14:12:40 1512155560.350667: $GPGGA,191241,3946.9532,N,08404.9845,W,2,12,0.80,316.08,M,-33.324,M,,*7F
2017-12-01 14:12:40 1512155560.350762: $GPRMC,191241,A,3946.9532,N,08404.9845,W,0.0000,0.000,011217,,*38
2017-12-01 14:12:40 1512155560.350829: $GPGSA,A,3,8,10,14,15,18,20,21,24,27,32,12,138,2.0,0.8,1.5*37
2017-12-01 14:12:41 1512155561.687480: $GPGSV,3,1,12,08,07,298,34,10,64,324,49,14,25,249,42,15,15,064,29*7A
2017-12-01 14:12:41 1512155561.687678: $GPGSV,3,2,12,18,74,079,42,20,13,115,32,21,34,180,44,24,48,064,48*74
2017-12-01 14:12:41 1512155561.687748: $GPGSV,3,3,12,27,09,264,36,32,42,259,44,12,06,111,22,138,38,213,46*4D
2017-12-01 14:12:41 1512155561.800932: $GPZDA,191242.00,01,12,2017,00,00*6D
2017-12-01 14:12:41 1512155561.801129: $GPGGA,191242,3946.9532,N,08404.9845,W,2,12,0.80,316.08,M,-33.324,M,,*7C
2017-12-01 14:12:41 1512155561.801199: $GPRMC,191242,A,3946.9532,N,08404.9845,W,0.0000,0.000,011217,,*3B
2017-12-01 14:12:41 1512155561.801263: $GPGSA,A,3,8,10,14,15,18,20,21,24,27,32,12,138,2.0,0.8,1.5*37
2017-12-01 14:12:42 1512155562.351721: $GPZDA,191243.00,01,12,2017,00,00*6C
2017-12-01 14:12:42 1512155562.351913: $GPGGA,191243,3946.9532,N,08404.9845,W,2,12,0.80,316.08,M,-33.324,M,,*7D
2017-12-01 14:12:42 1512155562.352001: $GPRMC,191243,A,3946.9532,N,08404.9845,W,0.0000,0.000,011217,,*3A
2017-12-01 14:12:42 1512155562.352066: $GPGSA,A,3,8,10,14,15,18,20,21,24,27,32,12,138,2.0,0.8,1.5*37
2017-12-01 14:12:43 1512155563.352168: $GPZDA,191244.00,01,12,2017,00,00*6B
2017-12-01 14:12:43 1512155563.352344: $GPGGA,191244,3946.9532,N,08404.9845,W,2,12,0.80,316.08,M,-33.324,M,,*7A
2017-12-01 14:12:43 1512155563.352414: $GPRMC,191244,A,3946.9532,N,08404.9845,W,0.0000,0.000,011217,,*3D
2017-12-01 14:12:43 1512155563.352478: $GPGSA,A,3,8,10,14,15,18,20,21,24,27,32,12,138,2.0,0.8,1.5*37
2017-12-01 14:12:44 1512155564.681614: $GPGSV,3,1,12,08,07,298,34,10,64,324,49,14,25,249,42,15,15,064,29*7A
2017-12-01 14:12:44 1512155564.681818: $GPGSV,3,2,12,18,74,079,43,20,13,115,32,21,34,180,44,24,48,064,48*75
2017-12-01 14:12:44 1512155564.681890: $GPGSV,3,3,12,27,09,264,30,32,42,259,44,12,06,111,27,138,38,213,47*4F
2017-12-01 14:12:44 1512155564.794979: $GPZDA,191245.00,01,12,2017,00,00*6A
2017-12-01 14:12:44 1512155564.795158: $GPGGA,191245,3946.9532,N,08404.9845,W,2,12,0.80,316.08,M,-33.324,M,,*7B
2017-12-01 14:12:44 1512155564.795228: $GPRMC,191245,A,3946.9532,N,08404.9845,W,0.0000,0.000,011217,,*3C
2017-12-01 14:12:44 1512155564.795291: $GPGSA,A,3,8,10,14,15,18,20,21,24,27,32,12,138,2.0,0.8,1.5*37
2017-12-01 14:12:45 1512155565.352080: $GPZDA,191246.00,01,12,2017,00,00*69
2017-12-01 14:12:45 1512155565.352262: $GPGGA,191246,3946.9532,N,08404.9845,W,2,12,0.80,316.08,M,-33.324,M,,*78
2017-12-01 14:12:45 1512155565.352358: $GPRMC,191246,A,3946.9532,N,08404.9845,W,0.0000,0.000,011217,,*3F
2017-12-01 14:12:45 1512155565.352426: $GPGSA,A,3,8,10,14,15,18,20,21,24,27,32,12,138,2.0,0.8,1.5*37
2017-12-01 14:12:46 1512155566.351701: $GPZDA,191247.00,01,12,2017,00,00*68
2017-12-01 14:12:46 1512155566.351895: $GPGGA,191247,3946.9532,N,08404.9845,W,2,12,0.80,316.08,M,-33.324,M,,*79
2017-12-01 14:12:46 1512155566.351982: $GPRMC,191247,A,3946.9532,N,08404.9845,W,0.0000,0.000,011217,,*3E
2017-12-01 14:12:46 1512155566.352044: $GPGSA,A,3,8,10,14,15,18,20,21,24,27,32,12,138,2.0,0.8,1.5*37
2017-12-01 14:12:47 1512155567.686130: $GPGSV,3,1,12,08,07,298,34,10,64,324,49,14,25,249,43,15,15,064,27*75
2017-12-01 14:12:47 1512155567.686313: $GPGSV,3,2,12,18,74,079,43,20,13,115,32,21,34,180,44,24,48,064,48*75
2017-12-01 14:12:47 1512155567.686379: $GPGSV,3,3,12,27,09,264,30,32,42,259,44,12,06,111,28,138,38,213,46*41
2017-12-01 14:12:47 1512155567.799536: $GPZDA,191248.00,01,12,2017,00,00*67
2017-12-01 14:12:47 1512155567.799712: $GPGGA,191248,3946.9532,N,08404.9845,W,2,12,0.80,316.08,M,-33.324,M,,*76
2017-12-01 14:12:47 1512155567.799799: $GPRMC,191248,A,3946.9532,N,08404.9845,W,0.0000,0.000,011217,,*31
2017-12-01 14:12:47 1512155567.799862: $GPGSA,A,3,8,10,14,15,18,20,21,24,27,32,12,138,2.0,0.8,1.5*37
2017-12-01 14:12:48 1512155568.424990: $GPZDA,191249.00,01,12,2017,00,00*66
2017-12-01 14:12:48 1512155568.425179: $GPGGA,191249,3946.9532,N,08404.9845,W,2,12,0.80,316.08,M,-33.324,M,,*77
2017-12-01 14:12:48 1512155568.425248: $GPRMC,191249,A,3946.9532,N,08404.9845,W,0.0000,0.000,011217,,*30
2017-12-01 14:12:48 1512155568.425309: $GPGSA,A,3,8,10,14,15,18,20,21,24,27,32,12,138,2.0,0.8,1.5*37
2017-12-01 14:12:49 1512155569.347055: $GPZDA,191250.00,01,12,2017,00,00*6E
2017-12-01 14:12:49 1512155569.347223: $GPGGA,191250,3946.9532,N,08404.9845,W,2,12,0.80,316.08,M,-33.324,M,,*7F
2017-12-01 14:12:49 1512155569.347289: $GPRMC,191250,A,3946.9532,N,08404.9845,W,0.0000,0.000,011217,,*38
2017-12-01 14:12:49 1512155569.347350: $GPGSA,A,3,8,10,14,15,18,20,21,24,27,32,12,138,2.0,0.8,1.5*37
2017-12-01 14:12:50 1512155570.682780: $GPGSV,3,1,12,08,07,298,33,10,64,324,49,14,25,249,43,15,15,064,27*72
2017-12-01 14:12:50 1512155570.682987: $GPGSV,3,2,12,18,74,079,43,20,13,115,32,21,34,180,44,24,48,064,49*74
2017-12-01 14:12:50 1512155570.683055: $GPGSV,3,3,12,27,09,264,29,32,42,259,45,12,06,111,28,138,38,213,46*48
2017-12-01 14:12:50 1512155570.796250: $GPZDA,191251.00,01,12,2017,00,00*6F
2017-12-01 14:12:50 1512155570.796419: $GPGGA,191251,3946.9532,N,08404.9845,W,2,12,0.80,316.08,M,-33.324,M,,*7E
2017-12-01 14:12:50 1512155570.796486: $GPRMC,191251,A,3946.9532,N,08404.9845,W,0.0000,0.000,011217,,*39
2017-12-01 14:12:50 1512155570.796547: $GPGSA,A,3,8,10,14,15,18,20,21,24,27,32,12,138,2.0,0.8,1.5*37
2017-12-01 14:12:51 1512155571.350739: $GPZDA,191252.00,01,12,2017,00,00*6C
2017-12-01 14:12:51 1512155571.350943: $GPGGA,191252,3946.9532,N,08404.9845,W,2,12,0.80,316.08,M,-33.324,M,,*7D
2017-12-01 14:12:51 1512155571.351011: $GPRMC,191252,A,3946.9532,N,08404.9845,W,0.0000,0.000,011217,,*3A
2017-12-01 14:12:51 1512155571.351072: $GPGSA,A,3,8,10,14,15,18,20,21,24,27,32,12,138,2.0,0.8,1.5*37
