2017-12-01 13:55:58 1512154558.087398: {"class":"VERSION","release":"3.16","rev":"3.16-4","proto_major":3,"proto_minor":11}
2017-12-01 13:55:58 1512154558.087791: {"class":"DEVICES","devices":[{"class":"DEVICE","path":"/dev/ttyUSB0","driver":"SiRF","subtype":"9\u0006GSD4e_4.1.2-P1_RPATCH.05-F-GPS-4R-1510281 11/03/2015 307","activated":"2017-12-01T18:55:57.579Z","flags":1,"native":1,"bps":4800,"parity":"N","stopbits":1,"cycle":1.00}]}
2017-12-01 13:55:58 1512154558.087906: {"class":"WATCH","enable":true,"json":false,"nmea":true,"raw":0,"scaled":false,"timing":false,"split24":false,"pps":false}
2017-12-01 13:55:58 1512154558.412957: $GPZDA,185559.00,01,12,2017,00,00*65
2017-12-01 13:55:58 1512154558.413149: $GPGGA,185559,3946.9588,N,08404.9857,W,2,11,0.80,294.35,M,-33.324,M,,*70
2017-12-01 13:55:58 1512154558.413218: $GPRMC,185559,A,3946.9588,N,08404.9857,W,0.0000,0.000,011217,,*31
2017-12-01 13:55:58 1512154558.413280: $GPGSA,A,3,8,10,14,15,18,20,21,24,32,27,138,,2.0,0.8,1.5*34
2017-12-01 13:55:59 1512154559.773307: $GPGSV,3,1,12,08,08,304,38,10,58,318,49,14,19,244,39,15,21,060,42*7D
2017-12-01 13:55:59 1512154559.773488: $GPGSV,3,2,12,18,77,051,43,20,18,111,44,21,42,181,45,24,52,075,48*78
2017-12-01 13:55:59 1512154559.773554: $GPGSV,3,3,12,32,36,253,44,27,13,270,36,12,01,117,16,138,38,213,47*4D
2017-12-01 13:55:59 1512154559.886707: $GPZDA,185600.00,01,12,2017,00,00*6A
2017-12-01 13:55:59 1512154559.886893: $GPGGA,185600,3946.9588,N,08404.9857,W,2,12,0.80,294.35,M,-33.324,M,,*7C
2017-12-01 13:55:59 1512154559.886961: $GPRMC,185600,A,3946.9588,N,08404.9857,W,0.0000,0.000,011217,,*3E
2017-12-01 13:55:59 1512154559.887022: $GPGSA,A,3,8,10,14,15,18,20,21,24,32,27,12,138,2.0,0.8,1.5*37
2017-12-01 13:56:00 1512154560.512138: $GPZDA,185601.00,01,12,2017,00,00*6B
2017-12-01 13:56:00 1512154560.512316: $GPGGA,185601,3946.9588,N,08404.9857,W,2,12,0.80,294.35,M,-33.324,M,,*7D
2017-12-01 13:56:00 1512154560.512385: $GPRMC,185601,A,3946.9588,N,08404.9857,W,0.0000,0.000,011217,,*3F
2017-12-01 13:56:00 1512154560.512447: $GPGSA,A,3,8,10,14,15,18,20,21,24,32,27,12,138,2.0,0.8,1.5*37
2017-12-01 13:56:01 1512154561.412946: $GPZDA,185602.00,01,12,2017,00,00*68
2017-12-01 13:56:01 1512154561.413125: $GPGGA,185602,3946.9584,N,08404.9857,W,2,12,0.80,295.11,M,-33.324,M,,*75
2017-12-01 13:56:01 1512154561.413192: $GPRMC,185602,A,3946.9584,N,08404.9857,W,0.0000,0.000,011217,,*30
2017-12-01 13:56:01 1512154561.413253: $GPGSA,A,3,8,10,14,15,18,20,21,24,32,27,12,138,2.0,0.8,1.5*37
2017-12-01 13:56:02 1512154562.748840: $GPGSV,3,1,12,08,08,304,38,10,58,318,49,14,19,244,39,15,21,060,42*7D
2017-12-01 13:56:02 1512154562.749055: $GPGSV,3,2,12,18,77,051,43,20,18,111,44,21,42,181,45,24,52,075,48*78
2017-12-01 13:56:02 1512154562.749125: $GPGSV,3,3,12,32,36,253,43,27,13,270,27,12,01,117,16,138,38,213,47*4A
2017-12-01 13:56:02 1512154562.862165: $GPZDA,185603.00,01,12,2017,00,00*69
2017-12-01 13:56:02 1512154562.862338: $GPGGA,185603,3946.9584,N,08404.9857,W,2,12,0.80,295.11,M,-33.324,M,,*74
2017-12-01 13:56:02 1512154562.862405: $GPRMC,185603,A,3946.9584,N,08404.9857,W,0.0000,0.000,011217,,*31
2017-12-01 13:56:02 1512154562.862466: $GPGSA,A,3,8,10,14,15,18,20,21,24,32,27,12,138,2.0,0.8,1.5*37
2017-12-01 13:56:03 1512154563.411756: $GPZDA,185604.00,01,12,2017,00,00*6E
2017-12-01 13:56:03 1512154563.411935: $GPGGA,185604,3946.9588,N,08404.9850,W,2,12,0.80,295.83,M,-33.324,M,,*73
2017-12-01 13:56:03 1512154563.412002: $GPRMC,185604,A,3946.9588,N,08404.9850,W,0.0000,0.000,011217,,*3D
2017-12-01 13:56:03 1512154563.412063: $GPGSA,A,3,8,10,14,15,18,20,21,24,32,27,12,138,2.0,0.8,1.5*37
2017-12-01 13:56:04 1512154564.413856: $GPZDA,185605.00,01,12,2017,00,00*6F
2017-12-01 13:56:04 1512154564.414027: $GPGGA,185605,3946.9588,N,08404.9850,W,2,12,0.80,295.83,M,-33.324,M,,*72
2017-12-01 13:56:04 1512154564.414094: $GPRMC,185605,A,3946.9588,N,08404.9850,W,0.0000,0.000,011217,,*3C
2017-12-01 13:56:04 1512154564.414154: $GPGSA,A,3,8,10,14,15,18,20,21,24,32,27,12,138,2.0,0.8,1.5*37
2017-12-01 13:56:05 1512154565.774002: $GPGSV,3,1,12,08,08,304,39,10,58,318,49,14,19,244,38,15,21,060,42*7D
2017-12-01 13:56:05 1512154565.774236: $GPGSV,3,2,12,18,77,051,43,20,18,111,44,21,42,181,45,24,52,075,48*78
2017-12-01 13:56:05 1512154565.774307: $GPGSV,3,3,12,32,36,253,43,27,13,270,34,12,01,117,16,138,38,213,46*49
2017-12-01 13:56:05 1512154565.887587: $GPZDA,185606.00,01,12,2017,00,00*6C
2017-12-01 13:56:05 1512154565.887798: $GPGGA,185606,3946.9588,N,08404.9850,W,2,12,0.80,295.83,M,-33.324,M,,*71
2017-12-01 13:56:05 1512154565.887903: $GPRMC,185606,A,3946.9588,N,08404.9850,W,0.0000,0.000,011217,,*3F
2017-12-01 13:56:05 1512154565.887982: $GPGSA,A,3,8,10,14,15,18,20,21,24,32,27,12,138,2.0,0.8,1.5*37
2017-12-01 13:56:06 1512154566.410798: $GPZDA,185607.00,01,12,2017,00,00*6D
2017-12-01 13:56:06 1512154566.410980: $GPGGA,185607,3946.9588,N,08404.9850,W,2,12,0.80,295.83,M,-33.324,M,,*70
2017-12-01 13:56:06 1512154566.411049: $GPRMC,185607,A,3946.9588,N,08404.9850,W,0.0000,0.000,011217,,*3E
2017-12-01 13:56:06 1512154566.411111: $GPGSA,A,3,8,10,14,15,18,20,21,24,32,27,12,138,2.0,0.8,1.5*37
2017-12-01 13:56:07 1512154567.437965: $GPZDA,185608.00,01,12,2017,00,00*62
2017-12-01 13:56:07 1512154567.438130: $GPGGA,185608,3946.9588,N,08404.9850,W,2,12,0.80,295.83,M,-33.324,M,,*7F
2017-12-01 13:56:07 1512154567.438196: $GPRMC,185608,A,3946.9588,N,08404.9850,W,0.0000,0.000,011217,,*31
2017-12-01 13:56:07 1512154567.438259: $GPGSA,A,3,8,10,14,15,18,20,21,24,32,27,12,138,2.0,0.8,1.5*37
2017-12-01 13:56:08 1512154568.749877: $GPGSV,3,1,12,08,08,304,38,10,58,318,49,14,19,244,38,15,21,060,42*7C
2017-12-01 13:56:08 1512154568.750059: $GPGSV,3,2,12,18,77,051,42,20,18,111,44,21,42,181,45,24,52,075,48*79
2017-12-01 13:56:08 1512154568.750125: $GPGSV,3,3,12,32,36,253,43,27,13,270,35,12,01,117,18,138,38,213,47*47
2017-12-01 13:56:08 1512154568.863313: $GPZDA,185609.00,01,12,2017,00,00*63
2017-12-01 13:56:08 1512154568.863483: $GPGGA,185609,3946.9588,N,08404.9850,W,2,12,0.80,295.83,M,-33.324,M,,*7E
2017-12-01 13:56:08 1512154568.863568: $GPRMC,185609,A,3946.9588,N,08404.9850,W,0.0000,0.000,011217,,*30
2017-12-01 13:56:08 1512154568.863631: $GPGSA,A,3,8,10,14,15,18,20,21,24,32,27,12,138,2.0,0.8,1.5*37
2017-12-01 13:56:09 1512154569.414218: $GPZDA,185610.00,01,12,2017,00,00*6B
2017-12-01 13:56:09 1512154569.414388: $GPGGA,185610,3946.9588,N,08404.9850,W,2,12,0.80,295.83,M,-33.324,M,,*76
2017-12-01 13:56:09 1512154569.414455: $GPRMC,185610,A,3946.9588,N,08404.9850,W,0.0000,0.000,011217,,*38
2017-12-01 13:56:09 1512154569.414535: $GPGSA,A,3,8,10,14,15,18,20,21,24,32,27,12,138,2.0,0.8,1.5*37
2017-12-01 13:56:10 1512154570.438311: $GPZDA,185611.00,01,12,2017,00,00*6A
2017-12-01 13:56:10 1512154570.438481: $GPGGA,185611,3946.9588,N,08404.9850,W,2,12,0.80,295.83,M,-33.324,M,,*77
2017-12-01 13:56:10 1512154570.438567: $GPRMC,185611,A,3946.9588,N,08404.9850,W,0.0000,0.000,011217,,*39
2017-12-01 13:56:10 1512154570.438629: $GPGSA,A,3,8,10,14,15,18,20,21,24,32,27,12,138,2.0,0.8,1.5*37
2017-12-01 13:56:11 1512154571.747750: $GPGSV,3,1,12,08,08,304,39,10,58,318,50,14,19,244,38,15,21,060,42*75
2017-12-01 13:56:11 1512154571.747931: $GPGSV,3,2,12,18,77,051,42,20,18,111,44,21,42,181,45,24,52,075,48*79
2017-12-01 13:56:11 1512154571.747997: $GPGSV,3,3,12,32,36,253,43,27,13,270,35,12,01,117,19,138,38,213,46*47
2017-12-01 13:56:11 1512154571.861152: $GPZDA,185612.00,01,12,2017,00,00*69
2017-12-01 13:56:11 1512154571.861322: $GPGGA,185612,3946.9588,N,08404.9850,W,2,12,0.80,295.83,M,-33.324,M,,*74
2017-12-01 13:56:11 1512154571.861452: $GPRMC,185612,A,3946.9588,N,08404.9850,W,0.0000,0.000,011217,,*3A
2017-12-01 13:56:11 1512154571.861538: $GPGSA,A,3,8,10,14,15,18,20,21,24,32,27,12,138,2.0,0.8,1.5*37
