2017-12-01 12:05:25 1512147925.357020: {"class":"VERSION","release":"3.16","rev":"3.16-4","proto_major":3,"proto_minor":11}
2017-12-01 12:05:25 1512147925.357415: {"class":"DEVICES","devices":[{"class":"DEVICE","path":"/dev/ttyUSB0","driver":"SiRF","subtype":"9\u0006GSD4e_4.1.2-P1_RPATCH.05-F-GPS-4R-1510281 11/03/2015 307","activated":"2017-12-01T17:05:25.309Z","flags":1,"native":1,"bps":4800,"parity":"N","stopbits":1,"cycle":1.00}]}
2017-12-01 12:05:25 1512147925.357532: {"class":"WATCH","enable":true,"json":false,"nmea":true,"raw":0,"scaled":false,"timing":false,"split24":false,"pps":false}
2017-12-01 12:05:25 1512147925.423159: $GPZDA,170526.00,01,12,2017,00,00*67
2017-12-01 12:05:25 1512147925.423327: $GPGGA,170526,3946.9573,N,08404.9818,W,2,11,0.80,299.28,M,-33.324,M,,*7C
2017-12-01 12:05:25 1512147925.423394: $GPRMC,170526,A,3946.9573,N,08404.9818,W,0.0000,0.000,011217,,*3C
2017-12-01 12:05:25 1512147925.423455: $GPGSA,A,3,10,13,15,18,20,21,24,27,29,5,138,,2.0,0.8,1.5*34
2017-12-01 12:05:26 1512147926.355244: $GPZDA,170527.00,01,12,2017,00,00*66
2017-12-01 12:05:26 1512147926.361271: $GPGGA,170527,3946.9573,N,08404.9818,W,2,11,0.80,299.28,M,-33.324,M,,*7D
2017-12-01 12:05:26 1512147926.361438: $GPRMC,170527,A,3946.9573,N,08404.9818,W,0.0000,0.000,011217,,*3D
2017-12-01 12:05:26 1512147926.361535: $GPGSA,A,3,10,13,15,18,20,21,24,27,29,5,138,,2.0,0.8,1.5*34
2017-12-01 12:05:27 1512147927.690923: $GPGSV,3,1,12,10,20,279,41,13,34,046,45,15,66,054,44,18,50,295,46*71
2017-12-01 12:05:27 1512147927.691104: $GPGSV,3,2,12,20,55,064,46,21,75,289,45,24,29,142,44,27,14,318,36*7F
2017-12-01 12:05:27 1512147927.691169: $GPGSV,3,3,12,29,15,192,33,04,04,135,07,05,07,084,13,138,38,213,46*40
2017-12-01 12:05:27 1512147927.804311: $GPZDA,170528.00,01,12,2017,00,00*69
2017-12-01 12:05:27 1512147927.804461: $GPGGA,170528,3946.9573,N,08404.9818,W,2,11,0.80,299.28,M,-33.324,M,,*72
2017-12-01 12:05:27 1512147927.804528: $GPRMC,170528,A,3946.9573,N,08404.9818,W,0.0000,0.000,011217,,*32
2017-12-01 12:05:27 1512147927.804608: $GPGSA,A,3,10,13,15,18,20,21,24,27,29,5,138,,2.0,0.8,1.5*34
2017-12-01 12:05:28 1512147928.350189: $GPZDA,170529.00,01,12,2017,00,00*68
2017-12-01 12:05:28 1512147928.350363: $GPGGA,170529,3946.9573,N,08404.9818,W,2,11,0.80,299.28,M,-33.324,M,,*73
2017-12-01 12:05:28 1512147928.350430: $GPRMC,170529,A,3946.9573,N,08404.9818,W,0.0000,0.000,011217,,*33
2017-12-01 12:05:28 1512147928.350492: $GPGSA,A,3,10,13,15,18,20,21,24,27,29,5,138,,2.0,0.8,1.5*34
2017-12-01 12:05:29 1512147929.353424: $GPZDA,170530.00,01,12,2017,00,00*60
2017-12-01 12:05:29 1512147929.353621: $GPGGA,170530,3946.9573,N,08404.9818,W,2,11,0.80,299.28,M,-33.324,M,,*7B
2017-12-01 12:05:29 1512147929.353689: $GPRMC,170530,A,3946.9573,N,08404.9818,W,0.0000,0.000,011217,,*3B
2017-12-01 12:05:29 1512147929.353769: $GPGSA,A,3,10,13,15,18,20,21,24,27,29,5,138,,2.0,0.8,1.5*34
2017-12-01 12:05:29 1512147929.353828: $GPGBS,170530,2.67,M,3.86,M,8.82,M*32
2017-12-01 12:05:30 1512147930.687408: $GPGSV,3,1,12,10,20,279,42,13,34,046,44,15,66,054,44,18,50,295,46*73
2017-12-01 12:05:30 1512147930.687629: $GPGSV,3,2,12,20,55,064,45,21,75,289,45,24,29,142,44,27,14,318,33*79
2017-12-01 12:05:30 1512147930.687713: $GPGSV,3,3,12,29,15,192,33,04,04,135,00,05,07,084,17,138,38,213,46*43
2017-12-01 12:05:30 1512147930.800857: $GPZDA,170531.00,01,12,2017,00,00*61
2017-12-01 12:05:30 1512147930.801010: $GPGGA,170531,3946.9573,N,08404.9818,W,2,11,0.80,299.28,M,-33.324,M,,*7A
2017-12-01 12:05:30 1512147930.801076: $GPRMC,170531,A,3946.9573,N,08404.9818,W,0.0000,0.000,011217,,*3A
2017-12-01 12:05:30 1512147930.801137: $GPGSA,A,3,10,13,15,18,20,21,24,27,29,5,138,,2.0,0.8,1.5*34
2017-12-01 12:05:31 1512147931.351730: $GPZDA,170532.00,01,12,2017,00,00*62
2017-12-01 12:05:31 1512147931.357868: $GPGGA,170532,3946.9573,N,08404.9818,W,2,11,0.80,299.28,M,-33.324,M,,*79
2017-12-01 12:05:31 1512147931.357995: $GPRMC,170532,A,3946.9573,N,08404.9818,W,0.0000,0.000,011217,,*39
2017-12-01 12:05:31 1512147931.358115: $GPGSA,A,3,10,13,15,18,20,21,24,27,29,5,138,,2.0,0.8,1.5*34
2017-12-01 12:05:32 1512147932.353781: $GPZDA,170533.00,01,12,2017,00,00*63
2017-12-01 12:05:32 1512147932.353951: $GPGGA,170533,3946.9573,N,08404.9818,W,2,11,0.80,299.28,M,-33.324,M,,*78
2017-12-01 12:05:32 1512147932.354019: $GPRMC,170533,A,3946.9573,N,08404.9818,W,0.0000,0.000,011217,,*38
2017-12-01 12:05:32 1512147932.354079: $GPGSA,A,3,10,13,15,18,20,21,24,27,29,5,138,,2.0,0.8,1.5*34
2017-12-01 12:05:33 1512147933.687000: $GPGSV,3,1,12,10,20,279,42,13,34,046,44,15,66,054,44,18,50,295,46*73
2017-12-01 12:05:33 1512147933.687179: $GPGSV,3,2,12,20,55,064,45,21,75,289,45,24,29,142,44,27,14,318,34*7E
2017-12-01 12:05:33 1512147933.687246: $GPGSV,3,3,12,29,15,192,33,04,04,135,00,05,07,084,17,138,38,213,47*42
2017-12-01 12:05:33 1512147933.800388: $GPZDA,170534.00,01,12,2017,00,00*64
2017-12-01 12:05:33 1512147933.800577: $GPGGA,170534,3946.9573,N,08404.9818,W,2,11,0.80,299.28,M,-33.324,M,,*7F
2017-12-01 12:05:33 1512147933.800644: $GPRMC,170534,A,3946.9573,N,08404.9818,W,0.0000,0.000,011217,,*3F
2017-12-01 12:05:33 1512147933.800723: $GPGSA,A,3,10,13,15,18,20,21,24,27,29,5,138,,2.0,0.8,1.5*34
2017-12-01 12:05:34 1512147934.353983: $GPZDA,170535.00,01,12,2017,00,00*65
2017-12-01 12:05:34 1512147934.354153: $GPGGA,170535,3946.9573,N,08404.9818,W,2,11,0.80,299.28,M,-33.324,M,,*7E
2017-12-01 12:05:34 1512147934.354219: $GPRMC,170535,A,3946.9573,N,08404.9818,W,0.0000,0.000,011217,,*3E
2017-12-01 12:05:34 1512147934.354281: $GPGSA,A,3,10,13,15,18,20,21,24,27,29,5,138,,2.0,0.8,1.5*34
