2017-11-16 14:49:37 1510861777.566230: {"class":"VERSION","release":"3.17","rev":"3.17","proto_major":3,"proto_minor":12}
2017-11-16 14:49:37 1510861777.566667: {"class":"DEVICES","devices":[{"class":"DEVICE","path":"/dev/ttyUSB0","driver":"SiRF","subtype":"9\u0006GSD4e_4.1.2-P1_RPATCH.05-F-GPS-4R-1510281 11/03/2015 307","activated":"2017-11-16T19:49:37.528Z","flags":1,"native":1,"bps":4800,"parity":"N","stopbits":1,"cycle":1.00}]}
2017-11-16 14:49:37 1510861777.566778: {"class":"WATCH","enable":true,"json":false,"nmea":true,"raw":0,"scaled":false,"timing":false,"split24":false,"pps":false}
2017-11-16 14:49:38 1510861778.491278: $GPZDA,194937.00,16,11,2017,00,00*64
2017-11-16 14:49:38 1510861778.491458: $GPGGA,194937,3946.9572,N,08404.9841,W,2,11,0.80,302.62,M,-33.324,M,,*7A
2017-11-16 14:49:38 1510861778.491524: $GPRMC,194937,A,3946.9572,N,08404.9841,W,0.0000,0.000,161117,,*32
2017-11-16 14:49:38 1510861778.491580: $GPGSA,A,3,8,10,15,18,21,20,24,27,32,14,138,,1.6,0.8,1.3*37
2017-11-16 14:49:39 1510861779.863413: $GPGSV,3,1,11,08,08,307,34,10,55,313,50,15,24,058,50,18,77,033,45*7F
2017-11-16 14:49:39 1510861779.863587: $GPGSV,3,2,11,21,46,183,47,20,21,108,43,24,53,081,49,27,14,273,38*76
2017-11-16 14:49:39 1510861779.863648: $GPGSV,3,3,11,32,33,250,46,14,17,241,43,138,38,213,44*7F
2017-11-16 14:49:39 1510861779.977006: $GPZDA,194938.00,16,11,2017,00,00*6B
2017-11-16 14:49:39 1510861779.977164: $GPGGA,194938,3946.9572,N,08404.9841,W,2,11,0.80,302.62,M,-33.324,M,,*75
2017-11-16 14:49:39 1510861779.977227: $GPRMC,194938,A,3946.9572,N,08404.9841,W,0.0000,0.000,161117,,*3D
2017-11-16 14:49:39 1510861779.977283: $GPGSA,A,3,8,10,15,18,21,20,24,27,32,14,138,,1.6,0.8,1.3*37
2017-11-16 14:49:40 1510861780.529025: $GPZDA,194939.00,16,11,2017,00,00*6A
2017-11-16 14:49:40 1510861780.529187: $GPGGA,194939,3946.9572,N,08404.9841,W,2,11,0.80,302.62,M,-33.324,M,,*74
2017-11-16 14:49:40 1510861780.529251: $GPRMC,194939,A,3946.9572,N,08404.9841,W,0.0000,0.000,161117,,*3C
2017-11-16 14:49:40 1510861780.529307: $GPGSA,A,3,8,10,15,18,21,20,24,27,32,14,138,,1.6,0.8,1.3*37
2017-11-16 14:49:41 1510861781.489607: $GPZDA,194940.00,16,11,2017,00,00*64
2017-11-16 14:49:41 1510861781.489778: $GPGGA,194940,3946.9572,N,08404.9841,W,2,11,0.80,302.62,M,-33.324,M,,*7A
2017-11-16 14:49:41 1510861781.489842: $GPRMC,194940,A,3946.9572,N,08404.9841,W,0.0000,0.000,161117,,*32
2017-11-16 14:49:41 1510861781.489899: $GPGSA,A,3,8,10,15,18,21,20,24,27,32,14,138,,1.6,0.8,1.3*37
2017-11-16 14:49:42 1510861782.827893: $GPGSV,3,1,11,08,08,307,33,10,55,313,50,15,24,058,50,18,77,033,45*78
2017-11-16 14:49:42 1510861782.830955: $GPGSV,3,2,11,21,46,183,47,20,21,108,43,24,53,081,49,27,14,273,38*76
2017-11-16 14:49:42 1510861782.831072: $GPGSV,3,3,11,32,33,250,46,14,17,241,43,138,38,213,42*79
2017-11-16 14:49:42 1510861782.941290: $GPZDA,194941.00,16,11,2017,00,00*65
2017-11-16 14:49:42 1510861782.941468: $GPGGA,194941,3946.9572,N,08404.9841,W,2,11,0.80,302.62,M,-33.324,M,,*7B
2017-11-16 14:49:42 1510861782.941531: $GPRMC,194941,A,3946.9572,N,08404.9841,W,0.0000,0.000,161117,,*33
2017-11-16 14:49:42 1510861782.941589: $GPGSA,A,3,8,10,15,18,21,20,24,27,32,14,138,,1.6,0.8,1.3*37
2017-11-16 14:49:43 1510861783.522012: $GPZDA,194942.00,16,11,2017,00,00*66
2017-11-16 14:49:43 1510861783.522201: $GPGGA,194942,3946.9572,N,08404.9841,W,2,11,0.80,302.62,M,-33.324,M,,*78
2017-11-16 14:49:43 1510861783.522263: $GPRMC,194942,A,3946.9572,N,08404.9841,W,0.0000,0.000,161117,,*30
2017-11-16 14:49:43 1510861783.522326: $GPGSA,A,3,8,10,15,18,21,20,24,27,32,14,138,,1.6,0.8,1.3*37
2017-11-16 14:49:44 1510861784.528771: $GPZDA,194943.00,16,11,2017,00,00*67
2017-11-16 14:49:44 1510861784.528954: $GPGGA,194943,3946.9572,N,08404.9841,W,2,11,0.80,302.62,M,-33.324,M,,*79
2017-11-16 14:49:44 1510861784.529015: $GPRMC,194943,A,3946.9572,N,08404.9841,W,0.0000,0.000,161117,,*31
2017-11-16 14:49:44 1510861784.529071: $GPGSA,A,3,8,10,15,18,21,20,24,27,32,14,138,,1.6,0.8,1.3*37
2017-11-16 14:49:45 1510861785.864541: $GPGSV,3,1,11,08,08,307,34,10,55,313,50,15,24,058,50,18,77,033,45*7F
2017-11-16 14:49:45 1510861785.864759: $GPGSV,3,2,11,21,46,183,47,20,21,108,42,24,53,081,48,27,14,273,38*76
2017-11-16 14:49:45 1510861785.864822: $GPGSV,3,3,11,32,33,250,46,14,17,241,43,138,38,213,43*78
2017-11-16 14:49:45 1510861785.978162: $GPZDA,194944.00,16,11,2017,00,00*60
2017-11-16 14:49:45 1510861785.978321: $GPGGA,194944,3946.9572,N,08404.9841,W,2,11,0.80,302.62,M,-33.324,M,,*7E
2017-11-16 14:49:45 1510861785.978382: $GPRMC,194944,A,3946.9572,N,08404.9841,W,0.0000,0.000,161117,,*36
2017-11-16 14:49:45 1510861785.978438: $GPGSA,A,3,8,10,15,18,21,20,24,27,32,14,138,,1.6,0.8,1.3*37
2017-11-16 14:49:46 1510861786.490177: $GPZDA,194945.00,16,11,2017,00,00*61
2017-11-16 14:49:46 1510861786.490384: $GPGGA,194945,3946.9572,N,08404.9841,W,2,11,0.80,302.62,M,-33.324,M,,*7F
2017-11-16 14:49:46 1510861786.490453: $GPRMC,194945,A,3946.9572,N,08404.9841,W,0.0000,0.000,161117,,*37
2017-11-16 14:49:46 1510861786.490509: $GPGSA,A,3,8,10,15,18,21,20,24,27,32,14,138,,1.6,0.8,1.3*37
2017-11-16 14:49:47 1510861787.489608: $GPZDA,194946.00,16,11,2017,00,00*62
2017-11-16 14:49:47 1510861787.489773: $GPGGA,194946,3946.9572,N,08404.9841,W,2,11,0.80,302.62,M,-33.324,M,,*7C
2017-11-16 14:49:47 1510861787.489834: $GPRMC,194946,A,3946.9572,N,08404.9841,W,0.0000,0.000,161117,,*34
2017-11-16 14:49:47 1510861787.489891: $GPGSA,A,3,8,10,15,18,21,20,24,27,32,14,138,,1.6,0.8,1.3*37
