2017-12-29 11:52:13 1514566333.947071: {"class":"VERSION","release":"3.16","rev":"3.16-4","proto_major":3,"proto_minor":11}
2017-12-29 11:52:13 1514566333.947408: {"class":"DEVICES","devices":[{"class":"DEVICE","path":"/dev/ttyUSB0","driver":"SiRF","subtype":"9\u0006GSD4e_4.1.2-P1_RPATCH.05-F-GPS-4R-1510281 11/03/2015 307","activated":"2017-12-29T16:52:13.342Z","flags":1,"native":1,"bps":4800,"parity":"N","stopbits":1,"cycle":1.00}]}
2017-12-29 11:52:13 1514566333.947525: {"class":"WATCH","enable":true,"json":false,"nmea":true,"raw":0,"scaled":false,"timing":false,"split24":false,"pps":false}
2017-12-29 11:52:14 1514566334.140084: $GPZDA,165214.80,29,12,2017,00,00*67
2017-12-29 11:52:14 1514566334.140249: $GPGGA,165214,3946.9601,N,08404.9831,W,1,11,0.80,325.72,M,-33.324,M,,*79
2017-12-29 11:52:14 1514566334.140335: $GPRMC,165214,A,3946.9601,N,08404.9831,W,0.7060,232.286,291217,,*37
2017-12-29 11:52:14 1514566334.140397: $GPGSA,A,3,8,10,15,18,20,21,24,27,32,14,138,,1.7,0.8,1.3*36
2017-12-29 11:52:15 1514566335.060466: $GPZDA,165215.30,29,12,2017,00,00*6D
2017-12-29 11:52:15 1514566335.060631: $GPGGA,165215,3946.9601,N,08404.9831,W,1,11,0.80,325.72,M,-33.324,M,,*78
2017-12-29 11:52:15 1514566335.060697: $GPRMC,165215,A,3946.9601,N,08404.9831,W,0.1867,0.000,291217,,*30
2017-12-29 11:52:15 1514566335.060758: $GPGSA,A,3,8,10,15,18,20,21,24,27,32,14,138,,1.7,0.8,1.3*36
2017-12-29 11:52:16 1514566336.180273: $GPGSV,3,1,11,08,08,309,38,10,55,313,48,14,16,241,34,15,23,058,44*7C
2017-12-29 11:52:16 1514566336.180413: $GPGSV,3,2,11,18,77,037,46,20,22,108,49,21,46,183,47,24,53,082,51*77
2017-12-29 11:52:16 1514566336.180477: $GPGSV,3,3,11,27,14,274,37,32,34,250,38,138,38,213,38*7C
2017-12-29 11:52:16 1514566336.293785: $GPZDA,165216.00,29,12,2017,00,00*6D
2017-12-29 11:52:16 1514566336.293976: $GPGGA,165216,3946.9598,N,08404.9831,W,1,11,0.80,326.48,M,-33.324,M,,*72
2017-12-29 11:52:16 1514566336.294044: $GPRMC,165216,A,3946.9598,N,08404.9831,W,0.0000,0.000,291217,,*38
2017-12-29 11:52:16 1514566336.294105: $GPGSA,A,3,8,10,14,15,18,20,21,24,27,32,138,,1.7,0.8,1.3*36
2017-12-29 11:52:16 1514566336.744814: $GPZDA,165217.00,29,12,2017,00,00*6C
2017-12-29 11:52:16 1514566336.745001: $GPGGA,165217,3946.9602,N,08404.9838,W,1,11,0.80,325.64,M,-33.324,M,,*77
2017-12-29 11:52:16 1514566336.745067: $GPRMC,165217,A,3946.9602,N,08404.9838,W,0.0000,0.000,291217,,*30
2017-12-29 11:52:16 1514566336.745128: $GPGSA,A,3,8,10,14,15,18,20,21,24,27,32,138,,1.7,0.8,1.3*36
2017-12-29 11:52:17 1514566337.438225: $GPZDA,165218.00,29,12,2017,00,00*63
2017-12-29 11:52:17 1514566337.438398: $GPGGA,165218,3946.9602,N,08404.9838,W,1,11,0.80,325.64,M,-33.324,M,,*78
2017-12-29 11:52:17 1514566337.438465: $GPRMC,165218,A,3946.9602,N,08404.9838,W,0.0000,0.000,291217,,*3F
2017-12-29 11:52:17 1514566337.438542: $GPGSA,A,3,8,10,14,15,18,20,21,24,27,32,138,,1.7,0.8,1.3*36
2017-12-29 11:52:18 1514566338.771945: $GPGSV,3,1,11,08,08,309,38,10,55,313,47,14,16,241,34,15,23,058,44*73
2017-12-29 11:52:18 1514566338.772122: $GPGSV,3,2,11,18,77,037,45,20,22,108,50,21,46,183,48,24,53,082,52*70
2017-12-29 11:52:18 1514566338.772189: $GPGSV,3,3,11,27,14,274,37,32,34,250,38,138,38,213,46*75
2017-12-29 11:52:18 1514566338.885583: $GPZDA,165219.00,29,12,2017,00,00*62
2017-12-29 11:52:18 1514566338.885751: $GPGGA,165219,3946.9605,N,08404.9844,W,1,11,0.80,324.79,M,-33.324,M,,*78
2017-12-29 11:52:18 1514566338.885815: $GPRMC,165219,A,3946.9605,N,08404.9844,W,0.0000,0.000,291217,,*32
2017-12-29 11:52:18 1514566338.885876: $GPGSA,A,3,8,10,14,15,18,20,21,24,27,32,138,,1.7,0.8,1.3*36
2017-12-29 11:52:19 1514566339.437713: $GPZDA,165220.00,29,12,2017,00,00*68
2017-12-29 11:52:19 1514566339.437883: $GPGGA,165220,3946.9609,N,08404.9843,W,1,11,0.80,324.03,M,-33.324,M,,*74
2017-12-29 11:52:19 1514566339.437948: $GPRMC,165220,A,3946.9609,N,08404.9843,W,0.0000,0.000,291217,,*33
2017-12-29 11:52:19 1514566339.438009: $GPGSA,A,3,8,10,14,15,18,20,21,24,27,32,138,,1.7,0.8,1.3*36
2017-12-29 11:52:20 1514566340.436854: $GPZDA,165221.00,29,12,2017,00,00*69
2017-12-29 11:52:20 1514566340.437030: $GPGGA,165221,3946.9609,N,08404.9850,W,1,11,0.80,323.95,M,-33.324,M,,*7F
2017-12-29 11:52:20 1514566340.437152: $GPRMC,165221,A,3946.9609,N,08404.9850,W,0.0000,0.000,291217,,*30
2017-12-29 11:52:20 1514566340.437215: $GPGSA,A,3,8,10,14,15,18,20,21,24,27,32,138,,1.7,0.8,1.3*36
2017-12-29 11:52:20 1514566340.437274: $GPGBS,165221,10.91,M,10.38,M,30.89,M*0C
2017-12-29 11:52:21 1514566341.772590: $GPGSV,3,1,11,08,08,309,38,10,55,313,46,14,16,241,34,15,23,058,45*73
2017-12-29 11:52:21 1514566341.772807: $GPGSV,3,2,11,18,77,037,45,20,22,108,50,21,46,183,48,24,53,082,52*70
2017-12-29 11:52:21 1514566341.772896: $GPGSV,3,3,11,27,14,274,37,32,34,250,38,138,38,213,45*76
2017-12-29 11:52:21 1514566341.886205: $GPZDA,165222.00,29,12,2017,00,00*6A
2017-12-29 11:52:21 1514566341.886385: $GPGGA,165222,3946.9613,N,08404.9849,W,1,11,0.80,323.18,M,-33.324,M,,*7A
2017-12-29 11:52:21 1514566341.886452: $GPRMC,165222,A,3946.9613,N,08404.9849,W,0.0000,0.000,291217,,*30
2017-12-29 11:52:21 1514566341.886513: $GPGSA,A,3,8,10,14,15,18,20,21,24,27,32,138,,1.7,0.8,1.3*36
2017-12-29 11:52:22 1514566342.437161: $GPZDA,165223.00,29,12,2017,00,00*6B
2017-12-29 11:52:22 1514566342.437328: $GPGGA,165223,3946.9613,N,08404.9849,W,1,11,0.80,323.18,M,-33.324,M,,*7B
2017-12-29 11:52:22 1514566342.437394: $GPRMC,165223,A,3946.9613,N,08404.9849,W,0.0000,0.000,291217,,*31
2017-12-29 11:52:22 1514566342.437455: $GPGSA,A,3,8,10,14,15,18,20,21,24,27,32,138,,1.7,0.8,1.3*36
2017-12-29 11:52:23 1514566343.437221: $GPZDA,165224.00,29,12,2017,00,00*6C
2017-12-29 11:52:23 1514566343.437387: $GPGGA,165224,3946.9613,N,08404.9849,W,1,11,0.80,323.18,M,-33.324,M,,*7C
2017-12-29 11:52:23 1514566343.437452: $GPRMC,165224,A,3946.9613,N,08404.9849,W,0.0000,0.000,291217,,*36
2017-12-29 11:52:23 1514566343.437512: $GPGSA,A,3,8,10,14,15,18,20,21,24,27,32,138,,1.7,0.8,1.3*36
2017-12-29 11:52:24 1514566344.775414: $GPGSV,3,1,11,08,08,309,38,10,55,313,46,14,16,241,34,15,23,058,45*73
2017-12-29 11:52:24 1514566344.775590: $GPGSV,3,2,11,18,77,037,46,20,22,108,50,21,46,183,47,24,53,082,52*7C
2017-12-29 11:52:24 1514566344.775656: $GPGSV,3,3,11,27,14,274,37,32,34,250,38,138,38,213,46*75
2017-12-29 11:52:24 1514566344.888759: $GPZDA,165225.00,29,12,2017,00,00*6D
2017-12-29 11:52:24 1514566344.888903: $GPGGA,165225,3946.9624,N,08404.9874,W,2,11,1.40,319.17,M,-33.324,M,,*7F
2017-12-29 11:52:24 1514566344.888969: $GPRMC,165225,A,3946.9624,N,08404.9874,W,0.0000,0.000,291217,,*3D
2017-12-29 11:52:24 1514566344.889029: $GPGSA,A,3,8,10,14,15,18,20,21,24,27,32,138,,1.7,1.4,1.3*3B
2017-12-29 11:52:25 1514566345.439648: $GPZDA,165226.00,29,12,2017,00,00*6E
2017-12-29 11:52:25 1514566345.439825: $GPGGA,165226,3946.9624,N,08404.9874,W,2,11,0.80,319.17,M,-33.324,M,,*71
2017-12-29 11:52:25 1514566345.439893: $GPRMC,165226,A,3946.9624,N,08404.9874,W,0.0000,0.000,291217,,*3E
2017-12-29 11:52:25 1514566345.439954: $GPGSA,A,3,8,10,14,15,18,20,21,24,27,32,138,,1.7,0.8,1.3*36
2017-12-29 11:52:26 1514566346.439621: $GPZDA,165227.00,29,12,2017,00,00*6F
2017-12-29 11:52:26 1514566346.439797: $GPGGA,165227,3946.9624,N,08404.9874,W,2,11,0.80,319.17,M,-33.324,M,,*70
2017-12-29 11:52:26 1514566346.439863: $GPRMC,165227,A,3946.9624,N,08404.9874,W,0.0000,0.000,291217,,*3F
2017-12-29 11:52:26 1514566346.439924: $GPGSA,A,3,8,10,14,15,18,20,21,24,27,32,138,,1.7,0.8,1.3*36
2017-12-29 11:52:27 1514566347.775004: $GPGSV,3,1,11,08,08,309,38,10,55,313,46,14,16,241,31,15,23,058,45*76
2017-12-29 11:52:27 1514566347.775185: $GPGSV,3,2,11,18,77,037,46,20,22,108,49,21,46,183,47,24,53,082,52*74
2017-12-29 11:52:27 1514566347.775251: $GPGSV,3,3,11,27,14,274,37,32,34,250,38,138,38,213,45*76
2017-12-29 11:52:27 1514566347.888611: $GPZDA,165228.00,29,12,2017,00,00*60
2017-12-29 11:52:27 1514566347.888756: $GPGGA,165228,3946.9624,N,08404.9874,W,2,11,0.80,319.17,M,-33.324,M,,*7F
2017-12-29 11:52:27 1514566347.888821: $GPRMC,165228,A,3946.9624,N,08404.9874,W,0.0000,0.000,291217,,*30
2017-12-29 11:52:27 1514566347.888881: $GPGSA,A,3,8,10,14,15,18,20,21,24,27,32,138,,1.7,0.8,1.3*36
2017-12-29 11:52:28 1514566348.515346: $GPZDA,165229.00,29,12,2017,00,00*61
2017-12-29 11:52:28 1514566348.515515: $GPGGA,165229,3946.9624,N,08404.9874,W,2,11,0.80,319.17,M,-33.324,M,,*7E
2017-12-29 11:52:28 1514566348.515582: $GPRMC,165229,A,3946.9624,N,08404.9874,W,0.0000,0.000,291217,,*31
2017-12-29 11:52:28 1514566348.515642: $GPGSA,A,3,8,10,14,15,18,20,21,24,27,32,138,,1.7,0.8,1.3*36
