2017-11-16 13:47:48 1510858068.736060: {"class":"VERSION","release":"3.17","rev":"3.17","proto_major":3,"proto_minor":12}
2017-11-16 13:47:48 1510858068.736502: {"class":"DEVICES","devices":[{"class":"DEVICE","path":"/dev/ttyUSB0","driver":"SiRF","subtype":"9\u0006GSD4e_4.1.2-P1_RPATCH.05-F-GPS-4R-1510281 11/03/2015 307","activated":"2017-11-16T18:47:48.451Z","flags":1,"native":1,"bps":4800,"parity":"N","stopbits":1,"cycle":1.00}]}
2017-11-16 13:47:48 1510858068.736633: {"class":"WATCH","enable":true,"json":false,"nmea":true,"raw":0,"scaled":false,"timing":false,"split24":false,"pps":false}
2017-11-16 13:47:49 1510858069.652661: $GPGSV,3,1,11,10,32,292,39,13,18,046,46,15,49,049,51,18,62,315,49*74
2017-11-16 13:47:49 1510858069.652830: $GPGSV,3,2,11,20,42,085,48,21,75,213,46,24,43,127,46,27,19,301,34*71
2017-11-16 13:47:49 1510858069.652911: $GPGSV,3,3,11,32,10,231,23,08,01,331,00,138,38,213,44*71
2017-11-16 13:47:49 1510858069.766421: $GPZDA,184748.00,16,11,2017,00,00*63
2017-11-16 13:47:49 1510858069.766568: $GPGGA,184748,3946.9591,N,08404.9834,W,2,10,0.80,304.49,M,-33.324,M,,*7C
2017-11-16 13:47:49 1510858069.766629: $GPRMC,184748,A,3946.9591,N,08404.9834,W,0.0000,0.000,161117,,*3A
2017-11-16 13:47:49 1510858069.766685: $GPGSA,A,3,10,13,15,18,20,21,24,27,32,138,,,1.6,0.8,1.3*08
2017-11-16 13:47:50 1510858070.316059: $GPZDA,184749.00,16,11,2017,00,00*62
2017-11-16 13:47:50 1510858070.316237: $GPGGA,184749,3946.9591,N,08404.9834,W,2,10,0.80,304.49,M,-33.324,M,,*7D
2017-11-16 13:47:50 1510858070.316299: $GPRMC,184749,A,3946.9591,N,08404.9834,W,0.0000,0.000,161117,,*3B
2017-11-16 13:47:50 1510858070.316355: $GPGSA,A,3,10,13,15,18,20,21,24,27,32,138,,,1.6,0.8,1.3*08
2017-11-16 13:47:51 1510858071.317273: $GPZDA,184750.00,16,11,2017,00,00*6A
2017-11-16 13:47:51 1510858071.317437: $GPGGA,184750,3946.9591,N,08404.9834,W,2,10,0.80,304.49,M,-33.324,M,,*75
2017-11-16 13:47:51 1510858071.317499: $GPRMC,184750,A,3946.9591,N,08404.9834,W,0.0000,0.000,161117,,*33
2017-11-16 13:47:51 1510858071.317554: $GPGSA,A,3,10,13,15,18,20,21,24,27,32,138,,,1.6,0.8,1.3*08
2017-11-16 13:47:52 1510858072.652270: $GPGSV,3,1,11,10,32,292,39,13,18,046,46,15,49,049,51,18,62,315,48*75
2017-11-16 13:47:52 1510858072.658332: $GPGSV,3,2,11,20,42,085,48,21,75,213,46,24,43,127,46,27,19,301,34*71
2017-11-16 13:47:52 1510858072.658510: $GPGSV,3,3,11,32,10,231,18,08,01,331,00,138,38,213,44*79
2017-11-16 13:47:52 1510858072.766178: $GPZDA,184751.00,16,11,2017,00,00*6B
2017-11-16 13:47:52 1510858072.766340: $GPGGA,184751,3946.9591,N,08404.9834,W,2,10,0.80,304.49,M,-33.324,M,,*74
2017-11-16 13:47:52 1510858072.766400: $GPRMC,184751,A,3946.9591,N,08404.9834,W,0.0000,0.000,161117,,*32
2017-11-16 13:47:52 1510858072.766476: $GPGSA,A,3,10,13,15,18,20,21,24,27,32,138,,,1.6,0.8,1.3*08
2017-11-16 13:47:53 1510858073.316278: $GPZDA,184752.00,16,11,2017,00,00*68
2017-11-16 13:47:53 1510858073.316472: $GPGGA,184752,3946.9591,N,08404.9834,W,2,10,0.80,304.49,M,-33.324,M,,*77
2017-11-16 13:47:53 1510858073.316536: $GPRMC,184752,A,3946.9591,N,08404.9834,W,0.0000,0.000,161117,,*31
2017-11-16 13:47:53 1510858073.316741: $GPGSA,A,3,10,13,15,18,20,21,24,27,32,138,,,1.6,0.8,1.3*08
2017-11-16 13:47:54 1510858074.316796: $GPZDA,184753.00,16,11,2017,00,00*69
2017-11-16 13:47:54 1510858074.316982: $GPGGA,184753,3946.9591,N,08404.9834,W,2,10,0.80,304.49,M,-33.324,M,,*76
2017-11-16 13:47:54 1510858074.317043: $GPRMC,184753,A,3946.9591,N,08404.9834,W,0.0000,0.000,161117,,*30
2017-11-16 13:47:54 1510858074.317099: $GPGSA,A,3,10,13,15,18,20,21,24,27,32,138,,,1.6,0.8,1.3*08
2017-11-16 13:47:55 1510858075.654947: $GPGSV,3,1,11,10,32,292,40,13,18,046,46,15,49,049,51,18,62,315,49*7A
2017-11-16 13:47:55 1510858075.655146: $GPGSV,3,2,11,20,42,085,48,21,75,213,46,24,43,127,46,27,19,301,34*71
2017-11-16 13:47:55 1510858075.655208: $GPGSV,3,3,11,32,10,231,21,08,01,331,25,138,38,213,43*73
2017-11-16 13:47:55 1510858075.768586: $GPZDA,184754.00,16,11,2017,00,00*6E
2017-11-16 13:47:55 1510858075.768746: $GPGGA,184754,3946.9595,N,08404.9834,W,2,11,0.80,305.13,M,-33.324,M,,*7A
2017-11-16 13:47:55 1510858075.768860: $GPRMC,184754,A,3946.9595,N,08404.9834,W,0.0000,0.000,161117,,*33
2017-11-16 13:47:55 1510858075.768918: $GPGSA,A,3,10,13,15,18,20,21,24,27,32,8,138,,1.6,0.8,1.3*30
2017-11-16 13:47:56 1510858076.312257: $GPZDA,184755.00,16,11,2017,00,00*6F
2017-11-16 13:47:56 1510858076.312589: $GPGGA,184755,3946.9595,N,08404.9834,W,2,11,0.80,305.13,M,-33.324,M,,*7B
2017-11-16 13:47:56 1510858076.312694: $GPRMC,184755,A,3946.9595,N,08404.9834,W,0.0000,0.000,161117,,*32
2017-11-16 13:47:56 1510858076.312816: $GPGSA,A,3,10,13,15,18,20,21,24,27,32,8,138,,1.6,0.8,1.3*30
2017-11-16 13:47:57 1510858077.316355: $GPZDA,184756.00,16,11,2017,00,00*6C
2017-11-16 13:47:57 1510858077.316535: $GPGGA,184756,3946.9595,N,08404.9834,W,2,11,0.80,305.13,M,-33.324,M,,*78
2017-11-16 13:47:57 1510858077.316597: $GPRMC,184756,A,3946.9595,N,08404.9834,W,0.0000,0.000,161117,,*31
2017-11-16 13:47:57 1510858077.316653: $GPGSA,A,3,10,13,15,18,20,21,24,27,32,8,138,,1.6,0.8,1.3*30
2017-11-16 13:47:58 1510858078.677122: $GPGSV,3,1,11,10,32,292,39,13,18,046,46,15,49,049,51,18,62,315,49*74
2017-11-16 13:47:58 1510858078.677290: $GPGSV,3,2,11,20,42,085,48,21,75,213,46,24,43,127,46,27,19,301,34*71
2017-11-16 13:47:58 1510858078.677351: $GPGSV,3,3,11,32,10,231,21,08,01,331,27,138,38,213,44*76
