2017-12-01 12:30:51 1512149451.409752: {"class":"VERSION","release":"3.16","rev":"3.16-4","proto_major":3,"proto_minor":11}
2017-12-01 12:30:51 1512149451.410124: {"class":"DEVICES","devices":[{"class":"DEVICE","path":"/dev/ttyUSB0","driver":"SiRF","subtype":"9\u0006GSD4e_4.1.2-P1_RPATCH.05-F-GPS-4R-1510281 11/03/2015 307","activated":"2017-12-01T17:30:51.394Z","flags":1,"native":1,"bps":4800,"parity":"N","stopbits":1,"cycle":1.00}]}
2017-12-01 12:30:51 1512149451.410238: {"class":"WATCH","enable":true,"json":false,"nmea":true,"raw":0,"scaled":false,"timing":false,"split24":false,"pps":false}
2017-12-01 12:30:52 1512149452.355120: $GPZDA,173053.00,01,12,2017,00,00*63
2017-12-01 12:30:52 1512149452.355296: $GPGGA,173053,3946.9556,N,08404.9830,W,2,11,0.80,304.43,M,-33.324,M,,*7D
2017-12-01 12:30:52 1512149452.355364: $GPRMC,173053,A,3946.9556,N,08404.9830,W,0.0000,0.000,011217,,*35
2017-12-01 12:30:52 1512149452.355425: $GPGSA,A,3,10,13,15,18,20,21,24,27,29,32,138,,2.0,0.8,1.5*00
2017-12-01 12:30:53 1512149453.692055: $GPGSV,3,1,11,10,27,288,41,13,24,045,41,15,55,049,46,18,58,307,46*71
2017-12-01 12:30:53 1512149453.692249: $GPGSV,3,2,11,20,47,078,45,21,79,235,43,24,38,133,47,27,18,307,39*74
2017-12-01 12:30:53 1512149453.692317: $GPGSV,3,3,11,29,05,187,26,32,06,228,31,138,38,213,46*73
2017-12-01 12:30:53 1512149453.805438: $GPZDA,173054.00,01,12,2017,00,00*64
2017-12-01 12:30:53 1512149453.805613: $GPGGA,173054,3946.9556,N,08404.9830,W,2,11,0.80,304.43,M,-33.324,M,,*7A
2017-12-01 12:30:53 1512149453.805682: $GPRMC,173054,A,3946.9556,N,08404.9830,W,0.0000,0.000,011217,,*32
2017-12-01 12:30:53 1512149453.805748: $GPGSA,A,3,10,13,15,18,20,21,24,27,29,32,138,,2.0,0.8,1.5*00
2017-12-01 12:30:54 1512149454.432233: $GPZDA,173055.00,01,12,2017,00,00*65
2017-12-01 12:30:54 1512149454.432409: $GPGGA,173055,3946.9556,N,08404.9830,W,2,11,0.80,304.43,M,-33.324,M,,*7B
2017-12-01 12:30:54 1512149454.432475: $GPRMC,173055,A,3946.9556,N,08404.9830,W,0.0000,0.000,011217,,*33
2017-12-01 12:30:54 1512149454.432535: $GPGSA,A,3,10,13,15,18,20,21,24,27,29,32,138,,2.0,0.8,1.5*00
2017-12-01 12:30:55 1512149455.356950: $GPZDA,173056.00,01,12,2017,00,00*66
2017-12-01 12:30:55 1512149455.357127: $GPGGA,173056,3946.9556,N,08404.9830,W,2,11,0.80,304.43,M,-33.324,M,,*78
2017-12-01 12:30:55 1512149455.357194: $GPRMC,173056,A,3946.9556,N,08404.9830,W,0.0000,0.000,011217,,*30
2017-12-01 12:30:55 1512149455.357255: $GPGSA,A,3,10,13,15,18,20,21,24,27,29,32,138,,2.0,0.8,1.5*00
2017-12-01 12:30:56 1512149456.691190: $GPGSV,3,1,11,10,27,288,42,13,24,045,41,15,55,049,46,18,58,307,46*72
2017-12-01 12:30:56 1512149456.691420: $GPGSV,3,2,11,20,47,078,45,21,79,235,43,24,38,133,47,27,18,307,39*74
2017-12-01 12:30:56 1512149456.691496: $GPGSV,3,3,11,29,05,187,24,32,06,228,31,138,38,213,46*71
2017-12-01 12:30:56 1512149456.804578: $GPZDA,173057.00,01,12,2017,00,00*67
2017-12-01 12:30:56 1512149456.804758: $GPGGA,173057,3946.9556,N,08404.9830,W,2,11,0.80,304.43,M,-33.324,M,,*79
2017-12-01 12:30:56 1512149456.804825: $GPRMC,173057,A,3946.9556,N,08404.9830,W,0.0000,0.000,011217,,*31
2017-12-01 12:30:56 1512149456.804885: $GPGSA,A,3,10,13,15,18,20,21,24,27,29,32,138,,2.0,0.8,1.5*00
2017-12-01 12:30:57 1512149457.356795: $GPZDA,173058.00,01,12,2017,00,00*68
2017-12-01 12:30:57 1512149457.356968: $GPGGA,173058,3946.9556,N,08404.9830,W,2,11,0.80,304.43,M,-33.324,M,,*76
2017-12-01 12:30:57 1512149457.357036: $GPRMC,173058,A,3946.9556,N,08404.9830,W,0.0000,0.000,011217,,*3E
2017-12-01 12:30:57 1512149457.357096: $GPGSA,A,3,10,13,15,18,20,21,24,27,29,32,138,,2.0,0.8,1.5*00
2017-12-01 12:30:58 1512149458.356415: $GPZDA,173059.00,01,12,2017,00,00*69
2017-12-01 12:30:58 1512149458.356594: $GPGGA,173059,3946.9556,N,08404.9830,W,2,11,0.80,304.43,M,-33.324,M,,*77
2017-12-01 12:30:58 1512149458.356684: $GPRMC,173059,A,3946.9556,N,08404.9830,W,0.0000,0.000,011217,,*3F
2017-12-01 12:30:58 1512149458.356761: $GPGSA,A,3,10,13,15,18,20,21,24,27,29,32,138,,2.0,0.8,1.5*00
2017-12-01 12:30:59 1512149459.690308: $GPGSV,3,1,11,10,27,288,42,13,24,045,41,15,55,049,46,18,58,307,46*72
2017-12-01 12:30:59 1512149459.690559: $GPGSV,3,2,11,20,47,078,45,21,79,235,43,24,38,133,47,27,18,307,39*74
2017-12-01 12:30:59 1512149459.690657: $GPGSV,3,3,11,29,05,187,24,32,06,228,31,138,38,213,47*70
2017-12-01 12:30:59 1512149459.803732: $GPZDA,173100.00,01,12,2017,00,00*64
2017-12-01 12:30:59 1512149459.803917: $GPGGA,173100,3946.9556,N,08404.9830,W,2,11,0.80,304.43,M,-33.324,M,,*7A
2017-12-01 12:30:59 1512149459.803985: $GPRMC,173100,A,3946.9556,N,08404.9830,W,0.0000,0.000,011217,,*32
2017-12-01 12:30:59 1512149459.804046: $GPGSA,A,3,10,13,15,18,20,21,24,27,29,32,138,,2.0,0.8,1.5*00
2017-12-01 12:31:00 1512149460.353362: $GPZDA,173101.00,01,12,2017,00,00*65
2017-12-01 12:31:00 1512149460.353534: $GPGGA,173101,3946.9560,N,08404.9829,W,2,11,0.80,303.67,M,-33.324,M,,*77
2017-12-01 12:31:00 1512149460.353620: $GPRMC,173101,A,3946.9560,N,08404.9829,W,0.0000,0.000,011217,,*3E
2017-12-01 12:31:00 1512149460.353683: $GPGSA,A,3,10,13,15,18,20,21,24,27,29,32,138,,2.0,0.8,1.5*00
2017-12-01 12:31:01 1512149461.357157: $GPZDA,173102.00,01,12,2017,00,00*66
2017-12-01 12:31:01 1512149461.357328: $GPGGA,173102,3946.9560,N,08404.9829,W,2,11,0.80,303.67,M,-33.324,M,,*74
2017-12-01 12:31:01 1512149461.357395: $GPRMC,173102,A,3946.9560,N,08404.9829,W,0.0000,0.000,011217,,*3D
2017-12-01 12:31:01 1512149461.357456: $GPGSA,A,3,10,13,15,18,20,21,24,27,29,32,138,,2.0,0.8,1.5*00
