2017-11-16 17:43:42 1510872222.320484: {"class":"VERSION","release":"3.17","rev":"3.17","proto_major":3,"proto_minor":12}
2017-11-16 17:43:42 1510872222.321290: {"class":"DEVICES","devices":[{"class":"DEVICE","path":"/dev/ttyUSB0","driver":"SiRF","subtype":"9\u0006GSD4e_4.1.2-P1_RPATCH.05-F-GPS-4R-1510281 11/03/2015 307","activated":"2017-11-16T22:43:42.280Z","flags":1,"native":1,"bps":4800,"parity":"N","stopbits":1,"cycle":1.00}]}
2017-11-16 17:43:42 1510872222.321415: {"class":"WATCH","enable":true,"json":false,"nmea":true,"raw":0,"scaled":false,"timing":false,"split24":false,"pps":false}
2017-11-16 17:43:42 1510872222.729878: $GPGSV,3,1,12,01,22,295,34,10,43,150,44,11,07,277,41,12,20,045,48*7E
2017-11-16 17:43:42 1510872222.730069: $GPGSV,3,2,12,14,68,339,46,18,14,145,36,26,06,183,30,22,23,312,42*7E
2017-11-16 17:43:42 1510872222.730148: $GPGSV,3,3,12,25,40,084,49,31,60,229,47,32,67,039,49,138,38,213,44*40
2017-11-16 17:43:42 1510872222.843270: $GPZDA,224341.00,16,11,2017,00,00*67
2017-11-16 17:43:42 1510872222.843460: $GPGGA,224341,3946.9579,N,08404.9841,W,2,12,0.80,302.49,M,-33.324,M,,*78
2017-11-16 17:43:42 1510872222.843521: $GPRMC,224341,A,3946.9579,N,08404.9841,W,0.0000,0.000,161117,,*3A
2017-11-16 17:43:42 1510872222.843578: $GPGSA,A,3,1,10,11,12,14,18,26,22,25,31,32,138,1.6,0.8,1.3*3A
2017-11-16 17:43:43 1510872223.394223: $GPZDA,224342.00,16,11,2017,00,00*64
2017-11-16 17:43:43 1510872223.394384: $GPGGA,224342,3946.9579,N,08404.9841,W,2,12,0.80,302.49,M,-33.324,M,,*7B
2017-11-16 17:43:43 1510872223.394445: $GPRMC,224342,A,3946.9579,N,08404.9841,W,0.0000,0.000,161117,,*39
2017-11-16 17:43:43 1510872223.394501: $GPGSA,A,3,1,10,11,12,14,18,26,22,25,31,32,138,1.6,0.8,1.3*3A
2017-11-16 17:43:44 1510872224.416681: $GPZDA,224343.00,16,11,2017,00,00*65
2017-11-16 17:43:44 1510872224.416805: $GPGGA,224343,3946.9579,N,08404.9841,W,2,12,0.80,302.49,M,-33.324,M,,*7A
2017-11-16 17:43:44 1510872224.416866: $GPRMC,224343,A,3946.9579,N,08404.9841,W,0.0000,0.000,161117,,*38
2017-11-16 17:43:44 1510872224.416923: $GPGSA,A,3,1,10,11,12,14,18,26,22,25,31,32,138,1.6,0.8,1.3*3A
2017-11-16 17:43:45 1510872225.728450: $GPGSV,3,1,12,01,22,295,33,10,43,150,44,11,07,277,40,12,20,045,48*78
2017-11-16 17:43:45 1510872225.728617: $GPGSV,3,2,12,14,68,339,46,18,14,145,36,26,06,183,30,22,23,312,42*7E
2017-11-16 17:43:45 1510872225.728677: $GPGSV,3,3,12,25,40,084,49,31,60,229,47,32,67,039,49,138,38,213,44*40
2017-11-16 17:43:45 1510872225.841946: $GPZDA,224344.00,16,11,2017,00,00*62
2017-11-16 17:43:45 1510872225.842134: $GPGGA,224344,3946.9579,N,08404.9841,W,2,12,0.80,302.49,M,-33.324,M,,*7D
2017-11-16 17:43:45 1510872225.842196: $GPRMC,224344,A,3946.9579,N,08404.9841,W,0.0000,0.000,161117,,*3F
2017-11-16 17:43:45 1510872225.842252: $GPGSA,A,3,1,10,11,12,14,18,26,22,25,31,32,138,1.6,0.8,1.3*3A
2017-11-16 17:43:46 1510872226.467301: $GPZDA,224345.00,16,11,2017,00,00*63
2017-11-16 17:43:46 1510872226.467463: $GPGGA,224345,3946.9579,N,08404.9841,W,2,12,0.80,302.49,M,-33.324,M,,*7C
2017-11-16 17:43:46 1510872226.467523: $GPRMC,224345,A,3946.9579,N,08404.9841,W,0.0000,0.000,161117,,*3E
2017-11-16 17:43:46 1510872226.467579: $GPGSA,A,3,1,10,11,12,14,18,26,22,25,31,32,138,1.6,0.8,1.3*3A
2017-11-16 17:43:47 1510872227.394174: $GPZDA,224346.00,16,11,2017,00,00*60
2017-11-16 17:43:47 1510872227.394361: $GPGGA,224346,3946.9579,N,08404.9841,W,2,12,0.80,302.49,M,-33.324,M,,*7F
2017-11-16 17:43:47 1510872227.394424: $GPRMC,224346,A,3946.9579,N,08404.9841,W,0.0000,0.000,161117,,*3D
2017-11-16 17:43:47 1510872227.394480: $GPGSA,A,3,1,10,11,12,14,18,26,22,25,31,32,138,1.6,0.8,1.3*3A
2017-11-16 17:43:48 1510872228.731194: $GPGSV,3,1,12,01,22,295,30,10,43,150,44,11,07,277,40,12,20,045,48*7B
2017-11-16 17:43:48 1510872228.731364: $GPGSV,3,2,12,14,68,339,46,18,14,145,36,26,06,183,30,22,23,312,42*7E
2017-11-16 17:43:48 1510872228.731424: $GPGSV,3,3,12,25,40,084,49,31,60,229,48,32,67,039,49,138,38,213,43*48
2017-11-16 17:43:48 1510872228.844491: $GPZDA,224347.00,16,11,2017,00,00*61
2017-11-16 17:43:48 1510872228.844644: $GPGGA,224347,3946.9579,N,08404.9841,W,2,12,0.80,302.49,M,-33.324,M,,*7E
2017-11-16 17:43:48 1510872228.844758: $GPRMC,224347,A,3946.9579,N,08404.9841,W,0.0000,0.000,161117,,*3C
2017-11-16 17:43:48 1510872228.844816: $GPGSA,A,3,1,10,11,12,14,18,26,22,25,31,32,138,1.6,0.8,1.3*3A
2017-11-16 17:43:49 1510872229.394108: $GPZDA,224348.00,16,11,2017,00,00*6E
2017-11-16 17:43:49 1510872229.394274: $GPGGA,224348,3946.9579,N,08404.9841,W,2,12,0.80,302.49,M,-33.324,M,,*71
2017-11-16 17:43:49 1510872229.394335: $GPRMC,224348,A,3946.9579,N,08404.9841,W,0.0000,0.000,161117,,*33
2017-11-16 17:43:49 1510872229.394390: $GPGSA,A,3,1,10,11,12,14,18,26,22,25,31,32,138,1.6,0.8,1.3*3A
2017-11-16 17:43:50 1510872230.393722: $GPZDA,224349.00,16,11,2017,00,00*6F
2017-11-16 17:43:50 1510872230.393889: $GPGGA,224349,3946.9579,N,08404.9841,W,2,12,0.80,302.49,M,-33.324,M,,*70
2017-11-16 17:43:50 1510872230.393975: $GPRMC,224349,A,3946.9579,N,08404.9841,W,0.0000,0.000,161117,,*32
2017-11-16 17:43:50 1510872230.394032: $GPGSA,A,3,1,10,11,12,14,18,26,22,25,31,32,138,1.6,0.8,1.3*3A
2017-11-16 17:43:51 1510872231.746531: $GPGSV,3,1,12,01,22,295,23,10,43,150,44,11,07,277,39,12,20,045,48*77
2017-11-16 17:43:51 1510872231.746679: $GPGSV,3,2,12,14,68,339,46,18,14,145,36,26,06,183,30,22,23,312,42*7E
2017-11-16 17:43:51 1510872231.746739: $GPGSV,3,3,12,25,40,084,49,31,60,229,48,32,67,039,50,138,38,213,44*47
2017-11-16 17:43:51 1510872231.858545: $GPZDA,224350.00,16,11,2017,00,00*67
2017-11-16 17:43:51 1510872231.858724: $GPGGA,224350,3946.9579,N,08404.9841,W,2,12,0.80,302.49,M,-33.324,M,,*78
2017-11-16 17:43:51 1510872231.858786: $GPRMC,224350,A,3946.9579,N,08404.9841,W,0.0000,0.000,161117,,*3A
2017-11-16 17:43:51 1510872231.858842: $GPGSA,A,3,1,10,11,12,14,18,26,22,25,31,32,138,1.6,0.8,1.3*3A
