2017-12-01 18:07:06 1512169626.167019: {"class":"VERSION","release":"3.16","rev":"3.16-4","proto_major":3,"proto_minor":11}
2017-12-01 18:07:06 1512169626.167421: {"class":"DEVICES","devices":[{"class":"DEVICE","path":"/dev/ttyUSB0","driver":"SiRF","subtype":"9\u0006GSD4e_4.1.2-P1_RPATCH.05-F-GPS-4R-1510281 11/03/2015 307","activated":"2017-12-01T23:07:05.505Z","flags":1,"native":1,"bps":4800,"parity":"N","stopbits":1,"cycle":1.00}]}
2017-12-01 18:07:06 1512169626.167558: {"class":"WATCH","enable":true,"json":false,"nmea":true,"raw":0,"scaled":false,"timing":false,"split24":false,"pps":false}
2017-12-01 18:07:06 1512169626.365547: $GPZDA,230707.00,01,12,2017,00,00*61
2017-12-01 18:07:06 1512169626.365889: $GPGGA,230707,3946.9731,N,08404.9846,W,2,12,0.60,298.36,M,-33.325,M,,*77
2017-12-01 18:07:06 1512169626.366050: $GPRMC,230707,A,3946.9731,N,08404.9846,W,0.0000,0.000,011217,,*35
2017-12-01 18:07:06 1512169626.366182: $GPGSA,A,3,3,14,16,22,23,25,26,31,32,1,29,138,2.0,0.6,1.5*02
2017-12-01 18:07:07 1512169627.702617: $GPGSV,3,1,12,03,35,306,46,14,60,081,43,16,16,189,42,22,49,282,46*76
2017-12-01 18:07:07 1512169627.702818: $GPGSV,3,2,12,23,06,297,41,25,23,043,43,26,45,174,45,31,73,012,47*73
2017-12-01 18:07:07 1512169627.702913: $GPGSV,3,3,12,32,41,100,44,01,10,258,31,29,08,079,18,138,38,213,46*45
2017-12-01 18:07:07 1512169627.815967: $GPZDA,230708.00,01,12,2017,00,00*6E
2017-12-01 18:07:07 1512169627.816132: $GPGGA,230708,3946.9731,N,08404.9846,W,2,12,0.60,298.36,M,-33.325,M,,*78
2017-12-01 18:07:07 1512169627.816199: $GPRMC,230708,A,3946.9731,N,08404.9846,W,0.0000,0.000,011217,,*3A
2017-12-01 18:07:07 1512169627.816260: $GPGSA,A,3,3,14,16,22,23,25,26,31,32,1,29,138,2.0,0.6,1.5*02
2017-12-01 18:07:08 1512169628.366881: $GPZDA,230709.00,01,12,2017,00,00*6F
2017-12-01 18:07:08 1512169628.367053: $GPGGA,230709,3946.9731,N,08404.9846,W,2,12,0.60,298.36,M,-33.325,M,,*79
2017-12-01 18:07:08 1512169628.367120: $GPRMC,230709,A,3946.9731,N,08404.9846,W,0.0000,0.000,011217,,*3B
2017-12-01 18:07:08 1512169628.367202: $GPGSA,A,3,3,14,16,22,23,25,26,31,32,1,29,138,2.0,0.6,1.5*02
2017-12-01 18:07:09 1512169629.368078: $GPZDA,230710.00,01,12,2017,00,00*67
2017-12-01 18:07:09 1512169629.368247: $GPGGA,230710,3946.9731,N,08404.9846,W,2,12,0.60,298.36,M,-33.325,M,,*71
2017-12-01 18:07:09 1512169629.368314: $GPRMC,230710,A,3946.9731,N,08404.9846,W,0.0000,0.000,011217,,*33
2017-12-01 18:07:09 1512169629.368375: $GPGSA,A,3,3,14,16,22,23,25,26,31,32,1,29,138,2.0,0.6,1.5*02
2017-12-01 18:07:10 1512169630.732189: $GPGSV,3,1,12,03,35,306,46,14,60,081,43,16,16,189,41,22,49,282,46*75
2017-12-01 18:07:10 1512169630.732371: $GPGSV,3,2,12,23,06,297,40,25,23,043,44,26,45,174,45,31,73,012,47*75
2017-12-01 18:07:10 1512169630.732436: $GPGSV,3,3,12,32,41,100,44,01,10,258,30,29,08,079,17,138,38,213,45*48
2017-12-01 18:07:10 1512169630.845574: $GPZDA,230711.00,01,12,2017,00,00*66
2017-12-01 18:07:10 1512169630.845763: $GPGGA,230711,3946.9731,N,08404.9846,W,2,12,0.60,298.36,M,-33.325,M,,*70
2017-12-01 18:07:10 1512169630.845847: $GPRMC,230711,A,3946.9731,N,08404.9846,W,0.0000,0.000,011217,,*32
2017-12-01 18:07:10 1512169630.845911: $GPGSA,A,3,3,14,16,22,23,25,26,31,32,1,29,138,2.0,0.6,1.5*02
2017-12-01 18:07:11 1512169631.395470: $GPZDA,230712.00,01,12,2017,00,00*65
2017-12-01 18:07:11 1512169631.395648: $GPGGA,230712,3946.9731,N,08404.9846,W,2,12,0.60,298.36,M,-33.325,M,,*73
2017-12-01 18:07:11 1512169631.395719: $GPRMC,230712,A,3946.9731,N,08404.9846,W,0.0000,0.000,011217,,*31
2017-12-01 18:07:11 1512169631.395781: $GPGSA,A,3,3,14,16,22,23,25,26,31,32,1,29,138,2.0,0.6,1.5*02
2017-12-01 18:07:12 1512169632.394485: $GPZDA,230713.00,01,12,2017,00,00*64
2017-12-01 18:07:12 1512169632.394697: $GPGGA,230713,3946.9731,N,08404.9846,W,2,12,0.60,298.36,M,-33.325,M,,*72
2017-12-01 18:07:12 1512169632.394798: $GPRMC,230713,A,3946.9731,N,08404.9846,W,0.0000,0.000,011217,,*30
2017-12-01 18:07:12 1512169632.394862: $GPGSA,A,3,3,14,16,22,23,25,26,31,32,1,29,138,2.0,0.6,1.5*02
2017-12-01 18:07:13 1512169633.733838: $GPGSV,3,1,12,03,35,306,47,14,60,081,42,16,16,189,42,22,49,282,46*76
2017-12-01 18:07:13 1512169633.734072: $GPGSV,3,2,12,23,06,297,40,25,23,043,44,26,45,174,45,31,73,012,46*74
2017-12-01 18:07:13 1512169633.734143: $GPGSV,3,3,12,32,41,100,43,01,10,258,30,29,08,079,16,138,38,213,46*4D
2017-12-01 18:07:13 1512169633.847197: $GPZDA,230714.00,01,12,2017,00,00*63
2017-12-01 18:07:13 1512169633.847349: $GPGGA,230714,3946.9731,N,08404.9846,W,2,11,0.80,298.36,M,-33.325,M,,*78
2017-12-01 18:07:13 1512169633.847415: $GPRMC,230714,A,3946.9731,N,08404.9846,W,0.0000,0.000,011217,,*37
2017-12-01 18:07:13 1512169633.847476: $GPGSA,A,3,3,14,16,22,23,25,26,31,32,1,138,,2.0,0.8,1.5*07
2017-12-01 18:07:14 1512169634.399329: $GPZDA,230715.00,01,12,2017,00,00*62
2017-12-01 18:07:14 1512169634.399500: $GPGGA,230715,3946.9731,N,08404.9846,W,2,11,0.80,298.36,M,-33.325,M,,*79
2017-12-01 18:07:14 1512169634.399567: $GPRMC,230715,A,3946.9731,N,08404.9846,W,0.0000,0.000,011217,,*36
2017-12-01 18:07:14 1512169634.399646: $GPGSA,A,3,3,14,16,22,23,25,26,31,32,1,138,,2.0,0.8,1.5*07
2017-12-01 18:07:15 1512169635.366386: $GPZDA,230716.00,01,12,2017,00,00*61
2017-12-01 18:07:15 1512169635.366561: $GPGGA,230716,3946.9731,N,08404.9846,W,2,11,0.80,298.36,M,-33.325,M,,*7A
2017-12-01 18:07:15 1512169635.366655: $GPRMC,230716,A,3946.9731,N,08404.9846,W,0.0000,0.000,011217,,*35
2017-12-01 18:07:15 1512169635.366718: $GPGSA,A,3,3,14,16,22,23,25,26,31,32,1,138,,2.0,0.8,1.5*07
2017-12-01 18:07:16 1512169636.730982: $GPGSV,3,1,12,03,35,306,47,14,60,081,43,16,16,189,42,22,49,282,47*76
2017-12-01 18:07:16 1512169636.731162: $GPGSV,3,2,12,23,06,297,40,25,23,043,44,26,45,174,46,31,73,012,47*76
2017-12-01 18:07:16 1512169636.731228: $GPGSV,3,3,12,32,41,100,43,01,10,258,30,10,04,159,26,138,38,213,45*48
2017-12-01 18:07:16 1512169636.844684: $GPZDA,230717.00,01,12,2017,00,00*60
2017-12-01 18:07:16 1512169636.844869: $GPGGA,230717,3946.9731,N,08404.9846,W,2,12,0.80,298.36,M,-33.325,M,,*78
2017-12-01 18:07:16 1512169636.844936: $GPRMC,230717,A,3946.9731,N,08404.9846,W,0.0000,0.000,011217,,*34
2017-12-01 18:07:16 1512169636.844997: $GPGSA,A,3,3,14,16,22,23,25,26,31,32,1,10,138,2.0,0.8,1.5*06
2017-12-01 18:07:17 1512169637.469835: $GPZDA,230718.00,01,12,2017,00,00*6F
2017-12-01 18:07:17 1512169637.470017: $GPGGA,230718,3946.9731,N,08404.9846,W,2,12,0.80,298.36,M,-33.325,M,,*77
2017-12-01 18:07:17 1512169637.472508: $GPRMC,230718,A,3946.9731,N,08404.9846,W,0.0000,0.000,011217,,*3B
2017-12-01 18:07:17 1512169637.472631: $GPGSA,A,3,3,14,16,22,23,25,26,31,32,1,10,138,2.0,0.8,1.5*06
2017-12-01 18:07:18 1512169638.396916: $GPZDA,230719.00,01,12,2017,00,00*6E
2017-12-01 18:07:18 1512169638.397090: $GPGGA,230719,3946.9731,N,08404.9846,W,2,12,0.80,298.36,M,-33.325,M,,*76
2017-12-01 18:07:18 1512169638.397158: $GPRMC,230719,A,3946.9731,N,08404.9846,W,0.0000,0.000,011217,,*3A
2017-12-01 18:07:18 1512169638.397219: $GPGSA,A,3,3,14,16,22,23,25,26,31,32,1,10,138,2.0,0.8,1.5*06
2017-12-01 18:07:19 1512169639.702888: $GPGSV,3,1,12,03,35,306,47,14,60,081,43,16,16,189,42,22,49,282,46*77
2017-12-01 18:07:19 1512169639.703074: $GPGSV,3,2,12,23,06,297,40,25,23,043,44,26,45,174,46,31,73,012,47*76
2017-12-01 18:07:19 1512169639.703163: $GPGSV,3,3,12,32,41,100,42,01,10,258,30,10,04,159,02,138,38,213,46*4C
2017-12-01 18:07:19 1512169639.814732: $GPZDA,230720.00,01,12,2017,00,00*64
2017-12-01 18:07:19 1512169639.814904: $GPGGA,230720,3946.9731,N,08404.9846,W,2,11,0.80,298.36,M,-33.325,M,,*7F
2017-12-01 18:07:19 1512169639.814972: $GPRMC,230720,A,3946.9731,N,08404.9846,W,0.0000,0.000,011217,,*30
2017-12-01 18:07:19 1512169639.815033: $GPGSA,A,3,3,14,16,22,23,25,26,31,32,1,138,,2.0,0.8,1.5*07
2017-12-01 18:07:20 1512169640.395576: $GPZDA,230721.00,01,12,2017,00,00*65
2017-12-01 18:07:20 1512169640.395761: $GPGGA,230721,3946.9731,N,08404.9846,W,2,11,0.80,298.36,M,-33.325,M,,*7E
2017-12-01 18:07:20 1512169640.395830: $GPRMC,230721,A,3946.9731,N,08404.9846,W,0.0000,0.000,011217,,*31
2017-12-01 18:07:20 1512169640.395891: $GPGSA,A,3,3,14,16,22,23,25,26,31,32,1,138,,2.0,0.8,1.5*07
2017-12-01 18:07:21 1512169641.369002: $GPZDA,230722.00,01,12,2017,00,00*66
2017-12-01 18:07:21 1512169641.369221: $GPGGA,230722,3946.9731,N,08404.9846,W,2,11,0.80,298.36,M,-33.325,M,,*7D
2017-12-01 18:07:21 1512169641.369290: $GPRMC,230722,A,3946.9731,N,08404.9846,W,0.0000,0.000,011217,,*32
2017-12-01 18:07:21 1512169641.369350: $GPGSA,A,3,3,14,16,22,23,25,26,31,32,1,138,,2.0,0.8,1.5*07
2017-12-01 18:07:22 1512169642.732922: $GPGSV,3,1,12,03,35,306,47,14,60,081,42,16,16,189,42,22,49,282,46*76
2017-12-01 18:07:22 1512169642.733114: $GPGSV,3,2,12,23,06,297,40,25,23,043,44,26,45,174,46,31,73,012,47*76
2017-12-01 18:07:22 1512169642.734390: $GPGSV,3,3,12,32,41,100,43,01,10,258,30,10,04,159,25,138,38,213,47*49
2017-12-01 18:07:22 1512169642.846256: $GPZDA,230723.00,01,12,2017,00,00*67
2017-12-01 18:07:22 1512169642.846412: $GPGGA,230723,3946.9731,N,08404.9846,W,2,12,0.80,298.36,M,-33.325,M,,*7F
2017-12-01 18:07:22 1512169642.846479: $GPRMC,230723,A,3946.9731,N,08404.9846,W,0.0000,0.000,011217,,*33
2017-12-01 18:07:22 1512169642.846541: $GPGSA,A,3,3,14,16,22,23,25,26,31,32,1,10,138,2.0,0.8,1.5*06
2017-12-01 18:07:23 1512169643.400261: $GPZDA,230724.00,01,12,2017,00,00*60
2017-12-01 18:07:23 1512169643.400431: $GPGGA,230724,3946.9731,N,08404.9846,W,2,12,0.80,298.36,M,-33.325,M,,*78
2017-12-01 18:07:23 1512169643.400499: $GPRMC,230724,A,3946.9731,N,08404.9846,W,0.0000,0.000,011217,,*34
2017-12-01 18:07:23 1512169643.400561: $GPGSA,A,3,3,14,16,22,23,25,26,31,32,1,10,138,2.0,0.8,1.5*06
2017-12-01 18:07:24 1512169644.389218: $GPZDA,230725.00,01,12,2017,00,00*61
2017-12-01 18:07:24 1512169644.389390: $GPGGA,230725,3946.9731,N,08404.9846,W,2,12,0.80,298.36,M,-33.325,M,,*79
2017-12-01 18:07:24 1512169644.389458: $GPRMC,230725,A,3946.9731,N,08404.9846,W,0.0000,0.000,011217,,*35
2017-12-01 18:07:24 1512169644.389519: $GPGSA,A,3,3,14,16,22,23,25,26,31,32,1,10,138,2.0,0.8,1.5*06
2017-12-01 18:07:25 1512169645.733827: $GPGSV,3,1,12,03,35,306,46,14,60,081,43,16,16,189,43,22,49,282,46*77
2017-12-01 18:07:25 1512169645.734011: $GPGSV,3,2,12,23,06,297,39,25,23,043,44,26,45,174,46,31,73,012,47*78
2017-12-01 18:07:25 1512169645.734079: $GPGSV,3,3,12,32,41,100,42,01,10,258,30,29,08,079,14,138,38,213,46*4E
2017-12-01 18:07:25 1512169645.847539: $GPZDA,230726.00,01,12,2017,00,00*62
2017-12-01 18:07:25 1512169645.847731: $GPGGA,230726,3946.9731,N,08404.9846,W,2,11,0.80,298.36,M,-33.325,M,,*79
2017-12-01 18:07:25 1512169645.847798: $GPRMC,230726,A,3946.9731,N,08404.9846,W,0.0000,0.000,011217,,*36
2017-12-01 18:07:25 1512169645.847859: $GPGSA,A,3,3,14,16,22,23,25,26,31,32,1,138,,2.0,0.8,1.5*07
