2017-11-15 18:39:00 1510789140.484150: {"class":"VERSION","release":"3.17","rev":"3.17","proto_major":3,"proto_minor":12}
2017-11-15 18:39:00 1510789140.484616: {"class":"DEVICES","devices":[{"class":"DEVICE","path":"/dev/ttyUSB0","driver":"SiRF","subtype":"9\u0006GSD4e_4.1.2-P1_RPATCH.05-F-GPS-4R-1510281 11/03/2015 307","activated":"2017-11-15T23:39:00.218Z","flags":1,"native":1,"bps":4800,"parity":"N","stopbits":1,"cycle":1.00}]}
2017-11-15 18:39:00 1510789140.484734: {"class":"WATCH","enable":true,"json":false,"nmea":true,"raw":0,"scaled":false,"timing":false,"split24":false,"pps":false}
2017-11-15 18:39:00 1510789140.667705: $GPGSV,3,1,11,25,34,055,17,14,68,046,16,22,41,301,12,32,54,082,18*74
2017-11-15 18:39:00 1510789140.667877: $GPGSV,3,2,11,31,79,291,23,03,22,315,09,10,20,157,07,26,27,178,18*73
2017-11-15 18:39:00 1510789140.667935: $GPGSV,3,3,11,01,18,273,00,12,05,031,00,135,23,238,00*7C
2017-11-15 18:39:00 1510789140.781029: $GPZDA,233859.00,15,11,2017,00,00*60
2017-11-15 18:39:00 1510789140.781192: $GPGGA,233859,3946.9490,N,08404.9650,W,1,07,2.80,300.34,M,-33.324,M,,*79
2017-11-15 18:39:00 1510789140.781253: $GPRMC,233859,A,3946.9490,N,08404.9650,W,1.9132,176.511,151117,,*38
2017-11-15 18:39:00 1510789140.781308: $GPGSA,A,3,25,14,22,32,31,10,26,,,,,,3.4,2.8,2.9*30
2017-11-15 18:39:01 1510789141.406418: $GPZDA,233900.00,15,11,2017,00,00*6D
2017-11-15 18:39:01 1510789141.406582: $GPGGA,233900,3946.9490,N,08404.9650,W,1,07,2.80,300.34,M,-33.324,M,,*74
2017-11-15 18:39:01 1510789141.406644: $GPRMC,233900,A,3946.9490,N,08404.9650,W,0.6846,184.197,151117,,*36
2017-11-15 18:39:01 1510789141.406699: $GPGSA,A,3,25,14,22,32,31,10,26,,,,,,3.4,2.8,2.9*30
2017-11-15 18:39:02 1510789142.332271: $GPZDA,233901.00,15,11,2017,00,00*6C
2017-11-15 18:39:02 1510789142.332444: $GPGGA,233901,3946.9483,N,08404.9651,W,1,07,1.00,300.46,M,-33.324,M,,*78
2017-11-15 18:39:02 1510789142.332506: $GPRMC,233901,A,3946.9483,N,08404.9651,W,0.3423,184.197,151117,,*3E
2017-11-15 18:39:02 1510789142.332562: $GPGSA,A,3,25,14,22,32,31,10,26,,,,,,3.4,1.0,2.9*3B
2017-11-15 18:39:03 1510789143.666892: $GPGSV,3,1,11,25,34,055,18,14,68,046,16,22,41,301,05,32,54,082,18*7D
2017-11-15 18:39:03 1510789143.667036: $GPGSV,3,2,11,31,79,291,23,03,22,315,10,10,20,157,09,26,27,178,20*7E
2017-11-15 18:39:03 1510789143.667096: $GPGSV,3,3,11,12,05,031,11,01,18,273,00,135,23,238,00*7C
2017-11-15 18:39:03 1510789143.779127: $GPZDA,233902.00,15,11,2017,00,00*6F
2017-11-15 18:39:03 1510789143.779278: $GPGGA,233902,3946.9483,N,08404.9651,W,1,08,1.00,300.46,M,-33.324,M,,*74
2017-11-15 18:39:03 1510789143.779337: $GPRMC,233902,A,3946.9483,N,08404.9651,W,0.2422,93.794,151117,,*0F
2017-11-15 18:39:03 1510789143.779392: $GPGSA,A,3,25,14,22,32,31,3,10,26,,,,,3.4,1.0,2.9*08
2017-11-15 18:39:04 1510789144.364724: $GPZDA,233903.00,15,11,2017,00,00*6E
2017-11-15 18:39:04 1510789144.364892: $GPGGA,233903,3946.9483,N,08404.9651,W,1,08,1.00,300.46,M,-33.324,M,,*75
2017-11-15 18:39:04 1510789144.364953: $GPRMC,233903,A,3946.9483,N,08404.9651,W,0.4844,93.794,151117,,*04
2017-11-15 18:39:04 1510789144.365010: $GPGSA,A,3,25,14,22,32,31,3,10,26,,,,,3.4,1.0,2.9*08
2017-11-15 18:39:05 1510789145.329706: $GPZDA,233904.00,15,11,2017,00,00*69
2017-11-15 18:39:05 1510789145.329881: $GPGGA,233904,3946.9482,N,08404.9644,W,1,08,1.20,300.54,M,-33.324,M,,*76
2017-11-15 18:39:05 1510789145.329946: $GPRMC,233904,A,3946.9482,N,08404.9644,W,1.2111,93.794,151117,,*08
2017-11-15 18:39:05 1510789145.330006: $GPGSA,A,3,25,14,22,32,31,3,10,26,,,,,3.4,1.2,2.9*0A
2017-11-15 18:39:06 1510789146.699652: $GPGSV,3,1,11,25,34,055,18,14,68,046,16,22,41,301,16,32,54,082,18*7F
2017-11-15 18:39:06 1510789146.699839: $GPGSV,3,2,11,31,79,291,23,03,22,315,06,10,20,157,09,26,27,178,20*79
2017-11-15 18:39:06 1510789146.699900: $GPGSV,3,3,11,12,05,031,15,01,18,273,00,135,23,238,00*78
2017-11-15 18:39:06 1510789146.813383: $GPZDA,233905.00,15,11,2017,00,00*68
2017-11-15 18:39:06 1510789146.813525: $GPGGA,233905,3946.9482,N,08404.9637,W,1,07,1.20,300.62,M,-33.324,M,,*79
2017-11-15 18:39:06 1510789146.813584: $GPRMC,233905,A,3946.9482,N,08404.9637,W,1.6955,93.794,151117,,*01
2017-11-15 18:39:06 1510789146.813689: $GPGSA,A,3,25,14,22,32,31,10,26,,,,,,3.4,1.2,2.9*39
2017-11-15 18:39:07 1510789147.363957: $GPZDA,233906.00,15,11,2017,00,00*6B
2017-11-15 18:39:07 1510789147.364119: $GPGGA,233906,3946.9482,N,08404.9630,W,1,07,1.20,300.70,M,-33.324,M,,*7E
2017-11-15 18:39:07 1510789147.364198: $GPRMC,233906,A,3946.9482,N,08404.9630,W,1.9377,93.794,151117,,*00
2017-11-15 18:39:07 1510789147.364254: $GPGSA,A,3,25,14,22,32,31,10,26,,,,,,3.4,1.2,2.9*39
2017-11-15 18:39:08 1510789148.364742: $GPZDA,233907.00,15,11,2017,00,00*6A
2017-11-15 18:39:08 1510789148.364888: $GPGGA,233907,3946.9481,N,08404.9623,W,1,07,1.20,300.78,M,-33.324,M,,*76
2017-11-15 18:39:08 1510789148.364948: $GPRMC,233907,A,3946.9481,N,08404.9623,W,1.7180,100.020,151117,,*37
2017-11-15 18:39:08 1510789148.365005: $GPGSA,A,3,25,14,22,32,31,10,26,,,,,,3.4,1.2,2.9*39
2017-11-15 18:39:09 1510789149.665636: $GPGSV,3,1,11,25,34,055,18,14,68,046,16,22,41,301,17,32,54,082,18*7E
2017-11-15 18:39:09 1510789149.665830: $GPGSV,3,2,11,31,79,291,23,03,22,315,04,10,20,157,09,26,27,178,20*7B
2017-11-15 18:39:09 1510789149.665895: $GPGSV,3,3,11,01,18,273,00,12,05,031,00,135,23,238,00*7C
2017-11-15 18:39:09 1510789149.779166: $GPZDA,233908.00,15,11,2017,00,00*65
2017-11-15 18:39:09 1510789149.779355: $GPGGA,233908,3946.9481,N,08404.9623,W,1,07,1.20,300.78,M,-33.324,M,,*79
2017-11-15 18:39:09 1510789149.779445: $GPRMC,233908,A,3946.9481,N,08404.9623,W,1.2111,93.794,151117,,*06
2017-11-15 18:39:09 1510789149.779506: $GPGSA,A,3,25,14,22,32,31,10,26,,,,,,3.4,1.2,2.9*39
2017-11-15 18:39:10 1510789150.329717: $GPZDA,233909.00,15,11,2017,00,00*64
2017-11-15 18:39:10 1510789150.329882: $GPGGA,233909,3946.9481,N,08404.9616,W,1,07,1.20,300.86,M,-33.324,M,,*7F
2017-11-15 18:39:10 1510789150.329946: $GPRMC,233909,A,3946.9481,N,08404.9616,W,1.0253,113.296,151117,,*38
2017-11-15 18:39:10 1510789150.330005: $GPGSA,A,3,25,14,22,32,31,10,26,,,,,,3.4,1.2,2.9*39
2017-11-15 18:39:11 1510789151.330124: $GPZDA,233910.00,15,11,2017,00,00*6C
2017-11-15 18:39:11 1510789151.330286: $GPGGA,233910,3946.9481,N,08404.9616,W,1,07,1.20,300.86,M,-33.324,M,,*77
2017-11-15 18:39:11 1510789151.330364: $GPRMC,233910,A,3946.9481,N,08404.9616,W,1.2111,93.794,151117,,*09
2017-11-15 18:39:11 1510789151.330426: $GPGSA,A,3,25,14,22,32,31,10,26,,,,,,3.4,1.2,2.9*39
2017-11-15 18:39:12 1510789152.665970: $GPGSV,3,1,11,25,34,055,17,14,68,046,15,22,41,301,17,32,54,082,18*72
2017-11-15 18:39:12 1510789152.666145: $GPGSV,3,2,11,31,79,291,23,03,22,315,11,10,20,157,07,26,27,178,20*71
2017-11-15 18:39:12 1510789152.666208: $GPGSV,3,3,11,01,18,273,00,12,05,031,00,135,23,238,00*7C
2017-11-15 18:39:12 1510789152.779617: $GPZDA,233911.00,15,11,2017,00,00*6D
2017-11-15 18:39:12 1510789152.779792: $GPGGA,233911,3946.9481,N,08404.9609,W,1,08,1.00,300.94,M,-33.324,M,,*76
2017-11-15 18:39:12 1510789152.779857: $GPRMC,233911,A,3946.9481,N,08404.9609,W,0.9689,93.794,151117,,*0A
2017-11-15 18:39:12 1510789152.779916: $GPGSA,A,3,25,14,22,32,31,3,10,26,,,,,3.4,1.0,2.9*08
2017-11-15 18:39:13 1510789153.330123: $GPZDA,233912.00,15,11,2017,00,00*6E
2017-11-15 18:39:13 1510789153.330310: $GPGGA,233912,3946.9481,N,08404.9610,W,1,08,1.00,302.34,M,-33.324,M,,*75
2017-11-15 18:39:13 1510789153.330380: $GPRMC,233912,A,3946.9481,N,08404.9610,W,0.4844,93.794,151117,,*03
2017-11-15 18:39:13 1510789153.330445: $GPGSA,A,3,25,14,22,32,31,3,10,26,,,,,3.4,1.0,2.9*08
2017-11-15 18:39:14 1510789154.364765: $GPZDA,233913.00,15,11,2017,00,00*6F
2017-11-15 18:39:14 1510789154.364939: $GPGGA,233913,3946.9481,N,08404.9603,W,1,08,1.00,302.42,M,-33.324,M,,*77
2017-11-15 18:39:14 1510789154.365004: $GPRMC,233913,A,3946.9481,N,08404.9603,W,0.7267,93.794,151117,,*08
2017-11-15 18:39:14 1510789154.365064: $GPGSA,A,3,25,14,22,32,31,3,10,26,,,,,3.4,1.0,2.9*08
