2018-01-11 21:02:18 1515722538.406963: {"class":"VERSION","release":"3.16","rev":"3.16-4","proto_major":3,"proto_minor":11}
2018-01-11 21:02:18 1515722538.407390: {"class":"DEVICES","devices":[{"class":"DEVICE","path":"/dev/ttyUSB0","driver":"SiRF","subtype":"9\u0006GSD4e_4.1.2-P1_RPATCH.05-F-GPS-4R-1510281 11/03/2015 307","activated":"2018-01-12T02:02:18.380Z","flags":1,"native":1,"bps":4800,"parity":"N","stopbits":1,"cycle":1.00}]}
2018-01-11 21:02:18 1515722538.407506: {"class":"WATCH","enable":true,"json":false,"nmea":true,"raw":0,"scaled":false,"timing":false,"split24":false,"pps":false}
2018-01-11 21:02:19 1515722539.376151: $GPZDA,020220.00,12,01,2018,00,00*6D
2018-01-11 21:02:19 1515722539.376340: $GPGGA,020220,3946.9587,N,08404.9836,W,2,12,1.00,294.58,M,-33.324,M,,*7E
2018-01-11 21:02:19 1515722539.376407: $GPRMC,020220,A,3946.9587,N,08404.9836,W,0.0000,0.000,120118,,*31
2018-01-11 21:02:19 1515722539.376468: $GPGSA,A,3,1,7,8,9,11,27,28,30,16,23,13,138,4.0,1.0,3.5*04
2018-01-11 21:02:20 1515722540.716879: $GPGSV,3,1,12,01,17,153,43,07,79,310,44,08,66,055,47,09,28,210,42*79
2018-01-11 21:02:20 1515722540.717041: $GPGSV,3,2,12,11,41,157,45,27,27,045,51,28,29,276,34,30,50,310,41*7D
2018-01-11 21:02:20 1515722540.717108: $GPGSV,3,3,12,16,07,075,11,23,07,183,37,13,01,330,14,138,38,213,45*46
2018-01-11 21:02:20 1515722540.829329: $GPZDA,020221.00,12,01,2018,00,00*6C
2018-01-11 21:02:20 1515722540.829467: $GPGGA,020221,3946.9587,N,08404.9836,W,2,12,1.00,294.58,M,-33.324,M,,*7F
2018-01-11 21:02:20 1515722540.829557: $GPRMC,020221,A,3946.9587,N,08404.9836,W,0.0000,0.000,120118,,*30
2018-01-11 21:02:20 1515722540.829619: $GPGSA,A,3,1,7,8,9,11,27,28,30,16,23,13,138,4.0,1.0,3.5*04
2018-01-11 21:02:21 1515722541.362616: $GPZDA,020222.00,12,01,2018,00,00*6F
2018-01-11 21:02:21 1515722541.362789: $GPGGA,020222,3946.9587,N,08404.9836,W,2,12,1.00,294.58,M,-33.324,M,,*7C
2018-01-11 21:02:21 1515722541.362855: $GPRMC,020222,A,3946.9587,N,08404.9836,W,0.0000,0.000,120118,,*33
2018-01-11 21:02:21 1515722541.362916: $GPGSA,A,3,1,7,8,9,11,27,28,30,16,23,13,138,4.0,1.0,3.5*04
2018-01-11 21:02:22 1515722542.381068: $GPZDA,020223.00,12,01,2018,00,00*6E
2018-01-11 21:02:22 1515722542.381223: $GPGGA,020223,3946.9587,N,08404.9836,W,2,12,1.00,294.58,M,-33.324,M,,*7D
2018-01-11 21:02:22 1515722542.381289: $GPRMC,020223,A,3946.9587,N,08404.9836,W,0.0000,0.000,120118,,*32
2018-01-11 21:02:22 1515722542.381349: $GPGSA,A,3,1,7,8,9,11,27,28,30,16,23,13,138,4.0,1.0,3.5*04
2018-01-11 21:02:23 1515722543.716494: $GPGSV,3,1,12,01,17,153,43,07,79,310,44,08,66,055,47,09,28,210,42*79
2018-01-11 21:02:24 1515722544.358332: $GPGSV,3,2,12,11,41,157,45,27,27,045,51,28,29,276,34,30,50,310,41*7D
2018-01-11 21:02:24 1515722544.358482: $GPGSV,3,3,12,16,07,075,10,23,07,183,37,13,01,330,15,138,38,213,44*47
2018-01-11 21:02:24 1515722544.358603: $GPZDA,020224.00,12,01,2018,00,00*69
2018-01-11 21:02:24 1515722544.358687: $GPGGA,020224,3946.9591,N,08404.9836,W,2,12,1.00,295.22,M,-33.324,M,,*71
2018-01-11 21:02:24 1515722544.358753: $GPRMC,020224,A,3946.9591,N,08404.9836,W,0.0000,0.000,120118,,*32
2018-01-11 21:02:24 1515722544.358815: $GPGSA,A,3,1,7,8,9,11,27,28,30,16,23,13,138,4.0,1.0,3.5*04
2018-01-11 21:02:24 1515722544.455703: $GPZDA,020225.00,12,01,2018,00,00*68
2018-01-11 21:02:24 1515722544.455872: $GPGGA,020225,3946.9591,N,08404.9836,W,2,12,1.00,295.22,M,-33.324,M,,*70
2018-01-11 21:02:24 1515722544.455941: $GPRMC,020225,A,3946.9591,N,08404.9836,W,0.0000,0.000,120118,,*33
2018-01-11 21:02:24 1515722544.456004: $GPGSA,A,3,1,7,8,9,11,27,28,30,16,23,13,138,4.0,1.0,3.5*04
2018-01-11 21:02:25 1515722545.359110: $GPZDA,020226.00,12,01,2018,00,00*6B
2018-01-11 21:02:25 1515722545.359275: $GPGGA,020226,3946.9591,N,08404.9836,W,2,12,1.00,295.22,M,-33.324,M,,*73
2018-01-11 21:02:25 1515722545.359344: $GPRMC,020226,A,3946.9591,N,08404.9836,W,0.0000,0.000,120118,,*30
2018-01-11 21:02:25 1515722545.359407: $GPGSA,A,3,1,7,8,9,11,27,28,30,16,23,13,138,4.0,1.0,3.5*04
