2018-01-11 19:58:48 1515718728.875288: {"class":"VERSION","release":"3.16","rev":"3.16-4","proto_major":3,"proto_minor":11}
2018-01-11 19:58:48 1515718728.875637: {"class":"DEVICES","devices":[{"class":"DEVICE","path":"/dev/ttyUSB0","driver":"SiRF","subtype":"9\u0006GSD4e_4.1.2-P1_RPATCH.05-F-GPS-4R-1510281 11/03/2015 307","activated":"2018-01-12T00:58:48.534Z","flags":1,"native":1,"bps":4800,"parity":"N","stopbits":1,"cycle":1.00}]}
2018-01-11 19:58:48 1515718728.875753: {"class":"WATCH","enable":true,"json":false,"nmea":true,"raw":0,"scaled":false,"timing":false,"split24":false,"pps":false}
2018-01-11 19:58:49 1515718729.392683: $GPZDA,005850.00,12,01,2018,00,00*67
2018-01-11 19:58:49 1515718729.392874: $GPGGA,005850,3946.9565,N,08404.9804,W,2,10,0.80,310.24,M,-33.324,M,,*74
2018-01-11 19:58:49 1515718729.392945: $GPRMC,005850,A,3946.9565,N,08404.9804,W,0.0000,0.000,120118,,*36
2018-01-11 19:58:49 1515718729.393010: $GPGSA,A,3,7,8,9,11,16,23,27,28,30,138,,,4.0,0.8,3.5*3E
2018-01-11 19:58:50 1515718730.727550: $GPGSV,3,1,11,07,50,312,42,08,69,147,46,09,52,237,43,11,15,169,38*76
2018-01-11 19:58:50 1515718730.727719: $GPGSV,3,2,11,16,27,057,46,23,35,192,48,27,52,058,50,28,10,255,30*7B
2018-01-11 19:58:50 1515718730.727789: $GPGSV,3,3,11,30,24,304,37,26,02,069,00,138,38,213,46*75
2018-01-11 19:58:50 1515718730.840885: $GPZDA,005851.00,12,01,2018,00,00*66
2018-01-11 19:58:50 1515718730.841013: $GPGGA,005851,3946.9565,N,08404.9804,W,2,10,0.80,310.24,M,-33.324,M,,*75
2018-01-11 19:58:50 1515718730.841079: $GPRMC,005851,A,3946.9565,N,08404.9804,W,0.0000,0.000,120118,,*37
2018-01-11 19:58:50 1515718730.841145: $GPGSA,A,3,7,8,9,11,16,23,27,28,30,138,,,4.0,0.8,3.5*3E
2018-01-11 19:58:51 1515718731.375544: $GPZDA,005852.00,12,01,2018,00,00*65
2018-01-11 19:58:51 1515718731.375722: $GPGGA,005852,3946.9565,N,08404.9804,W,2,10,0.80,310.24,M,-33.324,M,,*76
2018-01-11 19:58:51 1515718731.375790: $GPRMC,005852,A,3946.9565,N,08404.9804,W,0.0000,0.000,120118,,*34
2018-01-11 19:58:51 1515718731.375855: $GPGSA,A,3,7,8,9,11,16,23,27,28,30,138,,,4.0,0.8,3.5*3E
2018-01-11 19:58:52 1515718732.376527: $GPZDA,005853.00,12,01,2018,00,00*64
2018-01-11 19:58:52 1515718732.376701: $GPGGA,005853,3946.9565,N,08404.9804,W,2,10,0.80,310.24,M,-33.324,M,,*77
2018-01-11 19:58:52 1515718732.376773: $GPRMC,005853,A,3946.9565,N,08404.9804,W,0.0000,0.000,120118,,*35
2018-01-11 19:58:52 1515718732.376838: $GPGSA,A,3,7,8,9,11,16,23,27,28,30,138,,,4.0,0.8,3.5*3E
2018-01-11 19:58:53 1515718733.728453: $GPGSV,3,1,11,07,50,312,41,08,69,147,46,09,52,237,42,11,15,169,39*75
2018-01-11 19:58:53 1515718733.728624: $GPGSV,3,2,11,16,27,057,46,23,35,192,47,27,52,058,50,28,10,255,26*73
2018-01-11 19:58:53 1515718733.728694: $GPGSV,3,3,11,30,24,304,37,26,02,069,00,138,38,213,45*76
2018-01-11 19:58:53 1515718733.841849: $GPZDA,005854.00,12,01,2018,00,00*63
2018-01-11 19:58:53 1515718733.841975: $GPGGA,005854,3946.9565,N,08404.9804,W,2,10,0.80,310.24,M,-33.324,M,,*70
2018-01-11 19:58:53 1515718733.842042: $GPRMC,005854,A,3946.9565,N,08404.9804,W,0.0000,0.000,120118,,*32
2018-01-11 19:58:53 1515718733.842111: $GPGSA,A,3,7,8,9,11,16,23,27,28,30,138,,,4.0,0.8,3.5*3E
2018-01-11 19:58:54 1515718734.387637: $GPZDA,005855.00,12,01,2018,00,00*62
2018-01-11 19:58:54 1515718734.387810: $GPGGA,005855,3946.9565,N,08404.9804,W,2,10,0.80,310.24,M,-33.324,M,,*71
2018-01-11 19:58:54 1515718734.387880: $GPRMC,005855,A,3946.9565,N,08404.9804,W,0.0000,0.000,120118,,*33
2018-01-11 19:58:54 1515718734.387961: $GPGSA,A,3,7,8,9,11,16,23,27,28,30,138,,,4.0,0.8,3.5*3E
2018-01-11 19:58:55 1515718735.377996: $GPZDA,005856.00,12,01,2018,00,00*61
2018-01-11 19:58:55 1515718735.378186: $GPGGA,005856,3946.9565,N,08404.9804,W,2,10,0.80,310.24,M,-33.324,M,,*72
2018-01-11 19:58:55 1515718735.378257: $GPRMC,005856,A,3946.9565,N,08404.9804,W,0.0000,0.000,120118,,*30
2018-01-11 19:58:55 1515718735.378323: $GPGSA,A,3,7,8,9,11,16,23,27,28,30,138,,,4.0,0.8,3.5*3E
2018-01-11 19:58:56 1515718736.712504: $GPGSV,3,1,11,07,50,312,42,08,69,147,46,09,52,237,42,11,15,169,39*76
2018-01-11 19:58:56 1515718736.712666: $GPGSV,3,2,11,16,27,057,46,23,35,192,47,27,52,058,51,28,10,255,26*72
2018-01-11 19:58:56 1515718736.712794: $GPGSV,3,3,11,30,24,304,37,26,02,069,00,138,38,213,45*76
2018-01-11 19:58:56 1515718736.826206: $GPZDA,005857.00,12,01,2018,00,00*60
2018-01-11 19:58:56 1515718736.826342: $GPGGA,005857,3946.9565,N,08404.9804,W,2,10,0.80,310.24,M,-33.324,M,,*73
2018-01-11 19:58:56 1515718736.826405: $GPRMC,005857,A,3946.9565,N,08404.9804,W,0.0000,0.000,120118,,*31
2018-01-11 19:58:56 1515718736.826467: $GPGSA,A,3,7,8,9,11,16,23,27,28,30,138,,,4.0,0.8,3.5*3E
2018-01-11 19:58:57 1515718737.376729: $GPZDA,005858.00,12,01,2018,00,00*6F
2018-01-11 19:58:57 1515718737.376903: $GPGGA,005858,3946.9565,N,08404.9804,W,2,10,0.80,310.24,M,-33.324,M,,*7C
2018-01-11 19:58:57 1515718737.376972: $GPRMC,005858,A,3946.9565,N,08404.9804,W,0.0000,0.000,120118,,*3E
2018-01-11 19:58:57 1515718737.377034: $GPGSA,A,3,7,8,9,11,16,23,27,28,30,138,,,4.0,0.8,3.5*3E
2018-01-11 19:58:58 1515718738.376339: $GPZDA,005859.00,12,01,2018,00,00*6E
2018-01-11 19:58:58 1515718738.376507: $GPGGA,005859,3946.9565,N,08404.9804,W,2,10,0.80,310.24,M,-33.324,M,,*7D
2018-01-11 19:58:58 1515718738.376576: $GPRMC,005859,A,3946.9565,N,08404.9804,W,0.0000,0.000,120118,,*3F
2018-01-11 19:58:58 1515718738.376636: $GPGSA,A,3,7,8,9,11,16,23,27,28,30,138,,,4.0,0.8,3.5*3E
