2017-11-16 14:48:12 1510861692.848170: {"class":"VERSION","release":"3.17","rev":"3.17","proto_major":3,"proto_minor":12}
2017-11-16 14:48:12 1510861692.848643: {"class":"DEVICES","devices":[{"class":"DEVICE","path":"/dev/ttyUSB0","driver":"SiRF","subtype":"9\u0006GSD4e_4.1.2-P1_RPATCH.05-F-GPS-4R-1510281 11/03/2015 307","activated":"2017-11-16T19:48:12.823Z","flags":1,"native":1,"bps":4800,"parity":"N","stopbits":1,"cycle":1.00}]}
2017-11-16 14:48:12 1510861692.848756: {"class":"WATCH","enable":true,"json":false,"nmea":true,"raw":0,"scaled":false,"timing":false,"split24":false,"pps":false}
2017-11-16 14:48:12 1510861692.936450: $GPZDA,194811.00,16,11,2017,00,00*61
2017-11-16 14:48:12 1510861692.936611: $GPGGA,194811,3946.9568,N,08404.9842,W,2,11,0.80,303.38,M,-33.324,M,,*79
2017-11-16 14:48:12 1510861692.936673: $GPRMC,194811,A,3946.9568,N,08404.9842,W,0.0000,0.000,161117,,*3F
2017-11-16 14:48:12 1510861692.936729: $GPGSA,A,3,8,10,15,18,21,20,24,27,32,14,138,,1.6,0.8,1.3*37
2017-11-16 14:48:13 1510861693.485850: $GPZDA,194812.00,16,11,2017,00,00*62
2017-11-16 14:48:13 1510861693.486014: $GPGGA,194812,3946.9568,N,08404.9842,W,2,11,0.80,303.38,M,-33.324,M,,*7A
2017-11-16 14:48:13 1510861693.486075: $GPRMC,194812,A,3946.9568,N,08404.9842,W,0.0000,0.000,161117,,*3C
2017-11-16 14:48:13 1510861693.486149: $GPGSA,A,3,8,10,15,18,21,20,24,27,32,14,138,,1.6,0.8,1.3*37
2017-11-16 14:48:14 1510861694.529935: $GPZDA,194813.00,16,11,2017,00,00*63
2017-11-16 14:48:14 1510861694.530088: $GPGGA,194813,3946.9568,N,08404.9842,W,2,11,0.80,303.38,M,-33.324,M,,*7B
2017-11-16 14:48:14 1510861694.530168: $GPRMC,194813,A,3946.9568,N,08404.9842,W,0.0000,0.000,161117,,*3D
2017-11-16 14:48:14 1510861694.530224: $GPGSA,A,3,8,10,15,18,21,20,24,27,32,14,138,,1.6,0.8,1.3*37
2017-11-16 14:48:15 1510861695.827016: $GPGSV,3,1,11,08,08,309,28,10,53,313,50,15,25,058,50,18,77,027,45*7E
2017-11-16 14:48:15 1510861695.827254: $GPGSV,3,2,11,21,48,183,47,20,22,106,44,24,53,084,48,27,15,274,44*7B
2017-11-16 14:48:15 1510861695.827318: $GPGSV,3,3,11,32,32,249,46,14,16,241,40,138,38,213,44*74
2017-11-16 14:48:15 1510861695.940719: $GPZDA,194814.00,16,11,2017,00,00*64
2017-11-16 14:48:15 1510861695.940880: $GPGGA,194814,3946.9568,N,08404.9842,W,2,11,0.80,303.38,M,-33.324,M,,*7C
2017-11-16 14:48:15 1510861695.940941: $GPRMC,194814,A,3946.9568,N,08404.9842,W,0.0000,0.000,161117,,*3A
2017-11-16 14:48:15 1510861695.940996: $GPGSA,A,3,8,10,15,18,21,20,24,27,32,14,138,,1.6,0.8,1.3*37
2017-11-16 14:48:16 1510861696.491616: $GPZDA,194815.00,16,11,2017,00,00*65
2017-11-16 14:48:16 1510861696.491854: $GPGGA,194815,3946.9568,N,08404.9842,W,2,11,0.80,303.38,M,-33.324,M,,*7D
2017-11-16 14:48:16 1510861696.491963: $GPRMC,194815,A,3946.9568,N,08404.9842,W,0.0000,0.000,161117,,*3B
2017-11-16 14:48:16 1510861696.492130: $GPGSA,A,3,8,10,15,18,21,20,24,27,32,14,138,,1.6,0.8,1.3*37
2017-11-16 14:48:17 1510861697.491215: $GPZDA,194816.00,16,11,2017,00,00*66
2017-11-16 14:48:17 1510861697.491388: $GPGGA,194816,3946.9568,N,08404.9842,W,2,11,0.80,303.38,M,-33.324,M,,*7E
2017-11-16 14:48:17 1510861697.491449: $GPRMC,194816,A,3946.9568,N,08404.9842,W,0.0000,0.000,161117,,*38
2017-11-16 14:48:17 1510861697.491504: $GPGSA,A,3,8,10,15,18,21,20,24,27,32,14,138,,1.6,0.8,1.3*37
2017-11-16 14:48:18 1510861698.827820: $GPGSV,3,1,11,08,08,309,25,10,53,313,50,15,25,058,50,18,77,027,44*72
2017-11-16 14:48:18 1510861698.827987: $GPGSV,3,2,11,21,48,183,48,20,22,106,44,24,53,084,48,27,15,274,44*74
2017-11-16 14:48:18 1510861698.828071: $GPGSV,3,3,11,32,32,249,46,14,16,241,41,138,38,213,43*72
2017-11-16 14:48:18 1510861698.942022: $GPZDA,194817.00,16,11,2017,00,00*67
2017-11-16 14:48:18 1510861698.942202: $GPGGA,194817,3946.9568,N,08404.9842,W,2,11,0.80,303.38,M,-33.324,M,,*7F
2017-11-16 14:48:18 1510861698.942266: $GPRMC,194817,A,3946.9568,N,08404.9842,W,0.0000,0.000,161117,,*39
2017-11-16 14:48:18 1510861698.942326: $GPGSA,A,3,8,10,15,18,21,20,24,27,32,14,138,,1.6,0.8,1.3*37
2017-11-16 14:48:19 1510861699.567650: $GPZDA,194818.00,16,11,2017,00,00*68
2017-11-16 14:48:19 1510861699.567821: $GPGGA,194818,3946.9568,N,08404.9842,W,2,11,0.80,303.38,M,-33.324,M,,*70
2017-11-16 14:48:19 1510861699.567936: $GPRMC,194818,A,3946.9568,N,08404.9842,W,0.0000,0.000,161117,,*36
2017-11-16 14:48:19 1510861699.567995: $GPGSA,A,3,8,10,15,18,21,20,24,27,32,14,138,,1.6,0.8,1.3*37
2017-11-16 14:48:20 1510861700.523935: $GPZDA,194819.00,16,11,2017,00,00*69
2017-11-16 14:48:20 1510861700.524110: $GPGGA,194819,3946.9568,N,08404.9842,W,2,11,0.80,303.38,M,-33.324,M,,*71
2017-11-16 14:48:20 1510861700.524171: $GPRMC,194819,A,3946.9568,N,08404.9842,W,0.0000,0.000,161117,,*37
2017-11-16 14:48:20 1510861700.524228: $GPGSA,A,3,8,10,15,18,21,20,24,27,32,14,138,,1.6,0.8,1.3*37
2017-11-16 14:48:21 1510861701.826860: $GPGSV,3,1,11,08,08,309,26,10,53,313,50,15,25,058,50,18,77,027,44*71
2017-11-16 14:48:21 1510861701.827035: $GPGSV,3,2,11,21,48,183,47,20,22,106,44,24,53,084,48,27,15,274,44*7B
2017-11-16 14:48:21 1510861701.827099: $GPGSV,3,3,11,32,32,249,46,14,16,241,41,138,38,213,44*75
2017-11-16 14:48:21 1510861701.940521: $GPZDA,194820.00,16,11,2017,00,00*63
2017-11-16 14:48:21 1510861701.940685: $GPGGA,194820,3946.9568,N,08404.9842,W,2,11,0.80,303.38,M,-33.324,M,,*7B
2017-11-16 14:48:21 1510861701.940745: $GPRMC,194820,A,3946.9568,N,08404.9842,W,0.0000,0.000,161117,,*3D
2017-11-16 14:48:21 1510861701.940802: $GPGSA,A,3,8,10,15,18,21,20,24,27,32,14,138,,1.6,0.8,1.3*37
2017-11-16 14:48:22 1510861702.491359: $GPZDA,194821.00,16,11,2017,00,00*62
2017-11-16 14:48:22 1510861702.492942: $GPGGA,194821,3946.9568,N,08404.9842,W,2,11,0.80,303.38,M,-33.324,M,,*7A
2017-11-16 14:48:22 1510861702.493032: $GPRMC,194821,A,3946.9568,N,08404.9842,W,0.0000,0.000,161117,,*3C
2017-11-16 14:48:22 1510861702.493093: $GPGSA,A,3,8,10,15,18,21,20,24,27,32,14,138,,1.6,0.8,1.3*37
