2017-12-14 12:19:22 1513271962.113554: {"class":"VERSION","release":"3.16","rev":"3.16-4","proto_major":3,"proto_minor":11}
2017-12-14 12:19:22 1513271962.113953: {"class":"DEVICES","devices":[{"class":"DEVICE","path":"/dev/ttyUSB0","driver":"SiRF","subtype":"9\u0006GSD4e_4.1.2-P1_RPATCH.05-F-GPS-4R-1510281 11/03/2015 307","activated":"2017-12-14T17:19:21.511Z","flags":1,"native":1,"bps":4800,"parity":"N","stopbits":1,"cycle":1.00}]}
2017-12-14 12:19:22 1513271962.114067: {"class":"WATCH","enable":true,"json":false,"nmea":true,"raw":0,"scaled":false,"timing":false,"split24":false,"pps":false}
2017-12-14 12:19:22 1513271962.195204: $GPZDA,171923.00,14,12,2017,00,00*6B
2017-12-14 12:19:22 1513271962.195368: $GPGGA,171923,3946.9468,N,08404.9311,W,1,06,1.80,308.56,M,-33.324,M,,*79
2017-12-14 12:19:22 1513271962.195435: $GPRMC,171923,A,3946.9468,N,08404.9311,W,0.4989,147.677,141217,,*31
2017-12-14 12:19:22 1513271962.195495: $GPGSA,A,3,15,20,24,32,21,27,,,,,,,6.6,1.8,6.2*38
2017-12-14 12:19:23 1513271963.531337: $GPGSV,3,1,12,15,37,052,23,20,34,096,18,24,51,109,30,32,21,238,19*77
2017-12-14 12:19:23 1513271963.531491: $GPGSV,3,2,12,21,62,187,30,18,71,339,12,27,19,289,09,10,42,301,05*73
2017-12-14 12:19:23 1513271963.531556: $GPGSV,3,3,12,13,07,048,00,08,06,322,00,14,04,232,00,138,38,213,00*4D
2017-12-14 12:19:23 1513271963.643536: $GPZDA,171924.00,14,12,2017,00,00*6C
2017-12-14 12:19:23 1513271963.643721: $GPGGA,171924,3946.9463,N,08404.9311,W,1,06,1.80,307.92,M,-33.324,M,,*72
2017-12-14 12:19:23 1513271963.643818: $GPRMC,171924,A,3946.9463,N,08404.9311,W,0.8051,140.842,141217,,*32
2017-12-14 12:19:23 1513271963.643896: $GPGSA,A,3,15,20,24,32,21,27,,,,,,,6.6,1.8,6.2*38
2017-12-14 12:19:24 1513271964.195076: $GPZDA,171925.00,14,12,2017,00,00*6D
2017-12-14 12:19:24 1513271964.195243: $GPGGA,171925,3946.9459,N,08404.9305,W,1,06,1.80,307.36,M,-33.324,M,,*71
2017-12-14 12:19:24 1513271964.195308: $GPRMC,171925,A,3946.9459,N,08404.9305,W,1.1254,168.901,141217,,*3C
2017-12-14 12:19:24 1513271964.195369: $GPGSA,A,3,15,20,24,32,21,27,,,,,,,6.6,1.8,6.2*38
2017-12-14 12:19:25 1513271965.196316: $GPZDA,171926.00,14,12,2017,00,00*6E
2017-12-14 12:19:25 1513271965.196483: $GPGGA,171926,3946.9455,N,08404.9305,W,1,06,1.80,306.72,M,-33.324,M,,*7F
2017-12-14 12:19:25 1513271965.196547: $GPRMC,171926,A,3946.9455,N,08404.9305,W,1.7961,157.927,141217,,*30
2017-12-14 12:19:25 1513271965.196608: $GPGSA,A,3,15,20,24,32,21,27,,,,,,,6.6,1.8,6.2*38
2017-12-14 12:19:26 1513271966.531209: $GPGSV,3,1,12,15,37,052,23,20,34,096,18,24,51,109,30,32,21,238,19*77
2017-12-14 12:19:26 1513271966.531385: $GPGSV,3,2,12,21,62,187,30,18,71,339,00,27,19,289,10,10,42,301,06*7B
2017-12-14 12:19:26 1513271966.531449: $GPGSV,3,3,12,13,07,048,00,08,06,322,00,14,04,232,00,138,38,213,00*4D
2017-12-14 12:19:26 1513271966.644601: $GPZDA,171927.00,14,12,2017,00,00*6F
2017-12-14 12:19:26 1513271966.644773: $GPGGA,171927,3946.9447,N,08404.9305,W,1,06,1.80,306.84,M,-33.324,M,,*74
2017-12-14 12:19:26 1513271966.644839: $GPRMC,171927,A,3946.9447,N,08404.9305,W,1.6436,173.306,141217,,*33
2017-12-14 12:19:26 1513271966.644900: $GPGSA,A,3,15,20,24,32,21,27,,,,,,,6.6,1.8,6.2*38
2017-12-14 12:19:27 1513271967.195495: $GPZDA,171928.00,14,12,2017,00,00*60
2017-12-14 12:19:27 1513271967.200987: $GPGGA,171928,3946.9439,N,08404.9305,W,1,06,1.80,305.56,M,-33.324,M,,*7E
2017-12-14 12:19:27 1513271967.201095: $GPRMC,171928,A,3946.9439,N,08404.9305,W,1.9905,181.442,141217,,*3D
2017-12-14 12:19:27 1513271967.201159: $GPGSA,A,3,15,20,24,32,21,27,,,,,,,6.6,1.8,6.2*38
2017-12-14 12:19:28 1513271968.195646: $GPZDA,171929.00,14,12,2017,00,00*61
2017-12-14 12:19:28 1513271968.195824: $GPGGA,171929,3946.9441,N,08404.9314,W,1,06,1.80,308.29,M,-33.324,M,,*75
2017-12-14 12:19:28 1513271968.195906: $GPRMC,171929,A,3946.9441,N,08404.9314,W,1.6497,199.790,141217,,*3F
2017-12-14 12:19:28 1513271968.195968: $GPGSA,A,3,15,20,24,32,21,27,,,,,,,6.6,1.8,6.2*38
2017-12-14 12:19:29 1513271969.533075: $GPGSV,3,1,12,15,37,052,23,20,34,096,18,24,51,109,30,32,21,238,19*77
2017-12-14 12:19:29 1513271969.533232: $GPGSV,3,2,12,21,62,187,29,14,04,232,13,27,19,289,11,10,42,301,06*74
2017-12-14 12:19:29 1513271969.533349: $GPGSV,3,3,12,18,71,339,00,13,07,048,00,08,06,322,00,138,38,213,00*49
2017-12-14 12:19:29 1513271969.645235: $GPZDA,171930.00,14,12,2017,00,00*69
2017-12-14 12:19:29 1513271969.645403: $GPGGA,171930,3946.9437,N,08404.9314,W,1,07,1.80,309.06,M,-33.324,M,,*71
2017-12-14 12:19:29 1513271969.645468: $GPRMC,171930,A,3946.9437,N,08404.9314,W,1.0803,195.670,141217,,*32
2017-12-14 12:19:29 1513271969.645529: $GPGSA,A,3,15,20,24,32,21,27,10,,,,,,6.6,1.8,6.2*39
2017-12-14 12:19:30 1513271970.195392: $GPZDA,171931.00,14,12,2017,00,00*68
2017-12-14 12:19:30 1513271970.195560: $GPGGA,171931,3946.9437,N,08404.9314,W,1,07,2.40,309.06,M,-33.324,M,,*7F
2017-12-14 12:19:30 1513271970.195644: $GPRMC,171931,A,3946.9437,N,08404.9314,W,1.2361,194.852,141217,,*31
2017-12-14 12:19:30 1513271970.195706: $GPGSA,A,3,15,20,24,32,21,27,10,,,,,,6.6,2.4,6.2*36
2017-12-14 12:19:31 1513271971.697502: $GPZDA,171932.00,14,12,2017,00,00*6B
2017-12-14 12:19:31 1513271971.697699: $GPGGA,171932,3946.9433,N,08404.9314,W,1,07,2.40,308.42,M,-33.324,M,,*79
2017-12-14 12:19:31 1513271971.697770: $GPRMC,171932,A,3946.9433,N,08404.9314,W,1.2361,194.852,141217,,*36
2017-12-14 12:19:31 1513271971.697834: $GPGSA,A,3,15,20,24,32,21,27,10,,,,,,6.6,2.4,6.2*36
2017-12-14 12:19:32 1513271972.530759: $GPGSV,3,1,12,15,37,052,23,20,33,096,18,24,51,109,30,32,22,238,19*73
2017-12-14 12:19:32 1513271972.530952: $GPGSV,3,2,12,21,62,187,29,14,04,232,11,27,19,289,11,10,42,301,05*75
2017-12-14 12:19:32 1513271972.531039: $GPGSV,3,3,12,18,72,339,00,13,07,049,00,08,06,322,00,138,38,213,00*4B
2017-12-14 12:19:32 1513271972.644208: $GPZDA,171933.00,14,12,2017,00,00*6A
2017-12-14 12:19:32 1513271972.644356: $GPGGA,171933,3946.9433,N,08404.9314,W,1,07,2.40,308.42,M,-33.324,M,,*78
2017-12-14 12:19:32 1513271972.644423: $GPRMC,171933,A,3946.9433,N,08404.9314,W,0.9060,167.792,141217,,*30
2017-12-14 12:19:32 1513271972.644486: $GPGSA,A,3,15,20,24,32,21,14,27,,,,,,6.6,2.4,6.2*32
2017-12-14 12:19:33 1513271973.194292: $GPZDA,171934.00,14,12,2017,00,00*6D
2017-12-14 12:19:33 1513271973.194464: $GPGGA,171934,3946.9433,N,08404.9314,W,1,07,2.40,308.42,M,-33.324,M,,*7F
2017-12-14 12:19:33 1513271973.194532: $GPRMC,171934,A,3946.9433,N,08404.9314,W,0.5774,207.515,141217,,*31
2017-12-14 12:19:33 1513271973.194616: $GPGSA,A,3,15,20,24,32,21,14,27,,,,,,6.6,2.4,6.2*32
2017-12-14 12:19:34 1513271974.194342: $GPZDA,171935.00,14,12,2017,00,00*6C
2017-12-14 12:19:34 1513271974.194518: $GPGGA,171935,3946.9436,N,08404.9314,W,1,07,2.40,307.65,M,-33.324,M,,*71
2017-12-14 12:19:34 1513271974.194609: $GPRMC,171935,A,3946.9436,N,08404.9314,W,0.7278,203.637,141217,,*39
2017-12-14 12:19:34 1513271974.194675: $GPGSA,A,3,15,20,24,32,21,14,27,,,,,,6.6,2.4,6.2*32
2017-12-14 12:19:35 1513271975.530549: $GPGSV,3,1,12,15,37,052,23,20,33,096,19,24,51,109,30,32,22,238,19*72
2017-12-14 12:19:35 1513271975.530766: $GPGSV,3,2,12,21,62,187,29,14,04,232,10,27,19,289,11,10,42,301,05*74
2017-12-14 12:19:35 1513271975.530835: $GPGSV,3,3,12,18,72,339,00,13,07,049,00,08,06,322,00,138,38,213,00*4B
2017-12-14 12:19:35 1513271975.644178: $GPZDA,171936.00,14,12,2017,00,00*6F
2017-12-14 12:19:35 1513271975.644346: $GPGGA,171936,3946.9440,N,08404.9313,W,1,07,2.40,306.89,M,-33.324,M,,*77
2017-12-14 12:19:35 1513271975.644415: $GPRMC,171936,A,3946.9440,N,08404.9313,W,0.8054,248.645,141217,,*35
2017-12-14 12:19:35 1513271975.644478: $GPGSA,A,3,15,20,24,32,21,14,27,,,,,,6.6,2.4,6.2*32
2017-12-14 12:19:36 1513271976.194116: $GPZDA,171937.00,14,12,2017,00,00*6E
2017-12-14 12:19:36 1513271976.194252: $GPGGA,171937,3946.9440,N,08404.9313,W,1,07,2.40,306.89,M,-33.324,M,,*76
2017-12-14 12:19:36 1513271976.194321: $GPRMC,171937,A,3946.9440,N,08404.9313,W,0.4207,219.347,141217,,*3F
2017-12-14 12:19:36 1513271976.194384: $GPGSA,A,3,15,20,24,32,21,14,27,,,,,,6.6,2.4,6.2*32
2017-12-14 12:19:37 1513271977.195038: $GPZDA,171938.00,14,12,2017,00,00*61
2017-12-14 12:19:37 1513271977.195209: $GPGGA,171938,3946.9444,N,08404.9320,W,1,07,2.40,307.45,M,-33.324,M,,*7C
2017-12-14 12:19:37 1513271977.195329: $GPRMC,171938,A,3946.9444,N,08404.9320,W,0.3155,309.994,141217,,*33
2017-12-14 12:19:37 1513271977.195392: $GPGSA,A,3,15,20,24,32,21,14,27,,,,,,6.6,2.4,6.2*32
2017-12-14 12:19:38 1513271978.531164: $GPGSV,3,1,12,15,37,052,24,20,33,096,19,24,51,109,30,32,22,238,19*75
2017-12-14 12:19:38 1513271978.531340: $GPGSV,3,2,12,21,62,187,28,14,04,232,05,27,19,289,11,10,42,301,04*70
2017-12-14 12:19:38 1513271978.531405: $GPGSV,3,3,12,18,72,339,16,13,07,049,00,08,06,322,00,138,38,213,00*4C
2017-12-14 12:19:38 1513271978.644558: $GPZDA,171939.00,14,12,2017,00,00*60
2017-12-14 12:19:38 1513271978.644766: $GPGGA,171939,3946.9449,N,08404.9320,W,1,06,2.40,308.09,M,-33.324,M,,*76
2017-12-14 12:19:38 1513271978.644832: $GPRMC,171939,A,3946.9449,N,08404.9320,W,0.4207,39.347,141217,,*08
2017-12-14 12:19:38 1513271978.644893: $GPGSA,A,3,15,20,24,32,21,27,,,,,,,6.6,2.4,6.2*37
2017-12-14 12:19:39 1513271979.194739: $GPZDA,171940.00,14,12,2017,00,00*6E
2017-12-14 12:19:39 1513271979.194907: $GPGGA,171940,3946.9449,N,08404.9320,W,1,06,2.40,308.09,M,-33.324,M,,*78
2017-12-14 12:19:39 1513271979.194973: $GPRMC,171940,A,3946.9449,N,08404.9320,W,0.2422,93.795,141217,,*0A
2017-12-14 12:19:39 1513271979.195033: $GPGSA,A,3,15,20,24,32,21,27,,,,,,,6.6,2.4,6.2*37
2017-12-14 12:19:40 1513271980.194852: $GPZDA,171941.00,14,12,2017,00,00*6F
2017-12-14 12:19:40 1513271980.195025: $GPGGA,171941,3946.9452,N,08404.9319,W,1,06,2.40,307.32,M,-33.324,M,,*7E
2017-12-14 12:19:40 1513271980.195090: $GPRMC,171941,A,3946.9452,N,08404.9319,W,0.2422,273.795,141217,,*37
2017-12-14 12:19:40 1513271980.195151: $GPGSA,A,3,15,20,24,32,21,27,,,,,,,6.6,2.4,6.2*37
2017-12-14 12:19:41 1513271981.531167: $GPGSV,3,1,12,15,37,052,24,20,33,096,19,24,51,109,30,32,22,238,19*75
2017-12-14 12:19:41 1513271981.531392: $GPGSV,3,2,12,21,62,187,28,14,04,232,07,27,19,289,11,10,42,301,04*72
2017-12-14 12:19:41 1513271981.531460: $GPGSV,3,3,12,18,72,339,00,13,07,049,00,08,06,322,00,138,38,213,00*4B
2017-12-14 12:19:41 1513271981.644978: $GPZDA,171942.00,14,12,2017,00,00*6C
2017-12-14 12:19:41 1513271981.645143: $GPGGA,171942,3946.9452,N,08404.9312,W,1,06,2.40,307.40,M,-33.324,M,,*73
2017-12-14 12:19:41 1513271981.645208: $GPRMC,171942,A,3946.9452,N,08404.9312,W,0.3006,62.540,141217,,*04
2017-12-14 12:19:41 1513271981.645268: $GPGSA,A,3,15,20,24,32,21,27,,,,,,,6.6,2.4,6.2*37
