2017-12-01 14:27:27 1512156447.727492: {"class":"VERSION","release":"3.16","rev":"3.16-4","proto_major":3,"proto_minor":11}
2017-12-01 14:27:27 1512156447.727860: {"class":"DEVICES","devices":[{"class":"DEVICE","path":"/dev/ttyUSB0","driver":"SiRF","subtype":"9\u0006GSD4e_4.1.2-P1_RPATCH.05-F-GPS-4R-1510281 11/03/2015 307","activated":"2017-12-01T19:27:27.474Z","flags":1,"native":1,"bps":4800,"parity":"N","stopbits":1,"cycle":1.00}]}
2017-12-01 14:27:27 1512156447.727972: {"class":"WATCH","enable":true,"json":false,"nmea":true,"raw":0,"scaled":false,"timing":false,"split24":false,"pps":false}
2017-12-01 14:27:28 1512156448.668598: $GPGSV,3,1,12,08,05,292,31,10,70,333,48,14,30,255,40,18,69,097,45*7E
2017-12-01 14:27:28 1512156448.668779: $GPGSV,3,2,12,21,27,178,45,24,44,057,48,32,47,267,45,12,10,106,26*7B
2017-12-01 14:27:28 1512156448.668845: $GPGSV,3,3,12,15,10,067,31,20,08,118,29,27,06,259,20,138,38,213,47*48
2017-12-01 14:27:28 1512156448.782061: $GPZDA,192729.00,01,12,2017,00,00*66
2017-12-01 14:27:28 1512156448.782223: $GPGGA,192729,3946.9557,N,08404.9860,W,2,12,0.80,309.09,M,-33.324,M,,*7C
2017-12-01 14:27:28 1512156448.782290: $GPRMC,192729,A,3946.9557,N,08404.9860,W,0.0000,0.000,011217,,*34
2017-12-01 14:27:28 1512156448.782373: $GPGSA,A,3,8,10,14,18,21,24,32,12,15,20,27,138,2.0,0.8,1.5*37
2017-12-01 14:27:29 1512156449.407467: $GPZDA,192730.00,01,12,2017,00,00*6E
2017-12-01 14:27:29 1512156449.407639: $GPGGA,192730,3946.9557,N,08404.9860,W,2,12,0.80,309.09,M,-33.324,M,,*74
2017-12-01 14:27:29 1512156449.407706: $GPRMC,192730,A,3946.9557,N,08404.9860,W,0.0000,0.000,011217,,*3C
2017-12-01 14:27:29 1512156449.407767: $GPGSA,A,3,8,10,14,18,21,24,32,12,15,20,27,138,2.0,0.8,1.5*37
2017-12-01 14:27:30 1512156450.330809: $GPZDA,192731.00,01,12,2017,00,00*6F
2017-12-01 14:27:30 1512156450.330983: $GPGGA,192731,3946.9557,N,08404.9860,W,2,12,0.80,309.09,M,-33.324,M,,*75
2017-12-01 14:27:30 1512156450.331051: $GPRMC,192731,A,3946.9557,N,08404.9860,W,0.0000,0.000,011217,,*3D
2017-12-01 14:27:30 1512156450.331112: $GPGSA,A,3,8,10,14,18,21,24,32,12,15,20,27,138,2.0,0.8,1.5*37
2017-12-01 14:27:31 1512156451.662723: $GPGSV,3,1,12,08,05,292,32,10,70,333,48,14,30,255,40,18,69,097,46*7E
2017-12-01 14:27:31 1512156451.662907: $GPGSV,3,2,12,21,27,178,46,24,44,057,48,32,47,267,45,12,10,106,26*78
2017-12-01 14:27:31 1512156451.662975: $GPGSV,3,3,12,15,10,067,30,20,08,118,28,27,06,259,27,138,38,213,47*4F
2017-12-01 14:27:31 1512156451.774861: $GPZDA,192732.00,01,12,2017,00,00*6C
2017-12-01 14:27:31 1512156451.775042: $GPGGA,192732,3946.9557,N,08404.9860,W,2,12,0.80,309.09,M,-33.324,M,,*76
2017-12-01 14:27:31 1512156451.775111: $GPRMC,192732,A,3946.9557,N,08404.9860,W,0.0000,0.000,011217,,*3E
2017-12-01 14:27:31 1512156451.775172: $GPGSA,A,3,8,10,14,18,21,24,32,12,15,20,27,138,2.0,0.8,1.5*37
2017-12-01 14:27:32 1512156452.324475: $GPZDA,192733.00,01,12,2017,00,00*6D
2017-12-01 14:27:32 1512156452.324648: $GPGGA,192733,3946.9557,N,08404.9860,W,2,12,0.80,309.09,M,-33.324,M,,*77
2017-12-01 14:27:32 1512156452.324715: $GPRMC,192733,A,3946.9557,N,08404.9860,W,0.0000,0.000,011217,,*3F
2017-12-01 14:27:32 1512156452.324776: $GPGSA,A,3,8,10,14,18,21,24,32,12,15,20,27,138,2.0,0.8,1.5*37
2017-12-01 14:27:33 1512156453.333230: $GPZDA,192734.00,01,12,2017,00,00*6A
2017-12-01 14:27:34 1512156454.109638: $GPGGA,192734,3946.9557,N,08404.9860,W,2,12,0.80,309.09,M,-33.324,M,,*70
2017-12-01 14:27:34 1512156454.109791: $GPRMC,192734,A,3946.9557,N,08404.9860,W,0.0000,0.000,011217,,*38
2017-12-01 14:27:34 1512156454.109859: $GPGSA,A,3,8,10,14,18,21,24,32,12,15,20,27,138,2.0,0.8,1.5*37
2017-12-01 14:27:34 1512156454.666870: $GPGSV,3,1,12,08,05,292,33,10,70,333,48,14,30,255,39,18,69,097,45*72
2017-12-01 14:27:34 1512156454.667054: $GPGSV,3,2,12,21,27,178,45,24,44,057,48,32,47,267,45,12,10,106,27*7A
2017-12-01 14:27:34 1512156454.667122: $GPGSV,3,3,12,15,10,067,30,20,08,118,28,27,06,259,26,138,38,213,47*4E
2017-12-01 14:27:34 1512156454.780604: $GPZDA,192735.00,01,12,2017,00,00*6B
2017-12-01 14:27:34 1512156454.780773: $GPGGA,192735,3946.9557,N,08404.9860,W,2,12,0.80,309.09,M,-33.324,M,,*71
2017-12-01 14:27:34 1512156454.780892: $GPRMC,192735,A,3946.9557,N,08404.9860,W,0.0000,0.000,011217,,*39
2017-12-01 14:27:34 1512156454.780955: $GPGSA,A,3,8,10,14,18,21,24,32,12,15,20,27,138,2.0,0.8,1.5*37
2017-12-01 14:27:35 1512156455.331478: $GPZDA,192736.00,01,12,2017,00,00*68
2017-12-01 14:27:35 1512156455.331702: $GPGGA,192736,3946.9557,N,08404.9860,W,2,12,0.80,309.09,M,-33.324,M,,*72
2017-12-01 14:27:35 1512156455.331778: $GPRMC,192736,A,3946.9557,N,08404.9860,W,0.0000,0.000,011217,,*3A
2017-12-01 14:27:35 1512156455.331841: $GPGSA,A,3,8,10,14,18,21,24,32,12,15,20,27,138,2.0,0.8,1.5*37
2017-12-01 14:27:36 1512156456.333236: $GPZDA,192737.00,01,12,2017,00,00*69
2017-12-01 14:27:36 1512156456.333427: $GPGGA,192737,3946.9557,N,08404.9860,W,2,12,0.80,309.09,M,-33.324,M,,*73
2017-12-01 14:27:36 1512156456.333497: $GPRMC,192737,A,3946.9557,N,08404.9860,W,0.0000,0.000,011217,,*3B
2017-12-01 14:27:36 1512156456.333563: $GPGSA,A,3,8,10,14,18,21,24,32,12,15,20,27,138,2.0,0.8,1.5*37
2017-12-01 14:27:37 1512156457.672808: $GPGSV,3,1,12,08,05,292,34,10,70,333,48,14,30,255,39,18,69,097,45*75
2017-12-01 14:27:37 1512156457.673014: $GPGSV,3,2,12,21,27,178,44,24,44,057,48,32,47,267,46,12,10,106,28*77
2017-12-01 14:27:37 1512156457.673081: $GPGSV,3,3,12,15,10,067,29,20,08,118,28,27,06,259,26,138,38,213,47*46
2017-12-01 14:27:37 1512156457.785208: $GPZDA,192738.00,01,12,2017,00,00*66
2017-12-01 14:27:37 1512156457.785386: $GPGGA,192738,3946.9557,N,08404.9860,W,2,12,0.80,309.09,M,-33.324,M,,*7C
2017-12-01 14:27:37 1512156457.785459: $GPRMC,192738,A,3946.9557,N,08404.9860,W,0.0000,0.000,011217,,*34
2017-12-01 14:27:37 1512156457.785523: $GPGSA,A,3,8,10,14,18,21,24,32,12,15,20,27,138,2.0,0.8,1.5*37
2017-12-01 14:27:38 1512156458.330756: $GPZDA,192739.00,01,12,2017,00,00*67
2017-12-01 14:27:38 1512156458.330935: $GPGGA,192739,3946.9557,N,08404.9860,W,2,12,0.80,309.09,M,-33.324,M,,*7D
2017-12-01 14:27:38 1512156458.331001: $GPRMC,192739,A,3946.9557,N,08404.9860,W,0.0000,0.000,011217,,*35
2017-12-01 14:27:38 1512156458.331064: $GPGSA,A,3,8,10,14,18,21,24,32,12,15,20,27,138,2.0,0.8,1.5*37
2017-12-01 14:27:39 1512156459.332464: $GPZDA,192740.00,01,12,2017,00,00*69
2017-12-01 14:27:39 1512156459.332670: $GPGGA,192740,3946.9557,N,08404.9860,W,2,12,0.80,309.09,M,-33.324,M,,*73
2017-12-01 14:27:39 1512156459.332742: $GPRMC,192740,A,3946.9557,N,08404.9860,W,0.0000,0.000,011217,,*3B
2017-12-01 14:27:39 1512156459.332807: $GPGSA,A,3,8,10,14,18,21,24,32,12,15,20,27,138,2.0,0.8,1.5*37
2017-12-01 14:27:40 1512156460.668110: $GPGSV,3,1,12,08,05,292,34,10,70,333,49,14,30,255,39,18,69,097,45*74
2017-12-01 14:27:40 1512156460.668297: $GPGSV,3,2,12,21,27,178,44,24,44,057,48,32,47,267,46,12,10,106,28*77
2017-12-01 14:27:40 1512156460.668364: $GPGSV,3,3,12,15,10,067,28,20,08,118,28,27,06,259,26,138,38,213,46*46
2017-12-01 14:27:40 1512156460.781620: $GPZDA,192741.00,01,12,2017,00,00*68
2017-12-01 14:27:40 1512156460.781799: $GPGGA,192741,3946.9557,N,08404.9860,W,2,12,0.80,309.09,M,-33.324,M,,*72
2017-12-01 14:27:40 1512156460.781866: $GPRMC,192741,A,3946.9557,N,08404.9860,W,0.0000,0.000,011217,,*3A
2017-12-01 14:27:40 1512156460.781928: $GPGSA,A,3,8,10,14,18,21,24,32,12,15,20,27,138,2.0,0.8,1.5*37
2017-12-01 14:27:41 1512156461.366212: $GPZDA,192742.00,01,12,2017,00,00*6B
2017-12-01 14:27:41 1512156461.366393: $GPGGA,192742,3946.9557,N,08404.9860,W,2,12,0.80,309.09,M,-33.324,M,,*71
2017-12-01 14:27:41 1512156461.366465: $GPRMC,192742,A,3946.9557,N,08404.9860,W,0.0000,0.000,011217,,*39
2017-12-01 14:27:41 1512156461.366532: $GPGSA,A,3,8,10,14,18,21,24,32,12,15,20,27,138,2.0,0.8,1.5*37
2017-12-01 14:27:42 1512156462.354459: $GPZDA,192743.00,01,12,2017,00,00*6A
2017-12-01 14:27:42 1512156462.354661: $GPGGA,192743,3946.9557,N,08404.9860,W,2,12,0.80,309.09,M,-33.324,M,,*70
2017-12-01 14:27:42 1512156462.354733: $GPRMC,192743,A,3946.9557,N,08404.9860,W,0.0000,0.000,011217,,*38
2017-12-01 14:27:42 1512156462.354799: $GPGSA,A,3,8,10,14,18,21,24,32,12,15,20,27,138,2.0,0.8,1.5*37
2017-12-01 14:27:43 1512156463.668973: $GPGSV,3,1,12,08,05,292,35,10,70,333,48,14,30,255,39,18,69,097,45*74
2017-12-01 14:27:43 1512156463.669150: $GPGSV,3,2,12,21,27,178,44,24,44,057,49,32,47,267,46,12,10,106,29*77
2017-12-01 14:27:43 1512156463.669217: $GPGSV,3,3,12,15,10,067,28,20,08,118,28,27,06,259,26,138,38,213,47*47
2017-12-01 14:27:43 1512156463.782421: $GPZDA,192744.00,01,12,2017,00,00*6D
2017-12-01 14:27:43 1512156463.782626: $GPGGA,192744,3946.9557,N,08404.9860,W,2,12,0.80,309.09,M,-33.324,M,,*77
2017-12-01 14:27:43 1512156463.782699: $GPRMC,192744,A,3946.9557,N,08404.9860,W,0.0000,0.000,011217,,*3F
2017-12-01 14:27:43 1512156463.782765: $GPGSA,A,3,8,10,14,18,21,24,32,12,15,20,27,138,2.0,0.8,1.5*37
2017-12-01 14:27:44 1512156464.407824: $GPZDA,192745.00,01,12,2017,00,00*6C
2017-12-01 14:27:44 1512156464.408000: $GPGGA,192745,3946.9557,N,08404.9860,W,2,12,0.80,309.09,M,-33.324,M,,*76
2017-12-01 14:27:44 1512156464.408067: $GPRMC,192745,A,3946.9557,N,08404.9860,W,0.0000,0.000,011217,,*3E
2017-12-01 14:27:44 1512156464.408129: $GPGSA,A,3,8,10,14,18,21,24,32,12,15,20,27,138,2.0,0.8,1.5*37
2017-12-01 14:27:45 1512156465.366219: $GPZDA,192746.00,01,12,2017,00,00*6F
2017-12-01 14:27:45 1512156465.366441: $GPGGA,192746,3946.9557,N,08404.9860,W,2,12,0.80,309.09,M,-33.324,M,,*75
2017-12-01 14:27:45 1512156465.366521: $GPRMC,192746,A,3946.9557,N,08404.9860,W,0.0000,0.000,011217,,*3D
2017-12-01 14:27:45 1512156465.366584: $GPGSA,A,3,8,10,14,18,21,24,32,12,15,20,27,138,2.0,0.8,1.5*37
2017-12-01 14:27:46 1512156466.665617: $GPGSV,3,1,12,08,05,292,35,10,70,333,48,14,30,255,39,18,69,097,45*74
2017-12-01 14:27:46 1512156466.665801: $GPGSV,3,2,12,21,27,178,44,24,44,057,49,32,47,267,46,12,10,106,30*7F
2017-12-01 14:27:46 1512156466.665869: $GPGSV,3,3,12,15,10,067,27,20,08,118,27,27,06,259,26,138,38,213,47*47
2017-12-01 14:27:46 1512156466.778945: $GPZDA,192747.00,01,12,2017,00,00*6E
2017-12-01 14:27:46 1512156466.779129: $GPGGA,192747,3946.9557,N,08404.9860,W,2,12,0.80,309.09,M,-33.324,M,,*74
2017-12-01 14:27:46 1512156466.779196: $GPRMC,192747,A,3946.9557,N,08404.9860,W,0.0000,0.000,011217,,*3C
2017-12-01 14:27:46 1512156466.779259: $GPGSA,A,3,8,10,14,18,21,24,32,12,15,20,27,138,2.0,0.8,1.5*37
2017-12-01 14:27:47 1512156467.364833: $GPZDA,192748.00,01,12,2017,00,00*61
2017-12-01 14:27:47 1512156467.365013: $GPGGA,192748,3946.9553,N,08404.9861,W,2,12,0.80,309.85,M,-33.324,M,,*7A
2017-12-01 14:27:47 1512156467.365080: $GPRMC,192748,A,3946.9553,N,08404.9861,W,0.0000,0.000,011217,,*36
2017-12-01 14:27:47 1512156467.365142: $GPGSA,A,3,8,10,14,18,21,24,32,12,15,20,27,138,2.0,0.8,1.5*37
2017-12-01 14:27:48 1512156468.325875: $GPZDA,192749.00,01,12,2017,00,00*60
2017-12-01 14:27:48 1512156468.326048: $GPGGA,192749,3946.9553,N,08404.9861,W,2,12,0.80,309.85,M,-33.324,M,,*7B
2017-12-01 14:27:48 1512156468.326116: $GPRMC,192749,A,3946.9553,N,08404.9861,W,0.0000,0.000,011217,,*37
2017-12-01 14:27:48 1512156468.326178: $GPGSA,A,3,8,10,14,18,21,24,32,12,15,20,27,138,2.0,0.8,1.5*37
2017-12-01 14:27:49 1512156469.703530: $GPGSV,3,1,12,08,05,292,34,10,70,333,48,14,30,255,40,18,69,097,45*7B
2017-12-01 14:27:49 1512156469.703715: $GPGSV,3,2,12,21,27,178,45,24,44,057,49,32,47,267,46,12,10,106,31*7F
2017-12-01 14:27:49 1512156469.703782: $GPGSV,3,3,12,15,10,067,27,20,08,118,20,27,06,259,26,138,38,213,46*41
2017-12-01 14:27:49 1512156469.816853: $GPZDA,192750.00,01,12,2017,00,00*68
2017-12-01 14:27:49 1512156469.817027: $GPGGA,192750,3946.9553,N,08404.9861,W,2,12,0.80,309.85,M,-33.324,M,,*73
2017-12-01 14:27:49 1512156469.817096: $GPRMC,192750,A,3946.9553,N,08404.9861,W,0.0000,0.000,011217,,*3F
2017-12-01 14:27:49 1512156469.817158: $GPGSA,A,3,8,10,14,18,21,24,32,12,15,20,27,138,2.0,0.8,1.5*37
2017-12-01 14:27:50 1512156470.331539: $GPZDA,192751.00,01,12,2017,00,00*69
2017-12-01 14:27:50 1512156470.331731: $GPGGA,192751,3946.9553,N,08404.9861,W,2,12,0.80,309.85,M,-33.324,M,,*72
2017-12-01 14:27:50 1512156470.331825: $GPRMC,192751,A,3946.9553,N,08404.9861,W,0.0000,0.000,011217,,*3E
2017-12-01 14:27:50 1512156470.331892: $GPGSA,A,3,8,10,14,18,21,24,32,12,15,20,27,138,2.0,0.8,1.5*37
2017-12-01 14:27:51 1512156471.331143: $GPZDA,192752.00,01,12,2017,00,00*6A
2017-12-01 14:27:51 1512156471.331335: $GPGGA,192752,3946.9553,N,08404.9861,W,2,12,0.80,309.85,M,-33.324,M,,*71
2017-12-01 14:27:51 1512156471.331554: $GPRMC,192752,A,3946.9553,N,08404.9861,W,0.0000,0.000,011217,,*3D
2017-12-01 14:27:51 1512156471.331618: $GPGSA,A,3,8,10,14,18,21,24,32,12,15,20,27,138,2.0,0.8,1.5*37
2017-12-01 14:27:52 1512156472.668098: $GPGSV,3,1,12,08,05,292,27,10,70,333,48,14,30,255,40,18,69,097,45*79
2017-12-01 14:27:52 1512156472.668279: $GPGSV,3,2,12,21,27,178,45,24,44,057,49,32,47,267,46,12,10,106,32*7C
2017-12-01 14:27:52 1512156472.668346: $GPGSV,3,3,12,15,10,067,27,20,08,118,17,27,06,259,15,138,38,213,46*45
