2017-11-15 18:14:42 1510787682.535613: {"class":"VERSION","release":"3.17","rev":"3.17","proto_major":3,"proto_minor":12}
2017-11-15 18:14:42 1510787682.536070: {"class":"DEVICES","devices":[{"class":"DEVICE","path":"/dev/ttyUSB0","driver":"SiRF","subtype":"9\u0006GSD4e_4.1.2-P1_RPATCH.05-F-GPS-4R-1510281 11/03/2015 307","activated":"2017-11-15T23:14:42.244Z","flags":1,"native":1,"bps":4800,"parity":"N","stopbits":1,"cycle":1.00}]}
2017-11-15 18:14:42 1510787682.536181: {"class":"WATCH","enable":true,"json":false,"nmea":true,"raw":0,"scaled":false,"timing":false,"split24":false,"pps":false}
2017-11-15 18:14:42 1510787682.694035: $GPGSV,3,1,12,10,30,154,19,22,32,307,18,01,21,283,09,26,17,180,16*70
2017-11-15 18:14:42 1510787682.694198: $GPGSV,3,2,12,31,71,249,20,32,61,064,18,25,39,067,15,11,02,267,04*72
2017-11-15 18:14:42 1510787682.694258: $GPGSV,3,3,12,14,70,013,00,03,13,316,00,12,13,037,00,120,07,103,00*4C
2017-11-15 18:14:42 1510787682.807383: $GPZDA,231441.00,15,11,2017,00,00*67
2017-11-15 18:14:42 1510787682.807578: $GPGGA,231441,3946.9529,N,08404.9628,W,1,07,1.00,304.17,M,-33.324,M,,*7C
2017-11-15 18:14:42 1510787682.807640: $GPRMC,231441,A,3946.9529,N,08404.9628,W,0.7246,344.668,151117,,*32
2017-11-15 18:14:42 1510787682.807696: $GPGSA,A,3,10,22,1,26,31,32,25,,,,,,3.4,1.0,2.9*0F
2017-11-15 18:14:43 1510787683.329440: $GPZDA,231442.00,15,11,2017,00,00*64
2017-11-15 18:14:43 1510787683.329616: $GPGGA,231442,3946.9534,N,08404.9628,W,1,07,1.00,304.81,M,-33.324,M,,*7C
2017-11-15 18:14:43 1510787683.329677: $GPRMC,231442,A,3946.9534,N,08404.9628,W,0.7246,344.668,151117,,*3D
2017-11-15 18:14:43 1510787683.329774: $GPGSA,A,3,10,22,1,26,31,32,25,,,,,,3.4,1.0,2.9*0F
2017-11-15 18:14:44 1510787684.360295: $GPZDA,231443.00,15,11,2017,00,00*65
2017-11-15 18:14:44 1510787684.360475: $GPGGA,231443,3946.9534,N,08404.9628,W,1,07,1.00,304.81,M,-33.324,M,,*7D
2017-11-15 18:14:44 1510787684.360552: $GPRMC,231443,A,3946.9534,N,08404.9628,W,0.4179,328.778,151117,,*3A
2017-11-15 18:14:44 1510787684.360609: $GPGSA,A,3,10,22,1,26,31,32,25,,,,,,3.4,1.0,2.9*0F
2017-11-15 18:14:45 1510787685.666074: $GPGSV,3,1,12,10,30,154,19,22,32,307,18,01,21,283,08,26,17,180,16*71
2017-11-15 18:14:45 1510787685.666248: $GPGSV,3,2,12,31,71,249,20,32,61,064,18,25,39,067,15,11,02,267,06*70
2017-11-15 18:14:45 1510787685.666308: $GPGSV,3,3,12,14,70,013,00,03,13,316,00,12,13,037,00,120,07,103,00*4C
2017-11-15 18:14:45 1510787685.779877: $GPZDA,231444.00,15,11,2017,00,00*62
2017-11-15 18:14:45 1510787685.780181: $GPGGA,231444,3946.9534,N,08404.9635,W,1,07,1.00,304.73,M,-33.324,M,,*7B
2017-11-15 18:14:45 1510787685.780284: $GPRMC,231444,A,3946.9534,N,08404.9635,W,0.4844,273.794,151117,,*3B
2017-11-15 18:14:45 1510787685.780426: $GPGSA,A,3,10,22,1,26,31,32,25,,,,,,3.4,1.0,2.9*0F
2017-11-15 18:14:46 1510787686.405240: $GPZDA,231445.00,15,11,2017,00,00*63
2017-11-15 18:14:46 1510787686.405424: $GPGGA,231445,3946.9537,N,08404.9634,W,1,07,1.00,303.96,M,-33.324,M,,*74
2017-11-15 18:14:46 1510787686.405487: $GPRMC,231445,A,3946.9537,N,08404.9634,W,0.8011,299.090,151117,,*3B
2017-11-15 18:14:46 1510787686.405571: $GPGSA,A,3,10,22,1,26,31,32,25,,,,,,3.4,1.0,2.9*0F
2017-11-15 18:14:47 1510787687.360750: $GPZDA,231446.00,15,11,2017,00,00*60
2017-11-15 18:14:47 1510787687.360928: $GPGGA,231446,3946.9538,N,08404.9641,W,1,07,1.00,303.88,M,-33.324,M,,*75
2017-11-15 18:14:47 1510787687.360988: $GPRMC,231446,A,3946.9538,N,08404.9641,W,1.2538,328.778,151117,,*3A
2017-11-15 18:14:47 1510787687.361044: $GPGSA,A,3,10,22,1,26,31,32,25,,,,,,3.4,1.0,2.9*0F
2017-11-15 18:14:48 1510787688.665175: $GPGSV,3,1,12,10,30,154,19,22,32,307,18,01,21,283,08,26,17,180,16*71
2017-11-15 18:14:48 1510787688.665378: $GPGSV,3,2,12,31,71,249,20,32,61,064,17,25,39,067,16,11,02,267,10*7B
2017-11-15 18:14:48 1510787688.665440: $GPGSV,3,3,12,14,70,013,00,03,13,316,00,12,13,037,00,120,07,103,00*4C
2017-11-15 18:14:48 1510787688.778550: $GPZDA,231447.00,15,11,2017,00,00*61
2017-11-15 18:14:48 1510787688.778710: $GPGGA,231447,3946.9542,N,08404.9641,W,1,07,1.00,304.52,M,-33.324,M,,*79
2017-11-15 18:14:48 1510787688.778821: $GPRMC,231447,A,3946.9542,N,08404.9641,W,1.1391,323.662,151117,,*31
2017-11-15 18:14:48 1510787688.778879: $GPGSA,A,3,10,22,1,26,31,32,25,,,,,,3.4,1.0,2.9*0F
2017-11-15 18:14:49 1510787689.331064: $GPZDA,231448.00,15,11,2017,00,00*6E
2017-11-15 18:14:49 1510787689.334204: $GPGGA,231448,3946.9542,N,08404.9648,W,1,07,1.00,304.45,M,-33.324,M,,*79
2017-11-15 18:14:49 1510787689.334293: $GPRMC,231448,A,3946.9542,N,08404.9648,W,0.9948,317.276,151117,,*36
2017-11-15 18:14:49 1510787689.334352: $GPGSA,A,3,10,22,1,26,31,32,25,,,,,,3.4,1.0,2.9*0F
2017-11-15 18:14:50 1510787690.330381: $GPZDA,231449.00,15,11,2017,00,00*6F
2017-11-15 18:14:50 1510787690.330568: $GPGGA,231449,3946.9542,N,08404.9648,W,1,07,1.00,304.45,M,-33.324,M,,*78
2017-11-15 18:14:50 1510787690.330631: $GPRMC,231449,A,3946.9542,N,08404.9648,W,0.8011,299.090,151117,,*3E
2017-11-15 18:14:50 1510787690.330687: $GPGSA,A,3,10,22,1,26,31,32,25,,,,,,3.4,1.0,2.9*0F
2017-11-15 18:14:51 1510787691.698122: $GPGSV,3,1,12,10,30,154,19,22,32,307,18,01,21,283,09,26,17,180,16*70
2017-11-15 18:14:51 1510787691.698290: $GPGSV,3,2,12,31,71,249,21,32,61,064,17,25,39,067,16,11,02,267,04*7F
2017-11-15 18:14:51 1510787691.698350: $GPGSV,3,3,12,14,70,013,00,03,13,316,00,12,13,037,00,120,07,103,00*4C
2017-11-15 18:14:51 1510787691.811683: $GPZDA,231450.00,15,11,2017,00,00*67
2017-11-15 18:14:51 1510787691.811843: $GPGGA,231450,3946.9550,N,08404.9647,W,1,07,1.00,304.32,M,-33.324,M,,*7C
2017-11-15 18:14:51 1510787691.811904: $GPRMC,231450,A,3946.9550,N,08404.9647,W,0.4179,328.778,151117,,*33
2017-11-15 18:14:51 1510787691.811959: $GPGSA,A,3,10,22,1,26,31,32,25,,,,,,3.4,1.0,2.9*0F
2017-11-15 18:14:52 1510787692.361320: $GPZDA,231451.00,15,11,2017,00,00*66
2017-11-15 18:14:52 1510787692.361483: $GPGGA,231451,3946.9550,N,08404.9654,W,1,07,1.00,304.24,M,-33.324,M,,*78
2017-11-15 18:14:52 1510787692.361543: $GPRMC,231451,A,3946.9550,N,08404.9654,W,0.3423,4.197,151117,,*37
2017-11-15 18:14:52 1510787692.361598: $GPGSA,A,3,10,22,1,26,31,32,25,,,,,,3.4,1.0,2.9*0F
2017-11-15 18:14:53 1510787693.360931: $GPZDA,231452.00,15,11,2017,00,00*65
2017-11-15 18:14:53 1510787693.361093: $GPGGA,231452,3946.9550,N,08404.9654,W,1,07,1.00,304.24,M,-33.324,M,,*7B
2017-11-15 18:14:53 1510787693.361153: $GPRMC,231452,A,3946.9550,N,08404.9654,W,0.5774,27.515,151117,,*0C
2017-11-15 18:14:53 1510787693.361209: $GPGSA,A,3,10,22,1,26,31,32,25,,,,,,3.4,1.0,2.9*0F
2017-11-15 18:14:54 1510787694.696492: $GPGSV,3,1,12,10,30,154,18,22,32,307,18,01,21,283,08,26,17,180,16*70
2017-11-15 18:14:54 1510787694.696658: $GPGSV,3,2,12,31,71,249,21,32,61,064,17,25,39,067,16,11,02,267,06*7D
2017-11-15 18:14:54 1510787694.696770: $GPGSV,3,3,12,14,70,013,00,03,13,316,00,12,13,037,00,120,07,103,00*4C
2017-11-15 18:14:54 1510787694.810046: $GPZDA,231453.00,15,11,2017,00,00*64
2017-11-15 18:14:54 1510787694.810205: $GPGGA,231453,3946.9550,N,08404.9654,W,1,08,1.00,304.24,M,-33.324,M,,*75
2017-11-15 18:14:54 1510787694.810265: $GPRMC,231453,A,3946.9550,N,08404.9654,W,0.4844,93.794,151117,,*04
2017-11-15 18:14:54 1510787694.810321: $GPGSA,A,3,10,22,1,26,31,32,25,11,,,,,3.4,1.0,2.9*0F
2017-11-15 18:14:55 1510787695.329678: $GPZDA,231454.00,15,11,2017,00,00*63
2017-11-15 18:14:55 1510787695.329836: $GPGGA,231454,3946.9550,N,08404.9654,W,1,08,1.20,304.24,M,-33.324,M,,*70
2017-11-15 18:14:55 1510787695.329897: $GPRMC,231454,A,3946.9550,N,08404.9654,W,0.3423,4.197,151117,,*32
2017-11-15 18:14:55 1510787695.329954: $GPGSA,A,3,10,22,1,26,31,32,25,11,,,,,3.4,1.2,2.9*0D
2017-11-15 18:14:56 1510787696.329742: $GPZDA,231455.00,15,11,2017,00,00*62
2017-11-15 18:14:56 1510787696.329905: $GPGGA,231455,3946.9550,N,08404.9654,W,1,08,1.00,304.24,M,-33.324,M,,*73
2017-11-15 18:14:56 1510787696.329966: $GPRMC,231455,A,3946.9550,N,08404.9654,W,0.5912,309.172,151117,,*3F
2017-11-15 18:14:56 1510787696.330022: $GPGSA,A,3,10,22,1,26,31,32,25,11,,,,,3.4,1.0,2.9*0F
2017-11-15 18:14:57 1510787697.695603: $GPGSV,3,1,12,10,30,154,18,22,32,307,18,01,21,283,09,26,17,180,16*71
2017-11-15 18:14:57 1510787697.695767: $GPGSV,3,2,12,31,71,249,22,32,61,064,16,25,39,067,16,11,02,267,06*7F
2017-11-15 18:14:57 1510787697.695875: $GPGSV,3,3,12,14,70,013,00,03,13,316,00,12,13,037,00,120,07,103,00*4C
2017-11-15 18:14:57 1510787697.808849: $GPZDA,231456.00,15,11,2017,00,00*61
2017-11-15 18:14:57 1510787697.809005: $GPGGA,231456,3946.9550,N,08404.9654,W,1,08,1.00,304.24,M,-33.324,M,,*70
2017-11-15 18:14:57 1510787697.809065: $GPRMC,231456,A,3946.9550,N,08404.9654,W,0.2422,273.794,151117,,*37
2017-11-15 18:14:57 1510787697.809121: $GPGSA,A,3,10,22,1,26,31,32,25,11,,,,,3.4,1.0,2.9*0F
2017-11-15 18:14:58 1510787698.328567: $GPZDA,231457.00,15,11,2017,00,00*60
2017-11-15 18:14:58 1510787698.328730: $GPGGA,231457,3946.9550,N,08404.9654,W,1,08,1.00,304.24,M,-33.324,M,,*71
2017-11-15 18:14:58 1510787698.328790: $GPRMC,231457,A,3946.9550,N,08404.9654,W,0.0000,0.000,151117,,*3C
2017-11-15 18:14:58 1510787698.328845: $GPGSA,A,3,10,22,1,26,31,32,25,11,,,,,3.4,1.0,2.9*0F
2017-11-15 18:14:59 1510787699.360605: $GPZDA,231458.00,15,11,2017,00,00*6F
2017-11-15 18:14:59 1510787699.360767: $GPGGA,231458,3946.9551,N,08404.9661,W,1,08,1.00,304.16,M,-33.324,M,,*78
2017-11-15 18:14:59 1510787699.360827: $GPRMC,231458,A,3946.9551,N,08404.9661,W,0.5774,207.515,151117,,*31
2017-11-15 18:14:59 1510787699.360883: $GPGSA,A,3,10,22,1,26,31,32,25,11,,,,,3.4,1.0,2.9*0F
2017-11-15 18:15:00 1510787700.665252: $GPGSV,3,1,12,10,30,154,18,22,32,307,18,01,21,283,08,26,17,180,16*70
2017-11-15 18:15:00 1510787700.665427: $GPGSV,3,2,12,31,71,249,22,32,61,064,15,25,39,067,16,11,02,267,05*7F
2017-11-15 18:15:00 1510787700.665488: $GPGSV,3,3,12,14,70,013,00,03,13,316,00,12,13,037,00,120,07,103,00*4C
2017-11-15 18:15:00 1510787700.778752: $GPZDA,231459.00,15,11,2017,00,00*6E
2017-11-15 18:15:00 1510787700.778899: $GPGGA,231459,3946.9551,N,08404.9661,W,1,08,1.00,304.16,M,-33.324,M,,*79
2017-11-15 18:15:00 1510787700.778957: $GPRMC,231459,A,3946.9551,N,08404.9661,W,0.5857,158.291,151117,,*3C
2017-11-15 18:15:00 1510787700.779031: $GPGSA,A,3,10,22,1,26,31,32,25,11,,,,,3.4,1.0,2.9*0F
2017-11-15 18:15:01 1510787701.403963: $GPZDA,231500.00,15,11,2017,00,00*63
2017-11-15 18:15:01 1510787701.404127: $GPGGA,231500,3946.9546,N,08404.9661,W,1,08,1.00,303.52,M,-33.324,M,,*75
2017-11-15 18:15:01 1510787701.404187: $GPRMC,231500,A,3946.9546,N,08404.9661,W,0.4179,148.778,151117,,*30
2017-11-15 18:15:01 1510787701.404243: $GPGSA,A,3,10,22,1,26,31,32,25,11,,,,,3.4,1.0,2.9*0F
2017-11-15 18:15:02 1510787702.359833: $GPZDA,231501.00,15,11,2017,00,00*62
2017-11-15 18:15:02 1510787702.359998: $GPGGA,231501,3946.9546,N,08404.9661,W,1,08,1.00,303.52,M,-33.324,M,,*74
2017-11-15 18:15:02 1510787702.360059: $GPRMC,231501,A,3946.9546,N,08404.9661,W,0.4844,273.794,151117,,*3F
2017-11-15 18:15:02 1510787702.360115: $GPGSA,A,3,10,22,1,26,31,32,25,11,,,,,3.4,1.0,2.9*0F
2017-11-15 18:15:03 1510787703.696910: $GPGSV,3,1,12,10,30,154,17,22,32,307,18,01,21,283,08,26,17,180,15*7C
2017-11-15 18:15:03 1510787703.697057: $GPGSV,3,2,12,31,71,249,21,32,61,064,04,25,39,067,16,11,02,267,07*7E
2017-11-15 18:15:03 1510787703.697117: $GPGSV,3,3,12,14,70,013,00,03,13,316,00,12,13,037,00,120,07,103,00*4C
2017-11-15 18:15:03 1510787703.810389: $GPZDA,231502.00,15,11,2017,00,00*61
2017-11-15 18:15:03 1510787703.810539: $GPGGA,231502,3946.9547,N,08404.9668,W,1,07,1.00,303.44,M,-33.324,M,,*77
2017-11-15 18:15:03 1510787703.810598: $GPRMC,231502,A,3946.9547,N,08404.9668,W,1.2357,266.543,151117,,*36
2017-11-15 18:15:03 1510787703.810653: $GPGSA,A,3,10,22,1,26,31,25,11,,,,,,3.4,1.0,2.9*0E
2017-11-15 18:15:04 1510787704.329887: $GPZDA,231503.00,15,11,2017,00,00*60
2017-11-15 18:15:04 1510787704.330048: $GPGGA,231503,3946.9547,N,08404.9675,W,1,07,1.00,303.36,M,-33.324,M,,*7F
2017-11-15 18:15:04 1510787704.330109: $GPRMC,231503,A,3946.9547,N,08404.9675,W,1.4763,267.730,151117,,*39
2017-11-15 18:15:04 1510787704.330165: $GPGSA,A,3,10,22,1,26,31,25,11,,,,,,3.4,1.0,2.9*0E
2017-11-15 18:15:05 1510787705.360797: $GPZDA,231504.00,15,11,2017,00,00*67
2017-11-15 18:15:05 1510787705.363569: $GPGGA,231504,3946.9544,N,08404.9676,W,1,07,1.00,304.13,M,-33.324,M,,*78
2017-11-15 18:15:05 1510787705.363708: $GPRMC,231504,A,3946.9544,N,08404.9676,W,1.5526,255.076,151117,,*38
2017-11-15 18:15:05 1510787705.363767: $GPGSA,A,3,10,22,1,26,31,25,11,,,,,,3.4,1.0,2.9*0E
2017-11-15 18:15:06 1510787706.697229: $GPGSV,3,1,12,10,30,154,09,22,32,307,18,01,21,283,09,26,17,180,15*72
2017-11-15 18:15:06 1510787706.697407: $GPGSV,3,2,12,31,71,249,22,32,61,064,04,25,39,067,16,11,02,267,04*7E
2017-11-15 18:15:06 1510787706.697469: $GPGSV,3,3,12,14,70,013,00,03,13,316,00,12,13,037,00,120,07,103,00*4C
2017-11-15 18:15:06 1510787706.810657: $GPZDA,231505.00,15,11,2017,00,00*66
2017-11-15 18:15:06 1510787706.810811: $GPGGA,231505,3946.9544,N,08404.9683,W,1,06,1.00,304.05,M,-33.324,M,,*75
2017-11-15 18:15:06 1510787706.810870: $GPRMC,231505,A,3946.9544,N,08404.9683,W,1.8330,251.864,151117,,*30
2017-11-15 18:15:06 1510787706.810925: $GPGSA,A,3,10,22,1,26,31,25,,,,,,,3.4,1.0,2.9*0E
2017-11-15 18:15:07 1510787707.330183: $GPZDA,231506.00,15,11,2017,00,00*65
2017-11-15 18:15:07 1510787707.330347: $GPGGA,231506,3946.9537,N,08404.9690,W,1,06,1.00,304.09,M,-33.324,M,,*7C
2017-11-15 18:15:07 1510787707.330408: $GPRMC,231506,A,3946.9537,N,08404.9690,W,1.5933,233.668,151117,,*37
2017-11-15 18:15:07 1510787707.330464: $GPGSA,A,3,10,22,1,26,31,25,,,,,,,3.4,1.0,2.9*0E
2017-11-15 18:15:08 1510787708.329818: $GPZDA,231507.00,15,11,2017,00,00*64
2017-11-15 18:15:08 1510787708.329978: $GPGGA,231507,3946.9537,N,08404.9697,W,1,06,1.00,304.02,M,-33.324,M,,*71
2017-11-15 18:15:08 1510787708.330038: $GPRMC,231507,A,3946.9537,N,08404.9697,W,1.7854,238.684,151117,,*3A
2017-11-15 18:15:08 1510787708.330094: $GPGSA,A,3,10,22,1,26,31,25,,,,,,,3.4,1.0,2.9*0E
2017-11-15 18:15:09 1510787709.697086: $GPGSV,3,1,11,10,30,154,08,22,32,307,19,01,21,283,11,26,17,180,15*78
2017-11-15 18:15:09 1510787709.697288: $GPGSV,3,2,11,31,71,249,22,32,61,064,04,25,39,067,16,11,02,267,04*7D
2017-11-15 18:15:09 1510787709.697333: $GPGSV,3,3,11,14,70,013,00,03,13,316,00,12,13,037,00*49
2017-11-15 18:15:09 1510787709.809684: $GPZDA,231508.00,15,11,2017,00,00*6B
2017-11-15 18:15:09 1510787709.809793: $GPGGA,231508,3946.9538,N,08404.9704,W,1,06,1.00,303.94,M,-33.324,M,,*72
2017-11-15 18:15:09 1510787709.809824: $GPRMC,231508,A,3946.9538,N,08404.9704,W,1.5933,233.668,151117,,*3A
2017-11-15 18:15:09 1510787709.809852: $GPGSA,A,3,10,22,1,26,31,25,,,,,,,3.4,1.0,2.9*0E
2017-11-15 18:15:10 1510787710.361153: $GPZDA,231509.00,15,11,2017,00,00*6A
2017-11-15 18:15:10 1510787710.367200: $GPGGA,231509,3946.9530,N,08404.9705,W,1,06,1.00,304.06,M,-33.324,M,,*76
2017-11-15 18:15:10 1510787710.367308: $GPRMC,231509,A,3946.9530,N,08404.9705,W,1.4167,227.342,151117,,*32
2017-11-15 18:15:10 1510787710.367368: $GPGSA,A,3,10,22,1,26,31,25,,,,,,,3.4,1.0,2.9*0E
2017-11-15 18:15:11 1510787711.361789: $GPZDA,231510.00,15,11,2017,00,00*62
2017-11-15 18:15:11 1510787711.361950: $GPGGA,231510,3946.9530,N,08404.9705,W,1,06,1.00,304.06,M,-33.324,M,,*7E
2017-11-15 18:15:11 1510787711.362011: $GPRMC,231510,A,3946.9530,N,08404.9705,W,0.5951,238.684,151117,,*36
2017-11-15 18:15:11 1510787711.362067: $GPGSA,A,3,10,22,1,26,31,25,,,,,,,3.4,1.0,2.9*0E
