2017-11-15 19:52:36 1510793556.212324: {"class":"VERSION","release":"3.17","rev":"3.17","proto_major":3,"proto_minor":12}
2017-11-15 19:52:36 1510793556.212785: {"class":"DEVICES","devices":[{"class":"DEVICE","path":"/dev/ttyUSB0","driver":"SiRF","subtype":"9\u0006GSD4e_4.1.2-P1_RPATCH.05-F-GPS-4R-1510281 11/03/2015 307","activated":"2017-11-16T00:52:36.169Z","flags":1,"native":1,"bps":4800,"parity":"N","stopbits":1,"cycle":1.00}]}
2017-11-15 19:52:36 1510793556.212902: {"class":"WATCH","enable":true,"json":false,"nmea":true,"raw":0,"scaled":false,"timing":false,"split24":false,"pps":false}
2017-11-15 19:52:36 1510793556.682348: $GPGSV,3,1,11,32,28,115,10,16,33,190,17,31,59,039,20,26,64,166,26*78
2017-11-15 19:52:36 1510793556.690821: $GPGSV,3,2,11,14,47,105,21,22,49,255,17,03,44,288,17,23,19,304,21*7A
2017-11-15 19:52:36 1510793556.690989: $GPGSV,3,3,11,29,13,061,00,25,09,037,00,138,38,213,00*7C
2017-11-15 19:52:36 1510793556.795669: $GPZDA,005235.00,16,11,2017,00,00*64
2017-11-15 19:52:36 1510793556.795834: $GPGGA,005235,3946.9522,N,08404.9574,W,1,08,1.00,294.89,M,-33.324,M,,*7D
2017-11-15 19:52:36 1510793556.795895: $GPRMC,005235,A,3946.9522,N,08404.9574,W,0.5306,294.352,161117,,*37
2017-11-15 19:52:36 1510793556.795949: $GPGSA,A,3,32,16,31,26,14,22,3,23,,,,,3.4,1.0,2.9*08
2017-11-15 19:52:37 1510793557.330538: $GPZDA,005236.00,16,11,2017,00,00*67
2017-11-15 19:52:37 1510793557.330702: $GPGGA,005236,3946.9518,N,08404.9574,W,1,08,1.00,294.25,M,-33.324,M,,*71
2017-11-15 19:52:37 1510793557.330762: $GPRMC,005236,A,3946.9518,N,08404.9574,W,0.2422,273.794,161117,,*3C
2017-11-15 19:52:37 1510793557.330818: $GPGSA,A,3,32,16,31,26,14,22,3,23,,,,,3.4,1.0,2.9*08
2017-11-15 19:52:38 1510793558.350191: $GPZDA,005237.00,16,11,2017,00,00*66
2017-11-15 19:52:38 1510793558.350352: $GPGGA,005237,3946.9518,N,08404.9574,W,1,08,1.00,294.25,M,-33.324,M,,*70
2017-11-15 19:52:38 1510793558.350428: $GPRMC,005237,A,3946.9518,N,08404.9574,W,0.4844,273.794,161117,,*37
2017-11-15 19:52:38 1510793558.350485: $GPGSA,A,3,32,16,31,26,14,22,3,23,,,,,3.4,1.0,2.9*08
2017-11-15 19:52:39 1510793559.665754: $GPGSV,3,1,11,32,28,115,09,16,33,190,16,31,59,039,20,26,64,166,26*71
2017-11-15 19:52:39 1510793559.665930: $GPGSV,3,2,11,14,47,105,21,22,49,255,17,03,44,288,17,23,19,304,21*7A
2017-11-15 19:52:39 1510793559.665990: $GPGSV,3,3,11,29,13,061,00,25,09,037,00,135,23,238,00*72
2017-11-15 19:52:39 1510793559.777890: $GPZDA,005238.00,16,11,2017,00,00*69
2017-11-15 19:52:39 1510793559.778011: $GPGGA,005238,3946.9518,N,08404.9574,W,1,08,1.00,294.25,M,-33.324,M,,*7F
2017-11-15 19:52:39 1510793559.778069: $GPRMC,005238,A,3946.9518,N,08404.9574,W,0.4844,273.794,161117,,*38
2017-11-15 19:52:39 1510793559.778124: $GPGSA,A,3,32,16,31,26,14,22,3,23,,,,,3.4,1.0,2.9*08
2017-11-15 19:52:40 1510793560.346287: $GPZDA,005239.00,16,11,2017,00,00*68
2017-11-15 19:52:40 1510793560.346446: $GPGGA,005239,3946.9514,N,08404.9581,W,1,08,1.00,293.53,M,-33.324,M,,*7E
2017-11-15 19:52:40 1510793560.346506: $GPRMC,005239,A,3946.9514,N,08404.9581,W,0.4844,273.794,161117,,*3F
2017-11-15 19:52:40 1510793560.346562: $GPGSA,A,3,32,16,31,26,14,22,3,23,,,,,3.4,1.0,2.9*08
2017-11-15 19:52:41 1510793561.330269: $GPZDA,005240.00,16,11,2017,00,00*66
2017-11-15 19:52:41 1510793561.330441: $GPGGA,005240,3946.9514,N,08404.9581,W,1,08,1.00,293.53,M,-33.324,M,,*70
2017-11-15 19:52:41 1510793561.330502: $GPRMC,005240,A,3946.9514,N,08404.9581,W,0.4207,219.347,161117,,*3A
2017-11-15 19:52:41 1510793561.330558: $GPGSA,A,3,32,16,31,26,14,22,3,23,,,,,3.4,1.0,2.9*08
2017-11-15 19:52:42 1510793562.664851: $GPGSV,3,1,11,32,28,115,09,16,33,190,16,31,59,039,20,26,64,166,26*71
2017-11-15 19:52:42 1510793562.665033: $GPGSV,3,2,11,14,47,105,21,22,49,255,17,03,44,288,16,23,19,304,21*7B
2017-11-15 19:52:42 1510793562.665093: $GPGSV,3,3,11,29,13,061,00,25,09,037,00,135,23,238,00*72
2017-11-15 19:52:42 1510793562.778148: $GPZDA,005241.00,16,11,2017,00,00*67
2017-11-15 19:52:42 1510793562.778307: $GPGGA,005241,3946.9514,N,08404.9581,W,1,08,1.00,293.53,M,-33.324,M,,*71
2017-11-15 19:52:42 1510793562.778368: $GPRMC,005241,A,3946.9514,N,08404.9581,W,0.5951,238.684,161117,,*3B
2017-11-15 19:52:42 1510793562.778478: $GPGSA,A,3,32,16,31,26,14,22,3,23,,,,,3.4,1.0,2.9*08
2017-11-15 19:52:43 1510793563.329123: $GPZDA,005242.00,16,11,2017,00,00*64
2017-11-15 19:52:43 1510793563.329286: $GPGGA,005242,3946.9507,N,08404.9588,W,1,08,1.00,293.58,M,-33.324,M,,*72
2017-11-15 19:52:43 1510793563.329346: $GPRMC,005242,A,3946.9507,N,08404.9588,W,1.0298,254.381,161117,,*33
2017-11-15 19:52:43 1510793563.329402: $GPGSA,A,3,32,16,31,26,14,22,3,23,,,,,3.4,1.0,2.9*08
2017-11-15 19:52:44 1510793564.330033: $GPZDA,005243.00,16,11,2017,00,00*65
2017-11-15 19:52:44 1510793564.330200: $GPGGA,005243,3946.9507,N,08404.9588,W,1,08,1.00,293.58,M,-33.324,M,,*73
2017-11-15 19:52:44 1510793564.330263: $GPRMC,005243,A,3946.9507,N,08404.9588,W,0.8054,248.645,161117,,*39
2017-11-15 19:52:44 1510793564.330318: $GPGSA,A,3,32,16,31,26,14,22,3,23,,,,,3.4,1.0,2.9*08
2017-11-15 19:52:45 1510793565.682039: $GPGSV,3,1,11,32,28,115,09,16,33,190,17,31,59,039,20,26,64,166,25*73
2017-11-15 19:52:45 1510793565.682221: $GPGSV,3,2,11,14,47,105,20,22,49,255,17,03,44,288,15,23,19,304,21*79
2017-11-15 19:52:45 1510793565.682282: $GPGSV,3,3,11,29,13,061,00,25,09,037,00,135,23,238,00*72
2017-11-15 19:52:45 1510793565.795268: $GPZDA,005244.00,16,11,2017,00,00*62
2017-11-15 19:52:45 1510793565.795429: $GPGGA,005244,3946.9503,N,08404.9595,W,1,08,1.00,292.86,M,-33.324,M,,*7E
2017-11-15 19:52:45 1510793565.795490: $GPRMC,005244,A,3946.9503,N,08404.9595,W,0.4844,273.794,161117,,*36
2017-11-15 19:52:45 1510793565.795546: $GPGSA,A,3,32,16,31,26,14,22,3,23,,,,,3.4,1.0,2.9*08
