2017-11-16 15:27:26 1510864046.376473: {"class":"VERSION","release":"3.17","rev":"3.17","proto_major":3,"proto_minor":12}
2017-11-16 15:27:26 1510864046.376946: {"class":"DEVICES","devices":[{"class":"DEVICE","path":"/dev/ttyUSB0","driver":"SiRF","subtype":"9\u0006GSD4e_4.1.2-P1_RPATCH.05-F-GPS-4R-1510281 11/03/2015 307","activated":"2017-11-16T20:27:26.332Z","flags":1,"native":1,"bps":4800,"parity":"N","stopbits":1,"cycle":1.00}]}
2017-11-16 15:27:26 1510864046.377066: {"class":"WATCH","enable":true,"json":false,"nmea":true,"raw":0,"scaled":false,"timing":false,"split24":false,"pps":false}
2017-11-16 15:27:26 1510864046.444672: $GPZDA,202725.00,16,11,2017,00,00*65
2017-11-16 15:27:26 1510864046.444862: $GPGGA,202725,3946.9569,N,08404.9867,W,2,12,0.80,309.53,M,-33.324,M,,*7F
2017-11-16 15:27:26 1510864046.444929: $GPRMC,202725,A,3946.9569,N,08404.9867,W,0.0000,0.000,161117,,*3D
2017-11-16 15:27:26 1510864046.444986: $GPGSA,A,3,8,10,14,15,18,20,21,24,27,32,12,138,1.6,0.8,1.3*34
2017-11-16 15:27:27 1510864047.367960: $GPZDA,202726.00,16,11,2017,00,00*66
2017-11-16 15:27:27 1510864047.368127: $GPGGA,202726,3946.9569,N,08404.9867,W,2,12,0.80,309.53,M,-33.324,M,,*7C
2017-11-16 15:27:27 1510864047.368190: $GPRMC,202726,A,3946.9569,N,08404.9867,W,0.0000,0.000,161117,,*3E
2017-11-16 15:27:27 1510864047.368247: $GPGSA,A,3,8,10,14,15,18,20,21,24,27,32,12,138,1.6,0.8,1.3*34
2017-11-16 15:27:28 1510864048.705362: $GPGSV,3,1,12,08,06,292,35,10,69,331,51,14,29,253,45,15,11,066,30*7E
2017-11-16 15:27:28 1510864048.705530: $GPGSV,3,2,12,18,71,094,47,20,08,118,25,21,29,180,44,24,45,058,51*70
2017-11-16 15:27:28 1510864048.705590: $GPGSV,3,3,12,27,06,259,32,32,46,265,46,12,09,106,18,138,38,213,45*42
2017-11-16 15:27:28 1510864048.818648: $GPZDA,202727.00,16,11,2017,00,00*67
2017-11-16 15:27:28 1510864048.818808: $GPGGA,202727,3946.9569,N,08404.9867,W,2,12,0.80,309.53,M,-33.324,M,,*7D
2017-11-16 15:27:28 1510864048.818870: $GPRMC,202727,A,3946.9569,N,08404.9867,W,0.0000,0.000,161117,,*3F
2017-11-16 15:27:28 1510864048.818925: $GPGSA,A,3,8,10,14,15,18,20,21,24,27,32,12,138,1.6,0.8,1.3*34
2017-11-16 15:27:29 1510864049.385713: $GPZDA,202728.00,16,11,2017,00,00*68
2017-11-16 15:27:29 1510864049.385871: $GPGGA,202728,3946.9569,N,08404.9867,W,2,12,0.80,309.53,M,-33.324,M,,*72
2017-11-16 15:27:29 1510864049.385932: $GPRMC,202728,A,3946.9569,N,08404.9867,W,0.0000,0.000,161117,,*30
2017-11-16 15:27:29 1510864049.385988: $GPGSA,A,3,8,10,14,15,18,20,21,24,27,32,12,138,1.6,0.8,1.3*34
2017-11-16 15:27:30 1510864050.368801: $GPZDA,202729.00,16,11,2017,00,00*69
2017-11-16 15:27:30 1510864050.368971: $GPGGA,202729,3946.9569,N,08404.9867,W,2,12,0.80,309.53,M,-33.324,M,,*73
2017-11-16 15:27:30 1510864050.369032: $GPRMC,202729,A,3946.9569,N,08404.9867,W,0.0000,0.000,161117,,*31
2017-11-16 15:27:30 1510864050.369088: $GPGSA,A,3,8,10,14,15,18,20,21,24,27,32,12,138,1.6,0.8,1.3*34
2017-11-16 15:27:31 1510864051.720495: $GPGSV,3,1,12,08,06,292,35,10,69,331,51,14,29,253,44,15,11,066,29*77
2017-11-16 15:27:31 1510864051.720669: $GPGSV,3,2,12,18,71,094,47,20,08,118,26,21,29,180,45,24,45,058,51*72
2017-11-16 15:27:31 1510864051.720731: $GPGSV,3,3,12,27,06,259,32,32,46,265,46,12,09,106,21,138,38,213,44*49
2017-11-16 15:27:31 1510864051.833974: $GPZDA,202730.00,16,11,2017,00,00*61
2017-11-16 15:27:31 1510864051.834134: $GPGGA,202730,3946.9569,N,08404.9867,W,2,12,0.80,309.53,M,-33.324,M,,*7B
2017-11-16 15:27:31 1510864051.834196: $GPRMC,202730,A,3946.9569,N,08404.9867,W,0.0000,0.000,161117,,*39
2017-11-16 15:27:31 1510864051.834253: $GPGSA,A,3,8,10,14,15,18,20,21,24,27,32,12,138,1.6,0.8,1.3*34
2017-11-16 15:27:32 1510864052.362347: $GPZDA,202731.00,16,11,2017,00,00*60
2017-11-16 15:27:32 1510864052.362516: $GPGGA,202731,3946.9569,N,08404.9867,W,2,12,0.80,309.53,M,-33.324,M,,*7A
2017-11-16 15:27:32 1510864052.362580: $GPRMC,202731,A,3946.9569,N,08404.9867,W,0.0000,0.000,161117,,*38
2017-11-16 15:27:32 1510864052.362636: $GPGSA,A,3,8,10,14,15,18,20,21,24,27,32,12,138,1.6,0.8,1.3*34
2017-11-16 15:27:33 1510864053.385959: $GPZDA,202732.00,16,11,2017,00,00*63
2017-11-16 15:27:33 1510864053.386182: $GPGGA,202732,3946.9569,N,08404.9867,W,2,12,0.80,309.53,M,-33.324,M,,*79
2017-11-16 15:27:33 1510864053.386263: $GPRMC,202732,A,3946.9569,N,08404.9867,W,0.0000,0.000,161117,,*3B
2017-11-16 15:27:33 1510864053.386321: $GPGSA,A,3,8,10,14,15,18,20,21,24,27,32,12,138,1.6,0.8,1.3*34
2017-11-16 15:27:34 1510864054.719967: $GPGSV,3,1,12,08,06,292,34,10,69,331,50,14,29,253,45,15,11,066,29*76
2017-11-16 15:27:34 1510864054.720149: $GPGSV,3,2,12,18,71,094,47,20,08,118,26,21,29,180,45,24,45,058,51*72
2017-11-16 15:27:34 1510864054.720214: $GPGSV,3,3,12,27,06,259,33,32,46,265,46,12,09,106,27,138,38,213,44*4E
2017-11-16 15:27:34 1510864054.833688: $GPZDA,202733.00,16,11,2017,00,00*62
2017-11-16 15:27:34 1510864054.833867: $GPGGA,202733,3946.9569,N,08404.9867,W,2,12,0.80,309.53,M,-33.324,M,,*78
2017-11-16 15:27:34 1510864054.833931: $GPRMC,202733,A,3946.9569,N,08404.9867,W,0.0000,0.000,161117,,*3A
2017-11-16 15:27:34 1510864054.833991: $GPGSA,A,3,8,10,14,15,18,20,21,24,27,32,12,138,1.6,0.8,1.3*34
2017-11-16 15:27:35 1510864055.367857: $GPZDA,202734.00,16,11,2017,00,00*65
2017-11-16 15:27:35 1510864055.368042: $GPGGA,202734,3946.9569,N,08404.9867,W,2,12,0.80,309.53,M,-33.324,M,,*7F
2017-11-16 15:27:35 1510864055.368108: $GPRMC,202734,A,3946.9569,N,08404.9867,W,0.0000,0.000,161117,,*3D
2017-11-16 15:27:35 1510864055.368168: $GPGSA,A,3,8,10,14,15,18,20,21,24,27,32,12,138,1.6,0.8,1.3*34
2017-11-16 15:27:36 1510864056.385649: $GPZDA,202735.00,16,11,2017,00,00*64
2017-11-16 15:27:36 1510864056.385824: $GPGGA,202735,3946.9569,N,08404.9867,W,2,12,0.80,309.53,M,-33.324,M,,*7E
2017-11-16 15:27:36 1510864056.385889: $GPRMC,202735,A,3946.9569,N,08404.9867,W,0.0000,0.000,161117,,*3C
2017-11-16 15:27:36 1510864056.385948: $GPGSA,A,3,8,10,14,15,18,20,21,24,27,32,12,138,1.6,0.8,1.3*34
