2017-11-16 14:54:34 1510862074.295925: {"class":"VERSION","release":"3.17","rev":"3.17","proto_major":3,"proto_minor":12}
2017-11-16 14:54:34 1510862074.296580: {"class":"DEVICES","devices":[{"class":"DEVICE","path":"/dev/ttyUSB0","driver":"SiRF","subtype":"9\u0006GSD4e_4.1.2-P1_RPATCH.05-F-GPS-4R-1510281 11/03/2015 307","activated":"2017-11-16T19:54:34.256Z","flags":1,"native":1,"bps":4800,"parity":"N","stopbits":1,"cycle":1.00}]}
2017-11-16 14:54:34 1510862074.296707: {"class":"WATCH","enable":true,"json":false,"nmea":true,"raw":0,"scaled":false,"timing":false,"split24":false,"pps":false}
2017-11-16 14:54:34 1510862074.566809: $GPZDA,195433.00,16,11,2017,00,00*6C
2017-11-16 14:54:34 1510862074.567432: $GPGGA,195433,3946.9575,N,08404.9848,W,2,11,0.80,301.77,M,-33.324,M,,*7B
2017-11-16 14:54:34 1510862074.571837: $GPRMC,195433,A,3946.9575,N,08404.9848,W,0.0000,0.000,161117,,*34
2017-11-16 14:54:34 1510862074.571916: $GPGSA,A,3,8,10,15,18,21,20,24,27,32,14,138,,1.6,0.8,1.3*37
2017-11-16 14:54:35 1510862075.491442: $GPZDA,195434.00,16,11,2017,00,00*6B
2017-11-16 14:54:35 1510862075.491632: $GPGGA,195434,3946.9575,N,08404.9848,W,2,11,0.80,301.77,M,-33.324,M,,*7C
2017-11-16 14:54:35 1510862075.491693: $GPRMC,195434,A,3946.9575,N,08404.9848,W,0.0000,0.000,161117,,*33
2017-11-16 14:54:35 1510862075.491748: $GPGSA,A,3,8,10,15,18,21,20,24,27,32,14,138,,1.6,0.8,1.3*37
2017-11-16 14:54:36 1510862076.823487: $GPGSV,3,1,11,08,08,306,34,10,56,315,50,15,22,058,49,18,77,040,44*70
2017-11-16 14:54:36 1510862076.823656: $GPGSV,3,2,11,21,45,183,47,20,19,109,45,24,52,079,49,27,14,271,41*73
2017-11-16 14:54:36 1510862076.823717: $GPGSV,3,3,11,32,35,252,47,14,18,243,43,138,38,213,44*77
2017-11-16 14:54:36 1510862076.936912: $GPZDA,195435.00,16,11,2017,00,00*6A
2017-11-16 14:54:36 1510862076.937109: $GPGGA,195435,3946.9575,N,08404.9848,W,2,11,0.80,301.77,M,-33.324,M,,*7D
2017-11-16 14:54:36 1510862076.937171: $GPRMC,195435,A,3946.9575,N,08404.9848,W,0.0000,0.000,161117,,*32
2017-11-16 14:54:36 1510862076.937227: $GPGSA,A,3,8,10,15,18,21,20,24,27,32,14,138,,1.6,0.8,1.3*37
2017-11-16 14:54:37 1510862077.492731: $GPZDA,195436.00,16,11,2017,00,00*69
2017-11-16 14:54:37 1510862077.492891: $GPGGA,195436,3946.9575,N,08404.9848,W,2,11,0.80,301.77,M,-33.324,M,,*7E
2017-11-16 14:54:37 1510862077.492952: $GPRMC,195436,A,3946.9575,N,08404.9848,W,0.0000,0.000,161117,,*31
2017-11-16 14:54:37 1510862077.493007: $GPGSA,A,3,8,10,15,18,21,20,24,27,32,14,138,,1.6,0.8,1.3*37
2017-11-16 14:54:38 1510862078.491147: $GPZDA,195437.00,16,11,2017,00,00*68
2017-11-16 14:54:38 1510862078.491317: $GPGGA,195437,3946.9575,N,08404.9848,W,2,11,0.80,301.77,M,-33.324,M,,*7F
2017-11-16 14:54:38 1510862078.491378: $GPRMC,195437,A,3946.9575,N,08404.9848,W,0.0000,0.000,161117,,*30
2017-11-16 14:54:38 1510862078.491434: $GPGSA,A,3,8,10,15,18,21,20,24,27,32,14,138,,1.6,0.8,1.3*37
2017-11-16 14:54:39 1510862079.827604: $GPGSV,3,1,11,08,08,306,34,10,56,315,50,15,22,058,50,18,77,040,44*78
2017-11-16 14:54:39 1510862079.827803: $GPGSV,3,2,11,21,45,183,47,20,19,109,45,24,52,079,49,27,14,271,41*73
2017-11-16 14:54:39 1510862079.827885: $GPGSV,3,3,11,32,35,252,47,14,18,243,43,138,38,213,43*70
2017-11-16 14:54:39 1510862079.940927: $GPZDA,195438.00,16,11,2017,00,00*67
2017-11-16 14:54:39 1510862079.941086: $GPGGA,195438,3946.9575,N,08404.9848,W,2,11,0.80,301.77,M,-33.324,M,,*70
2017-11-16 14:54:39 1510862079.941145: $GPRMC,195438,A,3946.9575,N,08404.9848,W,0.0000,0.000,161117,,*3F
2017-11-16 14:54:39 1510862079.941201: $GPGSA,A,3,8,10,15,18,21,20,24,27,32,14,138,,1.6,0.8,1.3*37
2017-11-16 14:54:40 1510862080.491730: $GPZDA,195439.00,16,11,2017,00,00*66
2017-11-16 14:54:40 1510862080.491900: $GPGGA,195439,3946.9575,N,08404.9848,W,2,11,0.80,301.77,M,-33.324,M,,*71
2017-11-16 14:54:40 1510862080.491962: $GPRMC,195439,A,3946.9575,N,08404.9848,W,0.0000,0.000,161117,,*3E
2017-11-16 14:54:40 1510862080.492018: $GPGSA,A,3,8,10,15,18,21,20,24,27,32,14,138,,1.6,0.8,1.3*37
2017-11-16 14:54:41 1510862081.492628: $GPZDA,195440.00,16,11,2017,00,00*68
2017-11-16 14:54:41 1510862081.492793: $GPGGA,195440,3946.9575,N,08404.9848,W,2,11,1.00,301.77,M,-33.324,M,,*76
2017-11-16 14:54:41 1510862081.492907: $GPRMC,195440,A,3946.9575,N,08404.9848,W,0.0000,0.000,161117,,*30
2017-11-16 14:54:41 1510862081.492965: $GPGSA,A,3,8,10,15,18,21,20,24,27,32,14,138,,1.6,1.0,1.3*3E
2017-11-16 14:54:42 1510862082.833431: $GPGSV,3,1,11,08,08,306,02,10,56,315,50,15,22,058,49,18,77,040,44*75
2017-11-16 14:54:42 1510862082.833602: $GPGSV,3,2,11,21,45,183,47,20,19,109,45,24,52,079,48,27,14,271,41*72
2017-11-16 14:54:42 1510862082.833662: $GPGSV,3,3,11,32,35,252,47,14,18,243,44,138,38,213,43*77
2017-11-16 14:54:42 1510862082.946760: $GPZDA,195441.00,16,11,2017,00,00*69
2017-11-16 14:54:42 1510862082.946933: $GPGGA,195441,3946.9575,N,08404.9848,W,2,10,1.00,301.77,M,-33.324,M,,*76
2017-11-16 14:54:42 1510862082.946995: $GPRMC,195441,A,3946.9575,N,08404.9848,W,0.0000,0.000,161117,,*31
2017-11-16 14:54:42 1510862082.947051: $GPGSA,A,3,10,15,18,21,20,24,27,32,14,138,,,1.6,1.0,1.3*06
2017-11-16 14:54:43 1510862083.492775: $GPZDA,195442.00,16,11,2017,00,00*6A
2017-11-16 14:54:43 1510862083.492968: $GPGGA,195442,3946.9575,N,08404.9848,W,2,10,0.80,301.77,M,-33.324,M,,*7C
2017-11-16 14:54:43 1510862083.493030: $GPRMC,195442,A,3946.9575,N,08404.9848,W,0.0000,0.000,161117,,*32
2017-11-16 14:54:43 1510862083.493086: $GPGSA,A,3,10,15,18,21,20,24,27,32,14,138,,,1.6,0.8,1.3*0F
