2017-11-15 19:29:04 1510792144.062576: {"class":"VERSION","release":"3.17","rev":"3.17","proto_major":3,"proto_minor":12}
2017-11-15 19:29:04 1510792144.063037: {"class":"DEVICES","devices":[{"class":"DEVICE","path":"/dev/ttyUSB0","driver":"SiRF","subtype":"9\u0006GSD4e_4.1.2-P1_RPATCH.05-F-GPS-4R-1510281 11/03/2015 307","activated":"2017-11-16T00:29:03.935Z","flags":1,"native":1,"bps":4800,"parity":"N","stopbits":1,"cycle":1.00}]}
2017-11-15 19:29:04 1510792144.063151: {"class":"WATCH","enable":true,"json":false,"nmea":true,"raw":0,"scaled":false,"timing":false,"split24":false,"pps":false}
2017-11-15 19:29:04 1510792144.345933: $GPZDA,002903.00,16,11,2017,00,00*6D
2017-11-15 19:29:04 1510792144.346104: $GPGGA,002903,3946.9525,N,08404.9500,W,1,07,1.40,277.10,M,-33.324,M,,*76
2017-11-15 19:29:04 1510792144.346165: $GPRMC,002903,A,3946.9525,N,08404.9500,W,0.7278,203.636,161117,,*39
2017-11-15 19:29:04 1510792144.346223: $GPGSA,A,3,32,31,26,3,14,23,22,,,,,,3.4,1.4,2.9*0B
2017-11-15 19:29:05 1510792145.331048: $GPZDA,002904.00,16,11,2017,00,00*6A
2017-11-15 19:29:05 1510792145.331223: $GPGGA,002904,3946.9525,N,08404.9500,W,1,07,1.40,277.10,M,-33.324,M,,*71
2017-11-15 19:29:05 1510792145.331287: $GPRMC,002904,A,3946.9525,N,08404.9500,W,0.5951,238.684,161117,,*3D
2017-11-15 19:29:05 1510792145.331346: $GPGSA,A,3,32,31,26,3,14,23,22,,,,,,3.4,1.4,2.9*0B
2017-11-15 19:29:06 1510792146.665853: $GPGSV,3,1,12,32,37,106,19,31,68,022,18,16,21,190,12,26,52,172,24*79
2017-11-15 19:29:06 1510792146.665997: $GPGSV,3,2,12,29,10,072,06,25,18,040,00,03,39,300,16,14,56,091,20*79
2017-11-15 19:29:06 1510792146.666057: $GPGSV,3,3,12,23,10,300,14,01,06,253,00,22,50,273,13,133,44,201,00*4C
2017-11-15 19:29:06 1510792146.779327: $GPZDA,002905.00,16,11,2017,00,00*6B
2017-11-15 19:29:06 1510792146.779495: $GPGGA,002905,3946.9525,N,08404.9500,W,1,08,1.40,277.10,M,-33.324,M,,*7F
2017-11-15 19:29:06 1510792146.779557: $GPRMC,002905,A,3946.9525,N,08404.9500,W,0.5287,182.716,161117,,*34
2017-11-15 19:29:06 1510792146.779614: $GPGSA,A,3,32,31,16,26,3,14,23,22,,,,,3.4,1.4,2.9*0C
2017-11-15 19:29:07 1510792147.346749: $GPZDA,002906.00,16,11,2017,00,00*68
2017-11-15 19:29:07 1510792147.346914: $GPGGA,002906,3946.9525,N,08404.9500,W,1,08,1.40,277.10,M,-33.324,M,,*7C
2017-11-15 19:29:07 1510792147.346976: $GPRMC,002906,A,3946.9525,N,08404.9500,W,1.0567,197.448,161117,,*36
2017-11-15 19:29:07 1510792147.347031: $GPGSA,A,3,32,31,16,26,3,14,23,22,,,,,3.4,1.4,2.9*0C
2017-11-15 19:29:08 1510792148.346338: $GPZDA,002907.00,16,11,2017,00,00*69
2017-11-15 19:29:08 1510792148.346503: $GPGGA,002907,3946.9525,N,08404.9500,W,1,08,1.40,277.10,M,-33.324,M,,*7D
2017-11-15 19:29:08 1510792148.346565: $GPRMC,002907,A,3946.9525,N,08404.9500,W,1.0567,197.448,161117,,*37
2017-11-15 19:29:08 1510792148.346621: $GPGSA,A,3,32,31,16,26,3,14,23,22,,,,,3.4,1.4,2.9*0C
2017-11-15 19:29:09 1510792149.683082: $GPGSV,3,1,12,32,37,106,19,31,68,022,18,16,21,190,12,26,52,172,25*78
2017-11-15 19:29:09 1510792149.683250: $GPGSV,3,2,12,29,10,072,12,25,18,040,00,03,39,300,16,14,56,091,20*7C
2017-11-15 19:29:09 1510792149.683311: $GPGSV,3,3,12,23,10,300,14,01,06,253,00,22,50,273,15,133,44,201,00*4A
2017-11-15 19:29:09 1510792149.796701: $GPZDA,002908.00,16,11,2017,00,00*66
2017-11-15 19:29:09 1510792149.796920: $GPGGA,002908,3946.9521,N,08404.9500,W,1,08,1.40,276.46,M,-33.324,M,,*74
2017-11-15 19:29:09 1510792149.796982: $GPRMC,002908,A,3946.9521,N,08404.9500,W,0.7278,203.636,161117,,*36
2017-11-15 19:29:09 1510792149.797038: $GPGSA,A,3,32,31,16,26,3,14,23,22,,,,,3.4,1.4,2.9*0C
2017-11-15 19:29:10 1510792150.347256: $GPZDA,002909.00,16,11,2017,00,00*67
2017-11-15 19:29:10 1510792150.347410: $GPGGA,002909,3946.9521,N,08404.9500,W,1,08,1.20,276.46,M,-33.324,M,,*73
2017-11-15 19:29:10 1510792150.347472: $GPRMC,002909,A,3946.9521,N,08404.9500,W,0.4207,219.347,161117,,*34
2017-11-15 19:29:10 1510792150.347528: $GPGSA,A,3,32,31,16,26,3,14,23,22,,,,,3.4,1.2,2.9*0A
2017-11-15 19:29:11 1510792151.330134: $GPZDA,002910.00,16,11,2017,00,00*6F
2017-11-15 19:29:11 1510792151.330306: $GPGGA,002910,3946.9521,N,08404.9500,W,1,08,1.20,276.46,M,-33.324,M,,*7B
2017-11-15 19:29:11 1510792151.330421: $GPRMC,002910,A,3946.9521,N,08404.9500,W,0.5774,207.515,161117,,*32
2017-11-15 19:29:11 1510792151.330480: $GPGSA,A,3,32,31,16,26,3,14,23,22,,,,,3.4,1.2,2.9*0A
2017-11-15 19:29:12 1510792152.665880: $GPGSV,3,1,12,32,37,106,19,31,68,022,18,16,21,190,10,26,52,172,25*7A
2017-11-15 19:29:12 1510792152.666048: $GPGSV,3,2,12,29,10,072,10,25,18,040,00,03,39,300,16,14,56,091,19*74
2017-11-15 19:29:12 1510792152.666108: $GPGSV,3,3,12,23,10,300,14,01,06,253,00,22,50,273,15,133,44,201,00*4A
2017-11-15 19:29:12 1510792152.779520: $GPZDA,002911.00,16,11,2017,00,00*6E
2017-11-15 19:29:12 1510792152.779695: $GPGGA,002911,3946.9517,N,08404.9508,W,1,09,1.40,277.15,M,-33.324,M,,*77
2017-11-15 19:29:12 1510792152.779755: $GPRMC,002911,A,3946.9517,N,08404.9508,W,0.8414,219.347,161117,,*38
2017-11-15 19:29:12 1510792152.779811: $GPGSA,A,3,32,31,16,26,29,3,14,23,22,,,,3.4,1.4,2.9*07
2017-11-15 19:29:13 1510792153.330350: $GPZDA,002912.00,16,11,2017,00,00*6D
2017-11-15 19:29:13 1510792153.330526: $GPGGA,002912,3946.9517,N,08404.9508,W,1,09,1.40,277.15,M,-33.324,M,,*74
2017-11-15 19:29:13 1510792153.330587: $GPRMC,002912,A,3946.9517,N,08404.9508,W,1.3044,205.352,161117,,*39
2017-11-15 19:29:13 1510792153.330642: $GPGSA,A,3,32,31,16,26,29,3,14,23,22,,,,3.4,1.4,2.9*07
