2017-12-29 14:52:57 1514577177.013660: {"class":"VERSION","release":"3.16","rev":"3.16-4","proto_major":3,"proto_minor":11}
2017-12-29 14:52:57 1514577177.014008: {"class":"DEVICES","devices":[{"class":"DEVICE","path":"/dev/ttyUSB0","driver":"SiRF","subtype":"9\u0006GSD4e_4.1.2-P1_RPATCH.05-F-GPS-4R-1510281 11/03/2015 307","activated":"2017-12-29T19:52:56.978Z","flags":1,"native":1,"bps":4800,"parity":"N","stopbits":1,"cycle":1.00}]}
2017-12-29 14:52:57 1514577177.014122: {"class":"WATCH","enable":true,"json":false,"nmea":true,"raw":0,"scaled":false,"timing":false,"split24":false,"pps":false}
2017-12-29 14:52:57 1514577177.885404: $GPZDA,195258.31,29,12,2017,00,00*6A
2017-12-29 14:52:57 1514577177.885583: $GPGGA,195258,3946.9613,N,08404.9843,W,1,12,1.00,299.75,M,-33.324,M,,*73
2017-12-29 14:52:57 1514577177.885651: $GPRMC,195258,A,3946.9613,N,08404.9843,W,0.1567,189.200,291217,,*3F
2017-12-29 14:52:57 1514577177.885713: $GPGSA,A,3,1,3,10,12,14,22,25,31,32,18,26,138,1.7,1.0,1.3*01
2017-12-29 14:52:59 1514577179.273665: $GPGSV,3,1,12,01,22,292,35,03,07,316,38,10,39,151,48,12,18,043,45*73
2017-12-29 14:52:59 1514577179.273830: $GPGSV,3,2,12,14,69,345,43,22,26,310,42,25,41,081,52,31,66,234,47*7C
2017-12-29 14:52:59 1514577179.273896: $GPGSV,3,3,12,32,65,049,50,18,10,145,08,26,10,180,06,138,38,213,00*4B
2017-12-29 14:52:59 1514577179.387046: $GPZDA,195259.00,29,12,2017,00,00*69
2017-12-29 14:52:59 1514577179.387244: $GPGGA,195259,3946.9609,N,08404.9844,W,1,09,1.00,300.51,M,-33.324,M,,*73
2017-12-29 14:52:59 1514577179.387336: $GPRMC,195259,A,3946.9609,N,08404.9844,W,0.0000,0.000,291217,,*35
2017-12-29 14:52:59 1514577179.387400: $GPGSA,A,3,1,3,10,12,14,22,25,31,32,,,,1.7,1.0,1.3*36
2017-12-29 14:53:00 1514577180.009801: $GPZDA,195300.00,29,12,2017,00,00*64
2017-12-29 14:53:00 1514577180.009972: $GPGGA,195300,3946.9609,N,08404.9844,W,1,09,0.80,300.51,M,-33.324,M,,*77
2017-12-29 14:53:00 1514577180.010039: $GPRMC,195300,A,3946.9609,N,08404.9844,W,0.0000,0.000,291217,,*38
2017-12-29 14:53:00 1514577180.010101: $GPGSA,A,3,1,3,10,12,14,22,25,31,32,,,,1.7,0.8,1.3*3F
2017-12-29 14:53:00 1514577180.010159: $GPGBS,195300,10.91,M,10.38,M,30.89,M*01
2017-12-29 14:53:00 1514577180.460676: $GPZDA,195301.00,29,12,2017,00,00*65
2017-12-29 14:53:00 1514577180.460838: $GPGGA,195301,3946.9605,N,08404.9851,W,1,09,0.80,299.79,M,-33.324,M,,*75
2017-12-29 14:53:00 1514577180.460905: $GPRMC,195301,A,3946.9605,N,08404.9851,W,0.0000,0.000,291217,,*31
2017-12-29 14:53:00 1514577180.460966: $GPGSA,A,3,1,3,10,12,14,22,25,31,32,,,,1.7,0.8,1.3*3F
2017-12-29 14:53:00 1514577180.461022: $GPGBS,195301,10.91,M,10.38,M,30.89,M*00
2017-12-29 14:53:01 1514577181.665921: $GPGSV,3,1,12,01,22,292,36,03,07,316,40,10,39,151,49,12,18,043,45*7E
2017-12-29 14:53:01 1514577181.666096: $GPGSV,3,2,12,14,69,345,43,22,26,310,42,25,41,081,53,31,66,234,47*7D
2017-12-29 14:53:01 1514577181.666162: $GPGSV,3,3,12,32,65,049,51,18,10,145,28,26,10,180,11,138,38,213,44*4E
2017-12-29 14:53:01 1514577181.779251: $GPZDA,195302.00,29,12,2017,00,00*66
2017-12-29 14:53:01 1514577181.779408: $GPGGA,195302,3946.9605,N,08404.9851,W,1,12,0.80,299.79,M,-33.324,M,,*7C
2017-12-29 14:53:01 1514577181.779507: $GPRMC,195302,A,3946.9605,N,08404.9851,W,0.0000,0.000,291217,,*32
2017-12-29 14:53:01 1514577181.779568: $GPGSA,A,3,1,3,10,12,14,22,25,31,32,18,26,138,1.7,0.8,1.3*08
2017-12-29 14:53:02 1514577182.327926: $GPZDA,195303.00,29,12,2017,00,00*67
2017-12-29 14:53:03 1514577183.177623: $GPGGA,195303,3946.9601,N,08404.9851,W,1,12,0.80,299.15,M,-33.324,M,,*73
2017-12-29 14:53:03 1514577183.177858: $GPRMC,195303,A,3946.9601,N,08404.9851,W,0.0000,0.000,291217,,*37
2017-12-29 14:53:03 1514577183.177927: $GPGSA,A,3,1,3,10,12,14,22,25,31,32,18,26,138,1.7,0.8,1.3*08
2017-12-29 14:53:03 1514577183.326157: $GPZDA,195304.00,29,12,2017,00,00*60
2017-12-29 14:53:03 1514577183.326312: $GPGGA,195304,3946.9601,N,08404.9851,W,1,12,0.80,299.15,M,-33.324,M,,*74
2017-12-29 14:53:03 1514577183.326378: $GPRMC,195304,A,3946.9601,N,08404.9851,W,0.0000,0.000,291217,,*30
2017-12-29 14:53:03 1514577183.326456: $GPGSA,A,3,1,3,10,12,14,22,25,31,32,18,26,138,1.7,0.8,1.3*08
2017-12-29 14:53:03 1514577183.326566: $GPGBS,195304,10.91,M,10.38,M,30.89,M*05
2017-12-29 14:53:04 1514577184.661677: $GPGSV,3,1,12,01,22,292,36,03,07,316,40,10,39,151,48,12,18,043,45*7F
2017-12-29 14:53:04 1514577184.661855: $GPGSV,3,2,12,14,69,345,42,22,26,310,40,25,41,081,51,31,66,234,45*7E
2017-12-29 14:53:04 1514577184.661920: $GPGSV,3,3,12,32,65,049,50,18,10,145,27,26,10,180,17,138,38,213,45*47
2017-12-29 14:53:04 1514577184.775212: $GPZDA,195305.00,29,12,2017,00,00*61
2017-12-29 14:53:04 1514577184.775356: $GPGGA,195305,3946.9597,N,08404.9851,W,1,12,0.80,298.51,M,-33.324,M,,*78
2017-12-29 14:53:04 1514577184.775438: $GPRMC,195305,A,3946.9597,N,08404.9851,W,0.0000,0.000,291217,,*3D
2017-12-29 14:53:04 1514577184.775499: $GPGSA,A,3,1,3,10,12,14,22,25,31,32,18,26,138,1.7,0.8,1.3*08
2017-12-29 14:53:05 1514577185.324885: $GPZDA,195306.00,29,12,2017,00,00*62
2017-12-29 14:53:05 1514577185.325053: $GPGGA,195306,3946.9597,N,08404.9851,W,1,12,0.80,298.51,M,-33.324,M,,*7B
2017-12-29 14:53:05 1514577185.325118: $GPRMC,195306,A,3946.9597,N,08404.9851,W,0.0000,0.000,291217,,*3E
2017-12-29 14:53:05 1514577185.325179: $GPGSA,A,3,1,3,10,12,14,22,25,31,32,18,26,138,1.7,0.8,1.3*08
2017-12-29 14:53:06 1514577186.325236: $GPZDA,195307.00,29,12,2017,00,00*63
2017-12-29 14:53:06 1514577186.325438: $GPGGA,195307,3946.9593,N,08404.9858,W,1,12,0.80,297.79,M,-33.324,M,,*72
2017-12-29 14:53:06 1514577186.325505: $GPRMC,195307,A,3946.9593,N,08404.9858,W,0.0000,0.000,291217,,*32
2017-12-29 14:53:06 1514577186.325567: $GPGSA,A,3,1,3,10,12,14,22,25,31,32,18,26,138,1.7,0.8,1.3*08
