2017-12-31 16:45:13 1514756713.896114: {"class":"VERSION","release":"3.16","rev":"3.16-4","proto_major":3,"proto_minor":11}
2017-12-31 16:45:13 1514756713.896512: {"class":"DEVICES","devices":[{"class":"DEVICE","path":"/dev/ttyUSB0","driver":"SiRF","activated":"2017-12-31T21:45:13.488Z","flags":1,"native":1,"bps":4800,"parity":"N","stopbits":1,"cycle":1.00}]}
2017-12-31 16:45:13 1514756713.896621: {"class":"WATCH","enable":true,"json":false,"nmea":true,"raw":0,"scaled":false,"timing":false,"split24":false,"pps":false}
2017-12-31 16:45:14 1514756714.362792: $GPZDA,214515.00,31,12,2017,00,00*65
2017-12-31 16:45:14 1514756714.362949: $GPGGA,214515,3946.9576,N,08404.9848,W,2,11,0.80,303.18,M,-33.324,M,,*7C
2017-12-31 16:45:14 1514756714.363014: $GPRMC,214515,A,3946.9576,N,08404.9848,W,0.0000,0.000,311217,,*3E
2017-12-31 16:45:14 1514756714.363099: $GPGSA,A,3,22,23,25,3,16,29,31,14,32,26,135,,1.7,0.8,1.3*32
2017-12-31 16:45:15 1514756715.697742: $GPGSV,3,1,11,22,49,253,44,23,20,304,43,25,09,039,31,03,45,285,34*7D
2017-12-31 16:45:15 1514756715.697918: $GPGSV,3,2,11,16,35,189,47,29,13,064,29,31,57,042,52,14,48,105,46*74
2017-12-31 16:45:15 1514756715.697983: $GPGSV,3,3,11,32,26,115,41,26,66,162,42,135,22,240,44*7A
2017-12-31 16:45:15 1514756715.811382: $GPZDA,214516.00,31,12,2017,00,00*66
2017-12-31 16:45:15 1514756715.811545: $GPGGA,214516,3946.9576,N,08404.9848,W,2,11,0.80,303.18,M,-33.324,M,,*7F
2017-12-31 16:45:15 1514756715.811610: $GPRMC,214516,A,3946.9576,N,08404.9848,W,0.0000,0.000,311217,,*3D
2017-12-31 16:45:15 1514756715.811670: $GPGSA,A,3,22,23,25,3,16,29,31,14,32,26,135,,1.7,0.8,1.3*32
2017-12-31 16:45:16 1514756716.348319: $GPZDA,214517.00,31,12,2017,00,00*67
2017-12-31 16:45:16 1514756716.348484: $GPGGA,214517,3946.9576,N,08404.9848,W,2,11,0.80,303.18,M,-33.324,M,,*7E
2017-12-31 16:45:16 1514756716.348550: $GPRMC,214517,A,3946.9576,N,08404.9848,W,0.0000,0.000,311217,,*3C
2017-12-31 16:45:16 1514756716.348611: $GPGSA,A,3,22,23,25,3,16,29,31,14,32,26,135,,1.7,0.8,1.3*32
2017-12-31 16:45:17 1514756717.349124: $GPZDA,214518.00,31,12,2017,00,00*68
2017-12-31 16:45:17 1514756717.349288: $GPGGA,214518,3946.9576,N,08404.9848,W,2,11,0.80,303.18,M,-33.324,M,,*71
2017-12-31 16:45:17 1514756717.349355: $GPRMC,214518,A,3946.9576,N,08404.9848,W,0.0000,0.000,311217,,*33
2017-12-31 16:45:17 1514756717.349416: $GPGSA,A,3,22,23,25,3,16,29,31,14,32,26,135,,1.7,0.8,1.3*32
2017-12-31 16:45:18 1514756718.673578: $GPGSV,3,1,11,22,49,253,44,23,20,304,43,25,09,039,31,03,45,285,33*7A
2017-12-31 16:45:18 1514756718.673724: $GPGSV,3,2,11,16,35,189,48,29,13,064,24,31,57,042,51,14,48,105,46*75
2017-12-31 16:45:18 1514756718.673789: $GPGSV,3,3,11,32,26,115,41,26,66,162,42,135,22,240,43*7D
2017-12-31 16:45:18 1514756718.786926: $GPZDA,214519.00,31,12,2017,00,00*69
2017-12-31 16:45:18 1514756718.787083: $GPGGA,214519,3946.9576,N,08404.9848,W,2,11,0.80,303.18,M,-33.324,M,,*70
2017-12-31 16:45:18 1514756718.787265: $GPRMC,214519,A,3946.9576,N,08404.9848,W,0.0000,0.000,311217,,*32
2017-12-31 16:45:18 1514756718.787328: $GPGSA,A,3,22,23,25,3,16,29,31,14,32,26,135,,1.7,0.8,1.3*32
2017-12-31 16:45:19 1514756719.340687: $GPZDA,214520.00,31,12,2017,00,00*63
2017-12-31 16:45:19 1514756719.340850: $GPGGA,214520,3946.9576,N,08404.9848,W,2,11,0.80,303.18,M,-33.324,M,,*7A
2017-12-31 16:45:19 1514756719.340916: $GPRMC,214520,A,3946.9576,N,08404.9848,W,0.0000,0.000,311217,,*38
2017-12-31 16:45:19 1514756719.341055: $GPGSA,A,3,22,23,25,3,16,29,31,14,32,26,135,,1.7,0.8,1.3*32
2017-12-31 16:45:20 1514756720.346010: $GPZDA,214521.00,31,12,2017,00,00*62
2017-12-31 16:45:20 1514756720.346191: $GPGGA,214521,3946.9576,N,08404.9848,W,2,11,0.80,303.18,M,-33.324,M,,*7B
2017-12-31 16:45:20 1514756720.346259: $GPRMC,214521,A,3946.9576,N,08404.9848,W,0.0000,0.000,311217,,*39
2017-12-31 16:45:20 1514756720.346319: $GPGSA,A,3,22,23,25,3,16,29,31,14,32,26,135,,1.7,0.8,1.3*32
2017-12-31 16:45:21 1514756721.698913: $GPGSV,3,1,11,22,49,253,44,23,20,304,44,25,09,039,31,03,45,285,33*7D
2017-12-31 16:45:21 1514756721.699127: $GPGSV,3,2,11,16,35,189,47,29,13,064,23,31,57,042,52,14,48,105,46*7E
2017-12-31 16:45:21 1514756721.699242: $GPGSV,3,3,11,32,26,115,41,26,66,162,42,135,22,240,44*7A
2017-12-31 16:45:21 1514756721.812579: $GPZDA,214522.00,31,12,2017,00,00*61
2017-12-31 16:45:21 1514756721.812729: $GPGGA,214522,3946.9576,N,08404.9848,W,2,11,0.80,303.18,M,-33.324,M,,*78
2017-12-31 16:45:21 1514756721.812795: $GPRMC,214522,A,3946.9576,N,08404.9848,W,0.0000,0.000,311217,,*3A
2017-12-31 16:45:21 1514756721.812856: $GPGSA,A,3,22,23,25,3,16,29,31,14,32,26,135,,1.7,0.8,1.3*32
2017-12-31 16:45:22 1514756722.345960: $GPZDA,214523.00,31,12,2017,00,00*60
2017-12-31 16:45:22 1514756722.346138: $GPGGA,214523,3946.9576,N,08404.9848,W,2,11,0.80,303.18,M,-33.324,M,,*79
2017-12-31 16:45:22 1514756722.346206: $GPRMC,214523,A,3946.9576,N,08404.9848,W,0.0000,0.000,311217,,*3B
2017-12-31 16:45:22 1514756722.346267: $GPGSA,A,3,22,23,25,3,16,29,31,14,32,26,135,,1.7,0.8,1.3*32
2017-12-31 16:45:23 1514756723.345307: $GPZDA,214524.00,31,12,2017,00,00*67
2017-12-31 16:45:23 1514756723.345459: $GPGGA,214524,3946.9576,N,08404.9848,W,2,11,0.80,303.18,M,-33.324,M,,*7E
2017-12-31 16:45:23 1514756723.345526: $GPRMC,214524,A,3946.9576,N,08404.9848,W,0.0000,0.000,311217,,*3C
2017-12-31 16:45:23 1514756723.345587: $GPGSA,A,3,22,23,25,3,16,29,31,14,32,26,135,,1.7,0.8,1.3*32
