2017-11-15 18:33:52 1510788832.514268: {"class":"VERSION","release":"3.17","rev":"3.17","proto_major":3,"proto_minor":12}
2017-11-15 18:33:52 1510788832.514687: {"class":"DEVICES","devices":[{"class":"DEVICE","path":"/dev/ttyUSB0","driver":"SiRF","subtype":"9\u0006GSD4e_4.1.2-P1_RPATCH.05-F-GPS-4R-1510281 11/03/2015 307","activated":"2017-11-15T23:33:52.469Z","flags":1,"native":1,"bps":4800,"parity":"N","stopbits":1,"cycle":1.00}]}
2017-11-15 18:33:52 1510788832.514799: {"class":"WATCH","enable":true,"json":false,"nmea":true,"raw":0,"scaled":false,"timing":false,"split24":false,"pps":false}
2017-11-15 18:33:53 1510788833.363692: $GPZDA,233352.00,15,11,2017,00,00*60
2017-11-15 18:33:53 1510788833.363905: $GPGGA,233352,3946.9530,N,08404.9574,W,1,08,1.20,296.17,M,-33.324,M,,*7E
2017-11-15 18:33:53 1510788833.364005: $GPRMC,233352,A,3946.9530,N,08404.9574,W,0.9060,167.792,151117,,*38
2017-11-15 18:33:53 1510788833.364064: $GPGSA,A,3,25,14,22,31,32,1,10,3,,,,,3.4,1.2,2.9*3F
2017-11-15 18:33:54 1510788834.698021: $GPGSV,3,1,10,25,35,055,23,14,69,042,18,22,40,301,18,26,26,178,00*7E
2017-11-15 18:33:54 1510788834.698332: $GPGSV,3,2,10,31,78,283,21,32,55,079,23,01,18,274,07,10,21,157,18*76
2017-11-15 18:33:54 1510788834.698450: $GPGSV,3,3,10,03,21,315,06,12,06,031,00*7E
2017-11-15 18:33:54 1510788834.811305: $GPZDA,233353.00,15,11,2017,00,00*61
2017-11-15 18:33:54 1510788834.811478: $GPGGA,233353,3946.9526,N,08404.9574,W,1,07,1.40,295.53,M,-33.324,M,,*72
2017-11-15 18:33:54 1510788834.811540: $GPRMC,233353,A,3946.9526,N,08404.9574,W,0.9060,167.792,151117,,*3E
2017-11-15 18:33:54 1510788834.811595: $GPGSA,A,3,25,14,22,31,32,1,10,,,,,,3.4,1.4,2.9*0A
2017-11-15 18:33:55 1510788835.328801: $GPZDA,233354.00,15,11,2017,00,00*66
2017-11-15 18:33:55 1510788835.329073: $GPGGA,233354,3946.9523,N,08404.9575,W,1,07,1.40,296.30,M,-33.324,M,,*77
2017-11-15 18:33:55 1510788835.329176: $GPRMC,233354,A,3946.9523,N,08404.9575,W,0.9019,198.875,151117,,*35
2017-11-15 18:33:55 1510788835.329291: $GPGSA,A,3,25,14,22,31,32,1,10,,,,,,3.4,1.4,2.9*0A
2017-11-15 18:33:56 1510788836.328761: $GPZDA,233355.00,15,11,2017,00,00*67
2017-11-15 18:33:56 1510788836.328943: $GPGGA,233355,3946.9523,N,08404.9581,W,1,07,1.40,296.22,M,-33.324,M,,*7E
2017-11-15 18:33:56 1510788836.329021: $GPRMC,233355,A,3946.9523,N,08404.9581,W,0.4207,219.347,151117,,*3F
2017-11-15 18:33:56 1510788836.329078: $GPGSA,A,3,25,14,22,31,32,1,10,,,,,,3.4,1.4,2.9*0A
2017-11-15 18:33:57 1510788837.664527: $GPGSV,3,1,10,25,35,055,23,14,69,042,18,22,40,301,18,26,26,178,00*7E
2017-11-15 18:33:57 1510788837.664700: $GPGSV,3,2,10,31,78,283,22,32,55,079,23,01,18,274,06,10,21,157,17*7B
2017-11-15 18:33:57 1510788837.664759: $GPGSV,3,3,10,03,21,315,07,12,06,031,00*7F
2017-11-15 18:33:57 1510788837.777981: $GPZDA,233356.00,15,11,2017,00,00*64
2017-11-15 18:33:57 1510788837.778116: $GPGGA,233356,3946.9531,N,08404.9581,W,1,07,1.40,296.09,M,-33.324,M,,*77
2017-11-15 18:33:57 1510788837.778176: $GPRMC,233356,A,3946.9531,N,08404.9581,W,0.4179,328.778,151117,,*3E
2017-11-15 18:33:57 1510788837.778232: $GPGSA,A,3,25,14,22,31,32,10,3,,,,,,3.4,1.4,2.9*08
2017-11-15 18:33:58 1510788838.327558: $GPZDA,233357.00,15,11,2017,00,00*65
2017-11-15 18:33:58 1510788838.327720: $GPGGA,233357,3946.9531,N,08404.9581,W,1,07,1.40,296.09,M,-33.324,M,,*76
2017-11-15 18:33:58 1510788838.327781: $GPRMC,233357,A,3946.9531,N,08404.9581,W,0.8359,328.778,151117,,*33
2017-11-15 18:33:58 1510788838.327861: $GPGSA,A,3,25,14,22,31,32,10,3,,,,,,3.4,1.4,2.9*08
2017-11-15 18:33:59 1510788839.362154: $GPZDA,233358.00,15,11,2017,00,00*6A
2017-11-15 18:33:59 1510788839.362299: $GPGGA,233358,3946.9538,N,08404.9580,W,1,07,1.40,295.97,M,-33.324,M,,*75
2017-11-15 18:33:59 1510788839.362361: $GPRMC,233358,A,3946.9538,N,08404.9580,W,0.5912,309.172,151117,,*33
2017-11-15 18:33:59 1510788839.362416: $GPGSA,A,3,25,14,22,31,32,10,3,,,,,,3.4,1.4,2.9*08
2017-11-15 18:34:00 1510788840.697986: $GPGSV,3,1,10,25,35,055,23,14,69,042,17,22,40,301,18,26,26,178,00*71
2017-11-15 18:34:00 1510788840.698157: $GPGSV,3,2,10,31,78,283,22,32,55,079,24,01,18,274,05,10,21,157,17*7F
2017-11-15 18:34:00 1510788840.698266: $GPGSV,3,3,10,03,21,315,07,12,06,031,00*7F
2017-11-15 18:34:00 1510788840.811246: $GPZDA,233359.00,15,11,2017,00,00*6B
2017-11-15 18:34:00 1510788840.811388: $GPGGA,233359,3946.9538,N,08404.9580,W,1,07,1.40,295.97,M,-33.324,M,,*74
2017-11-15 18:34:00 1510788840.811449: $GPRMC,233359,A,3946.9538,N,08404.9580,W,0.5287,2.716,151117,,*39
2017-11-15 18:34:00 1510788840.811504: $GPGSA,A,3,25,14,22,31,32,10,3,,,,,,3.4,1.4,2.9*08
2017-11-15 18:34:01 1510788841.436591: $GPZDA,233400.00,15,11,2017,00,00*60
2017-11-15 18:34:01 1510788841.436821: $GPGGA,233400,3946.9542,N,08404.9580,W,1,07,1.20,296.61,M,-33.324,M,,*7E
2017-11-15 18:34:01 1510788841.436895: $GPRMC,233400,A,3946.9542,N,08404.9580,W,0.0000,0.000,151117,,*35
2017-11-15 18:34:01 1510788841.436972: $GPGSA,A,3,25,14,22,31,32,10,3,,,,,,3.4,1.2,2.9*0E
2017-11-15 18:34:02 1510788842.361283: $GPZDA,233401.00,15,11,2017,00,00*61
2017-11-15 18:34:02 1510788842.361508: $GPGGA,233401,3946.9542,N,08404.9580,W,1,07,1.20,296.61,M,-33.324,M,,*7F
2017-11-15 18:34:02 1510788842.361571: $GPRMC,233401,A,3946.9542,N,08404.9580,W,0.3423,184.197,151117,,*30
2017-11-15 18:34:02 1510788842.361627: $GPGSA,A,3,25,14,22,31,32,10,3,,,,,,3.4,1.2,2.9*0E
2017-11-15 18:34:03 1510788843.663262: $GPGSV,3,1,10,25,35,055,22,14,69,042,18,22,40,301,15,26,26,178,00*72
2017-11-15 18:34:03 1510788843.663431: $GPGSV,3,2,10,31,78,283,22,32,55,079,24,01,18,274,05,10,21,157,17*7F
2017-11-15 18:34:03 1510788843.663491: $GPGSV,3,3,10,03,21,315,04,12,06,031,00*7C
2017-11-15 18:34:03 1510788843.776597: $GPZDA,233402.00,15,11,2017,00,00*62
2017-11-15 18:34:03 1510788843.776809: $GPGGA,233402,3946.9542,N,08404.9580,W,1,06,3.20,296.61,M,-33.324,M,,*7F
2017-11-15 18:34:03 1510788843.776879: $GPRMC,233402,A,3946.9542,N,08404.9580,W,0.7246,164.668,151117,,*3B
2017-11-15 18:34:03 1510788843.776952: $GPGSA,A,3,25,14,22,31,32,10,,,,,,,3.4,3.2,2.9*3F
2017-11-15 18:34:04 1510788844.361245: $GPZDA,233403.00,15,11,2017,00,00*63
2017-11-15 18:34:04 1510788844.361417: $GPGGA,233403,3946.9538,N,08404.9580,W,1,06,3.20,295.97,M,-33.324,M,,*79
2017-11-15 18:34:04 1510788844.366832: $GPRMC,233403,A,3946.9538,N,08404.9580,W,1.3082,161.818,151117,,*34
2017-11-15 18:34:04 1510788844.366916: $GPGSA,A,3,25,14,22,31,32,10,,,,,,,3.4,3.2,2.9*3F
2017-11-15 18:34:05 1510788845.362131: $GPZDA,233404.00,15,11,2017,00,00*64
2017-11-15 18:34:05 1510788845.362295: $GPGGA,233404,3946.9538,N,08404.9573,W,1,06,3.20,296.05,M,-33.324,M,,*7A
2017-11-15 18:34:05 1510788845.362356: $GPRMC,233404,A,3946.9538,N,08404.9573,W,1.1391,143.662,151117,,*3F
2017-11-15 18:34:05 1510788845.362412: $GPGSA,A,3,25,14,22,31,32,10,,,,,,,3.4,3.2,2.9*3F
2017-11-15 18:34:06 1510788846.663621: $GPGSV,3,1,10,25,35,055,22,14,69,042,18,22,40,301,17,26,26,178,00*70
2017-11-15 18:34:06 1510788846.663810: $GPGSV,3,2,10,31,78,283,22,32,55,079,23,01,18,274,06,10,21,157,17*7B
2017-11-15 18:34:06 1510788846.663871: $GPGSV,3,3,10,03,21,315,04,12,06,031,00*7C
2017-11-15 18:34:06 1510788846.776978: $GPZDA,233405.00,15,11,2017,00,00*65
2017-11-15 18:34:06 1510788846.777120: $GPGGA,233405,3946.9538,N,08404.9573,W,1,06,1.40,296.05,M,-33.324,M,,*7F
2017-11-15 18:34:06 1510788846.777180: $GPRMC,233405,A,3946.9538,N,08404.9573,W,0.3423,184.197,151117,,*35
2017-11-15 18:34:06 1510788846.777236: $GPGSA,A,3,25,14,22,31,32,10,,,,,,,3.4,1.4,2.9*3B
2017-11-15 18:34:07 1510788847.329118: $GPZDA,233406.00,15,11,2017,00,00*66
2017-11-15 18:34:07 1510788847.329318: $GPGGA,233406,3946.9538,N,08404.9573,W,1,06,1.40,296.05,M,-33.324,M,,*7C
2017-11-15 18:34:07 1510788847.329379: $GPRMC,233406,A,3946.9538,N,08404.9573,W,1.0298,254.381,151117,,*39
2017-11-15 18:34:07 1510788847.329435: $GPGSA,A,3,25,14,22,31,32,10,,,,,,,3.4,1.4,2.9*3B
