2017-12-01 13:09:14 1512151754.147034: {"class":"VERSION","release":"3.16","rev":"3.16-4","proto_major":3,"proto_minor":11}
2017-12-01 13:09:14 1512151754.147402: {"class":"DEVICES","devices":[{"class":"DEVICE","path":"/dev/ttyUSB0","driver":"SiRF","subtype":"9\u0006GSD4e_4.1.2-P1_RPATCH.05-F-GPS-4R-1510281 11/03/2015 307","activated":"2017-12-01T18:09:14.117Z","flags":1,"native":1,"bps":4800,"parity":"N","stopbits":1,"cycle":1.00}]}
2017-12-01 13:09:14 1512151754.147523: {"class":"WATCH","enable":true,"json":false,"nmea":true,"raw":0,"scaled":false,"timing":false,"split24":false,"pps":false}
2017-12-01 13:09:15 1512151755.199887: $GPZDA,180915.49,01,12,2017,00,00*69
2017-12-01 13:09:15 1512151755.200062: $GPGGA,180915,3946.9549,N,08404.9851,W,1,11,1.00,302.91,M,-33.324,M,,*70
2017-12-01 13:09:15 1512151755.200129: $GPRMC,180915,A,3946.9549,N,08404.9851,W,0.0000,0.000,011217,,*3B
2017-12-01 13:09:15 1512151755.200191: $GPGSA,A,3,10,15,18,20,21,24,27,32,8,13,138,,2.0,1.0,1.5*3A
2017-12-01 13:09:15 1512151755.200249: $GPGBS,180915,10.70,M,15.43,M,35.28,M*03
2017-12-01 13:09:16 1512151756.145558: $GPGSV,3,1,12,08,05,322,32,10,41,300,45,15,38,052,48,18,70,334,45*7E
2017-12-01 13:09:16 1512151756.145761: $GPGSV,3,2,12,20,34,094,46,21,64,190,44,24,50,112,47,32,20,237,41*7A
2017-12-01 13:09:16 1512151756.145846: $GPGSV,3,3,12,27,19,291,24,13,08,048,05,14,03,232,05,138,38,213,00*49
2017-12-01 13:09:16 1512151756.259091: $GPZDA,180916.00,01,12,2017,00,00*67
2017-12-01 13:09:16 1512151756.259251: $GPGGA,180916,3946.9548,N,08404.9850,W,1,09,1.00,301.51,M,-33.324,M,,*75
2017-12-01 13:09:16 1512151756.259318: $GPRMC,180916,A,3946.9548,N,08404.9850,W,0.0000,0.000,011217,,*38
2017-12-01 13:09:16 1512151756.259379: $GPGSA,A,3,8,10,15,18,20,21,24,32,27,,,,2.0,1.0,1.5*02
2017-12-01 13:09:16 1512151756.513996: $GPZDA,180917.00,01,12,2017,00,00*66
2017-12-01 13:09:16 1512151756.514199: $GPGGA,180917,3946.9548,N,08404.9850,W,1,09,0.80,301.51,M,-33.324,M,,*7D
2017-12-01 13:09:16 1512151756.514268: $GPRMC,180917,A,3946.9548,N,08404.9850,W,0.0000,0.000,011217,,*39
2017-12-01 13:09:16 1512151756.514329: $GPGSA,A,3,8,10,15,18,20,21,24,32,27,,,,2.0,0.8,1.5*0B
2017-12-01 13:09:17 1512151757.245350: $GPZDA,180918.00,01,12,2017,00,00*69
2017-12-01 13:09:17 1512151757.245549: $GPGGA,180918,3946.9552,N,08404.9849,W,1,09,0.80,300.74,M,-33.324,M,,*77
2017-12-01 13:09:17 1512151757.245621: $GPRMC,180918,A,3946.9552,N,08404.9849,W,0.0000,0.000,011217,,*35
2017-12-01 13:09:17 1512151757.245702: $GPGSA,A,3,8,10,15,18,20,21,24,32,27,,,,2.0,0.8,1.5*0B
2017-12-01 13:09:18 1512151758.582386: $GPGSV,3,1,12,08,05,322,33,10,41,300,44,15,38,052,48,18,70,334,45*7E
2017-12-01 13:09:18 1512151758.582589: $GPGSV,3,2,12,20,34,094,46,21,64,190,44,24,50,112,48,32,20,237,41*75
2017-12-01 13:09:18 1512151758.582672: $GPGSV,3,3,12,27,19,291,35,13,08,048,25,14,03,232,20,138,38,213,47*4F
2017-12-01 13:09:18 1512151758.695745: $GPZDA,180919.00,01,12,2017,00,00*68
2017-12-01 13:09:18 1512151758.695918: $GPGGA,180919,3946.9552,N,08404.9849,W,1,12,0.80,300.74,M,-33.324,M,,*7C
2017-12-01 13:09:18 1512151758.695986: $GPRMC,180919,A,3946.9552,N,08404.9849,W,0.0000,0.000,011217,,*34
2017-12-01 13:09:18 1512151758.696047: $GPGSA,A,3,8,10,15,18,20,21,24,32,27,13,14,138,2.0,0.8,1.5*36
2017-12-01 13:09:19 1512151759.244618: $GPZDA,180920.00,01,12,2017,00,00*62
2017-12-01 13:09:19 1512151759.244825: $GPGGA,180920,3946.9555,N,08404.9848,W,1,12,0.80,299.98,M,-33.324,M,,*73
2017-12-01 13:09:19 1512151759.244915: $GPRMC,180920,A,3946.9555,N,08404.9848,W,0.0000,0.000,011217,,*38
2017-12-01 13:09:19 1512151759.244979: $GPGSA,A,3,8,10,15,18,20,21,24,32,27,13,14,138,2.0,0.8,1.5*36
2017-12-01 13:09:20 1512151760.245909: $GPZDA,180921.00,01,12,2017,00,00*63
2017-12-01 13:09:20 1512151760.246085: $GPGGA,180921,3946.9555,N,08404.9848,W,1,12,0.80,299.98,M,-33.324,M,,*72
2017-12-01 13:09:20 1512151760.246152: $GPRMC,180921,A,3946.9555,N,08404.9848,W,0.0000,0.000,011217,,*39
2017-12-01 13:09:20 1512151760.246214: $GPGSA,A,3,8,10,15,18,20,21,24,32,27,13,14,138,2.0,0.8,1.5*36
2017-12-01 13:09:20 1512151760.246324: $GPGBS,180921,10.70,M,15.43,M,35.28,M*04
2017-12-01 13:09:21 1512151761.583344: $GPGSV,3,1,12,08,05,322,26,10,41,300,44,15,38,052,48,18,70,334,45*7A
2017-12-01 13:09:21 1512151761.583548: $GPGSV,3,2,12,20,34,094,46,21,64,190,44,24,50,112,48,32,20,237,41*75
2017-12-01 13:09:21 1512151761.583642: $GPGSV,3,3,12,27,19,291,33,13,08,048,26,14,03,232,00,138,38,213,47*48
2017-12-01 13:09:21 1512151761.696933: $GPZDA,180922.00,01,12,2017,00,00*60
2017-12-01 13:09:21 1512151761.697083: $GPGGA,180922,3946.9559,N,08404.9848,W,1,11,0.80,299.22,M,-33.324,M,,*7F
2017-12-01 13:09:21 1512151761.697150: $GPRMC,180922,A,3946.9559,N,08404.9848,W,0.0000,0.000,011217,,*36
2017-12-01 13:09:21 1512151761.697210: $GPGSA,A,3,8,10,15,18,20,21,24,32,27,13,138,,2.0,0.8,1.5*33
2017-12-01 13:09:22 1512151762.233345: $GPZDA,180923.00,01,12,2017,00,00*61
2017-12-01 13:09:22 1512151762.233538: $GPGGA,180923,3946.9569,N,08404.9859,W,2,11,1.40,295.36,M,-33.324,M,,*7A
2017-12-01 13:09:22 1512151762.233606: $GPRMC,180923,A,3946.9569,N,08404.9859,W,0.0000,0.000,011217,,*34
2017-12-01 13:09:22 1512151762.233684: $GPGSA,A,3,8,10,15,18,20,21,24,32,27,13,138,,2.0,1.4,1.5*3E
2017-12-01 13:09:23 1512151763.247892: $GPZDA,180924.00,01,12,2017,00,00*66
2017-12-01 13:09:23 1512151763.248059: $GPGGA,180924,3946.9569,N,08404.9859,W,2,11,0.80,295.36,M,-33.324,M,,*70
2017-12-01 13:09:23 1512151763.248127: $GPRMC,180924,A,3946.9569,N,08404.9859,W,0.0000,0.000,011217,,*33
2017-12-01 13:09:23 1512151763.248187: $GPGSA,A,3,8,10,15,18,20,21,24,32,27,13,138,,2.0,0.8,1.5*33
