2017-12-01 17:55:15 1512168915.026802: {"class":"VERSION","release":"3.16","rev":"3.16-4","proto_major":3,"proto_minor":11}
2017-12-01 17:55:15 1512168915.027295: {"class":"DEVICES","devices":[{"class":"DEVICE","path":"/dev/ttyUSB0","driver":"SiRF","subtype":"9\u0006GSD4e_4.1.2-P1_RPATCH.05-F-GPS-4R-1510281 11/03/2015 307","activated":"2017-12-01T22:55:14.672Z","flags":1,"native":1,"bps":4800,"parity":"N","stopbits":1,"cycle":1.00}]}
2017-12-01 17:55:15 1512168915.027481: {"class":"WATCH","enable":true,"json":false,"nmea":true,"raw":0,"scaled":false,"timing":false,"split24":false,"pps":false}
2017-12-01 17:55:15 1512168915.360878: $GPZDA,225516.00,01,12,2017,00,00*67
2017-12-01 17:55:15 1512168915.361054: $GPGGA,225516,3946.9733,N,08404.9844,W,2,12,0.80,293.38,M,-33.325,M,,*7A
2017-12-01 17:55:15 1512168915.361121: $GPRMC,225516,A,3946.9733,N,08404.9844,W,0.0000,0.000,011217,,*33
2017-12-01 17:55:15 1512168915.361182: $GPGSA,A,3,1,3,10,14,16,22,23,25,26,31,32,138,2.0,0.8,1.5*06
2017-12-01 17:55:16 1512168916.697604: $GPGSV,3,1,12,01,13,262,34,03,31,310,48,10,09,159,42,14,64,070,42*70
2017-12-01 17:55:16 1512168916.697809: $GPGSV,3,2,12,16,10,189,41,22,47,289,47,23,02,295,41,25,27,046,42*75
2017-12-01 17:55:16 1512168916.697879: $GPGSV,3,3,12,26,39,175,45,31,77,354,47,32,45,096,45,138,38,213,45*4B
2017-12-01 17:55:16 1512168916.811282: $GPZDA,225517.00,01,12,2017,00,00*66
2017-12-01 17:55:16 1512168916.811513: $GPGGA,225517,3946.9733,N,08404.9844,W,2,12,0.80,293.38,M,-33.325,M,,*7B
2017-12-01 17:55:16 1512168916.811584: $GPRMC,225517,A,3946.9733,N,08404.9844,W,0.0000,0.000,011217,,*32
2017-12-01 17:55:16 1512168916.811646: $GPGSA,A,3,1,3,10,14,16,22,23,25,26,31,32,138,2.0,0.8,1.5*06
2017-12-01 17:55:17 1512168917.370712: $GPZDA,225518.00,01,12,2017,00,00*69
2017-12-01 17:55:17 1512168917.370880: $GPGGA,225518,3946.9733,N,08404.9844,W,2,12,0.80,293.38,M,-33.325,M,,*74
2017-12-01 17:55:17 1512168917.370946: $GPRMC,225518,A,3946.9733,N,08404.9844,W,0.0000,0.000,011217,,*3D
2017-12-01 17:55:17 1512168917.371007: $GPGSA,A,3,1,3,10,14,16,22,23,25,26,31,32,138,2.0,0.8,1.5*06
2017-12-01 17:55:18 1512168918.354170: $GPZDA,225519.00,01,12,2017,00,00*68
2017-12-01 17:55:18 1512168918.354348: $GPGGA,225519,3946.9733,N,08404.9844,W,2,12,0.80,293.38,M,-33.325,M,,*75
2017-12-01 17:55:18 1512168918.354417: $GPRMC,225519,A,3946.9733,N,08404.9844,W,0.0000,0.000,011217,,*3C
2017-12-01 17:55:18 1512168918.354483: $GPGSA,A,3,1,3,10,14,16,22,23,25,26,31,32,138,2.0,0.8,1.5*06
2017-12-01 17:55:19 1512168919.698464: $GPGSV,3,1,12,01,13,262,34,03,31,310,48,10,09,159,43,14,64,070,42*71
2017-12-01 17:55:19 1512168919.698651: $GPGSV,3,2,12,16,10,189,40,22,47,289,46,29,06,084,16,25,27,046,42*7B
2017-12-01 17:55:19 1512168919.698717: $GPGSV,3,3,12,26,39,175,45,31,77,354,47,32,45,096,45,138,38,213,45*4B
2017-12-01 17:55:19 1512168919.811955: $GPZDA,225520.00,01,12,2017,00,00*62
2017-12-01 17:55:19 1512168919.812127: $GPGGA,225520,3946.9741,N,08404.9850,W,2,11,0.80,293.18,M,-33.325,M,,*7E
2017-12-01 17:55:19 1512168919.812193: $GPRMC,225520,A,3946.9741,N,08404.9850,W,0.0000,0.000,011217,,*36
2017-12-01 17:55:19 1512168919.812254: $GPGSA,A,3,1,3,10,14,16,22,25,26,31,32,138,,2.0,0.8,1.5*07
2017-12-01 17:55:20 1512168920.438802: $GPZDA,225521.00,01,12,2017,00,00*63
2017-12-01 17:55:20 1512168920.438986: $GPGGA,225521,3946.9741,N,08404.9850,W,2,11,0.80,293.18,M,-33.325,M,,*7F
2017-12-01 17:55:20 1512168920.439077: $GPRMC,225521,A,3946.9741,N,08404.9850,W,0.0000,0.000,011217,,*37
2017-12-01 17:55:20 1512168920.439139: $GPGSA,A,3,1,3,10,14,16,22,25,26,31,32,138,,2.0,0.8,1.5*07
2017-12-01 17:55:21 1512168921.360901: $GPZDA,225522.00,01,12,2017,00,00*60
2017-12-01 17:55:21 1512168921.361071: $GPGGA,225522,3946.9741,N,08404.9850,W,2,11,0.80,293.18,M,-33.325,M,,*7C
2017-12-01 17:55:21 1512168921.361138: $GPRMC,225522,A,3946.9741,N,08404.9850,W,0.0000,0.000,011217,,*34
2017-12-01 17:55:21 1512168921.361199: $GPGSA,A,3,1,3,10,14,16,22,25,26,31,32,138,,2.0,0.8,1.5*07
2017-12-01 17:55:22 1512168922.696353: $GPGSV,3,1,12,01,13,262,34,03,31,310,48,10,09,159,43,14,64,070,42*71
2017-12-01 17:55:22 1512168922.696597: $GPGSV,3,2,12,16,10,189,41,22,47,289,46,29,06,084,16,25,27,046,42*7A
2017-12-01 17:55:22 1512168922.696668: $GPGSV,3,3,12,26,39,175,45,31,77,354,46,32,45,096,45,138,38,213,46*49
2017-12-01 17:55:22 1512168922.809825: $GPZDA,225523.00,01,12,2017,00,00*61
2017-12-01 17:55:22 1512168922.810017: $GPGGA,225523,3946.9741,N,08404.9850,W,2,11,0.80,293.18,M,-33.325,M,,*7D
2017-12-01 17:55:22 1512168922.810086: $GPRMC,225523,A,3946.9741,N,08404.9850,W,0.0000,0.000,011217,,*35
2017-12-01 17:55:22 1512168922.810148: $GPGSA,A,3,1,3,10,14,16,22,25,26,31,32,138,,2.0,0.8,1.5*07
2017-12-01 17:55:23 1512168923.361926: $GPZDA,225524.00,01,12,2017,00,00*66
2017-12-01 17:55:23 1512168923.362108: $GPGGA,225524,3946.9741,N,08404.9850,W,2,11,0.80,293.18,M,-33.325,M,,*7A
2017-12-01 17:55:23 1512168923.362177: $GPRMC,225524,A,3946.9741,N,08404.9850,W,0.0000,0.000,011217,,*32
2017-12-01 17:55:23 1512168923.362239: $GPGSA,A,3,1,3,10,14,16,22,25,26,31,32,138,,2.0,0.8,1.5*07
2017-12-01 17:55:24 1512168924.355194: $GPZDA,225525.00,01,12,2017,00,00*67
2017-12-01 17:55:24 1512168924.355392: $GPGGA,225525,3946.9741,N,08404.9850,W,2,11,0.80,293.18,M,-33.325,M,,*7B
2017-12-01 17:55:24 1512168924.355476: $GPRMC,225525,A,3946.9741,N,08404.9850,W,0.0000,0.000,011217,,*33
2017-12-01 17:55:24 1512168924.355538: $GPGSA,A,3,1,3,10,14,16,22,25,26,31,32,138,,2.0,0.8,1.5*07
2017-12-01 17:55:26 1512168926.219247: $GPGSV,3,1,12,01,13,262,34,03,32,309,48,10,09,159,43,14,63,070,42*7D
2017-12-01 17:55:26 1512168926.219458: $GPGSV,3,2,12,16,11,189,41,22,47,289,47,29,06,084,20,25,27,046,42*7F
2017-12-01 17:55:26 1512168926.219526: $GPGSV,3,3,12,26,40,175,46,31,76,355,47,32,45,096,45,138,38,213,46*45
2017-12-01 17:55:26 1512168926.331441: $GPZDA,225526.00,01,12,2017,00,00*64
2017-12-01 17:55:26 1512168926.331603: $GPGGA,225526,3946.9744,N,08404.9843,W,2,11,0.80,293.90,M,-33.325,M,,*7F
2017-12-01 17:55:26 1512168926.331668: $GPRMC,225526,A,3946.9744,N,08404.9843,W,0.2422,93.794,011217,,*01
2017-12-01 17:55:26 1512168926.331730: $GPGSA,A,3,1,3,10,14,16,22,25,26,31,32,138,,2.0,0.8,1.5*07
2017-12-01 17:55:26 1512168926.783568: $GPZDA,225527.00,01,12,2017,00,00*65
2017-12-01 17:55:26 1512168926.783775: $GPGGA,225527,3946.9744,N,08404.9843,W,2,11,0.80,293.90,M,-33.325,M,,*7E
2017-12-01 17:55:26 1512168926.783866: $GPRMC,225527,A,3946.9744,N,08404.9843,W,0.0000,0.000,011217,,*36
2017-12-01 17:55:26 1512168926.783930: $GPGSA,A,3,1,3,10,14,16,22,25,26,31,32,138,,2.0,0.8,1.5*07
2017-12-01 17:55:27 1512168927.361953: $GPZDA,225528.00,01,12,2017,00,00*6A
2017-12-01 17:55:27 1512168927.362123: $GPGGA,225528,3946.9744,N,08404.9843,W,2,11,0.80,293.90,M,-33.325,M,,*71
2017-12-01 17:55:27 1512168927.362190: $GPRMC,225528,A,3946.9744,N,08404.9843,W,0.0000,0.000,011217,,*39
2017-12-01 17:55:27 1512168927.362271: $GPGSA,A,3,1,3,10,14,16,22,25,26,31,32,138,,2.0,0.8,1.5*07
2017-12-01 17:55:28 1512168928.697575: $GPGSV,3,1,12,01,13,262,34,03,32,309,47,10,09,159,43,14,63,070,42*72
2017-12-01 17:55:28 1512168928.697760: $GPGSV,3,2,12,16,11,189,41,22,47,289,47,29,06,084,17,25,27,046,42*7B
2017-12-01 17:55:28 1512168928.697827: $GPGSV,3,3,12,26,40,175,45,31,76,355,47,32,45,096,45,138,38,213,46*46
2017-12-01 17:55:28 1512168928.811043: $GPZDA,225529.00,01,12,2017,00,00*6B
2017-12-01 17:55:28 1512168928.811216: $GPGGA,225529,3946.9744,N,08404.9843,W,2,12,0.80,293.90,M,-33.325,M,,*73
2017-12-01 17:55:28 1512168928.811305: $GPRMC,225529,A,3946.9744,N,08404.9843,W,0.0000,0.000,011217,,*38
2017-12-01 17:55:28 1512168928.811457: $GPGSA,A,3,1,3,10,14,16,22,29,25,26,31,32,138,2.0,0.8,1.5*0C
2017-12-01 17:55:29 1512168929.360663: $GPZDA,225530.00,01,12,2017,00,00*63
2017-12-01 17:55:29 1512168929.360837: $GPGGA,225530,3946.9744,N,08404.9843,W,2,12,0.80,293.90,M,-33.325,M,,*7B
2017-12-01 17:55:29 1512168929.360906: $GPRMC,225530,A,3946.9744,N,08404.9843,W,0.0000,0.000,011217,,*30
2017-12-01 17:55:29 1512168929.360968: $GPGSA,A,3,1,3,10,14,16,22,29,25,26,31,32,138,2.0,0.8,1.5*0C
2017-12-01 17:55:30 1512168930.359818: $GPZDA,225531.00,01,12,2017,00,00*62
2017-12-01 17:55:30 1512168930.360039: $GPGGA,225531,3946.9744,N,08404.9843,W,2,12,0.80,293.90,M,-33.325,M,,*7A
2017-12-01 17:55:30 1512168930.360109: $GPRMC,225531,A,3946.9744,N,08404.9843,W,0.0000,0.000,011217,,*31
2017-12-01 17:55:30 1512168930.360171: $GPGSA,A,3,1,3,10,14,16,22,29,25,26,31,32,138,2.0,0.8,1.5*0C
2017-12-01 17:55:31 1512168931.699259: $GPGSV,3,1,12,01,13,262,33,03,32,309,47,10,09,159,42,14,63,070,42*74
2017-12-01 17:55:31 1512168931.699455: $GPGSV,3,2,12,16,11,189,41,22,47,289,47,23,02,295,39,25,27,046,42*7B
2017-12-01 17:55:31 1512168931.699522: $GPGSV,3,3,12,26,40,175,45,31,76,355,46,32,45,096,45,138,38,213,46*47
2017-12-01 17:55:31 1512168931.813037: $GPZDA,225532.00,01,12,2017,00,00*61
2017-12-01 17:55:31 1512168931.813268: $GPGGA,225532,3946.9744,N,08404.9843,W,2,12,0.80,293.90,M,-33.325,M,,*79
2017-12-01 17:55:31 1512168931.813365: $GPRMC,225532,A,3946.9744,N,08404.9843,W,0.0000,0.000,011217,,*32
2017-12-01 17:55:31 1512168931.813428: $GPGSA,A,3,1,3,10,14,16,22,23,25,26,31,32,138,2.0,0.8,1.5*06
2017-12-01 17:55:32 1512168932.355100: $GPZDA,225533.00,01,12,2017,00,00*60
2017-12-01 17:55:32 1512168932.355305: $GPGGA,225533,3946.9744,N,08404.9843,W,2,12,0.80,293.90,M,-33.325,M,,*78
2017-12-01 17:55:32 1512168932.355393: $GPRMC,225533,A,3946.9744,N,08404.9843,W,0.0000,0.000,011217,,*33
2017-12-01 17:55:32 1512168932.355458: $GPGSA,A,3,1,3,10,14,16,22,23,25,26,31,32,138,2.0,0.8,1.5*06
2017-12-01 17:55:33 1512168933.369316: $GPZDA,225534.00,01,12,2017,00,00*67
2017-12-01 17:55:33 1512168933.369489: $GPGGA,225534,3946.9744,N,08404.9843,W,2,12,0.80,293.90,M,-33.325,M,,*7F
2017-12-01 17:55:33 1512168933.369580: $GPRMC,225534,A,3946.9744,N,08404.9843,W,0.0000,0.000,011217,,*34
2017-12-01 17:55:33 1512168933.369646: $GPGSA,A,3,1,3,10,14,16,22,23,25,26,31,32,138,2.0,0.8,1.5*06
2017-12-01 17:55:34 1512168934.696243: $GPGSV,3,1,12,01,13,262,33,03,32,309,47,10,09,159,42,14,63,070,43*75
2017-12-01 17:55:34 1512168934.696522: $GPGSV,3,2,12,16,11,189,41,22,47,289,47,23,02,295,38,25,27,046,41*79
2017-12-01 17:55:34 1512168934.696594: $GPGSV,3,3,12,26,40,175,45,31,76,355,47,32,45,096,45,138,38,213,46*46
2017-12-01 17:55:34 1512168934.809667: $GPZDA,225535.00,01,12,2017,00,00*66
2017-12-01 17:55:34 1512168934.809827: $GPGGA,225535,3946.9744,N,08404.9843,W,2,12,0.80,293.90,M,-33.325,M,,*7E
2017-12-01 17:55:34 1512168934.809897: $GPRMC,225535,A,3946.9744,N,08404.9843,W,0.0000,0.000,011217,,*35
2017-12-01 17:55:34 1512168934.809961: $GPGSA,A,3,1,3,10,14,16,22,23,25,26,31,32,138,2.0,0.8,1.5*06
