2017-11-16 15:14:04 1510863244.276670: {"class":"VERSION","release":"3.17","rev":"3.17","proto_major":3,"proto_minor":12}
2017-11-16 15:14:04 1510863244.277165: {"class":"DEVICES","devices":[{"class":"DEVICE","path":"/dev/ttyUSB0","driver":"SiRF","subtype":"9\u0006GSD4e_4.1.2-P1_RPATCH.05-F-GPS-4R-1510281 11/03/2015 307","activated":"2017-11-16T20:14:04.216Z","flags":1,"native":1,"bps":4800,"parity":"N","stopbits":1,"cycle":1.00}]}
2017-11-16 15:14:04 1510863244.277285: {"class":"WATCH","enable":true,"json":false,"nmea":true,"raw":0,"scaled":false,"timing":false,"split24":false,"pps":false}
2017-11-16 15:14:04 1510863244.729581: $GPGSV,3,1,12,08,07,298,22,10,64,324,51,14,25,249,45,15,15,064,35*7E
2017-11-16 15:14:04 1510863244.729758: $GPGSV,3,2,12,18,74,079,46,20,12,115,29,21,35,180,44,24,48,064,49*7B
2017-11-16 15:14:04 1510863244.729821: $GPGSV,3,3,12,27,09,264,42,32,42,259,48,12,06,111,31,138,38,213,44*42
2017-11-16 15:14:04 1510863244.843312: $GPZDA,201403.00,16,11,2017,00,00*61
2017-11-16 15:14:04 1510863244.843484: $GPGGA,201403,3946.9579,N,08404.9847,W,2,12,0.80,301.01,M,-33.324,M,,*77
2017-11-16 15:14:04 1510863244.843546: $GPRMC,201403,A,3946.9579,N,08404.9847,W,0.0000,0.000,161117,,*3A
2017-11-16 15:14:04 1510863244.843603: $GPGSA,A,3,8,10,14,15,18,20,21,24,27,32,12,138,1.6,0.8,1.3*34
2017-11-16 15:14:05 1510863245.382701: $GPZDA,201404.00,16,11,2017,00,00*66
2017-11-16 15:14:05 1510863245.382893: $GPGGA,201404,3946.9579,N,08404.9847,W,2,12,0.80,301.01,M,-33.324,M,,*70
2017-11-16 15:14:05 1510863245.382957: $GPRMC,201404,A,3946.9579,N,08404.9847,W,0.0000,0.000,161117,,*3D
2017-11-16 15:14:05 1510863245.383018: $GPGSA,A,3,8,10,14,15,18,20,21,24,27,32,12,138,1.6,0.8,1.3*34
2017-11-16 15:14:06 1510863246.381602: $GPZDA,201405.00,16,11,2017,00,00*67
2017-11-16 15:14:06 1510863246.387465: $GPGGA,201405,3946.9579,N,08404.9847,W,2,12,0.80,301.01,M,-33.324,M,,*71
2017-11-16 15:14:06 1510863246.387578: $GPRMC,201405,A,3946.9579,N,08404.9847,W,0.0000,0.000,161117,,*3C
2017-11-16 15:14:06 1510863246.387638: $GPGSA,A,3,8,10,14,15,18,20,21,24,27,32,12,138,1.6,0.8,1.3*34
2017-11-16 15:14:07 1510863247.718667: $GPGSV,3,1,12,08,07,298,22,10,64,324,50,14,25,249,45,15,15,064,35*7F
2017-11-16 15:14:07 1510863247.718841: $GPGSV,3,2,12,18,74,079,46,20,12,115,30,21,35,180,45,24,48,064,49*72
2017-11-16 15:14:07 1510863247.718901: $GPGSV,3,3,12,27,09,264,41,32,42,259,48,12,06,111,31,138,38,213,44*41
2017-11-16 15:14:07 1510863247.832027: $GPZDA,201406.00,16,11,2017,00,00*64
2017-11-16 15:14:07 1510863247.832189: $GPGGA,201406,3946.9579,N,08404.9847,W,2,12,0.80,301.01,M,-33.324,M,,*72
2017-11-16 15:14:07 1510863247.832249: $GPRMC,201406,A,3946.9579,N,08404.9847,W,0.0000,0.000,161117,,*3F
2017-11-16 15:14:07 1510863247.832305: $GPGSA,A,3,8,10,14,15,18,20,21,24,27,32,12,138,1.6,0.8,1.3*34
2017-11-16 15:14:08 1510863248.382793: $GPZDA,201407.00,16,11,2017,00,00*65
2017-11-16 15:14:08 1510863248.382959: $GPGGA,201407,3946.9579,N,08404.9847,W,2,12,0.80,301.01,M,-33.324,M,,*73
2017-11-16 15:14:08 1510863248.383019: $GPRMC,201407,A,3946.9579,N,08404.9847,W,0.0000,0.000,161117,,*3E
2017-11-16 15:14:08 1510863248.383076: $GPGSA,A,3,8,10,14,15,18,20,21,24,27,32,12,138,1.6,0.8,1.3*34
2017-11-16 15:14:09 1510863249.382350: $GPZDA,201408.00,16,11,2017,00,00*6A
2017-11-16 15:14:09 1510863249.382541: $GPGGA,201408,3946.9579,N,08404.9847,W,2,12,0.80,301.01,M,-33.324,M,,*7C
2017-11-16 15:14:09 1510863249.382605: $GPRMC,201408,A,3946.9579,N,08404.9847,W,0.0000,0.000,161117,,*31
2017-11-16 15:14:09 1510863249.382680: $GPGSA,A,3,8,10,14,15,18,20,21,24,27,32,12,138,1.6,0.8,1.3*34
2017-11-16 15:14:10 1510863250.718082: $GPGSV,3,1,12,08,07,298,22,10,64,324,50,14,25,249,45,15,15,064,35*7F
2017-11-16 15:14:10 1510863250.718252: $GPGSV,3,2,12,18,74,079,46,20,12,115,30,21,35,180,45,24,48,064,49*72
2017-11-16 15:14:10 1510863250.718312: $GPGSV,3,3,12,27,09,264,41,32,42,259,47,12,06,111,31,138,38,213,43*49
2017-11-16 15:14:10 1510863250.831616: $GPZDA,201409.00,16,11,2017,00,00*6B
2017-11-16 15:14:10 1510863250.831794: $GPGGA,201409,3946.9579,N,08404.9847,W,2,12,0.80,301.01,M,-33.324,M,,*7D
2017-11-16 15:14:10 1510863250.831918: $GPRMC,201409,A,3946.9579,N,08404.9847,W,0.0000,0.000,161117,,*30
2017-11-16 15:14:10 1510863250.831979: $GPGSA,A,3,8,10,14,15,18,20,21,24,27,32,12,138,1.6,0.8,1.3*34
2017-11-16 15:14:11 1510863251.457045: $GPZDA,201410.00,16,11,2017,00,00*63
2017-11-16 15:14:11 1510863251.460268: $GPGGA,201410,3946.9579,N,08404.9847,W,2,12,0.80,301.01,M,-33.324,M,,*75
2017-11-16 15:14:11 1510863251.460428: $GPRMC,201410,A,3946.9579,N,08404.9847,W,0.0000,0.000,161117,,*38
2017-11-16 15:14:11 1510863251.460489: $GPGSA,A,3,8,10,14,15,18,20,21,24,27,32,12,138,1.6,0.8,1.3*34
2017-11-16 15:14:12 1510863252.382597: $GPZDA,201411.00,16,11,2017,00,00*62
2017-11-16 15:14:12 1510863252.382786: $GPGGA,201411,3946.9579,N,08404.9847,W,2,12,0.80,301.01,M,-33.324,M,,*74
2017-11-16 15:14:12 1510863252.382852: $GPRMC,201411,A,3946.9579,N,08404.9847,W,0.0000,0.000,161117,,*39
2017-11-16 15:14:12 1510863252.382911: $GPGSA,A,3,8,10,14,15,18,20,21,24,27,32,12,138,1.6,0.8,1.3*34
2017-11-16 15:14:13 1510863253.721096: $GPGSV,3,1,12,08,07,298,23,10,64,324,50,14,25,249,45,15,15,064,36*7D
2017-11-16 15:14:13 1510863253.721261: $GPGSV,3,2,12,18,74,079,46,20,12,115,30,21,35,180,44,24,48,064,49*73
2017-11-16 15:14:13 1510863253.721322: $GPGSV,3,3,12,27,09,264,41,32,42,259,47,12,06,111,31,138,38,213,44*4E
2017-11-16 15:14:13 1510863253.832927: $GPZDA,201412.00,16,11,2017,00,00*61
2017-11-16 15:14:13 1510863253.833086: $GPGGA,201412,3946.9579,N,08404.9847,W,2,12,0.80,301.01,M,-33.324,M,,*77
2017-11-16 15:14:13 1510863253.833148: $GPRMC,201412,A,3946.9579,N,08404.9847,W,0.0000,0.000,161117,,*3A
2017-11-16 15:14:13 1510863253.833204: $GPGSA,A,3,8,10,14,15,18,20,21,24,27,32,12,138,1.6,0.8,1.3*34
