2018-01-12 20:09:01 1515805741.347160: {"class":"VERSION","release":"3.16","rev":"3.16-4","proto_major":3,"proto_minor":11}
2018-01-12 20:09:01 1515805741.347505: {"class":"DEVICES","devices":[{"class":"DEVICE","path":"/dev/ttyUSB0","driver":"SiRF","subtype":"9\u0006GSD4e_4.1.2-P1_RPATCH.05-F-GPS-4R-1510281 11/03/2015 307","activated":"2018-01-13T01:09:00.477Z","flags":1,"native":1,"bps":4800,"parity":"N","stopbits":1,"cycle":1.00}]}
2018-01-12 20:09:01 1515805741.347646: {"class":"WATCH","enable":true,"json":false,"nmea":true,"raw":0,"scaled":false,"timing":false,"split24":false,"pps":false}
2018-01-12 20:09:01 1515805741.499523: $GPGSV,3,1,10,09,47,228,26,08,74,129,27,27,47,052,21,07,56,315,11*79
2018-01-12 20:09:01 1515805741.499732: $GPGSV,3,2,10,11,21,168,11,28,14,259,06,23,28,189,16,30,30,306,00*7B
2018-01-12 20:09:01 1515805741.499799: $GPGSV,3,3,10,16,22,060,00,138,38,213,00*48
2018-01-12 20:09:01 1515805741.612980: $GPZDA,010902.00,13,01,2018,00,00*64
2018-01-12 20:09:01 1515805741.613193: $GPGGA,010902,3946.9591,N,08404.9485,W,1,06,1.60,273.25,M,-33.324,M,,*76
2018-01-12 20:09:01 1515805741.613272: $GPRMC,010902,A,3946.9591,N,08404.9485,W,0.5306,114.352,130118,,*3B
2018-01-12 20:09:01 1515805741.613335: $GPGSA,A,3,9,8,27,7,11,23,,,,,,,4.8,1.6,4.6*09
2018-01-12 20:09:02 1515805742.163054: $GPZDA,010903.00,13,01,2018,00,00*65
2018-01-12 20:09:02 1515805742.163286: $GPGGA,010903,3946.9595,N,08404.9485,W,1,06,1.60,273.89,M,-33.324,M,,*75
2018-01-12 20:09:02 1515805742.163361: $GPRMC,010903,A,3946.9595,N,08404.9485,W,0.5306,114.352,130118,,*3E
2018-01-12 20:09:02 1515805742.163423: $GPGSA,A,3,9,8,27,7,11,23,,,,,,,4.8,1.6,4.6*09
2018-01-12 20:09:03 1515805743.160838: $GPZDA,010904.00,13,01,2018,00,00*62
2018-01-12 20:09:03 1515805743.161010: $GPGGA,010904,3946.9592,N,08404.9486,W,1,06,1.60,274.66,M,-33.324,M,,*70
2018-01-12 20:09:03 1515805743.161078: $GPRMC,010904,A,3946.9592,N,08404.9486,W,0.3155,129.994,130118,,*31
2018-01-12 20:09:03 1515805743.161140: $GPGSA,A,3,9,8,27,7,11,23,,,,,,,4.8,1.6,4.6*09
2018-01-12 20:09:04 1515805744.498049: $GPGSV,3,1,10,09,47,228,26,08,74,129,27,27,47,052,22,07,56,315,10*7B
2018-01-12 20:09:04 1515805744.498227: $GPGSV,3,2,10,11,21,168,10,30,30,306,00,23,28,189,16,16,22,060,12*7F
2018-01-12 20:09:04 1515805744.498294: $GPGSV,3,3,10,28,14,259,00,138,38,213,00*48
2018-01-12 20:09:04 1515805744.611443: $GPZDA,010905.00,13,01,2018,00,00*63
2018-01-12 20:09:04 1515805744.611658: $GPGGA,010905,3946.9592,N,08404.9486,W,1,06,1.60,274.66,M,-33.324,M,,*71
2018-01-12 20:09:04 1515805744.611745: $GPRMC,010905,A,3946.9592,N,08404.9486,W,0.7621,107.945,130118,,*30
2018-01-12 20:09:04 1515805744.611809: $GPGSA,A,3,9,8,27,7,11,23,,,,,,,4.8,1.6,4.6*09
2018-01-12 20:09:05 1515805745.161837: $GPZDA,010906.00,13,01,2018,00,00*60
2018-01-12 20:09:05 1515805745.162023: $GPGGA,010906,3946.9592,N,08404.9479,W,1,06,1.60,274.74,M,-33.324,M,,*71
2018-01-12 20:09:05 1515805745.162093: $GPRMC,010906,A,3946.9592,N,08404.9479,W,0.9988,104.546,130118,,*3D
2018-01-12 20:09:05 1515805745.162158: $GPGSA,A,3,9,8,27,7,11,23,,,,,,,4.8,1.6,4.6*09
2018-01-12 20:09:06 1515805746.177728: $GPZDA,010907.00,13,01,2018,00,00*61
2018-01-12 20:09:06 1515805746.177914: $GPGGA,010907,3946.9592,N,08404.9479,W,1,06,1.60,274.74,M,-33.324,M,,*70
2018-01-12 20:09:06 1515805746.184148: $GPRMC,010907,A,3946.9592,N,08404.9479,W,0.9689,93.794,130118,,*00
2018-01-12 20:09:06 1515805746.184244: $GPGSA,A,3,9,8,27,7,11,23,,,,,,,4.8,1.6,4.6*09
2018-01-12 20:09:07 1515805747.518692: $GPGSV,3,1,10,09,47,228,26,08,74,129,27,27,47,052,22,07,56,315,11*7A
2018-01-12 20:09:07 1515805747.518881: $GPGSV,3,2,10,11,21,168,11,30,30,306,00,23,28,189,16,16,22,060,11*7D
2018-01-12 20:09:07 1515805747.518952: $GPGSV,3,3,10,28,14,259,00,138,38,213,00*48
2018-01-12 20:09:07 1515805747.632212: $GPZDA,010908.00,13,01,2018,00,00*6E
2018-01-12 20:09:07 1515805747.632381: $GPGGA,010908,3946.9592,N,08404.9479,W,1,07,1.40,274.74,M,-33.324,M,,*7C
2018-01-12 20:09:07 1515805747.632450: $GPRMC,010908,A,3946.9592,N,08404.9479,W,1.3305,117.203,130118,,*33
2018-01-12 20:09:07 1515805747.632569: $GPGSA,A,3,9,8,27,7,11,23,16,,,,,,4.8,1.4,4.6*0C
2018-01-12 20:09:08 1515805748.182520: $GPZDA,010909.00,13,01,2018,00,00*6F
2018-01-12 20:09:08 1515805748.182695: $GPGGA,010909,3946.9591,N,08404.9472,W,1,07,1.40,274.81,M,-33.324,M,,*7F
2018-01-12 20:09:08 1515805748.182762: $GPRMC,010909,A,3946.9591,N,08404.9472,W,1.3305,117.203,130118,,*3A
2018-01-12 20:09:08 1515805748.182825: $GPGSA,A,3,9,8,27,7,11,23,16,,,,,,4.8,1.4,4.6*0C
2018-01-12 20:09:09 1515805749.181130: $GPZDA,010910.00,13,01,2018,00,00*67
2018-01-12 20:09:09 1515805749.181305: $GPGGA,010910,3946.9591,N,08404.9472,W,1,07,1.40,274.81,M,-33.324,M,,*77
2018-01-12 20:09:09 1515805749.181372: $GPRMC,010910,A,3946.9591,N,08404.9472,W,0.8011,119.090,130118,,*38
2018-01-12 20:09:09 1515805749.181434: $GPGSA,A,3,9,8,27,7,11,23,16,,,,,,4.8,1.4,4.6*0C
2018-01-12 20:09:10 1515805750.517367: $GPGSV,3,1,10,09,47,228,26,08,74,129,27,27,47,052,22,07,56,315,11*7A
2018-01-12 20:09:10 1515805750.517593: $GPGSV,3,2,10,11,21,168,11,30,30,306,00,23,28,189,16,16,22,060,11*7D
2018-01-12 20:09:10 1515805750.517685: $GPGSV,3,3,10,28,14,259,00,138,38,213,00*48
2018-01-12 20:09:10 1515805750.631003: $GPZDA,010911.00,13,01,2018,00,00*66
2018-01-12 20:09:10 1515805750.631180: $GPGGA,010911,3946.9591,N,08404.9472,W,1,07,1.40,274.81,M,-33.324,M,,*76
2018-01-12 20:09:10 1515805750.631249: $GPRMC,010911,A,3946.9591,N,08404.9472,W,0.8011,119.090,130118,,*39
2018-01-12 20:09:10 1515805750.631314: $GPGSA,A,3,9,8,27,7,11,23,16,,,,,,4.8,1.4,4.6*0C
2018-01-12 20:09:11 1515805751.166896: $GPZDA,010912.00,13,01,2018,00,00*65
2018-01-12 20:09:11 1515805751.167073: $GPGGA,010912,3946.9591,N,08404.9472,W,1,07,1.40,274.81,M,-33.324,M,,*75
2018-01-12 20:09:11 1515805751.167143: $GPRMC,010912,A,3946.9591,N,08404.9472,W,0.8359,148.778,130118,,*30
2018-01-12 20:09:11 1515805751.167208: $GPGSA,A,3,9,8,27,7,11,23,16,,,,,,4.8,1.4,4.6*0C
2018-01-12 20:09:12 1515805752.165588: $GPZDA,010913.00,13,01,2018,00,00*64
2018-01-12 20:09:12 1515805752.165791: $GPGGA,010913,3946.9588,N,08404.9473,W,1,07,1.40,275.58,M,-33.324,M,,*78
2018-01-12 20:09:12 1515805752.165864: $GPRMC,010913,A,3946.9588,N,08404.9473,W,0.7246,164.668,130118,,*36
2018-01-12 20:09:12 1515805752.165929: $GPGSA,A,3,9,8,27,7,11,23,16,,,,,,4.8,1.4,4.6*0C
2018-01-12 20:09:13 1515805753.501643: $GPGSV,3,1,10,09,47,228,25,08,74,129,28,27,47,052,22,07,56,315,10*77
2018-01-12 20:09:13 1515805753.501856: $GPGSV,3,2,10,11,21,168,13,30,30,306,00,23,28,189,17,16,22,060,11*7E
2018-01-12 20:09:13 1515805753.501926: $GPGSV,3,3,10,28,14,259,00,138,38,213,00*48
2018-01-12 20:09:13 1515805753.615267: $GPZDA,010914.00,13,01,2018,00,00*63
2018-01-12 20:09:13 1515805753.615408: $GPGGA,010914,3946.9588,N,08404.9473,W,1,07,1.40,275.58,M,-33.324,M,,*7F
2018-01-12 20:09:13 1515805753.615477: $GPRMC,010914,A,3946.9588,N,08404.9473,W,0.5912,129.173,130118,,*3D
2018-01-12 20:09:13 1515805753.615542: $GPGSA,A,3,9,8,27,7,11,23,16,,,,,,4.8,1.4,4.6*0C
2018-01-12 20:09:14 1515805754.183013: $GPZDA,010915.00,13,01,2018,00,00*62
2018-01-12 20:09:14 1515805754.183240: $GPGGA,010915,3946.9588,N,08404.9473,W,1,07,1.40,275.58,M,-33.324,M,,*7E
2018-01-12 20:09:14 1515805754.183318: $GPRMC,010915,A,3946.9588,N,08404.9473,W,0.6846,184.197,130118,,*32
2018-01-12 20:09:14 1515805754.183384: $GPGSA,A,3,9,8,27,7,11,23,16,,,,,,4.8,1.4,4.6*0C
2018-01-12 20:09:15 1515805755.181580: $GPZDA,010916.00,13,01,2018,00,00*61
2018-01-12 20:09:15 1515805755.181787: $GPGGA,010916,3946.9588,N,08404.9473,W,1,07,1.40,275.58,M,-33.324,M,,*7D
2018-01-12 20:09:15 1515805755.181859: $GPRMC,010916,A,3946.9588,N,08404.9473,W,0.0000,0.000,130118,,*3F
2018-01-12 20:09:15 1515805755.181924: $GPGSA,A,3,9,8,27,7,11,23,16,,,,,,4.8,1.4,4.6*0C
2018-01-12 20:09:16 1515805756.517252: $GPGSV,3,1,10,09,47,228,25,08,74,129,28,27,47,052,22,07,56,315,10*77
2018-01-12 20:09:16 1515805756.519163: $GPGSV,3,2,10,11,21,168,13,30,30,306,00,23,28,189,18,16,22,060,11*71
2018-01-12 20:09:16 1515805756.519270: $GPGSV,3,3,10,28,14,259,00,120,07,103,00*4F
2018-01-12 20:09:16 1515805756.630661: $GPZDA,010917.00,13,01,2018,00,00*60
2018-01-12 20:09:16 1515805756.630838: $GPGGA,010917,3946.9588,N,08404.9473,W,1,07,1.40,275.58,M,-33.324,M,,*7C
2018-01-12 20:09:16 1515805756.630906: $GPRMC,010917,A,3946.9588,N,08404.9473,W,0.2758,128.233,130118,,*3F
2018-01-12 20:09:16 1515805756.630968: $GPGSA,A,3,9,8,27,7,11,23,16,,,,,,4.8,1.4,4.6*0C
2018-01-12 20:09:17 1515805757.178543: $GPZDA,010918.00,13,01,2018,00,00*6F
2018-01-12 20:09:17 1515805757.178746: $GPGGA,010918,3946.9592,N,08404.9473,W,1,07,1.60,276.22,M,-33.324,M,,*74
2018-01-12 20:09:17 1515805757.178815: $GPRMC,010918,A,3946.9592,N,08404.9473,W,0.2422,93.794,130118,,*0C
2018-01-12 20:09:17 1515805757.178877: $GPGSA,A,3,9,8,27,7,11,23,16,,,,,,4.8,1.6,4.6*0E
2018-01-12 20:09:18 1515805758.183899: $GPZDA,010919.00,13,01,2018,00,00*6E
2018-01-12 20:09:18 1515805758.184071: $GPGGA,010919,3946.9592,N,08404.9473,W,1,07,1.60,276.22,M,-33.324,M,,*75
2018-01-12 20:09:18 1515805758.184139: $GPRMC,010919,A,3946.9592,N,08404.9473,W,0.4207,39.347,130118,,*00
2018-01-12 20:09:18 1515805758.184200: $GPGSA,A,3,9,8,27,7,11,23,16,,,,,,4.8,1.6,4.6*0E
2018-01-12 20:09:19 1515805759.517195: $GPGSV,3,1,10,09,47,228,25,08,74,129,28,27,47,052,22,07,56,315,12*75
2018-01-12 20:09:19 1515805759.517377: $GPGSV,3,2,10,11,21,168,16,28,14,259,14,23,28,189,18,16,22,060,06*73
2018-01-12 20:09:19 1515805759.517445: $GPGSV,3,3,10,30,30,306,00,120,07,103,00*4B
2018-01-12 20:09:19 1515805759.630779: $GPZDA,010920.00,13,01,2018,00,00*64
2018-01-12 20:09:19 1515805759.630926: $GPGGA,010920,3946.9596,N,08404.9480,W,1,06,1.60,276.78,M,-33.324,M,,*79
2018-01-12 20:09:19 1515805759.630991: $GPRMC,010920,A,3946.9596,N,08404.9480,W,0.3423,4.197,130118,,*34
2018-01-12 20:09:19 1515805759.631052: $GPGSA,A,3,9,8,27,7,11,23,,,,,,,4.8,1.6,4.6*09
2018-01-12 20:09:20 1515805760.163491: $GPZDA,010921.00,13,01,2018,00,00*65
2018-01-12 20:09:20 1515805760.163703: $GPGGA,010921,3946.9596,N,08404.9480,W,1,06,1.60,276.78,M,-33.324,M,,*78
2018-01-12 20:09:20 1515805760.163774: $GPRMC,010921,A,3946.9596,N,08404.9480,W,0.0000,0.000,130118,,*38
2018-01-12 20:09:20 1515805760.163836: $GPGSA,A,3,9,8,27,7,11,23,,,,,,,4.8,1.6,4.6*09
2018-01-12 20:09:21 1515805761.179271: $GPZDA,010922.00,13,01,2018,00,00*66
2018-01-12 20:09:21 1515805761.179442: $GPGGA,010922,3946.9596,N,08404.9480,W,1,06,1.60,276.78,M,-33.324,M,,*7B
2018-01-12 20:09:21 1515805761.179510: $GPRMC,010922,A,3946.9596,N,08404.9480,W,0.5951,58.684,130118,,*04
2018-01-12 20:09:21 1515805761.179596: $GPGSA,A,3,9,8,27,7,11,23,,,,,,,4.8,1.6,4.6*09
