2017-11-16 13:20:28 1510856428.968607: {"class":"VERSION","release":"3.17","rev":"3.17","proto_major":3,"proto_minor":12}
2017-11-16 13:20:28 1510856428.969115: {"class":"DEVICES","devices":[{"class":"DEVICE","path":"/dev/ttyUSB0","driver":"SiRF","subtype":"9\u0006GSD4e_4.1.2-P1_RPATCH.05-F-GPS-4R-1510281 11/03/2015 307","activated":"2017-11-16T18:20:28.428Z","flags":1,"native":1,"bps":4800,"parity":"N","stopbits":1,"cycle":1.00}]}
2017-11-16 13:20:28 1510856428.969252: {"class":"WATCH","enable":true,"json":false,"nmea":true,"raw":0,"scaled":false,"timing":false,"split24":false,"pps":false}
2017-11-16 13:20:29 1510856429.288524: $GPZDA,182028.00,16,11,2017,00,00*64
2017-11-16 13:20:29 1510856429.288707: $GPGGA,182028,3946.9594,N,08404.9845,W,2,12,0.80,300.76,M,-33.324,M,,*72
2017-11-16 13:20:29 1510856429.288771: $GPRMC,182028,A,3946.9594,N,08404.9845,W,0.0000,0.000,161117,,*3E
2017-11-16 13:20:29 1510856429.288826: $GPGSA,A,3,10,13,15,18,20,21,24,27,5,29,32,138,1.6,0.8,1.3*36
2017-11-16 13:20:30 1510856430.623807: $GPGSV,3,1,12,10,23,283,43,13,29,045,48,15,61,051,50,18,54,300,46*79
2017-11-16 13:20:30 1510856430.623959: $GPGSV,3,2,12,20,51,072,47,21,78,270,47,24,33,138,40,27,16,313,44*7A
2017-11-16 13:20:30 1510856430.624018: $GPGSV,3,3,12,05,04,087,19,29,09,189,31,32,01,225,23,138,38,213,46*4B
2017-11-16 13:20:30 1510856430.737482: $GPZDA,182029.00,16,11,2017,00,00*65
2017-11-16 13:20:30 1510856430.737683: $GPGGA,182029,3946.9594,N,08404.9845,W,2,11,0.80,300.76,M,-33.324,M,,*70
2017-11-16 13:20:30 1510856430.737744: $GPRMC,182029,A,3946.9594,N,08404.9845,W,0.0000,0.000,161117,,*3F
2017-11-16 13:20:30 1510856430.737799: $GPGSA,A,3,10,13,15,18,20,21,24,27,29,32,138,,1.6,0.8,1.3*03
2017-11-16 13:20:31 1510856431.289931: $GPZDA,182030.00,16,11,2017,00,00*6D
2017-11-16 13:20:31 1510856431.290092: $GPGGA,182030,3946.9594,N,08404.9845,W,2,11,0.80,300.76,M,-33.324,M,,*78
2017-11-16 13:20:31 1510856431.290153: $GPRMC,182030,A,3946.9594,N,08404.9845,W,0.0000,0.000,161117,,*37
2017-11-16 13:20:31 1510856431.290228: $GPGSA,A,3,10,13,15,18,20,21,24,27,29,32,138,,1.6,0.8,1.3*03
2017-11-16 13:20:32 1510856432.287528: $GPZDA,182031.00,16,11,2017,00,00*6C
2017-11-16 13:20:32 1510856432.287705: $GPGGA,182031,3946.9594,N,08404.9845,W,2,11,0.80,300.76,M,-33.324,M,,*79
2017-11-16 13:20:32 1510856432.287767: $GPRMC,182031,A,3946.9594,N,08404.9845,W,0.0000,0.000,161117,,*36
2017-11-16 13:20:32 1510856432.287824: $GPGSA,A,3,10,13,15,18,20,21,24,27,29,32,138,,1.6,0.8,1.3*03
2017-11-16 13:20:33 1510856433.624488: $GPGSV,3,1,12,10,23,283,43,13,29,045,48,15,61,051,51,18,54,300,46*78
2017-11-16 13:20:33 1510856433.624669: $GPGSV,3,2,12,20,51,072,47,21,78,270,47,24,33,138,40,27,16,313,44*7A
2017-11-16 13:20:33 1510856433.624731: $GPGSV,3,3,12,05,04,087,22,29,09,189,31,32,01,225,23,138,38,213,45*40
2017-11-16 13:20:33 1510856433.737871: $GPZDA,182032.00,16,11,2017,00,00*6F
2017-11-16 13:20:33 1510856433.738024: $GPGGA,182032,3946.9594,N,08404.9845,W,2,12,0.80,300.76,M,-33.324,M,,*79
2017-11-16 13:20:33 1510856433.738085: $GPRMC,182032,A,3946.9594,N,08404.9845,W,0.0000,0.000,161117,,*35
2017-11-16 13:20:33 1510856433.738143: $GPGSA,A,3,10,13,15,18,20,21,24,27,5,29,32,138,1.6,0.8,1.3*36
2017-11-16 13:20:34 1510856434.287387: $GPZDA,182033.00,16,11,2017,00,00*6E
2017-11-16 13:20:34 1510856434.287557: $GPGGA,182033,3946.9594,N,08404.9845,W,2,12,0.80,300.76,M,-33.324,M,,*78
2017-11-16 13:20:34 1510856434.287619: $GPRMC,182033,A,3946.9594,N,08404.9845,W,0.0000,0.000,161117,,*34
2017-11-16 13:20:34 1510856434.287676: $GPGSA,A,3,10,13,15,18,20,21,24,27,5,29,32,138,1.6,0.8,1.3*36
2017-11-16 13:20:35 1510856435.286524: $GPZDA,182034.00,16,11,2017,00,00*69
2017-11-16 13:20:35 1510856435.286685: $GPGGA,182034,3946.9594,N,08404.9845,W,2,12,0.80,300.76,M,-33.324,M,,*7F
2017-11-16 13:20:35 1510856435.286746: $GPRMC,182034,A,3946.9594,N,08404.9845,W,0.0000,0.000,161117,,*33
2017-11-16 13:20:35 1510856435.286804: $GPGSA,A,3,10,13,15,18,20,21,24,27,5,29,32,138,1.6,0.8,1.3*36
2017-11-16 13:20:36 1510856436.622505: $GPGSV,3,1,12,10,23,283,42,13,29,045,48,15,61,051,51,18,54,300,46*79
2017-11-16 13:20:36 1510856436.622725: $GPGSV,3,2,12,20,51,072,47,21,78,270,47,24,33,138,40,27,16,313,44*7A
2017-11-16 13:20:36 1510856436.622788: $GPGSV,3,3,12,05,04,087,00,29,09,189,31,32,01,225,23,138,38,213,45*40
2017-11-16 13:20:36 1510856436.736309: $GPZDA,182035.00,16,11,2017,00,00*68
2017-11-16 13:20:36 1510856436.736465: $GPGGA,182035,3946.9594,N,08404.9845,W,2,11,0.80,300.76,M,-33.324,M,,*7D
2017-11-16 13:20:36 1510856436.736526: $GPRMC,182035,A,3946.9594,N,08404.9845,W,0.0000,0.000,161117,,*32
2017-11-16 13:20:36 1510856436.736583: $GPGSA,A,3,10,13,15,18,20,21,24,27,29,32,138,,1.6,0.8,1.3*03
2017-11-16 13:20:37 1510856437.292808: $GPZDA,182036.00,16,11,2017,00,00*6B
2017-11-16 13:20:37 1510856437.292980: $GPGGA,182036,3946.9594,N,08404.9845,W,2,11,0.80,300.76,M,-33.324,M,,*7E
2017-11-16 13:20:37 1510856437.293044: $GPRMC,182036,A,3946.9594,N,08404.9845,W,0.0000,0.000,161117,,*31
2017-11-16 13:20:37 1510856437.293101: $GPGSA,A,3,10,13,15,18,20,21,24,27,29,32,138,,1.6,0.8,1.3*03
2017-11-16 13:20:38 1510856438.287537: $GPZDA,182037.00,16,11,2017,00,00*6A
2017-11-16 13:20:38 1510856438.287711: $GPGGA,182037,3946.9594,N,08404.9845,W,2,11,0.80,300.76,M,-33.324,M,,*7F
2017-11-16 13:20:38 1510856438.287776: $GPRMC,182037,A,3946.9594,N,08404.9845,W,0.0000,0.000,161117,,*30
2017-11-16 13:20:38 1510856438.287835: $GPGSA,A,3,10,13,15,18,20,21,24,27,29,32,138,,1.6,0.8,1.3*03
