2017-12-01 14:39:45 1512157185.626722: {"class":"VERSION","release":"3.16","rev":"3.16-4","proto_major":3,"proto_minor":11}
2017-12-01 14:39:45 1512157185.627153: {"class":"DEVICES","devices":[{"class":"DEVICE","path":"/dev/ttyUSB0","driver":"SiRF","subtype":"9\u0006GSD4e_4.1.2-P1_RPATCH.05-F-GPS-4R-1510281 11/03/2015 307","activated":"2017-12-01T19:39:45.338Z","flags":1,"native":1,"bps":4800,"parity":"N","stopbits":1,"cycle":1.00}]}
2017-12-01 14:39:45 1512157185.627285: {"class":"WATCH","enable":true,"json":false,"nmea":true,"raw":0,"scaled":false,"timing":false,"split24":false,"pps":false}
2017-12-01 14:39:45 1512157185.945152: $GPZDA,193946.63,01,12,2017,00,00*65
2017-12-01 14:39:45 1512157185.945331: $GPGGA,193946,3946.9592,N,08404.9855,W,1,12,1.20,304.26,M,-33.324,M,,*7D
2017-12-01 14:39:45 1512157185.945399: $GPRMC,193946,A,3946.9592,N,08404.9855,W,0.3372,330.407,011217,,*3B
2017-12-01 14:39:45 1512157185.945462: $GPGSA,A,3,10,14,18,21,24,20,31,32,12,15,8,138,2.0,1.2,1.5*3B
2017-12-01 14:39:45 1512157185.945521: $GPGBS,193946,10.70,M,15.43,M,35.28,M*07
2017-12-01 14:39:47 1512157187.095631: $GPZDA,193947.31,01,12,2017,00,00*63
2017-12-01 14:39:47 1512157187.095801: $GPGGA,193947,3946.9585,N,08404.9855,W,1,12,1.20,304.38,M,-33.324,M,,*75
2017-12-01 14:39:47 1512157187.095868: $GPRMC,193947,A,3946.9585,N,08404.9855,W,0.3155,309.994,011217,,*36
2017-12-01 14:39:47 1512157187.095930: $GPGSA,A,3,10,14,18,21,24,20,31,32,12,15,8,138,2.0,1.2,1.5*3B
2017-12-01 14:39:48 1512157188.306859: $GPGSV,3,1,12,10,76,345,47,12,14,100,38,14,34,259,43,18,64,108,46*7E
2017-12-01 14:39:48 1512157188.307041: $GPGSV,3,2,12,21,21,178,44,24,39,052,48,31,06,204,35,32,52,274,44*71
2017-12-01 14:39:48 1512157188.307107: $GPGSV,3,3,12,08,03,288,09,15,06,070,07,25,08,136,06,138,38,213,00*44
2017-12-01 14:39:48 1512157188.420501: $GPZDA,193948.00,01,12,2017,00,00*6E
2017-12-01 14:39:48 1512157188.420659: $GPGGA,193948,3946.9577,N,08404.9856,W,1,08,1.20,304.50,M,-33.324,M,,*71
2017-12-01 14:39:48 1512157188.420726: $GPRMC,193948,A,3946.9577,N,08404.9856,W,0.3423,184.196,011217,,*3E
2017-12-01 14:39:48 1512157188.420787: $GPGSA,A,3,10,12,14,18,21,24,31,32,,,,,2.0,1.2,1.5*3F
2017-12-01 14:39:48 1512157188.871231: $GPZDA,193949.00,01,12,2017,00,00*6F
2017-12-01 14:39:48 1512157188.871442: $GPGGA,193949,3946.9589,N,08404.9884,W,1,08,1.00,294.03,M,-33.324,M,,*72
2017-12-01 14:39:48 1512157188.871518: $GPRMC,193949,A,3946.9589,N,08404.9884,W,0.2422,93.794,011217,,*02
2017-12-01 14:39:48 1512157188.871580: $GPGSA,A,3,10,12,14,18,21,24,31,32,,,,,2.0,1.0,1.5*3D
2017-12-01 14:39:49 1512157189.339590: $GPZDA,193950.00,01,12,2017,00,00*67
2017-12-01 14:39:49 1512157189.339765: $GPGGA,193950,3946.9585,N,08404.9878,W,1,08,1.00,294.87,M,-33.324,M,,*79
2017-12-01 14:39:49 1512157189.339831: $GPRMC,193950,A,3946.9585,N,08404.9878,W,0.0000,0.000,011217,,*33
2017-12-01 14:39:49 1512157189.339893: $GPGSA,A,3,10,12,14,18,21,24,31,32,,,,,2.0,1.0,1.5*3D
2017-12-01 14:39:50 1512157190.673536: $GPGSV,3,1,12,10,76,345,47,12,14,100,38,14,34,259,43,18,64,108,46*7E
2017-12-01 14:39:50 1512157190.673724: $GPGSV,3,2,12,21,21,178,44,24,39,052,48,31,06,204,35,32,52,274,44*71
2017-12-01 14:39:50 1512157190.673812: $GPGSV,3,3,12,08,03,288,27,15,06,070,24,20,03,121,22,138,38,213,48*4B
2017-12-01 14:39:50 1512157190.787753: $GPZDA,193951.00,01,12,2017,00,00*66
2017-12-01 14:39:50 1512157190.787925: $GPGGA,193951,3946.9590,N,08404.9878,W,1,12,1.00,295.51,M,-33.324,M,,*7D
2017-12-01 14:39:50 1512157190.787993: $GPRMC,193951,A,3946.9590,N,08404.9878,W,0.0000,0.000,011217,,*36
2017-12-01 14:39:50 1512157190.788055: $GPGSA,A,3,10,12,14,18,21,24,31,32,8,15,20,138,2.0,1.0,1.5*39
2017-12-01 14:39:51 1512157191.336524: $GPZDA,193952.00,01,12,2017,00,00*65
2017-12-01 14:39:51 1512157191.336700: $GPGGA,193952,3946.9590,N,08404.9878,W,1,12,1.00,295.51,M,-33.324,M,,*7E
2017-12-01 14:39:51 1512157191.336767: $GPRMC,193952,A,3946.9590,N,08404.9878,W,0.0000,0.000,011217,,*35
2017-12-01 14:39:51 1512157191.336829: $GPGSA,A,3,10,12,14,18,21,24,31,32,8,15,20,138,2.0,1.0,1.5*39
2017-12-01 14:39:52 1512157192.336029: $GPZDA,193953.00,01,12,2017,00,00*64
2017-12-01 14:39:52 1512157192.336202: $GPGGA,193953,3946.9590,N,08404.9878,W,1,12,1.00,295.51,M,-33.324,M,,*7F
2017-12-01 14:39:52 1512157192.336269: $GPRMC,193953,A,3946.9590,N,08404.9878,W,0.0000,0.000,011217,,*34
2017-12-01 14:39:52 1512157192.336331: $GPGSA,A,3,10,12,14,18,21,24,31,32,8,15,20,138,2.0,1.0,1.5*39
2017-12-01 14:39:52 1512157192.336390: $GPGBS,193953,10.70,M,15.43,M,35.28,M*03
2017-12-01 14:39:53 1512157193.675479: $GPGSV,3,1,12,10,76,345,47,12,14,100,38,14,34,259,43,18,64,108,46*7E
2017-12-01 14:39:53 1512157193.675662: $GPGSV,3,2,12,21,21,178,44,24,39,052,48,31,06,204,35,32,52,274,43*76
2017-12-01 14:39:53 1512157193.675728: $GPGSV,3,3,12,08,03,288,27,15,06,070,25,20,03,121,16,138,38,213,47*42
2017-12-01 14:39:53 1512157193.789209: $GPZDA,193954.00,01,12,2017,00,00*63
2017-12-01 14:39:53 1512157193.789387: $GPGGA,193954,3946.9586,N,08404.9879,W,2,12,1.20,296.28,M,-33.324,M,,*72
2017-12-01 14:39:53 1512157193.789455: $GPRMC,193954,A,3946.9586,N,08404.9879,W,0.0000,0.000,011217,,*35
2017-12-01 14:39:53 1512157193.789516: $GPGSA,A,3,10,12,14,18,21,24,31,32,8,15,20,138,2.0,1.2,1.5*3B
2017-12-01 14:39:54 1512157194.338488: $GPZDA,193955.00,01,12,2017,00,00*62
2017-12-01 14:39:54 1512157194.338658: $GPGGA,193955,3946.9586,N,08404.9879,W,2,12,1.20,296.28,M,-33.324,M,,*73
2017-12-01 14:39:54 1512157194.338725: $GPRMC,193955,A,3946.9586,N,08404.9879,W,0.0000,0.000,011217,,*34
2017-12-01 14:39:54 1512157194.338786: $GPGSA,A,3,10,12,14,18,21,24,31,32,8,15,20,138,2.0,1.2,1.5*3B
2017-12-01 14:39:55 1512157195.340183: $GPZDA,193956.00,01,12,2017,00,00*61
2017-12-01 14:39:55 1512157195.340363: $GPGGA,193956,3946.9586,N,08404.9879,W,2,12,1.20,296.28,M,-33.324,M,,*70
2017-12-01 14:39:55 1512157195.340433: $GPRMC,193956,A,3946.9586,N,08404.9879,W,0.0000,0.000,011217,,*37
2017-12-01 14:39:55 1512157195.340495: $GPGSA,A,3,10,12,14,18,21,24,31,32,8,15,20,138,2.0,1.2,1.5*3B
2017-12-01 14:39:56 1512157196.673340: $GPGSV,3,1,12,10,76,345,47,12,14,100,38,14,34,259,43,18,64,108,46*7E
2017-12-01 14:39:56 1512157196.673517: $GPGSV,3,2,12,21,21,178,44,24,39,052,48,31,06,204,35,32,52,274,44*71
2017-12-01 14:39:56 1512157196.673583: $GPGSV,3,3,12,08,03,288,27,15,06,070,25,20,03,121,24,138,38,213,48*4C
2017-12-01 14:39:56 1512157196.786721: $GPZDA,193957.00,01,12,2017,00,00*60
2017-12-01 14:39:56 1512157196.786906: $GPGGA,193957,3946.9586,N,08404.9879,W,2,12,1.20,296.28,M,-33.324,M,,*71
2017-12-01 14:39:56 1512157196.786978: $GPRMC,193957,A,3946.9586,N,08404.9879,W,0.0000,0.000,011217,,*36
2017-12-01 14:39:56 1512157196.787043: $GPGSA,A,3,10,12,14,18,21,24,31,32,8,15,20,138,2.0,1.2,1.5*3B
2017-12-01 14:39:57 1512157197.338817: $GPZDA,193958.00,01,12,2017,00,00*6F
2017-12-01 14:39:57 1512157197.339002: $GPGGA,193958,3946.9590,N,08404.9879,W,2,12,1.00,296.92,M,-33.324,M,,*7A
2017-12-01 14:39:57 1512157197.339073: $GPRMC,193958,A,3946.9590,N,08404.9879,W,0.0000,0.000,011217,,*3E
2017-12-01 14:39:57 1512157197.339136: $GPGSA,A,3,10,12,14,18,21,24,31,32,8,15,20,138,2.0,1.0,1.5*39
2017-12-01 14:39:58 1512157198.338469: $GPZDA,193959.00,01,12,2017,00,00*6E
2017-12-01 14:39:58 1512157198.338643: $GPGGA,193959,3946.9586,N,08404.9873,W,2,12,1.00,297.76,M,-33.324,M,,*7D
2017-12-01 14:39:58 1512157198.338711: $GPRMC,193959,A,3946.9586,N,08404.9873,W,0.0000,0.000,011217,,*32
2017-12-01 14:39:58 1512157198.338774: $GPGSA,A,3,10,12,14,18,21,24,31,32,8,15,20,138,2.0,1.0,1.5*39
2017-12-01 14:39:59 1512157199.674296: $GPGSV,3,1,12,10,76,345,47,12,14,100,38,14,34,259,43,18,64,108,46*7E
2017-12-01 14:39:59 1512157199.674452: $GPGSV,3,2,12,21,21,178,45,24,39,052,48,31,06,204,35,32,52,274,44*70
2017-12-01 14:39:59 1512157199.674520: $GPGSV,3,3,12,08,03,288,27,15,06,070,25,27,02,253,25,138,38,213,47*42
2017-12-01 14:39:59 1512157199.787646: $GPZDA,194000.00,01,12,2017,00,00*6C
2017-12-01 14:39:59 1512157199.787842: $GPGGA,194000,3946.9586,N,08404.9873,W,2,12,1.00,297.76,M,-33.324,M,,*7F
2017-12-01 14:39:59 1512157199.787920: $GPRMC,194000,A,3946.9586,N,08404.9873,W,0.0000,0.000,011217,,*30
2017-12-01 14:39:59 1512157199.788044: $GPGSA,A,3,10,12,14,18,21,24,31,32,8,15,27,138,2.0,1.0,1.5*3E
2017-12-01 14:40:00 1512157200.413049: $GPZDA,194001.00,01,12,2017,00,00*6D
2017-12-01 14:40:00 1512157200.413219: $GPGGA,194001,3946.9586,N,08404.9873,W,2,12,1.00,297.76,M,-33.324,M,,*7E
2017-12-01 14:40:00 1512157200.413285: $GPRMC,194001,A,3946.9586,N,08404.9873,W,0.0000,0.000,011217,,*31
2017-12-01 14:40:00 1512157200.413346: $GPGSA,A,3,10,12,14,18,21,24,31,32,8,15,27,138,2.0,1.0,1.5*3E
2017-12-01 14:40:01 1512157201.341747: $GPZDA,194002.00,01,12,2017,00,00*6E
2017-12-01 14:40:01 1512157201.342025: $GPGGA,194002,3946.9586,N,08404.9873,W,2,12,1.00,297.76,M,-33.324,M,,*7D
2017-12-01 14:40:01 1512157201.342101: $GPRMC,194002,A,3946.9586,N,08404.9873,W,0.0000,0.000,011217,,*32
2017-12-01 14:40:01 1512157201.342165: $GPGSA,A,3,10,12,14,18,21,24,31,32,8,15,27,138,2.0,1.0,1.5*3E
2017-12-01 14:40:02 1512157202.675887: $GPGSV,3,1,12,10,76,345,48,12,14,100,38,14,34,259,43,18,64,108,47*70
2017-12-01 14:40:02 1512157202.676084: $GPGSV,3,2,12,21,21,178,45,24,39,052,48,31,06,204,35,32,52,274,44*70
2017-12-01 14:40:02 1512157202.676152: $GPGSV,3,3,12,08,03,288,27,15,06,070,24,20,03,121,23,138,38,213,48*4A
2017-12-01 14:40:02 1512157202.789258: $GPZDA,194003.00,01,12,2017,00,00*6F
2017-12-01 14:40:02 1512157202.789420: $GPGGA,194003,3946.9586,N,08404.9873,W,2,12,1.00,297.76,M,-33.324,M,,*7C
2017-12-01 14:40:02 1512157202.789487: $GPRMC,194003,A,3946.9586,N,08404.9873,W,0.0000,0.000,011217,,*33
2017-12-01 14:40:02 1512157202.789547: $GPGSA,A,3,10,12,14,18,21,24,31,32,8,15,20,138,2.0,1.0,1.5*39
2017-12-01 14:40:03 1512157203.340133: $GPZDA,194004.00,01,12,2017,00,00*68
2017-12-01 14:40:03 1512157203.340303: $GPGGA,194004,3946.9583,N,08404.9873,W,2,12,1.00,298.52,M,-33.324,M,,*77
2017-12-01 14:40:03 1512157203.340371: $GPRMC,194004,A,3946.9583,N,08404.9873,W,0.0000,0.000,011217,,*31
2017-12-01 14:40:03 1512157203.340432: $GPGSA,A,3,10,12,14,18,21,24,31,32,8,15,20,138,2.0,1.0,1.5*39
2017-12-01 14:40:04 1512157204.339612: $GPZDA,194005.00,01,12,2017,00,00*69
2017-12-01 14:40:04 1512157204.339796: $GPGGA,194005,3946.9587,N,08404.9873,W,2,12,1.00,299.16,M,-33.324,M,,*73
2017-12-01 14:40:04 1512157204.339888: $GPRMC,194005,A,3946.9587,N,08404.9873,W,0.0000,0.000,011217,,*34
2017-12-01 14:40:04 1512157204.339954: $GPGSA,A,3,10,12,14,18,21,24,31,32,8,15,20,138,2.0,1.0,1.5*39
2017-12-01 14:40:04 1512157204.340033: $GPGBS,194005,2.67,M,3.86,M,8.82,M*3B
2017-12-01 14:40:05 1512157205.676194: $GPGSV,3,1,12,10,76,345,47,12,14,100,38,14,34,259,43,18,64,108,46*7E
2017-12-01 14:40:05 1512157205.676352: $GPGSV,3,2,12,21,21,178,45,24,39,052,48,31,06,204,35,32,52,274,44*70
2017-12-01 14:40:05 1512157205.676421: $GPGSV,3,3,12,08,03,288,27,15,06,070,24,25,08,136,28,138,38,213,48*49
2017-12-01 14:40:05 1512157205.789979: $GPZDA,194006.00,01,12,2017,00,00*6A
2017-12-01 14:40:05 1512157205.790171: $GPGGA,194006,3946.9587,N,08404.9873,W,2,12,1.00,299.16,M,-33.324,M,,*70
2017-12-01 14:40:05 1512157205.790240: $GPRMC,194006,A,3946.9587,N,08404.9873,W,0.0000,0.000,011217,,*37
2017-12-01 14:40:05 1512157205.790304: $GPGSA,A,3,10,12,14,18,21,24,31,32,8,15,25,138,2.0,1.0,1.5*3C
2017-12-01 14:40:06 1512157206.338076: $GPZDA,194007.00,01,12,2017,00,00*6B
2017-12-01 14:40:06 1512157206.338248: $GPGGA,194007,3946.9583,N,08404.9866,W,2,12,1.00,298.60,M,-33.324,M,,*71
2017-12-01 14:40:06 1512157206.338319: $GPRMC,194007,A,3946.9583,N,08404.9866,W,0.1867,180.000,011217,,*37
2017-12-01 14:40:06 1512157206.338384: $GPGSA,A,3,10,12,14,18,21,24,31,32,8,15,25,138,2.0,1.0,1.5*3C
2017-12-01 14:40:07 1512157207.339233: $GPZDA,194008.00,01,12,2017,00,00*64
2017-12-01 14:40:07 1512157207.345157: $GPGGA,194008,3946.9584,N,08404.9861,W,2,12,1.00,301.49,M,-33.324,M,,*74
2017-12-01 14:40:07 1512157207.345273: $GPRMC,194008,A,3946.9584,N,08404.9861,W,0.2422,93.794,011217,,*0F
2017-12-01 14:40:07 1512157207.345339: $GPGSA,A,3,10,12,14,18,21,24,31,32,8,15,25,138,2.0,1.0,1.5*3C
2017-12-01 14:40:08 1512157208.672281: $GPGSV,3,1,12,10,76,345,47,12,14,100,38,14,34,259,43,18,64,108,46*7E
2017-12-01 14:40:08 1512157208.672510: $GPGSV,3,2,12,21,21,178,44,24,39,052,48,31,06,204,35,32,52,274,44*71
2017-12-01 14:40:08 1512157208.672588: $GPGSV,3,3,12,08,03,288,26,15,06,070,24,25,08,136,28,138,38,213,48*48
2017-12-01 14:40:08 1512157208.785465: $GPZDA,194009.00,01,12,2017,00,00*65
2017-12-01 14:40:08 1512157208.785639: $GPGGA,194009,3946.9585,N,08404.9864,W,2,12,1.00,295.03,M,-33.324,M,,*73
2017-12-01 14:40:08 1512157208.785705: $GPRMC,194009,A,3946.9585,N,08404.9864,W,0.0000,0.000,011217,,*3C
2017-12-01 14:40:08 1512157208.785765: $GPGSA,A,3,10,12,14,18,21,24,31,32,8,15,25,138,2.0,1.0,1.5*3C
2017-12-01 14:40:09 1512157209.337584: $GPZDA,194010.00,01,12,2017,00,00*6D
2017-12-01 14:40:09 1512157209.337763: $GPGGA,194010,3946.9585,N,08404.9864,W,2,12,1.00,295.03,M,-33.324,M,,*7B
2017-12-01 14:40:09 1512157209.337831: $GPRMC,194010,A,3946.9585,N,08404.9864,W,0.0000,0.000,011217,,*34
2017-12-01 14:40:09 1512157209.337892: $GPGSA,A,3,10,12,14,18,21,24,31,32,8,15,25,138,2.0,1.0,1.5*3C
2017-12-01 14:40:10 1512157210.345440: $GPZDA,194011.00,01,12,2017,00,00*6C
2017-12-01 14:40:10 1512157210.345618: $GPGGA,194011,3946.9585,N,08404.9864,W,2,12,1.00,295.03,M,-33.324,M,,*7A
2017-12-01 14:40:10 1512157210.345686: $GPRMC,194011,A,3946.9585,N,08404.9864,W,0.0000,0.000,011217,,*35
2017-12-01 14:40:10 1512157210.345748: $GPGSA,A,3,10,12,14,18,21,24,31,32,8,15,25,138,2.0,1.0,1.5*3C
