2017-12-01 15:54:17 1512161657.446840: {"class":"VERSION","release":"3.16","rev":"3.16-4","proto_major":3,"proto_minor":11}
2017-12-01 15:54:17 1512161657.447273: {"class":"DEVICES","devices":[{"class":"DEVICE","path":"/dev/ttyUSB0","driver":"SiRF","subtype":"9\u0006GSD4e_4.1.2-P1_RPATCH.05-F-GPS-4R-1510281 11/03/2015 307","activated":"2017-12-01T20:54:17.428Z","flags":1,"native":1,"bps":4800,"parity":"N","stopbits":1,"cycle":1.00}]}
2017-12-01 15:54:17 1512161657.447400: {"class":"WATCH","enable":true,"json":false,"nmea":true,"raw":0,"scaled":false,"timing":false,"split24":false,"pps":false}
2017-12-01 15:54:18 1512161658.725329: $GPGSV,3,1,12,01,16,315,39,10,65,136,47,11,11,297,34,12,25,067,41*7D
2017-12-01 15:54:18 1512161658.725512: $GPGSV,3,2,12,14,57,298,43,18,33,138,46,22,06,312,42,25,32,111,45*7F
2017-12-01 15:54:18 1512161658.725577: $GPGSV,3,3,12,31,39,214,49,32,69,340,47,24,11,046,31,138,38,213,46*47
2017-12-01 15:54:18 1512161658.838716: $GPZDA,205419.00,01,12,2017,00,00*6B
2017-12-01 15:54:18 1512161658.838889: $GPGGA,205419,3946.9586,N,08404.9817,W,2,12,0.80,311.88,M,-33.324,M,,*7D
2017-12-01 15:54:18 1512161658.838955: $GPRMC,205419,A,3946.9586,N,08404.9817,W,0.0000,0.000,011217,,*35
2017-12-01 15:54:18 1512161658.839019: $GPGSA,A,3,1,10,11,12,14,18,22,25,31,32,24,138,2.0,0.8,1.5*3B
2017-12-01 15:54:19 1512161659.393300: $GPZDA,205420.00,01,12,2017,00,00*61
2017-12-01 15:54:19 1512161659.393481: $GPGGA,205420,3946.9586,N,08404.9823,W,2,12,0.80,310.39,M,-33.324,M,,*7B
2017-12-01 15:54:19 1512161659.393548: $GPRMC,205420,A,3946.9586,N,08404.9823,W,0.0000,0.000,011217,,*38
2017-12-01 15:54:19 1512161659.393631: $GPGSA,A,3,1,10,11,12,14,18,22,25,31,32,24,138,2.0,0.8,1.5*3B
2017-12-01 15:54:20 1512161660.389182: $GPZDA,205421.00,01,12,2017,00,00*60
2017-12-01 15:54:20 1512161660.389359: $GPGGA,205421,3946.9586,N,08404.9823,W,2,12,0.80,310.39,M,-33.324,M,,*7A
2017-12-01 15:54:20 1512161660.389426: $GPRMC,205421,A,3946.9586,N,08404.9823,W,0.0000,0.000,011217,,*39
2017-12-01 15:54:20 1512161660.389489: $GPGSA,A,3,1,10,11,12,14,18,22,25,31,32,24,138,2.0,0.8,1.5*3B
2017-12-01 15:54:21 1512161661.726250: $GPGSV,3,1,12,01,16,315,39,10,65,136,47,11,11,297,34,12,25,067,40*7C
2017-12-01 15:54:21 1512161661.726431: $GPGSV,3,2,12,14,57,298,43,18,33,138,46,22,06,312,42,25,32,111,45*7F
2017-12-01 15:54:21 1512161661.726501: $GPGSV,3,3,12,31,39,214,49,32,69,340,47,24,11,046,31,138,38,213,45*44
2017-12-01 15:54:21 1512161661.839864: $GPZDA,205422.00,01,12,2017,00,00*63
2017-12-01 15:54:21 1512161661.840010: $GPGGA,205422,3946.9582,N,08404.9824,W,2,12,0.80,311.16,M,-33.324,M,,*76
2017-12-01 15:54:21 1512161661.840077: $GPRMC,205422,A,3946.9582,N,08404.9824,W,0.0000,0.000,011217,,*39
2017-12-01 15:54:21 1512161661.840138: $GPGSA,A,3,1,10,11,12,14,18,22,25,31,32,24,138,2.0,0.8,1.5*3B
2017-12-01 15:54:22 1512161662.465378: $GPZDA,205423.00,01,12,2017,00,00*62
2017-12-01 15:54:22 1512161662.465575: $GPGGA,205423,3946.9582,N,08404.9824,W,2,12,0.80,311.16,M,-33.324,M,,*77
2017-12-01 15:54:22 1512161662.465643: $GPRMC,205423,A,3946.9582,N,08404.9824,W,0.0000,0.000,011217,,*38
2017-12-01 15:54:22 1512161662.465706: $GPGSA,A,3,1,10,11,12,14,18,22,25,31,32,24,138,2.0,0.8,1.5*3B
2017-12-01 15:54:23 1512161663.390777: $GPZDA,205424.00,01,12,2017,00,00*65
2017-12-01 15:54:23 1512161663.390964: $GPGGA,205424,3946.9582,N,08404.9824,W,2,12,0.80,311.16,M,-33.324,M,,*70
2017-12-01 15:54:23 1512161663.391033: $GPRMC,205424,A,3946.9582,N,08404.9824,W,0.0000,0.000,011217,,*3F
2017-12-01 15:54:23 1512161663.391095: $GPGSA,A,3,1,10,11,12,14,18,22,25,31,32,24,138,2.0,0.8,1.5*3B
2017-12-01 15:54:24 1512161664.726539: $GPGSV,3,1,12,01,16,315,39,10,65,136,47,11,11,297,33,12,25,067,40*7B
2017-12-01 15:54:24 1512161664.726696: $GPGSV,3,2,12,14,57,298,43,18,33,138,46,22,06,312,42,25,32,111,44*7E
2017-12-01 15:54:24 1512161664.726762: $GPGSV,3,3,12,31,39,214,49,32,69,340,47,24,11,046,31,138,38,213,46*47
2017-12-01 15:54:24 1512161664.840041: $GPZDA,205425.00,01,12,2017,00,00*64
2017-12-01 15:54:24 1512161664.840214: $GPGGA,205425,3946.9582,N,08404.9824,W,2,12,0.80,311.16,M,-33.324,M,,*71
2017-12-01 15:54:24 1512161664.840332: $GPRMC,205425,A,3946.9582,N,08404.9824,W,0.0000,0.000,011217,,*3E
2017-12-01 15:54:24 1512161664.840394: $GPGSA,A,3,1,10,11,12,14,18,22,25,31,32,24,138,2.0,0.8,1.5*3B
2017-12-01 15:54:26 1512161666.262391: $GPZDA,205426.00,01,12,2017,00,00*67
2017-12-01 15:54:26 1512161666.262532: $GPGGA,205426,3946.9582,N,08404.9823,W,2,12,0.80,309.75,M,-33.324,M,,*79
2017-12-01 15:54:26 1512161666.262600: $GPRMC,205426,A,3946.9582,N,08404.9823,W,0.0000,0.000,011217,,*3A
2017-12-01 15:54:26 1512161666.262661: $GPGSA,A,3,1,10,11,12,14,18,22,25,31,32,24,138,2.0,0.8,1.5*3B
2017-12-01 15:54:26 1512161666.262722: $GPGBS,205426,2.67,M,3.86,M,8.82,M*35
2017-12-01 15:54:26 1512161666.714558: $GPZDA,205427.00,01,12,2017,00,00*66
2017-12-01 15:54:26 1512161666.714744: $GPGGA,205427,3946.9582,N,08404.9824,W,2,12,0.80,311.16,M,-33.324,M,,*73
2017-12-01 15:54:26 1512161666.714818: $GPRMC,205427,A,3946.9582,N,08404.9824,W,0.0000,0.000,011217,,*3C
2017-12-01 15:54:26 1512161666.714884: $GPGSA,A,3,1,10,11,12,14,18,22,25,31,32,24,138,2.0,0.8,1.5*3B
2017-12-01 15:54:26 1512161666.714948: $GPGBS,205427,2.67,M,3.86,M,8.82,M*34
2017-12-01 15:54:27 1512161667.727159: $GPGSV,3,1,12,01,16,315,40,10,65,136,47,11,11,297,26,12,25,066,41*71
2017-12-01 15:54:27 1512161667.729871: $GPGSV,3,2,12,14,57,298,43,18,33,138,46,22,06,312,42,25,32,111,44*7E
2017-12-01 15:54:27 1512161667.729991: $GPGSV,3,3,12,31,39,214,49,32,69,342,47,24,10,046,31,138,38,213,45*47
2017-12-01 15:54:27 1512161667.840519: $GPZDA,205428.00,01,12,2017,00,00*69
2017-12-01 15:54:27 1512161667.840680: $GPGGA,205428,3946.9582,N,08404.9824,W,2,12,0.80,311.16,M,-33.324,M,,*7C
2017-12-01 15:54:27 1512161667.840747: $GPRMC,205428,A,3946.9582,N,08404.9824,W,0.0000,0.000,011217,,*33
2017-12-01 15:54:27 1512161667.840831: $GPGSA,A,3,1,10,11,12,14,18,22,25,31,32,24,138,2.0,0.8,1.5*3B
2017-12-01 15:54:28 1512161668.391722: $GPZDA,205429.00,01,12,2017,00,00*68
2017-12-01 15:54:28 1512161668.391905: $GPGGA,205429,3946.9582,N,08404.9824,W,2,12,0.80,311.16,M,-33.324,M,,*7D
2017-12-01 15:54:28 1512161668.391990: $GPRMC,205429,A,3946.9582,N,08404.9824,W,0.0000,0.000,011217,,*32
2017-12-01 15:54:28 1512161668.392053: $GPGSA,A,3,1,10,11,12,14,18,22,25,31,32,24,138,2.0,0.8,1.5*3B
2017-12-01 15:54:29 1512161669.391026: $GPZDA,205430.00,01,12,2017,00,00*60
2017-12-01 15:54:29 1512161669.391204: $GPGGA,205430,3946.9582,N,08404.9824,W,2,12,0.80,311.16,M,-33.324,M,,*75
2017-12-01 15:54:29 1512161669.391271: $GPRMC,205430,A,3946.9582,N,08404.9824,W,0.0000,0.000,011217,,*3A
2017-12-01 15:54:29 1512161669.391333: $GPGSA,A,3,1,10,11,12,14,18,22,25,31,32,24,138,2.0,0.8,1.5*3B
2017-12-01 15:54:30 1512161670.724288: $GPGSV,3,1,12,01,16,315,40,10,65,136,46,11,11,297,27,12,25,066,41*71
2017-12-01 15:54:30 1512161670.724468: $GPGSV,3,2,12,14,57,298,43,18,33,138,47,22,06,312,41,25,32,111,44*7C
2017-12-01 15:54:30 1512161670.724534: $GPGSV,3,3,12,31,39,214,49,32,69,342,47,24,10,046,30,138,38,213,46*45
2017-12-01 15:54:30 1512161670.837844: $GPZDA,205431.00,01,12,2017,00,00*61
2017-12-01 15:54:30 1512161670.837993: $GPGGA,205431,3946.9582,N,08404.9824,W,2,12,0.80,311.16,M,-33.324,M,,*74
2017-12-01 15:54:30 1512161670.838059: $GPRMC,205431,A,3946.9582,N,08404.9824,W,0.0000,0.000,011217,,*3B
2017-12-01 15:54:30 1512161670.838120: $GPGSA,A,3,1,10,11,12,14,18,22,25,31,32,24,138,2.0,0.8,1.5*3B
2017-12-01 15:54:31 1512161671.393589: $GPZDA,205432.00,01,12,2017,00,00*62
2017-12-01 15:54:31 1512161671.393760: $GPGGA,205432,3946.9582,N,08404.9824,W,2,12,0.80,311.16,M,-33.324,M,,*77
2017-12-01 15:54:31 1512161671.393848: $GPRMC,205432,A,3946.9582,N,08404.9824,W,0.0000,0.000,011217,,*38
2017-12-01 15:54:31 1512161671.393910: $GPGSA,A,3,1,10,11,12,14,18,22,25,31,32,24,138,2.0,0.8,1.5*3B
2017-12-01 15:54:32 1512161672.391676: $GPZDA,205433.00,01,12,2017,00,00*63
2017-12-01 15:54:32 1512161672.391865: $GPGGA,205433,3946.9582,N,08404.9824,W,2,12,0.80,311.16,M,-33.324,M,,*76
2017-12-01 15:54:32 1512161672.391950: $GPRMC,205433,A,3946.9582,N,08404.9824,W,0.0000,0.000,011217,,*39
2017-12-01 15:54:32 1512161672.392064: $GPGSA,A,3,1,10,11,12,14,18,22,25,31,32,24,138,2.0,0.8,1.5*3B
2017-12-01 15:54:33 1512161673.725879: $GPGSV,3,1,12,01,16,315,41,10,65,136,46,11,11,297,27,12,25,066,41*70
2017-12-01 15:54:33 1512161673.726078: $GPGSV,3,2,12,14,57,298,42,18,33,138,47,22,06,312,42,25,32,111,44*7E
2017-12-01 15:54:33 1512161673.726145: $GPGSV,3,3,12,31,39,214,50,32,69,342,47,24,10,046,26,138,38,213,46*4A
2017-12-01 15:54:33 1512161673.839322: $GPZDA,205434.00,01,12,2017,00,00*64
2017-12-01 15:54:33 1512161673.839500: $GPGGA,205434,3946.9582,N,08404.9824,W,2,12,0.80,311.16,M,-33.324,M,,*71
2017-12-01 15:54:33 1512161673.839568: $GPRMC,205434,A,3946.9582,N,08404.9824,W,0.0000,0.000,011217,,*3E
2017-12-01 15:54:33 1512161673.839629: $GPGSA,A,3,1,10,11,12,14,18,22,25,31,32,24,138,2.0,0.8,1.5*3B
2017-12-01 15:54:34 1512161674.390158: $GPZDA,205435.00,01,12,2017,00,00*65
2017-12-01 15:54:34 1512161674.390328: $GPGGA,205435,3946.9582,N,08404.9824,W,2,12,0.80,311.16,M,-33.324,M,,*70
2017-12-01 15:54:34 1512161674.390395: $GPRMC,205435,A,3946.9582,N,08404.9824,W,0.0000,0.000,011217,,*3F
2017-12-01 15:54:34 1512161674.390456: $GPGSA,A,3,1,10,11,12,14,18,22,25,31,32,24,138,2.0,0.8,1.5*3B
2017-12-01 15:54:35 1512161675.392441: $GPZDA,205436.00,01,12,2017,00,00*66
2017-12-01 15:54:35 1512161675.392736: $GPGGA,205436,3946.9582,N,08404.9824,W,2,12,0.80,311.16,M,-33.324,M,,*73
2017-12-01 15:54:35 1512161675.392941: $GPRMC,205436,A,3946.9582,N,08404.9824,W,0.0000,0.000,011217,,*3C
2017-12-01 15:54:35 1512161675.393061: $GPGSA,A,3,1,10,11,12,14,18,22,25,31,32,24,138,2.0,0.8,1.5*3B
2017-12-01 15:54:36 1512161676.728121: $GPGSV,3,1,12,01,16,315,41,10,65,136,47,11,11,297,26,12,25,066,41*70
2017-12-01 15:54:36 1512161676.728300: $GPGSV,3,2,12,14,57,298,43,18,33,138,46,22,06,312,43,25,32,111,45*7E
2017-12-01 15:54:36 1512161676.728366: $GPGSV,3,3,12,31,39,214,49,32,69,342,47,24,10,046,27,138,38,213,45*40
2017-12-01 15:54:36 1512161676.841505: $GPZDA,205437.00,01,12,2017,00,00*67
2017-12-01 15:54:36 1512161676.841661: $GPGGA,205437,3946.9582,N,08404.9824,W,2,12,0.80,311.16,M,-33.324,M,,*72
2017-12-01 15:54:36 1512161676.841726: $GPRMC,205437,A,3946.9582,N,08404.9824,W,0.0000,0.000,011217,,*3D
2017-12-01 15:54:36 1512161676.841788: $GPGSA,A,3,1,10,11,12,14,18,22,25,31,32,24,138,2.0,0.8,1.5*3B
