2017-11-15 19:51:39 1510793499.906534: {"class":"VERSION","release":"3.17","rev":"3.17","proto_major":3,"proto_minor":12}
2017-11-15 19:51:39 1510793499.907154: {"class":"DEVICES","devices":[{"class":"DEVICE","path":"/dev/ttyUSB0","driver":"SiRF","subtype":"9\u0006GSD4e_4.1.2-P1_RPATCH.05-F-GPS-4R-1510281 11/03/2015 307","activated":"2017-11-16T00:51:39.894Z","flags":1,"native":1,"bps":4800,"parity":"N","stopbits":1,"cycle":1.00}]}
2017-11-15 19:51:39 1510793499.907284: {"class":"WATCH","enable":true,"json":false,"nmea":true,"raw":0,"scaled":false,"timing":false,"split24":false,"pps":false}
2017-11-15 19:51:40 1510793500.345572: $GPZDA,005139.00,16,11,2017,00,00*6B
2017-11-15 19:51:40 1510793500.345749: $GPGGA,005139,3946.9520,N,08404.9589,W,1,07,1.00,296.90,M,-33.324,M,,*77
2017-11-15 19:51:40 1510793500.345834: $GPRMC,005139,A,3946.9520,N,08404.9589,W,0.0000,0.000,161117,,*33
2017-11-15 19:51:40 1510793500.345892: $GPGSA,A,3,32,16,31,26,14,22,23,,,,,,3.4,1.0,2.9*3B
2017-11-15 19:51:41 1510793501.330326: $GPZDA,005140.00,16,11,2017,00,00*65
2017-11-15 19:51:41 1510793501.330491: $GPGGA,005140,3946.9516,N,08404.9596,W,1,07,1.00,296.18,M,-33.324,M,,*72
2017-11-15 19:51:41 1510793501.330553: $GPRMC,005140,A,3946.9516,N,08404.9596,W,0.7278,203.636,161117,,*3E
2017-11-15 19:51:41 1510793501.330609: $GPGSA,A,3,32,16,31,26,14,22,23,,,,,,3.4,1.0,2.9*3B
2017-11-15 19:51:41 1510793501.330662: $GPGBS,005140,13.59,M,20.35,M,67.34,M*02
2017-11-15 19:51:42 1510793502.681223: $GPGSV,3,1,10,32,28,115,17,16,33,190,18,31,59,039,20,26,64,166,27*70
2017-11-15 19:51:42 1510793502.681411: $GPGSV,3,2,10,14,47,105,24,22,49,255,16,03,44,288,00,23,19,304,19*72
2017-11-15 19:51:42 1510793502.681470: $GPGSV,3,3,10,29,13,061,00,25,09,037,00*7C
2017-11-15 19:51:42 1510793502.794378: $GPZDA,005141.00,16,11,2017,00,00*64
2017-11-15 19:51:42 1510793502.794538: $GPGGA,005141,3946.9516,N,08404.9596,W,1,07,1.00,296.18,M,-33.324,M,,*73
2017-11-15 19:51:42 1510793502.794599: $GPRMC,005141,A,3946.9516,N,08404.9596,W,0.3423,184.197,161117,,*33
2017-11-15 19:51:42 1510793502.794656: $GPGSA,A,3,32,16,31,26,14,22,23,,,,,,3.4,1.0,2.9*3B
2017-11-15 19:51:43 1510793503.329081: $GPZDA,005142.00,16,11,2017,00,00*67
2017-11-15 19:51:43 1510793503.329241: $GPGGA,005142,3946.9520,N,08404.9596,W,1,07,1.00,296.82,M,-33.324,M,,*76
2017-11-15 19:51:43 1510793503.329302: $GPRMC,005142,A,3946.9520,N,08404.9596,W,0.4179,328.778,161117,,*3B
2017-11-15 19:51:43 1510793503.329358: $GPGSA,A,3,32,16,31,26,14,22,23,,,,,,3.4,1.0,2.9*3B
2017-11-15 19:51:44 1510793504.344851: $GPZDA,005143.00,16,11,2017,00,00*66
2017-11-15 19:51:44 1510793504.345016: $GPGGA,005143,3946.9520,N,08404.9596,W,1,07,1.00,296.82,M,-33.324,M,,*77
2017-11-15 19:51:44 1510793504.345080: $GPRMC,005143,A,3946.9520,N,08404.9596,W,1.0002,334.331,161117,,*36
2017-11-15 19:51:44 1510793504.345135: $GPGSA,A,3,32,16,31,26,14,22,23,,,,,,3.4,1.0,2.9*3B
2017-11-15 19:51:45 1510793505.665654: $GPGSV,3,1,10,32,28,115,16,16,33,190,18,31,59,039,19,26,64,166,27*7B
2017-11-15 19:51:45 1510793505.665859: $GPGSV,3,2,10,14,47,105,24,22,49,255,17,03,44,288,04,23,19,304,19*77
2017-11-15 19:51:45 1510793505.665947: $GPGSV,3,3,10,29,13,061,00,25,09,037,00*7C
2017-11-15 19:51:45 1510793505.779321: $GPZDA,005144.00,16,11,2017,00,00*61
2017-11-15 19:51:45 1510793505.779479: $GPGGA,005144,3946.9524,N,08404.9595,W,1,07,1.00,296.06,M,-33.324,M,,*7B
2017-11-15 19:51:45 1510793505.779542: $GPRMC,005144,A,3946.9524,N,08404.9595,W,0.7246,344.668,161117,,*3C
2017-11-15 19:51:45 1510793505.779599: $GPGSA,A,3,32,16,31,26,14,22,23,,,,,,3.4,1.0,2.9*3B
2017-11-15 19:51:46 1510793506.404353: $GPZDA,005145.00,16,11,2017,00,00*60
2017-11-15 19:51:46 1510793506.404515: $GPGGA,005145,3946.9528,N,08404.9595,W,1,07,1.00,296.70,M,-33.324,M,,*77
2017-11-15 19:51:46 1510793506.404576: $GPRMC,005145,A,3946.9528,N,08404.9595,W,0.7621,287.945,161117,,*3A
2017-11-15 19:51:46 1510793506.404631: $GPGSA,A,3,32,16,31,26,14,22,23,,,,,,3.4,1.0,2.9*3B
2017-11-15 19:51:47 1510793507.346839: $GPZDA,005146.00,16,11,2017,00,00*63
2017-11-15 19:51:47 1510793507.347001: $GPGGA,005146,3946.9528,N,08404.9602,W,1,07,1.00,296.62,M,-33.324,M,,*7A
2017-11-15 19:51:47 1510793507.347114: $GPRMC,005146,A,3946.9528,N,08404.9602,W,0.7267,273.794,161117,,*3B
2017-11-15 19:51:47 1510793507.347172: $GPGSA,A,3,32,16,31,26,14,22,23,,,,,,3.4,1.0,2.9*3B
2017-11-15 19:51:48 1510793508.666034: $GPGSV,3,1,10,32,28,115,15,16,33,190,18,31,59,039,18,26,64,166,27*79
2017-11-15 19:51:48 1510793508.666204: $GPGSV,3,2,10,14,47,105,24,22,49,255,17,03,44,288,04,23,19,304,19*77
2017-11-15 19:51:48 1510793508.666264: $GPGSV,3,3,10,29,13,061,00,25,09,037,00*7C
2017-11-15 19:51:48 1510793508.779577: $GPZDA,005147.00,16,11,2017,00,00*62
2017-11-15 19:51:48 1510793508.779722: $GPGGA,005147,3946.9528,N,08404.9602,W,1,07,1.00,296.62,M,-33.324,M,,*7B
2017-11-15 19:51:48 1510793508.779781: $GPRMC,005147,A,3946.9528,N,08404.9602,W,0.2422,93.794,161117,,*04
2017-11-15 19:51:48 1510793508.779837: $GPGSA,A,3,32,16,31,26,14,22,23,,,,,,3.4,1.0,2.9*3B
2017-11-15 19:51:49 1510793509.346419: $GPZDA,005148.00,16,11,2017,00,00*6D
2017-11-15 19:51:49 1510793509.346575: $GPGGA,005148,3946.9528,N,08404.9595,W,1,07,1.00,296.70,M,-33.324,M,,*7A
2017-11-15 19:51:49 1510793509.346636: $GPRMC,005148,A,3946.9528,N,08404.9595,W,0.8905,57.384,161117,,*09
2017-11-15 19:51:49 1510793509.346691: $GPGSA,A,3,32,16,31,26,14,22,23,,,,,,3.4,1.0,2.9*3B
