2017-12-01 11:57:00 1512147420.426999: {"class":"VERSION","release":"3.16","rev":"3.16-4","proto_major":3,"proto_minor":11}
2017-12-01 11:57:00 1512147420.427578: {"class":"DEVICES","devices":[{"class":"DEVICE","path":"/dev/ttyUSB0","driver":"SiRF","subtype":"9\u0006GSD4e_4.1.2-P1_RPATCH.05-F-GPS-4R-1510281 11/03/2015 307","activated":"2017-12-01T16:57:00.209Z","flags":1,"native":1,"bps":4800,"parity":"N","stopbits":1,"cycle":1.00}]}
2017-12-01 11:57:00 1512147420.427708: {"class":"WATCH","enable":true,"json":false,"nmea":true,"raw":0,"scaled":false,"timing":false,"split24":false,"pps":false}
2017-12-01 11:57:00 1512147420.659204: $GPGSV,3,1,12,10,17,276,32,13,38,048,45,15,70,058,45,18,48,291,45*78
2017-12-01 11:57:00 1512147420.659405: $GPGSV,3,2,12,20,58,060,44,21,72,298,45,24,25,145,45,27,12,321,40*74
2017-12-01 11:57:00 1512147420.659472: $GPGSV,3,3,12,29,18,193,44,05,10,081,16,04,07,133,00,138,38,213,46*48
2017-12-01 11:57:00 1512147420.772635: $GPZDA,165701.00,01,12,2017,00,00*64
2017-12-01 11:57:00 1512147420.772789: $GPGGA,165701,3946.9554,N,08404.9827,W,2,11,0.80,298.81,M,-33.324,M,,*74
2017-12-01 11:57:00 1512147420.772855: $GPRMC,165701,A,3946.9554,N,08404.9827,W,0.0000,0.000,011217,,*36
2017-12-01 11:57:00 1512147420.772916: $GPGSA,A,3,10,13,15,18,20,21,24,27,29,5,138,,2.0,0.8,1.5*34
2017-12-01 11:57:01 1512147421.916737: $GPZDA,165702.00,01,12,2017,00,00*67
2017-12-01 11:57:01 1512147421.917072: $GPGGA,165702,3946.9558,N,08404.9834,W,2,11,0.80,299.37,M,-33.324,M,,*75
2017-12-01 11:57:01 1512147421.917210: $GPRMC,165702,A,3946.9558,N,08404.9834,W,0.0000,0.000,011217,,*3B
2017-12-01 11:57:01 1512147421.917344: $GPGSA,A,3,10,13,15,18,20,21,24,27,29,5,138,,2.0,0.8,1.5*34
2017-12-01 11:57:02 1512147422.367511: $GPZDA,165703.00,01,12,2017,00,00*66
2017-12-01 11:57:02 1512147422.367816: $GPGGA,165703,3946.9558,N,08404.9834,W,2,11,0.80,299.37,M,-33.324,M,,*74
2017-12-01 11:57:02 1512147422.367942: $GPRMC,165703,A,3946.9558,N,08404.9834,W,0.0000,0.000,011217,,*3A
2017-12-01 11:57:02 1512147422.368086: $GPGSA,A,3,10,13,15,18,20,21,24,27,29,5,138,,2.0,0.8,1.5*34
2017-12-01 11:57:03 1512147423.664062: $GPGSV,3,1,12,10,17,276,32,13,37,046,45,15,70,058,45,18,48,291,45*79
2017-12-01 11:57:03 1512147423.664281: $GPGSV,3,2,12,20,58,060,44,21,72,298,45,24,25,145,45,27,12,319,40*7F
2017-12-01 11:57:03 1512147423.664351: $GPGSV,3,3,12,29,18,193,44,05,09,081,24,04,07,133,00,138,38,213,46*41
2017-12-01 11:57:03 1512147423.777479: $GPZDA,165704.00,01,12,2017,00,00*61
2017-12-01 11:57:03 1512147423.777646: $GPGGA,165704,3946.9558,N,08404.9834,W,2,11,0.80,299.37,M,-33.324,M,,*73
2017-12-01 11:57:03 1512147423.777713: $GPRMC,165704,A,3946.9558,N,08404.9834,W,0.0000,0.000,011217,,*3D
2017-12-01 11:57:03 1512147423.777774: $GPGSA,A,3,10,13,15,18,20,21,24,27,29,5,138,,2.0,0.8,1.5*34
2017-12-01 11:57:04 1512147424.328378: $GPZDA,165705.00,01,12,2017,00,00*60
2017-12-01 11:57:04 1512147424.328563: $GPGGA,165705,3946.9558,N,08404.9834,W,2,11,0.80,299.37,M,-33.324,M,,*72
2017-12-01 11:57:04 1512147424.328631: $GPRMC,165705,A,3946.9558,N,08404.9834,W,0.0000,0.000,011217,,*3C
2017-12-01 11:57:04 1512147424.328693: $GPGSA,A,3,10,13,15,18,20,21,24,27,29,5,138,,2.0,0.8,1.5*34
2017-12-01 11:57:05 1512147425.326940: $GPZDA,165706.00,01,12,2017,00,00*63
2017-12-01 11:57:05 1512147425.327140: $GPGGA,165706,3946.9558,N,08404.9834,W,2,11,0.80,299.37,M,-33.324,M,,*71
2017-12-01 11:57:05 1512147425.327237: $GPRMC,165706,A,3946.9558,N,08404.9834,W,0.0000,0.000,011217,,*3F
2017-12-01 11:57:05 1512147425.327301: $GPGSA,A,3,10,13,15,18,20,21,24,27,29,5,138,,2.0,0.8,1.5*34
2017-12-01 11:57:06 1512147426.663270: $GPGSV,3,1,12,10,17,276,32,13,37,046,44,15,70,058,44,18,48,291,45*79
2017-12-01 11:57:06 1512147426.663593: $GPGSV,3,2,12,20,58,060,44,21,72,298,45,24,25,145,46,27,12,319,40*7C
2017-12-01 11:57:06 1512147426.663735: $GPGSV,3,3,12,29,18,193,44,05,09,081,26,04,07,133,00,138,38,213,46*43
2017-12-01 11:57:06 1512147426.776576: $GPZDA,165707.00,01,12,2017,00,00*62
2017-12-01 11:57:06 1512147426.776747: $GPGGA,165707,3946.9558,N,08404.9834,W,2,11,0.80,299.37,M,-33.324,M,,*70
2017-12-01 11:57:06 1512147426.776864: $GPRMC,165707,A,3946.9558,N,08404.9834,W,0.0000,0.000,011217,,*3E
2017-12-01 11:57:06 1512147426.776928: $GPGSA,A,3,10,13,15,18,20,21,24,27,29,5,138,,2.0,0.8,1.5*34
2017-12-01 11:57:07 1512147427.328742: $GPZDA,165708.00,01,12,2017,00,00*6D
2017-12-01 11:57:07 1512147427.328917: $GPGGA,165708,3946.9558,N,08404.9834,W,2,11,0.80,299.37,M,-33.324,M,,*7F
2017-12-01 11:57:07 1512147427.328986: $GPRMC,165708,A,3946.9558,N,08404.9834,W,0.0000,0.000,011217,,*31
2017-12-01 11:57:07 1512147427.329047: $GPGSA,A,3,10,13,15,18,20,21,24,27,29,5,138,,2.0,0.8,1.5*34
2017-12-01 11:57:08 1512147428.323357: $GPZDA,165709.00,01,12,2017,00,00*6C
2017-12-01 11:57:08 1512147428.323533: $GPGGA,165709,3946.9558,N,08404.9834,W,2,11,0.80,299.37,M,-33.324,M,,*7E
2017-12-01 11:57:08 1512147428.323603: $GPRMC,165709,A,3946.9558,N,08404.9834,W,0.0000,0.000,011217,,*30
2017-12-01 11:57:08 1512147428.323665: $GPGSA,A,3,10,13,15,18,20,21,24,27,29,5,138,,2.0,0.8,1.5*34
2017-12-01 11:57:09 1512147429.662759: $GPGSV,3,1,12,10,17,276,33,13,37,046,44,15,70,058,45,18,48,291,44*78
2017-12-01 11:57:09 1512147429.667232: $GPGSV,3,2,12,20,58,060,44,21,72,298,45,24,25,145,46,27,12,319,42*7E
2017-12-01 11:57:09 1512147429.667358: $GPGSV,3,3,12,29,18,193,44,05,09,081,27,04,07,133,00,138,38,213,46*42
2017-12-01 11:57:09 1512147429.776200: $GPZDA,165710.00,01,12,2017,00,00*64
2017-12-01 11:57:09 1512147429.776375: $GPGGA,165710,3946.9558,N,08404.9834,W,2,11,0.80,299.37,M,-33.324,M,,*76
2017-12-01 11:57:09 1512147429.776443: $GPRMC,165710,A,3946.9558,N,08404.9834,W,0.0000,0.000,011217,,*38
2017-12-01 11:57:09 1512147429.776505: $GPGSA,A,3,10,13,15,18,20,21,24,27,29,5,138,,2.0,0.8,1.5*34
2017-12-01 11:57:10 1512147430.328364: $GPZDA,165711.00,01,12,2017,00,00*65
2017-12-01 11:57:10 1512147430.328527: $GPGGA,165711,3946.9558,N,08404.9834,W,2,11,0.80,299.37,M,-33.324,M,,*77
2017-12-01 11:57:10 1512147430.328595: $GPRMC,165711,A,3946.9558,N,08404.9834,W,0.0000,0.000,011217,,*39
2017-12-01 11:57:10 1512147430.328656: $GPGSA,A,3,10,13,15,18,20,21,24,27,29,5,138,,2.0,0.8,1.5*34
