2017-12-29 11:36:03 1514565363.047877: {"class":"VERSION","release":"3.16","rev":"3.16-4","proto_major":3,"proto_minor":11}
2017-12-29 11:36:03 1514565363.048218: {"class":"DEVICES","devices":[{"class":"DEVICE","path":"/dev/ttyUSB0","driver":"SiRF","subtype":"9\u0006GSD4e_4.1.2-P1_RPATCH.05-F-GPS-4R-1510281 11/03/2015 307","activated":"2017-12-29T16:36:02.354Z","flags":1,"native":1,"bps":4800,"parity":"N","stopbits":1,"cycle":1.00}]}
2017-12-29 11:36:03 1514565363.048335: {"class":"WATCH","enable":true,"json":false,"nmea":true,"raw":0,"scaled":false,"timing":false,"split24":false,"pps":false}
2017-12-29 11:36:03 1514565363.700309: $GPZDA,163604.22,29,12,2017,00,00*6C
2017-12-29 11:36:03 1514565363.700471: $GPGGA,163604,3946.9595,N,08404.9888,W,1,10,1.00,313.13,M,-33.324,M,,*7C
2017-12-29 11:36:03 1514565363.700537: $GPRMC,163604,A,3946.9595,N,08404.9888,W,0.6550,186.588,291217,,*3A
2017-12-29 11:36:03 1514565363.700598: $GPGSA,A,3,8,10,15,18,20,21,24,27,32,138,,,1.7,1.0,1.3*3A
2017-12-29 11:36:03 1514565363.700656: $GPGBS,163604,10.91,M,10.38,M,30.89,M*09
2017-12-29 11:36:04 1514565364.632207: $GPZDA,163604.32,29,12,2017,00,00*6D
2017-12-29 11:36:04 1514565364.632383: $GPGGA,163604,3946.9595,N,08404.9888,W,1,10,1.00,313.13,M,-33.324,M,,*7C
2017-12-29 11:36:04 1514565364.632451: $GPRMC,163604,A,3946.9595,N,08404.9888,W,0.6846,184.196,291217,,*39
2017-12-29 11:36:04 1514565364.632513: $GPGSA,A,3,8,10,15,18,20,21,24,27,32,138,,,1.7,1.0,1.3*3A
2017-12-29 11:36:04 1514565364.632571: $GPGBS,163604,10.91,M,10.38,M,30.89,M*09
2017-12-29 11:36:05 1514565365.774742: $GPGSV,3,1,11,08,07,315,23,10,49,307,32,15,29,055,35,18,76,004,32*7F
2017-12-29 11:36:05 1514565365.774924: $GPGSV,3,2,11,20,28,102,34,21,54,184,32,24,53,094,37,32,29,244,26*7F
2017-12-29 11:36:05 1514565365.774989: $GPGSV,3,3,11,27,17,280,00,14,10,237,00,138,38,213,00*73
2017-12-29 11:36:05 1514565365.888109: $GPZDA,163605.00,29,12,2017,00,00*6D
2017-12-29 11:36:05 1514565365.888269: $GPGGA,163605,3946.9598,N,08404.9893,W,1,08,1.00,310.88,M,-33.324,M,,*72
2017-12-29 11:36:05 1514565365.888335: $GPRMC,163605,A,3946.9598,N,08404.9893,W,0.1867,180.000,291217,,*31
2017-12-29 11:36:05 1514565365.888396: $GPGSA,A,3,8,10,15,18,20,21,24,32,,,,,1.7,1.0,1.3*05
2017-12-29 11:36:06 1514565366.339388: $GPZDA,163606.00,29,12,2017,00,00*6E
2017-12-29 11:36:06 1514565366.339555: $GPGGA,163606,3946.9601,N,08404.9906,W,1,08,1.00,308.55,M,-33.324,M,,*76
2017-12-29 11:36:06 1514565366.339621: $GPRMC,163606,A,3946.9601,N,08404.9906,W,0.0407,142.014,291217,,*3C
2017-12-29 11:36:06 1514565366.339683: $GPGSA,A,3,8,10,15,18,20,21,24,32,,,,,1.7,1.0,1.3*05
2017-12-29 11:36:06 1514565366.791330: $GPZDA,163607.00,29,12,2017,00,00*6F
2017-12-29 11:36:06 1514565366.791504: $GPGGA,163607,3946.9604,N,08404.9911,W,1,08,1.00,306.31,M,-33.324,M,,*78
2017-12-29 11:36:06 1514565366.791572: $GPRMC,163607,A,3946.9604,N,08404.9911,W,0.2422,93.794,291217,,*09
2017-12-29 11:36:06 1514565366.791633: $GPGSA,A,3,8,10,15,18,20,21,24,32,,,,,1.7,1.0,1.3*05
2017-12-29 11:36:07 1514565367.752897: $GPGSV,3,1,11,08,07,315,25,10,49,307,45,15,29,055,50,18,76,004,44*7B
2017-12-29 11:36:07 1514565367.753106: $GPGSV,3,2,11,20,28,102,49,21,54,184,46,24,53,094,52,32,29,244,37*75
2017-12-29 11:36:07 1514565367.753183: $GPGSV,3,3,11,27,17,280,31,14,10,237,00,138,38,213,44*71
2017-12-29 11:36:07 1514565367.866166: $GPZDA,163608.00,29,12,2017,00,00*60
2017-12-29 11:36:07 1514565367.866403: $GPGGA,163608,3946.9604,N,08404.9917,W,1,10,1.00,304.82,M,-33.324,M,,*72
2017-12-29 11:36:07 1514565367.866498: $GPRMC,163608,A,3946.9604,N,08404.9917,W,0.0000,0.000,291217,,*36
2017-12-29 11:36:07 1514565367.866564: $GPGSA,A,3,8,10,15,18,20,21,24,32,27,138,,,1.7,1.0,1.3*3A
2017-12-29 11:36:08 1514565368.351434: $GPZDA,163609.00,29,12,2017,00,00*61
2017-12-29 11:36:08 1514565368.351621: $GPGGA,163609,3946.9607,N,08404.9923,W,1,10,1.00,302.57,M,-33.324,M,,*79
2017-12-29 11:36:08 1514565368.351690: $GPRMC,163609,A,3946.9607,N,08404.9923,W,0.0000,0.000,291217,,*33
2017-12-29 11:36:08 1514565368.351751: $GPGSA,A,3,8,10,15,18,20,21,24,32,27,138,,,1.7,1.0,1.3*3A
2017-12-29 11:36:09 1514565369.350666: $GPZDA,163610.00,29,12,2017,00,00*69
2017-12-29 11:36:09 1514565369.350836: $GPGGA,163610,3946.9607,N,08404.9929,W,1,10,1.00,301.09,M,-33.324,M,,*73
2017-12-29 11:36:09 1514565369.350903: $GPRMC,163610,A,3946.9607,N,08404.9929,W,0.0000,0.000,291217,,*31
2017-12-29 11:36:09 1514565369.350965: $GPGSA,A,3,8,10,15,18,20,21,24,32,27,138,,,1.7,1.0,1.3*3A
2017-12-29 11:36:09 1514565369.351023: $GPGBS,163610,10.91,M,10.38,M,30.89,M*0C
2017-12-29 11:36:10 1514565370.688566: $GPGSV,3,1,11,08,07,315,30,10,49,307,45,15,29,055,50,18,76,004,45*7E
2017-12-29 11:36:10 1514565370.688763: $GPGSV,3,2,11,20,28,102,49,21,54,184,46,24,53,094,51,32,29,244,38*79
2017-12-29 11:36:10 1514565370.688829: $GPGSV,3,3,11,27,17,280,32,14,10,237,00,138,38,213,45*73
2017-12-29 11:36:10 1514565370.802127: $GPZDA,163611.00,29,12,2017,00,00*68
2017-12-29 11:36:10 1514565370.802301: $GPGGA,163611,3946.9613,N,08404.9928,W,1,10,1.00,299.56,M,-33.324,M,,*7C
2017-12-29 11:36:10 1514565370.802393: $GPRMC,163611,A,3946.9613,N,08404.9928,W,0.0000,0.000,291217,,*34
2017-12-29 11:36:10 1514565370.802455: $GPGSA,A,3,8,10,15,18,20,21,24,32,27,138,,,1.7,1.0,1.3*3A
2017-12-29 11:36:11 1514565371.352953: $GPZDA,163612.00,29,12,2017,00,00*6B
2017-12-29 11:36:11 1514565371.353129: $GPGGA,163612,3946.9613,N,08404.9934,W,1,10,1.00,298.08,M,-33.324,M,,*78
2017-12-29 11:36:11 1514565371.353197: $GPRMC,163612,A,3946.9613,N,08404.9934,W,0.0000,0.000,291217,,*3A
2017-12-29 11:36:11 1514565371.353262: $GPGSA,A,3,8,10,15,18,20,21,24,32,27,138,,,1.7,1.0,1.3*3A
2017-12-29 11:36:12 1514565372.353347: $GPZDA,163613.00,29,12,2017,00,00*6A
2017-12-29 11:36:12 1514565372.353598: $GPGGA,163613,3946.9617,N,08404.9940,W,1,10,1.00,297.23,M,-33.324,M,,*78
2017-12-29 11:36:12 1514565372.353667: $GPRMC,163613,A,3946.9617,N,08404.9940,W,0.0000,0.000,291217,,*3C
2017-12-29 11:36:12 1514565372.353730: $GPGSA,A,3,8,10,15,18,20,21,24,32,27,138,,,1.7,1.0,1.3*3A
2017-12-29 11:36:13 1514565373.690251: $GPGSV,3,1,11,08,07,315,32,10,49,307,45,15,29,055,50,18,76,004,45*7C
2017-12-29 11:36:13 1514565373.690439: $GPGSV,3,2,11,20,28,102,49,21,54,184,46,24,53,094,51,32,29,244,38*79
2017-12-29 11:36:13 1514565373.690507: $GPGSV,3,3,11,27,17,280,32,14,10,237,00,138,38,213,45*73
2017-12-29 11:36:13 1514565373.803688: $GPZDA,163614.00,29,12,2017,00,00*6D
2017-12-29 11:36:13 1514565373.803860: $GPGGA,163614,3946.9632,N,08404.9980,W,2,10,1.20,283.03,M,-33.324,M,,*72
2017-12-29 11:36:13 1514565373.803927: $GPRMC,163614,A,3946.9632,N,08404.9980,W,0.0000,0.000,291217,,*30
2017-12-29 11:36:13 1514565373.803987: $GPGSA,A,3,8,10,15,18,20,21,24,32,27,138,,,1.7,1.2,1.3*38
2017-12-29 11:36:14 1514565374.353538: $GPZDA,163615.00,29,12,2017,00,00*6C
2017-12-29 11:36:14 1514565374.353737: $GPGGA,163615,3946.9632,N,08404.9980,W,2,10,1.00,283.03,M,-33.324,M,,*71
2017-12-29 11:36:14 1514565374.353807: $GPRMC,163615,A,3946.9632,N,08404.9980,W,0.0000,0.000,291217,,*31
2017-12-29 11:36:14 1514565374.353868: $GPGSA,A,3,8,10,15,18,20,21,24,32,27,138,,,1.7,1.0,1.3*3A
2017-12-29 11:36:15 1514565375.353113: $GPZDA,163616.00,29,12,2017,00,00*6F
2017-12-29 11:36:15 1514565375.353293: $GPGGA,163616,3946.9632,N,08404.9980,W,2,10,1.00,283.03,M,-33.324,M,,*72
2017-12-29 11:36:15 1514565375.353360: $GPRMC,163616,A,3946.9632,N,08404.9980,W,0.0000,0.000,291217,,*32
2017-12-29 11:36:15 1514565375.353422: $GPGSA,A,3,8,10,15,18,20,21,24,32,27,138,,,1.7,1.0,1.3*3A
2017-12-29 11:36:16 1514565376.686132: $GPGSV,3,1,11,08,07,315,34,10,49,307,45,15,29,055,50,18,76,004,45*7A
2017-12-29 11:36:16 1514565376.686298: $GPGSV,3,2,11,20,28,102,49,21,54,184,46,24,53,094,51,32,29,244,38*79
2017-12-29 11:36:16 1514565376.686365: $GPGSV,3,3,11,27,17,280,31,14,10,237,00,138,38,213,44*71
2017-12-29 11:36:16 1514565376.799882: $GPZDA,163617.00,29,12,2017,00,00*6E
2017-12-29 11:36:16 1514565376.800069: $GPGGA,163617,3946.9628,N,08404.9981,W,2,10,1.00,283.79,M,-33.324,M,,*74
2017-12-29 11:36:16 1514565376.800136: $GPRMC,163617,A,3946.9628,N,08404.9981,W,0.0000,0.000,291217,,*39
2017-12-29 11:36:16 1514565376.800252: $GPGSA,A,3,8,10,15,18,20,21,24,32,27,138,,,1.7,1.0,1.3*3A
2017-12-29 11:36:17 1514565377.424979: $GPZDA,163618.00,29,12,2017,00,00*61
2017-12-29 11:36:17 1514565377.425149: $GPGGA,163618,3946.9628,N,08404.9981,W,2,10,1.00,283.79,M,-33.324,M,,*7B
2017-12-29 11:36:17 1514565377.425221: $GPRMC,163618,A,3946.9628,N,08404.9981,W,0.0000,0.000,291217,,*36
2017-12-29 11:36:17 1514565377.425283: $GPGSA,A,3,8,10,15,18,20,21,24,32,27,138,,,1.7,1.0,1.3*3A
