2017-12-01 11:56:16 1512147376.297312: {"class":"VERSION","release":"3.16","rev":"3.16-4","proto_major":3,"proto_minor":11}
2017-12-01 11:56:16 1512147376.297775: {"class":"DEVICES","devices":[{"class":"DEVICE","path":"/dev/ttyUSB0","driver":"SiRF","subtype":"9\u0006GSD4e_4.1.2-P1_RPATCH.05-F-GPS-4R-1510281 11/03/2015 307","activated":"2017-12-01T16:56:16.225Z","flags":1,"native":1,"bps":4800,"parity":"N","stopbits":1,"cycle":1.00}]}
2017-12-01 11:56:16 1512147376.297899: {"class":"WATCH","enable":true,"json":false,"nmea":true,"raw":0,"scaled":false,"timing":false,"split24":false,"pps":false}
2017-12-01 11:56:16 1512147376.674826: $GPGSV,3,1,12,13,38,048,45,15,71,060,46,18,47,291,44,20,59,058,44*79
2017-12-01 11:56:16 1512147376.675024: $GPGSV,3,2,12,21,72,300,45,24,25,145,46,27,12,321,41,29,19,193,44*77
2017-12-01 11:56:16 1512147376.675093: $GPGSV,3,3,12,05,10,081,16,10,17,276,40,04,08,132,00,138,38,213,46*4F
2017-12-01 11:56:16 1512147376.788454: $GPZDA,165617.00,01,12,2017,00,00*62
2017-12-01 11:56:16 1512147376.788644: $GPGGA,165617,3946.9583,N,08404.9836,W,2,11,0.80,295.35,M,-33.324,M,,*7A
2017-12-01 11:56:16 1512147376.788713: $GPRMC,165617,A,3946.9583,N,08404.9836,W,0.0000,0.000,011217,,*3A
2017-12-01 11:56:16 1512147376.788775: $GPGSA,A,3,13,15,18,20,21,24,27,29,5,10,138,,2.0,0.8,1.5*34
2017-12-01 11:56:17 1512147377.336461: $GPZDA,165618.00,01,12,2017,00,00*6D
2017-12-01 11:56:17 1512147377.336632: $GPGGA,165618,3946.9583,N,08404.9836,W,2,11,0.80,295.35,M,-33.324,M,,*75
2017-12-01 11:56:17 1512147377.336702: $GPRMC,165618,A,3946.9583,N,08404.9836,W,0.0000,0.000,011217,,*35
2017-12-01 11:56:17 1512147377.336766: $GPGSA,A,3,13,15,18,20,21,24,27,29,5,10,138,,2.0,0.8,1.5*34
2017-12-01 11:56:18 1512147378.342783: $GPZDA,165619.00,01,12,2017,00,00*6C
2017-12-01 11:56:18 1512147378.342984: $GPGGA,165619,3946.9583,N,08404.9836,W,2,11,0.80,295.35,M,-33.324,M,,*74
2017-12-01 11:56:18 1512147378.343054: $GPRMC,165619,A,3946.9583,N,08404.9836,W,0.0000,0.000,011217,,*34
2017-12-01 11:56:18 1512147378.343117: $GPGSA,A,3,13,15,18,20,21,24,27,29,5,10,138,,2.0,0.8,1.5*34
2017-12-01 11:56:19 1512147379.673170: $GPGSV,3,1,12,13,38,048,45,15,71,060,46,18,47,291,44,20,59,058,44*79
2017-12-01 11:56:19 1512147379.673352: $GPGSV,3,2,12,21,72,300,45,24,25,145,46,27,12,321,41,29,19,193,44*77
2017-12-01 11:56:19 1512147379.673419: $GPGSV,3,3,12,05,10,081,17,10,17,276,39,04,08,132,00,138,38,213,46*40
2017-12-01 11:56:19 1512147379.786874: $GPZDA,165620.00,01,12,2017,00,00*66
2017-12-01 11:56:19 1512147379.787044: $GPGGA,165620,3946.9580,N,08404.9837,W,2,11,0.80,296.11,M,-33.324,M,,*79
2017-12-01 11:56:19 1512147379.787113: $GPRMC,165620,A,3946.9580,N,08404.9837,W,0.0000,0.000,011217,,*3C
2017-12-01 11:56:19 1512147379.787194: $GPGSA,A,3,13,15,18,20,21,24,27,29,5,10,138,,2.0,0.8,1.5*34
2017-12-01 11:56:20 1512147380.411957: $GPZDA,165621.00,01,12,2017,00,00*67
2017-12-01 11:56:20 1512147380.412134: $GPGGA,165621,3946.9580,N,08404.9837,W,2,11,0.80,296.11,M,-33.324,M,,*78
2017-12-01 11:56:20 1512147380.412202: $GPRMC,165621,A,3946.9580,N,08404.9837,W,0.0000,0.000,011217,,*3D
2017-12-01 11:56:20 1512147380.412263: $GPGSA,A,3,13,15,18,20,21,24,27,29,5,10,138,,2.0,0.8,1.5*34
2017-12-01 11:56:21 1512147381.338644: $GPZDA,165622.00,01,12,2017,00,00*64
2017-12-01 11:56:21 1512147381.338961: $GPGGA,165622,3946.9580,N,08404.9837,W,2,11,0.80,296.11,M,-33.324,M,,*7B
2017-12-01 11:56:21 1512147381.339090: $GPRMC,165622,A,3946.9580,N,08404.9837,W,0.0000,0.000,011217,,*3E
2017-12-01 11:56:21 1512147381.339210: $GPGSA,A,3,13,15,18,20,21,24,27,29,5,10,138,,2.0,0.8,1.5*34
2017-12-01 11:56:22 1512147382.672189: $GPGSV,3,1,12,13,38,048,45,15,71,060,46,18,47,291,44,20,59,058,44*79
2017-12-01 11:56:22 1512147382.672370: $GPGSV,3,2,12,21,72,300,45,24,25,145,46,27,12,321,41,29,19,193,44*77
2017-12-01 11:56:22 1512147382.672437: $GPGSV,3,3,12,05,10,081,15,10,17,276,39,04,08,132,00,138,38,213,46*42
2017-12-01 11:56:22 1512147382.785584: $GPZDA,165623.00,01,12,2017,00,00*65
2017-12-01 11:56:22 1512147382.785769: $GPGGA,165623,3946.9580,N,08404.9837,W,2,11,0.80,296.11,M,-33.324,M,,*7A
2017-12-01 11:56:22 1512147382.785885: $GPRMC,165623,A,3946.9580,N,08404.9837,W,0.0000,0.000,011217,,*3F
2017-12-01 11:56:22 1512147382.785948: $GPGSA,A,3,13,15,18,20,21,24,27,29,5,10,138,,2.0,0.8,1.5*34
2017-12-01 11:56:23 1512147383.352727: $GPZDA,165624.00,01,12,2017,00,00*62
2017-12-01 11:56:23 1512147383.352899: $GPGGA,165624,3946.9580,N,08404.9837,W,2,11,0.80,296.11,M,-33.324,M,,*7D
2017-12-01 11:56:23 1512147383.352965: $GPRMC,165624,A,3946.9580,N,08404.9837,W,0.0000,0.000,011217,,*38
2017-12-01 11:56:23 1512147383.353027: $GPGSA,A,3,13,15,18,20,21,24,27,29,5,10,138,,2.0,0.8,1.5*34
2017-12-01 11:56:24 1512147384.352866: $GPZDA,165625.00,01,12,2017,00,00*63
2017-12-01 11:56:24 1512147384.353034: $GPGGA,165625,3946.9580,N,08404.9837,W,2,11,0.80,296.11,M,-33.324,M,,*7C
2017-12-01 11:56:24 1512147384.353100: $GPRMC,165625,A,3946.9580,N,08404.9837,W,0.0000,0.000,011217,,*39
2017-12-01 11:56:24 1512147384.353162: $GPGSA,A,3,13,15,18,20,21,24,27,29,5,10,138,,2.0,0.8,1.5*34
2017-12-01 11:56:25 1512147385.677540: $GPGSV,3,1,12,13,38,048,45,15,71,060,46,18,47,291,44,20,59,058,44*79
2017-12-01 11:56:25 1512147385.677722: $GPGSV,3,2,12,21,72,300,45,24,25,145,46,27,12,321,42,29,19,193,44*74
2017-12-01 11:56:25 1512147385.677789: $GPGSV,3,3,12,05,10,081,16,10,17,276,39,04,08,132,00,138,38,213,46*41
2017-12-01 11:56:25 1512147385.790935: $GPZDA,165626.00,01,12,2017,00,00*60
2017-12-01 11:56:25 1512147385.791103: $GPGGA,165626,3946.9580,N,08404.9837,W,2,11,0.80,296.11,M,-33.324,M,,*7F
2017-12-01 11:56:25 1512147385.791169: $GPRMC,165626,A,3946.9580,N,08404.9837,W,0.0000,0.000,011217,,*3A
2017-12-01 11:56:25 1512147385.791231: $GPGSA,A,3,13,15,18,20,21,24,27,29,5,10,138,,2.0,0.8,1.5*34
