2017-12-01 18:06:18 1512169578.046842: {"class":"VERSION","release":"3.16","rev":"3.16-4","proto_major":3,"proto_minor":11}
2017-12-01 18:06:18 1512169578.047253: {"class":"DEVICES","devices":[{"class":"DEVICE","path":"/dev/ttyUSB0","driver":"SiRF","subtype":"9\u0006GSD4e_4.1.2-P1_RPATCH.05-F-GPS-4R-1510281 11/03/2015 307","activated":"2017-12-01T23:06:18.012Z","flags":1,"native":1,"bps":4800,"parity":"N","stopbits":1,"cycle":1.00}]}
2017-12-01 18:06:18 1512169578.047386: {"class":"WATCH","enable":true,"json":false,"nmea":true,"raw":0,"scaled":false,"timing":false,"split24":false,"pps":false}
2017-12-01 18:06:18 1512169578.975469: $GPZDA,230619.22,01,12,2017,00,00*6F
2017-12-01 18:06:18 1512169578.975663: $GPGGA,230619,3946.9724,N,08404.9852,W,1,11,0.80,281.35,M,-33.325,M,,*7D
2017-12-01 18:06:18 1512169578.975733: $GPRMC,230619,A,3946.9724,N,08404.9852,W,0.2758,128.233,011217,,*3B
2017-12-01 18:06:18 1512169578.975795: $GPGSA,A,3,3,14,16,22,29,25,26,31,32,1,138,,2.0,0.8,1.5*0D
2017-12-01 18:06:18 1512169578.975856: $GPGBS,230619,10.70,M,15.43,M,35.28,M*08
2017-12-01 18:06:20 1512169580.190561: $GPGSV,3,1,12,03,35,306,46,14,60,079,44,16,15,189,43,22,49,282,46*74
2017-12-01 18:06:20 1512169580.190764: $GPGSV,3,2,12,23,06,297,36,25,24,043,43,26,45,174,45,31,73,010,46*77
2017-12-01 18:06:20 1512169580.190839: $GPGSV,3,3,12,32,41,100,44,01,10,258,30,29,08,079,09,138,38,213,00*46
2017-12-01 18:06:20 1512169580.303901: $GPZDA,230620.00,01,12,2017,00,00*65
2017-12-01 18:06:20 1512169580.304047: $GPGGA,230620,3946.9724,N,08404.9845,W,1,10,0.80,282.84,M,-33.325,M,,*79
2017-12-01 18:06:20 1512169580.304118: $GPRMC,230620,A,3946.9724,N,08404.9845,W,0.1867,0.000,011217,,*3E
2017-12-01 18:06:20 1512169580.304182: $GPGSA,A,3,3,14,16,22,23,25,26,31,32,1,,,2.0,0.8,1.5*3D
2017-12-01 18:06:20 1512169580.754809: $GPZDA,230621.00,01,12,2017,00,00*64
2017-12-01 18:06:20 1512169580.754995: $GPGGA,230621,3946.9725,N,08404.9846,W,1,10,0.60,284.24,M,-33.325,M,,*78
2017-12-01 18:06:20 1512169580.755066: $GPRMC,230621,A,3946.9725,N,08404.9846,W,0.0407,322.012,011217,,*36
2017-12-01 18:06:20 1512169580.755133: $GPGSA,A,3,3,14,16,22,23,25,26,31,32,1,,,2.0,0.6,1.5*33
2017-12-01 18:06:21 1512169581.360658: $GPZDA,230622.00,01,12,2017,00,00*67
2017-12-01 18:06:21 1512169581.360829: $GPGGA,230622,3946.9725,N,08404.9847,W,1,10,0.60,285.64,M,-33.325,M,,*7F
2017-12-01 18:06:21 1512169581.360901: $GPRMC,230622,A,3946.9725,N,08404.9847,W,0.0000,0.000,011217,,*37
2017-12-01 18:06:21 1512169581.360968: $GPGSA,A,3,3,14,16,22,23,25,26,31,32,1,,,2.0,0.6,1.5*33
2017-12-01 18:06:22 1512169582.697287: $GPGSV,3,1,12,03,35,306,46,14,60,079,43,16,15,189,43,22,49,282,46*73
2017-12-01 18:06:22 1512169582.697493: $GPGSV,3,2,12,23,06,297,37,25,24,043,43,26,45,174,44,31,73,010,46*77
2017-12-01 18:06:22 1512169582.697564: $GPGSV,3,3,12,32,41,100,44,01,10,258,29,29,08,079,18,138,38,213,46*4C
2017-12-01 18:06:22 1512169582.810525: $GPZDA,230623.00,01,12,2017,00,00*66
2017-12-01 18:06:22 1512169582.814208: $GPGGA,230623,3946.9726,N,08404.9848,W,1,12,0.60,287.05,M,-33.325,M,,*75
2017-12-01 18:06:22 1512169582.814342: $GPRMC,230623,A,3946.9726,N,08404.9848,W,0.0000,0.000,011217,,*3A
2017-12-01 18:06:22 1512169582.814416: $GPGSA,A,3,3,14,16,22,23,25,26,31,32,1,29,138,2.0,0.6,1.5*02
2017-12-01 18:06:23 1512169583.366649: $GPZDA,230624.00,01,12,2017,00,00*61
2017-12-01 18:06:23 1512169583.366828: $GPGGA,230624,3946.9733,N,08404.9835,W,2,12,1.00,302.73,M,-33.325,M,,*75
2017-12-01 18:06:23 1512169583.366899: $GPRMC,230624,A,3946.9733,N,08404.9835,W,0.0000,0.000,011217,,*33
2017-12-01 18:06:23 1512169583.366985: $GPGSA,A,3,3,14,16,22,23,25,26,31,32,1,29,138,2.0,1.0,1.5*05
2017-12-01 18:06:24 1512169584.363503: $GPZDA,230625.00,01,12,2017,00,00*60
2017-12-01 18:06:24 1512169584.363676: $GPGGA,230625,3946.9733,N,08404.9835,W,2,12,1.00,302.73,M,-33.325,M,,*74
2017-12-01 18:06:24 1512169584.363748: $GPRMC,230625,A,3946.9733,N,08404.9835,W,0.0000,0.000,011217,,*32
2017-12-01 18:06:24 1512169584.363813: $GPGSA,A,3,3,14,16,22,23,25,26,31,32,1,29,138,2.0,1.0,1.5*05
2017-12-01 18:06:24 1512169584.363931: $GPGBS,230625,2.67,M,3.86,M,8.82,M*32
2017-12-01 18:06:25 1512169585.699128: $GPGSV,3,1,12,03,35,306,47,14,60,079,43,16,15,189,43,22,49,282,47*73
2017-12-01 18:06:25 1512169585.699319: $GPGSV,3,2,12,23,06,297,38,25,24,043,44,26,45,174,45,31,73,010,46*7E
2017-12-01 18:06:25 1512169585.699387: $GPGSV,3,3,12,32,41,100,43,01,10,258,30,29,08,079,20,138,38,213,46*48
2017-12-01 18:06:25 1512169585.812479: $GPZDA,230626.00,01,12,2017,00,00*63
2017-12-01 18:06:25 1512169585.812605: $GPGGA,230626,3946.9733,N,08404.9835,W,2,12,1.00,302.73,M,-33.325,M,,*77
2017-12-01 18:06:25 1512169585.812672: $GPRMC,230626,A,3946.9733,N,08404.9835,W,0.0000,0.000,011217,,*31
2017-12-01 18:06:25 1512169585.812734: $GPGSA,A,3,3,14,16,22,23,25,26,31,32,1,29,138,2.0,1.0,1.5*05
2017-12-01 18:06:26 1512169586.367443: $GPZDA,230627.00,01,12,2017,00,00*62
2017-12-01 18:06:26 1512169586.367610: $GPGGA,230627,3946.9733,N,08404.9835,W,2,12,1.00,302.73,M,-33.325,M,,*76
2017-12-01 18:06:26 1512169586.367678: $GPRMC,230627,A,3946.9733,N,08404.9835,W,0.0000,0.000,011217,,*30
2017-12-01 18:06:26 1512169586.367739: $GPGSA,A,3,3,14,16,22,23,25,26,31,32,1,29,138,2.0,1.0,1.5*05
2017-12-01 18:06:27 1512169587.363818: $GPZDA,230628.00,01,12,2017,00,00*6D
2017-12-01 18:06:27 1512169587.363987: $GPGGA,230628,3946.9729,N,08404.9835,W,2,12,0.80,302.09,M,-33.325,M,,*76
2017-12-01 18:06:27 1512169587.364056: $GPRMC,230628,A,3946.9729,N,08404.9835,W,0.0000,0.000,011217,,*34
2017-12-01 18:06:27 1512169587.364117: $GPGSA,A,3,3,14,16,22,23,25,26,31,32,1,29,138,2.0,0.8,1.5*0C
2017-12-01 18:06:28 1512169588.709512: $GPGSV,3,1,12,03,35,306,46,14,60,079,43,16,15,189,43,22,49,282,47*72
2017-12-01 18:06:28 1512169588.709692: $GPGSV,3,2,12,23,06,297,38,25,24,043,44,26,45,174,46,31,73,010,47*7C
2017-12-01 18:06:28 1512169588.709762: $GPGSV,3,3,12,32,41,100,42,01,10,258,30,29,08,079,22,138,38,213,46*4B
2017-12-01 18:06:28 1512169588.823065: $GPZDA,230629.00,01,12,2017,00,00*6C
2017-12-01 18:06:28 1512169588.823257: $GPGGA,230629,3946.9732,N,08404.9841,W,2,12,0.60,301.25,M,-33.325,M,,*7D
2017-12-01 18:06:28 1512169588.823332: $GPRMC,230629,A,3946.9732,N,08404.9841,W,0.0000,0.000,011217,,*3C
2017-12-01 18:06:28 1512169588.823401: $GPGSA,A,3,3,14,16,22,23,25,26,31,32,1,29,138,2.0,0.6,1.5*02
2017-12-01 18:06:29 1512169589.364012: $GPZDA,230630.00,01,12,2017,00,00*64
2017-12-01 18:06:29 1512169589.364204: $GPGGA,230630,3946.9732,N,08404.9841,W,2,12,0.60,301.25,M,-33.325,M,,*75
2017-12-01 18:06:29 1512169589.364279: $GPRMC,230630,A,3946.9732,N,08404.9841,W,0.0000,0.000,011217,,*34
2017-12-01 18:06:29 1512169589.364344: $GPGSA,A,3,3,14,16,22,23,25,26,31,32,1,29,138,2.0,0.6,1.5*02
2017-12-01 18:06:30 1512169590.363592: $GPZDA,230631.00,01,12,2017,00,00*65
2017-12-01 18:06:30 1512169590.363768: $GPGGA,230631,3946.9732,N,08404.9841,W,2,12,0.60,301.25,M,-33.325,M,,*74
2017-12-01 18:06:30 1512169590.363836: $GPRMC,230631,A,3946.9732,N,08404.9841,W,0.0000,0.000,011217,,*35
2017-12-01 18:06:30 1512169590.363898: $GPGSA,A,3,3,14,16,22,23,25,26,31,32,1,29,138,2.0,0.6,1.5*02
2017-12-01 18:06:31 1512169591.702825: $GPGSV,3,1,12,03,35,306,46,14,60,079,43,16,15,189,44,22,49,282,47*75
2017-12-01 18:06:31 1512169591.703008: $GPGSV,3,2,12,23,06,297,38,25,24,043,44,26,45,174,46,31,73,010,47*7C
2017-12-01 18:06:31 1512169591.703076: $GPGSV,3,3,12,32,41,100,42,01,10,258,31,29,08,079,23,138,38,213,46*4B
2017-12-01 18:06:31 1512169591.816566: $GPZDA,230632.00,01,12,2017,00,00*66
2017-12-01 18:06:31 1512169591.816741: $GPGGA,230632,3946.9732,N,08404.9841,W,2,12,0.60,301.25,M,-33.325,M,,*77
2017-12-01 18:06:31 1512169591.816808: $GPRMC,230632,A,3946.9732,N,08404.9841,W,0.0000,0.000,011217,,*36
2017-12-01 18:06:31 1512169591.816871: $GPGSA,A,3,3,14,16,22,23,25,26,31,32,1,29,138,2.0,0.6,1.5*02
2017-12-01 18:06:32 1512169592.442095: $GPZDA,230633.00,01,12,2017,00,00*67
2017-12-01 18:06:32 1512169592.442282: $GPGGA,230633,3946.9732,N,08404.9841,W,2,12,0.60,301.25,M,-33.325,M,,*76
2017-12-01 18:06:32 1512169592.442349: $GPRMC,230633,A,3946.9732,N,08404.9841,W,0.0000,0.000,011217,,*37
2017-12-01 18:06:32 1512169592.442459: $GPGSA,A,3,3,14,16,22,23,25,26,31,32,1,29,138,2.0,0.6,1.5*02
2017-12-01 18:06:33 1512169593.361715: $GPZDA,230634.00,01,12,2017,00,00*60
2017-12-01 18:06:33 1512169593.361888: $GPGGA,230634,3946.9732,N,08404.9834,W,2,12,0.60,301.33,M,-33.325,M,,*74
2017-12-01 18:06:33 1512169593.361955: $GPRMC,230634,A,3946.9732,N,08404.9834,W,0.1867,180.000,011217,,*33
2017-12-01 18:06:33 1512169593.362016: $GPGSA,A,3,3,14,16,22,23,25,26,31,32,1,29,138,2.0,0.6,1.5*02
2017-12-01 18:06:34 1512169594.696936: $GPGSV,3,1,12,03,35,306,46,14,60,079,43,16,15,189,43,22,49,282,46*73
2017-12-01 18:06:34 1512169594.697116: $GPGSV,3,2,12,23,06,297,40,25,24,043,42,26,45,174,46,31,73,010,46*74
2017-12-01 18:06:34 1512169594.697183: $GPGSV,3,3,12,32,41,100,42,01,10,258,31,29,08,079,22,138,38,213,48*44
2017-12-01 18:06:34 1512169594.810551: $GPZDA,230635.00,01,12,2017,00,00*61
2017-12-01 18:06:34 1512169594.810714: $GPGGA,230635,3946.9736,N,08404.9834,W,2,12,0.60,301.97,M,-33.325,M,,*7F
2017-12-01 18:06:34 1512169594.810782: $GPRMC,230635,A,3946.9736,N,08404.9834,W,0.1867,180.000,011217,,*36
2017-12-01 18:06:34 1512169594.810845: $GPGSA,A,3,3,14,16,22,23,25,26,31,32,1,29,138,2.0,0.6,1.5*02
2017-12-01 18:06:35 1512169595.360328: $GPZDA,230636.00,01,12,2017,00,00*62
2017-12-01 18:06:35 1512169595.360495: $GPGGA,230636,3946.9739,N,08404.9839,W,2,12,0.80,298.32,M,-33.325,M,,*7E
2017-12-01 18:06:35 1512169595.360561: $GPRMC,230636,A,3946.9739,N,08404.9839,W,0.3006,62.539,011217,,*08
2017-12-01 18:06:35 1512169595.360622: $GPGSA,A,3,3,14,16,22,23,25,26,31,32,1,29,138,2.0,0.8,1.5*0C
2017-12-01 18:06:36 1512169596.360958: $GPZDA,230637.00,01,12,2017,00,00*63
2017-12-01 18:06:36 1512169596.361117: $GPGGA,230637,3946.9743,N,08404.9839,W,2,12,0.80,298.96,M,-33.325,M,,*7C
2017-12-01 18:06:36 1512169596.361185: $GPRMC,230637,A,3946.9743,N,08404.9839,W,0.0000,0.000,011217,,*3A
2017-12-01 18:06:36 1512169596.361246: $GPGSA,A,3,3,14,16,22,23,25,26,31,32,1,29,138,2.0,0.8,1.5*0C
2017-12-01 18:06:36 1512169596.361305: $GPGBS,230637,2.67,M,3.86,M,8.82,M*31
2017-12-01 18:06:37 1512169597.709572: $GPGSV,3,1,12,03,35,306,46,14,60,079,44,16,15,189,44,22,49,282,47*72
2017-12-01 18:06:37 1512169597.709757: $GPGSV,3,2,12,23,06,297,40,25,24,043,42,26,45,174,46,31,73,010,47*75
2017-12-01 18:06:37 1512169597.709825: $GPGSV,3,3,12,32,41,100,41,01,10,258,31,10,04,159,00,138,38,213,46*4C
2017-12-01 18:06:37 1512169597.823286: $GPZDA,230638.00,01,12,2017,00,00*6C
2017-12-01 18:06:37 1512169597.823455: $GPGGA,230638,3946.9743,N,08404.9839,W,2,11,0.80,298.96,M,-33.325,M,,*70
2017-12-01 18:06:37 1512169597.823521: $GPRMC,230638,A,3946.9743,N,08404.9839,W,0.0000,0.000,011217,,*35
2017-12-01 18:06:37 1512169597.823583: $GPGSA,A,3,3,14,16,22,23,25,26,31,32,1,138,,2.0,0.8,1.5*07
