2017-11-15 19:00:47 1510790447.152371: {"class":"VERSION","release":"3.17","rev":"3.17","proto_major":3,"proto_minor":12}
2017-11-15 19:00:47 1510790447.152841: {"class":"DEVICES","devices":[{"class":"DEVICE","path":"/dev/ttyUSB0","driver":"SiRF","subtype":"9\u0006GSD4e_4.1.2-P1_RPATCH.05-F-GPS-4R-1510281 11/03/2015 307","activated":"2017-11-16T00:00:47.151Z","flags":1,"native":1,"bps":4800,"parity":"N","stopbits":1,"cycle":1.00}]}
2017-11-15 19:00:47 1510790447.152954: {"class":"WATCH","enable":true,"json":false,"nmea":true,"raw":0,"scaled":false,"timing":false,"split24":false,"pps":false}
2017-11-15 19:00:47 1510790447.327841: $GPZDA,000046.00,16,11,2017,00,00*67
2017-11-15 19:00:47 1510790447.328013: $GPGGA,000046,3946.9634,N,08404.9620,W,1,08,4.60,307.40,M,-33.324,M,,*75
2017-11-15 19:00:47 1510790447.328075: $GPRMC,000046,A,3946.9634,N,08404.9620,W,0.8709,3.298,161117,,*3F
2017-11-15 19:00:47 1510790447.328132: $GPGSA,A,3,14,3,32,31,26,22,25,29,,,,,3.4,4.6,2.9*01
2017-11-15 19:00:48 1510790448.663593: $GPGSV,3,1,12,10,09,159,00,14,63,070,16,03,31,310,12,32,46,094,08*7B
2017-11-15 19:00:48 1510790448.663767: $GPGSV,3,2,12,31,77,349,26,26,38,177,18,22,47,289,12,25,27,046,14*72
2017-11-15 19:00:48 1510790448.663828: $GPGSV,3,3,12,29,05,082,13,01,13,262,00,16,09,190,00,120,07,103,00*49
2017-11-15 19:00:48 1510790448.777006: $GPZDA,000047.00,16,11,2017,00,00*66
2017-11-15 19:00:48 1510790448.777184: $GPGGA,000047,3946.9642,N,08404.9620,W,1,08,4.60,307.28,M,-33.324,M,,*7B
2017-11-15 19:00:48 1510790448.777247: $GPRMC,000047,A,3946.9642,N,08404.9620,W,0.6846,4.197,161117,,*3E
2017-11-15 19:00:48 1510790448.777308: $GPGSA,A,3,14,3,32,31,26,22,25,29,,,,,3.4,4.6,2.9*01
2017-11-15 19:00:49 1510790449.327876: $GPZDA,000048.00,16,11,2017,00,00*69
2017-11-15 19:00:49 1510790449.328040: $GPGGA,000048,3946.9642,N,08404.9620,W,1,08,4.60,307.28,M,-33.324,M,,*74
2017-11-15 19:00:49 1510790449.328100: $GPRMC,000048,A,3946.9642,N,08404.9620,W,0.6846,4.197,161117,,*31
2017-11-15 19:00:49 1510790449.328157: $GPGSA,A,3,14,3,32,31,26,22,25,29,,,,,3.4,4.6,2.9*01
2017-11-15 19:00:50 1510790450.326164: $GPZDA,000049.00,16,11,2017,00,00*68
2017-11-15 19:00:50 1510790450.326332: $GPGGA,000049,3946.9650,N,08404.9619,W,1,08,4.60,307.15,M,-33.324,M,,*72
2017-11-15 19:00:50 1510790450.326397: $GPRMC,000049,A,3946.9650,N,08404.9619,W,0.6846,4.197,161117,,*39
2017-11-15 19:00:50 1510790450.326453: $GPGSA,A,3,14,3,32,31,26,22,25,29,,,,,3.4,4.6,2.9*01
2017-11-15 19:00:51 1510790451.662844: $GPGSV,3,1,12,10,09,159,00,14,63,070,16,03,31,310,12,32,46,094,06*75
2017-11-15 19:00:51 1510790451.663027: $GPGSV,3,2,12,31,77,349,26,26,38,177,17,22,47,289,11,25,27,046,15*7F
2017-11-15 19:00:51 1510790451.663087: $GPGSV,3,3,12,29,05,082,14,01,13,262,00,16,09,190,00,120,07,103,00*4E
2017-11-15 19:00:51 1510790451.776006: $GPZDA,000050.00,16,11,2017,00,00*60
2017-11-15 19:00:51 1510790451.776172: $GPGGA,000050,3946.9649,N,08404.9612,W,1,07,4.60,307.23,M,-33.324,M,,*73
2017-11-15 19:00:51 1510790451.776233: $GPRMC,000050,A,3946.9649,N,08404.9612,W,0.7278,23.636,161117,,*0D
2017-11-15 19:00:51 1510790451.776292: $GPGSA,A,3,14,3,31,26,22,25,29,,,,,,3.4,4.6,2.9*00
2017-11-15 19:00:52 1510790452.326961: $GPZDA,000051.00,16,11,2017,00,00*61
2017-11-15 19:00:52 1510790452.327107: $GPGGA,000051,3946.9653,N,08404.9612,W,1,07,4.60,307.87,M,-33.324,M,,*77
2017-11-15 19:00:52 1510790452.327167: $GPRMC,000051,A,3946.9653,N,08404.9612,W,0.7278,23.636,161117,,*07
2017-11-15 19:00:52 1510790452.327222: $GPGSA,A,3,14,3,31,26,22,25,29,,,,,,3.4,4.6,2.9*00
2017-11-15 19:00:53 1510790453.326535: $GPZDA,000052.00,16,11,2017,00,00*62
2017-11-15 19:00:53 1510790453.326768: $GPGGA,000052,3946.9657,N,08404.9611,W,1,07,4.60,307.11,M,-33.324,M,,*7C
2017-11-15 19:00:53 1510790453.331057: $GPRMC,000052,A,3946.9657,N,08404.9611,W,1.2132,3.551,161117,,*3A
2017-11-15 19:00:53 1510790453.331127: $GPGSA,A,3,14,3,31,26,22,25,29,,,,,,3.4,4.6,2.9*00
2017-11-15 19:00:54 1510790454.662332: $GPGSV,3,1,12,16,09,190,11,14,63,070,17,10,09,159,00,32,46,094,04*70
2017-11-15 19:00:54 1510790454.662524: $GPGSV,3,2,12,31,77,349,26,26,38,177,17,22,47,289,11,25,27,046,14*7E
2017-11-15 19:00:54 1510790454.662654: $GPGSV,3,3,12,29,05,082,14,03,31,310,00,01,13,262,00,133,44,201,00*4F
2017-11-15 19:00:54 1510790454.775698: $GPZDA,000053.00,16,11,2017,00,00*63
2017-11-15 19:00:54 1510790454.775884: $GPGGA,000053,3946.9661,N,08404.9611,W,1,06,4.60,307.75,M,-33.324,M,,*7B
2017-11-15 19:00:54 1510790454.775963: $GPRMC,000053,A,3946.9661,N,08404.9611,W,1.5555,3.693,161117,,*31
2017-11-15 19:00:54 1510790454.776021: $GPGSA,A,3,14,31,26,22,25,29,,,,,,,3.4,4.6,2.9*33
2017-11-15 19:00:55 1510790455.326530: $GPZDA,000054.00,16,11,2017,00,00*64
2017-11-15 19:00:55 1510790455.326698: $GPGGA,000054,3946.9669,N,08404.9611,W,1,06,4.60,307.62,M,-33.324,M,,*72
2017-11-15 19:00:55 1510790455.326829: $GPRMC,000054,A,3946.9669,N,08404.9611,W,1.5555,3.693,161117,,*3E
2017-11-15 19:00:55 1510790455.326887: $GPGSA,A,3,14,31,26,22,25,29,,,,,,,3.4,4.6,2.9*33
2017-11-15 19:00:56 1510790456.326994: $GPZDA,000055.00,16,11,2017,00,00*65
2017-11-15 19:00:56 1510790456.327177: $GPGGA,000055,3946.9676,N,08404.9610,W,1,06,4.60,307.50,M,-33.324,M,,*7D
2017-11-15 19:00:56 1510790456.327264: $GPRMC,000055,A,3946.9676,N,08404.9610,W,1.5555,3.693,161117,,*30
2017-11-15 19:00:56 1510790456.327323: $GPGSA,A,3,14,31,26,22,25,29,,,,,,,3.4,4.6,2.9*33
