2017-12-01 17:36:53 1512167813.176983: {"class":"VERSION","release":"3.16","rev":"3.16-4","proto_major":3,"proto_minor":11}
2017-12-01 17:36:53 1512167813.177377: {"class":"DEVICES","devices":[{"class":"DEVICE","path":"/dev/ttyUSB0","driver":"SiRF","subtype":"9\u0006GSD4e_4.1.2-P1_RPATCH.05-F-GPS-4R-1510281 11/03/2015 307","activated":"2017-12-01T22:36:53.124Z","flags":1,"native":1,"bps":4800,"parity":"N","stopbits":1,"cycle":1.00}]}
2017-12-01 17:36:53 1512167813.177517: {"class":"WATCH","enable":true,"json":false,"nmea":true,"raw":0,"scaled":false,"timing":false,"split24":false,"pps":false}
2017-12-01 17:36:54 1512167814.190596: $GPZDA,223654.42,01,12,2017,00,00*62
2017-12-01 17:36:54 1512167814.190789: $GPGGA,223654,3946.9724,N,08404.9841,W,1,12,1.00,299.97,M,-33.325,M,,*7F
2017-12-01 17:36:54 1512167814.190858: $GPRMC,223654,A,3946.9724,N,08404.9841,W,0.0000,0.000,011217,,*33
2017-12-01 17:36:54 1512167814.190919: $GPGSA,A,3,1,3,10,14,22,25,26,31,32,12,16,138,2.0,1.0,1.5*0D
2017-12-01 17:36:55 1512167815.355652: $GPGSV,3,1,12,01,17,270,44,03,25,313,46,10,17,157,44,14,68,052,43*72
2017-12-01 17:36:55 1512167815.355853: $GPGSV,3,2,12,22,42,298,48,25,33,052,45,26,31,177,43,31,80,312,46*7B
2017-12-01 17:36:55 1512167815.355921: $GPGSV,3,3,12,32,51,085,46,12,03,030,05,16,03,190,04,138,38,213,15*4B
2017-12-01 17:36:55 1512167815.469254: $GPZDA,223655.00,01,12,2017,00,00*65
2017-12-01 17:36:55 1512167815.469412: $GPGGA,223655,3946.9724,N,08404.9841,W,1,10,1.00,299.97,M,-33.325,M,,*7C
2017-12-01 17:36:55 1512167815.469480: $GPRMC,223655,A,3946.9724,N,08404.9841,W,0.0000,0.000,011217,,*32
2017-12-01 17:36:55 1512167815.469540: $GPGSA,A,3,1,3,10,14,22,25,26,31,32,138,,,2.0,1.0,1.5*09
2017-12-01 17:36:55 1512167815.921427: $GPZDA,223656.00,01,12,2017,00,00*66
2017-12-01 17:36:55 1512167815.921611: $GPGGA,223656,3946.9725,N,08404.9848,W,1,10,1.00,299.89,M,-33.325,M,,*78
2017-12-01 17:36:55 1512167815.921678: $GPRMC,223656,A,3946.9725,N,08404.9848,W,0.1567,9.200,011217,,*37
2017-12-01 17:36:55 1512167815.921757: $GPGSA,A,3,1,3,10,14,22,25,26,31,32,138,,,2.0,1.0,1.5*09
2017-12-01 17:36:56 1512167816.377078: $GPZDA,223657.00,01,12,2017,00,00*67
2017-12-01 17:36:56 1512167816.377249: $GPGGA,223657,3946.9720,N,08404.9848,W,1,10,1.00,299.25,M,-33.325,M,,*7A
2017-12-01 17:36:56 1512167816.377316: $GPRMC,223657,A,3946.9720,N,08404.9848,W,0.0000,0.000,011217,,*3D
2017-12-01 17:36:56 1512167816.377376: $GPGSA,A,3,1,3,10,14,22,25,26,31,32,138,,,2.0,1.0,1.5*09
2017-12-01 17:36:57 1512167817.712246: $GPGSV,3,1,12,01,17,270,44,03,25,313,46,10,17,157,44,14,68,052,42*73
2017-12-01 17:36:57 1512167817.712434: $GPGSV,3,2,12,22,42,298,48,25,33,052,44,26,31,177,43,31,80,312,45*79
2017-12-01 17:36:57 1512167817.712504: $GPGSV,3,3,12,32,51,085,46,12,03,030,23,16,03,190,20,138,38,213,46*4F
2017-12-01 17:36:57 1512167817.825580: $GPZDA,223658.00,01,12,2017,00,00*68
2017-12-01 17:36:57 1512167817.825718: $GPGGA,223658,3946.9720,N,08404.9848,W,1,12,1.00,299.25,M,-33.325,M,,*77
2017-12-01 17:36:57 1512167817.825785: $GPRMC,223658,A,3946.9720,N,08404.9848,W,0.0000,0.000,011217,,*32
2017-12-01 17:36:57 1512167817.825845: $GPGSA,A,3,1,3,10,14,22,25,26,31,32,12,16,138,2.0,1.0,1.5*0D
2017-12-01 17:36:58 1512167818.376523: $GPZDA,223659.00,01,12,2017,00,00*69
2017-12-01 17:36:58 1512167818.376709: $GPGGA,223659,3946.9720,N,08404.9848,W,1,12,1.00,299.25,M,-33.325,M,,*76
2017-12-01 17:36:58 1512167818.376778: $GPRMC,223659,A,3946.9720,N,08404.9848,W,0.0000,0.000,011217,,*33
2017-12-01 17:36:58 1512167818.376839: $GPGSA,A,3,1,3,10,14,22,25,26,31,32,12,16,138,2.0,1.0,1.5*0D
2017-12-01 17:36:59 1512167819.378484: $GPZDA,223700.00,01,12,2017,00,00*64
2017-12-01 17:36:59 1512167819.378672: $GPGGA,223700,3946.9720,N,08404.9848,W,1,12,1.00,299.25,M,-33.325,M,,*7B
2017-12-01 17:36:59 1512167819.378740: $GPRMC,223700,A,3946.9720,N,08404.9848,W,0.0000,0.000,011217,,*3E
2017-12-01 17:36:59 1512167819.378801: $GPGSA,A,3,1,3,10,14,22,25,26,31,32,12,16,138,2.0,1.0,1.5*0D
2017-12-01 17:36:59 1512167819.378860: $GPGBS,223700,10.70,M,15.43,M,35.28,M*03
2017-12-01 17:37:00 1512167820.712974: $GPGSV,3,1,12,01,17,270,44,03,25,313,46,10,17,157,44,14,68,052,41*70
2017-12-01 17:37:00 1512167820.713156: $GPGSV,3,2,12,22,42,298,48,25,33,052,44,26,31,177,44,31,80,312,45*7E
2017-12-01 17:37:00 1512167820.713223: $GPGSV,3,3,12,32,51,085,45,12,03,030,22,16,03,190,00,138,38,213,46*4F
2017-12-01 17:37:00 1512167820.826371: $GPZDA,223701.00,01,12,2017,00,00*65
2017-12-01 17:37:00 1512167820.826544: $GPGGA,223701,3946.9720,N,08404.9848,W,1,11,1.00,299.25,M,-33.325,M,,*79
2017-12-01 17:37:00 1512167820.826610: $GPRMC,223701,A,3946.9720,N,08404.9848,W,0.0000,0.000,011217,,*3F
2017-12-01 17:37:00 1512167820.826671: $GPGSA,A,3,1,3,10,14,22,25,26,31,32,12,138,,2.0,1.0,1.5*0A
2017-12-01 17:37:01 1512167821.382278: $GPZDA,223702.00,01,12,2017,00,00*66
2017-12-01 17:37:01 1512167821.382449: $GPGGA,223702,3946.9720,N,08404.9848,W,1,11,1.00,299.25,M,-33.325,M,,*7A
2017-12-01 17:37:01 1512167821.382516: $GPRMC,223702,A,3946.9720,N,08404.9848,W,0.0000,0.000,011217,,*3C
2017-12-01 17:37:01 1512167821.382577: $GPGSA,A,3,1,3,10,14,22,25,26,31,32,12,138,,2.0,1.0,1.5*0A
2017-12-01 17:37:02 1512167822.376299: $GPZDA,223703.00,01,12,2017,00,00*67
2017-12-01 17:37:02 1512167822.376477: $GPGGA,223703,3946.9720,N,08404.9848,W,1,11,1.00,299.25,M,-33.325,M,,*7B
2017-12-01 17:37:02 1512167822.376544: $GPRMC,223703,A,3946.9720,N,08404.9848,W,0.0000,0.000,011217,,*3D
2017-12-01 17:37:02 1512167822.376605: $GPGSA,A,3,1,3,10,14,22,25,26,31,32,12,138,,2.0,1.0,1.5*0A
2017-12-01 17:37:03 1512167823.712033: $GPGSV,3,1,12,01,17,270,13,03,25,313,14,10,17,157,13,14,68,052,12*71
2017-12-01 17:37:04 1512167824.208183: $GPGSV,3,2,12,22,42,298,14,25,33,052,13,26,31,177,13,31,80,312,13*74
2017-12-01 17:37:04 1512167824.208357: $GPGSV,3,3,12,32,51,085,14,12,03,030,07,16,03,190,00,138,38,213,16*49
2017-12-01 17:37:04 1512167824.208481: $GPZDA,223704.00,01,12,2017,00,00*60
2017-12-01 17:37:04 1512167824.208543: $GPGGA,223704,3946.9720,N,08404.9848,W,1,11,1.00,299.25,M,-33.325,M,,*7C
2017-12-01 17:37:04 1512167824.208605: $GPRMC,223704,A,3946.9720,N,08404.9848,W,0.2422,273.794,011217,,*30
2017-12-01 17:37:04 1512167824.208665: $GPGSA,A,3,1,3,10,14,22,25,26,31,32,12,138,,2.0,1.0,1.5*0A
2017-12-01 17:37:04 1512167824.376276: $GPZDA,223705.00,01,12,2017,00,00*61
2017-12-01 17:37:04 1512167824.376465: $GPGGA,223705,3946.9720,N,08404.9848,W,1,11,1.00,299.25,M,-33.325,M,,*7D
2017-12-01 17:37:04 1512167824.376533: $GPRMC,223705,A,3946.9720,N,08404.9848,W,0.0000,0.000,011217,,*3B
2017-12-01 17:37:04 1512167824.376593: $GPGSA,A,3,1,3,10,14,22,25,26,31,32,12,138,,2.0,1.0,1.5*0A
2017-12-01 17:37:05 1512167825.379972: $GPZDA,223706.00,01,12,2017,00,00*62
2017-12-01 17:37:05 1512167825.380141: $GPGGA,223706,3946.9720,N,08404.9848,W,1,11,1.00,299.25,M,-33.325,M,,*7E
2017-12-01 17:37:05 1512167825.380208: $GPRMC,223706,A,3946.9720,N,08404.9848,W,0.0000,0.000,011217,,*38
2017-12-01 17:37:05 1512167825.380269: $GPGSA,A,3,1,3,10,14,22,25,26,31,32,12,138,,2.0,1.0,1.5*0A
2017-12-01 17:37:06 1512167826.715455: $GPGSV,3,1,12,01,17,270,43,03,25,313,45,10,17,157,44,14,68,052,42*77
2017-12-01 17:37:06 1512167826.715652: $GPGSV,3,2,12,22,42,298,48,25,33,052,43,26,31,177,42,31,80,312,45*7F
2017-12-01 17:37:06 1512167826.715720: $GPGSV,3,3,12,32,51,085,45,12,03,030,22,16,03,190,00,138,38,213,46*4F
2017-12-01 17:37:06 1512167826.829082: $GPZDA,223707.00,01,12,2017,00,00*63
2017-12-01 17:37:06 1512167826.829249: $GPGGA,223707,3946.9721,N,08404.9855,W,1,11,1.00,299.17,M,-33.325,M,,*73
2017-12-01 17:37:06 1512167826.829315: $GPRMC,223707,A,3946.9721,N,08404.9855,W,0.0000,0.000,011217,,*34
2017-12-01 17:37:06 1512167826.829376: $GPGSA,A,3,1,3,10,14,22,25,26,31,32,12,138,,2.0,1.0,1.5*0A
2017-12-01 17:37:07 1512167827.454215: $GPZDA,223708.00,01,12,2017,00,00*6C
2017-12-01 17:37:07 1512167827.454384: $GPGGA,223708,3946.9721,N,08404.9855,W,1,11,1.00,299.17,M,-33.325,M,,*7C
2017-12-01 17:37:07 1512167827.454451: $GPRMC,223708,A,3946.9721,N,08404.9855,W,0.0000,0.000,011217,,*3B
2017-12-01 17:37:07 1512167827.454512: $GPGSA,A,3,1,3,10,14,22,25,26,31,32,12,138,,2.0,1.0,1.5*0A
2017-12-01 17:37:08 1512167828.381264: $GPZDA,223709.00,01,12,2017,00,00*6D
2017-12-01 17:37:08 1512167828.381508: $GPGGA,223709,3946.9721,N,08404.9855,W,1,11,1.00,299.17,M,-33.325,M,,*7D
2017-12-01 17:37:08 1512167828.381580: $GPRMC,223709,A,3946.9721,N,08404.9855,W,0.0000,0.000,011217,,*3A
2017-12-01 17:37:08 1512167828.381642: $GPGSA,A,3,1,3,10,14,22,25,26,31,32,12,138,,2.0,1.0,1.5*0A
2017-12-01 17:37:09 1512167829.715809: $GPGSV,3,1,12,01,17,270,43,03,25,313,44,10,17,157,44,14,68,052,42*76
2017-12-01 17:37:09 1512167829.715990: $GPGSV,3,2,12,22,42,298,48,25,33,052,43,26,31,177,42,31,80,312,45*7F
2017-12-01 17:37:09 1512167829.716058: $GPGSV,3,3,12,32,51,085,45,12,03,030,23,16,03,190,22,138,38,213,46*4E
2017-12-01 17:37:09 1512167829.829202: $GPZDA,223710.00,01,12,2017,00,00*65
2017-12-01 17:37:09 1512167829.829355: $GPGGA,223710,3946.9721,N,08404.9855,W,1,12,1.00,299.17,M,-33.325,M,,*76
2017-12-01 17:37:09 1512167829.829421: $GPRMC,223710,A,3946.9721,N,08404.9855,W,0.0000,0.000,011217,,*32
2017-12-01 17:37:09 1512167829.829483: $GPGSA,A,3,1,3,10,14,22,25,26,31,32,12,16,138,2.0,1.0,1.5*0D
2017-12-01 17:37:10 1512167830.385019: $GPZDA,223711.00,01,12,2017,00,00*64
2017-12-01 17:37:10 1512167830.385189: $GPGGA,223711,3946.9718,N,08404.9863,W,2,12,1.80,299.86,M,-33.325,M,,*7B
2017-12-01 17:37:10 1512167830.385256: $GPRMC,223711,A,3946.9718,N,08404.9863,W,0.0000,0.000,011217,,*3C
2017-12-01 17:37:10 1512167830.385316: $GPGSA,A,3,1,3,10,14,22,25,26,31,32,12,16,138,2.0,1.8,1.5*05
2017-12-01 17:37:11 1512167831.384763: $GPZDA,223712.00,01,12,2017,00,00*67
2017-12-01 17:37:11 1512167831.384933: $GPGGA,223712,3946.9718,N,08404.9863,W,2,12,1.00,299.86,M,-33.325,M,,*70
2017-12-01 17:37:11 1512167831.385000: $GPRMC,223712,A,3946.9718,N,08404.9863,W,0.0000,0.000,011217,,*3F
2017-12-01 17:37:11 1512167831.385061: $GPGSA,A,3,1,3,10,14,22,25,26,31,32,12,16,138,2.0,1.0,1.5*0D
2017-12-01 17:37:11 1512167831.385121: $GPGBS,223712,2.67,M,3.86,M,8.82,M*35
2017-12-01 17:37:12 1512167832.719784: $GPGSV,3,1,12,01,17,270,43,03,25,313,44,10,17,157,44,14,68,052,42*76
2017-12-01 17:37:12 1512167832.719993: $GPGSV,3,2,12,22,42,298,48,25,33,052,43,26,31,177,42,31,80,312,45*7F
2017-12-01 17:37:12 1512167832.720060: $GPGSV,3,3,12,32,51,085,45,12,03,030,24,16,03,190,21,138,38,213,46*4A
2017-12-01 17:37:12 1512167832.833089: $GPZDA,223713.00,01,12,2017,00,00*66
2017-12-01 17:37:12 1512167832.833254: $GPGGA,223713,3946.9718,N,08404.9863,W,2,12,1.00,299.86,M,-33.325,M,,*71
2017-12-01 17:37:12 1512167832.833319: $GPRMC,223713,A,3946.9718,N,08404.9863,W,0.0000,0.000,011217,,*3E
2017-12-01 17:37:12 1512167832.833380: $GPGSA,A,3,1,3,10,14,22,25,26,31,32,12,16,138,2.0,1.0,1.5*0D
