2017-12-31 18:53:45 1514764425.921272: {"class":"VERSION","release":"3.16","rev":"3.16-4","proto_major":3,"proto_minor":11}
2017-12-31 18:53:45 1514764425.921717: {"class":"DEVICES","devices":[{"class":"DEVICE","path":"/dev/ttyUSB0","driver":"SiRF","activated":"2017-12-31T23:53:45.918Z","flags":1,"native":1,"bps":4800,"parity":"N","stopbits":1,"cycle":1.00}]}
2017-12-31 18:53:45 1514764425.921819: {"class":"WATCH","enable":true,"json":false,"nmea":true,"raw":0,"scaled":false,"timing":false,"split24":false,"pps":false}
2017-12-31 18:53:46 1514764426.353654: $GPZDA,235347.00,31,12,2017,00,00*67
2017-12-31 18:53:46 1514764426.353860: $GPGGA,235347,3946.9574,N,08404.9811,W,2,11,0.80,311.44,M,-33.324,M,,*7A
2017-12-31 18:53:46 1514764426.353928: $GPRMC,235347,A,3946.9574,N,08404.9811,W,0.0000,0.000,311217,,*32
2017-12-31 18:53:46 1514764426.353989: $GPGSA,A,3,22,23,9,3,16,8,31,27,7,26,135,,1.7,0.8,1.3*09
2017-12-31 18:53:47 1514764427.353596: $GPZDA,235348.00,31,12,2017,00,00*68
2017-12-31 18:53:47 1514764427.353764: $GPGGA,235348,3946.9574,N,08404.9811,W,2,11,0.80,311.44,M,-33.324,M,,*75
2017-12-31 18:53:47 1514764427.353830: $GPRMC,235348,A,3946.9574,N,08404.9811,W,0.0000,0.000,311217,,*3D
2017-12-31 18:53:47 1514764427.353890: $GPGSA,A,3,22,23,9,3,16,8,31,27,7,26,135,,1.7,0.8,1.3*09
2017-12-31 18:53:48 1514764428.688842: $GPGSV,3,1,11,22,07,204,25,23,69,279,41,09,37,309,31,03,17,220,33*7A
2017-12-31 18:53:48 1514764428.689044: $GPGSV,3,2,11,16,76,036,44,08,17,175,40,31,15,090,30,27,40,142,42*7E
2017-12-31 18:53:48 1514764428.689127: $GPGSV,3,3,11,07,11,285,37,26,43,048,46,135,22,240,45*78
2017-12-31 18:53:48 1514764428.802406: $GPZDA,235349.00,31,12,2017,00,00*69
2017-12-31 18:53:48 1514764428.802606: $GPGGA,235349,3946.9574,N,08404.9811,W,2,11,0.80,311.44,M,-33.324,M,,*74
2017-12-31 18:53:48 1514764428.802675: $GPRMC,235349,A,3946.9574,N,08404.9811,W,0.0000,0.000,311217,,*3C
2017-12-31 18:53:48 1514764428.802736: $GPGSA,A,3,22,23,9,3,16,8,31,27,7,26,135,,1.7,0.8,1.3*09
2017-12-31 18:53:49 1514764429.354463: $GPZDA,235350.00,31,12,2017,00,00*61
2017-12-31 18:53:49 1514764429.354752: $GPGGA,235350,3946.9574,N,08404.9811,W,2,11,0.80,311.44,M,-33.324,M,,*7C
2017-12-31 18:53:49 1514764429.354820: $GPRMC,235350,A,3946.9574,N,08404.9811,W,0.0000,0.000,311217,,*34
2017-12-31 18:53:49 1514764429.354881: $GPGSA,A,3,22,23,9,3,16,8,31,27,7,26,135,,1.7,0.8,1.3*09
2017-12-31 18:53:50 1514764430.353442: $GPZDA,235351.00,31,12,2017,00,00*60
2017-12-31 18:53:50 1514764430.353616: $GPGGA,235351,3946.9574,N,08404.9811,W,2,11,0.80,311.44,M,-33.324,M,,*7D
2017-12-31 18:53:50 1514764430.353681: $GPRMC,235351,A,3946.9574,N,08404.9811,W,0.0000,0.000,311217,,*35
2017-12-31 18:53:50 1514764430.353741: $GPGSA,A,3,22,23,9,3,16,8,31,27,7,26,135,,1.7,0.8,1.3*09
2017-12-31 18:53:51 1514764431.687943: $GPGSV,3,1,11,22,07,204,25,23,69,279,40,09,37,309,32,03,17,220,33*78
2017-12-31 18:53:51 1514764431.688127: $GPGSV,3,2,11,16,76,036,44,08,17,175,40,31,15,090,30,27,40,142,43*7F
2017-12-31 18:53:51 1514764431.688193: $GPGSV,3,3,11,07,11,285,38,26,43,048,46,135,22,240,44*76
2017-12-31 18:53:51 1514764431.801315: $GPZDA,235352.00,31,12,2017,00,00*63
2017-12-31 18:53:51 1514764431.801485: $GPGGA,235352,3946.9574,N,08404.9811,W,2,11,0.80,311.44,M,-33.324,M,,*7E
2017-12-31 18:53:51 1514764431.801551: $GPRMC,235352,A,3946.9574,N,08404.9811,W,0.0000,0.000,311217,,*36
2017-12-31 18:53:51 1514764431.801613: $GPGSA,A,3,22,23,9,3,16,8,31,27,7,26,135,,1.7,0.8,1.3*09
2017-12-31 18:53:52 1514764432.352167: $GPZDA,235353.00,31,12,2017,00,00*62
2017-12-31 18:53:52 1514764432.352343: $GPGGA,235353,3946.9574,N,08404.9811,W,2,11,0.80,311.44,M,-33.324,M,,*7F
2017-12-31 18:53:52 1514764432.352408: $GPRMC,235353,A,3946.9574,N,08404.9811,W,0.0000,0.000,311217,,*37
2017-12-31 18:53:52 1514764432.352469: $GPGSA,A,3,22,23,9,3,16,8,31,27,7,26,135,,1.7,0.8,1.3*09
2017-12-31 18:53:53 1514764433.353294: $GPZDA,235354.00,31,12,2017,00,00*65
2017-12-31 18:53:53 1514764433.353457: $GPGGA,235354,3946.9574,N,08404.9811,W,2,11,0.80,311.44,M,-33.324,M,,*78
2017-12-31 18:53:53 1514764433.353577: $GPRMC,235354,A,3946.9574,N,08404.9811,W,0.0000,0.000,311217,,*30
2017-12-31 18:53:53 1514764433.353639: $GPGSA,A,3,22,23,9,3,16,8,31,27,7,26,135,,1.7,0.8,1.3*09
2017-12-31 18:53:54 1514764434.688623: $GPGSV,3,1,11,22,07,204,25,23,69,279,39,09,37,309,39,03,17,220,33*7D
2017-12-31 18:53:54 1514764434.688806: $GPGSV,3,2,11,16,76,036,44,08,17,175,40,31,15,090,30,27,40,142,42*7E
2017-12-31 18:53:54 1514764434.688872: $GPGSV,3,3,11,07,11,285,38,26,43,048,46,135,22,240,44*76
2017-12-31 18:53:54 1514764434.802058: $GPZDA,235355.00,31,12,2017,00,00*64
2017-12-31 18:53:54 1514764434.802241: $GPGGA,235355,3946.9574,N,08404.9811,W,2,11,0.80,311.44,M,-33.324,M,,*79
2017-12-31 18:53:54 1514764434.802307: $GPRMC,235355,A,3946.9574,N,08404.9811,W,0.0000,0.000,311217,,*31
2017-12-31 18:53:54 1514764434.802368: $GPGSA,A,3,22,23,9,3,16,8,31,27,7,26,135,,1.7,0.8,1.3*09
2017-12-31 18:53:55 1514764435.427454: $GPZDA,235356.00,31,12,2017,00,00*67
2017-12-31 18:53:55 1514764435.427623: $GPGGA,235356,3946.9574,N,08404.9811,W,2,11,0.80,311.44,M,-33.324,M,,*7A
2017-12-31 18:53:55 1514764435.427687: $GPRMC,235356,A,3946.9574,N,08404.9811,W,0.0000,0.000,311217,,*32
2017-12-31 18:53:55 1514764435.427748: $GPGSA,A,3,22,23,9,3,16,8,31,27,7,26,135,,1.7,0.8,1.3*09
2017-12-31 18:53:56 1514764436.344965: $GPZDA,235357.00,31,12,2017,00,00*66
2017-12-31 18:53:57 1514764437.042007: $GPGGA,235357,3946.9574,N,08404.9811,W,2,11,0.80,311.44,M,-33.324,M,,*7B
2017-12-31 18:53:57 1514764437.042180: $GPRMC,235357,A,3946.9574,N,08404.9811,W,0.0000,0.000,311217,,*33
2017-12-31 18:53:57 1514764437.042245: $GPGSA,A,3,22,23,9,3,16,8,31,27,7,26,135,,1.7,0.8,1.3*09
2017-12-31 18:53:57 1514764437.687703: $GPGSV,3,1,11,22,07,204,25,23,69,279,40,09,37,309,39,03,17,220,34*74
2017-12-31 18:53:57 1514764437.687909: $GPGSV,3,2,11,16,76,036,44,08,17,175,40,31,15,090,31,27,40,142,42*7F
2017-12-31 18:53:57 1514764437.687977: $GPGSV,3,3,11,07,11,285,39,26,43,048,46,135,22,240,42*71
2017-12-31 18:53:57 1514764437.801179: $GPZDA,235358.00,31,12,2017,00,00*69
2017-12-31 18:53:57 1514764437.801346: $GPGGA,235358,3946.9574,N,08404.9811,W,2,11,0.80,311.44,M,-33.324,M,,*74
2017-12-31 18:53:57 1514764437.801412: $GPRMC,235358,A,3946.9574,N,08404.9811,W,0.0000,0.000,311217,,*3C
2017-12-31 18:53:57 1514764437.801472: $GPGSA,A,3,22,23,9,3,16,8,31,27,7,26,135,,1.7,0.8,1.3*09
2017-12-31 18:53:58 1514764438.353232: $GPZDA,235359.00,31,12,2017,00,00*68
2017-12-31 18:53:58 1514764438.353403: $GPGGA,235359,3946.9574,N,08404.9811,W,2,11,0.80,311.44,M,-33.324,M,,*75
2017-12-31 18:53:58 1514764438.353468: $GPRMC,235359,A,3946.9574,N,08404.9811,W,0.0000,0.000,311217,,*3D
2017-12-31 18:53:58 1514764438.353528: $GPGSA,A,3,22,23,9,3,16,8,31,27,7,26,135,,1.7,0.8,1.3*09
2017-12-31 18:53:59 1514764439.352785: $GPZDA,235400.00,31,12,2017,00,00*63
2017-12-31 18:53:59 1514764439.352959: $GPGGA,235400,3946.9574,N,08404.9811,W,2,11,0.80,311.44,M,-33.324,M,,*7E
2017-12-31 18:53:59 1514764439.353025: $GPRMC,235400,A,3946.9574,N,08404.9811,W,0.0000,0.000,311217,,*36
2017-12-31 18:53:59 1514764439.353085: $GPGSA,A,3,22,23,9,3,16,8,31,27,7,26,135,,1.7,0.8,1.3*09
2017-12-31 18:54:00 1514764440.688020: $GPGSV,3,1,11,22,07,204,26,23,69,279,40,09,37,309,39,03,17,220,34*77
2017-12-31 18:54:00 1514764440.688202: $GPGSV,3,2,11,16,76,036,45,08,17,175,40,31,15,090,33,27,40,142,43*7D
2017-12-31 18:54:00 1514764440.688267: $GPGSV,3,3,11,07,11,285,40,26,43,048,46,135,22,240,43*7E
2017-12-31 18:54:00 1514764440.801584: $GPZDA,235401.00,31,12,2017,00,00*62
2017-12-31 18:54:00 1514764440.801751: $GPGGA,235401,3946.9574,N,08404.9811,W,2,11,0.80,311.44,M,-33.324,M,,*7F
2017-12-31 18:54:00 1514764440.801816: $GPRMC,235401,A,3946.9574,N,08404.9811,W,0.0000,0.000,311217,,*37
2017-12-31 18:54:00 1514764440.801876: $GPGSA,A,3,22,23,9,3,16,8,31,27,7,26,135,,1.7,0.8,1.3*09
2017-12-31 18:54:01 1514764441.353673: $GPZDA,235402.00,31,12,2017,00,00*61
2017-12-31 18:54:01 1514764441.353836: $GPGGA,235402,3946.9574,N,08404.9811,W,2,11,0.80,311.44,M,-33.324,M,,*7C
2017-12-31 18:54:01 1514764441.353903: $GPRMC,235402,A,3946.9574,N,08404.9811,W,0.0000,0.000,311217,,*34
2017-12-31 18:54:01 1514764441.354024: $GPGSA,A,3,22,23,9,3,16,8,31,27,7,26,135,,1.7,0.8,1.3*09
2017-12-31 18:54:02 1514764442.353151: $GPZDA,235403.00,31,12,2017,00,00*60
2017-12-31 18:54:02 1514764442.353323: $GPGGA,235403,3946.9574,N,08404.9811,W,2,11,0.80,311.44,M,-33.324,M,,*7D
2017-12-31 18:54:02 1514764442.353389: $GPRMC,235403,A,3946.9574,N,08404.9811,W,0.0000,0.000,311217,,*35
2017-12-31 18:54:02 1514764442.353449: $GPGSA,A,3,22,23,9,3,16,8,31,27,7,26,135,,1.7,0.8,1.3*09
2017-12-31 18:54:03 1514764443.726403: $GPGSV,3,1,11,22,07,204,25,23,69,279,36,09,37,309,38,03,17,220,34*74
2017-12-31 18:54:03 1514764443.726664: $GPGSV,3,2,11,16,76,036,45,08,17,175,40,31,15,090,33,27,40,142,42*7C
2017-12-31 18:54:03 1514764443.726731: $GPGSV,3,3,11,07,11,285,41,26,43,048,46,135,22,240,44*78
2017-12-31 18:54:03 1514764443.840033: $GPZDA,235404.00,31,12,2017,00,00*67
2017-12-31 18:54:03 1514764443.840200: $GPGGA,235404,3946.9574,N,08404.9811,W,2,11,0.80,311.44,M,-33.324,M,,*7A
2017-12-31 18:54:03 1514764443.840266: $GPRMC,235404,A,3946.9574,N,08404.9811,W,0.0000,0.000,311217,,*32
2017-12-31 18:54:03 1514764443.840326: $GPGSA,A,3,22,23,9,3,16,8,31,27,7,26,135,,1.7,0.8,1.3*09
2017-12-31 18:54:04 1514764444.390654: $GPZDA,235405.00,31,12,2017,00,00*66
2017-12-31 18:54:04 1514764444.390824: $GPGGA,235405,3946.9574,N,08404.9811,W,2,11,0.80,311.44,M,-33.324,M,,*7B
2017-12-31 18:54:04 1514764444.390890: $GPRMC,235405,A,3946.9574,N,08404.9811,W,0.0000,0.000,311217,,*33
2017-12-31 18:54:04 1514764444.390950: $GPGSA,A,3,22,23,9,3,16,8,31,27,7,26,135,,1.7,0.8,1.3*09
2017-12-31 18:54:05 1514764445.391289: $GPZDA,235406.00,31,12,2017,00,00*65
2017-12-31 18:54:05 1514764445.391458: $GPGGA,235406,3946.9574,N,08404.9811,W,2,11,0.80,311.44,M,-33.324,M,,*78
2017-12-31 18:54:05 1514764445.391525: $GPRMC,235406,A,3946.9574,N,08404.9811,W,0.0000,0.000,311217,,*30
2017-12-31 18:54:05 1514764445.391585: $GPGSA,A,3,22,23,9,3,16,8,31,27,7,26,135,,1.7,0.8,1.3*09
