2017-12-01 12:20:02 1512148802.167241: {"class":"VERSION","release":"3.16","rev":"3.16-4","proto_major":3,"proto_minor":11}
2017-12-01 12:20:02 1512148802.167644: {"class":"DEVICES","devices":[{"class":"DEVICE","path":"/dev/ttyUSB0","driver":"SiRF","subtype":"9\u0006GSD4e_4.1.2-P1_RPATCH.05-F-GPS-4R-1510281 11/03/2015 307","activated":"2017-12-01T17:20:02.109Z","flags":1,"native":1,"bps":4800,"parity":"N","stopbits":1,"cycle":1.00}]}
2017-12-01 12:20:02 1512148802.167762: {"class":"WATCH","enable":true,"json":false,"nmea":true,"raw":0,"scaled":false,"timing":false,"split24":false,"pps":false}
2017-12-01 12:20:02 1512148802.419903: $GPZDA,172003.00,01,12,2017,00,00*67
2017-12-01 12:20:02 1512148802.420118: $GPGGA,172003,3946.9582,N,08404.9819,W,2,12,0.80,301.97,M,-33.324,M,,*74
2017-12-01 12:20:02 1512148802.420188: $GPRMC,172003,A,3946.9582,N,08404.9819,W,0.0000,0.000,011217,,*33
2017-12-01 12:20:02 1512148802.420250: $GPGSA,A,3,10,13,15,18,20,21,24,27,5,29,32,138,2.0,0.8,1.5*35
2017-12-01 12:20:03 1512148803.340947: $GPZDA,172004.00,01,12,2017,00,00*60
2017-12-01 12:20:03 1512148803.341140: $GPGGA,172004,3946.9585,N,08404.9818,W,2,12,0.80,301.20,M,-33.324,M,,*79
2017-12-01 12:20:03 1512148803.341208: $GPRMC,172004,A,3946.9585,N,08404.9818,W,0.0000,0.000,011217,,*32
2017-12-01 12:20:03 1512148803.341269: $GPGSA,A,3,10,13,15,18,20,21,24,27,5,29,32,138,2.0,0.8,1.5*35
2017-12-01 12:20:04 1512148804.676534: $GPGSV,3,1,12,10,24,283,37,13,28,045,44,15,60,051,45,18,55,301,45*76
2017-12-01 12:20:04 1512148804.676713: $GPGSV,3,2,12,20,51,073,44,21,79,262,42,24,34,138,47,27,17,312,39*75
2017-12-01 12:20:04 1512148804.676780: $GPGSV,3,3,12,05,03,088,23,29,09,189,25,32,02,226,26,138,38,213,45*49
2017-12-01 12:20:04 1512148804.789916: $GPZDA,172005.00,01,12,2017,00,00*61
2017-12-01 12:20:04 1512148804.790093: $GPGGA,172005,3946.9585,N,08404.9818,W,2,12,0.80,301.20,M,-33.324,M,,*78
2017-12-01 12:20:04 1512148804.790160: $GPRMC,172005,A,3946.9585,N,08404.9818,W,0.1867,0.000,011217,,*3B
2017-12-01 12:20:04 1512148804.790222: $GPGSA,A,3,10,13,15,18,20,21,24,27,5,29,32,138,2.0,0.8,1.5*35
2017-12-01 12:20:05 1512148805.339647: $GPZDA,172006.00,01,12,2017,00,00*62
2017-12-01 12:20:05 1512148805.339808: $GPGGA,172006,3946.9576,N,08404.9825,W,2,12,0.80,298.44,M,-33.324,M,,*7A
2017-12-01 12:20:05 1512148805.339874: $GPRMC,172006,A,3946.9576,N,08404.9825,W,0.0000,0.000,011217,,*32
2017-12-01 12:20:05 1512148805.339955: $GPGSA,A,3,10,13,15,18,20,21,24,27,5,29,32,138,2.0,0.8,1.5*35
2017-12-01 12:20:06 1512148806.341802: $GPZDA,172007.00,01,12,2017,00,00*63
2017-12-01 12:20:06 1512148806.342011: $GPGGA,172007,3946.9576,N,08404.9825,W,2,12,0.80,298.44,M,-33.324,M,,*7B
2017-12-01 12:20:06 1512148806.342102: $GPRMC,172007,A,3946.9576,N,08404.9825,W,0.0000,0.000,011217,,*33
2017-12-01 12:20:06 1512148806.342164: $GPGSA,A,3,10,13,15,18,20,21,24,27,5,29,32,138,2.0,0.8,1.5*35
2017-12-01 12:20:06 1512148806.342224: $GPGBS,172007,2.67,M,3.86,M,8.82,M*31
2017-12-01 12:20:07 1512148807.679235: $GPGSV,3,1,12,10,24,283,38,13,28,045,44,15,60,051,46,18,55,301,45*7A
2017-12-01 12:20:07 1512148807.679430: $GPGSV,3,2,12,20,51,073,45,21,79,262,42,24,34,138,47,27,17,312,39*74
2017-12-01 12:20:07 1512148807.679497: $GPGSV,3,3,12,05,03,088,23,29,09,189,24,32,02,226,24,138,38,213,45*4A
2017-12-01 12:20:07 1512148807.792961: $GPZDA,172008.00,01,12,2017,00,00*6C
2017-12-01 12:20:07 1512148807.793159: $GPGGA,172008,3946.9577,N,08404.9832,W,2,12,0.80,298.36,M,-33.324,M,,*76
2017-12-01 12:20:07 1512148807.793229: $GPRMC,172008,A,3946.9577,N,08404.9832,W,0.0000,0.000,011217,,*3B
2017-12-01 12:20:07 1512148807.793290: $GPGSA,A,3,10,13,15,18,20,21,24,27,5,29,32,138,2.0,0.8,1.5*35
2017-12-01 12:20:08 1512148808.343757: $GPZDA,172009.00,01,12,2017,00,00*6D
2017-12-01 12:20:08 1512148808.343974: $GPGGA,172009,3946.9577,N,08404.9832,W,2,12,0.80,298.36,M,-33.324,M,,*77
2017-12-01 12:20:08 1512148808.344083: $GPRMC,172009,A,3946.9577,N,08404.9832,W,0.0000,0.000,011217,,*3A
2017-12-01 12:20:08 1512148808.344148: $GPGSA,A,3,10,13,15,18,20,21,24,27,5,29,32,138,2.0,0.8,1.5*35
2017-12-01 12:20:09 1512148809.343345: $GPZDA,172010.00,01,12,2017,00,00*65
2017-12-01 12:20:09 1512148809.343533: $GPGGA,172010,3946.9577,N,08404.9832,W,2,12,0.80,298.36,M,-33.324,M,,*7F
2017-12-01 12:20:09 1512148809.343601: $GPRMC,172010,A,3946.9577,N,08404.9832,W,0.0000,0.000,011217,,*32
2017-12-01 12:20:09 1512148809.343663: $GPGSA,A,3,10,13,15,18,20,21,24,27,5,29,32,138,2.0,0.8,1.5*35
2017-12-01 12:20:10 1512148810.680086: $GPGSV,3,1,12,10,24,283,38,13,28,045,44,15,60,051,46,18,55,301,45*7A
2017-12-01 12:20:10 1512148810.680267: $GPGSV,3,2,12,20,51,073,45,21,79,262,42,24,34,138,48,27,17,312,38*7A
2017-12-01 12:20:10 1512148810.680334: $GPGSV,3,3,12,05,03,088,23,29,09,189,25,32,02,226,18,138,38,213,47*46
2017-12-01 12:20:10 1512148810.793727: $GPZDA,172011.00,01,12,2017,00,00*64
2017-12-01 12:20:10 1512148810.793914: $GPGGA,172011,3946.9577,N,08404.9832,W,2,12,0.80,298.36,M,-33.324,M,,*7E
2017-12-01 12:20:10 1512148810.793982: $GPRMC,172011,A,3946.9577,N,08404.9832,W,0.0000,0.000,011217,,*33
2017-12-01 12:20:10 1512148810.794061: $GPGSA,A,3,10,13,15,18,20,21,24,27,5,29,32,138,2.0,0.8,1.5*35
2017-12-01 12:20:11 1512148811.348282: $GPZDA,172012.00,01,12,2017,00,00*67
2017-12-01 12:20:11 1512148811.348450: $GPGGA,172012,3946.9577,N,08404.9832,W,2,12,1.20,298.36,M,-33.324,M,,*76
2017-12-01 12:20:11 1512148811.348516: $GPRMC,172012,A,3946.9577,N,08404.9832,W,0.0000,0.000,011217,,*30
2017-12-01 12:20:11 1512148811.348576: $GPGSA,A,3,10,13,15,18,20,21,24,27,5,29,32,138,2.0,1.2,1.5*3E
