2017-12-01 18:22:13 1512170533.417013: {"class":"VERSION","release":"3.16","rev":"3.16-4","proto_major":3,"proto_minor":11}
2017-12-01 18:22:13 1512170533.417405: {"class":"DEVICES","devices":[{"class":"DEVICE","path":"/dev/ttyUSB0","driver":"SiRF","subtype":"9\u0006GSD4e_4.1.2-P1_RPATCH.05-F-GPS-4R-1510281 11/03/2015 307","activated":"2017-12-01T23:22:13.328Z","flags":1,"native":1,"bps":4800,"parity":"N","stopbits":1,"cycle":1.00}]}
2017-12-01 18:22:13 1512170533.417537: {"class":"WATCH","enable":true,"json":false,"nmea":true,"raw":0,"scaled":false,"timing":false,"split24":false,"pps":false}
2017-12-01 18:22:13 1512170533.442109: $GPZDA,232214.00,01,12,2017,00,00*64
2017-12-01 18:22:13 1512170533.442283: $GPGGA,232214,3946.9707,N,08404.9847,W,2,12,0.80,295.93,M,-33.325,M,,*7A
2017-12-01 18:22:13 1512170533.442353: $GPRMC,232214,A,3946.9707,N,08404.9847,W,0.0000,0.000,011217,,*34
2017-12-01 18:22:13 1512170533.442414: $GPGSA,A,3,1,3,14,16,22,23,25,26,31,32,29,138,2.0,0.8,1.5*0C
2017-12-01 18:22:14 1512170534.746557: $GPGSV,3,1,12,01,06,253,34,03,39,300,47,14,56,090,43,16,22,189,43*7D
2017-12-01 18:22:14 1512170534.746747: $GPGSV,3,2,12,22,50,271,45,23,10,300,39,25,18,040,40,26,52,172,46*79
2017-12-01 18:22:14 1512170534.746815: $GPGSV,3,3,12,31,68,024,46,32,36,106,41,29,10,073,13,138,38,213,45*48
2017-12-01 18:22:14 1512170534.859869: $GPZDA,232215.00,01,12,2017,00,00*65
2017-12-01 18:22:14 1512170534.860010: $GPGGA,232215,3946.9707,N,08404.9847,W,2,11,0.80,295.93,M,-33.325,M,,*78
2017-12-01 18:22:14 1512170534.860077: $GPRMC,232215,A,3946.9707,N,08404.9847,W,0.0000,0.000,011217,,*35
2017-12-01 18:22:14 1512170534.860139: $GPGSA,A,3,1,3,14,16,22,23,25,26,31,32,138,,2.0,0.8,1.5*07
2017-12-01 18:22:15 1512170535.485689: $GPZDA,232216.00,01,12,2017,00,00*66
2017-12-01 18:22:15 1512170535.485876: $GPGGA,232216,3946.9707,N,08404.9847,W,2,11,0.80,295.93,M,-33.325,M,,*7B
2017-12-01 18:22:15 1512170535.485966: $GPRMC,232216,A,3946.9707,N,08404.9847,W,0.0000,0.000,011217,,*36
2017-12-01 18:22:15 1512170535.486029: $GPGSA,A,3,1,3,14,16,22,23,25,26,31,32,138,,2.0,0.8,1.5*07
2017-12-01 18:22:16 1512170536.441155: $GPZDA,232217.00,01,12,2017,00,00*67
2017-12-01 18:22:16 1512170536.441331: $GPGGA,232217,3946.9707,N,08404.9847,W,2,11,0.80,295.93,M,-33.325,M,,*7A
2017-12-01 18:22:16 1512170536.441513: $GPRMC,232217,A,3946.9707,N,08404.9847,W,0.0000,0.000,011217,,*37
2017-12-01 18:22:16 1512170536.441583: $GPGSA,A,3,1,3,14,16,22,23,25,26,31,32,138,,2.0,0.8,1.5*07
2017-12-01 18:22:17 1512170537.778271: $GPGSV,3,1,12,01,06,253,34,03,39,300,47,14,56,090,43,16,22,189,43*7D
2017-12-01 18:22:17 1512170537.778467: $GPGSV,3,2,12,22,50,271,45,23,10,300,39,25,18,040,41,26,52,172,45*7B
2017-12-01 18:22:17 1512170537.778534: $GPGSV,3,3,12,31,68,024,46,32,36,106,42,29,10,073,16,138,38,213,45*4E
2017-12-01 18:22:17 1512170537.891914: $GPZDA,232218.00,01,12,2017,00,00*68
2017-12-01 18:22:17 1512170537.892086: $GPGGA,232218,3946.9711,N,08404.9846,W,2,11,0.80,295.16,M,-33.325,M,,*7E
2017-12-01 18:22:17 1512170537.892153: $GPRMC,232218,A,3946.9711,N,08404.9846,W,0.0000,0.000,011217,,*3E
2017-12-01 18:22:17 1512170537.892216: $GPGSA,A,3,1,3,14,16,22,23,25,26,31,32,138,,2.0,0.8,1.5*07
2017-12-01 18:22:18 1512170538.413608: $GPZDA,232219.00,01,12,2017,00,00*69
2017-12-01 18:22:18 1512170538.413800: $GPGGA,232219,3946.9711,N,08404.9846,W,2,11,0.80,295.16,M,-33.325,M,,*7F
2017-12-01 18:22:18 1512170538.413870: $GPRMC,232219,A,3946.9711,N,08404.9846,W,0.0000,0.000,011217,,*3F
2017-12-01 18:22:18 1512170538.413933: $GPGSA,A,3,1,3,14,16,22,23,25,26,31,32,138,,2.0,0.8,1.5*07
2017-12-01 18:22:19 1512170539.441025: $GPZDA,232220.00,01,12,2017,00,00*63
2017-12-01 18:22:19 1512170539.441203: $GPGGA,232220,3946.9711,N,08404.9846,W,2,11,0.80,295.16,M,-33.325,M,,*75
2017-12-01 18:22:19 1512170539.441271: $GPRMC,232220,A,3946.9711,N,08404.9846,W,0.0000,0.000,011217,,*35
2017-12-01 18:22:19 1512170539.441332: $GPGSA,A,3,1,3,14,16,22,23,25,26,31,32,138,,2.0,0.8,1.5*07
2017-12-01 18:22:20 1512170540.743619: $GPGSV,3,1,12,01,06,253,36,03,39,300,47,14,56,090,44,16,22,189,44*7F
2017-12-01 18:22:20 1512170540.743906: $GPGSV,3,2,12,22,50,271,45,23,10,300,39,25,18,040,41,26,52,172,46*78
2017-12-01 18:22:20 1512170540.744002: $GPGSV,3,3,12,31,68,024,46,32,36,106,35,29,10,073,16,138,38,213,45*4E
2017-12-01 18:22:20 1512170540.857249: $GPZDA,232221.00,01,12,2017,00,00*62
2017-12-01 18:22:20 1512170540.857409: $GPGGA,232221,3946.9711,N,08404.9846,W,2,11,0.80,295.16,M,-33.325,M,,*74
2017-12-01 18:22:20 1512170540.857479: $GPRMC,232221,A,3946.9711,N,08404.9846,W,0.0000,0.000,011217,,*34
2017-12-01 18:22:20 1512170540.857544: $GPGSA,A,3,1,3,14,16,22,23,25,26,31,32,138,,2.0,0.8,1.5*07
2017-12-01 18:22:21 1512170541.411544: $GPZDA,232222.00,01,12,2017,00,00*61
2017-12-01 18:22:21 1512170541.411738: $GPGGA,232222,3946.9711,N,08404.9846,W,2,11,0.80,295.16,M,-33.325,M,,*77
2017-12-01 18:22:21 1512170541.411814: $GPRMC,232222,A,3946.9711,N,08404.9846,W,0.0000,0.000,011217,,*37
2017-12-01 18:22:21 1512170541.411878: $GPGSA,A,3,1,3,14,16,22,23,25,26,31,32,138,,2.0,0.8,1.5*07
2017-12-01 18:22:22 1512170542.409914: $GPZDA,232223.00,01,12,2017,00,00*60
2017-12-01 18:22:22 1512170542.410083: $GPGGA,232223,3946.9711,N,08404.9846,W,2,11,0.80,295.16,M,-33.325,M,,*76
2017-12-01 18:22:22 1512170542.410153: $GPRMC,232223,A,3946.9711,N,08404.9846,W,0.0000,0.000,011217,,*36
2017-12-01 18:22:22 1512170542.410214: $GPGSA,A,3,1,3,14,16,22,23,25,26,31,32,138,,2.0,0.8,1.5*07
2017-12-01 18:22:23 1512170543.744340: $GPGSV,3,1,12,01,06,253,36,03,39,300,47,14,56,090,44,16,22,189,43*78
2017-12-01 18:22:23 1512170543.744539: $GPGSV,3,2,12,22,50,271,45,23,10,300,39,25,18,040,41,26,52,172,46*78
2017-12-01 18:22:23 1512170543.744608: $GPGSV,3,3,12,31,68,024,46,32,36,106,38,29,10,073,16,138,38,213,45*43
2017-12-01 18:22:23 1512170543.857830: $GPZDA,232224.00,01,12,2017,00,00*67
2017-12-01 18:22:23 1512170543.858007: $GPGGA,232224,3946.9711,N,08404.9846,W,2,11,0.80,295.16,M,-33.325,M,,*71
2017-12-01 18:22:23 1512170543.858076: $GPRMC,232224,A,3946.9711,N,08404.9846,W,0.0000,0.000,011217,,*31
2017-12-01 18:22:23 1512170543.858139: $GPGSA,A,3,1,3,14,16,22,23,25,26,31,32,138,,2.0,0.8,1.5*07
2017-12-01 18:22:24 1512170544.411264: $GPZDA,232225.00,01,12,2017,00,00*66
2017-12-01 18:22:24 1512170544.411527: $GPGGA,232225,3946.9711,N,08404.9846,W,2,11,0.80,295.16,M,-33.325,M,,*70
2017-12-01 18:22:24 1512170544.411601: $GPRMC,232225,A,3946.9711,N,08404.9846,W,0.0000,0.000,011217,,*30
2017-12-01 18:22:24 1512170544.411664: $GPGSA,A,3,1,3,14,16,22,23,25,26,31,32,138,,2.0,0.8,1.5*07
2017-12-01 18:22:25 1512170545.410277: $GPZDA,232226.00,01,12,2017,00,00*65
2017-12-01 18:22:25 1512170545.410468: $GPGGA,232226,3946.9711,N,08404.9846,W,2,11,0.80,295.16,M,-33.325,M,,*73
2017-12-01 18:22:25 1512170545.410539: $GPRMC,232226,A,3946.9711,N,08404.9846,W,0.0000,0.000,011217,,*33
2017-12-01 18:22:25 1512170545.410602: $GPGSA,A,3,1,3,14,16,22,23,25,26,31,32,138,,2.0,0.8,1.5*07
2017-12-01 18:22:26 1512170546.744927: $GPGSV,3,1,12,01,06,253,36,03,39,300,47,14,56,090,44,16,22,189,44*7F
2017-12-01 18:22:26 1512170546.745127: $GPGSV,3,2,12,22,50,271,45,23,10,300,39,25,18,040,42,26,52,172,46*7B
2017-12-01 18:22:26 1512170546.745200: $GPGSV,3,3,12,31,68,024,46,32,36,106,38,29,10,073,15,138,38,213,46*43
2017-12-01 18:22:26 1512170546.858311: $GPZDA,232227.00,01,12,2017,00,00*64
2017-12-01 18:22:26 1512170546.858495: $GPGGA,232227,3946.9711,N,08404.9846,W,2,11,0.80,295.16,M,-33.325,M,,*72
2017-12-01 18:22:26 1512170546.858565: $GPRMC,232227,A,3946.9711,N,08404.9846,W,0.0000,0.000,011217,,*32
2017-12-01 18:22:26 1512170546.858627: $GPGSA,A,3,1,3,14,16,22,23,25,26,31,32,138,,2.0,0.8,1.5*07
2017-12-01 18:22:27 1512170547.410433: $GPZDA,232228.00,01,12,2017,00,00*6B
2017-12-01 18:22:27 1512170547.410608: $GPGGA,232228,3946.9711,N,08404.9846,W,2,11,0.80,295.16,M,-33.325,M,,*7D
2017-12-01 18:22:27 1512170547.410676: $GPRMC,232228,A,3946.9711,N,08404.9846,W,0.0000,0.000,011217,,*3D
2017-12-01 18:22:27 1512170547.410738: $GPGSA,A,3,1,3,14,16,22,23,25,26,31,32,138,,2.0,0.8,1.5*07
2017-12-01 18:22:28 1512170548.410151: $GPZDA,232229.00,01,12,2017,00,00*6A
2017-12-01 18:22:28 1512170548.410396: $GPGGA,232229,3946.9711,N,08404.9846,W,2,11,0.80,295.16,M,-33.325,M,,*7C
2017-12-01 18:22:28 1512170548.410470: $GPRMC,232229,A,3946.9711,N,08404.9846,W,0.0000,0.000,011217,,*3C
2017-12-01 18:22:28 1512170548.410532: $GPGSA,A,3,1,3,14,16,22,23,25,26,31,32,138,,2.0,0.8,1.5*07
2017-12-01 18:22:29 1512170549.746895: $GPGSV,3,1,12,01,06,253,31,03,39,300,47,14,56,090,44,16,22,189,43*7F
2017-12-01 18:22:29 1512170549.747077: $GPGSV,3,2,12,22,50,271,45,23,10,300,40,25,18,040,41,26,52,172,46*76
2017-12-01 18:22:29 1512170549.747145: $GPGSV,3,3,12,31,68,024,46,32,36,106,39,29,10,073,15,138,38,213,46*42
2017-12-01 18:22:29 1512170549.861501: $GPZDA,232230.00,01,12,2017,00,00*62
2017-12-01 18:22:29 1512170549.861677: $GPGGA,232230,3946.9711,N,08404.9846,W,2,12,0.80,295.16,M,-33.325,M,,*77
2017-12-01 18:22:29 1512170549.861744: $GPRMC,232230,A,3946.9711,N,08404.9846,W,0.0000,0.000,011217,,*34
2017-12-01 18:22:29 1512170549.861807: $GPGSA,A,3,1,3,14,16,22,23,25,26,31,32,29,138,2.0,0.8,1.5*0C
2017-12-01 18:22:30 1512170550.485719: $GPZDA,232231.00,01,12,2017,00,00*63
2017-12-01 18:22:30 1512170550.485893: $GPGGA,232231,3946.9711,N,08404.9846,W,2,12,0.80,295.16,M,-33.325,M,,*76
2017-12-01 18:22:30 1512170550.485960: $GPRMC,232231,A,3946.9711,N,08404.9846,W,0.0000,0.000,011217,,*35
2017-12-01 18:22:30 1512170550.486022: $GPGSA,A,3,1,3,14,16,22,23,25,26,31,32,29,138,2.0,0.8,1.5*0C
2017-12-01 18:22:31 1512170551.408000: $GPZDA,232232.00,01,12,2017,00,00*60
2017-12-01 18:22:31 1512170551.408184: $GPGGA,232232,3946.9711,N,08404.9846,W,2,12,0.80,295.16,M,-33.325,M,,*75
2017-12-01 18:22:31 1512170551.408251: $GPRMC,232232,A,3946.9711,N,08404.9846,W,0.0000,0.000,011217,,*36
2017-12-01 18:22:31 1512170551.408316: $GPGSA,A,3,1,3,14,16,22,23,25,26,31,32,29,138,2.0,0.8,1.5*0C
2017-12-01 18:22:32 1512170552.744829: $GPGSV,3,1,12,01,06,253,33,03,39,300,46,14,56,090,44,16,22,189,43*7C
2017-12-01 18:22:32 1512170552.745010: $GPGSV,3,2,12,22,50,271,45,23,10,300,40,25,18,040,41,26,52,172,46*76
2017-12-01 18:22:32 1512170552.745077: $GPGSV,3,3,12,31,68,024,46,32,36,106,38,29,10,073,00,138,38,213,46*47
2017-12-01 18:22:32 1512170552.858480: $GPZDA,232233.00,01,12,2017,00,00*61
2017-12-01 18:22:32 1512170552.858649: $GPGGA,232233,3946.9711,N,08404.9846,W,2,11,0.80,295.16,M,-33.325,M,,*77
2017-12-01 18:22:32 1512170552.858717: $GPRMC,232233,A,3946.9711,N,08404.9846,W,0.0000,0.000,011217,,*37
2017-12-01 18:22:32 1512170552.858779: $GPGSA,A,3,1,3,14,16,22,23,25,26,31,32,138,,2.0,0.8,1.5*07
2017-12-01 18:22:33 1512170553.410288: $GPZDA,232234.00,01,12,2017,00,00*66
2017-12-01 18:22:33 1512170553.410466: $GPGGA,232234,3946.9711,N,08404.9846,W,2,11,0.80,295.16,M,-33.325,M,,*70
2017-12-01 18:22:33 1512170553.410536: $GPRMC,232234,A,3946.9711,N,08404.9846,W,0.0000,0.000,011217,,*30
2017-12-01 18:22:33 1512170553.410598: $GPGSA,A,3,1,3,14,16,22,23,25,26,31,32,138,,2.0,0.8,1.5*07
