2017-12-01 12:27:00 1512149220.325714: {"class":"VERSION","release":"3.16","rev":"3.16-4","proto_major":3,"proto_minor":11}
2017-12-01 12:27:00 1512149220.326126: {"class":"DEVICES","devices":[{"class":"DEVICE","path":"/dev/ttyUSB0","driver":"SiRF","subtype":"9\u0006GSD4e_4.1.2-P1_RPATCH.05-F-GPS-4R-1510281 11/03/2015 307","activated":"2017-12-01T17:27:00.239Z","flags":1,"native":1,"bps":4800,"parity":"N","stopbits":1,"cycle":1.00}]}
2017-12-01 12:27:00 1512149220.326251: {"class":"WATCH","enable":true,"json":false,"nmea":true,"raw":0,"scaled":false,"timing":false,"split24":false,"pps":false}
2017-12-01 12:27:00 1512149220.352557: $GPZDA,172701.00,01,12,2017,00,00*62
2017-12-01 12:27:00 1512149220.352692: $GPGGA,172701,3946.9582,N,08404.9833,W,2,12,0.80,301.81,M,-33.324,M,,*7E
2017-12-01 12:27:00 1512149220.352759: $GPRMC,172701,A,3946.9582,N,08404.9833,W,0.0000,0.000,011217,,*3E
2017-12-01 12:27:00 1512149220.352819: $GPGSA,A,3,10,13,15,18,20,21,24,29,27,32,5,138,2.0,0.8,1.5*35
2017-12-01 12:27:01 1512149221.672087: $GPGSV,3,1,12,10,26,286,40,13,25,045,43,15,57,049,46,18,57,304,46*71
2017-12-01 12:27:01 1512149221.672266: $GPGSV,3,2,12,20,49,076,47,21,79,246,41,24,37,135,47,29,07,189,34*73
2017-12-01 12:27:01 1512149221.672334: $GPGSV,3,3,12,27,17,309,37,32,04,226,19,05,01,090,17,138,38,213,46*44
2017-12-01 12:27:01 1512149221.785431: $GPZDA,172702.00,01,12,2017,00,00*61
2017-12-01 12:27:01 1512149221.785609: $GPGGA,172702,3946.9582,N,08404.9833,W,2,12,0.80,301.81,M,-33.324,M,,*7D
2017-12-01 12:27:01 1512149221.785677: $GPRMC,172702,A,3946.9582,N,08404.9833,W,0.0000,0.000,011217,,*3D
2017-12-01 12:27:01 1512149221.785738: $GPGSA,A,3,10,13,15,18,20,21,24,29,27,32,5,138,2.0,0.8,1.5*35
2017-12-01 12:27:02 1512149222.335050: $GPZDA,172703.00,01,12,2017,00,00*60
2017-12-01 12:27:02 1512149222.335234: $GPGGA,172703,3946.9582,N,08404.9833,W,2,12,0.80,301.81,M,-33.324,M,,*7C
2017-12-01 12:27:02 1512149222.335302: $GPRMC,172703,A,3946.9582,N,08404.9833,W,0.0000,0.000,011217,,*3C
2017-12-01 12:27:02 1512149222.335365: $GPGSA,A,3,10,13,15,18,20,21,24,29,27,32,5,138,2.0,0.8,1.5*35
2017-12-01 12:27:03 1512149223.335899: $GPZDA,172704.00,01,12,2017,00,00*67
2017-12-01 12:27:03 1512149223.336071: $GPGGA,172704,3946.9586,N,08404.9833,W,2,12,0.80,302.45,M,-33.324,M,,*74
2017-12-01 12:27:03 1512149223.336139: $GPRMC,172704,A,3946.9586,N,08404.9833,W,0.0000,0.000,011217,,*3F
2017-12-01 12:27:03 1512149223.336200: $GPGSA,A,3,10,13,15,18,20,21,24,29,27,32,5,138,2.0,0.8,1.5*35
2017-12-01 12:27:04 1512149224.671801: $GPGSV,3,1,12,10,26,286,41,13,25,045,42,15,57,049,46,18,57,304,46*71
2017-12-01 12:27:04 1512149224.671980: $GPGSV,3,2,12,20,49,076,46,21,79,246,41,24,37,135,47,29,07,189,35*73
2017-12-01 12:27:04 1512149224.672048: $GPGSV,3,3,12,27,17,309,37,32,04,226,19,05,01,090,17,138,38,213,46*44
2017-12-01 12:27:04 1512149224.785378: $GPZDA,172705.00,01,12,2017,00,00*66
2017-12-01 12:27:04 1512149224.785509: $GPGGA,172705,3946.9583,N,08404.9834,W,2,12,0.80,303.21,M,-33.324,M,,*74
2017-12-01 12:27:04 1512149224.785575: $GPRMC,172705,A,3946.9583,N,08404.9834,W,0.0000,0.000,011217,,*3C
2017-12-01 12:27:04 1512149224.785636: $GPGSA,A,3,10,13,15,18,20,21,24,29,27,32,5,138,2.0,0.8,1.5*35
2017-12-01 12:27:05 1512149225.410881: $GPZDA,172706.00,01,12,2017,00,00*65
2017-12-01 12:27:05 1512149225.411053: $GPGGA,172706,3946.9583,N,08404.9834,W,2,12,0.80,303.21,M,-33.324,M,,*77
2017-12-01 12:27:05 1512149225.411119: $GPRMC,172706,A,3946.9583,N,08404.9834,W,0.0000,0.000,011217,,*3F
2017-12-01 12:27:05 1512149225.411180: $GPGSA,A,3,10,13,15,18,20,21,24,29,27,32,5,138,2.0,0.8,1.5*35
2017-12-01 12:27:06 1512149226.335464: $GPZDA,172707.00,01,12,2017,00,00*64
2017-12-01 12:27:06 1512149226.335629: $GPGGA,172707,3946.9583,N,08404.9834,W,2,12,0.80,303.21,M,-33.324,M,,*76
2017-12-01 12:27:06 1512149226.335695: $GPRMC,172707,A,3946.9583,N,08404.9834,W,0.0000,0.000,011217,,*3E
2017-12-01 12:27:06 1512149226.335756: $GPGSA,A,3,10,13,15,18,20,21,24,29,27,32,5,138,2.0,0.8,1.5*35
2017-12-01 12:27:07 1512149227.672211: $GPGSV,3,1,12,10,26,286,41,13,25,045,42,15,57,049,46,18,57,304,46*71
2017-12-01 12:27:07 1512149227.672457: $GPGSV,3,2,12,20,49,076,46,21,79,246,41,24,37,135,47,29,07,189,35*73
2017-12-01 12:27:07 1512149227.672527: $GPGSV,3,3,12,27,17,309,38,32,04,226,00,05,01,090,16,138,38,213,46*42
2017-12-01 12:27:07 1512149227.785599: $GPZDA,172708.00,01,12,2017,00,00*6B
2017-12-01 12:27:07 1512149227.785781: $GPGGA,172708,3946.9583,N,08404.9834,W,2,11,0.80,303.21,M,-33.324,M,,*7A
2017-12-01 12:27:07 1512149227.785849: $GPRMC,172708,A,3946.9583,N,08404.9834,W,0.0000,0.000,011217,,*31
2017-12-01 12:27:07 1512149227.785911: $GPGSA,A,3,10,13,15,18,20,21,24,29,27,5,138,,2.0,0.8,1.5*34
2017-12-01 12:27:08 1512149228.347693: $GPZDA,172709.00,01,12,2017,00,00*6A
2017-12-01 12:27:08 1512149228.347860: $GPGGA,172709,3946.9583,N,08404.9834,W,2,11,0.80,303.21,M,-33.324,M,,*7B
2017-12-01 12:27:08 1512149228.347928: $GPRMC,172709,A,3946.9583,N,08404.9834,W,0.0000,0.000,011217,,*30
2017-12-01 12:27:08 1512149228.347988: $GPGSA,A,3,10,13,15,18,20,21,24,29,27,5,138,,2.0,0.8,1.5*34
2017-12-01 12:27:09 1512149229.351046: $GPZDA,172710.00,01,12,2017,00,00*62
2017-12-01 12:27:09 1512149229.351236: $GPGGA,172710,3946.9583,N,08404.9834,W,2,11,0.80,303.21,M,-33.324,M,,*73
2017-12-01 12:27:09 1512149229.351304: $GPRMC,172710,A,3946.9583,N,08404.9834,W,0.0000,0.000,011217,,*38
2017-12-01 12:27:09 1512149229.351427: $GPGSA,A,3,10,13,15,18,20,21,24,29,27,5,138,,2.0,0.8,1.5*34
