2017-12-01 15:19:10 1512159550.773611: {"class":"VERSION","release":"3.16","rev":"3.16-4","proto_major":3,"proto_minor":11}
2017-12-01 15:19:10 1512159550.774005: {"class":"DEVICES","devices":[{"class":"DEVICE","path":"/dev/ttyUSB0","driver":"SiRF","subtype":"9\u0006GSD4e_4.1.2-P1_RPATCH.05-F-GPS-4R-1510281 11/03/2015 307","activated":"2017-12-01T20:19:10.478Z","flags":1,"native":1,"bps":4800,"parity":"N","stopbits":1,"cycle":1.00}]}
2017-12-01 15:19:10 1512159550.774123: {"class":"WATCH","enable":true,"json":false,"nmea":true,"raw":0,"scaled":false,"timing":false,"split24":false,"pps":false}
2017-12-01 15:19:11 1512159551.084005: $GPZDA,201911.76,01,12,2017,00,00*6B
2017-12-01 15:19:11 1512159551.084190: $GPGGA,201911,3946.9566,N,08404.9834,W,1,12,0.80,300.65,M,-33.324,M,,*73
2017-12-01 15:19:11 1512159551.084259: $GPRMC,201911,A,3946.9566,N,08404.9834,W,0.1567,9.200,011217,,*35
2017-12-01 15:19:11 1512159551.084321: $GPGSA,A,3,10,12,14,18,24,25,31,32,1,11,21,138,2.0,0.8,1.5*38
2017-12-01 15:19:11 1512159551.084382: $GPGBS,201911,10.70,M,15.43,M,35.28,M*0D
2017-12-01 15:19:12 1512159552.165509: $GPZDA,201912.44,01,12,2017,00,00*69
2017-12-01 15:19:12 1512159552.165687: $GPGGA,201912,3946.9563,N,08404.9834,W,1,12,0.80,301.42,M,-33.324,M,,*71
2017-12-01 15:19:12 1512159552.165754: $GPRMC,201912,A,3946.9563,N,08404.9834,W,0.3423,4.197,011217,,*30
2017-12-01 15:19:12 1512159552.165814: $GPGSA,A,3,10,12,14,18,24,25,31,32,1,11,21,138,2.0,0.8,1.5*38
2017-12-01 15:19:13 1512159553.308107: $GPGSV,3,1,12,01,07,325,38,10,80,100,46,11,09,312,37,12,22,084,43*7E
2017-12-01 15:19:13 1512159553.308296: $GPGSV,3,2,12,14,47,277,41,18,48,127,47,24,24,046,45,25,21,124,42*7E
2017-12-01 15:19:13 1512159553.308363: $GPGSV,3,3,12,31,23,207,44,32,63,303,47,21,04,174,05,138,38,213,35*4C
2017-12-01 15:19:13 1512159553.422173: $GPZDA,201913.00,01,12,2017,00,00*68
2017-12-01 15:19:13 1512159553.422304: $GPGGA,201913,3946.9563,N,08404.9834,W,1,11,0.80,301.42,M,-33.324,M,,*73
2017-12-01 15:19:13 1512159553.422371: $GPRMC,201913,A,3946.9563,N,08404.9834,W,0.1567,9.200,011217,,*32
2017-12-01 15:19:13 1512159553.422432: $GPGSA,A,3,1,10,11,12,14,18,24,25,31,32,138,,2.0,0.8,1.5*3B
2017-12-01 15:19:13 1512159553.873903: $GPZDA,201914.00,01,12,2017,00,00*6F
2017-12-01 15:19:13 1512159553.874076: $GPGGA,201914,3946.9566,N,08404.9834,W,1,11,0.60,300.65,M,-33.324,M,,*7B
2017-12-01 15:19:13 1512159553.874143: $GPRMC,201914,A,3946.9566,N,08404.9834,W,0.0000,0.000,011217,,*3E
2017-12-01 15:19:13 1512159553.874204: $GPGSA,A,3,1,10,11,12,14,18,24,25,31,32,138,,2.0,0.6,1.5*35
2017-12-01 15:19:14 1512159554.374795: $GPZDA,201915.00,01,12,2017,00,00*6E
2017-12-01 15:19:14 1512159554.374966: $GPGGA,201915,3946.9566,N,08404.9834,W,1,11,0.80,300.65,M,-33.324,M,,*74
2017-12-01 15:19:14 1512159554.375033: $GPRMC,201915,A,3946.9566,N,08404.9834,W,0.0000,0.000,011217,,*3F
2017-12-01 15:19:14 1512159554.375094: $GPGSA,A,3,1,10,11,12,14,18,24,25,31,32,138,,2.0,0.8,1.5*3B
2017-12-01 15:19:15 1512159555.709734: $GPGSV,3,1,12,01,07,325,37,10,80,100,46,11,09,312,32,12,22,084,44*73
2017-12-01 15:19:15 1512159555.718223: $GPGSV,3,2,12,14,47,277,42,18,48,127,48,24,24,046,45,25,21,124,42*72
2017-12-01 15:19:15 1512159555.718343: $GPGSV,3,3,12,31,23,207,44,32,63,303,48,21,04,174,13,138,38,213,46*40
2017-12-01 15:19:15 1512159555.823517: $GPZDA,201916.00,01,12,2017,00,00*6D
2017-12-01 15:19:15 1512159555.823689: $GPGGA,201916,3946.9566,N,08404.9834,W,1,12,0.80,300.65,M,-33.324,M,,*74
2017-12-01 15:19:15 1512159555.823755: $GPRMC,201916,A,3946.9566,N,08404.9834,W,0.0000,0.000,011217,,*3C
2017-12-01 15:19:15 1512159555.823815: $GPGSA,A,3,1,10,11,12,14,18,24,25,31,32,21,138,2.0,0.8,1.5*38
2017-12-01 15:19:16 1512159556.375378: $GPZDA,201917.00,01,12,2017,00,00*6C
2017-12-01 15:19:16 1512159556.375549: $GPGGA,201917,3946.9566,N,08404.9834,W,1,12,0.80,300.65,M,-33.324,M,,*75
2017-12-01 15:19:16 1512159556.375615: $GPRMC,201917,A,3946.9566,N,08404.9834,W,0.0000,0.000,011217,,*3D
2017-12-01 15:19:16 1512159556.375675: $GPGSA,A,3,1,10,11,12,14,18,24,25,31,32,21,138,2.0,0.8,1.5*38
2017-12-01 15:19:17 1512159557.376131: $GPZDA,201918.00,01,12,2017,00,00*63
2017-12-01 15:19:17 1512159557.376320: $GPGGA,201918,3946.9567,N,08404.9841,W,2,12,1.00,300.57,M,-33.324,M,,*72
2017-12-01 15:19:17 1512159557.376387: $GPRMC,201918,A,3946.9567,N,08404.9841,W,0.0000,0.000,011217,,*31
2017-12-01 15:19:17 1512159557.376448: $GPGSA,A,3,1,10,11,12,14,18,24,25,31,32,21,138,2.0,1.0,1.5*31
2017-12-01 15:19:17 1512159557.376507: $GPGBS,201918,2.67,M,3.86,M,8.82,M*31
2017-12-01 15:19:18 1512159558.710562: $GPGSV,3,1,12,01,07,325,37,10,80,100,47,11,09,312,36,12,22,084,43*71
2017-12-01 15:19:18 1512159558.710742: $GPGSV,3,2,12,14,47,277,42,18,48,127,48,24,24,046,45,25,21,124,42*72
2017-12-01 15:19:18 1512159558.710810: $GPGSV,3,3,12,31,23,207,45,32,63,303,47,21,04,174,19,138,38,213,46*44
2017-12-01 15:19:18 1512159558.823876: $GPZDA,201919.00,01,12,2017,00,00*62
2017-12-01 15:19:18 1512159558.824064: $GPGGA,201919,3946.9567,N,08404.9841,W,2,12,1.00,300.57,M,-33.324,M,,*73
2017-12-01 15:19:18 1512159558.824134: $GPRMC,201919,A,3946.9567,N,08404.9841,W,0.0000,0.000,011217,,*30
2017-12-01 15:19:18 1512159558.824214: $GPGSA,A,3,1,10,11,12,14,18,24,25,31,32,21,138,2.0,1.0,1.5*31
2017-12-01 15:19:19 1512159559.378892: $GPZDA,201920.00,01,12,2017,00,00*68
2017-12-01 15:19:19 1512159559.379246: $GPGGA,201920,3946.9573,N,08404.9839,W,2,12,1.00,297.64,M,-33.324,M,,*7C
2017-12-01 15:19:19 1512159559.379372: $GPRMC,201920,A,3946.9573,N,08404.9839,W,0.0000,0.000,011217,,*30
2017-12-01 15:19:19 1512159559.379492: $GPGSA,A,3,1,10,11,12,14,18,24,25,31,32,21,138,2.0,1.0,1.5*31
2017-12-01 15:19:20 1512159560.375353: $GPZDA,201921.00,01,12,2017,00,00*69
2017-12-01 15:19:20 1512159560.375509: $GPGGA,201921,3946.9573,N,08404.9839,W,2,12,1.00,297.64,M,-33.324,M,,*7D
2017-12-01 15:19:20 1512159560.375575: $GPRMC,201921,A,3946.9573,N,08404.9839,W,0.0000,0.000,011217,,*31
2017-12-01 15:19:20 1512159560.375635: $GPGSA,A,3,1,10,11,12,14,18,24,25,31,32,21,138,2.0,1.0,1.5*31
2017-12-01 15:19:21 1512159561.713663: $GPGSV,3,1,12,01,07,325,36,10,80,100,47,11,09,312,32,12,22,084,43*74
2017-12-01 15:19:21 1512159561.714058: $GPGSV,3,2,12,14,47,277,42,18,48,127,48,24,24,046,44,25,21,124,42*73
2017-12-01 15:19:21 1512159561.714237: $GPGSV,3,3,12,31,23,207,45,32,63,303,47,21,04,174,19,138,38,213,46*44
2017-12-01 15:19:21 1512159561.826734: $GPZDA,201922.00,01,12,2017,00,00*6A
2017-12-01 15:19:21 1512159561.826931: $GPGGA,201922,3946.9573,N,08404.9839,W,2,12,0.80,297.64,M,-33.324,M,,*77
2017-12-01 15:19:21 1512159561.826998: $GPRMC,201922,A,3946.9573,N,08404.9839,W,0.0000,0.000,011217,,*32
2017-12-01 15:19:21 1512159561.827079: $GPGSA,A,3,1,10,11,12,14,18,24,25,31,32,21,138,2.0,0.8,1.5*38
2017-12-01 15:19:22 1512159562.377927: $GPZDA,201923.00,01,12,2017,00,00*6B
2017-12-01 15:19:22 1512159562.378128: $GPGGA,201923,3946.9573,N,08404.9839,W,2,12,0.80,297.64,M,-33.324,M,,*76
2017-12-01 15:19:22 1512159562.378213: $GPRMC,201923,A,3946.9573,N,08404.9839,W,0.0000,0.000,011217,,*33
2017-12-01 15:19:22 1512159562.378276: $GPGSA,A,3,1,10,11,12,14,18,24,25,31,32,21,138,2.0,0.8,1.5*38
2017-12-01 15:19:23 1512159563.377262: $GPZDA,201924.00,01,12,2017,00,00*6C
2017-12-01 15:19:23 1512159563.377433: $GPGGA,201924,3946.9573,N,08404.9839,W,2,12,0.80,297.64,M,-33.324,M,,*71
2017-12-01 15:19:23 1512159563.377499: $GPRMC,201924,A,3946.9573,N,08404.9839,W,0.0000,0.000,011217,,*34
2017-12-01 15:19:23 1512159563.377560: $GPGSA,A,3,1,10,11,12,14,18,24,25,31,32,21,138,2.0,0.8,1.5*38
2017-12-01 15:19:24 1512159564.712985: $GPGSV,3,1,12,01,07,325,30,10,80,100,47,11,09,312,30,12,22,084,43*70
2017-12-01 15:19:24 1512159564.713199: $GPGSV,3,2,12,14,47,277,42,18,48,127,48,24,24,046,45,25,21,124,42*72
2017-12-01 15:19:24 1512159564.713269: $GPGSV,3,3,12,31,23,207,45,32,63,303,47,21,04,174,24,138,38,213,46*4A
2017-12-01 15:19:24 1512159564.826357: $GPZDA,201925.00,01,12,2017,00,00*6D
2017-12-01 15:19:24 1512159564.826554: $GPGGA,201925,3946.9573,N,08404.9839,W,2,12,0.80,297.64,M,-33.324,M,,*70
2017-12-01 15:19:24 1512159564.826622: $GPRMC,201925,A,3946.9573,N,08404.9839,W,0.0000,0.000,011217,,*35
2017-12-01 15:19:24 1512159564.826735: $GPGSA,A,3,1,10,11,12,14,18,24,25,31,32,21,138,2.0,0.8,1.5*38
2017-12-01 15:19:25 1512159565.452141: $GPZDA,201926.00,01,12,2017,00,00*6E
2017-12-01 15:19:25 1512159565.452491: $GPGGA,201926,3946.9573,N,08404.9839,W,2,12,0.80,297.64,M,-33.324,M,,*73
2017-12-01 15:19:25 1512159565.452617: $GPRMC,201926,A,3946.9573,N,08404.9839,W,0.0000,0.000,011217,,*36
2017-12-01 15:19:25 1512159565.452736: $GPGSA,A,3,1,10,11,12,14,18,24,25,31,32,21,138,2.0,0.8,1.5*38
2017-12-01 15:19:26 1512159566.376654: $GPZDA,201927.00,01,12,2017,00,00*6F
2017-12-01 15:19:26 1512159566.376827: $GPGGA,201927,3946.9573,N,08404.9839,W,2,12,0.80,297.64,M,-33.324,M,,*72
2017-12-01 15:19:26 1512159566.376894: $GPRMC,201927,A,3946.9573,N,08404.9839,W,0.0000,0.000,011217,,*37
2017-12-01 15:19:26 1512159566.376956: $GPGSA,A,3,1,10,11,12,14,18,24,25,31,32,21,138,2.0,0.8,1.5*38
2017-12-01 15:19:27 1512159567.712109: $GPGSV,3,1,12,01,07,325,32,10,80,100,47,11,09,312,34,12,22,084,44*71
2017-12-01 15:19:27 1512159567.712312: $GPGSV,3,2,12,14,47,277,42,18,48,127,48,24,24,046,44,25,21,124,42*73
2017-12-01 15:19:27 1512159567.712379: $GPGSV,3,3,12,31,23,207,45,32,63,303,48,21,04,174,23,138,38,213,47*43
2017-12-01 15:19:27 1512159567.825449: $GPZDA,201928.00,01,12,2017,00,00*60
2017-12-01 15:19:27 1512159567.825628: $GPGGA,201928,3946.9573,N,08404.9839,W,2,12,0.80,297.64,M,-33.324,M,,*7D
2017-12-01 15:19:27 1512159567.825696: $GPRMC,201928,A,3946.9573,N,08404.9839,W,0.0000,0.000,011217,,*38
2017-12-01 15:19:27 1512159567.825758: $GPGSA,A,3,1,10,11,12,14,18,24,25,31,32,21,138,2.0,0.8,1.5*38
2017-12-01 15:19:28 1512159568.378036: $GPZDA,201929.00,01,12,2017,00,00*61
2017-12-01 15:19:28 1512159568.378226: $GPGGA,201929,3946.9573,N,08404.9839,W,2,12,0.80,297.64,M,-33.324,M,,*7C
2017-12-01 15:19:28 1512159568.378294: $GPRMC,201929,A,3946.9573,N,08404.9839,W,0.0000,0.000,011217,,*39
2017-12-01 15:19:28 1512159568.378355: $GPGSA,A,3,1,10,11,12,14,18,24,25,31,32,21,138,2.0,0.8,1.5*38
2017-12-01 15:19:29 1512159569.377586: $GPZDA,201930.00,01,12,2017,00,00*69
2017-12-01 15:19:29 1512159569.377757: $GPGGA,201930,3946.9577,N,08404.9845,W,2,12,0.80,296.80,M,-33.324,M,,*70
2017-12-01 15:19:29 1512159569.377824: $GPRMC,201930,A,3946.9577,N,08404.9845,W,0.0000,0.000,011217,,*3E
2017-12-01 15:19:29 1512159569.377884: $GPGSA,A,3,1,10,11,12,14,18,24,25,31,32,21,138,2.0,0.8,1.5*38
2017-12-01 15:19:29 1512159569.377943: $GPGBS,201930,2.67,M,3.86,M,8.82,M*3B
2017-12-01 15:19:30 1512159570.713680: $GPGSV,3,1,12,01,07,325,26,10,80,100,47,11,09,312,30,12,22,084,44*70
2017-12-01 15:19:30 1512159570.713983: $GPGSV,3,2,12,14,47,277,42,18,48,127,48,24,24,046,44,25,21,124,42*73
2017-12-01 15:19:30 1512159570.714119: $GPGSV,3,3,12,31,23,207,45,32,63,303,48,21,04,174,20,138,38,213,46*41
2017-12-01 15:19:30 1512159570.826968: $GPZDA,201931.00,01,12,2017,00,00*68
2017-12-01 15:19:30 1512159570.827188: $GPGGA,201931,3946.9577,N,08404.9845,W,2,12,0.80,296.80,M,-33.324,M,,*71
2017-12-01 15:19:30 1512159570.827258: $GPRMC,201931,A,3946.9577,N,08404.9845,W,0.0000,0.000,011217,,*3F
2017-12-01 15:19:30 1512159570.827319: $GPGSA,A,3,1,10,11,12,14,18,24,25,31,32,21,138,2.0,0.8,1.5*38
