2017-12-31 18:50:26 1514764226.938281: {"class":"VERSION","release":"3.16","rev":"3.16-4","proto_major":3,"proto_minor":11}
2017-12-31 18:50:26 1514764226.938616: {"class":"DEVICES","devices":[{"class":"DEVICE","path":"/dev/ttyUSB0","driver":"SiRF","activated":"2017-12-31T23:50:26.488Z","flags":1,"native":1,"bps":4800,"parity":"N","stopbits":1,"cycle":1.00}]}
2017-12-31 18:50:26 1514764226.938713: {"class":"WATCH","enable":true,"json":false,"nmea":true,"raw":0,"scaled":false,"timing":false,"split24":false,"pps":false}
2017-12-31 18:50:27 1514764227.689718: $GPGSV,3,1,11,22,08,204,26,23,68,282,40,09,36,310,43,03,18,220,39*7B
2017-12-31 18:50:27 1514764227.689881: $GPGSV,3,2,11,16,77,036,43,08,16,175,36,31,16,088,26,27,39,144,41*7E
2017-12-31 18:50:27 1514764227.689946: $GPGSV,3,3,11,07,10,285,49,26,45,048,44,135,22,240,42*73
2017-12-31 18:50:27 1514764227.803349: $GPZDA,235028.00,31,12,2017,00,00*6D
2017-12-31 18:50:27 1514764227.803500: $GPGGA,235028,3946.9573,N,08404.9837,W,2,11,0.80,306.91,M,-33.324,M,,*7D
2017-12-31 18:50:27 1514764227.803566: $GPRMC,235028,A,3946.9573,N,08404.9837,W,0.0000,0.000,311217,,*3B
2017-12-31 18:50:27 1514764227.803626: $GPGSA,A,3,22,23,9,3,16,8,31,27,7,26,135,,1.7,0.8,1.3*09
2017-12-31 18:50:28 1514764228.354205: $GPZDA,235029.00,31,12,2017,00,00*6C
2017-12-31 18:50:28 1514764228.354370: $GPGGA,235029,3946.9573,N,08404.9837,W,2,11,0.80,306.91,M,-33.324,M,,*7C
2017-12-31 18:50:28 1514764228.354436: $GPRMC,235029,A,3946.9573,N,08404.9837,W,0.0000,0.000,311217,,*3A
2017-12-31 18:50:28 1514764228.354496: $GPGSA,A,3,22,23,9,3,16,8,31,27,7,26,135,,1.7,0.8,1.3*09
2017-12-31 18:50:29 1514764229.353824: $GPZDA,235030.00,31,12,2017,00,00*64
2017-12-31 18:50:29 1514764229.353995: $GPGGA,235030,3946.9573,N,08404.9837,W,2,11,0.80,306.91,M,-33.324,M,,*74
2017-12-31 18:50:29 1514764229.354061: $GPRMC,235030,A,3946.9573,N,08404.9837,W,0.0000,0.000,311217,,*32
2017-12-31 18:50:29 1514764229.354122: $GPGSA,A,3,22,23,9,3,16,8,31,27,7,26,135,,1.7,0.8,1.3*09
2017-12-31 18:50:30 1514764230.682584: $GPGSV,3,1,11,22,08,204,27,23,68,282,40,09,36,310,43,03,18,220,38*7B
2017-12-31 18:50:30 1514764230.682735: $GPGSV,3,2,11,16,77,036,43,08,16,175,36,31,16,088,26,27,39,144,42*7D
2017-12-31 18:50:30 1514764230.682801: $GPGSV,3,3,11,07,10,285,49,26,45,048,45,135,22,240,43*73
2017-12-31 18:50:30 1514764230.796223: $GPZDA,235031.00,31,12,2017,00,00*65
2017-12-31 18:50:30 1514764230.796378: $GPGGA,235031,3946.9573,N,08404.9837,W,2,11,0.80,306.91,M,-33.324,M,,*75
2017-12-31 18:50:30 1514764230.796445: $GPRMC,235031,A,3946.9573,N,08404.9837,W,0.0000,0.000,311217,,*33
2017-12-31 18:50:30 1514764230.796506: $GPGSA,A,3,22,23,9,3,16,8,31,27,7,26,135,,1.7,0.8,1.3*09
2017-12-31 18:50:31 1514764231.354541: $GPZDA,235032.00,31,12,2017,00,00*66
2017-12-31 18:50:31 1514764231.354704: $GPGGA,235032,3946.9573,N,08404.9837,W,2,11,0.80,306.91,M,-33.324,M,,*76
2017-12-31 18:50:31 1514764231.354770: $GPRMC,235032,A,3946.9573,N,08404.9837,W,0.0000,0.000,311217,,*30
2017-12-31 18:50:31 1514764231.354830: $GPGSA,A,3,22,23,9,3,16,8,31,27,7,26,135,,1.7,0.8,1.3*09
2017-12-31 18:50:32 1514764232.352943: $GPZDA,235033.00,31,12,2017,00,00*67
2017-12-31 18:50:32 1514764232.353110: $GPGGA,235033,3946.9573,N,08404.9837,W,2,11,0.80,306.91,M,-33.324,M,,*77
2017-12-31 18:50:32 1514764232.353176: $GPRMC,235033,A,3946.9573,N,08404.9837,W,0.0000,0.000,311217,,*31
2017-12-31 18:50:32 1514764232.353236: $GPGSA,A,3,22,23,9,3,16,8,31,27,7,26,135,,1.7,0.8,1.3*09
2017-12-31 18:50:33 1514764233.688416: $GPGSV,3,1,11,22,08,204,27,23,68,282,40,09,36,310,42,03,18,220,38*7A
2017-12-31 18:50:33 1514764233.688587: $GPGSV,3,2,11,16,77,036,43,08,16,175,37,31,16,088,20,27,39,144,41*79
2017-12-31 18:50:33 1514764233.688654: $GPGSV,3,3,11,07,10,285,50,26,45,048,45,135,22,240,44*7C
2017-12-31 18:50:33 1514764233.802024: $GPZDA,235034.00,31,12,2017,00,00*60
2017-12-31 18:50:33 1514764233.802153: $GPGGA,235034,3946.9573,N,08404.9837,W,2,11,0.80,306.91,M,-33.324,M,,*70
2017-12-31 18:50:33 1514764233.802218: $GPRMC,235034,A,3946.9573,N,08404.9837,W,0.0000,0.000,311217,,*36
2017-12-31 18:50:33 1514764233.802331: $GPGSA,A,3,22,23,9,3,16,8,31,27,7,26,135,,1.7,0.8,1.3*09
2017-12-31 18:50:34 1514764234.354183: $GPZDA,235035.00,31,12,2017,00,00*61
2017-12-31 18:50:34 1514764234.354344: $GPGGA,235035,3946.9573,N,08404.9837,W,2,11,0.80,306.91,M,-33.324,M,,*71
2017-12-31 18:50:34 1514764234.354411: $GPRMC,235035,A,3946.9573,N,08404.9837,W,0.0000,0.000,311217,,*37
2017-12-31 18:50:34 1514764234.354472: $GPGSA,A,3,22,23,9,3,16,8,31,27,7,26,135,,1.7,0.8,1.3*09
2017-12-31 18:50:35 1514764235.353475: $GPZDA,235036.00,31,12,2017,00,00*62
2017-12-31 18:50:35 1514764235.353658: $GPGGA,235036,3946.9573,N,08404.9837,W,2,11,0.80,306.91,M,-33.324,M,,*72
2017-12-31 18:50:35 1514764235.353725: $GPRMC,235036,A,3946.9573,N,08404.9837,W,0.0000,0.000,311217,,*34
2017-12-31 18:50:35 1514764235.353803: $GPGSA,A,3,22,23,9,3,16,8,31,27,7,26,135,,1.7,0.8,1.3*09
2017-12-31 18:50:36 1514764236.681213: $GPGSV,3,1,11,22,08,204,27,23,68,282,39,09,36,310,43,03,18,220,38*75
2017-12-31 18:50:36 1514764236.681370: $GPGSV,3,2,11,16,77,036,43,08,16,175,37,31,16,088,20,27,39,144,41*79
2017-12-31 18:50:36 1514764236.681436: $GPGSV,3,3,11,07,10,285,50,26,45,048,44,135,22,240,44*7D
2017-12-31 18:50:36 1514764236.794823: $GPZDA,235037.00,31,12,2017,00,00*63
2017-12-31 18:50:36 1514764236.794975: $GPGGA,235037,3946.9570,N,08404.9837,W,2,11,0.80,307.67,M,-33.324,M,,*78
2017-12-31 18:50:36 1514764236.795041: $GPRMC,235037,A,3946.9570,N,08404.9837,W,0.0000,0.000,311217,,*36
2017-12-31 18:50:36 1514764236.795102: $GPGSA,A,3,22,23,9,3,16,8,31,27,7,26,135,,1.7,0.8,1.3*09
