2017-11-16 17:29:47 1510871387.590501: {"class":"VERSION","release":"3.17","rev":"3.17","proto_major":3,"proto_minor":12}
2017-11-16 17:29:47 1510871387.590993: {"class":"DEVICES","devices":[{"class":"DEVICE","path":"/dev/ttyUSB0","driver":"SiRF","subtype":"9\u0006GSD4e_4.1.2-P1_RPATCH.05-F-GPS-4R-1510281 11/03/2015 307","activated":"2017-11-16T22:29:47.542Z","flags":1,"native":1,"bps":4800,"parity":"N","stopbits":1,"cycle":1.00}]}
2017-11-16 17:29:47 1510871387.597233: {"class":"WATCH","enable":true,"json":false,"nmea":true,"raw":0,"scaled":false,"timing":false,"split24":false,"pps":false}
2017-11-16 17:29:48 1510871388.739282: $GPGSV,3,1,11,01,21,303,39,10,50,147,49,22,17,312,42,12,23,051,50*7B
2017-11-16 17:29:48 1510871388.739461: $GPGSV,3,2,11,14,65,324,48,18,20,144,40,11,09,283,39,25,39,093,48*78
2017-11-16 17:29:48 1510871388.739521: $GPGSV,3,3,11,31,53,223,49,32,69,022,49,138,38,213,45*70
2017-11-16 17:29:48 1510871388.852287: $GPZDA,222947.00,16,11,2017,00,00*6D
2017-11-16 17:29:48 1510871388.852464: $GPGGA,222947,3946.9573,N,08404.9836,W,2,11,0.80,305.51,M,-33.324,M,,*75
2017-11-16 17:29:48 1510871388.852525: $GPRMC,222947,A,3946.9573,N,08404.9836,W,0.0000,0.000,161117,,*3A
2017-11-16 17:29:48 1510871388.852580: $GPGSA,A,3,1,10,22,12,14,18,11,25,31,32,138,,1.6,0.8,1.3*3E
2017-11-16 17:29:49 1510871389.401917: $GPZDA,222948.00,16,11,2017,00,00*62
2017-11-16 17:29:49 1510871389.402068: $GPGGA,222948,3946.9573,N,08404.9836,W,2,11,0.80,305.51,M,-33.324,M,,*7A
2017-11-16 17:29:49 1510871389.402129: $GPRMC,222948,A,3946.9573,N,08404.9836,W,0.0000,0.000,161117,,*35
2017-11-16 17:29:49 1510871389.402185: $GPGSA,A,3,1,10,22,12,14,18,11,25,31,32,138,,1.6,0.8,1.3*3E
2017-11-16 17:29:50 1510871390.401571: $GPZDA,222949.00,16,11,2017,00,00*63
2017-11-16 17:29:50 1510871390.401733: $GPGGA,222949,3946.9573,N,08404.9836,W,2,11,0.80,305.51,M,-33.324,M,,*7B
2017-11-16 17:29:50 1510871390.401794: $GPRMC,222949,A,3946.9573,N,08404.9836,W,0.0000,0.000,161117,,*34
2017-11-16 17:29:50 1510871390.401850: $GPGSA,A,3,1,10,22,12,14,18,11,25,31,32,138,,1.6,0.8,1.3*3E
2017-11-16 17:29:51 1510871391.736852: $GPGSV,3,1,11,01,21,303,40,10,50,147,49,22,17,312,42,12,23,051,50*75
2017-11-16 17:29:51 1510871391.737000: $GPGSV,3,2,11,14,65,324,48,18,20,144,39,11,09,283,40,25,39,093,49*79
2017-11-16 17:29:51 1510871391.737059: $GPGSV,3,3,11,31,53,223,49,32,69,022,49,138,38,213,45*70
2017-11-16 17:29:51 1510871391.850432: $GPZDA,222950.00,16,11,2017,00,00*6B
2017-11-16 17:29:51 1510871391.850603: $GPGGA,222950,3946.9573,N,08404.9836,W,2,11,0.80,305.51,M,-33.324,M,,*73
2017-11-16 17:29:51 1510871391.850665: $GPRMC,222950,A,3946.9573,N,08404.9836,W,0.0000,0.000,161117,,*3C
2017-11-16 17:29:51 1510871391.850721: $GPGSA,A,3,1,10,22,12,14,18,11,25,31,32,138,,1.6,0.8,1.3*3E
2017-11-16 17:29:52 1510871392.401053: $GPZDA,222951.00,16,11,2017,00,00*6A
2017-11-16 17:29:52 1510871392.401214: $GPGGA,222951,3946.9573,N,08404.9836,W,2,11,0.80,305.51,M,-33.324,M,,*72
2017-11-16 17:29:52 1510871392.401275: $GPRMC,222951,A,3946.9573,N,08404.9836,W,0.0000,0.000,161117,,*3D
2017-11-16 17:29:52 1510871392.401330: $GPGSA,A,3,1,10,22,12,14,18,11,25,31,32,138,,1.6,0.8,1.3*3E
2017-11-16 17:29:53 1510871393.403112: $GPZDA,222952.00,16,11,2017,00,00*69
2017-11-16 17:29:53 1510871393.403291: $GPGGA,222952,3946.9573,N,08404.9836,W,2,11,0.80,305.51,M,-33.324,M,,*71
2017-11-16 17:29:53 1510871393.403353: $GPRMC,222952,A,3946.9573,N,08404.9836,W,0.0000,0.000,161117,,*3E
2017-11-16 17:29:53 1510871393.403409: $GPGSA,A,3,1,10,22,12,14,18,11,25,31,32,138,,1.6,0.8,1.3*3E
2017-11-16 17:29:54 1510871394.737695: $GPGSV,3,1,11,01,21,303,38,10,50,147,50,22,17,312,42,12,23,051,50*72
2017-11-16 17:29:54 1510871394.737865: $GPGSV,3,2,11,14,65,324,48,18,20,144,40,11,09,283,40,25,39,093,48*76
2017-11-16 17:29:54 1510871394.737926: $GPGSV,3,3,11,31,53,223,49,32,69,022,49,138,38,213,44*71
2017-11-16 17:29:54 1510871394.850998: $GPZDA,222953.00,16,11,2017,00,00*68
2017-11-16 17:29:54 1510871394.851141: $GPGGA,222953,3946.9573,N,08404.9836,W,2,11,0.80,305.51,M,-33.324,M,,*70
2017-11-16 17:29:54 1510871394.851253: $GPRMC,222953,A,3946.9573,N,08404.9836,W,0.0000,0.000,161117,,*3F
2017-11-16 17:29:54 1510871394.851310: $GPGSA,A,3,1,10,22,12,14,18,11,25,31,32,138,,1.6,0.8,1.3*3E
2017-11-16 17:29:55 1510871395.401886: $GPZDA,222954.00,16,11,2017,00,00*6F
2017-11-16 17:29:55 1510871395.402047: $GPGGA,222954,3946.9573,N,08404.9836,W,2,11,0.80,305.51,M,-33.324,M,,*77
2017-11-16 17:29:55 1510871395.402108: $GPRMC,222954,A,3946.9573,N,08404.9836,W,0.0000,0.000,161117,,*38
2017-11-16 17:29:55 1510871395.402164: $GPGSA,A,3,1,10,22,12,14,18,11,25,31,32,138,,1.6,0.8,1.3*3E
2017-11-16 17:29:56 1510871396.396072: $GPZDA,222955.00,16,11,2017,00,00*6E
2017-11-16 17:29:56 1510871396.396238: $GPGGA,222955,3946.9573,N,08404.9836,W,2,11,0.80,305.51,M,-33.324,M,,*76
2017-11-16 17:29:56 1510871396.396299: $GPRMC,222955,A,3946.9573,N,08404.9836,W,0.0000,0.000,161117,,*39
2017-11-16 17:29:56 1510871396.396354: $GPGSA,A,3,1,10,22,12,14,18,11,25,31,32,138,,1.6,0.8,1.3*3E
