2017-11-15 19:32:21 1510792341.565711: {"class":"VERSION","release":"3.17","rev":"3.17","proto_major":3,"proto_minor":12}
2017-11-15 19:32:21 1510792341.566143: {"class":"DEVICES","devices":[{"class":"DEVICE","path":"/dev/ttyUSB0","driver":"SiRF","subtype":"9\u0006GSD4e_4.1.2-P1_RPATCH.05-F-GPS-4R-1510281 11/03/2015 307","activated":"2017-11-16T00:32:21.216Z","flags":1,"native":1,"bps":4800,"parity":"N","stopbits":1,"cycle":1.00}]}
2017-11-15 19:32:21 1510792341.566262: {"class":"WATCH","enable":true,"json":false,"nmea":true,"raw":0,"scaled":false,"timing":false,"split24":false,"pps":false}
2017-11-15 19:32:21 1510792341.665975: $GPGSV,3,1,12,32,36,108,22,29,11,070,07,16,23,190,15,26,53,172,20*70
2017-11-15 19:32:21 1510792341.666133: $GPGSV,3,2,12,14,55,093,18,31,67,025,14,03,40,298,20,25,17,040,00*7F
2017-11-15 19:32:21 1510792341.666191: $GPGSV,3,3,12,23,11,301,00,01,05,252,00,22,50,270,20,120,07,103,00*4C
2017-11-15 19:32:21 1510792341.779586: $GPZDA,003220.00,16,11,2017,00,00*66
2017-11-15 19:32:21 1510792341.779746: $GPGGA,003220,3946.9593,N,08404.9491,W,1,08,1.40,283.85,M,-33.324,M,,*71
2017-11-15 19:32:21 1510792341.779807: $GPRMC,003220,A,3946.9593,N,08404.9491,W,0.3423,4.197,161117,,*33
2017-11-15 19:32:21 1510792341.779863: $GPGSA,A,3,32,29,16,26,14,31,3,22,,,,,3.4,1.4,2.9*06
2017-11-15 19:32:22 1510792342.346445: $GPZDA,003221.00,16,11,2017,00,00*67
2017-11-15 19:32:22 1510792342.346614: $GPGGA,003221,3946.9589,N,08404.9491,W,1,08,1.40,283.21,M,-33.324,M,,*75
2017-11-15 19:32:22 1510792342.346677: $GPRMC,003221,A,3946.9589,N,08404.9491,W,0.0000,0.000,161117,,*34
2017-11-15 19:32:22 1510792342.346800: $GPGSA,A,3,32,29,16,26,14,31,3,22,,,,,3.4,1.4,2.9*06
2017-11-15 19:32:23 1510792343.346065: $GPZDA,003222.00,16,11,2017,00,00*64
2017-11-15 19:32:23 1510792343.346228: $GPGGA,003222,3946.9585,N,08404.9492,W,1,08,1.40,283.97,M,-33.324,M,,*74
2017-11-15 19:32:23 1510792343.346289: $GPRMC,003222,A,3946.9585,N,08404.9492,W,0.0000,0.000,161117,,*38
2017-11-15 19:32:23 1510792343.346345: $GPGSA,A,3,32,29,16,26,14,31,3,22,,,,,3.4,1.4,2.9*06
2017-11-15 19:32:24 1510792344.665624: $GPGSV,3,1,12,32,36,108,22,29,11,070,06,16,23,190,16,26,53,172,20*72
2017-11-15 19:32:24 1510792344.665803: $GPGSV,3,2,12,14,55,093,18,31,67,025,14,03,40,298,20,25,17,040,00*7F
2017-11-15 19:32:24 1510792344.665870: $GPGSV,3,3,12,23,11,301,00,01,05,252,00,22,50,270,21,120,07,103,00*4D
2017-11-15 19:32:24 1510792344.779229: $GPZDA,003223.00,16,11,2017,00,00*65
2017-11-15 19:32:24 1510792344.779377: $GPGGA,003223,3946.9585,N,08404.9492,W,1,07,1.40,283.97,M,-33.324,M,,*7A
2017-11-15 19:32:24 1510792344.779437: $GPRMC,003223,A,3946.9585,N,08404.9492,W,0.3155,309.994,161117,,*35
2017-11-15 19:32:24 1510792344.779493: $GPGSA,A,3,32,16,26,14,31,3,22,,,,,,3.4,1.4,2.9*0D
2017-11-15 19:32:25 1510792345.346322: $GPZDA,003224.00,16,11,2017,00,00*62
2017-11-15 19:32:25 1510792345.346484: $GPGGA,003224,3946.9585,N,08404.9492,W,1,07,1.40,283.97,M,-33.324,M,,*7D
2017-11-15 19:32:25 1510792345.346543: $GPRMC,003224,A,3946.9585,N,08404.9492,W,0.3423,4.197,161117,,*33
2017-11-15 19:32:25 1510792345.346598: $GPGSA,A,3,32,16,26,14,31,3,22,,,,,,3.4,1.4,2.9*0D
2017-11-15 19:32:26 1510792346.346420: $GPZDA,003225.00,16,11,2017,00,00*63
2017-11-15 19:32:26 1510792346.346576: $GPGGA,003225,3946.9581,N,08404.9492,W,1,07,1.40,283.33,M,-33.324,M,,*76
2017-11-15 19:32:26 1510792346.346638: $GPRMC,003225,A,3946.9581,N,08404.9492,W,0.3423,4.197,161117,,*36
2017-11-15 19:32:26 1510792346.346694: $GPGSA,A,3,32,16,26,14,31,3,22,,,,,,3.4,1.4,2.9*0D
2017-11-15 19:32:27 1510792347.681348: $GPGSV,3,1,12,32,36,108,23,29,11,070,04,16,23,190,16,26,53,172,20*71
2017-11-15 19:32:27 1510792347.681524: $GPGSV,3,2,12,14,55,093,18,31,67,025,15,03,40,298,20,25,17,040,00*7E
2017-11-15 19:32:27 1510792347.681584: $GPGSV,3,3,12,23,11,301,00,01,05,252,00,22,50,270,21,120,07,103,00*4D
2017-11-15 19:32:27 1510792347.794686: $GPZDA,003226.00,16,11,2017,00,00*60
2017-11-15 19:32:27 1510792347.794846: $GPGGA,003226,3946.9581,N,08404.9492,W,1,07,1.40,283.33,M,-33.324,M,,*75
2017-11-15 19:32:27 1510792347.794955: $GPRMC,003226,A,3946.9581,N,08404.9492,W,0.3423,4.197,161117,,*35
2017-11-15 19:32:27 1510792347.795011: $GPGSA,A,3,32,16,26,14,31,3,22,,,,,,3.4,1.4,2.9*0D
2017-11-15 19:32:28 1510792348.329049: $GPZDA,003227.00,16,11,2017,00,00*61
2017-11-15 19:32:28 1510792348.329216: $GPGGA,003227,3946.9581,N,08404.9485,W,1,07,1.40,283.41,M,-33.324,M,,*77
2017-11-15 19:32:28 1510792348.329277: $GPRMC,003227,A,3946.9581,N,08404.9485,W,0.4207,39.347,161117,,*04
2017-11-15 19:32:28 1510792348.329332: $GPGSA,A,3,32,16,26,14,31,3,22,,,,,,3.4,1.4,2.9*0D
2017-11-15 19:32:29 1510792349.329993: $GPZDA,003228.00,16,11,2017,00,00*6E
2017-11-15 19:32:29 1510792349.330158: $GPGGA,003228,3946.9581,N,08404.9485,W,1,07,1.40,283.41,M,-33.324,M,,*78
2017-11-15 19:32:29 1510792349.330220: $GPRMC,003228,A,3946.9581,N,08404.9485,W,0.4179,148.778,161117,,*3E
2017-11-15 19:32:29 1510792349.330276: $GPGSA,A,3,32,16,26,14,31,3,22,,,,,,3.4,1.4,2.9*0D
2017-11-15 19:32:30 1510792350.681956: $GPGSV,3,1,12,32,36,108,23,29,11,070,06,16,23,190,16,26,53,172,20*73
2017-11-15 19:32:30 1510792350.682125: $GPGSV,3,2,12,14,55,093,18,31,67,025,14,03,40,298,19,25,17,040,00*75
2017-11-15 19:32:30 1510792350.682184: $GPGSV,3,3,12,23,11,301,00,01,05,252,00,22,50,270,21,120,07,103,00*4D
2017-11-15 19:32:30 1510792350.795333: $GPZDA,003229.00,16,11,2017,00,00*6F
2017-11-15 19:32:30 1510792350.795480: $GPGGA,003229,3946.9573,N,08404.9486,W,1,07,1.40,283.53,M,-33.324,M,,*74
2017-11-15 19:32:30 1510792350.795541: $GPRMC,003229,A,3946.9573,N,08404.9486,W,0.8359,148.778,161117,,*3D
2017-11-15 19:32:30 1510792350.795597: $GPGSA,A,3,32,16,26,14,31,3,22,,,,,,3.4,1.4,2.9*0D
2017-11-15 19:32:31 1510792351.421000: $GPZDA,003230.00,16,11,2017,00,00*67
2017-11-15 19:32:31 1510792351.421157: $GPGGA,003230,3946.9573,N,08404.9486,W,1,07,1.40,283.53,M,-33.324,M,,*7C
2017-11-15 19:32:31 1510792351.421218: $GPRMC,003230,A,3946.9573,N,08404.9486,W,0.5774,207.515,161117,,*32
2017-11-15 19:32:31 1510792351.421273: $GPGSA,A,3,32,16,26,14,31,3,22,,,,,,3.4,1.4,2.9*0D
