2017-12-01 17:37:17 1512167837.316989: {"class":"VERSION","release":"3.16","rev":"3.16-4","proto_major":3,"proto_minor":11}
2017-12-01 17:37:17 1512167837.317412: {"class":"DEVICES","devices":[{"class":"DEVICE","path":"/dev/ttyUSB0","driver":"SiRF","subtype":"9\u0006GSD4e_4.1.2-P1_RPATCH.05-F-GPS-4R-1510281 11/03/2015 307","activated":"2017-12-01T22:37:17.269Z","flags":1,"native":1,"bps":4800,"parity":"N","stopbits":1,"cycle":1.00}]}
2017-12-01 17:37:17 1512167837.317535: {"class":"WATCH","enable":true,"json":false,"nmea":true,"raw":0,"scaled":false,"timing":false,"split24":false,"pps":false}
2017-12-01 17:37:17 1512167837.382688: $GPZDA,223718.00,01,12,2017,00,00*6D
2017-12-01 17:37:17 1512167837.382819: $GPGGA,223718,3946.9718,N,08404.9863,W,2,12,1.00,299.86,M,-33.325,M,,*7A
2017-12-01 17:37:17 1512167837.382884: $GPRMC,223718,A,3946.9718,N,08404.9863,W,0.0000,0.000,011217,,*35
2017-12-01 17:37:17 1512167837.382944: $GPGSA,A,3,1,3,10,14,22,25,26,31,32,12,16,138,2.0,1.0,1.5*0D
2017-12-01 17:37:18 1512167838.712197: $GPGSV,3,1,12,01,17,270,43,03,25,313,45,10,17,157,44,14,68,052,42*77
2017-12-01 17:37:18 1512167838.712394: $GPGSV,3,2,12,22,42,298,48,25,33,052,44,26,31,177,43,31,80,312,45*79
2017-12-01 17:37:18 1512167838.712460: $GPGSV,3,3,12,32,51,085,45,12,03,030,23,16,03,190,22,138,38,213,45*4D
2017-12-01 17:37:18 1512167838.826149: $GPZDA,223719.00,01,12,2017,00,00*6C
2017-12-01 17:37:18 1512167838.826412: $GPGGA,223719,3946.9718,N,08404.9863,W,2,12,1.00,299.86,M,-33.325,M,,*7B
2017-12-01 17:37:18 1512167838.826506: $GPRMC,223719,A,3946.9718,N,08404.9863,W,0.0000,0.000,011217,,*34
2017-12-01 17:37:18 1512167838.826598: $GPGSA,A,3,1,3,10,14,22,25,26,31,32,12,16,138,2.0,1.0,1.5*0D
2017-12-01 17:37:19 1512167839.386483: $GPZDA,223720.00,01,12,2017,00,00*66
2017-12-01 17:37:19 1512167839.386666: $GPGGA,223720,3946.9721,N,08404.9856,W,2,12,1.00,300.58,M,-33.325,M,,*7F
2017-12-01 17:37:19 1512167839.386736: $GPRMC,223720,A,3946.9721,N,08404.9856,W,0.0000,0.000,011217,,*32
2017-12-01 17:37:19 1512167839.386797: $GPGSA,A,3,1,3,10,14,22,25,26,31,32,12,16,138,2.0,1.0,1.5*0D
2017-12-01 17:37:20 1512167840.383562: $GPZDA,223721.00,01,12,2017,00,00*67
2017-12-01 17:37:20 1512167840.383740: $GPGGA,223721,3946.9721,N,08404.9856,W,2,12,1.00,300.58,M,-33.325,M,,*7E
2017-12-01 17:37:20 1512167840.383809: $GPRMC,223721,A,3946.9721,N,08404.9856,W,0.0000,0.000,011217,,*33
2017-12-01 17:37:20 1512167840.383872: $GPGSA,A,3,1,3,10,14,22,25,26,31,32,12,16,138,2.0,1.0,1.5*0D
2017-12-01 17:37:21 1512167841.719323: $GPGSV,3,1,12,01,17,270,43,03,25,313,45,10,17,157,44,14,68,052,41*74
2017-12-01 17:37:21 1512167841.719513: $GPGSV,3,2,12,22,42,298,48,25,33,052,43,26,31,177,43,31,80,312,45*7E
2017-12-01 17:37:21 1512167841.719581: $GPGSV,3,3,12,32,51,085,45,12,03,030,23,16,03,190,22,138,38,213,45*4D
2017-12-01 17:37:21 1512167841.832706: $GPZDA,223722.00,01,12,2017,00,00*64
2017-12-01 17:37:21 1512167841.832886: $GPGGA,223722,3946.9721,N,08404.9856,W,2,12,1.00,300.58,M,-33.325,M,,*7D
2017-12-01 17:37:21 1512167841.832955: $GPRMC,223722,A,3946.9721,N,08404.9856,W,0.0000,0.000,011217,,*30
2017-12-01 17:37:21 1512167841.833016: $GPGSA,A,3,1,3,10,14,22,25,26,31,32,12,16,138,2.0,1.0,1.5*0D
2017-12-01 17:37:22 1512167842.458006: $GPZDA,223723.00,01,12,2017,00,00*65
2017-12-01 17:37:22 1512167842.458189: $GPGGA,223723,3946.9721,N,08404.9856,W,2,12,1.00,300.58,M,-33.325,M,,*7C
2017-12-01 17:37:22 1512167842.458261: $GPRMC,223723,A,3946.9721,N,08404.9856,W,0.0000,0.000,011217,,*31
2017-12-01 17:37:22 1512167842.458326: $GPGSA,A,3,1,3,10,14,22,25,26,31,32,12,16,138,2.0,1.0,1.5*0D
2017-12-01 17:37:23 1512167843.384137: $GPZDA,223724.00,01,12,2017,00,00*62
2017-12-01 17:37:23 1512167843.384325: $GPGGA,223724,3946.9721,N,08404.9856,W,2,12,1.00,300.58,M,-33.325,M,,*7B
2017-12-01 17:37:23 1512167843.384392: $GPRMC,223724,A,3946.9721,N,08404.9856,W,0.0000,0.000,011217,,*36
2017-12-01 17:37:23 1512167843.384454: $GPGSA,A,3,1,3,10,14,22,25,26,31,32,12,16,138,2.0,1.0,1.5*0D
2017-12-01 17:37:24 1512167844.719626: $GPGSV,3,1,12,01,17,270,43,03,25,313,45,10,17,157,44,14,68,052,40*75
2017-12-01 17:37:24 1512167844.719862: $GPGSV,3,2,12,22,42,298,48,25,33,052,43,26,31,177,44,31,80,312,45*79
2017-12-01 17:37:24 1512167844.719934: $GPGSV,3,3,12,32,51,085,45,12,03,030,22,16,03,190,23,138,38,213,45*4D
2017-12-01 17:37:24 1512167844.833483: $GPZDA,223725.00,01,12,2017,00,00*63
2017-12-01 17:37:24 1512167844.833679: $GPGGA,223725,3946.9721,N,08404.9856,W,2,12,1.00,300.58,M,-33.325,M,,*7A
2017-12-01 17:37:24 1512167844.833748: $GPRMC,223725,A,3946.9721,N,08404.9856,W,0.0000,0.000,011217,,*37
2017-12-01 17:37:24 1512167844.833811: $GPGSA,A,3,1,3,10,14,22,25,26,31,32,12,16,138,2.0,1.0,1.5*0D
2017-12-01 17:37:25 1512167845.385152: $GPZDA,223726.00,01,12,2017,00,00*60
2017-12-01 17:37:25 1512167845.385348: $GPGGA,223726,3946.9721,N,08404.9856,W,2,12,1.00,300.58,M,-33.325,M,,*79
2017-12-01 17:37:25 1512167845.385417: $GPRMC,223726,A,3946.9721,N,08404.9856,W,0.0000,0.000,011217,,*34
2017-12-01 17:37:25 1512167845.385479: $GPGSA,A,3,1,3,10,14,22,25,26,31,32,12,16,138,2.0,1.0,1.5*0D
2017-12-01 17:37:26 1512167846.383474: $GPZDA,223727.00,01,12,2017,00,00*61
2017-12-01 17:37:26 1512167846.383664: $GPGGA,223727,3946.9721,N,08404.9856,W,2,12,1.00,300.58,M,-33.325,M,,*78
2017-12-01 17:37:26 1512167846.383733: $GPRMC,223727,A,3946.9721,N,08404.9856,W,0.0000,0.000,011217,,*35
2017-12-01 17:37:26 1512167846.383798: $GPGSA,A,3,1,3,10,14,22,25,26,31,32,12,16,138,2.0,1.0,1.5*0D
2017-12-01 17:37:27 1512167847.720157: $GPGSV,3,1,12,01,17,270,43,03,25,313,45,10,17,157,44,14,68,052,40*75
2017-12-01 17:37:27 1512167847.720363: $GPGSV,3,2,12,22,42,298,48,25,33,052,43,26,31,177,44,31,80,312,45*79
2017-12-01 17:37:27 1512167847.720430: $GPGSV,3,3,12,32,51,085,45,12,03,030,22,16,03,190,23,138,38,213,46*4E
2017-12-01 17:37:27 1512167847.833403: $GPZDA,223728.00,01,12,2017,00,00*6E
2017-12-01 17:37:27 1512167847.833575: $GPGGA,223728,3946.9721,N,08404.9856,W,2,12,1.00,300.58,M,-33.325,M,,*77
2017-12-01 17:37:27 1512167847.833642: $GPRMC,223728,A,3946.9721,N,08404.9856,W,0.0000,0.000,011217,,*3A
2017-12-01 17:37:27 1512167847.833703: $GPGSA,A,3,1,3,10,14,22,25,26,31,32,12,16,138,2.0,1.0,1.5*0D
2017-12-01 17:37:28 1512167848.384457: $GPZDA,223729.00,01,12,2017,00,00*6F
2017-12-01 17:37:28 1512167848.384631: $GPGGA,223729,3946.9721,N,08404.9856,W,2,12,1.00,300.58,M,-33.325,M,,*76
2017-12-01 17:37:28 1512167848.384699: $GPRMC,223729,A,3946.9721,N,08404.9856,W,0.0000,0.000,011217,,*3B
2017-12-01 17:37:28 1512167848.384760: $GPGSA,A,3,1,3,10,14,22,25,26,31,32,12,16,138,2.0,1.0,1.5*0D
2017-12-01 17:37:29 1512167849.382658: $GPZDA,223730.00,01,12,2017,00,00*67
2017-12-01 17:37:29 1512167849.382830: $GPGGA,223730,3946.9721,N,08404.9856,W,2,12,1.00,300.58,M,-33.325,M,,*7E
2017-12-01 17:37:29 1512167849.382897: $GPRMC,223730,A,3946.9721,N,08404.9856,W,0.0000,0.000,011217,,*33
2017-12-01 17:37:29 1512167849.382959: $GPGSA,A,3,1,3,10,14,22,25,26,31,32,12,16,138,2.0,1.0,1.5*0D
2017-12-01 17:37:30 1512167850.718318: $GPGSV,3,1,12,01,17,270,43,03,25,313,45,10,17,157,44,14,68,052,41*74
2017-12-01 17:37:30 1512167850.718500: $GPGSV,3,2,12,22,42,298,48,25,33,052,43,26,31,177,44,31,80,312,45*79
2017-12-01 17:37:30 1512167850.718569: $GPGSV,3,3,12,32,51,085,45,12,03,030,23,16,03,190,23,138,38,213,46*4F
2017-12-01 17:37:30 1512167850.831710: $GPZDA,223731.00,01,12,2017,00,00*66
2017-12-01 17:37:30 1512167850.831848: $GPGGA,223731,3946.9721,N,08404.9856,W,2,12,1.00,300.58,M,-33.325,M,,*7F
2017-12-01 17:37:30 1512167850.831914: $GPRMC,223731,A,3946.9721,N,08404.9856,W,0.0000,0.000,011217,,*32
2017-12-01 17:37:30 1512167850.831975: $GPGSA,A,3,1,3,10,14,22,25,26,31,32,12,16,138,2.0,1.0,1.5*0D
2017-12-01 17:37:31 1512167851.386523: $GPZDA,223732.00,01,12,2017,00,00*65
2017-12-01 17:37:31 1512167851.386715: $GPGGA,223732,3946.9721,N,08404.9856,W,2,12,1.00,300.58,M,-33.325,M,,*7C
2017-12-01 17:37:31 1512167851.386784: $GPRMC,223732,A,3946.9721,N,08404.9856,W,0.0000,0.000,011217,,*31
2017-12-01 17:37:31 1512167851.386844: $GPGSA,A,3,1,3,10,14,22,25,26,31,32,12,16,138,2.0,1.0,1.5*0D
2017-12-01 17:37:32 1512167852.384448: $GPZDA,223733.00,01,12,2017,00,00*64
2017-12-01 17:37:32 1512167852.384611: $GPGGA,223733,3946.9721,N,08404.9856,W,2,12,1.00,300.58,M,-33.325,M,,*7D
2017-12-01 17:37:32 1512167852.384678: $GPRMC,223733,A,3946.9721,N,08404.9856,W,0.0000,0.000,011217,,*30
2017-12-01 17:37:32 1512167852.384739: $GPGSA,A,3,1,3,10,14,22,25,26,31,32,12,16,138,2.0,1.0,1.5*0D
2017-12-01 17:37:33 1512167853.719900: $GPGSV,3,1,12,01,17,270,43,03,25,313,45,10,17,157,44,14,68,052,41*74
2017-12-01 17:37:33 1512167853.720090: $GPGSV,3,2,12,22,42,298,48,25,33,052,43,26,31,177,44,31,80,312,46*7A
2017-12-01 17:37:33 1512167853.720157: $GPGSV,3,3,12,32,51,085,45,12,03,030,23,16,03,190,24,138,38,213,46*48
2017-12-01 17:37:33 1512167853.833234: $GPZDA,223734.00,01,12,2017,00,00*63
2017-12-01 17:37:33 1512167853.833409: $GPGGA,223734,3946.9721,N,08404.9856,W,2,12,1.00,300.58,M,-33.325,M,,*7A
2017-12-01 17:37:33 1512167853.833477: $GPRMC,223734,A,3946.9721,N,08404.9856,W,0.0000,0.000,011217,,*37
2017-12-01 17:37:33 1512167853.833538: $GPGSA,A,3,1,3,10,14,22,25,26,31,32,12,16,138,2.0,1.0,1.5*0D
2017-12-01 17:37:34 1512167854.382868: $GPZDA,223735.00,01,12,2017,00,00*62
2017-12-01 17:37:34 1512167854.383049: $GPGGA,223735,3946.9721,N,08404.9856,W,2,12,1.00,300.58,M,-33.325,M,,*7B
2017-12-01 17:37:34 1512167854.383117: $GPRMC,223735,A,3946.9721,N,08404.9856,W,0.0000,0.000,011217,,*36
2017-12-01 17:37:34 1512167854.383178: $GPGSA,A,3,1,3,10,14,22,25,26,31,32,12,16,138,2.0,1.0,1.5*0D
2017-12-01 17:37:35 1512167855.383852: $GPZDA,223736.00,01,12,2017,00,00*61
2017-12-01 17:37:35 1512167855.384034: $GPGGA,223736,3946.9721,N,08404.9856,W,2,12,1.00,300.58,M,-33.325,M,,*78
2017-12-01 17:37:35 1512167855.384103: $GPRMC,223736,A,3946.9721,N,08404.9856,W,0.0000,0.000,011217,,*35
2017-12-01 17:37:35 1512167855.384165: $GPGSA,A,3,1,3,10,14,22,25,26,31,32,12,16,138,2.0,1.0,1.5*0D
2017-12-01 17:37:36 1512167856.719488: $GPGSV,3,1,12,01,17,270,44,03,25,313,44,10,17,157,43,14,68,052,41*75
2017-12-01 17:37:36 1512167856.719668: $GPGSV,3,2,12,22,42,298,48,25,33,052,43,26,31,177,44,31,80,312,46*7A
2017-12-01 17:37:36 1512167856.719733: $GPGSV,3,3,12,32,51,085,45,12,03,030,28,16,03,190,24,138,38,213,46*43
2017-12-01 17:37:36 1512167856.832800: $GPZDA,223737.00,01,12,2017,00,00*60
2017-12-01 17:37:36 1512167856.832953: $GPGGA,223737,3946.9721,N,08404.9856,W,2,12,1.00,300.58,M,-33.325,M,,*79
2017-12-01 17:37:36 1512167856.833020: $GPRMC,223737,A,3946.9721,N,08404.9856,W,0.0000,0.000,011217,,*34
2017-12-01 17:37:36 1512167856.833081: $GPGSA,A,3,1,3,10,14,22,25,26,31,32,12,16,138,2.0,1.0,1.5*0D
