2017-12-01 15:51:25 1512161485.607067: {"class":"VERSION","release":"3.16","rev":"3.16-4","proto_major":3,"proto_minor":11}
2017-12-01 15:51:25 1512161485.607480: {"class":"DEVICES","devices":[{"class":"DEVICE","path":"/dev/ttyUSB0","driver":"SiRF","subtype":"9\u0006GSD4e_4.1.2-P1_RPATCH.05-F-GPS-4R-1510281 11/03/2015 307","activated":"2017-12-01T20:51:25.306Z","flags":1,"native":1,"bps":4800,"parity":"N","stopbits":1,"cycle":1.00}]}
2017-12-01 15:51:25 1512161485.607604: {"class":"WATCH","enable":true,"json":false,"nmea":true,"raw":0,"scaled":false,"timing":false,"split24":false,"pps":false}
2017-12-01 15:51:25 1512161485.755195: $GPGSV,3,1,12,01,15,316,38,10,67,135,48,11,11,298,29,12,25,069,40*7E
2017-12-01 15:51:25 1512161485.755339: $GPGSV,3,2,12,14,56,295,43,18,35,136,47,25,31,112,43,31,38,213,49*78
2017-12-01 15:51:25 1512161485.755405: $GPGSV,3,3,12,32,69,336,48,22,04,310,29,24,12,045,35,138,38,213,46*42
2017-12-01 15:51:25 1512161485.869001: $GPZDA,205126.00,01,12,2017,00,00*62
2017-12-01 15:51:25 1512161485.869175: $GPGGA,205126,3946.9559,N,08404.9833,W,2,12,0.80,310.05,M,-33.324,M,,*74
2017-12-01 15:51:25 1512161485.869242: $GPRMC,205126,A,3946.9559,N,08404.9833,W,0.0000,0.000,011217,,*38
2017-12-01 15:51:25 1512161485.869305: $GPGSA,A,3,1,10,11,12,14,18,25,31,32,22,24,138,2.0,0.8,1.5*3B
2017-12-01 15:51:26 1512161486.494265: $GPZDA,205127.00,01,12,2017,00,00*63
2017-12-01 15:51:26 1512161486.494440: $GPGGA,205127,3946.9559,N,08404.9833,W,2,12,0.80,310.05,M,-33.324,M,,*75
2017-12-01 15:51:26 1512161486.494508: $GPRMC,205127,A,3946.9559,N,08404.9833,W,0.0000,0.000,011217,,*39
2017-12-01 15:51:26 1512161486.494573: $GPGSA,A,3,1,10,11,12,14,18,25,31,32,22,24,138,2.0,0.8,1.5*3B
2017-12-01 15:51:27 1512161487.423740: $GPZDA,205128.00,01,12,2017,00,00*6C
2017-12-01 15:51:27 1512161487.423929: $GPGGA,205128,3946.9559,N,08404.9833,W,2,12,0.80,310.05,M,-33.324,M,,*7A
2017-12-01 15:51:27 1512161487.424002: $GPRMC,205128,A,3946.9559,N,08404.9833,W,0.0000,0.000,011217,,*36
2017-12-01 15:51:27 1512161487.424067: $GPGSA,A,3,1,10,11,12,14,18,25,31,32,22,24,138,2.0,0.8,1.5*3B
2017-12-01 15:51:28 1512161488.758185: $GPGSV,3,1,12,01,15,316,38,10,67,135,48,11,11,298,29,12,25,069,39*70
2017-12-01 15:51:28 1512161488.758369: $GPGSV,3,2,12,14,56,295,42,18,35,136,47,25,31,112,43,31,38,213,48*78
2017-12-01 15:51:28 1512161488.758441: $GPGSV,3,3,12,32,69,336,48,22,04,310,30,24,12,045,35,138,38,213,45*49
2017-12-01 15:51:28 1512161488.871540: $GPZDA,205129.00,01,12,2017,00,00*6D
2017-12-01 15:51:28 1512161488.871731: $GPGGA,205129,3946.9559,N,08404.9833,W,2,12,0.80,310.05,M,-33.324,M,,*7B
2017-12-01 15:51:28 1512161488.871802: $GPRMC,205129,A,3946.9559,N,08404.9833,W,0.0000,0.000,011217,,*37
2017-12-01 15:51:28 1512161488.871866: $GPGSA,A,3,1,10,11,12,14,18,25,31,32,22,24,138,2.0,0.8,1.5*3B
2017-12-01 15:51:29 1512161489.438638: $GPZDA,205130.00,01,12,2017,00,00*65
2017-12-01 15:51:29 1512161489.438812: $GPGGA,205130,3946.9559,N,08404.9833,W,2,12,0.80,310.05,M,-33.324,M,,*73
2017-12-01 15:51:29 1512161489.438881: $GPRMC,205130,A,3946.9559,N,08404.9833,W,0.0000,0.000,011217,,*3F
2017-12-01 15:51:29 1512161489.438945: $GPGSA,A,3,1,10,11,12,14,18,25,31,32,22,24,138,2.0,0.8,1.5*3B
2017-12-01 15:51:30 1512161490.439604: $GPZDA,205131.00,01,12,2017,00,00*64
2017-12-01 15:51:30 1512161490.444279: $GPGGA,205131,3946.9559,N,08404.9833,W,2,12,0.80,310.05,M,-33.324,M,,*72
2017-12-01 15:51:30 1512161490.444400: $GPRMC,205131,A,3946.9559,N,08404.9833,W,0.0000,0.000,011217,,*3E
2017-12-01 15:51:30 1512161490.444468: $GPGSA,A,3,1,10,11,12,14,18,25,31,32,22,24,138,2.0,0.8,1.5*3B
2017-12-01 15:51:31 1512161491.774725: $GPGSV,3,1,12,01,15,316,38,10,67,135,48,11,11,298,29,12,25,069,39*70
2017-12-01 15:51:31 1512161491.774908: $GPGSV,3,2,12,14,56,295,42,18,35,136,47,25,31,112,42,31,38,213,49*78
2017-12-01 15:51:31 1512161491.774978: $GPGSV,3,3,12,32,69,336,48,22,04,310,30,24,12,045,35,138,38,213,46*4A
2017-12-01 15:51:31 1512161491.888065: $GPZDA,205132.00,01,12,2017,00,00*67
2017-12-01 15:51:31 1512161491.888213: $GPGGA,205132,3946.9559,N,08404.9833,W,2,12,0.80,310.05,M,-33.324,M,,*71
2017-12-01 15:51:31 1512161491.888331: $GPRMC,205132,A,3946.9559,N,08404.9833,W,0.0000,0.000,011217,,*3D
2017-12-01 15:51:31 1512161491.888393: $GPGSA,A,3,1,10,11,12,14,18,25,31,32,22,24,138,2.0,0.8,1.5*3B
2017-12-01 15:51:32 1512161492.434471: $GPZDA,205133.00,01,12,2017,00,00*66
2017-12-01 15:51:32 1512161492.434657: $GPGGA,205133,3946.9559,N,08404.9833,W,2,12,0.80,310.05,M,-33.324,M,,*70
2017-12-01 15:51:32 1512161492.434724: $GPRMC,205133,A,3946.9559,N,08404.9833,W,0.0000,0.000,011217,,*3C
2017-12-01 15:51:32 1512161492.434785: $GPGSA,A,3,1,10,11,12,14,18,25,31,32,22,24,138,2.0,0.8,1.5*3B
2017-12-01 15:51:33 1512161493.438614: $GPZDA,205134.00,01,12,2017,00,00*61
2017-12-01 15:51:33 1512161493.438785: $GPGGA,205134,3946.9559,N,08404.9833,W,2,12,0.80,310.05,M,-33.324,M,,*77
2017-12-01 15:51:33 1512161493.438853: $GPRMC,205134,A,3946.9559,N,08404.9833,W,0.0000,0.000,011217,,*3B
2017-12-01 15:51:33 1512161493.438915: $GPGSA,A,3,1,10,11,12,14,18,25,31,32,22,24,138,2.0,0.8,1.5*3B
2017-12-01 15:51:34 1512161494.756860: $GPGSV,3,1,12,01,15,316,39,10,67,135,47,11,11,298,21,12,25,069,40*78
2017-12-01 15:51:34 1512161494.757044: $GPGSV,3,2,12,14,56,295,42,18,35,136,47,25,31,112,42,31,38,213,49*78
2017-12-01 15:51:34 1512161494.757112: $GPGSV,3,3,12,32,69,336,48,22,04,310,31,24,12,045,35,138,38,213,45*48
2017-12-01 15:51:34 1512161494.870231: $GPZDA,205135.00,01,12,2017,00,00*60
2017-12-01 15:51:34 1512161494.870397: $GPGGA,205135,3946.9559,N,08404.9833,W,2,12,0.80,310.05,M,-33.324,M,,*76
2017-12-01 15:51:34 1512161494.870462: $GPRMC,205135,A,3946.9559,N,08404.9833,W,0.0000,0.000,011217,,*3A
2017-12-01 15:51:34 1512161494.870523: $GPGSA,A,3,1,10,11,12,14,18,25,31,32,22,24,138,2.0,0.8,1.5*3B
2017-12-01 15:51:35 1512161495.422408: $GPZDA,205136.00,01,12,2017,00,00*63
2017-12-01 15:51:35 1512161495.422586: $GPGGA,205136,3946.9559,N,08404.9833,W,2,12,0.80,310.05,M,-33.324,M,,*75
2017-12-01 15:51:35 1512161495.422655: $GPRMC,205136,A,3946.9559,N,08404.9833,W,0.0000,0.000,011217,,*39
2017-12-01 15:51:35 1512161495.422717: $GPGSA,A,3,1,10,11,12,14,18,25,31,32,22,24,138,2.0,0.8,1.5*3B
2017-12-01 15:51:36 1512161496.424301: $GPZDA,205137.00,01,12,2017,00,00*62
2017-12-01 15:51:36 1512161496.424471: $GPGGA,205137,3946.9559,N,08404.9833,W,2,12,0.80,310.05,M,-33.324,M,,*74
2017-12-01 15:51:36 1512161496.424540: $GPRMC,205137,A,3946.9559,N,08404.9833,W,0.0000,0.000,011217,,*38
2017-12-01 15:51:36 1512161496.424601: $GPGSA,A,3,1,10,11,12,14,18,25,31,32,22,24,138,2.0,0.8,1.5*3B
2017-12-01 15:51:37 1512161497.774744: $GPGSV,3,1,12,01,15,316,39,10,67,135,48,11,11,298,28,12,25,069,39*70
2017-12-01 15:51:37 1512161497.774923: $GPGSV,3,2,12,14,56,295,43,18,35,136,47,25,31,112,42,31,38,213,48*78
2017-12-01 15:51:37 1512161497.774989: $GPGSV,3,3,12,32,69,336,48,22,04,310,31,24,12,045,36,138,38,213,46*48
2017-12-01 15:51:37 1512161497.888477: $GPZDA,205138.00,01,12,2017,00,00*6D
2017-12-01 15:51:37 1512161497.888625: $GPGGA,205138,3946.9559,N,08404.9833,W,2,12,0.80,310.05,M,-33.324,M,,*7B
2017-12-01 15:51:37 1512161497.888691: $GPRMC,205138,A,3946.9559,N,08404.9833,W,0.0000,0.000,011217,,*37
2017-12-01 15:51:37 1512161497.888752: $GPGSA,A,3,1,10,11,12,14,18,25,31,32,22,24,138,2.0,0.8,1.5*3B
2017-12-01 15:51:38 1512161498.421821: $GPZDA,205139.00,01,12,2017,00,00*6C
2017-12-01 15:51:38 1512161498.421986: $GPGGA,205139,3946.9559,N,08404.9833,W,2,12,0.80,310.05,M,-33.324,M,,*7A
2017-12-01 15:51:38 1512161498.422052: $GPRMC,205139,A,3946.9559,N,08404.9833,W,0.0000,0.000,011217,,*36
2017-12-01 15:51:38 1512161498.422113: $GPGSA,A,3,1,10,11,12,14,18,25,31,32,22,24,138,2.0,0.8,1.5*3B
2017-12-01 15:51:39 1512161499.440137: $GPZDA,205140.00,01,12,2017,00,00*62
2017-12-01 15:51:39 1512161499.440307: $GPGGA,205140,3946.9559,N,08404.9833,W,2,12,0.80,310.05,M,-33.324,M,,*74
2017-12-01 15:51:39 1512161499.440373: $GPRMC,205140,A,3946.9559,N,08404.9833,W,0.0000,0.000,011217,,*38
2017-12-01 15:51:39 1512161499.440435: $GPGSA,A,3,1,10,11,12,14,18,25,31,32,22,24,138,2.0,0.8,1.5*3B
2017-12-01 15:51:40 1512161500.775565: $GPGSV,3,1,12,01,15,316,40,10,67,135,48,11,11,298,28,12,25,069,39*7E
2017-12-01 15:51:40 1512161500.775756: $GPGSV,3,2,12,14,56,295,42,18,35,136,47,25,31,112,42,31,38,213,49*78
2017-12-01 15:51:40 1512161500.775825: $GPGSV,3,3,12,32,69,336,47,22,04,310,32,24,12,045,36,138,38,213,46*44
2017-12-01 15:51:40 1512161500.888974: $GPZDA,205141.00,01,12,2017,00,00*63
2017-12-01 15:51:40 1512161500.889152: $GPGGA,205141,3946.9559,N,08404.9833,W,2,12,0.80,310.05,M,-33.324,M,,*75
2017-12-01 15:51:40 1512161500.889220: $GPRMC,205141,A,3946.9559,N,08404.9833,W,0.0000,0.000,011217,,*39
2017-12-01 15:51:40 1512161500.889282: $GPGSA,A,3,1,10,11,12,14,18,25,31,32,22,24,138,2.0,0.8,1.5*3B
2017-12-01 15:51:41 1512161501.514313: $GPZDA,205142.00,01,12,2017,00,00*60
2017-12-01 15:51:41 1512161501.514493: $GPGGA,205142,3946.9559,N,08404.9833,W,2,12,0.80,310.05,M,-33.324,M,,*76
2017-12-01 15:51:41 1512161501.514561: $GPRMC,205142,A,3946.9559,N,08404.9833,W,0.0000,0.000,011217,,*3A
2017-12-01 15:51:41 1512161501.514622: $GPGSA,A,3,1,10,11,12,14,18,25,31,32,22,24,138,2.0,0.8,1.5*3B
2017-12-01 15:51:42 1512161502.423397: $GPZDA,205143.00,01,12,2017,00,00*61
2017-12-01 15:51:42 1512161502.423573: $GPGGA,205143,3946.9559,N,08404.9833,W,2,12,0.80,310.05,M,-33.324,M,,*77
2017-12-01 15:51:42 1512161502.423640: $GPRMC,205143,A,3946.9559,N,08404.9833,W,0.0000,0.000,011217,,*3B
2017-12-01 15:51:42 1512161502.423700: $GPGSA,A,3,1,10,11,12,14,18,25,31,32,22,24,138,2.0,0.8,1.5*3B
2017-12-01 15:51:43 1512161503.774746: $GPGSV,3,1,12,01,15,316,41,10,67,135,48,11,11,298,28,12,25,069,39*7F
2017-12-01 15:51:43 1512161503.774926: $GPGSV,3,2,12,14,56,295,43,18,35,136,47,25,31,112,41,31,38,213,49*7A
2017-12-01 15:51:43 1512161503.774992: $GPGSV,3,3,12,32,69,336,47,22,04,310,36,24,12,045,35,138,38,213,46*43
2017-12-01 15:51:43 1512161503.888122: $GPZDA,205144.00,01,12,2017,00,00*66
2017-12-01 15:51:43 1512161503.888286: $GPGGA,205144,3946.9559,N,08404.9833,W,2,12,0.80,310.05,M,-33.324,M,,*70
2017-12-01 15:51:43 1512161503.888352: $GPRMC,205144,A,3946.9559,N,08404.9833,W,0.0000,0.000,011217,,*3C
2017-12-01 15:51:43 1512161503.888414: $GPGSA,A,3,1,10,11,12,14,18,25,31,32,22,24,138,2.0,0.8,1.5*3B
2017-12-01 15:51:44 1512161504.439175: $GPZDA,205145.00,01,12,2017,00,00*67
2017-12-01 15:51:44 1512161504.439339: $GPGGA,205145,3946.9559,N,08404.9833,W,2,12,0.80,310.05,M,-33.324,M,,*71
2017-12-01 15:51:44 1512161504.439406: $GPRMC,205145,A,3946.9559,N,08404.9833,W,0.0000,0.000,011217,,*3D
2017-12-01 15:51:44 1512161504.439488: $GPGSA,A,3,1,10,11,12,14,18,25,31,32,22,24,138,2.0,0.8,1.5*3B
2017-12-01 15:51:45 1512161505.422444: $GPZDA,205146.00,01,12,2017,00,00*64
2017-12-01 15:51:45 1512161505.422601: $GPGGA,205146,3946.9559,N,08404.9833,W,2,12,0.80,310.05,M,-33.324,M,,*72
2017-12-01 15:51:45 1512161505.422668: $GPRMC,205146,A,3946.9559,N,08404.9833,W,0.0000,0.000,011217,,*3E
2017-12-01 15:51:45 1512161505.422729: $GPGSA,A,3,1,10,11,12,14,18,25,31,32,22,24,138,2.0,0.8,1.5*3B
