2017-12-31 18:36:00 1514763360.825967: {"class":"VERSION","release":"3.16","rev":"3.16-4","proto_major":3,"proto_minor":11}
2017-12-31 18:36:00 1514763360.826310: {"class":"DEVICES","devices":[{"class":"DEVICE","path":"/dev/ttyUSB0","driver":"SiRF","activated":"2017-12-31T23:36:00.800Z","flags":1,"native":1,"bps":4800,"parity":"N","stopbits":1,"cycle":1.00}]}
2017-12-31 18:36:00 1514763360.826408: {"class":"WATCH","enable":true,"json":false,"nmea":true,"raw":0,"scaled":false,"timing":false,"split24":false,"pps":false}
2017-12-31 18:36:01 1514763361.868771: $GPZDA,233602.00,31,12,2017,00,00*65
2017-12-31 18:36:01 1514763361.868950: $GPGGA,233602,3946.9578,N,08404.9830,W,2,12,0.80,309.03,M,-33.324,M,,*7E
2017-12-31 18:36:01 1514763361.869017: $GPRMC,233602,A,3946.9578,N,08404.9830,W,0.0000,0.000,311217,,*3F
2017-12-31 18:36:01 1514763361.869078: $GPGSA,A,3,22,23,9,3,16,8,14,31,27,7,26,135,1.7,0.8,1.3*0C
2017-12-31 18:36:02 1514763362.379638: $GPZDA,233603.00,31,12,2017,00,00*64
2017-12-31 18:36:02 1514763362.379801: $GPGGA,233603,3946.9578,N,08404.9830,W,2,12,0.80,309.03,M,-33.324,M,,*7F
2017-12-31 18:36:02 1514763362.379867: $GPRMC,233603,A,3946.9578,N,08404.9830,W,0.0000,0.000,311217,,*3E
2017-12-31 18:36:02 1514763362.379927: $GPGSA,A,3,22,23,9,3,16,8,14,31,27,7,26,135,1.7,0.8,1.3*0C
2017-12-31 18:36:03 1514763363.724055: $GPGSV,3,1,12,22,12,207,27,23,64,294,40,09,31,312,42,03,22,225,40*7C
2017-12-31 18:36:03 1514763363.724240: $GPGSV,3,2,12,16,84,042,41,08,11,177,30,14,04,138,18,31,20,084,41*72
2017-12-31 18:36:03 1514763363.724308: $GPGSV,3,3,12,27,34,147,40,07,06,280,38,26,50,046,46,135,22,240,43*49
2017-12-31 18:36:03 1514763363.837628: $GPZDA,233604.00,31,12,2017,00,00*63
2017-12-31 18:36:03 1514763363.837779: $GPGGA,233604,3946.9578,N,08404.9830,W,2,12,0.80,309.03,M,-33.324,M,,*78
2017-12-31 18:36:03 1514763363.837845: $GPRMC,233604,A,3946.9578,N,08404.9830,W,0.0000,0.000,311217,,*39
2017-12-31 18:36:03 1514763363.837905: $GPGSA,A,3,22,23,9,3,16,8,14,31,27,7,26,135,1.7,0.8,1.3*0C
2017-12-31 18:36:04 1514763364.387195: $GPZDA,233605.00,31,12,2017,00,00*62
2017-12-31 18:36:04 1514763364.387373: $GPGGA,233605,3946.9578,N,08404.9830,W,2,12,0.80,309.03,M,-33.324,M,,*79
2017-12-31 18:36:04 1514763364.387440: $GPRMC,233605,A,3946.9578,N,08404.9830,W,0.0000,0.000,311217,,*38
2017-12-31 18:36:04 1514763364.387501: $GPGSA,A,3,22,23,9,3,16,8,14,31,27,7,26,135,1.7,0.8,1.3*0C
2017-12-31 18:36:05 1514763365.352552: $GPZDA,233606.00,31,12,2017,00,00*61
2017-12-31 18:36:05 1514763365.352726: $GPGGA,233606,3946.9578,N,08404.9830,W,2,12,0.80,309.03,M,-33.324,M,,*7A
2017-12-31 18:36:05 1514763365.352795: $GPRMC,233606,A,3946.9578,N,08404.9830,W,0.0000,0.000,311217,,*3B
2017-12-31 18:36:05 1514763365.352856: $GPGSA,A,3,22,23,9,3,16,8,14,31,27,7,26,135,1.7,0.8,1.3*0C
2017-12-31 18:36:06 1514763366.681922: $GPGSV,3,1,12,22,12,207,28,23,64,294,40,09,31,312,41,03,22,225,40*70
2017-12-31 18:36:06 1514763366.682081: $GPGSV,3,2,12,16,84,042,41,08,11,177,29,14,04,138,18,31,20,084,41*7A
2017-12-31 18:36:06 1514763366.682146: $GPGSV,3,3,12,27,34,147,39,07,06,280,41,26,50,046,46,135,22,240,43*49
2017-12-31 18:36:06 1514763366.794075: $GPZDA,233607.00,31,12,2017,00,00*60
2017-12-31 18:36:06 1514763366.794204: $GPGGA,233607,3946.9578,N,08404.9830,W,2,12,0.80,309.03,M,-33.324,M,,*7B
2017-12-31 18:36:06 1514763366.794268: $GPRMC,233607,A,3946.9578,N,08404.9830,W,0.0000,0.000,311217,,*3A
2017-12-31 18:36:06 1514763366.794328: $GPGSA,A,3,22,23,9,3,16,8,14,31,27,7,26,135,1.7,0.8,1.3*0C
2017-12-31 18:36:07 1514763367.357578: $GPZDA,233608.00,31,12,2017,00,00*6F
2017-12-31 18:36:07 1514763367.357754: $GPGGA,233608,3946.9578,N,08404.9830,W,2,12,0.80,309.03,M,-33.324,M,,*74
2017-12-31 18:36:07 1514763367.357819: $GPRMC,233608,A,3946.9578,N,08404.9830,W,0.0000,0.000,311217,,*35
2017-12-31 18:36:07 1514763367.357879: $GPGSA,A,3,22,23,9,3,16,8,14,31,27,7,26,135,1.7,0.8,1.3*0C
2017-12-31 18:36:08 1514763368.388302: $GPZDA,233609.00,31,12,2017,00,00*6E
2017-12-31 18:36:08 1514763368.388477: $GPGGA,233609,3946.9578,N,08404.9830,W,2,12,0.80,309.03,M,-33.324,M,,*75
2017-12-31 18:36:08 1514763368.388601: $GPRMC,233609,A,3946.9578,N,08404.9830,W,0.0000,0.000,311217,,*34
2017-12-31 18:36:08 1514763368.388663: $GPGSA,A,3,22,23,9,3,16,8,14,31,27,7,26,135,1.7,0.8,1.3*0C
2017-12-31 18:36:09 1514763369.687741: $GPGSV,3,1,12,22,12,207,29,23,64,294,40,09,31,312,41,03,22,225,38*7E
2017-12-31 18:36:09 1514763369.690284: $GPGSV,3,2,12,16,84,042,42,08,11,177,26,14,04,138,18,31,20,084,41*76
2017-12-31 18:36:09 1514763369.690390: $GPGSV,3,3,12,27,34,147,39,07,06,280,41,26,50,046,46,135,22,240,44*4E
2017-12-31 18:36:09 1514763369.801160: $GPZDA,233610.00,31,12,2017,00,00*66
2017-12-31 18:36:09 1514763369.801316: $GPGGA,233610,3946.9578,N,08404.9830,W,2,12,0.80,309.03,M,-33.324,M,,*7D
2017-12-31 18:36:09 1514763369.801381: $GPRMC,233610,A,3946.9578,N,08404.9830,W,0.0000,0.000,311217,,*3C
2017-12-31 18:36:09 1514763369.801442: $GPGSA,A,3,22,23,9,3,16,8,14,31,27,7,26,135,1.7,0.8,1.3*0C
2017-12-31 18:36:10 1514763370.426558: $GPZDA,233611.00,31,12,2017,00,00*67
2017-12-31 18:36:10 1514763370.426729: $GPGGA,233611,3946.9578,N,08404.9830,W,2,12,0.80,309.03,M,-33.324,M,,*7C
2017-12-31 18:36:10 1514763370.426795: $GPRMC,233611,A,3946.9578,N,08404.9830,W,0.0000,0.000,311217,,*3D
2017-12-31 18:36:10 1514763370.426855: $GPGSA,A,3,22,23,9,3,16,8,14,31,27,7,26,135,1.7,0.8,1.3*0C
