2017-12-01 15:21:36 1512159696.836839: {"class":"VERSION","release":"3.16","rev":"3.16-4","proto_major":3,"proto_minor":11}
2017-12-01 15:21:36 1512159696.837267: {"class":"DEVICES","devices":[{"class":"DEVICE","path":"/dev/ttyUSB0","driver":"SiRF","subtype":"9\u0006GSD4e_4.1.2-P1_RPATCH.05-F-GPS-4R-1510281 11/03/2015 307","activated":"2017-12-01T20:21:36.527Z","flags":1,"native":1,"bps":4800,"parity":"N","stopbits":1,"cycle":1.00}]}
2017-12-01 15:21:36 1512159696.837395: {"class":"WATCH","enable":true,"json":false,"nmea":true,"raw":0,"scaled":false,"timing":false,"split24":false,"pps":false}
2017-12-01 15:21:37 1512159697.395079: $GPZDA,202138.00,01,12,2017,00,00*6A
2017-12-01 15:21:37 1512159697.395262: $GPGGA,202138,3946.9573,N,08404.9832,W,2,11,0.80,299.12,M,-33.324,M,,*70
2017-12-01 15:21:37 1512159697.395330: $GPRMC,202138,A,3946.9573,N,08404.9832,W,0.0000,0.000,011217,,*39
2017-12-01 15:21:37 1512159697.395393: $GPGSA,A,3,1,10,12,14,18,24,25,31,32,11,138,,2.0,0.8,1.5*3B
2017-12-01 15:21:38 1512159698.721595: $GPGSV,3,1,12,01,07,325,33,10,80,105,46,12,23,082,44,14,48,279,43*7F
2017-12-01 15:21:38 1512159698.721780: $GPGSV,3,2,12,18,47,127,48,24,23,046,46,25,22,124,44,31,24,208,46*72
2017-12-01 15:21:38 1512159698.721846: $GPGSV,3,3,12,32,63,304,47,11,09,310,40,21,03,174,17,138,38,213,46*42
2017-12-01 15:21:38 1512159698.834906: $GPZDA,202139.00,01,12,2017,00,00*6B
2017-12-01 15:21:38 1512159698.835069: $GPGGA,202139,3946.9573,N,08404.9832,W,2,12,0.80,299.12,M,-33.324,M,,*72
2017-12-01 15:21:38 1512159698.835135: $GPRMC,202139,A,3946.9573,N,08404.9832,W,0.0000,0.000,011217,,*38
2017-12-01 15:21:38 1512159698.835196: $GPGSA,A,3,1,10,12,14,18,24,25,31,32,11,21,138,2.0,0.8,1.5*38
2017-12-01 15:21:39 1512159699.387602: $GPZDA,202140.00,01,12,2017,00,00*65
2017-12-01 15:21:39 1512159699.387792: $GPGGA,202140,3946.9573,N,08404.9832,W,2,12,0.80,299.12,M,-33.324,M,,*7C
2017-12-01 15:21:39 1512159699.387860: $GPRMC,202140,A,3946.9573,N,08404.9832,W,0.0000,0.000,011217,,*36
2017-12-01 15:21:39 1512159699.387923: $GPGSA,A,3,1,10,12,14,18,24,25,31,32,11,21,138,2.0,0.8,1.5*38
2017-12-01 15:21:40 1512159700.404219: $GPZDA,202141.00,01,12,2017,00,00*64
2017-12-01 15:21:40 1512159700.404403: $GPGGA,202141,3946.9573,N,08404.9832,W,2,12,0.80,299.12,M,-33.324,M,,*7D
2017-12-01 15:21:40 1512159700.404471: $GPRMC,202141,A,3946.9573,N,08404.9832,W,0.0000,0.000,011217,,*37
2017-12-01 15:21:40 1512159700.404532: $GPGSA,A,3,1,10,12,14,18,24,25,31,32,11,21,138,2.0,0.8,1.5*38
2017-12-01 15:21:41 1512159701.741187: $GPGSV,3,1,12,01,07,325,33,10,80,105,46,12,23,082,44,14,48,279,43*7F
2017-12-01 15:21:41 1512159701.741426: $GPGSV,3,2,12,18,47,127,48,24,23,046,46,25,22,124,44,31,24,208,46*72
2017-12-01 15:21:41 1512159701.741506: $GPGSV,3,3,12,32,63,304,47,11,09,310,36,21,03,174,21,138,38,213,45*45
2017-12-01 15:21:41 1512159701.854669: $GPZDA,202142.00,01,12,2017,00,00*67
2017-12-01 15:21:41 1512159701.854843: $GPGGA,202142,3946.9573,N,08404.9832,W,2,12,0.80,299.12,M,-33.324,M,,*7E
2017-12-01 15:21:41 1512159701.854908: $GPRMC,202142,A,3946.9573,N,08404.9832,W,0.0000,0.000,011217,,*34
2017-12-01 15:21:41 1512159701.854969: $GPGSA,A,3,1,10,12,14,18,24,25,31,32,11,21,138,2.0,0.8,1.5*38
2017-12-01 15:21:42 1512159702.399183: $GPZDA,202143.00,01,12,2017,00,00*66
2017-12-01 15:21:42 1512159702.399358: $GPGGA,202143,3946.9573,N,08404.9832,W,2,12,0.80,299.12,M,-33.324,M,,*7F
2017-12-01 15:21:42 1512159702.399424: $GPRMC,202143,A,3946.9573,N,08404.9832,W,0.0000,0.000,011217,,*35
2017-12-01 15:21:42 1512159702.399486: $GPGSA,A,3,1,10,12,14,18,24,25,31,32,11,21,138,2.0,0.8,1.5*38
2017-12-01 15:21:43 1512159703.407067: $GPZDA,202144.00,01,12,2017,00,00*61
2017-12-01 15:21:43 1512159703.407252: $GPGGA,202144,3946.9573,N,08404.9832,W,2,12,0.80,299.12,M,-33.324,M,,*78
2017-12-01 15:21:43 1512159703.407320: $GPRMC,202144,A,3946.9573,N,08404.9832,W,0.0000,0.000,011217,,*32
2017-12-01 15:21:43 1512159703.407381: $GPGSA,A,3,1,10,12,14,18,24,25,31,32,11,21,138,2.0,0.8,1.5*38
2017-12-01 15:21:44 1512159704.740290: $GPGSV,3,1,12,01,07,325,34,10,80,105,46,12,23,082,44,14,48,279,43*78
2017-12-01 15:21:44 1512159704.740526: $GPGSV,3,2,12,18,47,127,48,24,23,046,46,25,22,124,44,31,24,208,46*72
2017-12-01 15:21:44 1512159704.740596: $GPGSV,3,3,12,32,63,304,47,11,09,310,36,21,03,174,00,138,38,213,46*45
2017-12-01 15:21:44 1512159704.853618: $GPZDA,202145.00,01,12,2017,00,00*60
2017-12-01 15:21:44 1512159704.853772: $GPGGA,202145,3946.9573,N,08404.9832,W,2,11,0.80,299.12,M,-33.324,M,,*7A
2017-12-01 15:21:44 1512159704.853836: $GPRMC,202145,A,3946.9573,N,08404.9832,W,0.0000,0.000,011217,,*33
2017-12-01 15:21:44 1512159704.853897: $GPGSA,A,3,1,10,12,14,18,24,25,31,32,11,138,,2.0,0.8,1.5*3B
2017-12-01 15:21:45 1512159705.389810: $GPZDA,202146.00,01,12,2017,00,00*63
2017-12-01 15:21:45 1512159705.389985: $GPGGA,202146,3946.9573,N,08404.9832,W,2,11,0.80,299.12,M,-33.324,M,,*79
2017-12-01 15:21:45 1512159705.390051: $GPRMC,202146,A,3946.9573,N,08404.9832,W,0.0000,0.000,011217,,*30
2017-12-01 15:21:45 1512159705.390112: $GPGSA,A,3,1,10,12,14,18,24,25,31,32,11,138,,2.0,0.8,1.5*3B
2017-12-01 15:21:46 1512159706.389178: $GPZDA,202147.00,01,12,2017,00,00*62
2017-12-01 15:21:46 1512159706.389354: $GPGGA,202147,3946.9573,N,08404.9832,W,2,11,0.80,299.12,M,-33.324,M,,*78
2017-12-01 15:21:46 1512159706.389423: $GPRMC,202147,A,3946.9573,N,08404.9832,W,0.0000,0.000,011217,,*31
2017-12-01 15:21:46 1512159706.389484: $GPGSA,A,3,1,10,12,14,18,24,25,31,32,11,138,,2.0,0.8,1.5*3B
2017-12-01 15:21:47 1512159707.724976: $GPGSV,3,1,12,01,07,325,35,10,80,105,46,12,23,082,44,14,48,279,43*79
2017-12-01 15:21:47 1512159707.725157: $GPGSV,3,2,12,18,47,127,48,24,23,046,46,25,22,124,44,31,24,208,46*72
2017-12-01 15:21:47 1512159707.725223: $GPGSV,3,3,12,32,63,304,47,11,09,310,27,21,03,174,00,138,38,213,45*46
2017-12-01 15:21:47 1512159707.838313: $GPZDA,202148.00,01,12,2017,00,00*6D
2017-12-01 15:21:47 1512159707.838492: $GPGGA,202148,3946.9573,N,08404.9832,W,2,11,0.80,299.12,M,-33.324,M,,*77
2017-12-01 15:21:47 1512159707.838560: $GPRMC,202148,A,3946.9573,N,08404.9832,W,0.0000,0.000,011217,,*3E
2017-12-01 15:21:47 1512159707.838621: $GPGSA,A,3,1,10,12,14,18,24,25,31,32,11,138,,2.0,0.8,1.5*3B
2017-12-01 15:21:48 1512159708.464092: $GPZDA,202149.00,01,12,2017,00,00*6C
2017-12-01 15:21:48 1512159708.464262: $GPGGA,202149,3946.9573,N,08404.9832,W,2,11,0.80,299.12,M,-33.324,M,,*76
2017-12-01 15:21:48 1512159708.464329: $GPRMC,202149,A,3946.9573,N,08404.9832,W,0.0000,0.000,011217,,*3F
2017-12-01 15:21:48 1512159708.464409: $GPGSA,A,3,1,10,12,14,18,24,25,31,32,11,138,,2.0,0.8,1.5*3B
2017-12-01 15:21:49 1512159709.386105: $GPZDA,202150.00,01,12,2017,00,00*64
2017-12-01 15:21:49 1512159709.386268: $GPGGA,202150,3946.9573,N,08404.9832,W,2,11,0.80,299.12,M,-33.324,M,,*7E
2017-12-01 15:21:49 1512159709.386335: $GPRMC,202150,A,3946.9573,N,08404.9832,W,0.0000,0.000,011217,,*37
2017-12-01 15:21:49 1512159709.386397: $GPGSA,A,3,1,10,12,14,18,24,25,31,32,11,138,,2.0,0.8,1.5*3B
2017-12-01 15:21:50 1512159710.736502: $GPGSV,3,1,12,01,07,325,36,10,80,105,46,12,23,082,44,14,48,279,43*7A
2017-12-01 15:21:50 1512159710.736686: $GPGSV,3,2,12,18,47,127,48,24,23,046,46,25,22,124,44,31,24,208,46*72
2017-12-01 15:21:50 1512159710.736753: $GPGSV,3,3,12,32,63,304,46,11,09,310,27,21,03,174,00,138,38,213,46*44
2017-12-01 15:21:50 1512159710.848977: $GPZDA,202151.00,01,12,2017,00,00*65
2017-12-01 15:21:50 1512159710.849147: $GPGGA,202151,3946.9573,N,08404.9832,W,2,11,0.80,299.12,M,-33.324,M,,*7F
2017-12-01 15:21:50 1512159710.849213: $GPRMC,202151,A,3946.9573,N,08404.9832,W,0.0000,0.000,011217,,*36
2017-12-01 15:21:50 1512159710.849274: $GPGSA,A,3,1,10,12,14,18,24,25,31,32,11,138,,2.0,0.8,1.5*3B
2017-12-01 15:21:51 1512159711.404525: $GPZDA,202152.00,01,12,2017,00,00*66
2017-12-01 15:21:51 1512159711.404712: $GPGGA,202152,3946.9573,N,08404.9832,W,2,11,0.80,299.12,M,-33.324,M,,*7C
2017-12-01 15:21:51 1512159711.404803: $GPRMC,202152,A,3946.9573,N,08404.9832,W,0.0000,0.000,011217,,*35
2017-12-01 15:21:51 1512159711.404868: $GPGSA,A,3,1,10,12,14,18,24,25,31,32,11,138,,2.0,0.8,1.5*3B
2017-12-01 15:21:52 1512159712.404262: $GPZDA,202153.00,01,12,2017,00,00*67
2017-12-01 15:21:52 1512159712.404446: $GPGGA,202153,3946.9574,N,08404.9839,W,2,11,0.80,299.05,M,-33.324,M,,*77
2017-12-01 15:21:52 1512159712.404514: $GPRMC,202153,A,3946.9574,N,08404.9839,W,0.0000,0.000,011217,,*38
2017-12-01 15:21:52 1512159712.404576: $GPGSA,A,3,1,10,12,14,18,24,25,31,32,11,138,,2.0,0.8,1.5*3B
2017-12-01 15:21:53 1512159713.724406: $GPGSV,3,1,12,01,07,325,42,10,80,105,46,12,23,082,44,14,48,279,43*79
2017-12-01 15:21:53 1512159713.724619: $GPGSV,3,2,12,18,47,127,48,24,23,046,46,25,22,124,44,31,24,208,46*72
2017-12-01 15:21:53 1512159713.724687: $GPGSV,3,3,12,32,63,304,47,11,09,310,35,21,03,174,00,138,38,213,46*46
2017-12-01 15:21:53 1512159713.837842: $GPZDA,202154.00,01,12,2017,00,00*60
2017-12-01 15:21:53 1512159713.838009: $GPGGA,202154,3946.9574,N,08404.9839,W,2,11,0.80,299.05,M,-33.324,M,,*70
2017-12-01 15:21:53 1512159713.838075: $GPRMC,202154,A,3946.9574,N,08404.9839,W,0.0000,0.000,011217,,*3F
2017-12-01 15:21:53 1512159713.838137: $GPGSA,A,3,1,10,12,14,18,24,25,31,32,11,138,,2.0,0.8,1.5*3B
2017-12-01 15:21:54 1512159714.406222: $GPZDA,202155.00,01,12,2017,00,00*61
2017-12-01 15:21:54 1512159714.406392: $GPGGA,202155,3946.9574,N,08404.9839,W,2,11,0.80,299.05,M,-33.324,M,,*71
2017-12-01 15:21:54 1512159714.406459: $GPRMC,202155,A,3946.9574,N,08404.9839,W,0.0000,0.000,011217,,*3E
2017-12-01 15:21:54 1512159714.406520: $GPGSA,A,3,1,10,12,14,18,24,25,31,32,11,138,,2.0,0.8,1.5*3B
2017-12-01 15:21:55 1512159715.389585: $GPZDA,202156.00,01,12,2017,00,00*62
2017-12-01 15:21:55 1512159715.389759: $GPGGA,202156,3946.9574,N,08404.9839,W,2,11,0.80,299.05,M,-33.324,M,,*72
2017-12-01 15:21:55 1512159715.389829: $GPRMC,202156,A,3946.9574,N,08404.9839,W,0.0000,0.000,011217,,*3D
2017-12-01 15:21:55 1512159715.389893: $GPGSA,A,3,1,10,12,14,18,24,25,31,32,11,138,,2.0,0.8,1.5*3B
2017-12-01 15:21:56 1512159716.719022: $GPGSV,3,1,12,01,07,325,41,10,80,105,47,12,23,082,45,14,48,279,43*7A
2017-12-01 15:21:56 1512159716.719202: $GPGSV,3,2,12,18,47,127,48,24,23,046,46,25,22,124,45,31,24,208,45*70
2017-12-01 15:21:56 1512159716.719271: $GPGSV,3,3,12,32,63,304,48,11,09,310,28,21,03,174,00,138,38,213,45*46
2017-12-01 15:21:56 1512159716.832429: $GPZDA,202157.00,01,12,2017,00,00*63
2017-12-01 15:21:56 1512159716.832601: $GPGGA,202157,3946.9574,N,08404.9839,W,2,11,0.80,299.05,M,-33.324,M,,*73
2017-12-01 15:21:56 1512159716.832671: $GPRMC,202157,A,3946.9574,N,08404.9839,W,0.0000,0.000,011217,,*3C
2017-12-01 15:21:56 1512159716.832735: $GPGSA,A,3,1,10,12,14,18,24,25,31,32,11,138,,2.0,0.8,1.5*3B
