2017-12-14 12:37:02 1513273022.144779: {"class":"VERSION","release":"3.16","rev":"3.16-4","proto_major":3,"proto_minor":11}
2017-12-14 12:37:02 1513273022.145233: {"class":"DEVICES","devices":[{"class":"DEVICE","path":"/dev/ttyUSB0","driver":"SiRF","subtype":"9\u0006GSD4e_4.1.2-P1_RPATCH.05-F-GPS-4R-1510281 11/03/2015 307","activated":"2017-12-14T17:37:01.471Z","flags":1,"native":1,"bps":4800,"parity":"N","stopbits":1,"cycle":1.00}]}
2017-12-14 12:37:02 1513273022.145349: {"class":"WATCH","enable":true,"json":false,"nmea":true,"raw":0,"scaled":false,"timing":false,"split24":false,"pps":false}
2017-12-14 12:37:02 1513273022.763628: $GPRMC,173703,V,18000.0000,N,00000.0000,W,0.0000,0.000,141217,,*10
2017-12-14 12:37:02 1513273022.763778: $GPGSA,A,1,10,20,21,24,15,32,,,,,,,,,,*31
2017-12-14 12:37:03 1513273023.927062: $GPRMC,173704,V,3946.9618,N,08404.9304,W,0.0000,0.000,141217,,*26
2017-12-14 12:37:03 1513273023.927267: $GPGSA,A,1,10,20,21,24,15,32,,,,,,,,,,*31
2017-12-14 12:37:04 1513273024.903810: $GPGSV,3,1,11,10,48,307,16,18,76,003,17,21,53,183,02,24,53,096,15*7E
2017-12-14 12:37:04 1513273024.903974: $GPGSV,3,2,11,32,28,244,19,15,30,055,00,20,27,102,00,27,17,280,00*73
2017-12-14 12:37:04 1513273024.904061: $GPGSV,3,3,11,14,10,237,00,08,07,315,00,13,01,051,00*44
2017-12-14 12:37:05 1513273025.016290: $GPRMC,173705,V,3946.9609,N,08404.9204,W,1.3373,166.684,141217,,*28
2017-12-14 12:37:05 1513273025.016465: $GPGSA,A,1,10,18,21,24,32,,,,,,,,,,,*3E
2017-12-14 12:37:05 1513273025.765807: $GPRMC,173705,V,3946.9595,N,08404.9150,W,1.3088,270.951,141217,,*28
2017-12-14 12:37:05 1513273025.765979: $GPGSA,A,1,10,18,21,24,32,,,,,,,,,,,*3E
2017-12-14 12:37:06 1513273026.020756: $GPZDA,173705.95,14,12,2017,00,00*6F
2017-12-14 12:37:06 1513273026.020921: $GPGGA,173705,3946.9566,N,08404.9116,W,1,05,3.40,327.41,M,-33.324,M,,*7D
2017-12-14 12:37:06 1513273026.021008: $GPRMC,173705,A,3946.9566,N,08404.9116,W,1.0822,260.371,141217,,*33
2017-12-14 12:37:06 1513273026.021072: $GPGSA,A,3,10,18,21,24,32,,,,,,,,6.6,3.4,6.2*3D
2017-12-14 12:37:06 1513273026.021145: $GPGBS,173705,24.66,M,21.80,M,143.40,M*36
2017-12-14 12:37:06 1513273026.982246: $GPGSV,3,1,12,10,48,307,16,18,76,003,18,21,53,183,21,24,53,096,17*71
2017-12-14 12:37:06 1513273026.982408: $GPGSV,3,2,12,32,28,244,19,15,30,055,11,20,27,102,00,27,17,280,00*70
2017-12-14 12:37:06 1513273026.982472: $GPGSV,3,3,12,14,10,237,00,08,07,315,00,13,01,051,00,138,38,213,00*46
2017-12-14 12:37:07 1513273027.095631: $GPZDA,173707.00,14,12,2017,00,00*61
2017-12-14 12:37:07 1513273027.095795: $GPGGA,173707,3946.9538,N,08404.9118,W,1,06,3.40,325.74,M,-33.324,M,,*7D
2017-12-14 12:37:07 1513273027.095861: $GPRMC,173707,A,3946.9538,N,08404.9118,W,1.0185,266.710,141217,,*35
2017-12-14 12:37:07 1513273027.095922: $GPGSA,A,3,10,18,21,24,32,15,,,,,,,6.6,3.4,6.2*39
2017-12-14 12:37:07 1513273027.546502: $GPZDA,173708.00,14,12,2017,00,00*6E
2017-12-14 12:37:07 1513273027.546667: $GPGGA,173708,3946.9531,N,08404.9126,W,1,06,3.40,325.79,M,-33.324,M,,*7B
2017-12-14 12:37:07 1513273027.546734: $GPRMC,173708,A,3946.9531,N,08404.9126,W,1.2468,222.999,141217,,*35
2017-12-14 12:37:07 1513273027.546794: $GPGSA,A,3,10,18,21,24,32,15,,,,,,,6.6,3.4,6.2*39
2017-12-14 12:37:08 1513273028.370098: $GPZDA,173709.00,14,12,2017,00,00*6F
2017-12-14 12:37:08 1513273028.370396: $GPGGA,173709,3946.9522,N,08404.9126,W,1,06,2.40,324.51,M,-33.324,M,,*72
2017-12-14 12:37:08 1513273028.370536: $GPRMC,173709,A,3946.9522,N,08404.9126,W,0.9801,214.743,141217,,*33
2017-12-14 12:37:08 1513273028.370663: $GPGSA,A,3,10,18,21,24,32,15,,,,,,,6.6,2.4,6.2*38
2017-12-14 12:37:08 1513273028.370789: $GPGBS,173709,24.66,M,21.80,M,143.40,M*3A
2017-12-14 12:37:09 1513273029.706707: $GPGSV,3,1,12,10,48,307,16,18,76,003,18,21,53,183,21,24,53,096,18*7E
2017-12-14 12:37:09 1513273029.706880: $GPGSV,3,2,12,32,28,244,19,15,30,055,00,20,27,102,14,27,17,280,00*75
2017-12-14 12:37:09 1513273029.706946: $GPGSV,3,3,12,14,10,237,00,08,07,315,00,13,01,051,00,138,38,213,00*46
2017-12-14 12:37:09 1513273029.818847: $GPZDA,173710.00,14,12,2017,00,00*67
2017-12-14 12:37:09 1513273029.819086: $GPGGA,173710,3946.9512,N,08404.9128,W,1,06,2.40,326.80,M,-33.324,M,,*79
2017-12-14 12:37:09 1513273029.819173: $GPRMC,173710,A,3946.9512,N,08404.9128,W,1.3643,222.716,141217,,*30
2017-12-14 12:37:09 1513273029.819235: $GPGSA,A,3,10,18,21,24,32,20,,,,,,,6.6,2.4,6.2*3E
2017-12-14 12:37:10 1513273030.369724: $GPZDA,173711.00,14,12,2017,00,00*66
2017-12-14 12:37:10 1513273030.369895: $GPGGA,173711,3946.9502,N,08404.9137,W,1,06,2.40,329.02,M,-33.324,M,,*72
2017-12-14 12:37:10 1513273030.369961: $GPRMC,173711,A,3946.9502,N,08404.9137,W,1.6653,207.112,141217,,*3F
2017-12-14 12:37:10 1513273030.370047: $GPGSA,A,3,10,18,21,24,32,20,,,,,,,6.6,2.4,6.2*3E
2017-12-14 12:37:11 1513273031.371527: $GPZDA,173712.00,14,12,2017,00,00*65
2017-12-14 12:37:11 1513273031.371690: $GPGGA,173712,3946.9502,N,08404.9137,W,1,06,2.40,329.02,M,-33.324,M,,*71
2017-12-14 12:37:11 1513273031.371756: $GPRMC,173712,A,3946.9502,N,08404.9137,W,1.8106,194.953,141217,,*31
2017-12-14 12:37:11 1513273031.371817: $GPGSA,A,3,10,18,21,24,32,20,,,,,,,6.6,2.4,6.2*3E
2017-12-14 12:37:12 1513273032.707062: $GPGSV,3,1,12,10,48,307,16,18,76,003,18,21,53,183,21,24,53,096,18*7E
2017-12-14 12:37:12 1513273032.707259: $GPGSV,3,2,12,32,28,244,19,15,30,055,00,20,27,102,15,27,17,280,00*74
2017-12-14 12:37:12 1513273032.707327: $GPGSV,3,3,12,14,10,237,00,08,07,315,00,13,01,051,00,138,38,213,00*46
2017-12-14 12:37:12 1513273032.820538: $GPZDA,173713.00,14,12,2017,00,00*64
2017-12-14 12:37:12 1513273032.820684: $GPGGA,173713,3946.9495,N,08404.9138,W,1,06,2.40,330.55,M,-33.324,M,,*7A
2017-12-14 12:37:12 1513273032.820750: $GPRMC,173713,A,3946.9495,N,08404.9138,W,1.2267,213.879,141217,,*3B
2017-12-14 12:37:12 1513273032.820810: $GPGSA,A,3,10,18,21,24,32,20,,,,,,,6.6,2.4,6.2*3E
2017-12-14 12:37:13 1513273033.369248: $GPZDA,173714.00,14,12,2017,00,00*63
2017-12-14 12:37:13 1513273033.369551: $GPGGA,173714,3946.9495,N,08404.9138,W,1,06,2.40,330.55,M,-33.324,M,,*7D
2017-12-14 12:37:13 1513273033.369675: $GPRMC,173714,A,3946.9495,N,08404.9138,W,0.9483,174.471,141217,,*3C
2017-12-14 12:37:13 1513273033.369803: $GPGSA,A,3,10,18,21,24,32,20,,,,,,,6.6,2.4,6.2*3E
2017-12-14 12:37:14 1513273034.368488: $GPZDA,173715.00,14,12,2017,00,00*62
2017-12-14 12:37:14 1513273034.368694: $GPGGA,173715,3946.9496,N,08404.9139,W,1,06,2.40,331.95,M,-33.324,M,,*73
2017-12-14 12:37:14 1513273034.368766: $GPRMC,173715,A,3946.9496,N,08404.9139,W,1.0161,160.866,141217,,*31
2017-12-14 12:37:14 1513273034.368828: $GPGSA,A,3,10,18,21,24,32,20,,,,,,,6.6,2.4,6.2*3E
2017-12-14 12:37:15 1513273035.705405: $GPGSV,3,1,12,10,48,307,16,18,76,003,18,21,53,183,21,24,53,096,19*7F
2017-12-14 12:37:15 1513273035.705587: $GPGSV,3,2,12,32,28,244,18,15,30,055,00,20,27,102,15,27,17,280,00*75
2017-12-14 12:37:15 1513273035.705653: $GPGSV,3,3,12,14,10,237,00,08,07,315,00,13,01,051,00,138,38,213,00*46
2017-12-14 12:37:15 1513273035.818784: $GPZDA,173716.00,14,12,2017,00,00*61
2017-12-14 12:37:15 1513273035.818959: $GPGGA,173716,3946.9492,N,08404.9140,W,1,06,2.40,332.71,M,-33.324,M,,*73
2017-12-14 12:37:15 1513273035.819026: $GPRMC,173716,A,3946.9492,N,08404.9140,W,0.6137,169.064,141217,,*3F
2017-12-14 12:37:15 1513273035.819087: $GPGSA,A,3,10,18,21,24,32,20,,,,,,,6.6,2.4,6.2*3E
2017-12-14 12:37:16 1513273036.444161: $GPZDA,173717.00,14,12,2017,00,00*60
2017-12-14 12:37:16 1513273036.444325: $GPGGA,173717,3946.9493,N,08404.9147,W,1,06,2.40,332.63,M,-33.324,M,,*77
2017-12-14 12:37:16 1513273036.444391: $GPRMC,173717,A,3946.9493,N,08404.9147,W,0.6502,167.433,141217,,*32
2017-12-14 12:37:16 1513273036.444472: $GPGSA,A,3,10,18,21,24,32,20,,,,,,,6.6,2.4,6.2*3E
2017-12-14 12:37:17 1513273037.370050: $GPZDA,173718.00,14,12,2017,00,00*6F
2017-12-14 12:37:17 1513273037.370268: $GPGGA,173718,3946.9486,N,08404.9141,W,1,06,2.40,334.24,M,-33.324,M,,*7F
2017-12-14 12:37:17 1513273037.370340: $GPRMC,173718,A,3946.9486,N,08404.9141,W,0.7978,171.609,141217,,*33
2017-12-14 12:37:17 1513273037.370402: $GPGSA,A,3,10,18,21,24,32,20,,,,,,,6.6,2.4,6.2*3E
2017-12-14 12:37:18 1513273038.707055: $GPGSV,3,1,12,10,48,307,16,18,76,003,18,21,53,183,21,24,53,096,20*75
2017-12-14 12:37:18 1513273038.707298: $GPGSV,3,2,12,32,28,244,18,15,30,055,10,20,27,102,15,27,17,280,00*74
2017-12-14 12:37:18 1513273038.707367: $GPGSV,3,3,12,14,10,237,00,08,07,315,00,13,01,051,00,138,38,213,00*46
2017-12-14 12:37:18 1513273038.820453: $GPZDA,173719.00,14,12,2017,00,00*6E
2017-12-14 12:37:18 1513273038.820600: $GPGGA,173719,3946.9479,N,08404.9143,W,1,06,2.40,335.77,M,-33.324,M,,*7B
2017-12-14 12:37:18 1513273038.820666: $GPRMC,173719,A,3946.9479,N,08404.9143,W,1.4339,145.293,141217,,*3D
2017-12-14 12:37:18 1513273038.820727: $GPGSA,A,3,10,18,21,24,32,20,,,,,,,6.6,2.4,6.2*3E
2017-12-14 12:37:19 1513273039.371337: $GPZDA,173720.00,14,12,2017,00,00*64
2017-12-14 12:37:19 1513273039.371504: $GPGGA,173720,3946.9475,N,08404.9136,W,1,06,2.40,336.62,M,-33.324,M,,*78
2017-12-14 12:37:19 1513273039.371569: $GPRMC,173720,A,3946.9475,N,08404.9136,W,1.8512,146.079,141217,,*3F
2017-12-14 12:37:19 1513273039.371629: $GPGSA,A,3,10,18,21,24,32,20,,,,,,,6.6,2.4,6.2*3E
2017-12-14 12:37:20 1513273040.370819: $GPZDA,173721.00,14,12,2017,00,00*65
2017-12-14 12:37:20 1513273040.371001: $GPGGA,173721,3946.9475,N,08404.9129,W,1,06,2.40,336.69,M,-33.324,M,,*7C
2017-12-14 12:37:20 1513273040.371069: $GPRMC,173721,A,3946.9475,N,08404.9129,W,1.5017,133.839,141217,,*33
2017-12-14 12:37:20 1513273040.371149: $GPGSA,A,3,10,18,21,24,32,20,,,,,,,6.6,2.4,6.2*3E
2017-12-14 12:37:20 1513273040.371206: $GPGBS,173721,24.66,M,21.80,M,143.40,M*30
2017-12-14 12:37:21 1513273041.707273: $GPGSV,3,1,12,10,48,307,16,18,76,003,17,21,53,183,21,24,53,096,20*7A
2017-12-14 12:37:21 1513273041.707437: $GPGSV,3,2,12,32,28,244,18,15,30,055,10,20,27,102,16,27,17,280,00*77
2017-12-14 12:37:21 1513273041.707502: $GPGSV,3,3,12,14,10,237,00,08,07,315,00,13,01,051,00,138,38,213,00*46
2017-12-14 12:37:21 1513273041.820668: $GPZDA,173722.00,14,12,2017,00,00*66
2017-12-14 12:37:21 1513273041.820848: $GPGGA,173722,3946.9463,N,08404.9124,W,1,06,2.40,337.66,M,-33.324,M,,*7B
2017-12-14 12:37:21 1513273041.820916: $GPRMC,173722,A,3946.9463,N,08404.9124,W,1.4339,145.293,141217,,*3F
2017-12-14 12:37:21 1513273041.820976: $GPGSA,A,3,10,18,21,24,32,20,,,,,,,6.6,2.4,6.2*3E
