2017-11-16 15:32:29 1510864349.067546: {"class":"VERSION","release":"3.17","rev":"3.17","proto_major":3,"proto_minor":12}
2017-11-16 15:32:29 1510864349.068087: {"class":"DEVICES","devices":[{"class":"DEVICE","path":"/dev/ttyUSB0","driver":"SiRF","subtype":"9\u0006GSD4e_4.1.2-P1_RPATCH.05-F-GPS-4R-1510281 11/03/2015 307","activated":"2017-11-16T20:32:28.967Z","flags":1,"native":1,"bps":4800,"parity":"N","stopbits":1,"cycle":1.00}]}
2017-11-16 15:32:29 1510864349.068222: {"class":"WATCH","enable":true,"json":false,"nmea":true,"raw":0,"scaled":false,"timing":false,"split24":false,"pps":false}
2017-11-16 15:32:29 1510864349.371074: $GPZDA,203228.00,16,11,2017,00,00*6C
2017-11-16 15:32:29 1510864349.371240: $GPGGA,203228,3946.9568,N,08404.9860,W,2,11,1.00,309.61,M,-33.324,M,,*7B
2017-11-16 15:32:29 1510864349.371301: $GPRMC,203228,A,3946.9568,N,08404.9860,W,0.0000,0.000,161117,,*32
2017-11-16 15:32:29 1510864349.371357: $GPGSA,A,3,8,10,14,15,18,20,21,24,32,12,138,,1.6,1.0,1.3*38
2017-11-16 15:32:30 1510864350.366905: $GPZDA,203229.00,16,11,2017,00,00*6D
2017-11-16 15:32:30 1510864350.367080: $GPGGA,203229,3946.9568,N,08404.9860,W,2,11,0.80,309.61,M,-33.324,M,,*73
2017-11-16 15:32:30 1510864350.367141: $GPRMC,203229,A,3946.9568,N,08404.9860,W,0.0000,0.000,161117,,*33
2017-11-16 15:32:30 1510864350.367216: $GPGSA,A,3,8,10,14,15,18,20,21,24,32,12,138,,1.6,0.8,1.3*31
2017-11-16 15:32:31 1510864351.719721: $GPGSV,3,1,12,08,05,291,31,10,72,336,50,14,31,256,46,27,05,258,30*72
2017-11-16 15:32:31 1510864351.719905: $GPGSV,3,2,12,18,68,099,47,20,06,120,19,21,26,178,43,24,43,057,49*70
2017-11-16 15:32:31 1510864351.719986: $GPGSV,3,3,12,25,05,139,09,32,48,268,46,12,11,105,31,138,38,213,44*4D
2017-11-16 15:32:31 1510864351.833182: $GPZDA,203230.00,16,11,2017,00,00*65
2017-11-16 15:32:31 1510864351.833417: $GPGGA,203230,3946.9568,N,08404.9860,W,2,12,1.00,309.61,M,-33.324,M,,*71
2017-11-16 15:32:31 1510864351.833504: $GPRMC,203230,A,3946.9568,N,08404.9860,W,0.0000,0.000,161117,,*3B
2017-11-16 15:32:31 1510864351.833572: $GPGSA,A,3,8,10,14,27,18,20,21,24,25,32,12,138,1.6,1.0,1.3*3E
2017-11-16 15:32:32 1510864352.387761: $GPZDA,203231.00,16,11,2017,00,00*64
2017-11-16 15:32:32 1510864352.387967: $GPGGA,203231,3946.9568,N,08404.9860,W,2,12,0.80,309.61,M,-33.324,M,,*79
2017-11-16 15:32:32 1510864352.388030: $GPRMC,203231,A,3946.9568,N,08404.9860,W,0.0000,0.000,161117,,*3A
2017-11-16 15:32:32 1510864352.388086: $GPGSA,A,3,8,10,14,27,18,20,21,24,25,32,12,138,1.6,0.8,1.3*37
2017-11-16 15:32:33 1510864353.368603: $GPZDA,203232.00,16,11,2017,00,00*67
2017-11-16 15:32:33 1510864353.368796: $GPGGA,203232,3946.9568,N,08404.9860,W,2,12,0.80,309.61,M,-33.324,M,,*7A
2017-11-16 15:32:33 1510864353.368874: $GPRMC,203232,A,3946.9568,N,08404.9860,W,0.0000,0.000,161117,,*39
2017-11-16 15:32:33 1510864353.368931: $GPGSA,A,3,8,10,14,27,18,20,21,24,25,32,12,138,1.6,0.8,1.3*37
2017-11-16 15:32:34 1510864354.713141: $GPGSV,3,1,12,08,05,291,33,10,72,336,50,14,31,256,46,15,09,067,26*74
2017-11-16 15:32:34 1510864354.713329: $GPGSV,3,2,12,18,68,099,47,20,06,120,06,21,26,178,43,24,43,057,49*7E
2017-11-16 15:32:34 1510864354.713391: $GPGSV,3,3,12,25,05,139,22,32,48,268,46,12,11,105,31,138,38,213,44*44
2017-11-16 15:32:34 1510864354.826515: $GPZDA,203233.00,16,11,2017,00,00*66
2017-11-16 15:32:34 1510864354.826723: $GPGGA,203233,3946.9568,N,08404.9860,W,2,11,0.80,309.61,M,-33.324,M,,*78
2017-11-16 15:32:34 1510864354.826800: $GPRMC,203233,A,3946.9568,N,08404.9860,W,0.0000,0.000,161117,,*38
2017-11-16 15:32:34 1510864354.826858: $GPGSA,A,3,8,10,14,15,18,21,24,25,32,12,138,,1.6,0.8,1.3*34
2017-11-16 15:32:35 1510864355.366077: $GPZDA,203234.00,16,11,2017,00,00*61
2017-11-16 15:32:35 1510864355.366249: $GPGGA,203234,3946.9568,N,08404.9860,W,2,11,0.80,309.61,M,-33.324,M,,*7F
2017-11-16 15:32:35 1510864355.366311: $GPRMC,203234,A,3946.9568,N,08404.9860,W,0.0000,0.000,161117,,*3F
2017-11-16 15:32:35 1510864355.366367: $GPGSA,A,3,8,10,14,15,18,21,24,25,32,12,138,,1.6,0.8,1.3*34
2017-11-16 15:32:36 1510864356.367880: $GPZDA,203235.00,16,11,2017,00,00*60
2017-11-16 15:32:36 1510864356.368088: $GPGGA,203235,3946.9568,N,08404.9860,W,2,11,0.80,309.61,M,-33.324,M,,*7E
2017-11-16 15:32:36 1510864356.368151: $GPRMC,203235,A,3946.9568,N,08404.9860,W,0.0000,0.000,161117,,*3E
2017-11-16 15:32:36 1510864356.368207: $GPGSA,A,3,8,10,14,15,18,21,24,25,32,12,138,,1.6,0.8,1.3*34
2017-11-16 15:32:37 1510864357.719818: $GPGSV,3,1,12,08,05,291,34,10,72,336,50,14,31,256,46,15,09,067,26*73
2017-11-16 15:32:37 1510864357.720004: $GPGSV,3,2,12,18,68,099,47,27,05,258,30,21,26,178,43,24,43,057,50*7B
2017-11-16 15:32:37 1510864357.720065: $GPGSV,3,3,12,25,05,139,22,32,48,268,46,12,11,105,32,138,38,213,44*47
2017-11-16 15:32:37 1510864357.833029: $GPZDA,203236.00,16,11,2017,00,00*63
2017-11-16 15:32:37 1510864357.833193: $GPGGA,203236,3946.9568,N,08404.9860,W,2,12,0.80,309.61,M,-33.324,M,,*7E
2017-11-16 15:32:37 1510864357.833254: $GPRMC,203236,A,3946.9568,N,08404.9860,W,0.0000,0.000,161117,,*3D
2017-11-16 15:32:37 1510864357.833310: $GPGSA,A,3,8,10,14,15,18,27,21,24,25,32,12,138,1.6,0.8,1.3*31
2017-11-16 15:32:38 1510864358.359152: $GPZDA,203237.00,16,11,2017,00,00*62
2017-11-16 15:32:38 1510864358.359314: $GPGGA,203237,3946.9568,N,08404.9860,W,2,12,0.80,309.61,M,-33.324,M,,*7F
2017-11-16 15:32:38 1510864358.359374: $GPRMC,203237,A,3946.9568,N,08404.9860,W,0.0000,0.000,161117,,*3C
2017-11-16 15:32:38 1510864358.359431: $GPGSA,A,3,8,10,14,15,18,27,21,24,25,32,12,138,1.6,0.8,1.3*31
