2017-12-31 18:37:12 1514763432.669766: {"class":"VERSION","release":"3.16","rev":"3.16-4","proto_major":3,"proto_minor":11}
2017-12-31 18:37:12 1514763432.670253: {"class":"DEVICES","devices":[{"class":"DEVICE","path":"/dev/ttyUSB0","driver":"SiRF","activated":"2017-12-31T23:37:12.275Z","flags":1,"native":1,"bps":4800,"parity":"N","stopbits":1,"cycle":1.00}]}
2017-12-31 18:37:12 1514763432.670352: {"class":"WATCH","enable":true,"json":false,"nmea":true,"raw":0,"scaled":false,"timing":false,"split24":false,"pps":false}
2017-12-31 18:37:12 1514763432.723664: $GPGSV,3,1,12,22,12,207,24,23,64,292,39,09,31,312,44,03,22,225,36*70
2017-12-31 18:37:12 1514763432.723878: $GPGSV,3,2,12,16,83,042,42,08,11,177,28,14,04,138,18,31,20,084,42*7C
2017-12-31 18:37:12 1514763432.723944: $GPGSV,3,3,12,27,34,147,41,07,06,280,46,26,50,046,47,135,22,240,43*40
2017-12-31 18:37:12 1514763432.837071: $GPZDA,233713.00,31,12,2017,00,00*64
2017-12-31 18:37:12 1514763432.837276: $GPGGA,233713,3946.9578,N,08404.9830,W,2,12,0.80,309.03,M,-33.324,M,,*7F
2017-12-31 18:37:12 1514763432.837341: $GPRMC,233713,A,3946.9578,N,08404.9830,W,0.0000,0.000,311217,,*3E
2017-12-31 18:37:12 1514763432.837401: $GPGSA,A,3,22,23,9,3,16,8,14,31,27,7,26,135,1.7,0.8,1.3*0C
2017-12-31 18:37:13 1514763433.352939: $GPZDA,233714.00,31,12,2017,00,00*63
2017-12-31 18:37:13 1514763433.353128: $GPGGA,233714,3946.9578,N,08404.9830,W,2,12,0.80,309.03,M,-33.324,M,,*78
2017-12-31 18:37:13 1514763433.353196: $GPRMC,233714,A,3946.9578,N,08404.9830,W,0.0000,0.000,311217,,*39
2017-12-31 18:37:13 1514763433.353257: $GPGSA,A,3,22,23,9,3,16,8,14,31,27,7,26,135,1.7,0.8,1.3*0C
2017-12-31 18:37:14 1514763434.352562: $GPZDA,233715.00,31,12,2017,00,00*62
2017-12-31 18:37:14 1514763434.352726: $GPGGA,233715,3946.9578,N,08404.9830,W,2,12,0.80,309.03,M,-33.324,M,,*79
2017-12-31 18:37:14 1514763434.352793: $GPRMC,233715,A,3946.9578,N,08404.9830,W,0.0000,0.000,311217,,*38
2017-12-31 18:37:14 1514763434.352853: $GPGSA,A,3,22,23,9,3,16,8,14,31,27,7,26,135,1.7,0.8,1.3*0C
2017-12-31 18:37:15 1514763435.687784: $GPGSV,3,1,12,22,12,207,24,23,64,292,38,09,31,312,44,03,22,225,36*71
2017-12-31 18:37:15 1514763435.687962: $GPGSV,3,2,12,16,83,042,42,08,11,177,00,14,04,138,18,31,20,084,42*76
2017-12-31 18:37:15 1514763435.688028: $GPGSV,3,3,12,27,34,147,41,07,06,280,46,26,50,046,47,135,22,240,44*47
2017-12-31 18:37:15 1514763435.801124: $GPZDA,233716.00,31,12,2017,00,00*61
2017-12-31 18:37:15 1514763435.801262: $GPGGA,233716,3946.9578,N,08404.9830,W,2,11,0.80,309.03,M,-33.324,M,,*79
2017-12-31 18:37:15 1514763435.801327: $GPRMC,233716,A,3946.9578,N,08404.9830,W,0.0000,0.000,311217,,*3B
2017-12-31 18:37:15 1514763435.801388: $GPGSA,A,3,22,23,9,3,16,14,31,27,7,26,135,,1.7,0.8,1.3*34
2017-12-31 18:37:16 1514763436.353301: $GPZDA,233717.00,31,12,2017,00,00*60
2017-12-31 18:37:16 1514763436.353455: $GPGGA,233717,3946.9578,N,08404.9830,W,2,11,0.80,309.03,M,-33.324,M,,*78
2017-12-31 18:37:16 1514763436.353521: $GPRMC,233717,A,3946.9578,N,08404.9830,W,0.0000,0.000,311217,,*3A
2017-12-31 18:37:16 1514763436.353581: $GPGSA,A,3,22,23,9,3,16,14,31,27,7,26,135,,1.7,0.8,1.3*34
2017-12-31 18:37:17 1514763437.352920: $GPZDA,233718.00,31,12,2017,00,00*6F
2017-12-31 18:37:17 1514763437.353102: $GPGGA,233718,3946.9578,N,08404.9830,W,2,11,0.80,309.03,M,-33.324,M,,*77
2017-12-31 18:37:17 1514763437.353185: $GPRMC,233718,A,3946.9578,N,08404.9830,W,0.0000,0.000,311217,,*35
2017-12-31 18:37:17 1514763437.353246: $GPGSA,A,3,22,23,9,3,16,14,31,27,7,26,135,,1.7,0.8,1.3*34
2017-12-31 18:37:18 1514763438.714898: $GPGSV,3,1,12,22,12,207,24,23,64,292,37,09,31,312,44,03,22,225,36*7E
2017-12-31 18:37:18 1514763438.715078: $GPGSV,3,2,12,16,83,042,42,08,11,177,28,14,04,138,19,31,20,084,41*7E
2017-12-31 18:37:18 1514763438.715144: $GPGSV,3,3,12,27,34,147,41,07,06,280,47,26,50,046,47,135,22,240,44*46
2017-12-31 18:37:18 1514763438.828294: $GPZDA,233719.00,31,12,2017,00,00*6E
2017-12-31 18:37:18 1514763438.828429: $GPGGA,233719,3946.9578,N,08404.9830,W,2,12,0.80,309.03,M,-33.324,M,,*75
2017-12-31 18:37:18 1514763438.828494: $GPRMC,233719,A,3946.9578,N,08404.9830,W,0.0000,0.000,311217,,*34
2017-12-31 18:37:18 1514763438.828628: $GPGSA,A,3,22,23,9,3,16,8,14,31,27,7,26,135,1.7,0.8,1.3*0C
2017-12-31 18:37:19 1514763439.353116: $GPZDA,233720.00,31,12,2017,00,00*64
2017-12-31 18:37:19 1514763439.353283: $GPGGA,233720,3946.9578,N,08404.9830,W,2,12,0.80,309.03,M,-33.324,M,,*7F
2017-12-31 18:37:19 1514763439.353349: $GPRMC,233720,A,3946.9578,N,08404.9830,W,0.0000,0.000,311217,,*3E
2017-12-31 18:37:19 1514763439.353410: $GPGSA,A,3,22,23,9,3,16,8,14,31,27,7,26,135,1.7,0.8,1.3*0C
2017-12-31 18:37:20 1514763440.352116: $GPZDA,233721.00,31,12,2017,00,00*65
2017-12-31 18:37:20 1514763440.352293: $GPGGA,233721,3946.9578,N,08404.9830,W,2,12,0.80,309.03,M,-33.324,M,,*7E
2017-12-31 18:37:20 1514763440.352360: $GPRMC,233721,A,3946.9578,N,08404.9830,W,0.0000,0.000,311217,,*3F
2017-12-31 18:37:20 1514763440.352421: $GPGSA,A,3,22,23,9,3,16,8,14,31,27,7,26,135,1.7,0.8,1.3*0C
2017-12-31 18:37:21 1514763441.692767: $GPGSV,3,1,12,22,12,207,25,23,64,292,38,09,31,312,44,03,22,225,37*71
2017-12-31 18:37:21 1514763441.692961: $GPGSV,3,2,12,16,83,042,42,08,11,177,08,14,04,138,19,31,20,084,42*7F
2017-12-31 18:37:21 1514763441.693028: $GPGSV,3,3,12,27,34,147,41,07,06,280,47,26,50,046,47,135,22,240,43*41
2017-12-31 18:37:21 1514763441.806598: $GPZDA,233722.00,31,12,2017,00,00*66
2017-12-31 18:37:21 1514763441.806768: $GPGGA,233722,3946.9578,N,08404.9830,W,2,12,0.80,309.03,M,-33.324,M,,*7D
2017-12-31 18:37:21 1514763441.806833: $GPRMC,233722,A,3946.9578,N,08404.9830,W,0.0000,0.000,311217,,*3C
2017-12-31 18:37:21 1514763441.806894: $GPGSA,A,3,22,23,9,3,16,8,14,31,27,7,26,135,1.7,0.8,1.3*0C
2017-12-31 18:37:22 1514763442.352455: $GPZDA,233723.00,31,12,2017,00,00*67
2017-12-31 18:37:22 1514763442.352680: $GPGGA,233723,3946.9578,N,08404.9830,W,2,12,0.80,309.03,M,-33.324,M,,*7C
2017-12-31 18:37:22 1514763442.356857: $GPRMC,233723,A,3946.9578,N,08404.9830,W,0.0000,0.000,311217,,*3D
2017-12-31 18:37:22 1514763442.356997: $GPGSA,A,3,22,23,9,3,16,8,14,31,27,7,26,135,1.7,0.8,1.3*0C
