2017-12-31 17:53:21 1514760801.559965: {"class":"VERSION","release":"3.16","rev":"3.16-4","proto_major":3,"proto_minor":11}
2017-12-31 17:53:21 1514760801.560427: {"class":"DEVICES","devices":[{"class":"DEVICE","path":"/dev/ttyUSB0","driver":"SiRF","activated":"2017-12-31T22:53:21.258Z","flags":1,"native":1,"bps":4800,"parity":"N","stopbits":1,"cycle":1.00}]}
2017-12-31 17:53:21 1514760801.560528: {"class":"WATCH","enable":true,"json":false,"nmea":true,"raw":0,"scaled":false,"timing":false,"split24":false,"pps":false}
2017-12-31 17:53:21 1514760801.707870: $GPGSV,3,1,11,22,28,219,42,23,47,309,44,09,14,312,46,03,37,241,46*79
2017-12-31 17:53:21 1514760801.708029: $GPGSV,3,2,11,16,72,192,42,29,09,036,33,14,21,129,24,31,33,069,43*71
2017-12-31 17:53:21 1514760801.708093: $GPGSV,3,3,11,27,16,157,30,26,69,057,47,135,22,240,43*77
2017-12-31 17:53:21 1514760801.821578: $GPZDA,225322.00,31,12,2017,00,00*65
2017-12-31 17:53:21 1514760801.821716: $GPGGA,225322,3946.9567,N,08404.9864,W,2,11,0.60,305.31,M,-33.324,M,,*71
2017-12-31 17:53:21 1514760801.821782: $GPRMC,225322,A,3946.9567,N,08404.9864,W,0.0000,0.000,311217,,*30
2017-12-31 17:53:21 1514760801.821842: $GPGSA,A,3,22,23,9,3,16,29,14,31,27,26,135,,1.7,0.6,1.3*06
2017-12-31 17:53:22 1514760802.347570: $GPZDA,225323.00,31,12,2017,00,00*64
2017-12-31 17:53:22 1514760802.347749: $GPGGA,225323,3946.9567,N,08404.9864,W,2,11,0.60,305.31,M,-33.324,M,,*70
2017-12-31 17:53:22 1514760802.347817: $GPRMC,225323,A,3946.9567,N,08404.9864,W,0.0000,0.000,311217,,*31
2017-12-31 17:53:22 1514760802.347878: $GPGSA,A,3,22,23,9,3,16,29,14,31,27,26,135,,1.7,0.6,1.3*06
2017-12-31 17:53:23 1514760803.346843: $GPZDA,225324.00,31,12,2017,00,00*63
2017-12-31 17:53:23 1514760803.347009: $GPGGA,225324,3946.9567,N,08404.9864,W,2,11,0.60,305.31,M,-33.324,M,,*77
2017-12-31 17:53:23 1514760803.347077: $GPRMC,225324,A,3946.9567,N,08404.9864,W,0.0000,0.000,311217,,*36
2017-12-31 17:53:23 1514760803.347200: $GPGSA,A,3,22,23,9,3,16,29,14,31,27,26,135,,1.7,0.6,1.3*06
2017-12-31 17:53:24 1514760804.699982: $GPGSV,3,1,11,22,28,219,42,23,47,309,44,09,14,312,46,03,37,241,45*7A
2017-12-31 17:53:24 1514760804.700174: $GPGSV,3,2,11,16,72,192,42,29,09,036,33,14,21,129,09,31,33,069,42*7F
2017-12-31 17:53:24 1514760804.700240: $GPGSV,3,3,11,27,16,157,30,26,69,057,48,135,22,240,44*7F
2017-12-31 17:53:24 1514760804.813324: $GPZDA,225325.00,31,12,2017,00,00*62
2017-12-31 17:53:24 1514760804.813470: $GPGGA,225325,3946.9567,N,08404.9864,W,2,11,0.60,305.31,M,-33.324,M,,*76
2017-12-31 17:53:24 1514760804.813536: $GPRMC,225325,A,3946.9567,N,08404.9864,W,0.0000,0.000,311217,,*37
2017-12-31 17:53:24 1514760804.813596: $GPGSA,A,3,22,23,9,3,16,29,14,31,27,26,135,,1.7,0.6,1.3*06
2017-12-31 17:53:25 1514760805.439981: $GPZDA,225326.00,31,12,2017,00,00*61
2017-12-31 17:53:25 1514760805.440151: $GPGGA,225326,3946.9567,N,08404.9864,W,2,11,0.60,305.31,M,-33.324,M,,*75
2017-12-31 17:53:25 1514760805.440218: $GPRMC,225326,A,3946.9567,N,08404.9864,W,0.0000,0.000,311217,,*34
2017-12-31 17:53:25 1514760805.440278: $GPGSA,A,3,22,23,9,3,16,29,14,31,27,26,135,,1.7,0.6,1.3*06
2017-12-31 17:53:26 1514760806.345838: $GPZDA,225327.00,31,12,2017,00,00*60
2017-12-31 17:53:26 1514760806.638653: $GPGGA,225327,3946.9567,N,08404.9864,W,2,11,0.60,305.31,M,-33.324,M,,*74
2017-12-31 17:53:26 1514760806.638796: $GPRMC,225327,A,3946.9567,N,08404.9864,W,0.0000,0.000,311217,,*35
2017-12-31 17:53:26 1514760806.638859: $GPGSA,A,3,22,23,9,3,16,29,14,31,27,26,135,,1.7,0.6,1.3*06
2017-12-31 17:53:27 1514760807.706692: $GPGSV,3,1,11,22,28,219,42,23,47,309,44,09,14,312,47,03,37,241,46*78
2017-12-31 17:53:27 1514760807.706861: $GPGSV,3,2,11,16,72,192,42,29,09,036,32,14,21,129,24,31,33,069,42*71
2017-12-31 17:53:27 1514760807.706925: $GPGSV,3,3,11,27,16,157,30,26,69,057,47,135,22,240,43*77
2017-12-31 17:53:27 1514760807.820007: $GPZDA,225328.00,31,12,2017,00,00*6F
2017-12-31 17:53:27 1514760807.820152: $GPGGA,225328,3946.9567,N,08404.9864,W,2,11,0.60,305.31,M,-33.324,M,,*7B
2017-12-31 17:53:27 1514760807.820218: $GPRMC,225328,A,3946.9567,N,08404.9864,W,0.0000,0.000,311217,,*3A
2017-12-31 17:53:27 1514760807.820331: $GPGSA,A,3,22,23,9,3,16,29,14,31,27,26,135,,1.7,0.6,1.3*06
2017-12-31 17:53:28 1514760808.370886: $GPZDA,225329.00,31,12,2017,00,00*6E
2017-12-31 17:53:28 1514760808.371085: $GPGGA,225329,3946.9567,N,08404.9864,W,2,11,0.60,305.31,M,-33.324,M,,*7A
2017-12-31 17:53:28 1514760808.371170: $GPRMC,225329,A,3946.9567,N,08404.9864,W,0.0000,0.000,311217,,*3B
2017-12-31 17:53:28 1514760808.371233: $GPGSA,A,3,22,23,9,3,16,29,14,31,27,26,135,,1.7,0.6,1.3*06
2017-12-31 17:53:29 1514760809.346739: $GPZDA,225330.00,31,12,2017,00,00*66
2017-12-31 17:53:29 1514760809.346909: $GPGGA,225330,3946.9567,N,08404.9864,W,2,11,0.80,305.31,M,-33.324,M,,*7C
2017-12-31 17:53:29 1514760809.346976: $GPRMC,225330,A,3946.9567,N,08404.9864,W,0.0000,0.000,311217,,*33
2017-12-31 17:53:29 1514760809.347056: $GPGSA,A,3,22,23,9,3,16,29,14,31,27,26,135,,1.7,0.8,1.3*08
2017-12-31 17:53:30 1514760810.708341: $GPGSV,3,1,11,22,28,219,42,23,47,309,44,09,14,312,46,03,37,241,45*7A
2017-12-31 17:53:30 1514760810.708518: $GPGSV,3,2,11,16,72,192,43,29,09,036,32,14,21,129,12,31,33,069,43*74
2017-12-31 17:53:30 1514760810.708584: $GPGSV,3,3,11,27,16,157,30,26,69,057,47,135,22,240,43*77
2017-12-31 17:53:30 1514760810.821968: $GPZDA,225331.00,31,12,2017,00,00*67
2017-12-31 17:53:30 1514760810.822154: $GPGGA,225331,3946.9567,N,08404.9864,W,2,11,0.60,305.31,M,-33.324,M,,*73
2017-12-31 17:53:30 1514760810.822222: $GPRMC,225331,A,3946.9567,N,08404.9864,W,0.0000,0.000,311217,,*32
2017-12-31 17:53:30 1514760810.822282: $GPGSA,A,3,22,23,9,3,16,29,14,31,27,26,135,,1.7,0.6,1.3*06
2017-12-31 17:53:31 1514760811.520440: $GPZDA,225332.00,31,12,2017,00,00*64
2017-12-31 17:53:31 1514760811.520598: $GPGGA,225332,3946.9567,N,08404.9864,W,2,11,0.60,305.31,M,-33.324,M,,*70
2017-12-31 17:53:31 1514760811.520664: $GPRMC,225332,A,3946.9567,N,08404.9864,W,0.0000,0.000,311217,,*31
2017-12-31 17:53:31 1514760811.520724: $GPGSA,A,3,22,23,9,3,16,29,14,31,27,26,135,,1.7,0.6,1.3*06
2017-12-31 17:53:31 1514760811.520782: $GPGBS,225332,2.22,M,3.43,M,7.66,M*38
