2017-12-01 15:48:08 1512161288.946830: {"class":"VERSION","release":"3.16","rev":"3.16-4","proto_major":3,"proto_minor":11}
2017-12-01 15:48:08 1512161288.947225: {"class":"DEVICES","devices":[{"class":"DEVICE","path":"/dev/ttyUSB0","driver":"SiRF","subtype":"9\u0006GSD4e_4.1.2-P1_RPATCH.05-F-GPS-4R-1510281 11/03/2015 307","activated":"2017-12-01T20:48:08.536Z","flags":1,"native":1,"bps":4800,"parity":"N","stopbits":1,"cycle":1.00}]}
2017-12-01 15:48:08 1512161288.947383: {"class":"WATCH","enable":true,"json":false,"nmea":true,"raw":0,"scaled":false,"timing":false,"split24":false,"pps":false}
2017-12-01 15:48:09 1512161289.412662: $GPZDA,204810.00,01,12,2017,00,00*6F
2017-12-01 15:48:09 1512161289.412844: $GPGGA,204810,3946.9560,N,08404.9849,W,2,12,0.80,302.02,M,-33.324,M,,*7A
2017-12-01 15:48:09 1512161289.412914: $GPRMC,204810,A,3946.9560,N,08404.9849,W,0.0000,0.000,011217,,*32
2017-12-01 15:48:09 1512161289.412997: $GPGSA,A,3,1,10,12,14,18,22,24,25,31,32,11,138,2.0,0.8,1.5*3B
2017-12-01 15:48:10 1512161290.748022: $GPGSV,3,1,12,01,14,318,37,10,68,133,47,12,25,070,38,14,55,294,42*7B
2017-12-01 15:48:10 1512161290.748202: $GPGSV,3,2,12,18,36,136,47,22,03,310,35,24,13,045,38,25,30,114,40*7D
2017-12-01 15:48:10 1512161290.748288: $GPGSV,3,3,12,31,36,213,49,32,68,333,48,11,11,300,38,138,38,213,46*4B
2017-12-01 15:48:10 1512161290.860124: $GPZDA,204811.00,01,12,2017,00,00*6E
2017-12-01 15:48:10 1512161290.860323: $GPGGA,204811,3946.9560,N,08404.9849,W,2,12,0.80,302.02,M,-33.324,M,,*7B
2017-12-01 15:48:10 1512161290.860392: $GPRMC,204811,A,3946.9560,N,08404.9849,W,0.0000,0.000,011217,,*33
2017-12-01 15:48:10 1512161290.860470: $GPGSA,A,3,1,10,12,14,18,22,24,25,31,32,11,138,2.0,0.8,1.5*3B
2017-12-01 15:48:11 1512161291.486765: $GPZDA,204812.00,01,12,2017,00,00*6D
2017-12-01 15:48:11 1512161291.486961: $GPGGA,204812,3946.9560,N,08404.9849,W,2,12,0.80,302.02,M,-33.324,M,,*78
2017-12-01 15:48:11 1512161291.487029: $GPRMC,204812,A,3946.9560,N,08404.9849,W,0.0000,0.000,011217,,*30
2017-12-01 15:48:11 1512161291.487090: $GPGSA,A,3,1,10,12,14,18,22,24,25,31,32,11,138,2.0,0.8,1.5*3B
2017-12-01 15:48:12 1512161292.412651: $GPZDA,204813.00,01,12,2017,00,00*6C
2017-12-01 15:48:12 1512161292.412824: $GPGGA,204813,3946.9560,N,08404.9849,W,2,12,0.80,302.02,M,-33.324,M,,*79
2017-12-01 15:48:12 1512161292.412892: $GPRMC,204813,A,3946.9560,N,08404.9849,W,0.0000,0.000,011217,,*31
2017-12-01 15:48:12 1512161292.412953: $GPGSA,A,3,1,10,12,14,18,22,24,25,31,32,11,138,2.0,0.8,1.5*3B
2017-12-01 15:48:13 1512161293.744619: $GPGSV,3,1,12,01,14,318,36,10,68,133,47,12,25,070,38,14,55,294,42*7A
2017-12-01 15:48:13 1512161293.744801: $GPGSV,3,2,12,18,36,136,47,22,03,310,34,24,13,045,38,25,30,114,40*7C
2017-12-01 15:48:13 1512161293.744867: $GPGSV,3,3,12,31,36,213,49,32,68,333,48,11,11,300,38,138,38,213,45*48
2017-12-01 15:48:13 1512161293.857946: $GPZDA,204814.00,01,12,2017,00,00*6B
2017-12-01 15:48:13 1512161293.858087: $GPGGA,204814,3946.9560,N,08404.9849,W,2,12,0.80,302.02,M,-33.324,M,,*7E
2017-12-01 15:48:13 1512161293.858153: $GPRMC,204814,A,3946.9560,N,08404.9849,W,0.0000,0.000,011217,,*36
2017-12-01 15:48:13 1512161293.858214: $GPGSA,A,3,1,10,12,14,18,22,24,25,31,32,11,138,2.0,0.8,1.5*3B
2017-12-01 15:48:14 1512161294.390339: $GPZDA,204815.00,01,12,2017,00,00*6A
2017-12-01 15:48:14 1512161294.390537: $GPGGA,204815,3946.9560,N,08404.9849,W,2,12,0.80,302.02,M,-33.324,M,,*7F
2017-12-01 15:48:14 1512161294.390604: $GPRMC,204815,A,3946.9560,N,08404.9849,W,0.0000,0.000,011217,,*37
2017-12-01 15:48:14 1512161294.390665: $GPGSA,A,3,1,10,12,14,18,22,24,25,31,32,11,138,2.0,0.8,1.5*3B
2017-12-01 15:48:15 1512161295.396166: $GPZDA,204816.00,01,12,2017,00,00*69
2017-12-01 15:48:15 1512161295.396356: $GPGGA,204816,3946.9560,N,08404.9849,W,2,12,0.80,302.02,M,-33.324,M,,*7C
2017-12-01 15:48:15 1512161295.396440: $GPRMC,204816,A,3946.9560,N,08404.9849,W,0.0000,0.000,011217,,*34
2017-12-01 15:48:15 1512161295.396503: $GPGSA,A,3,1,10,12,14,18,22,24,25,31,32,11,138,2.0,0.8,1.5*3B
2017-12-01 15:48:16 1512161296.731292: $GPGSV,3,1,12,01,14,318,36,10,68,133,47,12,25,070,39,14,55,294,42*7B
2017-12-01 15:48:16 1512161296.731580: $GPGSV,3,2,12,18,36,136,47,22,03,310,34,24,13,045,38,25,30,114,39*72
2017-12-01 15:48:16 1512161296.731653: $GPGSV,3,3,12,31,36,213,49,32,68,333,48,11,11,300,39,138,38,213,46*4A
2017-12-01 15:48:16 1512161296.844736: $GPZDA,204817.00,01,12,2017,00,00*68
2017-12-01 15:48:16 1512161296.844909: $GPGGA,204817,3946.9560,N,08404.9849,W,2,12,0.80,302.02,M,-33.324,M,,*7D
2017-12-01 15:48:16 1512161296.844977: $GPRMC,204817,A,3946.9560,N,08404.9849,W,0.0000,0.000,011217,,*35
2017-12-01 15:48:16 1512161296.845038: $GPGSA,A,3,1,10,12,14,18,22,24,25,31,32,11,138,2.0,0.8,1.5*3B
2017-12-01 15:48:17 1512161297.395738: $GPZDA,204818.00,01,12,2017,00,00*67
2017-12-01 15:48:17 1512161297.395909: $GPGGA,204818,3946.9560,N,08404.9849,W,2,12,0.80,302.02,M,-33.324,M,,*72
2017-12-01 15:48:17 1512161297.395976: $GPRMC,204818,A,3946.9560,N,08404.9849,W,0.0000,0.000,011217,,*3A
2017-12-01 15:48:17 1512161297.396038: $GPGSA,A,3,1,10,12,14,18,22,24,25,31,32,11,138,2.0,0.8,1.5*3B
2017-12-01 15:48:18 1512161298.395307: $GPZDA,204819.00,01,12,2017,00,00*66
2017-12-01 15:48:18 1512161298.395690: $GPGGA,204819,3946.9560,N,08404.9849,W,2,12,0.80,302.02,M,-33.324,M,,*73
2017-12-01 15:48:18 1512161298.395844: $GPRMC,204819,A,3946.9560,N,08404.9849,W,0.0000,0.000,011217,,*3B
2017-12-01 15:48:18 1512161298.395964: $GPGSA,A,3,1,10,12,14,18,22,24,25,31,32,11,138,2.0,0.8,1.5*3B
2017-12-01 15:48:19 1512161299.732109: $GPGSV,3,1,12,01,14,318,36,10,68,133,47,12,25,070,40,14,55,294,42*75
2017-12-01 15:48:19 1512161299.732304: $GPGSV,3,2,12,18,36,136,48,22,03,310,34,24,13,045,38,25,30,114,40*73
2017-12-01 15:48:19 1512161299.732386: $GPGSV,3,3,12,31,36,213,49,32,68,333,48,11,11,300,38,138,38,213,45*48
2017-12-01 15:48:19 1512161299.845721: $GPZDA,204820.00,01,12,2017,00,00*6C
2017-12-01 15:48:19 1512161299.845883: $GPGGA,204820,3946.9560,N,08404.9849,W,2,12,0.80,302.02,M,-33.324,M,,*79
2017-12-01 15:48:19 1512161299.845948: $GPRMC,204820,A,3946.9560,N,08404.9849,W,0.0000,0.000,011217,,*31
2017-12-01 15:48:19 1512161299.846009: $GPGSA,A,3,1,10,12,14,18,22,24,25,31,32,11,138,2.0,0.8,1.5*3B
2017-12-01 15:48:20 1512161300.390528: $GPZDA,204821.00,01,12,2017,00,00*6D
2017-12-01 15:48:20 1512161300.390701: $GPGGA,204821,3946.9560,N,08404.9849,W,2,12,0.80,302.02,M,-33.324,M,,*78
2017-12-01 15:48:20 1512161300.390768: $GPRMC,204821,A,3946.9560,N,08404.9849,W,0.0000,0.000,011217,,*30
2017-12-01 15:48:20 1512161300.390830: $GPGSA,A,3,1,10,12,14,18,22,24,25,31,32,11,138,2.0,0.8,1.5*3B
2017-12-01 15:48:21 1512161301.395721: $GPZDA,204822.00,01,12,2017,00,00*6E
2017-12-01 15:48:21 1512161301.395917: $GPGGA,204822,3946.9564,N,08404.9849,W,2,12,0.80,302.66,M,-33.324,M,,*7D
2017-12-01 15:48:21 1512161301.395985: $GPRMC,204822,A,3946.9564,N,08404.9849,W,0.0000,0.000,011217,,*37
2017-12-01 15:48:21 1512161301.396047: $GPGSA,A,3,1,10,12,14,18,22,24,25,31,32,11,138,2.0,0.8,1.5*3B
2017-12-01 15:48:22 1512161302.731300: $GPGSV,3,1,12,01,14,318,36,10,68,133,47,12,25,070,40,14,55,294,42*75
2017-12-01 15:48:22 1512161302.731532: $GPGSV,3,2,12,18,36,136,48,22,03,310,33,24,13,045,39,25,30,114,40*75
2017-12-01 15:48:22 1512161302.731600: $GPGSV,3,3,12,31,36,213,49,32,68,333,48,11,11,300,38,138,38,213,46*4B
2017-12-01 15:48:22 1512161302.846314: $GPZDA,204823.00,01,12,2017,00,00*6F
2017-12-01 15:48:22 1512161302.846624: $GPGGA,204823,3946.9564,N,08404.9849,W,2,12,0.80,302.66,M,-33.324,M,,*7C
2017-12-01 15:48:22 1512161302.846749: $GPRMC,204823,A,3946.9564,N,08404.9849,W,0.0000,0.000,011217,,*36
2017-12-01 15:48:22 1512161302.846876: $GPGSA,A,3,1,10,12,14,18,22,24,25,31,32,11,138,2.0,0.8,1.5*3B
2017-12-01 15:48:23 1512161303.395661: $GPZDA,204824.00,01,12,2017,00,00*68
2017-12-01 15:48:23 1512161303.399787: $GPGGA,204824,3946.9564,N,08404.9849,W,2,12,0.80,302.66,M,-33.324,M,,*7B
2017-12-01 15:48:23 1512161303.399893: $GPRMC,204824,A,3946.9564,N,08404.9849,W,0.0000,0.000,011217,,*31
2017-12-01 15:48:23 1512161303.399958: $GPGSA,A,3,1,10,12,14,18,22,24,25,31,32,11,138,2.0,0.8,1.5*3B
2017-12-01 15:48:24 1512161304.396461: $GPZDA,204825.00,01,12,2017,00,00*69
2017-12-01 15:48:24 1512161304.396646: $GPGGA,204825,3946.9564,N,08404.9849,W,2,12,0.80,302.66,M,-33.324,M,,*7A
2017-12-01 15:48:24 1512161304.396715: $GPRMC,204825,A,3946.9564,N,08404.9849,W,0.0000,0.000,011217,,*30
2017-12-01 15:48:24 1512161304.396775: $GPGSA,A,3,1,10,12,14,18,22,24,25,31,32,11,138,2.0,0.8,1.5*3B
2017-12-01 15:48:25 1512161305.733446: $GPGSV,3,1,12,01,14,318,36,10,68,133,47,12,25,070,40,14,55,294,42*75
2017-12-01 15:48:25 1512161305.733653: $GPGSV,3,2,12,18,36,136,48,22,03,310,33,24,13,045,39,25,30,114,40*75
2017-12-01 15:48:25 1512161305.733719: $GPGSV,3,3,12,31,36,213,50,32,68,333,48,11,11,300,38,138,38,213,46*43
2017-12-01 15:48:25 1512161305.846680: $GPZDA,204826.00,01,12,2017,00,00*6A
2017-12-01 15:48:25 1512161305.846854: $GPGGA,204826,3946.9564,N,08404.9849,W,2,12,0.80,302.66,M,-33.324,M,,*79
2017-12-01 15:48:25 1512161305.846920: $GPRMC,204826,A,3946.9564,N,08404.9849,W,0.0000,0.000,011217,,*33
2017-12-01 15:48:25 1512161305.846981: $GPGSA,A,3,1,10,12,14,18,22,24,25,31,32,11,138,2.0,0.8,1.5*3B
2017-12-01 15:48:26 1512161306.472204: $GPZDA,204827.00,01,12,2017,00,00*6B
2017-12-01 15:48:26 1512161306.472382: $GPGGA,204827,3946.9564,N,08404.9849,W,2,12,0.80,302.66,M,-33.324,M,,*78
2017-12-01 15:48:26 1512161306.472450: $GPRMC,204827,A,3946.9564,N,08404.9849,W,0.0000,0.000,011217,,*32
2017-12-01 15:48:26 1512161306.472511: $GPGSA,A,3,1,10,12,14,18,22,24,25,31,32,11,138,2.0,0.8,1.5*3B
2017-12-01 15:48:27 1512161307.395604: $GPZDA,204828.00,01,12,2017,00,00*64
2017-12-01 15:48:27 1512161307.395792: $GPGGA,204828,3946.9564,N,08404.9849,W,2,12,0.80,302.66,M,-33.324,M,,*77
2017-12-01 15:48:27 1512161307.395860: $GPRMC,204828,A,3946.9564,N,08404.9849,W,0.0000,0.000,011217,,*3D
2017-12-01 15:48:27 1512161307.395921: $GPGSA,A,3,1,10,12,14,18,22,24,25,31,32,11,138,2.0,0.8,1.5*3B
2017-12-01 15:48:28 1512161308.731266: $GPGSV,3,1,12,01,14,318,35,10,68,133,48,12,25,070,40,14,55,294,43*78
2017-12-01 15:48:28 1512161308.732930: $GPGSV,3,2,12,18,36,136,48,22,03,310,33,24,13,045,39,25,30,114,41*74
2017-12-01 15:48:28 1512161308.733044: $GPGSV,3,3,12,31,36,213,49,32,68,333,48,11,11,300,37,138,38,213,45*47
2017-12-01 15:48:28 1512161308.844801: $GPZDA,204829.00,01,12,2017,00,00*65
2017-12-01 15:48:28 1512161308.844959: $GPGGA,204829,3946.9564,N,08404.9849,W,2,12,0.80,302.66,M,-33.324,M,,*76
2017-12-01 15:48:28 1512161308.845025: $GPRMC,204829,A,3946.9564,N,08404.9849,W,0.0000,0.000,011217,,*3C
2017-12-01 15:48:28 1512161308.845085: $GPGSA,A,3,1,10,12,14,18,22,24,25,31,32,11,138,2.0,0.8,1.5*3B
