2017-11-16 13:21:44 1510856504.406308: {"class":"VERSION","release":"3.17","rev":"3.17","proto_major":3,"proto_minor":12}
2017-11-16 13:21:44 1510856504.406763: {"class":"DEVICES","devices":[{"class":"DEVICE","path":"/dev/ttyUSB0","driver":"SiRF","subtype":"9\u0006GSD4e_4.1.2-P1_RPATCH.05-F-GPS-4R-1510281 11/03/2015 307","activated":"2017-11-16T18:21:44.400Z","flags":1,"native":1,"bps":4800,"parity":"N","stopbits":1,"cycle":1.00}]}
2017-11-16 13:21:44 1510856504.406878: {"class":"WATCH","enable":true,"json":false,"nmea":true,"raw":0,"scaled":false,"timing":false,"split24":false,"pps":false}
2017-11-16 13:21:45 1510856505.639978: $GPGSV,3,1,12,10,23,283,44,13,29,045,47,15,61,051,51,18,54,300,47*71
2017-11-16 13:21:45 1510856505.640146: $GPGSV,3,2,12,20,51,072,47,21,78,270,47,24,33,138,39,27,16,313,40*70
2017-11-16 13:21:45 1510856505.640207: $GPGSV,3,3,12,05,04,087,20,29,09,189,34,32,01,225,22,138,38,213,45*46
2017-11-16 13:21:45 1510856505.753536: $GPZDA,182144.00,16,11,2017,00,00*6F
2017-11-16 13:21:45 1510856505.753695: $GPGGA,182144,3946.9602,N,08404.9852,W,2,12,0.80,300.56,M,-33.324,M,,*71
2017-11-16 13:21:45 1510856505.753756: $GPRMC,182144,A,3946.9602,N,08404.9852,W,0.0000,0.000,161117,,*3F
2017-11-16 13:21:45 1510856505.753811: $GPGSA,A,3,10,13,15,18,20,21,24,27,5,29,32,138,1.6,0.8,1.3*36
2017-11-16 13:21:46 1510856506.285668: $GPZDA,182145.00,16,11,2017,00,00*6E
2017-11-16 13:21:46 1510856506.285832: $GPGGA,182145,3946.9602,N,08404.9852,W,2,12,0.80,300.56,M,-33.324,M,,*70
2017-11-16 13:21:46 1510856506.285893: $GPRMC,182145,A,3946.9602,N,08404.9852,W,0.0000,0.000,161117,,*3E
2017-11-16 13:21:46 1510856506.285949: $GPGSA,A,3,10,13,15,18,20,21,24,27,5,29,32,138,1.6,0.8,1.3*36
2017-11-16 13:21:47 1510856507.305201: $GPZDA,182146.00,16,11,2017,00,00*6D
2017-11-16 13:21:47 1510856507.305363: $GPGGA,182146,3946.9602,N,08404.9852,W,2,12,0.80,300.56,M,-33.324,M,,*73
2017-11-16 13:21:47 1510856507.305423: $GPRMC,182146,A,3946.9602,N,08404.9852,W,0.0000,0.000,161117,,*3D
2017-11-16 13:21:47 1510856507.305479: $GPGSA,A,3,10,13,15,18,20,21,24,27,5,29,32,138,1.6,0.8,1.3*36
2017-11-16 13:21:48 1510856508.614444: $GPGSV,3,1,12,10,23,283,44,13,29,045,47,15,61,051,51,18,54,300,47*71
2017-11-16 13:21:48 1510856508.614633: $GPGSV,3,2,12,20,51,072,47,21,78,270,47,24,33,138,39,27,16,313,39*7E
2017-11-16 13:21:48 1510856508.614693: $GPGSV,3,3,12,05,04,087,21,29,09,189,34,32,01,225,23,138,38,213,45*46
2017-11-16 13:21:48 1510856508.727720: $GPZDA,182147.00,16,11,2017,00,00*6C
2017-11-16 13:21:48 1510856508.727883: $GPGGA,182147,3946.9602,N,08404.9852,W,2,11,0.80,300.56,M,-33.324,M,,*71
2017-11-16 13:21:48 1510856508.727944: $GPRMC,182147,A,3946.9602,N,08404.9852,W,0.0000,0.000,161117,,*3C
2017-11-16 13:21:48 1510856508.728000: $GPGSA,A,3,10,13,15,18,20,21,24,27,29,32,138,,1.6,0.8,1.3*03
2017-11-16 13:21:49 1510856509.301117: $GPZDA,182148.00,16,11,2017,00,00*63
2017-11-16 13:21:49 1510856509.301302: $GPGGA,182148,3946.9602,N,08404.9852,W,2,11,0.80,300.56,M,-33.324,M,,*7E
2017-11-16 13:21:49 1510856509.301365: $GPRMC,182148,A,3946.9602,N,08404.9852,W,0.0000,0.000,161117,,*33
2017-11-16 13:21:49 1510856509.301422: $GPGSA,A,3,10,13,15,18,20,21,24,27,29,32,138,,1.6,0.8,1.3*03
2017-11-16 13:21:50 1510856510.285338: $GPZDA,182149.00,16,11,2017,00,00*62
2017-11-16 13:21:50 1510856510.285510: $GPGGA,182149,3946.9606,N,08404.9852,W,2,11,0.80,301.20,M,-33.324,M,,*7B
2017-11-16 13:21:50 1510856510.285571: $GPRMC,182149,A,3946.9606,N,08404.9852,W,0.0000,0.000,161117,,*36
2017-11-16 13:21:50 1510856510.285626: $GPGSA,A,3,10,13,15,18,20,21,24,27,29,32,138,,1.6,0.8,1.3*03
2017-11-16 13:21:51 1510856511.619752: $GPGSV,3,1,12,10,23,283,44,13,29,045,47,15,61,051,51,18,54,300,47*71
2017-11-16 13:21:51 1510856511.619931: $GPGSV,3,2,12,20,51,072,47,21,78,270,47,24,33,138,38,27,16,313,38*7E
2017-11-16 13:21:51 1510856511.619991: $GPGSV,3,3,12,05,04,087,20,29,09,189,34,32,01,225,23,138,38,213,44*46
2017-11-16 13:21:51 1510856511.733296: $GPZDA,182150.00,16,11,2017,00,00*6A
2017-11-16 13:21:51 1510856511.733454: $GPGGA,182150,3946.9606,N,08404.9852,W,2,12,0.80,301.20,M,-33.324,M,,*70
2017-11-16 13:21:51 1510856511.733565: $GPRMC,182150,A,3946.9606,N,08404.9852,W,0.0000,0.000,161117,,*3E
2017-11-16 13:21:51 1510856511.733622: $GPGSA,A,3,10,13,15,18,20,21,24,27,5,29,32,138,1.6,0.8,1.3*36
2017-11-16 13:21:52 1510856512.284294: $GPZDA,182151.00,16,11,2017,00,00*6B
2017-11-16 13:21:52 1510856512.284454: $GPGGA,182151,3946.9606,N,08404.9852,W,2,12,0.80,301.20,M,-33.324,M,,*71
2017-11-16 13:21:52 1510856512.284515: $GPRMC,182151,A,3946.9606,N,08404.9852,W,0.0000,0.000,161117,,*3F
2017-11-16 13:21:52 1510856512.284570: $GPGSA,A,3,10,13,15,18,20,21,24,27,5,29,32,138,1.6,0.8,1.3*36
2017-11-16 13:21:53 1510856513.305033: $GPZDA,182152.00,16,11,2017,00,00*68
2017-11-16 13:21:53 1510856513.305193: $GPGGA,182152,3946.9606,N,08404.9852,W,2,12,0.80,301.20,M,-33.324,M,,*72
2017-11-16 13:21:53 1510856513.305254: $GPRMC,182152,A,3946.9606,N,08404.9852,W,0.0000,0.000,161117,,*3C
2017-11-16 13:21:53 1510856513.305310: $GPGSA,A,3,10,13,15,18,20,21,24,27,5,29,32,138,1.6,0.8,1.3*36
2017-11-16 13:21:54 1510856514.644152: $GPGSV,3,1,12,10,23,283,44,13,29,045,46,15,61,051,51,18,54,300,46*71
2017-11-16 13:21:54 1510856514.644320: $GPGSV,3,2,12,20,51,072,47,21,78,270,46,24,33,138,38,27,16,313,38*7F
2017-11-16 13:21:54 1510856514.644380: $GPGSV,3,3,12,05,04,087,04,29,09,189,34,32,01,225,23,138,38,213,44*40
2017-11-16 13:21:54 1510856514.757511: $GPZDA,182153.00,16,11,2017,00,00*69
2017-11-16 13:21:54 1510856514.757669: $GPGGA,182153,3946.9606,N,08404.9852,W,2,11,0.80,301.20,M,-33.324,M,,*70
2017-11-16 13:21:54 1510856514.757729: $GPRMC,182153,A,3946.9606,N,08404.9852,W,0.0000,0.000,161117,,*3D
2017-11-16 13:21:54 1510856514.757784: $GPGSA,A,3,10,13,15,18,20,21,24,27,29,32,138,,1.6,0.8,1.3*03
2017-11-16 13:21:55 1510856515.382802: $GPZDA,182154.00,16,11,2017,00,00*6E
2017-11-16 13:21:55 1510856515.382962: $GPGGA,182154,3946.9606,N,08404.9852,W,2,11,0.80,301.20,M,-33.324,M,,*77
2017-11-16 13:21:55 1510856515.383023: $GPRMC,182154,A,3946.9606,N,08404.9852,W,0.0000,0.000,161117,,*3A
2017-11-16 13:21:55 1510856515.383079: $GPGSA,A,3,10,13,15,18,20,21,24,27,29,32,138,,1.6,0.8,1.3*03
2017-11-16 13:21:56 1510856516.298616: $GPZDA,182155.00,16,11,2017,00,00*6F
2017-11-16 13:21:56 1510856516.298777: $GPGGA,182155,3946.9606,N,08404.9852,W,2,11,0.80,301.20,M,-33.324,M,,*76
2017-11-16 13:21:56 1510856516.298838: $GPRMC,182155,A,3946.9606,N,08404.9852,W,0.0000,0.000,161117,,*3B
2017-11-16 13:21:56 1510856516.298894: $GPGSA,A,3,10,13,15,18,20,21,24,27,29,32,138,,1.6,0.8,1.3*03
2017-11-16 13:21:57 1510856517.640689: $GPGSV,3,1,12,10,23,283,43,13,29,045,47,15,61,051,51,18,54,300,47*76
2017-11-16 13:21:57 1510856517.640849: $GPGSV,3,2,12,20,51,072,47,21,78,270,47,24,33,138,38,27,16,313,38*7E
2017-11-16 13:21:57 1510856517.640910: $GPGSV,3,3,12,05,04,087,00,29,09,189,34,32,01,225,24,138,38,213,45*42
2017-11-16 13:21:57 1510856517.752728: $GPZDA,182156.00,16,11,2017,00,00*6C
2017-11-16 13:21:57 1510856517.752886: $GPGGA,182156,3946.9606,N,08404.9852,W,2,11,0.80,301.20,M,-33.324,M,,*75
2017-11-16 13:21:57 1510856517.752946: $GPRMC,182156,A,3946.9606,N,08404.9852,W,0.0000,0.000,161117,,*38
2017-11-16 13:21:57 1510856517.753002: $GPGSA,A,3,10,13,15,18,20,21,24,27,29,32,138,,1.6,0.8,1.3*03
2017-11-16 13:21:58 1510856518.304889: $GPZDA,182157.00,16,11,2017,00,00*6D
2017-11-16 13:21:58 1510856518.305051: $GPGGA,182157,3946.9606,N,08404.9852,W,2,11,0.80,301.20,M,-33.324,M,,*74
2017-11-16 13:21:58 1510856518.305112: $GPRMC,182157,A,3946.9606,N,08404.9852,W,0.0000,0.000,161117,,*39
2017-11-16 13:21:58 1510856518.305168: $GPGSA,A,3,10,13,15,18,20,21,24,27,29,32,138,,1.6,0.8,1.3*03
2017-11-16 13:21:59 1510856519.289369: $GPZDA,182158.00,16,11,2017,00,00*62
2017-11-16 13:21:59 1510856519.289545: $GPGGA,182158,3946.9606,N,08404.9852,W,2,11,0.80,301.20,M,-33.324,M,,*7B
2017-11-16 13:21:59 1510856519.289605: $GPRMC,182158,A,3946.9606,N,08404.9852,W,0.0000,0.000,161117,,*36
2017-11-16 13:21:59 1510856519.289662: $GPGSA,A,3,10,13,15,18,20,21,24,27,29,32,138,,1.6,0.8,1.3*03
