2017-12-29 11:12:13 1514563933.937414: {"class":"VERSION","release":"3.16","rev":"3.16-4","proto_major":3,"proto_minor":11}
2017-12-29 11:12:13 1514563933.937748: {"class":"DEVICES","devices":[{"class":"DEVICE","path":"/dev/ttyUSB0","driver":"SiRF","subtype":"9\u0006GSD4e_4.1.2-P1_RPATCH.05-F-GPS-4R-1510281 11/03/2015 307","activated":"2017-12-29T16:12:13.548Z","flags":1,"native":1,"bps":4800,"parity":"N","stopbits":1,"cycle":1.00}]}
2017-12-29 11:12:13 1514563933.937859: {"class":"WATCH","enable":true,"json":false,"nmea":true,"raw":0,"scaled":false,"timing":false,"split24":false,"pps":false}
2017-12-29 11:12:14 1514563934.758333: $GPGSV,3,1,12,08,05,325,30,10,40,300,45,15,39,052,48,18,70,333,42*7B
2017-12-29 11:12:14 1514563934.758495: $GPGSV,3,2,12,20,36,093,48,21,66,192,44,24,49,114,46,27,19,292,36*7F
2017-12-29 11:12:14 1514563934.758559: $GPGSV,3,3,12,32,20,237,34,13,10,048,23,14,01,231,00,138,38,213,45*42
2017-12-29 11:12:14 1514563934.871716: $GPZDA,161215.00,29,12,2017,00,00*6A
2017-12-29 11:12:14 1514563934.871858: $GPGGA,161215,3946.9594,N,08404.9878,W,2,11,1.20,296.15,M,-33.324,M,,*7E
2017-12-29 11:12:14 1514563934.871925: $GPRMC,161215,A,3946.9594,N,08404.9878,W,0.0000,0.000,291217,,*3E
2017-12-29 11:12:14 1514563934.871987: $GPGSA,A,3,8,10,15,18,20,21,24,27,32,13,138,,1.7,1.2,1.3*3A
2017-12-29 11:12:15 1514563935.497366: $GPZDA,161216.00,29,12,2017,00,00*69
2017-12-29 11:12:15 1514563935.497535: $GPGGA,161216,3946.9590,N,08404.9879,W,2,11,1.20,296.92,M,-33.324,M,,*77
2017-12-29 11:12:15 1514563935.497602: $GPRMC,161216,A,3946.9590,N,08404.9879,W,0.0000,0.000,291217,,*38
2017-12-29 11:12:15 1514563935.497662: $GPGSA,A,3,8,10,15,18,20,21,24,27,32,13,138,,1.7,1.2,1.3*3A
2017-12-29 11:12:16 1514563936.424497: $GPZDA,161217.00,29,12,2017,00,00*68
2017-12-29 11:12:16 1514563936.424663: $GPGGA,161217,3946.9590,N,08404.9879,W,2,11,1.40,296.92,M,-33.324,M,,*70
2017-12-29 11:12:16 1514563936.424731: $GPRMC,161217,A,3946.9590,N,08404.9879,W,0.0000,0.000,291217,,*39
2017-12-29 11:12:16 1514563936.424792: $GPGSA,A,3,8,10,15,18,20,21,24,27,32,13,138,,1.7,1.4,1.3*3C
2017-12-29 11:12:17 1514563937.758700: $GPGSV,3,1,12,08,05,325,31,10,40,300,44,15,39,052,48,18,70,333,42*7B
2017-12-29 11:12:17 1514563937.758862: $GPGSV,3,2,12,20,36,093,48,21,66,192,45,24,49,114,46,27,19,292,36*7E
2017-12-29 11:12:17 1514563937.758926: $GPGSV,3,3,12,32,20,237,35,13,10,048,23,14,01,231,00,138,38,213,45*43
2017-12-29 11:12:17 1514563937.872325: $GPZDA,161218.00,29,12,2017,00,00*67
2017-12-29 11:12:17 1514563937.872456: $GPGGA,161218,3946.9590,N,08404.9879,W,2,11,1.40,296.92,M,-33.324,M,,*7F
2017-12-29 11:12:17 1514563937.872521: $GPRMC,161218,A,3946.9590,N,08404.9879,W,0.0000,0.000,291217,,*36
2017-12-29 11:12:17 1514563937.872580: $GPGSA,A,3,8,10,15,18,20,21,24,27,32,13,138,,1.7,1.4,1.3*3C
2017-12-29 11:12:18 1514563938.406938: $GPZDA,161219.00,29,12,2017,00,00*66
2017-12-29 11:12:19 1514563939.076364: $GPGGA,161219,3946.9590,N,08404.9879,W,2,11,1.40,296.92,M,-33.324,M,,*7E
2017-12-29 11:12:19 1514563939.076506: $GPRMC,161219,A,3946.9590,N,08404.9879,W,0.0000,0.000,291217,,*37
2017-12-29 11:12:19 1514563939.076570: $GPGSA,A,3,8,10,15,18,20,21,24,27,32,13,138,,1.7,1.4,1.3*3C
2017-12-29 11:12:19 1514563939.421593: $GPZDA,161220.00,29,12,2017,00,00*6C
2017-12-29 11:12:19 1514563939.421751: $GPGGA,161220,3946.9590,N,08404.9879,W,2,11,1.40,296.92,M,-33.324,M,,*74
2017-12-29 11:12:19 1514563939.421817: $GPRMC,161220,A,3946.9590,N,08404.9879,W,0.0000,0.000,291217,,*3D
2017-12-29 11:12:19 1514563939.421878: $GPGSA,A,3,8,10,15,18,20,21,24,27,32,13,138,,1.7,1.4,1.3*3C
2017-12-29 11:12:20 1514563940.740275: $GPGSV,3,1,12,08,05,325,31,10,40,300,44,15,39,052,48,18,70,333,42*7B
2017-12-29 11:12:20 1514563940.740448: $GPGSV,3,2,12,20,36,093,48,21,66,192,44,24,49,114,46,27,19,292,37*7E
2017-12-29 11:12:20 1514563940.740514: $GPGSV,3,3,12,32,20,237,35,13,10,048,23,14,01,231,00,138,38,213,47*41
2017-12-29 11:12:20 1514563940.853884: $GPZDA,161221.00,29,12,2017,00,00*6D
2017-12-29 11:12:20 1514563940.854010: $GPGGA,161221,3946.9590,N,08404.9879,W,2,11,1.40,296.92,M,-33.324,M,,*75
2017-12-29 11:12:20 1514563940.854129: $GPRMC,161221,A,3946.9590,N,08404.9879,W,0.0000,0.000,291217,,*3C
2017-12-29 11:12:20 1514563940.854190: $GPGSA,A,3,8,10,15,18,20,21,24,27,32,13,138,,1.7,1.4,1.3*3C
2017-12-29 11:12:21 1514563941.422161: $GPZDA,161222.00,29,12,2017,00,00*6E
2017-12-29 11:12:21 1514563941.422327: $GPGGA,161222,3946.9590,N,08404.9879,W,2,11,1.40,296.92,M,-33.324,M,,*76
2017-12-29 11:12:21 1514563941.422393: $GPRMC,161222,A,3946.9590,N,08404.9879,W,0.0000,0.000,291217,,*3F
2017-12-29 11:12:21 1514563941.422454: $GPGSA,A,3,8,10,15,18,20,21,24,27,32,13,138,,1.7,1.4,1.3*3C
2017-12-29 11:12:22 1514563942.423252: $GPZDA,161223.00,29,12,2017,00,00*6F
2017-12-29 11:12:22 1514563942.423419: $GPGGA,161223,3946.9590,N,08404.9879,W,2,11,1.40,296.92,M,-33.324,M,,*77
2017-12-29 11:12:22 1514563942.423485: $GPRMC,161223,A,3946.9590,N,08404.9879,W,0.0000,0.000,291217,,*3E
2017-12-29 11:12:22 1514563942.423545: $GPGSA,A,3,8,10,15,18,20,21,24,27,32,13,138,,1.7,1.4,1.3*3C
2017-12-29 11:12:23 1514563943.741211: $GPGSV,3,1,12,08,05,325,31,10,40,300,44,15,39,052,48,18,70,333,42*7B
2017-12-29 11:12:23 1514563943.741393: $GPGSV,3,2,12,20,36,093,48,21,66,192,44,24,49,114,46,27,19,292,37*7E
2017-12-29 11:12:23 1514563943.741460: $GPGSV,3,3,12,32,20,237,36,13,10,048,23,14,01,231,00,138,38,213,46*43
2017-12-29 11:12:23 1514563943.854857: $GPZDA,161224.00,29,12,2017,00,00*68
2017-12-29 11:12:23 1514563943.854992: $GPGGA,161224,3946.9590,N,08404.9879,W,2,11,1.40,296.92,M,-33.324,M,,*70
2017-12-29 11:12:23 1514563943.855056: $GPRMC,161224,A,3946.9590,N,08404.9879,W,0.0000,0.000,291217,,*39
2017-12-29 11:12:23 1514563943.855116: $GPGSA,A,3,8,10,15,18,20,21,24,27,32,13,138,,1.7,1.4,1.3*3C
2017-12-29 11:12:24 1514563944.422017: $GPZDA,161225.00,29,12,2017,00,00*69
2017-12-29 11:12:24 1514563944.422183: $GPGGA,161225,3946.9590,N,08404.9879,W,2,11,1.40,296.92,M,-33.324,M,,*71
2017-12-29 11:12:24 1514563944.422248: $GPRMC,161225,A,3946.9590,N,08404.9879,W,0.0000,0.000,291217,,*38
2017-12-29 11:12:24 1514563944.422308: $GPGSA,A,3,8,10,15,18,20,21,24,27,32,13,138,,1.7,1.4,1.3*3C
2017-12-29 11:12:25 1514563945.408632: $GPZDA,161226.00,29,12,2017,00,00*6A
2017-12-29 11:12:25 1514563945.408793: $GPGGA,161226,3946.9590,N,08404.9879,W,2,11,1.40,296.92,M,-33.324,M,,*72
2017-12-29 11:12:25 1514563945.408859: $GPRMC,161226,A,3946.9590,N,08404.9879,W,0.0000,0.000,291217,,*3B
2017-12-29 11:12:25 1514563945.408919: $GPGSA,A,3,8,10,15,18,20,21,24,27,32,13,138,,1.7,1.4,1.3*3C
2017-12-29 11:12:26 1514563946.742751: $GPGSV,3,1,12,08,05,325,31,10,40,300,43,15,39,052,48,18,70,333,42*7C
2017-12-29 11:12:26 1514563946.742902: $GPGSV,3,2,12,20,36,093,48,21,66,192,44,24,49,114,46,27,19,292,37*7E
2017-12-29 11:12:26 1514563946.742967: $GPGSV,3,3,12,32,20,237,36,13,10,048,23,14,01,231,00,138,38,213,45*40
2017-12-29 11:12:26 1514563946.856423: $GPZDA,161227.00,29,12,2017,00,00*6B
2017-12-29 11:12:26 1514563946.856541: $GPGGA,161227,3946.9590,N,08404.9879,W,2,11,1.40,296.92,M,-33.324,M,,*73
2017-12-29 11:12:26 1514563946.856605: $GPRMC,161227,A,3946.9590,N,08404.9879,W,0.0000,0.000,291217,,*3A
2017-12-29 11:12:26 1514563946.856665: $GPGSA,A,3,8,10,15,18,20,21,24,27,32,13,138,,1.7,1.4,1.3*3C
2017-12-29 11:12:27 1514563947.422145: $GPZDA,161228.00,29,12,2017,00,00*64
2017-12-29 11:12:27 1514563947.422314: $GPGGA,161228,3946.9590,N,08404.9879,W,1,11,0.80,296.92,M,-33.324,M,,*72
2017-12-29 11:12:27 1514563947.422382: $GPRMC,161228,A,3946.9590,N,08404.9879,W,0.0000,0.000,291217,,*35
2017-12-29 11:12:27 1514563947.422442: $GPGSA,A,3,8,10,15,18,20,21,24,27,32,13,138,,1.7,0.8,1.3*31
2017-12-29 11:12:28 1514563948.418230: $GPZDA,161229.00,29,12,2017,00,00*65
2017-12-29 11:12:28 1514563948.418389: $GPGGA,161229,3946.9590,N,08404.9879,W,1,11,0.80,296.92,M,-33.324,M,,*73
2017-12-29 11:12:28 1514563948.418455: $GPRMC,161229,A,3946.9590,N,08404.9879,W,0.0000,0.000,291217,,*34
2017-12-29 11:12:28 1514563948.418516: $GPGSA,A,3,8,10,15,18,20,21,24,27,32,13,138,,1.7,0.8,1.3*31
2017-12-29 11:12:29 1514563949.742365: $GPGSV,3,1,12,08,05,325,23,10,40,300,43,15,39,052,48,18,70,333,42*7F
2017-12-29 11:12:29 1514563949.742582: $GPGSV,3,2,12,20,36,093,48,21,66,192,45,24,49,114,46,27,19,292,37*7F
2017-12-29 11:12:29 1514563949.742651: $GPGSV,3,3,12,32,20,237,36,13,10,048,23,14,01,231,00,138,38,213,45*40
2017-12-29 11:12:29 1514563949.855962: $GPZDA,161230.00,29,12,2017,00,00*6D
2017-12-29 11:12:29 1514563949.856088: $GPGGA,161230,3946.9590,N,08404.9879,W,1,11,0.80,296.92,M,-33.324,M,,*7B
2017-12-29 11:12:29 1514563949.856152: $GPRMC,161230,A,3946.9590,N,08404.9879,W,0.0000,0.000,291217,,*3C
2017-12-29 11:12:29 1514563949.856212: $GPGSA,A,3,8,10,15,18,20,21,24,27,32,13,138,,1.7,0.8,1.3*31
2017-12-29 11:12:30 1514563950.481401: $GPZDA,161231.00,29,12,2017,00,00*6C
2017-12-29 11:12:30 1514563950.481557: $GPGGA,161231,3946.9590,N,08404.9879,W,1,11,0.80,296.92,M,-33.324,M,,*7A
2017-12-29 11:12:30 1514563950.481623: $GPRMC,161231,A,3946.9590,N,08404.9879,W,0.0000,0.000,291217,,*3D
2017-12-29 11:12:30 1514563950.481683: $GPGSA,A,3,8,10,15,18,20,21,24,27,32,13,138,,1.7,0.8,1.3*31
2017-12-29 11:12:31 1514563951.423579: $GPZDA,161232.00,29,12,2017,00,00*6F
2017-12-29 11:12:31 1514563951.423753: $GPGGA,161232,3946.9590,N,08404.9879,W,1,11,0.80,296.92,M,-33.324,M,,*79
2017-12-29 11:12:31 1514563951.423818: $GPRMC,161232,A,3946.9590,N,08404.9879,W,0.0000,0.000,291217,,*3E
2017-12-29 11:12:31 1514563951.423879: $GPGSA,A,3,8,10,15,18,20,21,24,27,32,13,138,,1.7,0.8,1.3*31
2017-12-29 11:12:32 1514563952.741492: $GPGSV,3,1,12,08,05,325,22,10,40,300,42,15,39,052,48,18,70,333,42*7F
2017-12-29 11:12:32 1514563952.741661: $GPGSV,3,2,12,20,36,093,49,21,66,192,45,24,49,114,46,27,19,292,37*7E
2017-12-29 11:12:32 1514563952.741726: $GPGSV,3,3,12,32,20,237,37,13,10,048,22,14,01,231,00,138,38,213,45*40
2017-12-29 11:12:32 1514563952.855237: $GPZDA,161233.00,29,12,2017,00,00*6E
2017-12-29 11:12:32 1514563952.855373: $GPGGA,161233,3946.9590,N,08404.9879,W,1,11,0.80,296.92,M,-33.324,M,,*78
2017-12-29 11:12:32 1514563952.855438: $GPRMC,161233,A,3946.9590,N,08404.9879,W,0.0000,0.000,291217,,*3F
2017-12-29 11:12:32 1514563952.855499: $GPGSA,A,3,8,10,15,18,20,21,24,27,32,13,138,,1.7,0.8,1.3*31
2017-12-29 11:12:33 1514563953.423319: $GPZDA,161234.00,29,12,2017,00,00*69
2017-12-29 11:12:33 1514563953.423484: $GPGGA,161234,3946.9594,N,08404.9879,W,1,11,0.80,297.56,M,-33.324,M,,*72
2017-12-29 11:12:33 1514563953.423550: $GPRMC,161234,A,3946.9594,N,08404.9879,W,0.0000,0.000,291217,,*3C
2017-12-29 11:12:33 1514563953.423610: $GPGSA,A,3,8,10,15,18,20,21,24,27,32,13,138,,1.7,0.8,1.3*31
2017-12-29 11:12:34 1514563954.406624: $GPZDA,161235.00,29,12,2017,00,00*68
2017-12-29 11:12:34 1514563954.406811: $GPGGA,161235,3946.9594,N,08404.9879,W,1,11,0.80,297.56,M,-33.324,M,,*73
2017-12-29 11:12:34 1514563954.406898: $GPRMC,161235,A,3946.9594,N,08404.9879,W,0.0000,0.000,291217,,*3D
2017-12-29 11:12:34 1514563954.406960: $GPGSA,A,3,8,10,15,18,20,21,24,27,32,13,138,,1.7,0.8,1.3*31
2017-12-29 11:12:35 1514563955.758127: $GPGSV,3,1,12,08,05,325,12,10,40,300,42,15,39,052,48,18,70,333,42*7C
2017-12-29 11:12:35 1514563955.758291: $GPGSV,3,2,12,20,36,093,48,21,66,192,45,24,49,114,46,27,19,292,36*7E
2017-12-29 11:12:35 1514563955.758355: $GPGSV,3,3,12,32,20,237,37,13,10,048,22,14,01,231,00,138,38,213,45*40
2017-12-29 11:12:35 1514563955.871499: $GPZDA,161236.00,29,12,2017,00,00*6B
2017-12-29 11:12:35 1514563955.871631: $GPGGA,161236,3946.9594,N,08404.9879,W,1,11,0.80,297.56,M,-33.324,M,,*70
2017-12-29 11:12:35 1514563955.871696: $GPRMC,161236,A,3946.9594,N,08404.9879,W,0.0000,0.000,291217,,*3E
2017-12-29 11:12:35 1514563955.871756: $GPGSA,A,3,8,10,15,18,20,21,24,27,32,13,138,,1.7,0.8,1.3*31
2017-12-29 11:12:36 1514563956.422395: $GPZDA,161237.00,29,12,2017,00,00*6A
2017-12-29 11:12:36 1514563956.422555: $GPGGA,161237,3946.9594,N,08404.9879,W,1,11,0.80,297.56,M,-33.324,M,,*71
2017-12-29 11:12:36 1514563956.422620: $GPRMC,161237,A,3946.9594,N,08404.9879,W,0.0000,0.000,291217,,*3F
2017-12-29 11:12:36 1514563956.422681: $GPGSA,A,3,8,10,15,18,20,21,24,27,32,13,138,,1.7,0.8,1.3*31
2017-12-29 11:12:37 1514563957.409798: $GPZDA,161238.00,29,12,2017,00,00*65
2017-12-29 11:12:37 1514563957.409960: $GPGGA,161238,3946.9594,N,08404.9879,W,1,11,0.80,297.56,M,-33.324,M,,*7E
2017-12-29 11:12:37 1514563957.410026: $GPRMC,161238,A,3946.9594,N,08404.9879,W,0.0000,0.000,291217,,*30
2017-12-29 11:12:37 1514563957.410086: $GPGSA,A,3,8,10,15,18,20,21,24,27,32,13,138,,1.7,0.8,1.3*31
2017-12-29 11:12:38 1514563958.741521: $GPGSV,3,1,12,08,05,325,21,10,40,300,41,15,39,052,48,18,70,333,42*7F
2017-12-29 11:12:38 1514563958.741679: $GPGSV,3,2,12,20,36,093,48,21,66,192,45,24,49,114,46,27,19,292,36*7E
2017-12-29 11:12:38 1514563958.741743: $GPGSV,3,3,12,32,20,237,37,13,10,048,22,14,01,231,00,138,38,213,45*40
2017-12-29 11:12:38 1514563958.855157: $GPZDA,161239.00,29,12,2017,00,00*64
2017-12-29 11:12:38 1514563958.855275: $GPGGA,161239,3946.9594,N,08404.9879,W,1,11,0.80,297.56,M,-33.324,M,,*7F
2017-12-29 11:12:38 1514563958.855338: $GPRMC,161239,A,3946.9594,N,08404.9879,W,0.0000,0.000,291217,,*31
2017-12-29 11:12:38 1514563958.855398: $GPGSA,A,3,8,10,15,18,20,21,24,27,32,13,138,,1.7,0.8,1.3*31
