2017-12-01 18:14:52 1512170092.547146: {"class":"VERSION","release":"3.16","rev":"3.16-4","proto_major":3,"proto_minor":11}
2017-12-01 18:14:52 1512170092.547752: {"class":"DEVICES","devices":[{"class":"DEVICE","path":"/dev/ttyUSB0","driver":"SiRF","subtype":"9\u0006GSD4e_4.1.2-P1_RPATCH.05-F-GPS-4R-1510281 11/03/2015 307","activated":"2017-12-01T23:14:52.506Z","flags":1,"native":1,"bps":4800,"parity":"N","stopbits":1,"cycle":1.00}]}
2017-12-01 18:14:52 1512170092.547893: {"class":"WATCH","enable":true,"json":false,"nmea":true,"raw":0,"scaled":false,"timing":false,"split24":false,"pps":false}
2017-12-01 18:14:53 1512170093.681668: $GPGSV,3,1,12,01,08,256,37,03,38,303,45,14,58,085,43,16,19,189,44*70
2017-12-01 18:14:53 1512170093.681869: $GPGSV,3,2,12,22,50,277,46,23,08,298,44,25,21,042,39,26,49,174,46*75
2017-12-01 18:14:53 1512170093.681954: $GPGSV,3,3,12,31,70,019,46,32,39,105,41,29,09,076,21,138,38,213,46*4C
2017-12-01 18:14:53 1512170093.795237: $GPZDA,231454.00,01,12,2017,00,00*65
2017-12-01 18:14:53 1512170093.795545: $GPGGA,231454,3946.9729,N,08404.9844,W,2,12,0.80,294.15,M,-33.325,M,,*7B
2017-12-01 18:14:53 1512170093.795697: $GPRMC,231454,A,3946.9729,N,08404.9844,W,0.0000,0.000,011217,,*3A
2017-12-01 18:14:53 1512170093.795850: $GPGSA,A,3,1,3,14,16,22,23,25,26,31,32,29,138,2.0,0.8,1.5*0C
2017-12-01 18:14:54 1512170094.343430: $GPZDA,231455.00,01,12,2017,00,00*64
2017-12-01 18:14:54 1512170094.343615: $GPGGA,231455,3946.9729,N,08404.9844,W,2,12,0.80,294.15,M,-33.325,M,,*7A
2017-12-01 18:14:54 1512170094.343685: $GPRMC,231455,A,3946.9729,N,08404.9844,W,0.0000,0.000,011217,,*3B
2017-12-01 18:14:54 1512170094.343747: $GPGSA,A,3,1,3,14,16,22,23,25,26,31,32,29,138,2.0,0.8,1.5*0C
2017-12-01 18:14:55 1512170095.348026: $GPZDA,231456.00,01,12,2017,00,00*67
2017-12-01 18:14:55 1512170095.348218: $GPGGA,231456,3946.9729,N,08404.9844,W,2,12,0.80,294.15,M,-33.325,M,,*79
2017-12-01 18:14:55 1512170095.348286: $GPRMC,231456,A,3946.9729,N,08404.9844,W,0.0000,0.000,011217,,*38
2017-12-01 18:14:55 1512170095.348346: $GPGSA,A,3,1,3,14,16,22,23,25,26,31,32,29,138,2.0,0.8,1.5*0C
2017-12-01 18:14:56 1512170096.681415: $GPGSV,3,1,12,01,08,256,37,03,38,303,45,14,58,085,43,16,19,189,43*77
2017-12-01 18:14:56 1512170096.681626: $GPGSV,3,2,12,22,50,277,46,23,08,298,44,25,21,042,39,26,49,174,45*76
2017-12-01 18:14:56 1512170096.681701: $GPGSV,3,3,12,31,70,019,46,32,39,105,42,10,01,159,21,138,38,213,45*42
2017-12-01 18:14:56 1512170096.794613: $GPZDA,231457.00,01,12,2017,00,00*66
2017-12-01 18:14:56 1512170096.794802: $GPGGA,231457,3946.9729,N,08404.9844,W,2,12,0.80,294.15,M,-33.325,M,,*78
2017-12-01 18:14:56 1512170096.794869: $GPRMC,231457,A,3946.9729,N,08404.9844,W,0.0000,0.000,011217,,*39
2017-12-01 18:14:56 1512170096.794948: $GPGSA,A,3,1,3,14,16,22,23,25,26,31,32,10,138,2.0,0.8,1.5*06
2017-12-01 18:14:57 1512170097.347000: $GPZDA,231458.00,01,12,2017,00,00*69
2017-12-01 18:14:57 1512170097.347175: $GPGGA,231458,3946.9729,N,08404.9844,W,2,12,0.60,294.15,M,-33.325,M,,*79
2017-12-01 18:14:57 1512170097.347243: $GPRMC,231458,A,3946.9729,N,08404.9844,W,0.0000,0.000,011217,,*36
2017-12-01 18:14:57 1512170097.347305: $GPGSA,A,3,1,3,14,16,22,23,25,26,31,32,10,138,2.0,0.6,1.5*08
2017-12-01 18:14:58 1512170098.355843: $GPZDA,231459.00,01,12,2017,00,00*68
2017-12-01 18:14:58 1512170098.356036: $GPGGA,231459,3946.9729,N,08404.9844,W,2,12,0.80,294.15,M,-33.325,M,,*76
2017-12-01 18:14:58 1512170098.356104: $GPRMC,231459,A,3946.9729,N,08404.9844,W,0.0000,0.000,011217,,*37
2017-12-01 18:14:58 1512170098.356166: $GPGSA,A,3,1,3,14,16,22,23,25,26,31,32,10,138,2.0,0.8,1.5*06
2017-12-01 18:14:59 1512170099.681582: $GPGSV,3,1,12,01,08,256,37,03,38,303,46,14,58,085,42,16,19,189,44*72
2017-12-01 18:14:59 1512170099.686074: $GPGSV,3,2,12,22,50,277,46,23,08,298,44,25,21,042,40,26,49,174,46*7B
2017-12-01 18:14:59 1512170099.686188: $GPGSV,3,3,12,31,70,019,46,32,39,105,39,29,09,076,23,138,38,213,46*41
2017-12-01 18:14:59 1512170099.794911: $GPZDA,231500.00,01,12,2017,00,00*65
2017-12-01 18:14:59 1512170099.795058: $GPGGA,231500,3946.9729,N,08404.9844,W,2,12,0.80,294.15,M,-33.325,M,,*7B
2017-12-01 18:14:59 1512170099.795195: $GPRMC,231500,A,3946.9729,N,08404.9844,W,0.0000,0.000,011217,,*3A
2017-12-01 18:14:59 1512170099.795260: $GPGSA,A,3,1,3,14,16,22,23,25,26,31,32,29,138,2.0,0.8,1.5*0C
2017-12-01 18:15:00 1512170100.343771: $GPZDA,231501.00,01,12,2017,00,00*64
2017-12-01 18:15:00 1512170100.343984: $GPGGA,231501,3946.9729,N,08404.9844,W,2,12,0.80,294.15,M,-33.325,M,,*7A
2017-12-01 18:15:00 1512170100.344051: $GPRMC,231501,A,3946.9729,N,08404.9844,W,0.0000,0.000,011217,,*3B
2017-12-01 18:15:00 1512170100.344112: $GPGSA,A,3,1,3,14,16,22,23,25,26,31,32,29,138,2.0,0.8,1.5*0C
2017-12-01 18:15:01 1512170101.346922: $GPZDA,231502.00,01,12,2017,00,00*67
2017-12-01 18:15:01 1512170101.347094: $GPGGA,231502,3946.9729,N,08404.9844,W,2,12,0.80,294.15,M,-33.325,M,,*79
2017-12-01 18:15:01 1512170101.347161: $GPRMC,231502,A,3946.9729,N,08404.9844,W,0.0000,0.000,011217,,*38
2017-12-01 18:15:01 1512170101.347222: $GPGSA,A,3,1,3,14,16,22,23,25,26,31,32,29,138,2.0,0.8,1.5*0C
2017-12-01 18:15:02 1512170102.682383: $GPGSV,3,1,12,01,08,256,37,03,38,303,46,14,58,085,43,16,19,189,44*73
2017-12-01 18:15:02 1512170102.682564: $GPGSV,3,2,12,22,50,277,46,23,08,298,44,25,21,042,40,26,49,174,46*7B
2017-12-01 18:15:02 1512170102.682631: $GPGSV,3,3,12,31,70,019,46,32,39,105,39,10,01,159,21,138,38,213,46*4D
2017-12-01 18:15:02 1512170102.795801: $GPZDA,231503.00,01,12,2017,00,00*66
2017-12-01 18:15:02 1512170102.795989: $GPGGA,231503,3946.9729,N,08404.9844,W,2,12,0.80,294.15,M,-33.325,M,,*78
2017-12-01 18:15:02 1512170102.796056: $GPRMC,231503,A,3946.9729,N,08404.9844,W,0.0000,0.000,011217,,*39
2017-12-01 18:15:02 1512170102.796118: $GPGSA,A,3,1,3,14,16,22,23,25,26,31,32,10,138,2.0,0.8,1.5*06
2017-12-01 18:15:03 1512170103.421477: $GPZDA,231504.00,01,12,2017,00,00*61
2017-12-01 18:15:03 1512170103.421655: $GPGGA,231504,3946.9729,N,08404.9844,W,2,12,0.80,294.15,M,-33.325,M,,*7F
2017-12-01 18:15:03 1512170103.421747: $GPRMC,231504,A,3946.9729,N,08404.9844,W,0.0000,0.000,011217,,*3E
2017-12-01 18:15:03 1512170103.421826: $GPGSA,A,3,1,3,14,16,22,23,25,26,31,32,10,138,2.0,0.8,1.5*06
2017-12-01 18:15:04 1512170104.345005: $GPZDA,231505.00,01,12,2017,00,00*60
2017-12-01 18:15:04 1512170104.345174: $GPGGA,231505,3946.9729,N,08404.9844,W,2,12,0.80,294.15,M,-33.325,M,,*7E
2017-12-01 18:15:04 1512170104.345242: $GPRMC,231505,A,3946.9729,N,08404.9844,W,0.0000,0.000,011217,,*3F
2017-12-01 18:15:04 1512170104.345303: $GPGSA,A,3,1,3,14,16,22,23,25,26,31,32,10,138,2.0,0.8,1.5*06
2017-12-01 18:15:05 1512170105.681528: $GPGSV,3,1,12,01,08,256,36,03,38,303,46,14,58,085,42,16,19,189,44*73
2017-12-01 18:15:05 1512170105.681727: $GPGSV,3,2,12,22,50,277,46,23,08,298,44,25,21,042,40,26,49,174,46*7B
2017-12-01 18:15:05 1512170105.681795: $GPGSV,3,3,12,31,70,019,47,32,39,105,40,10,01,159,20,138,38,213,46*43
2017-12-01 18:15:05 1512170105.795157: $GPZDA,231506.00,01,12,2017,00,00*63
2017-12-01 18:15:05 1512170105.795296: $GPGGA,231506,3946.9729,N,08404.9844,W,2,12,0.80,294.15,M,-33.325,M,,*7D
2017-12-01 18:15:05 1512170105.795361: $GPRMC,231506,A,3946.9729,N,08404.9844,W,0.0000,0.000,011217,,*3C
2017-12-01 18:15:05 1512170105.795422: $GPGSA,A,3,1,3,14,16,22,23,25,26,31,32,10,138,2.0,0.8,1.5*06
2017-12-01 18:15:06 1512170106.347336: $GPZDA,231507.00,01,12,2017,00,00*62
2017-12-01 18:15:06 1512170106.347496: $GPGGA,231507,3946.9729,N,08404.9844,W,2,12,0.80,294.15,M,-33.325,M,,*7C
2017-12-01 18:15:06 1512170106.347565: $GPRMC,231507,A,3946.9729,N,08404.9844,W,0.0000,0.000,011217,,*3D
2017-12-01 18:15:06 1512170106.347627: $GPGSA,A,3,1,3,14,16,22,23,25,26,31,32,10,138,2.0,0.8,1.5*06
2017-12-01 18:15:07 1512170107.348031: $GPZDA,231508.00,01,12,2017,00,00*6D
2017-12-01 18:15:07 1512170107.348201: $GPGGA,231508,3946.9729,N,08404.9844,W,2,12,0.80,294.15,M,-33.325,M,,*73
2017-12-01 18:15:07 1512170107.348268: $GPRMC,231508,A,3946.9729,N,08404.9844,W,0.0000,0.000,011217,,*32
2017-12-01 18:15:07 1512170107.348328: $GPGSA,A,3,1,3,14,16,22,23,25,26,31,32,10,138,2.0,0.8,1.5*06
2017-12-01 18:15:08 1512170108.679373: $GPGSV,3,1,12,01,08,256,32,03,38,303,46,14,58,085,42,16,19,189,44*77
2017-12-01 18:15:08 1512170108.679528: $GPGSV,3,2,12,22,50,277,46,23,08,298,44,25,21,042,39,26,49,174,46*75
2017-12-01 18:15:08 1512170108.679595: $GPGSV,3,3,12,31,70,019,47,32,39,105,41,29,09,076,14,138,38,213,46*4B
2017-12-01 18:15:08 1512170108.793138: $GPZDA,231509.00,01,12,2017,00,00*6C
2017-12-01 18:15:08 1512170108.793309: $GPGGA,231509,3946.9729,N,08404.9844,W,2,11,0.80,294.15,M,-33.325,M,,*71
2017-12-01 18:15:08 1512170108.793378: $GPRMC,231509,A,3946.9729,N,08404.9844,W,0.0000,0.000,011217,,*33
2017-12-01 18:15:08 1512170108.793439: $GPGSA,A,3,1,3,14,16,22,23,25,26,31,32,138,,2.0,0.8,1.5*07
2017-12-01 18:15:09 1512170109.349832: $GPZDA,231510.00,01,12,2017,00,00*64
2017-12-01 18:15:09 1512170109.350012: $GPGGA,231510,3946.9729,N,08404.9844,W,2,11,0.80,294.15,M,-33.325,M,,*79
2017-12-01 18:15:09 1512170109.350080: $GPRMC,231510,A,3946.9729,N,08404.9844,W,0.0000,0.000,011217,,*3B
2017-12-01 18:15:09 1512170109.350143: $GPGSA,A,3,1,3,14,16,22,23,25,26,31,32,138,,2.0,0.8,1.5*07
2017-12-01 18:15:10 1512170110.347418: $GPZDA,231511.00,01,12,2017,00,00*65
2017-12-01 18:15:10 1512170110.347589: $GPGGA,231511,3946.9729,N,08404.9844,W,2,11,0.60,294.15,M,-33.325,M,,*76
2017-12-01 18:15:10 1512170110.347654: $GPRMC,231511,A,3946.9729,N,08404.9844,W,0.0000,0.000,011217,,*3A
2017-12-01 18:15:10 1512170110.347716: $GPGSA,A,3,1,3,14,16,22,23,25,26,31,32,138,,2.0,0.6,1.5*09
2017-12-01 18:15:11 1512170111.682825: $GPGSV,3,1,12,01,08,256,31,03,38,303,46,14,58,085,43,16,19,189,44*75
2017-12-01 18:15:11 1512170111.683005: $GPGSV,3,2,12,22,50,277,46,23,08,298,44,25,21,042,38,26,49,174,46*74
2017-12-01 18:15:11 1512170111.683072: $GPGSV,3,3,12,31,70,019,47,32,39,105,41,29,09,076,24,138,38,213,46*48
2017-12-01 18:15:11 1512170111.796467: $GPZDA,231512.00,01,12,2017,00,00*66
2017-12-01 18:15:11 1512170111.796630: $GPGGA,231512,3946.9729,N,08404.9844,W,2,12,0.60,294.15,M,-33.325,M,,*76
2017-12-01 18:15:11 1512170111.796696: $GPRMC,231512,A,3946.9729,N,08404.9844,W,0.0000,0.000,011217,,*39
2017-12-01 18:15:11 1512170111.796757: $GPGSA,A,3,1,3,14,16,22,23,25,26,31,32,29,138,2.0,0.6,1.5*02
2017-12-01 18:15:12 1512170112.345991: $GPZDA,231513.00,01,12,2017,00,00*67
2017-12-01 18:15:12 1512170112.346234: $GPGGA,231513,3946.9729,N,08404.9844,W,2,12,0.60,294.15,M,-33.325,M,,*77
2017-12-01 18:15:12 1512170112.346306: $GPRMC,231513,A,3946.9729,N,08404.9844,W,0.0000,0.000,011217,,*38
2017-12-01 18:15:12 1512170112.346367: $GPGSA,A,3,1,3,14,16,22,23,25,26,31,32,29,138,2.0,0.6,1.5*02
