2017-11-16 13:15:45 1510856145.687708: {"class":"VERSION","release":"3.17","rev":"3.17","proto_major":3,"proto_minor":12}
2017-11-16 13:15:45 1510856145.688182: {"class":"DEVICES","devices":[{"class":"DEVICE","path":"/dev/ttyUSB0","driver":"SiRF","subtype":"9\u0006GSD4e_4.1.2-P1_RPATCH.05-F-GPS-4R-1510281 11/03/2015 307","activated":"2017-11-16T18:15:45.654Z","flags":1,"native":1,"bps":4800,"parity":"N","stopbits":1,"cycle":1.00}]}
2017-11-16 13:15:45 1510856145.688296: {"class":"WATCH","enable":true,"json":false,"nmea":true,"raw":0,"scaled":false,"timing":false,"split24":false,"pps":false}
2017-11-16 13:15:45 1510856145.767676: $GPZDA,181544.00,16,11,2017,00,00*68
2017-11-16 13:15:45 1510856145.767838: $GPGGA,181544,3946.9585,N,08404.9845,W,2,11,0.80,298.08,M,-33.324,M,,*74
2017-11-16 13:15:45 1510856145.767898: $GPRMC,181544,A,3946.9585,N,08404.9845,W,0.0000,0.000,161117,,*32
2017-11-16 13:15:45 1510856145.767954: $GPGSA,A,3,10,13,15,18,20,21,24,27,5,29,138,,1.6,0.8,1.3*37
2017-11-16 13:15:46 1510856146.301017: $GPZDA,181545.00,16,11,2017,00,00*69
2017-11-16 13:15:46 1510856146.301179: $GPGGA,181545,3946.9585,N,08404.9845,W,2,11,0.80,298.08,M,-33.324,M,,*75
2017-11-16 13:15:46 1510856146.301243: $GPRMC,181545,A,3946.9585,N,08404.9845,W,0.0000,0.000,161117,,*33
2017-11-16 13:15:46 1510856146.301300: $GPGSA,A,3,10,13,15,18,20,21,24,27,5,29,138,,1.6,0.8,1.3*37
2017-11-16 13:15:47 1510856147.318467: $GPZDA,181546.00,16,11,2017,00,00*6A
2017-11-16 13:15:47 1510856147.318627: $GPGGA,181546,3946.9585,N,08404.9845,W,2,11,0.80,298.08,M,-33.324,M,,*76
2017-11-16 13:15:47 1510856147.318688: $GPRMC,181546,A,3946.9585,N,08404.9845,W,0.0000,0.000,161117,,*30
2017-11-16 13:15:47 1510856147.318744: $GPGSA,A,3,10,13,15,18,20,21,24,27,5,29,138,,1.6,0.8,1.3*37
2017-11-16 13:15:48 1510856148.653795: $GPGSV,3,1,12,10,22,280,44,13,31,045,47,15,64,052,51,18,52,297,44*76
2017-11-16 13:15:48 1510856148.653967: $GPGSV,3,2,12,20,53,069,46,21,76,282,46,24,31,141,44,27,15,315,43*7B
2017-11-16 13:15:48 1510856148.654028: $GPGSV,3,3,12,05,06,085,22,29,12,190,27,04,02,135,00,138,38,213,45*40
2017-11-16 13:15:48 1510856148.767499: $GPZDA,181547.00,16,11,2017,00,00*6B
2017-11-16 13:15:48 1510856148.767661: $GPGGA,181547,3946.9585,N,08404.9845,W,2,11,0.80,298.08,M,-33.324,M,,*77
2017-11-16 13:15:48 1510856148.767721: $GPRMC,181547,A,3946.9585,N,08404.9845,W,0.0000,0.000,161117,,*31
2017-11-16 13:15:48 1510856148.767777: $GPGSA,A,3,10,13,15,18,20,21,24,27,5,29,138,,1.6,0.8,1.3*37
2017-11-16 13:15:49 1510856149.315699: $GPZDA,181548.00,16,11,2017,00,00*64
2017-11-16 13:15:49 1510856149.315859: $GPGGA,181548,3946.9585,N,08404.9845,W,2,11,0.80,298.08,M,-33.324,M,,*78
2017-11-16 13:15:49 1510856149.315920: $GPRMC,181548,A,3946.9585,N,08404.9845,W,0.0000,0.000,161117,,*3E
2017-11-16 13:15:49 1510856149.315977: $GPGSA,A,3,10,13,15,18,20,21,24,27,5,29,138,,1.6,0.8,1.3*37
2017-11-16 13:15:50 1510856150.299646: $GPZDA,181549.00,16,11,2017,00,00*65
2017-11-16 13:15:50 1510856150.299807: $GPGGA,181549,3946.9585,N,08404.9845,W,2,11,0.80,298.08,M,-33.324,M,,*79
2017-11-16 13:15:50 1510856150.299869: $GPRMC,181549,A,3946.9585,N,08404.9845,W,0.0000,0.000,161117,,*3F
2017-11-16 13:15:50 1510856150.299925: $GPGSA,A,3,10,13,15,18,20,21,24,27,5,29,138,,1.6,0.8,1.3*37
2017-11-16 13:15:51 1510856151.654167: $GPGSV,3,1,12,10,22,280,44,13,31,045,47,15,64,052,51,18,52,297,44*76
2017-11-16 13:15:51 1510856151.654394: $GPGSV,3,2,12,20,53,069,46,21,76,282,47,24,31,141,44,27,15,315,43*7A
2017-11-16 13:15:51 1510856151.654480: $GPGSV,3,3,12,05,06,085,22,29,12,190,22,04,02,135,00,138,38,213,44*44
2017-11-16 13:15:51 1510856151.767399: $GPZDA,181550.00,16,11,2017,00,00*6D
2017-11-16 13:15:51 1510856151.767559: $GPGGA,181550,3946.9585,N,08404.9845,W,2,11,0.80,298.08,M,-33.324,M,,*71
2017-11-16 13:15:51 1510856151.767637: $GPRMC,181550,A,3946.9585,N,08404.9845,W,0.0000,0.000,161117,,*37
2017-11-16 13:15:51 1510856151.767696: $GPGSA,A,3,10,13,15,18,20,21,24,27,5,29,138,,1.6,0.8,1.3*37
2017-11-16 13:15:52 1510856152.298509: $GPZDA,181551.00,16,11,2017,00,00*6C
2017-11-16 13:15:52 1510856152.298730: $GPGGA,181551,3946.9585,N,08404.9845,W,2,11,0.80,298.08,M,-33.324,M,,*70
2017-11-16 13:15:52 1510856152.298793: $GPRMC,181551,A,3946.9585,N,08404.9845,W,0.0000,0.000,161117,,*36
2017-11-16 13:15:52 1510856152.298849: $GPGSA,A,3,10,13,15,18,20,21,24,27,5,29,138,,1.6,0.8,1.3*37
2017-11-16 13:15:53 1510856153.319274: $GPZDA,181552.00,16,11,2017,00,00*6F
2017-11-16 13:15:53 1510856153.319426: $GPGGA,181552,3946.9585,N,08404.9845,W,2,11,0.80,298.08,M,-33.324,M,,*73
2017-11-16 13:15:53 1510856153.319487: $GPRMC,181552,A,3946.9585,N,08404.9845,W,0.0000,0.000,161117,,*35
2017-11-16 13:15:53 1510856153.319542: $GPGSA,A,3,10,13,15,18,20,21,24,27,5,29,138,,1.6,0.8,1.3*37
2017-11-16 13:15:54 1510856154.634826: $GPGSV,3,1,12,10,22,280,43,13,31,045,47,15,64,052,51,18,52,297,44*71
2017-11-16 13:15:54 1510856154.635045: $GPGSV,3,2,12,20,53,069,45,21,76,282,47,24,31,141,44,27,15,315,43*79
2017-11-16 13:15:54 1510856154.635113: $GPGSV,3,3,12,05,06,085,22,29,12,190,24,04,02,135,00,138,38,213,45*43
2017-11-16 13:15:54 1510856154.748412: $GPZDA,181553.00,16,11,2017,00,00*6E
2017-11-16 13:15:54 1510856154.748578: $GPGGA,181553,3946.9585,N,08404.9845,W,2,11,0.80,298.08,M,-33.324,M,,*72
2017-11-16 13:15:54 1510856154.748640: $GPRMC,181553,A,3946.9585,N,08404.9845,W,0.0000,0.000,161117,,*34
2017-11-16 13:15:54 1510856154.748696: $GPGSA,A,3,10,13,15,18,20,21,24,27,5,29,138,,1.6,0.8,1.3*37
2017-11-16 13:15:55 1510856155.373487: $GPZDA,181554.00,16,11,2017,00,00*69
2017-11-16 13:15:55 1510856155.373651: $GPGGA,181554,3946.9585,N,08404.9845,W,2,11,1.00,298.08,M,-33.324,M,,*7C
2017-11-16 13:15:55 1510856155.373711: $GPRMC,181554,A,3946.9585,N,08404.9845,W,0.0000,0.000,161117,,*33
2017-11-16 13:15:55 1510856155.373768: $GPGSA,A,3,10,13,15,18,20,21,24,27,5,29,138,,1.6,1.0,1.3*3E
