2017-11-16 14:11:12 1510859472.219386: {"class":"VERSION","release":"3.17","rev":"3.17","proto_major":3,"proto_minor":12}
2017-11-16 14:11:12 1510859472.219870: {"class":"DEVICES","devices":[{"class":"DEVICE","path":"/dev/ttyUSB0","driver":"SiRF","subtype":"9\u0006GSD4e_4.1.2-P1_RPATCH.05-F-GPS-4R-1510281 11/03/2015 307","activated":"2017-11-16T19:11:11.770Z","flags":1,"native":1,"bps":4800,"parity":"N","stopbits":1,"cycle":1.00}]}
2017-11-16 14:11:12 1510859472.219997: {"class":"WATCH","enable":true,"json":false,"nmea":true,"raw":0,"scaled":false,"timing":false,"split24":false,"pps":false}
2017-11-16 14:11:12 1510859472.220070: $GPGSV,3,1,12,08,06,322,34,10,41,300,44,13,08,048,31,15,38,052,50*7C
2017-11-16 14:11:12 1510859472.220128: $GPGSV,3,2,12,18,70,334,47,21,65,192,46,20,33,096,46,24,50,111,48*7B
2017-11-16 14:11:12 1510859472.220194: $GPGSV,3,3,12,27,19,289,35,32,20,237,46,14,04,232,00,138,38,213,44*46
2017-11-16 14:11:12 1510859472.333134: $GPZDA,191108.00,16,11,2017,00,00*65
2017-11-16 14:11:12 1510859472.333311: $GPGGA,191108,3946.9546,N,08404.9852,W,1,11,0.80,305.08,M,-33.324,M,,*76
2017-11-16 14:11:12 1510859472.333372: $GPRMC,191108,A,3946.9546,N,08404.9852,W,0.0000,0.000,161117,,*36
2017-11-16 14:11:12 1510859472.333427: $GPGSA,A,3,8,10,13,15,18,21,20,24,27,32,138,,1.6,0.8,1.3*30
2017-11-16 14:11:12 1510859472.783974: $GPZDA,191109.00,16,11,2017,00,00*64
2017-11-16 14:11:12 1510859472.784134: $GPGGA,191109,3946.9546,N,08404.9852,W,1,11,0.80,305.08,M,-33.324,M,,*77
2017-11-16 14:11:12 1510859472.784195: $GPRMC,191109,A,3946.9546,N,08404.9852,W,0.0000,0.000,161117,,*37
2017-11-16 14:11:12 1510859472.784251: $GPGSA,A,3,8,10,13,15,18,21,20,24,27,32,138,,1.6,0.8,1.3*30
2017-11-16 14:11:13 1510859473.235078: $GPZDA,191110.00,16,11,2017,00,00*6C
2017-11-16 14:11:13 1510859473.235239: $GPGGA,191110,3946.9546,N,08404.9852,W,1,11,0.80,305.08,M,-33.324,M,,*7F
2017-11-16 14:11:13 1510859473.235300: $GPRMC,191110,A,3946.9546,N,08404.9852,W,0.0000,0.000,161117,,*3F
2017-11-16 14:11:13 1510859473.235356: $GPGSA,A,3,8,10,13,15,18,21,20,24,27,32,138,,1.6,0.8,1.3*30
2017-11-16 14:11:14 1510859474.023188: $GPGSV,3,1,12,08,06,322,34,10,41,300,44,13,08,048,31,15,38,052,50*7C
2017-11-16 14:11:14 1510859474.023368: $GPGSV,3,2,12,18,70,334,47,21,65,192,47,20,33,096,46,24,50,111,48*7A
2017-11-16 14:11:14 1510859474.023453: $GPGSV,3,3,12,27,19,289,36,32,20,237,46,14,04,232,00,138,38,213,44*45
2017-11-16 14:11:14 1510859474.136757: $GPZDA,191111.00,16,11,2017,00,00*6D
2017-11-16 14:11:14 1510859474.136945: $GPGGA,191111,3946.9546,N,08404.9852,W,1,11,0.80,305.08,M,-33.324,M,,*7E
2017-11-16 14:11:14 1510859474.137008: $GPRMC,191111,A,3946.9546,N,08404.9852,W,0.0000,0.000,161117,,*3E
2017-11-16 14:11:14 1510859474.137065: $GPGSA,A,3,8,10,13,15,18,21,20,24,27,32,138,,1.6,0.8,1.3*30
2017-11-16 14:11:14 1510859474.587359: $GPZDA,191112.00,16,11,2017,00,00*6E
2017-11-16 14:11:14 1510859474.587527: $GPGGA,191112,3946.9546,N,08404.9852,W,1,11,0.80,305.08,M,-33.324,M,,*7D
2017-11-16 14:11:14 1510859474.587609: $GPRMC,191112,A,3946.9546,N,08404.9852,W,0.0000,0.000,161117,,*3D
2017-11-16 14:11:14 1510859474.587667: $GPGSA,A,3,8,10,13,15,18,21,20,24,27,32,138,,1.6,0.8,1.3*30
2017-11-16 14:11:15 1510859475.212759: $GPZDA,191113.00,16,11,2017,00,00*6F
2017-11-16 14:11:15 1510859475.212923: $GPGGA,191113,3946.9546,N,08404.9852,W,1,11,0.80,305.08,M,-33.324,M,,*7C
2017-11-16 14:11:15 1510859475.212984: $GPRMC,191113,A,3946.9546,N,08404.9852,W,0.0000,0.000,161117,,*3C
2017-11-16 14:11:15 1510859475.213040: $GPGSA,A,3,8,10,13,15,18,21,20,24,27,32,138,,1.6,0.8,1.3*30
2017-11-16 14:11:15 1510859475.999783: $GPGSV,3,1,12,08,06,322,34,10,41,300,44,13,08,048,31,15,38,052,50*7C
2017-11-16 14:11:15 1510859475.999935: $GPGSV,3,2,12,18,70,334,47,21,65,192,47,20,33,096,46,24,50,111,48*7A
2017-11-16 14:11:15 1510859475.999995: $GPGSV,3,3,12,27,19,289,36,32,20,237,45,14,04,232,00,138,38,213,45*47
2017-11-16 14:11:16 1510859476.113118: $GPZDA,191114.00,16,11,2017,00,00*68
2017-11-16 14:11:16 1510859476.113282: $GPGGA,191114,3946.9546,N,08404.9852,W,1,11,0.80,305.08,M,-33.324,M,,*7B
2017-11-16 14:11:16 1510859476.113394: $GPRMC,191114,A,3946.9546,N,08404.9852,W,0.0000,0.000,161117,,*3B
2017-11-16 14:11:16 1510859476.113453: $GPGSA,A,3,8,10,13,15,18,21,20,24,27,32,138,,1.6,0.8,1.3*30
2017-11-16 14:11:16 1510859476.565242: $GPZDA,191115.00,16,11,2017,00,00*69
2017-11-16 14:11:16 1510859476.565420: $GPGGA,191115,3946.9546,N,08404.9852,W,1,11,0.80,305.08,M,-33.324,M,,*7A
2017-11-16 14:11:16 1510859476.565484: $GPRMC,191115,A,3946.9546,N,08404.9852,W,0.0000,0.000,161117,,*3A
2017-11-16 14:11:16 1510859476.565542: $GPGSA,A,3,8,10,13,15,18,21,20,24,27,32,138,,1.6,0.8,1.3*30
2017-11-16 14:11:17 1510859477.528850: $GPZDA,191116.00,16,11,2017,00,00*6A
2017-11-16 14:11:17 1510859477.529013: $GPGGA,191116,3946.9546,N,08404.9852,W,1,11,0.80,305.08,M,-33.324,M,,*79
2017-11-16 14:11:17 1510859477.529076: $GPRMC,191116,A,3946.9546,N,08404.9852,W,0.0000,0.000,161117,,*39
2017-11-16 14:11:17 1510859477.529135: $GPGSA,A,3,8,10,13,15,18,21,20,24,27,32,138,,1.6,0.8,1.3*30
2017-11-16 14:11:18 1510859478.865714: $GPGSV,3,1,12,08,06,322,35,10,41,300,43,13,08,048,31,15,38,052,51*7B
2017-11-16 14:11:18 1510859478.865896: $GPGSV,3,2,12,18,70,334,47,21,65,192,47,20,33,096,45,24,50,111,48*79
2017-11-16 14:11:18 1510859478.865959: $GPGSV,3,3,12,27,19,289,36,32,20,237,45,14,04,232,18,138,38,213,44*4F
2017-11-16 14:11:18 1510859478.979919: $GPZDA,191117.00,16,11,2017,00,00*6B
2017-11-16 14:11:18 1510859478.980088: $GPGGA,191117,3946.9546,N,08404.9852,W,1,11,0.80,305.08,M,-33.324,M,,*78
2017-11-16 14:11:18 1510859478.980162: $GPRMC,191117,A,3946.9546,N,08404.9852,W,0.0000,0.000,161117,,*38
2017-11-16 14:11:18 1510859478.980225: $GPGSA,A,3,8,10,13,15,18,21,20,24,27,32,138,,1.6,0.8,1.3*30
2017-11-16 14:11:19 1510859479.605046: $GPZDA,191118.00,16,11,2017,00,00*64
2017-11-16 14:11:19 1510859479.605250: $GPGGA,191118,3946.9546,N,08404.9852,W,1,11,0.80,305.08,M,-33.324,M,,*77
2017-11-16 14:11:19 1510859479.605330: $GPRMC,191118,A,3946.9546,N,08404.9852,W,0.0000,0.000,161117,,*37
2017-11-16 14:11:19 1510859479.605422: $GPGSA,A,3,8,10,13,15,18,21,20,24,27,32,138,,1.6,0.8,1.3*30
2017-11-16 14:11:20 1510859480.527764: $GPZDA,191119.00,16,11,2017,00,00*65
2017-11-16 14:11:20 1510859480.527935: $GPGGA,191119,3946.9546,N,08404.9852,W,1,11,0.80,305.08,M,-33.324,M,,*76
2017-11-16 14:11:20 1510859480.527999: $GPRMC,191119,A,3946.9546,N,08404.9852,W,0.0000,0.000,161117,,*36
2017-11-16 14:11:20 1510859480.528059: $GPGSA,A,3,8,10,13,15,18,21,20,24,27,32,138,,1.6,0.8,1.3*30
2017-11-16 14:11:21 1510859481.863572: $GPGSV,3,1,12,08,06,322,37,10,41,300,42,13,08,048,30,15,38,052,51*79
2017-11-16 14:11:21 1510859481.863754: $GPGSV,3,2,12,18,70,334,47,21,65,192,47,20,33,096,46,24,50,111,48*7A
2017-11-16 14:11:21 1510859481.863817: $GPGSV,3,3,12,27,19,289,37,32,20,237,45,14,04,232,00,138,38,213,43*40
2017-11-16 14:11:21 1510859481.976878: $GPZDA,191120.00,16,11,2017,00,00*6F
2017-11-16 14:11:21 1510859481.977046: $GPGGA,191120,3946.9546,N,08404.9852,W,1,11,0.80,305.08,M,-33.324,M,,*7C
2017-11-16 14:11:21 1510859481.977111: $GPRMC,191120,A,3946.9546,N,08404.9852,W,0.0000,0.000,161117,,*3C
2017-11-16 14:11:21 1510859481.977170: $GPGSA,A,3,8,10,13,15,18,21,20,24,27,32,138,,1.6,0.8,1.3*30
