2017-12-29 10:53:56 1514562836.517025: {"class":"VERSION","release":"3.16","rev":"3.16-4","proto_major":3,"proto_minor":11}
2017-12-29 10:53:56 1514562836.517364: {"class":"DEVICES","devices":[{"class":"DEVICE","path":"/dev/ttyUSB0","driver":"SiRF","subtype":"9\u0006GSD4e_4.1.2-P1_RPATCH.05-F-GPS-4R-1510281 11/03/2015 307","activated":"2017-12-29T15:53:56.291Z","flags":1,"native":1,"bps":4800,"parity":"N","stopbits":1,"cycle":1.00}]}
2017-12-29 10:53:56 1514562836.517479: {"class":"WATCH","enable":true,"json":false,"nmea":true,"raw":0,"scaled":false,"timing":false,"split24":false,"pps":false}
2017-12-29 10:53:56 1514562836.741363: $GPGSV,3,1,11,10,33,294,43,13,16,046,42,15,47,049,50,18,64,318,45*7C
2017-12-29 10:53:56 1514562836.741547: $GPGSV,3,2,11,20,42,085,50,21,74,205,47,24,44,124,50,27,19,300,41*7F
2017-12-29 10:53:56 1514562836.741612: $GPGSV,3,3,11,32,13,232,28,08,01,330,29,138,38,213,45*71
2017-12-29 10:53:56 1514562836.853426: $GPZDA,155357.00,29,12,2017,00,00*6A
2017-12-29 10:53:56 1514562836.853565: $GPGGA,155357,3946.9593,N,08404.9818,W,2,11,0.80,302.48,M,-33.324,M,,*70
2017-12-29 10:53:56 1514562836.853627: $GPRMC,155357,A,3946.9593,N,08404.9818,W,0.0000,0.000,291217,,*3F
2017-12-29 10:53:56 1514562836.853687: $GPGSA,A,3,10,13,15,18,20,21,24,27,32,8,138,,1.7,0.8,1.3*31
2017-12-29 10:53:57 1514562837.360533: $GPZDA,155358.00,29,12,2017,00,00*65
2017-12-29 10:53:57 1514562837.360692: $GPGGA,155358,3946.9593,N,08404.9818,W,2,11,0.80,302.48,M,-33.324,M,,*7F
2017-12-29 10:53:57 1514562837.360759: $GPRMC,155358,A,3946.9593,N,08404.9818,W,0.0000,0.000,291217,,*30
2017-12-29 10:53:57 1514562837.360819: $GPGSA,A,3,10,13,15,18,20,21,24,27,32,8,138,,1.7,0.8,1.3*31
2017-12-29 10:53:58 1514562838.365183: $GPZDA,155359.00,29,12,2017,00,00*64
2017-12-29 10:53:58 1514562838.365348: $GPGGA,155359,3946.9593,N,08404.9818,W,2,11,0.80,302.48,M,-33.324,M,,*7E
2017-12-29 10:53:58 1514562838.365413: $GPRMC,155359,A,3946.9593,N,08404.9818,W,0.0000,0.000,291217,,*31
2017-12-29 10:53:58 1514562838.365474: $GPGSA,A,3,10,13,15,18,20,21,24,27,32,8,138,,1.7,0.8,1.3*31
2017-12-29 10:53:59 1514562839.702940: $GPGSV,3,1,11,10,33,294,42,13,16,046,43,15,47,049,50,18,64,318,44*7D
2017-12-29 10:53:59 1514562839.703093: $GPGSV,3,2,11,20,42,085,50,21,74,205,47,24,44,124,50,27,19,300,41*7F
2017-12-29 10:53:59 1514562839.703158: $GPGSV,3,3,11,32,13,232,28,08,01,330,30,138,38,213,44*78
2017-12-29 10:53:59 1514562839.816275: $GPZDA,155400.00,29,12,2017,00,00*6F
2017-12-29 10:53:59 1514562839.816417: $GPGGA,155400,3946.9593,N,08404.9818,W,2,11,0.80,302.48,M,-33.324,M,,*75
2017-12-29 10:53:59 1514562839.816483: $GPRMC,155400,A,3946.9593,N,08404.9818,W,0.0000,0.000,291217,,*3A
2017-12-29 10:53:59 1514562839.816543: $GPGSA,A,3,10,13,15,18,20,21,24,27,32,8,138,,1.7,0.8,1.3*31
2017-12-29 10:54:00 1514562840.404657: $GPZDA,155401.00,29,12,2017,00,00*6E
2017-12-29 10:54:00 1514562840.404800: $GPGGA,155401,3946.9593,N,08404.9818,W,2,11,0.80,302.48,M,-33.324,M,,*74
2017-12-29 10:54:00 1514562840.404865: $GPRMC,155401,A,3946.9593,N,08404.9818,W,0.0000,0.000,291217,,*3B
2017-12-29 10:54:00 1514562840.404925: $GPGSA,A,3,10,13,15,18,20,21,24,27,32,8,138,,1.7,0.8,1.3*31
2017-12-29 10:54:01 1514562841.870678: $GPZDA,155402.00,29,12,2017,00,00*6D
2017-12-29 10:54:01 1514562841.870837: $GPGGA,155402,3946.9593,N,08404.9818,W,2,11,0.80,302.48,M,-33.324,M,,*77
2017-12-29 10:54:01 1514562841.870903: $GPRMC,155402,A,3946.9593,N,08404.9818,W,0.0000,0.000,291217,,*38
2017-12-29 10:54:01 1514562841.870964: $GPGSA,A,3,10,13,15,18,20,21,24,27,32,8,138,,1.7,0.8,1.3*31
2017-12-29 10:54:02 1514562842.701452: $GPGSV,3,1,11,10,34,294,42,13,16,046,42,15,47,049,50,18,65,319,44*7B
2017-12-29 10:54:02 1514562842.701628: $GPGSV,3,2,11,20,42,085,50,21,73,204,46,24,45,124,50,27,19,300,42*7A
2017-12-29 10:54:02 1514562842.701694: $GPGSV,3,3,11,32,13,232,28,08,02,330,30,138,38,213,45*7A
2017-12-29 10:54:02 1514562842.814731: $GPZDA,155403.00,29,12,2017,00,00*6C
2017-12-29 10:54:02 1514562842.814866: $GPGGA,155403,3946.9593,N,08404.9818,W,2,11,0.80,302.48,M,-33.324,M,,*76
2017-12-29 10:54:02 1514562842.814984: $GPRMC,155403,A,3946.9593,N,08404.9818,W,0.0000,0.000,291217,,*39
2017-12-29 10:54:02 1514562842.815046: $GPGSA,A,3,10,13,15,18,20,21,24,27,32,8,138,,1.7,0.8,1.3*31
2017-12-29 10:54:03 1514562843.365649: $GPZDA,155404.00,29,12,2017,00,00*6B
2017-12-29 10:54:03 1514562843.365801: $GPGGA,155404,3946.9593,N,08404.9818,W,2,11,0.80,302.48,M,-33.324,M,,*71
2017-12-29 10:54:03 1514562843.365866: $GPRMC,155404,A,3946.9593,N,08404.9818,W,0.0000,0.000,291217,,*3E
2017-12-29 10:54:03 1514562843.365926: $GPGSA,A,3,10,13,15,18,20,21,24,27,32,8,138,,1.7,0.8,1.3*31
2017-12-29 10:54:04 1514562844.366044: $GPZDA,155405.00,29,12,2017,00,00*6A
2017-12-29 10:54:04 1514562844.366214: $GPGGA,155405,3946.9593,N,08404.9818,W,2,11,0.80,302.48,M,-33.324,M,,*70
2017-12-29 10:54:04 1514562844.366279: $GPRMC,155405,A,3946.9593,N,08404.9818,W,0.0000,0.000,291217,,*3F
2017-12-29 10:54:04 1514562844.366340: $GPGSA,A,3,10,13,15,18,20,21,24,27,32,8,138,,1.7,0.8,1.3*31
2017-12-29 10:54:05 1514562845.700521: $GPGSV,3,1,11,10,34,294,42,13,16,046,42,15,47,049,50,18,65,319,44*7B
2017-12-29 10:54:05 1514562845.700699: $GPGSV,3,2,11,20,42,085,50,21,73,204,47,24,45,124,50,27,19,300,42*7B
2017-12-29 10:54:05 1514562845.700764: $GPGSV,3,3,11,32,13,232,28,08,02,330,31,138,38,213,45*7B
2017-12-29 10:54:05 1514562845.813835: $GPZDA,155406.00,29,12,2017,00,00*69
2017-12-29 10:54:05 1514562845.813968: $GPGGA,155406,3946.9593,N,08404.9818,W,2,11,0.80,302.48,M,-33.324,M,,*73
2017-12-29 10:54:05 1514562845.814050: $GPRMC,155406,A,3946.9593,N,08404.9818,W,0.0000,0.000,291217,,*3C
2017-12-29 10:54:05 1514562845.814112: $GPGSA,A,3,10,13,15,18,20,21,24,27,32,8,138,,1.7,0.8,1.3*31
2017-12-29 10:54:06 1514562846.364717: $GPZDA,155407.00,29,12,2017,00,00*68
2017-12-29 10:54:06 1514562846.364857: $GPGGA,155407,3946.9593,N,08404.9818,W,2,11,0.80,302.48,M,-33.324,M,,*72
2017-12-29 10:54:06 1514562846.364920: $GPRMC,155407,A,3946.9593,N,08404.9818,W,0.0000,0.000,291217,,*3D
2017-12-29 10:54:06 1514562846.364979: $GPGSA,A,3,10,13,15,18,20,21,24,27,32,8,138,,1.7,0.8,1.3*31
2017-12-29 10:54:07 1514562847.366867: $GPZDA,155408.00,29,12,2017,00,00*67
2017-12-29 10:54:07 1514562847.367029: $GPGGA,155408,3946.9593,N,08404.9818,W,2,11,0.80,302.48,M,-33.324,M,,*7D
2017-12-29 10:54:07 1514562847.367095: $GPRMC,155408,A,3946.9593,N,08404.9818,W,0.0000,0.000,291217,,*32
2017-12-29 10:54:07 1514562847.367155: $GPGSA,A,3,10,13,15,18,20,21,24,27,32,8,138,,1.7,0.8,1.3*31
2017-12-29 10:54:08 1514562848.702635: $GPGSV,3,1,11,10,34,294,42,13,16,046,43,15,47,049,50,18,65,319,44*7A
2017-12-29 10:54:08 1514562848.702810: $GPGSV,3,2,11,20,42,085,51,21,73,204,47,24,45,124,51,27,19,300,42*7B
2017-12-29 10:54:08 1514562848.702875: $GPGSV,3,3,11,32,13,232,29,08,02,330,31,138,38,213,45*7A
2017-12-29 10:54:08 1514562848.814700: $GPZDA,155409.00,29,12,2017,00,00*66
2017-12-29 10:54:08 1514562848.814826: $GPGGA,155409,3946.9593,N,08404.9818,W,2,11,0.80,302.48,M,-33.324,M,,*7C
2017-12-29 10:54:08 1514562848.814890: $GPRMC,155409,A,3946.9593,N,08404.9818,W,0.0000,0.000,291217,,*33
2017-12-29 10:54:08 1514562848.814950: $GPGSA,A,3,10,13,15,18,20,21,24,27,32,8,138,,1.7,0.8,1.3*31
2017-12-29 10:54:09 1514562849.441342: $GPZDA,155410.00,29,12,2017,00,00*6E
2017-12-29 10:54:09 1514562849.441484: $GPGGA,155410,3946.9593,N,08404.9818,W,2,11,0.80,302.48,M,-33.324,M,,*74
2017-12-29 10:54:09 1514562849.441548: $GPRMC,155410,A,3946.9593,N,08404.9818,W,0.0000,0.000,291217,,*3B
2017-12-29 10:54:09 1514562849.441607: $GPGSA,A,3,10,13,15,18,20,21,24,27,32,8,138,,1.7,0.8,1.3*31
2017-12-29 10:54:10 1514562850.364741: $GPZDA,155411.00,29,12,2017,00,00*6F
2017-12-29 10:54:10 1514562850.364908: $GPGGA,155411,3946.9593,N,08404.9818,W,2,11,0.80,302.48,M,-33.324,M,,*75
2017-12-29 10:54:10 1514562850.364974: $GPRMC,155411,A,3946.9593,N,08404.9818,W,0.0000,0.000,291217,,*3A
2017-12-29 10:54:10 1514562850.365034: $GPGSA,A,3,10,13,15,18,20,21,24,27,32,8,138,,1.7,0.8,1.3*31
