2017-12-01 12:21:12 1512148872.756664: {"class":"VERSION","release":"3.16","rev":"3.16-4","proto_major":3,"proto_minor":11}
2017-12-01 12:21:12 1512148872.757076: {"class":"DEVICES","devices":[{"class":"DEVICE","path":"/dev/ttyUSB0","driver":"SiRF","subtype":"9\u0006GSD4e_4.1.2-P1_RPATCH.05-F-GPS-4R-1510281 11/03/2015 307","activated":"2017-12-01T17:21:12.490Z","flags":1,"native":1,"bps":4800,"parity":"N","stopbits":1,"cycle":1.00}]}
2017-12-01 12:21:12 1512148872.757227: {"class":"WATCH","enable":true,"json":false,"nmea":true,"raw":0,"scaled":false,"timing":false,"split24":false,"pps":false}
2017-12-01 12:21:13 1512148873.685322: $GPGSV,3,1,12,10,24,283,39,13,28,045,43,15,60,051,47,18,55,301,46*7E
2017-12-01 12:21:13 1512148873.685541: $GPGSV,3,2,12,20,51,073,45,21,79,262,42,24,34,138,48,27,17,312,32*70
2017-12-01 12:21:13 1512148873.685611: $GPGSV,3,3,12,05,03,088,00,29,09,189,27,32,02,226,16,138,38,213,46*4A
2017-12-01 12:21:13 1512148873.798942: $GPZDA,172114.00,01,12,2017,00,00*60
2017-12-01 12:21:13 1512148873.799104: $GPGGA,172114,3946.9577,N,08404.9839,W,2,11,0.80,298.28,M,-33.324,M,,*7D
2017-12-01 12:21:13 1512148873.799170: $GPRMC,172114,A,3946.9577,N,08404.9839,W,0.0000,0.000,011217,,*3C
2017-12-01 12:21:13 1512148873.799231: $GPGSA,A,3,10,13,15,18,20,21,24,27,29,32,138,,2.0,0.8,1.5*00
2017-12-01 12:21:14 1512148874.348327: $GPZDA,172115.00,01,12,2017,00,00*61
2017-12-01 12:21:14 1512148874.348518: $GPGGA,172115,3946.9577,N,08404.9839,W,2,11,0.80,298.28,M,-33.324,M,,*7C
2017-12-01 12:21:14 1512148874.348588: $GPRMC,172115,A,3946.9577,N,08404.9839,W,0.0000,0.000,011217,,*3D
2017-12-01 12:21:14 1512148874.348681: $GPGSA,A,3,10,13,15,18,20,21,24,27,29,32,138,,2.0,0.8,1.5*00
2017-12-01 12:21:15 1512148875.349196: $GPZDA,172116.00,01,12,2017,00,00*62
2017-12-01 12:21:15 1512148875.349370: $GPGGA,172116,3946.9577,N,08404.9839,W,2,11,0.80,298.28,M,-33.324,M,,*7F
2017-12-01 12:21:15 1512148875.349437: $GPRMC,172116,A,3946.9577,N,08404.9839,W,0.0000,0.000,011217,,*3E
2017-12-01 12:21:15 1512148875.349523: $GPGSA,A,3,10,13,15,18,20,21,24,27,29,32,138,,2.0,0.8,1.5*00
2017-12-01 12:21:16 1512148876.686189: $GPGSV,3,1,12,10,24,283,40,13,28,045,43,15,60,051,47,18,55,301,46*70
2017-12-01 12:21:16 1512148876.686342: $GPGSV,3,2,12,20,51,073,45,21,79,262,41,24,34,138,47,27,17,312,29*76
2017-12-01 12:21:16 1512148876.686407: $GPGSV,3,3,12,05,03,088,00,29,09,189,27,32,02,226,23,138,38,213,46*4C
2017-12-01 12:21:16 1512148876.799572: $GPZDA,172117.00,01,12,2017,00,00*63
2017-12-01 12:21:16 1512148876.799776: $GPGGA,172117,3946.9577,N,08404.9839,W,2,11,0.80,298.28,M,-33.324,M,,*7E
2017-12-01 12:21:16 1512148876.799844: $GPRMC,172117,A,3946.9577,N,08404.9839,W,0.0000,0.000,011217,,*3F
2017-12-01 12:21:16 1512148876.799905: $GPGSA,A,3,10,13,15,18,20,21,24,27,29,32,138,,2.0,0.8,1.5*00
2017-12-01 12:21:17 1512148877.425210: $GPZDA,172118.00,01,12,2017,00,00*6C
2017-12-01 12:21:17 1512148877.425378: $GPGGA,172118,3946.9577,N,08404.9839,W,2,11,0.80,298.28,M,-33.324,M,,*71
2017-12-01 12:21:17 1512148877.425444: $GPRMC,172118,A,3946.9577,N,08404.9839,W,0.0000,0.000,011217,,*30
2017-12-01 12:21:17 1512148877.425527: $GPGSA,A,3,10,13,15,18,20,21,24,27,29,32,138,,2.0,0.8,1.5*00
2017-12-01 12:21:18 1512148878.343309: $GPZDA,172119.00,01,12,2017,00,00*6D
2017-12-01 12:21:18 1512148878.343508: $GPGGA,172119,3946.9577,N,08404.9839,W,2,11,0.80,298.28,M,-33.324,M,,*70
2017-12-01 12:21:18 1512148878.343577: $GPRMC,172119,A,3946.9577,N,08404.9839,W,0.0000,0.000,011217,,*31
2017-12-01 12:21:18 1512148878.343658: $GPGSA,A,3,10,13,15,18,20,21,24,27,29,32,138,,2.0,0.8,1.5*00
2017-12-01 12:21:19 1512148879.686569: $GPGSV,3,1,12,10,24,283,40,13,28,045,43,15,60,051,46,18,55,301,46*71
2017-12-01 12:21:19 1512148879.686779: $GPGSV,3,2,12,20,51,073,46,21,79,262,42,24,34,138,48,27,17,312,29*79
2017-12-01 12:21:19 1512148879.686850: $GPGSV,3,3,12,05,03,088,00,29,09,189,27,32,02,226,23,138,38,213,46*4C
2017-12-01 12:21:19 1512148879.799961: $GPZDA,172120.00,01,12,2017,00,00*67
2017-12-01 12:21:19 1512148879.800140: $GPGGA,172120,3946.9577,N,08404.9839,W,2,11,0.80,298.28,M,-33.324,M,,*7A
2017-12-01 12:21:19 1512148879.800262: $GPRMC,172120,A,3946.9577,N,08404.9839,W,0.0000,0.000,011217,,*3B
2017-12-01 12:21:19 1512148879.800325: $GPGSA,A,3,10,13,15,18,20,21,24,27,29,32,138,,2.0,0.8,1.5*00
2017-12-01 12:21:20 1512148880.343361: $GPZDA,172121.00,01,12,2017,00,00*66
2017-12-01 12:21:20 1512148880.343554: $GPGGA,172121,3946.9577,N,08404.9839,W,2,11,0.80,298.28,M,-33.324,M,,*7B
2017-12-01 12:21:20 1512148880.343639: $GPRMC,172121,A,3946.9577,N,08404.9839,W,0.0000,0.000,011217,,*3A
2017-12-01 12:21:20 1512148880.343700: $GPGSA,A,3,10,13,15,18,20,21,24,27,29,32,138,,2.0,0.8,1.5*00
2017-12-01 12:21:21 1512148881.347915: $GPZDA,172122.00,01,12,2017,00,00*65
2017-12-01 12:21:21 1512148881.348091: $GPGGA,172122,3946.9577,N,08404.9839,W,2,11,0.80,298.28,M,-33.324,M,,*78
2017-12-01 12:21:21 1512148881.348159: $GPRMC,172122,A,3946.9577,N,08404.9839,W,0.0000,0.000,011217,,*39
2017-12-01 12:21:21 1512148881.348221: $GPGSA,A,3,10,13,15,18,20,21,24,27,29,32,138,,2.0,0.8,1.5*00
2017-12-01 12:21:22 1512148882.684389: $GPGSV,3,1,12,10,24,283,40,13,28,045,43,15,60,051,47,18,55,301,46*70
2017-12-01 12:21:22 1512148882.684617: $GPGSV,3,2,12,20,51,073,46,21,79,262,42,24,34,138,48,27,17,312,23*73
2017-12-01 12:21:22 1512148882.684686: $GPGSV,3,3,12,05,03,088,00,29,09,189,27,32,02,226,23,138,38,213,46*4C
