2017-11-16 17:20:33 1510870833.661824: {"class":"VERSION","release":"3.17","rev":"3.17","proto_major":3,"proto_minor":12}
2017-11-16 17:20:33 1510870833.662619: {"class":"DEVICES","devices":[{"class":"DEVICE","path":"/dev/ttyUSB0","driver":"SiRF","subtype":"9\u0006GSD4e_4.1.2-P1_RPATCH.05-F-GPS-4R-1510281 11/03/2015 307","activated":"2017-11-16T22:20:33.288Z","flags":1,"native":1,"bps":4800,"parity":"N","stopbits":1,"cycle":1.00}]}
2017-11-16 17:20:33 1510870833.662744: {"class":"WATCH","enable":true,"json":false,"nmea":true,"raw":0,"scaled":false,"timing":false,"split24":false,"pps":false}
2017-11-16 17:20:33 1510870833.738216: $GPGSV,3,1,12,01,20,306,41,10,54,145,49,22,14,312,42,12,24,055,50*75
2017-11-16 17:20:33 1510870833.738402: $GPGSV,3,2,12,14,63,316,47,18,24,142,42,24,02,048,15,11,10,288,39*77
2017-11-16 17:20:33 1510870833.738464: $GPGSV,3,3,12,25,38,097,48,31,49,220,48,32,70,010,49,138,38,213,44*4C
2017-11-16 17:20:33 1510870833.851366: $GPZDA,222032.00,16,11,2017,00,00*66
2017-11-16 17:20:33 1510870833.851523: $GPGGA,222032,3946.9570,N,08404.9831,W,2,12,0.80,309.16,M,-33.324,M,,*76
2017-11-16 17:20:33 1510870833.851583: $GPRMC,222032,A,3946.9570,N,08404.9831,W,0.0000,0.000,161117,,*35
2017-11-16 17:20:33 1510870833.851640: $GPGSA,A,3,1,10,22,12,14,18,24,11,25,31,32,138,1.6,0.8,1.3*38
2017-11-16 17:20:34 1510870834.400675: $GPZDA,222033.00,16,11,2017,00,00*67
2017-11-16 17:20:34 1510870834.407928: $GPGGA,222033,3946.9570,N,08404.9831,W,2,12,0.80,309.16,M,-33.324,M,,*77
2017-11-16 17:20:34 1510870834.408033: $GPRMC,222033,A,3946.9570,N,08404.9831,W,0.0000,0.000,161117,,*34
2017-11-16 17:20:34 1510870834.408091: $GPGSA,A,3,1,10,22,12,14,18,24,11,25,31,32,138,1.6,0.8,1.3*38
2017-11-16 17:20:35 1510870835.401526: $GPZDA,222034.00,16,11,2017,00,00*60
2017-11-16 17:20:35 1510870835.401705: $GPGGA,222034,3946.9570,N,08404.9831,W,2,12,0.80,309.16,M,-33.324,M,,*70
2017-11-16 17:20:35 1510870835.401767: $GPRMC,222034,A,3946.9570,N,08404.9831,W,0.0000,0.000,161117,,*33
2017-11-16 17:20:35 1510870835.401826: $GPGSA,A,3,1,10,22,12,14,18,24,11,25,31,32,138,1.6,0.8,1.3*38
2017-11-16 17:20:36 1510870836.738092: $GPGSV,3,1,12,01,20,306,41,10,54,145,49,22,14,312,42,12,24,055,50*75
2017-11-16 17:20:36 1510870836.738264: $GPGSV,3,2,12,14,63,316,47,18,24,142,41,24,02,048,15,11,10,288,41*7B
2017-11-16 17:20:36 1510870836.738324: $GPGSV,3,3,12,25,38,097,48,31,49,220,48,32,70,010,49,138,38,213,45*4D
2017-11-16 17:20:36 1510870836.851389: $GPZDA,222035.00,16,11,2017,00,00*61
2017-11-16 17:20:36 1510870836.851544: $GPGGA,222035,3946.9570,N,08404.9831,W,2,12,0.80,309.16,M,-33.324,M,,*71
2017-11-16 17:20:36 1510870836.851604: $GPRMC,222035,A,3946.9570,N,08404.9831,W,0.0000,0.000,161117,,*32
2017-11-16 17:20:36 1510870836.851660: $GPGSA,A,3,1,10,22,12,14,18,24,11,25,31,32,138,1.6,0.8,1.3*38
2017-11-16 17:20:37 1510870837.402456: $GPZDA,222036.00,16,11,2017,00,00*62
2017-11-16 17:20:37 1510870837.402633: $GPGGA,222036,3946.9570,N,08404.9831,W,2,12,0.80,309.16,M,-33.324,M,,*72
2017-11-16 17:20:37 1510870837.402695: $GPRMC,222036,A,3946.9570,N,08404.9831,W,0.0000,0.000,161117,,*31
2017-11-16 17:20:37 1510870837.402752: $GPGSA,A,3,1,10,22,12,14,18,24,11,25,31,32,138,1.6,0.8,1.3*38
2017-11-16 17:20:38 1510870838.400683: $GPZDA,222037.00,16,11,2017,00,00*63
2017-11-16 17:20:38 1510870838.400853: $GPGGA,222037,3946.9570,N,08404.9831,W,2,12,0.80,309.16,M,-33.324,M,,*73
2017-11-16 17:20:38 1510870838.400918: $GPRMC,222037,A,3946.9570,N,08404.9831,W,0.0000,0.000,161117,,*30
2017-11-16 17:20:38 1510870838.400974: $GPGSA,A,3,1,10,22,12,14,18,24,11,25,31,32,138,1.6,0.8,1.3*38
2017-11-16 17:20:39 1510870839.737714: $GPGSV,3,1,12,01,20,306,40,10,54,145,48,22,14,312,42,12,24,055,50*75
2017-11-16 17:20:39 1510870839.737906: $GPGSV,3,2,12,14,63,316,47,18,24,142,41,24,02,048,15,11,10,288,41*7B
2017-11-16 17:20:39 1510870839.737967: $GPGSV,3,3,12,25,38,097,48,31,49,220,49,32,70,010,49,138,38,213,44*4D
2017-11-16 17:20:39 1510870839.851054: $GPZDA,222038.00,16,11,2017,00,00*6C
2017-11-16 17:20:39 1510870839.851225: $GPGGA,222038,3946.9570,N,08404.9831,W,2,12,0.80,309.16,M,-33.324,M,,*7C
2017-11-16 17:20:39 1510870839.851340: $GPRMC,222038,A,3946.9570,N,08404.9831,W,0.0000,0.000,161117,,*3F
2017-11-16 17:20:39 1510870839.851400: $GPGSA,A,3,1,10,22,12,14,18,24,11,25,31,32,138,1.6,0.8,1.3*38
2017-11-16 17:20:40 1510870840.397015: $GPZDA,222039.00,16,11,2017,00,00*6D
2017-11-16 17:20:40 1510870840.397182: $GPGGA,222039,3946.9570,N,08404.9831,W,2,12,0.80,309.16,M,-33.324,M,,*7D
2017-11-16 17:20:40 1510870840.397245: $GPRMC,222039,A,3946.9570,N,08404.9831,W,0.0000,0.000,161117,,*3E
2017-11-16 17:20:40 1510870840.397301: $GPGSA,A,3,1,10,22,12,14,18,24,11,25,31,32,138,1.6,0.8,1.3*38
2017-11-16 17:20:41 1510870841.401088: $GPZDA,222040.00,16,11,2017,00,00*63
2017-11-16 17:20:41 1510870841.401267: $GPGGA,222040,3946.9570,N,08404.9831,W,2,12,0.80,309.16,M,-33.324,M,,*73
2017-11-16 17:20:41 1510870841.401332: $GPRMC,222040,A,3946.9570,N,08404.9831,W,0.0000,0.000,161117,,*30
2017-11-16 17:20:41 1510870841.401392: $GPGSA,A,3,1,10,22,12,14,18,24,11,25,31,32,138,1.6,0.8,1.3*38
2017-11-16 17:20:42 1510870842.738190: $GPGSV,3,1,12,01,20,306,39,10,54,145,48,22,14,312,42,12,24,055,50*7B
2017-11-16 17:20:42 1510870842.738363: $GPGSV,3,2,12,14,63,316,46,18,24,142,41,24,02,048,15,11,10,288,42*79
2017-11-16 17:20:42 1510870842.738425: $GPGSV,3,3,12,25,38,097,47,31,49,220,49,32,70,010,48,138,38,213,44*43
2017-11-16 17:20:42 1510870842.851793: $GPZDA,222041.00,16,11,2017,00,00*62
2017-11-16 17:20:42 1510870842.851961: $GPGGA,222041,3946.9570,N,08404.9831,W,2,12,0.80,309.16,M,-33.324,M,,*72
2017-11-16 17:20:42 1510870842.852025: $GPRMC,222041,A,3946.9570,N,08404.9831,W,0.0000,0.000,161117,,*31
2017-11-16 17:20:42 1510870842.852084: $GPGSA,A,3,1,10,22,12,14,18,24,11,25,31,32,138,1.6,0.8,1.3*38
2017-11-16 17:20:43 1510870843.421515: $GPZDA,222042.00,16,11,2017,00,00*61
2017-11-16 17:20:43 1510870843.421678: $GPGGA,222042,3946.9570,N,08404.9831,W,2,12,0.80,309.16,M,-33.324,M,,*71
2017-11-16 17:20:43 1510870843.421743: $GPRMC,222042,A,3946.9570,N,08404.9831,W,0.0000,0.000,161117,,*32
2017-11-16 17:20:43 1510870843.421805: $GPGSA,A,3,1,10,22,12,14,18,24,11,25,31,32,138,1.6,0.8,1.3*38
