2017-12-01 17:07:29 1512166049.956828: {"class":"VERSION","release":"3.16","rev":"3.16-4","proto_major":3,"proto_minor":11}
2017-12-01 17:07:29 1512166049.957739: {"class":"DEVICES","devices":[{"class":"DEVICE","path":"/dev/ttyUSB0","driver":"SiRF","subtype":"9\u0006GSD4e_4.1.2-P1_RPATCH.05-F-GPS-4R-1510281 11/03/2015 307","activated":"2017-12-01T22:07:29.941Z","flags":1,"native":1,"bps":4800,"parity":"N","stopbits":1,"cycle":1.00}]}
2017-12-01 17:07:29 1512166049.957871: {"class":"WATCH","enable":true,"json":false,"nmea":true,"raw":0,"scaled":false,"timing":false,"split24":false,"pps":false}
2017-12-01 17:07:30 1512166050.054768: $GPZDA,220730.71,01,12,2017,00,00*62
2017-12-01 17:07:30 1512166050.054918: $GPGGA,220730,3946.9672,N,08404.9750,W,1,12,1.40,305.40,M,-33.324,M,,*79
2017-12-01 17:07:30 1512166050.054985: $GPRMC,220730,A,3946.9672,N,08404.9750,W,1.1508,122.853,011217,,*3C
2017-12-01 17:07:30 1512166050.055048: $GPGSA,A,3,1,3,10,14,22,26,31,32,12,11,25,138,2.0,1.4,1.5*0E
2017-12-01 17:07:30 1512166050.055129: $GPGBS,220730,10.70,M,15.43,M,35.28,M*03
2017-12-01 17:07:31 1512166051.160323: $GPZDA,220731.39,01,12,2017,00,00*6F
2017-12-01 17:07:31 1512166051.160493: $GPGGA,220731,3946.9672,N,08404.9750,W,1,12,1.40,305.40,M,-33.324,M,,*78
2017-12-01 17:07:31 1512166051.160560: $GPRMC,220731,A,3946.9672,N,08404.9750,W,0.3006,62.539,011217,,*01
2017-12-01 17:07:31 1512166051.160622: $GPGSA,A,3,1,3,10,14,22,26,31,32,12,11,25,138,2.0,1.4,1.5*0E
2017-12-01 17:07:32 1512166052.325020: $GPGSV,3,1,12,01,21,283,40,03,14,316,42,10,30,154,38,14,70,013,46*78
2017-12-01 17:07:32 1512166052.325216: $GPGSV,3,2,12,22,33,307,46,26,18,180,37,31,73,250,48,32,60,066,48*7B
2017-12-01 17:07:32 1512166052.325283: $GPGSV,3,3,12,11,02,268,06,12,13,037,07,25,39,067,08,138,38,213,00*45
2017-12-01 17:07:32 1512166052.438370: $GPZDA,220732.00,01,12,2017,00,00*66
2017-12-01 17:07:32 1512166052.438531: $GPGGA,220732,3946.9672,N,08404.9750,W,1,08,1.40,305.40,M,-33.324,M,,*70
2017-12-01 17:07:32 1512166052.438601: $GPRMC,220732,A,3946.9672,N,08404.9750,W,0.0000,0.000,011217,,*3C
2017-12-01 17:07:32 1512166052.438664: $GPGSA,A,3,1,3,10,14,22,26,31,32,,,,,2.0,1.4,1.5*30
2017-12-01 17:07:32 1512166052.889308: $GPZDA,220733.00,01,12,2017,00,00*67
2017-12-01 17:07:32 1512166052.889478: $GPGGA,220733,3946.9671,N,08404.9749,W,1,08,0.80,303.99,M,-33.324,M,,*75
2017-12-01 17:07:32 1512166052.889546: $GPRMC,220733,A,3946.9671,N,08404.9749,W,0.3006,242.539,011217,,*38
2017-12-01 17:07:32 1512166052.889608: $GPGSA,A,3,1,3,10,14,22,26,31,32,,,,,2.0,0.8,1.5*3D
2017-12-01 17:07:33 1512166053.444263: $GPZDA,220734.00,01,12,2017,00,00*60
2017-12-01 17:07:33 1512166053.444432: $GPGGA,220734,3946.9671,N,08404.9749,W,1,08,0.80,303.99,M,-33.324,M,,*72
2017-12-01 17:07:33 1512166053.444499: $GPRMC,220734,A,3946.9671,N,08404.9749,W,0.0407,322.012,011217,,*32
2017-12-01 17:07:33 1512166053.444561: $GPGSA,A,3,1,3,10,14,22,26,31,32,,,,,2.0,0.8,1.5*3D
2017-12-01 17:07:34 1512166054.782876: $GPGSV,3,1,12,01,21,283,38,03,14,316,40,10,30,154,36,14,70,013,45*78
2017-12-01 17:07:34 1512166054.783068: $GPGSV,3,2,12,22,33,307,45,26,18,180,36,31,73,250,47,32,60,066,47*79
2017-12-01 17:07:34 1512166054.783157: $GPGSV,3,3,12,18,02,148,10,12,13,037,21,25,39,067,24,138,38,213,42*46
2017-12-01 17:07:34 1512166054.896547: $GPZDA,220735.00,01,12,2017,00,00*61
2017-12-01 17:07:34 1512166054.896721: $GPGGA,220735,3946.9671,N,08404.9749,W,1,12,0.80,303.99,M,-33.324,M,,*78
2017-12-01 17:07:34 1512166054.896789: $GPRMC,220735,A,3946.9671,N,08404.9749,W,0.6012,242.539,011217,,*3E
2017-12-01 17:07:34 1512166054.896850: $GPGSA,A,3,1,3,10,14,22,26,31,32,18,12,25,138,2.0,0.8,1.5*0A
2017-12-01 17:07:35 1512166055.446109: $GPZDA,220736.00,01,12,2017,00,00*62
2017-12-01 17:07:35 1512166055.446275: $GPGGA,220736,3946.9667,N,08404.9749,W,1,12,0.80,303.35,M,-33.324,M,,*7A
2017-12-01 17:07:35 1512166055.446343: $GPRMC,220736,A,3946.9667,N,08404.9749,W,0.4137,224.854,011217,,*38
2017-12-01 17:07:35 1512166055.446404: $GPGSA,A,3,1,3,10,14,22,26,31,32,18,12,25,138,2.0,0.8,1.5*0A
2017-12-01 17:07:36 1512166056.447944: $GPZDA,220737.00,01,12,2017,00,00*63
2017-12-01 17:07:36 1512166056.448136: $GPGGA,220737,3946.9667,N,08404.9749,W,1,12,0.80,303.35,M,-33.324,M,,*7B
2017-12-01 17:07:36 1512166056.448205: $GPRMC,220737,A,3946.9667,N,08404.9749,W,0.0000,0.000,011217,,*35
2017-12-01 17:07:36 1512166056.448266: $GPGSA,A,3,1,3,10,14,22,26,31,32,18,12,25,138,2.0,0.8,1.5*0A
2017-12-01 17:07:36 1512166056.448325: $GPGBS,220737,10.70,M,15.43,M,35.28,M*04
2017-12-01 17:07:37 1512166057.783989: $GPGSV,3,1,12,01,21,283,38,03,14,316,41,10,30,154,35,14,70,013,45*7A
2017-12-01 17:07:37 1512166057.784197: $GPGSV,3,2,12,22,33,307,47,26,18,180,36,31,73,250,47,32,60,066,47*7B
2017-12-01 17:07:37 1512166057.784266: $GPGSV,3,3,12,11,02,268,26,12,13,037,20,25,39,067,25,138,38,213,40*49
2017-12-01 17:07:37 1512166057.897100: $GPZDA,220738.00,01,12,2017,00,00*6C
2017-12-01 17:07:37 1512166057.897274: $GPGGA,220738,3946.9670,N,08404.9748,W,1,12,0.80,302.59,M,-33.324,M,,*78
2017-12-01 17:07:37 1512166057.897341: $GPRMC,220738,A,3946.9670,N,08404.9748,W,0.0000,0.000,011217,,*3D
2017-12-01 17:07:37 1512166057.897401: $GPGSA,A,3,1,3,10,14,22,26,31,32,11,12,25,138,2.0,0.8,1.5*03
2017-12-01 17:07:38 1512166058.446839: $GPZDA,220739.00,01,12,2017,00,00*6D
2017-12-01 17:07:38 1512166058.447011: $GPGGA,220739,3946.9666,N,08404.9748,W,1,12,0.80,301.95,M,-33.324,M,,*7D
2017-12-01 17:07:38 1512166058.447077: $GPRMC,220739,A,3946.9666,N,08404.9748,W,0.0000,0.000,011217,,*3B
2017-12-01 17:07:38 1512166058.447138: $GPGSA,A,3,1,3,10,14,22,26,31,32,11,12,25,138,2.0,0.8,1.5*03
2017-12-01 17:07:39 1512166059.449634: $GPZDA,220740.00,01,12,2017,00,00*63
2017-12-01 17:07:39 1512166059.449808: $GPGGA,220740,3946.9664,N,08404.9739,W,2,12,1.20,297.82,M,-33.324,M,,*77
2017-12-01 17:07:39 1512166059.449874: $GPRMC,220740,A,3946.9664,N,08404.9739,W,0.0000,0.000,011217,,*31
2017-12-01 17:07:39 1512166059.449936: $GPGSA,A,3,1,3,10,14,22,26,31,32,11,12,25,138,2.0,1.2,1.5*08
2017-12-01 17:07:40 1512166060.788965: $GPGSV,3,1,12,01,21,283,37,03,14,316,41,10,30,154,35,14,70,013,45*75
2017-12-01 17:07:40 1512166060.789153: $GPGSV,3,2,12,22,33,307,46,26,18,180,36,31,73,250,47,32,60,066,47*7A
2017-12-01 17:07:40 1512166060.789220: $GPGSV,3,3,12,18,02,148,02,12,13,037,20,25,39,067,26,138,38,213,39*4A
2017-12-01 17:07:40 1512166060.902590: $GPZDA,220741.00,01,12,2017,00,00*62
2017-12-01 17:07:40 1512166060.902772: $GPGGA,220741,3946.9667,N,08404.9739,W,2,11,1.00,297.05,M,-33.324,M,,*7B
2017-12-01 17:07:40 1512166060.902839: $GPRMC,220741,A,3946.9667,N,08404.9739,W,0.0000,0.000,011217,,*33
2017-12-01 17:07:40 1512166060.902901: $GPGSA,A,3,1,3,10,14,22,26,31,32,12,25,138,,2.0,1.0,1.5*0A
2017-12-01 17:07:41 1512166061.451149: $GPZDA,220742.00,01,12,2017,00,00*61
2017-12-01 17:07:41 1512166061.451322: $GPGGA,220742,3946.9667,N,08404.9739,W,2,11,0.80,297.05,M,-33.324,M,,*71
2017-12-01 17:07:41 1512166061.451456: $GPRMC,220742,A,3946.9667,N,08404.9739,W,0.0000,0.000,011217,,*30
2017-12-01 17:07:41 1512166061.451520: $GPGSA,A,3,1,3,10,14,22,26,31,32,12,25,138,,2.0,0.8,1.5*03
2017-12-01 17:07:42 1512166062.450731: $GPZDA,220743.00,01,12,2017,00,00*60
2017-12-01 17:07:42 1512166062.450884: $GPGGA,220743,3946.9667,N,08404.9739,W,2,11,0.80,297.05,M,-33.324,M,,*70
2017-12-01 17:07:42 1512166062.450951: $GPRMC,220743,A,3946.9667,N,08404.9739,W,0.0000,0.000,011217,,*31
2017-12-01 17:07:42 1512166062.451012: $GPGSA,A,3,1,3,10,14,22,26,31,32,12,25,138,,2.0,0.8,1.5*03
2017-12-01 17:07:43 1512166063.789914: $GPGSV,3,1,12,01,21,283,38,03,14,316,41,10,30,154,35,14,70,013,45*7A
2017-12-01 17:07:43 1512166063.790080: $GPGSV,3,2,12,22,33,307,46,26,18,180,37,31,73,250,47,32,60,066,47*7B
2017-12-01 17:07:43 1512166063.790147: $GPGSV,3,3,12,18,02,148,15,12,13,037,19,25,39,067,31,138,38,213,38*41
2017-12-01 17:07:43 1512166063.903224: $GPZDA,220744.00,01,12,2017,00,00*67
2017-12-01 17:07:43 1512166063.903402: $GPGGA,220744,3946.9667,N,08404.9739,W,2,11,0.80,297.05,M,-33.324,M,,*77
2017-12-01 17:07:43 1512166063.903469: $GPRMC,220744,A,3946.9667,N,08404.9739,W,0.0000,0.000,011217,,*36
2017-12-01 17:07:43 1512166063.903601: $GPGSA,A,3,1,3,10,14,22,26,31,32,12,25,138,,2.0,0.8,1.5*03
2017-12-01 17:07:44 1512166064.528912: $GPZDA,220745.00,01,12,2017,00,00*66
2017-12-01 17:07:44 1512166064.529072: $GPGGA,220745,3946.9667,N,08404.9739,W,2,11,0.80,297.05,M,-33.324,M,,*76
2017-12-01 17:07:44 1512166064.529138: $GPRMC,220745,A,3946.9667,N,08404.9739,W,0.0000,0.000,011217,,*37
2017-12-01 17:07:44 1512166064.529200: $GPGSA,A,3,1,3,10,14,22,26,31,32,12,25,138,,2.0,0.8,1.5*03
2017-12-01 17:07:45 1512166065.454796: $GPZDA,220746.00,01,12,2017,00,00*65
2017-12-01 17:07:45 1512166065.480835: $GPGGA,220746,3946.9667,N,08404.9739,W,2,11,0.80,297.05,M,-33.324,M,,*75
2017-12-01 17:07:45 1512166065.480965: $GPRMC,220746,A,3946.9667,N,08404.9739,W,0.0000,0.000,011217,,*34
2017-12-01 17:07:45 1512166065.481035: $GPGSA,A,3,1,3,10,14,22,26,31,32,12,25,138,,2.0,0.8,1.5*03
2017-12-01 17:07:46 1512166066.789007: $GPGSV,3,1,12,01,21,283,39,03,14,316,42,10,30,154,35,14,70,013,45*78
2017-12-01 17:07:46 1512166066.789187: $GPGSV,3,2,12,22,33,307,46,26,18,180,37,31,73,250,47,32,60,066,48*74
2017-12-01 17:07:46 1512166066.789252: $GPGSV,3,3,12,18,02,148,14,12,13,037,18,25,39,067,32,138,38,213,40*4D
2017-12-01 17:07:46 1512166066.902660: $GPZDA,220747.00,01,12,2017,00,00*64
2017-12-01 17:07:46 1512166066.902814: $GPGGA,220747,3946.9664,N,08404.9739,W,2,12,0.80,297.82,M,-33.324,M,,*7B
2017-12-01 17:07:46 1512166066.902881: $GPRMC,220747,A,3946.9664,N,08404.9739,W,0.0000,0.000,011217,,*36
2017-12-01 17:07:46 1512166066.902942: $GPGSA,A,3,1,3,10,14,22,26,31,32,18,12,25,138,2.0,0.8,1.5*0A
2017-12-01 17:07:47 1512166067.453529: $GPZDA,220748.00,01,12,2017,00,00*6B
2017-12-01 17:07:47 1512166067.453699: $GPGGA,220748,3946.9664,N,08404.9739,W,2,12,0.80,297.82,M,-33.324,M,,*74
2017-12-01 17:07:47 1512166067.453765: $GPRMC,220748,A,3946.9664,N,08404.9739,W,0.0000,0.000,011217,,*39
2017-12-01 17:07:47 1512166067.453826: $GPGSA,A,3,1,3,10,14,22,26,31,32,18,12,25,138,2.0,0.8,1.5*0A
2017-12-01 17:07:48 1512166068.450198: $GPZDA,220749.00,01,12,2017,00,00*6A
2017-12-01 17:07:48 1512166068.450375: $GPGGA,220749,3946.9666,N,08404.9724,W,2,12,0.80,295.81,M,-33.324,M,,*7A
2017-12-01 17:07:48 1512166068.450461: $GPRMC,220749,A,3946.9666,N,08404.9724,W,0.0000,0.000,011217,,*36
2017-12-01 17:07:48 1512166068.450524: $GPGSA,A,3,1,3,10,14,22,26,31,32,18,12,25,138,2.0,0.8,1.5*0A
2017-12-01 17:07:48 1512166068.450583: $GPGBS,220749,2.67,M,3.86,M,8.82,M*38
2017-12-01 17:07:49 1512166069.790488: $GPGSV,3,1,12,01,21,283,39,03,14,316,41,10,30,154,35,14,70,013,45*7B
2017-12-01 17:07:49 1512166069.790653: $GPGSV,3,2,12,22,33,307,46,26,18,180,37,31,73,250,46,32,60,066,47*7A
2017-12-01 17:07:49 1512166069.790719: $GPGSV,3,3,12,18,02,148,14,12,13,037,18,25,39,067,32,138,38,213,40*4D
2017-12-01 17:07:49 1512166069.903780: $GPZDA,220750.00,01,12,2017,00,00*62
2017-12-01 17:07:49 1512166069.903959: $GPGGA,220750,3946.9666,N,08404.9724,W,2,12,0.80,295.81,M,-33.324,M,,*72
2017-12-01 17:07:49 1512166069.904025: $GPRMC,220750,A,3946.9666,N,08404.9724,W,0.0000,0.000,011217,,*3E
2017-12-01 17:07:49 1512166069.904086: $GPGSA,A,3,1,3,10,14,22,26,31,32,18,12,25,138,2.0,0.8,1.5*0A
