2017-11-16 15:22:29 1510863749.356042: {"class":"VERSION","release":"3.17","rev":"3.17","proto_major":3,"proto_minor":12}
2017-11-16 15:22:29 1510863749.356538: {"class":"DEVICES","devices":[{"class":"DEVICE","path":"/dev/ttyUSB0","driver":"SiRF","subtype":"9\u0006GSD4e_4.1.2-P1_RPATCH.05-F-GPS-4R-1510281 11/03/2015 307","activated":"2017-11-16T20:22:29.259Z","flags":1,"native":1,"bps":4800,"parity":"N","stopbits":1,"cycle":1.00}]}
2017-11-16 15:22:29 1510863749.356668: {"class":"WATCH","enable":true,"json":false,"nmea":true,"raw":0,"scaled":false,"timing":false,"split24":false,"pps":false}
2017-11-16 15:22:29 1510863749.400546: $GPZDA,202228.00,16,11,2017,00,00*6D
2017-11-16 15:22:29 1510863749.400715: $GPGGA,202228,3946.9575,N,08404.9858,W,2,12,0.80,308.08,M,-33.324,M,,*79
2017-11-16 15:22:29 1510863749.400778: $GPRMC,202228,A,3946.9575,N,08404.9858,W,0.0000,0.000,161117,,*34
2017-11-16 15:22:29 1510863749.400835: $GPGSA,A,3,25,10,14,15,18,20,21,24,27,32,12,138,1.6,0.8,1.3*0B
2017-11-16 15:22:30 1510863750.387370: $GPZDA,202229.00,16,11,2017,00,00*6C
2017-11-16 15:22:30 1510863750.387550: $GPGGA,202229,3946.9575,N,08404.9858,W,2,12,1.00,308.08,M,-33.324,M,,*71
2017-11-16 15:22:30 1510863750.387612: $GPRMC,202229,A,3946.9575,N,08404.9858,W,0.0000,0.000,161117,,*35
2017-11-16 15:22:30 1510863750.387687: $GPGSA,A,3,25,10,14,15,18,20,21,24,27,32,12,138,1.6,1.0,1.3*02
2017-11-16 15:22:31 1510863751.727695: $GPGSV,3,1,12,25,02,142,21,10,68,330,51,14,28,252,47,15,12,066,35*7A
2017-11-16 15:22:31 1510863751.727837: $GPGSV,3,2,12,18,71,090,47,20,09,117,20,21,30,180,45,24,46,060,50*7F
2017-11-16 15:22:31 1510863751.727896: $GPGSV,3,3,12,27,07,261,39,32,45,264,49,12,08,108,29,138,38,213,45*43
2017-11-16 15:22:31 1510863751.841034: $GPZDA,202230.00,16,11,2017,00,00*64
2017-11-16 15:22:31 1510863751.841212: $GPGGA,202230,3946.9575,N,08404.9858,W,2,12,1.00,308.08,M,-33.324,M,,*79
2017-11-16 15:22:31 1510863751.841274: $GPRMC,202230,A,3946.9575,N,08404.9858,W,0.0000,0.000,161117,,*3D
2017-11-16 15:22:31 1510863751.841330: $GPGSA,A,3,25,10,14,15,18,20,21,24,27,32,12,138,1.6,1.0,1.3*02
2017-11-16 15:22:32 1510863752.399350: $GPZDA,202231.00,16,11,2017,00,00*65
2017-11-16 15:22:32 1510863752.399512: $GPGGA,202231,3946.9575,N,08404.9858,W,2,12,1.00,308.08,M,-33.324,M,,*78
2017-11-16 15:22:32 1510863752.399573: $GPRMC,202231,A,3946.9575,N,08404.9858,W,0.0000,0.000,161117,,*3C
2017-11-16 15:22:32 1510863752.399629: $GPGSA,A,3,25,10,14,15,18,20,21,24,27,32,12,138,1.6,1.0,1.3*02
2017-11-16 15:22:33 1510863753.371529: $GPZDA,202232.00,16,11,2017,00,00*66
2017-11-16 15:22:33 1510863753.371695: $GPGGA,202232,3946.9575,N,08404.9858,W,2,12,0.80,308.08,M,-33.324,M,,*72
2017-11-16 15:22:33 1510863753.371756: $GPRMC,202232,A,3946.9575,N,08404.9858,W,0.0000,0.000,161117,,*3F
2017-11-16 15:22:33 1510863753.371812: $GPGSA,A,3,25,10,14,15,18,20,21,24,27,32,12,138,1.6,0.8,1.3*0B
2017-11-16 15:22:34 1510863754.723513: $GPGSV,3,1,12,08,06,294,27,10,68,330,51,14,28,252,46,15,12,066,35*7E
2017-11-16 15:22:34 1510863754.723695: $GPGSV,3,2,12,18,71,090,48,20,09,117,26,21,30,180,45,24,46,060,50*76
2017-11-16 15:22:34 1510863754.723756: $GPGSV,3,3,12,27,07,261,38,32,45,264,48,12,08,108,28,138,38,213,44*43
2017-11-16 15:22:34 1510863754.836910: $GPZDA,202233.00,16,11,2017,00,00*67
2017-11-16 15:22:34 1510863754.837085: $GPGGA,202233,3946.9575,N,08404.9858,W,2,12,0.80,308.08,M,-33.324,M,,*73
2017-11-16 15:22:34 1510863754.837147: $GPRMC,202233,A,3946.9575,N,08404.9858,W,0.0000,0.000,161117,,*3E
2017-11-16 15:22:34 1510863754.837204: $GPGSA,A,3,8,10,14,15,18,20,21,24,27,32,12,138,1.6,0.8,1.3*34
2017-11-16 15:22:35 1510863755.371479: $GPZDA,202234.00,16,11,2017,00,00*60
2017-11-16 15:22:35 1510863755.371662: $GPGGA,202234,3946.9575,N,08404.9858,W,2,12,1.00,308.08,M,-33.324,M,,*7D
2017-11-16 15:22:35 1510863755.371727: $GPRMC,202234,A,3946.9575,N,08404.9858,W,0.0000,0.000,161117,,*39
2017-11-16 15:22:35 1510863755.371783: $GPGSA,A,3,8,10,14,15,18,20,21,24,27,32,12,138,1.6,1.0,1.3*3D
2017-11-16 15:22:36 1510863756.371968: $GPZDA,202235.00,16,11,2017,00,00*61
2017-11-16 15:22:36 1510863756.372195: $GPGGA,202235,3946.9575,N,08404.9858,W,2,12,0.80,308.08,M,-33.324,M,,*75
2017-11-16 15:22:36 1510863756.372258: $GPRMC,202235,A,3946.9575,N,08404.9858,W,0.0000,0.000,161117,,*38
2017-11-16 15:22:36 1510863756.372315: $GPGSA,A,3,8,10,14,15,18,20,21,24,27,32,12,138,1.6,0.8,1.3*34
2017-11-16 15:22:37 1510863757.708859: $GPGSV,3,1,12,08,06,294,29,10,68,330,51,14,28,252,47,15,12,066,35*71
2017-11-16 15:22:37 1510863757.709041: $GPGSV,3,2,12,18,71,090,48,20,09,117,26,21,30,180,45,24,46,060,50*76
2017-11-16 15:22:37 1510863757.709104: $GPGSV,3,3,12,27,07,261,38,32,45,264,49,12,08,108,20,138,38,213,45*4B
2017-11-16 15:22:37 1510863757.822361: $GPZDA,202236.00,16,11,2017,00,00*62
2017-11-16 15:22:37 1510863757.822533: $GPGGA,202236,3946.9575,N,08404.9858,W,2,12,0.80,308.08,M,-33.324,M,,*76
2017-11-16 15:22:37 1510863757.822596: $GPRMC,202236,A,3946.9575,N,08404.9858,W,0.0000,0.000,161117,,*3B
2017-11-16 15:22:37 1510863757.822652: $GPGSA,A,3,8,10,14,15,18,20,21,24,27,32,12,138,1.6,0.8,1.3*34
2017-11-16 15:22:38 1510863758.364465: $GPZDA,202237.00,16,11,2017,00,00*63
2017-11-16 15:22:38 1510863758.364641: $GPGGA,202237,3946.9575,N,08404.9858,W,2,12,0.80,308.08,M,-33.324,M,,*77
2017-11-16 15:22:38 1510863758.364704: $GPRMC,202237,A,3946.9575,N,08404.9858,W,0.0000,0.000,161117,,*3A
2017-11-16 15:22:38 1510863758.364760: $GPGSA,A,3,8,10,14,15,18,20,21,24,27,32,12,138,1.6,0.8,1.3*34
