2017-12-31 18:40:12 1514763612.256285: {"class":"VERSION","release":"3.16","rev":"3.16-4","proto_major":3,"proto_minor":11}
2017-12-31 18:40:12 1514763612.256620: {"class":"DEVICES","devices":[{"class":"DEVICE","path":"/dev/ttyUSB0","driver":"SiRF","activated":"2017-12-31T23:40:12.202Z","flags":1,"native":1,"bps":4800,"parity":"N","stopbits":1,"cycle":1.00}]}
2017-12-31 18:40:12 1514763612.256718: {"class":"WATCH","enable":true,"json":false,"nmea":true,"raw":0,"scaled":false,"timing":false,"split24":false,"pps":false}
2017-12-31 18:40:12 1514763612.714947: $GPGSV,3,1,12,22,11,205,24,23,65,291,41,09,32,310,40,03,21,223,38*72
2017-12-31 18:40:12 1514763612.715118: $GPGSV,3,2,12,16,82,039,42,08,12,177,26,14,03,139,16,31,19,085,39*73
2017-12-31 18:40:12 1514763612.715183: $GPGSV,3,3,12,27,35,145,41,07,07,282,44,26,48,046,44,135,22,240,44*4F
2017-12-31 18:40:12 1514763612.828815: $GPZDA,234013.00,31,12,2017,00,00*64
2017-12-31 18:40:12 1514763612.828940: $GPGGA,234013,3946.9585,N,08404.9843,W,2,12,0.80,307.35,M,-33.324,M,,*72
2017-12-31 18:40:12 1514763612.829005: $GPRMC,234013,A,3946.9585,N,08404.9843,W,0.0000,0.000,311217,,*38
2017-12-31 18:40:12 1514763612.829066: $GPGSA,A,3,22,23,9,3,16,8,14,31,27,7,26,135,1.7,0.8,1.3*0C
2017-12-31 18:40:13 1514763613.354271: $GPZDA,234014.00,31,12,2017,00,00*63
2017-12-31 18:40:13 1514763613.354419: $GPGGA,234014,3946.9585,N,08404.9843,W,2,12,0.80,307.35,M,-33.324,M,,*75
2017-12-31 18:40:13 1514763613.354484: $GPRMC,234014,A,3946.9585,N,08404.9843,W,0.0000,0.000,311217,,*3F
2017-12-31 18:40:13 1514763613.354545: $GPGSA,A,3,22,23,9,3,16,8,14,31,27,7,26,135,1.7,0.8,1.3*0C
2017-12-31 18:40:14 1514763614.380054: $GPZDA,234015.00,31,12,2017,00,00*62
2017-12-31 18:40:14 1514763614.380229: $GPGGA,234015,3946.9585,N,08404.9843,W,2,12,0.80,307.35,M,-33.324,M,,*74
2017-12-31 18:40:14 1514763614.380295: $GPRMC,234015,A,3946.9585,N,08404.9843,W,0.0000,0.000,311217,,*3E
2017-12-31 18:40:14 1514763614.380372: $GPGSA,A,3,22,23,9,3,16,8,14,31,27,7,26,135,1.7,0.8,1.3*0C
2017-12-31 18:40:15 1514763615.724096: $GPGSV,3,1,12,22,11,205,26,23,65,291,40,09,32,310,41,03,21,223,38*70
2017-12-31 18:40:15 1514763615.724248: $GPGSV,3,2,12,16,82,039,42,08,12,177,26,14,03,139,16,31,19,085,39*73
2017-12-31 18:40:15 1514763615.724329: $GPGSV,3,3,12,27,35,145,41,07,07,282,44,26,48,046,44,135,22,240,44*4F
2017-12-31 18:40:15 1514763615.837757: $GPZDA,234016.00,31,12,2017,00,00*61
2017-12-31 18:40:15 1514763615.837901: $GPGGA,234016,3946.9585,N,08404.9836,W,2,12,0.80,307.43,M,-33.324,M,,*74
2017-12-31 18:40:15 1514763615.837967: $GPRMC,234016,A,3946.9585,N,08404.9836,W,0.0000,0.000,311217,,*3F
2017-12-31 18:40:15 1514763615.838027: $GPGSA,A,3,22,23,9,3,16,8,14,31,27,7,26,135,1.7,0.8,1.3*0C
2017-12-31 18:40:16 1514763616.351986: $GPZDA,234017.00,31,12,2017,00,00*60
2017-12-31 18:40:16 1514763616.352173: $GPGGA,234017,3946.9585,N,08404.9836,W,2,12,0.80,307.43,M,-33.324,M,,*75
2017-12-31 18:40:16 1514763616.352240: $GPRMC,234017,A,3946.9585,N,08404.9836,W,0.0000,0.000,311217,,*3E
2017-12-31 18:40:16 1514763616.352301: $GPGSA,A,3,22,23,9,3,16,8,14,31,27,7,26,135,1.7,0.8,1.3*0C
2017-12-31 18:40:17 1514763617.353203: $GPZDA,234018.00,31,12,2017,00,00*6F
2017-12-31 18:40:17 1514763617.353372: $GPGGA,234018,3946.9585,N,08404.9836,W,2,12,0.80,307.43,M,-33.324,M,,*7A
2017-12-31 18:40:17 1514763617.353438: $GPRMC,234018,A,3946.9585,N,08404.9836,W,0.0000,0.000,311217,,*31
2017-12-31 18:40:17 1514763617.353498: $GPGSA,A,3,22,23,9,3,16,8,14,31,27,7,26,135,1.7,0.8,1.3*0C
2017-12-31 18:40:18 1514763618.688638: $GPGSV,3,1,12,22,11,205,26,23,65,291,42,09,32,310,41,03,21,223,38*72
2017-12-31 18:40:18 1514763618.688809: $GPGSV,3,2,12,16,82,039,42,08,12,177,26,14,03,139,17,31,19,085,39*72
2017-12-31 18:40:18 1514763618.688879: $GPGSV,3,3,12,27,35,145,40,07,07,282,44,26,48,046,44,135,22,240,43*49
2017-12-31 18:40:18 1514763618.801964: $GPZDA,234019.00,31,12,2017,00,00*6E
2017-12-31 18:40:18 1514763618.802126: $GPGGA,234019,3946.9585,N,08404.9836,W,2,11,0.80,307.43,M,-33.324,M,,*78
2017-12-31 18:40:18 1514763618.802195: $GPRMC,234019,A,3946.9585,N,08404.9836,W,0.0000,0.000,311217,,*30
2017-12-31 18:40:18 1514763618.802311: $GPGSA,A,3,22,23,9,3,16,8,31,27,7,26,135,,1.7,0.8,1.3*09
2017-12-31 18:40:19 1514763619.381611: $GPZDA,234020.00,31,12,2017,00,00*64
2017-12-31 18:40:21 1514763621.145957: $GPGGA,234020,3946.9585,N,08404.9836,W,2,11,0.80,307.43,M,-33.324,M,,*72
2017-12-31 18:40:21 1514763621.146132: $GPRMC,234020,A,3946.9585,N,08404.9836,W,0.0000,0.000,311217,,*3A
2017-12-31 18:40:21 1514763621.146196: $GPGSA,A,3,22,23,9,3,16,8,31,27,7,26,135,,1.7,0.8,1.3*09
2017-12-31 18:40:21 1514763621.146290: $GPZDA,234021.00,31,12,2017,00,00*65
2017-12-31 18:40:21 1514763621.146346: $GPGGA,234021,3946.9585,N,08404.9836,W,2,11,0.80,307.43,M,-33.324,M,,*73
2017-12-31 18:40:21 1514763621.146407: $GPRMC,234021,A,3946.9585,N,08404.9836,W,0.0000,0.000,311217,,*3B
2017-12-31 18:40:21 1514763621.146466: $GPGSA,A,3,22,23,9,3,16,8,31,27,7,26,135,,1.7,0.8,1.3*09
2017-12-31 18:40:21 1514763621.722786: $GPGSV,3,1,12,22,11,205,25,23,65,291,41,09,32,310,41,03,21,223,38*72
2017-12-31 18:40:21 1514763621.722957: $GPGSV,3,2,12,16,82,039,42,08,12,177,25,14,03,139,00,31,19,085,39*77
2017-12-31 18:40:21 1514763621.723040: $GPGSV,3,3,12,27,35,145,40,07,07,282,44,26,48,046,44,135,22,240,44*4E
2017-12-31 18:40:21 1514763621.836209: $GPZDA,234022.00,31,12,2017,00,00*66
2017-12-31 18:40:21 1514763621.836360: $GPGGA,234022,3946.9585,N,08404.9836,W,2,11,0.80,307.43,M,-33.324,M,,*70
2017-12-31 18:40:21 1514763621.836426: $GPRMC,234022,A,3946.9585,N,08404.9836,W,0.0000,0.000,311217,,*38
2017-12-31 18:40:21 1514763621.836487: $GPGSA,A,3,22,23,9,3,16,8,31,27,7,26,135,,1.7,0.8,1.3*09
