2017-12-01 14:09:41 1512155381.226987: {"class":"VERSION","release":"3.16","rev":"3.16-4","proto_major":3,"proto_minor":11}
2017-12-01 14:09:41 1512155381.227496: {"class":"DEVICES","devices":[{"class":"DEVICE","path":"/dev/ttyUSB0","driver":"SiRF","subtype":"9\u0006GSD4e_4.1.2-P1_RPATCH.05-F-GPS-4R-1510281 11/03/2015 307","activated":"2017-12-01T19:09:41.180Z","flags":1,"native":1,"bps":4800,"parity":"N","stopbits":1,"cycle":1.00}]}
2017-12-01 14:09:41 1512155381.227619: {"class":"WATCH","enable":true,"json":false,"nmea":true,"raw":0,"scaled":false,"timing":false,"split24":false,"pps":false}
2017-12-01 14:09:42 1512155382.119932: $GPZDA,190942.41,01,12,2017,00,00*62
2017-12-01 14:09:42 1512155382.120104: $GPGGA,190942,3946.9508,N,08404.9804,W,1,11,1.00,327.61,M,-33.324,M,,*7E
2017-12-01 14:09:42 1512155382.120170: $GPRMC,190942,A,3946.9508,N,08404.9804,W,0.3423,184.197,011217,,*39
2017-12-01 14:09:42 1512155382.120231: $GPGSA,A,3,10,14,15,18,20,21,24,27,32,8,138,,2.0,1.0,1.5*3D
2017-12-01 14:09:42 1512155382.120290: $GPGBS,190942,10.70,M,15.43,M,35.28,M*00
2017-12-01 14:09:43 1512155383.262559: $GPGSV,3,1,12,08,07,298,36,10,64,324,49,14,24,249,40,18,74,078,43*70
2017-12-01 14:09:43 1512155383.262760: $GPGSV,3,2,12,20,13,114,35,21,35,180,44,24,49,066,47,27,10,265,40*7C
2017-12-01 14:09:43 1512155383.262828: $GPGSV,3,3,12,32,42,259,45,12,05,112,05,15,16,063,06,138,38,213,25*45
2017-12-01 14:09:43 1512155383.375896: $GPZDA,190943.00,01,12,2017,00,00*66
2017-12-01 14:09:43 1512155383.376066: $GPGGA,190943,3946.9505,N,08404.9805,W,1,10,1.00,328.37,M,-33.324,M,,*7E
2017-12-01 14:09:43 1512155383.376133: $GPRMC,190943,A,3946.9505,N,08404.9805,W,0.0000,0.000,011217,,*30
2017-12-01 14:09:43 1512155383.376195: $GPGSA,A,3,8,10,14,18,20,21,24,27,32,138,,,2.0,1.0,1.5*39
2017-12-01 14:09:43 1512155383.828124: $GPZDA,190944.00,01,12,2017,00,00*61
2017-12-01 14:09:43 1512155383.828302: $GPGGA,190944,3946.9505,N,08404.9805,W,1,10,0.80,328.37,M,-33.324,M,,*70
2017-12-01 14:09:43 1512155383.828371: $GPRMC,190944,A,3946.9505,N,08404.9805,W,0.0000,0.000,011217,,*37
2017-12-01 14:09:43 1512155383.828433: $GPGSA,A,3,8,10,14,18,20,21,24,27,32,138,,,2.0,0.8,1.5*30
2017-12-01 14:09:44 1512155384.329120: $GPZDA,190945.00,01,12,2017,00,00*60
2017-12-01 14:09:44 1512155384.329310: $GPGGA,190945,3946.9505,N,08404.9812,W,1,10,0.80,328.29,M,-33.324,M,,*78
2017-12-01 14:09:44 1512155384.329379: $GPRMC,190945,A,3946.9505,N,08404.9812,W,0.0000,0.000,011217,,*30
2017-12-01 14:09:44 1512155384.329441: $GPGSA,A,3,8,10,14,18,20,21,24,27,32,138,,,2.0,0.8,1.5*30
2017-12-01 14:09:45 1512155385.664514: $GPGSV,3,1,12,08,07,298,37,10,64,324,50,14,24,249,40,18,74,078,43*79
2017-12-01 14:09:45 1512155385.664711: $GPGSV,3,2,12,20,13,114,36,21,35,180,45,24,49,066,48,27,10,265,40*71
2017-12-01 14:09:45 1512155385.664781: $GPGSV,3,3,12,32,42,259,45,12,05,112,25,15,16,063,30,138,38,213,47*46
2017-12-01 14:09:45 1512155385.777610: $GPZDA,190946.00,01,12,2017,00,00*63
2017-12-01 14:09:45 1512155385.777782: $GPGGA,190946,3946.9509,N,08404.9811,W,1,12,0.80,327.53,M,-33.324,M,,*74
2017-12-01 14:09:45 1512155385.777854: $GPRMC,190946,A,3946.9509,N,08404.9811,W,0.0000,0.000,011217,,*3C
2017-12-01 14:09:45 1512155385.777916: $GPGSA,A,3,8,10,14,18,20,21,24,27,32,12,15,138,2.0,0.8,1.5*37
2017-12-01 14:09:46 1512155386.328483: $GPZDA,190947.00,01,12,2017,00,00*62
2017-12-01 14:09:46 1512155386.332882: $GPGGA,190947,3946.9518,N,08404.9825,W,2,12,1.80,328.65,M,-33.324,M,,*7A
2017-12-01 14:09:46 1512155386.333003: $GPRMC,190947,A,3946.9518,N,08404.9825,W,0.0000,0.000,011217,,*3A
2017-12-01 14:09:46 1512155386.333070: $GPGSA,A,3,8,10,14,18,20,21,24,27,32,12,15,138,2.0,1.8,1.5*36
2017-12-01 14:09:47 1512155387.330393: $GPZDA,190948.00,01,12,2017,00,00*6D
2017-12-01 14:09:47 1512155387.330567: $GPGGA,190948,3946.9518,N,08404.9825,W,2,12,0.80,328.65,M,-33.324,M,,*74
2017-12-01 14:09:47 1512155387.330634: $GPRMC,190948,A,3946.9518,N,08404.9825,W,0.0000,0.000,011217,,*35
2017-12-01 14:09:47 1512155387.330696: $GPGSA,A,3,8,10,14,18,20,21,24,27,32,12,15,138,2.0,0.8,1.5*37
2017-12-01 14:09:47 1512155387.330837: $GPGBS,190948,2.67,M,3.86,M,8.82,M*3F
2017-12-01 14:09:48 1512155388.667396: $GPGSV,3,1,12,08,07,298,37,10,64,324,50,14,24,249,40,18,74,078,43*79
2017-12-01 14:09:48 1512155388.667580: $GPGSV,3,2,12,20,13,114,36,21,35,180,44,24,49,066,48,27,10,265,40*70
2017-12-01 14:09:48 1512155388.667647: $GPGSV,3,3,12,32,42,259,45,12,05,112,24,15,16,063,29,138,38,213,48*40
2017-12-01 14:09:48 1512155388.779556: $GPZDA,190949.00,01,12,2017,00,00*6C
2017-12-01 14:09:48 1512155388.779730: $GPGGA,190949,3946.9518,N,08404.9825,W,2,12,0.80,328.65,M,-33.324,M,,*75
2017-12-01 14:09:48 1512155388.779798: $GPRMC,190949,A,3946.9518,N,08404.9825,W,0.0000,0.000,011217,,*34
2017-12-01 14:09:48 1512155388.779862: $GPGSA,A,3,8,10,14,18,20,21,24,27,32,12,15,138,2.0,0.8,1.5*37
2017-12-01 14:09:49 1512155389.329293: $GPZDA,190950.00,01,12,2017,00,00*64
2017-12-01 14:09:49 1512155389.329461: $GPGGA,190950,3946.9526,N,08404.9828,W,2,12,0.80,322.06,M,-33.324,M,,*72
2017-12-01 14:09:49 1512155389.329528: $GPRMC,190950,A,3946.9526,N,08404.9828,W,0.0000,0.000,011217,,*3C
2017-12-01 14:09:49 1512155389.329589: $GPGSA,A,3,8,10,14,18,20,21,24,27,32,12,15,138,2.0,0.8,1.5*37
2017-12-01 14:09:50 1512155390.328330: $GPZDA,190951.00,01,12,2017,00,00*65
2017-12-01 14:09:50 1512155390.328506: $GPGGA,190951,3946.9526,N,08404.9828,W,2,12,0.80,322.06,M,-33.324,M,,*73
2017-12-01 14:09:50 1512155390.328574: $GPRMC,190951,A,3946.9526,N,08404.9828,W,0.0000,0.000,011217,,*3D
2017-12-01 14:09:50 1512155390.328636: $GPGSA,A,3,8,10,14,18,20,21,24,27,32,12,15,138,2.0,0.8,1.5*37
2017-12-01 14:09:51 1512155391.666520: $GPGSV,3,1,12,08,07,298,37,10,64,324,50,14,24,249,39,18,74,078,43*77
2017-12-01 14:09:52 1512155392.605624: $GPGSV,3,2,12,20,13,114,36,21,35,180,44,24,49,066,48,27,10,265,40*70
2017-12-01 14:09:52 1512155392.605824: $GPGSV,3,3,12,32,42,259,45,12,05,112,20,15,16,063,25,138,38,213,47*47
2017-12-01 14:09:52 1512155392.605943: $GPZDA,190952.00,01,12,2017,00,00*66
2017-12-01 14:09:52 1512155392.606002: $GPGGA,190952,3946.9526,N,08404.9828,W,2,11,0.80,322.06,M,-33.324,M,,*73
2017-12-01 14:09:52 1512155392.606084: $GPRMC,190952,A,3946.9526,N,08404.9828,W,0.0000,0.000,011217,,*3E
2017-12-01 14:09:52 1512155392.606144: $GPGSA,A,3,8,10,14,18,20,21,24,27,32,15,138,,2.0,0.8,1.5*34
2017-12-01 14:09:52 1512155392.606202: $GPZDA,190953.00,01,12,2017,00,00*67
2017-12-01 14:09:52 1512155392.606255: $GPGGA,190953,3946.9526,N,08404.9828,W,2,11,0.80,322.06,M,-33.324,M,,*72
2017-12-01 14:09:52 1512155392.606315: $GPRMC,190953,A,3946.9526,N,08404.9828,W,0.0000,0.000,011217,,*3F
2017-12-01 14:09:52 1512155392.606373: $GPGSA,A,3,8,10,14,18,20,21,24,27,32,15,138,,2.0,0.8,1.5*34
2017-12-01 14:09:53 1512155393.330667: $GPZDA,190954.00,01,12,2017,00,00*60
2017-12-01 14:09:53 1512155393.330857: $GPGGA,190954,3946.9526,N,08404.9828,W,2,11,0.80,322.06,M,-33.324,M,,*75
2017-12-01 14:09:53 1512155393.330926: $GPRMC,190954,A,3946.9526,N,08404.9828,W,0.0000,0.000,011217,,*38
2017-12-01 14:09:53 1512155393.330987: $GPGSA,A,3,8,10,14,18,20,21,24,27,32,15,138,,2.0,0.8,1.5*34
2017-12-01 14:09:54 1512155394.666123: $GPGSV,3,1,12,08,07,298,37,10,64,324,50,14,24,249,40,18,74,078,43*79
2017-12-01 14:09:54 1512155394.666305: $GPGSV,3,2,12,20,13,114,36,21,35,180,44,24,49,066,48,27,10,265,40*70
2017-12-01 14:09:54 1512155394.666372: $GPGSV,3,3,12,32,42,259,45,12,05,112,15,15,16,063,25,138,38,213,48*4E
2017-12-01 14:09:54 1512155394.780017: $GPZDA,190955.00,01,12,2017,00,00*61
2017-12-01 14:09:54 1512155394.780211: $GPGGA,190955,3946.9526,N,08404.9828,W,2,12,0.80,322.06,M,-33.324,M,,*77
2017-12-01 14:09:54 1512155394.780277: $GPRMC,190955,A,3946.9526,N,08404.9828,W,0.0000,0.000,011217,,*39
2017-12-01 14:09:54 1512155394.780337: $GPGSA,A,3,8,10,14,18,20,21,24,27,32,12,15,138,2.0,0.8,1.5*37
2017-12-01 14:09:55 1512155395.404869: $GPZDA,190956.00,01,12,2017,00,00*62
2017-12-01 14:09:55 1512155395.405060: $GPGGA,190956,3946.9526,N,08404.9828,W,2,12,0.80,322.06,M,-33.324,M,,*74
2017-12-01 14:09:55 1512155395.405127: $GPRMC,190956,A,3946.9526,N,08404.9828,W,0.0000,0.000,011217,,*3A
2017-12-01 14:09:55 1512155395.405236: $GPGSA,A,3,8,10,14,18,20,21,24,27,32,12,15,138,2.0,0.8,1.5*37
2017-12-01 14:09:56 1512155396.329467: $GPZDA,190957.00,01,12,2017,00,00*63
2017-12-01 14:09:56 1512155396.329653: $GPGGA,190957,3946.9523,N,08404.9829,W,2,12,0.80,322.83,M,-33.324,M,,*7C
2017-12-01 14:09:56 1512155396.329722: $GPRMC,190957,A,3946.9523,N,08404.9829,W,0.0000,0.000,011217,,*3F
2017-12-01 14:09:56 1512155396.329800: $GPGSA,A,3,8,10,14,18,20,21,24,27,32,12,15,138,2.0,0.8,1.5*37
2017-12-01 14:09:57 1512155397.665262: $GPGSV,3,1,12,08,07,298,36,10,64,324,50,14,24,249,40,18,74,078,44*7F
2017-12-01 14:09:57 1512155397.665439: $GPGSV,3,2,12,20,13,114,36,21,35,180,44,24,49,066,48,27,10,265,39*7E
2017-12-01 14:09:57 1512155397.665506: $GPGSV,3,3,12,32,42,259,46,12,05,112,15,15,16,063,24,138,38,213,47*43
2017-12-01 14:09:57 1512155397.778582: $GPZDA,190958.00,01,12,2017,00,00*6C
2017-12-01 14:09:57 1512155397.778787: $GPGGA,190958,3946.9523,N,08404.9829,W,2,12,0.80,322.83,M,-33.324,M,,*73
2017-12-01 14:09:57 1512155397.778855: $GPRMC,190958,A,3946.9523,N,08404.9829,W,0.0000,0.000,011217,,*30
2017-12-01 14:09:57 1512155397.778916: $GPGSA,A,3,8,10,14,18,20,21,24,27,32,12,15,138,2.0,0.8,1.5*37
2017-12-01 14:09:58 1512155398.329477: $GPZDA,190959.00,01,12,2017,00,00*6D
2017-12-01 14:09:58 1512155398.329680: $GPGGA,190959,3946.9523,N,08404.9829,W,2,12,0.80,322.83,M,-33.324,M,,*72
2017-12-01 14:09:58 1512155398.329749: $GPRMC,190959,A,3946.9523,N,08404.9829,W,0.0000,0.000,011217,,*31
2017-12-01 14:09:58 1512155398.329829: $GPGSA,A,3,8,10,14,18,20,21,24,27,32,12,15,138,2.0,0.8,1.5*37
2017-12-01 14:09:59 1512155399.331658: $GPZDA,191000.00,01,12,2017,00,00*69
2017-12-01 14:09:59 1512155399.331853: $GPGGA,191000,3946.9523,N,08404.9829,W,2,12,0.80,322.83,M,-33.324,M,,*76
2017-12-01 14:09:59 1512155399.331921: $GPRMC,191000,A,3946.9523,N,08404.9829,W,0.0000,0.000,011217,,*35
2017-12-01 14:09:59 1512155399.331982: $GPGSA,A,3,8,10,14,18,20,21,24,27,32,12,15,138,2.0,0.8,1.5*37
2017-12-01 14:09:59 1512155399.332041: $GPGBS,191000,2.67,M,3.86,M,8.82,M*3B
2017-12-01 14:10:00 1512155400.666708: $GPGSV,3,1,12,08,07,298,30,10,64,324,50,14,24,249,40,18,74,078,44*79
2017-12-01 14:10:00 1512155400.666911: $GPGSV,3,2,12,20,13,114,36,21,35,180,45,24,49,066,49,27,10,265,40*70
2017-12-01 14:10:00 1512155400.666978: $GPGSV,3,3,12,32,42,259,46,12,05,112,16,15,16,063,27,138,38,213,46*42
2017-12-01 14:10:00 1512155400.780061: $GPZDA,191001.00,01,12,2017,00,00*68
2017-12-01 14:10:00 1512155400.780213: $GPGGA,191001,3946.9523,N,08404.9829,W,2,12,0.80,322.83,M,-33.324,M,,*77
2017-12-01 14:10:00 1512155400.780280: $GPRMC,191001,A,3946.9523,N,08404.9829,W,0.0000,0.000,011217,,*34
2017-12-01 14:10:00 1512155400.780341: $GPGSA,A,3,8,10,14,18,20,21,24,27,32,12,15,138,2.0,0.8,1.5*37
