2017-11-16 14:55:58 1510862158.746791: {"class":"VERSION","release":"3.17","rev":"3.17","proto_major":3,"proto_minor":12}
2017-11-16 14:55:58 1510862158.747236: {"class":"DEVICES","devices":[{"class":"DEVICE","path":"/dev/ttyUSB0","driver":"SiRF","subtype":"9\u0006GSD4e_4.1.2-P1_RPATCH.05-F-GPS-4R-1510281 11/03/2015 307","activated":"2017-11-16T19:55:58.694Z","flags":1,"native":1,"bps":4800,"parity":"N","stopbits":1,"cycle":1.00}]}
2017-11-16 14:55:58 1510862158.747351: {"class":"WATCH","enable":true,"json":false,"nmea":true,"raw":0,"scaled":false,"timing":false,"split24":false,"pps":false}
2017-11-16 14:55:59 1510862159.496685: $GPZDA,195558.00,16,11,2017,00,00*60
2017-11-16 14:55:59 1510862159.496852: $GPGGA,195558,3946.9575,N,08404.9848,W,2,11,0.80,301.77,M,-33.324,M,,*77
2017-11-16 14:55:59 1510862159.496912: $GPRMC,195558,A,3946.9575,N,08404.9848,W,0.0000,0.000,161117,,*38
2017-11-16 14:55:59 1510862159.496968: $GPGSA,A,3,8,10,15,18,21,20,24,27,32,14,138,,1.6,0.8,1.3*37
2017-11-16 14:56:00 1510862160.832229: $GPGSV,3,1,12,08,08,304,19,10,57,316,49,12,01,117,00,15,21,060,50*7C
2017-11-16 14:56:00 1510862160.832401: $GPGSV,3,2,12,18,77,048,45,21,43,181,44,20,18,109,44,24,52,076,48*7C
2017-11-16 14:56:00 1510862160.832461: $GPGSV,3,3,12,27,13,271,43,32,36,252,47,14,19,244,45,138,38,213,44*43
2017-11-16 14:56:00 1510862160.946068: $GPZDA,195559.00,16,11,2017,00,00*61
2017-11-16 14:56:00 1510862160.946224: $GPGGA,195559,3946.9575,N,08404.9848,W,2,11,0.80,301.77,M,-33.324,M,,*76
2017-11-16 14:56:00 1510862160.946284: $GPRMC,195559,A,3946.9575,N,08404.9848,W,0.0000,0.000,161117,,*39
2017-11-16 14:56:00 1510862160.946339: $GPGSA,A,3,8,10,15,18,21,20,24,27,32,14,138,,1.6,0.8,1.3*37
2017-11-16 14:56:01 1510862161.532490: $GPZDA,195600.00,16,11,2017,00,00*6E
2017-11-16 14:56:01 1510862161.532672: $GPGGA,195600,3946.9575,N,08404.9848,W,2,11,0.80,301.77,M,-33.324,M,,*79
2017-11-16 14:56:01 1510862161.532735: $GPRMC,195600,A,3946.9575,N,08404.9848,W,0.0000,0.000,161117,,*36
2017-11-16 14:56:01 1510862161.532791: $GPGSA,A,3,8,10,15,18,21,20,24,27,32,14,138,,1.6,0.8,1.3*37
2017-11-16 14:56:02 1510862162.487366: $GPZDA,195601.00,16,11,2017,00,00*6F
2017-11-16 14:56:02 1510862162.487566: $GPGGA,195601,3946.9575,N,08404.9848,W,2,11,0.80,301.77,M,-33.324,M,,*78
2017-11-16 14:56:02 1510862162.487657: $GPRMC,195601,A,3946.9575,N,08404.9848,W,0.0000,0.000,161117,,*37
2017-11-16 14:56:02 1510862162.487717: $GPGSA,A,3,8,10,15,18,21,20,24,27,32,14,138,,1.6,0.8,1.3*37
2017-11-16 14:56:03 1510862163.828133: $GPGSV,3,1,11,10,57,316,49,08,08,304,00,15,21,060,50,18,77,048,45*76
2017-11-16 14:56:03 1510862163.828303: $GPGSV,3,2,11,21,43,181,44,20,18,109,44,24,52,076,48,27,13,271,43*7F
2017-11-16 14:56:03 1510862163.828362: $GPGSV,3,3,11,32,36,252,47,14,19,244,45,138,38,213,43*73
2017-11-16 14:56:03 1510862163.942001: $GPZDA,195602.00,16,11,2017,00,00*6C
2017-11-16 14:56:03 1510862163.942178: $GPGGA,195602,3946.9575,N,08404.9848,W,2,10,1.00,301.77,M,-33.324,M,,*73
2017-11-16 14:56:03 1510862163.942243: $GPRMC,195602,A,3946.9575,N,08404.9848,W,0.0000,0.000,161117,,*34
2017-11-16 14:56:03 1510862163.942300: $GPGSA,A,3,10,15,18,21,20,24,27,32,14,138,,,1.6,1.0,1.3*06
2017-11-16 14:56:04 1510862164.566820: $GPZDA,195603.00,16,11,2017,00,00*6D
2017-11-16 14:56:04 1510862164.566966: $GPGGA,195603,3946.9575,N,08404.9848,W,2,10,1.00,301.77,M,-33.324,M,,*72
2017-11-16 14:56:04 1510862164.567026: $GPRMC,195603,A,3946.9575,N,08404.9848,W,0.0000,0.000,161117,,*35
2017-11-16 14:56:04 1510862164.567082: $GPGSA,A,3,10,15,18,21,20,24,27,32,14,138,,,1.6,1.0,1.3*06
2017-11-16 14:56:05 1510862165.538051: $GPZDA,195604.00,16,11,2017,00,00*6A
2017-11-16 14:56:05 1510862165.538210: $GPGGA,195604,3946.9575,N,08404.9848,W,2,10,1.00,301.77,M,-33.324,M,,*75
2017-11-16 14:56:05 1510862165.538290: $GPRMC,195604,A,3946.9575,N,08404.9848,W,0.0000,0.000,161117,,*32
2017-11-16 14:56:05 1510862165.538348: $GPGSA,A,3,10,15,18,21,20,24,27,32,14,138,,,1.6,1.0,1.3*06
2017-11-16 14:56:06 1510862166.832293: $GPGSV,3,1,12,08,08,304,18,10,57,316,50,12,01,117,00,15,21,060,50*75
2017-11-16 14:56:06 1510862166.832539: $GPGSV,3,2,12,18,77,048,45,21,43,181,44,20,18,109,44,24,52,076,48*7C
2017-11-16 14:56:06 1510862166.832603: $GPGSV,3,3,12,27,13,271,43,32,36,252,47,14,19,244,45,138,38,213,43*44
2017-11-16 14:56:06 1510862166.945660: $GPZDA,195605.00,16,11,2017,00,00*6B
2017-11-16 14:56:06 1510862166.945849: $GPGGA,195605,3946.9575,N,08404.9848,W,2,10,1.00,301.77,M,-33.324,M,,*74
2017-11-16 14:56:06 1510862166.945910: $GPRMC,195605,A,3946.9575,N,08404.9848,W,0.0000,0.000,161117,,*33
2017-11-16 14:56:06 1510862166.945967: $GPGSA,A,3,10,15,18,21,20,24,27,32,14,138,,,1.6,1.0,1.3*06
2017-11-16 14:56:07 1510862167.486492: $GPZDA,195606.00,16,11,2017,00,00*68
2017-11-16 14:56:07 1510862167.486685: $GPGGA,195606,3946.9575,N,08404.9848,W,2,10,1.00,301.77,M,-33.324,M,,*77
2017-11-16 14:56:07 1510862167.486797: $GPRMC,195606,A,3946.9575,N,08404.9848,W,0.0000,0.000,161117,,*30
2017-11-16 14:56:07 1510862167.486858: $GPGSA,A,3,10,15,18,21,20,24,27,32,14,138,,,1.6,1.0,1.3*06
2017-11-16 14:56:08 1510862168.493660: $GPZDA,195607.00,16,11,2017,00,00*69
2017-11-16 14:56:08 1510862168.493827: $GPGGA,195607,3946.9575,N,08404.9848,W,2,10,0.80,301.77,M,-33.324,M,,*7F
2017-11-16 14:56:08 1510862168.493888: $GPRMC,195607,A,3946.9575,N,08404.9848,W,0.0000,0.000,161117,,*31
2017-11-16 14:56:08 1510862168.493944: $GPGSA,A,3,10,15,18,21,20,24,27,32,14,138,,,1.6,0.8,1.3*0F
