2017-12-01 11:29:51 1512145791.677228: {"class":"VERSION","release":"3.16","rev":"3.16-4","proto_major":3,"proto_minor":11}
2017-12-01 11:29:51 1512145791.677608: {"class":"DEVICES","devices":[{"class":"DEVICE","path":"/dev/ttyUSB0","driver":"SiRF","subtype":"9\u0006GSD4e_4.1.2-P1_RPATCH.05-F-GPS-4R-1510281 11/03/2015 307","activated":"2017-12-01T16:29:51.563Z","flags":1,"native":1,"bps":4800,"parity":"N","stopbits":1,"cycle":1.00}]}
2017-12-01 11:29:51 1512145791.677720: {"class":"WATCH","enable":true,"json":false,"nmea":true,"raw":0,"scaled":false,"timing":false,"split24":false,"pps":false}
2017-12-01 11:29:52 1512145792.752322: $GPGSV,3,1,12,05,18,073,41,10,09,267,37,13,48,054,46,15,79,102,48*72
2017-12-01 11:29:52 1512145792.752508: $GPGSV,3,2,12,18,39,280,43,20,66,039,42,21,61,309,46,24,15,151,39*7A
2017-12-01 11:29:52 1512145792.752578: $GPGSV,3,3,12,29,31,196,47,30,01,030,02,27,04,327,23,138,38,213,46*48
2017-12-01 11:29:52 1512145792.866419: $GPZDA,162953.00,01,12,2017,00,00*6A
2017-12-01 11:29:52 1512145792.866612: $GPGGA,162953,3946.9576,N,08404.9844,W,2,11,1.00,295.39,M,-33.324,M,,*78
2017-12-01 11:29:52 1512145792.866681: $GPRMC,162953,A,3946.9576,N,08404.9844,W,0.0000,0.000,011217,,*3D
2017-12-01 11:29:52 1512145792.866743: $GPGSA,A,3,5,10,13,15,18,20,21,24,29,27,138,,2.0,1.0,1.5*3D
2017-12-01 11:29:53 1512145793.417777: $GPZDA,162954.00,01,12,2017,00,00*6D
2017-12-01 11:29:53 1512145793.417957: $GPGGA,162954,3946.9576,N,08404.9844,W,2,11,1.00,295.39,M,-33.324,M,,*7F
2017-12-01 11:29:53 1512145793.418025: $GPRMC,162954,A,3946.9576,N,08404.9844,W,0.0000,0.000,011217,,*3A
2017-12-01 11:29:53 1512145793.418086: $GPGSA,A,3,5,10,13,15,18,20,21,24,29,27,138,,2.0,1.0,1.5*3D
2017-12-01 11:29:54 1512145794.420578: $GPZDA,162955.00,01,12,2017,00,00*6C
2017-12-01 11:29:54 1512145794.420759: $GPGGA,162955,3946.9576,N,08404.9844,W,2,11,1.00,295.39,M,-33.324,M,,*7E
2017-12-01 11:29:54 1512145794.420827: $GPRMC,162955,A,3946.9576,N,08404.9844,W,0.0000,0.000,011217,,*3B
2017-12-01 11:29:54 1512145794.420888: $GPGSA,A,3,5,10,13,15,18,20,21,24,29,27,138,,2.0,1.0,1.5*3D
2017-12-01 11:29:55 1512145795.751418: $GPGSV,3,1,12,05,18,073,41,10,09,267,36,13,48,054,46,15,79,102,48*73
2017-12-01 11:29:55 1512145795.751620: $GPGSV,3,2,12,18,39,280,43,20,66,039,42,21,61,309,46,24,15,151,39*7A
2017-12-01 11:29:55 1512145795.751686: $GPGSV,3,3,12,29,31,196,47,30,01,030,02,27,04,327,23,138,38,213,46*48
2017-12-01 11:29:55 1512145795.864993: $GPZDA,162956.00,01,12,2017,00,00*6F
2017-12-01 11:29:55 1512145795.865148: $GPGGA,162956,3946.9576,N,08404.9844,W,2,11,1.00,295.39,M,-33.324,M,,*7D
2017-12-01 11:29:55 1512145795.865211: $GPRMC,162956,A,3946.9576,N,08404.9844,W,0.0000,0.000,011217,,*38
2017-12-01 11:29:55 1512145795.865272: $GPGSA,A,3,5,10,13,15,18,20,21,24,29,27,138,,2.0,1.0,1.5*3D
2017-12-01 11:29:56 1512145796.416849: $GPZDA,162957.00,01,12,2017,00,00*6E
2017-12-01 11:29:56 1512145796.417024: $GPGGA,162957,3946.9576,N,08404.9844,W,2,11,1.00,295.39,M,-33.324,M,,*7C
2017-12-01 11:29:56 1512145796.417091: $GPRMC,162957,A,3946.9576,N,08404.9844,W,0.0000,0.000,011217,,*39
2017-12-01 11:29:56 1512145796.417152: $GPGSA,A,3,5,10,13,15,18,20,21,24,29,27,138,,2.0,1.0,1.5*3D
2017-12-01 11:29:57 1512145797.419001: $GPZDA,162958.00,01,12,2017,00,00*61
2017-12-01 11:29:57 1512145797.419173: $GPGGA,162958,3946.9576,N,08404.9844,W,2,11,1.00,295.39,M,-33.324,M,,*73
2017-12-01 11:29:57 1512145797.419239: $GPRMC,162958,A,3946.9576,N,08404.9844,W,0.0000,0.000,011217,,*36
2017-12-01 11:29:57 1512145797.419299: $GPGSA,A,3,5,10,13,15,18,20,21,24,29,27,138,,2.0,1.0,1.5*3D
2017-12-01 11:29:58 1512145798.753443: $GPGSV,3,1,12,05,18,073,40,10,09,267,35,13,48,054,46,15,79,102,48*71
2017-12-01 11:29:58 1512145798.753626: $GPGSV,3,2,12,18,39,280,43,20,66,039,42,21,61,309,46,24,15,151,39*7A
2017-12-01 11:29:58 1512145798.753691: $GPGSV,3,3,12,29,31,196,48,30,01,030,02,27,04,327,27,138,38,213,46*43
2017-12-01 11:29:58 1512145798.867200: $GPZDA,162959.00,01,12,2017,00,00*60
2017-12-01 11:29:58 1512145798.867376: $GPGGA,162959,3946.9576,N,08404.9844,W,2,11,1.00,295.39,M,-33.324,M,,*72
2017-12-01 11:29:58 1512145798.867497: $GPRMC,162959,A,3946.9576,N,08404.9844,W,0.0000,0.000,011217,,*37
2017-12-01 11:29:58 1512145798.867559: $GPGSA,A,3,5,10,13,15,18,20,21,24,29,27,138,,2.0,1.0,1.5*3D
2017-12-01 11:29:59 1512145799.492203: $GPZDA,163000.00,01,12,2017,00,00*64
2017-12-01 11:29:59 1512145799.492378: $GPGGA,163000,3946.9576,N,08404.9844,W,2,11,1.00,295.39,M,-33.324,M,,*76
2017-12-01 11:29:59 1512145799.492448: $GPRMC,163000,A,3946.9576,N,08404.9844,W,0.0000,0.000,011217,,*33
2017-12-01 11:29:59 1512145799.492526: $GPGSA,A,3,5,10,13,15,18,20,21,24,29,27,138,,2.0,1.0,1.5*3D
2017-12-01 11:30:00 1512145800.423030: $GPZDA,163001.00,01,12,2017,00,00*65
2017-12-01 11:30:00 1512145800.423210: $GPGGA,163001,3946.9576,N,08404.9844,W,2,11,1.00,295.39,M,-33.324,M,,*77
2017-12-01 11:30:00 1512145800.423278: $GPRMC,163001,A,3946.9576,N,08404.9844,W,0.0000,0.000,011217,,*32
2017-12-01 11:30:00 1512145800.423338: $GPGSA,A,3,5,10,13,15,18,20,21,24,29,27,138,,2.0,1.0,1.5*3D
