2017-11-15 18:41:33 1510789293.374347: {"class":"VERSION","release":"3.17","rev":"3.17","proto_major":3,"proto_minor":12}
2017-11-15 18:41:33 1510789293.374812: {"class":"DEVICES","devices":[{"class":"DEVICE","path":"/dev/ttyUSB0","driver":"SiRF","subtype":"9\u0006GSD4e_4.1.2-P1_RPATCH.05-F-GPS-4R-1510281 11/03/2015 307","activated":"2017-11-15T23:41:33.218Z","flags":1,"native":1,"bps":4800,"parity":"N","stopbits":1,"cycle":1.00}]}
2017-11-15 18:41:33 1510789293.374929: {"class":"WATCH","enable":true,"json":false,"nmea":true,"raw":0,"scaled":false,"timing":false,"split24":false,"pps":false}
2017-11-15 18:41:33 1510789293.667920: $GPGSV,3,1,11,25,33,054,08,14,68,049,14,12,04,031,14,32,53,084,22*7D
2017-11-15 18:41:33 1510789293.668093: $GPGSV,3,2,11,31,79,298,23,01,17,271,16,29,01,090,06,10,18,157,17*7A
2017-11-15 18:41:33 1510789293.668154: $GPGSV,3,3,11,26,29,178,04,22,41,300,23,16,01,190,00*45
2017-11-15 18:41:33 1510789293.781244: $GPZDA,234132.00,15,11,2017,00,00*63
2017-11-15 18:41:33 1510789293.781385: $GPGGA,234132,3946.9483,N,08404.9742,W,1,08,1.20,313.04,M,-33.324,M,,*7D
2017-11-15 18:41:33 1510789293.781445: $GPRMC,234132,A,3946.9483,N,08404.9742,W,0.9948,317.276,151117,,*3C
2017-11-15 18:41:33 1510789293.781502: $GPGSA,A,3,25,14,32,31,1,29,10,22,,,,,3.4,1.2,2.9*07
2017-11-15 18:41:34 1510789294.364618: $GPZDA,234133.00,15,11,2017,00,00*62
2017-11-15 18:41:34 1510789294.364790: $GPGGA,234133,3946.9490,N,08404.9741,W,1,08,1.20,312.92,M,-33.324,M,,*73
2017-11-15 18:41:34 1510789294.364850: $GPRMC,234133,A,3946.9490,N,08404.9741,W,1.1391,323.662,151117,,*3D
2017-11-15 18:41:34 1510789294.364908: $GPGSA,A,3,25,14,32,31,1,29,10,22,,,,,3.4,1.2,2.9*07
2017-11-15 18:41:35 1510789295.331656: $GPZDA,234134.00,15,11,2017,00,00*65
2017-11-15 18:41:35 1510789295.331833: $GPGGA,234134,3946.9490,N,08404.9748,W,1,08,2.40,312.84,M,-33.324,M,,*7F
2017-11-15 18:41:35 1510789295.331896: $GPRMC,234134,A,3946.9490,N,08404.9748,W,0.9948,317.276,151117,,*32
2017-11-15 18:41:35 1510789295.331953: $GPGSA,A,3,25,14,32,31,1,29,10,22,,,,,3.4,2.4,2.9*02
2017-11-15 18:41:36 1510789296.667088: $GPGSV,3,1,11,25,33,054,07,14,68,049,15,12,04,031,14,32,53,084,21*70
2017-11-15 18:41:36 1510789296.667256: $GPGSV,3,2,11,31,79,298,23,01,17,271,16,03,23,315,13,10,18,157,17*78
2017-11-15 18:41:36 1510789296.667315: $GPGSV,3,3,11,26,29,178,04,22,41,300,23,16,01,190,05*40
2017-11-15 18:41:36 1510789296.780300: $GPZDA,234135.00,15,11,2017,00,00*64
2017-11-15 18:41:36 1510789296.780451: $GPGGA,234135,3946.9490,N,08404.9748,W,1,08,2.40,312.84,M,-33.324,M,,*7E
2017-11-15 18:41:36 1510789296.780513: $GPRMC,234135,A,3946.9490,N,08404.9748,W,0.9948,317.276,151117,,*33
2017-11-15 18:41:36 1510789296.780569: $GPGSA,A,3,25,14,12,32,31,1,10,22,,,,,3.4,2.4,2.9*0A
2017-11-15 18:41:37 1510789297.364903: $GPZDA,234136.00,15,11,2017,00,00*67
2017-11-15 18:41:37 1510789297.365068: $GPGGA,234136,3946.9495,N,08404.9748,W,1,08,2.40,313.48,M,-33.324,M,,*79
2017-11-15 18:41:37 1510789297.365129: $GPRMC,234136,A,3946.9495,N,08404.9748,W,1.3084,315.525,151117,,*34
2017-11-15 18:41:37 1510789297.365185: $GPGSA,A,3,25,14,12,32,31,1,10,22,,,,,3.4,2.4,2.9*0A
2017-11-15 18:41:38 1510789298.364516: $GPZDA,234137.00,15,11,2017,00,00*66
2017-11-15 18:41:38 1510789298.364680: $GPGGA,234137,3946.9498,N,08404.9755,W,1,08,2.40,312.63,M,-33.324,M,,*71
2017-11-15 18:41:38 1510789298.364744: $GPRMC,234137,A,3946.9498,N,08404.9755,W,0.9988,284.546,151117,,*36
2017-11-15 18:41:38 1510789298.364800: $GPGSA,A,3,25,14,12,32,31,1,10,22,,,,,3.4,2.4,2.9*0A
2017-11-15 18:41:39 1510789299.700318: $GPGSV,3,1,11,25,33,054,09,14,68,049,15,29,01,090,05,32,53,084,21*78
2017-11-15 18:41:39 1510789299.700471: $GPGSV,3,2,11,31,79,298,23,01,17,271,16,03,23,315,12,10,18,157,17*79
2017-11-15 18:41:39 1510789299.700530: $GPGSV,3,3,11,26,29,178,00,22,41,300,23,16,01,190,06*47
2017-11-15 18:41:39 1510789299.813802: $GPZDA,234138.00,15,11,2017,00,00*69
2017-11-15 18:41:39 1510789299.813967: $GPGGA,234138,3946.9495,N,08404.9755,W,1,06,2.40,313.40,M,-33.324,M,,*7D
2017-11-15 18:41:39 1510789299.814029: $GPRMC,234138,A,3946.9495,N,08404.9755,W,0.5951,238.684,151117,,*36
2017-11-15 18:41:39 1510789299.814138: $GPGSA,A,3,14,32,31,1,10,22,,,,,,,3.4,2.4,2.9*0E
2017-11-15 18:41:40 1510789300.364514: $GPZDA,234139.00,15,11,2017,00,00*68
2017-11-15 18:41:40 1510789300.364679: $GPGGA,234139,3946.9491,N,08404.9755,W,1,06,2.40,312.76,M,-33.324,M,,*7C
2017-11-15 18:41:40 1510789300.364743: $GPRMC,234139,A,3946.9491,N,08404.9755,W,0.9929,212.499,151117,,*36
2017-11-15 18:41:40 1510789300.364800: $GPGSA,A,3,14,32,31,1,10,22,,,,,,,3.4,2.4,2.9*0E
2017-11-15 18:41:41 1510789301.329939: $GPZDA,234140.00,15,11,2017,00,00*66
2017-11-15 18:41:41 1510789301.330109: $GPGGA,234140,3946.9491,N,08404.9755,W,1,06,2.40,312.76,M,-33.324,M,,*72
2017-11-15 18:41:41 1510789301.330170: $GPRMC,234140,A,3946.9491,N,08404.9755,W,1.1294,223.341,151117,,*3C
2017-11-15 18:41:41 1510789301.330227: $GPGSA,A,3,14,32,31,1,10,22,,,,,,,3.4,2.4,2.9*0E
2017-11-15 18:41:42 1510789302.665656: $GPGSV,3,1,11,25,33,054,10,14,68,049,15,29,01,090,05,32,53,084,20*71
2017-11-15 18:41:42 1510789302.665832: $GPGSV,3,2,11,31,79,298,23,01,17,271,16,26,29,178,00,10,18,157,18*71
2017-11-15 18:41:42 1510789302.665893: $GPGSV,3,3,11,03,23,315,00,22,41,300,23,16,01,190,07*42
2017-11-15 18:41:42 1510789302.779004: $GPZDA,234141.00,15,11,2017,00,00*67
2017-11-15 18:41:42 1510789302.779164: $GPGGA,234141,3946.9483,N,08404.9756,W,1,06,2.40,312.88,M,-33.324,M,,*72
2017-11-15 18:41:42 1510789302.779227: $GPRMC,234141,A,3946.9483,N,08404.9756,W,0.9019,198.875,151117,,*3C
2017-11-15 18:41:42 1510789302.779284: $GPGSA,A,3,14,32,31,1,10,22,,,,,,,3.4,2.4,2.9*0E
2017-11-15 18:41:43 1510789303.331161: $GPZDA,234142.00,15,11,2017,00,00*64
2017-11-15 18:41:43 1510789303.331310: $GPGGA,234142,3946.9483,N,08404.9756,W,1,06,1.20,312.88,M,-33.324,M,,*74
2017-11-15 18:41:43 1510789303.331372: $GPRMC,234142,A,3946.9483,N,08404.9756,W,0.4207,219.347,151117,,*3F
2017-11-15 18:41:43 1510789303.331428: $GPGSA,A,3,14,32,31,1,10,22,,,,,,,3.4,1.2,2.9*0B
2017-11-15 18:41:44 1510789304.331113: $GPZDA,234143.00,15,11,2017,00,00*65
2017-11-15 18:41:44 1510789304.331276: $GPGGA,234143,3946.9483,N,08404.9756,W,1,06,1.20,312.88,M,-33.324,M,,*75
2017-11-15 18:41:44 1510789304.331338: $GPRMC,234143,A,3946.9483,N,08404.9756,W,0.3423,184.197,151117,,*31
2017-11-15 18:41:44 1510789304.331393: $GPGSA,A,3,14,32,31,1,10,22,,,,,,,3.4,1.2,2.9*0B
2017-11-15 18:41:45 1510789305.665349: $GPGSV,3,1,11,25,33,054,10,14,68,049,16,29,01,090,05,32,53,084,20*72
2017-11-15 18:41:45 1510789305.665521: $GPGSV,3,2,11,31,79,298,23,01,17,271,16,03,23,315,12,10,18,157,18*76
2017-11-15 18:41:45 1510789305.665583: $GPGSV,3,3,11,26,29,178,00,22,41,300,23,16,01,190,06*47
2017-11-15 18:41:45 1510789305.778982: $GPZDA,234144.00,15,11,2017,00,00*62
2017-11-15 18:41:45 1510789305.779144: $GPGGA,234144,3946.9483,N,08404.9749,W,1,07,1.20,312.96,M,-33.324,M,,*72
2017-11-15 18:41:45 1510789305.779206: $GPRMC,234144,A,3946.9483,N,08404.9749,W,0.5306,114.352,151117,,*3C
2017-11-15 18:41:45 1510789305.779261: $GPGSA,A,3,25,14,32,31,1,10,22,,,,,,3.4,1.2,2.9*0C
2017-11-15 18:41:46 1510789306.404334: $GPZDA,234145.00,15,11,2017,00,00*63
2017-11-15 18:41:46 1510789306.404493: $GPGGA,234145,3946.9483,N,08404.9749,W,1,07,1.20,312.96,M,-33.324,M,,*73
2017-11-15 18:41:46 1510789306.404553: $GPRMC,234145,A,3946.9483,N,08404.9749,W,0.8011,119.090,151117,,*35
2017-11-15 18:41:46 1510789306.404612: $GPGSA,A,3,25,14,32,31,1,10,22,,,,,,3.4,1.2,2.9*0C
2017-11-15 18:41:47 1510789307.330152: $GPZDA,234146.00,15,11,2017,00,00*60
2017-11-15 18:41:47 1510789307.330437: $GPGGA,234146,3946.9483,N,08404.9742,W,1,07,2.40,313.04,M,-33.324,M,,*74
2017-11-15 18:41:47 1510789307.330624: $GPRMC,234146,A,3946.9483,N,08404.9742,W,1.0253,113.296,151117,,*3E
2017-11-15 18:41:47 1510789307.330748: $GPGSA,A,3,25,14,32,31,1,10,22,,,,,,3.4,2.4,2.9*09
