2017-12-01 14:11:19 1512155479.087253: {"class":"VERSION","release":"3.16","rev":"3.16-4","proto_major":3,"proto_minor":11}
2017-12-01 14:11:19 1512155479.087895: {"class":"DEVICES","devices":[{"class":"DEVICE","path":"/dev/ttyUSB0","driver":"SiRF","subtype":"9\u0006GSD4e_4.1.2-P1_RPATCH.05-F-GPS-4R-1510281 11/03/2015 307","activated":"2017-12-01T19:11:19.070Z","flags":1,"native":1,"bps":4800,"parity":"N","stopbits":1,"cycle":1.00}]}
2017-12-01 14:11:19 1512155479.088185: {"class":"WATCH","enable":true,"json":false,"nmea":true,"raw":0,"scaled":false,"timing":false,"split24":false,"pps":false}
2017-12-01 14:11:20 1512155480.036073: $GPZDA,191120.33,01,12,2017,00,00*6A
2017-12-01 14:11:20 1512155480.036276: $GPGGA,191120,3946.9511,N,08404.9855,W,1,12,0.80,342.70,M,-33.324,M,,*76
2017-12-01 14:11:20 1512155480.036377: $GPRMC,191120,A,3946.9511,N,08404.9855,W,0.3423,4.196,011217,,*30
2017-12-01 14:11:20 1512155480.036441: $GPGSA,A,3,8,10,14,18,20,21,24,27,32,12,15,138,2.0,0.8,1.5*37
2017-12-01 14:11:20 1512155480.036501: $GPGBS,191120,10.70,M,15.43,M,35.28,M*0D
2017-12-01 14:11:21 1512155481.178695: $GPGSV,3,1,12,08,07,298,41,10,64,324,50,14,25,249,41,15,15,064,37*7C
2017-12-01 14:11:21 1512155481.178857: $GPGSV,3,2,12,18,74,079,43,20,13,115,35,21,34,180,44,24,48,064,47*7D
2017-12-01 14:11:21 1512155481.178923: $GPGSV,3,3,12,27,09,264,40,32,42,259,46,12,06,111,08,138,38,213,00*44
2017-12-01 14:11:21 1512155481.292163: $GPZDA,191121.00,01,12,2017,00,00*6B
2017-12-01 14:11:21 1512155481.292416: $GPGGA,191121,3946.9510,N,08404.9854,W,1,10,0.80,341.30,M,-33.324,M,,*72
2017-12-01 14:11:21 1512155481.292489: $GPRMC,191121,A,3946.9510,N,08404.9854,W,0.0407,142.014,011217,,*3C
2017-12-01 14:11:21 1512155481.292551: $GPGSA,A,3,8,10,14,15,18,20,21,24,27,32,,,2.0,0.8,1.5*0E
2017-12-01 14:11:21 1512155481.743280: $GPZDA,191122.00,01,12,2017,00,00*68
2017-12-01 14:11:21 1512155481.743476: $GPGGA,191122,3946.9513,N,08404.9853,W,1,10,0.80,339.13,M,-33.324,M,,*7B
2017-12-01 14:11:21 1512155481.743543: $GPRMC,191122,A,3946.9513,N,08404.9853,W,0.1567,9.200,011217,,*34
2017-12-01 14:11:21 1512155481.743605: $GPGSA,A,3,8,10,14,15,18,20,21,24,27,32,,,2.0,0.8,1.5*0E
2017-12-01 14:11:22 1512155482.343866: $GPZDA,191123.00,01,12,2017,00,00*69
2017-12-01 14:11:22 1512155482.344045: $GPGGA,191123,3946.9512,N,08404.9852,W,1,10,0.80,337.72,M,-33.324,M,,*73
2017-12-01 14:11:22 1512155482.344114: $GPRMC,191123,A,3946.9512,N,08404.9852,W,0.0000,0.000,011217,,*3B
2017-12-01 14:11:22 1512155482.344176: $GPGSA,A,3,8,10,14,15,18,20,21,24,27,32,,,2.0,0.8,1.5*0E
2017-12-01 14:11:23 1512155483.679060: $GPGSV,3,1,12,08,07,298,40,10,64,324,50,14,25,249,41,15,15,064,37*7D
2017-12-01 14:11:23 1512155483.679263: $GPGSV,3,2,12,18,74,079,43,20,13,115,35,21,34,180,44,24,48,064,48*72
2017-12-01 14:11:23 1512155483.679346: $GPGSV,3,3,12,27,09,264,38,32,42,259,45,12,06,111,26,138,38,213,47*47
2017-12-01 14:11:23 1512155483.792795: $GPZDA,191124.00,01,12,2017,00,00*6E
2017-12-01 14:11:23 1512155483.792962: $GPGGA,191124,3946.9515,N,08404.9851,W,1,12,0.80,335.56,M,-33.324,M,,*76
2017-12-01 14:11:23 1512155483.793030: $GPRMC,191124,A,3946.9515,N,08404.9851,W,0.0000,0.000,011217,,*38
2017-12-01 14:11:23 1512155483.793091: $GPGSA,A,3,8,10,14,15,18,20,21,24,27,32,12,138,2.0,0.8,1.5*37
2017-12-01 14:11:24 1512155484.343590: $GPZDA,191125.00,01,12,2017,00,00*6F
2017-12-01 14:11:24 1512155484.343762: $GPGGA,191125,3946.9518,N,08404.9850,W,1,12,0.80,334.79,M,-33.324,M,,*77
2017-12-01 14:11:24 1512155484.343828: $GPRMC,191125,A,3946.9518,N,08404.9850,W,0.0000,0.000,011217,,*35
2017-12-01 14:11:24 1512155484.343888: $GPGSA,A,3,8,10,14,15,18,20,21,24,27,32,12,138,2.0,0.8,1.5*37
2017-12-01 14:11:25 1512155485.342846: $GPZDA,191126.00,01,12,2017,00,00*6C
2017-12-01 14:11:25 1512155485.343012: $GPGGA,191126,3946.9518,N,08404.9849,W,1,12,0.80,333.39,M,-33.324,M,,*7F
2017-12-01 14:11:25 1512155485.343080: $GPRMC,191126,A,3946.9518,N,08404.9849,W,0.0000,0.000,011217,,*3E
2017-12-01 14:11:25 1512155485.343141: $GPGSA,A,3,8,10,14,15,18,20,21,24,27,32,12,138,2.0,0.8,1.5*37
2017-12-01 14:11:25 1512155485.343276: $GPGBS,191126,10.70,M,15.43,M,35.28,M*0B
2017-12-01 14:11:26 1512155486.679802: $GPGSV,3,1,12,08,07,298,41,10,64,324,50,14,25,249,40,15,15,064,37*7D
2017-12-01 14:11:26 1512155486.679982: $GPGSV,3,2,12,18,74,079,43,20,13,115,35,21,34,180,43,24,48,064,47*7A
2017-12-01 14:11:26 1512155486.680049: $GPGSV,3,3,12,27,09,264,38,32,42,259,45,12,06,111,27,138,38,213,47*46
2017-12-01 14:11:26 1512155486.793172: $GPZDA,191127.00,01,12,2017,00,00*6D
2017-12-01 14:11:26 1512155486.793397: $GPGGA,191127,3946.9517,N,08404.9848,W,1,12,0.80,331.98,M,-33.324,M,,*79
2017-12-01 14:11:26 1512155486.793466: $GPRMC,191127,A,3946.9517,N,08404.9848,W,0.0000,0.000,011217,,*31
2017-12-01 14:11:26 1512155486.793528: $GPGSA,A,3,8,10,14,15,18,20,21,24,27,32,12,138,2.0,0.8,1.5*37
2017-12-01 14:11:27 1512155487.345678: $GPZDA,191128.00,01,12,2017,00,00*62
2017-12-01 14:11:27 1512155487.345849: $GPGGA,191128,3946.9520,N,08404.9848,W,1,12,0.80,331.22,M,-33.324,M,,*73
2017-12-01 14:11:27 1512155487.345916: $GPRMC,191128,A,3946.9520,N,08404.9848,W,0.0000,0.000,011217,,*3A
2017-12-01 14:11:27 1512155487.345977: $GPGSA,A,3,8,10,14,15,18,20,21,24,27,32,12,138,2.0,0.8,1.5*37
2017-12-01 14:11:28 1512155488.345654: $GPZDA,191129.00,01,12,2017,00,00*63
2017-12-01 14:11:28 1512155488.345827: $GPGGA,191129,3946.9533,N,08404.9840,W,2,12,1.80,318.97,M,-33.324,M,,*7F
2017-12-01 14:11:28 1512155488.345894: $GPRMC,191129,A,3946.9533,N,08404.9840,W,0.0000,0.000,011217,,*31
2017-12-01 14:11:28 1512155488.345955: $GPGSA,A,3,8,10,14,15,18,20,21,24,27,32,12,138,2.0,1.8,1.5*36
2017-12-01 14:11:29 1512155489.683898: $GPGSV,3,1,12,08,07,298,41,10,64,324,50,14,25,249,40,15,15,064,37*7D
2017-12-01 14:11:29 1512155489.684091: $GPGSV,3,2,12,18,74,079,43,20,13,115,35,21,34,180,43,24,48,064,48*75
2017-12-01 14:11:29 1512155489.684160: $GPGSV,3,3,12,27,09,264,38,32,42,259,45,12,06,111,27,138,38,213,46*47
2017-12-01 14:11:29 1512155489.797540: $GPZDA,191130.00,01,12,2017,00,00*6B
2017-12-01 14:11:29 1512155489.797706: $GPGGA,191130,3946.9530,N,08404.9840,W,2,12,0.80,319.74,M,-33.324,M,,*79
2017-12-01 14:11:29 1512155489.797774: $GPRMC,191130,A,3946.9530,N,08404.9840,W,0.0000,0.000,011217,,*3A
2017-12-01 14:11:29 1512155489.797835: $GPGSA,A,3,8,10,14,15,18,20,21,24,27,32,12,138,2.0,0.8,1.5*37
2017-12-01 14:11:30 1512155490.349486: $GPZDA,191131.00,01,12,2017,00,00*6A
2017-12-01 14:11:30 1512155490.349666: $GPGGA,191131,3946.9530,N,08404.9840,W,2,12,0.80,319.74,M,-33.324,M,,*78
2017-12-01 14:11:30 1512155490.349733: $GPRMC,191131,A,3946.9530,N,08404.9840,W,0.0000,0.000,011217,,*3B
2017-12-01 14:11:30 1512155490.349794: $GPGSA,A,3,8,10,14,15,18,20,21,24,27,32,12,138,2.0,0.8,1.5*37
2017-12-01 14:11:31 1512155491.351608: $GPZDA,191132.00,01,12,2017,00,00*69
2017-12-01 14:11:31 1512155491.351780: $GPGGA,191132,3946.9530,N,08404.9840,W,2,12,0.80,319.74,M,-33.324,M,,*7B
2017-12-01 14:11:31 1512155491.351848: $GPRMC,191132,A,3946.9530,N,08404.9840,W,0.0000,0.000,011217,,*38
2017-12-01 14:11:31 1512155491.351909: $GPGSA,A,3,8,10,14,15,18,20,21,24,27,32,12,138,2.0,0.8,1.5*37
2017-12-01 14:11:32 1512155492.684778: $GPGSV,3,1,12,08,07,298,41,10,64,324,50,14,25,249,41,15,15,064,37*7C
2017-12-01 14:11:32 1512155492.684957: $GPGSV,3,2,12,18,74,079,43,20,13,115,35,21,34,180,43,24,48,064,48*75
2017-12-01 14:11:32 1512155492.685025: $GPGSV,3,3,12,27,09,264,38,32,42,259,45,12,06,111,28,138,38,213,47*49
2017-12-01 14:11:32 1512155492.798370: $GPZDA,191133.00,01,12,2017,00,00*68
2017-12-01 14:11:32 1512155492.798538: $GPGGA,191133,3946.9526,N,08404.9841,W,2,12,0.80,320.50,M,-33.324,M,,*70
2017-12-01 14:11:32 1512155492.798605: $GPRMC,191133,A,3946.9526,N,08404.9841,W,0.0000,0.000,011217,,*3F
2017-12-01 14:11:32 1512155492.798666: $GPGSA,A,3,8,10,14,15,18,20,21,24,27,32,12,138,2.0,0.8,1.5*37
2017-12-01 14:11:33 1512155493.424874: $GPZDA,191134.00,01,12,2017,00,00*6F
2017-12-01 14:11:33 1512155493.425068: $GPGGA,191134,3946.9526,N,08404.9834,W,2,12,0.80,320.58,M,-33.324,M,,*7D
2017-12-01 14:11:33 1512155493.425136: $GPRMC,191134,A,3946.9526,N,08404.9834,W,0.0000,0.000,011217,,*3A
2017-12-01 14:11:33 1512155493.425278: $GPGSA,A,3,8,10,14,15,18,20,21,24,27,32,12,138,2.0,0.8,1.5*37
2017-12-01 14:11:34 1512155494.344388: $GPZDA,191135.00,01,12,2017,00,00*6E
2017-12-01 14:11:34 1512155494.344564: $GPGGA,191135,3946.9526,N,08404.9834,W,2,12,0.80,320.58,M,-33.324,M,,*7C
2017-12-01 14:11:34 1512155494.344631: $GPRMC,191135,A,3946.9526,N,08404.9834,W,0.0000,0.000,011217,,*3B
2017-12-01 14:11:34 1512155494.344692: $GPGSA,A,3,8,10,14,15,18,20,21,24,27,32,12,138,2.0,0.8,1.5*37
2017-12-01 14:11:35 1512155495.678879: $GPGSV,3,1,12,08,07,298,41,10,64,324,50,14,25,249,41,15,15,064,36*7D
2017-12-01 14:11:35 1512155495.679061: $GPGSV,3,2,12,18,74,079,43,20,13,115,34,21,34,180,44,24,48,064,48*73
2017-12-01 14:11:35 1512155495.679128: $GPGSV,3,3,12,27,09,264,36,32,42,259,44,12,06,111,28,138,38,213,47*46
2017-12-01 14:11:35 1512155495.792306: $GPZDA,191136.00,01,12,2017,00,00*6D
2017-12-01 14:11:35 1512155495.792458: $GPGGA,191136,3946.9539,N,08404.9844,W,2,12,0.80,314.55,M,-33.324,M,,*7C
2017-12-01 14:11:35 1512155495.792524: $GPRMC,191136,A,3946.9539,N,08404.9844,W,0.1867,180.000,011217,,*30
2017-12-01 14:11:35 1512155495.792585: $GPGSA,A,3,8,10,14,15,18,20,21,24,27,32,12,138,2.0,0.8,1.5*37
2017-12-01 14:11:36 1512155496.344119: $GPZDA,191137.00,01,12,2017,00,00*6C
2017-12-01 14:11:36 1512155496.344535: $GPGGA,191137,3946.9536,N,08404.9845,W,2,12,0.80,315.32,M,-33.324,M,,*73
2017-12-01 14:11:36 1512155496.344663: $GPRMC,191137,A,3946.9536,N,08404.9845,W,0.0000,0.000,011217,,*3E
2017-12-01 14:11:36 1512155496.344788: $GPGSA,A,3,8,10,14,15,18,20,21,24,27,32,12,138,2.0,0.8,1.5*37
2017-12-01 14:11:37 1512155497.344475: $GPZDA,191138.00,01,12,2017,00,00*63
2017-12-01 14:11:37 1512155497.344586: $GPGGA,191138,3946.9536,N,08404.9845,W,2,12,0.80,315.32,M,-33.324,M,,*7C
2017-12-01 14:11:37 1512155497.344621: $GPRMC,191138,A,3946.9536,N,08404.9845,W,0.0000,0.000,011217,,*31
2017-12-01 14:11:37 1512155497.344651: $GPGSA,A,3,8,10,14,15,18,20,21,24,27,32,12,138,2.0,0.8,1.5*37
2017-12-01 14:11:37 1512155497.344681: $GPGBS,191138,2.67,M,3.86,M,8.82,M*31
2017-12-01 14:11:38 1512155498.684300: $GPGSV,3,1,12,08,07,298,41,10,64,324,49,14,25,249,41,15,15,064,35*76
2017-12-01 14:11:38 1512155498.684623: $GPGSV,3,2,12,18,74,079,42,20,13,115,34,21,34,180,45,24,48,064,48*73
2017-12-01 14:11:38 1512155498.684771: $GPGSV,3,3,12,27,09,264,37,32,42,259,44,12,06,111,27,138,38,213,46*49
2017-12-01 14:11:38 1512155498.797474: $GPZDA,191139.00,01,12,2017,00,00*62
2017-12-01 14:11:38 1512155498.797647: $GPGGA,191139,3946.9536,N,08404.9845,W,2,12,0.80,315.32,M,-33.324,M,,*7D
2017-12-01 14:11:38 1512155498.797714: $GPRMC,191139,A,3946.9536,N,08404.9845,W,0.0000,0.000,011217,,*30
2017-12-01 14:11:38 1512155498.797776: $GPGSA,A,3,8,10,14,15,18,20,21,24,27,32,12,138,2.0,0.8,1.5*37
