2017-12-01 17:53:37 1512168817.086786: {"class":"VERSION","release":"3.16","rev":"3.16-4","proto_major":3,"proto_minor":11}
2017-12-01 17:53:37 1512168817.087193: {"class":"DEVICES","devices":[{"class":"DEVICE","path":"/dev/ttyUSB0","driver":"SiRF","subtype":"9\u0006GSD4e_4.1.2-P1_RPATCH.05-F-GPS-4R-1510281 11/03/2015 307","activated":"2017-12-01T22:53:36.757Z","flags":1,"native":1,"bps":4800,"parity":"N","stopbits":1,"cycle":1.00}]}
2017-12-01 17:53:37 1512168817.087318: {"class":"WATCH","enable":true,"json":false,"nmea":true,"raw":0,"scaled":false,"timing":false,"split24":false,"pps":false}
2017-12-01 17:53:37 1512168817.441976: $GPZDA,225338.00,01,12,2017,00,00*6D
2017-12-01 17:53:37 1512168817.442156: $GPGGA,225338,3946.9741,N,08404.9844,W,2,11,0.80,294.66,M,-33.325,M,,*7A
2017-12-01 17:53:37 1512168817.442226: $GPRMC,225338,A,3946.9741,N,08404.9844,W,0.0000,0.000,011217,,*3C
2017-12-01 17:53:37 1512168817.442287: $GPGSA,A,3,1,3,10,14,16,22,25,26,29,31,138,,2.0,0.8,1.5*0D
2017-12-01 17:53:38 1512168818.773876: $GPGSV,3,1,12,01,13,264,40,03,31,310,46,10,10,159,41,14,64,069,42*78
2017-12-01 17:53:38 1512168818.774070: $GPGSV,3,2,12,16,10,189,38,22,47,291,47,32,46,094,00,25,28,046,42*7B
2017-12-01 17:53:38 1512168818.774138: $GPGSV,3,3,12,26,39,175,45,29,05,084,33,31,77,351,46,138,38,213,45*43
2017-12-01 17:53:38 1512168818.887268: $GPZDA,225339.00,01,12,2017,00,00*6C
2017-12-01 17:53:38 1512168818.887453: $GPGGA,225339,3946.9741,N,08404.9844,W,2,11,0.80,294.66,M,-33.325,M,,*7B
2017-12-01 17:53:38 1512168818.887522: $GPRMC,225339,A,3946.9741,N,08404.9844,W,0.0000,0.000,011217,,*3D
2017-12-01 17:53:38 1512168818.887583: $GPGSA,A,3,1,3,10,14,16,22,25,26,29,31,138,,2.0,0.8,1.5*0D
2017-12-01 17:53:39 1512168819.444394: $GPZDA,225340.00,01,12,2017,00,00*62
2017-12-01 17:53:39 1512168819.444578: $GPGGA,225340,3946.9741,N,08404.9844,W,2,11,0.80,294.66,M,-33.325,M,,*75
2017-12-01 17:53:39 1512168819.444647: $GPRMC,225340,A,3946.9741,N,08404.9844,W,0.0000,0.000,011217,,*33
2017-12-01 17:53:39 1512168819.444709: $GPGSA,A,3,1,3,10,14,16,22,25,26,29,31,138,,2.0,0.8,1.5*0D
2017-12-01 17:53:40 1512168820.444258: $GPZDA,225341.00,01,12,2017,00,00*63
2017-12-01 17:53:40 1512168820.444430: $GPGGA,225341,3946.9741,N,08404.9844,W,2,11,0.80,294.66,M,-33.325,M,,*74
2017-12-01 17:53:40 1512168820.444498: $GPRMC,225341,A,3946.9741,N,08404.9844,W,0.0000,0.000,011217,,*32
2017-12-01 17:53:40 1512168820.444561: $GPGSA,A,3,1,3,10,14,16,22,25,26,29,31,138,,2.0,0.8,1.5*0D
2017-12-01 17:53:41 1512168821.778554: $GPGSV,3,1,12,01,13,264,40,03,31,310,46,10,10,159,42,14,64,069,41*78
2017-12-01 17:53:41 1512168821.778715: $GPGSV,3,2,12,16,10,189,38,22,47,291,47,32,46,094,00,25,28,046,42*7B
2017-12-01 17:53:41 1512168821.778785: $GPGSV,3,3,12,26,39,175,44,29,05,084,33,31,77,351,46,138,38,213,45*42
2017-12-01 17:53:41 1512168821.891992: $GPZDA,225342.00,01,12,2017,00,00*60
2017-12-01 17:53:41 1512168821.892162: $GPGGA,225342,3946.9741,N,08404.9844,W,2,11,0.80,294.66,M,-33.325,M,,*77
2017-12-01 17:53:41 1512168821.892229: $GPRMC,225342,A,3946.9741,N,08404.9844,W,0.0000,0.000,011217,,*31
2017-12-01 17:53:41 1512168821.892290: $GPGSA,A,3,1,3,10,14,16,22,25,26,29,31,138,,2.0,0.8,1.5*0D
2017-12-01 17:53:42 1512168822.517411: $GPZDA,225343.00,01,12,2017,00,00*61
2017-12-01 17:53:42 1512168822.517600: $GPGGA,225343,3946.9741,N,08404.9844,W,2,11,0.80,294.66,M,-33.325,M,,*76
2017-12-01 17:53:42 1512168822.517673: $GPRMC,225343,A,3946.9741,N,08404.9844,W,0.0000,0.000,011217,,*30
2017-12-01 17:53:42 1512168822.517737: $GPGSA,A,3,1,3,10,14,16,22,25,26,29,31,138,,2.0,0.8,1.5*0D
2017-12-01 17:53:43 1512168823.438254: $GPZDA,225344.00,01,12,2017,00,00*66
2017-12-01 17:53:43 1512168823.438423: $GPGGA,225344,3946.9741,N,08404.9844,W,2,11,0.80,294.66,M,-33.325,M,,*71
2017-12-01 17:53:43 1512168823.438491: $GPRMC,225344,A,3946.9741,N,08404.9844,W,0.0000,0.000,011217,,*37
2017-12-01 17:53:43 1512168823.438552: $GPGSA,A,3,1,3,10,14,16,22,25,26,29,31,138,,2.0,0.8,1.5*0D
2017-12-01 17:53:44 1512168824.780086: $GPGSV,3,1,12,01,13,264,40,03,31,310,46,10,10,159,42,14,64,069,41*78
2017-12-01 17:53:44 1512168824.780321: $GPGSV,3,2,12,16,10,189,38,22,47,291,47,32,46,094,00,25,28,046,42*7B
2017-12-01 17:53:44 1512168824.780391: $GPGSV,3,3,12,26,39,175,45,29,05,084,33,31,77,351,46,138,38,213,45*43
2017-12-01 17:53:44 1512168824.892640: $GPZDA,225345.00,01,12,2017,00,00*67
2017-12-01 17:53:44 1512168824.892816: $GPGGA,225345,3946.9741,N,08404.9844,W,2,11,0.80,294.66,M,-33.325,M,,*70
2017-12-01 17:53:44 1512168824.892889: $GPRMC,225345,A,3946.9741,N,08404.9844,W,0.0000,0.000,011217,,*36
2017-12-01 17:53:44 1512168824.892954: $GPGSA,A,3,1,3,10,14,16,22,25,26,29,31,138,,2.0,0.8,1.5*0D
2017-12-01 17:53:45 1512168825.443044: $GPZDA,225346.00,01,12,2017,00,00*64
2017-12-01 17:53:45 1512168825.443225: $GPGGA,225346,3946.9741,N,08404.9844,W,2,11,0.80,294.66,M,-33.325,M,,*73
2017-12-01 17:53:45 1512168825.443292: $GPRMC,225346,A,3946.9741,N,08404.9844,W,0.0000,0.000,011217,,*35
2017-12-01 17:53:45 1512168825.443354: $GPGSA,A,3,1,3,10,14,16,22,25,26,29,31,138,,2.0,0.8,1.5*0D
2017-12-01 17:53:46 1512168826.444153: $GPZDA,225347.00,01,12,2017,00,00*65
2017-12-01 17:53:46 1512168826.444321: $GPGGA,225347,3946.9741,N,08404.9844,W,2,11,0.80,294.66,M,-33.325,M,,*72
2017-12-01 17:53:46 1512168826.444388: $GPRMC,225347,A,3946.9741,N,08404.9844,W,0.0000,0.000,011217,,*34
2017-12-01 17:53:46 1512168826.444450: $GPGSA,A,3,1,3,10,14,16,22,25,26,29,31,138,,2.0,0.8,1.5*0D
2017-12-01 17:53:47 1512168827.779195: $GPGSV,3,1,12,01,13,264,40,03,31,310,46,10,10,159,42,14,64,069,41*78
2017-12-01 17:53:47 1512168827.779393: $GPGSV,3,2,12,16,10,189,38,22,47,291,47,32,46,094,00,25,28,046,42*7B
2017-12-01 17:53:47 1512168827.779463: $GPGSV,3,3,12,26,39,175,45,29,05,084,32,31,77,351,46,138,38,213,45*42
2017-12-01 17:53:47 1512168827.892873: $GPZDA,225348.00,01,12,2017,00,00*6A
2017-12-01 17:53:47 1512168827.893038: $GPGGA,225348,3946.9741,N,08404.9844,W,2,11,0.80,294.66,M,-33.325,M,,*7D
2017-12-01 17:53:47 1512168827.893104: $GPRMC,225348,A,3946.9741,N,08404.9844,W,0.0000,0.000,011217,,*3B
2017-12-01 17:53:47 1512168827.893166: $GPGSA,A,3,1,3,10,14,16,22,25,26,29,31,138,,2.0,0.8,1.5*0D
2017-12-01 17:53:48 1512168828.967527: $GPZDA,225349.00,01,12,2017,00,00*6B
2017-12-01 17:53:48 1512168828.967707: $GPGGA,225349,3946.9735,N,08404.9853,W,2,11,0.80,297.52,M,-33.325,M,,*7D
2017-12-01 17:53:48 1512168828.967779: $GPRMC,225349,A,3946.9735,N,08404.9853,W,0.0000,0.000,011217,,*3F
2017-12-01 17:53:48 1512168828.967840: $GPGSA,A,3,1,3,10,14,16,22,25,26,29,31,138,,2.0,0.8,1.5*0D
2017-12-01 17:53:49 1512168829.436964: $GPZDA,225350.00,01,12,2017,00,00*63
2017-12-01 17:53:49 1512168829.437140: $GPGGA,225350,3946.9735,N,08404.9853,W,2,11,0.80,297.52,M,-33.325,M,,*75
2017-12-01 17:53:49 1512168829.437206: $GPRMC,225350,A,3946.9735,N,08404.9853,W,0.0000,0.000,011217,,*37
2017-12-01 17:53:49 1512168829.437269: $GPGSA,A,3,1,3,10,14,16,22,25,26,29,31,138,,2.0,0.8,1.5*0D
2017-12-01 17:53:50 1512168830.780099: $GPGSV,3,1,12,01,13,264,40,03,31,310,46,10,10,159,42,14,64,069,41*78
2017-12-01 17:53:50 1512168830.780280: $GPGSV,3,2,12,16,10,189,38,22,47,289,47,32,46,094,00,25,28,046,42*72
2017-12-01 17:53:50 1512168830.780347: $GPGSV,3,3,12,26,39,175,45,29,05,084,32,31,77,352,46,138,38,213,46*42
2017-12-01 17:53:50 1512168830.893780: $GPZDA,225351.00,01,12,2017,00,00*62
2017-12-01 17:53:50 1512168830.893921: $GPGGA,225351,3946.9735,N,08404.9853,W,2,11,0.80,297.52,M,-33.325,M,,*74
2017-12-01 17:53:50 1512168830.893988: $GPRMC,225351,A,3946.9735,N,08404.9853,W,0.0000,0.000,011217,,*36
2017-12-01 17:53:50 1512168830.894048: $GPGSA,A,3,1,3,10,14,16,22,25,26,29,31,138,,2.0,0.8,1.5*0D
2017-12-01 17:53:51 1512168831.444575: $GPZDA,225352.00,01,12,2017,00,00*61
2017-12-01 17:53:51 1512168831.448526: $GPGGA,225352,3946.9735,N,08404.9853,W,2,11,0.80,297.52,M,-33.325,M,,*77
2017-12-01 17:53:51 1512168831.448632: $GPRMC,225352,A,3946.9735,N,08404.9853,W,0.0000,0.000,011217,,*35
2017-12-01 17:53:51 1512168831.448696: $GPGSA,A,3,1,3,10,14,16,22,25,26,29,31,138,,2.0,0.8,1.5*0D
2017-12-01 17:53:52 1512168832.444936: $GPZDA,225353.00,01,12,2017,00,00*60
2017-12-01 17:53:52 1512168832.445160: $GPGGA,225353,3946.9735,N,08404.9853,W,2,11,0.80,297.52,M,-33.325,M,,*76
2017-12-01 17:53:52 1512168832.445230: $GPRMC,225353,A,3946.9735,N,08404.9853,W,0.0000,0.000,011217,,*34
2017-12-01 17:53:52 1512168832.445292: $GPGSA,A,3,1,3,10,14,16,22,25,26,29,31,138,,2.0,0.8,1.5*0D
2017-12-01 17:53:53 1512168833.779158: $GPGSV,3,1,12,01,13,264,40,03,31,310,46,10,10,159,42,14,64,069,41*78
2017-12-01 17:53:53 1512168833.779332: $GPGSV,3,2,12,16,10,189,38,22,47,289,47,32,46,094,00,25,28,046,42*72
2017-12-01 17:53:53 1512168833.779400: $GPGSV,3,3,12,26,39,175,45,29,05,084,32,31,77,352,46,138,38,213,46*42
2017-12-01 17:53:53 1512168833.892634: $GPZDA,225354.00,01,12,2017,00,00*67
2017-12-01 17:53:53 1512168833.892819: $GPGGA,225354,3946.9735,N,08404.9853,W,2,11,0.80,297.52,M,-33.325,M,,*71
2017-12-01 17:53:53 1512168833.892887: $GPRMC,225354,A,3946.9735,N,08404.9853,W,0.0000,0.000,011217,,*33
2017-12-01 17:53:53 1512168833.892949: $GPGSA,A,3,1,3,10,14,16,22,25,26,29,31,138,,2.0,0.8,1.5*0D
2017-12-01 17:53:54 1512168834.445907: $GPZDA,225355.00,01,12,2017,00,00*66
2017-12-01 17:53:54 1512168834.446085: $GPGGA,225355,3946.9735,N,08404.9853,W,2,11,0.80,297.52,M,-33.325,M,,*70
2017-12-01 17:53:54 1512168834.446152: $GPRMC,225355,A,3946.9735,N,08404.9853,W,0.0000,0.000,011217,,*32
2017-12-01 17:53:54 1512168834.446214: $GPGSA,A,3,1,3,10,14,16,22,25,26,29,31,138,,2.0,0.8,1.5*0D
2017-12-01 17:53:55 1512168835.438030: $GPZDA,225356.00,01,12,2017,00,00*65
2017-12-01 17:53:55 1512168835.438211: $GPGGA,225356,3946.9735,N,08404.9853,W,2,11,0.80,297.52,M,-33.325,M,,*73
2017-12-01 17:53:55 1512168835.438280: $GPRMC,225356,A,3946.9735,N,08404.9853,W,0.0000,0.000,011217,,*31
2017-12-01 17:53:55 1512168835.438342: $GPGSA,A,3,1,3,10,14,16,22,25,26,29,31,138,,2.0,0.8,1.5*0D
2017-12-01 17:53:56 1512168836.773806: $GPGSV,3,1,12,01,13,264,40,03,31,310,46,10,10,159,42,14,64,069,41*78
2017-12-01 17:53:56 1512168836.773990: $GPGSV,3,2,12,16,10,189,38,22,47,289,47,32,46,094,00,25,28,046,42*72
2017-12-01 17:53:56 1512168836.774058: $GPGSV,3,3,12,26,39,175,46,29,05,084,32,31,77,352,46,138,38,213,45*42
2017-12-01 17:53:56 1512168836.887212: $GPZDA,225357.00,01,12,2017,00,00*64
2017-12-01 17:53:56 1512168836.887362: $GPGGA,225357,3946.9735,N,08404.9853,W,2,11,0.80,297.52,M,-33.325,M,,*72
2017-12-01 17:53:56 1512168836.887429: $GPRMC,225357,A,3946.9735,N,08404.9853,W,0.0000,0.000,011217,,*30
2017-12-01 17:53:56 1512168836.887490: $GPGSA,A,3,1,3,10,14,16,22,25,26,29,31,138,,2.0,0.8,1.5*0D
