2017-12-01 17:17:43 1512166663.796499: {"class":"VERSION","release":"3.16","rev":"3.16-4","proto_major":3,"proto_minor":11}
2017-12-01 17:17:43 1512166663.796941: {"class":"DEVICES","devices":[{"class":"DEVICE","path":"/dev/ttyUSB0","driver":"SiRF","subtype":"9\u0006GSD4e_4.1.2-P1_RPATCH.05-F-GPS-4R-1510281 11/03/2015 307","activated":"2017-12-01T22:17:43.753Z","flags":1,"native":1,"bps":4800,"parity":"N","stopbits":1,"cycle":1.00}]}
2017-12-01 17:17:43 1512166663.797079: {"class":"WATCH","enable":true,"json":false,"nmea":true,"raw":0,"scaled":false,"timing":false,"split24":false,"pps":false}
2017-12-01 17:17:44 1512166664.437575: $GPZDA,221745.00,01,12,2017,00,00*67
2017-12-01 17:17:44 1512166664.437757: $GPGGA,221745,3946.9656,N,08404.9747,W,2,11,0.80,297.86,M,-33.324,M,,*77
2017-12-01 17:17:44 1512166664.437825: $GPRMC,221745,A,3946.9656,N,08404.9747,W,0.0000,0.000,011217,,*3D
2017-12-01 17:17:44 1512166664.437888: $GPGSA,A,3,1,3,10,14,22,25,26,31,32,12,138,,2.0,0.8,1.5*03
2017-12-01 17:17:45 1512166665.777054: $GPGSV,3,1,11,01,20,279,43,03,18,316,43,10,26,156,39,14,70,027,44*70
2017-12-01 17:17:45 1512166665.777240: $GPGSV,3,2,11,22,36,306,43,25,38,061,32,26,22,178,38,31,76,264,47*74
2017-12-01 17:17:45 1512166665.777307: $GPGSV,3,3,11,32,57,073,47,12,10,034,28,138,38,213,36*76
2017-12-01 17:17:45 1512166665.890704: $GPZDA,221746.00,01,12,2017,00,00*64
2017-12-01 17:17:45 1512166665.890870: $GPGGA,221746,3946.9656,N,08404.9747,W,2,11,0.80,297.86,M,-33.324,M,,*74
2017-12-01 17:17:45 1512166665.890936: $GPRMC,221746,A,3946.9656,N,08404.9747,W,0.0000,0.000,011217,,*3E
2017-12-01 17:17:45 1512166665.890999: $GPGSA,A,3,1,3,10,14,22,25,26,31,32,12,138,,2.0,0.8,1.5*03
2017-12-01 17:17:46 1512166666.441487: $GPZDA,221747.00,01,12,2017,00,00*65
2017-12-01 17:17:46 1512166666.441667: $GPGGA,221747,3946.9656,N,08404.9747,W,2,11,0.80,297.86,M,-33.324,M,,*75
2017-12-01 17:17:46 1512166666.441737: $GPRMC,221747,A,3946.9656,N,08404.9747,W,0.0000,0.000,011217,,*3F
2017-12-01 17:17:46 1512166666.441799: $GPGSA,A,3,1,3,10,14,22,25,26,31,32,12,138,,2.0,0.8,1.5*03
2017-12-01 17:17:47 1512166667.439760: $GPZDA,221748.00,01,12,2017,00,00*6A
2017-12-01 17:17:47 1512166667.439935: $GPGGA,221748,3946.9656,N,08404.9747,W,2,11,0.80,297.86,M,-33.324,M,,*7A
2017-12-01 17:17:47 1512166667.440020: $GPRMC,221748,A,3946.9656,N,08404.9747,W,0.0000,0.000,011217,,*30
2017-12-01 17:17:47 1512166667.440082: $GPGSA,A,3,1,3,10,14,22,25,26,31,32,12,138,,2.0,0.8,1.5*03
2017-12-01 17:17:48 1512166668.775432: $GPGSV,3,1,11,01,20,279,43,03,18,316,42,10,26,156,38,14,70,027,44*70
2017-12-01 17:17:48 1512166668.775730: $GPGSV,3,2,11,22,36,306,43,25,38,061,33,26,22,178,37,31,76,264,48*75
2017-12-01 17:17:48 1512166668.775857: $GPGSV,3,3,11,32,57,073,48,12,10,034,23,138,38,213,39*7D
2017-12-01 17:17:48 1512166668.888844: $GPZDA,221749.00,01,12,2017,00,00*6B
2017-12-01 17:17:48 1512166668.889053: $GPGGA,221749,3946.9653,N,08404.9748,W,2,11,0.80,298.63,M,-33.324,M,,*75
2017-12-01 17:17:48 1512166668.889138: $GPRMC,221749,A,3946.9653,N,08404.9748,W,0.0000,0.000,011217,,*3B
2017-12-01 17:17:48 1512166668.889201: $GPGSA,A,3,1,3,10,14,22,25,26,31,32,12,138,,2.0,0.8,1.5*03
2017-12-01 17:17:49 1512166669.514650: $GPZDA,221750.00,01,12,2017,00,00*63
2017-12-01 17:17:49 1512166669.514815: $GPGGA,221750,3946.9653,N,08404.9748,W,2,11,0.80,298.63,M,-33.324,M,,*7D
2017-12-01 17:17:49 1512166669.514882: $GPRMC,221750,A,3946.9653,N,08404.9748,W,0.0000,0.000,011217,,*33
2017-12-01 17:17:49 1512166669.514943: $GPGSA,A,3,1,3,10,14,22,25,26,31,32,12,138,,2.0,0.8,1.5*03
2017-12-01 17:17:50 1512166670.441695: $GPZDA,221751.00,01,12,2017,00,00*62
2017-12-01 17:17:50 1512166670.441864: $GPGGA,221751,3946.9653,N,08404.9748,W,2,11,0.80,298.63,M,-33.324,M,,*7C
2017-12-01 17:17:50 1512166670.441931: $GPRMC,221751,A,3946.9653,N,08404.9748,W,0.0000,0.000,011217,,*32
2017-12-01 17:17:50 1512166670.441991: $GPGSA,A,3,1,3,10,14,22,25,26,31,32,12,138,,2.0,0.8,1.5*03
2017-12-01 17:17:51 1512166671.775817: $GPGSV,3,1,11,01,20,279,42,03,18,316,42,10,26,156,38,14,70,027,44*71
2017-12-01 17:17:51 1512166671.776051: $GPGSV,3,2,11,22,36,306,43,25,38,061,33,26,22,178,37,31,76,264,48*75
2017-12-01 17:17:51 1512166671.776121: $GPGSV,3,3,11,32,57,073,47,12,10,034,21,138,38,213,40*7E
2017-12-01 17:17:51 1512166671.889508: $GPZDA,221752.00,01,12,2017,00,00*61
2017-12-01 17:17:51 1512166671.889667: $GPGGA,221752,3946.9653,N,08404.9748,W,2,11,0.80,298.63,M,-33.324,M,,*7F
2017-12-01 17:17:51 1512166671.889734: $GPRMC,221752,A,3946.9653,N,08404.9748,W,0.0000,0.000,011217,,*31
2017-12-01 17:17:51 1512166671.889796: $GPGSA,A,3,1,3,10,14,22,25,26,31,32,12,138,,2.0,0.8,1.5*03
2017-12-01 17:17:52 1512166672.440166: $GPZDA,221753.00,01,12,2017,00,00*60
2017-12-01 17:17:52 1512166672.440335: $GPGGA,221753,3946.9653,N,08404.9748,W,2,11,0.80,298.63,M,-33.324,M,,*7E
2017-12-01 17:17:52 1512166672.440401: $GPRMC,221753,A,3946.9653,N,08404.9748,W,0.0000,0.000,011217,,*30
2017-12-01 17:17:52 1512166672.440462: $GPGSA,A,3,1,3,10,14,22,25,26,31,32,12,138,,2.0,0.8,1.5*03
2017-12-01 17:17:53 1512166673.441282: $GPZDA,221754.00,01,12,2017,00,00*67
2017-12-01 17:17:53 1512166673.441493: $GPGGA,221754,3946.9653,N,08404.9748,W,2,11,0.80,298.63,M,-33.324,M,,*79
2017-12-01 17:17:53 1512166673.441563: $GPRMC,221754,A,3946.9653,N,08404.9748,W,0.0000,0.000,011217,,*37
2017-12-01 17:17:53 1512166673.441625: $GPGSA,A,3,1,3,10,14,22,25,26,31,32,12,138,,2.0,0.8,1.5*03
2017-12-01 17:17:54 1512166674.778684: $GPGSV,3,1,11,01,20,279,43,03,18,316,43,10,26,156,34,14,70,027,44*7D
2017-12-01 17:17:54 1512166674.778880: $GPGSV,3,2,11,22,36,306,42,25,38,061,34,26,22,178,37,31,76,264,48*73
2017-12-01 17:17:54 1512166674.778948: $GPGSV,3,3,11,32,57,073,47,12,10,034,20,138,38,213,40*7F
2017-12-01 17:17:54 1512166674.892256: $GPZDA,221755.00,01,12,2017,00,00*66
2017-12-01 17:17:54 1512166674.892438: $GPGGA,221755,3946.9653,N,08404.9748,W,2,11,0.80,298.63,M,-33.324,M,,*78
2017-12-01 17:17:54 1512166674.892507: $GPRMC,221755,A,3946.9653,N,08404.9748,W,0.0000,0.000,011217,,*36
2017-12-01 17:17:54 1512166674.892568: $GPGSA,A,3,1,3,10,14,22,25,26,31,32,12,138,,2.0,0.8,1.5*03
2017-12-01 17:17:55 1512166675.440415: $GPZDA,221756.00,01,12,2017,00,00*65
2017-12-01 17:17:55 1512166675.440615: $GPGGA,221756,3946.9653,N,08404.9748,W,2,11,0.80,298.63,M,-33.324,M,,*7B
2017-12-01 17:17:55 1512166675.440684: $GPRMC,221756,A,3946.9653,N,08404.9748,W,0.0000,0.000,011217,,*35
2017-12-01 17:17:55 1512166675.440745: $GPGSA,A,3,1,3,10,14,22,25,26,31,32,12,138,,2.0,0.8,1.5*03
2017-12-01 17:17:56 1512166676.437804: $GPZDA,221757.00,01,12,2017,00,00*64
2017-12-01 17:17:56 1512166676.438002: $GPGGA,221757,3946.9653,N,08404.9748,W,2,11,1.00,298.63,M,-33.324,M,,*73
2017-12-01 17:17:56 1512166676.438087: $GPRMC,221757,A,3946.9653,N,08404.9748,W,0.0000,0.000,011217,,*34
2017-12-01 17:17:56 1512166676.438150: $GPGSA,A,3,1,3,10,14,22,25,26,31,32,12,138,,2.0,1.0,1.5*0A
2017-12-01 17:17:57 1512166677.779562: $GPGSV,3,1,11,01,20,279,44,03,18,316,43,10,26,156,36,14,70,027,44*78
2017-12-01 17:17:57 1512166677.779743: $GPGSV,3,2,11,22,36,306,42,25,38,061,33,26,22,178,38,31,76,264,48*7B
2017-12-01 17:17:57 1512166677.779810: $GPGSV,3,3,11,32,57,073,47,12,10,034,02,138,38,213,38*70
2017-12-01 17:17:57 1512166677.893415: $GPZDA,221758.00,01,12,2017,00,00*6B
2017-12-01 17:17:57 1512166677.893584: $GPGGA,221758,3946.9653,N,08404.9748,W,2,10,1.00,298.63,M,-33.324,M,,*7D
2017-12-01 17:17:57 1512166677.893650: $GPRMC,221758,A,3946.9653,N,08404.9748,W,0.0000,0.000,011217,,*3B
2017-12-01 17:17:57 1512166677.893711: $GPGSA,A,3,1,3,10,14,22,25,26,31,32,138,,,2.0,1.0,1.5*09
2017-12-01 17:17:58 1512166678.443288: $GPZDA,221759.00,01,12,2017,00,00*6A
2017-12-01 17:17:58 1512166678.443455: $GPGGA,221759,3946.9653,N,08404.9748,W,2,10,0.80,298.63,M,-33.324,M,,*75
2017-12-01 17:17:58 1512166678.443521: $GPRMC,221759,A,3946.9653,N,08404.9748,W,0.0000,0.000,011217,,*3A
2017-12-01 17:17:58 1512166678.443595: $GPGSA,A,3,1,3,10,14,22,25,26,31,32,138,,,2.0,0.8,1.5*00
2017-12-01 17:17:59 1512166679.440872: $GPZDA,221800.00,01,12,2017,00,00*69
2017-12-01 17:17:59 1512166679.441075: $GPGGA,221800,3946.9653,N,08404.9748,W,2,10,0.80,298.63,M,-33.324,M,,*76
2017-12-01 17:17:59 1512166679.441193: $GPRMC,221800,A,3946.9653,N,08404.9748,W,0.0000,0.000,011217,,*39
2017-12-01 17:17:59 1512166679.441256: $GPGSA,A,3,1,3,10,14,22,25,26,31,32,138,,,2.0,0.8,1.5*00
2017-12-01 17:18:00 1512166680.777399: $GPGSV,3,1,11,01,20,279,44,03,18,316,43,10,26,156,37,14,70,027,44*79
2017-12-01 17:18:00 1512166680.777568: $GPGSV,3,2,11,22,36,306,42,25,38,061,33,26,22,178,38,31,76,264,48*7B
2017-12-01 17:18:00 1512166680.777635: $GPGSV,3,3,11,32,57,073,47,12,10,034,22,138,38,213,40*7D
2017-12-01 17:18:00 1512166680.891128: $GPZDA,221801.00,01,12,2017,00,00*68
2017-12-01 17:18:00 1512166680.891298: $GPGGA,221801,3946.9653,N,08404.9748,W,2,11,0.80,298.63,M,-33.324,M,,*76
2017-12-01 17:18:00 1512166680.891428: $GPRMC,221801,A,3946.9653,N,08404.9748,W,0.0000,0.000,011217,,*38
2017-12-01 17:18:00 1512166680.891492: $GPGSA,A,3,1,3,10,14,22,25,26,31,32,12,138,,2.0,0.8,1.5*03
2017-12-01 17:18:01 1512166681.441881: $GPZDA,221802.00,01,12,2017,00,00*6B
2017-12-01 17:18:01 1512166681.442088: $GPGGA,221802,3946.9653,N,08404.9748,W,2,11,0.80,298.63,M,-33.324,M,,*75
2017-12-01 17:18:01 1512166681.442157: $GPRMC,221802,A,3946.9653,N,08404.9748,W,0.0000,0.000,011217,,*3B
2017-12-01 17:18:01 1512166681.442219: $GPGSA,A,3,1,3,10,14,22,25,26,31,32,12,138,,2.0,0.8,1.5*03
2017-12-01 17:18:02 1512166682.441729: $GPZDA,221803.00,01,12,2017,00,00*6A
2017-12-01 17:18:02 1512166682.441919: $GPGGA,221803,3946.9653,N,08404.9748,W,2,11,0.80,298.63,M,-33.324,M,,*74
2017-12-01 17:18:02 1512166682.441990: $GPRMC,221803,A,3946.9653,N,08404.9748,W,0.0000,0.000,011217,,*3A
2017-12-01 17:18:02 1512166682.442069: $GPGSA,A,3,1,3,10,14,22,25,26,31,32,12,138,,2.0,0.8,1.5*03
2017-12-01 17:18:03 1512166683.775736: $GPGSV,3,1,11,01,20,279,44,03,18,316,43,10,26,156,38,14,70,027,44*76
2017-12-01 17:18:03 1512166683.775935: $GPGSV,3,2,11,22,36,306,42,25,38,061,32,26,22,178,39,31,76,264,48*7B
2017-12-01 17:18:03 1512166683.776004: $GPGSV,3,3,11,32,57,073,47,12,10,034,28,138,38,213,40*77
