2017-12-31 17:58:49 1514761129.606917: {"class":"VERSION","release":"3.16","rev":"3.16-4","proto_major":3,"proto_minor":11}
2017-12-31 17:58:49 1514761129.607322: {"class":"DEVICES","devices":[{"class":"DEVICE","path":"/dev/ttyUSB0","driver":"SiRF","activated":"2017-12-31T22:58:49.535Z","flags":1,"native":1,"bps":4800,"parity":"N","stopbits":1,"cycle":1.00}]}
2017-12-31 17:58:49 1514761129.607422: {"class":"WATCH","enable":true,"json":false,"nmea":true,"raw":0,"scaled":false,"timing":false,"split24":false,"pps":false}
2017-12-31 17:58:50 1514761130.371522: $GPZDA,225851.00,31,12,2017,00,00*6A
2017-12-31 17:58:50 1514761130.371686: $GPGGA,225851,3946.9564,N,08404.9866,W,2,11,0.60,307.48,M,-33.324,M,,*73
2017-12-31 17:58:50 1514761130.371752: $GPRMC,225851,A,3946.9564,N,08404.9866,W,0.0000,0.000,311217,,*3E
2017-12-31 17:58:50 1514761130.371813: $GPGSA,A,3,22,23,9,3,16,29,14,31,27,26,135,,1.7,0.6,1.3*06
2017-12-31 17:58:51 1514761131.680744: $GPGSV,3,1,11,22,26,217,38,23,50,307,40,09,16,312,34,03,35,238,42*77
2017-12-31 17:58:51 1514761131.680920: $GPGSV,3,2,11,16,75,192,38,29,07,033,35,14,19,130,34,31,32,072,41*7D
2017-12-31 17:58:51 1514761131.680986: $GPGSV,3,3,11,27,18,156,18,26,67,054,45,135,22,240,44*7A
2017-12-31 17:58:51 1514761131.794093: $GPZDA,225852.00,31,12,2017,00,00*69
2017-12-31 17:58:51 1514761131.794214: $GPGGA,225852,3946.9564,N,08404.9866,W,2,11,0.60,307.48,M,-33.324,M,,*70
2017-12-31 17:58:51 1514761131.794279: $GPRMC,225852,A,3946.9564,N,08404.9866,W,0.0000,0.000,311217,,*3D
2017-12-31 17:58:51 1514761131.794339: $GPGSA,A,3,22,23,9,3,16,29,14,31,27,26,135,,1.7,0.6,1.3*06
2017-12-31 17:58:52 1514761132.345005: $GPZDA,225853.00,31,12,2017,00,00*68
2017-12-31 17:58:52 1514761132.345162: $GPGGA,225853,3946.9564,N,08404.9866,W,2,11,0.60,307.48,M,-33.324,M,,*71
2017-12-31 17:58:52 1514761132.345228: $GPRMC,225853,A,3946.9564,N,08404.9866,W,0.0000,0.000,311217,,*3C
2017-12-31 17:58:52 1514761132.345288: $GPGSA,A,3,22,23,9,3,16,29,14,31,27,26,135,,1.7,0.6,1.3*06
2017-12-31 17:58:53 1514761133.344627: $GPZDA,225854.00,31,12,2017,00,00*6F
2017-12-31 17:58:53 1514761133.344800: $GPGGA,225854,3946.9564,N,08404.9866,W,2,11,0.60,307.48,M,-33.324,M,,*76
2017-12-31 17:58:53 1514761133.344868: $GPRMC,225854,A,3946.9564,N,08404.9866,W,0.0000,0.000,311217,,*3B
2017-12-31 17:58:53 1514761133.344931: $GPGSA,A,3,22,23,9,3,16,29,14,31,27,26,135,,1.7,0.6,1.3*06
2017-12-31 17:58:54 1514761134.705355: $GPGSV,3,1,11,22,26,217,40,23,50,307,41,09,16,312,36,03,35,238,43*7A
2017-12-31 17:58:54 1514761134.705539: $GPGSV,3,2,11,16,75,192,40,29,07,033,35,14,19,130,34,31,32,072,44*77
2017-12-31 17:58:54 1514761134.705607: $GPGSV,3,3,11,27,18,156,22,26,67,054,46,135,22,240,43*77
2017-12-31 17:58:54 1514761134.818958: $GPZDA,225855.00,31,12,2017,00,00*6E
2017-12-31 17:58:54 1514761134.819080: $GPGGA,225855,3946.9564,N,08404.9866,W,2,11,0.60,307.48,M,-33.324,M,,*77
2017-12-31 17:58:54 1514761134.819146: $GPRMC,225855,A,3946.9564,N,08404.9866,W,0.0000,0.000,311217,,*3A
2017-12-31 17:58:54 1514761134.819208: $GPGSA,A,3,22,23,9,3,16,29,14,31,27,26,135,,1.7,0.6,1.3*06
2017-12-31 17:58:55 1514761135.444372: $GPZDA,225856.00,31,12,2017,00,00*6D
2017-12-31 17:58:55 1514761135.444529: $GPGGA,225856,3946.9564,N,08404.9866,W,2,11,0.60,307.48,M,-33.324,M,,*74
2017-12-31 17:58:55 1514761135.444597: $GPRMC,225856,A,3946.9564,N,08404.9866,W,0.0000,0.000,311217,,*39
2017-12-31 17:58:55 1514761135.444661: $GPGSA,A,3,22,23,9,3,16,29,14,31,27,26,135,,1.7,0.6,1.3*06
2017-12-31 17:58:56 1514761136.345091: $GPZDA,225857.00,31,12,2017,00,00*6C
2017-12-31 17:58:56 1514761136.345263: $GPGGA,225857,3946.9564,N,08404.9866,W,2,11,0.60,307.48,M,-33.324,M,,*75
2017-12-31 17:58:56 1514761136.345331: $GPRMC,225857,A,3946.9564,N,08404.9866,W,0.0000,0.000,311217,,*38
2017-12-31 17:58:56 1514761136.345395: $GPGSA,A,3,22,23,9,3,16,29,14,31,27,26,135,,1.7,0.6,1.3*06
2017-12-31 17:58:57 1514761137.680767: $GPGSV,3,1,11,22,26,217,43,23,50,307,42,09,16,312,37,03,35,238,43*7B
2017-12-31 17:58:57 1514761137.680950: $GPGSV,3,2,11,16,75,192,41,29,07,033,24,14,19,130,34,31,32,072,44*76
2017-12-31 17:58:57 1514761137.681087: $GPGSV,3,3,11,27,18,156,24,26,67,054,48,135,22,240,43*7F
2017-12-31 17:58:57 1514761137.794159: $GPZDA,225858.00,31,12,2017,00,00*63
2017-12-31 17:58:57 1514761137.794298: $GPGGA,225858,3946.9564,N,08404.9866,W,2,11,0.60,307.48,M,-33.324,M,,*7A
2017-12-31 17:58:57 1514761137.794363: $GPRMC,225858,A,3946.9564,N,08404.9866,W,0.0000,0.000,311217,,*37
2017-12-31 17:58:57 1514761137.794423: $GPGSA,A,3,22,23,9,3,16,29,14,31,27,26,135,,1.7,0.6,1.3*06
2017-12-31 17:58:58 1514761138.371385: $GPZDA,225859.00,31,12,2017,00,00*62
2017-12-31 17:58:58 1514761138.371570: $GPGGA,225859,3946.9564,N,08404.9866,W,2,11,0.60,307.48,M,-33.324,M,,*7B
2017-12-31 17:58:58 1514761138.371640: $GPRMC,225859,A,3946.9564,N,08404.9866,W,0.0000,0.000,311217,,*36
2017-12-31 17:58:58 1514761138.371703: $GPGSA,A,3,22,23,9,3,16,29,14,31,27,26,135,,1.7,0.6,1.3*06
