2018-01-11 20:19:38 1515719978.888699: {"class":"VERSION","release":"3.16","rev":"3.16-4","proto_major":3,"proto_minor":11}
2018-01-11 20:19:38 1515719978.889116: {"class":"DEVICES","devices":[{"class":"DEVICE","path":"/dev/ttyUSB0","driver":"SiRF","subtype":"9\u0006GSD4e_4.1.2-P1_RPATCH.05-F-GPS-4R-1510281 11/03/2015 307","activated":"2018-01-12T01:19:38.856Z","flags":1,"native":1,"bps":4800,"parity":"N","stopbits":1,"cycle":1.00}]}
2018-01-11 20:19:38 1515719978.889244: {"class":"WATCH","enable":true,"json":false,"nmea":true,"raw":0,"scaled":false,"timing":false,"split24":false,"pps":false}
2018-01-11 20:19:39 1515719979.369636: $GPZDA,011940.00,12,01,2018,00,00*62
2018-01-11 20:19:39 1515719979.369800: $GPGGA,011940,3946.9594,N,08404.9859,W,2,11,0.80,299.20,M,-33.324,M,,*72
2018-01-11 20:19:39 1515719979.369865: $GPRMC,011940,A,3946.9594,N,08404.9859,W,0.0000,0.000,120118,,*35
2018-01-11 20:19:39 1515719979.369930: $GPGSA,A,3,7,8,9,11,16,23,27,28,30,1,138,,4.0,0.8,3.5*0F
2018-01-11 20:19:40 1515719980.369460: $GPZDA,011941.00,12,01,2018,00,00*63
2018-01-11 20:19:40 1515719980.369629: $GPGGA,011941,3946.9594,N,08404.9859,W,2,11,0.80,299.20,M,-33.324,M,,*73
2018-01-11 20:19:40 1515719980.369697: $GPRMC,011941,A,3946.9594,N,08404.9859,W,0.0000,0.000,120118,,*34
2018-01-11 20:19:40 1515719980.369759: $GPGSA,A,3,7,8,9,11,16,23,27,28,30,1,138,,4.0,0.8,3.5*0F
2018-01-11 20:19:41 1515719981.707445: $GPGSV,3,1,11,07,59,315,43,08,75,115,45,09,45,225,43,11,23,166,46*76
2018-01-11 20:19:41 1515719981.707610: $GPGSV,3,2,11,16,20,063,39,23,25,189,48,27,44,051,50,28,17,261,38*7E
2018-01-11 20:19:41 1515719981.707676: $GPGSV,3,3,11,30,32,307,23,01,02,162,12,138,38,213,45*7B
2018-01-11 20:19:41 1515719981.820825: $GPZDA,011942.00,12,01,2018,00,00*60
2018-01-11 20:19:41 1515719981.820975: $GPGGA,011942,3946.9594,N,08404.9859,W,2,11,1.00,299.20,M,-33.324,M,,*79
2018-01-11 20:19:41 1515719981.821045: $GPRMC,011942,A,3946.9594,N,08404.9859,W,0.0000,0.000,120118,,*37
2018-01-11 20:19:41 1515719981.821106: $GPGSA,A,3,7,8,9,11,16,23,27,28,30,1,138,,4.0,1.0,3.5*06
2018-01-11 20:19:42 1515719982.371710: $GPZDA,011943.00,12,01,2018,00,00*61
2018-01-11 20:19:42 1515719982.371881: $GPGGA,011943,3946.9594,N,08404.9859,W,2,11,1.00,299.20,M,-33.324,M,,*78
2018-01-11 20:19:42 1515719982.371950: $GPRMC,011943,A,3946.9594,N,08404.9859,W,0.0000,0.000,120118,,*36
2018-01-11 20:19:42 1515719982.372013: $GPGSA,A,3,7,8,9,11,16,23,27,28,30,1,138,,4.0,1.0,3.5*06
2018-01-11 20:19:43 1515719983.370832: $GPZDA,011944.00,12,01,2018,00,00*66
2018-01-11 20:19:43 1515719983.371009: $GPGGA,011944,3946.9594,N,08404.9859,W,2,11,0.80,299.20,M,-33.324,M,,*76
2018-01-11 20:19:43 1515719983.371075: $GPRMC,011944,A,3946.9594,N,08404.9859,W,0.0000,0.000,120118,,*31
2018-01-11 20:19:43 1515719983.371137: $GPGSA,A,3,7,8,9,11,16,23,27,28,30,1,138,,4.0,0.8,3.5*0F
2018-01-11 20:19:44 1515719984.706553: $GPGSV,3,1,11,07,59,315,43,08,75,115,45,09,45,225,44,11,23,166,46*71
2018-01-11 20:19:44 1515719984.706720: $GPGSV,3,2,11,16,20,063,40,23,25,189,48,27,44,051,50,28,17,261,38*70
2018-01-11 20:19:44 1515719984.706788: $GPGSV,3,3,11,30,32,307,25,01,02,162,04,138,38,213,44*7B
2018-01-11 20:19:44 1515719984.819990: $GPZDA,011945.00,12,01,2018,00,00*67
2018-01-11 20:19:44 1515719984.820114: $GPGGA,011945,3946.9591,N,08404.9859,W,2,10,0.80,299.96,M,-33.324,M,,*7E
2018-01-11 20:19:44 1515719984.820177: $GPRMC,011945,A,3946.9591,N,08404.9859,W,0.0000,0.000,120118,,*35
2018-01-11 20:19:44 1515719984.820238: $GPGSA,A,3,7,8,9,11,16,23,27,28,30,138,,,4.0,0.8,3.5*3E
2018-01-11 20:19:45 1515719985.372184: $GPZDA,011946.00,12,01,2018,00,00*64
2018-01-11 20:19:45 1515719985.372349: $GPGGA,011946,3946.9591,N,08404.9859,W,2,10,0.80,299.96,M,-33.324,M,,*7D
2018-01-11 20:19:45 1515719985.372415: $GPRMC,011946,A,3946.9591,N,08404.9859,W,0.0000,0.000,120118,,*36
2018-01-11 20:19:45 1515719985.372476: $GPGSA,A,3,7,8,9,11,16,23,27,28,30,138,,,4.0,0.8,3.5*3E
2018-01-11 20:19:46 1515719986.373109: $GPZDA,011947.00,12,01,2018,00,00*65
2018-01-11 20:19:46 1515719986.373277: $GPGGA,011947,3946.9590,N,08404.9852,W,2,10,0.80,300.04,M,-33.324,M,,*7C
2018-01-11 20:19:46 1515719986.373399: $GPRMC,011947,A,3946.9590,N,08404.9852,W,0.0000,0.000,120118,,*3D
2018-01-11 20:19:46 1515719986.373463: $GPGSA,A,3,7,8,9,11,16,23,27,28,30,138,,,4.0,0.8,3.5*3E
2018-01-11 20:19:47 1515719987.707427: $GPGSV,3,1,11,07,59,315,43,08,75,115,45,09,45,225,44,11,23,166,46*71
2018-01-11 20:19:47 1515719987.707610: $GPGSV,3,2,11,16,20,063,40,23,25,189,48,27,44,051,50,28,17,261,38*70
2018-01-11 20:19:47 1515719987.707677: $GPGSV,3,3,11,30,32,307,15,01,02,162,04,138,38,213,45*79
2018-01-11 20:19:47 1515719987.820829: $GPZDA,011948.00,12,01,2018,00,00*6A
2018-01-11 20:19:47 1515719987.820973: $GPGGA,011948,3946.9590,N,08404.9852,W,2,10,0.80,300.04,M,-33.324,M,,*73
2018-01-11 20:19:47 1515719987.821038: $GPRMC,011948,A,3946.9590,N,08404.9852,W,0.0000,0.000,120118,,*32
2018-01-11 20:19:47 1515719987.821101: $GPGSA,A,3,7,8,9,11,16,23,27,28,30,138,,,4.0,0.8,3.5*3E
2018-01-11 20:19:48 1515719988.447537: $GPZDA,011949.00,12,01,2018,00,00*6B
2018-01-11 20:19:48 1515719988.447703: $GPGGA,011949,3946.9594,N,08404.9852,W,2,10,0.80,300.68,M,-33.324,M,,*7C
2018-01-11 20:19:48 1515719988.447771: $GPRMC,011949,A,3946.9594,N,08404.9852,W,0.0000,0.000,120118,,*37
2018-01-11 20:19:48 1515719988.447833: $GPGSA,A,3,7,8,9,11,16,23,27,28,30,138,,,4.0,0.8,3.5*3E
2018-01-11 20:19:49 1515719989.373356: $GPZDA,011950.00,12,01,2018,00,00*63
2018-01-11 20:19:49 1515719989.373519: $GPGGA,011950,3946.9594,N,08404.9852,W,2,10,0.80,300.68,M,-33.324,M,,*74
2018-01-11 20:19:49 1515719989.373587: $GPRMC,011950,A,3946.9594,N,08404.9852,W,0.0000,0.000,120118,,*3F
2018-01-11 20:19:49 1515719989.373648: $GPGSA,A,3,7,8,9,11,16,23,27,28,30,138,,,4.0,0.8,3.5*3E
2018-01-11 20:19:50 1515719990.707756: $GPGSV,3,1,11,07,59,315,43,08,75,115,45,09,45,225,44,11,23,166,46*71
2018-01-11 20:19:50 1515719990.817650: $GPGSV,3,2,11,16,20,063,40,23,25,189,49,27,44,051,50,28,17,261,38*71
2018-01-11 20:19:50 1515719990.817767: $GPGSV,3,3,11,30,32,307,16,01,02,162,04,138,38,213,45*7A
2018-01-11 20:19:50 1515719990.821221: $GPZDA,011951.00,12,01,2018,00,00*62
2018-01-11 20:19:50 1515719990.821360: $GPGGA,011951,3946.9594,N,08404.9852,W,2,10,0.80,300.68,M,-33.324,M,,*75
2018-01-11 20:19:50 1515719990.821427: $GPRMC,011951,A,3946.9594,N,08404.9852,W,0.0000,0.000,120118,,*3E
2018-01-11 20:19:50 1515719990.821487: $GPGSA,A,3,7,8,9,11,16,23,27,28,30,138,,,4.0,0.8,3.5*3E
