2017-12-01 17:51:09 1512168669.336777: {"class":"VERSION","release":"3.16","rev":"3.16-4","proto_major":3,"proto_minor":11}
2017-12-01 17:51:09 1512168669.337194: {"class":"DEVICES","devices":[{"class":"DEVICE","path":"/dev/ttyUSB0","driver":"SiRF","subtype":"9\u0006GSD4e_4.1.2-P1_RPATCH.05-F-GPS-4R-1510281 11/03/2015 307","activated":"2017-12-01T22:51:09.327Z","flags":1,"native":1,"bps":4800,"parity":"N","stopbits":1,"cycle":1.00}]}
2017-12-01 17:51:09 1512168669.337318: {"class":"WATCH","enable":true,"json":false,"nmea":true,"raw":0,"scaled":false,"timing":false,"split24":false,"pps":false}
2017-12-01 17:51:09 1512168669.441132: $GPZDA,225110.00,01,12,2017,00,00*65
2017-12-01 17:51:09 1512168669.441304: $GPGGA,225110,3946.9727,N,08404.9846,W,2,12,0.80,297.72,M,-33.325,M,,*75
2017-12-01 17:51:09 1512168669.441432: $GPRMC,225110,A,3946.9727,N,08404.9846,W,0.0000,0.000,011217,,*36
2017-12-01 17:51:09 1512168669.441497: $GPGSA,A,3,1,3,10,14,22,16,25,26,29,31,32,138,2.0,0.8,1.5*0C
2017-12-01 17:51:10 1512168670.750601: $GPGSV,3,1,12,01,14,264,40,03,30,310,46,10,11,159,39,14,65,066,41*7D
2017-12-01 17:51:10 1512168670.750778: $GPGSV,3,2,12,22,46,292,47,16,09,189,35,25,29,048,42,26,37,175,46*7C
2017-12-01 17:51:10 1512168670.750846: $GPGSV,3,3,12,23,01,294,41,31,78,346,46,32,47,093,45,138,38,213,45*47
2017-12-01 17:51:10 1512168670.864017: $GPZDA,225111.00,01,12,2017,00,00*64
2017-12-01 17:51:10 1512168670.864193: $GPGGA,225111,3946.9727,N,08404.9846,W,2,12,0.80,297.72,M,-33.325,M,,*74
2017-12-01 17:51:10 1512168670.864259: $GPRMC,225111,A,3946.9727,N,08404.9846,W,0.0000,0.000,011217,,*37
2017-12-01 17:51:10 1512168670.864321: $GPGSA,A,3,1,3,10,14,22,16,25,26,23,31,32,138,2.0,0.8,1.5*06
2017-12-01 17:51:11 1512168671.489628: $GPZDA,225112.00,01,12,2017,00,00*67
2017-12-01 17:51:11 1512168671.489805: $GPGGA,225112,3946.9723,N,08404.9846,W,2,12,0.80,297.08,M,-33.325,M,,*7E
2017-12-01 17:51:11 1512168671.489872: $GPRMC,225112,A,3946.9723,N,08404.9846,W,0.0000,0.000,011217,,*30
2017-12-01 17:51:11 1512168671.489937: $GPGSA,A,3,1,3,10,14,22,16,25,26,23,31,32,138,2.0,0.8,1.5*06
2017-12-01 17:51:12 1512168672.442769: $GPZDA,225113.00,01,12,2017,00,00*66
2017-12-01 17:51:12 1512168672.442956: $GPGGA,225113,3946.9723,N,08404.9846,W,2,12,0.80,297.08,M,-33.325,M,,*7F
2017-12-01 17:51:12 1512168672.443028: $GPRMC,225113,A,3946.9723,N,08404.9846,W,0.0000,0.000,011217,,*31
2017-12-01 17:51:12 1512168672.443089: $GPGSA,A,3,1,3,10,14,22,16,25,26,23,31,32,138,2.0,0.8,1.5*06
2017-12-01 17:51:13 1512168673.745968: $GPGSV,3,1,12,01,14,264,40,03,30,310,46,10,11,159,39,14,65,066,41*7D
2017-12-01 17:51:13 1512168673.746156: $GPGSV,3,2,12,22,46,292,46,16,09,189,35,25,29,048,42,26,37,175,45*7E
2017-12-01 17:51:13 1512168673.746223: $GPGSV,3,3,12,29,05,085,20,31,78,346,46,32,47,093,45,138,38,213,45*4C
2017-12-01 17:51:13 1512168673.859319: $GPZDA,225114.00,01,12,2017,00,00*61
2017-12-01 17:51:13 1512168673.859497: $GPGGA,225114,3946.9723,N,08404.9846,W,2,12,0.80,297.08,M,-33.325,M,,*78
2017-12-01 17:51:13 1512168673.859565: $GPRMC,225114,A,3946.9723,N,08404.9846,W,0.0000,0.000,011217,,*36
2017-12-01 17:51:13 1512168673.859629: $GPGSA,A,3,1,3,10,14,22,16,25,26,29,31,32,138,2.0,0.8,1.5*0C
2017-12-01 17:51:14 1512168674.434038: $GPZDA,225115.00,01,12,2017,00,00*60
2017-12-01 17:51:14 1512168674.434228: $GPGGA,225115,3946.9723,N,08404.9846,W,2,12,0.80,297.08,M,-33.325,M,,*79
2017-12-01 17:51:14 1512168674.434295: $GPRMC,225115,A,3946.9723,N,08404.9846,W,0.0000,0.000,011217,,*37
2017-12-01 17:51:14 1512168674.434356: $GPGSA,A,3,1,3,10,14,22,16,25,26,29,31,32,138,2.0,0.8,1.5*0C
2017-12-01 17:51:15 1512168675.416345: $GPZDA,225116.00,01,12,2017,00,00*63
2017-12-01 17:51:15 1512168675.416519: $GPGGA,225116,3946.9723,N,08404.9846,W,2,12,0.80,297.08,M,-33.325,M,,*7A
2017-12-01 17:51:15 1512168675.416586: $GPRMC,225116,A,3946.9723,N,08404.9846,W,0.0000,0.000,011217,,*34
2017-12-01 17:51:15 1512168675.416646: $GPGSA,A,3,1,3,10,14,22,16,25,26,29,31,32,138,2.0,0.8,1.5*0C
2017-12-01 17:51:16 1512168676.752542: $GPGSV,3,1,12,01,14,264,40,03,30,310,46,10,11,159,39,14,65,066,40*7C
2017-12-01 17:51:16 1512168676.752799: $GPGSV,3,2,12,22,46,292,47,16,09,189,35,25,29,048,43,26,37,175,46*7D
2017-12-01 17:51:16 1512168676.752869: $GPGSV,3,3,12,23,01,294,42,31,78,346,45,32,47,093,45,138,38,213,45*47
2017-12-01 17:51:16 1512168676.866363: $GPZDA,225117.00,01,12,2017,00,00*62
2017-12-01 17:51:16 1512168676.866539: $GPGGA,225117,3946.9723,N,08404.9846,W,2,12,0.80,297.08,M,-33.325,M,,*7B
2017-12-01 17:51:16 1512168676.866606: $GPRMC,225117,A,3946.9723,N,08404.9846,W,0.0000,0.000,011217,,*35
2017-12-01 17:51:16 1512168676.866666: $GPGSA,A,3,1,3,10,14,22,16,25,26,23,31,32,138,2.0,0.8,1.5*06
2017-12-01 17:51:17 1512168677.414293: $GPZDA,225118.00,01,12,2017,00,00*6D
2017-12-01 17:51:17 1512168677.414467: $GPGGA,225118,3946.9723,N,08404.9846,W,2,12,0.80,297.08,M,-33.325,M,,*74
2017-12-01 17:51:17 1512168677.414534: $GPRMC,225118,A,3946.9723,N,08404.9846,W,0.0000,0.000,011217,,*3A
2017-12-01 17:51:17 1512168677.414596: $GPGSA,A,3,1,3,10,14,22,16,25,26,23,31,32,138,2.0,0.8,1.5*06
2017-12-01 17:51:18 1512168678.415155: $GPZDA,225119.00,01,12,2017,00,00*6C
2017-12-01 17:51:18 1512168678.415329: $GPGGA,225119,3946.9723,N,08404.9846,W,2,12,0.80,297.08,M,-33.325,M,,*75
2017-12-01 17:51:18 1512168678.415396: $GPRMC,225119,A,3946.9723,N,08404.9846,W,0.0000,0.000,011217,,*3B
2017-12-01 17:51:18 1512168678.415458: $GPGSA,A,3,1,3,10,14,22,16,25,26,23,31,32,138,2.0,0.8,1.5*06
2017-12-01 17:51:19 1512168679.752161: $GPGSV,3,1,12,01,14,264,40,03,30,310,47,10,11,159,40,14,65,066,40*73
2017-12-01 17:51:19 1512168679.752341: $GPGSV,3,2,12,22,46,292,47,16,09,189,35,25,29,048,42,26,37,175,46*7C
2017-12-01 17:51:19 1512168679.752407: $GPGSV,3,3,12,29,05,085,25,31,78,346,46,32,47,093,45,138,38,213,45*49
2017-12-01 17:51:19 1512168679.865487: $GPZDA,225120.00,01,12,2017,00,00*66
2017-12-01 17:51:19 1512168679.865653: $GPGGA,225120,3946.9723,N,08404.9846,W,2,12,0.80,297.08,M,-33.325,M,,*7F
2017-12-01 17:51:19 1512168679.865719: $GPRMC,225120,A,3946.9723,N,08404.9846,W,0.0000,0.000,011217,,*31
2017-12-01 17:51:19 1512168679.865780: $GPGSA,A,3,1,3,10,14,22,16,25,26,29,31,32,138,2.0,0.8,1.5*0C
2017-12-01 17:51:20 1512168680.415092: $GPZDA,225121.00,01,12,2017,00,00*67
2017-12-01 17:51:20 1512168680.415265: $GPGGA,225121,3946.9723,N,08404.9846,W,2,12,0.80,297.08,M,-33.325,M,,*7E
2017-12-01 17:51:20 1512168680.415350: $GPRMC,225121,A,3946.9723,N,08404.9846,W,0.0000,0.000,011217,,*30
2017-12-01 17:51:20 1512168680.415412: $GPGSA,A,3,1,3,10,14,22,16,25,26,29,31,32,138,2.0,0.8,1.5*0C
2017-12-01 17:51:21 1512168681.414529: $GPZDA,225122.00,01,12,2017,00,00*64
2017-12-01 17:51:21 1512168681.414700: $GPGGA,225122,3946.9723,N,08404.9846,W,2,12,0.80,297.08,M,-33.325,M,,*7D
2017-12-01 17:51:21 1512168681.414767: $GPRMC,225122,A,3946.9723,N,08404.9846,W,0.0000,0.000,011217,,*33
2017-12-01 17:51:21 1512168681.414828: $GPGSA,A,3,1,3,10,14,22,16,25,26,29,31,32,138,2.0,0.8,1.5*0C
2017-12-01 17:51:22 1512168682.749962: $GPGSV,3,1,12,01,14,264,39,03,30,310,46,10,11,159,40,14,65,066,40*7C
2017-12-01 17:51:22 1512168682.750145: $GPGSV,3,2,12,22,46,292,47,16,09,189,35,25,29,048,42,26,37,175,46*7C
2017-12-01 17:51:22 1512168682.750213: $GPGSV,3,3,12,29,05,085,24,31,78,346,46,32,47,093,45,138,38,213,45*48
2017-12-01 17:51:22 1512168682.863296: $GPZDA,225123.00,01,12,2017,00,00*65
2017-12-01 17:51:22 1512168682.863433: $GPGGA,225123,3946.9723,N,08404.9846,W,2,12,0.80,297.08,M,-33.325,M,,*7C
2017-12-01 17:51:22 1512168682.863500: $GPRMC,225123,A,3946.9723,N,08404.9846,W,0.0000,0.000,011217,,*32
2017-12-01 17:51:22 1512168682.863560: $GPGSA,A,3,1,3,10,14,22,16,25,26,29,31,32,138,2.0,0.8,1.5*0C
2017-12-01 17:51:23 1512168683.415645: $GPZDA,225124.00,01,12,2017,00,00*62
2017-12-01 17:51:23 1512168683.415835: $GPGGA,225124,3946.9723,N,08404.9846,W,2,12,0.80,297.08,M,-33.325,M,,*7B
2017-12-01 17:51:23 1512168683.415903: $GPRMC,225124,A,3946.9723,N,08404.9846,W,0.0000,0.000,011217,,*35
2017-12-01 17:51:23 1512168683.415964: $GPGSA,A,3,1,3,10,14,22,16,25,26,29,31,32,138,2.0,0.8,1.5*0C
2017-12-01 17:51:24 1512168684.415322: $GPZDA,225125.00,01,12,2017,00,00*63
2017-12-01 17:51:24 1512168684.415497: $GPGGA,225125,3946.9723,N,08404.9846,W,2,12,0.80,297.08,M,-33.325,M,,*7A
2017-12-01 17:51:24 1512168684.415564: $GPRMC,225125,A,3946.9723,N,08404.9846,W,0.0000,0.000,011217,,*34
2017-12-01 17:51:24 1512168684.415624: $GPGSA,A,3,1,3,10,14,22,16,25,26,29,31,32,138,2.0,0.8,1.5*0C
2017-12-01 17:51:25 1512168685.750777: $GPGSV,3,1,12,01,14,264,39,03,30,310,46,10,11,159,40,14,65,066,40*7C
2017-12-01 17:51:25 1512168685.750963: $GPGSV,3,2,12,22,46,292,48,16,09,189,35,25,29,048,42,26,37,175,46*73
2017-12-01 17:51:25 1512168685.751030: $GPGSV,3,3,12,29,05,085,24,31,78,346,46,32,47,093,45,138,38,213,45*48
2017-12-01 17:51:25 1512168685.864222: $GPZDA,225126.00,01,12,2017,00,00*60
2017-12-01 17:51:25 1512168685.864390: $GPGGA,225126,3946.9723,N,08404.9846,W,2,12,0.80,297.08,M,-33.325,M,,*79
2017-12-01 17:51:25 1512168685.864456: $GPRMC,225126,A,3946.9723,N,08404.9846,W,0.0000,0.000,011217,,*37
2017-12-01 17:51:25 1512168685.864518: $GPGSA,A,3,1,3,10,14,22,16,25,26,29,31,32,138,2.0,0.8,1.5*0C
2017-12-01 17:51:26 1512168686.489570: $GPZDA,225127.00,01,12,2017,00,00*61
2017-12-01 17:51:26 1512168686.492130: $GPGGA,225127,3946.9723,N,08404.9846,W,2,12,0.80,297.08,M,-33.325,M,,*78
2017-12-01 17:51:26 1512168686.492242: $GPRMC,225127,A,3946.9723,N,08404.9846,W,0.0000,0.000,011217,,*36
2017-12-01 17:51:26 1512168686.492307: $GPGSA,A,3,1,3,10,14,22,16,25,26,29,31,32,138,2.0,0.8,1.5*0C
2017-12-01 17:51:27 1512168687.415673: $GPZDA,225128.00,01,12,2017,00,00*6E
2017-12-01 17:51:27 1512168687.415848: $GPGGA,225128,3946.9723,N,08404.9846,W,2,12,0.80,297.08,M,-33.325,M,,*77
2017-12-01 17:51:27 1512168687.415916: $GPRMC,225128,A,3946.9723,N,08404.9846,W,0.0000,0.000,011217,,*39
2017-12-01 17:51:27 1512168687.415977: $GPGSA,A,3,1,3,10,14,22,16,25,26,29,31,32,138,2.0,0.8,1.5*0C
2017-12-01 17:51:28 1512168688.751131: $GPGSV,3,1,12,01,14,264,39,03,30,310,46,10,11,159,40,14,65,066,40*7C
2017-12-01 17:51:28 1512168688.751315: $GPGSV,3,2,12,22,46,292,48,16,09,189,36,25,29,048,42,26,37,175,46*70
2017-12-01 17:51:28 1512168688.751435: $GPGSV,3,3,12,29,05,085,23,31,78,346,46,32,47,093,44,138,38,213,45*4E
2017-12-01 17:51:28 1512168688.864800: $GPZDA,225129.00,01,12,2017,00,00*6F
2017-12-01 17:51:28 1512168688.864955: $GPGGA,225129,3946.9723,N,08404.9846,W,2,12,0.80,297.08,M,-33.325,M,,*76
2017-12-01 17:51:28 1512168688.865021: $GPRMC,225129,A,3946.9723,N,08404.9846,W,0.0000,0.000,011217,,*38
2017-12-01 17:51:28 1512168688.865082: $GPGSA,A,3,1,3,10,14,22,16,25,26,29,31,32,138,2.0,0.8,1.5*0C
