2017-12-01 15:47:44 1512161264.877970: {"class":"VERSION","release":"3.16","rev":"3.16-4","proto_major":3,"proto_minor":11}
2017-12-01 15:47:44 1512161264.878335: {"class":"DEVICES","devices":[{"class":"DEVICE","path":"/dev/ttyUSB0","driver":"SiRF","subtype":"9\u0006GSD4e_4.1.2-P1_RPATCH.05-F-GPS-4R-1510281 11/03/2015 307","activated":"2017-12-01T20:47:44.537Z","flags":1,"native":1,"bps":4800,"parity":"N","stopbits":1,"cycle":1.00}]}
2017-12-01 15:47:44 1512161264.878449: {"class":"WATCH","enable":true,"json":false,"nmea":true,"raw":0,"scaled":false,"timing":false,"split24":false,"pps":false}
2017-12-01 15:47:45 1512161265.396506: $GPZDA,204746.00,01,12,2017,00,00*63
2017-12-01 15:47:45 1512161265.396721: $GPGGA,204746,3946.9564,N,08404.9848,W,2,12,0.80,301.26,M,-33.324,M,,*76
2017-12-01 15:47:45 1512161265.396791: $GPRMC,204746,A,3946.9564,N,08404.9848,W,0.0000,0.000,011217,,*3B
2017-12-01 15:47:45 1512161265.396856: $GPGSA,A,3,1,10,12,14,18,22,24,25,31,32,11,138,2.0,0.8,1.5*3B
2017-12-01 15:47:46 1512161266.731664: $GPGSV,3,1,12,01,14,318,35,10,68,133,47,12,25,070,37,14,55,294,43*77
2017-12-01 15:47:46 1512161266.731848: $GPGSV,3,2,12,18,36,136,47,22,03,310,36,24,13,045,39,25,30,114,41*7E
2017-12-01 15:47:46 1512161266.731919: $GPGSV,3,3,12,31,36,213,49,32,68,333,48,11,11,300,30,138,38,213,46*43
2017-12-01 15:47:46 1512161266.844970: $GPZDA,204747.00,01,12,2017,00,00*62
2017-12-01 15:47:46 1512161266.845145: $GPGGA,204747,3946.9564,N,08404.9848,W,2,12,0.80,301.26,M,-33.324,M,,*77
2017-12-01 15:47:46 1512161266.845217: $GPRMC,204747,A,3946.9564,N,08404.9848,W,0.0000,0.000,011217,,*3A
2017-12-01 15:47:46 1512161266.845280: $GPGSA,A,3,1,10,12,14,18,22,24,25,31,32,11,138,2.0,0.8,1.5*3B
2017-12-01 15:47:47 1512161267.394913: $GPZDA,204748.00,01,12,2017,00,00*6D
2017-12-01 15:47:47 1512161267.395089: $GPGGA,204748,3946.9564,N,08404.9848,W,2,12,0.80,301.26,M,-33.324,M,,*78
2017-12-01 15:47:47 1512161267.395159: $GPRMC,204748,A,3946.9564,N,08404.9848,W,0.0000,0.000,011217,,*35
2017-12-01 15:47:47 1512161267.395222: $GPGSA,A,3,1,10,12,14,18,22,24,25,31,32,11,138,2.0,0.8,1.5*3B
2017-12-01 15:47:48 1512161268.392061: $GPZDA,204749.00,01,12,2017,00,00*6C
2017-12-01 15:47:48 1512161268.392234: $GPGGA,204749,3946.9564,N,08404.9848,W,2,12,0.80,301.26,M,-33.324,M,,*79
2017-12-01 15:47:48 1512161268.392304: $GPRMC,204749,A,3946.9564,N,08404.9848,W,0.0000,0.000,011217,,*34
2017-12-01 15:47:48 1512161268.392368: $GPGSA,A,3,1,10,12,14,18,22,24,25,31,32,11,138,2.0,0.8,1.5*3B
2017-12-01 15:47:49 1512161269.749944: $GPGSV,3,1,12,01,14,318,35,10,68,133,47,12,25,070,37,14,55,294,43*77
2017-12-01 15:47:49 1512161269.750132: $GPGSV,3,2,12,18,36,136,47,22,03,310,36,24,13,045,39,25,30,114,41*7E
2017-12-01 15:47:49 1512161269.750201: $GPGSV,3,3,12,31,36,213,49,32,68,333,48,11,11,300,00,138,38,213,46*40
2017-12-01 15:47:49 1512161269.863847: $GPZDA,204750.00,01,12,2017,00,00*64
2017-12-01 15:47:49 1512161269.864019: $GPGGA,204750,3946.9564,N,08404.9848,W,2,11,0.80,301.26,M,-33.324,M,,*72
2017-12-01 15:47:49 1512161269.864087: $GPRMC,204750,A,3946.9564,N,08404.9848,W,0.0000,0.000,011217,,*3C
2017-12-01 15:47:49 1512161269.864151: $GPGSA,A,3,1,10,12,14,18,22,24,25,31,32,138,,2.0,0.8,1.5*3B
2017-12-01 15:47:50 1512161270.412249: $GPZDA,204751.00,01,12,2017,00,00*65
2017-12-01 15:47:50 1512161270.412426: $GPGGA,204751,3946.9564,N,08404.9848,W,2,11,0.80,301.26,M,-33.324,M,,*73
2017-12-01 15:47:50 1512161270.412495: $GPRMC,204751,A,3946.9564,N,08404.9848,W,0.0000,0.000,011217,,*3D
2017-12-01 15:47:50 1512161270.412559: $GPGSA,A,3,1,10,12,14,18,22,24,25,31,32,138,,2.0,0.8,1.5*3B
2017-12-01 15:47:51 1512161271.411117: $GPZDA,204752.00,01,12,2017,00,00*66
2017-12-01 15:47:51 1512161271.411298: $GPGGA,204752,3946.9564,N,08404.9848,W,2,11,0.80,301.26,M,-33.324,M,,*70
2017-12-01 15:47:51 1512161271.411426: $GPRMC,204752,A,3946.9564,N,08404.9848,W,0.0000,0.000,011217,,*3E
2017-12-01 15:47:51 1512161271.411493: $GPGSA,A,3,1,10,12,14,18,22,24,25,31,32,138,,2.0,0.8,1.5*3B
2017-12-01 15:47:52 1512161272.748059: $GPGSV,3,1,12,01,14,318,36,10,68,133,47,12,25,070,38,14,55,294,43*7B
2017-12-01 15:47:52 1512161272.748303: $GPGSV,3,2,12,18,36,136,47,22,03,310,36,24,13,045,39,25,30,114,40*7F
2017-12-01 15:47:52 1512161272.748375: $GPGSV,3,3,12,31,36,213,49,32,68,333,48,11,11,300,00,138,38,213,46*40
2017-12-01 15:47:52 1512161272.861774: $GPZDA,204753.00,01,12,2017,00,00*67
2017-12-01 15:47:52 1512161272.861939: $GPGGA,204753,3946.9564,N,08404.9848,W,2,11,0.80,301.26,M,-33.324,M,,*71
2017-12-01 15:47:52 1512161272.862006: $GPRMC,204753,A,3946.9564,N,08404.9848,W,0.0000,0.000,011217,,*3F
2017-12-01 15:47:52 1512161272.862066: $GPGSA,A,3,1,10,12,14,18,22,24,25,31,32,138,,2.0,0.8,1.5*3B
2017-12-01 15:47:53 1512161273.414228: $GPZDA,204754.00,01,12,2017,00,00*60
2017-12-01 15:47:53 1512161273.414422: $GPGGA,204754,3946.9564,N,08404.9848,W,2,11,0.80,301.26,M,-33.324,M,,*76
2017-12-01 15:47:53 1512161273.414490: $GPRMC,204754,A,3946.9564,N,08404.9848,W,0.0000,0.000,011217,,*38
2017-12-01 15:47:53 1512161273.414552: $GPGSA,A,3,1,10,12,14,18,22,24,25,31,32,138,,2.0,0.8,1.5*3B
2017-12-01 15:47:54 1512161274.394777: $GPZDA,204755.00,01,12,2017,00,00*61
2017-12-01 15:47:54 1512161274.394948: $GPGGA,204755,3946.9564,N,08404.9848,W,2,11,0.80,301.26,M,-33.324,M,,*77
2017-12-01 15:47:54 1512161274.395014: $GPRMC,204755,A,3946.9564,N,08404.9848,W,0.0000,0.000,011217,,*39
2017-12-01 15:47:54 1512161274.395075: $GPGSA,A,3,1,10,12,14,18,22,24,25,31,32,138,,2.0,0.8,1.5*3B
2017-12-01 15:47:55 1512161275.732713: $GPGSV,3,1,12,01,14,318,36,10,68,133,47,12,25,070,38,14,55,294,43*7B
2017-12-01 15:47:55 1512161275.732895: $GPGSV,3,2,12,18,36,136,48,22,03,310,36,24,13,045,39,25,30,114,40*70
2017-12-01 15:47:55 1512161275.732961: $GPGSV,3,3,12,31,36,213,49,32,68,333,47,11,11,300,17,138,38,213,45*4A
2017-12-01 15:47:55 1512161275.846332: $GPZDA,204756.00,01,12,2017,00,00*62
2017-12-01 15:47:55 1512161275.846516: $GPGGA,204756,3946.9564,N,08404.9848,W,2,11,0.80,301.26,M,-33.324,M,,*74
2017-12-01 15:47:55 1512161275.846581: $GPRMC,204756,A,3946.9564,N,08404.9848,W,0.0000,0.000,011217,,*3A
2017-12-01 15:47:55 1512161275.846642: $GPGSA,A,3,1,10,12,14,18,22,24,25,31,32,138,,2.0,0.8,1.5*3B
2017-12-01 15:47:56 1512161276.471513: $GPZDA,204757.00,01,12,2017,00,00*63
2017-12-01 15:47:56 1512161276.471686: $GPGGA,204757,3946.9564,N,08404.9848,W,2,11,0.80,301.26,M,-33.324,M,,*75
2017-12-01 15:47:56 1512161276.471752: $GPRMC,204757,A,3946.9564,N,08404.9848,W,0.0000,0.000,011217,,*3B
2017-12-01 15:47:56 1512161276.471813: $GPGSA,A,3,1,10,12,14,18,22,24,25,31,32,138,,2.0,0.8,1.5*3B
2017-12-01 15:47:57 1512161277.412700: $GPZDA,204758.00,01,12,2017,00,00*6C
2017-12-01 15:47:57 1512161277.412868: $GPGGA,204758,3946.9564,N,08404.9848,W,2,11,0.80,301.26,M,-33.324,M,,*7A
2017-12-01 15:47:57 1512161277.412933: $GPRMC,204758,A,3946.9564,N,08404.9848,W,0.0000,0.000,011217,,*34
2017-12-01 15:47:57 1512161277.412994: $GPGSA,A,3,1,10,12,14,18,22,24,25,31,32,138,,2.0,0.8,1.5*3B
2017-12-01 15:47:58 1512161278.730605: $GPGSV,3,1,12,01,14,318,37,10,68,133,47,12,25,070,38,14,55,294,42*7B
2017-12-01 15:47:58 1512161278.730797: $GPGSV,3,2,12,18,36,136,48,22,03,310,35,24,13,045,39,25,30,114,40*73
2017-12-01 15:47:58 1512161278.730864: $GPGSV,3,3,12,31,36,213,49,32,68,333,47,11,11,300,27,138,38,213,46*4A
2017-12-01 15:47:58 1512161278.844216: $GPZDA,204759.00,01,12,2017,00,00*6D
2017-12-01 15:47:58 1512161278.844371: $GPGGA,204759,3946.9564,N,08404.9848,W,2,12,0.80,301.26,M,-33.324,M,,*78
2017-12-01 15:47:58 1512161278.844436: $GPRMC,204759,A,3946.9564,N,08404.9848,W,0.0000,0.000,011217,,*35
2017-12-01 15:47:58 1512161278.844498: $GPGSA,A,3,1,10,12,14,18,22,24,25,31,32,11,138,2.0,0.8,1.5*3B
2017-12-01 15:47:59 1512161279.412686: $GPZDA,204800.00,01,12,2017,00,00*6E
2017-12-01 15:47:59 1512161279.412956: $GPGGA,204800,3946.9564,N,08404.9848,W,2,12,0.80,301.26,M,-33.324,M,,*7B
2017-12-01 15:47:59 1512161279.413036: $GPRMC,204800,A,3946.9564,N,08404.9848,W,0.0000,0.000,011217,,*36
2017-12-01 15:47:59 1512161279.413098: $GPGSA,A,3,1,10,12,14,18,22,24,25,31,32,11,138,2.0,0.8,1.5*3B
2017-12-01 15:48:00 1512161280.412204: $GPZDA,204801.00,01,12,2017,00,00*6F
2017-12-01 15:48:00 1512161280.412379: $GPGGA,204801,3946.9564,N,08404.9848,W,2,12,0.80,301.26,M,-33.324,M,,*7A
2017-12-01 15:48:00 1512161280.412446: $GPRMC,204801,A,3946.9564,N,08404.9848,W,0.0000,0.000,011217,,*37
2017-12-01 15:48:00 1512161280.412506: $GPGSA,A,3,1,10,12,14,18,22,24,25,31,32,11,138,2.0,0.8,1.5*3B
2017-12-01 15:48:01 1512161281.749716: $GPGSV,3,1,12,01,14,318,38,10,68,133,47,12,25,070,38,14,55,294,42*74
2017-12-01 15:48:01 1512161281.749900: $GPGSV,3,2,12,18,36,136,48,22,03,310,36,24,13,045,39,25,30,114,40*70
2017-12-01 15:48:01 1512161281.749968: $GPGSV,3,3,12,31,36,213,50,32,68,333,47,11,11,300,36,138,38,213,46*42
2017-12-01 15:48:01 1512161281.864202: $GPZDA,204802.00,01,12,2017,00,00*6C
2017-12-01 15:48:01 1512161281.864425: $GPGGA,204802,3946.9564,N,08404.9848,W,2,12,0.80,301.26,M,-33.324,M,,*79
2017-12-01 15:48:01 1512161281.864515: $GPRMC,204802,A,3946.9564,N,08404.9848,W,0.0000,0.000,011217,,*34
2017-12-01 15:48:01 1512161281.864578: $GPGSA,A,3,1,10,12,14,18,22,24,25,31,32,11,138,2.0,0.8,1.5*3B
2017-12-01 15:48:02 1512161282.411436: $GPZDA,204803.00,01,12,2017,00,00*6D
2017-12-01 15:48:02 1512161282.411614: $GPGGA,204803,3946.9564,N,08404.9848,W,2,12,0.80,301.26,M,-33.324,M,,*78
2017-12-01 15:48:02 1512161282.411680: $GPRMC,204803,A,3946.9564,N,08404.9848,W,0.0000,0.000,011217,,*35
2017-12-01 15:48:02 1512161282.411741: $GPGSA,A,3,1,10,12,14,18,22,24,25,31,32,11,138,2.0,0.8,1.5*3B
2017-12-01 15:48:03 1512161283.412346: $GPZDA,204804.00,01,12,2017,00,00*6A
2017-12-01 15:48:03 1512161283.412514: $GPGGA,204804,3946.9564,N,08404.9848,W,2,12,0.80,301.26,M,-33.324,M,,*7F
2017-12-01 15:48:03 1512161283.412581: $GPRMC,204804,A,3946.9564,N,08404.9848,W,0.0000,0.000,011217,,*32
2017-12-01 15:48:03 1512161283.412642: $GPGSA,A,3,1,10,12,14,18,22,24,25,31,32,11,138,2.0,0.8,1.5*3B
2017-12-01 15:48:04 1512161284.731870: $GPGSV,3,1,12,01,14,318,37,10,68,133,48,12,25,070,38,14,55,294,42*74
2017-12-01 15:48:04 1512161284.732040: $GPGSV,3,2,12,18,36,136,48,22,03,310,36,24,13,045,39,25,30,114,40*70
2017-12-01 15:48:04 1512161284.732107: $GPGSV,3,3,12,31,36,213,49,32,68,333,47,11,11,300,37,138,38,213,46*4B
2017-12-01 15:48:04 1512161284.845384: $GPZDA,204805.00,01,12,2017,00,00*6B
2017-12-01 15:48:04 1512161284.845564: $GPGGA,204805,3946.9560,N,08404.9849,W,2,12,0.80,302.02,M,-33.324,M,,*7E
2017-12-01 15:48:04 1512161284.845630: $GPRMC,204805,A,3946.9560,N,08404.9849,W,0.0000,0.000,011217,,*36
2017-12-01 15:48:04 1512161284.845692: $GPGSA,A,3,1,10,12,14,18,22,24,25,31,32,11,138,2.0,0.8,1.5*3B
