2017-11-16 17:09:58 1510870198.941032: {"class":"VERSION","release":"3.17","rev":"3.17","proto_major":3,"proto_minor":12}
2017-11-16 17:09:58 1510870198.941505: {"class":"DEVICES","devices":[{"class":"DEVICE","path":"/dev/ttyUSB0","driver":"SiRF","subtype":"9\u0006GSD4e_4.1.2-P1_RPATCH.05-F-GPS-4R-1510281 11/03/2015 307","activated":"2017-11-16T22:09:58.540Z","flags":1,"native":1,"bps":4800,"parity":"N","stopbits":1,"cycle":1.00}]}
2017-11-16 17:09:58 1510870198.941629: {"class":"WATCH","enable":true,"json":false,"nmea":true,"raw":0,"scaled":false,"timing":false,"split24":false,"pps":false}
2017-11-16 17:09:59 1510870199.399314: $GPZDA,220958.00,16,11,2017,00,00*61
2017-11-16 17:09:59 1510870199.399483: $GPGGA,220958,3946.9568,N,08404.9826,W,2,12,0.80,312.81,M,-33.324,M,,*7A
2017-11-16 17:09:59 1510870199.399545: $GPRMC,220958,A,3946.9568,N,08404.9826,W,0.0000,0.000,161117,,*3D
2017-11-16 17:09:59 1510870199.399602: $GPGSA,A,3,1,10,11,12,14,18,22,24,25,31,32,138,1.6,0.8,1.3*38
2017-11-16 17:10:00 1510870200.736210: $GPGSV,3,1,12,01,19,310,42,10,59,142,48,11,10,291,38,12,25,060,49*7C
2017-11-16 17:10:00 1510870200.736395: $GPGSV,3,2,12,14,61,309,46,18,28,141,44,22,11,312,21,24,05,046,31*76
2017-11-16 17:10:00 1510870200.736454: $GPGSV,3,3,12,25,36,103,46,31,45,217,49,32,70,358,49,138,38,213,44*46
2017-11-16 17:10:00 1510870200.849473: $GPZDA,220959.00,16,11,2017,00,00*60
2017-11-16 17:10:00 1510870200.849637: $GPGGA,220959,3946.9568,N,08404.9826,W,2,12,0.80,312.81,M,-33.324,M,,*7B
2017-11-16 17:10:00 1510870200.849716: $GPRMC,220959,A,3946.9568,N,08404.9826,W,0.0000,0.000,161117,,*3C
2017-11-16 17:10:00 1510870200.849773: $GPGSA,A,3,1,10,11,12,14,18,22,24,25,31,32,138,1.6,0.8,1.3*38
2017-11-16 17:10:01 1510870201.474821: $GPZDA,221000.00,16,11,2017,00,00*64
2017-11-16 17:10:01 1510870201.474976: $GPGGA,221000,3946.9568,N,08404.9826,W,2,12,0.80,312.81,M,-33.324,M,,*7F
2017-11-16 17:10:01 1510870201.475111: $GPRMC,221000,A,3946.9568,N,08404.9826,W,0.0000,0.000,161117,,*38
2017-11-16 17:10:01 1510870201.475170: $GPGSA,A,3,1,10,11,12,14,18,22,24,25,31,32,138,1.6,0.8,1.3*38
2017-11-16 17:10:02 1510870202.414434: $GPZDA,221001.00,16,11,2017,00,00*65
2017-11-16 17:10:02 1510870202.414609: $GPGGA,221001,3946.9568,N,08404.9826,W,2,12,0.80,312.81,M,-33.324,M,,*7E
2017-11-16 17:10:02 1510870202.414671: $GPRMC,221001,A,3946.9568,N,08404.9826,W,0.0000,0.000,161117,,*39
2017-11-16 17:10:02 1510870202.414727: $GPGSA,A,3,1,10,11,12,14,18,22,24,25,31,32,138,1.6,0.8,1.3*38
2017-11-16 17:10:03 1510870203.734221: $GPGSV,3,1,12,01,19,310,41,10,59,142,48,11,10,291,39,12,25,060,50*76
2017-11-16 17:10:03 1510870203.734399: $GPGSV,3,2,12,14,61,309,46,18,28,141,44,22,11,312,21,24,05,046,31*76
2017-11-16 17:10:03 1510870203.734480: $GPGSV,3,3,12,25,36,103,46,31,45,217,49,32,70,358,50,138,38,213,44*4E
2017-11-16 17:10:03 1510870203.847395: $GPZDA,221002.00,16,11,2017,00,00*66
2017-11-16 17:10:03 1510870203.847565: $GPGGA,221002,3946.9568,N,08404.9826,W,2,12,0.80,312.81,M,-33.324,M,,*7D
2017-11-16 17:10:03 1510870203.847625: $GPRMC,221002,A,3946.9568,N,08404.9826,W,0.0000,0.000,161117,,*3A
2017-11-16 17:10:03 1510870203.847681: $GPGSA,A,3,1,10,11,12,14,18,22,24,25,31,32,138,1.6,0.8,1.3*38
2017-11-16 17:10:04 1510870204.410713: $GPZDA,221003.00,16,11,2017,00,00*67
2017-11-16 17:10:04 1510870204.410881: $GPGGA,221003,3946.9568,N,08404.9826,W,2,12,0.80,312.81,M,-33.324,M,,*7C
2017-11-16 17:10:04 1510870204.410942: $GPRMC,221003,A,3946.9568,N,08404.9826,W,0.0000,0.000,161117,,*3B
2017-11-16 17:10:04 1510870204.410998: $GPGSA,A,3,1,10,11,12,14,18,22,24,25,31,32,138,1.6,0.8,1.3*38
2017-11-16 17:10:05 1510870205.399069: $GPZDA,221004.00,16,11,2017,00,00*60
2017-11-16 17:10:05 1510870205.399230: $GPGGA,221004,3946.9568,N,08404.9826,W,2,12,0.80,312.81,M,-33.324,M,,*7B
2017-11-16 17:10:05 1510870205.399291: $GPRMC,221004,A,3946.9568,N,08404.9826,W,0.0000,0.000,161117,,*3C
2017-11-16 17:10:05 1510870205.399347: $GPGSA,A,3,1,10,11,12,14,18,22,24,25,31,32,138,1.6,0.8,1.3*38
2017-11-16 17:10:06 1510870206.751813: $GPGSV,3,1,12,01,19,310,41,10,59,142,47,11,10,291,39,12,25,060,50*79
2017-11-16 17:10:06 1510870206.752036: $GPGSV,3,2,12,14,61,309,46,18,28,141,44,22,11,312,22,24,05,046,31*75
2017-11-16 17:10:06 1510870206.752101: $GPGSV,3,3,12,25,36,103,46,31,45,217,49,32,70,358,50,138,38,213,43*49
2017-11-16 17:10:06 1510870206.865217: $GPZDA,221005.00,16,11,2017,00,00*61
2017-11-16 17:10:06 1510870206.865374: $GPGGA,221005,3946.9568,N,08404.9826,W,2,12,0.80,312.81,M,-33.324,M,,*7A
2017-11-16 17:10:06 1510870206.865433: $GPRMC,221005,A,3946.9568,N,08404.9826,W,0.0000,0.000,161117,,*3D
2017-11-16 17:10:06 1510870206.865490: $GPGSA,A,3,1,10,11,12,14,18,22,24,25,31,32,138,1.6,0.8,1.3*38
2017-11-16 17:10:07 1510870207.416027: $GPZDA,221006.00,16,11,2017,00,00*62
2017-11-16 17:10:07 1510870207.416188: $GPGGA,221006,3946.9568,N,08404.9826,W,2,12,0.80,312.81,M,-33.324,M,,*79
2017-11-16 17:10:07 1510870207.416249: $GPRMC,221006,A,3946.9568,N,08404.9826,W,0.0000,0.000,161117,,*3E
2017-11-16 17:10:07 1510870207.416304: $GPGSA,A,3,1,10,11,12,14,18,22,24,25,31,32,138,1.6,0.8,1.3*38
2017-11-16 17:10:08 1510870208.410912: $GPZDA,221007.00,16,11,2017,00,00*63
2017-11-16 17:10:08 1510870208.411089: $GPGGA,221007,3946.9568,N,08404.9826,W,2,12,0.80,312.81,M,-33.324,M,,*78
2017-11-16 17:10:08 1510870208.411151: $GPRMC,221007,A,3946.9568,N,08404.9826,W,0.0000,0.000,161117,,*3F
2017-11-16 17:10:08 1510870208.411207: $GPGSA,A,3,1,10,11,12,14,18,22,24,25,31,32,138,1.6,0.8,1.3*38
