2017-12-31 17:59:01 1514761141.869040: {"class":"VERSION","release":"3.16","rev":"3.16-4","proto_major":3,"proto_minor":11}
2017-12-31 17:59:01 1514761141.869370: {"class":"DEVICES","devices":[{"class":"DEVICE","path":"/dev/ttyUSB0","driver":"SiRF","activated":"2017-12-31T22:59:01.487Z","flags":1,"native":1,"bps":4800,"parity":"N","stopbits":1,"cycle":1.00}]}
2017-12-31 17:59:01 1514761141.869466: {"class":"WATCH","enable":true,"json":false,"nmea":true,"raw":0,"scaled":false,"timing":false,"split24":false,"pps":false}
2017-12-31 17:59:02 1514761142.345278: $GPZDA,225903.00,31,12,2017,00,00*6C
2017-12-31 17:59:02 1514761142.345447: $GPGGA,225903,3946.9564,N,08404.9866,W,2,11,0.60,307.48,M,-33.324,M,,*75
2017-12-31 17:59:02 1514761142.345512: $GPRMC,225903,A,3946.9564,N,08404.9866,W,0.0000,0.000,311217,,*38
2017-12-31 17:59:02 1514761142.345573: $GPGSA,A,3,22,23,9,3,16,29,14,31,27,26,135,,1.7,0.6,1.3*06
2017-12-31 17:59:03 1514761143.705727: $GPGSV,3,1,11,22,26,217,44,23,50,307,41,09,16,312,37,03,35,238,44*78
2017-12-31 17:59:03 1514761143.705913: $GPGSV,3,2,11,16,75,192,43,29,07,033,34,14,19,130,33,31,32,072,42*74
2017-12-31 17:59:03 1514761143.705996: $GPGSV,3,3,11,27,18,156,27,26,67,054,48,135,22,240,44*7B
2017-12-31 17:59:03 1514761143.819100: $GPZDA,225904.00,31,12,2017,00,00*6B
2017-12-31 17:59:03 1514761143.819244: $GPGGA,225904,3946.9564,N,08404.9866,W,2,11,0.60,307.48,M,-33.324,M,,*72
2017-12-31 17:59:03 1514761143.819309: $GPRMC,225904,A,3946.9564,N,08404.9866,W,0.0000,0.000,311217,,*3F
2017-12-31 17:59:03 1514761143.819370: $GPGSA,A,3,22,23,9,3,16,29,14,31,27,26,135,,1.7,0.6,1.3*06
2017-12-31 17:59:04 1514761144.370235: $GPZDA,225905.00,31,12,2017,00,00*6A
2017-12-31 17:59:04 1514761144.370420: $GPGGA,225905,3946.9564,N,08404.9866,W,2,11,0.60,307.48,M,-33.324,M,,*73
2017-12-31 17:59:04 1514761144.370487: $GPRMC,225905,A,3946.9564,N,08404.9866,W,0.0000,0.000,311217,,*3E
2017-12-31 17:59:04 1514761144.370549: $GPGSA,A,3,22,23,9,3,16,29,14,31,27,26,135,,1.7,0.6,1.3*06
2017-12-31 17:59:05 1514761145.370589: $GPZDA,225906.00,31,12,2017,00,00*69
2017-12-31 17:59:05 1514761145.370750: $GPGGA,225906,3946.9564,N,08404.9866,W,2,11,0.60,307.48,M,-33.324,M,,*70
2017-12-31 17:59:05 1514761145.370817: $GPRMC,225906,A,3946.9564,N,08404.9866,W,0.0000,0.000,311217,,*3D
2017-12-31 17:59:05 1514761145.370877: $GPGSA,A,3,22,23,9,3,16,29,14,31,27,26,135,,1.7,0.6,1.3*06
2017-12-31 17:59:06 1514761146.682307: $GPGSV,3,1,11,22,26,217,44,23,50,307,42,09,16,312,37,03,35,238,45*7A
2017-12-31 17:59:06 1514761146.682459: $GPGSV,3,2,11,16,75,192,43,29,07,033,35,14,19,130,29,31,32,072,42*7E
2017-12-31 17:59:06 1514761146.682524: $GPGSV,3,3,11,27,18,156,27,26,67,054,48,135,22,240,44*7B
2017-12-31 17:59:06 1514761146.794660: $GPZDA,225907.00,31,12,2017,00,00*68
2017-12-31 17:59:06 1514761146.794796: $GPGGA,225907,3946.9567,N,08404.9865,W,2,11,0.60,306.72,M,-33.324,M,,*79
2017-12-31 17:59:06 1514761146.794862: $GPRMC,225907,A,3946.9567,N,08404.9865,W,0.0000,0.000,311217,,*3C
2017-12-31 17:59:06 1514761146.794922: $GPGSA,A,3,22,23,9,3,16,29,14,31,27,26,135,,1.7,0.6,1.3*06
2017-12-31 17:59:07 1514761147.554956: $GPZDA,225908.00,31,12,2017,00,00*67
2017-12-31 17:59:07 1514761147.555127: $GPGGA,225908,3946.9567,N,08404.9865,W,2,11,0.60,306.72,M,-33.324,M,,*76
2017-12-31 17:59:07 1514761147.555193: $GPRMC,225908,A,3946.9567,N,08404.9865,W,0.0000,0.000,311217,,*33
2017-12-31 17:59:07 1514761147.555254: $GPGSA,A,3,22,23,9,3,16,29,14,31,27,26,135,,1.7,0.6,1.3*06
2017-12-31 17:59:07 1514761147.555312: $GPGBS,225908,2.22,M,3.43,M,7.66,M*3B
2017-12-31 17:59:08 1514761148.345815: $GPZDA,225909.00,31,12,2017,00,00*66
2017-12-31 17:59:08 1514761148.345978: $GPGGA,225909,3946.9567,N,08404.9865,W,2,11,0.60,306.72,M,-33.324,M,,*77
2017-12-31 17:59:08 1514761148.346044: $GPRMC,225909,A,3946.9567,N,08404.9865,W,0.0000,0.000,311217,,*32
2017-12-31 17:59:08 1514761148.346105: $GPGSA,A,3,22,23,9,3,16,29,14,31,27,26,135,,1.7,0.6,1.3*06
2017-12-31 17:59:08 1514761148.346163: $GPGBS,225909,2.22,M,3.43,M,7.66,M*3A
2017-12-31 17:59:09 1514761149.681238: $GPGSV,3,1,11,22,26,217,44,23,50,307,42,09,16,312,37,03,35,238,44*7B
2017-12-31 17:59:09 1514761149.681490: $GPGSV,3,2,11,16,75,192,43,29,07,033,34,14,19,130,32,31,31,072,43*77
2017-12-31 17:59:09 1514761149.681560: $GPGSV,3,3,11,27,18,156,27,26,66,054,49,135,22,240,44*7B
2017-12-31 17:59:09 1514761149.794628: $GPZDA,225910.00,31,12,2017,00,00*6E
2017-12-31 17:59:09 1514761149.794786: $GPGGA,225910,3946.9567,N,08404.9865,W,2,11,0.60,306.72,M,-33.324,M,,*7F
2017-12-31 17:59:09 1514761149.794853: $GPRMC,225910,A,3946.9567,N,08404.9865,W,0.0000,0.000,311217,,*3A
2017-12-31 17:59:09 1514761149.794914: $GPGSA,A,3,22,23,9,3,16,29,14,31,27,26,135,,1.7,0.6,1.3*06
2017-12-31 17:59:10 1514761150.420004: $GPZDA,225911.00,31,12,2017,00,00*6F
2017-12-31 17:59:10 1514761150.420174: $GPGGA,225911,3946.9567,N,08404.9865,W,2,11,0.60,306.72,M,-33.324,M,,*7E
2017-12-31 17:59:10 1514761150.420240: $GPRMC,225911,A,3946.9567,N,08404.9865,W,0.0000,0.000,311217,,*3B
2017-12-31 17:59:10 1514761150.420301: $GPGSA,A,3,22,23,9,3,16,29,14,31,27,26,135,,1.7,0.6,1.3*06
2017-12-31 17:59:11 1514761151.345859: $GPZDA,225912.00,31,12,2017,00,00*6C
2017-12-31 17:59:11 1514761151.346027: $GPGGA,225912,3946.9567,N,08404.9865,W,2,11,0.60,306.72,M,-33.324,M,,*7D
2017-12-31 17:59:11 1514761151.346094: $GPRMC,225912,A,3946.9567,N,08404.9865,W,0.0000,0.000,311217,,*38
2017-12-31 17:59:11 1514761151.346155: $GPGSA,A,3,22,23,9,3,16,29,14,31,27,26,135,,1.7,0.6,1.3*06
