2017-12-01 18:26:43 1512170803.044442: {"class":"VERSION","release":"3.16","rev":"3.16-4","proto_major":3,"proto_minor":11}
2017-12-01 18:26:43 1512170803.044855: {"class":"DEVICES","devices":[{"class":"DEVICE","path":"/dev/ttyUSB0","driver":"SiRF","subtype":"9\u0006GSD4e_4.1.2-P1_RPATCH.05-F-GPS-4R-1510281 11/03/2015 307","activated":"2017-12-01T23:26:42.510Z","flags":1,"native":1,"bps":4800,"parity":"N","stopbits":1,"cycle":1.00}]}
2017-12-01 18:26:43 1512170803.044979: {"class":"WATCH","enable":true,"json":false,"nmea":true,"raw":0,"scaled":false,"timing":false,"split24":false,"pps":false}
2017-12-01 18:26:43 1512170803.372101: $GPZDA,232644.00,01,12,2017,00,00*65
2017-12-01 18:26:43 1512170803.372300: $GPGGA,232644,3946.9723,N,08404.9839,W,2,11,0.80,297.16,M,-33.325,M,,*78
2017-12-01 18:26:43 1512170803.372375: $GPRMC,232644,A,3946.9723,N,08404.9839,W,0.0000,0.000,011217,,*3A
2017-12-01 18:26:43 1512170803.372442: $GPGSA,A,3,1,3,14,16,22,23,25,26,31,32,138,,2.0,0.8,1.5*07
2017-12-01 18:26:44 1512170804.704678: $GPGSV,3,1,12,01,05,252,34,03,41,298,47,14,54,093,43,16,24,189,44*70
2017-12-01 18:26:44 1512170804.704861: $GPGSV,3,2,12,22,50,268,44,23,12,301,42,25,16,040,39,26,55,171,47*7A
2017-12-01 18:26:44 1512170804.704928: $GPGSV,3,3,12,31,66,028,46,32,34,109,41,29,11,070,00,138,38,213,46*44
2017-12-01 18:26:44 1512170804.817978: $GPZDA,232645.00,01,12,2017,00,00*64
2017-12-01 18:26:44 1512170804.818122: $GPGGA,232645,3946.9723,N,08404.9839,W,2,11,0.80,297.16,M,-33.325,M,,*79
2017-12-01 18:26:44 1512170804.818189: $GPRMC,232645,A,3946.9723,N,08404.9839,W,0.0000,0.000,011217,,*3B
2017-12-01 18:26:44 1512170804.818249: $GPGSA,A,3,1,3,14,16,22,23,25,26,31,32,138,,2.0,0.8,1.5*07
2017-12-01 18:26:45 1512170805.375222: $GPZDA,232646.00,01,12,2017,00,00*67
2017-12-01 18:26:45 1512170805.375401: $GPGGA,232646,3946.9723,N,08404.9839,W,2,11,0.80,297.16,M,-33.325,M,,*7A
2017-12-01 18:26:45 1512170805.375490: $GPRMC,232646,A,3946.9723,N,08404.9839,W,0.0000,0.000,011217,,*38
2017-12-01 18:26:45 1512170805.375553: $GPGSA,A,3,1,3,14,16,22,23,25,26,31,32,138,,2.0,0.8,1.5*07
2017-12-01 18:26:46 1512170806.378493: $GPZDA,232647.00,01,12,2017,00,00*66
2017-12-01 18:26:46 1512170806.378695: $GPGGA,232647,3946.9723,N,08404.9839,W,2,11,0.80,297.16,M,-33.325,M,,*7B
2017-12-01 18:26:46 1512170806.378763: $GPRMC,232647,A,3946.9723,N,08404.9839,W,0.0000,0.000,011217,,*39
2017-12-01 18:26:46 1512170806.378826: $GPGSA,A,3,1,3,14,16,22,23,25,26,31,32,138,,2.0,0.8,1.5*07
2017-12-01 18:26:47 1512170807.741783: $GPGSV,3,1,12,01,05,252,34,03,41,298,47,14,54,093,43,16,24,189,44*70
2017-12-01 18:26:47 1512170807.741981: $GPGSV,3,2,12,22,50,268,44,23,12,301,41,25,16,040,39,26,55,171,47*79
2017-12-01 18:26:47 1512170807.742051: $GPGSV,3,3,12,31,66,028,46,32,34,109,42,29,11,070,00,138,38,213,46*47
2017-12-01 18:26:47 1512170807.855157: $GPZDA,232648.00,01,12,2017,00,00*69
2017-12-01 18:26:47 1512170807.855358: $GPGGA,232648,3946.9723,N,08404.9839,W,2,11,0.80,297.16,M,-33.325,M,,*74
2017-12-01 18:26:47 1512170807.855435: $GPRMC,232648,A,3946.9723,N,08404.9839,W,0.0000,0.000,011217,,*36
2017-12-01 18:26:47 1512170807.855499: $GPGSA,A,3,1,3,14,16,22,23,25,26,31,32,138,,2.0,0.8,1.5*07
2017-12-01 18:26:48 1512170808.374879: $GPZDA,232649.00,01,12,2017,00,00*68
2017-12-01 18:26:48 1512170808.375050: $GPGGA,232649,3946.9723,N,08404.9839,W,2,11,0.80,297.16,M,-33.325,M,,*75
2017-12-01 18:26:48 1512170808.375117: $GPRMC,232649,A,3946.9723,N,08404.9839,W,0.0000,0.000,011217,,*37
2017-12-01 18:26:48 1512170808.375177: $GPGSA,A,3,1,3,14,16,22,23,25,26,31,32,138,,2.0,0.8,1.5*07
2017-12-01 18:26:49 1512170809.409411: $GPZDA,232650.00,01,12,2017,00,00*60
2017-12-01 18:26:49 1512170809.409579: $GPGGA,232650,3946.9723,N,08404.9839,W,2,11,0.80,297.16,M,-33.325,M,,*7D
2017-12-01 18:26:49 1512170809.409647: $GPRMC,232650,A,3946.9723,N,08404.9839,W,0.0000,0.000,011217,,*3F
2017-12-01 18:26:49 1512170809.409707: $GPGSA,A,3,1,3,14,16,22,23,25,26,31,32,138,,2.0,0.8,1.5*07
2017-12-01 18:26:50 1512170810.742164: $GPGSV,3,1,12,01,05,252,34,03,41,298,48,14,54,093,43,16,24,189,44*7F
2017-12-01 18:26:50 1512170810.742649: $GPGSV,3,2,12,22,50,268,44,23,12,301,41,25,16,040,39,26,55,171,48*76
2017-12-01 18:26:50 1512170810.742801: $GPGSV,3,3,12,31,66,028,45,32,34,109,36,29,11,070,00,138,38,213,46*47
2017-12-01 18:26:50 1512170810.855508: $GPZDA,232651.00,01,12,2017,00,00*61
2017-12-01 18:26:50 1512170810.855677: $GPGGA,232651,3946.9723,N,08404.9839,W,2,11,0.80,297.16,M,-33.325,M,,*7C
2017-12-01 18:26:50 1512170810.855744: $GPRMC,232651,A,3946.9723,N,08404.9839,W,0.0000,0.000,011217,,*3E
2017-12-01 18:26:50 1512170810.855805: $GPGSA,A,3,1,3,14,16,22,23,25,26,31,32,138,,2.0,0.8,1.5*07
2017-12-01 18:26:51 1512170811.407690: $GPZDA,232652.00,01,12,2017,00,00*62
2017-12-01 18:26:51 1512170811.407859: $GPGGA,232652,3946.9723,N,08404.9839,W,2,11,0.80,297.16,M,-33.325,M,,*7F
2017-12-01 18:26:51 1512170811.407926: $GPRMC,232652,A,3946.9723,N,08404.9839,W,0.0000,0.000,011217,,*3D
2017-12-01 18:26:51 1512170811.407988: $GPGSA,A,3,1,3,14,16,22,23,25,26,31,32,138,,2.0,0.8,1.5*07
2017-12-01 18:26:52 1512170812.408614: $GPZDA,232653.00,01,12,2017,00,00*63
2017-12-01 18:26:52 1512170812.413505: $GPGGA,232653,3946.9723,N,08404.9839,W,2,11,0.80,297.16,M,-33.325,M,,*7E
2017-12-01 18:26:52 1512170812.413673: $GPRMC,232653,A,3946.9723,N,08404.9839,W,0.0000,0.000,011217,,*3C
2017-12-01 18:26:52 1512170812.413758: $GPGSA,A,3,1,3,14,16,22,23,25,26,31,32,138,,2.0,0.8,1.5*07
2017-12-01 18:26:53 1512170813.710447: $GPGSV,3,1,12,01,05,252,33,03,41,298,48,14,54,093,43,16,24,189,44*78
2017-12-01 18:26:53 1512170813.710632: $GPGSV,3,2,12,22,50,268,44,23,12,301,41,25,16,040,39,26,55,171,47*79
2017-12-01 18:26:53 1512170813.710700: $GPGSV,3,3,12,31,66,028,46,32,34,109,38,29,11,070,21,138,38,213,46*49
2017-12-01 18:26:53 1512170813.824547: $GPZDA,232654.00,01,12,2017,00,00*64
2017-12-01 18:26:53 1512170813.824858: $GPGGA,232654,3946.9726,N,08404.9839,W,2,12,0.80,296.40,M,-33.325,M,,*7D
2017-12-01 18:26:53 1512170813.825038: $GPRMC,232654,A,3946.9726,N,08404.9839,W,0.0000,0.000,011217,,*3E
2017-12-01 18:26:53 1512170813.825190: $GPGSA,A,3,1,3,14,16,22,23,25,26,31,32,29,138,2.0,0.8,1.5*0C
2017-12-01 18:26:54 1512170814.450529: $GPZDA,232655.00,01,12,2017,00,00*65
2017-12-01 18:26:54 1512170814.450707: $GPGGA,232655,3946.9726,N,08404.9839,W,2,12,0.80,296.40,M,-33.325,M,,*7C
2017-12-01 18:26:54 1512170814.450776: $GPRMC,232655,A,3946.9726,N,08404.9839,W,0.0000,0.000,011217,,*3F
2017-12-01 18:26:54 1512170814.450836: $GPGSA,A,3,1,3,14,16,22,23,25,26,31,32,29,138,2.0,0.8,1.5*0C
2017-12-01 18:26:55 1512170815.403875: $GPZDA,232656.00,01,12,2017,00,00*66
2017-12-01 18:26:55 1512170815.404052: $GPGGA,232656,3946.9726,N,08404.9839,W,2,12,0.80,296.40,M,-33.325,M,,*7F
2017-12-01 18:26:55 1512170815.404121: $GPRMC,232656,A,3946.9726,N,08404.9839,W,0.0000,0.000,011217,,*3C
2017-12-01 18:26:55 1512170815.404182: $GPGSA,A,3,1,3,14,16,22,23,25,26,31,32,29,138,2.0,0.8,1.5*0C
2017-12-01 18:26:56 1512170816.742045: $GPGSV,3,1,12,01,05,252,28,03,41,298,47,14,54,093,43,16,24,189,44*7D
2017-12-01 18:26:56 1512170816.742241: $GPGSV,3,2,12,22,50,268,44,23,12,301,42,25,16,040,39,26,55,171,47*7A
2017-12-01 18:26:56 1512170816.742325: $GPGSV,3,3,12,31,66,028,46,32,34,109,39,29,11,070,00,138,38,213,46*4B
2017-12-01 18:26:56 1512170816.855415: $GPZDA,232657.00,01,12,2017,00,00*67
2017-12-01 18:26:56 1512170816.855582: $GPGGA,232657,3946.9726,N,08404.9839,W,2,11,0.80,296.40,M,-33.325,M,,*7D
2017-12-01 18:26:56 1512170816.855649: $GPRMC,232657,A,3946.9726,N,08404.9839,W,0.0000,0.000,011217,,*3D
2017-12-01 18:26:56 1512170816.855709: $GPGSA,A,3,1,3,14,16,22,23,25,26,31,32,138,,2.0,0.8,1.5*07
2017-12-01 18:26:57 1512170817.375036: $GPZDA,232658.00,01,12,2017,00,00*68
2017-12-01 18:26:57 1512170817.375226: $GPGGA,232658,3946.9726,N,08404.9839,W,2,11,0.80,296.40,M,-33.325,M,,*72
2017-12-01 18:26:57 1512170817.375294: $GPRMC,232658,A,3946.9726,N,08404.9839,W,0.0000,0.000,011217,,*32
2017-12-01 18:26:57 1512170817.375373: $GPGSA,A,3,1,3,14,16,22,23,25,26,31,32,138,,2.0,0.8,1.5*07
2017-12-01 18:26:58 1512170818.407221: $GPZDA,232659.00,01,12,2017,00,00*69
2017-12-01 18:26:58 1512170818.407463: $GPGGA,232659,3946.9726,N,08404.9839,W,2,11,0.80,296.40,M,-33.325,M,,*73
2017-12-01 18:26:58 1512170818.407533: $GPRMC,232659,A,3946.9726,N,08404.9839,W,0.0000,0.000,011217,,*33
2017-12-01 18:26:58 1512170818.407594: $GPGSA,A,3,1,3,14,16,22,23,25,26,31,32,138,,2.0,0.8,1.5*07
2017-12-01 18:26:59 1512170819.717357: $GPGSV,3,1,12,01,05,252,30,03,41,298,48,14,54,093,43,16,24,189,43*7C
2017-12-01 18:26:59 1512170819.717538: $GPGSV,3,2,12,22,50,268,44,23,12,301,42,25,16,040,39,26,55,171,47*7A
2017-12-01 18:26:59 1512170819.717605: $GPGSV,3,3,12,31,66,028,46,32,34,109,39,29,11,070,02,138,38,213,46*49
2017-12-01 18:26:59 1512170819.830756: $GPZDA,232700.00,01,12,2017,00,00*64
2017-12-01 18:26:59 1512170819.830906: $GPGGA,232700,3946.9726,N,08404.9839,W,2,11,0.80,296.40,M,-33.325,M,,*7E
2017-12-01 18:26:59 1512170819.830973: $GPRMC,232700,A,3946.9726,N,08404.9839,W,0.0000,0.000,011217,,*3E
2017-12-01 18:26:59 1512170819.831034: $GPGSA,A,3,1,3,14,16,22,23,25,26,31,32,138,,2.0,0.8,1.5*07
2017-12-01 18:27:00 1512170820.401691: $GPZDA,232701.00,01,12,2017,00,00*65
2017-12-01 18:27:00 1512170820.401846: $GPGGA,232701,3946.9726,N,08404.9839,W,2,11,0.80,296.40,M,-33.325,M,,*7F
2017-12-01 18:27:00 1512170820.401913: $GPRMC,232701,A,3946.9726,N,08404.9839,W,0.0000,0.000,011217,,*3F
2017-12-01 18:27:00 1512170820.401975: $GPGSA,A,3,1,3,14,16,22,23,25,26,31,32,138,,2.0,0.8,1.5*07
2017-12-01 18:27:01 1512170821.407984: $GPZDA,232702.00,01,12,2017,00,00*66
2017-12-01 18:27:01 1512170821.408174: $GPGGA,232702,3946.9726,N,08404.9839,W,2,11,0.80,296.40,M,-33.325,M,,*7C
2017-12-01 18:27:01 1512170821.408242: $GPRMC,232702,A,3946.9726,N,08404.9839,W,0.0000,0.000,011217,,*3C
2017-12-01 18:27:01 1512170821.408337: $GPGSA,A,3,1,3,14,16,22,23,25,26,31,32,138,,2.0,0.8,1.5*07
2017-12-01 18:27:02 1512170822.743199: $GPGSV,3,1,12,01,05,252,30,03,41,298,48,14,54,093,43,16,24,189,43*7C
2017-12-01 18:27:02 1512170822.744791: $GPGSV,3,2,12,22,50,268,44,23,12,301,42,25,16,040,40,26,55,171,47*74
2017-12-01 18:27:02 1512170822.744885: $GPGSV,3,3,12,31,66,028,46,32,34,109,39,29,11,070,00,138,38,213,46*4B
2017-12-01 18:27:02 1512170822.856611: $GPZDA,232703.00,01,12,2017,00,00*67
2017-12-01 18:27:02 1512170822.856781: $GPGGA,232703,3946.9726,N,08404.9839,W,2,11,0.80,296.40,M,-33.325,M,,*7D
2017-12-01 18:27:02 1512170822.856848: $GPRMC,232703,A,3946.9726,N,08404.9839,W,0.0000,0.000,011217,,*3D
2017-12-01 18:27:02 1512170822.856909: $GPGSA,A,3,1,3,14,16,22,23,25,26,31,32,138,,2.0,0.8,1.5*07
