2017-11-16 13:19:46 1510856386.715744: {"class":"VERSION","release":"3.17","rev":"3.17","proto_major":3,"proto_minor":12}
2017-11-16 13:19:46 1510856386.716270: {"class":"DEVICES","devices":[{"class":"DEVICE","path":"/dev/ttyUSB0","driver":"SiRF","subtype":"9\u0006GSD4e_4.1.2-P1_RPATCH.05-F-GPS-4R-1510281 11/03/2015 307","activated":"2017-11-16T18:19:46.430Z","flags":1,"native":1,"bps":4800,"parity":"N","stopbits":1,"cycle":1.00}]}
2017-11-16 13:19:46 1510856386.716405: {"class":"WATCH","enable":true,"json":false,"nmea":true,"raw":0,"scaled":false,"timing":false,"split24":false,"pps":false}
2017-11-16 13:19:47 1510856387.289651: $GPZDA,181946.00,16,11,2017,00,00*66
2017-11-16 13:19:47 1510856387.289823: $GPGGA,181946,3946.9594,N,08404.9845,W,2,11,0.80,300.76,M,-33.324,M,,*73
2017-11-16 13:19:47 1510856387.289886: $GPRMC,181946,A,3946.9594,N,08404.9845,W,0.0000,0.000,161117,,*3C
2017-11-16 13:19:47 1510856387.289942: $GPGSA,A,3,10,13,15,18,20,21,24,27,29,32,138,,1.6,0.8,1.3*03
2017-11-16 13:19:48 1510856388.619127: $GPGSV,3,1,12,10,23,283,42,13,29,045,47,15,61,051,51,18,54,300,47*77
2017-11-16 13:19:48 1510856388.619300: $GPGSV,3,2,12,20,51,072,47,21,78,270,46,24,33,138,42,27,16,313,42*7F
2017-11-16 13:19:48 1510856388.619364: $GPGSV,3,3,12,05,04,087,23,29,09,189,24,32,01,225,23,138,38,213,46*46
2017-11-16 13:19:48 1510856388.732411: $GPZDA,181947.00,16,11,2017,00,00*67
2017-11-16 13:19:48 1510856388.732586: $GPGGA,181947,3946.9594,N,08404.9845,W,2,12,0.80,300.76,M,-33.324,M,,*71
2017-11-16 13:19:48 1510856388.732649: $GPRMC,181947,A,3946.9594,N,08404.9845,W,0.0000,0.000,161117,,*3D
2017-11-16 13:19:48 1510856388.732704: $GPGSA,A,3,10,13,15,18,20,21,24,27,5,29,32,138,1.6,0.8,1.3*36
2017-11-16 13:19:49 1510856389.310797: $GPZDA,181948.00,16,11,2017,00,00*68
2017-11-16 13:19:49 1510856389.310966: $GPGGA,181948,3946.9594,N,08404.9845,W,2,12,0.80,300.76,M,-33.324,M,,*7E
2017-11-16 13:19:49 1510856389.311028: $GPRMC,181948,A,3946.9594,N,08404.9845,W,0.0000,0.000,161117,,*32
2017-11-16 13:19:49 1510856389.311084: $GPGSA,A,3,10,13,15,18,20,21,24,27,5,29,32,138,1.6,0.8,1.3*36
2017-11-16 13:19:50 1510856390.309836: $GPZDA,181949.00,16,11,2017,00,00*69
2017-11-16 13:19:50 1510856390.310001: $GPGGA,181949,3946.9594,N,08404.9845,W,2,12,0.80,300.76,M,-33.324,M,,*7F
2017-11-16 13:19:50 1510856390.310064: $GPRMC,181949,A,3946.9594,N,08404.9845,W,0.0000,0.000,161117,,*33
2017-11-16 13:19:50 1510856390.310120: $GPGSA,A,3,10,13,15,18,20,21,24,27,5,29,32,138,1.6,0.8,1.3*36
2017-11-16 13:19:51 1510856391.624359: $GPGSV,3,1,12,10,23,283,43,13,29,045,47,15,61,051,51,18,54,300,47*76
2017-11-16 13:19:51 1510856391.624534: $GPGSV,3,2,12,20,51,072,47,21,78,270,46,24,33,138,42,27,16,313,42*7F
2017-11-16 13:19:51 1510856391.624594: $GPGSV,3,3,12,05,04,087,22,29,09,189,24,32,01,225,24,138,38,213,45*43
2017-11-16 13:19:51 1510856391.737632: $GPZDA,181950.00,16,11,2017,00,00*61
2017-11-16 13:19:51 1510856391.737799: $GPGGA,181950,3946.9594,N,08404.9845,W,2,12,0.80,300.76,M,-33.324,M,,*77
2017-11-16 13:19:51 1510856391.737882: $GPRMC,181950,A,3946.9594,N,08404.9845,W,0.0000,0.000,161117,,*3B
2017-11-16 13:19:51 1510856391.737940: $GPGSA,A,3,10,13,15,18,20,21,24,27,5,29,32,138,1.6,0.8,1.3*36
2017-11-16 13:19:52 1510856392.288486: $GPZDA,181951.00,16,11,2017,00,00*60
2017-11-16 13:19:52 1510856392.288652: $GPGGA,181951,3946.9594,N,08404.9845,W,2,12,0.80,300.76,M,-33.324,M,,*76
2017-11-16 13:19:52 1510856392.288713: $GPRMC,181951,A,3946.9594,N,08404.9845,W,0.0000,0.000,161117,,*3A
2017-11-16 13:19:52 1510856392.288769: $GPGSA,A,3,10,13,15,18,20,21,24,27,5,29,32,138,1.6,0.8,1.3*36
2017-11-16 13:19:53 1510856393.308066: $GPZDA,181952.00,16,11,2017,00,00*63
2017-11-16 13:19:53 1510856393.308248: $GPGGA,181952,3946.9594,N,08404.9845,W,2,12,0.80,300.76,M,-33.324,M,,*75
2017-11-16 13:19:53 1510856393.308312: $GPRMC,181952,A,3946.9594,N,08404.9845,W,0.0000,0.000,161117,,*39
2017-11-16 13:19:53 1510856393.308367: $GPGSA,A,3,10,13,15,18,20,21,24,27,5,29,32,138,1.6,0.8,1.3*36
2017-11-16 13:19:54 1510856394.643857: $GPGSV,3,1,12,10,23,283,42,13,29,045,47,15,61,051,51,18,54,300,46*76
2017-11-16 13:19:54 1510856394.644069: $GPGSV,3,2,12,20,51,072,46,21,78,270,46,24,33,138,41,27,16,313,41*7E
2017-11-16 13:19:54 1510856394.644136: $GPGSV,3,3,12,05,04,087,22,29,09,189,24,32,01,225,24,138,38,213,45*43
2017-11-16 13:19:54 1510856394.757133: $GPZDA,181953.00,16,11,2017,00,00*62
2017-11-16 13:19:54 1510856394.757301: $GPGGA,181953,3946.9594,N,08404.9845,W,2,12,0.80,300.76,M,-33.324,M,,*74
2017-11-16 13:19:54 1510856394.757363: $GPRMC,181953,A,3946.9594,N,08404.9845,W,0.0000,0.000,161117,,*38
2017-11-16 13:19:54 1510856394.757417: $GPGSA,A,3,10,13,15,18,20,21,24,27,5,29,32,138,1.6,0.8,1.3*36
2017-11-16 13:19:55 1510856395.382476: $GPZDA,181954.00,16,11,2017,00,00*65
2017-11-16 13:19:55 1510856395.382644: $GPGGA,181954,3946.9594,N,08404.9845,W,2,12,0.80,300.76,M,-33.324,M,,*73
2017-11-16 13:19:55 1510856395.382706: $GPRMC,181954,A,3946.9594,N,08404.9845,W,0.0000,0.000,161117,,*3F
2017-11-16 13:19:55 1510856395.382762: $GPGSA,A,3,10,13,15,18,20,21,24,27,5,29,32,138,1.6,0.8,1.3*36
2017-11-16 13:19:56 1510856396.283303: $GPZDA,181955.00,16,11,2017,00,00*64
2017-11-16 13:19:56 1510856396.283485: $GPGGA,181955,3946.9594,N,08404.9845,W,2,12,0.80,300.76,M,-33.324,M,,*72
2017-11-16 13:19:56 1510856396.283548: $GPRMC,181955,A,3946.9594,N,08404.9845,W,0.0000,0.000,161117,,*3E
2017-11-16 13:19:56 1510856396.283604: $GPGSA,A,3,10,13,15,18,20,21,24,27,5,29,32,138,1.6,0.8,1.3*36
