2017-11-15 19:13:59 1510791239.583691: {"class":"VERSION","release":"3.17","rev":"3.17","proto_major":3,"proto_minor":12}
2017-11-15 19:13:59 1510791239.584145: {"class":"DEVICES","devices":[{"class":"DEVICE","path":"/dev/ttyUSB0","driver":"SiRF","subtype":"9\u0006GSD4e_4.1.2-P1_RPATCH.05-F-GPS-4R-1510281 11/03/2015 307","activated":"2017-11-16T00:13:59.470Z","flags":1,"native":1,"bps":4800,"parity":"N","stopbits":1,"cycle":1.00}]}
2017-11-15 19:13:59 1510791239.584261: {"class":"WATCH","enable":true,"json":false,"nmea":true,"raw":0,"scaled":false,"timing":false,"split24":false,"pps":false}
2017-11-15 19:14:00 1510791240.665843: $GPGSV,3,1,12,32,42,100,14,14,60,081,18,22,49,282,04,26,45,175,23*7E
2017-11-15 19:14:00 1510791240.666011: $GPGSV,3,2,12,31,73,009,24,16,15,190,04,03,35,306,20,25,23,043,00*7E
2017-11-15 19:14:00 1510791240.666071: $GPGSV,3,3,12,29,08,078,10,01,10,258,00,23,06,297,00,135,23,238,00*4C
2017-11-15 19:14:00 1510791240.779553: $GPZDA,001359.00,16,11,2017,00,00*6B
2017-11-15 19:14:00 1510791240.779706: $GPGGA,001359,3946.9618,N,08404.9480,W,1,06,1.40,306.30,M,-33.324,M,,*70
2017-11-15 19:14:00 1510791240.779765: $GPRMC,001359,A,3946.9618,N,08404.9480,W,0.4179,148.778,161117,,*3D
2017-11-15 19:14:00 1510791240.779821: $GPGSA,A,3,32,14,26,31,3,29,,,,,,,3.4,1.4,2.9*01
2017-11-15 19:14:01 1510791241.405236: $GPZDA,001400.00,16,11,2017,00,00*60
2017-11-15 19:14:01 1510791241.405400: $GPGGA,001400,3946.9618,N,08404.9480,W,1,06,1.80,306.30,M,-33.324,M,,*77
2017-11-15 19:14:01 1510791241.405464: $GPRMC,001400,A,3946.9618,N,08404.9480,W,0.0000,0.000,161117,,*38
2017-11-15 19:14:01 1510791241.405520: $GPGSA,A,3,32,14,26,31,3,29,,,,,,,3.4,1.8,2.9*0D
2017-11-15 19:14:02 1510791242.330428: $GPZDA,001401.00,16,11,2017,00,00*61
2017-11-15 19:14:02 1510791242.330598: $GPGGA,001401,3946.9618,N,08404.9480,W,1,06,1.80,306.30,M,-33.324,M,,*76
2017-11-15 19:14:02 1510791242.330661: $GPRMC,001401,A,3946.9618,N,08404.9480,W,0.4179,328.778,161117,,*33
2017-11-15 19:14:02 1510791242.330718: $GPGSA,A,3,32,14,26,31,3,29,,,,,,,3.4,1.8,2.9*0D
2017-11-15 19:14:03 1510791243.666225: $GPGSV,3,1,12,32,42,100,14,14,60,081,18,22,49,282,04,26,45,175,23*7E
2017-11-15 19:14:03 1510791243.666401: $GPGSV,3,2,12,31,73,009,24,16,15,190,13,03,35,306,20,25,23,043,00*78
2017-11-15 19:14:03 1510791243.666463: $GPGSV,3,3,12,29,08,078,05,01,10,258,00,23,06,297,00,135,23,238,00*48
2017-11-15 19:14:03 1510791243.779826: $GPZDA,001402.00,16,11,2017,00,00*62
2017-11-15 19:14:03 1510791243.779984: $GPGGA,001402,3946.9618,N,08404.9480,W,1,06,1.80,306.30,M,-33.324,M,,*75
2017-11-15 19:14:03 1510791243.780045: $GPRMC,001402,A,3946.9618,N,08404.9480,W,0.0000,0.000,161117,,*3A
2017-11-15 19:14:03 1510791243.780101: $GPGSA,A,3,32,14,26,31,16,3,,,,,,,3.4,1.8,2.9*01
2017-11-15 19:14:04 1510791244.330915: $GPZDA,001403.00,16,11,2017,00,00*63
2017-11-15 19:14:04 1510791244.331060: $GPGGA,001403,3946.9619,N,08404.9487,W,1,06,1.80,306.22,M,-33.324,M,,*71
2017-11-15 19:14:04 1510791244.331122: $GPRMC,001403,A,3946.9619,N,08404.9487,W,0.7238,320.710,161117,,*34
2017-11-15 19:14:04 1510791244.331180: $GPGSA,A,3,32,14,26,31,16,3,,,,,,,3.4,1.8,2.9*01
2017-11-15 19:14:05 1510791245.330321: $GPZDA,001404.00,16,11,2017,00,00*64
2017-11-15 19:14:05 1510791245.330484: $GPGGA,001404,3946.9619,N,08404.9487,W,1,06,1.80,306.22,M,-33.324,M,,*76
2017-11-15 19:14:05 1510791245.330545: $GPRMC,001404,A,3946.9619,N,08404.9487,W,0.9689,273.794,161117,,*38
2017-11-15 19:14:05 1510791245.330602: $GPGSA,A,3,32,14,26,31,16,3,,,,,,,3.4,1.8,2.9*01
2017-11-15 19:14:06 1510791246.666496: $GPGSV,3,1,12,32,42,100,15,14,60,081,19,22,49,282,04,26,45,175,23*7E
2017-11-15 19:14:06 1510791246.666675: $GPGSV,3,2,12,31,73,009,24,16,15,190,13,03,35,306,20,25,23,043,00*78
2017-11-15 19:14:06 1510791246.666796: $GPGSV,3,3,12,29,08,078,07,01,10,258,00,23,06,297,00,135,23,238,00*4A
2017-11-15 19:14:06 1510791246.780475: $GPZDA,001405.00,16,11,2017,00,00*65
2017-11-15 19:14:06 1510791246.780638: $GPGGA,001405,3946.9619,N,08404.9494,W,1,07,1.80,306.14,M,-33.324,M,,*71
2017-11-15 19:14:06 1510791246.780699: $GPRMC,001405,A,3946.9619,N,08404.9494,W,0.8054,248.645,161117,,*39
2017-11-15 19:14:06 1510791246.780807: $GPGSA,A,3,32,14,26,31,16,3,29,,,,,,3.4,1.8,2.9*0A
2017-11-15 19:14:07 1510791247.330789: $GPZDA,001406.00,16,11,2017,00,00*66
2017-11-15 19:14:07 1510791247.330950: $GPGGA,001406,3946.9616,N,08404.9502,W,1,07,1.80,306.83,M,-33.324,M,,*7D
2017-11-15 19:14:07 1510791247.331011: $GPRMC,001406,A,3946.9616,N,08404.9502,W,0.7267,273.794,161117,,*33
2017-11-15 19:14:07 1510791247.331067: $GPGSA,A,3,32,14,26,31,16,3,29,,,,,,3.4,1.8,2.9*0A
2017-11-15 19:14:08 1510791248.330359: $GPZDA,001407.00,16,11,2017,00,00*67
2017-11-15 19:14:08 1510791248.330522: $GPGGA,001407,3946.9612,N,08404.9502,W,1,07,1.80,306.19,M,-33.324,M,,*7B
2017-11-15 19:14:08 1510791248.330584: $GPRMC,001407,A,3946.9612,N,08404.9502,W,0.4844,273.794,161117,,*3E
2017-11-15 19:14:08 1510791248.330641: $GPGSA,A,3,32,14,26,31,16,3,29,,,,,,3.4,1.8,2.9*0A
