2017-12-31 18:59:27 1514764767.882236: {"class":"VERSION","release":"3.16","rev":"3.16-4","proto_major":3,"proto_minor":11}
2017-12-31 18:59:27 1514764767.882664: {"class":"DEVICES","devices":[{"class":"DEVICE","path":"/dev/ttyUSB0","driver":"SiRF","activated":"2017-12-31T23:59:27.839Z","flags":1,"native":1,"bps":4800,"parity":"N","stopbits":1,"cycle":1.00}]}
2017-12-31 18:59:27 1514764767.882766: {"class":"WATCH","enable":true,"json":false,"nmea":true,"raw":0,"scaled":false,"timing":false,"split24":false,"pps":false}
2017-12-31 18:59:28 1514764768.352649: $GPZDA,235929.00,31,12,2017,00,00*65
2017-12-31 18:59:28 1514764768.352816: $GPGGA,235929,3946.9579,N,08404.9831,W,2,11,0.80,310.44,M,-33.324,M,,*76
2017-12-31 18:59:28 1514764768.352882: $GPRMC,235929,A,3946.9579,N,08404.9831,W,0.0000,0.000,311217,,*3F
2017-12-31 18:59:28 1514764768.352942: $GPGSA,A,3,22,23,9,3,16,8,31,27,7,26,135,,1.7,0.8,1.3*09
2017-12-31 18:59:29 1514764769.353544: $GPZDA,235930.00,31,12,2017,00,00*6D
2017-12-31 18:59:29 1514764769.353730: $GPGGA,235930,3946.9579,N,08404.9831,W,2,11,0.80,310.44,M,-33.324,M,,*7E
2017-12-31 18:59:29 1514764769.353796: $GPRMC,235930,A,3946.9579,N,08404.9831,W,0.0000,0.000,311217,,*37
2017-12-31 18:59:29 1514764769.353857: $GPGSA,A,3,22,23,9,3,16,8,31,27,7,26,135,,1.7,0.8,1.3*09
2017-12-31 18:59:30 1514764770.688768: $GPGSV,3,1,11,22,05,201,24,23,70,270,38,09,40,307,33,03,14,217,31*7A
2017-12-31 18:59:30 1514764770.688939: $GPGSV,3,2,11,16,72,036,44,08,20,175,44,31,13,091,27,27,43,139,36*77
2017-12-31 18:59:30 1514764770.689007: $GPGSV,3,3,11,07,13,288,38,26,40,048,46,135,22,240,44*7A
2017-12-31 18:59:30 1514764770.802254: $GPZDA,235931.00,31,12,2017,00,00*6C
2017-12-31 18:59:30 1514764770.802410: $GPGGA,235931,3946.9579,N,08404.9831,W,2,11,0.80,310.44,M,-33.324,M,,*7F
2017-12-31 18:59:30 1514764770.802476: $GPRMC,235931,A,3946.9579,N,08404.9831,W,0.0000,0.000,311217,,*36
2017-12-31 18:59:30 1514764770.802537: $GPGSA,A,3,22,23,9,3,16,8,31,27,7,26,135,,1.7,0.8,1.3*09
2017-12-31 18:59:31 1514764771.348110: $GPZDA,235932.00,31,12,2017,00,00*6F
2017-12-31 18:59:31 1514764771.348308: $GPGGA,235932,3946.9579,N,08404.9831,W,2,11,0.80,310.44,M,-33.324,M,,*7C
2017-12-31 18:59:31 1514764771.348376: $GPRMC,235932,A,3946.9579,N,08404.9831,W,0.0000,0.000,311217,,*35
2017-12-31 18:59:31 1514764771.348438: $GPGSA,A,3,22,23,9,3,16,8,31,27,7,26,135,,1.7,0.8,1.3*09
2017-12-31 18:59:32 1514764772.352902: $GPZDA,235933.00,31,12,2017,00,00*6E
2017-12-31 18:59:32 1514764772.353090: $GPGGA,235933,3946.9579,N,08404.9831,W,2,11,0.80,310.44,M,-33.324,M,,*7D
2017-12-31 18:59:32 1514764772.353158: $GPRMC,235933,A,3946.9579,N,08404.9831,W,0.0000,0.000,311217,,*34
2017-12-31 18:59:32 1514764772.353237: $GPGSA,A,3,22,23,9,3,16,8,31,27,7,26,135,,1.7,0.8,1.3*09
2017-12-31 18:59:33 1514764773.689628: $GPGSV,3,1,11,22,05,201,18,23,70,270,34,09,40,307,33,03,14,217,27*7E
2017-12-31 18:59:33 1514764773.689782: $GPGSV,3,2,11,16,72,036,44,08,20,175,44,31,13,091,28,27,43,139,37*79
2017-12-31 18:59:33 1514764773.689847: $GPGSV,3,3,11,07,13,288,38,26,40,048,46,135,22,240,44*7A
2017-12-31 18:59:33 1514764773.803235: $GPZDA,235934.00,31,12,2017,00,00*69
2017-12-31 18:59:33 1514764773.803369: $GPGGA,235934,3946.9579,N,08404.9831,W,2,11,0.80,310.44,M,-33.324,M,,*7A
2017-12-31 18:59:33 1514764773.803435: $GPRMC,235934,A,3946.9579,N,08404.9831,W,0.0000,0.000,311217,,*33
2017-12-31 18:59:33 1514764773.803495: $GPGSA,A,3,22,23,9,3,16,8,31,27,7,26,135,,1.7,0.8,1.3*09
2017-12-31 18:59:34 1514764774.354190: $GPZDA,235935.00,31,12,2017,00,00*68
2017-12-31 18:59:34 1514764774.354359: $GPGGA,235935,3946.9579,N,08404.9831,W,2,11,0.80,310.44,M,-33.324,M,,*7B
2017-12-31 18:59:34 1514764774.354426: $GPRMC,235935,A,3946.9579,N,08404.9831,W,0.0000,0.000,311217,,*32
2017-12-31 18:59:34 1514764774.354487: $GPGSA,A,3,22,23,9,3,16,8,31,27,7,26,135,,1.7,0.8,1.3*09
2017-12-31 18:59:35 1514764775.353288: $GPZDA,235936.00,31,12,2017,00,00*6B
2017-12-31 18:59:35 1514764775.353466: $GPGGA,235936,3946.9579,N,08404.9831,W,2,11,0.80,310.44,M,-33.324,M,,*78
2017-12-31 18:59:35 1514764775.353585: $GPRMC,235936,A,3946.9579,N,08404.9831,W,0.0000,0.000,311217,,*31
2017-12-31 18:59:35 1514764775.353648: $GPGSA,A,3,22,23,9,3,16,8,31,27,7,26,135,,1.7,0.8,1.3*09
2017-12-31 18:59:36 1514764776.689979: $GPGSV,3,1,11,22,05,201,19,23,70,270,42,09,40,307,26,03,14,217,27*7A
2017-12-31 18:59:36 1514764776.690190: $GPGSV,3,2,11,16,72,036,44,08,20,175,44,31,13,091,29,27,43,139,37*78
2017-12-31 18:59:36 1514764776.690258: $GPGSV,3,3,11,07,13,288,30,26,40,048,46,135,22,240,44*72
2017-12-31 18:59:36 1514764776.802370: $GPZDA,235937.00,31,12,2017,00,00*6A
2017-12-31 18:59:36 1514764776.802536: $GPGGA,235937,3946.9579,N,08404.9831,W,2,11,0.80,310.44,M,-33.324,M,,*79
2017-12-31 18:59:36 1514764776.802603: $GPRMC,235937,A,3946.9579,N,08404.9831,W,0.0000,0.000,311217,,*30
2017-12-31 18:59:36 1514764776.802664: $GPGSA,A,3,22,23,9,3,16,8,31,27,7,26,135,,1.7,0.8,1.3*09
2017-12-31 18:59:37 1514764777.355666: $GPZDA,235938.00,31,12,2017,00,00*65
2017-12-31 18:59:37 1514764777.355835: $GPGGA,235938,3946.9579,N,08404.9831,W,2,11,0.80,310.44,M,-33.324,M,,*76
2017-12-31 18:59:37 1514764777.355903: $GPRMC,235938,A,3946.9579,N,08404.9831,W,0.0000,0.000,311217,,*3F
2017-12-31 18:59:37 1514764777.355964: $GPGSA,A,3,22,23,9,3,16,8,31,27,7,26,135,,1.7,0.8,1.3*09
