2017-11-16 14:43:44 1510861424.679649: {"class":"VERSION","release":"3.17","rev":"3.17","proto_major":3,"proto_minor":12}
2017-11-16 14:43:44 1510861424.680602: {"class":"DEVICES","devices":[{"class":"DEVICE","path":"/dev/ttyUSB0","driver":"SiRF","subtype":"9\u0006GSD4e_4.1.2-P1_RPATCH.05-F-GPS-4R-1510281 11/03/2015 307","activated":"2017-11-16T19:43:44.676Z","flags":1,"native":1,"bps":4800,"parity":"N","stopbits":1,"cycle":1.00}]}
2017-11-16 14:43:44 1510861424.680798: {"class":"WATCH","enable":true,"json":false,"nmea":true,"raw":0,"scaled":false,"timing":false,"split24":false,"pps":false}
2017-11-16 14:43:45 1510861425.871328: $GPGSV,3,1,11,08,08,310,19,10,52,312,50,15,26,057,51,18,77,021,44*7E
2017-11-16 14:43:45 1510861425.871639: $GPGSV,3,2,11,21,49,183,47,20,23,106,46,24,53,087,48,27,15,276,44*78
2017-11-16 14:43:45 1510861425.871756: $GPGSV,3,3,11,32,31,247,47,14,15,240,40,138,38,213,44*7A
2017-11-16 14:43:45 1510861425.984319: $GPZDA,194344.00,16,11,2017,00,00*6A
2017-11-16 14:43:45 1510861425.984480: $GPGGA,194344,3946.9564,N,08404.9849,W,2,11,0.80,302.66,M,-33.324,M,,*7F
2017-11-16 14:43:45 1510861425.984541: $GPRMC,194344,A,3946.9564,N,08404.9849,W,0.0000,0.000,161117,,*33
2017-11-16 14:43:45 1510861425.984598: $GPGSA,A,3,8,10,15,18,21,20,24,27,32,14,138,,1.6,0.8,1.3*37
2017-11-16 14:43:46 1510861426.500142: $GPZDA,194345.00,16,11,2017,00,00*6B
2017-11-16 14:43:47 1510861427.018283: $GPGGA,194345,3946.9564,N,08404.9849,W,2,11,0.80,302.66,M,-33.324,M,,*7E
2017-11-16 14:43:47 1510861427.018420: $GPRMC,194345,A,3946.9564,N,08404.9849,W,0.0000,0.000,161117,,*32
2017-11-16 14:43:47 1510861427.018478: $GPGSA,A,3,8,10,15,18,21,20,24,27,32,14,138,,1.6,0.8,1.3*37
2017-11-16 14:43:47 1510861427.499349: $GPZDA,194346.00,16,11,2017,00,00*68
2017-11-16 14:43:47 1510861427.499512: $GPGGA,194346,3946.9564,N,08404.9849,W,2,11,0.80,302.66,M,-33.324,M,,*7D
2017-11-16 14:43:47 1510861427.499573: $GPRMC,194346,A,3946.9564,N,08404.9849,W,0.0000,0.000,161117,,*31
2017-11-16 14:43:47 1510861427.499630: $GPGSA,A,3,8,10,15,18,21,20,24,27,32,14,138,,1.6,0.8,1.3*37
2017-11-16 14:43:48 1510861428.872488: $GPGSV,3,1,11,08,08,310,24,10,52,312,50,15,26,057,51,18,77,021,44*70
2017-11-16 14:43:48 1510861428.872656: $GPGSV,3,2,11,21,49,183,47,20,23,106,46,24,53,087,48,27,15,276,44*78
2017-11-16 14:43:48 1510861428.872717: $GPGSV,3,3,11,32,31,247,47,14,15,240,40,138,38,213,43*7D
2017-11-16 14:43:48 1510861428.985338: $GPZDA,194347.00,16,11,2017,00,00*69
2017-11-16 14:43:48 1510861428.985509: $GPGGA,194347,3946.9564,N,08404.9849,W,2,11,0.80,302.66,M,-33.324,M,,*7C
2017-11-16 14:43:48 1510861428.985573: $GPRMC,194347,A,3946.9564,N,08404.9849,W,0.0000,0.000,161117,,*30
2017-11-16 14:43:48 1510861428.985629: $GPGSA,A,3,8,10,15,18,21,20,24,27,32,14,138,,1.6,0.8,1.3*37
2017-11-16 14:43:49 1510861429.611370: $GPZDA,194348.00,16,11,2017,00,00*66
2017-11-16 14:43:49 1510861429.611533: $GPGGA,194348,3946.9564,N,08404.9849,W,2,11,0.80,302.66,M,-33.324,M,,*73
2017-11-16 14:43:49 1510861429.611595: $GPRMC,194348,A,3946.9564,N,08404.9849,W,0.0000,0.000,161117,,*3F
2017-11-16 14:43:49 1510861429.611650: $GPGSA,A,3,8,10,15,18,21,20,24,27,32,14,138,,1.6,0.8,1.3*37
2017-11-16 14:43:50 1510861430.499774: $GPZDA,194349.00,16,11,2017,00,00*67
2017-11-16 14:43:50 1510861430.499923: $GPGGA,194349,3946.9564,N,08404.9849,W,2,11,0.80,302.66,M,-33.324,M,,*72
2017-11-16 14:43:50 1510861430.499985: $GPRMC,194349,A,3946.9564,N,08404.9849,W,0.0000,0.000,161117,,*3E
2017-11-16 14:43:50 1510861430.500041: $GPGSA,A,3,8,10,15,18,21,20,24,27,32,14,138,,1.6,0.8,1.3*37
2017-11-16 14:43:51 1510861431.835286: $GPGSV,3,1,11,08,08,310,34,10,52,312,50,15,26,057,51,18,77,021,44*71
2017-11-16 14:43:52 1510861432.068562: $GPGSV,3,2,11,21,49,183,47,20,23,106,46,24,53,087,48,27,15,276,44*78
2017-11-16 14:43:52 1510861432.068714: $GPGSV,3,3,11,32,31,247,47,14,15,240,40,138,38,213,44*7A
2017-11-16 14:43:52 1510861432.069015: $GPZDA,194350.00,16,11,2017,00,00*6F
2017-11-16 14:43:52 1510861432.069074: $GPGGA,194350,3946.9564,N,08404.9849,W,2,11,0.80,302.66,M,-33.324,M,,*7A
2017-11-16 14:43:52 1510861432.069158: $GPRMC,194350,A,3946.9564,N,08404.9849,W,0.0000,0.000,161117,,*36
2017-11-16 14:43:52 1510861432.069214: $GPGSA,A,3,8,10,15,18,21,20,24,27,32,14,138,,1.6,0.8,1.3*37
2017-11-16 14:43:52 1510861432.536140: $GPZDA,194351.00,16,11,2017,00,00*6E
2017-11-16 14:43:52 1510861432.536301: $GPGGA,194351,3946.9564,N,08404.9849,W,2,11,0.80,302.66,M,-33.324,M,,*7B
2017-11-16 14:43:52 1510861432.536362: $GPRMC,194351,A,3946.9564,N,08404.9849,W,0.0000,0.000,161117,,*37
2017-11-16 14:43:52 1510861432.536418: $GPGSA,A,3,8,10,15,18,21,20,24,27,32,14,138,,1.6,0.8,1.3*37
2017-11-16 14:43:53 1510861433.500565: $GPZDA,194352.00,16,11,2017,00,00*6D
2017-11-16 14:43:53 1510861433.500728: $GPGGA,194352,3946.9564,N,08404.9849,W,2,11,0.80,302.66,M,-33.324,M,,*78
2017-11-16 14:43:53 1510861433.500790: $GPRMC,194352,A,3946.9564,N,08404.9849,W,0.0000,0.000,161117,,*34
2017-11-16 14:43:53 1510861433.500845: $GPGSA,A,3,8,10,15,18,21,20,24,27,32,14,138,,1.6,0.8,1.3*37
