2017-12-01 13:51:36 1512154296.507478: {"class":"VERSION","release":"3.16","rev":"3.16-4","proto_major":3,"proto_minor":11}
2017-12-01 13:51:36 1512154296.507867: {"class":"DEVICES","devices":[{"class":"DEVICE","path":"/dev/ttyUSB0","driver":"SiRF","subtype":"9\u0006GSD4e_4.1.2-P1_RPATCH.05-F-GPS-4R-1510281 11/03/2015 307","activated":"2017-12-01T18:51:36.274Z","flags":1,"native":1,"bps":4800,"parity":"N","stopbits":1,"cycle":1.00}]}
2017-12-01 13:51:36 1512154296.508115: {"class":"WATCH","enable":true,"json":false,"nmea":true,"raw":0,"scaled":false,"timing":false,"split24":false,"pps":false}
2017-12-01 13:51:36 1512154296.723880: $GPGSV,3,1,11,10,56,315,49,14,18,243,36,15,22,060,46,18,77,043,43*76
2017-12-01 13:51:36 1512154296.724055: $GPGSV,3,2,11,20,20,109,43,21,44,181,45,24,52,078,48,27,14,271,40*7F
2017-12-01 13:51:36 1512154296.724123: $GPGSV,3,3,11,32,35,252,42,08,08,306,26,138,38,213,46*7F
2017-12-01 13:51:36 1512154296.836278: $GPZDA,185137.00,01,12,2017,00,00*69
2017-12-01 13:51:36 1512154296.836447: $GPGGA,185137,3946.9574,N,08404.9852,W,2,11,0.80,297.48,M,-33.324,M,,*73
2017-12-01 13:51:36 1512154296.836513: $GPRMC,185137,A,3946.9574,N,08404.9852,W,0.0000,0.000,011217,,*3B
2017-12-01 13:51:36 1512154296.836576: $GPGSA,A,3,10,14,15,18,20,21,24,27,32,8,138,,2.0,0.8,1.5*34
2017-12-01 13:51:37 1512154297.387074: $GPZDA,185138.00,01,12,2017,00,00*66
2017-12-01 13:51:37 1512154297.387246: $GPGGA,185138,3946.9570,N,08404.9853,W,2,11,0.80,298.25,M,-33.324,M,,*7D
2017-12-01 13:51:37 1512154297.387313: $GPRMC,185138,A,3946.9570,N,08404.9853,W,0.0000,0.000,011217,,*31
2017-12-01 13:51:37 1512154297.387376: $GPGSA,A,3,10,14,15,18,20,21,24,27,32,8,138,,2.0,0.8,1.5*34
2017-12-01 13:51:38 1512154298.361837: $GPZDA,185139.00,01,12,2017,00,00*67
2017-12-01 13:51:38 1512154298.362008: $GPGGA,185139,3946.9570,N,08404.9853,W,2,11,0.80,298.25,M,-33.324,M,,*7C
2017-12-01 13:51:38 1512154298.362077: $GPRMC,185139,A,3946.9570,N,08404.9853,W,0.0000,0.000,011217,,*30
2017-12-01 13:51:38 1512154298.362138: $GPGSA,A,3,10,14,15,18,20,21,24,27,32,8,138,,2.0,0.8,1.5*34
2017-12-01 13:51:39 1512154299.723485: $GPGSV,3,1,11,10,56,315,49,14,18,243,36,15,22,060,46,18,77,043,43*76
2017-12-01 13:51:39 1512154299.723667: $GPGSV,3,2,11,20,20,109,43,21,44,181,45,24,52,078,48,27,14,271,39*71
2017-12-01 13:51:39 1512154299.723738: $GPGSV,3,3,11,32,35,252,42,08,08,306,24,138,38,213,46*7D
2017-12-01 13:51:39 1512154299.837097: $GPZDA,185140.00,01,12,2017,00,00*69
2017-12-01 13:51:39 1512154299.837249: $GPGGA,185140,3946.9570,N,08404.9853,W,2,11,0.80,298.25,M,-33.324,M,,*72
2017-12-01 13:51:39 1512154299.837317: $GPRMC,185140,A,3946.9570,N,08404.9853,W,0.0000,0.000,011217,,*3E
2017-12-01 13:51:39 1512154299.837377: $GPGSA,A,3,10,14,15,18,20,21,24,27,32,8,138,,2.0,0.8,1.5*34
2017-12-01 13:51:40 1512154300.462187: $GPZDA,185141.00,01,12,2017,00,00*68
2017-12-01 13:51:40 1512154300.462378: $GPGGA,185141,3946.9570,N,08404.9853,W,2,11,0.80,298.25,M,-33.324,M,,*73
2017-12-01 13:51:40 1512154300.462450: $GPRMC,185141,A,3946.9570,N,08404.9853,W,0.0000,0.000,011217,,*3F
2017-12-01 13:51:40 1512154300.462511: $GPGSA,A,3,10,14,15,18,20,21,24,27,32,8,138,,2.0,0.8,1.5*34
2017-12-01 13:51:41 1512154301.372104: $GPZDA,185142.00,01,12,2017,00,00*6B
2017-12-01 13:51:41 1512154301.372305: $GPGGA,185142,3946.9570,N,08404.9853,W,2,11,0.80,298.25,M,-33.324,M,,*70
2017-12-01 13:51:41 1512154301.372376: $GPRMC,185142,A,3946.9570,N,08404.9853,W,0.0000,0.000,011217,,*3C
2017-12-01 13:51:41 1512154301.372440: $GPGSA,A,3,10,14,15,18,20,21,24,27,32,8,138,,2.0,0.8,1.5*34
2017-12-01 13:51:42 1512154302.692502: $GPGSV,3,1,11,10,56,315,49,14,18,243,36,15,22,060,46,18,77,043,43*76
2017-12-01 13:51:42 1512154302.692694: $GPGSV,3,2,11,20,20,109,43,21,44,181,45,24,52,078,48,27,14,271,39*71
2017-12-01 13:51:42 1512154302.692782: $GPGSV,3,3,11,32,35,252,42,08,08,306,19,138,38,213,46*73
2017-12-01 13:51:42 1512154302.805899: $GPZDA,185143.00,01,12,2017,00,00*6A
2017-12-01 13:51:42 1512154302.806099: $GPGGA,185143,3946.9570,N,08404.9853,W,2,11,0.80,298.25,M,-33.324,M,,*71
2017-12-01 13:51:42 1512154302.806230: $GPRMC,185143,A,3946.9570,N,08404.9853,W,0.0000,0.000,011217,,*3D
2017-12-01 13:51:42 1512154302.806295: $GPGSA,A,3,10,14,15,18,20,21,24,27,32,8,138,,2.0,0.8,1.5*34
2017-12-01 13:51:43 1512154303.390765: $GPZDA,185144.00,01,12,2017,00,00*6D
2017-12-01 13:51:43 1512154303.390957: $GPGGA,185144,3946.9570,N,08404.9853,W,2,11,0.80,298.25,M,-33.324,M,,*76
2017-12-01 13:51:43 1512154303.391024: $GPRMC,185144,A,3946.9570,N,08404.9853,W,0.0000,0.000,011217,,*3A
2017-12-01 13:51:43 1512154303.391086: $GPGSA,A,3,10,14,15,18,20,21,24,27,32,8,138,,2.0,0.8,1.5*34
2017-12-01 13:51:44 1512154304.389001: $GPZDA,185145.00,01,12,2017,00,00*6C
2017-12-01 13:51:44 1512154304.389179: $GPGGA,185145,3946.9570,N,08404.9853,W,2,11,0.80,298.25,M,-33.324,M,,*77
2017-12-01 13:51:44 1512154304.389264: $GPRMC,185145,A,3946.9570,N,08404.9853,W,0.0000,0.000,011217,,*3B
2017-12-01 13:51:44 1512154304.389329: $GPGSA,A,3,10,14,15,18,20,21,24,27,32,8,138,,2.0,0.8,1.5*34
2017-12-01 13:51:45 1512154305.697995: $GPGSV,3,1,11,10,56,315,50,14,18,243,36,15,22,060,46,18,77,043,43*7E
2017-12-01 13:51:45 1512154305.698177: $GPGSV,3,2,11,20,20,109,43,21,44,181,45,24,52,078,48,27,14,271,40*7F
2017-12-01 13:51:45 1512154305.698260: $GPGSV,3,3,11,32,35,252,42,08,08,306,18,138,38,213,46*72
2017-12-01 13:51:45 1512154305.810411: $GPZDA,185146.00,01,12,2017,00,00*6F
2017-12-01 13:51:45 1512154305.810560: $GPGGA,185146,3946.9570,N,08404.9853,W,2,11,0.80,298.25,M,-33.324,M,,*74
2017-12-01 13:51:45 1512154305.810626: $GPRMC,185146,A,3946.9570,N,08404.9853,W,0.0000,0.000,011217,,*38
2017-12-01 13:51:45 1512154305.810711: $GPGSA,A,3,10,14,15,18,20,21,24,27,32,8,138,,2.0,0.8,1.5*34
2017-12-01 13:51:46 1512154306.361304: $GPZDA,185147.00,01,12,2017,00,00*6E
2017-12-01 13:51:46 1512154306.361575: $GPGGA,185147,3946.9570,N,08404.9853,W,2,11,0.80,298.25,M,-33.324,M,,*75
2017-12-01 13:51:46 1512154306.361645: $GPRMC,185147,A,3946.9570,N,08404.9853,W,0.0000,0.000,011217,,*39
2017-12-01 13:51:46 1512154306.361736: $GPGSA,A,3,10,14,15,18,20,21,24,27,32,8,138,,2.0,0.8,1.5*34
