2017-12-01 15:19:34 1512159574.904608: {"class":"VERSION","release":"3.16","rev":"3.16-4","proto_major":3,"proto_minor":11}
2017-12-01 15:19:34 1512159574.905004: {"class":"DEVICES","devices":[{"class":"DEVICE","path":"/dev/ttyUSB0","driver":"SiRF","subtype":"9\u0006GSD4e_4.1.2-P1_RPATCH.05-F-GPS-4R-1510281 11/03/2015 307","activated":"2017-12-01T20:19:34.688Z","flags":1,"native":1,"bps":4800,"parity":"N","stopbits":1,"cycle":1.00}]}
2017-12-01 15:19:34 1512159574.905127: {"class":"WATCH","enable":true,"json":false,"nmea":true,"raw":0,"scaled":false,"timing":false,"split24":false,"pps":false}
2017-12-01 15:19:35 1512159575.372945: $GPZDA,201936.00,01,12,2017,00,00*6F
2017-12-01 15:19:35 1512159575.373113: $GPGGA,201936,3946.9577,N,08404.9858,W,2,12,0.80,295.23,M,-33.324,M,,*70
2017-12-01 15:19:35 1512159575.373188: $GPRMC,201936,A,3946.9577,N,08404.9858,W,0.1867,0.000,011217,,*3C
2017-12-01 15:19:35 1512159575.373250: $GPGSA,A,3,1,10,11,12,14,18,24,25,31,32,21,138,2.0,0.8,1.5*38
2017-12-01 15:19:37 1512159577.069385: $GPGSV,3,1,12,01,07,325,26,10,80,100,46,11,09,312,31,12,22,084,45*71
2017-12-01 15:19:37 1512159577.069569: $GPGSV,3,2,12,14,47,277,41,18,48,127,47,24,24,046,44,25,21,124,42*7F
2017-12-01 15:19:37 1512159577.069638: $GPGSV,3,3,12,31,23,207,44,32,63,303,48,21,04,174,00,138,38,213,46*42
2017-12-01 15:19:37 1512159577.182764: $GPZDA,201937.00,01,12,2017,00,00*6E
2017-12-01 15:19:37 1512159577.182936: $GPGGA,201937,3946.9577,N,08404.9858,W,2,11,1.20,295.23,M,-33.324,M,,*79
2017-12-01 15:19:37 1512159577.183001: $GPRMC,201937,A,3946.9577,N,08404.9858,W,0.0000,0.000,011217,,*35
2017-12-01 15:19:37 1512159577.183068: $GPGSA,A,3,1,10,11,12,14,18,24,25,31,32,138,,2.0,1.2,1.5*30
2017-12-01 15:19:38 1512159578.151960: $GPZDA,201938.00,01,12,2017,00,00*61
2017-12-01 15:19:38 1512159578.152148: $GPGGA,201938,3946.9580,N,08404.9857,W,2,11,0.80,294.47,M,-33.324,M,,*79
2017-12-01 15:19:38 1512159578.152217: $GPRMC,201938,A,3946.9580,N,08404.9857,W,0.0000,0.000,011217,,*3D
2017-12-01 15:19:38 1512159578.152279: $GPGSA,A,3,1,10,11,12,14,18,24,25,31,32,138,,2.0,0.8,1.5*3B
2017-12-01 15:19:38 1512159578.764000: $GPZDA,201939.00,01,12,2017,00,00*60
2017-12-01 15:19:38 1512159578.764190: $GPGGA,201939,3946.9580,N,08404.9857,W,2,11,0.80,294.47,M,-33.324,M,,*78
2017-12-01 15:19:38 1512159578.764258: $GPRMC,201939,A,3946.9580,N,08404.9857,W,0.0000,0.000,011217,,*3C
2017-12-01 15:19:38 1512159578.764340: $GPGSA,A,3,1,10,11,12,14,18,24,25,31,32,138,,2.0,0.8,1.5*3B
2017-12-01 15:19:38 1512159578.764403: $GPGBS,201939,2.67,M,3.86,M,8.82,M*32
2017-12-01 15:19:39 1512159579.716310: $GPGSV,3,1,12,01,07,325,26,10,80,102,46,11,09,312,16,12,22,084,45*76
2017-12-01 15:19:39 1512159579.716503: $GPGSV,3,2,12,14,47,277,42,18,48,127,48,24,24,046,44,25,21,124,42*73
2017-12-01 15:19:39 1512159579.716572: $GPGSV,3,3,12,31,23,208,44,32,63,303,48,21,04,174,21,138,38,213,46*4E
2017-12-01 15:19:39 1512159579.829689: $GPZDA,201940.00,01,12,2017,00,00*6E
2017-12-01 15:19:39 1512159579.829845: $GPGGA,201940,3946.9580,N,08404.9857,W,2,12,0.80,294.47,M,-33.324,M,,*75
2017-12-01 15:19:39 1512159579.829913: $GPRMC,201940,A,3946.9580,N,08404.9857,W,0.0000,0.000,011217,,*32
2017-12-01 15:19:39 1512159579.829975: $GPGSA,A,3,1,10,11,12,14,18,24,25,31,32,21,138,2.0,0.8,1.5*38
2017-12-01 15:19:40 1512159580.456154: $GPZDA,201941.00,01,12,2017,00,00*6F
2017-12-01 15:19:40 1512159580.456326: $GPGGA,201941,3946.9580,N,08404.9857,W,2,12,0.80,294.47,M,-33.324,M,,*74
2017-12-01 15:19:40 1512159580.456395: $GPRMC,201941,A,3946.9580,N,08404.9857,W,0.0000,0.000,011217,,*33
2017-12-01 15:19:40 1512159580.456456: $GPGSA,A,3,1,10,11,12,14,18,24,25,31,32,21,138,2.0,0.8,1.5*38
2017-12-01 15:19:41 1512159581.382122: $GPZDA,201942.00,01,12,2017,00,00*6C
2017-12-01 15:19:41 1512159581.382304: $GPGGA,201942,3946.9580,N,08404.9857,W,2,12,0.80,294.47,M,-33.324,M,,*77
2017-12-01 15:19:41 1512159581.382372: $GPRMC,201942,A,3946.9580,N,08404.9857,W,0.0000,0.000,011217,,*30
2017-12-01 15:19:41 1512159581.382435: $GPGSA,A,3,1,10,11,12,14,18,24,25,31,32,21,138,2.0,0.8,1.5*38
2017-12-01 15:19:42 1512159582.711428: $GPGSV,3,1,12,01,07,325,27,10,80,102,46,11,09,312,33,12,22,084,45*70
2017-12-01 15:19:42 1512159582.711613: $GPGSV,3,2,12,14,47,277,42,18,48,127,48,24,24,046,44,25,21,124,42*73
2017-12-01 15:19:42 1512159582.711683: $GPGSV,3,3,12,31,23,208,44,32,63,303,47,21,04,174,16,138,38,213,46*45
2017-12-01 15:19:42 1512159582.824768: $GPZDA,201943.00,01,12,2017,00,00*6D
2017-12-01 15:19:42 1512159582.824943: $GPGGA,201943,3946.9580,N,08404.9857,W,2,12,0.80,294.47,M,-33.324,M,,*76
2017-12-01 15:19:42 1512159582.825013: $GPRMC,201943,A,3946.9580,N,08404.9857,W,0.0000,0.000,011217,,*31
2017-12-01 15:19:42 1512159582.825078: $GPGSA,A,3,1,10,11,12,14,18,24,25,31,32,21,138,2.0,0.8,1.5*38
2017-12-01 15:19:43 1512159583.382095: $GPZDA,201944.00,01,12,2017,00,00*6A
2017-12-01 15:19:43 1512159583.382271: $GPGGA,201944,3946.9580,N,08404.9857,W,2,12,0.80,294.47,M,-33.324,M,,*71
2017-12-01 15:19:43 1512159583.382356: $GPRMC,201944,A,3946.9580,N,08404.9857,W,0.0000,0.000,011217,,*36
2017-12-01 15:19:43 1512159583.382419: $GPGSA,A,3,1,10,11,12,14,18,24,25,31,32,21,138,2.0,0.8,1.5*38
2017-12-01 15:19:44 1512159584.380229: $GPZDA,201945.00,01,12,2017,00,00*6B
2017-12-01 15:19:44 1512159584.380403: $GPGGA,201945,3946.9580,N,08404.9857,W,2,12,0.80,294.47,M,-33.324,M,,*70
2017-12-01 15:19:44 1512159584.380470: $GPRMC,201945,A,3946.9580,N,08404.9857,W,0.0000,0.000,011217,,*37
2017-12-01 15:19:44 1512159584.380532: $GPGSA,A,3,1,10,11,12,14,18,24,25,31,32,21,138,2.0,0.8,1.5*38
2017-12-01 15:19:45 1512159585.716737: $GPGSV,3,1,12,01,07,325,33,10,80,102,46,11,09,312,33,12,22,084,45*75
2017-12-01 15:19:45 1512159585.716921: $GPGSV,3,2,12,14,47,277,42,18,48,127,48,24,24,046,44,25,21,124,42*73
2017-12-01 15:19:45 1512159585.716987: $GPGSV,3,3,12,31,23,208,44,32,63,303,48,21,04,174,20,138,38,213,46*4F
2017-12-01 15:19:45 1512159585.830358: $GPZDA,201946.00,01,12,2017,00,00*68
2017-12-01 15:19:45 1512159585.830520: $GPGGA,201946,3946.9580,N,08404.9857,W,2,12,0.80,294.47,M,-33.324,M,,*73
2017-12-01 15:19:45 1512159585.830586: $GPRMC,201946,A,3946.9580,N,08404.9857,W,0.0000,0.000,011217,,*34
2017-12-01 15:19:45 1512159585.830648: $GPGSA,A,3,1,10,11,12,14,18,24,25,31,32,21,138,2.0,0.8,1.5*38
2017-12-01 15:19:46 1512159586.381075: $GPZDA,201947.00,01,12,2017,00,00*69
2017-12-01 15:19:46 1512159586.381248: $GPGGA,201947,3946.9580,N,08404.9857,W,2,12,0.80,294.47,M,-33.324,M,,*72
2017-12-01 15:19:46 1512159586.381316: $GPRMC,201947,A,3946.9580,N,08404.9857,W,0.0000,0.000,011217,,*35
2017-12-01 15:19:46 1512159586.381434: $GPGSA,A,3,1,10,11,12,14,18,24,25,31,32,21,138,2.0,0.8,1.5*38
2017-12-01 15:19:47 1512159587.380761: $GPZDA,201948.00,01,12,2017,00,00*66
2017-12-01 15:19:47 1512159587.380935: $GPGGA,201948,3946.9580,N,08404.9857,W,2,12,0.80,294.47,M,-33.324,M,,*7D
2017-12-01 15:19:47 1512159587.381002: $GPRMC,201948,A,3946.9580,N,08404.9857,W,0.0000,0.000,011217,,*3A
2017-12-01 15:19:47 1512159587.381063: $GPGSA,A,3,1,10,11,12,14,18,24,25,31,32,21,138,2.0,0.8,1.5*38
2017-12-01 15:19:48 1512159588.710131: $GPGSV,3,1,12,01,07,325,33,10,80,102,46,11,09,312,33,12,22,084,45*75
2017-12-01 15:19:48 1512159588.710376: $GPGSV,3,2,12,14,47,277,42,18,48,127,48,24,24,046,44,25,21,124,42*73
2017-12-01 15:19:48 1512159588.710465: $GPGSV,3,3,12,31,23,208,44,32,63,303,48,21,04,174,20,138,38,213,46*4F
2017-12-01 15:19:48 1512159588.823844: $GPZDA,201949.00,01,12,2017,00,00*67
2017-12-01 15:19:48 1512159588.824013: $GPGGA,201949,3946.9580,N,08404.9857,W,2,12,0.80,294.47,M,-33.324,M,,*7C
2017-12-01 15:19:48 1512159588.824079: $GPRMC,201949,A,3946.9580,N,08404.9857,W,0.0000,0.000,011217,,*3B
2017-12-01 15:19:48 1512159588.824140: $GPGSA,A,3,1,10,11,12,14,18,24,25,31,32,21,138,2.0,0.8,1.5*38
2017-12-01 15:19:49 1512159589.382017: $GPZDA,201950.00,01,12,2017,00,00*6F
2017-12-01 15:19:49 1512159589.382191: $GPGGA,201950,3946.9580,N,08404.9857,W,2,12,0.80,294.47,M,-33.324,M,,*74
2017-12-01 15:19:49 1512159589.382258: $GPRMC,201950,A,3946.9580,N,08404.9857,W,0.0000,0.000,011217,,*33
2017-12-01 15:19:49 1512159589.382320: $GPGSA,A,3,1,10,11,12,14,18,24,25,31,32,21,138,2.0,0.8,1.5*38
2017-12-01 15:19:50 1512159590.381221: $GPZDA,201951.00,01,12,2017,00,00*6E
2017-12-01 15:19:50 1512159590.381504: $GPGGA,201951,3946.9580,N,08404.9857,W,2,12,0.80,294.47,M,-33.324,M,,*75
2017-12-01 15:19:50 1512159590.381591: $GPRMC,201951,A,3946.9580,N,08404.9857,W,0.0000,0.000,011217,,*32
2017-12-01 15:19:50 1512159590.381654: $GPGSA,A,3,1,10,11,12,14,18,24,25,31,32,21,138,2.0,0.8,1.5*38
2017-12-01 15:19:51 1512159591.715575: $GPGSV,3,1,12,01,07,325,34,10,80,102,46,11,09,312,40,12,22,084,45*76
2017-12-01 15:19:51 1512159591.715757: $GPGSV,3,2,12,14,47,277,42,18,48,127,48,24,24,046,44,25,21,124,42*73
2017-12-01 15:19:51 1512159591.715825: $GPGSV,3,3,12,31,23,208,44,32,63,303,48,21,04,174,21,138,38,213,47*4F
2017-12-01 15:19:51 1512159591.829200: $GPZDA,201952.00,01,12,2017,00,00*6D
2017-12-01 15:19:51 1512159591.829369: $GPGGA,201952,3946.9580,N,08404.9857,W,2,12,0.80,294.47,M,-33.324,M,,*76
2017-12-01 15:19:51 1512159591.829435: $GPRMC,201952,A,3946.9580,N,08404.9857,W,0.0000,0.000,011217,,*31
2017-12-01 15:19:51 1512159591.829496: $GPGSA,A,3,1,10,11,12,14,18,24,25,31,32,21,138,2.0,0.8,1.5*38
2017-12-01 15:19:52 1512159592.379755: $GPZDA,201953.00,01,12,2017,00,00*6C
2017-12-01 15:19:52 1512159592.379926: $GPGGA,201953,3946.9580,N,08404.9857,W,2,12,0.80,294.47,M,-33.324,M,,*77
2017-12-01 15:19:52 1512159592.379994: $GPRMC,201953,A,3946.9580,N,08404.9857,W,0.0000,0.000,011217,,*30
2017-12-01 15:19:52 1512159592.380055: $GPGSA,A,3,1,10,11,12,14,18,24,25,31,32,21,138,2.0,0.8,1.5*38
2017-12-01 15:19:53 1512159593.381916: $GPZDA,201954.00,01,12,2017,00,00*6B
2017-12-01 15:19:53 1512159593.382101: $GPGGA,201954,3946.9580,N,08404.9857,W,2,12,0.80,294.47,M,-33.324,M,,*70
2017-12-01 15:19:53 1512159593.382174: $GPRMC,201954,A,3946.9580,N,08404.9857,W,0.0000,0.000,011217,,*37
2017-12-01 15:19:53 1512159593.382236: $GPGSA,A,3,1,10,11,12,14,18,24,25,31,32,21,138,2.0,0.8,1.5*38
2017-12-01 15:19:54 1512159594.717600: $GPGSV,3,1,12,01,07,325,34,10,80,102,46,11,09,312,40,12,22,084,46*75
2017-12-01 15:19:54 1512159594.717762: $GPGSV,3,2,12,14,47,277,42,18,48,127,48,24,24,046,44,25,21,124,42*73
2017-12-01 15:19:54 1512159594.717827: $GPGSV,3,3,12,31,23,208,44,32,63,303,48,21,04,174,00,138,38,213,45*4E
2017-12-01 15:19:54 1512159594.831245: $GPZDA,201955.00,01,12,2017,00,00*6A
2017-12-01 15:19:54 1512159594.831451: $GPGGA,201955,3946.9580,N,08404.9857,W,2,11,0.80,294.47,M,-33.324,M,,*72
2017-12-01 15:19:54 1512159594.831544: $GPRMC,201955,A,3946.9580,N,08404.9857,W,0.0000,0.000,011217,,*36
2017-12-01 15:19:54 1512159594.831606: $GPGSA,A,3,1,10,11,12,14,18,24,25,31,32,138,,2.0,0.8,1.5*3B
