2017-12-01 13:59:52 1512154792.966860: {"class":"VERSION","release":"3.16","rev":"3.16-4","proto_major":3,"proto_minor":11}
2017-12-01 13:59:52 1512154792.967281: {"class":"DEVICES","devices":[{"class":"DEVICE","path":"/dev/ttyUSB0","driver":"SiRF","subtype":"9\u0006GSD4e_4.1.2-P1_RPATCH.05-F-GPS-4R-1510281 11/03/2015 307","activated":"2017-12-01T18:59:52.944Z","flags":1,"native":1,"bps":4800,"parity":"N","stopbits":1,"cycle":1.00}]}
2017-12-01 13:59:52 1512154792.967403: {"class":"WATCH","enable":true,"json":false,"nmea":true,"raw":0,"scaled":false,"timing":false,"split24":false,"pps":false}
2017-12-01 13:59:54 1512154794.027381: $GPZDA,185954.32,01,12,2017,00,00*65
2017-12-01 13:59:54 1512154794.027571: $GPGGA,185954,3946.9587,N,08404.9805,W,1,12,1.00,314.84,M,-33.324,M,,*73
2017-12-01 13:59:54 1512154794.027640: $GPRMC,185954,A,3946.9587,N,08404.9805,W,0.1867,0.000,011217,,*30
2017-12-01 13:59:54 1512154794.027701: $GPGSA,A,3,8,10,14,15,18,20,21,24,27,32,12,138,2.0,1.0,1.5*3E
2017-12-01 13:59:55 1512154795.169987: $GPGSV,3,1,12,10,60,319,50,14,21,246,41,15,19,061,39,18,76,060,42*7B
2017-12-01 13:59:55 1512154795.170168: $GPGSV,3,2,12,20,17,112,42,21,40,181,45,24,51,072,47,27,12,268,38*70
2017-12-01 13:59:55 1512154795.170236: $GPGSV,3,3,12,32,38,255,43,08,08,303,08,12,03,115,06,138,38,213,00*4F
2017-12-01 13:59:55 1512154795.283403: $GPZDA,185955.00,01,12,2017,00,00*65
2017-12-01 13:59:55 1512154795.283590: $GPGGA,185955,3946.9586,N,08404.9804,W,1,09,1.00,313.44,M,-33.324,M,,*73
2017-12-01 13:59:55 1512154795.283675: $GPRMC,185955,A,3946.9586,N,08404.9804,W,0.0000,0.000,011217,,*39
2017-12-01 13:59:55 1512154795.283737: $GPGSA,A,3,10,14,15,18,20,21,24,27,32,,,,2.0,1.0,1.5*3F
2017-12-01 13:59:55 1512154795.735561: $GPZDA,185956.00,01,12,2017,00,00*66
2017-12-01 13:59:55 1512154795.735751: $GPGGA,185956,3946.9586,N,08404.9804,W,1,09,0.80,313.44,M,-33.324,M,,*79
2017-12-01 13:59:55 1512154795.735820: $GPRMC,185956,A,3946.9586,N,08404.9804,W,0.2422,93.794,011217,,*0C
2017-12-01 13:59:55 1512154795.735880: $GPGSA,A,3,10,14,15,18,20,21,24,27,32,,,,2.0,0.8,1.5*36
2017-12-01 13:59:56 1512154796.336388: $GPZDA,185957.00,01,12,2017,00,00*67
2017-12-01 13:59:56 1512154796.336576: $GPGGA,185957,3946.9586,N,08404.9810,W,1,09,0.80,311.96,M,-33.324,M,,*70
2017-12-01 13:59:56 1512154796.336661: $GPRMC,185957,A,3946.9586,N,08404.9810,W,0.0000,0.000,011217,,*3E
2017-12-01 13:59:56 1512154796.336723: $GPGSA,A,3,10,14,15,18,20,21,24,27,32,,,,2.0,0.8,1.5*36
2017-12-01 13:59:57 1512154797.671659: $GPGSV,3,1,12,10,60,319,50,14,21,246,40,15,19,061,38,18,76,060,42*7B
2017-12-01 13:59:57 1512154797.671855: $GPGSV,3,2,12,20,17,112,43,21,40,181,46,24,51,072,47,27,12,268,38*72
2017-12-01 13:59:57 1512154797.671924: $GPGSV,3,3,12,32,38,255,43,08,08,303,31,12,03,115,17,138,38,213,47*46
2017-12-01 13:59:57 1512154797.785002: $GPZDA,185958.00,01,12,2017,00,00*68
2017-12-01 13:59:57 1512154797.787809: $GPGGA,185958,3946.9582,N,08404.9810,W,1,12,0.80,311.32,M,-33.324,M,,*7F
2017-12-01 13:59:57 1512154797.787911: $GPRMC,185958,A,3946.9582,N,08404.9810,W,0.0000,0.000,011217,,*35
2017-12-01 13:59:57 1512154797.787974: $GPGSA,A,3,10,14,15,18,20,21,24,27,32,8,12,138,2.0,0.8,1.5*37
2017-12-01 13:59:58 1512154798.335881: $GPZDA,185959.00,01,12,2017,00,00*69
2017-12-01 13:59:58 1512154798.336052: $GPGGA,185959,3946.9585,N,08404.9809,W,1,12,0.80,310.55,M,-33.324,M,,*71
2017-12-01 13:59:58 1512154798.336117: $GPRMC,185959,A,3946.9585,N,08404.9809,W,0.0000,0.000,011217,,*3B
2017-12-01 13:59:58 1512154798.336178: $GPGSA,A,3,10,14,15,18,20,21,24,27,32,8,12,138,2.0,0.8,1.5*37
2017-12-01 13:59:59 1512154799.336636: $GPZDA,190000.00,01,12,2017,00,00*68
2017-12-01 13:59:59 1512154799.336804: $GPGGA,190000,3946.9577,N,08404.9819,W,2,12,1.40,301.33,M,-33.324,M,,*72
2017-12-01 13:59:59 1512154799.336871: $GPRMC,190000,A,3946.9577,N,08404.9819,W,0.0000,0.000,011217,,*36
2017-12-01 13:59:59 1512154799.336930: $GPGSA,A,3,10,14,15,18,20,21,24,27,32,8,12,138,2.0,1.4,1.5*3A
2017-12-01 13:59:59 1512154799.336989: $GPGBS,190000,2.67,M,3.86,M,8.82,M*3A
2017-12-01 14:00:00 1512154800.673625: $GPGSV,3,1,12,10,60,319,50,14,21,246,40,15,19,061,39,18,76,060,42*7A
2017-12-01 14:00:00 1512154800.673811: $GPGSV,3,2,12,20,17,112,43,21,40,181,45,24,51,072,48,27,12,268,38*7E
2017-12-01 14:00:00 1512154800.673879: $GPGSV,3,3,12,32,38,255,43,08,08,303,30,12,03,115,17,138,38,213,46*46
2017-12-01 14:00:00 1512154800.786989: $GPZDA,190001.00,01,12,2017,00,00*69
2017-12-01 14:00:00 1512154800.787165: $GPGGA,190001,3946.9577,N,08404.9819,W,2,12,1.40,301.33,M,-33.324,M,,*73
2017-12-01 14:00:00 1512154800.787232: $GPRMC,190001,A,3946.9577,N,08404.9819,W,0.0000,0.000,011217,,*37
2017-12-01 14:00:00 1512154800.787293: $GPGSA,A,3,10,14,15,18,20,21,24,27,32,8,12,138,2.0,1.4,1.5*3A
2017-12-01 14:00:01 1512154801.337913: $GPZDA,190002.00,01,12,2017,00,00*6A
2017-12-01 14:00:01 1512154801.338064: $GPGGA,190002,3946.9577,N,08404.9819,W,2,12,1.40,301.33,M,-33.324,M,,*70
2017-12-01 14:00:01 1512154801.338130: $GPRMC,190002,A,3946.9577,N,08404.9819,W,0.0000,0.000,011217,,*34
2017-12-01 14:00:01 1512154801.338192: $GPGSA,A,3,10,14,15,18,20,21,24,27,32,8,12,138,2.0,1.4,1.5*3A
2017-12-01 14:00:02 1512154802.335744: $GPZDA,190003.00,01,12,2017,00,00*6B
2017-12-01 14:00:02 1512154802.335914: $GPGGA,190003,3946.9577,N,08404.9819,W,2,12,1.40,301.33,M,-33.324,M,,*71
2017-12-01 14:00:02 1512154802.335981: $GPRMC,190003,A,3946.9577,N,08404.9819,W,0.0000,0.000,011217,,*35
2017-12-01 14:00:02 1512154802.336042: $GPGSA,A,3,10,14,15,18,20,21,24,27,32,8,12,138,2.0,1.4,1.5*3A
2017-12-01 14:00:03 1512154803.671531: $GPGSV,3,1,12,10,60,319,15,14,21,246,12,15,19,061,11,18,76,060,12*73
2017-12-01 14:00:03 1512154803.671734: $GPGSV,3,2,12,20,17,112,13,21,40,181,13,24,51,072,14,27,12,268,11*7A
2017-12-01 14:00:03 1512154803.671802: $GPGSV,3,3,12,32,38,255,13,08,08,303,09,12,03,115,05,138,38,213,16*4F
2017-12-01 14:00:03 1512154803.784850: $GPZDA,190004.00,01,12,2017,00,00*6C
2017-12-01 14:00:03 1512154803.785019: $GPGGA,190004,3946.9577,N,08404.9819,W,2,12,1.40,301.33,M,-33.324,M,,*76
2017-12-01 14:00:03 1512154803.785134: $GPRMC,190004,A,3946.9577,N,08404.9819,W,0.4179,148.778,011217,,*3C
2017-12-01 14:00:03 1512154803.785198: $GPGSA,A,3,10,14,15,18,20,21,24,27,32,8,12,138,2.0,1.4,1.5*3A
2017-12-01 14:00:04 1512154804.335777: $GPZDA,190005.00,01,12,2017,00,00*6D
2017-12-01 14:00:04 1512154804.335952: $GPGGA,190005,3946.9577,N,08404.9819,W,2,12,1.40,301.33,M,-33.324,M,,*77
2017-12-01 14:00:04 1512154804.336019: $GPRMC,190005,A,3946.9577,N,08404.9819,W,0.0000,0.000,011217,,*33
2017-12-01 14:00:04 1512154804.336080: $GPGSA,A,3,10,14,15,18,20,21,24,27,32,8,12,138,2.0,1.4,1.5*3A
2017-12-01 14:00:05 1512154805.334088: $GPZDA,190006.00,01,12,2017,00,00*6E
2017-12-01 14:00:05 1512154805.334277: $GPGGA,190006,3946.9574,N,08404.9820,W,2,12,1.40,302.09,M,-33.324,M,,*77
2017-12-01 14:00:05 1512154805.334349: $GPRMC,190006,A,3946.9574,N,08404.9820,W,0.2422,93.794,011217,,*0F
2017-12-01 14:00:05 1512154805.334413: $GPGSA,A,3,10,14,15,18,20,21,24,27,32,8,12,138,2.0,1.4,1.5*3A
2017-12-01 14:00:06 1512154806.671040: $GPGSV,3,1,12,10,60,319,50,14,21,246,40,15,19,061,38,18,76,060,42*7B
2017-12-01 14:00:06 1512154806.671224: $GPGSV,3,2,12,20,17,112,43,21,40,181,45,24,51,072,48,27,12,268,39*7F
2017-12-01 14:00:06 1512154806.671294: $GPGSV,3,3,12,32,38,255,43,08,08,303,32,12,03,115,18,138,38,213,47*4A
2017-12-01 14:00:06 1512154806.784490: $GPZDA,190007.00,01,12,2017,00,00*6F
2017-12-01 14:00:06 1512154806.784670: $GPGGA,190007,3946.9574,N,08404.9820,W,2,12,1.40,302.09,M,-33.324,M,,*76
2017-12-01 14:00:06 1512154806.784739: $GPRMC,190007,A,3946.9574,N,08404.9820,W,0.0000,0.000,011217,,*38
2017-12-01 14:00:06 1512154806.784803: $GPGSA,A,3,10,14,15,18,20,21,24,27,32,8,12,138,2.0,1.4,1.5*3A
2017-12-01 14:00:07 1512154807.409838: $GPZDA,190008.00,01,12,2017,00,00*60
2017-12-01 14:00:07 1512154807.410012: $GPGGA,190008,3946.9574,N,08404.9820,W,2,12,1.40,302.09,M,-33.324,M,,*79
2017-12-01 14:00:07 1512154807.410081: $GPRMC,190008,A,3946.9574,N,08404.9820,W,0.0000,0.000,011217,,*37
2017-12-01 14:00:07 1512154807.410144: $GPGSA,A,3,10,14,15,18,20,21,24,27,32,8,12,138,2.0,1.4,1.5*3A
