2017-11-16 17:33:20 1510871600.041455: {"class":"VERSION","release":"3.17","rev":"3.17","proto_major":3,"proto_minor":12}
2017-11-16 17:33:20 1510871600.041912: {"class":"DEVICES","devices":[{"class":"DEVICE","path":"/dev/ttyUSB0","driver":"SiRF","subtype":"9\u0006GSD4e_4.1.2-P1_RPATCH.05-F-GPS-4R-1510281 11/03/2015 307","activated":"2017-11-16T22:33:19.711Z","flags":1,"native":1,"bps":4800,"parity":"N","stopbits":1,"cycle":1.00}]}
2017-11-16 17:33:20 1510871600.042024: {"class":"WATCH","enable":true,"json":false,"nmea":true,"raw":0,"scaled":false,"timing":false,"split24":false,"pps":false}
2017-11-16 17:33:20 1510871600.399375: $GPZDA,223319.00,16,11,2017,00,00*6D
2017-11-16 17:33:20 1510871600.399563: $GPGGA,223319,3946.9572,N,08404.9842,W,2,12,0.80,304.02,M,-33.324,M,,*73
2017-11-16 17:33:20 1510871600.399630: $GPRMC,223319,A,3946.9572,N,08404.9842,W,0.0000,0.000,161117,,*38
2017-11-16 17:33:20 1510871600.399687: $GPGSA,A,3,1,10,22,12,14,18,26,11,25,31,32,138,1.6,0.8,1.3*3A
2017-11-16 17:33:20 1510871600.399743: $GPGBS,223319,2.07,M,2.72,M,7.42,M*35
2017-11-16 17:33:21 1510871601.737280: $GPGSV,3,1,11,01,21,300,33,10,47,148,48,22,19,312,40,12,22,049,51*7F
2017-11-16 17:33:21 1510871601.737467: $GPGSV,3,2,11,14,66,330,47,18,17,144,39,11,08,280,37,25,40,088,48*73
2017-11-16 17:33:21 1510871601.737532: $GPGSV,3,3,11,31,56,226,47,32,68,030,50,138,38,213,44*75
2017-11-16 17:33:21 1510871601.850466: $GPZDA,223320.00,16,11,2017,00,00*67
2017-11-16 17:33:21 1510871601.850636: $GPGGA,223320,3946.9572,N,08404.9842,W,2,11,0.80,304.02,M,-33.324,M,,*7A
2017-11-16 17:33:21 1510871601.850698: $GPRMC,223320,A,3946.9572,N,08404.9842,W,0.0000,0.000,161117,,*32
2017-11-16 17:33:21 1510871601.850753: $GPGSA,A,3,1,10,22,12,14,18,11,25,31,32,138,,1.6,0.8,1.3*3E
2017-11-16 17:33:22 1510871602.421607: $GPZDA,223321.00,16,11,2017,00,00*66
2017-11-16 17:33:22 1510871602.421766: $GPGGA,223321,3946.9572,N,08404.9842,W,2,11,0.80,304.02,M,-33.324,M,,*7B
2017-11-16 17:33:22 1510871602.421827: $GPRMC,223321,A,3946.9572,N,08404.9842,W,0.0000,0.000,161117,,*33
2017-11-16 17:33:22 1510871602.421883: $GPGSA,A,3,1,10,22,12,14,18,11,25,31,32,138,,1.6,0.8,1.3*3E
2017-11-16 17:33:23 1510871603.399951: $GPZDA,223322.00,16,11,2017,00,00*65
2017-11-16 17:33:23 1510871603.400113: $GPGGA,223322,3946.9572,N,08404.9842,W,2,11,0.80,304.02,M,-33.324,M,,*78
2017-11-16 17:33:23 1510871603.400174: $GPRMC,223322,A,3946.9572,N,08404.9842,W,0.0000,0.000,161117,,*30
2017-11-16 17:33:23 1510871603.400230: $GPGSA,A,3,1,10,22,12,14,18,11,25,31,32,138,,1.6,0.8,1.3*3E
2017-11-16 17:33:24 1510871604.736708: $GPGSV,3,1,12,01,21,300,34,10,47,148,48,22,19,312,40,12,22,049,51*7B
2017-11-16 17:33:24 1510871604.736852: $GPGSV,3,2,12,14,66,330,48,18,17,144,39,26,03,183,17,11,08,280,37*7B
2017-11-16 17:33:24 1510871604.736912: $GPGSV,3,3,12,25,40,088,48,31,56,226,47,32,68,030,50,138,38,213,44*49
2017-11-16 17:33:24 1510871604.850186: $GPZDA,223323.00,16,11,2017,00,00*64
2017-11-16 17:33:24 1510871604.850347: $GPGGA,223323,3946.9572,N,08404.9842,W,2,11,0.80,304.02,M,-33.324,M,,*79
2017-11-16 17:33:24 1510871604.850408: $GPRMC,223323,A,3946.9572,N,08404.9842,W,0.0000,0.000,161117,,*31
2017-11-16 17:33:24 1510871604.850464: $GPGSA,A,3,1,10,22,12,14,18,11,25,31,32,138,,1.6,0.8,1.3*3E
2017-11-16 17:33:25 1510871605.399620: $GPZDA,223324.00,16,11,2017,00,00*63
2017-11-16 17:33:25 1510871605.399795: $GPGGA,223324,3946.9572,N,08404.9842,W,2,11,0.80,304.02,M,-33.324,M,,*7E
2017-11-16 17:33:25 1510871605.399856: $GPRMC,223324,A,3946.9572,N,08404.9842,W,0.0000,0.000,161117,,*36
2017-11-16 17:33:25 1510871605.399912: $GPGSA,A,3,1,10,22,12,14,18,11,25,31,32,138,,1.6,0.8,1.3*3E
2017-11-16 17:33:26 1510871606.421194: $GPZDA,223325.00,16,11,2017,00,00*62
2017-11-16 17:33:26 1510871606.421361: $GPGGA,223325,3946.9572,N,08404.9842,W,2,11,0.80,304.02,M,-33.324,M,,*7F
2017-11-16 17:33:26 1510871606.421421: $GPRMC,223325,A,3946.9572,N,08404.9842,W,0.0000,0.000,161117,,*37
2017-11-16 17:33:26 1510871606.421477: $GPGSA,A,3,1,10,22,12,14,18,11,25,31,32,138,,1.6,0.8,1.3*3E
2017-11-16 17:33:27 1510871607.757041: $GPGSV,3,1,12,01,21,300,35,10,47,148,48,22,19,312,40,12,22,049,51*7A
2017-11-16 17:33:28 1510871608.145330: $GPGSV,3,2,12,14,66,330,47,18,17,144,39,26,03,183,18,11,08,280,36*7A
2017-11-16 17:33:28 1510871608.145482: $GPGSV,3,3,12,25,40,088,48,31,56,226,47,32,68,030,50,138,38,213,43*4E
2017-11-16 17:33:28 1510871608.145578: $GPZDA,223326.00,16,11,2017,00,00*61
2017-11-16 17:33:28 1510871608.145631: $GPGGA,223326,3946.9572,N,08404.9842,W,2,12,0.80,304.02,M,-33.324,M,,*7F
2017-11-16 17:33:28 1510871608.145688: $GPRMC,223326,A,3946.9572,N,08404.9842,W,0.0000,0.000,161117,,*34
2017-11-16 17:33:28 1510871608.145742: $GPGSA,A,3,1,10,22,12,14,18,26,11,25,31,32,138,1.6,0.8,1.3*3A
2017-11-16 17:33:28 1510871608.393737: $GPZDA,223327.00,16,11,2017,00,00*60
2017-11-16 17:33:28 1510871608.393891: $GPGGA,223327,3946.9572,N,08404.9842,W,2,12,0.80,304.02,M,-33.324,M,,*7E
2017-11-16 17:33:28 1510871608.393951: $GPRMC,223327,A,3946.9572,N,08404.9842,W,0.0000,0.000,161117,,*35
2017-11-16 17:33:28 1510871608.394007: $GPGSA,A,3,1,10,22,12,14,18,26,11,25,31,32,138,1.6,0.8,1.3*3A
2017-11-16 17:33:29 1510871609.422119: $GPZDA,223328.00,16,11,2017,00,00*6F
2017-11-16 17:33:29 1510871609.422280: $GPGGA,223328,3946.9572,N,08404.9842,W,2,12,0.80,304.02,M,-33.324,M,,*71
2017-11-16 17:33:29 1510871609.422341: $GPRMC,223328,A,3946.9572,N,08404.9842,W,0.0000,0.000,161117,,*3A
2017-11-16 17:33:29 1510871609.422397: $GPGSA,A,3,1,10,22,12,14,18,26,11,25,31,32,138,1.6,0.8,1.3*3A
