2017-12-31 18:14:36 1514762076.683513: {"class":"VERSION","release":"3.16","rev":"3.16-4","proto_major":3,"proto_minor":11}
2017-12-31 18:14:36 1514762076.683857: {"class":"DEVICES","devices":[{"class":"DEVICE","path":"/dev/ttyUSB0","driver":"SiRF","activated":"2017-12-31T23:14:36.265Z","flags":1,"native":1,"bps":4800,"parity":"N","stopbits":1,"cycle":1.00}]}
2017-12-31 18:14:36 1514762076.683967: {"class":"WATCH","enable":true,"json":false,"nmea":true,"raw":0,"scaled":false,"timing":false,"split24":false,"pps":false}
2017-12-31 18:14:36 1514762076.714966: $GPGSV,3,1,12,22,20,213,28,23,56,304,45,09,22,312,41,03,30,232,43*7C
2017-12-31 18:14:36 1514762076.715086: $GPGSV,3,2,12,16,83,184,44,08,02,180,21,14,13,135,32,31,27,076,46*7F
2017-12-31 18:14:36 1514762076.715151: $GPGSV,3,3,12,27,24,153,36,29,04,028,15,26,60,049,48,135,22,240,43*4F
2017-12-31 18:14:36 1514762076.828375: $GPZDA,231437.00,31,12,2017,00,00*63
2017-12-31 18:14:36 1514762076.828519: $GPGGA,231437,3946.9567,N,08404.9865,W,2,11,0.80,306.72,M,-33.324,M,,*7C
2017-12-31 18:14:36 1514762076.828584: $GPRMC,231437,A,3946.9567,N,08404.9865,W,0.0000,0.000,311217,,*37
2017-12-31 18:14:36 1514762076.828646: $GPGSA,A,3,22,23,9,3,16,8,14,31,27,26,135,,1.7,0.8,1.3*3B
2017-12-31 18:14:37 1514762077.351738: $GPZDA,231438.00,31,12,2017,00,00*6C
2017-12-31 18:14:37 1514762077.351884: $GPGGA,231438,3946.9567,N,08404.9865,W,2,11,0.80,306.72,M,-33.324,M,,*73
2017-12-31 18:14:37 1514762077.351951: $GPRMC,231438,A,3946.9567,N,08404.9865,W,0.0000,0.000,311217,,*38
2017-12-31 18:14:37 1514762077.352012: $GPGSA,A,3,22,23,9,3,16,8,14,31,27,26,135,,1.7,0.8,1.3*3B
2017-12-31 18:14:38 1514762078.379178: $GPZDA,231439.00,31,12,2017,00,00*6D
2017-12-31 18:14:38 1514762078.379359: $GPGGA,231439,3946.9567,N,08404.9865,W,2,11,0.80,306.72,M,-33.324,M,,*72
2017-12-31 18:14:38 1514762078.379427: $GPRMC,231439,A,3946.9567,N,08404.9865,W,0.0000,0.000,311217,,*39
2017-12-31 18:14:38 1514762078.379488: $GPGSA,A,3,22,23,9,3,16,8,14,31,27,26,135,,1.7,0.8,1.3*3B
2017-12-31 18:14:39 1514762079.714666: $GPGSV,3,1,12,22,20,213,29,23,56,304,45,09,22,312,41,03,30,232,44*7A
2017-12-31 18:14:39 1514762079.714832: $GPGSV,3,2,12,16,83,184,43,08,02,180,21,14,13,135,32,31,27,076,46*78
2017-12-31 18:14:39 1514762079.714898: $GPGSV,3,3,12,27,24,153,36,29,04,028,18,26,60,049,48,135,22,240,43*42
2017-12-31 18:14:39 1514762079.828357: $GPZDA,231440.00,31,12,2017,00,00*63
2017-12-31 18:14:39 1514762079.828514: $GPGGA,231440,3946.9567,N,08404.9865,W,2,12,0.80,306.72,M,-33.324,M,,*7F
2017-12-31 18:14:39 1514762079.828579: $GPRMC,231440,A,3946.9567,N,08404.9865,W,0.0000,0.000,311217,,*37
2017-12-31 18:14:39 1514762079.828639: $GPGSA,A,3,22,23,9,3,16,8,14,31,27,29,26,135,1.7,0.8,1.3*30
2017-12-31 18:14:40 1514762080.453591: $GPZDA,231441.00,31,12,2017,00,00*62
2017-12-31 18:14:40 1514762080.453737: $GPGGA,231441,3946.9567,N,08404.9865,W,2,12,0.80,306.72,M,-33.324,M,,*7E
2017-12-31 18:14:40 1514762080.453804: $GPRMC,231441,A,3946.9567,N,08404.9865,W,0.0000,0.000,311217,,*36
2017-12-31 18:14:40 1514762080.453865: $GPGSA,A,3,22,23,9,3,16,8,14,31,27,29,26,135,1.7,0.8,1.3*30
2017-12-31 18:14:41 1514762081.378299: $GPZDA,231442.00,31,12,2017,00,00*61
2017-12-31 18:14:41 1514762081.378466: $GPGGA,231442,3946.9567,N,08404.9865,W,2,12,0.80,306.72,M,-33.324,M,,*7D
2017-12-31 18:14:41 1514762081.378534: $GPRMC,231442,A,3946.9567,N,08404.9865,W,0.0000,0.000,311217,,*35
2017-12-31 18:14:41 1514762081.378595: $GPGSA,A,3,22,23,9,3,16,8,14,31,27,29,26,135,1.7,0.8,1.3*30
2017-12-31 18:14:42 1514762082.686221: $GPGSV,3,1,12,22,20,213,34,23,56,304,46,09,22,312,41,03,30,232,43*72
2017-12-31 18:14:42 1514762082.686415: $GPGSV,3,2,12,16,83,184,44,08,02,180,22,14,13,135,32,31,27,076,46*7C
2017-12-31 18:14:42 1514762082.686482: $GPGSV,3,3,12,27,24,153,36,29,04,028,25,26,60,049,48,135,22,240,44*4B
2017-12-31 18:14:42 1514762082.799976: $GPZDA,231443.00,31,12,2017,00,00*60
2017-12-31 18:14:42 1514762082.800170: $GPGGA,231443,3946.9567,N,08404.9865,W,2,12,0.80,306.72,M,-33.324,M,,*7C
2017-12-31 18:14:42 1514762082.800239: $GPRMC,231443,A,3946.9567,N,08404.9865,W,0.0000,0.000,311217,,*34
2017-12-31 18:14:42 1514762082.800372: $GPGSA,A,3,22,23,9,3,16,8,14,31,27,29,26,135,1.7,0.8,1.3*30
2017-12-31 18:14:43 1514762083.351913: $GPZDA,231444.00,31,12,2017,00,00*67
2017-12-31 18:14:43 1514762083.352071: $GPGGA,231444,3946.9567,N,08404.9865,W,2,12,0.80,306.72,M,-33.324,M,,*7B
2017-12-31 18:14:43 1514762083.352157: $GPRMC,231444,A,3946.9567,N,08404.9865,W,0.0000,0.000,311217,,*33
2017-12-31 18:14:43 1514762083.352219: $GPGSA,A,3,22,23,9,3,16,8,14,31,27,29,26,135,1.7,0.8,1.3*30
2017-12-31 18:14:44 1514762084.342728: $GPZDA,231445.00,31,12,2017,00,00*66
2017-12-31 18:14:44 1514762084.342907: $GPGGA,231445,3946.9567,N,08404.9865,W,2,12,0.80,306.72,M,-33.324,M,,*7A
2017-12-31 18:14:44 1514762084.342974: $GPRMC,231445,A,3946.9567,N,08404.9865,W,0.0000,0.000,311217,,*32
2017-12-31 18:14:44 1514762084.343036: $GPGSA,A,3,22,23,9,3,16,8,14,31,27,29,26,135,1.7,0.8,1.3*30
2017-12-31 18:14:45 1514762085.719075: $GPGSV,3,1,12,22,20,213,34,23,56,304,46,09,22,312,41,03,30,232,43*72
2017-12-31 18:14:45 1514762085.719300: $GPGSV,3,2,12,16,83,184,44,08,02,180,23,14,13,135,33,31,27,076,46*7C
2017-12-31 18:14:45 1514762085.719368: $GPGSV,3,3,12,27,24,153,36,29,04,028,28,26,60,049,48,135,22,240,44*46
2017-12-31 18:14:45 1514762085.832492: $GPZDA,231446.00,31,12,2017,00,00*65
2017-12-31 18:14:45 1514762085.832669: $GPGGA,231446,3946.9567,N,08404.9865,W,2,12,0.80,306.72,M,-33.324,M,,*79
2017-12-31 18:14:45 1514762085.832736: $GPRMC,231446,A,3946.9567,N,08404.9865,W,0.0000,0.000,311217,,*31
2017-12-31 18:14:45 1514762085.832798: $GPGSA,A,3,22,23,9,3,16,8,14,31,27,29,26,135,1.7,0.8,1.3*30
2017-12-31 18:14:46 1514762086.351096: $GPZDA,231447.00,31,12,2017,00,00*64
2017-12-31 18:14:46 1514762086.351303: $GPGGA,231447,3946.9567,N,08404.9865,W,2,12,0.80,306.72,M,-33.324,M,,*78
2017-12-31 18:14:46 1514762086.351371: $GPRMC,231447,A,3946.9567,N,08404.9865,W,0.0000,0.000,311217,,*30
2017-12-31 18:14:46 1514762086.351432: $GPGSA,A,3,22,23,9,3,16,8,14,31,27,29,26,135,1.7,0.8,1.3*30
