2017-11-16 15:38:15 1510864695.264530: {"class":"VERSION","release":"3.17","rev":"3.17","proto_major":3,"proto_minor":12}
2017-11-16 15:38:15 1510864695.265054: {"class":"DEVICES","devices":[{"class":"DEVICE","path":"/dev/ttyUSB0","driver":"SiRF","subtype":"9\u0006GSD4e_4.1.2-P1_RPATCH.05-F-GPS-4R-1510281 11/03/2015 307","activated":"2017-11-16T20:38:15.203Z","flags":1,"native":1,"bps":4800,"parity":"N","stopbits":1,"cycle":1.00}]}
2017-11-16 15:38:15 1510864695.265256: {"class":"WATCH","enable":true,"json":false,"nmea":true,"raw":0,"scaled":false,"timing":false,"split24":false,"pps":false}
2017-11-16 15:38:15 1510864695.382445: $GPZDA,203814.00,16,11,2017,00,00*69
2017-11-16 15:38:15 1510864695.382613: $GPGGA,203814,3946.9564,N,08404.9860,W,2,12,1.20,308.97,M,-33.324,M,,*7B
2017-11-16 15:38:15 1510864695.382677: $GPRMC,203814,A,3946.9564,N,08404.9860,W,0.0000,0.000,161117,,*3B
2017-11-16 15:38:15 1510864695.382737: $GPGSA,A,3,27,10,14,31,18,20,21,24,8,32,12,138,1.6,1.2,1.3*39
2017-11-16 15:38:16 1510864696.694560: $GPGSV,3,1,12,27,03,255,28,10,74,340,51,14,33,258,44,31,04,204,39*77
2017-11-16 15:38:16 1510864696.694743: $GPGSV,3,2,12,18,66,105,49,20,04,121,23,21,23,178,43,24,40,054,49*7B
2017-11-16 15:38:16 1510864696.694805: $GPGSV,3,3,12,08,04,288,24,32,50,271,46,12,13,102,34,138,38,213,43*43
2017-11-16 15:38:16 1510864696.807974: $GPZDA,203815.00,16,11,2017,00,00*68
2017-11-16 15:38:16 1510864696.808153: $GPGGA,203815,3946.9564,N,08404.9860,W,2,12,1.20,308.97,M,-33.324,M,,*7A
2017-11-16 15:38:16 1510864696.808213: $GPRMC,203815,A,3946.9564,N,08404.9860,W,0.0000,0.000,161117,,*3A
2017-11-16 15:38:16 1510864696.808268: $GPGSA,A,3,27,10,14,31,18,20,21,24,8,32,12,138,1.6,1.2,1.3*39
2017-11-16 15:38:17 1510864697.372115: $GPZDA,203816.00,16,11,2017,00,00*6B
2017-11-16 15:38:17 1510864697.372224: $GPGGA,203816,3946.9564,N,08404.9860,W,2,12,1.20,308.97,M,-33.324,M,,*79
2017-11-16 15:38:17 1510864697.372255: $GPRMC,203816,A,3946.9564,N,08404.9860,W,0.0000,0.000,161117,,*39
2017-11-16 15:38:17 1510864697.372283: $GPGSA,A,3,27,10,14,31,18,20,21,24,8,32,12,138,1.6,1.2,1.3*39
2017-11-16 15:38:18 1510864698.369223: $GPZDA,203817.00,16,11,2017,00,00*6A
2017-11-16 15:38:18 1510864698.369344: $GPGGA,203817,3946.9564,N,08404.9860,W,2,12,1.20,308.97,M,-33.324,M,,*78
2017-11-16 15:38:18 1510864698.369377: $GPRMC,203817,A,3946.9564,N,08404.9860,W,0.0000,0.000,161117,,*38
2017-11-16 15:38:18 1510864698.369405: $GPGSA,A,3,27,10,14,31,18,20,21,24,8,32,12,138,1.6,1.2,1.3*39
2017-11-16 15:38:19 1510864699.701938: $GPGSV,3,1,12,27,03,255,26,10,74,340,51,14,33,258,44,31,04,204,38*78
2017-11-16 15:38:19 1510864699.702117: $GPGSV,3,2,12,18,66,105,48,20,04,121,23,21,23,178,43,24,40,054,49*7A
2017-11-16 15:38:19 1510864699.702178: $GPGSV,3,3,12,08,04,288,32,32,50,271,46,12,13,102,34,138,38,213,44*43
2017-11-16 15:38:19 1510864699.814582: $GPZDA,203818.00,16,11,2017,00,00*65
2017-11-16 15:38:19 1510864699.814701: $GPGGA,203818,3946.9564,N,08404.9860,W,2,12,1.20,308.97,M,-33.324,M,,*77
2017-11-16 15:38:19 1510864699.814733: $GPRMC,203818,A,3946.9564,N,08404.9860,W,0.0000,0.000,161117,,*37
2017-11-16 15:38:19 1510864699.814761: $GPGSA,A,3,27,10,14,31,18,20,21,24,8,32,12,138,1.6,1.2,1.3*39
2017-11-16 15:38:20 1510864700.360466: $GPZDA,203819.00,16,11,2017,00,00*64
2017-11-16 15:38:20 1510864700.360573: $GPGGA,203819,3946.9564,N,08404.9860,W,2,12,1.20,308.97,M,-33.324,M,,*76
2017-11-16 15:38:20 1510864700.360605: $GPRMC,203819,A,3946.9564,N,08404.9860,W,0.0000,0.000,161117,,*36
2017-11-16 15:38:20 1510864700.360633: $GPGSA,A,3,27,10,14,31,18,20,21,24,8,32,12,138,1.6,1.2,1.3*39
2017-11-16 15:38:21 1510864701.385868: $GPZDA,203820.00,16,11,2017,00,00*6E
2017-11-16 15:38:21 1510864701.385977: $GPGGA,203820,3946.9564,N,08404.9860,W,2,12,1.20,308.97,M,-33.324,M,,*7C
2017-11-16 15:38:21 1510864701.386008: $GPRMC,203820,A,3946.9564,N,08404.9860,W,0.0000,0.000,161117,,*3C
2017-11-16 15:38:21 1510864701.386036: $GPGSA,A,3,27,10,14,31,18,20,21,24,8,32,12,138,1.6,1.2,1.3*39
2017-11-16 15:38:22 1510864702.727072: $GPGSV,3,1,12,15,07,069,00,10,74,340,51,14,33,258,44,31,04,204,38*74
2017-11-16 15:38:22 1510864702.727193: $GPGSV,3,2,12,18,66,105,48,20,04,121,24,21,23,178,42,24,40,054,49*7C
2017-11-16 15:38:22 1510864702.727225: $GPGSV,3,3,12,08,04,288,30,32,50,271,46,12,13,102,34,138,38,213,44*41
2017-11-16 15:38:22 1510864702.840002: $GPZDA,203821.00,16,11,2017,00,00*6F
2017-11-16 15:38:22 1510864702.840128: $GPGGA,203821,3946.9564,N,08404.9860,W,2,11,1.20,308.97,M,-33.324,M,,*7E
2017-11-16 15:38:22 1510864702.840159: $GPRMC,203821,A,3946.9564,N,08404.9860,W,0.0000,0.000,161117,,*3D
2017-11-16 15:38:22 1510864702.840188: $GPGSA,A,3,10,14,31,18,20,21,24,8,32,12,138,,1.6,1.2,1.3*3C
2017-11-16 15:38:23 1510864703.364557: $GPZDA,203822.00,16,11,2017,00,00*6C
2017-11-16 15:38:23 1510864703.364682: $GPGGA,203822,3946.9564,N,08404.9860,W,2,11,1.20,308.97,M,-33.324,M,,*7D
2017-11-16 15:38:23 1510864703.364715: $GPRMC,203822,A,3946.9564,N,08404.9860,W,0.0000,0.000,161117,,*3E
2017-11-16 15:38:23 1510864703.364743: $GPGSA,A,3,10,14,31,18,20,21,24,8,32,12,138,,1.6,1.2,1.3*3C
2017-11-16 15:38:24 1510864704.365427: $GPZDA,203823.00,16,11,2017,00,00*6D
2017-11-16 15:38:24 1510864704.365556: $GPGGA,203823,3946.9564,N,08404.9860,W,2,11,1.20,308.97,M,-33.324,M,,*7C
2017-11-16 15:38:24 1510864704.365589: $GPRMC,203823,A,3946.9564,N,08404.9860,W,0.0000,0.000,161117,,*3F
2017-11-16 15:38:24 1510864704.365618: $GPGSA,A,3,10,14,31,18,20,21,24,8,32,12,138,,1.6,1.2,1.3*3C
