2017-12-01 17:16:53 1512166613.197577: {"class":"VERSION","release":"3.16","rev":"3.16-4","proto_major":3,"proto_minor":11}
2017-12-01 17:16:53 1512166613.197950: {"class":"DEVICES","devices":[{"class":"DEVICE","path":"/dev/ttyUSB0","driver":"SiRF","subtype":"9\u0006GSD4e_4.1.2-P1_RPATCH.05-F-GPS-4R-1510281 11/03/2015 307","activated":"2017-12-01T22:16:52.584Z","flags":1,"native":1,"bps":4800,"parity":"N","stopbits":1,"cycle":1.00}]}
2017-12-01 17:16:53 1512166613.198065: {"class":"WATCH","enable":true,"json":false,"nmea":true,"raw":0,"scaled":false,"timing":false,"split24":false,"pps":false}
2017-12-01 17:16:53 1512166613.778076: $GPGSV,3,1,11,01,20,279,43,03,17,316,39,10,26,156,39,14,70,025,45*71
2017-12-01 17:16:53 1512166613.778265: $GPGSV,3,2,11,22,36,306,42,26,21,178,36,31,76,262,48,32,58,072,48*7E
2017-12-01 17:16:53 1512166613.778334: $GPGSV,3,3,11,12,10,034,24,25,38,063,31,138,38,213,34*77
2017-12-01 17:16:53 1512166613.891508: $GPZDA,221654.00,01,12,2017,00,00*66
2017-12-01 17:16:53 1512166613.891684: $GPGGA,221654,3946.9658,N,08404.9758,W,2,11,0.80,292.73,M,-33.324,M,,*79
2017-12-01 17:16:53 1512166613.891753: $GPRMC,221654,A,3946.9658,N,08404.9758,W,0.0000,0.000,011217,,*3C
2017-12-01 17:16:53 1512166613.891814: $GPGSA,A,3,1,3,10,14,22,26,31,32,12,25,138,,2.0,0.8,1.5*03
2017-12-01 17:16:54 1512166614.458609: $GPZDA,221655.00,01,12,2017,00,00*67
2017-12-01 17:16:54 1512166614.458790: $GPGGA,221655,3946.9658,N,08404.9758,W,2,11,0.80,292.73,M,-33.324,M,,*78
2017-12-01 17:16:54 1512166614.458860: $GPRMC,221655,A,3946.9658,N,08404.9758,W,0.0000,0.000,011217,,*3D
2017-12-01 17:16:54 1512166614.458921: $GPGSA,A,3,1,3,10,14,22,26,31,32,12,25,138,,2.0,0.8,1.5*03
2017-12-01 17:16:55 1512166615.462995: $GPZDA,221656.00,01,12,2017,00,00*64
2017-12-01 17:16:55 1512166615.463166: $GPGGA,221656,3946.9658,N,08404.9758,W,2,11,0.80,292.73,M,-33.324,M,,*7B
2017-12-01 17:16:55 1512166615.463235: $GPRMC,221656,A,3946.9658,N,08404.9758,W,0.0000,0.000,011217,,*3E
2017-12-01 17:16:55 1512166615.463299: $GPGSA,A,3,1,3,10,14,22,26,31,32,12,25,138,,2.0,0.8,1.5*03
2017-12-01 17:16:56 1512166616.798600: $GPGSV,3,1,11,01,20,279,43,03,17,316,39,10,26,156,39,14,70,025,45*71
2017-12-01 17:16:56 1512166616.798781: $GPGSV,3,2,11,22,36,306,42,26,21,178,36,31,76,262,48,32,58,072,48*7E
2017-12-01 17:16:56 1512166616.798847: $GPGSV,3,3,11,12,10,034,24,25,38,063,31,138,38,213,38*7B
2017-12-01 17:16:56 1512166616.912131: $GPZDA,221657.00,01,12,2017,00,00*65
2017-12-01 17:16:56 1512166616.912307: $GPGGA,221657,3946.9658,N,08404.9758,W,2,11,0.80,292.73,M,-33.324,M,,*7A
2017-12-01 17:16:56 1512166616.912377: $GPRMC,221657,A,3946.9658,N,08404.9758,W,0.0000,0.000,011217,,*3F
2017-12-01 17:16:56 1512166616.912437: $GPGSA,A,3,1,3,10,14,22,26,31,32,12,25,138,,2.0,0.8,1.5*03
2017-12-01 17:16:57 1512166617.461733: $GPZDA,221658.00,01,12,2017,00,00*6A
2017-12-01 17:16:57 1512166617.461917: $GPGGA,221658,3946.9658,N,08404.9758,W,2,11,0.80,292.73,M,-33.324,M,,*75
2017-12-01 17:16:57 1512166617.461988: $GPRMC,221658,A,3946.9658,N,08404.9758,W,0.0000,0.000,011217,,*30
2017-12-01 17:16:57 1512166617.462052: $GPGSA,A,3,1,3,10,14,22,26,31,32,12,25,138,,2.0,0.8,1.5*03
2017-12-01 17:16:58 1512166618.442682: $GPZDA,221659.00,01,12,2017,00,00*6B
2017-12-01 17:16:58 1512166618.442855: $GPGGA,221659,3946.9658,N,08404.9758,W,2,11,0.80,292.73,M,-33.324,M,,*74
2017-12-01 17:16:58 1512166618.442925: $GPRMC,221659,A,3946.9658,N,08404.9758,W,0.0000,0.000,011217,,*31
2017-12-01 17:16:58 1512166618.442989: $GPGSA,A,3,1,3,10,14,22,26,31,32,12,25,138,,2.0,0.8,1.5*03
2017-12-01 17:16:59 1512166619.779380: $GPGSV,3,1,11,01,20,279,42,03,17,316,39,10,26,156,38,14,70,025,45*71
2017-12-01 17:16:59 1512166619.779564: $GPGSV,3,2,11,22,36,306,42,26,21,178,35,31,76,262,48,32,58,072,48*7D
2017-12-01 17:16:59 1512166619.779633: $GPGSV,3,3,11,12,10,034,24,25,38,063,32,138,38,213,40*77
2017-12-01 17:16:59 1512166619.893219: $GPZDA,221700.00,01,12,2017,00,00*66
2017-12-01 17:16:59 1512166619.893384: $GPGGA,221700,3946.9658,N,08404.9758,W,2,11,0.80,292.73,M,-33.324,M,,*79
2017-12-01 17:16:59 1512166619.893505: $GPRMC,221700,A,3946.9658,N,08404.9758,W,0.0000,0.000,011217,,*3C
2017-12-01 17:16:59 1512166619.893567: $GPGSA,A,3,1,3,10,14,22,26,31,32,12,25,138,,2.0,0.8,1.5*03
2017-12-01 17:17:00 1512166620.518405: $GPZDA,221701.00,01,12,2017,00,00*67
2017-12-01 17:17:00 1512166620.518579: $GPGGA,221701,3946.9658,N,08404.9758,W,2,11,0.80,292.73,M,-33.324,M,,*78
2017-12-01 17:17:00 1512166620.518645: $GPRMC,221701,A,3946.9658,N,08404.9758,W,0.0000,0.000,011217,,*3D
2017-12-01 17:17:00 1512166620.518706: $GPGSA,A,3,1,3,10,14,22,26,31,32,12,25,138,,2.0,0.8,1.5*03
2017-12-01 17:17:01 1512166621.436650: $GPZDA,221702.00,01,12,2017,00,00*64
2017-12-01 17:17:01 1512166621.436845: $GPGGA,221702,3946.9658,N,08404.9758,W,2,11,0.80,292.73,M,-33.324,M,,*7B
2017-12-01 17:17:01 1512166621.436916: $GPRMC,221702,A,3946.9658,N,08404.9758,W,0.0000,0.000,011217,,*3E
2017-12-01 17:17:01 1512166621.436978: $GPGSA,A,3,1,3,10,14,22,26,31,32,12,25,138,,2.0,0.8,1.5*03
2017-12-01 17:17:02 1512166622.772172: $GPGSV,3,1,11,01,20,279,41,03,17,316,39,10,26,156,38,14,70,025,45*72
2017-12-01 17:17:02 1512166622.772359: $GPGSV,3,2,11,22,36,306,42,26,21,178,36,31,76,262,47,32,58,072,47*7E
2017-12-01 17:17:02 1512166622.772427: $GPGSV,3,3,11,12,10,034,24,25,38,063,32,138,38,213,40*77
2017-12-01 17:17:02 1512166622.885623: $GPZDA,221703.00,01,12,2017,00,00*65
2017-12-01 17:17:02 1512166622.885793: $GPGGA,221703,3946.9658,N,08404.9758,W,2,11,0.80,292.73,M,-33.324,M,,*7A
2017-12-01 17:17:02 1512166622.885861: $GPRMC,221703,A,3946.9658,N,08404.9758,W,0.0000,0.000,011217,,*3F
2017-12-01 17:17:02 1512166622.885921: $GPGSA,A,3,1,3,10,14,22,26,31,32,12,25,138,,2.0,0.8,1.5*03
2017-12-01 17:17:03 1512166623.444236: $GPZDA,221704.00,01,12,2017,00,00*62
2017-12-01 17:17:03 1512166623.444410: $GPGGA,221704,3946.9658,N,08404.9758,W,2,11,0.80,292.73,M,-33.324,M,,*7D
2017-12-01 17:17:03 1512166623.444478: $GPRMC,221704,A,3946.9658,N,08404.9758,W,0.0000,0.000,011217,,*38
2017-12-01 17:17:03 1512166623.444539: $GPGSA,A,3,1,3,10,14,22,26,31,32,12,25,138,,2.0,0.8,1.5*03
2017-12-01 17:17:04 1512166624.443926: $GPZDA,221705.00,01,12,2017,00,00*63
2017-12-01 17:17:04 1512166624.444097: $GPGGA,221705,3946.9658,N,08404.9758,W,2,11,0.80,292.73,M,-33.324,M,,*7C
2017-12-01 17:17:04 1512166624.444165: $GPRMC,221705,A,3946.9658,N,08404.9758,W,0.0000,0.000,011217,,*39
2017-12-01 17:17:04 1512166624.444231: $GPGSA,A,3,1,3,10,14,22,26,31,32,12,25,138,,2.0,0.8,1.5*03
2017-12-01 17:17:05 1512166625.777561: $GPGSV,3,1,11,01,20,279,42,03,17,316,40,10,26,156,34,14,70,025,45*73
2017-12-01 17:17:05 1512166625.777745: $GPGSV,3,2,11,22,36,306,42,26,21,178,38,31,76,262,47,32,58,072,47*70
2017-12-01 17:17:05 1512166625.777814: $GPGSV,3,3,11,12,10,034,25,25,38,063,32,138,38,213,38*79
2017-12-01 17:17:05 1512166625.891253: $GPZDA,221706.00,01,12,2017,00,00*60
2017-12-01 17:17:05 1512166625.891500: $GPGGA,221706,3946.9658,N,08404.9758,W,2,11,0.80,292.73,M,-33.324,M,,*7F
2017-12-01 17:17:05 1512166625.891572: $GPRMC,221706,A,3946.9658,N,08404.9758,W,0.0000,0.000,011217,,*3A
2017-12-01 17:17:05 1512166625.891634: $GPGSA,A,3,1,3,10,14,22,26,31,32,12,25,138,,2.0,0.8,1.5*03
2017-12-01 17:17:06 1512166626.443354: $GPZDA,221707.00,01,12,2017,00,00*61
2017-12-01 17:17:06 1512166626.443525: $GPGGA,221707,3946.9658,N,08404.9758,W,2,11,0.80,292.73,M,-33.324,M,,*7E
2017-12-01 17:17:06 1512166626.443593: $GPRMC,221707,A,3946.9658,N,08404.9758,W,0.0000,0.000,011217,,*3B
2017-12-01 17:17:06 1512166626.443654: $GPGSA,A,3,1,3,10,14,22,26,31,32,12,25,138,,2.0,0.8,1.5*03
2017-12-01 17:17:07 1512166627.437716: $GPZDA,221708.00,01,12,2017,00,00*6E
2017-12-01 17:17:07 1512166627.437919: $GPGGA,221708,3946.9658,N,08404.9758,W,2,11,0.80,292.73,M,-33.324,M,,*71
2017-12-01 17:17:07 1512166627.437993: $GPRMC,221708,A,3946.9658,N,08404.9758,W,0.0000,0.000,011217,,*34
2017-12-01 17:17:07 1512166627.438059: $GPGSA,A,3,1,3,10,14,22,26,31,32,12,25,138,,2.0,0.8,1.5*03
2017-12-01 17:17:08 1512166628.773465: $GPGSV,3,1,11,01,20,279,42,03,17,316,40,10,26,156,36,14,70,025,44*70
2017-12-01 17:17:08 1512166628.773671: $GPGSV,3,2,11,22,36,306,42,26,21,178,38,31,76,262,47,32,58,072,47*70
2017-12-01 17:17:08 1512166628.773740: $GPGSV,3,3,11,12,10,034,25,25,38,063,32,138,38,213,39*78
2017-12-01 17:17:08 1512166628.887893: $GPZDA,221709.00,01,12,2017,00,00*6F
2017-12-01 17:17:08 1512166628.888077: $GPGGA,221709,3946.9658,N,08404.9758,W,2,11,0.80,292.73,M,-33.324,M,,*70
2017-12-01 17:17:08 1512166628.888144: $GPRMC,221709,A,3946.9658,N,08404.9758,W,0.0000,0.000,011217,,*35
2017-12-01 17:17:08 1512166628.888209: $GPGSA,A,3,1,3,10,14,22,26,31,32,12,25,138,,2.0,0.8,1.5*03
2017-12-01 17:17:09 1512166629.441622: $GPZDA,221710.00,01,12,2017,00,00*67
2017-12-01 17:17:09 1512166629.441798: $GPGGA,221710,3946.9658,N,08404.9758,W,2,11,0.80,292.73,M,-33.324,M,,*78
2017-12-01 17:17:09 1512166629.441867: $GPRMC,221710,A,3946.9658,N,08404.9758,W,0.0000,0.000,011217,,*3D
2017-12-01 17:17:09 1512166629.441929: $GPGSA,A,3,1,3,10,14,22,26,31,32,12,25,138,,2.0,0.8,1.5*03
2017-12-01 17:17:10 1512166630.442010: $GPZDA,221711.00,01,12,2017,00,00*66
2017-12-01 17:17:10 1512166630.442197: $GPGGA,221711,3946.9658,N,08404.9758,W,2,11,0.80,292.73,M,-33.324,M,,*79
2017-12-01 17:17:10 1512166630.442266: $GPRMC,221711,A,3946.9658,N,08404.9758,W,0.0000,0.000,011217,,*3C
2017-12-01 17:17:10 1512166630.442345: $GPGSA,A,3,1,3,10,14,22,26,31,32,12,25,138,,2.0,0.8,1.5*03
2017-12-01 17:17:11 1512166631.778745: $GPGSV,3,1,11,01,20,279,42,03,17,316,41,10,26,156,37,14,70,025,44*70
2017-12-01 17:17:11 1512166631.778930: $GPGSV,3,2,11,22,36,306,44,26,21,178,39,31,76,262,47,32,58,072,47*77
2017-12-01 17:17:11 1512166631.778997: $GPGSV,3,3,11,12,10,034,26,25,38,063,32,138,38,213,41*74
2017-12-01 17:17:11 1512166631.892475: $GPZDA,221712.00,01,12,2017,00,00*65
2017-12-01 17:17:11 1512166631.892643: $GPGGA,221712,3946.9658,N,08404.9758,W,2,11,0.80,292.73,M,-33.324,M,,*7A
2017-12-01 17:17:11 1512166631.892709: $GPRMC,221712,A,3946.9658,N,08404.9758,W,0.0000,0.000,011217,,*3F
2017-12-01 17:17:11 1512166631.892770: $GPGSA,A,3,1,3,10,14,22,26,31,32,12,25,138,,2.0,0.8,1.5*03
2017-12-01 17:17:12 1512166632.444329: $GPZDA,221713.00,01,12,2017,00,00*64
2017-12-01 17:17:12 1512166632.444498: $GPGGA,221713,3946.9658,N,08404.9758,W,2,11,0.80,292.73,M,-33.324,M,,*7B
2017-12-01 17:17:12 1512166632.444564: $GPRMC,221713,A,3946.9658,N,08404.9758,W,0.0000,0.000,011217,,*3E
2017-12-01 17:17:12 1512166632.444626: $GPGSA,A,3,1,3,10,14,22,26,31,32,12,25,138,,2.0,0.8,1.5*03
