2018-01-11 20:05:22 1515719122.629128: {"class":"VERSION","release":"3.16","rev":"3.16-4","proto_major":3,"proto_minor":11}
2018-01-11 20:05:22 1515719122.629601: {"class":"DEVICES","devices":[{"class":"DEVICE","path":"/dev/ttyUSB0","driver":"SiRF","subtype":"9\u0006GSD4e_4.1.2-P1_RPATCH.05-F-GPS-4R-1510281 11/03/2015 307","activated":"2018-01-12T01:05:22.499Z","flags":1,"native":1,"bps":4800,"parity":"N","stopbits":1,"cycle":1.00}]}
2018-01-11 20:05:22 1515719122.629722: {"class":"WATCH","enable":true,"json":false,"nmea":true,"raw":0,"scaled":false,"timing":false,"split24":false,"pps":false}
2018-01-11 20:05:23 1515719123.692946: $GPGSV,3,1,10,07,53,313,41,08,72,139,45,09,50,232,41,11,18,168,45*75
2018-01-11 20:05:23 1515719123.693123: $GPGSV,3,2,10,16,25,058,45,23,31,190,46,27,49,055,50,28,12,256,37*7D
2018-01-11 20:05:23 1515719123.693187: $GPGSV,3,3,10,30,27,306,35,138,38,213,46*4E
2018-01-11 20:05:23 1515719123.806845: $GPZDA,010524.00,12,01,2018,00,00*6D
2018-01-11 20:05:23 1515719123.806979: $GPGGA,010524,3946.9589,N,08404.9823,W,2,10,0.80,309.63,M,-33.324,M,,*72
2018-01-11 20:05:23 1515719123.807043: $GPRMC,010524,A,3946.9589,N,08404.9823,W,0.0000,0.000,120118,,*3B
2018-01-11 20:05:23 1515719123.807103: $GPGSA,A,3,7,8,9,11,16,23,27,28,30,138,,,4.0,0.8,3.5*3E
2018-01-11 20:05:24 1515719124.432020: $GPZDA,010525.00,12,01,2018,00,00*6C
2018-01-11 20:05:24 1515719124.432180: $GPGGA,010525,3946.9589,N,08404.9823,W,2,10,0.80,309.63,M,-33.324,M,,*73
2018-01-11 20:05:24 1515719124.432247: $GPRMC,010525,A,3946.9589,N,08404.9823,W,0.0000,0.000,120118,,*3A
2018-01-11 20:05:24 1515719124.432307: $GPGSA,A,3,7,8,9,11,16,23,27,28,30,138,,,4.0,0.8,3.5*3E
2018-01-11 20:05:25 1515719125.359145: $GPZDA,010526.00,12,01,2018,00,00*6F
2018-01-11 20:05:25 1515719125.359308: $GPGGA,010526,3946.9589,N,08404.9823,W,2,10,0.80,309.63,M,-33.324,M,,*70
2018-01-11 20:05:25 1515719125.359373: $GPRMC,010526,A,3946.9589,N,08404.9823,W,0.0000,0.000,120118,,*39
2018-01-11 20:05:25 1515719125.359433: $GPGSA,A,3,7,8,9,11,16,23,27,28,30,138,,,4.0,0.8,3.5*3E
2018-01-11 20:05:26 1515719126.693303: $GPGSV,3,1,10,07,53,313,41,08,72,139,45,09,50,232,41,11,18,168,45*75
2018-01-11 20:05:26 1515719126.693496: $GPGSV,3,2,10,16,25,058,45,23,31,190,46,27,49,055,50,28,12,256,37*7D
2018-01-11 20:05:26 1515719126.693562: $GPGSV,3,3,10,30,27,306,35,138,38,213,45*4D
2018-01-11 20:05:26 1515719126.806963: $GPZDA,010527.00,12,01,2018,00,00*6E
2018-01-11 20:05:26 1515719126.807085: $GPGGA,010527,3946.9589,N,08404.9823,W,2,10,0.80,309.63,M,-33.324,M,,*71
2018-01-11 20:05:26 1515719126.807149: $GPRMC,010527,A,3946.9589,N,08404.9823,W,0.0000,0.000,120118,,*38
2018-01-11 20:05:26 1515719126.807208: $GPGSA,A,3,7,8,9,11,16,23,27,28,30,138,,,4.0,0.8,3.5*3E
2018-01-11 20:05:27 1515719127.359136: $GPZDA,010528.00,12,01,2018,00,00*61
2018-01-11 20:05:27 1515719127.359287: $GPGGA,010528,3946.9589,N,08404.9823,W,2,10,0.80,309.63,M,-33.324,M,,*7E
2018-01-11 20:05:27 1515719127.359353: $GPRMC,010528,A,3946.9589,N,08404.9823,W,0.0000,0.000,120118,,*37
2018-01-11 20:05:27 1515719127.359414: $GPGSA,A,3,7,8,9,11,16,23,27,28,30,138,,,4.0,0.8,3.5*3E
2018-01-11 20:05:28 1515719128.357479: $GPZDA,010529.00,12,01,2018,00,00*60
2018-01-11 20:05:28 1515719128.357637: $GPGGA,010529,3946.9589,N,08404.9823,W,2,10,0.80,309.63,M,-33.324,M,,*7F
2018-01-11 20:05:28 1515719128.357702: $GPRMC,010529,A,3946.9589,N,08404.9823,W,0.0000,0.000,120118,,*36
2018-01-11 20:05:28 1515719128.357761: $GPGSA,A,3,7,8,9,11,16,23,27,28,30,138,,,4.0,0.8,3.5*3E
2018-01-11 20:05:29 1515719129.693634: $GPGSV,3,1,10,07,53,313,42,08,72,139,46,09,50,232,41,11,18,168,45*75
2018-01-11 20:05:29 1515719129.693807: $GPGSV,3,2,10,16,25,058,45,23,31,190,46,27,49,055,50,28,12,256,38*72
2018-01-11 20:05:29 1515719129.693872: $GPGSV,3,3,10,30,27,306,36,138,38,213,45*4E
2018-01-11 20:05:29 1515719129.807249: $GPZDA,010530.00,12,01,2018,00,00*68
2018-01-11 20:05:29 1515719129.807369: $GPGGA,010530,3946.9589,N,08404.9823,W,2,10,0.80,309.63,M,-33.324,M,,*77
2018-01-11 20:05:29 1515719129.807432: $GPRMC,010530,A,3946.9589,N,08404.9823,W,0.0000,0.000,120118,,*3E
2018-01-11 20:05:29 1515719129.807562: $GPGSA,A,3,7,8,9,11,16,23,27,28,30,138,,,4.0,0.8,3.5*3E
2018-01-11 20:05:30 1515719130.356883: $GPZDA,010531.00,12,01,2018,00,00*69
2018-01-11 20:05:30 1515719130.357026: $GPGGA,010531,3946.9589,N,08404.9823,W,2,10,0.80,309.63,M,-33.324,M,,*76
2018-01-11 20:05:30 1515719130.357090: $GPRMC,010531,A,3946.9589,N,08404.9823,W,0.0000,0.000,120118,,*3F
2018-01-11 20:05:30 1515719130.357150: $GPGSA,A,3,7,8,9,11,16,23,27,28,30,138,,,4.0,0.8,3.5*3E
2018-01-11 20:05:31 1515719131.357794: $GPZDA,010532.00,12,01,2018,00,00*6A
2018-01-11 20:05:31 1515719131.357954: $GPGGA,010532,3946.9589,N,08404.9823,W,2,10,0.80,309.63,M,-33.324,M,,*75
2018-01-11 20:05:31 1515719131.358020: $GPRMC,010532,A,3946.9589,N,08404.9823,W,0.0000,0.000,120118,,*3C
2018-01-11 20:05:31 1515719131.358080: $GPGSA,A,3,7,8,9,11,16,23,27,28,30,138,,,4.0,0.8,3.5*3E
2018-01-11 20:05:32 1515719132.691972: $GPGSV,3,1,10,07,53,313,42,08,72,139,46,09,50,232,41,11,18,168,45*75
2018-01-11 20:05:32 1515719132.692148: $GPGSV,3,2,10,16,25,058,45,23,31,190,47,27,49,055,50,28,12,256,38*73
2018-01-11 20:05:32 1515719132.692213: $GPGSV,3,3,10,30,27,306,36,138,38,213,46*4D
2018-01-11 20:05:32 1515719132.805590: $GPZDA,010533.00,12,01,2018,00,00*6B
2018-01-11 20:05:32 1515719132.805710: $GPGGA,010533,3946.9589,N,08404.9823,W,2,10,0.80,309.63,M,-33.324,M,,*74
2018-01-11 20:05:32 1515719132.805774: $GPRMC,010533,A,3946.9589,N,08404.9823,W,0.0000,0.000,120118,,*3D
2018-01-11 20:05:32 1515719132.805834: $GPGSA,A,3,7,8,9,11,16,23,27,28,30,138,,,4.0,0.8,3.5*3E
2018-01-11 20:05:33 1515719133.357727: $GPZDA,010534.00,12,01,2018,00,00*6C
2018-01-11 20:05:33 1515719133.357865: $GPGGA,010534,3946.9589,N,08404.9823,W,2,10,0.80,309.63,M,-33.324,M,,*73
2018-01-11 20:05:33 1515719133.357929: $GPRMC,010534,A,3946.9589,N,08404.9823,W,0.0000,0.000,120118,,*3A
2018-01-11 20:05:33 1515719133.357988: $GPGSA,A,3,7,8,9,11,16,23,27,28,30,138,,,4.0,0.8,3.5*3E
