2017-12-01 14:45:08 1512157508.706769: {"class":"VERSION","release":"3.16","rev":"3.16-4","proto_major":3,"proto_minor":11}
2017-12-01 14:45:08 1512157508.707174: {"class":"DEVICES","devices":[{"class":"DEVICE","path":"/dev/ttyUSB0","driver":"SiRF","subtype":"9\u0006GSD4e_4.1.2-P1_RPATCH.05-F-GPS-4R-1510281 11/03/2015 307","activated":"2017-12-01T19:45:08.492Z","flags":1,"native":1,"bps":4800,"parity":"N","stopbits":1,"cycle":1.00}]}
2017-12-01 14:45:08 1512157508.707791: {"class":"WATCH","enable":true,"json":false,"nmea":true,"raw":0,"scaled":false,"timing":false,"split24":false,"pps":false}
2017-12-01 14:45:09 1512157509.353803: $GPZDA,194510.00,01,12,2017,00,00*68
2017-12-01 14:45:09 1512157509.353978: $GPGGA,194510,3946.9588,N,08404.9863,W,2,12,1.20,294.27,M,-33.324,M,,*71
2017-12-01 14:45:09 1512157509.354044: $GPRMC,194510,A,3946.9588,N,08404.9863,W,0.0000,0.000,011217,,*3B
2017-12-01 14:45:09 1512157509.354107: $GPGSA,A,3,10,14,18,21,24,25,32,15,12,11,31,138,2.0,1.2,1.5*06
2017-12-01 14:45:10 1512157510.690802: $GPGSV,3,1,12,10,78,351,48,14,36,262,43,18,62,111,47,21,19,177,45*78
2017-12-01 14:45:10 1512157510.690986: $GPGSV,3,2,12,24,37,051,46,25,10,135,33,32,53,277,44,15,04,072,19*76
2017-12-01 14:45:10 1512157510.691073: $GPGSV,3,3,12,12,15,099,39,11,02,324,18,31,08,204,32,138,38,213,47*46
2017-12-01 14:45:10 1512157510.804212: $GPZDA,194511.00,01,12,2017,00,00*69
2017-12-01 14:45:10 1512157510.804414: $GPGGA,194511,3946.9588,N,08404.9863,W,2,12,1.20,294.27,M,-33.324,M,,*70
2017-12-01 14:45:10 1512157510.804487: $GPRMC,194511,A,3946.9588,N,08404.9863,W,0.0000,0.000,011217,,*3A
2017-12-01 14:45:10 1512157510.804550: $GPGSA,A,3,10,14,18,21,24,25,32,15,12,11,31,138,2.0,1.2,1.5*06
2017-12-01 14:45:11 1512157511.429574: $GPZDA,194512.00,01,12,2017,00,00*6A
2017-12-01 14:45:11 1512157511.429754: $GPGGA,194512,3946.9588,N,08404.9863,W,2,12,1.20,294.27,M,-33.324,M,,*73
2017-12-01 14:45:11 1512157511.429823: $GPRMC,194512,A,3946.9588,N,08404.9863,W,0.0000,0.000,011217,,*39
2017-12-01 14:45:11 1512157511.429885: $GPGSA,A,3,10,14,18,21,24,25,32,15,12,11,31,138,2.0,1.2,1.5*06
2017-12-01 14:45:12 1512157512.355522: $GPZDA,194513.00,01,12,2017,00,00*6B
2017-12-01 14:45:12 1512157512.355692: $GPGGA,194513,3946.9588,N,08404.9863,W,2,12,1.20,294.27,M,-33.324,M,,*72
2017-12-01 14:45:12 1512157512.355761: $GPRMC,194513,A,3946.9588,N,08404.9863,W,0.0000,0.000,011217,,*38
2017-12-01 14:45:12 1512157512.355822: $GPGSA,A,3,10,14,18,21,24,25,32,15,12,11,31,138,2.0,1.2,1.5*06
2017-12-01 14:45:13 1512157513.694932: $GPGSV,3,1,12,10,78,351,47,14,36,262,43,18,62,111,47,21,19,177,44*76
2017-12-01 14:45:13 1512157513.695147: $GPGSV,3,2,12,24,37,051,46,25,10,135,33,32,53,277,44,15,04,072,19*76
2017-12-01 14:45:13 1512157513.695248: $GPGSV,3,3,12,12,15,099,39,11,02,324,19,31,08,204,31,138,38,213,47*44
2017-12-01 14:45:13 1512157513.807037: $GPZDA,194514.00,01,12,2017,00,00*6C
2017-12-01 14:45:13 1512157513.807226: $GPGGA,194514,3946.9588,N,08404.9863,W,2,12,1.20,294.27,M,-33.324,M,,*75
2017-12-01 14:45:13 1512157513.807299: $GPRMC,194514,A,3946.9588,N,08404.9863,W,0.0000,0.000,011217,,*3F
2017-12-01 14:45:13 1512157513.807362: $GPGSA,A,3,10,14,18,21,24,25,32,15,12,11,31,138,2.0,1.2,1.5*06
2017-12-01 14:45:14 1512157514.354173: $GPZDA,194515.00,01,12,2017,00,00*6D
2017-12-01 14:45:14 1512157514.354354: $GPGGA,194515,3946.9588,N,08404.9863,W,2,12,1.20,294.27,M,-33.324,M,,*74
2017-12-01 14:45:14 1512157514.354422: $GPRMC,194515,A,3946.9588,N,08404.9863,W,0.0000,0.000,011217,,*3E
2017-12-01 14:45:14 1512157514.354484: $GPGSA,A,3,10,14,18,21,24,25,32,15,12,11,31,138,2.0,1.2,1.5*06
2017-12-01 14:45:15 1512157515.355080: $GPZDA,194516.00,01,12,2017,00,00*6E
2017-12-01 14:45:15 1512157515.355275: $GPGGA,194516,3946.9588,N,08404.9863,W,2,12,1.20,294.27,M,-33.324,M,,*77
2017-12-01 14:45:15 1512157515.355345: $GPRMC,194516,A,3946.9588,N,08404.9863,W,0.0000,0.000,011217,,*3D
2017-12-01 14:45:15 1512157515.355406: $GPGSA,A,3,10,14,18,21,24,25,32,15,12,11,31,138,2.0,1.2,1.5*06
2017-12-01 14:45:16 1512157516.690295: $GPGSV,3,1,12,10,78,351,47,14,36,262,43,18,62,111,46,21,19,177,44*77
2017-12-01 14:45:16 1512157516.690533: $GPGSV,3,2,12,24,37,051,46,25,10,135,33,32,53,277,44,15,04,072,19*76
2017-12-01 14:45:16 1512157516.690604: $GPGSV,3,3,12,12,15,099,39,11,02,324,22,31,08,204,30,138,38,213,47*4D
2017-12-01 14:45:16 1512157516.803699: $GPZDA,194517.00,01,12,2017,00,00*6F
2017-12-01 14:45:16 1512157516.803878: $GPGGA,194517,3946.9588,N,08404.9863,W,2,12,1.20,294.27,M,-33.324,M,,*76
2017-12-01 14:45:16 1512157516.803945: $GPRMC,194517,A,3946.9588,N,08404.9863,W,0.0000,0.000,011217,,*3C
2017-12-01 14:45:16 1512157516.804008: $GPGSA,A,3,10,14,18,21,24,25,32,15,12,11,31,138,2.0,1.2,1.5*06
2017-12-01 14:45:17 1512157517.353354: $GPZDA,194518.00,01,12,2017,00,00*60
2017-12-01 14:45:17 1512157517.353545: $GPGGA,194518,3946.9588,N,08404.9863,W,2,12,1.20,294.27,M,-33.324,M,,*79
2017-12-01 14:45:17 1512157517.353616: $GPRMC,194518,A,3946.9588,N,08404.9863,W,0.0000,0.000,011217,,*33
2017-12-01 14:45:17 1512157517.353681: $GPGSA,A,3,10,14,18,21,24,25,32,15,12,11,31,138,2.0,1.2,1.5*06
2017-12-01 14:45:18 1512157518.347908: $GPZDA,194519.00,01,12,2017,00,00*61
2017-12-01 14:45:18 1512157518.348098: $GPGGA,194519,3946.9588,N,08404.9863,W,2,12,1.20,294.27,M,-33.324,M,,*78
2017-12-01 14:45:18 1512157518.348171: $GPRMC,194519,A,3946.9588,N,08404.9863,W,0.0000,0.000,011217,,*32
2017-12-01 14:45:18 1512157518.348257: $GPGSA,A,3,10,14,18,21,24,25,32,15,12,11,31,138,2.0,1.2,1.5*06
2017-12-01 14:45:19 1512157519.696196: $GPGSV,3,1,12,10,78,351,47,14,36,262,43,18,62,111,46,21,19,177,44*77
2017-12-01 14:45:19 1512157519.696387: $GPGSV,3,2,12,24,37,051,46,25,10,135,33,32,53,277,44,15,04,072,19*76
2017-12-01 14:45:19 1512157519.696458: $GPGSV,3,3,12,12,15,099,39,11,02,324,23,31,08,204,32,138,38,213,47*4E
2017-12-01 14:45:19 1512157519.809534: $GPZDA,194520.00,01,12,2017,00,00*6B
2017-12-01 14:45:19 1512157519.809720: $GPGGA,194520,3946.9588,N,08404.9863,W,2,12,1.20,294.27,M,-33.324,M,,*72
2017-12-01 14:45:19 1512157519.809789: $GPRMC,194520,A,3946.9588,N,08404.9863,W,0.0000,0.000,011217,,*38
2017-12-01 14:45:19 1512157519.809854: $GPGSA,A,3,10,14,18,21,24,25,32,15,12,11,31,138,2.0,1.2,1.5*06
2017-12-01 14:45:20 1512157520.355397: $GPZDA,194521.00,01,12,2017,00,00*6A
2017-12-01 14:45:20 1512157520.355585: $GPGGA,194521,3946.9588,N,08404.9863,W,2,12,1.20,294.27,M,-33.324,M,,*73
2017-12-01 14:45:20 1512157520.355655: $GPRMC,194521,A,3946.9588,N,08404.9863,W,0.0000,0.000,011217,,*39
2017-12-01 14:45:20 1512157520.355720: $GPGSA,A,3,10,14,18,21,24,25,32,15,12,11,31,138,2.0,1.2,1.5*06
2017-12-01 14:45:21 1512157521.353352: $GPZDA,194522.00,01,12,2017,00,00*69
2017-12-01 14:45:21 1512157521.353523: $GPGGA,194522,3946.9588,N,08404.9863,W,2,12,1.20,294.27,M,-33.324,M,,*70
2017-12-01 14:45:21 1512157521.353591: $GPRMC,194522,A,3946.9588,N,08404.9863,W,0.0000,0.000,011217,,*3A
2017-12-01 14:45:21 1512157521.353654: $GPGSA,A,3,10,14,18,21,24,25,32,15,12,11,31,138,2.0,1.2,1.5*06
2017-12-01 14:45:22 1512157522.690266: $GPGSV,3,1,12,10,78,351,47,14,36,262,42,18,62,111,47,21,19,177,44*77
2017-12-01 14:45:22 1512157522.690447: $GPGSV,3,2,12,24,37,051,45,25,10,135,33,32,53,277,45,15,04,072,18*75
2017-12-01 14:45:22 1512157522.690517: $GPGSV,3,3,12,12,15,099,40,11,02,324,18,31,08,204,32,138,38,213,46*49
2017-12-01 14:45:22 1512157522.803673: $GPZDA,194523.00,01,12,2017,00,00*68
2017-12-01 14:45:22 1512157522.803822: $GPGGA,194523,3946.9588,N,08404.9863,W,2,12,1.20,294.27,M,-33.324,M,,*71
2017-12-01 14:45:22 1512157522.803891: $GPRMC,194523,A,3946.9588,N,08404.9863,W,0.0000,0.000,011217,,*3B
2017-12-01 14:45:22 1512157522.803955: $GPGSA,A,3,10,14,18,21,24,25,32,15,12,11,31,138,2.0,1.2,1.5*06
2017-12-01 14:45:23 1512157523.395879: $GPZDA,194524.00,01,12,2017,00,00*6F
2017-12-01 14:45:23 1512157523.396056: $GPGGA,194524,3946.9588,N,08404.9863,W,2,12,1.20,294.27,M,-33.324,M,,*76
2017-12-01 14:45:23 1512157523.396147: $GPRMC,194524,A,3946.9588,N,08404.9863,W,0.0000,0.000,011217,,*3C
2017-12-01 14:45:23 1512157523.396227: $GPGSA,A,3,10,14,18,21,24,25,32,15,12,11,31,138,2.0,1.2,1.5*06
2017-12-01 14:45:24 1512157524.387931: $GPZDA,194525.00,01,12,2017,00,00*6E
2017-12-01 14:45:24 1512157524.388128: $GPGGA,194525,3946.9588,N,08404.9863,W,2,12,1.20,294.27,M,-33.324,M,,*77
2017-12-01 14:45:24 1512157524.388197: $GPRMC,194525,A,3946.9588,N,08404.9863,W,0.0000,0.000,011217,,*3D
2017-12-01 14:45:24 1512157524.388275: $GPGSA,A,3,10,14,18,21,24,25,32,15,12,11,31,138,2.0,1.2,1.5*06
2017-12-01 14:45:25 1512157525.733996: $GPGSV,3,1,12,10,78,351,47,14,36,262,43,18,62,111,47,21,19,177,44*76
2017-12-01 14:45:25 1512157525.734269: $GPGSV,3,2,12,24,37,051,46,25,10,135,33,32,53,277,45,15,04,072,18*76
2017-12-01 14:45:25 1512157525.734337: $GPGSV,3,3,12,12,15,099,40,11,02,324,25,31,08,204,32,138,38,213,47*46
2017-12-01 14:45:25 1512157525.844567: $GPZDA,194526.00,01,12,2017,00,00*6D
2017-12-01 14:45:25 1512157525.844738: $GPGGA,194526,3946.9588,N,08404.9863,W,2,12,1.20,294.27,M,-33.324,M,,*74
2017-12-01 14:45:25 1512157525.844804: $GPRMC,194526,A,3946.9588,N,08404.9863,W,0.0000,0.000,011217,,*3E
2017-12-01 14:45:25 1512157525.844865: $GPGSA,A,3,10,14,18,21,24,25,32,15,12,11,31,138,2.0,1.2,1.5*06
2017-12-01 14:45:26 1512157526.469932: $GPZDA,194527.00,01,12,2017,00,00*6C
2017-12-01 14:45:26 1512157526.470121: $GPGGA,194527,3946.9588,N,08404.9863,W,2,12,1.20,294.27,M,-33.324,M,,*75
2017-12-01 14:45:26 1512157526.470216: $GPRMC,194527,A,3946.9588,N,08404.9863,W,0.0000,0.000,011217,,*3F
2017-12-01 14:45:26 1512157526.470279: $GPGSA,A,3,10,14,18,21,24,25,32,15,12,11,31,138,2.0,1.2,1.5*06
2017-12-01 14:45:27 1512157527.397252: $GPZDA,194528.00,01,12,2017,00,00*63
2017-12-01 14:45:27 1512157527.397424: $GPGGA,194528,3946.9588,N,08404.9863,W,2,12,1.20,294.27,M,-33.324,M,,*7A
2017-12-01 14:45:27 1512157527.397490: $GPRMC,194528,A,3946.9588,N,08404.9863,W,0.0000,0.000,011217,,*30
2017-12-01 14:45:27 1512157527.397550: $GPGSA,A,3,10,14,18,21,24,25,32,15,12,11,31,138,2.0,1.2,1.5*06
2017-12-01 14:45:28 1512157528.691633: $GPGSV,3,1,12,10,78,351,46,14,36,262,42,18,62,111,47,21,19,177,45*77
2017-12-01 14:45:28 1512157528.691877: $GPGSV,3,2,12,24,37,051,46,25,10,135,32,32,53,277,44,15,04,072,16*78
2017-12-01 14:45:28 1512157528.691947: $GPGSV,3,3,12,12,15,099,40,11,02,324,26,31,08,204,31,138,38,213,48*49
2017-12-01 14:45:28 1512157528.804949: $GPZDA,194529.00,01,12,2017,00,00*62
2017-12-01 14:45:28 1512157528.805134: $GPGGA,194529,3946.9588,N,08404.9863,W,2,12,1.20,294.27,M,-33.324,M,,*7B
2017-12-01 14:45:28 1512157528.805220: $GPRMC,194529,A,3946.9588,N,08404.9863,W,0.0000,0.000,011217,,*31
2017-12-01 14:45:28 1512157528.805286: $GPGSA,A,3,10,14,18,21,24,25,32,15,12,11,31,138,2.0,1.2,1.5*06
2017-12-01 14:45:29 1512157529.353309: $GPZDA,194530.00,01,12,2017,00,00*6A
2017-12-01 14:45:29 1512157529.353482: $GPGGA,194530,3946.9588,N,08404.9863,W,2,12,1.20,294.27,M,-33.324,M,,*73
2017-12-01 14:45:29 1512157529.353552: $GPRMC,194530,A,3946.9588,N,08404.9863,W,0.0000,0.000,011217,,*39
2017-12-01 14:45:29 1512157529.353615: $GPGSA,A,3,10,14,18,21,24,25,32,15,12,11,31,138,2.0,1.2,1.5*06
2017-12-01 14:45:30 1512157530.354181: $GPZDA,194531.00,01,12,2017,00,00*6B
2017-12-01 14:45:30 1512157530.354355: $GPGGA,194531,3946.9588,N,08404.9863,W,2,12,1.20,294.27,M,-33.324,M,,*72
2017-12-01 14:45:30 1512157530.354425: $GPRMC,194531,A,3946.9588,N,08404.9863,W,0.0000,0.000,011217,,*38
2017-12-01 14:45:30 1512157530.354488: $GPGSA,A,3,10,14,18,21,24,25,32,15,12,11,31,138,2.0,1.2,1.5*06
2017-12-01 14:45:31 1512157531.733143: $GPGSV,3,1,12,10,78,351,46,14,36,262,43,18,62,111,47,21,19,177,44*77
2017-12-01 14:45:31 1512157531.733327: $GPGSV,3,2,12,24,37,051,46,25,10,135,32,32,53,277,44,15,04,072,16*78
2017-12-01 14:45:31 1512157531.733397: $GPGSV,3,3,12,12,15,099,40,11,02,324,23,31,08,204,27,138,38,213,47*44
2017-12-01 14:45:31 1512157531.846525: $GPZDA,194532.00,01,12,2017,00,00*68
2017-12-01 14:45:31 1512157531.846698: $GPGGA,194532,3946.9588,N,08404.9863,W,2,12,1.20,294.27,M,-33.324,M,,*71
2017-12-01 14:45:31 1512157531.846767: $GPRMC,194532,A,3946.9588,N,08404.9863,W,0.0000,0.000,011217,,*3B
2017-12-01 14:45:31 1512157531.846880: $GPGSA,A,3,10,14,18,21,24,25,32,15,12,11,31,138,2.0,1.2,1.5*06
2017-12-01 14:45:32 1512157532.348695: $GPZDA,194533.00,01,12,2017,00,00*69
2017-12-01 14:45:32 1512157532.348858: $GPGGA,194533,3946.9588,N,08404.9863,W,2,12,1.20,294.27,M,-33.324,M,,*70
2017-12-01 14:45:32 1512157532.348924: $GPRMC,194533,A,3946.9588,N,08404.9863,W,0.0000,0.000,011217,,*3A
2017-12-01 14:45:32 1512157532.348985: $GPGSA,A,3,10,14,18,21,24,25,32,15,12,11,31,138,2.0,1.2,1.5*06
2017-12-01 14:45:33 1512157533.353740: $GPZDA,194534.00,01,12,2017,00,00*6E
2017-12-01 14:45:33 1512157533.354021: $GPGGA,194534,3946.9592,N,08404.9863,W,2,12,1.20,294.91,M,-33.324,M,,*71
2017-12-01 14:45:33 1512157533.354116: $GPRMC,194534,A,3946.9592,N,08404.9863,W,0.0000,0.000,011217,,*36
2017-12-01 14:45:33 1512157533.354253: $GPGSA,A,3,10,14,18,21,24,25,32,15,12,11,31,138,2.0,1.2,1.5*06
