2017-11-16 16:42:28 1510868548.741229: {"class":"VERSION","release":"3.17","rev":"3.17","proto_major":3,"proto_minor":12}
2017-11-16 16:42:28 1510868548.741704: {"class":"DEVICES","devices":[{"class":"DEVICE","path":"/dev/ttyUSB0","driver":"SiRF","subtype":"9\u0006GSD4e_4.1.2-P1_RPATCH.05-F-GPS-4R-1510281 11/03/2015 307","activated":"2017-11-16T21:42:28.591Z","flags":1,"native":1,"bps":4800,"parity":"N","stopbits":1,"cycle":1.00}]}
2017-11-16 16:42:28 1510868548.741834: {"class":"WATCH","enable":true,"json":false,"nmea":true,"raw":0,"scaled":false,"timing":false,"split24":false,"pps":false}
2017-11-16 16:42:29 1510868549.790183: $GPGSV,3,1,11,01,12,321,42,10,73,127,47,11,10,303,38,12,25,075,48*7D
2017-11-16 16:42:29 1510868549.790358: $GPGSV,3,2,11,14,53,288,43,18,40,133,46,24,16,045,49,25,28,117,44*77
2017-11-16 16:42:29 1510868549.790419: $GPGSV,3,3,11,31,31,211,45,32,67,321,51,138,38,213,44*7F
2017-11-16 16:42:29 1510868549.903460: $GPZDA,214228.00,16,11,2017,00,00*6A
2017-11-16 16:42:29 1510868549.903617: $GPGGA,214228,3946.9576,N,08404.9815,W,2,11,0.80,306.38,M,-33.324,M,,*7A
2017-11-16 16:42:29 1510868549.903679: $GPRMC,214228,A,3946.9576,N,08404.9815,W,0.0000,0.000,161117,,*39
2017-11-16 16:42:29 1510868549.903734: $GPGSA,A,3,1,10,11,12,14,18,24,25,31,32,138,,1.6,0.8,1.3*38
2017-11-16 16:42:30 1510868550.456983: $GPZDA,214229.00,16,11,2017,00,00*6B
2017-11-16 16:42:30 1510868550.457149: $GPGGA,214229,3946.9576,N,08404.9815,W,2,11,0.80,306.38,M,-33.324,M,,*7B
2017-11-16 16:42:30 1510868550.457212: $GPRMC,214229,A,3946.9576,N,08404.9815,W,0.0000,0.000,161117,,*38
2017-11-16 16:42:30 1510868550.457267: $GPGSA,A,3,1,10,11,12,14,18,24,25,31,32,138,,1.6,0.8,1.3*38
2017-11-16 16:42:31 1510868551.440065: $GPZDA,214230.00,16,11,2017,00,00*63
2017-11-16 16:42:31 1510868551.440213: $GPGGA,214230,3946.9576,N,08404.9815,W,2,11,0.80,306.38,M,-33.324,M,,*73
2017-11-16 16:42:31 1510868551.440274: $GPRMC,214230,A,3946.9576,N,08404.9815,W,0.0000,0.000,161117,,*30
2017-11-16 16:42:31 1510868551.440330: $GPGSA,A,3,1,10,11,12,14,18,24,25,31,32,138,,1.6,0.8,1.3*38
2017-11-16 16:42:32 1510868552.791810: $GPGSV,3,1,11,01,12,321,41,10,73,127,46,11,10,303,37,12,25,075,48*70
2017-11-16 16:42:32 1510868552.791978: $GPGSV,3,2,11,14,53,288,43,18,40,133,46,24,16,045,49,25,28,117,44*77
2017-11-16 16:42:32 1510868552.792039: $GPGSV,3,3,11,31,31,211,45,32,67,321,51,138,38,213,44*7F
2017-11-16 16:42:32 1510868552.905462: $GPZDA,214231.00,16,11,2017,00,00*62
2017-11-16 16:42:32 1510868552.905622: $GPGGA,214231,3946.9576,N,08404.9815,W,2,11,0.80,306.38,M,-33.324,M,,*72
2017-11-16 16:42:32 1510868552.905683: $GPRMC,214231,A,3946.9576,N,08404.9815,W,0.0000,0.000,161117,,*31
2017-11-16 16:42:32 1510868552.905739: $GPGSA,A,3,1,10,11,12,14,18,24,25,31,32,138,,1.6,0.8,1.3*38
2017-11-16 16:42:33 1510868553.438542: $GPZDA,214232.00,16,11,2017,00,00*61
2017-11-16 16:42:33 1510868553.438711: $GPGGA,214232,3946.9580,N,08404.9815,W,2,11,0.80,307.02,M,-33.324,M,,*70
2017-11-16 16:42:33 1510868553.438773: $GPRMC,214232,A,3946.9580,N,08404.9815,W,0.0000,0.000,161117,,*3B
2017-11-16 16:42:33 1510868553.438829: $GPGSA,A,3,1,10,11,12,14,18,24,25,31,32,138,,1.6,0.8,1.3*38
2017-11-16 16:42:34 1510868554.438483: $GPZDA,214233.00,16,11,2017,00,00*60
2017-11-16 16:42:34 1510868554.438633: $GPGGA,214233,3946.9580,N,08404.9815,W,2,11,0.80,307.02,M,-33.324,M,,*71
2017-11-16 16:42:34 1510868554.438694: $GPRMC,214233,A,3946.9580,N,08404.9815,W,0.0000,0.000,161117,,*3A
2017-11-16 16:42:34 1510868554.438750: $GPGSA,A,3,1,10,11,12,14,18,24,25,31,32,138,,1.6,0.8,1.3*38
2017-11-16 16:42:35 1510868555.776441: $GPGSV,3,1,11,01,12,321,41,10,73,127,46,11,10,303,37,12,25,075,48*70
2017-11-16 16:42:35 1510868555.776608: $GPGSV,3,2,11,14,53,288,42,18,40,133,46,24,16,045,48,25,28,117,44*77
2017-11-16 16:42:35 1510868555.776668: $GPGSV,3,3,11,31,31,211,45,32,67,321,51,138,38,213,44*7F
2017-11-16 16:42:35 1510868555.888976: $GPZDA,214234.00,16,11,2017,00,00*67
2017-11-16 16:42:35 1510868555.889132: $GPGGA,214234,3946.9580,N,08404.9815,W,2,11,0.80,307.02,M,-33.324,M,,*76
2017-11-16 16:42:35 1510868555.889243: $GPRMC,214234,A,3946.9580,N,08404.9815,W,0.0000,0.000,161117,,*3D
2017-11-16 16:42:35 1510868555.889300: $GPGSA,A,3,1,10,11,12,14,18,24,25,31,32,138,,1.6,0.8,1.3*38
2017-11-16 16:42:36 1510868556.515244: $GPZDA,214235.00,16,11,2017,00,00*66
2017-11-16 16:42:36 1510868556.515412: $GPGGA,214235,3946.9580,N,08404.9808,W,2,11,0.80,307.10,M,-33.324,M,,*78
2017-11-16 16:42:36 1510868556.515473: $GPRMC,214235,A,3946.9580,N,08404.9808,W,0.0000,0.000,161117,,*30
2017-11-16 16:42:36 1510868556.515530: $GPGSA,A,3,1,10,11,12,14,18,24,25,31,32,138,,1.6,0.8,1.3*38
2017-11-16 16:42:37 1510868557.438583: $GPZDA,214236.00,16,11,2017,00,00*65
2017-11-16 16:42:37 1510868557.438752: $GPGGA,214236,3946.9580,N,08404.9808,W,2,11,0.80,307.10,M,-33.324,M,,*7B
2017-11-16 16:42:37 1510868557.438815: $GPRMC,214236,A,3946.9580,N,08404.9808,W,0.0000,0.000,161117,,*33
2017-11-16 16:42:37 1510868557.438870: $GPGSA,A,3,1,10,11,12,14,18,24,25,31,32,138,,1.6,0.8,1.3*38
2017-11-16 16:42:38 1510868558.769436: $GPGSV,3,1,11,01,12,321,41,10,73,127,47,11,10,303,37,12,25,075,48*71
2017-11-16 16:42:38 1510868558.769576: $GPGSV,3,2,11,14,53,288,42,18,40,133,46,24,16,045,48,25,28,117,44*77
2017-11-16 16:42:38 1510868558.769638: $GPGSV,3,3,11,31,31,211,45,32,67,321,50,138,38,213,44*7E
