2018-01-11 20:09:05 1515719345.006119: {"class":"VERSION","release":"3.16","rev":"3.16-4","proto_major":3,"proto_minor":11}
2018-01-11 20:09:05 1515719345.006473: {"class":"DEVICES","devices":[{"class":"DEVICE","path":"/dev/ttyUSB0","driver":"SiRF","subtype":"9\u0006GSD4e_4.1.2-P1_RPATCH.05-F-GPS-4R-1510281 11/03/2015 307","activated":"2018-01-12T01:09:04.694Z","flags":1,"native":1,"bps":4800,"parity":"N","stopbits":1,"cycle":1.00}]}
2018-01-11 20:09:05 1515719345.006592: {"class":"WATCH","enable":true,"json":false,"nmea":true,"raw":0,"scaled":false,"timing":false,"split24":false,"pps":false}
2018-01-11 20:09:05 1515719345.715502: $GPGSV,3,1,10,07,55,315,43,08,73,135,46,09,48,231,43,11,19,168,47*72
2018-01-11 20:09:05 1515719345.715671: $GPGSV,3,2,10,16,24,060,46,23,30,190,47,27,48,054,48,28,13,258,39*7C
2018-01-11 20:09:05 1515719345.715738: $GPGSV,3,3,10,30,28,306,34,138,38,213,45*43
2018-01-11 20:09:05 1515719345.828861: $GPZDA,010906.00,12,01,2018,00,00*61
2018-01-11 20:09:05 1515719345.829002: $GPGGA,010906,3946.9581,N,08404.9862,W,2,10,0.80,303.66,M,-33.324,M,,*7C
2018-01-11 20:09:05 1515719345.829120: $GPRMC,010906,A,3946.9581,N,08404.9862,W,0.0000,0.000,120118,,*3A
2018-01-11 20:09:05 1515719345.829183: $GPGSA,A,3,7,8,9,11,16,23,27,28,30,138,,,4.0,0.8,3.5*3E
2018-01-11 20:09:06 1515719346.379827: $GPZDA,010907.00,12,01,2018,00,00*60
2018-01-11 20:09:06 1515719346.379997: $GPGGA,010907,3946.9581,N,08404.9862,W,2,10,0.80,303.66,M,-33.324,M,,*7D
2018-01-11 20:09:06 1515719346.380064: $GPRMC,010907,A,3946.9581,N,08404.9862,W,0.0000,0.000,120118,,*3B
2018-01-11 20:09:06 1515719346.380126: $GPGSA,A,3,7,8,9,11,16,23,27,28,30,138,,,4.0,0.8,3.5*3E
2018-01-11 20:09:07 1515719347.363137: $GPZDA,010908.00,12,01,2018,00,00*6F
2018-01-11 20:09:07 1515719347.363306: $GPGGA,010908,3946.9581,N,08404.9862,W,2,10,0.80,303.66,M,-33.324,M,,*72
2018-01-11 20:09:07 1515719347.363377: $GPRMC,010908,A,3946.9581,N,08404.9862,W,0.0000,0.000,120118,,*34
2018-01-11 20:09:07 1515719347.363438: $GPGSA,A,3,7,8,9,11,16,23,27,28,30,138,,,4.0,0.8,3.5*3E
2018-01-11 20:09:08 1515719348.715037: $GPGSV,3,1,10,07,55,315,43,08,73,135,46,09,48,231,43,11,19,168,47*72
2018-01-11 20:09:08 1515719348.715193: $GPGSV,3,2,10,16,24,060,46,23,30,190,47,27,48,054,48,28,13,258,39*7C
2018-01-11 20:09:08 1515719348.715263: $GPGSV,3,3,10,30,28,306,34,138,38,213,45*43
2018-01-11 20:09:08 1515719348.828500: $GPZDA,010909.00,12,01,2018,00,00*6E
2018-01-11 20:09:08 1515719348.828629: $GPGGA,010909,3946.9581,N,08404.9862,W,2,10,0.80,303.66,M,-33.324,M,,*73
2018-01-11 20:09:08 1515719348.828693: $GPRMC,010909,A,3946.9581,N,08404.9862,W,0.0000,0.000,120118,,*35
2018-01-11 20:09:08 1515719348.828755: $GPGSA,A,3,7,8,9,11,16,23,27,28,30,138,,,4.0,0.8,3.5*3E
2018-01-11 20:09:09 1515719349.364717: $GPZDA,010910.00,12,01,2018,00,00*66
2018-01-11 20:09:09 1515719349.364897: $GPGGA,010910,3946.9581,N,08404.9862,W,2,10,0.80,303.66,M,-33.324,M,,*7B
2018-01-11 20:09:09 1515719349.364964: $GPRMC,010910,A,3946.9581,N,08404.9862,W,0.0000,0.000,120118,,*3D
2018-01-11 20:09:09 1515719349.365025: $GPGSA,A,3,7,8,9,11,16,23,27,28,30,138,,,4.0,0.8,3.5*3E
2018-01-11 20:09:10 1515719350.380061: $GPZDA,010911.00,12,01,2018,00,00*67
2018-01-11 20:09:10 1515719350.380228: $GPGGA,010911,3946.9581,N,08404.9862,W,2,10,0.80,303.66,M,-33.324,M,,*7A
2018-01-11 20:09:10 1515719350.380296: $GPRMC,010911,A,3946.9581,N,08404.9862,W,0.0000,0.000,120118,,*3C
2018-01-11 20:09:10 1515719350.380361: $GPGSA,A,3,7,8,9,11,16,23,27,28,30,138,,,4.0,0.8,3.5*3E
2018-01-11 20:09:11 1515719351.714136: $GPGSV,3,1,10,07,55,315,43,08,73,135,46,09,48,231,43,11,19,168,47*72
2018-01-11 20:09:11 1515719351.714305: $GPGSV,3,2,10,16,24,060,46,23,30,190,47,27,48,054,49,28,13,258,39*7D
2018-01-11 20:09:11 1515719351.714377: $GPGSV,3,3,10,30,28,306,34,138,38,213,44*42
2018-01-11 20:09:11 1515719351.827859: $GPZDA,010912.00,12,01,2018,00,00*64
2018-01-11 20:09:11 1515719351.827994: $GPGGA,010912,3946.9581,N,08404.9862,W,2,10,0.80,303.66,M,-33.324,M,,*79
2018-01-11 20:09:11 1515719351.828059: $GPRMC,010912,A,3946.9581,N,08404.9862,W,0.0000,0.000,120118,,*3F
2018-01-11 20:09:11 1515719351.828168: $GPGSA,A,3,7,8,9,11,16,23,27,28,30,138,,,4.0,0.8,3.5*3E
2018-01-11 20:09:12 1515719352.363789: $GPZDA,010913.00,12,01,2018,00,00*65
2018-01-11 20:09:12 1515719352.363948: $GPGGA,010913,3946.9581,N,08404.9862,W,2,10,0.80,303.66,M,-33.324,M,,*78
2018-01-11 20:09:12 1515719352.364013: $GPRMC,010913,A,3946.9581,N,08404.9862,W,0.0000,0.000,120118,,*3E
2018-01-11 20:09:12 1515719352.364075: $GPGSA,A,3,7,8,9,11,16,23,27,28,30,138,,,4.0,0.8,3.5*3E
2018-01-11 20:09:13 1515719353.382027: $GPZDA,010914.00,12,01,2018,00,00*62
2018-01-11 20:09:13 1515719353.382191: $GPGGA,010914,3946.9581,N,08404.9862,W,2,10,0.80,303.66,M,-33.324,M,,*7F
2018-01-11 20:09:13 1515719353.382261: $GPRMC,010914,A,3946.9581,N,08404.9862,W,0.0000,0.000,120118,,*39
2018-01-11 20:09:13 1515719353.382325: $GPGSA,A,3,7,8,9,11,16,23,27,28,30,138,,,4.0,0.8,3.5*3E
2018-01-11 20:09:14 1515719354.699987: $GPGSV,3,1,10,07,55,315,44,08,73,135,46,09,48,231,44,11,19,168,47*72
2018-01-11 20:09:14 1515719354.700181: $GPGSV,3,2,10,16,24,060,46,23,30,190,47,27,48,054,49,28,13,258,39*7D
2018-01-11 20:09:14 1515719354.700250: $GPGSV,3,3,10,30,28,306,34,138,38,213,45*43
2018-01-11 20:09:14 1515719354.813607: $GPZDA,010915.00,12,01,2018,00,00*63
2018-01-11 20:09:14 1515719354.813740: $GPGGA,010915,3946.9581,N,08404.9862,W,2,10,0.80,303.66,M,-33.324,M,,*7E
2018-01-11 20:09:14 1515719354.813806: $GPRMC,010915,A,3946.9581,N,08404.9862,W,0.0000,0.000,120118,,*38
2018-01-11 20:09:14 1515719354.813866: $GPGSA,A,3,7,8,9,11,16,23,27,28,30,138,,,4.0,0.8,3.5*3E
2018-01-11 20:09:15 1515719355.438997: $GPZDA,010916.00,12,01,2018,00,00*60
2018-01-11 20:09:15 1515719355.439223: $GPGGA,010916,3946.9581,N,08404.9862,W,2,10,0.80,303.66,M,-33.324,M,,*7D
2018-01-11 20:09:15 1515719355.439292: $GPRMC,010916,A,3946.9581,N,08404.9862,W,0.0000,0.000,120118,,*3B
2018-01-11 20:09:15 1515719355.439354: $GPGSA,A,3,7,8,9,11,16,23,27,28,30,138,,,4.0,0.8,3.5*3E
