2018-01-12 05:03:07 1515751387.155230: {"class":"VERSION","release":"3.16","rev":"3.16-4","proto_major":3,"proto_minor":11}
2018-01-12 05:03:07 1515751387.155608: {"class":"DEVICES","devices":[{"class":"DEVICE","path":"/dev/ttyUSB0","driver":"SiRF","subtype":"9\u0006GSD4e_4.1.2-P1_RPATCH.05-F-GPS-4R-1510281 11/03/2015 307","activated":"2018-01-12T10:03:06.927Z","flags":1,"native":1,"bps":4800,"parity":"N","stopbits":1,"cycle":1.00}]}
2018-01-12 05:03:07 1515751387.155724: {"class":"WATCH","enable":true,"json":false,"nmea":true,"raw":0,"scaled":false,"timing":false,"split24":false,"pps":false}
2018-01-12 05:03:07 1515751387.339090: $GPZDA,100308.00,12,01,2018,00,00*65
2018-01-12 05:03:07 1515751387.339309: $GPGGA,100308,3946.9653,N,08404.9771,W,2,11,0.80,303.37,M,-33.324,M,,*7C
2018-01-12 05:03:07 1515751387.339392: $GPRMC,100308,A,3946.9653,N,08404.9771,W,0.0000,0.000,120118,,*3F
2018-01-12 05:03:07 1515751387.339455: $GPGSA,A,3,2,5,12,20,25,29,6,9,13,19,138,,2.4,0.8,2.1*0A
2018-01-12 05:03:08 1515751388.339827: $GPZDA,100309.00,12,01,2018,00,00*64
2018-01-12 05:03:08 1515751388.339986: $GPGGA,100309,3946.9653,N,08404.9771,W,2,11,0.80,303.37,M,-33.324,M,,*7D
2018-01-12 05:03:08 1515751388.340054: $GPRMC,100309,A,3946.9653,N,08404.9771,W,0.0000,0.000,120118,,*3E
2018-01-12 05:03:08 1515751388.340115: $GPGSA,A,3,2,5,12,20,25,29,6,9,13,19,138,,2.4,0.8,2.1*0A
2018-01-12 05:03:09 1515751389.678047: $GPGSV,3,1,12,02,66,036,45,05,71,204,50,12,39,228,50,20,16,225,40*7E
2018-01-12 05:03:09 1515751389.678246: $GPGSV,3,2,12,25,36,279,40,29,27,312,48,06,33,070,19,09,17,049,23*79
2018-01-12 05:03:09 1515751389.678313: $GPGSV,3,3,12,13,04,163,23,19,17,127,18,04,66,318,00,138,38,213,48*49
2018-01-12 05:03:09 1515751389.791387: $GPZDA,100310.00,12,01,2018,00,00*6C
2018-01-12 05:03:09 1515751389.791515: $GPGGA,100310,3946.9653,N,08404.9771,W,2,11,0.80,303.37,M,-33.324,M,,*75
2018-01-12 05:03:09 1515751389.791581: $GPRMC,100310,A,3946.9653,N,08404.9771,W,0.0000,0.000,120118,,*36
2018-01-12 05:03:09 1515751389.791641: $GPGSA,A,3,2,5,12,20,25,29,6,9,13,19,138,,2.4,0.8,2.1*0A
2018-01-12 05:03:10 1515751390.344484: $GPZDA,100311.00,12,01,2018,00,00*6D
2018-01-12 05:03:10 1515751390.344674: $GPGGA,100311,3946.9649,N,08404.9772,W,2,11,0.80,304.13,M,-33.324,M,,*7D
2018-01-12 05:03:10 1515751390.344810: $GPRMC,100311,A,3946.9649,N,08404.9772,W,0.0000,0.000,120118,,*3F
2018-01-12 05:03:10 1515751390.344891: $GPGSA,A,3,2,5,12,20,25,29,6,9,13,19,138,,2.4,0.8,2.1*0A
2018-01-12 05:03:11 1515751391.340176: $GPZDA,100312.00,12,01,2018,00,00*6E
2018-01-12 05:03:11 1515751391.344666: $GPGGA,100312,3946.9649,N,08404.9772,W,2,11,0.80,304.13,M,-33.324,M,,*7E
2018-01-12 05:03:11 1515751391.344773: $GPRMC,100312,A,3946.9649,N,08404.9772,W,0.0000,0.000,120118,,*3C
2018-01-12 05:03:11 1515751391.344837: $GPGSA,A,3,2,5,12,20,25,29,6,9,13,19,138,,2.4,0.8,2.1*0A
2018-01-12 05:03:12 1515751392.677158: $GPGSV,3,1,12,02,66,036,45,05,71,204,50,12,39,228,50,20,16,225,40*7E
2018-01-12 05:03:12 1515751392.677344: $GPGSV,3,2,12,25,36,279,40,29,27,312,47,06,33,070,18,09,17,049,22*76
2018-01-12 05:03:12 1515751392.677411: $GPGSV,3,3,12,13,04,163,23,19,17,127,18,04,66,318,00,138,38,213,46*47
2018-01-12 05:03:12 1515751392.790696: $GPZDA,100313.00,12,01,2018,00,00*6F
2018-01-12 05:03:12 1515751392.790884: $GPGGA,100313,3946.9649,N,08404.9772,W,2,11,0.80,304.13,M,-33.324,M,,*7F
2018-01-12 05:03:12 1515751392.790950: $GPRMC,100313,A,3946.9649,N,08404.9772,W,0.0000,0.000,120118,,*3D
2018-01-12 05:03:12 1515751392.791012: $GPGSA,A,3,2,5,12,20,25,29,6,9,13,19,138,,2.4,0.8,2.1*0A
2018-01-12 05:03:13 1515751393.341991: $GPZDA,100314.00,12,01,2018,00,00*68
2018-01-12 05:03:13 1515751393.342151: $GPGGA,100314,3946.9649,N,08404.9772,W,2,11,0.80,304.13,M,-33.324,M,,*78
2018-01-12 05:03:13 1515751393.342239: $GPRMC,100314,A,3946.9649,N,08404.9772,W,0.0000,0.000,120118,,*3A
2018-01-12 05:03:13 1515751393.342301: $GPGSA,A,3,2,5,12,20,25,29,6,9,13,19,138,,2.4,0.8,2.1*0A
2018-01-12 05:03:14 1515751394.341344: $GPZDA,100315.00,12,01,2018,00,00*69
2018-01-12 05:03:14 1515751394.341514: $GPGGA,100315,3946.9649,N,08404.9772,W,2,11,0.80,304.13,M,-33.324,M,,*79
2018-01-12 05:03:14 1515751394.341635: $GPRMC,100315,A,3946.9649,N,08404.9772,W,0.0000,0.000,120118,,*3B
2018-01-12 05:03:14 1515751394.341698: $GPGSA,A,3,2,5,12,20,25,29,6,9,13,19,138,,2.4,0.8,2.1*0A
2018-01-12 05:03:15 1515751395.676770: $GPGSV,3,1,12,02,66,036,45,05,71,204,50,12,39,228,50,20,16,225,41*7F
2018-01-12 05:03:15 1515751395.676949: $GPGSV,3,2,12,25,36,279,40,29,27,312,48,06,33,070,19,09,17,049,23*79
2018-01-12 05:03:15 1515751395.677015: $GPGSV,3,3,12,13,04,163,23,19,17,127,17,04,66,318,00,138,38,213,47*49
2018-01-12 05:03:15 1515751395.790242: $GPZDA,100316.00,12,01,2018,00,00*6A
2018-01-12 05:03:15 1515751395.790541: $GPGGA,100316,3946.9649,N,08404.9772,W,2,11,0.80,304.13,M,-33.324,M,,*7A
2018-01-12 05:03:15 1515751395.790665: $GPRMC,100316,A,3946.9649,N,08404.9772,W,0.0000,0.000,120118,,*38
2018-01-12 05:03:15 1515751395.790787: $GPGSA,A,3,2,5,12,20,25,29,6,9,13,19,138,,2.4,0.8,2.1*0A
2018-01-12 05:03:16 1515751396.415565: $GPZDA,100317.00,12,01,2018,00,00*6B
2018-01-12 05:03:16 1515751396.420634: $GPGGA,100317,3946.9649,N,08404.9772,W,2,11,0.80,304.13,M,-33.324,M,,*7B
2018-01-12 05:03:16 1515751396.420744: $GPRMC,100317,A,3946.9649,N,08404.9772,W,0.0000,0.000,120118,,*39
2018-01-12 05:03:16 1515751396.420809: $GPGSA,A,3,2,5,12,20,25,29,6,9,13,19,138,,2.4,0.8,2.1*0A
2018-01-12 05:03:17 1515751397.342625: $GPZDA,100318.00,12,01,2018,00,00*64
2018-01-12 05:03:17 1515751397.342796: $GPGGA,100318,3946.9649,N,08404.9772,W,2,11,0.80,304.13,M,-33.324,M,,*74
2018-01-12 05:03:17 1515751397.342862: $GPRMC,100318,A,3946.9649,N,08404.9772,W,0.0000,0.000,120118,,*36
2018-01-12 05:03:17 1515751397.342923: $GPGSA,A,3,2,5,12,20,25,29,6,9,13,19,138,,2.4,0.8,2.1*0A
2018-01-12 05:03:18 1515751398.678389: $GPGSV,3,1,12,02,66,036,45,05,71,204,50,12,39,228,50,20,16,225,41*7F
2018-01-12 05:03:18 1515751398.678547: $GPGSV,3,2,12,25,36,279,40,29,27,312,48,06,33,070,20,09,17,049,23*73
2018-01-12 05:03:18 1515751398.678614: $GPGSV,3,3,12,13,04,163,23,19,17,127,18,04,66,318,00,138,38,213,46*47
2018-01-12 05:03:18 1515751398.791833: $GPZDA,100319.00,12,01,2018,00,00*65
2018-01-12 05:03:18 1515751398.792188: $GPGGA,100319,3946.9649,N,08404.9772,W,2,11,1.00,304.13,M,-33.324,M,,*7C
2018-01-12 05:03:18 1515751398.792318: $GPRMC,100319,A,3946.9649,N,08404.9772,W,0.0000,0.000,120118,,*37
2018-01-12 05:03:18 1515751398.792421: $GPGSA,A,3,2,5,12,20,25,29,6,9,13,19,138,,2.4,1.0,2.1*03
2018-01-12 05:03:19 1515751399.346429: $GPZDA,100320.00,12,01,2018,00,00*6F
2018-01-12 05:03:19 1515751399.346597: $GPGGA,100320,3946.9646,N,08404.9773,W,2,11,1.40,304.89,M,-33.324,M,,*7F
2018-01-12 05:03:19 1515751399.346662: $GPRMC,100320,A,3946.9646,N,08404.9773,W,0.3423,184.197,120118,,*37
2018-01-12 05:03:19 1515751399.346724: $GPGSA,A,3,2,5,12,20,25,29,6,9,13,19,138,,2.4,1.4,2.1*07
2018-01-12 05:03:21 1515751401.053741: $GPZDA,100321.00,12,01,2018,00,00*6E
2018-01-12 05:03:21 1515751401.053898: $GPGGA,100321,3946.9646,N,08404.9773,W,2,11,1.40,304.89,M,-33.324,M,,*7E
2018-01-12 05:03:21 1515751401.053965: $GPRMC,100321,A,3946.9646,N,08404.9773,W,0.0000,0.000,120118,,*32
2018-01-12 05:03:21 1515751401.054026: $GPGSA,A,3,2,5,12,20,25,29,6,9,13,19,138,,2.4,1.4,2.1*07
2018-01-12 05:03:22 1515751402.175449: $GPGSV,3,1,12,02,66,036,45,05,71,204,50,12,39,228,49,20,16,225,42*74
2018-01-12 05:03:22 1515751402.175628: $GPGSV,3,2,12,25,36,279,39,29,27,312,48,06,33,070,20,09,17,049,22*7C
2018-01-12 05:03:22 1515751402.175693: $GPGSV,3,3,12,13,04,163,23,19,16,127,18,04,67,318,00,138,38,213,46*47
2018-01-12 05:03:22 1515751402.289542: $GPZDA,100322.00,12,01,2018,00,00*6D
2018-01-12 05:03:22 1515751402.289747: $GPGGA,100322,3946.9650,N,08404.9773,W,2,11,1.00,305.53,M,-33.324,M,,*78
2018-01-12 05:03:22 1515751402.289951: $GPRMC,100322,A,3946.9650,N,08404.9773,W,0.2422,93.794,120118,,*00
2018-01-12 05:03:22 1515751402.290016: $GPGSA,A,3,2,5,12,20,25,29,6,9,13,19,138,,2.4,1.0,2.1*03
2018-01-12 05:03:22 1515751402.741042: $GPZDA,100323.00,12,01,2018,00,00*6C
2018-01-12 05:03:22 1515751402.741299: $GPGGA,100323,3946.9650,N,08404.9773,W,2,11,1.00,305.53,M,-33.324,M,,*79
2018-01-12 05:03:22 1515751402.741370: $GPRMC,100323,A,3946.9650,N,08404.9773,W,0.0000,0.000,120118,,*37
2018-01-12 05:03:22 1515751402.741432: $GPGSA,A,3,2,5,12,20,25,29,6,9,13,19,138,,2.4,1.0,2.1*03
2018-01-12 05:03:23 1515751403.343160: $GPZDA,100324.00,12,01,2018,00,00*6B
2018-01-12 05:03:23 1515751403.343346: $GPGGA,100324,3946.9650,N,08404.9780,W,2,11,1.00,305.46,M,-33.324,M,,*76
2018-01-12 05:03:23 1515751403.343414: $GPRMC,100324,A,3946.9650,N,08404.9780,W,0.0000,0.000,120118,,*3C
2018-01-12 05:03:23 1515751403.343566: $GPGSA,A,3,2,5,12,20,25,29,6,9,13,19,138,,2.4,1.0,2.1*03
2018-01-12 05:03:24 1515751404.674869: $GPGSV,3,1,12,02,66,036,45,05,71,204,50,12,39,228,49,20,16,225,42*74
2018-01-12 05:03:24 1515751404.675049: $GPGSV,3,2,12,25,36,279,39,29,27,312,48,06,33,070,20,09,17,049,22*7C
2018-01-12 05:03:24 1515751404.675116: $GPGSV,3,3,12,13,04,163,22,19,16,127,18,04,67,318,00,138,38,213,47*47
2018-01-12 05:03:24 1515751404.788315: $GPZDA,100325.00,12,01,2018,00,00*6A
2018-01-12 05:03:24 1515751404.788492: $GPGGA,100325,3946.9647,N,08404.9781,W,2,11,1.00,306.22,M,-33.324,M,,*71
2018-01-12 05:03:24 1515751404.788562: $GPRMC,100325,A,3946.9647,N,08404.9781,W,0.0000,0.000,120118,,*3A
2018-01-12 05:03:24 1515751404.788623: $GPGSA,A,3,2,5,12,20,25,29,6,9,13,19,138,,2.4,1.0,2.1*03
2018-01-12 05:03:25 1515751405.341614: $GPZDA,100326.00,12,01,2018,00,00*69
2018-01-12 05:03:25 1515751405.341805: $GPGGA,100326,3946.9647,N,08404.9781,W,2,11,1.00,306.22,M,-33.324,M,,*72
2018-01-12 05:03:25 1515751405.341872: $GPRMC,100326,A,3946.9647,N,08404.9781,W,0.0000,0.000,120118,,*39
2018-01-12 05:03:25 1515751405.341934: $GPGSA,A,3,2,5,12,20,25,29,6,9,13,19,138,,2.4,1.0,2.1*03
2018-01-12 05:03:26 1515751406.339726: $GPZDA,100327.00,12,01,2018,00,00*68
2018-01-12 05:03:26 1515751406.339893: $GPGGA,100327,3946.9647,N,08404.9781,W,2,11,1.00,306.22,M,-33.324,M,,*73
2018-01-12 05:03:26 1515751406.339959: $GPRMC,100327,A,3946.9647,N,08404.9781,W,0.0000,0.000,120118,,*38
2018-01-12 05:03:26 1515751406.340021: $GPGSA,A,3,2,5,12,20,25,29,6,9,13,19,138,,2.4,1.0,2.1*03
