2017-12-31 16:54:21 1514757261.259703: {"class":"VERSION","release":"3.16","rev":"3.16-4","proto_major":3,"proto_minor":11}
2017-12-31 16:54:21 1514757261.260083: {"class":"DEVICES","devices":[{"class":"DEVICE","path":"/dev/ttyUSB0","driver":"SiRF","activated":"2017-12-31T21:54:21.247Z","flags":1,"native":1,"bps":4800,"parity":"N","stopbits":1,"cycle":1.00}]}
2017-12-31 16:54:21 1514757261.260182: {"class":"WATCH","enable":true,"json":false,"nmea":true,"raw":0,"scaled":false,"timing":false,"split24":false,"pps":false}
2017-12-31 16:54:21 1514757261.695630: $GPGSV,3,1,11,22,47,246,42,23,24,306,43,25,05,037,21,03,46,277,39*77
2017-12-31 16:54:21 1514757261.695813: $GPGSV,3,2,11,16,41,190,46,29,14,060,21,31,53,046,51,14,44,109,42*72
2017-12-31 16:54:21 1514757261.695879: $GPGSV,3,3,11,32,22,120,46,26,70,154,43,135,22,240,43*7B
2017-12-31 16:54:21 1514757261.809255: $GPZDA,215422.00,31,12,2017,00,00*61
2017-12-31 16:54:21 1514757261.809372: $GPGGA,215422,3946.9581,N,08404.9855,W,2,11,0.80,303.74,M,-33.324,M,,*76
2017-12-31 16:54:21 1514757261.809437: $GPRMC,215422,A,3946.9581,N,08404.9855,W,0.0000,0.000,311217,,*3E
2017-12-31 16:54:21 1514757261.809498: $GPGSA,A,3,22,23,25,3,16,29,31,14,32,26,135,,1.7,0.8,1.3*32
2017-12-31 16:54:22 1514757262.343947: $GPZDA,215423.00,31,12,2017,00,00*60
2017-12-31 16:54:22 1514757262.344094: $GPGGA,215423,3946.9581,N,08404.9855,W,2,11,0.80,303.74,M,-33.324,M,,*77
2017-12-31 16:54:22 1514757262.344160: $GPRMC,215423,A,3946.9581,N,08404.9855,W,0.0000,0.000,311217,,*3F
2017-12-31 16:54:22 1514757262.344221: $GPGSA,A,3,22,23,25,3,16,29,31,14,32,26,135,,1.7,0.8,1.3*32
2017-12-31 16:54:23 1514757263.343505: $GPZDA,215424.00,31,12,2017,00,00*67
2017-12-31 16:54:23 1514757263.343678: $GPGGA,215424,3946.9581,N,08404.9855,W,2,11,0.80,303.74,M,-33.324,M,,*70
2017-12-31 16:54:23 1514757263.343745: $GPRMC,215424,A,3946.9581,N,08404.9855,W,0.0000,0.000,311217,,*38
2017-12-31 16:54:23 1514757263.343805: $GPGSA,A,3,22,23,25,3,16,29,31,14,32,26,135,,1.7,0.8,1.3*32
2017-12-31 16:54:24 1514757264.695239: $GPGSV,3,1,11,22,47,246,42,23,24,306,42,25,05,037,20,03,46,277,38*76
2017-12-31 16:54:24 1514757264.695430: $GPGSV,3,2,11,16,41,190,46,29,14,060,22,31,53,046,51,14,44,109,42*71
2017-12-31 16:54:24 1514757264.695498: $GPGSV,3,3,11,32,22,120,46,26,70,154,43,135,22,240,43*7B
2017-12-31 16:54:24 1514757264.808843: $GPZDA,215425.00,31,12,2017,00,00*66
2017-12-31 16:54:24 1514757264.808979: $GPGGA,215425,3946.9581,N,08404.9855,W,2,11,0.80,303.74,M,-33.324,M,,*71
2017-12-31 16:54:24 1514757264.809044: $GPRMC,215425,A,3946.9581,N,08404.9855,W,0.0000,0.000,311217,,*39
2017-12-31 16:54:24 1514757264.809105: $GPGSA,A,3,22,23,25,3,16,29,31,14,32,26,135,,1.7,0.8,1.3*32
2017-12-31 16:54:25 1514757265.434044: $GPZDA,215426.00,31,12,2017,00,00*65
2017-12-31 16:54:25 1514757265.434222: $GPGGA,215426,3946.9581,N,08404.9855,W,2,11,0.80,303.74,M,-33.324,M,,*72
2017-12-31 16:54:25 1514757265.434291: $GPRMC,215426,A,3946.9581,N,08404.9855,W,0.0000,0.000,311217,,*3A
2017-12-31 16:54:25 1514757265.434352: $GPGSA,A,3,22,23,25,3,16,29,31,14,32,26,135,,1.7,0.8,1.3*32
2017-12-31 16:54:26 1514757266.336150: $GPZDA,215427.00,31,12,2017,00,00*64
2017-12-31 16:54:26 1514757266.336326: $GPGGA,215427,3946.9581,N,08404.9855,W,2,11,0.80,303.74,M,-33.324,M,,*73
2017-12-31 16:54:26 1514757266.336395: $GPRMC,215427,A,3946.9581,N,08404.9855,W,0.0000,0.000,311217,,*3B
2017-12-31 16:54:26 1514757266.336456: $GPGSA,A,3,22,23,25,3,16,29,31,14,32,26,135,,1.7,0.8,1.3*32
2017-12-31 16:54:27 1514757267.695634: $GPGSV,3,1,11,22,47,246,42,23,24,306,43,25,05,037,21,03,46,277,39*77
2017-12-31 16:54:27 1514757267.695803: $GPGSV,3,2,11,16,41,190,46,29,14,060,22,31,53,046,51,14,44,109,42*71
2017-12-31 16:54:27 1514757267.695870: $GPGSV,3,3,11,32,22,120,46,26,70,154,43,135,22,240,43*7B
2017-12-31 16:54:27 1514757267.808966: $GPZDA,215428.00,31,12,2017,00,00*6B
2017-12-31 16:54:27 1514757267.809109: $GPGGA,215428,3946.9581,N,08404.9855,W,2,11,0.80,303.74,M,-33.324,M,,*7C
2017-12-31 16:54:27 1514757267.809176: $GPRMC,215428,A,3946.9581,N,08404.9855,W,0.0000,0.000,311217,,*34
2017-12-31 16:54:27 1514757267.809288: $GPGSA,A,3,22,23,25,3,16,29,31,14,32,26,135,,1.7,0.8,1.3*32
2017-12-31 16:54:28 1514757268.343845: $GPZDA,215429.00,31,12,2017,00,00*6A
2017-12-31 16:54:28 1514757268.344011: $GPGGA,215429,3946.9581,N,08404.9855,W,2,11,0.80,303.74,M,-33.324,M,,*7D
2017-12-31 16:54:28 1514757268.344077: $GPRMC,215429,A,3946.9581,N,08404.9855,W,0.0000,0.000,311217,,*35
2017-12-31 16:54:28 1514757268.344138: $GPGSA,A,3,22,23,25,3,16,29,31,14,32,26,135,,1.7,0.8,1.3*32
2017-12-31 16:54:29 1514757269.344415: $GPZDA,215430.00,31,12,2017,00,00*62
2017-12-31 16:54:29 1514757269.344589: $GPGGA,215430,3946.9581,N,08404.9855,W,2,11,0.80,303.74,M,-33.324,M,,*75
2017-12-31 16:54:29 1514757269.344656: $GPRMC,215430,A,3946.9581,N,08404.9855,W,0.0000,0.000,311217,,*3D
2017-12-31 16:54:29 1514757269.344717: $GPGSA,A,3,22,23,25,3,16,29,31,14,32,26,135,,1.7,0.8,1.3*32
2017-12-31 16:54:30 1514757270.695939: $GPGSV,3,1,11,22,47,246,42,23,24,306,43,25,05,037,20,03,46,277,38*77
2017-12-31 16:54:30 1514757270.696100: $GPGSV,3,2,11,16,41,190,45,29,14,060,22,31,53,046,51,14,44,109,42*72
2017-12-31 16:54:30 1514757270.696165: $GPGSV,3,3,11,32,22,120,46,26,70,154,43,135,22,240,43*7B
2017-12-31 16:54:30 1514757270.809352: $GPZDA,215431.00,31,12,2017,00,00*63
2017-12-31 16:54:30 1514757270.809467: $GPGGA,215431,3946.9581,N,08404.9855,W,2,11,0.80,303.74,M,-33.324,M,,*74
2017-12-31 16:54:30 1514757270.809530: $GPRMC,215431,A,3946.9581,N,08404.9855,W,0.0000,0.000,311217,,*3C
2017-12-31 16:54:30 1514757270.809590: $GPGSA,A,3,22,23,25,3,16,29,31,14,32,26,135,,1.7,0.8,1.3*32
