2017-11-15 18:46:30 1510789590.727994: {"class":"VERSION","release":"3.17","rev":"3.17","proto_major":3,"proto_minor":12}
2017-11-15 18:46:30 1510789590.728839: {"class":"DEVICES","devices":[{"class":"DEVICE","path":"/dev/ttyUSB0","driver":"SiRF","subtype":"9\u0006GSD4e_4.1.2-P1_RPATCH.05-F-GPS-4R-1510281 11/03/2015 307","activated":"2017-11-15T23:46:30.709Z","flags":1,"native":1,"bps":4800,"parity":"N","stopbits":1,"cycle":1.00}]}
2017-11-15 18:46:30 1510789590.729230: {"class":"WATCH","enable":true,"json":false,"nmea":true,"raw":0,"scaled":false,"timing":false,"split24":false,"pps":false}
2017-11-15 18:46:30 1510789590.823074: $GPZDA,234629.00,15,11,2017,00,00*6E
2017-11-15 18:46:30 1510789590.823236: $GPGGA,234629,3946.9455,N,08404.9759,W,1,10,1.00,325.46,M,-33.324,M,,*79
2017-11-15 18:46:30 1510789590.823300: $GPRMC,234629,A,3946.9455,N,08404.9759,W,0.1867,0.000,151117,,*32
2017-11-15 18:46:30 1510789590.823356: $GPGSA,A,3,1,14,32,31,26,25,10,12,22,29,,,3.4,1.0,2.9*02
2017-11-15 18:46:31 1510789591.448281: $GPZDA,234630.00,15,11,2017,00,00*66
2017-11-15 18:46:31 1510789591.448462: $GPGGA,234630,3946.9455,N,08404.9759,W,1,10,1.00,325.46,M,-33.324,M,,*71
2017-11-15 18:46:31 1510789591.448528: $GPRMC,234630,A,3946.9455,N,08404.9759,W,0.4844,273.794,151117,,*32
2017-11-15 18:46:31 1510789591.448584: $GPGSA,A,3,1,14,32,31,26,25,10,12,22,29,,,3.4,1.0,2.9*02
2017-11-15 18:46:32 1510789592.330511: $GPZDA,234631.00,15,11,2017,00,00*67
2017-11-15 18:46:32 1510789592.330658: $GPGGA,234631,3946.9455,N,08404.9759,W,1,10,1.00,325.46,M,-33.324,M,,*70
2017-11-15 18:46:32 1510789592.330719: $GPRMC,234631,A,3946.9455,N,08404.9759,W,0.5230,256.443,151117,,*35
2017-11-15 18:46:32 1510789592.330777: $GPGSA,A,3,1,14,32,31,26,25,10,12,22,29,,,3.4,1.0,2.9*02
2017-11-15 18:46:33 1510789593.666243: $GPGSV,3,1,12,01,16,268,13,14,67,055,07,16,03,190,16,32,51,087,17*74
2017-11-15 18:46:33 1510789593.666421: $GPGSV,3,2,12,31,79,315,25,26,32,177,18,25,32,051,15,10,16,157,12*7A
2017-11-15 18:46:33 1510789593.666483: $GPGSV,3,3,12,03,26,313,11,22,43,297,18,29,02,088,17,120,07,103,00*47
2017-11-15 18:46:33 1510789593.779631: $GPZDA,234632.00,15,11,2017,00,00*64
2017-11-15 18:46:33 1510789593.779809: $GPGGA,234632,3946.9455,N,08404.9766,W,1,09,1.00,325.38,M,-33.324,M,,*7E
2017-11-15 18:46:33 1510789593.779874: $GPRMC,234632,A,3946.9455,N,08404.9766,W,0.8414,219.347,151117,,*3F
2017-11-15 18:46:33 1510789593.779932: $GPGSA,A,3,1,14,32,31,26,25,10,22,29,,,,3.4,1.0,2.9*01
2017-11-15 18:46:34 1510789594.330461: $GPZDA,234633.00,15,11,2017,00,00*65
2017-11-15 18:46:34 1510789594.330629: $GPGGA,234633,3946.9452,N,08404.9766,W,1,09,1.00,326.14,M,-33.324,M,,*75
2017-11-15 18:46:34 1510789594.330689: $GPRMC,234633,A,3946.9452,N,08404.9766,W,0.8414,219.347,151117,,*39
2017-11-15 18:46:34 1510789594.330746: $GPGSA,A,3,1,14,32,31,26,25,10,22,29,,,,3.4,1.0,2.9*01
2017-11-15 18:46:35 1510789595.372539: $GPZDA,234634.00,15,11,2017,00,00*62
2017-11-15 18:46:35 1510789595.372720: $GPGGA,234634,3946.9455,N,08404.9766,W,1,09,1.00,325.38,M,-33.324,M,,*78
2017-11-15 18:46:35 1510789595.372782: $GPRMC,234634,A,3946.9455,N,08404.9766,W,0.3155,309.994,151117,,*36
2017-11-15 18:46:35 1510789595.372837: $GPGSA,A,3,1,14,32,31,26,25,10,22,29,,,,3.4,1.0,2.9*01
2017-11-15 18:46:36 1510789596.712822: $GPGSV,3,1,12,01,16,268,15,14,67,055,08,16,03,190,04,32,51,087,17*7E
2017-11-15 18:46:36 1510789596.712992: $GPGSV,3,2,12,31,79,315,25,26,32,177,19,25,32,051,15,10,16,157,12*7B
2017-11-15 18:46:36 1510789596.713053: $GPGSV,3,3,12,03,26,313,14,22,43,297,17,29,02,088,17,120,07,103,00*4D
2017-11-15 18:46:36 1510789596.826109: $GPZDA,234635.00,15,11,2017,00,00*63
2017-11-15 18:46:36 1510789596.826276: $GPGGA,234635,3946.9455,N,08404.9766,W,1,09,1.00,325.38,M,-33.324,M,,*79
2017-11-15 18:46:36 1510789596.826338: $GPRMC,234635,A,3946.9455,N,08404.9766,W,0.3423,4.197,151117,,*36
2017-11-15 18:46:36 1510789596.826397: $GPGSA,A,3,1,14,32,31,26,25,10,22,29,,,,3.4,1.0,2.9*01
2017-11-15 18:46:37 1510789597.373255: $GPZDA,234636.00,15,11,2017,00,00*60
2017-11-15 18:46:37 1510789597.373431: $GPGGA,234636,3946.9455,N,08404.9766,W,1,09,1.00,325.38,M,-33.324,M,,*7A
2017-11-15 18:46:37 1510789597.373544: $GPRMC,234636,A,3946.9455,N,08404.9766,W,0.1867,180.000,151117,,*39
2017-11-15 18:46:37 1510789597.373602: $GPGSA,A,3,1,14,32,31,26,25,10,22,29,,,,3.4,1.0,2.9*01
2017-11-15 18:46:38 1510789598.330378: $GPZDA,234637.00,15,11,2017,00,00*61
2017-11-15 18:46:38 1510789598.330542: $GPGGA,234637,3946.9452,N,08404.9766,W,1,09,1.00,326.14,M,-33.324,M,,*71
2017-11-15 18:46:38 1510789598.330603: $GPRMC,234637,A,3946.9452,N,08404.9766,W,0.4207,219.347,151117,,*35
2017-11-15 18:46:38 1510789598.330660: $GPGSA,A,3,1,14,32,31,26,25,10,22,29,,,,3.4,1.0,2.9*01
2017-11-15 18:46:39 1510789599.666189: $GPGSV,3,1,12,01,16,268,16,14,67,055,08,12,02,030,09,32,51,087,17*7E
2017-11-15 18:46:39 1510789599.666364: $GPGSV,3,2,12,31,79,315,25,26,32,177,18,25,32,051,15,10,16,157,12*7A
2017-11-15 18:46:39 1510789599.666425: $GPGSV,3,3,12,03,26,313,00,22,43,297,16,29,02,088,17,120,07,103,00*49
2017-11-15 18:46:39 1510789599.779536: $GPZDA,234638.00,15,11,2017,00,00*6E
2017-11-15 18:46:39 1510789599.779700: $GPGGA,234638,3946.9452,N,08404.9766,W,1,10,1.00,326.14,M,-33.324,M,,*76
2017-11-15 18:46:39 1510789599.779762: $GPRMC,234638,A,3946.9452,N,08404.9766,W,0.4207,219.347,151117,,*3A
2017-11-15 18:46:39 1510789599.779817: $GPGSA,A,3,1,14,12,32,31,26,25,10,22,29,,,3.4,1.0,2.9*02
2017-11-15 18:46:40 1510789600.372878: $GPZDA,234639.00,15,11,2017,00,00*6F
2017-11-15 18:46:40 1510789600.376599: $GPGGA,234639,3946.9452,N,08404.9766,W,1,10,1.00,326.14,M,-33.324,M,,*77
2017-11-15 18:46:40 1510789600.376687: $GPRMC,234639,A,3946.9452,N,08404.9766,W,0.7278,203.636,151117,,*38
2017-11-15 18:46:40 1510789600.376810: $GPGSA,A,3,1,14,12,32,31,26,25,10,22,29,,,3.4,1.0,2.9*02
2017-11-15 18:46:41 1510789601.331024: $GPZDA,234640.00,15,11,2017,00,00*61
2017-11-15 18:46:41 1510789601.331192: $GPGGA,234640,3946.9452,N,08404.9766,W,1,10,1.00,326.14,M,-33.324,M,,*79
2017-11-15 18:46:41 1510789601.331256: $GPRMC,234640,A,3946.9452,N,08404.9766,W,0.7278,203.636,151117,,*36
2017-11-15 18:46:41 1510789601.331312: $GPGSA,A,3,1,14,12,32,31,26,25,10,22,29,,,3.4,1.0,2.9*02
2017-11-15 18:46:42 1510789602.666544: $GPGSV,3,1,12,01,16,268,16,14,67,055,08,12,02,030,08,32,51,087,17*7F
2017-11-15 18:46:42 1510789602.666760: $GPGSV,3,2,12,31,79,315,25,26,32,177,18,25,32,051,13,10,16,157,12*7C
2017-11-15 18:46:42 1510789602.666832: $GPGSV,3,3,12,03,26,313,14,22,43,297,15,29,02,088,16,120,07,103,00*4E
2017-11-15 18:46:42 1510789602.780188: $GPZDA,234641.00,15,11,2017,00,00*60
2017-11-15 18:46:42 1510789602.780357: $GPGGA,234641,3946.9452,N,08404.9766,W,1,10,1.00,326.14,M,-33.324,M,,*78
2017-11-15 18:46:42 1510789602.780418: $GPRMC,234641,A,3946.9452,N,08404.9766,W,0.5774,207.515,151117,,*3A
2017-11-15 18:46:42 1510789602.780476: $GPGSA,A,3,1,14,12,32,31,26,25,10,22,29,,,3.4,1.0,2.9*02
2017-11-15 18:46:43 1510789603.373620: $GPZDA,234642.00,15,11,2017,00,00*63
2017-11-15 18:46:43 1510789603.373784: $GPGGA,234642,3946.9448,N,08404.9767,W,1,10,1.00,326.91,M,-33.324,M,,*7C
2017-11-15 18:46:43 1510789603.373846: $GPRMC,234642,A,3946.9448,N,08404.9767,W,0.5951,238.684,151117,,*3D
2017-11-15 18:46:43 1510789603.373902: $GPGSA,A,3,1,14,12,32,31,26,25,10,22,29,,,3.4,1.0,2.9*02
2017-11-15 18:46:44 1510789604.373374: $GPZDA,234643.00,15,11,2017,00,00*62
2017-11-15 18:46:44 1510789604.373551: $GPGGA,234643,3946.9448,N,08404.9767,W,1,10,1.00,326.91,M,-33.324,M,,*7D
2017-11-15 18:46:44 1510789604.373614: $GPRMC,234643,A,3946.9448,N,08404.9767,W,0.7267,273.794,151117,,*3F
2017-11-15 18:46:44 1510789604.373673: $GPGSA,A,3,1,14,12,32,31,26,25,10,22,29,,,3.4,1.0,2.9*02
2017-11-15 18:46:45 1510789605.709946: $GPGSV,3,1,12,01,16,268,15,14,67,055,09,12,02,030,10,32,51,087,17*74
2017-11-15 18:46:45 1510789605.710117: $GPGSV,3,2,12,31,79,315,24,26,32,177,17,25,32,051,13,10,16,157,12*72
2017-11-15 18:46:45 1510789605.710181: $GPGSV,3,3,12,03,26,313,14,22,43,297,07,29,02,088,15,120,07,103,00*4E
2017-11-15 18:46:45 1510789605.823457: $GPZDA,234644.00,15,11,2017,00,00*65
2017-11-15 18:46:45 1510789605.823670: $GPGGA,234644,3946.9448,N,08404.9767,W,1,11,1.00,326.91,M,-33.324,M,,*7B
2017-11-15 18:46:45 1510789605.823735: $GPRMC,234644,A,3946.9448,N,08404.9767,W,0.8054,248.645,151117,,*30
2017-11-15 18:46:45 1510789605.823790: $GPGSA,A,3,1,14,12,32,31,26,25,10,3,22,29,,3.4,1.0,2.9*31
2017-11-15 18:46:46 1510789606.448908: $GPZDA,234645.00,15,11,2017,00,00*64
2017-11-15 18:46:46 1510789606.449069: $GPGGA,234645,3946.9449,N,08404.9774,W,1,11,1.00,326.83,M,-33.324,M,,*7A
2017-11-15 18:46:46 1510789606.449130: $GPRMC,234645,A,3946.9449,N,08404.9774,W,0.7267,273.794,151117,,*3A
2017-11-15 18:46:46 1510789606.449188: $GPGSA,A,3,1,14,12,32,31,26,25,10,3,22,29,,3.4,1.0,2.9*31
2017-11-15 18:46:47 1510789607.331042: $GPZDA,234646.00,15,11,2017,00,00*67
2017-11-15 18:46:47 1510789607.331275: $GPGGA,234646,3946.9449,N,08404.9774,W,1,11,1.00,326.83,M,-33.324,M,,*79
2017-11-15 18:46:47 1510789607.331348: $GPRMC,234646,A,3946.9449,N,08404.9774,W,0.4844,273.794,151117,,*31
2017-11-15 18:46:47 1510789607.331405: $GPGSA,A,3,1,14,12,32,31,26,25,10,3,22,29,,3.4,1.0,2.9*31
2017-11-15 18:46:48 1510789608.666505: $GPGSV,3,1,12,01,16,268,15,14,67,055,11,03,26,313,04,32,51,087,17*7C
2017-11-15 18:46:48 1510789608.666678: $GPGSV,3,2,12,31,79,315,24,26,32,177,17,25,32,051,12,10,16,157,11*70
2017-11-15 18:46:48 1510789608.666801: $GPGSV,3,3,12,16,03,190,14,22,43,297,05,29,02,088,14,133,44,201,00*43
2017-11-15 18:46:48 1510789608.780031: $GPZDA,234647.00,15,11,2017,00,00*66
2017-11-15 18:46:48 1510789608.780194: $GPGGA,234647,3946.9449,N,08404.9774,W,1,08,1.00,326.83,M,-33.324,M,,*70
2017-11-15 18:46:48 1510789608.780260: $GPRMC,234647,A,3946.9449,N,08404.9774,W,0.2422,273.794,151117,,*3A
2017-11-15 18:46:48 1510789608.780321: $GPGSA,A,3,1,14,32,31,26,25,10,29,,,,,3.4,1.0,2.9*01
2017-11-15 18:46:49 1510789609.330710: $GPZDA,234648.00,15,11,2017,00,00*69
2017-11-15 18:46:49 1510789609.330864: $GPGGA,234648,3946.9448,N,08404.9767,W,1,08,1.00,326.91,M,-33.324,M,,*7F
2017-11-15 18:46:49 1510789609.330926: $GPRMC,234648,A,3946.9448,N,08404.9767,W,0.0000,0.000,151117,,*3C
2017-11-15 18:46:49 1510789609.330981: $GPGSA,A,3,1,14,32,31,26,25,10,29,,,,,3.4,1.0,2.9*01
2017-11-15 18:46:50 1510789610.371595: $GPZDA,234649.00,15,11,2017,00,00*68
2017-11-15 18:46:50 1510789610.371761: $GPGGA,234649,3946.9448,N,08404.9767,W,1,08,1.00,326.91,M,-33.324,M,,*7E
2017-11-15 18:46:50 1510789610.371823: $GPRMC,234649,A,3946.9448,N,08404.9767,W,0.7576,81.914,151117,,*0B
2017-11-15 18:46:50 1510789610.371879: $GPGSA,A,3,1,14,32,31,26,25,10,29,,,,,3.4,1.0,2.9*01
2017-11-15 18:46:51 1510789611.665637: $GPGSV,3,1,12,01,16,268,15,14,67,055,12,03,26,313,14,32,51,087,17*7E
2017-11-15 18:46:51 1510789611.665777: $GPGSV,3,2,12,31,79,315,24,26,32,177,17,25,32,051,12,10,16,157,10*71
2017-11-15 18:46:51 1510789611.665836: $GPGSV,3,3,12,12,02,030,09,22,43,297,04,29,02,088,04,133,44,201,00*41
2017-11-15 18:46:51 1510789611.779812: $GPZDA,234650.00,15,11,2017,00,00*60
2017-11-15 18:46:51 1510789611.779983: $GPGGA,234650,3946.9452,N,08404.9760,W,1,08,1.00,327.63,M,-33.324,M,,*76
2017-11-15 18:46:51 1510789611.780053: $GPRMC,234650,A,3946.9452,N,08404.9760,W,1.0298,74.381,151117,,*02
2017-11-15 18:46:51 1510789611.780109: $GPGSA,A,3,1,14,32,31,26,25,10,12,,,,,3.4,1.0,2.9*09
2017-11-15 18:46:52 1510789612.372432: $GPZDA,234651.00,15,11,2017,00,00*61
2017-11-15 18:46:52 1510789612.372595: $GPGGA,234651,3946.9452,N,08404.9753,W,1,08,1.00,327.71,M,-33.324,M,,*74
2017-11-15 18:46:52 1510789612.372656: $GPRMC,234651,A,3946.9452,N,08404.9753,W,0.7267,93.794,151117,,*0C
2017-11-15 18:46:52 1510789612.372712: $GPGSA,A,3,1,14,32,31,26,25,10,12,,,,,3.4,1.0,2.9*09
2017-11-15 18:46:53 1510789613.330711: $GPZDA,234652.00,15,11,2017,00,00*62
2017-11-15 18:46:53 1510789613.330878: $GPGGA,234652,3946.9452,N,08404.9753,W,1,08,1.80,327.71,M,-33.324,M,,*7F
2017-11-15 18:46:53 1510789613.330942: $GPRMC,234652,A,3946.9452,N,08404.9753,W,0.7267,93.794,151117,,*0F
2017-11-15 18:46:53 1510789613.330998: $GPGSA,A,3,1,14,32,31,26,25,10,12,,,,,3.4,1.8,2.9*01
2017-11-15 18:46:54 1510789614.666461: $GPGSV,3,1,12,01,16,268,15,14,67,055,12,16,03,190,07,32,51,087,17*76
2017-11-15 18:46:54 1510789614.666635: $GPGSV,3,2,12,31,79,315,24,26,32,177,16,25,32,051,04,10,16,157,11*76
2017-11-15 18:46:54 1510789614.666754: $GPGSV,3,3,12,12,02,030,08,22,43,297,04,29,02,088,05,133,44,201,00*41
2017-11-15 18:46:54 1510789614.780238: $GPZDA,234653.00,15,11,2017,00,00*63
2017-11-15 18:46:54 1510789614.780432: $GPGGA,234653,3946.9451,N,08404.9746,W,1,07,1.80,327.79,M,-33.324,M,,*7E
2017-11-15 18:46:54 1510789614.780492: $GPRMC,234653,A,3946.9451,N,08404.9746,W,0.7267,93.794,151117,,*09
2017-11-15 18:46:54 1510789614.780549: $GPGSA,A,3,1,14,32,31,26,10,12,,,,,,3.4,1.8,2.9*06
2017-11-15 18:46:55 1510789615.330762: $GPZDA,234654.00,15,11,2017,00,00*64
2017-11-15 18:46:55 1510789615.330923: $GPGGA,234654,3946.9451,N,08404.9739,W,1,07,1.80,327.86,M,-33.324,M,,*71
2017-11-15 18:46:55 1510789615.330984: $GPRMC,234654,A,3946.9451,N,08404.9739,W,0.5912,129.172,151117,,*33
2017-11-15 18:46:55 1510789615.331041: $GPGSA,A,3,1,14,32,31,26,10,12,,,,,,3.4,1.8,2.9*06
2017-11-15 18:46:56 1510789616.372548: $GPZDA,234655.00,15,11,2017,00,00*65
2017-11-15 18:46:56 1510789616.372705: $GPGGA,234655,3946.9451,N,08404.9739,W,1,07,1.80,327.86,M,-33.324,M,,*70
2017-11-15 18:46:56 1510789616.372767: $GPRMC,234655,A,3946.9451,N,08404.9739,W,0.7621,107.945,151117,,*3F
2017-11-15 18:46:56 1510789616.372823: $GPGSA,A,3,1,14,32,31,26,10,12,,,,,,3.4,1.8,2.9*06
2017-11-15 18:46:57 1510789617.665609: $GPGSV,3,1,12,01,16,268,15,14,67,055,11,03,26,313,07,32,51,087,17*7F
2017-11-15 18:46:57 1510789617.665776: $GPGSV,3,2,12,31,79,315,23,26,32,177,16,25,32,051,04,10,16,157,11*71
2017-11-15 18:46:57 1510789617.665836: $GPGSV,3,3,12,12,02,030,08,22,43,297,04,29,02,088,06,133,44,201,00*42
2017-11-15 18:46:57 1510789617.778941: $GPZDA,234656.00,15,11,2017,00,00*66
2017-11-15 18:46:57 1510789617.779061: $GPGGA,234656,3946.9451,N,08404.9732,W,1,08,1.80,327.94,M,-33.324,M,,*74
2017-11-15 18:46:57 1510789617.779121: $GPRMC,234656,A,3946.9451,N,08404.9732,W,0.4179,148.778,151117,,*35
2017-11-15 18:46:57 1510789617.779178: $GPGSA,A,3,1,14,32,31,26,10,12,29,,,,,3.4,1.8,2.9*0D
2017-11-15 18:46:58 1510789618.372379: $GPZDA,234657.00,15,11,2017,00,00*67
2017-11-15 18:46:58 1510789618.372540: $GPGGA,234657,3946.9451,N,08404.9732,W,1,08,1.80,327.94,M,-33.324,M,,*75
2017-11-15 18:46:58 1510789618.372600: $GPRMC,234657,A,3946.9451,N,08404.9732,W,0.3423,184.197,151117,,*3E
2017-11-15 18:46:58 1510789618.372657: $GPGSA,A,3,1,14,32,31,26,10,12,29,,,,,3.4,1.8,2.9*0D
2017-11-15 18:46:59 1510789619.372339: $GPZDA,234658.00,15,11,2017,00,00*68
2017-11-15 18:46:59 1510789619.372500: $GPGGA,234658,3946.9451,N,08404.9732,W,1,08,1.80,327.94,M,-33.324,M,,*7A
2017-11-15 18:46:59 1510789619.372561: $GPRMC,234658,A,3946.9451,N,08404.9732,W,0.4207,219.347,151117,,*3E
2017-11-15 18:46:59 1510789619.372618: $GPGSA,A,3,1,14,32,31,26,10,12,29,,,,,3.4,1.8,2.9*0D
2017-11-15 18:47:00 1510789620.666456: $GPGSV,3,1,12,01,16,268,15,14,67,055,12,03,26,313,13,32,51,087,17*79
2017-11-15 18:47:00 1510789620.666634: $GPGSV,3,2,12,31,79,315,23,26,32,177,15,25,32,051,07,10,16,157,11*71
2017-11-15 18:47:00 1510789620.666693: $GPGSV,3,3,12,12,02,030,06,22,43,297,04,29,02,088,07,133,44,201,00*4D
2017-11-15 18:47:00 1510789620.779756: $GPZDA,234659.00,15,11,2017,00,00*69
2017-11-15 18:47:00 1510789620.779926: $GPGGA,234659,3946.9450,N,08404.9725,W,1,08,1.80,328.02,M,-33.324,M,,*7C
2017-11-15 18:47:00 1510789620.779988: $GPRMC,234659,A,3946.9450,N,08404.9725,W,0.4179,148.778,151117,,*3D
2017-11-15 18:47:00 1510789620.780044: $GPGSA,A,3,1,14,32,31,26,25,10,29,,,,,3.4,1.8,2.9*09
