2017-12-01 18:26:19 1512170779.097073: {"class":"VERSION","release":"3.16","rev":"3.16-4","proto_major":3,"proto_minor":11}
2017-12-01 18:26:19 1512170779.097465: {"class":"DEVICES","devices":[{"class":"DEVICE","path":"/dev/ttyUSB0","driver":"SiRF","subtype":"9\u0006GSD4e_4.1.2-P1_RPATCH.05-F-GPS-4R-1510281 11/03/2015 307","activated":"2017-12-01T23:26:18.691Z","flags":1,"native":1,"bps":4800,"parity":"N","stopbits":1,"cycle":1.00}]}
2017-12-01 18:26:19 1512170779.097593: {"class":"WATCH","enable":true,"json":false,"nmea":true,"raw":0,"scaled":false,"timing":false,"split24":false,"pps":false}
2017-12-01 18:26:19 1512170779.377451: $GPZDA,232620.00,01,12,2017,00,00*67
2017-12-01 18:26:19 1512170779.377628: $GPGGA,232620,3946.9723,N,08404.9839,W,2,11,0.80,297.16,M,-33.325,M,,*7A
2017-12-01 18:26:19 1512170779.377697: $GPRMC,232620,A,3946.9723,N,08404.9839,W,0.0000,0.000,011217,,*38
2017-12-01 18:26:19 1512170779.377763: $GPGSA,A,3,1,3,14,16,22,23,25,26,31,32,138,,2.0,0.8,1.5*07
2017-12-01 18:26:20 1512170780.705323: $GPGSV,3,1,12,01,05,252,36,03,41,298,46,14,54,093,43,16,24,189,44*73
2017-12-01 18:26:20 1512170780.705508: $GPGSV,3,2,12,22,50,268,44,23,12,301,43,25,16,040,39,26,55,171,47*7B
2017-12-01 18:26:20 1512170780.705574: $GPGSV,3,3,12,31,66,028,46,32,34,109,42,29,11,070,16,138,38,213,46*40
2017-12-01 18:26:20 1512170780.819060: $GPZDA,232621.00,01,12,2017,00,00*66
2017-12-01 18:26:20 1512170780.819198: $GPGGA,232621,3946.9723,N,08404.9839,W,2,12,0.80,297.16,M,-33.325,M,,*78
2017-12-01 18:26:20 1512170780.819265: $GPRMC,232621,A,3946.9723,N,08404.9839,W,0.0000,0.000,011217,,*39
2017-12-01 18:26:20 1512170780.819325: $GPGSA,A,3,1,3,14,16,22,23,25,26,31,32,29,138,2.0,0.8,1.5*0C
2017-12-01 18:26:21 1512170781.376081: $GPZDA,232622.00,01,12,2017,00,00*65
2017-12-01 18:26:21 1512170781.376273: $GPGGA,232622,3946.9723,N,08404.9839,W,2,12,0.80,297.16,M,-33.325,M,,*7B
2017-12-01 18:26:21 1512170781.376342: $GPRMC,232622,A,3946.9723,N,08404.9839,W,0.0000,0.000,011217,,*3A
2017-12-01 18:26:21 1512170781.376407: $GPGSA,A,3,1,3,14,16,22,23,25,26,31,32,29,138,2.0,0.8,1.5*0C
2017-12-01 18:26:22 1512170782.375483: $GPZDA,232623.00,01,12,2017,00,00*64
2017-12-01 18:26:22 1512170782.375664: $GPGGA,232623,3946.9723,N,08404.9839,W,2,12,0.80,297.16,M,-33.325,M,,*7A
2017-12-01 18:26:22 1512170782.375735: $GPRMC,232623,A,3946.9723,N,08404.9839,W,0.0000,0.000,011217,,*3B
2017-12-01 18:26:22 1512170782.375796: $GPGSA,A,3,1,3,14,16,22,23,25,26,31,32,29,138,2.0,0.8,1.5*0C
2017-12-01 18:26:23 1512170783.711420: $GPGSV,3,1,12,01,05,252,36,03,41,298,47,14,54,093,43,16,24,189,44*72
2017-12-01 18:26:23 1512170783.711625: $GPGSV,3,2,12,22,50,268,44,23,12,301,42,25,16,040,39,26,55,171,47*7A
2017-12-01 18:26:23 1512170783.711697: $GPGSV,3,3,12,31,66,028,46,32,34,109,42,29,11,070,15,138,38,213,46*43
2017-12-01 18:26:23 1512170783.824509: $GPZDA,232624.00,01,12,2017,00,00*63
2017-12-01 18:26:23 1512170783.824701: $GPGGA,232624,3946.9723,N,08404.9839,W,2,12,0.80,297.16,M,-33.325,M,,*7D
2017-12-01 18:26:23 1512170783.824770: $GPRMC,232624,A,3946.9723,N,08404.9839,W,0.0000,0.000,011217,,*3C
2017-12-01 18:26:23 1512170783.824833: $GPGSA,A,3,1,3,14,16,22,23,25,26,31,32,29,138,2.0,0.8,1.5*0C
2017-12-01 18:26:24 1512170784.449900: $GPZDA,232625.00,01,12,2017,00,00*62
2017-12-01 18:26:24 1512170784.450080: $GPGGA,232625,3946.9723,N,08404.9839,W,2,12,0.80,297.16,M,-33.325,M,,*7C
2017-12-01 18:26:24 1512170784.450148: $GPRMC,232625,A,3946.9723,N,08404.9839,W,0.0000,0.000,011217,,*3D
2017-12-01 18:26:24 1512170784.450211: $GPGSA,A,3,1,3,14,16,22,23,25,26,31,32,29,138,2.0,0.8,1.5*0C
2017-12-01 18:26:25 1512170785.375775: $GPZDA,232626.00,01,12,2017,00,00*61
2017-12-01 18:26:25 1512170785.375955: $GPGGA,232626,3946.9723,N,08404.9839,W,2,12,0.80,297.16,M,-33.325,M,,*7F
2017-12-01 18:26:25 1512170785.376022: $GPRMC,232626,A,3946.9723,N,08404.9839,W,0.0000,0.000,011217,,*3E
2017-12-01 18:26:25 1512170785.376084: $GPGSA,A,3,1,3,14,16,22,23,25,26,31,32,29,138,2.0,0.8,1.5*0C
2017-12-01 18:26:26 1512170786.711542: $GPGSV,3,1,12,01,05,252,36,03,41,298,48,14,54,093,43,16,24,189,44*7D
2017-12-01 18:26:26 1512170786.711780: $GPGSV,3,2,12,22,50,268,44,23,12,301,43,25,16,040,39,26,55,171,47*7B
2017-12-01 18:26:26 1512170786.711851: $GPGSV,3,3,12,31,66,028,46,32,34,109,37,29,11,070,25,138,38,213,46*42
2017-12-01 18:26:26 1512170786.824814: $GPZDA,232627.00,01,12,2017,00,00*60
2017-12-01 18:26:26 1512170786.824955: $GPGGA,232627,3946.9723,N,08404.9839,W,2,12,0.80,297.16,M,-33.325,M,,*7E
2017-12-01 18:26:26 1512170786.825024: $GPRMC,232627,A,3946.9723,N,08404.9839,W,0.0000,0.000,011217,,*3F
2017-12-01 18:26:26 1512170786.825085: $GPGSA,A,3,1,3,14,16,22,23,25,26,31,32,29,138,2.0,0.8,1.5*0C
2017-12-01 18:26:27 1512170787.376569: $GPZDA,232628.00,01,12,2017,00,00*6F
2017-12-01 18:26:27 1512170787.376814: $GPGGA,232628,3946.9723,N,08404.9839,W,2,12,0.80,297.16,M,-33.325,M,,*71
2017-12-01 18:26:27 1512170787.376891: $GPRMC,232628,A,3946.9723,N,08404.9839,W,0.0000,0.000,011217,,*30
2017-12-01 18:26:27 1512170787.376956: $GPGSA,A,3,1,3,14,16,22,23,25,26,31,32,29,138,2.0,0.8,1.5*0C
2017-12-01 18:26:28 1512170788.377975: $GPZDA,232629.00,01,12,2017,00,00*6E
2017-12-01 18:26:28 1512170788.378148: $GPGGA,232629,3946.9723,N,08404.9839,W,2,12,0.80,297.16,M,-33.325,M,,*70
2017-12-01 18:26:28 1512170788.378216: $GPRMC,232629,A,3946.9723,N,08404.9839,W,0.0000,0.000,011217,,*31
2017-12-01 18:26:28 1512170788.378277: $GPGSA,A,3,1,3,14,16,22,23,25,26,31,32,29,138,2.0,0.8,1.5*0C
2017-12-01 18:26:29 1512170789.709427: $GPGSV,3,1,12,01,05,252,36,03,41,298,48,14,54,093,44,16,24,189,44*7A
2017-12-01 18:26:29 1512170789.709616: $GPGSV,3,2,12,22,50,268,44,23,12,301,43,25,16,040,39,26,55,171,47*7B
2017-12-01 18:26:29 1512170789.709687: $GPGSV,3,3,12,31,66,028,46,32,34,109,39,29,11,070,00,138,38,213,46*4B
2017-12-01 18:26:29 1512170789.822890: $GPZDA,232630.00,01,12,2017,00,00*66
2017-12-01 18:26:29 1512170789.823058: $GPGGA,232630,3946.9723,N,08404.9839,W,2,11,0.80,297.16,M,-33.325,M,,*7B
2017-12-01 18:26:29 1512170789.823126: $GPRMC,232630,A,3946.9723,N,08404.9839,W,0.0000,0.000,011217,,*39
2017-12-01 18:26:29 1512170789.823187: $GPGSA,A,3,1,3,14,16,22,23,25,26,31,32,138,,2.0,0.8,1.5*07
2017-12-01 18:26:30 1512170790.379941: $GPZDA,232631.00,01,12,2017,00,00*67
2017-12-01 18:26:30 1512170790.380111: $GPGGA,232631,3946.9723,N,08404.9839,W,2,11,0.80,297.16,M,-33.325,M,,*7A
2017-12-01 18:26:30 1512170790.380178: $GPRMC,232631,A,3946.9723,N,08404.9839,W,0.0000,0.000,011217,,*38
2017-12-01 18:26:30 1512170790.380240: $GPGSA,A,3,1,3,14,16,22,23,25,26,31,32,138,,2.0,0.8,1.5*07
2017-12-01 18:26:31 1512170791.372134: $GPZDA,232632.00,01,12,2017,00,00*64
2017-12-01 18:26:31 1512170791.372306: $GPGGA,232632,3946.9723,N,08404.9839,W,2,11,0.80,297.16,M,-33.325,M,,*79
2017-12-01 18:26:31 1512170791.372373: $GPRMC,232632,A,3946.9723,N,08404.9839,W,0.0000,0.000,011217,,*3B
2017-12-01 18:26:31 1512170791.372435: $GPGSA,A,3,1,3,14,16,22,23,25,26,31,32,138,,2.0,0.8,1.5*07
2017-12-01 18:26:32 1512170792.710215: $GPGSV,3,1,12,01,05,252,35,03,41,298,47,14,54,093,43,16,24,189,44*71
2017-12-01 18:26:32 1512170792.710396: $GPGSV,3,2,12,22,50,268,44,23,12,301,43,25,16,040,39,26,55,171,47*7B
2017-12-01 18:26:32 1512170792.710465: $GPGSV,3,3,12,31,66,028,46,32,34,109,39,29,11,070,00,138,38,213,46*4B
2017-12-01 18:26:32 1512170792.823623: $GPZDA,232633.00,01,12,2017,00,00*65
2017-12-01 18:26:32 1512170792.823769: $GPGGA,232633,3946.9723,N,08404.9839,W,2,11,0.80,297.16,M,-33.325,M,,*78
2017-12-01 18:26:32 1512170792.823837: $GPRMC,232633,A,3946.9723,N,08404.9839,W,0.0000,0.000,011217,,*3A
2017-12-01 18:26:32 1512170792.823897: $GPGSA,A,3,1,3,14,16,22,23,25,26,31,32,138,,2.0,0.8,1.5*07
2017-12-01 18:26:33 1512170793.374421: $GPZDA,232634.00,01,12,2017,00,00*62
2017-12-01 18:26:33 1512170793.374619: $GPGGA,232634,3946.9723,N,08404.9839,W,2,11,0.80,297.16,M,-33.325,M,,*7F
2017-12-01 18:26:33 1512170793.374686: $GPRMC,232634,A,3946.9723,N,08404.9839,W,0.0000,0.000,011217,,*3D
2017-12-01 18:26:33 1512170793.374750: $GPGSA,A,3,1,3,14,16,22,23,25,26,31,32,138,,2.0,0.8,1.5*07
2017-12-01 18:26:34 1512170794.374792: $GPZDA,232635.00,01,12,2017,00,00*63
2017-12-01 18:26:34 1512170794.375021: $GPGGA,232635,3946.9723,N,08404.9839,W,2,11,0.80,297.16,M,-33.325,M,,*7E
2017-12-01 18:26:34 1512170794.375092: $GPRMC,232635,A,3946.9723,N,08404.9839,W,0.0000,0.000,011217,,*3C
2017-12-01 18:26:34 1512170794.375153: $GPGSA,A,3,1,3,14,16,22,23,25,26,31,32,138,,2.0,0.8,1.5*07
2017-12-01 18:26:35 1512170795.711838: $GPGSV,3,1,12,01,05,252,35,03,41,298,47,14,54,093,43,16,24,189,44*71
2017-12-01 18:26:35 1512170795.712024: $GPGSV,3,2,12,22,50,268,44,23,12,301,43,25,16,040,39,26,55,171,47*7B
2017-12-01 18:26:35 1512170795.712093: $GPGSV,3,3,12,31,66,028,46,32,34,109,40,29,11,070,00,138,38,213,46*45
2017-12-01 18:26:35 1512170795.825105: $GPZDA,232636.00,01,12,2017,00,00*60
2017-12-01 18:26:35 1512170795.825258: $GPGGA,232636,3946.9723,N,08404.9839,W,2,11,0.80,297.16,M,-33.325,M,,*7D
2017-12-01 18:26:35 1512170795.825327: $GPRMC,232636,A,3946.9723,N,08404.9839,W,0.0000,0.000,011217,,*3F
2017-12-01 18:26:35 1512170795.825388: $GPGSA,A,3,1,3,14,16,22,23,25,26,31,32,138,,2.0,0.8,1.5*07
2017-12-01 18:26:36 1512170796.371214: $GPZDA,232637.00,01,12,2017,00,00*61
2017-12-01 18:26:36 1512170796.371485: $GPGGA,232637,3946.9723,N,08404.9839,W,2,11,0.80,297.16,M,-33.325,M,,*7C
2017-12-01 18:26:36 1512170796.371570: $GPRMC,232637,A,3946.9723,N,08404.9839,W,0.0000,0.000,011217,,*3E
2017-12-01 18:26:36 1512170796.371632: $GPGSA,A,3,1,3,14,16,22,23,25,26,31,32,138,,2.0,0.8,1.5*07
2017-12-01 18:26:37 1512170797.375706: $GPZDA,232638.00,01,12,2017,00,00*6E
2017-12-01 18:26:37 1512170797.375869: $GPGGA,232638,3946.9723,N,08404.9839,W,2,11,0.80,297.16,M,-33.325,M,,*73
2017-12-01 18:26:37 1512170797.375936: $GPRMC,232638,A,3946.9723,N,08404.9839,W,0.0000,0.000,011217,,*31
2017-12-01 18:26:37 1512170797.375999: $GPGSA,A,3,1,3,14,16,22,23,25,26,31,32,138,,2.0,0.8,1.5*07
2017-12-01 18:26:38 1512170798.705169: $GPGSV,3,1,12,01,05,252,34,03,41,298,47,14,54,093,43,16,24,189,44*70
2017-12-01 18:26:38 1512170798.705355: $GPGSV,3,2,12,22,50,268,44,23,12,301,43,25,16,040,39,26,55,171,47*7B
2017-12-01 18:26:38 1512170798.705427: $GPGSV,3,3,12,31,66,028,46,32,34,109,40,29,11,070,00,138,38,213,46*45
2017-12-01 18:26:38 1512170798.818582: $GPZDA,232639.00,01,12,2017,00,00*6F
2017-12-01 18:26:38 1512170798.818761: $GPGGA,232639,3946.9723,N,08404.9839,W,2,11,0.80,297.16,M,-33.325,M,,*72
2017-12-01 18:26:38 1512170798.818827: $GPRMC,232639,A,3946.9723,N,08404.9839,W,0.0000,0.000,011217,,*30
2017-12-01 18:26:38 1512170798.818887: $GPGSA,A,3,1,3,14,16,22,23,25,26,31,32,138,,2.0,0.8,1.5*07
