2017-12-14 12:35:48 1513272948.425655: {"class":"VERSION","release":"3.16","rev":"3.16-4","proto_major":3,"proto_minor":11}
2017-12-14 12:35:48 1513272948.426040: {"class":"DEVICES","devices":[{"class":"DEVICE","path":"/dev/ttyUSB0","driver":"SiRF","subtype":"9\u0006GSD4e_4.1.2-P1_RPATCH.05-F-GPS-4R-1510281 11/03/2015 307","activated":"2017-12-14T17:35:48.291Z","flags":1,"native":1,"bps":4800,"parity":"N","stopbits":1,"cycle":1.00}]}
2017-12-14 12:35:48 1513272948.426166: {"class":"WATCH","enable":true,"json":false,"nmea":true,"raw":0,"scaled":false,"timing":false,"split24":false,"pps":false}
2017-12-14 12:35:49 1513272949.487550: $GPGSV,3,1,11,10,48,307,23,20,28,102,22,21,54,184,24,24,53,096,27*7B
2017-12-14 12:35:49 1513272949.487738: $GPGSV,3,2,11,15,30,055,15,32,27,243,00,27,17,282,04,13,01,051,14*77
2017-12-14 12:35:49 1513272949.487804: $GPGSV,3,3,11,14,10,237,00,08,07,316,00,138,38,213,00*71
2017-12-14 12:35:49 1513272949.601211: $GPZDA,173550.00,14,12,2017,00,00*61
2017-12-14 12:35:49 1513272949.601356: $GPGGA,173550,3946.9492,N,08404.9463,W,1,05,2.40,318.65,M,-33.324,M,,*79
2017-12-14 12:35:49 1513272949.601440: $GPRMC,173550,A,3946.9492,N,08404.9463,W,0.7621,107.945,141217,,*38
2017-12-14 12:35:49 1513272949.601502: $GPGSA,A,3,10,20,21,24,15,,,,,,,,6.6,2.4,6.2*32
2017-12-14 12:35:50 1513272950.152972: $GPZDA,173551.00,14,12,2017,00,00*60
2017-12-14 12:35:50 1513272950.153188: $GPGGA,173551,3946.9492,N,08404.9456,W,1,05,2.40,318.72,M,-33.324,M,,*78
2017-12-14 12:35:50 1513272950.153288: $GPRMC,173551,A,3946.9492,N,08404.9456,W,0.7544,96.100,141217,,*0F
2017-12-14 12:35:50 1513272950.153352: $GPGSA,A,3,10,20,21,24,15,,,,,,,,6.6,2.4,6.2*32
2017-12-14 12:35:51 1513272951.152838: $GPZDA,173552.00,14,12,2017,00,00*63
2017-12-14 12:35:51 1513272951.152994: $GPGGA,173552,3946.9492,N,08404.9449,W,1,05,2.40,318.80,M,-33.324,M,,*78
2017-12-14 12:35:51 1513272951.153058: $GPRMC,173552,A,3946.9492,N,08404.9449,W,1.2908,110.574,141217,,*3A
2017-12-14 12:35:51 1513272951.153119: $GPGSA,A,3,10,20,21,24,15,,,,,,,,6.6,2.4,6.2*32
2017-12-14 12:35:52 1513272952.488594: $GPGSV,3,1,11,10,48,307,23,20,28,102,23,21,54,184,24,24,53,096,27*7A
2017-12-14 12:35:52 1513272952.488768: $GPGSV,3,2,11,15,30,055,16,32,27,243,00,27,17,282,06,13,01,051,04*77
2017-12-14 12:35:52 1513272952.488834: $GPGSV,3,3,11,14,10,237,00,08,07,316,00,138,38,213,00*71
2017-12-14 12:35:52 1513272952.602432: $GPZDA,173553.00,14,12,2017,00,00*62
2017-12-14 12:35:52 1513272952.602595: $GPGGA,173553,3946.9491,N,08404.9448,W,1,05,2.40,317.40,M,-33.324,M,,*78
2017-12-14 12:35:52 1513272952.602660: $GPRMC,173553,A,3946.9491,N,08404.9448,W,0.5669,116.262,141217,,*31
2017-12-14 12:35:52 1513272952.602720: $GPGSA,A,3,10,20,21,24,15,,,,,,,,6.6,2.4,6.2*32
2017-12-14 12:35:53 1513272953.154517: $GPZDA,173554.00,14,12,2017,00,00*65
2017-12-14 12:35:53 1513272953.154681: $GPGGA,173554,3946.9494,N,08404.9447,W,1,05,2.40,316.63,M,-33.324,M,,*75
2017-12-14 12:35:53 1513272953.154747: $GPRMC,173554,A,3946.9494,N,08404.9447,W,0.0407,142.012,141217,,*37
2017-12-14 12:35:53 1513272953.154808: $GPGSA,A,3,10,20,21,24,15,,,,,,,,6.6,2.4,6.2*32
2017-12-14 12:35:54 1513272954.153458: $GPZDA,173555.00,14,12,2017,00,00*64
2017-12-14 12:35:54 1513272954.153621: $GPGGA,173555,3946.9494,N,08404.9447,W,1,05,2.40,316.63,M,-33.324,M,,*74
2017-12-14 12:35:54 1513272954.153687: $GPRMC,173555,A,3946.9494,N,08404.9447,W,0.5774,207.515,141217,,*34
2017-12-14 12:35:54 1513272954.153747: $GPGSA,A,3,10,20,21,24,15,,,,,,,,6.6,2.4,6.2*32
2017-12-14 12:35:55 1513272955.491670: $GPGSV,3,1,11,10,48,307,19,20,28,102,23,21,54,184,24,24,53,096,27*73
2017-12-14 12:35:55 1513272955.491844: $GPGSV,3,2,11,15,30,055,17,32,27,243,11,27,17,282,08,13,01,051,08*74
2017-12-14 12:35:55 1513272955.491910: $GPGSV,3,3,11,14,10,237,00,08,07,316,00,138,38,213,00*71
2017-12-14 12:35:55 1513272955.603844: $GPZDA,173556.00,14,12,2017,00,00*67
2017-12-14 12:35:55 1513272955.604009: $GPGGA,173556,3946.9494,N,08404.9447,W,1,06,1.80,316.63,M,-33.324,M,,*7B
2017-12-14 12:35:55 1513272955.604074: $GPRMC,173556,A,3946.9494,N,08404.9447,W,0.2959,234.767,141217,,*36
2017-12-14 12:35:55 1513272955.604190: $GPGSA,A,3,10,20,21,24,15,27,,,,,,,6.6,1.8,6.2*38
2017-12-14 12:35:56 1513272956.156888: $GPZDA,173557.00,14,12,2017,00,00*66
2017-12-14 12:35:56 1513272956.165058: $GPGGA,173557,3946.9495,N,08404.9454,W,1,06,1.80,316.56,M,-33.324,M,,*7F
2017-12-14 12:35:56 1513272956.165180: $GPRMC,173557,A,3946.9495,N,08404.9454,W,0.5075,252.257,141217,,*32
2017-12-14 12:35:56 1513272956.165282: $GPGSA,A,3,10,20,21,24,15,27,,,,,,,6.6,1.8,6.2*38
2017-12-14 12:35:57 1513272957.155457: $GPZDA,173558.00,14,12,2017,00,00*69
2017-12-14 12:35:57 1513272957.155635: $GPGGA,173558,3946.9498,N,08404.9454,W,1,06,1.80,315.79,M,-33.324,M,,*73
2017-12-14 12:35:57 1513272957.155702: $GPRMC,173558,A,3946.9498,N,08404.9454,W,0.3155,129.994,141217,,*3E
2017-12-14 12:35:57 1513272957.155808: $GPGSA,A,3,10,20,21,24,15,27,,,,,,,6.6,1.8,6.2*38
2017-12-14 12:35:58 1513272958.491002: $GPGSV,3,1,11,10,48,307,19,20,28,102,24,21,54,184,24,24,53,096,27*74
2017-12-14 12:35:58 1513272958.491178: $GPGSV,3,2,11,15,30,055,17,32,27,243,00,27,17,282,09,14,10,237,00*78
2017-12-14 12:35:58 1513272958.491266: $GPGSV,3,3,11,08,07,316,00,13,01,051,00,138,38,213,00*74
2017-12-14 12:35:58 1513272958.604459: $GPZDA,173559.00,14,12,2017,00,00*68
2017-12-14 12:35:58 1513272958.604630: $GPGGA,173559,3946.9498,N,08404.9447,W,1,06,1.80,315.87,M,-33.324,M,,*71
2017-12-14 12:35:58 1513272958.604696: $GPRMC,173559,A,3946.9498,N,08404.9447,W,0.2422,93.794,141217,,*07
2017-12-14 12:35:58 1513272958.604757: $GPGSA,A,3,10,20,21,24,15,27,,,,,,,6.6,1.8,6.2*38
2017-12-14 12:35:59 1513272959.153390: $GPZDA,173600.00,14,12,2017,00,00*67
2017-12-14 12:35:59 1513272959.153561: $GPGGA,173600,3946.9498,N,08404.9447,W,1,06,1.80,315.87,M,-33.324,M,,*7E
2017-12-14 12:35:59 1513272959.153629: $GPRMC,173600,A,3946.9498,N,08404.9447,W,0.4179,148.778,141217,,*30
2017-12-14 12:35:59 1513272959.153690: $GPGSA,A,3,10,20,21,24,15,27,,,,,,,6.6,1.8,6.2*38
2017-12-14 12:36:00 1513272960.153888: $GPZDA,173601.00,14,12,2017,00,00*66
2017-12-14 12:36:00 1513272960.154089: $GPGGA,173601,3946.9498,N,08404.9447,W,1,06,1.80,315.87,M,-33.324,M,,*7F
2017-12-14 12:36:00 1513272960.154185: $GPRMC,173601,A,3946.9498,N,08404.9447,W,0.2422,93.794,141217,,*09
2017-12-14 12:36:00 1513272960.154306: $GPGSA,A,3,10,20,21,24,15,27,,,,,,,6.6,1.8,6.2*38
2017-12-14 12:36:01 1513272961.489652: $GPGSV,3,1,11,10,48,307,19,20,28,102,24,21,54,184,23,24,53,096,27*73
2017-12-14 12:36:02 1513272962.566146: $GPGSV,3,2,11,15,30,055,18,13,01,051,16,27,17,282,10,32,27,243,00*7D
2017-12-14 12:36:02 1513272962.566438: $GPGSV,3,3,11,14,10,237,00,08,07,316,00,138,38,213,00*71
2017-12-14 12:36:02 1513272962.566559: $GPZDA,173602.00,14,12,2017,00,00*65
2017-12-14 12:36:02 1513272962.566634: $GPGGA,173602,3946.9501,N,08404.9446,W,1,06,1.80,315.11,M,-33.324,M,,*73
2017-12-14 12:36:02 1513272962.566696: $GPRMC,173602,A,3946.9501,N,08404.9446,W,0.5617,31.295,141217,,*05
2017-12-14 12:36:02 1513272962.566755: $GPGSA,A,3,10,20,21,24,15,27,,,,,,,6.6,1.8,6.2*38
2017-12-14 12:36:02 1513272962.566831: $GPZDA,173603.00,14,12,2017,00,00*64
2017-12-14 12:36:02 1513272962.566886: $GPGGA,173603,3946.9501,N,08404.9439,W,1,06,1.80,315.19,M,-33.324,M,,*72
2017-12-14 12:36:02 1513272962.566945: $GPRMC,173603,A,3946.9501,N,08404.9439,W,0.7267,93.794,141217,,*01
2017-12-14 12:36:02 1513272962.567004: $GPGSA,A,3,10,20,21,24,15,27,,,,,,,6.6,1.8,6.2*38
2017-12-14 12:36:03 1513272963.152870: $GPZDA,173604.00,14,12,2017,00,00*63
2017-12-14 12:36:03 1513272963.153068: $GPGGA,173604,3946.9501,N,08404.9439,W,1,06,1.80,315.19,M,-33.324,M,,*75
2017-12-14 12:36:03 1513272963.153135: $GPRMC,173604,A,3946.9501,N,08404.9439,W,0.4844,93.794,141217,,*0E
2017-12-14 12:36:03 1513272963.153197: $GPGSA,A,3,10,20,21,24,15,27,,,,,,,6.6,1.8,6.2*38
2017-12-14 12:36:04 1513272964.491486: $GPGSV,3,1,11,10,48,307,19,20,28,102,24,21,54,184,23,24,53,096,27*73
2017-12-14 12:36:04 1513272964.491663: $GPGSV,3,2,11,15,30,055,18,32,27,243,02,27,17,282,11,14,10,237,00*7C
2017-12-14 12:36:04 1513272964.491780: $GPGSV,3,3,11,08,07,316,00,13,01,051,00,138,38,213,00*74
2017-12-14 12:36:04 1513272964.604911: $GPZDA,173605.00,14,12,2017,00,00*62
2017-12-14 12:36:04 1513272964.605074: $GPGGA,173605,3946.9509,N,08404.9438,W,1,06,1.80,315.06,M,-33.324,M,,*73
2017-12-14 12:36:04 1513272964.605140: $GPRMC,173605,A,3946.9509,N,08404.9438,W,0.4207,39.347,141217,,*01
2017-12-14 12:36:04 1513272964.605201: $GPGSA,A,3,10,20,21,24,15,27,,,,,,,6.6,1.8,6.2*38
2017-12-14 12:36:05 1513272965.155025: $GPZDA,173606.00,14,12,2017,00,00*61
2017-12-14 12:36:05 1513272965.155189: $GPGGA,173606,3946.9509,N,08404.9438,W,1,06,1.80,315.06,M,-33.324,M,,*70
2017-12-14 12:36:05 1513272965.155274: $GPRMC,173606,A,3946.9509,N,08404.9438,W,0.0000,0.000,141217,,*39
2017-12-14 12:36:05 1513272965.155336: $GPGSA,A,3,10,20,21,24,15,27,,,,,,,6.6,1.8,6.2*38
2017-12-14 12:36:06 1513272966.160469: $GPZDA,173607.00,14,12,2017,00,00*60
2017-12-14 12:36:06 1513272966.160647: $GPGGA,173607,3946.9509,N,08404.9438,W,1,06,1.40,315.06,M,-33.324,M,,*7D
2017-12-14 12:36:06 1513272966.160716: $GPRMC,173607,A,3946.9509,N,08404.9438,W,0.0000,0.000,141217,,*38
2017-12-14 12:36:06 1513272966.160777: $GPGSA,A,3,10,20,21,24,15,27,,,,,,,6.6,1.4,6.2*34
2017-12-14 12:36:07 1513272967.495181: $GPGSV,3,1,11,10,48,307,18,20,28,102,24,21,54,184,23,24,53,096,27*72
2017-12-14 12:36:07 1513272967.495363: $GPGSV,3,2,11,15,30,055,19,32,27,243,18,27,17,282,10,08,07,316,11*7E
2017-12-14 12:36:07 1513272967.495428: $GPGSV,3,3,11,13,01,051,16,14,10,237,00,138,38,213,00*7A
2017-12-14 12:36:07 1513272967.608941: $GPZDA,173608.00,14,12,2017,00,00*6F
2017-12-14 12:36:07 1513272967.609094: $GPGGA,173608,3946.9512,N,08404.9438,W,1,07,1.40,314.30,M,-33.324,M,,*7D
2017-12-14 12:36:07 1513272967.609158: $GPRMC,173608,A,3946.9512,N,08404.9438,W,0.2422,273.794,141217,,*37
2017-12-14 12:36:07 1513272967.609218: $GPGSA,A,3,10,20,21,24,15,32,27,,,,,,6.6,1.4,6.2*35
2017-12-14 12:36:08 1513272968.158172: $GPZDA,173609.00,14,12,2017,00,00*6E
2017-12-14 12:36:08 1513272968.158351: $GPGGA,173609,3946.9512,N,08404.9438,W,1,07,1.40,314.30,M,-33.324,M,,*7C
2017-12-14 12:36:08 1513272968.158417: $GPRMC,173609,A,3946.9512,N,08404.9438,W,0.4844,273.794,141217,,*3C
2017-12-14 12:36:08 1513272968.158479: $GPGSA,A,3,10,20,21,24,15,32,27,,,,,,6.6,1.4,6.2*35
