2017-11-15 19:32:35 1510792355.742560: {"class":"VERSION","release":"3.17","rev":"3.17","proto_major":3,"proto_minor":12}
2017-11-15 19:32:35 1510792355.743072: {"class":"DEVICES","devices":[{"class":"DEVICE","path":"/dev/ttyUSB0","driver":"SiRF","subtype":"9\u0006GSD4e_4.1.2-P1_RPATCH.05-F-GPS-4R-1510281 11/03/2015 307","activated":"2017-11-16T00:32:35.646Z","flags":1,"native":1,"bps":4800,"parity":"N","stopbits":1,"cycle":1.00}]}
2017-11-15 19:32:35 1510792355.743187: {"class":"WATCH","enable":true,"json":false,"nmea":true,"raw":0,"scaled":false,"timing":false,"split24":false,"pps":false}
2017-11-15 19:32:36 1510792356.666539: $GPGSV,3,1,11,32,35,109,24,29,11,070,12,16,24,190,11,26,55,172,20*76
2017-11-15 19:32:36 1510792356.666781: $GPGSV,3,2,11,14,54,094,17,31,66,027,04,03,40,297,19,25,16,039,00*7D
2017-11-15 19:32:36 1510792356.666853: $GPGSV,3,3,11,23,12,301,00,01,05,252,00,22,50,268,22*41
2017-11-15 19:32:36 1510792356.779842: $GPZDA,003235.00,16,11,2017,00,00*62
2017-11-15 19:32:36 1510792356.779998: $GPGGA,003235,3946.9561,N,08404.9486,W,1,07,2.00,283.02,M,-33.324,M,,*79
2017-11-15 19:32:36 1510792356.780060: $GPRMC,003235,A,3946.9561,N,08404.9486,W,0.3423,184.197,161117,,*35
2017-11-15 19:32:36 1510792356.780116: $GPGSA,A,3,32,29,16,26,14,3,22,,,,,,3.4,2.0,2.9*03
2017-11-15 19:32:37 1510792357.329477: $GPZDA,003236.00,16,11,2017,00,00*61
2017-11-15 19:32:37 1510792357.329645: $GPGGA,003236,3946.9565,N,08404.9479,W,1,07,2.00,283.74,M,-33.324,M,,*7F
2017-11-15 19:32:37 1510792357.329707: $GPRMC,003236,A,3946.9565,N,08404.9479,W,0.8054,68.645,161117,,*06
2017-11-15 19:32:37 1510792357.329762: $GPGSA,A,3,32,29,16,26,14,3,22,,,,,,3.4,2.0,2.9*03
2017-11-15 19:32:38 1510792358.329365: $GPZDA,003237.00,16,11,2017,00,00*60
2017-11-15 19:32:38 1510792358.329528: $GPGGA,003237,3946.9565,N,08404.9479,W,1,07,1.40,283.74,M,-33.324,M,,*79
2017-11-15 19:32:38 1510792358.329610: $GPRMC,003237,A,3946.9565,N,08404.9479,W,0.7278,23.636,161117,,*0F
2017-11-15 19:32:38 1510792358.329667: $GPGSA,A,3,32,29,16,26,14,3,22,,,,,,3.4,1.4,2.9*04
2017-11-15 19:32:39 1510792359.664884: $GPGSV,3,1,11,32,35,109,24,29,11,070,04,16,24,190,12,26,55,172,20*72
2017-11-15 19:32:39 1510792359.665065: $GPGSV,3,2,11,14,54,094,17,31,66,027,12,03,40,297,19,25,16,039,00*7A
2017-11-15 19:32:39 1510792359.675215: $GPGSV,3,3,11,23,12,301,00,01,05,252,00,22,50,268,22*41
2017-11-15 19:32:39 1510792359.778188: $GPZDA,003238.00,16,11,2017,00,00*6F
2017-11-15 19:32:39 1510792359.778363: $GPGGA,003238,3946.9565,N,08404.9472,W,1,07,1.40,283.82,M,-33.324,M,,*74
2017-11-15 19:32:39 1510792359.778442: $GPRMC,003238,A,3946.9565,N,08404.9472,W,0.5230,76.444,161117,,*02
2017-11-15 19:32:39 1510792359.778500: $GPGSA,A,3,32,16,26,14,31,3,22,,,,,,3.4,1.4,2.9*0D
2017-11-15 19:32:40 1510792360.329407: $GPZDA,003239.00,16,11,2017,00,00*6E
2017-11-15 19:32:40 1510792360.329624: $GPGGA,003239,3946.9561,N,08404.9472,W,1,07,1.40,283.18,M,-33.324,M,,*72
2017-11-15 19:32:40 1510792360.329689: $GPRMC,003239,A,3946.9561,N,08404.9472,W,0.9689,93.794,161117,,*08
2017-11-15 19:32:40 1510792360.329746: $GPGSA,A,3,32,16,26,14,31,3,22,,,,,,3.4,1.4,2.9*0D
2017-11-15 19:32:41 1510792361.329465: $GPZDA,003240.00,16,11,2017,00,00*60
2017-11-15 19:32:41 1510792361.329651: $GPGGA,003240,3946.9560,N,08404.9465,W,1,07,1.40,283.26,M,-33.324,M,,*76
2017-11-15 19:32:41 1510792361.329715: $GPRMC,003240,A,3946.9560,N,08404.9465,W,1.4763,87.730,161117,,*03
2017-11-15 19:32:41 1510792361.329771: $GPGSA,A,3,32,16,26,14,31,3,22,,,,,,3.4,1.4,2.9*0D
2017-11-15 19:32:42 1510792362.665254: $GPGSV,3,1,11,32,35,109,24,29,11,070,04,16,24,190,12,26,55,172,20*72
2017-11-15 19:32:42 1510792362.665425: $GPGSV,3,2,11,14,54,094,17,31,66,027,12,03,40,297,19,25,16,039,00*7A
2017-11-15 19:32:42 1510792362.665485: $GPGSV,3,3,11,23,12,301,00,01,05,252,00,22,50,268,22*41
2017-11-15 19:32:42 1510792362.778873: $GPZDA,003241.00,16,11,2017,00,00*61
2017-11-15 19:32:42 1510792362.779028: $GPGGA,003241,3946.9564,N,08404.9458,W,1,07,1.40,283.98,M,-33.324,M,,*78
2017-11-15 19:32:42 1510792362.779088: $GPRMC,003241,A,3946.9564,N,08404.9458,W,1.5526,75.076,161117,,*02
2017-11-15 19:32:42 1510792362.779214: $GPGSA,A,3,32,16,26,14,31,3,22,,,,,,3.4,1.4,2.9*0D
2017-11-15 19:32:43 1510792363.329720: $GPZDA,003242.00,16,11,2017,00,00*62
2017-11-15 19:32:43 1510792363.329880: $GPGGA,003242,3946.9564,N,08404.9458,W,1,07,1.40,283.98,M,-33.324,M,,*7B
2017-11-15 19:32:43 1510792363.329941: $GPRMC,003242,A,3946.9564,N,08404.9458,W,1.1902,58.684,161117,,*0B
2017-11-15 19:32:43 1510792363.330015: $GPGSA,A,3,32,16,26,14,31,3,22,,,,,,3.4,1.4,2.9*0D
2017-11-15 19:32:44 1510792364.329337: $GPZDA,003243.00,16,11,2017,00,00*63
2017-11-15 19:32:44 1510792364.329498: $GPGGA,003243,3946.9564,N,08404.9451,W,1,07,1.40,284.05,M,-33.324,M,,*70
2017-11-15 19:32:44 1510792364.329559: $GPRMC,003243,A,3946.9564,N,08404.9451,W,1.4167,47.342,161117,,*0C
2017-11-15 19:32:44 1510792364.329635: $GPGSA,A,3,32,16,26,14,31,3,22,,,,,,3.4,1.4,2.9*0D
2017-11-15 19:32:45 1510792365.681155: $GPGSV,3,1,11,32,35,109,24,25,16,039,00,16,24,190,14,26,55,172,20*76
2017-11-15 19:32:45 1510792365.681312: $GPGSV,3,2,11,14,54,094,17,31,66,027,13,03,40,297,18,23,12,301,00*70
2017-11-15 19:32:45 1510792365.681371: $GPGSV,3,3,11,29,11,070,00,01,05,252,00,22,50,268,22*4D
