2017-11-15 19:36:22 1510792582.012653: {"class":"VERSION","release":"3.17","rev":"3.17","proto_major":3,"proto_minor":12}
2017-11-15 19:36:22 1510792582.013080: {"class":"DEVICES","devices":[{"class":"DEVICE","path":"/dev/ttyUSB0","driver":"SiRF","subtype":"9\u0006GSD4e_4.1.2-P1_RPATCH.05-F-GPS-4R-1510281 11/03/2015 307","activated":"2017-11-16T00:36:21.919Z","flags":1,"native":1,"bps":4800,"parity":"N","stopbits":1,"cycle":1.00}]}
2017-11-15 19:36:22 1510792582.013194: {"class":"WATCH","enable":true,"json":false,"nmea":true,"raw":0,"scaled":false,"timing":false,"split24":false,"pps":false}
2017-11-15 19:36:22 1510792582.344509: $GPZDA,003621.00,16,11,2017,00,00*63
2017-11-15 19:36:22 1510792582.344663: $GPGGA,003621,3946.9560,N,08404.9590,W,1,08,1.20,292.63,M,-33.324,M,,*76
2017-11-15 19:36:22 1510792582.344722: $GPRMC,003621,A,3946.9560,N,08404.9590,W,1.0269,4.197,161117,,*30
2017-11-15 19:36:22 1510792582.344777: $GPGSA,A,3,32,14,26,29,31,3,23,22,,,,,3.4,1.2,2.9*06
2017-11-15 19:36:23 1510792583.329309: $GPZDA,003622.00,16,11,2017,00,00*60
2017-11-15 19:36:23 1510792583.329491: $GPGGA,003622,3946.9560,N,08404.9583,W,1,08,1.20,292.71,M,-33.324,M,,*74
2017-11-15 19:36:23 1510792583.329551: $GPRMC,003622,A,3946.9560,N,08404.9583,W,1.2621,39.347,161117,,*0A
2017-11-15 19:36:23 1510792583.329606: $GPGSA,A,3,32,14,26,29,31,3,23,22,,,,,3.4,1.2,2.9*06
2017-11-15 19:36:24 1510792584.681085: $GPGSV,3,1,11,32,33,111,24,14,53,096,18,16,25,190,00,26,56,171,19*78
2017-11-15 19:36:24 1510792584.681235: $GPGSV,3,2,11,29,11,069,12,31,65,030,17,03,41,295,19,23,13,301,17*7C
2017-11-15 19:36:24 1510792584.681315: $GPGSV,3,3,11,25,15,039,00,01,04,250,00,22,50,265,22*46
2017-11-15 19:36:24 1510792584.794687: $GPZDA,003623.00,16,11,2017,00,00*61
2017-11-15 19:36:24 1510792584.794851: $GPGGA,003623,3946.9568,N,08404.9583,W,1,08,1.20,292.58,M,-33.324,M,,*76
2017-11-15 19:36:24 1510792584.794911: $GPRMC,003623,A,3946.9568,N,08404.9583,W,1.7087,49.986,161117,,*0C
2017-11-15 19:36:24 1510792584.794966: $GPGSA,A,3,32,14,26,29,31,3,23,22,,,,,3.4,1.2,2.9*06
2017-11-15 19:36:25 1510792585.346807: $GPZDA,003624.00,16,11,2017,00,00*66
2017-11-15 19:36:25 1510792585.346961: $GPGGA,003624,3946.9567,N,08404.9576,W,1,08,1.20,292.66,M,-33.324,M,,*79
2017-11-15 19:36:25 1510792585.347022: $GPRMC,003624,A,3946.9567,N,08404.9576,W,1.5933,53.668,161117,,*0E
2017-11-15 19:36:25 1510792585.347077: $GPGSA,A,3,32,14,26,29,31,3,23,22,,,,,3.4,1.2,2.9*06
2017-11-15 19:36:26 1510792586.345948: $GPZDA,003625.00,16,11,2017,00,00*67
2017-11-15 19:36:26 1510792586.346112: $GPGGA,003625,3946.9575,N,08404.9575,W,1,08,1.20,292.54,M,-33.324,M,,*79
2017-11-15 19:36:26 1510792586.346173: $GPRMC,003625,A,3946.9575,N,08404.9575,W,1.5545,32.064,161117,,*0F
2017-11-15 19:36:26 1510792586.346228: $GPGSA,A,3,32,14,26,29,31,3,23,22,,,,,3.4,1.2,2.9*06
2017-11-15 19:36:27 1510792587.665315: $GPGSV,3,1,11,32,33,111,24,14,53,096,18,16,25,190,00,26,56,171,19*78
2017-11-15 19:36:27 1510792587.665505: $GPGSV,3,2,11,29,11,069,11,31,65,030,18,03,41,295,19,23,13,301,17*70
2017-11-15 19:36:27 1510792587.665566: $GPGSV,3,3,11,25,15,039,00,01,04,250,00,22,50,265,22*46
2017-11-15 19:36:27 1510792587.778947: $GPZDA,003626.00,16,11,2017,00,00*64
2017-11-15 19:36:27 1510792587.779109: $GPGGA,003626,3946.9579,N,08404.9568,W,1,08,1.20,293.26,M,-33.324,M,,*7E
2017-11-15 19:36:27 1510792587.779170: $GPRMC,003626,A,3946.9579,N,08404.9568,W,1.4555,23.636,161117,,*0D
2017-11-15 19:36:27 1510792587.779243: $GPGSA,A,3,32,14,26,29,31,3,23,22,,,,,3.4,1.2,2.9*06
2017-11-15 19:36:28 1510792588.329787: $GPZDA,003627.00,16,11,2017,00,00*65
2017-11-15 19:36:28 1510792588.329944: $GPGGA,003627,3946.9582,N,08404.9567,W,1,08,1.20,292.49,M,-33.324,M,,*7C
2017-11-15 19:36:28 1510792588.330005: $GPRMC,003627,A,3946.9582,N,08404.9567,W,1.4555,23.636,161117,,*07
2017-11-15 19:36:28 1510792588.330060: $GPGSA,A,3,32,14,26,29,31,3,23,22,,,,,3.4,1.2,2.9*06
2017-11-15 19:36:29 1510792589.345637: $GPZDA,003628.00,16,11,2017,00,00*6A
2017-11-15 19:36:29 1510792589.345800: $GPGGA,003628,3946.9586,N,08404.9567,W,1,08,1.20,293.13,M,-33.324,M,,*79
2017-11-15 19:36:29 1510792589.345912: $GPRMC,003628,A,3946.9586,N,08404.9567,W,1.1385,29.379,161117,,*06
2017-11-15 19:36:29 1510792589.345970: $GPGSA,A,3,32,14,26,29,31,3,23,22,,,,,3.4,1.2,2.9*06
2017-11-15 19:36:30 1510792590.681171: $GPGSV,3,1,11,32,33,111,24,14,53,096,18,16,25,190,00,26,56,171,19*78
2017-11-15 19:36:30 1510792590.681378: $GPGSV,3,2,11,29,11,069,10,31,65,030,18,03,41,295,18,23,13,301,17*70
2017-11-15 19:36:30 1510792590.681440: $GPGSV,3,3,11,25,15,039,00,01,04,250,00,22,50,265,22*46
2017-11-15 19:36:30 1510792590.794792: $GPZDA,003629.00,16,11,2017,00,00*6B
2017-11-15 19:36:30 1510792590.794957: $GPGGA,003629,3946.9590,N,08404.9567,W,1,08,1.20,292.37,M,-33.324,M,,*78
2017-11-15 19:36:30 1510792590.795017: $GPRMC,003629,A,3946.9590,N,08404.9567,W,0.7278,23.636,161117,,*00
2017-11-15 19:36:30 1510792590.795073: $GPGSA,A,3,32,14,26,29,31,3,23,22,,,,,3.4,1.2,2.9*06
2017-11-15 19:36:31 1510792591.420082: $GPZDA,003630.00,16,11,2017,00,00*63
2017-11-15 19:36:31 1510792591.420274: $GPGGA,003630,3946.9590,N,08404.9567,W,1,08,1.20,292.37,M,-33.324,M,,*70
2017-11-15 19:36:31 1510792591.420337: $GPRMC,003630,A,3946.9590,N,08404.9567,W,0.7278,23.636,161117,,*08
2017-11-15 19:36:31 1510792591.420412: $GPGSA,A,3,32,14,26,29,31,3,23,22,,,,,3.4,1.2,2.9*06
