2017-11-15 19:48:50 1510793330.586060: {"class":"VERSION","release":"3.17","rev":"3.17","proto_major":3,"proto_minor":12}
2017-11-15 19:48:50 1510793330.586536: {"class":"DEVICES","devices":[{"class":"DEVICE","path":"/dev/ttyUSB0","driver":"SiRF","subtype":"9\u0006GSD4e_4.1.2-P1_RPATCH.05-F-GPS-4R-1510281 11/03/2015 307","activated":"2017-11-16T00:48:50.492Z","flags":1,"native":1,"bps":4800,"parity":"N","stopbits":1,"cycle":1.00}]}
2017-11-15 19:48:50 1510793330.586675: {"class":"WATCH","enable":true,"json":false,"nmea":true,"raw":0,"scaled":false,"timing":false,"split24":false,"pps":false}
2017-11-15 19:48:51 1510793331.681796: $GPGSV,3,1,12,32,29,114,25,16,31,190,26,31,61,037,19,26,62,168,19*76
2017-11-15 19:48:51 1510793331.681985: $GPGSV,3,2,12,14,48,103,11,22,49,256,17,29,13,063,08,23,18,304,18*78
2017-11-15 19:48:51 1510793331.682045: $GPGSV,3,3,12,03,43,289,18,25,10,037,00,01,01,246,00,138,38,213,00*47
2017-11-15 19:48:51 1510793331.795158: $GPZDA,004850.00,16,11,2017,00,00*6C
2017-11-15 19:48:51 1510793331.795298: $GPGGA,004850,3946.9541,N,08404.9486,W,1,08,1.00,329.66,M,-33.324,M,,*7A
2017-11-15 19:48:51 1510793331.795358: $GPRMC,004850,A,3946.9541,N,08404.9486,W,0.4179,148.778,161117,,*33
2017-11-15 19:48:51 1510793331.795413: $GPGSA,A,3,32,16,31,26,14,22,23,3,,,,,3.4,1.0,2.9*08
2017-11-15 19:48:52 1510793332.329769: $GPZDA,004851.00,16,11,2017,00,00*6D
2017-11-15 19:48:52 1510793332.329921: $GPGGA,004851,3946.9541,N,08404.9486,W,1,08,1.00,329.66,M,-33.324,M,,*7B
2017-11-15 19:48:52 1510793332.329982: $GPRMC,004851,A,3946.9541,N,08404.9486,W,0.3423,184.197,161117,,*38
2017-11-15 19:48:52 1510793332.330038: $GPGSA,A,3,32,16,31,26,14,22,23,3,,,,,3.4,1.0,2.9*08
2017-11-15 19:48:53 1510793333.330634: $GPZDA,004852.00,16,11,2017,00,00*6E
2017-11-15 19:48:53 1510793333.330801: $GPGGA,004852,3946.9537,N,08404.9486,W,1,08,1.00,329.02,M,-33.324,M,,*7B
2017-11-15 19:48:53 1510793333.330890: $GPRMC,004852,A,3946.9537,N,08404.9486,W,0.0000,0.000,161117,,*3E
2017-11-15 19:48:53 1510793333.330947: $GPGSA,A,3,32,16,31,26,14,22,23,3,,,,,3.4,1.0,2.9*08
2017-11-15 19:48:54 1510793334.681475: $GPGSV,3,1,12,32,29,114,25,16,31,190,26,31,61,037,19,26,62,168,18*77
2017-11-15 19:48:54 1510793334.681668: $GPGSV,3,2,12,14,48,103,11,22,49,256,17,29,13,063,00,23,18,304,18*70
2017-11-15 19:48:54 1510793334.681751: $GPGSV,3,3,12,03,43,289,18,25,10,037,00,01,01,246,00,138,38,213,00*47
2017-11-15 19:48:54 1510793334.794782: $GPZDA,004853.00,16,11,2017,00,00*6F
2017-11-15 19:48:54 1510793334.794967: $GPGGA,004853,3946.9537,N,08404.9486,W,1,08,1.00,329.02,M,-33.324,M,,*7A
2017-11-15 19:48:54 1510793334.795027: $GPRMC,004853,A,3946.9537,N,08404.9486,W,0.3155,129.994,161117,,*33
2017-11-15 19:48:54 1510793334.795083: $GPGSA,A,3,32,16,31,26,14,22,23,3,,,,,3.4,1.0,2.9*08
2017-11-15 19:48:55 1510793335.345622: $GPZDA,004854.00,16,11,2017,00,00*68
2017-11-15 19:48:55 1510793335.345800: $GPGGA,004854,3946.9536,N,08404.9478,W,1,08,1.00,327.69,M,-33.324,M,,*7E
2017-11-15 19:48:55 1510793335.345876: $GPRMC,004854,A,3946.9536,N,08404.9478,W,0.4844,93.794,161117,,*04
2017-11-15 19:48:55 1510793335.345933: $GPGSA,A,3,32,16,31,26,14,22,23,3,,,,,3.4,1.0,2.9*08
2017-11-15 19:48:56 1510793336.329812: $GPZDA,004855.00,16,11,2017,00,00*69
2017-11-15 19:48:56 1510793336.330007: $GPGGA,004855,3946.9536,N,08404.9478,W,1,08,1.00,327.69,M,-33.324,M,,*7F
2017-11-15 19:48:56 1510793336.330071: $GPRMC,004855,A,3946.9536,N,08404.9478,W,0.4179,148.778,161117,,*37
2017-11-15 19:48:56 1510793336.330130: $GPGSA,A,3,32,16,31,26,14,22,23,3,,,,,3.4,1.0,2.9*08
2017-11-15 19:48:57 1510793337.680529: $GPGSV,3,1,12,32,29,114,25,16,31,190,26,31,61,037,19,26,62,168,18*77
2017-11-15 19:48:57 1510793337.680725: $GPGSV,3,2,12,14,48,103,12,22,49,256,17,29,13,063,00,23,18,304,18*73
2017-11-15 19:48:57 1510793337.680789: $GPGSV,3,3,12,03,43,289,18,25,10,037,00,01,01,246,00,138,38,213,00*47
2017-11-15 19:48:57 1510793337.794184: $GPZDA,004856.00,16,11,2017,00,00*6A
2017-11-15 19:48:57 1510793337.794360: $GPGGA,004856,3946.9532,N,08404.9478,W,1,08,1.00,327.05,M,-33.324,M,,*72
2017-11-15 19:48:57 1510793337.794477: $GPRMC,004856,A,3946.9532,N,08404.9478,W,0.4844,93.794,161117,,*02
2017-11-15 19:48:57 1510793337.794535: $GPGSA,A,3,32,16,31,26,14,22,23,3,,,,,3.4,1.0,2.9*08
2017-11-15 19:48:58 1510793338.346083: $GPZDA,004857.00,16,11,2017,00,00*6B
2017-11-15 19:48:58 1510793338.346245: $GPGGA,004857,3946.9532,N,08404.9478,W,1,08,1.00,327.05,M,-33.324,M,,*73
2017-11-15 19:48:58 1510793338.346306: $GPRMC,004857,A,3946.9532,N,08404.9478,W,0.7238,140.710,161117,,*32
2017-11-15 19:48:58 1510793338.346362: $GPGSA,A,3,32,16,31,26,14,22,23,3,,,,,3.4,1.0,2.9*08
2017-11-15 19:48:59 1510793339.329403: $GPZDA,004858.00,16,11,2017,00,00*64
2017-11-15 19:48:59 1510793339.329568: $GPGGA,004858,3946.9528,N,08404.9478,W,1,08,1.00,326.41,M,-33.324,M,,*76
2017-11-15 19:48:59 1510793339.329629: $GPRMC,004858,A,3946.9528,N,08404.9478,W,0.2422,93.794,161117,,*0D
2017-11-15 19:48:59 1510793339.329704: $GPGSA,A,3,32,16,31,26,14,22,23,3,,,,,3.4,1.0,2.9*08
