2017-12-14 11:45:26 1513269926.913703: {"class":"VERSION","release":"3.16","rev":"3.16-4","proto_major":3,"proto_minor":11}
2017-12-14 11:45:26 1513269926.914049: {"class":"DEVICES","devices":[{"class":"DEVICE","path":"/dev/ttyUSB0","driver":"SiRF","subtype":"9\u0006GSD4e_4.1.2-P1_RPATCH.05-F-GPS-4R-1510281 11/03/2015 307","activated":"2017-12-14T16:45:26.346Z","flags":1,"native":1,"bps":4800,"parity":"N","stopbits":1,"cycle":1.00}]}
2017-12-14 11:45:26 1513269926.914161: {"class":"WATCH","enable":true,"json":false,"nmea":true,"raw":0,"scaled":false,"timing":false,"split24":false,"pps":false}
2017-12-14 11:45:27 1513269927.525723: $GPGSV,3,1,11,24,41,130,21,15,52,049,23,18,61,312,19,10,30,289,21*72
2017-12-14 11:45:27 1513269927.525880: $GPGSV,3,2,11,27,19,304,09,21,77,216,18,20,45,081,16,29,03,187,04*7B
2017-12-14 11:45:27 1513269927.525945: $GPGSV,3,3,11,13,21,045,00,32,09,229,00,120,07,103,00*7E
2017-12-14 11:45:27 1513269927.639138: $GPZDA,164528.00,14,12,2017,00,00*68
2017-12-14 11:45:27 1513269927.639307: $GPGGA,164528,3946.9571,N,08404.9423,W,1,07,1.80,310.57,M,-33.324,M,,*7C
2017-12-14 11:45:27 1513269927.639374: $GPRMC,164528,A,3946.9571,N,08404.9423,W,0.8709,3.298,141217,,*33
2017-12-14 11:45:27 1513269927.639434: $GPGSA,A,3,24,15,18,10,27,21,20,,,,,,6.6,1.8,6.2*31
2017-12-14 11:45:28 1513269928.206264: $GPZDA,164529.00,14,12,2017,00,00*69
2017-12-14 11:45:28 1513269928.206440: $GPGGA,164529,3946.9571,N,08404.9423,W,1,07,1.80,310.57,M,-33.324,M,,*7D
2017-12-14 11:45:28 1513269928.206508: $GPRMC,164529,A,3946.9571,N,08404.9423,W,0.4207,39.347,141217,,*0F
2017-12-14 11:45:28 1513269928.206569: $GPGSA,A,3,24,15,18,10,27,21,20,,,,,,6.6,1.8,6.2*31
2017-12-14 11:45:29 1513269929.206568: $GPZDA,164530.00,14,12,2017,00,00*61
2017-12-14 11:45:29 1513269929.206758: $GPGGA,164530,3946.9571,N,08404.9423,W,1,07,1.80,310.57,M,-33.324,M,,*75
2017-12-14 11:45:29 1513269929.206825: $GPRMC,164530,A,3946.9571,N,08404.9423,W,0.5951,58.684,141217,,*03
2017-12-14 11:45:29 1513269929.206886: $GPGSA,A,3,24,15,18,10,27,21,20,,,,,,6.6,1.8,6.2*31
2017-12-14 11:45:30 1513269930.525160: $GPGSV,3,1,11,24,41,130,21,15,52,049,24,18,61,312,19,10,30,289,21*75
2017-12-14 11:45:30 1513269930.525350: $GPGSV,3,2,11,27,19,304,09,21,77,216,18,20,45,081,16,29,03,187,04*7B
2017-12-14 11:45:30 1513269930.525416: $GPGSV,3,3,11,13,21,045,00,32,09,229,00,120,07,103,00*7E
2017-12-14 11:45:30 1513269930.638764: $GPZDA,164531.00,14,12,2017,00,00*60
2017-12-14 11:45:30 1513269930.638900: $GPGGA,164531,3946.9574,N,08404.9416,W,1,07,1.80,309.89,M,-33.324,M,,*7C
2017-12-14 11:45:30 1513269930.638963: $GPRMC,164531,A,3946.9574,N,08404.9416,W,0.8414,39.347,141217,,*0D
2017-12-14 11:45:30 1513269930.639023: $GPGSA,A,3,24,15,18,10,27,21,20,,,,,,6.6,1.8,6.2*31
2017-12-14 11:45:31 1513269931.207435: $GPZDA,164532.00,14,12,2017,00,00*63
2017-12-14 11:45:31 1513269931.207602: $GPGGA,164532,3946.9574,N,08404.9416,W,1,07,1.80,309.89,M,-33.324,M,,*7F
2017-12-14 11:45:31 1513269931.207668: $GPRMC,164532,A,3946.9574,N,08404.9416,W,0.5951,58.684,141217,,*02
2017-12-14 11:45:31 1513269931.207728: $GPGSA,A,3,24,15,18,10,27,21,20,,,,,,6.6,1.8,6.2*31
2017-12-14 11:45:32 1513269932.207836: $GPZDA,164533.00,14,12,2017,00,00*62
2017-12-14 11:45:32 1513269932.207988: $GPGGA,164533,3946.9574,N,08404.9416,W,1,07,1.80,309.89,M,-33.324,M,,*7E
2017-12-14 11:45:32 1513269932.208054: $GPRMC,164533,A,3946.9574,N,08404.9416,W,0.4207,39.347,141217,,*07
2017-12-14 11:45:32 1513269932.208114: $GPGSA,A,3,24,15,18,10,27,21,20,,,,,,6.6,1.8,6.2*31
2017-12-14 11:45:33 1513269933.543252: $GPGSV,3,1,11,24,41,130,21,15,52,049,24,18,61,312,18,10,30,289,21*74
2017-12-14 11:45:33 1513269933.543430: $GPGSV,3,2,11,27,19,304,10,21,77,216,18,20,45,081,16,29,03,187,04*73
2017-12-14 11:45:33 1513269933.543496: $GPGSV,3,3,11,13,21,045,00,32,09,229,00,120,07,103,00*7E
2017-12-14 11:45:33 1513269933.657743: $GPZDA,164534.00,14,12,2017,00,00*65
2017-12-14 11:45:33 1513269933.657938: $GPGGA,164534,3946.9582,N,08404.9415,W,1,07,1.80,309.76,M,-33.324,M,,*73
2017-12-14 11:45:33 1513269933.658009: $GPRMC,164534,A,3946.9582,N,08404.9415,W,1.1385,29.379,141217,,*09
2017-12-14 11:45:33 1513269933.658122: $GPGSA,A,3,24,15,18,10,27,21,20,,,,,,6.6,1.8,6.2*31
2017-12-14 11:45:34 1513269934.207184: $GPZDA,164535.00,14,12,2017,00,00*64
2017-12-14 11:45:34 1513269934.207347: $GPGGA,164535,3946.9582,N,08404.9415,W,1,07,1.80,309.76,M,-33.324,M,,*72
2017-12-14 11:45:34 1513269934.207413: $GPRMC,164535,A,3946.9582,N,08404.9415,W,0.5951,58.684,141217,,*0F
2017-12-14 11:45:34 1513269934.207474: $GPGSA,A,3,24,15,18,10,27,21,20,,,,,,6.6,1.8,6.2*31
2017-12-14 11:45:35 1513269935.190881: $GPZDA,164536.00,14,12,2017,00,00*67
2017-12-14 11:45:35 1513269935.191052: $GPGGA,164536,3946.9577,N,08404.9408,W,1,07,1.80,309.20,M,-33.324,M,,*74
2017-12-14 11:45:35 1513269935.191120: $GPRMC,164536,A,3946.9577,N,08404.9408,W,0.4179,148.779,141217,,*3A
2017-12-14 11:45:35 1513269935.191180: $GPGSA,A,3,24,15,18,10,27,21,20,,,,,,6.6,1.8,6.2*31
2017-12-14 11:45:36 1513269936.543087: $GPGSV,3,1,11,24,41,130,21,15,52,049,24,18,61,312,18,10,30,289,21*74
2017-12-14 11:45:36 1513269936.543244: $GPGSV,3,2,11,27,19,304,11,21,77,216,18,20,45,081,16,29,03,187,04*72
2017-12-14 11:45:36 1513269936.543308: $GPGSV,3,3,11,13,21,045,00,32,09,229,00,120,07,103,00*7E
2017-12-14 11:45:36 1513269936.656730: $GPZDA,164537.00,14,12,2017,00,00*66
2017-12-14 11:45:36 1513269936.656892: $GPGGA,164537,3946.9577,N,08404.9408,W,1,07,1.80,309.20,M,-33.324,M,,*75
2017-12-14 11:45:36 1513269936.656958: $GPRMC,164537,A,3946.9577,N,08404.9408,W,0.3423,184.197,141217,,*30
2017-12-14 11:45:36 1513269936.657019: $GPGSA,A,3,24,15,18,10,27,21,20,,,,,,6.6,1.8,6.2*31
2017-12-14 11:45:37 1513269937.208159: $GPZDA,164538.00,14,12,2017,00,00*69
2017-12-14 11:45:37 1513269937.208325: $GPGGA,164538,3946.9577,N,08404.9415,W,1,07,1.80,309.12,M,-33.324,M,,*77
2017-12-14 11:45:37 1513269937.208392: $GPRMC,164538,A,3946.9577,N,08404.9415,W,0.3423,184.197,141217,,*33
2017-12-14 11:45:37 1513269937.208453: $GPGSA,A,3,24,15,18,10,27,21,20,,,,,,6.6,1.8,6.2*31
2017-12-14 11:45:38 1513269938.206509: $GPZDA,164539.00,14,12,2017,00,00*68
2017-12-14 11:45:38 1513269938.206677: $GPGGA,164539,3946.9577,N,08404.9415,W,1,07,1.80,309.12,M,-33.324,M,,*76
2017-12-14 11:45:38 1513269938.206745: $GPRMC,164539,A,3946.9577,N,08404.9415,W,0.2422,273.795,141217,,*3D
2017-12-14 11:45:38 1513269938.206806: $GPGSA,A,3,24,15,18,10,27,21,20,,,,,,6.6,1.8,6.2*31
2017-12-14 11:45:39 1513269939.524945: $GPGSV,3,1,11,24,41,130,21,15,52,049,24,18,61,312,18,10,30,289,21*74
2017-12-14 11:45:39 1513269939.525160: $GPGSV,3,2,11,27,19,304,11,21,77,216,18,20,45,081,16,13,21,045,00*70
2017-12-14 11:45:39 1513269939.525233: $GPGSV,3,3,11,32,09,229,05,29,03,187,00,120,07,103,00*7D
2017-12-14 11:45:39 1513269939.638543: $GPZDA,164540.00,14,12,2017,00,00*66
2017-12-14 11:45:39 1513269939.638693: $GPGGA,164540,3946.9581,N,08404.9414,W,1,07,1.80,308.36,M,-33.324,M,,*77
2017-12-14 11:45:39 1513269939.638760: $GPRMC,164540,A,3946.9581,N,08404.9414,W,0.2422,93.795,141217,,*07
2017-12-14 11:45:39 1513269939.638822: $GPGSA,A,3,24,15,18,10,27,21,20,,,,,,6.6,1.8,6.2*31
2017-12-14 11:45:40 1513269940.190061: $GPZDA,164541.00,14,12,2017,00,00*67
2017-12-14 11:45:40 1513269940.190213: $GPGGA,164541,3946.9577,N,08404.9414,W,1,07,1.80,307.72,M,-33.324,M,,*70
2017-12-14 11:45:40 1513269940.190279: $GPRMC,164541,A,3946.9577,N,08404.9414,W,0.1867,180.000,141217,,*39
2017-12-14 11:45:40 1513269940.190341: $GPGSA,A,3,24,15,18,10,27,21,20,,,,,,6.6,1.8,6.2*31
2017-12-14 11:45:41 1513269941.190155: $GPZDA,164542.00,14,12,2017,00,00*64
2017-12-14 11:45:41 1513269941.190308: $GPGGA,164542,3946.9577,N,08404.9414,W,1,07,1.80,307.72,M,-33.324,M,,*73
2017-12-14 11:45:41 1513269941.190379: $GPRMC,164542,A,3946.9577,N,08404.9414,W,0.4207,39.347,141217,,*00
2017-12-14 11:45:41 1513269941.190443: $GPGSA,A,3,24,15,18,10,27,21,20,,,,,,6.6,1.8,6.2*31
2017-12-14 11:45:42 1513269942.526086: $GPGSV,3,1,11,24,41,130,20,15,52,049,24,18,61,312,18,10,30,289,21*75
2017-12-14 11:45:42 1513269942.526266: $GPGSV,3,2,11,27,19,304,11,21,77,216,18,20,45,081,15,13,21,045,00*73
2017-12-14 11:45:42 1513269942.526387: $GPGSV,3,3,11,32,09,229,07,29,03,187,00,120,07,103,00*7F
2017-12-14 11:45:42 1513269942.639722: $GPZDA,164543.00,14,12,2017,00,00*65
2017-12-14 11:45:42 1513269942.639873: $GPGGA,164543,3946.9577,N,08404.9414,W,1,07,1.80,307.72,M,-33.324,M,,*72
2017-12-14 11:45:42 1513269942.639939: $GPRMC,164543,A,3946.9577,N,08404.9414,W,0.5857,338.291,141217,,*37
2017-12-14 11:45:42 1513269942.640000: $GPGSA,A,3,24,15,18,10,27,21,20,,,,,,6.6,1.8,6.2*31
2017-12-14 11:45:43 1513269943.189323: $GPZDA,164544.00,14,12,2017,00,00*62
2017-12-14 11:45:43 1513269943.189494: $GPGGA,164544,3946.9584,N,08404.9414,W,1,07,1.80,307.59,M,-33.324,M,,*70
2017-12-14 11:45:43 1513269943.189561: $GPRMC,164544,A,3946.9584,N,08404.9414,W,0.8709,3.298,141217,,*37
2017-12-14 11:45:43 1513269943.189621: $GPGSA,A,3,24,15,18,10,27,21,20,,,,,,6.6,1.8,6.2*31
2017-12-14 11:45:44 1513269944.190699: $GPZDA,164545.00,14,12,2017,00,00*63
2017-12-14 11:45:44 1513269944.190882: $GPGGA,164545,3946.9584,N,08404.9414,W,1,07,1.80,307.59,M,-33.324,M,,*71
2017-12-14 11:45:44 1513269944.190948: $GPRMC,164545,A,3946.9584,N,08404.9414,W,0.7278,23.636,141217,,*08
2017-12-14 11:45:44 1513269944.191009: $GPGSA,A,3,24,15,18,10,27,21,20,,,,,,6.6,1.8,6.2*31
2017-12-14 11:45:45 1513269945.526611: $GPGSV,3,1,11,24,41,130,20,15,52,049,25,18,61,312,19,10,30,289,21*75
2017-12-14 11:45:45 1513269945.526786: $GPGSV,3,2,11,27,19,304,12,21,77,216,17,20,45,081,15,13,21,045,00*7F
2017-12-14 11:45:45 1513269945.526850: $GPGSV,3,3,11,32,09,229,07,29,03,187,00,120,07,103,00*7F
2017-12-14 11:45:45 1513269945.640368: $GPZDA,164546.00,14,12,2017,00,00*60
2017-12-14 11:45:45 1513269945.640538: $GPGGA,164546,3946.9584,N,08404.9407,W,1,07,1.80,307.67,M,-33.324,M,,*7D
2017-12-14 11:45:45 1513269945.640603: $GPRMC,164546,A,3946.9584,N,08404.9407,W,0.9929,32.499,141217,,*0F
2017-12-14 11:45:45 1513269945.640664: $GPGSA,A,3,24,15,18,10,27,21,20,,,,,,6.6,1.8,6.2*31
2017-12-14 11:45:46 1513269946.190398: $GPZDA,164547.00,14,12,2017,00,00*61
2017-12-14 11:45:46 1513269946.190567: $GPGGA,164547,3946.9587,N,08404.9406,W,1,07,1.80,306.91,M,-33.324,M,,*76
2017-12-14 11:45:46 1513269946.190633: $GPRMC,164547,A,3946.9587,N,08404.9406,W,0.4207,39.347,141217,,*09
2017-12-14 11:45:46 1513269946.190693: $GPGSA,A,3,24,15,18,10,27,21,20,,,,,,6.6,1.8,6.2*31
