2017-11-16 17:12:34 1510870354.080472: {"class":"VERSION","release":"3.17","rev":"3.17","proto_major":3,"proto_minor":12}
2017-11-16 17:12:34 1510870354.080964: {"class":"DEVICES","devices":[{"class":"DEVICE","path":"/dev/ttyUSB0","driver":"SiRF","subtype":"9\u0006GSD4e_4.1.2-P1_RPATCH.05-F-GPS-4R-1510281 11/03/2015 307","activated":"2017-11-16T22:12:33.990Z","flags":1,"native":1,"bps":4800,"parity":"N","stopbits":1,"cycle":1.00}]}
2017-11-16 17:12:34 1510870354.081086: {"class":"WATCH","enable":true,"json":false,"nmea":true,"raw":0,"scaled":false,"timing":false,"split24":false,"pps":false}
2017-11-16 17:12:34 1510870354.415272: $GPZDA,221233.00,16,11,2017,00,00*66
2017-11-16 17:12:34 1510870354.415439: $GPGGA,221233,3946.9564,N,08404.9820,W,2,12,0.80,313.65,M,-33.324,M,,*7C
2017-11-16 17:12:34 1510870354.415499: $GPRMC,221233,A,3946.9564,N,08404.9820,W,0.0000,0.000,161117,,*30
2017-11-16 17:12:34 1510870354.415555: $GPGSA,A,3,1,10,24,12,14,18,22,11,25,31,32,138,1.6,0.8,1.3*38
2017-11-16 17:12:35 1510870355.398572: $GPZDA,221234.00,16,11,2017,00,00*61
2017-11-16 17:12:35 1510870355.398732: $GPGGA,221234,3946.9564,N,08404.9820,W,2,12,0.80,313.65,M,-33.324,M,,*7B
2017-11-16 17:12:35 1510870355.398792: $GPRMC,221234,A,3946.9564,N,08404.9820,W,0.0000,0.000,161117,,*37
2017-11-16 17:12:35 1510870355.398847: $GPGSA,A,3,1,10,24,12,14,18,22,11,25,31,32,138,1.6,0.8,1.3*38
2017-11-16 17:12:36 1510870356.752630: $GPGSV,3,1,12,01,19,309,41,10,57,142,48,24,04,046,20,12,24,058,49*71
2017-11-16 17:12:36 1510870356.752783: $GPGSV,3,2,12,14,62,310,47,18,26,141,45,22,12,312,42,11,10,289,37*70
2017-11-16 17:12:36 1510870356.752843: $GPGSV,3,3,12,25,36,102,48,31,46,219,49,32,70,001,50,138,38,213,45*42
2017-11-16 17:12:36 1510870356.865947: $GPZDA,221235.00,16,11,2017,00,00*60
2017-11-16 17:12:36 1510870356.866104: $GPGGA,221235,3946.9564,N,08404.9820,W,2,12,0.80,313.65,M,-33.324,M,,*7A
2017-11-16 17:12:36 1510870356.866164: $GPRMC,221235,A,3946.9564,N,08404.9820,W,0.0000,0.000,161117,,*36
2017-11-16 17:12:36 1510870356.866219: $GPGSA,A,3,1,10,24,12,14,18,22,11,25,31,32,138,1.6,0.8,1.3*38
2017-11-16 17:12:37 1510870357.416850: $GPZDA,221236.00,16,11,2017,00,00*63
2017-11-16 17:12:37 1510870357.417025: $GPGGA,221236,3946.9564,N,08404.9820,W,2,12,0.80,313.65,M,-33.324,M,,*79
2017-11-16 17:12:37 1510870357.417085: $GPRMC,221236,A,3946.9564,N,08404.9820,W,0.0000,0.000,161117,,*35
2017-11-16 17:12:37 1510870357.417142: $GPGSA,A,3,1,10,24,12,14,18,22,11,25,31,32,138,1.6,0.8,1.3*38
2017-11-16 17:12:38 1510870358.415228: $GPZDA,221237.00,16,11,2017,00,00*62
2017-11-16 17:12:38 1510870358.415398: $GPGGA,221237,3946.9564,N,08404.9820,W,2,12,0.80,313.65,M,-33.324,M,,*78
2017-11-16 17:12:38 1510870358.415462: $GPRMC,221237,A,3946.9564,N,08404.9820,W,0.0000,0.000,161117,,*34
2017-11-16 17:12:38 1510870358.415520: $GPGSA,A,3,1,10,24,12,14,18,22,11,25,31,32,138,1.6,0.8,1.3*38
2017-11-16 17:12:39 1510870359.728496: $GPGSV,3,1,12,01,19,309,42,10,57,142,48,24,04,046,20,12,24,058,49*72
2017-11-16 17:12:39 1510870359.728682: $GPGSV,3,2,12,14,62,310,47,18,26,141,45,22,12,312,41,11,10,289,38*7C
2017-11-16 17:12:39 1510870359.728746: $GPGSV,3,3,12,25,36,102,48,31,46,219,49,32,70,001,50,138,38,213,44*43
2017-11-16 17:12:39 1510870359.841809: $GPZDA,221238.00,16,11,2017,00,00*6D
2017-11-16 17:12:39 1510870359.841956: $GPGGA,221238,3946.9564,N,08404.9820,W,2,12,0.80,313.65,M,-33.324,M,,*77
2017-11-16 17:12:39 1510870359.842018: $GPRMC,221238,A,3946.9564,N,08404.9820,W,0.0000,0.000,161117,,*3B
2017-11-16 17:12:39 1510870359.842073: $GPGSA,A,3,1,10,24,12,14,18,22,11,25,31,32,138,1.6,0.8,1.3*38
2017-11-16 17:12:40 1510870360.416437: $GPZDA,221239.00,16,11,2017,00,00*6C
2017-11-16 17:12:40 1510870360.416603: $GPGGA,221239,3946.9564,N,08404.9820,W,2,12,0.80,313.65,M,-33.324,M,,*76
2017-11-16 17:12:40 1510870360.416666: $GPRMC,221239,A,3946.9564,N,08404.9820,W,0.0000,0.000,161117,,*3A
2017-11-16 17:12:40 1510870360.416722: $GPGSA,A,3,1,10,24,12,14,18,22,11,25,31,32,138,1.6,0.8,1.3*38
2017-11-16 17:12:41 1510870361.415973: $GPZDA,221240.00,16,11,2017,00,00*62
2017-11-16 17:12:41 1510870361.416184: $GPGGA,221240,3946.9564,N,08404.9820,W,2,12,0.80,313.65,M,-33.324,M,,*78
2017-11-16 17:12:41 1510870361.416246: $GPRMC,221240,A,3946.9564,N,08404.9820,W,0.0000,0.000,161117,,*34
2017-11-16 17:12:41 1510870361.416304: $GPGSA,A,3,1,10,24,12,14,18,22,11,25,31,32,138,1.6,0.8,1.3*38
2017-11-16 17:12:42 1510870362.753896: $GPGSV,3,1,12,01,19,309,42,10,57,142,48,24,04,046,19,12,24,058,49*78
2017-11-16 17:12:42 1510870362.754068: $GPGSV,3,2,12,14,62,310,47,18,26,141,45,22,12,312,41,11,10,289,38*7C
2017-11-16 17:12:42 1510870362.754132: $GPGSV,3,3,12,25,36,102,48,31,46,219,49,32,70,001,50,138,38,213,44*43
2017-11-16 17:12:42 1510870362.867293: $GPZDA,221241.00,16,11,2017,00,00*63
2017-11-16 17:12:42 1510870362.867459: $GPGGA,221241,3946.9564,N,08404.9820,W,2,12,0.80,313.65,M,-33.324,M,,*79
2017-11-16 17:12:42 1510870362.867525: $GPRMC,221241,A,3946.9564,N,08404.9820,W,0.0000,0.000,161117,,*35
2017-11-16 17:12:42 1510870362.867581: $GPGSA,A,3,1,10,24,12,14,18,22,11,25,31,32,138,1.6,0.8,1.3*38
2017-11-16 17:12:43 1510870363.418219: $GPZDA,221242.00,16,11,2017,00,00*60
2017-11-16 17:12:43 1510870363.418393: $GPGGA,221242,3946.9564,N,08404.9820,W,2,12,0.80,313.65,M,-33.324,M,,*7A
2017-11-16 17:12:43 1510870363.418461: $GPRMC,221242,A,3946.9564,N,08404.9820,W,0.0000,0.000,161117,,*36
2017-11-16 17:12:43 1510870363.418524: $GPGSA,A,3,1,10,24,12,14,18,22,11,25,31,32,138,1.6,0.8,1.3*38
