2017-11-16 17:18:13 1510870693.061833: {"class":"VERSION","release":"3.17","rev":"3.17","proto_major":3,"proto_minor":12}
2017-11-16 17:18:13 1510870693.062269: {"class":"DEVICES","devices":[{"class":"DEVICE","path":"/dev/ttyUSB0","driver":"SiRF","subtype":"9\u0006GSD4e_4.1.2-P1_RPATCH.05-F-GPS-4R-1510281 11/03/2015 307","activated":"2017-11-16T22:18:12.991Z","flags":1,"native":1,"bps":4800,"parity":"N","stopbits":1,"cycle":1.00}]}
2017-11-16 17:18:13 1510870693.062455: {"class":"WATCH","enable":true,"json":false,"nmea":true,"raw":0,"scaled":false,"timing":false,"split24":false,"pps":false}
2017-11-16 17:18:13 1510870693.420838: $GPZDA,221812.00,16,11,2017,00,00*6F
2017-11-16 17:18:13 1510870693.421027: $GPGGA,221812,3946.9571,N,08404.9825,W,2,12,0.80,310.64,M,-33.324,M,,*76
2017-11-16 17:18:13 1510870693.421090: $GPRMC,221812,A,3946.9571,N,08404.9825,W,0.0000,0.000,161117,,*38
2017-11-16 17:18:13 1510870693.421146: $GPGSA,A,3,1,10,22,12,14,18,24,11,25,31,32,138,1.6,0.8,1.3*38
2017-11-16 17:18:14 1510870694.400690: $GPZDA,221813.00,16,11,2017,00,00*6E
2017-11-16 17:18:14 1510870694.400848: $GPGGA,221813,3946.9571,N,08404.9825,W,2,12,0.80,310.64,M,-33.324,M,,*77
2017-11-16 17:18:14 1510870694.400927: $GPRMC,221813,A,3946.9571,N,08404.9825,W,0.0000,0.000,161117,,*39
2017-11-16 17:18:14 1510870694.400984: $GPGSA,A,3,1,10,22,12,14,18,24,11,25,31,32,138,1.6,0.8,1.3*38
2017-11-16 17:18:15 1510870695.731239: $GPGSV,3,1,12,01,20,307,38,10,56,144,48,22,13,312,40,12,24,057,49*77
2017-11-16 17:18:15 1510870695.731442: $GPGSV,3,2,12,14,63,313,47,18,25,141,42,24,03,048,16,11,10,288,37*7C
2017-11-16 17:18:15 1510870695.731503: $GPGSV,3,3,12,25,37,100,47,31,48,219,49,32,70,006,49,138,38,213,44*4E
2017-11-16 17:18:15 1510870695.844572: $GPZDA,221814.00,16,11,2017,00,00*69
2017-11-16 17:18:15 1510870695.844756: $GPGGA,221814,3946.9571,N,08404.9825,W,2,12,0.80,310.64,M,-33.324,M,,*70
2017-11-16 17:18:15 1510870695.844819: $GPRMC,221814,A,3946.9571,N,08404.9825,W,0.0000,0.000,161117,,*3E
2017-11-16 17:18:15 1510870695.844874: $GPGSA,A,3,1,10,22,12,14,18,24,11,25,31,32,138,1.6,0.8,1.3*38
2017-11-16 17:18:16 1510870696.470181: $GPZDA,221815.00,16,11,2017,00,00*68
2017-11-16 17:18:16 1510870696.470362: $GPGGA,221815,3946.9571,N,08404.9825,W,2,12,0.80,310.64,M,-33.324,M,,*71
2017-11-16 17:18:16 1510870696.470440: $GPRMC,221815,A,3946.9571,N,08404.9825,W,0.0000,0.000,161117,,*3F
2017-11-16 17:18:16 1510870696.470497: $GPGSA,A,3,1,10,22,12,14,18,24,11,25,31,32,138,1.6,0.8,1.3*38
2017-11-16 17:18:17 1510870697.419813: $GPZDA,221816.00,16,11,2017,00,00*6B
2017-11-16 17:18:17 1510870697.419975: $GPGGA,221816,3946.9571,N,08404.9825,W,2,12,0.80,310.64,M,-33.324,M,,*72
2017-11-16 17:18:17 1510870697.420036: $GPRMC,221816,A,3946.9571,N,08404.9825,W,0.0000,0.000,161117,,*3C
2017-11-16 17:18:17 1510870697.420091: $GPGSA,A,3,1,10,22,12,14,18,24,11,25,31,32,138,1.6,0.8,1.3*38
2017-11-16 17:18:17 1510870697.420144: $GPGBS,221816,2.07,M,2.72,M,7.42,M*33
2017-11-16 17:18:18 1510870698.756633: $GPGSV,3,1,12,01,20,306,38,10,54,145,48,22,14,312,40,12,24,055,49*70
2017-11-16 17:18:18 1510870698.756807: $GPGSV,3,2,12,14,63,316,47,18,24,142,41,24,02,048,16,11,10,288,38*76
2017-11-16 17:18:18 1510870698.756869: $GPGSV,3,3,12,25,38,097,47,31,49,220,49,32,70,010,49,138,38,213,44*42
2017-11-16 17:18:18 1510870698.869912: $GPZDA,221817.00,16,11,2017,00,00*6A
2017-11-16 17:18:18 1510870698.870052: $GPGGA,221817,3946.9571,N,08404.9825,W,2,12,0.80,310.64,M,-33.324,M,,*73
2017-11-16 17:18:18 1510870698.870113: $GPRMC,221817,A,3946.9571,N,08404.9825,W,0.0000,0.000,161117,,*3D
2017-11-16 17:18:18 1510870698.870169: $GPGSA,A,3,1,10,22,12,14,18,24,11,25,31,32,138,1.6,0.8,1.3*38
2017-11-16 17:18:19 1510870699.420844: $GPZDA,221818.00,16,11,2017,00,00*65
2017-11-16 17:18:19 1510870699.421016: $GPGGA,221818,3946.9571,N,08404.9825,W,2,12,0.80,310.64,M,-33.324,M,,*7C
2017-11-16 17:18:19 1510870699.421078: $GPRMC,221818,A,3946.9571,N,08404.9825,W,0.0000,0.000,161117,,*32
2017-11-16 17:18:19 1510870699.421133: $GPGSA,A,3,1,10,22,12,14,18,24,11,25,31,32,138,1.6,0.8,1.3*38
2017-11-16 17:18:20 1510870700.395474: $GPZDA,221819.00,16,11,2017,00,00*64
2017-11-16 17:18:20 1510870700.395643: $GPGGA,221819,3946.9571,N,08404.9825,W,2,12,0.80,310.64,M,-33.324,M,,*7D
2017-11-16 17:18:20 1510870700.395705: $GPRMC,221819,A,3946.9571,N,08404.9825,W,0.0000,0.000,161117,,*33
2017-11-16 17:18:20 1510870700.395762: $GPGSA,A,3,1,10,22,12,14,18,24,11,25,31,32,138,1.6,0.8,1.3*38
2017-11-16 17:18:21 1510870701.750749: $GPGSV,3,1,12,01,20,306,38,10,54,145,48,22,14,312,40,12,24,055,49*70
2017-11-16 17:18:21 1510870701.750915: $GPGSV,3,2,12,14,63,316,47,18,24,142,41,24,02,048,16,11,10,288,37*79
2017-11-16 17:18:21 1510870701.750974: $GPGSV,3,3,12,25,38,097,47,31,49,220,49,32,70,010,49,138,38,213,44*42
2017-11-16 17:18:21 1510870701.862793: $GPZDA,221820.00,16,11,2017,00,00*6E
2017-11-16 17:18:21 1510870701.862956: $GPGGA,221820,3946.9571,N,08404.9825,W,2,12,0.80,310.64,M,-33.324,M,,*77
2017-11-16 17:18:21 1510870701.863017: $GPRMC,221820,A,3946.9571,N,08404.9825,W,0.0000,0.000,161117,,*39
2017-11-16 17:18:21 1510870701.863073: $GPGSA,A,3,1,10,22,12,14,18,24,11,25,31,32,138,1.6,0.8,1.3*38
2017-11-16 17:18:22 1510870702.399940: $GPZDA,221821.00,16,11,2017,00,00*6F
2017-11-16 17:18:22 1510870702.400105: $GPGGA,221821,3946.9571,N,08404.9825,W,2,12,0.80,310.64,M,-33.324,M,,*76
2017-11-16 17:18:22 1510870702.400166: $GPRMC,221821,A,3946.9571,N,08404.9825,W,0.0000,0.000,161117,,*38
2017-11-16 17:18:22 1510870702.400223: $GPGSA,A,3,1,10,22,12,14,18,24,11,25,31,32,138,1.6,0.8,1.3*38
