2017-12-31 18:12:22 1514761942.068915: {"class":"VERSION","release":"3.16","rev":"3.16-4","proto_major":3,"proto_minor":11}
2017-12-31 18:12:22 1514761942.069489: {"class":"DEVICES","devices":[{"class":"DEVICE","path":"/dev/ttyUSB0","driver":"SiRF","activated":"2017-12-31T23:12:21.938Z","flags":1,"native":1,"bps":4800,"parity":"N","stopbits":1,"cycle":1.00}]}
2017-12-31 18:12:22 1514761942.069590: {"class":"WATCH","enable":true,"json":false,"nmea":true,"raw":0,"scaled":false,"timing":false,"split24":false,"pps":false}
2017-12-31 18:12:22 1514761942.377752: $GPZDA,231223.00,31,12,2017,00,00*60
2017-12-31 18:12:22 1514761942.377914: $GPGGA,231223,3946.9557,N,08404.9874,W,2,12,0.80,308.93,M,-33.324,M,,*7E
2017-12-31 18:12:22 1514761942.377980: $GPRMC,231223,A,3946.9557,N,08404.9874,W,0.0000,0.000,311217,,*37
2017-12-31 18:12:22 1514761942.378040: $GPGSA,A,3,22,23,9,3,16,29,14,31,27,8,26,135,1.7,0.8,1.3*30
2017-12-31 18:12:23 1514761943.377376: $GPZDA,231224.00,31,12,2017,00,00*67
2017-12-31 18:12:23 1514761943.377542: $GPGGA,231224,3946.9557,N,08404.9874,W,2,12,0.80,308.93,M,-33.324,M,,*79
2017-12-31 18:12:23 1514761943.377609: $GPRMC,231224,A,3946.9557,N,08404.9874,W,0.0000,0.000,311217,,*30
2017-12-31 18:12:23 1514761943.377669: $GPGSA,A,3,22,23,9,3,16,29,14,31,27,8,26,135,1.7,0.8,1.3*30
2017-12-31 18:12:24 1514761944.683977: $GPGSV,3,1,12,22,21,213,36,23,55,306,46,09,21,312,43,03,31,234,43*76
2017-12-31 18:12:24 1514761944.684151: $GPGSV,3,2,12,16,82,187,44,29,05,030,32,14,14,133,35,31,28,076,45*7B
2017-12-31 18:12:24 1514761944.684239: $GPGSV,3,3,12,27,23,153,32,08,01,180,23,26,61,049,48,135,22,240,44*4A
2017-12-31 18:12:24 1514761944.797727: $GPZDA,231225.00,31,12,2017,00,00*66
2017-12-31 18:12:24 1514761944.797868: $GPGGA,231225,3946.9557,N,08404.9874,W,2,12,0.80,308.93,M,-33.324,M,,*78
2017-12-31 18:12:24 1514761944.797933: $GPRMC,231225,A,3946.9557,N,08404.9874,W,0.0000,0.000,311217,,*31
2017-12-31 18:12:24 1514761944.797993: $GPGSA,A,3,22,23,9,3,16,29,14,31,27,8,26,135,1.7,0.8,1.3*30
2017-12-31 18:12:25 1514761945.423052: $GPZDA,231226.00,31,12,2017,00,00*65
2017-12-31 18:12:25 1514761945.423236: $GPGGA,231226,3946.9557,N,08404.9874,W,2,12,0.80,308.93,M,-33.324,M,,*7B
2017-12-31 18:12:25 1514761945.423319: $GPRMC,231226,A,3946.9557,N,08404.9874,W,0.0000,0.000,311217,,*32
2017-12-31 18:12:25 1514761945.423382: $GPGSA,A,3,22,23,9,3,16,29,14,31,27,8,26,135,1.7,0.8,1.3*30
2017-12-31 18:12:26 1514761946.377763: $GPZDA,231227.00,31,12,2017,00,00*64
2017-12-31 18:12:26 1514761946.377925: $GPGGA,231227,3946.9557,N,08404.9874,W,2,12,0.80,308.93,M,-33.324,M,,*7A
2017-12-31 18:12:26 1514761946.377990: $GPRMC,231227,A,3946.9557,N,08404.9874,W,0.0000,0.000,311217,,*33
2017-12-31 18:12:26 1514761946.378051: $GPGSA,A,3,22,23,9,3,16,29,14,31,27,8,26,135,1.7,0.8,1.3*30
2017-12-31 18:12:27 1514761947.684340: $GPGSV,3,1,12,22,21,213,36,23,55,306,45,09,21,312,44,03,31,234,43*72
2017-12-31 18:12:27 1514761947.684529: $GPGSV,3,2,12,16,82,187,44,29,05,030,33,14,14,133,36,31,28,076,46*7A
2017-12-31 18:12:27 1514761947.684598: $GPGSV,3,3,12,27,23,153,32,08,01,180,24,26,61,049,48,135,22,240,44*4D
2017-12-31 18:12:27 1514761947.797990: $GPZDA,231228.00,31,12,2017,00,00*6B
2017-12-31 18:12:27 1514761947.798132: $GPGGA,231228,3946.9557,N,08404.9874,W,2,12,0.80,308.93,M,-33.324,M,,*75
2017-12-31 18:12:27 1514761947.798222: $GPRMC,231228,A,3946.9557,N,08404.9874,W,0.0000,0.000,311217,,*3C
2017-12-31 18:12:27 1514761947.798303: $GPGSA,A,3,22,23,9,3,16,29,14,31,27,8,26,135,1.7,0.8,1.3*30
2017-12-31 18:12:28 1514761948.377744: $GPZDA,231229.00,31,12,2017,00,00*6A
2017-12-31 18:12:28 1514761948.377903: $GPGGA,231229,3946.9557,N,08404.9874,W,2,12,0.80,308.93,M,-33.324,M,,*74
2017-12-31 18:12:28 1514761948.377972: $GPRMC,231229,A,3946.9557,N,08404.9874,W,0.0000,0.000,311217,,*3D
2017-12-31 18:12:28 1514761948.378035: $GPGSA,A,3,22,23,9,3,16,29,14,31,27,8,26,135,1.7,0.8,1.3*30
2017-12-31 18:12:29 1514761949.349766: $GPZDA,231230.00,31,12,2017,00,00*62
2017-12-31 18:12:29 1514761949.349936: $GPGGA,231230,3946.9557,N,08404.9874,W,2,12,0.80,308.93,M,-33.324,M,,*7C
2017-12-31 18:12:29 1514761949.350059: $GPRMC,231230,A,3946.9557,N,08404.9874,W,0.0000,0.000,311217,,*35
2017-12-31 18:12:29 1514761949.350122: $GPGSA,A,3,22,23,9,3,16,29,14,31,27,8,26,135,1.7,0.8,1.3*30
2017-12-31 18:12:30 1514761950.678431: $GPGSV,3,1,12,22,21,213,36,23,55,306,45,09,21,312,44,03,31,234,44*75
2017-12-31 18:12:30 1514761950.678600: $GPGSV,3,2,12,16,82,187,44,29,05,030,33,14,14,133,36,31,28,076,45*79
2017-12-31 18:12:30 1514761950.678667: $GPGSV,3,3,12,27,23,153,33,08,01,180,24,26,61,049,48,135,22,240,44*4C
2017-12-31 18:12:30 1514761950.792056: $GPZDA,231231.00,31,12,2017,00,00*63
2017-12-31 18:12:30 1514761950.792217: $GPGGA,231231,3946.9557,N,08404.9874,W,2,12,0.80,308.93,M,-33.324,M,,*7D
2017-12-31 18:12:30 1514761950.792310: $GPRMC,231231,A,3946.9557,N,08404.9874,W,0.0000,0.000,311217,,*34
2017-12-31 18:12:30 1514761950.792373: $GPGSA,A,3,22,23,9,3,16,29,14,31,27,8,26,135,1.7,0.8,1.3*30
2017-12-31 18:12:31 1514761951.377914: $GPZDA,231232.00,31,12,2017,00,00*60
2017-12-31 18:12:31 1514761951.378082: $GPGGA,231232,3946.9557,N,08404.9874,W,2,12,0.80,308.93,M,-33.324,M,,*7E
2017-12-31 18:12:31 1514761951.378168: $GPRMC,231232,A,3946.9557,N,08404.9874,W,0.0000,0.000,311217,,*37
2017-12-31 18:12:31 1514761951.378231: $GPGSA,A,3,22,23,9,3,16,29,14,31,27,8,26,135,1.7,0.8,1.3*30
