2017-12-01 11:31:03 1512145863.556865: {"class":"VERSION","release":"3.16","rev":"3.16-4","proto_major":3,"proto_minor":11}
2017-12-01 11:31:03 1512145863.557297: {"class":"DEVICES","devices":[{"class":"DEVICE","path":"/dev/ttyUSB0","driver":"SiRF","subtype":"9\u0006GSD4e_4.1.2-P1_RPATCH.05-F-GPS-4R-1510281 11/03/2015 307","activated":"2017-12-01T16:31:03.240Z","flags":1,"native":1,"bps":4800,"parity":"N","stopbits":1,"cycle":1.00}]}
2017-12-01 11:31:03 1512145863.557416: {"class":"WATCH","enable":true,"json":false,"nmea":true,"raw":0,"scaled":false,"timing":false,"split24":false,"pps":false}
2017-12-01 11:31:03 1512145863.689034: $GPGSV,3,1,12,05,18,073,38,10,09,268,37,13,48,054,46,15,78,097,48*7F
2017-12-01 11:31:03 1512145863.689211: $GPGSV,3,2,12,18,40,280,43,20,66,040,43,21,62,309,47,24,15,151,40*77
2017-12-01 11:31:03 1512145863.689277: $GPGSV,3,3,12,27,05,327,34,29,30,196,48,30,01,030,19,138,38,213,46*4B
2017-12-01 11:31:03 1512145863.802696: $GPZDA,163104.00,01,12,2017,00,00*61
2017-12-01 11:31:03 1512145863.802864: $GPGGA,163104,3946.9568,N,08404.9869,W,2,12,0.80,300.26,M,-33.324,M,,*7A
2017-12-01 11:31:03 1512145863.802930: $GPRMC,163104,A,3946.9568,N,08404.9869,W,0.0000,0.000,011217,,*36
2017-12-01 11:31:03 1512145863.802991: $GPGSA,A,3,5,10,13,15,18,20,21,24,27,29,30,138,2.0,0.8,1.5*37
2017-12-01 11:31:04 1512145864.356016: $GPZDA,163105.00,01,12,2017,00,00*60
2017-12-01 11:31:04 1512145864.356184: $GPGGA,163105,3946.9568,N,08404.9869,W,2,12,0.80,300.26,M,-33.324,M,,*7B
2017-12-01 11:31:04 1512145864.356251: $GPRMC,163105,A,3946.9568,N,08404.9869,W,0.0000,0.000,011217,,*37
2017-12-01 11:31:04 1512145864.356311: $GPGSA,A,3,5,10,13,15,18,20,21,24,27,29,30,138,2.0,0.8,1.5*37
2017-12-01 11:31:05 1512145865.357321: $GPZDA,163106.00,01,12,2017,00,00*63
2017-12-01 11:31:05 1512145865.357498: $GPGGA,163106,3946.9568,N,08404.9869,W,2,12,0.80,300.26,M,-33.324,M,,*78
2017-12-01 11:31:05 1512145865.357564: $GPRMC,163106,A,3946.9568,N,08404.9869,W,0.0000,0.000,011217,,*34
2017-12-01 11:31:05 1512145865.357625: $GPGSA,A,3,5,10,13,15,18,20,21,24,27,29,30,138,2.0,0.8,1.5*37
2017-12-01 11:31:06 1512145866.690532: $GPGSV,3,1,12,05,18,073,38,10,09,268,36,13,48,054,46,15,78,097,48*7E
2017-12-01 11:31:06 1512145866.690686: $GPGSV,3,2,12,18,40,280,44,20,66,040,43,21,62,309,47,24,15,151,40*70
2017-12-01 11:31:06 1512145866.690767: $GPGSV,3,3,12,27,05,327,30,29,30,196,47,30,01,030,19,138,38,213,45*43
2017-12-01 11:31:06 1512145866.803950: $GPZDA,163107.00,01,12,2017,00,00*62
2017-12-01 11:31:06 1512145866.804123: $GPGGA,163107,3946.9568,N,08404.9869,W,2,12,0.80,300.26,M,-33.324,M,,*79
2017-12-01 11:31:06 1512145866.804189: $GPRMC,163107,A,3946.9568,N,08404.9869,W,0.0000,0.000,011217,,*35
2017-12-01 11:31:06 1512145866.804249: $GPGSA,A,3,5,10,13,15,18,20,21,24,27,29,30,138,2.0,0.8,1.5*37
2017-12-01 11:31:07 1512145867.353996: $GPZDA,163108.00,01,12,2017,00,00*6D
2017-12-01 11:31:07 1512145867.354190: $GPGGA,163108,3946.9568,N,08404.9869,W,2,12,0.80,300.26,M,-33.324,M,,*76
2017-12-01 11:31:07 1512145867.354258: $GPRMC,163108,A,3946.9568,N,08404.9869,W,0.0000,0.000,011217,,*3A
2017-12-01 11:31:07 1512145867.354319: $GPGSA,A,3,5,10,13,15,18,20,21,24,27,29,30,138,2.0,0.8,1.5*37
2017-12-01 11:31:08 1512145868.353535: $GPZDA,163109.00,01,12,2017,00,00*6C
2017-12-01 11:31:08 1512145868.353720: $GPGGA,163109,3946.9565,N,08404.9869,W,2,12,0.80,301.02,M,-33.324,M,,*7D
2017-12-01 11:31:08 1512145868.353789: $GPRMC,163109,A,3946.9565,N,08404.9869,W,0.0000,0.000,011217,,*36
2017-12-01 11:31:08 1512145868.353849: $GPGSA,A,3,5,10,13,15,18,20,21,24,27,29,30,138,2.0,0.8,1.5*37
2017-12-01 11:31:09 1512145869.691433: $GPGSV,3,1,12,05,18,073,38,10,09,268,37,13,48,054,46,15,78,097,48*7F
2017-12-01 11:31:09 1512145869.691625: $GPGSV,3,2,12,18,40,280,44,20,66,040,43,21,62,309,47,24,15,151,40*70
2017-12-01 11:31:09 1512145869.691693: $GPGSV,3,3,12,27,05,327,29,29,30,196,48,30,01,030,18,138,38,213,45*45
2017-12-01 11:31:09 1512145869.804920: $GPZDA,163110.00,01,12,2017,00,00*64
2017-12-01 11:31:09 1512145869.805091: $GPGGA,163110,3946.9569,N,08404.9869,W,2,12,0.80,301.66,M,-33.324,M,,*7B
2017-12-01 11:31:09 1512145869.805210: $GPRMC,163110,A,3946.9569,N,08404.9869,W,0.0000,0.000,011217,,*32
2017-12-01 11:31:09 1512145869.805272: $GPGSA,A,3,5,10,13,15,18,20,21,24,27,29,30,138,2.0,0.8,1.5*37
2017-12-01 11:31:10 1512145870.430171: $GPZDA,163111.00,01,12,2017,00,00*65
2017-12-01 11:31:10 1512145870.430353: $GPGGA,163111,3946.9569,N,08404.9869,W,2,12,0.80,301.66,M,-33.324,M,,*7A
2017-12-01 11:31:10 1512145870.430422: $GPRMC,163111,A,3946.9569,N,08404.9869,W,0.0000,0.000,011217,,*33
2017-12-01 11:31:10 1512145870.430483: $GPGSA,A,3,5,10,13,15,18,20,21,24,27,29,30,138,2.0,0.8,1.5*37
2017-12-01 11:31:11 1512145871.355032: $GPZDA,163112.00,01,12,2017,00,00*66
2017-12-01 11:31:11 1512145871.355202: $GPGGA,163112,3946.9569,N,08404.9869,W,2,12,0.80,301.66,M,-33.324,M,,*79
2017-12-01 11:31:11 1512145871.355269: $GPRMC,163112,A,3946.9569,N,08404.9869,W,0.0000,0.000,011217,,*30
2017-12-01 11:31:11 1512145871.355331: $GPGSA,A,3,5,10,13,15,18,20,21,24,27,29,30,138,2.0,0.8,1.5*37
2017-12-01 11:31:12 1512145872.690637: $GPGSV,3,1,12,05,18,073,38,10,09,268,37,13,48,054,46,15,78,097,48*7F
2017-12-01 11:31:12 1512145872.690813: $GPGSV,3,2,12,18,40,280,44,20,66,040,43,21,62,309,46,24,15,151,40*71
2017-12-01 11:31:12 1512145872.690880: $GPGSV,3,3,12,27,05,327,30,29,30,196,48,30,01,030,16,138,38,213,46*40
2017-12-01 11:31:12 1512145872.804347: $GPZDA,163113.00,01,12,2017,00,00*67
2017-12-01 11:31:12 1512145872.804538: $GPGGA,163113,3946.9569,N,08404.9869,W,2,12,0.80,301.66,M,-33.324,M,,*78
2017-12-01 11:31:12 1512145872.804608: $GPRMC,163113,A,3946.9569,N,08404.9869,W,0.0000,0.000,011217,,*31
2017-12-01 11:31:12 1512145872.804673: $GPGSA,A,3,5,10,13,15,18,20,21,24,27,29,30,138,2.0,0.8,1.5*37
2017-12-01 11:31:13 1512145873.352751: $GPZDA,163114.00,01,12,2017,00,00*60
2017-12-01 11:31:13 1512145873.352925: $GPGGA,163114,3946.9569,N,08404.9869,W,2,12,0.80,301.66,M,-33.324,M,,*7F
2017-12-01 11:31:13 1512145873.352994: $GPRMC,163114,A,3946.9569,N,08404.9869,W,0.0000,0.000,011217,,*36
2017-12-01 11:31:13 1512145873.353058: $GPGSA,A,3,5,10,13,15,18,20,21,24,27,29,30,138,2.0,0.8,1.5*37
