2017-11-16 15:38:45 1510864725.715547: {"class":"VERSION","release":"3.17","rev":"3.17","proto_major":3,"proto_minor":12}
2017-11-16 15:38:45 1510864725.716064: {"class":"DEVICES","devices":[{"class":"DEVICE","path":"/dev/ttyUSB0","driver":"SiRF","subtype":"9\u0006GSD4e_4.1.2-P1_RPATCH.05-F-GPS-4R-1510281 11/03/2015 307","activated":"2017-11-16T20:38:45.682Z","flags":1,"native":1,"bps":4800,"parity":"N","stopbits":1,"cycle":1.00}]}
2017-11-16 15:38:45 1510864725.716204: {"class":"WATCH","enable":true,"json":false,"nmea":true,"raw":0,"scaled":false,"timing":false,"split24":false,"pps":false}
2017-11-16 15:38:46 1510864726.699373: $GPGSV,3,1,12,08,04,288,33,10,74,340,51,14,33,258,44,31,04,204,38*76
2017-11-16 15:38:46 1510864726.699544: $GPGSV,3,2,12,18,66,105,48,11,01,325,29,21,23,178,43,24,40,054,49*71
2017-11-16 15:38:46 1510864726.699608: $GPGSV,3,3,12,27,03,255,26,32,50,271,45,12,13,102,35,138,38,213,44*4E
2017-11-16 15:38:46 1510864726.812631: $GPZDA,203845.00,16,11,2017,00,00*6D
2017-11-16 15:38:46 1510864726.812806: $GPGGA,203845,3946.9564,N,08404.9860,W,2,12,1.20,308.97,M,-33.324,M,,*7F
2017-11-16 15:38:46 1510864726.812869: $GPRMC,203845,A,3946.9564,N,08404.9860,W,0.0000,0.000,161117,,*3F
2017-11-16 15:38:46 1510864726.812924: $GPGSA,A,3,8,10,14,31,18,11,21,24,27,32,12,138,1.6,1.2,1.3*3B
2017-11-16 15:38:47 1510864727.363986: $GPZDA,203846.00,16,11,2017,00,00*6E
2017-11-16 15:38:47 1510864727.364204: $GPGGA,203846,3946.9564,N,08404.9860,W,2,12,1.20,308.97,M,-33.324,M,,*7C
2017-11-16 15:38:47 1510864727.364278: $GPRMC,203846,A,3946.9564,N,08404.9860,W,0.0000,0.000,161117,,*3C
2017-11-16 15:38:47 1510864727.364343: $GPGSA,A,3,8,10,14,31,18,11,21,24,27,32,12,138,1.6,1.2,1.3*3B
2017-11-16 15:38:48 1510864728.365802: $GPZDA,203847.00,16,11,2017,00,00*6F
2017-11-16 15:38:48 1510864728.365965: $GPGGA,203847,3946.9564,N,08404.9860,W,2,12,1.20,308.97,M,-33.324,M,,*7D
2017-11-16 15:38:48 1510864728.366028: $GPRMC,203847,A,3946.9564,N,08404.9860,W,0.0000,0.000,161117,,*3D
2017-11-16 15:38:48 1510864728.366084: $GPGSA,A,3,8,10,14,31,18,11,21,24,27,32,12,138,1.6,1.2,1.3*3B
2017-11-16 15:38:49 1510864729.710257: $GPGSV,3,1,12,08,04,288,34,10,74,340,51,14,33,258,44,31,04,204,37*7E
2017-11-16 15:38:49 1510864729.710473: $GPGSV,3,2,12,18,66,105,48,20,04,121,03,21,23,178,43,24,40,054,49*78
2017-11-16 15:38:49 1510864729.710534: $GPGSV,3,3,12,25,07,138,01,32,50,271,45,12,13,102,35,138,38,213,44*45
2017-11-16 15:38:49 1510864729.823593: $GPZDA,203848.00,16,11,2017,00,00*60
2017-11-16 15:38:49 1510864729.823760: $GPGGA,203848,3946.9564,N,08404.9860,W,2,10,1.20,308.97,M,-33.324,M,,*70
2017-11-16 15:38:49 1510864729.823820: $GPRMC,203848,A,3946.9564,N,08404.9860,W,0.0000,0.000,161117,,*32
2017-11-16 15:38:49 1510864729.823876: $GPGSA,A,3,8,10,14,31,18,21,24,32,12,138,,,1.6,1.2,1.3*3E
2017-11-16 15:38:50 1510864730.367370: $GPZDA,203849.00,16,11,2017,00,00*61
2017-11-16 15:38:50 1510864730.367511: $GPGGA,203849,3946.9564,N,08404.9860,W,2,10,1.20,308.97,M,-33.324,M,,*71
2017-11-16 15:38:50 1510864730.367571: $GPRMC,203849,A,3946.9564,N,08404.9860,W,0.0000,0.000,161117,,*33
2017-11-16 15:38:50 1510864730.367627: $GPGSA,A,3,8,10,14,31,18,21,24,32,12,138,,,1.6,1.2,1.3*3E
2017-11-16 15:38:51 1510864731.365001: $GPZDA,203850.00,16,11,2017,00,00*69
2017-11-16 15:38:51 1510864731.376561: $GPGGA,203850,3946.9564,N,08404.9860,W,2,10,1.20,308.97,M,-33.324,M,,*79
2017-11-16 15:38:51 1510864731.376697: $GPRMC,203850,A,3946.9564,N,08404.9860,W,0.0000,0.000,161117,,*3B
2017-11-16 15:38:51 1510864731.376814: $GPGSA,A,3,8,10,14,31,18,21,24,32,12,138,,,1.6,1.2,1.3*3E
2017-11-16 15:38:52 1510864732.694662: $GPGSV,3,1,12,08,04,288,34,10,74,340,51,14,33,258,44,31,04,204,37*7E
2017-11-16 15:38:52 1510864732.694767: $GPGSV,3,2,12,18,66,105,48,20,04,121,19,21,23,178,43,24,40,054,49*73
2017-11-16 15:38:52 1510864732.694798: $GPGSV,3,3,12,27,03,255,21,32,50,271,45,12,13,102,35,138,38,213,45*48
2017-11-16 15:38:52 1510864732.806047: $GPZDA,203851.00,16,11,2017,00,00*68
2017-11-16 15:38:52 1510864732.806153: $GPGGA,203851,3946.9564,N,08404.9860,W,2,12,1.20,308.97,M,-33.324,M,,*7A
2017-11-16 15:38:52 1510864732.806226: $GPRMC,203851,A,3946.9564,N,08404.9860,W,0.0000,0.000,161117,,*3A
2017-11-16 15:38:52 1510864732.806256: $GPGSA,A,3,8,10,14,31,18,20,21,24,27,32,12,138,1.6,1.2,1.3*39
2017-11-16 15:38:53 1510864733.382840: $GPZDA,203852.00,16,11,2017,00,00*6B
2017-11-16 15:38:53 1510864733.383013: $GPGGA,203852,3946.9564,N,08404.9860,W,2,12,1.20,308.97,M,-33.324,M,,*79
2017-11-16 15:38:53 1510864733.383076: $GPRMC,203852,A,3946.9564,N,08404.9860,W,0.0000,0.000,161117,,*39
2017-11-16 15:38:53 1510864733.383133: $GPGSA,A,3,8,10,14,31,18,20,21,24,27,32,12,138,1.6,1.2,1.3*39
2017-11-16 15:38:54 1510864734.384761: $GPZDA,203853.00,16,11,2017,00,00*6A
2017-11-16 15:38:54 1510864734.384922: $GPGGA,203853,3946.9564,N,08404.9860,W,2,12,1.20,308.97,M,-33.324,M,,*78
2017-11-16 15:38:54 1510864734.384983: $GPRMC,203853,A,3946.9564,N,08404.9860,W,0.0000,0.000,161117,,*38
2017-11-16 15:38:54 1510864734.385039: $GPGSA,A,3,8,10,14,31,18,20,21,24,27,32,12,138,1.6,1.2,1.3*39
