2017-11-15 19:40:50 1510792850.098875: {"class":"VERSION","release":"3.17","rev":"3.17","proto_major":3,"proto_minor":12}
2017-11-15 19:40:50 1510792850.100221: {"class":"DEVICES","devices":[{"class":"DEVICE","path":"/dev/ttyUSB0","driver":"SiRF","subtype":"9\u0006GSD4e_4.1.2-P1_RPATCH.05-F-GPS-4R-1510281 11/03/2015 307","activated":"2017-11-16T00:40:49.487Z","flags":1,"native":1,"bps":4800,"parity":"N","stopbits":1,"cycle":1.00}]}
2017-11-15 19:40:50 1510792850.100424: {"class":"WATCH","enable":true,"json":false,"nmea":true,"raw":0,"scaled":false,"timing":false,"split24":false,"pps":false}
2017-11-15 19:40:50 1510792850.329103: $GPZDA,004049.00,16,11,2017,00,00*6C
2017-11-15 19:40:50 1510792850.329283: $GPGGA,004049,3946.9603,N,08404.9523,W,1,07,1.80,292.59,M,-33.324,M,,*7B
2017-11-15 19:40:50 1510792850.329344: $GPRMC,004049,A,3946.9603,N,08404.9523,W,1.0269,184.197,161117,,*38
2017-11-15 19:40:50 1510792850.329400: $GPGSA,A,3,32,16,22,26,14,31,3,,,,,,3.4,1.8,2.9*01
2017-11-15 19:40:51 1510792851.665587: $GPGSV,3,1,11,32,32,111,16,16,27,190,18,22,50,264,12,26,58,171,21*75
2017-11-15 19:40:51 1510792851.665758: $GPGSV,3,2,11,14,52,097,06,31,64,031,20,03,42,294,04,23,14,303,00*78
2017-11-15 19:40:51 1510792851.665819: $GPGSV,3,3,11,25,13,039,00,29,12,067,00,01,03,249,00*42
2017-11-15 19:40:51 1510792851.779261: $GPZDA,004050.00,16,11,2017,00,00*64
2017-11-15 19:40:51 1510792851.779418: $GPGGA,004050,3946.9603,N,08404.9523,W,1,05,1.80,292.59,M,-33.324,M,,*71
2017-11-15 19:40:51 1510792851.779478: $GPRMC,004050,A,3946.9603,N,08404.9523,W,0.4179,148.778,161117,,*30
2017-11-15 19:40:51 1510792851.779534: $GPGSA,A,3,32,16,22,26,31,,,,,,,,3.4,1.8,2.9*37
2017-11-15 19:40:52 1510792852.346042: $GPZDA,004051.00,16,11,2017,00,00*65
2017-11-15 19:40:52 1510792852.346217: $GPGGA,004051,3946.9603,N,08404.9523,W,1,05,1.80,292.59,M,-33.324,M,,*70
2017-11-15 19:40:52 1510792852.346279: $GPRMC,004051,A,3946.9603,N,08404.9523,W,0.4207,219.347,161117,,*34
2017-11-15 19:40:52 1510792852.346335: $GPGSA,A,3,32,16,22,26,31,,,,,,,,3.4,1.8,2.9*37
2017-11-15 19:40:53 1510792853.329803: $GPZDA,004052.00,16,11,2017,00,00*66
2017-11-15 19:40:53 1510792853.329962: $GPGGA,004052,3946.9603,N,08404.9523,W,1,05,1.80,292.59,M,-33.324,M,,*73
2017-11-15 19:40:53 1510792853.330044: $GPRMC,004052,A,3946.9603,N,08404.9523,W,0.4844,273.794,161117,,*3C
2017-11-15 19:40:53 1510792853.330100: $GPGSA,A,3,32,16,22,26,31,,,,,,,,3.4,1.8,2.9*37
2017-11-15 19:40:54 1510792854.682682: $GPGSV,3,1,11,32,32,111,15,16,27,190,18,22,50,264,12,26,58,171,21*76
2017-11-15 19:40:54 1510792854.682845: $GPGSV,3,2,11,14,52,097,04,31,64,031,19,03,42,294,04,23,14,303,00*70
2017-11-15 19:40:54 1510792854.682905: $GPGSV,3,3,11,25,13,039,00,29,12,067,00,01,03,249,00*42
2017-11-15 19:40:54 1510792854.796092: $GPZDA,004053.00,16,11,2017,00,00*67
2017-11-15 19:40:54 1510792854.796277: $GPGGA,004053,3946.9607,N,08404.9530,W,1,05,1.80,293.15,M,-33.324,M,,*7D
2017-11-15 19:40:54 1510792854.796339: $GPRMC,004053,A,3946.9607,N,08404.9530,W,0.9988,284.546,161117,,*32
2017-11-15 19:40:54 1510792854.796395: $GPGSA,A,3,32,16,22,26,31,,,,,,,,3.4,1.8,2.9*37
2017-11-15 19:40:55 1510792855.346979: $GPZDA,004054.00,16,11,2017,00,00*60
2017-11-15 19:40:55 1510792855.347163: $GPGGA,004054,3946.9608,N,08404.9537,W,1,05,1.80,293.08,M,-33.324,M,,*7E
2017-11-15 19:40:55 1510792855.347224: $GPRMC,004054,A,3946.9608,N,08404.9537,W,1.2357,266.543,161117,,*36
2017-11-15 19:40:55 1510792855.347280: $GPGSA,A,3,32,16,22,26,31,,,,,,,,3.4,1.8,2.9*37
2017-11-15 19:40:56 1510792856.346468: $GPZDA,004055.00,16,11,2017,00,00*61
2017-11-15 19:40:56 1510792856.346631: $GPGGA,004055,3946.9608,N,08404.9537,W,1,05,1.80,293.08,M,-33.324,M,,*7F
2017-11-15 19:40:56 1510792856.346691: $GPRMC,004055,A,3946.9608,N,08404.9537,W,0.7621,287.945,161117,,*32
2017-11-15 19:40:56 1510792856.346830: $GPGSA,A,3,32,16,22,26,31,,,,,,,,3.4,1.8,2.9*37
2017-11-15 19:40:57 1510792857.664282: $GPGSV,3,1,11,32,32,111,15,16,27,190,18,22,50,264,13,26,58,171,20*76
2017-11-15 19:40:57 1510792857.664456: $GPGSV,3,2,11,14,52,097,12,31,64,031,18,03,42,294,04,23,14,303,00*76
2017-11-15 19:40:57 1510792857.664567: $GPGSV,3,3,11,25,13,039,00,29,12,067,00,01,03,249,00*42
2017-11-15 19:40:57 1510792857.777677: $GPZDA,004056.00,16,11,2017,00,00*62
2017-11-15 19:40:57 1510792857.777836: $GPGGA,004056,3946.9608,N,08404.9537,W,1,06,1.80,293.08,M,-33.324,M,,*7F
2017-11-15 19:40:57 1510792857.777896: $GPRMC,004056,A,3946.9608,N,08404.9537,W,0.5912,309.173,161117,,*36
2017-11-15 19:40:57 1510792857.777976: $GPGSA,A,3,32,16,22,26,14,31,,,,,,,3.4,1.8,2.9*32
2017-11-15 19:40:58 1510792858.328531: $GPZDA,004057.00,16,11,2017,00,00*63
2017-11-15 19:40:58 1510792858.328704: $GPGGA,004057,3946.9608,N,08404.9537,W,1,06,1.80,293.08,M,-33.324,M,,*7E
2017-11-15 19:40:58 1510792858.328768: $GPRMC,004057,A,3946.9608,N,08404.9537,W,0.4207,219.347,161117,,*3C
2017-11-15 19:40:58 1510792858.328826: $GPGSA,A,3,32,16,22,26,14,31,,,,,,,3.4,1.8,2.9*32
2017-11-15 19:40:59 1510792859.345654: $GPZDA,004058.00,16,11,2017,00,00*6C
2017-11-15 19:40:59 1510792859.345833: $GPGGA,004058,3946.9608,N,08404.9544,W,1,06,1.80,293.00,M,-33.324,M,,*7D
2017-11-15 19:40:59 1510792859.349349: $GPRMC,004058,A,3946.9608,N,08404.9544,W,0.7278,203.636,161117,,*34
2017-11-15 19:40:59 1510792859.349435: $GPGSA,A,3,32,16,22,26,14,31,,,,,,,3.4,1.8,2.9*32
