2017-12-31 18:06:05 1514761565.650205: {"class":"VERSION","release":"3.16","rev":"3.16-4","proto_major":3,"proto_minor":11}
2017-12-31 18:06:05 1514761565.650561: {"class":"DEVICES","devices":[{"class":"DEVICE","path":"/dev/ttyUSB0","driver":"SiRF","activated":"2017-12-31T23:06:05.487Z","flags":1,"native":1,"bps":4800,"parity":"N","stopbits":1,"cycle":1.00}]}
2017-12-31 18:06:05 1514761565.650658: {"class":"WATCH","enable":true,"json":false,"nmea":true,"raw":0,"scaled":false,"timing":false,"split24":false,"pps":false}
2017-12-31 18:06:06 1514761566.685489: $GPGSV,3,1,11,22,23,216,39,23,52,307,44,09,19,312,41,03,33,235,45*75
2017-12-31 18:06:06 1514761566.685670: $GPGSV,3,2,11,16,79,190,44,29,06,031,34,14,16,132,32,31,29,073,41*7A
2017-12-31 18:06:06 1514761566.685736: $GPGSV,3,3,11,27,21,154,03,26,64,051,49,135,22,240,43*75
2017-12-31 18:06:06 1514761566.798972: $GPZDA,230607.00,31,12,2017,00,00*63
2017-12-31 18:06:06 1514761566.799123: $GPGGA,230607,3946.9561,N,08404.9874,W,2,10,0.80,308.17,M,-33.324,M,,*76
2017-12-31 18:06:06 1514761566.799190: $GPRMC,230607,A,3946.9561,N,08404.9874,W,0.0000,0.000,311217,,*31
2017-12-31 18:06:06 1514761566.799250: $GPGSA,A,3,22,23,9,3,16,29,14,31,26,135,,,1.7,0.8,1.3*0D
2017-12-31 18:06:07 1514761567.348566: $GPZDA,230608.00,31,12,2017,00,00*6C
2017-12-31 18:06:07 1514761567.348738: $GPGGA,230608,3946.9561,N,08404.9874,W,2,10,0.60,308.17,M,-33.324,M,,*77
2017-12-31 18:06:07 1514761567.348804: $GPRMC,230608,A,3946.9561,N,08404.9874,W,0.0000,0.000,311217,,*3E
2017-12-31 18:06:07 1514761567.348865: $GPGSA,A,3,22,23,9,3,16,29,14,31,26,135,,,1.7,0.6,1.3*03
2017-12-31 18:06:08 1514761568.346939: $GPZDA,230609.00,31,12,2017,00,00*6D
2017-12-31 18:06:08 1514761568.347173: $GPGGA,230609,3946.9561,N,08404.9874,W,2,10,0.60,308.17,M,-33.324,M,,*76
2017-12-31 18:06:08 1514761568.347251: $GPRMC,230609,A,3946.9561,N,08404.9874,W,0.0000,0.000,311217,,*3F
2017-12-31 18:06:08 1514761568.347312: $GPGSA,A,3,22,23,9,3,16,29,14,31,26,135,,,1.7,0.6,1.3*03
2017-12-31 18:06:09 1514761569.711398: $GPGSV,3,1,11,22,23,216,39,23,52,307,44,09,19,312,42,03,33,235,45*76
2017-12-31 18:06:10 1514761570.622464: $GPGSV,3,2,11,16,79,190,43,29,06,031,32,14,16,132,33,31,29,073,41*7A
2017-12-31 18:06:10 1514761570.622621: $GPGSV,3,3,11,27,21,154,29,26,64,051,49,135,22,240,44*7A
2017-12-31 18:06:10 1514761570.622719: $GPZDA,230610.00,31,12,2017,00,00*65
2017-12-31 18:06:10 1514761570.622779: $GPGGA,230610,3946.9561,N,08404.9874,W,2,11,0.60,308.17,M,-33.324,M,,*7F
2017-12-31 18:06:10 1514761570.622841: $GPRMC,230610,A,3946.9561,N,08404.9874,W,0.0000,0.000,311217,,*37
2017-12-31 18:06:10 1514761570.622900: $GPGSA,A,3,22,23,9,3,16,29,14,31,27,26,135,,1.7,0.6,1.3*06
2017-12-31 18:06:10 1514761570.622958: $GPZDA,230611.00,31,12,2017,00,00*64
2017-12-31 18:06:10 1514761570.623012: $GPGGA,230611,3946.9561,N,08404.9874,W,2,11,0.80,308.17,M,-33.324,M,,*70
2017-12-31 18:06:10 1514761570.623072: $GPRMC,230611,A,3946.9561,N,08404.9874,W,0.0000,0.000,311217,,*36
2017-12-31 18:06:10 1514761570.623131: $GPGSA,A,3,22,23,9,3,16,29,14,31,27,26,135,,1.7,0.8,1.3*08
2017-12-31 18:06:11 1514761571.376280: $GPZDA,230612.00,31,12,2017,00,00*67
2017-12-31 18:06:11 1514761571.376440: $GPGGA,230612,3946.9561,N,08404.9874,W,2,11,0.60,308.17,M,-33.324,M,,*7D
2017-12-31 18:06:11 1514761571.376506: $GPRMC,230612,A,3946.9561,N,08404.9874,W,0.0000,0.000,311217,,*35
2017-12-31 18:06:11 1514761571.376566: $GPGSA,A,3,22,23,9,3,16,29,14,31,27,26,135,,1.7,0.6,1.3*06
2017-12-31 18:06:12 1514761572.676712: $GPGSV,3,1,11,22,23,216,40,23,52,307,44,09,19,312,42,03,33,235,45*78
2017-12-31 18:06:12 1514761572.676891: $GPGSV,3,2,11,16,79,190,44,29,06,031,32,14,16,132,33,31,29,073,41*7D
2017-12-31 18:06:12 1514761572.676955: $GPGSV,3,3,11,27,21,154,00,26,64,051,49,135,22,240,43*76
2017-12-31 18:06:12 1514761572.790380: $GPZDA,230613.00,31,12,2017,00,00*66
2017-12-31 18:06:12 1514761572.790533: $GPGGA,230613,3946.9561,N,08404.9874,W,2,10,0.80,308.17,M,-33.324,M,,*73
2017-12-31 18:06:12 1514761572.790599: $GPRMC,230613,A,3946.9561,N,08404.9874,W,0.0000,0.000,311217,,*34
2017-12-31 18:06:12 1514761572.790704: $GPGSA,A,3,22,23,9,3,16,29,14,31,26,135,,,1.7,0.8,1.3*0D
2017-12-31 18:06:13 1514761573.350025: $GPZDA,230614.00,31,12,2017,00,00*61
2017-12-31 18:06:13 1514761573.350192: $GPGGA,230614,3946.9561,N,08404.9874,W,2,10,0.60,308.17,M,-33.324,M,,*7A
2017-12-31 18:06:13 1514761573.350258: $GPRMC,230614,A,3946.9561,N,08404.9874,W,0.0000,0.000,311217,,*33
2017-12-31 18:06:13 1514761573.350319: $GPGSA,A,3,22,23,9,3,16,29,14,31,26,135,,,1.7,0.6,1.3*03
2017-12-31 18:06:14 1514761574.375880: $GPZDA,230615.00,31,12,2017,00,00*60
2017-12-31 18:06:14 1514761574.376062: $GPGGA,230615,3946.9561,N,08404.9874,W,2,10,0.80,308.17,M,-33.324,M,,*75
2017-12-31 18:06:14 1514761574.376146: $GPRMC,230615,A,3946.9561,N,08404.9874,W,0.0000,0.000,311217,,*32
2017-12-31 18:06:14 1514761574.376209: $GPGSA,A,3,22,23,9,3,16,29,14,31,26,135,,,1.7,0.8,1.3*0D
