2018-01-11 21:01:36 1515722496.346818: {"class":"VERSION","release":"3.16","rev":"3.16-4","proto_major":3,"proto_minor":11}
2018-01-11 21:01:36 1515722496.347160: {"class":"DEVICES","devices":[{"class":"DEVICE","path":"/dev/ttyUSB0","driver":"SiRF","subtype":"9\u0006GSD4e_4.1.2-P1_RPATCH.05-F-GPS-4R-1510281 11/03/2015 307","activated":"2018-01-12T02:01:36.244Z","flags":1,"native":1,"bps":4800,"parity":"N","stopbits":1,"cycle":1.00}]}
2018-01-11 21:01:36 1515722496.347277: {"class":"WATCH","enable":true,"json":false,"nmea":true,"raw":0,"scaled":false,"timing":false,"split24":false,"pps":false}
2018-01-11 21:01:36 1515722496.357416: $GPZDA,020137.00,12,01,2018,00,00*68
2018-01-11 21:01:36 1515722496.357519: $GPGGA,020137,3946.9590,N,08404.9841,W,2,12,0.80,292.34,M,-33.324,M,,*78
2018-01-11 21:01:36 1515722496.357582: $GPRMC,020137,A,3946.9590,N,08404.9841,W,0.0000,0.000,120118,,*32
2018-01-11 21:01:36 1515722496.357642: $GPGSA,A,3,1,7,8,9,11,27,28,30,16,23,13,138,4.0,0.8,3.5*0D
2018-01-11 21:01:37 1515722497.357376: $GPZDA,020138.00,12,01,2018,00,00*67
2018-01-11 21:01:37 1515722497.357541: $GPGGA,020138,3946.9590,N,08404.9841,W,2,12,0.80,292.34,M,-33.324,M,,*77
2018-01-11 21:01:37 1515722497.357607: $GPRMC,020138,A,3946.9590,N,08404.9841,W,0.0000,0.000,120118,,*3D
2018-01-11 21:01:37 1515722497.357667: $GPGSA,A,3,1,7,8,9,11,27,28,30,16,23,13,138,4.0,0.8,3.5*0D
2018-01-11 21:01:38 1515722498.694104: $GPGSV,3,1,12,01,17,153,43,07,79,310,44,08,66,055,47,09,28,210,42*79
2018-01-11 21:01:38 1515722498.694266: $GPGSV,3,2,12,11,41,157,45,27,27,045,50,28,29,276,36,30,50,310,40*7F
2018-01-11 21:01:38 1515722498.694331: $GPGSV,3,3,12,16,07,075,22,23,07,183,31,13,01,330,21,138,38,213,45*46
2018-01-11 21:01:38 1515722498.807722: $GPZDA,020139.00,12,01,2018,00,00*66
2018-01-11 21:01:38 1515722498.807848: $GPGGA,020139,3946.9590,N,08404.9841,W,2,12,0.80,292.34,M,-33.324,M,,*76
2018-01-11 21:01:38 1515722498.807911: $GPRMC,020139,A,3946.9590,N,08404.9841,W,0.0000,0.000,120118,,*3C
2018-01-11 21:01:38 1515722498.807970: $GPGSA,A,3,1,7,8,9,11,27,28,30,16,23,13,138,4.0,0.8,3.5*0D
2018-01-11 21:01:39 1515722499.433129: $GPZDA,020140.00,12,01,2018,00,00*68
2018-01-11 21:01:39 1515722499.433288: $GPGGA,020140,3946.9590,N,08404.9841,W,2,12,0.80,292.34,M,-33.324,M,,*78
2018-01-11 21:01:39 1515722499.433353: $GPRMC,020140,A,3946.9590,N,08404.9841,W,0.0000,0.000,120118,,*32
2018-01-11 21:01:39 1515722499.433412: $GPGSA,A,3,1,7,8,9,11,27,28,30,16,23,13,138,4.0,0.8,3.5*0D
2018-01-11 21:01:40 1515722500.361510: $GPZDA,020141.00,12,01,2018,00,00*69
2018-01-11 21:01:40 1515722500.361688: $GPGGA,020141,3946.9590,N,08404.9841,W,2,12,0.80,292.34,M,-33.324,M,,*79
2018-01-11 21:01:40 1515722500.361754: $GPRMC,020141,A,3946.9590,N,08404.9841,W,0.0000,0.000,120118,,*33
2018-01-11 21:01:40 1515722500.361814: $GPGSA,A,3,1,7,8,9,11,27,28,30,16,23,13,138,4.0,0.8,3.5*0D
2018-01-11 21:01:41 1515722501.694472: $GPGSV,3,1,12,01,17,153,43,07,79,310,44,08,66,055,47,09,28,210,41*7A
2018-01-11 21:01:41 1515722501.694631: $GPGSV,3,2,12,11,41,157,45,27,27,045,50,28,29,276,36,30,50,310,41*7E
2018-01-11 21:01:41 1515722501.694697: $GPGSV,3,3,12,16,07,075,22,23,07,183,32,13,01,330,22,138,38,213,45*46
2018-01-11 21:01:41 1515722501.808090: $GPZDA,020142.00,12,01,2018,00,00*6A
2018-01-11 21:01:41 1515722501.808206: $GPGGA,020142,3946.9590,N,08404.9841,W,2,12,0.80,292.34,M,-33.324,M,,*7A
2018-01-11 21:01:41 1515722501.808270: $GPRMC,020142,A,3946.9590,N,08404.9841,W,0.0000,0.000,120118,,*30
2018-01-11 21:01:41 1515722501.808329: $GPGSA,A,3,1,7,8,9,11,27,28,30,16,23,13,138,4.0,0.8,3.5*0D
2018-01-11 21:01:42 1515722502.360811: $GPZDA,020143.00,12,01,2018,00,00*6B
2018-01-11 21:01:42 1515722502.360968: $GPGGA,020143,3946.9590,N,08404.9841,W,2,12,0.80,292.34,M,-33.324,M,,*7B
2018-01-11 21:01:42 1515722502.361035: $GPRMC,020143,A,3946.9590,N,08404.9841,W,0.0000,0.000,120118,,*31
2018-01-11 21:01:42 1515722502.361094: $GPGSA,A,3,1,7,8,9,11,27,28,30,16,23,13,138,4.0,0.8,3.5*0D
2018-01-11 21:01:43 1515722503.361137: $GPZDA,020144.00,12,01,2018,00,00*6C
2018-01-11 21:01:43 1515722503.361350: $GPGGA,020144,3946.9590,N,08404.9841,W,2,12,0.80,292.34,M,-33.324,M,,*7C
2018-01-11 21:01:43 1515722503.361417: $GPRMC,020144,A,3946.9590,N,08404.9841,W,0.0000,0.000,120118,,*36
2018-01-11 21:01:43 1515722503.361477: $GPGSA,A,3,1,7,8,9,11,27,28,30,16,23,13,138,4.0,0.8,3.5*0D
