2017-12-14 12:42:48 1513273368.074998: {"class":"VERSION","release":"3.16","rev":"3.16-4","proto_major":3,"proto_minor":11}
2017-12-14 12:42:48 1513273368.075332: {"class":"DEVICES","devices":[{"class":"DEVICE","path":"/dev/ttyUSB0","driver":"SiRF","subtype":"9\u0006GSD4e_4.1.2-P1_RPATCH.05-F-GPS-4R-1510281 11/03/2015 307","activated":"2017-12-14T17:42:47.495Z","flags":1,"native":1,"bps":4800,"parity":"N","stopbits":1,"cycle":1.00}]}
2017-12-14 12:42:48 1513273368.075444: {"class":"WATCH","enable":true,"json":false,"nmea":true,"raw":0,"scaled":false,"timing":false,"split24":false,"pps":false}
2017-12-14 12:42:48 1513273368.177749: $GPZDA,174249.00,14,12,2017,00,00*69
2017-12-14 12:42:48 1513273368.177914: $GPGGA,174249,3946.9416,N,08404.9390,W,1,07,1.80,327.86,M,-33.324,M,,*7A
2017-12-14 12:42:48 1513273368.177981: $GPRMC,174249,A,3946.9416,N,08404.9390,W,1.0269,184.197,141217,,*35
2017-12-14 12:42:48 1513273368.178041: $GPGSA,A,3,18,20,27,32,10,24,21,,,,,,6.6,1.8,6.2*34
2017-12-14 12:42:49 1513273369.530260: $GPGSV,3,1,11,18,76,012,24,20,26,103,15,14,12,238,05,27,16,279,18*7B
2017-12-14 12:42:49 1513273369.530451: $GPGSV,3,2,11,32,30,246,19,10,50,310,23,24,53,091,11,21,51,183,19*78
2017-12-14 12:42:49 1513273369.530518: $GPGSV,3,3,11,15,28,057,16,08,08,313,00,138,38,213,00*72
2017-12-14 12:42:49 1513273369.643654: $GPZDA,174250.00,14,12,2017,00,00*61
2017-12-14 12:42:49 1513273369.643830: $GPGGA,174250,3946.9412,N,08404.9390,W,1,07,1.80,327.22,M,-33.324,M,,*78
2017-12-14 12:42:49 1513273369.643896: $GPRMC,174250,A,3946.9412,N,08404.9390,W,1.1323,158.868,141217,,*3F
2017-12-14 12:42:49 1513273369.643956: $GPGSA,A,3,18,20,27,32,10,24,21,,,,,,6.6,1.8,6.2*34
2017-12-14 12:42:50 1513273370.178793: $GPZDA,174251.00,14,12,2017,00,00*60
2017-12-14 12:42:50 1513273370.178966: $GPGGA,174251,3946.9411,N,08404.9383,W,1,07,1.80,327.30,M,-33.324,M,,*7B
2017-12-14 12:42:50 1513273370.179033: $GPRMC,174251,A,3946.9411,N,08404.9383,W,0.9948,137.276,141217,,*3D
2017-12-14 12:42:50 1513273370.179093: $GPGSA,A,3,18,20,27,32,10,24,21,,,,,,6.6,1.8,6.2*34
2017-12-14 12:42:51 1513273371.193927: $GPZDA,174252.00,14,12,2017,00,00*63
2017-12-14 12:42:51 1513273371.194101: $GPGGA,174252,3946.9415,N,08404.9383,W,1,07,1.80,327.94,M,-33.324,M,,*72
2017-12-14 12:42:51 1513273371.194168: $GPRMC,174252,A,3946.9415,N,08404.9383,W,0.7267,93.795,141217,,*05
2017-12-14 12:42:51 1513273371.194230: $GPGSA,A,3,18,20,27,32,10,24,21,,,,,,6.6,1.8,6.2*34
2017-12-14 12:42:52 1513273372.512704: $GPGSV,3,1,11,18,76,012,24,20,26,103,15,14,12,238,05,27,16,279,18*7B
2017-12-14 12:42:52 1513273372.512882: $GPGSV,3,2,11,32,30,246,19,10,50,310,23,24,53,091,11,21,51,183,20*72
2017-12-14 12:42:52 1513273372.512948: $GPGSV,3,3,11,15,28,057,00,08,08,313,00,138,38,213,00*75
2017-12-14 12:42:52 1513273372.626084: $GPZDA,174253.00,14,12,2017,00,00*62
2017-12-14 12:42:52 1513273372.626256: $GPGGA,174253,3946.9408,N,08404.9377,W,1,08,1.80,328.15,M,-33.324,M,,*7D
2017-12-14 12:42:52 1513273372.626323: $GPRMC,174253,A,3946.9408,N,08404.9377,W,1.1824,129.173,141217,,*37
2017-12-14 12:42:52 1513273372.626384: $GPGSA,A,3,18,20,14,27,32,10,24,21,,,,,6.6,1.8,6.2*31
2017-12-14 12:42:53 1513273373.193209: $GPZDA,174254.00,14,12,2017,00,00*65
2017-12-14 12:42:53 1513273373.193377: $GPGGA,174254,3946.9403,N,08404.9377,W,1,08,1.80,327.51,M,-33.324,M,,*7E
2017-12-14 12:42:53 1513273373.193443: $GPRMC,174254,A,3946.9403,N,08404.9377,W,1.0534,170.904,141217,,*32
2017-12-14 12:42:53 1513273373.193503: $GPGSA,A,3,18,20,14,27,32,10,24,21,,,,,6.6,1.8,6.2*31
2017-12-14 12:42:54 1513273374.193754: $GPZDA,174255.00,14,12,2017,00,00*64
2017-12-14 12:42:54 1513273374.194037: $GPGGA,174255,3946.9404,N,08404.9384,W,1,08,1.80,327.43,M,-33.324,M,,*77
2017-12-14 12:42:54 1513273374.194106: $GPRMC,174255,A,3946.9404,N,08404.9384,W,0.7278,203.637,141217,,*39
2017-12-14 12:42:54 1513273374.194184: $GPGSA,A,3,18,20,14,27,32,10,24,21,,,,,6.6,1.8,6.2*31
2017-12-14 12:42:55 1513273375.529504: $GPGSV,3,1,11,18,76,012,24,20,26,103,15,14,12,238,04,27,16,279,18*7A
2017-12-14 12:42:55 1513273375.529686: $GPGSV,3,2,11,32,30,246,19,10,50,310,22,24,53,091,12,21,51,183,21*71
2017-12-14 12:42:55 1513273375.529824: $GPGSV,3,3,11,15,28,057,00,08,08,313,00,138,38,213,00*75
2017-12-14 12:42:55 1513273375.642998: $GPZDA,174256.00,14,12,2017,00,00*67
2017-12-14 12:42:55 1513273375.643168: $GPGGA,174256,3946.9396,N,08404.9385,W,1,07,1.80,327.55,M,-33.324,M,,*71
2017-12-14 12:42:55 1513273375.643234: $GPRMC,174256,A,3946.9396,N,08404.9385,W,0.8414,219.347,141217,,*3D
2017-12-14 12:42:55 1513273375.643295: $GPGSA,A,3,18,20,27,32,10,24,21,,,,,,6.6,1.8,6.2*34
2017-12-14 12:42:56 1513273376.193453: $GPZDA,174257.00,14,12,2017,00,00*66
2017-12-14 12:42:56 1513273376.193627: $GPGGA,174257,3946.9396,N,08404.9385,W,1,07,1.80,327.55,M,-33.324,M,,*70
2017-12-14 12:42:56 1513273376.193694: $GPRMC,174257,A,3946.9396,N,08404.9385,W,0.4179,148.779,141217,,*30
2017-12-14 12:42:56 1513273376.193755: $GPGSA,A,3,18,20,27,32,10,24,21,,,,,,6.6,1.8,6.2*34
2017-12-14 12:42:57 1513273377.193272: $GPZDA,174258.00,14,12,2017,00,00*69
2017-12-14 12:42:57 1513273377.193439: $GPGGA,174258,3946.9403,N,08404.9377,W,1,07,1.80,327.51,M,-33.324,M,,*7D
2017-12-14 12:42:57 1513273377.193505: $GPRMC,174258,A,3946.9403,N,08404.9377,W,0.5774,27.515,141217,,*03
2017-12-14 12:42:57 1513273377.193565: $GPGSA,A,3,18,20,27,32,10,24,21,,,,,,6.6,1.8,6.2*34
2017-12-14 12:42:58 1513273378.530127: $GPGSV,3,1,11,18,76,012,24,20,26,103,15,14,12,238,04,27,16,279,18*7A
2017-12-14 12:42:58 1513273378.530304: $GPGSV,3,2,11,32,30,246,20,10,50,310,22,24,53,091,11,21,51,183,21*78
2017-12-14 12:42:58 1513273378.530369: $GPGSV,3,3,11,15,28,057,17,08,08,313,00,120,07,103,00*74
2017-12-14 12:42:58 1513273378.643540: $GPZDA,174259.00,14,12,2017,00,00*68
2017-12-14 12:42:58 1513273378.643728: $GPGGA,174259,3946.9408,N,08404.9377,W,1,07,1.80,328.15,M,-33.324,M,,*78
2017-12-14 12:42:58 1513273378.643811: $GPRMC,174259,A,3946.9408,N,08404.9377,W,0.5774,27.515,141217,,*09
2017-12-14 12:42:58 1513273378.643873: $GPGSA,A,3,18,20,27,32,10,24,21,,,,,,6.6,1.8,6.2*34
2017-12-14 12:42:59 1513273379.193678: $GPZDA,174300.00,14,12,2017,00,00*65
2017-12-14 12:42:59 1513273379.193865: $GPGGA,174300,3946.9411,N,08404.9376,W,1,07,1.80,327.38,M,-33.324,M,,*7C
2017-12-14 12:42:59 1513273379.193932: $GPRMC,174300,A,3946.9411,N,08404.9376,W,0.9019,18.875,141217,,*0A
2017-12-14 12:42:59 1513273379.193993: $GPGSA,A,3,18,20,27,32,10,24,21,,,,,,6.6,1.8,6.2*34
2017-12-14 12:43:00 1513273380.177534: $GPZDA,174301.00,14,12,2017,00,00*64
2017-12-14 12:43:00 1513273380.177714: $GPGGA,174301,3946.9415,N,08404.9369,W,1,07,1.80,328.10,M,-33.324,M,,*72
2017-12-14 12:43:00 1513273380.177798: $GPRMC,174301,A,3946.9415,N,08404.9369,W,1.3044,25.352,141217,,*02
2017-12-14 12:43:00 1513273380.177861: $GPGSA,A,3,18,20,27,32,10,24,21,,,,,,6.6,1.8,6.2*34
2017-12-14 12:43:01 1513273381.529968: $GPGSV,3,1,11,18,76,012,23,20,26,103,14,14,12,238,04,27,16,279,18*7C
2017-12-14 12:43:01 1513273381.530149: $GPGSV,3,2,11,32,30,246,20,10,50,310,22,24,53,091,11,21,51,183,22*7B
2017-12-14 12:43:01 1513273381.530215: $GPGSV,3,3,11,15,28,057,00,08,08,313,00,120,07,103,00*72
2017-12-14 12:43:01 1513273381.643452: $GPZDA,174302.00,14,12,2017,00,00*67
2017-12-14 12:43:01 1513273381.643625: $GPGGA,174302,3946.9418,N,08404.9368,W,1,07,1.80,327.34,M,-33.324,M,,*74
2017-12-14 12:43:01 1513273381.643713: $GPRMC,174302,A,3946.9418,N,08404.9368,W,1.4115,34.536,141217,,*0B
2017-12-14 12:43:01 1513273381.643774: $GPGSA,A,3,18,20,27,32,10,24,21,,,,,,6.6,1.8,6.2*34
2017-12-14 12:43:02 1513273382.178606: $GPZDA,174303.00,14,12,2017,00,00*66
2017-12-14 12:43:02 1513273382.178816: $GPGGA,174303,3946.9426,N,08404.9368,W,1,07,1.80,327.21,M,-33.324,M,,*7C
2017-12-14 12:43:02 1513273382.178884: $GPRMC,174303,A,3946.9426,N,08404.9368,W,1.5738,12.547,141217,,*0D
2017-12-14 12:43:02 1513273382.178944: $GPGSA,A,3,18,20,27,32,10,24,21,,,,,,6.6,1.8,6.2*34
2017-12-14 12:43:03 1513273383.194559: $GPZDA,174304.00,14,12,2017,00,00*61
2017-12-14 12:43:03 1513273383.194767: $GPGGA,174304,3946.9426,N,08404.9368,W,1,07,1.80,327.21,M,-33.324,M,,*7B
2017-12-14 12:43:03 1513273383.194901: $GPRMC,174304,A,3946.9426,N,08404.9368,W,1.3082,341.818,141217,,*38
2017-12-14 12:43:03 1513273383.194964: $GPGSA,A,3,18,20,27,32,10,24,21,,,,,,6.6,1.8,6.2*34
2017-12-14 12:43:04 1513273384.529354: $GPGSV,3,1,11,18,76,012,23,20,26,103,14,14,12,238,04,27,16,279,18*7C
2017-12-14 12:43:04 1513273384.529528: $GPGSV,3,2,11,32,30,246,20,10,50,310,22,24,53,091,13,21,51,183,22*79
2017-12-14 12:43:04 1513273384.529594: $GPGSV,3,3,11,15,28,057,00,08,08,313,00,120,07,103,00*72
2017-12-14 12:43:04 1513273384.642811: $GPZDA,174305.00,14,12,2017,00,00*60
2017-12-14 12:43:04 1513273384.642974: $GPGGA,174305,3946.9433,N,08404.9367,W,1,07,1.80,327.09,M,-33.324,M,,*7B
2017-12-14 12:43:04 1513273384.643041: $GPRMC,174305,A,3946.9433,N,08404.9367,W,1.5555,3.694,141217,,*34
2017-12-14 12:43:04 1513273384.643101: $GPGSA,A,3,18,20,27,32,10,24,21,,,,,,6.6,1.8,6.2*34
2017-12-14 12:43:05 1513273385.177938: $GPZDA,174306.00,14,12,2017,00,00*63
2017-12-14 12:43:05 1513273385.178104: $GPGGA,174306,3946.9438,N,08404.9367,W,1,07,1.80,327.73,M,-33.324,M,,*7E
2017-12-14 12:43:05 1513273385.178170: $GPRMC,174306,A,3946.9438,N,08404.9367,W,1.2132,3.552,141217,,*37
2017-12-14 12:43:05 1513273385.178231: $GPGSA,A,3,18,20,27,32,10,24,21,,,,,,6.6,1.8,6.2*34
2017-12-14 12:43:06 1513273386.194268: $GPZDA,174307.00,14,12,2017,00,00*62
2017-12-14 12:43:06 1513273386.194427: $GPGGA,174307,3946.9438,N,08404.9367,W,1,07,1.80,327.73,M,-33.324,M,,*7F
2017-12-14 12:43:06 1513273386.194494: $GPRMC,174307,A,3946.9438,N,08404.9367,W,1.5738,12.547,141217,,*09
2017-12-14 12:43:06 1513273386.194555: $GPGSA,A,3,18,20,27,32,10,24,21,,,,,,6.6,1.8,6.2*34
2017-12-14 12:43:07 1513273387.514210: $GPGSV,3,1,11,18,76,012,23,20,26,103,15,14,12,238,00,27,16,279,18*79
2017-12-14 12:43:07 1513273387.514370: $GPGSV,3,2,11,32,30,246,20,10,50,310,21,24,53,091,13,21,51,183,22*7A
2017-12-14 12:43:07 1513273387.514437: $GPGSV,3,3,11,15,28,057,00,08,08,313,00,120,07,103,00*72
2017-12-14 12:43:07 1513273387.627678: $GPZDA,174308.00,14,12,2017,00,00*6D
2017-12-14 12:43:07 1513273387.627835: $GPGGA,174308,3946.9445,N,08404.9366,W,1,07,1.80,327.60,M,-33.324,M,,*79
2017-12-14 12:43:07 1513273387.627902: $GPRMC,174308,A,3946.9445,N,08404.9366,W,1.3921,14.217,141217,,*09
2017-12-14 12:43:07 1513273387.627963: $GPGSA,A,3,18,20,27,32,10,24,21,,,,,,6.6,1.8,6.2*34
