2018-01-11 20:31:07 1515720667.437165: {"class":"VERSION","release":"3.16","rev":"3.16-4","proto_major":3,"proto_minor":11}
2018-01-11 20:31:07 1515720667.437518: {"class":"DEVICES","devices":[{"class":"DEVICE","path":"/dev/ttyUSB0","driver":"SiRF","subtype":"9\u0006GSD4e_4.1.2-P1_RPATCH.05-F-GPS-4R-1510281 11/03/2015 307","activated":"2018-01-12T01:31:07.271Z","flags":1,"native":1,"bps":4800,"parity":"N","stopbits":1,"cycle":1.00}]}
2018-01-11 20:31:07 1515720667.437634: {"class":"WATCH","enable":true,"json":false,"nmea":true,"raw":0,"scaled":false,"timing":false,"split24":false,"pps":false}
2018-01-11 20:31:08 1515720668.067938: $GPZDA,013108.76,12,01,2018,00,00*65
2018-01-11 20:31:08 1515720668.068102: $GPGGA,013108,3946.9562,N,08404.9880,W,1,11,0.80,293.84,M,-33.324,M,,*7E
2018-01-11 20:31:08 1515720668.068169: $GPRMC,013108,A,3946.9562,N,08404.9880,W,0.4700,9.200,120118,,*36
2018-01-11 20:31:08 1515720668.068233: $GPGSA,A,3,7,8,9,11,16,23,27,28,30,1,138,,4.0,0.8,3.5*0F
2018-01-11 20:31:09 1515720669.126731: $GPZDA,013109.26,12,01,2018,00,00*61
2018-01-11 20:31:09 1515720669.126902: $GPGGA,013109,3946.9565,N,08404.9872,W,1,11,0.80,293.16,M,-33.324,M,,*7E
2018-01-11 20:31:09 1515720669.126970: $GPRMC,013109,A,3946.9565,N,08404.9872,W,0.1567,9.200,120118,,*3B
2018-01-11 20:31:09 1515720669.127033: $GPGSA,A,3,7,8,9,11,16,23,27,28,30,1,138,,4.0,0.8,3.5*0F
2018-01-11 20:31:09 1515720669.127090: $GPGBS,013109,14.62,M,24.83,M,80.38,M*0B
2018-01-11 20:31:10 1515720670.245504: $GPGSV,3,1,11,07,65,316,42,08,75,091,44,09,40,220,44,11,28,163,44*7C
2018-01-11 20:31:10 1515720670.245666: $GPGSV,3,2,11,16,16,066,30,23,20,187,47,27,39,048,50,28,20,265,33*7A
2018-01-11 20:31:10 1515720670.245731: $GPGSV,3,3,11,30,37,309,34,01,06,159,00,138,38,213,30*7B
2018-01-11 20:31:10 1515720670.359232: $GPZDA,013110.00,12,01,2018,00,00*6D
2018-01-11 20:31:10 1515720670.359352: $GPGGA,013110,3946.9564,N,08404.9871,W,1,10,0.80,291.75,M,-33.324,M,,*72
2018-01-11 20:31:10 1515720670.359418: $GPRMC,013110,A,3946.9564,N,08404.9871,W,0.1567,189.200,120118,,*38
2018-01-11 20:31:10 1515720670.359478: $GPGSA,A,3,7,8,9,11,16,23,27,28,30,138,,,4.0,0.8,3.5*3E
2018-01-11 20:31:10 1515720670.811397: $GPZDA,013111.00,12,01,2018,00,00*6C
2018-01-11 20:31:10 1515720670.811558: $GPGGA,013111,3946.9568,N,08404.9870,W,1,10,0.80,290.99,M,-33.324,M,,*7D
2018-01-11 20:31:10 1515720670.811625: $GPRMC,013111,A,3946.9568,N,08404.9870,W,0.0000,0.000,120118,,*33
2018-01-11 20:31:10 1515720670.811685: $GPGSA,A,3,7,8,9,11,16,23,27,28,30,138,,,4.0,0.8,3.5*3E
2018-01-11 20:31:11 1515720671.365904: $GPZDA,013112.00,12,01,2018,00,00*6F
2018-01-11 20:31:11 1515720671.366054: $GPGGA,013112,3946.9575,N,08404.9869,W,1,10,0.80,289.46,M,-33.324,M,,*70
2018-01-11 20:31:11 1515720671.366120: $GPRMC,013112,A,3946.9575,N,08404.9869,W,0.0000,0.000,120118,,*34
2018-01-11 20:31:11 1515720671.366185: $GPGSA,A,3,7,8,9,11,16,23,27,28,30,138,,,4.0,0.8,3.5*3E
2018-01-11 20:31:12 1515720672.702050: $GPGSV,3,1,11,07,65,316,43,08,75,091,45,09,40,220,44,11,28,163,44*7C
2018-01-11 20:31:12 1515720672.702218: $GPGSV,3,2,11,16,16,066,30,23,20,187,48,27,39,048,50,28,20,265,33*75
2018-01-11 20:31:12 1515720672.702287: $GPGSV,3,3,11,30,37,309,35,01,06,159,26,138,38,213,45*7C
2018-01-11 20:31:12 1515720672.815667: $GPZDA,013113.00,12,01,2018,00,00*6E
2018-01-11 20:31:12 1515720672.815779: $GPGGA,013113,3946.9578,N,08404.9868,W,1,11,0.80,288.70,M,-33.324,M,,*78
2018-01-11 20:31:12 1515720672.815843: $GPRMC,013113,A,3946.9578,N,08404.9868,W,0.0000,0.000,120118,,*39
2018-01-11 20:31:12 1515720672.815903: $GPGSA,A,3,7,8,9,11,16,23,27,28,30,1,138,,4.0,0.8,3.5*0F
2018-01-11 20:31:13 1515720673.367760: $GPZDA,013114.00,12,01,2018,00,00*69
2018-01-11 20:31:13 1515720673.367903: $GPGGA,013114,3946.9580,N,08404.9860,W,1,11,0.80,286.61,M,-33.324,M,,*7E
2018-01-11 20:31:13 1515720673.367967: $GPRMC,013114,A,3946.9580,N,08404.9860,W,0.0000,0.000,120118,,*31
2018-01-11 20:31:13 1515720673.368028: $GPGSA,A,3,7,8,9,11,16,23,27,28,30,1,138,,4.0,0.8,3.5*0F
2018-01-11 20:31:14 1515720674.367394: $GPZDA,013115.00,12,01,2018,00,00*68
2018-01-11 20:31:14 1515720674.367602: $GPGGA,013115,3946.9584,N,08404.9859,W,1,11,0.80,285.84,M,-33.324,M,,*79
2018-01-11 20:31:14 1515720674.367671: $GPRMC,013115,A,3946.9584,N,08404.9859,W,0.0000,0.000,120118,,*3E
2018-01-11 20:31:14 1515720674.367733: $GPGSA,A,3,7,8,9,11,16,23,27,28,30,1,138,,4.0,0.8,3.5*0F
2018-01-11 20:31:14 1515720674.367790: $GPGBS,013115,14.62,M,24.83,M,80.38,M*06
2018-01-11 20:31:15 1515720675.702818: $GPGSV,3,1,11,07,65,316,43,08,75,091,45,09,40,220,44,11,28,163,44*7C
2018-01-11 20:31:15 1515720675.702964: $GPGSV,3,2,11,16,16,066,30,23,20,187,49,27,39,048,50,28,20,265,33*74
2018-01-11 20:31:15 1515720675.703031: $GPGSV,3,3,11,30,37,309,34,01,06,159,26,138,38,213,45*7D
2018-01-11 20:31:15 1515720675.816433: $GPZDA,013116.00,12,01,2018,00,00*6B
2018-01-11 20:31:15 1515720675.816555: $GPGGA,013116,3946.9619,N,08404.9836,W,2,11,2.40,274.78,M,-33.324,M,,*74
2018-01-11 20:31:15 1515720675.816620: $GPRMC,013116,A,3946.9619,N,08404.9836,W,0.0000,0.000,120118,,*33
2018-01-11 20:31:15 1515720675.816679: $GPGSA,A,3,7,8,9,11,16,23,27,28,30,1,138,,4.0,2.4,3.5*01
2018-01-11 20:31:16 1515720676.366998: $GPZDA,013117.00,12,01,2018,00,00*6A
2018-01-11 20:31:16 1515720676.367152: $GPGGA,013117,3946.9619,N,08404.9836,W,2,11,1.60,274.78,M,-33.324,M,,*74
2018-01-11 20:31:16 1515720676.367218: $GPRMC,013117,A,3946.9619,N,08404.9836,W,0.0000,0.000,120118,,*32
2018-01-11 20:31:16 1515720676.367283: $GPGSA,A,3,7,8,9,11,16,23,27,28,30,1,138,,4.0,1.6,3.5*00
2018-01-11 20:31:17 1515720677.368931: $GPZDA,013118.00,12,01,2018,00,00*65
2018-01-11 20:31:17 1515720677.369147: $GPGGA,013118,3946.9619,N,08404.9836,W,2,11,0.80,274.78,M,-33.324,M,,*74
2018-01-11 20:31:17 1515720677.369215: $GPRMC,013118,A,3946.9619,N,08404.9836,W,0.0000,0.000,120118,,*3D
2018-01-11 20:31:17 1515720677.369280: $GPGSA,A,3,7,8,9,11,16,23,27,28,30,1,138,,4.0,0.8,3.5*0F
2018-01-11 20:31:18 1515720678.705666: $GPGSV,3,1,11,07,65,316,43,08,75,091,45,09,40,220,44,11,28,163,44*7C
2018-01-11 20:31:18 1515720678.705810: $GPGSV,3,2,11,16,16,066,30,23,20,187,49,27,39,048,49,28,20,265,33*7C
2018-01-11 20:31:18 1515720678.705875: $GPGSV,3,3,11,30,37,309,34,01,06,159,26,138,38,213,45*7D
2018-01-11 20:31:18 1515720678.818005: $GPZDA,013119.00,12,01,2018,00,00*64
2018-01-11 20:31:18 1515720678.818112: $GPGGA,013119,3946.9600,N,08404.9821,W,2,11,0.80,283.82,M,-33.324,M,,*76
2018-01-11 20:31:18 1515720678.818177: $GPRMC,013119,A,3946.9600,N,08404.9821,W,0.0000,0.000,120118,,*32
2018-01-11 20:31:18 1515720678.818242: $GPGSA,A,3,7,8,9,11,16,23,27,28,30,1,138,,4.0,0.8,3.5*0F
2018-01-11 20:31:19 1515720679.367680: $GPZDA,013120.00,12,01,2018,00,00*6E
2018-01-11 20:31:19 1515720679.367848: $GPGGA,013120,3946.9600,N,08404.9821,W,2,11,0.80,283.82,M,-33.324,M,,*7C
2018-01-11 20:31:19 1515720679.367913: $GPRMC,013120,A,3946.9600,N,08404.9821,W,0.0000,0.000,120118,,*38
2018-01-11 20:31:19 1515720679.367974: $GPGSA,A,3,7,8,9,11,16,23,27,28,30,1,138,,4.0,0.8,3.5*0F
2018-01-11 20:31:20 1515720680.367307: $GPZDA,013121.00,12,01,2018,00,00*6F
2018-01-11 20:31:20 1515720680.367449: $GPGGA,013121,3946.9600,N,08404.9821,W,2,11,0.80,283.82,M,-33.324,M,,*7D
2018-01-11 20:31:20 1515720680.367515: $GPRMC,013121,A,3946.9600,N,08404.9821,W,0.0000,0.000,120118,,*39
2018-01-11 20:31:20 1515720680.367575: $GPGSA,A,3,7,8,9,11,16,23,27,28,30,1,138,,4.0,0.8,3.5*0F
