2017-12-31 17:51:37 1514760697.576449: {"class":"VERSION","release":"3.16","rev":"3.16-4","proto_major":3,"proto_minor":11}
2017-12-31 17:51:37 1514760697.576799: {"class":"DEVICES","devices":[{"class":"DEVICE","path":"/dev/ttyUSB0","driver":"SiRF","activated":"2017-12-31T22:51:37.487Z","flags":1,"native":1,"bps":4800,"parity":"N","stopbits":1,"cycle":1.00}]}
2017-12-31 17:51:37 1514760697.576898: {"class":"WATCH","enable":true,"json":false,"nmea":true,"raw":0,"scaled":false,"timing":false,"split24":false,"pps":false}
2017-12-31 17:51:38 1514760698.346082: $GPZDA,225139.00,31,12,2017,00,00*6D
2017-12-31 17:51:38 1514760698.346245: $GPGGA,225139,3946.9563,N,08404.9865,W,2,12,0.60,306.08,M,-33.324,M,,*76
2017-12-31 17:51:38 1514760698.346312: $GPRMC,225139,A,3946.9563,N,08404.9865,W,0.0000,0.000,311217,,*3D
2017-12-31 17:51:38 1514760698.346373: $GPGSA,A,3,22,23,9,3,16,29,14,31,27,32,26,135,1.7,0.6,1.3*07
2017-12-31 17:51:39 1514760699.706838: $GPGSV,3,1,12,22,29,219,44,23,46,309,43,09,13,312,41,03,37,241,44*79
2017-12-31 17:51:39 1514760699.706989: $GPGSV,3,2,12,16,71,192,43,29,09,036,37,14,22,129,25,31,34,069,41*73
2017-12-31 17:51:39 1514760699.707057: $GPGSV,3,3,12,27,15,157,29,32,01,133,17,26,70,058,48,135,22,240,44*47
2017-12-31 17:51:39 1514760699.820160: $GPZDA,225140.00,31,12,2017,00,00*63
2017-12-31 17:51:39 1514760699.820290: $GPGGA,225140,3946.9563,N,08404.9865,W,2,12,0.60,306.08,M,-33.324,M,,*78
2017-12-31 17:51:39 1514760699.820356: $GPRMC,225140,A,3946.9563,N,08404.9865,W,0.0000,0.000,311217,,*33
2017-12-31 17:51:39 1514760699.820418: $GPGSA,A,3,22,23,9,3,16,29,14,31,27,32,26,135,1.7,0.6,1.3*07
2017-12-31 17:51:40 1514760700.445735: $GPZDA,225141.00,31,12,2017,00,00*62
2017-12-31 17:51:40 1514760700.445943: $GPGGA,225141,3946.9563,N,08404.9865,W,2,12,0.60,306.08,M,-33.324,M,,*79
2017-12-31 17:51:40 1514760700.446013: $GPRMC,225141,A,3946.9563,N,08404.9865,W,0.0000,0.000,311217,,*32
2017-12-31 17:51:40 1514760700.446076: $GPGSA,A,3,22,23,9,3,16,29,14,31,27,32,26,135,1.7,0.6,1.3*07
2017-12-31 17:51:41 1514760701.345221: $GPZDA,225142.00,31,12,2017,00,00*61
2017-12-31 17:51:41 1514760701.345374: $GPGGA,225142,3946.9563,N,08404.9865,W,2,12,0.60,306.08,M,-33.324,M,,*7A
2017-12-31 17:51:41 1514760701.345439: $GPRMC,225142,A,3946.9563,N,08404.9865,W,0.0000,0.000,311217,,*31
2017-12-31 17:51:41 1514760701.345501: $GPGSA,A,3,22,23,9,3,16,29,14,31,27,32,26,135,1.7,0.6,1.3*07
2017-12-31 17:51:42 1514760702.674680: $GPGSV,3,1,12,22,29,219,44,23,46,309,44,09,13,312,41,03,37,241,44*7E
2017-12-31 17:51:42 1514760702.674863: $GPGSV,3,2,12,16,71,192,44,29,09,036,36,14,22,129,33,31,34,069,41*72
2017-12-31 17:51:42 1514760702.674953: $GPGSV,3,3,12,27,15,157,28,32,01,133,17,26,70,058,47,135,22,240,44*49
2017-12-31 17:51:42 1514760702.788098: $GPZDA,225143.00,31,12,2017,00,00*60
2017-12-31 17:51:42 1514760702.788248: $GPGGA,225143,3946.9563,N,08404.9865,W,2,12,0.60,306.08,M,-33.324,M,,*7B
2017-12-31 17:51:42 1514760702.788312: $GPRMC,225143,A,3946.9563,N,08404.9865,W,0.0000,0.000,311217,,*30
2017-12-31 17:51:42 1514760702.788373: $GPGSA,A,3,22,23,9,3,16,29,14,31,27,32,26,135,1.7,0.6,1.3*07
2017-12-31 17:51:43 1514760703.566721: $GPZDA,225144.00,31,12,2017,00,00*67
2017-12-31 17:51:43 1514760703.566898: $GPGGA,225144,3946.9563,N,08404.9865,W,2,12,0.60,306.08,M,-33.324,M,,*7C
2017-12-31 17:51:43 1514760703.566965: $GPRMC,225144,A,3946.9563,N,08404.9865,W,0.0000,0.000,311217,,*37
2017-12-31 17:51:43 1514760703.567032: $GPGSA,A,3,22,23,9,3,16,29,14,31,27,32,26,135,1.7,0.6,1.3*07
2017-12-31 17:51:43 1514760703.567091: $GPGBS,225144,2.22,M,3.43,M,7.66,M*3B
2017-12-31 17:51:44 1514760704.344940: $GPZDA,225145.00,31,12,2017,00,00*66
2017-12-31 17:51:44 1514760704.345114: $GPGGA,225145,3946.9563,N,08404.9865,W,2,12,0.60,306.08,M,-33.324,M,,*7D
2017-12-31 17:51:44 1514760704.345179: $GPRMC,225145,A,3946.9563,N,08404.9865,W,0.0000,0.000,311217,,*36
2017-12-31 17:51:44 1514760704.345241: $GPGSA,A,3,22,23,9,3,16,29,14,31,27,32,26,135,1.7,0.6,1.3*07
2017-12-31 17:51:44 1514760704.345300: $GPGBS,225145,2.22,M,3.43,M,7.66,M*3A
2017-12-31 17:51:45 1514760705.706423: $GPGSV,3,1,12,22,28,219,44,23,47,309,43,09,14,312,41,03,37,241,45*7F
2017-12-31 17:51:45 1514760705.706600: $GPGSV,3,2,12,16,71,192,44,29,09,036,36,14,22,129,15,31,34,069,42*75
2017-12-31 17:51:45 1514760705.706664: $GPGSV,3,3,12,27,15,157,28,32,01,133,17,26,69,058,47,135,22,240,44*41
2017-12-31 17:51:45 1514760705.819747: $GPZDA,225146.00,31,12,2017,00,00*65
2017-12-31 17:51:45 1514760705.819878: $GPGGA,225146,3946.9563,N,08404.9865,W,2,12,0.60,306.08,M,-33.324,M,,*7E
2017-12-31 17:51:45 1514760705.819943: $GPRMC,225146,A,3946.9563,N,08404.9865,W,0.0000,0.000,311217,,*35
2017-12-31 17:51:45 1514760705.820007: $GPGSA,A,3,22,23,9,3,16,29,14,31,27,32,26,135,1.7,0.6,1.3*07
2017-12-31 17:51:46 1514760706.345594: $GPZDA,225147.00,31,12,2017,00,00*64
2017-12-31 17:51:46 1514760706.345753: $GPGGA,225147,3946.9563,N,08404.9865,W,2,12,0.60,306.08,M,-33.324,M,,*7F
2017-12-31 17:51:46 1514760706.345818: $GPRMC,225147,A,3946.9563,N,08404.9865,W,0.0000,0.000,311217,,*34
2017-12-31 17:51:46 1514760706.345883: $GPGSA,A,3,22,23,9,3,16,29,14,31,27,32,26,135,1.7,0.6,1.3*07
2017-12-31 17:51:47 1514760707.370359: $GPZDA,225148.00,31,12,2017,00,00*6B
2017-12-31 17:51:47 1514760707.370524: $GPGGA,225148,3946.9563,N,08404.9865,W,2,12,0.60,306.08,M,-33.324,M,,*70
2017-12-31 17:51:47 1514760707.370592: $GPRMC,225148,A,3946.9563,N,08404.9865,W,0.0000,0.000,311217,,*3B
2017-12-31 17:51:47 1514760707.370653: $GPGSA,A,3,22,23,9,3,16,29,14,31,27,32,26,135,1.7,0.6,1.3*07
