2017-12-01 12:17:52 1512148672.526929: {"class":"VERSION","release":"3.16","rev":"3.16-4","proto_major":3,"proto_minor":11}
2017-12-01 12:17:52 1512148672.527321: {"class":"DEVICES","devices":[{"class":"DEVICE","path":"/dev/ttyUSB0","driver":"SiRF","subtype":"9\u0006GSD4e_4.1.2-P1_RPATCH.05-F-GPS-4R-1510281 11/03/2015 307","activated":"2017-12-01T17:17:52.509Z","flags":1,"native":1,"bps":4800,"parity":"N","stopbits":1,"cycle":1.00}]}
2017-12-01 12:17:52 1512148672.527435: {"class":"WATCH","enable":true,"json":false,"nmea":true,"raw":0,"scaled":false,"timing":false,"split24":false,"pps":false}
2017-12-01 12:17:53 1512148673.703523: $GPGSV,3,1,12,10,23,283,40,13,29,045,44,15,61,051,45,18,54,300,45*71
2017-12-01 12:17:53 1512148673.703736: $GPGSV,3,2,12,20,52,072,45,21,78,267,42,24,33,138,48,27,16,313,38*7B
2017-12-01 12:17:53 1512148673.703820: $GPGSV,3,3,12,29,10,189,29,05,03,087,20,32,01,225,21,138,38,213,46*45
2017-12-01 12:17:53 1512148673.816907: $GPZDA,171754.00,01,12,2017,00,00*61
2017-12-01 12:17:53 1512148673.817076: $GPGGA,171754,3946.9577,N,08404.9839,W,2,12,0.80,298.28,M,-33.324,M,,*7F
2017-12-01 12:17:53 1512148673.817142: $GPRMC,171754,A,3946.9577,N,08404.9839,W,0.0000,0.000,011217,,*3D
2017-12-01 12:17:53 1512148673.817202: $GPGSA,A,3,10,13,15,18,20,21,24,27,29,5,32,138,2.0,0.8,1.5*35
2017-12-01 12:17:54 1512148674.367737: $GPZDA,171755.00,01,12,2017,00,00*60
2017-12-01 12:17:54 1512148674.367931: $GPGGA,171755,3946.9577,N,08404.9839,W,2,12,0.80,298.28,M,-33.324,M,,*7E
2017-12-01 12:17:54 1512148674.367999: $GPRMC,171755,A,3946.9577,N,08404.9839,W,0.0000,0.000,011217,,*3C
2017-12-01 12:17:54 1512148674.368061: $GPGSA,A,3,10,13,15,18,20,21,24,27,29,5,32,138,2.0,0.8,1.5*35
2017-12-01 12:17:55 1512148675.387662: $GPZDA,171756.00,01,12,2017,00,00*63
2017-12-01 12:17:55 1512148675.387846: $GPGGA,171756,3946.9577,N,08404.9839,W,2,12,0.80,298.28,M,-33.324,M,,*7D
2017-12-01 12:17:55 1512148675.387914: $GPRMC,171756,A,3946.9577,N,08404.9839,W,0.0000,0.000,011217,,*3F
2017-12-01 12:17:55 1512148675.387991: $GPGSA,A,3,10,13,15,18,20,21,24,27,29,5,32,138,2.0,0.8,1.5*35
2017-12-01 12:17:56 1512148676.699351: $GPGSV,3,1,12,10,23,283,40,13,29,045,44,15,61,051,45,18,54,300,45*71
2017-12-01 12:17:56 1512148676.699514: $GPGSV,3,2,12,20,52,072,45,21,78,267,42,24,33,138,48,27,16,313,40*74
2017-12-01 12:17:56 1512148676.699581: $GPGSV,3,3,12,29,10,189,29,05,03,087,21,32,01,225,22,138,38,213,46*47
2017-12-01 12:17:56 1512148676.813015: $GPZDA,171757.00,01,12,2017,00,00*62
2017-12-01 12:17:56 1512148676.813173: $GPGGA,171757,3946.9577,N,08404.9839,W,2,12,0.80,298.28,M,-33.324,M,,*7C
2017-12-01 12:17:56 1512148676.813241: $GPRMC,171757,A,3946.9577,N,08404.9839,W,0.0000,0.000,011217,,*3E
2017-12-01 12:17:56 1512148676.813301: $GPGSA,A,3,10,13,15,18,20,21,24,27,29,5,32,138,2.0,0.8,1.5*35
2017-12-01 12:17:57 1512148677.438115: $GPZDA,171758.00,01,12,2017,00,00*6D
2017-12-01 12:17:57 1512148677.438294: $GPGGA,171758,3946.9574,N,08404.9839,W,2,12,0.80,299.05,M,-33.324,M,,*7E
2017-12-01 12:17:57 1512148677.438382: $GPRMC,171758,A,3946.9574,N,08404.9839,W,0.0000,0.000,011217,,*32
2017-12-01 12:17:57 1512148677.438445: $GPGSA,A,3,10,13,15,18,20,21,24,27,29,5,32,138,2.0,0.8,1.5*35
2017-12-01 12:17:58 1512148678.387737: $GPZDA,171759.00,01,12,2017,00,00*6C
2017-12-01 12:17:58 1512148678.387932: $GPGGA,171759,3946.9574,N,08404.9839,W,2,12,1.00,299.05,M,-33.324,M,,*76
2017-12-01 12:17:58 1512148678.388020: $GPRMC,171759,A,3946.9574,N,08404.9839,W,0.0000,0.000,011217,,*33
2017-12-01 12:17:58 1512148678.388082: $GPGSA,A,3,10,13,15,18,20,21,24,27,29,5,32,138,2.0,1.0,1.5*3C
2017-12-01 12:17:59 1512148679.722202: $GPGSV,3,1,12,10,23,283,40,13,29,045,44,15,61,051,45,18,54,300,45*71
2017-12-01 12:17:59 1512148679.722409: $GPGSV,3,2,12,20,52,072,45,21,78,267,42,24,33,138,48,27,16,313,42*76
2017-12-01 12:17:59 1512148679.722478: $GPGSV,3,3,12,29,10,189,25,05,03,087,21,32,01,225,22,138,38,213,46*4B
2017-12-01 12:17:59 1512148679.835594: $GPZDA,171800.00,01,12,2017,00,00*6F
2017-12-01 12:17:59 1512148679.835824: $GPGGA,171800,3946.9574,N,08404.9839,W,2,12,0.80,299.05,M,-33.324,M,,*7C
2017-12-01 12:17:59 1512148679.835943: $GPRMC,171800,A,3946.9574,N,08404.9839,W,0.0000,0.000,011217,,*30
2017-12-01 12:17:59 1512148679.836006: $GPGSA,A,3,10,13,15,18,20,21,24,27,29,5,32,138,2.0,0.8,1.5*35
2017-12-01 12:18:00 1512148680.374213: $GPZDA,171801.00,01,12,2017,00,00*6E
2017-12-01 12:18:00 1512148680.374387: $GPGGA,171801,3946.9574,N,08404.9839,W,2,12,1.00,299.05,M,-33.324,M,,*74
2017-12-01 12:18:00 1512148680.374455: $GPRMC,171801,A,3946.9574,N,08404.9839,W,0.0000,0.000,011217,,*31
2017-12-01 12:18:00 1512148680.374516: $GPGSA,A,3,10,13,15,18,20,21,24,27,29,5,32,138,2.0,1.0,1.5*3C
2017-12-01 12:18:01 1512148681.375103: $GPZDA,171802.00,01,12,2017,00,00*6D
2017-12-01 12:18:01 1512148681.375264: $GPGGA,171802,3946.9574,N,08404.9839,W,2,12,1.00,299.05,M,-33.324,M,,*77
2017-12-01 12:18:01 1512148681.375330: $GPRMC,171802,A,3946.9574,N,08404.9839,W,0.0000,0.000,011217,,*32
2017-12-01 12:18:01 1512148681.375391: $GPGSA,A,3,10,13,15,18,20,21,24,27,29,5,32,138,2.0,1.0,1.5*3C
