2017-11-15 19:46:00 1510793160.803105: {"class":"VERSION","release":"3.17","rev":"3.17","proto_major":3,"proto_minor":12}
2017-11-15 19:46:00 1510793160.803686: {"class":"DEVICES","devices":[{"class":"DEVICE","path":"/dev/ttyUSB0","driver":"SiRF","subtype":"9\u0006GSD4e_4.1.2-P1_RPATCH.05-F-GPS-4R-1510281 11/03/2015 307","activated":"2017-11-16T00:46:00.778Z","flags":1,"native":1,"bps":4800,"parity":"N","stopbits":1,"cycle":1.00}]}
2017-11-15 19:46:00 1510793160.803809: {"class":"WATCH","enable":true,"json":false,"nmea":true,"raw":0,"scaled":false,"timing":false,"split24":false,"pps":false}
2017-11-15 19:46:01 1510793161.404995: $GPZDA,004600.00,16,11,2017,00,00*67
2017-11-15 19:46:01 1510793161.990561: $GPGGA,004600,3946.9723,N,08404.9511,W,1,08,1.40,351.88,M,-33.324,M,,*73
2017-11-15 19:46:01 1510793161.990715: $GPRMC,004600,A,3946.9723,N,08404.9511,W,0.0000,0.000,161117,,*3F
2017-11-15 19:46:01 1510793161.990774: $GPGSA,A,3,32,16,22,26,14,31,23,3,,,,,3.4,1.4,2.9*0C
2017-11-15 19:46:02 1510793162.345836: $GPZDA,004601.00,16,11,2017,00,00*66
2017-11-15 19:46:02 1510793162.345996: $GPGGA,004601,3946.9722,N,08404.9504,W,1,08,1.40,351.96,M,-33.324,M,,*78
2017-11-15 19:46:02 1510793162.346057: $GPRMC,004601,A,3946.9722,N,08404.9504,W,0.2422,93.794,161117,,*0D
2017-11-15 19:46:02 1510793162.346112: $GPGSA,A,3,32,16,22,26,14,31,23,3,,,,,3.4,1.4,2.9*0C
2017-11-15 19:46:03 1510793163.665099: $GPGSV,3,1,12,32,30,114,19,16,30,190,24,22,50,259,20,26,61,169,22*78
2017-11-15 19:46:03 1510793163.665263: $GPGSV,3,2,12,14,49,102,21,31,62,034,11,29,12,064,00,23,16,303,07*79
2017-11-15 19:46:03 1510793163.665323: $GPGSV,3,3,12,03,43,291,14,25,11,039,00,01,01,247,00,135,23,238,00*42
2017-11-15 19:46:03 1510793163.778676: $GPZDA,004602.00,16,11,2017,00,00*65
2017-11-15 19:46:03 1510793163.778830: $GPGGA,004602,3946.9722,N,08404.9504,W,1,08,1.40,351.96,M,-33.324,M,,*7B
2017-11-15 19:46:03 1510793163.778889: $GPRMC,004602,A,3946.9722,N,08404.9504,W,0.4207,39.347,161117,,*03
2017-11-15 19:46:03 1510793163.778945: $GPGSA,A,3,32,16,22,26,14,31,23,3,,,,,3.4,1.4,2.9*0C
2017-11-15 19:46:04 1510793164.330057: $GPZDA,004603.00,16,11,2017,00,00*64
2017-11-15 19:46:04 1510793164.330348: $GPGGA,004603,3946.9722,N,08404.9497,W,1,08,1.40,352.04,M,-33.324,M,,*79
2017-11-15 19:46:04 1510793164.330493: $GPRMC,004603,A,3946.9722,N,08404.9497,W,1.1902,58.684,161117,,*0E
2017-11-15 19:46:04 1510793164.330620: $GPGSA,A,3,32,16,22,26,14,31,23,3,,,,,3.4,1.4,2.9*0C
2017-11-15 19:46:05 1510793165.346790: $GPZDA,004604.00,16,11,2017,00,00*63
2017-11-15 19:46:05 1510793165.346950: $GPGGA,004604,3946.9722,N,08404.9497,W,1,08,1.40,352.04,M,-33.324,M,,*7E
2017-11-15 19:46:05 1510793165.347011: $GPRMC,004604,A,3946.9722,N,08404.9497,W,1.0298,74.382,161117,,*0D
2017-11-15 19:46:05 1510793165.347067: $GPGSA,A,3,32,16,22,26,14,31,23,3,,,,,3.4,1.4,2.9*0C
2017-11-15 19:46:06 1510793166.681710: $GPGSV,3,1,12,32,30,114,20,16,30,190,24,22,50,259,20,26,61,169,22*72
2017-11-15 19:46:06 1510793166.686909: $GPGSV,3,2,12,14,49,102,21,31,62,034,11,29,12,064,00,23,16,303,05*7B
2017-11-15 19:46:06 1510793166.687004: $GPGSV,3,3,12,03,43,291,10,25,11,039,00,01,01,247,00,120,07,103,00*4F
2017-11-15 19:46:06 1510793166.795286: $GPZDA,004605.00,16,11,2017,00,00*62
2017-11-15 19:46:06 1510793166.795441: $GPGGA,004605,3946.9722,N,08404.9490,W,1,07,1.40,352.12,M,-33.324,M,,*70
2017-11-15 19:46:06 1510793166.795526: $GPRMC,004605,A,3946.9722,N,08404.9490,W,1.0018,50.691,161117,,*00
2017-11-15 19:46:06 1510793166.795584: $GPGSA,A,3,32,16,22,26,14,31,3,,,,,,3.4,1.4,2.9*0D
2017-11-15 19:46:07 1510793167.346137: $GPZDA,004606.00,16,11,2017,00,00*61
2017-11-15 19:46:07 1510793167.346293: $GPGGA,004606,3946.9722,N,08404.9490,W,1,07,1.40,352.12,M,-33.324,M,,*73
2017-11-15 19:46:07 1510793167.346354: $GPRMC,004606,A,3946.9722,N,08404.9490,W,0.8414,39.347,161117,,*03
2017-11-15 19:46:07 1510793167.346409: $GPGSA,A,3,32,16,22,26,14,31,3,,,,,,3.4,1.4,2.9*0D
2017-11-15 19:46:08 1510793168.345787: $GPZDA,004607.00,16,11,2017,00,00*60
2017-11-15 19:46:08 1510793168.345957: $GPGGA,004607,3946.9721,N,08404.9483,W,1,07,1.40,352.20,M,-33.324,M,,*72
2017-11-15 19:46:08 1510793168.346069: $GPRMC,004607,A,3946.9721,N,08404.9483,W,1.4115,34.536,161117,,*07
2017-11-15 19:46:08 1510793168.346126: $GPGSA,A,3,32,16,22,26,14,31,3,,,,,,3.4,1.4,2.9*0D
2017-11-15 19:46:09 1510793169.665068: $GPGSV,3,1,12,32,30,114,20,16,30,190,24,22,50,259,20,26,61,169,23*73
2017-11-15 19:46:09 1510793169.665240: $GPGSV,3,2,12,14,49,102,21,31,62,034,10,29,12,064,00,23,16,303,04*7B
2017-11-15 19:46:09 1510793169.665299: $GPGSV,3,3,12,03,43,291,12,25,11,039,00,01,01,247,00,120,07,103,00*4D
2017-11-15 19:46:09 1510793169.778353: $GPZDA,004608.00,16,11,2017,00,00*6F
2017-11-15 19:46:09 1510793169.778556: $GPGGA,004608,3946.9729,N,08404.9482,W,1,07,1.40,352.07,M,-33.324,M,,*71
2017-11-15 19:46:09 1510793169.778639: $GPRMC,004608,A,3946.9729,N,08404.9482,W,1.1385,29.379,161117,,*0E
2017-11-15 19:46:09 1510793169.778697: $GPGSA,A,3,32,16,22,26,14,31,3,,,,,,3.4,1.4,2.9*0D
2017-11-15 19:46:10 1510793170.330537: $GPZDA,004609.00,16,11,2017,00,00*6E
2017-11-15 19:46:10 1510793170.330723: $GPGGA,004609,3946.9728,N,08404.9475,W,1,07,1.40,352.15,M,-33.324,M,,*7A
2017-11-15 19:46:10 1510793170.330786: $GPRMC,004609,A,3946.9728,N,08404.9475,W,0.7278,23.636,161117,,*06
2017-11-15 19:46:10 1510793170.330842: $GPGSA,A,3,32,16,22,26,14,31,3,,,,,,3.4,1.4,2.9*0D
