2017-11-16 16:41:18 1510868478.171027: {"class":"VERSION","release":"3.17","rev":"3.17","proto_major":3,"proto_minor":12}
2017-11-16 16:41:18 1510868478.171511: {"class":"DEVICES","devices":[{"class":"DEVICE","path":"/dev/ttyUSB0","driver":"SiRF","subtype":"9\u0006GSD4e_4.1.2-P1_RPATCH.05-F-GPS-4R-1510281 11/03/2015 307","activated":"2017-11-16T21:41:18.024Z","flags":1,"native":1,"bps":4800,"parity":"N","stopbits":1,"cycle":1.00}]}
2017-11-16 16:41:18 1510868478.171632: {"class":"WATCH","enable":true,"json":false,"nmea":true,"raw":0,"scaled":false,"timing":false,"split24":false,"pps":false}
2017-11-16 16:41:18 1510868478.435680: $GPZDA,214117.00,16,11,2017,00,00*65
2017-11-16 16:41:18 1510868478.435849: $GPGGA,214117,3946.9582,N,08404.9820,W,2,11,0.80,303.37,M,-33.324,M,,*72
2017-11-16 16:41:18 1510868478.435911: $GPRMC,214117,A,3946.9582,N,08404.9820,W,0.0000,0.000,161117,,*3B
2017-11-16 16:41:18 1510868478.435967: $GPGSA,A,3,1,10,11,12,14,18,24,25,31,32,138,,1.6,0.8,1.3*38
2017-11-16 16:41:19 1510868479.440519: $GPZDA,214118.00,16,11,2017,00,00*6A
2017-11-16 16:41:19 1510868479.440779: $GPGGA,214118,3946.9582,N,08404.9820,W,2,11,0.80,303.37,M,-33.324,M,,*7D
2017-11-16 16:41:19 1510868479.440867: $GPRMC,214118,A,3946.9582,N,08404.9820,W,0.0000,0.000,161117,,*34
2017-11-16 16:41:19 1510868479.440944: $GPGSA,A,3,1,10,11,12,14,18,24,25,31,32,138,,1.6,0.8,1.3*38
2017-11-16 16:41:20 1510868480.771149: $GPGSV,3,1,11,01,12,321,38,10,73,127,48,11,10,303,38,12,25,075,48*7F
2017-11-16 16:41:20 1510868480.771306: $GPGSV,3,2,11,14,53,288,43,18,40,133,45,24,16,045,49,25,28,117,44*74
2017-11-16 16:41:20 1510868480.771366: $GPGSV,3,3,11,31,31,211,44,32,67,321,50,138,38,213,45*7E
2017-11-16 16:41:20 1510868480.884434: $GPZDA,214119.00,16,11,2017,00,00*6B
2017-11-16 16:41:20 1510868480.884583: $GPGGA,214119,3946.9582,N,08404.9820,W,2,11,0.80,303.37,M,-33.324,M,,*7C
2017-11-16 16:41:20 1510868480.884644: $GPRMC,214119,A,3946.9582,N,08404.9820,W,0.0000,0.000,161117,,*35
2017-11-16 16:41:20 1510868480.884699: $GPGSA,A,3,1,10,11,12,14,18,24,25,31,32,138,,1.6,0.8,1.3*38
2017-11-16 16:41:21 1510868481.509778: $GPZDA,214120.00,16,11,2017,00,00*61
2017-11-16 16:41:21 1510868481.509953: $GPGGA,214120,3946.9582,N,08404.9820,W,2,11,0.80,303.37,M,-33.324,M,,*76
2017-11-16 16:41:21 1510868481.510016: $GPRMC,214120,A,3946.9582,N,08404.9820,W,0.0000,0.000,161117,,*3F
2017-11-16 16:41:21 1510868481.510072: $GPGSA,A,3,1,10,11,12,14,18,24,25,31,32,138,,1.6,0.8,1.3*38
2017-11-16 16:41:22 1510868482.438438: $GPZDA,214121.00,16,11,2017,00,00*60
2017-11-16 16:41:22 1510868482.438585: $GPGGA,214121,3946.9582,N,08404.9820,W,2,11,0.80,303.37,M,-33.324,M,,*77
2017-11-16 16:41:22 1510868482.438646: $GPRMC,214121,A,3946.9582,N,08404.9820,W,0.0000,0.000,161117,,*3E
2017-11-16 16:41:22 1510868482.438702: $GPGSA,A,3,1,10,11,12,14,18,24,25,31,32,138,,1.6,0.8,1.3*38
2017-11-16 16:41:23 1510868483.775298: $GPGSV,3,1,11,01,12,321,37,10,73,127,47,11,10,303,38,12,25,075,47*70
2017-11-16 16:41:23 1510868483.775469: $GPGSV,3,2,11,14,53,288,43,18,40,133,45,24,16,045,49,25,28,117,44*74
2017-11-16 16:41:23 1510868483.775530: $GPGSV,3,3,11,31,31,211,44,32,67,321,50,138,38,213,44*7F
2017-11-16 16:41:23 1510868483.887572: $GPZDA,214122.00,16,11,2017,00,00*63
2017-11-16 16:41:23 1510868483.887721: $GPGGA,214122,3946.9582,N,08404.9820,W,2,11,0.80,303.37,M,-33.324,M,,*74
2017-11-16 16:41:23 1510868483.887781: $GPRMC,214122,A,3946.9582,N,08404.9820,W,0.0000,0.000,161117,,*3D
2017-11-16 16:41:23 1510868483.887836: $GPGSA,A,3,1,10,11,12,14,18,24,25,31,32,138,,1.6,0.8,1.3*38
2017-11-16 16:41:24 1510868484.439736: $GPZDA,214123.00,16,11,2017,00,00*62
2017-11-16 16:41:24 1510868484.439901: $GPGGA,214123,3946.9582,N,08404.9820,W,2,11,0.80,303.37,M,-33.324,M,,*75
2017-11-16 16:41:24 1510868484.439961: $GPRMC,214123,A,3946.9582,N,08404.9820,W,0.0000,0.000,161117,,*3C
2017-11-16 16:41:24 1510868484.440017: $GPGSA,A,3,1,10,11,12,14,18,24,25,31,32,138,,1.6,0.8,1.3*38
2017-11-16 16:41:25 1510868485.438115: $GPZDA,214124.00,16,11,2017,00,00*65
2017-11-16 16:41:25 1510868485.438302: $GPGGA,214124,3946.9582,N,08404.9820,W,2,11,0.80,303.37,M,-33.324,M,,*72
2017-11-16 16:41:25 1510868485.438410: $GPRMC,214124,A,3946.9582,N,08404.9820,W,0.0000,0.000,161117,,*3B
2017-11-16 16:41:25 1510868485.438468: $GPGSA,A,3,1,10,11,12,14,18,24,25,31,32,138,,1.6,0.8,1.3*38
2017-11-16 16:41:26 1510868486.773293: $GPGSV,3,1,11,01,12,321,36,10,73,127,48,11,10,303,39,12,25,075,47*7F
2017-11-16 16:41:26 1510868486.773470: $GPGSV,3,2,11,14,53,288,42,18,40,133,45,24,16,045,50,25,28,117,44*7D
2017-11-16 16:41:26 1510868486.773532: $GPGSV,3,3,11,31,31,211,44,32,67,321,50,138,38,213,44*7F
2017-11-16 16:41:26 1510868486.886883: $GPZDA,214125.00,16,11,2017,00,00*64
2017-11-16 16:41:26 1510868486.887046: $GPGGA,214125,3946.9582,N,08404.9820,W,2,11,0.80,303.37,M,-33.324,M,,*73
2017-11-16 16:41:26 1510868486.887107: $GPRMC,214125,A,3946.9582,N,08404.9820,W,0.0000,0.000,161117,,*3A
2017-11-16 16:41:26 1510868486.887163: $GPGSA,A,3,1,10,11,12,14,18,24,25,31,32,138,,1.6,0.8,1.3*38
2017-11-16 16:41:27 1510868487.433873: $GPZDA,214126.00,16,11,2017,00,00*67
2017-11-16 16:41:27 1510868487.434051: $GPGGA,214126,3946.9582,N,08404.9820,W,2,11,0.80,303.37,M,-33.324,M,,*70
2017-11-16 16:41:27 1510868487.434112: $GPRMC,214126,A,3946.9582,N,08404.9820,W,0.0000,0.000,161117,,*39
2017-11-16 16:41:27 1510868487.434168: $GPGSA,A,3,1,10,11,12,14,18,24,25,31,32,138,,1.6,0.8,1.3*38
