2017-12-31 17:51:22 1514760682.747210: {"class":"VERSION","release":"3.16","rev":"3.16-4","proto_major":3,"proto_minor":11}
2017-12-31 17:51:22 1514760682.747571: {"class":"DEVICES","devices":[{"class":"DEVICE","path":"/dev/ttyUSB0","driver":"SiRF","activated":"2017-12-31T22:51:22.487Z","flags":1,"native":1,"bps":4800,"parity":"N","stopbits":1,"cycle":1.00}]}
2017-12-31 17:51:22 1514760682.747670: {"class":"WATCH","enable":true,"json":false,"nmea":true,"raw":0,"scaled":false,"timing":false,"split24":false,"pps":false}
2017-12-31 17:51:23 1514760683.371634: $GPZDA,225124.00,31,12,2017,00,00*61
2017-12-31 17:51:23 1514760683.371798: $GPGGA,225124,3946.9567,N,08404.9864,W,2,12,0.60,305.31,M,-33.324,M,,*76
2017-12-31 17:51:23 1514760683.371863: $GPRMC,225124,A,3946.9567,N,08404.9864,W,0.0000,0.000,311217,,*34
2017-12-31 17:51:23 1514760683.371923: $GPGSA,A,3,22,23,9,3,16,29,14,31,27,32,26,135,1.7,0.6,1.3*07
2017-12-31 17:51:24 1514760684.707141: $GPGSV,3,1,12,22,29,219,44,23,46,309,44,09,13,312,41,03,37,241,45*7F
2017-12-31 17:51:24 1514760684.707311: $GPGSV,3,2,12,16,71,192,43,29,09,036,36,14,22,129,26,31,34,069,42*72
2017-12-31 17:51:24 1514760684.707377: $GPGSV,3,3,12,27,15,157,29,32,01,133,20,26,70,058,48,135,22,240,44*43
2017-12-31 17:51:24 1514760684.820485: $GPZDA,225125.00,31,12,2017,00,00*60
2017-12-31 17:51:24 1514760684.820649: $GPGGA,225125,3946.9567,N,08404.9864,W,2,12,0.60,305.31,M,-33.324,M,,*77
2017-12-31 17:51:24 1514760684.820716: $GPRMC,225125,A,3946.9567,N,08404.9864,W,0.0000,0.000,311217,,*35
2017-12-31 17:51:24 1514760684.820777: $GPGSA,A,3,22,23,9,3,16,29,14,31,27,32,26,135,1.7,0.6,1.3*07
2017-12-31 17:51:25 1514760685.964374: $GPZDA,225126.00,31,12,2017,00,00*63
2017-12-31 17:51:25 1514760685.964537: $GPGGA,225126,3946.9567,N,08404.9864,W,2,12,0.60,305.31,M,-33.324,M,,*74
2017-12-31 17:51:25 1514760685.964603: $GPRMC,225126,A,3946.9567,N,08404.9864,W,0.0000,0.000,311217,,*36
2017-12-31 17:51:25 1514760685.964663: $GPGSA,A,3,22,23,9,3,16,29,14,31,27,32,26,135,1.7,0.6,1.3*07
2017-12-31 17:51:26 1514760686.415207: $GPZDA,225127.00,31,12,2017,00,00*62
2017-12-31 17:51:26 1514760686.415354: $GPGGA,225127,3946.9567,N,08404.9864,W,2,12,0.60,305.31,M,-33.324,M,,*75
2017-12-31 17:51:26 1514760686.415435: $GPRMC,225127,A,3946.9567,N,08404.9864,W,0.0000,0.000,311217,,*37
2017-12-31 17:51:26 1514760686.415497: $GPGSA,A,3,22,23,9,3,16,29,14,31,27,32,26,135,1.7,0.6,1.3*07
2017-12-31 17:51:27 1514760687.706964: $GPGSV,3,1,12,22,29,219,44,23,46,309,44,09,13,312,41,03,37,241,45*7F
2017-12-31 17:51:27 1514760687.707184: $GPGSV,3,2,12,16,71,192,44,29,09,036,36,14,22,129,27,31,34,069,41*77
2017-12-31 17:51:27 1514760687.707257: $GPGSV,3,3,12,27,15,157,30,32,01,133,20,26,70,058,48,135,22,240,45*4A
2017-12-31 17:51:27 1514760687.820602: $GPZDA,225128.00,31,12,2017,00,00*6D
2017-12-31 17:51:27 1514760687.820768: $GPGGA,225128,3946.9567,N,08404.9864,W,2,12,0.60,305.31,M,-33.324,M,,*7A
2017-12-31 17:51:27 1514760687.820833: $GPRMC,225128,A,3946.9567,N,08404.9864,W,0.0000,0.000,311217,,*38
2017-12-31 17:51:27 1514760687.820892: $GPGSA,A,3,22,23,9,3,16,29,14,31,27,32,26,135,1.7,0.6,1.3*07
2017-12-31 17:51:28 1514760688.346492: $GPZDA,225129.00,31,12,2017,00,00*6C
2017-12-31 17:51:28 1514760688.346663: $GPGGA,225129,3946.9567,N,08404.9864,W,2,12,0.60,305.31,M,-33.324,M,,*7B
2017-12-31 17:51:28 1514760688.346730: $GPRMC,225129,A,3946.9567,N,08404.9864,W,0.0000,0.000,311217,,*39
2017-12-31 17:51:28 1514760688.346791: $GPGSA,A,3,22,23,9,3,16,29,14,31,27,32,26,135,1.7,0.6,1.3*07
2017-12-31 17:51:29 1514760689.346148: $GPZDA,225130.00,31,12,2017,00,00*64
2017-12-31 17:51:29 1514760689.346313: $GPGGA,225130,3946.9567,N,08404.9864,W,2,12,0.60,305.31,M,-33.324,M,,*73
2017-12-31 17:51:29 1514760689.346380: $GPRMC,225130,A,3946.9567,N,08404.9864,W,0.0000,0.000,311217,,*31
2017-12-31 17:51:29 1514760689.346440: $GPGSA,A,3,22,23,9,3,16,29,14,31,27,32,26,135,1.7,0.6,1.3*07
2017-12-31 17:51:30 1514760690.682332: $GPGSV,3,1,12,22,29,219,44,23,46,309,44,09,13,312,41,03,37,241,45*7F
2017-12-31 17:51:30 1514760690.682491: $GPGSV,3,2,12,16,71,192,43,29,09,036,37,14,22,129,20,31,34,069,42*75
2017-12-31 17:51:30 1514760690.682606: $GPGSV,3,3,12,27,15,157,30,32,01,133,19,26,70,058,48,135,22,240,43*46
2017-12-31 17:51:30 1514760690.795849: $GPZDA,225131.00,31,12,2017,00,00*65
2017-12-31 17:51:30 1514760690.796030: $GPGGA,225131,3946.9567,N,08404.9864,W,2,12,0.60,305.31,M,-33.324,M,,*72
2017-12-31 17:51:30 1514760690.796098: $GPRMC,225131,A,3946.9567,N,08404.9864,W,0.0000,0.000,311217,,*30
2017-12-31 17:51:30 1514760690.796158: $GPGSA,A,3,22,23,9,3,16,29,14,31,27,32,26,135,1.7,0.6,1.3*07
2017-12-31 17:51:31 1514760691.373227: $GPZDA,225132.00,31,12,2017,00,00*66
2017-12-31 17:51:31 1514760691.373399: $GPGGA,225132,3946.9567,N,08404.9864,W,2,12,0.60,305.31,M,-33.324,M,,*71
2017-12-31 17:51:31 1514760691.373465: $GPRMC,225132,A,3946.9567,N,08404.9864,W,0.0000,0.000,311217,,*33
2017-12-31 17:51:31 1514760691.373526: $GPGSA,A,3,22,23,9,3,16,29,14,31,27,32,26,135,1.7,0.6,1.3*07
2017-12-31 17:51:32 1514760692.339049: $GPZDA,225133.00,31,12,2017,00,00*67
2017-12-31 17:51:32 1514760692.339217: $GPGGA,225133,3946.9567,N,08404.9864,W,2,12,0.60,305.31,M,-33.324,M,,*70
2017-12-31 17:51:32 1514760692.339283: $GPRMC,225133,A,3946.9567,N,08404.9864,W,0.0000,0.000,311217,,*32
2017-12-31 17:51:32 1514760692.339345: $GPGSA,A,3,22,23,9,3,16,29,14,31,27,32,26,135,1.7,0.6,1.3*07
