2017-11-16 14:36:29 1510860989.105697: {"class":"VERSION","release":"3.17","rev":"3.17","proto_major":3,"proto_minor":12}
2017-11-16 14:36:29 1510860989.106158: {"class":"DEVICES","devices":[{"class":"DEVICE","path":"/dev/ttyUSB0","driver":"SiRF","subtype":"9\u0006GSD4e_4.1.2-P1_RPATCH.05-F-GPS-4R-1510281 11/03/2015 307","activated":"2017-11-16T19:36:28.839Z","flags":1,"native":1,"bps":4800,"parity":"N","stopbits":1,"cycle":1.00}]}
2017-11-16 14:36:29 1510860989.106272: {"class":"WATCH","enable":true,"json":false,"nmea":true,"raw":0,"scaled":false,"timing":false,"split24":false,"pps":false}
2017-11-16 14:36:29 1510860989.523475: $GPZDA,193628.00,16,11,2017,00,00*62
2017-11-16 14:36:29 1510860989.523645: $GPGGA,193628,3946.9564,N,08404.9849,W,2,11,0.80,302.66,M,-33.324,M,,*77
2017-11-16 14:36:29 1510860989.523707: $GPRMC,193628,A,3946.9564,N,08404.9849,W,0.0000,0.000,161117,,*3B
2017-11-16 14:36:29 1510860989.523763: $GPGSA,A,3,8,10,15,18,21,20,24,27,32,14,138,,1.6,0.8,1.3*37
2017-11-16 14:36:30 1510860990.855569: $GPGSV,3,1,11,08,08,313,39,10,49,309,49,15,29,055,51,18,76,003,44*7B
2017-11-16 14:36:30 1510860990.855772: $GPGSV,3,2,11,21,54,184,47,20,26,103,46,24,53,094,50,27,17,280,41*76
2017-11-16 14:36:30 1510860990.855835: $GPGSV,3,3,11,32,28,244,46,14,11,237,40,138,38,213,44*74
2017-11-16 14:36:30 1510860990.969174: $GPZDA,193629.00,16,11,2017,00,00*63
2017-11-16 14:36:30 1510860990.969322: $GPGGA,193629,3946.9564,N,08404.9849,W,2,11,0.80,302.66,M,-33.324,M,,*76
2017-11-16 14:36:30 1510860990.969381: $GPRMC,193629,A,3946.9564,N,08404.9849,W,0.0000,0.000,161117,,*3A
2017-11-16 14:36:30 1510860990.969436: $GPGSA,A,3,8,10,15,18,21,20,24,27,32,14,138,,1.6,0.8,1.3*37
2017-11-16 14:36:31 1510860991.523852: $GPZDA,193630.00,16,11,2017,00,00*6B
2017-11-16 14:36:31 1510860991.524011: $GPGGA,193630,3946.9564,N,08404.9849,W,2,11,0.80,302.66,M,-33.324,M,,*7E
2017-11-16 14:36:31 1510860991.524073: $GPRMC,193630,A,3946.9564,N,08404.9849,W,0.0000,0.000,161117,,*32
2017-11-16 14:36:31 1510860991.524130: $GPGSA,A,3,8,10,15,18,21,20,24,27,32,14,138,,1.6,0.8,1.3*37
2017-11-16 14:36:32 1510860992.524419: $GPZDA,193631.00,16,11,2017,00,00*6A
2017-11-16 14:36:32 1510860992.524585: $GPGGA,193631,3946.9564,N,08404.9849,W,2,11,0.80,302.66,M,-33.324,M,,*7F
2017-11-16 14:36:32 1510860992.524646: $GPRMC,193631,A,3946.9564,N,08404.9849,W,0.0000,0.000,161117,,*33
2017-11-16 14:36:32 1510860992.524702: $GPGSA,A,3,8,10,15,18,21,20,24,27,32,14,138,,1.6,0.8,1.3*37
2017-11-16 14:36:33 1510860993.859627: $GPGSV,3,1,11,08,08,312,38,10,50,309,49,15,28,055,51,18,76,009,44*78
2017-11-16 14:36:33 1510860993.859799: $GPGSV,3,2,11,21,52,184,47,20,25,103,46,24,53,091,51,27,16,279,41*70
2017-11-16 14:36:33 1510860993.859859: $GPGSV,3,3,11,32,29,246,47,14,13,238,41,138,38,213,45*7B
2017-11-16 14:36:33 1510860993.972883: $GPZDA,193632.00,16,11,2017,00,00*69
2017-11-16 14:36:33 1510860993.973020: $GPGGA,193632,3946.9564,N,08404.9849,W,2,11,0.80,302.66,M,-33.324,M,,*7C
2017-11-16 14:36:33 1510860993.973079: $GPRMC,193632,A,3946.9564,N,08404.9849,W,0.0000,0.000,161117,,*30
2017-11-16 14:36:33 1510860993.973134: $GPGSA,A,3,8,10,15,18,21,20,24,27,32,14,138,,1.6,0.8,1.3*37
2017-11-16 14:36:34 1510860994.598318: $GPZDA,193633.00,16,11,2017,00,00*68
2017-11-16 14:36:34 1510860994.598481: $GPGGA,193633,3946.9564,N,08404.9849,W,2,11,0.80,302.66,M,-33.324,M,,*7D
2017-11-16 14:36:34 1510860994.598541: $GPRMC,193633,A,3946.9564,N,08404.9849,W,0.0000,0.000,161117,,*31
2017-11-16 14:36:34 1510860994.598597: $GPGSA,A,3,8,10,15,18,21,20,24,27,32,14,138,,1.6,0.8,1.3*37
2017-11-16 14:36:35 1510860995.523054: $GPZDA,193634.00,16,11,2017,00,00*6F
2017-11-16 14:36:35 1510860995.523224: $GPGGA,193634,3946.9564,N,08404.9849,W,2,11,0.80,302.66,M,-33.324,M,,*7A
2017-11-16 14:36:35 1510860995.523286: $GPRMC,193634,A,3946.9564,N,08404.9849,W,0.0000,0.000,161117,,*36
2017-11-16 14:36:35 1510860995.523342: $GPGSA,A,3,8,10,15,18,21,20,24,27,32,14,138,,1.6,0.8,1.3*37
2017-11-16 14:36:36 1510860996.860091: $GPGSV,3,1,11,08,08,312,38,10,50,309,49,15,28,055,51,18,76,009,44*78
2017-11-16 14:36:36 1510860996.860389: $GPGSV,3,2,11,21,52,184,47,20,25,103,46,24,53,091,51,27,16,279,42*73
2017-11-16 14:36:36 1510860996.860462: $GPGSV,3,3,11,32,29,246,47,14,13,238,41,138,38,213,44*7A
2017-11-16 14:36:36 1510860996.973704: $GPZDA,193635.00,16,11,2017,00,00*6E
2017-11-16 14:36:36 1510860996.973894: $GPGGA,193635,3946.9564,N,08404.9849,W,2,11,0.80,302.66,M,-33.324,M,,*7B
2017-11-16 14:36:36 1510860996.973957: $GPRMC,193635,A,3946.9564,N,08404.9849,W,0.0000,0.000,161117,,*37
2017-11-16 14:36:36 1510860996.974012: $GPGSA,A,3,8,10,15,18,21,20,24,27,32,14,138,,1.6,0.8,1.3*37
2017-11-16 14:36:37 1510860997.523067: $GPZDA,193636.00,16,11,2017,00,00*6D
2017-11-16 14:36:37 1510860997.523236: $GPGGA,193636,3946.9564,N,08404.9849,W,2,11,0.80,302.66,M,-33.324,M,,*78
2017-11-16 14:36:37 1510860997.523298: $GPRMC,193636,A,3946.9564,N,08404.9849,W,0.0000,0.000,161117,,*34
2017-11-16 14:36:37 1510860997.523353: $GPGSA,A,3,8,10,15,18,21,20,24,27,32,14,138,,1.6,0.8,1.3*37
2017-11-16 14:36:38 1510860998.524022: $GPZDA,193637.00,16,11,2017,00,00*6C
2017-11-16 14:36:38 1510860998.524198: $GPGGA,193637,3946.9564,N,08404.9849,W,2,11,0.80,302.66,M,-33.324,M,,*79
2017-11-16 14:36:38 1510860998.524260: $GPRMC,193637,A,3946.9564,N,08404.9849,W,0.0000,0.000,161117,,*35
2017-11-16 14:36:38 1510860998.524315: $GPGSA,A,3,8,10,15,18,21,20,24,27,32,14,138,,1.6,0.8,1.3*37
2017-11-16 14:36:39 1510860999.859323: $GPGSV,3,1,11,08,08,312,37,10,50,309,48,15,28,055,51,18,76,009,44*76
2017-11-16 14:36:39 1510860999.859492: $GPGSV,3,2,11,21,52,184,47,20,25,103,46,24,53,091,50,27,16,279,43*73
2017-11-16 14:36:39 1510860999.859553: $GPGSV,3,3,11,32,29,246,48,14,13,238,41,138,38,213,43*72
2017-11-16 14:36:39 1510860999.972672: $GPZDA,193638.00,16,11,2017,00,00*63
2017-11-16 14:36:39 1510860999.972829: $GPGGA,193638,3946.9564,N,08404.9849,W,2,11,0.80,302.66,M,-33.324,M,,*76
2017-11-16 14:36:39 1510860999.972890: $GPRMC,193638,A,3946.9564,N,08404.9849,W,0.0000,0.000,161117,,*3A
2017-11-16 14:36:39 1510860999.972946: $GPGSA,A,3,8,10,15,18,21,20,24,27,32,14,138,,1.6,0.8,1.3*37
2017-11-16 14:36:40 1510861000.523669: $GPZDA,193639.00,16,11,2017,00,00*62
2017-11-16 14:36:40 1510861000.523852: $GPGGA,193639,3946.9564,N,08404.9849,W,2,11,0.80,302.66,M,-33.324,M,,*77
2017-11-16 14:36:40 1510861000.523917: $GPRMC,193639,A,3946.9564,N,08404.9849,W,0.0000,0.000,161117,,*3B
2017-11-16 14:36:40 1510861000.523976: $GPGSA,A,3,8,10,15,18,21,20,24,27,32,14,138,,1.6,0.8,1.3*37
2017-11-16 14:36:41 1510861001.558336: $GPZDA,193640.00,16,11,2017,00,00*6C
2017-11-16 14:36:41 1510861001.558516: $GPGGA,193640,3946.9564,N,08404.9849,W,2,11,0.80,302.66,M,-33.324,M,,*79
2017-11-16 14:36:41 1510861001.558580: $GPRMC,193640,A,3946.9564,N,08404.9849,W,0.0000,0.000,161117,,*35
2017-11-16 14:36:41 1510861001.558639: $GPGSA,A,3,8,10,15,18,21,20,24,27,32,14,138,,1.6,0.8,1.3*37
2017-11-16 14:36:42 1510861002.895312: $GPGSV,3,1,11,08,08,312,36,10,50,309,49,15,28,055,52,18,76,009,44*75
2017-11-16 14:36:42 1510861002.895456: $GPGSV,3,2,11,21,52,184,47,20,25,103,46,24,53,091,50,27,16,279,44*74
2017-11-16 14:36:42 1510861002.895518: $GPGSV,3,3,11,32,29,246,48,14,13,238,41,138,38,213,42*73
2017-11-16 14:36:43 1510861003.008658: $GPZDA,193641.00,16,11,2017,00,00*6D
2017-11-16 14:36:43 1510861003.008823: $GPGGA,193641,3946.9564,N,08404.9849,W,2,11,0.80,302.66,M,-33.324,M,,*78
2017-11-16 14:36:43 1510861003.008887: $GPRMC,193641,A,3946.9564,N,08404.9849,W,0.0000,0.000,161117,,*34
2017-11-16 14:36:43 1510861003.008946: $GPGSA,A,3,8,10,15,18,21,20,24,27,32,14,138,,1.6,0.8,1.3*37
2017-11-16 14:36:43 1510861003.523308: $GPZDA,193642.00,16,11,2017,00,00*6E
2017-11-16 14:36:43 1510861003.523486: $GPGGA,193642,3946.9564,N,08404.9849,W,2,11,0.80,302.66,M,-33.324,M,,*7B
2017-11-16 14:36:43 1510861003.523572: $GPRMC,193642,A,3946.9564,N,08404.9849,W,0.0000,0.000,161117,,*37
2017-11-16 14:36:43 1510861003.523633: $GPGSA,A,3,8,10,15,18,21,20,24,27,32,14,138,,1.6,0.8,1.3*37
2017-11-16 14:36:44 1510861004.557497: $GPZDA,193643.00,16,11,2017,00,00*6F
2017-11-16 14:36:44 1510861004.557711: $GPGGA,193643,3946.9564,N,08404.9849,W,2,11,0.80,302.66,M,-33.324,M,,*7A
2017-11-16 14:36:44 1510861004.557773: $GPRMC,193643,A,3946.9564,N,08404.9849,W,0.0000,0.000,161117,,*36
2017-11-16 14:36:44 1510861004.557829: $GPGSA,A,3,8,10,15,18,21,20,24,27,32,14,138,,1.6,0.8,1.3*37
2017-11-16 14:36:45 1510861005.893398: $GPGSV,3,1,11,08,08,312,36,10,50,309,49,15,28,055,51,18,76,009,44*76
2017-11-16 14:36:45 1510861005.893576: $GPGSV,3,2,11,21,52,184,47,20,25,103,46,24,53,091,50,27,16,279,44*74
2017-11-16 14:36:45 1510861005.893642: $GPGSV,3,3,11,32,29,246,47,14,13,238,41,138,38,213,44*7A
2017-11-16 14:36:46 1510861006.006929: $GPZDA,193644.00,16,11,2017,00,00*68
2017-11-16 14:36:46 1510861006.007094: $GPGGA,193644,3946.9564,N,08404.9849,W,2,11,0.80,302.66,M,-33.324,M,,*7D
2017-11-16 14:36:46 1510861006.007158: $GPRMC,193644,A,3946.9564,N,08404.9849,W,0.0000,0.000,161117,,*31
2017-11-16 14:36:46 1510861006.007217: $GPGSA,A,3,8,10,15,18,21,20,24,27,32,14,138,,1.6,0.8,1.3*37
2017-11-16 14:36:46 1510861006.557583: $GPZDA,193645.00,16,11,2017,00,00*69
2017-11-16 14:36:46 1510861006.557749: $GPGGA,193645,3946.9564,N,08404.9849,W,2,11,0.80,302.66,M,-33.324,M,,*7C
2017-11-16 14:36:46 1510861006.557812: $GPRMC,193645,A,3946.9564,N,08404.9849,W,0.0000,0.000,161117,,*30
2017-11-16 14:36:46 1510861006.557871: $GPGSA,A,3,8,10,15,18,21,20,24,27,32,14,138,,1.6,0.8,1.3*37
2017-11-16 14:36:47 1510861007.523489: $GPZDA,193646.00,16,11,2017,00,00*6A
2017-11-16 14:36:47 1510861007.523655: $GPGGA,193646,3946.9564,N,08404.9849,W,2,11,0.80,302.66,M,-33.324,M,,*7F
2017-11-16 14:36:47 1510861007.523718: $GPRMC,193646,A,3946.9564,N,08404.9849,W,0.0000,0.000,161117,,*33
2017-11-16 14:36:47 1510861007.523777: $GPGSA,A,3,8,10,15,18,21,20,24,27,32,14,138,,1.6,0.8,1.3*37
2017-11-16 14:36:48 1510861008.861881: $GPGSV,3,1,11,08,08,312,36,10,50,309,49,15,28,055,51,18,76,009,44*76
2017-11-16 14:36:48 1510861008.862062: $GPGSV,3,2,11,21,52,184,47,20,25,103,46,24,53,091,49,27,16,279,44*7C
2017-11-16 14:36:48 1510861008.862125: $GPGSV,3,3,11,32,29,246,47,14,13,238,41,138,38,213,44*7A
2017-11-16 14:36:48 1510861008.973888: $GPZDA,193647.00,16,11,2017,00,00*6B
2017-11-16 14:36:48 1510861008.974054: $GPGGA,193647,3946.9564,N,08404.9849,W,2,11,0.80,302.66,M,-33.324,M,,*7E
2017-11-16 14:36:48 1510861008.974118: $GPRMC,193647,A,3946.9564,N,08404.9849,W,0.0000,0.000,161117,,*32
2017-11-16 14:36:48 1510861008.974177: $GPGSA,A,3,8,10,15,18,21,20,24,27,32,14,138,,1.6,0.8,1.3*37
2017-11-16 14:36:49 1510861009.600877: $GPZDA,193648.00,16,11,2017,00,00*64
2017-11-16 14:36:49 1510861009.601041: $GPGGA,193648,3946.9564,N,08404.9849,W,2,11,0.80,302.66,M,-33.324,M,,*71
2017-11-16 14:36:49 1510861009.601105: $GPRMC,193648,A,3946.9564,N,08404.9849,W,0.0000,0.000,161117,,*3D
2017-11-16 14:36:49 1510861009.601164: $GPGSA,A,3,8,10,15,18,21,20,24,27,32,14,138,,1.6,0.8,1.3*37
2017-11-16 14:36:50 1510861010.517963: $GPZDA,193649.00,16,11,2017,00,00*65
2017-11-16 14:36:50 1510861010.518122: $GPGGA,193649,3946.9564,N,08404.9849,W,2,11,0.80,302.66,M,-33.324,M,,*70
2017-11-16 14:36:50 1510861010.518187: $GPRMC,193649,A,3946.9564,N,08404.9849,W,0.0000,0.000,161117,,*3C
2017-11-16 14:36:50 1510861010.518246: $GPGSA,A,3,8,10,15,18,21,20,24,27,32,14,138,,1.6,0.8,1.3*37
2017-11-16 14:36:51 1510861011.893501: $GPGSV,3,1,11,08,08,312,36,10,50,309,48,15,28,055,51,18,76,009,44*77
2017-11-16 14:36:51 1510861011.893689: $GPGSV,3,2,11,21,52,184,46,20,25,103,46,24,53,091,49,27,16,279,44*7D
2017-11-16 14:36:51 1510861011.893754: $GPGSV,3,3,11,32,29,246,47,14,13,238,41,138,38,213,43*7D
2017-11-16 14:36:52 1510861012.007052: $GPZDA,193650.00,16,11,2017,00,00*6D
2017-11-16 14:36:52 1510861012.007190: $GPGGA,193650,3946.9564,N,08404.9849,W,2,11,0.80,302.66,M,-33.324,M,,*78
2017-11-16 14:36:52 1510861012.007253: $GPRMC,193650,A,3946.9564,N,08404.9849,W,0.0000,0.000,161117,,*34
2017-11-16 14:36:52 1510861012.007312: $GPGSA,A,3,8,10,15,18,21,20,24,27,32,14,138,,1.6,0.8,1.3*37
2017-11-16 14:36:52 1510861012.523999: $GPZDA,193651.00,16,11,2017,00,00*6C
2017-11-16 14:36:52 1510861012.524224: $GPGGA,193651,3946.9564,N,08404.9849,W,2,11,0.80,302.66,M,-33.324,M,,*79
2017-11-16 14:36:52 1510861012.524287: $GPRMC,193651,A,3946.9564,N,08404.9849,W,0.0000,0.000,161117,,*35
2017-11-16 14:36:52 1510861012.524344: $GPGSA,A,3,8,10,15,18,21,20,24,27,32,14,138,,1.6,0.8,1.3*37
2017-11-16 14:36:53 1510861013.526001: $GPZDA,193652.00,16,11,2017,00,00*6F
2017-11-16 14:36:53 1510861013.526308: $GPGGA,193652,3946.9564,N,08404.9849,W,2,11,0.80,302.66,M,-33.324,M,,*7A
2017-11-16 14:36:53 1510861013.526423: $GPRMC,193652,A,3946.9564,N,08404.9849,W,0.0000,0.000,161117,,*36
2017-11-16 14:36:53 1510861013.526543: $GPGSA,A,3,8,10,15,18,21,20,24,27,32,14,138,,1.6,0.8,1.3*37
2017-11-16 14:36:54 1510861014.895240: $GPGSV,3,1,11,08,08,312,36,10,50,309,49,15,28,055,51,18,76,009,44*76
2017-11-16 14:36:54 1510861014.895413: $GPGSV,3,2,11,21,52,184,46,20,25,103,46,24,53,091,48,27,16,279,44*7C
2017-11-16 14:36:54 1510861014.895474: $GPGSV,3,3,11,32,29,246,47,14,13,238,42,138,38,213,44*79
2017-11-16 14:36:55 1510861015.008555: $GPZDA,193653.00,16,11,2017,00,00*6E
2017-11-16 14:36:55 1510861015.008711: $GPGGA,193653,3946.9564,N,08404.9849,W,2,11,0.80,302.66,M,-33.324,M,,*7B
2017-11-16 14:36:55 1510861015.008773: $GPRMC,193653,A,3946.9564,N,08404.9849,W,0.0000,0.000,161117,,*37
2017-11-16 14:36:55 1510861015.008830: $GPGSA,A,3,8,10,15,18,21,20,24,27,32,14,138,,1.6,0.8,1.3*37
2017-11-16 14:36:55 1510861015.523211: $GPZDA,193654.00,16,11,2017,00,00*69
2017-11-16 14:36:55 1510861015.523372: $GPGGA,193654,3946.9564,N,08404.9849,W,2,11,0.80,302.66,M,-33.324,M,,*7C
2017-11-16 14:36:55 1510861015.523433: $GPRMC,193654,A,3946.9564,N,08404.9849,W,0.0000,0.000,161117,,*30
2017-11-16 14:36:55 1510861015.523488: $GPGSA,A,3,8,10,15,18,21,20,24,27,32,14,138,,1.6,0.8,1.3*37
2017-11-16 14:36:56 1510861016.554420: $GPZDA,193655.00,16,11,2017,00,00*68
2017-11-16 14:36:56 1510861016.554603: $GPGGA,193655,3946.9564,N,08404.9849,W,2,11,0.80,302.66,M,-33.324,M,,*7D
2017-11-16 14:36:56 1510861016.554666: $GPRMC,193655,A,3946.9564,N,08404.9849,W,0.0000,0.000,161117,,*31
2017-11-16 14:36:56 1510861016.554749: $GPGSA,A,3,8,10,15,18,21,20,24,27,32,14,138,,1.6,0.8,1.3*37
2017-11-16 14:36:57 1510861017.859981: $GPGSV,3,1,11,08,08,312,36,10,50,309,49,15,28,055,51,18,76,009,45*77
2017-11-16 14:36:57 1510861017.860148: $GPGSV,3,2,11,21,52,184,46,20,25,103,47,24,53,091,48,27,16,279,45*7C
2017-11-16 14:36:57 1510861017.860209: $GPGSV,3,3,11,32,29,246,47,14,13,238,42,138,38,213,45*78
2017-11-16 14:36:57 1510861017.973335: $GPZDA,193656.00,16,11,2017,00,00*6B
2017-11-16 14:36:57 1510861017.973502: $GPGGA,193656,3946.9564,N,08404.9849,W,2,11,0.80,302.66,M,-33.324,M,,*7E
2017-11-16 14:36:57 1510861017.973563: $GPRMC,193656,A,3946.9564,N,08404.9849,W,0.0000,0.000,161117,,*32
2017-11-16 14:36:57 1510861017.973637: $GPGSA,A,3,8,10,15,18,21,20,24,27,32,14,138,,1.6,0.8,1.3*37
2017-11-16 14:36:58 1510861018.524614: $GPZDA,193657.00,16,11,2017,00,00*6A
2017-11-16 14:36:58 1510861018.524809: $GPGGA,193657,3946.9564,N,08404.9849,W,2,11,0.80,302.66,M,-33.324,M,,*7F
2017-11-16 14:36:58 1510861018.524871: $GPRMC,193657,A,3946.9564,N,08404.9849,W,0.0000,0.000,161117,,*33
2017-11-16 14:36:58 1510861018.524928: $GPGSA,A,3,8,10,15,18,21,20,24,27,32,14,138,,1.6,0.8,1.3*37
