2017-12-29 14:41:05 1514576465.877989: {"class":"VERSION","release":"3.16","rev":"3.16-4","proto_major":3,"proto_minor":11}
2017-12-29 14:41:05 1514576465.878459: {"class":"DEVICES","devices":[{"class":"DEVICE","path":"/dev/ttyUSB0","driver":"SiRF","subtype":"9\u0006GSD4e_4.1.2-P1_RPATCH.05-F-GPS-4R-1510281 11/03/2015 307","activated":"2017-12-29T19:41:05.863Z","flags":1,"native":1,"bps":4800,"parity":"N","stopbits":1,"cycle":1.00}]}
2017-12-29 14:41:05 1514576465.878575: {"class":"WATCH","enable":true,"json":false,"nmea":true,"raw":0,"scaled":false,"timing":false,"split24":false,"pps":false}
2017-12-29 14:41:06 1514576466.490075: $GPZDA,194107.00,29,12,2017,00,00*60
2017-12-29 14:41:06 1514576466.490243: $GPGGA,194107,3946.9576,N,08404.9802,W,2,12,0.80,307.95,M,-33.324,M,,*7C
2017-12-29 14:41:06 1514576466.490310: $GPRMC,194107,A,3946.9576,N,08404.9802,W,0.0000,0.000,291217,,*35
2017-12-29 14:41:06 1514576466.490371: $GPGSA,A,3,1,10,11,12,14,18,22,25,31,32,3,138,1.7,0.8,1.3*0C
2017-12-29 14:41:07 1514576467.415363: $GPZDA,194108.00,29,12,2017,00,00*6F
2017-12-29 14:41:07 1514576467.415531: $GPGGA,194108,3946.9576,N,08404.9802,W,2,12,0.80,307.95,M,-33.324,M,,*73
2017-12-29 14:41:07 1514576467.415598: $GPRMC,194108,A,3946.9576,N,08404.9802,W,0.0000,0.000,291217,,*3A
2017-12-29 14:41:07 1514576467.415659: $GPGSA,A,3,1,10,11,12,14,18,22,25,31,32,3,138,1.7,0.8,1.3*0C
2017-12-29 14:41:08 1514576468.746126: $GPGSV,3,1,12,01,22,298,37,10,46,148,50,11,08,282,36,12,21,048,45*7D
2017-12-29 14:41:08 1514576468.746291: $GPGSV,3,2,12,14,66,330,43,18,15,144,46,22,21,312,37,25,40,088,50*76
2017-12-29 14:41:08 1514576468.746358: $GPGSV,3,3,12,31,60,226,47,32,67,036,48,26,05,181,20,138,38,213,42*4E
2017-12-29 14:41:08 1514576468.858205: $GPZDA,194109.00,29,12,2017,00,00*6E
2017-12-29 14:41:08 1514576468.858334: $GPGGA,194109,3946.9576,N,08404.9802,W,2,12,0.80,307.95,M,-33.324,M,,*72
2017-12-29 14:41:08 1514576468.858400: $GPRMC,194109,A,3946.9576,N,08404.9802,W,0.0000,0.000,291217,,*3B
2017-12-29 14:41:08 1514576468.858460: $GPGSA,A,3,1,10,11,12,14,18,22,25,31,32,26,138,1.7,0.8,1.3*3B
2017-12-29 14:41:09 1514576469.415388: $GPZDA,194110.00,29,12,2017,00,00*66
2017-12-29 14:41:09 1514576469.415561: $GPGGA,194110,3946.9576,N,08404.9802,W,2,12,0.80,307.95,M,-33.324,M,,*7A
2017-12-29 14:41:09 1514576469.415630: $GPRMC,194110,A,3946.9576,N,08404.9802,W,0.0000,0.000,291217,,*33
2017-12-29 14:41:09 1514576469.415690: $GPGSA,A,3,1,10,11,12,14,18,22,25,31,32,26,138,1.7,0.8,1.3*3B
2017-12-29 14:41:10 1514576470.415008: $GPZDA,194111.00,29,12,2017,00,00*67
2017-12-29 14:41:10 1514576470.415185: $GPGGA,194111,3946.9576,N,08404.9802,W,2,12,0.80,307.95,M,-33.324,M,,*7B
2017-12-29 14:41:10 1514576470.415252: $GPRMC,194111,A,3946.9576,N,08404.9802,W,0.0000,0.000,291217,,*32
2017-12-29 14:41:10 1514576470.415313: $GPGSA,A,3,1,10,11,12,14,18,22,25,31,32,26,138,1.7,0.8,1.3*3B
2017-12-29 14:41:11 1514576471.751500: $GPGSV,3,1,12,01,22,298,37,10,46,148,51,11,08,282,36,12,21,048,45*7C
2017-12-29 14:41:12 1514576472.613887: $GPGSV,3,2,12,14,66,330,43,18,15,144,46,22,21,312,37,25,40,088,50*76
2017-12-29 14:41:12 1514576472.614040: $GPGSV,3,3,12,31,60,226,47,32,67,036,48,26,05,181,23,138,38,213,42*4D
2017-12-29 14:41:12 1514576472.614139: $GPZDA,194112.00,29,12,2017,00,00*64
2017-12-29 14:41:12 1514576472.614197: $GPGGA,194112,3946.9576,N,08404.9802,W,2,12,0.80,307.95,M,-33.324,M,,*78
2017-12-29 14:41:12 1514576472.614257: $GPRMC,194112,A,3946.9576,N,08404.9802,W,0.0000,0.000,291217,,*31
2017-12-29 14:41:12 1514576472.614316: $GPGSA,A,3,1,10,11,12,14,18,22,25,31,32,26,138,1.7,0.8,1.3*3B
2017-12-29 14:41:12 1514576472.614375: $GPZDA,194113.00,29,12,2017,00,00*65
2017-12-29 14:41:12 1514576472.614428: $GPGGA,194113,3946.9576,N,08404.9802,W,2,12,0.80,307.95,M,-33.324,M,,*79
2017-12-29 14:41:12 1514576472.614488: $GPRMC,194113,A,3946.9576,N,08404.9802,W,0.0000,0.000,291217,,*30
2017-12-29 14:41:12 1514576472.614546: $GPGSA,A,3,1,10,11,12,14,18,22,25,31,32,26,138,1.7,0.8,1.3*3B
2017-12-29 14:41:13 1514576473.380615: $GPZDA,194114.00,29,12,2017,00,00*62
2017-12-29 14:41:13 1514576473.380828: $GPGGA,194114,3946.9576,N,08404.9802,W,2,12,0.80,307.95,M,-33.324,M,,*7E
2017-12-29 14:41:13 1514576473.380896: $GPRMC,194114,A,3946.9576,N,08404.9802,W,0.0000,0.000,291217,,*37
2017-12-29 14:41:13 1514576473.380957: $GPGSA,A,3,1,10,11,12,14,18,22,25,31,32,26,138,1.7,0.8,1.3*3B
2017-12-29 14:41:14 1514576474.714813: $GPGSV,3,1,12,01,22,298,37,10,46,148,50,11,08,282,36,12,21,048,45*7D
2017-12-29 14:41:14 1514576474.714987: $GPGSV,3,2,12,14,66,330,43,18,15,144,46,22,21,312,37,25,40,088,50*76
2017-12-29 14:41:14 1514576474.715054: $GPGSV,3,3,12,31,60,226,47,32,67,036,48,03,02,316,36,138,38,213,43*44
2017-12-29 14:41:14 1514576474.828454: $GPZDA,194115.00,29,12,2017,00,00*63
2017-12-29 14:41:14 1514576474.828593: $GPGGA,194115,3946.9576,N,08404.9802,W,2,12,0.80,307.95,M,-33.324,M,,*7F
2017-12-29 14:41:14 1514576474.828656: $GPRMC,194115,A,3946.9576,N,08404.9802,W,0.0000,0.000,291217,,*36
2017-12-29 14:41:14 1514576474.828716: $GPGSA,A,3,1,10,11,12,14,18,22,25,31,32,3,138,1.7,0.8,1.3*0C
2017-12-29 14:41:15 1514576475.381884: $GPZDA,194116.00,29,12,2017,00,00*60
2017-12-29 14:41:15 1514576475.382046: $GPGGA,194116,3946.9576,N,08404.9802,W,2,12,0.80,307.95,M,-33.324,M,,*7C
2017-12-29 14:41:15 1514576475.382112: $GPRMC,194116,A,3946.9576,N,08404.9802,W,0.0000,0.000,291217,,*35
2017-12-29 14:41:15 1514576475.382173: $GPGSA,A,3,1,10,11,12,14,18,22,25,31,32,3,138,1.7,0.8,1.3*0C
