2017-12-01 16:35:16 1512164116.836741: {"class":"VERSION","release":"3.16","rev":"3.16-4","proto_major":3,"proto_minor":11}
2017-12-01 16:35:16 1512164116.837177: {"class":"DEVICES","devices":[{"class":"DEVICE","path":"/dev/ttyUSB0","driver":"SiRF","subtype":"9\u0006GSD4e_4.1.2-P1_RPATCH.05-F-GPS-4R-1510281 11/03/2015 307","activated":"2017-12-01T21:35:16.745Z","flags":1,"native":1,"bps":4800,"parity":"N","stopbits":1,"cycle":1.00}]}
2017-12-01 16:35:16 1512164116.837302: {"class":"WATCH","enable":true,"json":false,"nmea":true,"raw":0,"scaled":false,"timing":false,"split24":false,"pps":false}
2017-12-01 16:35:17 1512164117.763971: $GPGSV,3,1,12,01,22,298,44,10,45,148,44,14,67,333,44,22,21,312,44*73
2017-12-01 16:35:17 1512164117.764160: $GPGSV,3,2,12,26,04,183,33,31,58,228,50,32,68,034,48,11,08,280,18*7C
2017-12-01 16:35:17 1512164117.764228: $GPGSV,3,3,12,12,21,048,27,18,16,144,24,25,40,087,29,138,38,213,34*4B
2017-12-01 16:35:17 1512164117.877352: $GPZDA,213518.00,01,12,2017,00,00*6C
2017-12-01 16:35:17 1512164117.877504: $GPGGA,213518,3946.9636,N,08404.9751,W,2,12,0.80,302.45,M,-33.324,M,,*7C
2017-12-01 16:35:17 1512164117.877571: $GPRMC,213518,A,3946.9636,N,08404.9751,W,0.0000,0.000,011217,,*37
2017-12-01 16:35:17 1512164117.877634: $GPGSA,A,3,1,10,14,22,26,31,32,11,12,18,25,138,2.0,0.8,1.5*39
2017-12-01 16:35:18 1512164118.427003: $GPZDA,213519.00,01,12,2017,00,00*6D
2017-12-01 16:35:18 1512164118.427178: $GPGGA,213519,3946.9636,N,08404.9758,W,2,12,0.80,302.37,M,-33.324,M,,*71
2017-12-01 16:35:18 1512164118.427249: $GPRMC,213519,A,3946.9636,N,08404.9758,W,0.0000,0.000,011217,,*3F
2017-12-01 16:35:18 1512164118.427311: $GPGSA,A,3,1,10,14,22,26,31,32,11,12,18,25,138,2.0,0.8,1.5*39
2017-12-01 16:35:19 1512164119.430341: $GPZDA,213520.00,01,12,2017,00,00*67
2017-12-01 16:35:19 1512164119.430515: $GPGGA,213520,3946.9636,N,08404.9758,W,2,12,0.80,302.37,M,-33.324,M,,*7B
2017-12-01 16:35:19 1512164119.430582: $GPRMC,213520,A,3946.9636,N,08404.9758,W,0.0000,0.000,011217,,*35
2017-12-01 16:35:19 1512164119.430646: $GPGSA,A,3,1,10,14,22,26,31,32,11,12,18,25,138,2.0,0.8,1.5*39
2017-12-01 16:35:20 1512164120.764865: $GPGSV,3,1,12,01,22,298,44,10,45,148,44,14,67,333,44,22,21,312,44*73
2017-12-01 16:35:20 1512164120.765059: $GPGSV,3,2,12,26,04,183,33,31,58,228,50,32,68,034,48,11,08,280,28*7F
2017-12-01 16:35:20 1512164120.765127: $GPGSV,3,3,12,12,21,048,28,18,16,144,24,25,40,087,29,138,38,213,38*48
2017-12-01 16:35:20 1512164120.878193: $GPZDA,213521.00,01,12,2017,00,00*66
2017-12-01 16:35:20 1512164120.878376: $GPGGA,213521,3946.9636,N,08404.9758,W,2,12,0.80,302.37,M,-33.324,M,,*7A
2017-12-01 16:35:20 1512164120.878443: $GPRMC,213521,A,3946.9636,N,08404.9758,W,0.0000,0.000,011217,,*34
2017-12-01 16:35:20 1512164120.878506: $GPGSA,A,3,1,10,14,22,26,31,32,11,12,18,25,138,2.0,0.8,1.5*39
2017-12-01 16:35:21 1512164121.429353: $GPZDA,213522.00,01,12,2017,00,00*65
2017-12-01 16:35:21 1512164121.429529: $GPGGA,213522,3946.9636,N,08404.9758,W,2,12,0.80,302.37,M,-33.324,M,,*79
2017-12-01 16:35:21 1512164121.429596: $GPRMC,213522,A,3946.9636,N,08404.9758,W,0.0000,0.000,011217,,*37
2017-12-01 16:35:21 1512164121.429662: $GPGSA,A,3,1,10,14,22,26,31,32,11,12,18,25,138,2.0,0.8,1.5*39
2017-12-01 16:35:22 1512164122.428217: $GPZDA,213523.00,01,12,2017,00,00*64
2017-12-01 16:35:22 1512164122.428394: $GPGGA,213523,3946.9636,N,08404.9758,W,2,12,0.80,302.37,M,-33.324,M,,*78
2017-12-01 16:35:22 1512164122.428462: $GPRMC,213523,A,3946.9636,N,08404.9758,W,0.0000,0.000,011217,,*36
2017-12-01 16:35:22 1512164122.428526: $GPGSA,A,3,1,10,14,22,26,31,32,11,12,18,25,138,2.0,0.8,1.5*39
2017-12-01 16:35:23 1512164123.766451: $GPGSV,3,1,12,01,22,298,44,10,45,148,44,14,67,333,44,22,21,312,43*74
2017-12-01 16:35:23 1512164123.766637: $GPGSV,3,2,12,26,04,183,33,31,58,228,50,32,68,034,48,11,08,280,26*71
2017-12-01 16:35:23 1512164123.766705: $GPGSV,3,3,12,12,21,048,27,18,16,144,24,25,40,087,29,138,38,213,40*48
2017-12-01 16:35:23 1512164123.880290: $GPZDA,213524.00,01,12,2017,00,00*63
2017-12-01 16:35:23 1512164123.880480: $GPGGA,213524,3946.9636,N,08404.9758,W,2,12,0.80,302.37,M,-33.324,M,,*7F
2017-12-01 16:35:23 1512164123.880602: $GPRMC,213524,A,3946.9636,N,08404.9758,W,0.0000,0.000,011217,,*31
2017-12-01 16:35:23 1512164123.880670: $GPGSA,A,3,1,10,14,22,26,31,32,11,12,18,25,138,2.0,0.8,1.5*39
2017-12-01 16:35:24 1512164124.428364: $GPZDA,213525.00,01,12,2017,00,00*62
2017-12-01 16:35:24 1512164124.428536: $GPGGA,213525,3946.9636,N,08404.9758,W,2,12,0.80,302.37,M,-33.324,M,,*7E
2017-12-01 16:35:24 1512164124.428608: $GPRMC,213525,A,3946.9636,N,08404.9758,W,0.0000,0.000,011217,,*30
2017-12-01 16:35:24 1512164124.428673: $GPGSA,A,3,1,10,14,22,26,31,32,11,12,18,25,138,2.0,0.8,1.5*39
2017-12-01 16:35:25 1512164125.429419: $GPZDA,213526.00,01,12,2017,00,00*61
2017-12-01 16:35:25 1512164125.429590: $GPGGA,213526,3946.9636,N,08404.9758,W,2,12,0.80,302.37,M,-33.324,M,,*7D
2017-12-01 16:35:25 1512164125.429662: $GPRMC,213526,A,3946.9636,N,08404.9758,W,0.0000,0.000,011217,,*33
2017-12-01 16:35:25 1512164125.429724: $GPGSA,A,3,1,10,14,22,26,31,32,11,12,18,25,138,2.0,0.8,1.5*39
2017-12-01 16:35:26 1512164126.763559: $GPGSV,3,1,12,01,22,298,43,10,45,148,44,14,67,333,44,22,21,312,44*74
2017-12-01 16:35:26 1512164126.763729: $GPGSV,3,2,12,26,04,183,33,31,58,228,49,32,68,034,48,11,08,280,30*7E
2017-12-01 16:35:26 1512164126.763796: $GPGSV,3,3,12,12,21,048,25,18,16,144,25,25,40,087,29,138,38,213,40*4B
2017-12-01 16:35:26 1512164126.877204: $GPZDA,213527.00,01,12,2017,00,00*60
2017-12-01 16:35:26 1512164126.877375: $GPGGA,213527,3946.9636,N,08404.9758,W,2,12,0.80,302.37,M,-33.324,M,,*7C
2017-12-01 16:35:26 1512164126.877443: $GPRMC,213527,A,3946.9636,N,08404.9758,W,0.0000,0.000,011217,,*32
2017-12-01 16:35:26 1512164126.877505: $GPGSA,A,3,1,10,14,22,26,31,32,11,12,18,25,138,2.0,0.8,1.5*39
2017-12-01 16:35:27 1512164127.502377: $GPZDA,213528.00,01,12,2017,00,00*6F
2017-12-01 16:35:27 1512164127.502557: $GPGGA,213528,3946.9636,N,08404.9758,W,2,12,0.80,302.37,M,-33.324,M,,*73
2017-12-01 16:35:27 1512164127.502629: $GPRMC,213528,A,3946.9636,N,08404.9758,W,0.0000,0.000,011217,,*3D
2017-12-01 16:35:27 1512164127.502691: $GPGSA,A,3,1,10,14,22,26,31,32,11,12,18,25,138,2.0,0.8,1.5*39
2017-12-01 16:35:28 1512164128.428514: $GPZDA,213529.00,01,12,2017,00,00*6E
2017-12-01 16:35:28 1512164128.428699: $GPGGA,213529,3946.9636,N,08404.9758,W,2,12,0.80,302.37,M,-33.324,M,,*72
2017-12-01 16:35:28 1512164128.428771: $GPRMC,213529,A,3946.9636,N,08404.9758,W,0.0000,0.000,011217,,*3C
2017-12-01 16:35:28 1512164128.428834: $GPGSA,A,3,1,10,14,22,26,31,32,11,12,18,25,138,2.0,0.8,1.5*39
2017-12-01 16:35:29 1512164129.763999: $GPGSV,3,1,12,01,22,298,43,10,45,148,44,14,67,333,44,22,21,312,44*74
2017-12-01 16:35:29 1512164129.764178: $GPGSV,3,2,12,26,04,183,34,31,58,228,50,32,68,034,48,11,08,280,29*79
2017-12-01 16:35:29 1512164129.764245: $GPGSV,3,3,12,12,21,048,22,18,16,144,25,25,40,087,29,138,38,213,37*4C
2017-12-01 16:35:29 1512164129.877282: $GPZDA,213530.00,01,12,2017,00,00*66
2017-12-01 16:35:29 1512164129.877426: $GPGGA,213530,3946.9636,N,08404.9758,W,2,12,0.80,302.37,M,-33.324,M,,*7A
2017-12-01 16:35:29 1512164129.877491: $GPRMC,213530,A,3946.9636,N,08404.9758,W,0.0000,0.000,011217,,*34
2017-12-01 16:35:29 1512164129.877551: $GPGSA,A,3,1,10,14,22,26,31,32,11,12,18,25,138,2.0,0.8,1.5*39
2017-12-01 16:35:30 1512164130.427175: $GPZDA,213531.00,01,12,2017,00,00*67
2017-12-01 16:35:30 1512164130.427335: $GPGGA,213531,3946.9636,N,08404.9758,W,2,12,0.80,302.37,M,-33.324,M,,*7B
2017-12-01 16:35:30 1512164130.427402: $GPRMC,213531,A,3946.9636,N,08404.9758,W,0.0000,0.000,011217,,*35
2017-12-01 16:35:30 1512164130.427464: $GPGSA,A,3,1,10,14,22,26,31,32,11,12,18,25,138,2.0,0.8,1.5*39
2017-12-01 16:35:31 1512164131.434334: $GPZDA,213532.00,01,12,2017,00,00*64
2017-12-01 16:35:31 1512164131.434495: $GPGGA,213532,3946.9636,N,08404.9758,W,2,12,0.80,302.37,M,-33.324,M,,*78
2017-12-01 16:35:31 1512164131.434562: $GPRMC,213532,A,3946.9636,N,08404.9758,W,0.0000,0.000,011217,,*36
2017-12-01 16:35:31 1512164131.434627: $GPGSA,A,3,1,10,14,22,26,31,32,11,12,18,25,138,2.0,0.8,1.5*39
2017-12-01 16:35:32 1512164132.763049: $GPGSV,3,1,12,01,22,298,42,10,45,148,44,14,67,333,44,22,21,312,44*75
2017-12-01 16:35:32 1512164132.763234: $GPGSV,3,2,12,26,04,183,33,31,58,228,50,32,68,034,48,11,08,280,28*7F
2017-12-01 16:35:32 1512164132.763301: $GPGSV,3,3,12,12,21,048,24,18,16,144,25,25,40,087,29,138,38,213,39*44
2017-12-01 16:35:32 1512164132.876856: $GPZDA,213533.00,01,12,2017,00,00*65
2017-12-01 16:35:32 1512164132.877044: $GPGGA,213533,3946.9636,N,08404.9758,W,2,12,0.80,302.37,M,-33.324,M,,*79
2017-12-01 16:35:32 1512164132.877113: $GPRMC,213533,A,3946.9636,N,08404.9758,W,0.0000,0.000,011217,,*37
2017-12-01 16:35:32 1512164132.877175: $GPGSA,A,3,1,10,14,22,26,31,32,11,12,18,25,138,2.0,0.8,1.5*39
2017-12-01 16:35:33 1512164133.432466: $GPZDA,213534.00,01,12,2017,00,00*62
2017-12-01 16:35:33 1512164133.432637: $GPGGA,213534,3946.9636,N,08404.9758,W,2,12,0.80,302.37,M,-33.324,M,,*7E
2017-12-01 16:35:33 1512164133.432708: $GPRMC,213534,A,3946.9636,N,08404.9758,W,0.0000,0.000,011217,,*30
2017-12-01 16:35:33 1512164133.432770: $GPGSA,A,3,1,10,14,22,26,31,32,11,12,18,25,138,2.0,0.8,1.5*39
2017-12-01 16:35:34 1512164134.432121: $GPZDA,213535.00,01,12,2017,00,00*63
2017-12-01 16:35:34 1512164134.432288: $GPGGA,213535,3946.9636,N,08404.9758,W,2,12,0.80,302.37,M,-33.324,M,,*7F
2017-12-01 16:35:34 1512164134.432356: $GPRMC,213535,A,3946.9636,N,08404.9758,W,0.0000,0.000,011217,,*31
2017-12-01 16:35:34 1512164134.432417: $GPGSA,A,3,1,10,14,22,26,31,32,11,12,18,25,138,2.0,0.8,1.5*39
2017-12-01 16:35:35 1512164135.771231: $GPGSV,3,1,12,01,22,298,42,10,45,148,44,14,67,333,44,22,21,312,45*74
2017-12-01 16:35:35 1512164135.771439: $GPGSV,3,2,12,26,04,183,33,31,58,228,50,32,68,034,48,11,08,280,29*7E
2017-12-01 16:35:35 1512164135.771523: $GPGSV,3,3,12,12,21,048,28,18,16,144,25,25,40,087,29,138,38,213,41*47
2017-12-01 16:35:35 1512164135.882857: $GPZDA,213536.00,01,12,2017,00,00*60
2017-12-01 16:35:35 1512164135.883031: $GPGGA,213536,3946.9636,N,08404.9758,W,2,12,0.80,302.37,M,-33.324,M,,*7C
2017-12-01 16:35:35 1512164135.883103: $GPRMC,213536,A,3946.9636,N,08404.9758,W,0.0000,0.000,011217,,*32
2017-12-01 16:35:35 1512164135.883167: $GPGSA,A,3,1,10,14,22,26,31,32,11,12,18,25,138,2.0,0.8,1.5*39
2017-12-01 16:35:36 1512164136.434479: $GPZDA,213537.00,01,12,2017,00,00*61
2017-12-01 16:35:36 1512164136.434660: $GPGGA,213537,3946.9636,N,08404.9758,W,2,12,0.80,302.37,M,-33.324,M,,*7D
2017-12-01 16:35:36 1512164136.434734: $GPRMC,213537,A,3946.9636,N,08404.9758,W,0.0000,0.000,011217,,*33
2017-12-01 16:35:36 1512164136.434799: $GPGSA,A,3,1,10,14,22,26,31,32,11,12,18,25,138,2.0,0.8,1.5*39
