2017-11-16 15:19:20 1510863560.458712: {"class":"VERSION","release":"3.17","rev":"3.17","proto_major":3,"proto_minor":12}
2017-11-16 15:19:20 1510863560.459273: {"class":"DEVICES","devices":[{"class":"DEVICE","path":"/dev/ttyUSB0","driver":"SiRF","subtype":"9\u0006GSD4e_4.1.2-P1_RPATCH.05-F-GPS-4R-1510281 11/03/2015 307","activated":"2017-11-16T20:19:20.413Z","flags":1,"native":1,"bps":4800,"parity":"N","stopbits":1,"cycle":1.00}]}
2017-11-16 15:19:20 1510863560.459411: {"class":"WATCH","enable":true,"json":false,"nmea":true,"raw":0,"scaled":false,"timing":false,"split24":false,"pps":false}
2017-11-16 15:19:21 1510863561.375816: $GPZDA,201920.00,16,11,2017,00,00*6D
2017-11-16 15:19:21 1510863561.375988: $GPGGA,201920,3946.9578,N,08404.9850,W,2,12,0.80,305.99,M,-33.324,M,,*79
2017-11-16 15:19:21 1510863561.376051: $GPRMC,201920,A,3946.9578,N,08404.9850,W,0.0000,0.000,161117,,*31
2017-11-16 15:19:21 1510863561.376107: $GPGSA,A,3,8,10,14,15,18,20,21,24,27,32,12,138,1.6,0.8,1.3*34
2017-11-16 15:19:22 1510863562.710471: $GPGSV,3,1,12,08,06,295,28,10,67,327,51,14,27,252,45,15,13,064,34*77
2017-11-16 15:19:22 1510863562.710640: $GPGSV,3,2,12,18,72,087,47,20,10,117,29,21,32,180,45,24,46,061,49*70
2017-11-16 15:19:22 1510863562.710699: $GPGSV,3,3,12,27,08,262,35,32,44,262,48,12,08,109,31,138,38,213,44*4C
2017-11-16 15:19:22 1510863562.823975: $GPZDA,201921.00,16,11,2017,00,00*6C
2017-11-16 15:19:22 1510863562.824134: $GPGGA,201921,3946.9578,N,08404.9850,W,2,12,0.80,305.99,M,-33.324,M,,*78
2017-11-16 15:19:22 1510863562.824194: $GPRMC,201921,A,3946.9578,N,08404.9850,W,0.0000,0.000,161117,,*30
2017-11-16 15:19:22 1510863562.824254: $GPGSA,A,3,8,10,14,15,18,20,21,24,27,32,12,138,1.6,0.8,1.3*34
2017-11-16 15:19:23 1510863563.375265: $GPZDA,201922.00,16,11,2017,00,00*6F
2017-11-16 15:19:23 1510863563.375437: $GPGGA,201922,3946.9578,N,08404.9850,W,2,12,0.80,305.99,M,-33.324,M,,*7B
2017-11-16 15:19:23 1510863563.375499: $GPRMC,201922,A,3946.9578,N,08404.9850,W,0.0000,0.000,161117,,*33
2017-11-16 15:19:23 1510863563.375555: $GPGSA,A,3,8,10,14,15,18,20,21,24,27,32,12,138,1.6,0.8,1.3*34
2017-11-16 15:19:24 1510863564.375323: $GPZDA,201923.00,16,11,2017,00,00*6E
2017-11-16 15:19:24 1510863564.375483: $GPGGA,201923,3946.9578,N,08404.9850,W,2,12,0.80,305.99,M,-33.324,M,,*7A
2017-11-16 15:19:24 1510863564.375544: $GPRMC,201923,A,3946.9578,N,08404.9850,W,0.0000,0.000,161117,,*32
2017-11-16 15:19:24 1510863564.375600: $GPGSA,A,3,8,10,14,15,18,20,21,24,27,32,12,138,1.6,0.8,1.3*34
2017-11-16 15:19:25 1510863565.712372: $GPGSV,3,1,12,08,06,295,30,10,67,327,51,14,27,252,45,15,13,064,35*7F
2017-11-16 15:19:25 1510863565.712538: $GPGSV,3,2,12,18,72,087,47,20,10,117,29,21,32,180,45,24,46,061,50*78
2017-11-16 15:19:25 1510863565.712598: $GPGSV,3,3,12,27,08,262,35,32,44,262,47,12,08,109,30,138,38,213,44*42
2017-11-16 15:19:25 1510863565.825663: $GPZDA,201924.00,16,11,2017,00,00*69
2017-11-16 15:19:25 1510863565.825825: $GPGGA,201924,3946.9578,N,08404.9850,W,2,12,0.80,305.99,M,-33.324,M,,*7D
2017-11-16 15:19:25 1510863565.825885: $GPRMC,201924,A,3946.9578,N,08404.9850,W,0.0000,0.000,161117,,*35
2017-11-16 15:19:25 1510863565.825940: $GPGSA,A,3,8,10,14,15,18,20,21,24,27,32,12,138,1.6,0.8,1.3*34
2017-11-16 15:19:26 1510863566.452311: $GPZDA,201925.00,16,11,2017,00,00*68
2017-11-16 15:19:26 1510863566.452479: $GPGGA,201925,3946.9578,N,08404.9857,W,2,12,0.80,305.91,M,-33.324,M,,*73
2017-11-16 15:19:26 1510863566.452540: $GPRMC,201925,A,3946.9578,N,08404.9857,W,0.0000,0.000,161117,,*33
2017-11-16 15:19:26 1510863566.452596: $GPGSA,A,3,8,10,14,15,18,20,21,24,27,32,12,138,1.6,0.8,1.3*34
2017-11-16 15:19:27 1510863567.374393: $GPZDA,201926.00,16,11,2017,00,00*6B
2017-11-16 15:19:27 1510863567.374562: $GPGGA,201926,3946.9578,N,08404.9857,W,2,12,0.80,305.91,M,-33.324,M,,*70
2017-11-16 15:19:27 1510863567.374623: $GPRMC,201926,A,3946.9578,N,08404.9857,W,0.0000,0.000,161117,,*30
2017-11-16 15:19:27 1510863567.374679: $GPGSA,A,3,8,10,14,15,18,20,21,24,27,32,12,138,1.6,0.8,1.3*34
2017-11-16 15:19:28 1510863568.711412: $GPGSV,3,1,12,08,06,295,30,10,67,327,51,14,27,252,45,15,13,064,35*7F
2017-11-16 15:19:28 1510863568.711625: $GPGSV,3,2,12,18,72,087,47,20,10,117,28,21,32,180,44,24,46,061,50*78
2017-11-16 15:19:28 1510863568.711688: $GPGSV,3,3,12,27,08,262,35,32,44,262,47,12,08,109,30,138,38,213,44*42
2017-11-16 15:19:28 1510863568.824688: $GPZDA,201927.00,16,11,2017,00,00*6A
2017-11-16 15:19:28 1510863568.824846: $GPGGA,201927,3946.9578,N,08404.9857,W,2,12,0.80,305.91,M,-33.324,M,,*71
2017-11-16 15:19:28 1510863568.824905: $GPRMC,201927,A,3946.9578,N,08404.9857,W,0.0000,0.000,161117,,*31
2017-11-16 15:19:28 1510863568.824961: $GPGSA,A,3,8,10,14,15,18,20,21,24,27,32,12,138,1.6,0.8,1.3*34
2017-11-16 15:19:29 1510863569.392526: $GPZDA,201928.00,16,11,2017,00,00*65
2017-11-16 15:19:29 1510863569.392689: $GPGGA,201928,3946.9578,N,08404.9857,W,2,12,0.80,305.91,M,-33.324,M,,*7E
2017-11-16 15:19:29 1510863569.392752: $GPRMC,201928,A,3946.9578,N,08404.9857,W,0.0000,0.000,161117,,*3E
2017-11-16 15:19:29 1510863569.392808: $GPGSA,A,3,8,10,14,15,18,20,21,24,27,32,12,138,1.6,0.8,1.3*34
2017-11-16 15:19:30 1510863570.390343: $GPZDA,201929.00,16,11,2017,00,00*64
2017-11-16 15:19:30 1510863570.390513: $GPGGA,201929,3946.9578,N,08404.9857,W,2,12,0.80,305.91,M,-33.324,M,,*7F
2017-11-16 15:19:30 1510863570.390574: $GPRMC,201929,A,3946.9578,N,08404.9857,W,0.0000,0.000,161117,,*3F
2017-11-16 15:19:30 1510863570.390630: $GPGSA,A,3,8,10,14,15,18,20,21,24,27,32,12,138,1.6,0.8,1.3*34
