2017-11-16 16:47:24 1510868844.700716: {"class":"VERSION","release":"3.17","rev":"3.17","proto_major":3,"proto_minor":12}
2017-11-16 16:47:24 1510868844.701157: {"class":"DEVICES","devices":[{"class":"DEVICE","path":"/dev/ttyUSB0","driver":"SiRF","subtype":"9\u0006GSD4e_4.1.2-P1_RPATCH.05-F-GPS-4R-1510281 11/03/2015 307","activated":"2017-11-16T21:47:24.589Z","flags":1,"native":1,"bps":4800,"parity":"N","stopbits":1,"cycle":1.00}]}
2017-11-16 16:47:24 1510868844.701266: {"class":"WATCH","enable":true,"json":false,"nmea":true,"raw":0,"scaled":false,"timing":false,"split24":false,"pps":false}
2017-11-16 16:47:25 1510868845.444832: $GPZDA,214724.00,16,11,2017,00,00*63
2017-11-16 16:47:25 1510868845.445004: $GPGGA,214724,3946.9580,N,08404.9815,W,2,12,0.80,307.02,M,-33.324,M,,*71
2017-11-16 16:47:25 1510868845.445114: $GPRMC,214724,A,3946.9580,N,08404.9815,W,0.0000,0.000,161117,,*39
2017-11-16 16:47:25 1510868845.445171: $GPGSA,A,3,1,10,11,12,14,18,24,25,31,32,22,138,1.6,0.8,1.3*38
2017-11-16 16:47:26 1510868846.781442: $GPGSV,3,1,12,01,14,318,36,10,70,132,49,11,11,301,30,12,25,072,47*7B
2017-11-16 16:47:26 1510868846.781587: $GPGSV,3,2,12,14,55,292,45,18,38,135,45,24,14,045,45,25,29,114,42*7F
2017-11-16 16:47:26 1510868846.781646: $GPGSV,3,3,12,31,34,211,45,32,68,328,51,22,02,310,34,138,38,213,45*49
2017-11-16 16:47:26 1510868846.894748: $GPZDA,214725.00,16,11,2017,00,00*62
2017-11-16 16:47:26 1510868846.894954: $GPGGA,214725,3946.9580,N,08404.9815,W,2,12,0.80,307.02,M,-33.324,M,,*70
2017-11-16 16:47:26 1510868846.895068: $GPRMC,214725,A,3946.9580,N,08404.9815,W,0.0000,0.000,161117,,*38
2017-11-16 16:47:26 1510868846.895134: $GPGSA,A,3,1,10,11,12,14,18,24,25,31,32,22,138,1.6,0.8,1.3*38
2017-11-16 16:47:27 1510868847.446977: $GPZDA,214726.00,16,11,2017,00,00*61
2017-11-16 16:47:27 1510868847.447139: $GPGGA,214726,3946.9580,N,08404.9815,W,2,12,0.80,307.02,M,-33.324,M,,*73
2017-11-16 16:47:27 1510868847.447200: $GPRMC,214726,A,3946.9580,N,08404.9815,W,0.0000,0.000,161117,,*3B
2017-11-16 16:47:27 1510868847.447255: $GPGSA,A,3,1,10,11,12,14,18,24,25,31,32,22,138,1.6,0.8,1.3*38
2017-11-16 16:47:28 1510868848.446584: $GPZDA,214727.00,16,11,2017,00,00*60
2017-11-16 16:47:28 1510868848.446737: $GPGGA,214727,3946.9580,N,08404.9815,W,2,12,0.80,307.02,M,-33.324,M,,*72
2017-11-16 16:47:28 1510868848.446798: $GPRMC,214727,A,3946.9580,N,08404.9815,W,0.0000,0.000,161117,,*3A
2017-11-16 16:47:28 1510868848.446853: $GPGSA,A,3,1,10,11,12,14,18,24,25,31,32,22,138,1.6,0.8,1.3*38
2017-11-16 16:47:29 1510868849.781121: $GPGSV,3,1,12,01,14,318,30,10,70,132,49,11,11,301,30,12,25,072,47*7D
2017-11-16 16:47:29 1510868849.781291: $GPGSV,3,2,12,14,55,292,45,18,38,135,45,24,14,045,45,25,29,114,42*7F
2017-11-16 16:47:29 1510868849.781351: $GPGSV,3,3,12,31,34,211,45,32,68,328,51,22,02,310,33,138,38,213,45*4E
2017-11-16 16:47:29 1510868849.894431: $GPZDA,214728.00,16,11,2017,00,00*6F
2017-11-16 16:47:29 1510868849.894592: $GPGGA,214728,3946.9580,N,08404.9815,W,2,12,0.80,307.02,M,-33.324,M,,*7D
2017-11-16 16:47:29 1510868849.894654: $GPRMC,214728,A,3946.9580,N,08404.9815,W,0.0000,0.000,161117,,*35
2017-11-16 16:47:29 1510868849.894710: $GPGSA,A,3,1,10,11,12,14,18,24,25,31,32,22,138,1.6,0.8,1.3*38
2017-11-16 16:47:30 1510868850.464106: $GPZDA,214729.00,16,11,2017,00,00*6E
2017-11-16 16:47:30 1510868850.464269: $GPGGA,214729,3946.9580,N,08404.9815,W,2,12,0.80,307.02,M,-33.324,M,,*7C
2017-11-16 16:47:30 1510868850.464330: $GPRMC,214729,A,3946.9580,N,08404.9815,W,0.0000,0.000,161117,,*34
2017-11-16 16:47:30 1510868850.464386: $GPGSA,A,3,1,10,11,12,14,18,24,25,31,32,22,138,1.6,0.8,1.3*38
2017-11-16 16:47:31 1510868851.446951: $GPZDA,214730.00,16,11,2017,00,00*66
2017-11-16 16:47:31 1510868851.447133: $GPGGA,214730,3946.9580,N,08404.9815,W,2,12,0.80,307.02,M,-33.324,M,,*74
2017-11-16 16:47:31 1510868851.447196: $GPRMC,214730,A,3946.9580,N,08404.9815,W,0.0000,0.000,161117,,*3C
2017-11-16 16:47:31 1510868851.447252: $GPGSA,A,3,1,10,11,12,14,18,24,25,31,32,22,138,1.6,0.8,1.3*38
2017-11-16 16:47:32 1510868852.792918: $GPGSV,3,1,12,01,14,318,32,10,70,132,49,11,11,301,25,12,25,072,47*7B
2017-11-16 16:47:32 1510868852.793159: $GPGSV,3,2,12,14,55,292,45,18,38,135,45,24,14,045,45,25,29,114,42*7F
2017-11-16 16:47:32 1510868852.793316: $GPGSV,3,3,12,31,34,211,45,32,68,328,51,22,02,310,33,138,38,213,44*4F
2017-11-16 16:47:32 1510868852.906329: $GPZDA,214731.00,16,11,2017,00,00*67
2017-11-16 16:47:32 1510868852.906483: $GPGGA,214731,3946.9580,N,08404.9815,W,2,12,0.80,307.02,M,-33.324,M,,*75
2017-11-16 16:47:32 1510868852.906544: $GPRMC,214731,A,3946.9580,N,08404.9815,W,0.0000,0.000,161117,,*3D
2017-11-16 16:47:32 1510868852.906600: $GPGSA,A,3,1,10,11,12,14,18,24,25,31,32,22,138,1.6,0.8,1.3*38
2017-11-16 16:47:33 1510868853.455968: $GPZDA,214732.00,16,11,2017,00,00*64
2017-11-16 16:47:33 1510868853.456128: $GPGGA,214732,3946.9580,N,08404.9815,W,2,12,0.80,307.02,M,-33.324,M,,*76
2017-11-16 16:47:33 1510868853.456188: $GPRMC,214732,A,3946.9580,N,08404.9815,W,0.0000,0.000,161117,,*3E
2017-11-16 16:47:33 1510868853.456243: $GPGSA,A,3,1,10,11,12,14,18,24,25,31,32,22,138,1.6,0.8,1.3*38
2017-11-16 16:47:34 1510868854.461844: $GPZDA,214733.00,16,11,2017,00,00*65
2017-11-16 16:47:34 1510868854.462019: $GPGGA,214733,3946.9580,N,08404.9815,W,2,12,0.80,307.02,M,-33.324,M,,*77
2017-11-16 16:47:34 1510868854.462080: $GPRMC,214733,A,3946.9580,N,08404.9815,W,0.0000,0.000,161117,,*3F
2017-11-16 16:47:34 1510868854.462135: $GPGSA,A,3,1,10,11,12,14,18,24,25,31,32,22,138,1.6,0.8,1.3*38
