2017-12-01 15:44:29 1512161069.217212: {"class":"VERSION","release":"3.16","rev":"3.16-4","proto_major":3,"proto_minor":11}
2017-12-01 15:44:29 1512161069.217587: {"class":"DEVICES","devices":[{"class":"DEVICE","path":"/dev/ttyUSB0","driver":"SiRF","subtype":"9\u0006GSD4e_4.1.2-P1_RPATCH.05-F-GPS-4R-1510281 11/03/2015 307","activated":"2017-12-01T20:44:29.196Z","flags":1,"native":1,"bps":4800,"parity":"N","stopbits":1,"cycle":1.00}]}
2017-12-01 15:44:29 1512161069.217701: {"class":"WATCH","enable":true,"json":false,"nmea":true,"raw":0,"scaled":false,"timing":false,"split24":false,"pps":false}
2017-12-01 15:44:29 1512161069.374409: $GPZDA,204430.00,01,12,2017,00,00*61
2017-12-01 15:44:29 1512161069.374591: $GPGGA,204430,3946.9585,N,08404.9832,W,2,12,0.80,299.64,M,-33.324,M,,*70
2017-12-01 15:44:29 1512161069.374660: $GPRMC,204430,A,3946.9585,N,08404.9832,W,0.0000,0.000,011217,,*3B
2017-12-01 15:44:29 1512161069.374722: $GPGSA,A,3,1,10,11,12,14,18,22,24,25,31,32,138,2.0,0.8,1.5*3B
2017-12-01 15:44:30 1512161070.704645: $GPGSV,3,1,12,01,14,318,36,10,70,130,47,11,11,301,39,12,25,072,39*77
2017-12-01 15:44:30 1512161070.704837: $GPGSV,3,2,12,14,54,291,42,18,38,135,47,22,02,310,35,24,14,045,37*75
2017-12-01 15:44:30 1512161070.704905: $GPGSV,3,3,12,25,29,115,42,31,35,211,48,32,68,328,49,138,38,213,46*47
2017-12-01 15:44:30 1512161070.818074: $GPZDA,204431.00,01,12,2017,00,00*60
2017-12-01 15:44:30 1512161070.818266: $GPGGA,204431,3946.9585,N,08404.9832,W,2,12,0.80,299.64,M,-33.324,M,,*71
2017-12-01 15:44:30 1512161070.818337: $GPRMC,204431,A,3946.9585,N,08404.9832,W,0.0000,0.000,011217,,*3A
2017-12-01 15:44:30 1512161070.818400: $GPGSA,A,3,1,10,11,12,14,18,22,24,25,31,32,138,2.0,0.8,1.5*3B
2017-12-01 15:44:31 1512161071.376424: $GPZDA,204432.00,01,12,2017,00,00*63
2017-12-01 15:44:31 1512161071.376594: $GPGGA,204432,3946.9585,N,08404.9832,W,2,12,0.80,299.64,M,-33.324,M,,*72
2017-12-01 15:44:31 1512161071.376662: $GPRMC,204432,A,3946.9585,N,08404.9832,W,0.0000,0.000,011217,,*39
2017-12-01 15:44:31 1512161071.376723: $GPGSA,A,3,1,10,11,12,14,18,22,24,25,31,32,138,2.0,0.8,1.5*3B
2017-12-01 15:44:32 1512161072.374728: $GPZDA,204433.00,01,12,2017,00,00*62
2017-12-01 15:44:32 1512161072.374902: $GPGGA,204433,3946.9585,N,08404.9832,W,2,12,0.80,299.64,M,-33.324,M,,*73
2017-12-01 15:44:32 1512161072.374968: $GPRMC,204433,A,3946.9585,N,08404.9832,W,0.0000,0.000,011217,,*38
2017-12-01 15:44:32 1512161072.375030: $GPGSA,A,3,1,10,11,12,14,18,22,24,25,31,32,138,2.0,0.8,1.5*3B
2017-12-01 15:44:33 1512161073.725542: $GPGSV,3,1,12,01,14,318,36,10,70,130,47,11,11,301,38,12,25,072,38*77
2017-12-01 15:44:33 1512161073.725723: $GPGSV,3,2,12,14,54,291,42,18,38,135,47,22,02,310,34,24,14,045,37*74
2017-12-01 15:44:33 1512161073.725791: $GPGSV,3,3,12,25,29,115,41,31,35,211,48,32,68,328,49,138,38,213,46*44
2017-12-01 15:44:33 1512161073.838853: $GPZDA,204434.00,01,12,2017,00,00*65
2017-12-01 15:44:33 1512161073.839002: $GPGGA,204434,3946.9585,N,08404.9832,W,2,12,0.80,299.64,M,-33.324,M,,*74
2017-12-01 15:44:33 1512161073.839068: $GPRMC,204434,A,3946.9585,N,08404.9832,W,0.0000,0.000,011217,,*3F
2017-12-01 15:44:33 1512161073.839130: $GPGSA,A,3,1,10,11,12,14,18,22,24,25,31,32,138,2.0,0.8,1.5*3B
2017-12-01 15:44:34 1512161074.391743: $GPZDA,204435.00,01,12,2017,00,00*64
2017-12-01 15:44:34 1512161074.391913: $GPGGA,204435,3946.9585,N,08404.9832,W,2,12,0.80,299.64,M,-33.324,M,,*75
2017-12-01 15:44:34 1512161074.391980: $GPRMC,204435,A,3946.9585,N,08404.9832,W,0.0000,0.000,011217,,*3E
2017-12-01 15:44:34 1512161074.392041: $GPGSA,A,3,1,10,11,12,14,18,22,24,25,31,32,138,2.0,0.8,1.5*3B
2017-12-01 15:44:35 1512161075.391666: $GPZDA,204436.00,01,12,2017,00,00*67
2017-12-01 15:44:35 1512161075.391859: $GPGGA,204436,3946.9585,N,08404.9832,W,2,12,0.80,299.64,M,-33.324,M,,*76
2017-12-01 15:44:35 1512161075.391947: $GPRMC,204436,A,3946.9585,N,08404.9832,W,0.0000,0.000,011217,,*3D
2017-12-01 15:44:35 1512161075.392011: $GPGSA,A,3,1,10,11,12,14,18,22,24,25,31,32,138,2.0,0.8,1.5*3B
2017-12-01 15:44:36 1512161076.722081: $GPGSV,3,1,12,01,14,318,36,10,70,130,47,11,11,301,38,12,25,072,38*77
2017-12-01 15:44:36 1512161076.722336: $GPGSV,3,2,12,14,54,291,42,18,38,135,47,22,02,310,34,24,14,045,37*74
2017-12-01 15:44:36 1512161076.722406: $GPGSV,3,3,12,25,29,115,41,31,35,211,48,32,68,328,49,138,38,213,46*44
2017-12-01 15:44:36 1512161076.835500: $GPZDA,204437.00,01,12,2017,00,00*66
2017-12-01 15:44:36 1512161076.835671: $GPGGA,204437,3946.9585,N,08404.9832,W,2,12,0.80,299.64,M,-33.324,M,,*77
2017-12-01 15:44:36 1512161076.835737: $GPRMC,204437,A,3946.9585,N,08404.9832,W,0.0000,0.000,011217,,*3C
2017-12-01 15:44:36 1512161076.835798: $GPGSA,A,3,1,10,11,12,14,18,22,24,25,31,32,138,2.0,0.8,1.5*3B
2017-12-01 15:44:37 1512161077.391386: $GPZDA,204438.00,01,12,2017,00,00*69
2017-12-01 15:44:37 1512161077.391560: $GPGGA,204438,3946.9585,N,08404.9832,W,2,12,0.80,299.64,M,-33.324,M,,*78
2017-12-01 15:44:37 1512161077.391627: $GPRMC,204438,A,3946.9585,N,08404.9832,W,0.0000,0.000,011217,,*33
2017-12-01 15:44:37 1512161077.391707: $GPGSA,A,3,1,10,11,12,14,18,22,24,25,31,32,138,2.0,0.8,1.5*3B
2017-12-01 15:44:38 1512161078.375047: $GPZDA,204439.00,01,12,2017,00,00*68
2017-12-01 15:44:38 1512161078.375219: $GPGGA,204439,3946.9585,N,08404.9832,W,2,12,0.80,299.64,M,-33.324,M,,*79
2017-12-01 15:44:38 1512161078.375286: $GPRMC,204439,A,3946.9585,N,08404.9832,W,0.0000,0.000,011217,,*32
2017-12-01 15:44:38 1512161078.375347: $GPGSA,A,3,1,10,11,12,14,18,22,24,25,31,32,138,2.0,0.8,1.5*3B
2017-12-01 15:44:39 1512161079.711776: $GPGSV,3,1,12,01,14,318,37,10,70,130,46,11,11,301,30,12,25,072,38*7F
2017-12-01 15:44:39 1512161079.711941: $GPGSV,3,2,12,14,54,291,42,18,38,135,47,22,02,310,35,24,14,045,38*7A
2017-12-01 15:44:39 1512161079.712008: $GPGSV,3,3,12,25,29,115,41,31,35,211,48,32,68,328,49,138,38,213,46*44
2017-12-01 15:44:39 1512161079.825126: $GPZDA,204440.00,01,12,2017,00,00*66
2017-12-01 15:44:39 1512161079.825296: $GPGGA,204440,3946.9585,N,08404.9832,W,2,12,0.80,299.64,M,-33.324,M,,*77
2017-12-01 15:44:39 1512161079.825362: $GPRMC,204440,A,3946.9585,N,08404.9832,W,0.0000,0.000,011217,,*3C
2017-12-01 15:44:39 1512161079.825423: $GPGSA,A,3,1,10,11,12,14,18,22,24,25,31,32,138,2.0,0.8,1.5*3B
2017-12-01 15:44:40 1512161080.450824: $GPZDA,204441.00,01,12,2017,00,00*67
2017-12-01 15:44:40 1512161080.451040: $GPGGA,204441,3946.9585,N,08404.9832,W,2,12,0.80,299.64,M,-33.324,M,,*76
2017-12-01 15:44:40 1512161080.451133: $GPRMC,204441,A,3946.9585,N,08404.9832,W,0.0000,0.000,011217,,*3D
2017-12-01 15:44:40 1512161080.451198: $GPGSA,A,3,1,10,11,12,14,18,22,24,25,31,32,138,2.0,0.8,1.5*3B
2017-12-01 15:44:41 1512161081.391474: $GPZDA,204442.00,01,12,2017,00,00*64
2017-12-01 15:44:41 1512161081.391652: $GPGGA,204442,3946.9585,N,08404.9832,W,2,12,0.80,299.64,M,-33.324,M,,*75
2017-12-01 15:44:41 1512161081.391720: $GPRMC,204442,A,3946.9585,N,08404.9832,W,0.0000,0.000,011217,,*3E
2017-12-01 15:44:41 1512161081.391781: $GPGSA,A,3,1,10,11,12,14,18,22,24,25,31,32,138,2.0,0.8,1.5*3B
2017-12-01 15:44:42 1512161082.710840: $GPGSV,3,1,12,01,14,318,37,10,70,130,47,11,11,301,32,12,25,072,38*7C
2017-12-01 15:44:42 1512161082.711020: $GPGSV,3,2,12,14,54,291,42,18,38,135,47,22,02,310,34,24,14,045,38*7B
2017-12-01 15:44:42 1512161082.711087: $GPGSV,3,3,12,25,29,115,41,31,35,211,48,32,68,328,49,138,38,213,46*44
2017-12-01 15:44:42 1512161082.824479: $GPZDA,204443.00,01,12,2017,00,00*65
2017-12-01 15:44:42 1512161082.824656: $GPGGA,204443,3946.9585,N,08404.9832,W,2,12,0.80,299.64,M,-33.324,M,,*74
2017-12-01 15:44:42 1512161082.824724: $GPRMC,204443,A,3946.9585,N,08404.9832,W,0.0000,0.000,011217,,*3F
2017-12-01 15:44:42 1512161082.824785: $GPGSA,A,3,1,10,11,12,14,18,22,24,25,31,32,138,2.0,0.8,1.5*3B
2017-12-01 15:44:43 1512161083.393798: $GPZDA,204444.00,01,12,2017,00,00*62
2017-12-01 15:44:43 1512161083.393955: $GPGGA,204444,3946.9585,N,08404.9832,W,2,12,0.80,299.64,M,-33.324,M,,*73
2017-12-01 15:44:43 1512161083.394044: $GPRMC,204444,A,3946.9585,N,08404.9832,W,0.0000,0.000,011217,,*38
2017-12-01 15:44:43 1512161083.394109: $GPGSA,A,3,1,10,11,12,14,18,22,24,25,31,32,138,2.0,0.8,1.5*3B
2017-12-01 15:44:44 1512161084.392919: $GPZDA,204445.00,01,12,2017,00,00*63
2017-12-01 15:44:44 1512161084.393101: $GPGGA,204445,3946.9585,N,08404.9832,W,2,12,0.80,299.64,M,-33.324,M,,*72
2017-12-01 15:44:44 1512161084.393210: $GPRMC,204445,A,3946.9585,N,08404.9832,W,0.0000,0.000,011217,,*39
2017-12-01 15:44:44 1512161084.393300: $GPGSA,A,3,1,10,11,12,14,18,22,24,25,31,32,138,2.0,0.8,1.5*3B
2017-12-01 15:44:45 1512161085.727521: $GPGSV,3,1,12,01,14,318,38,10,70,130,47,11,11,301,32,12,25,072,37*7C
2017-12-01 15:44:45 1512161085.727730: $GPGSV,3,2,12,14,54,291,42,18,38,135,47,22,02,310,35,24,14,045,38*7A
2017-12-01 15:44:45 1512161085.727796: $GPGSV,3,3,12,25,29,115,41,31,35,211,49,32,68,328,49,138,38,213,47*44
2017-12-01 15:44:45 1512161085.841006: $GPZDA,204446.00,01,12,2017,00,00*60
2017-12-01 15:44:45 1512161085.841183: $GPGGA,204446,3946.9585,N,08404.9832,W,2,12,0.80,299.64,M,-33.324,M,,*71
2017-12-01 15:44:45 1512161085.841254: $GPRMC,204446,A,3946.9585,N,08404.9832,W,0.0000,0.000,011217,,*3A
2017-12-01 15:44:45 1512161085.841316: $GPGSA,A,3,1,10,11,12,14,18,22,24,25,31,32,138,2.0,0.8,1.5*3B
2017-12-01 15:44:46 1512161086.375690: $GPZDA,204447.00,01,12,2017,00,00*61
2017-12-01 15:44:46 1512161086.375869: $GPGGA,204447,3946.9585,N,08404.9832,W,2,12,0.80,299.64,M,-33.324,M,,*70
2017-12-01 15:44:46 1512161086.375936: $GPRMC,204447,A,3946.9585,N,08404.9832,W,0.0000,0.000,011217,,*3B
2017-12-01 15:44:46 1512161086.375999: $GPGSA,A,3,1,10,11,12,14,18,22,24,25,31,32,138,2.0,0.8,1.5*3B
2017-12-01 15:44:47 1512161087.392893: $GPZDA,204448.00,01,12,2017,00,00*6E
2017-12-01 15:44:47 1512161087.393068: $GPGGA,204448,3946.9585,N,08404.9832,W,2,12,0.80,299.64,M,-33.324,M,,*7F
2017-12-01 15:44:47 1512161087.393138: $GPRMC,204448,A,3946.9585,N,08404.9832,W,0.0000,0.000,011217,,*34
2017-12-01 15:44:47 1512161087.393222: $GPGSA,A,3,1,10,11,12,14,18,22,24,25,31,32,138,2.0,0.8,1.5*3B
2017-12-01 15:44:48 1512161088.728343: $GPGSV,3,1,12,01,14,318,39,10,70,130,47,11,11,301,32,12,25,072,38*72
2017-12-01 15:44:48 1512161088.728528: $GPGSV,3,2,12,14,54,291,42,18,38,135,47,22,02,310,36,24,14,045,38*79
2017-12-01 15:44:48 1512161088.728594: $GPGSV,3,3,12,25,29,115,41,31,35,211,48,32,68,328,49,138,38,213,46*44
2017-12-01 15:44:48 1512161088.842037: $GPZDA,204449.00,01,12,2017,00,00*6F
2017-12-01 15:44:48 1512161088.842184: $GPGGA,204449,3946.9585,N,08404.9832,W,2,12,0.80,299.64,M,-33.324,M,,*7E
2017-12-01 15:44:48 1512161088.842249: $GPRMC,204449,A,3946.9585,N,08404.9832,W,0.0000,0.000,011217,,*35
2017-12-01 15:44:48 1512161088.842309: $GPGSA,A,3,1,10,11,12,14,18,22,24,25,31,32,138,2.0,0.8,1.5*3B
