2018-01-11 21:06:50 1515722810.984832: {"class":"VERSION","release":"3.16","rev":"3.16-4","proto_major":3,"proto_minor":11}
2018-01-11 21:06:50 1515722810.985172: {"class":"DEVICES","devices":[{"class":"DEVICE","path":"/dev/ttyUSB0","driver":"SiRF","subtype":"9\u0006GSD4e_4.1.2-P1_RPATCH.05-F-GPS-4R-1510281 11/03/2015 307","activated":"2018-01-12T02:06:50.882Z","flags":1,"native":1,"bps":4800,"parity":"N","stopbits":1,"cycle":1.00}]}
2018-01-11 21:06:50 1515722810.985286: {"class":"WATCH","enable":true,"json":false,"nmea":true,"raw":0,"scaled":false,"timing":false,"split24":false,"pps":false}
2018-01-11 21:06:50 1515722810.995940: $GPZDA,020651.69,12,01,2018,00,00*60
2018-01-11 21:06:50 1515722810.996052: $GPGGA,020651,3946.9571,N,08404.9797,W,1,12,1.00,299.52,M,-33.324,M,,*75
2018-01-11 21:06:50 1515722810.996117: $GPRMC,020651,A,3946.9571,N,08404.9797,W,0.4207,219.347,120118,,*35
2018-01-11 21:06:50 1515722810.996178: $GPGSA,A,3,1,7,8,9,11,27,28,30,13,23,16,138,4.0,1.0,3.5*04
2018-01-11 21:06:52 1515722812.077537: $GPZDA,020652.37,12,01,2018,00,00*68
2018-01-11 21:06:52 1515722812.077697: $GPGGA,020652,3946.9571,N,08404.9797,W,1,12,1.00,299.52,M,-33.324,M,,*76
2018-01-11 21:06:52 1515722812.077765: $GPRMC,020652,A,3946.9571,N,08404.9797,W,0.2959,234.767,120118,,*39
2018-01-11 21:06:52 1515722812.077826: $GPGSA,A,3,1,7,8,9,11,27,28,30,13,23,16,138,4.0,1.0,3.5*04
2018-01-11 21:06:52 1515722812.077885: $GPGBS,020652,14.62,M,24.83,M,80.38,M*02
2018-01-11 21:06:53 1515722813.220120: $GPGSV,3,1,12,01,19,151,45,07,81,304,45,08,63,052,48,09,26,208,41*79
2018-01-11 21:06:53 1515722813.220298: $GPGSV,3,2,12,11,43,156,44,27,25,045,49,28,31,279,33,30,52,309,42*7C
2018-01-11 21:06:53 1515722813.220365: $GPGSV,3,3,12,23,05,181,32,13,03,328,07,16,05,076,06,138,38,213,00*4C
2018-01-11 21:06:53 1515722813.333516: $GPZDA,020653.00,12,01,2018,00,00*6D
2018-01-11 21:06:53 1515722813.333709: $GPGGA,020653,3946.9572,N,08404.9804,W,1,09,1.00,299.44,M,-33.324,M,,*7C
2018-01-11 21:06:53 1515722813.333778: $GPRMC,020653,A,3946.9572,N,08404.9804,W,0.3006,62.539,120118,,*04
2018-01-11 21:06:53 1515722813.333839: $GPGSA,A,3,1,7,8,9,11,27,28,30,23,,,,4.0,1.0,3.5*3B
2018-01-11 21:06:53 1515722813.784614: $GPZDA,020654.00,12,01,2018,00,00*6A
2018-01-11 21:06:53 1515722813.784759: $GPGGA,020654,3946.9575,N,08404.9804,W,1,09,1.00,298.68,M,-33.324,M,,*73
2018-01-11 21:06:53 1515722813.784824: $GPRMC,020654,A,3946.9575,N,08404.9804,W,0.0407,142.013,120118,,*3C
2018-01-11 21:06:53 1515722813.784885: $GPGSA,A,3,1,7,8,9,11,27,28,30,23,,,,4.0,1.0,3.5*3B
2018-01-11 21:06:54 1515722814.390576: $GPZDA,020655.00,12,01,2018,00,00*6B
2018-01-11 21:06:54 1515722814.390737: $GPGGA,020655,3946.9575,N,08404.9804,W,1,09,1.00,298.68,M,-33.324,M,,*72
2018-01-11 21:06:54 1515722814.390803: $GPRMC,020655,A,3946.9575,N,08404.9804,W,0.0000,0.000,120118,,*3B
2018-01-11 21:06:54 1515722814.390864: $GPGSA,A,3,1,7,8,9,11,27,28,30,23,,,,4.0,1.0,3.5*3B
2018-01-11 21:06:55 1515722815.725486: $GPGSV,3,1,12,01,19,151,45,07,81,304,44,08,63,052,48,09,26,208,41*78
2018-01-11 21:06:55 1515722815.725636: $GPGSV,3,2,12,11,43,156,44,27,25,045,49,28,31,279,35,30,52,309,42*7A
2018-01-11 21:06:55 1515722815.725701: $GPGSV,3,3,12,23,05,181,33,13,03,328,23,16,05,076,19,138,38,213,46*47
2018-01-11 21:06:55 1515722815.839164: $GPZDA,020656.00,12,01,2018,00,00*68
2018-01-11 21:06:55 1515722815.839290: $GPGGA,020656,3946.9575,N,08404.9804,W,1,12,1.00,298.68,M,-33.324,M,,*7B
2018-01-11 21:06:55 1515722815.839353: $GPRMC,020656,A,3946.9575,N,08404.9804,W,0.0000,0.000,120118,,*38
2018-01-11 21:06:55 1515722815.839413: $GPGSA,A,3,1,7,8,9,11,27,28,30,23,13,16,138,4.0,1.0,3.5*04
2018-01-11 21:06:56 1515722816.390066: $GPZDA,020657.00,12,01,2018,00,00*69
2018-01-11 21:06:56 1515722816.390225: $GPGGA,020657,3946.9579,N,08404.9804,W,1,12,1.00,299.32,M,-33.324,M,,*78
2018-01-11 21:06:56 1515722816.390291: $GPRMC,020657,A,3946.9579,N,08404.9804,W,0.0000,0.000,120118,,*35
2018-01-11 21:06:56 1515722816.390352: $GPGSA,A,3,1,7,8,9,11,27,28,30,23,13,16,138,4.0,1.0,3.5*04
2018-01-11 21:06:57 1515722817.389596: $GPZDA,020658.00,12,01,2018,00,00*66
2018-01-11 21:06:57 1515722817.389816: $GPGGA,020658,3946.9592,N,08404.9810,W,2,12,2.60,299.75,M,-33.324,M,,*72
2018-01-11 21:06:57 1515722817.389885: $GPRMC,020658,A,3946.9592,N,08404.9810,W,0.0000,0.000,120118,,*3A
2018-01-11 21:06:57 1515722817.389947: $GPGSA,A,3,1,7,8,9,11,27,28,30,23,13,16,138,4.0,2.6,3.5*01
2018-01-11 21:06:57 1515722817.390006: $GPGBS,020658,3.65,M,6.21,M,20.10,M*01
