2017-11-16 15:40:33 1510864833.139990: {"class":"VERSION","release":"3.17","rev":"3.17","proto_major":3,"proto_minor":12}
2017-11-16 15:40:33 1510864833.140223: {"class":"DEVICES","devices":[{"class":"DEVICE","path":"/dev/ttyUSB0","driver":"SiRF","subtype":"9\u0006GSD4e_4.1.2-P1_RPATCH.05-F-GPS-4R-1510281 11/03/2015 307","activated":"2017-11-16T20:40:32.501Z","flags":1,"native":1,"bps":4800,"parity":"N","stopbits":1,"cycle":1.00}]}
2017-11-16 15:40:33 1510864833.140278: {"class":"WATCH","enable":true,"json":false,"nmea":true,"raw":0,"scaled":false,"timing":false,"split24":false,"pps":false}
2017-11-16 15:40:33 1510864833.376848: $GPZDA,204032.00,16,11,2017,00,00*62
2017-11-16 15:40:33 1510864833.377039: $GPGGA,204032,3946.9568,N,08404.9859,W,2,11,1.00,308.20,M,-33.324,M,,*7B
2017-11-16 15:40:33 1510864833.377102: $GPRMC,204032,A,3946.9568,N,08404.9859,W,0.0000,0.000,161117,,*36
2017-11-16 15:40:33 1510864833.377161: $GPGSA,A,3,15,10,14,31,18,21,24,8,32,12,138,,1.6,1.0,1.3*38
2017-11-16 15:40:34 1510864834.695569: $GPGSV,3,1,12,15,06,070,23,10,76,343,51,14,34,259,45,31,05,204,32*71
2017-11-16 15:40:34 1510864834.695726: $GPGSV,3,2,12,18,65,108,48,25,08,136,21,21,22,178,43,24,39,052,50*78
2017-11-16 15:40:34 1510864834.695789: $GPGSV,3,3,12,08,03,288,25,32,51,274,45,12,13,102,34,138,38,213,44*45
2017-11-16 15:40:34 1510864834.807024: $GPZDA,204033.00,16,11,2017,00,00*63
2017-11-16 15:40:34 1510864834.807149: $GPGGA,204033,3946.9568,N,08404.9859,W,2,12,1.00,308.20,M,-33.324,M,,*79
2017-11-16 15:40:34 1510864834.807182: $GPRMC,204033,A,3946.9568,N,08404.9859,W,0.0000,0.000,161117,,*37
2017-11-16 15:40:34 1510864834.807221: $GPGSA,A,3,15,10,14,31,18,25,21,24,8,32,12,138,1.6,1.0,1.3*3F
2017-11-16 15:40:35 1510864835.382684: $GPZDA,204034.00,16,11,2017,00,00*64
2017-11-16 15:40:35 1510864835.382797: $GPGGA,204034,3946.9568,N,08404.9859,W,2,12,1.00,308.20,M,-33.324,M,,*7E
2017-11-16 15:40:35 1510864835.382828: $GPRMC,204034,A,3946.9568,N,08404.9859,W,0.0000,0.000,161117,,*30
2017-11-16 15:40:35 1510864835.382856: $GPGSA,A,3,15,10,14,31,18,25,21,24,8,32,12,138,1.6,1.0,1.3*3F
2017-11-16 15:40:36 1510864836.367466: $GPZDA,204035.00,16,11,2017,00,00*65
2017-11-16 15:40:36 1510864836.367671: $GPGGA,204035,3946.9568,N,08404.9859,W,2,12,1.00,308.20,M,-33.324,M,,*7F
2017-11-16 15:40:36 1510864836.367734: $GPRMC,204035,A,3946.9568,N,08404.9859,W,0.0000,0.000,161117,,*31
2017-11-16 15:40:36 1510864836.367807: $GPGSA,A,3,15,10,14,31,18,25,21,24,8,32,12,138,1.6,1.0,1.3*3F
2017-11-16 15:40:37 1510864837.704963: $GPGSV,3,1,12,15,06,070,23,10,76,343,51,14,34,259,44,31,05,204,32*70
2017-11-16 15:40:37 1510864837.705065: $GPGSV,3,2,12,18,65,108,48,25,08,136,22,21,22,178,43,24,39,052,50*7B
2017-11-16 15:40:37 1510864837.705100: $GPGSV,3,3,12,08,03,288,27,32,51,274,45,12,13,102,34,138,38,213,44*47
2017-11-16 15:40:37 1510864837.817169: $GPZDA,204036.00,16,11,2017,00,00*66
2017-11-16 15:40:37 1510864837.817278: $GPGGA,204036,3946.9568,N,08404.9859,W,2,12,1.00,308.20,M,-33.324,M,,*7C
2017-11-16 15:40:37 1510864837.817310: $GPRMC,204036,A,3946.9568,N,08404.9859,W,0.0000,0.000,161117,,*32
2017-11-16 15:40:37 1510864837.817338: $GPGSA,A,3,15,10,14,31,18,25,21,24,8,32,12,138,1.6,1.0,1.3*3F
2017-11-16 15:40:38 1510864838.365504: $GPZDA,204037.00,16,11,2017,00,00*67
2017-11-16 15:40:38 1510864838.365626: $GPGGA,204037,3946.9568,N,08404.9859,W,2,12,1.00,308.20,M,-33.324,M,,*7D
2017-11-16 15:40:38 1510864838.365658: $GPRMC,204037,A,3946.9568,N,08404.9859,W,0.0000,0.000,161117,,*33
2017-11-16 15:40:38 1510864838.365686: $GPGSA,A,3,15,10,14,31,18,25,21,24,8,32,12,138,1.6,1.0,1.3*3F
2017-11-16 15:40:39 1510864839.375825: $GPZDA,204038.00,16,11,2017,00,00*68
2017-11-16 15:40:39 1510864839.376012: $GPGGA,204038,3946.9568,N,08404.9859,W,2,12,1.00,308.20,M,-33.324,M,,*72
2017-11-16 15:40:39 1510864839.376076: $GPRMC,204038,A,3946.9568,N,08404.9859,W,0.0000,0.000,161117,,*3C
2017-11-16 15:40:39 1510864839.376132: $GPGSA,A,3,15,10,14,31,18,25,21,24,8,32,12,138,1.6,1.0,1.3*3F
2017-11-16 15:40:40 1510864840.711611: $GPGSV,3,1,12,15,06,070,23,10,76,343,51,14,34,259,44,31,05,204,33*71
2017-11-16 15:40:40 1510864840.711843: $GPGSV,3,2,12,18,65,108,48,25,08,136,22,21,22,178,43,24,39,052,50*7B
2017-11-16 15:40:40 1510864840.711907: $GPGSV,3,3,12,08,03,288,22,32,51,274,45,12,13,102,34,138,38,213,44*42
2017-11-16 15:40:40 1510864840.824892: $GPZDA,204039.00,16,11,2017,00,00*69
2017-11-16 15:40:40 1510864840.825052: $GPGGA,204039,3946.9568,N,08404.9859,W,2,12,1.00,308.20,M,-33.324,M,,*73
2017-11-16 15:40:40 1510864840.825112: $GPRMC,204039,A,3946.9568,N,08404.9859,W,0.0000,0.000,161117,,*3D
2017-11-16 15:40:40 1510864840.825167: $GPGSA,A,3,15,10,14,31,18,25,21,24,8,32,12,138,1.6,1.0,1.3*3F
2017-11-16 15:40:41 1510864841.451567: $GPZDA,204040.00,16,11,2017,00,00*67
2017-11-16 15:40:41 1510864841.451816: $GPGGA,204040,3946.9568,N,08404.9859,W,2,12,1.00,308.20,M,-33.324,M,,*7D
2017-11-16 15:40:41 1510864841.451879: $GPRMC,204040,A,3946.9568,N,08404.9859,W,0.0000,0.000,161117,,*33
2017-11-16 15:40:41 1510864841.451935: $GPGSA,A,3,15,10,14,31,18,25,21,24,8,32,12,138,1.6,1.0,1.3*3F
2017-11-16 15:40:42 1510864842.366130: $GPZDA,204041.00,16,11,2017,00,00*66
2017-11-16 15:40:42 1510864842.366308: $GPGGA,204041,3946.9568,N,08404.9859,W,2,12,1.00,308.20,M,-33.324,M,,*7C
2017-11-16 15:40:42 1510864842.366371: $GPRMC,204041,A,3946.9568,N,08404.9859,W,0.0000,0.000,161117,,*32
2017-11-16 15:40:42 1510864842.366427: $GPGSA,A,3,15,10,14,31,18,25,21,24,8,32,12,138,1.6,1.0,1.3*3F
