2017-12-01 14:31:53 1512156713.163867: {"class":"VERSION","release":"3.16","rev":"3.16-4","proto_major":3,"proto_minor":11}
2017-12-01 14:31:53 1512156713.164269: {"class":"DEVICES","devices":[{"class":"DEVICE","path":"/dev/ttyUSB0","driver":"SiRF","subtype":"9\u0006GSD4e_4.1.2-P1_RPATCH.05-F-GPS-4R-1510281 11/03/2015 307","activated":"2017-12-01T19:31:52.927Z","flags":1,"native":1,"bps":4800,"parity":"N","stopbits":1,"cycle":1.00}]}
2017-12-01 14:31:53 1512156713.164391: {"class":"WATCH","enable":true,"json":false,"nmea":true,"raw":0,"scaled":false,"timing":false,"split24":false,"pps":false}
2017-12-01 14:31:53 1512156713.956357: $GPZDA,193154.64,01,12,2017,00,00*69
2017-12-01 14:31:53 1512156713.956609: $GPGGA,193154,3946.9567,N,08404.9851,W,1,12,1.40,306.88,M,-33.324,M,,*78
2017-12-01 14:31:53 1512156713.956718: $GPRMC,193154,A,3946.9567,N,08404.9851,W,0.5997,12.053,011217,,*0F
2017-12-01 14:31:53 1512156713.956785: $GPGSA,A,3,8,10,14,27,18,21,24,32,20,25,12,138,2.0,1.4,1.5*39
2017-12-01 14:31:53 1512156713.956857: $GPGBS,193154,10.70,M,15.43,M,35.28,M*0C
2017-12-01 14:31:55 1512156715.084406: $GPZDA,193155.33,01,12,2017,00,00*6A
2017-12-01 14:31:55 1512156715.084578: $GPGGA,193155,3946.9567,N,08404.9851,W,1,12,1.40,306.88,M,-33.324,M,,*79
2017-12-01 14:31:55 1512156715.084645: $GPRMC,193155,A,3946.9567,N,08404.9851,W,0.2872,15.166,011217,,*03
2017-12-01 14:31:55 1512156715.084706: $GPGSA,A,3,8,10,14,27,18,21,24,32,20,25,12,138,2.0,1.4,1.5*39
2017-12-01 14:31:56 1512156716.272855: $GPGSV,3,1,12,12,12,103,09,10,73,337,47,14,32,256,42,18,67,102,46*78
2017-12-01 14:31:56 1512156716.273039: $GPGSV,3,2,12,21,24,178,46,24,42,055,49,32,49,270,44,20,06,120,06*77
2017-12-01 14:31:56 1512156716.273107: $GPGSV,3,3,12,25,05,139,08,27,04,256,08,15,08,069,00,138,38,213,00*41
2017-12-01 14:31:56 1512156716.386275: $GPZDA,193156.00,01,12,2017,00,00*69
2017-12-01 14:31:56 1512156716.386455: $GPGGA,193156,3946.9570,N,08404.9851,W,1,06,1.40,306.11,M,-33.324,M,,*79
2017-12-01 14:31:56 1512156716.386521: $GPRMC,193156,A,3946.9570,N,08404.9851,W,0.1324,22.230,011217,,*09
2017-12-01 14:31:56 1512156716.386582: $GPGSA,A,3,10,14,18,21,24,32,,,,,,,2.0,1.4,1.5*38
2017-12-01 14:31:56 1512156716.837208: $GPZDA,193157.00,01,12,2017,00,00*68
2017-12-01 14:31:56 1512156716.837392: $GPGGA,193157,3946.9569,N,08404.9850,W,1,06,1.40,304.71,M,-33.324,M,,*75
2017-12-01 14:31:56 1512156716.837461: $GPRMC,193157,A,3946.9569,N,08404.9850,W,0.1324,22.230,011217,,*01
2017-12-01 14:31:56 1512156716.837522: $GPGSA,A,3,10,14,18,21,24,32,,,,,,,2.0,1.4,1.5*38
2017-12-01 14:31:57 1512156717.351946: $GPZDA,193158.00,01,12,2017,00,00*67
2017-12-01 14:31:57 1512156717.352131: $GPGGA,193158,3946.9573,N,08404.9849,W,1,06,1.00,303.94,M,-33.324,M,,*71
2017-12-01 14:31:57 1512156717.352201: $GPRMC,193158,A,3946.9573,N,08404.9849,W,0.0000,0.000,011217,,*38
2017-12-01 14:31:57 1512156717.352264: $GPGSA,A,3,10,14,18,21,24,32,,,,,,,2.0,1.0,1.5*3C
2017-12-01 14:31:58 1512156718.684644: $GPGSV,3,1,12,12,12,103,31,10,73,337,48,14,32,256,42,18,67,102,46*7C
2017-12-01 14:31:58 1512156718.684850: $GPGSV,3,2,12,21,24,178,47,24,42,055,49,32,49,270,45,08,04,291,31*72
2017-12-01 14:31:58 1512156718.684916: $GPGSV,3,3,12,25,05,139,26,27,04,256,29,31,03,204,26,138,38,213,48*42
2017-12-01 14:31:58 1512156718.797893: $GPZDA,193159.00,01,12,2017,00,00*66
2017-12-01 14:31:58 1512156718.798074: $GPGGA,193159,3946.9573,N,08404.9849,W,1,12,1.00,303.94,M,-33.324,M,,*75
2017-12-01 14:31:58 1512156718.798139: $GPRMC,193159,A,3946.9573,N,08404.9849,W,0.0000,0.000,011217,,*39
2017-12-01 14:31:58 1512156718.798200: $GPGSA,A,3,12,10,14,18,21,24,32,8,25,27,31,138,2.0,1.0,1.5*3D
2017-12-01 14:31:59 1512156719.348755: $GPZDA,193200.00,01,12,2017,00,00*69
2017-12-01 14:31:59 1512156719.348927: $GPGGA,193200,3946.9572,N,08404.9848,W,1,12,1.00,302.54,M,-33.324,M,,*77
2017-12-01 14:31:59 1512156719.348993: $GPRMC,193200,A,3946.9572,N,08404.9848,W,0.0000,0.000,011217,,*36
2017-12-01 14:31:59 1512156719.349055: $GPGSA,A,3,12,10,14,18,21,24,32,8,25,27,31,138,2.0,1.0,1.5*3D
2017-12-01 14:32:00 1512156720.347128: $GPZDA,193201.00,01,12,2017,00,00*68
2017-12-01 14:32:00 1512156720.347348: $GPGGA,193201,3946.9575,N,08404.9848,W,1,12,1.00,301.77,M,-33.324,M,,*73
2017-12-01 14:32:00 1512156720.347418: $GPRMC,193201,A,3946.9575,N,08404.9848,W,0.0000,0.000,011217,,*30
2017-12-01 14:32:00 1512156720.347478: $GPGSA,A,3,12,10,14,18,21,24,32,8,25,27,31,138,2.0,1.0,1.5*3D
2017-12-01 14:32:00 1512156720.347537: $GPGBS,193201,10.70,M,15.43,M,35.28,M*0F
2017-12-01 14:32:01 1512156721.685271: $GPGSV,3,1,12,12,12,103,32,10,73,337,48,14,32,256,42,18,67,102,46*7F
2017-12-01 14:32:01 1512156721.685452: $GPGSV,3,2,12,21,24,178,46,24,42,055,49,32,49,270,46,08,04,291,33*72
2017-12-01 14:32:01 1512156721.685521: $GPGSV,3,3,12,25,05,139,25,27,04,256,29,15,08,069,00,138,38,213,48*41
2017-12-01 14:32:01 1512156721.797334: $GPZDA,193202.00,01,12,2017,00,00*6B
2017-12-01 14:32:01 1512156721.797465: $GPGGA,193202,3946.9575,N,08404.9848,W,1,11,1.00,301.77,M,-33.324,M,,*73
2017-12-01 14:32:01 1512156721.797531: $GPRMC,193202,A,3946.9575,N,08404.9848,W,0.0000,0.000,011217,,*33
2017-12-01 14:32:01 1512156721.797591: $GPGSA,A,3,12,10,14,18,21,24,32,8,25,27,138,,2.0,1.0,1.5*3F
2017-12-01 14:32:02 1512156722.349509: $GPZDA,193203.00,01,12,2017,00,00*6A
2017-12-01 14:32:02 1512156722.349685: $GPGGA,193203,3946.9579,N,08404.9847,W,1,11,1.40,301.01,M,-33.324,M,,*74
2017-12-01 14:32:02 1512156722.349754: $GPRMC,193203,A,3946.9579,N,08404.9847,W,0.0000,0.000,011217,,*31
2017-12-01 14:32:02 1512156722.349815: $GPGSA,A,3,12,10,14,18,21,24,32,8,25,27,138,,2.0,1.4,1.5*3B
2017-12-01 14:32:03 1512156723.352548: $GPZDA,193204.00,01,12,2017,00,00*6D
2017-12-01 14:32:03 1512156723.352719: $GPGGA,193204,3946.9579,N,08404.9847,W,1,11,1.40,301.01,M,-33.324,M,,*73
2017-12-01 14:32:03 1512156723.352786: $GPRMC,193204,A,3946.9579,N,08404.9847,W,0.0000,0.000,011217,,*36
2017-12-01 14:32:03 1512156723.352847: $GPGSA,A,3,12,10,14,18,21,24,32,8,25,27,138,,2.0,1.4,1.5*3B
2017-12-01 14:32:04 1512156724.683129: $GPGSV,3,1,12,12,12,103,19,10,73,337,28,14,32,256,25,18,67,102,27*76
2017-12-01 14:32:04 1512156724.683285: $GPGSV,3,2,12,21,24,178,27,24,42,055,29,32,49,270,27,31,03,204,15*71
2017-12-01 14:32:04 1512156724.683352: $GPGSV,3,3,12,25,05,139,14,27,04,256,17,08,04,291,02,138,38,213,29*4E
2017-12-01 14:32:04 1512156724.796522: $GPZDA,193205.00,01,12,2017,00,00*6C
2017-12-01 14:32:04 1512156724.796696: $GPGGA,193205,3946.9575,N,08404.9847,W,1,12,1.40,300.37,M,-33.324,M,,*79
2017-12-01 14:32:04 1512156724.796764: $GPRMC,193205,A,3946.9575,N,08404.9847,W,0.3423,184.196,011217,,*3E
2017-12-01 14:32:04 1512156724.796826: $GPGSA,A,3,12,10,14,18,21,24,32,31,25,27,8,138,2.0,1.4,1.5*39
2017-12-01 14:32:05 1512156725.346116: $GPZDA,193206.00,01,12,2017,00,00*6F
2017-12-01 14:32:05 1512156725.346287: $GPGGA,193206,3946.9578,N,08404.9846,W,1,12,1.20,299.61,M,-33.324,M,,*72
2017-12-01 14:32:05 1512156725.346354: $GPRMC,193206,A,3946.9578,N,08404.9846,W,0.0000,0.000,011217,,*34
2017-12-01 14:32:05 1512156725.346415: $GPGSA,A,3,12,10,14,18,21,24,32,31,25,27,8,138,2.0,1.2,1.5*3F
2017-12-01 14:32:06 1512156726.348238: $GPZDA,193207.00,01,12,2017,00,00*6E
2017-12-01 14:32:06 1512156726.348400: $GPGGA,193207,3946.9578,N,08404.9846,W,1,12,1.00,299.61,M,-33.324,M,,*71
2017-12-01 14:32:06 1512156726.348467: $GPRMC,193207,A,3946.9578,N,08404.9846,W,0.0000,0.000,011217,,*35
2017-12-01 14:32:06 1512156726.348528: $GPGSA,A,3,12,10,14,18,21,24,32,31,25,27,8,138,2.0,1.0,1.5*3D
2017-12-01 14:32:07 1512156727.688982: $GPGSV,3,1,12,12,12,103,32,10,73,337,48,14,32,256,41,18,67,102,46*7C
2017-12-01 14:32:07 1512156727.689163: $GPGSV,3,2,12,21,24,178,46,24,42,055,48,32,49,270,46,08,04,291,31*71
2017-12-01 14:32:07 1512156727.689230: $GPGSV,3,3,12,25,05,139,22,27,04,256,26,15,08,069,02,138,38,213,47*44
2017-12-01 14:32:07 1512156727.802780: $GPZDA,193208.00,01,12,2017,00,00*61
2017-12-01 14:32:07 1512156727.802907: $GPGGA,193208,3946.9582,N,08404.9845,W,1,11,1.00,298.84,M,-33.324,M,,*71
2017-12-01 14:32:07 1512156727.802973: $GPRMC,193208,A,3946.9582,N,08404.9845,W,0.0000,0.000,011217,,*3C
2017-12-01 14:32:07 1512156727.803078: $GPGSA,A,3,12,10,14,18,21,24,32,8,25,27,138,,2.0,1.0,1.5*3F
2017-12-01 14:32:08 1512156728.427769: $GPZDA,193209.00,01,12,2017,00,00*60
2017-12-01 14:32:08 1512156728.427949: $GPGGA,193209,3946.9582,N,08404.9845,W,1,11,1.00,298.84,M,-33.324,M,,*70
2017-12-01 14:32:08 1512156728.428016: $GPRMC,193209,A,3946.9582,N,08404.9845,W,0.0000,0.000,011217,,*3D
2017-12-01 14:32:08 1512156728.428075: $GPGSA,A,3,12,10,14,18,21,24,32,8,25,27,138,,2.0,1.0,1.5*3F
2017-12-01 14:32:09 1512156729.351395: $GPZDA,193210.00,01,12,2017,00,00*68
2017-12-01 14:32:09 1512156729.351567: $GPGGA,193210,3946.9585,N,08404.9845,W,1,11,1.00,298.08,M,-33.324,M,,*7B
2017-12-01 14:32:09 1512156729.351634: $GPRMC,193210,A,3946.9585,N,08404.9845,W,0.0000,0.000,011217,,*32
2017-12-01 14:32:09 1512156729.351695: $GPGSA,A,3,12,10,14,18,21,24,32,8,25,27,138,,2.0,1.0,1.5*3F
2017-12-01 14:32:10 1512156730.689378: $GPGSV,3,1,12,12,12,103,32,10,73,337,47,14,32,256,42,18,67,102,46*70
2017-12-01 14:32:10 1512156730.689558: $GPGSV,3,2,12,21,24,178,46,24,42,055,48,32,49,270,46,08,04,291,32*72
2017-12-01 14:32:10 1512156730.689624: $GPGSV,3,3,12,25,05,139,21,27,04,256,26,20,06,120,17,138,38,213,48*48
2017-12-01 14:32:10 1512156730.803050: $GPZDA,193211.00,01,12,2017,00,00*69
2017-12-01 14:32:10 1512156730.803223: $GPGGA,193211,3946.9594,N,08404.9835,W,2,12,3.40,294.46,M,-33.324,M,,*7D
2017-12-01 14:32:10 1512156730.803292: $GPRMC,193211,A,3946.9594,N,08404.9835,W,0.0000,0.000,011217,,*34
2017-12-01 14:32:10 1512156730.803352: $GPGSA,A,3,12,10,14,18,21,24,32,8,25,27,20,138,2.0,3.4,1.5*3B
2017-12-01 14:32:11 1512156731.356215: $GPZDA,193212.00,01,12,2017,00,00*6A
2017-12-01 14:32:11 1512156731.356390: $GPGGA,193212,3946.9594,N,08404.9835,W,2,12,0.80,294.46,M,-33.324,M,,*71
2017-12-01 14:32:11 1512156731.356455: $GPRMC,193212,A,3946.9594,N,08404.9835,W,0.0000,0.000,011217,,*37
2017-12-01 14:32:11 1512156731.356516: $GPGSA,A,3,12,10,14,18,21,24,32,8,25,27,20,138,2.0,0.8,1.5*34
2017-12-01 14:32:12 1512156732.350623: $GPZDA,193213.00,01,12,2017,00,00*6B
2017-12-01 14:32:12 1512156732.350800: $GPGGA,193213,3946.9594,N,08404.9835,W,2,12,0.80,294.46,M,-33.324,M,,*70
2017-12-01 14:32:12 1512156732.350868: $GPRMC,193213,A,3946.9594,N,08404.9835,W,0.0000,0.000,011217,,*36
2017-12-01 14:32:12 1512156732.350929: $GPGSA,A,3,12,10,14,18,21,24,32,8,25,27,20,138,2.0,0.8,1.5*34
2017-12-01 14:32:12 1512156732.350989: $GPGBS,193213,2.67,M,3.86,M,8.82,M*39
2017-12-01 14:32:13 1512156733.689600: $GPGSV,3,1,12,12,12,103,32,10,73,337,47,14,32,256,42,18,67,102,46*70
2017-12-01 14:32:13 1512156733.689780: $GPGSV,3,2,12,21,24,178,46,24,42,055,48,32,49,270,46,08,04,291,31*71
2017-12-01 14:32:13 1512156733.689848: $GPGSV,3,3,12,25,05,139,21,15,08,069,02,20,06,120,15,138,38,213,47*40
2017-12-01 14:32:13 1512156733.803213: $GPZDA,193214.00,01,12,2017,00,00*6C
2017-12-01 14:32:13 1512156733.803384: $GPGGA,193214,3946.9594,N,08404.9835,W,2,11,1.00,294.46,M,-33.324,M,,*7D
2017-12-01 14:32:13 1512156733.803450: $GPRMC,193214,A,3946.9594,N,08404.9835,W,0.0000,0.000,011217,,*31
2017-12-01 14:32:13 1512156733.803511: $GPGSA,A,3,12,10,14,18,21,24,32,8,25,20,138,,2.0,1.0,1.5*38
2017-12-01 14:32:14 1512156734.356603: $GPZDA,193215.00,01,12,2017,00,00*6D
2017-12-01 14:32:14 1512156734.356768: $GPGGA,193215,3946.9594,N,08404.9835,W,2,11,1.00,294.46,M,-33.324,M,,*7C
2017-12-01 14:32:14 1512156734.356835: $GPRMC,193215,A,3946.9594,N,08404.9835,W,0.0000,0.000,011217,,*30
2017-12-01 14:32:14 1512156734.356895: $GPGSA,A,3,12,10,14,18,21,24,32,8,25,20,138,,2.0,1.0,1.5*38
2017-12-01 14:32:15 1512156735.356307: $GPZDA,193216.00,01,12,2017,00,00*6E
2017-12-01 14:32:15 1512156735.356480: $GPGGA,193216,3946.9594,N,08404.9835,W,2,11,1.00,294.46,M,-33.324,M,,*7F
2017-12-01 14:32:15 1512156735.356548: $GPRMC,193216,A,3946.9594,N,08404.9835,W,0.0000,0.000,011217,,*33
2017-12-01 14:32:15 1512156735.356609: $GPGSA,A,3,12,10,14,18,21,24,32,8,25,20,138,,2.0,1.0,1.5*38
2017-12-01 14:32:16 1512156736.691749: $GPGSV,3,1,12,12,12,103,32,10,73,337,46,14,32,256,42,18,67,102,46*71
2017-12-01 14:32:16 1512156736.691980: $GPGSV,3,2,12,21,24,178,46,24,42,055,48,32,49,270,47,08,04,291,31*70
2017-12-01 14:32:16 1512156736.692054: $GPGSV,3,3,12,25,05,139,20,15,08,069,15,20,06,120,09,138,38,213,46*4B
2017-12-01 14:32:16 1512156736.805075: $GPZDA,193217.00,01,12,2017,00,00*6F
2017-12-01 14:32:16 1512156736.805217: $GPGGA,193217,3946.9594,N,08404.9835,W,2,11,1.00,294.46,M,-33.324,M,,*7E
2017-12-01 14:32:16 1512156736.805283: $GPRMC,193217,A,3946.9594,N,08404.9835,W,0.0000,0.000,011217,,*32
2017-12-01 14:32:16 1512156736.805344: $GPGSA,A,3,12,10,14,18,21,24,32,8,25,20,138,,2.0,1.0,1.5*38
2017-12-01 14:32:17 1512156737.357325: $GPZDA,193218.00,01,12,2017,00,00*60
2017-12-01 14:32:17 1512156737.357528: $GPGGA,193218,3946.9594,N,08404.9835,W,2,11,1.00,294.46,M,-33.324,M,,*71
2017-12-01 14:32:17 1512156737.357601: $GPRMC,193218,A,3946.9594,N,08404.9835,W,0.0000,0.000,011217,,*3D
2017-12-01 14:32:17 1512156737.357668: $GPGSA,A,3,12,10,14,18,21,24,32,8,25,20,138,,2.0,1.0,1.5*38
