2017-12-31 17:48:39 1514760519.212979: {"class":"VERSION","release":"3.16","rev":"3.16-4","proto_major":3,"proto_minor":11}
2017-12-31 17:48:39 1514760519.213308: {"class":"DEVICES","devices":[{"class":"DEVICE","path":"/dev/ttyUSB0","driver":"SiRF","activated":"2017-12-31T22:48:39.169Z","flags":1,"native":1,"bps":4800,"parity":"N","stopbits":1,"cycle":1.00}]}
2017-12-31 17:48:39 1514760519.213408: {"class":"WATCH","enable":true,"json":false,"nmea":true,"raw":0,"scaled":false,"timing":false,"split24":false,"pps":false}
2017-12-31 17:48:39 1514760519.682052: $GPGSV,3,1,12,22,30,220,45,23,45,309,45,09,12,312,41,03,38,243,44*73
2017-12-31 17:48:39 1514760519.682226: $GPGSV,3,2,12,16,70,192,44,29,10,037,36,14,23,129,30,31,35,067,39*78
2017-12-31 17:48:39 1514760519.682290: $GPGSV,3,3,12,27,14,157,22,32,02,132,19,26,71,061,47,135,22,240,43*42
2017-12-31 17:48:39 1514760519.795394: $GPZDA,224840.00,31,12,2017,00,00*6B
2017-12-31 17:48:39 1514760519.795523: $GPGGA,224840,3946.9570,N,08404.9857,W,2,12,0.60,304.63,M,-33.324,M,,*7C
2017-12-31 17:48:39 1514760519.795587: $GPRMC,224840,A,3946.9570,N,08404.9857,W,0.0000,0.000,311217,,*38
2017-12-31 17:48:39 1514760519.795646: $GPGSA,A,3,22,23,9,3,16,29,14,31,27,32,26,135,1.7,0.6,1.3*07
2017-12-31 17:48:40 1514760520.420919: $GPZDA,224841.00,31,12,2017,00,00*6A
2017-12-31 17:48:40 1514760520.421105: $GPGGA,224841,3946.9570,N,08404.9857,W,2,12,0.60,304.63,M,-33.324,M,,*7D
2017-12-31 17:48:40 1514760520.421175: $GPRMC,224841,A,3946.9570,N,08404.9857,W,0.0000,0.000,311217,,*39
2017-12-31 17:48:40 1514760520.421236: $GPGSA,A,3,22,23,9,3,16,29,14,31,27,32,26,135,1.7,0.6,1.3*07
2017-12-31 17:48:41 1514760521.345556: $GPZDA,224842.00,31,12,2017,00,00*69
2017-12-31 17:48:41 1514760521.345715: $GPGGA,224842,3946.9570,N,08404.9857,W,2,12,1.00,304.63,M,-33.324,M,,*79
2017-12-31 17:48:41 1514760521.345781: $GPRMC,224842,A,3946.9570,N,08404.9857,W,0.0000,0.000,311217,,*3A
2017-12-31 17:48:41 1514760521.345842: $GPGSA,A,3,22,23,9,3,16,29,14,31,27,32,26,135,1.7,1.0,1.3*00
2017-12-31 17:48:42 1514760522.709932: $GPGSV,3,1,11,22,30,220,45,23,45,309,45,09,12,312,41,03,38,243,44*70
2017-12-31 17:48:42 1514760522.710105: $GPGSV,3,2,11,16,70,192,43,29,10,037,36,31,35,067,39,14,23,129,00*7F
2017-12-31 17:48:42 1514760522.710170: $GPGSV,3,3,11,32,02,132,19,26,71,061,47,135,22,240,45*74
2017-12-31 17:48:42 1514760522.823367: $GPZDA,224843.00,31,12,2017,00,00*68
2017-12-31 17:48:42 1514760522.823480: $GPGGA,224843,3946.9570,N,08404.9857,W,2,10,1.00,304.63,M,-33.324,M,,*7A
2017-12-31 17:48:42 1514760522.823545: $GPRMC,224843,A,3946.9570,N,08404.9857,W,0.0000,0.000,311217,,*3B
2017-12-31 17:48:42 1514760522.823605: $GPGSA,A,3,22,23,9,3,16,29,31,32,26,135,,,1.7,1.0,1.3*00
2017-12-31 17:48:43 1514760523.566722: $GPZDA,224844.00,31,12,2017,00,00*6F
2017-12-31 17:48:43 1514760523.566894: $GPGGA,224844,3946.9570,N,08404.9857,W,2,10,0.80,304.63,M,-33.324,M,,*74
2017-12-31 17:48:43 1514760523.566959: $GPRMC,224844,A,3946.9570,N,08404.9857,W,0.0000,0.000,311217,,*3C
2017-12-31 17:48:43 1514760523.567036: $GPGSA,A,3,22,23,9,3,16,29,31,32,26,135,,,1.7,0.8,1.3*09
2017-12-31 17:48:43 1514760523.567152: $GPGBS,224844,2.22,M,3.43,M,7.66,M*33
2017-12-31 17:48:44 1514760524.365099: $GPZDA,224845.00,31,12,2017,00,00*6E
2017-12-31 17:48:44 1514760524.365268: $GPGGA,224845,3946.9570,N,08404.9857,W,2,10,0.80,304.63,M,-33.324,M,,*75
2017-12-31 17:48:44 1514760524.365353: $GPRMC,224845,A,3946.9570,N,08404.9857,W,0.0000,0.000,311217,,*3D
2017-12-31 17:48:44 1514760524.365415: $GPGSA,A,3,22,23,9,3,16,29,31,32,26,135,,,1.7,0.8,1.3*09
2017-12-31 17:48:44 1514760524.365489: $GPGBS,224845,2.22,M,3.43,M,7.66,M*32
2017-12-31 17:48:45 1514760525.682888: $GPGSV,3,1,12,22,30,220,45,23,45,309,45,09,12,312,42,03,38,243,45*71
2017-12-31 17:48:45 1514760525.683075: $GPGSV,3,2,12,16,70,192,43,29,09,037,36,14,23,129,30,31,35,067,39*77
2017-12-31 17:48:45 1514760525.683142: $GPGSV,3,3,12,27,14,157,20,32,02,132,18,26,71,060,46,135,22,240,43*41
2017-12-31 17:48:45 1514760525.796621: $GPZDA,224846.00,31,12,2017,00,00*6D
2017-12-31 17:48:45 1514760525.796817: $GPGGA,224846,3946.9570,N,08404.9857,W,2,12,0.60,304.63,M,-33.324,M,,*7A
2017-12-31 17:48:45 1514760525.796885: $GPRMC,224846,A,3946.9570,N,08404.9857,W,0.0000,0.000,311217,,*3E
2017-12-31 17:48:45 1514760525.796946: $GPGSA,A,3,22,23,9,3,16,29,14,31,27,32,26,135,1.7,0.6,1.3*07
2017-12-31 17:48:46 1514760526.346204: $GPZDA,224847.00,31,12,2017,00,00*6C
2017-12-31 17:48:46 1514760526.346396: $GPGGA,224847,3946.9570,N,08404.9857,W,2,12,0.60,304.63,M,-33.324,M,,*7B
2017-12-31 17:48:46 1514760526.346480: $GPRMC,224847,A,3946.9570,N,08404.9857,W,0.0000,0.000,311217,,*3F
2017-12-31 17:48:46 1514760526.346542: $GPGSA,A,3,22,23,9,3,16,29,14,31,27,32,26,135,1.7,0.6,1.3*07
2017-12-31 17:48:47 1514760527.345501: $GPZDA,224848.00,31,12,2017,00,00*63
2017-12-31 17:48:47 1514760527.345672: $GPGGA,224848,3946.9570,N,08404.9857,W,2,12,0.60,304.63,M,-33.324,M,,*74
2017-12-31 17:48:47 1514760527.345738: $GPRMC,224848,A,3946.9570,N,08404.9857,W,0.0000,0.000,311217,,*30
2017-12-31 17:48:47 1514760527.345798: $GPGSA,A,3,22,23,9,3,16,29,14,31,27,32,26,135,1.7,0.6,1.3*07
2017-12-31 17:48:48 1514760528.682380: $GPGSV,3,1,12,22,30,220,45,23,45,309,44,09,12,312,43,03,38,243,44*70
2017-12-31 17:48:48 1514760528.682555: $GPGSV,3,2,12,16,70,192,44,29,09,037,37,14,23,129,30,31,35,067,40*7F
2017-12-31 17:48:48 1514760528.682621: $GPGSV,3,3,12,27,14,157,22,32,02,132,13,26,71,060,47,135,22,240,43*49
2017-12-31 17:48:48 1514760528.794530: $GPZDA,224849.00,31,12,2017,00,00*62
2017-12-31 17:48:48 1514760528.794661: $GPGGA,224849,3946.9570,N,08404.9857,W,2,12,0.60,304.63,M,-33.324,M,,*75
2017-12-31 17:48:48 1514760528.794725: $GPRMC,224849,A,3946.9570,N,08404.9857,W,0.0000,0.000,311217,,*31
2017-12-31 17:48:48 1514760528.794785: $GPGSA,A,3,22,23,9,3,16,29,14,31,27,32,26,135,1.7,0.6,1.3*07
