2018-01-12 03:33:50 1515746030.521671: {"class":"VERSION","release":"3.16","rev":"3.16-4","proto_major":3,"proto_minor":11}
2018-01-12 03:33:50 1515746030.522062: {"class":"DEVICES","devices":[{"class":"DEVICE","path":"/dev/ttyUSB0","driver":"SiRF","subtype":"9\u0006GSD4e_4.1.2-P1_RPATCH.05-F-GPS-4R-1510281 11/03/2015 307","activated":"2018-01-12T08:33:50.479Z","flags":1,"native":1,"bps":4800,"parity":"N","stopbits":1,"cycle":1.00}]}
2018-01-12 03:33:50 1515746030.522195: {"class":"WATCH","enable":true,"json":false,"nmea":true,"raw":0,"scaled":false,"timing":false,"split24":false,"pps":false}
2018-01-12 03:33:50 1515746030.656366: $GPZDA,083351.34,12,01,2018,00,00*64
2018-01-12 03:33:50 1515746030.656537: $GPGGA,083351,3946.9564,N,08404.9862,W,1,11,0.80,299.70,M,-33.324,M,,*72
2018-01-12 03:33:50 1515746030.656603: $GPRMC,083351,A,3946.9564,N,08404.9862,W,0.2202,173.469,120118,,*3F
2018-01-12 03:33:50 1515746030.656664: $GPGSA,A,3,2,5,6,12,17,19,25,9,23,24,138,,2.4,0.8,2.1*00
2018-01-12 03:33:51 1515746031.925557: $GPGSV,3,1,12,02,65,288,37,05,27,195,37,06,64,030,36,12,51,289,42*76
2018-01-12 03:33:51 1515746031.925731: $GPGSV,3,2,12,17,31,105,36,19,49,093,33,23,09,055,24,25,19,318,36*7F
2018-01-12 03:33:51 1515746031.925815: $GPGSV,3,3,12,09,14,088,00,04,38,261,00,24,03,246,00,138,38,213,00*48
2018-01-12 03:33:52 1515746032.037947: $GPZDA,083352.02,12,01,2018,00,00*62
2018-01-12 03:33:52 1515746032.038079: $GPGGA,083352,3946.9564,N,08404.9862,W,1,08,0.80,299.70,M,-33.324,M,,*79
2018-01-12 03:33:52 1515746032.038144: $GPRMC,083352,A,3946.9564,N,08404.9862,W,0.4179,148.778,120118,,*3E
2018-01-12 03:33:52 1515746032.038205: $GPGSA,A,3,2,5,6,12,17,19,23,25,,,,,2.4,0.8,2.1*05
2018-01-12 03:33:52 1515746032.845802: $GPZDA,083353.00,12,01,2018,00,00*61
2018-01-12 03:33:52 1515746032.845982: $GPGGA,083353,3946.9564,N,08404.9862,W,1,08,0.80,299.70,M,-33.324,M,,*78
2018-01-12 03:33:52 1515746032.846050: $GPRMC,083353,A,3946.9564,N,08404.9862,W,0.0000,0.000,120118,,*31
2018-01-12 03:33:52 1515746032.846111: $GPGSA,A,3,2,5,6,12,17,19,23,25,,,,,2.4,0.8,2.1*05
2018-01-12 03:33:52 1515746032.846167: $GPGBS,083353,11.98,M,14.47,M,47.88,M*04
2018-01-12 03:33:53 1515746033.346644: $GPZDA,083354.00,12,01,2018,00,00*66
2018-01-12 03:33:53 1515746033.346832: $GPGGA,083354,3946.9563,N,08404.9855,W,1,08,0.80,299.78,M,-33.324,M,,*74
2018-01-12 03:33:53 1515746033.346916: $GPRMC,083354,A,3946.9563,N,08404.9855,W,0.2422,93.794,120118,,*03
2018-01-12 03:33:53 1515746033.346978: $GPGSA,A,3,2,5,6,12,17,19,23,25,,,,,2.4,0.8,2.1*05
2018-01-12 03:33:53 1515746033.347035: $GPGBS,083354,11.98,M,14.47,M,47.88,M*03
2018-01-12 03:33:54 1515746034.680794: $GPGSV,3,1,12,02,65,288,47,05,27,195,46,06,64,030,46,12,51,289,53*70
2018-01-12 03:33:54 1515746034.680990: $GPGSV,3,2,12,17,31,105,44,19,49,093,41,23,09,055,32,25,19,318,45*7C
2018-01-12 03:33:54 1515746034.681057: $GPGSV,3,3,12,09,14,088,30,24,03,246,20,04,38,261,00,138,38,213,34*4E
2018-01-12 03:33:54 1515746034.794510: $GPZDA,083355.00,12,01,2018,00,00*67
2018-01-12 03:33:54 1515746034.794646: $GPGGA,083355,3946.9563,N,08404.9855,W,1,11,0.80,299.78,M,-33.324,M,,*7D
2018-01-12 03:33:54 1515746034.794711: $GPRMC,083355,A,3946.9563,N,08404.9855,W,0.0000,0.000,120118,,*34
2018-01-12 03:33:54 1515746034.794794: $GPGSA,A,3,2,5,6,12,17,19,23,25,9,24,138,,2.4,0.8,2.1*00
2018-01-12 03:33:55 1515746035.419543: $GPZDA,083356.00,12,01,2018,00,00*64
2018-01-12 03:33:55 1515746035.419701: $GPGGA,083356,3946.9567,N,08404.9854,W,1,11,0.80,299.01,M,-33.324,M,,*75
2018-01-12 03:33:55 1515746035.419791: $GPRMC,083356,A,3946.9567,N,08404.9854,W,0.0000,0.000,120118,,*32
2018-01-12 03:33:55 1515746035.419869: $GPGSA,A,3,2,5,6,12,17,19,23,25,9,24,138,,2.4,0.8,2.1*00
2018-01-12 03:33:56 1515746036.345462: $GPZDA,083357.00,12,01,2018,00,00*65
2018-01-12 03:33:56 1515746036.345624: $GPGGA,083357,3946.9567,N,08404.9854,W,1,11,0.80,299.01,M,-33.324,M,,*74
2018-01-12 03:33:56 1515746036.345691: $GPRMC,083357,A,3946.9567,N,08404.9854,W,0.0000,0.000,120118,,*33
2018-01-12 03:33:56 1515746036.345773: $GPGSA,A,3,2,5,6,12,17,19,23,25,9,24,138,,2.4,0.8,2.1*00
