2017-11-16 14:16:41 1510859801.779067: {"class":"VERSION","release":"3.17","rev":"3.17","proto_major":3,"proto_minor":12}
2017-11-16 14:16:41 1510859801.779555: {"class":"DEVICES","devices":[{"class":"DEVICE","path":"/dev/ttyUSB0","driver":"SiRF","subtype":"9\u0006GSD4e_4.1.2-P1_RPATCH.05-F-GPS-4R-1510281 11/03/2015 307","activated":"2017-11-16T19:16:41.688Z","flags":1,"native":1,"bps":4800,"parity":"N","stopbits":1,"cycle":1.00}]}
2017-11-16 14:16:41 1510859801.779683: {"class":"WATCH","enable":true,"json":false,"nmea":true,"raw":0,"scaled":false,"timing":false,"split24":false,"pps":false}
2017-11-16 14:16:42 1510859802.846616: $GPGSV,3,1,12,08,06,321,41,10,42,301,44,13,07,049,18,15,36,052,51*75
2017-11-16 14:16:42 1510859802.846828: $GPGSV,3,2,12,18,72,339,47,21,62,189,46,20,32,097,46,24,51,108,48*70
2017-11-16 14:16:42 1510859802.846892: $GPGSV,3,3,12,27,19,288,41,32,21,238,46,14,05,232,00,138,38,213,43*4C
2017-11-16 14:16:42 1510859802.959589: $GPZDA,191641.00,16,11,2017,00,00*6F
2017-11-16 14:16:42 1510859802.959762: $GPGGA,191641,3946.9558,N,08404.9858,W,2,11,0.80,304.11,M,-33.324,M,,*73
2017-11-16 14:16:42 1510859802.959822: $GPRMC,191641,A,3946.9558,N,08404.9858,W,0.0000,0.000,161117,,*39
2017-11-16 14:16:42 1510859802.959880: $GPGSA,A,3,8,10,13,15,18,21,20,24,27,32,138,,1.6,0.8,1.3*30
2017-11-16 14:16:43 1510859803.508157: $GPZDA,191642.00,16,11,2017,00,00*6C
2017-11-16 14:16:43 1510859803.508320: $GPGGA,191642,3946.9558,N,08404.9858,W,2,11,0.80,304.11,M,-33.324,M,,*70
2017-11-16 14:16:43 1510859803.508384: $GPRMC,191642,A,3946.9558,N,08404.9858,W,0.0000,0.000,161117,,*3A
2017-11-16 14:16:43 1510859803.508440: $GPGSA,A,3,8,10,13,15,18,21,20,24,27,32,138,,1.6,0.8,1.3*30
2017-11-16 14:16:44 1510859804.541332: $GPZDA,191643.00,16,11,2017,00,00*6D
2017-11-16 14:16:44 1510859804.541527: $GPGGA,191643,3946.9558,N,08404.9858,W,2,11,0.80,304.11,M,-33.324,M,,*71
2017-11-16 14:16:44 1510859804.541608: $GPRMC,191643,A,3946.9558,N,08404.9858,W,0.0000,0.000,161117,,*3B
2017-11-16 14:16:44 1510859804.541673: $GPGSA,A,3,8,10,13,15,18,21,20,24,27,32,138,,1.6,0.8,1.3*30
2017-11-16 14:16:45 1510859805.845198: $GPGSV,3,1,12,08,06,321,41,10,42,301,44,13,07,049,18,15,36,052,51*75
2017-11-16 14:16:45 1510859805.845364: $GPGSV,3,2,12,18,72,339,47,21,62,189,46,20,32,097,46,24,51,108,48*70
2017-11-16 14:16:45 1510859805.845425: $GPGSV,3,3,12,27,19,288,41,32,21,238,46,14,05,232,00,138,38,213,44*4B
2017-11-16 14:16:45 1510859805.958592: $GPZDA,191644.00,16,11,2017,00,00*6A
2017-11-16 14:16:45 1510859805.958758: $GPGGA,191644,3946.9558,N,08404.9858,W,2,11,0.80,304.11,M,-33.324,M,,*76
2017-11-16 14:16:45 1510859805.958821: $GPRMC,191644,A,3946.9558,N,08404.9858,W,0.0000,0.000,161117,,*3C
2017-11-16 14:16:45 1510859805.958877: $GPGSA,A,3,8,10,13,15,18,21,20,24,27,32,138,,1.6,0.8,1.3*30
2017-11-16 14:16:46 1510859806.541833: $GPZDA,191645.00,16,11,2017,00,00*6B
2017-11-16 14:16:46 1510859806.541998: $GPGGA,191645,3946.9558,N,08404.9858,W,2,11,0.80,304.11,M,-33.324,M,,*77
2017-11-16 14:16:46 1510859806.542061: $GPRMC,191645,A,3946.9558,N,08404.9858,W,0.0000,0.000,161117,,*3D
2017-11-16 14:16:46 1510859806.542117: $GPGSA,A,3,8,10,13,15,18,21,20,24,27,32,138,,1.6,0.8,1.3*30
2017-11-16 14:16:47 1510859807.540540: $GPZDA,191646.00,16,11,2017,00,00*68
2017-11-16 14:16:47 1510859807.540700: $GPGGA,191646,3946.9558,N,08404.9858,W,2,11,0.80,304.11,M,-33.324,M,,*74
2017-11-16 14:16:47 1510859807.540763: $GPRMC,191646,A,3946.9558,N,08404.9858,W,0.0000,0.000,161117,,*3E
2017-11-16 14:16:47 1510859807.540820: $GPGSA,A,3,8,10,13,15,18,21,20,24,27,32,138,,1.6,0.8,1.3*30
2017-11-16 14:16:48 1510859808.877126: $GPGSV,3,1,12,08,06,321,40,10,42,301,44,13,07,049,18,15,36,052,51*74
2017-11-16 14:16:48 1510859808.877309: $GPGSV,3,2,12,18,72,339,47,21,62,189,46,20,32,097,46,24,51,108,48*70
2017-11-16 14:16:48 1510859808.877372: $GPGSV,3,3,12,27,19,288,41,32,21,238,46,14,05,232,00,138,38,213,43*4C
2017-11-16 14:16:48 1510859808.990770: $GPZDA,191647.00,16,11,2017,00,00*69
2017-11-16 14:16:48 1510859808.990929: $GPGGA,191647,3946.9558,N,08404.9858,W,2,11,0.80,304.11,M,-33.324,M,,*75
2017-11-16 14:16:48 1510859808.991043: $GPRMC,191647,A,3946.9558,N,08404.9858,W,0.0000,0.000,161117,,*3F
2017-11-16 14:16:48 1510859808.991101: $GPGSA,A,3,8,10,13,15,18,21,20,24,27,32,138,,1.6,0.8,1.3*30
2017-11-16 14:16:49 1510859809.617395: $GPZDA,191648.00,16,11,2017,00,00*66
2017-11-16 14:16:49 1510859809.617557: $GPGGA,191648,3946.9558,N,08404.9858,W,2,11,0.80,304.11,M,-33.324,M,,*7A
2017-11-16 14:16:49 1510859809.617618: $GPRMC,191648,A,3946.9558,N,08404.9858,W,0.0000,0.000,161117,,*30
2017-11-16 14:16:49 1510859809.617675: $GPGSA,A,3,8,10,13,15,18,21,20,24,27,32,138,,1.6,0.8,1.3*30
2017-11-16 14:16:50 1510859810.540381: $GPZDA,191649.00,16,11,2017,00,00*67
2017-11-16 14:16:50 1510859810.540550: $GPGGA,191649,3946.9557,N,08404.9851,W,2,11,0.80,304.19,M,-33.324,M,,*75
2017-11-16 14:16:50 1510859810.540613: $GPRMC,191649,A,3946.9557,N,08404.9851,W,0.0000,0.000,161117,,*37
2017-11-16 14:16:50 1510859810.540670: $GPGSA,A,3,8,10,13,15,18,21,20,24,27,32,138,,1.6,0.8,1.3*30
2017-11-16 14:16:51 1510859811.844787: $GPGSV,3,1,12,08,06,321,32,10,42,301,45,13,07,049,19,15,36,052,51*71
2017-11-16 14:16:51 1510859811.844961: $GPGSV,3,2,12,18,72,339,47,21,62,189,46,20,32,097,46,24,51,108,48*70
2017-11-16 14:16:51 1510859811.845023: $GPGSV,3,3,12,27,19,288,42,32,21,238,46,14,05,232,00,138,38,213,44*48
2017-11-16 14:16:51 1510859811.956970: $GPZDA,191650.00,16,11,2017,00,00*6F
2017-11-16 14:16:51 1510859811.957135: $GPGGA,191650,3946.9557,N,08404.9851,W,2,11,0.80,304.19,M,-33.324,M,,*7D
2017-11-16 14:16:51 1510859811.957195: $GPRMC,191650,A,3946.9557,N,08404.9851,W,0.0000,0.000,161117,,*3F
2017-11-16 14:16:51 1510859811.957255: $GPGSA,A,3,8,10,13,15,18,21,20,24,27,32,138,,1.6,0.8,1.3*30
2017-11-16 14:16:52 1510859812.540237: $GPZDA,191651.00,16,11,2017,00,00*6E
2017-11-16 14:16:52 1510859812.540474: $GPGGA,191651,3946.9557,N,08404.9851,W,2,11,0.80,304.19,M,-33.324,M,,*7C
2017-11-16 14:16:52 1510859812.540537: $GPRMC,191651,A,3946.9557,N,08404.9851,W,0.0000,0.000,161117,,*3E
2017-11-16 14:16:52 1510859812.540594: $GPGSA,A,3,8,10,13,15,18,21,20,24,27,32,138,,1.6,0.8,1.3*30
2017-11-16 14:16:53 1510859813.508644: $GPZDA,191652.00,16,11,2017,00,00*6D
2017-11-16 14:16:53 1510859813.508818: $GPGGA,191652,3946.9557,N,08404.9851,W,2,11,0.80,304.19,M,-33.324,M,,*7F
2017-11-16 14:16:53 1510859813.508879: $GPRMC,191652,A,3946.9557,N,08404.9851,W,0.0000,0.000,161117,,*3D
2017-11-16 14:16:53 1510859813.508936: $GPGSA,A,3,8,10,13,15,18,21,20,24,27,32,138,,1.6,0.8,1.3*30
2017-11-16 14:16:54 1510859814.885106: $GPGSV,3,1,12,08,06,321,23,10,42,301,45,13,07,049,19,15,36,052,51*71
2017-11-16 14:16:54 1510859814.885250: $GPGSV,3,2,12,18,72,339,47,21,62,189,46,20,32,097,47,24,51,108,48*71
2017-11-16 14:16:54 1510859814.885313: $GPGSV,3,3,12,27,19,288,42,32,21,238,45,14,05,232,05,138,38,213,44*4E
2017-11-16 14:16:54 1510859814.998419: $GPZDA,191653.00,16,11,2017,00,00*6C
2017-11-16 14:16:54 1510859814.998584: $GPGGA,191653,3946.9557,N,08404.9851,W,2,10,1.00,304.19,M,-33.324,M,,*76
2017-11-16 14:16:54 1510859814.998646: $GPRMC,191653,A,3946.9557,N,08404.9851,W,0.0000,0.000,161117,,*3C
2017-11-16 14:16:54 1510859814.998703: $GPGSA,A,3,8,10,15,18,21,20,24,27,32,138,,,1.6,1.0,1.3*3B
2017-11-16 14:16:55 1510859815.534293: $GPZDA,191654.00,16,11,2017,00,00*6B
2017-11-16 14:16:55 1510859815.534453: $GPGGA,191654,3946.9557,N,08404.9851,W,2,10,1.00,304.19,M,-33.324,M,,*71
2017-11-16 14:16:55 1510859815.534513: $GPRMC,191654,A,3946.9557,N,08404.9851,W,0.0000,0.000,161117,,*3B
2017-11-16 14:16:55 1510859815.534570: $GPGSA,A,3,8,10,15,18,21,20,24,27,32,138,,,1.6,1.0,1.3*3B
2017-11-16 14:16:56 1510859816.502602: $GPZDA,191655.00,16,11,2017,00,00*6A
2017-11-16 14:16:56 1510859816.502766: $GPGGA,191655,3946.9557,N,08404.9851,W,2,10,1.00,304.19,M,-33.324,M,,*70
2017-11-16 14:16:56 1510859816.502828: $GPRMC,191655,A,3946.9557,N,08404.9851,W,0.0000,0.000,161117,,*3A
2017-11-16 14:16:56 1510859816.502887: $GPGSA,A,3,8,10,15,18,21,20,24,27,32,138,,,1.6,1.0,1.3*3B
