2017-12-01 18:17:19 1512170239.566866: {"class":"VERSION","release":"3.16","rev":"3.16-4","proto_major":3,"proto_minor":11}
2017-12-01 18:17:19 1512170239.567260: {"class":"DEVICES","devices":[{"class":"DEVICE","path":"/dev/ttyUSB0","driver":"SiRF","subtype":"9\u0006GSD4e_4.1.2-P1_RPATCH.05-F-GPS-4R-1510281 11/03/2015 307","activated":"2017-12-01T23:17:19.565Z","flags":1,"native":1,"bps":4800,"parity":"N","stopbits":1,"cycle":1.00}]}
2017-12-01 18:17:19 1512170239.567381: {"class":"WATCH","enable":true,"json":false,"nmea":true,"raw":0,"scaled":false,"timing":false,"split24":false,"pps":false}
2017-12-01 18:17:20 1512170240.812212: $GPGSV,3,1,12,01,07,255,31,03,38,303,46,14,58,087,42,16,20,189,42*76
2017-12-01 18:17:20 1512170240.812389: $GPGSV,3,2,12,22,50,276,46,23,09,300,39,25,20,042,40,26,50,172,47*7F
2017-12-01 18:17:20 1512170240.812455: $GPGSV,3,3,12,31,70,021,46,32,38,105,42,29,10,075,23,138,38,213,45*4F
2017-12-01 18:17:20 1512170240.925598: $GPZDA,231721.00,01,12,2017,00,00*64
2017-12-01 18:17:20 1512170240.925775: $GPGGA,231721,3946.9715,N,08404.9834,W,2,11,0.80,298.77,M,-33.325,M,,*79
2017-12-01 18:17:20 1512170240.925843: $GPRMC,231721,A,3946.9715,N,08404.9834,W,0.0000,0.000,011217,,*33
2017-12-01 18:17:20 1512170240.925905: $GPGSA,A,3,1,3,14,16,22,23,25,26,31,32,138,,2.0,0.8,1.5*07
2017-12-01 18:17:21 1512170241.445223: $GPZDA,231722.00,01,12,2017,00,00*67
2017-12-01 18:17:21 1512170241.449457: $GPGGA,231722,3946.9715,N,08404.9834,W,2,11,0.80,298.77,M,-33.325,M,,*7A
2017-12-01 18:17:21 1512170241.449576: $GPRMC,231722,A,3946.9715,N,08404.9834,W,0.0000,0.000,011217,,*30
2017-12-01 18:17:21 1512170241.449640: $GPGSA,A,3,1,3,14,16,22,23,25,26,31,32,138,,2.0,0.8,1.5*07
2017-12-01 18:17:22 1512170242.444437: $GPZDA,231723.00,01,12,2017,00,00*66
2017-12-01 18:17:22 1512170242.444615: $GPGGA,231723,3946.9715,N,08404.9834,W,2,11,0.80,298.77,M,-33.325,M,,*7B
2017-12-01 18:17:22 1512170242.444682: $GPRMC,231723,A,3946.9715,N,08404.9834,W,0.0000,0.000,011217,,*31
2017-12-01 18:17:22 1512170242.444744: $GPGSA,A,3,1,3,14,16,22,23,25,26,31,32,138,,2.0,0.8,1.5*07
2017-12-01 18:17:23 1512170243.811281: $GPGSV,3,1,12,01,07,255,32,03,38,303,46,14,58,087,42,16,20,189,41*76
2017-12-01 18:17:23 1512170243.811512: $GPGSV,3,2,12,22,50,276,46,23,09,300,38,25,20,042,41,26,50,172,47*7F
2017-12-01 18:17:23 1512170243.811580: $GPGSV,3,3,12,31,70,021,46,32,38,105,43,29,10,075,20,138,38,213,45*4D
2017-12-01 18:17:23 1512170243.924901: $GPZDA,231724.00,01,12,2017,00,00*61
2017-12-01 18:17:23 1512170243.925032: $GPGGA,231724,3946.9715,N,08404.9834,W,2,11,0.80,298.77,M,-33.325,M,,*7C
2017-12-01 18:17:23 1512170243.925097: $GPRMC,231724,A,3946.9715,N,08404.9834,W,0.0000,0.000,011217,,*36
2017-12-01 18:17:23 1512170243.925157: $GPGSA,A,3,1,3,14,16,22,23,25,26,31,32,138,,2.0,0.8,1.5*07
2017-12-01 18:17:24 1512170244.484394: $GPZDA,231725.00,01,12,2017,00,00*60
2017-12-01 18:17:24 1512170244.484561: $GPGGA,231725,3946.9715,N,08404.9834,W,2,11,0.80,298.77,M,-33.325,M,,*7D
2017-12-01 18:17:24 1512170244.484627: $GPRMC,231725,A,3946.9715,N,08404.9834,W,0.0000,0.000,011217,,*37
2017-12-01 18:17:24 1512170244.484688: $GPGSA,A,3,1,3,14,16,22,23,25,26,31,32,138,,2.0,0.8,1.5*07
2017-12-01 18:17:25 1512170245.444321: $GPZDA,231726.00,01,12,2017,00,00*63
2017-12-01 18:17:25 1512170245.444494: $GPGGA,231726,3946.9715,N,08404.9834,W,2,11,0.80,298.77,M,-33.325,M,,*7E
2017-12-01 18:17:25 1512170245.444560: $GPRMC,231726,A,3946.9715,N,08404.9834,W,0.0000,0.000,011217,,*34
2017-12-01 18:17:25 1512170245.444620: $GPGSA,A,3,1,3,14,16,22,23,25,26,31,32,138,,2.0,0.8,1.5*07
2017-12-01 18:17:26 1512170246.818058: $GPGSV,3,1,12,01,07,255,32,03,38,303,46,14,58,087,42,16,20,189,42*75
2017-12-01 18:17:26 1512170246.818265: $GPGSV,3,2,12,22,50,276,46,23,09,300,38,25,20,042,41,26,50,172,47*7F
2017-12-01 18:17:26 1512170246.818333: $GPGSV,3,3,12,31,70,021,46,32,38,105,39,29,10,075,17,138,38,213,45*44
2017-12-01 18:17:26 1512170246.929414: $GPZDA,231727.00,01,12,2017,00,00*62
2017-12-01 18:17:26 1512170246.929579: $GPGGA,231727,3946.9715,N,08404.9834,W,2,12,0.80,298.77,M,-33.325,M,,*7C
2017-12-01 18:17:26 1512170246.929700: $GPRMC,231727,A,3946.9715,N,08404.9834,W,0.0000,0.000,011217,,*35
2017-12-01 18:17:26 1512170246.929764: $GPGSA,A,3,1,3,14,16,22,23,25,26,31,32,29,138,2.0,0.8,1.5*0C
2017-12-01 18:17:27 1512170247.555022: $GPZDA,231728.00,01,12,2017,00,00*6D
2017-12-01 18:17:27 1512170247.555197: $GPGGA,231728,3946.9715,N,08404.9834,W,2,12,0.80,298.77,M,-33.325,M,,*73
2017-12-01 18:17:27 1512170247.555263: $GPRMC,231728,A,3946.9715,N,08404.9834,W,0.0000,0.000,011217,,*3A
2017-12-01 18:17:27 1512170247.555324: $GPGSA,A,3,1,3,14,16,22,23,25,26,31,32,29,138,2.0,0.8,1.5*0C
2017-12-01 18:17:28 1512170248.445519: $GPZDA,231729.00,01,12,2017,00,00*6C
2017-12-01 18:17:28 1512170248.445692: $GPGGA,231729,3946.9715,N,08404.9834,W,2,12,0.80,298.77,M,-33.325,M,,*72
2017-12-01 18:17:28 1512170248.445760: $GPRMC,231729,A,3946.9715,N,08404.9834,W,0.0000,0.000,011217,,*3B
2017-12-01 18:17:28 1512170248.445822: $GPGSA,A,3,1,3,14,16,22,23,25,26,31,32,29,138,2.0,0.8,1.5*0C
2017-12-01 18:17:29 1512170249.781230: $GPGSV,3,1,12,01,07,255,32,03,38,303,47,14,58,087,42,16,20,189,42*74
2017-12-01 18:17:29 1512170249.781446: $GPGSV,3,2,12,22,50,276,46,23,09,300,39,25,20,042,41,26,50,172,47*7E
2017-12-01 18:17:29 1512170249.781515: $GPGSV,3,3,12,31,70,021,46,32,38,105,39,29,10,075,20,138,38,213,45*40
2017-12-01 18:17:29 1512170249.894521: $GPZDA,231730.00,01,12,2017,00,00*64
2017-12-01 18:17:29 1512170249.894657: $GPGGA,231730,3946.9715,N,08404.9834,W,2,12,0.80,298.77,M,-33.325,M,,*7A
2017-12-01 18:17:29 1512170249.894723: $GPRMC,231730,A,3946.9715,N,08404.9834,W,0.0000,0.000,011217,,*33
2017-12-01 18:17:29 1512170249.894783: $GPGSA,A,3,1,3,14,16,22,23,25,26,31,32,29,138,2.0,0.8,1.5*0C
2017-12-01 18:17:30 1512170250.444496: $GPZDA,231731.00,01,12,2017,00,00*65
2017-12-01 18:17:30 1512170250.444666: $GPGGA,231731,3946.9715,N,08404.9834,W,2,12,0.80,298.77,M,-33.325,M,,*7B
2017-12-01 18:17:30 1512170250.444732: $GPRMC,231731,A,3946.9715,N,08404.9834,W,0.0000,0.000,011217,,*32
2017-12-01 18:17:30 1512170250.444793: $GPGSA,A,3,1,3,14,16,22,23,25,26,31,32,29,138,2.0,0.8,1.5*0C
2017-12-01 18:17:31 1512170251.445434: $GPZDA,231732.00,01,12,2017,00,00*66
2017-12-01 18:17:31 1512170251.445605: $GPGGA,231732,3946.9720,N,08404.9834,W,2,12,0.80,299.41,M,-33.325,M,,*7A
2017-12-01 18:17:31 1512170251.445672: $GPRMC,231732,A,3946.9720,N,08404.9834,W,0.0000,0.000,011217,,*37
2017-12-01 18:17:31 1512170251.445732: $GPGSA,A,3,1,3,14,16,22,23,25,26,31,32,29,138,2.0,0.8,1.5*0C
2017-12-01 18:17:32 1512170252.780291: $GPGSV,3,1,12,01,07,255,31,03,38,303,46,14,58,087,42,16,20,189,42*76
2017-12-01 18:17:32 1512170252.780476: $GPGSV,3,2,12,22,50,276,45,23,09,300,39,25,20,042,41,26,50,172,47*7D
2017-12-01 18:17:32 1512170252.780542: $GPGSV,3,3,12,31,70,021,46,32,38,105,40,10,01,159,11,138,38,213,46*4A
2017-12-01 18:17:32 1512170252.894252: $GPZDA,231733.00,01,12,2017,00,00*67
2017-12-01 18:17:32 1512170252.894411: $GPGGA,231733,3946.9720,N,08404.9834,W,2,12,0.80,299.41,M,-33.325,M,,*7B
2017-12-01 18:17:32 1512170252.894475: $GPRMC,231733,A,3946.9720,N,08404.9834,W,0.0000,0.000,011217,,*36
2017-12-01 18:17:32 1512170252.894536: $GPGSA,A,3,1,3,14,16,22,23,25,26,31,32,10,138,2.0,0.8,1.5*06
2017-12-01 18:17:33 1512170253.447099: $GPZDA,231734.00,01,12,2017,00,00*60
2017-12-01 18:17:33 1512170253.447274: $GPGGA,231734,3946.9720,N,08404.9834,W,2,12,0.80,299.41,M,-33.325,M,,*7C
2017-12-01 18:17:33 1512170253.447342: $GPRMC,231734,A,3946.9720,N,08404.9834,W,0.0000,0.000,011217,,*31
2017-12-01 18:17:33 1512170253.447403: $GPGSA,A,3,1,3,14,16,22,23,25,26,31,32,10,138,2.0,0.8,1.5*06
2017-12-01 18:17:34 1512170254.442926: $GPZDA,231735.00,01,12,2017,00,00*61
2017-12-01 18:17:34 1512170254.443105: $GPGGA,231735,3946.9720,N,08404.9834,W,2,12,0.80,299.41,M,-33.325,M,,*7D
2017-12-01 18:17:34 1512170254.443174: $GPRMC,231735,A,3946.9720,N,08404.9834,W,0.0000,0.000,011217,,*30
2017-12-01 18:17:34 1512170254.443235: $GPGSA,A,3,1,3,14,16,22,23,25,26,31,32,10,138,2.0,0.8,1.5*06
2017-12-01 18:17:35 1512170255.779986: $GPGSV,3,1,12,01,07,255,31,03,38,303,46,14,58,087,42,16,20,189,42*76
2017-12-01 18:17:35 1512170255.780216: $GPGSV,3,2,12,22,50,276,45,23,09,300,40,25,20,042,40,26,50,172,47*72
2017-12-01 18:17:35 1512170255.780284: $GPGSV,3,3,12,31,70,021,46,32,38,105,40,10,01,159,10,138,38,213,46*4B
2017-12-01 18:17:35 1512170255.893303: $GPZDA,231736.00,01,12,2017,00,00*62
2017-12-01 18:17:35 1512170255.893479: $GPGGA,231736,3946.9720,N,08404.9834,W,2,11,0.80,299.41,M,-33.325,M,,*7D
2017-12-01 18:17:35 1512170255.893545: $GPRMC,231736,A,3946.9720,N,08404.9834,W,0.0000,0.000,011217,,*33
2017-12-01 18:17:35 1512170255.893606: $GPGSA,A,3,1,3,14,16,22,23,25,26,31,32,138,,2.0,0.8,1.5*07
2017-12-01 18:17:36 1512170256.446896: $GPZDA,231737.00,01,12,2017,00,00*63
2017-12-01 18:17:36 1512170256.447076: $GPGGA,231737,3946.9720,N,08404.9834,W,2,11,0.60,299.41,M,-33.325,M,,*72
2017-12-01 18:17:36 1512170256.447144: $GPRMC,231737,A,3946.9720,N,08404.9834,W,0.0000,0.000,011217,,*32
2017-12-01 18:17:36 1512170256.447205: $GPGSA,A,3,1,3,14,16,22,23,25,26,31,32,138,,2.0,0.6,1.5*09
2017-12-01 18:17:37 1512170257.444770: $GPZDA,231738.00,01,12,2017,00,00*6C
2017-12-01 18:17:37 1512170257.444944: $GPGGA,231738,3946.9720,N,08404.9834,W,2,11,0.60,299.41,M,-33.325,M,,*7D
2017-12-01 18:17:37 1512170257.445010: $GPRMC,231738,A,3946.9720,N,08404.9834,W,0.0000,0.000,011217,,*3D
2017-12-01 18:17:37 1512170257.445071: $GPGSA,A,3,1,3,14,16,22,23,25,26,31,32,138,,2.0,0.6,1.5*09
2017-12-01 18:17:38 1512170258.777720: $GPGSV,3,1,12,01,07,255,31,03,38,303,46,14,58,087,43,16,20,189,41*74
2017-12-01 18:17:38 1512170258.777906: $GPGSV,3,2,12,22,50,276,45,23,09,300,40,25,20,042,39,26,50,172,47*7C
2017-12-01 18:17:38 1512170258.777974: $GPGSV,3,3,12,31,70,021,47,32,38,105,40,29,10,075,24,138,38,213,46*48
2017-12-01 18:17:38 1512170258.891166: $GPZDA,231739.00,01,12,2017,00,00*6D
2017-12-01 18:17:38 1512170258.891342: $GPGGA,231739,3946.9720,N,08404.9834,W,2,12,0.60,299.41,M,-33.325,M,,*7F
2017-12-01 18:17:38 1512170258.891478: $GPRMC,231739,A,3946.9720,N,08404.9834,W,0.0000,0.000,011217,,*3C
2017-12-01 18:17:38 1512170258.891540: $GPGSA,A,3,1,3,14,16,22,23,25,26,31,32,29,138,2.0,0.6,1.5*02
2017-12-01 18:17:39 1512170259.444503: $GPZDA,231740.00,01,12,2017,00,00*63
2017-12-01 18:17:39 1512170259.444678: $GPGGA,231740,3946.9720,N,08404.9834,W,2,12,0.60,299.41,M,-33.325,M,,*71
2017-12-01 18:17:39 1512170259.444747: $GPRMC,231740,A,3946.9720,N,08404.9834,W,0.0000,0.000,011217,,*32
2017-12-01 18:17:39 1512170259.444809: $GPGSA,A,3,1,3,14,16,22,23,25,26,31,32,29,138,2.0,0.6,1.5*02
