2017-12-14 11:47:07 1513270027.253875: {"class":"VERSION","release":"3.16","rev":"3.16-4","proto_major":3,"proto_minor":11}
2017-12-14 11:47:07 1513270027.254234: {"class":"DEVICES","devices":[{"class":"DEVICE","path":"/dev/ttyUSB0","driver":"SiRF","subtype":"9\u0006GSD4e_4.1.2-P1_RPATCH.05-F-GPS-4R-1510281 11/03/2015 307","activated":"2017-12-14T16:47:07.244Z","flags":1,"native":1,"bps":4800,"parity":"N","stopbits":1,"cycle":1.00}]}
2017-12-14 11:47:07 1513270027.254365: {"class":"WATCH","enable":true,"json":false,"nmea":true,"raw":0,"scaled":false,"timing":false,"split24":false,"pps":false}
2017-12-14 11:47:08 1513270028.192405: $GPZDA,164709.00,14,12,2017,00,00*69
2017-12-14 11:47:08 1513270028.192571: $GPGGA,164709,3946.9494,N,08404.9456,W,1,05,1.80,307.29,M,-33.324,M,,*78
2017-12-14 11:47:08 1513270028.192637: $GPRMC,164709,A,3946.9494,N,08404.9456,W,0.5306,294.353,141217,,*36
2017-12-14 11:47:08 1513270028.192721: $GPGSA,A,3,10,15,18,20,24,,,,,,,,6.6,1.8,6.2*37
2017-12-14 11:47:09 1513270029.548270: $GPGSV,3,1,11,10,30,291,19,15,51,049,24,18,61,312,24,20,45,082,20*73
2017-12-14 11:47:09 1513270029.548444: $GPGSV,3,2,11,24,41,129,17,27,19,304,10,32,09,229,12,13,20,045,00*7F
2017-12-14 11:47:09 1513270029.548509: $GPGSV,3,3,11,21,76,213,00,29,02,186,00,120,07,103,00*7B
2017-12-14 11:47:09 1513270029.660389: $GPZDA,164710.00,14,12,2017,00,00*61
2017-12-14 11:47:09 1513270029.660559: $GPGGA,164710,3946.9494,N,08404.9456,W,1,07,1.40,307.29,M,-33.324,M,,*7E
2017-12-14 11:47:09 1513270029.660625: $GPRMC,164710,A,3946.9494,N,08404.9456,W,0.5912,309.173,141217,,*34
2017-12-14 11:47:09 1513270029.660711: $GPGSA,A,3,10,15,18,20,24,27,32,,,,,,6.6,1.4,6.2*3F
2017-12-14 11:47:10 1513270030.211775: $GPZDA,164711.00,14,12,2017,00,00*60
2017-12-14 11:47:10 1513270030.212009: $GPGGA,164711,3946.9495,N,08404.9463,W,1,07,1.40,307.21,M,-33.324,M,,*70
2017-12-14 11:47:10 1513270030.212195: $GPRMC,164711,A,3946.9495,N,08404.9463,W,0.5912,309.173,141217,,*32
2017-12-14 11:47:10 1513270030.212259: $GPGSA,A,3,10,15,18,20,24,27,32,,,,,,6.6,1.4,6.2*3F
2017-12-14 11:47:11 1513270031.211888: $GPZDA,164712.00,14,12,2017,00,00*63
2017-12-14 11:47:11 1513270031.212175: $GPGGA,164712,3946.9495,N,08404.9463,W,1,07,1.40,307.21,M,-33.324,M,,*73
2017-12-14 11:47:11 1513270031.212256: $GPRMC,164712,A,3946.9495,N,08404.9463,W,0.4207,219.347,141217,,*3A
2017-12-14 11:47:11 1513270031.212317: $GPGSA,A,3,10,15,18,20,24,27,32,,,,,,6.6,1.4,6.2*3F
2017-12-14 11:47:12 1513270032.545107: $GPGSV,3,1,11,10,30,291,18,15,51,049,24,18,61,312,24,20,45,082,21*73
2017-12-14 11:47:12 1513270032.545264: $GPGSV,3,2,11,24,41,129,17,27,19,304,09,32,09,229,12,13,20,045,00*77
2017-12-14 11:47:12 1513270032.545329: $GPGSV,3,3,11,21,76,213,00,29,02,186,00,120,07,103,00*7B
2017-12-14 11:47:12 1513270032.658523: $GPZDA,164713.00,14,12,2017,00,00*62
2017-12-14 11:47:12 1513270032.658711: $GPGGA,164713,3946.9491,N,08404.9463,W,1,07,1.40,306.57,M,-33.324,M,,*76
2017-12-14 11:47:12 1513270032.658812: $GPRMC,164713,A,3946.9491,N,08404.9463,W,0.8414,219.347,141217,,*37
2017-12-14 11:47:12 1513270032.658876: $GPGSA,A,3,10,15,18,20,24,27,32,,,,,,6.6,1.4,6.2*3F
2017-12-14 11:47:13 1513270033.193705: $GPZDA,164714.00,14,12,2017,00,00*65
2017-12-14 11:47:13 1513270033.193889: $GPGGA,164714,3946.9487,N,08404.9464,W,1,07,1.40,307.33,M,-33.324,M,,*72
2017-12-14 11:47:13 1513270033.193956: $GPRMC,164714,A,3946.9487,N,08404.9464,W,0.7278,203.636,141217,,*3B
2017-12-14 11:47:13 1513270033.194018: $GPGSA,A,3,10,15,18,20,24,27,32,,,,,,6.6,1.4,6.2*3F
2017-12-14 11:47:14 1513270034.210095: $GPZDA,164715.00,14,12,2017,00,00*64
2017-12-14 11:47:14 1513270034.210260: $GPGGA,164715,3946.9487,N,08404.9464,W,1,07,1.40,307.33,M,-33.324,M,,*73
2017-12-14 11:47:14 1513270034.210325: $GPRMC,164715,A,3946.9487,N,08404.9464,W,0.4207,219.347,141217,,*39
2017-12-14 11:47:14 1513270034.210386: $GPGSA,A,3,10,15,18,20,24,27,32,,,,,,6.6,1.4,6.2*3F
2017-12-14 11:47:15 1513270035.546224: $GPGSV,3,1,11,10,30,291,18,15,51,049,24,18,61,312,24,20,45,082,21*73
2017-12-14 11:47:15 1513270035.546400: $GPGSV,3,2,11,24,41,129,16,27,19,304,09,32,09,229,13,13,20,045,00*77
2017-12-14 11:47:15 1513270035.546518: $GPGSV,3,3,11,21,76,213,00,29,02,186,00,120,07,103,00*7B
2017-12-14 11:47:15 1513270035.659632: $GPZDA,164716.00,14,12,2017,00,00*67
2017-12-14 11:47:15 1513270035.659827: $GPGGA,164716,3946.9483,N,08404.9464,W,1,07,1.40,306.69,M,-33.324,M,,*7A
2017-12-14 11:47:15 1513270035.659911: $GPRMC,164716,A,3946.9483,N,08404.9464,W,0.2422,273.794,141217,,*3F
2017-12-14 11:47:15 1513270035.659973: $GPGSA,A,3,10,15,18,20,24,27,32,,,,,,6.6,1.4,6.2*3F
2017-12-14 11:47:16 1513270036.210013: $GPZDA,164717.00,14,12,2017,00,00*66
2017-12-14 11:47:16 1513270036.210178: $GPGGA,164717,3946.9487,N,08404.9464,W,1,07,1.40,307.33,M,-33.324,M,,*71
2017-12-14 11:47:16 1513270036.210244: $GPRMC,164717,A,3946.9487,N,08404.9464,W,0.6846,4.197,141217,,*37
2017-12-14 11:47:16 1513270036.210304: $GPGSA,A,3,10,15,18,20,24,27,32,,,,,,6.6,1.4,6.2*3F
2017-12-14 11:47:17 1513270037.194654: $GPZDA,164718.00,14,12,2017,00,00*69
2017-12-14 11:47:17 1513270037.194824: $GPGGA,164718,3946.9491,N,08404.9470,W,1,07,1.40,306.49,M,-33.324,M,,*70
2017-12-14 11:47:17 1513270037.194890: $GPRMC,164718,A,3946.9491,N,08404.9470,W,0.7238,320.710,141217,,*34
2017-12-14 11:47:17 1513270037.194951: $GPGSA,A,3,10,15,18,20,24,27,32,,,,,,6.6,1.4,6.2*3F
2017-12-14 11:47:18 1513270038.529299: $GPGSV,3,1,11,10,30,291,18,15,51,049,24,18,61,312,24,20,45,082,21*73
2017-12-14 11:47:18 1513270038.529474: $GPGSV,3,2,11,24,41,129,16,27,19,304,08,32,09,229,13,13,20,045,00*76
2017-12-14 11:47:18 1513270038.529541: $GPGSV,3,3,11,21,76,213,00,29,02,186,00,120,07,103,00*7B
2017-12-14 11:47:18 1513270038.642813: $GPZDA,164719.00,14,12,2017,00,00*68
2017-12-14 11:47:18 1513270038.642977: $GPGGA,164719,3946.9491,N,08404.9470,W,1,07,1.40,306.49,M,-33.324,M,,*71
2017-12-14 11:47:18 1513270038.643042: $GPRMC,164719,A,3946.9491,N,08404.9470,W,1.1124,302.165,141217,,*38
2017-12-14 11:47:18 1513270038.643102: $GPGSA,A,3,10,15,18,20,24,27,32,,,,,,6.6,1.4,6.2*3F
2017-12-14 11:47:19 1513270039.194081: $GPZDA,164720.00,14,12,2017,00,00*62
2017-12-14 11:47:19 1513270039.194249: $GPGGA,164720,3946.9491,N,08404.9470,W,1,07,1.40,306.49,M,-33.324,M,,*7B
2017-12-14 11:47:19 1513270039.194313: $GPRMC,164720,A,3946.9491,N,08404.9470,W,1.2375,282.453,141217,,*3E
2017-12-14 11:47:19 1513270039.194374: $GPGSA,A,3,10,15,18,20,24,27,32,,,,,,6.6,1.4,6.2*3F
2017-12-14 11:47:20 1513270040.190562: $GPZDA,164721.00,14,12,2017,00,00*63
2017-12-14 11:47:20 1513270040.190816: $GPGGA,164721,3946.9488,N,08404.9478,W,1,07,1.80,307.17,M,-33.324,M,,*7C
2017-12-14 11:47:20 1513270040.190884: $GPRMC,164721,A,3946.9488,N,08404.9478,W,1.2357,266.544,141217,,*32
2017-12-14 11:47:20 1513270040.190945: $GPGSA,A,3,10,15,18,20,24,27,32,,,,,,6.6,1.8,6.2*33
2017-12-14 11:47:21 1513270041.526671: $GPGSV,3,1,11,10,30,291,18,15,51,049,24,18,61,312,24,20,45,082,21*73
2017-12-14 11:47:21 1513270041.526853: $GPGSV,3,2,11,24,41,129,16,27,19,304,06,32,09,229,12,13,20,045,00*79
2017-12-14 11:47:21 1513270041.526918: $GPGSV,3,3,11,21,76,213,00,29,02,186,00,120,07,103,00*7B
2017-12-14 11:47:21 1513270041.640066: $GPZDA,164722.00,14,12,2017,00,00*60
2017-12-14 11:47:21 1513270041.640240: $GPGGA,164722,3946.9488,N,08404.9485,W,1,06,1.80,307.09,M,-33.324,M,,*73
2017-12-14 11:47:21 1513270041.640306: $GPRMC,164722,A,3946.9488,N,08404.9485,W,1.2357,266.544,141217,,*33
2017-12-14 11:47:21 1513270041.640367: $GPGSA,A,3,10,15,18,20,24,32,,,,,,,6.6,1.8,6.2*36
2017-12-14 11:47:22 1513270042.191233: $GPZDA,164723.00,14,12,2017,00,00*61
2017-12-14 11:47:22 1513270042.191400: $GPGGA,164723,3946.9488,N,08404.9485,W,1,06,1.80,307.09,M,-33.324,M,,*72
2017-12-14 11:47:22 1513270042.191466: $GPRMC,164723,A,3946.9488,N,08404.9485,W,1.1902,238.684,141217,,*3F
2017-12-14 11:47:22 1513270042.191526: $GPGSA,A,3,10,15,18,20,24,32,,,,,,,6.6,1.8,6.2*36
2017-12-14 11:47:23 1513270043.191195: $GPZDA,164724.00,14,12,2017,00,00*66
2017-12-14 11:47:23 1513270043.191357: $GPGGA,164724,3946.9485,N,08404.9486,W,1,06,1.80,307.86,M,-33.324,M,,*7C
2017-12-14 11:47:23 1513270043.191473: $GPRMC,164724,A,3946.9485,N,08404.9486,W,1.1902,238.684,141217,,*36
2017-12-14 11:47:23 1513270043.191535: $GPGSA,A,3,10,15,18,20,24,32,,,,,,,6.6,1.8,6.2*36
2017-12-14 11:47:24 1513270044.526045: $GPGSV,3,1,11,10,30,291,18,15,51,049,23,18,61,312,24,20,45,082,21*74
2017-12-14 11:47:24 1513270044.526219: $GPGSV,3,2,11,24,41,129,16,27,19,304,05,32,09,229,13,13,20,045,00*7B
2017-12-14 11:47:24 1513270044.526284: $GPGSV,3,3,11,21,76,213,00,29,02,186,00,120,07,103,00*7B
2017-12-14 11:47:24 1513270044.638261: $GPZDA,164725.00,14,12,2017,00,00*67
2017-12-14 11:47:24 1513270044.638447: $GPGGA,164725,3946.9485,N,08404.9493,W,1,06,1.80,307.78,M,-33.324,M,,*78
2017-12-14 11:47:24 1513270044.638514: $GPRMC,164725,A,3946.9485,N,08404.9493,W,1.0298,254.382,141217,,*33
2017-12-14 11:47:24 1513270044.638593: $GPGSA,A,3,10,15,18,20,24,32,,,,,,,6.6,1.8,6.2*36
2017-12-14 11:47:25 1513270045.190834: $GPZDA,164726.00,14,12,2017,00,00*64
2017-12-14 11:47:25 1513270045.190987: $GPGGA,164726,3946.9482,N,08404.9493,W,1,06,1.80,308.54,M,-33.324,M,,*7D
2017-12-14 11:47:25 1513270045.191053: $GPRMC,164726,A,3946.9482,N,08404.9493,W,0.4207,219.347,141217,,*34
2017-12-14 11:47:25 1513270045.191113: $GPGSA,A,3,10,15,18,20,24,32,,,,,,,6.6,1.8,6.2*36
2017-12-14 11:47:26 1513270046.192301: $GPZDA,164727.00,14,12,2017,00,00*65
2017-12-14 11:47:26 1513270046.192461: $GPGGA,164727,3946.9482,N,08404.9493,W,1,06,1.80,308.54,M,-33.324,M,,*7C
2017-12-14 11:47:26 1513270046.192528: $GPRMC,164727,A,3946.9482,N,08404.9493,W,0.5951,238.684,141217,,*35
2017-12-14 11:47:26 1513270046.192610: $GPGSA,A,3,10,15,18,20,24,32,,,,,,,6.6,1.8,6.2*36
