2017-12-14 12:25:08 1513272308.792835: {"class":"VERSION","release":"3.16","rev":"3.16-4","proto_major":3,"proto_minor":11}
2017-12-14 12:25:08 1513272308.793232: {"class":"DEVICES","devices":[{"class":"DEVICE","path":"/dev/ttyUSB0","driver":"SiRF","subtype":"9\u0006GSD4e_4.1.2-P1_RPATCH.05-F-GPS-4R-1510281 11/03/2015 307","activated":"2017-12-14T17:25:08.770Z","flags":1,"native":1,"bps":4800,"parity":"N","stopbits":1,"cycle":1.00}]}
2017-12-14 12:25:08 1513272308.793347: {"class":"WATCH","enable":true,"json":false,"nmea":true,"raw":0,"scaled":false,"timing":false,"split24":false,"pps":false}
2017-12-14 12:25:09 1513272309.189453: $GPZDA,172510.00,14,12,2017,00,00*64
2017-12-14 12:25:09 1513272309.189613: $GPGGA,172510,3946.9467,N,08404.9401,W,1,06,2.20,368.17,M,-33.324,M,,*75
2017-12-14 12:25:09 1513272309.189678: $GPRMC,172510,A,3946.9467,N,08404.9401,W,0.3423,4.197,141217,,*32
2017-12-14 12:25:09 1513272309.189738: $GPGSA,A,3,21,10,20,24,18,15,,,,,,,6.6,2.2,6.2*3D
2017-12-14 12:25:10 1513272310.205773: $GPZDA,172511.00,14,12,2017,00,00*65
2017-12-14 12:25:10 1513272310.205927: $GPGGA,172511,3946.9470,N,08404.9400,W,1,06,2.20,367.40,M,-33.324,M,,*7E
2017-12-14 12:25:10 1513272310.205992: $GPRMC,172511,A,3946.9470,N,08404.9400,W,0.5857,338.291,141217,,*34
2017-12-14 12:25:10 1513272310.206052: $GPGSA,A,3,21,10,20,24,18,15,,,,,,,6.6,2.2,6.2*3D
2017-12-14 12:25:11 1513272311.525677: $GPGSV,3,1,12,21,60,186,27,10,44,303,24,14,06,234,12,20,32,097,25*7F
2017-12-14 12:25:11 1513272311.525836: $GPGSV,3,2,12,24,52,106,28,32,23,240,00,18,73,345,17,15,35,054,18*72
2017-12-14 12:25:11 1513272311.525900: $GPGSV,3,3,12,27,19,286,00,08,06,321,00,13,05,049,00,120,07,103,00*49
2017-12-14 12:25:11 1513272311.639134: $GPZDA,172512.00,14,12,2017,00,00*66
2017-12-14 12:25:11 1513272311.639304: $GPGGA,172512,3946.9474,N,08404.9400,W,1,06,2.20,368.04,M,-33.324,M,,*76
2017-12-14 12:25:11 1513272311.639370: $GPRMC,172512,A,3946.9474,N,08404.9400,W,0.6846,4.197,141217,,*39
2017-12-14 12:25:11 1513272311.639430: $GPGSA,A,3,21,10,20,24,18,15,,,,,,,6.6,2.2,6.2*3D
2017-12-14 12:25:12 1513272312.209557: $GPZDA,172513.00,14,12,2017,00,00*67
2017-12-14 12:25:12 1513272312.209724: $GPGGA,172513,3946.9478,N,08404.9400,W,1,06,2.20,367.28,M,-33.324,M,,*7A
2017-12-14 12:25:12 1513272312.209790: $GPRMC,172513,A,3946.9478,N,08404.9400,W,0.7246,344.668,141217,,*3F
2017-12-14 12:25:12 1513272312.209850: $GPGSA,A,3,21,10,20,24,18,15,,,,,,,6.6,2.2,6.2*3D
2017-12-14 12:25:13 1513272313.206901: $GPZDA,172514.00,14,12,2017,00,00*60
2017-12-14 12:25:13 1513272313.207069: $GPGGA,172514,3946.9485,N,08404.9399,W,1,06,2.20,367.15,M,-33.324,M,,*76
2017-12-14 12:25:13 1513272313.207134: $GPRMC,172514,A,3946.9485,N,08404.9399,W,0.5774,27.515,141217,,*04
2017-12-14 12:25:13 1513272313.207195: $GPGSA,A,3,21,10,20,24,18,15,,,,,,,6.6,2.2,6.2*3D
2017-12-14 12:25:14 1513272314.526348: $GPGSV,3,1,12,21,60,186,27,10,44,303,25,14,06,234,10,20,32,097,25*7C
2017-12-14 12:25:14 1513272314.526534: $GPGSV,3,2,12,24,52,106,28,32,23,240,16,18,73,345,17,15,35,054,18*75
2017-12-14 12:25:14 1513272314.526600: $GPGSV,3,3,12,27,19,286,00,08,06,321,00,13,05,049,00,120,07,103,00*49
2017-12-14 12:25:14 1513272314.639955: $GPZDA,172515.00,14,12,2017,00,00*61
2017-12-14 12:25:14 1513272314.640119: $GPGGA,172515,3946.9493,N,08404.9398,W,1,06,2.20,367.03,M,-33.324,M,,*76
2017-12-14 12:25:14 1513272314.640202: $GPRMC,172515,A,3946.9493,N,08404.9398,W,1.2361,14.852,141217,,*0B
2017-12-14 12:25:14 1513272314.640264: $GPGSA,A,3,21,10,20,24,18,15,,,,,,,6.6,2.2,6.2*3D
2017-12-14 12:25:15 1513272315.208818: $GPZDA,172516.00,14,12,2017,00,00*62
2017-12-14 12:25:15 1513272315.208992: $GPGGA,172516,3946.9496,N,08404.9398,W,1,06,2.20,366.26,M,-33.324,M,,*76
2017-12-14 12:25:15 1513272315.209058: $GPRMC,172516,A,3946.9496,N,08404.9398,W,1.3921,14.217,141217,,*09
2017-12-14 12:25:15 1513272315.209118: $GPGSA,A,3,21,10,20,24,18,15,,,,,,,6.6,2.2,6.2*3D
2017-12-14 12:25:16 1513272316.206219: $GPZDA,172517.00,14,12,2017,00,00*63
2017-12-14 12:25:16 1513272316.206385: $GPGGA,172517,3946.9504,N,08404.9397,W,1,06,2.20,366.14,M,-33.324,M,,*73
2017-12-14 12:25:16 1513272316.206503: $GPRMC,172517,A,3946.9504,N,08404.9397,W,1.5555,3.694,141217,,*3D
2017-12-14 12:25:16 1513272316.206566: $GPGSA,A,3,21,10,20,24,18,15,,,,,,,6.6,2.2,6.2*3D
2017-12-14 12:25:17 1513272317.542486: $GPGSV,3,1,12,21,60,186,27,10,44,303,25,32,23,240,00,20,32,097,25*7D
2017-12-14 12:25:17 1513272317.542670: $GPGSV,3,2,12,24,52,106,28,27,19,286,00,18,73,345,18,15,35,054,18*7A
2017-12-14 12:25:17 1513272317.542735: $GPGSV,3,3,12,08,06,321,00,14,06,234,00,13,05,049,00,120,07,103,00*4E
2017-12-14 12:25:17 1513272317.655914: $GPZDA,172518.00,14,12,2017,00,00*6C
2017-12-14 12:25:17 1513272317.656087: $GPGGA,172518,3946.9511,N,08404.9389,W,1,06,2.20,366.09,M,-33.324,M,,*7B
2017-12-14 12:25:17 1513272317.656154: $GPRMC,172518,A,3946.9511,N,08404.9389,W,2.0320,24.738,141217,,*09
2017-12-14 12:25:17 1513272317.656215: $GPGSA,A,3,21,10,20,24,18,15,,,,,,,6.6,2.2,6.2*3D
2017-12-14 12:25:18 1513272318.208799: $GPZDA,172519.00,14,12,2017,00,00*6D
2017-12-14 12:25:18 1513272318.208956: $GPGGA,172519,3946.9519,N,08404.9388,W,1,06,2.20,365.97,M,-33.324,M,,*77
2017-12-14 12:25:18 1513272318.209022: $GPRMC,172519,A,3946.9519,N,08404.9388,W,2.2922,16.048,141217,,*0A
2017-12-14 12:25:18 1513272318.209082: $GPGSA,A,3,21,10,20,24,18,15,,,,,,,6.6,2.2,6.2*3D
2017-12-14 12:25:19 1513272319.193140: $GPZDA,172520.00,14,12,2017,00,00*67
2017-12-14 12:25:19 1513272319.193338: $GPGGA,172520,3946.9526,N,08404.9381,W,1,06,2.20,365.93,M,-33.324,M,,*7C
2017-12-14 12:25:19 1513272319.193428: $GPRMC,172520,A,3946.9526,N,08404.9381,W,2.1833,23.637,141217,,*0F
2017-12-14 12:25:19 1513272319.193493: $GPGSA,A,3,21,10,20,24,18,15,,,,,,,6.6,2.2,6.2*3D
2017-12-14 12:25:20 1513272320.543009: $GPGSV,3,1,12,21,60,186,27,10,44,303,26,08,06,321,16,20,32,097,25*71
2017-12-14 12:25:20 1513272320.543149: $GPGSV,3,2,12,24,52,106,28,32,23,240,14,18,73,345,19,15,35,054,18*79
2017-12-14 12:25:20 1513272320.543213: $GPGSV,3,3,12,27,19,286,00,14,06,234,00,13,05,049,00,120,07,103,00*41
2017-12-14 12:25:20 1513272320.656371: $GPZDA,172521.00,14,12,2017,00,00*66
2017-12-14 12:25:20 1513272320.656516: $GPGGA,172521,3946.9533,N,08404.9380,W,1,06,2.20,365.80,M,-33.324,M,,*7A
2017-12-14 12:25:20 1513272320.656580: $GPRMC,172521,A,3946.9533,N,08404.9380,W,2.4414,27.229,141217,,*08
2017-12-14 12:25:20 1513272320.656640: $GPGSA,A,3,21,10,20,24,18,15,,,,,,,6.6,2.2,6.2*3D
2017-12-14 12:25:21 1513272321.207761: $GPZDA,172522.00,14,12,2017,00,00*65
2017-12-14 12:25:21 1513272321.207932: $GPGGA,172522,3946.9544,N,08404.9379,W,1,06,2.20,364.91,M,-33.324,M,,*7E
2017-12-14 12:25:21 1513272321.207998: $GPRMC,172522,A,3946.9544,N,08404.9379,W,2.0320,24.738,141217,,*0F
2017-12-14 12:25:21 1513272321.208058: $GPGSA,A,3,21,10,20,24,18,15,,,,,,,6.6,2.2,6.2*3D
2017-12-14 12:25:22 1513272322.206654: $GPZDA,172523.00,14,12,2017,00,00*64
2017-12-14 12:25:22 1513272322.206830: $GPGGA,172523,3946.9552,N,08404.9371,W,1,06,2.20,364.87,M,-33.324,M,,*77
2017-12-14 12:25:22 1513272322.206896: $GPRMC,172523,A,3946.9552,N,08404.9371,W,1.7157,28.752,141217,,*07
2017-12-14 12:25:22 1513272322.206956: $GPGSA,A,3,21,10,20,24,18,15,,,,,,,6.6,2.2,6.2*3D
2017-12-14 12:25:23 1513272323.525346: $GPGSV,3,1,12,21,60,186,26,10,44,303,26,32,23,240,00,20,32,097,25*7F
2017-12-14 12:25:23 1513272323.525527: $GPGSV,3,2,12,24,52,106,28,27,19,286,00,18,73,345,19,15,35,054,17*74
2017-12-14 12:25:23 1513272323.525593: $GPGSV,3,3,12,08,06,321,00,14,06,234,00,13,05,049,00,120,07,103,00*4E
2017-12-14 12:25:23 1513272323.638773: $GPZDA,172524.00,14,12,2017,00,00*63
2017-12-14 12:25:23 1513272323.638943: $GPGGA,172524,3946.9555,N,08404.9370,W,1,06,2.20,364.10,M,-33.324,M,,*78
2017-12-14 12:25:23 1513272323.639010: $GPRMC,172524,A,3946.9555,N,08404.9370,W,1.7157,28.752,141217,,*06
2017-12-14 12:25:23 1513272323.639070: $GPGSA,A,3,21,10,20,24,18,15,,,,,,,6.6,2.2,6.2*3D
2017-12-14 12:25:24 1513272324.189650: $GPZDA,172525.00,14,12,2017,00,00*62
2017-12-14 12:25:24 1513272324.189823: $GPGGA,172525,3946.9559,N,08404.9363,W,1,06,2.20,364.82,M,-33.324,M,,*7C
2017-12-14 12:25:24 1513272324.189941: $GPRMC,172525,A,3946.9559,N,08404.9363,W,1.1294,43.342,141217,,*0B
2017-12-14 12:25:24 1513272324.190003: $GPGSA,A,3,21,10,20,24,18,15,,,,,,,6.6,2.2,6.2*3D
2017-12-14 12:25:25 1513272325.189830: $GPZDA,172526.00,14,12,2017,00,00*61
2017-12-14 12:25:25 1513272325.190010: $GPGGA,172526,3946.9562,N,08404.9362,W,1,06,2.20,364.06,M,-33.324,M,,*7A
2017-12-14 12:25:25 1513272325.190076: $GPRMC,172526,A,3946.9562,N,08404.9362,W,0.9929,32.499,141217,,*02
2017-12-14 12:25:25 1513272325.190135: $GPGSA,A,3,21,10,20,24,18,15,,,,,,,6.6,2.2,6.2*3D
2017-12-14 12:25:26 1513272326.524955: $GPGSV,3,1,12,21,60,186,26,10,44,303,26,32,23,240,11,20,32,097,25*7F
2017-12-14 12:25:26 1513272326.525117: $GPGSV,3,2,12,24,52,106,29,27,19,286,00,18,73,345,20,15,35,054,17*7F
2017-12-14 12:25:26 1513272326.525182: $GPGSV,3,3,12,08,06,321,00,14,06,234,00,13,05,049,00,120,07,103,00*4E
2017-12-14 12:25:26 1513272326.638078: $GPZDA,172527.00,14,12,2017,00,00*60
2017-12-14 12:25:26 1513272326.638230: $GPGGA,172527,3946.9565,N,08404.9355,W,1,06,2.20,363.37,M,-33.324,M,,*7D
2017-12-14 12:25:26 1513272326.638293: $GPRMC,172527,A,3946.9565,N,08404.9355,W,1.5933,53.668,141217,,*0D
2017-12-14 12:25:26 1513272326.638352: $GPGSA,A,3,21,10,20,24,18,15,,,,,,,6.6,2.2,6.2*3D
2017-12-14 12:25:27 1513272327.188376: $GPZDA,172528.00,14,12,2017,00,00*6F
2017-12-14 12:25:27 1513272327.188561: $GPGGA,172528,3946.9570,N,08404.9355,W,1,06,2.20,364.01,M,-33.324,M,,*74
2017-12-14 12:25:27 1513272327.188628: $GPRMC,172528,A,3946.9570,N,08404.9355,W,1.8343,45.514,141217,,*09
2017-12-14 12:25:27 1513272327.188689: $GPGSA,A,3,21,10,20,24,18,15,,,,,,,6.6,2.2,6.2*3D
2017-12-14 12:25:28 1513272328.188437: $GPZDA,172529.00,14,12,2017,00,00*6E
2017-12-14 12:25:28 1513272328.188605: $GPGGA,172529,3946.9573,N,08404.9347,W,1,06,2.20,363.33,M,-33.324,M,,*73
2017-12-14 12:25:28 1513272328.188671: $GPRMC,172529,A,3946.9573,N,08404.9347,W,1.6828,39.347,141217,,*0B
2017-12-14 12:25:28 1513272328.188732: $GPGSA,A,3,21,10,20,24,18,15,,,,,,,6.6,2.2,6.2*3D
