2017-11-16 15:19:34 1510863574.605738: {"class":"VERSION","release":"3.17","rev":"3.17","proto_major":3,"proto_minor":12}
2017-11-16 15:19:34 1510863574.606230: {"class":"DEVICES","devices":[{"class":"DEVICE","path":"/dev/ttyUSB0","driver":"SiRF","subtype":"9\u0006GSD4e_4.1.2-P1_RPATCH.05-F-GPS-4R-1510281 11/03/2015 307","activated":"2017-11-16T20:19:34.279Z","flags":1,"native":1,"bps":4800,"parity":"N","stopbits":1,"cycle":1.00}]}
2017-11-16 15:19:34 1510863574.606348: {"class":"WATCH","enable":true,"json":false,"nmea":true,"raw":0,"scaled":false,"timing":false,"split24":false,"pps":false}
2017-11-16 15:19:34 1510863574.727599: $GPGSV,3,1,12,08,06,295,02,10,67,327,51,14,27,252,46,15,13,064,36*7E
2017-11-16 15:19:34 1510863574.727769: $GPGSV,3,2,12,18,72,087,47,20,10,117,23,21,32,180,45,24,46,061,50*72
2017-11-16 15:19:34 1510863574.727829: $GPGSV,3,3,12,27,08,262,35,32,44,262,48,12,08,109,29,138,38,213,45*44
2017-11-16 15:19:34 1510863574.841283: $GPZDA,201933.00,16,11,2017,00,00*6F
2017-11-16 15:19:34 1510863574.841452: $GPGGA,201933,3946.9578,N,08404.9857,W,2,11,1.00,305.91,M,-33.324,M,,*7E
2017-11-16 15:19:34 1510863574.841513: $GPRMC,201933,A,3946.9578,N,08404.9857,W,0.0000,0.000,161117,,*34
2017-11-16 15:19:34 1510863574.841568: $GPGSA,A,3,10,14,15,18,20,21,24,27,32,12,138,,1.6,1.0,1.3*05
2017-11-16 15:19:35 1510863575.390681: $GPZDA,201934.00,16,11,2017,00,00*68
2017-11-16 15:19:35 1510863575.390854: $GPGGA,201934,3946.9578,N,08404.9857,W,2,11,1.00,305.91,M,-33.324,M,,*79
2017-11-16 15:19:35 1510863575.390917: $GPRMC,201934,A,3946.9578,N,08404.9857,W,0.0000,0.000,161117,,*33
2017-11-16 15:19:35 1510863575.390973: $GPGSA,A,3,10,14,15,18,20,21,24,27,32,12,138,,1.6,1.0,1.3*05
2017-11-16 15:19:36 1510863576.374616: $GPZDA,201935.00,16,11,2017,00,00*69
2017-11-16 15:19:36 1510863576.374771: $GPGGA,201935,3946.9578,N,08404.9857,W,2,11,0.80,305.91,M,-33.324,M,,*71
2017-11-16 15:19:36 1510863576.374834: $GPRMC,201935,A,3946.9578,N,08404.9857,W,0.0000,0.000,161117,,*32
2017-11-16 15:19:36 1510863576.374890: $GPGSA,A,3,10,14,15,18,20,21,24,27,32,12,138,,1.6,0.8,1.3*0C
2017-11-16 15:19:37 1510863577.730656: $GPGSV,3,1,12,08,06,295,25,10,67,327,51,14,27,252,46,15,13,064,36*7B
2017-11-16 15:19:37 1510863577.730840: $GPGSV,3,2,12,18,72,087,47,20,10,117,22,21,32,180,46,24,46,061,50*70
2017-11-16 15:19:37 1510863577.730903: $GPGSV,3,3,12,27,08,262,35,32,44,262,48,12,08,109,23,138,38,213,45*4E
2017-11-16 15:19:37 1510863577.843061: $GPZDA,201936.00,16,11,2017,00,00*6A
2017-11-16 15:19:37 1510863577.843234: $GPGGA,201936,3946.9578,N,08404.9857,W,2,12,0.80,305.91,M,-33.324,M,,*71
2017-11-16 15:19:37 1510863577.843297: $GPRMC,201936,A,3946.9578,N,08404.9857,W,0.0000,0.000,161117,,*31
2017-11-16 15:19:37 1510863577.843353: $GPGSA,A,3,8,10,14,15,18,20,21,24,27,32,12,138,1.6,0.8,1.3*34
2017-11-16 15:19:38 1510863578.373631: $GPZDA,201937.00,16,11,2017,00,00*6B
2017-11-16 15:19:38 1510863578.373791: $GPGGA,201937,3946.9578,N,08404.9857,W,2,12,0.80,305.91,M,-33.324,M,,*70
2017-11-16 15:19:38 1510863578.373852: $GPRMC,201937,A,3946.9578,N,08404.9857,W,0.0000,0.000,161117,,*30
2017-11-16 15:19:38 1510863578.373912: $GPGSA,A,3,8,10,14,15,18,20,21,24,27,32,12,138,1.6,0.8,1.3*34
2017-11-16 15:19:39 1510863579.374469: $GPZDA,201938.00,16,11,2017,00,00*64
2017-11-16 15:19:39 1510863579.374623: $GPGGA,201938,3946.9578,N,08404.9857,W,2,12,0.80,305.91,M,-33.324,M,,*7F
2017-11-16 15:19:39 1510863579.374684: $GPRMC,201938,A,3946.9578,N,08404.9857,W,0.0000,0.000,161117,,*3F
2017-11-16 15:19:39 1510863579.374743: $GPGSA,A,3,8,10,14,15,18,20,21,24,27,32,12,138,1.6,0.8,1.3*34
2017-11-16 15:19:40 1510863580.721245: $GPGSV,3,1,12,08,06,295,28,10,67,327,51,14,27,252,45,15,13,064,37*74
2017-11-16 15:19:40 1510863580.721419: $GPGSV,3,2,12,18,72,087,47,20,10,117,22,21,32,180,45,24,46,061,50*73
2017-11-16 15:19:40 1510863580.721480: $GPGSV,3,3,12,27,08,262,35,32,44,262,47,12,08,109,21,138,38,213,44*42
2017-11-16 15:19:40 1510863580.834821: $GPZDA,201939.00,16,11,2017,00,00*65
2017-11-16 15:19:40 1510863580.834981: $GPGGA,201939,3946.9578,N,08404.9857,W,2,12,0.80,305.91,M,-33.324,M,,*7E
2017-11-16 15:19:40 1510863580.835095: $GPRMC,201939,A,3946.9578,N,08404.9857,W,0.0000,0.000,161117,,*3E
2017-11-16 15:19:40 1510863580.835152: $GPGSA,A,3,8,10,14,15,18,20,21,24,27,32,12,138,1.6,0.8,1.3*34
2017-11-16 15:19:41 1510863581.460193: $GPZDA,201940.00,16,11,2017,00,00*6B
2017-11-16 15:19:41 1510863581.460408: $GPGGA,201940,3946.9578,N,08404.9857,W,2,12,0.80,305.91,M,-33.324,M,,*70
2017-11-16 15:19:41 1510863581.460474: $GPRMC,201940,A,3946.9578,N,08404.9857,W,0.0000,0.000,161117,,*30
2017-11-16 15:19:41 1510863581.460532: $GPGSA,A,3,8,10,14,15,18,20,21,24,27,32,12,138,1.6,0.8,1.3*34
2017-11-16 15:19:42 1510863582.373542: $GPZDA,201941.00,16,11,2017,00,00*6A
2017-11-16 15:19:42 1510863582.373706: $GPGGA,201941,3946.9578,N,08404.9857,W,2,12,0.80,305.91,M,-33.324,M,,*71
2017-11-16 15:19:42 1510863582.373771: $GPRMC,201941,A,3946.9578,N,08404.9857,W,0.0000,0.000,161117,,*31
2017-11-16 15:19:42 1510863582.373827: $GPGSA,A,3,8,10,14,15,18,20,21,24,27,32,12,138,1.6,0.8,1.3*34
2017-11-16 15:19:43 1510863583.710392: $GPGSV,3,1,12,08,06,295,28,10,67,327,51,14,27,252,46,15,13,064,37*77
2017-11-16 15:19:43 1510863583.710662: $GPGSV,3,2,12,18,72,087,47,20,10,117,22,21,32,180,45,24,46,061,50*73
2017-11-16 15:19:43 1510863583.710734: $GPGSV,3,3,12,27,08,262,35,32,44,262,47,12,08,109,27,138,38,213,44*44
2017-11-16 15:19:43 1510863583.824100: $GPZDA,201942.00,16,11,2017,00,00*69
2017-11-16 15:19:43 1510863583.824260: $GPGGA,201942,3946.9578,N,08404.9857,W,2,12,0.80,305.91,M,-33.324,M,,*72
2017-11-16 15:19:43 1510863583.824322: $GPRMC,201942,A,3946.9578,N,08404.9857,W,0.0000,0.000,161117,,*32
2017-11-16 15:19:43 1510863583.824378: $GPGSA,A,3,8,10,14,15,18,20,21,24,27,32,12,138,1.6,0.8,1.3*34
2017-11-16 15:19:44 1510863584.374414: $GPZDA,201943.00,16,11,2017,00,00*68
2017-11-16 15:19:44 1510863584.374600: $GPGGA,201943,3946.9578,N,08404.9857,W,2,12,0.80,305.91,M,-33.324,M,,*73
2017-11-16 15:19:44 1510863584.374664: $GPRMC,201943,A,3946.9578,N,08404.9857,W,0.0000,0.000,161117,,*33
2017-11-16 15:19:44 1510863584.374728: $GPGSA,A,3,8,10,14,15,18,20,21,24,27,32,12,138,1.6,0.8,1.3*34
