2018-01-12 03:36:50 1515746210.824577: {"class":"VERSION","release":"3.16","rev":"3.16-4","proto_major":3,"proto_minor":11}
2018-01-12 03:36:50 1515746210.824954: {"class":"DEVICES","devices":[{"class":"DEVICE","path":"/dev/ttyUSB0","driver":"SiRF","subtype":"9\u0006GSD4e_4.1.2-P1_RPATCH.05-F-GPS-4R-1510281 11/03/2015 307","activated":"2018-01-12T08:36:50.777Z","flags":1,"native":1,"bps":4800,"parity":"N","stopbits":1,"cycle":1.00}]}
2018-01-12 03:36:50 1515746210.825074: {"class":"WATCH","enable":true,"json":false,"nmea":true,"raw":0,"scaled":false,"timing":false,"split24":false,"pps":false}
2018-01-12 03:36:50 1515746210.953734: $GPZDA,083651.64,12,01,2018,00,00*64
2018-01-12 03:36:50 1515746210.953913: $GPGGA,083651,3946.9596,N,08404.9838,W,1,11,1.00,312.92,M,-33.324,M,,*72
2018-01-12 03:36:50 1515746210.953978: $GPRMC,083651,A,3946.9596,N,08404.9838,W,0.2172,85.763,120118,,*0D
2018-01-12 03:36:50 1515746210.954043: $GPGSA,A,3,2,5,6,12,17,19,25,9,23,24,138,,2.4,1.0,2.1*09
2018-01-12 03:36:50 1515746210.954101: $GPGBS,083651,11.98,M,14.47,M,47.88,M*03
2018-01-12 03:36:51 1515746211.887103: $GPZDA,083652.33,12,01,2018,00,00*65
2018-01-12 03:36:51 1515746211.887258: $GPGGA,083652,3946.9591,N,08404.9838,W,1,11,1.00,312.28,M,-33.324,M,,*77
2018-01-12 03:36:51 1515746211.887324: $GPRMC,083652,A,3946.9591,N,08404.9838,W,0.7246,164.667,120118,,*33
2018-01-12 03:36:51 1515746211.887386: $GPGSA,A,3,2,5,6,12,17,19,25,9,23,24,138,,2.4,1.0,2.1*09
2018-01-12 03:36:51 1515746211.887444: $GPGBS,083652,11.98,M,14.47,M,47.88,M*00
2018-01-12 03:36:53 1515746213.029676: $GPGSV,3,1,12,02,66,291,47,05,28,195,47,06,63,033,44,12,52,288,51*73
2018-01-12 03:36:53 1515746213.029838: $GPGSV,3,2,12,17,30,106,44,19,48,096,39,25,20,316,44,09,14,087,08*72
2018-01-12 03:36:53 1515746213.029923: $GPGSV,3,3,12,23,09,054,09,24,02,244,06,04,39,262,00,138,38,213,00*43
2018-01-12 03:36:53 1515746213.143064: $GPZDA,083653.00,12,01,2018,00,00*64
2018-01-12 03:36:53 1515746213.143218: $GPGGA,083653,3946.9591,N,08404.9837,W,1,07,1.00,310.87,M,-33.324,M,,*79
2018-01-12 03:36:53 1515746213.143302: $GPRMC,083653,A,3946.9591,N,08404.9837,W,0.3155,129.994,120118,,*32
2018-01-12 03:36:53 1515746213.143365: $GPGSA,A,3,2,5,6,12,17,19,25,,,,,,2.4,1.0,2.1*0D
2018-01-12 03:36:53 1515746213.593938: $GPZDA,083654.00,12,01,2018,00,00*63
2018-01-12 03:36:53 1515746213.594116: $GPGGA,083654,3946.9591,N,08404.9837,W,1,07,0.80,310.87,M,-33.324,M,,*77
2018-01-12 03:36:53 1515746213.594240: $GPRMC,083654,A,3946.9591,N,08404.9837,W,0.2422,93.794,120118,,*0F
2018-01-12 03:36:53 1515746213.594311: $GPGSA,A,3,2,5,6,12,17,19,25,,,,,,2.4,0.8,2.1*04
2018-01-12 03:36:54 1515746214.346094: $GPZDA,083655.00,12,01,2018,00,00*62
2018-01-12 03:36:54 1515746214.346286: $GPGGA,083655,3946.9590,N,08404.9844,W,1,07,0.80,309.39,M,-33.324,M,,*7E
2018-01-12 03:36:54 1515746214.346352: $GPRMC,083655,A,3946.9590,N,08404.9844,W,0.0000,0.000,120118,,*3D
2018-01-12 03:36:54 1515746214.346413: $GPGSA,A,3,2,5,6,12,17,19,25,,,,,,2.4,0.8,2.1*04
2018-01-12 03:36:55 1515746215.685058: $GPGSV,3,1,12,02,66,291,47,05,28,195,47,06,63,033,45,12,52,288,52*71
2018-01-12 03:36:55 1515746215.685215: $GPGSV,3,2,12,17,30,106,45,19,48,096,39,25,20,316,44,09,14,087,27*7E
2018-01-12 03:36:55 1515746215.685296: $GPGSV,3,3,12,23,09,054,30,24,02,244,16,04,39,262,00,138,38,213,19*40
2018-01-12 03:36:55 1515746215.798421: $GPZDA,083656.00,12,01,2018,00,00*61
2018-01-12 03:36:55 1515746215.798566: $GPGGA,083656,3946.9590,N,08404.9843,W,1,11,0.80,307.99,M,-33.324,M,,*79
2018-01-12 03:36:55 1515746215.798631: $GPRMC,083656,A,3946.9590,N,08404.9843,W,0.0000,0.000,120118,,*39
2018-01-12 03:36:55 1515746215.798692: $GPGSA,A,3,2,5,6,12,17,19,25,9,23,24,138,,2.4,0.8,2.1*00
2018-01-12 03:36:56 1515746216.349323: $GPZDA,083657.00,12,01,2018,00,00*60
2018-01-12 03:36:56 1515746216.349486: $GPGGA,083657,3946.9585,N,08404.9843,W,1,11,0.80,307.35,M,-33.324,M,,*7A
2018-01-12 03:36:56 1515746216.349552: $GPRMC,083657,A,3946.9585,N,08404.9843,W,0.0000,0.000,120118,,*3C
2018-01-12 03:36:56 1515746216.349614: $GPGSA,A,3,2,5,6,12,17,19,25,9,23,24,138,,2.4,0.8,2.1*00
