2017-12-01 18:15:40 1512170140.786675: {"class":"VERSION","release":"3.16","rev":"3.16-4","proto_major":3,"proto_minor":11}
2017-12-01 18:15:40 1512170140.787059: {"class":"DEVICES","devices":[{"class":"DEVICE","path":"/dev/ttyUSB0","driver":"SiRF","subtype":"9\u0006GSD4e_4.1.2-P1_RPATCH.05-F-GPS-4R-1510281 11/03/2015 307","activated":"2017-12-01T23:15:40.489Z","flags":1,"native":1,"bps":4800,"parity":"N","stopbits":1,"cycle":1.00}]}
2017-12-01 18:15:40 1512170140.787184: {"class":"WATCH","enable":true,"json":false,"nmea":true,"raw":0,"scaled":false,"timing":false,"split24":false,"pps":false}
2017-12-01 18:15:41 1512170141.717176: $GPGSV,3,1,12,01,08,256,38,03,38,303,46,14,58,085,43,16,19,189,44*7C
2017-12-01 18:15:41 1512170141.717370: $GPGSV,3,2,12,22,50,277,46,23,08,298,42,25,21,042,39,26,49,174,46*73
2017-12-01 18:15:41 1512170141.717438: $GPGSV,3,3,12,31,70,019,47,32,39,105,42,29,09,076,14,138,38,213,46*48
2017-12-01 18:15:41 1512170141.830849: $GPZDA,231542.00,01,12,2017,00,00*63
2017-12-01 18:15:41 1512170141.831012: $GPGGA,231542,3946.9729,N,08404.9844,W,2,11,0.80,294.15,M,-33.325,M,,*7E
2017-12-01 18:15:41 1512170141.831078: $GPRMC,231542,A,3946.9729,N,08404.9844,W,0.0000,0.000,011217,,*3C
2017-12-01 18:15:41 1512170141.831139: $GPGSA,A,3,1,3,14,16,22,23,25,26,31,32,138,,2.0,0.8,1.5*07
2017-12-01 18:15:42 1512170142.350291: $GPZDA,231543.00,01,12,2017,00,00*62
2017-12-01 18:15:42 1512170142.350460: $GPGGA,231543,3946.9729,N,08404.9844,W,2,11,0.80,294.15,M,-33.325,M,,*7F
2017-12-01 18:15:42 1512170142.350530: $GPRMC,231543,A,3946.9729,N,08404.9844,W,0.0000,0.000,011217,,*3D
2017-12-01 18:15:42 1512170142.350591: $GPGSA,A,3,1,3,14,16,22,23,25,26,31,32,138,,2.0,0.8,1.5*07
2017-12-01 18:15:43 1512170143.351885: $GPZDA,231544.00,01,12,2017,00,00*65
2017-12-01 18:15:43 1512170143.352062: $GPGGA,231544,3946.9729,N,08404.9844,W,2,11,0.80,294.15,M,-33.325,M,,*78
2017-12-01 18:15:43 1512170143.352129: $GPRMC,231544,A,3946.9729,N,08404.9844,W,0.0000,0.000,011217,,*3A
2017-12-01 18:15:43 1512170143.352191: $GPGSA,A,3,1,3,14,16,22,23,25,26,31,32,138,,2.0,0.8,1.5*07
2017-12-01 18:15:44 1512170144.716279: $GPGSV,3,1,12,01,08,256,38,03,38,303,47,14,58,085,43,16,19,189,43*7A
2017-12-01 18:15:44 1512170144.716460: $GPGSV,3,2,12,22,50,277,46,23,08,298,42,25,21,042,39,26,49,174,46*73
2017-12-01 18:15:44 1512170144.716527: $GPGSV,3,3,12,31,70,019,47,32,39,105,42,29,09,076,22,138,38,213,45*4E
2017-12-01 18:15:44 1512170144.829903: $GPZDA,231545.00,01,12,2017,00,00*64
2017-12-01 18:15:44 1512170144.830073: $GPGGA,231545,3946.9729,N,08404.9844,W,2,11,0.80,294.15,M,-33.325,M,,*79
2017-12-01 18:15:44 1512170144.830141: $GPRMC,231545,A,3946.9729,N,08404.9844,W,0.0000,0.000,011217,,*3B
2017-12-01 18:15:44 1512170144.830202: $GPGSA,A,3,1,3,14,16,22,23,25,26,31,32,138,,2.0,0.8,1.5*07
2017-12-01 18:15:45 1512170145.381832: $GPZDA,231546.00,01,12,2017,00,00*67
2017-12-01 18:15:45 1512170145.382003: $GPGGA,231546,3946.9729,N,08404.9844,W,2,11,0.80,294.15,M,-33.325,M,,*7A
2017-12-01 18:15:45 1512170145.382071: $GPRMC,231546,A,3946.9729,N,08404.9844,W,0.0000,0.000,011217,,*38
2017-12-01 18:15:45 1512170145.382132: $GPGSA,A,3,1,3,14,16,22,23,25,26,31,32,138,,2.0,0.8,1.5*07
2017-12-01 18:15:46 1512170146.350413: $GPZDA,231547.00,01,12,2017,00,00*66
2017-12-01 18:15:46 1512170146.350583: $GPGGA,231547,3946.9729,N,08404.9844,W,2,11,0.80,294.15,M,-33.325,M,,*7B
2017-12-01 18:15:46 1512170146.350649: $GPRMC,231547,A,3946.9729,N,08404.9844,W,0.0000,0.000,011217,,*39
2017-12-01 18:15:46 1512170146.350709: $GPGSA,A,3,1,3,14,16,22,23,25,26,31,32,138,,2.0,0.8,1.5*07
2017-12-01 18:15:47 1512170147.717100: $GPGSV,3,1,12,01,08,256,37,03,38,303,47,14,58,085,43,16,19,189,43*75
2017-12-01 18:15:47 1512170147.717287: $GPGSV,3,2,12,22,50,277,46,23,08,298,42,25,21,042,40,26,49,174,46*7D
2017-12-01 18:15:47 1512170147.717354: $GPGSV,3,3,12,31,70,019,46,32,39,105,42,10,01,159,21,138,38,213,46*41
2017-12-01 18:15:47 1512170147.830934: $GPZDA,231548.00,01,12,2017,00,00*69
2017-12-01 18:15:47 1512170147.831106: $GPGGA,231548,3946.9729,N,08404.9844,W,2,12,0.80,294.15,M,-33.325,M,,*77
2017-12-01 18:15:47 1512170147.831225: $GPRMC,231548,A,3946.9729,N,08404.9844,W,0.0000,0.000,011217,,*36
2017-12-01 18:15:47 1512170147.831287: $GPGSA,A,3,1,3,14,16,22,23,25,26,31,32,10,138,2.0,0.8,1.5*06
2017-12-01 18:15:48 1512170148.455924: $GPZDA,231549.00,01,12,2017,00,00*68
2017-12-01 18:15:48 1512170148.456094: $GPGGA,231549,3946.9729,N,08404.9844,W,2,12,0.80,294.15,M,-33.325,M,,*76
2017-12-01 18:15:48 1512170148.456160: $GPRMC,231549,A,3946.9729,N,08404.9844,W,0.0000,0.000,011217,,*37
2017-12-01 18:15:48 1512170148.456221: $GPGSA,A,3,1,3,14,16,22,23,25,26,31,32,10,138,2.0,0.8,1.5*06
2017-12-01 18:15:49 1512170149.352045: $GPZDA,231550.00,01,12,2017,00,00*60
2017-12-01 18:15:49 1512170149.352212: $GPGGA,231550,3946.9729,N,08404.9844,W,2,12,0.60,294.15,M,-33.325,M,,*70
2017-12-01 18:15:49 1512170149.352280: $GPRMC,231550,A,3946.9729,N,08404.9844,W,0.0000,0.000,011217,,*3F
2017-12-01 18:15:49 1512170149.352341: $GPGSA,A,3,1,3,14,16,22,23,25,26,31,32,10,138,2.0,0.6,1.5*08
2017-12-01 18:15:50 1512170150.686290: $GPGSV,3,1,12,01,08,256,37,03,38,303,47,14,58,085,43,16,19,189,43*75
2017-12-01 18:15:50 1512170150.686461: $GPGSV,3,2,12,22,50,277,46,23,08,298,42,25,21,042,40,26,49,174,47*7C
2017-12-01 18:15:50 1512170150.686529: $GPGSV,3,3,12,31,70,019,46,32,39,105,41,29,09,076,23,138,38,213,46*4E
2017-12-01 18:15:50 1512170150.798290: $GPZDA,231551.00,01,12,2017,00,00*61
2017-12-01 18:15:50 1512170150.798465: $GPGGA,231551,3946.9729,N,08404.9844,W,2,12,0.60,294.15,M,-33.325,M,,*71
2017-12-01 18:15:50 1512170150.798533: $GPRMC,231551,A,3946.9729,N,08404.9844,W,0.0000,0.000,011217,,*3E
2017-12-01 18:15:50 1512170150.798615: $GPGSA,A,3,1,3,14,16,22,23,25,26,31,32,29,138,2.0,0.6,1.5*02
2017-12-01 18:15:51 1512170151.349182: $GPZDA,231552.00,01,12,2017,00,00*62
2017-12-01 18:15:51 1512170151.349348: $GPGGA,231552,3946.9729,N,08404.9844,W,2,12,0.80,294.15,M,-33.325,M,,*7C
2017-12-01 18:15:51 1512170151.349416: $GPRMC,231552,A,3946.9729,N,08404.9844,W,0.0000,0.000,011217,,*3D
2017-12-01 18:15:51 1512170151.349477: $GPGSA,A,3,1,3,14,16,22,23,25,26,31,32,29,138,2.0,0.8,1.5*0C
2017-12-01 18:15:52 1512170152.349113: $GPZDA,231553.00,01,12,2017,00,00*63
2017-12-01 18:15:52 1512170152.349285: $GPGGA,231553,3946.9729,N,08404.9844,W,2,12,0.80,294.15,M,-33.325,M,,*7D
2017-12-01 18:15:52 1512170152.349368: $GPRMC,231553,A,3946.9729,N,08404.9844,W,0.0000,0.000,011217,,*3C
2017-12-01 18:15:52 1512170152.349431: $GPGSA,A,3,1,3,14,16,22,23,25,26,31,32,29,138,2.0,0.8,1.5*0C
2017-12-01 18:15:53 1512170153.685319: $GPGSV,3,1,12,01,08,256,36,03,38,303,46,14,58,085,43,16,19,189,43*75
2017-12-01 18:15:53 1512170153.685501: $GPGSV,3,2,12,22,50,277,46,23,08,298,42,25,21,042,40,26,49,174,47*7C
2017-12-01 18:15:53 1512170153.685567: $GPGSV,3,3,12,31,70,019,47,32,39,105,41,10,01,159,20,138,38,213,46*42
2017-12-01 18:15:53 1512170153.798675: $GPZDA,231554.00,01,12,2017,00,00*64
2017-12-01 18:15:53 1512170153.798843: $GPGGA,231554,3946.9733,N,08404.9844,W,2,12,0.80,293.38,M,-33.325,M,,*79
2017-12-01 18:15:53 1512170153.798908: $GPRMC,231554,A,3946.9733,N,08404.9844,W,0.0000,0.000,011217,,*30
2017-12-01 18:15:53 1512170153.798969: $GPGSA,A,3,1,3,14,16,22,23,25,26,31,32,10,138,2.0,0.8,1.5*06
2017-12-01 18:15:54 1512170154.349812: $GPZDA,231555.00,01,12,2017,00,00*65
2017-12-01 18:15:54 1512170154.350000: $GPGGA,231555,3946.9733,N,08404.9844,W,2,12,0.80,293.38,M,-33.325,M,,*78
2017-12-01 18:15:54 1512170154.350097: $GPRMC,231555,A,3946.9733,N,08404.9844,W,0.0000,0.000,011217,,*31
2017-12-01 18:15:54 1512170154.350203: $GPGSA,A,3,1,3,14,16,22,23,25,26,31,32,10,138,2.0,0.8,1.5*06
2017-12-01 18:15:55 1512170155.351715: $GPZDA,231556.00,01,12,2017,00,00*66
2017-12-01 18:15:55 1512170155.351919: $GPGGA,231556,3946.9733,N,08404.9844,W,2,12,0.80,293.38,M,-33.325,M,,*7B
2017-12-01 18:15:56 1512170156.331503: $GPRMC,231556,A,3946.9733,N,08404.9844,W,0.0000,0.000,011217,,*32
2017-12-01 18:15:56 1512170156.331679: $GPGSA,A,3,1,3,14,16,22,23,25,26,31,32,10,138,2.0,0.8,1.5*06
2017-12-01 18:15:56 1512170156.678644: $GPGSV,3,1,12,01,08,256,36,03,38,303,46,14,58,085,43,16,19,189,43*75
2017-12-01 18:15:56 1512170156.678870: $GPGSV,3,2,12,22,50,277,46,23,08,298,42,25,21,042,39,26,49,174,47*72
2017-12-01 18:15:56 1512170156.678939: $GPGSV,3,3,12,31,70,019,47,32,39,105,41,10,01,159,21,138,38,213,46*43
2017-12-01 18:15:56 1512170156.792056: $GPZDA,231557.00,01,12,2017,00,00*67
2017-12-01 18:15:56 1512170156.792233: $GPGGA,231557,3946.9733,N,08404.9844,W,2,12,0.80,293.38,M,-33.325,M,,*7A
2017-12-01 18:15:56 1512170156.792301: $GPRMC,231557,A,3946.9733,N,08404.9844,W,0.0000,0.000,011217,,*33
2017-12-01 18:15:56 1512170156.792362: $GPGSA,A,3,1,3,14,16,22,23,25,26,31,32,10,138,2.0,0.8,1.5*06
2017-12-01 18:15:57 1512170157.349103: $GPZDA,231558.00,01,12,2017,00,00*68
2017-12-01 18:15:57 1512170157.349284: $GPGGA,231558,3946.9733,N,08404.9844,W,2,12,0.80,293.38,M,-33.325,M,,*75
2017-12-01 18:15:57 1512170157.349350: $GPRMC,231558,A,3946.9733,N,08404.9844,W,0.0000,0.000,011217,,*3C
2017-12-01 18:15:57 1512170157.349414: $GPGSA,A,3,1,3,14,16,22,23,25,26,31,32,10,138,2.0,0.8,1.5*06
2017-12-01 18:15:58 1512170158.349652: $GPZDA,231559.00,01,12,2017,00,00*69
2017-12-01 18:15:58 1512170158.349833: $GPGGA,231559,3946.9733,N,08404.9844,W,2,12,0.80,293.38,M,-33.325,M,,*74
2017-12-01 18:15:58 1512170158.349902: $GPRMC,231559,A,3946.9733,N,08404.9844,W,0.0000,0.000,011217,,*3D
2017-12-01 18:15:58 1512170158.349963: $GPGSA,A,3,1,3,14,16,22,23,25,26,31,32,10,138,2.0,0.8,1.5*06
2017-12-01 18:15:59 1512170159.685191: $GPGSV,3,1,12,01,08,256,36,03,38,303,46,14,58,085,43,16,19,189,43*75
2017-12-01 18:15:59 1512170159.685389: $GPGSV,3,2,12,22,50,277,46,23,08,298,42,25,21,042,39,26,49,174,47*72
2017-12-01 18:15:59 1512170159.685457: $GPGSV,3,3,12,31,70,019,47,32,39,105,40,10,01,159,21,138,38,213,46*42
2017-12-01 18:15:59 1512170159.798617: $GPZDA,231600.00,01,12,2017,00,00*66
2017-12-01 18:15:59 1512170159.798793: $GPGGA,231600,3946.9733,N,08404.9844,W,2,12,0.80,293.38,M,-33.325,M,,*7B
2017-12-01 18:15:59 1512170159.798862: $GPRMC,231600,A,3946.9733,N,08404.9844,W,0.0000,0.000,011217,,*32
2017-12-01 18:15:59 1512170159.798923: $GPGSA,A,3,1,3,14,16,22,23,25,26,31,32,10,138,2.0,0.8,1.5*06
2017-12-01 18:16:00 1512170160.353665: $GPZDA,231601.00,01,12,2017,00,00*67
2017-12-01 18:16:00 1512170160.353887: $GPGGA,231601,3946.9733,N,08404.9844,W,2,12,0.80,293.38,M,-33.325,M,,*7A
2017-12-01 18:16:00 1512170160.353990: $GPRMC,231601,A,3946.9733,N,08404.9844,W,0.0000,0.000,011217,,*33
2017-12-01 18:16:00 1512170160.354062: $GPGSA,A,3,1,3,14,16,22,23,25,26,31,32,10,138,2.0,0.8,1.5*06
