2017-12-29 11:11:15 1514563875.669758: {"class":"VERSION","release":"3.16","rev":"3.16-4","proto_major":3,"proto_minor":11}
2017-12-29 11:11:15 1514563875.670084: {"class":"DEVICES","devices":[{"class":"DEVICE","path":"/dev/ttyUSB0","driver":"SiRF","subtype":"9\u0006GSD4e_4.1.2-P1_RPATCH.05-F-GPS-4R-1510281 11/03/2015 307","activated":"2017-12-29T16:11:15.302Z","flags":1,"native":1,"bps":4800,"parity":"N","stopbits":1,"cycle":1.00}]}
2017-12-29 11:11:15 1514563875.670216: {"class":"WATCH","enable":true,"json":false,"nmea":true,"raw":0,"scaled":false,"timing":false,"split24":false,"pps":false}
2017-12-29 11:11:15 1514563875.908556: $GPZDA,161116.57,29,12,2017,00,00*68
2017-12-29 11:11:15 1514563875.908727: $GPGGA,161116,3946.9566,N,08404.9858,W,1,11,1.00,305.39,M,-33.324,M,,*75
2017-12-29 11:11:15 1514563875.908794: $GPRMC,161116,A,3946.9566,N,08404.9858,W,0.4757,350.910,291217,,*3E
2017-12-29 11:11:15 1514563875.908855: $GPGSA,A,3,8,10,15,18,20,21,24,27,32,13,138,,1.7,1.0,1.3*38
2017-12-29 11:11:15 1514563875.908914: $GPGBS,161116,10.91,M,10.38,M,30.89,M*0F
2017-12-29 11:11:16 1514563876.991551: $GPZDA,161117.25,29,12,2017,00,00*6C
2017-12-29 11:11:16 1514563876.991715: $GPGGA,161117,3946.9574,N,08404.9857,W,1,11,1.00,305.27,M,-33.324,M,,*77
2017-12-29 11:11:16 1514563876.991782: $GPRMC,161117,A,3946.9574,N,08404.9857,W,0.4315,34.066,291217,,*08
2017-12-29 11:11:16 1514563876.991842: $GPGSA,A,3,8,10,15,18,20,21,24,27,32,13,138,,1.7,1.0,1.3*38
2017-12-29 11:11:18 1514563878.132692: $GPGSV,3,1,12,08,05,325,34,10,40,300,43,15,39,052,49,18,70,333,43*79
2017-12-29 11:11:18 1514563878.132854: $GPGSV,3,2,12,20,36,093,50,21,66,192,47,24,49,114,48,27,19,292,37*7A
2017-12-29 11:11:18 1514563878.132920: $GPGSV,3,3,12,32,20,237,38,13,10,048,00,14,01,231,00,138,38,213,15*4A
2017-12-29 11:11:18 1514563878.246091: $GPZDA,161118.00,29,12,2017,00,00*64
2017-12-29 11:11:18 1514563878.246239: $GPGGA,161118,3946.9574,N,08404.9857,W,1,10,1.00,305.27,M,-33.324,M,,*79
2017-12-29 11:11:18 1514563878.246306: $GPRMC,161118,A,3946.9574,N,08404.9857,W,0.1567,189.200,291217,,*34
2017-12-29 11:11:18 1514563878.246384: $GPGSA,A,3,8,10,15,18,20,21,24,27,32,138,,,1.7,1.0,1.3*3A
2017-12-29 11:11:18 1514563878.698248: $GPZDA,161119.00,29,12,2017,00,00*65
2017-12-29 11:11:18 1514563878.698425: $GPGGA,161119,3946.9577,N,08404.9856,W,1,10,1.00,304.50,M,-33.324,M,,*7B
2017-12-29 11:11:18 1514563878.698490: $GPRMC,161119,A,3946.9577,N,08404.9856,W,0.0000,0.000,291217,,*30
2017-12-29 11:11:18 1514563878.698551: $GPGSA,A,3,8,10,15,18,20,21,24,27,32,138,,,1.7,1.0,1.3*3A
2017-12-29 11:11:19 1514563879.397892: $GPZDA,161120.00,29,12,2017,00,00*6F
2017-12-29 11:11:19 1514563879.398046: $GPGGA,161120,3946.9577,N,08404.9856,W,1,10,1.00,304.50,M,-33.324,M,,*71
2017-12-29 11:11:19 1514563879.398112: $GPRMC,161120,A,3946.9577,N,08404.9856,W,0.0000,0.000,291217,,*3A
2017-12-29 11:11:19 1514563879.398173: $GPGSA,A,3,8,10,15,18,20,21,24,27,32,138,,,1.7,1.0,1.3*3A
2017-12-29 11:11:20 1514563880.734284: $GPGSV,3,1,12,08,05,325,34,10,40,300,42,15,39,052,49,18,70,333,43*78
2017-12-29 11:11:20 1514563880.734486: $GPGSV,3,2,12,20,36,093,49,21,66,192,46,24,49,114,48,27,19,292,36*72
2017-12-29 11:11:20 1514563880.734552: $GPGSV,3,3,12,32,20,237,37,13,10,048,00,14,01,231,00,138,38,213,46*43
2017-12-29 11:11:20 1514563880.847732: $GPZDA,161121.00,29,12,2017,00,00*6E
2017-12-29 11:11:20 1514563880.847914: $GPGGA,161121,3946.9581,N,08404.9855,W,1,10,1.00,303.74,M,-33.324,M,,*7B
2017-12-29 11:11:20 1514563880.847980: $GPRMC,161121,A,3946.9581,N,08404.9855,W,0.0000,0.000,291217,,*31
2017-12-29 11:11:20 1514563880.848041: $GPGSA,A,3,8,10,15,18,20,21,24,27,32,138,,,1.7,1.0,1.3*3A
2017-12-29 11:11:21 1514563881.399789: $GPZDA,161122.00,29,12,2017,00,00*6D
2017-12-29 11:11:21 1514563881.399940: $GPGGA,161122,3946.9581,N,08404.9862,W,1,10,1.00,303.66,M,-33.324,M,,*7F
2017-12-29 11:11:21 1514563881.400007: $GPRMC,161122,A,3946.9581,N,08404.9862,W,0.0000,0.000,291217,,*36
2017-12-29 11:11:21 1514563881.400086: $GPGSA,A,3,8,10,15,18,20,21,24,27,32,138,,,1.7,1.0,1.3*3A
2017-12-29 11:11:22 1514563882.400663: $GPZDA,161123.00,29,12,2017,00,00*6C
2017-12-29 11:11:22 1514563882.400830: $GPGGA,161123,3946.9584,N,08404.9862,W,1,10,1.00,302.90,M,-33.324,M,,*73
2017-12-29 11:11:22 1514563882.400895: $GPRMC,161123,A,3946.9584,N,08404.9862,W,0.0000,0.000,291217,,*32
2017-12-29 11:11:22 1514563882.400956: $GPGSA,A,3,8,10,15,18,20,21,24,27,32,138,,,1.7,1.0,1.3*3A
2017-12-29 11:11:22 1514563882.401014: $GPGBS,161123,10.91,M,10.38,M,30.89,M*09
2017-12-29 11:11:23 1514563883.733723: $GPGSV,3,1,12,08,05,325,33,10,40,300,42,15,39,052,49,18,70,333,43*7F
2017-12-29 11:11:23 1514563883.733889: $GPGSV,3,2,12,20,36,093,49,21,66,192,46,24,49,114,48,27,19,292,36*72
2017-12-29 11:11:23 1514563883.733954: $GPGSV,3,3,12,32,20,237,37,13,10,048,24,14,01,231,00,138,38,213,47*44
2017-12-29 11:11:23 1514563883.847454: $GPZDA,161124.00,29,12,2017,00,00*6B
2017-12-29 11:11:23 1514563883.847615: $GPGGA,161124,3946.9584,N,08404.9862,W,1,11,1.00,302.90,M,-33.324,M,,*75
2017-12-29 11:11:23 1514563883.847681: $GPRMC,161124,A,3946.9584,N,08404.9862,W,0.0000,0.000,291217,,*35
2017-12-29 11:11:23 1514563883.847742: $GPGSA,A,3,8,10,15,18,20,21,24,27,32,13,138,,1.7,1.0,1.3*38
2017-12-29 11:11:24 1514563884.400770: $GPZDA,161125.00,29,12,2017,00,00*6A
2017-12-29 11:11:24 1514563884.400915: $GPGGA,161125,3946.9594,N,08404.9866,W,2,11,1.40,299.12,M,-33.324,M,,*7F
2017-12-29 11:11:24 1514563884.400980: $GPRMC,161125,A,3946.9594,N,08404.9866,W,0.0000,0.000,291217,,*31
2017-12-29 11:11:24 1514563884.401095: $GPGSA,A,3,8,10,15,18,20,21,24,27,32,13,138,,1.7,1.4,1.3*3C
2017-12-29 11:11:25 1514563885.402476: $GPZDA,161126.00,29,12,2017,00,00*69
2017-12-29 11:11:25 1514563885.402635: $GPGGA,161126,3946.9595,N,08404.9873,W,2,11,1.00,299.04,M,-33.324,M,,*7A
2017-12-29 11:11:25 1514563885.402702: $GPRMC,161126,A,3946.9595,N,08404.9873,W,0.0000,0.000,291217,,*37
2017-12-29 11:11:25 1514563885.402762: $GPGSA,A,3,8,10,15,18,20,21,24,27,32,13,138,,1.7,1.0,1.3*38
2017-12-29 11:11:26 1514563886.737882: $GPGSV,3,1,12,08,05,325,33,10,40,300,41,15,39,052,49,18,70,333,43*7C
2017-12-29 11:11:26 1514563886.738068: $GPGSV,3,2,12,20,36,093,49,21,66,192,46,24,49,114,48,27,19,292,36*72
2017-12-29 11:11:26 1514563886.738134: $GPGSV,3,3,12,32,20,237,37,13,10,048,24,14,01,231,00,138,38,213,46*45
2017-12-29 11:11:26 1514563886.851619: $GPZDA,161127.00,29,12,2017,00,00*68
2017-12-29 11:11:26 1514563886.851781: $GPGGA,161127,3946.9598,N,08404.9872,W,2,11,1.00,298.28,M,-33.324,M,,*78
2017-12-29 11:11:26 1514563886.851847: $GPRMC,161127,A,3946.9598,N,08404.9872,W,0.0000,0.000,291217,,*3A
2017-12-29 11:11:26 1514563886.851907: $GPGSA,A,3,8,10,15,18,20,21,24,27,32,13,138,,1.7,1.0,1.3*38
2017-12-29 11:11:27 1514563887.401255: $GPZDA,161128.00,29,12,2017,00,00*67
2017-12-29 11:11:27 1514563887.401413: $GPGGA,161128,3946.9595,N,08404.9873,W,2,11,1.20,299.04,M,-33.324,M,,*76
2017-12-29 11:11:27 1514563887.401479: $GPRMC,161128,A,3946.9595,N,08404.9873,W,0.0000,0.000,291217,,*39
2017-12-29 11:11:27 1514563887.401539: $GPGSA,A,3,8,10,15,18,20,21,24,27,32,13,138,,1.7,1.2,1.3*3A
2017-12-29 11:11:28 1514563888.402092: $GPZDA,161129.00,29,12,2017,00,00*66
2017-12-29 11:11:28 1514563888.402249: $GPGGA,161129,3946.9595,N,08404.9873,W,2,11,1.20,299.04,M,-33.324,M,,*77
2017-12-29 11:11:28 1514563888.402316: $GPRMC,161129,A,3946.9595,N,08404.9873,W,0.0000,0.000,291217,,*38
2017-12-29 11:11:28 1514563888.402376: $GPGSA,A,3,8,10,15,18,20,21,24,27,32,13,138,,1.7,1.2,1.3*3A
2017-12-29 11:11:29 1514563889.741341: $GPGSV,3,1,12,08,05,325,33,10,40,300,41,15,39,052,49,18,70,333,43*7C
2017-12-29 11:11:29 1514563889.741613: $GPGSV,3,2,12,20,36,093,49,21,66,192,46,24,49,114,48,27,19,292,36*72
2017-12-29 11:11:29 1514563889.741714: $GPGSV,3,3,12,32,20,237,36,13,10,048,24,14,01,231,00,138,38,213,46*44
2017-12-29 11:11:29 1514563889.853598: $GPZDA,161130.00,29,12,2017,00,00*6E
2017-12-29 11:11:29 1514563889.853748: $GPGGA,161130,3946.9595,N,08404.9873,W,2,11,1.20,299.04,M,-33.324,M,,*7F
2017-12-29 11:11:29 1514563889.853815: $GPRMC,161130,A,3946.9595,N,08404.9873,W,0.0000,0.000,291217,,*30
2017-12-29 11:11:29 1514563889.853928: $GPGSA,A,3,8,10,15,18,20,21,24,27,32,13,138,,1.7,1.2,1.3*3A
2017-12-29 11:11:30 1514563890.480199: $GPZDA,161131.00,29,12,2017,00,00*6F
2017-12-29 11:11:30 1514563890.480347: $GPGGA,161131,3946.9595,N,08404.9873,W,2,11,1.20,299.04,M,-33.324,M,,*7E
2017-12-29 11:11:30 1514563890.480416: $GPRMC,161131,A,3946.9595,N,08404.9873,W,0.0000,0.000,291217,,*31
2017-12-29 11:11:30 1514563890.480476: $GPGSA,A,3,8,10,15,18,20,21,24,27,32,13,138,,1.7,1.2,1.3*3A
2017-12-29 11:11:31 1514563891.404840: $GPZDA,161132.00,29,12,2017,00,00*6C
2017-12-29 11:11:31 1514563891.405019: $GPGGA,161132,3946.9595,N,08404.9873,W,2,11,1.20,299.04,M,-33.324,M,,*7D
2017-12-29 11:11:31 1514563891.405087: $GPRMC,161132,A,3946.9595,N,08404.9873,W,0.0000,0.000,291217,,*32
2017-12-29 11:11:31 1514563891.405149: $GPGSA,A,3,8,10,15,18,20,21,24,27,32,13,138,,1.7,1.2,1.3*3A
2017-12-29 11:11:32 1514563892.750328: $GPGSV,3,1,12,08,05,325,32,10,40,300,40,15,39,052,49,18,70,333,43*7C
2017-12-29 11:11:32 1514563892.750499: $GPGSV,3,2,12,20,36,093,49,21,66,192,46,24,49,114,48,27,19,292,35*71
2017-12-29 11:11:32 1514563892.750565: $GPGSV,3,3,12,32,20,237,36,13,10,048,24,14,01,231,02,138,38,213,46*46
2017-12-29 11:11:32 1514563892.863998: $GPZDA,161133.00,29,12,2017,00,00*6D
2017-12-29 11:11:32 1514563892.864163: $GPGGA,161133,3946.9591,N,08404.9873,W,2,11,1.20,299.80,M,-33.324,M,,*74
2017-12-29 11:11:32 1514563892.864228: $GPRMC,161133,A,3946.9591,N,08404.9873,W,0.0000,0.000,291217,,*37
2017-12-29 11:11:32 1514563892.864289: $GPGSA,A,3,8,10,15,18,20,21,24,27,32,13,138,,1.7,1.2,1.3*3A
2017-12-29 11:11:33 1514563893.398564: $GPZDA,161134.00,29,12,2017,00,00*6A
2017-12-29 11:11:33 1514563893.398710: $GPGGA,161134,3946.9591,N,08404.9873,W,2,11,1.20,299.80,M,-33.324,M,,*73
2017-12-29 11:11:33 1514563893.398776: $GPRMC,161134,A,3946.9591,N,08404.9873,W,0.2422,93.794,291217,,*06
2017-12-29 11:11:33 1514563893.398837: $GPGSA,A,3,8,10,15,18,20,21,24,27,32,13,138,,1.7,1.2,1.3*3A
2017-12-29 11:11:34 1514563894.399377: $GPZDA,161135.00,29,12,2017,00,00*6B
2017-12-29 11:11:34 1514563894.399536: $GPGGA,161135,3946.9591,N,08404.9873,W,2,11,1.20,299.80,M,-33.324,M,,*72
2017-12-29 11:11:34 1514563894.399601: $GPRMC,161135,A,3946.9591,N,08404.9873,W,0.0000,0.000,291217,,*31
2017-12-29 11:11:34 1514563894.399662: $GPGSA,A,3,8,10,15,18,20,21,24,27,32,13,138,,1.7,1.2,1.3*3A
2017-12-29 11:11:34 1514563894.399720: $GPGBS,161135,2.73,M,2.59,M,7.72,M*35
2017-12-29 11:11:35 1514563895.734368: $GPGSV,3,1,12,08,05,325,30,10,40,300,39,15,39,052,47,18,70,333,42*7F
2017-12-29 11:11:35 1514563895.734537: $GPGSV,3,2,12,20,36,093,47,21,66,192,44,24,49,114,46,27,19,292,28*7F
2017-12-29 11:11:35 1514563895.734602: $GPGSV,3,3,12,32,20,237,33,13,10,048,23,14,01,231,00,138,38,213,45*45
2017-12-29 11:11:35 1514563895.846731: $GPZDA,161136.00,29,12,2017,00,00*68
2017-12-29 11:11:35 1514563895.846896: $GPGGA,161136,3946.9594,N,08404.9872,W,2,11,1.20,297.64,M,-33.324,M,,*71
2017-12-29 11:11:35 1514563895.846962: $GPRMC,161136,A,3946.9594,N,08404.9872,W,0.0000,0.000,291217,,*36
2017-12-29 11:11:35 1514563895.847023: $GPGSA,A,3,8,10,15,18,20,21,24,27,32,13,138,,1.7,1.2,1.3*3A
2017-12-29 11:11:36 1514563896.398822: $GPZDA,161137.00,29,12,2017,00,00*69
2017-12-29 11:11:36 1514563896.399007: $GPGGA,161137,3946.9594,N,08404.9872,W,2,11,1.20,297.64,M,-33.324,M,,*70
2017-12-29 11:11:36 1514563896.399095: $GPRMC,161137,A,3946.9594,N,08404.9872,W,0.0000,0.000,291217,,*37
2017-12-29 11:11:36 1514563896.399158: $GPGSA,A,3,8,10,15,18,20,21,24,27,32,13,138,,1.7,1.2,1.3*3A
2017-12-29 11:11:37 1514563897.401003: $GPZDA,161138.00,29,12,2017,00,00*66
2017-12-29 11:11:37 1514563897.401214: $GPGGA,161138,3946.9594,N,08404.9872,W,2,11,1.20,297.64,M,-33.324,M,,*7F
2017-12-29 11:11:37 1514563897.401281: $GPRMC,161138,A,3946.9594,N,08404.9872,W,0.0000,0.000,291217,,*38
2017-12-29 11:11:37 1514563897.401342: $GPGSA,A,3,8,10,15,18,20,21,24,27,32,13,138,,1.7,1.2,1.3*3A
2017-12-29 11:11:38 1514563898.737679: $GPGSV,3,1,12,08,05,325,29,10,40,300,39,15,39,052,48,18,70,333,42*78
2017-12-29 11:11:38 1514563898.737895: $GPGSV,3,2,12,20,36,093,47,21,66,192,44,24,49,114,46,27,19,292,27*70
2017-12-29 11:11:38 1514563898.737965: $GPGSV,3,3,12,32,20,237,33,13,10,048,23,14,01,231,00,138,38,213,44*44
2017-12-29 11:11:38 1514563898.851554: $GPZDA,161139.00,29,12,2017,00,00*67
2017-12-29 11:11:38 1514563898.851716: $GPGGA,161139,3946.9594,N,08404.9872,W,2,11,1.20,297.64,M,-33.324,M,,*7E
2017-12-29 11:11:38 1514563898.851782: $GPRMC,161139,A,3946.9594,N,08404.9872,W,0.0000,0.000,291217,,*39
2017-12-29 11:11:38 1514563898.851843: $GPGSA,A,3,8,10,15,18,20,21,24,27,32,13,138,,1.7,1.2,1.3*3A
2017-12-29 11:11:39 1514563899.404789: $GPZDA,161140.00,29,12,2017,00,00*69
2017-12-29 11:11:39 1514563899.404935: $GPGGA,161140,3946.9594,N,08404.9872,W,2,11,1.20,297.64,M,-33.324,M,,*70
2017-12-29 11:11:39 1514563899.405020: $GPRMC,161140,A,3946.9594,N,08404.9872,W,0.0000,0.000,291217,,*37
2017-12-29 11:11:39 1514563899.405082: $GPGSA,A,3,8,10,15,18,20,21,24,27,32,13,138,,1.7,1.2,1.3*3A
2017-12-29 11:11:40 1514563900.400090: $GPZDA,161141.00,29,12,2017,00,00*68
2017-12-29 11:11:40 1514563900.400254: $GPGGA,161141,3946.9594,N,08404.9872,W,2,11,1.20,297.64,M,-33.324,M,,*71
2017-12-29 11:11:40 1514563900.400319: $GPRMC,161141,A,3946.9594,N,08404.9872,W,0.0000,0.000,291217,,*36
2017-12-29 11:11:40 1514563900.400380: $GPGSA,A,3,8,10,15,18,20,21,24,27,32,13,138,,1.7,1.2,1.3*3A
