2017-12-01 11:52:13 1512147133.706702: {"class":"VERSION","release":"3.16","rev":"3.16-4","proto_major":3,"proto_minor":11}
2017-12-01 11:52:13 1512147133.707126: {"class":"DEVICES","devices":[{"class":"DEVICE","path":"/dev/ttyUSB0","driver":"SiRF","subtype":"9\u0006GSD4e_4.1.2-P1_RPATCH.05-F-GPS-4R-1510281 11/03/2015 307","activated":"2017-12-01T16:52:13.291Z","flags":1,"native":1,"bps":4800,"parity":"N","stopbits":1,"cycle":1.00}]}
2017-12-01 11:52:13 1512147133.707253: {"class":"WATCH","enable":true,"json":false,"nmea":true,"raw":0,"scaled":false,"timing":false,"split24":false,"pps":false}
2017-12-01 11:52:13 1512147133.896436: $GPZDA,165214.58,01,12,2017,00,00*68
2017-12-01 11:52:13 1512147133.896608: $GPGGA,165214,3946.9565,N,08404.9830,W,1,11,0.80,305.71,M,-33.324,M,,*78
2017-12-01 11:52:13 1512147133.896674: $GPRMC,165214,A,3946.9565,N,08404.9830,W,0.5287,2.716,011217,,*39
2017-12-01 11:52:13 1512147133.896736: $GPGSA,A,3,10,13,15,18,20,21,24,27,29,5,138,,2.0,0.8,1.5*34
2017-12-01 11:52:14 1512147134.828511: $GPZDA,165215.27,01,12,2017,00,00*61
2017-12-01 11:52:14 1512147134.828686: $GPGGA,165215,3946.9564,N,08404.9823,W,1,11,0.80,305.79,M,-33.324,M,,*72
2017-12-01 11:52:14 1512147134.828775: $GPRMC,165215,A,3946.9564,N,08404.9823,W,0.2959,54.767,011217,,*01
2017-12-01 11:52:14 1512147134.828837: $GPGSA,A,3,10,13,15,18,20,21,24,27,29,5,138,,2.0,0.8,1.5*34
2017-12-01 11:52:15 1512147135.971123: $GPGSV,3,1,12,10,16,274,40,13,39,048,47,15,72,063,46,18,46,289,44*72
2017-12-01 11:52:15 1512147135.971320: $GPGSV,3,2,12,20,60,057,45,21,71,301,46,24,24,147,45,27,11,321,41*7A
2017-12-01 11:52:15 1512147135.971448: $GPGSV,3,3,12,29,20,193,47,05,11,079,11,04,09,132,00,138,38,213,34*4B
2017-12-01 11:52:16 1512147136.084485: $GPZDA,165216.00,01,12,2017,00,00*67
2017-12-01 11:52:16 1512147136.084670: $GPGGA,165216,3946.9564,N,08404.9823,W,1,10,0.80,305.79,M,-33.324,M,,*70
2017-12-01 11:52:16 1512147136.084737: $GPRMC,165216,A,3946.9564,N,08404.9823,W,0.1867,0.000,011217,,*3A
2017-12-01 11:52:16 1512147136.084798: $GPGSA,A,3,10,13,15,18,20,21,24,27,29,138,,,2.0,0.8,1.5*01
2017-12-01 11:52:16 1512147136.536629: $GPZDA,165217.00,01,12,2017,00,00*66
2017-12-01 11:52:16 1512147136.536810: $GPGGA,165217,3946.9565,N,08404.9830,W,1,10,0.80,305.71,M,-33.324,M,,*7A
2017-12-01 11:52:16 1512147136.536877: $GPRMC,165217,A,3946.9565,N,08404.9830,W,0.0000,0.000,011217,,*30
2017-12-01 11:52:16 1512147136.536958: $GPGSA,A,3,10,13,15,18,20,21,24,27,29,138,,,2.0,0.8,1.5*01
2017-12-01 11:52:17 1512147137.386247: $GPZDA,165218.00,01,12,2017,00,00*69
2017-12-01 11:52:17 1512147137.386411: $GPGGA,165218,3946.9564,N,08404.9829,W,1,10,0.80,304.31,M,-33.324,M,,*79
2017-12-01 11:52:17 1512147137.386478: $GPRMC,165218,A,3946.9564,N,08404.9829,W,0.0000,0.000,011217,,*36
2017-12-01 11:52:17 1512147137.386557: $GPGSA,A,3,10,13,15,18,20,21,24,27,29,138,,,2.0,0.8,1.5*01
2017-12-01 11:52:18 1512147138.722732: $GPGSV,3,1,12,10,16,274,41,13,39,048,46,15,72,063,46,18,46,289,45*73
2017-12-01 11:52:18 1512147138.722956: $GPGSV,3,2,12,20,60,057,44,21,71,301,46,24,24,147,45,27,11,321,41*7B
2017-12-01 11:52:18 1512147138.723048: $GPGSV,3,3,12,29,20,193,46,05,11,079,29,04,09,132,00,138,38,213,46*44
2017-12-01 11:52:18 1512147138.836098: $GPZDA,165219.00,01,12,2017,00,00*68
2017-12-01 11:52:18 1512147138.836286: $GPGGA,165219,3946.9564,N,08404.9829,W,1,11,0.80,304.31,M,-33.324,M,,*79
2017-12-01 11:52:18 1512147138.836352: $GPRMC,165219,A,3946.9564,N,08404.9829,W,0.0000,0.000,011217,,*37
2017-12-01 11:52:18 1512147138.836413: $GPGSA,A,3,10,13,15,18,20,21,24,27,29,5,138,,2.0,0.8,1.5*34
2017-12-01 11:52:19 1512147139.389459: $GPZDA,165220.00,01,12,2017,00,00*62
2017-12-01 11:52:19 1512147139.389629: $GPGGA,165220,3946.9564,N,08404.9829,W,1,11,0.80,304.31,M,-33.324,M,,*73
2017-12-01 11:52:19 1512147139.389714: $GPRMC,165220,A,3946.9564,N,08404.9829,W,0.0000,0.000,011217,,*3D
2017-12-01 11:52:19 1512147139.389775: $GPGSA,A,3,10,13,15,18,20,21,24,27,29,5,138,,2.0,0.8,1.5*34
2017-12-01 11:52:20 1512147140.389005: $GPZDA,165221.00,01,12,2017,00,00*63
2017-12-01 11:52:20 1512147140.389286: $GPGGA,165221,3946.9564,N,08404.9829,W,1,11,0.80,304.31,M,-33.324,M,,*72
2017-12-01 11:52:20 1512147140.389360: $GPRMC,165221,A,3946.9564,N,08404.9829,W,0.0000,0.000,011217,,*3C
2017-12-01 11:52:20 1512147140.389422: $GPGSA,A,3,10,13,15,18,20,21,24,27,29,5,138,,2.0,0.8,1.5*34
2017-12-01 11:52:20 1512147140.389480: $GPGBS,165221,10.70,M,15.43,M,35.28,M*04
2017-12-01 11:52:21 1512147141.725953: $GPGSV,3,1,12,10,16,274,41,13,39,048,46,15,72,063,46,18,46,289,45*73
2017-12-01 11:52:21 1512147141.726135: $GPGSV,3,2,12,20,60,057,44,21,71,301,46,24,24,147,45,27,11,321,41*7B
2017-12-01 11:52:21 1512147141.726201: $GPGSV,3,3,12,29,20,193,46,05,11,079,29,04,09,132,02,138,38,213,47*47
2017-12-01 11:52:21 1512147141.839295: $GPZDA,165222.00,01,12,2017,00,00*60
2017-12-01 11:52:21 1512147141.839472: $GPGGA,165222,3946.9564,N,08404.9829,W,1,11,0.80,304.31,M,-33.324,M,,*71
2017-12-01 11:52:21 1512147141.839540: $GPRMC,165222,A,3946.9564,N,08404.9829,W,0.0000,0.000,011217,,*3F
2017-12-01 11:52:21 1512147141.839600: $GPGSA,A,3,10,13,15,18,20,21,24,27,29,5,138,,2.0,0.8,1.5*34
2017-12-01 11:52:22 1512147142.387704: $GPZDA,165223.00,01,12,2017,00,00*61
2017-12-01 11:52:22 1512147142.387887: $GPGGA,165223,3946.9564,N,08404.9829,W,1,11,0.80,304.31,M,-33.324,M,,*70
2017-12-01 11:52:22 1512147142.387956: $GPRMC,165223,A,3946.9564,N,08404.9829,W,0.0000,0.000,011217,,*3E
2017-12-01 11:52:22 1512147142.388017: $GPGSA,A,3,10,13,15,18,20,21,24,27,29,5,138,,2.0,0.8,1.5*34
2017-12-01 11:52:23 1512147143.393059: $GPZDA,165224.00,01,12,2017,00,00*66
2017-12-01 11:52:23 1512147143.393230: $GPGGA,165224,3946.9567,N,08404.9834,W,2,11,1.20,302.06,M,-33.324,M,,*72
2017-12-01 11:52:23 1512147143.393297: $GPRMC,165224,A,3946.9567,N,08404.9834,W,0.0000,0.000,011217,,*36
2017-12-01 11:52:23 1512147143.393358: $GPGSA,A,3,10,13,15,18,20,21,24,27,29,5,138,,2.0,1.2,1.5*3F
