2017-12-31 18:08:34 1514761714.926380: {"class":"VERSION","release":"3.16","rev":"3.16-4","proto_major":3,"proto_minor":11}
2017-12-31 18:08:34 1514761714.926723: {"class":"DEVICES","devices":[{"class":"DEVICE","path":"/dev/ttyUSB0","driver":"SiRF","activated":"2017-12-31T23:08:34.663Z","flags":1,"native":1,"bps":4800,"parity":"N","stopbits":1,"cycle":1.00}]}
2017-12-31 18:08:34 1514761714.926821: {"class":"WATCH","enable":true,"json":false,"nmea":true,"raw":0,"scaled":false,"timing":false,"split24":false,"pps":false}
2017-12-31 18:08:35 1514761715.353354: $GPZDA,230836.00,31,12,2017,00,00*6F
2017-12-31 18:08:35 1514761715.353522: $GPGGA,230836,3946.9561,N,08404.9874,W,2,11,0.60,308.17,M,-33.324,M,,*75
2017-12-31 18:08:35 1514761715.353588: $GPRMC,230836,A,3946.9561,N,08404.9874,W,0.0000,0.000,311217,,*3D
2017-12-31 18:08:35 1514761715.353649: $GPGSA,A,3,22,23,9,3,16,29,14,31,27,26,135,,1.7,0.6,1.3*06
2017-12-31 18:08:36 1514761716.676237: $GPGSV,3,1,11,22,22,214,40,23,53,306,45,09,20,312,36,03,32,234,44*72
2017-12-31 18:08:36 1514761716.676409: $GPGSV,3,2,11,16,80,189,44,29,05,031,31,14,15,133,33,31,29,075,42*74
2017-12-31 18:08:36 1514761716.676475: $GPGSV,3,3,11,27,22,154,34,26,62,051,48,135,22,240,44*72
2017-12-31 18:08:36 1514761716.789830: $GPZDA,230837.00,31,12,2017,00,00*6E
2017-12-31 18:08:36 1514761716.789962: $GPGGA,230837,3946.9561,N,08404.9874,W,2,11,0.60,308.17,M,-33.324,M,,*74
2017-12-31 18:08:36 1514761716.790026: $GPRMC,230837,A,3946.9561,N,08404.9874,W,0.0000,0.000,311217,,*3C
2017-12-31 18:08:36 1514761716.790086: $GPGSA,A,3,22,23,9,3,16,29,14,31,27,26,135,,1.7,0.6,1.3*06
2017-12-31 18:08:37 1514761717.350750: $GPZDA,230838.00,31,12,2017,00,00*61
2017-12-31 18:08:37 1514761717.350942: $GPGGA,230838,3946.9561,N,08404.9874,W,2,11,0.60,308.17,M,-33.324,M,,*7B
2017-12-31 18:08:37 1514761717.351011: $GPRMC,230838,A,3946.9561,N,08404.9874,W,0.0000,0.000,311217,,*33
2017-12-31 18:08:37 1514761717.351077: $GPGSA,A,3,22,23,9,3,16,29,14,31,27,26,135,,1.7,0.6,1.3*06
2017-12-31 18:08:38 1514761718.349102: $GPZDA,230839.00,31,12,2017,00,00*60
2017-12-31 18:08:38 1514761718.349271: $GPGGA,230839,3946.9561,N,08404.9874,W,2,11,0.60,308.17,M,-33.324,M,,*7A
2017-12-31 18:08:38 1514761718.349336: $GPRMC,230839,A,3946.9561,N,08404.9874,W,0.0000,0.000,311217,,*32
2017-12-31 18:08:38 1514761718.349398: $GPGSA,A,3,22,23,9,3,16,29,14,31,27,26,135,,1.7,0.6,1.3*06
2017-12-31 18:08:39 1514761719.684584: $GPGSV,3,1,11,22,22,214,40,23,53,306,45,09,20,312,37,03,32,234,44*73
2017-12-31 18:08:39 1514761719.684737: $GPGSV,3,2,11,16,80,189,44,29,05,031,23,14,15,133,34,31,29,075,42*70
2017-12-31 18:08:39 1514761719.684804: $GPGSV,3,3,11,27,22,154,34,26,62,051,48,135,22,240,44*72
2017-12-31 18:08:39 1514761719.798218: $GPZDA,230840.00,31,12,2017,00,00*6E
2017-12-31 18:08:39 1514761719.798352: $GPGGA,230840,3946.9561,N,08404.9874,W,2,11,0.60,308.17,M,-33.324,M,,*74
2017-12-31 18:08:39 1514761719.798419: $GPRMC,230840,A,3946.9561,N,08404.9874,W,0.0000,0.000,311217,,*3C
2017-12-31 18:08:39 1514761719.798480: $GPGSA,A,3,22,23,9,3,16,29,14,31,27,26,135,,1.7,0.6,1.3*06
2017-12-31 18:08:40 1514761720.423652: $GPZDA,230841.00,31,12,2017,00,00*6F
2017-12-31 18:08:40 1514761720.423819: $GPGGA,230841,3946.9561,N,08404.9874,W,2,11,0.60,308.17,M,-33.324,M,,*75
2017-12-31 18:08:40 1514761720.423906: $GPRMC,230841,A,3946.9561,N,08404.9874,W,0.0000,0.000,311217,,*3D
2017-12-31 18:08:40 1514761720.423967: $GPGSA,A,3,22,23,9,3,16,29,14,31,27,26,135,,1.7,0.6,1.3*06
2017-12-31 18:08:41 1514761721.349482: $GPZDA,230842.00,31,12,2017,00,00*6C
2017-12-31 18:08:41 1514761721.349650: $GPGGA,230842,3946.9561,N,08404.9874,W,2,11,0.60,308.17,M,-33.324,M,,*76
2017-12-31 18:08:41 1514761721.349717: $GPRMC,230842,A,3946.9561,N,08404.9874,W,0.0000,0.000,311217,,*3E
2017-12-31 18:08:41 1514761721.349794: $GPGSA,A,3,22,23,9,3,16,29,14,31,27,26,135,,1.7,0.6,1.3*06
2017-12-31 18:08:42 1514761722.712438: $GPGSV,3,1,11,22,22,214,40,23,53,306,45,09,20,312,37,03,32,234,44*73
2017-12-31 18:08:42 1514761722.712617: $GPGSV,3,2,11,16,80,189,44,29,05,031,22,14,15,133,34,31,29,075,42*71
2017-12-31 18:08:42 1514761722.712740: $GPGSV,3,3,11,27,22,154,34,26,62,051,48,135,22,240,44*72
2017-12-31 18:08:42 1514761722.826048: $GPZDA,230843.00,31,12,2017,00,00*6D
2017-12-31 18:08:42 1514761722.826193: $GPGGA,230843,3946.9561,N,08404.9874,W,2,11,0.60,308.17,M,-33.324,M,,*77
2017-12-31 18:08:42 1514761722.826259: $GPRMC,230843,A,3946.9561,N,08404.9874,W,0.0000,0.000,311217,,*3F
2017-12-31 18:08:42 1514761722.826320: $GPGSA,A,3,22,23,9,3,16,29,14,31,27,26,135,,1.7,0.6,1.3*06
2017-12-31 18:08:43 1514761723.379604: $GPZDA,230844.00,31,12,2017,00,00*6A
2017-12-31 18:08:43 1514761723.379782: $GPGGA,230844,3946.9561,N,08404.9874,W,2,11,0.60,308.17,M,-33.324,M,,*70
2017-12-31 18:08:43 1514761723.379851: $GPRMC,230844,A,3946.9561,N,08404.9874,W,0.0000,0.000,311217,,*38
2017-12-31 18:08:43 1514761723.379915: $GPGSA,A,3,22,23,9,3,16,29,14,31,27,26,135,,1.7,0.6,1.3*06
2017-12-31 18:08:44 1514761724.341655: $GPZDA,230845.00,31,12,2017,00,00*6B
2017-12-31 18:08:44 1514761724.341817: $GPGGA,230845,3946.9561,N,08404.9874,W,2,11,0.60,308.17,M,-33.324,M,,*71
2017-12-31 18:08:44 1514761724.341888: $GPRMC,230845,A,3946.9561,N,08404.9874,W,0.0000,0.000,311217,,*39
2017-12-31 18:08:44 1514761724.341949: $GPGSA,A,3,22,23,9,3,16,29,14,31,27,26,135,,1.7,0.6,1.3*06
