2017-12-01 13:20:14 1512152414.916844: {"class":"VERSION","release":"3.16","rev":"3.16-4","proto_major":3,"proto_minor":11}
2017-12-01 13:20:14 1512152414.917230: {"class":"DEVICES","devices":[{"class":"DEVICE","path":"/dev/ttyUSB0","driver":"SiRF","subtype":"9\u0006GSD4e_4.1.2-P1_RPATCH.05-F-GPS-4R-1510281 11/03/2015 307","activated":"2017-12-01T18:20:14.550Z","flags":1,"native":1,"bps":4800,"parity":"N","stopbits":1,"cycle":1.00}]}
2017-12-01 13:20:14 1512152414.917374: {"class":"WATCH","enable":true,"json":false,"nmea":true,"raw":0,"scaled":false,"timing":false,"split24":false,"pps":false}
2017-12-01 13:20:15 1512152415.389795: $GPZDA,182016.00,01,12,2017,00,00*6C
2017-12-01 13:20:15 1512152415.389971: $GPGGA,182016,3946.9581,N,08404.9843,W,2,12,0.80,306.71,M,-33.324,M,,*7C
2017-12-01 13:20:15 1512152415.390038: $GPRMC,182016,A,3946.9581,N,08404.9843,W,0.0000,0.000,011217,,*34
2017-12-01 13:20:15 1512152415.390099: $GPGSA,A,3,8,10,15,18,20,21,24,27,32,13,14,138,2.0,0.8,1.5*36
2017-12-01 13:20:16 1512152416.744031: $GPGSV,3,1,12,08,07,319,40,10,44,304,46,15,34,054,49,18,73,346,43*78
2017-12-01 13:20:16 1512152416.744213: $GPGSV,3,2,12,20,31,099,46,21,59,187,45,24,52,105,46,27,18,286,23*7F
2017-12-01 13:20:16 1512152416.744280: $GPGSV,3,3,12,32,24,240,43,13,05,049,22,14,07,234,12,138,38,213,46*41
2017-12-01 13:20:16 1512152416.857426: $GPZDA,182017.00,01,12,2017,00,00*6D
2017-12-01 13:20:16 1512152416.857616: $GPGGA,182017,3946.9581,N,08404.9843,W,2,12,0.80,306.71,M,-33.324,M,,*7D
2017-12-01 13:20:16 1512152416.857701: $GPRMC,182017,A,3946.9581,N,08404.9843,W,0.0000,0.000,011217,,*35
2017-12-01 13:20:16 1512152416.857764: $GPGSA,A,3,8,10,15,18,20,21,24,27,32,13,14,138,2.0,0.8,1.5*36
2017-12-01 13:20:17 1512152417.484037: $GPZDA,182018.00,01,12,2017,00,00*62
2017-12-01 13:20:17 1512152417.484227: $GPGGA,182018,3946.9581,N,08404.9843,W,2,12,0.80,306.71,M,-33.324,M,,*72
2017-12-01 13:20:17 1512152417.484294: $GPRMC,182018,A,3946.9581,N,08404.9843,W,0.0000,0.000,011217,,*3A
2017-12-01 13:20:17 1512152417.484355: $GPGSA,A,3,8,10,15,18,20,21,24,27,32,13,14,138,2.0,0.8,1.5*36
2017-12-01 13:20:18 1512152418.394943: $GPZDA,182019.00,01,12,2017,00,00*63
2017-12-01 13:20:18 1512152418.395118: $GPGGA,182019,3946.9581,N,08404.9843,W,2,12,1.00,306.71,M,-33.324,M,,*7A
2017-12-01 13:20:18 1512152418.395185: $GPRMC,182019,A,3946.9581,N,08404.9843,W,0.0000,0.000,011217,,*3B
2017-12-01 13:20:18 1512152418.395246: $GPGSA,A,3,8,10,15,18,20,21,24,27,32,13,14,138,2.0,1.0,1.5*3F
2017-12-01 13:20:19 1512152419.742101: $GPGSV,3,1,12,08,07,319,41,10,44,304,45,15,34,054,49,18,73,346,43*7A
2017-12-01 13:20:19 1512152419.742284: $GPGSV,3,2,12,20,31,099,45,21,59,187,45,24,52,105,46,27,18,286,00*7D
2017-12-01 13:20:19 1512152419.742350: $GPGSV,3,3,12,32,24,240,42,13,05,049,22,14,07,234,00,138,38,213,46*43
2017-12-01 13:20:19 1512152419.855324: $GPZDA,182020.00,01,12,2017,00,00*69
2017-12-01 13:20:19 1512152419.855488: $GPGGA,182020,3946.9581,N,08404.9843,W,2,10,1.00,306.71,M,-33.324,M,,*72
2017-12-01 13:20:19 1512152419.855556: $GPRMC,182020,A,3946.9581,N,08404.9843,W,0.0000,0.000,011217,,*31
2017-12-01 13:20:19 1512152419.855617: $GPGSA,A,3,8,10,15,18,20,21,24,32,13,138,,,2.0,1.0,1.5*3F
2017-12-01 13:20:20 1512152420.389895: $GPZDA,182021.00,01,12,2017,00,00*68
2017-12-01 13:20:20 1512152420.390071: $GPGGA,182021,3946.9581,N,08404.9843,W,2,10,1.00,306.71,M,-33.324,M,,*73
2017-12-01 13:20:20 1512152420.390138: $GPRMC,182021,A,3946.9581,N,08404.9843,W,0.0000,0.000,011217,,*30
2017-12-01 13:20:20 1512152420.390198: $GPGSA,A,3,8,10,15,18,20,21,24,32,13,138,,,2.0,1.0,1.5*3F
2017-12-01 13:20:21 1512152421.392109: $GPZDA,182022.00,01,12,2017,00,00*6B
2017-12-01 13:20:21 1512152421.392306: $GPGGA,182022,3946.9581,N,08404.9843,W,2,10,1.00,306.71,M,-33.324,M,,*70
2017-12-01 13:20:21 1512152421.392372: $GPRMC,182022,A,3946.9581,N,08404.9843,W,0.0000,0.000,011217,,*33
2017-12-01 13:20:21 1512152421.392434: $GPGSA,A,3,8,10,15,18,20,21,24,32,13,138,,,2.0,1.0,1.5*3F
2017-12-01 13:20:22 1512152422.753556: $GPGSV,3,1,12,08,07,319,41,10,44,304,45,15,34,054,49,18,73,346,43*7A
2017-12-01 13:20:22 1512152422.753810: $GPGSV,3,2,12,20,31,099,45,21,59,187,45,24,52,105,46,27,18,286,10*7C
2017-12-01 13:20:22 1512152422.753882: $GPGSV,3,3,12,32,24,240,42,13,05,049,22,14,07,234,00,138,38,213,47*42
2017-12-01 13:20:22 1512152422.866879: $GPZDA,182023.00,01,12,2017,00,00*6A
2017-12-01 13:20:22 1512152422.867046: $GPGGA,182023,3946.9581,N,08404.9843,W,2,11,1.00,306.71,M,-33.324,M,,*70
2017-12-01 13:20:22 1512152422.867113: $GPRMC,182023,A,3946.9581,N,08404.9843,W,0.0000,0.000,011217,,*32
2017-12-01 13:20:22 1512152422.867174: $GPGSA,A,3,8,10,15,18,20,21,24,27,32,13,138,,2.0,1.0,1.5*3A
2017-12-01 13:20:23 1512152423.395389: $GPZDA,182024.00,01,12,2017,00,00*6D
2017-12-01 13:20:23 1512152423.395578: $GPGGA,182024,3946.9581,N,08404.9843,W,2,11,1.00,306.71,M,-33.324,M,,*77
2017-12-01 13:20:23 1512152423.395648: $GPRMC,182024,A,3946.9581,N,08404.9843,W,0.0000,0.000,011217,,*35
2017-12-01 13:20:23 1512152423.395709: $GPGSA,A,3,8,10,15,18,20,21,24,27,32,13,138,,2.0,1.0,1.5*3A
2017-12-01 13:20:24 1512152424.413707: $GPZDA,182025.00,01,12,2017,00,00*6C
2017-12-01 13:20:24 1512152424.413875: $GPGGA,182025,3946.9581,N,08404.9843,W,2,11,0.80,306.71,M,-33.324,M,,*7F
2017-12-01 13:20:24 1512152424.413942: $GPRMC,182025,A,3946.9581,N,08404.9843,W,0.0000,0.000,011217,,*34
2017-12-01 13:20:24 1512152424.414020: $GPGSA,A,3,8,10,15,18,20,21,24,27,32,13,138,,2.0,0.8,1.5*33
