2017-12-01 16:17:10 1512163030.197014: {"class":"VERSION","release":"3.16","rev":"3.16-4","proto_major":3,"proto_minor":11}
2017-12-01 16:17:10 1512163030.197523: {"class":"DEVICES","devices":[{"class":"DEVICE","path":"/dev/ttyUSB0","driver":"SiRF","subtype":"9\u0006GSD4e_4.1.2-P1_RPATCH.05-F-GPS-4R-1510281 11/03/2015 307","activated":"2017-12-01T21:17:10.179Z","flags":1,"native":1,"bps":4800,"parity":"N","stopbits":1,"cycle":1.00}]}
2017-12-01 16:17:10 1512163030.197665: {"class":"WATCH","enable":true,"json":false,"nmea":true,"raw":0,"scaled":false,"timing":false,"split24":false,"pps":false}
2017-12-01 16:17:10 1512163030.357163: $GPZDA,211711.00,01,12,2017,00,00*65
2017-12-01 16:17:10 1512163030.357314: $GPGGA,211711,3946.9591,N,08404.9820,W,2,11,0.80,304.65,M,-33.324,M,,*75
2017-12-01 16:17:10 1512163030.357380: $GPRMC,211711,A,3946.9591,N,08404.9820,W,0.0000,0.000,011217,,*39
2017-12-01 16:17:10 1512163030.357441: $GPGSA,A,3,10,11,12,14,18,22,25,31,32,1,138,,2.0,0.8,1.5*3D
2017-12-01 16:17:11 1512163031.693420: $GPGSV,3,1,12,10,54,145,48,11,10,288,37,12,24,055,44,14,63,315,45*70
2017-12-01 16:17:11 1512163031.700245: $GPGSV,3,2,12,18,23,142,45,22,14,312,30,25,38,099,46,31,50,220,49*77
2017-12-01 16:17:11 1512163031.700469: $GPGSV,3,3,12,32,70,012,47,01,20,306,27,24,02,048,00,138,38,213,46*44
2017-12-01 16:17:11 1512163031.806233: $GPZDA,211712.00,01,12,2017,00,00*66
2017-12-01 16:17:11 1512163031.806400: $GPGGA,211712,3946.9591,N,08404.9820,W,2,11,0.80,304.65,M,-33.324,M,,*76
2017-12-01 16:17:11 1512163031.806465: $GPRMC,211712,A,3946.9591,N,08404.9820,W,0.0000,0.000,011217,,*3A
2017-12-01 16:17:11 1512163031.806545: $GPGSA,A,3,10,11,12,14,18,22,25,31,32,1,138,,2.0,0.8,1.5*3D
2017-12-01 16:17:12 1512163032.355952: $GPZDA,211713.00,01,12,2017,00,00*67
2017-12-01 16:17:12 1512163032.356125: $GPGGA,211713,3946.9591,N,08404.9820,W,2,11,0.80,304.65,M,-33.324,M,,*77
2017-12-01 16:17:12 1512163032.356192: $GPRMC,211713,A,3946.9591,N,08404.9820,W,0.0000,0.000,011217,,*3B
2017-12-01 16:17:12 1512163032.356253: $GPGSA,A,3,10,11,12,14,18,22,25,31,32,1,138,,2.0,0.8,1.5*3D
2017-12-01 16:17:13 1512163033.360859: $GPZDA,211714.00,01,12,2017,00,00*60
2017-12-01 16:17:13 1512163033.361028: $GPGGA,211714,3946.9591,N,08404.9820,W,2,11,0.80,304.65,M,-33.324,M,,*70
2017-12-01 16:17:13 1512163033.361093: $GPRMC,211714,A,3946.9591,N,08404.9820,W,0.0000,0.000,011217,,*3C
2017-12-01 16:17:13 1512163033.361154: $GPGSA,A,3,10,11,12,14,18,22,25,31,32,1,138,,2.0,0.8,1.5*3D
2017-12-01 16:17:14 1512163034.688828: $GPGSV,3,1,12,10,54,145,48,11,10,288,37,12,24,055,44,14,63,315,45*70
2017-12-01 16:17:14 1512163034.689006: $GPGSV,3,2,12,18,23,142,45,22,14,312,00,25,38,099,46,31,50,220,49*74
2017-12-01 16:17:14 1512163034.689072: $GPGSV,3,3,12,32,70,012,46,01,20,306,26,24,02,048,00,138,38,213,46*44
2017-12-01 16:17:14 1512163034.802248: $GPZDA,211715.00,01,12,2017,00,00*61
2017-12-01 16:17:14 1512163034.802390: $GPGGA,211715,3946.9591,N,08404.9820,W,2,10,0.80,304.65,M,-33.324,M,,*70
2017-12-01 16:17:14 1512163034.802457: $GPRMC,211715,A,3946.9591,N,08404.9820,W,0.0000,0.000,011217,,*3D
2017-12-01 16:17:14 1512163034.802518: $GPGSA,A,3,10,11,12,14,18,25,31,32,1,138,,,2.0,0.8,1.5*3D
2017-12-01 16:17:15 1512163035.427646: $GPZDA,211716.00,01,12,2017,00,00*62
2017-12-01 16:17:15 1512163035.427831: $GPGGA,211716,3946.9591,N,08404.9820,W,2,10,0.80,304.65,M,-33.324,M,,*73
2017-12-01 16:17:15 1512163035.427899: $GPRMC,211716,A,3946.9591,N,08404.9820,W,0.0000,0.000,011217,,*3E
2017-12-01 16:17:15 1512163035.427960: $GPGSA,A,3,10,11,12,14,18,25,31,32,1,138,,,2.0,0.8,1.5*3D
2017-12-01 16:17:16 1512163036.360959: $GPZDA,211717.00,01,12,2017,00,00*63
2017-12-01 16:17:16 1512163036.361130: $GPGGA,211717,3946.9591,N,08404.9820,W,2,10,0.80,304.65,M,-33.324,M,,*72
2017-12-01 16:17:16 1512163036.361196: $GPRMC,211717,A,3946.9591,N,08404.9820,W,0.0000,0.000,011217,,*3F
2017-12-01 16:17:16 1512163036.361257: $GPGSA,A,3,10,11,12,14,18,25,31,32,1,138,,,2.0,0.8,1.5*3D
2017-12-01 16:17:17 1512163037.695478: $GPGSV,3,1,12,10,54,145,48,11,10,288,36,12,24,055,45,14,63,315,45*70
2017-12-01 16:17:17 1512163037.695967: $GPGSV,3,2,12,18,23,142,45,22,14,312,29,25,38,099,46,31,50,220,49*7F
2017-12-01 16:17:17 1512163037.696128: $GPGSV,3,3,12,32,70,012,47,01,20,306,27,24,02,048,13,138,38,213,46*46
2017-12-01 16:17:17 1512163037.808714: $GPZDA,211718.00,01,12,2017,00,00*6C
2017-12-01 16:17:17 1512163037.808916: $GPGGA,211718,3946.9591,N,08404.9820,W,2,11,0.80,304.65,M,-33.324,M,,*7C
2017-12-01 16:17:17 1512163037.808984: $GPRMC,211718,A,3946.9591,N,08404.9820,W,0.0000,0.000,011217,,*30
2017-12-01 16:17:17 1512163037.809046: $GPGSA,A,3,10,11,12,14,18,22,25,31,32,1,138,,2.0,0.8,1.5*3D
2017-12-01 16:17:18 1512163038.354899: $GPZDA,211719.00,01,12,2017,00,00*6D
2017-12-01 16:17:18 1512163038.355085: $GPGGA,211719,3946.9591,N,08404.9820,W,2,11,0.80,304.65,M,-33.324,M,,*7D
2017-12-01 16:17:18 1512163038.355152: $GPRMC,211719,A,3946.9591,N,08404.9820,W,0.0000,0.000,011217,,*31
2017-12-01 16:17:18 1512163038.355213: $GPGSA,A,3,10,11,12,14,18,22,25,31,32,1,138,,2.0,0.8,1.5*3D
2017-12-01 16:17:19 1512163039.363150: $GPZDA,211720.00,01,12,2017,00,00*67
2017-12-01 16:17:19 1512163039.363320: $GPGGA,211720,3946.9591,N,08404.9821,W,2,11,0.80,306.06,M,-33.324,M,,*71
2017-12-01 16:17:19 1512163039.363387: $GPRMC,211720,A,3946.9591,N,08404.9821,W,0.0000,0.000,011217,,*3A
2017-12-01 16:17:19 1512163039.363448: $GPGSA,A,3,10,11,12,14,18,22,25,31,32,1,138,,2.0,0.8,1.5*3D
2017-12-01 16:17:20 1512163040.696943: $GPGSV,3,1,12,10,54,145,48,11,10,288,36,12,24,055,45,14,63,315,45*70
2017-12-01 16:17:20 1512163040.697126: $GPGSV,3,2,12,18,23,142,45,22,14,312,27,25,38,099,46,31,50,220,48*70
2017-12-01 16:17:20 1512163040.697194: $GPGSV,3,3,12,32,70,012,47,01,20,306,28,24,02,048,13,138,38,213,45*4A
2017-12-01 16:17:20 1512163040.810301: $GPZDA,211721.00,01,12,2017,00,00*66
2017-12-01 16:17:20 1512163040.810433: $GPGGA,211721,3946.9591,N,08404.9821,W,2,11,0.80,306.06,M,-33.324,M,,*70
2017-12-01 16:17:20 1512163040.810498: $GPRMC,211721,A,3946.9591,N,08404.9821,W,0.0000,0.000,011217,,*3B
2017-12-01 16:17:20 1512163040.810558: $GPGSA,A,3,10,11,12,14,18,22,25,31,32,1,138,,2.0,0.8,1.5*3D
2017-12-01 16:17:21 1512163041.361639: $GPZDA,211722.00,01,12,2017,00,00*65
2017-12-01 16:17:21 1512163041.361830: $GPGGA,211722,3946.9591,N,08404.9821,W,2,11,0.80,306.06,M,-33.324,M,,*73
2017-12-01 16:17:21 1512163041.361899: $GPRMC,211722,A,3946.9591,N,08404.9821,W,0.0000,0.000,011217,,*38
2017-12-01 16:17:21 1512163041.361960: $GPGSA,A,3,10,11,12,14,18,22,25,31,32,1,138,,2.0,0.8,1.5*3D
2017-12-01 16:17:22 1512163042.359564: $GPZDA,211723.00,01,12,2017,00,00*64
2017-12-01 16:17:22 1512163042.359762: $GPGGA,211723,3946.9591,N,08404.9821,W,2,11,0.80,306.06,M,-33.324,M,,*72
2017-12-01 16:17:22 1512163042.359831: $GPRMC,211723,A,3946.9591,N,08404.9821,W,0.0000,0.000,011217,,*39
2017-12-01 16:17:22 1512163042.359891: $GPGSA,A,3,10,11,12,14,18,22,25,31,32,1,138,,2.0,0.8,1.5*3D
2017-12-01 16:17:23 1512163043.696542: $GPGSV,3,1,12,10,54,145,48,11,10,288,35,12,24,055,46,14,63,315,44*71
2017-12-01 16:17:23 1512163043.696733: $GPGSV,3,2,12,18,23,142,45,22,14,312,00,25,38,099,46,31,50,220,49*74
2017-12-01 16:17:23 1512163043.696800: $GPGSV,3,3,12,32,70,012,47,01,20,306,28,24,02,048,12,138,38,213,46*48
2017-12-01 16:17:23 1512163043.809957: $GPZDA,211724.00,01,12,2017,00,00*63
2017-12-01 16:17:23 1512163043.810126: $GPGGA,211724,3946.9591,N,08404.9821,W,2,11,0.80,306.06,M,-33.324,M,,*75
2017-12-01 16:17:23 1512163043.810191: $GPRMC,211724,A,3946.9591,N,08404.9821,W,0.0000,0.000,011217,,*3E
2017-12-01 16:17:23 1512163043.810252: $GPGSA,A,3,10,11,12,14,18,25,31,32,1,24,138,,2.0,0.8,1.5*3B
2017-12-01 16:17:24 1512163044.355813: $GPZDA,211725.00,01,12,2017,00,00*62
2017-12-01 16:17:24 1512163044.355985: $GPGGA,211725,3946.9591,N,08404.9821,W,2,11,0.80,306.06,M,-33.324,M,,*74
2017-12-01 16:17:24 1512163044.356052: $GPRMC,211725,A,3946.9591,N,08404.9821,W,0.0000,0.000,011217,,*3F
2017-12-01 16:17:24 1512163044.356113: $GPGSA,A,3,10,11,12,14,18,25,31,32,1,24,138,,2.0,0.8,1.5*3B
2017-12-01 16:17:25 1512163045.362557: $GPZDA,211726.00,01,12,2017,00,00*61
2017-12-01 16:17:25 1512163045.362821: $GPGGA,211726,3946.9591,N,08404.9821,W,2,11,0.80,306.06,M,-33.324,M,,*77
2017-12-01 16:17:25 1512163045.362893: $GPRMC,211726,A,3946.9591,N,08404.9821,W,0.0000,0.000,011217,,*3C
2017-12-01 16:17:25 1512163045.362954: $GPGSA,A,3,10,11,12,14,18,25,31,32,1,24,138,,2.0,0.8,1.5*3B
2017-12-01 16:17:26 1512163046.696975: $GPGSV,3,1,12,10,54,145,48,11,10,288,34,12,24,055,46,14,63,315,44*70
2017-12-01 16:17:26 1512163046.697172: $GPGSV,3,2,12,18,23,142,45,22,14,312,31,25,38,099,46,31,50,220,49*76
2017-12-01 16:17:26 1512163046.697239: $GPGSV,3,3,12,32,70,012,46,01,20,306,32,24,02,048,04,138,38,213,46*45
2017-12-01 16:17:26 1512163046.810330: $GPZDA,211727.00,01,12,2017,00,00*60
2017-12-01 16:17:26 1512163046.810494: $GPGGA,211727,3946.9591,N,08404.9821,W,2,11,0.80,306.06,M,-33.324,M,,*76
2017-12-01 16:17:26 1512163046.810560: $GPRMC,211727,A,3946.9591,N,08404.9821,W,0.0000,0.000,011217,,*3D
2017-12-01 16:17:26 1512163046.810620: $GPGSA,A,3,10,11,12,14,18,22,25,31,32,1,138,,2.0,0.8,1.5*3D
2017-12-01 16:17:27 1512163047.362840: $GPZDA,211728.00,01,12,2017,00,00*6F
2017-12-01 16:17:27 1512163047.363068: $GPGGA,211728,3946.9591,N,08404.9821,W,2,11,0.80,306.06,M,-33.324,M,,*79
2017-12-01 16:17:27 1512163047.363158: $GPRMC,211728,A,3946.9591,N,08404.9821,W,0.0000,0.000,011217,,*32
2017-12-01 16:17:27 1512163047.363222: $GPGSA,A,3,10,11,12,14,18,22,25,31,32,1,138,,2.0,0.8,1.5*3D
2017-12-01 16:17:28 1512163048.363627: $GPZDA,211729.00,01,12,2017,00,00*6E
2017-12-01 16:17:28 1512163048.363803: $GPGGA,211729,3946.9591,N,08404.9821,W,2,11,0.80,306.06,M,-33.324,M,,*78
2017-12-01 16:17:28 1512163048.363870: $GPRMC,211729,A,3946.9591,N,08404.9821,W,0.0000,0.000,011217,,*33
2017-12-01 16:17:28 1512163048.363931: $GPGSA,A,3,10,11,12,14,18,22,25,31,32,1,138,,2.0,0.8,1.5*3D
2017-12-01 16:17:29 1512163049.696524: $GPGSV,3,1,12,10,54,145,48,11,10,288,30,12,24,055,46,14,63,315,44*74
2017-12-01 16:17:29 1512163049.696716: $GPGSV,3,2,12,18,23,142,45,22,14,312,00,25,38,099,46,31,50,220,49*74
2017-12-01 16:17:29 1512163049.696783: $GPGSV,3,3,12,32,70,012,46,01,20,306,32,24,02,048,04,138,38,213,45*46
2017-12-01 16:17:29 1512163049.809882: $GPZDA,211730.00,01,12,2017,00,00*66
2017-12-01 16:17:29 1512163049.810031: $GPGGA,211730,3946.9595,N,08404.9827,W,2,10,0.80,305.21,M,-33.324,M,,*75
2017-12-01 16:17:29 1512163049.810098: $GPRMC,211730,A,3946.9595,N,08404.9827,W,0.0000,0.000,011217,,*39
2017-12-01 16:17:29 1512163049.810159: $GPGSA,A,3,10,11,12,14,18,25,31,32,1,138,,,2.0,0.8,1.5*3D
