2017-12-01 17:58:31 1512169111.106953: {"class":"VERSION","release":"3.16","rev":"3.16-4","proto_major":3,"proto_minor":11}
2017-12-01 17:58:31 1512169111.107345: {"class":"DEVICES","devices":[{"class":"DEVICE","path":"/dev/ttyUSB0","driver":"SiRF","subtype":"9\u0006GSD4e_4.1.2-P1_RPATCH.05-F-GPS-4R-1510281 11/03/2015 307","activated":"2017-12-01T22:58:30.710Z","flags":1,"native":1,"bps":4800,"parity":"N","stopbits":1,"cycle":1.00}]}
2017-12-01 17:58:31 1512169111.107490: {"class":"WATCH","enable":true,"json":false,"nmea":true,"raw":0,"scaled":false,"timing":false,"split24":false,"pps":false}
2017-12-01 17:58:31 1512169111.918295: $GPZDA,225832.00,01,12,2017,00,00*6C
2017-12-01 17:58:31 1512169111.918469: $GPGGA,225832,3946.9739,N,08404.9839,W,2,11,0.80,299.72,M,-33.325,M,,*76
2017-12-01 17:58:31 1512169111.918537: $GPRMC,225832,A,3946.9739,N,08404.9839,W,0.0000,0.000,011217,,*38
2017-12-01 17:58:31 1512169111.918597: $GPGSA,A,3,1,3,10,14,16,22,29,25,26,32,138,,2.0,0.8,1.5*0E
2017-12-01 17:58:32 1512169112.731543: $GPGSV,3,1,11,01,12,261,37,03,33,309,48,10,08,159,40,14,63,073,43*7E
2017-12-01 17:58:32 1512169112.731754: $GPGSV,3,2,11,16,12,189,41,22,48,288,46,29,06,082,30,25,26,045,41*76
2017-12-01 17:58:32 1512169112.731839: $GPGSV,3,3,11,26,41,175,45,32,44,097,44,138,38,213,46*76
2017-12-01 17:58:32 1512169112.844898: $GPZDA,225833.00,01,12,2017,00,00*6D
2017-12-01 17:58:32 1512169112.845036: $GPGGA,225833,3946.9739,N,08404.9839,W,2,11,0.80,299.72,M,-33.325,M,,*77
2017-12-01 17:58:32 1512169112.845101: $GPRMC,225833,A,3946.9739,N,08404.9839,W,0.0000,0.000,011217,,*39
2017-12-01 17:58:32 1512169112.845161: $GPGSA,A,3,1,3,10,14,16,22,29,25,26,32,138,,2.0,0.8,1.5*0E
2017-12-01 17:58:33 1512169113.394597: $GPZDA,225834.00,01,12,2017,00,00*6A
2017-12-01 17:58:33 1512169113.394795: $GPGGA,225834,3946.9739,N,08404.9839,W,2,11,0.80,299.72,M,-33.325,M,,*70
2017-12-01 17:58:33 1512169113.394884: $GPRMC,225834,A,3946.9739,N,08404.9839,W,0.0000,0.000,011217,,*3E
2017-12-01 17:58:33 1512169113.394947: $GPGSA,A,3,1,3,10,14,16,22,29,25,26,32,138,,2.0,0.8,1.5*0E
2017-12-01 17:58:34 1512169114.394148: $GPZDA,225835.00,01,12,2017,00,00*6B
2017-12-01 17:58:34 1512169114.394319: $GPGGA,225835,3946.9739,N,08404.9839,W,2,11,0.80,299.72,M,-33.325,M,,*71
2017-12-01 17:58:34 1512169114.394385: $GPRMC,225835,A,3946.9739,N,08404.9839,W,0.0000,0.000,011217,,*3F
2017-12-01 17:58:34 1512169114.394445: $GPGSA,A,3,1,3,10,14,16,22,29,25,26,32,138,,2.0,0.8,1.5*0E
2017-12-01 17:58:35 1512169115.731121: $GPGSV,3,1,11,01,12,261,37,03,33,309,48,10,08,159,40,14,63,073,42*7F
2017-12-01 17:58:35 1512169115.731306: $GPGSV,3,2,11,16,12,189,41,22,48,288,46,29,06,082,30,25,26,045,41*76
2017-12-01 17:58:35 1512169115.731427: $GPGSV,3,3,11,26,41,175,44,32,44,097,44,138,38,213,46*77
2017-12-01 17:58:35 1512169115.844696: $GPZDA,225836.00,01,12,2017,00,00*68
2017-12-01 17:58:35 1512169115.844888: $GPGGA,225836,3946.9739,N,08404.9839,W,2,11,0.80,299.72,M,-33.325,M,,*72
2017-12-01 17:58:35 1512169115.844954: $GPRMC,225836,A,3946.9739,N,08404.9839,W,0.0000,0.000,011217,,*3C
2017-12-01 17:58:35 1512169115.845015: $GPGSA,A,3,1,3,10,14,16,22,29,25,26,32,138,,2.0,0.8,1.5*0E
2017-12-01 17:58:36 1512169116.471178: $GPZDA,225837.00,01,12,2017,00,00*69
2017-12-01 17:58:36 1512169116.471407: $GPGGA,225837,3946.9739,N,08404.9839,W,2,11,0.80,299.72,M,-33.325,M,,*73
2017-12-01 17:58:36 1512169116.471487: $GPRMC,225837,A,3946.9739,N,08404.9839,W,0.0000,0.000,011217,,*3D
2017-12-01 17:58:36 1512169116.471549: $GPGSA,A,3,1,3,10,14,16,22,29,25,26,32,138,,2.0,0.8,1.5*0E
2017-12-01 17:58:37 1512169117.389491: $GPZDA,225838.00,01,12,2017,00,00*66
2017-12-01 17:58:37 1512169117.389680: $GPGGA,225838,3946.9739,N,08404.9839,W,2,11,0.80,299.72,M,-33.325,M,,*7C
2017-12-01 17:58:37 1512169117.389775: $GPRMC,225838,A,3946.9739,N,08404.9839,W,0.0000,0.000,011217,,*32
2017-12-01 17:58:37 1512169117.389838: $GPGSA,A,3,1,3,10,14,16,22,29,25,26,32,138,,2.0,0.8,1.5*0E
2017-12-01 17:58:38 1512169118.730205: $GPGSV,3,1,11,01,12,261,36,03,33,309,48,10,08,159,40,14,63,073,42*7E
2017-12-01 17:58:38 1512169118.730439: $GPGSV,3,2,11,16,12,189,41,22,48,288,46,29,06,082,30,25,26,045,41*76
2017-12-01 17:58:38 1512169118.730507: $GPGSV,3,3,11,26,41,175,45,32,44,097,44,138,38,213,46*76
2017-12-01 17:58:38 1512169118.843605: $GPZDA,225839.00,01,12,2017,00,00*67
2017-12-01 17:58:38 1512169118.843787: $GPGGA,225839,3946.9735,N,08404.9839,W,2,11,0.80,299.08,M,-33.325,M,,*7C
2017-12-01 17:58:38 1512169118.843855: $GPRMC,225839,A,3946.9735,N,08404.9839,W,0.0000,0.000,011217,,*3F
2017-12-01 17:58:38 1512169118.843916: $GPGSA,A,3,1,3,10,14,16,22,29,25,26,32,138,,2.0,0.8,1.5*0E
2017-12-01 17:58:39 1512169119.395707: $GPZDA,225840.00,01,12,2017,00,00*69
2017-12-01 17:58:39 1512169119.395895: $GPGGA,225840,3946.9735,N,08404.9839,W,2,11,0.80,299.08,M,-33.325,M,,*72
2017-12-01 17:58:39 1512169119.395962: $GPRMC,225840,A,3946.9735,N,08404.9839,W,0.0000,0.000,011217,,*31
2017-12-01 17:58:39 1512169119.396023: $GPGSA,A,3,1,3,10,14,16,22,29,25,26,32,138,,2.0,0.8,1.5*0E
2017-12-01 17:58:40 1512169120.395298: $GPZDA,225841.00,01,12,2017,00,00*68
2017-12-01 17:58:40 1512169120.395468: $GPGGA,225841,3946.9735,N,08404.9839,W,2,11,0.80,299.08,M,-33.325,M,,*73
2017-12-01 17:58:40 1512169120.395534: $GPRMC,225841,A,3946.9735,N,08404.9839,W,0.0000,0.000,011217,,*30
2017-12-01 17:58:40 1512169120.395615: $GPGSA,A,3,1,3,10,14,16,22,29,25,26,32,138,,2.0,0.8,1.5*0E
2017-12-01 17:58:41 1512169121.730505: $GPGSV,3,1,11,01,12,261,35,03,33,309,48,10,08,159,40,14,63,073,42*7D
2017-12-01 17:58:41 1512169121.730719: $GPGSV,3,2,11,16,12,189,41,22,48,288,46,29,06,082,29,25,26,045,41*7E
2017-12-01 17:58:41 1512169121.730787: $GPGSV,3,3,11,26,41,175,45,32,44,097,44,138,38,213,46*76
2017-12-01 17:58:41 1512169121.844039: $GPZDA,225842.00,01,12,2017,00,00*6B
2017-12-01 17:58:41 1512169121.844211: $GPGGA,225842,3946.9735,N,08404.9839,W,2,11,0.80,299.08,M,-33.325,M,,*70
2017-12-01 17:58:41 1512169121.844278: $GPRMC,225842,A,3946.9735,N,08404.9839,W,0.0000,0.000,011217,,*33
2017-12-01 17:58:41 1512169121.844339: $GPGSA,A,3,1,3,10,14,16,22,29,25,26,32,138,,2.0,0.8,1.5*0E
2017-12-01 17:58:42 1512169122.394911: $GPZDA,225843.00,01,12,2017,00,00*6A
2017-12-01 17:58:42 1512169122.395084: $GPGGA,225843,3946.9735,N,08404.9839,W,2,11,0.80,299.08,M,-33.325,M,,*71
2017-12-01 17:58:42 1512169122.395152: $GPRMC,225843,A,3946.9735,N,08404.9839,W,0.0000,0.000,011217,,*32
2017-12-01 17:58:42 1512169122.395213: $GPGSA,A,3,1,3,10,14,16,22,29,25,26,32,138,,2.0,0.8,1.5*0E
2017-12-01 17:58:43 1512169123.390707: $GPZDA,225844.00,01,12,2017,00,00*6D
2017-12-01 17:58:43 1512169123.390881: $GPGGA,225844,3946.9735,N,08404.9839,W,2,11,0.80,299.08,M,-33.325,M,,*76
2017-12-01 17:58:43 1512169123.390949: $GPRMC,225844,A,3946.9735,N,08404.9839,W,0.0000,0.000,011217,,*35
2017-12-01 17:58:43 1512169123.391010: $GPGSA,A,3,1,3,10,14,16,22,29,25,26,32,138,,2.0,0.8,1.5*0E
2017-12-01 17:58:44 1512169124.725093: $GPGSV,3,1,11,01,12,261,35,03,33,309,47,10,08,159,40,14,63,073,42*72
2017-12-01 17:58:44 1512169124.725276: $GPGSV,3,2,11,16,12,189,41,22,48,288,46,29,06,082,29,25,26,045,41*7E
2017-12-01 17:58:44 1512169124.725342: $GPGSV,3,3,11,26,41,175,45,32,44,097,44,138,38,213,46*76
2017-12-01 17:58:44 1512169124.838486: $GPZDA,225845.00,01,12,2017,00,00*6C
2017-12-01 17:58:44 1512169124.838671: $GPGGA,225845,3946.9735,N,08404.9839,W,2,11,0.80,299.08,M,-33.325,M,,*77
2017-12-01 17:58:44 1512169124.838739: $GPRMC,225845,A,3946.9735,N,08404.9839,W,0.0000,0.000,011217,,*34
2017-12-01 17:58:44 1512169124.838800: $GPGSA,A,3,1,3,10,14,16,22,29,25,26,32,138,,2.0,0.8,1.5*0E
2017-12-01 17:58:45 1512169125.394374: $GPZDA,225846.00,01,12,2017,00,00*6F
2017-12-01 17:58:45 1512169125.394569: $GPGGA,225846,3946.9735,N,08404.9839,W,2,11,0.80,299.08,M,-33.325,M,,*74
2017-12-01 17:58:45 1512169125.394653: $GPRMC,225846,A,3946.9735,N,08404.9839,W,0.0000,0.000,011217,,*37
2017-12-01 17:58:45 1512169125.394717: $GPGSA,A,3,1,3,10,14,16,22,29,25,26,32,138,,2.0,0.8,1.5*0E
2017-12-01 17:58:46 1512169126.394743: $GPZDA,225847.00,01,12,2017,00,00*6E
2017-12-01 17:58:46 1512169126.394914: $GPGGA,225847,3946.9735,N,08404.9839,W,2,11,0.80,299.08,M,-33.325,M,,*75
2017-12-01 17:58:46 1512169126.395031: $GPRMC,225847,A,3946.9735,N,08404.9839,W,0.0000,0.000,011217,,*36
2017-12-01 17:58:46 1512169126.395095: $GPGSA,A,3,1,3,10,14,16,22,29,25,26,32,138,,2.0,0.8,1.5*0E
2017-12-01 17:58:47 1512169127.731735: $GPGSV,3,1,11,01,12,261,35,03,33,309,47,10,08,159,39,14,63,073,42*7C
2017-12-01 17:58:47 1512169127.731918: $GPGSV,3,2,11,16,12,189,41,22,48,288,46,29,06,082,29,25,26,045,40*7F
2017-12-01 17:58:47 1512169127.731985: $GPGSV,3,3,11,26,41,175,45,32,44,097,44,138,38,213,46*76
2017-12-01 17:58:47 1512169127.845090: $GPZDA,225848.00,01,12,2017,00,00*61
2017-12-01 17:58:47 1512169127.845260: $GPGGA,225848,3946.9735,N,08404.9839,W,2,11,0.80,299.08,M,-33.325,M,,*7A
2017-12-01 17:58:47 1512169127.845325: $GPRMC,225848,A,3946.9735,N,08404.9839,W,0.0000,0.000,011217,,*39
2017-12-01 17:58:47 1512169127.845385: $GPGSA,A,3,1,3,10,14,16,22,29,25,26,32,138,,2.0,0.8,1.5*0E
2017-12-01 17:58:48 1512169128.395975: $GPZDA,225849.00,01,12,2017,00,00*60
2017-12-01 17:58:48 1512169128.396151: $GPGGA,225849,3946.9735,N,08404.9839,W,2,11,0.80,299.08,M,-33.325,M,,*7B
2017-12-01 17:58:48 1512169128.396218: $GPRMC,225849,A,3946.9735,N,08404.9839,W,0.0000,0.000,011217,,*38
2017-12-01 17:58:48 1512169128.396279: $GPGSA,A,3,1,3,10,14,16,22,29,25,26,32,138,,2.0,0.8,1.5*0E
2017-12-01 17:58:49 1512169129.396135: $GPZDA,225850.00,01,12,2017,00,00*68
2017-12-01 17:58:49 1512169129.396320: $GPGGA,225850,3946.9735,N,08404.9839,W,2,11,0.80,299.08,M,-33.325,M,,*73
2017-12-01 17:58:49 1512169129.396387: $GPRMC,225850,A,3946.9735,N,08404.9839,W,0.0000,0.000,011217,,*30
2017-12-01 17:58:49 1512169129.396478: $GPGSA,A,3,1,3,10,14,16,22,29,25,26,32,138,,2.0,0.8,1.5*0E
2017-12-01 17:58:50 1512169130.730006: $GPGSV,3,1,11,01,12,261,35,03,33,309,47,10,08,159,39,14,63,073,43*7D
2017-12-01 17:58:50 1512169130.730201: $GPGSV,3,2,11,16,12,189,41,22,48,288,47,29,06,082,29,25,26,045,40*7E
2017-12-01 17:58:50 1512169130.730269: $GPGSV,3,3,11,26,41,175,45,32,44,097,44,138,38,213,46*76
2017-12-01 17:58:50 1512169130.843434: $GPZDA,225851.00,01,12,2017,00,00*69
2017-12-01 17:58:50 1512169130.843639: $GPGGA,225851,3946.9735,N,08404.9839,W,2,11,0.80,299.08,M,-33.325,M,,*72
2017-12-01 17:58:50 1512169130.843709: $GPRMC,225851,A,3946.9735,N,08404.9839,W,0.0000,0.000,011217,,*31
2017-12-01 17:58:50 1512169130.843771: $GPGSA,A,3,1,3,10,14,16,22,29,25,26,32,138,,2.0,0.8,1.5*0E
