2017-12-01 13:10:41 1512151841.668193: {"class":"VERSION","release":"3.16","rev":"3.16-4","proto_major":3,"proto_minor":11}
2017-12-01 13:10:41 1512151841.668619: {"class":"DEVICES","devices":[{"class":"DEVICE","path":"/dev/ttyUSB0","driver":"SiRF","subtype":"9\u0006GSD4e_4.1.2-P1_RPATCH.05-F-GPS-4R-1510281 11/03/2015 307","activated":"2017-12-01T18:10:41.314Z","flags":1,"native":1,"bps":4800,"parity":"N","stopbits":1,"cycle":1.00}]}
2017-12-01 13:10:41 1512151841.668743: {"class":"WATCH","enable":true,"json":false,"nmea":true,"raw":0,"scaled":false,"timing":false,"split24":false,"pps":false}
2017-12-01 13:10:41 1512151841.918514: $GPZDA,181042.61,01,12,2017,00,00*69
2017-12-01 13:10:41 1512151841.918678: $GPGGA,181042,3946.9567,N,08404.9836,W,1,12,1.00,292.79,M,-33.324,M,,*7A
2017-12-01 13:10:41 1512151841.918744: $GPRMC,181042,A,3946.9567,N,08404.9836,W,0.2648,202.230,011217,,*35
2017-12-01 13:10:41 1512151841.918806: $GPGSA,A,3,8,10,15,18,20,21,24,32,27,13,14,138,2.0,1.0,1.5*3F
2017-12-01 13:10:41 1512151841.918864: $GPGBS,181042,10.70,M,15.43,M,35.28,M*09
2017-12-01 13:10:43 1512151843.000327: $GPZDA,181043.30,01,12,2017,00,00*6C
2017-12-01 13:10:43 1512151843.000494: $GPGGA,181043,3946.9567,N,08404.9836,W,1,12,1.00,292.79,M,-33.324,M,,*7B
2017-12-01 13:10:43 1512151843.000561: $GPRMC,181043,A,3946.9567,N,08404.9836,W,0.1324,202.230,011217,,*38
2017-12-01 13:10:43 1512151843.000623: $GPGSA,A,3,8,10,15,18,20,21,24,32,27,13,14,138,2.0,1.0,1.5*3F
2017-12-01 13:10:44 1512151844.142626: $GPGSV,3,1,12,08,06,322,34,10,41,301,45,15,38,052,49,18,71,336,45*78
2017-12-01 13:10:44 1512151844.142804: $GPGSV,3,2,12,20,34,096,46,21,63,189,46,24,50,111,47,32,21,238,42*7B
2017-12-01 13:10:44 1512151844.142871: $GPGSV,3,3,12,13,08,048,11,27,19,289,26,14,04,232,00,138,38,213,00*45
2017-12-01 13:10:44 1512151844.256080: $GPZDA,181044.00,01,12,2017,00,00*68
2017-12-01 13:10:44 1512151844.256220: $GPGGA,181044,3946.9567,N,08404.9843,W,1,09,1.00,292.71,M,-33.324,M,,*7C
2017-12-01 13:10:44 1512151844.256284: $GPRMC,181044,A,3946.9567,N,08404.9843,W,0.0407,322.014,011217,,*3D
2017-12-01 13:10:44 1512151844.256345: $GPGSA,A,3,8,10,15,18,20,21,24,32,27,,,,2.0,1.0,1.5*02
2017-12-01 13:10:44 1512151844.706856: $GPZDA,181045.00,01,12,2017,00,00*69
2017-12-01 13:10:44 1512151844.707029: $GPGGA,181045,3946.9567,N,08404.9843,W,1,09,0.80,292.71,M,-33.324,M,,*74
2017-12-01 13:10:44 1512151844.707095: $GPRMC,181045,A,3946.9567,N,08404.9843,W,0.1567,189.200,011217,,*3E
2017-12-01 13:10:44 1512151844.707156: $GPGSA,A,3,8,10,15,18,20,21,24,32,27,,,,2.0,0.8,1.5*0B
2017-12-01 13:10:45 1512151845.410674: $GPZDA,181046.00,01,12,2017,00,00*6A
2017-12-01 13:10:45 1512151845.410845: $GPGGA,181046,3946.9571,N,08404.9843,W,1,09,0.80,293.35,M,-33.324,M,,*71
2017-12-01 13:10:45 1512151845.410910: $GPRMC,181046,A,3946.9571,N,08404.9843,W,0.0000,0.000,011217,,*3D
2017-12-01 13:10:45 1512151845.410970: $GPGSA,A,3,8,10,15,18,20,21,24,32,27,,,,2.0,0.8,1.5*0B
2017-12-01 13:10:46 1512151846.747939: $GPGSV,3,1,12,08,06,322,34,10,41,301,44,15,38,052,48,18,71,336,45*78
2017-12-01 13:10:46 1512151846.750449: $GPGSV,3,2,12,20,34,096,46,21,63,189,46,24,50,111,48,32,21,238,42*74
2017-12-01 13:10:46 1512151846.750558: $GPGSV,3,3,12,13,08,048,28,27,19,289,34,14,04,232,00,138,38,213,48*40
2017-12-01 13:10:46 1512151846.861407: $GPZDA,181047.00,01,12,2017,00,00*6B
2017-12-01 13:10:46 1512151846.861583: $GPGGA,181047,3946.9571,N,08404.9843,W,1,11,0.80,293.35,M,-33.324,M,,*79
2017-12-01 13:10:46 1512151846.861655: $GPRMC,181047,A,3946.9571,N,08404.9843,W,0.0000,0.000,011217,,*3C
2017-12-01 13:10:46 1512151846.861716: $GPGSA,A,3,8,10,15,18,20,21,24,32,13,27,138,,2.0,0.8,1.5*33
2017-12-01 13:10:47 1512151847.412289: $GPZDA,181048.00,01,12,2017,00,00*64
2017-12-01 13:10:47 1512151847.412465: $GPGGA,181048,3946.9575,N,08404.9850,W,1,11,0.80,292.51,M,-33.324,M,,*73
2017-12-01 13:10:47 1512151847.412531: $GPRMC,181048,A,3946.9575,N,08404.9850,W,0.0000,0.000,011217,,*35
2017-12-01 13:10:47 1512151847.412591: $GPGSA,A,3,8,10,15,18,20,21,24,32,13,27,138,,2.0,0.8,1.5*33
2017-12-01 13:10:48 1512151848.413040: $GPZDA,181049.00,01,12,2017,00,00*65
2017-12-01 13:10:48 1512151848.413233: $GPGGA,181049,3946.9575,N,08404.9850,W,1,11,0.80,292.51,M,-33.324,M,,*72
2017-12-01 13:10:48 1512151848.413301: $GPRMC,181049,A,3946.9575,N,08404.9850,W,0.0000,0.000,011217,,*34
2017-12-01 13:10:48 1512151848.413363: $GPGSA,A,3,8,10,15,18,20,21,24,32,13,27,138,,2.0,0.8,1.5*33
2017-12-01 13:10:48 1512151848.413421: $GPGBS,181049,10.70,M,15.43,M,35.28,M*02
2017-12-01 13:10:49 1512151849.749920: $GPGSV,3,1,12,08,06,322,34,10,41,301,44,15,38,052,48,18,71,336,45*78
2017-12-01 13:10:49 1512151849.750130: $GPGSV,3,2,12,20,34,096,47,21,63,189,46,24,50,111,47,32,21,238,42*7A
2017-12-01 13:10:49 1512151849.750199: $GPGSV,3,3,12,13,08,048,28,27,19,289,35,14,04,232,11,138,38,213,48*41
2017-12-01 13:10:49 1512151849.863316: $GPZDA,181050.00,01,12,2017,00,00*6D
2017-12-01 13:10:49 1512151849.863493: $GPGGA,181050,3946.9575,N,08404.9850,W,1,11,0.80,292.51,M,-33.324,M,,*7A
2017-12-01 13:10:49 1512151849.863562: $GPRMC,181050,A,3946.9575,N,08404.9850,W,0.0000,0.000,011217,,*3C
2017-12-01 13:10:49 1512151849.863622: $GPGSA,A,3,8,10,15,18,20,21,24,32,13,27,138,,2.0,0.8,1.5*33
2017-12-01 13:10:50 1512151850.411998: $GPZDA,181051.00,01,12,2017,00,00*6C
2017-12-01 13:10:50 1512151850.412184: $GPGGA,181051,3946.9575,N,08404.9850,W,1,11,0.80,292.51,M,-33.324,M,,*7B
2017-12-01 13:10:50 1512151850.412252: $GPRMC,181051,A,3946.9575,N,08404.9850,W,0.0000,0.000,011217,,*3D
2017-12-01 13:10:50 1512151850.412312: $GPGSA,A,3,8,10,15,18,20,21,24,32,13,27,138,,2.0,0.8,1.5*33
2017-12-01 13:10:51 1512151851.412170: $GPZDA,181052.00,01,12,2017,00,00*6F
2017-12-01 13:10:51 1512151851.412348: $GPGGA,181052,3946.9579,N,08404.9850,W,1,11,0.80,293.15,M,-33.324,M,,*75
2017-12-01 13:10:51 1512151851.412417: $GPRMC,181052,A,3946.9579,N,08404.9850,W,0.0000,0.000,011217,,*32
2017-12-01 13:10:51 1512151851.412478: $GPGSA,A,3,8,10,15,18,20,21,24,32,13,27,138,,2.0,0.8,1.5*33
