2017-12-01 13:45:37 1512153937.256941: {"class":"VERSION","release":"3.16","rev":"3.16-4","proto_major":3,"proto_minor":11}
2017-12-01 13:45:37 1512153937.257387: {"class":"DEVICES","devices":[{"class":"DEVICE","path":"/dev/ttyUSB0","driver":"SiRF","subtype":"9\u0006GSD4e_4.1.2-P1_RPATCH.05-F-GPS-4R-1510281 11/03/2015 307","activated":"2017-12-01T18:45:37.215Z","flags":1,"native":1,"bps":4800,"parity":"N","stopbits":1,"cycle":1.00}]}
2017-12-01 13:45:37 1512153937.257516: {"class":"WATCH","enable":true,"json":false,"nmea":true,"raw":0,"scaled":false,"timing":false,"split24":false,"pps":false}
2017-12-01 13:45:37 1512153937.665250: $GPGSV,3,1,11,10,54,313,49,14,16,241,31,15,24,058,45,18,77,031,42*73
2017-12-01 13:45:37 1512153937.665451: $GPGSV,3,2,11,20,22,108,46,21,47,181,44,24,53,082,47,27,15,274,43*77
2017-12-01 13:45:37 1512153937.665518: $GPGSV,3,3,11,32,33,249,43,08,08,309,28,138,38,213,46*73
2017-12-01 13:45:37 1512153937.778714: $GPZDA,184538.00,01,12,2017,00,00*63
2017-12-01 13:45:37 1512153937.778905: $GPGGA,184538,3946.9556,N,08404.9842,W,2,11,0.80,301.46,M,-33.324,M,,*78
2017-12-01 13:45:37 1512153937.778972: $GPRMC,184538,A,3946.9556,N,08404.9842,W,0.0000,0.000,011217,,*30
2017-12-01 13:45:37 1512153937.779033: $GPGSA,A,3,10,14,15,18,20,21,24,27,32,8,138,,2.0,0.8,1.5*34
2017-12-01 13:45:38 1512153938.404008: $GPZDA,184539.00,01,12,2017,00,00*62
2017-12-01 13:45:38 1512153938.404211: $GPGGA,184539,3946.9556,N,08404.9842,W,2,11,0.80,301.46,M,-33.324,M,,*79
2017-12-01 13:45:38 1512153938.404280: $GPRMC,184539,A,3946.9556,N,08404.9842,W,0.0000,0.000,011217,,*31
2017-12-01 13:45:38 1512153938.404357: $GPGSA,A,3,10,14,15,18,20,21,24,27,32,8,138,,2.0,0.8,1.5*34
2017-12-01 13:45:39 1512153939.329885: $GPZDA,184540.00,01,12,2017,00,00*6C
2017-12-01 13:45:39 1512153939.330072: $GPGGA,184540,3946.9556,N,08404.9842,W,2,11,0.80,301.46,M,-33.324,M,,*77
2017-12-01 13:45:39 1512153939.330139: $GPRMC,184540,A,3946.9556,N,08404.9842,W,0.0000,0.000,011217,,*3F
2017-12-01 13:45:39 1512153939.330222: $GPGSA,A,3,10,14,15,18,20,21,24,27,32,8,138,,2.0,0.8,1.5*34
2017-12-01 13:45:40 1512153940.665708: $GPGSV,3,1,11,10,54,313,49,14,16,241,32,15,24,058,45,18,77,031,42*70
2017-12-01 13:45:40 1512153940.665889: $GPGSV,3,2,11,20,22,108,46,21,47,181,44,24,53,082,47,27,15,274,42*76
2017-12-01 13:45:40 1512153940.665955: $GPGSV,3,3,11,32,33,249,43,08,08,309,27,138,38,213,46*7C
2017-12-01 13:45:40 1512153940.779116: $GPZDA,184541.00,01,12,2017,00,00*6D
2017-12-01 13:45:40 1512153940.779306: $GPGGA,184541,3946.9556,N,08404.9842,W,2,11,0.80,301.46,M,-33.324,M,,*76
2017-12-01 13:45:40 1512153940.779374: $GPRMC,184541,A,3946.9556,N,08404.9842,W,0.0000,0.000,011217,,*3E
2017-12-01 13:45:40 1512153940.779435: $GPGSA,A,3,10,14,15,18,20,21,24,27,32,8,138,,2.0,0.8,1.5*34
2017-12-01 13:45:41 1512153941.328631: $GPZDA,184542.00,01,12,2017,00,00*6E
2017-12-01 13:45:41 1512153941.328830: $GPGGA,184542,3946.9556,N,08404.9842,W,2,11,0.80,301.46,M,-33.324,M,,*75
2017-12-01 13:45:41 1512153941.328897: $GPRMC,184542,A,3946.9556,N,08404.9842,W,0.0000,0.000,011217,,*3D
2017-12-01 13:45:41 1512153941.328959: $GPGSA,A,3,10,14,15,18,20,21,24,27,32,8,138,,2.0,0.8,1.5*34
2017-12-01 13:45:42 1512153942.328444: $GPZDA,184543.00,01,12,2017,00,00*6F
2017-12-01 13:45:42 1512153942.328614: $GPGGA,184543,3946.9556,N,08404.9842,W,2,11,0.80,301.46,M,-33.324,M,,*74
2017-12-01 13:45:42 1512153942.328680: $GPRMC,184543,A,3946.9556,N,08404.9842,W,0.0000,0.000,011217,,*3C
2017-12-01 13:45:42 1512153942.328741: $GPGSA,A,3,10,14,15,18,20,21,24,27,32,8,138,,2.0,0.8,1.5*34
2017-12-01 13:45:43 1512153943.664745: $GPGSV,3,1,11,10,54,313,49,14,16,241,32,15,24,058,45,18,77,031,42*70
2017-12-01 13:45:43 1512153943.664929: $GPGSV,3,2,11,20,22,108,46,21,47,181,44,24,53,082,47,27,15,274,42*76
2017-12-01 13:45:43 1512153943.664995: $GPGSV,3,3,11,32,33,249,43,08,08,309,27,138,38,213,46*7C
2017-12-01 13:45:43 1512153943.777058: $GPZDA,184544.00,01,12,2017,00,00*68
2017-12-01 13:45:43 1512153943.777238: $GPGGA,184544,3946.9556,N,08404.9842,W,2,11,0.80,301.46,M,-33.324,M,,*73
2017-12-01 13:45:43 1512153943.777372: $GPRMC,184544,A,3946.9556,N,08404.9842,W,0.0000,0.000,011217,,*3B
2017-12-01 13:45:43 1512153943.777436: $GPGSA,A,3,10,14,15,18,20,21,24,27,32,8,138,,2.0,0.8,1.5*34
2017-12-01 13:45:44 1512153944.329251: $GPZDA,184545.00,01,12,2017,00,00*69
2017-12-01 13:45:44 1512153944.329442: $GPGGA,184545,3946.9556,N,08404.9842,W,2,11,0.80,301.46,M,-33.324,M,,*72
2017-12-01 13:45:44 1512153944.329509: $GPRMC,184545,A,3946.9556,N,08404.9842,W,0.0000,0.000,011217,,*3A
2017-12-01 13:45:44 1512153944.329589: $GPGSA,A,3,10,14,15,18,20,21,24,27,32,8,138,,2.0,0.8,1.5*34
2017-12-01 13:45:45 1512153945.328675: $GPZDA,184546.00,01,12,2017,00,00*6A
2017-12-01 13:45:45 1512153945.328853: $GPGGA,184546,3946.9556,N,08404.9842,W,2,11,0.80,301.46,M,-33.324,M,,*71
2017-12-01 13:45:45 1512153945.328921: $GPRMC,184546,A,3946.9556,N,08404.9842,W,0.0000,0.000,011217,,*39
2017-12-01 13:45:45 1512153945.328982: $GPGSA,A,3,10,14,15,18,20,21,24,27,32,8,138,,2.0,0.8,1.5*34
2017-12-01 13:45:46 1512153946.689355: $GPGSV,3,1,11,10,54,313,49,14,16,241,32,15,24,058,45,18,77,031,42*70
2017-12-01 13:45:46 1512153946.689537: $GPGSV,3,2,11,20,22,108,46,21,47,181,44,24,53,082,47,27,15,274,42*76
2017-12-01 13:45:46 1512153946.689604: $GPGSV,3,3,11,32,33,249,43,08,08,309,27,138,38,213,46*7C
2017-12-01 13:45:46 1512153946.802739: $GPZDA,184547.00,01,12,2017,00,00*6B
2017-12-01 13:45:46 1512153946.802895: $GPGGA,184547,3946.9556,N,08404.9842,W,2,11,0.80,301.46,M,-33.324,M,,*70
2017-12-01 13:45:46 1512153946.802961: $GPRMC,184547,A,3946.9556,N,08404.9842,W,0.0000,0.000,011217,,*38
2017-12-01 13:45:46 1512153946.803022: $GPGSA,A,3,10,14,15,18,20,21,24,27,32,8,138,,2.0,0.8,1.5*34
