2018-01-12 19:55:17 1515804917.744962: {"class":"VERSION","release":"3.16","rev":"3.16-4","proto_major":3,"proto_minor":11}
2018-01-12 19:55:17 1515804917.745321: {"class":"DEVICES","devices":[{"class":"DEVICE","path":"/dev/ttyUSB0","driver":"SiRF","subtype":"9\u0006GSD4e_4.1.2-P1_RPATCH.05-F-GPS-4R-1510281 11/03/2015 307","activated":"2018-01-13T00:55:17.304Z","flags":1,"native":1,"bps":4800,"parity":"N","stopbits":1,"cycle":1.00}]}
2018-01-12 19:55:17 1515804917.745439: {"class":"WATCH","enable":true,"json":false,"nmea":true,"raw":0,"scaled":false,"timing":false,"split24":false,"pps":false}
2018-01-12 19:55:18 1515804918.500209: $GPGSV,3,1,11,08,70,147,30,07,50,313,25,09,51,237,25,16,27,057,21*7E
2018-01-12 19:55:18 1515804918.500476: $GPGSV,3,2,11,23,34,192,23,27,51,058,25,30,25,304,00,11,15,169,00*77
2018-01-12 19:55:18 1515804918.500547: $GPGSV,3,3,11,28,10,255,00,26,02,069,00,138,38,213,00*78
2018-01-12 19:55:18 1515804918.613673: $GPZDA,005519.00,13,01,2018,00,00*66
2018-01-12 19:55:18 1515804918.613857: $GPGGA,005519,3946.9612,N,08404.9513,W,1,06,1.20,312.49,M,-33.324,M,,*7A
2018-01-12 19:55:18 1515804918.613928: $GPRMC,005519,A,3946.9612,N,08404.9513,W,0.4179,148.778,130118,,*31
2018-01-12 19:55:18 1515804918.613990: $GPGSA,A,3,8,7,9,16,23,27,,,,,,,4.8,1.2,4.6*0A
2018-01-12 19:55:19 1515804919.165004: $GPZDA,005520.00,13,01,2018,00,00*6C
2018-01-12 19:55:19 1515804919.165189: $GPGGA,005520,3946.9610,N,08404.9505,W,1,06,1.20,311.17,M,-33.324,M,,*7D
2018-01-12 19:55:19 1515804919.165258: $GPRMC,005520,A,3946.9610,N,08404.9505,W,0.2422,93.794,130118,,*06
2018-01-12 19:55:19 1515804919.165320: $GPGSA,A,3,8,7,9,16,23,27,,,,,,,4.8,1.2,4.6*0A
2018-01-12 19:55:20 1515804920.179667: $GPZDA,005521.00,13,01,2018,00,00*6D
2018-01-12 19:55:20 1515804920.179839: $GPGGA,005521,3946.9611,N,08404.9512,W,1,06,1.20,311.09,M,-33.324,M,,*74
2018-01-12 19:55:20 1515804920.179909: $GPRMC,005521,A,3946.9611,N,08404.9512,W,0.3423,4.197,130118,,*3B
2018-01-12 19:55:20 1515804920.179970: $GPGSA,A,3,8,7,9,16,23,27,,,,,,,4.8,1.2,4.6*0A
2018-01-12 19:55:21 1515804921.517088: $GPGSV,3,1,11,08,70,147,30,07,50,313,25,09,51,237,25,16,27,057,21*7E
2018-01-12 19:55:21 1515804921.517272: $GPGSV,3,2,11,23,34,192,23,27,51,058,25,30,25,304,00,11,15,169,00*77
2018-01-12 19:55:21 1515804921.517338: $GPGSV,3,3,11,28,10,255,00,26,02,069,00,138,38,213,00*78
2018-01-12 19:55:21 1515804921.630680: $GPZDA,005522.00,13,01,2018,00,00*6E
2018-01-12 19:55:21 1515804921.630820: $GPGGA,005522,3946.9611,N,08404.9512,W,1,06,1.20,311.09,M,-33.324,M,,*77
2018-01-12 19:55:21 1515804921.630886: $GPRMC,005522,A,3946.9611,N,08404.9512,W,0.4844,273.794,130118,,*35
2018-01-12 19:55:21 1515804921.630951: $GPGSA,A,3,8,7,9,16,23,27,,,,,,,4.8,1.2,4.6*0A
2018-01-12 19:55:22 1515804922.180833: $GPZDA,005523.00,13,01,2018,00,00*6F
2018-01-12 19:55:22 1515804922.181018: $GPGGA,005523,3946.9611,N,08404.9512,W,1,06,1.20,311.09,M,-33.324,M,,*76
2018-01-12 19:55:22 1515804922.181084: $GPRMC,005523,A,3946.9611,N,08404.9512,W,0.8054,248.645,130118,,*34
2018-01-12 19:55:22 1515804922.181150: $GPGSA,A,3,8,7,9,16,23,27,,,,,,,4.8,1.2,4.6*0A
2018-01-12 19:55:23 1515804923.179457: $GPZDA,005524.00,13,01,2018,00,00*68
2018-01-12 19:55:23 1515804923.179636: $GPGGA,005524,3946.9611,N,08404.9512,W,1,06,1.20,311.09,M,-33.324,M,,*71
2018-01-12 19:55:23 1515804923.179704: $GPRMC,005524,A,3946.9611,N,08404.9512,W,0.2422,273.794,130118,,*39
2018-01-12 19:55:23 1515804923.179768: $GPGSA,A,3,8,7,9,16,23,27,,,,,,,4.8,1.2,4.6*0A
2018-01-12 19:55:24 1515804924.515689: $GPGSV,3,1,11,08,70,147,30,07,50,313,26,09,51,237,26,16,27,057,21*7E
2018-01-12 19:55:24 1515804924.515876: $GPGSV,3,2,11,23,34,192,24,27,51,058,25,28,10,255,16,26,02,069,10*7F
2018-01-12 19:55:24 1515804924.515945: $GPGSV,3,3,11,30,25,304,00,11,15,169,00,138,38,213,00*71
2018-01-12 19:55:24 1515804924.629326: $GPZDA,005525.00,13,01,2018,00,00*69
2018-01-12 19:55:24 1515804924.629457: $GPGGA,005525,3946.9607,N,08404.9512,W,1,06,1.20,310.45,M,-33.324,M,,*7E
2018-01-12 19:55:24 1515804924.629524: $GPRMC,005525,A,3946.9607,N,08404.9512,W,0.4207,219.347,130118,,*3E
2018-01-12 19:55:24 1515804924.629640: $GPGSA,A,3,8,7,9,16,23,27,,,,,,,4.8,1.2,4.6*0A
2018-01-12 19:55:25 1515804925.164008: $GPZDA,005526.00,13,01,2018,00,00*6A
2018-01-12 19:55:25 1515804925.164176: $GPGGA,005526,3946.9603,N,08404.9513,W,1,06,1.20,311.21,M,-33.324,M,,*7B
2018-01-12 19:55:25 1515804925.164245: $GPRMC,005526,A,3946.9603,N,08404.9513,W,0.6846,184.197,130118,,*3D
2018-01-12 19:55:25 1515804925.164307: $GPGSA,A,3,8,7,9,16,23,27,,,,,,,4.8,1.2,4.6*0A
2018-01-12 19:55:26 1515804926.162671: $GPZDA,005527.00,13,01,2018,00,00*6B
2018-01-12 19:55:26 1515804926.162833: $GPGGA,005527,3946.9599,N,08404.9513,W,1,06,1.20,310.57,M,-33.324,M,,*7A
2018-01-12 19:55:26 1515804926.162908: $GPRMC,005527,A,3946.9599,N,08404.9513,W,0.8359,148.778,130118,,*30
2018-01-12 19:55:26 1515804926.162971: $GPGSA,A,3,8,7,9,16,23,27,,,,,,,4.8,1.2,4.6*0A
2018-01-12 19:55:27 1515804927.515042: $GPGSV,3,1,11,08,70,147,30,07,50,313,26,09,51,237,26,16,27,057,21*7E
2018-01-12 19:55:27 1515804927.515240: $GPGSV,3,2,11,23,34,192,24,27,51,058,24,30,25,304,00,26,02,069,12*71
2018-01-12 19:55:27 1515804927.515308: $GPGSV,3,3,11,11,15,169,00,28,10,255,00,138,38,213,00*7B
2018-01-12 19:55:27 1515804927.628646: $GPZDA,005528.00,13,01,2018,00,00*64
2018-01-12 19:55:27 1515804927.628771: $GPGGA,005528,3946.9599,N,08404.9513,W,1,06,1.20,310.57,M,-33.324,M,,*75
2018-01-12 19:55:27 1515804927.628837: $GPRMC,005528,A,3946.9599,N,08404.9513,W,0.7246,164.668,130118,,*31
2018-01-12 19:55:27 1515804927.628901: $GPGSA,A,3,8,7,9,16,23,27,,,,,,,4.8,1.2,4.6*0A
2018-01-12 19:55:28 1515804928.179800: $GPZDA,005529.00,13,01,2018,00,00*65
2018-01-12 19:55:28 1515804928.179994: $GPGGA,005529,3946.9599,N,08404.9513,W,1,06,1.20,310.57,M,-33.324,M,,*74
2018-01-12 19:55:28 1515804928.180063: $GPRMC,005529,A,3946.9599,N,08404.9513,W,0.5912,129.173,130118,,*3C
2018-01-12 19:55:28 1515804928.180126: $GPGSA,A,3,8,7,9,16,23,27,,,,,,,4.8,1.2,4.6*0A
2018-01-12 19:55:29 1515804929.183713: $GPZDA,005530.00,13,01,2018,00,00*6D
2018-01-12 19:55:29 1515804929.183897: $GPGGA,005530,3946.9599,N,08404.9513,W,1,06,1.20,310.57,M,-33.324,M,,*7C
2018-01-12 19:55:29 1515804929.183972: $GPRMC,005530,A,3946.9599,N,08404.9513,W,0.1567,9.201,130118,,*3B
2018-01-12 19:55:29 1515804929.184034: $GPGSA,A,3,8,7,9,16,23,27,,,,,,,4.8,1.2,4.6*0A
2018-01-12 19:55:30 1515804930.516889: $GPGSV,3,1,11,08,70,147,30,07,50,313,26,09,51,237,27,16,27,057,21*7F
2018-01-12 19:55:30 1515804930.517079: $GPGSV,3,2,11,23,34,192,24,27,51,058,24,30,25,304,00,26,02,069,11*72
2018-01-12 19:55:30 1515804930.517147: $GPGSV,3,3,11,11,15,169,00,28,10,255,00,120,07,103,00*7C
2018-01-12 19:55:30 1515804930.630529: $GPZDA,005531.00,13,01,2018,00,00*6C
2018-01-12 19:55:30 1515804930.630685: $GPGGA,005531,3946.9599,N,08404.9506,W,1,07,1.20,310.65,M,-33.324,M,,*79
2018-01-12 19:55:30 1515804930.630752: $GPRMC,005531,A,3946.9599,N,08404.9506,W,0.4207,39.347,130118,,*0A
2018-01-12 19:55:30 1515804930.630813: $GPGSA,A,3,8,7,9,16,23,27,26,,,,,,4.8,1.2,4.6*0E
2018-01-12 19:55:31 1515804931.182043: $GPZDA,005532.00,13,01,2018,00,00*6F
2018-01-12 19:55:31 1515804931.182219: $GPGGA,005532,3946.9595,N,08404.9506,W,1,07,1.20,310.01,M,-33.324,M,,*74
2018-01-12 19:55:31 1515804931.182287: $GPRMC,005532,A,3946.9595,N,08404.9506,W,0.4844,93.794,130118,,*02
2018-01-12 19:55:31 1515804931.182350: $GPGSA,A,3,8,7,9,16,23,27,26,,,,,,4.8,1.2,4.6*0E
2018-01-12 19:55:32 1515804932.180901: $GPZDA,005533.00,13,01,2018,00,00*6E
2018-01-12 19:55:32 1515804932.181067: $GPGGA,005533,3946.9595,N,08404.9506,W,1,07,1.20,310.01,M,-33.324,M,,*75
2018-01-12 19:55:32 1515804932.181135: $GPRMC,005533,A,3946.9595,N,08404.9506,W,0.2422,93.794,130118,,*09
2018-01-12 19:55:32 1515804932.181198: $GPGSA,A,3,8,7,9,16,23,27,26,,,,,,4.8,1.2,4.6*0E
2018-01-12 19:55:33 1515804933.501748: $GPGSV,3,1,11,08,70,147,29,07,50,313,26,09,51,237,27,16,27,057,21*77
2018-01-12 19:55:33 1515804933.501936: $GPGSV,3,2,11,23,34,192,24,27,51,058,24,28,10,255,16,26,02,069,12*7C
2018-01-12 19:55:33 1515804933.502006: $GPGSV,3,3,11,30,25,304,00,11,15,169,00,120,07,103,00*76
2018-01-12 19:55:33 1515804933.615150: $GPZDA,005534.00,13,01,2018,00,00*69
2018-01-12 19:55:33 1515804933.615328: $GPGGA,005534,3946.9595,N,08404.9506,W,1,07,1.20,310.01,M,-33.324,M,,*72
2018-01-12 19:55:33 1515804933.615394: $GPRMC,005534,A,3946.9595,N,08404.9506,W,0.0000,0.000,130118,,*38
2018-01-12 19:55:33 1515804933.615456: $GPGSA,A,3,8,7,9,16,23,27,26,,,,,,4.8,1.2,4.6*0E
2018-01-12 19:55:34 1515804934.180523: $GPZDA,005535.00,13,01,2018,00,00*68
2018-01-12 19:55:34 1515804934.180698: $GPGGA,005535,3946.9595,N,08404.9506,W,1,07,1.20,310.01,M,-33.324,M,,*73
2018-01-12 19:55:34 1515804934.180766: $GPRMC,005535,A,3946.9595,N,08404.9506,W,0.0000,0.000,130118,,*39
2018-01-12 19:55:34 1515804934.180828: $GPGSA,A,3,8,7,9,16,23,27,26,,,,,,4.8,1.2,4.6*0E
2018-01-12 19:55:35 1515804935.179906: $GPZDA,005536.00,13,01,2018,00,00*6B
2018-01-12 19:55:35 1515804935.180094: $GPGGA,005536,3946.9595,N,08404.9506,W,1,07,1.20,310.01,M,-33.324,M,,*70
2018-01-12 19:55:35 1515804935.180162: $GPRMC,005536,A,3946.9595,N,08404.9506,W,0.0000,0.000,130118,,*3A
2018-01-12 19:55:35 1515804935.180225: $GPGSA,A,3,8,7,9,16,23,27,26,,,,,,4.8,1.2,4.6*0E
2018-01-12 19:55:36 1515804936.516107: $GPGSV,3,1,11,08,70,147,29,07,50,313,26,09,51,237,27,16,27,057,20*76
2018-01-12 19:55:36 1515804936.516291: $GPGSV,3,2,11,23,34,192,24,27,51,058,24,30,25,304,00,26,02,069,12*71
2018-01-12 19:55:36 1515804936.516357: $GPGSV,3,3,11,11,15,169,00,28,10,255,00,120,07,103,00*7C
2018-01-12 19:55:36 1515804936.629467: $GPZDA,005537.00,13,01,2018,00,00*6A
2018-01-12 19:55:36 1515804936.629602: $GPGGA,005537,3946.9598,N,08404.9498,W,1,07,1.20,309.33,M,-33.324,M,,*73
2018-01-12 19:55:36 1515804936.629668: $GPRMC,005537,A,3946.9598,N,08404.9498,W,0.0000,0.000,130118,,*30
2018-01-12 19:55:36 1515804936.629729: $GPGSA,A,3,8,7,9,16,23,27,26,,,,,,4.8,1.2,4.6*0E
2018-01-12 19:55:37 1515804937.181130: $GPZDA,005538.00,13,01,2018,00,00*65
2018-01-12 19:55:37 1515804937.181304: $GPGGA,005538,3946.9598,N,08404.9498,W,1,07,1.20,309.33,M,-33.324,M,,*7C
2018-01-12 19:55:37 1515804937.181370: $GPRMC,005538,A,3946.9598,N,08404.9498,W,0.0000,0.000,130118,,*3F
2018-01-12 19:55:37 1515804937.181432: $GPGSA,A,3,8,7,9,16,23,27,26,,,,,,4.8,1.2,4.6*0E
