2017-11-16 14:46:05 1510861565.807936: {"class":"VERSION","release":"3.17","rev":"3.17","proto_major":3,"proto_minor":12}
2017-11-16 14:46:05 1510861565.808370: {"class":"DEVICES","devices":[{"class":"DEVICE","path":"/dev/ttyUSB0","driver":"SiRF","subtype":"9\u0006GSD4e_4.1.2-P1_RPATCH.05-F-GPS-4R-1510281 11/03/2015 307","activated":"2017-11-16T19:46:05.634Z","flags":1,"native":1,"bps":4800,"parity":"N","stopbits":1,"cycle":1.00}]}
2017-11-16 14:46:05 1510861565.808664: {"class":"WATCH","enable":true,"json":false,"nmea":true,"raw":0,"scaled":false,"timing":false,"split24":false,"pps":false}
2017-11-16 14:46:06 1510861566.824585: $GPGSV,3,1,11,08,08,309,36,10,53,313,50,15,25,058,50,18,77,027,44*70
2017-11-16 14:46:06 1510861566.824773: $GPGSV,3,2,11,21,48,183,48,20,22,106,44,24,53,084,48,27,15,274,39*7E
2017-11-16 14:46:06 1510861566.824834: $GPGSV,3,3,11,32,32,249,47,14,16,241,39,138,38,213,44*7B
2017-11-16 14:46:06 1510861566.937960: $GPZDA,194605.00,16,11,2017,00,00*6A
2017-11-16 14:46:06 1510861566.938127: $GPGGA,194605,3946.9564,N,08404.9842,W,2,11,0.80,302.74,M,-33.324,M,,*77
2017-11-16 14:46:06 1510861566.938194: $GPRMC,194605,A,3946.9564,N,08404.9842,W,0.0000,0.000,161117,,*38
2017-11-16 14:46:06 1510861566.938255: $GPGSA,A,3,8,10,15,18,21,20,24,27,32,14,138,,1.6,0.8,1.3*37
2017-11-16 14:46:07 1510861567.495173: $GPZDA,194606.00,16,11,2017,00,00*69
2017-11-16 14:46:07 1510861567.495341: $GPGGA,194606,3946.9564,N,08404.9842,W,2,11,0.80,302.74,M,-33.324,M,,*74
2017-11-16 14:46:07 1510861567.495406: $GPRMC,194606,A,3946.9564,N,08404.9842,W,0.0000,0.000,161117,,*3B
2017-11-16 14:46:07 1510861567.495465: $GPGSA,A,3,8,10,15,18,21,20,24,27,32,14,138,,1.6,0.8,1.3*37
2017-11-16 14:46:08 1510861568.493536: $GPZDA,194607.00,16,11,2017,00,00*68
2017-11-16 14:46:08 1510861568.493710: $GPGGA,194607,3946.9564,N,08404.9842,W,2,11,0.80,302.74,M,-33.324,M,,*75
2017-11-16 14:46:08 1510861568.493776: $GPRMC,194607,A,3946.9564,N,08404.9842,W,0.0000,0.000,161117,,*3A
2017-11-16 14:46:08 1510861568.493838: $GPGSA,A,3,8,10,15,18,21,20,24,27,32,14,138,,1.6,0.8,1.3*37
2017-11-16 14:46:09 1510861569.830045: $GPGSV,3,1,11,08,08,309,36,10,53,313,50,15,25,058,50,18,77,027,44*70
2017-11-16 14:46:09 1510861569.830242: $GPGSV,3,2,11,21,48,183,48,20,22,106,44,24,53,084,48,27,15,274,39*7E
2017-11-16 14:46:09 1510861569.830377: $GPGSV,3,3,11,32,32,249,48,14,16,241,39,138,38,213,43*73
2017-11-16 14:46:09 1510861569.943222: $GPZDA,194608.00,16,11,2017,00,00*67
2017-11-16 14:46:09 1510861569.943383: $GPGGA,194608,3946.9564,N,08404.9842,W,2,11,0.80,302.74,M,-33.324,M,,*7A
2017-11-16 14:46:09 1510861569.943444: $GPRMC,194608,A,3946.9564,N,08404.9842,W,0.0000,0.000,161117,,*35
2017-11-16 14:46:09 1510861569.943500: $GPGSA,A,3,8,10,15,18,21,20,24,27,32,14,138,,1.6,0.8,1.3*37
2017-11-16 14:46:10 1510861570.531630: $GPZDA,194609.00,16,11,2017,00,00*66
2017-11-16 14:46:10 1510861570.531796: $GPGGA,194609,3946.9564,N,08404.9842,W,2,11,0.80,302.74,M,-33.324,M,,*7B
2017-11-16 14:46:10 1510861570.531858: $GPRMC,194609,A,3946.9564,N,08404.9842,W,0.0000,0.000,161117,,*34
2017-11-16 14:46:10 1510861570.531914: $GPGSA,A,3,8,10,15,18,21,20,24,27,32,14,138,,1.6,0.8,1.3*37
2017-11-16 14:46:11 1510861571.529883: $GPZDA,194610.00,16,11,2017,00,00*6E
2017-11-16 14:46:11 1510861571.530082: $GPGGA,194610,3946.9564,N,08404.9842,W,2,11,0.80,302.74,M,-33.324,M,,*73
2017-11-16 14:46:11 1510861571.530146: $GPRMC,194610,A,3946.9564,N,08404.9842,W,0.0000,0.000,161117,,*3C
2017-11-16 14:46:11 1510861571.530203: $GPGSA,A,3,8,10,15,18,21,20,24,27,32,14,138,,1.6,0.8,1.3*37
2017-11-16 14:46:12 1510861572.863100: $GPGSV,3,1,11,08,08,309,37,10,53,313,50,15,25,058,50,18,77,027,44*71
2017-11-16 14:46:12 1510861572.863271: $GPGSV,3,2,11,21,48,183,48,20,22,106,44,24,53,084,48,27,15,274,38*7F
2017-11-16 14:46:12 1510861572.863333: $GPGSV,3,3,11,32,32,249,47,14,16,241,39,138,38,213,44*7B
2017-11-16 14:46:12 1510861572.976469: $GPZDA,194611.00,16,11,2017,00,00*6F
2017-11-16 14:46:12 1510861572.976648: $GPGGA,194611,3946.9564,N,08404.9842,W,2,11,0.80,302.74,M,-33.324,M,,*72
2017-11-16 14:46:12 1510861572.976762: $GPRMC,194611,A,3946.9564,N,08404.9842,W,0.0000,0.000,161117,,*3D
2017-11-16 14:46:12 1510861572.976819: $GPGSA,A,3,8,10,15,18,21,20,24,27,32,14,138,,1.6,0.8,1.3*37
2017-11-16 14:46:13 1510861573.493664: $GPZDA,194612.00,16,11,2017,00,00*6C
2017-11-16 14:46:13 1510861573.494020: $GPGGA,194612,3946.9564,N,08404.9842,W,2,11,0.80,302.74,M,-33.324,M,,*71
2017-11-16 14:46:13 1510861573.494166: $GPRMC,194612,A,3946.9564,N,08404.9842,W,0.0000,0.000,161117,,*3E
2017-11-16 14:46:13 1510861573.494258: $GPGSA,A,3,8,10,15,18,21,20,24,27,32,14,138,,1.6,0.8,1.3*37
2017-11-16 14:46:14 1510861574.493940: $GPZDA,194613.00,16,11,2017,00,00*6D
2017-11-16 14:46:14 1510861574.494270: $GPGGA,194613,3946.9564,N,08404.9842,W,2,11,0.80,302.74,M,-33.324,M,,*70
2017-11-16 14:46:14 1510861574.494391: $GPRMC,194613,A,3946.9564,N,08404.9842,W,0.0000,0.000,161117,,*3F
2017-11-16 14:46:14 1510861574.494504: $GPGSA,A,3,8,10,15,18,21,20,24,27,32,14,138,,1.6,0.8,1.3*37
2017-11-16 14:46:15 1510861575.829636: $GPGSV,3,1,11,08,08,309,38,10,53,313,50,15,25,058,50,18,77,027,44*7E
2017-11-16 14:46:15 1510861575.829821: $GPGSV,3,2,11,21,48,183,48,20,22,106,44,24,53,084,47,27,15,274,39*71
2017-11-16 14:46:15 1510861575.829883: $GPGSV,3,3,11,32,32,249,47,14,16,241,39,138,38,213,44*7B
