2017-12-01 16:38:32 1512164312.656746: {"class":"VERSION","release":"3.16","rev":"3.16-4","proto_major":3,"proto_minor":11}
2017-12-01 16:38:32 1512164312.657191: {"class":"DEVICES","devices":[{"class":"DEVICE","path":"/dev/ttyUSB0","driver":"SiRF","subtype":"9\u0006GSD4e_4.1.2-P1_RPATCH.05-F-GPS-4R-1510281 11/03/2015 307","activated":"2017-12-01T21:38:32.530Z","flags":1,"native":1,"bps":4800,"parity":"N","stopbits":1,"cycle":1.00}]}
2017-12-01 16:38:32 1512164312.657323: {"class":"WATCH","enable":true,"json":false,"nmea":true,"raw":0,"scaled":false,"timing":false,"split24":false,"pps":false}
2017-12-01 16:38:33 1512164313.704153: $GPGSV,3,1,12,01,22,297,42,10,44,150,43,11,07,279,39,14,67,336,44*72
2017-12-01 16:38:33 1512164313.704322: $GPGSV,3,2,12,22,22,312,45,31,60,229,50,32,67,039,48,12,20,046,31*75
2017-12-01 16:38:33 1512164313.704411: $GPGSV,3,3,12,25,40,085,30,26,05,181,25,18,14,145,00,138,38,213,34*43
2017-12-01 16:38:33 1512164313.817764: $GPZDA,213834.00,01,12,2017,00,00*6F
2017-12-01 16:38:33 1512164313.817936: $GPGGA,213834,3946.9664,N,08404.9726,W,2,11,1.00,299.38,M,-33.324,M,,*7B
2017-12-01 16:38:33 1512164313.818005: $GPRMC,213834,A,3946.9664,N,08404.9726,W,0.0000,0.000,011217,,*33
2017-12-01 16:38:33 1512164313.818069: $GPGSA,A,3,1,10,11,14,22,31,32,12,25,26,138,,2.0,1.0,1.5*39
2017-12-01 16:38:34 1512164314.369874: $GPZDA,213835.00,01,12,2017,00,00*6E
2017-12-01 16:38:34 1512164314.370072: $GPGGA,213835,3946.9664,N,08404.9726,W,2,11,1.00,299.38,M,-33.324,M,,*7A
2017-12-01 16:38:34 1512164314.370140: $GPRMC,213835,A,3946.9664,N,08404.9726,W,0.0000,0.000,011217,,*32
2017-12-01 16:38:34 1512164314.370203: $GPGSA,A,3,1,10,11,14,22,31,32,12,25,26,138,,2.0,1.0,1.5*39
2017-12-01 16:38:35 1512164315.368261: $GPZDA,213836.00,01,12,2017,00,00*6D
2017-12-01 16:38:35 1512164315.368455: $GPGGA,213836,3946.9664,N,08404.9726,W,2,11,1.00,299.38,M,-33.324,M,,*79
2017-12-01 16:38:35 1512164315.368523: $GPRMC,213836,A,3946.9664,N,08404.9726,W,0.0000,0.000,011217,,*31
2017-12-01 16:38:35 1512164315.368585: $GPGSA,A,3,1,10,11,14,22,31,32,12,25,26,138,,2.0,1.0,1.5*39
2017-12-01 16:38:36 1512164316.702503: $GPGSV,3,1,12,01,22,297,42,10,44,150,43,11,07,279,39,14,67,336,44*72
2017-12-01 16:38:36 1512164316.702688: $GPGSV,3,2,12,22,22,312,45,31,60,229,50,32,67,039,48,12,20,046,31*75
2017-12-01 16:38:36 1512164316.702755: $GPGSV,3,3,12,25,40,085,30,26,05,181,26,18,14,145,00,138,38,213,38*4C
2017-12-01 16:38:36 1512164316.815878: $GPZDA,213837.00,01,12,2017,00,00*6C
2017-12-01 16:38:36 1512164316.816051: $GPGGA,213837,3946.9664,N,08404.9726,W,2,11,1.00,299.38,M,-33.324,M,,*78
2017-12-01 16:38:36 1512164316.816118: $GPRMC,213837,A,3946.9664,N,08404.9726,W,0.0000,0.000,011217,,*30
2017-12-01 16:38:36 1512164316.816181: $GPGSA,A,3,1,10,11,14,22,31,32,12,25,26,138,,2.0,1.0,1.5*39
2017-12-01 16:38:37 1512164317.364395: $GPZDA,213838.00,01,12,2017,00,00*63
2017-12-01 16:38:37 1512164317.364557: $GPGGA,213838,3946.9664,N,08404.9726,W,2,11,1.00,299.38,M,-33.324,M,,*77
2017-12-01 16:38:37 1512164317.364624: $GPRMC,213838,A,3946.9664,N,08404.9726,W,0.0000,0.000,011217,,*3F
2017-12-01 16:38:37 1512164317.364687: $GPGSA,A,3,1,10,11,14,22,31,32,12,25,26,138,,2.0,1.0,1.5*39
2017-12-01 16:38:38 1512164318.363543: $GPZDA,213839.00,01,12,2017,00,00*62
2017-12-01 16:38:38 1512164318.363719: $GPGGA,213839,3946.9664,N,08404.9726,W,2,11,1.00,299.38,M,-33.324,M,,*76
2017-12-01 16:38:38 1512164318.363790: $GPRMC,213839,A,3946.9664,N,08404.9726,W,0.0000,0.000,011217,,*3E
2017-12-01 16:38:38 1512164318.363851: $GPGSA,A,3,1,10,11,14,22,31,32,12,25,26,138,,2.0,1.0,1.5*39
2017-12-01 16:38:39 1512164319.703129: $GPGSV,3,1,12,01,22,297,43,10,44,150,43,11,07,279,38,14,67,336,44*72
2017-12-01 16:38:39 1512164319.703336: $GPGSV,3,2,12,22,22,312,44,31,60,229,50,32,67,039,48,12,20,046,31*74
2017-12-01 16:38:39 1512164319.703407: $GPGSV,3,3,12,25,40,085,25,26,05,181,26,18,14,145,00,138,38,213,39*49
2017-12-01 16:38:39 1512164319.816307: $GPZDA,213840.00,01,12,2017,00,00*6C
2017-12-01 16:38:39 1512164319.816478: $GPGGA,213840,3946.9664,N,08404.9726,W,2,11,1.00,299.38,M,-33.324,M,,*78
2017-12-01 16:38:39 1512164319.816596: $GPRMC,213840,A,3946.9664,N,08404.9726,W,0.0000,0.000,011217,,*30
2017-12-01 16:38:39 1512164319.816659: $GPGSA,A,3,1,10,11,14,22,31,32,12,25,26,138,,2.0,1.0,1.5*39
2017-12-01 16:38:40 1512164320.367127: $GPZDA,213841.00,01,12,2017,00,00*6D
2017-12-01 16:38:40 1512164320.367300: $GPGGA,213841,3946.9664,N,08404.9726,W,2,11,1.00,299.38,M,-33.324,M,,*79
2017-12-01 16:38:40 1512164320.367366: $GPRMC,213841,A,3946.9664,N,08404.9726,W,0.0000,0.000,011217,,*31
2017-12-01 16:38:40 1512164320.367427: $GPGSA,A,3,1,10,11,14,22,31,32,12,25,26,138,,2.0,1.0,1.5*39
2017-12-01 16:38:41 1512164321.368053: $GPZDA,213842.00,01,12,2017,00,00*6E
2017-12-01 16:38:41 1512164321.368223: $GPGGA,213842,3946.9660,N,08404.9727,W,2,11,1.00,300.14,M,-33.324,M,,*70
2017-12-01 16:38:41 1512164321.368290: $GPRMC,213842,A,3946.9660,N,08404.9727,W,0.0000,0.000,011217,,*37
2017-12-01 16:38:41 1512164321.368351: $GPGSA,A,3,1,10,11,14,22,31,32,12,25,26,138,,2.0,1.0,1.5*39
2017-12-01 16:38:42 1512164322.703758: $GPGSV,3,1,12,01,22,297,42,10,44,150,43,11,07,279,37,14,67,336,44*7C
2017-12-01 16:38:42 1512164322.703938: $GPGSV,3,2,12,22,22,312,44,31,60,229,49,32,67,039,48,12,20,046,31*7C
2017-12-01 16:38:42 1512164322.704005: $GPGSV,3,3,12,25,40,085,26,26,05,181,26,03,03,316,22,138,38,213,40*4C
2017-12-01 16:38:42 1512164322.817073: $GPZDA,213843.00,01,12,2017,00,00*6F
2017-12-01 16:38:42 1512164322.817226: $GPGGA,213843,3946.9660,N,08404.9727,W,2,11,1.00,300.14,M,-33.324,M,,*71
2017-12-01 16:38:42 1512164322.817292: $GPRMC,213843,A,3946.9660,N,08404.9727,W,0.0000,0.000,011217,,*36
2017-12-01 16:38:42 1512164322.817353: $GPGSA,A,3,1,10,11,14,22,31,32,12,25,26,138,,2.0,1.0,1.5*39
2017-12-01 16:38:43 1512164323.442563: $GPZDA,213844.00,01,12,2017,00,00*68
2017-12-01 16:38:43 1512164323.442733: $GPGGA,213844,3946.9660,N,08404.9727,W,2,11,1.00,300.14,M,-33.324,M,,*76
2017-12-01 16:38:43 1512164323.442801: $GPRMC,213844,A,3946.9660,N,08404.9727,W,0.0000,0.000,011217,,*31
2017-12-01 16:38:43 1512164323.442862: $GPGSA,A,3,1,10,11,14,22,31,32,12,25,26,138,,2.0,1.0,1.5*39
2017-12-01 16:38:44 1512164324.365901: $GPZDA,213845.00,01,12,2017,00,00*69
2017-12-01 16:38:44 1512164324.366088: $GPGGA,213845,3946.9660,N,08404.9727,W,2,11,1.00,300.14,M,-33.324,M,,*77
2017-12-01 16:38:44 1512164324.366156: $GPRMC,213845,A,3946.9660,N,08404.9727,W,0.0000,0.000,011217,,*30
2017-12-01 16:38:44 1512164324.366218: $GPGSA,A,3,1,10,11,14,22,31,32,12,25,26,138,,2.0,1.0,1.5*39
2017-12-01 16:38:45 1512164325.705330: $GPGSV,3,1,12,01,22,297,42,10,44,150,42,11,07,279,38,14,67,336,44*72
2017-12-01 16:38:45 1512164325.705509: $GPGSV,3,2,12,22,22,312,45,31,60,229,49,32,67,039,47,12,20,046,31*72
2017-12-01 16:38:45 1512164325.705577: $GPGSV,3,3,12,25,40,085,25,26,05,181,27,18,14,145,13,138,38,213,37*44
2017-12-01 16:38:45 1512164325.817495: $GPZDA,213846.00,01,12,2017,00,00*6A
2017-12-01 16:38:45 1512164325.817686: $GPGGA,213846,3946.9660,N,08404.9727,W,2,11,1.00,300.14,M,-33.324,M,,*74
2017-12-01 16:38:45 1512164325.817753: $GPRMC,213846,A,3946.9660,N,08404.9727,W,0.0000,0.000,011217,,*33
2017-12-01 16:38:45 1512164325.817814: $GPGSA,A,3,1,10,11,14,22,31,32,12,25,26,138,,2.0,1.0,1.5*39
2017-12-01 16:38:46 1512164326.367193: $GPZDA,213847.00,01,12,2017,00,00*6B
2017-12-01 16:38:46 1512164326.367364: $GPGGA,213847,3946.9660,N,08404.9727,W,2,11,1.00,300.14,M,-33.324,M,,*75
2017-12-01 16:38:46 1512164326.367430: $GPRMC,213847,A,3946.9660,N,08404.9727,W,0.0000,0.000,011217,,*32
2017-12-01 16:38:46 1512164326.367490: $GPGSA,A,3,1,10,11,14,22,31,32,12,25,26,138,,2.0,1.0,1.5*39
2017-12-01 16:38:47 1512164327.368568: $GPZDA,213848.00,01,12,2017,00,00*64
2017-12-01 16:38:47 1512164327.368737: $GPGGA,213848,3946.9660,N,08404.9727,W,2,11,1.00,300.14,M,-33.324,M,,*7A
2017-12-01 16:38:47 1512164327.368803: $GPRMC,213848,A,3946.9660,N,08404.9727,W,0.0000,0.000,011217,,*3D
2017-12-01 16:38:47 1512164327.368887: $GPGSA,A,3,1,10,11,14,22,31,32,12,25,26,138,,2.0,1.0,1.5*39
2017-12-01 16:38:48 1512164328.702067: $GPGSV,3,1,12,01,22,297,42,10,44,150,43,11,07,279,38,14,67,336,44*73
2017-12-01 16:38:48 1512164328.702466: $GPGSV,3,2,12,22,22,312,45,31,60,229,49,32,67,039,47,12,20,046,31*72
2017-12-01 16:38:48 1512164328.702592: $GPGSV,3,3,12,25,40,085,26,26,05,181,27,03,03,316,25,138,38,213,40*4A
2017-12-01 16:38:48 1512164328.815382: $GPZDA,213849.00,01,12,2017,00,00*65
2017-12-01 16:38:48 1512164328.815543: $GPGGA,213849,3946.9660,N,08404.9727,W,2,12,1.00,300.14,M,-33.324,M,,*78
2017-12-01 16:38:48 1512164328.815609: $GPRMC,213849,A,3946.9660,N,08404.9727,W,0.0000,0.000,011217,,*3C
2017-12-01 16:38:48 1512164328.815670: $GPGSA,A,3,1,10,11,14,22,31,32,12,25,26,3,138,2.0,1.0,1.5*0A
2017-12-01 16:38:49 1512164329.368726: $GPZDA,213850.00,01,12,2017,00,00*6D
2017-12-01 16:38:49 1512164329.368911: $GPGGA,213850,3946.9660,N,08404.9727,W,2,12,1.00,300.14,M,-33.324,M,,*70
2017-12-01 16:38:49 1512164329.368980: $GPRMC,213850,A,3946.9660,N,08404.9727,W,0.0000,0.000,011217,,*34
2017-12-01 16:38:49 1512164329.369059: $GPGSA,A,3,1,10,11,14,22,31,32,12,25,26,3,138,2.0,1.0,1.5*0A
2017-12-01 16:38:50 1512164330.368351: $GPZDA,213851.00,01,12,2017,00,00*6C
2017-12-01 16:38:50 1512164330.368513: $GPGGA,213851,3946.9660,N,08404.9727,W,2,12,1.00,300.14,M,-33.324,M,,*71
2017-12-01 16:38:50 1512164330.368580: $GPRMC,213851,A,3946.9660,N,08404.9727,W,0.0000,0.000,011217,,*35
2017-12-01 16:38:50 1512164330.368641: $GPGSA,A,3,1,10,11,14,22,31,32,12,25,26,3,138,2.0,1.0,1.5*0A
2017-12-01 16:38:51 1512164331.712802: $GPGSV,3,1,12,01,22,297,42,10,44,150,42,11,07,279,37,14,67,336,44*7D
2017-12-01 16:38:51 1512164331.713014: $GPGSV,3,2,12,22,22,312,46,31,60,229,49,32,67,039,47,12,20,046,30*70
2017-12-01 16:38:51 1512164331.713083: $GPGSV,3,3,12,25,40,085,27,26,05,181,28,18,14,145,00,138,38,213,41*4A
2017-12-01 16:38:51 1512164331.826238: $GPZDA,213852.00,01,12,2017,00,00*6F
2017-12-01 16:38:51 1512164331.826402: $GPGGA,213852,3946.9660,N,08404.9727,W,2,11,1.00,300.14,M,-33.324,M,,*71
2017-12-01 16:38:51 1512164331.826469: $GPRMC,213852,A,3946.9660,N,08404.9727,W,0.0000,0.000,011217,,*36
2017-12-01 16:38:51 1512164331.826529: $GPGSA,A,3,1,10,11,14,22,31,32,12,25,26,138,,2.0,1.0,1.5*39
2017-12-01 16:38:52 1512164332.368811: $GPZDA,213853.00,01,12,2017,00,00*6E
2017-12-01 16:38:52 1512164332.369014: $GPGGA,213853,3946.9660,N,08404.9727,W,2,11,1.00,300.14,M,-33.324,M,,*70
2017-12-01 16:38:52 1512164332.369082: $GPRMC,213853,A,3946.9660,N,08404.9727,W,0.0000,0.000,011217,,*37
2017-12-01 16:38:52 1512164332.369143: $GPGSA,A,3,1,10,11,14,22,31,32,12,25,26,138,,2.0,1.0,1.5*39
