2017-11-15 19:05:58 1510790758.313847: {"class":"VERSION","release":"3.17","rev":"3.17","proto_major":3,"proto_minor":12}
2017-11-15 19:05:58 1510790758.314270: {"class":"DEVICES","devices":[{"class":"DEVICE","path":"/dev/ttyUSB0","driver":"SiRF","subtype":"9\u0006GSD4e_4.1.2-P1_RPATCH.05-F-GPS-4R-1510281 11/03/2015 307","activated":"2017-11-16T00:05:58.216Z","flags":1,"native":1,"bps":4800,"parity":"N","stopbits":1,"cycle":1.00}]}
2017-11-15 19:05:58 1510790758.314379: {"class":"WATCH","enable":true,"json":false,"nmea":true,"raw":0,"scaled":false,"timing":false,"split24":false,"pps":false}
2017-11-15 19:05:58 1510790758.329450: $GPZDA,000557.00,16,11,2017,00,00*62
2017-11-15 19:05:58 1510790758.329598: $GPGGA,000557,3946.9661,N,08404.9493,W,1,07,1.40,296.89,M,-33.324,M,,*7E
2017-11-15 19:05:58 1510790758.329657: $GPRMC,000557,A,3946.9661,N,08404.9493,W,1.6108,248.645,161117,,*31
2017-11-15 19:05:58 1510790758.329712: $GPGSA,A,3,32,14,3,26,31,16,22,,,,,,3.4,1.4,2.9*0D
2017-11-15 19:05:59 1510790759.345118: $GPZDA,000558.00,16,11,2017,00,00*6D
2017-11-15 19:05:59 1510790759.345294: $GPGGA,000558,3946.9657,N,08404.9500,W,1,07,1.40,296.17,M,-33.324,M,,*78
2017-11-15 19:05:59 1510790759.345356: $GPRMC,000558,A,3946.9657,N,08404.9500,W,2.4162,248.645,161117,,*3D
2017-11-15 19:05:59 1510790759.345412: $GPGSA,A,3,32,14,3,26,31,16,22,,,,,,3.4,1.4,2.9*0D
2017-11-15 19:06:00 1510790760.682160: $GPGSV,3,1,11,32,45,096,14,14,63,073,22,03,32,309,15,26,40,175,25*7D
2017-11-15 19:06:00 1510790760.682342: $GPGSV,3,2,11,31,76,355,24,16,11,190,17,22,47,288,12,25,26,045,00*77
2017-11-15 19:06:00 1510790760.682402: $GPGSV,3,3,11,01,12,262,00,10,08,159,00,29,06,081,00*4D
2017-11-15 19:06:00 1510790760.795465: $GPZDA,000559.00,16,11,2017,00,00*6C
2017-11-15 19:06:00 1510790760.795629: $GPGGA,000559,3946.9657,N,08404.9507,W,1,07,1.40,296.09,M,-33.324,M,,*71
2017-11-15 19:06:00 1510790760.795689: $GPRMC,000559,A,3946.9657,N,08404.9507,W,2.1994,245.962,161117,,*38
2017-11-15 19:06:00 1510790760.795745: $GPGSA,A,3,32,14,3,26,31,16,22,,,,,,3.4,1.4,2.9*0D
2017-11-15 19:06:01 1510790761.420834: $GPZDA,000600.00,16,11,2017,00,00*63
2017-11-15 19:06:01 1510790761.421009: $GPGGA,000600,3946.9654,N,08404.9514,W,1,07,1.40,296.78,M,-33.324,M,,*79
2017-11-15 19:06:01 1510790761.421071: $GPRMC,000600,A,3946.9654,N,08404.9514,W,2.0596,254.382,161117,,*3D
2017-11-15 19:06:01 1510790761.421127: $GPGSA,A,3,32,14,3,26,31,16,22,,,,,,3.4,1.4,2.9*0D
2017-11-15 19:06:02 1510790762.346914: $GPZDA,000601.00,16,11,2017,00,00*62
2017-11-15 19:06:02 1510790762.347098: $GPGGA,000601,3946.9654,N,08404.9521,W,1,07,1.40,296.70,M,-33.324,M,,*76
2017-11-15 19:06:02 1510790762.347160: $GPRMC,000601,A,3946.9654,N,08404.9521,W,1.7321,262.397,161117,,*35
2017-11-15 19:06:02 1510790762.347217: $GPGSA,A,3,32,14,3,26,31,16,22,,,,,,3.4,1.4,2.9*0D
2017-11-15 19:06:03 1510790763.681251: $GPGSV,3,1,11,32,45,096,14,14,63,073,22,03,32,309,14,26,40,175,25*7C
2017-11-15 19:06:03 1510790763.681425: $GPGSV,3,2,11,31,76,355,24,16,11,190,17,22,47,288,14,25,26,045,00*71
2017-11-15 19:06:03 1510790763.681486: $GPGSV,3,3,11,01,12,262,00,10,08,159,00,29,06,081,00*4D
2017-11-15 19:06:03 1510790763.794647: $GPZDA,000602.00,16,11,2017,00,00*61
2017-11-15 19:06:03 1510790763.794873: $GPGGA,000602,3946.9655,N,08404.9528,W,1,07,1.40,296.62,M,-33.324,M,,*7E
2017-11-15 19:06:03 1510790763.794972: $GPRMC,000602,A,3946.9655,N,08404.9528,W,1.2357,266.543,161117,,*31
2017-11-15 19:06:03 1510790763.795031: $GPGSA,A,3,32,14,3,26,31,16,22,,,,,,3.4,1.4,2.9*0D
2017-11-15 19:06:04 1510790764.345476: $GPZDA,000603.00,16,11,2017,00,00*60
2017-11-15 19:06:04 1510790764.345657: $GPGGA,000603,3946.9655,N,08404.9528,W,1,07,2.00,296.62,M,-33.324,M,,*78
2017-11-15 19:06:04 1510790764.345720: $GPRMC,000603,A,3946.9655,N,08404.9528,W,0.8054,248.645,161117,,*32
2017-11-15 19:06:04 1510790764.345776: $GPGSA,A,3,32,14,3,26,31,16,22,,,,,,3.4,2.0,2.9*0A
2017-11-15 19:06:05 1510790765.345061: $GPZDA,000604.00,16,11,2017,00,00*67
2017-11-15 19:06:05 1510790765.345244: $GPGGA,000604,3946.9652,N,08404.9536,W,1,07,2.00,297.31,M,-33.324,M,,*70
2017-11-15 19:06:05 1510790765.345363: $GPRMC,000604,A,3946.9652,N,08404.9536,W,0.8953,239.978,161117,,*34
2017-11-15 19:06:05 1510790765.345421: $GPGSA,A,3,32,14,3,26,31,16,22,,,,,,3.4,2.0,2.9*0A
2017-11-15 19:06:06 1510790766.680382: $GPGSV,3,1,11,32,45,096,14,14,63,073,23,03,32,309,13,26,40,175,25*7A
2017-11-15 19:06:06 1510790766.680553: $GPGSV,3,2,11,31,76,355,23,16,11,190,17,22,47,288,14,25,26,045,00*76
2017-11-15 19:06:06 1510790766.680615: $GPGSV,3,3,11,01,12,262,00,10,08,159,00,29,06,081,00*4D
2017-11-15 19:06:06 1510790766.793886: $GPZDA,000605.00,16,11,2017,00,00*66
2017-11-15 19:06:06 1510790766.794110: $GPGGA,000605,3946.9652,N,08404.9536,W,1,07,1.40,297.31,M,-33.324,M,,*76
2017-11-15 19:06:06 1510790766.794176: $GPRMC,000605,A,3946.9652,N,08404.9536,W,1.1385,209.379,161117,,*34
2017-11-15 19:06:06 1510790766.794234: $GPGSA,A,3,32,14,3,26,31,16,22,,,,,,3.4,1.4,2.9*0D
2017-11-15 19:06:07 1510790767.344557: $GPZDA,000606.00,16,11,2017,00,00*65
2017-11-15 19:06:07 1510790767.344725: $GPGGA,000606,3946.9648,N,08404.9536,W,1,07,1.40,296.67,M,-33.324,M,,*7C
2017-11-15 19:06:07 1510790767.344813: $GPRMC,000606,A,3946.9648,N,08404.9536,W,0.7070,228.986,161117,,*3B
2017-11-15 19:06:07 1510790767.344891: $GPGSA,A,3,32,14,3,26,31,16,22,,,,,,3.4,1.4,2.9*0D
2017-11-15 19:06:08 1510790768.345611: $GPZDA,000607.00,16,11,2017,00,00*64
2017-11-15 19:06:08 1510790768.345786: $GPGGA,000607,3946.9644,N,08404.9537,W,1,07,1.40,297.43,M,-33.324,M,,*77
2017-11-15 19:06:08 1510790768.345848: $GPRMC,000607,A,3946.9644,N,08404.9537,W,1.0018,230.691,161117,,*3F
2017-11-15 19:06:08 1510790768.345921: $GPGSA,A,3,32,14,3,26,31,16,22,,,,,,3.4,1.4,2.9*0D
