2018-01-11 20:31:27 1515720687.561589: {"class":"VERSION","release":"3.16","rev":"3.16-4","proto_major":3,"proto_minor":11}
2018-01-11 20:31:27 1515720687.561941: {"class":"DEVICES","devices":[{"class":"DEVICE","path":"/dev/ttyUSB0","driver":"SiRF","subtype":"9\u0006GSD4e_4.1.2-P1_RPATCH.05-F-GPS-4R-1510281 11/03/2015 307","activated":"2018-01-12T01:31:27.253Z","flags":1,"native":1,"bps":4800,"parity":"N","stopbits":1,"cycle":1.00}]}
2018-01-11 20:31:27 1515720687.562055: {"class":"WATCH","enable":true,"json":false,"nmea":true,"raw":0,"scaled":false,"timing":false,"split24":false,"pps":false}
2018-01-11 20:31:27 1515720687.703359: $GPGSV,3,1,11,07,65,316,43,08,75,091,45,09,40,220,43,11,28,163,44*7B
2018-01-11 20:31:27 1515720687.703543: $GPGSV,3,2,11,16,16,066,30,23,20,187,49,27,39,048,49,28,20,265,35*7A
2018-01-11 20:31:27 1515720687.703610: $GPGSV,3,3,11,30,37,309,34,01,06,159,20,138,38,213,45*7B
2018-01-11 20:31:27 1515720687.816715: $GPZDA,013128.00,12,01,2018,00,00*66
2018-01-11 20:31:27 1515720687.816850: $GPGGA,013128,3946.9600,N,08404.9821,W,2,11,0.80,283.82,M,-33.324,M,,*74
2018-01-11 20:31:27 1515720687.816915: $GPRMC,013128,A,3946.9600,N,08404.9821,W,0.0000,0.000,120118,,*30
2018-01-11 20:31:27 1515720687.816976: $GPGSA,A,3,7,8,9,11,16,23,27,28,30,1,138,,4.0,0.8,3.5*0F
2018-01-11 20:31:28 1515720688.367597: $GPZDA,013129.00,12,01,2018,00,00*67
2018-01-11 20:31:28 1515720688.367742: $GPGGA,013129,3946.9600,N,08404.9821,W,2,11,0.80,283.82,M,-33.324,M,,*75
2018-01-11 20:31:28 1515720688.367809: $GPRMC,013129,A,3946.9600,N,08404.9821,W,0.0000,0.000,120118,,*31
2018-01-11 20:31:28 1515720688.367870: $GPGSA,A,3,7,8,9,11,16,23,27,28,30,1,138,,4.0,0.8,3.5*0F
2018-01-11 20:31:29 1515720689.368512: $GPZDA,013130.00,12,01,2018,00,00*6F
2018-01-11 20:31:29 1515720689.368678: $GPGGA,013130,3946.9601,N,08404.9822,W,2,11,0.80,285.22,M,-33.324,M,,*73
2018-01-11 20:31:29 1515720689.368745: $GPRMC,013130,A,3946.9601,N,08404.9822,W,0.0000,0.000,120118,,*3B
2018-01-11 20:31:29 1515720689.368807: $GPGSA,A,3,7,8,9,11,16,23,27,28,30,1,138,,4.0,0.8,3.5*0F
2018-01-11 20:31:30 1515720690.704231: $GPGSV,3,1,11,07,65,316,43,08,75,091,45,09,40,220,44,11,28,163,44*7C
2018-01-11 20:31:30 1515720690.704375: $GPGSV,3,2,11,16,16,066,31,23,20,187,49,27,39,048,49,28,20,265,36*78
2018-01-11 20:31:30 1515720690.704440: $GPGSV,3,3,11,30,37,309,34,01,06,159,00,138,38,213,45*79
2018-01-11 20:31:30 1515720690.817575: $GPZDA,013131.00,12,01,2018,00,00*6E
2018-01-11 20:31:30 1515720690.817713: $GPGGA,013131,3946.9601,N,08404.9822,W,2,10,0.80,285.22,M,-33.324,M,,*73
2018-01-11 20:31:30 1515720690.817777: $GPRMC,013131,A,3946.9601,N,08404.9822,W,0.0000,0.000,120118,,*3A
2018-01-11 20:31:30 1515720690.817838: $GPGSA,A,3,7,8,9,11,16,23,27,28,30,138,,,4.0,0.8,3.5*3E
2018-01-11 20:31:31 1515720691.368453: $GPZDA,013132.00,12,01,2018,00,00*6D
2018-01-11 20:31:31 1515720691.368612: $GPGGA,013132,3946.9601,N,08404.9822,W,2,10,0.80,285.22,M,-33.324,M,,*70
2018-01-11 20:31:31 1515720691.368680: $GPRMC,013132,A,3946.9601,N,08404.9822,W,0.0000,0.000,120118,,*39
2018-01-11 20:31:31 1515720691.368740: $GPGSA,A,3,7,8,9,11,16,23,27,28,30,138,,,4.0,0.8,3.5*3E
2018-01-11 20:31:32 1515720692.365114: $GPZDA,013133.00,12,01,2018,00,00*6C
2018-01-11 20:31:32 1515720692.365296: $GPGGA,013133,3946.9601,N,08404.9822,W,2,10,0.80,285.22,M,-33.324,M,,*71
2018-01-11 20:31:32 1515720692.365363: $GPRMC,013133,A,3946.9601,N,08404.9822,W,0.0000,0.000,120118,,*38
2018-01-11 20:31:32 1515720692.365425: $GPGSA,A,3,7,8,9,11,16,23,27,28,30,138,,,4.0,0.8,3.5*3E
2018-01-11 20:31:33 1515720693.704598: $GPGSV,3,1,11,07,65,316,43,08,75,091,45,09,40,220,43,11,28,163,44*7B
2018-01-11 20:31:33 1515720693.704775: $GPGSV,3,2,11,16,16,066,31,23,20,187,49,27,39,048,49,28,20,265,37*79
2018-01-11 20:31:33 1515720693.704841: $GPGSV,3,3,11,30,37,309,35,01,06,159,00,138,38,213,45*78
2018-01-11 20:31:33 1515720693.817929: $GPZDA,013134.00,12,01,2018,00,00*6B
2018-01-11 20:31:33 1515720693.818055: $GPGGA,013134,3946.9601,N,08404.9822,W,2,10,0.80,285.22,M,-33.324,M,,*76
2018-01-11 20:31:33 1515720693.818123: $GPRMC,013134,A,3946.9601,N,08404.9822,W,0.0000,0.000,120118,,*3F
2018-01-11 20:31:33 1515720693.818241: $GPGSA,A,3,7,8,9,11,16,23,27,28,30,138,,,4.0,0.8,3.5*3E
2018-01-11 20:31:34 1515720694.368802: $GPZDA,013135.00,12,01,2018,00,00*6A
2018-01-11 20:31:34 1515720694.368949: $GPGGA,013135,3946.9601,N,08404.9822,W,2,10,0.80,285.22,M,-33.324,M,,*77
2018-01-11 20:31:34 1515720694.369014: $GPRMC,013135,A,3946.9601,N,08404.9822,W,0.0000,0.000,120118,,*3E
2018-01-11 20:31:34 1515720694.369128: $GPGSA,A,3,7,8,9,11,16,23,27,28,30,138,,,4.0,0.8,3.5*3E
2018-01-11 20:31:35 1515720695.367222: $GPZDA,013136.00,12,01,2018,00,00*69
2018-01-11 20:31:35 1515720695.367391: $GPGGA,013136,3946.9601,N,08404.9822,W,2,10,0.80,285.22,M,-33.324,M,,*74
2018-01-11 20:31:35 1515720695.367458: $GPRMC,013136,A,3946.9601,N,08404.9822,W,0.0000,0.000,120118,,*3D
2018-01-11 20:31:35 1515720695.367521: $GPGSA,A,3,7,8,9,11,16,23,27,28,30,138,,,4.0,0.8,3.5*3E
2018-01-11 20:31:36 1515720696.714270: $GPGSV,3,1,11,07,65,316,43,08,75,091,45,09,40,220,43,11,28,163,44*7B
2018-01-11 20:31:36 1515720696.714453: $GPGSV,3,2,11,16,16,066,31,23,20,187,49,27,39,048,49,28,20,265,38*76
2018-01-11 20:31:36 1515720696.714521: $GPGSV,3,3,11,30,37,309,35,01,06,159,02,138,38,213,45*7A
2018-01-11 20:31:36 1515720696.827641: $GPZDA,013137.00,12,01,2018,00,00*68
2018-01-11 20:31:36 1515720696.827782: $GPGGA,013137,3946.9601,N,08404.9822,W,2,10,0.80,285.22,M,-33.324,M,,*75
2018-01-11 20:31:36 1515720696.827849: $GPRMC,013137,A,3946.9601,N,08404.9822,W,0.0000,0.000,120118,,*3C
2018-01-11 20:31:36 1515720696.827910: $GPGSA,A,3,7,8,9,11,16,23,27,28,30,138,,,4.0,0.8,3.5*3E
2018-01-11 20:31:37 1515720697.452991: $GPZDA,013138.00,12,01,2018,00,00*67
2018-01-11 20:31:37 1515720697.453169: $GPGGA,013138,3946.9601,N,08404.9822,W,2,10,0.80,285.22,M,-33.324,M,,*7A
2018-01-11 20:31:37 1515720697.453254: $GPRMC,013138,A,3946.9601,N,08404.9822,W,0.0000,0.000,120118,,*33
2018-01-11 20:31:37 1515720697.453319: $GPGSA,A,3,7,8,9,11,16,23,27,28,30,138,,,4.0,0.8,3.5*3E
2018-01-11 20:31:38 1515720698.369266: $GPZDA,013139.00,12,01,2018,00,00*66
2018-01-11 20:31:38 1515720698.369433: $GPGGA,013139,3946.9601,N,08404.9822,W,2,10,0.80,285.22,M,-33.324,M,,*7B
2018-01-11 20:31:38 1515720698.369499: $GPRMC,013139,A,3946.9601,N,08404.9822,W,0.0000,0.000,120118,,*32
2018-01-11 20:31:38 1515720698.369560: $GPGSA,A,3,7,8,9,11,16,23,27,28,30,138,,,4.0,0.8,3.5*3E
2018-01-11 20:31:39 1515720699.703339: $GPGSV,3,1,11,07,65,316,44,08,75,091,46,09,40,220,43,11,28,163,45*7E
2018-01-11 20:31:39 1515720699.703522: $GPGSV,3,2,11,16,16,066,32,23,20,187,48,27,39,048,49,28,20,265,39*75
2018-01-11 20:31:39 1515720699.703589: $GPGSV,3,3,11,30,37,309,35,01,06,159,00,138,38,213,45*78
2018-01-11 20:31:39 1515720699.816966: $GPZDA,013140.00,12,01,2018,00,00*68
2018-01-11 20:31:39 1515720699.817098: $GPGGA,013140,3946.9601,N,08404.9822,W,2,10,0.80,285.22,M,-33.324,M,,*75
2018-01-11 20:31:39 1515720699.817168: $GPRMC,013140,A,3946.9601,N,08404.9822,W,0.0000,0.000,120118,,*3C
2018-01-11 20:31:39 1515720699.817230: $GPGSA,A,3,7,8,9,11,16,23,27,28,30,138,,,4.0,0.8,3.5*3E
2018-01-11 20:31:40 1515720700.367865: $GPZDA,013141.00,12,01,2018,00,00*69
2018-01-11 20:31:40 1515720700.368015: $GPGGA,013141,3946.9597,N,08404.9823,W,2,10,0.80,285.99,M,-33.324,M,,*79
2018-01-11 20:31:40 1515720700.368083: $GPRMC,013141,A,3946.9597,N,08404.9823,W,0.0000,0.000,120118,,*30
2018-01-11 20:31:40 1515720700.368148: $GPGSA,A,3,7,8,9,11,16,23,27,28,30,138,,,4.0,0.8,3.5*3E
