2017-11-16 15:16:17 1510863377.365158: {"class":"VERSION","release":"3.17","rev":"3.17","proto_major":3,"proto_minor":12}
2017-11-16 15:16:17 1510863377.365434: {"class":"DEVICES","devices":[{"class":"DEVICE","path":"/dev/ttyUSB0","driver":"SiRF","subtype":"9\u0006GSD4e_4.1.2-P1_RPATCH.05-F-GPS-4R-1510281 11/03/2015 307","activated":"2017-11-16T20:16:17.283Z","flags":1,"native":1,"bps":4800,"parity":"N","stopbits":1,"cycle":1.00}]}
2017-11-16 15:16:17 1510863377.365493: {"class":"WATCH","enable":true,"json":false,"nmea":true,"raw":0,"scaled":false,"timing":false,"split24":false,"pps":false}
2017-11-16 15:16:17 1510863377.396000: $GPZDA,201616.00,16,11,2017,00,00*67
2017-11-16 15:16:17 1510863377.396107: $GPGGA,201616,3946.9576,N,08404.9855,W,2,12,0.80,303.10,M,-33.324,M,,*7F
2017-11-16 15:16:17 1510863377.396139: $GPRMC,201616,A,3946.9576,N,08404.9855,W,0.0000,0.000,161117,,*30
2017-11-16 15:16:17 1510863377.396168: $GPGSA,A,3,8,10,14,15,18,20,21,24,27,32,12,138,1.6,0.8,1.3*34
2017-11-16 15:16:18 1510863378.379956: $GPZDA,201617.00,16,11,2017,00,00*66
2017-11-16 15:16:18 1510863378.380135: $GPGGA,201617,3946.9576,N,08404.9855,W,2,12,0.80,303.10,M,-33.324,M,,*7E
2017-11-16 15:16:18 1510863378.380202: $GPRMC,201617,A,3946.9576,N,08404.9855,W,0.0000,0.000,161117,,*31
2017-11-16 15:16:18 1510863378.380261: $GPGSA,A,3,8,10,14,15,18,20,21,24,27,32,12,138,1.6,0.8,1.3*34
2017-11-16 15:16:19 1510863379.715757: $GPGSV,3,1,12,08,07,297,36,10,66,325,51,14,26,250,45,15,14,064,38*70
2017-11-16 15:16:19 1510863379.715960: $GPGSV,3,2,12,18,73,084,45,20,11,115,30,21,33,180,45,24,47,063,49*79
2017-11-16 15:16:19 1510863379.716046: $GPGSV,3,3,12,27,08,262,37,32,43,261,48,12,07,109,26,138,38,213,44*43
2017-11-16 15:16:19 1510863379.829414: $GPZDA,201618.00,16,11,2017,00,00*69
2017-11-16 15:16:19 1510863379.829630: $GPGGA,201618,3946.9576,N,08404.9855,W,2,12,0.80,303.10,M,-33.324,M,,*71
2017-11-16 15:16:19 1510863379.829729: $GPRMC,201618,A,3946.9576,N,08404.9855,W,0.0000,0.000,161117,,*3E
2017-11-16 15:16:19 1510863379.829811: $GPGSA,A,3,8,10,14,15,18,20,21,24,27,32,12,138,1.6,0.8,1.3*34
2017-11-16 15:16:20 1510863380.373683: $GPZDA,201619.00,16,11,2017,00,00*68
2017-11-16 15:16:20 1510863380.373851: $GPGGA,201619,3946.9576,N,08404.9855,W,2,12,0.80,303.10,M,-33.324,M,,*70
2017-11-16 15:16:20 1510863380.373915: $GPRMC,201619,A,3946.9576,N,08404.9855,W,0.0000,0.000,161117,,*3F
2017-11-16 15:16:20 1510863380.373975: $GPGSA,A,3,8,10,14,15,18,20,21,24,27,32,12,138,1.6,0.8,1.3*34
2017-11-16 15:16:21 1510863381.374073: $GPZDA,201620.00,16,11,2017,00,00*62
2017-11-16 15:16:21 1510863381.374238: $GPGGA,201620,3946.9576,N,08404.9855,W,2,12,0.80,303.10,M,-33.324,M,,*7A
2017-11-16 15:16:21 1510863381.374303: $GPRMC,201620,A,3946.9576,N,08404.9855,W,0.0000,0.000,161117,,*35
2017-11-16 15:16:21 1510863381.374362: $GPGSA,A,3,8,10,14,15,18,20,21,24,27,32,12,138,1.6,0.8,1.3*34
2017-11-16 15:16:22 1510863382.714887: $GPGSV,3,1,12,08,07,297,36,10,66,325,51,14,26,250,45,15,14,064,39*71
2017-11-16 15:16:22 1510863382.715056: $GPGSV,3,2,12,18,73,084,45,20,11,115,30,21,33,180,44,24,47,063,49*78
2017-11-16 15:16:22 1510863382.715119: $GPGSV,3,3,12,27,08,262,37,32,43,261,48,12,07,109,27,138,38,213,44*42
2017-11-16 15:16:22 1510863382.828178: $GPZDA,201621.00,16,11,2017,00,00*63
2017-11-16 15:16:22 1510863382.828349: $GPGGA,201621,3946.9576,N,08404.9855,W,2,12,0.80,303.10,M,-33.324,M,,*7B
2017-11-16 15:16:22 1510863382.828415: $GPRMC,201621,A,3946.9576,N,08404.9855,W,0.0000,0.000,161117,,*34
2017-11-16 15:16:22 1510863382.828475: $GPGSA,A,3,8,10,14,15,18,20,21,24,27,32,12,138,1.6,0.8,1.3*34
2017-11-16 15:16:23 1510863383.395693: $GPZDA,201622.00,16,11,2017,00,00*60
2017-11-16 15:16:23 1510863383.395888: $GPGGA,201622,3946.9576,N,08404.9855,W,2,12,0.80,303.10,M,-33.324,M,,*78
2017-11-16 15:16:23 1510863383.395955: $GPRMC,201622,A,3946.9576,N,08404.9855,W,0.0000,0.000,161117,,*37
2017-11-16 15:16:23 1510863383.396015: $GPGSA,A,3,8,10,14,15,18,20,21,24,27,32,12,138,1.6,0.8,1.3*34
2017-11-16 15:16:24 1510863384.394896: $GPZDA,201623.00,16,11,2017,00,00*61
2017-11-16 15:16:24 1510863384.395119: $GPGGA,201623,3946.9576,N,08404.9855,W,2,12,0.80,303.10,M,-33.324,M,,*79
2017-11-16 15:16:24 1510863384.395186: $GPRMC,201623,A,3946.9576,N,08404.9855,W,0.0000,0.000,161117,,*36
2017-11-16 15:16:24 1510863384.395243: $GPGSA,A,3,8,10,14,15,18,20,21,24,27,32,12,138,1.6,0.8,1.3*34
2017-11-16 15:16:25 1510863385.722141: $GPGSV,3,1,12,08,07,297,36,10,66,325,51,14,26,250,45,15,14,064,39*71
2017-11-16 15:16:25 1510863385.722323: $GPGSV,3,2,12,18,73,084,46,20,11,115,30,21,33,180,44,24,47,063,49*7B
2017-11-16 15:16:25 1510863385.722383: $GPGSV,3,3,12,27,08,262,38,32,43,261,48,12,07,109,11,138,38,213,44*48
2017-11-16 15:16:25 1510863385.835288: $GPZDA,201624.00,16,11,2017,00,00*66
2017-11-16 15:16:25 1510863385.835450: $GPGGA,201624,3946.9576,N,08404.9855,W,2,11,0.80,303.10,M,-33.324,M,,*7D
2017-11-16 15:16:25 1510863385.835511: $GPRMC,201624,A,3946.9576,N,08404.9855,W,0.0000,0.000,161117,,*31
2017-11-16 15:16:25 1510863385.835567: $GPGSA,A,3,8,10,14,15,18,20,21,24,27,32,138,,1.6,0.8,1.3*37
2017-11-16 15:16:26 1510863386.461903: $GPZDA,201625.00,16,11,2017,00,00*67
2017-11-16 15:16:26 1510863386.462068: $GPGGA,201625,3946.9576,N,08404.9855,W,2,11,0.80,303.10,M,-33.324,M,,*7C
2017-11-16 15:16:26 1510863386.462130: $GPRMC,201625,A,3946.9576,N,08404.9855,W,0.0000,0.000,161117,,*30
2017-11-16 15:16:26 1510863386.462187: $GPGSA,A,3,8,10,14,15,18,20,21,24,27,32,138,,1.6,0.8,1.3*37
2017-11-16 15:16:27 1510863387.392689: $GPZDA,201626.00,16,11,2017,00,00*64
2017-11-16 15:16:27 1510863387.392862: $GPGGA,201626,3946.9576,N,08404.9855,W,2,11,0.80,303.10,M,-33.324,M,,*7F
2017-11-16 15:16:27 1510863387.392925: $GPRMC,201626,A,3946.9576,N,08404.9855,W,0.0000,0.000,161117,,*33
2017-11-16 15:16:27 1510863387.392982: $GPGSA,A,3,8,10,14,15,18,20,21,24,27,32,138,,1.6,0.8,1.3*37
