2017-12-29 11:40:55 1514565655.470494: {"class":"VERSION","release":"3.16","rev":"3.16-4","proto_major":3,"proto_minor":11}
2017-12-29 11:40:55 1514565655.470933: {"class":"DEVICES","devices":[{"class":"DEVICE","path":"/dev/ttyUSB0","driver":"SiRF","subtype":"9\u0006GSD4e_4.1.2-P1_RPATCH.05-F-GPS-4R-1510281 11/03/2015 307","activated":"2017-12-29T16:40:55.410Z","flags":1,"native":1,"bps":4800,"parity":"N","stopbits":1,"cycle":1.00}]}
2017-12-29 11:40:55 1514565655.471110: {"class":"WATCH","enable":true,"json":false,"nmea":true,"raw":0,"scaled":false,"timing":false,"split24":false,"pps":false}
2017-12-29 11:40:55 1514565655.726353: $GPZDA,164056.24,29,12,2017,00,00*6C
2017-12-29 11:40:55 1514565655.726531: $GPGGA,164056,3946.9561,N,08404.9860,W,1,11,1.00,334.65,M,-33.324,M,,*72
2017-12-29 11:40:55 1514565655.726598: $GPRMC,164056,A,3946.9561,N,08404.9860,W,0.0000,0.000,291217,,*3D
2017-12-29 11:40:55 1514565655.726660: $GPGSA,A,3,8,10,15,18,20,21,24,27,32,14,138,,1.7,1.0,1.3*3F
2017-12-29 11:40:57 1514565657.154153: $GPZDA,164057.24,29,12,2017,00,00*6D
2017-12-29 11:40:57 1514565657.154330: $GPGGA,164057,3946.9561,N,08404.9860,W,1,11,1.00,334.65,M,-33.324,M,,*73
2017-12-29 11:40:57 1514565657.154398: $GPRMC,164057,A,3946.9561,N,08404.9860,W,0.0000,0.000,291217,,*3C
2017-12-29 11:40:57 1514565657.154459: $GPGSA,A,3,8,10,15,18,20,21,24,27,32,14,138,,1.7,1.0,1.3*3F
2017-12-29 11:40:57 1514565657.154517: $GPGBS,164057,10.91,M,10.38,M,30.89,M*0E
2017-12-29 11:40:57 1514565657.941103: $GPGSV,3,1,11,08,08,313,40,10,50,310,46,15,27,057,48,18,76,013,44*7F
2017-12-29 11:40:57 1514565657.941285: $GPGSV,3,2,11,20,26,103,48,21,52,183,46,24,53,091,52,32,30,246,41*74
2017-12-29 11:40:57 1514565657.941350: $GPGSV,3,3,11,27,16,279,22,14,12,238,00,138,38,213,00*79
2017-12-29 11:40:58 1514565658.055075: $GPZDA,164057.45,29,12,2017,00,00*6A
2017-12-29 11:40:58 1514565658.055255: $GPGGA,164057,3946.9561,N,08404.9860,W,1,09,1.00,334.65,M,-33.324,M,,*7A
2017-12-29 11:40:58 1514565658.055320: $GPRMC,164057,A,3946.9561,N,08404.9860,W,0.1567,9.200,291217,,*32
2017-12-29 11:40:58 1514565658.055381: $GPGSA,A,3,8,10,15,18,20,21,24,32,27,,,,1.7,1.0,1.3*00
2017-12-29 11:40:58 1514565658.308340: $GPZDA,164058.00,29,12,2017,00,00*64
2017-12-29 11:40:58 1514565658.308507: $GPGGA,164058,3946.9561,N,08404.9860,W,1,09,0.80,334.65,M,-33.324,M,,*7C
2017-12-29 11:40:58 1514565658.308573: $GPRMC,164058,A,3946.9561,N,08404.9860,W,0.1867,180.000,291217,,*32
2017-12-29 11:40:58 1514565658.308634: $GPGSA,A,3,8,10,15,18,20,21,24,32,27,,,,1.7,0.8,1.3*09
2017-12-29 11:40:58 1514565658.760553: $GPZDA,164059.00,29,12,2017,00,00*65
2017-12-29 11:40:58 1514565658.760726: $GPGGA,164059,3946.9565,N,08404.9860,W,1,09,0.80,335.29,M,-33.324,M,,*70
2017-12-29 11:40:58 1514565658.760794: $GPRMC,164059,A,3946.9565,N,08404.9860,W,0.0000,0.000,291217,,*36
2017-12-29 11:40:58 1514565658.760873: $GPGSA,A,3,8,10,15,18,20,21,24,32,27,,,,1.7,0.8,1.3*09
2017-12-29 11:40:59 1514565659.720734: $GPGSV,3,1,11,08,08,313,40,10,50,310,45,15,27,057,48,18,76,013,44*7C
2017-12-29 11:40:59 1514565659.720939: $GPGSV,3,2,11,20,26,103,48,21,52,183,47,24,53,091,53,32,30,246,42*77
2017-12-29 11:40:59 1514565659.721026: $GPGSV,3,3,11,27,16,279,33,14,12,238,21,138,38,213,48*76
2017-12-29 11:40:59 1514565659.834146: $GPZDA,164100.00,29,12,2017,00,00*68
2017-12-29 11:40:59 1514565659.834312: $GPGGA,164100,3946.9565,N,08404.9859,W,1,11,0.80,333.89,M,-33.324,M,,*72
2017-12-29 11:40:59 1514565659.834379: $GPRMC,164100,A,3946.9565,N,08404.9859,W,0.0000,0.000,291217,,*31
2017-12-29 11:40:59 1514565659.834439: $GPGSA,A,3,8,10,15,18,20,21,24,32,27,14,138,,1.7,0.8,1.3*36
2017-12-29 11:41:00 1514565660.381595: $GPZDA,164101.00,29,12,2017,00,00*69
2017-12-29 11:41:00 1514565660.381765: $GPGGA,164101,3946.9568,N,08404.9859,W,1,11,0.80,333.12,M,-33.324,M,,*7C
2017-12-29 11:41:00 1514565660.381831: $GPRMC,164101,A,3946.9568,N,08404.9859,W,0.0000,0.000,291217,,*3D
2017-12-29 11:41:00 1514565660.381893: $GPGSA,A,3,8,10,15,18,20,21,24,32,27,14,138,,1.7,0.8,1.3*36
2017-12-29 11:41:01 1514565661.380737: $GPZDA,164102.00,29,12,2017,00,00*6A
2017-12-29 11:41:01 1514565661.380962: $GPGGA,164102,3946.9568,N,08404.9859,W,1,11,0.80,333.12,M,-33.324,M,,*7F
2017-12-29 11:41:01 1514565661.381089: $GPRMC,164102,A,3946.9568,N,08404.9859,W,0.0000,0.000,291217,,*3E
2017-12-29 11:41:01 1514565661.381196: $GPGSA,A,3,8,10,15,18,20,21,24,32,27,14,138,,1.7,0.8,1.3*36
2017-12-29 11:41:01 1514565661.381257: $GPGBS,164102,10.91,M,10.38,M,30.89,M*0F
2017-12-29 11:41:02 1514565662.717816: $GPGSV,3,1,11,08,08,313,40,10,50,310,45,15,27,057,49,18,76,013,45*7C
2017-12-29 11:41:02 1514565662.717974: $GPGSV,3,2,11,20,26,103,48,21,52,183,47,24,53,091,53,32,30,246,42*77
2017-12-29 11:41:02 1514565662.718041: $GPGSV,3,3,11,27,16,279,33,14,12,238,00,138,38,213,45*78
2017-12-29 11:41:02 1514565662.831586: $GPZDA,164103.00,29,12,2017,00,00*6B
2017-12-29 11:41:02 1514565662.831760: $GPGGA,164103,3946.9571,N,08404.9858,W,1,10,1.00,332.36,M,-33.324,M,,*78
2017-12-29 11:41:02 1514565662.831826: $GPRMC,164103,A,3946.9571,N,08404.9858,W,0.0000,0.000,291217,,*36
2017-12-29 11:41:02 1514565662.831888: $GPGSA,A,3,8,10,15,18,20,21,24,32,27,138,,,1.7,1.0,1.3*3A
2017-12-29 11:41:03 1514565663.382231: $GPZDA,164104.00,29,12,2017,00,00*6C
2017-12-29 11:41:03 1514565663.382407: $GPGGA,164104,3946.9575,N,08404.9857,W,1,10,0.80,331.59,M,-33.324,M,,*77
2017-12-29 11:41:03 1514565663.382473: $GPRMC,164104,A,3946.9575,N,08404.9857,W,0.0000,0.000,291217,,*3A
2017-12-29 11:41:03 1514565663.382560: $GPGSA,A,3,8,10,15,18,20,21,24,32,27,138,,,1.7,0.8,1.3*33
2017-12-29 11:41:04 1514565664.381274: $GPZDA,164105.00,29,12,2017,00,00*6D
2017-12-29 11:41:04 1514565664.381443: $GPGGA,164105,3946.9575,N,08404.9857,W,1,10,0.80,331.59,M,-33.324,M,,*76
2017-12-29 11:41:04 1514565664.381540: $GPRMC,164105,A,3946.9575,N,08404.9857,W,0.0000,0.000,291217,,*3B
2017-12-29 11:41:04 1514565664.381602: $GPGSA,A,3,8,10,15,18,20,21,24,32,27,138,,,1.7,0.8,1.3*33
2017-12-29 11:41:05 1514565665.716828: $GPGSV,3,1,11,08,08,313,40,10,50,310,45,15,27,057,49,18,76,013,45*7C
2017-12-29 11:41:05 1514565665.717005: $GPGSV,3,2,11,20,26,103,48,21,52,183,47,24,53,091,53,32,30,246,42*77
2017-12-29 11:41:05 1514565665.717071: $GPGSV,3,3,11,27,16,279,33,14,12,238,30,138,38,213,46*78
2017-12-29 11:41:05 1514565665.830192: $GPZDA,164106.00,29,12,2017,00,00*6E
2017-12-29 11:41:05 1514565665.830329: $GPGGA,164106,3946.9578,N,08404.9857,W,1,11,0.80,330.83,M,-33.324,M,,*7F
2017-12-29 11:41:05 1514565665.830393: $GPRMC,164106,A,3946.9578,N,08404.9857,W,0.0000,0.000,291217,,*35
2017-12-29 11:41:05 1514565665.830453: $GPGSA,A,3,8,10,15,18,20,21,24,32,27,14,138,,1.7,0.8,1.3*36
2017-12-29 11:41:06 1514565666.379856: $GPZDA,164107.00,29,12,2017,00,00*6F
2017-12-29 11:41:06 1514565666.380019: $GPGGA,164107,3946.9578,N,08404.9857,W,1,11,0.80,330.83,M,-33.324,M,,*7E
2017-12-29 11:41:06 1514565666.380087: $GPRMC,164107,A,3946.9578,N,08404.9857,W,0.0000,0.000,291217,,*34
2017-12-29 11:41:06 1514565666.380148: $GPGSA,A,3,8,10,15,18,20,21,24,32,27,14,138,,1.7,0.8,1.3*36
2017-12-29 11:41:07 1514565667.380996: $GPZDA,164108.00,29,12,2017,00,00*60
2017-12-29 11:41:07 1514565667.381264: $GPGGA,164108,3946.9582,N,08404.9856,W,1,11,0.80,330.06,M,-33.324,M,,*78
2017-12-29 11:41:07 1514565667.381332: $GPRMC,164108,A,3946.9582,N,08404.9856,W,0.0000,0.000,291217,,*3F
2017-12-29 11:41:07 1514565667.381393: $GPGSA,A,3,8,10,15,18,20,21,24,32,27,14,138,,1.7,0.8,1.3*36
2017-12-29 11:41:08 1514565668.715212: $GPGSV,3,1,11,08,08,313,40,10,50,310,45,15,27,057,49,18,76,013,45*7C
2017-12-29 11:41:08 1514565668.715393: $GPGSV,3,2,11,20,26,103,47,21,52,183,46,24,53,091,52,32,30,246,41*7B
2017-12-29 11:41:08 1514565668.715459: $GPGSV,3,3,11,27,16,279,32,14,12,238,31,138,38,213,46*78
2017-12-29 11:41:08 1514565668.828571: $GPZDA,164109.00,29,12,2017,00,00*61
2017-12-29 11:41:08 1514565668.828742: $GPGGA,164109,3946.9582,N,08404.9856,W,1,11,0.80,330.06,M,-33.324,M,,*79
2017-12-29 11:41:08 1514565668.828807: $GPRMC,164109,A,3946.9582,N,08404.9856,W,0.0000,0.000,291217,,*3E
2017-12-29 11:41:08 1514565668.828868: $GPGSA,A,3,8,10,15,18,20,21,24,32,27,14,138,,1.7,0.8,1.3*36
2017-12-29 11:41:09 1514565669.454079: $GPZDA,164110.00,29,12,2017,00,00*69
2017-12-29 11:41:09 1514565669.454396: $GPGGA,164110,3946.9585,N,08404.9855,W,1,11,0.80,329.30,M,-33.324,M,,*78
2017-12-29 11:41:09 1514565669.454557: $GPRMC,164110,A,3946.9585,N,08404.9855,W,0.0000,0.000,291217,,*32
2017-12-29 11:41:09 1514565669.454681: $GPGSA,A,3,8,10,15,18,20,21,24,32,27,14,138,,1.7,0.8,1.3*36
2017-12-29 11:41:10 1514565670.381091: $GPZDA,164111.00,29,12,2017,00,00*68
2017-12-29 11:41:10 1514565670.381268: $GPGGA,164111,3946.9585,N,08404.9855,W,1,11,0.80,329.30,M,-33.324,M,,*79
2017-12-29 11:41:10 1514565670.381335: $GPRMC,164111,A,3946.9585,N,08404.9855,W,0.0000,0.000,291217,,*33
2017-12-29 11:41:10 1514565670.381396: $GPGSA,A,3,8,10,15,18,20,21,24,32,27,14,138,,1.7,0.8,1.3*36
