2017-12-01 15:37:57 1512160677.577024: {"class":"VERSION","release":"3.16","rev":"3.16-4","proto_major":3,"proto_minor":11}
2017-12-01 15:37:57 1512160677.577443: {"class":"DEVICES","devices":[{"class":"DEVICE","path":"/dev/ttyUSB0","driver":"SiRF","subtype":"9\u0006GSD4e_4.1.2-P1_RPATCH.05-F-GPS-4R-1510281 11/03/2015 307","activated":"2017-12-01T20:37:57.548Z","flags":1,"native":1,"bps":4800,"parity":"N","stopbits":1,"cycle":1.00}]}
2017-12-01 15:37:57 1512160677.577562: {"class":"WATCH","enable":true,"json":false,"nmea":true,"raw":0,"scaled":false,"timing":false,"split24":false,"pps":false}
2017-12-01 15:37:58 1512160678.720388: $GPGSV,3,1,11,01,12,321,36,10,73,126,47,11,10,304,36,12,24,075,42*7D
2017-12-01 15:37:58 1512160678.720574: $GPGSV,3,2,11,14,52,288,43,18,41,133,46,24,17,045,44,25,27,118,43*7C
2017-12-01 15:37:58 1512160678.720640: $GPGSV,3,3,11,31,31,210,48,32,67,321,50,138,38,213,46*70
2017-12-01 15:37:58 1512160678.833779: $GPZDA,203759.00,01,12,2017,00,00*6A
2017-12-01 15:37:58 1512160678.833952: $GPGGA,203759,3946.9578,N,08404.9839,W,2,11,0.80,299.69,M,-33.324,M,,*7C
2017-12-01 15:37:58 1512160678.834018: $GPRMC,203759,A,3946.9578,N,08404.9839,W,0.0000,0.000,011217,,*39
2017-12-01 15:37:58 1512160678.834082: $GPGSA,A,3,1,10,11,12,14,18,24,25,31,32,138,,2.0,0.8,1.5*3B
2017-12-01 15:37:59 1512160679.383681: $GPZDA,203800.00,01,12,2017,00,00*69
2017-12-01 15:37:59 1512160679.383863: $GPGGA,203800,3946.9578,N,08404.9839,W,2,11,0.80,299.69,M,-33.324,M,,*7F
2017-12-01 15:37:59 1512160679.383930: $GPRMC,203800,A,3946.9578,N,08404.9839,W,0.0000,0.000,011217,,*3A
2017-12-01 15:37:59 1512160679.383993: $GPGSA,A,3,1,10,11,12,14,18,24,25,31,32,138,,2.0,0.8,1.5*3B
2017-12-01 15:38:00 1512160680.384799: $GPZDA,203801.00,01,12,2017,00,00*68
2017-12-01 15:38:00 1512160680.385002: $GPGGA,203801,3946.9578,N,08404.9839,W,2,11,0.80,299.69,M,-33.324,M,,*7E
2017-12-01 15:38:00 1512160680.385073: $GPRMC,203801,A,3946.9578,N,08404.9839,W,0.0000,0.000,011217,,*3B
2017-12-01 15:38:00 1512160680.385138: $GPGSA,A,3,1,10,11,12,14,18,24,25,31,32,138,,2.0,0.8,1.5*3B
2017-12-01 15:38:01 1512160681.738769: $GPGSV,3,1,11,01,12,321,36,10,73,126,47,11,10,304,36,12,24,075,41*7E
2017-12-01 15:38:01 1512160681.738941: $GPGSV,3,2,11,14,52,288,43,18,41,133,46,24,17,045,44,25,27,118,43*7C
2017-12-01 15:38:01 1512160681.739008: $GPGSV,3,3,11,31,31,210,47,32,67,321,50,138,38,213,45*7C
2017-12-01 15:38:01 1512160681.852188: $GPZDA,203802.00,01,12,2017,00,00*6B
2017-12-01 15:38:01 1512160681.852361: $GPGGA,203802,3946.9578,N,08404.9839,W,2,11,0.80,299.69,M,-33.324,M,,*7D
2017-12-01 15:38:01 1512160681.852427: $GPRMC,203802,A,3946.9578,N,08404.9839,W,0.0000,0.000,011217,,*38
2017-12-01 15:38:01 1512160681.852489: $GPGSA,A,3,1,10,11,12,14,18,24,25,31,32,138,,2.0,0.8,1.5*3B
2017-12-01 15:38:02 1512160682.401823: $GPZDA,203803.00,01,12,2017,00,00*6A
2017-12-01 15:38:02 1512160682.401997: $GPGGA,203803,3946.9574,N,08404.9840,W,2,11,0.80,300.45,M,-33.324,M,,*71
2017-12-01 15:38:02 1512160682.402066: $GPRMC,203803,A,3946.9574,N,08404.9840,W,0.0000,0.000,011217,,*3B
2017-12-01 15:38:02 1512160682.402127: $GPGSA,A,3,1,10,11,12,14,18,24,25,31,32,138,,2.0,0.8,1.5*3B
2017-12-01 15:38:03 1512160683.400890: $GPZDA,203804.00,01,12,2017,00,00*6D
2017-12-01 15:38:03 1512160683.401063: $GPGGA,203804,3946.9574,N,08404.9840,W,2,11,0.80,300.45,M,-33.324,M,,*76
2017-12-01 15:38:03 1512160683.401130: $GPRMC,203804,A,3946.9574,N,08404.9840,W,0.0000,0.000,011217,,*3C
2017-12-01 15:38:03 1512160683.401193: $GPGSA,A,3,1,10,11,12,14,18,24,25,31,32,138,,2.0,0.8,1.5*3B
2017-12-01 15:38:04 1512160684.736631: $GPGSV,3,1,11,01,12,321,36,10,73,126,47,11,10,304,37,12,24,075,40*7E
2017-12-01 15:38:04 1512160684.736826: $GPGSV,3,2,11,14,52,288,43,18,41,133,46,24,17,045,44,25,27,118,43*7C
2017-12-01 15:38:04 1512160684.736892: $GPGSV,3,3,11,31,31,210,48,32,67,321,49,138,38,213,46*78
2017-12-01 15:38:04 1512160684.850148: $GPZDA,203805.00,01,12,2017,00,00*6C
2017-12-01 15:38:04 1512160684.850342: $GPGGA,203805,3946.9574,N,08404.9840,W,2,11,0.80,300.45,M,-33.324,M,,*77
2017-12-01 15:38:04 1512160684.850467: $GPRMC,203805,A,3946.9574,N,08404.9840,W,0.0000,0.000,011217,,*3D
2017-12-01 15:38:04 1512160684.850530: $GPGSA,A,3,1,10,11,12,14,18,24,25,31,32,138,,2.0,0.8,1.5*3B
2017-12-01 15:38:05 1512160685.402228: $GPZDA,203806.00,01,12,2017,00,00*6F
2017-12-01 15:38:05 1512160685.402404: $GPGGA,203806,3946.9574,N,08404.9840,W,2,11,0.80,300.45,M,-33.324,M,,*74
2017-12-01 15:38:05 1512160685.402472: $GPRMC,203806,A,3946.9574,N,08404.9840,W,0.0000,0.000,011217,,*3E
2017-12-01 15:38:05 1512160685.402534: $GPGSA,A,3,1,10,11,12,14,18,24,25,31,32,138,,2.0,0.8,1.5*3B
2017-12-01 15:38:06 1512160686.380489: $GPZDA,203807.00,01,12,2017,00,00*6E
2017-12-01 15:38:06 1512160686.380665: $GPGGA,203807,3946.9574,N,08404.9840,W,2,11,0.80,300.45,M,-33.324,M,,*75
2017-12-01 15:38:06 1512160686.380752: $GPRMC,203807,A,3946.9574,N,08404.9840,W,0.0000,0.000,011217,,*3F
2017-12-01 15:38:06 1512160686.380820: $GPGSA,A,3,1,10,11,12,14,18,24,25,31,32,138,,2.0,0.8,1.5*3B
2017-12-01 15:38:07 1512160687.722622: $GPGSV,3,1,11,01,12,321,36,10,73,126,46,11,10,304,38,12,24,075,40*70
2017-12-01 15:38:07 1512160687.722833: $GPGSV,3,2,11,14,52,288,43,18,41,133,46,24,17,045,45,25,27,118,43*7D
2017-12-01 15:38:07 1512160687.722900: $GPGSV,3,3,11,31,31,210,48,32,67,321,49,138,38,213,45*7B
2017-12-01 15:38:07 1512160687.835874: $GPZDA,203808.00,01,12,2017,00,00*61
2017-12-01 15:38:07 1512160687.836048: $GPGGA,203808,3946.9574,N,08404.9840,W,2,11,0.80,300.45,M,-33.324,M,,*7A
2017-12-01 15:38:07 1512160687.836115: $GPRMC,203808,A,3946.9574,N,08404.9840,W,0.0000,0.000,011217,,*30
2017-12-01 15:38:07 1512160687.836178: $GPGSA,A,3,1,10,11,12,14,18,24,25,31,32,138,,2.0,0.8,1.5*3B
2017-12-01 15:38:08 1512160688.461244: $GPZDA,203809.00,01,12,2017,00,00*60
2017-12-01 15:38:08 1512160688.461467: $GPGGA,203809,3946.9574,N,08404.9840,W,2,11,0.80,300.45,M,-33.324,M,,*7B
2017-12-01 15:38:08 1512160688.461537: $GPRMC,203809,A,3946.9574,N,08404.9840,W,0.0000,0.000,011217,,*31
2017-12-01 15:38:08 1512160688.461599: $GPGSA,A,3,1,10,11,12,14,18,24,25,31,32,138,,2.0,0.8,1.5*3B
2017-12-01 15:38:09 1512160689.403441: $GPZDA,203810.00,01,12,2017,00,00*68
2017-12-01 15:38:09 1512160689.403620: $GPGGA,203810,3946.9574,N,08404.9840,W,2,11,0.80,300.45,M,-33.324,M,,*73
2017-12-01 15:38:09 1512160689.403707: $GPRMC,203810,A,3946.9574,N,08404.9840,W,0.0000,0.000,011217,,*39
2017-12-01 15:38:09 1512160689.403771: $GPGSA,A,3,1,10,11,12,14,18,24,25,31,32,138,,2.0,0.8,1.5*3B
2017-12-01 15:38:10 1512160690.721643: $GPGSV,3,1,11,01,12,321,37,10,73,126,47,11,10,304,37,12,24,075,40*7F
2017-12-01 15:38:10 1512160690.721857: $GPGSV,3,2,11,14,52,288,43,18,41,133,46,24,17,045,45,25,27,118,43*7D
2017-12-01 15:38:10 1512160690.721924: $GPGSV,3,3,11,31,31,210,48,32,67,321,49,138,38,213,46*78
2017-12-01 15:38:10 1512160690.835065: $GPZDA,203811.00,01,12,2017,00,00*69
2017-12-01 15:38:10 1512160690.835201: $GPGGA,203811,3946.9574,N,08404.9840,W,2,11,0.80,300.45,M,-33.324,M,,*72
2017-12-01 15:38:10 1512160690.835266: $GPRMC,203811,A,3946.9574,N,08404.9840,W,0.0000,0.000,011217,,*38
2017-12-01 15:38:10 1512160690.835326: $GPGSA,A,3,1,10,11,12,14,18,24,25,31,32,138,,2.0,0.8,1.5*3B
2017-12-01 15:38:11 1512160691.402204: $GPZDA,203812.00,01,12,2017,00,00*6A
2017-12-01 15:38:11 1512160691.402372: $GPGGA,203812,3946.9574,N,08404.9840,W,2,11,0.80,300.45,M,-33.324,M,,*71
2017-12-01 15:38:11 1512160691.402438: $GPRMC,203812,A,3946.9574,N,08404.9840,W,0.0000,0.000,011217,,*3B
2017-12-01 15:38:11 1512160691.402498: $GPGSA,A,3,1,10,11,12,14,18,24,25,31,32,138,,2.0,0.8,1.5*3B
2017-12-01 15:38:12 1512160692.395518: $GPZDA,203813.00,01,12,2017,00,00*6B
2017-12-01 15:38:12 1512160692.395718: $GPGGA,203813,3946.9574,N,08404.9840,W,2,11,0.80,300.45,M,-33.324,M,,*70
2017-12-01 15:38:12 1512160692.395803: $GPRMC,203813,A,3946.9574,N,08404.9840,W,0.0000,0.000,011217,,*3A
2017-12-01 15:38:12 1512160692.395865: $GPGSA,A,3,1,10,11,12,14,18,24,25,31,32,138,,2.0,0.8,1.5*3B
2017-12-01 15:38:13 1512160693.739486: $GPGSV,3,1,11,01,12,321,39,10,73,126,47,11,10,304,38,12,24,075,39*70
2017-12-01 15:38:13 1512160693.739711: $GPGSV,3,2,11,14,52,288,43,18,41,133,46,24,17,045,45,25,27,118,43*7D
2017-12-01 15:38:13 1512160693.739799: $GPGSV,3,3,11,31,31,210,48,32,67,321,49,138,38,213,46*78
2017-12-01 15:38:13 1512160693.852989: $GPZDA,203814.00,01,12,2017,00,00*6C
2017-12-01 15:38:13 1512160693.853161: $GPGGA,203814,3946.9574,N,08404.9840,W,2,11,0.80,300.45,M,-33.324,M,,*77
2017-12-01 15:38:13 1512160693.853229: $GPRMC,203814,A,3946.9574,N,08404.9840,W,0.0000,0.000,011217,,*3D
2017-12-01 15:38:13 1512160693.853290: $GPGSA,A,3,1,10,11,12,14,18,24,25,31,32,138,,2.0,0.8,1.5*3B
2017-12-01 15:38:14 1512160694.386570: $GPZDA,203815.00,01,12,2017,00,00*6D
2017-12-01 15:38:14 1512160694.386761: $GPGGA,203815,3946.9574,N,08404.9840,W,2,11,0.80,300.45,M,-33.324,M,,*76
2017-12-01 15:38:14 1512160694.386845: $GPRMC,203815,A,3946.9574,N,08404.9840,W,0.0000,0.000,011217,,*3C
2017-12-01 15:38:14 1512160694.386906: $GPGSA,A,3,1,10,11,12,14,18,24,25,31,32,138,,2.0,0.8,1.5*3B
2017-12-01 15:38:15 1512160695.403881: $GPZDA,203816.00,01,12,2017,00,00*6E
2017-12-01 15:38:15 1512160695.404051: $GPGGA,203816,3946.9574,N,08404.9840,W,2,11,0.80,300.45,M,-33.324,M,,*75
2017-12-01 15:38:15 1512160695.404118: $GPRMC,203816,A,3946.9574,N,08404.9840,W,0.0000,0.000,011217,,*3F
2017-12-01 15:38:15 1512160695.404179: $GPGSA,A,3,1,10,11,12,14,18,24,25,31,32,138,,2.0,0.8,1.5*3B
2017-12-01 15:38:16 1512160696.720430: $GPGSV,3,1,11,01,12,321,39,10,73,126,47,11,10,304,39,12,24,075,40*7F
2017-12-01 15:38:16 1512160696.720610: $GPGSV,3,2,11,14,52,288,43,18,41,133,46,24,17,045,44,25,27,118,43*7C
2017-12-01 15:38:16 1512160696.720705: $GPGSV,3,3,11,31,31,210,48,32,67,321,49,138,38,213,45*7B
2017-12-01 15:38:16 1512160696.834232: $GPZDA,203817.00,01,12,2017,00,00*6F
2017-12-01 15:38:16 1512160696.834393: $GPGGA,203817,3946.9574,N,08404.9840,W,2,11,0.80,300.45,M,-33.324,M,,*74
2017-12-01 15:38:16 1512160696.834460: $GPRMC,203817,A,3946.9574,N,08404.9840,W,0.0000,0.000,011217,,*3E
2017-12-01 15:38:16 1512160696.834521: $GPGSA,A,3,1,10,11,12,14,18,24,25,31,32,138,,2.0,0.8,1.5*3B
2017-12-01 15:38:17 1512160697.386118: $GPZDA,203818.00,01,12,2017,00,00*60
2017-12-01 15:38:17 1512160697.386286: $GPGGA,203818,3946.9574,N,08404.9840,W,2,11,0.80,300.45,M,-33.324,M,,*7B
2017-12-01 15:38:17 1512160697.386354: $GPRMC,203818,A,3946.9574,N,08404.9840,W,0.0000,0.000,011217,,*31
2017-12-01 15:38:17 1512160697.386415: $GPGSA,A,3,1,10,11,12,14,18,24,25,31,32,138,,2.0,0.8,1.5*3B
