2018-01-12 19:59:24 1515805164.013050: {"class":"VERSION","release":"3.16","rev":"3.16-4","proto_major":3,"proto_minor":11}
2018-01-12 19:59:24 1515805164.013541: {"class":"DEVICES","devices":[{"class":"DEVICE","path":"/dev/ttyUSB0","driver":"SiRF","subtype":"9\u0006GSD4e_4.1.2-P1_RPATCH.05-F-GPS-4R-1510281 11/03/2015 307","activated":"2018-01-13T00:59:23.361Z","flags":1,"native":1,"bps":4800,"parity":"N","stopbits":1,"cycle":1.00}]}
2018-01-12 19:59:24 1515805164.013706: {"class":"WATCH","enable":true,"json":false,"nmea":true,"raw":0,"scaled":false,"timing":false,"split24":false,"pps":false}
2018-01-12 19:59:24 1515805164.221775: $GPZDA,005925.00,13,01,2018,00,00*65
2018-01-12 19:59:24 1515805164.221968: $GPGGA,005925,3946.9585,N,08404.9443,W,1,07,1.20,298.01,M,-33.324,M,,*7E
2018-01-12 19:59:24 1515805164.222036: $GPRMC,005925,A,3946.9585,N,08404.9443,W,0.9959,84.784,130118,,*0E
2018-01-12 19:59:24 1515805164.222098: $GPGSA,A,3,8,7,11,23,27,30,9,,,,,,4.8,1.2,4.6*0E
2018-01-12 19:59:25 1515805165.560868: $GPGSV,3,1,11,08,71,142,26,07,52,313,29,11,17,169,17,23,33,190,09*72
2018-01-12 19:59:25 1515805165.561054: $GPGSV,3,2,11,27,50,057,25,30,26,304,11,09,50,234,18,28,11,255,16*72
2018-01-12 19:59:25 1515805165.561150: $GPGSV,3,3,11,26,01,070,05,16,26,058,00,138,38,213,00*71
2018-01-12 19:59:25 1515805165.671340: $GPZDA,005926.00,13,01,2018,00,00*66
2018-01-12 19:59:25 1515805165.671501: $GPGGA,005926,3946.9589,N,08404.9443,W,1,07,1.20,298.65,M,-33.324,M,,*73
2018-01-12 19:59:25 1515805165.671567: $GPRMC,005926,A,3946.9589,N,08404.9443,W,1.0298,74.382,130118,,*02
2018-01-12 19:59:25 1515805165.671627: $GPGSA,A,3,8,7,11,23,27,30,9,,,,,,4.8,1.2,4.6*0E
2018-01-12 19:59:26 1515805166.236482: $GPZDA,005927.00,13,01,2018,00,00*67
2018-01-12 19:59:26 1515805166.236679: $GPGGA,005927,3946.9589,N,08404.9443,W,1,07,1.20,298.65,M,-33.324,M,,*72
2018-01-12 19:59:26 1515805166.236746: $GPRMC,005927,A,3946.9589,N,08404.9443,W,0.5951,58.684,130118,,*04
2018-01-12 19:59:26 1515805166.236827: $GPGSA,A,3,8,7,11,23,27,30,9,,,,,,4.8,1.2,4.6*0E
2018-01-12 19:59:27 1515805167.237365: $GPZDA,005928.00,13,01,2018,00,00*68
2018-01-12 19:59:27 1515805167.237516: $GPGGA,005928,3946.9586,N,08404.9444,W,1,07,1.20,299.41,M,-33.324,M,,*72
2018-01-12 19:59:27 1515805167.237581: $GPRMC,005928,A,3946.9586,N,08404.9444,W,0.4207,39.347,130118,,*07
2018-01-12 19:59:27 1515805167.237665: $GPGSA,A,3,8,7,11,23,27,30,9,,,,,,4.8,1.2,4.6*0E
2018-01-12 19:59:28 1515805168.573716: $GPGSV,3,1,11,08,71,142,25,07,52,313,29,11,17,169,17,23,33,190,09*71
2018-01-12 19:59:28 1515805168.574073: $GPGSV,3,2,11,27,50,057,25,30,26,304,10,09,50,234,18,16,26,058,12*71
2018-01-12 19:59:28 1515805168.574197: $GPGSV,3,3,11,26,01,070,09,28,11,255,00,138,38,213,00*7B
2018-01-12 19:59:28 1515805168.685717: $GPZDA,005929.00,13,01,2018,00,00*69
2018-01-12 19:59:28 1515805168.685906: $GPGGA,005929,3946.9586,N,08404.9444,W,1,07,1.20,299.41,M,-33.324,M,,*73
2018-01-12 19:59:28 1515805168.685973: $GPRMC,005929,A,3946.9586,N,08404.9444,W,0.0000,0.000,130118,,*3D
2018-01-12 19:59:28 1515805168.686034: $GPGSA,A,3,8,7,11,23,27,30,9,,,,,,4.8,1.2,4.6*0E
2018-01-12 19:59:29 1515805169.237106: $GPZDA,005930.00,13,01,2018,00,00*61
2018-01-12 19:59:29 1515805169.237284: $GPGGA,005930,3946.9586,N,08404.9444,W,1,07,1.20,299.41,M,-33.324,M,,*7B
2018-01-12 19:59:29 1515805169.237351: $GPRMC,005930,A,3946.9586,N,08404.9444,W,0.2422,93.794,130118,,*03
2018-01-12 19:59:29 1515805169.237411: $GPGSA,A,3,8,7,11,23,27,30,9,,,,,,4.8,1.2,4.6*0E
2018-01-12 19:59:30 1515805170.706253: $GPZDA,005931.00,13,01,2018,00,00*60
2018-01-12 19:59:30 1515805170.706585: $GPGGA,005931,3946.9583,N,08404.9445,W,1,07,1.20,300.18,M,-33.324,M,,*73
2018-01-12 19:59:30 1515805170.706724: $GPRMC,005931,A,3946.9583,N,08404.9445,W,0.8011,119.090,130118,,*38
2018-01-12 19:59:30 1515805170.706852: $GPGSA,A,3,8,7,11,23,27,30,9,,,,,,4.8,1.2,4.6*0E
2018-01-12 19:59:31 1515805171.558578: $GPGSV,3,1,11,08,71,141,25,07,52,313,29,11,17,169,17,23,32,190,10*7B
2018-01-12 19:59:31 1515805171.558793: $GPGSV,3,2,11,27,50,055,25,30,26,304,09,09,50,234,19,16,25,058,15*7E
2018-01-12 19:59:31 1515805171.558913: $GPGSV,3,3,11,28,12,256,00,26,01,070,00,138,38,213,00*72
2018-01-12 19:59:31 1515805171.671950: $GPZDA,005932.00,13,01,2018,00,00*63
2018-01-12 19:59:31 1515805171.672112: $GPGGA,005932,3946.9582,N,08404.9438,W,1,08,0.80,300.25,M,-33.324,M,,*71
2018-01-12 19:59:31 1515805171.672179: $GPRMC,005932,A,3946.9582,N,08404.9438,W,0.9988,104.546,130118,,*3A
2018-01-12 19:59:31 1515805171.672256: $GPGSA,A,3,8,7,11,23,27,30,9,16,,,,,4.8,0.8,4.6*02
2018-01-12 19:59:32 1515805172.224115: $GPZDA,005933.00,13,01,2018,00,00*62
2018-01-12 19:59:32 1515805172.224301: $GPGGA,005933,3946.9582,N,08404.9438,W,1,08,0.80,300.25,M,-33.324,M,,*70
2018-01-12 19:59:32 1515805172.224369: $GPRMC,005933,A,3946.9582,N,08404.9438,W,0.5306,114.352,130118,,*39
2018-01-12 19:59:32 1515805172.224431: $GPGSA,A,3,8,7,11,23,27,30,9,16,,,,,4.8,0.8,4.6*02
2018-01-12 19:59:33 1515805173.244252: $GPZDA,005934.00,13,01,2018,00,00*65
2018-01-12 19:59:33 1515805173.244482: $GPGGA,005934,3946.9579,N,08404.9439,W,1,08,0.80,301.02,M,-33.324,M,,*76
2018-01-12 19:59:33 1515805173.244559: $GPRMC,005934,A,3946.9579,N,08404.9439,W,0.5951,58.684,130118,,*04
2018-01-12 19:59:33 1515805173.244651: $GPGSA,A,3,8,7,11,23,27,30,9,16,,,,,4.8,0.8,4.6*02
2018-01-12 19:59:34 1515805174.575438: $GPGSV,3,1,11,08,71,141,25,07,52,313,29,11,17,169,16,23,32,190,09*72
2018-01-12 19:59:34 1515805174.575644: $GPGSV,3,2,11,27,50,055,24,30,26,304,10,09,50,234,19,16,25,058,14*76
2018-01-12 19:59:34 1515805174.575714: $GPGSV,3,3,11,28,12,256,00,26,01,070,00,138,38,213,00*72
2018-01-12 19:59:34 1515805174.688794: $GPZDA,005935.00,13,01,2018,00,00*64
2018-01-12 19:59:34 1515805174.688937: $GPGGA,005935,3946.9579,N,08404.9439,W,1,08,0.80,301.02,M,-33.324,M,,*77
2018-01-12 19:59:34 1515805174.689005: $GPRMC,005935,A,3946.9579,N,08404.9439,W,1.0018,50.691,130118,,*09
2018-01-12 19:59:34 1515805174.689069: $GPGSA,A,3,8,7,11,23,27,30,9,16,,,,,4.8,0.8,4.6*02
2018-01-12 19:59:35 1515805175.243998: $GPZDA,005936.00,13,01,2018,00,00*67
2018-01-12 19:59:35 1515805175.244177: $GPGGA,005936,3946.9579,N,08404.9439,W,1,08,0.80,301.02,M,-33.324,M,,*74
2018-01-12 19:59:35 1515805175.244247: $GPRMC,005936,A,3946.9579,N,08404.9439,W,0.7278,23.636,130118,,*01
2018-01-12 19:59:35 1515805175.244310: $GPGSA,A,3,8,7,11,23,27,30,9,16,,,,,4.8,0.8,4.6*02
2018-01-12 19:59:36 1515805176.247829: $GPZDA,005937.00,13,01,2018,00,00*66
2018-01-12 19:59:36 1515805176.248025: $GPGGA,005937,3946.9579,N,08404.9439,W,1,08,0.80,301.02,M,-33.324,M,,*75
2018-01-12 19:59:36 1515805176.248095: $GPRMC,005937,A,3946.9579,N,08404.9439,W,0.8414,39.347,130118,,*0B
2018-01-12 19:59:36 1515805176.248159: $GPGSA,A,3,8,7,11,23,27,30,9,16,,,,,4.8,0.8,4.6*02
2018-01-12 19:59:37 1515805177.579794: $GPGSV,3,1,11,08,71,141,25,07,52,313,29,11,17,169,16,23,32,190,09*72
2018-01-12 19:59:37 1515805177.579979: $GPGSV,3,2,11,27,50,055,24,30,26,304,10,09,50,234,19,16,25,058,14*76
2018-01-12 19:59:37 1515805177.580047: $GPGSV,3,3,11,28,12,256,17,26,01,070,00,120,07,103,00*73
2018-01-12 19:59:37 1515805177.693481: $GPZDA,005938.00,13,01,2018,00,00*69
2018-01-12 19:59:37 1515805177.693642: $GPGGA,005938,3946.9583,N,08404.9439,W,1,08,0.80,301.66,M,-33.324,M,,*7D
2018-01-12 19:59:37 1515805177.693729: $GPRMC,005938,A,3946.9583,N,08404.9439,W,0.6846,4.197,130118,,*35
2018-01-12 19:59:37 1515805177.693794: $GPGSA,A,3,8,7,11,23,27,30,9,16,,,,,4.8,0.8,4.6*02
2018-01-12 19:59:38 1515805178.239841: $GPZDA,005939.00,13,01,2018,00,00*68
2018-01-12 19:59:38 1515805178.240011: $GPGGA,005939,3946.9580,N,08404.9439,W,1,08,0.80,302.42,M,-33.324,M,,*7A
2018-01-12 19:59:38 1515805178.240081: $GPRMC,005939,A,3946.9580,N,08404.9439,W,0.0000,0.000,130118,,*30
2018-01-12 19:59:38 1515805178.240145: $GPGSA,A,3,8,7,11,23,27,30,9,16,,,,,4.8,0.8,4.6*02
2018-01-12 19:59:39 1515805179.223732: $GPZDA,005940.00,13,01,2018,00,00*66
2018-01-12 19:59:39 1515805179.223906: $GPGGA,005940,3946.9575,N,08404.9439,W,1,08,0.80,301.78,M,-33.324,M,,*74
2018-01-12 19:59:39 1515805179.223975: $GPRMC,005940,A,3946.9575,N,08404.9439,W,0.4207,219.347,130118,,*3F
2018-01-12 19:59:39 1515805179.224093: $GPGSA,A,3,8,7,11,23,27,30,9,16,,,,,4.8,0.8,4.6*02
2018-01-12 19:59:40 1515805180.579730: $GPGSV,3,1,11,08,71,141,24,07,52,313,29,11,17,169,16,23,32,190,09*73
2018-01-12 19:59:40 1515805180.579889: $GPGSV,3,2,11,27,50,055,24,30,26,304,10,09,50,234,19,16,25,058,14*76
2018-01-12 19:59:40 1515805180.579954: $GPGSV,3,3,11,28,12,256,00,26,01,070,00,120,07,103,00*75
2018-01-12 19:59:40 1515805180.693118: $GPZDA,005941.00,13,01,2018,00,00*67
2018-01-12 19:59:40 1515805180.693308: $GPGGA,005941,3946.9572,N,08404.9447,W,1,08,0.80,302.47,M,-33.324,M,,*74
2018-01-12 19:59:40 1515805180.693376: $GPRMC,005941,A,3946.9572,N,08404.9447,W,0.5287,182.716,130118,,*38
2018-01-12 19:59:40 1515805180.693436: $GPGSA,A,3,8,7,11,23,27,30,9,16,,,,,4.8,0.8,4.6*02
2018-01-12 19:59:41 1515805181.243502: $GPZDA,005942.00,13,01,2018,00,00*64
2018-01-12 19:59:41 1515805181.243748: $GPGGA,005942,3946.9572,N,08404.9447,W,1,08,0.80,302.47,M,-33.324,M,,*77
2018-01-12 19:59:41 1515805181.243818: $GPRMC,005942,A,3946.9572,N,08404.9447,W,0.5951,238.684,130118,,*33
2018-01-12 19:59:41 1515805181.243880: $GPGSA,A,3,8,7,11,23,27,30,9,16,,,,,4.8,0.8,4.6*02
2018-01-12 19:59:42 1515805182.244400: $GPZDA,005943.00,13,01,2018,00,00*65
2018-01-12 19:59:42 1515805182.244599: $GPGGA,005943,3946.9569,N,08404.9448,W,1,08,0.80,303.23,M,-33.324,M,,*70
2018-01-12 19:59:42 1515805182.244669: $GPRMC,005943,A,3946.9569,N,08404.9448,W,0.2422,273.794,130118,,*36
2018-01-12 19:59:42 1515805182.244748: $GPGSA,A,3,8,7,11,23,27,30,9,16,,,,,4.8,0.8,4.6*02
2018-01-12 19:59:43 1515805183.579148: $GPGSV,3,1,11,08,71,141,24,07,52,313,29,11,17,169,15,23,32,190,10*78
2018-01-12 19:59:43 1515805183.580795: $GPGSV,3,2,11,27,50,055,24,30,26,304,11,09,50,234,19,16,25,058,12*71
2018-01-12 19:59:43 1515805183.580889: $GPGSV,3,3,11,28,12,256,00,26,01,070,00,120,07,103,00*75
2018-01-12 19:59:43 1515805183.692522: $GPZDA,005944.00,13,01,2018,00,00*62
2018-01-12 19:59:43 1515805183.692709: $GPGGA,005944,3946.9569,N,08404.9455,W,1,08,0.80,303.15,M,-33.324,M,,*7E
2018-01-12 19:59:43 1515805183.692777: $GPRMC,005944,A,3946.9569,N,08404.9455,W,0.1567,189.201,130118,,*31
2018-01-12 19:59:43 1515805183.692838: $GPGSA,A,3,8,7,11,23,27,30,9,16,,,,,4.8,0.8,4.6*02
