2017-12-31 17:09:03 1514758143.701342: {"class":"VERSION","release":"3.16","rev":"3.16-4","proto_major":3,"proto_minor":11}
2017-12-31 17:09:03 1514758143.701796: {"class":"DEVICES","devices":[{"class":"DEVICE","path":"/dev/ttyUSB0","driver":"SiRF","activated":"2017-12-31T22:09:03.700Z","flags":1,"native":1,"bps":4800,"parity":"N","stopbits":1,"cycle":1.00}]}
2017-12-31 17:09:03 1514758143.701915: {"class":"WATCH","enable":true,"json":false,"nmea":true,"raw":0,"scaled":false,"timing":false,"split24":false,"pps":false}
2017-12-31 17:09:03 1514758143.813036: $GPZDA,220904.00,31,12,2017,00,00*6E
2017-12-31 17:09:03 1514758143.813192: $GPGGA,220904,3946.9583,N,08404.9854,W,2,10,0.80,301.57,M,-33.324,M,,*78
2017-12-31 17:09:03 1514758143.813257: $GPRMC,220904,A,3946.9583,N,08404.9854,W,0.0000,0.000,311217,,*32
2017-12-31 17:09:03 1514758143.813318: $GPGSA,A,3,22,23,3,16,29,31,14,32,26,135,,,1.7,0.8,1.3*35
2017-12-31 17:09:04 1514758144.361409: $GPZDA,220905.00,31,12,2017,00,00*6F
2017-12-31 17:09:04 1514758144.361570: $GPGGA,220905,3946.9583,N,08404.9854,W,2,10,0.80,301.57,M,-33.324,M,,*79
2017-12-31 17:09:04 1514758144.361638: $GPRMC,220905,A,3946.9583,N,08404.9854,W,0.0000,0.000,311217,,*33
2017-12-31 17:09:04 1514758144.361698: $GPGSA,A,3,22,23,3,16,29,31,14,32,26,135,,,1.7,0.8,1.3*35
2017-12-31 17:09:05 1514758145.361999: $GPZDA,220906.00,31,12,2017,00,00*6C
2017-12-31 17:09:05 1514758145.362154: $GPGGA,220906,3946.9583,N,08404.9854,W,2,10,0.80,301.57,M,-33.324,M,,*7A
2017-12-31 17:09:05 1514758145.362220: $GPRMC,220906,A,3946.9583,N,08404.9854,W,0.0000,0.000,311217,,*30
2017-12-31 17:09:05 1514758145.362281: $GPGSA,A,3,22,23,3,16,29,31,14,32,26,135,,,1.7,0.8,1.3*35
2017-12-31 17:09:06 1514758146.697410: $GPGSV,3,1,10,22,43,237,43,23,29,307,38,03,46,268,39,16,48,190,42*7B
2017-12-31 17:09:06 1514758146.697590: $GPGSV,3,2,10,29,14,052,31,31,48,052,51,14,39,115,37,32,17,123,41*73
2017-12-31 17:09:06 1514758146.697655: $GPGSV,3,3,10,26,75,136,47,135,22,240,42*4E
2017-12-31 17:09:06 1514758146.811203: $GPZDA,220907.00,31,12,2017,00,00*6D
2017-12-31 17:09:06 1514758146.811371: $GPGGA,220907,3946.9583,N,08404.9854,W,2,10,0.80,301.57,M,-33.324,M,,*7B
2017-12-31 17:09:06 1514758146.811438: $GPRMC,220907,A,3946.9583,N,08404.9854,W,0.0000,0.000,311217,,*31
2017-12-31 17:09:06 1514758146.811499: $GPGSA,A,3,22,23,3,16,29,31,14,32,26,135,,,1.7,0.8,1.3*35
2017-12-31 17:09:07 1514758147.354462: $GPZDA,220908.00,31,12,2017,00,00*62
2017-12-31 17:09:07 1514758147.354627: $GPGGA,220908,3946.9583,N,08404.9854,W,2,10,0.80,301.57,M,-33.324,M,,*74
2017-12-31 17:09:07 1514758147.354694: $GPRMC,220908,A,3946.9583,N,08404.9854,W,0.0000,0.000,311217,,*3E
2017-12-31 17:09:07 1514758147.354755: $GPGSA,A,3,22,23,3,16,29,31,14,32,26,135,,,1.7,0.8,1.3*35
2017-12-31 17:09:08 1514758148.354115: $GPZDA,220909.00,31,12,2017,00,00*63
2017-12-31 17:09:08 1514758148.354275: $GPGGA,220909,3946.9583,N,08404.9854,W,2,10,0.80,301.57,M,-33.324,M,,*75
2017-12-31 17:09:08 1514758148.354341: $GPRMC,220909,A,3946.9583,N,08404.9854,W,0.0000,0.000,311217,,*3F
2017-12-31 17:09:08 1514758148.354402: $GPGSA,A,3,22,23,3,16,29,31,14,32,26,135,,,1.7,0.8,1.3*35
2017-12-31 17:09:09 1514758149.681957: $GPGSV,3,1,10,22,43,237,43,23,29,307,39,03,46,268,39,16,48,190,43*7B
2017-12-31 17:09:09 1514758149.682126: $GPGSV,3,2,10,29,14,052,32,31,48,052,51,14,39,115,37,32,17,123,41*70
2017-12-31 17:09:09 1514758149.682193: $GPGSV,3,3,10,26,75,136,47,135,22,240,42*4E
2017-12-31 17:09:09 1514758149.795602: $GPZDA,220910.00,31,12,2017,00,00*6B
2017-12-31 17:09:09 1514758149.795778: $GPGGA,220910,3946.9583,N,08404.9854,W,2,10,0.80,301.57,M,-33.324,M,,*7D
2017-12-31 17:09:09 1514758149.795845: $GPRMC,220910,A,3946.9583,N,08404.9854,W,0.0000,0.000,311217,,*37
2017-12-31 17:09:09 1514758149.795923: $GPGSA,A,3,22,23,3,16,29,31,14,32,26,135,,,1.7,0.8,1.3*35
2017-12-31 17:09:10 1514758150.420609: $GPZDA,220911.00,31,12,2017,00,00*6A
2017-12-31 17:09:10 1514758150.420795: $GPGGA,220911,3946.9583,N,08404.9854,W,2,10,0.80,301.57,M,-33.324,M,,*7C
2017-12-31 17:09:10 1514758150.420862: $GPRMC,220911,A,3946.9583,N,08404.9854,W,0.0000,0.000,311217,,*36
2017-12-31 17:09:10 1514758150.420989: $GPGSA,A,3,22,23,3,16,29,31,14,32,26,135,,,1.7,0.8,1.3*35
2017-12-31 17:09:11 1514758151.343987: $GPZDA,220912.00,31,12,2017,00,00*69
2017-12-31 17:09:11 1514758151.344142: $GPGGA,220912,3946.9583,N,08404.9854,W,2,10,0.80,301.57,M,-33.324,M,,*7F
2017-12-31 17:09:11 1514758151.344208: $GPRMC,220912,A,3946.9583,N,08404.9854,W,0.0000,0.000,311217,,*35
2017-12-31 17:09:11 1514758151.344270: $GPGSA,A,3,22,23,3,16,29,31,14,32,26,135,,,1.7,0.8,1.3*35
2017-12-31 17:09:12 1514758152.695908: $GPGSV,3,1,10,22,43,237,43,23,29,307,39,03,46,268,38,16,48,190,43*7A
2017-12-31 17:09:12 1514758152.696091: $GPGSV,3,2,10,29,14,052,32,31,48,052,51,14,39,115,37,32,17,123,41*70
2017-12-31 17:09:12 1514758152.696175: $GPGSV,3,3,10,26,75,136,47,135,22,240,42*4E
2017-12-31 17:09:12 1514758152.809318: $GPZDA,220913.00,31,12,2017,00,00*68
2017-12-31 17:09:12 1514758152.809581: $GPGGA,220913,3946.9583,N,08404.9854,W,2,10,0.80,301.57,M,-33.324,M,,*7E
2017-12-31 17:09:12 1514758152.809651: $GPRMC,220913,A,3946.9583,N,08404.9854,W,0.0000,0.000,311217,,*34
2017-12-31 17:09:12 1514758152.809735: $GPGSA,A,3,22,23,3,16,29,31,14,32,26,135,,,1.7,0.8,1.3*35
2017-12-31 17:09:13 1514758153.345602: $GPZDA,220914.00,31,12,2017,00,00*6F
2017-12-31 17:09:13 1514758153.345795: $GPGGA,220914,3946.9583,N,08404.9854,W,2,10,0.80,301.57,M,-33.324,M,,*79
2017-12-31 17:09:13 1514758153.345892: $GPRMC,220914,A,3946.9583,N,08404.9854,W,0.0000,0.000,311217,,*33
2017-12-31 17:09:13 1514758153.345955: $GPGSA,A,3,22,23,3,16,29,31,14,32,26,135,,,1.7,0.8,1.3*35
