2017-12-01 16:32:00 1512163920.763870: {"class":"VERSION","release":"3.16","rev":"3.16-4","proto_major":3,"proto_minor":11}
2017-12-01 16:32:00 1512163920.764563: {"class":"DEVICES","devices":[{"class":"DEVICE","path":"/dev/ttyUSB0","driver":"SiRF","subtype":"9\u0006GSD4e_4.1.2-P1_RPATCH.05-F-GPS-4R-1510281 11/03/2015 307","activated":"2017-12-01T21:32:00.698Z","flags":1,"native":1,"bps":4800,"parity":"N","stopbits":1,"cycle":1.00}]}
2017-12-01 16:32:00 1512163920.764689: {"class":"WATCH","enable":true,"json":false,"nmea":true,"raw":0,"scaled":false,"timing":false,"split24":false,"pps":false}
2017-12-01 16:32:01 1512163921.378661: $GPZDA,213202.00,01,12,2017,00,00*60
2017-12-01 16:32:01 1512163921.378826: $GPGGA,213202,3946.9629,N,08404.9729,W,2,11,0.80,299.24,M,-33.324,M,,*76
2017-12-01 16:32:01 1512163921.378893: $GPRMC,213202,A,3946.9629,N,08404.9729,W,0.0000,0.000,011217,,*3A
2017-12-01 16:32:01 1512163921.378954: $GPGSA,A,3,1,10,11,14,22,12,31,32,26,18,138,,2.0,0.8,1.5*3E
2017-12-01 16:32:02 1512163922.721931: $GPGSV,3,1,12,01,21,300,40,10,47,148,44,11,08,282,34,14,66,328,45*78
2017-12-01 16:32:02 1512163922.722104: $GPGSV,3,2,12,22,20,312,44,12,22,049,14,31,57,226,50,32,68,030,49*70
2017-12-01 16:32:02 1512163922.722169: $GPGSV,3,3,12,26,03,183,34,25,40,090,00,18,17,144,00,138,38,213,36*40
2017-12-01 16:32:02 1512163922.834030: $GPZDA,213203.00,01,12,2017,00,00*61
2017-12-01 16:32:02 1512163922.834209: $GPGGA,213203,3946.9629,N,08404.9729,W,2,10,1.00,299.24,M,-33.324,M,,*7F
2017-12-01 16:32:02 1512163922.834276: $GPRMC,213203,A,3946.9629,N,08404.9729,W,0.0000,0.000,011217,,*3B
2017-12-01 16:32:02 1512163922.834337: $GPGSA,A,3,1,10,11,14,22,12,31,32,26,138,,,2.0,1.0,1.5*3E
2017-12-01 16:32:03 1512163923.381276: $GPZDA,213204.00,01,12,2017,00,00*66
2017-12-01 16:32:03 1512163923.381527: $GPGGA,213204,3946.9629,N,08404.9729,W,2,10,1.00,299.24,M,-33.324,M,,*78
2017-12-01 16:32:03 1512163923.381597: $GPRMC,213204,A,3946.9629,N,08404.9729,W,0.0000,0.000,011217,,*3C
2017-12-01 16:32:03 1512163923.381658: $GPGSA,A,3,1,10,11,14,22,12,31,32,26,138,,,2.0,1.0,1.5*3E
2017-12-01 16:32:04 1512163924.382126: $GPZDA,213205.00,01,12,2017,00,00*67
2017-12-01 16:32:04 1512163924.382302: $GPGGA,213205,3946.9629,N,08404.9729,W,2,10,1.00,299.24,M,-33.324,M,,*79
2017-12-01 16:32:04 1512163924.382390: $GPRMC,213205,A,3946.9629,N,08404.9729,W,0.0000,0.000,011217,,*3D
2017-12-01 16:32:04 1512163924.382453: $GPGSA,A,3,1,10,11,14,22,12,31,32,26,138,,,2.0,1.0,1.5*3E
2017-12-01 16:32:05 1512163925.719120: $GPGSV,3,1,12,01,21,300,40,10,47,148,44,11,08,282,34,14,66,328,45*78
2017-12-01 16:32:05 1512163925.719365: $GPGSV,3,2,12,22,20,312,44,12,22,049,00,31,57,226,50,32,68,030,49*75
2017-12-01 16:32:05 1512163925.719481: $GPGSV,3,3,12,26,03,183,34,25,40,090,26,18,17,144,00,138,38,213,39*4B
2017-12-01 16:32:05 1512163925.832499: $GPZDA,213206.00,01,12,2017,00,00*64
2017-12-01 16:32:05 1512163925.832669: $GPGGA,213206,3946.9629,N,08404.9729,W,2,10,1.20,299.24,M,-33.324,M,,*78
2017-12-01 16:32:05 1512163925.832735: $GPRMC,213206,A,3946.9629,N,08404.9729,W,0.0000,0.000,011217,,*3E
2017-12-01 16:32:05 1512163925.832796: $GPGSA,A,3,1,10,11,14,22,31,32,26,25,138,,,2.0,1.2,1.5*38
2017-12-01 16:32:06 1512163926.457812: $GPZDA,213207.00,01,12,2017,00,00*65
2017-12-01 16:32:06 1512163926.457995: $GPGGA,213207,3946.9629,N,08404.9729,W,2,10,1.20,299.24,M,-33.324,M,,*79
2017-12-01 16:32:06 1512163926.458061: $GPRMC,213207,A,3946.9629,N,08404.9729,W,0.0000,0.000,011217,,*3F
2017-12-01 16:32:06 1512163926.458123: $GPGSA,A,3,1,10,11,14,22,31,32,26,25,138,,,2.0,1.2,1.5*38
2017-12-01 16:32:07 1512163927.375399: $GPZDA,213208.00,01,12,2017,00,00*6A
2017-12-01 16:32:07 1512163927.375587: $GPGGA,213208,3946.9629,N,08404.9729,W,2,10,1.80,299.24,M,-33.324,M,,*7C
2017-12-01 16:32:07 1512163927.375654: $GPRMC,213208,A,3946.9629,N,08404.9729,W,0.0000,0.000,011217,,*30
2017-12-01 16:32:07 1512163927.375715: $GPGSA,A,3,1,10,11,14,22,31,32,26,25,138,,,2.0,1.8,1.5*32
2017-12-01 16:32:08 1512163928.718179: $GPGSV,3,1,12,01,21,300,40,10,47,148,44,11,08,282,34,14,66,328,45*78
2017-12-01 16:32:08 1512163928.718433: $GPGSV,3,2,12,22,20,312,44,25,40,090,25,31,57,226,49,32,68,030,49*7E
2017-12-01 16:32:08 1512163928.718520: $GPGSV,3,3,12,26,03,183,34,12,22,049,00,18,17,144,00,138,38,213,39*4B
2017-12-01 16:32:08 1512163928.831631: $GPZDA,213209.00,01,12,2017,00,00*6B
2017-12-01 16:32:08 1512163928.831807: $GPGGA,213209,3946.9629,N,08404.9729,W,2,10,1.20,299.24,M,-33.324,M,,*77
2017-12-01 16:32:08 1512163928.831873: $GPRMC,213209,A,3946.9629,N,08404.9729,W,0.0000,0.000,011217,,*31
2017-12-01 16:32:08 1512163928.831934: $GPGSA,A,3,1,10,11,14,22,25,31,32,26,138,,,2.0,1.2,1.5*38
2017-12-01 16:32:09 1512163929.381442: $GPZDA,213210.00,01,12,2017,00,00*63
2017-12-01 16:32:09 1512163929.381652: $GPGGA,213210,3946.9629,N,08404.9729,W,2,10,1.20,299.24,M,-33.324,M,,*7F
2017-12-01 16:32:09 1512163929.381718: $GPRMC,213210,A,3946.9629,N,08404.9729,W,0.0000,0.000,011217,,*39
2017-12-01 16:32:09 1512163929.381780: $GPGSA,A,3,1,10,11,14,22,25,31,32,26,138,,,2.0,1.2,1.5*38
2017-12-01 16:32:10 1512163930.382105: $GPZDA,213211.00,01,12,2017,00,00*62
2017-12-01 16:32:10 1512163930.382279: $GPGGA,213211,3946.9629,N,08404.9729,W,2,10,1.20,299.24,M,-33.324,M,,*7E
2017-12-01 16:32:10 1512163930.382368: $GPRMC,213211,A,3946.9629,N,08404.9729,W,0.0000,0.000,011217,,*38
2017-12-01 16:32:10 1512163930.382430: $GPGSA,A,3,1,10,11,14,22,25,31,32,26,138,,,2.0,1.2,1.5*38
2017-12-01 16:32:11 1512163931.717293: $GPGSV,3,1,12,01,21,300,39,10,47,148,44,11,08,282,35,14,66,328,44*76
2017-12-01 16:32:11 1512163931.717511: $GPGSV,3,2,12,22,20,312,44,25,40,090,26,31,57,226,49,32,68,030,49*7D
2017-12-01 16:32:11 1512163931.717579: $GPGSV,3,3,12,26,03,183,34,18,17,144,10,12,22,049,00,138,38,213,39*4A
2017-12-01 16:32:11 1512163931.830763: $GPZDA,213212.00,01,12,2017,00,00*61
2017-12-01 16:32:11 1512163931.830933: $GPGGA,213212,3946.9629,N,08404.9729,W,2,10,1.20,299.24,M,-33.324,M,,*7D
2017-12-01 16:32:11 1512163931.831000: $GPRMC,213212,A,3946.9629,N,08404.9729,W,0.0000,0.000,011217,,*3B
2017-12-01 16:32:11 1512163931.831061: $GPGSA,A,3,1,10,11,14,22,25,31,32,26,138,,,2.0,1.2,1.5*38
2017-12-01 16:32:12 1512163932.375276: $GPZDA,213213.00,01,12,2017,00,00*60
2017-12-01 16:32:12 1512163932.375480: $GPGGA,213213,3946.9629,N,08404.9729,W,2,10,1.20,299.24,M,-33.324,M,,*7C
2017-12-01 16:32:12 1512163932.375549: $GPRMC,213213,A,3946.9629,N,08404.9729,W,0.0000,0.000,011217,,*3A
2017-12-01 16:32:12 1512163932.375610: $GPGSA,A,3,1,10,11,14,22,25,31,32,26,138,,,2.0,1.2,1.5*38
2017-12-01 16:32:13 1512163933.374925: $GPZDA,213214.00,01,12,2017,00,00*67
2017-12-01 16:32:13 1512163933.375093: $GPGGA,213214,3946.9629,N,08404.9729,W,2,10,1.20,299.24,M,-33.324,M,,*7B
2017-12-01 16:32:13 1512163933.375160: $GPRMC,213214,A,3946.9629,N,08404.9729,W,0.0000,0.000,011217,,*3D
2017-12-01 16:32:13 1512163933.375221: $GPGSA,A,3,1,10,11,14,22,25,31,32,26,138,,,2.0,1.2,1.5*38
2017-12-01 16:32:14 1512163934.720636: $GPGSV,3,1,12,01,21,300,39,10,47,148,44,11,08,282,35,14,66,328,44*76
2017-12-01 16:32:14 1512163934.720855: $GPGSV,3,2,12,22,20,312,43,25,40,090,26,31,57,226,50,32,68,030,48*73
2017-12-01 16:32:14 1512163934.720924: $GPGSV,3,3,12,26,03,183,34,12,22,049,01,18,17,144,00,138,38,213,38*4B
2017-12-01 16:32:14 1512163934.834055: $GPZDA,213215.00,01,12,2017,00,00*66
2017-12-01 16:32:14 1512163934.834229: $GPGGA,213215,3946.9629,N,08404.9729,W,2,10,1.20,299.24,M,-33.324,M,,*7A
2017-12-01 16:32:14 1512163934.834317: $GPRMC,213215,A,3946.9629,N,08404.9729,W,0.0000,0.000,011217,,*3C
2017-12-01 16:32:14 1512163934.834381: $GPGSA,A,3,1,10,11,14,22,25,31,32,26,138,,,2.0,1.2,1.5*38
2017-12-01 16:32:15 1512163935.380100: $GPZDA,213216.00,01,12,2017,00,00*65
2017-12-01 16:32:15 1512163935.380317: $GPGGA,213216,3946.9629,N,08404.9729,W,2,10,1.20,299.24,M,-33.324,M,,*79
2017-12-01 16:32:15 1512163935.380386: $GPRMC,213216,A,3946.9629,N,08404.9729,W,0.0000,0.000,011217,,*3F
2017-12-01 16:32:15 1512163935.380480: $GPGSA,A,3,1,10,11,14,22,25,31,32,26,138,,,2.0,1.2,1.5*38
2017-12-01 16:32:16 1512163936.381589: $GPZDA,213217.00,01,12,2017,00,00*64
2017-12-01 16:32:16 1512163936.385534: $GPGGA,213217,3946.9629,N,08404.9729,W,2,10,1.00,299.24,M,-33.324,M,,*7A
2017-12-01 16:32:16 1512163936.385641: $GPRMC,213217,A,3946.9629,N,08404.9729,W,0.0000,0.000,011217,,*3E
2017-12-01 16:32:16 1512163936.385705: $GPGSA,A,3,1,10,11,14,22,25,31,32,26,138,,,2.0,1.0,1.5*3A
2017-12-01 16:32:17 1512163937.718565: $GPGSV,3,1,12,01,21,300,39,10,47,148,44,11,08,282,34,14,66,328,44*77
2017-12-01 16:32:17 1512163937.718751: $GPGSV,3,2,12,22,20,312,43,25,40,090,26,31,57,226,50,32,68,030,48*73
2017-12-01 16:32:17 1512163937.718818: $GPGSV,3,3,12,26,03,183,34,12,22,049,23,18,17,144,01,138,38,213,40*45
2017-12-01 16:32:17 1512163937.831907: $GPZDA,213218.00,01,12,2017,00,00*6B
2017-12-01 16:32:17 1512163937.832096: $GPGGA,213218,3946.9629,N,08404.9729,W,2,11,1.00,299.24,M,-33.324,M,,*74
2017-12-01 16:32:17 1512163937.832164: $GPRMC,213218,A,3946.9629,N,08404.9729,W,0.0000,0.000,011217,,*31
2017-12-01 16:32:17 1512163937.832225: $GPGSA,A,3,1,10,11,14,22,25,31,32,26,12,138,,2.0,1.0,1.5*39
2017-12-01 16:32:18 1512163938.382797: $GPZDA,213219.00,01,12,2017,00,00*6A
2017-12-01 16:32:18 1512163938.382986: $GPGGA,213219,3946.9629,N,08404.9729,W,2,11,1.00,299.24,M,-33.324,M,,*75
2017-12-01 16:32:18 1512163938.383053: $GPRMC,213219,A,3946.9629,N,08404.9729,W,0.0000,0.000,011217,,*30
2017-12-01 16:32:18 1512163938.383114: $GPGSA,A,3,1,10,11,14,22,25,31,32,26,12,138,,2.0,1.0,1.5*39
2017-12-01 16:32:19 1512163939.378642: $GPZDA,213220.00,01,12,2017,00,00*60
2017-12-01 16:32:19 1512163939.378812: $GPGGA,213220,3946.9629,N,08404.9729,W,2,11,1.00,299.24,M,-33.324,M,,*7F
2017-12-01 16:32:19 1512163939.378879: $GPRMC,213220,A,3946.9629,N,08404.9729,W,0.0000,0.000,011217,,*3A
2017-12-01 16:32:19 1512163939.378940: $GPGSA,A,3,1,10,11,14,22,25,31,32,26,12,138,,2.0,1.0,1.5*39
2017-12-01 16:32:20 1512163940.711909: $GPGSV,3,1,12,01,21,300,39,10,47,148,44,11,08,282,34,14,66,328,44*77
2017-12-01 16:32:20 1512163940.712088: $GPGSV,3,2,12,22,20,312,43,25,40,090,26,31,57,226,49,32,68,030,48*7B
2017-12-01 16:32:20 1512163940.712155: $GPGSV,3,3,12,26,03,183,34,12,22,049,25,18,17,144,00,138,38,213,40*42
