2017-12-31 17:06:52 1514758012.336421: {"class":"VERSION","release":"3.16","rev":"3.16-4","proto_major":3,"proto_minor":11}
2017-12-31 17:06:52 1514758012.336850: {"class":"DEVICES","devices":[{"class":"DEVICE","path":"/dev/ttyUSB0","driver":"SiRF","activated":"2017-12-31T22:06:52.229Z","flags":1,"native":1,"bps":4800,"parity":"N","stopbits":1,"cycle":1.00}]}
2017-12-31 17:06:52 1514758012.336956: {"class":"WATCH","enable":true,"json":false,"nmea":true,"raw":0,"scaled":false,"timing":false,"split24":false,"pps":false}
2017-12-31 17:06:52 1514758012.343283: $GPZDA,220653.00,31,12,2017,00,00*63
2017-12-31 17:06:52 1514758012.343393: $GPGGA,220653,3946.9587,N,08404.9854,W,2,11,1.00,302.21,M,-33.324,M,,*7B
2017-12-31 17:06:52 1514758012.343456: $GPRMC,220653,A,3946.9587,N,08404.9854,W,0.0000,0.000,311217,,*3B
2017-12-31 17:06:52 1514758012.343516: $GPGSA,A,3,22,23,25,3,16,29,31,14,32,26,135,,1.7,1.0,1.3*3B
2017-12-31 17:06:53 1514758013.361583: $GPZDA,220654.00,31,12,2017,00,00*64
2017-12-31 17:06:53 1514758013.361756: $GPGGA,220654,3946.9587,N,08404.9854,W,2,11,1.00,302.21,M,-33.324,M,,*7C
2017-12-31 17:06:53 1514758013.361823: $GPRMC,220654,A,3946.9587,N,08404.9854,W,0.0000,0.000,311217,,*3C
2017-12-31 17:06:53 1514758013.361884: $GPGSA,A,3,22,23,25,3,16,29,31,14,32,26,135,,1.7,1.0,1.3*3B
2017-12-31 17:06:54 1514758014.678527: $GPGSV,3,1,11,22,44,238,42,23,28,307,37,25,01,037,06,03,46,270,40*7B
2017-12-31 17:06:54 1514758014.678699: $GPGSV,3,2,11,16,47,190,43,29,14,054,34,31,49,051,50,14,40,114,38*7B
2017-12-31 17:06:54 1514758014.678765: $GPGSV,3,3,11,32,18,123,40,26,75,139,46,135,22,240,42*7D
2017-12-31 17:06:54 1514758014.791896: $GPZDA,220655.00,31,12,2017,00,00*65
2017-12-31 17:06:54 1514758014.792022: $GPGGA,220655,3946.9587,N,08404.9854,W,2,11,1.00,302.21,M,-33.324,M,,*7D
2017-12-31 17:06:54 1514758014.792086: $GPRMC,220655,A,3946.9587,N,08404.9854,W,0.0000,0.000,311217,,*3D
2017-12-31 17:06:54 1514758014.792146: $GPGSA,A,3,22,23,25,3,16,29,31,14,32,26,135,,1.7,1.0,1.3*3B
2017-12-31 17:06:55 1514758015.418932: $GPZDA,220656.00,31,12,2017,00,00*66
2017-12-31 17:06:55 1514758015.419091: $GPGGA,220656,3946.9587,N,08404.9854,W,2,11,1.00,302.21,M,-33.324,M,,*7E
2017-12-31 17:06:55 1514758015.419156: $GPRMC,220656,A,3946.9587,N,08404.9854,W,0.0000,0.000,311217,,*3E
2017-12-31 17:06:55 1514758015.419216: $GPGSA,A,3,22,23,25,3,16,29,31,14,32,26,135,,1.7,1.0,1.3*3B
2017-12-31 17:06:56 1514758016.344168: $GPZDA,220657.00,31,12,2017,00,00*67
2017-12-31 17:06:56 1514758016.344345: $GPGGA,220657,3946.9587,N,08404.9854,W,2,11,1.00,302.21,M,-33.324,M,,*7F
2017-12-31 17:06:56 1514758016.344411: $GPRMC,220657,A,3946.9587,N,08404.9854,W,0.0000,0.000,311217,,*3F
2017-12-31 17:06:56 1514758016.344471: $GPGSA,A,3,22,23,25,3,16,29,31,14,32,26,135,,1.7,1.0,1.3*3B
2017-12-31 17:06:57 1514758017.678835: $GPGSV,3,1,11,22,44,238,42,23,28,307,37,25,01,037,07,03,46,270,40*7A
2017-12-31 17:06:57 1514758017.679002: $GPGSV,3,2,11,16,47,190,43,29,14,054,34,31,49,051,51,14,40,114,38*7A
2017-12-31 17:06:57 1514758017.679067: $GPGSV,3,3,11,32,18,123,40,26,75,139,46,135,22,240,43*7C
2017-12-31 17:06:57 1514758017.792132: $GPZDA,220658.00,31,12,2017,00,00*68
2017-12-31 17:06:57 1514758017.792252: $GPGGA,220658,3946.9587,N,08404.9854,W,2,11,1.00,302.21,M,-33.324,M,,*70
2017-12-31 17:06:57 1514758017.792316: $GPRMC,220658,A,3946.9587,N,08404.9854,W,0.0000,0.000,311217,,*30
2017-12-31 17:06:57 1514758017.792376: $GPGSA,A,3,22,23,25,3,16,29,31,14,32,26,135,,1.7,1.0,1.3*3B
2017-12-31 17:06:58 1514758018.359289: $GPZDA,220659.00,31,12,2017,00,00*69
2017-12-31 17:06:58 1514758018.359438: $GPGGA,220659,3946.9587,N,08404.9854,W,2,11,1.00,302.21,M,-33.324,M,,*71
2017-12-31 17:06:58 1514758018.359502: $GPRMC,220659,A,3946.9587,N,08404.9854,W,0.0000,0.000,311217,,*31
2017-12-31 17:06:58 1514758018.359561: $GPGSA,A,3,22,23,25,3,16,29,31,14,32,26,135,,1.7,1.0,1.3*3B
2017-12-31 17:06:59 1514758019.343924: $GPZDA,220700.00,31,12,2017,00,00*64
2017-12-31 17:06:59 1514758019.344092: $GPGGA,220700,3946.9587,N,08404.9854,W,2,11,1.00,302.21,M,-33.324,M,,*7C
2017-12-31 17:06:59 1514758019.344210: $GPRMC,220700,A,3946.9587,N,08404.9854,W,0.0000,0.000,311217,,*3C
2017-12-31 17:06:59 1514758019.344273: $GPGSA,A,3,22,23,25,3,16,29,31,14,32,26,135,,1.7,1.0,1.3*3B
2017-12-31 17:07:00 1514758020.694175: $GPGSV,3,1,11,22,44,238,42,23,28,307,38,25,01,037,07,03,46,270,40*75
2017-12-31 17:07:00 1514758020.694362: $GPGSV,3,2,11,16,47,190,43,29,14,054,34,31,49,051,51,14,40,114,38*7A
2017-12-31 17:07:00 1514758020.694428: $GPGSV,3,3,11,32,18,123,40,26,75,139,47,135,22,240,42*7C
2017-12-31 17:07:00 1514758020.807559: $GPZDA,220701.00,31,12,2017,00,00*65
2017-12-31 17:07:00 1514758020.807685: $GPGGA,220701,3946.9587,N,08404.9854,W,2,11,1.00,302.21,M,-33.324,M,,*7D
2017-12-31 17:07:00 1514758020.807749: $GPRMC,220701,A,3946.9587,N,08404.9854,W,0.0000,0.000,311217,,*3D
2017-12-31 17:07:00 1514758020.807809: $GPGSA,A,3,22,23,25,3,16,29,31,14,32,26,135,,1.7,1.0,1.3*3B
2017-12-31 17:07:01 1514758021.344867: $GPZDA,220702.00,31,12,2017,00,00*66
2017-12-31 17:07:01 1514758021.344999: $GPGGA,220702,3946.9587,N,08404.9854,W,2,11,1.00,302.21,M,-33.324,M,,*7E
2017-12-31 17:07:01 1514758021.345062: $GPRMC,220702,A,3946.9587,N,08404.9854,W,0.0000,0.000,311217,,*3E
2017-12-31 17:07:01 1514758021.345121: $GPGSA,A,3,22,23,25,3,16,29,31,14,32,26,135,,1.7,1.0,1.3*3B
2017-12-31 17:07:02 1514758022.343337: $GPZDA,220703.00,31,12,2017,00,00*67
2017-12-31 17:07:02 1514758022.343516: $GPGGA,220703,3946.9587,N,08404.9854,W,2,11,1.00,302.21,M,-33.324,M,,*7F
2017-12-31 17:07:02 1514758022.343603: $GPRMC,220703,A,3946.9587,N,08404.9854,W,0.0000,0.000,311217,,*3F
2017-12-31 17:07:02 1514758022.343668: $GPGSA,A,3,22,23,25,3,16,29,31,14,32,26,135,,1.7,1.0,1.3*3B
