2017-11-16 14:21:09 1510860069.425863: {"class":"VERSION","release":"3.17","rev":"3.17","proto_major":3,"proto_minor":12}
2017-11-16 14:21:09 1510860069.426334: {"class":"DEVICES","devices":[{"class":"DEVICE","path":"/dev/ttyUSB0","driver":"SiRF","subtype":"9\u0006GSD4e_4.1.2-P1_RPATCH.05-F-GPS-4R-1510281 11/03/2015 307","activated":"2017-11-16T19:21:09.420Z","flags":1,"native":1,"bps":4800,"parity":"N","stopbits":1,"cycle":1.00}]}
2017-11-16 14:21:09 1510860069.426448: {"class":"WATCH","enable":true,"json":false,"nmea":true,"raw":0,"scaled":false,"timing":false,"split24":false,"pps":false}
2017-11-16 14:21:09 1510860069.869987: $GPGSV,3,1,12,08,07,319,37,10,43,303,46,13,06,049,16,15,35,052,51*73
2017-11-16 14:21:09 1510860069.870159: $GPGSV,3,2,12,18,72,342,46,21,61,189,45,20,31,097,45,24,52,106,47*7F
2017-11-16 14:21:09 1510860069.870220: $GPGSV,3,3,12,27,19,286,39,32,22,240,47,14,06,234,27,138,38,213,44*47
2017-11-16 14:21:09 1510860069.983930: $GPZDA,192108.00,16,11,2017,00,00*66
2017-11-16 14:21:09 1510860069.984164: $GPGGA,192108,3946.9565,N,08404.9857,W,2,12,0.80,303.99,M,-33.324,M,,*7F
2017-11-16 14:21:09 1510860069.984241: $GPRMC,192108,A,3946.9565,N,08404.9857,W,0.0000,0.000,161117,,*31
2017-11-16 14:21:09 1510860069.984309: $GPGSA,A,3,8,10,13,15,18,21,20,24,27,32,14,138,1.6,0.8,1.3*35
2017-11-16 14:21:10 1510860070.501653: $GPZDA,192109.00,16,11,2017,00,00*67
2017-11-16 14:21:10 1510860070.501822: $GPGGA,192109,3946.9565,N,08404.9857,W,2,12,0.80,303.99,M,-33.324,M,,*7E
2017-11-16 14:21:10 1510860070.501882: $GPRMC,192109,A,3946.9565,N,08404.9857,W,0.0000,0.000,161117,,*30
2017-11-16 14:21:10 1510860070.501938: $GPGSA,A,3,8,10,13,15,18,21,20,24,27,32,14,138,1.6,0.8,1.3*35
2017-11-16 14:21:11 1510860071.501274: $GPZDA,192110.00,16,11,2017,00,00*6F
2017-11-16 14:21:11 1510860071.501412: $GPGGA,192110,3946.9565,N,08404.9857,W,2,12,0.80,303.99,M,-33.324,M,,*76
2017-11-16 14:21:11 1510860071.501472: $GPRMC,192110,A,3946.9565,N,08404.9857,W,0.0000,0.000,161117,,*38
2017-11-16 14:21:11 1510860071.501528: $GPGSA,A,3,8,10,13,15,18,21,20,24,27,32,14,138,1.6,0.8,1.3*35
2017-11-16 14:21:12 1510860072.844611: $GPGSV,3,1,12,08,07,319,36,10,43,303,46,13,06,049,15,15,35,052,51*71
2017-11-16 14:21:12 1510860072.844780: $GPGSV,3,2,12,18,72,342,46,21,61,189,46,20,31,097,44,24,52,106,47*7D
2017-11-16 14:21:12 1510860072.844840: $GPGSV,3,3,12,27,19,286,39,32,22,240,47,14,06,234,12,138,38,213,45*40
2017-11-16 14:21:12 1510860072.957903: $GPZDA,192111.00,16,11,2017,00,00*6E
2017-11-16 14:21:12 1510860072.958071: $GPGGA,192111,3946.9565,N,08404.9857,W,2,11,0.80,303.99,M,-33.324,M,,*74
2017-11-16 14:21:12 1510860072.958132: $GPRMC,192111,A,3946.9565,N,08404.9857,W,0.0000,0.000,161117,,*39
2017-11-16 14:21:12 1510860072.958206: $GPGSA,A,3,8,10,13,15,18,21,20,24,27,32,138,,1.6,0.8,1.3*30
2017-11-16 14:21:13 1510860073.501245: $GPZDA,192112.00,16,11,2017,00,00*6D
2017-11-16 14:21:13 1510860073.501425: $GPGGA,192112,3946.9565,N,08404.9857,W,2,11,0.80,303.99,M,-33.324,M,,*77
2017-11-16 14:21:13 1510860073.501486: $GPRMC,192112,A,3946.9565,N,08404.9857,W,0.0000,0.000,161117,,*3A
2017-11-16 14:21:13 1510860073.501542: $GPGSA,A,3,8,10,13,15,18,21,20,24,27,32,138,,1.6,0.8,1.3*30
2017-11-16 14:21:14 1510860074.496676: $GPZDA,192113.00,16,11,2017,00,00*6C
2017-11-16 14:21:14 1510860074.496835: $GPGGA,192113,3946.9565,N,08404.9857,W,2,11,0.80,303.99,M,-33.324,M,,*76
2017-11-16 14:21:14 1510860074.496897: $GPRMC,192113,A,3946.9565,N,08404.9857,W,0.0000,0.000,161117,,*3B
2017-11-16 14:21:14 1510860074.496953: $GPGSA,A,3,8,10,13,15,18,21,20,24,27,32,138,,1.6,0.8,1.3*30
2017-11-16 14:21:15 1510860075.837351: $GPGSV,3,1,12,08,07,319,31,10,43,303,46,13,06,049,15,15,35,052,51*76
2017-11-16 14:21:15 1510860075.837525: $GPGSV,3,2,12,18,72,342,46,21,61,189,45,20,31,097,44,24,52,106,47*7E
2017-11-16 14:21:15 1510860075.837586: $GPGSV,3,3,12,27,19,286,40,32,22,240,47,14,06,234,31,138,38,213,42*48
2017-11-16 14:21:15 1510860075.951249: $GPZDA,192114.00,16,11,2017,00,00*6B
2017-11-16 14:21:15 1510860075.951408: $GPGGA,192114,3946.9565,N,08404.9857,W,2,12,0.80,303.99,M,-33.324,M,,*72
2017-11-16 14:21:15 1510860075.951512: $GPRMC,192114,A,3946.9565,N,08404.9857,W,0.0000,0.000,161117,,*3C
2017-11-16 14:21:15 1510860075.951569: $GPGSA,A,3,8,10,13,15,18,21,20,24,27,32,14,138,1.6,0.8,1.3*35
2017-11-16 14:21:16 1510860076.501640: $GPZDA,192115.00,16,11,2017,00,00*6A
2017-11-16 14:21:16 1510860076.501812: $GPGGA,192115,3946.9565,N,08404.9857,W,2,12,0.80,303.99,M,-33.324,M,,*73
2017-11-16 14:21:16 1510860076.501878: $GPRMC,192115,A,3946.9565,N,08404.9857,W,0.0000,0.000,161117,,*3D
2017-11-16 14:21:16 1510860076.501937: $GPGSA,A,3,8,10,13,15,18,21,20,24,27,32,14,138,1.6,0.8,1.3*35
2017-11-16 14:21:17 1510860077.502490: $GPZDA,192116.00,16,11,2017,00,00*69
2017-11-16 14:21:17 1510860077.502661: $GPGGA,192116,3946.9565,N,08404.9857,W,2,12,0.80,303.99,M,-33.324,M,,*70
2017-11-16 14:21:17 1510860077.502727: $GPRMC,192116,A,3946.9565,N,08404.9857,W,0.0000,0.000,161117,,*3E
2017-11-16 14:21:17 1510860077.502787: $GPGSA,A,3,8,10,13,15,18,21,20,24,27,32,14,138,1.6,0.8,1.3*35
2017-11-16 14:21:18 1510860078.838161: $GPGSV,3,1,12,08,07,319,18,10,43,303,46,13,06,049,15,15,35,052,51*7D
2017-11-16 14:21:18 1510860078.838345: $GPGSV,3,2,12,18,72,342,46,21,61,189,46,20,31,097,44,24,52,106,47*7D
2017-11-16 14:21:18 1510860078.838408: $GPGSV,3,3,12,27,19,286,41,32,22,240,46,14,06,234,32,138,38,213,44*4D
2017-11-16 14:21:18 1510860078.951723: $GPZDA,192117.00,16,11,2017,00,00*68
2017-11-16 14:21:18 1510860078.951908: $GPGGA,192117,3946.9565,N,08404.9857,W,2,12,0.80,303.99,M,-33.324,M,,*71
2017-11-16 14:21:18 1510860078.951977: $GPRMC,192117,A,3946.9565,N,08404.9857,W,0.0000,0.000,161117,,*3F
2017-11-16 14:21:18 1510860078.952037: $GPGSA,A,3,8,10,13,15,18,21,20,24,27,32,14,138,1.6,0.8,1.3*35
2017-11-16 14:21:19 1510860079.578254: $GPZDA,192118.00,16,11,2017,00,00*67
2017-11-16 14:21:19 1510860079.578406: $GPGGA,192118,3946.9565,N,08404.9857,W,2,12,0.80,303.99,M,-33.324,M,,*7E
2017-11-16 14:21:19 1510860079.578471: $GPRMC,192118,A,3946.9565,N,08404.9857,W,0.0000,0.000,161117,,*30
2017-11-16 14:21:19 1510860079.578530: $GPGSA,A,3,8,10,13,15,18,21,20,24,27,32,14,138,1.6,0.8,1.3*35
2017-11-16 14:21:20 1510860080.501598: $GPZDA,192119.00,16,11,2017,00,00*66
2017-11-16 14:21:20 1510860080.501764: $GPGGA,192119,3946.9565,N,08404.9857,W,2,12,0.80,303.99,M,-33.324,M,,*7F
2017-11-16 14:21:20 1510860080.501829: $GPRMC,192119,A,3946.9565,N,08404.9857,W,0.0000,0.000,161117,,*31
2017-11-16 14:21:20 1510860080.501888: $GPGSA,A,3,8,10,13,15,18,21,20,24,27,32,14,138,1.6,0.8,1.3*35
2017-11-16 14:21:21 1510860081.837336: $GPGSV,3,1,12,08,07,319,31,10,43,303,46,13,06,049,13,15,35,052,51*70
2017-11-16 14:21:21 1510860081.837510: $GPGSV,3,2,12,18,72,342,46,21,61,189,46,20,31,097,44,24,52,106,47*7D
2017-11-16 14:21:21 1510860081.837574: $GPGSV,3,3,12,27,19,286,42,32,22,240,46,14,06,234,32,138,38,213,43*49
2017-11-16 14:21:21 1510860081.950689: $GPZDA,192120.00,16,11,2017,00,00*6C
2017-11-16 14:21:21 1510860081.950853: $GPGGA,192120,3946.9565,N,08404.9857,W,2,12,0.80,303.99,M,-33.324,M,,*75
2017-11-16 14:21:21 1510860081.950916: $GPRMC,192120,A,3946.9565,N,08404.9857,W,0.0000,0.000,161117,,*3B
2017-11-16 14:21:21 1510860081.950975: $GPGSA,A,3,8,10,13,15,18,21,20,24,27,32,14,138,1.6,0.8,1.3*35
2017-11-16 14:21:22 1510860082.501473: $GPZDA,192121.00,16,11,2017,00,00*6D
2017-11-16 14:21:22 1510860082.501636: $GPGGA,192121,3946.9565,N,08404.9857,W,2,12,0.80,303.99,M,-33.324,M,,*74
2017-11-16 14:21:22 1510860082.501700: $GPRMC,192121,A,3946.9565,N,08404.9857,W,0.0000,0.000,161117,,*3A
2017-11-16 14:21:22 1510860082.501759: $GPGSA,A,3,8,10,13,15,18,21,20,24,27,32,14,138,1.6,0.8,1.3*35
2017-11-16 14:21:23 1510860083.502344: $GPZDA,192122.00,16,11,2017,00,00*6E
2017-11-16 14:21:23 1510860083.502509: $GPGGA,192122,3946.9565,N,08404.9857,W,2,12,1.00,303.99,M,-33.324,M,,*7E
2017-11-16 14:21:23 1510860083.502574: $GPRMC,192122,A,3946.9565,N,08404.9857,W,0.0000,0.000,161117,,*39
2017-11-16 14:21:23 1510860083.502632: $GPGSA,A,3,8,10,13,15,18,21,20,24,27,32,14,138,1.6,1.0,1.3*3C
