2017-12-01 17:19:45 1512166785.616573: {"class":"VERSION","release":"3.16","rev":"3.16-4","proto_major":3,"proto_minor":11}
2017-12-01 17:19:45 1512166785.616999: {"class":"DEVICES","devices":[{"class":"DEVICE","path":"/dev/ttyUSB0","driver":"SiRF","subtype":"9\u0006GSD4e_4.1.2-P1_RPATCH.05-F-GPS-4R-1510281 11/03/2015 307","activated":"2017-12-01T22:19:45.533Z","flags":1,"native":1,"bps":4800,"parity":"N","stopbits":1,"cycle":1.00}]}
2017-12-01 17:19:45 1512166785.617127: {"class":"WATCH","enable":true,"json":false,"nmea":true,"raw":0,"scaled":false,"timing":false,"split24":false,"pps":false}
2017-12-01 17:19:46 1512166786.725971: $GPGSV,3,1,11,01,19,277,45,03,18,316,43,10,25,156,37,14,70,030,45*78
2017-12-01 17:19:46 1512166786.726145: $GPGSV,3,2,11,22,37,304,45,25,37,060,30,26,23,178,36,31,77,268,47*7F
2017-12-01 17:19:46 1512166786.726215: $GPGSV,3,3,11,32,57,075,46,12,09,034,31,138,38,213,34*73
2017-12-01 17:19:46 1512166786.839303: $GPZDA,221947.00,01,12,2017,00,00*6B
2017-12-01 17:19:46 1512166786.845913: $GPGGA,221947,3946.9650,N,08404.9742,W,2,11,0.80,300.87,M,-33.324,M,,*76
2017-12-01 17:19:46 1512166786.846038: $GPRMC,221947,A,3946.9650,N,08404.9742,W,0.0000,0.000,011217,,*32
2017-12-01 17:19:46 1512166786.846105: $GPGSA,A,3,1,3,10,14,22,25,26,31,32,12,138,,2.0,0.8,1.5*03
2017-12-01 17:19:47 1512166787.464751: $GPZDA,221948.00,01,12,2017,00,00*64
2017-12-01 17:19:47 1512166787.464930: $GPGGA,221948,3946.9650,N,08404.9742,W,2,11,0.80,300.87,M,-33.324,M,,*79
2017-12-01 17:19:47 1512166787.465000: $GPRMC,221948,A,3946.9650,N,08404.9742,W,0.0000,0.000,011217,,*3D
2017-12-01 17:19:47 1512166787.465066: $GPGSA,A,3,1,3,10,14,22,25,26,31,32,12,138,,2.0,0.8,1.5*03
2017-12-01 17:19:48 1512166788.392243: $GPZDA,221949.00,01,12,2017,00,00*65
2017-12-01 17:19:48 1512166788.392417: $GPGGA,221949,3946.9650,N,08404.9742,W,2,11,0.80,300.87,M,-33.324,M,,*78
2017-12-01 17:19:48 1512166788.392492: $GPRMC,221949,A,3946.9650,N,08404.9742,W,0.0000,0.000,011217,,*3C
2017-12-01 17:19:48 1512166788.392560: $GPGSA,A,3,1,3,10,14,22,25,26,31,32,12,138,,2.0,0.8,1.5*03
2017-12-01 17:19:49 1512166789.728963: $GPGSV,3,1,11,01,19,277,45,03,18,316,42,10,25,156,37,14,70,030,45*79
2017-12-01 17:19:49 1512166789.729162: $GPGSV,3,2,11,22,37,304,45,25,37,060,31,26,23,178,35,31,77,268,47*7D
2017-12-01 17:19:49 1512166789.729231: $GPGSV,3,3,11,32,57,075,46,12,09,034,32,138,38,213,38*7C
2017-12-01 17:19:49 1512166789.842402: $GPZDA,221950.00,01,12,2017,00,00*6D
2017-12-01 17:19:49 1512166789.842576: $GPGGA,221950,3946.9650,N,08404.9742,W,2,11,0.80,300.87,M,-33.324,M,,*70
2017-12-01 17:19:49 1512166789.842647: $GPRMC,221950,A,3946.9650,N,08404.9742,W,0.0000,0.000,011217,,*34
2017-12-01 17:19:49 1512166789.842710: $GPGSA,A,3,1,3,10,14,22,25,26,31,32,12,138,,2.0,0.8,1.5*03
2017-12-01 17:19:50 1512166790.412312: $GPZDA,221951.00,01,12,2017,00,00*6C
2017-12-01 17:19:50 1512166790.412493: $GPGGA,221951,3946.9650,N,08404.9742,W,2,11,0.80,300.87,M,-33.324,M,,*71
2017-12-01 17:19:50 1512166790.412565: $GPRMC,221951,A,3946.9650,N,08404.9742,W,0.0000,0.000,011217,,*35
2017-12-01 17:19:50 1512166790.412631: $GPGSA,A,3,1,3,10,14,22,25,26,31,32,12,138,,2.0,0.8,1.5*03
2017-12-01 17:19:51 1512166791.413144: $GPZDA,221952.00,01,12,2017,00,00*6F
2017-12-01 17:19:51 1512166791.413318: $GPGGA,221952,3946.9650,N,08404.9742,W,2,11,0.80,300.87,M,-33.324,M,,*72
2017-12-01 17:19:51 1512166791.413390: $GPRMC,221952,A,3946.9650,N,08404.9742,W,0.0000,0.000,011217,,*36
2017-12-01 17:19:51 1512166791.413457: $GPGSA,A,3,1,3,10,14,22,25,26,31,32,12,138,,2.0,0.8,1.5*03
2017-12-01 17:19:52 1512166792.747944: $GPGSV,3,1,11,01,19,277,44,03,18,316,42,10,25,156,37,14,70,030,45*78
2017-12-01 17:19:52 1512166792.748131: $GPGSV,3,2,11,22,37,304,45,25,37,060,31,26,23,178,34,31,77,268,48*73
2017-12-01 17:19:52 1512166792.748200: $GPGSV,3,3,11,32,57,075,46,12,09,034,32,138,38,213,40*73
2017-12-01 17:19:52 1512166792.861256: $GPZDA,221953.00,01,12,2017,00,00*6E
2017-12-01 17:19:52 1512166792.861459: $GPGGA,221953,3946.9650,N,08404.9742,W,2,11,0.80,300.87,M,-33.324,M,,*73
2017-12-01 17:19:52 1512166792.861587: $GPRMC,221953,A,3946.9650,N,08404.9742,W,0.0000,0.000,011217,,*37
2017-12-01 17:19:52 1512166792.861672: $GPGSA,A,3,1,3,10,14,22,25,26,31,32,12,138,,2.0,0.8,1.5*03
2017-12-01 17:19:53 1512166793.411295: $GPZDA,221954.00,01,12,2017,00,00*69
2017-12-01 17:19:53 1512166793.411565: $GPGGA,221954,3946.9650,N,08404.9742,W,2,11,0.80,300.87,M,-33.324,M,,*74
2017-12-01 17:19:53 1512166793.411650: $GPRMC,221954,A,3946.9650,N,08404.9742,W,0.0000,0.000,011217,,*30
2017-12-01 17:19:53 1512166793.411716: $GPGSA,A,3,1,3,10,14,22,25,26,31,32,12,138,,2.0,0.8,1.5*03
2017-12-01 17:19:54 1512166794.411931: $GPZDA,221955.00,01,12,2017,00,00*68
2017-12-01 17:19:54 1512166794.412101: $GPGGA,221955,3946.9650,N,08404.9742,W,2,11,0.80,300.87,M,-33.324,M,,*75
2017-12-01 17:19:54 1512166794.412168: $GPRMC,221955,A,3946.9650,N,08404.9742,W,0.0000,0.000,011217,,*31
2017-12-01 17:19:54 1512166794.412230: $GPGSA,A,3,1,3,10,14,22,25,26,31,32,12,138,,2.0,0.8,1.5*03
2017-12-01 17:19:55 1512166795.730037: $GPGSV,3,1,11,01,19,277,44,03,18,316,42,10,25,156,37,14,70,030,46*7B
2017-12-01 17:19:55 1512166795.730222: $GPGSV,3,2,11,22,37,304,45,25,37,060,31,26,23,178,35,31,77,268,47*7D
2017-12-01 17:19:55 1512166795.730290: $GPGSV,3,3,11,32,57,075,46,12,09,034,32,138,38,213,40*73
2017-12-01 17:19:55 1512166795.843837: $GPZDA,221956.00,01,12,2017,00,00*6B
2017-12-01 17:19:55 1512166795.844151: $GPGGA,221956,3946.9650,N,08404.9742,W,2,11,0.80,300.87,M,-33.324,M,,*76
2017-12-01 17:19:55 1512166795.844260: $GPRMC,221956,A,3946.9650,N,08404.9742,W,0.0000,0.000,011217,,*32
2017-12-01 17:19:55 1512166795.844408: $GPGSA,A,3,1,3,10,14,22,25,26,31,32,12,138,,2.0,0.8,1.5*03
2017-12-01 17:19:56 1512166796.392392: $GPZDA,221957.00,01,12,2017,00,00*6A
2017-12-01 17:19:56 1512166796.392596: $GPGGA,221957,3946.9650,N,08404.9742,W,2,11,0.80,300.87,M,-33.324,M,,*77
2017-12-01 17:19:56 1512166796.392668: $GPRMC,221957,A,3946.9650,N,08404.9742,W,0.0000,0.000,011217,,*33
2017-12-01 17:19:56 1512166796.392732: $GPGSA,A,3,1,3,10,14,22,25,26,31,32,12,138,,2.0,0.8,1.5*03
2017-12-01 17:19:57 1512166797.392254: $GPZDA,221958.00,01,12,2017,00,00*65
2017-12-01 17:19:57 1512166797.392448: $GPGGA,221958,3946.9650,N,08404.9742,W,2,11,0.80,300.87,M,-33.324,M,,*78
2017-12-01 17:19:57 1512166797.392536: $GPRMC,221958,A,3946.9650,N,08404.9742,W,0.0000,0.000,011217,,*3C
2017-12-01 17:19:57 1512166797.392601: $GPGSA,A,3,1,3,10,14,22,25,26,31,32,12,138,,2.0,0.8,1.5*03
2017-12-01 17:19:58 1512166798.748021: $GPGSV,3,1,11,01,19,277,44,03,18,316,42,10,25,156,36,14,70,030,45*79
2017-12-01 17:19:58 1512166798.748207: $GPGSV,3,2,11,22,37,304,44,25,37,060,31,26,23,178,36,31,77,268,47*7F
2017-12-01 17:19:58 1512166798.748276: $GPGSV,3,3,11,32,57,075,46,12,09,034,32,138,38,213,38*7C
2017-12-01 17:19:58 1512166798.861764: $GPZDA,221959.00,01,12,2017,00,00*64
2017-12-01 17:19:58 1512166798.861919: $GPGGA,221959,3946.9650,N,08404.9742,W,2,11,0.80,300.87,M,-33.324,M,,*79
2017-12-01 17:19:58 1512166798.861988: $GPRMC,221959,A,3946.9650,N,08404.9742,W,0.0000,0.000,011217,,*3D
2017-12-01 17:19:58 1512166798.862052: $GPGSA,A,3,1,3,10,14,22,25,26,31,32,12,138,,2.0,0.8,1.5*03
2017-12-01 17:19:59 1512166799.393543: $GPZDA,222000.00,01,12,2017,00,00*62
2017-12-01 17:19:59 1512166799.393734: $GPGGA,222000,3946.9650,N,08404.9742,W,2,11,0.80,300.87,M,-33.324,M,,*7F
2017-12-01 17:19:59 1512166799.393805: $GPRMC,222000,A,3946.9650,N,08404.9742,W,0.0000,0.000,011217,,*3B
2017-12-01 17:19:59 1512166799.393869: $GPGSA,A,3,1,3,10,14,22,25,26,31,32,12,138,,2.0,0.8,1.5*03
2017-12-01 17:20:00 1512166800.413076: $GPZDA,222001.00,01,12,2017,00,00*63
2017-12-01 17:20:00 1512166800.413255: $GPGGA,222001,3946.9650,N,08404.9742,W,2,11,0.80,300.87,M,-33.324,M,,*7E
2017-12-01 17:20:00 1512166800.413347: $GPRMC,222001,A,3946.9650,N,08404.9742,W,0.0000,0.000,011217,,*3A
2017-12-01 17:20:00 1512166800.413413: $GPGSA,A,3,1,3,10,14,22,25,26,31,32,12,138,,2.0,0.8,1.5*03
2017-12-01 17:20:01 1512166801.748780: $GPGSV,3,1,11,01,19,277,44,03,18,316,42,10,25,156,37,14,70,030,45*78
2017-12-01 17:20:01 1512166801.749029: $GPGSV,3,2,11,22,37,304,43,25,37,060,31,26,23,178,36,31,77,268,48*77
2017-12-01 17:20:01 1512166801.749099: $GPGSV,3,3,11,32,57,075,46,12,09,034,32,138,38,213,40*73
2017-12-01 17:20:01 1512166801.862718: $GPZDA,222002.00,01,12,2017,00,00*60
2017-12-01 17:20:01 1512166801.862886: $GPGGA,222002,3946.9650,N,08404.9742,W,2,11,0.80,300.87,M,-33.324,M,,*7D
2017-12-01 17:20:01 1512166801.862954: $GPRMC,222002,A,3946.9650,N,08404.9742,W,0.0000,0.000,011217,,*39
2017-12-01 17:20:01 1512166801.863014: $GPGSA,A,3,1,3,10,14,22,25,26,31,32,12,138,,2.0,0.8,1.5*03
2017-12-01 17:20:02 1512166802.487573: $GPZDA,222003.00,01,12,2017,00,00*61
2017-12-01 17:20:02 1512166802.487743: $GPGGA,222003,3946.9650,N,08404.9742,W,2,11,0.80,300.87,M,-33.324,M,,*7C
2017-12-01 17:20:02 1512166802.487810: $GPRMC,222003,A,3946.9650,N,08404.9742,W,0.0000,0.000,011217,,*38
2017-12-01 17:20:02 1512166802.487871: $GPGSA,A,3,1,3,10,14,22,25,26,31,32,12,138,,2.0,0.8,1.5*03
2017-12-01 17:20:03 1512166803.393817: $GPZDA,222004.00,01,12,2017,00,00*66
2017-12-01 17:20:03 1512166803.394130: $GPGGA,222004,3946.9650,N,08404.9742,W,2,11,0.80,300.87,M,-33.324,M,,*7B
2017-12-01 17:20:03 1512166803.394277: $GPRMC,222004,A,3946.9650,N,08404.9742,W,0.0000,0.000,011217,,*3F
2017-12-01 17:20:03 1512166803.394408: $GPGSA,A,3,1,3,10,14,22,25,26,31,32,12,138,,2.0,0.8,1.5*03
2017-12-01 17:20:04 1512166804.749139: $GPGSV,3,1,11,01,19,277,44,03,18,316,42,10,25,156,37,14,70,030,45*78
2017-12-01 17:20:04 1512166804.749337: $GPGSV,3,2,11,22,37,304,44,25,37,060,31,26,23,178,37,31,77,268,47*7E
2017-12-01 17:20:04 1512166804.749406: $GPGSV,3,3,11,32,57,075,46,12,09,034,31,138,38,213,41*71
2017-12-01 17:20:04 1512166804.862725: $GPZDA,222005.00,01,12,2017,00,00*67
2017-12-01 17:20:04 1512166804.862895: $GPGGA,222005,3946.9650,N,08404.9742,W,2,11,0.80,300.87,M,-33.324,M,,*7A
2017-12-01 17:20:04 1512166804.862962: $GPRMC,222005,A,3946.9650,N,08404.9742,W,0.0000,0.000,011217,,*3E
2017-12-01 17:20:04 1512166804.863022: $GPGSA,A,3,1,3,10,14,22,25,26,31,32,12,138,,2.0,0.8,1.5*03
2017-12-01 17:20:05 1512166805.412662: $GPZDA,222006.00,01,12,2017,00,00*64
2017-12-01 17:20:05 1512166805.412835: $GPGGA,222006,3946.9650,N,08404.9742,W,2,11,0.80,300.87,M,-33.324,M,,*79
2017-12-01 17:20:05 1512166805.412902: $GPRMC,222006,A,3946.9650,N,08404.9742,W,0.0000,0.000,011217,,*3D
2017-12-01 17:20:05 1512166805.412963: $GPGSA,A,3,1,3,10,14,22,25,26,31,32,12,138,,2.0,0.8,1.5*03
