2017-12-01 16:02:50 1512162170.876785: {"class":"VERSION","release":"3.16","rev":"3.16-4","proto_major":3,"proto_minor":11}
2017-12-01 16:02:50 1512162170.877196: {"class":"DEVICES","devices":[{"class":"DEVICE","path":"/dev/ttyUSB0","driver":"SiRF","subtype":"9\u0006GSD4e_4.1.2-P1_RPATCH.05-F-GPS-4R-1510281 11/03/2015 307","activated":"2017-12-01T21:02:50.568Z","flags":1,"native":1,"bps":4800,"parity":"N","stopbits":1,"cycle":1.00}]}
2017-12-01 16:02:50 1512162170.877319: {"class":"WATCH","enable":true,"json":false,"nmea":true,"raw":0,"scaled":false,"timing":false,"split24":false,"pps":false}
2017-12-01 16:02:51 1512162171.425834: $GPZDA,210252.00,01,12,2017,00,00*66
2017-12-01 16:02:51 1512162171.426017: $GPGGA,210252,3946.9572,N,08404.9839,W,2,12,0.80,311.89,M,-33.324,M,,*76
2017-12-01 16:02:51 1512162171.426085: $GPRMC,210252,A,3946.9572,N,08404.9839,W,0.0000,0.000,011217,,*3F
2017-12-01 16:02:51 1512162171.426148: $GPGSA,A,3,1,10,11,12,14,18,25,31,32,22,24,138,2.0,0.8,1.5*3B
2017-12-01 16:02:52 1512162172.762442: $GPGSV,3,1,12,01,18,312,38,10,61,139,48,11,10,294,33,12,25,063,43*72
2017-12-01 16:02:52 1512162172.762627: $GPGSV,3,2,12,14,59,303,45,18,30,139,42,25,34,106,48,31,43,216,47*7C
2017-12-01 16:02:52 1512162172.762694: $GPGSV,3,3,12,32,70,351,48,22,09,312,33,24,07,046,27,138,38,213,46*4B
2017-12-01 16:02:52 1512162172.875760: $GPZDA,210253.00,01,12,2017,00,00*67
2017-12-01 16:02:52 1512162172.875958: $GPGGA,210253,3946.9572,N,08404.9833,W,2,12,0.80,311.97,M,-33.324,M,,*72
2017-12-01 16:02:52 1512162172.876043: $GPRMC,210253,A,3946.9572,N,08404.9833,W,0.0000,0.000,011217,,*34
2017-12-01 16:02:52 1512162172.876125: $GPGSA,A,3,1,10,11,12,14,18,25,31,32,22,24,138,2.0,0.8,1.5*3B
2017-12-01 16:02:53 1512162173.426633: $GPZDA,210254.00,01,12,2017,00,00*60
2017-12-01 16:02:53 1512162173.426794: $GPGGA,210254,3946.9572,N,08404.9833,W,2,12,0.80,311.97,M,-33.324,M,,*75
2017-12-01 16:02:53 1512162173.426885: $GPRMC,210254,A,3946.9572,N,08404.9833,W,0.0000,0.000,011217,,*33
2017-12-01 16:02:53 1512162173.426949: $GPGSA,A,3,1,10,11,12,14,18,25,31,32,22,24,138,2.0,0.8,1.5*3B
2017-12-01 16:02:54 1512162174.422610: $GPZDA,210255.00,01,12,2017,00,00*61
2017-12-01 16:02:54 1512162174.422786: $GPGGA,210255,3946.9572,N,08404.9833,W,2,12,0.80,311.97,M,-33.324,M,,*74
2017-12-01 16:02:54 1512162174.422873: $GPRMC,210255,A,3946.9572,N,08404.9833,W,0.0000,0.000,011217,,*32
2017-12-01 16:02:54 1512162174.422936: $GPGSA,A,3,1,10,11,12,14,18,25,31,32,22,24,138,2.0,0.8,1.5*3B
2017-12-01 16:02:55 1512162175.778583: $GPGSV,3,1,12,01,18,312,36,10,61,139,48,11,10,294,33,12,25,063,43*7C
2017-12-01 16:02:55 1512162175.778801: $GPGSV,3,2,12,14,59,303,44,18,30,139,42,25,34,106,48,31,43,216,47*7D
2017-12-01 16:02:55 1512162175.778901: $GPGSV,3,3,12,32,70,351,47,22,09,312,00,24,07,046,27,138,38,213,45*47
2017-12-01 16:02:55 1512162175.891710: $GPZDA,210256.00,01,12,2017,00,00*62
2017-12-01 16:02:55 1512162175.891920: $GPGGA,210256,3946.9572,N,08404.9833,W,2,11,0.80,311.97,M,-33.324,M,,*74
2017-12-01 16:02:55 1512162175.892005: $GPRMC,210256,A,3946.9572,N,08404.9833,W,0.0000,0.000,011217,,*31
2017-12-01 16:02:55 1512162175.892068: $GPGSA,A,3,1,10,11,12,14,18,25,31,32,24,138,,2.0,0.8,1.5*3B
2017-12-01 16:02:56 1512162176.447498: $GPZDA,210257.00,01,12,2017,00,00*63
2017-12-01 16:02:56 1512162176.447673: $GPGGA,210257,3946.9572,N,08404.9833,W,2,11,0.80,311.97,M,-33.324,M,,*75
2017-12-01 16:02:56 1512162176.447740: $GPRMC,210257,A,3946.9572,N,08404.9833,W,0.0000,0.000,011217,,*30
2017-12-01 16:02:56 1512162176.447802: $GPGSA,A,3,1,10,11,12,14,18,25,31,32,24,138,,2.0,0.8,1.5*3B
2017-12-01 16:02:57 1512162177.442882: $GPZDA,210258.00,01,12,2017,00,00*6C
2017-12-01 16:02:57 1512162177.443080: $GPGGA,210258,3946.9568,N,08404.9833,W,2,11,0.80,312.73,M,-33.324,M,,*78
2017-12-01 16:02:57 1512162177.443147: $GPRMC,210258,A,3946.9568,N,08404.9833,W,0.0000,0.000,011217,,*34
2017-12-01 16:02:57 1512162177.443209: $GPGSA,A,3,1,10,11,12,14,18,25,31,32,24,138,,2.0,0.8,1.5*3B
2017-12-01 16:02:58 1512162178.778577: $GPGSV,3,1,12,01,18,312,35,10,61,139,48,11,10,294,32,12,25,063,43*7E
2017-12-01 16:02:58 1512162178.778811: $GPGSV,3,2,12,14,59,303,44,18,30,139,42,25,34,106,47,31,43,216,48*7D
2017-12-01 16:02:58 1512162178.778907: $GPGSV,3,3,12,32,70,351,47,22,09,312,33,24,07,046,27,138,38,213,46*44
2017-12-01 16:02:58 1512162178.892412: $GPZDA,210259.00,01,12,2017,00,00*6D
2017-12-01 16:02:58 1512162178.892692: $GPGGA,210259,3946.9568,N,08404.9833,W,2,12,0.80,312.73,M,-33.324,M,,*7A
2017-12-01 16:02:58 1512162178.892763: $GPRMC,210259,A,3946.9568,N,08404.9833,W,0.0000,0.000,011217,,*35
2017-12-01 16:02:58 1512162178.892826: $GPGSA,A,3,1,10,11,12,14,18,25,31,32,22,24,138,2.0,0.8,1.5*3B
2017-12-01 16:02:59 1512162179.442090: $GPZDA,210300.00,01,12,2017,00,00*60
2017-12-01 16:02:59 1512162179.442247: $GPGGA,210300,3946.9568,N,08404.9833,W,2,12,0.80,312.73,M,-33.324,M,,*77
2017-12-01 16:02:59 1512162179.442315: $GPRMC,210300,A,3946.9568,N,08404.9833,W,0.0000,0.000,011217,,*38
2017-12-01 16:02:59 1512162179.442377: $GPGSA,A,3,1,10,11,12,14,18,25,31,32,22,24,138,2.0,0.8,1.5*3B
2017-12-01 16:03:00 1512162180.422757: $GPZDA,210301.00,01,12,2017,00,00*61
2017-12-01 16:03:00 1512162180.422951: $GPGGA,210301,3946.9572,N,08404.9833,W,2,12,0.80,311.97,M,-33.324,M,,*74
2017-12-01 16:03:00 1512162180.423055: $GPRMC,210301,A,3946.9572,N,08404.9833,W,0.0000,0.000,011217,,*32
2017-12-01 16:03:00 1512162180.423119: $GPGSA,A,3,1,10,11,12,14,18,25,31,32,22,24,138,2.0,0.8,1.5*3B
2017-12-01 16:03:01 1512162181.763191: $GPGSV,3,1,12,01,18,312,35,10,61,139,48,11,10,294,32,12,25,063,44*79
2017-12-01 16:03:01 1512162181.763349: $GPGSV,3,2,12,14,59,303,45,18,30,139,42,25,34,106,48,31,43,216,47*7C
2017-12-01 16:03:01 1512162181.763415: $GPGSV,3,3,12,32,70,351,47,22,09,312,32,24,07,046,27,138,38,213,45*46
2017-12-01 16:03:01 1512162181.876548: $GPZDA,210302.00,01,12,2017,00,00*62
2017-12-01 16:03:01 1512162181.876756: $GPGGA,210302,3946.9568,N,08404.9833,W,2,12,0.80,312.73,M,-33.324,M,,*75
2017-12-01 16:03:01 1512162181.876845: $GPRMC,210302,A,3946.9568,N,08404.9833,W,0.0000,0.000,011217,,*3A
2017-12-01 16:03:01 1512162181.876909: $GPGSA,A,3,1,10,11,12,14,18,25,31,32,22,24,138,2.0,0.8,1.5*3B
2017-12-01 16:03:02 1512162182.501993: $GPZDA,210303.00,01,12,2017,00,00*63
2017-12-01 16:03:02 1512162182.502169: $GPGGA,210303,3946.9568,N,08404.9833,W,2,12,0.80,312.73,M,-33.324,M,,*74
2017-12-01 16:03:02 1512162182.502238: $GPRMC,210303,A,3946.9568,N,08404.9833,W,0.0000,0.000,011217,,*3B
2017-12-01 16:03:02 1512162182.502300: $GPGSA,A,3,1,10,11,12,14,18,25,31,32,22,24,138,2.0,0.8,1.5*3B
2017-12-01 16:03:03 1512162183.443491: $GPZDA,210304.00,01,12,2017,00,00*64
2017-12-01 16:03:03 1512162183.443685: $GPGGA,210304,3946.9568,N,08404.9833,W,2,12,0.80,312.73,M,-33.324,M,,*73
2017-12-01 16:03:03 1512162183.443780: $GPRMC,210304,A,3946.9568,N,08404.9833,W,0.0000,0.000,011217,,*3C
2017-12-01 16:03:03 1512162183.443911: $GPGSA,A,3,1,10,11,12,14,18,25,31,32,22,24,138,2.0,0.8,1.5*3B
2017-12-01 16:03:04 1512162184.762297: $GPGSV,3,1,12,01,18,312,34,10,61,139,48,11,10,294,32,12,25,063,43*7F
2017-12-01 16:03:04 1512162184.762481: $GPGSV,3,2,12,14,59,303,45,18,30,139,42,25,34,106,48,31,43,216,48*73
2017-12-01 16:03:04 1512162184.762548: $GPGSV,3,3,12,32,70,351,47,22,09,312,30,24,07,046,27,138,38,213,46*47
2017-12-01 16:03:04 1512162184.876063: $GPZDA,210305.00,01,12,2017,00,00*65
2017-12-01 16:03:04 1512162184.876231: $GPGGA,210305,3946.9568,N,08404.9833,W,2,12,0.80,312.73,M,-33.324,M,,*72
2017-12-01 16:03:04 1512162184.876299: $GPRMC,210305,A,3946.9568,N,08404.9833,W,0.0000,0.000,011217,,*3D
2017-12-01 16:03:04 1512162184.876360: $GPGSA,A,3,1,10,11,12,14,18,25,31,32,22,24,138,2.0,0.8,1.5*3B
2017-12-01 16:03:05 1512162185.442872: $GPZDA,210306.00,01,12,2017,00,00*66
2017-12-01 16:03:05 1512162185.443061: $GPGGA,210306,3946.9568,N,08404.9833,W,2,12,0.80,312.73,M,-33.324,M,,*71
2017-12-01 16:03:05 1512162185.443132: $GPRMC,210306,A,3946.9568,N,08404.9833,W,0.0000,0.000,011217,,*3E
2017-12-01 16:03:05 1512162185.443194: $GPGSA,A,3,1,10,11,12,14,18,25,31,32,22,24,138,2.0,0.8,1.5*3B
2017-12-01 16:03:06 1512162186.445288: $GPZDA,210307.00,01,12,2017,00,00*67
2017-12-01 16:03:06 1512162186.445444: $GPGGA,210307,3946.9568,N,08404.9833,W,2,12,0.80,312.73,M,-33.324,M,,*70
2017-12-01 16:03:06 1512162186.445511: $GPRMC,210307,A,3946.9568,N,08404.9833,W,0.0000,0.000,011217,,*3F
2017-12-01 16:03:06 1512162186.445573: $GPGSA,A,3,1,10,11,12,14,18,25,31,32,22,24,138,2.0,0.8,1.5*3B
2017-12-01 16:03:07 1512162187.778983: $GPGSV,3,1,12,01,18,312,34,10,61,139,48,11,10,294,32,12,25,063,42*7E
2017-12-01 16:03:07 1512162187.779161: $GPGSV,3,2,12,14,59,303,45,18,30,139,42,25,34,106,48,31,43,216,48*73
2017-12-01 16:03:07 1512162187.779228: $GPGSV,3,3,12,32,70,351,47,22,09,312,34,24,07,046,26,138,38,213,46*42
2017-12-01 16:03:07 1512162187.892624: $GPZDA,210308.00,01,12,2017,00,00*68
2017-12-01 16:03:07 1512162187.892796: $GPGGA,210308,3946.9568,N,08404.9833,W,2,12,0.80,312.73,M,-33.324,M,,*7F
2017-12-01 16:03:07 1512162187.892868: $GPRMC,210308,A,3946.9568,N,08404.9833,W,0.0000,0.000,011217,,*30
2017-12-01 16:03:07 1512162187.892931: $GPGSA,A,3,1,10,11,12,14,18,25,31,32,22,24,138,2.0,0.8,1.5*3B
2017-12-01 16:03:08 1512162188.422243: $GPZDA,210309.00,01,12,2017,00,00*69
2017-12-01 16:03:08 1512162188.422417: $GPGGA,210309,3946.9568,N,08404.9833,W,2,12,0.80,312.73,M,-33.324,M,,*7E
2017-12-01 16:03:08 1512162188.422486: $GPRMC,210309,A,3946.9568,N,08404.9833,W,0.0000,0.000,011217,,*31
2017-12-01 16:03:08 1512162188.422549: $GPGSA,A,3,1,10,11,12,14,18,25,31,32,22,24,138,2.0,0.8,1.5*3B
2017-12-01 16:03:09 1512162189.443184: $GPZDA,210310.00,01,12,2017,00,00*61
2017-12-01 16:03:09 1512162189.443357: $GPGGA,210310,3946.9568,N,08404.9833,W,2,12,0.80,312.73,M,-33.324,M,,*76
2017-12-01 16:03:09 1512162189.443427: $GPRMC,210310,A,3946.9568,N,08404.9833,W,0.0000,0.000,011217,,*39
2017-12-01 16:03:09 1512162189.443489: $GPGSA,A,3,1,10,11,12,14,18,25,31,32,22,24,138,2.0,0.8,1.5*3B
2017-12-01 16:03:10 1512162190.779763: $GPGSV,3,1,12,01,18,312,34,10,61,139,48,11,10,294,33,12,25,063,42*7F
2017-12-01 16:03:10 1512162190.779954: $GPGSV,3,2,12,14,59,303,45,18,30,139,42,25,34,106,48,31,43,216,48*73
2017-12-01 16:03:10 1512162190.780022: $GPGSV,3,3,12,32,70,351,47,22,09,312,34,24,07,046,27,138,38,213,45*40
