2017-11-15 18:33:14 1510788794.252391: {"class":"VERSION","release":"3.17","rev":"3.17","proto_major":3,"proto_minor":12}
2017-11-15 18:33:14 1510788794.252829: {"class":"DEVICES","devices":[{"class":"DEVICE","path":"/dev/ttyUSB0","driver":"SiRF","subtype":"9\u0006GSD4e_4.1.2-P1_RPATCH.05-F-GPS-4R-1510281 11/03/2015 307","activated":"2017-11-15T23:33:14.248Z","flags":1,"native":1,"bps":4800,"parity":"N","stopbits":1,"cycle":1.00}]}
2017-11-15 18:33:14 1510788794.252943: {"class":"WATCH","enable":true,"json":false,"nmea":true,"raw":0,"scaled":false,"timing":false,"split24":false,"pps":false}
2017-11-15 18:33:14 1510788794.361895: $GPZDA,233313.00,15,11,2017,00,00*65
2017-11-15 18:33:14 1510788794.362050: $GPGGA,233313,3946.9523,N,08404.9602,W,1,07,1.20,294.58,M,-33.324,M,,*7D
2017-11-15 18:33:14 1510788794.362113: $GPRMC,233313,A,3946.9523,N,08404.9602,W,0.4179,328.778,151117,,*34
2017-11-15 18:33:14 1510788794.362172: $GPGSA,A,3,25,14,22,31,32,1,10,,,,,,3.4,1.2,2.9*0C
2017-11-15 18:33:15 1510788795.697388: $GPGSV,3,1,10,25,36,057,23,14,69,037,18,22,39,303,20,26,25,178,00*79
2017-11-15 18:33:15 1510788795.697582: $GPGSV,3,2,10,31,77,276,24,32,56,078,21,01,19,276,11,10,22,156,14*7C
2017-11-15 18:33:15 1510788795.697646: $GPGSV,3,3,10,03,20,315,00,12,07,033,00*7A
2017-11-15 18:33:15 1510788795.810647: $GPZDA,233314.00,15,11,2017,00,00*62
2017-11-15 18:33:15 1510788795.810810: $GPGGA,233314,3946.9519,N,08404.9602,W,1,07,1.20,293.94,M,-33.324,M,,*74
2017-11-15 18:33:15 1510788795.810887: $GPRMC,233314,A,3946.9519,N,08404.9602,W,0.0000,0.000,151117,,*30
2017-11-15 18:33:15 1510788795.810946: $GPGSA,A,3,25,14,22,31,32,1,10,,,,,,3.4,1.2,2.9*0C
2017-11-15 18:33:16 1510788796.436042: $GPZDA,233315.00,15,11,2017,00,00*63
2017-11-15 18:33:16 1510788796.436225: $GPGGA,233315,3946.9519,N,08404.9595,W,1,07,1.20,294.02,M,-33.324,M,,*70
2017-11-15 18:33:16 1510788796.436288: $GPRMC,233315,A,3946.9519,N,08404.9595,W,0.4179,328.778,151117,,*36
2017-11-15 18:33:16 1510788796.436344: $GPGSA,A,3,25,14,22,31,32,1,10,,,,,,3.4,1.2,2.9*0C
2017-11-15 18:33:17 1510788797.328175: $GPZDA,233316.00,15,11,2017,00,00*60
2017-11-15 18:33:17 1510788797.328352: $GPGGA,233316,3946.9519,N,08404.9595,W,1,07,1.20,294.02,M,-33.324,M,,*73
2017-11-15 18:33:17 1510788797.328415: $GPRMC,233316,A,3946.9519,N,08404.9595,W,0.7278,23.636,151117,,*07
2017-11-15 18:33:17 1510788797.328491: $GPGSA,A,3,25,14,22,31,32,1,10,,,,,,3.4,1.2,2.9*0C
2017-11-15 18:33:18 1510788798.664034: $GPGSV,3,1,10,25,36,057,23,14,69,037,18,22,39,303,21,26,25,178,00*78
2017-11-15 18:33:18 1510788798.664211: $GPGSV,3,2,10,31,77,276,24,32,56,078,21,01,19,276,10,10,22,156,14*7D
2017-11-15 18:33:18 1510788798.664272: $GPGSV,3,3,10,03,20,315,00,12,07,033,00*7A
2017-11-15 18:33:18 1510788798.777490: $GPZDA,233317.00,15,11,2017,00,00*61
2017-11-15 18:33:18 1510788798.777650: $GPGGA,233317,3946.9519,N,08404.9595,W,1,07,1.20,294.02,M,-33.324,M,,*72
2017-11-15 18:33:18 1510788798.777710: $GPRMC,233317,A,3946.9519,N,08404.9595,W,0.7278,23.636,151117,,*06
2017-11-15 18:33:18 1510788798.777765: $GPGSA,A,3,25,14,22,31,32,1,10,,,,,,3.4,1.2,2.9*0C
2017-11-15 18:33:19 1510788799.328293: $GPZDA,233318.00,15,11,2017,00,00*6E
2017-11-15 18:33:19 1510788799.328453: $GPGGA,233318,3946.9519,N,08404.9588,W,1,07,1.20,294.09,M,-33.324,M,,*7A
2017-11-15 18:33:19 1510788799.328513: $GPRMC,233318,A,3946.9519,N,08404.9588,W,0.5617,31.295,151117,,*04
2017-11-15 18:33:19 1510788799.328569: $GPGSA,A,3,25,14,22,31,32,1,10,,,,,,3.4,1.2,2.9*0C
2017-11-15 18:33:20 1510788800.361550: $GPZDA,233319.00,15,11,2017,00,00*6F
2017-11-15 18:33:20 1510788800.361710: $GPGGA,233319,3946.9519,N,08404.9588,W,1,07,1.20,294.09,M,-33.324,M,,*7B
2017-11-15 18:33:20 1510788800.361772: $GPRMC,233319,A,3946.9519,N,08404.9588,W,0.3423,4.197,151117,,*31
2017-11-15 18:33:20 1510788800.361828: $GPGSA,A,3,25,14,22,31,32,1,10,,,,,,3.4,1.2,2.9*0C
2017-11-15 18:33:21 1510788801.665641: $GPGSV,3,1,10,25,36,057,23,14,69,037,19,22,39,303,21,26,25,178,02*7B
2017-11-15 18:33:21 1510788801.665809: $GPGSV,3,2,10,31,77,276,23,32,56,078,22,01,19,276,10,10,22,156,14*79
2017-11-15 18:33:21 1510788801.665918: $GPGSV,3,3,10,03,20,315,00,12,07,033,00*7A
2017-11-15 18:33:21 1510788801.778970: $GPZDA,233320.00,15,11,2017,00,00*65
2017-11-15 18:33:21 1510788801.779177: $GPGGA,233320,3946.9519,N,08404.9588,W,1,07,1.20,294.09,M,-33.324,M,,*71
2017-11-15 18:33:21 1510788801.779239: $GPRMC,233320,A,3946.9519,N,08404.9588,W,0.4207,39.347,151117,,*0D
2017-11-15 18:33:21 1510788801.779296: $GPGSA,A,3,25,14,22,31,32,1,10,,,,,,3.4,1.2,2.9*0C
2017-11-15 18:33:22 1510788802.328558: $GPZDA,233321.00,15,11,2017,00,00*64
2017-11-15 18:33:22 1510788802.328718: $GPGGA,233321,3946.9522,N,08404.9587,W,1,07,1.20,293.33,M,-33.324,M,,*79
2017-11-15 18:33:22 1510788802.328779: $GPRMC,233321,A,3946.9522,N,08404.9587,W,0.5951,58.684,151117,,*0F
2017-11-15 18:33:22 1510788802.328835: $GPGSA,A,3,25,14,22,31,32,1,10,,,,,,3.4,1.2,2.9*0C
2017-11-15 18:33:23 1510788803.329510: $GPZDA,233322.00,15,11,2017,00,00*67
2017-11-15 18:33:23 1510788803.329671: $GPGGA,233322,3946.9518,N,08404.9581,W,1,07,1.20,294.17,M,-33.324,M,,*74
2017-11-15 18:33:23 1510788803.329733: $GPRMC,233322,A,3946.9518,N,08404.9581,W,0.5912,129.172,151117,,*3D
2017-11-15 18:33:23 1510788803.329789: $GPGSA,A,3,25,14,22,31,32,1,10,,,,,,3.4,1.2,2.9*0C
2017-11-15 18:33:24 1510788804.698946: $GPGSV,3,1,10,25,36,057,23,14,69,037,19,22,39,303,21,26,25,178,11*79
2017-11-15 18:33:24 1510788804.699132: $GPGSV,3,2,10,31,77,276,23,32,56,078,22,01,19,276,08,10,22,156,16*72
2017-11-15 18:33:24 1510788804.699194: $GPGSV,3,3,10,03,20,315,10,12,07,033,00*7B
2017-11-15 18:33:24 1510788804.812660: $GPZDA,233323.00,15,11,2017,00,00*66
2017-11-15 18:33:24 1510788804.812820: $GPGGA,233323,3946.9518,N,08404.9581,W,1,07,1.40,294.17,M,-33.324,M,,*73
2017-11-15 18:33:24 1510788804.812882: $GPRMC,233323,A,3946.9518,N,08404.9581,W,0.4179,148.778,151117,,*33
2017-11-15 18:33:24 1510788804.812938: $GPGSA,A,3,25,14,22,31,32,1,10,,,,,,3.4,1.4,2.9*0A
2017-11-15 18:33:25 1510788805.329751: $GPZDA,233324.00,15,11,2017,00,00*61
2017-11-15 18:33:25 1510788805.329912: $GPGGA,233324,3946.9514,N,08404.9581,W,1,07,1.40,293.53,M,-33.324,M,,*7F
2017-11-15 18:33:25 1510788805.329973: $GPRMC,233324,A,3946.9514,N,08404.9581,W,0.0000,0.000,151117,,*36
2017-11-15 18:33:25 1510788805.330031: $GPGSA,A,3,25,14,22,31,32,1,10,,,,,,3.4,1.4,2.9*0A
2017-11-15 18:33:26 1510788806.363592: $GPZDA,233325.00,15,11,2017,00,00*60
2017-11-15 18:33:26 1510788806.363761: $GPGGA,233325,3946.9514,N,08404.9581,W,1,07,3.20,293.53,M,-33.324,M,,*7A
2017-11-15 18:33:26 1510788806.363824: $GPRMC,233325,A,3946.9514,N,08404.9581,W,0.4207,219.347,151117,,*3C
2017-11-15 18:33:26 1510788806.363881: $GPGSA,A,3,25,14,22,31,32,1,10,,,,,,3.4,3.2,2.9*0E
2017-11-15 18:33:27 1510788807.664294: $GPGSV,3,1,10,25,36,057,23,14,69,037,19,22,39,303,19,26,25,178,00*72
2017-11-15 18:33:27 1510788807.664484: $GPGSV,3,2,10,31,77,276,23,32,56,078,23,01,19,276,06,10,22,156,16*7D
2017-11-15 18:33:27 1510788807.664545: $GPGSV,3,3,10,03,20,315,10,12,07,033,00*7B
2017-11-15 18:33:27 1510788807.777936: $GPZDA,233326.00,15,11,2017,00,00*63
2017-11-15 18:33:27 1510788807.778086: $GPGGA,233326,3946.9514,N,08404.9581,W,1,07,1.40,293.53,M,-33.324,M,,*7D
2017-11-15 18:33:27 1510788807.778150: $GPRMC,233326,A,3946.9514,N,08404.9581,W,0.3155,129.994,151117,,*38
2017-11-15 18:33:27 1510788807.778205: $GPGSA,A,3,25,14,22,31,32,1,10,,,,,,3.4,1.4,2.9*0A
2017-11-15 18:33:28 1510788808.362514: $GPZDA,233327.00,15,11,2017,00,00*62
2017-11-15 18:33:28 1510788808.362673: $GPGGA,233327,3946.9514,N,08404.9581,W,1,07,1.20,293.53,M,-33.324,M,,*7A
2017-11-15 18:33:28 1510788808.362735: $GPRMC,233327,A,3946.9514,N,08404.9581,W,0.4844,93.794,151117,,*09
2017-11-15 18:33:28 1510788808.362791: $GPGSA,A,3,25,14,22,31,32,1,10,,,,,,3.4,1.2,2.9*0C
