2017-12-29 11:19:06 1514564346.978340: {"class":"VERSION","release":"3.16","rev":"3.16-4","proto_major":3,"proto_minor":11}
2017-12-29 11:19:06 1514564346.978660: {"class":"DEVICES","devices":[{"class":"DEVICE","path":"/dev/ttyUSB0","driver":"SiRF","subtype":"9\u0006GSD4e_4.1.2-P1_RPATCH.05-F-GPS-4R-1510281 11/03/2015 307","activated":"2017-12-29T16:19:06.915Z","flags":1,"native":1,"bps":4800,"parity":"N","stopbits":1,"cycle":1.00}]}
2017-12-29 11:19:06 1514564346.978771: {"class":"WATCH","enable":true,"json":false,"nmea":true,"raw":0,"scaled":false,"timing":false,"split24":false,"pps":false}
2017-12-29 11:19:07 1514564347.886316: $GPZDA,161908.54,29,12,2017,00,00*6C
2017-12-29 11:19:07 1514564347.886488: $GPGGA,161908,3946.9513,N,08404.9848,W,1,10,1.00,331.34,M,-33.324,M,,*7A
2017-12-29 11:19:07 1514564347.886555: $GPRMC,161908,A,3946.9513,N,08404.9848,W,0.1628,322.014,291217,,*3E
2017-12-29 11:19:07 1514564347.886617: $GPGSA,A,3,8,10,15,18,20,21,24,27,32,138,,,1.7,1.0,1.3*3A
2017-12-29 11:19:07 1514564347.886675: $GPGBS,161908,10.91,M,10.38,M,30.89,M*08
2017-12-29 11:19:08 1514564348.967542: $GPZDA,161909.23,29,12,2017,00,00*6D
2017-12-29 11:19:08 1514564348.967709: $GPGGA,161909,3946.9506,N,08404.9860,W,1,10,1.00,339.17,M,-33.324,M,,*7C
2017-12-29 11:19:08 1514564348.967776: $GPRMC,161909,A,3946.9506,N,08404.9860,W,0.0407,142.014,291217,,*3B
2017-12-29 11:19:08 1514564348.967837: $GPGSA,A,3,8,10,15,18,20,21,24,27,32,138,,,1.7,1.0,1.3*3A
2017-12-29 11:19:10 1514564350.110071: $GPGSV,3,1,12,08,06,322,37,10,42,301,45,15,36,052,47,18,72,340,42*7D
2017-12-29 11:19:10 1514564350.110246: $GPGSV,3,2,12,20,34,096,49,21,62,189,44,24,51,108,48,27,19,288,37*77
2017-12-29 11:19:10 1514564350.110311: $GPGSV,3,3,12,32,22,238,38,13,07,049,00,14,04,232,00,138,38,213,33*42
2017-12-29 11:19:10 1514564350.223905: $GPZDA,161910.00,29,12,2017,00,00*64
2017-12-29 11:19:10 1514564350.224036: $GPGGA,161910,3946.9506,N,08404.9860,W,1,10,1.00,339.17,M,-33.324,M,,*74
2017-12-29 11:19:10 1514564350.224100: $GPRMC,161910,A,3946.9506,N,08404.9860,W,0.2202,173.469,291217,,*3E
2017-12-29 11:19:10 1514564350.224159: $GPGSA,A,3,8,10,15,18,20,21,24,27,32,138,,,1.7,1.0,1.3*3A
2017-12-29 11:19:10 1514564350.674641: $GPZDA,161911.00,29,12,2017,00,00*65
2017-12-29 11:19:10 1514564350.674775: $GPGGA,161911,3946.9502,N,08404.9861,W,1,10,1.00,339.94,M,-33.324,M,,*7B
2017-12-29 11:19:10 1514564350.674839: $GPRMC,161911,A,3946.9502,N,08404.9861,W,0.2967,226.893,291217,,*38
2017-12-29 11:19:10 1514564350.674898: $GPGSA,A,3,8,10,15,18,20,21,24,27,32,138,,,1.7,1.0,1.3*3A
2017-12-29 11:19:11 1514564351.380231: $GPZDA,161912.00,29,12,2017,00,00*66
2017-12-29 11:19:11 1514564351.380393: $GPGGA,161912,3946.9507,N,08404.9868,W,1,10,1.00,340.50,M,-33.324,M,,*72
2017-12-29 11:19:11 1514564351.380460: $GPRMC,161912,A,3946.9507,N,08404.9868,W,0.0407,142.015,291217,,*39
2017-12-29 11:19:11 1514564351.380521: $GPGSA,A,3,8,10,15,18,20,21,24,27,32,138,,,1.7,1.0,1.3*3A
2017-12-29 11:19:12 1514564352.715401: $GPGSV,3,1,12,08,06,322,36,10,42,301,43,15,36,052,45,18,72,340,40*7A
2017-12-29 11:19:12 1514564352.715580: $GPGSV,3,2,12,20,34,096,47,21,62,189,42,24,51,108,46,27,19,288,35*73
2017-12-29 11:19:12 1514564352.715645: $GPGSV,3,3,12,32,22,238,36,13,07,049,00,14,04,232,00,138,38,213,46*4E
2017-12-29 11:19:12 1514564352.828738: $GPZDA,161913.00,29,12,2017,00,00*67
2017-12-29 11:19:12 1514564352.828865: $GPGGA,161913,3946.9507,N,08404.9868,W,1,10,1.00,340.50,M,-33.324,M,,*73
2017-12-29 11:19:12 1514564352.828930: $GPRMC,161913,A,3946.9507,N,08404.9868,W,0.0000,0.000,291217,,*38
2017-12-29 11:19:12 1514564352.828989: $GPGSA,A,3,8,10,15,18,20,21,24,27,32,138,,,1.7,1.0,1.3*3A
2017-12-29 11:19:13 1514564353.379956: $GPZDA,161914.00,29,12,2017,00,00*60
2017-12-29 11:19:13 1514564353.380111: $GPGGA,161914,3946.9510,N,08404.9867,W,1,10,1.00,339.73,M,-33.324,M,,*72
2017-12-29 11:19:13 1514564353.380177: $GPRMC,161914,A,3946.9510,N,08404.9867,W,0.0000,0.000,291217,,*36
2017-12-29 11:19:13 1514564353.380236: $GPGSA,A,3,8,10,15,18,20,21,24,27,32,138,,,1.7,1.0,1.3*3A
2017-12-29 11:19:14 1514564354.384431: $GPZDA,161915.00,29,12,2017,00,00*61
2017-12-29 11:19:14 1514564354.384595: $GPGGA,161915,3946.9515,N,08404.9874,W,1,10,1.00,340.29,M,-33.324,M,,*75
2017-12-29 11:19:14 1514564354.384660: $GPRMC,161915,A,3946.9515,N,08404.9874,W,0.0000,0.000,291217,,*30
2017-12-29 11:19:14 1514564354.384720: $GPGSA,A,3,8,10,15,18,20,21,24,27,32,138,,,1.7,1.0,1.3*3A
2017-12-29 11:19:14 1514564354.384778: $GPGBS,161915,10.91,M,10.38,M,30.89,M*04
2017-12-29 11:19:15 1514564355.717367: $GPGSV,3,1,12,08,06,322,36,10,42,301,43,15,36,052,45,18,72,340,40*7A
2017-12-29 11:19:15 1514564355.717533: $GPGSV,3,2,12,20,34,096,47,21,62,189,42,24,51,108,46,27,19,288,36*70
2017-12-29 11:19:15 1514564355.717599: $GPGSV,3,3,12,32,22,238,36,13,07,049,00,14,04,232,00,138,38,213,46*4E
2017-12-29 11:19:15 1514564355.829749: $GPZDA,161916.00,29,12,2017,00,00*62
2017-12-29 11:19:15 1514564355.829867: $GPGGA,161916,3946.9518,N,08404.9874,W,1,10,1.00,339.53,M,-33.324,M,,*78
2017-12-29 11:19:15 1514564355.829929: $GPRMC,161916,A,3946.9518,N,08404.9874,W,0.0000,0.000,291217,,*3E
2017-12-29 11:19:15 1514564355.829988: $GPGSA,A,3,8,10,15,18,20,21,24,27,32,138,,,1.7,1.0,1.3*3A
2017-12-29 11:19:16 1514564356.381951: $GPZDA,161917.00,29,12,2017,00,00*63
2017-12-29 11:19:16 1514564356.382111: $GPGGA,161917,3946.9521,N,08404.9866,W,1,10,1.00,338.85,M,-33.324,M,,*7A
2017-12-29 11:19:16 1514564356.382177: $GPRMC,161917,A,3946.9521,N,08404.9866,W,0.1567,9.200,291217,,*38
2017-12-29 11:19:16 1514564356.382238: $GPGSA,A,3,8,10,15,18,20,21,24,27,32,138,,,1.7,1.0,1.3*3A
2017-12-29 11:19:17 1514564357.379766: $GPZDA,161918.00,29,12,2017,00,00*6C
2017-12-29 11:19:17 1514564357.379931: $GPGGA,161918,3946.9525,N,08404.9865,W,1,10,1.00,338.08,M,-33.324,M,,*77
2017-12-29 11:19:17 1514564357.379996: $GPRMC,161918,A,3946.9525,N,08404.9865,W,0.0000,0.000,291217,,*3E
2017-12-29 11:19:17 1514564357.380056: $GPGSA,A,3,8,10,15,18,20,21,24,27,32,138,,,1.7,1.0,1.3*3A
2017-12-29 11:19:18 1514564358.717747: $GPGSV,3,1,12,08,06,322,35,10,42,301,42,15,36,052,45,18,72,340,41*79
2017-12-29 11:19:18 1514564358.717914: $GPGSV,3,2,12,20,34,096,47,21,62,189,42,24,51,108,46,27,19,288,36*70
2017-12-29 11:19:18 1514564358.717979: $GPGSV,3,3,12,32,22,238,36,13,07,049,00,14,04,232,00,138,38,213,45*4D
2017-12-29 11:19:18 1514564358.831416: $GPZDA,161919.00,29,12,2017,00,00*6D
2017-12-29 11:19:18 1514564358.831545: $GPGGA,161919,3946.9528,N,08404.9865,W,1,10,1.00,337.32,M,-33.324,M,,*7D
2017-12-29 11:19:18 1514564358.831607: $GPRMC,161919,A,3946.9528,N,08404.9865,W,0.0000,0.000,291217,,*32
2017-12-29 11:19:18 1514564358.831666: $GPGSA,A,3,8,10,15,18,20,21,24,27,32,138,,,1.7,1.0,1.3*3A
2017-12-29 11:19:19 1514564359.384767: $GPZDA,161920.00,29,12,2017,00,00*67
2017-12-29 11:19:19 1514564359.384933: $GPGGA,161920,3946.9569,N,08404.9849,W,2,10,1.40,328.22,M,-33.324,M,,*74
2017-12-29 11:19:19 1514564359.384998: $GPRMC,161920,A,3946.9569,N,08404.9849,W,0.0000,0.000,291217,,*33
2017-12-29 11:19:19 1514564359.385058: $GPGSA,A,3,8,10,15,18,20,21,24,27,32,138,,,1.7,1.4,1.3*3E
2017-12-29 11:19:20 1514564360.384393: $GPZDA,161921.00,29,12,2017,00,00*66
2017-12-29 11:19:20 1514564360.384560: $GPGGA,161921,3946.9569,N,08404.9849,W,2,10,1.00,328.22,M,-33.324,M,,*71
2017-12-29 11:19:20 1514564360.384625: $GPRMC,161921,A,3946.9569,N,08404.9849,W,0.0000,0.000,291217,,*32
2017-12-29 11:19:20 1514564360.384685: $GPGSA,A,3,8,10,15,18,20,21,24,27,32,138,,,1.7,1.0,1.3*3A
2017-12-29 11:19:21 1514564361.721151: $GPGSV,3,1,12,08,06,322,35,10,42,301,42,15,36,052,44,18,72,340,40*79
2017-12-29 11:19:21 1514564361.721313: $GPGSV,3,2,12,20,34,096,47,21,62,189,42,24,51,108,46,27,19,288,35*73
2017-12-29 11:19:21 1514564361.721379: $GPGSV,3,3,12,32,22,238,35,13,07,049,22,14,04,232,00,138,38,213,44*4F
2017-12-29 11:19:21 1514564361.834530: $GPZDA,161922.00,29,12,2017,00,00*65
2017-12-29 11:19:21 1514564361.834655: $GPGGA,161922,3946.9569,N,08404.9849,W,2,10,1.00,328.22,M,-33.324,M,,*72
2017-12-29 11:19:21 1514564361.834719: $GPRMC,161922,A,3946.9569,N,08404.9849,W,0.0000,0.000,291217,,*31
2017-12-29 11:19:21 1514564361.834832: $GPGSA,A,3,8,10,15,18,20,21,24,27,32,138,,,1.7,1.0,1.3*3A
2017-12-29 11:19:22 1514564362.460187: $GPZDA,161923.00,29,12,2017,00,00*64
2017-12-29 11:19:22 1514564362.460351: $GPGGA,161923,3946.9569,N,08404.9849,W,2,10,1.00,328.22,M,-33.324,M,,*73
2017-12-29 11:19:22 1514564362.460416: $GPRMC,161923,A,3946.9569,N,08404.9849,W,0.0000,0.000,291217,,*30
2017-12-29 11:19:22 1514564362.460476: $GPGSA,A,3,8,10,15,18,20,21,24,27,32,138,,,1.7,1.0,1.3*3A
2017-12-29 11:19:23 1514564363.385999: $GPZDA,161924.00,29,12,2017,00,00*63
2017-12-29 11:19:23 1514564363.386159: $GPGGA,161924,3946.9569,N,08404.9849,W,2,10,1.00,328.22,M,-33.324,M,,*74
2017-12-29 11:19:23 1514564363.386224: $GPRMC,161924,A,3946.9569,N,08404.9849,W,0.0000,0.000,291217,,*37
2017-12-29 11:19:23 1514564363.386284: $GPGSA,A,3,8,10,15,18,20,21,24,27,32,138,,,1.7,1.0,1.3*3A
2017-12-29 11:19:24 1514564364.720212: $GPGSV,3,1,12,08,06,322,34,10,42,301,42,15,36,052,44,18,72,340,41*79
2017-12-29 11:19:24 1514564364.720365: $GPGSV,3,2,12,20,34,096,47,21,62,189,42,24,51,108,46,27,19,288,35*73
2017-12-29 11:19:24 1514564364.720429: $GPGSV,3,3,12,32,22,238,31,13,07,049,00,14,04,232,00,138,38,213,45*4A
2017-12-29 11:19:24 1514564364.833839: $GPZDA,161925.00,29,12,2017,00,00*62
2017-12-29 11:19:24 1514564364.833956: $GPGGA,161925,3946.9569,N,08404.9849,W,2,10,1.00,328.22,M,-33.324,M,,*75
2017-12-29 11:19:24 1514564364.834019: $GPRMC,161925,A,3946.9569,N,08404.9849,W,0.0000,0.000,291217,,*36
2017-12-29 11:19:24 1514564364.834079: $GPGSA,A,3,8,10,15,18,20,21,24,27,32,138,,,1.7,1.0,1.3*3A
2017-12-29 11:19:25 1514564365.386003: $GPZDA,161926.00,29,12,2017,00,00*61
2017-12-29 11:19:25 1514564365.386162: $GPGGA,161926,3946.9565,N,08404.9849,W,2,10,1.00,327.58,M,-33.324,M,,*78
2017-12-29 11:19:25 1514564365.386226: $GPRMC,161926,A,3946.9565,N,08404.9849,W,0.2959,54.767,291217,,*09
2017-12-29 11:19:25 1514564365.386287: $GPGSA,A,3,8,10,15,18,20,21,24,27,32,138,,,1.7,1.0,1.3*3A
2017-12-29 11:19:26 1514564366.391802: $GPZDA,161927.00,29,12,2017,00,00*60
2017-12-29 11:19:26 1514564366.391963: $GPGGA,161927,3946.9561,N,08404.9849,W,2,10,1.00,326.94,M,-33.324,M,,*7C
2017-12-29 11:19:26 1514564366.392027: $GPRMC,161927,A,3946.9561,N,08404.9849,W,0.2422,93.794,291217,,*0A
2017-12-29 11:19:26 1514564366.392088: $GPGSA,A,3,8,10,15,18,20,21,24,27,32,138,,,1.7,1.0,1.3*3A
2017-12-29 11:19:26 1514564366.392145: $GPGBS,161927,2.73,M,2.59,M,7.72,M*3E
2017-12-29 11:19:27 1514564367.715463: $GPGSV,3,1,12,08,06,322,34,10,42,301,42,15,36,052,44,18,72,340,40*78
2017-12-29 11:19:27 1514564367.715628: $GPGSV,3,2,12,20,34,096,47,21,62,189,43,24,51,108,46,27,19,288,31*76
2017-12-29 11:19:27 1514564367.715693: $GPGSV,3,3,12,32,22,238,31,13,07,049,00,14,04,232,00,138,38,213,44*4B
2017-12-29 11:19:27 1514564367.829079: $GPZDA,161928.00,29,12,2017,00,00*6F
2017-12-29 11:19:27 1514564367.829192: $GPGGA,161928,3946.9561,N,08404.9849,W,2,10,1.00,326.94,M,-33.324,M,,*73
2017-12-29 11:19:27 1514564367.829256: $GPRMC,161928,A,3946.9561,N,08404.9849,W,0.4179,148.778,291217,,*3D
2017-12-29 11:19:27 1514564367.829316: $GPGSA,A,3,8,10,15,18,20,21,24,27,32,138,,,1.7,1.0,1.3*3A
2017-12-29 11:19:28 1514564368.385001: $GPZDA,161929.00,29,12,2017,00,00*6E
2017-12-29 11:19:28 1514564368.385158: $GPGGA,161929,3946.9560,N,08404.9848,W,2,10,1.00,325.54,M,-33.324,M,,*7D
2017-12-29 11:19:28 1514564368.385222: $GPRMC,161929,A,3946.9560,N,08404.9848,W,0.2422,93.794,291217,,*04
2017-12-29 11:19:28 1514564368.385283: $GPGSA,A,3,8,10,15,18,20,21,24,27,32,138,,,1.7,1.0,1.3*3A
2017-12-29 11:19:29 1514564369.380859: $GPZDA,161930.00,29,12,2017,00,00*66
2017-12-29 11:19:29 1514564369.381012: $GPGGA,161930,3946.9563,N,08404.9847,W,2,10,1.00,323.37,M,-33.324,M,,*7A
2017-12-29 11:19:29 1514564369.381143: $GPRMC,161930,A,3946.9563,N,08404.9847,W,0.1567,9.200,291217,,*38
2017-12-29 11:19:29 1514564369.381206: $GPGSA,A,3,8,10,15,18,20,21,24,27,32,138,,,1.7,1.0,1.3*3A
2017-12-29 11:19:30 1514564370.723817: $GPGSV,3,1,12,08,06,322,31,10,42,301,42,15,36,052,44,18,72,340,41*7C
2017-12-29 11:19:30 1514564370.724024: $GPGSV,3,2,12,20,34,096,47,21,62,189,42,24,51,108,46,27,19,288,22*75
2017-12-29 11:19:30 1514564370.724091: $GPGSV,3,3,12,32,22,238,31,13,07,049,00,14,04,232,00,138,38,213,44*4B
2017-12-29 11:19:30 1514564370.837442: $GPZDA,161931.00,29,12,2017,00,00*67
2017-12-29 11:19:30 1514564370.837556: $GPGGA,161931,3946.9563,N,08404.9847,W,2,10,1.00,323.37,M,-33.324,M,,*7B
2017-12-29 11:19:30 1514564370.837619: $GPRMC,161931,A,3946.9563,N,08404.9847,W,0.0000,0.000,291217,,*37
2017-12-29 11:19:30 1514564370.837678: $GPGSA,A,3,8,10,15,18,20,21,24,27,32,138,,,1.7,1.0,1.3*3A
2017-12-29 11:19:31 1514564371.388147: $GPZDA,161932.00,29,12,2017,00,00*64
2017-12-29 11:19:31 1514564371.388322: $GPGGA,161932,3946.9563,N,08404.9847,W,2,10,1.00,323.37,M,-33.324,M,,*78
2017-12-29 11:19:31 1514564371.388388: $GPRMC,161932,A,3946.9563,N,08404.9847,W,0.0000,0.000,291217,,*34
2017-12-29 11:19:31 1514564371.388448: $GPGSA,A,3,8,10,15,18,20,21,24,27,32,138,,,1.7,1.0,1.3*3A
