2017-12-01 14:17:00 1512155820.932900: {"class":"VERSION","release":"3.16","rev":"3.16-4","proto_major":3,"proto_minor":11}
2017-12-01 14:17:00 1512155820.933312: {"class":"DEVICES","devices":[{"class":"DEVICE","path":"/dev/ttyUSB0","driver":"SiRF","subtype":"9\u0006GSD4e_4.1.2-P1_RPATCH.05-F-GPS-4R-1510281 11/03/2015 307","activated":"2017-12-01T19:17:00.560Z","flags":1,"native":1,"bps":4800,"parity":"N","stopbits":1,"cycle":1.00}]}
2017-12-01 14:17:00 1512155820.933443: {"class":"WATCH","enable":true,"json":false,"nmea":true,"raw":0,"scaled":false,"timing":false,"split24":false,"pps":false}
2017-12-01 14:17:01 1512155821.419404: $GPZDA,191702.00,01,12,2017,00,00*6C
2017-12-01 14:17:01 1512155821.419594: $GPGGA,191702,3946.9516,N,08404.9828,W,2,12,0.80,333.62,M,-33.324,M,,*7B
2017-12-01 14:17:01 1512155821.419677: $GPRMC,191702,A,3946.9516,N,08404.9828,W,0.0000,0.000,011217,,*37
2017-12-01 14:17:01 1512155821.419739: $GPGSA,A,3,8,10,14,18,21,24,27,32,12,15,20,138,2.0,0.8,1.5*37
2017-12-01 14:17:02 1512155822.749576: $GPGSV,3,1,12,08,06,297,33,10,66,327,50,14,26,250,40,18,72,085,44*7B
2017-12-01 14:17:02 1512155822.749773: $GPGSV,3,2,12,21,32,180,45,24,47,063,49,27,08,262,34,32,44,262,46*75
2017-12-01 14:17:02 1512155822.749841: $GPGSV,3,3,12,12,07,109,34,15,13,064,30,20,11,117,25,138,38,213,46*47
2017-12-01 14:17:02 1512155822.862973: $GPZDA,191703.00,01,12,2017,00,00*6D
2017-12-01 14:17:02 1512155822.863143: $GPGGA,191703,3946.9516,N,08404.9828,W,2,12,0.80,333.62,M,-33.324,M,,*7A
2017-12-01 14:17:02 1512155822.863211: $GPRMC,191703,A,3946.9516,N,08404.9828,W,0.0000,0.000,011217,,*36
2017-12-01 14:17:02 1512155822.863271: $GPGSA,A,3,8,10,14,18,21,24,27,32,12,15,20,138,2.0,0.8,1.5*37
2017-12-01 14:17:03 1512155823.418954: $GPZDA,191704.00,01,12,2017,00,00*6A
2017-12-01 14:17:03 1512155823.419127: $GPGGA,191704,3946.9516,N,08404.9828,W,2,12,0.80,333.62,M,-33.324,M,,*7D
2017-12-01 14:17:03 1512155823.419194: $GPRMC,191704,A,3946.9516,N,08404.9828,W,0.0000,0.000,011217,,*31
2017-12-01 14:17:03 1512155823.419255: $GPGSA,A,3,8,10,14,18,21,24,27,32,12,15,20,138,2.0,0.8,1.5*37
2017-12-01 14:17:04 1512155824.449749: $GPZDA,191705.00,01,12,2017,00,00*6B
2017-12-01 14:17:04 1512155824.449918: $GPGGA,191705,3946.9516,N,08404.9828,W,2,12,0.80,333.62,M,-33.324,M,,*7C
2017-12-01 14:17:04 1512155824.449983: $GPRMC,191705,A,3946.9516,N,08404.9828,W,0.0000,0.000,011217,,*30
2017-12-01 14:17:04 1512155824.450044: $GPGSA,A,3,8,10,14,18,21,24,27,32,12,15,20,138,2.0,0.8,1.5*37
2017-12-01 14:17:05 1512155825.786682: $GPGSV,3,1,12,08,06,297,33,10,66,327,50,14,26,250,39,18,72,085,44*75
2017-12-01 14:17:05 1512155825.786864: $GPGSV,3,2,12,21,32,180,45,24,47,063,49,27,08,262,34,32,44,262,46*75
2017-12-01 14:17:05 1512155825.786929: $GPGSV,3,3,12,12,07,109,34,15,13,064,30,20,11,117,26,138,38,213,46*44
2017-12-01 14:17:05 1512155825.898833: $GPZDA,191706.00,01,12,2017,00,00*68
2017-12-01 14:17:05 1512155825.898986: $GPGGA,191706,3946.9520,N,08404.9828,W,2,12,0.80,332.86,M,-33.324,M,,*71
2017-12-01 14:17:05 1512155825.899052: $GPRMC,191706,A,3946.9520,N,08404.9828,W,0.0000,0.000,011217,,*36
2017-12-01 14:17:05 1512155825.899112: $GPGSA,A,3,8,10,14,18,21,24,27,32,12,15,20,138,2.0,0.8,1.5*37
2017-12-01 14:17:06 1512155826.450979: $GPZDA,191707.00,01,12,2017,00,00*69
2017-12-01 14:17:06 1512155826.451153: $GPGGA,191707,3946.9520,N,08404.9828,W,2,12,0.80,332.86,M,-33.324,M,,*70
2017-12-01 14:17:06 1512155826.451219: $GPRMC,191707,A,3946.9520,N,08404.9828,W,0.0000,0.000,011217,,*37
2017-12-01 14:17:06 1512155826.451280: $GPGSA,A,3,8,10,14,18,21,24,27,32,12,15,20,138,2.0,0.8,1.5*37
2017-12-01 14:17:07 1512155827.450150: $GPZDA,191708.00,01,12,2017,00,00*66
2017-12-01 14:17:07 1512155827.943934: $GPGGA,191708,3946.9520,N,08404.9828,W,2,12,0.80,332.86,M,-33.324,M,,*7F
2017-12-01 14:17:07 1512155827.944104: $GPRMC,191708,A,3946.9520,N,08404.9828,W,0.0000,0.000,011217,,*38
2017-12-01 14:17:07 1512155827.944186: $GPGSA,A,3,8,10,14,18,21,24,27,32,12,15,20,138,2.0,0.8,1.5*37
2017-12-01 14:17:08 1512155828.748378: $GPGSV,3,1,12,08,06,297,32,10,66,327,49,14,26,250,38,18,72,085,44*7D
2017-12-01 14:17:08 1512155828.748648: $GPGSV,3,2,12,21,32,180,45,24,47,063,49,27,08,262,34,32,44,262,46*75
2017-12-01 14:17:08 1512155828.748723: $GPGSV,3,3,12,12,07,109,34,15,13,064,30,20,11,117,26,138,38,213,46*44
2017-12-01 14:17:08 1512155828.862123: $GPZDA,191709.00,01,12,2017,00,00*67
2017-12-01 14:17:08 1512155828.862426: $GPGGA,191709,3946.9516,N,08404.9828,W,2,12,0.80,333.62,M,-33.324,M,,*70
2017-12-01 14:17:08 1512155828.862566: $GPRMC,191709,A,3946.9516,N,08404.9828,W,0.0000,0.000,011217,,*3C
2017-12-01 14:17:08 1512155828.862715: $GPGSA,A,3,8,10,14,18,21,24,27,32,12,15,20,138,2.0,0.8,1.5*37
2017-12-01 14:17:09 1512155829.451399: $GPZDA,191710.00,01,12,2017,00,00*6F
2017-12-01 14:17:09 1512155829.451604: $GPGGA,191710,3946.9516,N,08404.9828,W,2,12,0.80,333.62,M,-33.324,M,,*78
2017-12-01 14:17:09 1512155829.451672: $GPRMC,191710,A,3946.9516,N,08404.9828,W,0.0000,0.000,011217,,*34
2017-12-01 14:17:09 1512155829.451733: $GPGSA,A,3,8,10,14,18,21,24,27,32,12,15,20,138,2.0,0.8,1.5*37
2017-12-01 14:17:10 1512155830.419694: $GPZDA,191711.00,01,12,2017,00,00*6E
2017-12-01 14:17:10 1512155830.419864: $GPGGA,191711,3946.9516,N,08404.9828,W,2,12,0.80,333.62,M,-33.324,M,,*79
2017-12-01 14:17:10 1512155830.419931: $GPRMC,191711,A,3946.9516,N,08404.9828,W,0.0000,0.000,011217,,*35
2017-12-01 14:17:10 1512155830.419992: $GPGSA,A,3,8,10,14,18,21,24,27,32,12,15,20,138,2.0,0.8,1.5*37
2017-12-01 14:17:11 1512155831.785486: $GPGSV,3,1,12,08,06,297,32,10,66,327,49,14,26,250,39,18,72,085,44*7C
2017-12-01 14:17:11 1512155831.785682: $GPGSV,3,2,12,21,32,180,45,24,47,063,49,27,08,262,35,32,44,262,46*74
2017-12-01 14:17:11 1512155831.785750: $GPGSV,3,3,12,12,07,109,34,15,13,064,30,20,11,117,27,138,38,213,46*45
2017-12-01 14:17:11 1512155831.898903: $GPZDA,191712.00,01,12,2017,00,00*6D
2017-12-01 14:17:11 1512155831.899052: $GPGGA,191712,3946.9516,N,08404.9828,W,2,12,0.80,333.62,M,-33.324,M,,*7A
2017-12-01 14:17:11 1512155831.899118: $GPRMC,191712,A,3946.9516,N,08404.9828,W,0.0000,0.000,011217,,*36
2017-12-01 14:17:11 1512155831.899178: $GPGSA,A,3,8,10,14,18,21,24,27,32,12,15,20,138,2.0,0.8,1.5*37
2017-12-01 14:17:12 1512155832.524170: $GPZDA,191713.00,01,12,2017,00,00*6C
2017-12-01 14:17:12 1512155832.524339: $GPGGA,191713,3946.9516,N,08404.9828,W,2,12,0.80,333.62,M,-33.324,M,,*7B
2017-12-01 14:17:12 1512155832.524407: $GPRMC,191713,A,3946.9516,N,08404.9828,W,0.0000,0.000,011217,,*37
2017-12-01 14:17:12 1512155832.524490: $GPGSA,A,3,8,10,14,18,21,24,27,32,12,15,20,138,2.0,0.8,1.5*37
2017-12-01 14:17:13 1512155833.420120: $GPZDA,191714.00,01,12,2017,00,00*6B
2017-12-01 14:17:13 1512155833.420293: $GPGGA,191714,3946.9517,N,08404.9835,W,2,12,0.80,333.55,M,-33.324,M,,*75
2017-12-01 14:17:13 1512155833.420359: $GPRMC,191714,A,3946.9517,N,08404.9835,W,0.0000,0.000,011217,,*3D
2017-12-01 14:17:13 1512155833.420440: $GPGSA,A,3,8,10,14,18,21,24,27,32,12,15,20,138,2.0,0.8,1.5*37
2017-12-01 14:17:14 1512155834.755773: $GPGSV,3,1,12,08,06,297,33,10,66,327,49,14,26,250,39,18,72,085,45*7C
2017-12-01 14:17:14 1512155834.755956: $GPGSV,3,2,12,21,32,180,45,24,47,063,49,27,08,262,35,32,44,262,45*77
2017-12-01 14:17:14 1512155834.756024: $GPGSV,3,3,12,12,07,109,35,15,13,064,29,20,11,117,28,138,38,213,47*42
2017-12-01 14:17:14 1512155834.869642: $GPZDA,191715.00,01,12,2017,00,00*6A
2017-12-01 14:17:14 1512155834.869801: $GPGGA,191715,3946.9517,N,08404.9835,W,2,12,0.80,333.55,M,-33.324,M,,*74
2017-12-01 14:17:14 1512155834.869867: $GPRMC,191715,A,3946.9517,N,08404.9835,W,0.0000,0.000,011217,,*3C
2017-12-01 14:17:14 1512155834.869928: $GPGSA,A,3,8,10,14,18,21,24,27,32,12,15,20,138,2.0,0.8,1.5*37
2017-12-01 14:17:15 1512155835.419197: $GPZDA,191716.00,01,12,2017,00,00*69
2017-12-01 14:17:15 1512155835.419364: $GPGGA,191716,3946.9517,N,08404.9835,W,2,12,0.80,333.55,M,-33.324,M,,*77
2017-12-01 14:17:15 1512155835.419453: $GPRMC,191716,A,3946.9517,N,08404.9835,W,0.0000,0.000,011217,,*3F
2017-12-01 14:17:15 1512155835.419515: $GPGSA,A,3,8,10,14,18,21,24,27,32,12,15,20,138,2.0,0.8,1.5*37
2017-12-01 14:17:16 1512155836.451470: $GPZDA,191717.00,01,12,2017,00,00*68
2017-12-01 14:17:16 1512155836.451782: $GPGGA,191717,3946.9517,N,08404.9835,W,2,12,0.80,333.55,M,-33.324,M,,*76
2017-12-01 14:17:16 1512155836.451931: $GPRMC,191717,A,3946.9517,N,08404.9835,W,0.0000,0.000,011217,,*3E
2017-12-01 14:17:16 1512155836.452062: $GPGSA,A,3,8,10,14,18,21,24,27,32,12,15,20,138,2.0,0.8,1.5*37
2017-12-01 14:17:17 1512155837.786118: $GPGSV,3,1,12,08,06,297,33,10,66,327,49,14,26,250,39,18,72,085,45*7C
2017-12-01 14:17:17 1512155837.786298: $GPGSV,3,2,12,21,32,180,45,24,47,063,50,27,08,262,35,32,44,262,45*7F
2017-12-01 14:17:17 1512155837.786363: $GPGSV,3,3,12,12,07,109,34,15,13,064,29,20,11,117,28,138,38,213,46*42
2017-12-01 14:17:17 1512155837.899456: $GPZDA,191718.00,01,12,2017,00,00*67
2017-12-01 14:17:17 1512155837.899606: $GPGGA,191718,3946.9517,N,08404.9835,W,2,12,0.80,333.55,M,-33.324,M,,*79
2017-12-01 14:17:17 1512155837.899673: $GPRMC,191718,A,3946.9517,N,08404.9835,W,0.0000,0.000,011217,,*31
2017-12-01 14:17:17 1512155837.899733: $GPGSA,A,3,8,10,14,18,21,24,27,32,12,15,20,138,2.0,0.8,1.5*37
2017-12-01 14:17:18 1512155838.415420: $GPZDA,191719.00,01,12,2017,00,00*66
2017-12-01 14:17:18 1512155838.415608: $GPGGA,191719,3946.9517,N,08404.9835,W,2,12,0.80,333.55,M,-33.324,M,,*78
2017-12-01 14:17:18 1512155838.415677: $GPRMC,191719,A,3946.9517,N,08404.9835,W,0.0000,0.000,011217,,*30
2017-12-01 14:17:18 1512155838.415738: $GPGSA,A,3,8,10,14,18,21,24,27,32,12,15,20,138,2.0,0.8,1.5*37
2017-12-01 14:17:19 1512155839.450280: $GPZDA,191720.00,01,12,2017,00,00*6C
2017-12-01 14:17:19 1512155839.450453: $GPGGA,191720,3946.9517,N,08404.9835,W,2,12,0.80,333.55,M,-33.324,M,,*72
2017-12-01 14:17:19 1512155839.450519: $GPRMC,191720,A,3946.9517,N,08404.9835,W,0.0000,0.000,011217,,*3A
2017-12-01 14:17:19 1512155839.450579: $GPGSA,A,3,8,10,14,18,21,24,27,32,12,15,20,138,2.0,0.8,1.5*37
2017-12-01 14:17:20 1512155840.754527: $GPGSV,3,1,12,08,06,297,34,10,66,327,49,14,26,250,40,18,72,085,45*75
2017-12-01 14:17:20 1512155840.754706: $GPGSV,3,2,12,21,32,180,45,24,47,063,50,27,08,262,35,32,44,262,45*7F
2017-12-01 14:17:20 1512155840.754772: $GPGSV,3,3,12,12,07,109,34,15,13,064,24,20,11,117,28,138,38,213,46*4F
2017-12-01 14:17:20 1512155840.866979: $GPZDA,191721.00,01,12,2017,00,00*6D
2017-12-01 14:17:20 1512155840.867155: $GPGGA,191721,3946.9520,N,08404.9834,W,2,12,0.80,332.78,M,-33.324,M,,*78
2017-12-01 14:17:20 1512155840.867223: $GPRMC,191721,A,3946.9520,N,08404.9834,W,0.0000,0.000,011217,,*3E
2017-12-01 14:17:20 1512155840.867283: $GPGSA,A,3,8,10,14,18,21,24,27,32,12,15,20,138,2.0,0.8,1.5*37
