2017-11-15 19:22:13 1510791733.912371: {"class":"VERSION","release":"3.17","rev":"3.17","proto_major":3,"proto_minor":12}
2017-11-15 19:22:13 1510791733.912943: {"class":"DEVICES","devices":[{"class":"DEVICE","path":"/dev/ttyUSB0","driver":"SiRF","subtype":"9\u0006GSD4e_4.1.2-P1_RPATCH.05-F-GPS-4R-1510281 11/03/2015 307","activated":"2017-11-16T00:22:13.488Z","flags":1,"native":1,"bps":4800,"parity":"N","stopbits":1,"cycle":1.00}]}
2017-11-15 19:22:13 1510791733.913057: {"class":"WATCH","enable":true,"json":false,"nmea":true,"raw":0,"scaled":false,"timing":false,"split24":false,"pps":false}
2017-11-15 19:22:14 1510791734.329831: $GPZDA,002213.00,16,11,2017,00,00*67
2017-11-15 19:22:14 1510791734.330001: $GPGGA,002213,3946.9570,N,08404.9454,W,1,08,1.00,288.91,M,-33.324,M,,*7E
2017-11-15 19:22:14 1510791734.337573: $GPRMC,002213,A,3946.9570,N,08404.9454,W,0.2422,93.794,161117,,*0D
2017-11-15 19:22:14 1510791734.337739: $GPGSA,A,3,32,14,22,26,31,29,3,1,,,,,3.4,1.0,2.9*34
2017-11-15 19:22:15 1510791735.665703: $GPGSV,3,1,11,32,39,105,21,14,58,087,11,22,50,276,20,26,49,174,21*7C
2017-11-15 19:22:15 1510791735.665873: $GPGSV,3,2,11,31,71,018,17,29,09,075,17,25,20,042,00,03,37,303,20*73
2017-11-15 19:22:15 1510791735.665932: $GPGSV,3,3,11,01,08,255,14,16,18,190,00,23,08,298,00*4B
2017-11-15 19:22:15 1510791735.778993: $GPZDA,002214.00,16,11,2017,00,00*60
2017-11-15 19:22:15 1510791735.779280: $GPGGA,002214,3946.9574,N,08404.9454,W,1,08,1.00,289.55,M,-33.324,M,,*74
2017-11-15 19:22:15 1510791735.779405: $GPRMC,002214,A,3946.9574,N,08404.9454,W,0.1567,9.201,161117,,*37
2017-11-15 19:22:15 1510791735.779496: $GPGSA,A,3,32,14,22,26,31,29,3,1,,,,,3.4,1.0,2.9*34
2017-11-15 19:22:16 1510791736.404691: $GPZDA,002215.00,16,11,2017,00,00*61
2017-11-15 19:22:16 1510791736.404958: $GPGGA,002215,3946.9574,N,08404.9454,W,1,08,1.00,289.55,M,-33.324,M,,*75
2017-11-15 19:22:16 1510791736.405075: $GPRMC,002215,A,3946.9574,N,08404.9454,W,0.4207,39.347,161117,,*02
2017-11-15 19:22:16 1510791736.405189: $GPGSA,A,3,32,14,22,26,31,29,3,1,,,,,3.4,1.0,2.9*34
2017-11-15 19:22:17 1510791737.346671: $GPZDA,002216.00,16,11,2017,00,00*62
2017-11-15 19:22:17 1510791737.346923: $GPGGA,002216,3946.9574,N,08404.9454,W,1,08,1.00,289.55,M,-33.324,M,,*76
2017-11-15 19:22:17 1510791737.346985: $GPRMC,002216,A,3946.9574,N,08404.9454,W,0.7621,107.945,161117,,*36
2017-11-15 19:22:17 1510791737.347041: $GPGSA,A,3,32,14,22,26,31,29,3,1,,,,,3.4,1.0,2.9*34
2017-11-15 19:22:18 1510791738.667313: $GPGSV,3,1,11,32,39,105,21,14,58,087,12,22,50,276,20,26,49,174,21*7F
2017-11-15 19:22:18 1510791738.667667: $GPGSV,3,2,11,31,71,018,16,29,09,075,17,16,18,190,19,03,37,303,20*7F
2017-11-15 19:22:18 1510791738.667763: $GPGSV,3,3,11,01,08,255,12,25,20,042,00,23,08,298,00*48
2017-11-15 19:22:18 1510791738.780821: $GPZDA,002217.00,16,11,2017,00,00*63
2017-11-15 19:22:18 1510791738.780977: $GPGGA,002217,3946.9574,N,08404.9454,W,1,08,1.00,289.55,M,-33.324,M,,*77
2017-11-15 19:22:18 1510791738.781038: $GPRMC,002217,A,3946.9574,N,08404.9454,W,0.7267,93.794,161117,,*0F
2017-11-15 19:22:18 1510791738.781094: $GPGSA,A,3,32,14,22,26,31,29,3,1,,,,,3.4,1.0,2.9*34
2017-11-15 19:22:19 1510791739.347948: $GPZDA,002218.00,16,11,2017,00,00*6C
2017-11-15 19:22:19 1510791739.348118: $GPGGA,002218,3946.9574,N,08404.9447,W,1,08,1.20,289.63,M,-33.324,M,,*7D
2017-11-15 19:22:19 1510791739.350846: $GPRMC,002218,A,3946.9574,N,08404.9447,W,0.8011,119.090,161117,,*3E
2017-11-15 19:22:19 1510791739.350930: $GPGSA,A,3,32,14,22,26,31,29,3,1,,,,,3.4,1.2,2.9*36
2017-11-15 19:22:20 1510791740.347313: $GPZDA,002219.00,16,11,2017,00,00*6D
2017-11-15 19:22:20 1510791740.347498: $GPGGA,002219,3946.9570,N,08404.9447,W,1,08,1.20,290.39,M,-33.324,M,,*7F
2017-11-15 19:22:20 1510791740.347562: $GPRMC,002219,A,3946.9570,N,08404.9447,W,0.7238,140.710,161117,,*3E
2017-11-15 19:22:20 1510791740.347618: $GPGSA,A,3,32,14,22,26,31,29,3,1,,,,,3.4,1.2,2.9*36
2017-11-15 19:22:21 1510791741.666318: $GPGSV,3,1,11,32,39,105,21,14,58,087,13,22,50,276,20,26,49,174,22*7D
2017-11-15 19:22:21 1510791741.666512: $GPGSV,3,2,11,31,71,018,16,29,09,075,17,25,20,042,00,03,37,303,20*72
2017-11-15 19:22:21 1510791741.666623: $GPGSV,3,3,11,01,08,255,11,16,18,190,00,23,08,298,00*4E
2017-11-15 19:22:21 1510791741.779671: $GPZDA,002220.00,16,11,2017,00,00*67
2017-11-15 19:22:21 1510791741.779857: $GPGGA,002220,3946.9570,N,08404.9447,W,1,08,1.20,290.39,M,-33.324,M,,*75
2017-11-15 19:22:21 1510791741.779919: $GPRMC,002220,A,3946.9570,N,08404.9447,W,0.6846,184.197,161117,,*37
2017-11-15 19:22:21 1510791741.779976: $GPGSA,A,3,32,14,22,26,31,29,3,1,,,,,3.4,1.2,2.9*36
2017-11-15 19:22:22 1510791742.348066: $GPZDA,002221.00,16,11,2017,00,00*66
2017-11-15 19:22:22 1510791742.348281: $GPGGA,002221,3946.9570,N,08404.9447,W,1,08,1.00,290.39,M,-33.324,M,,*76
2017-11-15 19:22:22 1510791742.348346: $GPRMC,002221,A,3946.9570,N,08404.9447,W,0.5912,129.173,161117,,*38
2017-11-15 19:22:22 1510791742.348421: $GPGSA,A,3,32,14,22,26,31,29,3,1,,,,,3.4,1.0,2.9*34
2017-11-15 19:22:23 1510791743.346899: $GPZDA,002222.00,16,11,2017,00,00*65
2017-11-15 19:22:23 1510791743.347058: $GPGGA,002222,3946.9575,N,08404.9447,W,1,08,1.00,291.03,M,-33.324,M,,*78
2017-11-15 19:22:23 1510791743.347119: $GPRMC,002222,A,3946.9575,N,08404.9447,W,0.4844,93.794,161117,,*02
2017-11-15 19:22:23 1510791743.347174: $GPGSA,A,3,32,14,22,26,31,29,3,1,,,,,3.4,1.0,2.9*34
