2017-12-14 12:27:36 1513272456.681956: {"class":"VERSION","release":"3.16","rev":"3.16-4","proto_major":3,"proto_minor":11}
2017-12-14 12:27:36 1513272456.682362: {"class":"DEVICES","devices":[{"class":"DEVICE","path":"/dev/ttyUSB0","driver":"SiRF","subtype":"9\u0006GSD4e_4.1.2-P1_RPATCH.05-F-GPS-4R-1510281 11/03/2015 307","activated":"2017-12-14T17:27:36.499Z","flags":1,"native":1,"bps":4800,"parity":"N","stopbits":1,"cycle":1.00}]}
2017-12-14 12:27:36 1513272456.682487: {"class":"WATCH","enable":true,"json":false,"nmea":true,"raw":0,"scaled":false,"timing":false,"split24":false,"pps":false}
2017-12-14 12:27:37 1513272457.187840: $GPZDA,172738.00,14,12,2017,00,00*6C
2017-12-14 12:27:37 1513272457.188011: $GPGGA,172738,3946.9565,N,08404.9345,W,1,06,1.40,307.23,M,-33.324,M,,*72
2017-12-14 12:27:37 1513272457.188079: $GPRMC,172738,A,3946.9565,N,08404.9345,W,1.1249,23.141,141217,,*09
2017-12-14 12:27:37 1513272457.188140: $GPGSA,A,3,24,10,15,20,21,32,,,,,,,6.6,1.4,6.2*30
2017-12-14 12:27:38 1513272458.519974: $GPGSV,3,1,12,24,52,103,28,10,45,304,23,15,33,054,15,20,31,099,24*70
2017-12-14 12:27:38 1513272458.520164: $GPGSV,3,2,12,21,58,186,23,32,24,241,14,13,04,049,15,18,74,348,18*7D
2017-12-14 12:27:38 1513272458.520230: $GPGSV,3,3,12,27,18,285,00,14,07,234,00,08,07,319,00,138,38,213,00*4B
2017-12-14 12:27:38 1513272458.633623: $GPZDA,172739.00,14,12,2017,00,00*6D
2017-12-14 12:27:38 1513272458.633765: $GPGGA,172739,3946.9568,N,08404.9344,W,1,06,1.40,306.47,M,-33.324,M,,*7C
2017-12-14 12:27:38 1513272458.633830: $GPRMC,172739,A,3946.9568,N,08404.9344,W,0.6660,36.057,141217,,*0F
2017-12-14 12:27:38 1513272458.633892: $GPGSA,A,3,24,10,15,20,21,32,,,,,,,6.6,1.4,6.2*30
2017-12-14 12:27:39 1513272459.183653: $GPZDA,172740.00,14,12,2017,00,00*63
2017-12-14 12:27:39 1513272459.183813: $GPGGA,172740,3946.9568,N,08404.9343,W,1,06,1.40,305.06,M,-33.324,M,,*73
2017-12-14 12:27:39 1513272459.183881: $GPRMC,172740,A,3946.9568,N,08404.9343,W,0.3945,346.606,141217,,*3D
2017-12-14 12:27:39 1513272459.183942: $GPGSA,A,3,24,10,15,20,21,32,,,,,,,6.6,1.4,6.2*30
2017-12-14 12:27:40 1513272460.183857: $GPZDA,172741.00,14,12,2017,00,00*62
2017-12-14 12:27:40 1513272460.184040: $GPGGA,172741,3946.9575,N,08404.9342,W,1,06,1.40,303.53,M,-33.324,M,,*79
2017-12-14 12:27:40 1513272460.184105: $GPRMC,172741,A,3946.9575,N,08404.9342,W,0.6745,330.409,141217,,*36
2017-12-14 12:27:40 1513272460.184166: $GPGSA,A,3,24,10,15,20,21,32,,,,,,,6.6,1.4,6.2*30
2017-12-14 12:27:41 1513272461.519835: $GPGSV,3,1,12,24,52,103,28,10,45,304,23,15,33,054,15,20,31,099,24*70
2017-12-14 12:27:41 1513272461.520007: $GPGSV,3,2,12,21,58,186,24,32,24,241,14,18,74,348,00,27,18,285,00*7F
2017-12-14 12:27:41 1513272461.520072: $GPGSV,3,3,12,14,07,234,00,08,07,319,00,13,04,049,00,138,38,213,00*43
2017-12-14 12:27:41 1513272461.633915: $GPZDA,172742.00,14,12,2017,00,00*61
2017-12-14 12:27:41 1513272461.634092: $GPGGA,172742,3946.9574,N,08404.9341,W,1,06,1.40,302.13,M,-33.324,M,,*7D
2017-12-14 12:27:41 1513272461.634171: $GPRMC,172742,A,3946.9574,N,08404.9341,W,0.3973,22.233,141217,,*06
2017-12-14 12:27:41 1513272461.634232: $GPGSA,A,3,24,10,15,20,21,32,,,,,,,6.6,1.4,6.2*30
2017-12-14 12:27:42 1513272462.182897: $GPZDA,172743.00,14,12,2017,00,00*60
2017-12-14 12:27:42 1513272462.183070: $GPGGA,172743,3946.9577,N,08404.9340,W,1,06,1.40,301.36,M,-33.324,M,,*7A
2017-12-14 12:27:42 1513272462.183156: $GPRMC,172743,A,3946.9577,N,08404.9340,W,0.3973,22.233,141217,,*05
2017-12-14 12:27:42 1513272462.183218: $GPGSA,A,3,24,10,15,20,21,32,,,,,,,6.6,1.4,6.2*30
2017-12-14 12:27:43 1513272463.189470: $GPZDA,172744.00,14,12,2017,00,00*67
2017-12-14 12:27:43 1513272463.189671: $GPGGA,172744,3946.9577,N,08404.9340,W,1,06,1.40,299.96,M,-33.324,M,,*77
2017-12-14 12:27:43 1513272463.189738: $GPRMC,172744,A,3946.9577,N,08404.9340,W,0.3361,109.509,141217,,*3D
2017-12-14 12:27:43 1513272463.189798: $GPGSA,A,3,24,10,15,20,21,32,,,,,,,6.6,1.4,6.2*30
2017-12-14 12:27:44 1513272464.520448: $GPGSV,3,1,12,24,52,103,28,10,45,304,23,15,33,054,12,20,31,099,24*77
2017-12-14 12:27:44 1513272464.520654: $GPGSV,3,2,12,21,58,186,24,32,24,241,14,13,04,049,15,18,74,348,12*70
2017-12-14 12:27:44 1513272464.520776: $GPGSV,3,3,12,27,18,285,00,14,07,234,00,08,07,319,00,138,38,213,00*4B
2017-12-14 12:27:44 1513272464.633840: $GPZDA,172745.00,14,12,2017,00,00*66
2017-12-14 12:27:44 1513272464.634030: $GPGGA,172745,3946.9577,N,08404.9340,W,1,06,1.40,299.96,M,-33.324,M,,*76
2017-12-14 12:27:44 1513272464.634098: $GPRMC,172745,A,3946.9577,N,08404.9340,W,0.2202,173.468,141217,,*32
2017-12-14 12:27:44 1513272464.634159: $GPGSA,A,3,24,10,15,20,21,32,,,,,,,6.6,1.4,6.2*30
2017-12-14 12:27:45 1513272465.183009: $GPZDA,172746.00,14,12,2017,00,00*65
2017-12-14 12:27:45 1513272465.183192: $GPGGA,172746,3946.9572,N,08404.9333,W,1,06,2.60,299.40,M,-33.324,M,,*7E
2017-12-14 12:27:45 1513272465.183258: $GPRMC,172746,A,3946.9572,N,08404.9333,W,0.4584,148.179,141217,,*32
2017-12-14 12:27:45 1513272465.183319: $GPGSA,A,3,24,10,15,20,21,32,,,,,,,6.6,2.6,6.2*31
2017-12-14 12:27:46 1513272466.185544: $GPZDA,172747.00,14,12,2017,00,00*64
2017-12-14 12:27:46 1513272466.185718: $GPGGA,172747,3946.9572,N,08404.9333,W,1,06,2.40,299.40,M,-33.324,M,,*7D
2017-12-14 12:27:46 1513272466.185785: $GPRMC,172747,A,3946.9572,N,08404.9333,W,0.8763,148.465,141217,,*3C
2017-12-14 12:27:46 1513272466.185846: $GPGSA,A,3,24,10,15,20,21,32,,,,,,,6.6,2.4,6.2*33
2017-12-14 12:27:47 1513272467.521056: $GPGSV,3,1,12,24,52,103,28,10,45,304,23,15,33,054,11,20,31,099,24*74
2017-12-14 12:27:47 1513272467.521233: $GPGSV,3,2,12,21,58,186,24,32,24,241,04,27,18,285,06,18,74,348,14*7D
2017-12-14 12:27:47 1513272467.521297: $GPGSV,3,3,12,14,07,234,00,08,07,319,00,13,04,049,00,138,38,213,00*43
2017-12-14 12:27:47 1513272467.639871: $GPZDA,172748.00,14,12,2017,00,00*6B
2017-12-14 12:27:47 1513272467.640048: $GPGGA,172748,3946.9568,N,08404.9333,W,1,06,2.40,298.76,M,-33.324,M,,*7D
2017-12-14 12:27:47 1513272467.640116: $GPRMC,172748,A,3946.9568,N,08404.9333,W,0.8709,183.298,141217,,*37
2017-12-14 12:27:47 1513272467.640177: $GPGSA,A,3,24,10,15,20,21,18,,,,,,,6.6,2.4,6.2*3B
2017-12-14 12:27:48 1513272468.186216: $GPZDA,172749.00,14,12,2017,00,00*6A
2017-12-14 12:27:48 1513272468.186370: $GPGGA,172749,3946.9568,N,08404.9333,W,1,06,2.40,298.76,M,-33.324,M,,*7C
2017-12-14 12:27:48 1513272468.186435: $GPRMC,172749,A,3946.9568,N,08404.9333,W,0.9019,198.875,141217,,*32
2017-12-14 12:27:48 1513272468.186495: $GPGSA,A,3,24,10,15,20,21,18,,,,,,,6.6,2.4,6.2*3B
2017-12-14 12:27:49 1513272469.187202: $GPZDA,172750.00,14,12,2017,00,00*62
2017-12-14 12:27:49 1513272469.187385: $GPGGA,172750,3946.9560,N,08404.9333,W,1,06,2.40,298.88,M,-33.324,M,,*7D
2017-12-14 12:27:49 1513272469.187471: $GPRMC,172750,A,3946.9560,N,08404.9333,W,1.3044,205.352,141217,,*38
2017-12-14 12:27:49 1513272469.187534: $GPGSA,A,3,24,10,15,20,21,18,,,,,,,6.6,2.4,6.2*3B
2017-12-14 12:27:50 1513272470.523500: $GPGSV,3,1,12,24,52,103,28,10,45,304,24,15,33,054,08,20,31,099,24*7B
2017-12-14 12:27:50 1513272470.523700: $GPGSV,3,2,12,21,58,186,24,32,24,241,05,27,18,285,12,18,74,348,15*78
2017-12-14 12:27:50 1513272470.523765: $GPGSV,3,3,12,14,07,234,00,08,07,319,00,13,04,049,00,138,38,213,00*43
2017-12-14 12:27:50 1513272470.636798: $GPZDA,172751.00,14,12,2017,00,00*63
2017-12-14 12:27:50 1513272470.636966: $GPGGA,172751,3946.9556,N,08404.9340,W,1,07,2.00,298.16,M,-33.324,M,,*7F
2017-12-14 12:27:50 1513272470.637033: $GPRMC,172751,A,3946.9556,N,08404.9340,W,1.5738,192.547,141217,,*3D
2017-12-14 12:27:50 1513272470.637094: $GPGSA,A,3,24,10,15,20,21,27,18,,,,,,6.6,2.0,6.2*3A
2017-12-14 12:27:51 1513272471.187097: $GPZDA,172752.00,14,12,2017,00,00*60
2017-12-14 12:27:51 1513272471.187273: $GPGGA,172752,3946.9552,N,08404.9340,W,1,07,2.00,297.52,M,-33.324,M,,*77
2017-12-14 12:27:51 1513272471.187339: $GPRMC,172752,A,3946.9552,N,08404.9340,W,1.9131,191.058,141217,,*31
2017-12-14 12:27:51 1513272471.187400: $GPGSA,A,3,24,10,15,20,21,27,18,,,,,,6.6,2.0,6.2*3A
2017-12-14 12:27:52 1513272472.187446: $GPZDA,172753.00,14,12,2017,00,00*61
2017-12-14 12:27:52 1513272472.187628: $GPGGA,172753,3946.9549,N,08404.9341,W,1,07,2.00,298.29,M,-33.324,M,,*7E
2017-12-14 12:27:52 1513272472.187747: $GPRMC,172753,A,3946.9549,N,08404.9341,W,1.6283,201.001,141217,,*38
2017-12-14 12:27:52 1513272472.187811: $GPGSA,A,3,24,10,15,20,21,27,18,,,,,,6.6,2.0,6.2*3A
2017-12-14 12:27:53 1513272473.522771: $GPGSV,3,1,12,24,52,103,28,10,45,304,24,15,33,054,08,20,31,099,24*7B
2017-12-14 12:27:53 1513272473.522946: $GPGSV,3,2,12,21,58,186,24,32,24,241,06,27,18,285,11,18,74,348,14*79
2017-12-14 12:27:53 1513272473.523012: $GPGSV,3,3,12,14,07,234,00,08,07,319,00,13,04,049,00,138,38,213,00*43
2017-12-14 12:27:53 1513272473.636107: $GPZDA,172754.00,14,12,2017,00,00*66
2017-12-14 12:27:53 1513272473.636230: $GPGGA,172754,3946.9545,N,08404.9348,W,1,07,2.00,297.57,M,-33.324,M,,*7A
2017-12-14 12:27:53 1513272473.636294: $GPRMC,172754,A,3946.9545,N,08404.9348,W,1.5545,212.064,141217,,*35
2017-12-14 12:27:53 1513272473.636353: $GPGSA,A,3,24,10,15,20,21,27,18,,,,,,6.6,2.0,6.2*3A
2017-12-14 12:27:54 1513272474.186289: $GPZDA,172755.00,14,12,2017,00,00*67
2017-12-14 12:27:54 1513272474.186477: $GPGGA,172755,3946.9541,N,08404.9348,W,1,07,6.40,296.93,M,-33.324,M,,*76
2017-12-14 12:27:54 1513272474.186565: $GPRMC,172755,A,3946.9541,N,08404.9348,W,1.6283,201.001,141217,,*3F
2017-12-14 12:27:54 1513272474.186629: $GPGSA,A,3,24,10,15,20,21,27,18,,,,,,6.6,6.4,6.2*3A
2017-12-14 12:27:55 1513272475.687156: $GPZDA,172756.00,14,12,2017,00,00*64
2017-12-14 12:27:55 1513272475.687317: $GPGGA,172756,3946.9537,N,08404.9348,W,1,07,6.40,296.29,M,-33.324,M,,*75
2017-12-14 12:27:55 1513272475.687382: $GPRMC,172756,A,3946.9537,N,08404.9348,W,1.4115,214.536,141217,,*36
2017-12-14 12:27:55 1513272475.687444: $GPGSA,A,3,24,10,15,20,21,27,18,,,,,,6.6,6.4,6.2*3A
2017-12-14 12:27:56 1513272476.522154: $GPGSV,3,1,12,24,52,103,28,10,45,304,24,15,33,054,06,20,31,099,24*75
2017-12-14 12:27:56 1513272476.522316: $GPGSV,3,2,12,21,58,186,25,32,25,241,07,27,18,285,12,18,74,349,14*7A
2017-12-14 12:27:56 1513272476.522381: $GPGSV,3,3,12,13,04,049,14,14,07,234,00,08,07,319,00,138,38,213,00*46
2017-12-14 12:27:56 1513272476.635527: $GPZDA,172757.00,14,12,2017,00,00*65
2017-12-14 12:27:56 1513272476.635700: $GPGGA,172757,3946.9533,N,08404.9355,W,1,08,6.40,295.57,M,-33.324,M,,*79
2017-12-14 12:27:56 1513272476.635766: $GPRMC,172757,A,3946.9533,N,08404.9355,W,1.5738,192.547,141217,,*3C
2017-12-14 12:27:56 1513272476.635827: $GPGSA,A,3,24,10,15,20,21,32,27,18,,,,,6.6,6.4,6.2*3B
