2017-11-16 16:50:57 1510869057.742149: {"class":"VERSION","release":"3.17","rev":"3.17","proto_major":3,"proto_minor":12}
2017-11-16 16:50:57 1510869057.742593: {"class":"DEVICES","devices":[{"class":"DEVICE","path":"/dev/ttyUSB0","driver":"SiRF","subtype":"9\u0006GSD4e_4.1.2-P1_RPATCH.05-F-GPS-4R-1510281 11/03/2015 307","activated":"2017-11-16T21:50:57.584Z","flags":1,"native":1,"bps":4800,"parity":"N","stopbits":1,"cycle":1.00}]}
2017-11-16 16:50:57 1510869057.742707: {"class":"WATCH","enable":true,"json":false,"nmea":true,"raw":0,"scaled":false,"timing":false,"split24":false,"pps":false}
2017-11-16 16:50:58 1510869058.461659: $GPZDA,215057.00,16,11,2017,00,00*61
2017-11-16 16:50:58 1510869058.461823: $GPGGA,215057,3946.9585,N,08404.9829,W,2,12,0.80,307.50,M,-33.324,M,,*7E
2017-11-16 16:50:58 1510869058.461884: $GPRMC,215057,A,3946.9585,N,08404.9829,W,0.0000,0.000,161117,,*31
2017-11-16 16:50:58 1510869058.461940: $GPGSA,A,3,1,10,11,12,14,18,24,25,31,32,22,138,1.6,0.8,1.3*38
2017-11-16 16:50:59 1510869059.797075: $GPGSV,3,1,12,01,14,318,41,10,68,133,48,11,11,300,34,12,25,070,47*75
2017-11-16 16:50:59 1510869059.797245: $GPGSV,3,2,12,14,56,294,45,18,36,136,42,24,13,045,37,25,30,112,41*7F
2017-11-16 16:50:59 1510869059.797305: $GPGSV,3,3,12,31,35,213,47,32,68,331,50,22,03,310,22,138,38,213,44*46
2017-11-16 16:50:59 1510869059.910622: $GPZDA,215058.00,16,11,2017,00,00*6E
2017-11-16 16:50:59 1510869059.910837: $GPGGA,215058,3946.9585,N,08404.9829,W,2,12,0.80,307.50,M,-33.324,M,,*71
2017-11-16 16:50:59 1510869059.910926: $GPRMC,215058,A,3946.9585,N,08404.9829,W,0.0000,0.000,161117,,*3E
2017-11-16 16:50:59 1510869059.910992: $GPGSA,A,3,1,10,11,12,14,18,24,25,31,32,22,138,1.6,0.8,1.3*38
2017-11-16 16:51:00 1510869060.446428: $GPZDA,215059.00,16,11,2017,00,00*6F
2017-11-16 16:51:00 1510869060.446579: $GPGGA,215059,3946.9585,N,08404.9829,W,2,12,0.80,307.50,M,-33.324,M,,*70
2017-11-16 16:51:00 1510869060.446640: $GPRMC,215059,A,3946.9585,N,08404.9829,W,0.0000,0.000,161117,,*3F
2017-11-16 16:51:00 1510869060.446696: $GPGSA,A,3,1,10,11,12,14,18,24,25,31,32,22,138,1.6,0.8,1.3*38
2017-11-16 16:51:01 1510869061.460442: $GPZDA,215100.00,16,11,2017,00,00*62
2017-11-16 16:51:01 1510869061.460590: $GPGGA,215100,3946.9585,N,08404.9829,W,2,12,0.80,307.50,M,-33.324,M,,*7D
2017-11-16 16:51:01 1510869061.460651: $GPRMC,215100,A,3946.9585,N,08404.9829,W,0.0000,0.000,161117,,*32
2017-11-16 16:51:01 1510869061.460706: $GPGSA,A,3,1,10,11,12,14,18,24,25,31,32,22,138,1.6,0.8,1.3*38
2017-11-16 16:51:02 1510869062.786221: $GPGSV,3,1,12,01,14,318,40,10,68,133,48,11,11,300,33,12,25,070,47*73
2017-11-16 16:51:02 1510869062.786387: $GPGSV,3,2,12,14,56,294,45,18,36,136,41,24,13,045,37,25,30,112,41*7C
2017-11-16 16:51:02 1510869062.786447: $GPGSV,3,3,12,31,35,213,47,32,68,331,50,22,03,310,02,138,38,213,44*44
2017-11-16 16:51:02 1510869062.899669: $GPZDA,215101.00,16,11,2017,00,00*63
2017-11-16 16:51:02 1510869062.899996: $GPGGA,215101,3946.9585,N,08404.9829,W,2,11,0.80,307.50,M,-33.324,M,,*7F
2017-11-16 16:51:02 1510869062.900116: $GPRMC,215101,A,3946.9585,N,08404.9829,W,0.0000,0.000,161117,,*33
2017-11-16 16:51:02 1510869062.900230: $GPGSA,A,3,1,10,11,12,14,18,24,25,31,32,138,,1.6,0.8,1.3*38
2017-11-16 16:51:03 1510869063.440367: $GPZDA,215102.00,16,11,2017,00,00*60
2017-11-16 16:51:03 1510869063.440525: $GPGGA,215102,3946.9585,N,08404.9829,W,2,11,0.80,307.50,M,-33.324,M,,*7C
2017-11-16 16:51:03 1510869063.440585: $GPRMC,215102,A,3946.9585,N,08404.9829,W,0.0000,0.000,161117,,*30
2017-11-16 16:51:03 1510869063.440641: $GPGSA,A,3,1,10,11,12,14,18,24,25,31,32,138,,1.6,0.8,1.3*38
2017-11-16 16:51:04 1510869064.444984: $GPZDA,215103.00,16,11,2017,00,00*61
2017-11-16 16:51:04 1510869064.445192: $GPGGA,215103,3946.9585,N,08404.9829,W,2,11,0.80,307.50,M,-33.324,M,,*7D
2017-11-16 16:51:04 1510869064.445253: $GPRMC,215103,A,3946.9585,N,08404.9829,W,0.0000,0.000,161117,,*31
2017-11-16 16:51:04 1510869064.445309: $GPGSA,A,3,1,10,11,12,14,18,24,25,31,32,138,,1.6,0.8,1.3*38
2017-11-16 16:51:05 1510869065.780738: $GPGSV,3,1,12,01,14,318,39,10,68,133,48,11,11,300,33,12,25,070,47*7D
2017-11-16 16:51:05 1510869065.780972: $GPGSV,3,2,12,14,56,294,45,18,36,136,40,24,13,045,37,25,30,112,41*7D
2017-11-16 16:51:05 1510869065.781037: $GPGSV,3,3,12,31,35,213,47,32,68,331,50,22,03,310,22,138,38,213,44*46
2017-11-16 16:51:05 1510869065.894252: $GPZDA,215104.00,16,11,2017,00,00*66
2017-11-16 16:51:05 1510869065.894430: $GPGGA,215104,3946.9585,N,08404.9829,W,2,12,0.80,307.50,M,-33.324,M,,*79
2017-11-16 16:51:05 1510869065.894491: $GPRMC,215104,A,3946.9585,N,08404.9829,W,0.0000,0.000,161117,,*36
2017-11-16 16:51:05 1510869065.894547: $GPGSA,A,3,1,10,11,12,14,18,24,25,31,32,22,138,1.6,0.8,1.3*38
2017-11-16 16:51:06 1510869066.638439: $GPZDA,215105.00,16,11,2017,00,00*67
2017-11-16 16:51:06 1510869066.638593: $GPGGA,215105,3946.9585,N,08404.9829,W,2,12,0.80,307.50,M,-33.324,M,,*78
2017-11-16 16:51:06 1510869066.638654: $GPRMC,215105,A,3946.9585,N,08404.9829,W,0.0000,0.000,161117,,*37
2017-11-16 16:51:06 1510869066.638710: $GPGSA,A,3,1,10,11,12,14,18,24,25,31,32,22,138,1.6,0.8,1.3*38
2017-11-16 16:51:06 1510869066.638764: $GPGBS,215105,2.07,M,2.72,M,7.42,M*3F
2017-11-16 16:51:07 1510869067.445557: $GPZDA,215106.00,16,11,2017,00,00*64
2017-11-16 16:51:07 1510869067.445718: $GPGGA,215106,3946.9585,N,08404.9829,W,2,12,0.80,307.50,M,-33.324,M,,*7B
2017-11-16 16:51:07 1510869067.445778: $GPRMC,215106,A,3946.9585,N,08404.9829,W,0.0000,0.000,161117,,*34
2017-11-16 16:51:07 1510869067.445834: $GPGSA,A,3,1,10,11,12,14,18,24,25,31,32,22,138,1.6,0.8,1.3*38
2017-11-16 16:51:07 1510869067.445888: $GPGBS,215106,2.07,M,2.72,M,7.42,M*3C
