2017-12-29 10:44:23 1514562263.186004: {"class":"VERSION","release":"3.16","rev":"3.16-4","proto_major":3,"proto_minor":11}
2017-12-29 10:44:23 1514562263.186339: {"class":"DEVICES","devices":[{"class":"DEVICE","path":"/dev/ttyUSB0","driver":"SiRF","subtype":"9\u0006GSD4e_4.1.2-P1_RPATCH.05-F-GPS-4R-1510281 11/03/2015 307","activated":"2017-12-29T15:44:22.967Z","flags":1,"native":1,"bps":4800,"parity":"N","stopbits":1,"cycle":1.00}]}
2017-12-29 10:44:23 1514562263.186453: {"class":"WATCH","enable":true,"json":false,"nmea":true,"raw":0,"scaled":false,"timing":false,"split24":false,"pps":false}
2017-12-29 10:44:23 1514562263.410334: $GPZDA,154424.00,29,12,2017,00,00*68
2017-12-29 10:44:23 1514562263.410513: $GPGGA,154424,3946.9597,N,08404.9811,W,2,11,0.80,303.20,M,-33.324,M,,*70
2017-12-29 10:44:23 1514562263.410579: $GPRMC,154424,A,3946.9597,N,08404.9811,W,0.0000,0.000,291217,,*30
2017-12-29 10:44:23 1514562263.410640: $GPGSA,A,3,10,13,15,18,20,21,24,27,29,32,138,,1.7,0.8,1.3*02
2017-12-29 10:44:24 1514562264.375692: $GPZDA,154425.00,29,12,2017,00,00*69
2017-12-29 10:44:24 1514562264.375861: $GPGGA,154425,3946.9597,N,08404.9811,W,2,11,0.80,303.20,M,-33.324,M,,*71
2017-12-29 10:44:24 1514562264.375927: $GPRMC,154425,A,3946.9597,N,08404.9811,W,0.0000,0.000,291217,,*31
2017-12-29 10:44:24 1514562264.375987: $GPGSA,A,3,10,13,15,18,20,21,24,27,29,32,138,,1.7,0.8,1.3*02
2017-12-29 10:44:25 1514562265.748951: $GPGSV,3,1,11,10,30,289,41,13,20,045,43,15,51,049,50,18,61,312,44*7F
2017-12-29 10:44:25 1514562265.749125: $GPGSV,3,2,11,20,46,081,50,21,77,219,48,24,41,130,50,27,19,304,39*75
2017-12-29 10:44:25 1514562265.749192: $GPGSV,3,3,11,29,03,187,29,32,09,229,34,138,38,213,45*72
2017-12-29 10:44:25 1514562265.862313: $GPZDA,154426.00,29,12,2017,00,00*6A
2017-12-29 10:44:25 1514562265.862437: $GPGGA,154426,3946.9597,N,08404.9811,W,2,11,0.80,303.20,M,-33.324,M,,*72
2017-12-29 10:44:25 1514562265.862501: $GPRMC,154426,A,3946.9597,N,08404.9811,W,0.0000,0.000,291217,,*32
2017-12-29 10:44:25 1514562265.862561: $GPGSA,A,3,10,13,15,18,20,21,24,27,29,32,138,,1.7,0.8,1.3*02
2017-12-29 10:44:26 1514562266.411984: $GPZDA,154427.00,29,12,2017,00,00*6B
2017-12-29 10:44:26 1514562266.412154: $GPGGA,154427,3946.9597,N,08404.9811,W,2,11,0.80,303.20,M,-33.324,M,,*73
2017-12-29 10:44:26 1514562266.412220: $GPRMC,154427,A,3946.9597,N,08404.9811,W,0.0000,0.000,291217,,*33
2017-12-29 10:44:26 1514562266.412281: $GPGSA,A,3,10,13,15,18,20,21,24,27,29,32,138,,1.7,0.8,1.3*02
2017-12-29 10:44:27 1514562267.376556: $GPZDA,154428.00,29,12,2017,00,00*64
2017-12-29 10:44:27 1514562267.376729: $GPGGA,154428,3946.9597,N,08404.9811,W,2,11,0.80,303.20,M,-33.324,M,,*7C
2017-12-29 10:44:27 1514562267.376797: $GPRMC,154428,A,3946.9597,N,08404.9811,W,0.0000,0.000,291217,,*3C
2017-12-29 10:44:27 1514562267.376858: $GPGSA,A,3,10,13,15,18,20,21,24,27,29,32,138,,1.7,0.8,1.3*02
2017-12-29 10:44:28 1514562268.744803: $GPGSV,3,1,11,10,30,289,41,13,20,045,43,15,51,049,50,18,61,312,44*7F
2017-12-29 10:44:28 1514562268.744981: $GPGSV,3,2,11,20,46,081,50,21,77,219,48,24,41,130,50,27,19,304,39*75
2017-12-29 10:44:28 1514562268.745046: $GPGSV,3,3,11,29,03,187,29,32,09,229,34,138,38,213,46*71
2017-12-29 10:44:28 1514562268.858441: $GPZDA,154429.00,29,12,2017,00,00*65
2017-12-29 10:44:28 1514562268.858556: $GPGGA,154429,3946.9597,N,08404.9811,W,2,11,0.80,303.20,M,-33.324,M,,*7D
2017-12-29 10:44:28 1514562268.858619: $GPRMC,154429,A,3946.9597,N,08404.9811,W,0.0000,0.000,291217,,*3D
2017-12-29 10:44:28 1514562268.858678: $GPGSA,A,3,10,13,15,18,20,21,24,27,29,32,138,,1.7,0.8,1.3*02
2017-12-29 10:44:29 1514562269.483843: $GPZDA,154430.00,29,12,2017,00,00*6D
2017-12-29 10:44:29 1514562269.483995: $GPGGA,154430,3946.9597,N,08404.9811,W,2,11,0.80,303.20,M,-33.324,M,,*75
2017-12-29 10:44:29 1514562269.484060: $GPRMC,154430,A,3946.9597,N,08404.9811,W,0.0000,0.000,291217,,*35
2017-12-29 10:44:29 1514562269.484120: $GPGSA,A,3,10,13,15,18,20,21,24,27,29,32,138,,1.7,0.8,1.3*02
2017-12-29 10:44:30 1514562270.378444: $GPZDA,154431.00,29,12,2017,00,00*6C
2017-12-29 10:44:30 1514562270.378611: $GPGGA,154431,3946.9597,N,08404.9811,W,2,11,0.80,303.20,M,-33.324,M,,*74
2017-12-29 10:44:30 1514562270.378731: $GPRMC,154431,A,3946.9597,N,08404.9811,W,0.0000,0.000,291217,,*34
2017-12-29 10:44:30 1514562270.378794: $GPGSA,A,3,10,13,15,18,20,21,24,27,29,32,138,,1.7,0.8,1.3*02
2017-12-29 10:44:31 1514562271.747671: $GPGSV,3,1,11,10,30,289,42,13,20,045,43,15,51,049,50,18,61,312,44*7C
2017-12-29 10:44:31 1514562271.747831: $GPGSV,3,2,11,20,46,081,50,21,77,219,48,24,41,130,50,27,19,304,40*7B
2017-12-29 10:44:31 1514562271.747897: $GPGSV,3,3,11,29,03,187,29,32,09,229,28,138,38,213,45*7F
2017-12-29 10:44:31 1514562271.861322: $GPZDA,154432.00,29,12,2017,00,00*6F
2017-12-29 10:44:31 1514562271.861444: $GPGGA,154432,3946.9597,N,08404.9811,W,2,11,0.80,303.20,M,-33.324,M,,*77
2017-12-29 10:44:31 1514562271.861508: $GPRMC,154432,A,3946.9597,N,08404.9811,W,0.0000,0.000,291217,,*37
2017-12-29 10:44:31 1514562271.861568: $GPGSA,A,3,10,13,15,18,20,21,24,27,29,32,138,,1.7,0.8,1.3*02
2017-12-29 10:44:32 1514562272.377185: $GPZDA,154433.00,29,12,2017,00,00*6E
2017-12-29 10:44:32 1514562272.377351: $GPGGA,154433,3946.9597,N,08404.9811,W,2,11,0.80,303.20,M,-33.324,M,,*76
2017-12-29 10:44:32 1514562272.377418: $GPRMC,154433,A,3946.9597,N,08404.9811,W,0.0000,0.000,291217,,*36
2017-12-29 10:44:32 1514562272.377479: $GPGSA,A,3,10,13,15,18,20,21,24,27,29,32,138,,1.7,0.8,1.3*02
