2017-12-01 16:13:54 1512162834.076859: {"class":"VERSION","release":"3.16","rev":"3.16-4","proto_major":3,"proto_minor":11}
2017-12-01 16:13:54 1512162834.077289: {"class":"DEVICES","devices":[{"class":"DEVICE","path":"/dev/ttyUSB0","driver":"SiRF","subtype":"9\u0006GSD4e_4.1.2-P1_RPATCH.05-F-GPS-4R-1510281 11/03/2015 307","activated":"2017-12-01T21:13:53.972Z","flags":1,"native":1,"bps":4800,"parity":"N","stopbits":1,"cycle":1.00}]}
2017-12-01 16:13:54 1512162834.077518: {"class":"WATCH","enable":true,"json":false,"nmea":true,"raw":0,"scaled":false,"timing":false,"split24":false,"pps":false}
2017-12-01 16:13:54 1512162834.381678: $GPZDA,211355.00,01,12,2017,00,00*61
2017-12-01 16:13:54 1512162834.381853: $GPGGA,211355,3946.9599,N,08404.9827,W,2,12,0.80,305.85,M,-33.324,M,,*72
2017-12-01 16:13:54 1512162834.381923: $GPRMC,211355,A,3946.9599,N,08404.9827,W,0.0000,0.000,011217,,*32
2017-12-01 16:13:54 1512162834.381984: $GPGSA,A,3,1,10,12,14,18,22,25,31,32,11,24,138,2.0,0.8,1.5*3B
2017-12-01 16:13:55 1512162835.382202: $GPZDA,211356.00,01,12,2017,00,00*62
2017-12-01 16:13:55 1512162835.382395: $GPGGA,211356,3946.9599,N,08404.9827,W,2,12,0.80,305.85,M,-33.324,M,,*71
2017-12-01 16:13:55 1512162835.382463: $GPRMC,211356,A,3946.9599,N,08404.9827,W,0.0000,0.000,011217,,*31
2017-12-01 16:13:55 1512162835.382542: $GPGSA,A,3,1,10,12,14,18,22,25,31,32,11,24,138,2.0,0.8,1.5*3B
2017-12-01 16:13:56 1512162836.716505: $GPGSV,3,1,12,01,20,307,33,10,56,144,48,12,24,057,45,14,62,312,44*77
2017-12-01 16:13:56 1512162836.716686: $GPGSV,3,2,12,18,25,141,45,22,13,312,36,25,37,100,46,31,48,219,49*7E
2017-12-01 16:13:56 1512162836.716751: $GPGSV,3,3,12,32,70,007,46,11,10,289,34,24,03,048,15,138,38,213,46*42
2017-12-01 16:13:56 1512162836.829903: $GPZDA,211357.00,01,12,2017,00,00*63
2017-12-01 16:13:56 1512162836.830051: $GPGGA,211357,3946.9599,N,08404.9827,W,2,12,0.80,305.85,M,-33.324,M,,*70
2017-12-01 16:13:56 1512162836.830118: $GPRMC,211357,A,3946.9599,N,08404.9827,W,0.0000,0.000,011217,,*30
2017-12-01 16:13:56 1512162836.830179: $GPGSA,A,3,1,10,12,14,18,22,25,31,32,11,24,138,2.0,0.8,1.5*3B
2017-12-01 16:13:57 1512162837.385756: $GPZDA,211358.00,01,12,2017,00,00*6C
2017-12-01 16:13:57 1512162837.385930: $GPGGA,211358,3946.9599,N,08404.9827,W,2,12,0.80,305.85,M,-33.324,M,,*7F
2017-12-01 16:13:57 1512162837.385998: $GPRMC,211358,A,3946.9599,N,08404.9827,W,0.0000,0.000,011217,,*3F
2017-12-01 16:13:57 1512162837.386060: $GPGSA,A,3,1,10,12,14,18,22,25,31,32,11,24,138,2.0,0.8,1.5*3B
2017-12-01 16:13:58 1512162838.385817: $GPZDA,211359.00,01,12,2017,00,00*6D
2017-12-01 16:13:58 1512162838.386001: $GPGGA,211359,3946.9599,N,08404.9827,W,2,12,0.80,305.85,M,-33.324,M,,*7E
2017-12-01 16:13:58 1512162838.386069: $GPRMC,211359,A,3946.9599,N,08404.9827,W,0.0000,0.000,011217,,*3E
2017-12-01 16:13:58 1512162838.386132: $GPGSA,A,3,1,10,12,14,18,22,25,31,32,11,24,138,2.0,0.8,1.5*3B
2017-12-01 16:13:59 1512162839.722385: $GPGSV,3,1,12,01,20,307,33,10,56,144,48,12,24,057,45,14,62,312,44*77
2017-12-01 16:13:59 1512162839.722585: $GPGSV,3,2,12,18,25,141,44,22,13,312,30,25,37,100,45,31,48,219,49*7A
2017-12-01 16:13:59 1512162839.722654: $GPGSV,3,3,12,32,70,007,46,11,10,289,34,24,03,048,17,138,38,213,46*40
2017-12-01 16:13:59 1512162839.835837: $GPZDA,211400.00,01,12,2017,00,00*66
2017-12-01 16:13:59 1512162839.836012: $GPGGA,211400,3946.9599,N,08404.9827,W,2,11,0.80,305.85,M,-33.324,M,,*76
2017-12-01 16:13:59 1512162839.836080: $GPRMC,211400,A,3946.9599,N,08404.9827,W,0.0000,0.000,011217,,*35
2017-12-01 16:13:59 1512162839.836140: $GPGSA,A,3,1,10,12,14,18,22,25,31,32,11,138,,2.0,0.8,1.5*3D
2017-12-01 16:14:00 1512162840.461091: $GPZDA,211401.00,01,12,2017,00,00*67
2017-12-01 16:14:00 1512162840.461263: $GPGGA,211401,3946.9599,N,08404.9827,W,2,11,0.80,305.85,M,-33.324,M,,*77
2017-12-01 16:14:00 1512162840.461332: $GPRMC,211401,A,3946.9599,N,08404.9827,W,0.0000,0.000,011217,,*34
2017-12-01 16:14:00 1512162840.461503: $GPGSA,A,3,1,10,12,14,18,22,25,31,32,11,138,,2.0,0.8,1.5*3D
2017-12-01 16:14:01 1512162841.386971: $GPZDA,211402.00,01,12,2017,00,00*64
2017-12-01 16:14:01 1512162841.387192: $GPGGA,211402,3946.9599,N,08404.9827,W,2,11,0.80,305.85,M,-33.324,M,,*74
2017-12-01 16:14:01 1512162841.387261: $GPRMC,211402,A,3946.9599,N,08404.9827,W,0.0000,0.000,011217,,*37
2017-12-01 16:14:01 1512162841.387360: $GPGSA,A,3,1,10,12,14,18,22,25,31,32,11,138,,2.0,0.8,1.5*3D
2017-12-01 16:14:02 1512162842.721579: $GPGSV,3,1,12,01,20,307,33,10,56,144,48,12,24,057,45,14,62,312,44*77
2017-12-01 16:14:02 1512162842.721762: $GPGSV,3,2,12,18,25,141,44,22,13,312,32,25,37,100,45,31,48,219,49*78
2017-12-01 16:14:02 1512162842.721831: $GPGSV,3,3,12,32,70,007,46,11,10,289,31,24,03,048,00,138,38,213,46*43
2017-12-01 16:14:02 1512162842.833949: $GPZDA,211403.00,01,12,2017,00,00*65
2017-12-01 16:14:02 1512162842.834088: $GPGGA,211403,3946.9599,N,08404.9827,W,2,11,0.80,305.85,M,-33.324,M,,*75
2017-12-01 16:14:02 1512162842.834155: $GPRMC,211403,A,3946.9599,N,08404.9827,W,0.0000,0.000,011217,,*36
2017-12-01 16:14:02 1512162842.834216: $GPGSA,A,3,1,10,12,14,18,22,25,31,32,11,138,,2.0,0.8,1.5*3D
2017-12-01 16:14:03 1512162843.387200: $GPZDA,211404.00,01,12,2017,00,00*62
2017-12-01 16:14:03 1512162843.387393: $GPGGA,211404,3946.9599,N,08404.9827,W,2,11,0.80,305.85,M,-33.324,M,,*72
2017-12-01 16:14:03 1512162843.387461: $GPRMC,211404,A,3946.9599,N,08404.9827,W,0.0000,0.000,011217,,*31
2017-12-01 16:14:03 1512162843.387542: $GPGSA,A,3,1,10,12,14,18,22,25,31,32,11,138,,2.0,0.8,1.5*3D
2017-12-01 16:14:04 1512162844.386602: $GPZDA,211405.00,01,12,2017,00,00*63
2017-12-01 16:14:04 1512162844.386786: $GPGGA,211405,3946.9599,N,08404.9827,W,2,11,0.80,305.85,M,-33.324,M,,*73
2017-12-01 16:14:04 1512162844.386876: $GPRMC,211405,A,3946.9599,N,08404.9827,W,0.0000,0.000,011217,,*30
2017-12-01 16:14:04 1512162844.386940: $GPGSA,A,3,1,10,12,14,18,22,25,31,32,11,138,,2.0,0.8,1.5*3D
2017-12-01 16:14:05 1512162845.721829: $GPGSV,3,1,12,01,20,307,33,10,56,144,48,12,24,057,45,14,62,312,44*77
2017-12-01 16:14:05 1512162845.722007: $GPGSV,3,2,12,18,25,141,44,22,13,312,32,25,37,100,46,31,48,219,49*7B
2017-12-01 16:14:05 1512162845.722073: $GPGSV,3,3,12,32,70,007,46,11,10,289,31,24,03,048,00,138,38,213,45*40
2017-12-01 16:14:05 1512162845.835219: $GPZDA,211406.00,01,12,2017,00,00*60
2017-12-01 16:14:05 1512162845.835413: $GPGGA,211406,3946.9599,N,08404.9827,W,2,11,0.80,305.85,M,-33.324,M,,*70
2017-12-01 16:14:05 1512162845.835499: $GPRMC,211406,A,3946.9599,N,08404.9827,W,0.0000,0.000,011217,,*33
2017-12-01 16:14:05 1512162845.835562: $GPGSA,A,3,1,10,12,14,18,22,25,31,32,11,138,,2.0,0.8,1.5*3D
2017-12-01 16:14:06 1512162846.382514: $GPZDA,211407.00,01,12,2017,00,00*61
2017-12-01 16:14:06 1512162846.382802: $GPGGA,211407,3946.9599,N,08404.9827,W,2,11,0.80,305.85,M,-33.324,M,,*71
2017-12-01 16:14:06 1512162846.383933: $GPRMC,211407,A,3946.9599,N,08404.9827,W,0.0000,0.000,011217,,*32
2017-12-01 16:14:06 1512162846.384041: $GPGSA,A,3,1,10,12,14,18,22,25,31,32,11,138,,2.0,0.8,1.5*3D
2017-12-01 16:14:07 1512162847.386905: $GPZDA,211408.00,01,12,2017,00,00*6E
2017-12-01 16:14:07 1512162847.387080: $GPGGA,211408,3946.9599,N,08404.9827,W,2,11,0.80,305.85,M,-33.324,M,,*7E
2017-12-01 16:14:07 1512162847.387147: $GPRMC,211408,A,3946.9599,N,08404.9827,W,0.0000,0.000,011217,,*3D
2017-12-01 16:14:07 1512162847.387209: $GPGSA,A,3,1,10,12,14,18,22,25,31,32,11,138,,2.0,0.8,1.5*3D
2017-12-01 16:14:08 1512162848.717734: $GPGSV,3,1,12,01,20,307,33,10,56,144,48,12,24,057,45,14,62,312,44*77
2017-12-01 16:14:08 1512162848.717931: $GPGSV,3,2,12,18,25,141,44,22,13,312,32,25,37,100,46,31,48,219,49*7B
2017-12-01 16:14:08 1512162848.717997: $GPGSV,3,3,12,32,70,007,46,11,10,289,33,24,03,048,00,138,38,213,46*41
2017-12-01 16:14:08 1512162848.831075: $GPZDA,211409.00,01,12,2017,00,00*6F
2017-12-01 16:14:08 1512162848.831244: $GPGGA,211409,3946.9599,N,08404.9827,W,2,11,0.80,305.85,M,-33.324,M,,*7F
2017-12-01 16:14:08 1512162848.831313: $GPRMC,211409,A,3946.9599,N,08404.9827,W,0.0000,0.000,011217,,*3C
2017-12-01 16:14:08 1512162848.831437: $GPGSA,A,3,1,10,12,14,18,22,25,31,32,11,138,,2.0,0.8,1.5*3D
2017-12-01 16:14:09 1512162849.387197: $GPZDA,211410.00,01,12,2017,00,00*67
2017-12-01 16:14:09 1512162849.387417: $GPGGA,211410,3946.9599,N,08404.9827,W,2,11,0.80,305.85,M,-33.324,M,,*77
2017-12-01 16:14:09 1512162849.387508: $GPRMC,211410,A,3946.9599,N,08404.9827,W,0.0000,0.000,011217,,*34
2017-12-01 16:14:09 1512162849.387572: $GPGSA,A,3,1,10,12,14,18,22,25,31,32,11,138,,2.0,0.8,1.5*3D
2017-12-01 16:14:10 1512162850.385066: $GPZDA,211411.00,01,12,2017,00,00*66
2017-12-01 16:14:10 1512162850.385239: $GPGGA,211411,3946.9599,N,08404.9827,W,2,11,0.80,305.85,M,-33.324,M,,*76
2017-12-01 16:14:10 1512162850.385306: $GPRMC,211411,A,3946.9599,N,08404.9827,W,0.0000,0.000,011217,,*35
2017-12-01 16:14:10 1512162850.385368: $GPGSA,A,3,1,10,12,14,18,22,25,31,32,11,138,,2.0,0.8,1.5*3D
2017-12-01 16:14:11 1512162851.721796: $GPGSV,3,1,12,01,20,307,34,10,56,144,48,12,24,057,45,14,62,312,44*70
2017-12-01 16:14:11 1512162851.721981: $GPGSV,3,2,12,18,25,141,44,22,13,312,33,25,37,100,46,31,48,219,50*72
2017-12-01 16:14:11 1512162851.722048: $GPGSV,3,3,12,32,70,007,46,11,10,289,33,24,03,048,00,138,38,213,46*41
2017-12-01 16:14:11 1512162851.835436: $GPZDA,211412.00,01,12,2017,00,00*65
2017-12-01 16:14:11 1512162851.835603: $GPGGA,211412,3946.9599,N,08404.9827,W,2,11,0.80,305.85,M,-33.324,M,,*75
2017-12-01 16:14:11 1512162851.835670: $GPRMC,211412,A,3946.9599,N,08404.9827,W,0.0000,0.000,011217,,*36
2017-12-01 16:14:11 1512162851.835751: $GPGSA,A,3,1,10,12,14,18,22,25,31,32,11,138,,2.0,0.8,1.5*3D
2017-12-01 16:14:12 1512162852.382719: $GPZDA,211413.00,01,12,2017,00,00*64
2017-12-01 16:14:12 1512162852.382897: $GPGGA,211413,3946.9599,N,08404.9827,W,2,11,0.80,305.85,M,-33.324,M,,*74
2017-12-01 16:14:12 1512162852.382965: $GPRMC,211413,A,3946.9599,N,08404.9827,W,0.0000,0.000,011217,,*37
2017-12-01 16:14:12 1512162852.383027: $GPGSA,A,3,1,10,12,14,18,22,25,31,32,11,138,,2.0,0.8,1.5*3D
2017-12-01 16:14:13 1512162853.388144: $GPZDA,211414.00,01,12,2017,00,00*63
2017-12-01 16:14:13 1512162853.388321: $GPGGA,211414,3946.9599,N,08404.9827,W,2,11,0.80,305.85,M,-33.324,M,,*73
2017-12-01 16:14:13 1512162853.388389: $GPRMC,211414,A,3946.9599,N,08404.9827,W,0.0000,0.000,011217,,*30
2017-12-01 16:14:13 1512162853.388450: $GPGSA,A,3,1,10,12,14,18,22,25,31,32,11,138,,2.0,0.8,1.5*3D
