2017-12-29 10:41:03 1514562063.576229: {"class":"VERSION","release":"3.16","rev":"3.16-4","proto_major":3,"proto_minor":11}
2017-12-29 10:41:03 1514562063.576586: {"class":"DEVICES","devices":[{"class":"DEVICE","path":"/dev/ttyUSB0","driver":"SiRF","subtype":"9\u0006GSD4e_4.1.2-P1_RPATCH.05-F-GPS-4R-1510281 11/03/2015 307","activated":"2017-12-29T15:41:03.237Z","flags":1,"native":1,"bps":4800,"parity":"N","stopbits":1,"cycle":1.00}]}
2017-12-29 10:41:03 1514562063.576704: {"class":"WATCH","enable":true,"json":false,"nmea":true,"raw":0,"scaled":false,"timing":false,"split24":false,"pps":false}
2017-12-29 10:41:03 1514562063.686174: $GPGSV,3,1,11,10,29,289,44,13,21,045,44,15,52,049,51,18,61,310,44*74
2017-12-29 10:41:03 1514562063.686351: $GPGSV,3,2,11,20,47,081,48,21,78,225,47,24,40,130,48,29,04,187,33*7B
2017-12-29 10:41:03 1514562063.686416: $GPGSV,3,3,11,27,18,306,32,32,08,229,30,138,38,213,45*72
2017-12-29 10:41:03 1514562063.799506: $GPZDA,154104.00,29,12,2017,00,00*6F
2017-12-29 10:41:03 1514562063.799650: $GPGGA,154104,3946.9593,N,08404.9833,W,2,11,0.80,291.65,M,-33.324,M,,*78
2017-12-29 10:41:03 1514562063.799715: $GPRMC,154104,A,3946.9593,N,08404.9833,W,0.0000,0.000,291217,,*33
2017-12-29 10:41:03 1514562063.799774: $GPGSA,A,3,10,13,15,18,20,21,24,29,27,32,138,,1.7,0.8,1.3*02
2017-12-29 10:41:04 1514562064.355402: $GPZDA,154105.00,29,12,2017,00,00*6E
2017-12-29 10:41:04 1514562064.355557: $GPGGA,154105,3946.9593,N,08404.9833,W,2,11,0.80,291.65,M,-33.324,M,,*79
2017-12-29 10:41:04 1514562064.355623: $GPRMC,154105,A,3946.9593,N,08404.9833,W,0.0000,0.000,291217,,*32
2017-12-29 10:41:04 1514562064.355683: $GPGSA,A,3,10,13,15,18,20,21,24,29,27,32,138,,1.7,0.8,1.3*02
2017-12-29 10:41:05 1514562065.351329: $GPZDA,154106.00,29,12,2017,00,00*6D
2017-12-29 10:41:05 1514562065.351501: $GPGGA,154106,3946.9597,N,08404.9833,W,2,11,0.80,292.29,M,-33.324,M,,*75
2017-12-29 10:41:05 1514562065.351569: $GPRMC,154106,A,3946.9597,N,08404.9833,W,0.0000,0.000,291217,,*35
2017-12-29 10:41:05 1514562065.351630: $GPGSA,A,3,10,13,15,18,20,21,24,29,27,32,138,,1.7,0.8,1.3*02
2017-12-29 10:41:06 1514562066.692011: $GPGSV,3,1,11,10,29,289,44,13,21,045,44,15,52,049,51,18,61,310,44*74
2017-12-29 10:41:06 1514562066.692185: $GPGSV,3,2,11,20,47,081,48,21,78,225,47,24,40,130,48,29,04,187,33*7B
2017-12-29 10:41:06 1514562066.692252: $GPGSV,3,3,11,27,18,306,32,32,08,229,31,138,38,213,44*72
2017-12-29 10:41:06 1514562066.805348: $GPZDA,154107.00,29,12,2017,00,00*6C
2017-12-29 10:41:06 1514562066.805476: $GPGGA,154107,3946.9597,N,08404.9833,W,2,11,0.80,292.29,M,-33.324,M,,*74
2017-12-29 10:41:06 1514562066.805540: $GPRMC,154107,A,3946.9597,N,08404.9833,W,0.0000,0.000,291217,,*34
2017-12-29 10:41:06 1514562066.805600: $GPGSA,A,3,10,13,15,18,20,21,24,29,27,32,138,,1.7,0.8,1.3*02
2017-12-29 10:41:07 1514562067.432001: $GPZDA,154108.00,29,12,2017,00,00*63
2017-12-29 10:41:07 1514562067.432141: $GPGGA,154108,3946.9597,N,08404.9833,W,2,11,0.80,292.29,M,-33.324,M,,*7B
2017-12-29 10:41:07 1514562067.432206: $GPRMC,154108,A,3946.9597,N,08404.9833,W,0.0000,0.000,291217,,*3B
2017-12-29 10:41:07 1514562067.432266: $GPGSA,A,3,10,13,15,18,20,21,24,29,27,32,138,,1.7,0.8,1.3*02
2017-12-29 10:41:08 1514562068.355378: $GPZDA,154109.00,29,12,2017,00,00*62
2017-12-29 10:41:08 1514562068.355541: $GPGGA,154109,3946.9597,N,08404.9833,W,2,11,0.80,292.29,M,-33.324,M,,*7A
2017-12-29 10:41:08 1514562068.355607: $GPRMC,154109,A,3946.9597,N,08404.9833,W,0.0000,0.000,291217,,*3A
2017-12-29 10:41:08 1514562068.355667: $GPGSA,A,3,10,13,15,18,20,21,24,29,27,32,138,,1.7,0.8,1.3*02
2017-12-29 10:41:09 1514562069.692425: $GPGSV,3,1,11,10,29,289,45,13,21,045,44,15,52,049,51,18,61,310,44*75
2017-12-29 10:41:09 1514562069.692603: $GPGSV,3,2,11,20,47,081,48,21,78,225,47,24,40,130,48,29,04,187,32*7A
2017-12-29 10:41:09 1514562069.692669: $GPGSV,3,3,11,27,18,306,35,32,08,229,30,138,38,213,45*75
2017-12-29 10:41:09 1514562069.804565: $GPZDA,154110.00,29,12,2017,00,00*6A
2017-12-29 10:41:09 1514562069.804723: $GPGGA,154110,3946.9597,N,08404.9833,W,2,11,0.80,292.29,M,-33.324,M,,*72
2017-12-29 10:41:09 1514562069.804843: $GPRMC,154110,A,3946.9597,N,08404.9833,W,0.0000,0.000,291217,,*32
2017-12-29 10:41:09 1514562069.804906: $GPGSA,A,3,10,13,15,18,20,21,24,29,27,32,138,,1.7,0.8,1.3*02
2017-12-29 10:41:10 1514562070.355383: $GPZDA,154111.00,29,12,2017,00,00*6B
2017-12-29 10:41:10 1514562070.355551: $GPGGA,154111,3946.9597,N,08404.9826,W,2,11,0.80,292.37,M,-33.324,M,,*78
2017-12-29 10:41:10 1514562070.355617: $GPRMC,154111,A,3946.9597,N,08404.9826,W,0.0000,0.000,291217,,*37
2017-12-29 10:41:10 1514562070.355677: $GPGSA,A,3,10,13,15,18,20,21,24,29,27,32,138,,1.7,0.8,1.3*02
2017-12-29 10:41:11 1514562071.350017: $GPZDA,154112.00,29,12,2017,00,00*68
2017-12-29 10:41:11 1514562071.350181: $GPGGA,154112,3946.9597,N,08404.9826,W,2,11,0.80,292.37,M,-33.324,M,,*7B
2017-12-29 10:41:11 1514562071.350248: $GPRMC,154112,A,3946.9597,N,08404.9826,W,0.0000,0.000,291217,,*34
2017-12-29 10:41:11 1514562071.350308: $GPGSA,A,3,10,13,15,18,20,21,24,29,27,32,138,,1.7,0.8,1.3*02
2017-12-29 10:41:12 1514562072.691579: $GPGSV,3,1,11,10,29,289,44,13,21,045,44,15,52,049,51,18,61,310,44*74
2017-12-29 10:41:12 1514562072.691754: $GPGSV,3,2,11,20,47,081,48,21,78,225,47,24,40,130,49,29,04,187,32*7B
2017-12-29 10:41:12 1514562072.691821: $GPGSV,3,3,11,27,18,306,36,32,08,229,24,138,38,213,45*73
2017-12-29 10:41:12 1514562072.804853: $GPZDA,154113.00,29,12,2017,00,00*69
2017-12-29 10:41:12 1514562072.805037: $GPGGA,154113,3946.9597,N,08404.9826,W,2,11,0.80,292.37,M,-33.324,M,,*7A
2017-12-29 10:41:12 1514562072.805123: $GPRMC,154113,A,3946.9597,N,08404.9826,W,0.0000,0.000,291217,,*35
2017-12-29 10:41:12 1514562072.805187: $GPGSA,A,3,10,13,15,18,20,21,24,29,27,32,138,,1.7,0.8,1.3*02
2017-12-29 10:41:13 1514562073.356985: $GPZDA,154114.00,29,12,2017,00,00*6E
2017-12-29 10:41:13 1514562073.357142: $GPGGA,154114,3946.9597,N,08404.9826,W,2,11,0.80,292.37,M,-33.324,M,,*7D
2017-12-29 10:41:13 1514562073.357208: $GPRMC,154114,A,3946.9597,N,08404.9826,W,0.0000,0.000,291217,,*32
2017-12-29 10:41:13 1514562073.357269: $GPGSA,A,3,10,13,15,18,20,21,24,29,27,32,138,,1.7,0.8,1.3*02
