2017-11-16 13:22:41 1510856561.419681: {"class":"VERSION","release":"3.17","rev":"3.17","proto_major":3,"proto_minor":12}
2017-11-16 13:22:41 1510856561.420114: {"class":"DEVICES","devices":[{"class":"DEVICE","path":"/dev/ttyUSB0","driver":"SiRF","subtype":"9\u0006GSD4e_4.1.2-P1_RPATCH.05-F-GPS-4R-1510281 11/03/2015 307","activated":"2017-11-16T18:22:41.398Z","flags":1,"native":1,"bps":4800,"parity":"N","stopbits":1,"cycle":1.00}]}
2017-11-16 13:22:41 1510856561.420229: {"class":"WATCH","enable":true,"json":false,"nmea":true,"raw":0,"scaled":false,"timing":false,"split24":false,"pps":false}
2017-11-16 13:22:42 1510856562.624812: $GPGSV,3,1,12,10,24,283,45,13,28,045,46,15,59,051,50,18,55,301,46*7C
2017-11-16 13:22:42 1510856562.624986: $GPGSV,3,2,12,20,50,073,47,21,78,264,46,24,35,138,38,27,17,312,41*72
2017-11-16 13:22:42 1510856562.625047: $GPGSV,3,3,12,05,03,088,00,29,08,189,32,32,02,226,21,138,38,213,46*4B
2017-11-16 13:22:42 1510856562.738109: $GPZDA,182241.00,16,11,2017,00,00*69
2017-11-16 13:22:42 1510856562.738275: $GPGGA,182241,3946.9610,N,08404.9852,W,2,11,0.80,301.84,M,-33.324,M,,*79
2017-11-16 13:22:42 1510856562.738337: $GPRMC,182241,A,3946.9610,N,08404.9852,W,0.0000,0.000,161117,,*3A
2017-11-16 13:22:42 1510856562.738394: $GPGSA,A,3,10,13,15,18,20,21,24,27,29,32,138,,1.6,0.8,1.3*03
2017-11-16 13:22:43 1510856563.299298: $GPZDA,182242.00,16,11,2017,00,00*6A
2017-11-16 13:22:43 1510856563.299468: $GPGGA,182242,3946.9610,N,08404.9852,W,2,11,0.80,301.84,M,-33.324,M,,*7A
2017-11-16 13:22:43 1510856563.299532: $GPRMC,182242,A,3946.9610,N,08404.9852,W,0.0000,0.000,161117,,*39
2017-11-16 13:22:43 1510856563.299589: $GPGSA,A,3,10,13,15,18,20,21,24,27,29,32,138,,1.6,0.8,1.3*03
2017-11-16 13:22:44 1510856564.276481: $GPZDA,182243.00,16,11,2017,00,00*6B
2017-11-16 13:22:44 1510856564.276643: $GPGGA,182243,3946.9610,N,08404.9852,W,2,11,0.80,301.84,M,-33.324,M,,*7B
2017-11-16 13:22:44 1510856564.276704: $GPRMC,182243,A,3946.9610,N,08404.9852,W,0.0000,0.000,161117,,*38
2017-11-16 13:22:44 1510856564.276760: $GPGSA,A,3,10,13,15,18,20,21,24,27,29,32,138,,1.6,0.8,1.3*03
2017-11-16 13:22:45 1510856565.637559: $GPGSV,3,1,12,10,24,283,46,13,28,045,46,15,59,051,50,18,55,301,46*7F
2017-11-16 13:22:45 1510856565.637734: $GPGSV,3,2,12,20,50,073,48,21,78,264,46,24,35,138,38,27,17,312,40*7C
2017-11-16 13:22:45 1510856565.637795: $GPGSV,3,3,12,05,03,088,00,29,08,189,34,32,02,226,21,138,38,213,45*4E
2017-11-16 13:22:45 1510856565.751263: $GPZDA,182244.00,16,11,2017,00,00*6C
2017-11-16 13:22:45 1510856565.751425: $GPGGA,182244,3946.9610,N,08404.9852,W,2,11,0.80,301.84,M,-33.324,M,,*7C
2017-11-16 13:22:45 1510856565.751486: $GPRMC,182244,A,3946.9610,N,08404.9852,W,0.0000,0.000,161117,,*3F
2017-11-16 13:22:45 1510856565.751542: $GPGSA,A,3,10,13,15,18,20,21,24,27,29,32,138,,1.6,0.8,1.3*03
2017-11-16 13:22:46 1510856566.283188: $GPZDA,182245.00,16,11,2017,00,00*6D
2017-11-16 13:22:46 1510856566.283360: $GPGGA,182245,3946.9610,N,08404.9852,W,2,11,0.80,301.84,M,-33.324,M,,*7D
2017-11-16 13:22:46 1510856566.283423: $GPRMC,182245,A,3946.9610,N,08404.9852,W,0.0000,0.000,161117,,*3E
2017-11-16 13:22:46 1510856566.283479: $GPGSA,A,3,10,13,15,18,20,21,24,27,29,32,138,,1.6,0.8,1.3*03
2017-11-16 13:22:47 1510856567.302526: $GPZDA,182246.00,16,11,2017,00,00*6E
2017-11-16 13:22:47 1510856567.302680: $GPGGA,182246,3946.9610,N,08404.9852,W,2,11,0.80,301.84,M,-33.324,M,,*7E
2017-11-16 13:22:47 1510856567.302741: $GPRMC,182246,A,3946.9610,N,08404.9852,W,0.0000,0.000,161117,,*3D
2017-11-16 13:22:47 1510856567.302797: $GPGSA,A,3,10,13,15,18,20,21,24,27,29,32,138,,1.6,0.8,1.3*03
2017-11-16 13:22:48 1510856568.637036: $GPGSV,3,1,12,10,24,283,46,13,28,045,46,15,59,051,50,18,55,301,47*7E
2017-11-16 13:22:48 1510856568.637203: $GPGSV,3,2,12,20,50,073,48,21,78,264,47,24,35,138,38,27,17,312,39*73
2017-11-16 13:22:48 1510856568.637263: $GPGSV,3,3,12,05,03,088,00,29,08,189,34,32,02,226,21,138,38,213,44*4F
2017-11-16 13:22:48 1510856568.750325: $GPZDA,182247.00,16,11,2017,00,00*6F
2017-11-16 13:22:48 1510856568.750484: $GPGGA,182247,3946.9610,N,08404.9852,W,2,11,0.80,301.84,M,-33.324,M,,*7F
2017-11-16 13:22:48 1510856568.750596: $GPRMC,182247,A,3946.9610,N,08404.9852,W,0.0000,0.000,161117,,*3C
2017-11-16 13:22:48 1510856568.750654: $GPGSA,A,3,10,13,15,18,20,21,24,27,29,32,138,,1.6,0.8,1.3*03
2017-11-16 13:22:49 1510856569.303698: $GPZDA,182248.00,16,11,2017,00,00*60
2017-11-16 13:22:49 1510856569.303861: $GPGGA,182248,3946.9610,N,08404.9852,W,2,11,0.80,301.84,M,-33.324,M,,*70
2017-11-16 13:22:49 1510856569.303922: $GPRMC,182248,A,3946.9610,N,08404.9852,W,0.0000,0.000,161117,,*33
2017-11-16 13:22:49 1510856569.303977: $GPGSA,A,3,10,13,15,18,20,21,24,27,29,32,138,,1.6,0.8,1.3*03
2017-11-16 13:22:50 1510856570.282762: $GPZDA,182249.00,16,11,2017,00,00*61
2017-11-16 13:22:50 1510856570.282923: $GPGGA,182249,3946.9610,N,08404.9852,W,2,11,0.80,301.84,M,-33.324,M,,*71
2017-11-16 13:22:50 1510856570.282983: $GPRMC,182249,A,3946.9610,N,08404.9852,W,0.0000,0.000,161117,,*32
2017-11-16 13:22:50 1510856570.283039: $GPGSA,A,3,10,13,15,18,20,21,24,27,29,32,138,,1.6,0.8,1.3*03
2017-11-16 13:22:51 1510856571.618511: $GPGSV,3,1,12,10,24,283,45,13,28,045,46,15,59,051,51,18,55,301,47*7C
2017-11-16 13:22:51 1510856571.618687: $GPGSV,3,2,12,20,50,073,47,21,78,264,46,24,35,138,38,27,17,312,38*7C
2017-11-16 13:22:51 1510856571.618747: $GPGSV,3,3,12,05,03,088,00,29,08,189,34,32,02,226,21,138,38,213,44*4F
2017-11-16 13:22:51 1510856571.731798: $GPZDA,182250.00,16,11,2017,00,00*69
2017-11-16 13:22:51 1510856571.731966: $GPGGA,182250,3946.9610,N,08404.9852,W,2,11,0.80,301.84,M,-33.324,M,,*79
2017-11-16 13:22:51 1510856571.732028: $GPRMC,182250,A,3946.9610,N,08404.9852,W,0.0000,0.000,161117,,*3A
2017-11-16 13:22:51 1510856571.732083: $GPGSA,A,3,10,13,15,18,20,21,24,27,29,32,138,,1.6,0.8,1.3*03
2017-11-16 13:22:52 1510856572.283931: $GPZDA,182251.00,16,11,2017,00,00*68
2017-11-16 13:22:52 1510856572.284100: $GPGGA,182251,3946.9610,N,08404.9852,W,2,11,0.80,301.84,M,-33.324,M,,*78
2017-11-16 13:22:52 1510856572.284161: $GPRMC,182251,A,3946.9610,N,08404.9852,W,0.0000,0.000,161117,,*3B
2017-11-16 13:22:52 1510856572.284217: $GPGSA,A,3,10,13,15,18,20,21,24,27,29,32,138,,1.6,0.8,1.3*03
2017-11-16 13:22:53 1510856573.282409: $GPZDA,182252.00,16,11,2017,00,00*6B
2017-11-16 13:22:53 1510856573.282616: $GPGGA,182252,3946.9610,N,08404.9852,W,2,11,0.80,301.84,M,-33.324,M,,*7B
2017-11-16 13:22:53 1510856573.282699: $GPRMC,182252,A,3946.9610,N,08404.9852,W,0.0000,0.000,161117,,*38
2017-11-16 13:22:53 1510856573.282758: $GPGSA,A,3,10,13,15,18,20,21,24,27,29,32,138,,1.6,0.8,1.3*03
2017-11-16 13:22:54 1510856574.637995: $GPGSV,3,1,12,10,24,283,45,13,28,045,46,15,59,051,51,18,55,301,47*7C
2017-11-16 13:22:54 1510856574.638165: $GPGSV,3,2,12,20,50,073,48,21,78,264,46,24,35,138,39,27,17,312,38*72
2017-11-16 13:22:54 1510856574.638242: $GPGSV,3,3,12,05,03,088,00,29,08,189,34,32,02,226,21,138,38,213,45*4E
2017-11-16 13:22:54 1510856574.752611: $GPZDA,182253.00,16,11,2017,00,00*6A
2017-11-16 13:22:54 1510856574.752774: $GPGGA,182253,3946.9610,N,08404.9852,W,2,11,0.80,301.84,M,-33.324,M,,*7A
2017-11-16 13:22:54 1510856574.752835: $GPRMC,182253,A,3946.9610,N,08404.9852,W,0.0000,0.000,161117,,*39
2017-11-16 13:22:54 1510856574.752890: $GPGSA,A,3,10,13,15,18,20,21,24,27,29,32,138,,1.6,0.8,1.3*03
2017-11-16 13:22:55 1510856575.378000: $GPZDA,182254.00,16,11,2017,00,00*6D
2017-11-16 13:22:55 1510856575.378161: $GPGGA,182254,3946.9610,N,08404.9852,W,2,11,0.80,301.84,M,-33.324,M,,*7D
2017-11-16 13:22:55 1510856575.378243: $GPRMC,182254,A,3946.9610,N,08404.9852,W,0.0000,0.000,161117,,*3E
2017-11-16 13:22:55 1510856575.378301: $GPGSA,A,3,10,13,15,18,20,21,24,27,29,32,138,,1.6,0.8,1.3*03
2017-11-16 13:22:56 1510856576.283738: $GPZDA,182255.00,16,11,2017,00,00*6C
2017-11-16 13:22:56 1510856576.283900: $GPGGA,182255,3946.9610,N,08404.9852,W,2,11,0.80,301.84,M,-33.324,M,,*7C
2017-11-16 13:22:56 1510856576.283960: $GPRMC,182255,A,3946.9610,N,08404.9852,W,0.0000,0.000,161117,,*3F
2017-11-16 13:22:56 1510856576.284017: $GPGSA,A,3,10,13,15,18,20,21,24,27,29,32,138,,1.6,0.8,1.3*03
