2017-12-01 12:01:20 1512147680.956751: {"class":"VERSION","release":"3.16","rev":"3.16-4","proto_major":3,"proto_minor":11}
2017-12-01 12:01:20 1512147680.957147: {"class":"DEVICES","devices":[{"class":"DEVICE","path":"/dev/ttyUSB0","driver":"SiRF","subtype":"9\u0006GSD4e_4.1.2-P1_RPATCH.05-F-GPS-4R-1510281 11/03/2015 307","activated":"2017-12-01T17:01:20.542Z","flags":1,"native":1,"bps":4800,"parity":"N","stopbits":1,"cycle":1.00}]}
2017-12-01 12:01:20 1512147680.957271: {"class":"WATCH","enable":true,"json":false,"nmea":true,"raw":0,"scaled":false,"timing":false,"split24":false,"pps":false}
2017-12-01 12:01:21 1512147681.736745: $GPGSV,3,1,12,13,36,046,45,15,68,057,44,18,49,292,46,20,57,063,45*7F
2017-12-01 12:01:21 1512147681.736916: $GPGSV,3,2,12,21,74,294,45,24,27,144,47,27,13,319,42,29,17,192,39*73
2017-12-01 12:01:21 1512147681.736984: $GPGSV,3,3,12,10,18,277,36,05,08,082,31,04,06,133,00,138,38,213,46*40
2017-12-01 12:01:21 1512147681.850110: $GPZDA,170122.00,01,12,2017,00,00*67
2017-12-01 12:01:21 1512147681.850281: $GPGGA,170122,3946.9579,N,08404.9834,W,2,11,0.80,302.57,M,-33.324,M,,*73
2017-12-01 12:01:21 1512147681.850348: $GPRMC,170122,A,3946.9579,N,08404.9834,W,0.0000,0.000,011217,,*38
2017-12-01 12:01:21 1512147681.850411: $GPGSA,A,3,13,15,18,20,21,24,27,29,10,5,138,,2.0,0.8,1.5*34
2017-12-01 12:01:22 1512147682.475513: $GPZDA,170123.00,01,12,2017,00,00*66
2017-12-01 12:01:22 1512147682.475679: $GPGGA,170123,3946.9579,N,08404.9834,W,2,11,0.80,302.57,M,-33.324,M,,*72
2017-12-01 12:01:22 1512147682.475746: $GPRMC,170123,A,3946.9579,N,08404.9834,W,0.0000,0.000,011217,,*39
2017-12-01 12:01:22 1512147682.475811: $GPGSA,A,3,13,15,18,20,21,24,27,29,10,5,138,,2.0,0.8,1.5*34
2017-12-01 12:01:23 1512147683.402889: $GPZDA,170124.00,01,12,2017,00,00*61
2017-12-01 12:01:23 1512147683.403063: $GPGGA,170124,3946.9579,N,08404.9834,W,2,11,0.80,302.57,M,-33.324,M,,*75
2017-12-01 12:01:23 1512147683.403149: $GPRMC,170124,A,3946.9579,N,08404.9834,W,0.0000,0.000,011217,,*3E
2017-12-01 12:01:23 1512147683.403214: $GPGSA,A,3,13,15,18,20,21,24,27,29,10,5,138,,2.0,0.8,1.5*34
2017-12-01 12:01:24 1512147684.737200: $GPGSV,3,1,12,13,36,046,45,15,68,057,44,18,49,292,46,20,57,063,45*7F
2017-12-01 12:01:24 1512147684.737381: $GPGSV,3,2,12,21,74,294,45,24,27,144,47,27,13,319,41,29,17,192,39*70
2017-12-01 12:01:24 1512147684.737446: $GPGSV,3,3,12,10,18,277,38,05,08,082,31,04,06,133,00,138,38,213,46*4E
2017-12-01 12:01:24 1512147684.850830: $GPZDA,170125.00,01,12,2017,00,00*60
2017-12-01 12:01:24 1512147684.851008: $GPGGA,170125,3946.9579,N,08404.9834,W,2,11,0.80,302.57,M,-33.324,M,,*74
2017-12-01 12:01:24 1512147684.851073: $GPRMC,170125,A,3946.9579,N,08404.9834,W,0.0000,0.000,011217,,*3F
2017-12-01 12:01:24 1512147684.851136: $GPGSA,A,3,13,15,18,20,21,24,27,29,10,5,138,,2.0,0.8,1.5*34
2017-12-01 12:01:25 1512147685.401773: $GPZDA,170126.00,01,12,2017,00,00*63
2017-12-01 12:01:25 1512147685.401945: $GPGGA,170126,3946.9579,N,08404.9834,W,2,11,0.80,302.57,M,-33.324,M,,*77
2017-12-01 12:01:25 1512147685.402013: $GPRMC,170126,A,3946.9579,N,08404.9834,W,0.0000,0.000,011217,,*3C
2017-12-01 12:01:25 1512147685.402075: $GPGSA,A,3,13,15,18,20,21,24,27,29,10,5,138,,2.0,0.8,1.5*34
2017-12-01 12:01:26 1512147686.401394: $GPZDA,170127.00,01,12,2017,00,00*62
2017-12-01 12:01:26 1512147686.401573: $GPGGA,170127,3946.9579,N,08404.9834,W,2,11,0.80,302.57,M,-33.324,M,,*76
2017-12-01 12:01:26 1512147686.401642: $GPRMC,170127,A,3946.9579,N,08404.9834,W,0.0000,0.000,011217,,*3D
2017-12-01 12:01:26 1512147686.401704: $GPGSA,A,3,13,15,18,20,21,24,27,29,10,5,138,,2.0,0.8,1.5*34
2017-12-01 12:01:27 1512147687.738763: $GPGSV,3,1,12,13,36,046,44,15,68,057,44,18,49,292,46,20,57,063,45*7E
2017-12-01 12:01:27 1512147687.738933: $GPGSV,3,2,12,21,74,294,45,24,27,144,47,27,13,319,40,29,17,192,39*71
2017-12-01 12:01:27 1512147687.739000: $GPGSV,3,3,12,10,18,277,39,05,08,082,31,04,06,133,00,138,38,213,46*4F
2017-12-01 12:01:27 1512147687.852535: $GPZDA,170128.00,01,12,2017,00,00*6D
2017-12-01 12:01:27 1512147687.852706: $GPGGA,170128,3946.9579,N,08404.9834,W,2,11,0.80,302.57,M,-33.324,M,,*79
2017-12-01 12:01:27 1512147687.852828: $GPRMC,170128,A,3946.9579,N,08404.9834,W,0.0000,0.000,011217,,*32
2017-12-01 12:01:27 1512147687.852896: $GPGSA,A,3,13,15,18,20,21,24,27,29,10,5,138,,2.0,0.8,1.5*34
2017-12-01 12:01:28 1512147688.401741: $GPZDA,170129.00,01,12,2017,00,00*6C
2017-12-01 12:01:28 1512147688.401922: $GPGGA,170129,3946.9579,N,08404.9834,W,2,11,0.80,302.57,M,-33.324,M,,*78
2017-12-01 12:01:28 1512147688.401990: $GPRMC,170129,A,3946.9579,N,08404.9834,W,0.0000,0.000,011217,,*33
2017-12-01 12:01:28 1512147688.402052: $GPGSA,A,3,13,15,18,20,21,24,27,29,10,5,138,,2.0,0.8,1.5*34
2017-12-01 12:01:29 1512147689.400284: $GPZDA,170130.00,01,12,2017,00,00*64
2017-12-01 12:01:29 1512147689.400459: $GPGGA,170130,3946.9579,N,08404.9834,W,2,11,0.80,302.57,M,-33.324,M,,*70
2017-12-01 12:01:29 1512147689.400525: $GPRMC,170130,A,3946.9579,N,08404.9834,W,0.0000,0.000,011217,,*3B
2017-12-01 12:01:29 1512147689.400588: $GPGSA,A,3,13,15,18,20,21,24,27,29,10,5,138,,2.0,0.8,1.5*34
2017-12-01 12:01:30 1512147690.738417: $GPGSV,3,1,12,13,36,046,45,15,68,057,45,18,49,292,46,20,57,063,45*7E
2017-12-01 12:01:30 1512147690.738603: $GPGSV,3,2,12,21,74,294,44,24,27,144,47,27,13,319,40,29,17,192,39*70
2017-12-01 12:01:30 1512147690.738670: $GPGSV,3,3,12,10,18,277,39,05,08,082,31,04,06,133,00,138,38,213,46*4F
2017-12-01 12:01:30 1512147690.851967: $GPZDA,170131.00,01,12,2017,00,00*65
2017-12-01 12:01:30 1512147690.852143: $GPGGA,170131,3946.9579,N,08404.9834,W,2,11,0.80,302.57,M,-33.324,M,,*71
2017-12-01 12:01:30 1512147690.852211: $GPRMC,170131,A,3946.9579,N,08404.9834,W,0.0000,0.000,011217,,*3A
2017-12-01 12:01:30 1512147690.852273: $GPGSA,A,3,13,15,18,20,21,24,27,29,10,5,138,,2.0,0.8,1.5*34
