2017-12-01 14:06:59 1512155219.087556: {"class":"VERSION","release":"3.16","rev":"3.16-4","proto_major":3,"proto_minor":11}
2017-12-01 14:06:59 1512155219.087969: {"class":"DEVICES","devices":[{"class":"DEVICE","path":"/dev/ttyUSB0","driver":"SiRF","subtype":"9\u0006GSD4e_4.1.2-P1_RPATCH.05-F-GPS-4R-1510281 11/03/2015 307","activated":"2017-12-01T19:06:58.919Z","flags":1,"native":1,"bps":4800,"parity":"N","stopbits":1,"cycle":1.00}]}
2017-12-01 14:06:59 1512155219.088294: {"class":"WATCH","enable":true,"json":false,"nmea":true,"raw":0,"scaled":false,"timing":false,"split24":false,"pps":false}
2017-12-01 14:06:59 1512155219.327491: $GPZDA,190700.00,01,12,2017,00,00*6F
2017-12-01 14:06:59 1512155219.327696: $GPGGA,190700,3946.9562,N,08404.9834,W,2,12,0.80,300.01,M,-33.324,M,,*73
2017-12-01 14:06:59 1512155219.327763: $GPRMC,190700,A,3946.9562,N,08404.9834,W,0.0000,0.000,011217,,*3A
2017-12-01 14:06:59 1512155219.327825: $GPGSA,A,3,10,14,15,18,21,24,27,32,20,8,12,138,2.0,0.8,1.5*37
2017-12-01 14:07:00 1512155220.326135: $GPZDA,190701.00,01,12,2017,00,00*6E
2017-12-01 14:07:00 1512155220.326400: $GPGGA,190701,3946.9562,N,08404.9834,W,2,12,0.80,300.01,M,-33.324,M,,*72
2017-12-01 14:07:00 1512155220.326609: $GPRMC,190701,A,3946.9562,N,08404.9834,W,0.0000,0.000,011217,,*3B
2017-12-01 14:07:00 1512155220.326726: $GPGSA,A,3,10,14,15,18,21,24,27,32,20,8,12,138,2.0,0.8,1.5*37
2017-12-01 14:07:01 1512155221.666240: $GPGSV,3,1,12,10,62,322,49,14,23,247,40,15,17,063,35,18,75,072,42*7B
2017-12-01 14:07:01 1512155221.666413: $GPGSV,3,2,12,21,36,180,44,24,49,067,47,27,10,265,43,32,40,258,44*75
2017-12-01 14:07:01 1512155221.666478: $GPGSV,3,3,12,20,15,114,32,08,07,300,32,12,04,112,24,138,38,213,46*44
2017-12-01 14:07:01 1512155221.779704: $GPZDA,190702.00,01,12,2017,00,00*6D
2017-12-01 14:07:01 1512155221.779870: $GPGGA,190702,3946.9566,N,08404.9834,W,2,12,0.80,300.65,M,-33.324,M,,*77
2017-12-01 14:07:01 1512155221.779935: $GPRMC,190702,A,3946.9566,N,08404.9834,W,0.0000,0.000,011217,,*3C
2017-12-01 14:07:01 1512155221.779996: $GPGSA,A,3,10,14,15,18,21,24,27,32,20,8,12,138,2.0,0.8,1.5*37
2017-12-01 14:07:02 1512155222.329243: $GPZDA,190703.00,01,12,2017,00,00*6C
2017-12-01 14:07:02 1512155222.329414: $GPGGA,190703,3946.9566,N,08404.9834,W,2,12,0.80,300.65,M,-33.324,M,,*76
2017-12-01 14:07:02 1512155222.329501: $GPRMC,190703,A,3946.9566,N,08404.9834,W,0.0000,0.000,011217,,*3D
2017-12-01 14:07:02 1512155222.329565: $GPGSA,A,3,10,14,15,18,21,24,27,32,20,8,12,138,2.0,0.8,1.5*37
2017-12-01 14:07:03 1512155223.327682: $GPZDA,190704.00,01,12,2017,00,00*6B
2017-12-01 14:07:03 1512155223.327851: $GPGGA,190704,3946.9566,N,08404.9834,W,2,12,0.80,300.65,M,-33.324,M,,*71
2017-12-01 14:07:03 1512155223.327919: $GPRMC,190704,A,3946.9566,N,08404.9834,W,0.0000,0.000,011217,,*3A
2017-12-01 14:07:03 1512155223.327980: $GPGSA,A,3,10,14,15,18,21,24,27,32,20,8,12,138,2.0,0.8,1.5*37
2017-12-01 14:07:04 1512155224.663219: $GPGSV,3,1,12,10,62,322,50,14,23,247,39,15,17,063,35,18,75,072,42*7D
2017-12-01 14:07:04 1512155224.663398: $GPGSV,3,2,12,21,36,180,44,24,49,067,47,27,10,265,42,32,40,258,43*73
2017-12-01 14:07:04 1512155224.663464: $GPGSV,3,3,12,20,15,114,32,08,07,300,32,12,04,112,24,138,38,213,46*44
2017-12-01 14:07:04 1512155224.776784: $GPZDA,190705.00,01,12,2017,00,00*6A
2017-12-01 14:07:04 1512155224.776922: $GPGGA,190705,3946.9563,N,08404.9834,W,2,12,0.80,301.42,M,-33.324,M,,*71
2017-12-01 14:07:04 1512155224.776987: $GPRMC,190705,A,3946.9563,N,08404.9834,W,0.0000,0.000,011217,,*3E
2017-12-01 14:07:04 1512155224.777048: $GPGSA,A,3,10,14,15,18,21,24,27,32,20,8,12,138,2.0,0.8,1.5*37
2017-12-01 14:07:05 1512155225.403262: $GPZDA,190706.00,01,12,2017,00,00*69
2017-12-01 14:07:05 1512155225.403438: $GPGGA,190706,3946.9563,N,08404.9834,W,2,12,0.80,301.42,M,-33.324,M,,*72
2017-12-01 14:07:05 1512155225.403527: $GPRMC,190706,A,3946.9563,N,08404.9834,W,0.0000,0.000,011217,,*3D
2017-12-01 14:07:05 1512155225.403589: $GPGSA,A,3,10,14,15,18,21,24,27,32,20,8,12,138,2.0,0.8,1.5*37
2017-12-01 14:07:06 1512155226.329065: $GPZDA,190707.00,01,12,2017,00,00*68
2017-12-01 14:07:06 1512155226.329287: $GPGGA,190707,3946.9563,N,08404.9827,W,2,12,0.80,301.50,M,-33.324,M,,*72
2017-12-01 14:07:06 1512155226.329357: $GPRMC,190707,A,3946.9563,N,08404.9827,W,0.0000,0.000,011217,,*3E
2017-12-01 14:07:06 1512155226.329419: $GPGSA,A,3,10,14,15,18,21,24,27,32,20,8,12,138,2.0,0.8,1.5*37
2017-12-01 14:07:07 1512155227.664938: $GPGSV,3,1,12,10,62,322,50,14,23,247,39,15,17,063,35,18,75,072,42*7D
2017-12-01 14:07:07 1512155227.665121: $GPGSV,3,2,12,21,36,180,44,24,49,067,48,27,10,265,43,32,40,258,43*7D
2017-12-01 14:07:07 1512155227.665187: $GPGSV,3,3,12,20,15,114,32,08,07,300,32,12,04,112,24,138,38,213,46*44
2017-12-01 14:07:07 1512155227.778393: $GPZDA,190708.00,01,12,2017,00,00*67
2017-12-01 14:07:07 1512155227.778577: $GPGGA,190708,3946.9563,N,08404.9827,W,2,12,0.80,301.50,M,-33.324,M,,*7D
2017-12-01 14:07:07 1512155227.778662: $GPRMC,190708,A,3946.9563,N,08404.9827,W,0.0000,0.000,011217,,*31
2017-12-01 14:07:07 1512155227.778724: $GPGSA,A,3,10,14,15,18,21,24,27,32,20,8,12,138,2.0,0.8,1.5*37
2017-12-01 14:07:08 1512155228.325577: $GPZDA,190709.00,01,12,2017,00,00*66
2017-12-01 14:07:08 1512155228.325773: $GPGGA,190709,3946.9563,N,08404.9827,W,2,12,0.80,301.50,M,-33.324,M,,*7C
2017-12-01 14:07:08 1512155228.325841: $GPRMC,190709,A,3946.9563,N,08404.9827,W,0.0000,0.000,011217,,*30
2017-12-01 14:07:08 1512155228.325902: $GPGSA,A,3,10,14,15,18,21,24,27,32,20,8,12,138,2.0,0.8,1.5*37
2017-12-01 14:07:09 1512155229.328932: $GPZDA,190710.00,01,12,2017,00,00*6E
2017-12-01 14:07:09 1512155229.329114: $GPGGA,190710,3946.9563,N,08404.9827,W,2,12,0.80,301.50,M,-33.324,M,,*74
2017-12-01 14:07:09 1512155229.329204: $GPRMC,190710,A,3946.9563,N,08404.9827,W,0.0000,0.000,011217,,*38
2017-12-01 14:07:09 1512155229.329267: $GPGSA,A,3,10,14,15,18,21,24,27,32,20,8,12,138,2.0,0.8,1.5*37
2017-12-01 14:07:10 1512155230.665267: $GPGSV,3,1,12,10,62,322,49,14,23,247,39,15,17,063,35,18,75,072,42*75
2017-12-01 14:07:10 1512155230.665466: $GPGSV,3,2,12,21,36,180,43,24,49,067,48,27,10,265,43,32,40,258,43*7A
2017-12-01 14:07:10 1512155230.665534: $GPGSV,3,3,12,20,15,114,33,08,07,300,31,12,04,112,21,138,38,213,47*42
2017-12-01 14:07:10 1512155230.778536: $GPZDA,190711.00,01,12,2017,00,00*6F
2017-12-01 14:07:10 1512155230.778729: $GPGGA,190711,3946.9563,N,08404.9827,W,2,12,0.80,301.50,M,-33.324,M,,*75
2017-12-01 14:07:10 1512155230.778797: $GPRMC,190711,A,3946.9563,N,08404.9827,W,0.0000,0.000,011217,,*39
2017-12-01 14:07:10 1512155230.778860: $GPGSA,A,3,10,14,15,18,21,24,27,32,20,8,12,138,2.0,0.8,1.5*37
2017-12-01 14:07:11 1512155231.328174: $GPZDA,190712.00,01,12,2017,00,00*6C
2017-12-01 14:07:11 1512155231.328354: $GPGGA,190712,3946.9559,N,08404.9828,W,2,12,0.80,302.26,M,-33.324,M,,*72
2017-12-01 14:07:11 1512155231.328423: $GPRMC,190712,A,3946.9559,N,08404.9828,W,0.0000,0.000,011217,,*3C
2017-12-01 14:07:11 1512155231.328509: $GPGSA,A,3,10,14,15,18,21,24,27,32,20,8,12,138,2.0,0.8,1.5*37
2017-12-01 14:07:12 1512155232.327904: $GPZDA,190713.00,01,12,2017,00,00*6D
2017-12-01 14:07:12 1512155232.328074: $GPGGA,190713,3946.9559,N,08404.9828,W,2,12,0.80,302.26,M,-33.324,M,,*73
2017-12-01 14:07:12 1512155232.328141: $GPRMC,190713,A,3946.9559,N,08404.9828,W,0.0000,0.000,011217,,*3D
2017-12-01 14:07:12 1512155232.328201: $GPGSA,A,3,10,14,15,18,21,24,27,32,20,8,12,138,2.0,0.8,1.5*37
2017-12-01 14:07:13 1512155233.694832: $GPGSV,3,1,12,10,62,322,50,14,23,247,39,15,17,063,35,18,75,072,43*7C
2017-12-01 14:07:13 1512155233.694984: $GPGSV,3,2,12,21,36,180,44,24,49,067,48,27,10,265,43,32,40,258,43*7D
2017-12-01 14:07:13 1512155233.695049: $GPGSV,3,3,12,20,15,114,33,08,07,300,29,12,04,112,18,138,38,213,46*40
2017-12-01 14:07:13 1512155233.808651: $GPZDA,190714.00,01,12,2017,00,00*6A
2017-12-01 14:07:13 1512155233.808821: $GPGGA,190714,3946.9559,N,08404.9828,W,2,12,0.80,302.26,M,-33.324,M,,*74
2017-12-01 14:07:13 1512155233.808887: $GPRMC,190714,A,3946.9559,N,08404.9828,W,0.0000,0.000,011217,,*3A
2017-12-01 14:07:13 1512155233.808947: $GPGSA,A,3,10,14,15,18,21,24,27,32,20,8,12,138,2.0,0.8,1.5*37
