2017-11-16 13:28:06 1510856886.236740: {"class":"VERSION","release":"3.17","rev":"3.17","proto_major":3,"proto_minor":12}
2017-11-16 13:28:06 1510856886.237181: {"class":"DEVICES","devices":[{"class":"DEVICE","path":"/dev/ttyUSB0","driver":"SiRF","subtype":"9\u0006GSD4e_4.1.2-P1_RPATCH.05-F-GPS-4R-1510281 11/03/2015 307","activated":"2017-11-16T18:28:06.156Z","flags":1,"native":1,"bps":4800,"parity":"N","stopbits":1,"cycle":1.00}]}
2017-11-16 13:28:06 1510856886.237305: {"class":"WATCH","enable":true,"json":false,"nmea":true,"raw":0,"scaled":false,"timing":false,"split24":false,"pps":false}
2017-11-16 13:28:06 1510856886.605931: $GPGSV,3,1,12,10,26,286,42,13,26,045,46,15,57,049,51,18,57,304,46*73
2017-11-16 13:28:06 1510856886.606105: $GPGSV,3,2,12,20,48,076,48,21,79,252,46,24,36,135,43,27,17,309,42*7E
2017-11-16 13:28:06 1510856886.606166: $GPGSV,3,3,12,29,06,187,28,05,02,090,22,32,04,226,26,138,38,213,45*4A
2017-11-16 13:28:06 1510856886.719216: $GPZDA,182805.00,16,11,2017,00,00*63
2017-11-16 13:28:06 1510856886.719382: $GPGGA,182805,3946.9611,N,08404.9845,W,2,12,0.80,303.32,M,-33.324,M,,*78
2017-11-16 13:28:06 1510856886.719443: $GPRMC,182805,A,3946.9611,N,08404.9845,W,0.0000,0.000,161117,,*37
2017-11-16 13:28:06 1510856886.719500: $GPGSA,A,3,10,13,15,18,20,21,24,27,29,5,32,138,1.6,0.8,1.3*36
2017-11-16 13:28:07 1510856887.270115: $GPZDA,182806.00,16,11,2017,00,00*60
2017-11-16 13:28:07 1510856887.270327: $GPGGA,182806,3946.9611,N,08404.9845,W,2,12,0.80,303.32,M,-33.324,M,,*7B
2017-11-16 13:28:07 1510856887.270400: $GPRMC,182806,A,3946.9611,N,08404.9845,W,0.0000,0.000,161117,,*34
2017-11-16 13:28:07 1510856887.270457: $GPGSA,A,3,10,13,15,18,20,21,24,27,29,5,32,138,1.6,0.8,1.3*36
2017-11-16 13:28:08 1510856888.268735: $GPZDA,182807.00,16,11,2017,00,00*61
2017-11-16 13:28:08 1510856888.268914: $GPGGA,182807,3946.9611,N,08404.9845,W,2,12,0.80,303.32,M,-33.324,M,,*7A
2017-11-16 13:28:08 1510856888.268975: $GPRMC,182807,A,3946.9611,N,08404.9845,W,0.0000,0.000,161117,,*35
2017-11-16 13:28:08 1510856888.269032: $GPGSA,A,3,10,13,15,18,20,21,24,27,29,5,32,138,1.6,0.8,1.3*36
2017-11-16 13:28:09 1510856889.607126: $GPGSV,3,1,12,10,26,286,44,13,26,045,46,15,57,049,50,18,57,304,46*74
2017-11-16 13:28:09 1510856889.607298: $GPGSV,3,2,12,20,48,076,48,21,79,252,46,24,36,135,43,27,17,309,42*7E
2017-11-16 13:28:09 1510856889.607358: $GPGSV,3,3,12,29,06,187,28,05,02,090,22,32,04,226,26,138,38,213,46*49
2017-11-16 13:28:09 1510856889.720044: $GPZDA,182808.00,16,11,2017,00,00*6E
2017-11-16 13:28:09 1510856889.720212: $GPGGA,182808,3946.9611,N,08404.9845,W,2,12,0.80,303.32,M,-33.324,M,,*75
2017-11-16 13:28:09 1510856889.720274: $GPRMC,182808,A,3946.9611,N,08404.9845,W,0.0000,0.000,161117,,*3A
2017-11-16 13:28:09 1510856889.720416: $GPGSA,A,3,10,13,15,18,20,21,24,27,29,5,32,138,1.6,0.8,1.3*36
2017-11-16 13:28:10 1510856890.345667: $GPZDA,182809.00,16,11,2017,00,00*6F
2017-11-16 13:28:10 1510856890.345829: $GPGGA,182809,3946.9611,N,08404.9845,W,2,12,0.80,303.32,M,-33.324,M,,*74
2017-11-16 13:28:10 1510856890.345890: $GPRMC,182809,A,3946.9611,N,08404.9845,W,0.0000,0.000,161117,,*3B
2017-11-16 13:28:10 1510856890.345946: $GPGSA,A,3,10,13,15,18,20,21,24,27,29,5,32,138,1.6,0.8,1.3*36
2017-11-16 13:28:11 1510856891.269042: $GPZDA,182810.00,16,11,2017,00,00*67
2017-11-16 13:28:11 1510856891.269220: $GPGGA,182810,3946.9611,N,08404.9845,W,2,12,0.80,303.32,M,-33.324,M,,*7C
2017-11-16 13:28:11 1510856891.269280: $GPRMC,182810,A,3946.9611,N,08404.9845,W,0.0000,0.000,161117,,*33
2017-11-16 13:28:11 1510856891.269337: $GPGSA,A,3,10,13,15,18,20,21,24,27,29,5,32,138,1.6,0.8,1.3*36
2017-11-16 13:28:12 1510856892.599399: $GPGSV,3,1,12,10,26,286,44,13,26,045,46,15,57,049,50,18,57,304,46*74
2017-11-16 13:28:12 1510856892.599568: $GPGSV,3,2,12,20,48,076,48,21,79,252,46,24,36,135,43,27,17,309,41*7D
2017-11-16 13:28:12 1510856892.599629: $GPGSV,3,3,12,29,06,187,28,05,02,090,21,32,04,226,26,138,38,213,44*48
2017-11-16 13:28:12 1510856892.712761: $GPZDA,182811.00,16,11,2017,00,00*66
2017-11-16 13:28:12 1510856892.712958: $GPGGA,182811,3946.9611,N,08404.9845,W,2,12,0.80,303.32,M,-33.324,M,,*7D
2017-11-16 13:28:12 1510856892.713090: $GPRMC,182811,A,3946.9611,N,08404.9845,W,0.0000,0.000,161117,,*32
2017-11-16 13:28:12 1510856892.713149: $GPGSA,A,3,10,13,15,18,20,21,24,27,29,5,32,138,1.6,0.8,1.3*36
2017-11-16 13:28:13 1510856893.272771: $GPZDA,182812.00,16,11,2017,00,00*65
2017-11-16 13:28:13 1510856893.273089: $GPGGA,182812,3946.9611,N,08404.9845,W,2,12,0.80,303.32,M,-33.324,M,,*7E
2017-11-16 13:28:13 1510856893.273205: $GPRMC,182812,A,3946.9611,N,08404.9845,W,0.0000,0.000,161117,,*31
2017-11-16 13:28:13 1510856893.273297: $GPGSA,A,3,10,13,15,18,20,21,24,27,29,5,32,138,1.6,0.8,1.3*36
2017-11-16 13:28:14 1510856894.269441: $GPZDA,182813.00,16,11,2017,00,00*64
2017-11-16 13:28:14 1510856894.269604: $GPGGA,182813,3946.9611,N,08404.9845,W,2,12,0.80,303.32,M,-33.324,M,,*7F
2017-11-16 13:28:14 1510856894.269665: $GPRMC,182813,A,3946.9611,N,08404.9845,W,0.0000,0.000,161117,,*30
2017-11-16 13:28:14 1510856894.269721: $GPGSA,A,3,10,13,15,18,20,21,24,27,29,5,32,138,1.6,0.8,1.3*36
2017-11-16 13:28:15 1510856895.604713: $GPGSV,3,1,12,10,26,286,44,13,26,045,46,15,57,049,50,18,57,304,46*74
2017-11-16 13:28:15 1510856895.604920: $GPGSV,3,2,12,20,48,076,48,21,79,252,46,24,36,135,43,27,17,309,41*7D
2017-11-16 13:28:15 1510856895.604982: $GPGSV,3,3,12,29,06,187,28,05,02,090,20,32,04,226,27,138,38,213,44*48
2017-11-16 13:28:15 1510856895.718289: $GPZDA,182814.00,16,11,2017,00,00*63
2017-11-16 13:28:15 1510856895.718436: $GPGGA,182814,3946.9611,N,08404.9845,W,2,12,0.80,303.32,M,-33.324,M,,*78
2017-11-16 13:28:15 1510856895.718496: $GPRMC,182814,A,3946.9611,N,08404.9845,W,0.0000,0.000,161117,,*37
2017-11-16 13:28:15 1510856895.718553: $GPGSA,A,3,10,13,15,18,20,21,24,27,29,5,32,138,1.6,0.8,1.3*36
2017-11-16 13:28:16 1510856896.287568: $GPZDA,182815.00,16,11,2017,00,00*62
2017-11-16 13:28:16 1510856896.287734: $GPGGA,182815,3946.9611,N,08404.9845,W,2,12,0.80,303.32,M,-33.324,M,,*79
2017-11-16 13:28:16 1510856896.287795: $GPRMC,182815,A,3946.9611,N,08404.9845,W,0.0000,0.000,161117,,*36
2017-11-16 13:28:16 1510856896.287851: $GPGSA,A,3,10,13,15,18,20,21,24,27,29,5,32,138,1.6,0.8,1.3*36
2017-11-16 13:28:17 1510856897.288375: $GPZDA,182816.00,16,11,2017,00,00*61
2017-11-16 13:28:17 1510856897.288542: $GPGGA,182816,3946.9611,N,08404.9845,W,2,12,0.80,303.32,M,-33.324,M,,*7A
2017-11-16 13:28:17 1510856897.288604: $GPRMC,182816,A,3946.9611,N,08404.9845,W,0.0000,0.000,161117,,*35
2017-11-16 13:28:17 1510856897.288660: $GPGSA,A,3,10,13,15,18,20,21,24,27,29,5,32,138,1.6,0.8,1.3*36
2017-11-16 13:28:18 1510856898.605359: $GPGSV,3,1,12,10,26,286,43,13,26,045,46,15,57,049,50,18,57,304,46*73
2017-11-16 13:28:18 1510856898.605531: $GPGSV,3,2,12,20,48,076,48,21,79,252,46,24,36,135,43,27,17,309,40*7C
2017-11-16 13:28:18 1510856898.605593: $GPGSV,3,3,12,29,06,187,28,05,02,090,21,32,04,226,27,138,38,213,45*48
2017-11-16 13:28:18 1510856898.718730: $GPZDA,182817.00,16,11,2017,00,00*60
2017-11-16 13:28:18 1510856898.718896: $GPGGA,182817,3946.9611,N,08404.9845,W,2,12,0.80,303.32,M,-33.324,M,,*7B
2017-11-16 13:28:18 1510856898.718958: $GPRMC,182817,A,3946.9611,N,08404.9845,W,0.0000,0.000,161117,,*34
2017-11-16 13:28:18 1510856898.719030: $GPGSA,A,3,10,13,15,18,20,21,24,27,29,5,32,138,1.6,0.8,1.3*36
2017-11-16 13:28:19 1510856899.269849: $GPZDA,182818.00,16,11,2017,00,00*6F
2017-11-16 13:28:19 1510856899.270006: $GPGGA,182818,3946.9611,N,08404.9845,W,2,12,0.80,303.32,M,-33.324,M,,*74
2017-11-16 13:28:19 1510856899.270067: $GPRMC,182818,A,3946.9611,N,08404.9845,W,0.0000,0.000,161117,,*3B
2017-11-16 13:28:19 1510856899.270123: $GPGSA,A,3,10,13,15,18,20,21,24,27,29,5,32,138,1.6,0.8,1.3*36
2017-11-16 13:28:20 1510856900.281454: $GPZDA,182819.00,16,11,2017,00,00*6E
2017-11-16 13:28:20 1510856900.281627: $GPGGA,182819,3946.9611,N,08404.9845,W,2,12,0.80,303.32,M,-33.324,M,,*75
2017-11-16 13:28:20 1510856900.281728: $GPRMC,182819,A,3946.9611,N,08404.9845,W,0.0000,0.000,161117,,*3A
2017-11-16 13:28:20 1510856900.281788: $GPGSA,A,3,10,13,15,18,20,21,24,27,29,5,32,138,1.6,0.8,1.3*36
