2017-12-01 15:22:00 1512159720.847130: {"class":"VERSION","release":"3.16","rev":"3.16-4","proto_major":3,"proto_minor":11}
2017-12-01 15:22:00 1512159720.847637: {"class":"DEVICES","devices":[{"class":"DEVICE","path":"/dev/ttyUSB0","driver":"SiRF","subtype":"9\u0006GSD4e_4.1.2-P1_RPATCH.05-F-GPS-4R-1510281 11/03/2015 307","activated":"2017-12-01T20:22:00.546Z","flags":1,"native":1,"bps":4800,"parity":"N","stopbits":1,"cycle":1.00}]}
2017-12-01 15:22:00 1512159720.847763: {"class":"WATCH","enable":true,"json":false,"nmea":true,"raw":0,"scaled":false,"timing":false,"split24":false,"pps":false}
2017-12-01 15:22:01 1512159721.407354: $GPZDA,202202.00,01,12,2017,00,00*60
2017-12-01 15:22:01 1512159721.407515: $GPGGA,202202,3946.9573,N,08404.9832,W,2,11,0.80,299.12,M,-33.324,M,,*7A
2017-12-01 15:22:01 1512159721.407581: $GPRMC,202202,A,3946.9573,N,08404.9832,W,0.0000,0.000,011217,,*33
2017-12-01 15:22:01 1512159721.407646: $GPGSA,A,3,1,10,12,14,18,24,25,31,32,11,138,,2.0,0.8,1.5*3B
2017-12-01 15:22:02 1512159722.742796: $GPGSV,3,1,12,01,07,325,41,10,80,105,46,12,23,082,46,14,48,279,43*78
2017-12-01 15:22:02 1512159722.742977: $GPGSV,3,2,12,18,47,127,47,24,23,046,45,25,22,124,45,31,24,208,45*7C
2017-12-01 15:22:02 1512159722.743046: $GPGSV,3,3,12,32,63,304,48,11,09,310,30,21,03,174,16,138,38,213,46*4B
2017-12-01 15:22:02 1512159722.855503: $GPZDA,202203.00,01,12,2017,00,00*61
2017-12-01 15:22:02 1512159722.855791: $GPGGA,202203,3946.9573,N,08404.9832,W,2,12,0.80,299.12,M,-33.324,M,,*78
2017-12-01 15:22:02 1512159722.855905: $GPRMC,202203,A,3946.9573,N,08404.9832,W,0.0000,0.000,011217,,*32
2017-12-01 15:22:02 1512159722.856005: $GPGSA,A,3,1,10,12,14,18,24,25,31,32,11,21,138,2.0,0.8,1.5*38
2017-12-01 15:22:03 1512159723.481856: $GPZDA,202204.00,01,12,2017,00,00*66
2017-12-01 15:22:03 1512159723.482014: $GPGGA,202204,3946.9573,N,08404.9832,W,2,12,0.80,299.12,M,-33.324,M,,*7F
2017-12-01 15:22:03 1512159723.482081: $GPRMC,202204,A,3946.9573,N,08404.9832,W,0.0000,0.000,011217,,*35
2017-12-01 15:22:03 1512159723.482142: $GPGSA,A,3,1,10,12,14,18,24,25,31,32,11,21,138,2.0,0.8,1.5*38
2017-12-01 15:22:04 1512159724.405189: $GPZDA,202205.00,01,12,2017,00,00*67
2017-12-01 15:22:04 1512159724.405367: $GPGGA,202205,3946.9573,N,08404.9832,W,2,12,0.80,299.12,M,-33.324,M,,*7E
2017-12-01 15:22:04 1512159724.405435: $GPRMC,202205,A,3946.9573,N,08404.9832,W,0.0000,0.000,011217,,*34
2017-12-01 15:22:04 1512159724.405496: $GPGSA,A,3,1,10,12,14,18,24,25,31,32,11,21,138,2.0,0.8,1.5*38
2017-12-01 15:22:05 1512159725.725575: $GPGSV,3,1,12,01,07,325,41,10,80,105,46,12,23,082,46,14,48,279,43*78
2017-12-01 15:22:05 1512159725.725775: $GPGSV,3,2,12,18,47,127,48,24,23,046,45,25,22,124,44,31,24,208,45*72
2017-12-01 15:22:05 1512159725.725845: $GPGSV,3,3,12,32,63,304,48,11,09,310,35,21,03,174,15,138,38,213,45*4E
2017-12-01 15:22:05 1512159725.839247: $GPZDA,202206.00,01,12,2017,00,00*64
2017-12-01 15:22:05 1512159725.839420: $GPGGA,202206,3946.9573,N,08404.9832,W,2,11,0.80,299.12,M,-33.324,M,,*7E
2017-12-01 15:22:05 1512159725.839489: $GPRMC,202206,A,3946.9573,N,08404.9832,W,0.0000,0.000,011217,,*37
2017-12-01 15:22:05 1512159725.839569: $GPGSA,A,3,1,10,12,14,18,24,25,31,32,11,138,,2.0,0.8,1.5*3B
2017-12-01 15:22:06 1512159726.383992: $GPZDA,202207.00,01,12,2017,00,00*65
2017-12-01 15:22:06 1512159726.384168: $GPGGA,202207,3946.9573,N,08404.9832,W,2,11,0.80,299.12,M,-33.324,M,,*7F
2017-12-01 15:22:06 1512159726.384239: $GPRMC,202207,A,3946.9573,N,08404.9832,W,0.0000,0.000,011217,,*36
2017-12-01 15:22:06 1512159726.384302: $GPGSA,A,3,1,10,12,14,18,24,25,31,32,11,138,,2.0,0.8,1.5*3B
2017-12-01 15:22:07 1512159727.388214: $GPZDA,202208.00,01,12,2017,00,00*6A
2017-12-01 15:22:07 1512159727.388393: $GPGGA,202208,3946.9573,N,08404.9832,W,2,11,0.80,299.12,M,-33.324,M,,*70
2017-12-01 15:22:07 1512159727.388464: $GPRMC,202208,A,3946.9573,N,08404.9832,W,0.0000,0.000,011217,,*39
2017-12-01 15:22:07 1512159727.388528: $GPGSA,A,3,1,10,12,14,18,24,25,31,32,11,138,,2.0,0.8,1.5*3B
2017-12-01 15:22:08 1512159728.723498: $GPGSV,3,1,12,01,07,325,41,10,80,105,46,12,23,082,45,14,48,279,43*7B
2017-12-01 15:22:08 1512159728.723734: $GPGSV,3,2,12,18,47,127,48,24,23,046,45,25,22,124,44,31,24,208,45*72
2017-12-01 15:22:08 1512159728.723802: $GPGSV,3,3,12,32,63,304,47,11,09,310,35,21,03,174,14,138,38,213,46*43
2017-12-01 15:22:08 1512159728.837078: $GPZDA,202209.00,01,12,2017,00,00*6B
2017-12-01 15:22:08 1512159728.837266: $GPGGA,202209,3946.9573,N,08404.9832,W,2,12,0.80,299.12,M,-33.324,M,,*72
2017-12-01 15:22:08 1512159728.837334: $GPRMC,202209,A,3946.9573,N,08404.9832,W,0.0000,0.000,011217,,*38
2017-12-01 15:22:08 1512159728.837396: $GPGSA,A,3,1,10,12,14,18,24,25,31,32,11,21,138,2.0,0.8,1.5*38
2017-12-01 15:22:09 1512159729.388951: $GPZDA,202210.00,01,12,2017,00,00*63
2017-12-01 15:22:09 1512159729.389129: $GPGGA,202210,3946.9573,N,08404.9832,W,2,12,0.80,299.12,M,-33.324,M,,*7A
2017-12-01 15:22:09 1512159729.389197: $GPRMC,202210,A,3946.9573,N,08404.9832,W,0.0000,0.000,011217,,*30
2017-12-01 15:22:09 1512159729.389259: $GPGSA,A,3,1,10,12,14,18,24,25,31,32,11,21,138,2.0,0.8,1.5*38
2017-12-01 15:22:10 1512159730.388839: $GPZDA,202211.00,01,12,2017,00,00*62
2017-12-01 15:22:10 1512159730.389012: $GPGGA,202211,3946.9573,N,08404.9832,W,2,12,0.80,299.12,M,-33.324,M,,*7B
2017-12-01 15:22:10 1512159730.389079: $GPRMC,202211,A,3946.9573,N,08404.9832,W,0.0000,0.000,011217,,*31
2017-12-01 15:22:10 1512159730.389140: $GPGSA,A,3,1,10,12,14,18,24,25,31,32,11,21,138,2.0,0.8,1.5*38
2017-12-01 15:22:11 1512159731.724355: $GPGSV,3,1,12,01,07,325,42,10,80,105,46,12,23,082,45,14,48,279,43*78
2017-12-01 15:22:11 1512159731.724540: $GPGSV,3,2,12,18,47,127,48,24,23,046,45,25,22,124,45,31,24,208,46*70
2017-12-01 15:22:11 1512159731.724607: $GPGSV,3,3,12,32,63,304,47,11,09,310,35,21,03,174,16,138,38,213,45*42
2017-12-01 15:22:11 1512159731.837919: $GPZDA,202212.00,01,12,2017,00,00*61
2017-12-01 15:22:11 1512159731.838109: $GPGGA,202212,3946.9573,N,08404.9832,W,2,12,0.80,299.12,M,-33.324,M,,*78
2017-12-01 15:22:11 1512159731.838178: $GPRMC,202212,A,3946.9573,N,08404.9832,W,0.0000,0.000,011217,,*32
2017-12-01 15:22:11 1512159731.838239: $GPGSA,A,3,1,10,12,14,18,24,25,31,32,11,21,138,2.0,0.8,1.5*38
2017-12-01 15:22:12 1512159732.388624: $GPZDA,202213.00,01,12,2017,00,00*60
2017-12-01 15:22:12 1512159732.388833: $GPGGA,202213,3946.9573,N,08404.9832,W,2,12,0.80,299.12,M,-33.324,M,,*79
2017-12-01 15:22:12 1512159732.388903: $GPRMC,202213,A,3946.9573,N,08404.9832,W,0.0000,0.000,011217,,*33
2017-12-01 15:22:12 1512159732.388965: $GPGSA,A,3,1,10,12,14,18,24,25,31,32,11,21,138,2.0,0.8,1.5*38
2017-12-01 15:22:13 1512159733.385694: $GPZDA,202214.00,01,12,2017,00,00*67
2017-12-01 15:22:13 1512159733.385955: $GPGGA,202214,3946.9573,N,08404.9832,W,2,12,0.80,299.12,M,-33.324,M,,*7E
2017-12-01 15:22:13 1512159733.386027: $GPRMC,202214,A,3946.9573,N,08404.9832,W,0.0000,0.000,011217,,*34
2017-12-01 15:22:13 1512159733.386104: $GPGSA,A,3,1,10,12,14,18,24,25,31,32,11,21,138,2.0,0.8,1.5*38
2017-12-01 15:22:14 1512159734.724680: $GPGSV,3,1,12,01,07,325,42,10,80,105,46,12,23,082,45,14,48,279,43*78
2017-12-01 15:22:14 1512159734.724879: $GPGSV,3,2,12,18,47,127,48,24,23,046,45,25,22,124,45,31,24,208,46*70
2017-12-01 15:22:14 1512159734.724946: $GPGSV,3,3,12,32,63,304,47,11,09,310,34,21,03,174,00,138,38,213,46*47
2017-12-01 15:22:14 1512159734.838040: $GPZDA,202215.00,01,12,2017,00,00*66
2017-12-01 15:22:14 1512159734.838215: $GPGGA,202215,3946.9573,N,08404.9832,W,2,11,0.80,299.12,M,-33.324,M,,*7C
2017-12-01 15:22:14 1512159734.838281: $GPRMC,202215,A,3946.9573,N,08404.9832,W,0.0000,0.000,011217,,*35
2017-12-01 15:22:14 1512159734.838341: $GPGSA,A,3,1,10,12,14,18,24,25,31,32,11,138,,2.0,0.8,1.5*3B
2017-12-01 15:22:15 1512159735.387921: $GPZDA,202216.00,01,12,2017,00,00*65
2017-12-01 15:22:15 1512159735.388091: $GPGGA,202216,3946.9570,N,08404.9833,W,2,11,0.80,299.89,M,-33.324,M,,*7F
2017-12-01 15:22:15 1512159735.388158: $GPRMC,202216,A,3946.9570,N,08404.9833,W,0.0000,0.000,011217,,*34
2017-12-01 15:22:15 1512159735.388219: $GPGSA,A,3,1,10,12,14,18,24,25,31,32,11,138,,2.0,0.8,1.5*3B
2017-12-01 15:22:16 1512159736.388826: $GPZDA,202217.00,01,12,2017,00,00*64
2017-12-01 15:22:16 1512159736.389010: $GPGGA,202217,3946.9570,N,08404.9833,W,2,11,0.80,299.89,M,-33.324,M,,*7E
2017-12-01 15:22:16 1512159736.389080: $GPRMC,202217,A,3946.9570,N,08404.9833,W,0.0000,0.000,011217,,*35
2017-12-01 15:22:16 1512159736.389144: $GPGSA,A,3,1,10,12,14,18,24,25,31,32,11,138,,2.0,0.8,1.5*3B
2017-12-01 15:22:17 1512159737.724259: $GPGSV,3,1,12,01,07,325,43,10,80,105,47,12,23,082,45,14,48,279,43*78
2017-12-01 15:22:17 1512159737.724445: $GPGSV,3,2,12,18,47,127,48,24,23,046,45,25,22,124,45,31,24,208,46*70
2017-12-01 15:22:17 1512159737.724578: $GPGSV,3,3,12,32,63,304,47,11,09,310,37,21,03,174,00,138,38,213,46*44
2017-12-01 15:22:17 1512159737.837885: $GPZDA,202218.00,01,12,2017,00,00*6B
2017-12-01 15:22:17 1512159737.838034: $GPGGA,202218,3946.9570,N,08404.9833,W,2,11,0.80,299.89,M,-33.324,M,,*71
2017-12-01 15:22:17 1512159737.838103: $GPRMC,202218,A,3946.9570,N,08404.9833,W,0.0000,0.000,011217,,*3A
2017-12-01 15:22:17 1512159737.838166: $GPGSA,A,3,1,10,12,14,18,24,25,31,32,11,138,,2.0,0.8,1.5*3B
2017-12-01 15:22:18 1512159738.463034: $GPZDA,202219.00,01,12,2017,00,00*6A
2017-12-01 15:22:18 1512159738.463215: $GPGGA,202219,3946.9570,N,08404.9833,W,2,11,0.80,299.89,M,-33.324,M,,*70
2017-12-01 15:22:18 1512159738.463287: $GPRMC,202219,A,3946.9570,N,08404.9833,W,0.0000,0.000,011217,,*3B
2017-12-01 15:22:18 1512159738.463351: $GPGSA,A,3,1,10,12,14,18,24,25,31,32,11,138,,2.0,0.8,1.5*3B
2017-12-01 15:22:19 1512159739.388902: $GPZDA,202220.00,01,12,2017,00,00*60
2017-12-01 15:22:19 1512159739.389083: $GPGGA,202220,3946.9570,N,08404.9833,W,2,11,0.80,299.89,M,-33.324,M,,*7A
2017-12-01 15:22:19 1512159739.389154: $GPRMC,202220,A,3946.9570,N,08404.9833,W,0.0000,0.000,011217,,*31
2017-12-01 15:22:19 1512159739.389219: $GPGSA,A,3,1,10,12,14,18,24,25,31,32,11,138,,2.0,0.8,1.5*3B
2017-12-01 15:22:20 1512159740.718599: $GPGSV,3,1,12,01,07,325,43,10,80,105,47,12,23,082,45,14,48,279,43*78
2017-12-01 15:22:20 1512159740.718801: $GPGSV,3,2,12,18,47,127,48,24,23,046,45,25,22,124,45,31,24,208,45*73
2017-12-01 15:22:20 1512159740.718871: $GPGSV,3,3,12,32,63,304,47,11,09,310,36,21,03,174,00,138,38,213,45*46
2017-12-01 15:22:20 1512159740.832050: $GPZDA,202221.00,01,12,2017,00,00*61
2017-12-01 15:22:20 1512159740.832221: $GPGGA,202221,3946.9570,N,08404.9833,W,2,11,0.80,299.89,M,-33.324,M,,*7B
2017-12-01 15:22:20 1512159740.832292: $GPRMC,202221,A,3946.9570,N,08404.9833,W,0.0000,0.000,011217,,*30
2017-12-01 15:22:20 1512159740.832357: $GPGSA,A,3,1,10,12,14,18,24,25,31,32,11,138,,2.0,0.8,1.5*3B
