2017-11-16 14:28:30 1510860510.719234: {"class":"VERSION","release":"3.17","rev":"3.17","proto_major":3,"proto_minor":12}
2017-11-16 14:28:30 1510860510.720011: {"class":"DEVICES","devices":[{"class":"DEVICE","path":"/dev/ttyUSB0","driver":"SiRF","subtype":"9\u0006GSD4e_4.1.2-P1_RPATCH.05-F-GPS-4R-1510281 11/03/2015 307","activated":"2017-11-16T19:28:30.388Z","flags":1,"native":1,"bps":4800,"parity":"N","stopbits":1,"cycle":1.00}]}
2017-11-16 14:28:30 1510860510.720237: {"class":"WATCH","enable":true,"json":false,"nmea":true,"raw":0,"scaled":false,"timing":false,"split24":false,"pps":false}
2017-11-16 14:28:30 1510860510.838388: $GPGSV,3,1,12,08,07,316,41,10,47,306,46,13,02,051,00,15,32,054,51*77
2017-11-16 14:28:30 1510860510.838543: $GPGSV,3,2,12,18,75,354,46,21,57,186,45,20,28,100,47,24,53,099,46*77
2017-11-16 14:28:30 1510860510.838603: $GPGSV,3,3,12,27,18,282,41,32,26,243,46,14,09,235,38,138,38,213,44*4B
2017-11-16 14:28:30 1510860510.951722: $GPZDA,192829.00,16,11,2017,00,00*6C
2017-11-16 14:28:30 1510860510.951881: $GPGGA,192829,3946.9569,N,08404.9849,W,2,11,0.80,303.30,M,-33.324,M,,*76
2017-11-16 14:28:30 1510860510.951943: $GPRMC,192829,A,3946.9569,N,08404.9849,W,0.0000,0.000,161117,,*38
2017-11-16 14:28:30 1510860510.951999: $GPGSA,A,3,8,10,15,18,21,20,24,27,32,14,138,,1.6,0.8,1.3*37
2017-11-16 14:28:31 1510860511.507609: $GPZDA,192830.00,16,11,2017,00,00*64
2017-11-16 14:28:31 1510860511.507777: $GPGGA,192830,3946.9569,N,08404.9849,W,2,11,0.80,303.30,M,-33.324,M,,*7E
2017-11-16 14:28:31 1510860511.507838: $GPRMC,192830,A,3946.9569,N,08404.9849,W,0.0000,0.000,161117,,*30
2017-11-16 14:28:31 1510860511.507896: $GPGSA,A,3,8,10,15,18,21,20,24,27,32,14,138,,1.6,0.8,1.3*37
2017-11-16 14:28:32 1510860512.507275: $GPZDA,192831.00,16,11,2017,00,00*65
2017-11-16 14:28:32 1510860512.507459: $GPGGA,192831,3946.9569,N,08404.9849,W,2,11,0.80,303.30,M,-33.324,M,,*7F
2017-11-16 14:28:32 1510860512.507523: $GPRMC,192831,A,3946.9569,N,08404.9849,W,0.0000,0.000,161117,,*31
2017-11-16 14:28:32 1510860512.507580: $GPGSA,A,3,8,10,15,18,21,20,24,27,32,14,138,,1.6,0.8,1.3*37
2017-11-16 14:28:33 1510860513.874579: $GPGSV,3,1,12,08,07,316,42,10,47,306,47,13,02,051,00,15,32,054,51*75
2017-11-16 14:28:33 1510860513.874795: $GPGSV,3,2,12,18,75,354,45,21,57,186,45,20,28,100,47,24,53,099,47*75
2017-11-16 14:28:33 1510860513.874860: $GPGSV,3,3,12,27,18,282,41,32,26,243,46,14,09,235,38,138,38,213,44*4B
2017-11-16 14:28:33 1510860513.987659: $GPZDA,192832.00,16,11,2017,00,00*66
2017-11-16 14:28:33 1510860513.987822: $GPGGA,192832,3946.9569,N,08404.9849,W,2,11,0.80,303.30,M,-33.324,M,,*7C
2017-11-16 14:28:33 1510860513.987884: $GPRMC,192832,A,3946.9569,N,08404.9849,W,0.0000,0.000,161117,,*32
2017-11-16 14:28:33 1510860513.987940: $GPGSA,A,3,8,10,15,18,21,20,24,27,32,14,138,,1.6,0.8,1.3*37
2017-11-16 14:28:34 1510860514.613046: $GPZDA,192833.00,16,11,2017,00,00*67
2017-11-16 14:28:34 1510860514.613233: $GPGGA,192833,3946.9569,N,08404.9849,W,2,11,0.80,303.30,M,-33.324,M,,*7D
2017-11-16 14:28:34 1510860514.613314: $GPRMC,192833,A,3946.9569,N,08404.9849,W,0.0000,0.000,161117,,*33
2017-11-16 14:28:34 1510860514.613372: $GPGSA,A,3,8,10,15,18,21,20,24,27,32,14,138,,1.6,0.8,1.3*37
2017-11-16 14:28:35 1510860515.539207: $GPZDA,192834.00,16,11,2017,00,00*60
2017-11-16 14:28:35 1510860515.539379: $GPGGA,192834,3946.9569,N,08404.9849,W,2,11,0.80,303.30,M,-33.324,M,,*7A
2017-11-16 14:28:35 1510860515.539440: $GPRMC,192834,A,3946.9569,N,08404.9849,W,0.0000,0.000,161117,,*34
2017-11-16 14:28:35 1510860515.539497: $GPGSA,A,3,8,10,15,18,21,20,24,27,32,14,138,,1.6,0.8,1.3*37
2017-11-16 14:28:36 1510860516.871006: $GPGSV,3,1,12,08,07,316,42,10,47,306,47,13,02,051,00,15,32,054,51*75
2017-11-16 14:28:36 1510860516.871183: $GPGSV,3,2,12,18,75,354,45,21,57,186,45,20,28,100,47,24,53,099,47*75
2017-11-16 14:28:36 1510860516.871246: $GPGSV,3,3,12,27,18,282,42,32,26,243,46,14,09,235,38,138,38,213,44*48
2017-11-16 14:28:36 1510860516.984604: $GPZDA,192835.00,16,11,2017,00,00*61
2017-11-16 14:28:36 1510860516.984766: $GPGGA,192835,3946.9569,N,08404.9849,W,2,11,0.80,303.30,M,-33.324,M,,*7B
2017-11-16 14:28:36 1510860516.984894: $GPRMC,192835,A,3946.9569,N,08404.9849,W,0.0000,0.000,161117,,*35
2017-11-16 14:28:36 1510860516.984953: $GPGSA,A,3,8,10,15,18,21,20,24,27,32,14,138,,1.6,0.8,1.3*37
2017-11-16 14:28:37 1510860517.534002: $GPZDA,192836.00,16,11,2017,00,00*62
2017-11-16 14:28:37 1510860517.536769: $GPGGA,192836,3946.9569,N,08404.9849,W,2,11,0.80,303.30,M,-33.324,M,,*78
2017-11-16 14:28:37 1510860517.536871: $GPRMC,192836,A,3946.9569,N,08404.9849,W,0.0000,0.000,161117,,*36
2017-11-16 14:28:37 1510860517.536931: $GPGSA,A,3,8,10,15,18,21,20,24,27,32,14,138,,1.6,0.8,1.3*37
2017-11-16 14:28:38 1510860518.508660: $GPZDA,192837.00,16,11,2017,00,00*63
2017-11-16 14:28:38 1510860518.508824: $GPGGA,192837,3946.9569,N,08404.9849,W,2,11,0.80,303.30,M,-33.324,M,,*79
2017-11-16 14:28:38 1510860518.508885: $GPRMC,192837,A,3946.9569,N,08404.9849,W,0.0000,0.000,161117,,*37
2017-11-16 14:28:38 1510860518.508942: $GPGSA,A,3,8,10,15,18,21,20,24,27,32,14,138,,1.6,0.8,1.3*37
2017-11-16 14:28:39 1510860519.843947: $GPGSV,3,1,12,08,07,316,43,10,47,306,47,13,02,051,00,15,32,054,51*74
2017-11-16 14:28:39 1510860519.844119: $GPGSV,3,2,12,18,75,354,45,21,57,186,45,20,28,100,46,24,53,099,47*74
2017-11-16 14:28:39 1510860519.844180: $GPGSV,3,3,12,27,18,282,42,32,26,243,46,14,09,235,37,138,38,213,43*40
2017-11-16 14:28:39 1510860519.957236: $GPZDA,192838.00,16,11,2017,00,00*6C
2017-11-16 14:28:39 1510860519.957398: $GPGGA,192838,3946.9569,N,08404.9849,W,2,11,0.80,303.30,M,-33.324,M,,*76
2017-11-16 14:28:39 1510860519.957459: $GPRMC,192838,A,3946.9569,N,08404.9849,W,0.0000,0.000,161117,,*38
2017-11-16 14:28:39 1510860519.957517: $GPGSA,A,3,8,10,15,18,21,20,24,27,32,14,138,,1.6,0.8,1.3*37
2017-11-16 14:28:40 1510860520.508125: $GPZDA,192839.00,16,11,2017,00,00*6D
2017-11-16 14:28:40 1510860520.508306: $GPGGA,192839,3946.9569,N,08404.9849,W,2,11,0.80,303.30,M,-33.324,M,,*77
2017-11-16 14:28:40 1510860520.508373: $GPRMC,192839,A,3946.9569,N,08404.9849,W,0.0000,0.000,161117,,*39
2017-11-16 14:28:40 1510860520.508430: $GPGSA,A,3,8,10,15,18,21,20,24,27,32,14,138,,1.6,0.8,1.3*37
2017-11-16 14:28:41 1510860521.508021: $GPZDA,192840.00,16,11,2017,00,00*63
2017-11-16 14:28:41 1510860521.508205: $GPGGA,192840,3946.9569,N,08404.9849,W,2,11,0.80,303.30,M,-33.324,M,,*79
2017-11-16 14:28:41 1510860521.508272: $GPRMC,192840,A,3946.9569,N,08404.9849,W,0.0000,0.000,161117,,*37
2017-11-16 14:28:41 1510860521.508332: $GPGSA,A,3,8,10,15,18,21,20,24,27,32,14,138,,1.6,0.8,1.3*37
2017-11-16 14:28:42 1510860522.876123: $GPGSV,3,1,12,08,07,316,42,10,47,306,47,13,02,051,00,15,32,054,51*75
2017-11-16 14:28:42 1510860522.876283: $GPGSV,3,2,12,18,75,354,45,21,57,186,46,20,28,100,46,24,53,099,47*77
2017-11-16 14:28:42 1510860522.876345: $GPGSV,3,3,12,27,18,282,42,32,26,243,46,14,09,235,37,138,38,213,42*41
2017-11-16 14:28:42 1510860522.989515: $GPZDA,192841.00,16,11,2017,00,00*62
2017-11-16 14:28:42 1510860522.989678: $GPGGA,192841,3946.9569,N,08404.9849,W,2,11,0.80,303.30,M,-33.324,M,,*78
2017-11-16 14:28:42 1510860522.989739: $GPRMC,192841,A,3946.9569,N,08404.9849,W,0.0000,0.000,161117,,*36
2017-11-16 14:28:42 1510860522.989797: $GPGSA,A,3,8,10,15,18,21,20,24,27,32,14,138,,1.6,0.8,1.3*37
2017-11-16 14:28:43 1510860523.537865: $GPZDA,192842.00,16,11,2017,00,00*61
2017-11-16 14:28:43 1510860523.538029: $GPGGA,192842,3946.9569,N,08404.9849,W,2,11,0.80,303.30,M,-33.324,M,,*7B
2017-11-16 14:28:43 1510860523.538091: $GPRMC,192842,A,3946.9569,N,08404.9849,W,0.0000,0.000,161117,,*35
2017-11-16 14:28:43 1510860523.538147: $GPGSA,A,3,8,10,15,18,21,20,24,27,32,14,138,,1.6,0.8,1.3*37
2017-11-16 14:28:44 1510860524.500933: $GPZDA,192843.00,16,11,2017,00,00*60
2017-11-16 14:28:44 1510860524.501097: $GPGGA,192843,3946.9569,N,08404.9849,W,2,11,0.80,303.30,M,-33.324,M,,*7A
2017-11-16 14:28:44 1510860524.501158: $GPRMC,192843,A,3946.9569,N,08404.9849,W,0.0000,0.000,161117,,*34
2017-11-16 14:28:44 1510860524.501216: $GPGSA,A,3,8,10,15,18,21,20,24,27,32,14,138,,1.6,0.8,1.3*37
2017-11-16 14:28:45 1510860525.874257: $GPGSV,3,1,12,08,07,316,41,10,47,306,47,13,02,051,00,15,32,054,51*76
2017-11-16 14:28:45 1510860525.874432: $GPGSV,3,2,12,18,75,354,45,21,57,186,46,20,28,100,46,24,53,099,47*77
2017-11-16 14:28:45 1510860525.874497: $GPGSV,3,3,12,27,18,282,42,32,26,243,46,14,09,235,37,138,38,213,43*40
2017-11-16 14:28:45 1510860525.987819: $GPZDA,192844.00,16,11,2017,00,00*67
2017-11-16 14:28:45 1510860525.987953: $GPGGA,192844,3946.9569,N,08404.9849,W,2,11,0.80,303.30,M,-33.324,M,,*7D
2017-11-16 14:28:45 1510860525.988015: $GPRMC,192844,A,3946.9569,N,08404.9849,W,0.0000,0.000,161117,,*33
2017-11-16 14:28:45 1510860525.988071: $GPGSA,A,3,8,10,15,18,21,20,24,27,32,14,138,,1.6,0.8,1.3*37
2017-11-16 14:28:46 1510860526.540005: $GPZDA,192845.00,16,11,2017,00,00*66
2017-11-16 14:28:46 1510860526.540167: $GPGGA,192845,3946.9569,N,08404.9849,W,2,11,0.80,303.30,M,-33.324,M,,*7C
2017-11-16 14:28:46 1510860526.540230: $GPRMC,192845,A,3946.9569,N,08404.9849,W,0.0000,0.000,161117,,*32
2017-11-16 14:28:46 1510860526.540349: $GPGSA,A,3,8,10,15,18,21,20,24,27,32,14,138,,1.6,0.8,1.3*37
2017-11-16 14:28:47 1510860527.539646: $GPZDA,192846.00,16,11,2017,00,00*65
2017-11-16 14:28:47 1510860527.539808: $GPGGA,192846,3946.9569,N,08404.9849,W,2,11,0.80,303.30,M,-33.324,M,,*7F
2017-11-16 14:28:47 1510860527.539871: $GPRMC,192846,A,3946.9569,N,08404.9849,W,0.0000,0.000,161117,,*31
2017-11-16 14:28:47 1510860527.539927: $GPGSA,A,3,8,10,15,18,21,20,24,27,32,14,138,,1.6,0.8,1.3*37
2017-11-16 14:28:48 1510860528.845225: $GPGSV,3,1,12,08,07,316,41,10,47,306,47,13,02,051,00,15,32,054,51*76
2017-11-16 14:28:48 1510860528.845423: $GPGSV,3,2,12,18,75,354,45,21,57,186,46,20,28,100,46,24,53,099,47*77
2017-11-16 14:28:48 1510860528.845487: $GPGSV,3,3,12,27,18,282,42,32,26,243,46,14,09,235,37,138,38,213,44*47
2017-11-16 14:28:48 1510860528.958398: $GPZDA,192847.00,16,11,2017,00,00*64
2017-11-16 14:28:48 1510860528.958579: $GPGGA,192847,3946.9569,N,08404.9849,W,2,11,0.80,303.30,M,-33.324,M,,*7E
2017-11-16 14:28:48 1510860528.958642: $GPRMC,192847,A,3946.9569,N,08404.9849,W,0.0000,0.000,161117,,*30
2017-11-16 14:28:48 1510860528.958698: $GPGSA,A,3,8,10,15,18,21,20,24,27,32,14,138,,1.6,0.8,1.3*37
2017-11-16 14:28:49 1510860529.583935: $GPZDA,192848.00,16,11,2017,00,00*6B
2017-11-16 14:28:49 1510860529.584091: $GPGGA,192848,3946.9569,N,08404.9849,W,2,11,0.80,303.30,M,-33.324,M,,*71
2017-11-16 14:28:49 1510860529.584153: $GPRMC,192848,A,3946.9569,N,08404.9849,W,0.0000,0.000,161117,,*3F
2017-11-16 14:28:49 1510860529.584210: $GPGSA,A,3,8,10,15,18,21,20,24,27,32,14,138,,1.6,0.8,1.3*37
2017-11-16 14:28:50 1510860530.502656: $GPZDA,192849.00,16,11,2017,00,00*6A
2017-11-16 14:28:50 1510860530.502818: $GPGGA,192849,3946.9569,N,08404.9849,W,2,11,0.80,303.30,M,-33.324,M,,*70
2017-11-16 14:28:50 1510860530.502880: $GPRMC,192849,A,3946.9569,N,08404.9849,W,0.0000,0.000,161117,,*3E
2017-11-16 14:28:50 1510860530.502938: $GPGSA,A,3,8,10,15,18,21,20,24,27,32,14,138,,1.6,0.8,1.3*37
2017-11-16 14:28:51 1510860531.843129: $GPGSV,3,1,12,08,07,316,34,10,47,306,47,13,02,051,00,15,32,054,51*74
2017-11-16 14:28:51 1510860531.843301: $GPGSV,3,2,12,18,75,354,45,21,57,186,46,20,28,100,46,24,53,099,46*76
2017-11-16 14:28:51 1510860531.843364: $GPGSV,3,3,12,27,18,282,41,32,26,243,45,14,09,235,37,138,38,213,44*47
2017-11-16 14:28:51 1510860531.956509: $GPZDA,192850.00,16,11,2017,00,00*62
2017-11-16 14:28:51 1510860531.956702: $GPGGA,192850,3946.9569,N,08404.9849,W,2,11,0.80,303.30,M,-33.324,M,,*78
2017-11-16 14:28:51 1510860531.956767: $GPRMC,192850,A,3946.9569,N,08404.9849,W,0.0000,0.000,161117,,*36
2017-11-16 14:28:51 1510860531.956827: $GPGSA,A,3,8,10,15,18,21,20,24,27,32,14,138,,1.6,0.8,1.3*37
2017-11-16 14:28:52 1510860532.507297: $GPZDA,192851.00,16,11,2017,00,00*63
2017-11-16 14:28:52 1510860532.507459: $GPGGA,192851,3946.9564,N,08404.9849,W,2,11,0.80,302.66,M,-33.324,M,,*76
2017-11-16 14:28:52 1510860532.507523: $GPRMC,192851,A,3946.9564,N,08404.9849,W,0.0000,0.000,161117,,*3A
2017-11-16 14:28:52 1510860532.507579: $GPGSA,A,3,8,10,15,18,21,20,24,27,32,14,138,,1.6,0.8,1.3*37
2017-11-16 14:28:53 1510860533.513230: $GPZDA,192852.00,16,11,2017,00,00*60
2017-11-16 14:28:53 1510860533.513425: $GPGGA,192852,3946.9564,N,08404.9849,W,2,11,0.80,302.66,M,-33.324,M,,*75
2017-11-16 14:28:53 1510860533.513511: $GPRMC,192852,A,3946.9564,N,08404.9849,W,0.0000,0.000,161117,,*39
2017-11-16 14:28:53 1510860533.513574: $GPGSA,A,3,8,10,15,18,21,20,24,27,32,14,138,,1.6,0.8,1.3*37
2017-11-16 14:28:54 1510860534.844710: $GPGSV,3,1,12,08,07,316,33,10,47,306,47,13,02,051,04,15,32,054,51*77
2017-11-16 14:28:54 1510860534.844883: $GPGSV,3,2,12,18,75,354,45,21,57,186,46,20,28,100,46,24,53,099,46*76
2017-11-16 14:28:54 1510860534.844945: $GPGSV,3,3,12,27,18,282,41,32,26,243,45,14,09,235,37,138,38,213,43*40
2017-11-16 14:28:54 1510860534.958055: $GPZDA,192853.00,16,11,2017,00,00*61
2017-11-16 14:28:54 1510860534.958216: $GPGGA,192853,3946.9564,N,08404.9849,W,2,11,0.80,302.66,M,-33.324,M,,*74
2017-11-16 14:28:54 1510860534.958278: $GPRMC,192853,A,3946.9564,N,08404.9849,W,0.0000,0.000,161117,,*38
2017-11-16 14:28:54 1510860534.958335: $GPGSA,A,3,8,10,15,18,21,20,24,27,32,14,138,,1.6,0.8,1.3*37
2017-11-16 14:28:55 1510860535.507686: $GPZDA,192854.00,16,11,2017,00,00*66
2017-11-16 14:28:55 1510860535.507849: $GPGGA,192854,3946.9564,N,08404.9849,W,2,11,0.80,302.66,M,-33.324,M,,*73
2017-11-16 14:28:55 1510860535.507913: $GPRMC,192854,A,3946.9564,N,08404.9849,W,0.0000,0.000,161117,,*3F
2017-11-16 14:28:55 1510860535.507969: $GPGSA,A,3,8,10,15,18,21,20,24,27,32,14,138,,1.6,0.8,1.3*37
2017-11-16 14:28:56 1510860536.502344: $GPZDA,192855.00,16,11,2017,00,00*67
2017-11-16 14:28:56 1510860536.502508: $GPGGA,192855,3946.9564,N,08404.9849,W,2,11,0.80,302.66,M,-33.324,M,,*72
2017-11-16 14:28:56 1510860536.502571: $GPRMC,192855,A,3946.9564,N,08404.9849,W,0.0000,0.000,161117,,*3E
2017-11-16 14:28:56 1510860536.502629: $GPGSA,A,3,8,10,15,18,21,20,24,27,32,14,138,,1.6,0.8,1.3*37
2017-11-16 14:28:57 1510860537.844492: $GPGSV,3,1,12,08,07,316,20,10,47,306,47,13,02,051,07,15,32,054,51*76
2017-11-16 14:28:57 1510860537.844635: $GPGSV,3,2,12,18,75,354,45,21,57,186,46,20,28,100,47,24,53,099,47*76
2017-11-16 14:28:57 1510860537.844695: $GPGSV,3,3,12,27,18,282,41,32,26,243,46,14,09,235,38,138,38,213,44*4B
2017-11-16 14:28:57 1510860537.957935: $GPZDA,192856.00,16,11,2017,00,00*64
2017-11-16 14:28:57 1510860537.958097: $GPGGA,192856,3946.9564,N,08404.9849,W,2,11,0.80,302.66,M,-33.324,M,,*71
2017-11-16 14:28:57 1510860537.958159: $GPRMC,192856,A,3946.9564,N,08404.9849,W,0.0000,0.000,161117,,*3D
2017-11-16 14:28:57 1510860537.958217: $GPGSA,A,3,8,10,15,18,21,20,24,27,32,14,138,,1.6,0.8,1.3*37
2017-11-16 14:28:58 1510860538.507598: $GPZDA,192857.00,16,11,2017,00,00*65
2017-11-16 14:28:58 1510860538.507770: $GPGGA,192857,3946.9564,N,08404.9849,W,2,11,0.80,302.66,M,-33.324,M,,*70
2017-11-16 14:28:58 1510860538.507832: $GPRMC,192857,A,3946.9564,N,08404.9849,W,0.0000,0.000,161117,,*3C
2017-11-16 14:28:58 1510860538.507890: $GPGSA,A,3,8,10,15,18,21,20,24,27,32,14,138,,1.6,0.8,1.3*37
2017-11-16 14:28:59 1510860539.506744: $GPZDA,192858.00,16,11,2017,00,00*6A
2017-11-16 14:28:59 1510860539.506910: $GPGGA,192858,3946.9564,N,08404.9849,W,2,11,0.80,302.66,M,-33.324,M,,*7F
2017-11-16 14:28:59 1510860539.506971: $GPRMC,192858,A,3946.9564,N,08404.9849,W,0.0000,0.000,161117,,*33
2017-11-16 14:28:59 1510860539.507028: $GPGSA,A,3,8,10,15,18,21,20,24,27,32,14,138,,1.6,0.8,1.3*37
