2017-12-29 10:43:41 1514562221.236923: {"class":"VERSION","release":"3.16","rev":"3.16-4","proto_major":3,"proto_minor":11}
2017-12-29 10:43:41 1514562221.237274: {"class":"DEVICES","devices":[{"class":"DEVICE","path":"/dev/ttyUSB0","driver":"SiRF","subtype":"9\u0006GSD4e_4.1.2-P1_RPATCH.05-F-GPS-4R-1510281 11/03/2015 307","activated":"2017-12-29T15:43:41.200Z","flags":1,"native":1,"bps":4800,"parity":"N","stopbits":1,"cycle":1.00}]}
2017-12-29 10:43:41 1514562221.237391: {"class":"WATCH","enable":true,"json":false,"nmea":true,"raw":0,"scaled":false,"timing":false,"split24":false,"pps":false}
2017-12-29 10:43:41 1514562221.377227: $GPZDA,154342.00,29,12,2017,00,00*6F
2017-12-29 10:43:41 1514562221.377414: $GPGGA,154342,3946.9587,N,08404.9827,W,2,11,0.80,303.93,M,-33.324,M,,*7B
2017-12-29 10:43:41 1514562221.377480: $GPRMC,154342,A,3946.9587,N,08404.9827,W,0.0000,0.000,291217,,*33
2017-12-29 10:43:41 1514562221.377542: $GPGSA,A,3,10,13,15,18,20,21,24,27,29,32,138,,1.7,0.8,1.3*02
2017-12-29 10:43:42 1514562222.376840: $GPZDA,154343.00,29,12,2017,00,00*6E
2017-12-29 10:43:42 1514562222.377013: $GPGGA,154343,3946.9587,N,08404.9827,W,2,11,0.80,303.93,M,-33.324,M,,*7A
2017-12-29 10:43:42 1514562222.377082: $GPRMC,154343,A,3946.9587,N,08404.9827,W,0.0000,0.000,291217,,*32
2017-12-29 10:43:42 1514562222.377143: $GPGSA,A,3,10,13,15,18,20,21,24,27,29,32,138,,1.7,0.8,1.3*02
2017-12-29 10:43:43 1514562223.713844: $GPGSV,3,1,11,10,30,289,46,13,20,045,43,15,51,049,50,18,61,312,44*78
2017-12-29 10:43:43 1514562223.714014: $GPGSV,3,2,11,20,46,081,49,21,77,220,47,24,41,130,50,27,19,304,38*79
2017-12-29 10:43:43 1514562223.714081: $GPGSV,3,3,11,29,03,187,26,32,09,229,28,138,38,213,45*70
2017-12-29 10:43:43 1514562223.827261: $GPZDA,154344.00,29,12,2017,00,00*69
2017-12-29 10:43:43 1514562223.827410: $GPGGA,154344,3946.9587,N,08404.9827,W,2,11,0.80,303.93,M,-33.324,M,,*7D
2017-12-29 10:43:43 1514562223.827475: $GPRMC,154344,A,3946.9587,N,08404.9827,W,0.0000,0.000,291217,,*35
2017-12-29 10:43:43 1514562223.827536: $GPGSA,A,3,10,13,15,18,20,21,24,27,29,32,138,,1.7,0.8,1.3*02
2017-12-29 10:43:44 1514562224.452644: $GPZDA,154345.00,29,12,2017,00,00*68
2017-12-29 10:43:44 1514562224.452803: $GPGGA,154345,3946.9587,N,08404.9827,W,2,11,0.80,303.93,M,-33.324,M,,*7C
2017-12-29 10:43:44 1514562224.452868: $GPRMC,154345,A,3946.9587,N,08404.9827,W,0.0000,0.000,291217,,*34
2017-12-29 10:43:44 1514562224.452930: $GPGSA,A,3,10,13,15,18,20,21,24,27,29,32,138,,1.7,0.8,1.3*02
2017-12-29 10:43:45 1514562225.377238: $GPZDA,154346.00,29,12,2017,00,00*6B
2017-12-29 10:43:45 1514562225.377425: $GPGGA,154346,3946.9587,N,08404.9827,W,2,11,0.80,303.93,M,-33.324,M,,*7F
2017-12-29 10:43:45 1514562225.377492: $GPRMC,154346,A,3946.9587,N,08404.9827,W,0.0000,0.000,291217,,*37
2017-12-29 10:43:45 1514562225.377553: $GPGSA,A,3,10,13,15,18,20,21,24,27,29,32,138,,1.7,0.8,1.3*02
2017-12-29 10:43:46 1514562226.712980: $GPGSV,3,1,11,10,30,289,46,13,20,045,42,15,51,049,50,18,61,312,44*79
2017-12-29 10:43:46 1514562226.713152: $GPGSV,3,2,11,20,46,081,49,21,77,220,47,24,41,130,49,27,19,304,37*7E
2017-12-29 10:43:46 1514562226.713218: $GPGSV,3,3,11,29,03,187,25,32,09,229,29,138,38,213,46*71
2017-12-29 10:43:46 1514562226.826330: $GPZDA,154347.00,29,12,2017,00,00*6A
2017-12-29 10:43:46 1514562226.826469: $GPGGA,154347,3946.9586,N,08404.9820,W,2,11,0.80,304.01,M,-33.324,M,,*74
2017-12-29 10:43:46 1514562226.826536: $GPRMC,154347,A,3946.9586,N,08404.9820,W,0.0000,0.000,291217,,*30
2017-12-29 10:43:46 1514562226.826596: $GPGSA,A,3,10,13,15,18,20,21,24,27,29,32,138,,1.7,0.8,1.3*02
2017-12-29 10:43:47 1514562227.375982: $GPZDA,154348.00,29,12,2017,00,00*65
2017-12-29 10:43:47 1514562227.376151: $GPGGA,154348,3946.9586,N,08404.9820,W,2,11,0.80,304.01,M,-33.324,M,,*7B
2017-12-29 10:43:47 1514562227.376217: $GPRMC,154348,A,3946.9586,N,08404.9820,W,0.0000,0.000,291217,,*3F
2017-12-29 10:43:47 1514562227.376281: $GPGSA,A,3,10,13,15,18,20,21,24,27,29,32,138,,1.7,0.8,1.3*02
2017-12-29 10:43:48 1514562228.375636: $GPZDA,154349.00,29,12,2017,00,00*64
2017-12-29 10:43:48 1514562228.375803: $GPGGA,154349,3946.9586,N,08404.9820,W,2,11,0.80,304.01,M,-33.324,M,,*7A
2017-12-29 10:43:48 1514562228.375924: $GPRMC,154349,A,3946.9586,N,08404.9820,W,0.0000,0.000,291217,,*3E
2017-12-29 10:43:48 1514562228.375988: $GPGSA,A,3,10,13,15,18,20,21,24,27,29,32,138,,1.7,0.8,1.3*02
2017-12-29 10:43:50 1514562230.218452: $GPGSV,3,1,11,10,30,289,46,13,20,045,43,15,51,049,50,18,61,312,44*78
2017-12-29 10:43:50 1514562230.218606: $GPGSV,3,2,11,20,46,081,49,21,77,219,47,24,41,130,50,27,19,304,37*7C
2017-12-29 10:43:50 1514562230.218672: $GPGSV,3,3,11,29,03,187,25,32,09,229,35,138,38,213,45*7F
2017-12-29 10:43:50 1514562230.331889: $GPZDA,154350.00,29,12,2017,00,00*6C
2017-12-29 10:43:50 1514562230.332057: $GPGGA,154350,3946.9597,N,08404.9818,W,2,11,0.80,301.72,M,-33.324,M,,*78
2017-12-29 10:43:50 1514562230.332123: $GPRMC,154350,A,3946.9597,N,08404.9818,W,0.0000,0.000,291217,,*3D
2017-12-29 10:43:50 1514562230.332183: $GPGSA,A,3,10,13,15,18,20,21,24,27,29,32,138,,1.7,0.8,1.3*02
2017-12-29 10:43:50 1514562230.784011: $GPZDA,154351.00,29,12,2017,00,00*6D
2017-12-29 10:43:50 1514562230.784183: $GPGGA,154351,3946.9597,N,08404.9818,W,2,11,0.80,301.72,M,-33.324,M,,*79
2017-12-29 10:43:50 1514562230.784252: $GPRMC,154351,A,3946.9597,N,08404.9818,W,0.0000,0.000,291217,,*3C
2017-12-29 10:43:50 1514562230.784312: $GPGSA,A,3,10,13,15,18,20,21,24,27,29,32,138,,1.7,0.8,1.3*02
