2017-11-16 17:22:55 1510870975.244301: {"class":"VERSION","release":"3.17","rev":"3.17","proto_major":3,"proto_minor":12}
2017-11-16 17:22:55 1510870975.244909: {"class":"DEVICES","devices":[{"class":"DEVICE","path":"/dev/ttyUSB0","driver":"SiRF","subtype":"9\u0006GSD4e_4.1.2-P1_RPATCH.05-F-GPS-4R-1510281 11/03/2015 307","activated":"2017-11-16T22:22:55.012Z","flags":1,"native":1,"bps":4800,"parity":"N","stopbits":1,"cycle":1.00}]}
2017-11-16 17:22:55 1510870975.245095: {"class":"WATCH","enable":true,"json":false,"nmea":true,"raw":0,"scaled":false,"timing":false,"split24":false,"pps":false}
2017-11-16 17:22:55 1510870975.423680: $GPZDA,222254.00,16,11,2017,00,00*64
2017-11-16 17:22:55 1510870975.423858: $GPGGA,222254,3946.9574,N,08404.9830,W,2,11,0.80,308.39,M,-33.324,M,,*7E
2017-11-16 17:22:55 1510870975.423922: $GPRMC,222254,A,3946.9574,N,08404.9830,W,0.0000,0.000,161117,,*32
2017-11-16 17:22:55 1510870975.423981: $GPGSA,A,3,1,10,22,12,14,18,11,25,31,32,138,,1.6,0.8,1.3*3E
2017-11-16 17:22:56 1510870976.402607: $GPZDA,222255.00,16,11,2017,00,00*65
2017-11-16 17:22:56 1510870976.402765: $GPGGA,222255,3946.9574,N,08404.9830,W,2,11,0.80,308.39,M,-33.324,M,,*7F
2017-11-16 17:22:56 1510870976.402827: $GPRMC,222255,A,3946.9574,N,08404.9830,W,0.0000,0.000,161117,,*33
2017-11-16 17:22:56 1510870976.402885: $GPGSA,A,3,1,10,22,12,14,18,11,25,31,32,138,,1.6,0.8,1.3*3E
2017-11-16 17:22:57 1510870977.738509: $GPGSV,3,1,12,01,20,304,36,10,53,145,49,22,15,312,41,12,23,054,50*74
2017-11-16 17:22:57 1510870977.738687: $GPGSV,3,2,12,14,64,318,47,18,22,142,40,24,01,048,00,11,09,286,42*77
2017-11-16 17:22:57 1510870977.738751: $GPGSV,3,3,12,25,38,096,48,31,51,222,49,32,69,013,48,138,38,213,44*4D
2017-11-16 17:22:57 1510870977.851742: $GPZDA,222256.00,16,11,2017,00,00*66
2017-11-16 17:22:57 1510870977.851904: $GPGGA,222256,3946.9574,N,08404.9830,W,2,11,0.80,308.39,M,-33.324,M,,*7C
2017-11-16 17:22:57 1510870977.851968: $GPRMC,222256,A,3946.9574,N,08404.9830,W,0.0000,0.000,161117,,*30
2017-11-16 17:22:57 1510870977.852024: $GPGSA,A,3,1,10,22,12,14,18,11,25,31,32,138,,1.6,0.8,1.3*3E
2017-11-16 17:22:58 1510870978.401324: $GPZDA,222257.00,16,11,2017,00,00*67
2017-11-16 17:22:58 1510870978.401486: $GPGGA,222257,3946.9574,N,08404.9830,W,2,11,0.80,308.39,M,-33.324,M,,*7D
2017-11-16 17:22:58 1510870978.401547: $GPRMC,222257,A,3946.9574,N,08404.9830,W,0.0000,0.000,161117,,*31
2017-11-16 17:22:58 1510870978.401605: $GPGSA,A,3,1,10,22,12,14,18,11,25,31,32,138,,1.6,0.8,1.3*3E
2017-11-16 17:22:59 1510870979.400852: $GPZDA,222258.00,16,11,2017,00,00*68
2017-11-16 17:22:59 1510870979.401031: $GPGGA,222258,3946.9574,N,08404.9830,W,2,11,0.80,308.39,M,-33.324,M,,*72
2017-11-16 17:22:59 1510870979.401095: $GPRMC,222258,A,3946.9574,N,08404.9830,W,0.0000,0.000,161117,,*3E
2017-11-16 17:22:59 1510870979.401151: $GPGSA,A,3,1,10,22,12,14,18,11,25,31,32,138,,1.6,0.8,1.3*3E
2017-11-16 17:23:00 1510870980.738986: $GPGSV,3,1,12,01,20,304,37,10,53,145,49,22,15,312,41,12,23,054,50*75
2017-11-16 17:23:00 1510870980.739145: $GPGSV,3,2,12,14,64,318,47,18,22,142,40,24,01,048,00,11,09,286,42*77
2017-11-16 17:23:00 1510870980.739207: $GPGSV,3,3,12,25,38,096,48,31,51,222,49,32,69,013,48,138,38,213,44*4D
2017-11-16 17:23:00 1510870980.852620: $GPZDA,222259.00,16,11,2017,00,00*69
2017-11-16 17:23:00 1510870980.852781: $GPGGA,222259,3946.9574,N,08404.9830,W,2,11,0.80,308.39,M,-33.324,M,,*73
2017-11-16 17:23:00 1510870980.852844: $GPRMC,222259,A,3946.9574,N,08404.9830,W,0.0000,0.000,161117,,*3F
2017-11-16 17:23:00 1510870980.852900: $GPGSA,A,3,1,10,22,12,14,18,11,25,31,32,138,,1.6,0.8,1.3*3E
2017-11-16 17:23:01 1510870981.477641: $GPZDA,222300.00,16,11,2017,00,00*64
2017-11-16 17:23:01 1510870981.477825: $GPGGA,222300,3946.9574,N,08404.9830,W,2,11,0.80,308.39,M,-33.324,M,,*7E
2017-11-16 17:23:01 1510870981.477888: $GPRMC,222300,A,3946.9574,N,08404.9830,W,0.0000,0.000,161117,,*32
2017-11-16 17:23:01 1510870981.477947: $GPGSA,A,3,1,10,22,12,14,18,11,25,31,32,138,,1.6,0.8,1.3*3E
2017-11-16 17:23:02 1510870982.401007: $GPZDA,222301.00,16,11,2017,00,00*65
2017-11-16 17:23:02 1510870982.401241: $GPGGA,222301,3946.9574,N,08404.9830,W,2,11,0.80,308.39,M,-33.324,M,,*7F
2017-11-16 17:23:02 1510870982.401305: $GPRMC,222301,A,3946.9574,N,08404.9830,W,0.0000,0.000,161117,,*33
2017-11-16 17:23:02 1510870982.401362: $GPGSA,A,3,1,10,22,12,14,18,11,25,31,32,138,,1.6,0.8,1.3*3E
2017-11-16 17:23:03 1510870983.731741: $GPGSV,3,1,12,01,20,304,37,10,53,145,49,22,15,312,42,12,23,054,50*76
2017-11-16 17:23:03 1510870983.731920: $GPGSV,3,2,12,14,64,318,47,18,22,142,40,24,01,048,00,11,09,286,41*74
2017-11-16 17:23:03 1510870983.731999: $GPGSV,3,3,12,25,38,096,48,31,51,222,49,32,69,013,49,138,38,213,43*4B
2017-11-16 17:23:03 1510870983.845195: $GPZDA,222302.00,16,11,2017,00,00*66
2017-11-16 17:23:03 1510870983.845386: $GPGGA,222302,3946.9574,N,08404.9830,W,2,11,0.80,308.39,M,-33.324,M,,*7C
2017-11-16 17:23:03 1510870983.845449: $GPRMC,222302,A,3946.9574,N,08404.9830,W,0.0000,0.000,161117,,*30
2017-11-16 17:23:03 1510870983.845509: $GPGSA,A,3,1,10,22,12,14,18,11,25,31,32,138,,1.6,0.8,1.3*3E
2017-11-16 17:23:04 1510870984.403484: $GPZDA,222303.00,16,11,2017,00,00*67
2017-11-16 17:23:04 1510870984.405236: $GPGGA,222303,3946.9574,N,08404.9830,W,2,11,0.80,308.39,M,-33.324,M,,*7D
2017-11-16 17:23:04 1510870984.405346: $GPRMC,222303,A,3946.9574,N,08404.9830,W,0.0000,0.000,161117,,*31
2017-11-16 17:23:04 1510870984.405406: $GPGSA,A,3,1,10,22,12,14,18,11,25,31,32,138,,1.6,0.8,1.3*3E
