2017-11-16 14:46:34 1510861594.035866: {"class":"VERSION","release":"3.17","rev":"3.17","proto_major":3,"proto_minor":12}
2017-11-16 14:46:34 1510861594.036479: {"class":"DEVICES","devices":[{"class":"DEVICE","path":"/dev/ttyUSB0","driver":"SiRF","subtype":"9\u0006GSD4e_4.1.2-P1_RPATCH.05-F-GPS-4R-1510281 11/03/2015 307","activated":"2017-11-16T19:46:34.018Z","flags":1,"native":1,"bps":4800,"parity":"N","stopbits":1,"cycle":1.00}]}
2017-11-16 14:46:34 1510861594.036747: {"class":"WATCH","enable":true,"json":false,"nmea":true,"raw":0,"scaled":false,"timing":false,"split24":false,"pps":false}
2017-11-16 14:46:34 1510861594.605197: $GPZDA,194633.00,16,11,2017,00,00*6F
2017-11-16 14:46:34 1510861594.605429: $GPGGA,194633,3946.9564,N,08404.9842,W,2,11,0.80,302.74,M,-33.324,M,,*72
2017-11-16 14:46:34 1510861594.605493: $GPRMC,194633,A,3946.9564,N,08404.9842,W,0.0000,0.000,161117,,*3D
2017-11-16 14:46:34 1510861594.605550: $GPGSA,A,3,8,10,15,18,21,20,24,27,32,14,138,,1.6,0.8,1.3*37
2017-11-16 14:46:35 1510861595.493497: $GPZDA,194634.00,16,11,2017,00,00*68
2017-11-16 14:46:35 1510861595.493692: $GPGGA,194634,3946.9564,N,08404.9842,W,2,11,0.80,302.74,M,-33.324,M,,*75
2017-11-16 14:46:35 1510861595.493757: $GPRMC,194634,A,3946.9564,N,08404.9842,W,0.0000,0.000,161117,,*3A
2017-11-16 14:46:35 1510861595.493813: $GPGSA,A,3,8,10,15,18,21,20,24,27,32,14,138,,1.6,0.8,1.3*37
2017-11-16 14:46:36 1510861596.824351: $GPGSV,3,1,11,08,08,309,30,10,53,313,50,15,25,058,50,18,77,027,45*77
2017-11-16 14:46:36 1510861596.824523: $GPGSV,3,2,11,21,48,183,48,20,22,106,45,24,53,084,49,27,15,274,41*71
2017-11-16 14:46:36 1510861596.824582: $GPGSV,3,3,11,32,32,249,47,14,16,241,41,138,38,213,44*74
2017-11-16 14:46:36 1510861596.937890: $GPZDA,194635.00,16,11,2017,00,00*69
2017-11-16 14:46:36 1510861596.938052: $GPGGA,194635,3946.9564,N,08404.9842,W,2,11,0.80,302.74,M,-33.324,M,,*74
2017-11-16 14:46:36 1510861596.938113: $GPRMC,194635,A,3946.9564,N,08404.9842,W,0.0000,0.000,161117,,*3B
2017-11-16 14:46:36 1510861596.938169: $GPGSA,A,3,8,10,15,18,21,20,24,27,32,14,138,,1.6,0.8,1.3*37
2017-11-16 14:46:37 1510861597.493751: $GPZDA,194636.00,16,11,2017,00,00*6A
2017-11-16 14:46:37 1510861597.493913: $GPGGA,194636,3946.9564,N,08404.9842,W,2,11,0.80,302.74,M,-33.324,M,,*77
2017-11-16 14:46:37 1510861597.493973: $GPRMC,194636,A,3946.9564,N,08404.9842,W,0.0000,0.000,161117,,*38
2017-11-16 14:46:37 1510861597.494029: $GPGSA,A,3,8,10,15,18,21,20,24,27,32,14,138,,1.6,0.8,1.3*37
2017-11-16 14:46:38 1510861598.494781: $GPZDA,194637.00,16,11,2017,00,00*6B
2017-11-16 14:46:38 1510861598.494965: $GPGGA,194637,3946.9564,N,08404.9842,W,2,11,0.80,302.74,M,-33.324,M,,*76
2017-11-16 14:46:38 1510861598.495030: $GPRMC,194637,A,3946.9564,N,08404.9842,W,0.0000,0.000,161117,,*39
2017-11-16 14:46:38 1510861598.495092: $GPGSA,A,3,8,10,15,18,21,20,24,27,32,14,138,,1.6,0.8,1.3*37
2017-11-16 14:46:39 1510861599.829592: $GPGSV,3,1,11,08,08,309,28,10,53,313,50,15,25,058,50,18,77,027,44*7F
2017-11-16 14:46:39 1510861599.829763: $GPGSV,3,2,11,21,48,183,48,20,22,106,45,24,53,084,49,27,15,274,41*71
2017-11-16 14:46:39 1510861599.829824: $GPGSV,3,3,11,32,32,249,47,14,16,241,41,138,38,213,43*73
2017-11-16 14:46:39 1510861599.943038: $GPZDA,194638.00,16,11,2017,00,00*64
2017-11-16 14:46:39 1510861599.943228: $GPGGA,194638,3946.9564,N,08404.9842,W,2,11,0.80,302.74,M,-33.324,M,,*79
2017-11-16 14:46:39 1510861599.943297: $GPRMC,194638,A,3946.9564,N,08404.9842,W,0.0000,0.000,161117,,*36
2017-11-16 14:46:39 1510861599.943354: $GPGSA,A,3,8,10,15,18,21,20,24,27,32,14,138,,1.6,0.8,1.3*37
2017-11-16 14:46:40 1510861600.493633: $GPZDA,194639.00,16,11,2017,00,00*65
2017-11-16 14:46:40 1510861600.493814: $GPGGA,194639,3946.9564,N,08404.9842,W,2,11,0.80,302.74,M,-33.324,M,,*78
2017-11-16 14:46:40 1510861600.493877: $GPRMC,194639,A,3946.9564,N,08404.9842,W,0.0000,0.000,161117,,*37
2017-11-16 14:46:40 1510861600.493955: $GPGSA,A,3,8,10,15,18,21,20,24,27,32,14,138,,1.6,0.8,1.3*37
2017-11-16 14:46:41 1510861601.493625: $GPZDA,194640.00,16,11,2017,00,00*6B
2017-11-16 14:46:41 1510861601.493783: $GPGGA,194640,3946.9564,N,08404.9842,W,2,11,0.80,302.74,M,-33.324,M,,*76
2017-11-16 14:46:41 1510861601.493918: $GPRMC,194640,A,3946.9564,N,08404.9842,W,0.0000,0.000,161117,,*39
2017-11-16 14:46:41 1510861601.493980: $GPGSA,A,3,8,10,15,18,21,20,24,27,32,14,138,,1.6,0.8,1.3*37
2017-11-16 14:46:42 1510861602.831614: $GPGSV,3,1,11,08,08,309,28,10,53,313,50,15,25,058,49,18,77,027,44*77
2017-11-16 14:46:42 1510861602.831787: $GPGSV,3,2,11,21,48,183,48,20,22,106,44,24,53,084,49,27,15,274,42*73
2017-11-16 14:46:42 1510861602.831851: $GPGSV,3,3,11,32,32,249,47,14,16,241,41,138,38,213,43*73
2017-11-16 14:46:42 1510861602.945195: $GPZDA,194641.00,16,11,2017,00,00*6A
2017-11-16 14:46:42 1510861602.945368: $GPGGA,194641,3946.9564,N,08404.9842,W,2,11,0.80,302.74,M,-33.324,M,,*77
2017-11-16 14:46:42 1510861602.945433: $GPRMC,194641,A,3946.9564,N,08404.9842,W,0.0000,0.000,161117,,*38
2017-11-16 14:46:42 1510861602.945489: $GPGSA,A,3,8,10,15,18,21,20,24,27,32,14,138,,1.6,0.8,1.3*37
2017-11-16 14:46:43 1510861603.493265: $GPZDA,194642.00,16,11,2017,00,00*69
2017-11-16 14:46:43 1510861603.493421: $GPGGA,194642,3946.9564,N,08404.9842,W,2,11,0.80,302.74,M,-33.324,M,,*74
2017-11-16 14:46:43 1510861603.493482: $GPRMC,194642,A,3946.9564,N,08404.9842,W,0.0000,0.000,161117,,*3B
2017-11-16 14:46:43 1510861603.493538: $GPGSA,A,3,8,10,15,18,21,20,24,27,32,14,138,,1.6,0.8,1.3*37
