2017-12-01 18:20:35 1512170435.506951: {"class":"VERSION","release":"3.16","rev":"3.16-4","proto_major":3,"proto_minor":11}
2017-12-01 18:20:35 1512170435.507340: {"class":"DEVICES","devices":[{"class":"DEVICE","path":"/dev/ttyUSB0","driver":"SiRF","subtype":"9\u0006GSD4e_4.1.2-P1_RPATCH.05-F-GPS-4R-1510281 11/03/2015 307","activated":"2017-12-01T23:20:35.460Z","flags":1,"native":1,"bps":4800,"parity":"N","stopbits":1,"cycle":1.00}]}
2017-12-01 18:20:35 1512170435.507453: {"class":"WATCH","enable":true,"json":false,"nmea":true,"raw":0,"scaled":false,"timing":false,"split24":false,"pps":false}
2017-12-01 18:20:36 1512170436.721512: $GPGSV,3,1,12,03,39,301,47,14,56,090,44,16,21,189,43,22,50,273,44*7F
2017-12-01 18:20:36 1512170436.721713: $GPGSV,3,2,12,23,10,300,40,25,19,040,40,26,52,172,46,31,68,024,47*7F
2017-12-01 18:20:36 1512170436.721798: $GPGSV,3,3,12,32,37,106,40,01,07,253,36,29,10,073,24,138,38,213,46*40
2017-12-01 18:20:36 1512170436.834842: $GPZDA,232037.00,01,12,2017,00,00*67
2017-12-01 18:20:36 1512170436.835010: $GPGGA,232037,3946.9718,N,08404.9832,W,2,12,0.80,295.20,M,-33.325,M,,*7D
2017-12-01 18:20:36 1512170436.835075: $GPRMC,232037,A,3946.9718,N,08404.9832,W,0.0000,0.000,011217,,*3B
2017-12-01 18:20:36 1512170436.835137: $GPGSA,A,3,3,14,16,22,23,25,26,31,32,1,29,138,2.0,0.8,1.5*0C
2017-12-01 18:20:37 1512170437.460193: $GPZDA,232038.00,01,12,2017,00,00*68
2017-12-01 18:20:37 1512170437.460368: $GPGGA,232038,3946.9718,N,08404.9832,W,2,12,0.80,295.20,M,-33.325,M,,*72
2017-12-01 18:20:37 1512170437.460435: $GPRMC,232038,A,3946.9718,N,08404.9832,W,0.0000,0.000,011217,,*34
2017-12-01 18:20:37 1512170437.460496: $GPGSA,A,3,3,14,16,22,23,25,26,31,32,1,29,138,2.0,0.8,1.5*0C
2017-12-01 18:20:38 1512170438.422505: $GPZDA,232039.00,01,12,2017,00,00*69
2017-12-01 18:20:38 1512170438.422708: $GPGGA,232039,3946.9718,N,08404.9832,W,2,12,0.80,295.20,M,-33.325,M,,*73
2017-12-01 18:20:38 1512170438.422792: $GPRMC,232039,A,3946.9718,N,08404.9832,W,0.0000,0.000,011217,,*35
2017-12-01 18:20:38 1512170438.422855: $GPGSA,A,3,3,14,16,22,23,25,26,31,32,1,29,138,2.0,0.8,1.5*0C
2017-12-01 18:20:39 1512170439.758183: $GPGSV,3,1,12,03,39,301,47,14,56,090,43,16,21,189,43,22,50,273,44*78
2017-12-01 18:20:39 1512170439.758370: $GPGSV,3,2,12,23,10,300,39,25,19,040,40,26,52,172,46,31,68,024,47*71
2017-12-01 18:20:39 1512170439.758437: $GPGSV,3,3,12,32,37,106,41,01,07,253,36,29,10,073,25,138,38,213,45*43
2017-12-01 18:20:39 1512170439.871856: $GPZDA,232040.00,01,12,2017,00,00*67
2017-12-01 18:20:39 1512170439.871994: $GPGGA,232040,3946.9718,N,08404.9832,W,2,12,0.80,295.20,M,-33.325,M,,*7D
2017-12-01 18:20:39 1512170439.872059: $GPRMC,232040,A,3946.9718,N,08404.9832,W,0.0000,0.000,011217,,*3B
2017-12-01 18:20:39 1512170439.872120: $GPGSA,A,3,3,14,16,22,23,25,26,31,32,1,29,138,2.0,0.8,1.5*0C
2017-12-01 18:20:40 1512170440.391146: $GPZDA,232041.00,01,12,2017,00,00*66
2017-12-01 18:20:40 1512170440.391319: $GPGGA,232041,3946.9718,N,08404.9832,W,2,12,0.80,295.20,M,-33.325,M,,*7C
2017-12-01 18:20:40 1512170440.391556: $GPRMC,232041,A,3946.9718,N,08404.9832,W,0.0000,0.000,011217,,*3A
2017-12-01 18:20:40 1512170440.391648: $GPGSA,A,3,3,14,16,22,23,25,26,31,32,1,29,138,2.0,0.8,1.5*0C
2017-12-01 18:20:41 1512170441.423376: $GPZDA,232042.00,01,12,2017,00,00*65
2017-12-01 18:20:41 1512170441.423550: $GPGGA,232042,3946.9718,N,08404.9832,W,2,12,0.80,295.20,M,-33.325,M,,*7F
2017-12-01 18:20:41 1512170441.423641: $GPRMC,232042,A,3946.9718,N,08404.9832,W,0.0000,0.000,011217,,*39
2017-12-01 18:20:41 1512170441.423719: $GPGSA,A,3,3,14,16,22,23,25,26,31,32,1,29,138,2.0,0.8,1.5*0C
2017-12-01 18:20:42 1512170442.726032: $GPGSV,3,1,12,03,39,301,47,14,56,090,44,16,21,189,43,22,50,273,44*7F
2017-12-01 18:20:42 1512170442.726191: $GPGSV,3,2,12,23,10,300,39,25,19,040,40,26,52,172,46,31,68,024,46*70
2017-12-01 18:20:42 1512170442.726257: $GPGSV,3,3,12,32,37,106,38,01,07,253,37,29,10,073,30,138,38,213,46*4B
2017-12-01 18:20:42 1512170442.839715: $GPZDA,232043.00,01,12,2017,00,00*64
2017-12-01 18:20:42 1512170442.839900: $GPGGA,232043,3946.9718,N,08404.9832,W,2,12,0.80,295.20,M,-33.325,M,,*7E
2017-12-01 18:20:42 1512170442.840028: $GPRMC,232043,A,3946.9718,N,08404.9832,W,0.0000,0.000,011217,,*38
2017-12-01 18:20:42 1512170442.840091: $GPGSA,A,3,3,14,16,22,23,25,26,31,32,1,29,138,2.0,0.8,1.5*0C
2017-12-01 18:20:43 1512170443.392836: $GPZDA,232044.00,01,12,2017,00,00*63
2017-12-01 18:20:43 1512170443.393010: $GPGGA,232044,3946.9718,N,08404.9832,W,2,12,0.80,295.20,M,-33.325,M,,*79
2017-12-01 18:20:43 1512170443.393078: $GPRMC,232044,A,3946.9718,N,08404.9832,W,0.0000,0.000,011217,,*3F
2017-12-01 18:20:43 1512170443.393139: $GPGSA,A,3,3,14,16,22,23,25,26,31,32,1,29,138,2.0,0.8,1.5*0C
2017-12-01 18:20:44 1512170444.386134: $GPZDA,232045.00,01,12,2017,00,00*62
2017-12-01 18:20:44 1512170444.386328: $GPGGA,232045,3946.9718,N,08404.9832,W,2,12,0.80,295.20,M,-33.325,M,,*78
2017-12-01 18:20:44 1512170444.386395: $GPRMC,232045,A,3946.9718,N,08404.9832,W,0.0000,0.000,011217,,*3E
2017-12-01 18:20:44 1512170444.386456: $GPGSA,A,3,3,14,16,22,23,25,26,31,32,1,29,138,2.0,0.8,1.5*0C
2017-12-01 18:20:45 1512170445.726867: $GPGSV,3,1,12,03,39,301,47,14,56,090,44,16,21,189,43,22,50,273,44*7F
2017-12-01 18:20:45 1512170445.727055: $GPGSV,3,2,12,23,10,300,39,25,19,040,40,26,52,172,46,31,68,024,46*70
2017-12-01 18:20:45 1512170445.727123: $GPGSV,3,3,12,32,37,106,38,01,07,253,38,29,10,073,29,138,38,213,46*4C
2017-12-01 18:20:45 1512170445.840463: $GPZDA,232046.00,01,12,2017,00,00*61
2017-12-01 18:20:45 1512170445.840615: $GPGGA,232046,3946.9718,N,08404.9832,W,2,12,0.80,295.20,M,-33.325,M,,*7B
2017-12-01 18:20:45 1512170445.840701: $GPRMC,232046,A,3946.9718,N,08404.9832,W,0.0000,0.000,011217,,*3D
2017-12-01 18:20:45 1512170445.840763: $GPGSA,A,3,3,14,16,22,23,25,26,31,32,1,29,138,2.0,0.8,1.5*0C
2017-12-01 18:20:46 1512170446.389905: $GPZDA,232047.00,01,12,2017,00,00*60
2017-12-01 18:20:46 1512170446.390161: $GPGGA,232047,3946.9718,N,08404.9832,W,2,12,0.80,295.20,M,-33.325,M,,*7A
2017-12-01 18:20:46 1512170446.390242: $GPRMC,232047,A,3946.9718,N,08404.9832,W,0.0000,0.000,011217,,*3C
2017-12-01 18:20:46 1512170446.390305: $GPGSA,A,3,3,14,16,22,23,25,26,31,32,1,29,138,2.0,0.8,1.5*0C
2017-12-01 18:20:47 1512170447.391656: $GPZDA,232048.00,01,12,2017,00,00*6F
2017-12-01 18:20:47 1512170447.391828: $GPGGA,232048,3946.9718,N,08404.9832,W,2,12,0.80,295.20,M,-33.325,M,,*75
2017-12-01 18:20:47 1512170447.391895: $GPRMC,232048,A,3946.9718,N,08404.9832,W,0.0000,0.000,011217,,*33
2017-12-01 18:20:47 1512170447.391955: $GPGSA,A,3,3,14,16,22,23,25,26,31,32,1,29,138,2.0,0.8,1.5*0C
2017-12-01 18:20:48 1512170448.727209: $GPGSV,3,1,12,03,39,301,46,14,56,090,44,16,21,189,44,22,50,273,44*79
2017-12-01 18:20:48 1512170448.727418: $GPGSV,3,2,12,23,10,300,39,25,19,040,40,26,52,172,47,31,68,024,47*70
2017-12-01 18:20:48 1512170448.727489: $GPGSV,3,3,12,32,37,106,39,01,07,253,37,29,10,073,29,138,38,213,46*42
2017-12-01 18:20:48 1512170448.840756: $GPZDA,232049.00,01,12,2017,00,00*6E
2017-12-01 18:20:48 1512170448.840925: $GPGGA,232049,3946.9718,N,08404.9832,W,2,12,0.80,295.20,M,-33.325,M,,*74
2017-12-01 18:20:48 1512170448.840993: $GPRMC,232049,A,3946.9718,N,08404.9832,W,0.0000,0.000,011217,,*32
2017-12-01 18:20:48 1512170448.841055: $GPGSA,A,3,3,14,16,22,23,25,26,31,32,1,29,138,2.0,0.8,1.5*0C
2017-12-01 18:20:49 1512170449.391565: $GPZDA,232050.00,01,12,2017,00,00*66
2017-12-01 18:20:49 1512170449.391761: $GPGGA,232050,3946.9718,N,08404.9832,W,2,12,0.80,295.20,M,-33.325,M,,*7C
2017-12-01 18:20:49 1512170449.391828: $GPRMC,232050,A,3946.9718,N,08404.9832,W,0.0000,0.000,011217,,*3A
2017-12-01 18:20:49 1512170449.391889: $GPGSA,A,3,3,14,16,22,23,25,26,31,32,1,29,138,2.0,0.8,1.5*0C
2017-12-01 18:20:50 1512170450.389981: $GPZDA,232051.00,01,12,2017,00,00*67
2017-12-01 18:20:50 1512170450.390194: $GPGGA,232051,3946.9718,N,08404.9832,W,2,12,0.80,295.20,M,-33.325,M,,*7D
2017-12-01 18:20:50 1512170450.390265: $GPRMC,232051,A,3946.9718,N,08404.9832,W,0.0000,0.000,011217,,*3B
2017-12-01 18:20:50 1512170450.390326: $GPGSA,A,3,3,14,16,22,23,25,26,31,32,1,29,138,2.0,0.8,1.5*0C
2017-12-01 18:20:51 1512170451.726832: $GPGSV,3,1,12,03,39,301,46,14,56,090,43,16,21,189,43,22,50,273,44*79
2017-12-01 18:20:51 1512170451.727015: $GPGSV,3,2,12,23,10,300,40,25,19,040,40,26,52,172,46,31,68,024,47*7F
2017-12-01 18:20:51 1512170451.727083: $GPGSV,3,3,12,32,37,106,39,01,07,253,31,29,10,073,29,138,38,213,46*44
2017-12-01 18:20:51 1512170451.840197: $GPZDA,232052.00,01,12,2017,00,00*64
2017-12-01 18:20:51 1512170451.840374: $GPGGA,232052,3946.9718,N,08404.9832,W,2,12,0.80,295.20,M,-33.325,M,,*7E
2017-12-01 18:20:51 1512170451.840462: $GPRMC,232052,A,3946.9718,N,08404.9832,W,0.0000,0.000,011217,,*38
2017-12-01 18:20:51 1512170451.840524: $GPGSA,A,3,3,14,16,22,23,25,26,31,32,1,29,138,2.0,0.8,1.5*0C
2017-12-01 18:20:52 1512170452.467253: $GPZDA,232053.00,01,12,2017,00,00*65
2017-12-01 18:20:52 1512170452.467428: $GPGGA,232053,3946.9718,N,08404.9839,W,2,12,0.80,295.12,M,-33.325,M,,*75
2017-12-01 18:20:52 1512170452.467499: $GPRMC,232053,A,3946.9718,N,08404.9839,W,0.0000,0.000,011217,,*32
2017-12-01 18:20:52 1512170452.467562: $GPGSA,A,3,3,14,16,22,23,25,26,31,32,1,29,138,2.0,0.8,1.5*0C
2017-12-01 18:20:53 1512170453.391423: $GPZDA,232054.00,01,12,2017,00,00*62
2017-12-01 18:20:53 1512170453.391617: $GPGGA,232054,3946.9718,N,08404.9839,W,2,12,0.80,295.12,M,-33.325,M,,*72
2017-12-01 18:20:53 1512170453.391690: $GPRMC,232054,A,3946.9718,N,08404.9839,W,0.0000,0.000,011217,,*35
2017-12-01 18:20:53 1512170453.391752: $GPGSA,A,3,3,14,16,22,23,25,26,31,32,1,29,138,2.0,0.8,1.5*0C
2017-12-01 18:20:54 1512170454.725876: $GPGSV,3,1,12,03,39,301,46,14,56,090,44,16,21,189,43,22,50,273,45*7F
2017-12-01 18:20:54 1512170454.726043: $GPGSV,3,2,12,23,10,300,39,25,19,040,40,26,52,172,47,31,68,024,47*70
2017-12-01 18:20:54 1512170454.726110: $GPGSV,3,3,12,32,37,106,40,01,07,253,34,29,10,073,28,138,38,213,46*4E
2017-12-01 18:20:54 1512170454.839179: $GPZDA,232055.00,01,12,2017,00,00*63
2017-12-01 18:20:54 1512170454.839307: $GPGGA,232055,3946.9718,N,08404.9839,W,2,12,0.80,295.12,M,-33.325,M,,*73
2017-12-01 18:20:54 1512170454.839371: $GPRMC,232055,A,3946.9718,N,08404.9839,W,0.0000,0.000,011217,,*34
2017-12-01 18:20:54 1512170454.839433: $GPGSA,A,3,3,14,16,22,23,25,26,31,32,1,29,138,2.0,0.8,1.5*0C
2017-12-01 18:20:55 1512170455.392873: $GPZDA,232056.00,01,12,2017,00,00*60
2017-12-01 18:20:55 1512170455.393081: $GPGGA,232056,3946.9718,N,08404.9839,W,2,12,0.80,295.12,M,-33.325,M,,*70
2017-12-01 18:20:55 1512170455.393155: $GPRMC,232056,A,3946.9718,N,08404.9839,W,0.0000,0.000,011217,,*37
2017-12-01 18:20:55 1512170455.393217: $GPGSA,A,3,3,14,16,22,23,25,26,31,32,1,29,138,2.0,0.8,1.5*0C
