2017-11-16 15:19:48 1510863588.593028: {"class":"VERSION","release":"3.17","rev":"3.17","proto_major":3,"proto_minor":12}
2017-11-16 15:19:48 1510863588.593477: {"class":"DEVICES","devices":[{"class":"DEVICE","path":"/dev/ttyUSB0","driver":"SiRF","subtype":"9\u0006GSD4e_4.1.2-P1_RPATCH.05-F-GPS-4R-1510281 11/03/2015 307","activated":"2017-11-16T20:19:48.532Z","flags":1,"native":1,"bps":4800,"parity":"N","stopbits":1,"cycle":1.00}]}
2017-11-16 15:19:48 1510863588.593595: {"class":"WATCH","enable":true,"json":false,"nmea":true,"raw":0,"scaled":false,"timing":false,"split24":false,"pps":false}
2017-11-16 15:19:49 1510863589.711285: $GPGSV,3,1,12,08,06,295,28,10,67,327,51,14,27,252,45,15,13,064,37*74
2017-11-16 15:19:49 1510863589.711453: $GPGSV,3,2,12,18,72,087,47,20,10,117,22,21,32,180,45,24,46,061,50*73
2017-11-16 15:19:49 1510863589.711513: $GPGSV,3,3,12,27,08,262,35,32,44,262,47,12,08,109,29,138,38,213,44*4A
2017-11-16 15:19:49 1510863589.824581: $GPZDA,201948.00,16,11,2017,00,00*63
2017-11-16 15:19:49 1510863589.824744: $GPGGA,201948,3946.9578,N,08404.9857,W,2,12,0.80,305.91,M,-33.324,M,,*78
2017-11-16 15:19:49 1510863589.824805: $GPRMC,201948,A,3946.9578,N,08404.9857,W,0.0000,0.000,161117,,*38
2017-11-16 15:19:49 1510863589.824861: $GPGSA,A,3,8,10,14,15,18,20,21,24,27,32,12,138,1.6,0.8,1.3*34
2017-11-16 15:19:50 1510863590.384196: $GPZDA,201949.00,16,11,2017,00,00*62
2017-11-16 15:19:50 1510863590.384357: $GPGGA,201949,3946.9578,N,08404.9857,W,2,12,0.80,305.91,M,-33.324,M,,*79
2017-11-16 15:19:50 1510863590.384418: $GPRMC,201949,A,3946.9578,N,08404.9857,W,0.0000,0.000,161117,,*39
2017-11-16 15:19:50 1510863590.384474: $GPGSA,A,3,8,10,14,15,18,20,21,24,27,32,12,138,1.6,0.8,1.3*34
2017-11-16 15:19:51 1510863591.390838: $GPZDA,201950.00,16,11,2017,00,00*6A
2017-11-16 15:19:51 1510863591.391010: $GPGGA,201950,3946.9578,N,08404.9857,W,2,12,0.80,305.91,M,-33.324,M,,*71
2017-11-16 15:19:51 1510863591.391071: $GPRMC,201950,A,3946.9578,N,08404.9857,W,0.0000,0.000,161117,,*31
2017-11-16 15:19:51 1510863591.391126: $GPGSA,A,3,8,10,14,15,18,20,21,24,27,32,12,138,1.6,0.8,1.3*34
2017-11-16 15:19:52 1510863592.727800: $GPGSV,3,1,12,08,06,295,28,10,67,327,51,14,27,252,45,15,13,064,36*75
2017-11-16 15:19:52 1510863592.733160: $GPGSV,3,2,12,18,72,087,46,20,10,117,22,21,32,180,45,24,46,061,50*72
2017-11-16 15:19:52 1510863592.733259: $GPGSV,3,3,12,27,08,262,35,32,44,262,48,12,08,109,29,138,38,213,44*45
2017-11-16 15:19:52 1510863592.841144: $GPZDA,201951.00,16,11,2017,00,00*6B
2017-11-16 15:19:52 1510863592.841307: $GPGGA,201951,3946.9578,N,08404.9857,W,2,12,0.80,305.91,M,-33.324,M,,*70
2017-11-16 15:19:52 1510863592.841366: $GPRMC,201951,A,3946.9578,N,08404.9857,W,0.0000,0.000,161117,,*30
2017-11-16 15:19:52 1510863592.841422: $GPGSA,A,3,8,10,14,15,18,20,21,24,27,32,12,138,1.6,0.8,1.3*34
2017-11-16 15:19:53 1510863593.374424: $GPZDA,201952.00,16,11,2017,00,00*68
2017-11-16 15:19:53 1510863593.374592: $GPGGA,201952,3946.9578,N,08404.9857,W,2,12,0.80,305.91,M,-33.324,M,,*73
2017-11-16 15:19:53 1510863593.374651: $GPRMC,201952,A,3946.9578,N,08404.9857,W,0.0000,0.000,161117,,*33
2017-11-16 15:19:53 1510863593.374707: $GPGSA,A,3,8,10,14,15,18,20,21,24,27,32,12,138,1.6,0.8,1.3*34
2017-11-16 15:19:54 1510863594.390272: $GPZDA,201953.00,16,11,2017,00,00*69
2017-11-16 15:19:54 1510863594.390474: $GPGGA,201953,3946.9578,N,08404.9857,W,2,12,0.80,305.91,M,-33.324,M,,*72
2017-11-16 15:19:54 1510863594.390535: $GPRMC,201953,A,3946.9578,N,08404.9857,W,0.0000,0.000,161117,,*32
2017-11-16 15:19:54 1510863594.390590: $GPGSA,A,3,8,10,14,15,18,20,21,24,27,32,12,138,1.6,0.8,1.3*34
2017-11-16 15:19:55 1510863595.727385: $GPGSV,3,1,12,08,06,295,29,10,67,327,51,14,27,252,45,15,13,064,36*74
2017-11-16 15:19:55 1510863595.727553: $GPGSV,3,2,12,18,72,087,46,20,10,117,23,21,32,180,45,24,46,061,50*73
2017-11-16 15:19:55 1510863595.727613: $GPGSV,3,3,12,27,08,262,34,32,44,262,47,12,08,109,29,138,38,213,44*4B
2017-11-16 15:19:55 1510863595.840786: $GPZDA,201954.00,16,11,2017,00,00*6E
2017-11-16 15:19:55 1510863595.840962: $GPGGA,201954,3946.9578,N,08404.9857,W,2,12,0.80,305.91,M,-33.324,M,,*75
2017-11-16 15:19:55 1510863595.841075: $GPRMC,201954,A,3946.9578,N,08404.9857,W,0.0000,0.000,161117,,*35
2017-11-16 15:19:55 1510863595.841134: $GPGSA,A,3,8,10,14,15,18,20,21,24,27,32,12,138,1.6,0.8,1.3*34
2017-11-16 15:19:56 1510863596.471198: $GPZDA,201955.00,16,11,2017,00,00*6F
2017-11-16 15:19:56 1510863596.471455: $GPGGA,201955,3946.9578,N,08404.9857,W,2,12,0.80,305.91,M,-33.324,M,,*74
2017-11-16 15:19:56 1510863596.471517: $GPRMC,201955,A,3946.9578,N,08404.9857,W,0.0000,0.000,161117,,*34
2017-11-16 15:19:56 1510863596.471574: $GPGSA,A,3,8,10,14,15,18,20,21,24,27,32,12,138,1.6,0.8,1.3*34
2017-11-16 15:19:57 1510863597.392255: $GPZDA,201956.00,16,11,2017,00,00*6C
2017-11-16 15:19:57 1510863597.392417: $GPGGA,201956,3946.9578,N,08404.9857,W,2,12,0.80,305.91,M,-33.324,M,,*77
2017-11-16 15:19:57 1510863597.392479: $GPRMC,201956,A,3946.9578,N,08404.9857,W,0.0000,0.000,161117,,*37
2017-11-16 15:19:57 1510863597.392534: $GPGSA,A,3,8,10,14,15,18,20,21,24,27,32,12,138,1.6,0.8,1.3*34
