2017-12-01 12:14:16 1512148456.887007: {"class":"VERSION","release":"3.16","rev":"3.16-4","proto_major":3,"proto_minor":11}
2017-12-01 12:14:16 1512148456.887636: {"class":"DEVICES","devices":[{"class":"DEVICE","path":"/dev/ttyUSB0","driver":"SiRF","subtype":"9\u0006GSD4e_4.1.2-P1_RPATCH.05-F-GPS-4R-1510281 11/03/2015 307","activated":"2017-12-01T17:14:16.880Z","flags":1,"native":1,"bps":4800,"parity":"N","stopbits":1,"cycle":1.00}]}
2017-12-01 12:14:16 1512148456.887764: {"class":"WATCH","enable":true,"json":false,"nmea":true,"raw":0,"scaled":false,"timing":false,"split24":false,"pps":false}
2017-12-01 12:14:17 1512148457.388087: $GPZDA,171418.00,01,12,2017,00,00*6A
2017-12-01 12:14:17 1512148457.388288: $GPGGA,171418,3946.9583,N,08404.9836,W,2,11,0.80,293.94,M,-33.324,M,,*7F
2017-12-01 12:14:17 1512148457.388359: $GPRMC,171418,A,3946.9583,N,08404.9836,W,0.0000,0.000,011217,,*32
2017-12-01 12:14:17 1512148457.388420: $GPGSA,A,3,10,13,15,18,20,21,24,27,5,29,138,,2.0,0.8,1.5*34
2017-12-01 12:14:18 1512148458.389658: $GPZDA,171419.00,01,12,2017,00,00*6B
2017-12-01 12:14:18 1512148458.389852: $GPGGA,171419,3946.9584,N,08404.9837,W,2,11,0.80,296.75,M,-33.324,M,,*72
2017-12-01 12:14:18 1512148458.389923: $GPRMC,171419,A,3946.9584,N,08404.9837,W,0.0000,0.000,011217,,*35
2017-12-01 12:14:18 1512148458.389988: $GPGSA,A,3,10,13,15,18,20,21,24,27,5,29,138,,2.0,0.8,1.5*34
2017-12-01 12:14:19 1512148459.726646: $GPGSV,3,1,12,10,22,282,38,13,30,045,45,15,62,052,44,18,53,298,45*71
2017-12-01 12:14:19 1512148459.726832: $GPGSV,3,2,12,20,53,070,46,21,78,274,43,24,32,139,46,27,16,315,39*71
2017-12-01 12:14:19 1512148459.726901: $GPGSV,3,3,12,05,04,087,21,29,11,190,22,04,01,136,00,138,38,213,46*46
2017-12-01 12:14:19 1512148459.840023: $GPZDA,171420.00,01,12,2017,00,00*61
2017-12-01 12:14:19 1512148459.840197: $GPGGA,171420,3946.9584,N,08404.9837,W,2,11,0.80,296.75,M,-33.324,M,,*78
2017-12-01 12:14:19 1512148459.840285: $GPRMC,171420,A,3946.9584,N,08404.9837,W,0.0000,0.000,011217,,*3F
2017-12-01 12:14:19 1512148459.840348: $GPGSA,A,3,10,13,15,18,20,21,24,27,5,29,138,,2.0,0.8,1.5*34
2017-12-01 12:14:20 1512148460.384643: $GPZDA,171421.00,01,12,2017,00,00*60
2017-12-01 12:14:20 1512148460.384849: $GPGGA,171421,3946.9584,N,08404.9837,W,2,11,0.80,296.75,M,-33.324,M,,*79
2017-12-01 12:14:20 1512148460.384920: $GPRMC,171421,A,3946.9584,N,08404.9837,W,0.0000,0.000,011217,,*3E
2017-12-01 12:14:20 1512148460.384986: $GPGSA,A,3,10,13,15,18,20,21,24,27,5,29,138,,2.0,0.8,1.5*34
2017-12-01 12:14:21 1512148461.390522: $GPZDA,171422.00,01,12,2017,00,00*63
2017-12-01 12:14:21 1512148461.390710: $GPGGA,171422,3946.9584,N,08404.9837,W,2,11,0.80,296.75,M,-33.324,M,,*7A
2017-12-01 12:14:21 1512148461.390779: $GPRMC,171422,A,3946.9584,N,08404.9837,W,0.0000,0.000,011217,,*3D
2017-12-01 12:14:21 1512148461.390844: $GPGSA,A,3,10,13,15,18,20,21,24,27,5,29,138,,2.0,0.8,1.5*34
2017-12-01 12:14:22 1512148462.725035: $GPGSV,3,1,12,10,22,282,39,13,30,045,45,15,62,052,44,18,53,298,45*70
2017-12-01 12:14:22 1512148462.725218: $GPGSV,3,2,12,20,53,070,46,21,78,274,43,24,32,139,46,27,16,315,41*7E
2017-12-01 12:14:22 1512148462.725286: $GPGSV,3,3,12,05,04,087,21,29,11,190,24,04,01,136,00,138,38,213,46*40
2017-12-01 12:14:22 1512148462.838426: $GPZDA,171423.00,01,12,2017,00,00*62
2017-12-01 12:14:22 1512148462.838598: $GPGGA,171423,3946.9584,N,08404.9837,W,2,11,0.80,296.75,M,-33.324,M,,*7B
2017-12-01 12:14:22 1512148462.838683: $GPRMC,171423,A,3946.9584,N,08404.9837,W,0.0000,0.000,011217,,*3C
2017-12-01 12:14:22 1512148462.838747: $GPGSA,A,3,10,13,15,18,20,21,24,27,5,29,138,,2.0,0.8,1.5*34
2017-12-01 12:14:23 1512148463.463759: $GPZDA,171424.00,01,12,2017,00,00*65
2017-12-01 12:14:23 1512148463.463941: $GPGGA,171424,3946.9584,N,08404.9837,W,2,11,0.80,296.75,M,-33.324,M,,*7C
2017-12-01 12:14:23 1512148463.464008: $GPRMC,171424,A,3946.9584,N,08404.9837,W,0.0000,0.000,011217,,*3B
2017-12-01 12:14:23 1512148463.464089: $GPGSA,A,3,10,13,15,18,20,21,24,27,5,29,138,,2.0,0.8,1.5*34
2017-12-01 12:14:24 1512148464.919915: $GPZDA,171425.00,01,12,2017,00,00*64
2017-12-01 12:14:24 1512148464.920144: $GPGGA,171425,3946.9580,N,08404.9838,W,2,11,0.80,297.52,M,-33.324,M,,*72
2017-12-01 12:14:24 1512148464.920216: $GPRMC,171425,A,3946.9580,N,08404.9838,W,0.0000,0.000,011217,,*31
2017-12-01 12:14:24 1512148464.920277: $GPGSA,A,3,10,13,15,18,20,21,24,27,5,29,138,,2.0,0.8,1.5*34
2017-12-01 12:14:25 1512148465.719261: $GPGSV,3,1,12,10,22,282,38,13,30,045,45,15,62,052,44,18,53,298,44*70
2017-12-01 12:14:25 1512148465.719445: $GPGSV,3,2,12,20,52,070,46,21,78,274,43,24,32,139,46,27,16,313,42*7A
2017-12-01 12:14:25 1512148465.719513: $GPGSV,3,3,12,05,04,087,22,29,11,190,28,04,01,136,00,138,38,213,46*4F
2017-12-01 12:14:25 1512148465.832716: $GPZDA,171426.00,01,12,2017,00,00*67
2017-12-01 12:14:25 1512148465.832884: $GPGGA,171426,3946.9585,N,08404.9838,W,2,11,0.80,298.16,M,-33.324,M,,*7B
2017-12-01 12:14:25 1512148465.832950: $GPRMC,171426,A,3946.9585,N,08404.9838,W,0.0000,0.000,011217,,*37
2017-12-01 12:14:25 1512148465.833011: $GPGSA,A,3,10,13,15,18,20,21,24,27,5,29,138,,2.0,0.8,1.5*34
2017-12-01 12:14:26 1512148466.382678: $GPZDA,171427.00,01,12,2017,00,00*66
2017-12-01 12:14:26 1512148466.382855: $GPGGA,171427,3946.9585,N,08404.9838,W,2,11,0.80,298.16,M,-33.324,M,,*7A
2017-12-01 12:14:26 1512148466.382923: $GPRMC,171427,A,3946.9585,N,08404.9838,W,0.0000,0.000,011217,,*36
2017-12-01 12:14:26 1512148466.382985: $GPGSA,A,3,10,13,15,18,20,21,24,27,5,29,138,,2.0,0.8,1.5*34
