2018-01-11 19:57:03 1515718623.640664: {"class":"VERSION","release":"3.16","rev":"3.16-4","proto_major":3,"proto_minor":11}
2018-01-11 19:57:03 1515718623.641027: {"class":"DEVICES","devices":[{"class":"DEVICE","path":"/dev/ttyUSB0","driver":"SiRF","subtype":"9\u0006GSD4e_4.1.2-P1_RPATCH.05-F-GPS-4R-1510281 11/03/2015 307","activated":"2018-01-12T00:57:03.526Z","flags":1,"native":1,"bps":4800,"parity":"N","stopbits":1,"cycle":1.00}]}
2018-01-11 19:57:03 1515718623.641159: {"class":"WATCH","enable":true,"json":false,"nmea":true,"raw":0,"scaled":false,"timing":false,"split24":false,"pps":false}
2018-01-11 19:57:04 1515718624.384463: $GPZDA,005705.00,12,01,2018,00,00*68
2018-01-11 19:57:04 1515718624.384626: $GPGGA,005705,3946.9590,N,08404.9842,W,2,10,1.00,293.74,M,-33.324,M,,*75
2018-01-11 19:57:04 1515718624.384709: $GPRMC,005705,A,3946.9590,N,08404.9842,W,0.0000,0.000,120118,,*31
2018-01-11 19:57:04 1515718624.384772: $GPGSA,A,3,7,8,9,11,16,23,27,30,28,138,,,4.0,1.0,3.5*37
2018-01-11 19:57:05 1515718625.737648: $GPGSV,3,1,11,07,50,312,43,08,69,148,45,09,52,238,43,11,15,169,37*7B
2018-01-11 19:57:05 1515718625.737825: $GPGSV,3,2,11,16,28,057,46,23,35,192,47,27,52,060,50,30,24,304,00*78
2018-01-11 19:57:05 1515718625.737889: $GPGSV,3,3,11,28,10,253,31,26,03,069,00,138,38,213,46*7F
2018-01-11 19:57:05 1515718625.851139: $GPZDA,005706.00,12,01,2018,00,00*6B
2018-01-11 19:57:05 1515718625.851298: $GPGGA,005706,3946.9590,N,08404.9842,W,2,09,1.00,293.74,M,-33.324,M,,*7E
2018-01-11 19:57:05 1515718625.851381: $GPRMC,005706,A,3946.9590,N,08404.9842,W,0.0000,0.000,120118,,*32
2018-01-11 19:57:05 1515718625.851443: $GPGSA,A,3,7,8,9,11,16,23,27,28,138,,,,4.0,1.0,3.5*34
2018-01-11 19:57:06 1515718626.403584: $GPZDA,005707.00,12,01,2018,00,00*6A
2018-01-11 19:57:06 1515718626.403731: $GPGGA,005707,3946.9590,N,08404.9842,W,2,09,1.00,293.74,M,-33.324,M,,*7F
2018-01-11 19:57:06 1515718626.403797: $GPRMC,005707,A,3946.9590,N,08404.9842,W,0.0000,0.000,120118,,*33
2018-01-11 19:57:06 1515718626.403857: $GPGSA,A,3,7,8,9,11,16,23,27,28,138,,,,4.0,1.0,3.5*34
2018-01-11 19:57:07 1515718627.402730: $GPZDA,005708.00,12,01,2018,00,00*65
2018-01-11 19:57:07 1515718627.402884: $GPGGA,005708,3946.9590,N,08404.9842,W,2,09,0.80,293.74,M,-33.324,M,,*79
2018-01-11 19:57:07 1515718627.402951: $GPRMC,005708,A,3946.9590,N,08404.9842,W,0.0000,0.000,120118,,*3C
2018-01-11 19:57:07 1515718627.403012: $GPGSA,A,3,7,8,9,11,16,23,27,28,138,,,,4.0,0.8,3.5*3D
2018-01-11 19:57:08 1515718628.731790: $GPGSV,3,1,11,07,50,312,43,08,69,148,45,09,52,238,43,11,15,169,36*7A
2018-01-11 19:57:08 1515718628.731966: $GPGSV,3,2,11,16,28,057,46,23,35,192,47,27,52,060,50,30,24,304,26*7C
2018-01-11 19:57:08 1515718628.732032: $GPGSV,3,3,11,28,10,253,33,26,03,069,00,138,38,213,45*7E
2018-01-11 19:57:08 1515718628.845507: $GPZDA,005709.00,12,01,2018,00,00*64
2018-01-11 19:57:08 1515718628.845648: $GPGGA,005709,3946.9590,N,08404.9842,W,2,10,0.80,293.74,M,-33.324,M,,*70
2018-01-11 19:57:08 1515718628.845713: $GPRMC,005709,A,3946.9590,N,08404.9842,W,0.0000,0.000,120118,,*3D
2018-01-11 19:57:08 1515718628.845773: $GPGSA,A,3,7,8,9,11,16,23,27,30,28,138,,,4.0,0.8,3.5*3E
2018-01-11 19:57:09 1515718629.402628: $GPZDA,005710.00,12,01,2018,00,00*6C
2018-01-11 19:57:09 1515718629.402768: $GPGGA,005710,3946.9590,N,08404.9842,W,2,10,0.80,293.74,M,-33.324,M,,*78
2018-01-11 19:57:09 1515718629.402833: $GPRMC,005710,A,3946.9590,N,08404.9842,W,0.0000,0.000,120118,,*35
2018-01-11 19:57:09 1515718629.402893: $GPGSA,A,3,7,8,9,11,16,23,27,30,28,138,,,4.0,0.8,3.5*3E
2018-01-11 19:57:10 1515718630.386038: $GPZDA,005711.00,12,01,2018,00,00*6D
2018-01-11 19:57:10 1515718630.386223: $GPGGA,005711,3946.9590,N,08404.9842,W,2,10,0.80,293.74,M,-33.324,M,,*79
2018-01-11 19:57:10 1515718630.386307: $GPRMC,005711,A,3946.9590,N,08404.9842,W,0.0000,0.000,120118,,*34
2018-01-11 19:57:10 1515718630.386370: $GPGSA,A,3,7,8,9,11,16,23,27,30,28,138,,,4.0,0.8,3.5*3E
2018-01-11 19:57:11 1515718631.737673: $GPGSV,3,1,11,07,50,312,43,08,69,148,45,09,52,238,43,11,15,169,36*7A
2018-01-11 19:57:11 1515718631.737849: $GPGSV,3,2,11,16,28,057,46,23,35,192,47,27,52,060,50,30,24,304,26*7C
2018-01-11 19:57:11 1515718631.737968: $GPGSV,3,3,11,28,10,253,33,26,03,069,00,138,38,213,45*7E
2018-01-11 19:57:11 1515718631.851379: $GPZDA,005712.00,12,01,2018,00,00*6E
2018-01-11 19:57:11 1515718631.851529: $GPGGA,005712,3946.9590,N,08404.9842,W,2,10,0.80,293.74,M,-33.324,M,,*7A
2018-01-11 19:57:11 1515718631.851594: $GPRMC,005712,A,3946.9590,N,08404.9842,W,0.0000,0.000,120118,,*37
2018-01-11 19:57:11 1515718631.851654: $GPGSA,A,3,7,8,9,11,16,23,27,30,28,138,,,4.0,0.8,3.5*3E
2018-01-11 19:57:12 1515718632.476745: $GPZDA,005713.00,12,01,2018,00,00*6F
2018-01-11 19:57:12 1515718632.476909: $GPGGA,005713,3946.9590,N,08404.9842,W,2,10,1.00,293.74,M,-33.324,M,,*72
2018-01-11 19:57:12 1515718632.476975: $GPRMC,005713,A,3946.9590,N,08404.9842,W,0.0000,0.000,120118,,*36
2018-01-11 19:57:12 1515718632.477035: $GPGSA,A,3,7,8,9,11,16,23,27,30,28,138,,,4.0,1.0,3.5*37
2018-01-11 19:57:13 1515718633.407666: $GPZDA,005714.00,12,01,2018,00,00*68
2018-01-11 19:57:13 1515718633.407832: $GPGGA,005714,3946.9590,N,08404.9842,W,2,10,1.00,293.74,M,-33.324,M,,*75
2018-01-11 19:57:13 1515718633.407899: $GPRMC,005714,A,3946.9590,N,08404.9842,W,0.0000,0.000,120118,,*31
2018-01-11 19:57:13 1515718633.407959: $GPGSA,A,3,7,8,9,11,16,23,27,30,28,138,,,4.0,1.0,3.5*37
