2017-12-01 17:01:46 1512165706.976818: {"class":"VERSION","release":"3.16","rev":"3.16-4","proto_major":3,"proto_minor":11}
2017-12-01 17:01:46 1512165706.977274: {"class":"DEVICES","devices":[{"class":"DEVICE","path":"/dev/ttyUSB0","driver":"SiRF","subtype":"9\u0006GSD4e_4.1.2-P1_RPATCH.05-F-GPS-4R-1510281 11/03/2015 307","activated":"2017-12-01T22:01:46.555Z","flags":1,"native":1,"bps":4800,"parity":"N","stopbits":1,"cycle":1.00}]}
2017-12-01 17:01:46 1512165706.977405: {"class":"WATCH","enable":true,"json":false,"nmea":true,"raw":0,"scaled":false,"timing":false,"split24":false,"pps":false}
2017-12-01 17:01:47 1512165707.409260: $GPZDA,220148.00,01,12,2017,00,00*6D
2017-12-01 17:01:47 1512165707.409451: $GPGGA,220148,3946.9647,N,08404.9719,W,2,12,0.60,296.90,M,-33.324,M,,*7D
2017-12-01 17:01:47 1512165707.409520: $GPRMC,220148,A,3946.9647,N,08404.9719,W,0.0000,0.000,011217,,*3C
2017-12-01 17:01:47 1512165707.409583: $GPGSA,A,3,1,3,10,18,14,22,26,31,32,12,25,138,2.0,0.6,1.5*04
2017-12-01 17:01:48 1512165708.745608: $GPGSV,3,1,12,01,21,286,43,03,11,316,42,10,33,153,39,18,05,147,21*71
2017-12-01 17:01:48 1512165708.745789: $GPGSV,3,2,12,14,70,004,46,22,30,309,48,26,15,180,34,31,70,244,49*7E
2017-12-01 17:01:48 1512165708.745861: $GPGSV,3,3,12,32,62,061,48,12,15,039,22,25,40,070,26,138,38,213,35*4E
2017-12-01 17:01:48 1512165708.859159: $GPZDA,220149.00,01,12,2017,00,00*6C
2017-12-01 17:01:48 1512165708.859330: $GPGGA,220149,3946.9647,N,08404.9719,W,2,12,0.60,296.90,M,-33.324,M,,*7C
2017-12-01 17:01:48 1512165708.859416: $GPRMC,220149,A,3946.9647,N,08404.9719,W,0.0000,0.000,011217,,*3D
2017-12-01 17:01:48 1512165708.859479: $GPGSA,A,3,1,3,10,18,14,22,26,31,32,12,25,138,2.0,0.6,1.5*04
2017-12-01 17:01:49 1512165709.416427: $GPZDA,220150.00,01,12,2017,00,00*64
2017-12-01 17:01:49 1512165709.416598: $GPGGA,220150,3946.9647,N,08404.9719,W,2,12,0.60,296.90,M,-33.324,M,,*74
2017-12-01 17:01:49 1512165709.416667: $GPRMC,220150,A,3946.9647,N,08404.9719,W,0.0000,0.000,011217,,*35
2017-12-01 17:01:49 1512165709.416728: $GPGSA,A,3,1,3,10,18,14,22,26,31,32,12,25,138,2.0,0.6,1.5*04
2017-12-01 17:01:50 1512165710.408586: $GPZDA,220151.00,01,12,2017,00,00*65
2017-12-01 17:01:50 1512165710.408757: $GPGGA,220151,3946.9647,N,08404.9719,W,2,12,0.60,296.90,M,-33.324,M,,*75
2017-12-01 17:01:50 1512165710.408831: $GPRMC,220151,A,3946.9647,N,08404.9719,W,0.0000,0.000,011217,,*34
2017-12-01 17:01:50 1512165710.408891: $GPGSA,A,3,1,3,10,18,14,22,26,31,32,12,25,138,2.0,0.6,1.5*04
2017-12-01 17:01:51 1512165711.766524: $GPGSV,3,1,12,01,21,286,43,03,11,316,42,10,33,153,39,18,05,147,21*71
2017-12-01 17:01:51 1512165711.766716: $GPGSV,3,2,12,14,70,004,46,22,30,309,48,26,15,180,34,31,70,244,49*7E
2017-12-01 17:01:51 1512165711.766785: $GPGSV,3,3,12,32,62,061,48,12,15,039,22,25,40,070,27,138,38,213,38*42
2017-12-01 17:01:51 1512165711.880235: $GPZDA,220152.00,01,12,2017,00,00*66
2017-12-01 17:01:51 1512165711.880392: $GPGGA,220152,3946.9647,N,08404.9719,W,2,12,0.60,296.90,M,-33.324,M,,*76
2017-12-01 17:01:51 1512165711.880460: $GPRMC,220152,A,3946.9647,N,08404.9719,W,0.0000,0.000,011217,,*37
2017-12-01 17:01:51 1512165711.880522: $GPGSA,A,3,1,3,10,18,14,22,26,31,32,12,25,138,2.0,0.6,1.5*04
2017-12-01 17:01:52 1512165712.414579: $GPZDA,220153.00,01,12,2017,00,00*67
2017-12-01 17:01:52 1512165712.414759: $GPGGA,220153,3946.9647,N,08404.9719,W,2,12,0.60,296.90,M,-33.324,M,,*77
2017-12-01 17:01:52 1512165712.414833: $GPRMC,220153,A,3946.9647,N,08404.9719,W,0.0000,0.000,011217,,*36
2017-12-01 17:01:52 1512165712.414896: $GPGSA,A,3,1,3,10,18,14,22,26,31,32,12,25,138,2.0,0.6,1.5*04
2017-12-01 17:01:53 1512165713.431508: $GPZDA,220154.00,01,12,2017,00,00*60
2017-12-01 17:01:53 1512165713.431684: $GPGGA,220154,3946.9647,N,08404.9719,W,2,12,0.60,296.90,M,-33.324,M,,*70
2017-12-01 17:01:53 1512165713.431752: $GPRMC,220154,A,3946.9647,N,08404.9719,W,0.0000,0.000,011217,,*31
2017-12-01 17:01:53 1512165713.431818: $GPGSA,A,3,1,3,10,18,14,22,26,31,32,12,25,138,2.0,0.6,1.5*04
2017-12-01 17:01:54 1512165714.766908: $GPGSV,3,1,12,01,21,286,43,03,11,316,42,10,33,153,39,18,05,147,13*70
2017-12-01 17:01:54 1512165714.767145: $GPGSV,3,2,12,14,70,004,46,22,30,309,48,26,15,180,33,31,70,244,49*79
2017-12-01 17:01:54 1512165714.767216: $GPGSV,3,3,12,32,62,061,48,12,15,039,23,25,40,070,28,138,38,213,39*4D
2017-12-01 17:01:54 1512165714.880596: $GPZDA,220155.00,01,12,2017,00,00*61
2017-12-01 17:01:54 1512165714.880769: $GPGGA,220155,3946.9647,N,08404.9719,W,2,12,0.60,296.90,M,-33.324,M,,*71
2017-12-01 17:01:54 1512165714.880839: $GPRMC,220155,A,3946.9647,N,08404.9719,W,0.0000,0.000,011217,,*30
2017-12-01 17:01:54 1512165714.880904: $GPGSA,A,3,1,3,10,18,14,22,26,31,32,12,25,138,2.0,0.6,1.5*04
2017-12-01 17:01:55 1512165715.432425: $GPZDA,220156.00,01,12,2017,00,00*62
2017-12-01 17:01:55 1512165715.432605: $GPGGA,220156,3946.9647,N,08404.9719,W,2,12,0.60,296.90,M,-33.324,M,,*72
2017-12-01 17:01:55 1512165715.432676: $GPRMC,220156,A,3946.9647,N,08404.9719,W,0.0000,0.000,011217,,*33
2017-12-01 17:01:55 1512165715.432737: $GPGSA,A,3,1,3,10,18,14,22,26,31,32,12,25,138,2.0,0.6,1.5*04
2017-12-01 17:01:56 1512165716.425748: $GPZDA,220157.00,01,12,2017,00,00*63
2017-12-01 17:01:56 1512165716.425950: $GPGGA,220157,3946.9647,N,08404.9719,W,2,12,0.60,296.90,M,-33.324,M,,*73
2017-12-01 17:01:56 1512165716.426020: $GPRMC,220157,A,3946.9647,N,08404.9719,W,0.0000,0.000,011217,,*32
2017-12-01 17:01:56 1512165716.426082: $GPGSA,A,3,1,3,10,18,14,22,26,31,32,12,25,138,2.0,0.6,1.5*04
2017-12-01 17:01:57 1512165717.751537: $GPGSV,3,1,12,01,21,286,43,03,11,316,42,10,33,153,38,18,05,147,21*70
2017-12-01 17:01:57 1512165717.751741: $GPGSV,3,2,12,14,70,004,46,22,30,309,48,26,15,180,32,31,70,244,48*79
2017-12-01 17:01:57 1512165717.751817: $GPGSV,3,3,12,32,62,061,48,12,15,039,23,25,40,070,28,138,38,213,39*4D
2017-12-01 17:01:57 1512165717.864843: $GPZDA,220158.00,01,12,2017,00,00*6C
2017-12-01 17:01:57 1512165717.865035: $GPGGA,220158,3946.9647,N,08404.9719,W,2,12,0.60,296.90,M,-33.324,M,,*7C
2017-12-01 17:01:57 1512165717.865104: $GPRMC,220158,A,3946.9647,N,08404.9719,W,0.0000,0.000,011217,,*3D
2017-12-01 17:01:57 1512165717.865166: $GPGSA,A,3,1,3,10,18,14,22,26,31,32,12,25,138,2.0,0.6,1.5*04
2017-12-01 17:01:58 1512165718.490343: $GPZDA,220159.00,01,12,2017,00,00*6D
2017-12-01 17:01:58 1512165718.490518: $GPGGA,220159,3946.9647,N,08404.9719,W,2,12,0.60,296.90,M,-33.324,M,,*7D
2017-12-01 17:01:58 1512165718.490587: $GPRMC,220159,A,3946.9647,N,08404.9719,W,0.0000,0.000,011217,,*3C
2017-12-01 17:01:58 1512165718.490649: $GPGSA,A,3,1,3,10,18,14,22,26,31,32,12,25,138,2.0,0.6,1.5*04
2017-12-01 17:01:59 1512165719.415096: $GPZDA,220200.00,01,12,2017,00,00*62
2017-12-01 17:01:59 1512165719.415272: $GPGGA,220200,3946.9647,N,08404.9719,W,2,12,0.60,296.90,M,-33.324,M,,*72
2017-12-01 17:01:59 1512165719.415340: $GPRMC,220200,A,3946.9647,N,08404.9719,W,0.0000,0.000,011217,,*33
2017-12-01 17:01:59 1512165719.415403: $GPGSA,A,3,1,3,10,18,14,22,26,31,32,12,25,138,2.0,0.6,1.5*04
2017-12-01 17:02:00 1512165720.761989: $GPGSV,3,1,12,01,21,286,42,03,11,316,42,10,33,153,38,18,05,147,22*72
2017-12-01 17:02:00 1512165720.762174: $GPGSV,3,2,12,14,70,004,45,22,30,309,47,26,15,180,32,31,70,244,48*75
2017-12-01 17:02:00 1512165720.762243: $GPGSV,3,3,12,32,62,061,47,12,15,039,23,25,40,070,27,138,38,213,37*43
2017-12-01 17:02:00 1512165720.875272: $GPZDA,220201.00,01,12,2017,00,00*63
2017-12-01 17:02:00 1512165720.875412: $GPGGA,220201,3946.9647,N,08404.9719,W,2,12,0.60,296.90,M,-33.324,M,,*73
2017-12-01 17:02:00 1512165720.875478: $GPRMC,220201,A,3946.9647,N,08404.9719,W,0.0000,0.000,011217,,*32
2017-12-01 17:02:00 1512165720.875540: $GPGSA,A,3,1,3,10,18,14,22,26,31,32,12,25,138,2.0,0.6,1.5*04
2017-12-01 17:02:01 1512165721.416292: $GPZDA,220202.00,01,12,2017,00,00*60
2017-12-01 17:02:01 1512165721.416512: $GPGGA,220202,3946.9647,N,08404.9719,W,2,12,0.60,296.90,M,-33.324,M,,*70
2017-12-01 17:02:01 1512165721.416586: $GPRMC,220202,A,3946.9647,N,08404.9719,W,0.0000,0.000,011217,,*31
2017-12-01 17:02:01 1512165721.416650: $GPGSA,A,3,1,3,10,18,14,22,26,31,32,12,25,138,2.0,0.6,1.5*04
2017-12-01 17:02:02 1512165722.430814: $GPZDA,220203.00,01,12,2017,00,00*61
2017-12-01 17:02:02 1512165722.431007: $GPGGA,220203,3946.9647,N,08404.9719,W,2,12,0.60,296.90,M,-33.324,M,,*71
2017-12-01 17:02:02 1512165722.431078: $GPRMC,220203,A,3946.9647,N,08404.9719,W,0.0000,0.000,011217,,*30
2017-12-01 17:02:02 1512165722.431140: $GPGSA,A,3,1,3,10,18,14,22,26,31,32,12,25,138,2.0,0.6,1.5*04
2017-12-01 17:02:03 1512165723.767332: $GPGSV,3,1,12,01,21,286,43,03,11,316,42,10,33,153,38,18,05,147,22*73
2017-12-01 17:02:03 1512165723.767528: $GPGSV,3,2,12,14,70,004,45,22,30,309,47,26,15,180,32,31,70,244,49*74
2017-12-01 17:02:03 1512165723.767598: $GPGSV,3,3,12,32,62,061,48,12,15,039,22,25,40,070,22,138,38,213,40*48
2017-12-01 17:02:03 1512165723.880690: $GPZDA,220204.00,01,12,2017,00,00*66
2017-12-01 17:02:03 1512165723.880879: $GPGGA,220204,3946.9647,N,08404.9719,W,2,12,0.60,296.90,M,-33.324,M,,*76
2017-12-01 17:02:03 1512165723.880946: $GPRMC,220204,A,3946.9647,N,08404.9719,W,0.0000,0.000,011217,,*37
2017-12-01 17:02:03 1512165723.881010: $GPGSA,A,3,1,3,10,18,14,22,26,31,32,12,25,138,2.0,0.6,1.5*04
2017-12-01 17:02:04 1512165724.431999: $GPZDA,220205.00,01,12,2017,00,00*67
2017-12-01 17:02:04 1512165724.432171: $GPGGA,220205,3946.9647,N,08404.9726,W,2,12,0.60,296.82,M,-33.324,M,,*78
2017-12-01 17:02:04 1512165724.432241: $GPRMC,220205,A,3946.9647,N,08404.9726,W,0.0000,0.000,011217,,*3A
2017-12-01 17:02:04 1512165724.432302: $GPGSA,A,3,1,3,10,18,14,22,26,31,32,12,25,138,2.0,0.6,1.5*04
2017-12-01 17:02:05 1512165725.416211: $GPZDA,220206.00,01,12,2017,00,00*64
2017-12-01 17:02:05 1512165725.416391: $GPGGA,220206,3946.9647,N,08404.9726,W,2,12,0.60,296.82,M,-33.324,M,,*7B
2017-12-01 17:02:05 1512165725.416461: $GPRMC,220206,A,3946.9647,N,08404.9726,W,0.0000,0.000,011217,,*39
2017-12-01 17:02:05 1512165725.416523: $GPGSA,A,3,1,3,10,18,14,22,26,31,32,12,25,138,2.0,0.6,1.5*04
2017-12-01 17:02:06 1512165726.760684: $GPGSV,3,1,12,01,21,286,42,03,11,316,42,10,33,153,38,18,05,147,21*71
2017-12-01 17:02:06 1512165726.760874: $GPGSV,3,2,12,14,70,004,45,22,30,309,48,26,15,180,33,31,70,244,48*7B
2017-12-01 17:02:06 1512165726.760962: $GPGSV,3,3,12,32,62,061,48,12,15,039,22,25,40,070,21,138,38,213,39*45
2017-12-01 17:02:06 1512165726.874010: $GPZDA,220207.00,01,12,2017,00,00*65
2017-12-01 17:02:06 1512165726.874168: $GPGGA,220207,3946.9647,N,08404.9726,W,2,12,0.60,296.82,M,-33.324,M,,*7A
2017-12-01 17:02:06 1512165726.874255: $GPRMC,220207,A,3946.9647,N,08404.9726,W,0.0000,0.000,011217,,*38
2017-12-01 17:02:06 1512165726.874317: $GPGSA,A,3,1,3,10,18,14,22,26,31,32,12,25,138,2.0,0.6,1.5*04
