2017-11-15 19:37:46 1510792666.772454: {"class":"VERSION","release":"3.17","rev":"3.17","proto_major":3,"proto_minor":12}
2017-11-15 19:37:46 1510792666.772915: {"class":"DEVICES","devices":[{"class":"DEVICE","path":"/dev/ttyUSB0","driver":"SiRF","subtype":"9\u0006GSD4e_4.1.2-P1_RPATCH.05-F-GPS-4R-1510281 11/03/2015 307","activated":"2017-11-16T00:37:46.544Z","flags":1,"native":1,"bps":4800,"parity":"N","stopbits":1,"cycle":1.00}]}
2017-11-15 19:37:46 1510792666.773035: {"class":"WATCH","enable":true,"json":false,"nmea":true,"raw":0,"scaled":false,"timing":false,"split24":false,"pps":false}
2017-11-15 19:37:47 1510792667.329092: $GPZDA,003746.00,16,11,2017,00,00*63
2017-11-15 19:37:47 1510792667.329293: $GPGGA,003746,3946.9525,N,08404.9588,W,1,05,1.60,283.30,M,-33.324,M,,*71
2017-11-15 19:37:47 1510792667.329357: $GPRMC,003746,A,3946.9525,N,08404.9588,W,0.5306,294.352,161117,,*34
2017-11-15 19:37:47 1510792667.329414: $GPGSA,A,3,32,26,31,3,22,,,,,,,,3.4,1.6,2.9*0D
2017-11-15 19:37:48 1510792668.680923: $GPGSV,3,1,11,32,33,111,25,14,53,096,04,16,25,190,00,26,56,171,21*7F
2017-11-15 19:37:48 1510792668.681110: $GPGSV,3,2,11,25,15,039,00,31,65,030,26,03,41,295,18,23,13,301,04*73
2017-11-15 19:37:48 1510792668.681171: $GPGSV,3,3,11,29,11,069,00,01,04,250,00,22,50,265,24*4D
2017-11-15 19:37:48 1510792668.794188: $GPZDA,003747.00,16,11,2017,00,00*62
2017-11-15 19:37:48 1510792668.794350: $GPGGA,003747,3946.9533,N,08404.9587,W,1,05,1.60,283.17,M,-33.324,M,,*7D
2017-11-15 19:37:48 1510792668.794410: $GPRMC,003747,A,3946.9533,N,08404.9587,W,0.8011,299.090,161117,,*35
2017-11-15 19:37:48 1510792668.794466: $GPGSA,A,3,32,26,31,3,22,,,,,,,,3.4,1.6,2.9*0D
2017-11-15 19:37:49 1510792669.329103: $GPZDA,003748.00,16,11,2017,00,00*6D
2017-11-15 19:37:49 1510792669.329261: $GPGGA,003748,3946.9533,N,08404.9587,W,1,05,1.60,283.17,M,-33.324,M,,*72
2017-11-15 19:37:49 1510792669.329322: $GPRMC,003748,A,3946.9533,N,08404.9587,W,1.0002,334.331,161117,,*3F
2017-11-15 19:37:49 1510792669.329379: $GPGSA,A,3,32,26,31,3,22,,,,,,,,3.4,1.6,2.9*0D
2017-11-15 19:37:50 1510792670.329986: $GPZDA,003749.00,16,11,2017,00,00*6C
2017-11-15 19:37:50 1510792670.330146: $GPGGA,003749,3946.9533,N,08404.9587,W,1,05,1.60,283.17,M,-33.324,M,,*73
2017-11-15 19:37:50 1510792670.330206: $GPRMC,003749,A,3946.9533,N,08404.9587,W,0.6846,4.197,161117,,*3F
2017-11-15 19:37:50 1510792670.330263: $GPGSA,A,3,32,26,31,3,22,,,,,,,,3.4,1.6,2.9*0D
2017-11-15 19:37:51 1510792671.664955: $GPGSV,3,1,11,32,33,111,25,14,53,096,04,16,25,190,00,26,56,171,21*7F
2017-11-15 19:37:51 1510792671.665128: $GPGSV,3,2,11,25,15,039,00,31,65,030,26,03,41,295,17,23,13,301,04*7C
2017-11-15 19:37:51 1510792671.665189: $GPGSV,3,3,11,29,11,069,00,01,04,250,00,22,50,265,24*4D
2017-11-15 19:37:51 1510792671.778541: $GPZDA,003750.00,16,11,2017,00,00*64
2017-11-15 19:37:51 1510792671.778701: $GPGGA,003750,3946.9533,N,08404.9587,W,1,05,1.60,283.17,M,-33.324,M,,*7B
2017-11-15 19:37:51 1510792671.778762: $GPRMC,003750,A,3946.9533,N,08404.9587,W,0.7278,23.636,161117,,*08
2017-11-15 19:37:51 1510792671.778818: $GPGSA,A,3,32,26,31,3,22,,,,,,,,3.4,1.6,2.9*0D
2017-11-15 19:37:52 1510792672.333205: $GPZDA,003751.00,16,11,2017,00,00*65
2017-11-15 19:37:52 1510792672.333363: $GPGGA,003751,3946.9540,N,08404.9587,W,1,05,1.60,283.05,M,-33.324,M,,*7D
2017-11-15 19:37:52 1510792672.333424: $GPRMC,003751,A,3946.9540,N,08404.9587,W,0.7278,23.636,161117,,*0D
2017-11-15 19:37:52 1510792672.333481: $GPGSA,A,3,32,26,31,3,22,,,,,,,,3.4,1.6,2.9*0D
2017-11-15 19:37:53 1510792673.328743: $GPZDA,003752.00,16,11,2017,00,00*66
2017-11-15 19:37:53 1510792673.328914: $GPGGA,003752,3946.9540,N,08404.9587,W,1,05,1.60,283.05,M,-33.324,M,,*7E
2017-11-15 19:37:53 1510792673.328980: $GPRMC,003752,A,3946.9540,N,08404.9587,W,1.0018,50.691,161117,,*05
2017-11-15 19:37:53 1510792673.329036: $GPGSA,A,3,32,26,31,3,22,,,,,,,,3.4,1.6,2.9*0D
2017-11-15 19:37:54 1510792674.664524: $GPGSV,3,1,11,32,33,111,25,14,53,096,04,16,25,190,15,26,56,171,21*7B
2017-11-15 19:37:54 1510792674.664692: $GPGSV,3,2,11,25,15,039,00,31,65,030,26,03,41,295,18,23,13,301,04*73
2017-11-15 19:37:54 1510792674.664800: $GPGSV,3,3,11,29,11,069,00,01,04,250,00,22,50,265,24*4D
2017-11-15 19:37:54 1510792674.778142: $GPZDA,003753.00,16,11,2017,00,00*67
2017-11-15 19:37:54 1510792674.778307: $GPGGA,003753,3946.9540,N,08404.9580,W,1,05,1.60,283.13,M,-33.324,M,,*7F
2017-11-15 19:37:54 1510792674.778369: $GPRMC,003753,A,3946.9540,N,08404.9580,W,0.5951,58.684,161117,,*0F
2017-11-15 19:37:54 1510792674.778425: $GPGSA,A,3,32,26,31,3,22,,,,,,,,3.4,1.6,2.9*0D
2017-11-15 19:37:55 1510792675.344970: $GPZDA,003754.00,16,11,2017,00,00*60
2017-11-15 19:37:55 1510792675.345138: $GPGGA,003754,3946.9543,N,08404.9579,W,1,05,1.60,282.36,M,-33.324,M,,*7B
2017-11-15 19:37:55 1510792675.345202: $GPRMC,003754,A,3946.9543,N,08404.9579,W,1.1048,66.986,161117,,*09
2017-11-15 19:37:55 1510792675.345259: $GPGSA,A,3,32,26,31,3,22,,,,,,,,3.4,1.6,2.9*0D
2017-11-15 19:37:56 1510792676.344109: $GPZDA,003755.00,16,11,2017,00,00*61
2017-11-15 19:37:56 1510792676.351501: $GPGGA,003755,3946.9543,N,08404.9572,W,1,05,1.60,282.44,M,-33.324,M,,*74
2017-11-15 19:37:56 1510792676.351613: $GPRMC,003755,A,3946.9543,N,08404.9572,W,1.0298,74.381,161117,,*03
2017-11-15 19:37:56 1510792676.351671: $GPGSA,A,3,32,26,31,3,22,,,,,,,,3.4,1.6,2.9*0D
