2017-12-31 16:52:41 1514757161.618873: {"class":"VERSION","release":"3.16","rev":"3.16-4","proto_major":3,"proto_minor":11}
2017-12-31 16:52:41 1514757161.619229: {"class":"DEVICES","devices":[{"class":"DEVICE","path":"/dev/ttyUSB0","driver":"SiRF","activated":"2017-12-31T21:52:41.485Z","flags":1,"native":1,"bps":4800,"parity":"N","stopbits":1,"cycle":1.00}]}
2017-12-31 16:52:41 1514757161.619327: {"class":"WATCH","enable":true,"json":false,"nmea":true,"raw":0,"scaled":false,"timing":false,"split24":false,"pps":false}
2017-12-31 16:52:42 1514757162.679447: $GPGSV,3,1,11,22,47,247,42,23,22,306,42,25,07,037,28,03,46,280,38*73
2017-12-31 16:52:42 1514757162.679628: $GPGSV,3,2,11,16,39,190,46,29,14,060,20,31,55,045,51,14,45,108,44*7F
2017-12-31 16:52:42 1514757162.679692: $GPGSV,3,3,11,32,24,118,45,26,69,157,43,135,22,240,43*7E
2017-12-31 16:52:42 1514757162.792829: $GPZDA,215243.00,31,12,2017,00,00*60
2017-12-31 16:52:42 1514757162.792977: $GPGGA,215243,3946.9581,N,08404.9855,W,2,11,0.80,303.74,M,-33.324,M,,*77
2017-12-31 16:52:42 1514757162.793042: $GPRMC,215243,A,3946.9581,N,08404.9855,W,0.0000,0.000,311217,,*3F
2017-12-31 16:52:42 1514757162.793102: $GPGSA,A,3,22,23,25,3,16,29,31,14,32,26,135,,1.7,0.8,1.3*32
2017-12-31 16:52:43 1514757163.352472: $GPZDA,215244.00,31,12,2017,00,00*67
2017-12-31 16:52:43 1514757163.352632: $GPGGA,215244,3946.9581,N,08404.9855,W,2,11,0.80,303.74,M,-33.324,M,,*70
2017-12-31 16:52:43 1514757163.352697: $GPRMC,215244,A,3946.9581,N,08404.9855,W,0.0000,0.000,311217,,*38
2017-12-31 16:52:43 1514757163.352757: $GPGSA,A,3,22,23,25,3,16,29,31,14,32,26,135,,1.7,0.8,1.3*32
2017-12-31 16:52:44 1514757164.335836: $GPZDA,215245.00,31,12,2017,00,00*66
2017-12-31 16:52:44 1514757164.335998: $GPGGA,215245,3946.9581,N,08404.9855,W,2,11,0.80,303.74,M,-33.324,M,,*71
2017-12-31 16:52:44 1514757164.336065: $GPRMC,215245,A,3946.9581,N,08404.9855,W,0.0000,0.000,311217,,*39
2017-12-31 16:52:44 1514757164.336125: $GPGSA,A,3,22,23,25,3,16,29,31,14,32,26,135,,1.7,0.8,1.3*32
2017-12-31 16:52:45 1514757165.679873: $GPGSV,3,1,11,22,47,247,42,23,22,306,42,25,07,037,28,03,46,280,37*7C
2017-12-31 16:52:45 1514757165.680047: $GPGSV,3,2,11,16,39,190,46,29,14,060,21,31,55,045,51,14,45,108,43*79
2017-12-31 16:52:45 1514757165.680111: $GPGSV,3,3,11,32,24,118,45,26,69,157,43,135,22,240,44*79
2017-12-31 16:52:45 1514757165.793498: $GPZDA,215246.00,31,12,2017,00,00*65
2017-12-31 16:52:45 1514757165.793629: $GPGGA,215246,3946.9581,N,08404.9855,W,2,11,0.80,303.74,M,-33.324,M,,*72
2017-12-31 16:52:45 1514757165.793692: $GPRMC,215246,A,3946.9581,N,08404.9855,W,0.0000,0.000,311217,,*3A
2017-12-31 16:52:45 1514757165.793752: $GPGSA,A,3,22,23,25,3,16,29,31,14,32,26,135,,1.7,0.8,1.3*32
2017-12-31 16:52:46 1514757166.360701: $GPZDA,215247.00,31,12,2017,00,00*64
2017-12-31 16:52:46 1514757166.360848: $GPGGA,215247,3946.9581,N,08404.9855,W,2,11,0.80,303.74,M,-33.324,M,,*73
2017-12-31 16:52:46 1514757166.360913: $GPRMC,215247,A,3946.9581,N,08404.9855,W,0.0000,0.000,311217,,*3B
2017-12-31 16:52:46 1514757166.360974: $GPGSA,A,3,22,23,25,3,16,29,31,14,32,26,135,,1.7,0.8,1.3*32
2017-12-31 16:52:47 1514757167.343740: $GPZDA,215248.00,31,12,2017,00,00*6B
2017-12-31 16:52:47 1514757167.343918: $GPGGA,215248,3946.9581,N,08404.9855,W,2,11,0.80,303.74,M,-33.324,M,,*7C
2017-12-31 16:52:47 1514757167.343989: $GPRMC,215248,A,3946.9581,N,08404.9855,W,0.0000,0.000,311217,,*34
2017-12-31 16:52:47 1514757167.344053: $GPGSA,A,3,22,23,25,3,16,29,31,14,32,26,135,,1.7,0.8,1.3*32
2017-12-31 16:52:48 1514757168.679379: $GPGSV,3,1,11,22,47,247,42,23,22,306,42,25,07,037,28,03,46,280,38*73
2017-12-31 16:52:48 1514757168.679553: $GPGSV,3,2,11,16,39,190,46,29,14,060,24,31,55,045,51,14,45,108,43*7C
2017-12-31 16:52:48 1514757168.679620: $GPGSV,3,3,11,32,24,118,45,26,69,157,43,135,22,240,43*7E
2017-12-31 16:52:48 1514757168.792773: $GPZDA,215249.00,31,12,2017,00,00*6A
2017-12-31 16:52:48 1514757168.796845: $GPGGA,215249,3946.9581,N,08404.9855,W,2,11,0.80,303.74,M,-33.324,M,,*7D
2017-12-31 16:52:48 1514757168.796945: $GPRMC,215249,A,3946.9581,N,08404.9855,W,0.0000,0.000,311217,,*35
2017-12-31 16:52:48 1514757168.797048: $GPGSA,A,3,22,23,25,3,16,29,31,14,32,26,135,,1.7,0.8,1.3*32
2017-12-31 16:52:49 1514757169.344920: $GPZDA,215250.00,31,12,2017,00,00*62
2017-12-31 16:52:49 1514757169.345087: $GPGGA,215250,3946.9581,N,08404.9855,W,2,11,0.80,303.74,M,-33.324,M,,*75
2017-12-31 16:52:49 1514757169.345152: $GPRMC,215250,A,3946.9581,N,08404.9855,W,0.0000,0.000,311217,,*3D
2017-12-31 16:52:49 1514757169.345212: $GPGSA,A,3,22,23,25,3,16,29,31,14,32,26,135,,1.7,0.8,1.3*32
2017-12-31 16:52:50 1514757170.360539: $GPZDA,215251.00,31,12,2017,00,00*63
2017-12-31 16:52:50 1514757170.360692: $GPGGA,215251,3946.9581,N,08404.9855,W,2,11,0.80,303.74,M,-33.324,M,,*74
2017-12-31 16:52:50 1514757170.360759: $GPRMC,215251,A,3946.9581,N,08404.9855,W,0.0000,0.000,311217,,*3C
2017-12-31 16:52:50 1514757170.360819: $GPGSA,A,3,22,23,25,3,16,29,31,14,32,26,135,,1.7,0.8,1.3*32
