2017-12-31 16:45:57 1514756757.086889: {"class":"VERSION","release":"3.16","rev":"3.16-4","proto_major":3,"proto_minor":11}
2017-12-31 16:45:57 1514756757.087416: {"class":"DEVICES","devices":[{"class":"DEVICE","path":"/dev/ttyUSB0","driver":"SiRF","activated":"2017-12-31T21:45:56.486Z","flags":1,"native":1,"bps":4800,"parity":"N","stopbits":1,"cycle":1.00}]}
2017-12-31 16:45:57 1514756757.087524: {"class":"WATCH","enable":true,"json":false,"nmea":true,"raw":0,"scaled":false,"timing":false,"split24":false,"pps":false}
2017-12-31 16:45:57 1514756757.699237: $GPGSV,3,1,11,22,49,253,43,23,20,304,42,25,09,039,34,03,45,285,34*7E
2017-12-31 16:45:57 1514756757.699394: $GPGSV,3,2,11,16,35,189,48,29,13,064,23,31,57,042,51,14,48,105,46*72
2017-12-31 16:45:57 1514756757.699458: $GPGSV,3,3,11,32,26,115,42,26,66,162,42,135,22,240,43*7E
2017-12-31 16:45:57 1514756757.812931: $GPZDA,214558.00,31,12,2017,00,00*6C
2017-12-31 16:45:57 1514756757.813049: $GPGGA,214558,3946.9576,N,08404.9848,W,2,11,0.80,303.18,M,-33.324,M,,*75
2017-12-31 16:45:57 1514756757.813112: $GPRMC,214558,A,3946.9576,N,08404.9848,W,0.0000,0.000,311217,,*37
2017-12-31 16:45:57 1514756757.813171: $GPGSA,A,3,22,23,25,3,16,29,31,14,32,26,135,,1.7,0.8,1.3*32
2017-12-31 16:45:58 1514756758.346320: $GPZDA,214559.00,31,12,2017,00,00*6D
2017-12-31 16:45:58 1514756758.346481: $GPGGA,214559,3946.9576,N,08404.9848,W,2,11,0.80,303.18,M,-33.324,M,,*74
2017-12-31 16:45:58 1514756758.346546: $GPRMC,214559,A,3946.9576,N,08404.9848,W,0.0000,0.000,311217,,*36
2017-12-31 16:45:58 1514756758.346606: $GPGSA,A,3,22,23,25,3,16,29,31,14,32,26,135,,1.7,0.8,1.3*32
2017-12-31 16:45:59 1514756759.346861: $GPZDA,214600.00,31,12,2017,00,00*62
2017-12-31 16:45:59 1514756759.347039: $GPGGA,214600,3946.9576,N,08404.9848,W,2,11,0.80,303.18,M,-33.324,M,,*7B
2017-12-31 16:45:59 1514756759.347169: $GPRMC,214600,A,3946.9576,N,08404.9848,W,0.0000,0.000,311217,,*39
2017-12-31 16:45:59 1514756759.347238: $GPGSA,A,3,22,23,25,3,16,29,31,14,32,26,135,,1.7,0.8,1.3*32
2017-12-31 16:46:00 1514756760.697185: $GPGSV,3,1,11,22,49,253,43,23,20,304,41,25,09,039,34,03,45,285,34*7D
2017-12-31 16:46:00 1514756760.697358: $GPGSV,3,2,11,16,35,189,48,29,13,064,24,31,57,042,51,14,48,105,46*75
2017-12-31 16:46:00 1514756760.697422: $GPGSV,3,3,11,32,26,115,42,26,66,162,41,135,22,240,44*7A
2017-12-31 16:46:00 1514756760.810611: $GPZDA,214601.00,31,12,2017,00,00*63
2017-12-31 16:46:00 1514756760.810741: $GPGGA,214601,3946.9576,N,08404.9848,W,2,11,0.80,303.18,M,-33.324,M,,*7A
2017-12-31 16:46:00 1514756760.810804: $GPRMC,214601,A,3946.9576,N,08404.9848,W,0.0000,0.000,311217,,*38
2017-12-31 16:46:00 1514756760.810863: $GPGSA,A,3,22,23,25,3,16,29,31,14,32,26,135,,1.7,0.8,1.3*32
2017-12-31 16:46:01 1514756761.347575: $GPZDA,214602.00,31,12,2017,00,00*60
2017-12-31 16:46:01 1514756761.347732: $GPGGA,214602,3946.9576,N,08404.9848,W,2,11,0.80,303.18,M,-33.324,M,,*79
2017-12-31 16:46:01 1514756761.347798: $GPRMC,214602,A,3946.9576,N,08404.9848,W,0.0000,0.000,311217,,*3B
2017-12-31 16:46:01 1514756761.347858: $GPGSA,A,3,22,23,25,3,16,29,31,14,32,26,135,,1.7,0.8,1.3*32
2017-12-31 16:46:02 1514756762.362194: $GPZDA,214603.00,31,12,2017,00,00*61
2017-12-31 16:46:02 1514756762.362353: $GPGGA,214603,3946.9576,N,08404.9848,W,2,11,0.80,303.18,M,-33.324,M,,*78
2017-12-31 16:46:02 1514756762.362419: $GPRMC,214603,A,3946.9576,N,08404.9848,W,0.0000,0.000,311217,,*3A
2017-12-31 16:46:02 1514756762.362480: $GPGSA,A,3,22,23,25,3,16,29,31,14,32,26,135,,1.7,0.8,1.3*32
2017-12-31 16:46:03 1514756763.681662: $GPGSV,3,1,11,22,49,253,43,23,20,304,42,25,09,039,35,03,45,285,38*73
2017-12-31 16:46:03 1514756763.681807: $GPGSV,3,2,11,16,35,189,48,29,13,064,25,31,57,042,51,14,48,105,46*74
2017-12-31 16:46:03 1514756763.681872: $GPGSV,3,3,11,32,26,115,42,26,66,162,41,135,22,240,44*7A
2017-12-31 16:46:03 1514756763.795140: $GPZDA,214604.00,31,12,2017,00,00*66
2017-12-31 16:46:03 1514756763.795285: $GPGGA,214604,3946.9576,N,08404.9848,W,2,11,0.80,303.18,M,-33.324,M,,*7F
2017-12-31 16:46:03 1514756763.795349: $GPRMC,214604,A,3946.9576,N,08404.9848,W,0.0000,0.000,311217,,*3D
2017-12-31 16:46:03 1514756763.795465: $GPGSA,A,3,22,23,25,3,16,29,31,14,32,26,135,,1.7,0.8,1.3*32
2017-12-31 16:46:04 1514756764.344673: $GPZDA,214605.00,31,12,2017,00,00*67
2017-12-31 16:46:04 1514756764.344839: $GPGGA,214605,3946.9576,N,08404.9848,W,2,11,0.80,303.18,M,-33.324,M,,*7E
2017-12-31 16:46:04 1514756764.344905: $GPRMC,214605,A,3946.9576,N,08404.9848,W,0.0000,0.000,311217,,*3C
2017-12-31 16:46:04 1514756764.344965: $GPGSA,A,3,22,23,25,3,16,29,31,14,32,26,135,,1.7,0.8,1.3*32
2017-12-31 16:46:05 1514756765.361295: $GPZDA,214606.00,31,12,2017,00,00*64
2017-12-31 16:46:05 1514756765.361473: $GPGGA,214606,3946.9576,N,08404.9848,W,2,11,0.80,303.18,M,-33.324,M,,*7D
2017-12-31 16:46:05 1514756765.361540: $GPRMC,214606,A,3946.9576,N,08404.9848,W,0.0000,0.000,311217,,*3F
2017-12-31 16:46:05 1514756765.361600: $GPGSA,A,3,22,23,25,3,16,29,31,14,32,26,135,,1.7,0.8,1.3*32
2017-12-31 16:46:06 1514756766.687633: $GPGSV,3,1,11,22,48,250,43,23,21,306,42,25,08,037,35,03,45,283,35*76
2017-12-31 16:46:06 1514756766.687797: $GPGSV,3,2,11,16,37,189,48,29,13,063,25,31,56,043,52,14,47,106,46*7E
2017-12-31 16:46:06 1514756766.687863: $GPGSV,3,3,11,32,25,117,42,26,67,160,42,135,22,240,43*7C
2017-12-31 16:46:06 1514756766.801519: $GPZDA,214607.00,31,12,2017,00,00*65
2017-12-31 16:46:06 1514756766.801674: $GPGGA,214607,3946.9576,N,08404.9848,W,2,11,0.80,303.18,M,-33.324,M,,*7C
2017-12-31 16:46:06 1514756766.801737: $GPRMC,214607,A,3946.9576,N,08404.9848,W,0.0000,0.000,311217,,*3E
2017-12-31 16:46:06 1514756766.801798: $GPGSA,A,3,22,23,25,3,16,29,31,14,32,26,135,,1.7,0.8,1.3*32
