2017-12-01 13:47:03 1512154023.266900: {"class":"VERSION","release":"3.16","rev":"3.16-4","proto_major":3,"proto_minor":11}
2017-12-01 13:47:03 1512154023.267293: {"class":"DEVICES","devices":[{"class":"DEVICE","path":"/dev/ttyUSB0","driver":"SiRF","subtype":"9\u0006GSD4e_4.1.2-P1_RPATCH.05-F-GPS-4R-1510281 11/03/2015 307","activated":"2017-12-01T18:47:03.231Z","flags":1,"native":1,"bps":4800,"parity":"N","stopbits":1,"cycle":1.00}]}
2017-12-01 13:47:03 1512154023.267412: {"class":"WATCH","enable":true,"json":false,"nmea":true,"raw":0,"scaled":false,"timing":false,"split24":false,"pps":false}
2017-12-01 13:47:03 1512154023.409896: $GPZDA,184704.00,01,12,2017,00,00*6E
2017-12-01 13:47:03 1512154023.410127: $GPGGA,184704,3946.9577,N,08404.9852,W,2,11,0.80,296.72,M,-33.324,M,,*7F
2017-12-01 13:47:03 1512154023.410219: $GPRMC,184704,A,3946.9577,N,08404.9852,W,0.0000,0.000,011217,,*3F
2017-12-01 13:47:03 1512154023.410283: $GPGSA,A,3,8,10,14,15,18,20,21,24,27,32,138,,2.0,0.8,1.5*34
2017-12-01 13:47:04 1512154024.409638: $GPZDA,184705.00,01,12,2017,00,00*6F
2017-12-01 13:47:04 1512154024.409837: $GPGGA,184705,3946.9577,N,08404.9852,W,2,11,0.80,296.72,M,-33.324,M,,*7E
2017-12-01 13:47:04 1512154024.409906: $GPRMC,184705,A,3946.9577,N,08404.9852,W,0.0000,0.000,011217,,*3E
2017-12-01 13:47:04 1512154024.409984: $GPGSA,A,3,8,10,14,15,18,20,21,24,27,32,138,,2.0,0.8,1.5*34
2017-12-01 13:47:05 1512154025.746148: $GPGSV,3,1,11,08,08,309,32,10,55,313,48,14,16,241,40,15,24,058,45*73
2017-12-01 13:47:05 1512154025.746330: $GPGSV,3,2,11,18,77,034,43,20,21,108,47,21,46,181,43,24,53,082,47*7D
2017-12-01 13:47:05 1512154025.746396: $GPGSV,3,3,11,27,14,274,33,32,34,250,43,138,38,213,46*7D
2017-12-01 13:47:05 1512154025.859555: $GPZDA,184706.00,01,12,2017,00,00*6C
2017-12-01 13:47:05 1512154025.859707: $GPGGA,184706,3946.9577,N,08404.9852,W,2,11,0.80,296.72,M,-33.324,M,,*7D
2017-12-01 13:47:05 1512154025.859773: $GPRMC,184706,A,3946.9577,N,08404.9852,W,0.0000,0.000,011217,,*3D
2017-12-01 13:47:05 1512154025.859853: $GPGSA,A,3,8,10,14,15,18,20,21,24,27,32,138,,2.0,0.8,1.5*34
2017-12-01 13:47:06 1512154026.484937: $GPZDA,184707.00,01,12,2017,00,00*6D
2017-12-01 13:47:06 1512154026.485122: $GPGGA,184707,3946.9577,N,08404.9852,W,2,11,0.80,296.72,M,-33.324,M,,*7C
2017-12-01 13:47:06 1512154026.485189: $GPRMC,184707,A,3946.9577,N,08404.9852,W,0.0000,0.000,011217,,*3C
2017-12-01 13:47:06 1512154026.485250: $GPGSA,A,3,8,10,14,15,18,20,21,24,27,32,138,,2.0,0.8,1.5*34
2017-12-01 13:47:07 1512154027.409536: $GPZDA,184708.00,01,12,2017,00,00*62
2017-12-01 13:47:07 1512154027.409706: $GPGGA,184708,3946.9577,N,08404.9852,W,2,11,0.80,296.72,M,-33.324,M,,*73
2017-12-01 13:47:07 1512154027.409773: $GPRMC,184708,A,3946.9577,N,08404.9852,W,0.0000,0.000,011217,,*33
2017-12-01 13:47:07 1512154027.409854: $GPGSA,A,3,8,10,14,15,18,20,21,24,27,32,138,,2.0,0.8,1.5*34
2017-12-01 13:47:08 1512154028.742779: $GPGSV,3,1,11,08,08,309,32,10,55,313,48,14,16,241,40,15,24,058,46*70
2017-12-01 13:47:08 1512154028.742980: $GPGSV,3,2,11,18,77,034,43,20,21,108,47,21,46,181,43,24,53,082,47*7D
2017-12-01 13:47:08 1512154028.743047: $GPGSV,3,3,11,27,14,274,33,32,34,250,43,138,38,213,46*7D
2017-12-01 13:47:08 1512154028.856202: $GPZDA,184709.00,01,12,2017,00,00*63
2017-12-01 13:47:08 1512154028.856375: $GPGGA,184709,3946.9577,N,08404.9852,W,2,11,0.80,296.72,M,-33.324,M,,*72
2017-12-01 13:47:08 1512154028.856442: $GPRMC,184709,A,3946.9577,N,08404.9852,W,0.0000,0.000,011217,,*32
2017-12-01 13:47:08 1512154028.856503: $GPGSA,A,3,8,10,14,15,18,20,21,24,27,32,138,,2.0,0.8,1.5*34
2017-12-01 13:47:09 1512154029.410828: $GPZDA,184710.00,01,12,2017,00,00*6B
2017-12-01 13:47:09 1512154029.411031: $GPGGA,184710,3946.9577,N,08404.9852,W,2,11,0.80,296.72,M,-33.324,M,,*7A
2017-12-01 13:47:09 1512154029.411098: $GPRMC,184710,A,3946.9577,N,08404.9852,W,0.0000,0.000,011217,,*3A
2017-12-01 13:47:09 1512154029.411159: $GPGSA,A,3,8,10,14,15,18,20,21,24,27,32,138,,2.0,0.8,1.5*34
2017-12-01 13:47:10 1512154030.410434: $GPZDA,184711.00,01,12,2017,00,00*6A
2017-12-01 13:47:10 1512154030.410608: $GPGGA,184711,3946.9577,N,08404.9852,W,2,11,0.80,296.72,M,-33.324,M,,*7B
2017-12-01 13:47:10 1512154030.410727: $GPRMC,184711,A,3946.9577,N,08404.9852,W,0.0000,0.000,011217,,*3B
2017-12-01 13:47:10 1512154030.410788: $GPGSA,A,3,8,10,14,15,18,20,21,24,27,32,138,,2.0,0.8,1.5*34
2017-12-01 13:47:11 1512154031.745645: $GPGSV,3,1,11,08,08,309,32,10,55,313,48,14,16,241,40,15,24,058,46*70
2017-12-01 13:47:11 1512154031.745844: $GPGSV,3,2,11,18,77,034,43,20,21,108,47,21,46,181,43,24,53,082,48*72
2017-12-01 13:47:11 1512154031.745912: $GPGSV,3,3,11,27,14,274,34,32,34,250,43,138,38,213,47*7B
2017-12-01 13:47:11 1512154031.859129: $GPZDA,184712.00,01,12,2017,00,00*69
2017-12-01 13:47:11 1512154031.859290: $GPGGA,184712,3946.9577,N,08404.9852,W,2,11,0.80,296.72,M,-33.324,M,,*78
2017-12-01 13:47:11 1512154031.859357: $GPRMC,184712,A,3946.9577,N,08404.9852,W,0.0000,0.000,011217,,*38
2017-12-01 13:47:11 1512154031.859418: $GPGSA,A,3,8,10,14,15,18,20,21,24,27,32,138,,2.0,0.8,1.5*34
2017-12-01 13:47:12 1512154032.410658: $GPZDA,184713.00,01,12,2017,00,00*68
2017-12-01 13:47:12 1512154032.410866: $GPGGA,184713,3946.9577,N,08404.9852,W,2,11,0.80,296.72,M,-33.324,M,,*79
2017-12-01 13:47:12 1512154032.410966: $GPRMC,184713,A,3946.9577,N,08404.9852,W,0.0000,0.000,011217,,*39
2017-12-01 13:47:12 1512154032.411029: $GPGSA,A,3,8,10,14,15,18,20,21,24,27,32,138,,2.0,0.8,1.5*34
