2017-12-31 18:57:28 1514764648.020296: {"class":"VERSION","release":"3.16","rev":"3.16-4","proto_major":3,"proto_minor":11}
2017-12-31 18:57:28 1514764648.020677: {"class":"DEVICES","devices":[{"class":"DEVICE","path":"/dev/ttyUSB0","driver":"SiRF","activated":"2017-12-31T23:57:27.980Z","flags":1,"native":1,"bps":4800,"parity":"N","stopbits":1,"cycle":1.00}]}
2017-12-31 18:57:28 1514764648.020776: {"class":"WATCH","enable":true,"json":false,"nmea":true,"raw":0,"scaled":false,"timing":false,"split24":false,"pps":false}
2017-12-31 18:57:28 1514764648.352422: $GPZDA,235729.00,31,12,2017,00,00*6B
2017-12-31 18:57:28 1514764648.352591: $GPGGA,235729,3946.9579,N,08404.9825,W,2,11,0.80,311.92,M,-33.324,M,,*77
2017-12-31 18:57:28 1514764648.352657: $GPRMC,235729,A,3946.9579,N,08404.9825,W,0.0000,0.000,311217,,*34
2017-12-31 18:57:28 1514764648.352718: $GPGSA,A,3,22,23,9,3,16,8,31,27,7,26,135,,1.7,0.8,1.3*09
2017-12-31 18:57:29 1514764649.392309: $GPZDA,235730.00,31,12,2017,00,00*63
2017-12-31 18:57:29 1514764649.392477: $GPGGA,235730,3946.9579,N,08404.9825,W,2,11,0.80,311.92,M,-33.324,M,,*7F
2017-12-31 18:57:29 1514764649.392544: $GPRMC,235730,A,3946.9579,N,08404.9825,W,0.0000,0.000,311217,,*3C
2017-12-31 18:57:29 1514764649.392605: $GPGSA,A,3,22,23,9,3,16,8,31,27,7,26,135,,1.7,0.8,1.3*09
2017-12-31 18:57:30 1514764650.728554: $GPGSV,3,1,11,22,05,202,25,23,70,270,39,09,40,307,32,03,15,219,30*76
2017-12-31 18:57:30 1514764650.728718: $GPGSV,3,2,11,16,73,036,46,08,20,175,44,31,14,091,27,27,43,139,40*72
2017-12-31 18:57:30 1514764650.728785: $GPGSV,3,3,11,07,13,286,40,26,41,048,46,135,22,240,43*7D
2017-12-31 18:57:30 1514764650.841896: $GPZDA,235731.00,31,12,2017,00,00*62
2017-12-31 18:57:30 1514764650.842038: $GPGGA,235731,3946.9575,N,08404.9825,W,2,11,0.80,311.28,M,-33.324,M,,*73
2017-12-31 18:57:30 1514764650.842126: $GPRMC,235731,A,3946.9575,N,08404.9825,W,0.0000,0.000,311217,,*31
2017-12-31 18:57:30 1514764650.842188: $GPGSA,A,3,22,23,9,3,16,8,31,27,7,26,135,,1.7,0.8,1.3*09
2017-12-31 18:57:31 1514764651.354019: $GPZDA,235732.00,31,12,2017,00,00*61
2017-12-31 18:57:31 1514764651.354225: $GPGGA,235732,3946.9575,N,08404.9825,W,2,11,0.80,311.28,M,-33.324,M,,*70
2017-12-31 18:57:31 1514764651.354294: $GPRMC,235732,A,3946.9575,N,08404.9825,W,0.0000,0.000,311217,,*32
2017-12-31 18:57:31 1514764651.354355: $GPGSA,A,3,22,23,9,3,16,8,31,27,7,26,135,,1.7,0.8,1.3*09
2017-12-31 18:57:32 1514764652.383659: $GPZDA,235733.00,31,12,2017,00,00*60
2017-12-31 18:57:32 1514764652.383843: $GPGGA,235733,3946.9578,N,08404.9824,W,2,11,0.80,310.52,M,-33.324,M,,*71
2017-12-31 18:57:32 1514764652.383911: $GPRMC,235733,A,3946.9578,N,08404.9824,W,0.0000,0.000,311217,,*3F
2017-12-31 18:57:32 1514764652.383971: $GPGSA,A,3,22,23,9,3,16,8,31,27,7,26,135,,1.7,0.8,1.3*09
2017-12-31 18:57:33 1514764653.728146: $GPGSV,3,1,11,22,05,202,25,23,70,270,39,09,40,307,33,03,15,219,27*71
2017-12-31 18:57:33 1514764653.728355: $GPGSV,3,2,11,16,73,036,45,08,20,175,44,31,14,091,26,27,43,139,39*7E
2017-12-31 18:57:33 1514764653.728423: $GPGSV,3,3,11,07,13,286,40,26,41,048,45,135,22,240,44*79
2017-12-31 18:57:33 1514764653.841746: $GPZDA,235734.00,31,12,2017,00,00*67
2017-12-31 18:57:33 1514764653.841890: $GPGGA,235734,3946.9578,N,08404.9824,W,2,11,0.80,310.52,M,-33.324,M,,*76
2017-12-31 18:57:33 1514764653.841955: $GPRMC,235734,A,3946.9578,N,08404.9824,W,0.0000,0.000,311217,,*38
2017-12-31 18:57:33 1514764653.842016: $GPGSA,A,3,22,23,9,3,16,8,31,27,7,26,135,,1.7,0.8,1.3*09
2017-12-31 18:57:34 1514764654.392639: $GPZDA,235735.00,31,12,2017,00,00*66
2017-12-31 18:57:34 1514764654.392802: $GPGGA,235735,3946.9578,N,08404.9824,W,2,11,0.80,310.52,M,-33.324,M,,*77
2017-12-31 18:57:34 1514764654.392867: $GPRMC,235735,A,3946.9578,N,08404.9824,W,0.0000,0.000,311217,,*39
2017-12-31 18:57:34 1514764654.392928: $GPGSA,A,3,22,23,9,3,16,8,31,27,7,26,135,,1.7,0.8,1.3*09
2017-12-31 18:57:35 1514764655.393031: $GPZDA,235736.00,31,12,2017,00,00*65
2017-12-31 18:57:35 1514764655.393240: $GPGGA,235736,3946.9578,N,08404.9824,W,2,11,0.80,310.52,M,-33.324,M,,*74
2017-12-31 18:57:35 1514764655.393358: $GPRMC,235736,A,3946.9578,N,08404.9824,W,0.0000,0.000,311217,,*3A
2017-12-31 18:57:35 1514764655.393438: $GPGSA,A,3,22,23,9,3,16,8,31,27,7,26,135,,1.7,0.8,1.3*09
2017-12-31 18:57:36 1514764656.688498: $GPGSV,3,1,11,22,05,202,25,23,70,270,38,09,40,307,38,03,15,219,27*7B
2017-12-31 18:57:36 1514764656.688652: $GPGSV,3,2,11,16,73,036,45,08,20,175,44,31,14,091,23,27,43,139,39*7B
2017-12-31 18:57:36 1514764656.688732: $GPGSV,3,3,11,07,13,286,38,26,41,048,45,135,22,240,44*76
2017-12-31 18:57:36 1514764656.802114: $GPZDA,235737.00,31,12,2017,00,00*64
2017-12-31 18:57:36 1514764656.802264: $GPGGA,235737,3946.9578,N,08404.9824,W,2,11,0.80,310.52,M,-33.324,M,,*75
2017-12-31 18:57:36 1514764656.802330: $GPRMC,235737,A,3946.9578,N,08404.9824,W,0.0000,0.000,311217,,*3B
2017-12-31 18:57:36 1514764656.802391: $GPGSA,A,3,22,23,9,3,16,8,31,27,7,26,135,,1.7,0.8,1.3*09
2017-12-31 18:57:37 1514764657.391748: $GPZDA,235738.00,31,12,2017,00,00*6B
2017-12-31 18:57:37 1514764657.391932: $GPGGA,235738,3946.9578,N,08404.9824,W,2,11,0.80,310.52,M,-33.324,M,,*7A
2017-12-31 18:57:37 1514764657.391999: $GPRMC,235738,A,3946.9578,N,08404.9824,W,0.0000,0.000,311217,,*34
2017-12-31 18:57:37 1514764657.392084: $GPGSA,A,3,22,23,9,3,16,8,31,27,7,26,135,,1.7,0.8,1.3*09
