2017-11-16 13:50:23 1510858223.996545: {"class":"VERSION","release":"3.17","rev":"3.17","proto_major":3,"proto_minor":12}
2017-11-16 13:50:23 1510858223.997060: {"class":"DEVICES","devices":[{"class":"DEVICE","path":"/dev/ttyUSB0","driver":"SiRF","subtype":"9\u0006GSD4e_4.1.2-P1_RPATCH.05-F-GPS-4R-1510281 11/03/2015 307","activated":"2017-11-16T18:50:23.481Z","flags":1,"native":1,"bps":4800,"parity":"N","stopbits":1,"cycle":1.00}]}
2017-11-16 13:50:23 1510858223.997170: {"class":"WATCH","enable":true,"json":false,"nmea":true,"raw":0,"scaled":false,"timing":false,"split24":false,"pps":false}
2017-11-16 13:50:24 1510858224.340608: $GPZDA,185023.00,16,11,2017,00,00*68
2017-11-16 13:50:24 1510858224.340795: $GPGGA,185023,3946.9612,N,08404.9827,W,2,10,0.80,307.77,M,-33.324,M,,*73
2017-11-16 13:50:24 1510858224.340856: $GPRMC,185023,A,3946.9612,N,08404.9827,W,0.0000,0.000,161117,,*3B
2017-11-16 13:50:24 1510858224.340911: $GPGSA,A,3,10,13,15,18,20,21,24,27,32,138,,,1.6,0.8,1.3*08
2017-11-16 13:50:25 1510858225.676345: $GPGSV,3,1,11,10,33,292,40,13,17,046,44,15,48,049,51,18,63,316,48*74
2017-11-16 13:50:25 1510858225.676514: $GPGSV,3,2,11,20,41,085,48,21,74,208,46,24,44,126,45,27,19,300,28*70
2017-11-16 13:50:25 1510858225.676576: $GPGSV,3,3,11,32,11,231,24,08,02,330,07,138,38,213,44*72
2017-11-16 13:50:25 1510858225.789698: $GPZDA,185024.00,16,11,2017,00,00*6F
2017-11-16 13:50:25 1510858225.789877: $GPGGA,185024,3946.9612,N,08404.9827,W,2,10,0.80,307.77,M,-33.324,M,,*74
2017-11-16 13:50:25 1510858225.789938: $GPRMC,185024,A,3946.9612,N,08404.9827,W,0.0000,0.000,161117,,*3C
2017-11-16 13:50:25 1510858225.789994: $GPGSA,A,3,10,13,15,18,20,21,24,27,32,138,,,1.6,0.8,1.3*08
2017-11-16 13:50:26 1510858226.334415: $GPZDA,185025.00,16,11,2017,00,00*6E
2017-11-16 13:50:26 1510858226.334592: $GPGGA,185025,3946.9612,N,08404.9827,W,2,10,0.80,307.77,M,-33.324,M,,*75
2017-11-16 13:50:26 1510858226.334653: $GPRMC,185025,A,3946.9612,N,08404.9827,W,0.0000,0.000,161117,,*3D
2017-11-16 13:50:26 1510858226.334727: $GPGSA,A,3,10,13,15,18,20,21,24,27,32,138,,,1.6,0.8,1.3*08
2017-11-16 13:50:27 1510858227.338617: $GPZDA,185026.00,16,11,2017,00,00*6D
2017-11-16 13:50:27 1510858227.338777: $GPGGA,185026,3946.9612,N,08404.9827,W,2,10,0.80,307.77,M,-33.324,M,,*76
2017-11-16 13:50:27 1510858227.338861: $GPRMC,185026,A,3946.9612,N,08404.9827,W,0.0000,0.000,161117,,*3E
2017-11-16 13:50:27 1510858227.338918: $GPGSA,A,3,10,13,15,18,20,21,24,27,32,138,,,1.6,0.8,1.3*08
2017-11-16 13:50:28 1510858228.675833: $GPGSV,3,1,11,10,33,292,41,13,17,046,44,15,48,049,51,18,63,316,48*75
2017-11-16 13:50:28 1510858228.676025: $GPGSV,3,2,11,20,41,085,48,21,74,208,46,24,44,126,46,27,19,300,29*72
2017-11-16 13:50:28 1510858228.676086: $GPGSV,3,3,11,32,11,231,27,08,02,330,00,138,38,213,43*71
2017-11-16 13:50:28 1510858228.789138: $GPZDA,185027.00,16,11,2017,00,00*6C
2017-11-16 13:50:28 1510858228.789279: $GPGGA,185027,3946.9612,N,08404.9827,W,2,10,0.80,307.77,M,-33.324,M,,*77
2017-11-16 13:50:28 1510858228.789339: $GPRMC,185027,A,3946.9612,N,08404.9827,W,0.0000,0.000,161117,,*3F
2017-11-16 13:50:28 1510858228.789395: $GPGSA,A,3,10,13,15,18,20,21,24,27,32,138,,,1.6,0.8,1.3*08
2017-11-16 13:50:29 1510858229.338877: $GPZDA,185028.00,16,11,2017,00,00*63
2017-11-16 13:50:29 1510858229.339090: $GPGGA,185028,3946.9612,N,08404.9827,W,2,10,0.80,307.77,M,-33.324,M,,*78
2017-11-16 13:50:29 1510858229.339181: $GPRMC,185028,A,3946.9612,N,08404.9827,W,0.0000,0.000,161117,,*30
2017-11-16 13:50:29 1510858229.339238: $GPGSA,A,3,10,13,15,18,20,21,24,27,32,138,,,1.6,0.8,1.3*08
2017-11-16 13:50:30 1510858230.332481: $GPZDA,185029.00,16,11,2017,00,00*62
2017-11-16 13:50:30 1510858230.332648: $GPGGA,185029,3946.9612,N,08404.9827,W,2,10,0.80,307.77,M,-33.324,M,,*79
2017-11-16 13:50:30 1510858230.332709: $GPRMC,185029,A,3946.9612,N,08404.9827,W,0.0000,0.000,161117,,*31
2017-11-16 13:50:30 1510858230.332764: $GPGSA,A,3,10,13,15,18,20,21,24,27,32,138,,,1.6,0.8,1.3*08
2017-11-16 13:50:31 1510858231.702197: $GPGSV,3,1,11,10,33,292,41,13,17,046,44,15,48,049,51,18,63,316,48*75
2017-11-16 13:50:31 1510858231.702419: $GPGSV,3,2,11,20,41,085,48,21,74,208,47,24,44,126,46,27,19,300,33*78
2017-11-16 13:50:31 1510858231.702482: $GPGSV,3,3,11,32,11,231,31,08,02,330,00,138,38,213,42*77
2017-11-16 13:50:31 1510858231.815526: $GPZDA,185030.00,16,11,2017,00,00*6A
2017-11-16 13:50:31 1510858231.815687: $GPGGA,185030,3946.9612,N,08404.9827,W,2,10,0.80,307.77,M,-33.324,M,,*71
2017-11-16 13:50:31 1510858231.815747: $GPRMC,185030,A,3946.9612,N,08404.9827,W,0.0000,0.000,161117,,*39
2017-11-16 13:50:31 1510858231.815802: $GPGSA,A,3,10,13,15,18,20,21,24,27,32,138,,,1.6,0.8,1.3*08
2017-11-16 13:50:32 1510858232.440977: $GPZDA,185031.00,16,11,2017,00,00*6B
2017-11-16 13:50:32 1510858232.441238: $GPGGA,185031,3946.9612,N,08404.9827,W,2,10,0.80,307.77,M,-33.324,M,,*70
2017-11-16 13:50:32 1510858232.441343: $GPRMC,185031,A,3946.9612,N,08404.9827,W,0.0000,0.000,161117,,*38
2017-11-16 13:50:32 1510858232.441484: $GPGSA,A,3,10,13,15,18,20,21,24,27,32,138,,,1.6,0.8,1.3*08
2017-11-16 13:50:33 1510858233.339423: $GPZDA,185032.00,16,11,2017,00,00*68
2017-11-16 13:50:33 1510858233.339637: $GPGGA,185032,3946.9612,N,08404.9827,W,2,10,0.80,307.77,M,-33.324,M,,*73
2017-11-16 13:50:33 1510858233.339700: $GPRMC,185032,A,3946.9612,N,08404.9827,W,0.0000,0.000,161117,,*3B
2017-11-16 13:50:33 1510858233.339756: $GPGSA,A,3,10,13,15,18,20,21,24,27,32,138,,,1.6,0.8,1.3*08
