2017-12-01 18:20:11 1512170411.205339: {"class":"VERSION","release":"3.16","rev":"3.16-4","proto_major":3,"proto_minor":11}
2017-12-01 18:20:11 1512170411.205686: {"class":"DEVICES","devices":[{"class":"DEVICE","path":"/dev/ttyUSB0","driver":"SiRF","subtype":"9\u0006GSD4e_4.1.2-P1_RPATCH.05-F-GPS-4R-1510281 11/03/2015 307","activated":"2017-12-01T23:20:10.532Z","flags":1,"native":1,"bps":4800,"parity":"N","stopbits":1,"cycle":1.00}]}
2017-12-01 18:20:11 1512170411.205849: {"class":"WATCH","enable":true,"json":false,"nmea":true,"raw":0,"scaled":false,"timing":false,"split24":false,"pps":false}
2017-12-01 18:20:11 1512170411.396971: $GPZDA,232012.00,01,12,2017,00,00*60
2017-12-01 18:20:11 1512170411.397168: $GPGGA,232012,3946.9718,N,08404.9832,W,2,12,0.80,295.20,M,-33.325,M,,*7A
2017-12-01 18:20:11 1512170411.397235: $GPRMC,232012,A,3946.9718,N,08404.9832,W,0.0000,0.000,011217,,*3C
2017-12-01 18:20:11 1512170411.397297: $GPGSA,A,3,3,14,16,22,23,25,26,31,32,1,29,138,2.0,0.8,1.5*0C
2017-12-01 18:20:12 1512170412.723002: $GPGSV,3,1,12,03,39,301,46,14,56,090,43,16,21,189,43,22,50,273,45*78
2017-12-01 18:20:12 1512170412.723205: $GPGSV,3,2,12,23,10,300,41,25,19,040,40,26,52,172,46,31,68,024,47*7E
2017-12-01 18:20:12 1512170412.723273: $GPGSV,3,3,12,32,37,106,41,01,07,253,30,29,10,073,19,138,38,213,45*4A
2017-12-01 18:20:12 1512170412.835167: $GPZDA,232013.00,01,12,2017,00,00*61
2017-12-01 18:20:12 1512170412.835341: $GPGGA,232013,3946.9718,N,08404.9832,W,2,11,0.80,295.20,M,-33.325,M,,*78
2017-12-01 18:20:12 1512170412.835411: $GPRMC,232013,A,3946.9718,N,08404.9832,W,0.0000,0.000,011217,,*3D
2017-12-01 18:20:12 1512170412.835473: $GPGSA,A,3,3,14,16,22,23,25,26,31,32,1,138,,2.0,0.8,1.5*07
2017-12-01 18:20:13 1512170413.393787: $GPZDA,232014.00,01,12,2017,00,00*66
2017-12-01 18:20:13 1512170413.393980: $GPGGA,232014,3946.9718,N,08404.9832,W,2,11,0.80,295.20,M,-33.325,M,,*7F
2017-12-01 18:20:13 1512170413.394065: $GPRMC,232014,A,3946.9718,N,08404.9832,W,0.0000,0.000,011217,,*3A
2017-12-01 18:20:13 1512170413.394127: $GPGSA,A,3,3,14,16,22,23,25,26,31,32,1,138,,2.0,0.8,1.5*07
2017-12-01 18:20:14 1512170414.390606: $GPZDA,232015.00,01,12,2017,00,00*67
2017-12-01 18:20:14 1512170414.390785: $GPGGA,232015,3946.9718,N,08404.9832,W,2,11,0.80,295.20,M,-33.325,M,,*7E
2017-12-01 18:20:14 1512170414.390853: $GPRMC,232015,A,3946.9718,N,08404.9832,W,0.0000,0.000,011217,,*3B
2017-12-01 18:20:14 1512170414.390938: $GPGSA,A,3,3,14,16,22,23,25,26,31,32,1,138,,2.0,0.8,1.5*07
2017-12-01 18:20:15 1512170415.758950: $GPGSV,3,1,12,03,39,301,47,14,56,090,43,16,21,189,43,22,50,273,45*79
2017-12-01 18:20:15 1512170415.759146: $GPGSV,3,2,12,23,10,300,40,25,19,040,40,26,52,172,46,31,68,024,47*7F
2017-12-01 18:20:15 1512170415.759213: $GPGSV,3,3,12,32,37,106,42,01,07,253,30,29,10,073,20,138,38,213,45*43
2017-12-01 18:20:15 1512170415.872692: $GPZDA,232016.00,01,12,2017,00,00*64
2017-12-01 18:20:15 1512170415.872839: $GPGGA,232016,3946.9718,N,08404.9832,W,2,12,0.80,295.20,M,-33.325,M,,*7E
2017-12-01 18:20:15 1512170415.872910: $GPRMC,232016,A,3946.9718,N,08404.9832,W,0.0000,0.000,011217,,*38
2017-12-01 18:20:15 1512170415.872971: $GPGSA,A,3,3,14,16,22,23,25,26,31,32,1,29,138,2.0,0.8,1.5*0C
2017-12-01 18:20:16 1512170416.392012: $GPZDA,232017.00,01,12,2017,00,00*65
2017-12-01 18:20:16 1512170416.392185: $GPGGA,232017,3946.9718,N,08404.9832,W,2,12,0.80,295.20,M,-33.325,M,,*7F
2017-12-01 18:20:16 1512170416.392253: $GPRMC,232017,A,3946.9718,N,08404.9832,W,0.0000,0.000,011217,,*39
2017-12-01 18:20:16 1512170416.392314: $GPGSA,A,3,3,14,16,22,23,25,26,31,32,1,29,138,2.0,0.8,1.5*0C
2017-12-01 18:20:17 1512170417.422686: $GPZDA,232018.00,01,12,2017,00,00*6A
2017-12-01 18:20:17 1512170417.422876: $GPGGA,232018,3946.9718,N,08404.9832,W,2,12,0.80,295.20,M,-33.325,M,,*70
2017-12-01 18:20:17 1512170417.422946: $GPRMC,232018,A,3946.9718,N,08404.9832,W,0.0000,0.000,011217,,*36
2017-12-01 18:20:17 1512170417.423025: $GPGSA,A,3,3,14,16,22,23,25,26,31,32,1,29,138,2.0,0.8,1.5*0C
2017-12-01 18:20:18 1512170418.756688: $GPGSV,3,1,12,03,39,301,47,14,56,090,43,16,21,189,43,22,50,273,45*79
2017-12-01 18:20:18 1512170418.756936: $GPGSV,3,2,12,23,10,300,40,25,19,040,40,26,52,172,47,31,68,024,46*7F
2017-12-01 18:20:18 1512170418.757036: $GPGSV,3,3,12,32,37,106,34,01,07,253,30,29,10,073,00,138,38,213,46*43
2017-12-01 18:20:18 1512170418.870109: $GPZDA,232019.00,01,12,2017,00,00*6B
2017-12-01 18:20:18 1512170418.870283: $GPGGA,232019,3946.9718,N,08404.9832,W,2,11,0.80,295.20,M,-33.325,M,,*72
2017-12-01 18:20:18 1512170418.870350: $GPRMC,232019,A,3946.9718,N,08404.9832,W,0.0000,0.000,011217,,*37
2017-12-01 18:20:18 1512170418.870412: $GPGSA,A,3,3,14,16,22,23,25,26,31,32,1,138,,2.0,0.8,1.5*07
2017-12-01 18:20:19 1512170419.428728: $GPZDA,232020.00,01,12,2017,00,00*61
2017-12-01 18:20:19 1512170419.428903: $GPGGA,232020,3946.9718,N,08404.9832,W,2,11,0.80,295.20,M,-33.325,M,,*78
2017-12-01 18:20:19 1512170419.428971: $GPRMC,232020,A,3946.9718,N,08404.9832,W,0.0000,0.000,011217,,*3D
2017-12-01 18:20:19 1512170419.429033: $GPGSA,A,3,3,14,16,22,23,25,26,31,32,1,138,,2.0,0.8,1.5*07
2017-12-01 18:20:20 1512170420.418115: $GPZDA,232021.00,01,12,2017,00,00*60
2017-12-01 18:20:20 1512170420.418288: $GPGGA,232021,3946.9718,N,08404.9832,W,2,11,0.80,295.20,M,-33.325,M,,*79
2017-12-01 18:20:20 1512170420.418356: $GPRMC,232021,A,3946.9718,N,08404.9832,W,0.0000,0.000,011217,,*3C
2017-12-01 18:20:20 1512170420.418417: $GPGSA,A,3,3,14,16,22,23,25,26,31,32,1,138,,2.0,0.8,1.5*07
2017-12-01 18:20:21 1512170421.727589: $GPGSV,3,1,12,03,39,301,47,14,56,090,44,16,21,189,43,22,50,273,45*7E
2017-12-01 18:20:21 1512170421.727766: $GPGSV,3,2,12,23,10,300,40,25,19,040,40,26,52,172,47,31,68,024,47*7E
2017-12-01 18:20:21 1512170421.727834: $GPGSV,3,3,12,32,37,106,37,01,07,253,30,29,10,073,00,138,38,213,46*40
2017-12-01 18:20:21 1512170421.840952: $GPZDA,232022.00,01,12,2017,00,00*63
2017-12-01 18:20:21 1512170421.841124: $GPGGA,232022,3946.9718,N,08404.9832,W,2,11,0.80,295.20,M,-33.325,M,,*7A
2017-12-01 18:20:21 1512170421.841192: $GPRMC,232022,A,3946.9718,N,08404.9832,W,0.0000,0.000,011217,,*3F
2017-12-01 18:20:21 1512170421.841254: $GPGSA,A,3,3,14,16,22,23,25,26,31,32,1,138,,2.0,0.8,1.5*07
2017-12-01 18:20:22 1512170422.466640: $GPZDA,232023.00,01,12,2017,00,00*62
2017-12-01 18:20:22 1512170422.466812: $GPGGA,232023,3946.9718,N,08404.9832,W,2,11,0.80,295.20,M,-33.325,M,,*7B
2017-12-01 18:20:22 1512170422.466882: $GPRMC,232023,A,3946.9718,N,08404.9832,W,0.0000,0.000,011217,,*3E
2017-12-01 18:20:22 1512170422.466947: $GPGSA,A,3,3,14,16,22,23,25,26,31,32,1,138,,2.0,0.8,1.5*07
2017-12-01 18:20:23 1512170423.423728: $GPZDA,232024.00,01,12,2017,00,00*65
2017-12-01 18:20:23 1512170423.423909: $GPGGA,232024,3946.9718,N,08404.9832,W,2,11,0.80,295.20,M,-33.325,M,,*7C
2017-12-01 18:20:23 1512170423.423976: $GPRMC,232024,A,3946.9718,N,08404.9832,W,0.0000,0.000,011217,,*39
2017-12-01 18:20:23 1512170423.424040: $GPGSA,A,3,3,14,16,22,23,25,26,31,32,1,138,,2.0,0.8,1.5*07
2017-12-01 18:20:24 1512170424.759188: $GPGSV,3,1,12,03,39,301,47,14,56,090,44,16,21,189,44,22,50,273,45*79
2017-12-01 18:20:24 1512170424.759348: $GPGSV,3,2,12,23,10,300,40,25,19,040,40,26,52,172,47,31,68,024,47*7E
2017-12-01 18:20:24 1512170424.759416: $GPGSV,3,3,12,32,37,106,38,01,07,253,29,29,10,073,22,138,38,213,46*47
2017-12-01 18:20:24 1512170424.873019: $GPZDA,232025.00,01,12,2017,00,00*64
2017-12-01 18:20:24 1512170424.873188: $GPGGA,232025,3946.9718,N,08404.9832,W,2,12,0.80,295.20,M,-33.325,M,,*7E
2017-12-01 18:20:24 1512170424.873256: $GPRMC,232025,A,3946.9718,N,08404.9832,W,0.0000,0.000,011217,,*38
2017-12-01 18:20:24 1512170424.873316: $GPGSA,A,3,3,14,16,22,23,25,26,31,32,1,29,138,2.0,0.8,1.5*0C
2017-12-01 18:20:25 1512170425.393682: $GPZDA,232026.00,01,12,2017,00,00*67
2017-12-01 18:20:25 1512170425.393855: $GPGGA,232026,3946.9718,N,08404.9832,W,2,12,0.80,295.20,M,-33.325,M,,*7D
2017-12-01 18:20:25 1512170425.393925: $GPRMC,232026,A,3946.9718,N,08404.9832,W,0.0000,0.000,011217,,*3B
2017-12-01 18:20:25 1512170425.393987: $GPGSA,A,3,3,14,16,22,23,25,26,31,32,1,29,138,2.0,0.8,1.5*0C
2017-12-01 18:20:26 1512170426.422098: $GPZDA,232027.00,01,12,2017,00,00*66
2017-12-01 18:20:26 1512170426.422319: $GPGGA,232027,3946.9718,N,08404.9832,W,2,12,0.80,295.20,M,-33.325,M,,*7C
2017-12-01 18:20:26 1512170426.422389: $GPRMC,232027,A,3946.9718,N,08404.9832,W,0.0000,0.000,011217,,*3A
2017-12-01 18:20:26 1512170426.422450: $GPGSA,A,3,3,14,16,22,23,25,26,31,32,1,29,138,2.0,0.8,1.5*0C
2017-12-01 18:20:27 1512170427.728198: $GPGSV,3,1,12,03,39,301,47,14,56,090,44,16,21,189,43,22,50,273,45*7E
2017-12-01 18:20:27 1512170427.728392: $GPGSV,3,2,12,23,10,300,41,25,19,040,40,26,52,172,47,31,68,024,47*7F
2017-12-01 18:20:27 1512170427.728459: $GPGSV,3,3,12,32,37,106,39,01,07,253,30,29,10,073,22,138,38,213,46*4E
2017-12-01 18:20:27 1512170427.840300: $GPZDA,232028.00,01,12,2017,00,00*69
2017-12-01 18:20:27 1512170427.840458: $GPGGA,232028,3946.9718,N,08404.9832,W,2,12,0.80,295.20,M,-33.325,M,,*73
2017-12-01 18:20:27 1512170427.840524: $GPRMC,232028,A,3946.9718,N,08404.9832,W,0.0000,0.000,011217,,*35
2017-12-01 18:20:27 1512170427.840585: $GPGSA,A,3,3,14,16,22,23,25,26,31,32,1,29,138,2.0,0.8,1.5*0C
2017-12-01 18:20:28 1512170428.423778: $GPZDA,232029.00,01,12,2017,00,00*68
2017-12-01 18:20:28 1512170428.423934: $GPGGA,232029,3946.9718,N,08404.9832,W,2,12,0.80,295.20,M,-33.325,M,,*72
2017-12-01 18:20:28 1512170428.424002: $GPRMC,232029,A,3946.9718,N,08404.9832,W,0.0000,0.000,011217,,*34
2017-12-01 18:20:28 1512170428.424062: $GPGSA,A,3,3,14,16,22,23,25,26,31,32,1,29,138,2.0,0.8,1.5*0C
2017-12-01 18:20:29 1512170429.423303: $GPZDA,232030.00,01,12,2017,00,00*60
2017-12-01 18:20:29 1512170429.423511: $GPGGA,232030,3946.9718,N,08404.9832,W,2,12,0.80,295.20,M,-33.325,M,,*7A
2017-12-01 18:20:29 1512170429.423583: $GPRMC,232030,A,3946.9718,N,08404.9832,W,0.0000,0.000,011217,,*3C
2017-12-01 18:20:29 1512170429.423648: $GPGSA,A,3,3,14,16,22,23,25,26,31,32,1,29,138,2.0,0.8,1.5*0C
2017-12-01 18:20:30 1512170430.752785: $GPGSV,3,1,12,03,39,301,47,14,56,090,44,16,21,189,43,22,50,273,45*7E
2017-12-01 18:20:30 1512170430.752977: $GPGSV,3,2,12,23,10,300,41,25,19,040,40,26,52,172,47,31,68,024,47*7F
2017-12-01 18:20:30 1512170430.753067: $GPGSV,3,3,12,32,37,106,39,01,07,253,34,29,10,073,00,138,38,213,46*4A
2017-12-01 18:20:30 1512170430.866165: $GPZDA,232031.00,01,12,2017,00,00*61
2017-12-01 18:20:30 1512170430.866345: $GPGGA,232031,3946.9718,N,08404.9832,W,2,11,0.80,295.20,M,-33.325,M,,*78
2017-12-01 18:20:30 1512170430.866414: $GPRMC,232031,A,3946.9718,N,08404.9832,W,0.0000,0.000,011217,,*3D
2017-12-01 18:20:30 1512170430.866480: $GPGSA,A,3,3,14,16,22,23,25,26,31,32,1,138,,2.0,0.8,1.5*07
