2018-01-11 19:51:23 1515718283.856255: {"class":"VERSION","release":"3.16","rev":"3.16-4","proto_major":3,"proto_minor":11}
2018-01-11 19:51:23 1515718283.856618: {"class":"DEVICES","devices":[{"class":"DEVICE","path":"/dev/ttyUSB0","driver":"SiRF","subtype":"9\u0006GSD4e_4.1.2-P1_RPATCH.05-F-GPS-4R-1510281 11/03/2015 307","activated":"2018-01-12T00:51:23.554Z","flags":1,"native":1,"bps":4800,"parity":"N","stopbits":1,"cycle":1.00}]}
2018-01-11 19:51:23 1515718283.856733: {"class":"WATCH","enable":true,"json":false,"nmea":true,"raw":0,"scaled":false,"timing":false,"split24":false,"pps":false}
2018-01-11 19:51:24 1515718284.413251: $GPZDA,005125.00,12,01,2018,00,00*6C
2018-01-11 19:51:24 1515718284.413413: $GPGGA,005125,3946.9552,N,08404.9777,W,2,11,0.80,310.04,M,-33.324,M,,*73
2018-01-11 19:51:24 1515718284.413480: $GPRMC,005125,A,3946.9552,N,08404.9777,W,0.0000,0.000,120118,,*32
2018-01-11 19:51:24 1515718284.413541: $GPGSA,A,3,7,8,9,11,16,23,27,30,28,26,138,,4.0,0.8,3.5*3A
2018-01-11 19:51:25 1515718285.750987: $GPGSV,3,1,11,07,47,312,42,08,66,153,43,09,54,243,43,11,12,171,35*79
2018-01-11 19:51:25 1515718285.751166: $GPGSV,3,2,11,16,30,055,47,23,38,193,49,27,54,063,50,30,21,303,33*77
2018-01-11 19:51:25 1515718285.751250: $GPGSV,3,3,11,28,08,252,31,26,05,067,16,138,38,213,44*7A
2018-01-11 19:51:25 1515718285.864352: $GPZDA,005126.00,12,01,2018,00,00*6F
2018-01-11 19:51:25 1515718285.864515: $GPGGA,005126,3946.9552,N,08404.9777,W,2,11,0.80,310.04,M,-33.324,M,,*70
2018-01-11 19:51:25 1515718285.864582: $GPRMC,005126,A,3946.9552,N,08404.9777,W,0.0000,0.000,120118,,*31
2018-01-11 19:51:25 1515718285.864643: $GPGSA,A,3,7,8,9,11,16,23,27,30,28,26,138,,4.0,0.8,3.5*3A
2018-01-11 19:51:26 1515718286.415231: $GPZDA,005127.00,12,01,2018,00,00*6E
2018-01-11 19:51:26 1515718286.415399: $GPGGA,005127,3946.9552,N,08404.9777,W,2,11,0.80,310.04,M,-33.324,M,,*71
2018-01-11 19:51:26 1515718286.415467: $GPRMC,005127,A,3946.9552,N,08404.9777,W,0.0000,0.000,120118,,*30
2018-01-11 19:51:26 1515718286.415528: $GPGSA,A,3,7,8,9,11,16,23,27,30,28,26,138,,4.0,0.8,3.5*3A
2018-01-11 19:51:27 1515718287.413619: $GPZDA,005128.00,12,01,2018,00,00*61
2018-01-11 19:51:27 1515718287.413814: $GPGGA,005128,3946.9556,N,08404.9777,W,2,11,0.80,310.68,M,-33.324,M,,*70
2018-01-11 19:51:27 1515718287.413884: $GPRMC,005128,A,3946.9556,N,08404.9777,W,0.0000,0.000,120118,,*3B
2018-01-11 19:51:27 1515718287.413945: $GPGSA,A,3,7,8,9,11,16,23,27,30,28,26,138,,4.0,0.8,3.5*3A
2018-01-11 19:51:28 1515718288.765579: $GPGSV,3,1,11,07,47,312,42,08,66,153,44,09,54,243,43,11,12,171,35*7E
2018-01-11 19:51:28 1515718288.765741: $GPGSV,3,2,11,16,30,055,48,23,38,193,49,27,54,063,50,30,21,303,33*78
2018-01-11 19:51:28 1515718288.765805: $GPGSV,3,3,11,28,08,252,31,26,05,067,16,138,38,213,44*7A
2018-01-11 19:51:28 1515718288.879285: $GPZDA,005129.00,12,01,2018,00,00*60
2018-01-11 19:51:28 1515718288.879440: $GPGGA,005129,3946.9553,N,08404.9778,W,2,11,0.80,311.45,M,-33.324,M,,*75
2018-01-11 19:51:28 1515718288.879504: $GPRMC,005129,A,3946.9553,N,08404.9778,W,0.0000,0.000,120118,,*30
2018-01-11 19:51:28 1515718288.879564: $GPGSA,A,3,7,8,9,11,16,23,27,30,28,26,138,,4.0,0.8,3.5*3A
2018-01-11 19:51:29 1515718289.430166: $GPZDA,005130.00,12,01,2018,00,00*68
2018-01-11 19:51:29 1515718289.430330: $GPGGA,005130,3946.9553,N,08404.9778,W,2,11,0.80,311.45,M,-33.324,M,,*7D
2018-01-11 19:51:29 1515718289.430396: $GPRMC,005130,A,3946.9553,N,08404.9778,W,0.0000,0.000,120118,,*38
2018-01-11 19:51:29 1515718289.430456: $GPGSA,A,3,7,8,9,11,16,23,27,30,28,26,138,,4.0,0.8,3.5*3A
2018-01-11 19:51:30 1515718290.437947: $GPZDA,005131.00,12,01,2018,00,00*69
2018-01-11 19:51:30 1515718290.438148: $GPGGA,005131,3946.9553,N,08404.9778,W,2,11,0.80,311.45,M,-33.324,M,,*7C
2018-01-11 19:51:30 1515718290.438214: $GPRMC,005131,A,3946.9553,N,08404.9778,W,0.0000,0.000,120118,,*39
2018-01-11 19:51:30 1515718290.438274: $GPGSA,A,3,7,8,9,11,16,23,27,30,28,26,138,,4.0,0.8,3.5*3A
2018-01-11 19:51:31 1515718291.769667: $GPGSV,3,1,11,07,47,312,42,08,66,153,44,09,54,243,43,11,12,171,35*7E
2018-01-11 19:51:31 1515718291.769880: $GPGSV,3,2,11,16,30,055,48,23,38,193,49,27,54,063,50,30,21,303,32*79
2018-01-11 19:51:31 1515718291.769948: $GPGSV,3,3,11,28,08,252,30,26,05,067,15,138,38,213,45*79
2018-01-11 19:51:31 1515718291.882032: $GPZDA,005132.00,12,01,2018,00,00*6A
2018-01-11 19:51:31 1515718291.882207: $GPGGA,005132,3946.9553,N,08404.9778,W,2,11,0.80,311.45,M,-33.324,M,,*7F
2018-01-11 19:51:31 1515718291.882272: $GPRMC,005132,A,3946.9553,N,08404.9778,W,0.0000,0.000,120118,,*3A
2018-01-11 19:51:31 1515718291.882332: $GPGSA,A,3,7,8,9,11,16,23,27,30,28,26,138,,4.0,0.8,3.5*3A
2018-01-11 19:51:32 1515718292.434181: $GPZDA,005133.00,12,01,2018,00,00*6B
2018-01-11 19:51:32 1515718292.434346: $GPGGA,005133,3946.9553,N,08404.9778,W,2,11,0.80,311.45,M,-33.324,M,,*7E
2018-01-11 19:51:32 1515718292.434412: $GPRMC,005133,A,3946.9553,N,08404.9778,W,0.0000,0.000,120118,,*3B
2018-01-11 19:51:32 1515718292.434472: $GPGSA,A,3,7,8,9,11,16,23,27,30,28,26,138,,4.0,0.8,3.5*3A
