2018-01-11 21:03:02 1515722582.335013: {"class":"VERSION","release":"3.16","rev":"3.16-4","proto_major":3,"proto_minor":11}
2018-01-11 21:03:02 1515722582.335516: {"class":"DEVICES","devices":[{"class":"DEVICE","path":"/dev/ttyUSB0","driver":"SiRF","subtype":"9\u0006GSD4e_4.1.2-P1_RPATCH.05-F-GPS-4R-1510281 11/03/2015 307","activated":"2018-01-12T02:03:02.241Z","flags":1,"native":1,"bps":4800,"parity":"N","stopbits":1,"cycle":1.00}]}
2018-01-11 21:03:02 1515722582.335644: {"class":"WATCH","enable":true,"json":false,"nmea":true,"raw":0,"scaled":false,"timing":false,"split24":false,"pps":false}
2018-01-11 21:03:02 1515722582.691019: $GPGSV,3,1,12,01,17,153,44,07,79,309,43,08,65,055,47,09,27,210,42*7D
2018-01-11 21:03:02 1515722582.691202: $GPGSV,3,2,12,11,42,157,45,23,07,183,33,27,26,045,50,28,30,277,31*7F
2018-01-11 21:03:02 1515722582.691268: $GPGSV,3,3,12,30,50,309,42,13,02,328,21,16,07,075,20,138,38,213,45*4A
2018-01-11 21:03:02 1515722582.803367: $GPZDA,020303.00,12,01,2018,00,00*6D
2018-01-11 21:03:02 1515722582.803503: $GPGGA,020303,3946.9584,N,08404.9837,W,2,12,1.00,296.75,M,-33.324,M,,*71
2018-01-11 21:03:02 1515722582.803571: $GPRMC,020303,A,3946.9584,N,08404.9837,W,0.0000,0.000,120118,,*33
2018-01-11 21:03:02 1515722582.803631: $GPGSA,A,3,1,7,8,9,11,23,27,28,30,13,16,138,4.0,1.0,3.5*04
2018-01-11 21:03:04 1515722584.069469: $GPZDA,020304.00,12,01,2018,00,00*6A
2018-01-11 21:03:04 1515722584.069638: $GPGGA,020304,3946.9584,N,08404.9837,W,2,12,1.00,296.75,M,-33.324,M,,*76
2018-01-11 21:03:04 1515722584.069707: $GPRMC,020304,A,3946.9584,N,08404.9837,W,0.0000,0.000,120118,,*34
2018-01-11 21:03:04 1515722584.069767: $GPGSA,A,3,1,7,8,9,11,23,27,28,30,13,16,138,4.0,1.0,3.5*04
2018-01-11 21:03:04 1515722584.854762: $GPZDA,020305.00,12,01,2018,00,00*6B
2018-01-11 21:03:04 1515722584.854930: $GPGGA,020305,3946.9588,N,08404.9843,W,2,12,0.80,295.91,M,-33.324,M,,*78
2018-01-11 21:03:04 1515722584.854997: $GPRMC,020305,A,3946.9588,N,08404.9843,W,0.2422,273.794,120118,,*30
2018-01-11 21:03:04 1515722584.855060: $GPGSA,A,3,1,7,8,9,11,23,27,28,30,13,16,138,4.0,0.8,3.5*0D
2018-01-11 21:03:04 1515722584.855119: $GPGBS,020305,3.65,M,6.21,M,20.10,M*0C
2018-01-11 21:03:05 1515722585.690390: $GPGSV,3,1,12,01,18,151,44,07,79,309,43,08,65,054,47,09,27,210,42*71
2018-01-11 21:03:05 1515722585.690560: $GPGSV,3,2,12,11,42,157,45,23,07,181,32,27,26,045,50,28,30,277,31*7C
2018-01-11 21:03:05 1515722585.690625: $GPGSV,3,3,12,30,51,309,42,13,02,328,20,16,06,075,20,138,38,213,45*4B
2018-01-11 21:03:05 1515722585.803812: $GPZDA,020306.00,12,01,2018,00,00*68
2018-01-11 21:03:05 1515722585.803946: $GPGGA,020306,3946.9588,N,08404.9843,W,2,12,0.80,295.91,M,-33.324,M,,*7B
2018-01-11 21:03:05 1515722585.804010: $GPRMC,020306,A,3946.9588,N,08404.9843,W,0.0000,0.000,120118,,*39
2018-01-11 21:03:05 1515722585.804072: $GPGSA,A,3,1,7,8,9,11,23,27,28,30,13,16,138,4.0,0.8,3.5*0D
2018-01-11 21:03:06 1515722586.354695: $GPZDA,020307.00,12,01,2018,00,00*69
2018-01-11 21:03:06 1515722586.354868: $GPGGA,020307,3946.9592,N,08404.9843,W,2,12,1.00,296.55,M,-33.324,M,,*73
2018-01-11 21:03:06 1515722586.354937: $GPRMC,020307,A,3946.9592,N,08404.9843,W,0.0000,0.000,120118,,*33
2018-01-11 21:03:06 1515722586.354998: $GPGSA,A,3,1,7,8,9,11,23,27,28,30,13,16,138,4.0,1.0,3.5*04
2018-01-11 21:03:07 1515722587.356826: $GPZDA,020308.00,12,01,2018,00,00*66
2018-01-11 21:03:07 1515722587.356991: $GPGGA,020308,3946.9592,N,08404.9843,W,2,12,1.00,296.55,M,-33.324,M,,*7C
2018-01-11 21:03:07 1515722587.357058: $GPRMC,020308,A,3946.9592,N,08404.9843,W,0.0000,0.000,120118,,*3C
2018-01-11 21:03:07 1515722587.357118: $GPGSA,A,3,1,7,8,9,11,23,27,28,30,13,16,138,4.0,1.0,3.5*04
2018-01-11 21:03:08 1515722588.685055: $GPGSV,3,1,12,01,18,151,44,07,79,309,43,08,65,054,47,09,27,210,42*71
2018-01-11 21:03:08 1515722588.685229: $GPGSV,3,2,12,11,42,157,45,23,07,181,32,27,26,045,50,28,30,277,31*7C
2018-01-11 21:03:08 1515722588.685297: $GPGSV,3,3,12,30,51,309,42,13,02,328,19,16,06,075,10,138,38,213,45*42
2018-01-11 21:03:08 1515722588.798433: $GPZDA,020309.00,12,01,2018,00,00*67
2018-01-11 21:03:08 1515722588.798647: $GPGGA,020309,3946.9592,N,08404.9843,W,2,12,0.80,296.55,M,-33.324,M,,*74
2018-01-11 21:03:08 1515722588.798719: $GPRMC,020309,A,3946.9592,N,08404.9843,W,0.0000,0.000,120118,,*3D
2018-01-11 21:03:08 1515722588.798779: $GPGSA,A,3,1,7,8,9,11,23,27,28,30,13,16,138,4.0,0.8,3.5*0D
