2017-12-01 13:44:37 1512153877.986858: {"class":"VERSION","release":"3.16","rev":"3.16-4","proto_major":3,"proto_minor":11}
2017-12-01 13:44:37 1512153877.987252: {"class":"DEVICES","devices":[{"class":"DEVICE","path":"/dev/ttyUSB0","driver":"SiRF","subtype":"9\u0006GSD4e_4.1.2-P1_RPATCH.05-F-GPS-4R-1510281 11/03/2015 307","activated":"2017-12-01T18:44:37.541Z","flags":1,"native":1,"bps":4800,"parity":"N","stopbits":1,"cycle":1.00}]}
2017-12-01 13:44:37 1512153877.987370: {"class":"WATCH","enable":true,"json":false,"nmea":true,"raw":0,"scaled":false,"timing":false,"split24":false,"pps":false}
2017-12-01 13:44:38 1512153878.378128: $GPZDA,184439.00,01,12,2017,00,00*63
2017-12-01 13:44:38 1512153878.378312: $GPGGA,184439,3946.9586,N,08404.9859,W,2,11,0.80,299.32,M,-33.324,M,,*7C
2017-12-01 13:44:38 1512153878.378380: $GPRMC,184439,A,3946.9586,N,08404.9859,W,0.0000,0.000,011217,,*37
2017-12-01 13:44:38 1512153878.378441: $GPGSA,A,3,8,10,14,15,18,20,21,24,27,32,138,,2.0,0.8,1.5*34
2017-12-01 13:44:39 1512153879.734892: $GPGSV,3,1,11,08,08,309,29,10,53,313,49,14,15,241,40,15,25,058,46*7F
2017-12-01 13:44:39 1512153879.735094: $GPGSV,3,2,11,18,77,028,43,20,22,106,46,21,47,183,44,24,53,084,47*7E
2017-12-01 13:44:39 1512153879.735160: $GPGSV,3,3,11,27,15,274,38,32,33,249,43,138,38,213,46*78
2017-12-01 13:44:39 1512153879.848521: $GPZDA,184440.00,01,12,2017,00,00*6D
2017-12-01 13:44:39 1512153879.848694: $GPGGA,184440,3946.9586,N,08404.9859,W,2,11,0.80,299.32,M,-33.324,M,,*72
2017-12-01 13:44:39 1512153879.848759: $GPRMC,184440,A,3946.9586,N,08404.9859,W,0.0000,0.000,011217,,*39
2017-12-01 13:44:39 1512153879.848819: $GPGSA,A,3,8,10,14,15,18,20,21,24,27,32,138,,2.0,0.8,1.5*34
2017-12-01 13:44:40 1512153880.473736: $GPZDA,184441.00,01,12,2017,00,00*6C
2017-12-01 13:44:40 1512153880.473929: $GPGGA,184441,3946.9586,N,08404.9859,W,2,11,0.80,299.32,M,-33.324,M,,*73
2017-12-01 13:44:40 1512153880.473998: $GPRMC,184441,A,3946.9586,N,08404.9859,W,0.0000,0.000,011217,,*38
2017-12-01 13:44:40 1512153880.474059: $GPGSA,A,3,8,10,14,15,18,20,21,24,27,32,138,,2.0,0.8,1.5*34
2017-12-01 13:44:41 1512153881.399626: $GPZDA,184442.00,01,12,2017,00,00*6F
2017-12-01 13:44:41 1512153881.399797: $GPGGA,184442,3946.9586,N,08404.9859,W,2,11,0.80,299.32,M,-33.324,M,,*70
2017-12-01 13:44:41 1512153881.399864: $GPRMC,184442,A,3946.9586,N,08404.9859,W,0.0000,0.000,011217,,*3B
2017-12-01 13:44:41 1512153881.399924: $GPGSA,A,3,8,10,14,15,18,20,21,24,27,32,138,,2.0,0.8,1.5*34
2017-12-01 13:44:42 1512153882.736354: $GPGSV,3,1,11,08,08,309,28,10,53,313,49,14,15,241,40,15,25,058,46*7E
2017-12-01 13:44:42 1512153882.736537: $GPGSV,3,2,11,18,77,028,43,20,22,106,46,21,47,183,44,24,53,084,47*7E
2017-12-01 13:44:42 1512153882.736603: $GPGSV,3,3,11,27,15,274,38,32,33,249,43,138,38,213,46*78
2017-12-01 13:44:42 1512153882.849678: $GPZDA,184443.00,01,12,2017,00,00*6E
2017-12-01 13:44:42 1512153882.849796: $GPGGA,184443,3946.9586,N,08404.9859,W,2,11,0.80,299.32,M,-33.324,M,,*71
2017-12-01 13:44:42 1512153882.849860: $GPRMC,184443,A,3946.9586,N,08404.9859,W,0.0000,0.000,011217,,*3A
2017-12-01 13:44:42 1512153882.849920: $GPGSA,A,3,8,10,14,15,18,20,21,24,27,32,138,,2.0,0.8,1.5*34
2017-12-01 13:44:43 1512153883.378365: $GPZDA,184444.00,01,12,2017,00,00*69
2017-12-01 13:44:43 1512153883.378547: $GPGGA,184444,3946.9586,N,08404.9859,W,2,11,0.80,299.32,M,-33.324,M,,*76
2017-12-01 13:44:43 1512153883.378615: $GPRMC,184444,A,3946.9586,N,08404.9859,W,0.0000,0.000,011217,,*3D
2017-12-01 13:44:43 1512153883.378677: $GPGSA,A,3,8,10,14,15,18,20,21,24,27,32,138,,2.0,0.8,1.5*34
2017-12-01 13:44:44 1512153884.370255: $GPZDA,184445.00,01,12,2017,00,00*68
2017-12-01 13:44:44 1512153884.370439: $GPGGA,184445,3946.9586,N,08404.9859,W,2,11,0.80,299.32,M,-33.324,M,,*77
2017-12-01 13:44:44 1512153884.370507: $GPRMC,184445,A,3946.9586,N,08404.9859,W,0.0000,0.000,011217,,*3C
2017-12-01 13:44:44 1512153884.370569: $GPGSA,A,3,8,10,14,15,18,20,21,24,27,32,138,,2.0,0.8,1.5*34
2017-12-01 13:44:45 1512153885.713026: $GPGSV,3,1,11,08,08,309,21,10,53,313,49,14,15,241,39,15,25,058,46*79
2017-12-01 13:44:45 1512153885.713261: $GPGSV,3,2,11,18,77,028,43,20,22,106,46,21,47,183,44,24,53,084,47*7E
2017-12-01 13:44:45 1512153885.713330: $GPGSV,3,3,11,27,15,274,38,32,33,249,43,138,38,213,47*79
2017-12-01 13:44:45 1512153885.826485: $GPZDA,184446.00,01,12,2017,00,00*6B
2017-12-01 13:44:45 1512153885.826666: $GPGGA,184446,3946.9586,N,08404.9859,W,2,11,0.80,299.32,M,-33.324,M,,*74
2017-12-01 13:44:45 1512153885.826734: $GPRMC,184446,A,3946.9586,N,08404.9859,W,0.0000,0.000,011217,,*3F
2017-12-01 13:44:45 1512153885.826795: $GPGSA,A,3,8,10,14,15,18,20,21,24,27,32,138,,2.0,0.8,1.5*34
2017-12-01 13:44:46 1512153886.377289: $GPZDA,184447.00,01,12,2017,00,00*6A
2017-12-01 13:44:46 1512153886.377462: $GPGGA,184447,3946.9586,N,08404.9859,W,2,11,0.80,299.32,M,-33.324,M,,*75
2017-12-01 13:44:46 1512153886.377530: $GPRMC,184447,A,3946.9586,N,08404.9859,W,0.0000,0.000,011217,,*3E
2017-12-01 13:44:46 1512153886.377592: $GPGSA,A,3,8,10,14,15,18,20,21,24,27,32,138,,2.0,0.8,1.5*34
2017-12-01 13:44:47 1512153887.375624: $GPZDA,184448.00,01,12,2017,00,00*65
2017-12-01 13:44:47 1512153887.375802: $GPGGA,184448,3946.9586,N,08404.9859,W,2,11,0.80,299.32,M,-33.324,M,,*7A
2017-12-01 13:44:47 1512153887.375869: $GPRMC,184448,A,3946.9586,N,08404.9859,W,0.0000,0.000,011217,,*31
2017-12-01 13:44:47 1512153887.375930: $GPGSA,A,3,8,10,14,15,18,20,21,24,27,32,138,,2.0,0.8,1.5*34
