2017-12-01 11:28:11 1512145691.537442: {"class":"VERSION","release":"3.16","rev":"3.16-4","proto_major":3,"proto_minor":11}
2017-12-01 11:28:11 1512145691.537906: {"class":"DEVICES","devices":[{"class":"DEVICE","path":"/dev/ttyUSB0","driver":"SiRF","subtype":"9\u0006GSD4e_4.1.2-P1_RPATCH.05-F-GPS-4R-1510281 11/03/2015 307","activated":"2017-12-01T16:28:11.520Z","flags":1,"native":1,"bps":4800,"parity":"N","stopbits":1,"cycle":1.00}]}
2017-12-01 11:28:11 1512145691.538025: {"class":"WATCH","enable":true,"json":false,"nmea":true,"raw":0,"scaled":false,"timing":false,"split24":false,"pps":false}
2017-12-01 11:28:12 1512145692.707632: $GPGSV,3,1,12,05,19,072,36,10,08,267,27,13,49,055,45,15,79,105,48*76
2017-12-01 11:28:12 1512145692.707822: $GPGSV,3,2,12,18,39,279,44,20,67,037,44,21,60,309,46,24,14,153,35*7C
2017-12-01 11:28:12 1512145692.707888: $GPGSV,3,3,12,29,31,198,46,30,01,030,20,27,04,328,30,138,38,213,46*4A
2017-12-01 11:28:12 1512145692.821087: $GPZDA,162813.00,01,12,2017,00,00*6F
2017-12-01 11:28:12 1512145692.821264: $GPGGA,162813,3946.9571,N,08404.9830,W,2,12,1.20,294.91,M,-33.324,M,,*7B
2017-12-01 11:28:12 1512145692.821332: $GPRMC,162813,A,3946.9571,N,08404.9830,W,0.0000,0.000,011217,,*3C
2017-12-01 11:28:12 1512145692.821445: $GPGSA,A,3,5,10,13,15,18,20,21,24,29,30,27,138,2.0,1.2,1.5*3C
2017-12-01 11:28:13 1512145693.446549: $GPZDA,162814.00,01,12,2017,00,00*68
2017-12-01 11:28:13 1512145693.446721: $GPGGA,162814,3946.9571,N,08404.9830,W,2,12,1.20,294.91,M,-33.324,M,,*7C
2017-12-01 11:28:13 1512145693.446788: $GPRMC,162814,A,3946.9571,N,08404.9830,W,0.0000,0.000,011217,,*3B
2017-12-01 11:28:13 1512145693.446849: $GPGSA,A,3,5,10,13,15,18,20,21,24,29,30,27,138,2.0,1.2,1.5*3C
2017-12-01 11:28:14 1512145694.377421: $GPZDA,162815.00,01,12,2017,00,00*69
2017-12-01 11:28:14 1512145694.377590: $GPGGA,162815,3946.9571,N,08404.9830,W,2,12,1.20,294.91,M,-33.324,M,,*7D
2017-12-01 11:28:14 1512145694.377657: $GPRMC,162815,A,3946.9571,N,08404.9830,W,0.0000,0.000,011217,,*3A
2017-12-01 11:28:14 1512145694.377718: $GPGSA,A,3,5,10,13,15,18,20,21,24,29,30,27,138,2.0,1.2,1.5*3C
2017-12-01 11:28:15 1512145695.714380: $GPGSV,3,1,12,05,19,072,35,10,08,267,28,13,49,055,44,15,79,105,48*7B
2017-12-01 11:28:15 1512145695.714547: $GPGSV,3,2,12,18,39,279,44,20,67,037,44,21,60,309,46,24,14,153,35*7C
2017-12-01 11:28:15 1512145695.714614: $GPGSV,3,3,12,29,31,198,46,30,01,030,08,27,04,328,29,138,38,213,46*48
2017-12-01 11:28:15 1512145695.827827: $GPZDA,162816.00,01,12,2017,00,00*6A
2017-12-01 11:28:15 1512145695.828002: $GPGGA,162816,3946.9571,N,08404.9830,W,2,12,1.00,294.91,M,-33.324,M,,*7C
2017-12-01 11:28:15 1512145695.828070: $GPRMC,162816,A,3946.9571,N,08404.9830,W,0.0000,0.000,011217,,*39
2017-12-01 11:28:15 1512145695.828131: $GPGSA,A,3,5,10,13,15,18,20,21,24,29,30,27,138,2.0,1.0,1.5*3E
2017-12-01 11:28:16 1512145696.377401: $GPZDA,162817.00,01,12,2017,00,00*6B
2017-12-01 11:28:16 1512145696.377567: $GPGGA,162817,3946.9571,N,08404.9830,W,2,12,1.00,294.91,M,-33.324,M,,*7D
2017-12-01 11:28:16 1512145696.377657: $GPRMC,162817,A,3946.9571,N,08404.9830,W,0.0000,0.000,011217,,*38
2017-12-01 11:28:16 1512145696.377721: $GPGSA,A,3,5,10,13,15,18,20,21,24,29,30,27,138,2.0,1.0,1.5*3E
2017-12-01 11:28:17 1512145697.377036: $GPZDA,162818.00,01,12,2017,00,00*64
2017-12-01 11:28:17 1512145697.377207: $GPGGA,162818,3946.9571,N,08404.9830,W,2,12,1.00,294.91,M,-33.324,M,,*72
2017-12-01 11:28:17 1512145697.377272: $GPRMC,162818,A,3946.9571,N,08404.9830,W,0.0000,0.000,011217,,*37
2017-12-01 11:28:17 1512145697.377332: $GPGSA,A,3,5,10,13,15,18,20,21,24,29,30,27,138,2.0,1.0,1.5*3E
2017-12-01 11:28:18 1512145698.714693: $GPGSV,3,1,12,05,19,072,35,10,08,267,25,13,49,055,44,15,79,105,48*76
2017-12-01 11:28:18 1512145698.714906: $GPGSV,3,2,12,18,39,279,44,20,67,037,44,21,60,309,46,24,14,153,35*7C
2017-12-01 11:28:18 1512145698.714974: $GPGSV,3,3,12,29,31,198,46,30,01,030,10,27,04,328,29,138,38,213,46*41
2017-12-01 11:28:18 1512145698.828340: $GPZDA,162819.00,01,12,2017,00,00*65
2017-12-01 11:28:18 1512145698.828513: $GPGGA,162819,3946.9571,N,08404.9830,W,2,12,1.00,294.91,M,-33.324,M,,*73
2017-12-01 11:28:18 1512145698.828657: $GPRMC,162819,A,3946.9571,N,08404.9830,W,0.0000,0.000,011217,,*36
2017-12-01 11:28:18 1512145698.828722: $GPGSA,A,3,5,10,13,15,18,20,21,24,29,30,27,138,2.0,1.0,1.5*3E
2017-12-01 11:28:19 1512145699.380194: $GPZDA,162820.00,01,12,2017,00,00*6F
2017-12-01 11:28:19 1512145699.380370: $GPGGA,162820,3946.9578,N,08404.9835,W,2,12,1.00,291.90,M,-33.324,M,,*71
2017-12-01 11:28:19 1512145699.380438: $GPRMC,162820,A,3946.9578,N,08404.9835,W,0.0000,0.000,011217,,*30
2017-12-01 11:28:19 1512145699.380499: $GPGSA,A,3,5,10,13,15,18,20,21,24,29,30,27,138,2.0,1.0,1.5*3E
2017-12-01 11:28:20 1512145700.372480: $GPZDA,162821.00,01,12,2017,00,00*6E
2017-12-01 11:28:20 1512145700.372694: $GPGGA,162821,3946.9578,N,08404.9835,W,2,12,1.00,291.90,M,-33.324,M,,*70
2017-12-01 11:28:20 1512145700.372782: $GPRMC,162821,A,3946.9578,N,08404.9835,W,0.0000,0.000,011217,,*31
2017-12-01 11:28:20 1512145700.372845: $GPGSA,A,3,5,10,13,15,18,20,21,24,29,30,27,138,2.0,1.0,1.5*3E
