2017-11-16 17:13:02 1510870382.312594: {"class":"VERSION","release":"3.17","rev":"3.17","proto_major":3,"proto_minor":12}
2017-11-16 17:13:02 1510870382.313064: {"class":"DEVICES","devices":[{"class":"DEVICE","path":"/dev/ttyUSB0","driver":"SiRF","subtype":"9\u0006GSD4e_4.1.2-P1_RPATCH.05-F-GPS-4R-1510281 11/03/2015 307","activated":"2017-11-16T22:13:02.280Z","flags":1,"native":1,"bps":4800,"parity":"N","stopbits":1,"cycle":1.00}]}
2017-11-16 17:13:02 1510870382.313171: {"class":"WATCH","enable":true,"json":false,"nmea":true,"raw":0,"scaled":false,"timing":false,"split24":false,"pps":false}
2017-11-16 17:13:02 1510870382.393725: $GPZDA,221301.00,16,11,2017,00,00*66
2017-11-16 17:13:02 1510870382.393884: $GPGGA,221301,3946.9564,N,08404.9820,W,2,12,0.80,313.65,M,-33.324,M,,*7C
2017-11-16 17:13:02 1510870382.393944: $GPRMC,221301,A,3946.9564,N,08404.9820,W,0.0000,0.000,161117,,*30
2017-11-16 17:13:02 1510870382.394000: $GPGSA,A,3,1,10,24,12,14,18,22,11,25,31,32,138,1.6,0.8,1.3*38
2017-11-16 17:13:03 1510870383.734247: $GPGSV,3,1,12,01,19,309,42,10,57,142,48,24,04,046,00,12,24,058,49*70
2017-11-16 17:13:03 1510870383.734413: $GPGSV,3,2,12,14,62,310,47,18,26,141,46,22,12,312,38,11,10,289,36*7F
2017-11-16 17:13:03 1510870383.734472: $GPGSV,3,3,12,25,36,102,48,31,46,219,50,32,70,001,49,138,38,213,45*42
2017-11-16 17:13:03 1510870383.847807: $GPZDA,221302.00,16,11,2017,00,00*65
2017-11-16 17:13:03 1510870383.847966: $GPGGA,221302,3946.9564,N,08404.9820,W,2,11,0.80,313.65,M,-33.324,M,,*7C
2017-11-16 17:13:03 1510870383.848025: $GPRMC,221302,A,3946.9564,N,08404.9820,W,0.0000,0.000,161117,,*33
2017-11-16 17:13:03 1510870383.848081: $GPGSA,A,3,1,10,12,14,18,22,11,25,31,32,138,,1.6,0.8,1.3*3E
2017-11-16 17:13:04 1510870384.399726: $GPZDA,221303.00,16,11,2017,00,00*64
2017-11-16 17:13:04 1510870384.399895: $GPGGA,221303,3946.9564,N,08404.9820,W,2,11,0.80,313.65,M,-33.324,M,,*7D
2017-11-16 17:13:04 1510870384.399957: $GPRMC,221303,A,3946.9564,N,08404.9820,W,0.0000,0.000,161117,,*32
2017-11-16 17:13:04 1510870384.400013: $GPGSA,A,3,1,10,12,14,18,22,11,25,31,32,138,,1.6,0.8,1.3*3E
2017-11-16 17:13:05 1510870385.400710: $GPZDA,221304.00,16,11,2017,00,00*63
2017-11-16 17:13:05 1510870385.400867: $GPGGA,221304,3946.9564,N,08404.9820,W,2,11,0.80,313.65,M,-33.324,M,,*7A
2017-11-16 17:13:05 1510870385.400928: $GPRMC,221304,A,3946.9564,N,08404.9820,W,0.0000,0.000,161117,,*35
2017-11-16 17:13:05 1510870385.400984: $GPGSA,A,3,1,10,12,14,18,22,11,25,31,32,138,,1.6,0.8,1.3*3E
2017-11-16 17:13:06 1510870386.737042: $GPGSV,3,1,12,01,19,309,42,10,57,142,48,24,04,046,00,12,24,058,49*70
2017-11-16 17:13:06 1510870386.737210: $GPGSV,3,2,12,14,62,310,48,18,26,141,45,22,12,312,37,11,10,289,36*7C
2017-11-16 17:13:06 1510870386.737287: $GPGSV,3,3,12,25,36,102,48,31,46,219,50,32,70,001,49,138,38,213,45*42
2017-11-16 17:13:06 1510870386.850348: $GPZDA,221305.00,16,11,2017,00,00*62
2017-11-16 17:13:06 1510870386.850525: $GPGGA,221305,3946.9564,N,08404.9820,W,2,11,0.80,313.65,M,-33.324,M,,*7B
2017-11-16 17:13:06 1510870386.850602: $GPRMC,221305,A,3946.9564,N,08404.9820,W,0.0000,0.000,161117,,*34
2017-11-16 17:13:06 1510870386.850659: $GPGSA,A,3,1,10,12,14,18,22,11,25,31,32,138,,1.6,0.8,1.3*3E
2017-11-16 17:13:07 1510870387.399973: $GPZDA,221306.00,16,11,2017,00,00*61
2017-11-16 17:13:07 1510870387.400271: $GPGGA,221306,3946.9564,N,08404.9820,W,2,11,0.80,313.65,M,-33.324,M,,*78
2017-11-16 17:13:07 1510870387.400403: $GPRMC,221306,A,3946.9564,N,08404.9820,W,0.0000,0.000,161117,,*37
2017-11-16 17:13:07 1510870387.400522: $GPGSA,A,3,1,10,12,14,18,22,11,25,31,32,138,,1.6,0.8,1.3*3E
2017-11-16 17:13:08 1510870388.410874: $GPZDA,221307.00,16,11,2017,00,00*60
2017-11-16 17:13:08 1510870388.411060: $GPGGA,221307,3946.9568,N,08404.9819,W,2,11,0.80,312.89,M,-33.324,M,,*7C
2017-11-16 17:13:08 1510870388.411144: $GPRMC,221307,A,3946.9568,N,08404.9819,W,0.0000,0.000,161117,,*30
2017-11-16 17:13:08 1510870388.411202: $GPGSA,A,3,1,10,12,14,18,22,11,25,31,32,138,,1.6,0.8,1.3*3E
2017-11-16 17:13:09 1510870389.735463: $GPGSV,3,1,12,01,19,309,42,10,57,142,48,24,04,046,00,12,24,058,49*70
2017-11-16 17:13:09 1510870389.735679: $GPGSV,3,2,12,14,62,310,47,18,26,141,45,22,12,312,36,11,10,289,36*72
2017-11-16 17:13:09 1510870389.735740: $GPGSV,3,3,12,25,36,102,48,31,46,219,49,32,70,001,49,138,38,213,44*4B
2017-11-16 17:13:09 1510870389.848735: $GPZDA,221308.00,16,11,2017,00,00*6F
2017-11-16 17:13:09 1510870389.848898: $GPGGA,221308,3946.9568,N,08404.9819,W,2,11,0.80,312.89,M,-33.324,M,,*73
2017-11-16 17:13:09 1510870389.848959: $GPRMC,221308,A,3946.9568,N,08404.9819,W,0.0000,0.000,161117,,*3F
2017-11-16 17:13:09 1510870389.849015: $GPGSA,A,3,1,10,12,14,18,22,11,25,31,32,138,,1.6,0.8,1.3*3E
2017-11-16 17:13:10 1510870390.399684: $GPZDA,221309.00,16,11,2017,00,00*6E
2017-11-16 17:13:10 1510870390.399866: $GPGGA,221309,3946.9568,N,08404.9819,W,2,11,0.80,312.89,M,-33.324,M,,*72
2017-11-16 17:13:10 1510870390.399929: $GPRMC,221309,A,3946.9568,N,08404.9819,W,0.0000,0.000,161117,,*3E
2017-11-16 17:13:10 1510870390.399984: $GPGSA,A,3,1,10,12,14,18,22,11,25,31,32,138,,1.6,0.8,1.3*3E
2017-11-16 17:13:11 1510870391.414943: $GPZDA,221310.00,16,11,2017,00,00*66
2017-11-16 17:13:11 1510870391.415147: $GPGGA,221310,3946.9568,N,08404.9819,W,2,11,0.80,312.89,M,-33.324,M,,*7A
2017-11-16 17:13:11 1510870391.415211: $GPRMC,221310,A,3946.9568,N,08404.9819,W,0.0000,0.000,161117,,*36
2017-11-16 17:13:11 1510870391.415267: $GPGSA,A,3,1,10,12,14,18,22,11,25,31,32,138,,1.6,0.8,1.3*3E
