2017-12-14 12:32:09 1513272729.076770: {"class":"VERSION","release":"3.16","rev":"3.16-4","proto_major":3,"proto_minor":11}
2017-12-14 12:32:09 1513272729.077115: {"class":"DEVICES","devices":[{"class":"DEVICE","path":"/dev/ttyUSB0","driver":"SiRF","subtype":"9\u0006GSD4e_4.1.2-P1_RPATCH.05-F-GPS-4R-1510281 11/03/2015 307","activated":"2017-12-14T17:32:08.356Z","flags":1,"native":1,"bps":4800,"parity":"N","stopbits":1,"cycle":1.00}]}
2017-12-14 12:32:09 1513272729.077256: {"class":"WATCH","enable":true,"json":false,"nmea":true,"raw":0,"scaled":false,"timing":false,"split24":false,"pps":false}
2017-12-14 12:32:09 1513272729.645933: $GPRMC,173210,V,18000.0000,N,00000.0000,W,0.0000,0.000,141217,,*17
2017-12-14 12:32:09 1513272729.646071: $GPGSA,A,1,15,20,24,27,32,,,,,,,,,,,*36
2017-12-14 12:32:10 1513272730.613637: $GPRMC,173211,V,3946.9577,N,08404.9405,W,0.0000,0.000,141217,,*2B
2017-12-14 12:32:10 1513272730.613810: $GPGSA,A,1,15,20,24,27,32,,,,,,,,,,,*36
2017-12-14 12:32:11 1513272731.504617: $GPGSV,3,1,11,15,32,054,18,18,75,355,15,20,29,100,19,27,18,283,14*7A
2017-12-14 12:32:11 1513272731.504801: $GPGSV,3,2,11,32,26,243,02,24,53,099,00,10,47,306,00,14,09,235,00*75
2017-12-14 12:32:11 1513272731.504888: $GPGSV,3,3,11,08,07,316,00,21,56,184,00,13,02,051,00*4B
2017-12-14 12:32:11 1513272731.616975: $GPRMC,173212,V,3946.9623,N,08404.9414,W,1.2813,7.866,141217,,*2C
2017-12-14 12:32:11 1513272731.617140: $GPGSA,A,1,15,18,20,27,32,,,,,,,,,,,*39
2017-12-14 12:32:12 1513272732.170939: $GPZDA,173212.33,14,12,2017,00,00*60
2017-12-14 12:32:12 1513272732.171105: $GPGGA,173212,3946.9674,N,08404.9424,W,1,05,1.40,340.81,M,-33.324,M,,*75
2017-12-14 12:32:12 1513272732.171190: $GPRMC,173212,A,3946.9674,N,08404.9424,W,1.3393,5.366,141217,,*31
2017-12-14 12:32:12 1513272732.171253: $GPGSA,A,3,15,18,20,27,32,,,,,,,,6.6,1.4,6.2*38
2017-12-14 12:32:12 1513272732.171326: $GPGBS,173212,24.66,M,21.80,M,143.40,M*35
2017-12-14 12:32:12 1513272732.425053: $GPZDA,173212.84,14,12,2017,00,00*6C
2017-12-14 12:32:12 1513272732.425403: $GPGGA,173212,3946.9686,N,08404.9424,W,1,05,1.40,341.33,M,-33.324,M,,*70
2017-12-14 12:32:12 1513272732.425537: $GPRMC,173212,A,3946.9686,N,08404.9424,W,1.5909,329.124,141217,,*3A
2017-12-14 12:32:12 1513272732.425615: $GPGSA,A,3,15,18,20,27,32,,,,,,,,6.6,1.4,6.2*38
2017-12-14 12:32:12 1513272732.425672: $GPGBS,173212,24.66,M,21.80,M,143.40,M*35
2017-12-14 12:32:13 1513272733.189013: $GPGSV,3,1,12,15,32,054,19,18,75,355,15,20,29,100,17,27,18,283,17*75
2017-12-14 12:32:13 1513272733.189206: $GPGSV,3,2,12,32,26,243,16,24,53,099,18,10,47,306,00,14,09,235,00*7A
2017-12-14 12:32:13 1513272733.189273: $GPGSV,3,3,12,08,07,316,00,21,56,184,00,13,02,051,00,138,38,213,00*49
2017-12-14 12:32:13 1513272733.302797: $GPZDA,173213.00,14,12,2017,00,00*61
2017-12-14 12:32:13 1513272733.302951: $GPGGA,173213,3946.9691,N,08404.9431,W,1,06,1.40,343.29,M,-33.324,M,,*79
2017-12-14 12:32:13 1513272733.303016: $GPRMC,173213,A,3946.9691,N,08404.9431,W,2.2624,316.179,141217,,*39
2017-12-14 12:32:13 1513272733.303076: $GPGSA,A,3,15,18,20,27,32,24,,,,,,,6.6,1.4,6.2*3E
2017-12-14 12:32:13 1513272733.556566: $GPZDA,173214.00,14,12,2017,00,00*66
2017-12-14 12:32:13 1513272733.556728: $GPGGA,173214,3946.9691,N,08404.9438,W,1,06,1.20,341.81,M,-33.324,M,,*71
2017-12-14 12:32:13 1513272733.556794: $GPRMC,173214,A,3946.9691,N,08404.9438,W,1.8166,313.171,141217,,*32
2017-12-14 12:32:13 1513272733.556854: $GPGSA,A,3,15,18,20,27,32,24,,,,,,,6.6,1.2,6.2*38
2017-12-14 12:32:14 1513272734.179149: $GPZDA,173215.00,14,12,2017,00,00*67
2017-12-14 12:32:14 1513272734.179349: $GPGGA,173215,3946.9686,N,08404.9438,W,1,06,1.20,341.17,M,-33.324,M,,*79
2017-12-14 12:32:14 1513272734.179415: $GPRMC,173215,A,3946.9686,N,08404.9438,W,1.2275,315.096,141217,,*30
2017-12-14 12:32:14 1513272734.179476: $GPGSA,A,3,15,18,20,27,32,24,,,,,,,6.6,1.2,6.2*38
2017-12-14 12:32:15 1513272735.511258: $GPGSV,3,1,12,15,32,054,20,18,75,355,13,20,29,100,17,27,18,283,16*78
2017-12-14 12:32:15 1513272735.511465: $GPGSV,3,2,12,32,26,243,18,24,53,099,18,10,47,306,16,21,56,184,16*71
2017-12-14 12:32:15 1513272735.511583: $GPGSV,3,3,12,14,09,235,00,08,07,316,00,13,02,051,00,138,38,213,00*4C
2017-12-14 12:32:15 1513272735.624902: $GPZDA,173216.00,14,12,2017,00,00*64
2017-12-14 12:32:15 1513272735.625085: $GPGGA,173216,3946.9686,N,08404.9438,W,1,08,1.20,341.17,M,-33.324,M,,*74
2017-12-14 12:32:15 1513272735.625169: $GPRMC,173216,A,3946.9686,N,08404.9438,W,1.4582,308.995,141217,,*3C
2017-12-14 12:32:15 1513272735.625232: $GPGSA,A,3,15,18,20,27,32,24,10,21,,,,,6.6,1.2,6.2*3A
2017-12-14 12:32:16 1513272736.176277: $GPZDA,173217.00,14,12,2017,00,00*65
2017-12-14 12:32:16 1513272736.176469: $GPGGA,173217,3946.9678,N,08404.9438,W,1,08,1.20,339.89,M,-33.324,M,,*7C
2017-12-14 12:32:16 1513272736.176553: $GPRMC,173217,A,3946.9678,N,08404.9438,W,1.4907,287.069,141217,,*31
2017-12-14 12:32:16 1513272736.176615: $GPGSA,A,3,15,18,20,27,32,24,10,21,,,,,6.6,1.2,6.2*3A
2017-12-14 12:32:17 1513272737.174429: $GPZDA,173218.00,14,12,2017,00,00*6A
2017-12-14 12:32:17 1513272737.174606: $GPGGA,173218,3946.9670,N,08404.9438,W,1,08,1.20,338.61,M,-33.324,M,,*7C
2017-12-14 12:32:17 1513272737.174672: $GPRMC,173218,A,3946.9670,N,08404.9438,W,1.4470,279.982,141217,,*36
2017-12-14 12:32:17 1513272737.174733: $GPGSA,A,3,15,18,20,27,32,24,10,21,,,,,6.6,1.2,6.2*3A
2017-12-14 12:32:18 1513272738.510596: $GPGSV,3,1,12,15,32,054,20,18,75,355,12,20,29,100,17,27,18,283,16*79
2017-12-14 12:32:18 1513272738.510738: $GPGSV,3,2,12,32,26,243,19,24,53,099,19,10,47,306,15,21,56,184,20*77
2017-12-14 12:32:18 1513272738.510803: $GPGSV,3,3,12,14,09,235,00,08,07,316,00,13,02,051,00,138,38,213,00*4C
2017-12-14 12:32:18 1513272738.623943: $GPZDA,173219.00,14,12,2017,00,00*6B
2017-12-14 12:32:18 1513272738.624076: $GPGGA,173219,3946.9666,N,08404.9438,W,1,08,1.20,337.97,M,-33.324,M,,*7C
2017-12-14 12:32:18 1513272738.624160: $GPRMC,173219,A,3946.9666,N,08404.9438,W,1.2937,296.447,141217,,*3D
2017-12-14 12:32:18 1513272738.624222: $GPGSA,A,3,15,18,20,27,32,24,10,21,,,,,6.6,1.2,6.2*3A
2017-12-14 12:32:19 1513272739.176625: $GPZDA,173220.00,14,12,2017,00,00*61
2017-12-14 12:32:19 1513272739.176814: $GPGGA,173220,3946.9665,N,08404.9437,W,1,08,1.20,336.57,M,-33.324,M,,*77
2017-12-14 12:32:19 1513272739.176880: $GPRMC,173220,A,3946.9665,N,08404.9437,W,1.2571,295.646,141217,,*35
2017-12-14 12:32:19 1513272739.176940: $GPGSA,A,3,15,18,20,27,32,24,10,21,,,,,6.6,1.2,6.2*3A
2017-12-14 12:32:20 1513272740.174555: $GPZDA,173221.00,14,12,2017,00,00*60
2017-12-14 12:32:20 1513272740.174720: $GPGGA,173221,3946.9658,N,08404.9438,W,1,08,1.20,338.10,M,-33.324,M,,*7A
2017-12-14 12:32:20 1513272740.174787: $GPRMC,173221,A,3946.9658,N,08404.9438,W,1.3870,303.370,141217,,*36
2017-12-14 12:32:20 1513272740.174847: $GPGSA,A,3,15,18,20,27,32,24,10,21,,,,,6.6,1.2,6.2*3A
2017-12-14 12:32:21 1513272741.506706: $GPGSV,3,1,12,15,32,054,20,18,75,355,04,20,29,100,16,27,18,283,16*7F
2017-12-14 12:32:21 1513272741.506883: $GPGSV,3,2,12,32,26,243,19,24,53,099,19,10,47,306,16,21,56,184,10*77
2017-12-14 12:32:21 1513272741.506949: $GPGSV,3,3,12,14,09,235,00,08,07,316,00,13,02,051,00,138,38,213,00*4C
2017-12-14 12:32:21 1513272741.620395: $GPZDA,173222.00,14,12,2017,00,00*63
2017-12-14 12:32:21 1513272741.620549: $GPGGA,173222,3946.9658,N,08404.9438,W,1,06,1.40,338.10,M,-33.324,M,,*71
2017-12-14 12:32:21 1513272741.620614: $GPRMC,173222,A,3946.9658,N,08404.9438,W,0.9948,317.276,141217,,*36
2017-12-14 12:32:21 1513272741.620675: $GPGSA,A,3,15,20,27,32,24,10,,,,,,,6.6,1.4,6.2*36
2017-12-14 12:32:22 1513272742.172320: $GPZDA,173223.00,14,12,2017,00,00*62
2017-12-14 12:32:22 1513272742.175494: $GPGGA,173223,3946.9650,N,08404.9432,W,1,06,1.40,338.30,M,-33.324,M,,*70
2017-12-14 12:32:22 1513272742.175713: $GPRMC,173223,A,3946.9650,N,08404.9432,W,0.6846,4.197,141217,,*38
2017-12-14 12:32:22 1513272742.175837: $GPGSA,A,3,15,20,27,32,24,10,,,,,,,6.6,1.4,6.2*36
2017-12-14 12:32:23 1513272743.171079: $GPZDA,173224.00,14,12,2017,00,00*65
2017-12-14 12:32:23 1513272743.171282: $GPGGA,173224,3946.9647,N,08404.9434,W,1,06,1.40,340.47,M,-33.324,M,,*78
2017-12-14 12:32:23 1513272743.171401: $GPRMC,173224,A,3946.9647,N,08404.9434,W,0.2959,54.768,141217,,*07
2017-12-14 12:32:23 1513272743.171465: $GPGSA,A,3,15,20,27,32,24,10,,,,,,,6.6,1.4,6.2*36
2017-12-14 12:32:24 1513272744.507332: $GPGSV,3,1,12,15,32,054,20,18,75,355,04,20,29,100,16,27,18,283,15*7C
2017-12-14 12:32:24 1513272744.507510: $GPGSV,3,2,12,32,26,243,19,24,53,099,18,10,47,306,16,14,09,235,00*72
2017-12-14 12:32:24 1513272744.507575: $GPGSV,3,3,12,08,07,316,00,21,56,184,00,13,02,051,00,138,38,213,00*49
2017-12-14 12:32:24 1513272744.619724: $GPZDA,173225.00,14,12,2017,00,00*64
2017-12-14 12:32:24 1513272744.619886: $GPGGA,173225,3946.9639,N,08404.9427,W,1,06,1.40,340.67,M,-33.324,M,,*70
2017-12-14 12:32:24 1513272744.619950: $GPRMC,173225,A,3946.9639,N,08404.9427,W,0.4844,93.795,141217,,*0F
2017-12-14 12:32:24 1513272744.620010: $GPGSA,A,3,15,20,27,32,24,10,,,,,,,6.6,1.4,6.2*36
2017-12-14 12:32:25 1513272745.172361: $GPZDA,173226.00,14,12,2017,00,00*67
2017-12-14 12:32:25 1513272745.172529: $GPGGA,173226,3946.9632,N,08404.9421,W,1,06,1.40,340.88,M,-33.324,M,,*7F
2017-12-14 12:32:25 1513272745.172595: $GPRMC,173226,A,3946.9632,N,08404.9421,W,1.1124,122.165,141217,,*38
2017-12-14 12:32:25 1513272745.172656: $GPGSA,A,3,15,20,27,32,24,10,,,,,,,6.6,1.4,6.2*36
2017-12-14 12:32:26 1513272746.171209: $GPZDA,173227.00,14,12,2017,00,00*66
2017-12-14 12:32:26 1513272746.171394: $GPGGA,173227,3946.9624,N,08404.9422,W,1,06,1.40,341.00,M,-33.324,M,,*7B
2017-12-14 12:32:26 1513272746.171460: $GPRMC,173227,A,3946.9624,N,08404.9422,W,1.0354,137.462,141217,,*3F
2017-12-14 12:32:26 1513272746.171520: $GPGSA,A,3,15,20,27,32,24,10,,,,,,,6.6,1.4,6.2*36
2017-12-14 12:32:27 1513272747.507788: $GPGSV,3,1,12,15,32,054,20,18,75,355,04,20,29,100,15,27,18,283,15*7F
2017-12-14 12:32:27 1513272747.507977: $GPGSV,3,2,12,32,26,243,18,24,53,099,18,10,47,306,16,14,09,235,00*73
2017-12-14 12:32:27 1513272747.508043: $GPGSV,3,3,12,08,07,316,00,21,56,184,00,13,02,051,00,138,38,213,00*49
2017-12-14 12:32:27 1513272747.621413: $GPZDA,173228.00,14,12,2017,00,00*69
2017-12-14 12:32:27 1513272747.621546: $GPGGA,173228,3946.9619,N,08404.9415,W,1,06,1.40,340.44,M,-33.324,M,,*7F
2017-12-14 12:32:27 1513272747.621610: $GPRMC,173228,A,3946.9619,N,08404.9415,W,1.0354,137.462,141217,,*3A
2017-12-14 12:32:27 1513272747.621671: $GPGSA,A,3,15,20,27,32,24,10,,,,,,,6.6,1.4,6.2*36
2017-12-14 12:32:28 1513272748.173029: $GPZDA,173229.00,14,12,2017,00,00*68
2017-12-14 12:32:28 1513272748.173273: $GPGGA,173229,3946.9613,N,08404.9416,W,1,06,1.40,341.97,M,-33.324,M,,*78
2017-12-14 12:32:28 1513272748.173343: $GPRMC,173229,A,3946.9613,N,08404.9416,W,1.3084,135.525,141217,,*3F
2017-12-14 12:32:28 1513272748.173404: $GPGSA,A,3,15,20,27,32,24,10,,,,,,,6.6,1.4,6.2*36
