2017-12-01 17:03:48 1512165828.783864: {"class":"VERSION","release":"3.16","rev":"3.16-4","proto_major":3,"proto_minor":11}
2017-12-01 17:03:48 1512165828.784293: {"class":"DEVICES","devices":[{"class":"DEVICE","path":"/dev/ttyUSB0","driver":"SiRF","subtype":"9\u0006GSD4e_4.1.2-P1_RPATCH.05-F-GPS-4R-1510281 11/03/2015 307","activated":"2017-12-01T22:03:48.551Z","flags":1,"native":1,"bps":4800,"parity":"N","stopbits":1,"cycle":1.00}]}
2017-12-01 17:03:48 1512165828.784414: {"class":"WATCH","enable":true,"json":false,"nmea":true,"raw":0,"scaled":false,"timing":false,"split24":false,"pps":false}
2017-12-01 17:03:49 1512165829.428121: $GPZDA,220350.00,01,12,2017,00,00*66
2017-12-01 17:03:49 1512165829.428297: $GPGGA,220350,3946.9643,N,08404.9737,W,2,12,0.80,302.48,M,-33.324,M,,*79
2017-12-01 17:03:49 1512165829.428366: $GPRMC,220350,A,3946.9643,N,08404.9737,W,0.0000,0.000,011217,,*3F
2017-12-01 17:03:49 1512165829.428428: $GPGSA,A,3,1,3,10,18,14,22,26,31,32,25,12,138,2.0,0.8,1.5*0A
2017-12-01 17:03:50 1512165830.765146: $GPGSV,3,1,12,01,21,285,43,03,12,316,43,10,32,154,37,18,04,147,19*72
2017-12-01 17:03:50 1512165830.768736: $GPGSV,3,2,12,14,70,007,46,22,31,309,47,26,16,180,37,31,71,246,49*70
2017-12-01 17:03:50 1512165830.768845: $GPGSV,3,3,12,32,61,063,47,25,40,069,27,12,14,037,23,138,38,213,36*44
2017-12-01 17:03:50 1512165830.878540: $GPZDA,220351.00,01,12,2017,00,00*67
2017-12-01 17:03:50 1512165830.878710: $GPGGA,220351,3946.9643,N,08404.9737,W,2,12,0.80,302.48,M,-33.324,M,,*78
2017-12-01 17:03:50 1512165830.878777: $GPRMC,220351,A,3946.9643,N,08404.9737,W,0.0000,0.000,011217,,*3E
2017-12-01 17:03:50 1512165830.878838: $GPGSA,A,3,1,3,10,18,14,22,26,31,32,25,12,138,2.0,0.8,1.5*0A
2017-12-01 17:03:51 1512165831.862656: $GPZDA,220352.00,01,12,2017,00,00*64
2017-12-01 17:03:51 1512165831.862827: $GPGGA,220352,3946.9643,N,08404.9737,W,2,12,0.80,302.48,M,-33.324,M,,*7B
2017-12-01 17:03:51 1512165831.862893: $GPRMC,220352,A,3946.9643,N,08404.9737,W,0.0000,0.000,011217,,*3D
2017-12-01 17:03:51 1512165831.862953: $GPGSA,A,3,1,3,10,18,14,22,26,31,32,25,12,138,2.0,0.8,1.5*0A
2017-12-01 17:03:51 1512165831.863012: $GPGBS,220352,2.67,M,3.86,M,8.82,M*36
2017-12-01 17:03:52 1512165832.484911: $GPZDA,220353.00,01,12,2017,00,00*65
2017-12-01 17:03:52 1512165832.485081: $GPGGA,220353,3946.9647,N,08404.9737,W,2,12,0.80,303.12,M,-33.324,M,,*70
2017-12-01 17:03:52 1512165832.485147: $GPRMC,220353,A,3946.9647,N,08404.9737,W,0.0000,0.000,011217,,*38
2017-12-01 17:03:52 1512165832.485230: $GPGSA,A,3,1,3,10,18,14,22,26,31,32,25,12,138,2.0,0.8,1.5*0A
2017-12-01 17:03:53 1512165833.748130: $GPGSV,3,1,12,01,21,285,43,03,12,316,43,10,32,154,37,18,04,147,19*72
2017-12-01 17:03:53 1512165833.748344: $GPGSV,3,2,12,14,70,009,46,22,31,309,47,26,16,180,36,31,71,246,49*7F
2017-12-01 17:03:53 1512165833.748412: $GPGSV,3,3,12,32,61,063,47,25,40,069,28,12,14,037,23,138,38,213,39*44
2017-12-01 17:03:53 1512165833.861675: $GPZDA,220354.00,01,12,2017,00,00*62
2017-12-01 17:03:53 1512165833.861861: $GPGGA,220354,3946.9647,N,08404.9737,W,2,12,0.80,303.12,M,-33.324,M,,*77
2017-12-01 17:03:53 1512165833.861929: $GPRMC,220354,A,3946.9647,N,08404.9737,W,0.0000,0.000,011217,,*3F
2017-12-01 17:03:53 1512165833.861990: $GPGSA,A,3,1,3,10,18,14,22,26,31,32,25,12,138,2.0,0.8,1.5*0A
2017-12-01 17:03:54 1512165834.413685: $GPZDA,220355.00,01,12,2017,00,00*63
2017-12-01 17:03:54 1512165834.413870: $GPGGA,220355,3946.9647,N,08404.9737,W,2,12,0.80,303.12,M,-33.324,M,,*76
2017-12-01 17:03:54 1512165834.413939: $GPRMC,220355,A,3946.9647,N,08404.9737,W,0.0000,0.000,011217,,*3E
2017-12-01 17:03:54 1512165834.414000: $GPGSA,A,3,1,3,10,18,14,22,26,31,32,25,12,138,2.0,0.8,1.5*0A
2017-12-01 17:03:55 1512165835.769031: $GPZDA,220356.00,01,12,2017,00,00*60
2017-12-01 17:03:55 1512165835.769217: $GPGGA,220356,3946.9647,N,08404.9737,W,2,12,0.80,303.12,M,-33.324,M,,*75
2017-12-01 17:03:55 1512165835.769306: $GPRMC,220356,A,3946.9647,N,08404.9737,W,0.0000,0.000,011217,,*3D
2017-12-01 17:03:55 1512165835.769370: $GPGSA,A,3,1,3,10,18,14,22,26,31,32,25,12,138,2.0,0.8,1.5*0A
2017-12-01 17:03:55 1512165835.769470: $GPGBS,220356,2.67,M,3.86,M,8.82,M*32
2017-12-01 17:03:56 1512165836.902408: $GPGSV,3,1,12,01,21,285,43,03,12,316,43,10,32,154,36,18,04,147,19*73
2017-12-01 17:03:56 1512165836.902585: $GPGSV,3,2,12,14,70,009,46,22,31,309,47,26,16,180,36,31,71,246,49*7F
2017-12-01 17:03:56 1512165836.902652: $GPGSV,3,3,12,32,61,063,47,25,40,069,28,12,14,037,23,138,38,213,39*44
2017-12-01 17:03:57 1512165837.015950: $GPZDA,220357.00,01,12,2017,00,00*61
2017-12-01 17:03:57 1512165837.016200: $GPGGA,220357,3946.9647,N,08404.9737,W,2,12,0.80,303.12,M,-33.324,M,,*74
2017-12-01 17:03:57 1512165837.016307: $GPRMC,220357,A,3946.9647,N,08404.9737,W,0.0000,0.000,011217,,*3C
2017-12-01 17:03:57 1512165837.016371: $GPGSA,A,3,1,3,10,18,14,22,26,31,32,25,12,138,2.0,0.8,1.5*0A
2017-12-01 17:03:57 1512165837.468268: $GPZDA,220358.00,01,12,2017,00,00*6E
2017-12-01 17:03:57 1512165837.468459: $GPGGA,220358,3946.9647,N,08404.9737,W,2,12,0.80,303.12,M,-33.324,M,,*7B
2017-12-01 17:03:57 1512165837.468527: $GPRMC,220358,A,3946.9647,N,08404.9737,W,0.0000,0.000,011217,,*33
2017-12-01 17:03:57 1512165837.468588: $GPGSA,A,3,1,3,10,18,14,22,26,31,32,25,12,138,2.0,0.8,1.5*0A
2017-12-01 17:03:58 1512165838.413787: $GPZDA,220359.00,01,12,2017,00,00*6F
2017-12-01 17:03:58 1512165838.413964: $GPGGA,220359,3946.9647,N,08404.9737,W,2,12,0.80,303.12,M,-33.324,M,,*7A
2017-12-01 17:03:58 1512165838.414032: $GPRMC,220359,A,3946.9647,N,08404.9737,W,0.0000,0.000,011217,,*32
2017-12-01 17:03:58 1512165838.414094: $GPGSA,A,3,1,3,10,18,14,22,26,31,32,25,12,138,2.0,0.8,1.5*0A
2017-12-01 17:03:59 1512165839.748235: $GPGSV,3,1,12,01,21,285,43,03,12,316,43,10,32,154,30,18,04,147,18*74
2017-12-01 17:03:59 1512165839.748403: $GPGSV,3,2,12,14,70,009,46,22,31,309,47,26,16,180,35,31,71,246,48*7D
2017-12-01 17:03:59 1512165839.748469: $GPGSV,3,3,12,32,61,063,47,25,40,069,28,12,14,037,22,138,38,213,39*45
2017-12-01 17:03:59 1512165839.861621: $GPZDA,220400.00,01,12,2017,00,00*64
2017-12-01 17:03:59 1512165839.861794: $GPGGA,220400,3946.9647,N,08404.9737,W,2,12,0.80,303.12,M,-33.324,M,,*71
2017-12-01 17:03:59 1512165839.861859: $GPRMC,220400,A,3946.9647,N,08404.9737,W,0.0000,0.000,011217,,*39
2017-12-01 17:03:59 1512165839.861921: $GPGSA,A,3,1,3,10,18,14,22,26,31,32,25,12,138,2.0,0.8,1.5*0A
2017-12-01 17:04:00 1512165840.412529: $GPZDA,220401.00,01,12,2017,00,00*65
2017-12-01 17:04:00 1512165840.412701: $GPGGA,220401,3946.9647,N,08404.9737,W,2,12,0.80,303.12,M,-33.324,M,,*70
2017-12-01 17:04:00 1512165840.412768: $GPRMC,220401,A,3946.9647,N,08404.9737,W,0.0000,0.000,011217,,*38
2017-12-01 17:04:00 1512165840.412829: $GPGSA,A,3,1,3,10,18,14,22,26,31,32,25,12,138,2.0,0.8,1.5*0A
2017-12-01 17:04:01 1512165841.414110: $GPZDA,220402.00,01,12,2017,00,00*66
2017-12-01 17:04:01 1512165841.414329: $GPGGA,220402,3946.9647,N,08404.9737,W,2,12,0.80,303.12,M,-33.324,M,,*73
2017-12-01 17:04:01 1512165841.414396: $GPRMC,220402,A,3946.9647,N,08404.9737,W,0.0000,0.000,011217,,*3B
2017-12-01 17:04:01 1512165841.414458: $GPGSA,A,3,1,3,10,18,14,22,26,31,32,25,12,138,2.0,0.8,1.5*0A
2017-12-01 17:04:02 1512165842.748600: $GPGSV,3,1,12,01,21,285,42,03,12,316,43,10,32,154,33,18,04,147,18*76
2017-12-01 17:04:02 1512165842.748780: $GPGSV,3,2,12,14,70,009,46,22,31,309,47,26,16,180,36,31,71,246,48*7E
2017-12-01 17:04:02 1512165842.748847: $GPGSV,3,3,12,32,61,063,46,25,40,069,28,12,14,037,18,138,38,213,38*4C
2017-12-01 17:04:02 1512165842.861976: $GPZDA,220403.00,01,12,2017,00,00*67
2017-12-01 17:04:02 1512165842.862150: $GPGGA,220403,3946.9647,N,08404.9737,W,2,12,0.80,303.12,M,-33.324,M,,*72
2017-12-01 17:04:02 1512165842.862218: $GPRMC,220403,A,3946.9647,N,08404.9737,W,0.0000,0.000,011217,,*3A
2017-12-01 17:04:02 1512165842.862303: $GPGSA,A,3,1,3,10,18,14,22,26,31,32,25,12,138,2.0,0.8,1.5*0A
2017-12-01 17:04:03 1512165843.413147: $GPZDA,220404.00,01,12,2017,00,00*60
2017-12-01 17:04:03 1512165843.413335: $GPGGA,220404,3946.9647,N,08404.9737,W,2,12,0.80,303.12,M,-33.324,M,,*75
2017-12-01 17:04:03 1512165843.413405: $GPRMC,220404,A,3946.9647,N,08404.9737,W,0.0000,0.000,011217,,*3D
2017-12-01 17:04:03 1512165843.413514: $GPGSA,A,3,1,3,10,18,14,22,26,31,32,25,12,138,2.0,0.8,1.5*0A
2017-12-01 17:04:04 1512165844.412567: $GPZDA,220405.00,01,12,2017,00,00*61
2017-12-01 17:04:04 1512165844.412727: $GPGGA,220405,3946.9647,N,08404.9737,W,2,12,0.80,303.12,M,-33.324,M,,*74
2017-12-01 17:04:04 1512165844.412793: $GPRMC,220405,A,3946.9647,N,08404.9737,W,0.0000,0.000,011217,,*3C
2017-12-01 17:04:04 1512165844.412854: $GPGSA,A,3,1,3,10,18,14,22,26,31,32,25,12,138,2.0,0.8,1.5*0A
2017-12-01 17:04:05 1512165845.749452: $GPGSV,3,1,12,01,21,285,43,03,12,316,43,10,32,154,34,18,04,147,17*7F
2017-12-01 17:04:05 1512165845.749611: $GPGSV,3,2,12,14,70,009,45,22,31,309,47,26,16,180,35,31,71,246,49*7F
2017-12-01 17:04:05 1512165845.749677: $GPGSV,3,3,12,32,61,063,47,25,40,069,28,12,14,037,19,138,38,213,40*43
2017-12-01 17:04:05 1512165845.862843: $GPZDA,220406.00,01,12,2017,00,00*62
2017-12-01 17:04:05 1512165845.863035: $GPGGA,220406,3946.9647,N,08404.9737,W,2,12,0.80,303.12,M,-33.324,M,,*77
2017-12-01 17:04:05 1512165845.863120: $GPRMC,220406,A,3946.9647,N,08404.9737,W,0.0000,0.000,011217,,*3F
2017-12-01 17:04:05 1512165845.863183: $GPGSA,A,3,1,3,10,18,14,22,26,31,32,25,12,138,2.0,0.8,1.5*0A
2017-12-01 17:04:06 1512165846.488194: $GPZDA,220407.00,01,12,2017,00,00*63
2017-12-01 17:04:06 1512165846.490919: $GPGGA,220407,3946.9647,N,08404.9737,W,2,12,0.80,303.12,M,-33.324,M,,*76
2017-12-01 17:04:06 1512165846.491030: $GPRMC,220407,A,3946.9647,N,08404.9737,W,0.0000,0.000,011217,,*3E
2017-12-01 17:04:06 1512165846.491098: $GPGSA,A,3,1,3,10,18,14,22,26,31,32,25,12,138,2.0,0.8,1.5*0A
2017-12-01 17:04:07 1512165847.412985: $GPZDA,220408.00,01,12,2017,00,00*6C
2017-12-01 17:04:07 1512165847.413180: $GPGGA,220408,3946.9647,N,08404.9737,W,2,12,0.80,303.12,M,-33.324,M,,*79
2017-12-01 17:04:07 1512165847.413248: $GPRMC,220408,A,3946.9647,N,08404.9737,W,0.0000,0.000,011217,,*31
2017-12-01 17:04:07 1512165847.413309: $GPGSA,A,3,1,3,10,18,14,22,26,31,32,25,12,138,2.0,0.8,1.5*0A
2017-12-01 17:04:08 1512165848.748571: $GPGSV,3,1,12,01,21,285,42,03,12,316,42,10,32,154,34,18,04,147,16*7E
2017-12-01 17:04:08 1512165848.748746: $GPGSV,3,2,12,14,70,009,46,22,31,309,48,26,16,180,36,31,71,246,48*71
2017-12-01 17:04:08 1512165848.748811: $GPGSV,3,3,12,32,61,063,47,25,40,069,28,12,14,037,19,138,38,213,40*43
