2017-12-31 18:44:59 1514763899.989356: {"class":"VERSION","release":"3.16","rev":"3.16-4","proto_major":3,"proto_minor":11}
2017-12-31 18:44:59 1514763899.989687: {"class":"DEVICES","devices":[{"class":"DEVICE","path":"/dev/ttyUSB0","driver":"SiRF","activated":"2017-12-31T23:44:59.707Z","flags":1,"native":1,"bps":4800,"parity":"N","stopbits":1,"cycle":1.00}]}
2017-12-31 18:44:59 1514763899.989783: {"class":"WATCH","enable":true,"json":false,"nmea":true,"raw":0,"scaled":false,"timing":false,"split24":false,"pps":false}
2017-12-31 18:45:00 1514763900.682213: $GPGSV,3,1,12,22,10,205,26,23,66,288,41,09,33,310,39,03,20,222,38*75
2017-12-31 18:45:00 1514763900.682402: $GPGSV,3,2,12,16,80,037,43,08,13,177,31,14,02,139,00,31,18,087,35*70
2017-12-31 18:45:00 1514763900.682468: $GPGSV,3,3,12,27,36,145,42,07,08,282,43,26,47,046,45,135,22,240,43*4E
2017-12-31 18:45:00 1514763900.795804: $GPZDA,234501.00,31,12,2017,00,00*62
2017-12-31 18:45:00 1514763900.795921: $GPGGA,234501,3946.9581,N,08404.9856,W,2,11,0.80,305.14,M,-33.324,M,,*76
2017-12-31 18:45:00 1514763900.795985: $GPRMC,234501,A,3946.9581,N,08404.9856,W,0.0000,0.000,311217,,*3E
2017-12-31 18:45:00 1514763900.796044: $GPGSA,A,3,22,23,9,3,16,8,31,27,7,26,135,,1.7,0.8,1.3*09
2017-12-31 18:45:01 1514763901.408018: $GPZDA,234502.00,31,12,2017,00,00*61
2017-12-31 18:45:01 1514763901.408177: $GPGGA,234502,3946.9581,N,08404.9856,W,2,11,0.80,305.14,M,-33.324,M,,*75
2017-12-31 18:45:01 1514763901.408245: $GPRMC,234502,A,3946.9581,N,08404.9856,W,0.0000,0.000,311217,,*3D
2017-12-31 18:45:01 1514763901.408306: $GPGSA,A,3,22,23,9,3,16,8,31,27,7,26,135,,1.7,0.8,1.3*09
2017-12-31 18:45:01 1514763901.408364: $GPGBS,234502,2.22,M,3.43,M,7.66,M*3D
2017-12-31 18:45:02 1514763902.346315: $GPZDA,234503.00,31,12,2017,00,00*60
2017-12-31 18:45:02 1514763902.346482: $GPGGA,234503,3946.9581,N,08404.9856,W,2,11,0.80,305.14,M,-33.324,M,,*74
2017-12-31 18:45:02 1514763902.346548: $GPRMC,234503,A,3946.9581,N,08404.9856,W,0.0000,0.000,311217,,*3C
2017-12-31 18:45:02 1514763902.346609: $GPGSA,A,3,22,23,9,3,16,8,31,27,7,26,135,,1.7,0.8,1.3*09
2017-12-31 18:45:02 1514763902.346666: $GPGBS,234503,2.22,M,3.43,M,7.66,M*3C
2017-12-31 18:45:03 1514763903.688064: $GPGSV,3,1,12,22,09,205,26,23,67,285,42,09,35,310,39,03,19,222,39*7F
2017-12-31 18:45:03 1514763903.688248: $GPGSV,3,2,12,16,79,036,43,08,14,175,31,14,01,139,00,31,17,087,35*7E
2017-12-31 18:45:03 1514763903.688315: $GPGSV,3,3,12,27,38,144,42,07,09,283,43,26,46,048,45,135,22,240,43*4E
2017-12-31 18:45:03 1514763903.801645: $GPZDA,234504.00,31,12,2017,00,00*67
2017-12-31 18:45:03 1514763903.801769: $GPGGA,234504,3946.9581,N,08404.9856,W,2,11,0.80,305.14,M,-33.324,M,,*73
2017-12-31 18:45:03 1514763903.801833: $GPRMC,234504,A,3946.9581,N,08404.9856,W,0.0000,0.000,311217,,*3B
2017-12-31 18:45:03 1514763903.801893: $GPGSA,A,3,22,23,9,3,16,8,31,27,7,26,135,,1.7,0.8,1.3*09
2017-12-31 18:45:04 1514763904.352541: $GPZDA,234505.00,31,12,2017,00,00*66
2017-12-31 18:45:04 1514763904.352707: $GPGGA,234505,3946.9581,N,08404.9856,W,2,11,0.80,305.14,M,-33.324,M,,*72
2017-12-31 18:45:04 1514763904.352772: $GPRMC,234505,A,3946.9581,N,08404.9856,W,0.0000,0.000,311217,,*3A
2017-12-31 18:45:04 1514763904.352833: $GPGSA,A,3,22,23,9,3,16,8,31,27,7,26,135,,1.7,0.8,1.3*09
2017-12-31 18:45:05 1514763905.352913: $GPZDA,234506.00,31,12,2017,00,00*65
2017-12-31 18:45:05 1514763905.353074: $GPGGA,234506,3946.9581,N,08404.9856,W,2,11,0.80,305.14,M,-33.324,M,,*71
2017-12-31 18:45:05 1514763905.353141: $GPRMC,234506,A,3946.9581,N,08404.9856,W,0.0000,0.000,311217,,*39
2017-12-31 18:45:05 1514763905.353202: $GPGSA,A,3,22,23,9,3,16,8,31,27,7,26,135,,1.7,0.8,1.3*09
2017-12-31 18:45:06 1514763906.688406: $GPGSV,3,1,12,22,09,205,26,23,67,285,41,09,35,310,38,03,19,222,38*7C
2017-12-31 18:45:06 1514763906.688593: $GPGSV,3,2,12,16,79,036,43,08,14,175,32,14,01,139,00,31,17,087,35*7D
2017-12-31 18:45:06 1514763906.688660: $GPGSV,3,3,12,27,38,144,42,07,09,283,44,26,46,048,45,135,22,240,44*4E
2017-12-31 18:45:06 1514763906.801976: $GPZDA,234507.00,31,12,2017,00,00*64
2017-12-31 18:45:06 1514763906.802139: $GPGGA,234507,3946.9581,N,08404.9856,W,2,11,0.80,305.14,M,-33.324,M,,*70
2017-12-31 18:45:06 1514763906.802206: $GPRMC,234507,A,3946.9581,N,08404.9856,W,0.0000,0.000,311217,,*38
2017-12-31 18:45:06 1514763906.802266: $GPGSA,A,3,22,23,9,3,16,8,31,27,7,26,135,,1.7,0.8,1.3*09
2017-12-31 18:45:07 1514763907.346636: $GPZDA,234508.00,31,12,2017,00,00*6B
2017-12-31 18:45:07 1514763907.346796: $GPGGA,234508,3946.9581,N,08404.9856,W,2,11,0.80,305.14,M,-33.324,M,,*7F
2017-12-31 18:45:07 1514763907.346862: $GPRMC,234508,A,3946.9581,N,08404.9856,W,0.0000,0.000,311217,,*37
2017-12-31 18:45:07 1514763907.346922: $GPGSA,A,3,22,23,9,3,16,8,31,27,7,26,135,,1.7,0.8,1.3*09
2017-12-31 18:45:08 1514763908.346261: $GPZDA,234509.00,31,12,2017,00,00*6A
2017-12-31 18:45:08 1514763908.346434: $GPGGA,234509,3946.9581,N,08404.9856,W,2,11,0.80,305.14,M,-33.324,M,,*7E
2017-12-31 18:45:08 1514763908.346500: $GPRMC,234509,A,3946.9581,N,08404.9856,W,0.0000,0.000,311217,,*36
2017-12-31 18:45:08 1514763908.346561: $GPGSA,A,3,22,23,9,3,16,8,31,27,7,26,135,,1.7,0.8,1.3*09
2017-12-31 18:45:09 1514763909.688035: $GPGSV,3,1,12,22,09,205,26,23,67,285,40,09,35,310,38,03,19,222,38*7D
2017-12-31 18:45:09 1514763909.688214: $GPGSV,3,2,12,16,79,036,43,08,14,175,32,14,01,139,00,31,17,087,35*7D
2017-12-31 18:45:09 1514763909.688280: $GPGSV,3,3,12,27,38,144,42,07,09,283,44,26,46,048,45,135,22,240,44*4E
2017-12-31 18:45:09 1514763909.801438: $GPZDA,234510.00,31,12,2017,00,00*62
2017-12-31 18:45:09 1514763909.801567: $GPGGA,234510,3946.9581,N,08404.9856,W,2,11,0.80,305.14,M,-33.324,M,,*76
2017-12-31 18:45:09 1514763909.801631: $GPRMC,234510,A,3946.9581,N,08404.9856,W,0.0000,0.000,311217,,*3E
2017-12-31 18:45:09 1514763909.801691: $GPGSA,A,3,22,23,9,3,16,8,31,27,7,26,135,,1.7,0.8,1.3*09
