2017-11-15 19:03:08 1510790588.325261: {"class":"VERSION","release":"3.17","rev":"3.17","proto_major":3,"proto_minor":12}
2017-11-15 19:03:08 1510790588.325758: {"class":"DEVICES","devices":[{"class":"DEVICE","path":"/dev/ttyUSB0","driver":"SiRF","subtype":"9\u0006GSD4e_4.1.2-P1_RPATCH.05-F-GPS-4R-1510281 11/03/2015 307","activated":"2017-11-16T00:03:08.217Z","flags":1,"native":1,"bps":4800,"parity":"N","stopbits":1,"cycle":1.00}]}
2017-11-15 19:03:08 1510790588.325882: {"class":"WATCH","enable":true,"json":false,"nmea":true,"raw":0,"scaled":false,"timing":false,"split24":false,"pps":false}
2017-11-15 19:03:08 1510790588.332339: $GPZDA,000307.00,16,11,2017,00,00*61
2017-11-15 19:03:08 1510790588.332493: $GPGGA,000307,3946.9616,N,08404.9484,W,1,09,1.40,300.61,M,-33.324,M,,*7D
2017-11-15 19:03:08 1510790588.332552: $GPRMC,000307,A,3946.9616,N,08404.9484,W,0.5287,182.716,161117,,*30
2017-11-15 19:03:08 1510790588.332608: $GPGSA,A,3,32,14,3,26,31,16,22,25,1,,,,3.4,1.4,2.9*3B
2017-11-15 19:03:09 1510790589.666459: $GPGSV,3,1,12,32,45,096,21,14,63,073,26,03,32,309,23,26,40,175,16*79
2017-11-15 19:03:09 1510790589.666626: $GPGSV,3,2,12,31,76,355,25,16,11,190,16,22,47,288,21,25,26,045,05*71
2017-11-15 19:03:09 1510790589.666686: $GPGSV,3,3,12,10,08,159,00,01,12,262,13,29,06,082,00,138,38,213,00*4E
2017-11-15 19:03:09 1510790589.779770: $GPZDA,000308.00,16,11,2017,00,00*6E
2017-11-15 19:03:09 1510790589.779932: $GPGGA,000308,3946.9616,N,08404.9484,W,1,08,1.40,300.61,M,-33.324,M,,*73
2017-11-15 19:03:09 1510790589.779992: $GPRMC,000308,A,3946.9616,N,08404.9484,W,0.5857,158.291,161117,,*35
2017-11-15 19:03:09 1510790589.780048: $GPGSA,A,3,32,14,3,26,31,16,22,1,,,,,3.4,1.4,2.9*3C
2017-11-15 19:03:10 1510790590.330726: $GPZDA,000309.00,16,11,2017,00,00*6F
2017-11-15 19:03:10 1510790590.330903: $GPGGA,000309,3946.9616,N,08404.9484,W,1,08,1.40,300.61,M,-33.324,M,,*72
2017-11-15 19:03:10 1510790590.330965: $GPRMC,000309,A,3946.9616,N,08404.9484,W,0.7246,164.668,161117,,*31
2017-11-15 19:03:10 1510790590.331022: $GPGSA,A,3,32,14,3,26,31,16,22,1,,,,,3.4,1.4,2.9*3C
2017-11-15 19:03:11 1510790591.329781: $GPZDA,000310.00,16,11,2017,00,00*67
2017-11-15 19:03:11 1510790591.329946: $GPGGA,000310,3946.9608,N,08404.9485,W,1,08,1.40,300.73,M,-33.324,M,,*77
2017-11-15 19:03:11 1510790591.330006: $GPRMC,000310,A,3946.9608,N,08404.9485,W,1.7607,175.391,161117,,*34
2017-11-15 19:03:11 1510790591.330062: $GPGSA,A,3,32,14,3,26,31,16,22,1,,,,,3.4,1.4,2.9*3C
2017-11-15 19:03:12 1510790592.666875: $GPGSV,3,1,12,32,45,096,21,14,63,073,26,03,32,309,23,26,40,175,16*79
2017-11-15 19:03:12 1510790592.667046: $GPGSV,3,2,12,31,76,355,25,16,11,190,16,22,47,288,21,25,26,045,04*70
2017-11-15 19:03:12 1510790592.667106: $GPGSV,3,3,12,10,08,159,00,01,12,262,13,29,06,082,00,138,38,213,00*4E
2017-11-15 19:03:12 1510790592.780117: $GPZDA,000311.00,16,11,2017,00,00*66
2017-11-15 19:03:12 1510790592.780286: $GPGGA,000311,3946.9604,N,08404.9485,W,1,08,1.40,300.09,M,-33.324,M,,*77
2017-11-15 19:03:12 1510790592.780347: $GPRMC,000311,A,3946.9604,N,08404.9485,W,1.5746,174.845,161117,,*3C
2017-11-15 19:03:12 1510790592.780404: $GPGSA,A,3,32,14,3,26,31,16,22,1,,,,,3.4,1.4,2.9*3C
2017-11-15 19:03:13 1510790593.347351: $GPZDA,000312.00,16,11,2017,00,00*65
2017-11-15 19:03:13 1510790593.347521: $GPGGA,000312,3946.9604,N,08404.9485,W,1,08,1.40,300.09,M,-33.324,M,,*74
2017-11-15 19:03:13 1510790593.347580: $GPRMC,000312,A,3946.9604,N,08404.9485,W,1.2132,183.552,161117,,*3E
2017-11-15 19:03:13 1510790593.347637: $GPGSA,A,3,32,14,3,26,31,16,22,1,,,,,3.4,1.4,2.9*3C
2017-11-15 19:03:14 1510790594.345632: $GPZDA,000313.00,16,11,2017,00,00*64
2017-11-15 19:03:14 1510790594.345806: $GPGGA,000313,3946.9596,N,08404.9486,W,1,08,1.40,300.22,M,-33.324,M,,*77
2017-11-15 19:03:14 1510790594.345868: $GPRMC,000313,A,3946.9596,N,08404.9486,W,1.2381,172.270,161117,,*37
2017-11-15 19:03:14 1510790594.345924: $GPGSA,A,3,32,14,3,26,31,16,22,1,,,,,3.4,1.4,2.9*3C
2017-11-15 19:03:15 1510790595.681441: $GPGSV,3,1,12,32,45,096,22,14,63,073,26,03,32,309,23,26,40,175,14*78
2017-11-15 19:03:16 1510790596.598893: $GPGSV,3,2,12,31,76,355,25,16,11,190,16,22,47,288,21,25,26,045,04*70
2017-11-15 19:03:16 1510790596.599044: $GPGSV,3,3,12,10,08,159,00,01,12,262,12,29,06,082,00,138,38,213,00*4F
2017-11-15 19:03:16 1510790596.599139: $GPZDA,000314.00,16,11,2017,00,00*63
2017-11-15 19:03:16 1510790596.599191: $GPGGA,000314,3946.9596,N,08404.9486,W,1,08,1.40,300.22,M,-33.324,M,,*70
2017-11-15 19:03:16 1510790596.599247: $GPRMC,000314,A,3946.9596,N,08404.9486,W,1.0269,184.197,161117,,*36
2017-11-15 19:03:16 1510790596.599302: $GPGSA,A,3,32,14,3,26,31,16,22,1,,,,,3.4,1.4,2.9*3C
2017-11-15 19:03:16 1510790596.599353: $GPZDA,000315.00,16,11,2017,00,00*62
2017-11-15 19:03:16 1510790596.599401: $GPGGA,000315,3946.9596,N,08404.9486,W,1,08,1.40,300.22,M,-33.324,M,,*71
2017-11-15 19:03:16 1510790596.599456: $GPRMC,000315,A,3946.9596,N,08404.9486,W,1.0567,197.448,161117,,*3B
2017-11-15 19:03:16 1510790596.599509: $GPGSA,A,3,32,14,3,26,31,16,22,1,,,,,3.4,1.4,2.9*3C
2017-11-15 19:03:17 1510790597.344748: $GPZDA,000316.00,16,11,2017,00,00*61
2017-11-15 19:03:17 1510790597.344924: $GPGGA,000316,3946.9596,N,08404.9486,W,1,08,1.40,300.22,M,-33.324,M,,*72
2017-11-15 19:03:17 1510790597.344989: $GPRMC,000316,A,3946.9596,N,08404.9486,W,0.7278,203.636,161117,,*32
2017-11-15 19:03:17 1510790597.345048: $GPGSA,A,3,32,14,3,26,31,16,22,1,,,,,3.4,1.4,2.9*3C
