2018-01-11 21:06:07 1515722767.117359: {"class":"VERSION","release":"3.16","rev":"3.16-4","proto_major":3,"proto_minor":11}
2018-01-11 21:06:07 1515722767.117750: {"class":"DEVICES","devices":[{"class":"DEVICE","path":"/dev/ttyUSB0","driver":"SiRF","subtype":"9\u0006GSD4e_4.1.2-P1_RPATCH.05-F-GPS-4R-1510281 11/03/2015 307","activated":"2018-01-12T02:06:06.525Z","flags":1,"native":1,"bps":4800,"parity":"N","stopbits":1,"cycle":1.00}]}
2018-01-11 21:06:07 1515722767.117864: {"class":"WATCH","enable":true,"json":false,"nmea":true,"raw":0,"scaled":false,"timing":false,"split24":false,"pps":false}
2018-01-11 21:06:07 1515722767.380989: $GPZDA,020608.00,12,01,2018,00,00*63
2018-01-11 21:06:07 1515722767.381154: $GPGGA,020608,3946.9596,N,08404.9820,W,2,12,1.00,292.45,M,-33.324,M,,*7D
2018-01-11 21:06:07 1515722767.381221: $GPRMC,020608,A,3946.9596,N,08404.9820,W,0.0000,0.000,120118,,*38
2018-01-11 21:06:07 1515722767.381282: $GPGSA,A,3,1,7,8,9,11,27,28,30,13,23,16,138,4.0,1.0,3.5*04
2018-01-11 21:06:08 1515722768.721511: $GPGSV,3,1,12,01,19,151,44,07,81,304,44,08,64,052,47,09,26,208,41*71
2018-01-11 21:06:08 1515722768.721663: $GPGSV,3,2,12,11,43,156,44,27,25,045,48,28,31,279,36,30,52,309,43*79
2018-01-11 21:06:08 1515722768.721732: $GPGSV,3,3,12,13,03,328,29,23,05,181,21,16,06,076,16,138,38,213,45*41
2018-01-11 21:06:08 1515722768.834818: $GPZDA,020609.00,12,01,2018,00,00*62
2018-01-11 21:06:08 1515722768.834938: $GPGGA,020609,3946.9596,N,08404.9820,W,2,12,1.00,292.45,M,-33.324,M,,*7C
2018-01-11 21:06:08 1515722768.835005: $GPRMC,020609,A,3946.9596,N,08404.9820,W,0.0000,0.000,120118,,*39
2018-01-11 21:06:08 1515722768.835072: $GPGSA,A,3,1,7,8,9,11,27,28,30,13,23,16,138,4.0,1.0,3.5*04
2018-01-11 21:06:09 1515722769.460560: $GPZDA,020610.00,12,01,2018,00,00*6A
2018-01-11 21:06:09 1515722769.460727: $GPGGA,020610,3946.9596,N,08404.9820,W,2,12,1.00,292.45,M,-33.324,M,,*74
2018-01-11 21:06:09 1515722769.460795: $GPRMC,020610,A,3946.9596,N,08404.9820,W,0.0000,0.000,120118,,*31
2018-01-11 21:06:09 1515722769.460856: $GPGSA,A,3,1,7,8,9,11,27,28,30,13,23,16,138,4.0,1.0,3.5*04
2018-01-11 21:06:10 1515722770.387632: $GPZDA,020611.00,12,01,2018,00,00*6B
2018-01-11 21:06:10 1515722770.387796: $GPGGA,020611,3946.9596,N,08404.9820,W,2,12,1.00,292.45,M,-33.324,M,,*75
2018-01-11 21:06:10 1515722770.387863: $GPRMC,020611,A,3946.9596,N,08404.9820,W,0.0000,0.000,120118,,*30
2018-01-11 21:06:10 1515722770.387925: $GPGSA,A,3,1,7,8,9,11,27,28,30,13,23,16,138,4.0,1.0,3.5*04
2018-01-11 21:06:11 1515722771.721881: $GPGSV,3,1,12,01,19,151,44,07,81,304,44,08,64,052,48,09,26,208,41*7E
2018-01-11 21:06:11 1515722771.722060: $GPGSV,3,2,12,11,43,156,45,27,25,045,48,28,31,279,36,30,52,309,43*78
2018-01-11 21:06:11 1515722771.722126: $GPGSV,3,3,12,13,03,328,29,23,05,181,26,16,06,076,17,138,38,213,45*47
2018-01-11 21:06:11 1515722771.835470: $GPZDA,020612.00,12,01,2018,00,00*68
2018-01-11 21:06:11 1515722771.835587: $GPGGA,020612,3946.9596,N,08404.9820,W,2,12,1.00,292.45,M,-33.324,M,,*76
2018-01-11 21:06:11 1515722771.835650: $GPRMC,020612,A,3946.9596,N,08404.9820,W,0.0000,0.000,120118,,*33
2018-01-11 21:06:11 1515722771.835712: $GPGSA,A,3,1,7,8,9,11,27,28,30,13,23,16,138,4.0,1.0,3.5*04
2018-01-11 21:06:12 1515722772.381377: $GPZDA,020613.00,12,01,2018,00,00*69
2018-01-11 21:06:12 1515722772.381532: $GPGGA,020613,3946.9596,N,08404.9820,W,2,12,1.00,292.45,M,-33.324,M,,*77
2018-01-11 21:06:12 1515722772.381600: $GPRMC,020613,A,3946.9596,N,08404.9820,W,0.0000,0.000,120118,,*32
2018-01-11 21:06:12 1515722772.381661: $GPGSA,A,3,1,7,8,9,11,27,28,30,13,23,16,138,4.0,1.0,3.5*04
2018-01-11 21:06:13 1515722773.387229: $GPZDA,020614.00,12,01,2018,00,00*6E
2018-01-11 21:06:13 1515722773.387395: $GPGGA,020614,3946.9596,N,08404.9820,W,2,12,1.00,292.45,M,-33.324,M,,*70
2018-01-11 21:06:13 1515722773.387462: $GPRMC,020614,A,3946.9596,N,08404.9820,W,0.0000,0.000,120118,,*35
2018-01-11 21:06:13 1515722773.387523: $GPGSA,A,3,1,7,8,9,11,27,28,30,13,23,16,138,4.0,1.0,3.5*04
