2017-11-15 19:54:57 1510793697.312096: {"class":"VERSION","release":"3.17","rev":"3.17","proto_major":3,"proto_minor":12}
2017-11-15 19:54:57 1510793697.312579: {"class":"DEVICES","devices":[{"class":"DEVICE","path":"/dev/ttyUSB0","driver":"SiRF","subtype":"9\u0006GSD4e_4.1.2-P1_RPATCH.05-F-GPS-4R-1510281 11/03/2015 307","activated":"2017-11-16T00:54:57.232Z","flags":1,"native":1,"bps":4800,"parity":"N","stopbits":1,"cycle":1.00}]}
2017-11-15 19:54:57 1510793697.312693: {"class":"WATCH","enable":true,"json":false,"nmea":true,"raw":0,"scaled":false,"timing":false,"split24":false,"pps":false}
2017-11-15 19:54:57 1510793697.681304: $GPGSV,3,1,10,03,44,285,05,16,34,190,24,31,58,040,26,26,65,165,18*7E
2017-11-15 19:54:57 1510793697.681479: $GPGSV,3,2,10,14,46,106,22,22,48,252,20,29,13,060,10,23,20,304,09*71
2017-11-15 19:54:57 1510793697.681541: $GPGSV,3,3,10,32,27,117,00,25,08,037,00*70
2017-11-15 19:54:57 1510793697.794707: $GPZDA,005456.00,16,11,2017,00,00*67
2017-11-15 19:54:57 1510793697.794903: $GPGGA,005456,3946.9539,N,08404.9634,W,1,06,1.20,291.12,M,-33.324,M,,*78
2017-11-15 19:54:57 1510793697.794968: $GPRMC,005456,A,3946.9539,N,08404.9634,W,0.9060,347.792,161117,,*31
2017-11-15 19:54:57 1510793697.795032: $GPGSA,A,3,16,31,26,14,22,23,,,,,,,3.4,1.2,2.9*38
2017-11-15 19:54:58 1510793698.328045: $GPZDA,005457.00,16,11,2017,00,00*66
2017-11-15 19:54:58 1510793698.328215: $GPGGA,005457,3946.9539,N,08404.9634,W,1,06,1.20,291.12,M,-33.324,M,,*79
2017-11-15 19:54:58 1510793698.328280: $GPRMC,005457,A,3946.9539,N,08404.9634,W,0.4844,273.794,161117,,*33
2017-11-15 19:54:58 1510793698.328336: $GPGSA,A,3,16,31,26,14,22,23,,,,,,,3.4,1.2,2.9*38
2017-11-15 19:54:59 1510793699.327665: $GPZDA,005458.00,16,11,2017,00,00*69
2017-11-15 19:54:59 1510793699.327828: $GPGGA,005458,3946.9531,N,08404.9634,W,1,06,1.20,291.25,M,-33.324,M,,*7A
2017-11-15 19:54:59 1510793699.327892: $GPRMC,005458,A,3946.9531,N,08404.9634,W,0.2422,273.794,161117,,*3E
2017-11-15 19:54:59 1510793699.327948: $GPGSA,A,3,16,31,26,14,22,23,,,,,,,3.4,1.2,2.9*38
2017-11-15 19:55:00 1510793700.680916: $GPGSV,3,1,10,03,44,285,05,16,34,190,24,31,58,040,26,26,65,165,18*7E
2017-11-15 19:55:00 1510793700.681088: $GPGSV,3,2,10,14,46,106,22,22,48,252,20,29,13,060,10,23,20,304,09*71
2017-11-15 19:55:00 1510793700.681153: $GPGSV,3,3,10,32,27,117,00,25,08,037,00*70
2017-11-15 19:55:00 1510793700.794221: $GPZDA,005459.00,16,11,2017,00,00*68
2017-11-15 19:55:00 1510793700.794399: $GPGGA,005459,3946.9535,N,08404.9634,W,1,06,1.20,290.48,M,-33.324,M,,*75
2017-11-15 19:55:00 1510793700.794460: $GPRMC,005459,A,3946.9535,N,08404.9634,W,0.8359,328.778,161117,,*37
2017-11-15 19:55:00 1510793700.794518: $GPGSA,A,3,16,31,26,14,22,23,,,,,,,3.4,1.2,2.9*38
2017-11-15 19:55:01 1510793701.419620: $GPZDA,005500.00,16,11,2017,00,00*65
2017-11-15 19:55:01 1510793701.419790: $GPGGA,005500,3946.9539,N,08404.9627,W,1,06,1.20,291.20,M,-33.324,M,,*79
2017-11-15 19:55:01 1510793701.419852: $GPRMC,005500,A,3946.9539,N,08404.9627,W,1.1323,338.868,161117,,*3E
2017-11-15 19:55:01 1510793701.419909: $GPGSA,A,3,16,31,26,14,22,23,,,,,,,3.4,1.2,2.9*38
2017-11-15 19:55:02 1510793702.328019: $GPZDA,005501.00,16,11,2017,00,00*64
2017-11-15 19:55:02 1510793702.328204: $GPGGA,005501,3946.9539,N,08404.9627,W,1,06,1.20,291.20,M,-33.324,M,,*78
2017-11-15 19:55:02 1510793702.328270: $GPRMC,005501,A,3946.9539,N,08404.9627,W,0.5857,338.291,161117,,*3E
2017-11-15 19:55:02 1510793702.328326: $GPGSA,A,3,16,31,26,14,22,23,,,,,,,3.4,1.2,2.9*38
2017-11-15 19:55:03 1510793703.665036: $GPGSV,3,1,10,03,44,285,10,16,34,190,24,31,58,040,25,26,65,165,17*76
2017-11-15 19:55:03 1510793703.665215: $GPGSV,3,2,10,14,46,106,22,22,48,252,21,32,27,117,00,23,20,304,09*7D
2017-11-15 19:55:03 1510793703.665290: $GPGSV,3,3,10,29,13,060,00,25,08,037,00*7C
2017-11-15 19:55:03 1510793703.777424: $GPZDA,005502.00,16,11,2017,00,00*67
2017-11-15 19:55:03 1510793703.777585: $GPGGA,005502,3946.9539,N,08404.9627,W,1,07,1.20,291.20,M,-33.324,M,,*7A
2017-11-15 19:55:03 1510793703.777646: $GPRMC,005502,A,3946.9539,N,08404.9627,W,0.5912,309.172,161117,,*31
2017-11-15 19:55:03 1510793703.777753: $GPGSA,A,3,3,16,31,26,14,22,23,,,,,,3.4,1.2,2.9*0B
2017-11-15 19:55:04 1510793704.328000: $GPZDA,005503.00,16,11,2017,00,00*66
2017-11-15 19:55:04 1510793704.328194: $GPGGA,005503,3946.9539,N,08404.9627,W,1,07,1.20,291.20,M,-33.324,M,,*7B
2017-11-15 19:55:04 1510793704.328260: $GPRMC,005503,A,3946.9539,N,08404.9627,W,0.6846,4.197,161117,,*36
2017-11-15 19:55:04 1510793704.328317: $GPGSA,A,3,3,16,31,26,14,22,23,,,,,,3.4,1.2,2.9*0B
2017-11-15 19:55:05 1510793705.345399: $GPZDA,005504.00,16,11,2017,00,00*61
2017-11-15 19:55:05 1510793705.345561: $GPGGA,005504,3946.9539,N,08404.9627,W,1,07,1.20,291.20,M,-33.324,M,,*7C
2017-11-15 19:55:05 1510793705.345624: $GPRMC,005504,A,3946.9539,N,08404.9627,W,0.7278,23.636,161117,,*0E
2017-11-15 19:55:05 1510793705.345680: $GPGSA,A,3,3,16,31,26,14,22,23,,,,,,3.4,1.2,2.9*0B
2017-11-15 19:55:06 1510793706.680480: $GPGSV,3,1,10,03,44,285,05,16,34,190,23,31,58,040,25,26,65,165,17*75
2017-11-15 19:55:06 1510793706.680624: $GPGSV,3,2,10,14,46,106,22,22,48,252,21,32,27,117,00,23,20,304,10*75
2017-11-15 19:55:06 1510793706.680684: $GPGSV,3,3,10,29,13,060,00,25,08,037,00*7C
2017-11-15 19:55:06 1510793706.794117: $GPZDA,005505.00,16,11,2017,00,00*60
2017-11-15 19:55:06 1510793706.794281: $GPGGA,005505,3946.9542,N,08404.9619,W,1,06,1.20,290.52,M,-33.324,M,,*79
2017-11-15 19:55:06 1510793706.794343: $GPRMC,005505,A,3946.9542,N,08404.9619,W,0.4207,39.347,161117,,*0D
2017-11-15 19:55:06 1510793706.794399: $GPGSA,A,3,16,31,26,14,22,23,,,,,,,3.4,1.2,2.9*38
