2017-11-16 15:19:06 1510863546.358634: {"class":"VERSION","release":"3.17","rev":"3.17","proto_major":3,"proto_minor":12}
2017-11-16 15:19:06 1510863546.359132: {"class":"DEVICES","devices":[{"class":"DEVICE","path":"/dev/ttyUSB0","driver":"SiRF","subtype":"9\u0006GSD4e_4.1.2-P1_RPATCH.05-F-GPS-4R-1510281 11/03/2015 307","activated":"2017-11-16T20:19:06.278Z","flags":1,"native":1,"bps":4800,"parity":"N","stopbits":1,"cycle":1.00}]}
2017-11-16 15:19:06 1510863546.359247: {"class":"WATCH","enable":true,"json":false,"nmea":true,"raw":0,"scaled":false,"timing":false,"split24":false,"pps":false}
2017-11-16 15:19:06 1510863546.392205: $GPZDA,201905.00,16,11,2017,00,00*6A
2017-11-16 15:19:06 1510863546.392374: $GPGGA,201905,3946.9578,N,08404.9850,W,2,12,0.80,305.99,M,-33.324,M,,*7E
2017-11-16 15:19:06 1510863546.392435: $GPRMC,201905,A,3946.9578,N,08404.9850,W,0.0000,0.000,161117,,*36
2017-11-16 15:19:06 1510863546.392493: $GPGSA,A,3,8,10,14,15,18,20,21,24,27,32,12,138,1.6,0.8,1.3*34
2017-11-16 15:19:07 1510863547.730536: $GPGSV,3,1,12,08,06,295,30,10,67,327,51,14,27,252,45,15,13,064,32*78
2017-11-16 15:19:07 1510863547.730705: $GPGSV,3,2,12,18,72,087,46,20,10,117,29,21,32,180,45,24,46,061,49*71
2017-11-16 15:19:07 1510863547.730765: $GPGSV,3,3,12,27,08,262,35,32,44,262,48,12,08,109,32,138,38,213,44*4F
2017-11-16 15:19:07 1510863547.843767: $GPZDA,201906.00,16,11,2017,00,00*69
2017-11-16 15:19:07 1510863547.843921: $GPGGA,201906,3946.9578,N,08404.9850,W,2,12,0.80,305.99,M,-33.324,M,,*7D
2017-11-16 15:19:07 1510863547.843980: $GPRMC,201906,A,3946.9578,N,08404.9850,W,0.0000,0.000,161117,,*35
2017-11-16 15:19:07 1510863547.844036: $GPGSA,A,3,8,10,14,15,18,20,21,24,27,32,12,138,1.6,0.8,1.3*34
2017-11-16 15:19:08 1510863548.370916: $GPZDA,201907.00,16,11,2017,00,00*68
2017-11-16 15:19:08 1510863548.371079: $GPGGA,201907,3946.9578,N,08404.9850,W,2,12,0.80,305.99,M,-33.324,M,,*7C
2017-11-16 15:19:08 1510863548.371140: $GPRMC,201907,A,3946.9578,N,08404.9850,W,0.0000,0.000,161117,,*34
2017-11-16 15:19:08 1510863548.371197: $GPGSA,A,3,8,10,14,15,18,20,21,24,27,32,12,138,1.6,0.8,1.3*34
2017-11-16 15:19:09 1510863549.392916: $GPZDA,201908.00,16,11,2017,00,00*67
2017-11-16 15:19:09 1510863549.393081: $GPGGA,201908,3946.9578,N,08404.9850,W,2,12,0.80,305.99,M,-33.324,M,,*73
2017-11-16 15:19:09 1510863549.393143: $GPRMC,201908,A,3946.9578,N,08404.9850,W,0.0000,0.000,161117,,*3B
2017-11-16 15:19:09 1510863549.393199: $GPGSA,A,3,8,10,14,15,18,20,21,24,27,32,12,138,1.6,0.8,1.3*34
2017-11-16 15:19:10 1510863550.727469: $GPGSV,3,1,12,08,06,295,32,10,67,327,51,14,27,252,45,15,13,064,32*7A
2017-11-16 15:19:10 1510863550.727641: $GPGSV,3,2,12,18,72,087,46,20,10,117,29,21,32,180,45,24,46,061,49*71
2017-11-16 15:19:10 1510863550.727704: $GPGSV,3,3,12,27,08,262,35,32,44,262,48,12,08,109,32,138,38,213,44*4F
2017-11-16 15:19:10 1510863550.841011: $GPZDA,201909.00,16,11,2017,00,00*66
2017-11-16 15:19:10 1510863550.841191: $GPGGA,201909,3946.9578,N,08404.9850,W,2,12,0.80,305.99,M,-33.324,M,,*72
2017-11-16 15:19:10 1510863550.841257: $GPRMC,201909,A,3946.9578,N,08404.9850,W,0.0000,0.000,161117,,*3A
2017-11-16 15:19:10 1510863550.841314: $GPGSA,A,3,8,10,14,15,18,20,21,24,27,32,12,138,1.6,0.8,1.3*34
2017-11-16 15:19:11 1510863551.466265: $GPZDA,201910.00,16,11,2017,00,00*6E
2017-11-16 15:19:11 1510863551.466443: $GPGGA,201910,3946.9578,N,08404.9850,W,2,12,0.80,305.99,M,-33.324,M,,*7A
2017-11-16 15:19:11 1510863551.466507: $GPRMC,201910,A,3946.9578,N,08404.9850,W,0.0000,0.000,161117,,*32
2017-11-16 15:19:11 1510863551.466565: $GPGSA,A,3,8,10,14,15,18,20,21,24,27,32,12,138,1.6,0.8,1.3*34
2017-11-16 15:19:12 1510863552.377022: $GPZDA,201911.00,16,11,2017,00,00*6F
2017-11-16 15:19:12 1510863552.377194: $GPGGA,201911,3946.9578,N,08404.9850,W,2,12,0.80,305.99,M,-33.324,M,,*7B
2017-11-16 15:19:12 1510863552.377255: $GPRMC,201911,A,3946.9578,N,08404.9850,W,0.0000,0.000,161117,,*33
2017-11-16 15:19:12 1510863552.377313: $GPGSA,A,3,8,10,14,15,18,20,21,24,27,32,12,138,1.6,0.8,1.3*34
2017-11-16 15:19:13 1510863553.714013: $GPGSV,3,1,12,08,06,295,31,10,67,327,51,14,27,252,45,15,13,064,33*78
2017-11-16 15:19:13 1510863553.714231: $GPGSV,3,2,12,18,72,087,46,20,10,117,29,21,32,180,45,24,46,061,49*71
2017-11-16 15:19:13 1510863553.714297: $GPGSV,3,3,12,27,08,262,36,32,44,262,47,12,08,109,32,138,38,213,44*43
2017-11-16 15:19:13 1510863553.827289: $GPZDA,201912.00,16,11,2017,00,00*6C
2017-11-16 15:19:13 1510863553.827448: $GPGGA,201912,3946.9578,N,08404.9850,W,2,12,0.80,305.99,M,-33.324,M,,*78
2017-11-16 15:19:13 1510863553.827510: $GPRMC,201912,A,3946.9578,N,08404.9850,W,0.0000,0.000,161117,,*30
2017-11-16 15:19:13 1510863553.827568: $GPGSA,A,3,8,10,14,15,18,20,21,24,27,32,12,138,1.6,0.8,1.3*34
2017-11-16 15:19:14 1510863554.377263: $GPZDA,201913.00,16,11,2017,00,00*6D
2017-11-16 15:19:14 1510863554.377423: $GPGGA,201913,3946.9578,N,08404.9850,W,2,12,0.80,305.99,M,-33.324,M,,*79
2017-11-16 15:19:14 1510863554.377485: $GPRMC,201913,A,3946.9578,N,08404.9850,W,0.0000,0.000,161117,,*31
2017-11-16 15:19:14 1510863554.377543: $GPGSA,A,3,8,10,14,15,18,20,21,24,27,32,12,138,1.6,0.8,1.3*34
2017-11-16 15:19:15 1510863555.375527: $GPZDA,201914.00,16,11,2017,00,00*6A
2017-11-16 15:19:15 1510863555.375715: $GPGGA,201914,3946.9578,N,08404.9850,W,2,12,0.80,305.99,M,-33.324,M,,*7E
2017-11-16 15:19:15 1510863555.375776: $GPRMC,201914,A,3946.9578,N,08404.9850,W,0.0000,0.000,161117,,*36
2017-11-16 15:19:15 1510863555.375834: $GPGSA,A,3,8,10,14,15,18,20,21,24,27,32,12,138,1.6,0.8,1.3*34
