2017-12-01 11:41:24 1512146484.266855: {"class":"VERSION","release":"3.16","rev":"3.16-4","proto_major":3,"proto_minor":11}
2017-12-01 11:41:24 1512146484.267640: {"class":"DEVICES","devices":[{"class":"DEVICE","path":"/dev/ttyUSB0","driver":"SiRF","subtype":"9\u0006GSD4e_4.1.2-P1_RPATCH.05-F-GPS-4R-1510281 11/03/2015 307","activated":"2017-12-01T16:41:24.213Z","flags":1,"native":1,"bps":4800,"parity":"N","stopbits":1,"cycle":1.00}]}
2017-12-01 11:41:24 1512146484.284654: {"class":"WATCH","enable":true,"json":false,"nmea":true,"raw":0,"scaled":false,"timing":false,"split24":false,"pps":false}
2017-12-01 11:41:24 1512146484.392736: $GPZDA,164125.00,01,12,2017,00,00*65
2017-12-01 11:41:24 1512146484.393060: $GPGGA,164125,3946.9597,N,08404.9853,W,2,11,0.80,289.24,M,-33.324,M,,*76
2017-12-01 11:41:24 1512146484.393216: $GPRMC,164125,A,3946.9597,N,08404.9853,W,0.0000,0.000,011217,,*3B
2017-12-01 11:41:24 1512146484.393341: $GPGSA,A,3,5,10,13,15,18,20,21,24,27,29,138,,2.0,0.8,1.5*34
2017-12-01 11:41:25 1512146485.723919: $GPGSV,3,1,12,05,14,076,23,10,12,271,36,13,44,051,46,15,76,076,48*77
2017-12-01 11:41:25 1512146485.724101: $GPGSV,3,2,12,18,43,285,44,20,63,048,42,21,66,306,45,24,19,150,40*7E
2017-12-01 11:41:25 1512146485.724167: $GPGSV,3,3,12,27,08,325,45,29,25,195,42,04,13,129,00,138,38,213,46*4A
2017-12-01 11:41:25 1512146485.837328: $GPZDA,164126.00,01,12,2017,00,00*66
2017-12-01 11:41:25 1512146485.837519: $GPGGA,164126,3946.9597,N,08404.9853,W,2,11,0.80,289.24,M,-33.324,M,,*75
2017-12-01 11:41:25 1512146485.837586: $GPRMC,164126,A,3946.9597,N,08404.9853,W,0.0000,0.000,011217,,*38
2017-12-01 11:41:25 1512146485.837647: $GPGSA,A,3,5,10,13,15,18,20,21,24,27,29,138,,2.0,0.8,1.5*34
2017-12-01 11:41:26 1512146486.462765: $GPZDA,164127.00,01,12,2017,00,00*67
2017-12-01 11:41:26 1512146486.462938: $GPGGA,164127,3946.9597,N,08404.9853,W,2,11,0.80,289.24,M,-33.324,M,,*74
2017-12-01 11:41:26 1512146486.463006: $GPRMC,164127,A,3946.9597,N,08404.9853,W,0.0000,0.000,011217,,*39
2017-12-01 11:41:26 1512146486.463067: $GPGSA,A,3,5,10,13,15,18,20,21,24,27,29,138,,2.0,0.8,1.5*34
2017-12-01 11:41:27 1512146487.387314: $GPZDA,164128.00,01,12,2017,00,00*68
2017-12-01 11:41:27 1512146487.387517: $GPGGA,164128,3946.9597,N,08404.9853,W,2,11,0.80,289.24,M,-33.324,M,,*7B
2017-12-01 11:41:27 1512146487.387586: $GPRMC,164128,A,3946.9597,N,08404.9853,W,0.0000,0.000,011217,,*36
2017-12-01 11:41:27 1512146487.387647: $GPGSA,A,3,5,10,13,15,18,20,21,24,27,29,138,,2.0,0.8,1.5*34
2017-12-01 11:41:28 1512146488.724290: $GPGSV,3,1,12,05,14,076,17,10,12,271,37,13,44,051,46,15,76,076,48*71
2017-12-01 11:41:28 1512146488.724505: $GPGSV,3,2,12,18,43,285,45,20,63,048,42,21,66,306,45,24,19,150,40*7F
2017-12-01 11:41:28 1512146488.724572: $GPGSV,3,3,12,27,08,325,46,29,25,195,42,04,13,129,00,138,38,213,46*49
2017-12-01 11:41:28 1512146488.837827: $GPZDA,164129.00,01,12,2017,00,00*69
2017-12-01 11:41:28 1512146488.837994: $GPGGA,164129,3946.9597,N,08404.9853,W,2,11,0.80,289.24,M,-33.324,M,,*7A
2017-12-01 11:41:28 1512146488.838060: $GPRMC,164129,A,3946.9597,N,08404.9853,W,0.0000,0.000,011217,,*37
2017-12-01 11:41:28 1512146488.838121: $GPGSA,A,3,5,10,13,15,18,20,21,24,27,29,138,,2.0,0.8,1.5*34
2017-12-01 11:41:29 1512146489.387333: $GPZDA,164130.00,01,12,2017,00,00*61
2017-12-01 11:41:29 1512146489.387551: $GPGGA,164130,3946.9597,N,08404.9853,W,2,11,0.80,289.24,M,-33.324,M,,*72
2017-12-01 11:41:29 1512146489.387640: $GPRMC,164130,A,3946.9597,N,08404.9853,W,0.0000,0.000,011217,,*3F
2017-12-01 11:41:29 1512146489.387704: $GPGSA,A,3,5,10,13,15,18,20,21,24,27,29,138,,2.0,0.8,1.5*34
2017-12-01 11:41:30 1512146490.386945: $GPZDA,164131.00,01,12,2017,00,00*60
2017-12-01 11:41:30 1512146490.387119: $GPGGA,164131,3946.9597,N,08404.9853,W,2,11,0.80,289.24,M,-33.324,M,,*73
2017-12-01 11:41:30 1512146490.387185: $GPRMC,164131,A,3946.9597,N,08404.9853,W,0.0000,0.000,011217,,*3E
2017-12-01 11:41:30 1512146490.387247: $GPGSA,A,3,5,10,13,15,18,20,21,24,27,29,138,,2.0,0.8,1.5*34
2017-12-01 11:41:31 1512146491.724658: $GPGSV,3,1,12,05,14,076,23,10,12,271,38,13,44,051,46,15,76,076,48*79
2017-12-01 11:41:31 1512146491.724889: $GPGSV,3,2,12,18,43,285,44,20,63,048,42,21,66,306,45,24,19,150,40*7E
2017-12-01 11:41:31 1512146491.724958: $GPGSV,3,3,12,27,08,325,46,29,25,195,43,04,13,129,00,138,38,213,46*48
2017-12-01 11:41:31 1512146491.838042: $GPZDA,164132.00,01,12,2017,00,00*63
2017-12-01 11:41:31 1512146491.838209: $GPGGA,164132,3946.9596,N,08404.9846,W,2,11,0.80,289.32,M,-33.324,M,,*72
2017-12-01 11:41:31 1512146491.838275: $GPRMC,164132,A,3946.9596,N,08404.9846,W,0.0000,0.000,011217,,*38
2017-12-01 11:41:31 1512146491.838359: $GPGSA,A,3,5,10,13,15,18,20,21,24,27,29,138,,2.0,0.8,1.5*34
2017-12-01 11:41:32 1512146492.385164: $GPZDA,164133.00,01,12,2017,00,00*62
2017-12-01 11:41:32 1512146492.385359: $GPGGA,164133,3946.9600,N,08404.9846,W,2,11,0.80,289.96,M,-33.324,M,,*71
2017-12-01 11:41:32 1512146492.385444: $GPRMC,164133,A,3946.9600,N,08404.9846,W,0.0000,0.000,011217,,*35
2017-12-01 11:41:32 1512146492.385507: $GPGSA,A,3,5,10,13,15,18,20,21,24,27,29,138,,2.0,0.8,1.5*34
2017-12-01 11:41:33 1512146493.387304: $GPZDA,164134.00,01,12,2017,00,00*65
2017-12-01 11:41:33 1512146493.387494: $GPGGA,164134,3946.9600,N,08404.9846,W,2,11,0.80,289.96,M,-33.324,M,,*76
2017-12-01 11:41:33 1512146493.387562: $GPRMC,164134,A,3946.9600,N,08404.9846,W,0.0000,0.000,011217,,*32
2017-12-01 11:41:33 1512146493.387624: $GPGSA,A,3,5,10,13,15,18,20,21,24,27,29,138,,2.0,0.8,1.5*34
