2017-12-01 12:08:04 1512148084.547394: {"class":"VERSION","release":"3.16","rev":"3.16-4","proto_major":3,"proto_minor":11}
2017-12-01 12:08:04 1512148084.547773: {"class":"DEVICES","devices":[{"class":"DEVICE","path":"/dev/ttyUSB0","driver":"SiRF","subtype":"9\u0006GSD4e_4.1.2-P1_RPATCH.05-F-GPS-4R-1510281 11/03/2015 307","activated":"2017-12-01T17:08:04.547Z","flags":1,"native":1,"bps":4800,"parity":"N","stopbits":1,"cycle":1.00}]}
2017-12-01 12:08:04 1512148084.547890: {"class":"WATCH","enable":true,"json":false,"nmea":true,"raw":0,"scaled":false,"timing":false,"split24":false,"pps":false}
2017-12-01 12:08:04 1512148084.723884: $GPZDA,170805.42,01,12,2017,00,00*6D
2017-12-01 12:08:04 1512148084.724063: $GPGGA,170805,3946.9631,N,08404.9876,W,1,11,1.00,286.26,M,-33.324,M,,*77
2017-12-01 12:08:04 1512148084.724131: $GPRMC,170805,A,3946.9631,N,08404.9876,W,0.1567,9.200,011217,,*33
2017-12-01 12:08:04 1512148084.724198: $GPGSA,A,3,10,13,15,18,20,21,24,27,5,29,138,,2.0,1.0,1.5*3D
2017-12-01 12:08:04 1512148084.724258: $GPGBS,170805,10.70,M,15.43,M,35.28,M*0C
2017-12-01 12:08:05 1512148085.657163: $GPZDA,170806.10,01,12,2017,00,00*69
2017-12-01 12:08:05 1512148085.657347: $GPGGA,170806,3946.9627,N,08404.9869,W,1,11,1.00,285.70,M,-33.324,M,,*7D
2017-12-01 12:08:05 1512148085.657415: $GPRMC,170806,A,3946.9627,N,08404.9869,W,0.4207,39.346,011217,,*0D
2017-12-01 12:08:05 1512148085.657477: $GPGSA,A,3,10,13,15,18,20,21,24,27,5,29,138,,2.0,1.0,1.5*3D
2017-12-01 12:08:05 1512148085.657538: $GPGBS,170806,10.70,M,15.43,M,35.28,M*0F
2017-12-01 12:08:06 1512148086.741521: $GPGSV,3,1,12,10,21,280,34,13,33,046,45,15,65,054,44,18,51,295,46*71
2017-12-01 12:08:06 1512148086.741692: $GPGSV,3,2,12,20,55,067,45,21,76,285,45,24,30,141,44,27,14,316,33*70
2017-12-01 12:08:06 1512148086.741761: $GPGSV,3,3,12,29,14,190,22,05,06,084,00,04,03,135,00,138,38,213,00*42
2017-12-01 12:08:06 1512148086.854907: $GPZDA,170807.00,01,12,2017,00,00*69
2017-12-01 12:08:06 1512148086.855097: $GPGGA,170807,3946.9627,N,08404.9869,W,1,09,0.80,285.70,M,-33.324,M,,*7C
2017-12-01 12:08:06 1512148086.855170: $GPRMC,170807,A,3946.9627,N,08404.9869,W,0.2959,54.767,011217,,*06
2017-12-01 12:08:06 1512148086.855236: $GPGSA,A,3,10,13,15,18,20,21,24,27,29,,,,2.0,0.8,1.5*3B
2017-12-01 12:08:07 1512148087.241299: $GPZDA,170808.00,01,12,2017,00,00*66
2017-12-01 12:08:07 1512148087.241548: $GPGGA,170808,3946.9627,N,08404.9869,W,1,09,0.80,285.70,M,-33.324,M,,*73
2017-12-01 12:08:07 1512148087.241618: $GPRMC,170808,A,3946.9627,N,08404.9869,W,0.1867,0.000,011217,,*31
2017-12-01 12:08:07 1512148087.241682: $GPGSA,A,3,10,13,15,18,20,21,24,27,29,,,,2.0,0.8,1.5*3B
2017-12-01 12:08:08 1512148088.416716: $GPZDA,170809.00,01,12,2017,00,00*67
2017-12-01 12:08:08 1512148088.416888: $GPGGA,170809,3946.9622,N,08404.9869,W,1,09,0.80,285.06,M,-33.324,M,,*76
2017-12-01 12:08:08 1512148088.416958: $GPRMC,170809,A,3946.9622,N,08404.9869,W,0.0000,0.000,011217,,*3D
2017-12-01 12:08:08 1512148088.417023: $GPGSA,A,3,10,13,15,18,20,21,24,27,29,,,,2.0,0.8,1.5*3B
2017-12-01 12:08:09 1512148089.752348: $GPGSV,3,1,12,10,21,280,29,13,33,046,35,15,65,054,34,18,51,295,36*7A
2017-12-01 12:08:09 1512148089.752518: $GPGSV,3,2,12,20,55,067,35,21,76,285,35,24,30,141,35,27,14,316,28*7C
2017-12-01 12:08:09 1512148089.752584: $GPGSV,3,3,12,29,14,190,24,05,06,084,16,04,03,135,00,138,38,213,38*48
2017-12-01 12:08:09 1512148089.865846: $GPZDA,170810.00,01,12,2017,00,00*6F
2017-12-01 12:08:09 1512148089.866017: $GPGGA,170810,3946.9622,N,08404.9869,W,1,11,0.80,285.06,M,-33.324,M,,*77
2017-12-01 12:08:09 1512148089.866085: $GPRMC,170810,A,3946.9622,N,08404.9869,W,0.0000,0.000,011217,,*35
2017-12-01 12:08:09 1512148089.866146: $GPGSA,A,3,10,13,15,18,20,21,24,27,29,5,138,,2.0,0.8,1.5*34
2017-12-01 12:08:10 1512148090.416713: $GPZDA,170811.00,01,12,2017,00,00*6E
2017-12-01 12:08:10 1512148090.416889: $GPGGA,170811,3946.9618,N,08404.9869,W,1,11,0.80,284.42,M,-33.324,M,,*7E
2017-12-01 12:08:10 1512148090.416957: $GPRMC,170811,A,3946.9618,N,08404.9869,W,0.0000,0.000,011217,,*3D
2017-12-01 12:08:10 1512148090.417020: $GPGSA,A,3,10,13,15,18,20,21,24,27,29,5,138,,2.0,0.8,1.5*34
2017-12-01 12:08:11 1512148091.414859: $GPZDA,170812.00,01,12,2017,00,00*6D
2017-12-01 12:08:11 1512148091.415025: $GPGGA,170812,3946.9618,N,08404.9869,W,1,11,0.80,284.42,M,-33.324,M,,*7D
2017-12-01 12:08:11 1512148091.415092: $GPRMC,170812,A,3946.9618,N,08404.9869,W,0.0000,0.000,011217,,*3E
2017-12-01 12:08:11 1512148091.415153: $GPGSA,A,3,10,13,15,18,20,21,24,27,29,5,138,,2.0,0.8,1.5*34
2017-12-01 12:08:11 1512148091.415212: $GPGBS,170812,10.70,M,15.43,M,35.28,M*0A
2017-12-01 12:08:12 1512148092.751948: $GPGSV,3,1,12,10,21,280,37,13,33,046,44,15,65,054,44,18,51,295,46*73
2017-12-01 12:08:12 1512148092.752134: $GPGSV,3,2,12,20,55,067,45,21,76,285,44,24,30,141,44,27,14,316,37*75
2017-12-01 12:08:12 1512148092.752201: $GPGSV,3,3,12,29,14,190,29,05,06,084,20,04,03,135,00,138,38,213,47*48
2017-12-01 12:08:12 1512148092.865427: $GPZDA,170813.00,01,12,2017,00,00*6C
2017-12-01 12:08:12 1512148092.865603: $GPGGA,170813,3946.9614,N,08404.9869,W,1,10,0.80,283.78,M,-33.324,M,,*7F
2017-12-01 12:08:12 1512148092.865672: $GPRMC,170813,A,3946.9614,N,08404.9869,W,0.0000,0.000,011217,,*33
2017-12-01 12:08:12 1512148092.865734: $GPGSA,A,3,10,13,15,18,20,21,24,27,29,138,,,2.0,0.8,1.5*01
2017-12-01 12:08:13 1512148093.415011: $GPZDA,170814.00,01,12,2017,00,00*6B
2017-12-01 12:08:13 1512148093.415179: $GPGGA,170814,3946.9614,N,08404.9869,W,1,10,0.80,283.78,M,-33.324,M,,*78
2017-12-01 12:08:13 1512148093.415245: $GPRMC,170814,A,3946.9614,N,08404.9869,W,0.0000,0.000,011217,,*34
2017-12-01 12:08:13 1512148093.415306: $GPGSA,A,3,10,13,15,18,20,21,24,27,29,138,,,2.0,0.8,1.5*01
2017-12-01 12:08:14 1512148094.415366: $GPZDA,170815.00,01,12,2017,00,00*6A
2017-12-01 12:08:14 1512148094.415536: $GPGGA,170815,3946.9610,N,08404.9869,W,1,10,0.80,283.14,M,-33.324,M,,*77
2017-12-01 12:08:14 1512148094.415603: $GPRMC,170815,A,3946.9610,N,08404.9869,W,0.0000,0.000,011217,,*31
2017-12-01 12:08:14 1512148094.415664: $GPGSA,A,3,10,13,15,18,20,21,24,27,29,138,,,2.0,0.8,1.5*01
