2018-01-12 05:07:52 1515751672.669813: {"class":"VERSION","release":"3.16","rev":"3.16-4","proto_major":3,"proto_minor":11}
2018-01-12 05:07:52 1515751672.670231: {"class":"DEVICES","devices":[{"class":"DEVICE","path":"/dev/ttyUSB0","driver":"SiRF","subtype":"9\u0006GSD4e_4.1.2-P1_RPATCH.05-F-GPS-4R-1510281 11/03/2015 307","activated":"2018-01-12T10:07:52.321Z","flags":1,"native":1,"bps":4800,"parity":"N","stopbits":1,"cycle":1.00}]}
2018-01-12 05:07:52 1515751672.670350: {"class":"WATCH","enable":true,"json":false,"nmea":true,"raw":0,"scaled":false,"timing":false,"split24":false,"pps":false}
2018-01-12 05:07:52 1515751672.930790: $GPZDA,100753.62,12,01,2018,00,00*6B
2018-01-12 05:07:52 1515751672.930967: $GPGGA,100753,3946.9652,N,08404.9793,W,1,10,2.00,291.05,M,-33.324,M,,*78
2018-01-12 05:07:52 1515751672.931034: $GPRMC,100753,A,3946.9652,N,08404.9793,W,0.7246,344.668,120118,,*34
2018-01-12 05:07:52 1515751672.931097: $GPGSA,A,3,2,5,12,20,25,29,6,9,19,138,,,2.4,2.0,2.1*02
2018-01-12 05:07:52 1515751672.931156: $GPGBS,100753,11.98,M,14.47,M,47.88,M*0A
2018-01-12 05:07:54 1515751674.012000: $GPZDA,100754.30,12,01,2018,00,00*6B
2018-01-12 05:07:54 1515751674.012185: $GPGGA,100754,3946.9651,N,08404.9786,W,1,10,2.00,291.13,M,-33.324,M,,*7F
2018-01-12 05:07:54 1515751674.012253: $GPRMC,100754,A,3946.9651,N,08404.9786,W,0.3006,62.539,120118,,*06
2018-01-12 05:07:54 1515751674.012316: $GPGSA,A,3,2,5,12,20,25,29,6,9,19,138,,,2.4,2.0,2.1*02
2018-01-12 05:07:55 1515751675.154633: $GPGSV,3,1,12,02,65,040,45,05,73,205,48,12,37,226,51,20,18,226,40*7A
2018-01-12 05:07:55 1515751675.154815: $GPGSV,3,2,12,25,35,276,38,29,29,313,48,06,31,072,10,09,16,048,10*7C
2018-01-12 05:07:55 1515751675.154881: $GPGSV,3,3,12,13,06,163,10,19,15,129,11,04,68,324,00,138,38,213,26*47
2018-01-12 05:07:55 1515751675.269676: $GPZDA,100755.00,12,01,2018,00,00*69
2018-01-12 05:07:55 1515751675.269862: $GPGGA,100755,3946.9648,N,08404.9787,W,1,07,2.00,291.89,M,-33.324,M,,*72
2018-01-12 05:07:55 1515751675.269955: $GPRMC,100755,A,3946.9648,N,08404.9787,W,0.0000,0.000,120118,,*30
2018-01-12 05:07:55 1515751675.270018: $GPGSA,A,3,2,5,12,20,25,29,138,,,,,,2.4,2.0,2.1*05
2018-01-12 05:07:55 1515751675.719450: $GPZDA,100756.00,12,01,2018,00,00*6A
2018-01-12 05:07:55 1515751675.719618: $GPGGA,100756,3946.9648,N,08404.9780,W,1,07,0.80,291.97,M,-33.324,M,,*73
2018-01-12 05:07:55 1515751675.719684: $GPRMC,100756,A,3946.9648,N,08404.9780,W,0.3155,129.994,120118,,*38
2018-01-12 05:07:55 1515751675.719745: $GPGSA,A,3,2,5,12,20,25,29,138,,,,,,2.4,0.8,2.1*0F
2018-01-12 05:07:56 1515751676.419780: $GPZDA,100757.00,12,01,2018,00,00*6B
2018-01-12 05:07:56 1515751676.419969: $GPGGA,100757,3946.9648,N,08404.9780,W,1,07,0.80,293.38,M,-33.324,M,,*75
2018-01-12 05:07:56 1515751676.420053: $GPRMC,100757,A,3946.9648,N,08404.9780,W,0.0000,0.000,120118,,*35
2018-01-12 05:07:56 1515751676.420117: $GPGSA,A,3,2,5,12,20,25,29,138,,,,,,2.4,0.8,2.1*0F
2018-01-12 05:07:57 1515751677.756201: $GPGSV,3,1,12,02,65,040,45,05,73,205,49,12,37,226,50,20,18,226,40*7A
2018-01-12 05:07:57 1515751677.756380: $GPGSV,3,2,12,25,35,276,41,29,29,313,48,06,31,072,26,09,16,048,24*70
2018-01-12 05:07:57 1515751677.756446: $GPGSV,3,3,12,13,06,163,28,19,15,129,24,04,68,324,00,138,38,213,47*4D
2018-01-12 05:07:57 1515751677.869633: $GPZDA,100758.00,12,01,2018,00,00*64
2018-01-12 05:07:57 1515751677.869802: $GPGGA,100758,3946.9648,N,08404.9780,W,1,11,0.80,293.38,M,-33.324,M,,*7D
2018-01-12 05:07:57 1515751677.869869: $GPRMC,100758,A,3946.9648,N,08404.9780,W,0.0000,0.000,120118,,*3A
2018-01-12 05:07:57 1515751677.869951: $GPGSA,A,3,2,5,12,20,25,29,6,9,13,19,138,,2.4,0.8,2.1*0A
2018-01-12 05:07:58 1515751678.419280: $GPZDA,100759.00,12,01,2018,00,00*65
2018-01-12 05:07:58 1515751678.419451: $GPGGA,100759,3946.9648,N,08404.9773,W,1,11,0.80,293.46,M,-33.324,M,,*79
2018-01-12 05:07:58 1515751678.419516: $GPRMC,100759,A,3946.9648,N,08404.9773,W,0.0000,0.000,120118,,*37
2018-01-12 05:07:58 1515751678.419576: $GPGSA,A,3,2,5,12,20,25,29,6,9,13,19,138,,2.4,0.8,2.1*0A
2018-01-12 05:07:59 1515751679.426273: $GPZDA,100800.00,12,01,2018,00,00*66
2018-01-12 05:07:59 1515751679.426534: $GPGGA,100800,3946.9645,N,08404.9774,W,1,11,0.80,294.22,M,-33.324,M,,*75
2018-01-12 05:07:59 1515751679.426609: $GPRMC,100800,A,3946.9645,N,08404.9774,W,0.0000,0.000,120118,,*3E
2018-01-12 05:07:59 1515751679.426670: $GPGSA,A,3,2,5,12,20,25,29,6,9,13,19,138,,2.4,0.8,2.1*0A
2018-01-12 05:07:59 1515751679.426728: $GPGBS,100800,11.98,M,14.47,M,47.88,M*03
2018-01-12 05:08:00 1515751680.757087: $GPGSV,3,1,12,02,65,040,45,05,73,205,49,12,37,226,49,20,18,226,40*72
2018-01-12 05:08:00 1515751680.757268: $GPGSV,3,2,12,25,35,276,42,29,29,313,48,06,31,072,27,09,16,048,26*70
2018-01-12 05:08:00 1515751680.757348: $GPGSV,3,3,12,13,06,163,28,19,15,129,24,04,68,324,00,138,38,213,48*42
2018-01-12 05:08:00 1515751680.870752: $GPZDA,100801.00,12,01,2018,00,00*67
2018-01-12 05:08:00 1515751680.870934: $GPGGA,100801,3946.9644,N,08404.9767,W,1,11,0.80,294.30,M,-33.324,M,,*74
2018-01-12 05:08:00 1515751680.871001: $GPRMC,100801,A,3946.9644,N,08404.9767,W,0.0000,0.000,120118,,*3C
2018-01-12 05:08:00 1515751680.871081: $GPGSA,A,3,2,5,12,20,25,29,6,9,13,19,138,,2.4,0.8,2.1*0A
2018-01-12 05:08:01 1515751681.420402: $GPZDA,100802.00,12,01,2018,00,00*64
2018-01-12 05:08:01 1515751681.420568: $GPGGA,100802,3946.9644,N,08404.9767,W,1,11,0.80,294.30,M,-33.324,M,,*77
2018-01-12 05:08:01 1515751681.420634: $GPRMC,100802,A,3946.9644,N,08404.9767,W,0.0000,0.000,120118,,*3F
2018-01-12 05:08:01 1515751681.420694: $GPGSA,A,3,2,5,12,20,25,29,6,9,13,19,138,,2.4,0.8,2.1*0A
2018-01-12 05:08:02 1515751682.420736: $GPZDA,100803.00,12,01,2018,00,00*65
2018-01-12 05:08:02 1515751682.420926: $GPGGA,100803,3946.9644,N,08404.9760,W,1,11,0.80,294.38,M,-33.324,M,,*79
2018-01-12 05:08:02 1515751682.420993: $GPRMC,100803,A,3946.9644,N,08404.9760,W,0.0000,0.000,120118,,*39
2018-01-12 05:08:02 1515751682.421073: $GPGSA,A,3,2,5,12,20,25,29,6,9,13,19,138,,2.4,0.8,2.1*0A
2018-01-12 05:08:03 1515751683.753564: $GPGSV,3,1,12,02,65,040,09,05,73,205,10,12,37,226,10,20,18,226,08*76
2018-01-12 05:08:03 1515751683.753744: $GPGSV,3,2,12,25,35,276,08,29,29,313,09,06,31,072,05,09,16,048,05*7A
2018-01-12 05:08:03 1515751683.753810: $GPGSV,3,3,12,13,06,163,05,19,15,129,05,04,68,324,00,138,38,213,11*42
2018-01-12 05:08:03 1515751683.867022: $GPZDA,100804.00,12,01,2018,00,00*62
2018-01-12 05:08:03 1515751683.867182: $GPGGA,100804,3946.9645,N,08404.9761,W,1,11,0.80,295.78,M,-33.324,M,,*7B
2018-01-12 05:08:03 1515751683.867249: $GPRMC,100804,A,3946.9645,N,08404.9761,W,0.0000,0.000,120118,,*3E
2018-01-12 05:08:03 1515751683.867310: $GPGSA,A,3,2,5,12,20,25,29,6,9,13,19,138,,2.4,0.8,2.1*0A
2018-01-12 05:08:04 1515751684.424135: $GPZDA,100805.00,12,01,2018,00,00*63
2018-01-12 05:08:04 1515751684.424434: $GPGGA,100805,3946.9645,N,08404.9761,W,1,11,0.80,295.78,M,-33.324,M,,*7A
2018-01-12 05:08:04 1515751684.424578: $GPRMC,100805,A,3946.9645,N,08404.9761,W,0.2422,93.794,120118,,*09
2018-01-12 05:08:04 1515751684.424646: $GPGSA,A,3,2,5,12,20,25,29,6,9,13,19,138,,2.4,0.8,2.1*0A
2018-01-12 05:08:05 1515751685.418763: $GPZDA,100806.00,12,01,2018,00,00*60
2018-01-12 05:08:05 1515751685.418955: $GPGGA,100806,3946.9645,N,08404.9761,W,1,11,0.80,295.78,M,-33.324,M,,*79
2018-01-12 05:08:05 1515751685.419038: $GPRMC,100806,A,3946.9645,N,08404.9761,W,0.0000,0.000,120118,,*3C
2018-01-12 05:08:05 1515751685.419099: $GPGSA,A,3,2,5,12,20,25,29,6,9,13,19,138,,2.4,0.8,2.1*0A
2018-01-12 05:08:06 1515751686.756921: $GPGSV,3,1,12,02,65,040,44,05,73,205,50,12,37,226,48,20,18,226,40*7A
2018-01-12 05:08:06 1515751686.757113: $GPGSV,3,2,12,25,35,276,42,29,29,313,48,06,31,072,28,09,16,048,28*71
2018-01-12 05:08:06 1515751686.757180: $GPGSV,3,3,12,13,06,163,00,19,15,129,21,04,68,324,00,138,38,213,47*42
2018-01-12 05:08:06 1515751686.870372: $GPZDA,100807.00,12,01,2018,00,00*61
2018-01-12 05:08:06 1515751686.870526: $GPGGA,100807,3946.9645,N,08404.9761,W,1,10,0.80,295.78,M,-33.324,M,,*79
2018-01-12 05:08:06 1515751686.870591: $GPRMC,100807,A,3946.9645,N,08404.9761,W,0.0000,0.000,120118,,*3D
2018-01-12 05:08:06 1515751686.870652: $GPGSA,A,3,2,5,12,20,25,29,6,9,19,138,,,2.4,0.8,2.1*08
2018-01-12 05:08:07 1515751687.494739: $GPRMC,100808,V,3946.9645,N,08404.9755,W,0.0000,0.000,120118,,*22
2018-01-12 05:08:07 1515751687.494932: $GPGSA,A,1,2,5,12,20,25,29,6,9,19,138,,,,,,*05
2018-01-12 05:08:08 1515751688.423247: $GPZDA,100809.00,12,01,2018,00,00*6F
2018-01-12 05:08:08 1515751688.423417: $GPGGA,100809,3946.9645,N,08404.9755,W,1,10,0.80,297.27,M,-33.324,M,,*78
2018-01-12 05:08:08 1515751688.423483: $GPRMC,100809,A,3946.9645,N,08404.9755,W,0.0000,0.000,120118,,*34
2018-01-12 05:08:08 1515751688.423544: $GPGSA,A,3,2,5,12,20,25,29,6,9,19,138,,,2.4,0.8,2.1*08
2018-01-12 05:08:09 1515751689.757281: $GPGSV,3,1,12,02,65,040,45,05,73,205,50,12,37,226,48,20,18,226,40*7B
2018-01-12 05:08:09 1515751689.757474: $GPGSV,3,2,12,25,35,276,43,29,29,313,48,06,31,072,27,09,16,048,28*7F
2018-01-12 05:08:09 1515751689.757563: $GPGSV,3,3,12,13,06,163,28,19,15,129,11,04,68,324,00,138,38,213,47*4B
2018-01-12 05:08:09 1515751689.870869: $GPZDA,100810.00,12,01,2018,00,00*67
2018-01-12 05:08:09 1515751689.871095: $GPGGA,100810,3946.9643,N,08404.9750,W,2,11,1.00,300.92,M,-33.324,M,,*79
2018-01-12 05:08:09 1515751689.871164: $GPRMC,100810,A,3946.9643,N,08404.9750,W,0.0000,0.000,120118,,*3F
2018-01-12 05:08:09 1515751689.871225: $GPGSA,A,3,2,5,12,20,25,29,6,9,13,19,138,,2.4,1.0,2.1*03
2018-01-12 05:08:10 1515751690.423007: $GPZDA,100811.00,12,01,2018,00,00*66
2018-01-12 05:08:10 1515751690.423196: $GPGGA,100811,3946.9643,N,08404.9750,W,2,11,0.80,300.92,M,-33.324,M,,*71
2018-01-12 05:08:10 1515751690.423263: $GPRMC,100811,A,3946.9643,N,08404.9750,W,0.0000,0.000,120118,,*3E
2018-01-12 05:08:10 1515751690.423325: $GPGSA,A,3,2,5,12,20,25,29,6,9,13,19,138,,2.4,0.8,2.1*0A
2018-01-12 05:08:11 1515751691.423581: $GPZDA,100812.00,12,01,2018,00,00*65
2018-01-12 05:08:11 1515751691.423757: $GPGGA,100812,3946.9643,N,08404.9751,W,2,11,0.80,302.32,M,-33.324,M,,*7B
2018-01-12 05:08:11 1515751691.423850: $GPRMC,100812,A,3946.9643,N,08404.9751,W,0.0000,0.000,120118,,*3C
2018-01-12 05:08:11 1515751691.423914: $GPGSA,A,3,2,5,12,20,25,29,6,9,13,19,138,,2.4,0.8,2.1*0A
2018-01-12 05:08:11 1515751691.423991: $GPGBS,100812,3.00,M,3.62,M,11.97,M*0E
