2017-12-29 10:40:06 1514562006.017939: {"class":"VERSION","release":"3.16","rev":"3.16-4","proto_major":3,"proto_minor":11}
2017-12-29 10:40:06 1514562006.018315: {"class":"DEVICES","devices":[{"class":"DEVICE","path":"/dev/ttyUSB0","driver":"SiRF","subtype":"9\u0006GSD4e_4.1.2-P1_RPATCH.05-F-GPS-4R-1510281 11/03/2015 307","activated":"2017-12-29T15:40:05.773Z","flags":1,"native":1,"bps":4800,"parity":"N","stopbits":1,"cycle":1.00}]}
2017-12-29 10:40:06 1514562006.018427: {"class":"WATCH","enable":true,"json":false,"nmea":true,"raw":0,"scaled":false,"timing":false,"split24":false,"pps":false}
2017-12-29 10:40:06 1514562006.425542: $GPZDA,154007.00,29,12,2017,00,00*6D
2017-12-29 10:40:06 1514562006.425709: $GPGGA,154007,3946.9655,N,08404.9780,W,2,11,0.80,331.02,M,-33.324,M,,*7E
2017-12-29 10:40:06 1514562006.425775: $GPRMC,154007,A,3946.9655,N,08404.9780,W,0.0000,0.000,291217,,*3F
2017-12-29 10:40:06 1514562006.425857: $GPGSA,A,3,10,13,15,18,20,21,24,27,29,32,138,,1.7,0.8,1.3*02
2017-12-29 10:40:07 1514562007.762209: $GPGSV,3,1,11,10,29,288,43,13,22,045,45,15,53,049,51,18,60,310,43*77
2017-12-29 10:40:07 1514562007.762373: $GPGSV,3,2,11,20,47,079,48,21,78,228,47,24,40,132,49,27,18,306,34*7D
2017-12-29 10:40:07 1514562007.762441: $GPGSV,3,3,11,29,04,187,33,32,08,229,30,138,38,213,44*7A
2017-12-29 10:40:07 1514562007.874621: $GPZDA,154008.00,29,12,2017,00,00*62
2017-12-29 10:40:07 1514562007.874761: $GPGGA,154008,3946.9655,N,08404.9780,W,2,11,0.80,331.02,M,-33.324,M,,*71
2017-12-29 10:40:07 1514562007.874848: $GPRMC,154008,A,3946.9655,N,08404.9780,W,0.0000,0.000,291217,,*30
2017-12-29 10:40:07 1514562007.874911: $GPGSA,A,3,10,13,15,18,20,21,24,27,29,32,138,,1.7,0.8,1.3*02
2017-12-29 10:40:08 1514562008.460575: $GPZDA,154009.00,29,12,2017,00,00*63
2017-12-29 10:40:08 1514562008.460738: $GPGGA,154009,3946.9655,N,08404.9780,W,2,11,0.80,331.02,M,-33.324,M,,*70
2017-12-29 10:40:08 1514562008.460825: $GPRMC,154009,A,3946.9655,N,08404.9780,W,0.0000,0.000,291217,,*31
2017-12-29 10:40:08 1514562008.460888: $GPGSA,A,3,10,13,15,18,20,21,24,27,29,32,138,,1.7,0.8,1.3*02
2017-12-29 10:40:09 1514562009.458911: $GPZDA,154010.00,29,12,2017,00,00*6B
2017-12-29 10:40:09 1514562009.459094: $GPGGA,154010,3946.9655,N,08404.9780,W,2,11,0.80,331.02,M,-33.324,M,,*78
2017-12-29 10:40:09 1514562009.459162: $GPRMC,154010,A,3946.9655,N,08404.9780,W,0.0000,0.000,291217,,*39
2017-12-29 10:40:09 1514562009.459223: $GPGSA,A,3,10,13,15,18,20,21,24,27,29,32,138,,1.7,0.8,1.3*02
2017-12-29 10:40:10 1514562010.760527: $GPGSV,3,1,11,10,29,288,43,13,22,045,45,15,53,049,51,18,60,310,43*77
2017-12-29 10:40:10 1514562010.760681: $GPGSV,3,2,11,20,47,079,48,21,78,228,46,24,40,132,48,27,18,306,34*7D
2017-12-29 10:40:10 1514562010.760748: $GPGSV,3,3,11,29,04,187,32,32,08,229,31,138,38,213,46*78
2017-12-29 10:40:10 1514562010.874312: $GPZDA,154011.00,29,12,2017,00,00*6A
2017-12-29 10:40:10 1514562010.874458: $GPGGA,154011,3946.9655,N,08404.9780,W,2,11,0.80,331.02,M,-33.324,M,,*79
2017-12-29 10:40:10 1514562010.874523: $GPRMC,154011,A,3946.9655,N,08404.9780,W,0.0000,0.000,291217,,*38
2017-12-29 10:40:10 1514562010.874584: $GPGSA,A,3,10,13,15,18,20,21,24,27,29,32,138,,1.7,0.8,1.3*02
2017-12-29 10:40:11 1514562011.499619: $GPZDA,154012.00,29,12,2017,00,00*69
2017-12-29 10:40:11 1514562011.499799: $GPGGA,154012,3946.9655,N,08404.9780,W,2,11,0.80,331.02,M,-33.324,M,,*7A
2017-12-29 10:40:11 1514562011.499868: $GPRMC,154012,A,3946.9655,N,08404.9780,W,0.0000,0.000,291217,,*3B
2017-12-29 10:40:11 1514562011.499945: $GPGSA,A,3,10,13,15,18,20,21,24,27,29,32,138,,1.7,0.8,1.3*02
2017-12-29 10:40:12 1514562012.463029: $GPZDA,154013.00,29,12,2017,00,00*68
2017-12-29 10:40:12 1514562012.463188: $GPGGA,154013,3946.9655,N,08404.9780,W,2,11,0.80,331.02,M,-33.324,M,,*7B
2017-12-29 10:40:12 1514562012.463255: $GPRMC,154013,A,3946.9655,N,08404.9780,W,0.0000,0.000,291217,,*3A
2017-12-29 10:40:12 1514562012.463316: $GPGSA,A,3,10,13,15,18,20,21,24,27,29,32,138,,1.7,0.8,1.3*02
2017-12-29 10:40:13 1514562013.760924: $GPGSV,3,1,11,10,29,288,43,13,22,045,44,15,53,049,51,18,60,310,43*76
2017-12-29 10:40:13 1514562013.761187: $GPGSV,3,2,11,20,47,079,48,21,78,228,46,24,40,132,49,27,18,306,34*7C
2017-12-29 10:40:13 1514562013.761259: $GPGSV,3,3,11,29,04,187,32,32,08,229,30,138,38,213,45*7A
2017-12-29 10:40:13 1514562013.874595: $GPZDA,154014.00,29,12,2017,00,00*6F
2017-12-29 10:40:13 1514562013.874731: $GPGGA,154014,3946.9655,N,08404.9780,W,2,11,0.80,331.02,M,-33.324,M,,*7C
2017-12-29 10:40:13 1514562013.874817: $GPRMC,154014,A,3946.9655,N,08404.9780,W,0.0000,0.000,291217,,*3D
2017-12-29 10:40:13 1514562013.874879: $GPGSA,A,3,10,13,15,18,20,21,24,27,29,32,138,,1.7,0.8,1.3*02
2017-12-29 10:40:14 1514562014.459242: $GPZDA,154015.00,29,12,2017,00,00*6E
2017-12-29 10:40:14 1514562014.459401: $GPGGA,154015,3946.9655,N,08404.9780,W,2,11,0.80,331.02,M,-33.324,M,,*7D
2017-12-29 10:40:14 1514562014.459467: $GPRMC,154015,A,3946.9655,N,08404.9780,W,0.0000,0.000,291217,,*3C
2017-12-29 10:40:14 1514562014.459529: $GPGSA,A,3,10,13,15,18,20,21,24,27,29,32,138,,1.7,0.8,1.3*02
2017-12-29 10:40:15 1514562015.426349: $GPZDA,154016.00,29,12,2017,00,00*6D
2017-12-29 10:40:15 1514562015.426499: $GPGGA,154016,3946.9655,N,08404.9780,W,2,11,0.80,331.02,M,-33.324,M,,*7E
2017-12-29 10:40:15 1514562015.426564: $GPRMC,154016,A,3946.9655,N,08404.9780,W,0.0000,0.000,291217,,*3F
2017-12-29 10:40:15 1514562015.426625: $GPGSA,A,3,10,13,15,18,20,21,24,27,29,32,138,,1.7,0.8,1.3*02
