2017-11-15 18:34:31 1510788871.487445: {"class":"VERSION","release":"3.17","rev":"3.17","proto_major":3,"proto_minor":12}
2017-11-15 18:34:31 1510788871.487881: {"class":"DEVICES","devices":[{"class":"DEVICE","path":"/dev/ttyUSB0","driver":"SiRF","subtype":"9\u0006GSD4e_4.1.2-P1_RPATCH.05-F-GPS-4R-1510281 11/03/2015 307","activated":"2017-11-15T23:34:31.475Z","flags":1,"native":1,"bps":4800,"parity":"N","stopbits":1,"cycle":1.00}]}
2017-11-15 18:34:31 1510788871.488000: {"class":"WATCH","enable":true,"json":false,"nmea":true,"raw":0,"scaled":false,"timing":false,"split24":false,"pps":false}
2017-11-15 18:34:32 1510788872.363448: $GPZDA,233431.00,15,11,2017,00,00*62
2017-11-15 18:34:32 1510788872.363620: $GPGGA,233431,3946.9549,N,08404.9521,W,1,06,3.00,293.54,M,-33.324,M,,*7E
2017-11-15 18:34:32 1510788872.363686: $GPRMC,233431,A,3946.9549,N,08404.9521,W,0.5951,58.684,151117,,*08
2017-11-15 18:34:32 1510788872.363743: $GPGSA,A,3,25,14,22,31,32,10,,,,,,,3.4,3.0,2.9*3D
2017-11-15 18:34:33 1510788873.664207: $GPGSV,3,1,10,25,35,055,22,14,69,042,17,22,40,301,12,12,06,031,09*7A
2017-11-15 18:34:33 1510788873.664376: $GPGSV,3,2,10,31,78,283,24,32,55,079,21,26,26,178,00,10,21,157,16*7F
2017-11-15 18:34:33 1510788873.664436: $GPGSV,3,3,10,03,21,315,00,01,18,274,00*76
2017-11-15 18:34:33 1510788873.777903: $GPZDA,233432.00,15,11,2017,00,00*61
2017-11-15 18:34:33 1510788873.778045: $GPGGA,233432,3946.9549,N,08404.9521,W,1,06,3.00,293.54,M,-33.324,M,,*7D
2017-11-15 18:34:33 1510788873.778105: $GPRMC,233432,A,3946.9549,N,08404.9521,W,0.4179,148.778,151117,,*3A
2017-11-15 18:34:33 1510788873.778161: $GPGSA,A,3,25,14,22,31,32,10,,,,,,,3.4,3.0,2.9*3D
2017-11-15 18:34:34 1510788874.327164: $GPZDA,233433.00,15,11,2017,00,00*60
2017-11-15 18:34:34 1510788874.327323: $GPGGA,233433,3946.9549,N,08404.9514,W,1,06,3.00,293.62,M,-33.324,M,,*7F
2017-11-15 18:34:34 1510788874.327383: $GPRMC,233433,A,3946.9549,N,08404.9514,W,1.3305,117.203,151117,,*31
2017-11-15 18:34:34 1510788874.327438: $GPGSA,A,3,25,14,22,31,32,10,,,,,,,3.4,3.0,2.9*3D
2017-11-15 18:34:35 1510788875.361702: $GPZDA,233434.00,15,11,2017,00,00*67
2017-11-15 18:34:35 1510788875.361890: $GPGGA,233434,3946.9544,N,08404.9507,W,1,06,3.00,293.06,M,-33.324,M,,*75
2017-11-15 18:34:35 1510788875.361953: $GPRMC,233434,A,3946.9544,N,08404.9507,W,0.8011,119.090,151117,,*33
2017-11-15 18:34:35 1510788875.362010: $GPGSA,A,3,25,14,22,31,32,10,,,,,,,3.4,3.0,2.9*3D
2017-11-15 18:34:36 1510788876.661955: $GPGSV,3,1,10,25,35,055,22,14,69,042,17,22,40,301,11,12,06,031,15*74
2017-11-15 18:34:36 1510788876.666878: $GPGSV,3,2,10,31,78,283,24,32,55,079,21,03,21,315,07,10,21,157,16*71
2017-11-15 18:34:36 1510788876.667001: $GPGSV,3,3,10,26,26,178,10,01,18,274,00*7E
2017-11-15 18:34:36 1510788876.775553: $GPZDA,233435.00,15,11,2017,00,00*66
2017-11-15 18:34:36 1510788876.775740: $GPGGA,233435,3946.9544,N,08404.9501,W,1,06,3.00,293.14,M,-33.324,M,,*71
2017-11-15 18:34:36 1510788876.775834: $GPRMC,233435,A,3946.9544,N,08404.9501,W,0.7267,93.794,151117,,*08
2017-11-15 18:34:36 1510788876.775893: $GPGSA,A,3,25,14,22,31,32,10,,,,,,,3.4,3.0,2.9*3D
2017-11-15 18:34:37 1510788877.362693: $GPZDA,233436.00,15,11,2017,00,00*65
2017-11-15 18:34:37 1510788877.362870: $GPGGA,233436,3946.9544,N,08404.9501,W,1,06,3.00,293.14,M,-33.324,M,,*72
2017-11-15 18:34:37 1510788877.362933: $GPRMC,233436,A,3946.9544,N,08404.9501,W,1.1902,58.684,151117,,*03
2017-11-15 18:34:37 1510788877.362992: $GPGSA,A,3,25,14,22,31,32,10,,,,,,,3.4,3.0,2.9*3D
2017-11-15 18:34:38 1510788878.328561: $GPZDA,233437.00,15,11,2017,00,00*64
2017-11-15 18:34:38 1510788878.328843: $GPGGA,233437,3946.9547,N,08404.9493,W,1,06,3.00,292.46,M,-33.324,M,,*7C
2017-11-15 18:34:38 1510788878.328929: $GPRMC,233437,A,3946.9547,N,08404.9493,W,1.4167,47.342,151117,,*04
2017-11-15 18:34:38 1510788878.328988: $GPGSA,A,3,25,14,22,31,32,10,,,,,,,3.4,3.0,2.9*3D
2017-11-15 18:34:39 1510788879.696556: $GPGSV,3,1,10,25,35,055,22,14,69,042,18,22,40,301,09,03,21,315,00*76
2017-11-15 18:34:39 1510788879.696808: $GPGSV,3,2,10,31,78,283,24,32,55,079,20,01,18,274,00,10,21,157,16*79
2017-11-15 18:34:39 1510788879.696929: $GPGSV,3,3,10,26,26,178,14,12,06,031,00*74
2017-11-15 18:34:39 1510788879.809928: $GPZDA,233438.00,15,11,2017,00,00*6B
2017-11-15 18:34:39 1510788879.810090: $GPGGA,233438,3946.9551,N,08404.9486,W,1,06,3.00,293.18,M,-33.324,M,,*7A
2017-11-15 18:34:39 1510788879.810151: $GPRMC,233438,A,3946.9551,N,08404.9486,W,1.6828,39.347,151117,,*04
2017-11-15 18:34:39 1510788879.810207: $GPGSA,A,3,25,14,22,31,32,10,,,,,,,3.4,3.0,2.9*3D
2017-11-15 18:34:40 1510788880.370803: $GPZDA,233439.00,15,11,2017,00,00*6A
2017-11-15 18:34:40 1510788880.370965: $GPGGA,233439,3946.9554,N,08404.9478,W,1,06,3.00,292.49,M,-33.324,M,,*7A
2017-11-15 18:34:40 1510788880.371027: $GPRMC,233439,A,3946.9554,N,08404.9478,W,1.5933,53.668,151117,,*0D
2017-11-15 18:34:40 1510788880.371084: $GPGSA,A,3,25,14,22,31,32,10,,,,,,,3.4,3.0,2.9*3D
2017-11-15 18:34:41 1510788881.362692: $GPZDA,233440.00,15,11,2017,00,00*64
2017-11-15 18:34:41 1510788881.362892: $GPGGA,233440,3946.9554,N,08404.9471,W,1,06,3.00,292.57,M,-33.324,M,,*72
2017-11-15 18:34:41 1510788881.362956: $GPRMC,233440,A,3946.9554,N,08404.9471,W,1.3954,64.414,151117,,*00
2017-11-15 18:34:41 1510788881.363012: $GPGSA,A,3,25,14,22,31,32,10,,,,,,,3.4,3.0,2.9*3D
2017-11-15 18:34:42 1510788882.698304: $GPGSV,3,1,10,25,35,055,22,14,69,042,18,22,40,301,09,01,18,274,12*7B
2017-11-15 18:34:42 1510788882.698472: $GPGSV,3,2,10,31,78,283,24,32,55,079,20,03,21,315,00,10,21,157,16*77
2017-11-15 18:34:42 1510788882.698531: $GPGSV,3,3,10,26,26,178,13,12,06,031,00*73
2017-11-15 18:34:42 1510788882.811705: $GPZDA,233441.00,15,11,2017,00,00*65
2017-11-15 18:34:42 1510788882.811889: $GPGGA,233441,3946.9553,N,08404.9464,W,1,07,3.00,292.65,M,-33.324,M,,*70
2017-11-15 18:34:42 1510788882.811950: $GPRMC,233441,A,3946.9553,N,08404.9464,W,1.4167,47.342,151117,,*08
2017-11-15 18:34:42 1510788882.812006: $GPGSA,A,3,25,14,22,31,32,10,26,,,,,,3.4,3.0,2.9*39
2017-11-15 18:34:43 1510788883.329278: $GPZDA,233442.00,15,11,2017,00,00*66
2017-11-15 18:34:43 1510788883.329459: $GPGGA,233442,3946.9553,N,08404.9464,W,1,07,1.20,292.65,M,-33.324,M,,*73
2017-11-15 18:34:43 1510788883.329522: $GPRMC,233442,A,3946.9553,N,08404.9464,W,0.5951,58.684,151117,,*07
2017-11-15 18:34:43 1510788883.329581: $GPGSA,A,3,25,14,22,31,32,10,26,,,,,,3.4,1.2,2.9*39
2017-11-15 18:34:44 1510788884.363626: $GPZDA,233443.00,15,11,2017,00,00*67
2017-11-15 18:34:44 1510788884.363793: $GPGGA,233443,3946.9557,N,08404.9464,W,1,07,1.20,291.89,M,-33.324,M,,*77
2017-11-15 18:34:44 1510788884.363855: $GPRMC,233443,A,3946.9557,N,08404.9464,W,0.5287,2.716,151117,,*37
2017-11-15 18:34:44 1510788884.363910: $GPGSA,A,3,25,14,22,31,32,10,26,,,,,,3.4,1.2,2.9*39
2017-11-15 18:34:45 1510788885.699132: $GPGSV,3,1,11,25,35,055,23,14,69,042,17,22,40,301,10,01,18,274,11*7F
2017-11-15 18:34:45 1510788885.699301: $GPGSV,3,2,11,31,78,283,23,32,55,079,19,03,21,315,00,10,21,157,16*7B
2017-11-15 18:34:45 1510788885.699362: $GPGSV,3,3,11,26,26,178,13,12,06,031,00,138,38,213,00*73
2017-11-15 18:34:45 1510788885.811498: $GPZDA,233444.00,15,11,2017,00,00*60
2017-11-15 18:34:45 1510788885.811662: $GPGGA,233444,3946.9557,N,08404.9464,W,1,08,1.20,291.89,M,-33.324,M,,*7F
2017-11-15 18:34:45 1510788885.811725: $GPRMC,233444,A,3946.9557,N,08404.9464,W,0.7246,344.668,151117,,*36
2017-11-15 18:34:45 1510788885.811782: $GPGSA,A,3,25,14,22,1,31,32,10,26,,,,,3.4,1.2,2.9*08
2017-11-15 18:34:46 1510788886.438200: $GPZDA,233445.00,15,11,2017,00,00*61
2017-11-15 18:34:46 1510788886.438358: $GPGGA,233445,3946.9557,N,08404.9464,W,1,08,1.20,291.89,M,-33.324,M,,*7E
2017-11-15 18:34:46 1510788886.438418: $GPRMC,233445,A,3946.9557,N,08404.9464,W,0.7238,320.710,151117,,*32
2017-11-15 18:34:46 1510788886.438474: $GPGSA,A,3,25,14,22,1,31,32,10,26,,,,,3.4,1.2,2.9*08
