2017-12-31 18:49:11 1514764151.807188: {"class":"VERSION","release":"3.16","rev":"3.16-4","proto_major":3,"proto_minor":11}
2017-12-31 18:49:11 1514764151.807547: {"class":"DEVICES","devices":[{"class":"DEVICE","path":"/dev/ttyUSB0","driver":"SiRF","activated":"2017-12-31T23:49:11.534Z","flags":1,"native":1,"bps":4800,"parity":"N","stopbits":1,"cycle":1.00}]}
2017-12-31 18:49:11 1514764151.807645: {"class":"WATCH","enable":true,"json":false,"nmea":true,"raw":0,"scaled":false,"timing":false,"split24":false,"pps":false}
2017-12-31 18:49:12 1514764152.689527: $GPGSV,3,1,11,22,08,204,19,23,68,282,39,09,36,310,44,03,18,220,33*74
2017-12-31 18:49:12 1514764152.689685: $GPGSV,3,2,11,16,77,036,43,08,16,175,35,31,16,088,29,27,39,144,41*72
2017-12-31 18:49:12 1514764152.689749: $GPGSV,3,3,11,07,10,285,42,26,45,048,45,135,22,240,44*7F
2017-12-31 18:49:12 1514764152.803117: $GPZDA,234913.00,31,12,2017,00,00*6D
2017-12-31 18:49:12 1514764152.803293: $GPGGA,234913,3946.9581,N,08404.9856,W,2,11,0.80,305.14,M,-33.324,M,,*79
2017-12-31 18:49:12 1514764152.803361: $GPRMC,234913,A,3946.9581,N,08404.9856,W,0.0000,0.000,311217,,*31
2017-12-31 18:49:12 1514764152.803421: $GPGSA,A,3,22,23,9,3,16,8,31,27,7,26,135,,1.7,0.8,1.3*09
2017-12-31 18:49:13 1514764153.356243: $GPZDA,234914.00,31,12,2017,00,00*6A
2017-12-31 18:49:13 1514764153.356417: $GPGGA,234914,3946.9581,N,08404.9856,W,2,11,0.80,305.14,M,-33.324,M,,*7E
2017-12-31 18:49:13 1514764153.356484: $GPRMC,234914,A,3946.9581,N,08404.9856,W,0.0000,0.000,311217,,*36
2017-12-31 18:49:13 1514764153.356544: $GPGSA,A,3,22,23,9,3,16,8,31,27,7,26,135,,1.7,0.8,1.3*09
2017-12-31 18:49:14 1514764154.354675: $GPZDA,234915.00,31,12,2017,00,00*6B
2017-12-31 18:49:14 1514764154.354847: $GPGGA,234915,3946.9581,N,08404.9856,W,2,11,0.80,305.14,M,-33.324,M,,*7F
2017-12-31 18:49:14 1514764154.354914: $GPRMC,234915,A,3946.9581,N,08404.9856,W,0.0000,0.000,311217,,*37
2017-12-31 18:49:14 1514764154.354975: $GPGSA,A,3,22,23,9,3,16,8,31,27,7,26,135,,1.7,0.8,1.3*09
2017-12-31 18:49:15 1514764155.689908: $GPGSV,3,1,11,22,08,204,18,23,68,282,40,09,36,310,44,03,18,220,33*7B
2017-12-31 18:49:15 1514764155.690087: $GPGSV,3,2,11,16,77,036,43,08,16,175,35,31,16,088,29,27,39,144,41*72
2017-12-31 18:49:15 1514764155.690152: $GPGSV,3,3,11,07,10,285,41,26,45,048,45,135,22,240,44*7C
2017-12-31 18:49:15 1514764155.803244: $GPZDA,234916.00,31,12,2017,00,00*68
2017-12-31 18:49:15 1514764155.803410: $GPGGA,234916,3946.9581,N,08404.9856,W,2,11,0.80,305.14,M,-33.324,M,,*7C
2017-12-31 18:49:15 1514764155.803475: $GPRMC,234916,A,3946.9581,N,08404.9856,W,0.0000,0.000,311217,,*34
2017-12-31 18:49:15 1514764155.803535: $GPGSA,A,3,22,23,9,3,16,8,31,27,7,26,135,,1.7,0.8,1.3*09
2017-12-31 18:49:16 1514764156.393185: $GPZDA,234917.00,31,12,2017,00,00*69
2017-12-31 18:49:16 1514764156.393350: $GPGGA,234917,3946.9581,N,08404.9856,W,2,11,0.80,305.14,M,-33.324,M,,*7D
2017-12-31 18:49:16 1514764156.393417: $GPRMC,234917,A,3946.9581,N,08404.9856,W,0.0000,0.000,311217,,*35
2017-12-31 18:49:16 1514764156.393477: $GPGSA,A,3,22,23,9,3,16,8,31,27,7,26,135,,1.7,0.8,1.3*09
2017-12-31 18:49:17 1514764157.354068: $GPZDA,234918.00,31,12,2017,00,00*66
2017-12-31 18:49:17 1514764157.354223: $GPGGA,234918,3946.9581,N,08404.9856,W,2,11,0.80,305.14,M,-33.324,M,,*72
2017-12-31 18:49:17 1514764157.354290: $GPRMC,234918,A,3946.9581,N,08404.9856,W,0.0000,0.000,311217,,*3A
2017-12-31 18:49:17 1514764157.354350: $GPGSA,A,3,22,23,9,3,16,8,31,27,7,26,135,,1.7,0.8,1.3*09
2017-12-31 18:49:18 1514764158.690772: $GPGSV,3,1,11,22,08,204,00,23,68,282,38,09,36,310,45,03,18,220,34*7B
2017-12-31 18:49:18 1514764158.690933: $GPGSV,3,2,11,16,77,036,43,08,16,175,35,31,16,088,28,27,39,144,42*70
2017-12-31 18:49:18 1514764158.690998: $GPGSV,3,3,11,07,10,285,40,26,45,048,45,135,22,240,44*7D
2017-12-31 18:49:18 1514764158.804382: $GPZDA,234919.00,31,12,2017,00,00*67
2017-12-31 18:49:18 1514764158.804544: $GPGGA,234919,3946.9581,N,08404.9856,W,2,10,0.80,305.14,M,-33.324,M,,*72
2017-12-31 18:49:18 1514764158.804608: $GPRMC,234919,A,3946.9581,N,08404.9856,W,0.0000,0.000,311217,,*3B
2017-12-31 18:49:18 1514764158.804722: $GPGSA,A,3,23,9,3,16,8,31,27,7,26,135,,,1.7,0.8,1.3*09
2017-12-31 18:49:19 1514764159.354012: $GPZDA,234920.00,31,12,2017,00,00*6D
2017-12-31 18:49:19 1514764159.354177: $GPGGA,234920,3946.9581,N,08404.9856,W,2,10,0.80,305.14,M,-33.324,M,,*78
2017-12-31 18:49:19 1514764159.354244: $GPRMC,234920,A,3946.9581,N,08404.9856,W,0.0000,0.000,311217,,*31
2017-12-31 18:49:19 1514764159.354304: $GPGSA,A,3,23,9,3,16,8,31,27,7,26,135,,,1.7,0.8,1.3*09
2017-12-31 18:49:20 1514764160.383124: $GPZDA,234921.00,31,12,2017,00,00*6C
2017-12-31 18:49:20 1514764160.383280: $GPGGA,234921,3946.9581,N,08404.9856,W,2,10,0.80,305.14,M,-33.324,M,,*79
2017-12-31 18:49:20 1514764160.383346: $GPRMC,234921,A,3946.9581,N,08404.9856,W,0.0000,0.000,311217,,*30
2017-12-31 18:49:20 1514764160.383407: $GPGSA,A,3,23,9,3,16,8,31,27,7,26,135,,,1.7,0.8,1.3*09
2017-12-31 18:49:21 1514764161.688586: $GPGSV,3,1,11,22,08,204,23,23,68,282,40,09,36,310,45,03,18,220,37*76
2017-12-31 18:49:21 1514764161.688759: $GPGSV,3,2,11,16,77,036,43,08,16,175,35,31,16,088,27,27,39,144,42*7F
2017-12-31 18:49:21 1514764161.688825: $GPGSV,3,3,11,07,10,285,39,26,45,048,46,135,22,240,44*70
2017-12-31 18:49:21 1514764161.802246: $GPZDA,234922.00,31,12,2017,00,00*6F
2017-12-31 18:49:21 1514764161.802414: $GPGGA,234922,3946.9581,N,08404.9856,W,2,11,0.80,305.14,M,-33.324,M,,*7B
2017-12-31 18:49:21 1514764161.802478: $GPRMC,234922,A,3946.9581,N,08404.9856,W,0.0000,0.000,311217,,*33
2017-12-31 18:49:21 1514764161.802538: $GPGSA,A,3,22,23,9,3,16,8,31,27,7,26,135,,1.7,0.8,1.3*09
