2017-12-31 18:05:38 1514761538.326724: {"class":"VERSION","release":"3.16","rev":"3.16-4","proto_major":3,"proto_minor":11}
2017-12-31 18:05:38 1514761538.327062: {"class":"DEVICES","devices":[{"class":"DEVICE","path":"/dev/ttyUSB0","driver":"SiRF","activated":"2017-12-31T23:05:38.265Z","flags":1,"native":1,"bps":4800,"parity":"N","stopbits":1,"cycle":1.00}]}
2017-12-31 18:05:38 1514761538.327217: {"class":"WATCH","enable":true,"json":false,"nmea":true,"raw":0,"scaled":false,"timing":false,"split24":false,"pps":false}
2017-12-31 18:05:38 1514761538.379226: $GPZDA,230539.00,31,12,2017,00,00*6D
2017-12-31 18:05:38 1514761538.379356: $GPGGA,230539,3946.9561,N,08404.9874,W,2,11,0.60,308.17,M,-33.324,M,,*77
2017-12-31 18:05:38 1514761538.379420: $GPRMC,230539,A,3946.9561,N,08404.9874,W,0.0000,0.000,311217,,*3F
2017-12-31 18:05:38 1514761538.379480: $GPGSA,A,3,22,23,9,3,16,29,14,31,27,26,135,,1.7,0.6,1.3*06
2017-12-31 18:05:39 1514761539.682102: $GPGSV,3,1,11,22,23,216,38,23,52,307,45,09,19,312,40,03,33,235,44*75
2017-12-31 18:05:39 1514761539.682282: $GPGSV,3,2,11,16,79,190,44,29,06,031,23,14,16,132,34,31,29,073,41*7A
2017-12-31 18:05:39 1514761539.682347: $GPGSV,3,3,11,27,21,154,27,26,64,051,49,135,22,240,42*72
2017-12-31 18:05:39 1514761539.795421: $GPZDA,230540.00,31,12,2017,00,00*63
2017-12-31 18:05:39 1514761539.795549: $GPGGA,230540,3946.9561,N,08404.9874,W,2,11,0.60,308.17,M,-33.324,M,,*79
2017-12-31 18:05:39 1514761539.795612: $GPRMC,230540,A,3946.9561,N,08404.9874,W,0.0000,0.000,311217,,*31
2017-12-31 18:05:39 1514761539.795672: $GPGSA,A,3,22,23,9,3,16,29,14,31,27,26,135,,1.7,0.6,1.3*06
2017-12-31 18:05:40 1514761540.422100: $GPZDA,230541.00,31,12,2017,00,00*62
2017-12-31 18:05:40 1514761540.422279: $GPGGA,230541,3946.9561,N,08404.9874,W,2,11,0.60,308.17,M,-33.324,M,,*78
2017-12-31 18:05:40 1514761540.422345: $GPRMC,230541,A,3946.9561,N,08404.9874,W,0.0000,0.000,311217,,*30
2017-12-31 18:05:40 1514761540.422406: $GPGSA,A,3,22,23,9,3,16,29,14,31,27,26,135,,1.7,0.6,1.3*06
2017-12-31 18:05:41 1514761541.346712: $GPZDA,230542.00,31,12,2017,00,00*61
2017-12-31 18:05:41 1514761541.346885: $GPGGA,230542,3946.9561,N,08404.9874,W,2,11,0.60,308.17,M,-33.324,M,,*7B
2017-12-31 18:05:41 1514761541.346952: $GPRMC,230542,A,3946.9561,N,08404.9874,W,0.0000,0.000,311217,,*33
2017-12-31 18:05:41 1514761541.347013: $GPGSA,A,3,22,23,9,3,16,29,14,31,27,26,135,,1.7,0.6,1.3*06
2017-12-31 18:05:42 1514761542.704960: $GPGSV,3,1,11,22,23,216,39,23,52,307,45,09,19,312,39,03,33,235,44*7A
2017-12-31 18:05:43 1514761543.524612: $GPGSV,3,2,11,16,79,190,44,29,06,031,25,14,16,132,33,31,29,073,41*7B
2017-12-31 18:05:43 1514761543.524764: $GPGSV,3,3,11,27,21,154,00,26,64,051,49,135,22,240,44*71
2017-12-31 18:05:43 1514761543.524861: $GPZDA,230543.00,31,12,2017,00,00*60
2017-12-31 18:05:43 1514761543.524919: $GPGGA,230543,3946.9561,N,08404.9874,W,2,10,0.80,308.17,M,-33.324,M,,*75
2017-12-31 18:05:43 1514761543.524981: $GPRMC,230543,A,3946.9561,N,08404.9874,W,0.0000,0.000,311217,,*32
2017-12-31 18:05:43 1514761543.525040: $GPGSA,A,3,22,23,9,3,16,29,14,31,26,135,,,1.7,0.8,1.3*0D
2017-12-31 18:05:43 1514761543.525096: $GPZDA,230544.00,31,12,2017,00,00*67
2017-12-31 18:05:43 1514761543.525149: $GPGGA,230544,3946.9561,N,08404.9874,W,2,10,0.60,308.17,M,-33.324,M,,*7C
2017-12-31 18:05:43 1514761543.525209: $GPRMC,230544,A,3946.9561,N,08404.9874,W,0.0000,0.000,311217,,*35
2017-12-31 18:05:43 1514761543.525267: $GPGSA,A,3,22,23,9,3,16,29,14,31,26,135,,,1.7,0.6,1.3*03
2017-12-31 18:05:44 1514761544.346317: $GPZDA,230545.00,31,12,2017,00,00*66
2017-12-31 18:05:44 1514761544.346496: $GPGGA,230545,3946.9561,N,08404.9874,W,2,10,0.60,308.17,M,-33.324,M,,*7D
2017-12-31 18:05:44 1514761544.346563: $GPRMC,230545,A,3946.9561,N,08404.9874,W,0.0000,0.000,311217,,*34
2017-12-31 18:05:44 1514761544.346624: $GPGSA,A,3,22,23,9,3,16,29,14,31,26,135,,,1.7,0.6,1.3*03
2017-12-31 18:05:45 1514761545.682802: $GPGSV,3,1,11,22,23,216,38,23,52,307,45,09,19,312,40,03,33,235,45*74
2017-12-31 18:05:45 1514761545.682971: $GPGSV,3,2,11,16,79,190,44,29,06,031,32,14,16,132,33,31,29,073,40*7C
2017-12-31 18:05:45 1514761545.683093: $GPGSV,3,3,11,27,21,154,29,26,64,051,49,135,22,240,44*7A
2017-12-31 18:05:45 1514761545.796172: $GPZDA,230546.00,31,12,2017,00,00*65
2017-12-31 18:05:45 1514761545.796332: $GPGGA,230546,3946.9561,N,08404.9874,W,2,11,0.60,308.17,M,-33.324,M,,*7F
2017-12-31 18:05:45 1514761545.796399: $GPRMC,230546,A,3946.9561,N,08404.9874,W,0.0000,0.000,311217,,*37
2017-12-31 18:05:45 1514761545.796460: $GPGSA,A,3,22,23,9,3,16,29,14,31,27,26,135,,1.7,0.6,1.3*06
2017-12-31 18:05:46 1514761546.347180: $GPZDA,230547.00,31,12,2017,00,00*64
2017-12-31 18:05:46 1514761546.347357: $GPGGA,230547,3946.9561,N,08404.9874,W,2,11,0.60,308.17,M,-33.324,M,,*7E
2017-12-31 18:05:46 1514761546.347424: $GPRMC,230547,A,3946.9561,N,08404.9874,W,0.0000,0.000,311217,,*36
2017-12-31 18:05:46 1514761546.347484: $GPGSA,A,3,22,23,9,3,16,29,14,31,27,26,135,,1.7,0.6,1.3*06
2017-12-31 18:05:47 1514761547.375421: $GPZDA,230548.00,31,12,2017,00,00*6B
2017-12-31 18:05:47 1514761547.375594: $GPGGA,230548,3946.9561,N,08404.9874,W,2,11,0.60,308.17,M,-33.324,M,,*71
2017-12-31 18:05:47 1514761547.375660: $GPRMC,230548,A,3946.9561,N,08404.9874,W,0.0000,0.000,311217,,*39
2017-12-31 18:05:47 1514761547.375721: $GPGSA,A,3,22,23,9,3,16,29,14,31,27,26,135,,1.7,0.6,1.3*06
