2017-12-31 18:06:35 1514761595.847749: {"class":"VERSION","release":"3.16","rev":"3.16-4","proto_major":3,"proto_minor":11}
2017-12-31 18:06:35 1514761595.848147: {"class":"DEVICES","devices":[{"class":"DEVICE","path":"/dev/ttyUSB0","driver":"SiRF","activated":"2017-12-31T23:06:35.487Z","flags":1,"native":1,"bps":4800,"parity":"N","stopbits":1,"cycle":1.00}]}
2017-12-31 18:06:35 1514761595.848245: {"class":"WATCH","enable":true,"json":false,"nmea":true,"raw":0,"scaled":false,"timing":false,"split24":false,"pps":false}
2017-12-31 18:06:36 1514761596.676022: $GPGSV,3,1,11,22,23,216,40,23,52,307,44,09,19,312,44,03,33,235,44*7F
2017-12-31 18:06:36 1514761596.676189: $GPGSV,3,2,11,16,79,190,44,29,06,031,34,14,16,132,34,31,29,073,40*7D
2017-12-31 18:06:36 1514761596.676254: $GPGSV,3,3,11,27,21,154,28,26,64,051,48,135,22,240,43*7D
2017-12-31 18:06:36 1514761596.789716: $GPZDA,230637.00,31,12,2017,00,00*60
2017-12-31 18:06:36 1514761596.789877: $GPGGA,230637,3946.9561,N,08404.9874,W,2,11,0.60,308.17,M,-33.324,M,,*7A
2017-12-31 18:06:36 1514761596.789944: $GPRMC,230637,A,3946.9561,N,08404.9874,W,0.0000,0.000,311217,,*32
2017-12-31 18:06:36 1514761596.790023: $GPGSA,A,3,22,23,9,3,16,29,14,31,27,26,135,,1.7,0.6,1.3*06
2017-12-31 18:06:37 1514761597.346802: $GPZDA,230638.00,31,12,2017,00,00*6F
2017-12-31 18:06:37 1514761597.347018: $GPGGA,230638,3946.9561,N,08404.9874,W,2,11,0.60,308.17,M,-33.324,M,,*75
2017-12-31 18:06:37 1514761597.347085: $GPRMC,230638,A,3946.9561,N,08404.9874,W,0.0000,0.000,311217,,*3D
2017-12-31 18:06:37 1514761597.347213: $GPGSA,A,3,22,23,9,3,16,29,14,31,27,26,135,,1.7,0.6,1.3*06
2017-12-31 18:06:38 1514761598.367451: $GPZDA,230639.00,31,12,2017,00,00*6E
2017-12-31 18:06:38 1514761598.367631: $GPGGA,230639,3946.9561,N,08404.9874,W,2,11,0.60,308.17,M,-33.324,M,,*74
2017-12-31 18:06:38 1514761598.367698: $GPRMC,230639,A,3946.9561,N,08404.9874,W,0.0000,0.000,311217,,*3C
2017-12-31 18:06:38 1514761598.367760: $GPGSA,A,3,22,23,9,3,16,29,14,31,27,26,135,,1.7,0.6,1.3*06
2017-12-31 18:06:39 1514761599.709372: $GPGSV,3,1,11,22,23,216,40,23,52,307,44,09,19,312,44,03,33,235,44*7F
2017-12-31 18:06:39 1514761599.709532: $GPGSV,3,2,11,16,79,190,44,29,06,031,34,14,16,132,35,31,29,073,40*7C
2017-12-31 18:06:39 1514761599.709597: $GPGSV,3,3,11,27,21,154,33,26,64,051,48,135,22,240,44*70
2017-12-31 18:06:39 1514761599.823024: $GPZDA,230640.00,31,12,2017,00,00*60
2017-12-31 18:06:39 1514761599.823159: $GPGGA,230640,3946.9561,N,08404.9874,W,2,11,0.60,308.17,M,-33.324,M,,*7A
2017-12-31 18:06:39 1514761599.823225: $GPRMC,230640,A,3946.9561,N,08404.9874,W,0.0000,0.000,311217,,*32
2017-12-31 18:06:39 1514761599.823285: $GPGSA,A,3,22,23,9,3,16,29,14,31,27,26,135,,1.7,0.6,1.3*06
2017-12-31 18:06:40 1514761600.448423: $GPZDA,230641.00,31,12,2017,00,00*61
2017-12-31 18:06:40 1514761600.448589: $GPGGA,230641,3946.9561,N,08404.9874,W,2,11,0.60,308.17,M,-33.324,M,,*7B
2017-12-31 18:06:40 1514761600.448655: $GPRMC,230641,A,3946.9561,N,08404.9874,W,0.0000,0.000,311217,,*33
2017-12-31 18:06:40 1514761600.448717: $GPGSA,A,3,22,23,9,3,16,29,14,31,27,26,135,,1.7,0.6,1.3*06
2017-12-31 18:06:41 1514761601.346744: $GPZDA,230642.00,31,12,2017,00,00*62
2017-12-31 18:06:41 1514761601.346954: $GPGGA,230642,3946.9561,N,08404.9874,W,2,11,0.60,308.17,M,-33.324,M,,*78
2017-12-31 18:06:41 1514761601.347023: $GPRMC,230642,A,3946.9561,N,08404.9874,W,0.0000,0.000,311217,,*30
2017-12-31 18:06:41 1514761601.347084: $GPGSA,A,3,22,23,9,3,16,29,14,31,27,26,135,,1.7,0.6,1.3*06
2017-12-31 18:06:42 1514761602.711063: $GPGSV,3,1,11,22,23,216,40,23,52,307,44,09,19,312,44,03,33,235,44*7F
2017-12-31 18:06:42 1514761602.711221: $GPGSV,3,2,11,16,79,190,44,29,06,031,25,14,16,132,35,31,29,073,40*7C
2017-12-31 18:06:42 1514761602.711287: $GPGSV,3,3,11,27,21,154,32,26,64,051,48,135,22,240,44*71
2017-12-31 18:06:42 1514761602.824747: $GPZDA,230643.00,31,12,2017,00,00*63
2017-12-31 18:06:42 1514761602.824901: $GPGGA,230643,3946.9561,N,08404.9874,W,2,11,0.60,308.17,M,-33.324,M,,*79
2017-12-31 18:06:42 1514761602.824984: $GPRMC,230643,A,3946.9561,N,08404.9874,W,0.0000,0.000,311217,,*31
2017-12-31 18:06:42 1514761602.825097: $GPGSA,A,3,22,23,9,3,16,29,14,31,27,26,135,,1.7,0.6,1.3*06
2017-12-31 18:06:43 1514761603.342755: $GPZDA,230644.00,31,12,2017,00,00*64
2017-12-31 18:06:43 1514761603.342996: $GPGGA,230644,3946.9561,N,08404.9874,W,2,11,0.60,308.17,M,-33.324,M,,*7E
2017-12-31 18:06:43 1514761603.343064: $GPRMC,230644,A,3946.9561,N,08404.9874,W,0.0000,0.000,311217,,*36
2017-12-31 18:06:43 1514761603.343125: $GPGSA,A,3,22,23,9,3,16,29,14,31,27,26,135,,1.7,0.6,1.3*06
2017-12-31 18:06:44 1514761604.341166: $GPZDA,230645.00,31,12,2017,00,00*65
2017-12-31 18:06:44 1514761604.515929: $GPGGA,230645,3946.9561,N,08404.9874,W,2,11,0.60,308.17,M,-33.324,M,,*7F
2017-12-31 18:06:44 1514761604.516080: $GPRMC,230645,A,3946.9561,N,08404.9874,W,0.0000,0.000,311217,,*37
2017-12-31 18:06:44 1514761604.516145: $GPGSA,A,3,22,23,9,3,16,29,14,31,27,26,135,,1.7,0.6,1.3*06
2017-12-31 18:06:45 1514761605.682639: $GPGSV,3,1,11,22,23,216,39,23,52,307,44,09,19,312,44,03,33,235,44*71
2017-12-31 18:06:45 1514761605.682830: $GPGSV,3,2,11,16,79,190,44,29,06,031,27,14,16,132,34,31,29,073,40*7F
2017-12-31 18:06:45 1514761605.682897: $GPGSV,3,3,11,27,21,154,31,26,64,051,48,135,22,240,43*75
2017-12-31 18:06:45 1514761605.796310: $GPZDA,230646.00,31,12,2017,00,00*66
2017-12-31 18:06:45 1514761605.796449: $GPGGA,230646,3946.9561,N,08404.9874,W,2,11,0.60,308.17,M,-33.324,M,,*7C
2017-12-31 18:06:45 1514761605.796514: $GPRMC,230646,A,3946.9561,N,08404.9874,W,0.0000,0.000,311217,,*34
2017-12-31 18:06:45 1514761605.796575: $GPGSA,A,3,22,23,9,3,16,29,14,31,27,26,135,,1.7,0.6,1.3*06
