2017-11-16 15:15:15 1510863315.065767: {"class":"VERSION","release":"3.17","rev":"3.17","proto_major":3,"proto_minor":12}
2017-11-16 15:15:15 1510863315.066243: {"class":"DEVICES","devices":[{"class":"DEVICE","path":"/dev/ttyUSB0","driver":"SiRF","subtype":"9\u0006GSD4e_4.1.2-P1_RPATCH.05-F-GPS-4R-1510281 11/03/2015 307","activated":"2017-11-16T20:15:14.520Z","flags":1,"native":1,"bps":4800,"parity":"N","stopbits":1,"cycle":1.00}]}
2017-11-16 15:15:15 1510863315.066356: {"class":"WATCH","enable":true,"json":false,"nmea":true,"raw":0,"scaled":false,"timing":false,"split24":false,"pps":false}
2017-11-16 15:15:15 1510863315.395811: $GPZDA,201514.00,16,11,2017,00,00*66
2017-11-16 15:15:15 1510863315.400801: $GPGGA,201514,3946.9576,N,08404.9855,W,2,12,0.80,301.70,M,-33.324,M,,*7A
2017-11-16 15:15:15 1510863315.400911: $GPRMC,201514,A,3946.9576,N,08404.9855,W,0.0000,0.000,161117,,*31
2017-11-16 15:15:15 1510863315.400971: $GPGSA,A,3,8,10,14,15,18,20,21,24,27,32,12,138,1.6,0.8,1.3*34
2017-11-16 15:15:16 1510863316.710855: $GPGSV,3,1,12,08,07,298,34,10,64,324,50,14,25,249,45,15,15,064,36*7B
2017-11-16 15:15:16 1510863316.711022: $GPGSV,3,2,12,18,74,079,46,20,12,115,32,21,35,180,43,24,48,064,48*77
2017-11-16 15:15:16 1510863316.711082: $GPGSV,3,3,12,27,09,264,39,32,42,259,48,12,06,111,29,138,38,213,44*47
2017-11-16 15:15:16 1510863316.824149: $GPZDA,201515.00,16,11,2017,00,00*67
2017-11-16 15:15:16 1510863316.824314: $GPGGA,201515,3946.9576,N,08404.9855,W,2,12,0.80,301.70,M,-33.324,M,,*7B
2017-11-16 15:15:16 1510863316.824375: $GPRMC,201515,A,3946.9576,N,08404.9855,W,0.0000,0.000,161117,,*30
2017-11-16 15:15:16 1510863316.824433: $GPGSA,A,3,8,10,14,15,18,20,21,24,27,32,12,138,1.6,0.8,1.3*34
2017-11-16 15:15:17 1510863317.396464: $GPZDA,201516.00,16,11,2017,00,00*64
2017-11-16 15:15:17 1510863317.396632: $GPGGA,201516,3946.9576,N,08404.9855,W,2,12,0.80,301.70,M,-33.324,M,,*78
2017-11-16 15:15:17 1510863317.396693: $GPRMC,201516,A,3946.9576,N,08404.9855,W,0.0000,0.000,161117,,*33
2017-11-16 15:15:17 1510863317.396751: $GPGSA,A,3,8,10,14,15,18,20,21,24,27,32,12,138,1.6,0.8,1.3*34
2017-11-16 15:15:18 1510863318.378629: $GPZDA,201517.00,16,11,2017,00,00*65
2017-11-16 15:15:18 1510863318.378792: $GPGGA,201517,3946.9576,N,08404.9855,W,2,12,0.80,301.70,M,-33.324,M,,*79
2017-11-16 15:15:18 1510863318.378856: $GPRMC,201517,A,3946.9576,N,08404.9855,W,0.0000,0.000,161117,,*32
2017-11-16 15:15:18 1510863318.378912: $GPGSA,A,3,8,10,14,15,18,20,21,24,27,32,12,138,1.6,0.8,1.3*34
2017-11-16 15:15:19 1510863319.732814: $GPGSV,3,1,12,08,07,298,35,10,64,324,50,14,25,249,44,15,15,064,35*78
2017-11-16 15:15:19 1510863319.733001: $GPGSV,3,2,12,18,74,079,46,20,12,115,32,21,35,180,43,24,48,064,48*77
2017-11-16 15:15:19 1510863319.733064: $GPGSV,3,3,12,27,09,264,38,32,42,259,48,12,06,111,30,138,38,213,44*4E
2017-11-16 15:15:19 1510863319.845046: $GPZDA,201518.00,16,11,2017,00,00*6A
2017-11-16 15:15:19 1510863319.845211: $GPGGA,201518,3946.9576,N,08404.9855,W,2,12,0.80,301.70,M,-33.324,M,,*76
2017-11-16 15:15:19 1510863319.845273: $GPRMC,201518,A,3946.9576,N,08404.9855,W,0.0000,0.000,161117,,*3D
2017-11-16 15:15:19 1510863319.845329: $GPGSA,A,3,8,10,14,15,18,20,21,24,27,32,12,138,1.6,0.8,1.3*34
2017-11-16 15:15:20 1510863320.380360: $GPZDA,201519.00,16,11,2017,00,00*6B
2017-11-16 15:15:20 1510863320.380563: $GPGGA,201519,3946.9576,N,08404.9855,W,2,12,0.80,301.70,M,-33.324,M,,*77
2017-11-16 15:15:20 1510863320.380636: $GPRMC,201519,A,3946.9576,N,08404.9855,W,0.0000,0.000,161117,,*3C
2017-11-16 15:15:20 1510863320.380779: $GPGSA,A,3,8,10,14,15,18,20,21,24,27,32,12,138,1.6,0.8,1.3*34
2017-11-16 15:15:21 1510863321.389861: $GPZDA,201520.00,16,11,2017,00,00*61
2017-11-16 15:15:21 1510863321.390040: $GPGGA,201520,3946.9576,N,08404.9855,W,2,12,0.80,301.70,M,-33.324,M,,*7D
2017-11-16 15:15:21 1510863321.390103: $GPRMC,201520,A,3946.9576,N,08404.9855,W,0.0000,0.000,161117,,*36
2017-11-16 15:15:21 1510863321.390159: $GPGSA,A,3,8,10,14,15,18,20,21,24,27,32,12,138,1.6,0.8,1.3*34
2017-11-16 15:15:22 1510863322.730768: $GPGSV,3,1,12,08,07,298,35,10,64,324,50,14,25,249,44,15,15,064,35*78
2017-11-16 15:15:22 1510863322.731000: $GPGSV,3,2,12,18,74,079,46,20,12,115,32,21,35,180,42,24,48,064,48*76
2017-11-16 15:15:22 1510863322.731066: $GPGSV,3,3,12,27,09,264,38,32,42,259,48,12,06,111,31,138,38,213,44*4F
2017-11-16 15:15:22 1510863322.844326: $GPZDA,201521.00,16,11,2017,00,00*60
2017-11-16 15:15:22 1510863322.844499: $GPGGA,201521,3946.9576,N,08404.9855,W,2,12,0.80,301.70,M,-33.324,M,,*7C
2017-11-16 15:15:22 1510863322.844564: $GPRMC,201521,A,3946.9576,N,08404.9855,W,0.0000,0.000,161117,,*37
2017-11-16 15:15:22 1510863322.844623: $GPGSA,A,3,8,10,14,15,18,20,21,24,27,32,12,138,1.6,0.8,1.3*34
2017-11-16 15:15:23 1510863323.378488: $GPZDA,201522.00,16,11,2017,00,00*63
2017-11-16 15:15:23 1510863323.378660: $GPGGA,201522,3946.9576,N,08404.9855,W,2,12,0.80,301.70,M,-33.324,M,,*7F
2017-11-16 15:15:23 1510863323.378721: $GPRMC,201522,A,3946.9576,N,08404.9855,W,0.0000,0.000,161117,,*34
2017-11-16 15:15:23 1510863323.378779: $GPGSA,A,3,8,10,14,15,18,20,21,24,27,32,12,138,1.6,0.8,1.3*34
2017-11-16 15:15:24 1510863324.395505: $GPZDA,201523.00,16,11,2017,00,00*62
2017-11-16 15:15:24 1510863324.395669: $GPGGA,201523,3946.9576,N,08404.9855,W,2,12,0.80,301.70,M,-33.324,M,,*7E
2017-11-16 15:15:24 1510863324.395730: $GPRMC,201523,A,3946.9576,N,08404.9855,W,0.0000,0.000,161117,,*35
2017-11-16 15:15:24 1510863324.395786: $GPGSA,A,3,8,10,14,15,18,20,21,24,27,32,12,138,1.6,0.8,1.3*34
