2017-11-15 19:45:18 1510793118.472367: {"class":"VERSION","release":"3.17","rev":"3.17","proto_major":3,"proto_minor":12}
2017-11-15 19:45:18 1510793118.472884: {"class":"DEVICES","devices":[{"class":"DEVICE","path":"/dev/ttyUSB0","driver":"SiRF","subtype":"9\u0006GSD4e_4.1.2-P1_RPATCH.05-F-GPS-4R-1510281 11/03/2015 307","activated":"2017-11-16T00:45:18.215Z","flags":1,"native":1,"bps":4800,"parity":"N","stopbits":1,"cycle":1.00}]}
2017-11-15 19:45:18 1510793118.473030: {"class":"WATCH","enable":true,"json":false,"nmea":true,"raw":0,"scaled":false,"timing":false,"split24":false,"pps":false}
2017-11-15 19:45:18 1510793118.665259: $GPGSV,3,1,12,32,30,114,15,16,30,190,26,22,50,259,18,26,61,169,22*7D
2017-11-15 19:45:18 1510793118.665426: $GPGSV,3,2,12,14,49,102,21,31,62,034,14,29,12,064,00,23,16,303,04*7F
2017-11-15 19:45:18 1510793118.665486: $GPGSV,3,3,12,03,43,291,17,25,11,039,00,01,01,247,00,138,38,213,00*4F
2017-11-15 19:45:18 1510793118.778994: $GPZDA,004517.00,16,11,2017,00,00*62
2017-11-15 19:45:18 1510793118.779155: $GPGGA,004517,3946.9711,N,08404.9531,W,1,07,1.40,348.32,M,-33.324,M,,*73
2017-11-15 19:45:18 1510793118.779216: $GPRMC,004517,A,3946.9711,N,08404.9531,W,0.8054,68.645,161117,,*09
2017-11-15 19:45:18 1510793118.779271: $GPGSA,A,3,32,16,22,26,14,31,3,,,,,,3.4,1.4,2.9*0D
2017-11-15 19:45:19 1510793119.329834: $GPZDA,004518.00,16,11,2017,00,00*6D
2017-11-15 19:45:19 1510793119.330015: $GPGGA,004518,3946.9711,N,08404.9531,W,1,07,1.40,348.32,M,-33.324,M,,*7C
2017-11-15 19:45:19 1510793119.330075: $GPRMC,004518,A,3946.9711,N,08404.9531,W,0.5230,76.444,161117,,*07
2017-11-15 19:45:19 1510793119.330131: $GPGSA,A,3,32,16,22,26,14,31,3,,,,,,3.4,1.4,2.9*0D
2017-11-15 19:45:20 1510793120.330363: $GPZDA,004519.00,16,11,2017,00,00*6C
2017-11-15 19:45:20 1510793120.330526: $GPGGA,004519,3946.9715,N,08404.9531,W,1,07,1.40,348.96,M,-33.324,M,,*77
2017-11-15 19:45:20 1510793120.330586: $GPRMC,004519,A,3946.9715,N,08404.9531,W,0.7267,93.794,161117,,*07
2017-11-15 19:45:20 1510793120.330641: $GPGSA,A,3,32,16,22,26,14,31,3,,,,,,3.4,1.4,2.9*0D
2017-11-15 19:45:21 1510793121.664298: $GPGSV,3,1,12,32,30,114,12,16,30,190,26,22,50,259,18,26,61,169,21*79
2017-11-15 19:45:21 1510793121.664454: $GPGSV,3,2,12,14,49,102,21,31,62,034,14,29,12,064,00,23,16,303,04*7F
2017-11-15 19:45:21 1510793121.664514: $GPGSV,3,3,12,03,43,291,17,25,11,039,00,01,01,247,00,138,38,213,00*4F
2017-11-15 19:45:21 1510793121.777802: $GPZDA,004520.00,16,11,2017,00,00*66
2017-11-15 19:45:21 1510793121.777970: $GPGGA,004520,3946.9714,N,08404.9524,W,1,07,1.20,349.04,M,-33.324,M,,*74
2017-11-15 19:45:21 1510793121.778031: $GPRMC,004520,A,3946.9714,N,08404.9524,W,0.4844,93.794,161117,,*00
2017-11-15 19:45:21 1510793121.778087: $GPGSA,A,3,32,16,22,26,14,31,3,,,,,,3.4,1.2,2.9*0B
2017-11-15 19:45:22 1510793122.328923: $GPZDA,004521.00,16,11,2017,00,00*67
2017-11-15 19:45:22 1510793122.329082: $GPGGA,004521,3946.9715,N,08404.9531,W,1,07,1.20,348.96,M,-33.324,M,,*7A
2017-11-15 19:45:22 1510793122.329144: $GPRMC,004521,A,3946.9715,N,08404.9531,W,0.2422,273.794,161117,,*32
2017-11-15 19:45:22 1510793122.329200: $GPGSA,A,3,32,16,22,26,14,31,3,,,,,,3.4,1.2,2.9*0B
2017-11-15 19:45:23 1510793123.329501: $GPZDA,004522.00,16,11,2017,00,00*64
2017-11-15 19:45:23 1510793123.329669: $GPGGA,004522,3946.9715,N,08404.9531,W,1,07,1.20,348.96,M,-33.324,M,,*79
2017-11-15 19:45:23 1510793123.329732: $GPRMC,004522,A,3946.9715,N,08404.9531,W,0.2422,273.794,161117,,*31
2017-11-15 19:45:23 1510793123.329788: $GPGSA,A,3,32,16,22,26,14,31,3,,,,,,3.4,1.2,2.9*0B
2017-11-15 19:45:24 1510793124.681664: $GPGSV,3,1,12,32,30,114,12,16,30,190,26,22,50,259,18,26,61,169,21*79
2017-11-15 19:45:24 1510793124.681846: $GPGSV,3,2,12,14,49,102,21,31,62,034,14,29,12,064,00,23,16,303,05*7E
2017-11-15 19:45:24 1510793124.686982: $GPGSV,3,3,12,03,43,291,16,25,11,039,00,01,01,247,00,138,38,213,00*4E
2017-11-15 19:45:24 1510793124.795084: $GPZDA,004523.00,16,11,2017,00,00*65
2017-11-15 19:45:24 1510793124.795264: $GPGGA,004523,3946.9715,N,08404.9531,W,1,07,1.20,348.96,M,-33.324,M,,*78
2017-11-15 19:45:24 1510793124.795380: $GPRMC,004523,A,3946.9715,N,08404.9531,W,0.1867,0.000,161117,,*32
2017-11-15 19:45:24 1510793124.795437: $GPGSA,A,3,32,16,22,26,14,31,3,,,,,,3.4,1.2,2.9*0B
2017-11-15 19:45:25 1510793125.330839: $GPZDA,004524.00,16,11,2017,00,00*62
2017-11-15 19:45:25 1510793125.331006: $GPGGA,004524,3946.9715,N,08404.9531,W,1,07,1.20,348.96,M,-33.324,M,,*7F
2017-11-15 19:45:25 1510793125.331083: $GPRMC,004524,A,3946.9715,N,08404.9531,W,0.1867,0.000,161117,,*35
2017-11-15 19:45:25 1510793125.331140: $GPGSA,A,3,32,16,22,26,14,31,3,,,,,,3.4,1.2,2.9*0B
2017-11-15 19:45:26 1510793126.330813: $GPZDA,004525.00,16,11,2017,00,00*63
2017-11-15 19:45:26 1510793126.330990: $GPGGA,004525,3946.9719,N,08404.9531,W,1,07,1.40,349.60,M,-33.324,M,,*7C
2017-11-15 19:45:26 1510793126.331051: $GPRMC,004525,A,3946.9719,N,08404.9531,W,0.5287,2.716,161117,,*3A
2017-11-15 19:45:26 1510793126.331127: $GPGSA,A,3,32,16,22,26,14,31,3,,,,,,3.4,1.4,2.9*0D
2017-11-15 19:45:27 1510793127.665769: $GPGSV,3,1,12,32,30,114,12,16,30,190,26,22,50,259,19,26,61,169,20*79
2017-11-15 19:45:27 1510793127.665955: $GPGSV,3,2,12,14,49,102,21,31,62,034,15,29,12,064,00,23,16,303,04*7E
2017-11-15 19:45:27 1510793127.666016: $GPGSV,3,3,12,03,43,291,16,25,11,039,00,01,01,247,00,138,38,213,00*4E
2017-11-15 19:45:27 1510793127.779327: $GPZDA,004526.00,16,11,2017,00,00*60
2017-11-15 19:45:27 1510793127.779466: $GPGGA,004526,3946.9719,N,08404.9531,W,1,07,1.40,349.60,M,-33.324,M,,*7F
2017-11-15 19:45:27 1510793127.779542: $GPRMC,004526,A,3946.9719,N,08404.9531,W,0.9929,32.499,161117,,*0D
2017-11-15 19:45:27 1510793127.779599: $GPGSA,A,3,32,16,22,26,14,31,3,,,,,,3.4,1.4,2.9*0D
2017-11-15 19:45:28 1510793128.330212: $GPZDA,004527.00,16,11,2017,00,00*61
2017-11-15 19:45:28 1510793128.330385: $GPGGA,004527,3946.9723,N,08404.9531,W,1,07,1.40,350.24,M,-33.324,M,,*7F
2017-11-15 19:45:28 1510793128.330447: $GPRMC,004527,A,3946.9723,N,08404.9531,W,1.0567,17.448,161117,,*00
2017-11-15 19:45:28 1510793128.330503: $GPGSA,A,3,32,16,22,26,14,31,3,,,,,,3.4,1.4,2.9*0D
