2017-12-29 11:32:49 1514565169.265613: {"class":"VERSION","release":"3.16","rev":"3.16-4","proto_major":3,"proto_minor":11}
2017-12-29 11:32:49 1514565169.265961: {"class":"DEVICES","devices":[{"class":"DEVICE","path":"/dev/ttyUSB0","driver":"SiRF","subtype":"9\u0006GSD4e_4.1.2-P1_RPATCH.05-F-GPS-4R-1510281 11/03/2015 307","activated":"2017-12-29T16:32:48.458Z","flags":1,"native":1,"bps":4800,"parity":"N","stopbits":1,"cycle":1.00}]}
2017-12-29 11:32:49 1514565169.266073: {"class":"WATCH","enable":true,"json":false,"nmea":true,"raw":0,"scaled":false,"timing":false,"split24":false,"pps":false}
2017-12-29 11:32:49 1514565169.902994: $GPZDA,163250.42,29,12,2017,00,00*6F
2017-12-29 11:32:49 1514565169.903171: $GPGGA,163250,3946.9576,N,08404.9844,W,1,11,1.00,320.31,M,-33.324,M,,*75
2017-12-29 11:32:49 1514565169.903237: $GPRMC,163250,A,3946.9576,N,08404.9844,W,0.1567,9.200,291217,,*30
2017-12-29 11:32:49 1514565169.903299: $GPGSA,A,3,8,10,15,18,20,21,24,27,32,14,138,,1.7,1.0,1.3*3F
2017-12-29 11:32:51 1514565171.364887: $GPZDA,163251.41,29,12,2017,00,00*6D
2017-12-29 11:32:51 1514565171.365053: $GPGGA,163251,3946.9581,N,08404.9844,W,1,11,0.80,320.95,M,-33.324,M,,*7B
2017-12-29 11:32:51 1514565171.365118: $GPRMC,163251,A,3946.9581,N,08404.9844,W,0.1867,0.000,291217,,*3F
2017-12-29 11:32:51 1514565171.365194: $GPGSA,A,3,8,10,15,18,20,21,24,27,32,14,138,,1.7,0.8,1.3*36
2017-12-29 11:32:51 1514565171.365254: $GPGBS,163251,10.91,M,10.38,M,30.89,M*0D
2017-12-29 11:32:52 1514565172.153088: $GPGSV,3,1,11,08,07,316,34,10,47,307,47,15,31,055,50,20,29,102,49*76
2017-12-29 11:32:52 1514565172.153295: $GPGSV,3,2,11,21,56,184,46,24,53,097,50,27,17,282,43,32,27,243,41*74
2017-12-29 11:32:52 1514565172.153363: $GPGSV,3,3,11,14,09,235,31,13,02,051,00,138,38,213,10*77
2017-12-29 11:32:52 1514565172.265148: $GPZDA,163251.62,29,12,2017,00,00*6C
2017-12-29 11:32:52 1514565172.265317: $GPGGA,163251,3946.9581,N,08404.9844,W,1,10,0.80,320.95,M,-33.324,M,,*7A
2017-12-29 11:32:52 1514565172.265382: $GPRMC,163251,A,3946.9581,N,08404.9844,W,0.2959,54.767,291217,,*07
2017-12-29 11:32:52 1514565172.265443: $GPGSA,A,3,8,10,15,20,21,24,27,32,14,138,,,1.7,0.8,1.3*3F
2017-12-29 11:32:52 1514565172.520277: $GPZDA,163252.00,29,12,2017,00,00*6B
2017-12-29 11:32:52 1514565172.520446: $GPGGA,163252,3946.9581,N,08404.9845,W,1,10,0.80,322.36,M,-33.324,M,,*73
2017-12-29 11:32:52 1514565172.520511: $GPRMC,163252,A,3946.9581,N,08404.9845,W,0.0000,0.000,291217,,*35
2017-12-29 11:32:52 1514565172.520571: $GPGSA,A,3,8,10,15,20,21,24,27,32,14,138,,,1.7,0.8,1.3*3F
2017-12-29 11:32:52 1514565172.971211: $GPZDA,163253.00,29,12,2017,00,00*6A
2017-12-29 11:32:52 1514565172.971377: $GPGGA,163253,3946.9585,N,08404.9845,W,1,10,0.80,323.00,M,-33.324,M,,*72
2017-12-29 11:32:52 1514565172.971443: $GPRMC,163253,A,3946.9585,N,08404.9845,W,0.0000,0.000,291217,,*30
2017-12-29 11:32:52 1514565172.971504: $GPGSA,A,3,8,10,15,20,21,24,27,32,14,138,,,1.7,0.8,1.3*3F
2017-12-29 11:32:53 1514565173.932684: $GPGSV,3,1,11,08,07,316,37,10,47,307,47,15,31,055,51,20,29,102,50*7C
2017-12-29 11:32:53 1514565173.932864: $GPGSV,3,2,11,21,56,184,46,24,53,097,51,27,17,282,43,32,27,243,41*75
2017-12-29 11:32:53 1514565173.932930: $GPGSV,3,3,11,14,09,235,34,13,02,051,00,138,38,213,46*71
2017-12-29 11:32:54 1514565174.046067: $GPZDA,163254.00,29,12,2017,00,00*6D
2017-12-29 11:32:54 1514565174.046238: $GPGGA,163254,3946.9582,N,08404.9852,W,1,10,0.80,323.68,M,-33.324,M,,*7A
2017-12-29 11:32:54 1514565174.046306: $GPRMC,163254,A,3946.9582,N,08404.9852,W,0.0000,0.000,291217,,*36
2017-12-29 11:32:54 1514565174.046366: $GPGSA,A,3,8,10,15,20,21,24,27,32,14,138,,,1.7,0.8,1.3*3F
2017-12-29 11:32:54 1514565174.498205: $GPZDA,163255.00,29,12,2017,00,00*6C
2017-12-29 11:32:54 1514565174.498398: $GPGGA,163255,3946.9593,N,08404.9895,W,2,10,1.40,325.89,M,-33.324,M,,*77
2017-12-29 11:32:54 1514565174.498484: $GPRMC,163255,A,3946.9593,N,08404.9895,W,0.0000,0.000,291217,,*3C
2017-12-29 11:32:54 1514565174.498548: $GPGSA,A,3,8,10,15,20,21,24,27,32,14,138,,,1.7,1.4,1.3*32
2017-12-29 11:32:55 1514565175.355124: $GPZDA,163256.00,29,12,2017,00,00*6F
2017-12-29 11:32:55 1514565175.355347: $GPGGA,163256,3946.9593,N,08404.9888,W,2,10,1.00,325.97,M,-33.324,M,,*73
2017-12-29 11:32:55 1514565175.355415: $GPRMC,163256,A,3946.9593,N,08404.9888,W,0.0000,0.000,291217,,*33
2017-12-29 11:32:55 1514565175.355476: $GPGSA,A,3,8,10,15,20,21,24,27,32,14,138,,,1.7,1.0,1.3*36
2017-12-29 11:32:55 1514565175.355534: $GPGBS,163256,2.73,M,2.59,M,7.72,M*31
2017-12-29 11:32:56 1514565176.689646: $GPGSV,3,1,11,08,07,316,36,10,47,307,47,15,31,055,51,20,29,102,50*7D
2017-12-29 11:32:56 1514565176.689819: $GPGSV,3,2,11,21,56,184,46,24,53,097,51,27,17,282,43,32,27,243,42*76
2017-12-29 11:32:56 1514565176.689886: $GPGSV,3,3,11,14,09,235,34,13,02,051,09,138,38,213,46*78
2017-12-29 11:32:56 1514565176.803102: $GPZDA,163257.00,29,12,2017,00,00*6E
2017-12-29 11:32:56 1514565176.803289: $GPGGA,163257,3946.9593,N,08404.9888,W,2,11,0.80,325.97,M,-33.324,M,,*7A
2017-12-29 11:32:56 1514565176.803359: $GPRMC,163257,A,3946.9593,N,08404.9888,W,0.0000,0.000,291217,,*32
2017-12-29 11:32:56 1514565176.803421: $GPGSA,A,3,8,10,15,20,21,24,27,32,14,13,138,,1.7,0.8,1.3*3D
2017-12-29 11:32:57 1514565177.354333: $GPZDA,163258.00,29,12,2017,00,00*61
2017-12-29 11:32:57 1514565177.354502: $GPGGA,163258,3946.9593,N,08404.9888,W,2,11,0.80,325.97,M,-33.324,M,,*75
2017-12-29 11:32:57 1514565177.354567: $GPRMC,163258,A,3946.9593,N,08404.9888,W,0.0000,0.000,291217,,*3D
2017-12-29 11:32:57 1514565177.354646: $GPGSA,A,3,8,10,15,20,21,24,27,32,14,13,138,,1.7,0.8,1.3*3D
2017-12-29 11:32:58 1514565178.354647: $GPZDA,163259.00,29,12,2017,00,00*60
2017-12-29 11:32:58 1514565178.354830: $GPGGA,163259,3946.9593,N,08404.9888,W,2,11,0.80,325.97,M,-33.324,M,,*74
2017-12-29 11:32:58 1514565178.354895: $GPRMC,163259,A,3946.9593,N,08404.9888,W,0.0000,0.000,291217,,*3C
2017-12-29 11:32:58 1514565178.354956: $GPGSA,A,3,8,10,15,20,21,24,27,32,14,13,138,,1.7,0.8,1.3*3D
2017-12-29 11:32:59 1514565179.692382: $GPGSV,3,1,11,08,07,316,36,10,47,307,47,15,31,055,51,20,29,102,50*7D
2017-12-29 11:32:59 1514565179.697380: $GPGSV,3,2,11,21,56,184,46,24,53,097,51,27,17,282,43,32,27,243,42*76
2017-12-29 11:32:59 1514565179.697485: $GPGSV,3,3,11,14,09,235,34,13,02,051,16,138,38,213,46*76
2017-12-29 11:32:59 1514565179.805775: $GPZDA,163300.00,29,12,2017,00,00*6D
2017-12-29 11:32:59 1514565179.805948: $GPGGA,163300,3946.9593,N,08404.9888,W,2,11,0.80,325.97,M,-33.324,M,,*79
2017-12-29 11:32:59 1514565179.806013: $GPRMC,163300,A,3946.9593,N,08404.9888,W,0.0000,0.000,291217,,*31
2017-12-29 11:32:59 1514565179.806074: $GPGSA,A,3,8,10,15,20,21,24,27,32,14,13,138,,1.7,0.8,1.3*3D
2017-12-29 11:33:00 1514565180.356638: $GPZDA,163301.00,29,12,2017,00,00*6C
2017-12-29 11:33:00 1514565180.356818: $GPGGA,163301,3946.9593,N,08404.9888,W,2,11,0.80,325.97,M,-33.324,M,,*78
2017-12-29 11:33:00 1514565180.356885: $GPRMC,163301,A,3946.9593,N,08404.9888,W,0.0000,0.000,291217,,*30
2017-12-29 11:33:00 1514565180.356946: $GPGSA,A,3,8,10,15,20,21,24,27,32,14,13,138,,1.7,0.8,1.3*3D
2017-12-29 11:33:01 1514565181.358747: $GPZDA,163302.00,29,12,2017,00,00*6F
2017-12-29 11:33:01 1514565181.358938: $GPGGA,163302,3946.9593,N,08404.9888,W,2,11,0.80,325.97,M,-33.324,M,,*7B
2017-12-29 11:33:01 1514565181.359005: $GPRMC,163302,A,3946.9593,N,08404.9888,W,0.0000,0.000,291217,,*33
2017-12-29 11:33:01 1514565181.359066: $GPGSA,A,3,8,10,15,20,21,24,27,32,14,13,138,,1.7,0.8,1.3*3D
2017-12-29 11:33:02 1514565182.693252: $GPGSV,3,1,11,08,07,316,37,10,47,307,47,15,31,055,51,20,29,102,49*74
2017-12-29 11:33:02 1514565182.693441: $GPGSV,3,2,11,21,56,184,46,24,53,097,51,27,17,282,43,32,27,243,42*76
2017-12-29 11:33:02 1514565182.693507: $GPGSV,3,3,11,14,09,235,34,13,02,051,08,138,38,213,46*79
2017-12-29 11:33:02 1514565182.806577: $GPZDA,163303.00,29,12,2017,00,00*6E
2017-12-29 11:33:02 1514565182.806746: $GPGGA,163303,3946.9593,N,08404.9888,W,2,10,0.80,325.97,M,-33.324,M,,*7B
2017-12-29 11:33:02 1514565182.806813: $GPRMC,163303,A,3946.9593,N,08404.9888,W,0.0000,0.000,291217,,*32
2017-12-29 11:33:02 1514565182.806874: $GPGSA,A,3,8,10,15,20,21,24,27,32,14,138,,,1.7,0.8,1.3*3F
2017-12-29 11:33:03 1514565183.431968: $GPZDA,163304.00,29,12,2017,00,00*69
2017-12-29 11:33:03 1514565183.432137: $GPGGA,163304,3946.9593,N,08404.9888,W,2,10,0.80,325.97,M,-33.324,M,,*7C
2017-12-29 11:33:03 1514565183.432205: $GPRMC,163304,A,3946.9593,N,08404.9888,W,0.3423,184.196,291217,,*30
2017-12-29 11:33:03 1514565183.432267: $GPGSA,A,3,8,10,15,20,21,24,27,32,14,138,,,1.7,0.8,1.3*3F
