2017-12-01 13:11:52 1512151912.216974: {"class":"VERSION","release":"3.16","rev":"3.16-4","proto_major":3,"proto_minor":11}
2017-12-01 13:11:52 1512151912.217397: {"class":"DEVICES","devices":[{"class":"DEVICE","path":"/dev/ttyUSB0","driver":"SiRF","subtype":"9\u0006GSD4e_4.1.2-P1_RPATCH.05-F-GPS-4R-1510281 11/03/2015 307","activated":"2017-12-01T18:11:51.574Z","flags":1,"native":1,"bps":4800,"parity":"N","stopbits":1,"cycle":1.00}]}
2017-12-01 13:11:52 1512151912.217516: {"class":"WATCH","enable":true,"json":false,"nmea":true,"raw":0,"scaled":false,"timing":false,"split24":false,"pps":false}
2017-12-01 13:11:52 1512151912.754204: $GPGSV,3,1,12,08,06,322,34,10,41,301,44,15,38,052,48,18,71,336,44*79
2017-12-01 13:11:52 1512151912.754402: $GPGSV,3,2,12,20,34,096,47,21,63,189,44,24,50,111,46,32,21,238,42*79
2017-12-01 13:11:52 1512151912.754470: $GPGSV,3,3,12,13,08,048,26,27,19,289,40,14,04,232,00,138,38,213,46*43
2017-12-01 13:11:52 1512151912.866329: $GPZDA,181153.00,01,12,2017,00,00*6F
2017-12-01 13:11:52 1512151912.866498: $GPGGA,181153,3946.9570,N,08404.9853,W,2,11,0.80,298.25,M,-33.324,M,,*74
2017-12-01 13:11:52 1512151912.866563: $GPRMC,181153,A,3946.9570,N,08404.9853,W,0.0000,0.000,011217,,*38
2017-12-01 13:11:52 1512151912.866624: $GPGSA,A,3,8,10,15,18,20,21,24,32,13,27,138,,2.0,0.8,1.5*33
2017-12-01 13:11:53 1512151913.432322: $GPZDA,181154.00,01,12,2017,00,00*68
2017-12-01 13:11:53 1512151913.432494: $GPGGA,181154,3946.9570,N,08404.9853,W,2,11,0.80,298.25,M,-33.324,M,,*73
2017-12-01 13:11:53 1512151913.432560: $GPRMC,181154,A,3946.9570,N,08404.9853,W,0.0000,0.000,011217,,*3F
2017-12-01 13:11:53 1512151913.432621: $GPGSA,A,3,8,10,15,18,20,21,24,32,13,27,138,,2.0,0.8,1.5*33
2017-12-01 13:11:54 1512151914.433193: $GPZDA,181155.00,01,12,2017,00,00*69
2017-12-01 13:11:54 1512151914.433366: $GPGGA,181155,3946.9570,N,08404.9853,W,2,11,0.80,298.25,M,-33.324,M,,*72
2017-12-01 13:11:54 1512151914.433432: $GPRMC,181155,A,3946.9570,N,08404.9853,W,0.0000,0.000,011217,,*3E
2017-12-01 13:11:54 1512151914.433494: $GPGSA,A,3,8,10,15,18,20,21,24,32,13,27,138,,2.0,0.8,1.5*33
2017-12-01 13:11:55 1512151915.752933: $GPGSV,3,1,12,08,06,322,34,10,41,301,44,15,38,052,48,18,71,336,44*79
2017-12-01 13:11:55 1512151915.753127: $GPGSV,3,2,12,20,34,096,47,21,63,189,44,24,50,111,46,32,21,238,42*79
2017-12-01 13:11:55 1512151915.753209: $GPGSV,3,3,12,13,08,048,26,27,19,289,40,14,04,232,00,138,38,213,46*43
2017-12-01 13:11:55 1512151915.866036: $GPZDA,181156.00,01,12,2017,00,00*6A
2017-12-01 13:11:55 1512151915.866205: $GPGGA,181156,3946.9570,N,08404.9853,W,2,11,0.80,298.25,M,-33.324,M,,*71
2017-12-01 13:11:55 1512151915.866271: $GPRMC,181156,A,3946.9570,N,08404.9853,W,0.0000,0.000,011217,,*3D
2017-12-01 13:11:55 1512151915.866332: $GPGSA,A,3,8,10,15,18,20,21,24,32,13,27,138,,2.0,0.8,1.5*33
2017-12-01 13:11:56 1512151916.491702: $GPZDA,181157.00,01,12,2017,00,00*6B
2017-12-01 13:11:56 1512151916.491891: $GPGGA,181157,3946.9570,N,08404.9853,W,2,11,0.80,298.25,M,-33.324,M,,*70
2017-12-01 13:11:56 1512151916.491959: $GPRMC,181157,A,3946.9570,N,08404.9853,W,0.0000,0.000,011217,,*3C
2017-12-01 13:11:56 1512151916.492020: $GPGSA,A,3,8,10,15,18,20,21,24,32,13,27,138,,2.0,0.8,1.5*33
2017-12-01 13:11:57 1512151917.432562: $GPZDA,181158.00,01,12,2017,00,00*64
2017-12-01 13:11:57 1512151917.432739: $GPGGA,181158,3946.9570,N,08404.9853,W,2,11,0.80,298.25,M,-33.324,M,,*7F
2017-12-01 13:11:57 1512151917.432805: $GPRMC,181158,A,3946.9570,N,08404.9853,W,0.0000,0.000,011217,,*33
2017-12-01 13:11:57 1512151917.432866: $GPGSA,A,3,8,10,15,18,20,21,24,32,13,27,138,,2.0,0.8,1.5*33
2017-12-01 13:11:58 1512151918.751963: $GPGSV,3,1,12,08,06,322,33,10,41,301,43,15,38,052,48,18,71,336,44*79
2017-12-01 13:11:58 1512151918.752172: $GPGSV,3,2,12,20,34,096,47,21,63,189,44,24,50,111,46,32,21,238,42*79
2017-12-01 13:11:58 1512151918.752241: $GPGSV,3,3,12,13,08,048,26,27,19,289,40,14,04,232,00,138,38,213,46*43
2017-12-01 13:11:58 1512151918.865385: $GPZDA,181159.00,01,12,2017,00,00*65
2017-12-01 13:11:58 1512151918.865549: $GPGGA,181159,3946.9570,N,08404.9853,W,2,11,0.80,298.25,M,-33.324,M,,*7E
2017-12-01 13:11:58 1512151918.865667: $GPRMC,181159,A,3946.9570,N,08404.9853,W,0.0000,0.000,011217,,*32
2017-12-01 13:11:58 1512151918.865745: $GPGSA,A,3,8,10,15,18,20,21,24,32,13,27,138,,2.0,0.8,1.5*33
2017-12-01 13:11:59 1512151919.433786: $GPZDA,181200.00,01,12,2017,00,00*6A
2017-12-01 13:11:59 1512151919.433955: $GPGGA,181200,3946.9570,N,08404.9853,W,2,11,0.80,298.25,M,-33.324,M,,*71
2017-12-01 13:11:59 1512151919.434021: $GPRMC,181200,A,3946.9570,N,08404.9853,W,0.0000,0.000,011217,,*3D
2017-12-01 13:11:59 1512151919.434081: $GPGSA,A,3,8,10,15,18,20,21,24,32,13,27,138,,2.0,0.8,1.5*33
2017-12-01 13:12:00 1512151920.413063: $GPZDA,181201.00,01,12,2017,00,00*6B
2017-12-01 13:12:00 1512151920.413238: $GPGGA,181201,3946.9570,N,08404.9853,W,2,11,0.80,298.25,M,-33.324,M,,*70
2017-12-01 13:12:00 1512151920.413305: $GPRMC,181201,A,3946.9570,N,08404.9853,W,0.0000,0.000,011217,,*3C
2017-12-01 13:12:00 1512151920.413366: $GPGSA,A,3,8,10,15,18,20,21,24,32,13,27,138,,2.0,0.8,1.5*33
2017-12-01 13:12:01 1512151921.752117: $GPGSV,3,1,12,08,06,322,33,10,41,301,44,15,38,052,48,18,71,336,44*7E
2017-12-01 13:12:01 1512151921.752296: $GPGSV,3,2,12,20,34,096,47,21,63,189,45,24,50,111,46,32,21,238,42*78
2017-12-01 13:12:01 1512151921.752362: $GPGSV,3,3,12,13,08,048,26,27,19,289,40,14,04,232,08,138,38,213,46*4B
2017-12-01 13:12:01 1512151921.865842: $GPZDA,181202.00,01,12,2017,00,00*68
2017-12-01 13:12:01 1512151921.866012: $GPGGA,181202,3946.9570,N,08404.9853,W,2,11,0.80,298.25,M,-33.324,M,,*73
2017-12-01 13:12:01 1512151921.866078: $GPRMC,181202,A,3946.9570,N,08404.9853,W,0.0000,0.000,011217,,*3F
2017-12-01 13:12:01 1512151921.866139: $GPGSA,A,3,8,10,15,18,20,21,24,32,13,27,138,,2.0,0.8,1.5*33
