2017-12-01 11:36:49 1512146209.783951: {"class":"VERSION","release":"3.16","rev":"3.16-4","proto_major":3,"proto_minor":11}
2017-12-01 11:36:49 1512146209.784320: {"class":"DEVICES","devices":[{"class":"DEVICE","path":"/dev/ttyUSB0","driver":"SiRF","subtype":"9\u0006GSD4e_4.1.2-P1_RPATCH.05-F-GPS-4R-1510281 11/03/2015 307","activated":"2017-12-01T16:36:49.497Z","flags":1,"native":1,"bps":4800,"parity":"N","stopbits":1,"cycle":1.00}]}
2017-12-01 11:36:49 1512146209.784443: {"class":"WATCH","enable":true,"json":false,"nmea":true,"raw":0,"scaled":false,"timing":false,"split24":false,"pps":false}
2017-12-01 11:36:50 1512146210.696365: $GPGSV,3,1,11,05,16,075,30,10,11,270,37,13,46,052,46,15,77,084,48*79
2017-12-01 11:36:50 1512146210.696524: $GPGSV,3,2,11,18,41,282,44,20,64,045,40,21,64,307,46,24,18,150,42*73
2017-12-01 11:36:50 1512146210.696590: $GPGSV,3,3,11,27,07,325,36,29,27,196,45,138,38,213,46*78
2017-12-01 11:36:50 1512146210.809742: $GPZDA,163651.00,01,12,2017,00,00*66
2017-12-01 11:36:50 1512146210.809918: $GPGGA,163651,3946.9571,N,08404.9834,W,2,11,0.80,302.70,M,-33.324,M,,*7F
2017-12-01 11:36:50 1512146210.809986: $GPRMC,163651,A,3946.9571,N,08404.9834,W,0.0000,0.000,011217,,*31
2017-12-01 11:36:50 1512146210.810046: $GPGSA,A,3,5,10,13,15,18,20,21,24,27,29,138,,2.0,0.8,1.5*34
2017-12-01 11:36:51 1512146211.435090: $GPZDA,163652.00,01,12,2017,00,00*65
2017-12-01 11:36:51 1512146211.435261: $GPGGA,163652,3946.9571,N,08404.9834,W,2,11,0.80,302.70,M,-33.324,M,,*7C
2017-12-01 11:36:51 1512146211.435329: $GPRMC,163652,A,3946.9571,N,08404.9834,W,0.0000,0.000,011217,,*32
2017-12-01 11:36:51 1512146211.435391: $GPGSA,A,3,5,10,13,15,18,20,21,24,27,29,138,,2.0,0.8,1.5*34
2017-12-01 11:36:52 1512146212.353443: $GPZDA,163653.00,01,12,2017,00,00*64
2017-12-01 11:36:52 1512146212.353631: $GPGGA,163653,3946.9571,N,08404.9834,W,2,11,0.80,302.70,M,-33.324,M,,*7D
2017-12-01 11:36:52 1512146212.353698: $GPRMC,163653,A,3946.9571,N,08404.9834,W,0.0000,0.000,011217,,*33
2017-12-01 11:36:52 1512146212.353765: $GPGSA,A,3,5,10,13,15,18,20,21,24,27,29,138,,2.0,0.8,1.5*34
2017-12-01 11:36:53 1512146213.690450: $GPGSV,3,1,12,05,16,075,30,10,11,270,38,13,46,052,45,15,77,084,47*79
2017-12-01 11:36:53 1512146213.708476: $GPGSV,3,2,12,18,41,282,44,20,64,045,40,21,64,307,46,24,18,150,42*70
2017-12-01 11:36:53 1512146213.708593: $GPGSV,3,3,12,27,07,325,36,29,27,196,45,04,15,129,00,138,38,213,46*41
2017-12-01 11:36:53 1512146213.804170: $GPZDA,163654.00,01,12,2017,00,00*63
2017-12-01 11:36:53 1512146213.804339: $GPGGA,163654,3946.9571,N,08404.9834,W,2,11,0.80,302.70,M,-33.324,M,,*7A
2017-12-01 11:36:53 1512146213.804405: $GPRMC,163654,A,3946.9571,N,08404.9834,W,0.0000,0.000,011217,,*34
2017-12-01 11:36:53 1512146213.804466: $GPGSA,A,3,5,10,13,15,18,20,21,24,27,29,138,,2.0,0.8,1.5*34
2017-12-01 11:36:54 1512146214.358401: $GPZDA,163655.00,01,12,2017,00,00*62
2017-12-01 11:36:54 1512146214.358606: $GPGGA,163655,3946.9568,N,08404.9835,W,2,11,0.80,303.46,M,-33.324,M,,*76
2017-12-01 11:36:54 1512146214.358681: $GPRMC,163655,A,3946.9568,N,08404.9835,W,0.0000,0.000,011217,,*3C
2017-12-01 11:36:54 1512146214.358746: $GPGSA,A,3,5,10,13,15,18,20,21,24,27,29,138,,2.0,0.8,1.5*34
2017-12-01 11:36:55 1512146215.353392: $GPZDA,163656.00,01,12,2017,00,00*61
2017-12-01 11:36:55 1512146215.353570: $GPGGA,163656,3946.9567,N,08404.9828,W,2,11,0.80,303.54,M,-33.324,M,,*75
2017-12-01 11:36:55 1512146215.353640: $GPRMC,163656,A,3946.9567,N,08404.9828,W,0.0000,0.000,011217,,*3C
2017-12-01 11:36:55 1512146215.353706: $GPGSA,A,3,5,10,13,15,18,20,21,24,27,29,138,,2.0,0.8,1.5*34
2017-12-01 11:36:56 1512146216.692029: $GPGSV,3,1,12,05,16,075,29,10,11,270,38,13,46,052,46,15,77,084,47*72
2017-12-01 11:36:56 1512146216.692194: $GPGSV,3,2,12,18,41,282,44,20,64,045,40,21,64,307,46,24,18,150,42*70
2017-12-01 11:36:56 1512146216.692261: $GPGSV,3,3,12,27,07,325,36,29,27,196,45,04,15,129,00,138,38,213,46*41
2017-12-01 11:36:56 1512146216.805698: $GPZDA,163657.00,01,12,2017,00,00*60
2017-12-01 11:36:56 1512146216.806155: $GPGGA,163657,3946.9567,N,08404.9828,W,2,11,0.80,303.54,M,-33.324,M,,*74
2017-12-01 11:36:56 1512146216.806314: $GPRMC,163657,A,3946.9567,N,08404.9828,W,0.0000,0.000,011217,,*3D
2017-12-01 11:36:56 1512146216.806377: $GPGSA,A,3,5,10,13,15,18,20,21,24,27,29,138,,2.0,0.8,1.5*34
2017-12-01 11:36:57 1512146217.353821: $GPZDA,163658.00,01,12,2017,00,00*6F
2017-12-01 11:36:57 1512146217.354017: $GPGGA,163658,3946.9567,N,08404.9828,W,2,11,0.80,303.54,M,-33.324,M,,*7B
2017-12-01 11:36:57 1512146217.354092: $GPRMC,163658,A,3946.9567,N,08404.9828,W,0.0000,0.000,011217,,*32
2017-12-01 11:36:57 1512146217.354155: $GPGSA,A,3,5,10,13,15,18,20,21,24,27,29,138,,2.0,0.8,1.5*34
2017-12-01 11:36:58 1512146218.357270: $GPZDA,163659.00,01,12,2017,00,00*6E
2017-12-01 11:36:58 1512146218.357446: $GPGGA,163659,3946.9564,N,08404.9829,W,2,11,0.80,304.31,M,-33.324,M,,*7C
2017-12-01 11:36:58 1512146218.357514: $GPRMC,163659,A,3946.9564,N,08404.9829,W,0.0000,0.000,011217,,*31
2017-12-01 11:36:58 1512146218.357578: $GPGSA,A,3,5,10,13,15,18,20,21,24,27,29,138,,2.0,0.8,1.5*34
2017-12-01 11:36:59 1512146219.690402: $GPGSV,3,1,12,05,16,075,23,10,11,270,37,13,46,052,46,15,77,084,48*78
2017-12-01 11:36:59 1512146219.690600: $GPGSV,3,2,12,18,41,282,44,20,64,045,41,21,64,307,46,24,18,150,42*71
2017-12-01 11:36:59 1512146219.690674: $GPGSV,3,3,12,27,07,325,37,29,27,196,45,04,15,129,00,138,38,213,46*40
