2017-12-14 12:41:59 1513273319.942178: {"class":"VERSION","release":"3.16","rev":"3.16-4","proto_major":3,"proto_minor":11}
2017-12-14 12:41:59 1513273319.942586: {"class":"DEVICES","devices":[{"class":"DEVICE","path":"/dev/ttyUSB0","driver":"SiRF","subtype":"9\u0006GSD4e_4.1.2-P1_RPATCH.05-F-GPS-4R-1510281 11/03/2015 307","activated":"2017-12-14T17:41:59.891Z","flags":1,"native":1,"bps":4800,"parity":"N","stopbits":1,"cycle":1.00}]}
2017-12-14 12:41:59 1513273319.942704: {"class":"WATCH","enable":true,"json":false,"nmea":true,"raw":0,"scaled":false,"timing":false,"split24":false,"pps":false}
2017-12-14 12:42:00 1513273320.176444: $GPZDA,174201.00,14,12,2017,00,00*65
2017-12-14 12:42:00 1513273320.176611: $GPGGA,174201,3946.9480,N,08404.9392,W,1,06,1.80,316.75,M,-33.324,M,,*74
2017-12-14 12:42:00 1513273320.176677: $GPRMC,174201,A,3946.9480,N,08404.9392,W,1.3217,30.707,141217,,*0F
2017-12-14 12:42:00 1513273320.176737: $GPGSA,A,3,18,20,15,27,32,10,,,,,,,6.6,1.8,6.2*35
2017-12-14 12:42:01 1513273321.510067: $GPGSV,3,1,11,18,76,012,24,20,26,103,21,14,12,238,11,27,16,279,15*74
2017-12-14 12:42:01 1513273321.510249: $GPGSV,3,2,11,32,30,246,20,10,50,310,16,24,53,091,15,15,28,057,00*79
2017-12-14 12:42:01 1513273321.510315: $GPGSV,3,3,11,08,08,313,00,21,51,183,00,138,38,213,00*74
2017-12-14 12:42:01 1513273321.623486: $GPZDA,174202.00,14,12,2017,00,00*66
2017-12-14 12:42:01 1513273321.623662: $GPGGA,174202,3946.9481,N,08404.9387,W,1,06,1.80,319.64,M,-33.324,M,,*7D
2017-12-14 12:42:01 1513273321.623727: $GPRMC,174202,A,3946.9481,N,08404.9387,W,1.0269,39.264,141217,,*0A
2017-12-14 12:42:01 1513273321.623787: $GPGSA,A,3,18,20,27,32,10,24,,,,,,,6.6,1.8,6.2*37
2017-12-14 12:42:02 1513273322.174827: $GPZDA,174203.00,14,12,2017,00,00*67
2017-12-14 12:42:02 1513273322.175001: $GPGGA,174203,3946.9478,N,08404.9388,W,1,06,1.80,320.41,M,-33.324,M,,*78
2017-12-14 12:42:02 1513273322.175068: $GPRMC,174203,A,3946.9478,N,08404.9388,W,0.7747,57.028,141217,,*0F
2017-12-14 12:42:02 1513273322.175128: $GPGSA,A,3,18,20,27,32,10,24,,,,,,,6.6,1.8,6.2*37
2017-12-14 12:42:03 1513273323.175706: $GPZDA,174204.00,14,12,2017,00,00*60
2017-12-14 12:42:03 1513273323.175879: $GPGGA,174204,3946.9478,N,08404.9381,W,1,06,1.80,321.89,M,-33.324,M,,*73
2017-12-14 12:42:03 1513273323.175946: $GPRMC,174204,A,3946.9478,N,08404.9381,W,0.6339,99.673,141217,,*07
2017-12-14 12:42:03 1513273323.176027: $GPGSA,A,3,18,20,27,32,10,24,,,,,,,6.6,1.8,6.2*37
2017-12-14 12:42:04 1513273324.509417: $GPGSV,3,1,11,18,76,012,25,20,26,103,21,14,12,238,13,27,16,279,16*74
2017-12-14 12:42:04 1513273324.509608: $GPGSV,3,2,11,32,30,246,20,10,50,310,17,15,28,057,16,24,53,091,00*7B
2017-12-14 12:42:04 1513273324.509676: $GPGSV,3,3,11,08,08,313,00,21,51,183,00,138,38,213,00*74
2017-12-14 12:42:04 1513273324.623117: $GPZDA,174205.00,14,12,2017,00,00*61
2017-12-14 12:42:04 1513273324.623296: $GPGGA,174205,3946.9478,N,08404.9381,W,1,07,1.80,321.89,M,-33.324,M,,*73
2017-12-14 12:42:04 1513273324.623369: $GPRMC,174205,A,3946.9478,N,08404.9381,W,0.2648,202.233,141217,,*31
2017-12-14 12:42:04 1513273324.623455: $GPGSA,A,3,18,20,14,27,32,10,15,,,,,,6.6,1.8,6.2*30
2017-12-14 12:42:05 1513273325.174214: $GPZDA,174206.00,14,12,2017,00,00*62
2017-12-14 12:42:05 1513273325.174386: $GPGGA,174206,3946.9474,N,08404.9382,W,1,07,1.80,322.65,M,-33.324,M,,*7E
2017-12-14 12:42:05 1513273325.174472: $GPRMC,174206,A,3946.9474,N,08404.9382,W,0.3255,256.774,141217,,*33
2017-12-14 12:42:05 1513273325.174535: $GPGSA,A,3,18,20,14,27,32,10,15,,,,,,6.6,1.8,6.2*30
2017-12-14 12:42:06 1513273326.175577: $GPZDA,174207.00,14,12,2017,00,00*63
2017-12-14 12:42:06 1513273326.179353: $GPGGA,174207,3946.9479,N,08404.9382,W,1,07,1.80,323.29,M,-33.324,M,,*7B
2017-12-14 12:42:06 1513273326.179463: $GPRMC,174207,A,3946.9479,N,08404.9382,W,1.0542,278.749,141217,,*3E
2017-12-14 12:42:06 1513273326.179526: $GPGSA,A,3,18,20,14,27,32,10,15,,,,,,6.6,1.8,6.2*30
2017-12-14 12:42:07 1513273327.511774: $GPGSV,3,1,11,18,76,012,24,20,26,103,21,14,12,238,12,27,16,279,16*74
2017-12-14 12:42:07 1513273327.511969: $GPGSV,3,2,11,32,30,246,20,10,50,310,18,24,53,091,07,15,28,057,00*74
2017-12-14 12:42:07 1513273327.512136: $GPGSV,3,3,11,08,08,313,00,21,51,183,00,138,38,213,00*74
2017-12-14 12:42:07 1513273327.625209: $GPZDA,174208.00,14,12,2017,00,00*6C
2017-12-14 12:42:07 1513273327.625380: $GPGGA,174208,3946.9475,N,08404.9383,W,1,06,1.80,324.06,M,-33.324,M,,*72
2017-12-14 12:42:07 1513273327.625447: $GPRMC,174208,A,3946.9475,N,08404.9383,W,0.8131,280.224,141217,,*3C
2017-12-14 12:42:07 1513273327.625507: $GPGSA,A,3,18,20,14,27,32,10,,,,,,,6.6,1.8,6.2*34
2017-12-14 12:42:08 1513273328.176114: $GPZDA,174209.00,14,12,2017,00,00*6D
2017-12-14 12:42:08 1513273328.176284: $GPGGA,174209,3946.9468,N,08404.9384,W,1,06,1.80,324.18,M,-33.324,M,,*77
2017-12-14 12:42:08 1513273328.176350: $GPRMC,174209,A,3946.9468,N,08404.9384,W,0.5383,219.426,141217,,*34
2017-12-14 12:42:08 1513273328.176410: $GPGSA,A,3,18,20,14,27,32,10,,,,,,,6.6,1.8,6.2*34
2017-12-14 12:42:09 1513273329.176343: $GPZDA,174210.00,14,12,2017,00,00*65
2017-12-14 12:42:09 1513273329.176510: $GPGGA,174210,3946.9461,N,08404.9385,W,1,06,1.80,325.71,M,-33.324,M,,*79
2017-12-14 12:42:09 1513273329.176577: $GPRMC,174210,A,3946.9461,N,08404.9385,W,0.9483,174.471,141217,,*35
2017-12-14 12:42:09 1513273329.176637: $GPGSA,A,3,18,20,14,27,32,10,,,,,,,6.6,1.8,6.2*34
2017-12-14 12:42:10 1513273330.512446: $GPGSV,3,1,11,18,76,012,25,20,26,103,21,14,12,238,04,27,16,279,16*72
2017-12-14 12:42:10 1513273330.512623: $GPGSV,3,2,11,32,30,246,20,10,50,310,18,24,53,091,10,15,28,057,17*74
2017-12-14 12:42:10 1513273330.512688: $GPGSV,3,3,11,08,08,313,00,21,51,183,00,138,38,213,00*74
2017-12-14 12:42:10 1513273330.625759: $GPZDA,174211.00,14,12,2017,00,00*64
2017-12-14 12:42:10 1513273330.625896: $GPGGA,174211,3946.9461,N,08404.9385,W,1,06,1.80,325.71,M,-33.324,M,,*78
2017-12-14 12:42:10 1513273330.625961: $GPRMC,174211,A,3946.9461,N,08404.9385,W,0.4729,125.884,141217,,*38
2017-12-14 12:42:10 1513273330.626021: $GPGSA,A,3,18,20,27,32,10,15,,,,,,,6.6,1.8,6.2*35
2017-12-14 12:42:11 1513273331.175947: $GPZDA,174212.00,14,12,2017,00,00*67
2017-12-14 12:42:11 1513273331.178731: $GPGGA,174212,3946.9461,N,08404.9385,W,1,06,1.80,325.71,M,-33.324,M,,*7B
2017-12-14 12:42:11 1513273331.178835: $GPRMC,174212,A,3946.9461,N,08404.9385,W,0.5997,192.055,141217,,*39
2017-12-14 12:42:11 1513273331.178898: $GPGSA,A,3,18,20,27,32,10,15,,,,,,,6.6,1.8,6.2*35
2017-12-14 12:42:12 1513273332.176415: $GPZDA,174213.00,14,12,2017,00,00*66
2017-12-14 12:42:12 1513273332.176586: $GPGGA,174213,3946.9453,N,08404.9393,W,1,06,1.80,325.76,M,-33.324,M,,*7B
2017-12-14 12:42:12 1513273332.176652: $GPRMC,174213,A,3946.9453,N,08404.9393,W,1.0973,215.274,141217,,*3D
2017-12-14 12:42:12 1513273332.176712: $GPGSA,A,3,18,20,27,32,10,15,,,,,,,6.6,1.8,6.2*35
2017-12-14 12:42:13 1513273333.512918: $GPGSV,3,1,11,18,76,012,25,20,26,103,20,14,12,238,07,27,16,279,16*70
2017-12-14 12:42:13 1513273333.513098: $GPGSV,3,2,11,32,30,246,20,10,50,310,19,24,53,091,11,15,28,057,00*72
2017-12-14 12:42:13 1513273333.513163: $GPGSV,3,3,11,08,08,313,00,21,51,183,00,138,38,213,00*74
2017-12-14 12:42:13 1513273333.626331: $GPZDA,174214.00,14,12,2017,00,00*61
2017-12-14 12:42:13 1513273333.626498: $GPGGA,174214,3946.9442,N,08404.9394,W,1,06,1.80,326.65,M,-33.324,M,,*7A
2017-12-14 12:42:13 1513273333.626563: $GPRMC,174214,A,3946.9442,N,08404.9394,W,1.6793,194.380,141217,,*3B
2017-12-14 12:42:13 1513273333.626624: $GPGSA,A,3,18,20,27,32,10,24,,,,,,,6.6,1.8,6.2*37
2017-12-14 12:42:14 1513273334.177694: $GPZDA,174215.00,14,12,2017,00,00*60
2017-12-14 12:42:14 1513273334.177869: $GPGGA,174215,3946.9439,N,08404.9395,W,1,06,1.80,327.41,M,-33.324,M,,*71
2017-12-14 12:42:14 1513273334.177935: $GPRMC,174215,A,3946.9439,N,08404.9395,W,2.1458,205.549,141217,,*3F
2017-12-14 12:42:14 1513273334.177995: $GPGSA,A,3,18,20,27,32,10,24,,,,,,,6.6,1.8,6.2*37
2017-12-14 12:42:15 1513273335.179056: $GPZDA,174216.00,14,12,2017,00,00*63
2017-12-14 12:42:15 1513273335.179250: $GPGGA,174216,3946.9439,N,08404.9402,W,1,06,2.00,327.33,M,-33.324,M,,*75
2017-12-14 12:42:15 1513273335.179317: $GPRMC,174216,A,3946.9439,N,08404.9402,W,1.3798,219.378,141217,,*32
2017-12-14 12:42:15 1513273335.179427: $GPGSA,A,3,18,20,27,32,10,24,,,,,,,6.6,2.0,6.2*3C
2017-12-14 12:42:16 1513273336.512780: $GPGSV,3,1,11,18,76,012,25,20,26,103,20,14,12,238,10,27,16,279,16*76
2017-12-14 12:42:16 1513273336.514480: $GPGSV,3,2,11,32,30,246,20,10,50,310,19,24,53,091,11,21,51,183,18*7A
2017-12-14 12:42:16 1513273336.514578: $GPGSV,3,3,11,15,28,057,10,08,08,313,00,138,38,213,00*74
2017-12-14 12:42:16 1513273336.626566: $GPZDA,174217.00,14,12,2017,00,00*62
2017-12-14 12:42:16 1513273336.626706: $GPGGA,174217,3946.9439,N,08404.9402,W,1,07,1.80,327.33,M,-33.324,M,,*7E
2017-12-14 12:42:16 1513273336.626770: $GPRMC,174217,A,3946.9439,N,08404.9402,W,1.1097,213.261,141217,,*3A
2017-12-14 12:42:16 1513273336.626830: $GPGSA,A,3,18,20,27,32,10,24,21,,,,,,6.6,1.8,6.2*34
2017-12-14 12:42:17 1513273337.177850: $GPZDA,174218.00,14,12,2017,00,00*6D
2017-12-14 12:42:17 1513273337.177999: $GPGGA,174218,3946.9436,N,08404.9403,W,1,07,1.80,328.09,M,-33.324,M,,*79
2017-12-14 12:42:17 1513273337.178064: $GPRMC,174218,A,3946.9436,N,08404.9403,W,0.9591,219.391,141217,,*35
2017-12-14 12:42:17 1513273337.178124: $GPGSA,A,3,18,20,27,32,10,24,21,,,,,,6.6,1.8,6.2*34
2017-12-14 12:42:18 1513273338.177474: $GPZDA,174219.00,14,12,2017,00,00*6C
2017-12-14 12:42:18 1513273338.177630: $GPGGA,174219,3946.9432,N,08404.9403,W,1,07,1.80,328.86,M,-33.324,M,,*7B
2017-12-14 12:42:18 1513273338.177694: $GPRMC,174219,A,3946.9432,N,08404.9403,W,0.6137,169.063,141217,,*3D
2017-12-14 12:42:18 1513273338.177755: $GPGSA,A,3,18,20,27,32,10,24,21,,,,,,6.6,1.8,6.2*34
2017-12-14 12:42:19 1513273339.513365: $GPGSV,3,1,11,18,76,012,25,20,26,103,20,14,12,238,10,27,16,279,16*76
2017-12-14 12:42:19 1513273339.513544: $GPGSV,3,2,11,32,30,246,19,10,50,310,20,24,53,091,11,21,51,183,18*7A
2017-12-14 12:42:19 1513273339.513609: $GPGSV,3,3,11,15,28,057,00,08,08,313,00,138,38,213,00*75
2017-12-14 12:42:19 1513273339.626784: $GPZDA,174220.00,14,12,2017,00,00*66
2017-12-14 12:42:19 1513273339.626965: $GPGGA,174220,3946.9440,N,08404.9403,W,1,08,1.80,328.73,M,-33.324,M,,*71
2017-12-14 12:42:19 1513273339.627032: $GPRMC,174220,A,3946.9440,N,08404.9403,W,0.7879,127.528,141217,,*30
2017-12-14 12:42:19 1513273339.627092: $GPGSA,A,3,18,20,14,27,32,10,24,21,,,,,6.6,1.8,6.2*31
