2017-12-01 14:14:58 1512155698.816554: {"class":"VERSION","release":"3.16","rev":"3.16-4","proto_major":3,"proto_minor":11}
2017-12-01 14:14:58 1512155698.816942: {"class":"DEVICES","devices":[{"class":"DEVICE","path":"/dev/ttyUSB0","driver":"SiRF","subtype":"9\u0006GSD4e_4.1.2-P1_RPATCH.05-F-GPS-4R-1510281 11/03/2015 307","activated":"2017-12-01T19:14:58.680Z","flags":1,"native":1,"bps":4800,"parity":"N","stopbits":1,"cycle":1.00}]}
2017-12-01 14:14:58 1512155698.817067: {"class":"WATCH","enable":true,"json":false,"nmea":true,"raw":0,"scaled":false,"timing":false,"split24":false,"pps":false}
2017-12-01 14:14:59 1512155699.366247: $GPZDA,191500.00,01,12,2017,00,00*6C
2017-12-01 14:14:59 1512155699.366424: $GPGGA,191500,3946.9564,N,08404.9816,W,2,12,0.80,305.87,M,-33.324,M,,*7D
2017-12-01 14:14:59 1512155699.366490: $GPRMC,191500,A,3946.9564,N,08404.9816,W,0.0000,0.000,011217,,*3F
2017-12-01 14:14:59 1512155699.366551: $GPGSA,A,3,10,14,18,21,24,27,32,8,12,15,20,138,2.0,0.8,1.5*37
2017-12-01 14:15:00 1512155700.701770: $GPGSV,3,1,12,10,66,327,49,14,26,250,38,18,73,084,43,21,32,180,44*72
2017-12-01 14:15:00 1512155700.701951: $GPGSV,3,2,12,24,47,063,48,27,08,262,37,32,43,261,45,08,07,297,32*78
2017-12-01 14:15:00 1512155700.702037: $GPGSV,3,3,12,12,07,111,21,15,14,064,30,20,12,115,27,138,38,213,46*4E
2017-12-01 14:15:00 1512155700.814162: $GPZDA,191501.00,01,12,2017,00,00*6D
2017-12-01 14:15:00 1512155700.814330: $GPGGA,191501,3946.9564,N,08404.9816,W,2,12,0.80,305.87,M,-33.324,M,,*7C
2017-12-01 14:15:00 1512155700.814396: $GPRMC,191501,A,3946.9564,N,08404.9816,W,0.0000,0.000,011217,,*3E
2017-12-01 14:15:00 1512155700.814456: $GPGSA,A,3,10,14,18,21,24,27,32,8,12,15,20,138,2.0,0.8,1.5*37
2017-12-01 14:15:01 1512155701.360110: $GPZDA,191502.00,01,12,2017,00,00*6E
2017-12-01 14:15:01 1512155701.360280: $GPGGA,191502,3946.9561,N,08404.9816,W,2,12,0.80,306.63,M,-33.324,M,,*73
2017-12-01 14:15:01 1512155701.360347: $GPRMC,191502,A,3946.9561,N,08404.9816,W,0.0000,0.000,011217,,*38
2017-12-01 14:15:01 1512155701.360408: $GPGSA,A,3,10,14,18,21,24,27,32,8,12,15,20,138,2.0,0.8,1.5*37
2017-12-01 14:15:02 1512155702.365843: $GPZDA,191503.00,01,12,2017,00,00*6F
2017-12-01 14:15:02 1512155702.366017: $GPGGA,191503,3946.9561,N,08404.9816,W,2,12,0.80,306.63,M,-33.324,M,,*72
2017-12-01 14:15:02 1512155702.366105: $GPRMC,191503,A,3946.9561,N,08404.9816,W,0.0000,0.000,011217,,*39
2017-12-01 14:15:02 1512155702.366168: $GPGSA,A,3,10,14,18,21,24,27,32,8,12,15,20,138,2.0,0.8,1.5*37
2017-12-01 14:15:03 1512155703.702619: $GPGSV,3,1,12,10,66,327,49,14,26,250,38,18,73,084,43,21,32,180,44*72
2017-12-01 14:15:03 1512155703.702818: $GPGSV,3,2,12,24,47,063,48,27,08,262,37,32,43,261,45,08,07,297,31*7B
2017-12-01 14:15:03 1512155703.702885: $GPGSV,3,3,12,12,07,111,21,15,14,064,29,20,12,115,27,138,38,213,46*46
2017-12-01 14:15:03 1512155703.816402: $GPZDA,191504.00,01,12,2017,00,00*68
2017-12-01 14:15:03 1512155703.816573: $GPGGA,191504,3946.9561,N,08404.9816,W,2,12,0.80,306.63,M,-33.324,M,,*75
2017-12-01 14:15:03 1512155703.816640: $GPRMC,191504,A,3946.9561,N,08404.9816,W,0.0000,0.000,011217,,*3E
2017-12-01 14:15:03 1512155703.816701: $GPGSA,A,3,10,14,18,21,24,27,32,8,12,15,20,138,2.0,0.8,1.5*37
2017-12-01 14:15:04 1512155704.441606: $GPZDA,191505.00,01,12,2017,00,00*69
2017-12-01 14:15:04 1512155704.441767: $GPGGA,191505,3946.9561,N,08404.9816,W,2,12,0.80,306.63,M,-33.324,M,,*74
2017-12-01 14:15:04 1512155704.441852: $GPRMC,191505,A,3946.9561,N,08404.9816,W,0.0000,0.000,011217,,*3F
2017-12-01 14:15:04 1512155704.441915: $GPGSA,A,3,10,14,18,21,24,27,32,8,12,15,20,138,2.0,0.8,1.5*37
2017-12-01 14:15:05 1512155705.365884: $GPZDA,191506.00,01,12,2017,00,00*6A
2017-12-01 14:15:05 1512155705.366088: $GPGGA,191506,3946.9561,N,08404.9816,W,2,12,0.80,306.63,M,-33.324,M,,*77
2017-12-01 14:15:05 1512155705.366161: $GPRMC,191506,A,3946.9561,N,08404.9816,W,0.0000,0.000,011217,,*3C
2017-12-01 14:15:05 1512155705.366223: $GPGSA,A,3,10,14,18,21,24,27,32,8,12,15,20,138,2.0,0.8,1.5*37
2017-12-01 14:15:06 1512155706.700460: $GPGSV,3,1,12,10,66,327,48,14,26,250,37,18,73,084,43,21,32,180,43*7B
2017-12-01 14:15:06 1512155706.700692: $GPGSV,3,2,12,24,47,063,48,27,08,262,38,32,43,261,45,08,07,297,23*77
2017-12-01 14:15:06 1512155706.700763: $GPGSV,3,3,12,12,07,111,21,15,14,064,29,20,12,115,27,138,38,213,46*46
2017-12-01 14:15:06 1512155706.814972: $GPZDA,191507.00,01,12,2017,00,00*6B
2017-12-01 14:15:06 1512155706.815162: $GPGGA,191507,3946.9561,N,08404.9816,W,2,12,0.80,306.63,M,-33.324,M,,*76
2017-12-01 14:15:06 1512155706.815230: $GPRMC,191507,A,3946.9561,N,08404.9816,W,0.0000,0.000,011217,,*3D
2017-12-01 14:15:06 1512155706.815313: $GPGSA,A,3,10,14,18,21,24,27,32,8,12,15,20,138,2.0,0.8,1.5*37
2017-12-01 14:15:07 1512155707.367629: $GPZDA,191508.00,01,12,2017,00,00*64
2017-12-01 14:15:07 1512155707.367797: $GPGGA,191508,3946.9561,N,08404.9816,W,2,12,0.80,306.63,M,-33.324,M,,*79
2017-12-01 14:15:07 1512155707.367863: $GPRMC,191508,A,3946.9561,N,08404.9816,W,0.0000,0.000,011217,,*32
2017-12-01 14:15:07 1512155707.367925: $GPGSA,A,3,10,14,18,21,24,27,32,8,12,15,20,138,2.0,0.8,1.5*37
2017-12-01 14:15:08 1512155708.360571: $GPZDA,191509.00,01,12,2017,00,00*65
2017-12-01 14:15:08 1512155708.360759: $GPGGA,191509,3946.9561,N,08404.9816,W,2,12,0.80,306.63,M,-33.324,M,,*78
2017-12-01 14:15:08 1512155708.360826: $GPRMC,191509,A,3946.9561,N,08404.9816,W,0.0000,0.000,011217,,*33
2017-12-01 14:15:08 1512155708.360887: $GPGSA,A,3,10,14,18,21,24,27,32,8,12,15,20,138,2.0,0.8,1.5*37
2017-12-01 14:15:09 1512155709.700803: $GPGSV,3,1,12,10,66,327,49,14,26,250,38,18,73,084,43,21,32,180,43*75
2017-12-01 14:15:09 1512155709.700979: $GPGSV,3,2,12,24,47,063,48,27,08,262,38,32,43,261,45,08,07,297,24*70
2017-12-01 14:15:09 1512155709.701046: $GPGSV,3,3,12,12,07,111,21,15,14,064,28,20,12,115,28,138,38,213,46*48
2017-12-01 14:15:09 1512155709.814182: $GPZDA,191510.00,01,12,2017,00,00*6D
2017-12-01 14:15:09 1512155709.814367: $GPGGA,191510,3946.9557,N,08404.9817,W,2,12,0.80,307.40,M,-33.324,M,,*74
2017-12-01 14:15:09 1512155709.814433: $GPRMC,191510,A,3946.9557,N,08404.9817,W,0.0000,0.000,011217,,*3F
2017-12-01 14:15:09 1512155709.814495: $GPGSA,A,3,10,14,18,21,24,27,32,8,12,15,20,138,2.0,0.8,1.5*37
2017-12-01 14:15:10 1512155710.366351: $GPZDA,191511.00,01,12,2017,00,00*6C
2017-12-01 14:15:10 1512155710.366526: $GPGGA,191511,3946.9557,N,08404.9817,W,2,12,0.80,307.40,M,-33.324,M,,*75
2017-12-01 14:15:10 1512155710.366595: $GPRMC,191511,A,3946.9557,N,08404.9817,W,0.0000,0.000,011217,,*3E
2017-12-01 14:15:10 1512155710.366655: $GPGSA,A,3,10,14,18,21,24,27,32,8,12,15,20,138,2.0,0.8,1.5*37
2017-12-01 14:15:11 1512155711.365931: $GPZDA,191512.00,01,12,2017,00,00*6F
2017-12-01 14:15:11 1512155711.366126: $GPGGA,191512,3946.9557,N,08404.9817,W,2,12,0.80,307.40,M,-33.324,M,,*76
2017-12-01 14:15:11 1512155711.366210: $GPRMC,191512,A,3946.9557,N,08404.9817,W,0.0000,0.000,011217,,*3D
2017-12-01 14:15:11 1512155711.366273: $GPGSA,A,3,10,14,18,21,24,27,32,8,12,15,20,138,2.0,0.8,1.5*37
2017-12-01 14:15:12 1512155712.695407: $GPGSV,3,1,12,10,66,327,48,14,26,250,38,18,73,084,44,21,32,180,43*73
2017-12-01 14:15:12 1512155712.695591: $GPGSV,3,2,12,24,47,063,49,27,08,262,39,32,43,261,45,08,07,297,23*77
2017-12-01 14:15:12 1512155712.695658: $GPGSV,3,3,12,12,07,111,20,15,14,064,23,20,12,115,28,138,38,213,47*43
2017-12-01 14:15:12 1512155712.808838: $GPZDA,191513.00,01,12,2017,00,00*6E
2017-12-01 14:15:12 1512155712.809011: $GPGGA,191513,3946.9561,N,08404.9817,W,2,12,0.80,308.04,M,-33.324,M,,*7D
2017-12-01 14:15:12 1512155712.809078: $GPRMC,191513,A,3946.9561,N,08404.9817,W,0.0000,0.000,011217,,*39
2017-12-01 14:15:12 1512155712.809140: $GPGSA,A,3,10,14,18,21,24,27,32,8,12,15,20,138,2.0,0.8,1.5*37
2017-12-01 14:15:13 1512155713.367626: $GPZDA,191514.00,01,12,2017,00,00*69
2017-12-01 14:15:13 1512155713.370452: $GPGGA,191514,3946.9561,N,08404.9817,W,2,12,0.80,308.04,M,-33.324,M,,*7A
2017-12-01 14:15:13 1512155713.370569: $GPRMC,191514,A,3946.9561,N,08404.9817,W,0.0000,0.000,011217,,*3E
2017-12-01 14:15:13 1512155713.370633: $GPGSA,A,3,10,14,18,21,24,27,32,8,12,15,20,138,2.0,0.8,1.5*37
2017-12-01 14:15:14 1512155714.365385: $GPZDA,191515.00,01,12,2017,00,00*68
2017-12-01 14:15:14 1512155714.365554: $GPGGA,191515,3946.9561,N,08404.9817,W,2,12,0.80,308.04,M,-33.324,M,,*7B
2017-12-01 14:15:14 1512155714.365620: $GPRMC,191515,A,3946.9561,N,08404.9817,W,0.0000,0.000,011217,,*3F
2017-12-01 14:15:14 1512155714.365681: $GPGSA,A,3,10,14,18,21,24,27,32,8,12,15,20,138,2.0,0.8,1.5*37
2017-12-01 14:15:15 1512155715.702049: $GPGSV,3,1,12,10,66,327,49,14,26,250,38,18,73,084,44,21,32,180,44*75
2017-12-01 14:15:15 1512155715.702243: $GPGSV,3,2,12,24,47,063,49,27,08,262,39,32,43,261,45,08,07,297,30*75
2017-12-01 14:15:15 1512155715.702311: $GPGSV,3,3,12,12,07,111,21,15,14,064,24,20,12,115,28,138,38,213,46*44
2017-12-01 14:15:15 1512155715.815698: $GPZDA,191516.00,01,12,2017,00,00*6B
2017-12-01 14:15:15 1512155715.815868: $GPGGA,191516,3946.9561,N,08404.9817,W,2,12,0.80,308.04,M,-33.324,M,,*78
2017-12-01 14:15:15 1512155715.815934: $GPRMC,191516,A,3946.9561,N,08404.9817,W,0.0000,0.000,011217,,*3C
2017-12-01 14:15:15 1512155715.815995: $GPGSA,A,3,10,14,18,21,24,27,32,8,12,15,20,138,2.0,0.8,1.5*37
2017-12-01 14:15:16 1512155716.368765: $GPZDA,191517.00,01,12,2017,00,00*6A
2017-12-01 14:15:16 1512155716.368946: $GPGGA,191517,3946.9561,N,08404.9817,W,2,12,0.80,308.04,M,-33.324,M,,*79
2017-12-01 14:15:16 1512155716.369013: $GPRMC,191517,A,3946.9561,N,08404.9817,W,0.0000,0.000,011217,,*3D
2017-12-01 14:15:16 1512155716.369074: $GPGSA,A,3,10,14,18,21,24,27,32,8,12,15,20,138,2.0,0.8,1.5*37
2017-12-01 14:15:17 1512155717.365887: $GPZDA,191518.00,01,12,2017,00,00*65
2017-12-01 14:15:17 1512155717.366059: $GPGGA,191518,3946.9558,N,08404.9818,W,2,12,0.80,308.80,M,-33.324,M,,*7F
2017-12-01 14:15:17 1512155717.366127: $GPRMC,191518,A,3946.9558,N,08404.9818,W,0.0000,0.000,011217,,*37
2017-12-01 14:15:17 1512155717.366188: $GPGSA,A,3,10,14,18,21,24,27,32,8,12,15,20,138,2.0,0.8,1.5*37
2017-12-01 14:15:18 1512155718.701680: $GPGSV,3,1,12,10,66,327,49,14,26,250,39,18,73,084,44,21,32,180,44*74
2017-12-01 14:15:18 1512155718.701859: $GPGSV,3,2,12,24,47,063,49,27,08,262,39,32,43,261,45,08,07,297,32*77
2017-12-01 14:15:18 1512155718.701926: $GPGSV,3,3,12,12,07,111,20,15,14,064,24,20,12,115,28,138,38,213,46*45
