2017-12-01 12:17:24 1512148644.386911: {"class":"VERSION","release":"3.16","rev":"3.16-4","proto_major":3,"proto_minor":11}
2017-12-01 12:17:24 1512148644.387333: {"class":"DEVICES","devices":[{"class":"DEVICE","path":"/dev/ttyUSB0","driver":"SiRF","subtype":"9\u0006GSD4e_4.1.2-P1_RPATCH.05-F-GPS-4R-1510281 11/03/2015 307","activated":"2017-12-01T17:17:24.363Z","flags":1,"native":1,"bps":4800,"parity":"N","stopbits":1,"cycle":1.00}]}
2017-12-01 12:17:24 1512148644.387455: {"class":"WATCH","enable":true,"json":false,"nmea":true,"raw":0,"scaled":false,"timing":false,"split24":false,"pps":false}
2017-12-01 12:17:25 1512148645.896827: $GPZDA,171726.00,01,12,2017,00,00*64
2017-12-01 12:17:25 1512148645.897012: $GPGGA,171726,3946.9573,N,08404.9832,W,2,11,0.80,299.12,M,-33.324,M,,*7E
2017-12-01 12:17:25 1512148645.897080: $GPRMC,171726,A,3946.9573,N,08404.9832,W,0.0000,0.000,011217,,*37
2017-12-01 12:17:25 1512148645.897141: $GPGSA,A,3,10,13,15,18,20,21,24,27,29,5,138,,2.0,0.8,1.5*34
2017-12-01 12:17:26 1512148646.700041: $GPGSV,3,1,12,10,23,283,43,13,29,045,44,15,61,051,45,18,54,300,45*72
2017-12-01 12:17:26 1512148646.700227: $GPGSV,3,2,12,20,52,072,45,21,78,267,42,24,33,138,48,27,16,313,38*7B
2017-12-01 12:17:26 1512148646.700295: $GPGSV,3,3,12,29,10,189,00,05,03,087,19,32,01,225,00,138,38,213,45*44
2017-12-01 12:17:26 1512148646.813440: $GPZDA,171727.00,01,12,2017,00,00*65
2017-12-01 12:17:26 1512148646.813614: $GPGGA,171727,3946.9573,N,08404.9832,W,2,10,1.00,299.12,M,-33.324,M,,*77
2017-12-01 12:17:26 1512148646.813682: $GPRMC,171727,A,3946.9573,N,08404.9832,W,0.0000,0.000,011217,,*36
2017-12-01 12:17:26 1512148646.813742: $GPGSA,A,3,10,13,15,18,20,21,24,27,5,138,,,2.0,1.0,1.5*36
2017-12-01 12:17:27 1512148647.438793: $GPZDA,171728.00,01,12,2017,00,00*6A
2017-12-01 12:17:27 1512148647.439001: $GPGGA,171728,3946.9573,N,08404.9832,W,2,10,1.00,299.12,M,-33.324,M,,*78
2017-12-01 12:17:27 1512148647.439069: $GPRMC,171728,A,3946.9573,N,08404.9832,W,0.0000,0.000,011217,,*39
2017-12-01 12:17:27 1512148647.439130: $GPGSA,A,3,10,13,15,18,20,21,24,27,5,138,,,2.0,1.0,1.5*36
2017-12-01 12:17:28 1512148648.365993: $GPZDA,171729.00,01,12,2017,00,00*6B
2017-12-01 12:17:28 1512148648.366166: $GPGGA,171729,3946.9573,N,08404.9832,W,2,10,0.80,299.12,M,-33.324,M,,*70
2017-12-01 12:17:28 1512148648.366233: $GPRMC,171729,A,3946.9573,N,08404.9832,W,0.0000,0.000,011217,,*38
2017-12-01 12:17:28 1512148648.366294: $GPGSA,A,3,10,13,15,18,20,21,24,27,5,138,,,2.0,0.8,1.5*3F
2017-12-01 12:17:29 1512148649.706643: $GPGSV,3,1,12,10,23,283,43,13,29,045,44,15,61,051,45,18,54,300,45*72
2017-12-01 12:17:29 1512148649.706842: $GPGSV,3,2,12,20,52,072,45,21,78,267,42,24,33,138,48,27,16,313,36*75
2017-12-01 12:17:29 1512148649.706910: $GPGSV,3,3,12,29,10,189,28,05,03,087,18,32,01,225,04,138,38,213,46*48
2017-12-01 12:17:29 1512148649.818743: $GPZDA,171730.00,01,12,2017,00,00*63
2017-12-01 12:17:29 1512148649.818888: $GPGGA,171730,3946.9573,N,08404.9832,W,2,11,0.80,299.12,M,-33.324,M,,*79
2017-12-01 12:17:29 1512148649.818970: $GPRMC,171730,A,3946.9573,N,08404.9832,W,0.0000,0.000,011217,,*30
2017-12-01 12:17:29 1512148649.819032: $GPGSA,A,3,10,13,15,18,20,21,24,27,29,5,138,,2.0,0.8,1.5*34
2017-12-01 12:17:30 1512148650.364662: $GPZDA,171731.00,01,12,2017,00,00*62
2017-12-01 12:17:30 1512148650.364851: $GPGGA,171731,3946.9573,N,08404.9832,W,2,11,0.80,299.12,M,-33.324,M,,*78
2017-12-01 12:17:30 1512148650.364935: $GPRMC,171731,A,3946.9573,N,08404.9832,W,0.0000,0.000,011217,,*31
2017-12-01 12:17:30 1512148650.364998: $GPGSA,A,3,10,13,15,18,20,21,24,27,29,5,138,,2.0,0.8,1.5*34
2017-12-01 12:17:31 1512148651.368391: $GPZDA,171732.00,01,12,2017,00,00*61
2017-12-01 12:17:31 1512148651.368560: $GPGGA,171732,3946.9573,N,08404.9832,W,2,11,0.80,299.12,M,-33.324,M,,*7B
2017-12-01 12:17:31 1512148651.368628: $GPRMC,171732,A,3946.9573,N,08404.9832,W,0.0000,0.000,011217,,*32
2017-12-01 12:17:31 1512148651.368689: $GPGSA,A,3,10,13,15,18,20,21,24,27,29,5,138,,2.0,0.8,1.5*34
2017-12-01 12:17:32 1512148652.698237: $GPGSV,3,1,12,10,23,283,43,13,29,045,44,15,61,051,45,18,54,300,44*73
2017-12-01 12:17:32 1512148652.698469: $GPGSV,3,2,12,20,52,072,45,21,78,267,42,24,33,138,48,27,16,313,36*75
2017-12-01 12:17:32 1512148652.698540: $GPGSV,3,3,12,29,10,189,29,05,03,087,18,32,01,225,18,138,38,213,46*44
2017-12-01 12:17:32 1512148652.811696: $GPZDA,171733.00,01,12,2017,00,00*60
2017-12-01 12:17:32 1512148652.811888: $GPGGA,171733,3946.9573,N,08404.9832,W,2,12,0.80,299.12,M,-33.324,M,,*79
2017-12-01 12:17:32 1512148652.811974: $GPRMC,171733,A,3946.9573,N,08404.9832,W,0.0000,0.000,011217,,*33
2017-12-01 12:17:32 1512148652.812035: $GPGSA,A,3,10,13,15,18,20,21,24,27,29,5,32,138,2.0,0.8,1.5*35
2017-12-01 12:17:33 1512148653.370060: $GPZDA,171734.00,01,12,2017,00,00*67
2017-12-01 12:17:33 1512148653.370232: $GPGGA,171734,3946.9573,N,08404.9832,W,2,12,0.80,299.12,M,-33.324,M,,*7E
2017-12-01 12:17:33 1512148653.370298: $GPRMC,171734,A,3946.9573,N,08404.9832,W,0.0000,0.000,011217,,*34
2017-12-01 12:17:33 1512148653.370359: $GPGSA,A,3,10,13,15,18,20,21,24,27,29,5,32,138,2.0,0.8,1.5*35
