2017-12-31 18:53:28 1514764408.138818: {"class":"VERSION","release":"3.16","rev":"3.16-4","proto_major":3,"proto_minor":11}
2017-12-31 18:53:28 1514764408.139221: {"class":"DEVICES","devices":[{"class":"DEVICE","path":"/dev/ttyUSB0","driver":"SiRF","activated":"2017-12-31T23:53:27.981Z","flags":1,"native":1,"bps":4800,"parity":"N","stopbits":1,"cycle":1.00}]}
2017-12-31 18:53:28 1514764408.139323: {"class":"WATCH","enable":true,"json":false,"nmea":true,"raw":0,"scaled":false,"timing":false,"split24":false,"pps":false}
2017-12-31 18:53:28 1514764408.391639: $GPZDA,235329.00,31,12,2017,00,00*6F
2017-12-31 18:53:28 1514764408.391819: $GPGGA,235329,3946.9574,N,08404.9811,W,2,11,0.80,311.44,M,-33.324,M,,*72
2017-12-31 18:53:28 1514764408.391886: $GPRMC,235329,A,3946.9574,N,08404.9811,W,0.0000,0.000,311217,,*3A
2017-12-31 18:53:28 1514764408.391948: $GPGSA,A,3,22,23,9,3,16,8,31,27,7,26,135,,1.7,0.8,1.3*09
2017-12-31 18:53:29 1514764409.352460: $GPZDA,235330.00,31,12,2017,00,00*67
2017-12-31 18:53:29 1514764409.352629: $GPGGA,235330,3946.9574,N,08404.9811,W,2,11,0.80,311.44,M,-33.324,M,,*7A
2017-12-31 18:53:29 1514764409.352697: $GPRMC,235330,A,3946.9574,N,08404.9811,W,0.0000,0.000,311217,,*32
2017-12-31 18:53:29 1514764409.352758: $GPGSA,A,3,22,23,9,3,16,8,31,27,7,26,135,,1.7,0.8,1.3*09
2017-12-31 18:53:30 1514764410.688967: $GPGSV,3,1,11,22,07,204,27,23,69,279,39,09,37,309,35,03,17,220,32*72
2017-12-31 18:53:30 1514764410.689138: $GPGSV,3,2,11,16,76,036,44,08,17,175,40,31,15,090,27,27,40,142,40*7A
2017-12-31 18:53:30 1514764410.689206: $GPGSV,3,3,11,07,11,285,43,26,43,048,45,135,22,240,44*79
2017-12-31 18:53:30 1514764410.802297: $GPZDA,235331.00,31,12,2017,00,00*66
2017-12-31 18:53:30 1514764410.802427: $GPGGA,235331,3946.9574,N,08404.9811,W,2,11,0.80,311.44,M,-33.324,M,,*7B
2017-12-31 18:53:30 1514764410.802491: $GPRMC,235331,A,3946.9574,N,08404.9811,W,0.0000,0.000,311217,,*33
2017-12-31 18:53:30 1514764410.802554: $GPGSA,A,3,22,23,9,3,16,8,31,27,7,26,135,,1.7,0.8,1.3*09
2017-12-31 18:53:31 1514764411.353189: $GPZDA,235332.00,31,12,2017,00,00*65
2017-12-31 18:53:31 1514764411.353342: $GPGGA,235332,3946.9574,N,08404.9811,W,2,11,0.80,311.44,M,-33.324,M,,*78
2017-12-31 18:53:31 1514764411.353411: $GPRMC,235332,A,3946.9574,N,08404.9811,W,0.0000,0.000,311217,,*30
2017-12-31 18:53:31 1514764411.353471: $GPGSA,A,3,22,23,9,3,16,8,31,27,7,26,135,,1.7,0.8,1.3*09
2017-12-31 18:53:32 1514764412.345699: $GPZDA,235333.00,31,12,2017,00,00*64
2017-12-31 18:53:32 1514764412.345860: $GPGGA,235333,3946.9574,N,08404.9811,W,2,11,0.80,311.44,M,-33.324,M,,*79
2017-12-31 18:53:32 1514764412.345927: $GPRMC,235333,A,3946.9574,N,08404.9811,W,0.0000,0.000,311217,,*31
2017-12-31 18:53:32 1514764412.345987: $GPGSA,A,3,22,23,9,3,16,8,31,27,7,26,135,,1.7,0.8,1.3*09
2017-12-31 18:53:33 1514764413.688611: $GPGSV,3,1,11,22,07,204,21,23,69,279,38,09,37,309,35,03,17,220,32*75
2017-12-31 18:53:33 1514764413.688781: $GPGSV,3,2,11,16,76,036,44,08,17,175,40,31,15,090,26,27,40,142,41*7A
2017-12-31 18:53:33 1514764413.688847: $GPGSV,3,3,11,07,11,285,42,26,43,048,45,135,22,240,45*79
2017-12-31 18:53:33 1514764413.802216: $GPZDA,235334.00,31,12,2017,00,00*63
2017-12-31 18:53:33 1514764413.802355: $GPGGA,235334,3946.9574,N,08404.9811,W,2,11,0.80,311.44,M,-33.324,M,,*7E
2017-12-31 18:53:33 1514764413.802420: $GPRMC,235334,A,3946.9574,N,08404.9811,W,0.0000,0.000,311217,,*36
2017-12-31 18:53:33 1514764413.802482: $GPGSA,A,3,22,23,9,3,16,8,31,27,7,26,135,,1.7,0.8,1.3*09
2017-12-31 18:53:34 1514764414.353102: $GPZDA,235335.00,31,12,2017,00,00*62
2017-12-31 18:53:34 1514764414.353283: $GPGGA,235335,3946.9574,N,08404.9811,W,2,11,0.80,311.44,M,-33.324,M,,*7F
2017-12-31 18:53:34 1514764414.353348: $GPRMC,235335,A,3946.9574,N,08404.9811,W,0.0000,0.000,311217,,*37
2017-12-31 18:53:34 1514764414.353409: $GPGSA,A,3,22,23,9,3,16,8,31,27,7,26,135,,1.7,0.8,1.3*09
2017-12-31 18:53:35 1514764415.392204: $GPZDA,235336.00,31,12,2017,00,00*61
2017-12-31 18:53:35 1514764415.392375: $GPGGA,235336,3946.9574,N,08404.9811,W,2,11,0.80,311.44,M,-33.324,M,,*7C
2017-12-31 18:53:35 1514764415.392496: $GPRMC,235336,A,3946.9574,N,08404.9811,W,0.0000,0.000,311217,,*34
2017-12-31 18:53:35 1514764415.392558: $GPGSA,A,3,22,23,9,3,16,8,31,27,7,26,135,,1.7,0.8,1.3*09
2017-12-31 18:53:36 1514764416.688913: $GPGSV,3,1,11,22,07,204,23,23,69,279,40,09,37,309,30,03,17,220,33*7C
2017-12-31 18:53:36 1514764416.689080: $GPGSV,3,2,11,16,76,036,44,08,17,175,40,31,15,090,31,27,40,142,42*7F
2017-12-31 18:53:36 1514764416.689162: $GPGSV,3,3,11,07,11,285,40,26,43,048,45,135,22,240,44*7A
2017-12-31 18:53:36 1514764416.802532: $GPZDA,235337.00,31,12,2017,00,00*60
2017-12-31 18:53:36 1514764416.802671: $GPGGA,235337,3946.9574,N,08404.9811,W,2,11,0.80,311.44,M,-33.324,M,,*7D
2017-12-31 18:53:36 1514764416.802737: $GPRMC,235337,A,3946.9574,N,08404.9811,W,0.0000,0.000,311217,,*35
2017-12-31 18:53:36 1514764416.802797: $GPGSA,A,3,22,23,9,3,16,8,31,27,7,26,135,,1.7,0.8,1.3*09
2017-12-31 18:53:37 1514764417.393419: $GPZDA,235338.00,31,12,2017,00,00*6F
2017-12-31 18:53:37 1514764417.393592: $GPGGA,235338,3946.9574,N,08404.9811,W,2,11,0.80,311.44,M,-33.324,M,,*72
2017-12-31 18:53:37 1514764417.393658: $GPRMC,235338,A,3946.9574,N,08404.9811,W,0.0000,0.000,311217,,*3A
2017-12-31 18:53:37 1514764417.393718: $GPGSA,A,3,22,23,9,3,16,8,31,27,7,26,135,,1.7,0.8,1.3*09
