2018-01-12 20:05:29 1515805529.722126: {"class":"VERSION","release":"3.16","rev":"3.16-4","proto_major":3,"proto_minor":11}
2018-01-12 20:05:29 1515805529.722463: {"class":"DEVICES","devices":[{"class":"DEVICE","path":"/dev/ttyUSB0","driver":"SiRF","subtype":"9\u0006GSD4e_4.1.2-P1_RPATCH.05-F-GPS-4R-1510281 11/03/2015 307","activated":"2018-01-13T01:05:29.361Z","flags":1,"native":1,"bps":4800,"parity":"N","stopbits":1,"cycle":1.00}]}
2018-01-12 20:05:29 1515805529.722578: {"class":"WATCH","enable":true,"json":false,"nmea":true,"raw":0,"scaled":false,"timing":false,"split24":false,"pps":false}
2018-01-12 20:05:30 1515805530.555567: $GPGSV,3,1,10,08,73,133,23,09,48,229,23,07,55,315,19,11,19,168,13*76
2018-01-12 20:05:30 1515805530.555754: $GPGSV,3,2,10,30,28,306,15,27,48,054,00,23,29,190,00,16,23,060,00*7B
2018-01-12 20:05:30 1515805530.555822: $GPGSV,3,3,10,28,13,258,00,138,38,213,00*4E
2018-01-12 20:05:30 1515805530.668928: $GPZDA,010531.00,13,01,2018,00,00*68
2018-01-12 20:05:30 1515805530.669087: $GPGGA,010531,3946.9623,N,08404.9452,W,1,05,2.20,294.42,M,-33.324,M,,*76
2018-01-12 20:05:30 1515805530.669153: $GPRMC,010531,A,3946.9623,N,08404.9452,W,0.8013,86.966,130118,,*0A
2018-01-12 20:05:30 1515805530.669215: $GPGSA,A,3,8,9,7,11,30,,,,,,,,4.8,2.2,4.6*09
2018-01-12 20:05:31 1515805531.219819: $GPZDA,010532.00,13,01,2018,00,00*6B
2018-01-12 20:05:31 1515805531.220000: $GPGGA,010532,3946.9618,N,08404.9452,W,1,05,2.20,293.78,M,-33.324,M,,*73
2018-01-12 20:05:31 1515805531.220067: $GPRMC,010532,A,3946.9618,N,08404.9452,W,0.5928,177.578,130118,,*31
2018-01-12 20:05:31 1515805531.220129: $GPGSA,A,3,8,9,7,11,30,,,,,,,,4.8,2.2,4.6*09
2018-01-12 20:05:32 1515805532.219909: $GPZDA,010533.00,13,01,2018,00,00*6A
2018-01-12 20:05:32 1515805532.220090: $GPGGA,010533,3946.9618,N,08404.9452,W,1,05,2.20,293.78,M,-33.324,M,,*72
2018-01-12 20:05:32 1515805532.220159: $GPRMC,010533,A,3946.9618,N,08404.9452,W,0.2558,168.706,130118,,*39
2018-01-12 20:05:32 1515805532.220221: $GPGSA,A,3,8,9,7,11,30,,,,,,,,4.8,2.2,4.6*09
2018-01-12 20:05:33 1515805533.556074: $GPGSV,3,1,10,08,73,133,23,09,48,229,22,07,55,315,18,11,19,168,14*71
2018-01-12 20:05:33 1515805533.556262: $GPGSV,3,2,10,30,28,306,15,27,48,054,00,23,29,190,00,16,23,060,00*7B
2018-01-12 20:05:33 1515805533.556329: $GPGSV,3,3,10,28,13,258,00,138,38,213,00*4E
2018-01-12 20:05:33 1515805533.669756: $GPZDA,010534.00,13,01,2018,00,00*6D
2018-01-12 20:05:33 1515805533.669902: $GPGGA,010534,3946.9618,N,08404.9452,W,1,05,2.20,293.78,M,-33.324,M,,*75
2018-01-12 20:05:33 1515805533.669967: $GPRMC,010534,A,3946.9618,N,08404.9452,W,0.6156,200.604,130118,,*3E
2018-01-12 20:05:33 1515805533.670029: $GPGSA,A,3,8,9,7,11,30,,,,,,,,4.8,2.2,4.6*09
2018-01-12 20:05:34 1515805534.220074: $GPZDA,010535.00,13,01,2018,00,00*6C
2018-01-12 20:05:34 1515805534.220252: $GPGGA,010535,3946.9614,N,08404.9452,W,1,05,2.20,293.14,M,-33.324,M,,*72
2018-01-12 20:05:34 1515805534.220320: $GPRMC,010535,A,3946.9614,N,08404.9452,W,0.9336,180.000,130118,,*31
2018-01-12 20:05:34 1515805534.220382: $GPGSA,A,3,8,9,7,11,30,,,,,,,,4.8,2.2,4.6*09
2018-01-12 20:05:35 1515805535.218963: $GPZDA,010536.00,13,01,2018,00,00*6F
2018-01-12 20:05:35 1515805535.219137: $GPGGA,010536,3946.9610,N,08404.9452,W,1,05,2.20,292.50,M,-33.324,M,,*74
2018-01-12 20:05:35 1515805535.219205: $GPRMC,010536,A,3946.9610,N,08404.9452,W,0.6156,200.604,130118,,*34
2018-01-12 20:05:35 1515805535.219267: $GPGSA,A,3,8,9,7,11,30,,,,,,,,4.8,2.2,4.6*09
2018-01-12 20:05:35 1515805535.219324: $GPGBS,010536,14.24,M,16.36,M,105.11,M*3A
2018-01-12 20:05:36 1515805536.556648: $GPGSV,3,1,10,08,73,133,23,09,48,229,22,07,55,315,18,11,19,168,14*71
2018-01-12 20:05:36 1515805536.556806: $GPGSV,3,2,10,30,28,306,15,27,48,054,08,23,29,190,00,16,23,060,00*73
2018-01-12 20:05:36 1515805536.556873: $GPGSV,3,3,10,28,13,258,00,138,38,213,00*4E
2018-01-12 20:05:36 1515805536.670447: $GPZDA,010537.00,13,01,2018,00,00*6E
2018-01-12 20:05:36 1515805536.670667: $GPGGA,010537,3946.9614,N,08404.9451,W,1,05,2.20,291.73,M,-33.324,M,,*70
2018-01-12 20:05:36 1515805536.670736: $GPRMC,010537,A,3946.9614,N,08404.9451,W,0.1975,255.900,130118,,*37
2018-01-12 20:05:36 1515805536.670859: $GPGSA,A,3,8,9,7,11,30,,,,,,,,4.8,2.2,4.6*09
2018-01-12 20:05:37 1515805537.222005: $GPZDA,010538.00,13,01,2018,00,00*61
2018-01-12 20:05:37 1515805537.222200: $GPGGA,010538,3946.9614,N,08404.9451,W,1,05,2.20,291.73,M,-33.324,M,,*7F
2018-01-12 20:05:37 1515805537.222270: $GPRMC,010538,A,3946.9614,N,08404.9451,W,0.3372,330.408,130118,,*30
2018-01-12 20:05:37 1515805537.222366: $GPGSA,A,3,8,9,7,11,30,,,,,,,,4.8,2.2,4.6*09
2018-01-12 20:05:38 1515805538.224098: $GPZDA,010539.00,13,01,2018,00,00*60
2018-01-12 20:05:38 1515805538.224280: $GPGGA,010539,3946.9614,N,08404.9451,W,1,05,2.20,291.73,M,-33.324,M,,*7E
2018-01-12 20:05:38 1515805538.224365: $GPRMC,010539,A,3946.9614,N,08404.9451,W,0.6645,282.038,130118,,*3A
2018-01-12 20:05:38 1515805538.224429: $GPGSA,A,3,8,9,7,11,30,,,,,,,,4.8,2.2,4.6*09
2018-01-12 20:05:39 1515805539.558995: $GPGSV,3,1,10,08,73,133,23,09,48,229,21,07,55,315,18,11,19,168,13*75
2018-01-12 20:05:39 1515805539.559198: $GPGSV,3,2,10,30,28,306,15,27,48,054,14,28,13,258,14,23,29,190,00*7C
2018-01-12 20:05:39 1515805539.559266: $GPGSV,3,3,10,16,23,060,00,138,38,213,00*49
2018-01-12 20:05:39 1515805539.672465: $GPZDA,010540.00,13,01,2018,00,00*6E
2018-01-12 20:05:39 1515805539.672618: $GPGGA,010540,3946.9613,N,08404.9451,W,1,06,1.20,290.33,M,-33.324,M,,*72
2018-01-12 20:05:39 1515805539.672684: $GPRMC,010540,A,3946.9613,N,08404.9451,W,0.1848,244.286,130118,,*3A
2018-01-12 20:05:39 1515805539.672745: $GPGSA,A,3,8,9,7,11,30,27,,,,,,,4.8,1.2,4.6*0F
2018-01-12 20:05:40 1515805540.222577: $GPZDA,010541.00,13,01,2018,00,00*6F
2018-01-12 20:05:40 1515805540.226525: $GPGGA,010541,3946.9613,N,08404.9451,W,1,06,1.20,290.33,M,-33.324,M,,*73
2018-01-12 20:05:40 1515805540.226640: $GPRMC,010541,A,3946.9613,N,08404.9451,W,0.2648,22.232,130118,,*0B
2018-01-12 20:05:40 1515805540.226705: $GPGSA,A,3,8,9,7,11,30,27,,,,,,,4.8,1.2,4.6*0F
2018-01-12 20:05:41 1515805541.223583: $GPZDA,010542.00,13,01,2018,00,00*6C
2018-01-12 20:05:41 1515805541.223757: $GPGGA,010542,3946.9616,N,08404.9450,W,1,06,1.20,289.56,M,-33.324,M,,*7F
2018-01-12 20:05:41 1515805541.223826: $GPRMC,010542,A,3946.9616,N,08404.9450,W,0.4433,13.063,130118,,*00
2018-01-12 20:05:41 1515805541.223887: $GPGSA,A,3,8,9,7,11,30,27,,,,,,,4.8,1.2,4.6*0F
2018-01-12 20:05:42 1515805542.559616: $GPGSV,3,1,10,08,73,133,24,09,48,229,21,07,55,315,18,11,19,168,13*72
2018-01-12 20:05:42 1515805542.559799: $GPGSV,3,2,10,30,28,306,15,27,48,054,15,23,29,190,00,16,23,060,00*7F
2018-01-12 20:05:42 1515805542.559868: $GPGSV,3,3,10,28,13,258,00,138,38,213,00*4E
2018-01-12 20:05:42 1515805542.673059: $GPZDA,010543.00,13,01,2018,00,00*6D
2018-01-12 20:05:42 1515805542.673278: $GPGGA,010543,3946.9612,N,08404.9450,W,1,06,1.20,288.92,M,-33.324,M,,*73
2018-01-12 20:05:42 1515805542.673349: $GPRMC,010543,A,3946.9612,N,08404.9450,W,0.3372,330.408,130118,,*3B
2018-01-12 20:05:42 1515805542.673411: $GPGSA,A,3,8,9,7,11,30,27,,,,,,,4.8,1.2,4.6*0F
2018-01-12 20:05:43 1515805543.223212: $GPZDA,010544.00,13,01,2018,00,00*6A
2018-01-12 20:05:43 1515805543.223419: $GPGGA,010544,3946.9620,N,08404.9449,W,1,06,1.20,288.80,M,-33.324,M,,*7E
2018-01-12 20:05:43 1515805543.223490: $GPRMC,010544,A,3946.9620,N,08404.9449,W,0.5080,340.865,130118,,*3D
2018-01-12 20:05:43 1515805543.223557: $GPGSA,A,3,8,9,7,11,30,27,,,,,,,4.8,1.2,4.6*0F
2018-01-12 20:05:44 1515805544.223308: $GPZDA,010545.00,13,01,2018,00,00*6B
2018-01-12 20:05:44 1515805544.223483: $GPGGA,010545,3946.9620,N,08404.9449,W,1,06,1.20,288.80,M,-33.324,M,,*7F
2018-01-12 20:05:44 1515805544.223552: $GPRMC,010545,A,3946.9620,N,08404.9449,W,0.6831,320.633,130118,,*36
2018-01-12 20:05:44 1515805544.223614: $GPGSA,A,3,8,9,7,11,30,27,,,,,,,4.8,1.2,4.6*0F
2018-01-12 20:05:45 1515805545.559487: $GPGSV,3,1,10,08,73,133,24,09,48,229,20,07,55,315,18,11,19,168,12*72
2018-01-12 20:05:45 1515805545.559675: $GPGSV,3,2,10,30,28,306,15,27,48,054,16,23,29,190,07,16,23,060,00*7B
2018-01-12 20:05:45 1515805545.559742: $GPGSV,3,3,10,28,13,258,00,138,38,213,00*4E
2018-01-12 20:05:45 1515805545.673109: $GPZDA,010546.00,13,01,2018,00,00*68
2018-01-12 20:05:45 1515805545.673362: $GPGGA,010546,3946.9617,N,08404.9457,W,1,06,1.20,289.49,M,-33.324,M,,*73
2018-01-12 20:05:45 1515805545.673430: $GPRMC,010546,A,3946.9617,N,08404.9457,W,0.5912,309.173,130118,,*35
2018-01-12 20:05:45 1515805545.673492: $GPGSA,A,3,8,9,7,11,30,27,,,,,,,4.8,1.2,4.6*0F
2018-01-12 20:05:46 1515805546.224134: $GPZDA,010547.00,13,01,2018,00,00*69
2018-01-12 20:05:46 1515805546.224438: $GPGGA,010547,3946.9621,N,08404.9457,W,1,06,1.20,290.13,M,-33.324,M,,*70
2018-01-12 20:05:46 1515805546.224562: $GPRMC,010547,A,3946.9621,N,08404.9457,W,1.0354,317.462,130118,,*37
2018-01-12 20:05:46 1515805546.224707: $GPGSA,A,3,8,9,7,11,30,27,,,,,,,4.8,1.2,4.6*0F
2018-01-12 20:05:47 1515805547.221474: $GPZDA,010548.00,13,01,2018,00,00*66
2018-01-12 20:05:47 1515805547.221650: $GPGGA,010548,3946.9621,N,08404.9457,W,1,06,1.80,290.13,M,-33.324,M,,*75
2018-01-12 20:05:47 1515805547.221732: $GPRMC,010548,A,3946.9621,N,08404.9457,W,0.7623,343.489,130118,,*3F
2018-01-12 20:05:47 1515805547.221795: $GPGSA,A,3,8,9,7,11,30,27,,,,,,,4.8,1.8,4.6*05
2018-01-12 20:05:48 1515805548.557599: $GPGSV,3,1,10,08,73,133,24,09,48,229,20,07,55,315,17,11,19,168,04*7A
2018-01-12 20:05:48 1515805548.557761: $GPGSV,3,2,10,30,28,306,15,27,48,054,17,23,29,190,00,16,23,060,00*7D
2018-01-12 20:05:48 1515805548.557842: $GPGSV,3,3,10,28,13,258,00,138,38,213,00*4E
2018-01-12 20:05:48 1515805548.671043: $GPZDA,010549.00,13,01,2018,00,00*67
2018-01-12 20:05:48 1515805548.671235: $GPGGA,010549,3946.9621,N,08404.9457,W,1,05,1.80,290.13,M,-33.324,M,,*77
2018-01-12 20:05:48 1515805548.671319: $GPRMC,010549,A,3946.9621,N,08404.9457,W,0.7623,343.489,130118,,*3E
2018-01-12 20:05:48 1515805548.671383: $GPGSA,A,3,8,9,7,30,27,,,,,,,,4.8,1.8,4.6*05
2018-01-12 20:05:49 1515805549.221187: $GPZDA,010550.00,13,01,2018,00,00*6F
2018-01-12 20:05:49 1515805549.221392: $GPGGA,010550,3946.9625,N,08404.9464,W,1,05,1.80,290.69,M,-33.324,M,,*76
2018-01-12 20:05:49 1515805549.221465: $GPRMC,010550,A,3946.9625,N,08404.9464,W,0.7623,343.489,130118,,*32
2018-01-12 20:05:49 1515805549.221531: $GPGSA,A,3,8,9,7,30,27,,,,,,,,4.8,1.8,4.6*05
