2017-12-29 11:33:27 1514565207.418180: {"class":"VERSION","release":"3.16","rev":"3.16-4","proto_major":3,"proto_minor":11}
2017-12-29 11:33:27 1514565207.418660: {"class":"DEVICES","devices":[{"class":"DEVICE","path":"/dev/ttyUSB0","driver":"SiRF","subtype":"9\u0006GSD4e_4.1.2-P1_RPATCH.05-F-GPS-4R-1510281 11/03/2015 307","activated":"2017-12-29T16:33:27.397Z","flags":1,"native":1,"bps":4800,"parity":"N","stopbits":1,"cycle":1.00}]}
2017-12-29 11:33:27 1514565207.418779: {"class":"WATCH","enable":true,"json":false,"nmea":true,"raw":0,"scaled":false,"timing":false,"split24":false,"pps":false}
2017-12-29 11:33:28 1514565208.356847: $GPZDA,163329.00,29,12,2017,00,00*66
2017-12-29 11:33:28 1514565208.357021: $GPGGA,163329,3946.9576,N,08404.9901,W,2,10,1.00,321.85,M,-33.324,M,,*76
2017-12-29 11:33:28 1514565208.357086: $GPRMC,163329,A,3946.9576,N,08404.9901,W,0.0000,0.000,291217,,*31
2017-12-29 11:33:28 1514565208.357147: $GPGSA,A,3,8,10,15,20,21,24,27,32,14,138,,,1.7,1.0,1.3*36
2017-12-29 11:33:29 1514565209.692531: $GPGSV,3,1,11,08,07,316,39,10,47,307,46,15,31,055,50,20,29,102,49*7A
2017-12-29 11:33:29 1514565209.692723: $GPGSV,3,2,11,21,56,184,46,24,53,097,50,27,17,282,38,32,27,243,40*79
2017-12-29 11:33:29 1514565209.692789: $GPGSV,3,3,11,14,09,235,20,13,02,051,00,138,38,213,44*76
2017-12-29 11:33:29 1514565209.805928: $GPZDA,163330.00,29,12,2017,00,00*6E
2017-12-29 11:33:29 1514565209.806113: $GPGGA,163330,3946.9576,N,08404.9901,W,2,10,1.00,321.85,M,-33.324,M,,*7E
2017-12-29 11:33:29 1514565209.806181: $GPRMC,163330,A,3946.9576,N,08404.9901,W,0.0000,0.000,291217,,*39
2017-12-29 11:33:29 1514565209.806242: $GPGSA,A,3,8,10,15,20,21,24,27,32,14,138,,,1.7,1.0,1.3*36
2017-12-29 11:33:30 1514565210.356792: $GPZDA,163331.00,29,12,2017,00,00*6F
2017-12-29 11:33:30 1514565210.356965: $GPGGA,163331,3946.9576,N,08404.9901,W,2,10,1.00,321.85,M,-33.324,M,,*7F
2017-12-29 11:33:30 1514565210.357032: $GPRMC,163331,A,3946.9576,N,08404.9901,W,0.0000,0.000,291217,,*38
2017-12-29 11:33:30 1514565210.357093: $GPGSA,A,3,8,10,15,20,21,24,27,32,14,138,,,1.7,1.0,1.3*36
2017-12-29 11:33:31 1514565211.357632: $GPZDA,163332.00,29,12,2017,00,00*6C
2017-12-29 11:33:31 1514565211.357802: $GPGGA,163332,3946.9576,N,08404.9901,W,2,10,1.00,321.85,M,-33.324,M,,*7C
2017-12-29 11:33:31 1514565211.357869: $GPRMC,163332,A,3946.9576,N,08404.9901,W,0.0000,0.000,291217,,*3B
2017-12-29 11:33:31 1514565211.357930: $GPGSA,A,3,8,10,15,20,21,24,27,32,14,138,,,1.7,1.0,1.3*36
2017-12-29 11:33:32 1514565212.693343: $GPGSV,3,1,11,08,07,316,39,10,47,307,46,15,31,055,50,20,29,102,49*7A
2017-12-29 11:33:32 1514565212.693569: $GPGSV,3,2,11,21,56,184,46,24,53,097,50,27,17,282,37,32,27,243,40*76
2017-12-29 11:33:32 1514565212.693636: $GPGSV,3,3,11,14,09,235,27,13,02,051,00,138,38,213,46*73
2017-12-29 11:33:32 1514565212.807090: $GPZDA,163333.00,29,12,2017,00,00*6D
2017-12-29 11:33:32 1514565212.807262: $GPGGA,163333,3946.9576,N,08404.9901,W,2,10,1.00,321.85,M,-33.324,M,,*7D
2017-12-29 11:33:32 1514565212.807328: $GPRMC,163333,A,3946.9576,N,08404.9901,W,0.0000,0.000,291217,,*3A
2017-12-29 11:33:32 1514565212.807419: $GPGSA,A,3,8,10,15,20,21,24,27,32,14,138,,,1.7,1.0,1.3*36
2017-12-29 11:33:33 1514565213.433547: $GPZDA,163334.00,29,12,2017,00,00*6A
2017-12-29 11:33:33 1514565213.433715: $GPGGA,163334,3946.9576,N,08404.9894,W,2,10,1.00,321.93,M,-33.324,M,,*70
2017-12-29 11:33:33 1514565213.433781: $GPRMC,163334,A,3946.9576,N,08404.9894,W,0.0000,0.000,291217,,*30
2017-12-29 11:33:33 1514565213.433841: $GPGSA,A,3,8,10,15,20,21,24,27,32,14,138,,,1.7,1.0,1.3*36
2017-12-29 11:33:34 1514565214.356810: $GPZDA,163335.00,29,12,2017,00,00*6B
2017-12-29 11:33:34 1514565214.356991: $GPGGA,163335,3946.9576,N,08404.9894,W,2,10,1.00,321.93,M,-33.324,M,,*71
2017-12-29 11:33:34 1514565214.357057: $GPRMC,163335,A,3946.9576,N,08404.9894,W,0.0000,0.000,291217,,*31
2017-12-29 11:33:34 1514565214.357118: $GPGSA,A,3,8,10,15,20,21,24,27,32,14,138,,,1.7,1.0,1.3*36
2017-12-29 11:33:35 1514565215.692384: $GPGSV,3,1,11,08,07,316,38,10,47,307,46,15,31,055,50,20,29,102,49*7B
2017-12-29 11:33:35 1514565215.692633: $GPGSV,3,2,11,21,56,184,46,24,53,097,50,27,17,282,36,32,27,243,40*77
2017-12-29 11:33:35 1514565215.692703: $GPGSV,3,3,11,14,09,235,26,13,02,051,00,138,38,213,45*71
2017-12-29 11:33:35 1514565215.805760: $GPZDA,163336.00,29,12,2017,00,00*68
2017-12-29 11:33:35 1514565215.805929: $GPGGA,163336,3946.9576,N,08404.9894,W,2,10,1.00,321.93,M,-33.324,M,,*72
2017-12-29 11:33:35 1514565215.805995: $GPRMC,163336,A,3946.9576,N,08404.9894,W,0.0000,0.000,291217,,*32
2017-12-29 11:33:35 1514565215.806055: $GPGSA,A,3,8,10,15,20,21,24,27,32,14,138,,,1.7,1.0,1.3*36
2017-12-29 11:33:36 1514565216.356733: $GPZDA,163337.00,29,12,2017,00,00*69
2017-12-29 11:33:36 1514565216.356918: $GPGGA,163337,3946.9576,N,08404.9900,W,2,10,1.00,320.44,M,-33.324,M,,*74
2017-12-29 11:33:36 1514565216.356984: $GPRMC,163337,A,3946.9576,N,08404.9900,W,0.0000,0.000,291217,,*3F
2017-12-29 11:33:36 1514565216.357045: $GPGSA,A,3,8,10,15,20,21,24,27,32,14,138,,,1.7,1.0,1.3*36
2017-12-29 11:33:37 1514565217.357581: $GPZDA,163338.00,29,12,2017,00,00*66
2017-12-29 11:33:37 1514565217.357751: $GPGGA,163338,3946.9576,N,08404.9900,W,2,10,1.00,320.44,M,-33.324,M,,*7B
2017-12-29 11:33:37 1514565217.357819: $GPRMC,163338,A,3946.9576,N,08404.9900,W,0.0000,0.000,291217,,*30
2017-12-29 11:33:37 1514565217.357880: $GPGSA,A,3,8,10,15,20,21,24,27,32,14,138,,,1.7,1.0,1.3*36
2017-12-29 11:33:38 1514565218.692810: $GPGSV,3,1,11,08,07,316,39,10,47,307,46,15,31,055,50,20,29,102,49*7A
2017-12-29 11:33:38 1514565218.693033: $GPGSV,3,2,11,21,56,184,46,24,53,097,50,27,17,282,35,32,27,243,41*75
2017-12-29 11:33:38 1514565218.693102: $GPGSV,3,3,11,14,09,235,22,13,02,051,00,138,38,213,45*75
2017-12-29 11:33:38 1514565218.806114: $GPZDA,163339.00,29,12,2017,00,00*67
2017-12-29 11:33:38 1514565218.806312: $GPGGA,163339,3946.9576,N,08404.9900,W,2,10,1.00,320.44,M,-33.324,M,,*7A
2017-12-29 11:33:38 1514565218.806398: $GPRMC,163339,A,3946.9576,N,08404.9900,W,0.0000,0.000,291217,,*31
2017-12-29 11:33:38 1514565218.806460: $GPGSA,A,3,8,10,15,20,21,24,27,32,14,138,,,1.7,1.0,1.3*36
2017-12-29 11:33:39 1514565219.351991: $GPZDA,163340.00,29,12,2017,00,00*69
2017-12-29 11:33:39 1514565219.352159: $GPGGA,163340,3946.9576,N,08404.9900,W,2,10,1.00,320.44,M,-33.324,M,,*74
2017-12-29 11:33:39 1514565219.352248: $GPRMC,163340,A,3946.9576,N,08404.9900,W,0.0000,0.000,291217,,*3F
2017-12-29 11:33:39 1514565219.352310: $GPGSA,A,3,8,10,15,20,21,24,27,32,14,138,,,1.7,1.0,1.3*36
2017-12-29 11:33:40 1514565220.352830: $GPZDA,163341.00,29,12,2017,00,00*68
2017-12-29 11:33:40 1514565220.353120: $GPGGA,163341,3946.9580,N,08404.9900,W,2,10,1.20,321.08,M,-33.324,M,,*77
2017-12-29 11:33:40 1514565220.353273: $GPRMC,163341,A,3946.9580,N,08404.9900,W,0.0000,0.000,291217,,*37
2017-12-29 11:33:40 1514565220.353399: $GPGSA,A,3,8,10,15,20,21,24,27,32,14,138,,,1.7,1.2,1.3*34
2017-12-29 11:33:41 1514565221.708509: $GPGSV,3,1,11,08,07,316,40,10,47,307,46,15,31,055,50,20,29,102,48*75
2017-12-29 11:33:41 1514565221.708685: $GPGSV,3,2,11,21,56,184,46,24,53,097,50,27,17,282,35,32,27,243,40*74
2017-12-29 11:33:41 1514565221.708754: $GPGSV,3,3,11,14,09,235,11,13,02,051,00,138,38,213,45*75
2017-12-29 11:33:41 1514565221.821937: $GPZDA,163342.00,29,12,2017,00,00*6B
2017-12-29 11:33:41 1514565221.822107: $GPGGA,163342,3946.9580,N,08404.9900,W,2,10,1.20,321.08,M,-33.324,M,,*74
2017-12-29 11:33:41 1514565221.822194: $GPRMC,163342,A,3946.9580,N,08404.9900,W,0.0000,0.000,291217,,*34
2017-12-29 11:33:41 1514565221.822256: $GPGSA,A,3,8,10,15,20,21,24,27,32,14,138,,,1.7,1.2,1.3*34
2017-12-29 11:33:42 1514565222.371588: $GPZDA,163343.00,29,12,2017,00,00*6A
2017-12-29 11:33:42 1514565222.371751: $GPGGA,163343,3946.9580,N,08404.9900,W,2,10,1.20,321.08,M,-33.324,M,,*75
2017-12-29 11:33:42 1514565222.371818: $GPRMC,163343,A,3946.9580,N,08404.9900,W,0.0000,0.000,291217,,*35
2017-12-29 11:33:42 1514565222.371878: $GPGSA,A,3,8,10,15,20,21,24,27,32,14,138,,,1.7,1.2,1.3*34
