2017-12-01 17:43:49 1512168229.196793: {"class":"VERSION","release":"3.16","rev":"3.16-4","proto_major":3,"proto_minor":11}
2017-12-01 17:43:49 1512168229.197201: {"class":"DEVICES","devices":[{"class":"DEVICE","path":"/dev/ttyUSB0","driver":"SiRF","subtype":"9\u0006GSD4e_4.1.2-P1_RPATCH.05-F-GPS-4R-1510281 11/03/2015 307","activated":"2017-12-01T22:43:48.735Z","flags":1,"native":1,"bps":4800,"parity":"N","stopbits":1,"cycle":1.00}]}
2017-12-01 17:43:49 1512168229.197329: {"class":"WATCH","enable":true,"json":false,"nmea":true,"raw":0,"scaled":false,"timing":false,"split24":false,"pps":false}
2017-12-01 17:43:49 1512168229.420610: $GPZDA,224350.00,01,12,2017,00,00*62
2017-12-01 17:43:49 1512168229.420791: $GPGGA,224350,3946.9732,N,08404.9853,W,2,12,0.80,298.28,M,-33.325,M,,*72
2017-12-01 17:43:49 1512168229.420859: $GPRMC,224350,A,3946.9732,N,08404.9853,W,0.0000,0.000,011217,,*31
2017-12-01 17:43:49 1512168229.420920: $GPGSA,A,3,1,3,10,14,22,25,26,29,31,32,16,138,2.0,0.8,1.5*0C
2017-12-01 17:43:50 1512168230.756572: $GPGSV,3,1,12,01,15,267,43,03,27,312,45,10,14,157,44,14,66,058,41*74
2017-12-01 17:43:50 1512168230.756763: $GPGSV,3,2,12,22,44,295,46,25,31,049,43,26,34,177,45,29,03,088,36*76
2017-12-01 17:43:50 1512168230.756830: $GPGSV,3,3,12,31,79,330,46,32,49,090,45,16,06,190,05,138,38,213,45*4C
2017-12-01 17:43:50 1512168230.870025: $GPZDA,224351.00,01,12,2017,00,00*63
2017-12-01 17:43:50 1512168230.870177: $GPGGA,224351,3946.9732,N,08404.9853,W,2,11,0.80,298.28,M,-33.325,M,,*70
2017-12-01 17:43:50 1512168230.870243: $GPRMC,224351,A,3946.9732,N,08404.9853,W,0.0000,0.000,011217,,*30
2017-12-01 17:43:50 1512168230.870303: $GPGSA,A,3,1,3,10,14,22,25,26,29,31,32,138,,2.0,0.8,1.5*0B
2017-12-01 17:43:51 1512168231.420572: $GPZDA,224352.00,01,12,2017,00,00*60
2017-12-01 17:43:51 1512168231.420766: $GPGGA,224352,3946.9732,N,08404.9853,W,2,11,0.80,298.28,M,-33.325,M,,*73
2017-12-01 17:43:51 1512168231.420832: $GPRMC,224352,A,3946.9732,N,08404.9853,W,0.0000,0.000,011217,,*33
2017-12-01 17:43:51 1512168231.420893: $GPGSA,A,3,1,3,10,14,22,25,26,29,31,32,138,,2.0,0.8,1.5*0B
2017-12-01 17:43:52 1512168232.420551: $GPZDA,224353.00,01,12,2017,00,00*61
2017-12-01 17:43:52 1512168232.420726: $GPGGA,224353,3946.9732,N,08404.9853,W,2,11,0.80,298.28,M,-33.325,M,,*72
2017-12-01 17:43:52 1512168232.420793: $GPRMC,224353,A,3946.9732,N,08404.9853,W,0.0000,0.000,011217,,*32
2017-12-01 17:43:52 1512168232.420854: $GPGSA,A,3,1,3,10,14,22,25,26,29,31,32,138,,2.0,0.8,1.5*0B
2017-12-01 17:43:53 1512168233.754765: $GPGSV,3,1,12,01,15,267,43,03,27,312,45,10,14,157,44,14,66,058,41*74
2017-12-01 17:43:53 1512168233.754942: $GPGSV,3,2,12,22,44,295,46,25,31,049,43,26,34,177,44,29,03,088,36*77
2017-12-01 17:43:53 1512168233.755010: $GPGSV,3,3,12,31,79,330,46,32,49,090,45,16,06,190,13,138,38,213,45*4B
2017-12-01 17:43:53 1512168233.868357: $GPZDA,224354.00,01,12,2017,00,00*66
2017-12-01 17:43:53 1512168233.868501: $GPGGA,224354,3946.9732,N,08404.9853,W,2,12,0.80,298.28,M,-33.325,M,,*76
2017-12-01 17:43:53 1512168233.868566: $GPRMC,224354,A,3946.9732,N,08404.9853,W,0.0000,0.000,011217,,*35
2017-12-01 17:43:53 1512168233.868626: $GPGSA,A,3,1,3,10,14,22,25,26,29,31,32,16,138,2.0,0.8,1.5*0C
2017-12-01 17:43:54 1512168234.494793: $GPZDA,224355.00,01,12,2017,00,00*67
2017-12-01 17:43:54 1512168234.494968: $GPGGA,224355,3946.9732,N,08404.9853,W,2,12,0.80,298.28,M,-33.325,M,,*77
2017-12-01 17:43:54 1512168234.495035: $GPRMC,224355,A,3946.9732,N,08404.9853,W,0.0000,0.000,011217,,*34
2017-12-01 17:43:54 1512168234.495096: $GPGSA,A,3,1,3,10,14,22,25,26,29,31,32,16,138,2.0,0.8,1.5*0C
2017-12-01 17:43:55 1512168235.421056: $GPZDA,224356.00,01,12,2017,00,00*64
2017-12-01 17:43:55 1512168235.421216: $GPGGA,224356,3946.9732,N,08404.9853,W,2,12,0.80,298.28,M,-33.325,M,,*74
2017-12-01 17:43:55 1512168235.421283: $GPRMC,224356,A,3946.9732,N,08404.9853,W,0.0000,0.000,011217,,*37
2017-12-01 17:43:55 1512168235.421394: $GPGSA,A,3,1,3,10,14,22,25,26,29,31,32,16,138,2.0,0.8,1.5*0C
2017-12-01 17:43:56 1512168236.754990: $GPGSV,3,1,12,01,15,267,43,03,27,312,45,10,14,157,44,14,66,058,40*75
2017-12-01 17:43:56 1512168236.755222: $GPGSV,3,2,12,22,44,295,47,25,31,049,43,26,34,177,45,29,03,088,37*76
2017-12-01 17:43:56 1512168236.755292: $GPGSV,3,3,12,31,79,330,46,32,49,090,45,16,06,190,16,138,38,213,46*4D
2017-12-01 17:43:56 1512168236.868387: $GPZDA,224357.00,01,12,2017,00,00*65
2017-12-01 17:43:56 1512168236.868570: $GPGGA,224357,3946.9732,N,08404.9853,W,2,12,0.80,298.28,M,-33.325,M,,*75
2017-12-01 17:43:56 1512168236.868641: $GPRMC,224357,A,3946.9732,N,08404.9853,W,0.0000,0.000,011217,,*36
2017-12-01 17:43:56 1512168236.868702: $GPGSA,A,3,1,3,10,14,22,25,26,29,31,32,16,138,2.0,0.8,1.5*0C
2017-12-01 17:43:57 1512168237.419230: $GPZDA,224358.00,01,12,2017,00,00*6A
2017-12-01 17:43:57 1512168237.419404: $GPGGA,224358,3946.9732,N,08404.9853,W,2,12,0.80,298.28,M,-33.325,M,,*7A
2017-12-01 17:43:57 1512168237.419472: $GPRMC,224358,A,3946.9732,N,08404.9853,W,0.0000,0.000,011217,,*39
2017-12-01 17:43:57 1512168237.419533: $GPGSA,A,3,1,3,10,14,22,25,26,29,31,32,16,138,2.0,0.8,1.5*0C
2017-12-01 17:43:58 1512168238.421762: $GPZDA,224359.00,01,12,2017,00,00*6B
2017-12-01 17:43:58 1512168238.426676: $GPGGA,224359,3946.9732,N,08404.9853,W,2,12,0.80,298.28,M,-33.325,M,,*7B
2017-12-01 17:43:58 1512168238.426781: $GPRMC,224359,A,3946.9732,N,08404.9853,W,0.0000,0.000,011217,,*38
2017-12-01 17:43:58 1512168238.426844: $GPGSA,A,3,1,3,10,14,22,25,26,29,31,32,16,138,2.0,0.8,1.5*0C
2017-12-01 17:43:59 1512168239.756624: $GPGSV,3,1,12,01,15,267,43,03,27,312,45,10,14,157,44,14,66,058,40*75
2017-12-01 17:43:59 1512168239.756801: $GPGSV,3,2,12,22,44,295,47,25,31,049,43,26,34,177,45,29,03,088,37*76
2017-12-01 17:43:59 1512168239.756868: $GPGSV,3,3,12,31,79,330,46,32,49,090,46,16,06,190,20,138,38,213,45*48
2017-12-01 17:43:59 1512168239.870234: $GPZDA,224400.00,01,12,2017,00,00*60
2017-12-01 17:43:59 1512168239.870361: $GPGGA,224400,3946.9732,N,08404.9853,W,2,12,0.80,298.28,M,-33.325,M,,*70
2017-12-01 17:43:59 1512168239.870425: $GPRMC,224400,A,3946.9732,N,08404.9853,W,0.0000,0.000,011217,,*33
2017-12-01 17:43:59 1512168239.870485: $GPGSA,A,3,1,3,10,14,22,25,26,29,31,32,16,138,2.0,0.8,1.5*0C
2017-12-01 17:44:00 1512168240.421531: $GPZDA,224401.00,01,12,2017,00,00*61
2017-12-01 17:44:00 1512168240.421698: $GPGGA,224401,3946.9732,N,08404.9853,W,2,12,0.80,298.28,M,-33.325,M,,*71
2017-12-01 17:44:00 1512168240.421766: $GPRMC,224401,A,3946.9732,N,08404.9853,W,0.0000,0.000,011217,,*32
2017-12-01 17:44:00 1512168240.421828: $GPGSA,A,3,1,3,10,14,22,25,26,29,31,32,16,138,2.0,0.8,1.5*0C
2017-12-01 17:44:01 1512168241.418253: $GPZDA,224402.00,01,12,2017,00,00*62
2017-12-01 17:44:01 1512168241.418429: $GPGGA,224402,3946.9732,N,08404.9853,W,2,12,0.80,298.28,M,-33.325,M,,*72
2017-12-01 17:44:01 1512168241.418497: $GPRMC,224402,A,3946.9732,N,08404.9853,W,0.0000,0.000,011217,,*31
2017-12-01 17:44:01 1512168241.418558: $GPGSA,A,3,1,3,10,14,22,25,26,29,31,32,16,138,2.0,0.8,1.5*0C
2017-12-01 17:44:02 1512168242.753666: $GPGSV,3,1,12,01,15,267,43,03,27,312,45,10,14,157,44,14,66,058,40*75
2017-12-01 17:44:02 1512168242.753832: $GPGSV,3,2,12,22,44,295,47,25,31,049,43,26,34,177,45,29,03,088,37*76
2017-12-01 17:44:02 1512168242.753899: $GPGSV,3,3,12,31,79,330,46,32,49,090,46,16,06,190,19,138,38,213,46*41
2017-12-01 17:44:02 1512168242.867040: $GPZDA,224403.00,01,12,2017,00,00*63
2017-12-01 17:44:02 1512168242.867216: $GPGGA,224403,3946.9732,N,08404.9853,W,2,12,0.80,298.28,M,-33.325,M,,*73
2017-12-01 17:44:02 1512168242.867282: $GPRMC,224403,A,3946.9732,N,08404.9853,W,0.0000,0.000,011217,,*30
2017-12-01 17:44:02 1512168242.867342: $GPGSA,A,3,1,3,10,14,22,25,26,29,31,32,16,138,2.0,0.8,1.5*0C
2017-12-01 17:44:03 1512168243.424164: $GPZDA,224404.00,01,12,2017,00,00*64
2017-12-01 17:44:03 1512168243.428450: $GPGGA,224404,3946.9732,N,08404.9853,W,2,12,0.80,298.28,M,-33.325,M,,*74
2017-12-01 17:44:03 1512168243.428554: $GPRMC,224404,A,3946.9732,N,08404.9853,W,0.0000,0.000,011217,,*37
2017-12-01 17:44:03 1512168243.428618: $GPGSA,A,3,1,3,10,14,22,25,26,29,31,32,16,138,2.0,0.8,1.5*0C
2017-12-01 17:44:04 1512168244.423294: $GPZDA,224405.00,01,12,2017,00,00*65
2017-12-01 17:44:04 1512168244.423516: $GPGGA,224405,3946.9732,N,08404.9853,W,2,12,0.80,298.28,M,-33.325,M,,*75
2017-12-01 17:44:04 1512168244.423587: $GPRMC,224405,A,3946.9732,N,08404.9853,W,0.0000,0.000,011217,,*36
2017-12-01 17:44:04 1512168244.423649: $GPGSA,A,3,1,3,10,14,22,25,26,29,31,32,16,138,2.0,0.8,1.5*0C
2017-12-01 17:44:05 1512168245.759013: $GPGSV,3,1,12,01,15,267,43,03,27,312,45,10,14,157,44,14,66,058,41*74
2017-12-01 17:44:05 1512168245.759195: $GPGSV,3,2,12,22,44,295,47,25,31,049,42,26,34,177,45,29,03,088,37*77
2017-12-01 17:44:05 1512168245.759280: $GPGSV,3,3,12,31,79,330,46,32,49,090,46,16,06,190,18,138,38,213,46*40
2017-12-01 17:44:05 1512168245.872456: $GPZDA,224406.00,01,12,2017,00,00*66
2017-12-01 17:44:05 1512168245.872620: $GPGGA,224406,3946.9732,N,08404.9853,W,2,12,0.80,298.28,M,-33.325,M,,*76
2017-12-01 17:44:05 1512168245.872688: $GPRMC,224406,A,3946.9732,N,08404.9853,W,0.0000,0.000,011217,,*35
2017-12-01 17:44:05 1512168245.872750: $GPGSA,A,3,1,3,10,14,22,25,26,29,31,32,16,138,2.0,0.8,1.5*0C
2017-12-01 17:44:06 1512168246.426049: $GPZDA,224407.00,01,12,2017,00,00*67
2017-12-01 17:44:06 1512168246.426224: $GPGGA,224407,3946.9732,N,08404.9853,W,2,12,0.80,298.28,M,-33.325,M,,*77
2017-12-01 17:44:06 1512168246.426294: $GPRMC,224407,A,3946.9732,N,08404.9853,W,0.0000,0.000,011217,,*34
2017-12-01 17:44:06 1512168246.426358: $GPGSA,A,3,1,3,10,14,22,25,26,29,31,32,16,138,2.0,0.8,1.5*0C
2017-12-01 17:44:07 1512168247.425412: $GPZDA,224408.00,01,12,2017,00,00*68
2017-12-01 17:44:07 1512168247.425576: $GPGGA,224408,3946.9732,N,08404.9853,W,2,12,0.80,298.28,M,-33.325,M,,*78
2017-12-01 17:44:07 1512168247.425645: $GPRMC,224408,A,3946.9732,N,08404.9853,W,0.0000,0.000,011217,,*3B
2017-12-01 17:44:07 1512168247.425706: $GPGSA,A,3,1,3,10,14,22,25,26,29,31,32,16,138,2.0,0.8,1.5*0C
2017-12-01 17:44:08 1512168248.754798: $GPGSV,3,1,12,01,15,267,43,03,27,312,44,10,14,157,44,14,66,058,40*74
2017-12-01 17:44:08 1512168248.754999: $GPGSV,3,2,12,22,44,295,47,25,31,049,42,26,34,177,45,29,03,088,38*78
2017-12-01 17:44:08 1512168248.755070: $GPGSV,3,3,12,31,79,330,46,32,49,090,46,16,06,190,18,138,38,213,46*40
2017-12-01 17:44:08 1512168248.868389: $GPZDA,224409.00,01,12,2017,00,00*69
2017-12-01 17:44:08 1512168248.868569: $GPGGA,224409,3946.9732,N,08404.9853,W,2,12,0.80,298.28,M,-33.325,M,,*79
2017-12-01 17:44:08 1512168248.868638: $GPRMC,224409,A,3946.9732,N,08404.9853,W,0.0000,0.000,011217,,*3A
2017-12-01 17:44:08 1512168248.868701: $GPGSA,A,3,1,3,10,14,22,25,26,29,31,32,16,138,2.0,0.8,1.5*0C
