2017-12-14 11:53:21 1513270401.354286: {"class":"VERSION","release":"3.16","rev":"3.16-4","proto_major":3,"proto_minor":11}
2017-12-14 11:53:21 1513270401.354673: {"class":"DEVICES","devices":[{"class":"DEVICE","path":"/dev/ttyUSB0","driver":"SiRF","subtype":"9\u0006GSD4e_4.1.2-P1_RPATCH.05-F-GPS-4R-1510281 11/03/2015 307","activated":"2017-12-14T16:53:21.334Z","flags":1,"native":1,"bps":4800,"parity":"N","stopbits":1,"cycle":1.00}]}
2017-12-14 11:53:21 1513270401.354784: {"class":"WATCH","enable":true,"json":false,"nmea":true,"raw":0,"scaled":false,"timing":false,"split24":false,"pps":false}
2017-12-14 11:53:22 1513270402.672164: $GPGSV,3,1,11,20,43,085,25,24,44,126,21,10,33,292,16,15,48,049,25*79
2017-12-14 11:53:22 1513270402.672364: $GPGSV,3,2,11,18,64,316,18,21,74,204,20,27,19,301,09,13,17,046,00*7A
2017-12-14 11:53:22 1513270402.672432: $GPGSV,3,3,11,32,12,231,00,08,01,331,00,138,38,213,00*72
2017-12-14 11:53:22 1513270402.785537: $GPZDA,165323.00,14,12,2017,00,00*64
2017-12-14 11:53:22 1513270402.785748: $GPGGA,165323,3946.9510,N,08404.9381,W,1,06,1.80,364.77,M,-33.324,M,,*78
2017-12-14 11:53:22 1513270402.785817: $GPRMC,165323,A,3946.9510,N,08404.9381,W,0.8414,219.347,141217,,*32
2017-12-14 11:53:22 1513270402.785878: $GPGSA,A,3,20,24,10,15,18,21,,,,,,,6.6,1.8,6.2*34
2017-12-14 11:53:23 1513270403.336651: $GPZDA,165324.00,14,12,2017,00,00*63
2017-12-14 11:53:23 1513270403.336820: $GPGGA,165324,3946.9510,N,08404.9388,W,1,06,1.80,364.69,M,-33.324,M,,*79
2017-12-14 11:53:23 1513270403.336886: $GPRMC,165324,A,3946.9510,N,08404.9388,W,0.5774,207.515,141217,,*3A
2017-12-14 11:53:23 1513270403.336947: $GPGSA,A,3,20,24,10,15,18,21,,,,,,,6.6,1.8,6.2*34
2017-12-14 11:53:24 1513270404.336283: $GPZDA,165325.00,14,12,2017,00,00*62
2017-12-14 11:53:24 1513270404.336478: $GPGGA,165325,3946.9510,N,08404.9388,W,1,06,1.80,364.69,M,-33.324,M,,*78
2017-12-14 11:53:24 1513270404.336545: $GPRMC,165325,A,3946.9510,N,08404.9388,W,0.6846,184.197,141217,,*30
2017-12-14 11:53:24 1513270404.336605: $GPGSA,A,3,20,24,10,15,18,21,,,,,,,6.6,1.8,6.2*34
2017-12-14 11:53:25 1513270405.675558: $GPGSV,3,1,11,20,43,085,26,24,44,126,22,10,33,292,17,15,48,049,25*78
2017-12-14 11:53:25 1513270405.675733: $GPGSV,3,2,11,18,64,316,17,21,74,204,21,27,19,301,07,08,01,331,05*71
2017-12-14 11:53:25 1513270405.675798: $GPGSV,3,3,11,13,17,046,00,32,12,231,00,138,38,213,00*7C
2017-12-14 11:53:25 1513270405.788895: $GPZDA,165326.00,14,12,2017,00,00*61
2017-12-14 11:53:25 1513270405.789091: $GPGGA,165326,3946.9510,N,08404.9388,W,1,07,1.80,364.69,M,-33.324,M,,*7A
2017-12-14 11:53:25 1513270405.789161: $GPRMC,165326,A,3946.9510,N,08404.9388,W,0.5912,129.173,141217,,*3D
2017-12-14 11:53:25 1513270405.789222: $GPGSA,A,3,20,24,10,15,18,21,27,,,,,,6.6,1.8,6.2*31
2017-12-14 11:53:26 1513270406.333806: $GPZDA,165327.00,14,12,2017,00,00*60
2017-12-14 11:53:26 1513270406.333973: $GPGGA,165327,3946.9506,N,08404.9388,W,1,07,1.80,364.05,M,-33.324,M,,*76
2017-12-14 11:53:26 1513270406.334037: $GPRMC,165327,A,3946.9506,N,08404.9388,W,0.5857,158.291,141217,,*32
2017-12-14 11:53:26 1513270406.334098: $GPGSA,A,3,20,24,10,15,18,21,27,,,,,,6.6,1.8,6.2*31
2017-12-14 11:53:27 1513270407.350148: $GPZDA,165328.00,14,12,2017,00,00*6F
2017-12-14 11:53:27 1513270407.350342: $GPGGA,165328,3946.9506,N,08404.9388,W,1,07,1.80,364.05,M,-33.324,M,,*79
2017-12-14 11:53:27 1513270407.350410: $GPRMC,165328,A,3946.9506,N,08404.9388,W,1.0002,154.331,141217,,*36
2017-12-14 11:53:27 1513270407.350491: $GPGSA,A,3,20,24,10,15,18,21,27,,,,,,6.6,1.8,6.2*31
2017-12-14 11:53:28 1513270408.670855: $GPGSV,3,1,11,20,43,085,26,24,44,126,23,10,33,292,17,15,48,049,25*79
2017-12-14 11:53:28 1513270408.671032: $GPGSV,3,2,11,18,64,316,17,21,74,204,22,27,19,301,08,13,17,046,00*76
2017-12-14 11:53:28 1513270408.671098: $GPGSV,3,3,11,32,12,231,00,08,01,331,00,138,38,213,00*72
2017-12-14 11:53:28 1513270408.784246: $GPZDA,165329.00,14,12,2017,00,00*6E
2017-12-14 11:53:28 1513270408.784440: $GPGGA,165329,3946.9506,N,08404.9381,W,1,07,1.80,364.13,M,-33.324,M,,*76
2017-12-14 11:53:28 1513270408.784507: $GPRMC,165329,A,3946.9506,N,08404.9381,W,0.4179,148.779,141217,,*33
2017-12-14 11:53:28 1513270408.784615: $GPGSA,A,3,20,24,10,15,18,21,27,,,,,,6.6,1.8,6.2*31
2017-12-14 11:53:29 1513270409.351408: $GPZDA,165330.00,14,12,2017,00,00*66
2017-12-14 11:53:29 1513270409.351617: $GPGGA,165330,3946.9513,N,08404.9381,W,1,07,1.80,364.01,M,-33.324,M,,*79
2017-12-14 11:53:29 1513270409.351689: $GPRMC,165330,A,3946.9513,N,08404.9381,W,0.7576,81.915,141217,,*07
2017-12-14 11:53:29 1513270409.351753: $GPGSA,A,3,20,24,10,15,18,21,27,,,,,,6.6,1.8,6.2*31
2017-12-14 11:53:30 1513270410.334791: $GPZDA,165331.00,14,12,2017,00,00*67
2017-12-14 11:53:30 1513270410.334963: $GPGGA,165331,3946.9513,N,08404.9381,W,1,07,1.80,364.01,M,-33.324,M,,*78
2017-12-14 11:53:30 1513270410.335032: $GPRMC,165331,A,3946.9513,N,08404.9381,W,0.3155,129.994,141217,,*3D
2017-12-14 11:53:30 1513270410.335096: $GPGSA,A,3,20,24,10,15,18,21,27,,,,,,6.6,1.8,6.2*31
2017-12-14 11:53:31 1513270411.687962: $GPGSV,3,1,11,20,43,085,26,24,44,126,23,10,33,292,17,15,48,049,25*79
2017-12-14 11:53:31 1513270411.688123: $GPGSV,3,2,11,18,64,316,16,21,74,204,22,27,19,301,08,13,17,046,00*77
2017-12-14 11:53:31 1513270411.688191: $GPGSV,3,3,11,32,12,231,00,08,01,331,00,138,38,213,00*72
2017-12-14 11:53:31 1513270411.801624: $GPZDA,165332.00,14,12,2017,00,00*64
2017-12-14 11:53:31 1513270411.801812: $GPGGA,165332,3946.9517,N,08404.9380,W,1,07,1.80,363.24,M,-33.324,M,,*7E
2017-12-14 11:53:31 1513270411.801881: $GPRMC,165332,A,3946.9517,N,08404.9380,W,0.3423,4.197,141217,,*3A
2017-12-14 11:53:31 1513270411.801944: $GPGSA,A,3,20,24,10,15,18,21,27,,,,,,6.6,1.8,6.2*31
2017-12-14 11:53:32 1513270412.426976: $GPZDA,165333.00,14,12,2017,00,00*65
2017-12-14 11:53:32 1513270412.427144: $GPGGA,165333,3946.9524,N,08404.9372,W,1,07,1.80,363.20,M,-33.324,M,,*76
2017-12-14 11:53:32 1513270412.427212: $GPRMC,165333,A,3946.9524,N,08404.9372,W,0.5951,58.684,141217,,*04
2017-12-14 11:53:32 1513270412.427297: $GPGSA,A,3,20,24,10,15,18,21,27,,,,,,6.6,1.8,6.2*31
2017-12-14 11:53:33 1513270413.352753: $GPZDA,165334.00,14,12,2017,00,00*62
2017-12-14 11:53:33 1513270413.352928: $GPGGA,165334,3946.9524,N,08404.9372,W,1,07,1.80,363.20,M,-33.324,M,,*71
2017-12-14 11:53:33 1513270413.352998: $GPRMC,165334,A,3946.9524,N,08404.9372,W,0.2422,93.795,141217,,*0B
2017-12-14 11:53:33 1513270413.353061: $GPGSA,A,3,20,24,10,15,18,21,27,,,,,,6.6,1.8,6.2*31
2017-12-14 11:53:34 1513270414.688341: $GPGSV,3,1,11,20,43,085,26,24,44,126,24,10,33,292,17,15,48,049,25*7E
2017-12-14 11:53:34 1513270414.688532: $GPGSV,3,2,11,18,64,316,16,21,74,204,22,27,19,301,07,13,17,046,00*78
2017-12-14 11:53:34 1513270414.688601: $GPGSV,3,3,11,32,12,231,00,08,01,331,00,138,38,213,00*72
2017-12-14 11:53:34 1513270414.801728: $GPZDA,165335.00,14,12,2017,00,00*63
2017-12-14 11:53:34 1513270414.801925: $GPGGA,165335,3946.9532,N,08404.9372,W,1,07,1.80,363.07,M,-33.324,M,,*72
2017-12-14 11:53:34 1513270414.801994: $GPRMC,165335,A,3946.9532,N,08404.9372,W,0.4844,93.795,141217,,*07
2017-12-14 11:53:34 1513270414.802144: $GPGSA,A,3,20,24,10,15,18,21,27,,,,,,6.6,1.8,6.2*31
2017-12-14 11:53:35 1513270415.352682: $GPZDA,165336.00,14,12,2017,00,00*60
2017-12-14 11:53:35 1513270415.352857: $GPGGA,165336,3946.9535,N,08404.9371,W,1,07,1.80,362.31,M,-33.324,M,,*71
2017-12-14 11:53:35 1513270415.352927: $GPRMC,165336,A,3946.9535,N,08404.9371,W,0.5912,129.173,141217,,*3D
2017-12-14 11:53:35 1513270415.352992: $GPGSA,A,3,20,24,10,15,18,21,27,,,,,,6.6,1.8,6.2*31
2017-12-14 11:53:36 1513270416.352518: $GPZDA,165337.00,14,12,2017,00,00*61
2017-12-14 11:53:36 1513270416.352690: $GPGGA,165337,3946.9535,N,08404.9364,W,1,07,1.80,362.39,M,-33.324,M,,*7C
2017-12-14 11:53:36 1513270416.352759: $GPRMC,165337,A,3946.9535,N,08404.9364,W,0.7238,140.710,141217,,*35
2017-12-14 11:53:36 1513270416.352821: $GPGSA,A,3,20,24,10,15,18,21,27,,,,,,6.6,1.8,6.2*31
2017-12-14 11:53:37 1513270417.687455: $GPGSV,3,1,11,20,43,085,26,24,44,126,24,10,33,292,17,15,48,049,25*7E
2017-12-14 11:53:37 1513270417.687636: $GPGSV,3,2,11,18,64,316,15,21,74,204,22,27,19,301,10,13,17,046,00*7D
2017-12-14 11:53:37 1513270417.687758: $GPGSV,3,3,11,32,12,231,00,08,01,331,00,120,07,103,00*75
2017-12-14 11:53:37 1513270417.801105: $GPZDA,165338.00,14,12,2017,00,00*6E
2017-12-14 11:53:37 1513270417.801262: $GPGGA,165338,3946.9535,N,08404.9364,W,1,07,1.80,362.39,M,-33.324,M,,*73
2017-12-14 11:53:37 1513270417.801329: $GPRMC,165338,A,3946.9535,N,08404.9364,W,0.4844,273.795,141217,,*36
2017-12-14 11:53:37 1513270417.801405: $GPGSA,A,3,20,24,10,15,18,21,27,,,,,,6.6,1.8,6.2*31
2017-12-14 11:53:38 1513270418.334245: $GPZDA,165339.00,14,12,2017,00,00*6F
2017-12-14 11:53:38 1513270418.334434: $GPGGA,165339,3946.9539,N,08404.9370,W,1,07,1.80,361.54,M,-33.324,M,,*73
2017-12-14 11:53:38 1513270418.334637: $GPRMC,165339,A,3946.9539,N,08404.9370,W,0.7267,273.795,141217,,*36
2017-12-14 11:53:38 1513270418.334703: $GPGSA,A,3,20,24,10,15,18,21,27,,,,,,6.6,1.8,6.2*31
2017-12-14 11:53:39 1513270419.169397: $GPZDA,165340.00,14,12,2017,00,00*61
2017-12-14 11:53:39 1513270419.169584: $GPGGA,165340,3946.9546,N,08404.9369,W,1,07,1.80,361.42,M,-33.324,M,,*7A
2017-12-14 11:53:39 1513270419.169670: $GPRMC,165340,A,3946.9546,N,08404.9369,W,0.8359,328.779,141217,,*36
2017-12-14 11:53:39 1513270419.169733: $GPGSA,A,3,20,24,10,15,18,21,27,,,,,,6.6,1.8,6.2*31
2017-12-14 11:53:40 1513270420.670060: $GPGSV,3,1,11,20,43,085,26,24,44,126,25,10,33,292,17,15,48,049,25*7F
2017-12-14 11:53:40 1513270420.670253: $GPGSV,3,2,11,18,64,316,14,21,74,204,22,27,19,301,12,13,17,046,00*7E
2017-12-14 11:53:40 1513270420.670321: $GPGSV,3,3,11,32,12,231,00,08,01,331,00,120,07,103,00*75
2017-12-14 11:53:40 1513270420.783966: $GPZDA,165341.00,14,12,2017,00,00*60
2017-12-14 11:53:40 1513270420.784132: $GPGGA,165341,3946.9546,N,08404.9369,W,1,07,1.80,361.42,M,-33.324,M,,*7B
2017-12-14 11:53:40 1513270420.784198: $GPRMC,165341,A,3946.9546,N,08404.9369,W,0.8011,299.090,141217,,*33
2017-12-14 11:53:40 1513270420.784264: $GPGSA,A,3,20,24,10,15,18,21,27,,,,,,6.6,1.8,6.2*31
2017-12-14 11:53:41 1513270421.352343: $GPZDA,165342.00,14,12,2017,00,00*63
2017-12-14 11:53:41 1513270421.352516: $GPGGA,165342,3946.9554,N,08404.9369,W,1,07,1.80,361.29,M,-33.324,M,,*76
2017-12-14 11:53:41 1513270421.352583: $GPRMC,165342,A,3946.9554,N,08404.9369,W,0.7621,287.945,141217,,*37
2017-12-14 11:53:41 1513270421.352646: $GPGSA,A,3,20,24,10,15,18,21,27,,,,,,6.6,1.8,6.2*31
