2017-11-16 14:46:19 1510861579.985663: {"class":"VERSION","release":"3.17","rev":"3.17","proto_major":3,"proto_minor":12}
2017-11-16 14:46:19 1510861579.986589: {"class":"DEVICES","devices":[{"class":"DEVICE","path":"/dev/ttyUSB0","driver":"SiRF","subtype":"9\u0006GSD4e_4.1.2-P1_RPATCH.05-F-GPS-4R-1510281 11/03/2015 307","activated":"2017-11-16T19:46:19.748Z","flags":1,"native":1,"bps":4800,"parity":"N","stopbits":1,"cycle":1.00}]}
2017-11-16 14:46:19 1510861579.986707: {"class":"WATCH","enable":true,"json":false,"nmea":true,"raw":0,"scaled":false,"timing":false,"split24":false,"pps":false}
2017-11-16 14:46:20 1510861580.487373: $GPZDA,194619.00,16,11,2017,00,00*67
2017-11-16 14:46:20 1510861580.487518: $GPGGA,194619,3946.9564,N,08404.9842,W,2,11,0.80,302.74,M,-33.324,M,,*7A
2017-11-16 14:46:20 1510861580.487597: $GPRMC,194619,A,3946.9564,N,08404.9842,W,0.0000,0.000,161117,,*35
2017-11-16 14:46:20 1510861580.487655: $GPGSA,A,3,8,10,15,18,21,20,24,27,32,14,138,,1.6,0.8,1.3*37
2017-11-16 14:46:21 1510861581.867019: $GPGSV,3,1,11,08,08,309,37,10,53,313,50,15,25,058,50,18,77,027,44*71
2017-11-16 14:46:21 1510861581.867253: $GPGSV,3,2,11,21,48,183,48,20,22,106,44,24,53,084,48,27,15,274,40*70
2017-11-16 14:46:21 1510861581.867319: $GPGSV,3,3,11,32,32,249,47,14,16,241,40,138,38,213,44*75
2017-11-16 14:46:21 1510861581.980194: $GPZDA,194620.00,16,11,2017,00,00*6D
2017-11-16 14:46:21 1510861581.980410: $GPGGA,194620,3946.9564,N,08404.9842,W,2,11,0.80,302.74,M,-33.324,M,,*70
2017-11-16 14:46:21 1510861581.980475: $GPRMC,194620,A,3946.9564,N,08404.9842,W,0.0000,0.000,161117,,*3F
2017-11-16 14:46:21 1510861581.980548: $GPGSA,A,3,8,10,15,18,21,20,24,27,32,14,138,,1.6,0.8,1.3*37
2017-11-16 14:46:22 1510861582.531095: $GPZDA,194621.00,16,11,2017,00,00*6C
2017-11-16 14:46:22 1510861582.531264: $GPGGA,194621,3946.9564,N,08404.9842,W,2,11,0.80,302.74,M,-33.324,M,,*71
2017-11-16 14:46:22 1510861582.531345: $GPRMC,194621,A,3946.9564,N,08404.9842,W,0.0000,0.000,161117,,*3E
2017-11-16 14:46:22 1510861582.531403: $GPGSA,A,3,8,10,15,18,21,20,24,27,32,14,138,,1.6,0.8,1.3*37
2017-11-16 14:46:23 1510861583.493125: $GPZDA,194622.00,16,11,2017,00,00*6F
2017-11-16 14:46:23 1510861583.493289: $GPGGA,194622,3946.9564,N,08404.9842,W,2,11,0.80,302.74,M,-33.324,M,,*72
2017-11-16 14:46:23 1510861583.493352: $GPRMC,194622,A,3946.9564,N,08404.9842,W,0.0000,0.000,161117,,*3D
2017-11-16 14:46:23 1510861583.493425: $GPGSA,A,3,8,10,15,18,21,20,24,27,32,14,138,,1.6,0.8,1.3*37
2017-11-16 14:46:24 1510861584.868423: $GPGSV,3,1,11,08,08,309,36,10,53,313,50,15,25,058,50,18,77,027,44*70
2017-11-16 14:46:24 1510861584.868607: $GPGSV,3,2,11,21,48,183,48,20,22,106,44,24,53,084,48,27,15,274,40*70
2017-11-16 14:46:24 1510861584.868689: $GPGSV,3,3,11,32,32,249,47,14,16,241,40,138,38,213,42*73
2017-11-16 14:46:24 1510861584.981936: $GPZDA,194623.00,16,11,2017,00,00*6E
2017-11-16 14:46:24 1510861584.982140: $GPGGA,194623,3946.9564,N,08404.9842,W,2,11,0.80,302.74,M,-33.324,M,,*73
2017-11-16 14:46:24 1510861584.982205: $GPRMC,194623,A,3946.9564,N,08404.9842,W,0.0000,0.000,161117,,*3C
2017-11-16 14:46:24 1510861584.982262: $GPGSA,A,3,8,10,15,18,21,20,24,27,32,14,138,,1.6,0.8,1.3*37
2017-11-16 14:46:25 1510861585.494256: $GPZDA,194624.00,16,11,2017,00,00*69
2017-11-16 14:46:25 1510861585.494424: $GPGGA,194624,3946.9564,N,08404.9842,W,2,11,0.80,302.74,M,-33.324,M,,*74
2017-11-16 14:46:25 1510861585.494487: $GPRMC,194624,A,3946.9564,N,08404.9842,W,0.0000,0.000,161117,,*3B
2017-11-16 14:46:25 1510861585.494544: $GPGSA,A,3,8,10,15,18,21,20,24,27,32,14,138,,1.6,0.8,1.3*37
2017-11-16 14:46:26 1510861586.525055: $GPZDA,194625.00,16,11,2017,00,00*68
2017-11-16 14:46:26 1510861586.525215: $GPGGA,194625,3946.9564,N,08404.9842,W,2,11,0.80,302.74,M,-33.324,M,,*75
2017-11-16 14:46:26 1510861586.525276: $GPRMC,194625,A,3946.9564,N,08404.9842,W,0.0000,0.000,161117,,*3A
2017-11-16 14:46:26 1510861586.525332: $GPGSA,A,3,8,10,15,18,21,20,24,27,32,14,138,,1.6,0.8,1.3*37
2017-11-16 14:46:27 1510861587.829187: $GPGSV,3,1,11,08,08,309,35,10,53,313,50,15,25,058,50,18,77,027,44*73
2017-11-16 14:46:27 1510861587.829422: $GPGSV,3,2,11,21,48,183,48,20,22,106,44,24,53,084,48,27,15,274,40*70
2017-11-16 14:46:27 1510861587.829487: $GPGSV,3,3,11,32,32,249,47,14,16,241,40,138,38,213,44*75
2017-11-16 14:46:27 1510861587.943438: $GPZDA,194626.00,16,11,2017,00,00*6B
2017-11-16 14:46:27 1510861587.943622: $GPGGA,194626,3946.9564,N,08404.9842,W,2,11,0.80,302.74,M,-33.324,M,,*76
2017-11-16 14:46:27 1510861587.943691: $GPRMC,194626,A,3946.9564,N,08404.9842,W,0.0000,0.000,161117,,*39
2017-11-16 14:46:27 1510861587.943750: $GPGSA,A,3,8,10,15,18,21,20,24,27,32,14,138,,1.6,0.8,1.3*37
2017-11-16 14:46:28 1510861588.530908: $GPZDA,194627.00,16,11,2017,00,00*6A
2017-11-16 14:46:28 1510861588.531076: $GPGGA,194627,3946.9564,N,08404.9842,W,2,11,0.80,302.74,M,-33.324,M,,*77
2017-11-16 14:46:28 1510861588.531139: $GPRMC,194627,A,3946.9564,N,08404.9842,W,0.0000,0.000,161117,,*38
2017-11-16 14:46:28 1510861588.531195: $GPGSA,A,3,8,10,15,18,21,20,24,27,32,14,138,,1.6,0.8,1.3*37
2017-11-16 14:46:29 1510861589.493811: $GPZDA,194628.00,16,11,2017,00,00*65
2017-11-16 14:46:29 1510861589.493996: $GPGGA,194628,3946.9564,N,08404.9842,W,2,11,0.80,302.74,M,-33.324,M,,*78
2017-11-16 14:46:29 1510861589.494060: $GPRMC,194628,A,3946.9564,N,08404.9842,W,0.0000,0.000,161117,,*37
2017-11-16 14:46:29 1510861589.494117: $GPGSA,A,3,8,10,15,18,21,20,24,27,32,14,138,,1.6,0.8,1.3*37
