2018-01-11 19:38:31 1515717511.095622: {"class":"VERSION","release":"3.16","rev":"3.16-4","proto_major":3,"proto_minor":11}
2018-01-11 19:38:31 1515717511.096012: {"class":"DEVICES","devices":[{"class":"DEVICE","path":"/dev/ttyUSB0","driver":"SiRF","subtype":"9\u0006GSD4e_4.1.2-P1_RPATCH.05-F-GPS-4R-1510281 11/03/2015 307","activated":"2018-01-12T00:38:30.581Z","flags":1,"native":1,"bps":4800,"parity":"N","stopbits":1,"cycle":1.00}]}
2018-01-11 19:38:31 1515717511.096125: {"class":"WATCH","enable":true,"json":false,"nmea":true,"raw":0,"scaled":false,"timing":false,"split24":false,"pps":false}
2018-01-11 19:38:31 1515717511.368059: $GPZDA,003832.00,12,01,2018,00,00*65
2018-01-11 19:38:31 1515717511.368231: $GPGGA,003832,3946.9603,N,08404.9830,W,2,12,0.80,312.87,M,-33.324,M,,*7B
2018-01-11 19:38:31 1515717511.368297: $GPRMC,003832,A,3946.9603,N,08404.9830,W,0.0000,0.000,120118,,*30
2018-01-11 19:38:31 1515717511.368358: $GPGSA,A,3,7,8,9,16,23,27,30,11,28,26,21,138,4.0,0.8,3.5*39
2018-01-11 19:38:32 1515717512.700890: $GPGSV,3,1,12,07,42,309,36,08,60,160,45,09,56,252,41,16,35,051,48*7D
2018-01-11 19:38:32 1515717512.701062: $GPGSV,3,2,12,23,44,196,45,27,57,072,50,30,17,300,36,11,08,172,22*7D
2018-01-11 19:38:32 1515717512.701130: $GPGSV,3,3,12,28,04,247,22,26,09,064,25,21,02,033,18,138,38,213,45*45
2018-01-11 19:38:32 1515717512.814539: $GPZDA,003833.00,12,01,2018,00,00*64
2018-01-11 19:38:32 1515717512.814651: $GPGGA,003833,3946.9603,N,08404.9830,W,2,12,0.80,312.87,M,-33.324,M,,*7A
2018-01-11 19:38:32 1515717512.814715: $GPRMC,003833,A,3946.9603,N,08404.9830,W,0.0000,0.000,120118,,*31
2018-01-11 19:38:32 1515717512.814774: $GPGSA,A,3,7,8,9,16,23,27,30,11,28,26,21,138,4.0,0.8,3.5*39
2018-01-11 19:38:33 1515717513.366798: $GPZDA,003834.00,12,01,2018,00,00*63
2018-01-11 19:38:33 1515717513.366963: $GPGGA,003834,3946.9602,N,08404.9830,W,2,12,0.80,311.47,M,-33.324,M,,*73
2018-01-11 19:38:33 1515717513.367028: $GPRMC,003834,A,3946.9602,N,08404.9830,W,0.0000,0.000,120118,,*37
2018-01-11 19:38:33 1515717513.367088: $GPGSA,A,3,7,8,9,16,23,27,30,11,28,26,21,138,4.0,0.8,3.5*39
2018-01-11 19:38:34 1515717514.366317: $GPZDA,003835.00,12,01,2018,00,00*62
2018-01-11 19:38:34 1515717514.366479: $GPGGA,003835,3946.9602,N,08404.9830,W,2,12,0.80,311.47,M,-33.324,M,,*72
2018-01-11 19:38:34 1515717514.366544: $GPRMC,003835,A,3946.9602,N,08404.9830,W,0.0000,0.000,120118,,*36
2018-01-11 19:38:34 1515717514.366605: $GPGSA,A,3,7,8,9,16,23,27,30,11,28,26,21,138,4.0,0.8,3.5*39
2018-01-11 19:38:35 1515717515.702462: $GPGSV,3,1,12,07,42,309,36,08,60,160,45,09,56,252,41,16,35,051,48*7D
2018-01-11 19:38:35 1515717515.702654: $GPGSV,3,2,12,23,44,196,45,27,57,072,50,30,17,300,36,11,08,172,27*78
2018-01-11 19:38:35 1515717515.702721: $GPGSV,3,3,12,28,04,247,22,26,09,064,25,21,02,033,18,138,38,213,44*44
2018-01-11 19:38:35 1515717515.816201: $GPZDA,003836.00,12,01,2018,00,00*61
2018-01-11 19:38:35 1515717515.816314: $GPGGA,003836,3946.9602,N,08404.9830,W,2,12,0.80,311.47,M,-33.324,M,,*71
2018-01-11 19:38:35 1515717515.816377: $GPRMC,003836,A,3946.9602,N,08404.9830,W,0.0000,0.000,120118,,*35
2018-01-11 19:38:35 1515717515.816437: $GPGSA,A,3,7,8,9,16,23,27,30,11,28,26,21,138,4.0,0.8,3.5*39
2018-01-11 19:38:36 1515717516.363291: $GPZDA,003837.00,12,01,2018,00,00*60
2018-01-11 19:38:36 1515717516.363449: $GPGGA,003837,3946.9602,N,08404.9830,W,2,12,0.80,311.47,M,-33.324,M,,*70
2018-01-11 19:38:36 1515717516.363514: $GPRMC,003837,A,3946.9602,N,08404.9830,W,0.0000,0.000,120118,,*34
2018-01-11 19:38:36 1515717516.363575: $GPGSA,A,3,7,8,9,16,23,27,30,11,28,26,21,138,4.0,0.8,3.5*39
2018-01-11 19:38:37 1515717517.367916: $GPZDA,003838.00,12,01,2018,00,00*6F
2018-01-11 19:38:37 1515717517.368086: $GPGGA,003838,3946.9602,N,08404.9830,W,2,12,0.80,311.47,M,-33.324,M,,*7F
2018-01-11 19:38:37 1515717517.368151: $GPRMC,003838,A,3946.9602,N,08404.9830,W,0.0000,0.000,120118,,*3B
2018-01-11 19:38:37 1515717517.368211: $GPGSA,A,3,7,8,9,16,23,27,30,11,28,26,21,138,4.0,0.8,3.5*39
2018-01-11 19:38:38 1515717518.699599: $GPGSV,3,1,12,07,42,309,35,08,60,160,45,09,56,252,41,16,35,051,48*7E
2018-01-11 19:38:38 1515717518.699823: $GPGSV,3,2,12,23,44,196,45,27,57,072,50,30,17,300,35,11,08,172,29*75
2018-01-11 19:38:38 1515717518.699892: $GPGSV,3,3,12,28,04,247,21,26,09,064,25,21,02,033,14,138,38,213,45*4A
2018-01-11 19:38:38 1515717518.813147: $GPZDA,003839.00,12,01,2018,00,00*6E
2018-01-11 19:38:38 1515717518.813268: $GPGGA,003839,3946.9606,N,08404.9830,W,2,12,0.80,312.11,M,-33.324,M,,*7A
2018-01-11 19:38:38 1515717518.813332: $GPRMC,003839,A,3946.9606,N,08404.9830,W,0.0000,0.000,120118,,*3E
2018-01-11 19:38:38 1515717518.813392: $GPGSA,A,3,7,8,9,16,23,27,30,11,28,26,21,138,4.0,0.8,3.5*39
