2017-12-14 12:43:12 1513273392.102464: {"class":"VERSION","release":"3.16","rev":"3.16-4","proto_major":3,"proto_minor":11}
2017-12-14 12:43:12 1513273392.102877: {"class":"DEVICES","devices":[{"class":"DEVICE","path":"/dev/ttyUSB0","driver":"SiRF","subtype":"9\u0006GSD4e_4.1.2-P1_RPATCH.05-F-GPS-4R-1510281 11/03/2015 307","activated":"2017-12-14T17:43:11.335Z","flags":1,"native":1,"bps":4800,"parity":"N","stopbits":1,"cycle":1.00}]}
2017-12-14 12:43:12 1513273392.102993: {"class":"WATCH","enable":true,"json":false,"nmea":true,"raw":0,"scaled":false,"timing":false,"split24":false,"pps":false}
2017-12-14 12:43:12 1513273392.194826: $GPZDA,174313.00,14,12,2017,00,00*67
2017-12-14 12:43:12 1513273392.194984: $GPGGA,174313,3946.9452,N,08404.9359,W,1,08,1.80,327.56,M,-33.324,M,,*73
2017-12-14 12:43:12 1513273392.195049: $GPRMC,174313,A,3946.9452,N,08404.9359,W,1.1902,58.684,141217,,*0C
2017-12-14 12:43:12 1513273392.195110: $GPGSA,A,3,18,20,14,27,32,10,24,21,,,,,6.6,1.8,6.2*31
2017-12-14 12:43:13 1513273393.530441: $GPGSV,3,1,11,18,76,012,22,20,26,103,15,15,28,057,00,27,16,279,18*7B
2017-12-14 12:43:13 1513273393.530638: $GPGSV,3,2,11,32,30,246,20,10,50,310,20,24,53,091,10,21,51,183,23*79
2017-12-14 12:43:13 1513273393.530706: $GPGSV,3,3,11,14,12,238,00,08,08,313,00,120,07,103,00*71
2017-12-14 12:43:13 1513273393.643988: $GPZDA,174314.00,14,12,2017,00,00*60
2017-12-14 12:43:13 1513273393.644170: $GPGGA,174314,3946.9460,N,08404.9358,W,1,07,1.80,327.43,M,-33.324,M,,*7F
2017-12-14 12:43:13 1513273393.644237: $GPRMC,174314,A,3946.9460,N,08404.9358,W,1.4167,47.343,141217,,*05
2017-12-14 12:43:13 1513273393.644297: $GPGSA,A,3,18,20,27,32,10,24,21,,,,,,6.6,1.8,6.2*34
2017-12-14 12:43:14 1513273394.193991: $GPZDA,174315.00,14,12,2017,00,00*61
2017-12-14 12:43:14 1513273394.194157: $GPGGA,174315,3946.9460,N,08404.9351,W,1,07,1.80,327.51,M,-33.324,M,,*74
2017-12-14 12:43:14 1513273394.194223: $GPRMC,174315,A,3946.9460,N,08404.9351,W,1.0018,50.691,141217,,*0C
2017-12-14 12:43:14 1513273394.194282: $GPGSA,A,3,18,20,27,32,10,24,21,,,,,,6.6,1.8,6.2*34
2017-12-14 12:43:15 1513273395.178577: $GPZDA,174316.00,14,12,2017,00,00*62
2017-12-14 12:43:15 1513273395.178752: $GPGGA,174316,3946.9460,N,08404.9351,W,1,07,1.80,327.51,M,-33.324,M,,*77
2017-12-14 12:43:15 1513273395.178818: $GPRMC,174316,A,3946.9460,N,08404.9351,W,0.8414,39.347,141217,,*0F
2017-12-14 12:43:15 1513273395.178879: $GPGSA,A,3,18,20,27,32,10,24,21,,,,,,6.6,1.8,6.2*34
2017-12-14 12:43:16 1513273396.529158: $GPGSV,3,1,11,18,76,012,21,20,26,103,14,15,28,057,00,27,16,279,18*79
2017-12-14 12:43:16 1513273396.529333: $GPGSV,3,2,11,32,30,246,20,10,50,310,20,24,53,091,10,21,51,183,24*7E
2017-12-14 12:43:16 1513273396.529399: $GPGSV,3,3,11,14,12,238,00,08,08,313,00,120,07,103,00*71
2017-12-14 12:43:16 1513273396.641271: $GPZDA,174317.00,14,12,2017,00,00*63
2017-12-14 12:43:16 1513273396.641437: $GPGGA,174317,3946.9467,N,08404.9350,W,1,07,1.80,327.39,M,-33.324,M,,*7E
2017-12-14 12:43:16 1513273396.641503: $GPRMC,174317,A,3946.9467,N,08404.9350,W,1.2361,14.852,141217,,*06
2017-12-14 12:43:16 1513273396.641563: $GPGSA,A,3,18,20,27,32,10,24,21,,,,,,6.6,1.8,6.2*34
2017-12-14 12:43:17 1513273397.193911: $GPZDA,174318.00,14,12,2017,00,00*6C
2017-12-14 12:43:17 1513273397.200430: $GPGGA,174318,3946.9467,N,08404.9350,W,1,07,1.80,327.39,M,-33.324,M,,*71
2017-12-14 12:43:17 1513273397.200540: $GPRMC,174318,A,3946.9467,N,08404.9350,W,0.9019,18.875,141217,,*06
2017-12-14 12:43:17 1513273397.200638: $GPGSA,A,3,18,20,27,32,10,24,21,,,,,,6.6,1.8,6.2*34
2017-12-14 12:43:18 1513273398.194799: $GPZDA,174319.00,14,12,2017,00,00*6D
2017-12-14 12:43:18 1513273398.194970: $GPGGA,174319,3946.9475,N,08404.9349,W,1,07,1.80,327.26,M,-33.324,M,,*75
2017-12-14 12:43:18 1513273398.195036: $GPRMC,174319,A,3946.9475,N,08404.9349,W,1.6283,21.001,141217,,*02
2017-12-14 12:43:18 1513273398.195096: $GPGSA,A,3,18,20,27,32,10,24,21,,,,,,6.6,1.8,6.2*34
2017-12-14 12:43:19 1513273399.513435: $GPGSV,3,1,11,18,76,012,21,20,26,103,15,15,28,057,17,27,16,279,19*7F
2017-12-14 12:43:19 1513273399.513630: $GPGSV,3,2,11,32,30,246,20,10,50,310,19,24,53,091,11,21,51,183,24*75
2017-12-14 12:43:19 1513273399.513782: $GPGSV,3,3,11,14,12,238,00,08,08,313,00,120,07,103,00*71
2017-12-14 12:43:19 1513273399.626891: $GPZDA,174320.00,14,12,2017,00,00*67
2017-12-14 12:43:19 1513273399.627031: $GPGGA,174320,3946.9475,N,08404.9349,W,1,07,1.80,327.26,M,-33.324,M,,*7F
2017-12-14 12:43:19 1513273399.627096: $GPRMC,174320,A,3946.9475,N,08404.9349,W,1.4555,23.637,141217,,*07
2017-12-14 12:43:19 1513273399.627156: $GPGSA,A,3,18,20,27,32,10,24,21,,,,,,6.6,1.8,6.2*34
2017-12-14 12:43:20 1513273400.176014: $GPZDA,174321.00,14,12,2017,00,00*66
2017-12-14 12:43:20 1513273400.176194: $GPGGA,174321,3946.9479,N,08404.9342,W,1,07,1.80,327.98,M,-33.324,M,,*7C
2017-12-14 12:43:20 1513273400.176261: $GPRMC,174321,A,3946.9479,N,08404.9342,W,1.8640,27.140,141217,,*09
2017-12-14 12:43:20 1513273400.176321: $GPGSA,A,3,18,20,27,32,10,24,21,,,,,,6.6,1.8,6.2*34
2017-12-14 12:43:21 1513273401.179666: $GPZDA,174322.00,14,12,2017,00,00*65
2017-12-14 12:43:21 1513273401.179843: $GPGGA,174322,3946.9479,N,08404.9342,W,1,07,1.80,327.98,M,-33.324,M,,*7F
2017-12-14 12:43:21 1513273401.179907: $GPRMC,174322,A,3946.9479,N,08404.9342,W,1.3921,14.217,141217,,*08
2017-12-14 12:43:21 1513273401.179969: $GPGSA,A,3,18,20,27,32,10,24,21,,,,,,6.6,1.8,6.2*34
2017-12-14 12:43:22 1513273402.513288: $GPGSV,3,1,11,18,76,012,21,20,26,103,16,15,28,057,00,27,16,279,19*7A
2017-12-14 12:43:22 1513273402.513490: $GPGSV,3,2,11,32,30,246,20,10,50,310,19,24,53,091,09,21,51,183,24*7C
2017-12-14 12:43:22 1513273402.513579: $GPGSV,3,3,11,14,12,238,00,08,08,313,00,120,07,103,00*71
2017-12-14 12:43:22 1513273402.626672: $GPZDA,174323.00,14,12,2017,00,00*64
2017-12-14 12:43:22 1513273402.626848: $GPGGA,174323,3946.9479,N,08404.9342,W,1,07,1.80,327.98,M,-33.324,M,,*7E
2017-12-14 12:43:22 1513273402.626916: $GPRMC,174323,A,3946.9479,N,08404.9342,W,0.9019,18.875,141217,,*02
2017-12-14 12:43:22 1513273402.626981: $GPGSA,A,3,18,20,27,32,10,24,21,,,,,,6.6,1.8,6.2*34
2017-12-14 12:43:23 1513273403.177561: $GPZDA,174324.00,14,12,2017,00,00*63
2017-12-14 12:43:23 1513273403.177736: $GPGGA,174324,3946.9474,N,08404.9342,W,1,07,1.80,327.34,M,-33.324,M,,*72
2017-12-14 12:43:23 1513273403.177805: $GPRMC,174324,A,3946.9474,N,08404.9342,W,0.1567,9.201,141217,,*35
2017-12-14 12:43:23 1513273403.177870: $GPGSA,A,3,18,20,27,32,10,24,21,,,,,,6.6,1.8,6.2*34
2017-12-14 12:43:24 1513273404.176427: $GPZDA,174325.00,14,12,2017,00,00*62
2017-12-14 12:43:24 1513273404.176605: $GPGGA,174325,3946.9474,N,08404.9342,W,1,07,1.80,327.34,M,-33.324,M,,*73
2017-12-14 12:43:24 1513273404.176676: $GPRMC,174325,A,3946.9474,N,08404.9342,W,0.0000,0.000,141217,,*3B
2017-12-14 12:43:24 1513273404.176743: $GPGSA,A,3,18,20,27,32,10,24,21,,,,,,6.6,1.8,6.2*34
2017-12-14 12:43:25 1513273405.512668: $GPGSV,3,1,11,18,76,012,21,20,26,103,17,15,28,057,17,27,16,279,19*7D
2017-12-14 12:43:25 1513273405.512852: $GPGSV,3,2,11,32,30,246,21,10,50,310,18,24,53,091,12,21,51,183,25*77
2017-12-14 12:43:25 1513273405.512920: $GPGSV,3,3,11,14,12,238,00,08,08,313,00,120,07,103,00*71
2017-12-14 12:43:25 1513273405.626053: $GPZDA,174326.00,14,12,2017,00,00*61
2017-12-14 12:43:25 1513273405.626219: $GPGGA,174326,3946.9467,N,08404.9350,W,1,07,1.80,327.39,M,-33.324,M,,*7C
2017-12-14 12:43:25 1513273405.626288: $GPRMC,174326,A,3946.9467,N,08404.9350,W,0.7278,203.637,141217,,*30
2017-12-14 12:43:25 1513273405.626352: $GPGSA,A,3,18,20,27,32,10,24,21,,,,,,6.6,1.8,6.2*34
2017-12-14 12:43:26 1513273406.177381: $GPZDA,174327.00,14,12,2017,00,00*60
2017-12-14 12:43:26 1513273406.177555: $GPGGA,174327,3946.9467,N,08404.9350,W,1,07,1.80,327.39,M,-33.324,M,,*7D
2017-12-14 12:43:26 1513273406.177628: $GPRMC,174327,A,3946.9467,N,08404.9350,W,0.9929,212.499,141217,,*36
2017-12-14 12:43:26 1513273406.177691: $GPGSA,A,3,18,20,27,32,10,24,21,,,,,,6.6,1.8,6.2*34
2017-12-14 12:43:27 1513273407.177517: $GPZDA,174328.00,14,12,2017,00,00*6F
2017-12-14 12:43:27 1513273407.177693: $GPGGA,174328,3946.9467,N,08404.9350,W,1,07,2.00,327.39,M,-33.324,M,,*79
2017-12-14 12:43:27 1513273407.177817: $GPRMC,174328,A,3946.9467,N,08404.9350,W,0.5951,238.684,141217,,*3C
2017-12-14 12:43:27 1513273407.177881: $GPGSA,A,3,18,20,27,32,10,24,21,,,,,,6.6,2.0,6.2*3F
2017-12-14 12:43:28 1513273408.515857: $GPGSV,3,1,11,18,76,012,20,20,26,103,17,15,28,057,00,27,16,279,19*7A
2017-12-14 12:43:28 1513273408.516030: $GPGSV,3,2,11,32,30,246,21,10,50,310,18,24,53,091,12,21,51,183,25*77
2017-12-14 12:43:28 1513273408.516096: $GPGSV,3,3,11,14,12,238,00,08,08,313,00,138,38,213,00*76
2017-12-14 12:43:28 1513273408.629257: $GPZDA,174329.00,14,12,2017,00,00*6E
2017-12-14 12:43:28 1513273408.629421: $GPGGA,174329,3946.9468,N,08404.9357,W,1,07,2.00,327.31,M,-33.324,M,,*78
2017-12-14 12:43:28 1513273408.629486: $GPRMC,174329,A,3946.9468,N,08404.9357,W,0.4844,273.795,141217,,*3F
2017-12-14 12:43:28 1513273408.629547: $GPGSA,A,3,18,20,27,32,10,24,21,,,,,,6.6,2.0,6.2*3F
2017-12-14 12:43:29 1513273409.176990: $GPZDA,174330.00,14,12,2017,00,00*66
2017-12-14 12:43:29 1513273409.177160: $GPGGA,174330,3946.9468,N,08404.9357,W,1,07,2.00,327.31,M,-33.324,M,,*70
2017-12-14 12:43:29 1513273409.177226: $GPRMC,174330,A,3946.9468,N,08404.9357,W,0.2422,273.795,141217,,*3D
2017-12-14 12:43:29 1513273409.177287: $GPGSA,A,3,18,20,27,32,10,24,21,,,,,,6.6,2.0,6.2*3F
2017-12-14 12:43:30 1513273410.176986: $GPZDA,174331.00,14,12,2017,00,00*67
2017-12-14 12:43:30 1513273410.177158: $GPGGA,174331,3946.9468,N,08404.9357,W,1,07,2.00,327.31,M,-33.324,M,,*71
2017-12-14 12:43:30 1513273410.177224: $GPRMC,174331,A,3946.9468,N,08404.9357,W,0.4179,328.779,141217,,*3C
2017-12-14 12:43:30 1513273410.177286: $GPGSA,A,3,18,20,27,32,10,24,21,,,,,,6.6,2.0,6.2*3F
2017-12-14 12:43:31 1513273411.513209: $GPGSV,3,1,11,18,76,012,20,20,26,103,17,15,28,057,00,27,16,279,19*7A
2017-12-14 12:43:31 1513273411.513386: $GPGSV,3,2,11,32,30,246,21,10,50,310,17,24,53,091,10,21,51,183,25*7A
2017-12-14 12:43:31 1513273411.513451: $GPGSV,3,3,11,14,12,238,00,08,08,313,00,138,38,213,00*76
2017-12-14 12:43:31 1513273411.626731: $GPZDA,174332.00,14,12,2017,00,00*64
2017-12-14 12:43:31 1513273411.626897: $GPGGA,174332,3946.9468,N,08404.9357,W,1,07,2.00,327.31,M,-33.324,M,,*72
2017-12-14 12:43:31 1513273411.626963: $GPRMC,174332,A,3946.9468,N,08404.9357,W,0.5075,252.257,141217,,*36
2017-12-14 12:43:31 1513273411.627023: $GPGSA,A,3,18,20,27,32,10,24,21,,,,,,6.6,2.0,6.2*3F
