2017-12-01 13:10:10 1512151810.936996: {"class":"VERSION","release":"3.16","rev":"3.16-4","proto_major":3,"proto_minor":11}
2017-12-01 13:10:10 1512151810.937429: {"class":"DEVICES","devices":[{"class":"DEVICE","path":"/dev/ttyUSB0","driver":"SiRF","subtype":"9\u0006GSD4e_4.1.2-P1_RPATCH.05-F-GPS-4R-1510281 11/03/2015 307","activated":"2017-12-01T18:10:10.573Z","flags":1,"native":1,"bps":4800,"parity":"N","stopbits":1,"cycle":1.00}]}
2017-12-01 13:10:10 1512151810.937553: {"class":"WATCH","enable":true,"json":false,"nmea":true,"raw":0,"scaled":false,"timing":false,"split24":false,"pps":false}
2017-12-01 13:10:11 1512151811.417741: $GPZDA,181012.00,01,12,2017,00,00*6B
2017-12-01 13:10:11 1512151811.418036: $GPGGA,181012,3946.9568,N,08404.9871,W,2,11,0.80,292.39,M,-33.324,M,,*7E
2017-12-01 13:10:11 1512151811.418161: $GPRMC,181012,A,3946.9568,N,08404.9871,W,0.0000,0.000,011217,,*35
2017-12-01 13:10:11 1512151811.418295: $GPGSA,A,3,8,10,15,18,20,21,24,32,27,13,138,,2.0,0.8,1.5*33
2017-12-01 13:10:12 1512151812.764759: $GPGSV,3,1,12,08,05,322,29,10,41,300,44,15,38,052,48,18,70,334,44*74
2017-12-01 13:10:12 1512151812.764977: $GPGSV,3,2,12,20,34,094,46,21,64,190,45,24,50,112,47,32,20,237,41*7B
2017-12-01 13:10:12 1512151812.765047: $GPGSV,3,3,12,27,19,291,34,13,08,048,27,14,03,232,25,138,38,213,46*48
2017-12-01 13:10:12 1512151812.877896: $GPZDA,181013.00,01,12,2017,00,00*6A
2017-12-01 13:10:12 1512151812.878068: $GPGGA,181013,3946.9568,N,08404.9871,W,2,12,0.80,292.39,M,-33.324,M,,*7C
2017-12-01 13:10:12 1512151812.878133: $GPRMC,181013,A,3946.9568,N,08404.9871,W,0.0000,0.000,011217,,*34
2017-12-01 13:10:12 1512151812.878228: $GPGSA,A,3,8,10,15,18,20,21,24,32,27,13,14,138,2.0,0.8,1.5*36
2017-12-01 13:10:13 1512151813.503292: $GPZDA,181014.00,01,12,2017,00,00*6D
2017-12-01 13:10:13 1512151813.503492: $GPGGA,181014,3946.9568,N,08404.9871,W,2,12,0.80,292.39,M,-33.324,M,,*7B
2017-12-01 13:10:13 1512151813.503561: $GPRMC,181014,A,3946.9568,N,08404.9871,W,0.0000,0.000,011217,,*33
2017-12-01 13:10:13 1512151813.503622: $GPGSA,A,3,8,10,15,18,20,21,24,32,27,13,14,138,2.0,0.8,1.5*36
2017-12-01 13:10:14 1512151814.416798: $GPZDA,181015.00,01,12,2017,00,00*6C
2017-12-01 13:10:14 1512151814.422067: $GPGGA,181015,3946.9568,N,08404.9871,W,2,12,0.80,292.39,M,-33.324,M,,*7A
2017-12-01 13:10:14 1512151814.422206: $GPRMC,181015,A,3946.9568,N,08404.9871,W,0.0000,0.000,011217,,*32
2017-12-01 13:10:14 1512151814.422290: $GPGSA,A,3,8,10,15,18,20,21,24,32,27,13,14,138,2.0,0.8,1.5*36
2017-12-01 13:10:15 1512151815.769905: $GPGSV,3,1,12,08,05,322,29,10,41,300,44,15,38,052,48,18,70,334,44*74
2017-12-01 13:10:15 1512151815.770073: $GPGSV,3,2,12,20,34,094,46,21,64,190,44,24,50,112,47,32,20,237,41*7A
2017-12-01 13:10:15 1512151815.770141: $GPGSV,3,3,12,27,19,291,34,13,08,048,27,14,03,232,26,138,38,213,46*4B
2017-12-01 13:10:15 1512151815.882125: $GPZDA,181016.00,01,12,2017,00,00*6F
2017-12-01 13:10:15 1512151815.882355: $GPGGA,181016,3946.9568,N,08404.9871,W,2,12,0.80,292.39,M,-33.324,M,,*79
2017-12-01 13:10:15 1512151815.882428: $GPRMC,181016,A,3946.9568,N,08404.9871,W,0.0000,0.000,011217,,*31
2017-12-01 13:10:15 1512151815.882490: $GPGSA,A,3,8,10,15,18,20,21,24,32,27,13,14,138,2.0,0.8,1.5*36
2017-12-01 13:10:16 1512151816.415402: $GPZDA,181017.00,01,12,2017,00,00*6E
2017-12-01 13:10:16 1512151816.415564: $GPGGA,181017,3946.9568,N,08404.9871,W,2,12,0.80,292.39,M,-33.324,M,,*78
2017-12-01 13:10:16 1512151816.415631: $GPRMC,181017,A,3946.9568,N,08404.9871,W,0.0000,0.000,011217,,*30
2017-12-01 13:10:16 1512151816.415692: $GPGSA,A,3,8,10,15,18,20,21,24,32,27,13,14,138,2.0,0.8,1.5*36
2017-12-01 13:10:17 1512151817.416286: $GPZDA,181018.00,01,12,2017,00,00*61
2017-12-01 13:10:17 1512151817.416479: $GPGGA,181018,3946.9568,N,08404.9871,W,2,12,0.80,292.39,M,-33.324,M,,*77
2017-12-01 13:10:17 1512151817.416546: $GPRMC,181018,A,3946.9568,N,08404.9871,W,0.0000,0.000,011217,,*3F
2017-12-01 13:10:17 1512151817.416606: $GPGSA,A,3,8,10,15,18,20,21,24,32,27,13,14,138,2.0,0.8,1.5*36
2017-12-01 13:10:18 1512151818.772780: $GPGSV,3,1,12,08,05,322,29,10,41,300,44,15,38,052,48,18,70,334,44*74
2017-12-01 13:10:18 1512151818.773017: $GPGSV,3,2,12,20,34,094,46,21,64,190,45,24,50,112,47,32,20,237,41*7B
2017-12-01 13:10:18 1512151818.773085: $GPGSV,3,3,12,27,19,291,35,13,08,048,27,14,03,232,08,138,38,213,47*47
2017-12-01 13:10:18 1512151818.886120: $GPZDA,181019.00,01,12,2017,00,00*60
2017-12-01 13:10:18 1512151818.886329: $GPGGA,181019,3946.9568,N,08404.9871,W,2,12,0.80,292.39,M,-33.324,M,,*76
2017-12-01 13:10:18 1512151818.886397: $GPRMC,181019,A,3946.9568,N,08404.9871,W,0.0000,0.000,011217,,*3E
2017-12-01 13:10:18 1512151818.886459: $GPGSA,A,3,8,10,15,18,20,21,24,32,27,13,14,138,2.0,0.8,1.5*36
2017-12-01 13:10:19 1512151819.417009: $GPZDA,181020.00,01,12,2017,00,00*6A
2017-12-01 13:10:19 1512151819.722317: $GPGGA,181020,3946.9568,N,08404.9871,W,2,12,0.80,292.39,M,-33.324,M,,*7C
2017-12-01 13:10:19 1512151819.722466: $GPRMC,181020,A,3946.9568,N,08404.9871,W,0.0000,0.000,011217,,*34
2017-12-01 13:10:19 1512151819.722530: $GPGSA,A,3,8,10,15,18,20,21,24,32,27,13,14,138,2.0,0.8,1.5*36
2017-12-01 13:10:20 1512151820.426605: $GPZDA,181021.00,01,12,2017,00,00*6B
2017-12-01 13:10:20 1512151820.426783: $GPGGA,181021,3946.9568,N,08404.9871,W,2,12,0.80,292.39,M,-33.324,M,,*7D
2017-12-01 13:10:20 1512151820.426852: $GPRMC,181021,A,3946.9568,N,08404.9871,W,0.0000,0.000,011217,,*35
2017-12-01 13:10:20 1512151820.426915: $GPGSA,A,3,8,10,15,18,20,21,24,32,27,13,14,138,2.0,0.8,1.5*36
