2017-11-15 18:42:30 1510789350.792668: {"class":"VERSION","release":"3.17","rev":"3.17","proto_major":3,"proto_minor":12}
2017-11-15 18:42:30 1510789350.793114: {"class":"DEVICES","devices":[{"class":"DEVICE","path":"/dev/ttyUSB0","driver":"SiRF","subtype":"9\u0006GSD4e_4.1.2-P1_RPATCH.05-F-GPS-4R-1510281 11/03/2015 307","activated":"2017-11-15T23:42:30.698Z","flags":1,"native":1,"bps":4800,"parity":"N","stopbits":1,"cycle":1.00}]}
2017-11-15 18:42:30 1510789350.793223: {"class":"WATCH","enable":true,"json":false,"nmea":true,"raw":0,"scaled":false,"timing":false,"split24":false,"pps":false}
2017-11-15 18:42:30 1510789350.836945: $GPZDA,234229.00,15,11,2017,00,00*6A
2017-11-15 18:42:30 1510789350.837085: $GPGGA,234229,3946.9516,N,08404.9725,W,1,07,2.40,313.34,M,-33.324,M,,*71
2017-11-15 18:42:30 1510789350.837144: $GPRMC,234229,A,3946.9516,N,08404.9725,W,1.1902,238.684,151117,,*3B
2017-11-15 18:42:30 1510789350.837198: $GPGSA,A,3,25,14,32,31,1,10,22,,,,,,3.4,2.4,2.9*09
2017-11-15 18:42:31 1510789351.437702: $GPZDA,234230.00,15,11,2017,00,00*62
2017-11-15 18:42:31 1510789351.442332: $GPGGA,234230,3946.9516,N,08404.9725,W,1,07,2.40,313.34,M,-33.324,M,,*79
2017-11-15 18:42:31 1510789351.442444: $GPRMC,234230,A,3946.9516,N,08404.9725,W,0.9929,212.499,151117,,*35
2017-11-15 18:42:31 1510789351.442501: $GPGSA,A,3,25,14,32,31,1,10,22,,,,,,3.4,2.4,2.9*09
2017-11-15 18:42:32 1510789352.329662: $GPZDA,234231.00,15,11,2017,00,00*63
2017-11-15 18:42:32 1510789352.329814: $GPGGA,234231,3946.9513,N,08404.9726,W,1,07,2.40,314.11,M,-33.324,M,,*7E
2017-11-15 18:42:32 1510789352.329875: $GPRMC,234231,A,3946.9513,N,08404.9726,W,1.0018,230.691,151117,,*3B
2017-11-15 18:42:32 1510789352.329932: $GPGSA,A,3,25,14,32,31,1,10,22,,,,,,3.4,2.4,2.9*09
2017-11-15 18:42:33 1510789353.664831: $GPGSV,3,1,12,25,33,052,06,14,67,052,18,26,30,177,00,32,52,085,21*7A
2017-11-15 18:42:33 1510789353.665007: $GPGSV,3,2,12,31,79,306,26,01,17,270,15,03,24,313,00,10,17,157,18*79
2017-11-15 18:42:33 1510789353.665067: $GPGSV,3,3,12,12,03,030,00,22,42,298,19,16,02,190,00,135,23,238,00*46
2017-11-15 18:42:33 1510789353.778139: $GPZDA,234232.00,15,11,2017,00,00*60
2017-11-15 18:42:33 1510789353.778317: $GPGGA,234232,3946.9513,N,08404.9726,W,1,07,2.40,314.11,M,-33.324,M,,*7D
2017-11-15 18:42:33 1510789353.778380: $GPRMC,234232,A,3946.9513,N,08404.9726,W,0.8054,248.645,151117,,*3F
2017-11-15 18:42:33 1510789353.778435: $GPGSA,A,3,25,14,32,31,1,10,22,,,,,,3.4,2.4,2.9*09
2017-11-15 18:42:34 1510789354.329467: $GPZDA,234233.00,15,11,2017,00,00*61
2017-11-15 18:42:34 1510789354.329661: $GPGGA,234233,3946.9516,N,08404.9725,W,1,07,2.40,313.34,M,-33.324,M,,*7A
2017-11-15 18:42:34 1510789354.329724: $GPRMC,234233,A,3946.9516,N,08404.9725,W,0.7267,273.794,151117,,*30
2017-11-15 18:42:34 1510789354.329780: $GPGSA,A,3,25,14,32,31,1,10,22,,,,,,3.4,2.4,2.9*09
2017-11-15 18:42:35 1510789355.328641: $GPZDA,234234.00,15,11,2017,00,00*66
2017-11-15 18:42:35 1510789355.328822: $GPGGA,234234,3946.9516,N,08404.9725,W,1,07,2.40,313.34,M,-33.324,M,,*7D
2017-11-15 18:42:35 1510789355.328883: $GPRMC,234234,A,3946.9516,N,08404.9725,W,0.8011,299.090,151117,,*3C
2017-11-15 18:42:35 1510789355.328939: $GPGSA,A,3,25,14,32,31,1,10,22,,,,,,3.4,2.4,2.9*09
2017-11-15 18:42:36 1510789356.665221: $GPGSV,3,1,12,25,33,052,06,14,67,052,17,16,02,190,10,32,52,085,21*7F
2017-11-15 18:42:36 1510789356.665423: $GPGSV,3,2,12,31,79,306,26,01,17,270,15,26,30,177,00,10,17,157,18*7B
2017-11-15 18:42:36 1510789356.665483: $GPGSV,3,3,12,03,24,313,00,22,42,298,19,12,03,030,00,135,23,238,00*4F
2017-11-15 18:42:36 1510789356.778489: $GPZDA,234235.00,15,11,2017,00,00*67
2017-11-15 18:42:36 1510789356.778657: $GPGGA,234235,3946.9520,N,08404.9725,W,1,06,2.40,313.98,M,-33.324,M,,*7E
2017-11-15 18:42:36 1510789356.778719: $GPRMC,234235,A,3946.9520,N,08404.9725,W,0.4179,328.778,151117,,*31
2017-11-15 18:42:36 1510789356.778775: $GPGSA,A,3,14,32,31,1,10,22,,,,,,,3.4,2.4,2.9*0E
2017-11-15 18:42:37 1510789357.363260: $GPZDA,234236.00,15,11,2017,00,00*64
2017-11-15 18:42:37 1510789357.363425: $GPGGA,234236,3946.9524,N,08404.9725,W,1,06,2.40,313.22,M,-33.324,M,,*78
2017-11-15 18:42:37 1510789357.363536: $GPRMC,234236,A,3946.9524,N,08404.9725,W,0.7621,287.945,151117,,*3B
2017-11-15 18:42:37 1510789357.363594: $GPGSA,A,3,14,32,31,1,10,22,,,,,,,3.4,2.4,2.9*0E
2017-11-15 18:42:38 1510789358.329176: $GPZDA,234237.00,15,11,2017,00,00*65
2017-11-15 18:42:38 1510789358.329366: $GPGGA,234237,3946.9524,N,08404.9725,W,1,06,2.40,313.22,M,-33.324,M,,*79
2017-11-15 18:42:38 1510789358.329427: $GPRMC,234237,A,3946.9524,N,08404.9725,W,0.9689,273.794,151117,,*3F
2017-11-15 18:42:38 1510789358.329483: $GPGSA,A,3,14,32,31,1,10,22,,,,,,,3.4,2.4,2.9*0E
2017-11-15 18:42:39 1510789359.663580: $GPGSV,3,1,12,25,33,052,11,14,67,052,17,26,30,177,00,32,52,085,21*73
2017-11-15 18:42:39 1510789359.663726: $GPGSV,3,2,12,31,79,306,26,01,17,270,11,03,24,313,00,10,17,157,18*7D
2017-11-15 18:42:39 1510789359.663785: $GPGSV,3,3,12,12,03,030,00,22,42,298,18,16,02,190,00,135,23,238,00*47
2017-11-15 18:42:39 1510789359.777290: $GPZDA,234238.00,15,11,2017,00,00*6A
2017-11-15 18:42:39 1510789359.777456: $GPGGA,234238,3946.9528,N,08404.9725,W,1,07,1.20,313.86,M,-33.324,M,,*70
2017-11-15 18:42:39 1510789359.777517: $GPRMC,234238,A,3946.9528,N,08404.9725,W,0.5912,309.172,151117,,*3F
2017-11-15 18:42:39 1510789359.777573: $GPGSA,A,3,25,14,32,31,1,10,22,,,,,,3.4,1.2,2.9*0C
2017-11-15 18:42:40 1510789360.327786: $GPZDA,234239.00,15,11,2017,00,00*6B
2017-11-15 18:42:40 1510789360.327954: $GPGGA,234239,3946.9528,N,08404.9718,W,1,07,2.40,313.94,M,-33.324,M,,*79
2017-11-15 18:42:40 1510789360.328015: $GPRMC,234239,A,3946.9528,N,08404.9718,W,0.3423,4.197,151117,,*3C
2017-11-15 18:42:40 1510789360.328071: $GPGSA,A,3,25,14,32,31,1,10,22,,,,,,3.4,2.4,2.9*09
2017-11-15 18:42:41 1510789361.361856: $GPZDA,234240.00,15,11,2017,00,00*65
2017-11-15 18:42:41 1510789361.362025: $GPGGA,234240,3946.9528,N,08404.9718,W,1,07,1.20,313.94,M,-33.324,M,,*72
2017-11-15 18:42:41 1510789361.362086: $GPRMC,234240,A,3946.9528,N,08404.9718,W,0.2422,273.794,151117,,*35
2017-11-15 18:42:41 1510789361.362142: $GPGSA,A,3,25,14,32,31,1,10,22,,,,,,3.4,1.2,2.9*0C
2017-11-15 18:42:42 1510789362.663980: $GPGSV,3,1,12,25,33,052,11,14,67,052,17,26,30,177,00,32,52,085,22*70
2017-11-15 18:42:42 1510789362.664149: $GPGSV,3,2,12,31,79,306,26,01,17,270,12,03,24,313,00,10,17,157,18*7E
2017-11-15 18:42:42 1510789362.664208: $GPGSV,3,3,12,12,03,030,00,22,42,298,18,16,02,190,00,135,23,238,00*47
2017-11-15 18:42:42 1510789362.777377: $GPZDA,234241.00,15,11,2017,00,00*64
2017-11-15 18:42:42 1510789362.777558: $GPGGA,234241,3946.9528,N,08404.9718,W,1,07,1.20,313.94,M,-33.324,M,,*73
2017-11-15 18:42:42 1510789362.777619: $GPRMC,234241,A,3946.9528,N,08404.9718,W,0.3423,184.197,151117,,*3A
2017-11-15 18:42:42 1510789362.777675: $GPGSA,A,3,25,14,32,31,1,10,22,,,,,,3.4,1.2,2.9*0C
2017-11-15 18:42:43 1510789363.363132: $GPZDA,234242.00,15,11,2017,00,00*67
2017-11-15 18:42:43 1510789363.363316: $GPGGA,234242,3946.9527,N,08404.9711,W,1,07,2.40,314.02,M,-33.324,M,,*7B
2017-11-15 18:42:43 1510789363.363379: $GPRMC,234242,A,3946.9527,N,08404.9711,W,0.3423,184.197,151117,,*3F
2017-11-15 18:42:43 1510789363.363451: $GPGSA,A,3,25,14,32,31,1,10,22,,,,,,3.4,2.4,2.9*09
2017-11-15 18:42:44 1510789364.362795: $GPZDA,234243.00,15,11,2017,00,00*66
2017-11-15 18:42:44 1510789364.362956: $GPGGA,234243,3946.9532,N,08404.9711,W,1,07,2.40,314.66,M,-33.324,M,,*7C
2017-11-15 18:42:44 1510789364.363018: $GPRMC,234243,A,3946.9532,N,08404.9711,W,0.2422,93.794,151117,,*08
2017-11-15 18:42:44 1510789364.363074: $GPGSA,A,3,25,14,32,31,1,10,22,,,,,,3.4,2.4,2.9*09
2017-11-15 18:42:45 1510789365.664777: $GPGSV,3,1,12,25,33,052,08,14,67,052,17,03,24,313,12,32,52,085,21*7A
2017-11-15 18:42:45 1510789365.664945: $GPGSV,3,2,12,31,79,306,26,01,17,270,12,26,30,177,00,10,17,157,18*7C
2017-11-15 18:42:45 1510789365.665004: $GPGSV,3,3,12,12,03,030,00,22,42,298,17,16,02,190,00,135,23,238,00*48
2017-11-15 18:42:45 1510789365.778579: $GPZDA,234244.00,15,11,2017,00,00*61
2017-11-15 18:42:45 1510789365.778779: $GPGGA,234244,3946.9532,N,08404.9711,W,1,06,2.40,314.66,M,-33.324,M,,*7A
2017-11-15 18:42:45 1510789365.778921: $GPRMC,234244,A,3946.9532,N,08404.9711,W,0.0000,0.000,151117,,*39
2017-11-15 18:42:45 1510789365.779000: $GPGSA,A,3,14,32,31,1,10,22,,,,,,,3.4,2.4,2.9*0E
2017-11-15 18:42:46 1510789366.403801: $GPZDA,234245.00,15,11,2017,00,00*60
2017-11-15 18:42:46 1510789366.403954: $GPGGA,234245,3946.9531,N,08404.9704,W,1,06,2.40,314.73,M,-33.324,M,,*78
2017-11-15 18:42:46 1510789366.404015: $GPRMC,234245,A,3946.9531,N,08404.9704,W,0.2422,273.794,151117,,*35
2017-11-15 18:42:46 1510789366.404090: $GPGSA,A,3,14,32,31,1,10,22,,,,,,,3.4,2.4,2.9*0E
2017-11-15 18:42:47 1510789367.329410: $GPZDA,234246.00,15,11,2017,00,00*63
2017-11-15 18:42:47 1510789367.329581: $GPGGA,234246,3946.9535,N,08404.9703,W,1,06,2.40,313.97,M,-33.324,M,,*75
2017-11-15 18:42:47 1510789367.329643: $GPRMC,234246,A,3946.9535,N,08404.9703,W,0.4179,328.778,151117,,*35
2017-11-15 18:42:47 1510789367.329701: $GPGSA,A,3,14,32,31,1,10,22,,,,,,,3.4,2.4,2.9*0E
2017-11-15 18:42:48 1510789368.666366: $GPGSV,3,1,12,25,33,052,13,14,67,052,17,03,24,313,14,32,52,085,21*76
2017-11-15 18:42:48 1510789368.666541: $GPGSV,3,2,12,31,79,306,27,01,17,270,10,26,30,177,10,10,17,157,18*7E
2017-11-15 18:42:48 1510789368.666604: $GPGSV,3,3,12,12,03,030,00,22,42,298,16,16,02,190,00,120,07,103,00*40
2017-11-15 18:42:48 1510789368.779811: $GPZDA,234247.00,15,11,2017,00,00*62
2017-11-15 18:42:48 1510789368.779994: $GPGGA,234247,3946.9535,N,08404.9703,W,1,08,1.20,313.97,M,-33.324,M,,*7F
2017-11-15 18:42:48 1510789368.780063: $GPRMC,234247,A,3946.9535,N,08404.9703,W,0.4207,219.347,151117,,*35
2017-11-15 18:42:48 1510789368.780126: $GPGSA,A,3,25,14,3,32,31,1,10,22,,,,,3.4,1.2,2.9*3F
2017-11-15 18:42:49 1510789369.330728: $GPZDA,234248.00,15,11,2017,00,00*6D
2017-11-15 18:42:49 1510789369.330889: $GPGGA,234248,3946.9531,N,08404.9704,W,1,08,1.20,314.73,M,-33.324,M,,*7E
2017-11-15 18:42:49 1510789369.330953: $GPRMC,234248,A,3946.9531,N,08404.9704,W,0.5287,182.716,151117,,*31
2017-11-15 18:42:49 1510789369.331012: $GPGSA,A,3,25,14,3,32,31,1,10,22,,,,,3.4,1.2,2.9*3F
2017-11-15 18:42:50 1510789370.363205: $GPZDA,234249.00,15,11,2017,00,00*6C
2017-11-15 18:42:50 1510789370.363376: $GPGGA,234249,3946.9531,N,08404.9704,W,1,08,1.20,314.73,M,-33.324,M,,*7F
2017-11-15 18:42:50 1510789370.363442: $GPRMC,234249,A,3946.9531,N,08404.9704,W,0.4207,219.347,151117,,*38
2017-11-15 18:42:50 1510789370.363501: $GPGSA,A,3,25,14,3,32,31,1,10,22,,,,,3.4,1.2,2.9*3F
2017-11-15 18:42:51 1510789371.664227: $GPGSV,3,1,12,25,33,052,10,14,67,052,17,03,24,313,00,32,52,085,21*70
2017-11-15 18:42:51 1510789371.664387: $GPGSV,3,2,12,31,79,306,27,01,17,270,11,26,30,177,14,10,17,157,17*74
2017-11-15 18:42:51 1510789371.664452: $GPGSV,3,3,12,12,03,030,00,22,42,298,15,16,02,190,00,120,07,103,00*43
2017-11-15 18:42:51 1510789371.777608: $GPZDA,234250.00,15,11,2017,00,00*64
2017-11-15 18:42:51 1510789371.777774: $GPGGA,234250,3946.9531,N,08404.9704,W,1,07,1.20,314.73,M,-33.324,M,,*78
2017-11-15 18:42:51 1510789371.777838: $GPRMC,234250,A,3946.9531,N,08404.9704,W,0.2422,273.794,151117,,*31
2017-11-15 18:42:51 1510789371.777898: $GPGSA,A,3,25,14,32,31,1,10,22,,,,,,3.4,1.2,2.9*0C
2017-11-15 18:42:52 1510789372.371400: $GPZDA,234251.00,15,11,2017,00,00*65
2017-11-15 18:42:52 1510789372.371570: $GPGGA,234251,3946.9531,N,08404.9704,W,1,07,1.20,314.73,M,-33.324,M,,*79
2017-11-15 18:42:52 1510789372.371636: $GPRMC,234251,A,3946.9531,N,08404.9704,W,0.5912,309.172,151117,,*3B
2017-11-15 18:42:52 1510789372.371695: $GPGSA,A,3,25,14,32,31,1,10,22,,,,,,3.4,1.2,2.9*0C
2017-11-15 18:42:53 1510789373.329587: $GPZDA,234252.00,15,11,2017,00,00*66
2017-11-15 18:42:53 1510789373.329771: $GPGGA,234252,3946.9532,N,08404.9711,W,1,07,1.20,314.66,M,-33.324,M,,*79
2017-11-15 18:42:53 1510789373.329859: $GPRMC,234252,A,3946.9532,N,08404.9711,W,1.1391,323.662,151117,,*35
2017-11-15 18:42:53 1510789373.329923: $GPGSA,A,3,25,14,32,31,1,10,22,,,,,,3.4,1.2,2.9*0C
2017-11-15 18:42:54 1510789374.665165: $GPGSV,3,1,12,25,33,052,11,14,67,052,17,26,30,177,00,32,52,085,21*73
2017-11-15 18:42:54 1510789374.665396: $GPGSV,3,2,12,31,79,306,27,01,17,270,10,03,24,313,00,10,17,157,17*72
2017-11-15 18:42:54 1510789374.665459: $GPGSV,3,3,12,12,03,030,00,22,42,298,14,16,02,190,00,120,07,103,00*42
2017-11-15 18:42:54 1510789374.778524: $GPZDA,234253.00,15,11,2017,00,00*67
2017-11-15 18:42:54 1510789374.778689: $GPGGA,234253,3946.9539,N,08404.9710,W,1,07,1.20,314.53,M,-33.324,M,,*74
2017-11-15 18:42:54 1510789374.778750: $GPRMC,234253,A,3946.9539,N,08404.9710,W,1.7178,318.722,151117,,*30
2017-11-15 18:42:54 1510789374.778805: $GPGSA,A,3,25,14,32,31,1,10,22,,,,,,3.4,1.2,2.9*0C
2017-11-15 18:42:55 1510789375.329755: $GPZDA,234254.00,15,11,2017,00,00*60
2017-11-15 18:42:55 1510789375.329906: $GPGGA,234254,3946.9539,N,08404.9717,W,1,07,1.20,314.45,M,-33.324,M,,*73
2017-11-15 18:42:55 1510789375.329966: $GPRMC,234254,A,3946.9539,N,08404.9717,W,2.0890,309.296,151117,,*31
2017-11-15 18:42:55 1510789375.330021: $GPGSA,A,3,25,14,32,31,1,10,22,,,,,,3.4,1.2,2.9*0C
2017-11-15 18:42:56 1510789376.328601: $GPZDA,234255.00,15,11,2017,00,00*61
2017-11-15 18:42:56 1510789376.328744: $GPGGA,234255,3946.9544,N,08404.9724,W,1,07,1.20,315.01,M,-33.324,M,,*79
2017-11-15 18:42:56 1510789376.328804: $GPRMC,234255,A,3946.9544,N,08404.9724,W,1.5823,314.257,151117,,*35
2017-11-15 18:42:56 1510789376.328859: $GPGSA,A,3,25,14,32,31,1,10,22,,,,,,3.4,1.2,2.9*0C
2017-11-15 18:42:57 1510789377.665574: $GPGSV,3,1,12,25,33,052,12,14,67,052,16,26,30,177,00,32,52,085,21*71
2017-11-15 18:42:57 1510789377.665747: $GPGSV,3,2,12,31,79,306,27,01,17,270,11,03,24,313,00,10,17,157,17*73
2017-11-15 18:42:57 1510789377.665808: $GPGSV,3,3,12,12,03,030,00,22,42,298,10,16,02,190,00,120,07,103,00*46
2017-11-15 18:42:57 1510789377.777745: $GPZDA,234256.00,15,11,2017,00,00*62
2017-11-15 18:42:57 1510789377.777907: $GPGGA,234256,3946.9544,N,08404.9731,W,1,07,1.20,314.93,M,-33.324,M,,*74
2017-11-15 18:42:57 1510789377.777967: $GPRMC,234256,A,3946.9544,N,08404.9731,W,1.7736,309.172,151117,,*33
2017-11-15 18:42:57 1510789377.778022: $GPGSA,A,3,25,14,32,31,1,10,22,,,,,,3.4,1.2,2.9*0C
2017-11-15 18:42:58 1510789378.363543: $GPZDA,234257.00,15,11,2017,00,00*63
2017-11-15 18:42:58 1510789378.363707: $GPGGA,234257,3946.9544,N,08404.9731,W,1,07,1.20,314.93,M,-33.324,M,,*75
2017-11-15 18:42:58 1510789378.363767: $GPRMC,234257,A,3946.9544,N,08404.9731,W,1.3870,303.369,151117,,*39
2017-11-15 18:42:58 1510789378.363823: $GPGSA,A,3,25,14,32,31,1,10,22,,,,,,3.4,1.2,2.9*0C
2017-11-15 18:42:59 1510789379.363174: $GPZDA,234258.00,15,11,2017,00,00*6C
2017-11-15 18:42:59 1510789379.363358: $GPGGA,234258,3946.9548,N,08404.9737,W,1,07,1.20,314.09,M,-33.324,M,,*73
2017-11-15 18:42:59 1510789379.363440: $GPRMC,234258,A,3946.9548,N,08404.9737,W,1.5823,314.257,151117,,*36
2017-11-15 18:42:59 1510789379.363496: $GPGSA,A,3,25,14,32,31,1,10,22,,,,,,3.4,1.2,2.9*0C
2017-11-15 18:43:00 1510789380.700234: $GPGSV,3,1,12,25,33,052,12,14,67,052,16,26,30,177,00,32,52,085,21*71
2017-11-15 18:43:00 1510789380.700424: $GPGSV,3,2,12,31,79,306,27,01,17,270,10,03,24,313,00,10,17,157,17*72
2017-11-15 18:43:00 1510789380.700485: $GPGSV,3,3,12,12,03,030,00,22,42,298,08,16,02,190,00,120,07,103,00*4F
2017-11-15 18:43:00 1510789380.812382: $GPZDA,234259.00,15,11,2017,00,00*6D
2017-11-15 18:43:00 1510789380.812554: $GPGGA,234259,3946.9548,N,08404.9737,W,1,07,1.20,314.09,M,-33.324,M,,*72
2017-11-15 18:43:00 1510789380.812615: $GPRMC,234259,A,3946.9548,N,08404.9737,W,1.5823,314.257,151117,,*37
2017-11-15 18:43:00 1510789380.812671: $GPGSA,A,3,25,14,32,31,1,10,22,,,,,,3.4,1.2,2.9*0C
