2017-12-01 18:08:44 1512169724.196960: {"class":"VERSION","release":"3.16","rev":"3.16-4","proto_major":3,"proto_minor":11}
2017-12-01 18:08:44 1512169724.197447: {"class":"DEVICES","devices":[{"class":"DEVICE","path":"/dev/ttyUSB0","driver":"SiRF","subtype":"9\u0006GSD4e_4.1.2-P1_RPATCH.05-F-GPS-4R-1510281 11/03/2015 307","activated":"2017-12-01T23:08:43.530Z","flags":1,"native":1,"bps":4800,"parity":"N","stopbits":1,"cycle":1.00}]}
2017-12-01 18:08:44 1512169724.197569: {"class":"WATCH","enable":true,"json":false,"nmea":true,"raw":0,"scaled":false,"timing":false,"split24":false,"pps":false}
2017-12-01 18:08:44 1512169724.388741: $GPZDA,230845.00,01,12,2017,00,00*68
2017-12-01 18:08:44 1512169724.388916: $GPGGA,230845,3946.9720,N,08404.9848,W,2,12,0.60,299.25,M,-33.325,M,,*73
2017-12-01 18:08:44 1512169724.388984: $GPRMC,230845,A,3946.9720,N,08404.9848,W,0.0000,0.000,011217,,*32
2017-12-01 18:08:44 1512169724.389092: $GPGSA,A,3,3,14,16,22,23,25,26,31,32,1,29,138,2.0,0.6,1.5*02
2017-12-01 18:08:45 1512169725.723146: $GPGSV,3,1,12,03,36,306,46,14,60,081,44,16,16,189,42,22,49,282,46*72
2017-12-01 18:08:45 1512169725.723325: $GPGSV,3,2,12,23,06,297,42,25,23,043,42,26,46,174,47,31,72,012,47*71
2017-12-01 18:08:45 1512169725.723394: $GPGSV,3,3,12,32,41,102,44,01,10,258,26,29,08,078,28,138,38,213,46*43
2017-12-01 18:08:45 1512169725.836527: $GPZDA,230846.00,01,12,2017,00,00*6B
2017-12-01 18:08:45 1512169725.836697: $GPGGA,230846,3946.9720,N,08404.9848,W,2,12,0.60,299.25,M,-33.325,M,,*70
2017-12-01 18:08:45 1512169725.836765: $GPRMC,230846,A,3946.9720,N,08404.9848,W,0.0000,0.000,011217,,*31
2017-12-01 18:08:45 1512169725.836826: $GPGSA,A,3,3,14,16,22,23,25,26,31,32,1,29,138,2.0,0.6,1.5*02
2017-12-01 18:08:46 1512169726.387344: $GPZDA,230847.00,01,12,2017,00,00*6A
2017-12-01 18:08:46 1512169726.387526: $GPGGA,230847,3946.9720,N,08404.9848,W,2,12,0.60,299.25,M,-33.325,M,,*71
2017-12-01 18:08:46 1512169726.387594: $GPRMC,230847,A,3946.9720,N,08404.9848,W,0.0000,0.000,011217,,*30
2017-12-01 18:08:46 1512169726.387655: $GPGSA,A,3,3,14,16,22,23,25,26,31,32,1,29,138,2.0,0.6,1.5*02
2017-12-01 18:08:47 1512169727.387231: $GPZDA,230848.00,01,12,2017,00,00*65
2017-12-01 18:08:47 1512169727.387397: $GPGGA,230848,3946.9720,N,08404.9848,W,2,12,0.60,299.25,M,-33.325,M,,*7E
2017-12-01 18:08:47 1512169727.387464: $GPRMC,230848,A,3946.9720,N,08404.9848,W,0.0000,0.000,011217,,*3F
2017-12-01 18:08:47 1512169727.387525: $GPGSA,A,3,3,14,16,22,23,25,26,31,32,1,29,138,2.0,0.6,1.5*02
2017-12-01 18:08:48 1512169728.751491: $GPGSV,3,1,12,03,36,306,47,14,60,081,43,16,16,189,42,22,49,282,46*74
2017-12-01 18:08:48 1512169728.751692: $GPGSV,3,2,12,23,06,297,41,25,23,043,42,26,46,174,46,31,72,012,47*73
2017-12-01 18:08:48 1512169728.751760: $GPGSV,3,3,12,32,41,102,44,01,10,258,26,29,08,078,28,138,38,213,46*43
2017-12-01 18:08:48 1512169728.865268: $GPZDA,230849.00,01,12,2017,00,00*64
2017-12-01 18:08:48 1512169728.865437: $GPGGA,230849,3946.9720,N,08404.9848,W,2,12,0.60,299.25,M,-33.325,M,,*7F
2017-12-01 18:08:48 1512169728.865504: $GPRMC,230849,A,3946.9720,N,08404.9848,W,0.0000,0.000,011217,,*3E
2017-12-01 18:08:48 1512169728.865565: $GPGSA,A,3,3,14,16,22,23,25,26,31,32,1,29,138,2.0,0.6,1.5*02
2017-12-01 18:08:49 1512169729.382448: $GPZDA,230850.00,01,12,2017,00,00*6C
2017-12-01 18:08:49 1512169729.382647: $GPGGA,230850,3946.9720,N,08404.9848,W,2,12,0.60,299.25,M,-33.325,M,,*77
2017-12-01 18:08:49 1512169729.382736: $GPRMC,230850,A,3946.9720,N,08404.9848,W,0.0000,0.000,011217,,*36
2017-12-01 18:08:49 1512169729.382799: $GPGSA,A,3,3,14,16,22,23,25,26,31,32,1,29,138,2.0,0.6,1.5*02
2017-12-01 18:08:50 1512169730.408458: $GPZDA,230851.00,01,12,2017,00,00*6D
2017-12-01 18:08:50 1512169730.408643: $GPGGA,230851,3946.9720,N,08404.9848,W,2,12,0.60,299.25,M,-33.325,M,,*76
2017-12-01 18:08:50 1512169730.408730: $GPRMC,230851,A,3946.9720,N,08404.9848,W,0.0000,0.000,011217,,*37
2017-12-01 18:08:50 1512169730.408793: $GPGSA,A,3,3,14,16,22,23,25,26,31,32,1,29,138,2.0,0.6,1.5*02
2017-12-01 18:08:51 1512169731.751747: $GPGSV,3,1,12,03,36,306,47,14,60,081,43,16,16,189,42,22,49,282,47*75
2017-12-01 18:08:51 1512169731.751976: $GPGSV,3,2,12,23,06,297,42,25,23,043,43,26,46,174,46,31,72,012,47*71
2017-12-01 18:08:51 1512169731.752047: $GPGSV,3,3,12,32,41,102,43,01,10,258,26,29,08,078,28,138,38,213,46*44
2017-12-01 18:08:51 1512169731.865338: $GPZDA,230852.00,01,12,2017,00,00*6E
2017-12-01 18:08:51 1512169731.865512: $GPGGA,230852,3946.9720,N,08404.9848,W,2,12,0.60,299.25,M,-33.325,M,,*75
2017-12-01 18:08:51 1512169731.865580: $GPRMC,230852,A,3946.9720,N,08404.9848,W,0.0000,0.000,011217,,*34
2017-12-01 18:08:51 1512169731.865641: $GPGSA,A,3,3,14,16,22,23,25,26,31,32,1,29,138,2.0,0.6,1.5*02
2017-12-01 18:08:52 1512169732.416208: $GPZDA,230853.00,01,12,2017,00,00*6F
2017-12-01 18:08:52 1512169732.416383: $GPGGA,230853,3946.9720,N,08404.9848,W,2,12,0.60,299.25,M,-33.325,M,,*74
2017-12-01 18:08:52 1512169732.416452: $GPRMC,230853,A,3946.9720,N,08404.9848,W,0.0000,0.000,011217,,*35
2017-12-01 18:08:52 1512169732.416530: $GPGSA,A,3,3,14,16,22,23,25,26,31,32,1,29,138,2.0,0.6,1.5*02
2017-12-01 18:08:53 1512169733.415888: $GPZDA,230854.00,01,12,2017,00,00*68
2017-12-01 18:08:53 1512169733.416060: $GPGGA,230854,3946.9720,N,08404.9848,W,2,12,0.60,299.25,M,-33.325,M,,*73
2017-12-01 18:08:53 1512169733.416127: $GPRMC,230854,A,3946.9720,N,08404.9848,W,0.0000,0.000,011217,,*32
2017-12-01 18:08:53 1512169733.416188: $GPGSA,A,3,3,14,16,22,23,25,26,31,32,1,29,138,2.0,0.6,1.5*02
2017-12-01 18:08:54 1512169734.722623: $GPGSV,3,1,12,03,36,306,48,14,60,081,44,16,16,189,42,22,49,282,47*7D
2017-12-01 18:08:54 1512169734.722829: $GPGSV,3,2,12,23,06,297,41,25,23,043,43,26,46,174,46,31,72,012,47*72
2017-12-01 18:08:54 1512169734.722899: $GPGSV,3,3,12,32,41,102,42,01,10,258,26,29,08,078,28,138,38,213,46*45
2017-12-01 18:08:54 1512169734.836194: $GPZDA,230855.00,01,12,2017,00,00*69
2017-12-01 18:08:54 1512169734.836331: $GPGGA,230855,3946.9720,N,08404.9848,W,2,12,0.60,299.25,M,-33.325,M,,*72
2017-12-01 18:08:54 1512169734.836399: $GPRMC,230855,A,3946.9720,N,08404.9848,W,0.0000,0.000,011217,,*33
2017-12-01 18:08:54 1512169734.836460: $GPGSA,A,3,3,14,16,22,23,25,26,31,32,1,29,138,2.0,0.6,1.5*02
2017-12-01 18:08:55 1512169735.461866: $GPZDA,230856.00,01,12,2017,00,00*6A
2017-12-01 18:08:55 1512169735.462032: $GPGGA,230856,3946.9720,N,08404.9848,W,2,12,0.60,299.25,M,-33.325,M,,*71
2017-12-01 18:08:55 1512169735.462100: $GPRMC,230856,A,3946.9720,N,08404.9848,W,0.0000,0.000,011217,,*30
2017-12-01 18:08:55 1512169735.462161: $GPGSA,A,3,3,14,16,22,23,25,26,31,32,1,29,138,2.0,0.6,1.5*02
2017-12-01 18:08:56 1512169736.416189: $GPZDA,230857.00,01,12,2017,00,00*6B
2017-12-01 18:08:56 1512169736.416427: $GPGGA,230857,3946.9720,N,08404.9848,W,2,12,0.60,299.25,M,-33.325,M,,*70
2017-12-01 18:08:56 1512169736.416500: $GPRMC,230857,A,3946.9720,N,08404.9848,W,0.0000,0.000,011217,,*31
2017-12-01 18:08:56 1512169736.416563: $GPGSA,A,3,3,14,16,22,23,25,26,31,32,1,29,138,2.0,0.6,1.5*02
2017-12-01 18:08:57 1512169737.751734: $GPGSV,3,1,12,03,36,306,47,14,60,081,44,16,16,189,42,22,49,282,47*72
2017-12-01 18:08:57 1512169737.751918: $GPGSV,3,2,12,23,06,297,41,25,23,043,43,26,46,174,46,31,72,012,48*7D
2017-12-01 18:08:57 1512169737.751988: $GPGSV,3,3,12,32,41,102,42,01,10,258,26,29,08,078,28,138,38,213,46*45
2017-12-01 18:08:57 1512169737.864090: $GPZDA,230858.00,01,12,2017,00,00*64
2017-12-01 18:08:57 1512169737.864260: $GPGGA,230858,3946.9720,N,08404.9848,W,2,12,0.60,299.25,M,-33.325,M,,*7F
2017-12-01 18:08:57 1512169737.864327: $GPRMC,230858,A,3946.9720,N,08404.9848,W,0.0000,0.000,011217,,*3E
2017-12-01 18:08:57 1512169737.864388: $GPGSA,A,3,3,14,16,22,23,25,26,31,32,1,29,138,2.0,0.6,1.5*02
2017-12-01 18:08:58 1512169738.387198: $GPZDA,230859.00,01,12,2017,00,00*65
2017-12-01 18:08:58 1512169738.387370: $GPGGA,230859,3946.9720,N,08404.9848,W,2,12,0.60,299.25,M,-33.325,M,,*7E
2017-12-01 18:08:58 1512169738.387437: $GPRMC,230859,A,3946.9720,N,08404.9848,W,0.0000,0.000,011217,,*3F
2017-12-01 18:08:58 1512169738.387497: $GPGSA,A,3,3,14,16,22,23,25,26,31,32,1,29,138,2.0,0.6,1.5*02
2017-12-01 18:08:59 1512169739.416786: $GPZDA,230900.00,01,12,2017,00,00*68
2017-12-01 18:08:59 1512169739.416956: $GPGGA,230900,3946.9720,N,08404.9848,W,2,12,0.60,299.25,M,-33.325,M,,*73
2017-12-01 18:08:59 1512169739.417023: $GPRMC,230900,A,3946.9720,N,08404.9848,W,0.0000,0.000,011217,,*32
2017-12-01 18:08:59 1512169739.417084: $GPGSA,A,3,3,14,16,22,23,25,26,31,32,1,29,138,2.0,0.6,1.5*02
2017-12-01 18:09:00 1512169740.728215: $GPGSV,3,1,12,03,36,306,47,14,60,081,43,16,16,189,42,22,49,282,47*75
2017-12-01 18:09:00 1512169740.728404: $GPGSV,3,2,12,23,06,297,42,25,23,043,43,26,46,174,46,31,72,012,47*71
2017-12-01 18:09:00 1512169740.728471: $GPGSV,3,3,12,32,41,102,43,01,10,258,26,29,08,078,28,138,38,213,46*44
2017-12-01 18:09:00 1512169740.841962: $GPZDA,230901.00,01,12,2017,00,00*69
2017-12-01 18:09:00 1512169740.842117: $GPGGA,230901,3946.9720,N,08404.9848,W,2,12,0.60,299.25,M,-33.325,M,,*72
2017-12-01 18:09:00 1512169740.842182: $GPRMC,230901,A,3946.9720,N,08404.9848,W,0.0000,0.000,011217,,*33
2017-12-01 18:09:00 1512169740.842244: $GPGSA,A,3,3,14,16,22,23,25,26,31,32,1,29,138,2.0,0.6,1.5*02
2017-12-01 18:09:01 1512169741.417504: $GPZDA,230902.00,01,12,2017,00,00*6A
2017-12-01 18:09:01 1512169741.417672: $GPGGA,230902,3946.9720,N,08404.9848,W,2,12,0.60,299.25,M,-33.325,M,,*71
2017-12-01 18:09:01 1512169741.417740: $GPRMC,230902,A,3946.9720,N,08404.9848,W,0.0000,0.000,011217,,*30
2017-12-01 18:09:01 1512169741.417802: $GPGSA,A,3,3,14,16,22,23,25,26,31,32,1,29,138,2.0,0.6,1.5*02
2017-12-01 18:09:02 1512169742.409614: $GPZDA,230903.00,01,12,2017,00,00*6B
2017-12-01 18:09:02 1512169742.409787: $GPGGA,230903,3946.9720,N,08404.9848,W,2,12,0.60,299.25,M,-33.325,M,,*70
2017-12-01 18:09:02 1512169742.409855: $GPRMC,230903,A,3946.9720,N,08404.9848,W,0.0000,0.000,011217,,*31
2017-12-01 18:09:02 1512169742.409917: $GPGSA,A,3,3,14,16,22,23,25,26,31,32,1,29,138,2.0,0.6,1.5*02
2017-12-01 18:09:03 1512169743.752895: $GPGSV,3,1,12,03,36,306,47,14,60,081,44,16,16,189,43,22,49,282,47*73
2017-12-01 18:09:03 1512169743.753074: $GPGSV,3,2,12,23,06,297,42,25,23,043,42,26,46,174,47,31,72,012,48*7E
2017-12-01 18:09:03 1512169743.753140: $GPGSV,3,3,12,32,41,102,42,01,10,258,32,29,08,078,28,138,38,213,46*40
2017-12-01 18:09:03 1512169743.866553: $GPZDA,230904.00,01,12,2017,00,00*6C
2017-12-01 18:09:03 1512169743.866721: $GPGGA,230904,3946.9720,N,08404.9848,W,2,12,0.60,299.25,M,-33.325,M,,*77
2017-12-01 18:09:03 1512169743.866789: $GPRMC,230904,A,3946.9720,N,08404.9848,W,0.0000,0.000,011217,,*36
2017-12-01 18:09:03 1512169743.866850: $GPGSA,A,3,3,14,16,22,23,25,26,31,32,1,29,138,2.0,0.6,1.5*02
