2017-11-15 19:44:07 1510793047.867160: {"class":"VERSION","release":"3.17","rev":"3.17","proto_major":3,"proto_minor":12}
2017-11-15 19:44:07 1510793047.867955: {"class":"DEVICES","devices":[{"class":"DEVICE","path":"/dev/ttyUSB0","driver":"SiRF","subtype":"9\u0006GSD4e_4.1.2-P1_RPATCH.05-F-GPS-4R-1510281 11/03/2015 307","activated":"2017-11-16T00:44:07.487Z","flags":1,"native":1,"bps":4800,"parity":"N","stopbits":1,"cycle":1.00}]}
2017-11-15 19:44:07 1510793047.868176: {"class":"WATCH","enable":true,"json":false,"nmea":true,"raw":0,"scaled":false,"timing":false,"split24":false,"pps":false}
2017-11-15 19:44:08 1510793048.330564: $GPZDA,004407.00,16,11,2017,00,00*62
2017-11-15 19:44:08 1510793048.330726: $GPGGA,004407,3946.9632,N,08404.9519,W,1,08,1.00,339.13,M,-33.324,M,,*77
2017-11-15 19:44:08 1510793048.330787: $GPRMC,004407,A,3946.9632,N,08404.9519,W,0.8414,39.347,161117,,*00
2017-11-15 19:44:08 1510793048.330842: $GPGSA,A,3,32,16,22,26,14,31,23,3,,,,,3.4,1.0,2.9*08
2017-11-15 19:44:09 1510793049.665963: $GPGSV,3,1,11,32,31,112,13,16,28,190,23,22,50,261,22,26,59,169,22*7A
2017-11-15 19:44:09 1510793049.666151: $GPGSV,3,2,11,14,51,100,23,31,63,033,14,29,12,066,04,23,15,303,16*75
2017-11-15 19:44:09 1510793049.666228: $GPGSV,3,3,11,03,42,292,16,25,12,039,00,01,02,249,00*40
2017-11-15 19:44:09 1510793049.778457: $GPZDA,004408.00,16,11,2017,00,00*6D
2017-11-15 19:44:09 1510793049.778617: $GPGGA,004408,3946.9632,N,08404.9519,W,1,08,1.20,339.13,M,-33.324,M,,*7A
2017-11-15 19:44:09 1510793049.778678: $GPRMC,004408,A,3946.9632,N,08404.9519,W,0.5774,27.515,161117,,*09
2017-11-15 19:44:09 1510793049.778733: $GPGSA,A,3,32,16,22,26,14,31,23,3,,,,,3.4,1.2,2.9*0A
2017-11-15 19:44:10 1510793050.346420: $GPZDA,004409.00,16,11,2017,00,00*6C
2017-11-15 19:44:10 1510793050.346602: $GPGGA,004409,3946.9632,N,08404.9519,W,1,08,1.20,339.13,M,-33.324,M,,*7B
2017-11-15 19:44:10 1510793050.346663: $GPRMC,004409,A,3946.9632,N,08404.9519,W,0.6846,4.197,161117,,*3A
2017-11-15 19:44:10 1510793050.346780: $GPGSA,A,3,32,16,22,26,14,31,23,3,,,,,3.4,1.2,2.9*0A
2017-11-15 19:44:11 1510793051.345482: $GPZDA,004410.00,16,11,2017,00,00*64
2017-11-15 19:44:11 1510793051.345650: $GPGGA,004410,3946.9632,N,08404.9519,W,1,08,1.20,339.13,M,-33.324,M,,*73
2017-11-15 19:44:11 1510793051.345712: $GPRMC,004410,A,3946.9632,N,08404.9519,W,0.2422,93.794,161117,,*03
2017-11-15 19:44:11 1510793051.345767: $GPGSA,A,3,32,16,22,26,14,31,23,3,,,,,3.4,1.2,2.9*0A
2017-11-15 19:44:12 1510793052.664998: $GPGSV,3,1,11,32,31,112,13,16,28,190,23,22,50,261,22,26,59,169,22*7A
2017-11-15 19:44:12 1510793052.781078: $GPGSV,3,2,11,14,51,100,24,31,63,033,14,29,12,066,04,23,15,303,16*72
2017-11-15 19:44:12 1510793052.781233: $GPGSV,3,3,11,03,42,292,16,25,12,039,00,01,02,249,00*40
2017-11-15 19:44:12 1510793052.781320: $GPZDA,004411.00,16,11,2017,00,00*65
2017-11-15 19:44:12 1510793052.781373: $GPGGA,004411,3946.9636,N,08404.9519,W,1,08,1.20,339.77,M,-33.324,M,,*74
2017-11-15 19:44:12 1510793052.781429: $GPRMC,004411,A,3946.9636,N,08404.9519,W,0.4844,93.794,161117,,*0C
2017-11-15 19:44:12 1510793052.781483: $GPGSA,A,3,32,16,22,26,14,31,23,3,,,,,3.4,1.2,2.9*0A
2017-11-15 19:44:13 1510793053.331255: $GPZDA,004412.00,16,11,2017,00,00*66
2017-11-15 19:44:13 1510793053.331430: $GPGGA,004412,3946.9636,N,08404.9519,W,1,08,1.20,339.77,M,-33.324,M,,*77
2017-11-15 19:44:13 1510793053.331492: $GPRMC,004412,A,3946.9636,N,08404.9519,W,0.8011,119.090,161117,,*3B
2017-11-15 19:44:13 1510793053.331558: $GPGSA,A,3,32,16,22,26,14,31,23,3,,,,,3.4,1.2,2.9*0A
2017-11-15 19:44:14 1510793054.346382: $GPZDA,004413.00,16,11,2017,00,00*67
2017-11-15 19:44:14 1510793054.346547: $GPGGA,004413,3946.9632,N,08404.9512,W,1,08,1.20,339.21,M,-33.324,M,,*7A
2017-11-15 19:44:14 1510793054.346608: $GPRMC,004413,A,3946.9632,N,08404.9512,W,0.7238,140.710,161117,,*30
2017-11-15 19:44:14 1510793054.346664: $GPGSA,A,3,32,16,22,26,14,31,23,3,,,,,3.4,1.2,2.9*0A
2017-11-15 19:44:15 1510793055.665860: $GPGSV,3,1,11,32,31,112,13,16,28,190,23,22,50,261,21,26,59,169,22*79
2017-11-15 19:44:15 1510793055.666055: $GPGSV,3,2,11,14,51,100,24,31,63,033,13,29,12,066,04,23,15,303,15*76
2017-11-15 19:44:15 1510793055.666186: $GPGSV,3,3,11,03,42,292,16,25,12,039,00,01,02,249,00*40
2017-11-15 19:44:15 1510793055.779656: $GPZDA,004414.00,16,11,2017,00,00*60
2017-11-15 19:44:15 1510793055.779814: $GPGGA,004414,3946.9632,N,08404.9512,W,1,08,1.20,339.21,M,-33.324,M,,*7D
2017-11-15 19:44:15 1510793055.779874: $GPRMC,004414,A,3946.9632,N,08404.9512,W,0.8011,119.090,161117,,*32
2017-11-15 19:44:15 1510793055.779929: $GPGSA,A,3,32,16,22,26,14,31,23,3,,,,,3.4,1.2,2.9*0A
2017-11-15 19:44:16 1510793056.405033: $GPZDA,004415.00,16,11,2017,00,00*61
2017-11-15 19:44:16 1510793056.405211: $GPGGA,004415,3946.9632,N,08404.9512,W,1,08,1.20,339.21,M,-33.324,M,,*7C
2017-11-15 19:44:16 1510793056.405273: $GPRMC,004415,A,3946.9632,N,08404.9512,W,0.7621,107.945,161117,,*37
2017-11-15 19:44:16 1510793056.405329: $GPGSA,A,3,32,16,22,26,14,31,23,3,,,,,3.4,1.2,2.9*0A
2017-11-15 19:44:17 1510793057.347136: $GPZDA,004416.00,16,11,2017,00,00*62
2017-11-15 19:44:17 1510793057.347333: $GPGGA,004416,3946.9632,N,08404.9512,W,1,08,1.20,339.21,M,-33.324,M,,*7F
2017-11-15 19:44:17 1510793057.347395: $GPRMC,004416,A,3946.9632,N,08404.9512,W,0.4844,93.794,161117,,*04
2017-11-15 19:44:17 1510793057.347451: $GPGSA,A,3,32,16,22,26,14,31,23,3,,,,,3.4,1.2,2.9*0A
