2017-12-01 14:27:57 1512156477.295545: {"class":"VERSION","release":"3.16","rev":"3.16-4","proto_major":3,"proto_minor":11}
2017-12-01 14:27:57 1512156477.295917: {"class":"DEVICES","devices":[{"class":"DEVICE","path":"/dev/ttyUSB0","driver":"SiRF","subtype":"9\u0006GSD4e_4.1.2-P1_RPATCH.05-F-GPS-4R-1510281 11/03/2015 307","activated":"2017-12-01T19:27:57.047Z","flags":1,"native":1,"bps":4800,"parity":"N","stopbits":1,"cycle":1.00}]}
2017-12-01 14:27:57 1512156477.296034: {"class":"WATCH","enable":true,"json":false,"nmea":true,"raw":0,"scaled":false,"timing":false,"split24":false,"pps":false}
2017-12-01 14:27:58 1512156478.066251: $GPZDA,192758.75,01,12,2017,00,00*62
2017-12-01 14:27:58 1512156478.066439: $GPGGA,192758,3946.9543,N,08404.9833,W,1,11,1.40,307.49,M,-33.324,M,,*7E
2017-12-01 14:27:58 1512156478.066523: $GPRMC,192758,A,3946.9543,N,08404.9833,W,0.6267,9.200,011217,,*3F
2017-12-01 14:27:58 1512156478.066585: $GPGSA,A,3,8,10,14,18,21,24,32,12,15,27,138,,2.0,1.4,1.5*38
2017-12-01 14:27:58 1512156478.066643: $GPGBS,192758,10.70,M,15.43,M,35.28,M*07
2017-12-01 14:27:59 1512156479.194595: $GPZDA,192759.44,01,12,2017,00,00*61
2017-12-01 14:27:59 1512156479.194765: $GPGGA,192759,3946.9546,N,08404.9832,W,1,11,1.40,306.72,M,-33.324,M,,*72
2017-12-01 14:27:59 1512156479.194831: $GPRMC,192759,A,3946.9546,N,08404.9832,W,0.3133,9.200,011217,,*3D
2017-12-01 14:27:59 1512156479.194892: $GPGSA,A,3,8,10,14,18,21,24,32,12,15,27,138,,2.0,1.4,1.5*38
2017-12-01 14:28:00 1512156480.381806: $GPGSV,3,1,12,10,71,334,47,14,30,255,39,18,69,099,45,21,26,178,45*79
2017-12-01 14:28:00 1512156480.381986: $GPGSV,3,2,12,24,43,057,48,32,48,268,45,08,05,292,04,12,10,105,04*76
2017-12-01 14:28:00 1512156480.382052: $GPGSV,3,3,12,15,10,067,04,27,05,258,05,20,07,120,00,138,38,213,00*47
2017-12-01 14:28:00 1512156480.495392: $GPZDA,192800.00,01,12,2017,00,00*62
2017-12-01 14:28:00 1512156480.495587: $GPGGA,192800,3946.9546,N,08404.9832,W,1,06,1.40,306.72,M,-33.324,M,,*77
2017-12-01 14:28:00 1512156480.495661: $GPRMC,192800,A,3946.9546,N,08404.9832,W,0.3133,9.200,011217,,*3E
2017-12-01 14:28:00 1512156480.495727: $GPGSA,A,3,10,14,18,21,24,32,,,,,,,2.0,1.4,1.5*38
2017-12-01 14:28:00 1512156480.947961: $GPZDA,192801.00,01,12,2017,00,00*63
2017-12-01 14:28:00 1512156480.951664: $GPGGA,192801,3946.9550,N,08404.9831,W,1,06,0.80,305.96,M,-33.324,M,,*76
2017-12-01 14:28:00 1512156480.951855: $GPRMC,192801,A,3946.9550,N,08404.9831,W,0.1324,22.230,011217,,*07
2017-12-01 14:28:00 1512156480.951922: $GPGSA,A,3,10,14,18,21,24,32,,,,,,,2.0,0.8,1.5*35
2017-12-01 14:28:01 1512156481.398687: $GPZDA,192802.00,01,12,2017,00,00*60
2017-12-01 14:28:01 1512156481.398862: $GPGGA,192802,3946.9553,N,08404.9830,W,1,06,0.80,305.19,M,-33.324,M,,*70
2017-12-01 14:28:01 1512156481.398930: $GPRMC,192802,A,3946.9553,N,08404.9830,W,0.0000,0.000,011217,,*33
2017-12-01 14:28:01 1512156481.398991: $GPGSA,A,3,10,14,18,21,24,32,,,,,,,2.0,0.8,1.5*35
2017-12-01 14:28:02 1512156482.696066: $GPGSV,3,1,12,10,71,334,48,14,30,255,38,18,69,099,45,21,26,178,45*77
2017-12-01 14:28:02 1512156482.696271: $GPGSV,3,2,12,24,43,057,48,32,48,268,46,08,05,292,18,12,10,105,33*7C
2017-12-01 14:28:02 1512156482.696342: $GPGSV,3,3,12,15,10,067,22,27,05,258,26,20,07,120,14,138,38,213,47*44
2017-12-01 14:28:02 1512156482.809591: $GPZDA,192803.00,01,12,2017,00,00*61
2017-12-01 14:28:02 1512156482.809761: $GPGGA,192803,3946.9556,N,08404.9830,W,1,12,0.80,304.43,M,-33.324,M,,*7F
2017-12-01 14:28:02 1512156482.809827: $GPRMC,192803,A,3946.9556,N,08404.9830,W,0.0000,0.000,011217,,*37
2017-12-01 14:28:02 1512156482.809887: $GPGSA,A,3,10,14,18,21,24,32,8,12,15,27,20,138,2.0,0.8,1.5*37
2017-12-01 14:28:03 1512156483.358223: $GPZDA,192804.00,01,12,2017,00,00*66
2017-12-01 14:28:03 1512156483.358415: $GPGGA,192804,3946.9560,N,08404.9829,W,1,12,0.80,303.67,M,-33.324,M,,*74
2017-12-01 14:28:03 1512156483.358502: $GPRMC,192804,A,3946.9560,N,08404.9829,W,0.0000,0.000,011217,,*3D
2017-12-01 14:28:03 1512156483.358564: $GPGSA,A,3,10,14,18,21,24,32,8,12,15,27,20,138,2.0,0.8,1.5*37
2017-12-01 14:28:04 1512156484.358724: $GPZDA,192805.00,01,12,2017,00,00*67
2017-12-01 14:28:04 1512156484.358945: $GPGGA,192805,3946.9560,N,08404.9829,W,1,12,0.80,303.67,M,-33.324,M,,*75
2017-12-01 14:28:04 1512156484.359012: $GPRMC,192805,A,3946.9560,N,08404.9829,W,0.0000,0.000,011217,,*3C
2017-12-01 14:28:04 1512156484.359073: $GPGSA,A,3,10,14,18,21,24,32,8,12,15,27,20,138,2.0,0.8,1.5*37
2017-12-01 14:28:04 1512156484.359132: $GPGBS,192805,10.70,M,15.43,M,35.28,M*00
2017-12-01 14:28:05 1512156485.693070: $GPGSV,3,1,12,10,71,334,48,14,30,255,39,18,69,099,44,21,26,178,44*76
2017-12-01 14:28:05 1512156485.693221: $GPGSV,3,2,12,24,43,057,47,32,48,268,46,08,05,292,19,12,10,105,33*72
2017-12-01 14:28:05 1512156485.693285: $GPGSV,3,3,12,15,10,067,22,27,05,258,25,20,07,120,12,138,38,213,48*4E
2017-12-01 14:28:05 1512156485.806489: $GPZDA,192806.00,01,12,2017,00,00*64
2017-12-01 14:28:05 1512156485.806661: $GPGGA,192806,3946.9563,N,08404.9828,W,1,12,0.80,302.90,M,-33.324,M,,*7D
2017-12-01 14:28:05 1512156485.806727: $GPRMC,192806,A,3946.9563,N,08404.9828,W,0.3423,184.197,011217,,*39
2017-12-01 14:28:05 1512156485.806788: $GPGSA,A,3,10,14,18,21,24,32,8,12,15,27,20,138,2.0,0.8,1.5*37
2017-12-01 14:28:06 1512156486.357841: $GPZDA,192807.00,01,12,2017,00,00*65
2017-12-01 14:28:06 1512156486.358011: $GPGGA,192807,3946.9559,N,08404.9828,W,1,12,0.80,302.26,M,-33.324,M,,*78
2017-12-01 14:28:06 1512156486.358078: $GPRMC,192807,A,3946.9559,N,08404.9828,W,0.0000,0.000,011217,,*35
2017-12-01 14:28:06 1512156486.358138: $GPGSA,A,3,10,14,18,21,24,32,8,12,15,27,20,138,2.0,0.8,1.5*37
2017-12-01 14:28:07 1512156487.361947: $GPZDA,192808.00,01,12,2017,00,00*6A
2017-12-01 14:28:07 1512156487.362115: $GPGGA,192808,3946.9563,N,08404.9827,W,1,12,0.80,301.50,M,-33.324,M,,*73
2017-12-01 14:28:07 1512156487.362182: $GPRMC,192808,A,3946.9563,N,08404.9827,W,0.0000,0.000,011217,,*3C
2017-12-01 14:28:07 1512156487.362243: $GPGSA,A,3,10,14,18,21,24,32,8,12,15,27,20,138,2.0,0.8,1.5*37
2017-12-01 14:28:08 1512156488.697264: $GPGSV,3,1,12,10,71,334,48,14,30,255,39,18,69,099,44,21,26,178,44*76
2017-12-01 14:28:08 1512156488.697482: $GPGSV,3,2,12,24,43,057,48,32,48,268,46,08,05,292,22,12,10,105,34*72
2017-12-01 14:28:08 1512156488.697551: $GPGSV,3,3,12,15,10,067,22,27,05,258,25,20,07,120,15,138,38,213,46*47
2017-12-01 14:28:08 1512156488.810650: $GPZDA,192809.00,01,12,2017,00,00*6B
2017-12-01 14:28:08 1512156488.810824: $GPGGA,192809,3946.9563,N,08404.9827,W,1,12,0.80,301.50,M,-33.324,M,,*72
2017-12-01 14:28:08 1512156488.810891: $GPRMC,192809,A,3946.9563,N,08404.9827,W,0.0000,0.000,011217,,*3D
2017-12-01 14:28:08 1512156488.810951: $GPGSA,A,3,10,14,18,21,24,32,8,12,15,27,20,138,2.0,0.8,1.5*37
2017-12-01 14:28:09 1512156489.360208: $GPZDA,192810.00,01,12,2017,00,00*63
2017-12-01 14:28:09 1512156489.360393: $GPGGA,192810,3946.9566,N,08404.9827,W,1,12,0.80,300.73,M,-33.324,M,,*7F
2017-12-01 14:28:09 1512156489.360487: $GPRMC,192810,A,3946.9566,N,08404.9827,W,0.0000,0.000,011217,,*30
2017-12-01 14:28:09 1512156489.360550: $GPGSA,A,3,10,14,18,21,24,32,8,12,15,27,20,138,2.0,0.8,1.5*37
2017-12-01 14:28:10 1512156490.363651: $GPZDA,192811.00,01,12,2017,00,00*62
2017-12-01 14:28:10 1512156490.363825: $GPGGA,192811,3946.9579,N,08404.9816,W,2,12,2.00,296.35,M,-33.324,M,,*77
2017-12-01 14:28:10 1512156490.363892: $GPRMC,192811,A,3946.9579,N,08404.9816,W,0.0000,0.000,011217,,*3D
2017-12-01 14:28:10 1512156490.363952: $GPGSA,A,3,10,14,18,21,24,32,8,12,15,27,20,138,2.0,2.0,1.5*3D
2017-12-01 14:28:11 1512156491.708049: $GPGSV,3,1,12,10,71,334,48,14,30,255,39,18,69,099,45,21,26,178,44*77
2017-12-01 14:28:11 1512156491.708227: $GPGSV,3,2,12,24,43,057,48,32,48,268,46,08,05,292,21,12,10,105,34*71
2017-12-01 14:28:11 1512156491.708293: $GPGSV,3,3,12,15,10,067,22,27,05,258,14,20,07,120,16,138,38,213,47*47
2017-12-01 14:28:11 1512156491.821554: $GPZDA,192812.00,01,12,2017,00,00*61
2017-12-01 14:28:11 1512156491.821723: $GPGGA,192812,3946.9579,N,08404.9816,W,2,11,0.80,296.35,M,-33.324,M,,*7D
2017-12-01 14:28:11 1512156491.821790: $GPRMC,192812,A,3946.9579,N,08404.9816,W,0.0000,0.000,011217,,*3E
2017-12-01 14:28:11 1512156491.821901: $GPGSA,A,3,10,14,18,21,24,32,8,12,15,20,138,,2.0,0.8,1.5*32
2017-12-01 14:28:12 1512156492.446842: $GPZDA,192813.00,01,12,2017,00,00*60
2017-12-01 14:28:12 1512156492.447011: $GPGGA,192813,3946.9579,N,08404.9816,W,2,11,0.80,296.35,M,-33.324,M,,*7C
2017-12-01 14:28:12 1512156492.447077: $GPRMC,192813,A,3946.9579,N,08404.9816,W,0.0000,0.000,011217,,*3F
2017-12-01 14:28:12 1512156492.447138: $GPGSA,A,3,10,14,18,21,24,32,8,12,15,20,138,,2.0,0.8,1.5*32
2017-12-01 14:28:13 1512156493.363939: $GPZDA,192814.00,01,12,2017,00,00*67
2017-12-01 14:28:13 1512156493.364108: $GPGGA,192814,3946.9579,N,08404.9816,W,2,11,0.80,296.35,M,-33.324,M,,*7B
2017-12-01 14:28:13 1512156493.364174: $GPRMC,192814,A,3946.9579,N,08404.9816,W,0.0000,0.000,011217,,*38
2017-12-01 14:28:13 1512156493.364236: $GPGSA,A,3,10,14,18,21,24,32,8,12,15,20,138,,2.0,0.8,1.5*32
2017-12-01 14:28:14 1512156494.695922: $GPGSV,3,1,12,10,71,334,48,14,30,255,39,18,69,099,45,21,26,178,44*77
2017-12-01 14:28:14 1512156494.696099: $GPGSV,3,2,12,24,43,057,49,32,48,268,46,08,05,292,22,12,10,105,34*73
2017-12-01 14:28:14 1512156494.696167: $GPGSV,3,3,12,15,10,067,23,27,05,258,05,20,07,120,17,138,38,213,48*48
2017-12-01 14:28:14 1512156494.808060: $GPZDA,192815.00,01,12,2017,00,00*66
2017-12-01 14:28:14 1512156494.808229: $GPGGA,192815,3946.9579,N,08404.9816,W,2,12,0.80,296.35,M,-33.324,M,,*79
2017-12-01 14:28:14 1512156494.808295: $GPRMC,192815,A,3946.9579,N,08404.9816,W,0.0000,0.000,011217,,*39
2017-12-01 14:28:14 1512156494.808380: $GPGSA,A,3,10,14,18,21,24,32,8,12,15,27,20,138,2.0,0.8,1.5*37
2017-12-01 14:28:15 1512156495.362741: $GPZDA,192816.00,01,12,2017,00,00*65
2017-12-01 14:28:15 1512156495.362909: $GPGGA,192816,3946.9575,N,08404.9817,W,2,12,0.80,297.11,M,-33.324,M,,*70
2017-12-01 14:28:15 1512156495.362975: $GPRMC,192816,A,3946.9575,N,08404.9817,W,0.0000,0.000,011217,,*37
2017-12-01 14:28:15 1512156495.363035: $GPGSA,A,3,10,14,18,21,24,32,8,12,15,27,20,138,2.0,0.8,1.5*37
2017-12-01 14:28:16 1512156496.362798: $GPZDA,192817.00,01,12,2017,00,00*64
2017-12-01 14:28:16 1512156496.362990: $GPGGA,192817,3946.9575,N,08404.9817,W,2,12,1.00,297.11,M,-33.324,M,,*78
2017-12-01 14:28:16 1512156496.363093: $GPRMC,192817,A,3946.9575,N,08404.9817,W,0.0000,0.000,011217,,*36
2017-12-01 14:28:16 1512156496.363192: $GPGSA,A,3,10,14,18,21,24,32,8,12,15,27,20,138,2.0,1.0,1.5*3E
2017-12-01 14:28:16 1512156496.363288: $GPGBS,192817,2.67,M,3.86,M,8.82,M*36
2017-12-01 14:28:17 1512156497.698681: $GPGSV,3,1,12,10,71,334,48,14,30,255,40,18,69,099,45,21,26,178,45*78
2017-12-01 14:28:17 1512156497.698861: $GPGSV,3,2,12,24,43,057,49,32,48,268,46,25,04,141,20,12,10,105,34*72
2017-12-01 14:28:17 1512156497.698928: $GPGSV,3,3,12,15,10,067,22,27,05,258,17,20,07,120,16,138,38,213,47*44
2017-12-01 14:28:17 1512156497.812079: $GPZDA,192818.00,01,12,2017,00,00*6B
2017-12-01 14:28:17 1512156497.812250: $GPGGA,192818,3946.9575,N,08404.9817,W,2,12,1.00,297.11,M,-33.324,M,,*77
2017-12-01 14:28:17 1512156497.812319: $GPRMC,192818,A,3946.9575,N,08404.9817,W,0.0000,0.000,011217,,*39
2017-12-01 14:28:17 1512156497.812382: $GPGSA,A,3,10,14,18,21,24,32,25,12,15,27,20,138,2.0,1.0,1.5*01
2017-12-01 14:28:18 1512156498.362877: $GPZDA,192819.00,01,12,2017,00,00*6A
2017-12-01 14:28:18 1512156498.363063: $GPGGA,192819,3946.9575,N,08404.9817,W,2,12,0.80,297.11,M,-33.324,M,,*7F
2017-12-01 14:28:18 1512156498.363130: $GPRMC,192819,A,3946.9575,N,08404.9817,W,0.0000,0.000,011217,,*38
2017-12-01 14:28:18 1512156498.363192: $GPGSA,A,3,10,14,18,21,24,32,25,12,15,27,20,138,2.0,0.8,1.5*08
2017-12-01 14:28:19 1512156499.368000: $GPZDA,192820.00,01,12,2017,00,00*60
2017-12-01 14:28:19 1512156499.368173: $GPGGA,192820,3946.9571,N,08404.9811,W,2,12,0.80,297.96,M,-33.324,M,,*78
2017-12-01 14:28:19 1512156499.368241: $GPRMC,192820,A,3946.9571,N,08404.9811,W,0.2422,93.794,011217,,*06
2017-12-01 14:28:19 1512156499.368302: $GPGSA,A,3,10,14,18,21,24,32,25,12,15,27,20,138,2.0,0.8,1.5*08
2017-12-01 14:28:20 1512156500.695779: $GPGSV,3,1,12,10,71,334,48,14,30,255,40,18,69,099,45,21,26,178,45*78
2017-12-01 14:28:20 1512156500.696013: $GPGSV,3,2,12,24,43,057,50,32,48,268,46,08,05,292,24,12,10,105,34*7D
2017-12-01 14:28:20 1512156500.696084: $GPGSV,3,3,12,15,10,067,22,27,05,258,22,20,07,120,16,138,38,213,46*43
2017-12-01 14:28:20 1512156500.809078: $GPZDA,192821.00,01,12,2017,00,00*61
2017-12-01 14:28:20 1512156500.809207: $GPGGA,192821,3946.9571,N,08404.9811,W,2,12,0.80,297.96,M,-33.324,M,,*79
2017-12-01 14:28:20 1512156500.809272: $GPRMC,192821,A,3946.9571,N,08404.9811,W,0.0000,0.000,011217,,*31
2017-12-01 14:28:20 1512156500.809334: $GPGSA,A,3,10,14,18,21,24,32,8,12,15,27,20,138,2.0,0.8,1.5*37
2017-12-01 14:28:21 1512156501.362607: $GPZDA,192822.00,01,12,2017,00,00*62
2017-12-01 14:28:21 1512156501.362784: $GPGGA,192822,3946.9571,N,08404.9811,W,2,12,0.80,297.96,M,-33.324,M,,*7A
2017-12-01 14:28:21 1512156501.362889: $GPRMC,192822,A,3946.9571,N,08404.9811,W,0.0000,0.000,011217,,*32
2017-12-01 14:28:21 1512156501.362976: $GPGSA,A,3,10,14,18,21,24,32,8,12,15,27,20,138,2.0,0.8,1.5*37
2017-12-01 14:28:22 1512156502.361751: $GPZDA,192823.00,01,12,2017,00,00*63
2017-12-01 14:28:22 1512156502.361925: $GPGGA,192823,3946.9571,N,08404.9811,W,2,12,0.80,297.96,M,-33.324,M,,*7B
2017-12-01 14:28:22 1512156502.361992: $GPRMC,192823,A,3946.9571,N,08404.9811,W,0.0000,0.000,011217,,*33
2017-12-01 14:28:22 1512156502.362052: $GPGSA,A,3,10,14,18,21,24,32,8,12,15,27,20,138,2.0,0.8,1.5*37
