2017-12-31 19:02:10 1514764930.586146: {"class":"VERSION","release":"3.16","rev":"3.16-4","proto_major":3,"proto_minor":11}
2017-12-31 19:02:10 1514764930.586625: {"class":"DEVICES","devices":[{"class":"DEVICE","path":"/dev/ttyUSB0","driver":"SiRF","activated":"2018-01-01T00:02:10.569Z","flags":1,"native":1,"bps":4800,"parity":"N","stopbits":1,"cycle":1.00}]}
2017-12-31 19:02:10 1514764930.586734: {"class":"WATCH","enable":true,"json":false,"nmea":true,"raw":0,"scaled":false,"timing":false,"split24":false,"pps":false}
2017-12-31 19:02:11 1514764931.354682: $GPZDA,000212.00,01,01,2018,00,00*6C
2017-12-31 19:02:11 1514764931.354854: $GPGGA,000212,3946.9574,N,08404.9817,W,2,11,0.80,309.96,M,-33.324,M,,*7F
2017-12-31 19:02:11 1514764931.354920: $GPRMC,000212,A,3946.9574,N,08404.9817,W,0.0000,0.000,010118,,*3F
2017-12-31 19:02:11 1514764931.354982: $GPGSA,A,3,22,23,9,3,16,8,31,27,7,26,135,,1.7,0.8,1.3*09
2017-12-31 19:02:12 1514764932.682497: $GPGSV,3,1,11,22,04,201,33,23,70,267,32,09,40,307,37,03,14,217,26*73
2017-12-31 19:02:12 1514764932.682677: $GPGSV,3,2,11,16,72,036,45,08,21,174,42,31,13,091,26,27,44,139,40*77
2017-12-31 19:02:12 1514764932.682747: $GPGSV,3,3,11,07,13,288,46,26,40,048,45,135,22,240,44*70
2017-12-31 19:02:12 1514764932.796263: $GPZDA,000213.00,01,01,2018,00,00*6D
2017-12-31 19:02:12 1514764932.796403: $GPGGA,000213,3946.9574,N,08404.9817,W,2,11,0.80,309.96,M,-33.324,M,,*7E
2017-12-31 19:02:12 1514764932.796469: $GPRMC,000213,A,3946.9574,N,08404.9817,W,0.0000,0.000,010118,,*3E
2017-12-31 19:02:12 1514764932.796529: $GPGSA,A,3,22,23,9,3,16,8,31,27,7,26,135,,1.7,0.8,1.3*09
2017-12-31 19:02:13 1514764933.355906: $GPZDA,000214.00,01,01,2018,00,00*6A
2017-12-31 19:02:13 1514764933.356052: $GPGGA,000214,3946.9574,N,08404.9817,W,2,11,0.80,309.96,M,-33.324,M,,*79
2017-12-31 19:02:13 1514764933.356117: $GPRMC,000214,A,3946.9574,N,08404.9817,W,0.0000,0.000,010118,,*39
2017-12-31 19:02:13 1514764933.356179: $GPGSA,A,3,22,23,9,3,16,8,31,27,7,26,135,,1.7,0.8,1.3*09
2017-12-31 19:02:14 1514764934.352999: $GPZDA,000215.00,01,01,2018,00,00*6B
2017-12-31 19:02:14 1514764934.353161: $GPGGA,000215,3946.9574,N,08404.9817,W,2,11,0.80,309.96,M,-33.324,M,,*78
2017-12-31 19:02:14 1514764934.353227: $GPRMC,000215,A,3946.9574,N,08404.9817,W,0.0000,0.000,010118,,*38
2017-12-31 19:02:14 1514764934.353289: $GPGSA,A,3,22,23,9,3,16,8,31,27,7,26,135,,1.7,0.8,1.3*09
2017-12-31 19:02:15 1514764935.689111: $GPGSV,3,1,11,22,04,201,33,23,70,267,39,09,40,307,37,03,14,217,26*78
2017-12-31 19:02:15 1514764935.689295: $GPGSV,3,2,11,16,72,036,45,08,21,174,42,31,13,091,22,27,44,139,40*73
2017-12-31 19:02:15 1514764935.689360: $GPGSV,3,3,11,07,13,288,46,26,40,048,45,135,22,240,44*70
2017-12-31 19:02:15 1514764935.803091: $GPZDA,000216.00,01,01,2018,00,00*68
2017-12-31 19:02:15 1514764935.803244: $GPGGA,000216,3946.9574,N,08404.9817,W,2,11,0.80,309.96,M,-33.324,M,,*7B
2017-12-31 19:02:15 1514764935.803311: $GPRMC,000216,A,3946.9574,N,08404.9817,W,0.0000,0.000,010118,,*3B
2017-12-31 19:02:15 1514764935.803372: $GPGSA,A,3,22,23,9,3,16,8,31,27,7,26,135,,1.7,0.8,1.3*09
2017-12-31 19:02:16 1514764936.353611: $GPZDA,000217.00,01,01,2018,00,00*69
2017-12-31 19:02:16 1514764936.353789: $GPGGA,000217,3946.9574,N,08404.9817,W,2,11,0.80,309.96,M,-33.324,M,,*7A
2017-12-31 19:02:16 1514764936.356285: $GPRMC,000217,A,3946.9574,N,08404.9817,W,0.0000,0.000,010118,,*3A
2017-12-31 19:02:16 1514764936.356357: $GPGSA,A,3,22,23,9,3,16,8,31,27,7,26,135,,1.7,0.8,1.3*09
2017-12-31 19:02:17 1514764937.354495: $GPZDA,000218.00,01,01,2018,00,00*66
2017-12-31 19:02:17 1514764937.354671: $GPGGA,000218,3946.9574,N,08404.9817,W,2,11,0.80,309.96,M,-33.324,M,,*75
2017-12-31 19:02:17 1514764937.354739: $GPRMC,000218,A,3946.9574,N,08404.9817,W,0.0000,0.000,010118,,*35
2017-12-31 19:02:17 1514764937.354803: $GPGSA,A,3,22,23,9,3,16,8,31,27,7,26,135,,1.7,0.8,1.3*09
2017-12-31 19:02:18 1514764938.688722: $GPGSV,3,1,11,22,04,201,33,23,70,267,32,09,40,307,38,03,14,217,26*7C
2017-12-31 19:02:18 1514764938.688909: $GPGSV,3,2,11,16,72,036,45,08,21,174,42,31,13,091,20,27,44,139,40*71
2017-12-31 19:02:18 1514764938.689031: $GPGSV,3,3,11,07,13,288,46,26,40,048,45,135,22,240,44*70
2017-12-31 19:02:18 1514764938.802150: $GPZDA,000219.00,01,01,2018,00,00*67
2017-12-31 19:02:18 1514764938.802288: $GPGGA,000219,3946.9574,N,08404.9817,W,2,11,0.80,309.96,M,-33.324,M,,*74
2017-12-31 19:02:18 1514764938.802353: $GPRMC,000219,A,3946.9574,N,08404.9817,W,0.0000,0.000,010118,,*34
2017-12-31 19:02:18 1514764938.802415: $GPGSA,A,3,22,23,9,3,16,8,31,27,7,26,135,,1.7,0.8,1.3*09
2017-12-31 19:02:19 1514764939.354318: $GPZDA,000220.00,01,01,2018,00,00*6D
2017-12-31 19:02:19 1514764939.354474: $GPGGA,000220,3946.9574,N,08404.9817,W,2,11,0.80,309.96,M,-33.324,M,,*7E
2017-12-31 19:02:19 1514764939.354544: $GPRMC,000220,A,3946.9574,N,08404.9817,W,0.0000,0.000,010118,,*3E
2017-12-31 19:02:19 1514764939.354604: $GPGSA,A,3,22,23,9,3,16,8,31,27,7,26,135,,1.7,0.8,1.3*09
2017-12-31 19:02:20 1514764940.345924: $GPZDA,000221.00,01,01,2018,00,00*6C
2017-12-31 19:02:20 1514764940.346097: $GPGGA,000221,3946.9574,N,08404.9817,W,2,11,0.80,309.96,M,-33.324,M,,*7F
2017-12-31 19:02:20 1514764940.346168: $GPRMC,000221,A,3946.9574,N,08404.9817,W,0.0000,0.000,010118,,*3F
2017-12-31 19:02:20 1514764940.346232: $GPGSA,A,3,22,23,9,3,16,8,31,27,7,26,135,,1.7,0.8,1.3*09
