2017-12-01 11:48:48 1512146928.846668: {"class":"VERSION","release":"3.16","rev":"3.16-4","proto_major":3,"proto_minor":11}
2017-12-01 11:48:48 1512146928.847053: {"class":"DEVICES","devices":[{"class":"DEVICE","path":"/dev/ttyUSB0","driver":"SiRF","subtype":"9\u0006GSD4e_4.1.2-P1_RPATCH.05-F-GPS-4R-1510281 11/03/2015 307","activated":"2017-12-01T16:48:48.551Z","flags":1,"native":1,"bps":4800,"parity":"N","stopbits":1,"cycle":1.00}]}
2017-12-01 11:48:48 1512146928.847169: {"class":"WATCH","enable":true,"json":false,"nmea":true,"raw":0,"scaled":false,"timing":false,"split24":false,"pps":false}
2017-12-01 11:48:49 1512146929.907992: $GPZDA,164850.00,01,12,2017,00,00*6E
2017-12-01 11:48:49 1512146929.908160: $GPGGA,164850,3946.9564,N,08404.9835,W,2,11,0.80,302.82,M,-33.324,M,,*7F
2017-12-01 11:48:49 1512146929.908227: $GPRMC,164850,A,3946.9564,N,08404.9835,W,0.0000,0.000,011217,,*3C
2017-12-01 11:48:49 1512146929.908289: $GPGSA,A,3,10,13,15,18,20,21,24,27,29,5,138,,2.0,0.8,1.5*34
2017-12-01 11:48:50 1512146930.741217: $GPGSV,3,1,12,10,15,274,38,13,41,048,46,15,73,066,45,18,45,288,46*77
2017-12-01 11:48:50 1512146930.741437: $GPGSV,3,2,12,20,61,054,43,21,69,303,46,24,22,147,43,27,10,322,38*79
2017-12-01 11:48:50 1512146930.741512: $GPGSV,3,3,12,29,22,193,44,05,12,079,30,04,10,132,00,138,38,213,46*47
2017-12-01 11:48:50 1512146930.853444: $GPZDA,164851.00,01,12,2017,00,00*6F
2017-12-01 11:48:50 1512146930.853634: $GPGGA,164851,3946.9564,N,08404.9835,W,2,11,0.80,302.82,M,-33.324,M,,*7E
2017-12-01 11:48:50 1512146930.853703: $GPRMC,164851,A,3946.9564,N,08404.9835,W,0.0000,0.000,011217,,*3D
2017-12-01 11:48:50 1512146930.853764: $GPGSA,A,3,10,13,15,18,20,21,24,27,29,5,138,,2.0,0.8,1.5*34
2017-12-01 11:48:51 1512146931.479961: $GPZDA,164852.00,01,12,2017,00,00*6C
2017-12-01 11:48:51 1512146931.480127: $GPGGA,164852,3946.9564,N,08404.9835,W,2,11,0.80,302.82,M,-33.324,M,,*7D
2017-12-01 11:48:51 1512146931.480195: $GPRMC,164852,A,3946.9564,N,08404.9835,W,0.0000,0.000,011217,,*3E
2017-12-01 11:48:51 1512146931.480257: $GPGSA,A,3,10,13,15,18,20,21,24,27,29,5,138,,2.0,0.8,1.5*34
2017-12-01 11:48:52 1512146932.408274: $GPZDA,164853.00,01,12,2017,00,00*6D
2017-12-01 11:48:52 1512146932.408451: $GPGGA,164853,3946.9564,N,08404.9835,W,2,11,0.80,302.82,M,-33.324,M,,*7C
2017-12-01 11:48:52 1512146932.408521: $GPRMC,164853,A,3946.9564,N,08404.9835,W,0.0000,0.000,011217,,*3F
2017-12-01 11:48:52 1512146932.408586: $GPGSA,A,3,10,13,15,18,20,21,24,27,29,5,138,,2.0,0.8,1.5*34
2017-12-01 11:48:53 1512146933.726606: $GPGSV,3,1,12,10,15,274,37,13,41,048,46,15,73,066,44,18,45,288,46*79
2017-12-01 11:48:53 1512146933.726788: $GPGSV,3,2,12,20,61,054,43,21,69,303,46,24,22,147,44,27,10,322,39*7F
2017-12-01 11:48:53 1512146933.726856: $GPGSV,3,3,12,29,22,193,44,05,12,079,30,04,10,132,00,138,38,213,46*47
2017-12-01 11:48:53 1512146933.840076: $GPZDA,164854.00,01,12,2017,00,00*6A
2017-12-01 11:48:53 1512146933.840258: $GPGGA,164854,3946.9564,N,08404.9835,W,2,11,0.80,302.82,M,-33.324,M,,*7B
2017-12-01 11:48:53 1512146933.840330: $GPRMC,164854,A,3946.9564,N,08404.9835,W,0.0000,0.000,011217,,*38
2017-12-01 11:48:53 1512146933.840392: $GPGSA,A,3,10,13,15,18,20,21,24,27,29,5,138,,2.0,0.8,1.5*34
2017-12-01 11:48:54 1512146934.390864: $GPZDA,164855.00,01,12,2017,00,00*6B
2017-12-01 11:48:54 1512146934.391035: $GPGGA,164855,3946.9564,N,08404.9835,W,2,11,0.80,302.82,M,-33.324,M,,*7A
2017-12-01 11:48:54 1512146934.391103: $GPRMC,164855,A,3946.9564,N,08404.9835,W,0.0000,0.000,011217,,*39
2017-12-01 11:48:54 1512146934.391164: $GPGSA,A,3,10,13,15,18,20,21,24,27,29,5,138,,2.0,0.8,1.5*34
2017-12-01 11:48:55 1512146935.906558: $GPZDA,164856.00,01,12,2017,00,00*68
2017-12-01 11:48:55 1512146935.906734: $GPGGA,164856,3946.9564,N,08404.9835,W,2,11,0.80,302.82,M,-33.324,M,,*79
2017-12-01 11:48:55 1512146935.906802: $GPRMC,164856,A,3946.9564,N,08404.9835,W,0.0000,0.000,011217,,*3A
2017-12-01 11:48:55 1512146935.906863: $GPGSA,A,3,10,13,15,18,20,21,24,27,29,5,138,,2.0,0.8,1.5*34
2017-12-01 11:48:56 1512146936.867609: $GPGSV,3,1,12,10,15,274,38,13,41,048,46,15,73,066,45,18,45,288,46*77
2017-12-01 11:48:56 1512146936.867844: $GPGSV,3,2,12,20,61,054,43,21,69,303,46,24,22,147,43,27,10,322,41*77
2017-12-01 11:48:56 1512146936.867915: $GPGSV,3,3,12,29,22,193,44,05,12,079,30,04,10,132,00,138,38,213,46*47
2017-12-01 11:48:56 1512146936.981009: $GPZDA,164857.00,01,12,2017,00,00*69
2017-12-01 11:48:56 1512146936.981185: $GPGGA,164857,3946.9564,N,08404.9835,W,2,11,0.80,302.82,M,-33.324,M,,*78
2017-12-01 11:48:56 1512146936.981253: $GPRMC,164857,A,3946.9564,N,08404.9835,W,0.0000,0.000,011217,,*3B
2017-12-01 11:48:56 1512146936.981316: $GPGSA,A,3,10,13,15,18,20,21,24,27,29,5,138,,2.0,0.8,1.5*34
2017-12-01 11:48:57 1512146937.431892: $GPZDA,164858.00,01,12,2017,00,00*66
2017-12-01 11:48:57 1512146937.432075: $GPGGA,164858,3946.9564,N,08404.9835,W,2,11,0.80,302.82,M,-33.324,M,,*77
2017-12-01 11:48:57 1512146937.432168: $GPRMC,164858,A,3946.9564,N,08404.9835,W,0.0000,0.000,011217,,*34
2017-12-01 11:48:57 1512146937.432230: $GPGSA,A,3,10,13,15,18,20,21,24,27,29,5,138,,2.0,0.8,1.5*34
2017-12-01 11:48:58 1512146938.393985: $GPZDA,164859.00,01,12,2017,00,00*67
2017-12-01 11:48:58 1512146938.394163: $GPGGA,164859,3946.9564,N,08404.9835,W,2,11,0.80,302.82,M,-33.324,M,,*76
2017-12-01 11:48:58 1512146938.394231: $GPRMC,164859,A,3946.9564,N,08404.9835,W,0.0000,0.000,011217,,*35
2017-12-01 11:48:58 1512146938.394293: $GPGSA,A,3,10,13,15,18,20,21,24,27,29,5,138,,2.0,0.8,1.5*34
