2017-12-31 16:41:07 1514756467.935605: {"class":"VERSION","release":"3.16","rev":"3.16-4","proto_major":3,"proto_minor":11}
2017-12-31 16:41:07 1514756467.935932: {"class":"DEVICES","devices":[{"class":"DEVICE","path":"/dev/ttyUSB0","driver":"SiRF","activated":"2017-12-31T21:41:07.496Z","flags":1,"native":1,"bps":4800,"parity":"N","stopbits":1,"cycle":1.00}]}
2017-12-31 16:41:07 1514756467.936032: {"class":"WATCH","enable":true,"json":false,"nmea":true,"raw":0,"scaled":false,"timing":false,"split24":false,"pps":false}
2017-12-31 16:41:08 1514756468.340780: $GPZDA,214109.00,31,12,2017,00,00*6C
2017-12-31 16:41:08 1514756468.340940: $GPGGA,214109,3946.9579,N,08404.9834,W,2,11,0.80,302.57,M,-33.324,M,,*7B
2017-12-31 16:41:08 1514756468.341008: $GPRMC,214109,A,3946.9579,N,08404.9834,W,0.0000,0.000,311217,,*33
2017-12-31 16:41:08 1514756468.341070: $GPGSA,A,3,22,23,25,3,16,29,31,14,32,26,135,,1.7,0.8,1.3*32
2017-12-31 16:41:09 1514756469.682454: $GPGSV,3,1,12,22,49,255,43,23,19,304,33,25,11,039,24,03,45,286,36*7E
2017-12-31 16:41:09 1514756469.682645: $GPGSV,3,2,12,16,34,189,46,29,13,066,29,01,01,246,00,31,58,040,50*75
2017-12-31 16:41:09 1514756469.682716: $GPGSV,3,3,12,14,49,103,47,32,27,115,37,26,64,163,43,135,22,240,44*42
2017-12-31 16:41:09 1514756469.796142: $GPZDA,214110.00,31,12,2017,00,00*64
2017-12-31 16:41:09 1514756469.796316: $GPGGA,214110,3946.9579,N,08404.9834,W,2,11,0.80,302.57,M,-33.324,M,,*73
2017-12-31 16:41:09 1514756469.796387: $GPRMC,214110,A,3946.9579,N,08404.9834,W,0.0000,0.000,311217,,*3B
2017-12-31 16:41:09 1514756469.796452: $GPGSA,A,3,22,23,25,3,16,29,31,14,32,26,135,,1.7,0.8,1.3*32
2017-12-31 16:41:10 1514756470.421322: $GPZDA,214111.00,31,12,2017,00,00*65
2017-12-31 16:41:10 1514756470.421494: $GPGGA,214111,3946.9579,N,08404.9834,W,2,11,0.80,302.57,M,-33.324,M,,*72
2017-12-31 16:41:10 1514756470.421563: $GPRMC,214111,A,3946.9579,N,08404.9834,W,0.0000,0.000,311217,,*3A
2017-12-31 16:41:10 1514756470.421628: $GPGSA,A,3,22,23,25,3,16,29,31,14,32,26,135,,1.7,0.8,1.3*32
2017-12-31 16:41:11 1514756471.362540: $GPZDA,214112.00,31,12,2017,00,00*66
2017-12-31 16:41:11 1514756471.362729: $GPGGA,214112,3946.9579,N,08404.9834,W,2,11,0.80,302.57,M,-33.324,M,,*71
2017-12-31 16:41:11 1514756471.362797: $GPRMC,214112,A,3946.9579,N,08404.9834,W,0.0000,0.000,311217,,*39
2017-12-31 16:41:11 1514756471.362863: $GPGSA,A,3,22,23,25,3,16,29,31,14,32,26,135,,1.7,0.8,1.3*32
2017-12-31 16:41:12 1514756472.681611: $GPGSV,3,1,12,22,49,255,44,23,19,304,34,25,11,039,34,03,45,286,36*7F
2017-12-31 16:41:12 1514756472.681763: $GPGSV,3,2,12,16,34,189,47,29,13,066,28,01,01,246,00,31,58,040,50*75
2017-12-31 16:41:12 1514756472.681831: $GPGSV,3,3,12,14,49,103,47,32,27,115,37,26,64,163,43,135,22,240,43*45
2017-12-31 16:41:12 1514756472.795275: $GPZDA,214113.00,31,12,2017,00,00*67
2017-12-31 16:41:12 1514756472.795445: $GPGGA,214113,3946.9579,N,08404.9834,W,2,11,0.80,302.57,M,-33.324,M,,*70
2017-12-31 16:41:12 1514756472.795513: $GPRMC,214113,A,3946.9579,N,08404.9834,W,0.0000,0.000,311217,,*38
2017-12-31 16:41:12 1514756472.795578: $GPGSA,A,3,22,23,25,3,16,29,31,14,32,26,135,,1.7,0.8,1.3*32
2017-12-31 16:41:13 1514756473.363480: $GPZDA,214114.00,31,12,2017,00,00*60
2017-12-31 16:41:13 1514756473.363651: $GPGGA,214114,3946.9579,N,08404.9834,W,2,11,0.80,302.57,M,-33.324,M,,*77
2017-12-31 16:41:13 1514756473.363722: $GPRMC,214114,A,3946.9579,N,08404.9834,W,0.0000,0.000,311217,,*3F
2017-12-31 16:41:13 1514756473.363787: $GPGSA,A,3,22,23,25,3,16,29,31,14,32,26,135,,1.7,0.8,1.3*32
2017-12-31 16:41:14 1514756474.346548: $GPZDA,214115.00,31,12,2017,00,00*61
2017-12-31 16:41:14 1514756474.346746: $GPGGA,214115,3946.9579,N,08404.9834,W,2,11,0.80,302.57,M,-33.324,M,,*76
2017-12-31 16:41:14 1514756474.346817: $GPRMC,214115,A,3946.9579,N,08404.9834,W,0.0000,0.000,311217,,*3E
2017-12-31 16:41:14 1514756474.346881: $GPGSA,A,3,22,23,25,3,16,29,31,14,32,26,135,,1.7,0.8,1.3*32
2017-12-31 16:41:15 1514756475.698271: $GPGSV,3,1,12,22,49,255,44,23,19,304,39,25,11,039,34,03,45,286,36*72
2017-12-31 16:41:15 1514756475.698470: $GPGSV,3,2,12,16,34,189,47,29,13,066,28,01,01,246,00,31,58,040,50*75
2017-12-31 16:41:15 1514756475.698615: $GPGSV,3,3,12,14,49,103,47,32,27,115,36,26,64,163,43,135,22,240,43*44
2017-12-31 16:41:15 1514756475.811827: $GPZDA,214116.00,31,12,2017,00,00*62
2017-12-31 16:41:15 1514756475.811984: $GPGGA,214116,3946.9579,N,08404.9834,W,2,11,0.80,302.57,M,-33.324,M,,*75
2017-12-31 16:41:15 1514756475.812053: $GPRMC,214116,A,3946.9579,N,08404.9834,W,0.0000,0.000,311217,,*3D
2017-12-31 16:41:15 1514756475.812114: $GPGSA,A,3,22,23,25,3,16,29,31,14,32,26,135,,1.7,0.8,1.3*32
2017-12-31 16:41:16 1514756476.345120: $GPZDA,214117.00,31,12,2017,00,00*63
2017-12-31 16:41:16 1514756476.345278: $GPGGA,214117,3946.9579,N,08404.9834,W,2,11,0.80,302.57,M,-33.324,M,,*74
2017-12-31 16:41:16 1514756476.345344: $GPRMC,214117,A,3946.9579,N,08404.9834,W,0.0000,0.000,311217,,*3C
2017-12-31 16:41:16 1514756476.345406: $GPGSA,A,3,22,23,25,3,16,29,31,14,32,26,135,,1.7,0.8,1.3*32
2017-12-31 16:41:17 1514756477.356098: $GPZDA,214118.00,31,12,2017,00,00*6C
2017-12-31 16:41:17 1514756477.356276: $GPGGA,214118,3946.9579,N,08404.9834,W,2,11,0.80,302.57,M,-33.324,M,,*7B
2017-12-31 16:41:17 1514756477.356341: $GPRMC,214118,A,3946.9579,N,08404.9834,W,0.0000,0.000,311217,,*33
2017-12-31 16:41:17 1514756477.356403: $GPGSA,A,3,22,23,25,3,16,29,31,14,32,26,135,,1.7,0.8,1.3*32
2017-12-31 16:41:18 1514756478.691580: $GPGSV,3,1,12,22,49,255,43,23,19,304,39,25,11,039,35,03,45,286,29*7A
2017-12-31 16:41:18 1514756478.691778: $GPGSV,3,2,12,16,34,189,47,29,13,066,28,01,01,246,00,31,58,040,51*74
2017-12-31 16:41:18 1514756478.691846: $GPGSV,3,3,12,14,49,103,47,32,27,115,36,26,64,163,43,135,22,240,43*44
2017-12-31 16:41:18 1514756478.805167: $GPZDA,214119.00,31,12,2017,00,00*6D
2017-12-31 16:41:18 1514756478.805332: $GPGGA,214119,3946.9579,N,08404.9834,W,2,11,0.80,302.57,M,-33.324,M,,*7A
2017-12-31 16:41:18 1514756478.805398: $GPRMC,214119,A,3946.9579,N,08404.9834,W,0.0000,0.000,311217,,*32
2017-12-31 16:41:18 1514756478.805458: $GPGSA,A,3,22,23,25,3,16,29,31,14,32,26,135,,1.7,0.8,1.3*32
2017-12-31 16:41:19 1514756479.355929: $GPZDA,214120.00,31,12,2017,00,00*67
2017-12-31 16:41:19 1514756479.356112: $GPGGA,214120,3946.9579,N,08404.9834,W,2,11,0.80,302.57,M,-33.324,M,,*70
2017-12-31 16:41:19 1514756479.356178: $GPRMC,214120,A,3946.9579,N,08404.9834,W,0.0000,0.000,311217,,*38
2017-12-31 16:41:19 1514756479.356240: $GPGSA,A,3,22,23,25,3,16,29,31,14,32,26,135,,1.7,0.8,1.3*32
2017-12-31 16:41:20 1514756480.350081: $GPZDA,214121.00,31,12,2017,00,00*66
2017-12-31 16:41:20 1514756480.350252: $GPGGA,214121,3946.9579,N,08404.9834,W,2,11,0.80,302.57,M,-33.324,M,,*71
2017-12-31 16:41:20 1514756480.350319: $GPRMC,214121,A,3946.9579,N,08404.9834,W,0.0000,0.000,311217,,*39
2017-12-31 16:41:20 1514756480.350380: $GPGSA,A,3,22,23,25,3,16,29,31,14,32,26,135,,1.7,0.8,1.3*32
2017-12-31 16:41:21 1514756481.681780: $GPGSV,3,1,12,22,49,255,43,23,19,304,39,25,11,039,36,03,45,286,30*71
2017-12-31 16:41:21 1514756481.681968: $GPGSV,3,2,12,16,34,189,47,29,13,066,28,01,01,246,00,31,58,040,51*74
2017-12-31 16:41:21 1514756481.682037: $GPGSV,3,3,12,14,49,103,47,32,27,115,36,26,64,163,43,135,22,240,42*45
2017-12-31 16:41:21 1514756481.795136: $GPZDA,214122.00,31,12,2017,00,00*65
2017-12-31 16:41:21 1514756481.795312: $GPGGA,214122,3946.9579,N,08404.9834,W,2,11,0.80,302.57,M,-33.324,M,,*72
2017-12-31 16:41:21 1514756481.795379: $GPRMC,214122,A,3946.9579,N,08404.9834,W,0.0000,0.000,311217,,*3A
2017-12-31 16:41:21 1514756481.795442: $GPGSA,A,3,22,23,25,3,16,29,31,14,32,26,135,,1.7,0.8,1.3*32
2017-12-31 16:41:22 1514756482.363893: $GPZDA,214123.00,31,12,2017,00,00*64
2017-12-31 16:41:22 1514756482.364067: $GPGGA,214123,3946.9579,N,08404.9834,W,2,11,0.80,302.57,M,-33.324,M,,*73
2017-12-31 16:41:22 1514756482.364133: $GPRMC,214123,A,3946.9579,N,08404.9834,W,0.0000,0.000,311217,,*3B
2017-12-31 16:41:22 1514756482.364195: $GPGSA,A,3,22,23,25,3,16,29,31,14,32,26,135,,1.7,0.8,1.3*32
2017-12-31 16:41:23 1514756483.347474: $GPZDA,214124.00,31,12,2017,00,00*63
2017-12-31 16:41:23 1514756483.347608: $GPGGA,214124,3946.9579,N,08404.9834,W,2,11,0.80,302.57,M,-33.324,M,,*74
2017-12-31 16:41:23 1514756483.347702: $GPRMC,214124,A,3946.9579,N,08404.9834,W,0.0000,0.000,311217,,*3C
2017-12-31 16:41:23 1514756483.347765: $GPGSA,A,3,22,23,25,3,16,29,31,14,32,26,135,,1.7,0.8,1.3*32
2017-12-31 16:41:24 1514756484.673873: $GPGSV,3,1,12,22,49,255,43,23,19,304,38,25,11,039,36,03,45,286,38*78
2017-12-31 16:41:24 1514756484.674042: $GPGSV,3,2,12,16,34,189,47,29,13,066,28,01,01,246,00,31,58,040,51*74
2017-12-31 16:41:24 1514756484.674111: $GPGSV,3,3,12,14,49,103,47,32,27,115,36,26,64,163,43,135,22,240,42*45
2017-12-31 16:41:24 1514756484.787565: $GPZDA,214125.00,31,12,2017,00,00*62
2017-12-31 16:41:24 1514756484.787736: $GPGGA,214125,3946.9579,N,08404.9834,W,2,11,0.80,302.57,M,-33.324,M,,*75
2017-12-31 16:41:24 1514756484.787805: $GPRMC,214125,A,3946.9579,N,08404.9834,W,0.0000,0.000,311217,,*3D
2017-12-31 16:41:24 1514756484.787869: $GPGSA,A,3,22,23,25,3,16,29,31,14,32,26,135,,1.7,0.8,1.3*32
2017-12-31 16:41:25 1514756485.412858: $GPZDA,214126.00,31,12,2017,00,00*61
2017-12-31 16:41:25 1514756485.413038: $GPGGA,214126,3946.9579,N,08404.9834,W,2,11,0.80,302.57,M,-33.324,M,,*76
2017-12-31 16:41:25 1514756485.413107: $GPRMC,214126,A,3946.9579,N,08404.9834,W,0.0000,0.000,311217,,*3E
2017-12-31 16:41:25 1514756485.413170: $GPGSA,A,3,22,23,25,3,16,29,31,14,32,26,135,,1.7,0.8,1.3*32
2017-12-31 16:41:26 1514756486.346252: $GPZDA,214127.00,31,12,2017,00,00*60
2017-12-31 16:41:26 1514756486.346424: $GPGGA,214127,3946.9579,N,08404.9834,W,2,11,0.80,302.57,M,-33.324,M,,*77
2017-12-31 16:41:26 1514756486.346493: $GPRMC,214127,A,3946.9579,N,08404.9834,W,0.0000,0.000,311217,,*3F
2017-12-31 16:41:26 1514756486.346556: $GPGSA,A,3,22,23,25,3,16,29,31,14,32,26,135,,1.7,0.8,1.3*32
2017-12-31 16:41:27 1514756487.681702: $GPGSV,3,1,12,22,49,255,43,23,19,304,38,25,11,039,36,03,45,286,37*77
2017-12-31 16:41:27 1514756487.681896: $GPGSV,3,2,12,16,34,189,47,29,13,066,28,01,01,246,00,31,58,040,51*74
2017-12-31 16:41:27 1514756487.681984: $GPGSV,3,3,12,14,49,103,47,32,27,115,37,26,64,163,43,135,22,240,44*42
2017-12-31 16:41:27 1514756487.795340: $GPZDA,214128.00,31,12,2017,00,00*6F
2017-12-31 16:41:27 1514756487.795519: $GPGGA,214128,3946.9579,N,08404.9834,W,2,11,0.80,302.57,M,-33.324,M,,*78
2017-12-31 16:41:27 1514756487.795587: $GPRMC,214128,A,3946.9579,N,08404.9834,W,0.0000,0.000,311217,,*30
2017-12-31 16:41:27 1514756487.795650: $GPGSA,A,3,22,23,25,3,16,29,31,14,32,26,135,,1.7,0.8,1.3*32
