2017-11-16 14:33:03 1510860783.025592: {"class":"VERSION","release":"3.17","rev":"3.17","proto_major":3,"proto_minor":12}
2017-11-16 14:33:03 1510860783.026065: {"class":"DEVICES","devices":[{"class":"DEVICE","path":"/dev/ttyUSB0","driver":"SiRF","subtype":"9\u0006GSD4e_4.1.2-P1_RPATCH.05-F-GPS-4R-1510281 11/03/2015 307","activated":"2017-11-16T19:33:02.685Z","flags":1,"native":1,"bps":4800,"parity":"N","stopbits":1,"cycle":1.00}]}
2017-11-16 14:33:03 1510860783.026189: {"class":"WATCH","enable":true,"json":false,"nmea":true,"raw":0,"scaled":false,"timing":false,"split24":false,"pps":false}
2017-11-16 14:33:03 1510860783.851638: $GPGSV,3,1,12,08,08,315,38,10,48,307,49,13,01,051,00,15,30,055,51*74
2017-11-16 14:33:03 1510860783.851793: $GPGSV,3,2,12,18,75,358,46,21,55,186,45,20,27,102,47,24,53,096,50*7C
2017-11-16 14:33:03 1510860783.851853: $GPGSV,3,3,12,27,17,282,39,32,27,243,48,14,10,237,39,138,38,213,44*4F
2017-11-16 14:33:03 1510860783.965062: $GPZDA,193302.00,16,11,2017,00,00*6F
2017-11-16 14:33:03 1510860783.965215: $GPGGA,193302,3946.9564,N,08404.9849,W,2,11,0.80,302.66,M,-33.324,M,,*7A
2017-11-16 14:33:03 1510860783.965276: $GPRMC,193302,A,3946.9564,N,08404.9849,W,0.0000,0.000,161117,,*36
2017-11-16 14:33:03 1510860783.965332: $GPGSA,A,3,8,10,15,18,21,20,24,27,32,14,138,,1.6,0.8,1.3*37
2017-11-16 14:33:04 1510860784.590384: $GPZDA,193303.00,16,11,2017,00,00*6E
2017-11-16 14:33:04 1510860784.590566: $GPGGA,193303,3946.9564,N,08404.9849,W,2,11,0.80,302.66,M,-33.324,M,,*7B
2017-11-16 14:33:04 1510860784.590647: $GPRMC,193303,A,3946.9564,N,08404.9849,W,0.0000,0.000,161117,,*37
2017-11-16 14:33:04 1510860784.590707: $GPGSA,A,3,8,10,15,18,21,20,24,27,32,14,138,,1.6,0.8,1.3*37
2017-11-16 14:33:05 1510860785.517561: $GPZDA,193304.00,16,11,2017,00,00*69
2017-11-16 14:33:05 1510860785.517728: $GPGGA,193304,3946.9564,N,08404.9849,W,2,11,0.80,302.66,M,-33.324,M,,*7C
2017-11-16 14:33:05 1510860785.517790: $GPRMC,193304,A,3946.9564,N,08404.9849,W,0.0000,0.000,161117,,*30
2017-11-16 14:33:05 1510860785.517848: $GPGSA,A,3,8,10,15,18,21,20,24,27,32,14,138,,1.6,0.8,1.3*37
2017-11-16 14:33:06 1510860786.853333: $GPGSV,3,1,12,08,08,315,38,10,48,307,49,13,01,051,00,15,30,055,51*74
2017-11-16 14:33:06 1510860786.853506: $GPGSV,3,2,12,18,75,358,46,21,55,186,45,20,27,102,46,24,53,096,50*7D
2017-11-16 14:33:06 1510860786.853567: $GPGSV,3,3,12,27,17,282,38,32,27,243,48,14,10,237,39,138,38,213,44*4E
2017-11-16 14:33:06 1510860786.967120: $GPZDA,193305.00,16,11,2017,00,00*68
2017-11-16 14:33:06 1510860786.967298: $GPGGA,193305,3946.9564,N,08404.9849,W,2,11,0.80,302.66,M,-33.324,M,,*7D
2017-11-16 14:33:06 1510860786.967365: $GPRMC,193305,A,3946.9564,N,08404.9849,W,0.0000,0.000,161117,,*31
2017-11-16 14:33:06 1510860786.967423: $GPGSA,A,3,8,10,15,18,21,20,24,27,32,14,138,,1.6,0.8,1.3*37
2017-11-16 14:33:07 1510860787.511365: $GPZDA,193306.00,16,11,2017,00,00*6B
2017-11-16 14:33:07 1510860787.511528: $GPGGA,193306,3946.9564,N,08404.9849,W,2,11,0.80,302.66,M,-33.324,M,,*7E
2017-11-16 14:33:07 1510860787.511588: $GPRMC,193306,A,3946.9564,N,08404.9849,W,0.0000,0.000,161117,,*32
2017-11-16 14:33:07 1510860787.511646: $GPGSA,A,3,8,10,15,18,21,20,24,27,32,14,138,,1.6,0.8,1.3*37
2017-11-16 14:33:08 1510860788.517289: $GPZDA,193307.00,16,11,2017,00,00*6A
2017-11-16 14:33:08 1510860788.517450: $GPGGA,193307,3946.9564,N,08404.9849,W,2,11,0.80,302.66,M,-33.324,M,,*7F
2017-11-16 14:33:08 1510860788.517511: $GPRMC,193307,A,3946.9564,N,08404.9849,W,0.0000,0.000,161117,,*33
2017-11-16 14:33:08 1510860788.517568: $GPGSA,A,3,8,10,15,18,21,20,24,27,32,14,138,,1.6,0.8,1.3*37
2017-11-16 14:33:09 1510860789.852567: $GPGSV,3,1,12,08,08,315,39,10,48,307,48,13,01,051,00,15,30,055,51*74
2017-11-16 14:33:09 1510860789.852721: $GPGSV,3,2,12,18,75,358,45,21,55,186,45,20,27,102,46,24,53,096,50*7E
2017-11-16 14:33:09 1510860789.852782: $GPGSV,3,3,12,27,17,282,38,32,27,243,48,14,10,237,39,138,38,213,44*4E
2017-11-16 14:33:09 1510860789.965917: $GPZDA,193308.00,16,11,2017,00,00*65
2017-11-16 14:33:09 1510860789.966080: $GPGGA,193308,3946.9564,N,08404.9849,W,2,11,0.80,302.66,M,-33.324,M,,*70
2017-11-16 14:33:09 1510860789.966212: $GPRMC,193308,A,3946.9564,N,08404.9849,W,0.0000,0.000,161117,,*3C
2017-11-16 14:33:09 1510860789.966272: $GPGSA,A,3,8,10,15,18,21,20,24,27,32,14,138,,1.6,0.8,1.3*37
2017-11-16 14:33:10 1510860790.518393: $GPZDA,193309.00,16,11,2017,00,00*64
2017-11-16 14:33:10 1510860790.518553: $GPGGA,193309,3946.9564,N,08404.9849,W,2,11,0.80,302.66,M,-33.324,M,,*71
2017-11-16 14:33:10 1510860790.518615: $GPRMC,193309,A,3946.9564,N,08404.9849,W,0.0000,0.000,161117,,*3D
2017-11-16 14:33:10 1510860790.518670: $GPGSA,A,3,8,10,15,18,21,20,24,27,32,14,138,,1.6,0.8,1.3*37
2017-11-16 14:33:11 1510860791.516619: $GPZDA,193310.00,16,11,2017,00,00*6C
2017-11-16 14:33:11 1510860791.516795: $GPGGA,193310,3946.9564,N,08404.9849,W,2,11,0.80,302.66,M,-33.324,M,,*79
2017-11-16 14:33:11 1510860791.516857: $GPRMC,193310,A,3946.9564,N,08404.9849,W,0.0000,0.000,161117,,*35
2017-11-16 14:33:11 1510860791.516913: $GPGSA,A,3,8,10,15,18,21,20,24,27,32,14,138,,1.6,0.8,1.3*37
2017-11-16 14:33:12 1510860792.854783: $GPGSV,3,1,12,08,08,315,39,10,48,307,48,13,01,051,00,15,30,055,51*74
2017-11-16 14:33:12 1510860792.854966: $GPGSV,3,2,12,18,75,358,45,21,55,186,45,20,27,102,46,24,53,096,50*7E
2017-11-16 14:33:12 1510860792.855026: $GPGSV,3,3,12,27,17,282,38,32,27,243,48,14,10,237,39,138,38,213,43*49
2017-11-16 14:33:12 1510860792.968324: $GPZDA,193311.00,16,11,2017,00,00*6D
2017-11-16 14:33:12 1510860792.968477: $GPGGA,193311,3946.9564,N,08404.9849,W,2,11,0.80,302.66,M,-33.324,M,,*78
2017-11-16 14:33:12 1510860792.968540: $GPRMC,193311,A,3946.9564,N,08404.9849,W,0.0000,0.000,161117,,*34
2017-11-16 14:33:12 1510860792.968596: $GPGSA,A,3,8,10,15,18,21,20,24,27,32,14,138,,1.6,0.8,1.3*37
2017-11-16 14:33:13 1510860793.516772: $GPZDA,193312.00,16,11,2017,00,00*6E
2017-11-16 14:33:13 1510860793.516951: $GPGGA,193312,3946.9564,N,08404.9849,W,2,11,0.80,302.66,M,-33.324,M,,*7B
2017-11-16 14:33:13 1510860793.517013: $GPRMC,193312,A,3946.9564,N,08404.9849,W,0.0000,0.000,161117,,*37
2017-11-16 14:33:13 1510860793.517069: $GPGSA,A,3,8,10,15,18,21,20,24,27,32,14,138,,1.6,0.8,1.3*37
2017-11-16 14:33:14 1510860794.516911: $GPZDA,193313.00,16,11,2017,00,00*6F
2017-11-16 14:33:14 1510860794.517072: $GPGGA,193313,3946.9564,N,08404.9849,W,2,11,0.80,302.66,M,-33.324,M,,*7A
2017-11-16 14:33:14 1510860794.517133: $GPRMC,193313,A,3946.9564,N,08404.9849,W,0.0000,0.000,161117,,*36
2017-11-16 14:33:14 1510860794.517188: $GPGSA,A,3,8,10,15,18,21,20,24,27,32,14,138,,1.6,0.8,1.3*37
2017-11-16 14:33:15 1510860795.851544: $GPGSV,3,1,12,08,08,315,40,10,48,307,48,13,01,051,00,15,30,055,51*7A
2017-11-16 14:33:15 1510860795.851709: $GPGSV,3,2,12,18,75,358,45,21,55,186,45,20,27,102,46,24,53,096,50*7E
2017-11-16 14:33:15 1510860795.851769: $GPGSV,3,3,12,27,17,282,39,32,27,243,48,14,10,237,38,138,38,213,42*48
2017-11-16 14:33:15 1510860795.964813: $GPZDA,193314.00,16,11,2017,00,00*68
2017-11-16 14:33:15 1510860795.964968: $GPGGA,193314,3946.9564,N,08404.9849,W,2,11,0.80,302.66,M,-33.324,M,,*7D
2017-11-16 14:33:15 1510860795.965028: $GPRMC,193314,A,3946.9564,N,08404.9849,W,0.0000,0.000,161117,,*31
2017-11-16 14:33:15 1510860795.965083: $GPGSA,A,3,8,10,15,18,21,20,24,27,32,14,138,,1.6,0.8,1.3*37
2017-11-16 14:33:16 1510860796.516074: $GPZDA,193315.00,16,11,2017,00,00*69
2017-11-16 14:33:16 1510860796.516233: $GPGGA,193315,3946.9564,N,08404.9849,W,2,11,0.80,302.66,M,-33.324,M,,*7C
2017-11-16 14:33:16 1510860796.516293: $GPRMC,193315,A,3946.9564,N,08404.9849,W,0.0000,0.000,161117,,*30
2017-11-16 14:33:16 1510860796.516348: $GPGSA,A,3,8,10,15,18,21,20,24,27,32,14,138,,1.6,0.8,1.3*37
2017-11-16 14:33:17 1510860797.517965: $GPZDA,193316.00,16,11,2017,00,00*6A
2017-11-16 14:33:17 1510860797.518130: $GPGGA,193316,3946.9564,N,08404.9849,W,2,11,0.80,302.66,M,-33.324,M,,*7F
2017-11-16 14:33:17 1510860797.518192: $GPRMC,193316,A,3946.9564,N,08404.9849,W,0.0000,0.000,161117,,*33
2017-11-16 14:33:17 1510860797.518247: $GPGSA,A,3,8,10,15,18,21,20,24,27,32,14,138,,1.6,0.8,1.3*37
2017-11-16 14:33:18 1510860798.887566: $GPGSV,3,1,12,08,08,315,40,10,48,307,48,13,01,051,00,15,30,055,51*7A
2017-11-16 14:33:18 1510860798.887803: $GPGSV,3,2,12,18,75,358,45,21,55,186,45,20,27,102,46,24,53,096,49*76
2017-11-16 14:33:18 1510860798.887864: $GPGSV,3,3,12,27,17,282,39,32,27,243,48,14,10,237,38,138,38,213,43*49
2017-11-16 14:33:19 1510860799.000894: $GPZDA,193317.00,16,11,2017,00,00*6B
2017-11-16 14:33:19 1510860799.001054: $GPGGA,193317,3946.9564,N,08404.9849,W,2,11,0.80,302.66,M,-33.324,M,,*7E
2017-11-16 14:33:19 1510860799.001116: $GPRMC,193317,A,3946.9564,N,08404.9849,W,0.0000,0.000,161117,,*32
2017-11-16 14:33:19 1510860799.001172: $GPGSA,A,3,8,10,15,18,21,20,24,27,32,14,138,,1.6,0.8,1.3*37
2017-11-16 14:33:19 1510860799.626423: $GPZDA,193318.00,16,11,2017,00,00*64
2017-11-16 14:33:19 1510860799.626603: $GPGGA,193318,3946.9564,N,08404.9849,W,2,11,0.80,302.66,M,-33.324,M,,*71
2017-11-16 14:33:19 1510860799.626669: $GPRMC,193318,A,3946.9564,N,08404.9849,W,0.0000,0.000,161117,,*3D
2017-11-16 14:33:19 1510860799.626727: $GPGSA,A,3,8,10,15,18,21,20,24,27,32,14,138,,1.6,0.8,1.3*37
2017-11-16 14:33:20 1510860800.551075: $GPZDA,193319.00,16,11,2017,00,00*65
2017-11-16 14:33:20 1510860800.551237: $GPGGA,193319,3946.9564,N,08404.9849,W,2,11,0.80,302.66,M,-33.324,M,,*70
2017-11-16 14:33:20 1510860800.551297: $GPRMC,193319,A,3946.9564,N,08404.9849,W,0.0000,0.000,161117,,*3C
2017-11-16 14:33:20 1510860800.551352: $GPGSA,A,3,8,10,15,18,21,20,24,27,32,14,138,,1.6,0.8,1.3*37
2017-11-16 14:33:21 1510860801.853080: $GPGSV,3,1,12,08,08,315,40,10,48,307,48,13,01,051,00,15,30,055,50*7B
2017-11-16 14:33:21 1510860801.853248: $GPGSV,3,2,12,18,75,358,45,21,55,186,45,20,27,102,46,24,53,096,49*76
2017-11-16 14:33:21 1510860801.853307: $GPGSV,3,3,12,27,17,282,40,32,27,243,48,14,10,237,38,138,38,213,44*40
2017-11-16 14:33:21 1510860801.967844: $GPZDA,193320.00,16,11,2017,00,00*6F
2017-11-16 14:33:21 1510860801.968016: $GPGGA,193320,3946.9564,N,08404.9849,W,2,11,0.80,302.66,M,-33.324,M,,*7A
2017-11-16 14:33:21 1510860801.968079: $GPRMC,193320,A,3946.9564,N,08404.9849,W,0.0000,0.000,161117,,*36
2017-11-16 14:33:21 1510860801.968134: $GPGSA,A,3,8,10,15,18,21,20,24,27,32,14,138,,1.6,0.8,1.3*37
2017-11-16 14:33:22 1510860802.551105: $GPZDA,193321.00,16,11,2017,00,00*6E
2017-11-16 14:33:22 1510860802.551270: $GPGGA,193321,3946.9564,N,08404.9849,W,2,11,0.80,302.66,M,-33.324,M,,*7B
2017-11-16 14:33:22 1510860802.551332: $GPRMC,193321,A,3946.9564,N,08404.9849,W,0.0000,0.000,161117,,*37
2017-11-16 14:33:22 1510860802.551388: $GPGSA,A,3,8,10,15,18,21,20,24,27,32,14,138,,1.6,0.8,1.3*37
2017-11-16 14:33:23 1510860803.550686: $GPZDA,193322.00,16,11,2017,00,00*6D
2017-11-16 14:33:23 1510860803.550847: $GPGGA,193322,3946.9564,N,08404.9849,W,2,11,0.80,302.66,M,-33.324,M,,*78
2017-11-16 14:33:23 1510860803.550907: $GPRMC,193322,A,3946.9564,N,08404.9849,W,0.0000,0.000,161117,,*34
2017-11-16 14:33:23 1510860803.550963: $GPGSA,A,3,8,10,15,18,21,20,24,27,32,14,138,,1.6,0.8,1.3*37
2017-11-16 14:33:24 1510860804.853498: $GPGSV,3,1,12,08,08,315,40,10,48,307,47,13,01,051,00,15,30,055,51*75
2017-11-16 14:33:24 1510860804.853693: $GPGSV,3,2,12,18,75,358,45,21,55,186,45,20,27,102,46,24,53,096,49*76
2017-11-16 14:33:24 1510860804.853756: $GPGSV,3,3,12,27,17,282,40,32,27,243,48,14,10,237,39,138,38,213,44*41
2017-11-16 14:33:24 1510860804.966815: $GPZDA,193323.00,16,11,2017,00,00*6C
2017-11-16 14:33:24 1510860804.966973: $GPGGA,193323,3946.9564,N,08404.9849,W,2,11,0.80,302.66,M,-33.324,M,,*79
2017-11-16 14:33:24 1510860804.967033: $GPRMC,193323,A,3946.9564,N,08404.9849,W,0.0000,0.000,161117,,*35
2017-11-16 14:33:24 1510860804.967088: $GPGSA,A,3,8,10,15,18,21,20,24,27,32,14,138,,1.6,0.8,1.3*37
2017-11-16 14:33:25 1510860805.511491: $GPZDA,193324.00,16,11,2017,00,00*6B
2017-11-16 14:33:25 1510860805.513070: $GPGGA,193324,3946.9564,N,08404.9849,W,2,11,0.80,302.66,M,-33.324,M,,*7E
2017-11-16 14:33:25 1510860805.513151: $GPRMC,193324,A,3946.9564,N,08404.9849,W,0.0000,0.000,161117,,*32
2017-11-16 14:33:25 1510860805.513209: $GPGSA,A,3,8,10,15,18,21,20,24,27,32,14,138,,1.6,0.8,1.3*37
2017-11-16 14:33:26 1510860806.517350: $GPZDA,193325.00,16,11,2017,00,00*6A
2017-11-16 14:33:26 1510860806.517514: $GPGGA,193325,3946.9564,N,08404.9849,W,2,11,0.80,302.66,M,-33.324,M,,*7F
2017-11-16 14:33:26 1510860806.517575: $GPRMC,193325,A,3946.9564,N,08404.9849,W,0.0000,0.000,161117,,*33
2017-11-16 14:33:26 1510860806.517631: $GPGSA,A,3,8,10,15,18,21,20,24,27,32,14,138,,1.6,0.8,1.3*37
2017-11-16 14:33:27 1510860807.851970: $GPGSV,3,1,12,08,08,315,40,10,48,307,47,13,01,051,00,15,30,055,51*75
2017-11-16 14:33:27 1510860807.852131: $GPGSV,3,2,12,18,75,358,45,21,55,186,45,20,27,102,46,24,53,096,49*76
2017-11-16 14:33:27 1510860807.852191: $GPGSV,3,3,12,27,17,282,40,32,27,243,48,14,10,237,39,138,38,213,44*41
2017-11-16 14:33:27 1510860807.965260: $GPZDA,193326.00,16,11,2017,00,00*69
2017-11-16 14:33:27 1510860807.965423: $GPGGA,193326,3946.9564,N,08404.9849,W,2,11,0.80,302.66,M,-33.324,M,,*7C
2017-11-16 14:33:27 1510860807.965484: $GPRMC,193326,A,3946.9564,N,08404.9849,W,0.0000,0.000,161117,,*30
2017-11-16 14:33:27 1510860807.965539: $GPGSA,A,3,8,10,15,18,21,20,24,27,32,14,138,,1.6,0.8,1.3*37
2017-11-16 14:33:28 1510860808.551372: $GPZDA,193327.00,16,11,2017,00,00*68
2017-11-16 14:33:28 1510860808.551522: $GPGGA,193327,3946.9564,N,08404.9849,W,2,11,0.80,302.66,M,-33.324,M,,*7D
2017-11-16 14:33:28 1510860808.551583: $GPRMC,193327,A,3946.9564,N,08404.9849,W,0.0000,0.000,161117,,*31
2017-11-16 14:33:28 1510860808.551639: $GPGSA,A,3,8,10,15,18,21,20,24,27,32,14,138,,1.6,0.8,1.3*37
2017-11-16 14:33:29 1510860809.516686: $GPZDA,193328.00,16,11,2017,00,00*67
2017-11-16 14:33:29 1510860809.516857: $GPGGA,193328,3946.9564,N,08404.9849,W,2,11,0.80,302.66,M,-33.324,M,,*72
2017-11-16 14:33:29 1510860809.516919: $GPRMC,193328,A,3946.9564,N,08404.9849,W,0.0000,0.000,161117,,*3E
2017-11-16 14:33:29 1510860809.516976: $GPGSA,A,3,8,10,15,18,21,20,24,27,32,14,138,,1.6,0.8,1.3*37
2017-11-16 14:33:30 1510860810.853716: $GPGSV,3,1,12,08,08,315,40,10,48,307,48,13,01,051,00,15,30,055,51*7A
2017-11-16 14:33:30 1510860810.853892: $GPGSV,3,2,12,18,75,358,45,21,55,186,46,20,27,102,46,24,53,096,50*7D
2017-11-16 14:33:30 1510860810.853953: $GPGSV,3,3,12,27,17,282,41,32,27,243,48,14,10,237,40,138,38,213,44*4E
2017-11-16 14:33:30 1510860810.966994: $GPZDA,193329.00,16,11,2017,00,00*66
2017-11-16 14:33:30 1510860810.967157: $GPGGA,193329,3946.9564,N,08404.9849,W,2,11,0.80,302.66,M,-33.324,M,,*73
2017-11-16 14:33:30 1510860810.967220: $GPRMC,193329,A,3946.9564,N,08404.9849,W,0.0000,0.000,161117,,*3F
2017-11-16 14:33:30 1510860810.967276: $GPGSA,A,3,8,10,15,18,21,20,24,27,32,14,138,,1.6,0.8,1.3*37
2017-11-16 14:33:31 1510860811.544252: $GPZDA,193330.00,16,11,2017,00,00*6E
2017-11-16 14:33:31 1510860811.544415: $GPGGA,193330,3946.9564,N,08404.9849,W,2,11,0.80,302.66,M,-33.324,M,,*7B
2017-11-16 14:33:31 1510860811.544477: $GPRMC,193330,A,3946.9564,N,08404.9849,W,0.0000,0.000,161117,,*37
2017-11-16 14:33:31 1510860811.544533: $GPGSA,A,3,8,10,15,18,21,20,24,27,32,14,138,,1.6,0.8,1.3*37
2017-11-16 14:33:32 1510860812.545293: $GPZDA,193331.00,16,11,2017,00,00*6F
2017-11-16 14:33:32 1510860812.545482: $GPGGA,193331,3946.9564,N,08404.9849,W,2,11,0.80,302.66,M,-33.324,M,,*7A
2017-11-16 14:33:32 1510860812.545549: $GPRMC,193331,A,3946.9564,N,08404.9849,W,0.0000,0.000,161117,,*36
2017-11-16 14:33:32 1510860812.545628: $GPGSA,A,3,8,10,15,18,21,20,24,27,32,14,138,,1.6,0.8,1.3*37
2017-11-16 14:33:32 1510860812.545712: $GPGBS,193331,2.12,M,3.10,M,7.47,M*33
