2017-11-16 17:14:12 1510870452.680702: {"class":"VERSION","release":"3.17","rev":"3.17","proto_major":3,"proto_minor":12}
2017-11-16 17:14:12 1510870452.681141: {"class":"DEVICES","devices":[{"class":"DEVICE","path":"/dev/ttyUSB0","driver":"SiRF","subtype":"9\u0006GSD4e_4.1.2-P1_RPATCH.05-F-GPS-4R-1510281 11/03/2015 307","activated":"2017-11-16T22:14:12.287Z","flags":1,"native":1,"bps":4800,"parity":"N","stopbits":1,"cycle":1.00}]}
2017-11-16 17:14:12 1510870452.681261: {"class":"WATCH","enable":true,"json":false,"nmea":true,"raw":0,"scaled":false,"timing":false,"split24":false,"pps":false}
2017-11-16 17:14:12 1510870452.736523: $GPGSV,3,1,12,01,19,309,41,10,57,142,47,22,12,312,39,12,24,058,49*75
2017-11-16 17:14:12 1510870452.736691: $GPGSV,3,2,12,14,62,310,47,18,26,141,45,24,04,046,00,11,10,289,36*74
2017-11-16 17:14:12 1510870452.736751: $GPGSV,3,3,12,25,36,102,47,31,46,219,48,32,70,001,48,138,38,213,44*44
2017-11-16 17:14:12 1510870452.849888: $GPZDA,221411.00,16,11,2017,00,00*60
2017-11-16 17:14:12 1510870452.850059: $GPGGA,221411,3946.9568,N,08404.9826,W,2,11,0.80,312.81,M,-33.324,M,,*78
2017-11-16 17:14:12 1510870452.850121: $GPRMC,221411,A,3946.9568,N,08404.9826,W,0.0000,0.000,161117,,*3C
2017-11-16 17:14:12 1510870452.850177: $GPGSA,A,3,1,10,22,12,14,18,11,25,31,32,138,,1.6,0.8,1.3*3E
2017-11-16 17:14:13 1510870453.399387: $GPZDA,221412.00,16,11,2017,00,00*63
2017-11-16 17:14:13 1510870453.399546: $GPGGA,221412,3946.9568,N,08404.9826,W,2,11,0.80,312.81,M,-33.324,M,,*7B
2017-11-16 17:14:13 1510870453.399607: $GPRMC,221412,A,3946.9568,N,08404.9826,W,0.0000,0.000,161117,,*3F
2017-11-16 17:14:13 1510870453.399662: $GPGSA,A,3,1,10,22,12,14,18,11,25,31,32,138,,1.6,0.8,1.3*3E
2017-11-16 17:14:14 1510870454.400273: $GPZDA,221413.00,16,11,2017,00,00*62
2017-11-16 17:14:14 1510870454.400429: $GPGGA,221413,3946.9568,N,08404.9826,W,2,11,0.80,312.81,M,-33.324,M,,*7A
2017-11-16 17:14:14 1510870454.400490: $GPRMC,221413,A,3946.9568,N,08404.9826,W,0.0000,0.000,161117,,*3E
2017-11-16 17:14:14 1510870454.400546: $GPGSA,A,3,1,10,22,12,14,18,11,25,31,32,138,,1.6,0.8,1.3*3E
2017-11-16 17:14:15 1510870455.746079: $GPGSV,3,1,12,01,19,309,42,10,57,142,47,22,12,312,40,12,24,058,49*78
2017-11-16 17:14:15 1510870455.746252: $GPGSV,3,2,12,14,62,310,47,18,26,141,44,24,04,046,00,11,10,289,36*75
2017-11-16 17:14:15 1510870455.746312: $GPGSV,3,3,12,25,36,102,47,31,46,219,48,32,70,001,48,138,38,213,44*44
2017-11-16 17:14:15 1510870455.859473: $GPZDA,221414.00,16,11,2017,00,00*65
2017-11-16 17:14:15 1510870455.859652: $GPGGA,221414,3946.9568,N,08404.9826,W,2,11,0.80,312.81,M,-33.324,M,,*7D
2017-11-16 17:14:15 1510870455.859713: $GPRMC,221414,A,3946.9568,N,08404.9826,W,0.0000,0.000,161117,,*39
2017-11-16 17:14:15 1510870455.859769: $GPGSA,A,3,1,10,22,12,14,18,11,25,31,32,138,,1.6,0.8,1.3*3E
2017-11-16 17:14:16 1510870456.485114: $GPZDA,221415.00,16,11,2017,00,00*64
2017-11-16 17:14:16 1510870456.485278: $GPGGA,221415,3946.9568,N,08404.9826,W,2,11,0.80,312.81,M,-33.324,M,,*7C
2017-11-16 17:14:16 1510870456.485339: $GPRMC,221415,A,3946.9568,N,08404.9826,W,0.0000,0.000,161117,,*38
2017-11-16 17:14:16 1510870456.485395: $GPGSA,A,3,1,10,22,12,14,18,11,25,31,32,138,,1.6,0.8,1.3*3E
2017-11-16 17:14:17 1510870457.416011: $GPZDA,221416.00,16,11,2017,00,00*67
2017-11-16 17:14:17 1510870457.416170: $GPGGA,221416,3946.9568,N,08404.9826,W,2,11,0.80,312.81,M,-33.324,M,,*7F
2017-11-16 17:14:17 1510870457.416231: $GPRMC,221416,A,3946.9568,N,08404.9826,W,0.0000,0.000,161117,,*3B
2017-11-16 17:14:17 1510870457.416287: $GPGSA,A,3,1,10,22,12,14,18,11,25,31,32,138,,1.6,0.8,1.3*3E
2017-11-16 17:14:18 1510870458.752704: $GPGSV,3,1,12,01,19,309,42,10,57,142,47,22,12,312,40,12,24,058,49*78
2017-11-16 17:14:18 1510870458.752881: $GPGSV,3,2,12,14,62,310,47,18,26,141,44,24,04,046,00,11,10,289,36*75
2017-11-16 17:14:18 1510870458.752942: $GPGSV,3,3,12,25,36,102,46,31,46,219,48,32,70,001,49,138,38,213,43*43
2017-11-16 17:14:18 1510870458.866043: $GPZDA,221417.00,16,11,2017,00,00*66
2017-11-16 17:14:18 1510870458.866207: $GPGGA,221417,3946.9568,N,08404.9826,W,2,11,0.80,312.81,M,-33.324,M,,*7E
2017-11-16 17:14:18 1510870458.866317: $GPRMC,221417,A,3946.9568,N,08404.9826,W,0.0000,0.000,161117,,*3A
2017-11-16 17:14:18 1510870458.866374: $GPGSA,A,3,1,10,22,12,14,18,11,25,31,32,138,,1.6,0.8,1.3*3E
2017-11-16 17:14:19 1510870459.400989: $GPZDA,221418.00,16,11,2017,00,00*69
2017-11-16 17:14:19 1510870459.401144: $GPGGA,221418,3946.9568,N,08404.9826,W,2,11,0.80,312.81,M,-33.324,M,,*71
2017-11-16 17:14:19 1510870459.401206: $GPRMC,221418,A,3946.9568,N,08404.9826,W,0.0000,0.000,161117,,*35
2017-11-16 17:14:19 1510870459.401261: $GPGSA,A,3,1,10,22,12,14,18,11,25,31,32,138,,1.6,0.8,1.3*3E
2017-11-16 17:14:20 1510870460.411893: $GPZDA,221419.00,16,11,2017,00,00*68
2017-11-16 17:14:20 1510870460.412051: $GPGGA,221419,3946.9568,N,08404.9826,W,2,11,0.80,312.81,M,-33.324,M,,*70
2017-11-16 17:14:20 1510870460.412113: $GPRMC,221419,A,3946.9568,N,08404.9826,W,0.0000,0.000,161117,,*34
2017-11-16 17:14:20 1510870460.412168: $GPGSA,A,3,1,10,22,12,14,18,11,25,31,32,138,,1.6,0.8,1.3*3E
2017-11-16 17:14:21 1510870461.753101: $GPGSV,3,1,12,01,19,309,42,10,57,142,47,22,12,312,41,12,24,058,49*79
2017-11-16 17:14:21 1510870461.753273: $GPGSV,3,2,12,14,62,310,47,18,26,141,44,24,04,046,00,11,10,289,35*76
2017-11-16 17:14:21 1510870461.753333: $GPGSV,3,3,12,25,36,102,46,31,46,219,48,32,70,001,48,138,38,213,43*42
2017-11-16 17:14:21 1510870461.866739: $GPZDA,221420.00,16,11,2017,00,00*62
2017-11-16 17:14:21 1510870461.866901: $GPGGA,221420,3946.9568,N,08404.9826,W,2,11,0.80,312.81,M,-33.324,M,,*7A
2017-11-16 17:14:21 1510870461.866961: $GPRMC,221420,A,3946.9568,N,08404.9826,W,0.0000,0.000,161117,,*3E
2017-11-16 17:14:21 1510870461.867018: $GPGSA,A,3,1,10,22,12,14,18,11,25,31,32,138,,1.6,0.8,1.3*3E
2017-11-16 17:14:22 1510870462.416379: $GPZDA,221421.00,16,11,2017,00,00*63
2017-11-16 17:14:22 1510870462.416535: $GPGGA,221421,3946.9568,N,08404.9826,W,2,11,0.80,312.81,M,-33.324,M,,*7B
2017-11-16 17:14:22 1510870462.416596: $GPRMC,221421,A,3946.9568,N,08404.9826,W,0.0000,0.000,161117,,*3F
2017-11-16 17:14:22 1510870462.416652: $GPGSA,A,3,1,10,22,12,14,18,11,25,31,32,138,,1.6,0.8,1.3*3E
