2017-11-15 18:53:54 1510790034.402351: {"class":"VERSION","release":"3.17","rev":"3.17","proto_major":3,"proto_minor":12}
2017-11-15 18:53:54 1510790034.402800: {"class":"DEVICES","devices":[{"class":"DEVICE","path":"/dev/ttyUSB0","driver":"SiRF","subtype":"9\u0006GSD4e_4.1.2-P1_RPATCH.05-F-GPS-4R-1510281 11/03/2015 307","activated":"2017-11-15T23:53:54.217Z","flags":1,"native":1,"bps":4800,"parity":"N","stopbits":1,"cycle":1.00}]}
2017-11-15 18:53:54 1510790034.402911: {"class":"WATCH","enable":true,"json":false,"nmea":true,"raw":0,"scaled":false,"timing":false,"split24":false,"pps":false}
2017-11-15 18:53:54 1510790034.665376: $GPGSV,3,1,11,25,30,049,00,14,65,063,20,03,28,312,12,32,49,090,26*78
2017-11-15 18:53:54 1510790034.665547: $GPGSV,3,2,11,31,79,331,25,26,35,177,23,01,15,267,00,16,06,190,07*78
2017-11-15 18:53:54 1510790034.665607: $GPGSV,3,3,11,10,13,157,00,22,45,294,08,29,04,085,00*4D
2017-11-15 18:53:54 1510790034.778716: $GPZDA,235353.00,15,11,2017,00,00*67
2017-11-15 18:53:54 1510790034.778882: $GPGGA,235353,3946.9567,N,08404.9518,W,1,06,1.60,316.05,M,-33.324,M,,*71
2017-11-15 18:53:54 1510790034.778942: $GPRMC,235353,A,3946.9567,N,08404.9518,W,0.7267,93.794,151117,,*00
2017-11-15 18:53:54 1510790034.778997: $GPGSA,A,3,14,3,32,31,26,16,,,,,,,3.4,1.6,2.9*0F
2017-11-15 18:53:55 1510790035.329945: $GPZDA,235354.00,15,11,2017,00,00*60
2017-11-15 18:53:55 1510790035.330102: $GPGGA,235354,3946.9567,N,08404.9518,W,1,06,1.40,316.05,M,-33.324,M,,*74
2017-11-15 18:53:55 1510790035.330161: $GPRMC,235354,A,3946.9567,N,08404.9518,W,0.5306,114.352,151117,,*33
2017-11-15 18:53:55 1510790035.330217: $GPGSA,A,3,14,3,32,31,26,16,,,,,,,3.4,1.4,2.9*0D
2017-11-15 18:53:56 1510790036.329986: $GPZDA,235355.00,15,11,2017,00,00*61
2017-11-15 18:53:56 1510790036.330171: $GPGGA,235355,3946.9567,N,08404.9518,W,1,06,1.40,316.05,M,-33.324,M,,*75
2017-11-15 18:53:56 1510790036.330236: $GPRMC,235355,A,3946.9567,N,08404.9518,W,0.4179,148.778,151117,,*3C
2017-11-15 18:53:56 1510790036.330291: $GPGSA,A,3,14,3,32,31,26,16,,,,,,,3.4,1.4,2.9*0D
2017-11-15 18:53:57 1510790037.665751: $GPGSV,3,1,11,25,30,049,00,14,65,063,20,03,28,312,12,32,49,090,27*79
2017-11-15 18:53:57 1510790037.665919: $GPGSV,3,2,11,31,79,331,25,26,35,177,23,01,15,267,00,16,06,190,09*76
2017-11-15 18:53:57 1510790037.665978: $GPGSV,3,3,11,10,13,157,00,22,45,294,10,29,04,085,00*44
2017-11-15 18:53:57 1510790037.779040: $GPZDA,235356.00,15,11,2017,00,00*62
2017-11-15 18:53:57 1510790037.779216: $GPGGA,235356,3946.9560,N,08404.9519,W,1,07,1.40,316.17,M,-33.324,M,,*72
2017-11-15 18:53:57 1510790037.779275: $GPRMC,235356,A,3946.9560,N,08404.9519,W,0.2422,93.794,151117,,*01
2017-11-15 18:53:57 1510790037.779331: $GPGSA,A,3,14,3,32,31,26,16,22,,,,,,3.4,1.4,2.9*0D
2017-11-15 18:53:58 1510790038.329252: $GPZDA,235357.00,15,11,2017,00,00*63
2017-11-15 18:53:58 1510790038.329426: $GPGGA,235357,3946.9560,N,08404.9519,W,1,07,1.40,316.17,M,-33.324,M,,*73
2017-11-15 18:53:58 1510790038.329487: $GPRMC,235357,A,3946.9560,N,08404.9519,W,0.1867,0.000,151117,,*3E
2017-11-15 18:53:58 1510790038.329542: $GPGSA,A,3,14,3,32,31,26,16,22,,,,,,3.4,1.4,2.9*0D
2017-11-15 18:53:59 1510790039.328375: $GPZDA,235358.00,15,11,2017,00,00*6C
2017-11-15 18:53:59 1510790039.328537: $GPGGA,235358,3946.9560,N,08404.9519,W,1,07,1.40,316.17,M,-33.324,M,,*7C
2017-11-15 18:53:59 1510790039.328614: $GPRMC,235358,A,3946.9560,N,08404.9519,W,0.3155,309.994,151117,,*35
2017-11-15 18:53:59 1510790039.328671: $GPGSA,A,3,14,3,32,31,26,16,22,,,,,,3.4,1.4,2.9*0D
2017-11-15 18:54:00 1510790040.664113: $GPGSV,3,1,11,25,30,049,00,14,65,063,20,03,28,312,12,32,49,090,28*76
2017-11-15 18:54:00 1510790040.664316: $GPGSV,3,2,11,31,79,331,25,26,35,177,23,01,15,267,00,16,06,190,09*76
2017-11-15 18:54:00 1510790040.664378: $GPGSV,3,3,11,10,13,157,00,22,45,294,10,29,04,085,00*44
2017-11-15 18:54:00 1510790040.777532: $GPZDA,235359.00,15,11,2017,00,00*6D
2017-11-15 18:54:00 1510790040.777697: $GPGGA,235359,3946.9560,N,08404.9519,W,1,07,1.40,316.17,M,-33.324,M,,*7D
2017-11-15 18:54:00 1510790040.777757: $GPRMC,235359,A,3946.9560,N,08404.9519,W,0.4207,219.347,151117,,*33
2017-11-15 18:54:00 1510790040.777864: $GPGSA,A,3,14,3,32,31,26,16,22,,,,,,3.4,1.4,2.9*0D
2017-11-15 18:54:01 1510790041.402832: $GPZDA,235400.00,15,11,2017,00,00*66
2017-11-15 18:54:01 1510790041.402993: $GPGGA,235400,3946.9560,N,08404.9526,W,1,07,1.40,316.09,M,-33.324,M,,*75
2017-11-15 18:54:01 1510790041.403054: $GPRMC,235400,A,3946.9560,N,08404.9526,W,0.4207,219.347,151117,,*34
2017-11-15 18:54:01 1510790041.403110: $GPGSA,A,3,14,3,32,31,26,16,22,,,,,,3.4,1.4,2.9*0D
2017-11-15 18:54:02 1510790042.330047: $GPZDA,235401.00,15,11,2017,00,00*67
2017-11-15 18:54:02 1510790042.330226: $GPGGA,235401,3946.9560,N,08404.9526,W,1,07,1.40,316.09,M,-33.324,M,,*74
2017-11-15 18:54:02 1510790042.330314: $GPRMC,235401,A,3946.9560,N,08404.9526,W,0.3155,309.994,151117,,*32
2017-11-15 18:54:02 1510790042.330372: $GPGSA,A,3,14,3,32,31,26,16,22,,,,,,3.4,1.4,2.9*0D
2017-11-15 18:54:03 1510790043.709603: $GPGSV,3,1,10,14,65,063,19,03,28,312,13,32,49,090,28,31,79,331,26*7C
2017-11-15 18:54:03 1510790043.709774: $GPGSV,3,2,10,26,35,177,23,25,30,049,00,16,06,190,06,01,15,267,00*7B
2017-11-15 18:54:03 1510790043.709835: $GPGSV,3,3,10,22,45,294,09,10,13,157,00*7F
2017-11-15 18:54:03 1510790043.823313: $GPZDA,235402.00,15,11,2017,00,00*64
2017-11-15 18:54:03 1510790043.823456: $GPGGA,235402,3946.9560,N,08404.9526,W,1,07,1.40,316.09,M,-33.324,M,,*77
2017-11-15 18:54:03 1510790043.823515: $GPRMC,235402,A,3946.9560,N,08404.9526,W,0.5857,338.291,151117,,*30
2017-11-15 18:54:03 1510790043.823571: $GPGSA,A,3,14,3,32,31,26,16,22,,,,,,3.4,1.4,2.9*0D
2017-11-15 18:54:04 1510790044.366633: $GPZDA,235403.00,15,11,2017,00,00*65
2017-11-15 18:54:04 1510790044.366854: $GPGGA,235403,3946.9561,N,08404.9533,W,1,07,1.40,316.01,M,-33.324,M,,*7B
2017-11-15 18:54:04 1510790044.366918: $GPRMC,235403,A,3946.9561,N,08404.9533,W,0.3155,309.994,151117,,*35
2017-11-15 18:54:04 1510790044.366975: $GPGSA,A,3,14,3,32,31,26,16,22,,,,,,3.4,1.4,2.9*0D
2017-11-15 18:54:05 1510790045.366148: $GPZDA,235404.00,15,11,2017,00,00*62
2017-11-15 18:54:05 1510790045.366306: $GPGGA,235404,3946.9561,N,08404.9533,W,1,07,1.40,316.01,M,-33.324,M,,*7C
2017-11-15 18:54:05 1510790045.366368: $GPRMC,235404,A,3946.9561,N,08404.9533,W,0.5287,2.716,151117,,*34
2017-11-15 18:54:05 1510790045.366425: $GPGSA,A,3,14,3,32,31,26,16,22,,,,,,3.4,1.4,2.9*0D
2017-11-15 18:54:06 1510790046.702426: $GPGSV,3,1,10,14,65,063,19,03,28,312,14,32,49,090,28,31,79,331,26*7B
2017-11-15 18:54:06 1510790046.702594: $GPGSV,3,2,10,26,35,177,23,25,30,049,00,16,06,190,06,01,15,267,00*7B
2017-11-15 18:54:06 1510790046.702653: $GPGSV,3,3,10,22,45,294,10,10,13,157,00*77
2017-11-15 18:54:06 1510790046.815734: $GPZDA,235405.00,15,11,2017,00,00*63
2017-11-15 18:54:06 1510790046.815897: $GPGGA,235405,3946.9561,N,08404.9533,W,1,06,1.40,316.01,M,-33.324,M,,*7C
2017-11-15 18:54:06 1510790046.815957: $GPRMC,235405,A,3946.9561,N,08404.9533,W,0.2422,93.794,151117,,*09
2017-11-15 18:54:06 1510790046.816013: $GPGSA,A,3,14,3,32,31,26,22,,,,,,,3.4,1.4,2.9*0A
2017-11-15 18:54:07 1510790047.372005: $GPZDA,235406.00,15,11,2017,00,00*60
2017-11-15 18:54:07 1510790047.372184: $GPGGA,235406,3946.9556,N,08404.9533,W,1,06,1.40,315.37,M,-33.324,M,,*7D
2017-11-15 18:54:07 1510790047.372245: $GPRMC,235406,A,3946.9556,N,08404.9533,W,0.3155,129.994,151117,,*34
2017-11-15 18:54:07 1510790047.372319: $GPGSA,A,3,14,3,32,31,26,22,,,,,,,3.4,1.4,2.9*0A
2017-11-15 18:54:08 1510790048.372490: $GPZDA,235407.00,15,11,2017,00,00*61
2017-11-15 18:54:08 1510790048.372671: $GPGGA,235407,3946.9556,N,08404.9533,W,1,06,1.40,315.37,M,-33.324,M,,*7C
2017-11-15 18:54:08 1510790048.372731: $GPRMC,235407,A,3946.9556,N,08404.9533,W,0.4207,39.347,151117,,*02
2017-11-15 18:54:08 1510790048.372787: $GPGSA,A,3,14,3,32,31,26,22,,,,,,,3.4,1.4,2.9*0A
2017-11-15 18:54:09 1510790049.700920: $GPGSV,3,1,11,25,30,049,00,14,65,063,19,03,28,312,15,32,49,090,28*7B
2017-11-15 18:54:09 1510790049.701086: $GPGSV,3,2,11,31,79,331,26,26,35,177,23,01,15,267,00,16,06,190,04*78
2017-11-15 18:54:09 1510790049.701166: $GPGSV,3,3,11,10,13,157,00,22,45,294,10,29,04,085,00*44
2017-11-15 18:54:09 1510790049.814595: $GPZDA,235408.00,15,11,2017,00,00*6E
2017-11-15 18:54:09 1510790049.814756: $GPGGA,235408,3946.9556,N,08404.9533,W,1,06,1.40,315.37,M,-33.324,M,,*73
2017-11-15 18:54:09 1510790049.814817: $GPRMC,235408,A,3946.9556,N,08404.9533,W,0.0000,0.000,151117,,*36
2017-11-15 18:54:09 1510790049.814873: $GPGSA,A,3,14,3,32,31,26,22,,,,,,,3.4,1.4,2.9*0A
2017-11-15 18:54:10 1510790050.365435: $GPZDA,235409.00,15,11,2017,00,00*6F
2017-11-15 18:54:10 1510790050.365601: $GPGGA,235409,3946.9557,N,08404.9540,W,1,06,1.40,315.29,M,-33.324,M,,*78
2017-11-15 18:54:10 1510790050.365661: $GPRMC,235409,A,3946.9557,N,08404.9540,W,0.3423,4.197,151117,,*3F
2017-11-15 18:54:10 1510790050.365717: $GPGSA,A,3,14,3,32,31,26,22,,,,,,,3.4,1.4,2.9*0A
2017-11-15 18:54:11 1510790051.329150: $GPZDA,235410.00,15,11,2017,00,00*67
2017-11-15 18:54:11 1510790051.329318: $GPGGA,235410,3946.9557,N,08404.9540,W,1,06,1.40,315.29,M,-33.324,M,,*70
2017-11-15 18:54:11 1510790051.329380: $GPRMC,235410,A,3946.9557,N,08404.9540,W,0.1867,180.000,151117,,*3B
2017-11-15 18:54:11 1510790051.329436: $GPGSA,A,3,14,3,32,31,26,22,,,,,,,3.4,1.4,2.9*0A
2017-11-15 18:54:12 1510790052.707427: $GPGSV,3,1,10,14,65,063,18,03,28,312,16,32,49,090,29,31,79,331,26*79
2017-11-15 18:54:12 1510790052.707595: $GPGSV,3,2,10,26,35,177,23,25,30,049,00,16,06,190,08,01,15,267,00*75
2017-11-15 18:54:12 1510790052.707653: $GPGSV,3,3,10,22,45,294,10,10,13,157,00*77
2017-11-15 18:54:12 1510790052.820729: $GPZDA,235411.00,15,11,2017,00,00*66
2017-11-15 18:54:12 1510790052.820883: $GPGGA,235411,3946.9557,N,08404.9540,W,1,07,1.40,315.29,M,-33.324,M,,*70
2017-11-15 18:54:12 1510790052.820941: $GPRMC,235411,A,3946.9557,N,08404.9540,W,0.3155,309.994,151117,,*37
2017-11-15 18:54:12 1510790052.820996: $GPGSA,A,3,14,3,32,31,26,16,22,,,,,,3.4,1.4,2.9*0D
2017-11-15 18:54:13 1510790053.366643: $GPZDA,235412.00,15,11,2017,00,00*65
2017-11-15 18:54:13 1510790053.366843: $GPGGA,235412,3946.9553,N,08404.9541,W,1,07,1.40,316.06,M,-33.324,M,,*78
2017-11-15 18:54:13 1510790053.366907: $GPRMC,235412,A,3946.9553,N,08404.9541,W,0.5951,238.684,151117,,*36
2017-11-15 18:54:13 1510790053.366963: $GPGSA,A,3,14,3,32,31,26,16,22,,,,,,3.4,1.4,2.9*0D
2017-11-15 18:54:14 1510790054.366245: $GPZDA,235413.00,15,11,2017,00,00*64
2017-11-15 18:54:14 1510790054.366408: $GPGGA,235413,3946.9554,N,08404.9548,W,1,07,1.40,315.98,M,-33.324,M,,*73
2017-11-15 18:54:14 1510790054.366470: $GPRMC,235413,A,3946.9554,N,08404.9548,W,0.0000,0.000,151117,,*32
2017-11-15 18:54:14 1510790054.366525: $GPGSA,A,3,14,3,32,31,26,16,22,,,,,,3.4,1.4,2.9*0D
2017-11-15 18:54:15 1510790055.700855: $GPGSV,3,1,10,14,65,063,18,03,28,312,16,32,49,090,29,31,79,331,26*79
2017-11-15 18:54:15 1510790055.701024: $GPGSV,3,2,10,26,35,177,23,25,30,049,00,01,15,267,00,10,13,157,00*74
2017-11-15 18:54:15 1510790055.701083: $GPGSV,3,3,10,22,45,294,12,16,06,190,00*7C
2017-11-15 18:54:15 1510790055.814160: $GPZDA,235414.00,15,11,2017,00,00*63
2017-11-15 18:54:15 1510790055.814312: $GPGGA,235414,3946.9550,N,08404.9548,W,1,06,1.40,315.34,M,-33.324,M,,*77
2017-11-15 18:54:15 1510790055.814374: $GPRMC,235414,A,3946.9550,N,08404.9548,W,0.1867,180.000,151117,,*30
2017-11-15 18:54:15 1510790055.814429: $GPGSA,A,3,14,3,32,31,26,22,,,,,,,3.4,1.4,2.9*0A
2017-11-15 18:54:16 1510790056.440778: $GPZDA,235415.00,15,11,2017,00,00*62
2017-11-15 18:54:16 1510790056.440954: $GPGGA,235415,3946.9550,N,08404.9548,W,1,06,1.40,315.34,M,-33.324,M,,*76
2017-11-15 18:54:16 1510790056.441015: $GPRMC,235415,A,3946.9550,N,08404.9548,W,0.5857,158.291,151117,,*39
2017-11-15 18:54:16 1510790056.441088: $GPGSA,A,3,14,3,32,31,26,22,,,,,,,3.4,1.4,2.9*0A
2017-11-15 18:54:17 1510790057.366677: $GPZDA,235416.00,15,11,2017,00,00*61
2017-11-15 18:54:17 1510790057.366893: $GPGGA,235416,3946.9550,N,08404.9548,W,1,06,1.40,315.34,M,-33.324,M,,*75
2017-11-15 18:54:17 1510790057.366954: $GPRMC,235416,A,3946.9550,N,08404.9548,W,0.4179,148.778,151117,,*3D
2017-11-15 18:54:17 1510790057.367010: $GPGSA,A,3,14,3,32,31,26,22,,,,,,,3.4,1.4,2.9*0A
2017-11-15 18:54:18 1510790058.701239: $GPGSV,3,1,11,25,30,049,00,14,65,063,18,03,28,312,16,32,49,090,29*78
2017-11-15 18:54:18 1510790058.701406: $GPGSV,3,2,11,31,79,331,27,26,35,177,23,01,15,267,00,10,13,157,00*74
2017-11-15 18:54:18 1510790058.701466: $GPGSV,3,3,11,16,06,190,00,22,45,294,11,29,04,085,00*4C
2017-11-15 18:54:18 1510790058.814508: $GPZDA,235417.00,15,11,2017,00,00*60
2017-11-15 18:54:18 1510790058.814650: $GPGGA,235417,3946.9550,N,08404.9548,W,1,06,1.40,315.34,M,-33.324,M,,*74
2017-11-15 18:54:18 1510790058.814710: $GPRMC,235417,A,3946.9550,N,08404.9548,W,0.4207,39.347,151117,,*09
2017-11-15 18:54:18 1510790058.814766: $GPGSA,A,3,14,3,32,31,26,22,,,,,,,3.4,1.4,2.9*0A
2017-11-15 18:54:19 1510790059.329142: $GPZDA,235418.00,15,11,2017,00,00*6F
2017-11-15 18:54:19 1510790059.329317: $GPGGA,235418,3946.9550,N,08404.9548,W,1,06,1.40,315.34,M,-33.324,M,,*7B
2017-11-15 18:54:19 1510790059.329377: $GPRMC,235418,A,3946.9550,N,08404.9548,W,0.3155,309.994,151117,,*31
2017-11-15 18:54:19 1510790059.329434: $GPGSA,A,3,14,3,32,31,26,22,,,,,,,3.4,1.4,2.9*0A
2017-11-15 18:54:20 1510790060.365453: $GPZDA,235419.00,15,11,2017,00,00*6E
2017-11-15 18:54:20 1510790060.365613: $GPGGA,235419,3946.9550,N,08404.9548,W,1,06,1.40,315.34,M,-33.324,M,,*7A
2017-11-15 18:54:20 1510790060.365674: $GPRMC,235419,A,3946.9550,N,08404.9548,W,0.5287,2.716,151117,,*36
2017-11-15 18:54:20 1510790060.365728: $GPGSA,A,3,14,3,32,31,26,22,,,,,,,3.4,1.4,2.9*0A
2017-11-15 18:54:21 1510790061.702816: $GPGSV,3,1,11,25,30,049,00,14,65,063,18,03,28,312,16,32,49,090,29*78
2017-11-15 18:54:21 1510790061.702987: $GPGSV,3,2,11,31,79,331,27,26,35,177,23,01,15,267,00,10,13,157,00*74
2017-11-15 18:54:21 1510790061.703066: $GPGSV,3,3,11,16,06,190,00,22,45,294,11,29,04,085,00*4C
2017-11-15 18:54:21 1510790061.816553: $GPZDA,235420.00,15,11,2017,00,00*64
2017-11-15 18:54:21 1510790061.816762: $GPGGA,235420,3946.9553,N,08404.9547,W,1,06,1.40,314.57,M,-33.324,M,,*78
2017-11-15 18:54:21 1510790061.816833: $GPRMC,235420,A,3946.9553,N,08404.9547,W,0.8709,3.298,151117,,*3C
2017-11-15 18:54:21 1510790061.816889: $GPGSA,A,3,14,3,32,31,26,22,,,,,,,3.4,1.4,2.9*0A
2017-11-15 18:54:22 1510790062.328255: $GPZDA,235421.00,15,11,2017,00,00*65
2017-11-15 18:54:22 1510790062.328417: $GPGGA,235421,3946.9557,N,08404.9547,W,1,06,1.40,315.21,M,-33.324,M,,*7D
2017-11-15 18:54:22 1510790062.328478: $GPRMC,235421,A,3946.9557,N,08404.9547,W,1.5555,3.693,151117,,*31
2017-11-15 18:54:22 1510790062.328534: $GPGSA,A,3,14,3,32,31,26,22,,,,,,,3.4,1.4,2.9*0A
2017-11-15 18:54:23 1510790063.328418: $GPZDA,235422.00,15,11,2017,00,00*66
2017-11-15 18:54:23 1510790063.328680: $GPGGA,235422,3946.9561,N,08404.9553,W,1,06,1.40,314.37,M,-33.324,M,,*78
2017-11-15 18:54:23 1510790063.328798: $GPRMC,235422,A,3946.9561,N,08404.9553,W,1.2132,3.551,151117,,*3D
2017-11-15 18:54:23 1510790063.328910: $GPGSA,A,3,14,3,32,31,26,22,,,,,,,3.4,1.4,2.9*0A
