2017-12-01 11:29:23 1512145763.477055: {"class":"VERSION","release":"3.16","rev":"3.16-4","proto_major":3,"proto_minor":11}
2017-12-01 11:29:23 1512145763.477533: {"class":"DEVICES","devices":[{"class":"DEVICE","path":"/dev/ttyUSB0","driver":"SiRF","subtype":"9\u0006GSD4e_4.1.2-P1_RPATCH.05-F-GPS-4R-1510281 11/03/2015 307","activated":"2017-12-01T16:29:23.456Z","flags":1,"native":1,"bps":4800,"parity":"N","stopbits":1,"cycle":1.00}]}
2017-12-01 11:29:23 1512145763.477650: {"class":"WATCH","enable":true,"json":false,"nmea":true,"raw":0,"scaled":false,"timing":false,"split24":false,"pps":false}
2017-12-01 11:29:24 1512145764.417675: $GPZDA,162925.00,01,12,2017,00,00*6B
2017-12-01 11:29:24 1512145764.417852: $GPGGA,162925,3946.9576,N,08404.9844,W,2,11,1.00,295.39,M,-33.324,M,,*79
2017-12-01 11:29:24 1512145764.417939: $GPRMC,162925,A,3946.9576,N,08404.9844,W,0.0000,0.000,011217,,*3C
2017-12-01 11:29:24 1512145764.418002: $GPGSA,A,3,5,10,13,15,18,20,21,24,29,27,138,,2.0,1.0,1.5*3D
2017-12-01 11:29:25 1512145765.753456: $GPGSV,3,1,12,05,18,073,39,10,09,267,37,13,48,054,46,15,79,102,48*7D
2017-12-01 11:29:25 1512145765.753651: $GPGSV,3,2,12,18,39,280,44,20,66,039,44,21,61,309,47,24,15,151,38*7B
2017-12-01 11:29:25 1512145765.753718: $GPGSV,3,3,12,29,31,196,48,27,04,327,31,04,17,127,00,138,38,213,46*41
2017-12-01 11:29:25 1512145765.867038: $GPZDA,162926.00,01,12,2017,00,00*68
2017-12-01 11:29:25 1512145765.867241: $GPGGA,162926,3946.9576,N,08404.9844,W,2,11,1.00,295.39,M,-33.324,M,,*7A
2017-12-01 11:29:25 1512145765.867308: $GPRMC,162926,A,3946.9576,N,08404.9844,W,0.0000,0.000,011217,,*3F
2017-12-01 11:29:25 1512145765.867370: $GPGSA,A,3,5,10,13,15,18,20,21,24,29,27,138,,2.0,1.0,1.5*3D
2017-12-01 11:29:26 1512145766.418906: $GPZDA,162927.00,01,12,2017,00,00*69
2017-12-01 11:29:26 1512145766.419122: $GPGGA,162927,3946.9576,N,08404.9844,W,2,11,1.00,295.39,M,-33.324,M,,*7B
2017-12-01 11:29:26 1512145766.419195: $GPRMC,162927,A,3946.9576,N,08404.9844,W,0.0000,0.000,011217,,*3E
2017-12-01 11:29:26 1512145766.419277: $GPGSA,A,3,5,10,13,15,18,20,21,24,29,27,138,,2.0,1.0,1.5*3D
2017-12-01 11:29:27 1512145767.418739: $GPZDA,162928.00,01,12,2017,00,00*66
2017-12-01 11:29:27 1512145767.419432: $GPGGA,162928,3946.9576,N,08404.9844,W,2,11,1.00,295.39,M,-33.324,M,,*74
2017-12-01 11:29:27 1512145767.419543: $GPRMC,162928,A,3946.9576,N,08404.9844,W,0.0000,0.000,011217,,*31
2017-12-01 11:29:27 1512145767.419629: $GPGSA,A,3,5,10,13,15,18,20,21,24,29,27,138,,2.0,1.0,1.5*3D
2017-12-01 11:29:27 1512145767.419690: $GPGBS,162928,2.67,M,3.86,M,8.82,M*34
2017-12-01 11:29:28 1512145768.754180: $GPGSV,3,1,12,05,18,073,39,10,09,267,37,13,48,054,46,15,79,102,48*7D
2017-12-01 11:29:28 1512145768.754389: $GPGSV,3,2,12,18,39,280,44,20,66,039,44,21,61,309,47,24,15,151,38*7B
2017-12-01 11:29:28 1512145768.754456: $GPGSV,3,3,12,29,31,196,48,27,04,327,31,04,17,127,00,138,38,213,46*41
2017-12-01 11:29:28 1512145768.867565: $GPZDA,162929.00,01,12,2017,00,00*67
2017-12-01 11:29:28 1512145768.867741: $GPGGA,162929,3946.9576,N,08404.9844,W,2,11,1.00,295.39,M,-33.324,M,,*75
2017-12-01 11:29:28 1512145768.867810: $GPRMC,162929,A,3946.9576,N,08404.9844,W,0.0000,0.000,011217,,*30
2017-12-01 11:29:28 1512145768.867872: $GPGSA,A,3,5,10,13,15,18,20,21,24,29,27,138,,2.0,1.0,1.5*3D
2017-12-01 11:29:29 1512145769.493221: $GPZDA,162930.00,01,12,2017,00,00*6F
2017-12-01 11:29:29 1512145769.493405: $GPGGA,162930,3946.9576,N,08404.9844,W,2,11,1.00,295.39,M,-33.324,M,,*7D
2017-12-01 11:29:29 1512145769.493471: $GPRMC,162930,A,3946.9576,N,08404.9844,W,0.0000,0.000,011217,,*38
2017-12-01 11:29:29 1512145769.493531: $GPGSA,A,3,5,10,13,15,18,20,21,24,29,27,138,,2.0,1.0,1.5*3D
2017-12-01 11:29:30 1512145770.424087: $GPZDA,162931.00,01,12,2017,00,00*6E
2017-12-01 11:29:30 1512145770.424287: $GPGGA,162931,3946.9576,N,08404.9844,W,2,11,1.00,295.39,M,-33.324,M,,*7C
2017-12-01 11:29:30 1512145770.424356: $GPRMC,162931,A,3946.9576,N,08404.9844,W,0.0000,0.000,011217,,*39
2017-12-01 11:29:30 1512145770.424416: $GPGSA,A,3,5,10,13,15,18,20,21,24,29,27,138,,2.0,1.0,1.5*3D
2017-12-01 11:29:31 1512145771.757029: $GPGSV,3,1,12,05,18,073,39,10,09,267,37,13,48,054,46,15,79,102,48*7D
2017-12-01 11:29:31 1512145771.757257: $GPGSV,3,2,12,18,39,280,44,20,66,039,43,21,61,309,47,24,15,151,38*7C
2017-12-01 11:29:31 1512145771.757326: $GPGSV,3,3,12,29,31,196,48,27,04,327,30,30,01,030,06,138,38,213,47*40
2017-12-01 11:29:31 1512145771.870680: $GPZDA,162932.00,01,12,2017,00,00*6D
2017-12-01 11:29:31 1512145771.870850: $GPGGA,162932,3946.9576,N,08404.9844,W,2,11,1.00,295.39,M,-33.324,M,,*7F
2017-12-01 11:29:31 1512145771.870917: $GPRMC,162932,A,3946.9576,N,08404.9844,W,0.0000,0.000,011217,,*3A
2017-12-01 11:29:31 1512145771.870977: $GPGSA,A,3,5,10,13,15,18,20,21,24,29,27,138,,2.0,1.0,1.5*3D
2017-12-01 11:29:32 1512145772.422856: $GPZDA,162933.00,01,12,2017,00,00*6C
2017-12-01 11:29:32 1512145772.423059: $GPGGA,162933,3946.9576,N,08404.9844,W,2,11,1.00,295.39,M,-33.324,M,,*7E
2017-12-01 11:29:32 1512145772.423130: $GPRMC,162933,A,3946.9576,N,08404.9844,W,0.0000,0.000,011217,,*3B
2017-12-01 11:29:32 1512145772.423208: $GPGSA,A,3,5,10,13,15,18,20,21,24,29,27,138,,2.0,1.0,1.5*3D
2017-12-01 11:29:33 1512145773.417420: $GPZDA,162934.00,01,12,2017,00,00*6B
2017-12-01 11:29:33 1512145773.417596: $GPGGA,162934,3946.9576,N,08404.9844,W,2,11,1.00,295.39,M,-33.324,M,,*79
2017-12-01 11:29:33 1512145773.417663: $GPRMC,162934,A,3946.9576,N,08404.9844,W,0.0000,0.000,011217,,*3C
2017-12-01 11:29:33 1512145773.417724: $GPGSA,A,3,5,10,13,15,18,20,21,24,29,27,138,,2.0,1.0,1.5*3D
