2017-12-31 17:49:07 1514760547.656758: {"class":"VERSION","release":"3.16","rev":"3.16-4","proto_major":3,"proto_minor":11}
2017-12-31 17:49:07 1514760547.657209: {"class":"DEVICES","devices":[{"class":"DEVICE","path":"/dev/ttyUSB0","driver":"SiRF","activated":"2017-12-31T22:49:07.510Z","flags":1,"native":1,"bps":4800,"parity":"N","stopbits":1,"cycle":1.00}]}
2017-12-31 17:49:07 1514760547.657331: {"class":"WATCH","enable":true,"json":false,"nmea":true,"raw":0,"scaled":false,"timing":false,"split24":false,"pps":false}
2017-12-31 17:49:08 1514760548.365576: $GPZDA,224909.00,31,12,2017,00,00*67
2017-12-31 17:49:08 1514760548.365740: $GPGGA,224909,3946.9570,N,08404.9857,W,2,10,0.60,304.63,M,-33.324,M,,*72
2017-12-31 17:49:08 1514760548.365807: $GPRMC,224909,A,3946.9570,N,08404.9857,W,0.0000,0.000,311217,,*34
2017-12-31 17:49:08 1514760548.365868: $GPGSA,A,3,22,23,9,3,16,29,31,27,26,135,,,1.7,0.6,1.3*03
2017-12-31 17:49:09 1514760549.682623: $GPGSV,3,1,12,22,30,220,45,23,45,309,44,09,12,312,44,03,38,243,45*76
2017-12-31 17:49:09 1514760549.682803: $GPGSV,3,2,12,16,70,192,44,29,09,037,34,14,23,129,33,31,35,067,42*7D
2017-12-31 17:49:09 1514760549.682870: $GPGSV,3,3,12,27,14,157,18,32,02,132,18,26,71,060,46,135,22,240,44*4D
2017-12-31 17:49:09 1514760549.796341: $GPZDA,224910.00,31,12,2017,00,00*6F
2017-12-31 17:49:09 1514760549.796472: $GPGGA,224910,3946.9570,N,08404.9857,W,2,12,0.60,304.63,M,-33.324,M,,*78
2017-12-31 17:49:09 1514760549.796539: $GPRMC,224910,A,3946.9570,N,08404.9857,W,0.0000,0.000,311217,,*3C
2017-12-31 17:49:09 1514760549.796600: $GPGSA,A,3,22,23,9,3,16,29,14,31,27,32,26,135,1.7,0.6,1.3*07
2017-12-31 17:49:10 1514760550.421291: $GPZDA,224911.00,31,12,2017,00,00*6E
2017-12-31 17:49:10 1514760550.421438: $GPGGA,224911,3946.9570,N,08404.9857,W,2,12,0.60,304.63,M,-33.324,M,,*79
2017-12-31 17:49:10 1514760550.421506: $GPRMC,224911,A,3946.9570,N,08404.9857,W,0.0000,0.000,311217,,*3D
2017-12-31 17:49:10 1514760550.421567: $GPGSA,A,3,22,23,9,3,16,29,14,31,27,32,26,135,1.7,0.6,1.3*07
2017-12-31 17:49:11 1514760551.345925: $GPZDA,224912.00,31,12,2017,00,00*6D
2017-12-31 17:49:11 1514760551.346102: $GPGGA,224912,3946.9570,N,08404.9857,W,2,12,0.60,304.63,M,-33.324,M,,*7A
2017-12-31 17:49:11 1514760551.346173: $GPRMC,224912,A,3946.9570,N,08404.9857,W,0.0000,0.000,311217,,*3E
2017-12-31 17:49:11 1514760551.346238: $GPGSA,A,3,22,23,9,3,16,29,14,31,27,32,26,135,1.7,0.6,1.3*07
2017-12-31 17:49:12 1514760552.709157: $GPGSV,3,1,12,22,30,220,44,23,45,309,43,09,12,312,44,03,38,243,45*70
2017-12-31 17:49:12 1514760552.709342: $GPGSV,3,2,12,16,70,192,44,29,09,037,35,14,23,129,00,31,35,067,42*7C
2017-12-31 17:49:12 1514760552.709408: $GPGSV,3,3,12,27,14,157,22,32,02,132,19,26,71,060,46,135,22,240,44*45
2017-12-31 17:49:12 1514760552.822788: $GPZDA,224913.00,31,12,2017,00,00*6C
2017-12-31 17:49:12 1514760552.822914: $GPGGA,224913,3946.9570,N,08404.9857,W,2,11,0.80,304.63,M,-33.324,M,,*76
2017-12-31 17:49:12 1514760552.822980: $GPRMC,224913,A,3946.9570,N,08404.9857,W,0.0000,0.000,311217,,*3F
2017-12-31 17:49:12 1514760552.823040: $GPGSA,A,3,22,23,9,3,16,29,31,27,32,26,135,,1.7,0.8,1.3*0C
2017-12-31 17:49:13 1514760553.561123: $GPZDA,224914.00,31,12,2017,00,00*6B
2017-12-31 17:49:13 1514760553.561325: $GPGGA,224914,3946.9570,N,08404.9857,W,2,11,0.60,304.63,M,-33.324,M,,*7F
2017-12-31 17:49:13 1514760553.561400: $GPRMC,224914,A,3946.9570,N,08404.9857,W,0.0000,0.000,311217,,*38
2017-12-31 17:49:13 1514760553.561465: $GPGSA,A,3,22,23,9,3,16,29,31,27,32,26,135,,1.7,0.6,1.3*02
2017-12-31 17:49:13 1514760553.561524: $GPGBS,224914,2.22,M,3.43,M,7.66,M*37
2017-12-31 17:49:14 1514760554.345895: $GPZDA,224915.00,31,12,2017,00,00*6A
2017-12-31 17:49:14 1514760554.346063: $GPGGA,224915,3946.9570,N,08404.9857,W,2,11,0.80,304.63,M,-33.324,M,,*70
2017-12-31 17:49:14 1514760554.346133: $GPRMC,224915,A,3946.9570,N,08404.9857,W,0.0000,0.000,311217,,*39
2017-12-31 17:49:14 1514760554.346193: $GPGSA,A,3,22,23,9,3,16,29,31,27,32,26,135,,1.7,0.8,1.3*0C
2017-12-31 17:49:14 1514760554.346255: $GPGBS,224915,2.22,M,3.43,M,7.66,M*36
2017-12-31 17:49:15 1514760555.712007: $GPGSV,3,1,12,22,29,220,45,23,46,309,43,09,13,312,45,03,38,243,44*7B
2017-12-31 17:49:15 1514760555.712201: $GPGSV,3,2,12,16,70,192,44,29,09,037,36,14,23,129,05,31,35,067,42*7A
2017-12-31 17:49:15 1514760555.712268: $GPGSV,3,3,12,27,14,157,23,32,02,133,19,26,70,060,47,135,22,240,43*42
2017-12-31 17:49:15 1514760555.825357: $GPZDA,224916.00,31,12,2017,00,00*69
2017-12-31 17:49:15 1514760555.825498: $GPGGA,224916,3946.9570,N,08404.9857,W,2,11,0.80,304.63,M,-33.324,M,,*73
2017-12-31 17:49:15 1514760555.825565: $GPRMC,224916,A,3946.9570,N,08404.9857,W,0.0000,0.000,311217,,*3A
2017-12-31 17:49:15 1514760555.825625: $GPGSA,A,3,22,23,9,3,16,29,31,27,32,26,135,,1.7,0.8,1.3*0C
2017-12-31 17:49:16 1514760556.374992: $GPZDA,224917.00,31,12,2017,00,00*68
2017-12-31 17:49:16 1514760556.375163: $GPGGA,224917,3946.9570,N,08404.9857,W,2,11,0.80,304.63,M,-33.324,M,,*72
2017-12-31 17:49:16 1514760556.375236: $GPRMC,224917,A,3946.9570,N,08404.9857,W,0.0000,0.000,311217,,*3B
2017-12-31 17:49:16 1514760556.375298: $GPGSA,A,3,22,23,9,3,16,29,31,27,32,26,135,,1.7,0.8,1.3*0C
2017-12-31 17:49:17 1514760557.347169: $GPZDA,224918.00,31,12,2017,00,00*67
2017-12-31 17:49:17 1514760557.347357: $GPGGA,224918,3946.9570,N,08404.9857,W,2,11,0.60,304.63,M,-33.324,M,,*73
2017-12-31 17:49:17 1514760557.347427: $GPRMC,224918,A,3946.9570,N,08404.9857,W,0.0000,0.000,311217,,*34
2017-12-31 17:49:17 1514760557.347489: $GPGSA,A,3,22,23,9,3,16,29,31,27,32,26,135,,1.7,0.6,1.3*02
