2017-11-15 18:29:09 1510788549.396428: {"class":"VERSION","release":"3.17","rev":"3.17","proto_major":3,"proto_minor":12}
2017-11-15 18:29:09 1510788549.396932: {"class":"DEVICES","devices":[{"class":"DEVICE","path":"/dev/ttyUSB0","driver":"SiRF","subtype":"9\u0006GSD4e_4.1.2-P1_RPATCH.05-F-GPS-4R-1510281 11/03/2015 307","activated":"2017-11-15T23:29:09.214Z","flags":1,"native":1,"bps":4800,"parity":"N","stopbits":1,"cycle":1.00}]}
2017-11-15 18:29:09 1510788549.397051: {"class":"WATCH","enable":true,"json":false,"nmea":true,"raw":0,"scaled":false,"timing":false,"split24":false,"pps":false}
2017-11-15 18:29:09 1510788549.663758: $GPGSV,3,1,11,10,24,156,13,14,69,034,21,25,36,058,12,26,23,178,17*73
2017-11-15 18:29:09 1510788549.663925: $GPGSV,3,2,11,31,77,270,17,32,57,076,21,01,19,276,14,22,38,304,00*7B
2017-11-15 18:29:09 1510788549.663985: $GPGSV,3,3,11,03,19,316,00,12,08,033,00,120,07,103,00*7B
2017-11-15 18:29:09 1510788549.777097: $GPZDA,232908.00,15,11,2017,00,00*64
2017-11-15 18:29:09 1510788549.777243: $GPGGA,232908,3946.9600,N,08404.9557,W,1,07,1.20,290.15,M,-33.324,M,,*70
2017-11-15 18:29:09 1510788549.777304: $GPRMC,232908,A,3946.9600,N,08404.9557,W,1.2375,102.453,151117,,*3D
2017-11-15 18:29:09 1510788549.777360: $GPGSA,A,3,10,14,25,26,31,32,1,,,,,,3.4,1.2,2.9*08
2017-11-15 18:29:10 1510788550.359107: $GPZDA,232909.00,15,11,2017,00,00*65
2017-11-15 18:29:10 1510788550.359281: $GPGGA,232909,3946.9600,N,08404.9557,W,1,07,1.20,290.15,M,-33.324,M,,*71
2017-11-15 18:29:10 1510788550.359343: $GPRMC,232909,A,3946.9600,N,08404.9557,W,0.9689,93.794,151117,,*01
2017-11-15 18:29:10 1510788550.359399: $GPGSA,A,3,10,14,25,26,31,32,1,,,,,,3.4,1.2,2.9*08
2017-11-15 18:29:11 1510788551.328251: $GPZDA,232910.00,15,11,2017,00,00*6D
2017-11-15 18:29:11 1510788551.328422: $GPGGA,232910,3946.9599,N,08404.9550,W,1,07,1.20,290.23,M,-33.324,M,,*78
2017-11-15 18:29:11 1510788551.328485: $GPRMC,232910,A,3946.9599,N,08404.9550,W,0.9689,93.794,151117,,*0D
2017-11-15 18:29:11 1510788551.328541: $GPGSA,A,3,10,14,25,26,31,32,1,,,,,,3.4,1.2,2.9*08
2017-11-15 18:29:12 1510788552.664033: $GPGSV,3,1,10,10,24,156,13,14,69,034,21,25,36,058,13,26,23,178,17*73
2017-11-15 18:29:12 1510788552.664198: $GPGSV,3,2,10,31,77,270,16,32,57,076,21,01,19,276,14,03,19,316,14*7D
2017-11-15 18:29:12 1510788552.664257: $GPGSV,3,3,10,22,38,304,00,12,08,033,00*7F
2017-11-15 18:29:12 1510788552.776333: $GPZDA,232911.00,15,11,2017,00,00*6C
2017-11-15 18:29:12 1510788552.776457: $GPGGA,232911,3946.9599,N,08404.9550,W,1,07,1.20,290.23,M,-33.324,M,,*79
2017-11-15 18:29:12 1510788552.776517: $GPRMC,232911,A,3946.9599,N,08404.9550,W,1.2375,102.453,151117,,*31
2017-11-15 18:29:12 1510788552.776572: $GPGSA,A,3,10,14,25,26,31,32,1,,,,,,3.4,1.2,2.9*08
2017-11-15 18:29:13 1510788553.359760: $GPZDA,232912.00,15,11,2017,00,00*6F
2017-11-15 18:29:13 1510788553.359919: $GPGGA,232912,3946.9595,N,08404.9544,W,1,07,1.20,289.67,M,-33.324,M,,*7B
2017-11-15 18:29:13 1510788553.359979: $GPRMC,232912,A,3946.9595,N,08404.9544,W,0.8011,119.090,151117,,*30
2017-11-15 18:29:13 1510788553.360034: $GPGSA,A,3,10,14,25,26,31,32,1,,,,,,3.4,1.2,2.9*08
2017-11-15 18:29:14 1510788554.327907: $GPZDA,232913.00,15,11,2017,00,00*6E
2017-11-15 18:29:14 1510788554.328089: $GPGGA,232913,3946.9591,N,08404.9544,W,1,07,1.20,290.44,M,-33.324,M,,*77
2017-11-15 18:29:14 1510788554.328151: $GPRMC,232913,A,3946.9591,N,08404.9544,W,0.4179,148.778,151117,,*33
2017-11-15 18:29:14 1510788554.328208: $GPGSA,A,3,10,14,25,26,31,32,1,,,,,,3.4,1.2,2.9*08
2017-11-15 18:29:15 1510788555.694906: $GPGSV,3,1,10,10,24,156,14,14,69,034,21,25,36,058,12,26,23,178,17*75
2017-11-15 18:29:15 1510788555.695075: $GPGSV,3,2,10,31,77,270,15,32,57,076,21,01,19,276,14,03,19,316,13*79
2017-11-15 18:29:15 1510788555.695134: $GPGSV,3,3,10,22,38,304,00,12,08,033,00*7F
2017-11-15 18:29:15 1510788555.808340: $GPZDA,232914.00,15,11,2017,00,00*69
2017-11-15 18:29:15 1510788555.808516: $GPGGA,232914,3946.9591,N,08404.9544,W,1,08,1.20,290.44,M,-33.324,M,,*7F
2017-11-15 18:29:15 1510788555.808577: $GPRMC,232914,A,3946.9591,N,08404.9544,W,0.4179,148.778,151117,,*34
2017-11-15 18:29:15 1510788555.808685: $GPGSA,A,3,10,14,25,26,31,32,1,3,,,,,3.4,1.2,2.9*3B
2017-11-15 18:29:16 1510788556.433759: $GPZDA,232915.00,15,11,2017,00,00*68
2017-11-15 18:29:16 1510788556.433920: $GPGGA,232915,3946.9591,N,08404.9544,W,1,08,1.20,290.44,M,-33.324,M,,*7E
2017-11-15 18:29:16 1510788556.433982: $GPRMC,232915,A,3946.9591,N,08404.9544,W,0.0000,0.000,151117,,*3B
2017-11-15 18:29:16 1510788556.434038: $GPGSA,A,3,10,14,25,26,31,32,1,3,,,,,3.4,1.2,2.9*3B
2017-11-15 18:29:17 1510788557.328491: $GPZDA,232916.00,15,11,2017,00,00*6B
2017-11-15 18:29:17 1510788557.328650: $GPGGA,232916,3946.9591,N,08404.9544,W,1,08,1.20,290.44,M,-33.324,M,,*7D
2017-11-15 18:29:17 1510788557.328711: $GPRMC,232916,A,3946.9591,N,08404.9544,W,0.4207,39.347,151117,,*03
2017-11-15 18:29:17 1510788557.328767: $GPGSA,A,3,10,14,25,26,31,32,1,3,,,,,3.4,1.2,2.9*3B
2017-11-15 18:29:18 1510788558.664131: $GPGSV,3,1,10,10,24,156,13,14,69,034,21,25,36,058,11,26,23,178,17*71
2017-11-15 18:29:18 1510788558.664302: $GPGSV,3,2,10,31,77,270,14,32,57,076,21,01,19,276,14,22,38,304,12*7A
2017-11-15 18:29:18 1510788558.664362: $GPGSV,3,3,10,03,19,316,00,12,08,033,00*7C
2017-11-15 18:29:18 1510788558.777853: $GPZDA,232917.00,15,11,2017,00,00*6A
2017-11-15 18:29:18 1510788558.778012: $GPGGA,232917,3946.9595,N,08404.9544,W,1,07,1.20,289.67,M,-33.324,M,,*7E
2017-11-15 18:29:18 1510788558.778073: $GPRMC,232917,A,3946.9595,N,08404.9544,W,0.8709,3.298,151117,,*3B
2017-11-15 18:29:18 1510788558.778127: $GPGSA,A,3,10,14,25,26,31,32,1,,,,,,3.4,1.2,2.9*08
2017-11-15 18:29:19 1510788559.328621: $GPZDA,232918.00,15,11,2017,00,00*65
2017-11-15 18:29:19 1510788559.328780: $GPGGA,232918,3946.9599,N,08404.9550,W,1,07,1.20,290.23,M,-33.324,M,,*70
2017-11-15 18:29:19 1510788559.328841: $GPRMC,232918,A,3946.9599,N,08404.9550,W,1.1713,338.291,151117,,*3C
2017-11-15 18:29:19 1510788559.328896: $GPGSA,A,3,10,14,25,26,31,32,1,,,,,,3.4,1.2,2.9*08
