2017-12-29 14:44:09 1514576649.420978: {"class":"VERSION","release":"3.16","rev":"3.16-4","proto_major":3,"proto_minor":11}
2017-12-29 14:44:09 1514576649.421373: {"class":"DEVICES","devices":[{"class":"DEVICE","path":"/dev/ttyUSB0","driver":"SiRF","subtype":"9\u0006GSD4e_4.1.2-P1_RPATCH.05-F-GPS-4R-1510281 11/03/2015 307","activated":"2017-12-29T19:44:09.245Z","flags":1,"native":1,"bps":4800,"parity":"N","stopbits":1,"cycle":1.00}]}
2017-12-29 14:44:09 1514576649.421487: {"class":"WATCH","enable":true,"json":false,"nmea":true,"raw":0,"scaled":false,"timing":false,"split24":false,"pps":false}
2017-12-29 14:44:09 1514576649.853106: $GPZDA,194410.55,29,12,2017,00,00*63
2017-12-29 14:44:09 1514576649.853279: $GPGGA,194410,3946.9603,N,08404.9784,W,1,12,0.80,319.04,M,-33.324,M,,*7B
2017-12-29 14:44:09 1514576649.853344: $GPRMC,194410,A,3946.9603,N,08404.9784,W,0.5080,160.864,291217,,*36
2017-12-29 14:44:09 1514576649.853406: $GPGSA,A,3,1,10,11,12,14,18,22,25,31,32,26,138,1.7,0.8,1.3*3B
2017-12-29 14:44:09 1514576649.853465: $GPGBS,194410,10.91,M,10.38,M,30.89,M*06
2017-12-29 14:44:10 1514576650.797047: $GPZDA,194411.23,29,12,2017,00,00*63
2017-12-29 14:44:10 1514576650.797224: $GPGGA,194411,3946.9599,N,08404.9791,W,1,12,0.80,318.33,M,-33.324,M,,*7B
2017-12-29 14:44:10 1514576650.797291: $GPRMC,194411,A,3946.9599,N,08404.9791,W,0.0000,0.000,291217,,*33
2017-12-29 14:44:10 1514576650.797351: $GPGSA,A,3,1,10,11,12,14,18,22,25,31,32,26,138,1.7,0.8,1.3*3B
2017-12-29 14:44:10 1514576650.797410: $GPGBS,194411,10.91,M,10.38,M,30.89,M*07
2017-12-29 14:44:12 1514576652.273351: $GPGSV,3,1,12,01,22,297,38,26,07,181,10,10,44,150,51,11,07,280,38*73
2017-12-29 14:44:12 1514576652.273511: $GPGSV,3,2,12,12,20,046,47,14,67,334,44,18,14,145,43,22,23,312,44*71
2017-12-29 14:44:12 1514576652.273577: $GPGSV,3,3,12,25,40,085,53,31,62,229,49,32,66,040,51,138,38,213,34*47
2017-12-29 14:44:12 1514576652.386721: $GPZDA,194412.00,29,12,2017,00,00*61
2017-12-29 14:44:12 1514576652.386893: $GPGGA,194412,3946.9599,N,08404.9791,W,1,11,0.80,316.92,M,-33.324,M,,*7E
2017-12-29 14:44:12 1514576652.386958: $GPRMC,194412,A,3946.9599,N,08404.9791,W,0.1567,189.200,291217,,*37
2017-12-29 14:44:12 1514576652.387019: $GPGSA,A,3,1,10,11,12,14,18,22,25,31,32,138,,1.7,0.8,1.3*3F
2017-12-29 14:44:12 1514576652.812494: $GPZDA,194413.00,29,12,2017,00,00*60
2017-12-29 14:44:12 1514576652.812661: $GPGGA,194413,3946.9598,N,08404.9790,W,1,11,0.80,315.52,M,-33.324,M,,*70
2017-12-29 14:44:12 1514576652.812727: $GPRMC,194413,A,3946.9598,N,08404.9790,W,0.0000,0.000,291217,,*31
2017-12-29 14:44:12 1514576652.812788: $GPGSA,A,3,1,10,11,12,14,18,22,25,31,32,138,,1.7,0.8,1.3*3F
2017-12-29 14:44:12 1514576652.812846: $GPGBS,194413,10.91,M,10.38,M,30.89,M*05
2017-12-29 14:44:13 1514576653.340824: $GPZDA,194414.00,29,12,2017,00,00*67
2017-12-29 14:44:13 1514576653.340976: $GPGGA,194414,3946.9594,N,08404.9797,W,1,11,0.80,314.80,M,-33.324,M,,*72
2017-12-29 14:44:13 1514576653.341092: $GPRMC,194414,A,3946.9594,N,08404.9797,W,0.0000,0.000,291217,,*3D
2017-12-29 14:44:13 1514576653.341162: $GPGSA,A,3,1,10,11,12,14,18,22,25,31,32,138,,1.7,0.8,1.3*3F
2017-12-29 14:44:13 1514576653.341221: $GPGBS,194414,10.91,M,10.38,M,30.89,M*02
2017-12-29 14:44:14 1514576654.676070: $GPGSV,3,1,12,01,22,297,37,26,07,181,24,10,43,150,51,11,07,280,38*7C
2017-12-29 14:44:14 1514576654.678480: $GPGSV,3,2,12,12,20,046,47,14,67,334,43,18,14,145,43,22,23,312,42*70
2017-12-29 14:44:14 1514576654.678586: $GPGSV,3,3,12,25,40,085,53,31,62,229,48,32,66,040,51,138,38,213,43*46
2017-12-29 14:44:14 1514576654.789440: $GPZDA,194415.00,29,12,2017,00,00*66
2017-12-29 14:44:14 1514576654.789585: $GPGGA,194415,3946.9598,N,08404.9796,W,1,12,0.80,314.03,M,-33.324,M,,*76
2017-12-29 14:44:14 1514576654.789650: $GPRMC,194415,A,3946.9598,N,08404.9796,W,0.0000,0.000,291217,,*31
2017-12-29 14:44:14 1514576654.789710: $GPGSA,A,3,1,26,10,11,12,14,18,22,25,31,32,138,1.7,0.8,1.3*3B
2017-12-29 14:44:15 1514576655.341657: $GPZDA,194416.00,29,12,2017,00,00*65
2017-12-29 14:44:15 1514576655.341814: $GPGGA,194416,3946.9594,N,08404.9803,W,1,12,0.80,313.31,M,-33.324,M,,*7C
2017-12-29 14:44:15 1514576655.341933: $GPRMC,194416,A,3946.9594,N,08404.9803,W,0.0000,0.000,291217,,*3D
2017-12-29 14:44:15 1514576655.341996: $GPGSA,A,3,1,26,10,11,12,14,18,22,25,31,32,138,1.7,0.8,1.3*3B
2017-12-29 14:44:16 1514576656.343547: $GPZDA,194417.00,29,12,2017,00,00*64
2017-12-29 14:44:16 1514576656.343711: $GPGGA,194417,3946.9582,N,08404.9833,W,2,12,1.80,301.81,M,-33.324,M,,*73
2017-12-29 14:44:16 1514576656.343778: $GPRMC,194417,A,3946.9582,N,08404.9833,W,0.0000,0.000,291217,,*38
2017-12-29 14:44:16 1514576656.343839: $GPGSA,A,2,1,26,10,11,12,14,18,22,25,31,32,138,1.7,1.8,1.3*3B
2017-12-29 14:44:17 1514576657.678047: $GPGSV,3,1,12,01,22,297,37,26,07,181,24,10,43,150,51,11,07,280,38*7C
2017-12-29 14:44:17 1514576657.678225: $GPGSV,3,2,12,12,20,046,47,14,67,334,43,18,14,145,43,22,23,312,42*70
2017-12-29 14:44:17 1514576657.678292: $GPGSV,3,3,12,25,40,085,52,31,62,229,48,32,66,040,50,138,38,213,43*46
2017-12-29 14:44:17 1514576657.791391: $GPZDA,194418.00,29,12,2017,00,00*6B
2017-12-29 14:44:17 1514576657.791509: $GPGGA,194418,3946.9582,N,08404.9833,W,2,12,1.20,301.81,M,-33.324,M,,*76
2017-12-29 14:44:17 1514576657.791573: $GPRMC,194418,A,3946.9582,N,08404.9833,W,0.0000,0.000,291217,,*37
2017-12-29 14:44:17 1514576657.791633: $GPGSA,A,2,1,26,10,11,12,14,18,22,25,31,32,138,1.7,1.2,1.3*31
2017-12-29 14:44:18 1514576658.342273: $GPZDA,194419.00,29,12,2017,00,00*6A
2017-12-29 14:44:18 1514576658.342412: $GPGGA,194419,3946.9582,N,08404.9833,W,2,12,1.20,301.81,M,-33.324,M,,*77
2017-12-29 14:44:18 1514576658.342478: $GPRMC,194419,A,3946.9582,N,08404.9833,W,0.0000,0.000,291217,,*36
2017-12-29 14:44:18 1514576658.342538: $GPGSA,A,2,1,26,10,11,12,14,18,22,25,31,32,138,1.7,1.2,1.3*31
2017-12-29 14:44:19 1514576659.345226: $GPZDA,194420.00,29,12,2017,00,00*60
2017-12-29 14:44:19 1514576659.345391: $GPGGA,194420,3946.9578,N,08404.9840,W,2,12,1.20,301.09,M,-33.324,M,,*7C
2017-12-29 14:44:19 1514576659.345456: $GPRMC,194420,A,3946.9578,N,08404.9840,W,0.0000,0.000,291217,,*3D
2017-12-29 14:44:19 1514576659.345516: $GPGSA,A,2,1,26,10,11,12,14,18,22,25,31,32,138,1.7,1.2,1.3*31
