2017-12-01 14:32:22 1512156742.253624: {"class":"VERSION","release":"3.16","rev":"3.16-4","proto_major":3,"proto_minor":11}
2017-12-01 14:32:22 1512156742.254098: {"class":"DEVICES","devices":[{"class":"DEVICE","path":"/dev/ttyUSB0","driver":"SiRF","subtype":"9\u0006GSD4e_4.1.2-P1_RPATCH.05-F-GPS-4R-1510281 11/03/2015 307","activated":"2017-12-01T19:32:22.242Z","flags":1,"native":1,"bps":4800,"parity":"N","stopbits":1,"cycle":1.00}]}
2017-12-01 14:32:22 1512156742.254253: {"class":"WATCH","enable":true,"json":false,"nmea":true,"raw":0,"scaled":false,"timing":false,"split24":false,"pps":false}
2017-12-01 14:32:22 1512156742.691747: $GPGSV,3,1,12,12,12,103,32,10,73,337,47,14,32,256,42,18,67,102,46*70
2017-12-01 14:32:22 1512156742.691940: $GPGSV,3,2,12,21,24,178,46,24,42,055,48,32,49,270,47,08,04,291,31*70
2017-12-01 14:32:22 1512156742.692011: $GPGSV,3,3,12,25,05,139,20,15,08,069,18,27,04,256,28,138,38,213,47*43
2017-12-01 14:32:22 1512156742.805092: $GPZDA,193223.00,01,12,2017,00,00*68
2017-12-01 14:32:22 1512156742.805255: $GPGGA,193223,3946.9593,N,08404.9833,W,2,12,0.80,291.65,M,-33.324,M,,*76
2017-12-01 14:32:22 1512156742.805319: $GPRMC,193223,A,3946.9593,N,08404.9833,W,0.0000,0.000,011217,,*34
2017-12-01 14:32:22 1512156742.805382: $GPGSA,A,3,12,10,14,18,21,24,32,8,25,15,27,138,2.0,0.8,1.5*32
2017-12-01 14:32:23 1512156743.430708: $GPZDA,193224.00,01,12,2017,00,00*6F
2017-12-01 14:32:23 1512156743.430885: $GPGGA,193224,3946.9593,N,08404.9833,W,2,12,0.80,291.65,M,-33.324,M,,*71
2017-12-01 14:32:23 1512156743.430956: $GPRMC,193224,A,3946.9593,N,08404.9833,W,0.0000,0.000,011217,,*33
2017-12-01 14:32:23 1512156743.431021: $GPGSA,A,3,12,10,14,18,21,24,32,8,25,15,27,138,2.0,0.8,1.5*32
2017-12-01 14:32:24 1512156744.365458: $GPZDA,193225.00,01,12,2017,00,00*6E
2017-12-01 14:32:24 1512156744.365632: $GPGGA,193225,3946.9593,N,08404.9833,W,2,12,0.80,291.65,M,-33.324,M,,*70
2017-12-01 14:32:24 1512156744.365699: $GPRMC,193225,A,3946.9593,N,08404.9833,W,0.0000,0.000,011217,,*32
2017-12-01 14:32:24 1512156744.365761: $GPGSA,A,3,12,10,14,18,21,24,32,8,25,15,27,138,2.0,0.8,1.5*32
2017-12-01 14:32:25 1512156745.693397: $GPGSV,3,1,12,12,12,103,32,10,73,337,47,14,32,256,42,18,67,102,46*70
2017-12-01 14:32:25 1512156745.693577: $GPGSV,3,2,12,21,24,178,46,24,42,055,48,32,49,270,47,08,04,291,33*72
2017-12-01 14:32:25 1512156745.693665: $GPGSV,3,3,12,25,05,139,20,15,08,069,14,27,04,256,28,138,38,213,46*4E
2017-12-01 14:32:25 1512156745.807159: $GPZDA,193226.00,01,12,2017,00,00*6D
2017-12-01 14:32:25 1512156745.807328: $GPGGA,193226,3946.9593,N,08404.9833,W,2,12,1.00,291.65,M,-33.324,M,,*7A
2017-12-01 14:32:25 1512156745.807395: $GPRMC,193226,A,3946.9593,N,08404.9833,W,0.0000,0.000,011217,,*31
2017-12-01 14:32:25 1512156745.807456: $GPGSA,A,3,12,10,14,18,21,24,32,8,25,15,27,138,2.0,1.0,1.5*3B
2017-12-01 14:32:26 1512156746.356412: $GPZDA,193227.00,01,12,2017,00,00*6C
2017-12-01 14:32:26 1512156746.356590: $GPGGA,193227,3946.9592,N,08404.9826,W,2,12,1.00,291.73,M,-33.324,M,,*79
2017-12-01 14:32:26 1512156746.356660: $GPRMC,193227,A,3946.9592,N,08404.9826,W,0.0000,0.000,011217,,*35
2017-12-01 14:32:26 1512156746.356722: $GPGSA,A,3,12,10,14,18,21,24,32,8,25,15,27,138,2.0,1.0,1.5*3B
2017-12-01 14:32:27 1512156747.354952: $GPZDA,193228.00,01,12,2017,00,00*63
2017-12-01 14:32:27 1512156747.355132: $GPGGA,193228,3946.9592,N,08404.9826,W,2,12,1.00,291.73,M,-33.324,M,,*76
2017-12-01 14:32:27 1512156747.355198: $GPRMC,193228,A,3946.9592,N,08404.9826,W,0.0000,0.000,011217,,*3A
2017-12-01 14:32:27 1512156747.355261: $GPGSA,A,3,12,10,14,18,21,24,32,8,25,15,27,138,2.0,1.0,1.5*3B
2017-12-01 14:32:28 1512156748.691199: $GPGSV,3,1,12,12,12,103,32,10,73,337,46,14,32,256,41,18,67,102,46*72
2017-12-01 14:32:28 1512156748.691424: $GPGSV,3,2,12,21,24,178,46,24,42,055,48,32,49,270,47,08,04,291,37*76
2017-12-01 14:32:28 1512156748.691500: $GPGSV,3,3,12,25,05,139,19,15,08,069,15,27,04,256,28,138,38,213,47*44
2017-12-01 14:32:28 1512156748.804965: $GPZDA,193229.00,01,12,2017,00,00*62
2017-12-01 14:32:28 1512156748.805141: $GPGGA,193229,3946.9592,N,08404.9826,W,2,12,1.00,291.73,M,-33.324,M,,*77
2017-12-01 14:32:28 1512156748.805259: $GPRMC,193229,A,3946.9592,N,08404.9826,W,0.0000,0.000,011217,,*3B
2017-12-01 14:32:28 1512156748.805322: $GPGSA,A,3,12,10,14,18,21,24,32,8,25,15,27,138,2.0,1.0,1.5*3B
2017-12-01 14:32:29 1512156749.356806: $GPZDA,193230.00,01,12,2017,00,00*6A
2017-12-01 14:32:29 1512156749.356983: $GPGGA,193230,3946.9592,N,08404.9826,W,2,12,1.20,291.73,M,-33.324,M,,*7D
2017-12-01 14:32:29 1512156749.357051: $GPRMC,193230,A,3946.9592,N,08404.9826,W,0.0000,0.000,011217,,*33
2017-12-01 14:32:29 1512156749.357114: $GPGSA,A,3,12,10,14,18,21,24,32,8,25,15,27,138,2.0,1.2,1.5*39
2017-12-01 14:32:30 1512156750.350480: $GPZDA,193231.00,01,12,2017,00,00*6B
2017-12-01 14:32:30 1512156750.350652: $GPGGA,193231,3946.9592,N,08404.9826,W,2,12,1.20,291.73,M,-33.324,M,,*7C
2017-12-01 14:32:30 1512156750.350719: $GPRMC,193231,A,3946.9592,N,08404.9826,W,0.0000,0.000,011217,,*32
2017-12-01 14:32:30 1512156750.350780: $GPGSA,A,3,12,10,14,18,21,24,32,8,25,15,27,138,2.0,1.2,1.5*39
2017-12-01 14:32:31 1512156751.693500: $GPGSV,3,1,12,12,12,103,33,10,73,337,47,14,32,256,41,18,67,102,46*72
2017-12-01 14:32:31 1512156751.693694: $GPGSV,3,2,12,21,24,178,45,24,42,055,47,32,49,270,47,08,04,291,37*7A
2017-12-01 14:32:31 1512156751.693762: $GPGSV,3,3,12,25,05,139,19,15,08,069,14,27,04,256,29,138,38,213,47*44
2017-12-01 14:32:31 1512156751.807126: $GPZDA,193232.00,01,12,2017,00,00*68
2017-12-01 14:32:31 1512156751.807300: $GPGGA,193232,3946.9592,N,08404.9826,W,2,12,1.20,291.73,M,-33.324,M,,*7F
2017-12-01 14:32:31 1512156751.807368: $GPRMC,193232,A,3946.9592,N,08404.9826,W,0.0000,0.000,011217,,*31
2017-12-01 14:32:31 1512156751.807429: $GPGSA,A,3,12,10,14,18,21,24,32,8,25,15,27,138,2.0,1.2,1.5*39
2017-12-01 14:32:32 1512156752.357635: $GPZDA,193233.00,01,12,2017,00,00*69
2017-12-01 14:32:32 1512156752.357803: $GPGGA,193233,3946.9592,N,08404.9826,W,2,12,1.20,291.73,M,-33.324,M,,*7E
2017-12-01 14:32:32 1512156752.357889: $GPRMC,193233,A,3946.9592,N,08404.9826,W,0.0000,0.000,011217,,*30
2017-12-01 14:32:32 1512156752.357952: $GPGSA,A,3,12,10,14,18,21,24,32,8,25,15,27,138,2.0,1.2,1.5*39
2017-12-01 14:32:33 1512156753.358020: $GPZDA,193234.00,01,12,2017,00,00*6E
2017-12-01 14:32:33 1512156753.358190: $GPGGA,193234,3946.9592,N,08404.9826,W,2,12,1.20,291.73,M,-33.324,M,,*79
2017-12-01 14:32:33 1512156753.358257: $GPRMC,193234,A,3946.9592,N,08404.9826,W,0.0000,0.000,011217,,*37
2017-12-01 14:32:33 1512156753.358317: $GPGSA,A,3,12,10,14,18,21,24,32,8,25,15,27,138,2.0,1.2,1.5*39
2017-12-01 14:32:34 1512156754.696193: $GPGSV,3,1,12,12,12,103,34,10,73,337,47,14,32,256,41,18,67,102,46*75
2017-12-01 14:32:34 1512156754.696384: $GPGSV,3,2,12,21,24,178,45,24,42,055,48,32,49,270,46,08,04,291,37*74
2017-12-01 14:32:34 1512156754.696472: $GPGSV,3,3,12,25,05,139,19,15,08,069,15,20,06,120,07,138,38,213,46*4F
2017-12-01 14:32:34 1512156754.809804: $GPZDA,193235.00,01,12,2017,00,00*6F
2017-12-01 14:32:34 1512156754.809989: $GPGGA,193235,3946.9589,N,08404.9827,W,2,11,1.20,292.49,M,-33.324,M,,*7A
2017-12-01 14:32:34 1512156754.810057: $GPRMC,193235,A,3946.9589,N,08404.9827,W,0.0000,0.000,011217,,*3D
2017-12-01 14:32:34 1512156754.810118: $GPGSA,A,3,12,10,14,18,21,24,32,8,25,15,138,,2.0,1.2,1.5*3C
2017-12-01 14:32:35 1512156755.355507: $GPZDA,193236.00,01,12,2017,00,00*6C
2017-12-01 14:32:35 1512156755.355680: $GPGGA,193236,3946.9593,N,08404.9827,W,2,11,1.20,293.13,M,-33.324,M,,*7C
2017-12-01 14:32:35 1512156755.355747: $GPRMC,193236,A,3946.9593,N,08404.9827,W,0.0000,0.000,011217,,*35
2017-12-01 14:32:35 1512156755.355807: $GPGSA,A,3,12,10,14,18,21,24,32,8,25,15,138,,2.0,1.2,1.5*3C
2017-12-01 14:32:36 1512156756.356900: $GPZDA,193237.00,01,12,2017,00,00*6D
2017-12-01 14:32:36 1512156756.357086: $GPGGA,193237,3946.9593,N,08404.9827,W,2,11,1.20,293.13,M,-33.324,M,,*7D
2017-12-01 14:32:36 1512156756.357153: $GPRMC,193237,A,3946.9593,N,08404.9827,W,0.0000,0.000,011217,,*34
2017-12-01 14:32:36 1512156756.357214: $GPGSA,A,3,12,10,14,18,21,24,32,8,25,15,138,,2.0,1.2,1.5*3C
2017-12-01 14:32:37 1512156757.693309: $GPGSV,3,1,12,12,12,103,34,10,73,337,48,14,32,256,41,18,67,102,45*79
2017-12-01 14:32:37 1512156757.693469: $GPGSV,3,2,12,21,24,178,45,24,42,055,48,32,49,270,46,08,04,291,37*74
2017-12-01 14:32:37 1512156757.693535: $GPGSV,3,3,12,25,05,139,19,15,08,069,16,20,06,120,18,138,38,213,47*43
2017-12-01 14:32:37 1512156757.805430: $GPZDA,193238.00,01,12,2017,00,00*62
2017-12-01 14:32:37 1512156757.805600: $GPGGA,193238,3946.9593,N,08404.9827,W,2,12,1.20,293.13,M,-33.324,M,,*71
2017-12-01 14:32:37 1512156757.805667: $GPRMC,193238,A,3946.9593,N,08404.9827,W,0.0000,0.000,011217,,*3B
2017-12-01 14:32:37 1512156757.805728: $GPGSA,A,3,12,10,14,18,21,24,32,8,25,15,20,138,2.0,1.2,1.5*3E
2017-12-01 14:32:38 1512156758.432382: $GPZDA,193239.00,01,12,2017,00,00*63
2017-12-01 14:32:38 1512156758.432555: $GPGGA,193239,3946.9593,N,08404.9827,W,2,12,1.20,293.13,M,-33.324,M,,*70
2017-12-01 14:32:38 1512156758.432621: $GPRMC,193239,A,3946.9593,N,08404.9827,W,0.0000,0.000,011217,,*3A
2017-12-01 14:32:38 1512156758.432682: $GPGSA,A,3,12,10,14,18,21,24,32,8,25,15,20,138,2.0,1.2,1.5*3E
2017-12-01 14:32:39 1512156759.355715: $GPZDA,193240.00,01,12,2017,00,00*6D
2017-12-01 14:32:39 1512156759.355911: $GPGGA,193240,3946.9593,N,08404.9827,W,2,12,1.00,293.13,M,-33.324,M,,*7C
2017-12-01 14:32:39 1512156759.355995: $GPRMC,193240,A,3946.9593,N,08404.9827,W,0.0000,0.000,011217,,*34
2017-12-01 14:32:39 1512156759.356057: $GPGSA,A,3,12,10,14,18,21,24,32,8,25,15,20,138,2.0,1.0,1.5*3C
2017-12-01 14:32:40 1512156760.692522: $GPGSV,3,1,12,12,12,103,35,10,73,337,47,14,32,256,42,18,67,102,45*74
2017-12-01 14:32:40 1512156760.692706: $GPGSV,3,2,12,21,24,178,45,24,42,055,49,32,49,270,45,08,04,291,37*76
2017-12-01 14:32:40 1512156760.692773: $GPGSV,3,3,12,25,05,139,20,27,04,256,24,20,06,120,18,138,38,213,48*44
2017-12-01 14:32:40 1512156760.806225: $GPZDA,193241.00,01,12,2017,00,00*6C
2017-12-01 14:32:40 1512156760.806364: $GPGGA,193241,3946.9593,N,08404.9827,W,2,12,1.20,293.13,M,-33.324,M,,*7F
2017-12-01 14:32:40 1512156760.806430: $GPRMC,193241,A,3946.9593,N,08404.9827,W,0.0000,0.000,011217,,*35
2017-12-01 14:32:40 1512156760.806491: $GPGSA,A,3,12,10,14,18,21,24,32,8,25,27,20,138,2.0,1.2,1.5*3F
2017-12-01 14:32:41 1512156761.360682: $GPZDA,193242.00,01,12,2017,00,00*6F
2017-12-01 14:32:41 1512156761.360879: $GPGGA,193242,3946.9593,N,08404.9827,W,2,12,1.20,293.13,M,-33.324,M,,*7C
2017-12-01 14:32:41 1512156761.360948: $GPRMC,193242,A,3946.9593,N,08404.9827,W,0.0000,0.000,011217,,*36
2017-12-01 14:32:41 1512156761.361028: $GPGSA,A,3,12,10,14,18,21,24,32,8,25,27,20,138,2.0,1.2,1.5*3F
2017-12-01 14:32:42 1512156762.356844: $GPZDA,193243.00,01,12,2017,00,00*6E
2017-12-01 14:32:42 1512156762.357024: $GPGGA,193243,3946.9594,N,08404.9834,W,2,12,1.20,293.05,M,-33.324,M,,*7F
2017-12-01 14:32:42 1512156762.357094: $GPRMC,193243,A,3946.9594,N,08404.9834,W,0.0000,0.000,011217,,*32
2017-12-01 14:32:42 1512156762.357155: $GPGSA,A,3,12,10,14,18,21,24,32,8,25,27,20,138,2.0,1.2,1.5*3F
2017-12-01 14:32:43 1512156763.692933: $GPGSV,3,1,12,12,12,103,35,10,73,337,48,14,32,256,42,18,67,102,45*7B
2017-12-01 14:32:43 1512156763.693111: $GPGSV,3,2,12,21,24,178,46,24,42,055,49,32,49,270,45,08,04,291,36*74
2017-12-01 14:32:43 1512156763.693179: $GPGSV,3,3,12,25,05,139,20,15,08,069,19,20,06,120,18,138,38,213,47*46
2017-12-01 14:32:43 1512156763.806299: $GPZDA,193244.00,01,12,2017,00,00*69
2017-12-01 14:32:43 1512156763.806478: $GPGGA,193244,3946.9594,N,08404.9834,W,2,11,1.20,293.05,M,-33.324,M,,*7B
2017-12-01 14:32:43 1512156763.806545: $GPRMC,193244,A,3946.9594,N,08404.9834,W,0.0000,0.000,011217,,*35
2017-12-01 14:32:43 1512156763.806608: $GPGSA,A,3,12,10,14,18,21,24,32,8,25,20,138,,2.0,1.2,1.5*3A
2017-12-01 14:32:44 1512156764.349651: $GPZDA,193245.00,01,12,2017,00,00*68
2017-12-01 14:32:44 1512156764.349831: $GPGGA,193245,3946.9594,N,08404.9834,W,2,11,1.20,293.05,M,-33.324,M,,*7A
2017-12-01 14:32:44 1512156764.349902: $GPRMC,193245,A,3946.9594,N,08404.9834,W,0.0000,0.000,011217,,*34
2017-12-01 14:32:44 1512156764.349969: $GPGSA,A,3,12,10,14,18,21,24,32,8,25,20,138,,2.0,1.2,1.5*3A
2017-12-01 14:32:45 1512156765.395612: $GPZDA,193246.00,01,12,2017,00,00*6B
2017-12-01 14:32:45 1512156765.395805: $GPGGA,193246,3946.9594,N,08404.9834,W,2,11,1.20,293.05,M,-33.324,M,,*79
2017-12-01 14:32:45 1512156765.395882: $GPRMC,193246,A,3946.9594,N,08404.9834,W,0.0000,0.000,011217,,*37
2017-12-01 14:32:45 1512156765.395951: $GPGSA,A,3,12,10,14,18,21,24,32,8,25,20,138,,2.0,1.2,1.5*3A
2017-12-01 14:32:46 1512156766.730080: $GPGSV,3,1,12,12,12,103,34,10,73,337,48,14,32,256,42,18,67,102,45*7A
2017-12-01 14:32:46 1512156766.730258: $GPGSV,3,2,12,21,24,178,46,24,42,055,50,32,49,270,45,08,04,291,30*7A
2017-12-01 14:32:46 1512156766.730326: $GPGSV,3,3,12,25,05,139,21,15,08,069,20,20,06,120,19,138,38,213,46*4D
2017-12-01 14:32:46 1512156766.843808: $GPZDA,193247.00,01,12,2017,00,00*6A
2017-12-01 14:32:46 1512156766.843977: $GPGGA,193247,3946.9594,N,08404.9834,W,2,12,1.20,293.05,M,-33.324,M,,*7B
2017-12-01 14:32:46 1512156766.844042: $GPRMC,193247,A,3946.9594,N,08404.9834,W,0.0000,0.000,011217,,*36
2017-12-01 14:32:46 1512156766.844106: $GPGSA,A,3,12,10,14,18,21,24,32,8,25,15,20,138,2.0,1.2,1.5*3E
