2017-12-01 18:27:32 1512170852.686536: {"class":"VERSION","release":"3.16","rev":"3.16-4","proto_major":3,"proto_minor":11}
2017-12-01 18:27:32 1512170852.687099: {"class":"DEVICES","devices":[{"class":"DEVICE","path":"/dev/ttyUSB0","driver":"SiRF","subtype":"9\u0006GSD4e_4.1.2-P1_RPATCH.05-F-GPS-4R-1510281 11/03/2015 307","activated":"2017-12-01T23:27:32.390Z","flags":1,"native":1,"bps":4800,"parity":"N","stopbits":1,"cycle":1.00}]}
2017-12-01 18:27:32 1512170852.687225: {"class":"WATCH","enable":true,"json":false,"nmea":true,"raw":0,"scaled":false,"timing":false,"split24":false,"pps":false}
2017-12-01 18:27:32 1512170852.996152: $GPZDA,232733.66,01,12,2017,00,00*64
2017-12-01 18:27:32 1512170852.996325: $GPGGA,232733,3946.9716,N,08404.9798,W,1,12,0.80,297.00,M,-33.325,M,,*7C
2017-12-01 18:27:32 1512170852.996391: $GPRMC,232733,A,3946.9716,N,08404.9798,W,0.4600,109.641,011217,,*30
2017-12-01 18:27:32 1512170852.996453: $GPGSA,A,3,1,3,14,16,22,23,25,26,31,32,29,138,2.0,0.8,1.5*0C
2017-12-01 18:27:34 1512170854.077461: $GPZDA,232734.35,01,12,2017,00,00*65
2017-12-01 18:27:34 1512170854.077632: $GPGGA,232734,3946.9716,N,08404.9798,W,1,12,0.80,297.00,M,-33.325,M,,*7B
2017-12-01 18:27:34 1512170854.077700: $GPRMC,232734,A,3946.9716,N,08404.9798,W,0.2422,93.794,011217,,*08
2017-12-01 18:27:34 1512170854.077760: $GPGSA,A,3,1,3,14,16,22,23,25,26,31,32,29,138,2.0,0.8,1.5*0C
2017-12-01 18:27:34 1512170854.077819: $GPGBS,232734,10.70,M,15.43,M,35.28,M*04
2017-12-01 18:27:35 1512170855.260140: $GPGSV,3,1,12,01,05,252,19,03,41,297,28,14,54,094,25,16,25,189,26*7B
2017-12-01 18:27:35 1512170855.260330: $GPGSV,3,2,12,22,50,267,26,23,13,301,25,25,16,039,23,26,56,171,28*7E
2017-12-01 18:27:35 1512170855.260397: $GPGSV,3,3,12,31,65,030,28,32,34,109,25,29,11,070,00,138,38,213,10*47
2017-12-01 18:27:35 1512170855.373440: $GPZDA,232735.00,01,12,2017,00,00*62
2017-12-01 18:27:35 1512170855.373604: $GPGGA,232735,3946.9713,N,08404.9798,W,1,11,0.80,297.76,M,-33.325,M,,*7D
2017-12-01 18:27:35 1512170855.373671: $GPRMC,232735,A,3946.9713,N,08404.9798,W,0.0000,0.000,011217,,*3A
2017-12-01 18:27:35 1512170855.373731: $GPGSA,A,3,1,3,14,16,22,23,25,26,31,32,138,,2.0,0.8,1.5*07
2017-12-01 18:27:35 1512170855.825467: $GPZDA,232736.00,01,12,2017,00,00*61
2017-12-01 18:27:35 1512170855.825637: $GPGGA,232736,3946.9717,N,08404.9798,W,1,11,0.80,298.40,M,-33.325,M,,*70
2017-12-01 18:27:35 1512170855.825705: $GPRMC,232736,A,3946.9717,N,08404.9798,W,0.1567,9.200,011217,,*33
2017-12-01 18:27:35 1512170855.825766: $GPGSA,A,3,1,3,14,16,22,23,25,26,31,32,138,,2.0,0.8,1.5*07
2017-12-01 18:27:36 1512170856.386345: $GPZDA,232737.00,01,12,2017,00,00*60
2017-12-01 18:27:36 1512170856.386515: $GPGGA,232737,3946.9717,N,08404.9798,W,1,11,0.80,298.40,M,-33.325,M,,*71
2017-12-01 18:27:36 1512170856.386580: $GPRMC,232737,A,3946.9717,N,08404.9798,W,0.1567,9.200,011217,,*32
2017-12-01 18:27:36 1512170856.386641: $GPGSA,A,3,1,3,14,16,22,23,25,26,31,32,138,,2.0,0.8,1.5*07
2017-12-01 18:27:37 1512170857.721595: $GPGSV,3,1,12,01,05,252,32,03,41,297,47,14,54,094,42,16,25,189,44*7E
2017-12-01 18:27:37 1512170857.721775: $GPGSV,3,2,12,22,50,267,44,23,13,301,41,25,16,039,40,26,56,171,46*75
2017-12-01 18:27:37 1512170857.721842: $GPGSV,3,3,12,31,65,030,46,32,34,109,42,29,11,070,23,138,38,213,46*4C
2017-12-01 18:27:37 1512170857.834975: $GPZDA,232738.00,01,12,2017,00,00*6F
2017-12-01 18:27:37 1512170857.835124: $GPGGA,232738,3946.9718,N,08404.9805,W,1,12,0.80,298.32,M,-33.325,M,,*7C
2017-12-01 18:27:37 1512170857.835191: $GPRMC,232738,A,3946.9718,N,08404.9805,W,0.0000,0.000,011217,,*37
2017-12-01 18:27:37 1512170857.835251: $GPGSA,A,3,1,3,14,16,22,23,25,26,31,32,29,138,2.0,0.8,1.5*0C
2017-12-01 18:27:38 1512170858.387820: $GPZDA,232739.00,01,12,2017,00,00*6E
2017-12-01 18:27:38 1512170858.388014: $GPGGA,232739,3946.9718,N,08404.9805,W,1,12,0.80,298.32,M,-33.325,M,,*7D
2017-12-01 18:27:38 1512170858.388085: $GPRMC,232739,A,3946.9718,N,08404.9805,W,0.0000,0.000,011217,,*36
2017-12-01 18:27:38 1512170858.388147: $GPGSA,A,3,1,3,14,16,22,23,25,26,31,32,29,138,2.0,0.8,1.5*0C
2017-12-01 18:27:39 1512170859.386976: $GPZDA,232740.00,01,12,2017,00,00*60
2017-12-01 18:27:39 1512170859.387159: $GPGGA,232740,3946.9718,N,08404.9812,W,1,12,0.80,298.24,M,-33.325,M,,*72
2017-12-01 18:27:39 1512170859.387229: $GPRMC,232740,A,3946.9718,N,08404.9812,W,0.0000,0.000,011217,,*3E
2017-12-01 18:27:39 1512170859.387293: $GPGSA,A,3,1,3,14,16,22,23,25,26,31,32,29,138,2.0,0.8,1.5*0C
2017-12-01 18:27:39 1512170859.387354: $GPGBS,232740,10.70,M,15.43,M,35.28,M*07
2017-12-01 18:27:40 1512170860.723551: $GPGSV,3,1,12,01,05,252,33,03,41,297,47,14,54,094,43,16,25,189,44*7E
2017-12-01 18:27:40 1512170860.723735: $GPGSV,3,2,12,22,50,267,44,23,13,301,42,25,16,039,40,26,56,171,47*77
2017-12-01 18:27:40 1512170860.723805: $GPGSV,3,3,12,31,65,030,46,32,34,109,35,29,11,070,00,138,38,213,46*4D
2017-12-01 18:27:40 1512170860.836883: $GPZDA,232741.00,01,12,2017,00,00*61
2017-12-01 18:27:40 1512170860.837061: $GPGGA,232741,3946.9718,N,08404.9812,W,1,11,0.80,298.24,M,-33.325,M,,*70
2017-12-01 18:27:40 1512170860.837130: $GPRMC,232741,A,3946.9718,N,08404.9812,W,0.0000,0.000,011217,,*3F
2017-12-01 18:27:40 1512170860.837193: $GPGSA,A,3,1,3,14,16,22,23,25,26,31,32,138,,2.0,0.8,1.5*07
2017-12-01 18:27:41 1512170861.387934: $GPZDA,232742.00,01,12,2017,00,00*62
2017-12-01 18:27:41 1512170861.388108: $GPGGA,232742,3946.9719,N,08404.9833,W,2,11,0.80,298.01,M,-33.325,M,,*75
2017-12-01 18:27:41 1512170861.388178: $GPRMC,232742,A,3946.9719,N,08404.9833,W,0.0000,0.000,011217,,*3E
2017-12-01 18:27:41 1512170861.388242: $GPGSA,A,3,1,3,14,16,22,23,25,26,31,32,138,,2.0,0.8,1.5*07
2017-12-01 18:27:42 1512170862.387088: $GPZDA,232743.00,01,12,2017,00,00*63
2017-12-01 18:27:42 1512170862.387275: $GPGGA,232743,3946.9719,N,08404.9833,W,2,11,0.80,298.01,M,-33.325,M,,*74
2017-12-01 18:27:42 1512170862.387346: $GPRMC,232743,A,3946.9719,N,08404.9833,W,0.0000,0.000,011217,,*3F
2017-12-01 18:27:42 1512170862.387410: $GPGSA,A,3,1,3,14,16,22,23,25,26,31,32,138,,2.0,0.8,1.5*07
2017-12-01 18:27:43 1512170863.725097: $GPGSV,3,1,12,01,05,252,33,03,41,297,47,14,54,094,43,16,25,189,44*7E
2017-12-01 18:27:43 1512170863.725279: $GPGSV,3,2,12,22,50,267,45,23,13,301,42,25,16,039,40,26,56,171,47*76
2017-12-01 18:27:43 1512170863.725347: $GPGSV,3,3,12,31,65,030,46,32,34,109,37,29,11,070,00,138,38,213,46*4F
2017-12-01 18:27:43 1512170863.838438: $GPZDA,232744.00,01,12,2017,00,00*64
2017-12-01 18:27:43 1512170863.838676: $GPGGA,232744,3946.9719,N,08404.9833,W,2,11,0.80,298.01,M,-33.325,M,,*73
2017-12-01 18:27:43 1512170863.838750: $GPRMC,232744,A,3946.9719,N,08404.9833,W,0.0000,0.000,011217,,*38
2017-12-01 18:27:43 1512170863.838815: $GPGSA,A,3,1,3,14,16,22,23,25,26,31,32,138,,2.0,0.8,1.5*07
2017-12-01 18:27:44 1512170864.391882: $GPZDA,232745.00,01,12,2017,00,00*65
2017-12-01 18:27:44 1512170864.392075: $GPGGA,232745,3946.9719,N,08404.9833,W,2,11,0.80,298.01,M,-33.325,M,,*72
2017-12-01 18:27:44 1512170864.392146: $GPRMC,232745,A,3946.9719,N,08404.9833,W,0.0000,0.000,011217,,*39
2017-12-01 18:27:44 1512170864.392210: $GPGSA,A,3,1,3,14,16,22,23,25,26,31,32,138,,2.0,0.8,1.5*07
2017-12-01 18:27:45 1512170865.389107: $GPZDA,232746.00,01,12,2017,00,00*66
2017-12-01 18:27:45 1512170865.389281: $GPGGA,232746,3946.9719,N,08404.9833,W,2,11,0.80,298.01,M,-33.325,M,,*71
2017-12-01 18:27:45 1512170865.389350: $GPRMC,232746,A,3946.9719,N,08404.9833,W,0.0000,0.000,011217,,*3A
2017-12-01 18:27:45 1512170865.389414: $GPGSA,A,3,1,3,14,16,22,23,25,26,31,32,138,,2.0,0.8,1.5*07
2017-12-01 18:27:46 1512170866.724685: $GPGSV,3,1,12,01,05,252,33,03,41,297,47,14,54,094,43,16,25,189,44*7E
2017-12-01 18:27:46 1512170866.724898: $GPGSV,3,2,12,22,50,267,45,23,13,301,43,25,16,039,40,26,56,171,47*77
2017-12-01 18:27:46 1512170866.724969: $GPGSV,3,3,12,31,65,030,46,32,34,109,37,29,11,070,26,138,38,213,46*4B
2017-12-01 18:27:46 1512170866.838113: $GPZDA,232747.00,01,12,2017,00,00*67
2017-12-01 18:27:46 1512170866.838287: $GPGGA,232747,3946.9719,N,08404.9833,W,2,12,0.80,298.01,M,-33.325,M,,*73
2017-12-01 18:27:46 1512170866.838356: $GPRMC,232747,A,3946.9719,N,08404.9833,W,0.0000,0.000,011217,,*3B
2017-12-01 18:27:46 1512170866.838461: $GPGSA,A,3,1,3,14,16,22,23,25,26,31,32,29,138,2.0,0.8,1.5*0C
2017-12-01 18:27:47 1512170867.463444: $GPZDA,232748.00,01,12,2017,00,00*68
2017-12-01 18:27:47 1512170867.463634: $GPGGA,232748,3946.9719,N,08404.9833,W,2,12,0.80,298.01,M,-33.325,M,,*7C
2017-12-01 18:27:47 1512170867.463701: $GPRMC,232748,A,3946.9719,N,08404.9833,W,0.0000,0.000,011217,,*34
2017-12-01 18:27:47 1512170867.463790: $GPGSA,A,3,1,3,14,16,22,23,25,26,31,32,29,138,2.0,0.8,1.5*0C
2017-12-01 18:27:48 1512170868.386949: $GPZDA,232749.00,01,12,2017,00,00*69
2017-12-01 18:27:48 1512170868.387104: $GPGGA,232749,3946.9719,N,08404.9833,W,2,12,0.80,298.01,M,-33.325,M,,*7D
2017-12-01 18:27:48 1512170868.387169: $GPRMC,232749,A,3946.9719,N,08404.9833,W,0.0000,0.000,011217,,*35
2017-12-01 18:27:48 1512170868.387230: $GPGSA,A,3,1,3,14,16,22,23,25,26,31,32,29,138,2.0,0.8,1.5*0C
2017-12-01 18:27:49 1512170869.725047: $GPGSV,3,1,12,01,05,252,33,03,41,297,47,14,54,094,44,16,25,189,43*7E
2017-12-01 18:27:49 1512170869.725205: $GPGSV,3,2,12,22,50,267,44,23,13,301,43,25,16,039,41,26,56,171,47*77
2017-12-01 18:27:49 1512170869.725270: $GPGSV,3,3,12,31,65,030,47,32,34,109,38,29,11,070,26,138,38,213,47*44
2017-12-01 18:27:49 1512170869.838445: $GPZDA,232750.00,01,12,2017,00,00*61
2017-12-01 18:27:49 1512170869.838635: $GPGGA,232750,3946.9718,N,08404.9839,W,2,12,0.80,295.12,M,-33.325,M,,*71
2017-12-01 18:27:49 1512170869.838717: $GPRMC,232750,A,3946.9718,N,08404.9839,W,0.0000,0.000,011217,,*36
2017-12-01 18:27:49 1512170869.838780: $GPGSA,A,3,1,3,14,16,22,23,25,26,31,32,29,138,2.0,0.8,1.5*0C
2017-12-01 18:27:50 1512170870.389376: $GPZDA,232751.00,01,12,2017,00,00*60
2017-12-01 18:27:50 1512170870.389548: $GPGGA,232751,3946.9718,N,08404.9839,W,2,12,0.80,295.12,M,-33.325,M,,*70
2017-12-01 18:27:50 1512170870.389636: $GPRMC,232751,A,3946.9718,N,08404.9839,W,0.0000,0.000,011217,,*37
2017-12-01 18:27:50 1512170870.389714: $GPGSA,A,3,1,3,14,16,22,23,25,26,31,32,29,138,2.0,0.8,1.5*0C
2017-12-01 18:27:51 1512170871.389046: $GPZDA,232752.00,01,12,2017,00,00*63
2017-12-01 18:27:51 1512170871.389207: $GPGGA,232752,3946.9718,N,08404.9839,W,2,12,0.80,295.12,M,-33.325,M,,*73
2017-12-01 18:27:51 1512170871.389273: $GPRMC,232752,A,3946.9718,N,08404.9839,W,0.0000,0.000,011217,,*34
2017-12-01 18:27:51 1512170871.389333: $GPGSA,A,3,1,3,14,16,22,23,25,26,31,32,29,138,2.0,0.8,1.5*0C
2017-12-01 18:27:51 1512170871.389392: $GPGBS,232752,2.67,M,3.86,M,8.82,M*31
