2017-11-16 15:49:14 1510865354.856539: {"class":"VERSION","release":"3.17","rev":"3.17","proto_major":3,"proto_minor":12}
2017-11-16 15:49:14 1510865354.856982: {"class":"DEVICES","devices":[{"class":"DEVICE","path":"/dev/ttyUSB0","driver":"SiRF","subtype":"9\u0006GSD4e_4.1.2-P1_RPATCH.05-F-GPS-4R-1510281 11/03/2015 307","activated":"2017-11-16T20:49:14.511Z","flags":1,"native":1,"bps":4800,"parity":"N","stopbits":1,"cycle":1.00}]}
2017-11-16 15:49:14 1510865354.857098: {"class":"WATCH","enable":true,"json":false,"nmea":true,"raw":0,"scaled":false,"timing":false,"split24":false,"pps":false}
2017-11-16 15:49:15 1510865355.377440: $GPZDA,204914.00,16,11,2017,00,00*6F
2017-11-16 15:49:15 1510865355.377598: $GPGGA,204914,3946.9579,N,08404.9851,W,2,12,1.20,308.80,M,-33.324,M,,*75
2017-11-16 15:49:15 1510865355.377658: $GPRMC,204914,A,3946.9579,N,08404.9851,W,0.0000,0.000,161117,,*33
2017-11-16 15:49:15 1510865355.377713: $GPGSA,A,3,11,10,14,31,18,25,21,24,8,32,12,138,1.6,1.2,1.3*39
2017-11-16 15:49:16 1510865356.694927: $GPGSV,3,1,12,11,03,322,34,10,78,351,51,14,36,262,44,08,02,285,29*7A
2017-11-16 15:49:16 1510865356.695098: $GPGSV,3,2,12,18,63,111,49,25,10,135,04,21,19,178,42,24,37,051,50*7E
2017-11-16 15:49:16 1510865356.695157: $GPGSV,3,3,12,15,04,072,21,32,53,277,46,12,15,099,44,138,38,213,45*4C
2017-11-16 15:49:16 1510865356.808505: $GPZDA,204915.00,16,11,2017,00,00*6E
2017-11-16 15:49:16 1510865356.808648: $GPGGA,204915,3946.9579,N,08404.9851,W,2,11,1.20,308.80,M,-33.324,M,,*77
2017-11-16 15:49:16 1510865356.808705: $GPRMC,204915,A,3946.9579,N,08404.9851,W,0.0000,0.000,161117,,*32
2017-11-16 15:49:16 1510865356.808759: $GPGSA,A,3,11,10,14,8,18,21,24,15,32,12,138,,1.6,1.2,1.3*38
2017-11-16 15:49:17 1510865357.374137: $GPZDA,204916.00,16,11,2017,00,00*6D
2017-11-16 15:49:17 1510865357.374301: $GPGGA,204916,3946.9579,N,08404.9851,W,2,11,1.20,308.80,M,-33.324,M,,*74
2017-11-16 15:49:17 1510865357.374362: $GPRMC,204916,A,3946.9579,N,08404.9851,W,0.0000,0.000,161117,,*31
2017-11-16 15:49:17 1510865357.374418: $GPGSA,A,3,11,10,14,8,18,21,24,15,32,12,138,,1.6,1.2,1.3*38
2017-11-16 15:49:18 1510865358.366232: $GPZDA,204917.00,16,11,2017,00,00*6C
2017-11-16 15:49:19 1510865359.107206: $GPGGA,204917,3946.9579,N,08404.9851,W,2,11,1.20,308.80,M,-33.324,M,,*75
2017-11-16 15:49:19 1510865359.107331: $GPRMC,204917,A,3946.9579,N,08404.9851,W,0.0000,0.000,161117,,*30
2017-11-16 15:49:19 1510865359.107389: $GPGSA,A,3,11,10,14,8,18,21,24,15,32,12,138,,1.6,1.2,1.3*38
2017-11-16 15:49:19 1510865359.704605: $GPGSV,3,1,12,11,03,322,29,10,78,351,51,14,36,262,44,08,02,285,30*7E
2017-11-16 15:49:19 1510865359.704774: $GPGSV,3,2,12,18,63,111,48,25,10,135,11,21,19,178,42,24,37,051,50*7B
2017-11-16 15:49:19 1510865359.704833: $GPGSV,3,3,12,31,08,204,11,32,53,277,46,12,15,099,44,138,38,213,44*47
2017-11-16 15:49:19 1510865359.818515: $GPZDA,204918.00,16,11,2017,00,00*63
2017-11-16 15:49:19 1510865359.818679: $GPGGA,204918,3946.9579,N,08404.9851,W,2,11,1.20,308.80,M,-33.324,M,,*7A
2017-11-16 15:49:19 1510865359.818739: $GPRMC,204918,A,3946.9579,N,08404.9851,W,0.0000,0.000,161117,,*3F
2017-11-16 15:49:19 1510865359.818794: $GPGSA,A,3,11,10,14,8,18,25,21,24,32,12,138,,1.6,1.2,1.3*3B
2017-11-16 15:49:20 1510865360.386727: $GPZDA,204919.00,16,11,2017,00,00*62
2017-11-16 15:49:20 1510865360.386904: $GPGGA,204919,3946.9579,N,08404.9851,W,2,11,1.20,308.80,M,-33.324,M,,*7B
2017-11-16 15:49:20 1510865360.386966: $GPRMC,204919,A,3946.9579,N,08404.9851,W,0.0000,0.000,161117,,*3E
2017-11-16 15:49:20 1510865360.387021: $GPGSA,A,3,11,10,14,8,18,25,21,24,32,12,138,,1.6,1.2,1.3*3B
2017-11-16 15:49:21 1510865361.387971: $GPZDA,204920.00,16,11,2017,00,00*68
2017-11-16 15:49:21 1510865361.388134: $GPGGA,204920,3946.9579,N,08404.9851,W,2,11,1.20,308.80,M,-33.324,M,,*71
2017-11-16 15:49:21 1510865361.388195: $GPRMC,204920,A,3946.9579,N,08404.9851,W,0.0000,0.000,161117,,*34
2017-11-16 15:49:21 1510865361.388251: $GPGSA,A,3,11,10,14,8,18,25,21,24,32,12,138,,1.6,1.2,1.3*3B
2017-11-16 15:49:22 1510865362.705510: $GPGSV,3,1,12,11,03,322,26,10,78,351,51,14,36,262,43,15,04,072,23*74
2017-11-16 15:49:22 1510865362.705771: $GPGSV,3,2,12,18,63,111,48,25,10,135,14,21,19,178,42,24,37,051,50*7E
2017-11-16 15:49:22 1510865362.705837: $GPGSV,3,3,12,31,08,204,22,32,53,277,46,12,15,099,44,138,38,213,45*46
2017-11-16 15:49:22 1510865362.816910: $GPZDA,204921.00,16,11,2017,00,00*69
2017-11-16 15:49:22 1510865362.817083: $GPGGA,204921,3946.9579,N,08404.9851,W,2,12,1.20,308.80,M,-33.324,M,,*73
2017-11-16 15:49:22 1510865362.817142: $GPRMC,204921,A,3946.9579,N,08404.9851,W,0.0000,0.000,161117,,*35
2017-11-16 15:49:22 1510865362.817198: $GPGSA,A,3,11,10,14,15,18,25,21,24,31,32,12,138,1.6,1.2,1.3*05
2017-11-16 15:49:23 1510865363.366905: $GPZDA,204922.00,16,11,2017,00,00*6A
2017-11-16 15:49:23 1510865363.367077: $GPGGA,204922,3946.9579,N,08404.9851,W,2,12,1.20,308.80,M,-33.324,M,,*70
2017-11-16 15:49:23 1510865363.367159: $GPRMC,204922,A,3946.9579,N,08404.9851,W,0.0000,0.000,161117,,*36
2017-11-16 15:49:23 1510865363.367216: $GPGSA,A,3,11,10,14,15,18,25,21,24,31,32,12,138,1.6,1.2,1.3*05
2017-11-16 15:49:24 1510865364.368963: $GPZDA,204923.00,16,11,2017,00,00*6B
2017-11-16 15:49:24 1510865364.369124: $GPGGA,204923,3946.9579,N,08404.9851,W,2,12,1.20,308.80,M,-33.324,M,,*71
2017-11-16 15:49:24 1510865364.369185: $GPRMC,204923,A,3946.9579,N,08404.9851,W,0.0000,0.000,161117,,*37
2017-11-16 15:49:24 1510865364.369240: $GPGSA,A,3,11,10,14,15,18,25,21,24,31,32,12,138,1.6,1.2,1.3*05
