2017-12-14 12:39:03 1513273143.822519: {"class":"VERSION","release":"3.16","rev":"3.16-4","proto_major":3,"proto_minor":11}
2017-12-14 12:39:03 1513273143.822891: {"class":"DEVICES","devices":[{"class":"DEVICE","path":"/dev/ttyUSB0","driver":"SiRF","subtype":"9\u0006GSD4e_4.1.2-P1_RPATCH.05-F-GPS-4R-1510281 11/03/2015 307","activated":"2017-12-14T17:39:03.467Z","flags":1,"native":1,"bps":4800,"parity":"N","stopbits":1,"cycle":1.00}]}
2017-12-14 12:39:03 1513273143.823011: {"class":"WATCH","enable":true,"json":false,"nmea":true,"raw":0,"scaled":false,"timing":false,"split24":false,"pps":false}
2017-12-14 12:39:04 1513273144.151792: $GPZDA,173905.00,14,12,2017,00,00*6D
2017-12-14 12:39:04 1513273144.151957: $GPGGA,173905,3946.9569,N,08404.9325,W,1,06,2.40,310.92,M,-33.324,M,,*76
2017-12-14 12:39:04 1513273144.152024: $GPRMC,173905,A,3946.9569,N,08404.9325,W,1.4016,28.032,141217,,*01
2017-12-14 12:39:04 1513273144.152147: $GPGSA,A,3,24,10,21,18,20,32,,,,,,,6.6,2.4,6.2*3E
2017-12-14 12:39:05 1513273145.489296: $GPGSV,3,1,11,24,53,094,23,10,49,309,22,21,53,183,23,18,76,006,15*75
2017-12-14 12:39:05 1513273145.489481: $GPGSV,3,2,11,20,27,103,18,32,29,244,14,15,29,055,16,27,17,280,00*78
2017-12-14 12:39:05 1513273145.489566: $GPGSV,3,3,11,14,11,237,00,08,08,315,00,138,38,213,00*7C
2017-12-14 12:39:05 1513273145.601491: $GPZDA,173906.00,14,12,2017,00,00*6E
2017-12-14 12:39:05 1513273145.601663: $GPGGA,173906,3946.9573,N,08404.9324,W,1,06,2.40,310.15,M,-33.324,M,,*70
2017-12-14 12:39:05 1513273145.601730: $GPRMC,173906,A,3946.9573,N,08404.9324,W,1.5068,37.893,141217,,*0D
2017-12-14 12:39:05 1513273145.601791: $GPGSA,A,3,24,10,21,18,20,32,,,,,,,6.6,2.4,6.2*3E
2017-12-14 12:39:06 1513273146.154142: $GPZDA,173907.00,14,12,2017,00,00*6F
2017-12-14 12:39:06 1513273146.154310: $GPGGA,173907,3946.9580,N,08404.9323,W,1,06,2.40,308.62,M,-33.324,M,,*73
2017-12-14 12:39:06 1513273146.154378: $GPRMC,173907,A,3946.9580,N,08404.9323,W,1.3714,41.037,141217,,*0A
2017-12-14 12:39:06 1513273146.154440: $GPGSA,A,3,24,10,21,18,20,32,,,,,,,6.6,2.4,6.2*3E
2017-12-14 12:39:07 1513273147.155605: $GPZDA,173908.00,14,12,2017,00,00*60
2017-12-14 12:39:07 1513273147.155781: $GPGGA,173908,3946.9583,N,08404.9322,W,1,06,2.40,307.86,M,-33.324,M,,*7B
2017-12-14 12:39:07 1513273147.155849: $GPRMC,173908,A,3946.9583,N,08404.9322,W,1.4016,28.032,141217,,*0F
2017-12-14 12:39:07 1513273147.155910: $GPGSA,A,3,24,10,21,18,20,32,,,,,,,6.6,2.4,6.2*3E
2017-12-14 12:39:08 1513273148.489215: $GPGSV,3,1,11,24,53,094,23,10,49,309,23,21,53,183,23,18,76,006,15*74
2017-12-14 12:39:08 1513273148.489389: $GPGSV,3,2,11,20,27,103,18,32,29,244,14,15,29,055,00,27,17,280,00*7F
2017-12-14 12:39:08 1513273148.489454: $GPGSV,3,3,11,14,11,237,00,08,08,315,00,138,38,213,00*7C
2017-12-14 12:39:08 1513273148.602644: $GPZDA,173909.00,14,12,2017,00,00*61
2017-12-14 12:39:08 1513273148.602832: $GPGGA,173909,3946.9587,N,08404.9322,W,1,06,2.40,307.09,M,-33.324,M,,*79
2017-12-14 12:39:08 1513273148.602899: $GPRMC,173909,A,3946.9587,N,08404.9322,W,2.0773,35.023,141217,,*05
2017-12-14 12:39:08 1513273148.602960: $GPGSA,A,3,24,10,21,18,20,32,,,,,,,6.6,2.4,6.2*3E
2017-12-14 12:39:09 1513273149.154759: $GPZDA,173910.00,14,12,2017,00,00*69
2017-12-14 12:39:09 1513273149.154929: $GPGGA,173910,3946.9598,N,08404.9320,W,1,06,2.40,306.21,M,-33.324,M,,*76
2017-12-14 12:39:09 1513273149.154997: $GPRMC,173910,A,3946.9598,N,08404.9320,W,2.2328,32.272,141217,,*08
2017-12-14 12:39:09 1513273149.155058: $GPGSA,A,3,24,10,21,18,20,32,,,,,,,6.6,2.4,6.2*3E
2017-12-14 12:39:10 1513273150.154877: $GPZDA,173911.00,14,12,2017,00,00*68
2017-12-14 12:39:10 1513273150.155047: $GPGGA,173911,3946.9601,N,08404.9319,W,1,06,2.40,305.44,M,-33.324,M,,*7E
2017-12-14 12:39:10 1513273150.155113: $GPRMC,173911,A,3946.9601,N,08404.9319,W,1.7203,23.421,141217,,*0E
2017-12-14 12:39:10 1513273150.155173: $GPGSA,A,3,24,10,21,18,20,32,,,,,,,6.6,2.4,6.2*3E
2017-12-14 12:39:11 1513273151.491043: $GPGSV,3,1,11,24,53,094,23,10,49,309,24,21,53,183,23,18,76,006,16*70
2017-12-14 12:39:11 1513273151.491217: $GPGSV,3,2,11,20,27,103,18,32,29,244,13,14,11,237,12,15,29,055,00*71
2017-12-14 12:39:11 1513273151.491360: $GPGSV,3,3,11,27,17,280,00,08,08,315,00,138,38,213,00*76
2017-12-14 12:39:11 1513273151.604431: $GPZDA,173912.00,14,12,2017,00,00*6B
2017-12-14 12:39:11 1513273151.604599: $GPGGA,173912,3946.9608,N,08404.9318,W,1,06,2.40,303.91,M,-33.324,M,,*7B
2017-12-14 12:39:11 1513273151.604666: $GPRMC,173912,A,3946.9608,N,08404.9318,W,1.7814,359.478,141217,,*3B
2017-12-14 12:39:11 1513273151.604727: $GPGSA,A,3,24,10,21,18,20,32,,,,,,,6.6,2.4,6.2*3E
2017-12-14 12:39:12 1513273152.154609: $GPZDA,173913.00,14,12,2017,00,00*6A
2017-12-14 12:39:12 1513273152.154791: $GPGGA,173913,3946.9608,N,08404.9325,W,1,06,2.40,303.83,M,-33.324,M,,*77
2017-12-14 12:39:12 1513273152.154858: $GPRMC,173913,A,3946.9608,N,08404.9325,W,1.1685,354.282,141217,,*3A
2017-12-14 12:39:12 1513273152.154920: $GPGSA,A,3,24,10,21,18,20,32,,,,,,,6.6,2.4,6.2*3E
2017-12-14 12:39:13 1513273153.158680: $GPZDA,173914.00,14,12,2017,00,00*6D
2017-12-14 12:39:13 1513273153.158848: $GPGGA,173914,3946.9612,N,08404.9324,W,1,06,2.40,303.07,M,-33.324,M,,*76
2017-12-14 12:39:13 1513273153.158915: $GPRMC,173914,A,3946.9612,N,08404.9324,W,1.1830,4.859,141217,,*3D
2017-12-14 12:39:13 1513273153.158977: $GPGSA,A,3,24,10,21,18,20,32,,,,,,,6.6,2.4,6.2*3E
2017-12-14 12:39:14 1513273154.491635: $GPGSV,3,1,11,24,53,094,22,10,49,309,24,21,53,183,23,18,76,006,16*71
2017-12-14 12:39:14 1513273154.491811: $GPGSV,3,2,11,20,27,103,18,32,29,244,12,14,11,237,12,27,17,280,08*7E
2017-12-14 12:39:14 1513273154.491877: $GPGSV,3,3,11,15,29,055,00,08,08,315,00,138,38,213,00*70
2017-12-14 12:39:14 1513273154.605015: $GPZDA,173915.00,14,12,2017,00,00*6C
2017-12-14 12:39:14 1513273154.605189: $GPGGA,173915,3946.9616,N,08404.9331,W,1,06,2.40,303.63,M,-33.324,M,,*75
2017-12-14 12:39:14 1513273154.605255: $GPRMC,173915,A,3946.9616,N,08404.9331,W,1.7180,338.672,141217,,*33
2017-12-14 12:39:14 1513273154.605316: $GPGSA,A,3,24,10,21,18,20,32,,,,,,,6.6,2.4,6.2*3E
2017-12-14 12:39:15 1513273155.152690: $GPZDA,173916.00,14,12,2017,00,00*6F
2017-12-14 12:39:15 1513273155.152859: $GPGGA,173916,3946.9617,N,08404.9338,W,1,06,27.80,303.55,M,-33.324,M,,*40
2017-12-14 12:39:15 1513273155.152926: $GPRMC,173916,A,3946.9617,N,08404.9338,W,1.3082,341.818,141217,,*33
2017-12-14 12:39:15 1513273155.152988: $GPGSA,A,3,24,10,21,18,20,32,,,,,,,6.6,27.8,6.2*05
2017-12-14 12:39:16 1513273156.151509: $GPZDA,173917.00,14,12,2017,00,00*6E
2017-12-14 12:39:16 1513273156.151688: $GPGGA,173917,3946.9617,N,08404.9339,W,1,06,27.80,304.95,M,-33.324,M,,*4B
2017-12-14 12:39:16 1513273156.151756: $GPRMC,173917,A,3946.9617,N,08404.9339,W,1.1323,338.868,141217,,*30
2017-12-14 12:39:16 1513273156.151817: $GPGSA,A,3,24,10,21,18,20,32,,,,,,,6.6,27.8,6.2*05
2017-12-14 12:39:17 1513273157.488965: $GPGSV,3,1,11,24,53,094,22,10,49,309,24,21,53,183,23,18,76,006,15*72
2017-12-14 12:39:17 1513273157.489145: $GPGSV,3,2,11,20,27,103,18,32,29,244,04,15,29,055,00,27,17,280,10*7F
2017-12-14 12:39:17 1513273157.489211: $GPGSV,3,3,11,14,11,237,00,08,08,315,00,138,38,213,00*7C
2017-12-14 12:39:17 1513273157.602400: $GPZDA,173918.00,14,12,2017,00,00*61
2017-12-14 12:39:17 1513273157.602554: $GPGGA,173918,3946.9618,N,08404.9340,W,1,05,27.80,306.36,M,-33.324,M,,*4D
2017-12-14 12:39:17 1513273157.602623: $GPRMC,173918,A,3946.9618,N,08404.9340,W,1.0269,4.197,141217,,*35
2017-12-14 12:39:17 1513273157.602683: $GPGSA,A,3,24,10,21,18,20,,,,,,,,6.6,27.8,6.2*04
2017-12-14 12:39:18 1513273158.155371: $GPZDA,173919.00,14,12,2017,00,00*60
2017-12-14 12:39:18 1513273158.155557: $GPGGA,173919,3946.9618,N,08404.9347,W,1,05,8.20,306.28,M,-33.324,M,,*73
2017-12-14 12:39:18 1513273158.155625: $GPRMC,173919,A,3946.9618,N,08404.9347,W,1.0534,350.904,141217,,*3C
2017-12-14 12:39:18 1513273158.155687: $GPGSA,A,3,24,10,21,18,20,,,,,,,,6.6,8.2,6.2*33
2017-12-14 12:39:19 1513273159.155881: $GPZDA,173920.00,14,12,2017,00,00*6A
2017-12-14 12:39:19 1513273159.156036: $GPGGA,173920,3946.9619,N,08404.9347,W,1,05,8.20,307.68,M,-33.324,M,,*7D
2017-12-14 12:39:19 1513273159.156102: $GPRMC,173920,A,3946.9619,N,08404.9347,W,0.8709,3.298,141217,,*39
2017-12-14 12:39:19 1513273159.156221: $GPGSA,A,3,24,10,21,18,20,,,,,,,,6.6,8.2,6.2*33
2017-12-14 12:39:20 1513273160.490829: $GPGSV,3,1,11,24,53,094,21,10,49,309,24,21,53,183,24,18,76,006,14*77
2017-12-14 12:39:20 1513273160.491007: $GPGSV,3,2,11,20,27,103,18,32,29,244,04,15,29,055,05,27,17,280,11*7B
2017-12-14 12:39:20 1513273160.491073: $GPGSV,3,3,11,14,11,237,00,08,08,315,00,138,38,213,00*7C
2017-12-14 12:39:20 1513273160.604273: $GPZDA,173921.00,14,12,2017,00,00*6B
2017-12-14 12:39:20 1513273160.604451: $GPGGA,173921,3946.9619,N,08404.9347,W,1,06,8.20,307.68,M,-33.324,M,,*7F
2017-12-14 12:39:20 1513273160.604519: $GPRMC,173921,A,3946.9619,N,08404.9347,W,0.8414,39.347,141217,,*0D
2017-12-14 12:39:20 1513273160.604580: $GPGSA,A,3,24,10,21,18,20,27,,,,,,,6.6,8.2,6.2*36
2017-12-14 12:39:21 1513273161.155618: $GPZDA,173922.00,14,12,2017,00,00*68
2017-12-14 12:39:21 1513273161.155789: $GPGGA,173922,3946.9616,N,08404.9348,W,1,06,8.20,308.45,M,-33.324,M,,*7C
2017-12-14 12:39:21 1513273161.155855: $GPRMC,173922,A,3946.9616,N,08404.9348,W,0.3423,4.197,141217,,*30
2017-12-14 12:39:21 1513273161.155916: $GPGSA,A,3,24,10,21,18,20,27,,,,,,,6.6,8.2,6.2*36
2017-12-14 12:39:22 1513273162.155894: $GPZDA,173923.00,14,12,2017,00,00*69
2017-12-14 12:39:22 1513273162.156060: $GPGGA,173923,3946.9620,N,08404.9348,W,1,06,8.20,309.09,M,-33.324,M,,*71
2017-12-14 12:39:22 1513273162.156126: $GPRMC,173923,A,3946.9620,N,08404.9348,W,0.5951,58.684,141217,,*06
2017-12-14 12:39:22 1513273162.156187: $GPGSA,A,3,24,10,21,18,20,27,,,,,,,6.6,8.2,6.2*36
2017-12-14 12:39:23 1513273163.491959: $GPGSV,3,1,11,24,53,094,15,10,49,309,25,21,53,183,24,18,76,006,10*75
2017-12-14 12:39:23 1513273163.492175: $GPGSV,3,2,11,20,27,103,18,32,29,244,04,15,29,055,05,27,17,280,12*78
2017-12-14 12:39:23 1513273163.492243: $GPGSV,3,3,11,14,11,237,00,08,08,315,00,138,38,213,00*7C
2017-12-14 12:39:23 1513273163.605420: $GPZDA,173924.00,14,12,2017,00,00*6E
2017-12-14 12:39:23 1513273163.605620: $GPGGA,173924,3946.9616,N,08404.9349,W,1,06,8.40,309.85,M,-33.324,M,,*70
2017-12-14 12:39:23 1513273163.605707: $GPRMC,173924,A,3946.9616,N,08404.9349,W,0.7278,23.637,141217,,*03
2017-12-14 12:39:23 1513273163.605771: $GPGSA,A,3,24,10,21,18,20,27,,,,,,,6.6,8.4,6.2*30
