2017-12-29 11:57:05 1514566625.887005: {"class":"VERSION","release":"3.16","rev":"3.16-4","proto_major":3,"proto_minor":11}
2017-12-29 11:57:05 1514566625.887328: {"class":"DEVICES","devices":[{"class":"DEVICE","path":"/dev/ttyUSB0","driver":"SiRF","subtype":"9\u0006GSD4e_4.1.2-P1_RPATCH.05-F-GPS-4R-1510281 11/03/2015 307","activated":"2017-12-29T16:57:05.374Z","flags":1,"native":1,"bps":4800,"parity":"N","stopbits":1,"cycle":1.00}]}
2017-12-29 11:57:05 1514566625.887440: {"class":"WATCH","enable":true,"json":false,"nmea":true,"raw":0,"scaled":false,"timing":false,"split24":false,"pps":false}
2017-12-29 11:57:06 1514566626.573468: $GPZDA,165707.23,29,12,2017,00,00*69
2017-12-29 11:57:06 1514566626.573629: $GPGGA,165707,3946.9614,N,08404.9911,W,1,11,1.00,319.66,M,-33.324,M,,*7A
2017-12-29 11:57:06 1514566626.573695: $GPRMC,165707,A,3946.9614,N,08404.9911,W,0.2959,54.767,291217,,*09
2017-12-29 11:57:06 1514566626.573756: $GPGSA,A,3,8,10,15,18,20,21,24,32,14,27,138,,1.7,1.0,1.3*3F
2017-12-29 11:57:06 1514566626.573814: $GPGBS,165707,10.91,M,10.38,M,30.89,M*0D
2017-12-29 11:57:07 1514566627.505538: $GPZDA,165707.34,29,12,2017,00,00*6F
2017-12-29 11:57:07 1514566627.505706: $GPGGA,165707,3946.9618,N,08404.9910,W,1,11,1.00,318.90,M,-33.324,M,,*7F
2017-12-29 11:57:07 1514566627.505772: $GPRMC,165707,A,3946.9618,N,08404.9910,W,0.2172,85.763,291217,,*0D
2017-12-29 11:57:07 1514566627.505834: $GPGSA,A,3,8,10,15,18,20,21,24,32,14,27,138,,1.7,1.0,1.3*3F
2017-12-29 11:57:07 1514566627.505893: $GPGBS,165707,10.91,M,10.38,M,30.89,M*0D
2017-12-29 11:57:08 1514566628.647915: $GPGSV,3,1,11,10,57,316,46,14,17,243,24,15,22,060,31,18,77,046,35*73
2017-12-29 11:57:08 1514566628.648095: $GPGSV,3,2,11,20,21,109,48,21,44,181,47,24,52,078,50,32,36,252,31*7D
2017-12-29 11:57:08 1514566628.648160: $GPGSV,3,3,11,08,08,307,06,27,13,271,18,138,38,213,00*70
2017-12-29 11:57:08 1514566628.761669: $GPZDA,165708.00,29,12,2017,00,00*67
2017-12-29 11:57:08 1514566628.761854: $GPGGA,165708,3946.9617,N,08404.9909,W,1,10,0.80,317.49,M,-33.324,M,,*74
2017-12-29 11:57:08 1514566628.761922: $GPRMC,165708,A,3946.9617,N,08404.9909,W,0.3155,129.994,291217,,*30
2017-12-29 11:57:08 1514566628.761983: $GPGSA,A,3,10,14,15,18,20,21,24,32,8,27,,,1.7,0.8,1.3*0C
2017-12-29 11:57:09 1514566629.213659: $GPZDA,165709.00,29,12,2017,00,00*66
2017-12-29 11:57:09 1514566629.213826: $GPGGA,165709,3946.9624,N,08404.9915,W,1,10,0.80,315.89,M,-33.324,M,,*76
2017-12-29 11:57:09 1514566629.213892: $GPRMC,165709,A,3946.9624,N,08404.9915,W,0.3155,129.994,291217,,*3C
2017-12-29 11:57:09 1514566629.213953: $GPGSA,A,3,10,14,15,18,20,21,24,32,8,27,,,1.7,0.8,1.3*0C
2017-12-29 11:57:09 1514566629.664221: $GPZDA,165710.00,29,12,2017,00,00*6E
2017-12-29 11:57:09 1514566629.664399: $GPGGA,165710,3946.9624,N,08404.9914,W,1,10,0.80,314.48,M,-33.324,M,,*73
2017-12-29 11:57:09 1514566629.664466: $GPRMC,165710,A,3946.9624,N,08404.9914,W,0.0000,0.000,291217,,*39
2017-12-29 11:57:09 1514566629.664527: $GPGSA,A,3,10,14,15,18,20,21,24,32,8,27,,,1.7,0.8,1.3*0C
2017-12-29 11:57:10 1514566630.708252: $GPGSV,3,1,11,10,57,316,46,14,17,243,33,15,22,060,45,18,77,046,45*71
2017-12-29 11:57:10 1514566630.708704: $GPGSV,3,2,11,20,21,109,49,21,44,181,48,24,52,078,51,32,36,252,38*7B
2017-12-29 11:57:10 1514566630.711679: $GPGSV,3,3,11,08,08,307,10,27,13,271,34,138,38,213,39*73
2017-12-29 11:57:10 1514566630.821589: $GPZDA,165711.00,29,12,2017,00,00*6F
2017-12-29 11:57:10 1514566630.821774: $GPGGA,165711,3946.9627,N,08404.9913,W,1,10,1.00,313.72,M,-33.324,M,,*71
2017-12-29 11:57:10 1514566630.821842: $GPRMC,165711,A,3946.9627,N,08404.9913,W,0.0000,0.000,291217,,*3C
2017-12-29 11:57:10 1514566630.821903: $GPGSA,A,3,10,14,15,18,20,21,24,32,27,138,,,1.7,1.0,1.3*07
2017-12-29 11:57:11 1514566631.372470: $GPZDA,165712.00,29,12,2017,00,00*6C
2017-12-29 11:57:11 1514566631.372648: $GPGGA,165712,3946.9630,N,08404.9919,W,1,10,0.80,311.47,M,-33.324,M,,*73
2017-12-29 11:57:11 1514566631.372715: $GPRMC,165712,A,3946.9630,N,08404.9919,W,0.0000,0.000,291217,,*33
2017-12-29 11:57:11 1514566631.372823: $GPGSA,A,3,10,14,15,18,20,21,24,32,27,138,,,1.7,0.8,1.3*0E
2017-12-29 11:57:12 1514566632.370935: $GPZDA,165713.00,29,12,2017,00,00*6D
2017-12-29 11:57:12 1514566632.371225: $GPGGA,165713,3946.9634,N,08404.9918,W,1,10,0.80,310.71,M,-33.324,M,,*73
2017-12-29 11:57:12 1514566632.371297: $GPRMC,165713,A,3946.9634,N,08404.9918,W,0.0000,0.000,291217,,*37
2017-12-29 11:57:12 1514566632.371377: $GPGSA,A,3,10,14,15,18,20,21,24,32,27,138,,,1.7,0.8,1.3*0E
2017-12-29 11:57:12 1514566632.371437: $GPGBS,165713,10.91,M,10.38,M,30.89,M*08
2017-12-29 11:57:13 1514566633.707626: $GPGSV,3,1,11,10,57,316,46,14,17,243,33,15,22,060,46,18,77,046,46*71
2017-12-29 11:57:13 1514566633.707806: $GPGSV,3,2,11,20,21,109,49,21,44,181,48,24,52,078,51,32,36,252,39*7A
2017-12-29 11:57:13 1514566633.707872: $GPGSV,3,3,11,08,08,307,25,27,13,271,33,138,38,213,44*78
2017-12-29 11:57:13 1514566633.821354: $GPZDA,165714.00,29,12,2017,00,00*6A
2017-12-29 11:57:13 1514566633.821516: $GPGGA,165714,3946.9637,N,08404.9917,W,1,11,0.80,309.94,M,-33.324,M,,*7A
2017-12-29 11:57:13 1514566633.821582: $GPRMC,165714,A,3946.9637,N,08404.9917,W,0.0000,0.000,291217,,*3C
2017-12-29 11:57:13 1514566633.821643: $GPGSA,A,3,10,14,15,18,20,21,24,32,8,27,138,,1.7,0.8,1.3*36
2017-12-29 11:57:14 1514566634.372395: $GPZDA,165715.00,29,12,2017,00,00*6B
2017-12-29 11:57:14 1514566634.372560: $GPGGA,165715,3946.9660,N,08404.9924,W,2,11,5.20,300.22,M,-33.325,M,,*70
2017-12-29 11:57:14 1514566634.372626: $GPRMC,165715,A,3946.9660,N,08404.9924,W,0.0000,0.000,291217,,*3F
2017-12-29 11:57:14 1514566634.372687: $GPGSA,A,2,10,14,15,18,20,21,24,32,8,27,138,,1.7,5.2,1.3*38
2017-12-29 11:57:15 1514566635.372345: $GPZDA,165716.00,29,12,2017,00,00*68
2017-12-29 11:57:15 1514566635.372514: $GPGGA,165716,3946.9660,N,08404.9924,W,1,11,0.80,300.22,M,-33.325,M,,*7F
2017-12-29 11:57:15 1514566635.372580: $GPRMC,165716,A,3946.9660,N,08404.9924,W,0.0000,0.000,291217,,*3C
2017-12-29 11:57:15 1514566635.372642: $GPGSA,A,3,10,14,15,18,20,21,24,32,8,27,138,,1.7,0.8,1.3*36
2017-12-29 11:57:16 1514566636.706792: $GPGSV,3,1,11,10,57,316,46,14,17,243,33,15,22,060,46,18,77,046,46*71
2017-12-29 11:57:16 1514566636.706971: $GPGSV,3,2,11,20,21,109,49,21,44,181,48,24,52,078,51,32,36,252,39*7A
2017-12-29 11:57:16 1514566636.707037: $GPGSV,3,3,11,08,08,307,27,27,13,271,33,138,38,213,45*7B
2017-12-29 11:57:16 1514566636.820504: $GPZDA,165717.00,29,12,2017,00,00*69
2017-12-29 11:57:16 1514566636.820649: $GPGGA,165717,3946.9660,N,08404.9924,W,1,11,0.80,300.22,M,-33.325,M,,*7E
2017-12-29 11:57:16 1514566636.820714: $GPRMC,165717,A,3946.9660,N,08404.9924,W,0.0000,0.000,291217,,*3D
2017-12-29 11:57:16 1514566636.820774: $GPGSA,A,3,10,14,15,18,20,21,24,32,8,27,138,,1.7,0.8,1.3*36
2017-12-29 11:57:17 1514566637.372283: $GPZDA,165718.00,29,12,2017,00,00*66
2017-12-29 11:57:17 1514566637.372458: $GPGGA,165718,3946.9660,N,08404.9924,W,1,11,0.80,300.22,M,-33.325,M,,*71
2017-12-29 11:57:17 1514566637.372527: $GPRMC,165718,A,3946.9660,N,08404.9924,W,0.0000,0.000,291217,,*32
2017-12-29 11:57:17 1514566637.372588: $GPGSA,A,3,10,14,15,18,20,21,24,32,8,27,138,,1.7,0.8,1.3*36
2017-12-29 11:57:18 1514566638.373072: $GPZDA,165719.00,29,12,2017,00,00*67
2017-12-29 11:57:18 1514566638.373299: $GPGGA,165719,3946.9660,N,08404.9924,W,2,11,0.80,300.22,M,-33.325,M,,*73
2017-12-29 11:57:18 1514566638.373369: $GPRMC,165719,A,3946.9660,N,08404.9924,W,0.0000,0.000,291217,,*33
2017-12-29 11:57:18 1514566638.373430: $GPGSA,A,3,10,14,15,18,20,21,24,32,8,27,138,,1.7,0.8,1.3*36
2017-12-29 11:57:19 1514566639.710050: $GPGSV,3,1,11,10,57,316,46,14,17,243,33,15,22,060,46,18,77,046,46*71
2017-12-29 11:57:19 1514566639.710266: $GPGSV,3,2,11,20,21,109,48,21,44,181,47,24,52,078,51,32,36,252,38*75
2017-12-29 11:57:19 1514566639.710333: $GPGSV,3,3,11,08,08,307,34,27,13,271,32,138,38,213,44*79
2017-12-29 11:57:19 1514566639.823806: $GPZDA,165720.00,29,12,2017,00,00*6D
2017-12-29 11:57:19 1514566639.823953: $GPGGA,165720,3946.9656,N,08404.9925,W,2,11,0.80,300.98,M,-33.325,M,,*7C
2017-12-29 11:57:19 1514566639.824019: $GPRMC,165720,A,3946.9656,N,08404.9925,W,0.0000,0.000,291217,,*3D
2017-12-29 11:57:19 1514566639.824151: $GPGSA,A,3,10,14,15,18,20,21,24,32,8,27,138,,1.7,0.8,1.3*36
2017-12-29 11:57:20 1514566640.448821: $GPZDA,165721.00,29,12,2017,00,00*6C
2017-12-29 11:57:20 1514566640.448992: $GPGGA,165721,3946.9656,N,08404.9918,W,2,11,0.80,301.06,M,-33.325,M,,*75
2017-12-29 11:57:20 1514566640.449058: $GPRMC,165721,A,3946.9656,N,08404.9918,W,0.0000,0.000,291217,,*32
2017-12-29 11:57:20 1514566640.449145: $GPGSA,A,3,10,14,15,18,20,21,24,32,8,27,138,,1.7,0.8,1.3*36
