2017-11-15 19:24:07 1510791847.773692: {"class":"VERSION","release":"3.17","rev":"3.17","proto_major":3,"proto_minor":12}
2017-11-15 19:24:07 1510791847.774144: {"class":"DEVICES","devices":[{"class":"DEVICE","path":"/dev/ttyUSB0","driver":"SiRF","subtype":"9\u0006GSD4e_4.1.2-P1_RPATCH.05-F-GPS-4R-1510281 11/03/2015 307","activated":"2017-11-16T00:24:07.471Z","flags":1,"native":1,"bps":4800,"parity":"N","stopbits":1,"cycle":1.00}]}
2017-11-15 19:24:07 1510791847.774256: {"class":"WATCH","enable":true,"json":false,"nmea":true,"raw":0,"scaled":false,"timing":false,"split24":false,"pps":false}
2017-11-15 19:24:08 1510791848.328792: $GPZDA,002407.00,16,11,2017,00,00*64
2017-11-15 19:24:08 1510791848.328974: $GPGGA,002407,3946.9615,N,08404.9470,W,1,06,1.80,300.76,M,-33.324,M,,*75
2017-11-15 19:24:08 1510791848.329037: $GPRMC,002407,A,3946.9615,N,08404.9470,W,0.0000,0.000,161117,,*3E
2017-11-15 19:24:08 1510791848.329093: $GPGSA,A,3,32,14,26,31,29,3,,,,,,,3.4,1.8,2.9*0D
2017-11-15 19:24:09 1510791849.664655: $GPGSV,3,1,12,32,38,105,24,22,50,274,00,14,57,088,13,26,50,174,27*77
2017-11-15 19:24:09 1510791849.664836: $GPGSV,3,2,12,31,70,021,13,29,10,073,11,16,20,190,00,03,38,301,22*76
2017-11-15 19:24:09 1510791849.664896: $GPGSV,3,3,12,25,19,040,00,23,09,300,00,01,07,255,00,138,38,213,00*4F
2017-11-15 19:24:09 1510791849.778496: $GPZDA,002408.00,16,11,2017,00,00*6B
2017-11-15 19:24:09 1510791849.778656: $GPGGA,002408,3946.9615,N,08404.9477,W,1,06,1.80,300.69,M,-33.324,M,,*73
2017-11-15 19:24:09 1510791849.778717: $GPRMC,002408,A,3946.9615,N,08404.9477,W,0.4844,93.794,161117,,*0A
2017-11-15 19:24:09 1510791849.778772: $GPGSA,A,3,32,14,26,31,29,3,,,,,,,3.4,1.8,2.9*0D
2017-11-15 19:24:10 1510791850.333153: $GPZDA,002409.00,16,11,2017,00,00*6A
2017-11-15 19:24:10 1510791850.333323: $GPGGA,002409,3946.9616,N,08404.9478,W,1,06,1.80,302.09,M,-33.324,M,,*7A
2017-11-15 19:24:10 1510791850.333384: $GPRMC,002409,A,3946.9616,N,08404.9478,W,0.2959,54.768,161117,,*04
2017-11-15 19:24:10 1510791850.333440: $GPGSA,A,3,32,14,26,31,29,3,,,,,,,3.4,1.8,2.9*0D
2017-11-15 19:24:11 1510791851.329122: $GPZDA,002410.00,16,11,2017,00,00*62
2017-11-15 19:24:11 1510791851.329539: $GPGGA,002410,3946.9616,N,08404.9478,W,1,06,1.80,302.09,M,-33.324,M,,*72
2017-11-15 19:24:11 1510791851.335349: $GPRMC,002410,A,3946.9616,N,08404.9478,W,0.5075,72.257,161117,,*01
2017-11-15 19:24:11 1510791851.335418: $GPGSA,A,3,32,14,26,31,29,3,,,,,,,3.4,1.8,2.9*0D
2017-11-15 19:24:12 1510791852.664967: $GPGSV,3,1,12,32,38,105,24,16,20,190,00,14,57,088,13,26,50,174,27*7E
2017-11-15 19:24:12 1510791852.665135: $GPGSV,3,2,12,31,70,021,14,29,10,073,10,22,50,274,13,03,38,301,22*7B
2017-11-15 19:24:12 1510791852.665195: $GPGSV,3,3,12,25,19,040,00,23,09,300,00,01,07,255,00,138,38,213,00*4F
2017-11-15 19:24:12 1510791852.778548: $GPZDA,002411.00,16,11,2017,00,00*63
2017-11-15 19:24:12 1510791852.778707: $GPGGA,002411,3946.9616,N,08404.9478,W,1,06,1.80,302.09,M,-33.324,M,,*73
2017-11-15 19:24:12 1510791852.778768: $GPRMC,002411,A,3946.9616,N,08404.9478,W,0.7103,45.706,161117,,*07
2017-11-15 19:24:12 1510791852.778824: $GPGSA,A,3,32,14,26,31,29,3,,,,,,,3.4,1.8,2.9*0D
2017-11-15 19:24:13 1510791853.329117: $GPZDA,002412.00,16,11,2017,00,00*60
2017-11-15 19:24:13 1510791853.329265: $GPGGA,002412,3946.9616,N,08404.9478,W,1,06,1.80,302.09,M,-33.324,M,,*70
2017-11-15 19:24:13 1510791853.329325: $GPRMC,002412,A,3946.9616,N,08404.9478,W,0.9019,18.875,161117,,*03
2017-11-15 19:24:13 1510791853.329382: $GPGSA,A,3,32,14,26,31,29,3,,,,,,,3.4,1.8,2.9*0D
2017-11-15 19:24:14 1510791854.329987: $GPZDA,002413.00,16,11,2017,00,00*61
2017-11-15 19:24:14 1510791854.330156: $GPGGA,002413,3946.9621,N,08404.9485,W,1,06,1.80,302.65,M,-33.324,M,,*7D
2017-11-15 19:24:14 1510791854.330218: $GPRMC,002413,A,3946.9621,N,08404.9485,W,0.3734,0.000,161117,,*35
2017-11-15 19:24:14 1510791854.330275: $GPGSA,A,3,32,14,26,31,29,3,,,,,,,3.4,1.8,2.9*0D
2017-11-15 19:24:15 1510791855.665767: $GPGSV,3,1,12,32,38,105,25,16,20,190,00,14,57,088,12,26,50,174,27*7E
2017-11-15 19:24:15 1510791855.665956: $GPGSV,3,2,12,31,70,021,16,29,10,073,10,22,50,274,11,03,38,301,22*7B
2017-11-15 19:24:15 1510791855.666065: $GPGSV,3,3,12,25,19,040,00,23,09,300,00,01,07,255,00,138,38,213,00*4F
2017-11-15 19:24:15 1510791855.779381: $GPZDA,002414.00,16,11,2017,00,00*66
2017-11-15 19:24:15 1510791855.779533: $GPGGA,002414,3946.9621,N,08404.9485,W,1,06,1.80,302.65,M,-33.324,M,,*7A
2017-11-15 19:24:15 1510791855.779609: $GPRMC,002414,A,3946.9621,N,08404.9485,W,0.5306,294.352,161117,,*3A
2017-11-15 19:24:15 1510791855.779666: $GPGSA,A,3,32,14,26,31,29,3,,,,,,,3.4,1.8,2.9*0D
2017-11-15 19:24:16 1510791856.404448: $GPZDA,002415.00,16,11,2017,00,00*67
2017-11-15 19:24:16 1510791856.404655: $GPGGA,002415,3946.9618,N,08404.9493,W,1,06,1.80,303.34,M,-33.324,M,,*73
2017-11-15 19:24:16 1510791856.404746: $GPRMC,002415,A,3946.9618,N,08404.9493,W,0.3006,242.540,161117,,*3D
2017-11-15 19:24:16 1510791856.404805: $GPGSA,A,3,32,14,26,31,29,3,,,,,,,3.4,1.8,2.9*0D
2017-11-15 19:24:17 1510791857.331841: $GPZDA,002416.00,16,11,2017,00,00*64
2017-11-15 19:24:17 1510791857.332018: $GPGGA,002416,3946.9618,N,08404.9493,W,1,06,1.60,303.34,M,-33.324,M,,*7E
2017-11-15 19:24:17 1510791857.332079: $GPRMC,002416,A,3946.9618,N,08404.9493,W,0.2758,128.233,161117,,*3F
2017-11-15 19:24:17 1510791857.332135: $GPGSA,A,3,32,14,26,31,29,3,,,,,,,3.4,1.6,2.9*03
