2017-12-01 15:38:21 1512160701.726768: {"class":"VERSION","release":"3.16","rev":"3.16-4","proto_major":3,"proto_minor":11}
2017-12-01 15:38:21 1512160701.727184: {"class":"DEVICES","devices":[{"class":"DEVICE","path":"/dev/ttyUSB0","driver":"SiRF","subtype":"9\u0006GSD4e_4.1.2-P1_RPATCH.05-F-GPS-4R-1510281 11/03/2015 307","activated":"2017-12-01T20:38:21.542Z","flags":1,"native":1,"bps":4800,"parity":"N","stopbits":1,"cycle":1.00}]}
2017-12-01 15:38:21 1512160701.727316: {"class":"WATCH","enable":true,"json":false,"nmea":true,"raw":0,"scaled":false,"timing":false,"split24":false,"pps":false}
2017-12-01 15:38:22 1512160702.739079: $GPGSV,3,1,11,01,12,321,39,10,73,126,47,11,10,304,38,12,24,075,40*7E
2017-12-01 15:38:22 1512160702.739248: $GPGSV,3,2,11,14,52,288,43,18,41,133,46,24,17,045,44,25,27,118,43*7C
2017-12-01 15:38:22 1512160702.739313: $GPGSV,3,3,11,31,31,210,48,32,67,321,49,138,38,213,46*78
2017-12-01 15:38:22 1512160702.852489: $GPZDA,203823.00,01,12,2017,00,00*68
2017-12-01 15:38:22 1512160702.852670: $GPGGA,203823,3946.9578,N,08404.9840,W,2,11,0.80,301.09,M,-33.324,M,,*76
2017-12-01 15:38:22 1512160702.852737: $GPRMC,203823,A,3946.9578,N,08404.9840,W,0.0000,0.000,011217,,*35
2017-12-01 15:38:22 1512160702.852798: $GPGSA,A,3,1,10,11,12,14,18,24,25,31,32,138,,2.0,0.8,1.5*3B
2017-12-01 15:38:23 1512160703.478441: $GPZDA,203824.00,01,12,2017,00,00*6F
2017-12-01 15:38:23 1512160703.478632: $GPGGA,203824,3946.9578,N,08404.9840,W,2,11,0.80,301.09,M,-33.324,M,,*71
2017-12-01 15:38:23 1512160703.478700: $GPRMC,203824,A,3946.9578,N,08404.9840,W,0.0000,0.000,011217,,*32
2017-12-01 15:38:23 1512160703.478761: $GPGSA,A,3,1,10,11,12,14,18,24,25,31,32,138,,2.0,0.8,1.5*3B
2017-12-01 15:38:24 1512160704.401184: $GPZDA,203825.00,01,12,2017,00,00*6E
2017-12-01 15:38:24 1512160704.401409: $GPGGA,203825,3946.9578,N,08404.9840,W,2,11,0.80,301.09,M,-33.324,M,,*70
2017-12-01 15:38:24 1512160704.401485: $GPRMC,203825,A,3946.9578,N,08404.9840,W,0.0000,0.000,011217,,*33
2017-12-01 15:38:24 1512160704.401547: $GPGSA,A,3,1,10,11,12,14,18,24,25,31,32,138,,2.0,0.8,1.5*3B
2017-12-01 15:38:25 1512160705.740671: $GPGSV,3,1,11,01,12,321,39,10,73,126,47,11,10,304,38,12,24,075,40*7E
2017-12-01 15:38:25 1512160705.740852: $GPGSV,3,2,11,14,52,288,43,18,41,133,46,24,17,045,44,25,27,118,43*7C
2017-12-01 15:38:25 1512160705.740920: $GPGSV,3,3,11,31,31,210,48,32,67,321,49,138,38,213,45*7B
2017-12-01 15:38:25 1512160705.854007: $GPZDA,203826.00,01,12,2017,00,00*6D
2017-12-01 15:38:25 1512160705.854137: $GPGGA,203826,3946.9578,N,08404.9840,W,2,11,0.80,301.09,M,-33.324,M,,*73
2017-12-01 15:38:25 1512160705.854202: $GPRMC,203826,A,3946.9578,N,08404.9840,W,0.0000,0.000,011217,,*30
2017-12-01 15:38:25 1512160705.854262: $GPGSA,A,3,1,10,11,12,14,18,24,25,31,32,138,,2.0,0.8,1.5*3B
2017-12-01 15:38:26 1512160706.388711: $GPZDA,203827.00,01,12,2017,00,00*6C
2017-12-01 15:38:26 1512160706.388894: $GPGGA,203827,3946.9578,N,08404.9840,W,2,11,0.80,301.09,M,-33.324,M,,*72
2017-12-01 15:38:26 1512160706.388964: $GPRMC,203827,A,3946.9578,N,08404.9840,W,0.0000,0.000,011217,,*31
2017-12-01 15:38:26 1512160706.389025: $GPGSA,A,3,1,10,11,12,14,18,24,25,31,32,138,,2.0,0.8,1.5*3B
2017-12-01 15:38:27 1512160707.387078: $GPZDA,203828.00,01,12,2017,00,00*63
2017-12-01 15:38:27 1512160707.387271: $GPGGA,203828,3946.9578,N,08404.9840,W,2,11,0.80,301.09,M,-33.324,M,,*7D
2017-12-01 15:38:27 1512160707.387342: $GPRMC,203828,A,3946.9578,N,08404.9840,W,0.0000,0.000,011217,,*3E
2017-12-01 15:38:27 1512160707.387406: $GPGSA,A,3,1,10,11,12,14,18,24,25,31,32,138,,2.0,0.8,1.5*3B
2017-12-01 15:38:28 1512160708.721035: $GPGSV,3,1,11,01,12,321,39,10,73,126,47,11,10,304,38,12,24,075,39*70
2017-12-01 15:38:28 1512160708.721217: $GPGSV,3,2,11,14,52,288,43,18,41,133,46,24,17,045,44,25,27,118,42*7D
2017-12-01 15:38:28 1512160708.721287: $GPGSV,3,3,11,31,31,210,48,32,67,321,49,138,38,213,46*78
2017-12-01 15:38:28 1512160708.836122: $GPZDA,203829.00,01,12,2017,00,00*62
2017-12-01 15:38:28 1512160708.836293: $GPGGA,203829,3946.9578,N,08404.9840,W,2,11,0.80,301.09,M,-33.324,M,,*7C
2017-12-01 15:38:28 1512160708.836418: $GPRMC,203829,A,3946.9578,N,08404.9840,W,0.0000,0.000,011217,,*3F
2017-12-01 15:38:28 1512160708.836482: $GPGSA,A,3,1,10,11,12,14,18,24,25,31,32,138,,2.0,0.8,1.5*3B
2017-12-01 15:38:29 1512160709.385686: $GPZDA,203830.00,01,12,2017,00,00*6A
2017-12-01 15:38:29 1512160709.385857: $GPGGA,203830,3946.9578,N,08404.9840,W,2,11,0.80,301.09,M,-33.324,M,,*74
2017-12-01 15:38:29 1512160709.385923: $GPRMC,203830,A,3946.9578,N,08404.9840,W,0.0000,0.000,011217,,*37
2017-12-01 15:38:29 1512160709.385985: $GPGSA,A,3,1,10,11,12,14,18,24,25,31,32,138,,2.0,0.8,1.5*3B
2017-12-01 15:38:30 1512160710.386542: $GPZDA,203831.00,01,12,2017,00,00*6B
2017-12-01 15:38:30 1512160710.386716: $GPGGA,203831,3946.9578,N,08404.9840,W,2,11,0.80,301.09,M,-33.324,M,,*75
2017-12-01 15:38:30 1512160710.386783: $GPRMC,203831,A,3946.9578,N,08404.9840,W,0.0000,0.000,011217,,*36
2017-12-01 15:38:30 1512160710.386845: $GPGSA,A,3,1,10,11,12,14,18,24,25,31,32,138,,2.0,0.8,1.5*3B
2017-12-01 15:38:31 1512160711.716955: $GPGSV,3,1,11,01,12,321,39,10,73,126,47,11,10,304,38,12,24,075,39*70
2017-12-01 15:38:31 1512160711.717149: $GPGSV,3,2,11,14,52,288,43,18,41,133,46,24,17,045,44,25,27,118,42*7D
2017-12-01 15:38:31 1512160711.717218: $GPGSV,3,3,11,31,31,210,48,32,67,321,49,138,38,213,45*7B
2017-12-01 15:38:31 1512160711.830258: $GPZDA,203832.00,01,12,2017,00,00*68
2017-12-01 15:38:31 1512160711.830409: $GPGGA,203832,3946.9578,N,08404.9840,W,2,11,0.80,301.09,M,-33.324,M,,*76
2017-12-01 15:38:31 1512160711.830476: $GPRMC,203832,A,3946.9578,N,08404.9840,W,0.0000,0.000,011217,,*35
2017-12-01 15:38:31 1512160711.830536: $GPGSA,A,3,1,10,11,12,14,18,24,25,31,32,138,,2.0,0.8,1.5*3B
2017-12-01 15:38:32 1512160712.384906: $GPZDA,203833.00,01,12,2017,00,00*69
2017-12-01 15:38:32 1512160712.385087: $GPGGA,203833,3946.9578,N,08404.9840,W,2,11,0.80,301.09,M,-33.324,M,,*77
2017-12-01 15:38:32 1512160712.385156: $GPRMC,203833,A,3946.9578,N,08404.9840,W,0.0000,0.000,011217,,*34
2017-12-01 15:38:32 1512160712.385218: $GPGSA,A,3,1,10,11,12,14,18,24,25,31,32,138,,2.0,0.8,1.5*3B
2017-12-01 15:38:33 1512160713.385302: $GPZDA,203834.00,01,12,2017,00,00*6E
2017-12-01 15:38:33 1512160713.385474: $GPGGA,203834,3946.9578,N,08404.9840,W,2,11,0.80,301.09,M,-33.324,M,,*70
2017-12-01 15:38:33 1512160713.385541: $GPRMC,203834,A,3946.9578,N,08404.9840,W,0.0000,0.000,011217,,*33
2017-12-01 15:38:33 1512160713.385603: $GPGSA,A,3,1,10,11,12,14,18,24,25,31,32,138,,2.0,0.8,1.5*3B
2017-12-01 15:38:34 1512160714.722322: $GPGSV,3,1,11,01,12,321,38,10,73,126,48,11,10,304,37,12,24,075,39*71
2017-12-01 15:38:34 1512160714.722471: $GPGSV,3,2,11,14,52,288,43,18,41,133,46,24,17,045,44,25,27,118,42*7D
2017-12-01 15:38:34 1512160714.722537: $GPGSV,3,3,11,31,31,210,48,32,67,321,49,138,38,213,46*78
2017-12-01 15:38:34 1512160714.836114: $GPZDA,203835.00,01,12,2017,00,00*6F
2017-12-01 15:38:34 1512160714.836293: $GPGGA,203835,3946.9578,N,08404.9840,W,2,11,0.80,301.09,M,-33.324,M,,*71
2017-12-01 15:38:34 1512160714.836361: $GPRMC,203835,A,3946.9578,N,08404.9840,W,0.0000,0.000,011217,,*32
2017-12-01 15:38:34 1512160714.836423: $GPGSA,A,3,1,10,11,12,14,18,24,25,31,32,138,,2.0,0.8,1.5*3B
2017-12-01 15:38:35 1512160715.387404: $GPZDA,203836.00,01,12,2017,00,00*6C
2017-12-01 15:38:35 1512160715.387580: $GPGGA,203836,3946.9578,N,08404.9833,W,2,11,0.80,301.17,M,-33.324,M,,*79
2017-12-01 15:38:35 1512160715.387647: $GPRMC,203836,A,3946.9578,N,08404.9833,W,0.0000,0.000,011217,,*35
2017-12-01 15:38:35 1512160715.387708: $GPGSA,A,3,1,10,11,12,14,18,24,25,31,32,138,,2.0,0.8,1.5*3B
2017-12-01 15:38:36 1512160716.378796: $GPZDA,203837.00,01,12,2017,00,00*6D
2017-12-01 15:38:36 1512160716.378979: $GPGGA,203837,3946.9578,N,08404.9833,W,2,11,0.80,301.17,M,-33.324,M,,*78
2017-12-01 15:38:36 1512160716.379046: $GPRMC,203837,A,3946.9578,N,08404.9833,W,0.0000,0.000,011217,,*34
2017-12-01 15:38:36 1512160716.379107: $GPGSA,A,3,1,10,11,12,14,18,24,25,31,32,138,,2.0,0.8,1.5*3B
2017-12-01 15:38:37 1512160717.718143: $GPGSV,3,1,11,01,12,321,39,10,73,126,48,11,10,304,38,12,24,075,39*7F
2017-12-01 15:38:37 1512160717.718373: $GPGSV,3,2,11,14,52,288,43,18,41,133,46,24,17,045,44,25,27,118,42*7D
2017-12-01 15:38:37 1512160717.718441: $GPGSV,3,3,11,31,31,210,49,32,67,321,49,138,38,213,46*79
2017-12-01 15:38:37 1512160717.831573: $GPZDA,203838.00,01,12,2017,00,00*62
2017-12-01 15:38:37 1512160717.831749: $GPGGA,203838,3946.9578,N,08404.9833,W,2,11,0.80,301.17,M,-33.324,M,,*77
2017-12-01 15:38:37 1512160717.831817: $GPRMC,203838,A,3946.9578,N,08404.9833,W,0.0000,0.000,011217,,*3B
2017-12-01 15:38:37 1512160717.831878: $GPGSA,A,3,1,10,11,12,14,18,24,25,31,32,138,,2.0,0.8,1.5*3B
2017-12-01 15:38:38 1512160718.459083: $GPZDA,203839.00,01,12,2017,00,00*63
2017-12-01 15:38:38 1512160718.459271: $GPGGA,203839,3946.9578,N,08404.9833,W,2,11,0.80,301.17,M,-33.324,M,,*76
2017-12-01 15:38:38 1512160718.459340: $GPRMC,203839,A,3946.9578,N,08404.9833,W,0.0000,0.000,011217,,*3A
2017-12-01 15:38:38 1512160718.459401: $GPGSA,A,3,1,10,11,12,14,18,24,25,31,32,138,,2.0,0.8,1.5*3B
2017-12-01 15:38:39 1512160719.384356: $GPZDA,203840.00,01,12,2017,00,00*6D
2017-12-01 15:38:39 1512160719.384529: $GPGGA,203840,3946.9578,N,08404.9833,W,2,11,0.80,301.17,M,-33.324,M,,*78
2017-12-01 15:38:39 1512160719.384598: $GPRMC,203840,A,3946.9578,N,08404.9833,W,0.0000,0.000,011217,,*34
2017-12-01 15:38:39 1512160719.384659: $GPGSA,A,3,1,10,11,12,14,18,24,25,31,32,138,,2.0,0.8,1.5*3B
2017-12-01 15:38:40 1512160720.719802: $GPGSV,3,1,11,01,12,321,38,10,73,126,48,11,10,304,39,12,24,075,40*71
2017-12-01 15:38:40 1512160720.719983: $GPGSV,3,2,11,14,52,288,43,18,41,133,46,24,17,045,44,25,27,118,42*7D
2017-12-01 15:38:40 1512160720.720050: $GPGSV,3,3,11,31,31,210,48,32,67,321,49,138,38,213,45*7B
2017-12-01 15:38:40 1512160720.834615: $GPZDA,203841.00,01,12,2017,00,00*6C
2017-12-01 15:38:40 1512160720.834801: $GPGGA,203841,3946.9578,N,08404.9833,W,2,11,0.80,301.17,M,-33.324,M,,*79
2017-12-01 15:38:40 1512160720.834870: $GPRMC,203841,A,3946.9578,N,08404.9833,W,0.0000,0.000,011217,,*35
2017-12-01 15:38:40 1512160720.834932: $GPGSA,A,3,1,10,11,12,14,18,24,25,31,32,138,,2.0,0.8,1.5*3B
2017-12-01 15:38:41 1512160721.385410: $GPZDA,203842.00,01,12,2017,00,00*6F
2017-12-01 15:38:41 1512160721.385595: $GPGGA,203842,3946.9578,N,08404.9833,W,2,11,0.80,301.17,M,-33.324,M,,*7A
2017-12-01 15:38:41 1512160721.385663: $GPRMC,203842,A,3946.9578,N,08404.9833,W,0.0000,0.000,011217,,*36
2017-12-01 15:38:41 1512160721.385923: $GPGSA,A,3,1,10,11,12,14,18,24,25,31,32,138,,2.0,0.8,1.5*3B
