2017-11-15 18:26:18 1510788378.377529: {"class":"VERSION","release":"3.17","rev":"3.17","proto_major":3,"proto_minor":12}
2017-11-15 18:26:18 1510788378.377974: {"class":"DEVICES","devices":[{"class":"DEVICE","path":"/dev/ttyUSB0","driver":"SiRF","subtype":"9\u0006GSD4e_4.1.2-P1_RPATCH.05-F-GPS-4R-1510281 11/03/2015 307","activated":"2017-11-15T23:26:18.217Z","flags":1,"native":1,"bps":4800,"parity":"N","stopbits":1,"cycle":1.00}]}
2017-11-15 18:26:18 1510788378.378120: {"class":"WATCH","enable":true,"json":false,"nmea":true,"raw":0,"scaled":false,"timing":false,"split24":false,"pps":false}
2017-11-15 18:26:18 1510788378.667151: $GPGSV,3,1,10,10,25,156,13,26,22,178,08,25,37,060,24,01,20,277,18*75
2017-11-15 18:26:18 1510788378.667338: $GPGSV,3,2,10,31,76,265,19,32,57,073,22,14,70,030,24,22,37,304,00*70
2017-11-15 18:26:18 1510788378.667398: $GPGSV,3,3,10,03,18,316,00,12,09,034,00*7B
2017-11-15 18:26:18 1510788378.780762: $GPZDA,232617.00,15,11,2017,00,00*65
2017-11-15 18:26:18 1510788378.780920: $GPGGA,232617,3946.9598,N,08404.9516,W,1,07,1.20,292.03,M,-33.324,M,,*73
2017-11-15 18:26:18 1510788378.780980: $GPRMC,232617,A,3946.9598,N,08404.9516,W,0.6846,4.197,151117,,*3F
2017-11-15 18:26:18 1510788378.781055: $GPGSA,A,3,10,26,25,1,31,32,14,,,,,,3.4,1.2,2.9*08
2017-11-15 18:26:19 1510788379.329988: $GPZDA,232618.00,15,11,2017,00,00*6A
2017-11-15 18:26:19 1510788379.330207: $GPGGA,232618,3946.9598,N,08404.9516,W,1,07,5.20,292.03,M,-33.324,M,,*78
2017-11-15 18:26:19 1510788379.330270: $GPRMC,232618,A,3946.9598,N,08404.9516,W,0.7278,23.636,151117,,*0F
2017-11-15 18:26:19 1510788379.330326: $GPGSA,A,3,10,26,25,1,31,32,14,,,,,,3.4,5.2,2.9*0C
2017-11-15 18:26:20 1510788380.360901: $GPZDA,232619.00,15,11,2017,00,00*6B
2017-11-15 18:26:20 1510788380.361103: $GPGGA,232619,3946.9601,N,08404.9509,W,1,07,2.80,291.35,M,-33.324,M,,*7F
2017-11-15 18:26:20 1510788380.361180: $GPRMC,232619,A,3946.9601,N,08404.9509,W,0.9019,18.875,151117,,*09
2017-11-15 18:26:20 1510788380.361237: $GPGSA,A,3,10,26,25,1,31,32,14,,,,,,3.4,2.8,2.9*01
2017-11-15 18:26:21 1510788381.664853: $GPGSV,3,1,10,10,25,156,14,26,22,178,04,25,37,060,23,01,20,277,18*79
2017-11-15 18:26:21 1510788381.665043: $GPGSV,3,2,10,31,76,265,19,32,57,073,22,14,70,030,24,22,37,304,17*76
2017-11-15 18:26:21 1510788381.665106: $GPGSV,3,3,10,03,18,316,05,12,09,034,00*7E
2017-11-15 18:26:21 1510788381.778300: $GPZDA,232620.00,15,11,2017,00,00*61
2017-11-15 18:26:21 1510788381.778461: $GPGGA,232620,3946.9601,N,08404.9509,W,1,07,2.80,291.35,M,-33.324,M,,*75
2017-11-15 18:26:21 1510788381.778522: $GPRMC,232620,A,3946.9601,N,08404.9509,W,1.1294,43.341,151117,,*0F
2017-11-15 18:26:21 1510788381.778577: $GPGSA,A,3,10,25,1,31,32,14,22,,,,,,3.4,2.8,2.9*05
2017-11-15 18:26:22 1510788382.329108: $GPZDA,232621.00,15,11,2017,00,00*60
2017-11-15 18:26:22 1510788382.329327: $GPGGA,232621,3946.9605,N,08404.9502,W,1,07,2.80,292.07,M,-33.324,M,,*79
2017-11-15 18:26:22 1510788382.329411: $GPRMC,232621,A,3946.9605,N,08404.9502,W,1.1902,58.684,151117,,*03
2017-11-15 18:26:22 1510788382.329468: $GPGSA,A,3,10,25,1,31,32,14,22,,,,,,3.4,2.8,2.9*05
2017-11-15 18:26:23 1510788383.359961: $GPZDA,232622.00,15,11,2017,00,00*63
2017-11-15 18:26:23 1510788383.360162: $GPGGA,232622,3946.9608,N,08404.9501,W,1,07,2.80,291.30,M,-33.324,M,,*73
2017-11-15 18:26:23 1510788383.360225: $GPRMC,232622,A,3946.9608,N,08404.9501,W,1.5526,75.076,151117,,*04
2017-11-15 18:26:23 1510788383.360281: $GPGSA,A,3,10,25,1,31,32,14,22,,,,,,3.4,2.8,2.9*05
2017-11-15 18:26:24 1510788384.664467: $GPGSV,3,1,10,10,25,156,13,26,22,178,04,25,37,060,23,01,20,277,17*71
2017-11-15 18:26:24 1510788384.664639: $GPGSV,3,2,10,31,76,265,19,32,57,073,22,14,70,030,24,22,37,304,17*76
2017-11-15 18:26:24 1510788384.664699: $GPGSV,3,3,10,03,18,316,16,12,09,034,00*7C
2017-11-15 18:26:24 1510788384.777895: $GPZDA,232623.00,15,11,2017,00,00*62
2017-11-15 18:26:24 1510788384.778079: $GPGGA,232623,3946.9608,N,08404.9494,W,1,07,2.80,291.38,M,-33.324,M,,*77
2017-11-15 18:26:24 1510788384.778167: $GPRMC,232623,A,3946.9608,N,08404.9494,W,1.3954,64.414,151117,,*07
2017-11-15 18:26:24 1510788384.778294: $GPGSA,A,3,10,25,1,31,32,14,22,,,,,,3.4,2.8,2.9*05
2017-11-15 18:26:25 1510788385.361731: $GPZDA,232624.00,15,11,2017,00,00*65
2017-11-15 18:26:25 1510788385.362030: $GPGGA,232624,3946.9608,N,08404.9487,W,1,07,1.20,291.46,M,-33.324,M,,*72
2017-11-15 18:26:25 1510788385.362184: $GPRMC,232624,A,3946.9608,N,08404.9487,W,0.8054,68.645,151117,,*0B
2017-11-15 18:26:25 1510788385.362290: $GPGSA,A,3,10,25,1,31,32,14,22,,,,,,3.4,1.2,2.9*0C
2017-11-15 18:26:26 1510788386.359096: $GPZDA,232625.00,15,11,2017,00,00*64
2017-11-15 18:26:26 1510788386.359261: $GPGGA,232625,3946.9608,N,08404.9487,W,1,07,1.20,291.46,M,-33.324,M,,*73
2017-11-15 18:26:26 1510788386.359320: $GPRMC,232625,A,3946.9608,N,08404.9487,W,1.0018,50.691,151117,,*09
2017-11-15 18:26:26 1510788386.359375: $GPGSA,A,3,10,25,1,31,32,14,22,,,,,,3.4,1.2,2.9*0C
2017-11-15 18:26:27 1510788387.664827: $GPGSV,3,1,10,10,25,156,14,26,22,178,11,25,37,060,22,01,20,277,17*73
2017-11-15 18:26:28 1510788388.277264: $GPGSV,3,2,10,31,76,265,18,32,57,073,22,14,70,030,24,22,37,304,17*77
2017-11-15 18:26:28 1510788388.277456: $GPGSV,3,3,10,03,18,316,00,12,09,034,00*7B
2017-11-15 18:26:28 1510788388.277561: $GPZDA,232626.00,15,11,2017,00,00*67
2017-11-15 18:26:28 1510788388.277613: $GPGGA,232626,3946.9615,N,08404.9479,W,1,08,1.20,291.42,M,-33.324,M,,*76
2017-11-15 18:26:28 1510788388.277668: $GPRMC,232626,A,3946.9615,N,08404.9479,W,1.5545,32.064,151117,,*07
2017-11-15 18:26:28 1510788388.277722: $GPGSA,A,3,10,26,25,1,31,32,14,22,,,,,3.4,1.2,2.9*08
2017-11-15 18:26:28 1510788388.329083: $GPZDA,232627.00,15,11,2017,00,00*66
2017-11-15 18:26:28 1510788388.329242: $GPGGA,232627,3946.9623,N,08404.9479,W,1,08,1.20,291.29,M,-33.324,M,,*7F
2017-11-15 18:26:28 1510788388.329303: $GPRMC,232627,A,3946.9623,N,08404.9479,W,1.7820,19.971,151117,,*0B
2017-11-15 18:26:28 1510788388.329358: $GPGSA,A,3,10,26,25,1,31,32,14,22,,,,,3.4,1.2,2.9*08
