2017-11-16 15:22:58 1510863778.108813: {"class":"VERSION","release":"3.17","rev":"3.17","proto_major":3,"proto_minor":12}
2017-11-16 15:22:58 1510863778.109489: {"class":"DEVICES","devices":[{"class":"DEVICE","path":"/dev/ttyUSB0","driver":"SiRF","subtype":"9\u0006GSD4e_4.1.2-P1_RPATCH.05-F-GPS-4R-1510281 11/03/2015 307","activated":"2017-11-16T20:22:57.506Z","flags":1,"native":1,"bps":4800,"parity":"N","stopbits":1,"cycle":1.00}]}
2017-11-16 15:22:58 1510863778.109639: {"class":"WATCH","enable":true,"json":false,"nmea":true,"raw":0,"scaled":false,"timing":false,"split24":false,"pps":false}
2017-11-16 15:22:58 1510863778.722908: $GPGSV,3,1,12,08,06,294,34,10,68,330,51,14,28,252,45,15,12,066,25*7E
2017-11-16 15:22:58 1510863778.723078: $GPGSV,3,2,12,18,71,090,48,20,09,117,27,21,30,180,45,24,46,060,50*77
2017-11-16 15:22:58 1510863778.723140: $GPGSV,3,3,12,27,07,261,37,32,45,264,48,12,08,108,26,138,38,213,44*42
2017-11-16 15:22:58 1510863778.836222: $GPZDA,202257.00,16,11,2017,00,00*65
2017-11-16 15:22:58 1510863778.836438: $GPGGA,202257,3946.9575,N,08404.9858,W,2,12,0.80,308.08,M,-33.324,M,,*71
2017-11-16 15:22:58 1510863778.836504: $GPRMC,202257,A,3946.9575,N,08404.9858,W,0.0000,0.000,161117,,*3C
2017-11-16 15:22:58 1510863778.836561: $GPGSA,A,3,8,10,14,15,18,20,21,24,27,32,12,138,1.6,0.8,1.3*34
2017-11-16 15:22:59 1510863779.370855: $GPZDA,202258.00,16,11,2017,00,00*6A
2017-11-16 15:22:59 1510863779.371020: $GPGGA,202258,3946.9575,N,08404.9858,W,2,12,1.00,308.08,M,-33.324,M,,*77
2017-11-16 15:22:59 1510863779.371081: $GPRMC,202258,A,3946.9575,N,08404.9858,W,0.0000,0.000,161117,,*33
2017-11-16 15:22:59 1510863779.371137: $GPGSA,A,3,8,10,14,15,18,20,21,24,27,32,12,138,1.6,1.0,1.3*3D
2017-11-16 15:23:00 1510863780.387922: $GPZDA,202259.00,16,11,2017,00,00*6B
2017-11-16 15:23:00 1510863780.388090: $GPGGA,202259,3946.9575,N,08404.9858,W,2,12,0.80,308.08,M,-33.324,M,,*7F
2017-11-16 15:23:00 1510863780.388154: $GPRMC,202259,A,3946.9575,N,08404.9858,W,0.0000,0.000,161117,,*32
2017-11-16 15:23:00 1510863780.388211: $GPGSA,A,3,8,10,14,15,18,20,21,24,27,32,12,138,1.6,0.8,1.3*34
2017-11-16 15:23:01 1510863781.709451: $GPGSV,3,1,12,08,06,294,34,10,68,330,51,14,28,252,45,15,12,066,21*7A
2017-11-16 15:23:01 1510863781.709620: $GPGSV,3,2,12,18,71,090,47,20,09,117,27,21,30,180,45,24,46,060,50*78
2017-11-16 15:23:01 1510863781.709680: $GPGSV,3,3,12,27,07,261,37,32,45,264,48,12,08,108,26,138,38,213,45*43
2017-11-16 15:23:01 1510863781.823014: $GPZDA,202300.00,16,11,2017,00,00*66
2017-11-16 15:23:01 1510863781.823156: $GPGGA,202300,3946.9575,N,08404.9858,W,2,12,0.80,308.08,M,-33.324,M,,*72
2017-11-16 15:23:01 1510863781.823238: $GPRMC,202300,A,3946.9575,N,08404.9858,W,0.0000,0.000,161117,,*3F
2017-11-16 15:23:01 1510863781.823297: $GPGSA,A,3,8,10,14,15,18,20,21,24,27,32,12,138,1.6,0.8,1.3*34
2017-11-16 15:23:02 1510863782.371168: $GPZDA,202301.00,16,11,2017,00,00*67
2017-11-16 15:23:02 1510863782.371359: $GPGGA,202301,3946.9575,N,08404.9858,W,2,12,0.80,308.08,M,-33.324,M,,*73
2017-11-16 15:23:02 1510863782.371421: $GPRMC,202301,A,3946.9575,N,08404.9858,W,0.0000,0.000,161117,,*3E
2017-11-16 15:23:02 1510863782.371478: $GPGSA,A,3,8,10,14,15,18,20,21,24,27,32,12,138,1.6,0.8,1.3*34
2017-11-16 15:23:03 1510863783.380766: $GPZDA,202302.00,16,11,2017,00,00*64
2017-11-16 15:23:03 1510863783.380948: $GPGGA,202302,3946.9575,N,08404.9858,W,2,12,0.80,308.08,M,-33.324,M,,*70
2017-11-16 15:23:03 1510863783.381010: $GPRMC,202302,A,3946.9575,N,08404.9858,W,0.0000,0.000,161117,,*3D
2017-11-16 15:23:03 1510863783.381067: $GPGSA,A,3,8,10,14,15,18,20,21,24,27,32,12,138,1.6,0.8,1.3*34
2017-11-16 15:23:04 1510863784.709032: $GPGSV,3,1,12,08,06,294,36,10,68,330,51,14,28,252,45,15,12,066,20*79
2017-11-16 15:23:04 1510863784.710193: $GPGSV,3,2,12,18,71,090,47,20,09,117,26,21,30,180,45,24,46,060,50*79
2017-11-16 15:23:04 1510863784.710353: $GPGSV,3,3,12,27,07,261,36,32,45,264,48,12,08,108,26,138,38,213,44*43
2017-11-16 15:23:04 1510863784.822446: $GPZDA,202303.00,16,11,2017,00,00*65
2017-11-16 15:23:04 1510863784.822762: $GPGGA,202303,3946.9575,N,08404.9858,W,2,12,0.80,308.08,M,-33.324,M,,*71
2017-11-16 15:23:04 1510863784.823042: $GPRMC,202303,A,3946.9575,N,08404.9858,W,0.0000,0.000,161117,,*3C
2017-11-16 15:23:04 1510863784.823195: $GPGSA,A,3,8,10,14,15,18,20,21,24,27,32,12,138,1.6,0.8,1.3*34
2017-11-16 15:23:05 1510863785.371966: $GPZDA,202304.00,16,11,2017,00,00*62
2017-11-16 15:23:05 1510863785.372179: $GPGGA,202304,3946.9575,N,08404.9858,W,2,12,0.80,308.08,M,-33.324,M,,*76
2017-11-16 15:23:05 1510863785.372242: $GPRMC,202304,A,3946.9575,N,08404.9858,W,0.0000,0.000,161117,,*3B
2017-11-16 15:23:05 1510863785.372317: $GPGSA,A,3,8,10,14,15,18,20,21,24,27,32,12,138,1.6,0.8,1.3*34
2017-11-16 15:23:06 1510863786.369782: $GPZDA,202305.00,16,11,2017,00,00*63
2017-11-16 15:23:06 1510863786.369951: $GPGGA,202305,3946.9575,N,08404.9858,W,2,12,0.80,308.08,M,-33.324,M,,*77
2017-11-16 15:23:06 1510863786.370014: $GPRMC,202305,A,3946.9575,N,08404.9858,W,0.0000,0.000,161117,,*3A
2017-11-16 15:23:06 1510863786.370071: $GPGSA,A,3,8,10,14,15,18,20,21,24,27,32,12,138,1.6,0.8,1.3*34
2017-11-16 15:23:07 1510863787.706905: $GPGSV,3,1,12,08,06,294,36,10,68,330,51,14,28,252,45,15,12,066,17*7D
2017-11-16 15:23:07 1510863787.707091: $GPGSV,3,2,12,18,71,090,48,20,09,117,26,21,30,180,44,24,46,060,50*77
2017-11-16 15:23:07 1510863787.707153: $GPGSV,3,3,12,27,07,261,36,32,45,264,48,12,08,108,27,138,38,213,45*43
2017-11-16 15:23:07 1510863787.820477: $GPZDA,202306.00,16,11,2017,00,00*60
2017-11-16 15:23:07 1510863787.820636: $GPGGA,202306,3946.9575,N,08404.9858,W,2,12,0.80,308.08,M,-33.324,M,,*74
2017-11-16 15:23:07 1510863787.820696: $GPRMC,202306,A,3946.9575,N,08404.9858,W,0.0000,0.000,161117,,*39
2017-11-16 15:23:07 1510863787.820753: $GPGSA,A,3,8,10,14,15,18,20,21,24,27,32,12,138,1.6,0.8,1.3*34
