2017-11-16 17:10:27 1510870227.120479: {"class":"VERSION","release":"3.17","rev":"3.17","proto_major":3,"proto_minor":12}
2017-11-16 17:10:27 1510870227.120921: {"class":"DEVICES","devices":[{"class":"DEVICE","path":"/dev/ttyUSB0","driver":"SiRF","subtype":"9\u0006GSD4e_4.1.2-P1_RPATCH.05-F-GPS-4R-1510281 11/03/2015 307","activated":"2017-11-16T22:10:26.539Z","flags":1,"native":1,"bps":4800,"parity":"N","stopbits":1,"cycle":1.00}]}
2017-11-16 17:10:27 1510870227.121040: {"class":"WATCH","enable":true,"json":false,"nmea":true,"raw":0,"scaled":false,"timing":false,"split24":false,"pps":false}
2017-11-16 17:10:27 1510870227.735443: $GPGSV,3,1,12,01,19,310,42,10,59,142,47,11,10,291,36,12,25,060,49*7D
2017-11-16 17:10:27 1510870227.735613: $GPGSV,3,2,12,14,61,309,46,18,28,141,45,22,11,312,29,24,05,046,30*7E
2017-11-16 17:10:27 1510870227.735672: $GPGSV,3,3,12,25,36,103,47,31,45,217,49,32,70,358,49,138,38,213,44*47
2017-11-16 17:10:27 1510870227.849483: $GPZDA,221026.00,16,11,2017,00,00*60
2017-11-16 17:10:27 1510870227.849649: $GPGGA,221026,3946.9568,N,08404.9826,W,2,12,0.80,312.81,M,-33.324,M,,*7B
2017-11-16 17:10:27 1510870227.849712: $GPRMC,221026,A,3946.9568,N,08404.9826,W,0.0000,0.000,161117,,*3C
2017-11-16 17:10:27 1510870227.849769: $GPGSA,A,3,1,10,11,12,14,18,22,24,25,31,32,138,1.6,0.8,1.3*38
2017-11-16 17:10:28 1510870228.394403: $GPZDA,221027.00,16,11,2017,00,00*61
2017-11-16 17:10:28 1510870228.394569: $GPGGA,221027,3946.9568,N,08404.9826,W,2,12,0.80,312.81,M,-33.324,M,,*7A
2017-11-16 17:10:28 1510870228.394628: $GPRMC,221027,A,3946.9568,N,08404.9826,W,0.0000,0.000,161117,,*3D
2017-11-16 17:10:28 1510870228.394683: $GPGSA,A,3,1,10,11,12,14,18,22,24,25,31,32,138,1.6,0.8,1.3*38
2017-11-16 17:10:29 1510870229.399086: $GPZDA,221028.00,16,11,2017,00,00*6E
2017-11-16 17:10:29 1510870229.399251: $GPGGA,221028,3946.9568,N,08404.9826,W,2,12,0.80,312.81,M,-33.324,M,,*75
2017-11-16 17:10:29 1510870229.399312: $GPRMC,221028,A,3946.9568,N,08404.9826,W,0.0000,0.000,161117,,*32
2017-11-16 17:10:29 1510870229.399367: $GPGSA,A,3,1,10,11,12,14,18,22,24,25,31,32,138,1.6,0.8,1.3*38
2017-11-16 17:10:30 1510870230.735841: $GPGSV,3,1,12,01,19,310,43,10,59,142,47,11,10,291,36,12,25,060,50*74
2017-11-16 17:10:30 1510870230.736056: $GPGSV,3,2,12,14,61,309,47,18,28,141,45,22,11,312,30,24,05,046,30*77
2017-11-16 17:10:30 1510870230.736122: $GPGSV,3,3,12,25,36,103,47,31,45,217,49,32,70,358,49,138,38,213,44*47
2017-11-16 17:10:30 1510870230.849222: $GPZDA,221029.00,16,11,2017,00,00*6F
2017-11-16 17:10:30 1510870230.849406: $GPGGA,221029,3946.9568,N,08404.9826,W,2,12,0.80,312.81,M,-33.324,M,,*74
2017-11-16 17:10:30 1510870230.849469: $GPRMC,221029,A,3946.9568,N,08404.9826,W,0.0000,0.000,161117,,*33
2017-11-16 17:10:30 1510870230.849525: $GPGSA,A,3,1,10,11,12,14,18,22,24,25,31,32,138,1.6,0.8,1.3*38
2017-11-16 17:10:31 1510870231.474410: $GPZDA,221030.00,16,11,2017,00,00*67
2017-11-16 17:10:32 1510870232.288006: $GPGGA,221030,3946.9568,N,08404.9826,W,2,12,0.80,312.81,M,-33.324,M,,*7C
2017-11-16 17:10:32 1510870232.288192: $GPRMC,221030,A,3946.9568,N,08404.9826,W,0.0000,0.000,161117,,*3B
2017-11-16 17:10:32 1510870232.288263: $GPGSA,A,3,1,10,11,12,14,18,22,24,25,31,32,138,1.6,0.8,1.3*38
2017-11-16 17:10:32 1510870232.399021: $GPZDA,221031.00,16,11,2017,00,00*66
2017-11-16 17:10:32 1510870232.399175: $GPGGA,221031,3946.9568,N,08404.9826,W,2,12,0.80,312.81,M,-33.324,M,,*7D
2017-11-16 17:10:32 1510870232.399235: $GPRMC,221031,A,3946.9568,N,08404.9826,W,0.0000,0.000,161117,,*3A
2017-11-16 17:10:32 1510870232.399290: $GPGSA,A,3,1,10,11,12,14,18,22,24,25,31,32,138,1.6,0.8,1.3*38
2017-11-16 17:10:33 1510870233.729869: $GPGSV,3,1,12,01,19,310,43,10,59,142,47,11,10,291,36,12,25,060,50*74
2017-11-16 17:10:33 1510870233.730041: $GPGSV,3,2,12,14,61,309,47,18,28,141,45,22,11,312,31,24,05,046,30*76
2017-11-16 17:10:33 1510870233.730102: $GPGSV,3,3,12,25,36,103,46,31,45,217,49,32,70,358,49,138,38,213,43*41
2017-11-16 17:10:33 1510870233.843148: $GPZDA,221032.00,16,11,2017,00,00*65
2017-11-16 17:10:33 1510870233.843321: $GPGGA,221032,3946.9568,N,08404.9826,W,2,12,0.80,312.81,M,-33.324,M,,*7E
2017-11-16 17:10:33 1510870233.843434: $GPRMC,221032,A,3946.9568,N,08404.9826,W,0.0000,0.000,161117,,*39
2017-11-16 17:10:33 1510870233.843491: $GPGSA,A,3,1,10,11,12,14,18,22,24,25,31,32,138,1.6,0.8,1.3*38
2017-11-16 17:10:34 1510870234.399559: $GPZDA,221033.00,16,11,2017,00,00*64
2017-11-16 17:10:34 1510870234.399744: $GPGGA,221033,3946.9568,N,08404.9826,W,2,12,0.80,312.81,M,-33.324,M,,*7F
2017-11-16 17:10:34 1510870234.399809: $GPRMC,221033,A,3946.9568,N,08404.9826,W,0.0000,0.000,161117,,*38
2017-11-16 17:10:34 1510870234.399868: $GPGSA,A,3,1,10,11,12,14,18,22,24,25,31,32,138,1.6,0.8,1.3*38
2017-11-16 17:10:35 1510870235.398997: $GPZDA,221034.00,16,11,2017,00,00*63
2017-11-16 17:10:35 1510870235.399159: $GPGGA,221034,3946.9568,N,08404.9826,W,2,12,0.80,312.81,M,-33.324,M,,*78
2017-11-16 17:10:35 1510870235.399222: $GPRMC,221034,A,3946.9568,N,08404.9826,W,0.0000,0.000,161117,,*3F
2017-11-16 17:10:35 1510870235.399280: $GPGSA,A,3,1,10,11,12,14,18,22,24,25,31,32,138,1.6,0.8,1.3*38
2017-11-16 17:10:36 1510870236.754054: $GPGSV,3,1,12,01,19,310,43,10,59,142,47,11,10,291,35,12,25,060,50*77
2017-11-16 17:10:36 1510870236.754226: $GPGSV,3,2,12,14,61,309,46,18,28,141,45,22,11,312,31,24,05,046,26*70
2017-11-16 17:10:36 1510870236.754289: $GPGSV,3,3,12,25,36,103,46,31,45,217,49,32,70,358,49,138,38,213,44*46
2017-11-16 17:10:36 1510870236.867711: $GPZDA,221035.00,16,11,2017,00,00*62
2017-11-16 17:10:36 1510870236.867891: $GPGGA,221035,3946.9568,N,08404.9826,W,2,12,0.80,312.81,M,-33.324,M,,*79
2017-11-16 17:10:36 1510870236.867954: $GPRMC,221035,A,3946.9568,N,08404.9826,W,0.0000,0.000,161117,,*3E
2017-11-16 17:10:36 1510870236.868012: $GPGSA,A,3,1,10,11,12,14,18,22,24,25,31,32,138,1.6,0.8,1.3*38
