2017-12-31 18:52:17 1514764337.366618: {"class":"VERSION","release":"3.16","rev":"3.16-4","proto_major":3,"proto_minor":11}
2017-12-31 18:52:17 1514764337.366970: {"class":"DEVICES","devices":[{"class":"DEVICE","path":"/dev/ttyUSB0","driver":"SiRF","activated":"2017-12-31T23:52:17.350Z","flags":1,"native":1,"bps":4800,"parity":"N","stopbits":1,"cycle":1.00}]}
2017-12-31 18:52:17 1514764337.367069: {"class":"WATCH","enable":true,"json":false,"nmea":true,"raw":0,"scaled":false,"timing":false,"split24":false,"pps":false}
2017-12-31 18:52:18 1514764338.687273: $GPGSV,3,1,11,22,07,204,28,23,69,279,40,09,37,309,39,03,17,220,35*78
2017-12-31 18:52:18 1514764338.687449: $GPGSV,3,2,11,16,76,036,43,08,17,175,40,31,15,090,29,27,40,142,41*72
2017-12-31 18:52:18 1514764338.687514: $GPGSV,3,3,11,07,11,285,44,26,43,048,44,135,22,240,44*7F
2017-12-31 18:52:18 1514764338.800866: $GPZDA,235219.00,31,12,2017,00,00*6D
2017-12-31 18:52:18 1514764338.801014: $GPGGA,235219,3946.9573,N,08404.9810,W,2,11,0.80,310.04,M,-33.324,M,,*73
2017-12-31 18:52:18 1514764338.801078: $GPRMC,235219,A,3946.9573,N,08404.9810,W,0.0000,0.000,311217,,*3E
2017-12-31 18:52:18 1514764338.801137: $GPGSA,A,3,22,23,9,3,16,8,31,27,7,26,135,,1.7,0.8,1.3*09
2017-12-31 18:52:19 1514764339.353003: $GPZDA,235220.00,31,12,2017,00,00*67
2017-12-31 18:52:19 1514764339.353165: $GPGGA,235220,3946.9573,N,08404.9810,W,2,11,0.80,310.04,M,-33.324,M,,*79
2017-12-31 18:52:19 1514764339.353231: $GPRMC,235220,A,3946.9573,N,08404.9810,W,0.0000,0.000,311217,,*34
2017-12-31 18:52:19 1514764339.353291: $GPGSA,A,3,22,23,9,3,16,8,31,27,7,26,135,,1.7,0.8,1.3*09
2017-12-31 18:52:20 1514764340.344477: $GPZDA,235221.00,31,12,2017,00,00*66
2017-12-31 18:52:20 1514764340.344630: $GPGGA,235221,3946.9573,N,08404.9810,W,2,11,0.80,310.04,M,-33.324,M,,*78
2017-12-31 18:52:20 1514764340.344695: $GPRMC,235221,A,3946.9573,N,08404.9810,W,0.0000,0.000,311217,,*35
2017-12-31 18:52:20 1514764340.344755: $GPGSA,A,3,22,23,9,3,16,8,31,27,7,26,135,,1.7,0.8,1.3*09
2017-12-31 18:52:21 1514764341.687575: $GPGSV,3,1,11,22,07,204,27,23,69,279,39,09,37,309,39,03,17,220,35*79
2017-12-31 18:52:21 1514764341.687743: $GPGSV,3,2,11,16,76,036,43,08,17,175,40,31,15,090,30,27,40,142,41*7A
2017-12-31 18:52:21 1514764341.687809: $GPGSV,3,3,11,07,11,285,45,26,43,048,44,135,22,240,44*7E
2017-12-31 18:52:21 1514764341.801190: $GPZDA,235222.00,31,12,2017,00,00*65
2017-12-31 18:52:21 1514764341.801329: $GPGGA,235222,3946.9578,N,08404.9810,W,2,11,0.80,310.68,M,-33.324,M,,*7A
2017-12-31 18:52:21 1514764341.801394: $GPRMC,235222,A,3946.9578,N,08404.9810,W,0.0000,0.000,311217,,*3D
2017-12-31 18:52:21 1514764341.801454: $GPGSA,A,3,22,23,9,3,16,8,31,27,7,26,135,,1.7,0.8,1.3*09
2017-12-31 18:52:22 1514764342.390835: $GPZDA,235223.00,31,12,2017,00,00*64
2017-12-31 18:52:22 1514764342.391008: $GPGGA,235223,3946.9578,N,08404.9810,W,2,11,0.80,310.68,M,-33.324,M,,*7B
2017-12-31 18:52:22 1514764342.391073: $GPRMC,235223,A,3946.9578,N,08404.9810,W,0.0000,0.000,311217,,*3C
2017-12-31 18:52:22 1514764342.391133: $GPGSA,A,3,22,23,9,3,16,8,31,27,7,26,135,,1.7,0.8,1.3*09
2017-12-31 18:52:23 1514764343.390135: $GPZDA,235224.00,31,12,2017,00,00*63
2017-12-31 18:52:23 1514764343.390311: $GPGGA,235224,3946.9578,N,08404.9810,W,2,11,0.80,310.68,M,-33.324,M,,*7C
2017-12-31 18:52:23 1514764343.390393: $GPRMC,235224,A,3946.9578,N,08404.9810,W,0.0000,0.000,311217,,*3B
2017-12-31 18:52:23 1514764343.390455: $GPGSA,A,3,22,23,9,3,16,8,31,27,7,26,135,,1.7,0.8,1.3*09
2017-12-31 18:52:24 1514764344.725913: $GPGSV,3,1,11,22,07,204,10,23,69,279,40,09,37,309,39,03,17,220,36*70
2017-12-31 18:52:24 1514764344.726073: $GPGSV,3,2,11,16,76,036,43,08,17,175,40,31,15,090,30,27,40,142,41*7A
2017-12-31 18:52:24 1514764344.726138: $GPGSV,3,3,11,07,11,285,46,26,43,048,44,135,22,240,42*7B
2017-12-31 18:52:24 1514764344.839689: $GPZDA,235225.00,31,12,2017,00,00*62
2017-12-31 18:52:24 1514764344.839825: $GPGGA,235225,3946.9578,N,08404.9810,W,2,11,0.80,310.68,M,-33.324,M,,*7D
2017-12-31 18:52:24 1514764344.839890: $GPRMC,235225,A,3946.9578,N,08404.9810,W,0.0000,0.000,311217,,*3A
2017-12-31 18:52:24 1514764344.840000: $GPGSA,A,3,22,23,9,3,16,8,31,27,7,26,135,,1.7,0.8,1.3*09
2017-12-31 18:52:25 1514764345.464900: $GPZDA,235226.00,31,12,2017,00,00*61
2017-12-31 18:52:25 1514764345.465063: $GPGGA,235226,3946.9578,N,08404.9810,W,2,11,0.80,310.68,M,-33.324,M,,*7E
2017-12-31 18:52:25 1514764345.465143: $GPRMC,235226,A,3946.9578,N,08404.9810,W,0.0000,0.000,311217,,*39
2017-12-31 18:52:25 1514764345.465205: $GPGSA,A,3,22,23,9,3,16,8,31,27,7,26,135,,1.7,0.8,1.3*09
2017-12-31 18:52:26 1514764346.382163: $GPZDA,235227.00,31,12,2017,00,00*60
2017-12-31 18:52:26 1514764346.382342: $GPGGA,235227,3946.9578,N,08404.9810,W,2,11,0.80,310.68,M,-33.324,M,,*7F
2017-12-31 18:52:26 1514764346.382409: $GPRMC,235227,A,3946.9578,N,08404.9810,W,0.0000,0.000,311217,,*38
2017-12-31 18:52:26 1514764346.382470: $GPGSA,A,3,22,23,9,3,16,8,31,27,7,26,135,,1.7,0.8,1.3*09
