2017-11-16 13:21:25 1510856485.336167: {"class":"VERSION","release":"3.17","rev":"3.17","proto_major":3,"proto_minor":12}
2017-11-16 13:21:25 1510856485.336622: {"class":"DEVICES","devices":[{"class":"DEVICE","path":"/dev/ttyUSB0","driver":"SiRF","subtype":"9\u0006GSD4e_4.1.2-P1_RPATCH.05-F-GPS-4R-1510281 11/03/2015 307","activated":"2017-11-16T18:21:25.240Z","flags":1,"native":1,"bps":4800,"parity":"N","stopbits":1,"cycle":1.00}]}
2017-11-16 13:21:25 1510856485.336734: {"class":"WATCH","enable":true,"json":false,"nmea":true,"raw":0,"scaled":false,"timing":false,"split24":false,"pps":false}
2017-11-16 13:21:25 1510856485.380478: $GPZDA,182124.00,16,11,2017,00,00*69
2017-11-16 13:21:25 1510856485.380611: $GPGGA,182124,3946.9602,N,08404.9845,W,2,11,0.80,300.64,M,-33.324,M,,*73
2017-11-16 13:21:25 1510856485.380670: $GPRMC,182124,A,3946.9602,N,08404.9845,W,0.0000,0.000,161117,,*3F
2017-11-16 13:21:25 1510856485.380726: $GPGSA,A,3,10,13,15,18,20,21,24,27,29,32,138,,1.6,0.8,1.3*03
2017-11-16 13:21:26 1510856486.286944: $GPZDA,182125.00,16,11,2017,00,00*68
2017-11-16 13:21:26 1510856486.287123: $GPGGA,182125,3946.9602,N,08404.9845,W,2,11,0.80,300.64,M,-33.324,M,,*72
2017-11-16 13:21:26 1510856486.287188: $GPRMC,182125,A,3946.9602,N,08404.9845,W,0.0000,0.000,161117,,*3E
2017-11-16 13:21:26 1510856486.287244: $GPGSA,A,3,10,13,15,18,20,21,24,27,29,32,138,,1.6,0.8,1.3*03
2017-11-16 13:21:27 1510856487.621315: $GPGSV,3,1,12,10,23,283,45,13,29,045,48,15,61,051,51,18,54,300,47*7F
2017-11-16 13:21:27 1510856487.621488: $GPGSV,3,2,12,20,51,072,47,21,78,270,47,24,33,138,41,27,16,313,41*7E
2017-11-16 13:21:27 1510856487.621551: $GPGSV,3,3,12,05,04,087,23,29,09,189,33,32,01,225,22,138,38,213,46*41
2017-11-16 13:21:27 1510856487.733630: $GPZDA,182126.00,16,11,2017,00,00*6B
2017-11-16 13:21:27 1510856487.733791: $GPGGA,182126,3946.9602,N,08404.9845,W,2,12,0.80,300.64,M,-33.324,M,,*72
2017-11-16 13:21:27 1510856487.733854: $GPRMC,182126,A,3946.9602,N,08404.9845,W,0.0000,0.000,161117,,*3D
2017-11-16 13:21:27 1510856487.733909: $GPGSA,A,3,10,13,15,18,20,21,24,27,5,29,32,138,1.6,0.8,1.3*36
2017-11-16 13:21:28 1510856488.284451: $GPZDA,182127.00,16,11,2017,00,00*6A
2017-11-16 13:21:28 1510856488.284617: $GPGGA,182127,3946.9602,N,08404.9852,W,2,12,0.80,300.56,M,-33.324,M,,*74
2017-11-16 13:21:28 1510856488.284678: $GPRMC,182127,A,3946.9602,N,08404.9852,W,0.0000,0.000,161117,,*3A
2017-11-16 13:21:28 1510856488.284736: $GPGSA,A,3,10,13,15,18,20,21,24,27,5,29,32,138,1.6,0.8,1.3*36
2017-11-16 13:21:29 1510856489.305293: $GPZDA,182128.00,16,11,2017,00,00*65
2017-11-16 13:21:29 1510856489.305457: $GPGGA,182128,3946.9602,N,08404.9852,W,2,12,0.80,300.56,M,-33.324,M,,*7B
2017-11-16 13:21:29 1510856489.305519: $GPRMC,182128,A,3946.9602,N,08404.9852,W,0.0000,0.000,161117,,*35
2017-11-16 13:21:29 1510856489.305577: $GPGSA,A,3,10,13,15,18,20,21,24,27,5,29,32,138,1.6,0.8,1.3*36
2017-11-16 13:21:30 1510856490.621513: $GPGSV,3,1,12,10,23,283,45,13,29,045,48,15,61,051,51,18,54,300,48*70
2017-11-16 13:21:30 1510856490.621682: $GPGSV,3,2,12,20,51,072,48,21,78,270,47,24,33,138,41,27,16,313,41*71
2017-11-16 13:21:30 1510856490.621744: $GPGSV,3,3,12,05,04,087,21,29,09,189,33,32,01,225,21,138,38,213,45*43
2017-11-16 13:21:30 1510856490.735024: $GPZDA,182129.00,16,11,2017,00,00*64
2017-11-16 13:21:30 1510856490.735166: $GPGGA,182129,3946.9602,N,08404.9852,W,2,12,0.80,300.56,M,-33.324,M,,*7A
2017-11-16 13:21:30 1510856490.735228: $GPRMC,182129,A,3946.9602,N,08404.9852,W,0.0000,0.000,161117,,*34
2017-11-16 13:21:30 1510856490.735284: $GPGSA,A,3,10,13,15,18,20,21,24,27,5,29,32,138,1.6,0.8,1.3*36
2017-11-16 13:21:31 1510856491.306098: $GPZDA,182130.00,16,11,2017,00,00*6C
2017-11-16 13:21:31 1510856491.306272: $GPGGA,182130,3946.9602,N,08404.9852,W,2,12,0.80,300.56,M,-33.324,M,,*72
2017-11-16 13:21:31 1510856491.306338: $GPRMC,182130,A,3946.9602,N,08404.9852,W,0.0000,0.000,161117,,*3C
2017-11-16 13:21:31 1510856491.306396: $GPGSA,A,3,10,13,15,18,20,21,24,27,5,29,32,138,1.6,0.8,1.3*36
2017-11-16 13:21:32 1510856492.278968: $GPZDA,182131.00,16,11,2017,00,00*6D
2017-11-16 13:21:32 1510856492.279185: $GPGGA,182131,3946.9602,N,08404.9852,W,2,12,0.80,300.56,M,-33.324,M,,*73
2017-11-16 13:21:32 1510856492.279250: $GPRMC,182131,A,3946.9602,N,08404.9852,W,0.0000,0.000,161117,,*3D
2017-11-16 13:21:32 1510856492.279309: $GPGSA,A,3,10,13,15,18,20,21,24,27,5,29,32,138,1.6,0.8,1.3*36
2017-11-16 13:21:33 1510856493.640930: $GPGSV,3,1,12,10,23,283,44,13,29,045,48,15,61,051,51,18,54,300,48*71
2017-11-16 13:21:33 1510856493.641099: $GPGSV,3,2,12,20,51,072,47,21,78,270,47,24,33,138,41,27,16,313,41*7E
2017-11-16 13:21:33 1510856493.641160: $GPGSV,3,3,12,05,04,087,00,29,09,189,34,32,01,225,21,138,38,213,44*46
2017-11-16 13:21:33 1510856493.754219: $GPZDA,182132.00,16,11,2017,00,00*6E
2017-11-16 13:21:33 1510856493.754384: $GPGGA,182132,3946.9602,N,08404.9852,W,2,11,0.80,300.56,M,-33.324,M,,*73
2017-11-16 13:21:33 1510856493.754446: $GPRMC,182132,A,3946.9602,N,08404.9852,W,0.0000,0.000,161117,,*3E
2017-11-16 13:21:33 1510856493.754503: $GPGSA,A,3,10,13,15,18,20,21,24,27,29,32,138,,1.6,0.8,1.3*03
2017-11-16 13:21:34 1510856494.286398: $GPZDA,182133.00,16,11,2017,00,00*6F
2017-11-16 13:21:34 1510856494.286565: $GPGGA,182133,3946.9602,N,08404.9852,W,2,11,0.80,300.56,M,-33.324,M,,*72
2017-11-16 13:21:34 1510856494.286625: $GPRMC,182133,A,3946.9602,N,08404.9852,W,0.0000,0.000,161117,,*3F
2017-11-16 13:21:34 1510856494.286682: $GPGSA,A,3,10,13,15,18,20,21,24,27,29,32,138,,1.6,0.8,1.3*03
2017-11-16 13:21:35 1510856495.312948: $GPZDA,182134.00,16,11,2017,00,00*68
2017-11-16 13:21:35 1510856495.313118: $GPGGA,182134,3946.9602,N,08404.9852,W,2,11,0.80,300.56,M,-33.324,M,,*75
2017-11-16 13:21:35 1510856495.313185: $GPRMC,182134,A,3946.9602,N,08404.9852,W,0.0000,0.000,161117,,*38
2017-11-16 13:21:35 1510856495.313245: $GPGSA,A,3,10,13,15,18,20,21,24,27,29,32,138,,1.6,0.8,1.3*03
2017-11-16 13:21:36 1510856496.639891: $GPGSV,3,1,12,10,23,283,43,13,29,045,47,15,61,051,51,18,54,300,47*76
2017-11-16 13:21:36 1510856496.640071: $GPGSV,3,2,12,20,51,072,47,21,78,270,47,24,33,138,40,27,16,313,42*7C
2017-11-16 13:21:36 1510856496.640132: $GPGSV,3,3,12,05,04,087,00,29,09,189,34,32,01,225,21,138,38,213,45*47
2017-11-16 13:21:36 1510856496.753197: $GPZDA,182135.00,16,11,2017,00,00*69
2017-11-16 13:21:36 1510856496.753346: $GPGGA,182135,3946.9602,N,08404.9852,W,2,11,0.80,300.56,M,-33.324,M,,*74
2017-11-16 13:21:36 1510856496.753406: $GPRMC,182135,A,3946.9602,N,08404.9852,W,0.0000,0.000,161117,,*39
2017-11-16 13:21:36 1510856496.753462: $GPGSA,A,3,10,13,15,18,20,21,24,27,29,32,138,,1.6,0.8,1.3*03
2017-11-16 13:21:37 1510856497.290619: $GPZDA,182136.00,16,11,2017,00,00*6A
2017-11-16 13:21:37 1510856497.290783: $GPGGA,182136,3946.9602,N,08404.9852,W,2,11,0.80,300.56,M,-33.324,M,,*77
2017-11-16 13:21:37 1510856497.290844: $GPRMC,182136,A,3946.9602,N,08404.9852,W,0.0000,0.000,161117,,*3A
2017-11-16 13:21:37 1510856497.290902: $GPGSA,A,3,10,13,15,18,20,21,24,27,29,32,138,,1.6,0.8,1.3*03
2017-11-16 13:21:38 1510856498.279874: $GPZDA,182137.00,16,11,2017,00,00*6B
2017-11-16 13:21:38 1510856498.280046: $GPGGA,182137,3946.9602,N,08404.9852,W,2,11,0.80,300.56,M,-33.324,M,,*76
2017-11-16 13:21:38 1510856498.280113: $GPRMC,182137,A,3946.9602,N,08404.9852,W,0.0000,0.000,161117,,*3B
2017-11-16 13:21:38 1510856498.280169: $GPGSA,A,3,10,13,15,18,20,21,24,27,29,32,138,,1.6,0.8,1.3*03
2017-11-16 13:21:39 1510856499.640695: $GPGSV,3,1,12,10,23,283,43,13,29,045,48,15,61,051,51,18,54,300,47*79
2017-11-16 13:21:39 1510856499.640857: $GPGSV,3,2,12,20,51,072,48,21,78,270,47,24,33,138,40,27,16,313,42*73
2017-11-16 13:21:39 1510856499.640919: $GPGSV,3,3,12,05,04,087,00,29,09,189,34,32,01,225,21,138,38,213,45*47
2017-11-16 13:21:39 1510856499.753917: $GPZDA,182138.00,16,11,2017,00,00*64
2017-11-16 13:21:39 1510856499.754094: $GPGGA,182138,3946.9602,N,08404.9852,W,2,11,0.80,300.56,M,-33.324,M,,*79
2017-11-16 13:21:39 1510856499.754157: $GPRMC,182138,A,3946.9602,N,08404.9852,W,0.0000,0.000,161117,,*34
2017-11-16 13:21:39 1510856499.754212: $GPGSA,A,3,10,13,15,18,20,21,24,27,29,32,138,,1.6,0.8,1.3*03
