2017-11-15 19:21:03 1510791663.433662: {"class":"VERSION","release":"3.17","rev":"3.17","proto_major":3,"proto_minor":12}
2017-11-15 19:21:03 1510791663.434304: {"class":"DEVICES","devices":[{"class":"DEVICE","path":"/dev/ttyUSB0","driver":"SiRF","subtype":"9\u0006GSD4e_4.1.2-P1_RPATCH.05-F-GPS-4R-1510281 11/03/2015 307","activated":"2017-11-16T00:21:03.216Z","flags":1,"native":1,"bps":4800,"parity":"N","stopbits":1,"cycle":1.00}]}
2017-11-15 19:21:03 1510791663.434418: {"class":"WATCH","enable":true,"json":false,"nmea":true,"raw":0,"scaled":false,"timing":false,"split24":false,"pps":false}
2017-11-15 19:21:03 1510791663.664676: $GPGSV,3,1,12,32,39,105,23,14,58,087,15,22,50,276,21,26,49,174,24*7D
2017-11-15 19:21:03 1510791663.664867: $GPGSV,3,2,12,31,71,018,21,29,09,075,09,25,20,042,00,03,37,303,06*7E
2017-11-15 19:21:03 1510791663.664928: $GPGSV,3,3,12,16,18,190,00,23,08,298,00,01,08,255,00,135,23,238,00*42
2017-11-15 19:21:03 1510791663.778043: $GPZDA,002102.00,16,11,2017,00,00*64
2017-11-15 19:21:03 1510791663.778211: $GPGGA,002102,3946.9624,N,08404.9432,W,1,06,1.60,283.22,M,-33.324,M,,*74
2017-11-15 19:21:03 1510791663.778290: $GPRMC,002102,A,3946.9624,N,08404.9432,W,1.0253,113.297,161117,,*30
2017-11-15 19:21:03 1510791663.778348: $GPGSA,A,3,32,14,22,26,31,29,,,,,,,3.4,1.6,2.9*30
2017-11-15 19:21:04 1510791664.345110: $GPZDA,002103.00,16,11,2017,00,00*65
2017-11-15 19:21:04 1510791664.345277: $GPGGA,002103,3946.9624,N,08404.9432,W,1,06,1.60,283.22,M,-33.324,M,,*75
2017-11-15 19:21:04 1510791664.345339: $GPRMC,002103,A,3946.9624,N,08404.9432,W,1.1391,143.662,161117,,*34
2017-11-15 19:21:04 1510791664.345395: $GPGSA,A,3,32,14,22,26,31,29,,,,,,,3.4,1.6,2.9*30
2017-11-15 19:21:05 1510791665.346268: $GPZDA,002104.00,16,11,2017,00,00*62
2017-11-15 19:21:05 1510791665.346430: $GPGGA,002104,3946.9616,N,08404.9433,W,1,06,1.60,283.34,M,-33.324,M,,*75
2017-11-15 19:21:05 1510791665.346491: $GPRMC,002104,A,3946.9616,N,08404.9433,W,1.2381,172.270,161117,,*34
2017-11-15 19:21:05 1510791665.346547: $GPGSA,A,3,32,14,22,26,31,29,,,,,,,3.4,1.6,2.9*30
2017-11-15 19:21:06 1510791666.665032: $GPGSV,3,1,12,32,39,105,23,25,20,042,02,22,50,276,21,26,49,174,24*7F
2017-11-15 19:21:06 1510791666.713092: $GPGSV,3,2,12,31,71,018,00,29,09,075,08,14,58,087,00,03,37,303,07*79
2017-11-15 19:21:06 1510791666.713248: $GPGSV,3,3,12,16,18,190,00,23,08,298,00,01,08,255,00,135,23,238,00*42
2017-11-15 19:21:06 1510791666.778643: $GPZDA,002105.00,16,11,2017,00,00*63
2017-11-15 19:21:06 1510791666.778818: $GPGGA,002105,3946.9612,N,08404.9433,W,1,05,2.80,282.70,M,-33.324,M,,*7F
2017-11-15 19:21:06 1510791666.778878: $GPRMC,002105,A,3946.9612,N,08404.9433,W,1.5746,174.845,161117,,*33
2017-11-15 19:21:06 1510791666.778934: $GPGSA,A,3,32,22,26,29,3,,,,,,,,3.4,2.8,2.9*09
2017-11-15 19:21:07 1510791667.345956: $GPZDA,002106.00,16,11,2017,00,00*60
2017-11-15 19:21:07 1510791667.346105: $GPGGA,002106,3946.9604,N,08404.9433,W,1,05,2.80,282.83,M,-33.324,M,,*77
2017-11-15 19:21:07 1510791667.346164: $GPRMC,002106,A,3946.9604,N,08404.9433,W,1.5555,183.694,161117,,*3D
2017-11-15 19:21:07 1510791667.346220: $GPGSA,A,3,32,22,26,29,3,,,,,,,,3.4,2.8,2.9*09
2017-11-15 19:21:08 1510791668.347341: $GPZDA,002107.00,16,11,2017,00,00*61
2017-11-15 19:21:08 1510791668.347598: $GPGGA,002107,3946.9604,N,08404.9433,W,1,05,2.80,282.83,M,-33.324,M,,*76
2017-11-15 19:21:08 1510791668.347692: $GPRMC,002107,A,3946.9604,N,08404.9433,W,1.2361,194.852,161117,,*38
2017-11-15 19:21:08 1510791668.347798: $GPGSA,A,3,32,22,26,29,3,,,,,,,,3.4,2.8,2.9*09
2017-11-15 19:21:09 1510791669.665896: $GPGSV,3,1,12,32,39,105,23,25,20,042,06,22,50,276,21,26,49,174,24*7B
2017-11-15 19:21:09 1510791669.666066: $GPGSV,3,2,12,31,71,018,19,29,09,075,10,14,58,087,00,03,37,303,05*7A
2017-11-15 19:21:09 1510791669.666126: $GPGSV,3,3,12,16,18,190,00,23,08,298,00,01,08,255,00,135,23,238,00*42
2017-11-15 19:21:09 1510791669.779318: $GPZDA,002108.00,16,11,2017,00,00*6E
2017-11-15 19:21:09 1510791669.779714: $GPGGA,002108,3946.9597,N,08404.9434,W,1,05,1.60,282.95,M,-33.324,M,,*7D
2017-11-15 19:21:09 1510791669.779851: $GPRMC,002108,A,3946.9597,N,08404.9434,W,0.8709,183.298,161117,,*32
2017-11-15 19:21:09 1510791669.780083: $GPGSA,A,3,32,22,26,31,29,,,,,,,,3.4,1.6,2.9*35
2017-11-15 19:21:10 1510791670.346626: $GPZDA,002109.00,16,11,2017,00,00*6F
2017-11-15 19:21:10 1510791670.346860: $GPGGA,002109,3946.9597,N,08404.9434,W,1,05,1.60,282.95,M,-33.324,M,,*7C
2017-11-15 19:21:10 1510791670.346923: $GPRMC,002109,A,3946.9597,N,08404.9434,W,1.2381,172.270,161117,,*34
2017-11-15 19:21:10 1510791670.346979: $GPGSA,A,3,32,22,26,31,29,,,,,,,,3.4,1.6,2.9*35
2017-11-15 19:21:11 1510791671.346903: $GPZDA,002110.00,16,11,2017,00,00*67
2017-11-15 19:21:11 1510791671.347111: $GPGGA,002110,3946.9589,N,08404.9435,W,1,05,1.60,283.08,M,-33.324,M,,*7F
2017-11-15 19:21:11 1510791671.347175: $GPRMC,002110,A,3946.9589,N,08404.9435,W,1.0002,154.331,161117,,*38
2017-11-15 19:21:11 1510791671.347231: $GPGSA,A,3,32,22,26,31,29,,,,,,,,3.4,1.6,2.9*35
2017-11-15 19:21:12 1510791672.667628: $GPGSV,3,1,12,32,39,105,23,14,58,087,02,22,50,276,21,26,49,174,23*7C
2017-11-15 19:21:12 1510791672.667828: $GPGSV,3,2,12,31,71,018,19,29,09,075,11,25,20,042,00,03,37,303,04*7E
2017-11-15 19:21:12 1510791672.667889: $GPGSV,3,3,12,16,18,190,00,23,08,298,00,01,08,255,00,135,23,238,00*42
2017-11-15 19:21:12 1510791672.781220: $GPZDA,002111.00,16,11,2017,00,00*66
2017-11-15 19:21:12 1510791672.781392: $GPGGA,002111,3946.9589,N,08404.9435,W,1,05,1.60,283.08,M,-33.324,M,,*7E
2017-11-15 19:21:12 1510791672.781454: $GPRMC,002111,A,3946.9589,N,08404.9435,W,0.5857,158.291,161117,,*32
2017-11-15 19:21:12 1510791672.781509: $GPGSA,A,3,32,22,26,31,29,,,,,,,,3.4,1.6,2.9*35
2017-11-15 19:21:13 1510791673.330844: $GPZDA,002112.00,16,11,2017,00,00*65
2017-11-15 19:21:13 1510791673.331007: $GPGGA,002112,3946.9589,N,08404.9435,W,1,05,1.40,283.08,M,-33.324,M,,*7F
2017-11-15 19:21:13 1510791673.331069: $GPRMC,002112,A,3946.9589,N,08404.9435,W,0.5306,114.352,161117,,*38
2017-11-15 19:21:13 1510791673.331124: $GPGSA,A,3,32,22,26,31,29,,,,,,,,3.4,1.4,2.9*37
