2017-11-16 14:53:09 1510861989.385700: {"class":"VERSION","release":"3.17","rev":"3.17","proto_major":3,"proto_minor":12}
2017-11-16 14:53:09 1510861989.386538: {"class":"DEVICES","devices":[{"class":"DEVICE","path":"/dev/ttyUSB0","driver":"SiRF","subtype":"9\u0006GSD4e_4.1.2-P1_RPATCH.05-F-GPS-4R-1510281 11/03/2015 307","activated":"2017-11-16T19:53:09.352Z","flags":1,"native":1,"bps":4800,"parity":"N","stopbits":1,"cycle":1.00}]}
2017-11-16 14:53:09 1510861989.386656: {"class":"WATCH","enable":true,"json":false,"nmea":true,"raw":0,"scaled":false,"timing":false,"split24":false,"pps":false}
2017-11-16 14:53:09 1510861989.865057: $GPGSV,3,1,11,08,08,306,30,10,56,315,50,15,22,058,50,18,77,040,44*7C
2017-11-16 14:53:09 1510861989.865225: $GPGSV,3,2,11,21,45,183,47,20,19,109,44,24,52,079,48,27,14,271,42*70
2017-11-16 14:53:09 1510861989.865287: $GPGSV,3,3,11,32,35,252,47,14,18,243,41,138,38,213,44*75
2017-11-16 14:53:09 1510861989.978708: $GPZDA,195308.00,16,11,2017,00,00*63
2017-11-16 14:53:09 1510861989.978861: $GPGGA,195308,3946.9572,N,08404.9848,W,2,11,0.80,302.54,M,-33.324,M,,*71
2017-11-16 14:53:09 1510861989.978925: $GPRMC,195308,A,3946.9572,N,08404.9848,W,0.0000,0.000,161117,,*3C
2017-11-16 14:53:09 1510861989.978982: $GPGSA,A,3,8,10,15,18,21,20,24,27,32,14,138,,1.6,0.8,1.3*37
2017-11-16 14:53:10 1510861990.529578: $GPZDA,195309.00,16,11,2017,00,00*62
2017-11-16 14:53:10 1510861990.529738: $GPGGA,195309,3946.9572,N,08404.9848,W,2,11,0.80,302.54,M,-33.324,M,,*70
2017-11-16 14:53:10 1510861990.529801: $GPRMC,195309,A,3946.9572,N,08404.9848,W,0.0000,0.000,161117,,*3D
2017-11-16 14:53:10 1510861990.529858: $GPGSA,A,3,8,10,15,18,21,20,24,27,32,14,138,,1.6,0.8,1.3*37
2017-11-16 14:53:11 1510861991.529176: $GPZDA,195310.00,16,11,2017,00,00*6A
2017-11-16 14:53:11 1510861991.529341: $GPGGA,195310,3946.9572,N,08404.9848,W,2,11,0.80,302.54,M,-33.324,M,,*78
2017-11-16 14:53:11 1510861991.529408: $GPRMC,195310,A,3946.9572,N,08404.9848,W,0.0000,0.000,161117,,*35
2017-11-16 14:53:11 1510861991.529465: $GPGSA,A,3,8,10,15,18,21,20,24,27,32,14,138,,1.6,0.8,1.3*37
2017-11-16 14:53:12 1510861992.865920: $GPGSV,3,1,11,08,08,306,33,10,56,315,50,15,22,058,50,18,77,040,44*7F
2017-11-16 14:53:12 1510861992.866087: $GPGSV,3,2,11,21,45,183,47,20,19,109,44,24,52,079,48,27,14,271,42*70
2017-11-16 14:53:12 1510861992.866150: $GPGSV,3,3,11,32,35,252,47,14,18,243,41,138,38,213,44*75
2017-11-16 14:53:12 1510861992.979510: $GPZDA,195311.00,16,11,2017,00,00*6B
2017-11-16 14:53:12 1510861992.979672: $GPGGA,195311,3946.9572,N,08404.9848,W,2,11,0.80,302.54,M,-33.324,M,,*79
2017-11-16 14:53:12 1510861992.979734: $GPRMC,195311,A,3946.9572,N,08404.9848,W,0.0000,0.000,161117,,*34
2017-11-16 14:53:12 1510861992.979790: $GPGSA,A,3,8,10,15,18,21,20,24,27,32,14,138,,1.6,0.8,1.3*37
2017-11-16 14:53:13 1510861993.529167: $GPZDA,195312.00,16,11,2017,00,00*68
2017-11-16 14:53:13 1510861993.529328: $GPGGA,195312,3946.9572,N,08404.9848,W,2,11,0.80,302.54,M,-33.324,M,,*7A
2017-11-16 14:53:13 1510861993.529393: $GPRMC,195312,A,3946.9572,N,08404.9848,W,0.0000,0.000,161117,,*37
2017-11-16 14:53:13 1510861993.529450: $GPGSA,A,3,8,10,15,18,21,20,24,27,32,14,138,,1.6,0.8,1.3*37
2017-11-16 14:53:14 1510861994.529518: $GPZDA,195313.00,16,11,2017,00,00*69
2017-11-16 14:53:14 1510861994.529679: $GPGGA,195313,3946.9572,N,08404.9848,W,2,11,0.80,302.54,M,-33.324,M,,*7B
2017-11-16 14:53:14 1510861994.529742: $GPRMC,195313,A,3946.9572,N,08404.9848,W,0.0000,0.000,161117,,*36
2017-11-16 14:53:14 1510861994.529799: $GPGSA,A,3,8,10,15,18,21,20,24,27,32,14,138,,1.6,0.8,1.3*37
2017-11-16 14:53:15 1510861995.827540: $GPGSV,3,1,11,08,08,306,33,10,56,315,50,15,22,058,50,18,77,040,44*7F
2017-11-16 14:53:15 1510861995.827709: $GPGSV,3,2,11,21,45,183,47,20,19,109,44,24,52,079,48,27,14,271,42*70
2017-11-16 14:53:15 1510861995.827771: $GPGSV,3,3,11,32,35,252,47,14,18,243,41,138,38,213,43*72
2017-11-16 14:53:15 1510861995.941167: $GPZDA,195314.00,16,11,2017,00,00*6E
2017-11-16 14:53:15 1510861995.941422: $GPGGA,195314,3946.9572,N,08404.9848,W,2,11,0.80,302.54,M,-33.324,M,,*7C
2017-11-16 14:53:15 1510861995.941546: $GPRMC,195314,A,3946.9572,N,08404.9848,W,0.0000,0.000,161117,,*31
2017-11-16 14:53:15 1510861995.941606: $GPGSA,A,3,8,10,15,18,21,20,24,27,32,14,138,,1.6,0.8,1.3*37
2017-11-16 14:53:16 1510861996.491672: $GPZDA,195315.00,16,11,2017,00,00*6F
2017-11-16 14:53:16 1510861996.491845: $GPGGA,195315,3946.9572,N,08404.9848,W,2,11,0.80,302.54,M,-33.324,M,,*7D
2017-11-16 14:53:16 1510861996.491908: $GPRMC,195315,A,3946.9572,N,08404.9848,W,0.0000,0.000,161117,,*30
2017-11-16 14:53:16 1510861996.491964: $GPGSA,A,3,8,10,15,18,21,20,24,27,32,14,138,,1.6,0.8,1.3*37
2017-11-16 14:53:17 1510861997.528817: $GPZDA,195316.00,16,11,2017,00,00*6C
2017-11-16 14:53:17 1510861997.528998: $GPGGA,195316,3946.9572,N,08404.9848,W,2,11,0.80,302.54,M,-33.324,M,,*7E
2017-11-16 14:53:17 1510861997.529060: $GPRMC,195316,A,3946.9572,N,08404.9848,W,0.0000,0.000,161117,,*33
2017-11-16 14:53:17 1510861997.529118: $GPGSA,A,3,8,10,15,18,21,20,24,27,32,14,138,,1.6,0.8,1.3*37
2017-11-16 14:53:18 1510861998.863335: $GPGSV,3,1,11,08,08,306,34,10,56,315,50,15,22,058,50,18,77,040,44*78
2017-11-16 14:53:18 1510861998.863516: $GPGSV,3,2,11,21,45,183,46,20,19,109,44,24,52,079,47,27,14,271,42*7E
2017-11-16 14:53:18 1510861998.863576: $GPGSV,3,3,11,32,35,252,47,14,18,243,41,138,38,213,43*72
2017-11-16 14:53:18 1510861998.976752: $GPZDA,195317.00,16,11,2017,00,00*6D
2017-11-16 14:53:18 1510861998.976917: $GPGGA,195317,3946.9572,N,08404.9848,W,2,11,0.80,302.54,M,-33.324,M,,*7F
2017-11-16 14:53:18 1510861998.976980: $GPRMC,195317,A,3946.9572,N,08404.9848,W,0.0000,0.000,161117,,*32
2017-11-16 14:53:18 1510861998.977037: $GPGSA,A,3,8,10,15,18,21,20,24,27,32,14,138,,1.6,0.8,1.3*37
