2017-12-29 14:59:48 1514577588.463921: {"class":"VERSION","release":"3.16","rev":"3.16-4","proto_major":3,"proto_minor":11}
2017-12-29 14:59:48 1514577588.464280: {"class":"DEVICES","devices":[{"class":"DEVICE","path":"/dev/ttyUSB0","driver":"SiRF","subtype":"9\u0006GSD4e_4.1.2-P1_RPATCH.05-F-GPS-4R-1510281 11/03/2015 307","activated":"2017-12-29T19:59:48.451Z","flags":1,"native":1,"bps":4800,"parity":"N","stopbits":1,"cycle":1.00}]}
2017-12-29 14:59:48 1514577588.464397: {"class":"WATCH","enable":true,"json":false,"nmea":true,"raw":0,"scaled":false,"timing":false,"split24":false,"pps":false}
2017-12-29 14:59:49 1514577589.302296: $GPZDA,195949.00,29,12,2017,00,00*63
2017-12-29 14:59:49 1514577589.302455: $GPGGA,195949,3946.9588,N,08404.9797,W,2,12,0.80,302.08,M,-33.324,M,,*7C
2017-12-29 14:59:49 1514577589.302524: $GPRMC,195949,A,3946.9588,N,08404.9797,W,0.0000,0.000,291217,,*34
2017-12-29 14:59:49 1514577589.302588: $GPGSA,A,3,1,3,10,12,14,22,25,31,32,11,18,138,1.7,0.8,1.3*0C
2017-12-29 14:59:49 1514577589.302647: $GPGBS,195949,2.73,M,2.59,M,7.72,M*3D
2017-12-29 14:59:50 1514577590.271393: $GPZDA,195950.00,29,12,2017,00,00*6B
2017-12-29 14:59:50 1514577590.271554: $GPGGA,195950,3946.9588,N,08404.9797,W,2,12,0.80,302.08,M,-33.324,M,,*74
2017-12-29 14:59:50 1514577590.271626: $GPRMC,195950,A,3946.9588,N,08404.9797,W,0.0000,0.000,291217,,*3C
2017-12-29 14:59:50 1514577590.271688: $GPGSA,A,3,1,3,10,12,14,22,25,31,32,11,18,138,1.7,0.8,1.3*0C
2017-12-29 14:59:50 1514577590.271746: $GPGBS,195950,2.73,M,2.59,M,7.72,M*35
2017-12-29 14:59:51 1514577591.747078: $GPGSV,3,1,12,01,22,289,34,03,10,316,38,10,36,153,48,12,17,040,40*7A
2017-12-29 14:59:51 1514577591.747242: $GPGSV,3,2,12,14,70,354,43,22,29,310,39,25,41,076,50,31,69,238,46*7F
2017-12-29 14:59:51 1514577591.747309: $GPGSV,3,3,12,32,63,057,50,26,13,180,28,18,07,147,22,138,38,213,42*47
2017-12-29 14:59:51 1514577591.860472: $GPZDA,195951.00,29,12,2017,00,00*6A
2017-12-29 14:59:51 1514577591.860621: $GPGGA,195951,3946.9588,N,08404.9797,W,2,12,0.80,302.08,M,-33.324,M,,*75
2017-12-29 14:59:51 1514577591.860686: $GPRMC,195951,A,3946.9588,N,08404.9797,W,0.0000,0.000,291217,,*3D
2017-12-29 14:59:51 1514577591.860746: $GPGSA,A,3,1,3,10,12,14,22,25,31,32,26,18,138,1.7,0.8,1.3*08
2017-12-29 14:59:52 1514577592.311280: $GPZDA,195952.00,29,12,2017,00,00*69
2017-12-29 14:59:52 1514577592.311434: $GPGGA,195952,3946.9588,N,08404.9797,W,2,12,0.80,302.08,M,-33.324,M,,*76
2017-12-29 14:59:52 1514577592.311501: $GPRMC,195952,A,3946.9588,N,08404.9797,W,0.0000,0.000,291217,,*3E
2017-12-29 14:59:52 1514577592.311561: $GPGSA,A,3,1,3,10,12,14,22,25,31,32,26,18,138,1.7,0.8,1.3*08
2017-12-29 14:59:52 1514577592.763401: $GPZDA,195953.00,29,12,2017,00,00*68
2017-12-29 14:59:52 1514577592.763566: $GPGGA,195953,3946.9588,N,08404.9797,W,2,12,0.80,302.08,M,-33.324,M,,*77
2017-12-29 14:59:52 1514577592.763631: $GPRMC,195953,A,3946.9588,N,08404.9797,W,0.0000,0.000,291217,,*3F
2017-12-29 14:59:52 1514577592.763691: $GPGSA,A,3,1,3,10,12,14,22,25,31,32,26,18,138,1.7,0.8,1.3*08
2017-12-29 14:59:53 1514577593.699099: $GPGSV,3,1,12,01,22,289,34,03,10,316,38,10,36,153,48,12,17,040,41*7B
2017-12-29 14:59:53 1514577593.699279: $GPGSV,3,2,12,14,70,354,43,22,29,310,39,25,41,076,50,31,69,238,46*7F
2017-12-29 14:59:53 1514577593.699346: $GPGSV,3,3,12,32,63,057,50,11,04,273,37,18,07,147,22,138,38,213,44*42
2017-12-29 14:59:53 1514577593.812477: $GPZDA,195954.00,29,12,2017,00,00*6F
2017-12-29 14:59:53 1514577593.812623: $GPGGA,195954,3946.9588,N,08404.9797,W,2,12,0.80,302.08,M,-33.324,M,,*70
2017-12-29 14:59:53 1514577593.812688: $GPRMC,195954,A,3946.9588,N,08404.9797,W,0.0000,0.000,291217,,*38
2017-12-29 14:59:53 1514577593.812748: $GPGSA,A,3,1,3,10,12,14,22,25,31,32,11,18,138,1.7,0.8,1.3*0C
2017-12-29 14:59:54 1514577594.439094: $GPZDA,195955.00,29,12,2017,00,00*6E
2017-12-29 14:59:54 1514577594.439269: $GPGGA,195955,3946.9588,N,08404.9797,W,2,12,0.80,302.08,M,-33.324,M,,*71
2017-12-29 14:59:54 1514577594.439335: $GPRMC,195955,A,3946.9588,N,08404.9797,W,0.0000,0.000,291217,,*39
2017-12-29 14:59:54 1514577594.439394: $GPGSA,A,3,1,3,10,12,14,22,25,31,32,11,18,138,1.7,0.8,1.3*0C
2017-12-29 14:59:55 1514577595.366261: $GPZDA,195956.00,29,12,2017,00,00*6D
2017-12-29 14:59:55 1514577595.366432: $GPGGA,195956,3946.9588,N,08404.9797,W,2,12,0.80,302.08,M,-33.324,M,,*72
2017-12-29 14:59:55 1514577595.366498: $GPRMC,195956,A,3946.9588,N,08404.9797,W,0.0000,0.000,291217,,*3A
2017-12-29 14:59:55 1514577595.366559: $GPGSA,A,3,1,3,10,12,14,22,25,31,32,11,18,138,1.7,0.8,1.3*0C
2017-12-29 14:59:56 1514577596.694489: $GPGSV,3,1,12,01,22,289,35,03,10,316,38,10,36,153,48,12,17,040,41*7A
2017-12-29 14:59:56 1514577596.694659: $GPGSV,3,2,12,14,70,354,44,22,29,310,40,25,41,076,51,31,69,238,47*76
2017-12-29 14:59:56 1514577596.694725: $GPGSV,3,3,12,32,63,057,51,26,13,180,25,18,07,147,22,138,38,213,43*4A
2017-12-29 14:59:56 1514577596.807816: $GPZDA,195957.00,29,12,2017,00,00*6C
2017-12-29 14:59:56 1514577596.807944: $GPGGA,195957,3946.9588,N,08404.9797,W,2,12,0.80,302.08,M,-33.324,M,,*73
2017-12-29 14:59:56 1514577596.808007: $GPRMC,195957,A,3946.9588,N,08404.9797,W,0.0000,0.000,291217,,*3B
2017-12-29 14:59:56 1514577596.808067: $GPGSA,A,3,1,3,10,12,14,22,25,31,32,26,18,138,1.7,0.8,1.3*08
2017-12-29 14:59:57 1514577597.363731: $GPZDA,195958.00,29,12,2017,00,00*63
2017-12-29 14:59:57 1514577597.363884: $GPGGA,195958,3946.9588,N,08404.9797,W,2,12,0.80,302.08,M,-33.324,M,,*7C
2017-12-29 14:59:57 1514577597.363949: $GPRMC,195958,A,3946.9588,N,08404.9797,W,0.0000,0.000,291217,,*34
2017-12-29 14:59:57 1514577597.364010: $GPGSA,A,3,1,3,10,12,14,22,25,31,32,26,18,138,1.7,0.8,1.3*08
2017-12-29 14:59:58 1514577598.363345: $GPZDA,195959.00,29,12,2017,00,00*62
2017-12-29 14:59:58 1514577598.363520: $GPGGA,195959,3946.9588,N,08404.9797,W,2,12,0.80,302.08,M,-33.324,M,,*7D
2017-12-29 14:59:58 1514577598.363585: $GPRMC,195959,A,3946.9588,N,08404.9797,W,0.0000,0.000,291217,,*35
2017-12-29 14:59:58 1514577598.363646: $GPGSA,A,3,1,3,10,12,14,22,25,31,32,26,18,138,1.7,0.8,1.3*08
