2017-11-16 14:16:03 1510859763.618563: {"class":"VERSION","release":"3.17","rev":"3.17","proto_major":3,"proto_minor":12}
2017-11-16 14:16:03 1510859763.619086: {"class":"DEVICES","devices":[{"class":"DEVICE","path":"/dev/ttyUSB0","driver":"SiRF","subtype":"9\u0006GSD4e_4.1.2-P1_RPATCH.05-F-GPS-4R-1510281 11/03/2015 307","activated":"2017-11-16T19:16:03.396Z","flags":1,"native":1,"bps":4800,"parity":"N","stopbits":1,"cycle":1.00}]}
2017-11-16 14:16:03 1510859763.619209: {"class":"WATCH","enable":true,"json":false,"nmea":true,"raw":0,"scaled":false,"timing":false,"split24":false,"pps":false}
2017-11-16 14:16:03 1510859763.846187: $GPGSV,3,1,12,08,06,321,38,10,42,301,43,13,07,049,28,15,36,052,50*7E
2017-11-16 14:16:03 1510859763.846358: $GPGSV,3,2,12,18,72,339,46,21,62,189,47,20,32,097,47,24,51,108,48*71
2017-11-16 14:16:03 1510859763.846419: $GPGSV,3,3,12,27,19,288,42,32,21,238,45,14,05,232,00,138,38,213,44*4B
2017-11-16 14:16:03 1510859763.959802: $GPZDA,191602.00,16,11,2017,00,00*68
2017-11-16 14:16:03 1510859763.959960: $GPGGA,191602,3946.9554,N,08404.9851,W,2,11,0.80,304.96,M,-33.324,M,,*7E
2017-11-16 14:16:03 1510859763.960021: $GPRMC,191602,A,3946.9554,N,08404.9851,W,0.0000,0.000,161117,,*3B
2017-11-16 14:16:03 1510859763.960077: $GPGSA,A,3,8,10,13,15,18,21,20,24,27,32,138,,1.6,0.8,1.3*30
2017-11-16 14:16:04 1510859764.585135: $GPZDA,191603.00,16,11,2017,00,00*69
2017-11-16 14:16:04 1510859764.585295: $GPGGA,191603,3946.9554,N,08404.9851,W,2,11,0.80,304.96,M,-33.324,M,,*7F
2017-11-16 14:16:04 1510859764.585357: $GPRMC,191603,A,3946.9554,N,08404.9851,W,0.0000,0.000,161117,,*3A
2017-11-16 14:16:04 1510859764.585413: $GPGSA,A,3,8,10,13,15,18,21,20,24,27,32,138,,1.6,0.8,1.3*30
2017-11-16 14:16:05 1510859765.546825: $GPZDA,191604.00,16,11,2017,00,00*6E
2017-11-16 14:16:05 1510859765.546996: $GPGGA,191604,3946.9554,N,08404.9851,W,2,11,0.80,304.96,M,-33.324,M,,*78
2017-11-16 14:16:05 1510859765.547058: $GPRMC,191604,A,3946.9554,N,08404.9851,W,0.0000,0.000,161117,,*3D
2017-11-16 14:16:05 1510859765.547114: $GPGSA,A,3,8,10,13,15,18,21,20,24,27,32,138,,1.6,0.8,1.3*30
2017-11-16 14:16:06 1510859766.848828: $GPGSV,3,1,12,08,06,321,39,10,42,301,43,13,07,049,27,15,36,052,50*70
2017-11-16 14:16:06 1510859766.848974: $GPGSV,3,2,12,18,72,339,46,21,62,189,47,20,32,097,47,24,51,108,48*71
2017-11-16 14:16:06 1510859766.849035: $GPGSV,3,3,12,27,19,288,42,32,21,238,46,14,05,232,00,138,38,213,44*48
2017-11-16 14:16:06 1510859766.962117: $GPZDA,191605.00,16,11,2017,00,00*6F
2017-11-16 14:16:06 1510859766.962290: $GPGGA,191605,3946.9554,N,08404.9851,W,2,11,0.80,304.96,M,-33.324,M,,*79
2017-11-16 14:16:06 1510859766.962354: $GPRMC,191605,A,3946.9554,N,08404.9851,W,0.0000,0.000,161117,,*3C
2017-11-16 14:16:06 1510859766.962410: $GPGSA,A,3,8,10,13,15,18,21,20,24,27,32,138,,1.6,0.8,1.3*30
2017-11-16 14:16:07 1510859767.542123: $GPZDA,191606.00,16,11,2017,00,00*6C
2017-11-16 14:16:07 1510859767.542284: $GPGGA,191606,3946.9554,N,08404.9851,W,2,11,0.80,304.96,M,-33.324,M,,*7A
2017-11-16 14:16:07 1510859767.542345: $GPRMC,191606,A,3946.9554,N,08404.9851,W,0.0000,0.000,161117,,*3F
2017-11-16 14:16:07 1510859767.542401: $GPGSA,A,3,8,10,13,15,18,21,20,24,27,32,138,,1.6,0.8,1.3*30
2017-11-16 14:16:08 1510859768.511351: $GPZDA,191607.00,16,11,2017,00,00*6D
2017-11-16 14:16:08 1510859768.511518: $GPGGA,191607,3946.9554,N,08404.9851,W,2,11,0.80,304.96,M,-33.324,M,,*7B
2017-11-16 14:16:08 1510859768.511579: $GPRMC,191607,A,3946.9554,N,08404.9851,W,0.0000,0.000,161117,,*3E
2017-11-16 14:16:08 1510859768.511635: $GPGSA,A,3,8,10,13,15,18,21,20,24,27,32,138,,1.6,0.8,1.3*30
2017-11-16 14:16:09 1510859769.849052: $GPGSV,3,1,12,08,06,321,39,10,42,301,42,13,07,049,27,15,36,052,50*71
2017-11-16 14:16:09 1510859769.849233: $GPGSV,3,2,12,18,72,339,46,21,62,189,47,20,32,097,47,24,51,108,48*71
2017-11-16 14:16:09 1510859769.849313: $GPGSV,3,3,12,27,19,288,42,32,21,238,46,14,05,232,18,138,38,213,43*46
2017-11-16 14:16:09 1510859769.962848: $GPZDA,191608.00,16,11,2017,00,00*62
2017-11-16 14:16:09 1510859769.963022: $GPGGA,191608,3946.9554,N,08404.9851,W,2,12,0.80,304.96,M,-33.324,M,,*77
2017-11-16 14:16:09 1510859769.963136: $GPRMC,191608,A,3946.9554,N,08404.9851,W,0.0000,0.000,161117,,*31
2017-11-16 14:16:09 1510859769.963194: $GPGSA,A,3,8,10,13,15,18,21,20,24,27,32,14,138,1.6,0.8,1.3*35
2017-11-16 14:16:10 1510859770.510794: $GPZDA,191609.00,16,11,2017,00,00*63
2017-11-16 14:16:10 1510859770.510957: $GPGGA,191609,3946.9554,N,08404.9851,W,2,12,0.80,304.96,M,-33.324,M,,*76
2017-11-16 14:16:10 1510859770.511019: $GPRMC,191609,A,3946.9554,N,08404.9851,W,0.0000,0.000,161117,,*30
2017-11-16 14:16:10 1510859770.511075: $GPGSA,A,3,8,10,13,15,18,21,20,24,27,32,14,138,1.6,0.8,1.3*35
2017-11-16 14:16:11 1510859771.510205: $GPZDA,191610.00,16,11,2017,00,00*6B
2017-11-16 14:16:11 1510859771.510431: $GPGGA,191610,3946.9554,N,08404.9851,W,2,12,0.80,304.96,M,-33.324,M,,*7E
2017-11-16 14:16:11 1510859771.510496: $GPRMC,191610,A,3946.9554,N,08404.9851,W,0.0000,0.000,161117,,*38
2017-11-16 14:16:11 1510859771.510553: $GPGSA,A,3,8,10,13,15,18,21,20,24,27,32,14,138,1.6,0.8,1.3*35
2017-11-16 14:16:12 1510859772.842178: $GPGSV,3,1,12,08,06,321,39,10,42,301,42,13,07,049,27,15,36,052,50*71
2017-11-16 14:16:12 1510859772.842330: $GPGSV,3,2,12,18,72,339,46,21,62,189,47,20,32,097,46,24,51,108,48*70
2017-11-16 14:16:12 1510859772.842391: $GPGSV,3,3,12,27,19,288,42,32,21,238,45,14,05,232,09,138,38,213,44*42
2017-11-16 14:16:12 1510859772.955534: $GPZDA,191611.00,16,11,2017,00,00*6A
2017-11-16 14:16:12 1510859772.955706: $GPGGA,191611,3946.9554,N,08404.9851,W,2,12,0.80,304.96,M,-33.324,M,,*7F
2017-11-16 14:16:12 1510859772.955769: $GPRMC,191611,A,3946.9554,N,08404.9851,W,0.0000,0.000,161117,,*39
2017-11-16 14:16:12 1510859772.955827: $GPGSA,A,3,8,10,13,15,18,21,20,24,27,32,14,138,1.6,0.8,1.3*35
2017-11-16 14:16:13 1510859773.510078: $GPZDA,191612.00,16,11,2017,00,00*69
2017-11-16 14:16:13 1510859773.510243: $GPGGA,191612,3946.9554,N,08404.9851,W,2,12,0.80,304.96,M,-33.324,M,,*7C
2017-11-16 14:16:13 1510859773.510362: $GPRMC,191612,A,3946.9554,N,08404.9851,W,0.0000,0.000,161117,,*3A
2017-11-16 14:16:13 1510859773.510422: $GPGSA,A,3,8,10,13,15,18,21,20,24,27,32,14,138,1.6,0.8,1.3*35
2017-11-16 14:16:14 1510859774.510450: $GPZDA,191613.00,16,11,2017,00,00*68
2017-11-16 14:16:14 1510859774.510678: $GPGGA,191613,3946.9554,N,08404.9851,W,2,12,0.80,304.96,M,-33.324,M,,*7D
2017-11-16 14:16:14 1510859774.510747: $GPRMC,191613,A,3946.9554,N,08404.9851,W,0.0000,0.000,161117,,*3B
2017-11-16 14:16:14 1510859774.510806: $GPGSA,A,3,8,10,13,15,18,21,20,24,27,32,14,138,1.6,0.8,1.3*35
2017-11-16 14:16:15 1510859775.846123: $GPGSV,3,1,12,08,06,321,34,10,42,301,42,13,07,049,26,15,36,052,51*7C
2017-11-16 14:16:15 1510859775.846301: $GPGSV,3,2,12,18,72,339,46,21,62,189,47,20,32,097,47,24,51,108,48*71
2017-11-16 14:16:15 1510859775.846361: $GPGSV,3,3,12,27,19,288,41,32,21,238,45,14,05,232,14,138,38,213,44*4D
2017-11-16 14:16:15 1510859775.959422: $GPZDA,191614.00,16,11,2017,00,00*6F
2017-11-16 14:16:15 1510859775.959585: $GPGGA,191614,3946.9554,N,08404.9851,W,2,12,0.80,304.96,M,-33.324,M,,*7A
2017-11-16 14:16:15 1510859775.959648: $GPRMC,191614,A,3946.9554,N,08404.9851,W,0.0000,0.000,161117,,*3C
2017-11-16 14:16:15 1510859775.959704: $GPGSA,A,3,8,10,13,15,18,21,20,24,27,32,14,138,1.6,0.8,1.3*35
2017-11-16 14:16:16 1510859776.510255: $GPZDA,191615.00,16,11,2017,00,00*6E
2017-11-16 14:16:16 1510859776.510510: $GPGGA,191615,3946.9554,N,08404.9851,W,2,12,0.80,304.96,M,-33.324,M,,*7B
2017-11-16 14:16:16 1510859776.510580: $GPRMC,191615,A,3946.9554,N,08404.9851,W,0.0000,0.000,161117,,*3D
2017-11-16 14:16:16 1510859776.510642: $GPGSA,A,3,8,10,13,15,18,21,20,24,27,32,14,138,1.6,0.8,1.3*35
2017-11-16 14:16:17 1510859777.511272: $GPZDA,191616.00,16,11,2017,00,00*6D
2017-11-16 14:16:17 1510859777.511449: $GPGGA,191616,3946.9554,N,08404.9851,W,2,12,0.80,304.96,M,-33.324,M,,*78
2017-11-16 14:16:17 1510859777.511510: $GPRMC,191616,A,3946.9554,N,08404.9851,W,0.0000,0.000,161117,,*3E
2017-11-16 14:16:17 1510859777.511568: $GPGSA,A,3,8,10,13,15,18,21,20,24,27,32,14,138,1.6,0.8,1.3*35
