2017-12-01 16:55:15 1512165315.276634: {"class":"VERSION","release":"3.16","rev":"3.16-4","proto_major":3,"proto_minor":11}
2017-12-01 16:55:15 1512165315.277071: {"class":"DEVICES","devices":[{"class":"DEVICE","path":"/dev/ttyUSB0","driver":"SiRF","subtype":"9\u0006GSD4e_4.1.2-P1_RPATCH.05-F-GPS-4R-1510281 11/03/2015 307","activated":"2017-12-01T21:55:15.272Z","flags":1,"native":1,"bps":4800,"parity":"N","stopbits":1,"cycle":1.00}]}
2017-12-01 16:55:15 1512165315.277210: {"class":"WATCH","enable":true,"json":false,"nmea":true,"raw":0,"scaled":false,"timing":false,"split24":false,"pps":false}
2017-12-01 16:55:15 1512165315.385901: $GPZDA,215516.00,01,12,2017,00,00*64
2017-12-01 16:55:15 1512165315.386047: $GPGGA,215516,3946.9640,N,08404.9761,W,2,12,0.80,295.14,M,-33.324,M,,*7D
2017-12-01 16:55:15 1512165315.386116: $GPRMC,215516,A,3946.9640,N,08404.9761,W,0.0000,0.000,011217,,*3D
2017-12-01 16:55:15 1512165315.386176: $GPGSA,A,3,1,3,10,12,14,22,26,31,32,18,25,138,2.0,0.8,1.5*0A
2017-12-01 16:55:16 1512165316.719922: $GPGSV,3,1,12,01,22,289,43,03,09,318,42,10,36,153,39,12,17,040,19*7B
2017-12-01 16:55:16 1512165316.720162: $GPGSV,3,2,12,14,70,355,45,22,28,310,43,26,12,180,33,31,67,238,48*7C
2017-12-01 16:55:16 1512165316.720253: $GPGSV,3,3,12,32,64,055,47,18,08,147,18,25,40,075,28,138,38,213,35*4C
2017-12-01 16:55:16 1512165316.833336: $GPZDA,215517.00,01,12,2017,00,00*65
2017-12-01 16:55:16 1512165316.833491: $GPGGA,215517,3946.9640,N,08404.9761,W,2,12,0.80,295.14,M,-33.324,M,,*7C
2017-12-01 16:55:16 1512165316.833557: $GPRMC,215517,A,3946.9640,N,08404.9761,W,0.0000,0.000,011217,,*3C
2017-12-01 16:55:16 1512165316.833619: $GPGSA,A,3,1,3,10,12,14,22,26,31,32,18,25,138,2.0,0.8,1.5*0A
2017-12-01 16:55:17 1512165317.388003: $GPZDA,215518.00,01,12,2017,00,00*6A
2017-12-01 16:55:17 1512165317.388177: $GPGGA,215518,3946.9640,N,08404.9761,W,2,12,0.80,295.14,M,-33.324,M,,*73
2017-12-01 16:55:17 1512165317.388243: $GPRMC,215518,A,3946.9640,N,08404.9761,W,0.0000,0.000,011217,,*33
2017-12-01 16:55:17 1512165317.388305: $GPGSA,A,3,1,3,10,12,14,22,26,31,32,18,25,138,2.0,0.8,1.5*0A
2017-12-01 16:55:18 1512165318.387619: $GPZDA,215519.00,01,12,2017,00,00*6B
2017-12-01 16:55:18 1512165318.387789: $GPGGA,215519,3946.9640,N,08404.9761,W,2,12,0.80,295.14,M,-33.324,M,,*72
2017-12-01 16:55:18 1512165318.387879: $GPRMC,215519,A,3946.9640,N,08404.9761,W,0.0000,0.000,011217,,*32
2017-12-01 16:55:18 1512165318.387942: $GPGSA,A,3,1,3,10,12,14,22,26,31,32,18,25,138,2.0,0.8,1.5*0A
2017-12-01 16:55:19 1512165319.739454: $GPGSV,3,1,12,01,22,289,43,03,09,318,41,10,36,153,39,12,17,040,19*78
2017-12-01 16:55:19 1512165319.739636: $GPGSV,3,2,12,14,70,355,45,22,28,310,43,26,12,180,33,31,67,238,48*7C
2017-12-01 16:55:19 1512165319.739702: $GPGSV,3,3,12,32,64,055,47,18,08,147,17,25,40,075,21,138,38,213,38*47
2017-12-01 16:55:19 1512165319.852825: $GPZDA,215520.00,01,12,2017,00,00*61
2017-12-01 16:55:19 1512165319.853004: $GPGGA,215520,3946.9640,N,08404.9761,W,2,12,0.80,295.14,M,-33.324,M,,*78
2017-12-01 16:55:19 1512165319.853071: $GPRMC,215520,A,3946.9640,N,08404.9761,W,0.0000,0.000,011217,,*38
2017-12-01 16:55:19 1512165319.853132: $GPGSA,A,3,1,3,10,12,14,22,26,31,32,18,25,138,2.0,0.8,1.5*0A
2017-12-01 16:55:20 1512165320.386232: $GPZDA,215521.00,01,12,2017,00,00*60
2017-12-01 16:55:20 1512165320.386406: $GPGGA,215521,3946.9640,N,08404.9761,W,2,12,0.80,295.14,M,-33.324,M,,*79
2017-12-01 16:55:20 1512165320.386473: $GPRMC,215521,A,3946.9640,N,08404.9761,W,0.0000,0.000,011217,,*39
2017-12-01 16:55:20 1512165320.386535: $GPGSA,A,3,1,3,10,12,14,22,26,31,32,18,25,138,2.0,0.8,1.5*0A
2017-12-01 16:55:21 1512165321.404082: $GPZDA,215522.00,01,12,2017,00,00*63
2017-12-01 16:55:21 1512165321.404253: $GPGGA,215522,3946.9640,N,08404.9761,W,2,12,0.80,295.14,M,-33.324,M,,*7A
2017-12-01 16:55:21 1512165321.404320: $GPRMC,215522,A,3946.9640,N,08404.9761,W,0.0000,0.000,011217,,*3A
2017-12-01 16:55:21 1512165321.404382: $GPGSA,A,3,1,3,10,12,14,22,26,31,32,18,25,138,2.0,0.8,1.5*0A
2017-12-01 16:55:22 1512165322.739790: $GPGSV,3,1,12,01,22,289,42,03,09,318,41,10,36,153,38,12,17,040,18*79
2017-12-01 16:55:22 1512165322.740048: $GPGSV,3,2,12,14,70,355,45,22,28,310,42,26,12,180,33,31,67,238,48*7D
2017-12-01 16:55:22 1512165322.740119: $GPGSV,3,3,12,32,64,055,47,18,08,147,17,25,40,075,22,138,38,213,39*45
2017-12-01 16:55:22 1512165322.853623: $GPZDA,215523.00,01,12,2017,00,00*62
2017-12-01 16:55:22 1512165322.853792: $GPGGA,215523,3946.9640,N,08404.9761,W,2,12,0.80,295.14,M,-33.324,M,,*7B
2017-12-01 16:55:22 1512165322.853860: $GPRMC,215523,A,3946.9640,N,08404.9761,W,0.0000,0.000,011217,,*3B
2017-12-01 16:55:22 1512165322.853921: $GPGSA,A,3,1,3,10,12,14,22,26,31,32,18,25,138,2.0,0.8,1.5*0A
2017-12-01 16:55:23 1512165323.402848: $GPZDA,215524.00,01,12,2017,00,00*65
2017-12-01 16:55:23 1512165323.403033: $GPGGA,215524,3946.9640,N,08404.9761,W,2,12,1.00,295.14,M,-33.324,M,,*75
2017-12-01 16:55:23 1512165323.403101: $GPRMC,215524,A,3946.9640,N,08404.9761,W,0.0000,0.000,011217,,*3C
2017-12-01 16:55:23 1512165323.403163: $GPGSA,A,3,1,3,10,12,14,22,26,31,32,18,25,138,2.0,1.0,1.5*03
2017-12-01 16:55:24 1512165324.402418: $GPZDA,215525.00,01,12,2017,00,00*64
2017-12-01 16:55:24 1512165324.402591: $GPGGA,215525,3946.9640,N,08404.9761,W,2,12,1.00,295.14,M,-33.324,M,,*74
2017-12-01 16:55:24 1512165324.402658: $GPRMC,215525,A,3946.9640,N,08404.9761,W,0.0000,0.000,011217,,*3D
2017-12-01 16:55:24 1512165324.402736: $GPGSA,A,3,1,3,10,12,14,22,26,31,32,18,25,138,2.0,1.0,1.5*03
2017-12-01 16:55:25 1512165325.723360: $GPGSV,3,1,12,01,22,289,42,03,09,318,41,10,36,153,38,12,17,040,04*74
2017-12-01 16:55:25 1512165325.723552: $GPGSV,3,2,12,14,70,355,45,22,28,310,43,26,12,180,27,31,67,238,48*79
2017-12-01 16:55:25 1512165325.723618: $GPGSV,3,3,12,32,64,055,47,18,08,147,16,25,40,075,23,138,38,213,40*4B
2017-12-01 16:55:25 1512165325.836610: $GPZDA,215526.00,01,12,2017,00,00*67
2017-12-01 16:55:25 1512165325.836780: $GPGGA,215526,3946.9640,N,08404.9761,W,2,11,1.00,295.14,M,-33.324,M,,*74
2017-12-01 16:55:25 1512165325.836869: $GPRMC,215526,A,3946.9640,N,08404.9761,W,0.0000,0.000,011217,,*3E
2017-12-01 16:55:25 1512165325.836931: $GPGSA,A,3,1,3,10,14,22,26,31,32,18,25,138,,2.0,1.0,1.5*00
2017-12-01 16:55:26 1512165326.462591: $GPZDA,215527.00,01,12,2017,00,00*66
2017-12-01 16:55:26 1512165326.462762: $GPGGA,215527,3946.9640,N,08404.9761,W,2,11,1.00,295.14,M,-33.324,M,,*75
2017-12-01 16:55:26 1512165326.462850: $GPRMC,215527,A,3946.9640,N,08404.9761,W,0.0000,0.000,011217,,*3F
2017-12-01 16:55:26 1512165326.462913: $GPGSA,A,3,1,3,10,14,22,26,31,32,18,25,138,,2.0,1.0,1.5*00
2017-12-01 16:55:27 1512165327.387019: $GPZDA,215528.00,01,12,2017,00,00*69
2017-12-01 16:55:27 1512165327.387206: $GPGGA,215528,3946.9640,N,08404.9761,W,2,11,1.00,295.14,M,-33.324,M,,*7A
2017-12-01 16:55:27 1512165327.387273: $GPRMC,215528,A,3946.9640,N,08404.9761,W,0.0000,0.000,011217,,*30
2017-12-01 16:55:27 1512165327.387335: $GPGSA,A,3,1,3,10,14,22,26,31,32,18,25,138,,2.0,1.0,1.5*00
2017-12-01 16:55:28 1512165328.739885: $GPGSV,3,1,12,01,22,289,41,03,09,318,41,10,36,153,38,12,17,040,04*77
2017-12-01 16:55:28 1512165328.740084: $GPGSV,3,2,12,14,70,355,45,22,28,310,43,26,12,180,30,31,67,238,47*70
2017-12-01 16:55:28 1512165328.740151: $GPGSV,3,3,12,32,64,055,46,18,08,147,16,25,40,075,29,138,38,213,38*4F
2017-12-01 16:55:28 1512165328.853896: $GPZDA,215529.00,01,12,2017,00,00*68
2017-12-01 16:55:28 1512165328.854106: $GPGGA,215529,3946.9640,N,08404.9761,W,2,11,1.00,295.14,M,-33.324,M,,*7B
2017-12-01 16:55:28 1512165328.854186: $GPRMC,215529,A,3946.9640,N,08404.9761,W,0.0000,0.000,011217,,*31
2017-12-01 16:55:28 1512165328.854248: $GPGSA,A,3,1,3,10,14,22,26,31,32,18,25,138,,2.0,1.0,1.5*00
2017-12-01 16:55:29 1512165329.389420: $GPZDA,215530.00,01,12,2017,00,00*60
2017-12-01 16:55:29 1512165329.389609: $GPGGA,215530,3946.9640,N,08404.9761,W,2,11,1.00,295.14,M,-33.324,M,,*73
2017-12-01 16:55:29 1512165329.389677: $GPRMC,215530,A,3946.9640,N,08404.9761,W,0.0000,0.000,011217,,*39
2017-12-01 16:55:29 1512165329.389739: $GPGSA,A,3,1,3,10,14,22,26,31,32,18,25,138,,2.0,1.0,1.5*00
2017-12-01 16:55:30 1512165330.404923: $GPZDA,215531.00,01,12,2017,00,00*61
2017-12-01 16:55:30 1512165330.405149: $GPGGA,215531,3946.9640,N,08404.9761,W,2,11,1.00,295.14,M,-33.324,M,,*72
2017-12-01 16:55:30 1512165330.405219: $GPRMC,215531,A,3946.9640,N,08404.9761,W,0.0000,0.000,011217,,*38
2017-12-01 16:55:30 1512165330.405281: $GPGSA,A,3,1,3,10,14,22,26,31,32,18,25,138,,2.0,1.0,1.5*00
2017-12-01 16:55:31 1512165331.739135: $GPGSV,3,1,12,01,22,289,41,03,09,318,41,10,36,153,38,12,17,040,06*75
2017-12-01 16:55:31 1512165331.739316: $GPGSV,3,2,12,14,70,355,45,22,28,310,43,26,12,180,30,31,67,238,48*7F
2017-12-01 16:55:31 1512165331.739381: $GPGSV,3,3,12,32,64,055,47,18,08,147,15,25,40,075,31,138,38,213,40*4B
2017-12-01 16:55:31 1512165331.851083: $GPZDA,215532.00,01,12,2017,00,00*62
2017-12-01 16:55:31 1512165331.851254: $GPGGA,215532,3946.9640,N,08404.9761,W,2,12,1.00,295.14,M,-33.324,M,,*72
2017-12-01 16:55:31 1512165331.851320: $GPRMC,215532,A,3946.9640,N,08404.9761,W,0.0000,0.000,011217,,*3B
2017-12-01 16:55:31 1512165331.851468: $GPGSA,A,3,1,3,10,12,14,22,26,31,32,18,25,138,2.0,1.0,1.5*03
2017-12-01 16:55:32 1512165332.400635: $GPZDA,215533.00,01,12,2017,00,00*63
2017-12-01 16:55:32 1512165332.402285: $GPGGA,215533,3946.9640,N,08404.9761,W,2,12,1.00,295.14,M,-33.324,M,,*73
2017-12-01 16:55:32 1512165332.402403: $GPRMC,215533,A,3946.9640,N,08404.9761,W,0.0000,0.000,011217,,*3A
2017-12-01 16:55:32 1512165332.402468: $GPGSA,A,3,1,3,10,12,14,22,26,31,32,18,25,138,2.0,1.0,1.5*03
2017-12-01 16:55:33 1512165333.387818: $GPZDA,215534.00,01,12,2017,00,00*64
2017-12-01 16:55:33 1512165333.388021: $GPGGA,215534,3946.9640,N,08404.9761,W,2,12,1.00,295.14,M,-33.324,M,,*74
2017-12-01 16:55:33 1512165333.388089: $GPRMC,215534,A,3946.9640,N,08404.9761,W,0.0000,0.000,011217,,*3D
2017-12-01 16:55:33 1512165333.388150: $GPGSA,A,3,1,3,10,12,14,22,26,31,32,18,25,138,2.0,1.0,1.5*03
2017-12-01 16:55:34 1512165334.740987: $GPGSV,3,1,12,01,22,289,41,03,09,318,41,10,36,153,38,12,17,040,05*76
2017-12-01 16:55:34 1512165334.741173: $GPGSV,3,2,12,14,70,355,45,22,28,310,44,26,12,180,35,31,67,238,47*72
2017-12-01 16:55:34 1512165334.741242: $GPGSV,3,3,12,32,64,055,47,18,08,147,15,25,40,075,30,138,38,213,41*4B
2017-12-01 16:55:34 1512165334.853142: $GPZDA,215535.00,01,12,2017,00,00*65
2017-12-01 16:55:34 1512165334.853293: $GPGGA,215535,3946.9640,N,08404.9761,W,2,11,1.00,295.14,M,-33.324,M,,*76
2017-12-01 16:55:34 1512165334.853360: $GPRMC,215535,A,3946.9640,N,08404.9761,W,0.0000,0.000,011217,,*3C
2017-12-01 16:55:34 1512165334.853421: $GPGSA,A,3,1,3,10,14,22,26,31,32,18,25,138,,2.0,1.0,1.5*00
