2017-11-16 15:35:56 1510864556.865799: {"class":"VERSION","release":"3.17","rev":"3.17","proto_major":3,"proto_minor":12}
2017-11-16 15:35:56 1510864556.866055: {"class":"DEVICES","devices":[{"class":"DEVICE","path":"/dev/ttyUSB0","driver":"SiRF","subtype":"9\u0006GSD4e_4.1.2-P1_RPATCH.05-F-GPS-4R-1510281 11/03/2015 307","activated":"2017-11-16T20:35:56.583Z","flags":1,"native":1,"bps":4800,"parity":"N","stopbits":1,"cycle":1.00}]}
2017-11-16 15:35:56 1510864556.866111: {"class":"WATCH","enable":true,"json":false,"nmea":true,"raw":0,"scaled":false,"timing":false,"split24":false,"pps":false}
2017-11-16 15:35:57 1510864557.384129: $GPZDA,203556.00,16,11,2017,00,00*62
2017-11-16 15:35:57 1510864557.384337: $GPGGA,203556,3946.9568,N,08404.9860,W,2,12,1.00,309.61,M,-33.324,M,,*76
2017-11-16 15:35:57 1510864557.384420: $GPRMC,203556,A,3946.9568,N,08404.9860,W,0.0000,0.000,161117,,*3C
2017-11-16 15:35:57 1510864557.384478: $GPGSA,A,3,8,10,14,15,18,20,21,24,25,32,12,138,1.6,1.0,1.3*3F
2017-11-16 15:35:58 1510864558.701940: $GPGSV,3,1,12,08,04,289,33,10,73,337,51,14,32,256,46,15,08,069,28*7F
2017-11-16 15:35:58 1510864558.702112: $GPGSV,3,2,12,18,67,102,48,20,05,120,23,21,25,178,43,24,42,055,49*79
2017-11-16 15:35:58 1510864558.702173: $GPGSV,3,3,12,25,06,139,22,32,49,270,47,12,12,103,34,138,38,213,44*4E
2017-11-16 15:35:58 1510864558.815236: $GPZDA,203557.00,16,11,2017,00,00*63
2017-11-16 15:35:58 1510864558.815415: $GPGGA,203557,3946.9568,N,08404.9860,W,2,12,1.00,309.61,M,-33.324,M,,*77
2017-11-16 15:35:58 1510864558.815478: $GPRMC,203557,A,3946.9568,N,08404.9860,W,0.0000,0.000,161117,,*3D
2017-11-16 15:35:58 1510864558.815534: $GPGSA,A,3,8,10,14,15,18,20,21,24,25,32,12,138,1.6,1.0,1.3*3F
2017-11-16 15:35:59 1510864559.366071: $GPZDA,203558.00,16,11,2017,00,00*6C
2017-11-16 15:35:59 1510864559.366278: $GPGGA,203558,3946.9568,N,08404.9860,W,2,12,1.00,309.61,M,-33.324,M,,*78
2017-11-16 15:35:59 1510864559.366360: $GPRMC,203558,A,3946.9568,N,08404.9860,W,0.0000,0.000,161117,,*32
2017-11-16 15:35:59 1510864559.366418: $GPGSA,A,3,8,10,14,15,18,20,21,24,25,32,12,138,1.6,1.0,1.3*3F
2017-11-16 15:36:00 1510864560.383234: $GPZDA,203559.00,16,11,2017,00,00*6D
2017-11-16 15:36:00 1510864560.383422: $GPGGA,203559,3946.9568,N,08404.9860,W,2,12,1.00,309.61,M,-33.324,M,,*79
2017-11-16 15:36:00 1510864560.383486: $GPRMC,203559,A,3946.9568,N,08404.9860,W,0.0000,0.000,161117,,*33
2017-11-16 15:36:00 1510864560.383543: $GPGSA,A,3,8,10,14,15,18,20,21,24,25,32,12,138,1.6,1.0,1.3*3F
2017-11-16 15:36:01 1510864561.704794: $GPGSV,3,1,12,08,04,289,32,10,73,337,51,14,32,256,45,15,08,069,27*72
2017-11-16 15:36:01 1510864561.704980: $GPGSV,3,2,12,18,67,102,48,20,05,120,23,21,25,178,43,24,42,055,48*78
2017-11-16 15:36:01 1510864561.705041: $GPGSV,3,3,12,25,06,139,22,32,49,270,46,12,12,103,34,138,38,213,44*4F
2017-11-16 15:36:01 1510864561.818128: $GPZDA,203600.00,16,11,2017,00,00*62
2017-11-16 15:36:01 1510864561.818328: $GPGGA,203600,3946.9568,N,08404.9860,W,2,12,1.00,309.61,M,-33.324,M,,*76
2017-11-16 15:36:01 1510864561.818389: $GPRMC,203600,A,3946.9568,N,08404.9860,W,0.0000,0.000,161117,,*3C
2017-11-16 15:36:01 1510864561.818445: $GPGSA,A,3,8,10,14,15,18,20,21,24,25,32,12,138,1.6,1.0,1.3*3F
2017-11-16 15:36:02 1510864562.359424: $GPZDA,203601.00,16,11,2017,00,00*63
2017-11-16 15:36:02 1510864562.359582: $GPGGA,203601,3946.9568,N,08404.9860,W,2,12,1.00,309.61,M,-33.324,M,,*77
2017-11-16 15:36:02 1510864562.359643: $GPRMC,203601,A,3946.9568,N,08404.9860,W,0.0000,0.000,161117,,*3D
2017-11-16 15:36:02 1510864562.359699: $GPGSA,A,3,8,10,14,15,18,20,21,24,25,32,12,138,1.6,1.0,1.3*3F
2017-11-16 15:36:03 1510864563.383403: $GPZDA,203602.00,16,11,2017,00,00*60
2017-11-16 15:36:03 1510864563.383564: $GPGGA,203602,3946.9568,N,08404.9860,W,2,12,1.00,309.61,M,-33.324,M,,*74
2017-11-16 15:36:03 1510864563.383626: $GPRMC,203602,A,3946.9568,N,08404.9860,W,0.0000,0.000,161117,,*3E
2017-11-16 15:36:03 1510864563.383681: $GPGSA,A,3,8,10,14,15,18,20,21,24,25,32,12,138,1.6,1.0,1.3*3F
2017-11-16 15:36:03 1510864563.383735: $GPGBS,203602,2.12,M,3.10,M,7.47,M*3C
2017-11-16 15:36:04 1510864564.696366: $GPGSV,3,1,12,08,04,289,26,10,73,337,51,14,32,256,46,15,08,069,27*74
2017-11-16 15:36:04 1510864564.696537: $GPGSV,3,2,12,18,67,102,48,20,05,120,23,21,25,178,43,24,42,055,49*79
2017-11-16 15:36:04 1510864564.696597: $GPGSV,3,3,12,25,06,139,22,32,49,270,46,12,12,103,35,138,38,213,45*4F
2017-11-16 15:36:04 1510864564.810155: $GPZDA,203603.00,16,11,2017,00,00*61
2017-11-16 15:36:04 1510864564.810399: $GPGGA,203603,3946.9568,N,08404.9860,W,2,12,1.00,309.61,M,-33.324,M,,*75
2017-11-16 15:36:04 1510864564.810470: $GPRMC,203603,A,3946.9568,N,08404.9860,W,0.0000,0.000,161117,,*3F
2017-11-16 15:36:04 1510864564.810526: $GPGSA,A,3,8,10,14,15,18,20,21,24,25,32,12,138,1.6,1.0,1.3*3F
2017-11-16 15:36:05 1510864565.384651: $GPZDA,203604.00,16,11,2017,00,00*66
2017-11-16 15:36:05 1510864565.384810: $GPGGA,203604,3946.9568,N,08404.9860,W,2,12,1.00,309.61,M,-33.324,M,,*72
2017-11-16 15:36:05 1510864565.384870: $GPRMC,203604,A,3946.9568,N,08404.9860,W,0.0000,0.000,161117,,*38
2017-11-16 15:36:05 1510864565.384927: $GPGSA,A,3,8,10,14,15,18,20,21,24,25,32,12,138,1.6,1.0,1.3*3F
2017-11-16 15:36:06 1510864566.367092: $GPZDA,203605.00,16,11,2017,00,00*67
2017-11-16 15:36:06 1510864566.367302: $GPGGA,203605,3946.9568,N,08404.9860,W,2,12,1.00,309.61,M,-33.324,M,,*73
2017-11-16 15:36:06 1510864566.367364: $GPRMC,203605,A,3946.9568,N,08404.9860,W,0.0000,0.000,161117,,*39
2017-11-16 15:36:06 1510864566.367421: $GPGSA,A,3,8,10,14,15,18,20,21,24,25,32,12,138,1.6,1.0,1.3*3F
