2017-12-01 13:42:56 1512153776.636986: {"class":"VERSION","release":"3.16","rev":"3.16-4","proto_major":3,"proto_minor":11}
2017-12-01 13:42:56 1512153776.637396: {"class":"DEVICES","devices":[{"class":"DEVICE","path":"/dev/ttyUSB0","driver":"SiRF","subtype":"9\u0006GSD4e_4.1.2-P1_RPATCH.05-F-GPS-4R-1510281 11/03/2015 307","activated":"2017-12-01T18:42:56.589Z","flags":1,"native":1,"bps":4800,"parity":"N","stopbits":1,"cycle":1.00}]}
2017-12-01 13:42:56 1512153776.637533: {"class":"WATCH","enable":true,"json":false,"nmea":true,"raw":0,"scaled":false,"timing":false,"split24":false,"pps":false}
2017-12-01 13:42:56 1512153776.702458: $GPZDA,184257.00,01,12,2017,00,00*6D
2017-12-01 13:42:56 1512153776.702628: $GPGGA,184257,3946.9593,N,08404.9838,W,2,11,0.80,299.44,M,-33.324,M,,*70
2017-12-01 13:42:56 1512153776.702693: $GPRMC,184257,A,3946.9593,N,08404.9838,W,0.0000,0.000,011217,,*3A
2017-12-01 13:42:56 1512153776.702754: $GPGSA,A,3,10,14,15,18,20,21,24,27,32,8,138,,2.0,0.8,1.5*34
2017-12-01 13:42:57 1512153777.252592: $GPZDA,184258.00,01,12,2017,00,00*62
2017-12-01 13:42:57 1512153777.252766: $GPGGA,184258,3946.9593,N,08404.9838,W,2,11,0.80,299.44,M,-33.324,M,,*7F
2017-12-01 13:42:57 1512153777.252856: $GPRMC,184258,A,3946.9593,N,08404.9838,W,0.0000,0.000,011217,,*35
2017-12-01 13:42:57 1512153777.252918: $GPGSA,A,3,10,14,15,18,20,21,24,27,32,8,138,,2.0,0.8,1.5*34
2017-12-01 13:42:58 1512153778.252683: $GPZDA,184259.00,01,12,2017,00,00*63
2017-12-01 13:42:58 1512153778.252874: $GPGGA,184259,3946.9593,N,08404.9838,W,2,11,0.80,299.44,M,-33.324,M,,*7E
2017-12-01 13:42:58 1512153778.252959: $GPRMC,184259,A,3946.9593,N,08404.9838,W,0.0000,0.000,011217,,*34
2017-12-01 13:42:58 1512153778.253021: $GPGSA,A,3,10,14,15,18,20,21,24,27,32,8,138,,2.0,0.8,1.5*34
2017-12-01 13:42:59 1512153779.588853: $GPGSV,3,1,11,10,53,312,49,14,15,240,36,15,25,057,46,18,77,025,44*7E
2017-12-01 13:42:59 1512153779.589051: $GPGSV,3,2,11,20,23,106,48,21,48,183,45,24,53,085,47,27,15,276,37*7C
2017-12-01 13:42:59 1512153779.589117: $GPGSV,3,3,11,32,32,249,44,08,08,310,34,138,38,213,47*71
2017-12-01 13:42:59 1512153779.701311: $GPZDA,184300.00,01,12,2017,00,00*6E
2017-12-01 13:42:59 1512153779.701585: $GPGGA,184300,3946.9593,N,08404.9838,W,2,11,0.80,299.44,M,-33.324,M,,*73
2017-12-01 13:42:59 1512153779.701653: $GPRMC,184300,A,3946.9593,N,08404.9838,W,0.0000,0.000,011217,,*39
2017-12-01 13:42:59 1512153779.701715: $GPGSA,A,3,10,14,15,18,20,21,24,27,32,8,138,,2.0,0.8,1.5*34
2017-12-01 13:43:00 1512153780.227283: $GPZDA,184301.00,01,12,2017,00,00*6F
2017-12-01 13:43:00 1512153780.227601: $GPGGA,184301,3946.9593,N,08404.9838,W,2,11,0.80,299.44,M,-33.324,M,,*72
2017-12-01 13:43:00 1512153780.227725: $GPRMC,184301,A,3946.9593,N,08404.9838,W,0.0000,0.000,011217,,*38
2017-12-01 13:43:00 1512153780.227858: $GPGSA,A,3,10,14,15,18,20,21,24,27,32,8,138,,2.0,0.8,1.5*34
2017-12-01 13:43:01 1512153781.225828: $GPZDA,184302.00,01,12,2017,00,00*6C
2017-12-01 13:43:01 1512153781.226004: $GPGGA,184302,3946.9593,N,08404.9838,W,2,11,0.80,299.44,M,-33.324,M,,*71
2017-12-01 13:43:01 1512153781.226073: $GPRMC,184302,A,3946.9593,N,08404.9838,W,0.0000,0.000,011217,,*3B
2017-12-01 13:43:01 1512153781.226133: $GPGSA,A,3,10,14,15,18,20,21,24,27,32,8,138,,2.0,0.8,1.5*34
2017-12-01 13:43:02 1512153782.565724: $GPGSV,3,1,11,10,53,312,49,14,15,240,32,15,25,057,47,18,77,025,44*7B
2017-12-01 13:43:02 1512153782.565959: $GPGSV,3,2,11,20,23,106,48,21,48,183,45,24,53,085,47,27,15,276,37*7C
2017-12-01 13:43:02 1512153782.566028: $GPGSV,3,3,11,32,32,249,44,08,08,310,35,138,38,213,47*70
2017-12-01 13:43:02 1512153782.679159: $GPZDA,184303.00,01,12,2017,00,00*6D
2017-12-01 13:43:02 1512153782.679331: $GPGGA,184303,3946.9593,N,08404.9838,W,2,11,0.80,299.44,M,-33.324,M,,*70
2017-12-01 13:43:02 1512153782.679396: $GPRMC,184303,A,3946.9593,N,08404.9838,W,0.0000,0.000,011217,,*3A
2017-12-01 13:43:02 1512153782.679457: $GPGSA,A,3,10,14,15,18,20,21,24,27,32,8,138,,2.0,0.8,1.5*34
2017-12-01 13:43:03 1512153783.229273: $GPZDA,184304.00,01,12,2017,00,00*6A
2017-12-01 13:43:03 1512153783.229443: $GPGGA,184304,3946.9593,N,08404.9838,W,2,11,0.80,299.44,M,-33.324,M,,*77
2017-12-01 13:43:03 1512153783.229566: $GPRMC,184304,A,3946.9593,N,08404.9838,W,0.0000,0.000,011217,,*3D
2017-12-01 13:43:03 1512153783.229629: $GPGSA,A,3,10,14,15,18,20,21,24,27,32,8,138,,2.0,0.8,1.5*34
2017-12-01 13:43:04 1512153784.251972: $GPZDA,184305.00,01,12,2017,00,00*6B
2017-12-01 13:43:04 1512153784.252145: $GPGGA,184305,3946.9593,N,08404.9838,W,2,11,0.80,299.44,M,-33.324,M,,*76
2017-12-01 13:43:04 1512153784.252213: $GPRMC,184305,A,3946.9593,N,08404.9838,W,0.0000,0.000,011217,,*3C
2017-12-01 13:43:04 1512153784.252273: $GPGSA,A,3,10,14,15,18,20,21,24,27,32,8,138,,2.0,0.8,1.5*34
2017-12-01 13:43:05 1512153785.566350: $GPGSV,3,1,11,10,53,312,49,14,15,240,33,15,25,057,47,18,77,025,44*7A
2017-12-01 13:43:05 1512153785.566532: $GPGSV,3,2,11,20,23,106,48,21,48,183,45,24,53,085,48,27,15,276,38*7C
2017-12-01 13:43:05 1512153785.566599: $GPGSV,3,3,11,32,32,249,44,08,08,310,35,138,38,213,48*7F
2017-12-01 13:43:05 1512153785.679815: $GPZDA,184306.00,01,12,2017,00,00*68
2017-12-01 13:43:05 1512153785.679999: $GPGGA,184306,3946.9593,N,08404.9838,W,2,11,0.80,299.44,M,-33.324,M,,*75
2017-12-01 13:43:05 1512153785.680067: $GPRMC,184306,A,3946.9593,N,08404.9838,W,0.0000,0.000,011217,,*3F
2017-12-01 13:43:05 1512153785.680127: $GPGSA,A,3,10,14,15,18,20,21,24,27,32,8,138,,2.0,0.8,1.5*34
2017-12-01 13:43:06 1512153786.253743: $GPZDA,184307.00,01,12,2017,00,00*69
2017-12-01 13:43:06 1512153786.253998: $GPGGA,184307,3946.9593,N,08404.9838,W,2,11,0.80,299.44,M,-33.324,M,,*74
2017-12-01 13:43:06 1512153786.254071: $GPRMC,184307,A,3946.9593,N,08404.9838,W,0.0000,0.000,011217,,*3E
2017-12-01 13:43:06 1512153786.254133: $GPGSA,A,3,10,14,15,18,20,21,24,27,32,8,138,,2.0,0.8,1.5*34
