2017-12-29 11:46:43 1514566003.365857: {"class":"VERSION","release":"3.16","rev":"3.16-4","proto_major":3,"proto_minor":11}
2017-12-29 11:46:43 1514566003.366209: {"class":"DEVICES","devices":[{"class":"DEVICE","path":"/dev/ttyUSB0","driver":"SiRF","subtype":"9\u0006GSD4e_4.1.2-P1_RPATCH.05-F-GPS-4R-1510281 11/03/2015 307","activated":"2017-12-29T16:46:43.258Z","flags":1,"native":1,"bps":4800,"parity":"N","stopbits":1,"cycle":1.00}]}
2017-12-29 11:46:43 1514566003.366324: {"class":"WATCH","enable":true,"json":false,"nmea":true,"raw":0,"scaled":false,"timing":false,"split24":false,"pps":false}
2017-12-29 11:46:43 1514566003.372322: $GPZDA,164644.00,29,12,2017,00,00*6F
2017-12-29 11:46:43 1514566003.372455: $GPGGA,164644,3946.9600,N,08404.9898,W,2,11,0.80,307.23,M,-33.324,M,,*7C
2017-12-29 11:46:43 1514566003.372521: $GPRMC,164644,A,3946.9600,N,08404.9898,W,0.0000,0.000,291217,,*3B
2017-12-29 11:46:43 1514566003.372581: $GPGSA,A,3,8,10,14,15,18,20,21,24,32,27,138,,1.7,0.8,1.3*36
2017-12-29 11:46:44 1514566004.689100: $GPGSV,3,1,11,08,08,312,34,10,52,312,46,14,13,240,33,15,26,057,46*79
2017-12-29 11:46:44 1514566004.689285: $GPGSV,3,2,11,18,77,024,45,20,24,105,49,21,49,183,46,24,53,087,51*76
2017-12-29 11:46:44 1514566004.689350: $GPGSV,3,3,11,32,32,247,38,27,16,276,30,138,38,213,45*71
2017-12-29 11:46:44 1514566004.802512: $GPZDA,164645.00,29,12,2017,00,00*6E
2017-12-29 11:46:44 1514566004.802672: $GPGGA,164645,3946.9600,N,08404.9898,W,2,11,0.80,307.23,M,-33.324,M,,*7D
2017-12-29 11:46:44 1514566004.802737: $GPRMC,164645,A,3946.9600,N,08404.9898,W,0.0000,0.000,291217,,*3A
2017-12-29 11:46:44 1514566004.802797: $GPGSA,A,3,8,10,14,15,18,20,21,24,32,27,138,,1.7,0.8,1.3*36
2017-12-29 11:46:45 1514566005.429414: $GPZDA,164646.00,29,12,2017,00,00*6D
2017-12-29 11:46:45 1514566005.429571: $GPGGA,164646,3946.9600,N,08404.9898,W,2,11,0.80,307.23,M,-33.324,M,,*7E
2017-12-29 11:46:45 1514566005.429636: $GPRMC,164646,A,3946.9600,N,08404.9898,W,0.0000,0.000,291217,,*39
2017-12-29 11:46:45 1514566005.429695: $GPGSA,A,3,8,10,14,15,18,20,21,24,32,27,138,,1.7,0.8,1.3*36
2017-12-29 11:46:46 1514566006.352776: $GPZDA,164647.00,29,12,2017,00,00*6C
2017-12-29 11:46:46 1514566006.352945: $GPGGA,164647,3946.9600,N,08404.9898,W,2,11,0.80,307.23,M,-33.324,M,,*7F
2017-12-29 11:46:46 1514566006.353010: $GPRMC,164647,A,3946.9600,N,08404.9898,W,0.0000,0.000,291217,,*38
2017-12-29 11:46:46 1514566006.353070: $GPGSA,A,3,8,10,14,15,18,20,21,24,32,27,138,,1.7,0.8,1.3*36
2017-12-29 11:46:47 1514566007.705692: $GPGSV,3,1,11,08,08,312,34,10,52,312,46,14,13,240,34,15,26,057,46*7E
2017-12-29 11:46:47 1514566007.705875: $GPGSV,3,2,11,18,77,024,45,20,24,105,49,21,49,183,46,24,53,087,51*76
2017-12-29 11:46:47 1514566007.705940: $GPGSV,3,3,11,32,32,247,38,27,16,276,30,138,38,213,46*72
2017-12-29 11:46:47 1514566007.819409: $GPZDA,164648.00,29,12,2017,00,00*63
2017-12-29 11:46:47 1514566007.819548: $GPGGA,164648,3946.9600,N,08404.9898,W,2,11,0.80,307.23,M,-33.324,M,,*70
2017-12-29 11:46:47 1514566007.819612: $GPRMC,164648,A,3946.9600,N,08404.9898,W,0.0000,0.000,291217,,*37
2017-12-29 11:46:47 1514566007.819672: $GPGSA,A,3,8,10,14,15,18,20,21,24,32,27,138,,1.7,0.8,1.3*36
2017-12-29 11:46:48 1514566008.372024: $GPZDA,164649.00,29,12,2017,00,00*62
2017-12-29 11:46:48 1514566008.372196: $GPGGA,164649,3946.9600,N,08404.9898,W,2,11,0.80,307.23,M,-33.324,M,,*71
2017-12-29 11:46:48 1514566008.372263: $GPRMC,164649,A,3946.9600,N,08404.9898,W,0.0000,0.000,291217,,*36
2017-12-29 11:46:48 1514566008.372323: $GPGSA,A,3,8,10,14,15,18,20,21,24,32,27,138,,1.7,0.8,1.3*36
2017-12-29 11:46:49 1514566009.859996: $GPZDA,164650.00,29,12,2017,00,00*6A
2017-12-29 11:46:49 1514566009.860165: $GPGGA,164650,3946.9597,N,08404.9892,W,2,11,0.80,309.48,M,-33.324,M,,*7D
2017-12-29 11:46:49 1514566009.860231: $GPRMC,164650,A,3946.9597,N,08404.9892,W,0.0000,0.000,291217,,*39
2017-12-29 11:46:49 1514566009.860291: $GPGSA,A,3,8,10,14,15,18,20,21,24,32,27,138,,1.7,0.8,1.3*36
2017-12-29 11:46:50 1514566010.821263: $GPGSV,3,1,11,08,08,312,30,10,53,312,46,14,14,240,34,15,25,057,46*7F
2017-12-29 11:46:50 1514566010.821482: $GPGSV,3,2,11,18,77,025,45,20,24,106,50,21,49,183,47,24,53,085,51*7F
2017-12-29 11:46:50 1514566010.821551: $GPGSV,3,3,11,32,32,247,38,27,15,276,30,138,38,213,44*73
2017-12-29 11:46:50 1514566010.934955: $GPZDA,164651.00,29,12,2017,00,00*6B
2017-12-29 11:46:50 1514566010.935125: $GPGGA,164651,3946.9597,N,08404.9892,W,2,11,0.80,309.48,M,-33.324,M,,*7C
2017-12-29 11:46:50 1514566010.935191: $GPRMC,164651,A,3946.9597,N,08404.9892,W,0.0000,0.000,291217,,*38
2017-12-29 11:46:50 1514566010.935252: $GPGSA,A,3,8,10,14,15,18,20,21,24,32,27,138,,1.7,0.8,1.3*36
2017-12-29 11:46:51 1514566011.385933: $GPZDA,164652.00,29,12,2017,00,00*68
2017-12-29 11:46:51 1514566011.386135: $GPGGA,164652,3946.9601,N,08404.9892,W,2,11,0.80,310.12,M,-33.324,M,,*74
2017-12-29 11:46:51 1514566011.386203: $GPRMC,164652,A,3946.9601,N,08404.9892,W,0.0000,0.000,291217,,*37
2017-12-29 11:46:51 1514566011.386264: $GPGSA,A,3,8,10,14,15,18,20,21,24,32,27,138,,1.7,0.8,1.3*36
2017-12-29 11:46:52 1514566012.366621: $GPZDA,164653.00,29,12,2017,00,00*69
2017-12-29 11:46:52 1514566012.366785: $GPGGA,164653,3946.9601,N,08404.9892,W,2,11,0.80,310.12,M,-33.324,M,,*75
2017-12-29 11:46:52 1514566012.366851: $GPRMC,164653,A,3946.9601,N,08404.9892,W,0.0000,0.000,291217,,*36
2017-12-29 11:46:52 1514566012.366911: $GPGSA,A,3,8,10,14,15,18,20,21,24,32,27,138,,1.7,0.8,1.3*36
2017-12-29 11:46:53 1514566013.689551: $GPGSV,3,1,11,08,08,312,31,10,53,312,46,14,14,240,35,15,25,057,46*7F
2017-12-29 11:46:53 1514566013.689731: $GPGSV,3,2,11,18,77,025,45,20,24,106,49,21,49,183,47,24,53,085,51*77
2017-12-29 11:46:53 1514566013.689798: $GPGSV,3,3,11,32,32,247,38,27,15,276,31,138,38,213,45*73
2017-12-29 11:46:53 1514566013.803193: $GPZDA,164654.00,29,12,2017,00,00*6E
2017-12-29 11:46:53 1514566013.803341: $GPGGA,164654,3946.9601,N,08404.9892,W,2,11,0.80,310.12,M,-33.324,M,,*72
2017-12-29 11:46:53 1514566013.803408: $GPRMC,164654,A,3946.9601,N,08404.9892,W,0.0000,0.000,291217,,*31
2017-12-29 11:46:53 1514566013.803468: $GPGSA,A,3,8,10,14,15,18,20,21,24,32,27,138,,1.7,0.8,1.3*36
2017-12-29 11:46:54 1514566014.370964: $GPZDA,164655.00,29,12,2017,00,00*6F
2017-12-29 11:46:54 1514566014.371212: $GPGGA,164655,3946.9601,N,08404.9885,W,2,11,0.80,310.20,M,-33.324,M,,*74
2017-12-29 11:46:54 1514566014.371284: $GPRMC,164655,A,3946.9601,N,08404.9885,W,0.0000,0.000,291217,,*36
2017-12-29 11:46:54 1514566014.371358: $GPGSA,A,3,8,10,14,15,18,20,21,24,32,27,138,,1.7,0.8,1.3*36
2017-12-29 11:46:55 1514566015.859584: $GPZDA,164656.00,29,12,2017,00,00*6C
2017-12-29 11:46:55 1514566015.859801: $GPGGA,164656,3946.9601,N,08404.9885,W,2,11,0.80,310.20,M,-33.324,M,,*77
2017-12-29 11:46:55 1514566015.859888: $GPRMC,164656,A,3946.9601,N,08404.9885,W,0.0000,0.000,291217,,*35
2017-12-29 11:46:55 1514566015.859951: $GPGSA,A,3,8,10,14,15,18,20,21,24,32,27,138,,1.7,0.8,1.3*36
2017-12-29 11:46:56 1514566016.690068: $GPGSV,3,1,11,08,08,312,31,10,53,312,46,14,14,240,35,15,25,057,46*7F
2017-12-29 11:46:56 1514566016.690248: $GPGSV,3,2,11,18,77,025,45,20,24,106,49,21,49,183,47,24,53,085,51*77
2017-12-29 11:46:56 1514566016.690315: $GPGSV,3,3,11,32,32,247,38,27,15,276,31,138,38,213,44*72
2017-12-29 11:46:56 1514566016.803944: $GPZDA,164657.00,29,12,2017,00,00*6D
2017-12-29 11:46:56 1514566016.804132: $GPGGA,164657,3946.9601,N,08404.9885,W,2,11,0.80,310.20,M,-33.324,M,,*76
2017-12-29 11:46:56 1514566016.804198: $GPRMC,164657,A,3946.9601,N,08404.9885,W,0.0000,0.000,291217,,*34
2017-12-29 11:46:56 1514566016.804258: $GPGSA,A,3,8,10,14,15,18,20,21,24,32,27,138,,1.7,0.8,1.3*36
2017-12-29 11:46:57 1514566017.370657: $GPZDA,164658.00,29,12,2017,00,00*62
2017-12-29 11:46:57 1514566017.370826: $GPGGA,164658,3946.9601,N,08404.9885,W,2,11,0.80,310.20,M,-33.324,M,,*79
2017-12-29 11:46:57 1514566017.370912: $GPRMC,164658,A,3946.9601,N,08404.9885,W,0.0000,0.000,291217,,*3B
2017-12-29 11:46:57 1514566017.370973: $GPGSA,A,3,8,10,14,15,18,20,21,24,32,27,138,,1.7,0.8,1.3*36
2017-12-29 11:46:58 1514566018.370215: $GPZDA,164659.00,29,12,2017,00,00*63
2017-12-29 11:46:58 1514566018.370436: $GPGGA,164659,3946.9601,N,08404.9885,W,2,11,0.80,310.20,M,-33.324,M,,*78
2017-12-29 11:46:58 1514566018.370505: $GPRMC,164659,A,3946.9601,N,08404.9885,W,0.0000,0.000,291217,,*3A
2017-12-29 11:46:58 1514566018.370565: $GPGSA,A,3,8,10,14,15,18,20,21,24,32,27,138,,1.7,0.8,1.3*36
