2017-12-01 16:07:46 1512162466.076768: {"class":"VERSION","release":"3.16","rev":"3.16-4","proto_major":3,"proto_minor":11}
2017-12-01 16:07:46 1512162466.077162: {"class":"DEVICES","devices":[{"class":"DEVICE","path":"/dev/ttyUSB0","driver":"SiRF","subtype":"9\u0006GSD4e_4.1.2-P1_RPATCH.05-F-GPS-4R-1510281 11/03/2015 307","activated":"2017-12-01T21:07:45.519Z","flags":1,"native":1,"bps":4800,"parity":"N","stopbits":1,"cycle":1.00}]}
2017-12-01 16:07:46 1512162466.077283: {"class":"WATCH","enable":true,"json":false,"nmea":true,"raw":0,"scaled":false,"timing":false,"split24":false,"pps":false}
2017-12-01 16:07:46 1512162466.378478: $GPZDA,210747.00,01,12,2017,00,00*67
2017-12-01 16:07:46 1512162466.378647: $GPGGA,210747,3946.9588,N,08404.9808,W,2,12,0.80,308.38,M,-33.324,M,,*72
2017-12-01 16:07:46 1512162466.378713: $GPRMC,210747,A,3946.9588,N,08404.9808,W,0.0000,0.000,011217,,*39
2017-12-01 16:07:46 1512162466.378776: $GPGSA,A,3,10,11,12,14,18,22,25,31,32,1,24,138,2.0,0.8,1.5*3B
2017-12-01 16:07:47 1512162467.716230: $GPGSV,3,1,12,10,59,141,49,11,10,292,30,12,25,060,44,14,61,307,45*72
2017-12-01 16:07:47 1512162467.716412: $GPGSV,3,2,12,18,28,139,43,22,10,312,39,25,36,103,48,31,45,217,49*79
2017-12-01 16:07:47 1512162467.716482: $GPGSV,3,3,12,32,70,358,47,01,18,310,35,24,06,046,32,138,38,213,46*4D
2017-12-01 16:07:47 1512162467.830219: $GPZDA,210748.00,01,12,2017,00,00*68
2017-12-01 16:07:47 1512162467.830417: $GPGGA,210748,3946.9588,N,08404.9808,W,2,12,0.80,308.38,M,-33.324,M,,*7D
2017-12-01 16:07:47 1512162467.830485: $GPRMC,210748,A,3946.9588,N,08404.9808,W,0.0000,0.000,011217,,*36
2017-12-01 16:07:47 1512162467.830546: $GPGSA,A,3,10,11,12,14,18,22,25,31,32,1,24,138,2.0,0.8,1.5*3B
2017-12-01 16:07:48 1512162468.378015: $GPZDA,210749.00,01,12,2017,00,00*69
2017-12-01 16:07:48 1512162468.378187: $GPGGA,210749,3946.9584,N,08404.9809,W,2,12,0.80,309.15,M,-33.324,M,,*7F
2017-12-01 16:07:48 1512162468.378252: $GPRMC,210749,A,3946.9584,N,08404.9809,W,0.0000,0.000,011217,,*3A
2017-12-01 16:07:48 1512162468.378313: $GPGSA,A,3,10,11,12,14,18,22,25,31,32,1,24,138,2.0,0.8,1.5*3B
2017-12-01 16:07:49 1512162469.380098: $GPZDA,210750.00,01,12,2017,00,00*61
2017-12-01 16:07:49 1512162469.380276: $GPGGA,210750,3946.9584,N,08404.9809,W,2,12,0.80,309.15,M,-33.324,M,,*77
2017-12-01 16:07:49 1512162469.380343: $GPRMC,210750,A,3946.9584,N,08404.9809,W,0.0000,0.000,011217,,*32
2017-12-01 16:07:49 1512162469.380404: $GPGSA,A,3,10,11,12,14,18,22,25,31,32,1,24,138,2.0,0.8,1.5*3B
2017-12-01 16:07:50 1512162470.730897: $GPGSV,3,1,12,10,59,141,49,11,10,292,31,12,25,060,44,14,61,307,45*73
2017-12-01 16:07:50 1512162470.731077: $GPGSV,3,2,12,18,28,139,43,22,10,312,39,25,36,103,47,31,45,217,49*76
2017-12-01 16:07:50 1512162470.731142: $GPGSV,3,3,12,32,70,358,47,01,18,310,35,24,06,046,31,138,38,213,46*4E
2017-12-01 16:07:50 1512162470.844289: $GPZDA,210751.00,01,12,2017,00,00*60
2017-12-01 16:07:50 1512162470.844453: $GPGGA,210751,3946.9584,N,08404.9809,W,2,12,0.80,309.15,M,-33.324,M,,*76
2017-12-01 16:07:50 1512162470.844518: $GPRMC,210751,A,3946.9584,N,08404.9809,W,0.0000,0.000,011217,,*33
2017-12-01 16:07:50 1512162470.844579: $GPGSA,A,3,10,11,12,14,18,22,25,31,32,1,24,138,2.0,0.8,1.5*3B
2017-12-01 16:07:51 1512162471.396443: $GPZDA,210752.00,01,12,2017,00,00*63
2017-12-01 16:07:51 1512162471.396617: $GPGGA,210752,3946.9584,N,08404.9809,W,2,12,0.80,309.15,M,-33.324,M,,*75
2017-12-01 16:07:51 1512162471.396685: $GPRMC,210752,A,3946.9584,N,08404.9809,W,0.0000,0.000,011217,,*30
2017-12-01 16:07:51 1512162471.396746: $GPGSA,A,3,10,11,12,14,18,22,25,31,32,1,24,138,2.0,0.8,1.5*3B
2017-12-01 16:07:52 1512162472.396680: $GPZDA,210753.00,01,12,2017,00,00*62
2017-12-01 16:07:52 1512162472.396881: $GPGGA,210753,3946.9584,N,08404.9809,W,2,12,0.80,309.15,M,-33.324,M,,*74
2017-12-01 16:07:52 1512162472.396949: $GPRMC,210753,A,3946.9584,N,08404.9809,W,0.0000,0.000,011217,,*31
2017-12-01 16:07:52 1512162472.397011: $GPGSA,A,3,10,11,12,14,18,22,25,31,32,1,24,138,2.0,0.8,1.5*3B
2017-12-01 16:07:53 1512162473.731189: $GPGSV,3,1,12,10,59,141,49,11,10,292,31,12,25,060,44,14,61,307,45*73
2017-12-01 16:07:53 1512162473.731465: $GPGSV,3,2,12,18,28,139,43,22,10,312,38,25,36,103,47,31,45,217,49*77
2017-12-01 16:07:53 1512162473.731544: $GPGSV,3,3,12,32,70,358,47,01,18,310,36,24,06,046,31,138,38,213,46*4D
2017-12-01 16:07:53 1512162473.844692: $GPZDA,210754.00,01,12,2017,00,00*65
2017-12-01 16:07:53 1512162473.844904: $GPGGA,210754,3946.9584,N,08404.9809,W,2,12,0.80,309.15,M,-33.324,M,,*73
2017-12-01 16:07:53 1512162473.844972: $GPRMC,210754,A,3946.9584,N,08404.9809,W,0.0000,0.000,011217,,*36
2017-12-01 16:07:53 1512162473.845033: $GPGSA,A,3,10,11,12,14,18,22,25,31,32,1,24,138,2.0,0.8,1.5*3B
2017-12-01 16:07:54 1512162474.395566: $GPZDA,210755.00,01,12,2017,00,00*64
2017-12-01 16:07:54 1512162474.395758: $GPGGA,210755,3946.9584,N,08404.9809,W,2,12,0.80,309.15,M,-33.324,M,,*72
2017-12-01 16:07:54 1512162474.395826: $GPRMC,210755,A,3946.9584,N,08404.9809,W,0.0000,0.000,011217,,*37
2017-12-01 16:07:54 1512162474.395909: $GPGSA,A,3,10,11,12,14,18,22,25,31,32,1,24,138,2.0,0.8,1.5*3B
2017-12-01 16:07:55 1512162475.381340: $GPZDA,210756.00,01,12,2017,00,00*67
2017-12-01 16:07:55 1512162475.381564: $GPGGA,210756,3946.9584,N,08404.9809,W,2,12,0.80,309.15,M,-33.324,M,,*71
2017-12-01 16:07:55 1512162475.381632: $GPRMC,210756,A,3946.9584,N,08404.9809,W,0.0000,0.000,011217,,*34
2017-12-01 16:07:55 1512162475.381692: $GPGSA,A,3,10,11,12,14,18,22,25,31,32,1,24,138,2.0,0.8,1.5*3B
2017-12-01 16:07:56 1512162476.716363: $GPGSV,3,1,12,10,59,141,49,11,10,292,31,12,25,060,45,14,61,307,45*72
2017-12-01 16:07:56 1512162476.716702: $GPGSV,3,2,12,18,28,139,43,22,10,312,39,25,36,103,47,31,45,217,48*77
2017-12-01 16:07:56 1512162476.716868: $GPGSV,3,3,12,32,70,358,47,01,18,310,37,24,06,046,31,138,38,213,45*4F
2017-12-01 16:07:56 1512162476.829608: $GPZDA,210757.00,01,12,2017,00,00*66
2017-12-01 16:07:56 1512162476.829795: $GPGGA,210757,3946.9584,N,08404.9809,W,2,12,0.80,309.15,M,-33.324,M,,*70
2017-12-01 16:07:56 1512162476.829880: $GPRMC,210757,A,3946.9584,N,08404.9809,W,0.0000,0.000,011217,,*35
2017-12-01 16:07:56 1512162476.829942: $GPGSA,A,3,10,11,12,14,18,22,25,31,32,1,24,138,2.0,0.8,1.5*3B
2017-12-01 16:07:57 1512162477.454809: $GPZDA,210758.00,01,12,2017,00,00*69
2017-12-01 16:07:57 1512162477.455007: $GPGGA,210758,3946.9584,N,08404.9809,W,2,12,0.80,309.15,M,-33.324,M,,*7F
2017-12-01 16:07:57 1512162477.455093: $GPRMC,210758,A,3946.9584,N,08404.9809,W,0.0000,0.000,011217,,*3A
2017-12-01 16:07:57 1512162477.455156: $GPGSA,A,3,10,11,12,14,18,22,25,31,32,1,24,138,2.0,0.8,1.5*3B
2017-12-01 16:07:58 1512162478.395440: $GPZDA,210759.00,01,12,2017,00,00*68
2017-12-01 16:07:58 1512162478.395637: $GPGGA,210759,3946.9584,N,08404.9809,W,2,12,0.80,309.15,M,-33.324,M,,*7E
2017-12-01 16:07:58 1512162478.395725: $GPRMC,210759,A,3946.9584,N,08404.9809,W,0.0000,0.000,011217,,*3B
2017-12-01 16:07:58 1512162478.395789: $GPGSA,A,3,10,11,12,14,18,22,25,31,32,1,24,138,2.0,0.8,1.5*3B
2017-12-01 16:07:59 1512162479.716173: $GPGSV,3,1,12,10,59,141,49,11,10,292,31,12,25,060,44,14,61,307,45*73
2017-12-01 16:07:59 1512162479.716355: $GPGSV,3,2,12,18,28,139,44,22,10,312,39,25,36,103,48,31,45,217,49*7E
2017-12-01 16:07:59 1512162479.716423: $GPGSV,3,3,12,32,70,358,47,01,18,310,38,24,06,046,31,138,38,213,46*43
2017-12-01 16:07:59 1512162479.829761: $GPZDA,210800.00,01,12,2017,00,00*6B
2017-12-01 16:07:59 1512162479.829912: $GPGGA,210800,3946.9584,N,08404.9809,W,2,12,0.80,309.15,M,-33.324,M,,*7D
2017-12-01 16:07:59 1512162479.829979: $GPRMC,210800,A,3946.9584,N,08404.9809,W,0.0000,0.000,011217,,*38
2017-12-01 16:07:59 1512162479.830039: $GPGSA,A,3,10,11,12,14,18,22,25,31,32,1,24,138,2.0,0.8,1.5*3B
2017-12-01 16:08:00 1512162480.397231: $GPZDA,210801.00,01,12,2017,00,00*6A
2017-12-01 16:08:00 1512162480.397400: $GPGGA,210801,3946.9584,N,08404.9809,W,2,12,0.80,309.15,M,-33.324,M,,*7C
2017-12-01 16:08:00 1512162480.397466: $GPRMC,210801,A,3946.9584,N,08404.9809,W,0.0000,0.000,011217,,*39
2017-12-01 16:08:00 1512162480.397527: $GPGSA,A,3,10,11,12,14,18,22,25,31,32,1,24,138,2.0,0.8,1.5*3B
2017-12-01 16:08:01 1512162481.396661: $GPZDA,210802.00,01,12,2017,00,00*69
2017-12-01 16:08:01 1512162481.396857: $GPGGA,210802,3946.9584,N,08404.9809,W,2,12,0.80,309.15,M,-33.324,M,,*7F
2017-12-01 16:08:01 1512162481.396926: $GPRMC,210802,A,3946.9584,N,08404.9809,W,0.0000,0.000,011217,,*3A
2017-12-01 16:08:01 1512162481.396987: $GPGSA,A,3,10,11,12,14,18,22,25,31,32,1,24,138,2.0,0.8,1.5*3B
2017-12-01 16:08:02 1512162482.729195: $GPGSV,3,1,12,10,59,141,49,11,10,292,32,12,25,060,45,14,61,307,45*71
2017-12-01 16:08:02 1512162482.729385: $GPGSV,3,2,12,18,28,139,44,22,10,312,39,25,36,103,48,31,45,217,50*76
2017-12-01 16:08:02 1512162482.729477: $GPGSV,3,3,12,32,70,358,47,01,18,310,39,24,06,046,31,138,38,213,46*42
2017-12-01 16:08:02 1512162482.842534: $GPZDA,210803.00,01,12,2017,00,00*68
2017-12-01 16:08:02 1512162482.842707: $GPGGA,210803,3946.9584,N,08404.9809,W,2,12,0.80,309.15,M,-33.324,M,,*7E
2017-12-01 16:08:02 1512162482.842773: $GPRMC,210803,A,3946.9584,N,08404.9809,W,0.0000,0.000,011217,,*3B
2017-12-01 16:08:02 1512162482.842834: $GPGSA,A,3,10,11,12,14,18,22,25,31,32,1,24,138,2.0,0.8,1.5*3B
2017-12-01 16:08:03 1512162483.381079: $GPZDA,210804.00,01,12,2017,00,00*6F
2017-12-01 16:08:03 1512162483.381249: $GPGGA,210804,3946.9584,N,08404.9809,W,2,12,0.80,309.15,M,-33.324,M,,*79
2017-12-01 16:08:03 1512162483.381316: $GPRMC,210804,A,3946.9584,N,08404.9809,W,0.0000,0.000,011217,,*3C
2017-12-01 16:08:03 1512162483.381438: $GPGSA,A,3,10,11,12,14,18,22,25,31,32,1,24,138,2.0,0.8,1.5*3B
2017-12-01 16:08:04 1512162484.396975: $GPZDA,210805.00,01,12,2017,00,00*6E
2017-12-01 16:08:04 1512162484.397141: $GPGGA,210805,3946.9584,N,08404.9809,W,2,12,0.80,309.15,M,-33.324,M,,*78
2017-12-01 16:08:04 1512162484.397208: $GPRMC,210805,A,3946.9584,N,08404.9809,W,0.0000,0.000,011217,,*3D
2017-12-01 16:08:04 1512162484.397270: $GPGSA,A,3,10,11,12,14,18,22,25,31,32,1,24,138,2.0,0.8,1.5*3B
2017-12-01 16:08:05 1512162485.731155: $GPGSV,3,1,12,10,59,141,49,11,10,292,32,12,25,060,44,14,61,307,45*70
2017-12-01 16:08:05 1512162485.731340: $GPGSV,3,2,12,18,28,139,44,22,10,312,39,25,36,103,48,31,45,217,49*7E
2017-12-01 16:08:05 1512162485.731462: $GPGSV,3,3,12,32,70,358,47,01,18,310,39,24,06,046,31,138,38,213,45*41
2017-12-01 16:08:05 1512162485.844904: $GPZDA,210806.00,01,12,2017,00,00*6D
2017-12-01 16:08:05 1512162485.845059: $GPGGA,210806,3946.9584,N,08404.9809,W,2,12,0.80,309.15,M,-33.324,M,,*7B
2017-12-01 16:08:05 1512162485.845128: $GPRMC,210806,A,3946.9584,N,08404.9809,W,0.0000,0.000,011217,,*3E
2017-12-01 16:08:05 1512162485.845189: $GPGSA,A,3,10,11,12,14,18,22,25,31,32,1,24,138,2.0,0.8,1.5*3B
