2017-12-01 16:00:24 1512162024.797189: {"class":"VERSION","release":"3.16","rev":"3.16-4","proto_major":3,"proto_minor":11}
2017-12-01 16:00:24 1512162024.797591: {"class":"DEVICES","devices":[{"class":"DEVICE","path":"/dev/ttyUSB0","driver":"SiRF","subtype":"9\u0006GSD4e_4.1.2-P1_RPATCH.05-F-GPS-4R-1510281 11/03/2015 307","activated":"2017-12-01T21:00:24.421Z","flags":1,"native":1,"bps":4800,"parity":"N","stopbits":1,"cycle":1.00}]}
2017-12-01 16:00:24 1512162024.797708: {"class":"WATCH","enable":true,"json":false,"nmea":true,"raw":0,"scaled":false,"timing":false,"split24":false,"pps":false}
2017-12-01 16:00:25 1512162025.026191: $GPZDA,210025.69,01,12,2017,00,00*6B
2017-12-01 16:00:25 1512162025.026362: $GPGGA,210025,3946.9592,N,08404.9829,W,1,12,1.00,321.63,M,-33.324,M,,*76
2017-12-01 16:00:25 1512162025.026429: $GPRMC,210025,A,3946.9592,N,08404.9829,W,0.5617,211.295,011217,,*3B
2017-12-01 16:00:25 1512162025.026491: $GPGSA,A,3,1,10,12,14,18,22,25,31,32,11,24,138,2.0,1.0,1.5*32
2017-12-01 16:00:26 1512162026.107442: $GPZDA,210026.37,01,12,2017,00,00*63
2017-12-01 16:00:26 1512162026.107617: $GPGGA,210026,3946.9592,N,08404.9829,W,1,12,1.00,321.63,M,-33.324,M,,*75
2017-12-01 16:00:26 1512162026.107685: $GPRMC,210026,A,3946.9592,N,08404.9829,W,0.2758,128.233,011217,,*30
2017-12-01 16:00:26 1512162026.107747: $GPGSA,A,3,1,10,12,14,18,22,25,31,32,11,24,138,2.0,1.0,1.5*32
2017-12-01 16:00:26 1512162026.107806: $GPGBS,210026,10.70,M,15.43,M,35.28,M*00
2017-12-01 16:00:27 1512162027.249754: $GPGSV,3,1,12,01,17,313,39,10,62,139,47,12,25,063,40,14,59,303,43*72
2017-12-01 16:00:27 1512162027.249935: $GPGSV,3,2,12,18,31,139,44,22,08,312,38,25,34,108,48,31,42,216,48*70
2017-12-01 16:00:27 1512162027.250002: $GPGSV,3,3,12,32,70,349,48,11,11,295,09,24,08,046,07,138,38,213,20*41
2017-12-01 16:00:27 1512162027.363739: $GPZDA,210027.00,01,12,2017,00,00*66
2017-12-01 16:00:27 1512162027.363900: $GPGGA,210027,3946.9587,N,08404.9829,W,1,10,1.00,320.99,M,-33.324,M,,*76
2017-12-01 16:00:27 1512162027.363966: $GPRMC,210027,A,3946.9587,N,08404.9829,W,0.1567,189.200,011217,,*33
2017-12-01 16:00:27 1512162027.364027: $GPGSA,A,3,1,10,12,14,18,22,25,31,32,138,,,2.0,1.0,1.5*34
2017-12-01 16:00:27 1512162027.815529: $GPZDA,210028.00,01,12,2017,00,00*69
2017-12-01 16:00:27 1512162027.815702: $GPGGA,210028,3946.9587,N,08404.9828,W,1,10,0.80,319.58,M,-33.324,M,,*76
2017-12-01 16:00:27 1512162027.815769: $GPRMC,210028,A,3946.9587,N,08404.9828,W,0.0000,0.000,011217,,*3A
2017-12-01 16:00:27 1512162027.815831: $GPGSA,A,3,1,10,12,14,18,22,25,31,32,138,,,2.0,0.8,1.5*3D
2017-12-01 16:00:28 1512162028.417728: $GPZDA,210029.00,01,12,2017,00,00*68
2017-12-01 16:00:28 1512162028.417905: $GPGGA,210029,3946.9590,N,08404.9835,W,1,10,0.80,318.74,M,-33.324,M,,*72
2017-12-01 16:00:28 1512162028.417972: $GPRMC,210029,A,3946.9590,N,08404.9835,W,0.0000,0.000,011217,,*31
2017-12-01 16:00:28 1512162028.418033: $GPGSA,A,3,1,10,12,14,18,22,25,31,32,138,,,2.0,0.8,1.5*3D
2017-12-01 16:00:29 1512162029.755124: $GPGSV,3,1,12,01,17,313,39,10,62,139,48,12,25,063,41,14,59,303,43*7C
2017-12-01 16:00:29 1512162029.755313: $GPGSV,3,2,12,18,31,139,44,22,08,312,38,25,34,108,49,31,42,216,48*71
2017-12-01 16:00:29 1512162029.755401: $GPGSV,3,3,12,32,70,349,48,11,11,295,24,24,08,046,24,138,38,213,46*4F
2017-12-01 16:00:29 1512162029.868759: $GPZDA,210030.00,01,12,2017,00,00*60
2017-12-01 16:00:29 1512162029.868929: $GPGGA,210030,3946.9581,N,08404.9842,W,2,12,1.40,305.30,M,-33.324,M,,*7A
2017-12-01 16:00:29 1512162029.868996: $GPRMC,210030,A,3946.9581,N,08404.9842,W,0.0000,0.000,011217,,*39
2017-12-01 16:00:29 1512162029.869057: $GPGSA,A,3,1,10,12,14,18,22,25,31,32,11,24,138,2.0,1.4,1.5*36
2017-12-01 16:00:30 1512162030.418125: $GPZDA,210031.00,01,12,2017,00,00*61
2017-12-01 16:00:30 1512162030.418310: $GPGGA,210031,3946.9581,N,08404.9842,W,2,12,1.40,305.30,M,-33.324,M,,*7B
2017-12-01 16:00:30 1512162030.418380: $GPRMC,210031,A,3946.9581,N,08404.9842,W,0.0000,0.000,011217,,*38
2017-12-01 16:00:30 1512162030.418441: $GPGSA,A,3,1,10,12,14,18,22,25,31,32,11,24,138,2.0,1.4,1.5*36
2017-12-01 16:00:31 1512162031.417902: $GPZDA,210032.00,01,12,2017,00,00*62
2017-12-01 16:00:31 1512162031.418076: $GPGGA,210032,3946.9577,N,08404.9843,W,2,12,1.40,306.07,M,-33.324,M,,*77
2017-12-01 16:00:31 1512162031.418143: $GPRMC,210032,A,3946.9577,N,08404.9843,W,0.0000,0.000,011217,,*33
2017-12-01 16:00:31 1512162031.418225: $GPGSA,A,3,1,10,12,14,18,22,25,31,32,11,24,138,2.0,1.4,1.5*36
2017-12-01 16:00:31 1512162031.418286: $GPGBS,210032,2.67,M,3.86,M,8.82,M*30
2017-12-01 16:00:32 1512162032.754579: $GPGSV,3,1,12,01,17,313,38,10,62,139,48,12,25,063,42,14,59,303,43*7E
2017-12-01 16:00:32 1512162032.754760: $GPGSV,3,2,12,18,31,139,44,22,08,312,39,25,34,108,48,31,42,216,48*71
2017-12-01 16:00:32 1512162032.754828: $GPGSV,3,3,12,32,70,349,47,11,11,295,25,24,08,046,24,138,38,213,46*41
2017-12-01 16:00:32 1512162032.868265: $GPZDA,210033.00,01,12,2017,00,00*63
2017-12-01 16:00:32 1512162032.868446: $GPGGA,210033,3946.9577,N,08404.9843,W,2,12,1.40,306.07,M,-33.324,M,,*76
2017-12-01 16:00:32 1512162032.868513: $GPRMC,210033,A,3946.9577,N,08404.9843,W,0.0000,0.000,011217,,*32
2017-12-01 16:00:32 1512162032.868578: $GPGSA,A,3,1,10,12,14,18,22,25,31,32,11,24,138,2.0,1.4,1.5*36
2017-12-01 16:00:33 1512162033.417869: $GPZDA,210034.00,01,12,2017,00,00*64
2017-12-01 16:00:33 1512162033.418044: $GPGGA,210034,3946.9581,N,08404.9843,W,2,12,1.40,306.71,M,-33.324,M,,*79
2017-12-01 16:00:33 1512162033.418111: $GPRMC,210034,A,3946.9581,N,08404.9843,W,0.4207,39.346,011217,,*06
2017-12-01 16:00:33 1512162033.418193: $GPGSA,A,3,1,10,12,14,18,22,25,31,32,11,24,138,2.0,1.4,1.5*36
2017-12-01 16:00:34 1512162034.418253: $GPZDA,210035.00,01,12,2017,00,00*65
2017-12-01 16:00:34 1512162034.418435: $GPGGA,210035,3946.9574,N,08404.9837,W,2,12,1.40,308.31,M,-33.324,M,,*7B
2017-12-01 16:00:34 1512162034.418504: $GPRMC,210035,A,3946.9574,N,08404.9837,W,0.4207,219.346,011217,,*3E
2017-12-01 16:00:34 1512162034.418570: $GPGSA,A,3,1,10,12,14,18,22,25,31,32,11,24,138,2.0,1.4,1.5*36
2017-12-01 16:00:35 1512162035.751240: $GPGSV,3,1,12,01,17,313,38,10,62,139,48,12,25,063,42,14,59,303,43*7E
2017-12-01 16:00:35 1512162035.751466: $GPGSV,3,2,12,18,31,139,44,22,08,312,38,25,34,108,49,31,42,216,47*7E
2017-12-01 16:00:35 1512162035.751540: $GPGSV,3,3,12,32,70,349,47,11,11,295,00,24,08,046,25,138,38,213,45*44
2017-12-01 16:00:35 1512162035.864605: $GPZDA,210036.00,01,12,2017,00,00*66
2017-12-01 16:00:35 1512162035.864780: $GPGGA,210036,3946.9577,N,08404.9834,W,2,11,1.40,315.42,M,-33.324,M,,*73
2017-12-01 16:00:35 1512162035.864847: $GPRMC,210036,A,3946.9577,N,08404.9834,W,0.1867,0.000,011217,,*3F
2017-12-01 16:00:35 1512162035.864909: $GPGSA,A,3,1,10,12,14,18,22,25,31,32,24,138,,2.0,1.4,1.5*36
2017-12-01 16:00:36 1512162036.417086: $GPZDA,210037.00,01,12,2017,00,00*67
2017-12-01 16:00:36 1512162036.417259: $GPGGA,210037,3946.9577,N,08404.9834,W,2,11,1.40,315.42,M,-33.324,M,,*72
2017-12-01 16:00:36 1512162036.417326: $GPRMC,210037,A,3946.9577,N,08404.9834,W,0.0000,0.000,011217,,*36
2017-12-01 16:00:36 1512162036.417388: $GPGSA,A,3,1,10,12,14,18,22,25,31,32,24,138,,2.0,1.4,1.5*36
2017-12-01 16:00:37 1512162037.418049: $GPZDA,210038.00,01,12,2017,00,00*68
2017-12-01 16:00:37 1512162037.418225: $GPGGA,210038,3946.9577,N,08404.9834,W,2,11,1.40,315.42,M,-33.324,M,,*7D
2017-12-01 16:00:37 1512162037.418294: $GPRMC,210038,A,3946.9577,N,08404.9834,W,0.0000,0.000,011217,,*39
2017-12-01 16:00:37 1512162037.418355: $GPGSA,A,3,1,10,12,14,18,22,25,31,32,24,138,,2.0,1.4,1.5*36
2017-12-01 16:00:38 1512162038.753357: $GPGSV,3,1,12,01,17,313,37,10,62,139,48,12,25,063,43,14,59,303,43*70
2017-12-01 16:00:38 1512162038.753551: $GPGSV,3,2,12,18,31,139,44,22,08,312,38,25,34,108,49,31,42,216,48*71
2017-12-01 16:00:38 1512162038.753617: $GPGSV,3,3,12,32,70,349,47,11,11,295,31,24,08,046,26,138,38,213,46*46
2017-12-01 16:00:38 1512162038.866685: $GPZDA,210039.00,01,12,2017,00,00*69
2017-12-01 16:00:38 1512162038.866878: $GPGGA,210039,3946.9577,N,08404.9834,W,2,12,1.40,315.42,M,-33.324,M,,*7F
2017-12-01 16:00:38 1512162038.866947: $GPRMC,210039,A,3946.9577,N,08404.9834,W,0.0000,0.000,011217,,*38
2017-12-01 16:00:38 1512162038.867060: $GPGSA,A,3,1,10,12,14,18,22,25,31,32,11,24,138,2.0,1.4,1.5*36
2017-12-01 16:00:39 1512162039.492178: $GPZDA,210040.00,01,12,2017,00,00*67
2017-12-01 16:00:39 1512162039.492382: $GPGGA,210040,3946.9577,N,08404.9834,W,2,12,1.00,315.42,M,-33.324,M,,*75
2017-12-01 16:00:39 1512162039.492455: $GPRMC,210040,A,3946.9577,N,08404.9834,W,0.0000,0.000,011217,,*36
2017-12-01 16:00:39 1512162039.492521: $GPGSA,A,3,1,10,12,14,18,22,25,31,32,11,24,138,2.0,1.0,1.5*32
2017-12-01 16:00:40 1512162040.419233: $GPZDA,210041.00,01,12,2017,00,00*66
2017-12-01 16:00:40 1512162040.419443: $GPGGA,210041,3946.9577,N,08404.9834,W,2,12,0.80,315.42,M,-33.324,M,,*7D
2017-12-01 16:00:40 1512162040.419544: $GPRMC,210041,A,3946.9577,N,08404.9834,W,0.0000,0.000,011217,,*37
2017-12-01 16:00:40 1512162040.419608: $GPGSA,A,3,1,10,12,14,18,22,25,31,32,11,24,138,2.0,0.8,1.5*3B
2017-12-01 16:00:41 1512162041.756212: $GPGSV,3,1,12,01,17,313,37,10,62,139,48,12,25,063,43,14,59,303,43*70
2017-12-01 16:00:41 1512162041.756370: $GPGSV,3,2,12,18,31,139,44,22,08,312,39,25,34,108,49,31,42,216,49*71
2017-12-01 16:00:41 1512162041.756438: $GPGSV,3,3,12,32,70,349,47,11,11,295,21,24,08,046,26,138,38,213,46*47
2017-12-01 16:00:41 1512162041.869717: $GPZDA,210042.00,01,12,2017,00,00*65
2017-12-01 16:00:41 1512162041.869895: $GPGGA,210042,3946.9577,N,08404.9834,W,2,12,0.80,315.42,M,-33.324,M,,*7E
2017-12-01 16:00:41 1512162041.869964: $GPRMC,210042,A,3946.9577,N,08404.9834,W,0.0000,0.000,011217,,*34
2017-12-01 16:00:41 1512162041.870028: $GPGSA,A,3,1,10,12,14,18,22,25,31,32,11,24,138,2.0,0.8,1.5*3B
2017-12-01 16:00:42 1512162042.420885: $GPZDA,210043.00,01,12,2017,00,00*64
2017-12-01 16:00:42 1512162042.421055: $GPGGA,210043,3946.9578,N,08404.9841,W,2,12,0.80,315.34,M,-33.324,M,,*73
2017-12-01 16:00:42 1512162042.421124: $GPRMC,210043,A,3946.9578,N,08404.9841,W,0.0000,0.000,011217,,*38
2017-12-01 16:00:42 1512162042.421185: $GPGSA,A,3,1,10,12,14,18,22,25,31,32,11,24,138,2.0,0.8,1.5*3B
2017-12-01 16:00:43 1512162043.418722: $GPZDA,210044.00,01,12,2017,00,00*63
2017-12-01 16:00:43 1512162043.418893: $GPGGA,210044,3946.9578,N,08404.9841,W,2,12,0.80,315.34,M,-33.324,M,,*74
2017-12-01 16:00:43 1512162043.418980: $GPRMC,210044,A,3946.9578,N,08404.9841,W,0.0000,0.000,011217,,*3F
2017-12-01 16:00:43 1512162043.419043: $GPGSA,A,3,1,10,12,14,18,22,25,31,32,11,24,138,2.0,0.8,1.5*3B
2017-12-01 16:00:43 1512162043.419103: $GPGBS,210044,2.67,M,3.86,M,8.82,M*31
2017-12-01 16:00:44 1512162044.752813: $GPGSV,3,1,12,01,17,313,32,10,62,139,48,12,25,063,44,14,59,303,44*75
2017-12-01 16:00:44 1512162044.753012: $GPGSV,3,2,12,18,31,139,44,22,08,312,39,25,34,108,50,31,42,216,48*78
2017-12-01 16:00:44 1512162044.753082: $GPGSV,3,3,12,32,70,349,47,11,11,295,28,24,08,046,26,138,38,213,45*4D
