2017-11-15 19:37:18 1510792638.482879: {"class":"VERSION","release":"3.17","rev":"3.17","proto_major":3,"proto_minor":12}
2017-11-15 19:37:18 1510792638.483442: {"class":"DEVICES","devices":[{"class":"DEVICE","path":"/dev/ttyUSB0","driver":"SiRF","subtype":"9\u0006GSD4e_4.1.2-P1_RPATCH.05-F-GPS-4R-1510281 11/03/2015 307","activated":"2017-11-16T00:37:18.216Z","flags":1,"native":1,"bps":4800,"parity":"N","stopbits":1,"cycle":1.00}]}
2017-11-15 19:37:18 1510792638.483571: {"class":"WATCH","enable":true,"json":false,"nmea":true,"raw":0,"scaled":false,"timing":false,"split24":false,"pps":false}
2017-11-15 19:37:18 1510792638.666452: $GPGSV,3,1,11,32,33,111,24,14,53,096,19,01,04,250,04,26,56,171,22*7F
2017-11-15 19:37:18 1510792638.666618: $GPGSV,3,2,11,29,11,069,04,31,65,030,24,03,41,295,18,23,13,301,05*79
2017-11-15 19:37:18 1510792638.666679: $GPGSV,3,3,11,16,25,190,00,25,15,039,00,22,50,265,24*4A
2017-11-15 19:37:18 1510792638.778664: $GPZDA,003717.00,16,11,2017,00,00*67
2017-11-15 19:37:18 1510792638.778839: $GPGGA,003717,3946.9531,N,08404.9604,W,1,06,1.60,286.59,M,-33.324,M,,*7E
2017-11-15 19:37:18 1510792638.778900: $GPRMC,003717,A,3946.9531,N,08404.9604,W,0.4844,93.794,161117,,*05
2017-11-15 19:37:18 1510792638.778955: $GPGSA,A,3,32,14,26,31,3,22,,,,,,,3.4,1.6,2.9*08
2017-11-15 19:37:19 1510792639.348356: $GPZDA,003718.00,16,11,2017,00,00*68
2017-11-15 19:37:19 1510792639.348515: $GPGGA,003718,3946.9527,N,08404.9604,W,1,06,1.60,285.95,M,-33.324,M,,*75
2017-11-15 19:37:19 1510792639.348575: $GPRMC,003718,A,3946.9527,N,08404.9604,W,0.4844,93.794,161117,,*0D
2017-11-15 19:37:19 1510792639.348631: $GPGSA,A,3,32,14,26,31,3,22,,,,,,,3.4,1.6,2.9*08
2017-11-15 19:37:20 1510792640.330649: $GPZDA,003719.00,16,11,2017,00,00*69
2017-11-15 19:37:20 1510792640.330975: $GPGGA,003719,3946.9527,N,08404.9604,W,1,06,1.60,285.95,M,-33.324,M,,*74
2017-11-15 19:37:20 1510792640.331134: $GPRMC,003719,A,3946.9527,N,08404.9604,W,0.4179,148.778,161117,,*3E
2017-11-15 19:37:20 1510792640.331259: $GPGSA,A,3,32,14,26,31,3,22,,,,,,,3.4,1.6,2.9*08
2017-11-15 19:37:21 1510792641.681698: $GPGSV,3,1,11,32,33,111,24,14,53,096,18,01,04,250,12,26,56,171,22*79
2017-11-15 19:37:21 1510792641.681867: $GPGSV,3,2,11,29,11,069,10,31,65,030,24,03,41,295,18,23,13,301,04*7D
2017-11-15 19:37:21 1510792641.681945: $GPGSV,3,3,11,16,25,190,00,25,15,039,00,22,50,265,24*4A
2017-11-15 19:37:21 1510792641.795260: $GPZDA,003720.00,16,11,2017,00,00*63
2017-11-15 19:37:21 1510792641.795401: $GPGGA,003720,3946.9519,N,08404.9604,W,1,08,1.40,286.07,M,-33.324,M,,*77
2017-11-15 19:37:21 1510792641.795461: $GPRMC,003720,A,3946.9519,N,08404.9604,W,0.2422,93.794,161117,,*01
2017-11-15 19:37:21 1510792641.795516: $GPGSA,A,3,32,14,1,26,29,31,3,22,,,,,3.4,1.4,2.9*30
2017-11-15 19:37:22 1510792642.345913: $GPZDA,003721.00,16,11,2017,00,00*62
2017-11-15 19:37:22 1510792642.346102: $GPGGA,003721,3946.9519,N,08404.9604,W,1,08,1.40,286.07,M,-33.324,M,,*76
2017-11-15 19:37:22 1510792642.346180: $GPRMC,003721,A,3946.9519,N,08404.9604,W,0.3423,184.197,161117,,*32
2017-11-15 19:37:22 1510792642.346237: $GPGSA,A,3,32,14,1,26,29,31,3,22,,,,,3.4,1.4,2.9*30
2017-11-15 19:37:23 1510792643.329407: $GPZDA,003722.00,16,11,2017,00,00*61
2017-11-15 19:37:23 1510792643.329701: $GPGGA,003722,3946.9519,N,08404.9604,W,1,08,1.40,286.07,M,-33.324,M,,*75
2017-11-15 19:37:23 1510792643.329818: $GPRMC,003722,A,3946.9519,N,08404.9604,W,0.8414,219.347,161117,,*36
2017-11-15 19:37:23 1510792643.329931: $GPGSA,A,3,32,14,1,26,29,31,3,22,,,,,3.4,1.4,2.9*30
2017-11-15 19:37:24 1510792644.681292: $GPGSV,3,1,11,32,33,111,24,14,53,096,18,01,04,250,05,26,56,171,23*7E
2017-11-15 19:37:24 1510792644.681464: $GPGSV,3,2,11,29,11,069,11,31,65,030,25,03,41,295,18,23,13,301,04*7D
2017-11-15 19:37:24 1510792644.681524: $GPGSV,3,3,11,16,25,190,00,25,15,039,00,22,50,265,24*4A
2017-11-15 19:37:24 1510792644.794655: $GPZDA,003723.00,16,11,2017,00,00*60
2017-11-15 19:37:24 1510792644.794806: $GPGGA,003723,3946.9520,N,08404.9611,W,1,07,1.40,285.99,M,-33.324,M,,*71
2017-11-15 19:37:24 1510792644.794865: $GPRMC,003723,A,3946.9520,N,08404.9611,W,0.4844,273.794,161117,,*3A
2017-11-15 19:37:24 1510792644.794993: $GPGSA,A,3,32,14,26,29,31,3,22,,,,,,3.4,1.4,2.9*01
2017-11-15 19:37:25 1510792645.330814: $GPZDA,003724.00,16,11,2017,00,00*67
2017-11-15 19:37:25 1510792645.330975: $GPGGA,003724,3946.9520,N,08404.9611,W,1,07,1.40,285.99,M,-33.324,M,,*76
2017-11-15 19:37:25 1510792645.331037: $GPRMC,003724,A,3946.9520,N,08404.9611,W,0.7267,273.794,161117,,*35
2017-11-15 19:37:25 1510792645.331108: $GPGSA,A,3,32,14,26,29,31,3,22,,,,,,3.4,1.4,2.9*01
2017-11-15 19:37:26 1510792646.345880: $GPZDA,003725.00,16,11,2017,00,00*66
2017-11-15 19:37:26 1510792646.346052: $GPGGA,003725,3946.9516,N,08404.9618,W,1,07,1.40,285.27,M,-33.324,M,,*7E
2017-11-15 19:37:26 1510792646.346133: $GPRMC,003725,A,3946.9516,N,08404.9618,W,0.7267,273.794,161117,,*38
2017-11-15 19:37:26 1510792646.346191: $GPGSA,A,3,32,14,26,29,31,3,22,,,,,,3.4,1.4,2.9*01
2017-11-15 19:37:27 1510792647.665397: $GPGSV,3,1,11,32,33,111,24,14,53,096,17,01,04,250,04,26,56,171,23*70
2017-11-15 19:37:27 1510792647.665546: $GPGSV,3,2,11,29,11,069,12,31,65,030,25,03,41,295,18,23,13,301,04*7E
2017-11-15 19:37:27 1510792647.665606: $GPGSV,3,3,11,16,25,190,00,25,15,039,00,22,50,265,24*4A
2017-11-15 19:37:27 1510792647.778752: $GPZDA,003726.00,16,11,2017,00,00*65
2017-11-15 19:37:27 1510792647.778910: $GPGGA,003726,3946.9519,N,08404.9618,W,1,07,1.40,284.51,M,-33.324,M,,*72
2017-11-15 19:37:27 1510792647.778991: $GPRMC,003726,A,3946.9519,N,08404.9618,W,0.5230,256.443,161117,,*3A
2017-11-15 19:37:27 1510792647.779048: $GPGSA,A,3,32,14,26,29,31,3,22,,,,,,3.4,1.4,2.9*01
2017-11-15 19:37:28 1510792648.346171: $GPZDA,003727.00,16,11,2017,00,00*64
2017-11-15 19:37:28 1510792648.346330: $GPGGA,003727,3946.9516,N,08404.9618,W,1,07,1.40,285.27,M,-33.324,M,,*7C
2017-11-15 19:37:28 1510792648.346391: $GPRMC,003727,A,3946.9516,N,08404.9618,W,0.7246,164.668,161117,,*3E
2017-11-15 19:37:28 1510792648.346446: $GPGSA,A,3,32,14,26,29,31,3,22,,,,,,3.4,1.4,2.9*01
