2017-12-01 14:32:51 1512156771.546877: {"class":"VERSION","release":"3.16","rev":"3.16-4","proto_major":3,"proto_minor":11}
2017-12-01 14:32:51 1512156771.547313: {"class":"DEVICES","devices":[{"class":"DEVICE","path":"/dev/ttyUSB0","driver":"SiRF","subtype":"9\u0006GSD4e_4.1.2-P1_RPATCH.05-F-GPS-4R-1510281 11/03/2015 307","activated":"2017-12-01T19:32:51.497Z","flags":1,"native":1,"bps":4800,"parity":"N","stopbits":1,"cycle":1.00}]}
2017-12-01 14:32:51 1512156771.547436: {"class":"WATCH","enable":true,"json":false,"nmea":true,"raw":0,"scaled":false,"timing":false,"split24":false,"pps":false}
2017-12-01 14:32:52 1512156772.730076: $GPGSV,3,1,12,12,12,103,28,10,73,337,48,14,32,256,41,18,67,102,45*74
2017-12-01 14:32:52 1512156772.730260: $GPGSV,3,2,12,21,24,178,46,24,42,055,49,32,49,270,44,08,04,291,19*78
2017-12-01 14:32:52 1512156772.730327: $GPGSV,3,3,12,25,05,139,21,15,08,069,15,20,06,120,20,138,38,213,47*40
2017-12-01 14:32:52 1512156772.842556: $GPZDA,193253.00,01,12,2017,00,00*6F
2017-12-01 14:32:52 1512156772.842725: $GPGGA,193253,3946.9594,N,08404.9834,W,2,11,1.20,293.05,M,-33.324,M,,*7D
2017-12-01 14:32:52 1512156772.842791: $GPRMC,193253,A,3946.9594,N,08404.9834,W,0.0000,0.000,011217,,*33
2017-12-01 14:32:52 1512156772.842852: $GPGSA,A,3,12,10,14,18,21,24,32,8,25,20,138,,2.0,1.2,1.5*3A
2017-12-01 14:32:53 1512156773.468747: $GPZDA,193254.00,01,12,2017,00,00*68
2017-12-01 14:32:53 1512156773.468931: $GPGGA,193254,3946.9594,N,08404.9834,W,2,11,1.20,293.05,M,-33.324,M,,*7A
2017-12-01 14:32:53 1512156773.468998: $GPRMC,193254,A,3946.9594,N,08404.9834,W,0.0000,0.000,011217,,*34
2017-12-01 14:32:53 1512156773.469059: $GPGSA,A,3,12,10,14,18,21,24,32,8,25,20,138,,2.0,1.2,1.5*3A
2017-12-01 14:32:54 1512156774.350013: $GPZDA,193255.00,01,12,2017,00,00*69
2017-12-01 14:32:54 1512156774.350207: $GPGGA,193255,3946.9594,N,08404.9834,W,2,11,1.20,293.05,M,-33.324,M,,*7B
2017-12-01 14:32:54 1512156774.350274: $GPRMC,193255,A,3946.9594,N,08404.9834,W,0.0000,0.000,011217,,*35
2017-12-01 14:32:54 1512156774.350335: $GPGSA,A,3,12,10,14,18,21,24,32,8,25,20,138,,2.0,1.2,1.5*3A
2017-12-01 14:32:55 1512156775.697939: $GPGSV,3,1,12,12,12,103,29,10,73,337,48,14,32,256,41,18,67,102,45*75
2017-12-01 14:32:55 1512156775.698130: $GPGSV,3,2,12,21,24,178,46,24,42,055,49,32,49,270,44,08,04,291,20*72
2017-12-01 14:32:55 1512156775.698196: $GPGSV,3,3,12,25,05,139,21,15,08,069,06,20,06,120,20,138,38,213,46*43
2017-12-01 14:32:55 1512156775.811255: $GPZDA,193256.00,01,12,2017,00,00*6A
2017-12-01 14:32:55 1512156775.811459: $GPGGA,193256,3946.9594,N,08404.9834,W,2,11,1.20,293.05,M,-33.324,M,,*78
2017-12-01 14:32:55 1512156775.811530: $GPRMC,193256,A,3946.9594,N,08404.9834,W,0.0000,0.000,011217,,*36
2017-12-01 14:32:55 1512156775.811591: $GPGSA,A,3,12,10,14,18,21,24,32,8,25,20,138,,2.0,1.2,1.5*3A
2017-12-01 14:32:56 1512156776.357165: $GPZDA,193257.00,01,12,2017,00,00*6B
2017-12-01 14:32:56 1512156776.357347: $GPGGA,193257,3946.9590,N,08404.9835,W,2,11,1.40,293.82,M,-33.324,M,,*75
2017-12-01 14:32:56 1512156776.357435: $GPRMC,193257,A,3946.9590,N,08404.9835,W,0.0000,0.000,011217,,*32
2017-12-01 14:32:56 1512156776.357498: $GPGSA,A,3,12,10,14,18,21,24,32,8,25,20,138,,2.0,1.4,1.5*3C
2017-12-01 14:32:57 1512156777.397154: $GPZDA,193258.00,01,12,2017,00,00*64
2017-12-01 14:32:57 1512156777.397327: $GPGGA,193258,3946.9590,N,08404.9835,W,2,11,1.40,293.82,M,-33.324,M,,*7A
2017-12-01 14:32:57 1512156777.397393: $GPRMC,193258,A,3946.9590,N,08404.9835,W,0.0000,0.000,011217,,*3D
2017-12-01 14:32:57 1512156777.397454: $GPGSA,A,3,12,10,14,18,21,24,32,8,25,20,138,,2.0,1.4,1.5*3C
2017-12-01 14:32:58 1512156778.729525: $GPGSV,3,1,12,12,12,103,29,10,73,337,47,14,32,256,40,18,67,102,45*7B
2017-12-01 14:32:58 1512156778.729709: $GPGSV,3,2,12,21,24,178,46,24,42,055,49,32,49,270,44,08,04,291,26*74
2017-12-01 14:32:58 1512156778.729776: $GPGSV,3,3,12,15,08,069,19,27,04,256,29,20,06,120,21,138,38,213,47*4C
2017-12-01 14:32:58 1512156778.844454: $GPZDA,193259.00,01,12,2017,00,00*65
2017-12-01 14:32:58 1512156778.844645: $GPGGA,193259,3946.9590,N,08404.9835,W,2,11,1.40,293.82,M,-33.324,M,,*7B
2017-12-01 14:32:58 1512156778.844788: $GPRMC,193259,A,3946.9590,N,08404.9835,W,0.0000,0.000,011217,,*3C
2017-12-01 14:32:58 1512156778.844852: $GPGSA,A,3,12,10,14,18,21,24,32,8,27,20,138,,2.0,1.4,1.5*3E
2017-12-01 14:32:59 1512156779.356291: $GPZDA,193300.00,01,12,2017,00,00*68
2017-12-01 14:32:59 1512156779.356460: $GPGGA,193300,3946.9590,N,08404.9835,W,2,11,1.40,293.82,M,-33.324,M,,*76
2017-12-01 14:32:59 1512156779.356528: $GPRMC,193300,A,3946.9590,N,08404.9835,W,0.0000,0.000,011217,,*31
2017-12-01 14:32:59 1512156779.356589: $GPGSA,A,3,12,10,14,18,21,24,32,8,27,20,138,,2.0,1.4,1.5*3E
2017-12-01 14:33:00 1512156780.390882: $GPZDA,193301.00,01,12,2017,00,00*69
2017-12-01 14:33:00 1512156780.391049: $GPGGA,193301,3946.9590,N,08404.9835,W,2,11,1.00,293.82,M,-33.324,M,,*73
2017-12-01 14:33:00 1512156780.391115: $GPRMC,193301,A,3946.9590,N,08404.9835,W,0.0000,0.000,011217,,*30
2017-12-01 14:33:00 1512156780.391176: $GPGSA,A,3,12,10,14,18,21,24,32,8,27,20,138,,2.0,1.0,1.5*3A
2017-12-01 14:33:01 1512156781.694201: $GPGSV,3,1,12,12,12,103,29,10,73,337,47,14,32,256,40,18,67,102,45*7B
2017-12-01 14:33:01 1512156781.694383: $GPGSV,3,2,12,21,24,178,45,24,42,055,49,32,49,270,44,08,04,291,28*79
2017-12-01 14:33:01 1512156781.694451: $GPGSV,3,3,12,15,08,069,18,27,04,256,29,20,06,120,21,138,38,213,47*4D
2017-12-01 14:33:01 1512156781.807586: $GPZDA,193302.00,01,12,2017,00,00*6A
2017-12-01 14:33:01 1512156781.807751: $GPGGA,193302,3946.9590,N,08404.9835,W,2,12,1.00,293.82,M,-33.324,M,,*73
2017-12-01 14:33:01 1512156781.807817: $GPRMC,193302,A,3946.9590,N,08404.9835,W,0.0000,0.000,011217,,*33
2017-12-01 14:33:01 1512156781.807877: $GPGSA,A,3,12,10,14,18,21,24,32,8,15,27,20,138,2.0,1.0,1.5*3E
2017-12-01 14:33:02 1512156782.351022: $GPZDA,193303.00,01,12,2017,00,00*6B
2017-12-01 14:33:02 1512156782.351196: $GPGGA,193303,3946.9590,N,08404.9835,W,2,12,1.00,293.82,M,-33.324,M,,*72
2017-12-01 14:33:02 1512156782.351264: $GPRMC,193303,A,3946.9590,N,08404.9835,W,0.0000,0.000,011217,,*32
2017-12-01 14:33:02 1512156782.351325: $GPGSA,A,3,12,10,14,18,21,24,32,8,15,27,20,138,2.0,1.0,1.5*3E
2017-12-01 14:33:03 1512156783.392577: $GPZDA,193304.00,01,12,2017,00,00*6C
2017-12-01 14:33:03 1512156783.392751: $GPGGA,193304,3946.9590,N,08404.9835,W,2,12,1.00,293.82,M,-33.324,M,,*75
2017-12-01 14:33:03 1512156783.392820: $GPRMC,193304,A,3946.9590,N,08404.9835,W,0.0000,0.000,011217,,*35
2017-12-01 14:33:03 1512156783.392882: $GPGSA,A,3,12,10,14,18,21,24,32,8,15,27,20,138,2.0,1.0,1.5*3E
2017-12-01 14:33:04 1512156784.690777: $GPGSV,3,1,12,12,12,103,28,10,73,337,48,14,32,256,40,18,67,102,45*75
2017-12-01 14:33:04 1512156784.690963: $GPGSV,3,2,12,21,24,178,45,24,42,055,49,32,49,270,44,08,04,291,29*78
2017-12-01 14:33:04 1512156784.691032: $GPGSV,3,3,12,15,08,069,00,27,04,256,29,20,06,120,22,138,38,213,46*46
2017-12-01 14:33:04 1512156784.804121: $GPZDA,193305.00,01,12,2017,00,00*6D
2017-12-01 14:33:04 1512156784.804298: $GPGGA,193305,3946.9590,N,08404.9835,W,2,11,1.40,293.82,M,-33.324,M,,*73
2017-12-01 14:33:04 1512156784.804367: $GPRMC,193305,A,3946.9590,N,08404.9835,W,0.0000,0.000,011217,,*34
2017-12-01 14:33:04 1512156784.804428: $GPGSA,A,3,12,10,14,18,21,24,32,8,27,20,138,,2.0,1.4,1.5*3E
2017-12-01 14:33:05 1512156785.396251: $GPZDA,193306.00,01,12,2017,00,00*6E
2017-12-01 14:33:05 1512156785.396428: $GPGGA,193306,3946.9590,N,08404.9835,W,2,11,1.40,293.82,M,-33.324,M,,*70
2017-12-01 14:33:05 1512156785.396498: $GPRMC,193306,A,3946.9590,N,08404.9835,W,0.0000,0.000,011217,,*37
2017-12-01 14:33:05 1512156785.396559: $GPGSA,A,3,12,10,14,18,21,24,32,8,27,20,138,,2.0,1.4,1.5*3E
2017-12-01 14:33:06 1512156786.394630: $GPZDA,193307.00,01,12,2017,00,00*6F
2017-12-01 14:33:06 1512156786.394858: $GPGGA,193307,3946.9590,N,08404.9835,W,2,11,1.20,293.82,M,-33.324,M,,*77
2017-12-01 14:33:06 1512156786.394953: $GPRMC,193307,A,3946.9590,N,08404.9835,W,0.0000,0.000,011217,,*36
2017-12-01 14:33:06 1512156786.395018: $GPGSA,A,3,12,10,14,18,21,24,32,8,27,20,138,,2.0,1.2,1.5*38
2017-12-01 14:33:07 1512156787.692898: $GPGSV,3,1,12,12,12,103,29,10,73,337,48,14,32,256,40,18,67,102,45*74
2017-12-01 14:33:07 1512156787.693130: $GPGSV,3,2,12,21,24,178,45,24,42,055,49,32,49,270,44,08,04,291,29*78
2017-12-01 14:33:07 1512156787.693198: $GPGSV,3,3,12,25,05,139,23,27,04,256,29,20,06,120,22,138,38,213,47*4C
2017-12-01 14:33:07 1512156787.806178: $GPZDA,193308.00,01,12,2017,00,00*60
2017-12-01 14:33:07 1512156787.806307: $GPGGA,193308,3946.9590,N,08404.9835,W,2,12,1.20,293.82,M,-33.324,M,,*7B
2017-12-01 14:33:07 1512156787.806372: $GPRMC,193308,A,3946.9590,N,08404.9835,W,0.0000,0.000,011217,,*39
2017-12-01 14:33:07 1512156787.806433: $GPGSA,A,3,12,10,14,18,21,24,32,8,25,27,20,138,2.0,1.2,1.5*3F
2017-12-01 14:33:08 1512156788.432019: $GPZDA,193309.00,01,12,2017,00,00*61
2017-12-01 14:33:08 1512156788.432182: $GPGGA,193309,3946.9590,N,08404.9835,W,2,12,1.20,293.82,M,-33.324,M,,*7A
2017-12-01 14:33:08 1512156788.432249: $GPRMC,193309,A,3946.9590,N,08404.9835,W,0.0000,0.000,011217,,*38
2017-12-01 14:33:08 1512156788.432310: $GPGSA,A,3,12,10,14,18,21,24,32,8,25,27,20,138,2.0,1.2,1.5*3F
2017-12-01 14:33:09 1512156789.401235: $GPZDA,193310.00,01,12,2017,00,00*69
2017-12-01 14:33:09 1512156789.401464: $GPGGA,193310,3946.9590,N,08404.9835,W,2,12,1.20,293.82,M,-33.324,M,,*72
2017-12-01 14:33:09 1512156789.401536: $GPRMC,193310,A,3946.9590,N,08404.9835,W,0.0000,0.000,011217,,*30
2017-12-01 14:33:09 1512156789.401599: $GPGSA,A,3,12,10,14,18,21,24,32,8,25,27,20,138,2.0,1.2,1.5*3F
2017-12-01 14:33:10 1512156790.730779: $GPGSV,3,1,12,12,12,103,29,10,73,337,47,14,32,256,40,18,67,102,46*78
2017-12-01 14:33:10 1512156790.730978: $GPGSV,3,2,12,21,24,178,45,24,42,055,49,32,49,270,43,08,04,291,30*77
2017-12-01 14:33:10 1512156790.731046: $GPGSV,3,3,12,25,05,139,25,27,04,256,28,20,06,120,23,138,38,213,48*45
2017-12-01 14:33:10 1512156790.844120: $GPZDA,193311.00,01,12,2017,00,00*68
2017-12-01 14:33:10 1512156790.844294: $GPGGA,193311,3946.9594,N,08404.9834,W,2,12,1.20,293.05,M,-33.324,M,,*79
2017-12-01 14:33:10 1512156790.844360: $GPRMC,193311,A,3946.9594,N,08404.9834,W,0.0000,0.000,011217,,*34
2017-12-01 14:33:10 1512156790.844421: $GPGSA,A,3,12,10,14,18,21,24,32,8,25,27,20,138,2.0,1.2,1.5*3F
2017-12-01 14:33:11 1512156791.393802: $GPZDA,193312.00,01,12,2017,00,00*6B
2017-12-01 14:33:11 1512156791.393988: $GPGGA,193312,3946.9594,N,08404.9834,W,2,12,1.20,293.05,M,-33.324,M,,*7A
2017-12-01 14:33:11 1512156791.394080: $GPRMC,193312,A,3946.9594,N,08404.9834,W,0.0000,0.000,011217,,*37
2017-12-01 14:33:11 1512156791.394143: $GPGSA,A,3,12,10,14,18,21,24,32,8,25,27,20,138,2.0,1.2,1.5*3F
2017-12-01 14:33:12 1512156792.358444: $GPZDA,193313.00,01,12,2017,00,00*6A
2017-12-01 14:33:12 1512156792.358607: $GPGGA,193313,3946.9594,N,08404.9834,W,2,12,1.20,293.05,M,-33.324,M,,*7B
2017-12-01 14:33:12 1512156792.358675: $GPRMC,193313,A,3946.9594,N,08404.9834,W,0.0000,0.000,011217,,*36
2017-12-01 14:33:12 1512156792.358736: $GPGSA,A,3,12,10,14,18,21,24,32,8,25,27,20,138,2.0,1.2,1.5*3F
2017-12-01 14:33:13 1512156793.697444: $GPGSV,3,1,12,12,12,103,29,10,73,337,47,14,32,256,41,18,67,102,46*79
2017-12-01 14:33:13 1512156793.697647: $GPGSV,3,2,12,21,24,178,45,24,42,055,49,32,49,270,43,08,04,291,22*74
2017-12-01 14:33:13 1512156793.697716: $GPGSV,3,3,12,25,05,139,25,15,08,069,02,20,06,120,23,138,38,213,46*40
2017-12-01 14:33:13 1512156793.810891: $GPZDA,193314.00,01,12,2017,00,00*6D
2017-12-01 14:33:13 1512156793.811046: $GPGGA,193314,3946.9594,N,08404.9834,W,2,11,1.20,293.05,M,-33.324,M,,*7F
2017-12-01 14:33:13 1512156793.811114: $GPRMC,193314,A,3946.9594,N,08404.9834,W,0.0000,0.000,011217,,*31
2017-12-01 14:33:13 1512156793.811174: $GPGSA,A,3,12,10,14,18,21,24,32,8,25,20,138,,2.0,1.2,1.5*3A
2017-12-01 14:33:14 1512156794.357994: $GPZDA,193315.00,01,12,2017,00,00*6C
2017-12-01 14:33:14 1512156794.358167: $GPGGA,193315,3946.9589,N,08404.9834,W,2,11,1.20,292.42,M,-33.324,M,,*70
2017-12-01 14:33:14 1512156794.358234: $GPRMC,193315,A,3946.9589,N,08404.9834,W,0.0000,0.000,011217,,*3C
2017-12-01 14:33:14 1512156794.358295: $GPGSA,A,3,12,10,14,18,21,24,32,8,25,20,138,,2.0,1.2,1.5*3A
2017-12-01 14:33:15 1512156795.360015: $GPZDA,193316.00,01,12,2017,00,00*6F
2017-12-01 14:33:15 1512156795.360190: $GPGGA,193316,3946.9589,N,08404.9834,W,2,11,1.20,292.42,M,-33.324,M,,*73
2017-12-01 14:33:15 1512156795.360258: $GPRMC,193316,A,3946.9589,N,08404.9834,W,0.0000,0.000,011217,,*3F
2017-12-01 14:33:15 1512156795.360319: $GPGSA,A,3,12,10,14,18,21,24,32,8,25,20,138,,2.0,1.2,1.5*3A
