2017-11-16 15:26:58 1510864018.089120: {"class":"VERSION","release":"3.17","rev":"3.17","proto_major":3,"proto_minor":12}
2017-11-16 15:26:58 1510864018.089623: {"class":"DEVICES","devices":[{"class":"DEVICE","path":"/dev/ttyUSB0","driver":"SiRF","subtype":"9\u0006GSD4e_4.1.2-P1_RPATCH.05-F-GPS-4R-1510281 11/03/2015 307","activated":"2017-11-16T20:26:57.503Z","flags":1,"native":1,"bps":4800,"parity":"N","stopbits":1,"cycle":1.00}]}
2017-11-16 15:26:58 1510864018.089748: {"class":"WATCH","enable":true,"json":false,"nmea":true,"raw":0,"scaled":false,"timing":false,"split24":false,"pps":false}
2017-11-16 15:26:58 1510864018.702061: $GPGSV,3,1,12,08,06,292,37,10,69,331,51,14,29,253,46,15,11,066,35*7A
2017-11-16 15:26:58 1510864018.702232: $GPGSV,3,2,12,18,71,094,48,20,08,118,21,21,29,180,45,24,45,058,50*7B
2017-11-16 15:26:58 1510864018.702292: $GPGSV,3,3,12,27,06,259,31,32,46,265,47,12,09,106,17,138,38,213,44*4E
2017-11-16 15:26:58 1510864018.815360: $GPZDA,202657.00,16,11,2017,00,00*61
2017-11-16 15:26:58 1510864018.815509: $GPGGA,202657,3946.9572,N,08404.9866,W,2,12,0.80,308.76,M,-33.324,M,,*76
2017-11-16 15:26:58 1510864018.815570: $GPRMC,202657,A,3946.9572,N,08404.9866,W,0.0000,0.000,161117,,*32
2017-11-16 15:26:58 1510864018.815625: $GPGSA,A,3,8,10,14,15,18,20,21,24,27,32,12,138,1.6,0.8,1.3*34
2017-11-16 15:26:59 1510864019.366231: $GPZDA,202658.00,16,11,2017,00,00*6E
2017-11-16 15:26:59 1510864019.366398: $GPGGA,202658,3946.9572,N,08404.9866,W,2,12,0.80,308.76,M,-33.324,M,,*79
2017-11-16 15:26:59 1510864019.366460: $GPRMC,202658,A,3946.9572,N,08404.9866,W,0.0000,0.000,161117,,*3D
2017-11-16 15:26:59 1510864019.366517: $GPGSA,A,3,8,10,14,15,18,20,21,24,27,32,12,138,1.6,0.8,1.3*34
2017-11-16 15:27:00 1510864020.367365: $GPZDA,202659.00,16,11,2017,00,00*6F
2017-11-16 15:27:00 1510864020.367531: $GPGGA,202659,3946.9572,N,08404.9866,W,2,12,0.80,308.76,M,-33.324,M,,*78
2017-11-16 15:27:00 1510864020.367593: $GPRMC,202659,A,3946.9572,N,08404.9866,W,0.0000,0.000,161117,,*3C
2017-11-16 15:27:00 1510864020.367649: $GPGSA,A,3,8,10,14,15,18,20,21,24,27,32,12,138,1.6,0.8,1.3*34
2017-11-16 15:27:01 1510864021.703902: $GPGSV,3,1,12,08,06,292,38,10,69,331,51,14,29,253,45,15,11,066,35*76
2017-11-16 15:27:01 1510864021.704075: $GPGSV,3,2,12,18,71,094,48,20,08,118,22,21,29,180,45,24,45,058,51*79
2017-11-16 15:27:01 1510864021.704135: $GPGSV,3,3,12,27,06,259,31,32,46,265,47,12,09,106,04,138,38,213,44*4C
2017-11-16 15:27:01 1510864021.817172: $GPZDA,202700.00,16,11,2017,00,00*62
2017-11-16 15:27:01 1510864021.817311: $GPGGA,202700,3946.9572,N,08404.9866,W,2,11,0.80,308.76,M,-33.324,M,,*76
2017-11-16 15:27:01 1510864021.817374: $GPRMC,202700,A,3946.9572,N,08404.9866,W,0.0000,0.000,161117,,*31
2017-11-16 15:27:01 1510864021.817430: $GPGSA,A,3,8,10,14,15,18,20,21,24,27,32,138,,1.6,0.8,1.3*37
2017-11-16 15:27:02 1510864022.366789: $GPZDA,202701.00,16,11,2017,00,00*63
2017-11-16 15:27:02 1510864022.366955: $GPGGA,202701,3946.9572,N,08404.9866,W,2,11,0.80,308.76,M,-33.324,M,,*77
2017-11-16 15:27:02 1510864022.367018: $GPRMC,202701,A,3946.9572,N,08404.9866,W,0.0000,0.000,161117,,*30
2017-11-16 15:27:02 1510864022.367075: $GPGSA,A,3,8,10,14,15,18,20,21,24,27,32,138,,1.6,0.8,1.3*37
2017-11-16 15:27:03 1510864023.366527: $GPZDA,202702.00,16,11,2017,00,00*60
2017-11-16 15:27:03 1510864023.366715: $GPGGA,202702,3946.9572,N,08404.9866,W,2,11,0.80,308.76,M,-33.324,M,,*74
2017-11-16 15:27:03 1510864023.366778: $GPRMC,202702,A,3946.9572,N,08404.9866,W,0.0000,0.000,161117,,*33
2017-11-16 15:27:03 1510864023.366834: $GPGSA,A,3,8,10,14,15,18,20,21,24,27,32,138,,1.6,0.8,1.3*37
2017-11-16 15:27:04 1510864024.718453: $GPGSV,3,1,12,08,06,292,38,10,69,331,51,14,29,253,45,15,11,066,34*77
2017-11-16 15:27:04 1510864024.718623: $GPGSV,3,2,12,18,71,094,48,20,08,118,23,21,29,180,44,24,45,058,51*79
2017-11-16 15:27:04 1510864024.718683: $GPGSV,3,3,12,27,06,259,31,32,46,265,46,12,09,106,04,138,38,213,44*4D
2017-11-16 15:27:04 1510864024.831737: $GPZDA,202703.00,16,11,2017,00,00*61
2017-11-16 15:27:04 1510864024.831882: $GPGGA,202703,3946.9572,N,08404.9866,W,2,12,0.80,308.76,M,-33.324,M,,*76
2017-11-16 15:27:04 1510864024.831998: $GPRMC,202703,A,3946.9572,N,08404.9866,W,0.0000,0.000,161117,,*32
2017-11-16 15:27:04 1510864024.832057: $GPGSA,A,3,8,10,14,15,18,20,21,24,27,32,12,138,1.6,0.8,1.3*34
2017-11-16 15:27:05 1510864025.385261: $GPZDA,202704.00,16,11,2017,00,00*66
2017-11-16 15:27:05 1510864025.385427: $GPGGA,202704,3946.9572,N,08404.9866,W,2,12,0.80,308.76,M,-33.324,M,,*71
2017-11-16 15:27:05 1510864025.385489: $GPRMC,202704,A,3946.9572,N,08404.9866,W,0.0000,0.000,161117,,*35
2017-11-16 15:27:05 1510864025.385545: $GPGSA,A,3,8,10,14,15,18,20,21,24,27,32,12,138,1.6,0.8,1.3*34
2017-11-16 15:27:06 1510864026.366848: $GPZDA,202705.00,16,11,2017,00,00*67
2017-11-16 15:27:06 1510864026.367015: $GPGGA,202705,3946.9572,N,08404.9866,W,2,12,0.80,308.76,M,-33.324,M,,*70
2017-11-16 15:27:06 1510864026.367078: $GPRMC,202705,A,3946.9572,N,08404.9866,W,0.0000,0.000,161117,,*34
2017-11-16 15:27:06 1510864026.367135: $GPGSA,A,3,8,10,14,15,18,20,21,24,27,32,12,138,1.6,0.8,1.3*34
2017-11-16 15:27:07 1510864027.703754: $GPGSV,3,1,12,08,06,292,38,10,69,331,51,14,29,253,45,15,11,066,34*77
2017-11-16 15:27:07 1510864027.703930: $GPGSV,3,2,12,18,71,094,48,20,08,118,24,21,29,180,44,24,45,058,51*7E
2017-11-16 15:27:07 1510864027.703991: $GPGSV,3,3,12,27,06,259,31,32,46,265,46,12,09,106,22,138,38,213,44*49
2017-11-16 15:27:07 1510864027.817048: $GPZDA,202706.00,16,11,2017,00,00*64
2017-11-16 15:27:07 1510864027.817213: $GPGGA,202706,3946.9572,N,08404.9866,W,2,12,0.80,308.76,M,-33.324,M,,*73
2017-11-16 15:27:07 1510864027.817276: $GPRMC,202706,A,3946.9572,N,08404.9866,W,0.0000,0.000,161117,,*37
2017-11-16 15:27:07 1510864027.817332: $GPGSA,A,3,8,10,14,15,18,20,21,24,27,32,12,138,1.6,0.8,1.3*34
