2017-12-01 14:10:29 1512155429.306694: {"class":"VERSION","release":"3.16","rev":"3.16-4","proto_major":3,"proto_minor":11}
2017-12-01 14:10:29 1512155429.307122: {"class":"DEVICES","devices":[{"class":"DEVICE","path":"/dev/ttyUSB0","driver":"SiRF","subtype":"9\u0006GSD4e_4.1.2-P1_RPATCH.05-F-GPS-4R-1510281 11/03/2015 307","activated":"2017-12-01T19:10:29.217Z","flags":1,"native":1,"bps":4800,"parity":"N","stopbits":1,"cycle":1.00}]}
2017-12-01 14:10:29 1512155429.307248: {"class":"WATCH","enable":true,"json":false,"nmea":true,"raw":0,"scaled":false,"timing":false,"split24":false,"pps":false}
2017-12-01 14:10:29 1512155429.330837: $GPZDA,191030.00,01,12,2017,00,00*6A
2017-12-01 14:10:29 1512155429.330977: $GPGGA,191030,3946.9523,N,08404.9822,W,2,12,0.80,322.91,M,-33.324,M,,*7D
2017-12-01 14:10:29 1512155429.331042: $GPRMC,191030,A,3946.9523,N,08404.9822,W,0.0000,0.000,011217,,*3D
2017-12-01 14:10:29 1512155429.331102: $GPGSA,A,3,8,10,14,18,20,21,24,27,32,12,15,138,2.0,0.8,1.5*37
2017-12-01 14:10:30 1512155430.664888: $GPGSV,3,1,12,08,07,298,39,10,64,324,50,14,24,249,40,18,74,078,42*76
2017-12-01 14:10:30 1512155430.665086: $GPGSV,3,2,12,20,13,114,35,21,35,180,44,24,49,066,47,27,10,265,41*7D
2017-12-01 14:10:30 1512155430.665155: $GPGSV,3,3,12,32,42,259,46,12,05,112,29,15,16,063,32,138,38,213,47*4B
2017-12-01 14:10:30 1512155430.776945: $GPZDA,191031.00,01,12,2017,00,00*6B
2017-12-01 14:10:30 1512155430.777088: $GPGGA,191031,3946.9523,N,08404.9822,W,2,12,0.80,322.91,M,-33.324,M,,*7C
2017-12-01 14:10:30 1512155430.777154: $GPRMC,191031,A,3946.9523,N,08404.9822,W,0.0000,0.000,011217,,*3C
2017-12-01 14:10:30 1512155430.777215: $GPGSA,A,3,8,10,14,18,20,21,24,27,32,12,15,138,2.0,0.8,1.5*37
2017-12-01 14:10:31 1512155431.333245: $GPZDA,191032.00,01,12,2017,00,00*68
2017-12-01 14:10:31 1512155431.333448: $GPGGA,191032,3946.9523,N,08404.9822,W,2,12,0.80,322.91,M,-33.324,M,,*7F
2017-12-01 14:10:31 1512155431.333519: $GPRMC,191032,A,3946.9523,N,08404.9822,W,0.0000,0.000,011217,,*3F
2017-12-01 14:10:31 1512155431.333580: $GPGSA,A,3,8,10,14,18,20,21,24,27,32,12,15,138,2.0,0.8,1.5*37
2017-12-01 14:10:32 1512155432.331142: $GPZDA,191033.00,01,12,2017,00,00*69
2017-12-01 14:10:32 1512155432.331316: $GPGGA,191033,3946.9523,N,08404.9822,W,2,12,0.80,322.91,M,-33.324,M,,*7E
2017-12-01 14:10:32 1512155432.331448: $GPRMC,191033,A,3946.9523,N,08404.9822,W,0.0000,0.000,011217,,*3E
2017-12-01 14:10:32 1512155432.331512: $GPGSA,A,3,8,10,14,18,20,21,24,27,32,12,15,138,2.0,0.8,1.5*37
2017-12-01 14:10:33 1512155433.694725: $GPGSV,3,1,12,08,07,298,39,10,64,324,50,14,24,249,40,18,74,078,42*76
2017-12-01 14:10:33 1512155433.694933: $GPGSV,3,2,12,20,13,114,35,21,35,180,44,24,49,066,47,27,10,265,41*7D
2017-12-01 14:10:33 1512155433.695001: $GPGSV,3,3,12,32,42,259,46,12,05,112,30,15,16,063,32,138,38,213,47*43
2017-12-01 14:10:33 1512155433.807936: $GPZDA,191034.00,01,12,2017,00,00*6E
2017-12-01 14:10:33 1512155433.808127: $GPGGA,191034,3946.9519,N,08404.9822,W,2,12,0.80,323.67,M,-33.324,M,,*78
2017-12-01 14:10:33 1512155433.808197: $GPRMC,191034,A,3946.9519,N,08404.9822,W,0.0000,0.000,011217,,*30
2017-12-01 14:10:33 1512155433.808261: $GPGSA,A,3,8,10,14,18,20,21,24,27,32,12,15,138,2.0,0.8,1.5*37
2017-12-01 14:10:34 1512155434.359048: $GPZDA,191035.00,01,12,2017,00,00*6F
2017-12-01 14:10:34 1512155434.359266: $GPGGA,191035,3946.9519,N,08404.9822,W,2,12,0.80,323.67,M,-33.324,M,,*79
2017-12-01 14:10:34 1512155434.359361: $GPRMC,191035,A,3946.9519,N,08404.9822,W,0.0000,0.000,011217,,*31
2017-12-01 14:10:34 1512155434.359429: $GPGSA,A,3,8,10,14,18,20,21,24,27,32,12,15,138,2.0,0.8,1.5*37
2017-12-01 14:10:35 1512155435.359107: $GPZDA,191036.00,01,12,2017,00,00*6C
2017-12-01 14:10:35 1512155435.359282: $GPGGA,191036,3946.9519,N,08404.9822,W,2,12,0.80,323.67,M,-33.324,M,,*7A
2017-12-01 14:10:35 1512155435.359352: $GPRMC,191036,A,3946.9519,N,08404.9822,W,0.0000,0.000,011217,,*32
2017-12-01 14:10:35 1512155435.359416: $GPGSA,A,3,8,10,14,18,20,21,24,27,32,12,15,138,2.0,0.8,1.5*37
2017-12-01 14:10:36 1512155436.693553: $GPGSV,3,1,12,08,07,298,39,10,64,324,49,14,24,249,40,18,74,078,42*7E
2017-12-01 14:10:36 1512155436.693795: $GPGSV,3,2,12,20,13,114,35,21,35,180,43,24,49,066,46,27,10,265,40*7A
2017-12-01 14:10:36 1512155436.693866: $GPGSV,3,3,12,32,42,259,45,12,05,112,30,15,16,063,33,138,38,213,47*41
2017-12-01 14:10:36 1512155436.806856: $GPZDA,191037.00,01,12,2017,00,00*6D
2017-12-01 14:10:36 1512155436.807015: $GPGGA,191037,3946.9519,N,08404.9822,W,2,12,0.80,323.67,M,-33.324,M,,*7B
2017-12-01 14:10:36 1512155436.807086: $GPRMC,191037,A,3946.9519,N,08404.9822,W,0.0000,0.000,011217,,*33
2017-12-01 14:10:36 1512155436.807147: $GPGSA,A,3,8,10,14,18,20,21,24,27,32,12,15,138,2.0,0.8,1.5*37
2017-12-01 14:10:37 1512155437.360851: $GPZDA,191038.00,01,12,2017,00,00*62
2017-12-01 14:10:37 1512155437.361055: $GPGGA,191038,3946.9519,N,08404.9822,W,2,12,0.80,323.67,M,-33.324,M,,*74
2017-12-01 14:10:37 1512155437.361125: $GPRMC,191038,A,3946.9519,N,08404.9822,W,0.0000,0.000,011217,,*3C
2017-12-01 14:10:37 1512155437.361201: $GPGSA,A,3,8,10,14,18,20,21,24,27,32,12,15,138,2.0,0.8,1.5*37
2017-12-01 14:10:38 1512155438.329917: $GPZDA,191039.00,01,12,2017,00,00*63
2017-12-01 14:10:38 1512155438.330097: $GPGGA,191039,3946.9519,N,08404.9822,W,2,12,0.80,323.67,M,-33.324,M,,*75
2017-12-01 14:10:38 1512155438.330165: $GPRMC,191039,A,3946.9519,N,08404.9822,W,0.0000,0.000,011217,,*3D
2017-12-01 14:10:38 1512155438.330226: $GPGSA,A,3,8,10,14,18,20,21,24,27,32,12,15,138,2.0,0.8,1.5*37
2017-12-01 14:10:39 1512155439.695657: $GPGSV,3,1,12,08,07,298,38,10,64,324,49,14,24,249,40,18,74,078,42*7F
2017-12-01 14:10:39 1512155439.695855: $GPGSV,3,2,12,20,13,114,35,21,35,180,43,24,49,066,47,27,10,265,41*7A
2017-12-01 14:10:39 1512155439.695944: $GPGSV,3,3,12,32,42,259,45,12,05,112,29,15,16,063,34,138,38,213,46*4F
2017-12-01 14:10:39 1512155439.809059: $GPZDA,191040.00,01,12,2017,00,00*6D
2017-12-01 14:10:39 1512155439.809231: $GPGGA,191040,3946.9519,N,08404.9822,W,2,12,0.80,323.67,M,-33.324,M,,*7B
2017-12-01 14:10:39 1512155439.809298: $GPRMC,191040,A,3946.9519,N,08404.9822,W,0.0000,0.000,011217,,*33
2017-12-01 14:10:39 1512155439.809359: $GPGSA,A,3,8,10,14,18,20,21,24,27,32,12,15,138,2.0,0.8,1.5*37
2017-12-01 14:10:40 1512155440.434695: $GPZDA,191041.00,01,12,2017,00,00*6C
2017-12-01 14:10:40 1512155440.434869: $GPGGA,191041,3946.9519,N,08404.9822,W,2,12,0.80,323.67,M,-33.324,M,,*7A
2017-12-01 14:10:40 1512155440.434938: $GPRMC,191041,A,3946.9519,N,08404.9822,W,0.0000,0.000,011217,,*32
2017-12-01 14:10:40 1512155440.434999: $GPGSA,A,3,8,10,14,18,20,21,24,27,32,12,15,138,2.0,0.8,1.5*37
2017-12-01 14:10:41 1512155441.330362: $GPZDA,191042.00,01,12,2017,00,00*6F
2017-12-01 14:10:41 1512155441.330538: $GPGGA,191042,3946.9519,N,08404.9822,W,2,12,0.80,323.67,M,-33.324,M,,*79
2017-12-01 14:10:41 1512155441.330606: $GPRMC,191042,A,3946.9519,N,08404.9822,W,0.0000,0.000,011217,,*31
2017-12-01 14:10:41 1512155441.330669: $GPGSA,A,3,8,10,14,18,20,21,24,27,32,12,15,138,2.0,0.8,1.5*37
2017-12-01 14:10:42 1512155442.666048: $GPGSV,3,1,12,08,07,298,38,10,64,324,49,14,24,249,41,18,74,078,43*7F
2017-12-01 14:10:42 1512155442.666232: $GPGSV,3,2,12,20,13,114,35,21,35,180,43,24,49,066,47,27,10,265,41*7A
2017-12-01 14:10:42 1512155442.666301: $GPGSV,3,3,12,32,42,259,45,12,05,112,29,15,16,063,34,138,38,213,47*4E
2017-12-01 14:10:42 1512155442.779471: $GPZDA,191043.00,01,12,2017,00,00*6E
2017-12-01 14:10:42 1512155442.779645: $GPGGA,191043,3946.9516,N,08404.9823,W,2,12,0.80,324.43,M,-33.324,M,,*77
2017-12-01 14:10:42 1512155442.779713: $GPRMC,191043,A,3946.9516,N,08404.9823,W,0.0000,0.000,011217,,*3E
2017-12-01 14:10:42 1512155442.779774: $GPGSA,A,3,8,10,14,18,20,21,24,27,32,12,15,138,2.0,0.8,1.5*37
2017-12-01 14:10:43 1512155443.332867: $GPZDA,191044.00,01,12,2017,00,00*69
2017-12-01 14:10:43 1512155443.333038: $GPGGA,191044,3946.9516,N,08404.9823,W,2,12,0.80,324.43,M,-33.324,M,,*70
2017-12-01 14:10:43 1512155443.333106: $GPRMC,191044,A,3946.9516,N,08404.9823,W,0.0000,0.000,011217,,*39
2017-12-01 14:10:43 1512155443.333168: $GPGSA,A,3,8,10,14,18,20,21,24,27,32,12,15,138,2.0,0.8,1.5*37
2017-12-01 14:10:44 1512155444.329942: $GPZDA,191045.00,01,12,2017,00,00*68
2017-12-01 14:10:44 1512155444.330115: $GPGGA,191045,3946.9516,N,08404.9823,W,2,12,0.80,324.43,M,-33.324,M,,*71
2017-12-01 14:10:44 1512155444.330183: $GPRMC,191045,A,3946.9516,N,08404.9823,W,0.0000,0.000,011217,,*38
2017-12-01 14:10:44 1512155444.330244: $GPGSA,A,3,8,10,14,18,20,21,24,27,32,12,15,138,2.0,0.8,1.5*37
2017-12-01 14:10:45 1512155445.695251: $GPGSV,3,1,12,08,07,298,30,10,64,324,49,14,24,249,41,18,74,078,43*77
2017-12-01 14:10:45 1512155445.695438: $GPGSV,3,2,12,20,13,114,35,21,35,180,43,24,49,066,47,27,10,265,40*7B
2017-12-01 14:10:45 1512155445.695504: $GPGSV,3,3,12,32,42,259,45,12,05,112,24,15,16,063,35,138,38,213,47*42
2017-12-01 14:10:45 1512155445.808598: $GPZDA,191046.00,01,12,2017,00,00*6B
2017-12-01 14:10:45 1512155445.808772: $GPGGA,191046,3946.9516,N,08404.9823,W,2,12,0.80,324.43,M,-33.324,M,,*72
2017-12-01 14:10:45 1512155445.808839: $GPRMC,191046,A,3946.9516,N,08404.9823,W,0.0000,0.000,011217,,*3B
2017-12-01 14:10:45 1512155445.808901: $GPGSA,A,3,8,10,14,18,20,21,24,27,32,12,15,138,2.0,0.8,1.5*37
2017-12-01 14:10:46 1512155446.330673: $GPZDA,191047.00,01,12,2017,00,00*6A
2017-12-01 14:10:46 1512155446.330845: $GPGGA,191047,3946.9519,N,08404.9822,W,2,12,0.80,323.67,M,-33.324,M,,*7C
2017-12-01 14:10:46 1512155446.330914: $GPRMC,191047,A,3946.9519,N,08404.9822,W,0.0000,0.000,011217,,*34
2017-12-01 14:10:46 1512155446.330975: $GPGSA,A,3,8,10,14,18,20,21,24,27,32,12,15,138,2.0,0.8,1.5*37
2017-12-01 14:10:47 1512155447.360218: $GPZDA,191048.00,01,12,2017,00,00*65
2017-12-01 14:10:47 1512155447.360398: $GPGGA,191048,3946.9519,N,08404.9822,W,2,12,0.80,323.67,M,-33.324,M,,*73
2017-12-01 14:10:47 1512155447.360469: $GPRMC,191048,A,3946.9519,N,08404.9822,W,0.0000,0.000,011217,,*3B
2017-12-01 14:10:47 1512155447.360534: $GPGSA,A,3,8,10,14,18,20,21,24,27,32,12,15,138,2.0,0.8,1.5*37
2017-12-01 14:10:48 1512155448.667245: $GPGSV,3,1,12,08,07,298,28,10,64,324,49,14,24,249,41,18,74,078,43*7E
2017-12-01 14:10:48 1512155448.667432: $GPGSV,3,2,12,20,13,114,35,21,35,180,44,24,49,066,48,27,10,265,40*73
2017-12-01 14:10:48 1512155448.667501: $GPGSV,3,3,12,32,42,259,45,12,05,112,24,15,16,063,35,138,38,213,46*43
2017-12-01 14:10:48 1512155448.780687: $GPZDA,191049.00,01,12,2017,00,00*64
2017-12-01 14:10:48 1512155448.780860: $GPGGA,191049,3946.9519,N,08404.9822,W,2,12,0.80,323.67,M,-33.324,M,,*72
2017-12-01 14:10:48 1512155448.780928: $GPRMC,191049,A,3946.9519,N,08404.9822,W,0.0000,0.000,011217,,*3A
2017-12-01 14:10:48 1512155448.780989: $GPGSA,A,3,8,10,14,18,20,21,24,27,32,12,15,138,2.0,0.8,1.5*37
