2018-01-12 02:47:22 1515743242.873494: {"class":"VERSION","release":"3.16","rev":"3.16-4","proto_major":3,"proto_minor":11}
2018-01-12 02:47:22 1515743242.873839: {"class":"DEVICES","devices":[{"class":"DEVICE","path":"/dev/ttyUSB0","driver":"SiRF","subtype":"9\u0006GSD4e_4.1.2-P1_RPATCH.05-F-GPS-4R-1510281 11/03/2015 307","activated":"2018-01-12T07:47:22.856Z","flags":1,"native":1,"bps":4800,"parity":"N","stopbits":1,"cycle":1.00}]}
2018-01-12 02:47:22 1515743242.873953: {"class":"WATCH","enable":true,"json":false,"nmea":true,"raw":0,"scaled":false,"timing":false,"split24":false,"pps":false}
2018-01-12 02:47:23 1515743243.937126: $GPZDA,074724.62,12,01,2018,00,00*69
2018-01-12 02:47:23 1515743243.937300: $GPGGA,074724,3946.9614,N,08404.9853,W,1,10,2.20,318.13,M,-33.324,M,,*7E
2018-01-12 02:47:23 1515743243.937367: $GPRMC,074724,A,3946.9614,N,08404.9853,W,0.8922,87.937,120118,,*08
2018-01-12 02:47:23 1515743243.937428: $GPGSA,A,3,2,3,6,12,17,19,24,5,9,138,,,2.4,2.2,2.1*3D
2018-01-12 02:47:23 1515743243.937485: $GPGBS,074724,11.98,M,14.47,M,47.88,M*08
2018-01-12 02:47:25 1515743245.064706: $GPZDA,074725.30,12,01,2018,00,00*6F
2018-01-12 02:47:25 1515743245.064879: $GPGGA,074725,3946.9614,N,08404.9853,W,1,10,2.20,318.13,M,-33.324,M,,*7F
2018-01-12 02:47:25 1515743245.064945: $GPRMC,074725,A,3946.9614,N,08404.9853,W,0.4063,356.466,120118,,*3F
2018-01-12 02:47:25 1515743245.065007: $GPGSA,A,3,2,3,6,12,17,19,24,5,9,138,,,2.4,2.2,2.1*3D
2018-01-12 02:47:26 1515743246.275718: $GPGSV,3,1,12,02,51,256,45,03,10,037,34,06,79,331,52,12,36,312,49*7A
2018-01-12 02:47:26 1515743246.275897: $GPGSV,3,2,12,17,46,084,44,19,62,060,41,05,07,195,08,09,03,105,06*73
2018-01-12 02:47:26 1515743246.275961: $GPGSV,3,3,12,24,14,262,08,28,09,151,00,04,22,244,00,138,38,213,00*46
2018-01-12 02:47:26 1515743246.388081: $GPZDA,074726.00,12,01,2018,00,00*6F
2018-01-12 02:47:26 1515743246.388250: $GPGGA,074726,3946.9614,N,08404.9853,W,1,06,2.20,318.13,M,-33.324,M,,*7B
2018-01-12 02:47:26 1515743246.388315: $GPRMC,074726,A,3946.9614,N,08404.9853,W,0.5602,0.000,120118,,*38
2018-01-12 02:47:26 1515743246.388376: $GPGSA,A,3,2,3,6,12,17,19,,,,,,,2.4,2.2,2.1*0D
2018-01-12 02:47:27 1515743247.024126: $GPZDA,074727.00,12,01,2018,00,00*6E
2018-01-12 02:47:27 1515743247.024335: $GPGGA,074727,3946.9617,N,08404.9852,W,1,06,1.00,315.96,M,-33.324,M,,*79
2018-01-12 02:47:27 1515743247.024404: $GPRMC,074727,A,3946.9617,N,08404.9852,W,0.4985,5.767,120118,,*39
2018-01-12 02:47:27 1515743247.024465: $GPGSA,A,3,2,3,6,12,17,19,,,,,,,2.4,1.0,2.1*0C
2018-01-12 02:47:27 1515743247.024521: $GPGBS,074727,11.98,M,14.47,M,47.88,M*0B
2018-01-12 02:47:27 1515743247.475162: $GPZDA,074728.00,12,01,2018,00,00*61
2018-01-12 02:47:27 1515743247.475335: $GPGGA,074728,3946.9620,N,08404.9851,W,1,06,1.00,315.19,M,-33.324,M,,*76
2018-01-12 02:47:27 1515743247.475401: $GPRMC,074728,A,3946.9620,N,08404.9851,W,0.0000,0.000,120118,,*32
2018-01-12 02:47:27 1515743247.475461: $GPGSA,A,3,2,3,6,12,17,19,,,,,,,2.4,1.0,2.1*0C
2018-01-12 02:47:27 1515743247.475517: $GPGBS,074728,11.98,M,14.47,M,47.88,M*04
2018-01-12 02:47:28 1515743248.659818: $GPGSV,3,1,12,02,51,256,44,03,10,037,33,06,79,331,52,12,36,312,49*7C
2018-01-12 02:47:28 1515743248.659998: $GPGSV,3,2,12,17,46,084,44,19,62,060,42,05,07,195,28,09,03,105,20*76
2018-01-12 02:47:28 1515743248.660065: $GPGSV,3,3,12,24,14,262,29,28,09,151,00,04,22,244,00,138,38,213,41*40
2018-01-12 02:47:28 1515743248.773211: $GPZDA,074729.00,12,01,2018,00,00*60
2018-01-12 02:47:28 1515743248.773384: $GPGGA,074729,3946.9616,N,08404.9851,W,1,10,1.00,314.55,M,-33.324,M,,*7C
2018-01-12 02:47:28 1515743248.773449: $GPRMC,074729,A,3946.9616,N,08404.9851,W,0.0000,0.000,120118,,*36
2018-01-12 02:47:28 1515743248.773510: $GPGSA,A,3,2,3,6,12,17,19,5,9,24,138,,,2.4,1.0,2.1*3C
2018-01-12 02:47:29 1515743249.325514: $GPZDA,074730.00,12,01,2018,00,00*68
2018-01-12 02:47:29 1515743249.325684: $GPGGA,074730,3946.9616,N,08404.9851,W,1,10,1.60,313.15,M,-33.324,M,,*71
2018-01-12 02:47:29 1515743249.325750: $GPRMC,074730,A,3946.9616,N,08404.9851,W,0.0000,0.000,120118,,*3E
2018-01-12 02:47:29 1515743249.325867: $GPGSA,A,3,2,3,6,12,17,19,5,9,24,138,,,2.4,1.6,2.1*3A
2018-01-12 02:47:30 1515743250.323572: $GPZDA,074731.00,12,01,2018,00,00*69
2018-01-12 02:47:30 1515743250.323750: $GPGGA,074731,3946.9615,N,08404.9850,W,1,10,1.00,311.75,M,-33.324,M,,*70
2018-01-12 02:47:30 1515743250.323818: $GPRMC,074731,A,3946.9615,N,08404.9850,W,0.0000,0.000,120118,,*3D
2018-01-12 02:47:30 1515743250.323879: $GPGSA,A,3,2,3,6,12,17,19,5,9,24,138,,,2.4,1.0,2.1*3C
2018-01-12 02:47:30 1515743250.323936: $GPGBS,074731,11.98,M,14.47,M,47.88,M*0C
2018-01-12 02:47:31 1515743251.663059: $GPGSV,3,1,12,02,51,256,44,03,10,037,33,06,79,331,52,12,36,312,50*74
2018-01-12 02:47:31 1515743251.663240: $GPGSV,3,2,12,17,46,084,45,19,62,060,43,05,07,195,24,09,03,105,21*7B
2018-01-12 02:47:31 1515743251.663306: $GPGSV,3,3,12,24,14,262,36,28,09,151,00,04,22,244,00,138,38,213,34*4C
2018-01-12 02:47:31 1515743251.776860: $GPZDA,074732.00,12,01,2018,00,00*6A
2018-01-12 02:47:31 1515743251.777173: $GPGGA,074732,3946.9614,N,08404.9849,W,1,10,1.00,310.34,M,-33.324,M,,*7E
2018-01-12 02:47:31 1515743251.777301: $GPRMC,074732,A,3946.9614,N,08404.9849,W,0.0000,0.000,120118,,*37
2018-01-12 02:47:31 1515743251.777434: $GPGSA,A,3,2,3,6,12,17,19,5,9,24,138,,,2.4,1.0,2.1*3C
2018-01-12 02:47:32 1515743252.331077: $GPZDA,074733.00,12,01,2018,00,00*6B
2018-01-12 02:47:32 1515743252.331246: $GPGGA,074733,3946.9618,N,08404.9848,W,1,10,1.00,309.58,M,-33.324,M,,*70
2018-01-12 02:47:32 1515743252.331312: $GPRMC,074733,A,3946.9618,N,08404.9848,W,0.0000,0.000,120118,,*3B
2018-01-12 02:47:32 1515743252.331394: $GPGSA,A,3,2,3,6,12,17,19,5,9,24,138,,,2.4,1.0,2.1*3C
2018-01-12 02:47:33 1515743253.324917: $GPZDA,074734.00,12,01,2018,00,00*6C
2018-01-12 02:47:33 1515743253.325223: $GPGGA,074734,3946.9613,N,08404.9848,W,1,10,1.00,308.94,M,-33.324,M,,*7D
2018-01-12 02:47:33 1515743253.325296: $GPRMC,074734,A,3946.9613,N,08404.9848,W,0.3155,129.994,120118,,*3B
2018-01-12 02:47:33 1515743253.325379: $GPGSA,A,3,2,3,6,12,17,19,5,9,24,138,,,2.4,1.0,2.1*3C
2018-01-12 02:47:34 1515743254.667151: $GPGSV,3,1,12,02,51,256,44,03,10,037,32,06,79,331,51,12,36,312,49*7E
2018-01-12 02:47:34 1515743254.667348: $GPGSV,3,2,12,17,46,084,45,19,62,060,42,05,07,195,27,09,03,105,22*7A
2018-01-12 02:47:34 1515743254.667415: $GPGSV,3,3,12,24,14,262,30,28,09,151,00,04,22,244,00,138,38,213,39*47
2018-01-12 02:47:34 1515743254.780656: $GPZDA,074735.00,12,01,2018,00,00*6D
2018-01-12 02:47:34 1515743254.780828: $GPGGA,074735,3946.9613,N,08404.9848,W,1,10,1.00,307.53,M,-33.324,M,,*78
2018-01-12 02:47:34 1515743254.780894: $GPRMC,074735,A,3946.9613,N,08404.9848,W,0.2422,93.794,120118,,*00
2018-01-12 02:47:34 1515743254.780957: $GPGSA,A,3,2,3,6,12,17,19,5,9,24,138,,,2.4,1.0,2.1*3C
2018-01-12 02:47:35 1515743255.326395: $GPZDA,074736.00,12,01,2018,00,00*6E
2018-01-12 02:47:35 1515743255.326582: $GPGGA,074736,3946.9613,N,08404.9848,W,1,10,1.00,307.53,M,-33.324,M,,*7B
2018-01-12 02:47:35 1515743255.326649: $GPRMC,074736,A,3946.9613,N,08404.9848,W,0.0000,0.000,120118,,*35
2018-01-12 02:47:35 1515743255.326711: $GPGSA,A,3,2,3,6,12,17,19,5,9,24,138,,,2.4,1.0,2.1*3C
2018-01-12 02:47:36 1515743256.324111: $GPZDA,074737.00,12,01,2018,00,00*6F
2018-01-12 02:47:36 1515743256.324467: $GPGGA,074737,3946.9612,N,08404.9847,W,1,10,1.00,306.13,M,-33.324,M,,*71
2018-01-12 02:47:36 1515743256.324544: $GPRMC,074737,A,3946.9612,N,08404.9847,W,0.0000,0.000,120118,,*3A
2018-01-12 02:47:36 1515743256.324609: $GPGSA,A,3,2,3,6,12,17,19,5,9,24,138,,,2.4,1.0,2.1*3C
2018-01-12 02:47:37 1515743257.666918: $GPGSV,3,1,12,02,51,256,44,03,10,037,34,06,79,331,51,12,36,312,49*78
2018-01-12 02:47:37 1515743257.667130: $GPGSV,3,2,12,17,46,084,45,19,62,060,42,05,07,195,28,09,03,105,23*74
2018-01-12 02:47:37 1515743257.667198: $GPGSV,3,3,12,24,14,262,31,23,04,073,11,28,09,151,00,138,38,213,39*41
2018-01-12 02:47:37 1515743257.780115: $GPZDA,074738.00,12,01,2018,00,00*60
2018-01-12 02:47:37 1515743257.780284: $GPGGA,074738,3946.9612,N,08404.9847,W,1,10,1.00,306.13,M,-33.324,M,,*7E
2018-01-12 02:47:37 1515743257.780407: $GPRMC,074738,A,3946.9612,N,08404.9847,W,0.0000,0.000,120118,,*35
2018-01-12 02:47:37 1515743257.780473: $GPGSA,A,3,2,3,6,12,17,19,5,9,24,138,,,2.4,1.0,2.1*3C
2018-01-12 02:47:38 1515743258.405756: $GPZDA,074739.00,12,01,2018,00,00*61
2018-01-12 02:47:38 1515743258.405925: $GPGGA,074739,3946.9608,N,08404.9847,W,1,10,1.00,305.49,M,-33.324,M,,*78
2018-01-12 02:47:38 1515743258.405991: $GPRMC,074739,A,3946.9608,N,08404.9847,W,0.0000,0.000,120118,,*3F
2018-01-12 02:47:38 1515743258.406052: $GPGSA,A,3,2,3,6,12,17,19,5,9,24,138,,,2.4,1.0,2.1*3C
2018-01-12 02:47:39 1515743259.332686: $GPZDA,074740.00,12,01,2018,00,00*6F
2018-01-12 02:47:39 1515743259.332855: $GPGGA,074740,3946.9602,N,08404.9845,W,2,10,1.60,300.64,M,-33.324,M,,*71
2018-01-12 02:47:39 1515743259.332921: $GPRMC,074740,A,3946.9602,N,08404.9845,W,0.0000,0.000,120118,,*39
2018-01-12 02:47:39 1515743259.332981: $GPGSA,A,3,2,3,6,12,17,19,5,9,24,138,,,2.4,1.6,2.1*3A
2018-01-12 02:47:40 1515743260.663404: $GPGSV,3,1,12,02,51,256,44,03,10,037,34,06,79,331,51,12,36,312,49*78
2018-01-12 02:47:40 1515743260.663611: $GPGSV,3,2,12,17,46,084,45,19,62,060,42,05,07,195,28,09,03,105,22*75
2018-01-12 02:47:40 1515743260.663694: $GPGSV,3,3,12,24,14,262,32,28,09,151,00,04,22,244,00,138,38,213,39*45
2018-01-12 02:47:40 1515743260.776946: $GPZDA,074741.00,12,01,2018,00,00*6E
2018-01-12 02:47:40 1515743260.777109: $GPGGA,074741,3946.9602,N,08404.9845,W,2,10,1.00,300.64,M,-33.324,M,,*76
2018-01-12 02:47:40 1515743260.777175: $GPRMC,074741,A,3946.9602,N,08404.9845,W,0.0000,0.000,120118,,*38
2018-01-12 02:47:40 1515743260.777235: $GPGSA,A,3,2,3,6,12,17,19,5,9,24,138,,,2.4,1.0,2.1*3C
2018-01-12 02:47:41 1515743261.332673: $GPZDA,074742.00,12,01,2018,00,00*6D
2018-01-12 02:47:41 1515743261.332847: $GPGGA,074742,3946.9602,N,08404.9845,W,2,10,1.00,300.64,M,-33.324,M,,*75
2018-01-12 02:47:41 1515743261.332914: $GPRMC,074742,A,3946.9602,N,08404.9845,W,0.0000,0.000,120118,,*3B
2018-01-12 02:47:41 1515743261.332975: $GPGSA,A,3,2,3,6,12,17,19,5,9,24,138,,,2.4,1.0,2.1*3C
2018-01-12 02:47:42 1515743262.329727: $GPZDA,074743.00,12,01,2018,00,00*6C
2018-01-12 02:47:42 1515743262.329885: $GPGGA,074743,3946.9602,N,08404.9845,W,2,10,1.00,300.64,M,-33.324,M,,*74
2018-01-12 02:47:42 1515743262.329951: $GPRMC,074743,A,3946.9602,N,08404.9845,W,0.0000,0.000,120118,,*3A
2018-01-12 02:47:42 1515743262.330012: $GPGSA,A,3,2,3,6,12,17,19,5,9,24,138,,,2.4,1.0,2.1*3C
2018-01-12 02:47:42 1515743262.330068: $GPGBS,074743,3.00,M,3.62,M,11.97,M*07
