2017-12-01 13:43:10 1512153790.776880: {"class":"VERSION","release":"3.16","rev":"3.16-4","proto_major":3,"proto_minor":11}
2017-12-01 13:43:10 1512153790.777341: {"class":"DEVICES","devices":[{"class":"DEVICE","path":"/dev/ttyUSB0","driver":"SiRF","subtype":"9\u0006GSD4e_4.1.2-P1_RPATCH.05-F-GPS-4R-1510281 11/03/2015 307","activated":"2017-12-01T18:43:10.371Z","flags":1,"native":1,"bps":4800,"parity":"N","stopbits":1,"cycle":1.00}]}
2017-12-01 13:43:10 1512153790.777466: {"class":"WATCH","enable":true,"json":false,"nmea":true,"raw":0,"scaled":false,"timing":false,"split24":false,"pps":false}
2017-12-01 13:43:11 1512153791.588047: $GPGSV,3,1,11,10,53,312,49,14,15,240,33,15,25,057,47,18,77,025,44*7A
2017-12-01 13:43:11 1512153791.588229: $GPGSV,3,2,11,20,23,106,48,21,48,183,45,24,53,085,48,27,15,276,38*7C
2017-12-01 13:43:11 1512153791.588294: $GPGSV,3,3,11,32,32,249,44,08,08,310,35,138,38,213,47*70
2017-12-01 13:43:11 1512153791.701447: $GPZDA,184312.00,01,12,2017,00,00*6D
2017-12-01 13:43:11 1512153791.701620: $GPGGA,184312,3946.9593,N,08404.9838,W,2,11,0.80,299.44,M,-33.324,M,,*70
2017-12-01 13:43:11 1512153791.701688: $GPRMC,184312,A,3946.9593,N,08404.9838,W,0.0000,0.000,011217,,*3A
2017-12-01 13:43:11 1512153791.701748: $GPGSA,A,3,10,14,15,18,20,21,24,27,32,8,138,,2.0,0.8,1.5*34
2017-12-01 13:43:12 1512153792.254336: $GPZDA,184313.00,01,12,2017,00,00*6C
2017-12-01 13:43:12 1512153792.257910: $GPGGA,184313,3946.9593,N,08404.9838,W,2,11,0.80,299.44,M,-33.324,M,,*71
2017-12-01 13:43:12 1512153792.258016: $GPRMC,184313,A,3946.9593,N,08404.9838,W,0.0000,0.000,011217,,*3B
2017-12-01 13:43:12 1512153792.258080: $GPGSA,A,3,10,14,15,18,20,21,24,27,32,8,138,,2.0,0.8,1.5*34
2017-12-01 13:43:13 1512153793.230755: $GPZDA,184314.00,01,12,2017,00,00*6B
2017-12-01 13:43:13 1512153793.230936: $GPGGA,184314,3946.9593,N,08404.9838,W,2,11,0.80,299.44,M,-33.324,M,,*76
2017-12-01 13:43:13 1512153793.231004: $GPRMC,184314,A,3946.9593,N,08404.9838,W,0.0000,0.000,011217,,*3C
2017-12-01 13:43:13 1512153793.231065: $GPGSA,A,3,10,14,15,18,20,21,24,27,32,8,138,,2.0,0.8,1.5*34
2017-12-01 13:43:14 1512153794.584233: $GPGSV,3,1,11,10,53,312,49,14,15,240,33,15,25,057,47,18,77,025,44*7A
2017-12-01 13:43:14 1512153794.584417: $GPGSV,3,2,11,20,23,106,47,21,48,183,45,24,53,085,47,27,15,276,38*7C
2017-12-01 13:43:14 1512153794.584486: $GPGSV,3,3,11,32,32,249,44,08,08,310,33,138,38,213,47*76
2017-12-01 13:43:14 1512153794.697830: $GPZDA,184315.00,01,12,2017,00,00*6A
2017-12-01 13:43:14 1512153794.698002: $GPGGA,184315,3946.9593,N,08404.9838,W,2,11,0.80,299.44,M,-33.324,M,,*77
2017-12-01 13:43:14 1512153794.698068: $GPRMC,184315,A,3946.9593,N,08404.9838,W,0.0000,0.000,011217,,*3D
2017-12-01 13:43:14 1512153794.698130: $GPGSA,A,3,10,14,15,18,20,21,24,27,32,8,138,,2.0,0.8,1.5*34
2017-12-01 13:43:15 1512153795.249965: $GPZDA,184316.00,01,12,2017,00,00*69
2017-12-01 13:43:15 1512153795.250136: $GPGGA,184316,3946.9593,N,08404.9838,W,2,11,1.00,299.44,M,-33.324,M,,*7D
2017-12-01 13:43:15 1512153795.250204: $GPRMC,184316,A,3946.9593,N,08404.9838,W,0.0000,0.000,011217,,*3E
2017-12-01 13:43:15 1512153795.250266: $GPGSA,A,3,10,14,15,18,20,21,24,27,32,8,138,,2.0,1.0,1.5*3D
2017-12-01 13:43:16 1512153796.255056: $GPZDA,184317.00,01,12,2017,00,00*68
2017-12-01 13:43:16 1512153796.255224: $GPGGA,184317,3946.9593,N,08404.9838,W,2,11,1.00,299.44,M,-33.324,M,,*7C
2017-12-01 13:43:16 1512153796.255292: $GPRMC,184317,A,3946.9593,N,08404.9838,W,0.0000,0.000,011217,,*3F
2017-12-01 13:43:16 1512153796.255355: $GPGSA,A,3,10,14,15,18,20,21,24,27,32,8,138,,2.0,1.0,1.5*3D
2017-12-01 13:43:17 1512153797.586049: $GPGSV,3,1,11,10,53,312,49,14,15,240,33,15,25,057,47,18,77,025,44*7A
2017-12-01 13:43:17 1512153797.586230: $GPGSV,3,2,11,20,23,106,47,21,48,183,45,24,53,085,48,27,15,276,38*73
2017-12-01 13:43:17 1512153797.586296: $GPGSV,3,3,11,32,32,249,44,08,08,310,00,138,38,213,47*76
2017-12-01 13:43:17 1512153797.699660: $GPZDA,184318.00,01,12,2017,00,00*67
2017-12-01 13:43:17 1512153797.699817: $GPGGA,184318,3946.9593,N,08404.9838,W,2,10,1.00,299.44,M,-33.324,M,,*72
2017-12-01 13:43:17 1512153797.699939: $GPRMC,184318,A,3946.9593,N,08404.9838,W,0.0000,0.000,011217,,*30
2017-12-01 13:43:17 1512153797.700003: $GPGSA,A,3,10,14,15,18,20,21,24,27,32,138,,,2.0,1.0,1.5*05
2017-12-01 13:43:18 1512153798.227313: $GPZDA,184319.00,01,12,2017,00,00*66
2017-12-01 13:43:18 1512153798.227489: $GPGGA,184319,3946.9593,N,08404.9838,W,2,10,0.80,299.44,M,-33.324,M,,*7A
2017-12-01 13:43:18 1512153798.227556: $GPRMC,184319,A,3946.9593,N,08404.9838,W,0.0000,0.000,011217,,*31
2017-12-01 13:43:18 1512153798.227618: $GPGSA,A,3,10,14,15,18,20,21,24,27,32,138,,,2.0,0.8,1.5*0C
2017-12-01 13:43:19 1512153799.229920: $GPZDA,184320.00,01,12,2017,00,00*6C
2017-12-01 13:43:19 1512153799.230094: $GPGGA,184320,3946.9593,N,08404.9838,W,2,10,0.80,299.44,M,-33.324,M,,*70
2017-12-01 13:43:19 1512153799.230160: $GPRMC,184320,A,3946.9593,N,08404.9838,W,0.0000,0.000,011217,,*3B
2017-12-01 13:43:19 1512153799.230223: $GPGSA,A,3,10,14,15,18,20,21,24,27,32,138,,,2.0,0.8,1.5*0C
2017-12-01 13:43:20 1512153800.566736: $GPGSV,3,1,11,10,53,312,49,14,15,240,32,15,25,057,47,18,77,025,44*7B
2017-12-01 13:43:20 1512153800.566919: $GPGSV,3,2,11,20,23,106,48,21,48,183,46,24,53,085,48,27,15,276,38*7F
2017-12-01 13:43:20 1512153800.566988: $GPGSV,3,3,11,32,32,249,44,08,08,310,30,138,38,213,47*75
2017-12-01 13:43:20 1512153800.680384: $GPZDA,184321.00,01,12,2017,00,00*6D
2017-12-01 13:43:20 1512153800.680531: $GPGGA,184321,3946.9593,N,08404.9838,W,2,11,0.80,299.44,M,-33.324,M,,*70
2017-12-01 13:43:20 1512153800.680598: $GPRMC,184321,A,3946.9593,N,08404.9838,W,0.0000,0.000,011217,,*3A
2017-12-01 13:43:20 1512153800.680659: $GPGSA,A,3,10,14,15,18,20,21,24,27,32,8,138,,2.0,0.8,1.5*34
