2017-12-31 16:47:01 1514756821.478247: {"class":"VERSION","release":"3.16","rev":"3.16-4","proto_major":3,"proto_minor":11}
2017-12-31 16:47:01 1514756821.478614: {"class":"DEVICES","devices":[{"class":"DEVICE","path":"/dev/ttyUSB0","driver":"SiRF","activated":"2017-12-31T21:47:01.460Z","flags":1,"native":1,"bps":4800,"parity":"N","stopbits":1,"cycle":1.00}]}
2017-12-31 16:47:01 1514756821.478736: {"class":"WATCH","enable":true,"json":false,"nmea":true,"raw":0,"scaled":false,"timing":false,"split24":false,"pps":false}
2017-12-31 16:47:02 1514756822.343742: $GPZDA,214703.00,31,12,2017,00,00*60
2017-12-31 16:47:02 1514756822.343965: $GPGGA,214703,3946.9576,N,08404.9848,W,2,11,0.80,303.18,M,-33.324,M,,*79
2017-12-31 16:47:02 1514756822.344034: $GPRMC,214703,A,3946.9576,N,08404.9848,W,0.0000,0.000,311217,,*3B
2017-12-31 16:47:02 1514756822.344096: $GPGSA,A,3,22,23,25,3,16,29,31,14,32,26,135,,1.7,0.8,1.3*32
2017-12-31 16:47:03 1514756823.697035: $GPGSV,3,1,11,22,48,250,45,23,21,306,43,25,08,037,35,03,45,283,32*76
2017-12-31 16:47:03 1514756823.697257: $GPGSV,3,2,11,16,37,189,47,29,13,063,22,31,56,043,52,14,47,106,46*76
2017-12-31 16:47:03 1514756823.697324: $GPGSV,3,3,11,32,25,117,44,26,67,160,42,135,22,240,44*7D
2017-12-31 16:47:03 1514756823.809446: $GPZDA,214704.00,31,12,2017,00,00*67
2017-12-31 16:47:03 1514756823.809592: $GPGGA,214704,3946.9576,N,08404.9848,W,2,11,0.80,303.18,M,-33.324,M,,*7E
2017-12-31 16:47:03 1514756823.809658: $GPRMC,214704,A,3946.9576,N,08404.9848,W,0.0000,0.000,311217,,*3C
2017-12-31 16:47:03 1514756823.809718: $GPGSA,A,3,22,23,25,3,16,29,31,14,32,26,135,,1.7,0.8,1.3*32
2017-12-31 16:47:04 1514756824.343944: $GPZDA,214705.00,31,12,2017,00,00*66
2017-12-31 16:47:04 1514756824.344113: $GPGGA,214705,3946.9576,N,08404.9848,W,2,11,0.80,303.18,M,-33.324,M,,*7F
2017-12-31 16:47:04 1514756824.344180: $GPRMC,214705,A,3946.9576,N,08404.9848,W,0.0000,0.000,311217,,*3D
2017-12-31 16:47:04 1514756824.344241: $GPGSA,A,3,22,23,25,3,16,29,31,14,32,26,135,,1.7,0.8,1.3*32
2017-12-31 16:47:05 1514756825.344330: $GPZDA,214706.00,31,12,2017,00,00*65
2017-12-31 16:47:05 1514756825.344501: $GPGGA,214706,3946.9576,N,08404.9848,W,2,11,0.80,303.18,M,-33.324,M,,*7C
2017-12-31 16:47:05 1514756825.344567: $GPRMC,214706,A,3946.9576,N,08404.9848,W,0.0000,0.000,311217,,*3E
2017-12-31 16:47:05 1514756825.344627: $GPGSA,A,3,22,23,25,3,16,29,31,14,32,26,135,,1.7,0.8,1.3*32
2017-12-31 16:47:06 1514756826.696038: $GPGSV,3,1,11,22,48,250,45,23,21,306,44,25,08,037,35,03,45,283,33*70
2017-12-31 16:47:06 1514756826.696217: $GPGSV,3,2,11,16,37,189,48,29,13,063,22,31,56,043,51,14,47,106,46*7A
2017-12-31 16:47:06 1514756826.696284: $GPGSV,3,3,11,32,25,117,44,26,67,160,42,135,22,240,43*7A
2017-12-31 16:47:06 1514756826.811592: $GPZDA,214707.00,31,12,2017,00,00*64
2017-12-31 16:47:06 1514756826.811935: $GPGGA,214707,3946.9576,N,08404.9848,W,2,11,0.80,303.18,M,-33.324,M,,*7D
2017-12-31 16:47:06 1514756826.812066: $GPRMC,214707,A,3946.9576,N,08404.9848,W,0.0000,0.000,311217,,*3F
2017-12-31 16:47:06 1514756826.812186: $GPGSA,A,3,22,23,25,3,16,29,31,14,32,26,135,,1.7,0.8,1.3*32
2017-12-31 16:47:07 1514756827.363388: $GPZDA,214708.00,31,12,2017,00,00*6B
2017-12-31 16:47:07 1514756827.363553: $GPGGA,214708,3946.9576,N,08404.9848,W,2,11,0.80,303.18,M,-33.324,M,,*72
2017-12-31 16:47:07 1514756827.363619: $GPRMC,214708,A,3946.9576,N,08404.9848,W,0.0000,0.000,311217,,*30
2017-12-31 16:47:07 1514756827.363679: $GPGSA,A,3,22,23,25,3,16,29,31,14,32,26,135,,1.7,0.8,1.3*32
2017-12-31 16:47:08 1514756828.338077: $GPZDA,214709.00,31,12,2017,00,00*6A
2017-12-31 16:47:08 1514756828.338251: $GPGGA,214709,3946.9576,N,08404.9848,W,2,11,0.80,303.18,M,-33.324,M,,*73
2017-12-31 16:47:08 1514756828.338319: $GPRMC,214709,A,3946.9576,N,08404.9848,W,0.0000,0.000,311217,,*31
2017-12-31 16:47:08 1514756828.338380: $GPGSA,A,3,22,23,25,3,16,29,31,14,32,26,135,,1.7,0.8,1.3*32
2017-12-31 16:47:09 1514756829.696562: $GPGSV,3,1,11,22,48,250,45,23,21,306,44,25,08,037,35,03,45,283,23*71
2017-12-31 16:47:09 1514756829.696762: $GPGSV,3,2,11,16,37,189,48,29,13,063,23,31,56,043,52,14,47,106,46*78
2017-12-31 16:47:09 1514756829.696902: $GPGSV,3,3,11,32,25,117,44,26,67,160,42,135,22,240,44*7D
2017-12-31 16:47:09 1514756829.810115: $GPZDA,214710.00,31,12,2017,00,00*62
2017-12-31 16:47:09 1514756829.810309: $GPGGA,214710,3946.9576,N,08404.9848,W,2,11,0.80,303.18,M,-33.324,M,,*7B
2017-12-31 16:47:09 1514756829.810378: $GPRMC,214710,A,3946.9576,N,08404.9848,W,0.0000,0.000,311217,,*39
2017-12-31 16:47:09 1514756829.810439: $GPGSA,A,3,22,23,25,3,16,29,31,14,32,26,135,,1.7,0.8,1.3*32
2017-12-31 16:47:10 1514756830.435419: $GPZDA,214711.00,31,12,2017,00,00*63
2017-12-31 16:47:10 1514756830.435592: $GPGGA,214711,3946.9576,N,08404.9848,W,2,11,0.80,303.18,M,-33.324,M,,*7A
2017-12-31 16:47:10 1514756830.435660: $GPRMC,214711,A,3946.9576,N,08404.9848,W,0.0000,0.000,311217,,*38
2017-12-31 16:47:10 1514756830.435721: $GPGSA,A,3,22,23,25,3,16,29,31,14,32,26,135,,1.7,0.8,1.3*32
2017-12-31 16:47:11 1514756831.343710: $GPZDA,214712.00,31,12,2017,00,00*60
2017-12-31 16:47:11 1514756831.343884: $GPGGA,214712,3946.9576,N,08404.9848,W,2,11,0.80,303.18,M,-33.324,M,,*79
2017-12-31 16:47:11 1514756831.343950: $GPRMC,214712,A,3946.9576,N,08404.9848,W,0.0000,0.000,311217,,*3B
2017-12-31 16:47:11 1514756831.344011: $GPGSA,A,3,22,23,25,3,16,29,31,14,32,26,135,,1.7,0.8,1.3*32
2017-12-31 16:47:12 1514756832.679354: $GPGSV,3,1,11,22,48,250,45,23,21,306,43,25,08,037,34,03,45,283,20*74
2017-12-31 16:47:12 1514756832.679538: $GPGSV,3,2,11,16,37,189,48,29,13,063,10,31,56,043,52,14,47,106,46*78
2017-12-31 16:47:12 1514756832.679604: $GPGSV,3,3,11,32,25,117,44,26,67,160,42,135,22,240,43*7A
2017-12-31 16:47:12 1514756832.793164: $GPZDA,214713.00,31,12,2017,00,00*61
2017-12-31 16:47:12 1514756832.793370: $GPGGA,214713,3946.9576,N,08404.9848,W,2,11,0.80,303.18,M,-33.324,M,,*78
2017-12-31 16:47:12 1514756832.793437: $GPRMC,214713,A,3946.9576,N,08404.9848,W,0.0000,0.000,311217,,*3A
2017-12-31 16:47:12 1514756832.793498: $GPGSA,A,3,22,23,25,3,16,29,31,14,32,26,135,,1.7,0.8,1.3*32
2017-12-31 16:47:13 1514756833.361341: $GPZDA,214714.00,31,12,2017,00,00*66
2017-12-31 16:47:13 1514756833.361509: $GPGGA,214714,3946.9576,N,08404.9848,W,2,11,0.80,303.18,M,-33.324,M,,*7F
2017-12-31 16:47:13 1514756833.361576: $GPRMC,214714,A,3946.9576,N,08404.9848,W,0.0000,0.000,311217,,*3D
2017-12-31 16:47:13 1514756833.361636: $GPGSA,A,3,22,23,25,3,16,29,31,14,32,26,135,,1.7,0.8,1.3*32
2017-12-31 16:47:14 1514756834.360838: $GPZDA,214715.00,31,12,2017,00,00*67
2017-12-31 16:47:14 1514756834.361009: $GPGGA,214715,3946.9576,N,08404.9848,W,2,11,0.80,303.18,M,-33.324,M,,*7E
2017-12-31 16:47:14 1514756834.361076: $GPRMC,214715,A,3946.9576,N,08404.9848,W,0.0000,0.000,311217,,*3C
2017-12-31 16:47:14 1514756834.361137: $GPGSA,A,3,22,23,25,3,16,29,31,14,32,26,135,,1.7,0.8,1.3*32
2017-12-31 16:47:15 1514756835.679682: $GPGSV,3,1,11,22,48,250,45,23,21,306,43,25,08,037,34,03,45,283,28*7C
2017-12-31 16:47:15 1514756835.679866: $GPGSV,3,2,11,16,37,189,48,29,13,063,17,31,56,043,52,14,47,106,46*7F
2017-12-31 16:47:15 1514756835.679932: $GPGSV,3,3,11,32,25,117,44,26,67,160,43,135,22,240,42*7A
2017-12-31 16:47:15 1514756835.793192: $GPZDA,214716.00,31,12,2017,00,00*64
2017-12-31 16:47:15 1514756835.793361: $GPGGA,214716,3946.9576,N,08404.9848,W,2,11,0.80,303.18,M,-33.324,M,,*7D
2017-12-31 16:47:15 1514756835.793427: $GPRMC,214716,A,3946.9576,N,08404.9848,W,0.0000,0.000,311217,,*3F
2017-12-31 16:47:15 1514756835.793487: $GPGSA,A,3,22,23,25,3,16,29,31,14,32,26,135,,1.7,0.8,1.3*32
2017-12-31 16:47:16 1514756836.360358: $GPZDA,214717.00,31,12,2017,00,00*65
2017-12-31 16:47:16 1514756836.360525: $GPGGA,214717,3946.9576,N,08404.9848,W,2,11,0.80,303.18,M,-33.324,M,,*7C
2017-12-31 16:47:16 1514756836.360592: $GPRMC,214717,A,3946.9576,N,08404.9848,W,0.0000,0.000,311217,,*3E
2017-12-31 16:47:16 1514756836.360652: $GPGSA,A,3,22,23,25,3,16,29,31,14,32,26,135,,1.7,0.8,1.3*32
2017-12-31 16:47:17 1514756837.344960: $GPZDA,214718.00,31,12,2017,00,00*6A
2017-12-31 16:47:17 1514756837.345123: $GPGGA,214718,3946.9576,N,08404.9848,W,2,11,0.80,303.18,M,-33.324,M,,*73
2017-12-31 16:47:17 1514756837.345233: $GPRMC,214718,A,3946.9576,N,08404.9848,W,0.0000,0.000,311217,,*31
2017-12-31 16:47:17 1514756837.345295: $GPGSA,A,3,22,23,25,3,16,29,31,14,32,26,135,,1.7,0.8,1.3*32
2017-12-31 16:47:18 1514756838.680538: $GPGSV,3,1,11,22,48,250,45,23,21,306,43,25,08,037,33,03,45,283,31*73
2017-12-31 16:47:18 1514756838.680709: $GPGSV,3,2,11,16,37,189,48,29,13,063,19,31,56,043,52,14,47,106,46*71
2017-12-31 16:47:18 1514756838.680774: $GPGSV,3,3,11,32,25,117,45,26,67,160,42,135,22,240,44*7C
2017-12-31 16:47:18 1514756838.794073: $GPZDA,214719.00,31,12,2017,00,00*6B
2017-12-31 16:47:18 1514756838.794236: $GPGGA,214719,3946.9576,N,08404.9848,W,2,11,0.80,303.18,M,-33.324,M,,*72
2017-12-31 16:47:18 1514756838.794301: $GPRMC,214719,A,3946.9576,N,08404.9848,W,0.0000,0.000,311217,,*30
2017-12-31 16:47:18 1514756838.794362: $GPGSA,A,3,22,23,25,3,16,29,31,14,32,26,135,,1.7,0.8,1.3*32
2017-12-31 16:47:19 1514756839.362586: $GPZDA,214720.00,31,12,2017,00,00*61
2017-12-31 16:47:19 1514756839.362774: $GPGGA,214720,3946.9576,N,08404.9848,W,2,11,0.80,303.18,M,-33.324,M,,*78
2017-12-31 16:47:19 1514756839.362843: $GPRMC,214720,A,3946.9576,N,08404.9848,W,0.0000,0.000,311217,,*3A
2017-12-31 16:47:19 1514756839.362905: $GPGSA,A,3,22,23,25,3,16,29,31,14,32,26,135,,1.7,0.8,1.3*32
2017-12-31 16:47:20 1514756840.344389: $GPZDA,214721.00,31,12,2017,00,00*60
2017-12-31 16:47:20 1514756840.344553: $GPGGA,214721,3946.9576,N,08404.9848,W,2,11,0.80,303.18,M,-33.324,M,,*79
2017-12-31 16:47:20 1514756840.344621: $GPRMC,214721,A,3946.9576,N,08404.9848,W,0.0000,0.000,311217,,*3B
2017-12-31 16:47:20 1514756840.344686: $GPGSA,A,3,22,23,25,3,16,29,31,14,32,26,135,,1.7,0.8,1.3*32
