2018-01-11 20:01:26 1515718886.135283: {"class":"VERSION","release":"3.16","rev":"3.16-4","proto_major":3,"proto_minor":11}
2018-01-11 20:01:26 1515718886.135629: {"class":"DEVICES","devices":[{"class":"DEVICE","path":"/dev/ttyUSB0","driver":"SiRF","subtype":"9\u0006GSD4e_4.1.2-P1_RPATCH.05-F-GPS-4R-1510281 11/03/2015 307","activated":"2018-01-12T01:01:25.539Z","flags":1,"native":1,"bps":4800,"parity":"N","stopbits":1,"cycle":1.00}]}
2018-01-11 20:01:26 1515718886.135745: {"class":"WATCH","enable":true,"json":false,"nmea":true,"raw":0,"scaled":false,"timing":false,"split24":false,"pps":false}
2018-01-11 20:01:26 1515718886.761358: $GPGSV,3,1,11,07,51,313,41,08,70,145,46,09,51,235,42,11,16,169,42*71
2018-01-11 20:01:26 1515718886.761521: $GPGSV,3,2,11,16,26,057,47,23,34,192,45,27,51,057,50,28,11,255,37*7D
2018-01-11 20:01:26 1515718886.761585: $GPGSV,3,3,11,30,25,304,38,26,02,070,02,138,38,213,45*72
2018-01-11 20:01:26 1515718886.874808: $GPZDA,010127.00,12,01,2018,00,00*6A
2018-01-11 20:01:26 1515718886.874945: $GPGGA,010127,3946.9597,N,08404.9822,W,2,10,0.80,309.50,M,-33.324,M,,*7B
2018-01-11 20:01:26 1515718886.875009: $GPRMC,010127,A,3946.9597,N,08404.9822,W,0.0000,0.000,120118,,*32
2018-01-11 20:01:26 1515718886.875069: $GPGSA,A,3,7,8,9,11,16,23,27,28,30,138,,,4.0,0.8,3.5*3E
2018-01-11 20:01:27 1515718887.415596: $GPZDA,010128.00,12,01,2018,00,00*65
2018-01-11 20:01:27 1515718887.415749: $GPGGA,010128,3946.9597,N,08404.9822,W,2,10,0.80,309.50,M,-33.324,M,,*74
2018-01-11 20:01:27 1515718887.415816: $GPRMC,010128,A,3946.9597,N,08404.9822,W,0.0000,0.000,120118,,*3D
2018-01-11 20:01:27 1515718887.415876: $GPGSA,A,3,7,8,9,11,16,23,27,28,30,138,,,4.0,0.8,3.5*3E
2018-01-11 20:01:28 1515718888.415211: $GPZDA,010129.00,12,01,2018,00,00*64
2018-01-11 20:01:28 1515718888.415375: $GPGGA,010129,3946.9597,N,08404.9822,W,2,10,0.80,309.50,M,-33.324,M,,*75
2018-01-11 20:01:28 1515718888.415441: $GPRMC,010129,A,3946.9597,N,08404.9822,W,0.0000,0.000,120118,,*3C
2018-01-11 20:01:28 1515718888.415501: $GPGSA,A,3,7,8,9,11,16,23,27,28,30,138,,,4.0,0.8,3.5*3E
2018-01-11 20:01:29 1515718889.750447: $GPGSV,3,1,11,07,51,313,41,08,70,145,46,09,51,235,42,11,16,169,41*72
2018-01-11 20:01:29 1515718889.750615: $GPGSV,3,2,11,16,26,057,47,23,34,192,45,27,51,057,50,28,11,255,37*7D
2018-01-11 20:01:29 1515718889.750681: $GPGSV,3,3,11,30,25,304,38,26,02,070,00,138,38,213,45*70
2018-01-11 20:01:29 1515718889.863785: $GPZDA,010130.00,12,01,2018,00,00*6C
2018-01-11 20:01:29 1515718889.863901: $GPGGA,010130,3946.9597,N,08404.9822,W,2,10,0.80,309.50,M,-33.324,M,,*7D
2018-01-11 20:01:29 1515718889.863967: $GPRMC,010130,A,3946.9597,N,08404.9822,W,0.0000,0.000,120118,,*34
2018-01-11 20:01:29 1515718889.864027: $GPGSA,A,3,7,8,9,11,16,23,27,28,30,138,,,4.0,0.8,3.5*3E
2018-01-11 20:01:30 1515718890.418575: $GPZDA,010131.00,12,01,2018,00,00*6D
2018-01-11 20:01:30 1515718890.418740: $GPGGA,010131,3946.9597,N,08404.9822,W,2,10,0.80,309.50,M,-33.324,M,,*7C
2018-01-11 20:01:30 1515718890.418806: $GPRMC,010131,A,3946.9597,N,08404.9822,W,0.0000,0.000,120118,,*35
2018-01-11 20:01:30 1515718890.418867: $GPGSA,A,3,7,8,9,11,16,23,27,28,30,138,,,4.0,0.8,3.5*3E
2018-01-11 20:01:31 1515718891.399743: $GPZDA,010132.00,12,01,2018,00,00*6E
2018-01-11 20:01:31 1515718891.399892: $GPGGA,010132,3946.9597,N,08404.9822,W,2,10,0.80,309.50,M,-33.324,M,,*7F
2018-01-11 20:01:31 1515718891.399957: $GPRMC,010132,A,3946.9597,N,08404.9822,W,0.0000,0.000,120118,,*36
2018-01-11 20:01:31 1515718891.400017: $GPGSA,A,3,7,8,9,11,16,23,27,28,30,138,,,4.0,0.8,3.5*3E
2018-01-11 20:01:32 1515718892.728787: $GPGSV,3,1,11,07,51,313,41,08,70,145,46,09,51,235,42,11,16,169,41*72
2018-01-11 20:01:32 1515718892.728949: $GPGSV,3,2,11,16,26,057,47,23,34,192,45,27,51,057,50,28,11,255,38*72
2018-01-11 20:01:32 1515718892.729013: $GPGSV,3,3,11,30,25,304,38,26,02,070,00,138,38,213,45*70
2018-01-11 20:01:32 1515718892.842130: $GPZDA,010133.00,12,01,2018,00,00*6F
2018-01-11 20:01:32 1515718892.842243: $GPGGA,010133,3946.9597,N,08404.9822,W,2,10,0.80,309.50,M,-33.324,M,,*7E
2018-01-11 20:01:32 1515718892.842308: $GPRMC,010133,A,3946.9597,N,08404.9822,W,0.0000,0.000,120118,,*37
2018-01-11 20:01:32 1515718892.842424: $GPGSA,A,3,7,8,9,11,16,23,27,28,30,138,,,4.0,0.8,3.5*3E
2018-01-11 20:01:33 1515718893.399332: $GPZDA,010134.00,12,01,2018,00,00*68
2018-01-11 20:01:33 1515718893.399507: $GPGGA,010134,3946.9593,N,08404.9822,W,2,10,0.80,308.86,M,-33.324,M,,*77
2018-01-11 20:01:33 1515718893.399574: $GPRMC,010134,A,3946.9593,N,08404.9822,W,0.0000,0.000,120118,,*34
2018-01-11 20:01:33 1515718893.399635: $GPGSA,A,3,7,8,9,11,16,23,27,28,30,138,,,4.0,0.8,3.5*3E
2018-01-11 20:01:34 1515718894.416167: $GPZDA,010135.00,12,01,2018,00,00*69
2018-01-11 20:01:34 1515718894.416331: $GPGGA,010135,3946.9593,N,08404.9822,W,2,10,0.80,308.86,M,-33.324,M,,*76
2018-01-11 20:01:34 1515718894.416397: $GPRMC,010135,A,3946.9593,N,08404.9822,W,0.0000,0.000,120118,,*35
2018-01-11 20:01:34 1515718894.416458: $GPGSA,A,3,7,8,9,11,16,23,27,28,30,138,,,4.0,0.8,3.5*3E
2018-01-11 20:01:35 1515718895.735376: $GPGSV,3,1,11,07,51,313,42,08,70,145,46,09,51,235,42,11,16,169,41*71
2018-01-11 20:01:35 1515718895.735534: $GPGSV,3,2,11,16,26,057,47,23,34,192,45,27,51,057,50,28,11,255,37*7D
2018-01-11 20:01:35 1515718895.735600: $GPGSV,3,3,11,30,25,304,38,26,02,070,00,138,38,213,45*70
2018-01-11 20:01:35 1515718895.849082: $GPZDA,010136.00,12,01,2018,00,00*6A
2018-01-11 20:01:35 1515718895.849234: $GPGGA,010136,3946.9593,N,08404.9822,W,2,10,0.80,308.86,M,-33.324,M,,*75
2018-01-11 20:01:35 1515718895.849298: $GPRMC,010136,A,3946.9593,N,08404.9822,W,0.0000,0.000,120118,,*36
2018-01-11 20:01:35 1515718895.849357: $GPGSA,A,3,7,8,9,11,16,23,27,28,30,138,,,4.0,0.8,3.5*3E
