2017-11-16 13:30:21 1510857021.027860: {"class":"VERSION","release":"3.17","rev":"3.17","proto_major":3,"proto_minor":12}
2017-11-16 13:30:21 1510857021.028297: {"class":"DEVICES","devices":[{"class":"DEVICE","path":"/dev/ttyUSB0","driver":"SiRF","subtype":"9\u0006GSD4e_4.1.2-P1_RPATCH.05-F-GPS-4R-1510281 11/03/2015 307","activated":"2017-11-16T18:30:20.398Z","flags":1,"native":1,"bps":4800,"parity":"N","stopbits":1,"cycle":1.00}]}
2017-11-16 13:30:21 1510857021.028417: {"class":"WATCH","enable":true,"json":false,"nmea":true,"raw":0,"scaled":false,"timing":false,"split24":false,"pps":false}
2017-11-16 13:30:21 1510857021.600334: $GPGSV,3,1,12,10,27,286,42,13,24,045,45,15,56,049,50,18,58,306,46*7E
2017-11-16 13:30:21 1510857021.600547: $GPGSV,3,2,12,20,47,078,48,21,78,244,46,24,38,135,45,27,18,309,43*7F
2017-11-16 13:30:21 1510857021.600631: $GPGSV,3,3,12,29,05,187,25,05,01,090,25,32,05,228,16,138,38,213,45*4C
2017-11-16 13:30:21 1510857021.713974: $GPZDA,183020.00,16,11,2017,00,00*6D
2017-11-16 13:30:21 1510857021.714135: $GPGGA,183020,3946.9611,N,08404.9839,W,2,12,0.80,304.80,M,-33.324,M,,*73
2017-11-16 13:30:21 1510857021.714196: $GPRMC,183020,A,3946.9611,N,08404.9839,W,0.0000,0.000,161117,,*32
2017-11-16 13:30:21 1510857021.714252: $GPGSA,A,3,10,13,15,18,20,21,24,27,29,5,32,138,1.6,0.8,1.3*36
2017-11-16 13:30:22 1510857022.287205: $GPZDA,183021.00,16,11,2017,00,00*6C
2017-11-16 13:30:22 1510857022.287363: $GPGGA,183021,3946.9611,N,08404.9839,W,2,12,0.80,304.80,M,-33.324,M,,*72
2017-11-16 13:30:22 1510857022.287423: $GPRMC,183021,A,3946.9611,N,08404.9839,W,0.0000,0.000,161117,,*33
2017-11-16 13:30:22 1510857022.287479: $GPGSA,A,3,10,13,15,18,20,21,24,27,29,5,32,138,1.6,0.8,1.3*36
2017-11-16 13:30:23 1510857023.287003: $GPZDA,183022.00,16,11,2017,00,00*6F
2017-11-16 13:30:23 1510857023.287163: $GPGGA,183022,3946.9611,N,08404.9839,W,2,12,0.80,304.80,M,-33.324,M,,*71
2017-11-16 13:30:23 1510857023.287224: $GPRMC,183022,A,3946.9611,N,08404.9839,W,0.0000,0.000,161117,,*30
2017-11-16 13:30:23 1510857023.287280: $GPGSA,A,3,10,13,15,18,20,21,24,27,29,5,32,138,1.6,0.8,1.3*36
2017-11-16 13:30:24 1510857024.599785: $GPGSV,3,1,12,10,27,286,44,13,24,045,45,15,56,049,50,18,58,306,46*78
2017-11-16 13:30:24 1510857024.599964: $GPGSV,3,2,12,20,47,078,48,21,78,244,46,24,38,135,44,27,18,309,43*7E
2017-11-16 13:30:24 1510857024.600027: $GPGSV,3,3,12,29,05,187,25,05,01,090,27,32,05,228,23,138,38,213,46*4B
2017-11-16 13:30:24 1510857024.713342: $GPZDA,183023.00,16,11,2017,00,00*6E
2017-11-16 13:30:24 1510857024.713502: $GPGGA,183023,3946.9611,N,08404.9839,W,2,12,0.80,304.80,M,-33.324,M,,*70
2017-11-16 13:30:24 1510857024.713563: $GPRMC,183023,A,3946.9611,N,08404.9839,W,0.0000,0.000,161117,,*31
2017-11-16 13:30:24 1510857024.713618: $GPGSA,A,3,10,13,15,18,20,21,24,27,29,5,32,138,1.6,0.8,1.3*36
2017-11-16 13:30:25 1510857025.338704: $GPZDA,183024.00,16,11,2017,00,00*69
2017-11-16 13:30:25 1510857025.338867: $GPGGA,183024,3946.9611,N,08404.9839,W,2,12,0.80,304.80,M,-33.324,M,,*77
2017-11-16 13:30:25 1510857025.338927: $GPRMC,183024,A,3946.9611,N,08404.9839,W,0.0000,0.000,161117,,*36
2017-11-16 13:30:25 1510857025.338983: $GPGSA,A,3,10,13,15,18,20,21,24,27,29,5,32,138,1.6,0.8,1.3*36
2017-11-16 13:30:26 1510857026.280802: $GPZDA,183025.00,16,11,2017,00,00*68
2017-11-16 13:30:26 1510857026.280965: $GPGGA,183025,3946.9611,N,08404.9839,W,2,12,1.20,304.80,M,-33.324,M,,*7D
2017-11-16 13:30:26 1510857026.281025: $GPRMC,183025,A,3946.9611,N,08404.9839,W,0.0000,0.000,161117,,*37
2017-11-16 13:30:26 1510857026.281081: $GPGSA,A,3,10,13,15,18,20,21,24,27,29,5,32,138,1.6,1.2,1.3*3D
2017-11-16 13:30:27 1510857027.600000: $GPGSV,3,1,12,10,27,286,44,13,24,045,45,15,56,049,50,18,58,306,46*78
2017-11-16 13:30:27 1510857027.600168: $GPGSV,3,2,12,20,47,078,48,21,78,244,46,24,38,135,44,27,18,309,42*7F
2017-11-16 13:30:27 1510857027.600228: $GPGSV,3,3,12,29,05,187,20,05,01,090,20,32,05,228,24,138,38,213,45*4D
2017-11-16 13:30:27 1510857027.713560: $GPZDA,183026.00,16,11,2017,00,00*6B
2017-11-16 13:30:27 1510857027.713721: $GPGGA,183026,3946.9611,N,08404.9839,W,2,12,0.80,304.80,M,-33.324,M,,*75
2017-11-16 13:30:27 1510857027.713832: $GPRMC,183026,A,3946.9611,N,08404.9839,W,0.0000,0.000,161117,,*34
2017-11-16 13:30:27 1510857027.713890: $GPGSA,A,3,10,13,15,18,20,21,24,27,29,5,32,138,1.6,0.8,1.3*36
2017-11-16 13:30:28 1510857028.285393: $GPZDA,183027.00,16,11,2017,00,00*6A
2017-11-16 13:30:28 1510857028.285567: $GPGGA,183027,3946.9611,N,08404.9839,W,2,12,1.20,304.80,M,-33.324,M,,*7F
2017-11-16 13:30:28 1510857028.285629: $GPRMC,183027,A,3946.9611,N,08404.9839,W,0.0000,0.000,161117,,*35
2017-11-16 13:30:28 1510857028.285684: $GPGSA,A,3,10,13,15,18,20,21,24,27,29,5,32,138,1.6,1.2,1.3*3D
2017-11-16 13:30:29 1510857029.293834: $GPZDA,183028.00,16,11,2017,00,00*65
2017-11-16 13:30:29 1510857029.293997: $GPGGA,183028,3946.9611,N,08404.9839,W,2,12,1.20,304.80,M,-33.324,M,,*70
2017-11-16 13:30:29 1510857029.294059: $GPRMC,183028,A,3946.9611,N,08404.9839,W,0.0000,0.000,161117,,*3A
2017-11-16 13:30:29 1510857029.294115: $GPGSA,A,3,10,13,15,18,20,21,24,27,29,5,32,138,1.6,1.2,1.3*3D
2017-11-16 13:30:30 1510857030.600380: $GPGSV,3,1,12,10,27,286,43,13,24,045,45,15,56,049,50,18,58,306,45*7C
2017-11-16 13:30:30 1510857030.600551: $GPGSV,3,2,12,20,47,078,48,21,78,244,46,24,38,135,44,27,18,309,42*7F
2017-11-16 13:30:30 1510857030.600610: $GPGSV,3,3,12,29,05,187,22,05,01,090,22,32,05,228,26,138,38,213,44*4E
2017-11-16 13:30:30 1510857030.713650: $GPZDA,183029.00,16,11,2017,00,00*64
2017-11-16 13:30:30 1510857030.713807: $GPGGA,183029,3946.9611,N,08404.9839,W,2,12,0.80,304.80,M,-33.324,M,,*7A
2017-11-16 13:30:30 1510857030.713867: $GPRMC,183029,A,3946.9611,N,08404.9839,W,0.0000,0.000,161117,,*3B
2017-11-16 13:30:30 1510857030.713923: $GPGSA,A,3,10,13,15,18,20,21,24,27,29,5,32,138,1.6,0.8,1.3*36
2017-11-16 13:30:31 1510857031.264587: $GPZDA,183030.00,16,11,2017,00,00*6C
2017-11-16 13:30:31 1510857031.264736: $GPGGA,183030,3946.9611,N,08404.9839,W,2,12,0.80,304.80,M,-33.324,M,,*72
2017-11-16 13:30:31 1510857031.264796: $GPRMC,183030,A,3946.9611,N,08404.9839,W,0.0000,0.000,161117,,*33
2017-11-16 13:30:31 1510857031.264852: $GPGSA,A,3,10,13,15,18,20,21,24,27,29,5,32,138,1.6,0.8,1.3*36
2017-11-16 13:30:32 1510857032.257879: $GPZDA,183031.00,16,11,2017,00,00*6D
2017-11-16 13:30:32 1510857032.258058: $GPGGA,183031,3946.9611,N,08404.9839,W,2,12,0.80,304.80,M,-33.324,M,,*73
2017-11-16 13:30:32 1510857032.258119: $GPRMC,183031,A,3946.9611,N,08404.9839,W,0.0000,0.000,161117,,*32
2017-11-16 13:30:32 1510857032.258175: $GPGSA,A,3,10,13,15,18,20,21,24,27,29,5,32,138,1.6,0.8,1.3*36
2017-11-16 13:30:33 1510857033.599830: $GPGSV,3,1,12,10,27,286,42,13,24,045,45,15,56,049,50,18,58,306,46*7E
2017-11-16 13:30:33 1510857033.599978: $GPGSV,3,2,12,20,47,078,48,21,78,244,46,24,38,135,44,27,18,309,42*7F
2017-11-16 13:30:33 1510857033.600038: $GPGSV,3,3,12,29,05,187,21,05,01,090,24,32,05,228,28,138,38,213,45*44
2017-11-16 13:30:33 1510857033.713047: $GPZDA,183032.00,16,11,2017,00,00*6E
2017-11-16 13:30:33 1510857033.713172: $GPGGA,183032,3946.9611,N,08404.9839,W,2,12,0.80,304.80,M,-33.324,M,,*70
2017-11-16 13:30:33 1510857033.713231: $GPRMC,183032,A,3946.9611,N,08404.9839,W,0.0000,0.000,161117,,*31
2017-11-16 13:30:33 1510857033.713286: $GPGSA,A,3,10,13,15,18,20,21,24,27,29,5,32,138,1.6,0.8,1.3*36
2017-11-16 13:30:34 1510857034.286504: $GPZDA,183033.00,16,11,2017,00,00*6F
2017-11-16 13:30:34 1510857034.286664: $GPGGA,183033,3946.9611,N,08404.9839,W,2,12,0.80,304.80,M,-33.324,M,,*71
2017-11-16 13:30:34 1510857034.286724: $GPRMC,183033,A,3946.9611,N,08404.9839,W,0.0000,0.000,161117,,*30
2017-11-16 13:30:34 1510857034.286780: $GPGSA,A,3,10,13,15,18,20,21,24,27,29,5,32,138,1.6,0.8,1.3*36
2017-11-16 13:30:35 1510857035.263055: $GPZDA,183034.00,16,11,2017,00,00*68
2017-11-16 13:30:35 1510857035.263224: $GPGGA,183034,3946.9611,N,08404.9839,W,2,12,0.80,304.80,M,-33.324,M,,*76
2017-11-16 13:30:35 1510857035.263286: $GPRMC,183034,A,3946.9611,N,08404.9839,W,0.0000,0.000,161117,,*37
2017-11-16 13:30:35 1510857035.263343: $GPGSA,A,3,10,13,15,18,20,21,24,27,29,5,32,138,1.6,0.8,1.3*36
