2017-12-01 12:11:23 1512148283.453337: {"class":"VERSION","release":"3.16","rev":"3.16-4","proto_major":3,"proto_minor":11}
2017-12-01 12:11:23 1512148283.453771: {"class":"DEVICES","devices":[{"class":"DEVICE","path":"/dev/ttyUSB0","driver":"SiRF","subtype":"9\u0006GSD4e_4.1.2-P1_RPATCH.05-F-GPS-4R-1510281 11/03/2015 307","activated":"2017-12-01T17:11:23.387Z","flags":1,"native":1,"bps":4800,"parity":"N","stopbits":1,"cycle":1.00}]}
2017-12-01 12:11:23 1512148283.453897: {"class":"WATCH","enable":true,"json":false,"nmea":true,"raw":0,"scaled":false,"timing":false,"split24":false,"pps":false}
2017-12-01 12:11:24 1512148284.682477: $GPGSV,3,1,12,10,21,280,38,13,32,046,45,15,64,052,43,18,52,297,45*7E
2017-12-01 12:11:24 1512148284.682692: $GPGSV,3,2,12,20,54,069,46,21,77,280,44,24,31,141,44,27,15,315,40*7E
2017-12-01 12:11:24 1512148284.682773: $GPGSV,3,3,12,29,12,190,34,05,05,085,04,04,02,135,00,138,38,213,46*46
2017-12-01 12:11:24 1512148284.795710: $GPZDA,171125.00,01,12,2017,00,00*61
2017-12-01 12:11:24 1512148284.795892: $GPGGA,171125,3946.9589,N,08404.9845,W,2,10,0.80,298.72,M,-33.324,M,,*78
2017-12-01 12:11:24 1512148284.795961: $GPRMC,171125,A,3946.9589,N,08404.9845,W,0.0000,0.000,011217,,*37
2017-12-01 12:11:24 1512148284.796022: $GPGSA,A,3,10,13,15,18,20,21,24,27,29,138,,,2.0,0.8,1.5*01
2017-12-01 12:11:25 1512148285.354083: $GPZDA,171126.00,01,12,2017,00,00*62
2017-12-01 12:11:25 1512148285.354252: $GPGGA,171126,3946.9589,N,08404.9845,W,2,10,0.80,298.72,M,-33.324,M,,*7B
2017-12-01 12:11:25 1512148285.354319: $GPRMC,171126,A,3946.9589,N,08404.9845,W,0.0000,0.000,011217,,*34
2017-12-01 12:11:25 1512148285.354380: $GPGSA,A,3,10,13,15,18,20,21,24,27,29,138,,,2.0,0.8,1.5*01
2017-12-01 12:11:26 1512148286.345665: $GPZDA,171127.00,01,12,2017,00,00*63
2017-12-01 12:11:26 1512148286.345851: $GPGGA,171127,3946.9589,N,08404.9845,W,2,10,0.80,298.72,M,-33.324,M,,*7A
2017-12-01 12:11:26 1512148286.345918: $GPRMC,171127,A,3946.9589,N,08404.9845,W,0.0000,0.000,011217,,*35
2017-12-01 12:11:26 1512148286.345979: $GPGSA,A,3,10,13,15,18,20,21,24,27,29,138,,,2.0,0.8,1.5*01
2017-12-01 12:11:27 1512148287.682668: $GPGSV,3,1,12,10,21,280,38,13,32,046,44,15,64,052,44,18,52,297,45*78
2017-12-01 12:11:27 1512148287.682854: $GPGSV,3,2,12,20,54,069,46,21,77,280,44,24,31,141,44,27,15,315,39*70
2017-12-01 12:11:27 1512148287.682920: $GPGSV,3,3,12,29,12,190,34,05,05,085,04,04,02,135,00,138,38,213,46*46
2017-12-01 12:11:27 1512148287.796344: $GPZDA,171128.00,01,12,2017,00,00*6C
2017-12-01 12:11:27 1512148287.796466: $GPGGA,171128,3946.9589,N,08404.9845,W,2,10,0.80,298.72,M,-33.324,M,,*75
2017-12-01 12:11:27 1512148287.796530: $GPRMC,171128,A,3946.9589,N,08404.9845,W,0.0000,0.000,011217,,*3A
2017-12-01 12:11:27 1512148287.796590: $GPGSA,A,3,10,13,15,18,20,21,24,27,29,138,,,2.0,0.8,1.5*01
2017-12-01 12:11:28 1512148288.347271: $GPZDA,171129.00,01,12,2017,00,00*6D
2017-12-01 12:11:28 1512148288.347440: $GPGGA,171129,3946.9589,N,08404.9845,W,2,10,0.80,298.72,M,-33.324,M,,*74
2017-12-01 12:11:28 1512148288.347506: $GPRMC,171129,A,3946.9589,N,08404.9845,W,0.0000,0.000,011217,,*3B
2017-12-01 12:11:28 1512148288.347567: $GPGSA,A,3,10,13,15,18,20,21,24,27,29,138,,,2.0,0.8,1.5*01
2017-12-01 12:11:29 1512148289.346963: $GPZDA,171130.00,01,12,2017,00,00*65
2017-12-01 12:11:29 1512148289.347132: $GPGGA,171130,3946.9589,N,08404.9845,W,2,10,0.80,298.72,M,-33.324,M,,*7C
2017-12-01 12:11:29 1512148289.347199: $GPRMC,171130,A,3946.9589,N,08404.9845,W,0.0000,0.000,011217,,*33
2017-12-01 12:11:29 1512148289.347260: $GPGSA,A,3,10,13,15,18,20,21,24,27,29,138,,,2.0,0.8,1.5*01
2017-12-01 12:11:30 1512148290.682263: $GPGSV,3,1,12,10,21,280,39,13,32,046,44,15,64,052,44,18,52,297,45*79
2017-12-01 12:11:30 1512148290.682446: $GPGSV,3,2,12,20,54,069,46,21,77,280,44,24,31,141,44,27,15,315,39*70
2017-12-01 12:11:30 1512148290.682513: $GPGSV,3,3,12,29,12,190,33,05,05,085,04,04,02,135,00,138,38,213,46*41
2017-12-01 12:11:30 1512148290.795645: $GPZDA,171131.00,01,12,2017,00,00*64
2017-12-01 12:11:30 1512148290.795824: $GPGGA,171131,3946.9589,N,08404.9845,W,2,10,0.80,298.72,M,-33.324,M,,*7D
2017-12-01 12:11:30 1512148290.795945: $GPRMC,171131,A,3946.9589,N,08404.9845,W,0.0000,0.000,011217,,*32
2017-12-01 12:11:30 1512148290.796009: $GPGSA,A,3,10,13,15,18,20,21,24,27,29,138,,,2.0,0.8,1.5*01
2017-12-01 12:11:32 1512148292.296283: $GPZDA,171132.00,01,12,2017,00,00*67
2017-12-01 12:11:32 1512148292.296462: $GPGGA,171132,3946.9592,N,08404.9850,W,2,10,0.80,296.47,M,-33.324,M,,*78
2017-12-01 12:11:32 1512148292.296528: $GPRMC,171132,A,3946.9592,N,08404.9850,W,0.2422,273.794,011217,,*35
2017-12-01 12:11:32 1512148292.296590: $GPGSA,A,3,10,13,15,18,20,21,24,27,29,138,,,2.0,0.8,1.5*01
2017-12-01 12:11:32 1512148292.296649: $GPGBS,171132,2.67,M,3.86,M,8.82,M*35
2017-12-01 12:11:32 1512148292.748408: $GPZDA,171133.00,01,12,2017,00,00*66
2017-12-01 12:11:32 1512148292.748581: $GPGGA,171133,3946.9592,N,08404.9850,W,2,10,0.80,296.47,M,-33.324,M,,*79
2017-12-01 12:11:32 1512148292.748649: $GPRMC,171133,A,3946.9592,N,08404.9850,W,0.0000,0.000,011217,,*3E
2017-12-01 12:11:32 1512148292.748711: $GPGSA,A,3,10,13,15,18,20,21,24,27,29,138,,,2.0,0.8,1.5*01
2017-12-01 12:11:32 1512148292.748770: $GPGBS,171133,2.67,M,3.86,M,8.82,M*34
