2017-11-16 16:40:36 1510868436.000997: {"class":"VERSION","release":"3.17","rev":"3.17","proto_major":3,"proto_minor":12}
2017-11-16 16:40:36 1510868436.001568: {"class":"DEVICES","devices":[{"class":"DEVICE","path":"/dev/ttyUSB0","driver":"SiRF","subtype":"9\u0006GSD4e_4.1.2-P1_RPATCH.05-F-GPS-4R-1510281 11/03/2015 307","activated":"2017-11-16T21:40:35.999Z","flags":1,"native":1,"bps":4800,"parity":"N","stopbits":1,"cycle":1.00}]}
2017-11-16 16:40:36 1510868436.001683: {"class":"WATCH","enable":true,"json":false,"nmea":true,"raw":0,"scaled":false,"timing":false,"split24":false,"pps":false}
2017-11-16 16:40:36 1510868436.509096: $GPZDA,214035.00,16,11,2017,00,00*64
2017-11-16 16:40:36 1510868436.509274: $GPGGA,214035,3946.9586,N,08404.9819,W,2,11,0.80,302.61,M,-33.324,M,,*7F
2017-11-16 16:40:36 1510868436.509335: $GPRMC,214035,A,3946.9586,N,08404.9819,W,0.0000,0.000,161117,,*34
2017-11-16 16:40:36 1510868436.509408: $GPGSA,A,3,1,10,11,12,14,18,24,25,31,32,138,,1.6,0.8,1.3*38
2017-11-16 16:40:37 1510868437.433943: $GPZDA,214036.00,16,11,2017,00,00*67
2017-11-16 16:40:37 1510868437.434114: $GPGGA,214036,3946.9586,N,08404.9819,W,2,11,0.80,302.61,M,-33.324,M,,*7C
2017-11-16 16:40:37 1510868437.434176: $GPRMC,214036,A,3946.9586,N,08404.9819,W,0.0000,0.000,161117,,*37
2017-11-16 16:40:37 1510868437.434257: $GPGSA,A,3,1,10,11,12,14,18,24,25,31,32,138,,1.6,0.8,1.3*38
2017-11-16 16:40:38 1510868438.768090: $GPGSV,3,1,11,01,12,321,30,10,73,127,48,11,10,303,35,12,25,075,48*7A
2017-11-16 16:40:38 1510868438.768279: $GPGSV,3,2,11,14,53,288,43,18,40,133,45,24,16,045,48,25,28,117,44*75
2017-11-16 16:40:38 1510868438.768341: $GPGSV,3,3,11,31,31,211,45,32,67,321,51,138,38,213,45*7E
2017-11-16 16:40:38 1510868438.881693: $GPZDA,214037.00,16,11,2017,00,00*66
2017-11-16 16:40:38 1510868438.881853: $GPGGA,214037,3946.9586,N,08404.9819,W,2,11,0.80,302.61,M,-33.324,M,,*7D
2017-11-16 16:40:38 1510868438.881913: $GPRMC,214037,A,3946.9586,N,08404.9819,W,0.0000,0.000,161117,,*36
2017-11-16 16:40:38 1510868438.881968: $GPGSA,A,3,1,10,11,12,14,18,24,25,31,32,138,,1.6,0.8,1.3*38
2017-11-16 16:40:39 1510868439.435053: $GPZDA,214038.00,16,11,2017,00,00*69
2017-11-16 16:40:39 1510868439.435218: $GPGGA,214038,3946.9586,N,08404.9819,W,2,11,0.80,302.61,M,-33.324,M,,*72
2017-11-16 16:40:39 1510868439.435304: $GPRMC,214038,A,3946.9586,N,08404.9819,W,0.0000,0.000,161117,,*39
2017-11-16 16:40:39 1510868439.435361: $GPGSA,A,3,1,10,11,12,14,18,24,25,31,32,138,,1.6,0.8,1.3*38
2017-11-16 16:40:40 1510868440.434693: $GPZDA,214039.00,16,11,2017,00,00*68
2017-11-16 16:40:40 1510868440.434855: $GPGGA,214039,3946.9586,N,08404.9819,W,2,11,0.80,302.61,M,-33.324,M,,*73
2017-11-16 16:40:40 1510868440.434915: $GPRMC,214039,A,3946.9586,N,08404.9819,W,0.0000,0.000,161117,,*38
2017-11-16 16:40:40 1510868440.434970: $GPGSA,A,3,1,10,11,12,14,18,24,25,31,32,138,,1.6,0.8,1.3*38
2017-11-16 16:40:41 1510868441.768614: $GPGSV,3,1,11,01,12,321,35,10,73,127,47,11,10,303,34,12,25,075,48*71
2017-11-16 16:40:41 1510868441.768906: $GPGSV,3,2,11,14,53,288,42,18,40,133,45,24,16,045,48,25,28,117,44*74
2017-11-16 16:40:41 1510868441.769023: $GPGSV,3,3,11,31,31,211,45,32,67,321,50,138,38,213,44*7E
2017-11-16 16:40:41 1510868441.882085: $GPZDA,214040.00,16,11,2017,00,00*66
2017-11-16 16:40:41 1510868441.882244: $GPGGA,214040,3946.9586,N,08404.9819,W,2,11,0.80,302.61,M,-33.324,M,,*7D
2017-11-16 16:40:41 1510868441.882327: $GPRMC,214040,A,3946.9586,N,08404.9819,W,0.0000,0.000,161117,,*36
2017-11-16 16:40:41 1510868441.882385: $GPGSA,A,3,1,10,11,12,14,18,24,25,31,32,138,,1.6,0.8,1.3*38
2017-11-16 16:40:42 1510868442.435520: $GPZDA,214041.00,16,11,2017,00,00*67
2017-11-16 16:40:42 1510868442.435684: $GPGGA,214041,3946.9586,N,08404.9819,W,2,11,0.80,302.61,M,-33.324,M,,*7C
2017-11-16 16:40:42 1510868442.435744: $GPRMC,214041,A,3946.9586,N,08404.9819,W,0.0000,0.000,161117,,*37
2017-11-16 16:40:42 1510868442.435800: $GPGSA,A,3,1,10,11,12,14,18,24,25,31,32,138,,1.6,0.8,1.3*38
2017-11-16 16:40:43 1510868443.434866: $GPZDA,214042.00,16,11,2017,00,00*64
2017-11-16 16:40:43 1510868443.435092: $GPGGA,214042,3946.9586,N,08404.9819,W,2,11,0.80,302.61,M,-33.324,M,,*7F
2017-11-16 16:40:43 1510868443.435209: $GPRMC,214042,A,3946.9586,N,08404.9819,W,0.0000,0.000,161117,,*34
2017-11-16 16:40:43 1510868443.435267: $GPGSA,A,3,1,10,11,12,14,18,24,25,31,32,138,,1.6,0.8,1.3*38
2017-11-16 16:40:44 1510868444.784418: $GPGSV,3,1,11,01,12,321,37,10,73,127,48,11,10,303,35,12,25,075,47*72
2017-11-16 16:40:44 1510868444.784596: $GPGSV,3,2,11,14,53,288,42,18,40,133,45,24,16,045,48,25,28,117,44*74
2017-11-16 16:40:44 1510868444.784656: $GPGSV,3,3,11,31,31,211,44,32,67,321,50,138,38,213,43*78
2017-11-16 16:40:44 1510868444.898000: $GPZDA,214043.00,16,11,2017,00,00*65
2017-11-16 16:40:44 1510868444.898164: $GPGGA,214043,3946.9586,N,08404.9819,W,2,11,0.80,302.61,M,-33.324,M,,*7E
2017-11-16 16:40:44 1510868444.898224: $GPRMC,214043,A,3946.9586,N,08404.9819,W,0.0000,0.000,161117,,*35
2017-11-16 16:40:44 1510868444.898279: $GPGSA,A,3,1,10,11,12,14,18,24,25,31,32,138,,1.6,0.8,1.3*38
2017-11-16 16:40:45 1510868445.448884: $GPZDA,214044.00,16,11,2017,00,00*62
2017-11-16 16:40:45 1510868445.449043: $GPGGA,214044,3946.9586,N,08404.9819,W,2,11,0.80,302.61,M,-33.324,M,,*79
2017-11-16 16:40:45 1510868445.449105: $GPRMC,214044,A,3946.9586,N,08404.9819,W,0.0000,0.000,161117,,*32
2017-11-16 16:40:45 1510868445.449159: $GPGSA,A,3,1,10,11,12,14,18,24,25,31,32,138,,1.6,0.8,1.3*38
