2017-12-29 11:03:33 1514563413.539099: {"class":"VERSION","release":"3.16","rev":"3.16-4","proto_major":3,"proto_minor":11}
2017-12-29 11:03:33 1514563413.539442: {"class":"DEVICES","devices":[{"class":"DEVICE","path":"/dev/ttyUSB0","driver":"SiRF","subtype":"9\u0006GSD4e_4.1.2-P1_RPATCH.05-F-GPS-4R-1510281 11/03/2015 307","activated":"2017-12-29T16:03:33.488Z","flags":1,"native":1,"bps":4800,"parity":"N","stopbits":1,"cycle":1.00}]}
2017-12-29 11:03:33 1514563413.539556: {"class":"WATCH","enable":true,"json":false,"nmea":true,"raw":0,"scaled":false,"timing":false,"split24":false,"pps":false}
2017-12-29 11:03:34 1514563414.455978: $GPZDA,160335.00,29,12,2017,00,00*68
2017-12-29 11:03:34 1514563414.456143: $GPGGA,160335,3946.9602,N,08404.9839,W,2,11,1.20,302.12,M,-33.324,M,,*7E
2017-12-29 11:03:34 1514563414.456209: $GPRMC,160335,A,3946.9602,N,08404.9839,W,0.0000,0.000,291217,,*35
2017-12-29 11:03:34 1514563414.456270: $GPGSA,A,3,10,13,15,18,20,21,24,27,32,8,138,,1.7,1.2,1.3*3A
2017-12-29 11:03:35 1514563415.773989: $GPGSV,3,1,11,10,37,297,43,13,13,046,31,15,43,051,50,18,67,325,44*7B
2017-12-29 11:03:35 1514563415.774159: $GPGSV,3,2,11,20,39,090,49,21,70,196,47,24,47,120,49,27,19,295,37*71
2017-12-29 11:03:35 1514563415.774228: $GPGSV,3,3,11,32,16,234,28,08,03,328,27,138,38,213,45*77
2017-12-29 11:03:35 1514563415.887571: $GPZDA,160336.00,29,12,2017,00,00*6B
2017-12-29 11:03:35 1514563415.887690: $GPGGA,160336,3946.9602,N,08404.9839,W,2,11,1.20,302.12,M,-33.324,M,,*7D
2017-12-29 11:03:35 1514563415.887756: $GPRMC,160336,A,3946.9602,N,08404.9839,W,0.0000,0.000,291217,,*36
2017-12-29 11:03:35 1514563415.887819: $GPGSA,A,3,10,13,15,18,20,21,24,27,32,8,138,,1.7,1.2,1.3*3A
2017-12-29 11:03:36 1514563416.512933: $GPZDA,160337.00,29,12,2017,00,00*6A
2017-12-29 11:03:36 1514563416.513064: $GPGGA,160337,3946.9605,N,08404.9838,W,2,11,1.20,301.36,M,-33.324,M,,*7F
2017-12-29 11:03:36 1514563416.513131: $GPRMC,160337,A,3946.9605,N,08404.9838,W,0.0000,0.000,291217,,*31
2017-12-29 11:03:36 1514563416.513193: $GPGSA,A,3,10,13,15,18,20,21,24,27,32,8,138,,1.7,1.2,1.3*3A
2017-12-29 11:03:37 1514563417.456231: $GPZDA,160338.00,29,12,2017,00,00*65
2017-12-29 11:03:37 1514563417.456392: $GPGGA,160338,3946.9605,N,08404.9838,W,2,11,1.20,301.36,M,-33.324,M,,*70
2017-12-29 11:03:37 1514563417.456460: $GPRMC,160338,A,3946.9605,N,08404.9838,W,0.0000,0.000,291217,,*3E
2017-12-29 11:03:37 1514563417.456523: $GPGSA,A,3,10,13,15,18,20,21,24,27,32,8,138,,1.7,1.2,1.3*3A
2017-12-29 11:03:38 1514563418.775618: $GPGSV,3,1,11,10,37,297,44,13,13,046,30,15,43,051,50,18,67,325,44*7D
2017-12-29 11:03:38 1514563418.775798: $GPGSV,3,2,11,20,39,090,49,21,70,196,47,24,47,120,48,27,19,295,37*70
2017-12-29 11:03:38 1514563418.775866: $GPGSV,3,3,11,32,16,234,28,08,03,328,28,138,38,213,45*78
2017-12-29 11:03:38 1514563418.889438: $GPZDA,160339.00,29,12,2017,00,00*64
2017-12-29 11:03:38 1514563418.889598: $GPGGA,160339,3946.9605,N,08404.9838,W,2,11,1.20,301.36,M,-33.324,M,,*71
2017-12-29 11:03:38 1514563418.889670: $GPRMC,160339,A,3946.9605,N,08404.9838,W,0.0000,0.000,291217,,*3F
2017-12-29 11:03:38 1514563418.889735: $GPGSA,A,3,10,13,15,18,20,21,24,27,32,8,138,,1.7,1.2,1.3*3A
2017-12-29 11:03:39 1514563419.454826: $GPZDA,160340.00,29,12,2017,00,00*6A
2017-12-29 11:03:39 1514563419.454976: $GPGGA,160340,3946.9605,N,08404.9838,W,2,11,1.20,301.36,M,-33.324,M,,*7F
2017-12-29 11:03:39 1514563419.455045: $GPRMC,160340,A,3946.9605,N,08404.9838,W,0.0000,0.000,291217,,*31
2017-12-29 11:03:39 1514563419.455108: $GPGSA,A,3,10,13,15,18,20,21,24,27,32,8,138,,1.7,1.2,1.3*3A
2017-12-29 11:03:40 1514563420.438310: $GPZDA,160341.00,29,12,2017,00,00*6B
2017-12-29 11:03:40 1514563420.438478: $GPGGA,160341,3946.9605,N,08404.9838,W,2,11,1.20,301.36,M,-33.324,M,,*7E
2017-12-29 11:03:40 1514563420.438548: $GPRMC,160341,A,3946.9605,N,08404.9838,W,0.0000,0.000,291217,,*30
2017-12-29 11:03:40 1514563420.438612: $GPGSA,A,3,10,13,15,18,20,21,24,27,32,8,138,,1.7,1.2,1.3*3A
2017-12-29 11:03:41 1514563421.792255: $GPGSV,3,1,11,10,37,297,44,13,13,046,30,15,43,051,50,18,67,325,44*7D
2017-12-29 11:03:41 1514563421.792488: $GPGSV,3,2,11,20,39,090,49,21,70,196,47,24,47,120,48,27,19,295,37*70
2017-12-29 11:03:41 1514563421.792556: $GPGSV,3,3,11,32,16,234,33,08,03,328,28,138,38,213,46*71
2017-12-29 11:03:41 1514563421.905897: $GPZDA,160342.00,29,12,2017,00,00*68
2017-12-29 11:03:41 1514563421.906019: $GPGGA,160342,3946.9605,N,08404.9838,W,2,11,1.20,301.36,M,-33.324,M,,*7D
2017-12-29 11:03:41 1514563421.906084: $GPRMC,160342,A,3946.9605,N,08404.9838,W,0.0000,0.000,291217,,*33
2017-12-29 11:03:41 1514563421.906143: $GPGSA,A,3,10,13,15,18,20,21,24,27,32,8,138,,1.7,1.2,1.3*3A
2017-12-29 11:03:42 1514563422.456717: $GPZDA,160343.00,29,12,2017,00,00*69
2017-12-29 11:03:42 1514563422.456834: $GPGGA,160343,3946.9605,N,08404.9838,W,2,11,1.20,301.36,M,-33.324,M,,*7C
2017-12-29 11:03:42 1514563422.456898: $GPRMC,160343,A,3946.9605,N,08404.9838,W,0.0000,0.000,291217,,*32
2017-12-29 11:03:42 1514563422.456958: $GPGSA,A,3,10,13,15,18,20,21,24,27,32,8,138,,1.7,1.2,1.3*3A
2017-12-29 11:03:43 1514563423.438923: $GPZDA,160344.00,29,12,2017,00,00*6E
2017-12-29 11:03:43 1514563423.439105: $GPGGA,160344,3946.9605,N,08404.9838,W,2,11,1.20,301.36,M,-33.324,M,,*7B
2017-12-29 11:03:43 1514563423.439173: $GPRMC,160344,A,3946.9605,N,08404.9838,W,0.0000,0.000,291217,,*35
2017-12-29 11:03:43 1514563423.439234: $GPGSA,A,3,10,13,15,18,20,21,24,27,32,8,138,,1.7,1.2,1.3*3A
2017-12-29 11:03:44 1514563424.774359: $GPGSV,3,1,11,10,37,297,44,13,13,046,30,15,43,051,50,18,67,325,44*7D
2017-12-29 11:03:44 1514563424.774544: $GPGSV,3,2,11,20,39,090,49,21,70,196,47,24,47,120,48,27,19,295,37*70
2017-12-29 11:03:44 1514563424.774612: $GPGSV,3,3,11,32,16,234,31,08,03,328,29,138,38,213,45*71
2017-12-29 11:03:44 1514563424.888087: $GPZDA,160345.00,29,12,2017,00,00*6F
2017-12-29 11:03:44 1514563424.888234: $GPGGA,160345,3946.9605,N,08404.9838,W,2,11,1.20,301.36,M,-33.324,M,,*7A
2017-12-29 11:03:44 1514563424.888300: $GPRMC,160345,A,3946.9605,N,08404.9838,W,0.0000,0.000,291217,,*34
2017-12-29 11:03:44 1514563424.888361: $GPGSA,A,3,10,13,15,18,20,21,24,27,32,8,138,,1.7,1.2,1.3*3A
2017-12-29 11:03:45 1514563425.439748: $GPZDA,160346.00,29,12,2017,00,00*6C
2017-12-29 11:03:45 1514563425.439894: $GPGGA,160346,3946.9605,N,08404.9838,W,2,11,1.20,301.36,M,-33.324,M,,*79
2017-12-29 11:03:45 1514563425.439959: $GPRMC,160346,A,3946.9605,N,08404.9838,W,0.0000,0.000,291217,,*37
2017-12-29 11:03:45 1514563425.440020: $GPGSA,A,3,10,13,15,18,20,21,24,27,32,8,138,,1.7,1.2,1.3*3A
2017-12-29 11:03:46 1514563426.433899: $GPZDA,160347.00,29,12,2017,00,00*6D
2017-12-29 11:03:46 1514563426.434060: $GPGGA,160347,3946.9605,N,08404.9838,W,2,11,1.20,301.36,M,-33.324,M,,*78
2017-12-29 11:03:46 1514563426.434126: $GPRMC,160347,A,3946.9605,N,08404.9838,W,0.0000,0.000,291217,,*36
2017-12-29 11:03:46 1514563426.434187: $GPGSA,A,3,10,13,15,18,20,21,24,27,32,8,138,,1.7,1.2,1.3*3A
2017-12-29 11:03:47 1514563427.773443: $GPGSV,3,1,11,10,37,297,44,13,13,046,31,15,43,051,50,18,67,325,44*7C
2017-12-29 11:03:47 1514563427.773613: $GPGSV,3,2,11,20,39,090,49,21,70,196,47,24,47,120,49,27,19,295,36*70
2017-12-29 11:03:47 1514563427.773693: $GPGSV,3,3,11,32,16,234,31,08,03,328,29,138,38,213,45*71
2017-12-29 11:03:47 1514563427.886748: $GPZDA,160348.00,29,12,2017,00,00*62
2017-12-29 11:03:47 1514563427.886880: $GPGGA,160348,3946.9605,N,08404.9838,W,2,11,1.20,301.36,M,-33.324,M,,*77
2017-12-29 11:03:47 1514563427.886944: $GPRMC,160348,A,3946.9605,N,08404.9838,W,0.0000,0.000,291217,,*39
2017-12-29 11:03:47 1514563427.887022: $GPGSA,A,3,10,13,15,18,20,21,24,27,32,8,138,,1.7,1.2,1.3*3A
2017-12-29 11:03:48 1514563428.438842: $GPZDA,160349.00,29,12,2017,00,00*63
2017-12-29 11:03:48 1514563428.440931: $GPGGA,160349,3946.9605,N,08404.9838,W,2,11,1.20,301.36,M,-33.324,M,,*76
2017-12-29 11:03:48 1514563428.441129: $GPRMC,160349,A,3946.9605,N,08404.9838,W,0.0000,0.000,291217,,*38
2017-12-29 11:03:48 1514563428.441208: $GPGSA,A,3,10,13,15,18,20,21,24,27,32,8,138,,1.7,1.2,1.3*3A
2017-12-29 11:03:49 1514563429.439777: $GPZDA,160350.00,29,12,2017,00,00*6B
2017-12-29 11:03:49 1514563429.439994: $GPGGA,160350,3946.9605,N,08404.9838,W,2,11,1.20,301.36,M,-33.324,M,,*7E
2017-12-29 11:03:49 1514563429.440064: $GPRMC,160350,A,3946.9605,N,08404.9838,W,0.0000,0.000,291217,,*30
2017-12-29 11:03:49 1514563429.440124: $GPGSA,A,3,10,13,15,18,20,21,24,27,32,8,138,,1.7,1.2,1.3*3A
2017-12-29 11:03:50 1514563430.775564: $GPGSV,3,1,11,10,37,297,44,13,13,046,31,15,43,051,50,18,67,325,44*7C
2017-12-29 11:03:50 1514563430.775715: $GPGSV,3,2,11,20,39,090,49,21,70,196,47,24,47,120,48,27,19,295,36*71
2017-12-29 11:03:50 1514563430.775780: $GPGSV,3,3,11,32,16,234,31,08,03,328,29,138,38,213,45*71
2017-12-29 11:03:50 1514563430.888885: $GPZDA,160351.00,29,12,2017,00,00*6A
2017-12-29 11:03:50 1514563430.889018: $GPGGA,160351,3946.9605,N,08404.9838,W,2,11,1.20,301.36,M,-33.324,M,,*7F
2017-12-29 11:03:50 1514563430.889082: $GPRMC,160351,A,3946.9605,N,08404.9838,W,0.0000,0.000,291217,,*31
2017-12-29 11:03:50 1514563430.889143: $GPGSA,A,3,10,13,15,18,20,21,24,27,32,8,138,,1.7,1.2,1.3*3A
2017-12-29 11:03:51 1514563431.514519: $GPZDA,160352.00,29,12,2017,00,00*69
2017-12-29 11:03:51 1514563431.514650: $GPGGA,160352,3946.9605,N,08404.9838,W,2,11,1.60,301.36,M,-33.324,M,,*78
2017-12-29 11:03:51 1514563431.514714: $GPRMC,160352,A,3946.9605,N,08404.9838,W,0.0000,0.000,291217,,*32
2017-12-29 11:03:51 1514563431.514774: $GPGSA,A,3,10,13,15,18,20,21,24,27,32,8,138,,1.7,1.6,1.3*3E
2017-12-29 11:03:52 1514563432.439205: $GPZDA,160353.00,29,12,2017,00,00*68
2017-12-29 11:03:52 1514563432.439357: $GPGGA,160353,3946.9605,N,08404.9838,W,2,11,1.80,301.36,M,-33.324,M,,*77
2017-12-29 11:03:52 1514563432.439423: $GPRMC,160353,A,3946.9605,N,08404.9838,W,0.0000,0.000,291217,,*33
2017-12-29 11:03:52 1514563432.439484: $GPGSA,A,3,10,13,15,18,20,21,24,27,32,8,138,,1.7,1.8,1.3*30
