2017-12-01 15:46:56 1512161216.927280: {"class":"VERSION","release":"3.16","rev":"3.16-4","proto_major":3,"proto_minor":11}
2017-12-01 15:46:56 1512161216.927675: {"class":"DEVICES","devices":[{"class":"DEVICE","path":"/dev/ttyUSB0","driver":"SiRF","subtype":"9\u0006GSD4e_4.1.2-P1_RPATCH.05-F-GPS-4R-1510281 11/03/2015 307","activated":"2017-12-01T20:46:56.887Z","flags":1,"native":1,"bps":4800,"parity":"N","stopbits":1,"cycle":1.00}]}
2017-12-01 15:46:56 1512161216.927799: {"class":"WATCH","enable":true,"json":false,"nmea":true,"raw":0,"scaled":false,"timing":false,"split24":false,"pps":false}
2017-12-01 15:46:56 1512161216.999538: $GPZDA,204657.67,01,12,2017,00,00*63
2017-12-01 15:46:56 1512161216.999716: $GPGGA,204657,3946.9567,N,08404.9841,W,1,12,0.80,300.57,M,-33.324,M,,*79
2017-12-01 15:46:56 1512161216.999782: $GPRMC,204657,A,3946.9567,N,08404.9841,W,0.3133,9.200,011217,,*39
2017-12-01 15:46:56 1512161216.999846: $GPGSA,A,3,1,10,11,12,14,18,22,24,25,31,32,138,2.0,0.8,1.5*3B
2017-12-01 15:46:56 1512161216.999904: $GPGBS,204657,10.70,M,15.43,M,35.28,M*05
2017-12-01 15:46:58 1512161218.082328: $GPZDA,204658.35,01,12,2017,00,00*6B
2017-12-01 15:46:58 1512161218.082506: $GPGGA,204658,3946.9567,N,08404.9841,W,1,12,0.80,300.57,M,-33.324,M,,*76
2017-12-01 15:46:58 1512161218.082576: $GPRMC,204658,A,3946.9567,N,08404.9841,W,0.0407,142.014,011217,,*3E
2017-12-01 15:46:58 1512161218.082640: $GPGSA,A,3,1,10,11,12,14,18,22,24,25,31,32,138,2.0,0.8,1.5*3B
2017-12-01 15:46:59 1512161219.223526: $GPGSV,3,1,12,01,14,318,39,10,69,133,48,12,25,070,42,14,55,294,42*76
2017-12-01 15:46:59 1512161219.223729: $GPGSV,3,2,12,18,36,135,47,22,03,310,37,24,13,045,40,25,30,114,43*70
2017-12-01 15:46:59 1512161219.223840: $GPGSV,3,3,12,31,36,213,49,32,68,331,49,11,11,300,08,138,38,213,40*4D
2017-12-01 15:46:59 1512161219.336919: $GPZDA,204659.00,01,12,2017,00,00*6C
2017-12-01 15:46:59 1512161219.337096: $GPGGA,204659,3946.9571,N,08404.9841,W,1,11,0.80,301.21,M,-33.324,M,,*73
2017-12-01 15:46:59 1512161219.337162: $GPRMC,204659,A,3946.9571,N,08404.9841,W,0.1567,9.200,011217,,*37
2017-12-01 15:46:59 1512161219.337224: $GPGSA,A,3,1,10,12,14,18,22,24,25,31,32,138,,2.0,0.8,1.5*3B
2017-12-01 15:46:59 1512161219.789021: $GPZDA,204700.00,01,12,2017,00,00*61
2017-12-01 15:46:59 1512161219.789178: $GPGGA,204700,3946.9571,N,08404.9841,W,1,11,0.80,301.21,M,-33.324,M,,*7E
2017-12-01 15:46:59 1512161219.789244: $GPRMC,204700,A,3946.9571,N,08404.9841,W,0.0000,0.000,011217,,*34
2017-12-01 15:46:59 1512161219.789305: $GPGSA,A,3,1,10,12,14,18,22,24,25,31,32,138,,2.0,0.8,1.5*3B
2017-12-01 15:47:00 1512161220.392885: $GPZDA,204701.00,01,12,2017,00,00*60
2017-12-01 15:47:00 1512161220.393057: $GPGGA,204701,3946.9571,N,08404.9841,W,1,11,0.80,301.21,M,-33.324,M,,*7F
2017-12-01 15:47:00 1512161220.393123: $GPRMC,204701,A,3946.9571,N,08404.9841,W,0.1567,9.200,011217,,*3B
2017-12-01 15:47:00 1512161220.393185: $GPGSA,A,3,1,10,12,14,18,22,24,25,31,32,138,,2.0,0.8,1.5*3B
2017-12-01 15:47:01 1512161221.727726: $GPGSV,3,1,12,01,14,318,38,10,69,133,48,12,25,070,41,14,55,294,43*75
2017-12-01 15:47:01 1512161221.727909: $GPGSV,3,2,12,18,36,135,47,22,03,310,37,24,13,045,40,25,30,114,43*70
2017-12-01 15:47:01 1512161221.727978: $GPGSV,3,3,12,31,36,213,49,32,68,331,49,11,11,300,00,138,38,213,47*42
2017-12-01 15:47:01 1512161221.840092: $GPZDA,204702.00,01,12,2017,00,00*63
2017-12-01 15:47:01 1512161221.840241: $GPGGA,204702,3946.9567,N,08404.9841,W,1,11,0.80,300.57,M,-33.324,M,,*7B
2017-12-01 15:47:01 1512161221.840310: $GPRMC,204702,A,3946.9567,N,08404.9841,W,0.0000,0.000,011217,,*31
2017-12-01 15:47:01 1512161221.840370: $GPGSA,A,3,1,10,12,14,18,22,24,25,31,32,138,,2.0,0.8,1.5*3B
2017-12-01 15:47:02 1512161222.391083: $GPZDA,204703.00,01,12,2017,00,00*62
2017-12-01 15:47:02 1512161222.391251: $GPGGA,204703,3946.9567,N,08404.9841,W,1,11,0.80,300.57,M,-33.324,M,,*7A
2017-12-01 15:47:02 1512161222.391321: $GPRMC,204703,A,3946.9567,N,08404.9841,W,0.0000,0.000,011217,,*30
2017-12-01 15:47:02 1512161222.391445: $GPGSA,A,3,1,10,12,14,18,22,24,25,31,32,138,,2.0,0.8,1.5*3B
2017-12-01 15:47:03 1512161223.389276: $GPZDA,204704.00,01,12,2017,00,00*65
2017-12-01 15:47:03 1512161223.389450: $GPGGA,204704,3946.9567,N,08404.9841,W,1,11,0.80,300.57,M,-33.324,M,,*7D
2017-12-01 15:47:03 1512161223.389516: $GPRMC,204704,A,3946.9567,N,08404.9841,W,0.0000,0.000,011217,,*37
2017-12-01 15:47:03 1512161223.389580: $GPGSA,A,3,1,10,12,14,18,22,24,25,31,32,138,,2.0,0.8,1.5*3B
2017-12-01 15:47:03 1512161223.389639: $GPGBS,204704,10.70,M,15.43,M,35.28,M*02
2017-12-01 15:47:04 1512161224.725947: $GPGSV,3,1,12,01,14,318,11,10,69,133,14,12,25,070,12,14,55,294,13*74
2017-12-01 15:47:04 1512161224.726121: $GPGSV,3,2,12,18,36,135,14,22,03,310,11,24,13,045,12,25,30,114,12*71
2017-12-01 15:47:04 1512161224.726189: $GPGSV,3,3,12,31,36,213,15,32,68,331,14,11,11,300,09,138,38,213,16*4E
2017-12-01 15:47:04 1512161224.839583: $GPZDA,204705.00,01,12,2017,00,00*64
2017-12-01 15:47:04 1512161224.839753: $GPGGA,204705,3946.9571,N,08404.9841,W,1,12,0.80,301.21,M,-33.324,M,,*78
2017-12-01 15:47:04 1512161224.839820: $GPRMC,204705,A,3946.9571,N,08404.9841,W,0.0000,0.000,011217,,*31
2017-12-01 15:47:04 1512161224.839882: $GPGSA,A,3,1,10,12,14,18,22,24,25,31,32,11,138,2.0,0.8,1.5*3B
2017-12-01 15:47:05 1512161225.390265: $GPZDA,204706.00,01,12,2017,00,00*67
2017-12-01 15:47:05 1512161225.390437: $GPGGA,204706,3946.9571,N,08404.9841,W,1,12,0.80,301.21,M,-33.324,M,,*7B
2017-12-01 15:47:05 1512161225.390503: $GPRMC,204706,A,3946.9571,N,08404.9841,W,0.0000,0.000,011217,,*32
2017-12-01 15:47:05 1512161225.390568: $GPGSA,A,3,1,10,12,14,18,22,24,25,31,32,11,138,2.0,0.8,1.5*3B
2017-12-01 15:47:06 1512161226.389836: $GPZDA,204707.00,01,12,2017,00,00*66
2017-12-01 15:47:06 1512161226.390003: $GPGGA,204707,3946.9571,N,08404.9841,W,1,12,0.80,301.21,M,-33.324,M,,*7A
2017-12-01 15:47:06 1512161226.390071: $GPRMC,204707,A,3946.9571,N,08404.9841,W,0.2422,93.794,011217,,*05
2017-12-01 15:47:06 1512161226.390134: $GPGSA,A,3,1,10,12,14,18,22,24,25,31,32,11,138,2.0,0.8,1.5*3B
2017-12-01 15:47:07 1512161227.727488: $GPGSV,3,1,12,01,14,318,34,10,69,133,47,12,25,070,40,14,55,294,43*77
2017-12-01 15:47:07 1512161227.727680: $GPGSV,3,2,12,18,36,135,47,22,03,310,37,24,13,045,41,25,30,114,42*70
2017-12-01 15:47:07 1512161227.727749: $GPGSV,3,3,12,31,36,213,48,32,68,331,48,11,11,300,29,138,38,213,45*4B
2017-12-01 15:47:07 1512161227.840947: $GPZDA,204708.00,01,12,2017,00,00*69
2017-12-01 15:47:07 1512161227.841109: $GPGGA,204708,3946.9571,N,08404.9841,W,1,12,0.80,301.21,M,-33.324,M,,*75
2017-12-01 15:47:07 1512161227.841177: $GPRMC,204708,A,3946.9571,N,08404.9841,W,0.0000,0.000,011217,,*3C
2017-12-01 15:47:07 1512161227.841238: $GPGSA,A,3,1,10,12,14,18,22,24,25,31,32,11,138,2.0,0.8,1.5*3B
2017-12-01 15:47:08 1512161228.390530: $GPZDA,204709.00,01,12,2017,00,00*68
2017-12-01 15:47:08 1512161228.390704: $GPGGA,204709,3946.9571,N,08404.9841,W,1,12,0.80,301.21,M,-33.324,M,,*74
2017-12-01 15:47:08 1512161228.390773: $GPRMC,204709,A,3946.9571,N,08404.9841,W,0.0000,0.000,011217,,*3D
2017-12-01 15:47:08 1512161228.390835: $GPGSA,A,3,1,10,12,14,18,22,24,25,31,32,11,138,2.0,0.8,1.5*3B
2017-12-01 15:47:09 1512161229.391340: $GPZDA,204710.00,01,12,2017,00,00*60
2017-12-01 15:47:09 1512161229.391557: $GPGGA,204710,3946.9571,N,08404.9841,W,1,12,0.80,301.21,M,-33.324,M,,*7C
2017-12-01 15:47:09 1512161229.391626: $GPRMC,204710,A,3946.9571,N,08404.9841,W,0.0000,0.000,011217,,*35
2017-12-01 15:47:09 1512161229.391690: $GPGSA,A,3,1,10,12,14,18,22,24,25,31,32,11,138,2.0,0.8,1.5*3B
2017-12-01 15:47:10 1512161230.725921: $GPGSV,3,1,12,01,14,318,34,10,69,133,47,12,25,070,38,14,55,294,42*79
2017-12-01 15:47:10 1512161230.726120: $GPGSV,3,2,12,18,36,135,47,22,03,310,37,24,13,045,41,25,30,114,42*70
2017-12-01 15:47:10 1512161230.726190: $GPGSV,3,3,12,31,36,213,49,32,68,331,48,11,11,300,17,138,38,213,46*44
2017-12-01 15:47:10 1512161230.839560: $GPZDA,204711.00,01,12,2017,00,00*61
2017-12-01 15:47:10 1512161230.839717: $GPGGA,204711,3946.9568,N,08404.9848,W,2,12,1.20,301.90,M,-33.324,M,,*7E
2017-12-01 15:47:10 1512161230.839785: $GPRMC,204711,A,3946.9568,N,08404.9848,W,0.0000,0.000,011217,,*35
2017-12-01 15:47:10 1512161230.839896: $GPGSA,A,3,1,10,12,14,18,22,24,25,31,32,11,138,2.0,1.2,1.5*30
2017-12-01 15:47:11 1512161231.465851: $GPZDA,204712.00,01,12,2017,00,00*62
2017-12-01 15:47:11 1512161231.466029: $GPGGA,204712,3946.9568,N,08404.9848,W,2,12,0.80,301.90,M,-33.324,M,,*76
2017-12-01 15:47:11 1512161231.466096: $GPRMC,204712,A,3946.9568,N,08404.9848,W,0.0000,0.000,011217,,*36
2017-12-01 15:47:11 1512161231.466158: $GPGSA,A,3,1,10,12,14,18,22,24,25,31,32,11,138,2.0,0.8,1.5*3B
2017-12-01 15:47:12 1512161232.403021: $GPZDA,204713.00,01,12,2017,00,00*63
2017-12-01 15:47:12 1512161232.403192: $GPGGA,204713,3946.9568,N,08404.9848,W,2,12,0.80,301.90,M,-33.324,M,,*77
2017-12-01 15:47:12 1512161232.403259: $GPRMC,204713,A,3946.9568,N,08404.9848,W,0.0000,0.000,011217,,*37
2017-12-01 15:47:12 1512161232.403320: $GPGSA,A,3,1,10,12,14,18,22,24,25,31,32,11,138,2.0,0.8,1.5*3B
2017-12-01 15:47:13 1512161233.728808: $GPGSV,3,1,12,01,14,318,35,10,69,133,47,12,25,070,38,14,55,294,42*78
2017-12-01 15:47:13 1512161233.729006: $GPGSV,3,2,12,18,36,135,47,22,03,310,38,24,13,045,41,25,30,114,42*7F
2017-12-01 15:47:13 1512161233.729074: $GPGSV,3,3,12,31,36,213,49,32,68,331,48,11,11,300,25,138,38,213,46*45
2017-12-01 15:47:13 1512161233.842143: $GPZDA,204714.00,01,12,2017,00,00*64
2017-12-01 15:47:13 1512161233.842306: $GPGGA,204714,3946.9568,N,08404.9848,W,2,12,0.80,301.90,M,-33.324,M,,*70
2017-12-01 15:47:13 1512161233.842374: $GPRMC,204714,A,3946.9568,N,08404.9848,W,0.0000,0.000,011217,,*30
2017-12-01 15:47:13 1512161233.842434: $GPGSA,A,3,1,10,12,14,18,22,24,25,31,32,11,138,2.0,0.8,1.5*3B
2017-12-01 15:47:14 1512161234.391900: $GPZDA,204715.00,01,12,2017,00,00*65
2017-12-01 15:47:14 1512161234.392071: $GPGGA,204715,3946.9568,N,08404.9848,W,2,12,0.80,301.90,M,-33.324,M,,*71
2017-12-01 15:47:14 1512161234.392139: $GPRMC,204715,A,3946.9568,N,08404.9848,W,0.0000,0.000,011217,,*31
2017-12-01 15:47:14 1512161234.392201: $GPGSA,A,3,1,10,12,14,18,22,24,25,31,32,11,138,2.0,0.8,1.5*3B
2017-12-01 15:47:15 1512161235.391391: $GPZDA,204716.00,01,12,2017,00,00*66
2017-12-01 15:47:15 1512161235.391553: $GPGGA,204716,3946.9568,N,08404.9848,W,2,12,0.80,301.90,M,-33.324,M,,*72
2017-12-01 15:47:15 1512161235.391625: $GPRMC,204716,A,3946.9568,N,08404.9848,W,0.0000,0.000,011217,,*32
2017-12-01 15:47:15 1512161235.391686: $GPGSA,A,3,1,10,12,14,18,22,24,25,31,32,11,138,2.0,0.8,1.5*3B
2017-12-01 15:47:15 1512161235.391768: $GPGBS,204716,2.67,M,3.86,M,8.82,M*34
2017-12-01 15:47:16 1512161236.728947: $GPGSV,3,1,12,01,14,318,34,10,69,133,47,12,25,070,38,14,55,294,43*78
2017-12-01 15:47:16 1512161236.729131: $GPGSV,3,2,12,18,36,135,47,22,03,310,38,24,13,045,41,25,30,114,42*7F
2017-12-01 15:47:16 1512161236.729199: $GPGSV,3,3,12,31,36,213,49,32,68,331,48,11,11,300,29,138,38,213,45*4A
2017-12-01 15:47:16 1512161236.841064: $GPZDA,204717.00,01,12,2017,00,00*67
2017-12-01 15:47:16 1512161236.841227: $GPGGA,204717,3946.9568,N,08404.9848,W,2,12,0.80,301.90,M,-33.324,M,,*73
2017-12-01 15:47:16 1512161236.841295: $GPRMC,204717,A,3946.9568,N,08404.9848,W,0.0000,0.000,011217,,*33
2017-12-01 15:47:16 1512161236.841410: $GPGSA,A,3,1,10,12,14,18,22,24,25,31,32,11,138,2.0,0.8,1.5*3B
