2017-11-15 18:26:48 1510788408.052241: {"class":"VERSION","release":"3.17","rev":"3.17","proto_major":3,"proto_minor":12}
2017-11-15 18:26:48 1510788408.052750: {"class":"DEVICES","devices":[{"class":"DEVICE","path":"/dev/ttyUSB0","driver":"SiRF","subtype":"9\u0006GSD4e_4.1.2-P1_RPATCH.05-F-GPS-4R-1510281 11/03/2015 307","activated":"2017-11-15T23:26:47.469Z","flags":1,"native":1,"bps":4800,"parity":"N","stopbits":1,"cycle":1.00}]}
2017-11-15 18:26:48 1510788408.052870: {"class":"WATCH","enable":true,"json":false,"nmea":true,"raw":0,"scaled":false,"timing":false,"split24":false,"pps":false}
2017-11-15 18:26:48 1510788408.663832: $GPGSV,3,1,10,10,25,156,13,14,70,030,24,25,37,060,20,01,20,277,04*79
2017-11-15 18:26:48 1510788408.664046: $GPGSV,3,2,10,31,76,265,18,32,57,073,20,26,22,178,00,22,37,304,18*77
2017-11-15 18:26:48 1510788408.664109: $GPGSV,3,3,10,03,18,316,00,12,09,034,00*7B
2017-11-15 18:26:48 1510788408.777326: $GPZDA,232647.00,15,11,2017,00,00*60
2017-11-15 18:26:48 1510788408.777487: $GPGGA,232647,3946.9684,N,08404.9487,W,1,06,4.80,290.14,M,-33.324,M,,*7B
2017-11-15 18:26:48 1510788408.777547: $GPRMC,232647,A,3946.9684,N,08404.9487,W,1.1124,302.165,151117,,*3E
2017-11-15 18:26:48 1510788408.777602: $GPGSA,A,3,10,14,25,31,32,22,,,,,,,3.4,4.8,2.9*32
2017-11-15 18:26:49 1510788409.359365: $GPZDA,232648.00,15,11,2017,00,00*6F
2017-11-15 18:26:49 1510788409.359525: $GPGGA,232648,3946.9676,N,08404.9488,W,1,06,1.40,290.26,M,-33.324,M,,*7E
2017-11-15 18:26:49 1510788409.359585: $GPRMC,232648,A,3946.9676,N,08404.9488,W,0.8011,299.090,151117,,*34
2017-11-15 18:26:49 1510788409.359640: $GPGSA,A,3,10,14,25,31,32,22,,,,,,,3.4,1.4,2.9*3B
2017-11-15 18:26:50 1510788410.360400: $GPZDA,232649.00,15,11,2017,00,00*6E
2017-11-15 18:26:50 1510788410.360577: $GPGGA,232649,3946.9676,N,08404.9488,W,1,06,1.40,290.26,M,-33.324,M,,*7F
2017-11-15 18:26:50 1510788410.360638: $GPRMC,232649,A,3946.9676,N,08404.9488,W,0.7621,287.945,151117,,*31
2017-11-15 18:26:50 1510788410.360694: $GPGSA,A,3,10,14,25,31,32,22,,,,,,,3.4,1.4,2.9*3B
2017-11-15 18:26:51 1510788411.666848: $GPGSV,3,1,10,10,25,156,13,14,70,030,24,25,37,060,20,01,20,277,04*79
2017-11-15 18:26:51 1510788411.667067: $GPGSV,3,2,10,31,76,265,18,32,57,073,20,03,18,316,02,22,37,304,18*71
2017-11-15 18:26:51 1510788411.667129: $GPGSV,3,3,10,26,22,178,00,12,09,034,00*7F
2017-11-15 18:26:51 1510788411.780446: $GPZDA,232650.00,15,11,2017,00,00*66
2017-11-15 18:26:51 1510788411.780616: $GPGGA,232650,3946.9677,N,08404.9494,W,1,06,1.40,290.18,M,-33.324,M,,*76
2017-11-15 18:26:51 1510788411.780677: $GPRMC,232650,A,3946.9677,N,08404.9494,W,0.4844,273.794,151117,,*32
2017-11-15 18:26:51 1510788411.780733: $GPGSA,A,3,10,14,25,31,32,22,,,,,,,3.4,1.4,2.9*3B
2017-11-15 18:26:52 1510788412.360067: $GPZDA,232651.00,15,11,2017,00,00*67
2017-11-15 18:26:52 1510788412.360245: $GPGGA,232651,3946.9676,N,08404.9488,W,1,06,1.40,290.26,M,-33.324,M,,*76
2017-11-15 18:26:52 1510788412.360308: $GPRMC,232651,A,3946.9676,N,08404.9488,W,0.6846,4.197,151117,,*38
2017-11-15 18:26:52 1510788412.360364: $GPGSA,A,3,10,14,25,31,32,22,,,,,,,3.4,1.4,2.9*3B
2017-11-15 18:26:53 1510788413.329454: $GPZDA,232652.00,15,11,2017,00,00*64
2017-11-15 18:26:53 1510788413.329643: $GPGGA,232652,3946.9672,N,08404.9488,W,1,06,1.40,289.62,M,-33.324,M,,*79
2017-11-15 18:26:53 1510788413.329707: $GPRMC,232652,A,3946.9672,N,08404.9488,W,0.6846,4.197,151117,,*3F
2017-11-15 18:26:53 1510788413.329763: $GPGSA,A,3,10,14,25,31,32,22,,,,,,,3.4,1.4,2.9*3B
2017-11-15 18:26:54 1510788414.696430: $GPGSV,3,1,10,10,25,156,13,14,70,030,24,25,37,060,20,01,20,277,04*79
2017-11-15 18:26:54 1510788414.696615: $GPGSV,3,2,10,31,76,265,18,32,57,073,19,03,18,316,14,22,37,304,19*7D
2017-11-15 18:26:54 1510788414.696676: $GPGSV,3,3,10,26,22,178,00,12,09,034,00*7F
2017-11-15 18:26:54 1510788414.811610: $GPZDA,232653.00,15,11,2017,00,00*65
2017-11-15 18:26:54 1510788414.811921: $GPGGA,232653,3946.9672,N,08404.9488,W,1,06,1.40,289.62,M,-33.324,M,,*78
2017-11-15 18:26:54 1510788414.812093: $GPRMC,232653,A,3946.9672,N,08404.9488,W,0.0000,0.000,151117,,*39
2017-11-15 18:26:54 1510788414.812332: $GPGSA,A,3,10,14,25,31,32,22,,,,,,,3.4,1.4,2.9*3B
2017-11-15 18:26:55 1510788415.360677: $GPZDA,232654.00,15,11,2017,00,00*62
2017-11-15 18:26:55 1510788415.360825: $GPGGA,232654,3946.9669,N,08404.9488,W,1,06,1.40,290.39,M,-33.324,M,,*73
2017-11-15 18:26:55 1510788415.360903: $GPRMC,232654,A,3946.9669,N,08404.9488,W,0.5912,129.173,151117,,*34
2017-11-15 18:26:55 1510788415.360960: $GPGSA,A,3,10,14,25,31,32,22,,,,,,,3.4,1.4,2.9*3B
2017-11-15 18:26:56 1510788416.327381: $GPZDA,232655.00,15,11,2017,00,00*63
2017-11-15 18:26:56 1510788416.327551: $GPGGA,232655,3946.9665,N,08404.9488,W,1,06,1.40,289.75,M,-33.324,M,,*7E
2017-11-15 18:26:56 1510788416.327613: $GPRMC,232655,A,3946.9665,N,08404.9488,W,0.5306,114.352,151117,,*39
2017-11-15 18:26:56 1510788416.327668: $GPGSA,A,3,10,14,25,31,32,22,,,,,,,3.4,1.4,2.9*3B
2017-11-15 18:26:57 1510788417.664287: $GPGSV,3,1,10,10,25,156,13,14,70,030,23,25,37,060,20,01,20,277,04*7E
2017-11-15 18:26:57 1510788417.664454: $GPGSV,3,2,10,31,76,265,19,32,57,073,18,26,22,178,00,22,37,304,18*7D
2017-11-15 18:26:57 1510788417.664532: $GPGSV,3,3,10,03,18,316,00,12,09,034,00*7B
2017-11-15 18:26:57 1510788417.777763: $GPZDA,232656.00,15,11,2017,00,00*60
2017-11-15 18:26:57 1510788417.777942: $GPGGA,232656,3946.9664,N,08404.9481,W,1,06,1.40,289.83,M,-33.324,M,,*7C
2017-11-15 18:26:57 1510788417.778030: $GPRMC,232656,A,3946.9664,N,08404.9481,W,0.4844,93.794,151117,,*0E
2017-11-15 18:26:57 1510788417.778088: $GPGSA,A,3,10,14,25,31,32,22,,,,,,,3.4,1.4,2.9*3B
