2017-12-01 14:16:36 1512155796.856710: {"class":"VERSION","release":"3.16","rev":"3.16-4","proto_major":3,"proto_minor":11}
2017-12-01 14:16:36 1512155796.857100: {"class":"DEVICES","devices":[{"class":"DEVICE","path":"/dev/ttyUSB0","driver":"SiRF","subtype":"9\u0006GSD4e_4.1.2-P1_RPATCH.05-F-GPS-4R-1510281 11/03/2015 307","activated":"2017-12-01T19:16:36.727Z","flags":1,"native":1,"bps":4800,"parity":"N","stopbits":1,"cycle":1.00}]}
2017-12-01 14:16:36 1512155796.857229: {"class":"WATCH","enable":true,"json":false,"nmea":true,"raw":0,"scaled":false,"timing":false,"split24":false,"pps":false}
2017-12-01 14:16:37 1512155797.419734: $GPZDA,191638.00,01,12,2017,00,00*64
2017-12-01 14:16:37 1512155797.419908: $GPGGA,191638,3946.9526,N,08404.9825,W,2,12,0.80,329.93,M,-33.324,M,,*78
2017-12-01 14:16:37 1512155797.419975: $GPRMC,191638,A,3946.9526,N,08404.9825,W,0.0000,0.000,011217,,*31
2017-12-01 14:16:37 1512155797.420036: $GPGSA,A,3,8,10,14,18,21,24,27,32,12,15,20,138,2.0,0.8,1.5*37
2017-12-01 14:16:38 1512155798.755200: $GPGSV,3,1,12,08,06,297,36,10,66,327,49,14,26,250,37,18,72,085,44*76
2017-12-01 14:16:38 1512155798.755380: $GPGSV,3,2,12,21,32,180,45,24,47,063,48,27,08,262,34,32,44,262,46*74
2017-12-01 14:16:38 1512155798.755446: $GPGSV,3,3,12,12,07,109,24,15,13,064,28,20,11,117,24,138,38,213,46*4E
2017-12-01 14:16:38 1512155798.868832: $GPZDA,191639.00,01,12,2017,00,00*65
2017-12-01 14:16:38 1512155798.868995: $GPGGA,191639,3946.9523,N,08404.9826,W,2,12,0.80,330.69,M,-33.324,M,,*72
2017-12-01 14:16:38 1512155798.869062: $GPRMC,191639,A,3946.9523,N,08404.9826,W,0.0000,0.000,011217,,*36
2017-12-01 14:16:38 1512155798.869123: $GPGSA,A,3,8,10,14,18,21,24,27,32,12,15,20,138,2.0,0.8,1.5*37
2017-12-01 14:16:39 1512155799.419568: $GPZDA,191640.00,01,12,2017,00,00*6B
2017-12-01 14:16:39 1512155799.419749: $GPGGA,191640,3946.9523,N,08404.9826,W,2,12,0.80,330.69,M,-33.324,M,,*7C
2017-12-01 14:16:39 1512155799.419818: $GPRMC,191640,A,3946.9523,N,08404.9826,W,0.0000,0.000,011217,,*38
2017-12-01 14:16:39 1512155799.419880: $GPGSA,A,3,8,10,14,18,21,24,27,32,12,15,20,138,2.0,0.8,1.5*37
2017-12-01 14:16:40 1512155800.419367: $GPZDA,191641.00,01,12,2017,00,00*6A
2017-12-01 14:16:40 1512155800.419538: $GPGGA,191641,3946.9523,N,08404.9826,W,2,12,0.80,330.69,M,-33.324,M,,*7D
2017-12-01 14:16:40 1512155800.419606: $GPRMC,191641,A,3946.9523,N,08404.9826,W,0.0000,0.000,011217,,*39
2017-12-01 14:16:40 1512155800.419667: $GPGSA,A,3,8,10,14,18,21,24,27,32,12,15,20,138,2.0,0.8,1.5*37
2017-12-01 14:16:41 1512155801.756102: $GPGSV,3,1,12,08,06,297,36,10,66,327,49,14,26,250,36,18,72,085,44*77
2017-12-01 14:16:41 1512155801.756290: $GPGSV,3,2,12,21,32,180,45,24,47,063,48,27,08,262,34,32,44,262,46*74
2017-12-01 14:16:41 1512155801.756357: $GPGSV,3,3,12,12,07,109,28,15,13,064,28,20,11,117,25,138,38,213,47*42
2017-12-01 14:16:41 1512155801.869420: $GPZDA,191642.00,01,12,2017,00,00*69
2017-12-01 14:16:41 1512155801.869601: $GPGGA,191642,3946.9523,N,08404.9826,W,2,12,0.80,330.69,M,-33.324,M,,*7E
2017-12-01 14:16:41 1512155801.869671: $GPRMC,191642,A,3946.9523,N,08404.9826,W,0.0000,0.000,011217,,*3A
2017-12-01 14:16:41 1512155801.869733: $GPGSA,A,3,8,10,14,18,21,24,27,32,12,15,20,138,2.0,0.8,1.5*37
2017-12-01 14:16:42 1512155802.495083: $GPZDA,191643.00,01,12,2017,00,00*68
2017-12-01 14:16:42 1512155802.495254: $GPGGA,191643,3946.9523,N,08404.9826,W,2,12,0.80,330.69,M,-33.324,M,,*7F
2017-12-01 14:16:42 1512155802.495321: $GPRMC,191643,A,3946.9523,N,08404.9826,W,0.0000,0.000,011217,,*3B
2017-12-01 14:16:42 1512155802.495382: $GPGSA,A,3,8,10,14,18,21,24,27,32,12,15,20,138,2.0,0.8,1.5*37
2017-12-01 14:16:43 1512155803.418450: $GPZDA,191644.00,01,12,2017,00,00*6F
2017-12-01 14:16:43 1512155803.418626: $GPGGA,191644,3946.9527,N,08404.9826,W,2,12,0.80,331.33,M,-33.324,M,,*72
2017-12-01 14:16:43 1512155803.418693: $GPRMC,191644,A,3946.9527,N,08404.9826,W,0.0000,0.000,011217,,*38
2017-12-01 14:16:43 1512155803.418754: $GPGSA,A,3,8,10,14,18,21,24,27,32,12,15,20,138,2.0,0.8,1.5*37
2017-12-01 14:16:44 1512155804.755263: $GPGSV,3,1,12,08,06,297,36,10,66,327,49,14,26,250,36,18,72,085,43*70
2017-12-01 14:16:44 1512155804.755515: $GPGSV,3,2,12,21,32,180,44,24,47,063,48,27,08,262,34,32,44,262,46*75
2017-12-01 14:16:44 1512155804.755584: $GPGSV,3,3,12,12,07,109,31,15,13,064,28,20,11,117,25,138,38,213,47*4A
2017-12-01 14:16:44 1512155804.868854: $GPZDA,191645.00,01,12,2017,00,00*6E
2017-12-01 14:16:44 1512155804.869022: $GPGGA,191645,3946.9527,N,08404.9826,W,2,12,0.80,331.33,M,-33.324,M,,*73
2017-12-01 14:16:44 1512155804.869088: $GPRMC,191645,A,3946.9527,N,08404.9826,W,0.0000,0.000,011217,,*39
2017-12-01 14:16:44 1512155804.869148: $GPGSA,A,3,8,10,14,18,21,24,27,32,12,15,20,138,2.0,0.8,1.5*37
2017-12-01 14:16:45 1512155805.420668: $GPZDA,191646.00,01,12,2017,00,00*6D
2017-12-01 14:16:45 1512155805.420847: $GPGGA,191646,3946.9527,N,08404.9826,W,2,12,0.80,331.33,M,-33.324,M,,*70
2017-12-01 14:16:45 1512155805.420933: $GPRMC,191646,A,3946.9527,N,08404.9826,W,0.0000,0.000,011217,,*3A
2017-12-01 14:16:45 1512155805.420998: $GPGSA,A,3,8,10,14,18,21,24,27,32,12,15,20,138,2.0,0.8,1.5*37
2017-12-01 14:16:46 1512155806.421841: $GPZDA,191647.00,01,12,2017,00,00*6C
2017-12-01 14:16:46 1512155806.422013: $GPGGA,191647,3946.9527,N,08404.9826,W,2,12,0.80,331.33,M,-33.324,M,,*71
2017-12-01 14:16:46 1512155806.422079: $GPRMC,191647,A,3946.9527,N,08404.9826,W,0.0000,0.000,011217,,*3B
2017-12-01 14:16:46 1512155806.422140: $GPGSA,A,3,8,10,14,18,21,24,27,32,12,15,20,138,2.0,0.8,1.5*37
2017-12-01 14:16:47 1512155807.755556: $GPGSV,3,1,12,08,06,297,35,10,66,327,49,14,26,250,37,18,72,085,43*72
2017-12-01 14:16:47 1512155807.755748: $GPGSV,3,2,12,21,32,180,44,24,47,063,49,27,08,262,35,32,44,262,46*75
2017-12-01 14:16:47 1512155807.755816: $GPGSV,3,3,12,12,07,109,31,15,13,064,29,20,11,117,25,138,38,213,46*4A
2017-12-01 14:16:47 1512155807.869193: $GPZDA,191648.00,01,12,2017,00,00*63
2017-12-01 14:16:47 1512155807.869361: $GPGGA,191648,3946.9523,N,08404.9827,W,2,12,0.80,332.10,M,-33.324,M,,*79
2017-12-01 14:16:47 1512155807.869427: $GPRMC,191648,A,3946.9523,N,08404.9827,W,0.0000,0.000,011217,,*31
2017-12-01 14:16:47 1512155807.869488: $GPGSA,A,3,8,10,14,18,21,24,27,32,12,15,20,138,2.0,0.8,1.5*37
2017-12-01 14:16:48 1512155808.421314: $GPZDA,191649.00,01,12,2017,00,00*62
2017-12-01 14:16:48 1512155808.421529: $GPGGA,191649,3946.9516,N,08404.9828,W,2,12,0.80,332.22,M,-33.324,M,,*70
2017-12-01 14:16:48 1512155808.421596: $GPRMC,191649,A,3946.9516,N,08404.9828,W,0.0000,0.000,011217,,*39
2017-12-01 14:16:48 1512155808.421658: $GPGSA,A,3,8,10,14,18,21,24,27,32,12,15,20,138,2.0,0.8,1.5*37
2017-12-01 14:16:49 1512155809.420717: $GPZDA,191650.00,01,12,2017,00,00*6A
2017-12-01 14:16:49 1512155809.420890: $GPGGA,191650,3946.9516,N,08404.9828,W,2,12,0.80,332.22,M,-33.324,M,,*78
2017-12-01 14:16:49 1512155809.420975: $GPRMC,191650,A,3946.9516,N,08404.9828,W,0.0000,0.000,011217,,*31
2017-12-01 14:16:49 1512155809.421038: $GPGSA,A,3,8,10,14,18,21,24,27,32,12,15,20,138,2.0,0.8,1.5*37
2017-12-01 14:16:50 1512155810.755157: $GPGSV,3,1,12,08,06,297,35,10,66,327,49,14,26,250,38,18,72,085,43*7D
2017-12-01 14:16:50 1512155810.755338: $GPGSV,3,2,12,21,32,180,44,24,47,063,49,27,08,262,35,32,44,262,46*75
2017-12-01 14:16:50 1512155810.755405: $GPGSV,3,3,12,12,07,109,33,15,13,064,29,20,11,117,26,138,38,213,47*4A
2017-12-01 14:16:50 1512155810.868809: $GPZDA,191651.00,01,12,2017,00,00*6B
2017-12-01 14:16:50 1512155810.868985: $GPGGA,191651,3946.9516,N,08404.9828,W,2,12,0.80,332.22,M,-33.324,M,,*79
2017-12-01 14:16:50 1512155810.869051: $GPRMC,191651,A,3946.9516,N,08404.9828,W,0.0000,0.000,011217,,*30
2017-12-01 14:16:50 1512155810.869112: $GPGSA,A,3,8,10,14,18,21,24,27,32,12,15,20,138,2.0,0.8,1.5*37
2017-12-01 14:16:51 1512155811.418510: $GPZDA,191652.00,01,12,2017,00,00*68
2017-12-01 14:16:51 1512155811.418744: $GPGGA,191652,3946.9516,N,08404.9828,W,2,12,0.80,332.22,M,-33.324,M,,*7A
2017-12-01 14:16:51 1512155811.418835: $GPRMC,191652,A,3946.9516,N,08404.9828,W,0.0000,0.000,011217,,*33
2017-12-01 14:16:51 1512155811.419022: $GPGSA,A,3,8,10,14,18,21,24,27,32,12,15,20,138,2.0,0.8,1.5*37
2017-12-01 14:16:52 1512155812.418509: $GPZDA,191653.00,01,12,2017,00,00*69
2017-12-01 14:16:52 1512155812.418757: $GPGGA,191653,3946.9516,N,08404.9828,W,2,12,0.80,332.22,M,-33.324,M,,*7B
2017-12-01 14:16:52 1512155812.418826: $GPRMC,191653,A,3946.9516,N,08404.9828,W,0.0000,0.000,011217,,*32
2017-12-01 14:16:52 1512155812.418889: $GPGSA,A,3,8,10,14,18,21,24,27,32,12,15,20,138,2.0,0.8,1.5*37
2017-12-01 14:16:53 1512155813.755598: $GPGSV,3,1,12,08,06,297,34,10,66,327,49,14,26,250,39,18,72,085,44*7A
2017-12-01 14:16:53 1512155813.755796: $GPGSV,3,2,12,21,32,180,44,24,47,063,49,27,08,262,34,32,44,262,46*74
2017-12-01 14:16:53 1512155813.755864: $GPGSV,3,3,12,12,07,109,35,15,13,064,29,20,11,117,25,138,38,213,46*4E
2017-12-01 14:16:53 1512155813.869139: $GPZDA,191654.00,01,12,2017,00,00*6E
2017-12-01 14:16:53 1512155813.869312: $GPGGA,191654,3946.9520,N,08404.9828,W,2,12,0.80,332.86,M,-33.324,M,,*77
2017-12-01 14:16:53 1512155813.869379: $GPRMC,191654,A,3946.9520,N,08404.9828,W,0.0000,0.000,011217,,*30
2017-12-01 14:16:53 1512155813.869441: $GPGSA,A,3,8,10,14,18,21,24,27,32,12,15,20,138,2.0,0.8,1.5*37
2017-12-01 14:16:54 1512155814.421258: $GPZDA,191655.00,01,12,2017,00,00*6F
2017-12-01 14:16:54 1512155814.421591: $GPGGA,191655,3946.9520,N,08404.9828,W,2,12,0.80,332.86,M,-33.324,M,,*76
2017-12-01 14:16:54 1512155814.421756: $GPRMC,191655,A,3946.9520,N,08404.9828,W,0.0000,0.000,011217,,*31
2017-12-01 14:16:54 1512155814.421873: $GPGSA,A,3,8,10,14,18,21,24,27,32,12,15,20,138,2.0,0.8,1.5*37
2017-12-01 14:16:55 1512155815.412173: $GPZDA,191656.00,01,12,2017,00,00*6C
2017-12-01 14:16:55 1512155815.412345: $GPGGA,191656,3946.9516,N,08404.9828,W,2,12,0.80,333.62,M,-33.324,M,,*7B
2017-12-01 14:16:55 1512155815.412412: $GPRMC,191656,A,3946.9516,N,08404.9828,W,0.0000,0.000,011217,,*37
2017-12-01 14:16:55 1512155815.412473: $GPGSA,A,3,8,10,14,18,21,24,27,32,12,15,20,138,2.0,0.8,1.5*37
2017-12-01 14:16:56 1512155816.749418: $GPGSV,3,1,12,08,06,297,34,10,66,327,49,14,26,250,40,18,72,085,44*74
2017-12-01 14:16:56 1512155816.750035: $GPGSV,3,2,12,21,32,180,45,24,47,063,50,27,08,262,34,32,44,262,46*7D
2017-12-01 14:16:56 1512155816.750184: $GPGSV,3,3,12,12,07,109,34,15,13,064,30,20,11,117,24,138,38,213,46*46
2017-12-01 14:16:56 1512155816.861867: $GPZDA,191657.00,01,12,2017,00,00*6D
2017-12-01 14:16:56 1512155816.862058: $GPGGA,191657,3946.9516,N,08404.9828,W,2,12,0.80,333.62,M,-33.324,M,,*7A
2017-12-01 14:16:56 1512155816.862126: $GPRMC,191657,A,3946.9516,N,08404.9828,W,0.0000,0.000,011217,,*36
2017-12-01 14:16:56 1512155816.862188: $GPGSA,A,3,8,10,14,18,21,24,27,32,12,15,20,138,2.0,0.8,1.5*37
