2017-11-15 19:25:46 1510791946.702355: {"class":"VERSION","release":"3.17","rev":"3.17","proto_major":3,"proto_minor":12}
2017-11-15 19:25:46 1510791946.702936: {"class":"DEVICES","devices":[{"class":"DEVICE","path":"/dev/ttyUSB0","driver":"SiRF","subtype":"9\u0006GSD4e_4.1.2-P1_RPATCH.05-F-GPS-4R-1510281 11/03/2015 307","activated":"2017-11-16T00:25:46.562Z","flags":1,"native":1,"bps":4800,"parity":"N","stopbits":1,"cycle":1.00}]}
2017-11-15 19:25:46 1510791946.703049: {"class":"WATCH","enable":true,"json":false,"nmea":true,"raw":0,"scaled":false,"timing":false,"split24":false,"pps":false}
2017-11-15 19:25:47 1510791947.330478: $GPZDA,002546.00,16,11,2017,00,00*60
2017-11-15 19:25:47 1510791947.330669: $GPGGA,002546,3946.9603,N,08404.9485,W,1,06,1.80,273.77,M,-33.324,M,,*78
2017-11-15 19:25:47 1510791947.330731: $GPRMC,002546,A,3946.9603,N,08404.9485,W,1.0567,17.448,161117,,*0C
2017-11-15 19:25:47 1510791947.330788: $GPGSA,A,3,32,31,16,26,14,22,,,,,,,3.4,1.8,2.9*32
2017-11-15 19:25:48 1510791948.666009: $GPGSV,3,1,11,32,38,105,25,31,70,021,24,16,20,190,16,26,50,174,29*70
2017-11-15 19:25:48 1510791948.666200: $GPGSV,3,2,11,14,57,088,19,25,19,040,10,22,50,274,20,03,38,301,05*74
2017-11-15 19:25:48 1510791948.666264: $GPGSV,3,3,11,29,10,073,12,23,09,300,00,01,07,255,00*4B
2017-11-15 19:25:48 1510791948.779270: $GPZDA,002547.00,16,11,2017,00,00*61
2017-11-15 19:25:48 1510791948.779455: $GPGGA,002547,3946.9603,N,08404.9485,W,1,06,1.80,273.77,M,-33.324,M,,*79
2017-11-15 19:25:48 1510791948.779519: $GPRMC,002547,A,3946.9603,N,08404.9485,W,1.3921,14.217,161117,,*0F
2017-11-15 19:25:48 1510791948.779575: $GPGSA,A,3,32,31,16,26,14,22,,,,,,,3.4,1.8,2.9*32
2017-11-15 19:25:49 1510791949.330144: $GPZDA,002548.00,16,11,2017,00,00*6E
2017-11-15 19:25:49 1510791949.330303: $GPGGA,002548,3946.9606,N,08404.9484,W,1,06,1.80,273.00,M,-33.324,M,,*72
2017-11-15 19:25:49 1510791949.330364: $GPRMC,002548,A,3946.9606,N,08404.9484,W,1.2621,39.347,161117,,*01
2017-11-15 19:25:49 1510791949.330421: $GPGSA,A,3,32,31,16,26,14,22,,,,,,,3.4,1.8,2.9*32
2017-11-15 19:25:50 1510791950.329764: $GPZDA,002549.00,16,11,2017,00,00*6F
2017-11-15 19:25:50 1510791950.329923: $GPGGA,002549,3946.9606,N,08404.9484,W,1,06,1.80,273.00,M,-33.324,M,,*73
2017-11-15 19:25:50 1510791950.329984: $GPRMC,002549,A,3946.9606,N,08404.9484,W,0.8414,39.347,161117,,*0F
2017-11-15 19:25:50 1510791950.330040: $GPGSA,A,3,32,31,16,26,14,22,,,,,,,3.4,1.8,2.9*32
2017-11-15 19:25:51 1510791951.666349: $GPGSV,3,1,11,32,38,105,25,31,70,021,24,16,20,190,16,26,50,174,29*70
2017-11-15 19:25:51 1510791951.666521: $GPGSV,3,2,11,14,57,088,19,25,19,040,10,22,50,274,20,03,38,301,04*75
2017-11-15 19:25:51 1510791951.666581: $GPGSV,3,3,11,29,10,073,12,23,09,300,00,01,07,255,00*4B
2017-11-15 19:25:51 1510791951.779988: $GPZDA,002550.00,16,11,2017,00,00*67
2017-11-15 19:25:51 1510791951.780149: $GPGGA,002550,3946.9602,N,08404.9477,W,1,07,1.80,272.44,M,-33.324,M,,*73
2017-11-15 19:25:51 1510791951.780209: $GPRMC,002550,A,3946.9602,N,08404.9477,W,0.3006,62.540,161117,,*0C
2017-11-15 19:25:51 1510791951.780265: $GPGSA,A,3,32,31,16,26,14,25,22,,,,,,3.4,1.8,2.9*35
2017-11-15 19:25:52 1510791952.329732: $GPZDA,002551.00,16,11,2017,00,00*66
2017-11-15 19:25:52 1510791952.329909: $GPGGA,002551,3946.9598,N,08404.9477,W,1,07,1.80,271.80,M,-33.324,M,,*79
2017-11-15 19:25:52 1510791952.329995: $GPRMC,002551,A,3946.9598,N,08404.9477,W,0.5306,114.352,161117,,*3D
2017-11-15 19:25:52 1510791952.330052: $GPGSA,A,3,32,31,16,26,14,25,22,,,,,,3.4,1.8,2.9*35
2017-11-15 19:25:53 1510791953.329238: $GPZDA,002552.00,16,11,2017,00,00*65
2017-11-15 19:25:53 1510791953.329406: $GPGGA,002552,3946.9598,N,08404.9477,W,1,07,1.80,271.80,M,-33.324,M,,*7A
2017-11-15 19:25:53 1510791953.329466: $GPRMC,002552,A,3946.9598,N,08404.9477,W,0.3155,129.994,161117,,*32
2017-11-15 19:25:53 1510791953.329523: $GPGSA,A,3,32,31,16,26,14,25,22,,,,,,3.4,1.8,2.9*35
2017-11-15 19:25:54 1510791954.664772: $GPGSV,3,1,11,32,38,105,25,31,70,021,24,16,20,190,17,26,50,174,29*71
2017-11-15 19:25:54 1510791954.664942: $GPGSV,3,2,11,14,57,088,18,23,09,300,09,22,50,274,20,03,38,301,06*7E
2017-11-15 19:25:54 1510791954.665055: $GPGSV,3,3,11,25,19,040,00,29,10,073,00,01,07,255,00*48
2017-11-15 19:25:54 1510791954.778534: $GPZDA,002553.00,16,11,2017,00,00*64
2017-11-15 19:25:54 1510791954.778704: $GPGGA,002553,3946.9601,N,08404.9476,W,1,06,1.80,271.04,M,-33.324,M,,*74
2017-11-15 19:25:54 1510791954.778766: $GPRMC,002553,A,3946.9601,N,08404.9476,W,0.3423,4.197,161117,,*30
2017-11-15 19:25:54 1510791954.778821: $GPGSA,A,3,32,31,16,26,14,22,,,,,,,3.4,1.8,2.9*32
2017-11-15 19:25:55 1510791955.328952: $GPZDA,002554.00,16,11,2017,00,00*63
2017-11-15 19:25:55 1510791955.329372: $GPGGA,002554,3946.9597,N,08404.9476,W,1,06,1.80,270.40,M,-33.324,M,,*7E
2017-11-15 19:25:55 1510791955.329496: $GPRMC,002554,A,3946.9597,N,08404.9476,W,0.5912,309.173,161117,,*36
2017-11-15 19:25:55 1510791955.329611: $GPGSA,A,3,32,31,16,26,14,22,,,,,,,3.4,1.8,2.9*32
2017-11-15 19:25:56 1510791956.329367: $GPZDA,002555.00,16,11,2017,00,00*62
2017-11-15 19:25:56 1510791956.329535: $GPGGA,002555,3946.9597,N,08404.9476,W,1,06,1.80,270.40,M,-33.324,M,,*7F
2017-11-15 19:25:56 1510791956.329597: $GPRMC,002555,A,3946.9597,N,08404.9476,W,0.2422,273.794,161117,,*3D
2017-11-15 19:25:56 1510791956.329654: $GPGSA,A,3,32,31,16,26,14,22,,,,,,,3.4,1.8,2.9*32
