2017-12-01 16:59:20 1512165560.767691: {"class":"VERSION","release":"3.16","rev":"3.16-4","proto_major":3,"proto_minor":11}
2017-12-01 16:59:20 1512165560.768130: {"class":"DEVICES","devices":[{"class":"DEVICE","path":"/dev/ttyUSB0","driver":"SiRF","subtype":"9\u0006GSD4e_4.1.2-P1_RPATCH.05-F-GPS-4R-1510281 11/03/2015 307","activated":"2017-12-01T21:59:20.409Z","flags":1,"native":1,"bps":4800,"parity":"N","stopbits":1,"cycle":1.00}]}
2017-12-01 16:59:20 1512165560.768259: {"class":"WATCH","enable":true,"json":false,"nmea":true,"raw":0,"scaled":false,"timing":false,"split24":false,"pps":false}
2017-12-01 16:59:21 1512165561.014792: $GPZDA,215921.67,01,12,2017,00,00*6D
2017-12-01 16:59:21 1512165561.014960: $GPGGA,215921,3946.9618,N,08404.9764,W,1,11,1.40,296.92,M,-33.324,M,,*7D
2017-12-01 16:59:21 1512165561.015027: $GPRMC,215921,A,3946.9618,N,08404.9764,W,0.5918,54.767,011217,,*0F
2017-12-01 16:59:21 1512165561.015089: $GPGSA,A,3,1,3,10,12,22,26,31,32,18,25,138,,2.0,1.4,1.5*02
2017-12-01 16:59:22 1512165562.120373: $GPZDA,215922.35,01,12,2017,00,00*69
2017-12-01 16:59:22 1512165562.120543: $GPGGA,215922,3946.9618,N,08404.9764,W,1,11,1.40,296.92,M,-33.324,M,,*7E
2017-12-01 16:59:22 1512165562.120631: $GPRMC,215922,A,3946.9618,N,08404.9764,W,0.1867,180.000,011217,,*3F
2017-12-01 16:59:22 1512165562.120693: $GPGSA,A,3,1,3,10,12,22,26,31,32,18,25,138,,2.0,1.4,1.5*02
2017-12-01 16:59:22 1512165562.120770: $GPGBS,215922,10.70,M,15.43,M,35.28,M*08
2017-12-01 16:59:23 1512165563.285042: $GPGSV,3,1,12,01,22,286,42,03,11,316,42,10,34,153,37,12,15,039,06*7C
2017-12-01 16:59:23 1512165563.285227: $GPGSV,3,2,12,14,70,003,45,22,30,309,44,26,14,180,34,31,69,243,49*78
2017-12-01 16:59:23 1512165563.285294: $GPGSV,3,3,12,32,62,060,49,25,40,072,31,18,06,147,08,138,38,213,00*44
2017-12-01 16:59:23 1512165563.398393: $GPZDA,215923.00,01,12,2017,00,00*6E
2017-12-01 16:59:23 1512165563.398544: $GPGGA,215923,3946.9618,N,08404.9764,W,1,09,1.00,296.92,M,-33.324,M,,*72
2017-12-01 16:59:23 1512165563.398637: $GPRMC,215923,A,3946.9618,N,08404.9764,W,0.1867,180.000,011217,,*3E
2017-12-01 16:59:23 1512165563.398717: $GPGSA,A,3,1,3,10,14,22,26,31,32,25,,,,2.0,1.0,1.5*33
2017-12-01 16:59:23 1512165563.849540: $GPZDA,215924.00,01,12,2017,00,00*69
2017-12-01 16:59:23 1512165563.849745: $GPGGA,215924,3946.9618,N,08404.9764,W,1,09,0.60,296.92,M,-33.324,M,,*72
2017-12-01 16:59:23 1512165563.849812: $GPRMC,215924,A,3946.9618,N,08404.9764,W,0.2710,100.223,011217,,*3E
2017-12-01 16:59:23 1512165563.849874: $GPGSA,A,3,1,3,10,14,22,26,31,32,25,,,,2.0,0.6,1.5*34
2017-12-01 16:59:24 1512165564.405642: $GPZDA,215925.00,01,12,2017,00,00*68
2017-12-01 16:59:24 1512165564.405828: $GPGGA,215925,3946.9618,N,08404.9764,W,1,09,0.60,296.92,M,-33.324,M,,*73
2017-12-01 16:59:24 1512165564.405895: $GPRMC,215925,A,3946.9618,N,08404.9764,W,0.0000,0.000,011217,,*39
2017-12-01 16:59:24 1512165564.405956: $GPGSA,A,3,1,3,10,14,22,26,31,32,25,,,,2.0,0.6,1.5*34
2017-12-01 16:59:25 1512165565.741751: $GPGSV,3,1,12,01,22,286,42,03,11,316,41,10,34,153,37,12,15,039,17*7F
2017-12-01 16:59:25 1512165565.741946: $GPGSV,3,2,12,14,70,003,45,22,30,309,44,26,14,180,33,31,69,243,49*7F
2017-12-01 16:59:25 1512165565.742033: $GPGSV,3,3,12,32,62,060,49,25,40,072,31,18,06,147,25,138,38,213,40*4F
2017-12-01 16:59:25 1512165565.855108: $GPZDA,215926.00,01,12,2017,00,00*6B
2017-12-01 16:59:25 1512165565.855281: $GPGGA,215926,3946.9621,N,08404.9756,W,1,12,0.60,296.24,M,-33.324,M,,*7C
2017-12-01 16:59:25 1512165565.855348: $GPRMC,215926,A,3946.9621,N,08404.9756,W,0.0000,0.000,011217,,*31
2017-12-01 16:59:25 1512165565.855409: $GPGSA,A,3,1,3,10,12,14,22,26,31,32,25,18,138,2.0,0.6,1.5*04
2017-12-01 16:59:26 1512165566.404911: $GPZDA,215927.00,01,12,2017,00,00*6A
2017-12-01 16:59:26 1512165566.405079: $GPGGA,215927,3946.9617,N,08404.9756,W,1,12,0.60,295.60,M,-33.324,M,,*7B
2017-12-01 16:59:26 1512165566.405146: $GPRMC,215927,A,3946.9617,N,08404.9756,W,0.0000,0.000,011217,,*35
2017-12-01 16:59:26 1512165566.405208: $GPGSA,A,3,1,3,10,12,14,22,26,31,32,25,18,138,2.0,0.6,1.5*04
2017-12-01 16:59:27 1512165567.404454: $GPZDA,215928.00,01,12,2017,00,00*65
2017-12-01 16:59:27 1512165567.404649: $GPGGA,215928,3946.9617,N,08404.9756,W,1,12,0.60,295.60,M,-33.324,M,,*74
2017-12-01 16:59:27 1512165567.404744: $GPRMC,215928,A,3946.9617,N,08404.9756,W,0.0000,0.000,011217,,*3A
2017-12-01 16:59:27 1512165567.404806: $GPGSA,A,3,1,3,10,12,14,22,26,31,32,25,18,138,2.0,0.6,1.5*04
2017-12-01 16:59:27 1512165567.404864: $GPGBS,215928,10.70,M,15.43,M,35.28,M*02
2017-12-01 16:59:28 1512165568.741085: $GPGSV,3,1,12,01,22,286,41,03,11,316,42,10,34,153,36,12,15,039,16*7F
2017-12-01 16:59:28 1512165568.741261: $GPGSV,3,2,12,14,70,003,45,22,30,309,45,26,14,180,33,31,69,243,48*7F
2017-12-01 16:59:28 1512165568.741326: $GPGSV,3,3,12,32,62,060,49,25,40,072,31,18,06,147,24,138,38,213,40*4E
2017-12-01 16:59:28 1512165568.854874: $GPZDA,215929.00,01,12,2017,00,00*64
2017-12-01 16:59:28 1512165568.855039: $GPGGA,215929,3946.9617,N,08404.9756,W,1,12,0.60,295.60,M,-33.324,M,,*75
2017-12-01 16:59:28 1512165568.855105: $GPRMC,215929,A,3946.9617,N,08404.9756,W,0.0000,0.000,011217,,*3B
2017-12-01 16:59:28 1512165568.855165: $GPGSA,A,3,1,3,10,12,14,22,26,31,32,25,18,138,2.0,0.6,1.5*04
2017-12-01 16:59:29 1512165569.406816: $GPZDA,215930.00,01,12,2017,00,00*6C
2017-12-01 16:59:29 1512165569.407158: $GPGGA,215930,3946.9623,N,08404.9734,W,2,12,1.20,294.31,M,-33.324,M,,*7D
2017-12-01 16:59:29 1512165569.407310: $GPRMC,215930,A,3946.9623,N,08404.9734,W,0.0000,0.000,011217,,*30
2017-12-01 16:59:29 1512165569.407431: $GPGSA,A,3,1,3,10,12,14,22,26,31,32,25,18,138,2.0,1.2,1.5*01
2017-12-01 16:59:30 1512165570.406168: $GPZDA,215931.00,01,12,2017,00,00*6D
2017-12-01 16:59:30 1512165570.406339: $GPGGA,215931,3946.9623,N,08404.9734,W,2,12,1.20,294.31,M,-33.324,M,,*7C
2017-12-01 16:59:30 1512165570.406405: $GPRMC,215931,A,3946.9623,N,08404.9734,W,0.0000,0.000,011217,,*31
2017-12-01 16:59:30 1512165570.406466: $GPGSA,A,3,1,3,10,12,14,22,26,31,32,25,18,138,2.0,1.2,1.5*01
2017-12-01 16:59:31 1512165571.742747: $GPGSV,3,1,12,01,22,286,41,03,11,316,41,10,34,153,36,12,15,039,16*7C
2017-12-01 16:59:31 1512165571.742905: $GPGSV,3,2,12,14,70,003,45,22,30,309,45,26,14,180,32,31,69,243,48*7E
2017-12-01 16:59:31 1512165571.742972: $GPGSV,3,3,12,32,62,060,49,25,40,072,31,18,06,147,24,138,38,213,40*4E
2017-12-01 16:59:31 1512165571.856374: $GPZDA,215932.00,01,12,2017,00,00*6E
2017-12-01 16:59:31 1512165571.856580: $GPGGA,215932,3946.9623,N,08404.9734,W,2,12,1.20,294.31,M,-33.324,M,,*7F
2017-12-01 16:59:31 1512165571.856665: $GPRMC,215932,A,3946.9623,N,08404.9734,W,0.0000,0.000,011217,,*32
2017-12-01 16:59:31 1512165571.856728: $GPGSA,A,3,1,3,10,12,14,22,26,31,32,25,18,138,2.0,1.2,1.5*01
2017-12-01 16:59:32 1512165572.405911: $GPZDA,215933.00,01,12,2017,00,00*6F
2017-12-01 16:59:32 1512165572.406084: $GPGGA,215933,3946.9623,N,08404.9734,W,2,12,1.20,294.31,M,-33.324,M,,*7E
2017-12-01 16:59:32 1512165572.406152: $GPRMC,215933,A,3946.9623,N,08404.9734,W,0.0000,0.000,011217,,*33
2017-12-01 16:59:32 1512165572.406213: $GPGSA,A,3,1,3,10,12,14,22,26,31,32,25,18,138,2.0,1.2,1.5*01
2017-12-01 16:59:33 1512165573.406147: $GPZDA,215934.00,01,12,2017,00,00*68
2017-12-01 16:59:33 1512165573.406322: $GPGGA,215934,3946.9620,N,08404.9741,W,2,12,1.20,294.99,M,-33.324,M,,*7A
2017-12-01 16:59:33 1512165573.406391: $GPRMC,215934,A,3946.9620,N,08404.9741,W,0.3423,4.197,011217,,*38
2017-12-01 16:59:33 1512165573.406453: $GPGSA,A,3,1,3,10,12,14,22,26,31,32,25,18,138,2.0,1.2,1.5*01
2017-12-01 16:59:34 1512165574.739929: $GPGSV,3,1,12,01,22,286,41,03,11,316,41,10,34,153,36,12,15,039,16*7C
2017-12-01 16:59:34 1512165574.740111: $GPGSV,3,2,12,14,70,003,44,22,30,309,44,26,14,180,32,31,69,243,47*71
2017-12-01 16:59:34 1512165574.740179: $GPGSV,3,3,12,32,62,060,48,25,40,072,30,18,06,147,23,138,38,213,40*49
2017-12-01 16:59:34 1512165574.853532: $GPZDA,215935.00,01,12,2017,00,00*69
2017-12-01 16:59:34 1512165574.853696: $GPGGA,215935,3946.9620,N,08404.9741,W,2,12,1.20,294.99,M,-33.324,M,,*7B
2017-12-01 16:59:34 1512165574.853764: $GPRMC,215935,A,3946.9620,N,08404.9741,W,0.3423,4.197,011217,,*39
2017-12-01 16:59:34 1512165574.853912: $GPGSA,A,2,1,3,10,12,14,22,26,31,32,25,18,138,2.0,1.2,1.5*00
2017-12-01 16:59:35 1512165575.479861: $GPZDA,215936.00,01,12,2017,00,00*6A
2017-12-01 16:59:35 1512165575.480141: $GPGGA,215936,3946.9624,N,08404.9748,W,2,12,1.20,295.55,M,-33.324,M,,*74
2017-12-01 16:59:35 1512165575.480252: $GPRMC,215936,A,3946.9624,N,08404.9748,W,0.5287,2.716,011217,,*30
2017-12-01 16:59:35 1512165575.480388: $GPGSA,A,2,1,3,10,12,14,22,26,31,32,25,18,138,2.0,1.2,1.5*00
2017-12-01 16:59:36 1512165576.405984: $GPZDA,215937.00,01,12,2017,00,00*6B
2017-12-01 16:59:36 1512165576.406141: $GPGGA,215937,3946.9624,N,08404.9748,W,2,12,1.20,295.55,M,-33.324,M,,*75
2017-12-01 16:59:36 1512165576.406207: $GPRMC,215937,A,3946.9624,N,08404.9748,W,0.0000,0.000,011217,,*3B
2017-12-01 16:59:36 1512165576.406268: $GPGSA,A,3,1,3,10,12,14,22,26,31,32,25,18,138,2.0,1.2,1.5*01
2017-12-01 16:59:37 1512165577.743962: $GPGSV,3,1,12,01,22,286,41,03,11,316,41,10,34,153,36,12,15,039,16*7C
2017-12-01 16:59:37 1512165577.744116: $GPGSV,3,2,12,14,70,003,45,22,30,309,44,26,14,180,33,31,69,243,48*7E
2017-12-01 16:59:37 1512165577.744184: $GPGSV,3,3,12,32,62,060,49,25,40,072,28,18,06,147,23,138,38,213,40*41
2017-12-01 16:59:37 1512165577.857455: $GPZDA,215938.00,01,12,2017,00,00*64
2017-12-01 16:59:37 1512165577.857676: $GPGGA,215938,3946.9624,N,08404.9748,W,2,12,1.20,295.55,M,-33.324,M,,*7A
2017-12-01 16:59:37 1512165577.857745: $GPRMC,215938,A,3946.9624,N,08404.9748,W,0.0000,0.000,011217,,*34
2017-12-01 16:59:37 1512165577.857806: $GPGSA,A,3,1,3,10,12,14,22,26,31,32,25,18,138,2.0,1.2,1.5*01
2017-12-01 16:59:38 1512165578.408224: $GPZDA,215939.00,01,12,2017,00,00*65
2017-12-01 16:59:38 1512165578.408418: $GPGGA,215939,3946.9624,N,08404.9748,W,2,12,1.20,295.55,M,-33.324,M,,*7B
2017-12-01 16:59:38 1512165578.408508: $GPRMC,215939,A,3946.9624,N,08404.9748,W,0.0000,0.000,011217,,*35
2017-12-01 16:59:38 1512165578.408572: $GPGSA,A,3,1,3,10,12,14,22,26,31,32,25,18,138,2.0,1.2,1.5*01
2017-12-01 16:59:39 1512165579.408068: $GPZDA,215940.00,01,12,2017,00,00*6B
2017-12-01 16:59:39 1512165579.408246: $GPGGA,215940,3946.9624,N,08404.9748,W,2,12,0.60,295.55,M,-33.324,M,,*70
2017-12-01 16:59:39 1512165579.408314: $GPRMC,215940,A,3946.9624,N,08404.9748,W,0.0000,0.000,011217,,*3B
2017-12-01 16:59:39 1512165579.408375: $GPGSA,A,3,1,3,10,12,14,22,26,31,32,25,18,138,2.0,0.6,1.5*04
2017-12-01 16:59:39 1512165579.408434: $GPGBS,215940,2.67,M,3.86,M,8.82,M*39
2017-12-01 16:59:40 1512165580.742933: $GPGSV,3,1,12,01,22,286,41,03,11,316,41,10,34,153,36,12,15,039,17*7D
2017-12-01 16:59:40 1512165580.743115: $GPGSV,3,2,12,14,70,003,45,22,30,309,45,26,14,180,34,31,69,243,47*77
2017-12-01 16:59:40 1512165580.743183: $GPGSV,3,3,12,32,62,060,50,25,40,072,22,18,06,147,23,138,38,213,40*43
