2017-12-01 16:07:21 1512162441.787128: {"class":"VERSION","release":"3.16","rev":"3.16-4","proto_major":3,"proto_minor":11}
2017-12-01 16:07:21 1512162441.787521: {"class":"DEVICES","devices":[{"class":"DEVICE","path":"/dev/ttyUSB0","driver":"SiRF","subtype":"9\u0006GSD4e_4.1.2-P1_RPATCH.05-F-GPS-4R-1510281 11/03/2015 307","activated":"2017-12-01T21:07:21.693Z","flags":1,"native":1,"bps":4800,"parity":"N","stopbits":1,"cycle":1.00}]}
2017-12-01 16:07:21 1512162441.787660: {"class":"WATCH","enable":true,"json":false,"nmea":true,"raw":0,"scaled":false,"timing":false,"split24":false,"pps":false}
2017-12-01 16:07:22 1512162442.378647: $GPZDA,210723.00,01,12,2017,00,00*65
2017-12-01 16:07:22 1512162442.378818: $GPGGA,210723,3946.9588,N,08404.9808,W,2,12,0.80,308.38,M,-33.324,M,,*70
2017-12-01 16:07:22 1512162442.378906: $GPRMC,210723,A,3946.9588,N,08404.9808,W,0.0000,0.000,011217,,*3B
2017-12-01 16:07:22 1512162442.378969: $GPGSA,A,3,10,11,12,14,18,22,25,31,32,1,24,138,2.0,0.8,1.5*3B
2017-12-01 16:07:23 1512162443.715644: $GPGSV,3,1,12,10,59,141,48,11,10,292,36,12,25,060,43,14,61,307,44*73
2017-12-01 16:07:23 1512162443.715825: $GPGSV,3,2,12,18,28,139,44,22,10,312,40,25,36,103,48,31,45,217,49*70
2017-12-01 16:07:23 1512162443.715915: $GPGSV,3,3,12,32,70,358,47,01,18,310,34,24,06,046,32,138,38,213,46*4C
2017-12-01 16:07:23 1512162443.829325: $GPZDA,210724.00,01,12,2017,00,00*62
2017-12-01 16:07:23 1512162443.829492: $GPGGA,210724,3946.9588,N,08404.9808,W,2,12,0.80,308.38,M,-33.324,M,,*77
2017-12-01 16:07:23 1512162443.829559: $GPRMC,210724,A,3946.9588,N,08404.9808,W,0.0000,0.000,011217,,*3C
2017-12-01 16:07:23 1512162443.829620: $GPGSA,A,3,10,11,12,14,18,22,25,31,32,1,24,138,2.0,0.8,1.5*3B
2017-12-01 16:07:24 1512162444.378721: $GPZDA,210725.00,01,12,2017,00,00*63
2017-12-01 16:07:24 1512162444.378909: $GPGGA,210725,3946.9588,N,08404.9815,W,2,12,0.80,308.30,M,-33.324,M,,*72
2017-12-01 16:07:24 1512162444.379013: $GPRMC,210725,A,3946.9588,N,08404.9815,W,0.0000,0.000,011217,,*31
2017-12-01 16:07:24 1512162444.379078: $GPGSA,A,3,10,11,12,14,18,22,25,31,32,1,24,138,2.0,0.8,1.5*3B
2017-12-01 16:07:25 1512162445.378481: $GPZDA,210726.00,01,12,2017,00,00*60
2017-12-01 16:07:25 1512162445.378676: $GPGGA,210726,3946.9588,N,08404.9815,W,2,12,0.80,308.30,M,-33.324,M,,*71
2017-12-01 16:07:25 1512162445.378746: $GPRMC,210726,A,3946.9588,N,08404.9815,W,0.0000,0.000,011217,,*32
2017-12-01 16:07:25 1512162445.378808: $GPGSA,A,3,10,11,12,14,18,22,25,31,32,1,24,138,2.0,0.8,1.5*3B
2017-12-01 16:07:26 1512162446.712778: $GPGSV,3,1,12,10,59,141,48,11,10,292,31,12,25,060,44,14,61,307,44*73
2017-12-01 16:07:26 1512162446.712992: $GPGSV,3,2,12,18,28,139,43,22,10,312,39,25,36,103,48,31,45,217,49*79
2017-12-01 16:07:26 1512162446.713060: $GPGSV,3,3,12,32,70,358,47,01,18,310,34,24,06,046,32,138,38,213,46*4C
2017-12-01 16:07:26 1512162446.826151: $GPZDA,210727.00,01,12,2017,00,00*61
2017-12-01 16:07:26 1512162446.826333: $GPGGA,210727,3946.9588,N,08404.9815,W,2,12,0.80,308.30,M,-33.324,M,,*70
2017-12-01 16:07:26 1512162446.826400: $GPRMC,210727,A,3946.9588,N,08404.9815,W,0.0000,0.000,011217,,*33
2017-12-01 16:07:26 1512162446.826463: $GPGSA,A,3,10,11,12,14,18,22,25,31,32,1,24,138,2.0,0.8,1.5*3B
2017-12-01 16:07:27 1512162447.451431: $GPZDA,210728.00,01,12,2017,00,00*6E
2017-12-01 16:07:27 1512162447.451610: $GPGGA,210728,3946.9588,N,08404.9815,W,2,12,0.80,308.30,M,-33.324,M,,*7F
2017-12-01 16:07:27 1512162447.451678: $GPRMC,210728,A,3946.9588,N,08404.9815,W,0.0000,0.000,011217,,*3C
2017-12-01 16:07:27 1512162447.451742: $GPGSA,A,3,10,11,12,14,18,22,25,31,32,1,24,138,2.0,0.8,1.5*3B
2017-12-01 16:07:28 1512162448.379876: $GPZDA,210729.00,01,12,2017,00,00*6F
2017-12-01 16:07:28 1512162448.380062: $GPGGA,210729,3946.9588,N,08404.9815,W,2,12,0.80,308.30,M,-33.324,M,,*7E
2017-12-01 16:07:28 1512162448.380130: $GPRMC,210729,A,3946.9588,N,08404.9815,W,0.0000,0.000,011217,,*3D
2017-12-01 16:07:28 1512162448.380191: $GPGSA,A,3,10,11,12,14,18,22,25,31,32,1,24,138,2.0,0.8,1.5*3B
2017-12-01 16:07:29 1512162449.714409: $GPGSV,3,1,12,10,59,141,48,11,10,292,24,12,25,060,44,14,61,307,44*77
2017-12-01 16:07:29 1512162449.714655: $GPGSV,3,2,12,18,28,139,43,22,10,312,39,25,36,103,48,31,45,217,49*79
2017-12-01 16:07:29 1512162449.714728: $GPGSV,3,3,12,32,70,358,47,01,18,310,33,24,06,046,32,138,38,213,46*4B
2017-12-01 16:07:29 1512162449.828263: $GPZDA,210730.00,01,12,2017,00,00*67
2017-12-01 16:07:29 1512162449.828434: $GPGGA,210730,3946.9588,N,08404.9815,W,2,12,0.80,308.30,M,-33.324,M,,*76
2017-12-01 16:07:29 1512162449.828499: $GPRMC,210730,A,3946.9588,N,08404.9815,W,0.0000,0.000,011217,,*35
2017-12-01 16:07:29 1512162449.828573: $GPGSA,A,3,10,11,12,14,18,22,25,31,32,1,24,138,2.0,0.8,1.5*3B
2017-12-01 16:07:30 1512162450.378581: $GPZDA,210731.00,01,12,2017,00,00*66
2017-12-01 16:07:30 1512162450.378756: $GPGGA,210731,3946.9588,N,08404.9815,W,2,12,0.80,308.30,M,-33.324,M,,*77
2017-12-01 16:07:30 1512162450.378844: $GPRMC,210731,A,3946.9588,N,08404.9815,W,0.0000,0.000,011217,,*34
2017-12-01 16:07:30 1512162450.378907: $GPGSA,A,3,10,11,12,14,18,22,25,31,32,1,24,138,2.0,0.8,1.5*3B
2017-12-01 16:07:31 1512162451.380685: $GPZDA,210732.00,01,12,2017,00,00*65
2017-12-01 16:07:31 1512162451.380876: $GPGGA,210732,3946.9588,N,08404.9815,W,2,12,0.80,308.30,M,-33.324,M,,*74
2017-12-01 16:07:31 1512162451.380961: $GPRMC,210732,A,3946.9588,N,08404.9815,W,0.0000,0.000,011217,,*37
2017-12-01 16:07:31 1512162451.381024: $GPGSA,A,3,10,11,12,14,18,22,25,31,32,1,24,138,2.0,0.8,1.5*3B
2017-12-01 16:07:32 1512162452.713839: $GPGSV,3,1,12,10,59,141,48,11,10,292,23,12,25,060,44,14,61,307,44*70
2017-12-01 16:07:32 1512162452.714291: $GPGSV,3,2,12,18,28,139,43,22,10,312,39,25,36,103,48,31,45,217,49*79
2017-12-01 16:07:32 1512162452.714418: $GPGSV,3,3,12,32,70,358,47,01,18,310,34,24,06,046,32,138,38,213,45*4F
2017-12-01 16:07:32 1512162452.826794: $GPZDA,210733.00,01,12,2017,00,00*64
2017-12-01 16:07:32 1512162452.826999: $GPGGA,210733,3946.9588,N,08404.9815,W,2,12,0.80,308.30,M,-33.324,M,,*75
2017-12-01 16:07:32 1512162452.827067: $GPRMC,210733,A,3946.9588,N,08404.9815,W,0.0000,0.000,011217,,*36
2017-12-01 16:07:32 1512162452.827128: $GPGSA,A,3,10,11,12,14,18,22,25,31,32,1,24,138,2.0,0.8,1.5*3B
2017-12-01 16:07:33 1512162453.378976: $GPZDA,210734.00,01,12,2017,00,00*63
2017-12-01 16:07:33 1512162453.379151: $GPGGA,210734,3946.9588,N,08404.9815,W,2,12,0.80,308.30,M,-33.324,M,,*72
2017-12-01 16:07:33 1512162453.379219: $GPRMC,210734,A,3946.9588,N,08404.9815,W,0.0000,0.000,011217,,*31
2017-12-01 16:07:33 1512162453.379279: $GPGSA,A,3,10,11,12,14,18,22,25,31,32,1,24,138,2.0,0.8,1.5*3B
2017-12-01 16:07:34 1512162454.378533: $GPZDA,210735.00,01,12,2017,00,00*62
2017-12-01 16:07:34 1512162454.378703: $GPGGA,210735,3946.9588,N,08404.9815,W,2,12,0.80,308.30,M,-33.324,M,,*73
2017-12-01 16:07:34 1512162454.378769: $GPRMC,210735,A,3946.9588,N,08404.9815,W,0.0000,0.000,011217,,*30
2017-12-01 16:07:34 1512162454.378851: $GPGSA,A,3,10,11,12,14,18,22,25,31,32,1,24,138,2.0,0.8,1.5*3B
2017-12-01 16:07:35 1512162455.715511: $GPGSV,3,1,12,10,59,141,48,11,10,292,23,12,25,060,44,14,61,307,44*70
2017-12-01 16:07:35 1512162455.715692: $GPGSV,3,2,12,18,28,139,43,22,10,312,39,25,36,103,48,31,45,217,49*79
2017-12-01 16:07:35 1512162455.715759: $GPGSV,3,3,12,32,70,358,46,01,18,310,34,24,06,046,32,138,38,213,46*4D
2017-12-01 16:07:35 1512162455.828966: $GPZDA,210736.00,01,12,2017,00,00*61
2017-12-01 16:07:35 1512162455.829138: $GPGGA,210736,3946.9588,N,08404.9815,W,2,12,0.80,308.30,M,-33.324,M,,*70
2017-12-01 16:07:35 1512162455.829204: $GPRMC,210736,A,3946.9588,N,08404.9815,W,0.0000,0.000,011217,,*33
2017-12-01 16:07:35 1512162455.829265: $GPGSA,A,3,10,11,12,14,18,22,25,31,32,1,24,138,2.0,0.8,1.5*3B
2017-12-01 16:07:36 1512162456.379989: $GPZDA,210737.00,01,12,2017,00,00*60
2017-12-01 16:07:36 1512162456.381964: $GPGGA,210737,3946.9588,N,08404.9815,W,2,12,0.80,308.30,M,-33.324,M,,*71
2017-12-01 16:07:36 1512162456.382133: $GPRMC,210737,A,3946.9588,N,08404.9815,W,0.0000,0.000,011217,,*32
2017-12-01 16:07:36 1512162456.382250: $GPGSA,A,3,10,11,12,14,18,22,25,31,32,1,24,138,2.0,0.8,1.5*3B
2017-12-01 16:07:37 1512162457.379351: $GPZDA,210738.00,01,12,2017,00,00*6F
2017-12-01 16:07:37 1512162457.379520: $GPGGA,210738,3946.9588,N,08404.9815,W,2,12,0.80,308.30,M,-33.324,M,,*7E
2017-12-01 16:07:37 1512162457.379588: $GPRMC,210738,A,3946.9588,N,08404.9815,W,0.0000,0.000,011217,,*3D
2017-12-01 16:07:37 1512162457.379649: $GPGSA,A,3,10,11,12,14,18,22,25,31,32,1,24,138,2.0,0.8,1.5*3B
2017-12-01 16:07:38 1512162458.714706: $GPGSV,3,1,12,10,59,141,48,11,10,292,30,12,25,060,44,14,61,307,44*72
2017-12-01 16:07:38 1512162458.714907: $GPGSV,3,2,12,18,28,139,43,22,10,312,39,25,36,103,48,31,45,217,50*71
2017-12-01 16:07:38 1512162458.714991: $GPGSV,3,3,12,32,70,358,46,01,18,310,35,24,06,046,32,138,38,213,46*4C
2017-12-01 16:07:38 1512162458.828034: $GPZDA,210739.00,01,12,2017,00,00*6E
2017-12-01 16:07:38 1512162458.828211: $GPGGA,210739,3946.9588,N,08404.9815,W,2,12,0.80,308.30,M,-33.324,M,,*7F
2017-12-01 16:07:38 1512162458.828278: $GPRMC,210739,A,3946.9588,N,08404.9815,W,0.0000,0.000,011217,,*3C
2017-12-01 16:07:38 1512162458.828339: $GPGSA,A,3,10,11,12,14,18,22,25,31,32,1,24,138,2.0,0.8,1.5*3B
2017-12-01 16:07:39 1512162459.380169: $GPZDA,210740.00,01,12,2017,00,00*60
2017-12-01 16:07:39 1512162459.380480: $GPGGA,210740,3946.9588,N,08404.9815,W,2,12,0.80,308.30,M,-33.324,M,,*71
2017-12-01 16:07:39 1512162459.380550: $GPRMC,210740,A,3946.9588,N,08404.9815,W,0.0000,0.000,011217,,*32
2017-12-01 16:07:39 1512162459.380611: $GPGSA,A,3,10,11,12,14,18,22,25,31,32,1,24,138,2.0,0.8,1.5*3B
2017-12-01 16:07:40 1512162460.380215: $GPZDA,210741.00,01,12,2017,00,00*61
2017-12-01 16:07:40 1512162460.380381: $GPGGA,210741,3946.9588,N,08404.9815,W,2,12,0.80,308.30,M,-33.324,M,,*70
2017-12-01 16:07:40 1512162460.380447: $GPRMC,210741,A,3946.9588,N,08404.9815,W,0.0000,0.000,011217,,*33
2017-12-01 16:07:40 1512162460.380508: $GPGSA,A,3,10,11,12,14,18,22,25,31,32,1,24,138,2.0,0.8,1.5*3B
2017-12-01 16:07:41 1512162461.714278: $GPGSV,3,1,12,10,59,141,49,11,10,292,30,12,25,060,44,14,61,307,45*72
2017-12-01 16:07:41 1512162461.714459: $GPGSV,3,2,12,18,28,139,43,22,10,312,39,25,36,103,48,31,45,217,49*79
2017-12-01 16:07:41 1512162461.714525: $GPGSV,3,3,12,32,70,358,46,01,18,310,34,24,06,046,32,138,38,213,45*4E
