2018-01-11 20:59:43 1515722383.730461: {"class":"VERSION","release":"3.16","rev":"3.16-4","proto_major":3,"proto_minor":11}
2018-01-11 20:59:43 1515722383.730845: {"class":"DEVICES","devices":[{"class":"DEVICE","path":"/dev/ttyUSB0","driver":"SiRF","subtype":"9\u0006GSD4e_4.1.2-P1_RPATCH.05-F-GPS-4R-1510281 11/03/2015 307","activated":"2018-01-12T01:59:43.532Z","flags":1,"native":1,"bps":4800,"parity":"N","stopbits":1,"cycle":1.00}]}
2018-01-11 20:59:43 1515722383.730990: {"class":"WATCH","enable":true,"json":false,"nmea":true,"raw":0,"scaled":false,"timing":false,"split24":false,"pps":false}
2018-01-11 20:59:44 1515722384.137892: $GPZDA,015944.83,12,01,2018,00,00*69
2018-01-11 20:59:44 1515722384.138088: $GPGGA,015944,3946.9580,N,08404.9861,W,1,12,1.20,300.85,M,-33.324,M,,*79
2018-01-11 20:59:44 1515722384.138155: $GPRMC,015944,A,3946.9580,N,08404.9861,W,0.4583,269.997,120118,,*3B
2018-01-11 20:59:44 1515722384.138216: $GPGSA,A,3,1,7,8,9,11,23,27,30,13,28,16,138,4.0,1.2,3.5*06
2018-01-11 20:59:44 1515722384.138274: $GPGBS,015944,14.62,M,24.83,M,80.38,M*0C
2018-01-11 20:59:45 1515722385.220699: $GPZDA,015945.51,12,01,2018,00,00*67
2018-01-11 20:59:45 1515722385.220869: $GPGGA,015945,3946.9580,N,08404.9861,W,1,12,1.20,300.85,M,-33.324,M,,*78
2018-01-11 20:59:45 1515722385.220957: $GPRMC,015945,A,3946.9580,N,08404.9861,W,0.3423,184.196,120118,,*3F
2018-01-11 20:59:45 1515722385.221045: $GPGSA,A,3,1,7,8,9,11,23,27,30,13,28,16,138,4.0,1.2,3.5*06
2018-01-11 20:59:46 1515722386.361986: $GPGSV,3,1,12,01,16,153,42,07,78,310,44,08,66,057,48,09,29,211,43*74
2018-01-11 20:59:46 1515722386.362183: $GPGSV,3,2,12,11,40,157,46,27,27,045,51,30,49,310,40,16,07,075,02*73
2018-01-11 20:59:46 1515722386.362251: $GPGSV,3,3,12,23,08,183,03,28,29,276,16,13,01,330,00,138,38,213,00*4D
2018-01-11 20:59:46 1515722386.475377: $GPZDA,015946.00,12,01,2018,00,00*60
2018-01-11 20:59:46 1515722386.475505: $GPGGA,015946,3946.9583,N,08404.9860,W,1,07,1.20,300.09,M,-33.324,M,,*79
2018-01-11 20:59:46 1515722386.475570: $GPRMC,015946,A,3946.9583,N,08404.9860,W,0.2422,273.794,120118,,*31
2018-01-11 20:59:46 1515722386.475630: $GPGSA,A,3,1,7,8,9,11,27,30,,,,,,4.0,1.2,3.5*32
2018-01-11 20:59:46 1515722386.927548: $GPZDA,015947.00,12,01,2018,00,00*61
2018-01-11 20:59:46 1515722386.927709: $GPGGA,015947,3946.9579,N,08404.9867,W,1,07,0.80,299.37,M,-33.324,M,,*7D
2018-01-11 20:59:46 1515722386.927775: $GPRMC,015947,A,3946.9579,N,08404.9867,W,0.2758,308.233,120118,,*39
2018-01-11 20:59:46 1515722386.927836: $GPGSA,A,3,1,7,8,9,11,27,30,,,,,,4.0,0.8,3.5*39
2018-01-11 20:59:47 1515722387.378357: $GPZDA,015948.00,12,01,2018,00,00*6E
2018-01-11 20:59:47 1515722387.378502: $GPGGA,015948,3946.9583,N,08404.9866,W,1,07,0.80,298.60,M,-33.324,M,,*75
2018-01-11 20:59:47 1515722387.378567: $GPRMC,015948,A,3946.9583,N,08404.9866,W,0.0000,0.000,120118,,*33
2018-01-11 20:59:47 1515722387.378627: $GPGSA,A,3,1,7,8,9,11,27,30,,,,,,4.0,0.8,3.5*39
2018-01-11 20:59:48 1515722388.663562: $GPGSV,3,1,12,01,16,153,42,07,78,310,44,08,66,057,48,09,29,211,43*74
2018-01-11 20:59:48 1515722388.663724: $GPGSV,3,2,12,11,40,157,46,27,27,045,50,30,49,310,40,16,07,075,22*70
2018-01-11 20:59:48 1515722388.663790: $GPGSV,3,3,12,23,08,183,26,28,29,276,33,13,01,330,00,138,38,213,00*4D
2018-01-11 20:59:48 1515722388.776999: $GPZDA,015949.00,12,01,2018,00,00*6F
2018-01-11 20:59:48 1515722388.777179: $GPGGA,015949,3946.9583,N,08404.9866,W,1,10,0.80,298.60,M,-33.324,M,,*72
2018-01-11 20:59:48 1515722388.777245: $GPRMC,015949,A,3946.9583,N,08404.9866,W,0.0000,0.000,120118,,*32
2018-01-11 20:59:48 1515722388.777306: $GPGSA,A,3,1,7,8,9,11,27,30,16,23,28,,,4.0,0.8,3.5*35
2018-01-11 20:59:49 1515722389.330393: $GPZDA,015950.00,12,01,2018,00,00*67
2018-01-11 20:59:49 1515722389.330539: $GPGGA,015950,3946.9582,N,08404.9866,W,1,10,0.80,297.20,M,-33.324,M,,*70
2018-01-11 20:59:49 1515722389.330605: $GPRMC,015950,A,3946.9582,N,08404.9866,W,0.0000,0.000,120118,,*3B
2018-01-11 20:59:49 1515722389.330665: $GPGSA,A,3,1,7,8,9,11,27,30,16,23,28,,,4.0,0.8,3.5*35
