2018-01-11 19:43:52 1515717832.418039: {"class":"VERSION","release":"3.16","rev":"3.16-4","proto_major":3,"proto_minor":11}
2018-01-11 19:43:52 1515717832.418384: {"class":"DEVICES","devices":[{"class":"DEVICE","path":"/dev/ttyUSB0","driver":"SiRF","subtype":"9\u0006GSD4e_4.1.2-P1_RPATCH.05-F-GPS-4R-1510281 11/03/2015 307","activated":"2018-01-12T00:43:52.403Z","flags":1,"native":1,"bps":4800,"parity":"N","stopbits":1,"cycle":1.00}]}
2018-01-11 19:43:52 1515717832.418503: {"class":"WATCH","enable":true,"json":false,"nmea":true,"raw":0,"scaled":false,"timing":false,"split24":false,"pps":false}
2018-01-11 19:43:53 1515717833.699397: $GPGSV,3,1,12,07,44,310,40,08,63,157,47,09,55,247,43,16,32,052,48*76
2018-01-11 19:43:53 1515717833.699576: $GPGSV,3,2,12,23,41,195,48,27,56,067,50,30,19,301,36,11,10,172,32*74
2018-01-11 19:43:53 1515717833.699642: $GPGSV,3,3,12,26,07,066,22,28,05,249,04,21,01,031,00,138,38,213,45*4D
2018-01-11 19:43:53 1515717833.812982: $GPZDA,004354.00,12,01,2018,00,00*69
2018-01-11 19:43:53 1515717833.813143: $GPGGA,004354,3946.9606,N,08404.9856,W,2,10,0.80,308.98,M,-33.324,M,,*75
2018-01-11 19:43:53 1515717833.813211: $GPRMC,004354,A,3946.9606,N,08404.9856,W,0.0000,0.000,120118,,*39
2018-01-11 19:43:53 1515717833.813272: $GPGSA,A,3,7,8,9,16,23,27,30,11,26,138,,,4.0,0.8,3.5*30
2018-01-11 19:43:54 1515717834.361385: $GPZDA,004355.00,12,01,2018,00,00*68
2018-01-11 19:43:54 1515717834.361554: $GPGGA,004355,3946.9606,N,08404.9856,W,2,10,0.80,308.98,M,-33.324,M,,*74
2018-01-11 19:43:54 1515717834.361637: $GPRMC,004355,A,3946.9606,N,08404.9856,W,0.0000,0.000,120118,,*38
2018-01-11 19:43:54 1515717834.361701: $GPGSA,A,3,7,8,9,16,23,27,30,11,26,138,,,4.0,0.8,3.5*30
2018-01-11 19:43:55 1515717835.363482: $GPZDA,004356.00,12,01,2018,00,00*6B
2018-01-11 19:43:55 1515717835.363643: $GPGGA,004356,3946.9606,N,08404.9856,W,2,10,0.80,308.98,M,-33.324,M,,*77
2018-01-11 19:43:55 1515717835.363709: $GPRMC,004356,A,3946.9606,N,08404.9856,W,0.0000,0.000,120118,,*3B
2018-01-11 19:43:55 1515717835.363771: $GPGSA,A,3,7,8,9,16,23,27,30,11,26,138,,,4.0,0.8,3.5*30
2018-01-11 19:43:56 1515717836.697596: $GPGSV,3,1,12,07,44,310,40,08,63,157,46,09,55,247,43,16,32,052,48*77
2018-01-11 19:43:56 1515717836.697759: $GPGSV,3,2,12,23,41,195,47,27,56,067,50,30,19,301,36,11,10,172,33*7A
2018-01-11 19:43:56 1515717836.697825: $GPGSV,3,3,12,26,07,066,22,28,05,249,10,21,01,031,00,138,38,213,44*49
2018-01-11 19:43:56 1515717836.811193: $GPZDA,004357.00,12,01,2018,00,00*6A
2018-01-11 19:43:56 1515717836.811331: $GPGGA,004357,3946.9606,N,08404.9856,W,2,11,0.80,308.98,M,-33.324,M,,*77
2018-01-11 19:43:56 1515717836.811399: $GPRMC,004357,A,3946.9606,N,08404.9856,W,0.0000,0.000,120118,,*3A
2018-01-11 19:43:56 1515717836.811459: $GPGSA,A,3,7,8,9,16,23,27,30,11,26,28,138,,4.0,0.8,3.5*3A
2018-01-11 19:43:57 1515717837.436573: $GPZDA,004358.00,12,01,2018,00,00*65
2018-01-11 19:43:57 1515717837.436745: $GPGGA,004358,3946.9606,N,08404.9856,W,2,11,0.80,308.98,M,-33.324,M,,*78
2018-01-11 19:43:57 1515717837.436811: $GPRMC,004358,A,3946.9606,N,08404.9856,W,0.0000,0.000,120118,,*35
2018-01-11 19:43:57 1515717837.436873: $GPGSA,A,3,7,8,9,16,23,27,30,11,26,28,138,,4.0,0.8,3.5*3A
2018-01-11 19:43:58 1515717838.368705: $GPZDA,004359.00,12,01,2018,00,00*64
2018-01-11 19:43:58 1515717838.368864: $GPGGA,004359,3946.9606,N,08404.9856,W,2,11,0.80,308.98,M,-33.324,M,,*79
2018-01-11 19:43:58 1515717838.368930: $GPRMC,004359,A,3946.9606,N,08404.9856,W,0.0000,0.000,120118,,*34
2018-01-11 19:43:58 1515717838.368992: $GPGSA,A,3,7,8,9,16,23,27,30,11,26,28,138,,4.0,0.8,3.5*3A
2018-01-11 19:43:59 1515717839.706741: $GPGSV,3,1,12,07,44,310,41,08,63,157,46,09,55,247,44,16,32,052,48*71
2018-01-11 19:43:59 1515717839.706924: $GPGSV,3,2,12,23,41,195,47,27,56,067,50,30,19,301,36,11,10,172,33*7A
2018-01-11 19:43:59 1515717839.706991: $GPGSV,3,3,12,26,07,066,23,28,05,249,09,21,01,031,02,138,38,213,45*43
2018-01-11 19:43:59 1515717839.820401: $GPZDA,004400.00,12,01,2018,00,00*6F
2018-01-11 19:43:59 1515717839.820541: $GPGGA,004400,3946.9606,N,08404.9856,W,2,11,0.80,308.98,M,-33.324,M,,*72
2018-01-11 19:43:59 1515717839.820662: $GPRMC,004400,A,3946.9606,N,08404.9856,W,0.0000,0.000,120118,,*3F
2018-01-11 19:43:59 1515717839.820726: $GPGSA,A,3,7,8,9,16,23,27,30,11,26,28,138,,4.0,0.8,3.5*3A
2018-01-11 19:44:00 1515717840.362468: $GPZDA,004401.00,12,01,2018,00,00*6E
2018-01-11 19:44:00 1515717840.362612: $GPGGA,004401,3946.9606,N,08404.9856,W,2,11,0.80,308.98,M,-33.324,M,,*73
2018-01-11 19:44:00 1515717840.362678: $GPRMC,004401,A,3946.9606,N,08404.9856,W,0.0000,0.000,120118,,*3E
2018-01-11 19:44:00 1515717840.362741: $GPGSA,A,3,7,8,9,16,23,27,30,11,26,28,138,,4.0,0.8,3.5*3A
