2017-12-01 14:03:45 1512155025.076835: {"class":"VERSION","release":"3.16","rev":"3.16-4","proto_major":3,"proto_minor":11}
2017-12-01 14:03:45 1512155025.077399: {"class":"DEVICES","devices":[{"class":"DEVICE","path":"/dev/ttyUSB0","driver":"SiRF","subtype":"9\u0006GSD4e_4.1.2-P1_RPATCH.05-F-GPS-4R-1510281 11/03/2015 307","activated":"2017-12-01T19:03:44.989Z","flags":1,"native":1,"bps":4800,"parity":"N","stopbits":1,"cycle":1.00}]}
2017-12-01 14:03:45 1512155025.077538: {"class":"WATCH","enable":true,"json":false,"nmea":true,"raw":0,"scaled":false,"timing":false,"split24":false,"pps":false}
2017-12-01 14:03:45 1512155025.398272: $GPZDA,190346.00,01,12,2017,00,00*69
2017-12-01 14:03:45 1512155025.398477: $GPGGA,190346,3946.9568,N,08404.9842,W,2,12,0.80,303.38,M,-33.324,M,,*77
2017-12-01 14:03:45 1512155025.398545: $GPRMC,190346,A,3946.9568,N,08404.9842,W,0.0000,0.000,011217,,*37
2017-12-01 14:03:45 1512155025.398634: $GPGSA,A,3,10,14,15,18,20,21,24,27,32,8,12,138,2.0,0.8,1.5*37
2017-12-01 14:03:46 1512155026.397312: $GPZDA,190347.00,01,12,2017,00,00*68
2017-12-01 14:03:46 1512155026.397502: $GPGGA,190347,3946.9568,N,08404.9842,W,2,12,0.80,303.38,M,-33.324,M,,*76
2017-12-01 14:03:46 1512155026.397587: $GPRMC,190347,A,3946.9568,N,08404.9842,W,0.0000,0.000,011217,,*36
2017-12-01 14:03:46 1512155026.397649: $GPGSA,A,3,10,14,15,18,20,21,24,27,32,8,12,138,2.0,0.8,1.5*37
2017-12-01 14:03:47 1512155027.734278: $GPGSV,3,1,12,10,61,321,50,14,22,246,40,15,18,061,39,18,76,066,42*74
2017-12-01 14:03:47 1512155027.734453: $GPGSV,3,2,12,20,16,112,40,21,38,180,45,24,50,070,48,27,11,267,36*73
2017-12-01 14:03:47 1512155027.734520: $GPGSV,3,3,12,32,39,256,43,08,08,301,32,12,04,114,19,138,38,213,46*4C
2017-12-01 14:03:47 1512155027.847657: $GPZDA,190348.00,01,12,2017,00,00*67
2017-12-01 14:03:47 1512155027.847790: $GPGGA,190348,3946.9568,N,08404.9842,W,2,12,0.80,303.38,M,-33.324,M,,*79
2017-12-01 14:03:47 1512155027.847856: $GPRMC,190348,A,3946.9568,N,08404.9842,W,0.0000,0.000,011217,,*39
2017-12-01 14:03:47 1512155027.847917: $GPGSA,A,3,10,14,15,18,20,21,24,27,32,8,12,138,2.0,0.8,1.5*37
2017-12-01 14:03:48 1512155028.398798: $GPZDA,190349.00,01,12,2017,00,00*66
2017-12-01 14:03:48 1512155028.398997: $GPGGA,190349,3946.9568,N,08404.9842,W,2,12,0.80,303.38,M,-33.324,M,,*78
2017-12-01 14:03:48 1512155028.399065: $GPRMC,190349,A,3946.9568,N,08404.9842,W,0.0000,0.000,011217,,*38
2017-12-01 14:03:48 1512155028.399126: $GPGSA,A,3,10,14,15,18,20,21,24,27,32,8,12,138,2.0,0.8,1.5*37
2017-12-01 14:03:49 1512155029.398168: $GPZDA,190350.00,01,12,2017,00,00*6E
2017-12-01 14:03:49 1512155029.398341: $GPGGA,190350,3946.9568,N,08404.9842,W,2,12,0.80,303.38,M,-33.324,M,,*70
2017-12-01 14:03:49 1512155029.398432: $GPRMC,190350,A,3946.9568,N,08404.9842,W,0.0000,0.000,011217,,*30
2017-12-01 14:03:49 1512155029.398496: $GPGSA,A,3,10,14,15,18,20,21,24,27,32,8,12,138,2.0,0.8,1.5*37
2017-12-01 14:03:50 1512155030.733879: $GPGSV,3,1,12,10,61,321,50,14,22,246,39,15,18,061,38,18,76,066,42*7B
2017-12-01 14:03:50 1512155030.734045: $GPGSV,3,2,12,20,16,112,41,21,38,180,45,24,50,070,47,27,11,267,34*7F
2017-12-01 14:03:50 1512155030.734112: $GPGSV,3,3,12,32,39,256,43,08,08,301,32,12,04,114,18,138,38,213,47*4C
2017-12-01 14:03:50 1512155030.847258: $GPZDA,190351.00,01,12,2017,00,00*6F
2017-12-01 14:03:50 1512155030.847448: $GPGGA,190351,3946.9568,N,08404.9842,W,2,12,0.80,303.38,M,-33.324,M,,*71
2017-12-01 14:03:50 1512155030.847517: $GPRMC,190351,A,3946.9568,N,08404.9842,W,0.0000,0.000,011217,,*31
2017-12-01 14:03:50 1512155030.847596: $GPGSA,A,3,10,14,15,18,20,21,24,27,32,8,12,138,2.0,0.8,1.5*37
2017-12-01 14:03:51 1512155031.472683: $GPZDA,190352.00,01,12,2017,00,00*6C
2017-12-01 14:03:51 1512155031.472853: $GPGGA,190352,3946.9568,N,08404.9842,W,2,12,0.80,303.38,M,-33.324,M,,*72
2017-12-01 14:03:51 1512155031.472919: $GPRMC,190352,A,3946.9568,N,08404.9842,W,0.0000,0.000,011217,,*32
2017-12-01 14:03:51 1512155031.472980: $GPGSA,A,3,10,14,15,18,20,21,24,27,32,8,12,138,2.0,0.8,1.5*37
2017-12-01 14:03:52 1512155032.399068: $GPZDA,190353.00,01,12,2017,00,00*6D
2017-12-01 14:03:52 1512155032.399290: $GPGGA,190353,3946.9568,N,08404.9842,W,2,12,0.80,303.38,M,-33.324,M,,*73
2017-12-01 14:03:52 1512155032.399361: $GPRMC,190353,A,3946.9568,N,08404.9842,W,0.0000,0.000,011217,,*33
2017-12-01 14:03:52 1512155032.399422: $GPGSA,A,3,10,14,15,18,20,21,24,27,32,8,12,138,2.0,0.8,1.5*37
2017-12-01 14:03:53 1512155033.734458: $GPGSV,3,1,12,10,61,321,50,14,22,246,39,15,18,061,39,18,76,066,42*7A
2017-12-01 14:03:53 1512155033.734640: $GPGSV,3,2,12,20,16,112,41,21,38,180,45,24,50,070,48,27,11,267,35*71
2017-12-01 14:03:53 1512155033.734706: $GPGSV,3,3,12,32,39,256,43,08,08,301,32,12,04,114,20,138,38,213,46*46
2017-12-01 14:03:53 1512155033.847773: $GPZDA,190354.00,01,12,2017,00,00*6A
2017-12-01 14:03:53 1512155033.847926: $GPGGA,190354,3946.9565,N,08404.9843,W,2,12,0.80,304.15,M,-33.324,M,,*70
2017-12-01 14:03:53 1512155033.847992: $GPRMC,190354,A,3946.9565,N,08404.9843,W,0.0000,0.000,011217,,*38
2017-12-01 14:03:53 1512155033.848053: $GPGSA,A,3,10,14,15,18,20,21,24,27,32,8,12,138,2.0,0.8,1.5*37
2017-12-01 14:03:54 1512155034.398616: $GPZDA,190355.00,01,12,2017,00,00*6B
2017-12-01 14:03:54 1512155034.398806: $GPGGA,190355,3946.9565,N,08404.9843,W,2,12,0.80,304.15,M,-33.324,M,,*71
2017-12-01 14:03:54 1512155034.398896: $GPRMC,190355,A,3946.9565,N,08404.9843,W,0.0000,0.000,011217,,*39
2017-12-01 14:03:54 1512155034.398960: $GPGSA,A,3,10,14,15,18,20,21,24,27,32,8,12,138,2.0,0.8,1.5*37
2017-12-01 14:03:55 1512155035.398234: $GPZDA,190356.00,01,12,2017,00,00*68
2017-12-01 14:03:55 1512155035.398421: $GPGGA,190356,3946.9565,N,08404.9843,W,2,12,0.80,304.15,M,-33.324,M,,*72
2017-12-01 14:03:55 1512155035.398489: $GPRMC,190356,A,3946.9565,N,08404.9843,W,0.0000,0.000,011217,,*3A
2017-12-01 14:03:55 1512155035.398550: $GPGSA,A,3,10,14,15,18,20,21,24,27,32,8,12,138,2.0,0.8,1.5*37
2017-12-01 14:03:56 1512155036.732232: $GPGSV,3,1,12,10,61,321,49,14,22,246,39,15,18,061,39,18,76,066,42*72
2017-12-01 14:03:56 1512155036.732421: $GPGSV,3,2,12,20,16,112,41,21,38,180,45,24,50,070,48,27,11,267,35*71
2017-12-01 14:03:56 1512155036.732487: $GPGSV,3,3,12,32,39,256,43,08,08,301,32,12,04,114,21,138,38,213,48*49
2017-12-01 14:03:56 1512155036.845602: $GPZDA,190357.00,01,12,2017,00,00*69
2017-12-01 14:03:56 1512155036.845783: $GPGGA,190357,3946.9565,N,08404.9843,W,2,12,0.80,304.15,M,-33.324,M,,*73
2017-12-01 14:03:56 1512155036.845851: $GPRMC,190357,A,3946.9565,N,08404.9843,W,0.0000,0.000,011217,,*3B
2017-12-01 14:03:56 1512155036.845912: $GPGSA,A,3,10,14,15,18,20,21,24,27,32,8,12,138,2.0,0.8,1.5*37
2017-12-01 14:03:57 1512155037.397729: $GPZDA,190358.00,01,12,2017,00,00*66
2017-12-01 14:03:57 1512155037.397903: $GPGGA,190358,3946.9565,N,08404.9843,W,2,12,0.80,304.15,M,-33.324,M,,*7C
2017-12-01 14:03:57 1512155037.397970: $GPRMC,190358,A,3946.9565,N,08404.9843,W,0.0000,0.000,011217,,*34
2017-12-01 14:03:57 1512155037.398031: $GPGSA,A,3,10,14,15,18,20,21,24,27,32,8,12,138,2.0,0.8,1.5*37
2017-12-01 14:03:58 1512155038.398475: $GPZDA,190359.00,01,12,2017,00,00*67
2017-12-01 14:03:58 1512155038.398673: $GPGGA,190359,3946.9565,N,08404.9843,W,2,12,0.80,304.15,M,-33.324,M,,*7D
2017-12-01 14:03:58 1512155038.398741: $GPRMC,190359,A,3946.9565,N,08404.9843,W,0.0000,0.000,011217,,*35
2017-12-01 14:03:58 1512155038.398803: $GPGSA,A,3,10,14,15,18,20,21,24,27,32,8,12,138,2.0,0.8,1.5*37
2017-12-01 14:03:59 1512155039.761957: $GPGSV,3,1,12,10,61,321,50,14,22,246,39,15,18,061,39,18,76,066,42*7A
2017-12-01 14:03:59 1512155039.762146: $GPGSV,3,2,12,20,16,112,41,21,38,180,45,24,50,070,49,27,11,267,35*70
2017-12-01 14:03:59 1512155039.762212: $GPGSV,3,3,12,32,39,256,43,08,08,301,32,12,04,114,22,138,38,213,46*44
2017-12-01 14:03:59 1512155039.875267: $GPZDA,190400.00,01,12,2017,00,00*6C
2017-12-01 14:03:59 1512155039.875456: $GPGGA,190400,3946.9565,N,08404.9843,W,2,12,0.80,304.15,M,-33.324,M,,*76
2017-12-01 14:03:59 1512155039.875540: $GPRMC,190400,A,3946.9565,N,08404.9843,W,0.0000,0.000,011217,,*3E
2017-12-01 14:03:59 1512155039.875603: $GPGSA,A,3,10,14,15,18,20,21,24,27,32,8,12,138,2.0,0.8,1.5*37
