2017-12-31 16:54:08 1514757248.846839: {"class":"VERSION","release":"3.16","rev":"3.16-4","proto_major":3,"proto_minor":11}
2017-12-31 16:54:08 1514757248.847251: {"class":"DEVICES","devices":[{"class":"DEVICE","path":"/dev/ttyUSB0","driver":"SiRF","activated":"2017-12-31T21:54:08.501Z","flags":1,"native":1,"bps":4800,"parity":"N","stopbits":1,"cycle":1.00}]}
2017-12-31 16:54:08 1514757248.847361: {"class":"WATCH","enable":true,"json":false,"nmea":true,"raw":0,"scaled":false,"timing":false,"split24":false,"pps":false}
2017-12-31 16:54:09 1514757249.680035: $GPGSV,3,1,11,22,47,246,41,23,24,306,42,25,05,037,21,03,46,277,39*75
2017-12-31 16:54:09 1514757249.680209: $GPGSV,3,2,11,16,41,190,46,29,14,060,28,31,53,046,51,14,44,109,42*7B
2017-12-31 16:54:09 1514757249.680275: $GPGSV,3,3,11,32,22,120,46,26,70,154,43,135,22,240,43*7B
2017-12-31 16:54:09 1514757249.793655: $GPZDA,215410.00,31,12,2017,00,00*60
2017-12-31 16:54:09 1514757249.793799: $GPGGA,215410,3946.9581,N,08404.9855,W,2,11,0.80,303.74,M,-33.324,M,,*77
2017-12-31 16:54:09 1514757249.793865: $GPRMC,215410,A,3946.9581,N,08404.9855,W,0.0000,0.000,311217,,*3F
2017-12-31 16:54:09 1514757249.793928: $GPGSA,A,3,22,23,25,3,16,29,31,14,32,26,135,,1.7,0.8,1.3*32
2017-12-31 16:54:10 1514757250.419249: $GPZDA,215411.00,31,12,2017,00,00*61
2017-12-31 16:54:10 1514757250.419421: $GPGGA,215411,3946.9581,N,08404.9855,W,2,11,0.80,303.74,M,-33.324,M,,*76
2017-12-31 16:54:10 1514757250.419487: $GPRMC,215411,A,3946.9581,N,08404.9855,W,0.0000,0.000,311217,,*3E
2017-12-31 16:54:10 1514757250.419548: $GPGSA,A,3,22,23,25,3,16,29,31,14,32,26,135,,1.7,0.8,1.3*32
2017-12-31 16:54:11 1514757251.359966: $GPZDA,215412.00,31,12,2017,00,00*62
2017-12-31 16:54:11 1514757251.360140: $GPGGA,215412,3946.9581,N,08404.9855,W,2,11,0.80,303.74,M,-33.324,M,,*75
2017-12-31 16:54:11 1514757251.360207: $GPRMC,215412,A,3946.9581,N,08404.9855,W,0.0000,0.000,311217,,*3D
2017-12-31 16:54:11 1514757251.360269: $GPGSA,A,3,22,23,25,3,16,29,31,14,32,26,135,,1.7,0.8,1.3*32
2017-12-31 16:54:12 1514757252.679171: $GPGSV,3,1,11,22,47,246,41,23,24,306,42,25,05,037,21,03,46,277,39*75
2017-12-31 16:54:12 1514757252.679331: $GPGSV,3,2,11,16,41,190,46,29,14,060,22,31,53,046,51,14,44,109,42*71
2017-12-31 16:54:12 1514757252.679399: $GPGSV,3,3,11,32,22,120,46,26,70,154,43,135,22,240,43*7B
2017-12-31 16:54:12 1514757252.792823: $GPZDA,215413.00,31,12,2017,00,00*63
2017-12-31 16:54:12 1514757252.792987: $GPGGA,215413,3946.9581,N,08404.9855,W,2,11,0.80,303.74,M,-33.324,M,,*74
2017-12-31 16:54:12 1514757252.793056: $GPRMC,215413,A,3946.9581,N,08404.9855,W,0.0000,0.000,311217,,*3C
2017-12-31 16:54:12 1514757252.793117: $GPGSA,A,3,22,23,25,3,16,29,31,14,32,26,135,,1.7,0.8,1.3*32
2017-12-31 16:54:13 1514757253.362501: $GPZDA,215414.00,31,12,2017,00,00*64
2017-12-31 16:54:13 1514757253.362658: $GPGGA,215414,3946.9581,N,08404.9855,W,2,11,0.80,303.74,M,-33.324,M,,*73
2017-12-31 16:54:13 1514757253.362725: $GPRMC,215414,A,3946.9581,N,08404.9855,W,0.0000,0.000,311217,,*3B
2017-12-31 16:54:13 1514757253.362787: $GPGSA,A,3,22,23,25,3,16,29,31,14,32,26,135,,1.7,0.8,1.3*32
2017-12-31 16:54:14 1514757254.352025: $GPZDA,215415.00,31,12,2017,00,00*65
2017-12-31 16:54:14 1514757254.352188: $GPGGA,215415,3946.9581,N,08404.9855,W,2,11,0.80,303.74,M,-33.324,M,,*72
2017-12-31 16:54:14 1514757254.352257: $GPRMC,215415,A,3946.9581,N,08404.9855,W,0.0000,0.000,311217,,*3A
2017-12-31 16:54:14 1514757254.352317: $GPGSA,A,3,22,23,25,3,16,29,31,14,32,26,135,,1.7,0.8,1.3*32
2017-12-31 16:54:15 1514757255.679510: $GPGSV,3,1,11,22,47,246,41,23,24,306,42,25,05,037,20,03,46,277,39*74
2017-12-31 16:54:15 1514757255.679660: $GPGSV,3,2,11,16,41,190,46,29,14,060,24,31,53,046,51,14,44,109,42*77
2017-12-31 16:54:15 1514757255.679727: $GPGSV,3,3,11,32,22,120,46,26,70,154,43,135,22,240,43*7B
2017-12-31 16:54:15 1514757255.793112: $GPZDA,215416.00,31,12,2017,00,00*66
2017-12-31 16:54:15 1514757255.793248: $GPGGA,215416,3946.9581,N,08404.9855,W,2,11,0.80,303.74,M,-33.324,M,,*71
2017-12-31 16:54:15 1514757255.793313: $GPRMC,215416,A,3946.9581,N,08404.9855,W,0.0000,0.000,311217,,*39
2017-12-31 16:54:15 1514757255.793428: $GPGSA,A,3,22,23,25,3,16,29,31,14,32,26,135,,1.7,0.8,1.3*32
2017-12-31 16:54:16 1514757256.342791: $GPZDA,215417.00,31,12,2017,00,00*67
2017-12-31 16:54:16 1514757256.342958: $GPGGA,215417,3946.9581,N,08404.9855,W,2,11,0.80,303.74,M,-33.324,M,,*70
2017-12-31 16:54:16 1514757256.343028: $GPRMC,215417,A,3946.9581,N,08404.9855,W,0.0000,0.000,311217,,*38
2017-12-31 16:54:16 1514757256.343090: $GPGSA,A,3,22,23,25,3,16,29,31,14,32,26,135,,1.7,0.8,1.3*32
2017-12-31 16:54:17 1514757257.343649: $GPZDA,215418.00,31,12,2017,00,00*68
2017-12-31 16:54:17 1514757257.343812: $GPGGA,215418,3946.9581,N,08404.9855,W,2,11,0.80,303.74,M,-33.324,M,,*7F
2017-12-31 16:54:17 1514757257.343882: $GPRMC,215418,A,3946.9581,N,08404.9855,W,0.0000,0.000,311217,,*37
2017-12-31 16:54:17 1514757257.343943: $GPGSA,A,3,22,23,25,3,16,29,31,14,32,26,135,,1.7,0.8,1.3*32
2017-12-31 16:54:18 1514757258.680328: $GPGSV,3,1,11,22,47,246,42,23,24,306,42,25,05,037,20,03,46,277,38*76
2017-12-31 16:54:18 1514757258.680499: $GPGSV,3,2,11,16,41,190,46,29,14,060,23,31,53,046,51,14,44,109,42*70
2017-12-31 16:54:18 1514757258.680568: $GPGSV,3,3,11,32,22,120,46,26,70,154,43,135,22,240,43*7B
2017-12-31 16:54:18 1514757258.793950: $GPZDA,215419.00,31,12,2017,00,00*69
2017-12-31 16:54:18 1514757258.794082: $GPGGA,215419,3946.9581,N,08404.9855,W,2,11,0.80,303.74,M,-33.324,M,,*7E
2017-12-31 16:54:18 1514757258.794147: $GPRMC,215419,A,3946.9581,N,08404.9855,W,0.0000,0.000,311217,,*36
2017-12-31 16:54:18 1514757258.794209: $GPGSA,A,3,22,23,25,3,16,29,31,14,32,26,135,,1.7,0.8,1.3*32
