2018-01-11 20:07:32 1515719252.185293: {"class":"VERSION","release":"3.16","rev":"3.16-4","proto_major":3,"proto_minor":11}
2018-01-11 20:07:32 1515719252.185633: {"class":"DEVICES","devices":[{"class":"DEVICE","path":"/dev/ttyUSB0","driver":"SiRF","subtype":"9\u0006GSD4e_4.1.2-P1_RPATCH.05-F-GPS-4R-1510281 11/03/2015 307","activated":"2018-01-12T01:07:31.686Z","flags":1,"native":1,"bps":4800,"parity":"N","stopbits":1,"cycle":1.00}]}
2018-01-11 20:07:32 1515719252.185748: {"class":"WATCH","enable":true,"json":false,"nmea":true,"raw":0,"scaled":false,"timing":false,"split24":false,"pps":false}
2018-01-11 20:07:32 1515719252.367363: $GPZDA,010733.00,12,01,2018,00,00*69
2018-01-11 20:07:32 1515719252.367532: $GPGGA,010733,3946.9568,N,08404.9829,W,2,10,0.80,304.95,M,-33.324,M,,*77
2018-01-11 20:07:32 1515719252.367598: $GPRMC,010733,A,3946.9568,N,08404.9829,W,0.0000,0.000,120118,,*3A
2018-01-11 20:07:32 1515719252.367659: $GPGSA,A,3,7,8,9,11,16,23,27,28,30,138,,,4.0,0.8,3.5*3E
2018-01-11 20:07:33 1515719253.706393: $GPGSV,3,1,10,07,54,313,43,08,72,138,46,09,49,231,42,11,18,168,46*79
2018-01-11 20:07:33 1515719253.706569: $GPGSV,3,2,10,16,24,058,44,23,31,190,46,27,49,054,50,28,13,256,29*72
2018-01-11 20:07:33 1515719253.706635: $GPGSV,3,3,10,30,27,306,32,138,38,213,45*4A
2018-01-11 20:07:33 1515719253.818498: $GPZDA,010734.00,12,01,2018,00,00*6E
2018-01-11 20:07:33 1515719253.818616: $GPGGA,010734,3946.9568,N,08404.9829,W,2,10,0.80,304.95,M,-33.324,M,,*70
2018-01-11 20:07:33 1515719253.818681: $GPRMC,010734,A,3946.9568,N,08404.9829,W,0.0000,0.000,120118,,*3D
2018-01-11 20:07:33 1515719253.818742: $GPGSA,A,3,7,8,9,11,16,23,27,28,30,138,,,4.0,0.8,3.5*3E
2018-01-11 20:07:34 1515719254.369470: $GPZDA,010735.00,12,01,2018,00,00*6F
2018-01-11 20:07:34 1515719254.369638: $GPGGA,010735,3946.9568,N,08404.9829,W,2,10,0.80,304.95,M,-33.324,M,,*71
2018-01-11 20:07:34 1515719254.369705: $GPRMC,010735,A,3946.9568,N,08404.9829,W,0.0000,0.000,120118,,*3C
2018-01-11 20:07:34 1515719254.369766: $GPGSA,A,3,7,8,9,11,16,23,27,28,30,138,,,4.0,0.8,3.5*3E
2018-01-11 20:07:35 1515719255.354062: $GPZDA,010736.00,12,01,2018,00,00*6C
2018-01-11 20:07:35 1515719255.354245: $GPGGA,010736,3946.9568,N,08404.9829,W,2,10,0.80,304.95,M,-33.324,M,,*72
2018-01-11 20:07:35 1515719255.354315: $GPRMC,010736,A,3946.9568,N,08404.9829,W,0.0000,0.000,120118,,*3F
2018-01-11 20:07:35 1515719255.354376: $GPGSA,A,3,7,8,9,11,16,23,27,28,30,138,,,4.0,0.8,3.5*3E
2018-01-11 20:07:36 1515719256.689754: $GPGSV,3,1,10,07,54,313,43,08,72,138,46,09,49,231,42,11,18,168,46*79
2018-01-11 20:07:36 1515719256.689940: $GPGSV,3,2,10,16,24,058,44,23,31,190,46,27,49,054,50,28,13,256,28*73
2018-01-11 20:07:36 1515719256.690008: $GPGSV,3,3,10,30,27,306,32,138,38,213,44*4B
2018-01-11 20:07:36 1515719256.803386: $GPZDA,010737.00,12,01,2018,00,00*6D
2018-01-11 20:07:36 1515719256.803503: $GPGGA,010737,3946.9568,N,08404.9829,W,2,10,0.80,304.95,M,-33.324,M,,*73
2018-01-11 20:07:36 1515719256.803566: $GPRMC,010737,A,3946.9568,N,08404.9829,W,0.0000,0.000,120118,,*3E
2018-01-11 20:07:36 1515719256.803625: $GPGSA,A,3,7,8,9,11,16,23,27,28,30,138,,,4.0,0.8,3.5*3E
2018-01-11 20:07:37 1515719257.428769: $GPZDA,010738.00,12,01,2018,00,00*62
2018-01-11 20:07:37 1515719257.428940: $GPGGA,010738,3946.9568,N,08404.9829,W,2,10,0.80,304.95,M,-33.324,M,,*7C
2018-01-11 20:07:37 1515719257.429005: $GPRMC,010738,A,3946.9568,N,08404.9829,W,0.0000,0.000,120118,,*31
2018-01-11 20:07:37 1515719257.429128: $GPGSA,A,3,7,8,9,11,16,23,27,28,30,138,,,4.0,0.8,3.5*3E
2018-01-11 20:07:38 1515719258.355883: $GPZDA,010739.00,12,01,2018,00,00*63
2018-01-11 20:07:38 1515719258.356052: $GPGGA,010739,3946.9568,N,08404.9829,W,2,10,0.80,304.95,M,-33.324,M,,*7D
2018-01-11 20:07:38 1515719258.356118: $GPRMC,010739,A,3946.9568,N,08404.9829,W,0.0000,0.000,120118,,*30
2018-01-11 20:07:38 1515719258.356178: $GPGSA,A,3,7,8,9,11,16,23,27,28,30,138,,,4.0,0.8,3.5*3E
2018-01-11 20:07:39 1515719259.706327: $GPGSV,3,1,10,07,54,313,43,08,72,138,46,09,49,231,42,11,18,168,46*79
2018-01-11 20:07:39 1515719259.706491: $GPGSV,3,2,10,16,24,058,44,23,31,190,46,27,49,054,50,28,13,256,28*73
2018-01-11 20:07:39 1515719259.706611: $GPGSV,3,3,10,30,27,306,32,138,38,213,44*4B
2018-01-11 20:07:39 1515719259.820020: $GPZDA,010740.00,12,01,2018,00,00*6D
2018-01-11 20:07:39 1515719259.820147: $GPGGA,010740,3946.9568,N,08404.9829,W,2,10,0.80,304.95,M,-33.324,M,,*73
2018-01-11 20:07:39 1515719259.820211: $GPRMC,010740,A,3946.9568,N,08404.9829,W,0.0000,0.000,120118,,*3E
2018-01-11 20:07:39 1515719259.820271: $GPGSA,A,3,7,8,9,11,16,23,27,28,30,138,,,4.0,0.8,3.5*3E
2018-01-11 20:07:40 1515719260.370880: $GPZDA,010741.00,12,01,2018,00,00*6C
2018-01-11 20:07:40 1515719260.371051: $GPGGA,010741,3946.9568,N,08404.9829,W,2,10,0.80,304.95,M,-33.324,M,,*72
2018-01-11 20:07:40 1515719260.371117: $GPRMC,010741,A,3946.9568,N,08404.9829,W,0.0000,0.000,120118,,*3F
2018-01-11 20:07:40 1515719260.371178: $GPGSA,A,3,7,8,9,11,16,23,27,28,30,138,,,4.0,0.8,3.5*3E
2018-01-11 20:07:41 1515719261.352976: $GPZDA,010742.00,12,01,2018,00,00*6F
2018-01-11 20:07:41 1515719261.353151: $GPGGA,010742,3946.9568,N,08404.9829,W,2,10,0.80,304.95,M,-33.324,M,,*71
2018-01-11 20:07:41 1515719261.353217: $GPRMC,010742,A,3946.9568,N,08404.9829,W,0.0000,0.000,120118,,*3C
2018-01-11 20:07:41 1515719261.353277: $GPGSA,A,3,7,8,9,11,16,23,27,28,30,138,,,4.0,0.8,3.5*3E
2018-01-11 20:07:42 1515719262.700431: $GPGSV,3,1,10,07,54,313,43,08,72,138,46,09,49,231,42,11,18,168,47*78
2018-01-11 20:07:42 1515719262.700583: $GPGSV,3,2,10,16,24,058,45,23,31,190,47,27,49,054,50,28,13,256,27*7C
2018-01-11 20:07:42 1515719262.700649: $GPGSV,3,3,10,30,27,306,25,138,38,213,45*4C
2018-01-11 20:07:42 1515719262.814046: $GPZDA,010743.00,12,01,2018,00,00*6E
2018-01-11 20:07:42 1515719262.814177: $GPGGA,010743,3946.9568,N,08404.9829,W,2,10,0.80,304.95,M,-33.324,M,,*70
2018-01-11 20:07:42 1515719262.814242: $GPRMC,010743,A,3946.9568,N,08404.9829,W,0.0000,0.000,120118,,*3D
2018-01-11 20:07:42 1515719262.814303: $GPGSA,A,3,7,8,9,11,16,23,27,28,30,138,,,4.0,0.8,3.5*3E
