2018-01-12 03:00:39 1515744039.004164: {"class":"VERSION","release":"3.16","rev":"3.16-4","proto_major":3,"proto_minor":11}
2018-01-12 03:00:39 1515744039.004614: {"class":"DEVICES","devices":[{"class":"DEVICE","path":"/dev/ttyUSB0","driver":"SiRF","subtype":"9\u0006GSD4e_4.1.2-P1_RPATCH.05-F-GPS-4R-1510281 11/03/2015 307","activated":"2018-01-12T08:00:38.961Z","flags":1,"native":1,"bps":4800,"parity":"N","stopbits":1,"cycle":1.00}]}
2018-01-12 03:00:39 1515744039.004736: {"class":"WATCH","enable":true,"json":false,"nmea":true,"raw":0,"scaled":false,"timing":false,"split24":false,"pps":false}
2018-01-12 03:00:39 1515744039.138309: $GPZDA,080039.82,12,01,2018,00,00*67
2018-01-12 03:00:39 1515744039.138482: $GPGGA,080039,3946.9674,N,08404.9781,W,1,11,1.40,298.62,M,-33.324,M,,*73
2018-01-12 03:00:39 1515744039.138552: $GPRMC,080039,A,3946.9674,N,08404.9781,W,0.4989,147.677,120118,,*35
2018-01-12 03:00:39 1515744039.138613: $GPGSA,A,3,2,5,6,12,17,19,3,9,24,25,138,,2.4,1.4,2.1*3F
2018-01-12 03:00:39 1515744039.138672: $GPGBS,080039,11.98,M,14.47,M,47.88,M*08
2018-01-12 03:00:40 1515744040.093977: $GPZDA,080040.50,12,01,2018,00,00*66
2018-01-12 03:00:40 1515744040.094152: $GPGGA,080040,3946.9670,N,08404.9781,W,1,11,1.40,297.98,M,-33.324,M,,*73
2018-01-12 03:00:40 1515744040.094339: $GPRMC,080040,A,3946.9670,N,08404.9781,W,0.2710,100.223,120118,,*31
2018-01-12 03:00:40 1515744040.094405: $GPGSA,A,3,2,5,6,12,17,19,3,9,24,25,138,,2.4,1.4,2.1*3F
2018-01-12 03:00:40 1515744040.094467: $GPGBS,080040,11.98,M,14.47,M,47.88,M*06
2018-01-12 03:00:41 1515744041.282817: $GPGSV,3,1,12,02,55,264,48,06,76,358,51,03,06,034,03,12,41,307,52*7F
2018-01-12 03:00:41 1515744041.282986: $GPGSV,3,2,12,17,42,090,43,19,59,072,42,24,11,256,38,25,06,322,38*77
2018-01-12 03:00:41 1515744041.283054: $GPGSV,3,3,12,05,12,193,03,09,07,100,00,23,06,067,00,138,38,213,00*4C
2018-01-12 03:00:41 1515744041.396166: $GPZDA,080041.00,12,01,2018,00,00*62
2018-01-12 03:00:41 1515744041.396320: $GPGGA,080041,3946.9670,N,08404.9781,W,1,07,1.40,297.98,M,-33.324,M,,*75
2018-01-12 03:00:41 1515744041.396388: $GPRMC,080041,A,3946.9670,N,08404.9781,W,0.2710,100.223,120118,,*30
2018-01-12 03:00:41 1515744041.396451: $GPGSA,A,3,2,6,12,17,19,24,25,,,,,,2.4,1.4,2.1*3A
2018-01-12 03:00:41 1515744041.847031: $GPZDA,080042.00,12,01,2018,00,00*61
2018-01-12 03:00:41 1515744041.847170: $GPGGA,080042,3946.9670,N,08404.9781,W,1,07,0.80,297.98,M,-33.324,M,,*7B
2018-01-12 03:00:41 1515744041.847235: $GPRMC,080042,A,3946.9670,N,08404.9781,W,0.3155,129.994,120118,,*39
2018-01-12 03:00:41 1515744041.847297: $GPGSA,A,3,2,6,12,17,19,24,25,,,,,,2.4,0.8,2.1*37
2018-01-12 03:00:42 1515744042.325494: $GPZDA,080043.00,12,01,2018,00,00*60
2018-01-12 03:00:42 1515744042.325673: $GPGGA,080043,3946.9666,N,08404.9782,W,1,07,0.80,298.75,M,-33.324,M,,*72
2018-01-12 03:00:42 1515744042.325741: $GPRMC,080043,A,3946.9666,N,08404.9782,W,0.0000,0.000,120118,,*30
2018-01-12 03:00:42 1515744042.325802: $GPGSA,A,3,2,6,12,17,19,24,25,,,,,,2.4,0.8,2.1*37
2018-01-12 03:00:43 1515744043.661959: $GPGSV,3,1,12,02,55,264,48,06,76,358,51,03,06,034,25,12,41,307,52*7B
2018-01-12 03:00:43 1515744043.662138: $GPGSV,3,2,12,17,42,090,43,19,59,072,42,24,11,256,38,25,06,322,37*78
2018-01-12 03:00:43 1515744043.662203: $GPGSV,3,3,12,05,12,193,31,09,07,100,00,23,06,067,00,138,38,213,36*48
2018-01-12 03:00:43 1515744043.775326: $GPZDA,080044.00,12,01,2018,00,00*67
2018-01-12 03:00:43 1515744043.775459: $GPGGA,080044,3946.9663,N,08404.9789,W,1,10,0.80,298.03,M,-33.324,M,,*7C
2018-01-12 03:00:43 1515744043.775527: $GPRMC,080044,A,3946.9663,N,08404.9789,W,0.0000,0.000,120118,,*39
2018-01-12 03:00:43 1515744043.775588: $GPGSA,A,3,2,6,3,12,17,19,24,25,5,138,,,2.4,0.8,2.1*0B
2018-01-12 03:00:44 1515744044.327519: $GPZDA,080045.00,12,01,2018,00,00*66
2018-01-12 03:00:44 1515744044.327680: $GPGGA,080045,3946.9659,N,08404.9789,W,1,10,0.80,298.79,M,-33.324,M,,*79
2018-01-12 03:00:44 1515744044.327747: $GPRMC,080045,A,3946.9659,N,08404.9789,W,0.0000,0.000,120118,,*31
2018-01-12 03:00:44 1515744044.327807: $GPGSA,A,3,2,6,3,12,17,19,24,25,5,138,,,2.4,0.8,2.1*0B
