2017-11-16 14:56:55 1510862215.255614: {"class":"VERSION","release":"3.17","rev":"3.17","proto_major":3,"proto_minor":12}
2017-11-16 14:56:55 1510862215.256122: {"class":"DEVICES","devices":[{"class":"DEVICE","path":"/dev/ttyUSB0","driver":"SiRF","subtype":"9\u0006GSD4e_4.1.2-P1_RPATCH.05-F-GPS-4R-1510281 11/03/2015 307","activated":"2017-11-16T19:56:55.085Z","flags":1,"native":1,"bps":4800,"parity":"N","stopbits":1,"cycle":1.00}]}
2017-11-16 14:56:55 1510862215.256249: {"class":"WATCH","enable":true,"json":false,"nmea":true,"raw":0,"scaled":false,"timing":false,"split24":false,"pps":false}
2017-11-16 14:56:55 1510862215.525736: $GPZDA,195654.00,16,11,2017,00,00*6F
2017-11-16 14:56:55 1510862215.525931: $GPGGA,195654,3946.9575,N,08404.9848,W,2,10,1.00,301.77,M,-33.324,M,,*70
2017-11-16 14:56:55 1510862215.526016: $GPRMC,195654,A,3946.9575,N,08404.9848,W,0.0000,0.000,161117,,*37
2017-11-16 14:56:55 1510862215.526074: $GPGSA,A,3,10,15,18,21,20,24,27,32,14,138,,,1.6,1.0,1.3*06
2017-11-16 14:56:56 1510862216.532866: $GPZDA,195655.00,16,11,2017,00,00*6E
2017-11-16 14:56:56 1510862216.533045: $GPGGA,195655,3946.9575,N,08404.9848,W,2,10,1.00,301.77,M,-33.324,M,,*71
2017-11-16 14:56:56 1510862216.533107: $GPRMC,195655,A,3946.9575,N,08404.9848,W,0.0000,0.000,161117,,*36
2017-11-16 14:56:56 1510862216.533162: $GPGSA,A,3,10,15,18,21,20,24,27,32,14,138,,,1.6,1.0,1.3*06
2017-11-16 14:56:57 1510862217.831277: $GPGSV,3,1,12,08,08,304,12,10,57,316,50,12,01,117,00,15,21,060,48*76
2017-11-16 14:56:57 1510862217.831429: $GPGSV,3,2,12,18,77,048,45,21,43,181,44,20,18,109,45,24,52,076,49*7C
2017-11-16 14:56:57 1510862217.831489: $GPGSV,3,3,12,27,13,271,43,32,36,252,46,14,19,244,44,138,38,213,44*43
2017-11-16 14:56:57 1510862217.944514: $GPZDA,195656.00,16,11,2017,00,00*6D
2017-11-16 14:56:57 1510862217.944680: $GPGGA,195656,3946.9575,N,08404.9848,W,2,11,0.80,301.77,M,-33.324,M,,*7A
2017-11-16 14:56:57 1510862217.944741: $GPRMC,195656,A,3946.9575,N,08404.9848,W,0.0000,0.000,161117,,*35
2017-11-16 14:56:57 1510862217.944796: $GPGSA,A,3,8,10,15,18,21,20,24,27,32,14,138,,1.6,0.8,1.3*37
2017-11-16 14:56:58 1510862218.495381: $GPZDA,195657.00,16,11,2017,00,00*6C
2017-11-16 14:56:58 1510862218.495560: $GPGGA,195657,3946.9575,N,08404.9848,W,2,11,0.80,301.77,M,-33.324,M,,*7B
2017-11-16 14:56:58 1510862218.495622: $GPRMC,195657,A,3946.9575,N,08404.9848,W,0.0000,0.000,161117,,*34
2017-11-16 14:56:58 1510862218.495678: $GPGSA,A,3,8,10,15,18,21,20,24,27,32,14,138,,1.6,0.8,1.3*37
2017-11-16 14:56:59 1510862219.493324: $GPZDA,195658.00,16,11,2017,00,00*63
2017-11-16 14:56:59 1510862219.493505: $GPGGA,195658,3946.9575,N,08404.9848,W,2,11,0.80,301.77,M,-33.324,M,,*74
2017-11-16 14:56:59 1510862219.493565: $GPRMC,195658,A,3946.9575,N,08404.9848,W,0.0000,0.000,161117,,*3B
2017-11-16 14:56:59 1510862219.493621: $GPGSA,A,3,8,10,15,18,21,20,24,27,32,14,138,,1.6,0.8,1.3*37
2017-11-16 14:57:00 1510862220.825394: $GPGSV,3,1,12,08,08,304,27,10,57,316,50,12,01,117,00,15,21,060,48*70
2017-11-16 14:57:00 1510862220.825592: $GPGSV,3,2,12,18,77,048,45,21,43,181,45,20,18,109,45,24,52,076,49*7D
2017-11-16 14:57:00 1510862220.825674: $GPGSV,3,3,12,27,13,271,43,32,36,252,46,14,19,244,44,138,38,213,43*44
2017-11-16 14:57:00 1510862220.938650: $GPZDA,195659.00,16,11,2017,00,00*62
2017-11-16 14:57:00 1510862220.938820: $GPGGA,195659,3946.9575,N,08404.9848,W,2,11,0.80,301.77,M,-33.324,M,,*75
2017-11-16 14:57:00 1510862220.938881: $GPRMC,195659,A,3946.9575,N,08404.9848,W,0.0000,0.000,161117,,*3A
2017-11-16 14:57:00 1510862220.938937: $GPGSA,A,3,8,10,15,18,21,20,24,27,32,14,138,,1.6,0.8,1.3*37
2017-11-16 14:57:01 1510862221.495807: $GPZDA,195700.00,16,11,2017,00,00*6F
2017-11-16 14:57:01 1510862221.495962: $GPGGA,195700,3946.9575,N,08404.9848,W,2,11,1.00,301.77,M,-33.324,M,,*71
2017-11-16 14:57:01 1510862221.496023: $GPRMC,195700,A,3946.9575,N,08404.9848,W,0.0000,0.000,161117,,*37
2017-11-16 14:57:01 1510862221.496079: $GPGSA,A,3,8,10,15,18,21,20,24,27,32,14,138,,1.6,1.0,1.3*3E
2017-11-16 14:57:02 1510862222.487906: $GPZDA,195701.00,16,11,2017,00,00*6E
2017-11-16 14:57:02 1510862222.488144: $GPGGA,195701,3946.9575,N,08404.9848,W,2,11,0.80,301.77,M,-33.324,M,,*79
2017-11-16 14:57:02 1510862222.488211: $GPRMC,195701,A,3946.9575,N,08404.9848,W,0.0000,0.000,161117,,*36
2017-11-16 14:57:02 1510862222.488267: $GPGSA,A,3,8,10,15,18,21,20,24,27,32,14,138,,1.6,0.8,1.3*37
2017-11-16 14:57:03 1510862223.828736: $GPGSV,3,1,12,08,08,304,17,10,57,316,51,12,01,117,00,15,21,060,48*72
2017-11-16 14:57:03 1510862223.828907: $GPGSV,3,2,12,18,77,048,45,21,43,181,44,20,18,109,45,24,52,076,48*7D
2017-11-16 14:57:03 1510862223.828967: $GPGSV,3,3,12,27,13,271,43,32,36,252,45,14,19,244,44,138,38,213,43*47
2017-11-16 14:57:03 1510862223.942062: $GPZDA,195702.00,16,11,2017,00,00*6D
2017-11-16 14:57:03 1510862223.942229: $GPGGA,195702,3946.9575,N,08404.9848,W,2,10,1.00,301.77,M,-33.324,M,,*72
2017-11-16 14:57:03 1510862223.942289: $GPRMC,195702,A,3946.9575,N,08404.9848,W,0.0000,0.000,161117,,*35
2017-11-16 14:57:03 1510862223.942345: $GPGSA,A,3,10,15,18,21,20,24,27,32,14,138,,,1.6,1.0,1.3*06
2017-11-16 14:57:04 1510862224.567432: $GPZDA,195703.00,16,11,2017,00,00*6C
2017-11-16 14:57:04 1510862224.567600: $GPGGA,195703,3946.9575,N,08404.9848,W,2,10,1.00,301.77,M,-33.324,M,,*73
2017-11-16 14:57:04 1510862224.567661: $GPRMC,195703,A,3946.9575,N,08404.9848,W,0.0000,0.000,161117,,*34
2017-11-16 14:57:04 1510862224.567716: $GPGSA,A,3,10,15,18,21,20,24,27,32,14,138,,,1.6,1.0,1.3*06
