2017-12-01 12:20:16 1512148816.114073: {"class":"VERSION","release":"3.16","rev":"3.16-4","proto_major":3,"proto_minor":11}
2017-12-01 12:20:16 1512148816.114474: {"class":"DEVICES","devices":[{"class":"DEVICE","path":"/dev/ttyUSB0","driver":"SiRF","subtype":"9\u0006GSD4e_4.1.2-P1_RPATCH.05-F-GPS-4R-1510281 11/03/2015 307","activated":"2017-12-01T17:20:15.489Z","flags":1,"native":1,"bps":4800,"parity":"N","stopbits":1,"cycle":1.00}]}
2017-12-01 12:20:16 1512148816.114629: {"class":"WATCH","enable":true,"json":false,"nmea":true,"raw":0,"scaled":false,"timing":false,"split24":false,"pps":false}
2017-12-01 12:20:16 1512148816.685085: $GPGSV,3,1,12,10,24,283,37,13,28,045,45,15,60,051,46,18,55,301,45*74
2017-12-01 12:20:16 1512148816.685294: $GPGSV,3,2,12,20,51,073,45,21,79,262,42,24,34,138,48,27,17,312,31*73
2017-12-01 12:20:16 1512148816.685362: $GPGSV,3,3,12,05,03,088,00,29,09,189,24,32,02,226,16,138,38,213,46*49
2017-12-01 12:20:16 1512148816.798686: $GPZDA,172017.00,01,12,2017,00,00*62
2017-12-01 12:20:16 1512148816.798857: $GPGGA,172017,3946.9577,N,08404.9832,W,2,11,0.80,298.36,M,-33.324,M,,*7B
2017-12-01 12:20:16 1512148816.798924: $GPRMC,172017,A,3946.9577,N,08404.9832,W,0.0000,0.000,011217,,*35
2017-12-01 12:20:16 1512148816.798986: $GPGSA,A,3,10,13,15,18,20,21,24,27,29,32,138,,2.0,0.8,1.5*00
2017-12-01 12:20:17 1512148817.423840: $GPZDA,172018.00,01,12,2017,00,00*6D
2017-12-01 12:20:17 1512148817.424027: $GPGGA,172018,3946.9577,N,08404.9832,W,2,11,0.80,298.36,M,-33.324,M,,*74
2017-12-01 12:20:17 1512148817.424095: $GPRMC,172018,A,3946.9577,N,08404.9832,W,0.0000,0.000,011217,,*3A
2017-12-01 12:20:17 1512148817.424157: $GPGSA,A,3,10,13,15,18,20,21,24,27,29,32,138,,2.0,0.8,1.5*00
2017-12-01 12:20:18 1512148818.347192: $GPZDA,172019.00,01,12,2017,00,00*6C
2017-12-01 12:20:18 1512148818.347369: $GPGGA,172019,3946.9577,N,08404.9832,W,2,11,0.80,298.36,M,-33.324,M,,*75
2017-12-01 12:20:18 1512148818.347437: $GPRMC,172019,A,3946.9577,N,08404.9832,W,0.0000,0.000,011217,,*3B
2017-12-01 12:20:18 1512148818.347498: $GPGSA,A,3,10,13,15,18,20,21,24,27,29,32,138,,2.0,0.8,1.5*00
2017-12-01 12:20:19 1512148819.686669: $GPGSV,3,1,12,10,24,283,37,13,28,045,45,15,60,051,46,18,55,301,45*74
2017-12-01 12:20:19 1512148819.686852: $GPGSV,3,2,12,20,51,073,45,21,79,262,42,24,34,138,48,27,17,312,19*79
2017-12-01 12:20:19 1512148819.686919: $GPGSV,3,3,12,05,03,088,00,29,09,189,25,32,02,226,00,138,38,213,46*4F
2017-12-01 12:20:19 1512148819.800061: $GPZDA,172020.00,01,12,2017,00,00*66
2017-12-01 12:20:19 1512148819.800237: $GPGGA,172020,3946.9573,N,08404.9839,W,2,10,0.80,297.64,M,-33.324,M,,*79
2017-12-01 12:20:19 1512148819.800304: $GPRMC,172020,A,3946.9573,N,08404.9839,W,0.2959,54.767,011217,,*0E
2017-12-01 12:20:19 1512148819.800365: $GPGSA,A,3,10,13,15,18,20,21,24,27,29,138,,,2.0,0.8,1.5*01
2017-12-01 12:20:20 1512148820.344671: $GPZDA,172021.00,01,12,2017,00,00*67
2017-12-01 12:20:20 1512148820.344837: $GPGGA,172021,3946.9573,N,08404.9839,W,2,10,0.80,297.64,M,-33.324,M,,*78
2017-12-01 12:20:20 1512148820.344905: $GPRMC,172021,A,3946.9573,N,08404.9839,W,0.0000,0.000,011217,,*3F
2017-12-01 12:20:20 1512148820.344967: $GPGSA,A,3,10,13,15,18,20,21,24,27,29,138,,,2.0,0.8,1.5*01
2017-12-01 12:20:21 1512148821.346777: $GPZDA,172022.00,01,12,2017,00,00*64
2017-12-01 12:20:21 1512148821.346959: $GPGGA,172022,3946.9573,N,08404.9839,W,2,10,0.80,297.64,M,-33.324,M,,*7B
2017-12-01 12:20:21 1512148821.347026: $GPRMC,172022,A,3946.9573,N,08404.9839,W,0.0000,0.000,011217,,*3C
2017-12-01 12:20:21 1512148821.347087: $GPGSA,A,3,10,13,15,18,20,21,24,27,29,138,,,2.0,0.8,1.5*01
2017-12-01 12:20:22 1512148822.692131: $GPGSV,3,1,12,10,24,283,37,13,28,045,44,15,60,051,46,18,55,301,45*75
2017-12-01 12:20:22 1512148822.692326: $GPGSV,3,2,12,20,51,073,46,21,79,262,42,24,34,138,48,27,17,312,15*76
2017-12-01 12:20:22 1512148822.692392: $GPGSV,3,3,12,05,03,088,00,29,09,189,25,32,02,226,00,138,38,213,46*4F
2017-12-01 12:20:22 1512148822.805406: $GPZDA,172023.00,01,12,2017,00,00*65
2017-12-01 12:20:22 1512148822.805580: $GPGGA,172023,3946.9573,N,08404.9839,W,2,10,0.80,297.64,M,-33.324,M,,*7A
2017-12-01 12:20:22 1512148822.805697: $GPRMC,172023,A,3946.9573,N,08404.9839,W,0.0000,0.000,011217,,*3D
2017-12-01 12:20:22 1512148822.805761: $GPGSA,A,3,10,13,15,18,20,21,24,27,29,138,,,2.0,0.8,1.5*01
2017-12-01 12:20:23 1512148823.348780: $GPZDA,172024.00,01,12,2017,00,00*62
2017-12-01 12:20:23 1512148823.348966: $GPGGA,172024,3946.9573,N,08404.9839,W,2,10,0.80,297.64,M,-33.324,M,,*7D
2017-12-01 12:20:23 1512148823.349034: $GPRMC,172024,A,3946.9573,N,08404.9839,W,0.0000,0.000,011217,,*3A
2017-12-01 12:20:23 1512148823.349095: $GPGSA,A,3,10,13,15,18,20,21,24,27,29,138,,,2.0,0.8,1.5*01
2017-12-01 12:20:24 1512148824.357209: $GPZDA,172025.00,01,12,2017,00,00*63
2017-12-01 12:20:24 1512148824.357381: $GPGGA,172025,3946.9573,N,08404.9839,W,2,10,0.80,297.64,M,-33.324,M,,*7C
2017-12-01 12:20:24 1512148824.357448: $GPRMC,172025,A,3946.9573,N,08404.9839,W,0.0000,0.000,011217,,*3B
2017-12-01 12:20:24 1512148824.357509: $GPGSA,A,3,10,13,15,18,20,21,24,27,29,138,,,2.0,0.8,1.5*01
2017-12-01 12:20:25 1512148825.685383: $GPGSV,3,1,12,10,24,283,37,13,28,045,45,15,60,051,46,18,55,301,45*74
2017-12-01 12:20:25 1512148825.685552: $GPGSV,3,2,12,20,51,073,46,21,79,262,42,24,34,138,48,27,17,312,22*72
2017-12-01 12:20:25 1512148825.685619: $GPGSV,3,3,12,05,03,088,18,29,09,189,25,32,02,226,00,138,38,213,46*46
2017-12-01 12:20:25 1512148825.798917: $GPZDA,172026.00,01,12,2017,00,00*60
2017-12-01 12:20:25 1512148825.799089: $GPGGA,172026,3946.9573,N,08404.9839,W,2,10,0.80,297.64,M,-33.324,M,,*7F
2017-12-01 12:20:25 1512148825.799154: $GPRMC,172026,A,3946.9573,N,08404.9839,W,0.0000,0.000,011217,,*38
2017-12-01 12:20:25 1512148825.799215: $GPGSA,A,3,10,13,15,18,20,21,24,27,29,138,,,2.0,0.8,1.5*01
