2017-12-01 15:27:46 1512160066.374273: {"class":"VERSION","release":"3.16","rev":"3.16-4","proto_major":3,"proto_minor":11}
2017-12-01 15:27:46 1512160066.374671: {"class":"DEVICES","devices":[{"class":"DEVICE","path":"/dev/ttyUSB0","driver":"SiRF","subtype":"9\u0006GSD4e_4.1.2-P1_RPATCH.05-F-GPS-4R-1510281 11/03/2015 307","activated":"2017-12-01T20:27:46.270Z","flags":1,"native":1,"bps":4800,"parity":"N","stopbits":1,"cycle":1.00}]}
2017-12-01 15:27:46 1512160066.374791: {"class":"WATCH","enable":true,"json":false,"nmea":true,"raw":0,"scaled":false,"timing":false,"split24":false,"pps":false}
2017-12-01 15:27:46 1512160066.383737: $GPZDA,202747.00,01,12,2017,00,00*64
2017-12-01 15:27:46 1512160066.383866: $GPGGA,202747,3946.9599,N,08404.9843,W,2,11,0.80,296.42,M,-33.324,M,,*76
2017-12-01 15:27:46 1512160066.383932: $GPRMC,202747,A,3946.9599,N,08404.9843,W,0.0000,0.000,011217,,*35
2017-12-01 15:27:46 1512160066.383993: $GPGSA,A,3,1,10,11,12,14,18,24,25,31,32,138,,2.0,0.8,1.5*3B
2017-12-01 15:27:47 1512160067.390371: $GPZDA,202748.00,01,12,2017,00,00*6B
2017-12-01 15:27:47 1512160067.390556: $GPGGA,202748,3946.9599,N,08404.9843,W,2,11,0.80,296.42,M,-33.324,M,,*79
2017-12-01 15:27:47 1512160067.390624: $GPRMC,202748,A,3946.9599,N,08404.9843,W,0.0000,0.000,011217,,*3A
2017-12-01 15:27:47 1512160067.390686: $GPGSA,A,3,1,10,11,12,14,18,24,25,31,32,138,,2.0,0.8,1.5*3B
2017-12-01 15:27:48 1512160068.716139: $GPGSV,3,1,12,01,09,324,37,10,77,115,47,11,09,309,34,12,23,079,43*79
2017-12-01 15:27:48 1512160068.716332: $GPGSV,3,2,12,14,49,282,43,18,45,130,47,24,21,045,43,25,24,121,46*77
2017-12-01 15:27:48 1512160068.716399: $GPGSV,3,3,12,31,27,208,46,32,65,310,48,21,01,172,00,138,38,213,45*4F
2017-12-01 15:27:48 1512160068.829721: $GPZDA,202749.00,01,12,2017,00,00*6A
2017-12-01 15:27:48 1512160068.829892: $GPGGA,202749,3946.9599,N,08404.9843,W,2,11,0.80,296.42,M,-33.324,M,,*78
2017-12-01 15:27:48 1512160068.829959: $GPRMC,202749,A,3946.9599,N,08404.9843,W,0.0000,0.000,011217,,*3B
2017-12-01 15:27:48 1512160068.830019: $GPGSA,A,3,1,10,11,12,14,18,24,25,31,32,138,,2.0,0.8,1.5*3B
2017-12-01 15:27:49 1512160069.385504: $GPZDA,202750.00,01,12,2017,00,00*62
2017-12-01 15:27:49 1512160069.385684: $GPGGA,202750,3946.9599,N,08404.9836,W,2,11,0.80,296.50,M,-33.324,M,,*71
2017-12-01 15:27:49 1512160069.385751: $GPRMC,202750,A,3946.9599,N,08404.9836,W,0.0000,0.000,011217,,*31
2017-12-01 15:27:49 1512160069.385814: $GPGSA,A,3,1,10,11,12,14,18,24,25,31,32,138,,2.0,0.8,1.5*3B
2017-12-01 15:27:50 1512160070.385053: $GPZDA,202751.00,01,12,2017,00,00*63
2017-12-01 15:27:50 1512160070.385240: $GPGGA,202751,3946.9599,N,08404.9836,W,2,11,0.80,296.50,M,-33.324,M,,*70
2017-12-01 15:27:50 1512160070.385312: $GPRMC,202751,A,3946.9599,N,08404.9836,W,0.0000,0.000,011217,,*30
2017-12-01 15:27:50 1512160070.385374: $GPGSA,A,3,1,10,11,12,14,18,24,25,31,32,138,,2.0,0.8,1.5*3B
2017-12-01 15:27:51 1512160071.719511: $GPGSV,3,1,12,01,09,324,37,10,77,115,47,11,09,309,34,12,23,079,43*79
2017-12-01 15:27:51 1512160071.719694: $GPGSV,3,2,12,14,49,282,43,18,45,130,48,24,21,045,43,25,24,121,46*78
2017-12-01 15:27:51 1512160071.719762: $GPGSV,3,3,12,31,27,208,45,32,65,310,49,21,01,172,00,138,38,213,45*4D
2017-12-01 15:27:51 1512160071.832857: $GPZDA,202752.00,01,12,2017,00,00*60
2017-12-01 15:27:51 1512160071.833008: $GPGGA,202752,3946.9599,N,08404.9836,W,2,11,0.80,296.50,M,-33.324,M,,*73
2017-12-01 15:27:51 1512160071.833078: $GPRMC,202752,A,3946.9599,N,08404.9836,W,0.0000,0.000,011217,,*33
2017-12-01 15:27:51 1512160071.833139: $GPGSA,A,3,1,10,11,12,14,18,24,25,31,32,138,,2.0,0.8,1.5*3B
2017-12-01 15:27:52 1512160072.458245: $GPZDA,202753.00,01,12,2017,00,00*61
2017-12-01 15:27:52 1512160072.458444: $GPGGA,202753,3946.9599,N,08404.9836,W,2,11,0.80,296.50,M,-33.324,M,,*72
2017-12-01 15:27:52 1512160072.458512: $GPRMC,202753,A,3946.9599,N,08404.9836,W,0.0000,0.000,011217,,*32
2017-12-01 15:27:52 1512160072.458574: $GPGSA,A,3,1,10,11,12,14,18,24,25,31,32,138,,2.0,0.8,1.5*3B
2017-12-01 15:27:53 1512160073.384124: $GPZDA,202754.00,01,12,2017,00,00*66
2017-12-01 15:27:53 1512160073.384366: $GPGGA,202754,3946.9599,N,08404.9836,W,2,11,0.80,296.50,M,-33.324,M,,*75
2017-12-01 15:27:53 1512160073.384439: $GPRMC,202754,A,3946.9599,N,08404.9836,W,0.0000,0.000,011217,,*35
2017-12-01 15:27:53 1512160073.384500: $GPGSA,A,3,1,10,11,12,14,18,24,25,31,32,138,,2.0,0.8,1.5*3B
2017-12-01 15:27:54 1512160074.719863: $GPGSV,3,1,12,01,09,324,37,10,77,115,47,11,09,309,34,12,23,079,42*78
2017-12-01 15:27:54 1512160074.720057: $GPGSV,3,2,12,14,49,282,43,18,45,130,48,24,21,045,43,25,24,121,46*78
2017-12-01 15:27:54 1512160074.720125: $GPGSV,3,3,12,31,27,208,46,32,65,310,48,21,01,172,00,138,38,213,46*4C
2017-12-01 15:27:54 1512160074.833232: $GPZDA,202755.00,01,12,2017,00,00*67
2017-12-01 15:27:54 1512160074.833417: $GPGGA,202755,3946.9599,N,08404.9836,W,2,11,0.80,296.50,M,-33.324,M,,*74
2017-12-01 15:27:54 1512160074.833483: $GPRMC,202755,A,3946.9599,N,08404.9836,W,0.0000,0.000,011217,,*34
2017-12-01 15:27:54 1512160074.833544: $GPGSA,A,3,1,10,11,12,14,18,24,25,31,32,138,,2.0,0.8,1.5*3B
2017-12-01 15:27:55 1512160075.382990: $GPZDA,202756.00,01,12,2017,00,00*64
2017-12-01 15:27:55 1512160075.383187: $GPGGA,202756,3946.9599,N,08404.9836,W,2,11,0.80,296.50,M,-33.324,M,,*77
2017-12-01 15:27:55 1512160075.383256: $GPRMC,202756,A,3946.9599,N,08404.9836,W,0.0000,0.000,011217,,*37
2017-12-01 15:27:55 1512160075.383336: $GPGSA,A,3,1,10,11,12,14,18,24,25,31,32,138,,2.0,0.8,1.5*3B
2017-12-01 15:27:56 1512160076.380017: $GPZDA,202757.00,01,12,2017,00,00*65
2017-12-01 15:27:56 1512160076.380221: $GPGGA,202757,3946.9599,N,08404.9836,W,2,11,0.80,296.50,M,-33.324,M,,*76
2017-12-01 15:27:56 1512160076.380306: $GPRMC,202757,A,3946.9599,N,08404.9836,W,0.0000,0.000,011217,,*36
2017-12-01 15:27:56 1512160076.380369: $GPGSA,A,3,1,10,11,12,14,18,24,25,31,32,138,,2.0,0.8,1.5*3B
2017-12-01 15:27:57 1512160077.723996: $GPGSV,3,1,12,01,09,324,37,10,77,115,47,11,09,309,35,12,23,079,42*79
2017-12-01 15:27:57 1512160077.724195: $GPGSV,3,2,12,14,49,282,43,18,45,130,47,24,21,045,43,25,24,121,46*77
2017-12-01 15:27:57 1512160077.724263: $GPGSV,3,3,12,31,27,208,46,32,65,310,48,21,01,172,00,138,38,213,45*4F
2017-12-01 15:27:57 1512160077.837391: $GPZDA,202758.00,01,12,2017,00,00*6A
2017-12-01 15:27:57 1512160077.837544: $GPGGA,202758,3946.9599,N,08404.9836,W,2,11,0.80,296.50,M,-33.324,M,,*79
2017-12-01 15:27:57 1512160077.837610: $GPRMC,202758,A,3946.9599,N,08404.9836,W,0.0000,0.000,011217,,*39
2017-12-01 15:27:57 1512160077.837670: $GPGSA,A,3,1,10,11,12,14,18,24,25,31,32,138,,2.0,0.8,1.5*3B
2017-12-01 15:27:58 1512160078.387414: $GPZDA,202759.00,01,12,2017,00,00*6B
2017-12-01 15:27:58 1512160078.387582: $GPGGA,202759,3946.9599,N,08404.9836,W,2,11,0.80,296.50,M,-33.324,M,,*78
2017-12-01 15:27:58 1512160078.387650: $GPRMC,202759,A,3946.9599,N,08404.9836,W,0.0000,0.000,011217,,*38
2017-12-01 15:27:58 1512160078.387711: $GPGSA,A,3,1,10,11,12,14,18,24,25,31,32,138,,2.0,0.8,1.5*3B
2017-12-01 15:27:59 1512160079.387034: $GPZDA,202800.00,01,12,2017,00,00*68
2017-12-01 15:27:59 1512160079.387229: $GPGGA,202800,3946.9599,N,08404.9836,W,2,11,0.80,296.50,M,-33.324,M,,*7B
2017-12-01 15:27:59 1512160079.387325: $GPRMC,202800,A,3946.9599,N,08404.9836,W,0.0000,0.000,011217,,*3B
2017-12-01 15:27:59 1512160079.387388: $GPGSA,A,3,1,10,11,12,14,18,24,25,31,32,138,,2.0,0.8,1.5*3B
2017-12-01 15:28:00 1512160080.722348: $GPGSV,3,1,12,01,09,324,38,10,77,115,47,11,09,309,35,12,23,079,43*77
2017-12-01 15:28:00 1512160080.722529: $GPGSV,3,2,12,14,49,282,43,18,45,130,48,24,21,045,43,25,24,121,46*78
2017-12-01 15:28:00 1512160080.722595: $GPGSV,3,3,12,31,27,208,46,32,65,310,48,21,01,172,00,138,38,213,46*4C
2017-12-01 15:28:00 1512160080.835806: $GPZDA,202801.00,01,12,2017,00,00*69
2017-12-01 15:28:00 1512160080.835974: $GPGGA,202801,3946.9599,N,08404.9836,W,2,11,0.80,296.50,M,-33.324,M,,*7A
2017-12-01 15:28:00 1512160080.836040: $GPRMC,202801,A,3946.9599,N,08404.9836,W,0.0000,0.000,011217,,*3A
2017-12-01 15:28:00 1512160080.836101: $GPGSA,A,3,1,10,11,12,14,18,24,25,31,32,138,,2.0,0.8,1.5*3B
2017-12-01 15:28:01 1512160081.389251: $GPZDA,202802.00,01,12,2017,00,00*6A
2017-12-01 15:28:01 1512160081.389488: $GPGGA,202802,3946.9599,N,08404.9836,W,2,11,0.80,296.50,M,-33.324,M,,*79
2017-12-01 15:28:01 1512160081.389559: $GPRMC,202802,A,3946.9599,N,08404.9836,W,0.0000,0.000,011217,,*39
2017-12-01 15:28:01 1512160081.389621: $GPGSA,A,3,1,10,11,12,14,18,24,25,31,32,138,,2.0,0.8,1.5*3B
2017-12-01 15:28:02 1512160082.387011: $GPZDA,202803.00,01,12,2017,00,00*6B
2017-12-01 15:28:02 1512160082.387207: $GPGGA,202803,3946.9599,N,08404.9836,W,2,11,0.80,296.50,M,-33.324,M,,*78
2017-12-01 15:28:02 1512160082.387302: $GPRMC,202803,A,3946.9599,N,08404.9836,W,0.0000,0.000,011217,,*38
2017-12-01 15:28:02 1512160082.387366: $GPGSA,A,3,1,10,11,12,14,18,24,25,31,32,138,,2.0,0.8,1.5*3B
2017-12-01 15:28:03 1512160083.721520: $GPGSV,3,1,12,01,09,324,39,10,77,115,48,11,09,309,37,12,23,079,43*7B
2017-12-01 15:28:03 1512160083.721701: $GPGSV,3,2,12,14,49,282,43,18,45,130,48,24,21,045,43,25,24,121,46*78
2017-12-01 15:28:03 1512160083.721768: $GPGSV,3,3,12,31,27,208,46,32,65,310,48,21,01,172,00,138,38,213,46*4C
2017-12-01 15:28:03 1512160083.834860: $GPZDA,202804.00,01,12,2017,00,00*6C
2017-12-01 15:28:03 1512160083.835024: $GPGGA,202804,3946.9599,N,08404.9836,W,2,11,0.80,296.50,M,-33.324,M,,*7F
2017-12-01 15:28:03 1512160083.835091: $GPRMC,202804,A,3946.9599,N,08404.9836,W,0.0000,0.000,011217,,*3F
2017-12-01 15:28:03 1512160083.835177: $GPGSA,A,3,1,10,11,12,14,18,24,25,31,32,138,,2.0,0.8,1.5*3B
2017-12-01 15:28:04 1512160084.386980: $GPZDA,202805.00,01,12,2017,00,00*6D
2017-12-01 15:28:04 1512160084.387181: $GPGGA,202805,3946.9599,N,08404.9836,W,2,11,0.80,296.50,M,-33.324,M,,*7E
2017-12-01 15:28:04 1512160084.387278: $GPRMC,202805,A,3946.9599,N,08404.9836,W,0.0000,0.000,011217,,*3E
2017-12-01 15:28:04 1512160084.387341: $GPGSA,A,3,1,10,11,12,14,18,24,25,31,32,138,,2.0,0.8,1.5*3B
2017-12-01 15:28:05 1512160085.389206: $GPZDA,202806.00,01,12,2017,00,00*6E
2017-12-01 15:28:05 1512160085.389404: $GPGGA,202806,3946.9599,N,08404.9836,W,2,11,0.80,296.50,M,-33.324,M,,*7D
2017-12-01 15:28:05 1512160085.389473: $GPRMC,202806,A,3946.9599,N,08404.9836,W,0.0000,0.000,011217,,*3D
2017-12-01 15:28:05 1512160085.389534: $GPGSA,A,3,1,10,11,12,14,18,24,25,31,32,138,,2.0,0.8,1.5*3B
