2017-11-16 13:53:41 1510858421.389136: {"class":"VERSION","release":"3.17","rev":"3.17","proto_major":3,"proto_minor":12}
2017-11-16 13:53:41 1510858421.389606: {"class":"DEVICES","devices":[{"class":"DEVICE","path":"/dev/ttyUSB0","driver":"SiRF","subtype":"9\u0006GSD4e_4.1.2-P1_RPATCH.05-F-GPS-4R-1510281 11/03/2015 307","activated":"2017-11-16T18:53:41.356Z","flags":1,"native":1,"bps":4800,"parity":"N","stopbits":1,"cycle":1.00}]}
2017-11-16 13:53:41 1510858421.389864: {"class":"WATCH","enable":true,"json":false,"nmea":true,"raw":0,"scaled":false,"timing":false,"split24":false,"pps":false}
2017-11-16 13:53:42 1510858422.356204: $GPZDA,185341.00,16,11,2017,00,00*6F
2017-11-16 13:53:42 1510858422.356363: $GPGGA,185341,3946.9611,N,08404.9833,W,2,10,0.80,306.29,M,-33.324,M,,*78
2017-11-16 13:53:42 1510858422.356425: $GPRMC,185341,A,3946.9611,N,08404.9833,W,0.0000,0.000,161117,,*3A
2017-11-16 13:53:42 1510858422.356481: $GPGSA,A,3,10,13,15,18,20,21,24,27,32,138,,,1.6,0.8,1.3*08
2017-11-16 13:53:43 1510858423.689535: $GPGSV,3,1,11,10,34,294,40,13,16,046,44,15,47,049,51,18,64,318,48*72
2017-11-16 13:53:43 1510858423.689721: $GPGSV,3,2,11,20,40,087,48,21,73,205,48,24,45,124,45,27,19,300,31*7C
2017-11-16 13:53:43 1510858423.689783: $GPGSV,3,3,11,32,12,232,37,08,02,328,24,138,38,213,43*7F
2017-11-16 13:53:43 1510858423.802945: $GPZDA,185342.00,16,11,2017,00,00*6C
2017-11-16 13:53:43 1510858423.803130: $GPGGA,185342,3946.9611,N,08404.9833,W,2,11,0.80,306.29,M,-33.324,M,,*7A
2017-11-16 13:53:43 1510858423.803191: $GPRMC,185342,A,3946.9611,N,08404.9833,W,0.0000,0.000,161117,,*39
2017-11-16 13:53:43 1510858423.803247: $GPGSA,A,3,10,13,15,18,20,21,24,27,32,8,138,,1.6,0.8,1.3*30
2017-11-16 13:53:44 1510858424.351766: $GPZDA,185343.00,16,11,2017,00,00*6D
2017-11-16 13:53:44 1510858424.351945: $GPGGA,185343,3946.9608,N,08404.9834,W,2,11,0.80,307.05,M,-33.324,M,,*7B
2017-11-16 13:53:44 1510858424.352024: $GPRMC,185343,A,3946.9608,N,08404.9834,W,0.0000,0.000,161117,,*37
2017-11-16 13:53:44 1510858424.352081: $GPGSA,A,3,10,13,15,18,20,21,24,27,32,8,138,,1.6,0.8,1.3*30
2017-11-16 13:53:45 1510858425.356002: $GPZDA,185344.00,16,11,2017,00,00*6A
2017-11-16 13:53:45 1510858425.794255: $GPGGA,185344,3946.9608,N,08404.9834,W,2,11,0.80,307.05,M,-33.324,M,,*7C
2017-11-16 13:53:45 1510858425.794397: $GPRMC,185344,A,3946.9608,N,08404.9834,W,0.0000,0.000,161117,,*30
2017-11-16 13:53:45 1510858425.794458: $GPGSA,A,3,10,13,15,18,20,21,24,27,32,8,138,,1.6,0.8,1.3*30
2017-11-16 13:53:46 1510858426.691918: $GPGSV,3,1,11,10,34,294,41,13,16,046,44,15,47,049,51,18,64,318,48*73
2017-11-16 13:53:46 1510858426.692082: $GPGSV,3,2,11,20,40,087,48,21,73,205,48,24,45,124,46,27,19,300,31*7F
2017-11-16 13:53:46 1510858426.692160: $GPGSV,3,3,11,32,12,232,37,08,02,328,23,138,38,213,42*79
2017-11-16 13:53:46 1510858426.805566: $GPZDA,185345.00,16,11,2017,00,00*6B
2017-11-16 13:53:46 1510858426.805711: $GPGGA,185345,3946.9608,N,08404.9834,W,2,11,0.80,307.05,M,-33.324,M,,*7D
2017-11-16 13:53:46 1510858426.805773: $GPRMC,185345,A,3946.9608,N,08404.9834,W,0.0000,0.000,161117,,*31
2017-11-16 13:53:46 1510858426.805828: $GPGSA,A,3,10,13,15,18,20,21,24,27,32,8,138,,1.6,0.8,1.3*30
2017-11-16 13:53:47 1510858427.429970: $GPZDA,185346.00,16,11,2017,00,00*68
2017-11-16 13:53:47 1510858427.430087: $GPGGA,185346,3946.9608,N,08404.9834,W,2,11,0.80,307.05,M,-33.324,M,,*7E
2017-11-16 13:53:47 1510858427.430118: $GPRMC,185346,A,3946.9608,N,08404.9834,W,0.0000,0.000,161117,,*32
2017-11-16 13:53:47 1510858427.430146: $GPGSA,A,3,10,13,15,18,20,21,24,27,32,8,138,,1.6,0.8,1.3*30
2017-11-16 13:53:48 1510858428.350968: $GPZDA,185347.00,16,11,2017,00,00*69
2017-11-16 13:53:48 1510858428.351064: $GPGGA,185347,3946.9608,N,08404.9834,W,2,11,0.80,307.05,M,-33.324,M,,*7F
2017-11-16 13:53:48 1510858428.351095: $GPRMC,185347,A,3946.9608,N,08404.9834,W,0.0000,0.000,161117,,*33
2017-11-16 13:53:48 1510858428.351124: $GPGSA,A,3,10,13,15,18,20,21,24,27,32,8,138,,1.6,0.8,1.3*30
2017-11-16 13:53:49 1510858429.692250: $GPGSV,3,1,11,10,34,294,41,13,16,046,44,15,47,049,51,18,64,318,48*73
2017-11-16 13:53:49 1510858429.692404: $GPGSV,3,2,11,20,40,087,48,21,73,205,48,24,45,124,45,27,19,300,30*7D
2017-11-16 13:53:49 1510858429.692438: $GPGSV,3,3,11,32,12,232,38,08,02,328,24,138,38,213,43*70
2017-11-16 13:53:49 1510858429.805782: $GPZDA,185348.00,16,11,2017,00,00*66
2017-11-16 13:53:49 1510858429.805951: $GPGGA,185348,3946.9608,N,08404.9834,W,2,11,0.80,307.05,M,-33.324,M,,*70
2017-11-16 13:53:49 1510858429.806012: $GPRMC,185348,A,3946.9608,N,08404.9834,W,0.0000,0.000,161117,,*3C
2017-11-16 13:53:49 1510858429.806069: $GPGSA,A,3,10,13,15,18,20,21,24,27,32,8,138,,1.6,0.8,1.3*30
2017-11-16 13:53:50 1510858430.354904: $GPZDA,185349.00,16,11,2017,00,00*67
2017-11-16 13:53:50 1510858430.355018: $GPGGA,185349,3946.9608,N,08404.9834,W,2,11,0.80,307.05,M,-33.324,M,,*71
2017-11-16 13:53:50 1510858430.355051: $GPRMC,185349,A,3946.9608,N,08404.9834,W,0.0000,0.000,161117,,*3D
2017-11-16 13:53:50 1510858430.355080: $GPGSA,A,3,10,13,15,18,20,21,24,27,32,8,138,,1.6,0.8,1.3*30
2017-11-16 13:53:51 1510858431.357028: $GPZDA,185350.00,16,11,2017,00,00*6F
2017-11-16 13:53:51 1510858431.357238: $GPGGA,185350,3946.9608,N,08404.9834,W,2,11,0.80,307.05,M,-33.324,M,,*79
2017-11-16 13:53:51 1510858431.357323: $GPRMC,185350,A,3946.9608,N,08404.9834,W,0.0000,0.000,161117,,*35
2017-11-16 13:53:51 1510858431.357387: $GPGSA,A,3,10,13,15,18,20,21,24,27,32,8,138,,1.6,0.8,1.3*30
