2017-11-15 19:35:53 1510792553.734224: {"class":"VERSION","release":"3.17","rev":"3.17","proto_major":3,"proto_minor":12}
2017-11-15 19:35:53 1510792553.734825: {"class":"DEVICES","devices":[{"class":"DEVICE","path":"/dev/ttyUSB0","driver":"SiRF","subtype":"9\u0006GSD4e_4.1.2-P1_RPATCH.05-F-GPS-4R-1510281 11/03/2015 307","activated":"2017-11-16T00:35:53.471Z","flags":1,"native":1,"bps":4800,"parity":"N","stopbits":1,"cycle":1.00}]}
2017-11-15 19:35:53 1510792553.734941: {"class":"WATCH","enable":true,"json":false,"nmea":true,"raw":0,"scaled":false,"timing":false,"split24":false,"pps":false}
2017-11-15 19:35:54 1510792554.681622: $GPGSV,3,1,12,32,33,111,22,14,53,096,15,16,25,190,16,26,56,171,21*7C
2017-11-15 19:35:54 1510792554.681794: $GPGSV,3,2,12,25,15,039,00,31,65,030,07,03,41,295,21,23,13,301,16*7A
2017-11-15 19:35:54 1510792554.681855: $GPGSV,3,3,12,29,11,069,00,01,04,250,00,22,50,265,22,120,07,103,00*4E
2017-11-15 19:35:54 1510792554.794993: $GPZDA,003553.00,16,11,2017,00,00*65
2017-11-15 19:35:54 1510792554.795154: $GPGGA,003553,3946.9410,N,08404.9603,W,1,08,2.20,291.55,M,-33.324,M,,*7A
2017-11-15 19:35:54 1510792554.795214: $GPRMC,003553,A,3946.9410,N,08404.9603,W,1.5738,12.547,161117,,*03
2017-11-15 19:35:54 1510792554.795269: $GPGSA,A,3,32,14,16,26,31,3,23,22,,,,,3.4,2.2,2.9*09
2017-11-15 19:35:55 1510792555.345850: $GPZDA,003554.00,16,11,2017,00,00*62
2017-11-15 19:35:55 1510792555.346017: $GPGGA,003554,3946.9422,N,08404.9602,W,1,08,1.40,292.06,M,-33.324,M,,*7D
2017-11-15 19:35:55 1510792555.346078: $GPRMC,003554,A,3946.9422,N,08404.9602,W,1.9587,349.465,161117,,*32
2017-11-15 19:35:55 1510792555.346134: $GPGSA,A,3,32,14,16,26,31,3,23,22,,,,,3.4,1.4,2.9*0C
2017-11-15 19:35:56 1510792556.346653: $GPZDA,003555.00,16,11,2017,00,00*63
2017-11-15 19:35:56 1510792556.346867: $GPGGA,003555,3946.9430,N,08404.9601,W,1,08,1.40,291.94,M,-33.324,M,,*74
2017-11-15 19:35:56 1510792556.346928: $GPRMC,003555,A,3946.9430,N,08404.9601,W,1.8977,3.784,161117,,*30
2017-11-15 19:35:56 1510792556.346983: $GPGSA,A,3,32,14,16,26,31,3,23,22,,,,,3.4,1.4,2.9*0C
2017-11-15 19:35:57 1510792557.665711: $GPGSV,3,1,12,32,33,111,23,14,53,096,15,16,25,190,16,26,56,171,21*7D
2017-11-15 19:35:57 1510792557.665915: $GPGSV,3,2,12,25,15,039,00,31,65,030,09,03,41,295,21,23,13,301,16*74
2017-11-15 19:35:57 1510792557.682176: $GPGSV,3,3,12,29,11,069,00,01,04,250,00,22,50,265,23,120,07,103,00*4F
2017-11-15 19:35:57 1510792557.779091: $GPZDA,003556.00,16,11,2017,00,00*60
2017-11-15 19:35:57 1510792557.779268: $GPGGA,003556,3946.9437,N,08404.9600,W,1,08,1.40,291.81,M,-33.324,M,,*75
2017-11-15 19:35:57 1510792557.779328: $GPRMC,003556,A,3946.9437,N,08404.9600,W,1.3044,25.352,161117,,*0C
2017-11-15 19:35:57 1510792557.779402: $GPGSA,A,3,32,14,16,26,31,3,23,22,,,,,3.4,1.4,2.9*0C
2017-11-15 19:35:58 1510792558.346196: $GPZDA,003557.00,16,11,2017,00,00*61
2017-11-15 19:35:58 1510792558.346361: $GPGGA,003557,3946.9441,N,08404.9594,W,1,08,1.40,292.53,M,-33.324,M,,*77
2017-11-15 19:35:58 1510792558.346441: $GPRMC,003557,A,3946.9441,N,08404.9594,W,1.2132,3.551,161117,,*32
2017-11-15 19:35:58 1510792558.346497: $GPGSA,A,3,32,14,16,26,31,3,23,22,,,,,3.4,1.4,2.9*0C
2017-11-15 19:35:59 1510792559.330986: $GPZDA,003558.00,16,11,2017,00,00*6E
2017-11-15 19:35:59 1510792559.331160: $GPGGA,003558,3946.9445,N,08404.9593,W,1,08,1.40,291.77,M,-33.324,M,,*7E
2017-11-15 19:35:59 1510792559.331220: $GPRMC,003558,A,3946.9445,N,08404.9593,W,1.2381,352.270,161117,,*37
2017-11-15 19:35:59 1510792559.331275: $GPGSA,A,3,32,14,16,26,31,3,23,22,,,,,3.4,1.4,2.9*0C
2017-11-15 19:36:00 1510792560.666756: $GPGSV,3,1,12,32,33,111,23,14,53,096,16,16,25,190,16,26,56,171,21*7E
2017-11-15 19:36:00 1510792560.667462: $GPGSV,3,2,12,25,15,039,00,31,65,030,10,03,41,295,20,23,13,301,17*7C
2017-11-15 19:36:00 1510792560.667589: $GPGSV,3,3,12,29,11,069,00,01,04,250,00,22,50,265,23,120,07,103,00*4F
2017-11-15 19:36:00 1510792560.779925: $GPZDA,003559.00,16,11,2017,00,00*6F
2017-11-15 19:36:00 1510792560.780084: $GPGGA,003559,3946.9453,N,08404.9599,W,1,08,1.40,291.56,M,-33.324,M,,*71
2017-11-15 19:36:00 1510792560.780198: $GPRMC,003559,A,3946.9453,N,08404.9599,W,1.3082,341.818,161117,,*3C
2017-11-15 19:36:00 1510792560.780256: $GPGSA,A,3,32,14,16,26,31,3,23,22,,,,,3.4,1.4,2.9*0C
2017-11-15 19:36:01 1510792561.405443: $GPZDA,003600.00,16,11,2017,00,00*60
2017-11-15 19:36:01 1510792561.405624: $GPGGA,003600,3946.9457,N,08404.9599,W,1,08,1.40,292.20,M,-33.324,M,,*78
2017-11-15 19:36:01 1510792561.405687: $GPRMC,003600,A,3946.9457,N,08404.9599,W,0.8359,328.778,161117,,*3E
2017-11-15 19:36:01 1510792561.405744: $GPGSA,A,3,32,14,16,26,31,3,23,22,,,,,3.4,1.4,2.9*0C
2017-11-15 19:36:02 1510792562.330464: $GPZDA,003601.00,16,11,2017,00,00*61
2017-11-15 19:36:02 1510792562.330639: $GPGGA,003601,3946.9460,N,08404.9598,W,1,08,1.40,291.44,M,-33.324,M,,*7D
2017-11-15 19:36:02 1510792562.330699: $GPRMC,003601,A,3946.9460,N,08404.9598,W,0.8011,299.090,161117,,*3F
2017-11-15 19:36:02 1510792562.330754: $GPGSA,A,3,32,14,16,26,31,3,23,22,,,,,3.4,1.4,2.9*0C
