2017-12-01 16:17:34 1512163054.153894: {"class":"VERSION","release":"3.16","rev":"3.16-4","proto_major":3,"proto_minor":11}
2017-12-01 16:17:34 1512163054.154280: {"class":"DEVICES","devices":[{"class":"DEVICE","path":"/dev/ttyUSB0","driver":"SiRF","subtype":"9\u0006GSD4e_4.1.2-P1_RPATCH.05-F-GPS-4R-1510281 11/03/2015 307","activated":"2017-12-01T21:17:33.501Z","flags":1,"native":1,"bps":4800,"parity":"N","stopbits":1,"cycle":1.00}]}
2017-12-01 16:17:34 1512163054.154402: {"class":"WATCH","enable":true,"json":false,"nmea":true,"raw":0,"scaled":false,"timing":false,"split24":false,"pps":false}
2017-12-01 16:17:34 1512163054.360754: $GPZDA,211735.00,01,12,2017,00,00*63
2017-12-01 16:17:34 1512163054.360937: $GPGGA,211735,3946.9591,N,08404.9834,W,2,11,0.80,304.49,M,-33.324,M,,*78
2017-12-01 16:17:34 1512163054.361004: $GPRMC,211735,A,3946.9591,N,08404.9834,W,0.0000,0.000,011217,,*3A
2017-12-01 16:17:34 1512163054.361065: $GPGSA,A,3,10,11,12,14,18,22,25,31,32,1,138,,2.0,0.8,1.5*3D
2017-12-01 16:17:35 1512163055.697322: $GPGSV,3,1,12,10,54,145,48,11,10,288,29,12,24,055,45,14,63,315,44*7F
2017-12-01 16:17:35 1512163055.697493: $GPGSV,3,2,12,18,23,142,45,22,14,312,00,25,38,099,46,31,50,220,48*75
2017-12-01 16:17:35 1512163055.697561: $GPGSV,3,3,12,32,70,012,46,01,20,306,34,24,02,048,04,138,38,213,46*43
2017-12-01 16:17:35 1512163055.810699: $GPZDA,211736.00,01,12,2017,00,00*60
2017-12-01 16:17:35 1512163055.810872: $GPGGA,211736,3946.9591,N,08404.9840,W,2,10,0.80,303.01,M,-33.324,M,,*72
2017-12-01 16:17:35 1512163055.810939: $GPRMC,211736,A,3946.9591,N,08404.9840,W,0.0000,0.000,011217,,*3A
2017-12-01 16:17:35 1512163055.811000: $GPGSA,A,3,10,11,12,14,18,25,31,32,1,138,,,2.0,0.8,1.5*3D
2017-12-01 16:17:36 1512163056.361572: $GPZDA,211737.00,01,12,2017,00,00*61
2017-12-01 16:17:36 1512163056.361746: $GPGGA,211737,3946.9587,N,08404.9841,W,2,10,0.80,303.77,M,-33.324,M,,*74
2017-12-01 16:17:36 1512163056.361814: $GPRMC,211737,A,3946.9587,N,08404.9841,W,0.0000,0.000,011217,,*3D
2017-12-01 16:17:36 1512163056.361875: $GPGSA,A,3,10,11,12,14,18,25,31,32,1,138,,,2.0,0.8,1.5*3D
2017-12-01 16:17:37 1512163057.371257: $GPZDA,211738.00,01,12,2017,00,00*6E
2017-12-01 16:17:37 1512163057.371483: $GPGGA,211738,3946.9587,N,08404.9841,W,2,10,1.00,303.77,M,-33.324,M,,*72
2017-12-01 16:17:37 1512163057.371554: $GPRMC,211738,A,3946.9587,N,08404.9841,W,0.0000,0.000,011217,,*32
2017-12-01 16:17:37 1512163057.371616: $GPGSA,A,3,10,11,12,14,18,25,31,32,1,138,,,2.0,1.0,1.5*34
2017-12-01 16:17:38 1512163058.706931: $GPGSV,3,1,12,10,54,145,48,11,10,288,25,12,24,055,45,14,63,315,45*72
2017-12-01 16:17:38 1512163058.707112: $GPGSV,3,2,12,18,23,142,45,22,14,312,00,25,38,099,45,31,50,220,48*76
2017-12-01 16:17:38 1512163058.707181: $GPGSV,3,3,12,32,70,012,46,01,20,306,35,24,02,048,04,138,38,213,45*41
2017-12-01 16:17:38 1512163058.820529: $GPZDA,211739.00,01,12,2017,00,00*6F
2017-12-01 16:17:38 1512163058.820673: $GPGGA,211739,3946.9587,N,08404.9841,W,2,10,0.80,303.77,M,-33.324,M,,*7A
2017-12-01 16:17:38 1512163058.820740: $GPRMC,211739,A,3946.9587,N,08404.9841,W,0.0000,0.000,011217,,*33
2017-12-01 16:17:38 1512163058.820801: $GPGSA,A,3,10,11,12,14,18,25,31,32,1,138,,,2.0,0.8,1.5*3D
2017-12-01 16:17:39 1512163059.378939: $GPZDA,211740.00,01,12,2017,00,00*61
2017-12-01 16:17:39 1512163059.379123: $GPGGA,211740,3946.9587,N,08404.9841,W,2,10,0.80,303.77,M,-33.324,M,,*74
2017-12-01 16:17:39 1512163059.379212: $GPRMC,211740,A,3946.9587,N,08404.9841,W,0.0000,0.000,011217,,*3D
2017-12-01 16:17:39 1512163059.379276: $GPGSA,A,3,10,11,12,14,18,25,31,32,1,138,,,2.0,0.8,1.5*3D
2017-12-01 16:17:40 1512163060.378052: $GPZDA,211741.00,01,12,2017,00,00*60
2017-12-01 16:17:40 1512163060.378234: $GPGGA,211741,3946.9587,N,08404.9841,W,2,10,0.80,303.77,M,-33.324,M,,*75
2017-12-01 16:17:40 1512163060.378305: $GPRMC,211741,A,3946.9587,N,08404.9841,W,0.0000,0.000,011217,,*3C
2017-12-01 16:17:40 1512163060.378370: $GPGSA,A,3,10,11,12,14,18,25,31,32,1,138,,,2.0,0.8,1.5*3D
2017-12-01 16:17:41 1512163061.712291: $GPGSV,3,1,12,10,54,145,48,11,10,288,26,12,24,055,46,14,63,315,44*73
2017-12-01 16:17:41 1512163061.712540: $GPGSV,3,2,12,18,23,142,45,22,14,312,00,25,38,099,45,31,50,220,48*76
2017-12-01 16:17:41 1512163061.712610: $GPGSV,3,3,12,32,70,012,46,01,20,306,35,24,02,048,04,138,38,213,46*42
2017-12-01 16:17:41 1512163061.825954: $GPZDA,211742.00,01,12,2017,00,00*63
2017-12-01 16:17:41 1512163061.826122: $GPGGA,211742,3946.9587,N,08404.9841,W,2,10,0.80,303.77,M,-33.324,M,,*76
2017-12-01 16:17:41 1512163061.826189: $GPRMC,211742,A,3946.9587,N,08404.9841,W,0.0000,0.000,011217,,*3F
2017-12-01 16:17:41 1512163061.826251: $GPGSA,A,3,10,11,12,14,18,25,31,32,1,138,,,2.0,0.8,1.5*3D
2017-12-01 16:17:42 1512163062.379051: $GPZDA,211743.00,01,12,2017,00,00*62
2017-12-01 16:17:42 1512163062.379231: $GPGGA,211743,3946.9587,N,08404.9841,W,2,10,0.80,303.77,M,-33.324,M,,*77
2017-12-01 16:17:42 1512163062.379299: $GPRMC,211743,A,3946.9587,N,08404.9841,W,0.0000,0.000,011217,,*3E
2017-12-01 16:17:42 1512163062.379361: $GPGSA,A,3,10,11,12,14,18,25,31,32,1,138,,,2.0,0.8,1.5*3D
2017-12-01 16:17:43 1512163063.363700: $GPZDA,211744.00,01,12,2017,00,00*65
2017-12-01 16:17:43 1512163063.363882: $GPGGA,211744,3946.9587,N,08404.9841,W,2,10,0.80,303.77,M,-33.324,M,,*70
2017-12-01 16:17:43 1512163063.363950: $GPRMC,211744,A,3946.9587,N,08404.9841,W,0.0000,0.000,011217,,*39
2017-12-01 16:17:43 1512163063.364011: $GPGSA,A,3,10,11,12,14,18,25,31,32,1,138,,,2.0,0.8,1.5*3D
2017-12-01 16:17:44 1512163064.697105: $GPGSV,3,1,12,10,54,145,48,11,10,288,25,12,24,055,46,14,63,315,44*70
2017-12-01 16:17:44 1512163064.697294: $GPGSV,3,2,12,18,23,142,45,22,14,312,25,25,38,099,45,31,50,220,48*71
2017-12-01 16:17:44 1512163064.697359: $GPGSV,3,3,12,32,70,012,46,01,20,306,35,24,02,048,00,138,38,213,45*45
2017-12-01 16:17:44 1512163064.810460: $GPZDA,211745.00,01,12,2017,00,00*64
2017-12-01 16:17:44 1512163064.810632: $GPGGA,211745,3946.9587,N,08404.9841,W,2,11,0.80,303.77,M,-33.324,M,,*70
2017-12-01 16:17:44 1512163064.810701: $GPRMC,211745,A,3946.9587,N,08404.9841,W,0.0000,0.000,011217,,*38
2017-12-01 16:17:44 1512163064.810763: $GPGSA,A,3,10,11,12,14,18,22,25,31,32,1,138,,2.0,0.8,1.5*3D
2017-12-01 16:17:45 1512163065.435888: $GPZDA,211746.00,01,12,2017,00,00*67
2017-12-01 16:17:45 1512163065.436055: $GPGGA,211746,3946.9587,N,08404.9841,W,2,11,0.80,303.77,M,-33.324,M,,*73
2017-12-01 16:17:45 1512163065.436122: $GPRMC,211746,A,3946.9587,N,08404.9841,W,0.0000,0.000,011217,,*3B
2017-12-01 16:17:45 1512163065.436184: $GPGSA,A,3,10,11,12,14,18,22,25,31,32,1,138,,2.0,0.8,1.5*3D
2017-12-01 16:17:46 1512163066.382764: $GPZDA,211747.00,01,12,2017,00,00*66
2017-12-01 16:17:46 1512163066.382944: $GPGGA,211747,3946.9587,N,08404.9841,W,2,11,0.80,303.77,M,-33.324,M,,*72
2017-12-01 16:17:46 1512163066.383012: $GPRMC,211747,A,3946.9587,N,08404.9841,W,0.0000,0.000,011217,,*3A
2017-12-01 16:17:46 1512163066.383074: $GPGSA,A,3,10,11,12,14,18,22,25,31,32,1,138,,2.0,0.8,1.5*3D
2017-12-01 16:17:47 1512163067.697206: $GPGSV,3,1,12,10,54,145,47,11,10,288,27,12,24,055,46,14,63,315,44*7D
2017-12-01 16:17:47 1512163067.697386: $GPGSV,3,2,12,18,23,142,45,22,14,312,28,25,38,099,46,31,50,220,48*7F
2017-12-01 16:17:47 1512163067.697453: $GPGSV,3,3,12,32,70,012,46,01,20,306,35,24,02,048,14,138,38,213,46*43
2017-12-01 16:17:47 1512163067.810810: $GPZDA,211748.00,01,12,2017,00,00*69
2017-12-01 16:17:47 1512163067.810940: $GPGGA,211748,3946.9587,N,08404.9841,W,2,11,0.80,303.77,M,-33.324,M,,*7D
2017-12-01 16:17:47 1512163067.811005: $GPRMC,211748,A,3946.9587,N,08404.9841,W,0.0000,0.000,011217,,*35
2017-12-01 16:17:47 1512163067.811065: $GPGSA,A,3,10,11,12,14,18,22,25,31,32,1,138,,2.0,0.8,1.5*3D
2017-12-01 16:17:48 1512163068.373091: $GPZDA,211749.00,01,12,2017,00,00*68
2017-12-01 16:17:48 1512163068.373263: $GPGGA,211749,3946.9587,N,08404.9841,W,2,11,0.80,303.77,M,-33.324,M,,*7C
2017-12-01 16:17:48 1512163068.373332: $GPRMC,211749,A,3946.9587,N,08404.9841,W,0.0000,0.000,011217,,*34
2017-12-01 16:17:48 1512163068.373393: $GPGSA,A,3,10,11,12,14,18,22,25,31,32,1,138,,2.0,0.8,1.5*3D
2017-12-01 16:17:49 1512163069.377563: $GPZDA,211750.00,01,12,2017,00,00*60
2017-12-01 16:17:49 1512163069.377826: $GPGGA,211750,3946.9587,N,08404.9841,W,2,11,1.00,303.77,M,-33.324,M,,*7D
2017-12-01 16:17:49 1512163069.377897: $GPRMC,211750,A,3946.9587,N,08404.9841,W,0.0000,0.000,011217,,*3C
2017-12-01 16:17:49 1512163069.377958: $GPGSA,A,3,10,11,12,14,18,22,25,31,32,1,138,,2.0,1.0,1.5*34
2017-12-01 16:17:50 1512163070.716330: $GPGSV,3,1,12,10,54,145,47,22,14,312,25,12,24,055,46,14,63,315,44*79
2017-12-01 16:17:50 1512163070.716512: $GPGSV,3,2,12,18,23,142,45,11,10,288,02,25,38,099,46,31,50,220,48*71
2017-12-01 16:17:50 1512163070.716582: $GPGSV,3,3,12,32,70,012,46,01,20,306,35,24,02,048,14,138,38,213,47*42
2017-12-01 16:17:50 1512163070.828755: $GPZDA,211751.00,01,12,2017,00,00*61
2017-12-01 16:17:50 1512163070.828917: $GPGGA,211751,3946.9587,N,08404.9841,W,2,11,1.00,303.77,M,-33.324,M,,*7C
2017-12-01 16:17:50 1512163070.828983: $GPRMC,211751,A,3946.9587,N,08404.9841,W,0.0000,0.000,011217,,*3D
2017-12-01 16:17:50 1512163070.829045: $GPGSA,A,3,10,22,12,14,18,25,31,32,1,24,138,,2.0,1.0,1.5*32
2017-12-01 16:17:51 1512163071.363073: $GPZDA,211752.00,01,12,2017,00,00*62
2017-12-01 16:17:51 1512163071.363251: $GPGGA,211752,3946.9587,N,08404.9841,W,2,11,0.80,303.77,M,-33.324,M,,*76
2017-12-01 16:17:51 1512163071.363319: $GPRMC,211752,A,3946.9587,N,08404.9841,W,0.0000,0.000,011217,,*3E
2017-12-01 16:17:51 1512163071.363381: $GPGSA,A,3,10,22,12,14,18,25,31,32,1,24,138,,2.0,0.8,1.5*3B
2017-12-01 16:17:52 1512163072.381702: $GPZDA,211753.00,01,12,2017,00,00*63
2017-12-01 16:17:52 1512163072.381873: $GPGGA,211753,3946.9587,N,08404.9841,W,2,11,0.80,303.77,M,-33.324,M,,*77
2017-12-01 16:17:52 1512163072.381941: $GPRMC,211753,A,3946.9587,N,08404.9841,W,0.0000,0.000,011217,,*3F
2017-12-01 16:17:52 1512163072.382003: $GPGSA,A,3,10,22,12,14,18,25,31,32,1,24,138,,2.0,0.8,1.5*3B
2017-12-01 16:17:53 1512163073.713511: $GPGSV,3,1,12,10,54,145,48,22,14,312,30,12,24,055,45,14,63,315,44*71
2017-12-01 16:17:53 1512163073.713706: $GPGSV,3,2,12,18,23,142,45,11,10,288,25,25,38,099,46,31,50,220,48*74
2017-12-01 16:17:53 1512163073.713774: $GPGSV,3,3,12,32,70,012,47,01,20,306,34,24,02,048,04,138,38,213,45*41
2017-12-01 16:17:53 1512163073.826823: $GPZDA,211754.00,01,12,2017,00,00*64
2017-12-01 16:17:53 1512163073.827013: $GPGGA,211754,3946.9587,N,08404.9841,W,2,11,0.80,303.77,M,-33.324,M,,*70
2017-12-01 16:17:53 1512163073.827079: $GPRMC,211754,A,3946.9587,N,08404.9841,W,0.0000,0.000,011217,,*38
2017-12-01 16:17:53 1512163073.827177: $GPGSA,A,3,10,22,12,14,18,11,25,31,32,1,138,,2.0,0.8,1.5*3D
