2017-11-15 19:43:39 1510793019.643855: {"class":"VERSION","release":"3.17","rev":"3.17","proto_major":3,"proto_minor":12}
2017-11-15 19:43:39 1510793019.644398: {"class":"DEVICES","devices":[{"class":"DEVICE","path":"/dev/ttyUSB0","driver":"SiRF","subtype":"9\u0006GSD4e_4.1.2-P1_RPATCH.05-F-GPS-4R-1510281 11/03/2015 307","activated":"2017-11-16T00:43:39.217Z","flags":1,"native":1,"bps":4800,"parity":"N","stopbits":1,"cycle":1.00}]}
2017-11-15 19:43:39 1510793019.644579: {"class":"WATCH","enable":true,"json":false,"nmea":true,"raw":0,"scaled":false,"timing":false,"split24":false,"pps":false}
2017-11-15 19:43:39 1510793019.686949: $GPGSV,3,1,11,32,31,112,17,16,28,190,23,22,50,261,22,26,59,169,23*7F
2017-11-15 19:43:39 1510793019.687101: $GPGSV,3,2,11,14,51,100,20,31,63,033,18,29,12,066,09,23,15,303,16*77
2017-11-15 19:43:39 1510793019.687163: $GPGSV,3,3,11,03,42,292,18,25,12,039,00,01,02,249,00*4E
2017-11-15 19:43:39 1510793019.780227: $GPZDA,004338.00,16,11,2017,00,00*69
2017-11-15 19:43:39 1510793019.780394: $GPGGA,004338,3946.9629,N,08404.9502,W,1,09,0.80,333.67,M,-33.324,M,,*7D
2017-11-15 19:43:39 1510793019.780455: $GPRMC,004338,A,3946.9629,N,08404.9502,W,0.4179,328.778,161117,,*32
2017-11-15 19:43:39 1510793019.780511: $GPGSA,A,3,32,16,22,26,14,31,29,23,3,,,,3.4,0.8,2.9*0A
2017-11-15 19:43:40 1510793020.329421: $GPZDA,004339.00,16,11,2017,00,00*68
2017-11-15 19:43:40 1510793020.329594: $GPGGA,004339,3946.9629,N,08404.9502,W,1,09,0.80,333.67,M,-33.324,M,,*7C
2017-11-15 19:43:40 1510793020.329657: $GPRMC,004339,A,3946.9629,N,08404.9502,W,0.6846,4.197,161117,,*3E
2017-11-15 19:43:40 1510793020.329713: $GPGSA,A,3,32,16,22,26,14,31,29,23,3,,,,3.4,0.8,2.9*0A
2017-11-15 19:43:41 1510793021.329754: $GPZDA,004340.00,16,11,2017,00,00*66
2017-11-15 19:43:41 1510793021.329916: $GPGGA,004340,3946.9636,N,08404.9501,W,1,09,0.80,333.54,M,-33.324,M,,*7F
2017-11-15 19:43:41 1510793021.329976: $GPRMC,004340,A,3946.9636,N,08404.9501,W,0.9060,347.792,161117,,*39
2017-11-15 19:43:41 1510793021.330032: $GPGSA,A,3,32,16,22,26,14,31,29,23,3,,,,3.4,0.8,2.9*0A
2017-11-15 19:43:42 1510793022.665617: $GPGSV,3,1,11,32,31,112,17,16,28,190,23,22,50,261,22,26,59,169,23*7F
2017-11-15 19:43:42 1510793022.665784: $GPGSV,3,2,11,14,51,100,21,31,63,033,17,29,12,066,09,23,15,303,15*7A
2017-11-15 19:43:42 1510793022.665844: $GPGSV,3,3,11,03,42,292,18,25,12,039,00,01,02,249,00*4E
2017-11-15 19:43:42 1510793022.778859: $GPZDA,004341.00,16,11,2017,00,00*67
2017-11-15 19:43:42 1510793022.779014: $GPGGA,004341,3946.9637,N,08404.9508,W,1,09,0.80,333.46,M,-33.324,M,,*75
2017-11-15 19:43:42 1510793022.779074: $GPRMC,004341,A,3946.9637,N,08404.9508,W,1.0002,334.331,161117,,*35
2017-11-15 19:43:42 1510793022.779130: $GPGSA,A,3,32,16,22,26,14,31,29,23,3,,,,3.4,0.8,2.9*0A
2017-11-15 19:43:43 1510793023.346421: $GPZDA,004342.00,16,11,2017,00,00*64
2017-11-15 19:43:43 1510793023.346572: $GPGGA,004342,3946.9641,N,08404.9508,W,1,09,0.80,334.10,M,-33.324,M,,*73
2017-11-15 19:43:43 1510793023.346632: $GPRMC,004342,A,3946.9641,N,08404.9508,W,0.9060,347.792,161117,,*32
2017-11-15 19:43:43 1510793023.346688: $GPGSA,A,3,32,16,22,26,14,31,29,23,3,,,,3.4,0.8,2.9*0A
2017-11-15 19:43:44 1510793024.331062: $GPZDA,004343.00,16,11,2017,00,00*65
2017-11-15 19:43:44 1510793024.331238: $GPGGA,004343,3946.9641,N,08404.9508,W,1,09,0.80,334.10,M,-33.324,M,,*72
2017-11-15 19:43:44 1510793024.331299: $GPRMC,004343,A,3946.9641,N,08404.9508,W,1.1391,323.662,161117,,*3B
2017-11-15 19:43:44 1510793024.331372: $GPGSA,A,3,32,16,22,26,14,31,29,23,3,,,,3.4,0.8,2.9*0A
2017-11-15 19:43:45 1510793025.666352: $GPGSV,3,1,11,32,31,112,16,16,28,190,23,22,50,261,22,26,59,169,23*7E
2017-11-15 19:43:45 1510793025.666525: $GPGSV,3,2,11,14,51,100,21,31,63,033,17,29,12,066,09,23,15,303,15*7A
2017-11-15 19:43:45 1510793025.666584: $GPGSV,3,3,11,03,42,292,18,25,12,039,00,01,02,249,00*4E
2017-11-15 19:43:45 1510793025.779783: $GPZDA,004344.00,16,11,2017,00,00*62
2017-11-15 19:43:45 1510793025.779962: $GPGGA,004344,3946.9638,N,08404.9516,W,1,09,0.80,334.79,M,-33.324,M,,*7B
2017-11-15 19:43:45 1510793025.780022: $GPRMC,004344,A,3946.9638,N,08404.9516,W,0.5912,309.173,161117,,*36
2017-11-15 19:43:45 1510793025.780130: $GPGSA,A,3,32,16,22,26,14,31,29,23,3,,,,3.4,0.8,2.9*0A
2017-11-15 19:43:46 1510793026.405601: $GPZDA,004345.00,16,11,2017,00,00*63
2017-11-15 19:43:46 1510793026.405746: $GPGGA,004345,3946.9638,N,08404.9516,W,1,09,0.80,334.79,M,-33.324,M,,*7A
2017-11-15 19:43:46 1510793026.405806: $GPRMC,004345,A,3946.9638,N,08404.9516,W,0.2959,234.768,161117,,*3C
2017-11-15 19:43:46 1510793026.405862: $GPGSA,A,3,32,16,22,26,14,31,29,23,3,,,,3.4,0.8,2.9*0A
2017-11-15 19:43:47 1510793027.330122: $GPZDA,004346.00,16,11,2017,00,00*60
2017-11-15 19:43:47 1510793027.330318: $GPGGA,004346,3946.9638,N,08404.9516,W,1,09,0.80,334.79,M,-33.324,M,,*79
2017-11-15 19:43:47 1510793027.330380: $GPRMC,004346,A,3946.9638,N,08404.9516,W,0.5774,207.515,161117,,*31
2017-11-15 19:43:47 1510793027.330437: $GPGSA,A,3,32,16,22,26,14,31,29,23,3,,,,3.4,0.8,2.9*0A
2017-11-15 19:43:48 1510793028.681716: $GPGSV,3,1,11,32,31,112,15,16,28,190,23,22,50,261,23,26,59,169,24*7B
2017-11-15 19:43:48 1510793028.681887: $GPGSV,3,2,11,14,51,100,21,31,63,033,16,29,12,066,09,23,15,303,15*7B
2017-11-15 19:43:48 1510793028.681948: $GPGSV,3,3,11,03,42,292,18,25,12,039,00,01,02,249,00*4E
2017-11-15 19:43:48 1510793028.795063: $GPZDA,004347.00,16,11,2017,00,00*61
2017-11-15 19:43:48 1510793028.795252: $GPGGA,004347,3946.9634,N,08404.9516,W,1,09,0.80,335.55,M,-33.324,M,,*7B
2017-11-15 19:43:48 1510793028.795335: $GPRMC,004347,A,3946.9634,N,08404.9516,W,0.4207,219.347,161117,,*32
2017-11-15 19:43:48 1510793028.795394: $GPGSA,A,3,32,16,22,26,14,31,29,23,3,,,,3.4,0.8,2.9*0A
2017-11-15 19:43:49 1510793029.346135: $GPZDA,004348.00,16,11,2017,00,00*6E
2017-11-15 19:43:49 1510793029.349570: $GPGGA,004348,3946.9634,N,08404.9516,W,1,09,0.80,335.55,M,-33.324,M,,*74
2017-11-15 19:43:49 1510793029.349783: $GPRMC,004348,A,3946.9634,N,08404.9516,W,0.4207,219.347,161117,,*3D
2017-11-15 19:43:49 1510793029.349923: $GPGSA,A,3,32,16,22,26,14,31,29,23,3,,,,3.4,0.8,2.9*0A
