2017-12-01 18:14:28 1512170068.434198: {"class":"VERSION","release":"3.16","rev":"3.16-4","proto_major":3,"proto_minor":11}
2017-12-01 18:14:28 1512170068.434835: {"class":"DEVICES","devices":[{"class":"DEVICE","path":"/dev/ttyUSB0","driver":"SiRF","subtype":"9\u0006GSD4e_4.1.2-P1_RPATCH.05-F-GPS-4R-1510281 11/03/2015 307","activated":"2017-12-01T23:14:28.047Z","flags":1,"native":1,"bps":4800,"parity":"N","stopbits":1,"cycle":1.00}]}
2017-12-01 18:14:28 1512170068.435039: {"class":"WATCH","enable":true,"json":false,"nmea":true,"raw":0,"scaled":false,"timing":false,"split24":false,"pps":false}
2017-12-01 18:14:28 1512170068.654438: $GPZDA,231429.32,01,12,2017,00,00*6E
2017-12-01 18:14:28 1512170068.654614: $GPGGA,231429,3946.9720,N,08404.9867,W,1,11,0.80,296.20,M,-33.325,M,,*7D
2017-12-01 18:14:28 1512170068.654680: $GPRMC,231429,A,3946.9720,N,08404.9867,W,0.3155,309.994,011217,,*34
2017-12-01 18:14:28 1512170068.654741: $GPGSA,A,3,1,3,14,16,22,23,25,26,31,32,138,,2.0,0.8,1.5*07
2017-12-01 18:14:30 1512170070.094418: $GPGSV,3,1,12,01,08,256,29,03,38,303,36,14,58,085,34,16,19,189,34*7C
2017-12-01 18:14:30 1512170070.094599: $GPGSV,3,2,12,22,50,277,37,23,08,298,34,25,21,042,31,26,49,174,36*7B
2017-12-01 18:14:30 1512170070.094666: $GPGSV,3,3,12,31,70,019,37,32,39,105,36,29,09,076,00,138,38,213,00*4B
2017-12-01 18:14:30 1512170070.207833: $GPZDA,231430.00,01,12,2017,00,00*67
2017-12-01 18:14:30 1512170070.207990: $GPGGA,231430,3946.9720,N,08404.9867,W,1,10,0.80,296.20,M,-33.325,M,,*74
2017-12-01 18:14:30 1512170070.208058: $GPRMC,231430,A,3946.9720,N,08404.9867,W,0.0407,322.013,011217,,*32
2017-12-01 18:14:30 1512170070.208139: $GPGSA,A,3,1,3,14,16,22,23,25,26,31,32,,,2.0,0.8,1.5*3D
2017-12-01 18:14:31 1512170071.038007: $GPZDA,231431.00,01,12,2017,00,00*66
2017-12-01 18:14:31 1512170071.038241: $GPGGA,231431,3946.9720,N,08404.9867,W,1,10,0.80,296.20,M,-33.325,M,,*75
2017-12-01 18:14:31 1512170071.038315: $GPRMC,231431,A,3946.9720,N,08404.9867,W,0.0000,0.000,011217,,*31
2017-12-01 18:14:31 1512170071.038376: $GPGSA,A,3,1,3,14,16,22,23,25,26,31,32,,,2.0,0.8,1.5*3D
2017-12-01 18:14:31 1512170071.038434: $GPGBS,231431,10.70,M,15.43,M,35.28,M*01
2017-12-01 18:14:31 1512170071.292080: $GPZDA,231432.00,01,12,2017,00,00*65
2017-12-01 18:14:31 1512170071.292270: $GPGGA,231432,3946.9720,N,08404.9860,W,1,10,0.80,296.28,M,-33.325,M,,*79
2017-12-01 18:14:31 1512170071.292338: $GPRMC,231432,A,3946.9720,N,08404.9860,W,0.0000,0.000,011217,,*35
2017-12-01 18:14:31 1512170071.292400: $GPGSA,A,3,1,3,14,16,22,23,25,26,31,32,,,2.0,0.8,1.5*3D
2017-12-01 18:14:31 1512170071.292457: $GPGBS,231432,10.70,M,15.43,M,35.28,M*02
2017-12-01 18:14:32 1512170072.682346: $GPGSV,3,1,12,01,08,256,37,03,38,303,46,14,58,085,42,16,19,189,43*75
2017-12-01 18:14:32 1512170072.682499: $GPGSV,3,2,12,22,50,277,46,23,08,298,44,25,21,042,40,26,49,174,45*78
2017-12-01 18:14:32 1512170072.682565: $GPGSV,3,3,12,31,70,019,47,32,39,105,45,29,09,076,12,138,38,213,00*4B
2017-12-01 18:14:32 1512170072.795682: $GPZDA,231433.00,01,12,2017,00,00*64
2017-12-01 18:14:32 1512170072.795851: $GPGGA,231433,3946.9723,N,08404.9860,W,1,10,0.80,295.52,M,-33.325,M,,*75
2017-12-01 18:14:32 1512170072.795919: $GPRMC,231433,A,3946.9723,N,08404.9860,W,0.0000,0.000,011217,,*37
2017-12-01 18:14:32 1512170072.795980: $GPGSA,A,3,1,3,14,16,22,23,25,26,31,32,,,2.0,0.8,1.5*3D
2017-12-01 18:14:33 1512170073.421058: $GPZDA,231434.00,01,12,2017,00,00*63
2017-12-01 18:14:33 1512170073.421267: $GPGGA,231434,3946.9723,N,08404.9860,W,1,10,0.80,295.52,M,-33.325,M,,*72
2017-12-01 18:14:33 1512170073.426753: $GPRMC,231434,A,3946.9723,N,08404.9860,W,0.0000,0.000,011217,,*30
2017-12-01 18:14:33 1512170073.426859: $GPGSA,A,3,1,3,14,16,22,23,25,26,31,32,,,2.0,0.8,1.5*3D
2017-12-01 18:14:34 1512170074.343429: $GPZDA,231435.00,01,12,2017,00,00*62
2017-12-01 18:14:34 1512170074.343597: $GPGGA,231435,3946.9723,N,08404.9860,W,1,10,0.80,295.52,M,-33.325,M,,*73
2017-12-01 18:14:34 1512170074.343664: $GPRMC,231435,A,3946.9723,N,08404.9860,W,0.4207,39.346,011217,,*0B
2017-12-01 18:14:34 1512170074.343726: $GPGSA,A,3,1,3,14,16,22,23,25,26,31,32,,,2.0,0.8,1.5*3D
2017-12-01 18:14:35 1512170075.678724: $GPGSV,3,1,12,01,08,256,38,03,38,303,46,14,58,085,42,16,19,189,43*7A
2017-12-01 18:14:35 1512170075.678908: $GPGSV,3,2,12,22,50,277,46,23,08,298,44,25,21,042,39,26,49,174,46*75
2017-12-01 18:14:35 1512170075.678976: $GPGSV,3,3,12,31,70,019,46,32,39,105,41,10,01,159,00,138,38,213,46*41
2017-12-01 18:14:35 1512170075.792553: $GPZDA,231436.00,01,12,2017,00,00*61
2017-12-01 18:14:35 1512170075.792719: $GPGGA,231436,3946.9723,N,08404.9860,W,1,11,0.80,295.52,M,-33.325,M,,*71
2017-12-01 18:14:35 1512170075.792787: $GPRMC,231436,A,3946.9723,N,08404.9860,W,0.0000,0.000,011217,,*32
2017-12-01 18:14:35 1512170075.792864: $GPGSA,A,3,1,3,14,16,22,23,25,26,31,32,138,,2.0,0.8,1.5*07
2017-12-01 18:14:36 1512170076.342114: $GPZDA,231437.00,01,12,2017,00,00*60
2017-12-01 18:14:36 1512170076.342281: $GPGGA,231437,3946.9723,N,08404.9860,W,1,11,0.80,295.52,M,-33.325,M,,*70
2017-12-01 18:14:36 1512170076.342348: $GPRMC,231437,A,3946.9723,N,08404.9860,W,0.0000,0.000,011217,,*33
2017-12-01 18:14:36 1512170076.342409: $GPGSA,A,3,1,3,14,16,22,23,25,26,31,32,138,,2.0,0.8,1.5*07
2017-12-01 18:14:37 1512170077.343999: $GPZDA,231438.00,01,12,2017,00,00*6F
2017-12-01 18:14:37 1512170077.344204: $GPGGA,231438,3946.9726,N,08404.9852,W,1,11,0.80,294.83,M,-33.325,M,,*76
2017-12-01 18:14:37 1512170077.344273: $GPRMC,231438,A,3946.9726,N,08404.9852,W,0.0000,0.000,011217,,*38
2017-12-01 18:14:37 1512170077.344335: $GPGSA,A,3,1,3,14,16,22,23,25,26,31,32,138,,2.0,0.8,1.5*07
2017-12-01 18:14:38 1512170078.679149: $GPGSV,3,1,12,01,08,256,38,03,38,303,46,14,58,085,43,16,19,189,43*7B
2017-12-01 18:14:38 1512170078.679355: $GPGSV,3,2,12,22,50,277,47,23,08,298,44,25,21,042,40,26,49,174,46*7A
2017-12-01 18:14:38 1512170078.681995: $GPGSV,3,3,12,31,70,019,46,32,39,105,41,10,01,159,00,138,38,213,45*42
2017-12-01 18:14:38 1512170078.792777: $GPZDA,231439.00,01,12,2017,00,00*6E
2017-12-01 18:14:38 1512170078.792955: $GPGGA,231439,3946.9726,N,08404.9852,W,1,11,0.80,294.83,M,-33.325,M,,*77
2017-12-01 18:14:38 1512170078.793022: $GPRMC,231439,A,3946.9726,N,08404.9852,W,0.0000,0.000,011217,,*39
2017-12-01 18:14:38 1512170078.793082: $GPGSA,A,3,1,3,14,16,22,23,25,26,31,32,138,,2.0,0.8,1.5*07
2017-12-01 18:14:39 1512170079.344574: $GPZDA,231440.00,01,12,2017,00,00*60
2017-12-01 18:14:39 1512170079.344756: $GPGGA,231440,3946.9726,N,08404.9852,W,1,11,0.80,294.83,M,-33.325,M,,*79
2017-12-01 18:14:39 1512170079.344825: $GPRMC,231440,A,3946.9726,N,08404.9852,W,0.0000,0.000,011217,,*37
2017-12-01 18:14:39 1512170079.344885: $GPGSA,A,3,1,3,14,16,22,23,25,26,31,32,138,,2.0,0.8,1.5*07
2017-12-01 18:14:40 1512170080.354154: $GPZDA,231441.00,01,12,2017,00,00*61
2017-12-01 18:14:40 1512170080.354332: $GPGGA,231441,3946.9726,N,08404.9852,W,1,11,0.80,294.83,M,-33.325,M,,*78
2017-12-01 18:14:40 1512170080.354401: $GPRMC,231441,A,3946.9726,N,08404.9852,W,0.0000,0.000,011217,,*36
2017-12-01 18:14:40 1512170080.354463: $GPGSA,A,3,1,3,14,16,22,23,25,26,31,32,138,,2.0,0.8,1.5*07
2017-12-01 18:14:41 1512170081.681180: $GPGSV,3,1,12,01,08,256,38,03,38,303,45,14,58,085,43,16,19,189,44*7F
2017-12-01 18:14:41 1512170081.681412: $GPGSV,3,2,12,22,50,277,46,23,08,298,44,25,21,042,40,26,49,174,46*7B
2017-12-01 18:14:41 1512170081.681489: $GPGSV,3,3,12,31,70,019,47,32,39,105,41,29,09,076,00,138,38,213,46*4E
2017-12-01 18:14:41 1512170081.794527: $GPZDA,231442.00,01,12,2017,00,00*62
2017-12-01 18:14:41 1512170081.794665: $GPGGA,231442,3946.9729,N,08404.9844,W,2,11,0.80,294.15,M,-33.325,M,,*7F
2017-12-01 18:14:41 1512170081.794730: $GPRMC,231442,A,3946.9729,N,08404.9844,W,0.0000,0.000,011217,,*3D
2017-12-01 18:14:41 1512170081.794790: $GPGSA,A,3,1,3,14,16,22,23,25,26,31,32,138,,2.0,0.8,1.5*07
2017-12-01 18:14:42 1512170082.345718: $GPZDA,231443.00,01,12,2017,00,00*63
2017-12-01 18:14:42 1512170082.345895: $GPGGA,231443,3946.9729,N,08404.9844,W,2,11,0.80,294.15,M,-33.325,M,,*7E
2017-12-01 18:14:42 1512170082.345964: $GPRMC,231443,A,3946.9729,N,08404.9844,W,0.0000,0.000,011217,,*3C
2017-12-01 18:14:42 1512170082.346074: $GPGSA,A,3,1,3,14,16,22,23,25,26,31,32,138,,2.0,0.8,1.5*07
2017-12-01 18:14:43 1512170083.347037: $GPZDA,231444.00,01,12,2017,00,00*64
2017-12-01 18:14:43 1512170083.347220: $GPGGA,231444,3946.9729,N,08404.9844,W,2,11,0.80,294.15,M,-33.325,M,,*79
2017-12-01 18:14:43 1512170083.347289: $GPRMC,231444,A,3946.9729,N,08404.9844,W,0.0000,0.000,011217,,*3B
2017-12-01 18:14:43 1512170083.347350: $GPGSA,A,3,1,3,14,16,22,23,25,26,31,32,138,,2.0,0.8,1.5*07
2017-12-01 18:14:44 1512170084.680290: $GPGSV,3,1,12,01,08,256,38,03,38,303,45,14,58,085,43,16,19,189,43*78
2017-12-01 18:14:44 1512170084.680449: $GPGSV,3,2,12,22,50,277,46,23,08,298,44,25,21,042,39,26,49,174,46*75
2017-12-01 18:14:44 1512170084.680516: $GPGSV,3,3,12,31,70,019,46,32,39,105,41,29,09,076,16,138,38,213,46*48
2017-12-01 18:14:44 1512170084.793994: $GPZDA,231445.00,01,12,2017,00,00*65
2017-12-01 18:14:44 1512170084.794163: $GPGGA,231445,3946.9729,N,08404.9844,W,2,12,0.80,294.15,M,-33.325,M,,*7B
2017-12-01 18:14:44 1512170084.794229: $GPRMC,231445,A,3946.9729,N,08404.9844,W,0.0000,0.000,011217,,*3A
2017-12-01 18:14:44 1512170084.794290: $GPGSA,A,3,1,3,14,16,22,23,25,26,31,32,29,138,2.0,0.8,1.5*0C
2017-12-01 18:14:45 1512170085.346054: $GPZDA,231446.00,01,12,2017,00,00*66
2017-12-01 18:14:45 1512170085.346222: $GPGGA,231446,3946.9729,N,08404.9844,W,2,12,0.80,294.15,M,-33.325,M,,*78
2017-12-01 18:14:45 1512170085.346288: $GPRMC,231446,A,3946.9729,N,08404.9844,W,0.0000,0.000,011217,,*39
2017-12-01 18:14:45 1512170085.346349: $GPGSA,A,3,1,3,14,16,22,23,25,26,31,32,29,138,2.0,0.8,1.5*0C
2017-12-01 18:14:46 1512170086.346925: $GPZDA,231447.00,01,12,2017,00,00*67
2017-12-01 18:14:46 1512170086.347094: $GPGGA,231447,3946.9729,N,08404.9844,W,2,12,0.80,294.15,M,-33.325,M,,*79
2017-12-01 18:14:46 1512170086.347161: $GPRMC,231447,A,3946.9729,N,08404.9844,W,0.0000,0.000,011217,,*38
2017-12-01 18:14:46 1512170086.347222: $GPGSA,A,3,1,3,14,16,22,23,25,26,31,32,29,138,2.0,0.8,1.5*0C
2017-12-01 18:14:47 1512170087.682234: $GPGSV,3,1,12,01,08,256,37,03,38,303,45,14,58,085,44,16,19,189,44*77
2017-12-01 18:14:47 1512170087.682415: $GPGSV,3,2,12,22,50,277,47,23,08,298,44,25,21,042,40,26,49,174,46*7A
2017-12-01 18:14:47 1512170087.682481: $GPGSV,3,3,12,31,70,019,47,32,39,105,41,10,01,159,22,138,38,213,46*40
2017-12-01 18:14:47 1512170087.795603: $GPZDA,231448.00,01,12,2017,00,00*68
2017-12-01 18:14:47 1512170087.795766: $GPGGA,231448,3946.9729,N,08404.9844,W,2,12,0.80,294.15,M,-33.325,M,,*76
2017-12-01 18:14:47 1512170087.795834: $GPRMC,231448,A,3946.9729,N,08404.9844,W,0.0000,0.000,011217,,*37
2017-12-01 18:14:47 1512170087.795895: $GPGSA,A,3,1,3,14,16,22,23,25,26,31,32,10,138,2.0,0.8,1.5*06
2017-12-01 18:14:48 1512170088.421418: $GPZDA,231449.00,01,12,2017,00,00*69
2017-12-01 18:14:48 1512170088.421592: $GPGGA,231449,3946.9729,N,08404.9844,W,2,12,0.80,294.15,M,-33.325,M,,*77
2017-12-01 18:14:48 1512170088.421659: $GPRMC,231449,A,3946.9729,N,08404.9844,W,0.0000,0.000,011217,,*36
2017-12-01 18:14:48 1512170088.421720: $GPGSA,A,3,1,3,14,16,22,23,25,26,31,32,10,138,2.0,0.8,1.5*06
