2017-12-01 12:09:58 1512148198.486704: {"class":"VERSION","release":"3.16","rev":"3.16-4","proto_major":3,"proto_minor":11}
2017-12-01 12:09:58 1512148198.487120: {"class":"DEVICES","devices":[{"class":"DEVICE","path":"/dev/ttyUSB0","driver":"SiRF","subtype":"9\u0006GSD4e_4.1.2-P1_RPATCH.05-F-GPS-4R-1510281 11/03/2015 307","activated":"2017-12-01T17:09:58.226Z","flags":1,"native":1,"bps":4800,"parity":"N","stopbits":1,"cycle":1.00}]}
2017-12-01 12:09:58 1512148198.487247: {"class":"WATCH","enable":true,"json":false,"nmea":true,"raw":0,"scaled":false,"timing":false,"split24":false,"pps":false}
2017-12-01 12:09:58 1512148198.675264: $GPGSV,3,1,12,10,21,280,38,13,32,046,46,15,64,052,44,18,52,297,45*7A
2017-12-01 12:09:58 1512148198.675450: $GPGSV,3,2,12,20,54,067,45,21,77,283,44,24,30,141,44,27,15,316,42*70
2017-12-01 12:09:58 1512148198.675534: $GPGSV,3,3,12,29,13,190,27,05,06,085,22,04,03,135,00,138,38,213,46*43
2017-12-01 12:09:58 1512148198.788940: $GPZDA,170959.00,01,12,2017,00,00*63
2017-12-01 12:09:58 1512148198.789110: $GPGGA,170959,3946.9579,N,08404.9851,W,2,11,0.80,308.80,M,-33.324,M,,*74
2017-12-01 12:09:58 1512148198.789196: $GPRMC,170959,A,3946.9579,N,08404.9851,W,0.0000,0.000,011217,,*3F
2017-12-01 12:09:58 1512148198.789263: $GPGSA,A,3,10,13,15,18,20,21,24,27,29,5,138,,2.0,0.8,1.5*34
2017-12-01 12:09:59 1512148199.334936: $GPZDA,171000.00,01,12,2017,00,00*67
2017-12-01 12:09:59 1512148199.335120: $GPGGA,171000,3946.9579,N,08404.9851,W,2,11,0.80,308.80,M,-33.324,M,,*70
2017-12-01 12:09:59 1512148199.335194: $GPRMC,171000,A,3946.9579,N,08404.9851,W,0.0000,0.000,011217,,*3B
2017-12-01 12:09:59 1512148199.335286: $GPGSA,A,3,10,13,15,18,20,21,24,27,29,5,138,,2.0,0.8,1.5*34
2017-12-01 12:10:00 1512148200.335809: $GPZDA,171001.00,01,12,2017,00,00*66
2017-12-01 12:10:00 1512148200.335981: $GPGGA,171001,3946.9579,N,08404.9851,W,2,11,0.80,308.80,M,-33.324,M,,*71
2017-12-01 12:10:00 1512148200.336070: $GPRMC,171001,A,3946.9579,N,08404.9851,W,0.0000,0.000,011217,,*3A
2017-12-01 12:10:00 1512148200.336139: $GPGSA,A,3,10,13,15,18,20,21,24,27,29,5,138,,2.0,0.8,1.5*34
2017-12-01 12:10:01 1512148201.669394: $GPGSV,3,1,12,10,21,280,37,13,32,046,46,15,64,052,44,18,52,297,45*75
2017-12-01 12:10:01 1512148201.669558: $GPGSV,3,2,12,20,54,067,45,21,77,283,44,24,30,141,44,27,15,316,41*73
2017-12-01 12:10:01 1512148201.669626: $GPGSV,3,3,12,29,13,190,27,05,06,085,23,04,03,135,00,138,38,213,46*42
2017-12-01 12:10:01 1512148201.782842: $GPZDA,171002.00,01,12,2017,00,00*65
2017-12-01 12:10:01 1512148201.783019: $GPGGA,171002,3946.9579,N,08404.9851,W,2,11,0.80,308.80,M,-33.324,M,,*72
2017-12-01 12:10:01 1512148201.783086: $GPRMC,171002,A,3946.9579,N,08404.9851,W,0.0000,0.000,011217,,*39
2017-12-01 12:10:01 1512148201.783170: $GPGSA,A,3,10,13,15,18,20,21,24,27,29,5,138,,2.0,0.8,1.5*34
2017-12-01 12:10:02 1512148202.332413: $GPZDA,171003.00,01,12,2017,00,00*64
2017-12-01 12:10:02 1512148202.332590: $GPGGA,171003,3946.9579,N,08404.9851,W,2,11,0.80,308.80,M,-33.324,M,,*73
2017-12-01 12:10:02 1512148202.332656: $GPRMC,171003,A,3946.9579,N,08404.9851,W,0.0000,0.000,011217,,*38
2017-12-01 12:10:02 1512148202.332717: $GPGSA,A,3,10,13,15,18,20,21,24,27,29,5,138,,2.0,0.8,1.5*34
2017-12-01 12:10:03 1512148203.336982: $GPZDA,171004.00,01,12,2017,00,00*63
2017-12-01 12:10:03 1512148203.337174: $GPGGA,171004,3946.9579,N,08404.9851,W,2,11,0.80,308.80,M,-33.324,M,,*74
2017-12-01 12:10:03 1512148203.337259: $GPRMC,171004,A,3946.9579,N,08404.9851,W,0.0000,0.000,011217,,*3F
2017-12-01 12:10:03 1512148203.337322: $GPGSA,A,3,10,13,15,18,20,21,24,27,29,5,138,,2.0,0.8,1.5*34
2017-12-01 12:10:04 1512148204.672671: $GPGSV,3,1,12,10,21,280,37,13,32,046,46,15,64,052,44,18,52,297,46*76
2017-12-01 12:10:04 1512148204.676712: $GPGSV,3,2,12,20,54,067,45,21,77,283,44,24,30,141,44,27,15,316,40*72
2017-12-01 12:10:04 1512148204.676816: $GPGSV,3,3,12,29,13,190,23,05,06,085,23,04,03,135,00,138,38,213,46*46
2017-12-01 12:10:04 1512148204.787398: $GPZDA,171005.00,01,12,2017,00,00*62
2017-12-01 12:10:04 1512148204.787569: $GPGGA,171005,3946.9579,N,08404.9851,W,2,11,0.80,308.80,M,-33.324,M,,*75
2017-12-01 12:10:04 1512148204.787684: $GPRMC,171005,A,3946.9579,N,08404.9851,W,0.0000,0.000,011217,,*3E
2017-12-01 12:10:04 1512148204.787748: $GPGSA,A,3,10,13,15,18,20,21,24,27,29,5,138,,2.0,0.8,1.5*34
2017-12-01 12:10:05 1512148205.411867: $GPZDA,171006.00,01,12,2017,00,00*61
2017-12-01 12:10:05 1512148205.412042: $GPGGA,171006,3946.9579,N,08404.9851,W,2,11,0.80,308.80,M,-33.324,M,,*76
2017-12-01 12:10:05 1512148205.412170: $GPRMC,171006,A,3946.9579,N,08404.9851,W,0.0000,0.000,011217,,*3D
2017-12-01 12:10:05 1512148205.412266: $GPGSA,A,3,10,13,15,18,20,21,24,27,29,5,138,,2.0,0.8,1.5*34
2017-12-01 12:10:06 1512148206.332393: $GPZDA,171007.00,01,12,2017,00,00*60
2017-12-01 12:10:06 1512148206.332562: $GPGGA,171007,3946.9579,N,08404.9851,W,2,11,0.80,308.80,M,-33.324,M,,*77
2017-12-01 12:10:06 1512148206.332630: $GPRMC,171007,A,3946.9579,N,08404.9851,W,0.0000,0.000,011217,,*3C
2017-12-01 12:10:06 1512148206.332692: $GPGSA,A,3,10,13,15,18,20,21,24,27,29,5,138,,2.0,0.8,1.5*34
2017-12-01 12:10:07 1512148207.674394: $GPGSV,3,1,12,10,21,280,37,13,32,046,46,15,64,052,44,18,52,297,46*76
2017-12-01 12:10:07 1512148207.674572: $GPGSV,3,2,12,20,54,067,45,21,77,283,44,24,30,141,44,27,15,316,40*72
2017-12-01 12:10:07 1512148207.674638: $GPGSV,3,3,12,29,13,190,24,05,06,085,23,04,03,135,00,138,38,213,46*41
2017-12-01 12:10:07 1512148207.788210: $GPZDA,171008.00,01,12,2017,00,00*6F
2017-12-01 12:10:07 1512148207.788396: $GPGGA,171008,3946.9579,N,08404.9851,W,2,11,0.80,308.80,M,-33.324,M,,*78
2017-12-01 12:10:07 1512148207.788463: $GPRMC,171008,A,3946.9579,N,08404.9851,W,0.0000,0.000,011217,,*33
2017-12-01 12:10:07 1512148207.788525: $GPGSA,A,3,10,13,15,18,20,21,24,27,29,5,138,,2.0,0.8,1.5*34
2017-12-01 12:10:08 1512148208.336507: $GPZDA,171009.00,01,12,2017,00,00*6E
2017-12-01 12:10:08 1512148208.336676: $GPGGA,171009,3946.9579,N,08404.9851,W,2,11,0.80,308.80,M,-33.324,M,,*79
2017-12-01 12:10:08 1512148208.336742: $GPRMC,171009,A,3946.9579,N,08404.9851,W,0.0000,0.000,011217,,*32
2017-12-01 12:10:08 1512148208.336803: $GPGSA,A,3,10,13,15,18,20,21,24,27,29,5,138,,2.0,0.8,1.5*34
