2017-12-29 10:59:54 1514563194.175951: {"class":"VERSION","release":"3.16","rev":"3.16-4","proto_major":3,"proto_minor":11}
2017-12-29 10:59:54 1514563194.176296: {"class":"DEVICES","devices":[{"class":"DEVICE","path":"/dev/ttyUSB0","driver":"SiRF","subtype":"9\u0006GSD4e_4.1.2-P1_RPATCH.05-F-GPS-4R-1510281 11/03/2015 307","activated":"2017-12-29T15:59:53.497Z","flags":1,"native":1,"bps":4800,"parity":"N","stopbits":1,"cycle":1.00}]}
2017-12-29 10:59:54 1514563194.176408: {"class":"WATCH","enable":true,"json":false,"nmea":true,"raw":0,"scaled":false,"timing":false,"split24":false,"pps":false}
2017-12-29 10:59:54 1514563194.355172: $GPZDA,155955.00,29,12,2017,00,00*62
2017-12-29 10:59:54 1514563194.355338: $GPGGA,155955,3946.9582,N,08404.9855,W,2,11,1.00,290.90,M,-33.324,M,,*77
2017-12-29 10:59:54 1514563194.355404: $GPRMC,155955,A,3946.9582,N,08404.9855,W,0.0000,0.000,291217,,*3E
2017-12-29 10:59:54 1514563194.355464: $GPGSA,A,3,8,10,13,15,18,20,21,24,27,32,138,,1.7,1.0,1.3*38
2017-12-29 10:59:55 1514563195.692847: $GPGSV,3,1,11,08,03,328,26,10,36,295,39,13,14,046,38,15,44,051,50*76
2017-12-29 10:59:55 1514563195.693032: $GPGSV,3,2,11,18,66,324,44,20,40,088,50,21,71,199,47,24,46,121,49*7B
2017-12-29 10:59:55 1514563195.693100: $GPGSV,3,3,11,27,19,297,34,32,15,234,28,138,38,213,44*74
2017-12-29 10:59:55 1514563195.806177: $GPZDA,155956.00,29,12,2017,00,00*61
2017-12-29 10:59:55 1514563195.806310: $GPGGA,155956,3946.9582,N,08404.9855,W,2,11,1.00,290.90,M,-33.324,M,,*74
2017-12-29 10:59:55 1514563195.806378: $GPRMC,155956,A,3946.9582,N,08404.9855,W,0.0000,0.000,291217,,*3D
2017-12-29 10:59:55 1514563195.806440: $GPGSA,A,3,8,10,13,15,18,20,21,24,27,32,138,,1.7,1.0,1.3*38
2017-12-29 10:59:56 1514563196.354773: $GPZDA,155957.00,29,12,2017,00,00*60
2017-12-29 10:59:56 1514563196.354939: $GPGGA,155957,3946.9582,N,08404.9855,W,2,11,1.00,290.90,M,-33.324,M,,*75
2017-12-29 10:59:56 1514563196.355027: $GPRMC,155957,A,3946.9582,N,08404.9855,W,0.0000,0.000,291217,,*3C
2017-12-29 10:59:56 1514563196.355090: $GPGSA,A,3,8,10,13,15,18,20,21,24,27,32,138,,1.7,1.0,1.3*38
2017-12-29 10:59:57 1514563197.350450: $GPZDA,155958.00,29,12,2017,00,00*6F
2017-12-29 10:59:57 1514563197.350622: $GPGGA,155958,3946.9582,N,08404.9855,W,2,11,1.00,290.90,M,-33.324,M,,*7A
2017-12-29 10:59:57 1514563197.350691: $GPRMC,155958,A,3946.9582,N,08404.9855,W,0.0000,0.000,291217,,*33
2017-12-29 10:59:57 1514563197.350755: $GPGSA,A,3,8,10,13,15,18,20,21,24,27,32,138,,1.7,1.0,1.3*38
2017-12-29 10:59:58 1514563198.691259: $GPGSV,3,1,11,08,03,328,26,10,36,295,38,13,14,046,38,15,44,051,50*77
2017-12-29 10:59:58 1514563198.691428: $GPGSV,3,2,11,18,66,324,44,20,40,088,50,21,71,199,47,24,46,121,50*73
2017-12-29 10:59:58 1514563198.691497: $GPGSV,3,3,11,27,19,297,34,32,15,234,33,138,38,213,44*7E
2017-12-29 10:59:58 1514563198.804508: $GPZDA,155959.00,29,12,2017,00,00*6E
2017-12-29 10:59:58 1514563198.804639: $GPGGA,155959,3946.9582,N,08404.9855,W,2,11,1.00,290.90,M,-33.324,M,,*7B
2017-12-29 10:59:58 1514563198.804707: $GPRMC,155959,A,3946.9582,N,08404.9855,W,0.0000,0.000,291217,,*32
2017-12-29 10:59:58 1514563198.804770: $GPGSA,A,3,8,10,13,15,18,20,21,24,27,32,138,,1.7,1.0,1.3*38
2017-12-29 10:59:59 1514563199.355429: $GPZDA,160000.00,29,12,2017,00,00*6D
2017-12-29 10:59:59 1514563199.355599: $GPGGA,160000,3946.9582,N,08404.9855,W,2,11,1.00,290.90,M,-33.324,M,,*78
2017-12-29 10:59:59 1514563199.355667: $GPRMC,160000,A,3946.9582,N,08404.9855,W,0.0000,0.000,291217,,*31
2017-12-29 10:59:59 1514563199.355747: $GPGSA,A,3,8,10,13,15,18,20,21,24,27,32,138,,1.7,1.0,1.3*38
2017-12-29 11:00:00 1514563200.354649: $GPZDA,160001.00,29,12,2017,00,00*6C
2017-12-29 11:00:00 1514563200.354829: $GPGGA,160001,3946.9582,N,08404.9855,W,2,11,1.00,290.90,M,-33.324,M,,*79
2017-12-29 11:00:00 1514563200.354921: $GPRMC,160001,A,3946.9582,N,08404.9855,W,0.0000,0.000,291217,,*30
2017-12-29 11:00:00 1514563200.354987: $GPGSA,A,3,8,10,13,15,18,20,21,24,27,32,138,,1.7,1.0,1.3*38
2017-12-29 11:00:01 1514563201.692835: $GPGSV,3,1,11,08,03,328,26,10,36,295,38,13,14,046,38,15,44,051,50*77
2017-12-29 11:00:01 1514563201.693076: $GPGSV,3,2,11,18,66,324,44,20,40,088,50,21,71,199,47,24,46,121,49*7B
2017-12-29 11:00:01 1514563201.693144: $GPGSV,3,3,11,27,19,297,33,32,15,234,34,138,38,213,46*7C
2017-12-29 11:00:01 1514563201.806283: $GPZDA,160002.00,29,12,2017,00,00*6F
2017-12-29 11:00:01 1514563201.806431: $GPGGA,160002,3946.9582,N,08404.9855,W,2,11,1.00,290.90,M,-33.324,M,,*7A
2017-12-29 11:00:01 1514563201.806498: $GPRMC,160002,A,3946.9582,N,08404.9855,W,0.0000,0.000,291217,,*33
2017-12-29 11:00:01 1514563201.806580: $GPGSA,A,3,8,10,13,15,18,20,21,24,27,32,138,,1.7,1.0,1.3*38
2017-12-29 11:00:02 1514563202.355865: $GPZDA,160003.00,29,12,2017,00,00*6E
2017-12-29 11:00:02 1514563202.356074: $GPGGA,160003,3946.9582,N,08404.9855,W,2,11,1.00,290.90,M,-33.324,M,,*7B
2017-12-29 11:00:02 1514563202.356141: $GPRMC,160003,A,3946.9582,N,08404.9855,W,0.0000,0.000,291217,,*32
2017-12-29 11:00:02 1514563202.356202: $GPGSA,A,3,8,10,13,15,18,20,21,24,27,32,138,,1.7,1.0,1.3*38
2017-12-29 11:00:03 1514563203.350473: $GPZDA,160004.00,29,12,2017,00,00*69
2017-12-29 11:00:03 1514563203.350641: $GPGGA,160004,3946.9582,N,08404.9855,W,2,11,1.00,290.90,M,-33.324,M,,*7C
2017-12-29 11:00:03 1514563203.350708: $GPRMC,160004,A,3946.9582,N,08404.9855,W,0.0000,0.000,291217,,*35
2017-12-29 11:00:03 1514563203.350769: $GPGSA,A,3,8,10,13,15,18,20,21,24,27,32,138,,1.7,1.0,1.3*38
2017-12-29 11:00:04 1514563204.684945: $GPGSV,3,1,11,08,03,328,25,10,36,295,38,13,14,046,38,15,44,051,50*74
2017-12-29 11:00:04 1514563204.685118: $GPGSV,3,2,11,18,66,324,44,20,40,088,50,21,71,199,47,24,46,121,49*7B
2017-12-29 11:00:04 1514563204.685185: $GPGSV,3,3,11,27,19,297,33,32,15,234,33,138,38,213,45*78
2017-12-29 11:00:04 1514563204.798338: $GPZDA,160005.00,29,12,2017,00,00*68
2017-12-29 11:00:04 1514563204.798458: $GPGGA,160005,3946.9582,N,08404.9855,W,2,11,1.00,290.90,M,-33.324,M,,*7D
2017-12-29 11:00:04 1514563204.798523: $GPRMC,160005,A,3946.9582,N,08404.9855,W,0.0000,0.000,291217,,*34
2017-12-29 11:00:04 1514563204.798583: $GPGSA,A,3,8,10,13,15,18,20,21,24,27,32,138,,1.7,1.0,1.3*38
2017-12-29 11:00:05 1514563205.424965: $GPZDA,160006.00,29,12,2017,00,00*6B
2017-12-29 11:00:05 1514563205.425140: $GPGGA,160006,3946.9582,N,08404.9855,W,2,11,1.00,290.90,M,-33.324,M,,*7E
2017-12-29 11:00:05 1514563205.425207: $GPRMC,160006,A,3946.9582,N,08404.9855,W,0.0000,0.000,291217,,*37
2017-12-29 11:00:05 1514563205.425268: $GPGSA,A,3,8,10,13,15,18,20,21,24,27,32,138,,1.7,1.0,1.3*38
2017-12-29 11:00:06 1514563206.355842: $GPZDA,160007.00,29,12,2017,00,00*6A
2017-12-29 11:00:06 1514563206.356012: $GPGGA,160007,3946.9582,N,08404.9855,W,2,11,1.00,290.90,M,-33.324,M,,*7F
2017-12-29 11:00:06 1514563206.356078: $GPRMC,160007,A,3946.9582,N,08404.9855,W,0.0000,0.000,291217,,*36
2017-12-29 11:00:06 1514563206.356139: $GPGSA,A,3,8,10,13,15,18,20,21,24,27,32,138,,1.7,1.0,1.3*38
2017-12-29 11:00:07 1514563207.692812: $GPGSV,3,1,11,08,03,328,25,10,36,295,39,13,14,046,38,15,44,051,50*75
2017-12-29 11:00:07 1514563207.692994: $GPGSV,3,2,11,18,66,324,44,20,40,088,50,21,71,199,47,24,46,121,50*73
2017-12-29 11:00:07 1514563207.693060: $GPGSV,3,3,11,27,19,297,33,32,15,234,33,138,38,213,44*79
2017-12-29 11:00:07 1514563207.806133: $GPZDA,160008.00,29,12,2017,00,00*65
2017-12-29 11:00:07 1514563207.806266: $GPGGA,160008,3946.9582,N,08404.9855,W,2,11,1.00,290.90,M,-33.324,M,,*70
2017-12-29 11:00:07 1514563207.806331: $GPRMC,160008,A,3946.9582,N,08404.9855,W,0.0000,0.000,291217,,*39
2017-12-29 11:00:07 1514563207.806391: $GPGSA,A,3,8,10,13,15,18,20,21,24,27,32,138,,1.7,1.0,1.3*38
2017-12-29 11:00:08 1514563208.354544: $GPZDA,160009.00,29,12,2017,00,00*64
2017-12-29 11:00:08 1514563208.354719: $GPGGA,160009,3946.9582,N,08404.9855,W,2,11,1.00,290.90,M,-33.324,M,,*71
2017-12-29 11:00:08 1514563208.354787: $GPRMC,160009,A,3946.9582,N,08404.9855,W,0.0000,0.000,291217,,*38
2017-12-29 11:00:08 1514563208.354848: $GPGSA,A,3,8,10,13,15,18,20,21,24,27,32,138,,1.7,1.0,1.3*38
2017-12-29 11:00:09 1514563209.355398: $GPZDA,160010.00,29,12,2017,00,00*6C
2017-12-29 11:00:09 1514563209.355608: $GPGGA,160010,3946.9582,N,08404.9855,W,2,11,1.00,290.90,M,-33.324,M,,*79
2017-12-29 11:00:09 1514563209.355678: $GPRMC,160010,A,3946.9582,N,08404.9855,W,0.0000,0.000,291217,,*30
2017-12-29 11:00:09 1514563209.355756: $GPGSA,A,3,8,10,13,15,18,20,21,24,27,32,138,,1.7,1.0,1.3*38
2017-12-29 11:00:10 1514563210.690656: $GPGSV,3,1,11,08,03,328,26,10,36,295,40,13,14,046,38,15,44,051,50*78
2017-12-29 11:00:10 1514563210.690820: $GPGSV,3,2,11,18,66,324,45,20,40,088,50,21,71,199,47,24,46,121,50*72
2017-12-29 11:00:10 1514563210.690902: $GPGSV,3,3,11,27,19,297,32,32,15,234,33,138,38,213,44*78
2017-12-29 11:00:10 1514563210.804012: $GPZDA,160011.00,29,12,2017,00,00*6D
2017-12-29 11:00:10 1514563210.804140: $GPGGA,160011,3946.9582,N,08404.9855,W,2,11,1.00,290.90,M,-33.324,M,,*78
2017-12-29 11:00:10 1514563210.804206: $GPRMC,160011,A,3946.9582,N,08404.9855,W,0.0000,0.000,291217,,*31
2017-12-29 11:00:10 1514563210.804267: $GPGSA,A,3,8,10,13,15,18,20,21,24,27,32,138,,1.7,1.0,1.3*38
2017-12-29 11:00:11 1514563211.354935: $GPZDA,160012.00,29,12,2017,00,00*6E
2017-12-29 11:00:11 1514563211.355107: $GPGGA,160012,3946.9582,N,08404.9855,W,2,11,1.00,290.90,M,-33.324,M,,*7B
2017-12-29 11:00:11 1514563211.355173: $GPRMC,160012,A,3946.9582,N,08404.9855,W,0.0000,0.000,291217,,*32
2017-12-29 11:00:11 1514563211.355233: $GPGSA,A,3,8,10,13,15,18,20,21,24,27,32,138,,1.7,1.0,1.3*38
2017-12-29 11:00:12 1514563212.354564: $GPZDA,160013.00,29,12,2017,00,00*6F
2017-12-29 11:00:12 1514563212.354732: $GPGGA,160013,3946.9582,N,08404.9855,W,2,11,1.00,290.90,M,-33.324,M,,*7A
2017-12-29 11:00:12 1514563212.354798: $GPRMC,160013,A,3946.9582,N,08404.9855,W,0.0000,0.000,291217,,*33
2017-12-29 11:00:12 1514563212.354859: $GPGSA,A,3,8,10,13,15,18,20,21,24,27,32,138,,1.7,1.0,1.3*38
2017-12-29 11:00:13 1514563213.694062: $GPGSV,3,1,11,08,03,328,26,10,36,295,40,13,14,046,38,15,44,051,50*78
2017-12-29 11:00:13 1514563213.694220: $GPGSV,3,2,11,18,66,324,45,20,40,088,49,21,71,199,47,24,46,121,50*7A
2017-12-29 11:00:13 1514563213.694284: $GPGSV,3,3,11,27,19,297,31,32,15,234,33,138,38,213,44*7B
2017-12-29 11:00:13 1514563213.807380: $GPZDA,160014.00,29,12,2017,00,00*68
2017-12-29 11:00:13 1514563213.807524: $GPGGA,160014,3946.9582,N,08404.9855,W,2,11,1.00,290.90,M,-33.324,M,,*7D
2017-12-29 11:00:13 1514563213.807589: $GPRMC,160014,A,3946.9582,N,08404.9855,W,0.0000,0.000,291217,,*34
2017-12-29 11:00:13 1514563213.807650: $GPGSA,A,3,8,10,13,15,18,20,21,24,27,32,138,,1.7,1.0,1.3*38
