2017-11-15 19:27:25 1510792045.406753: {"class":"VERSION","release":"3.17","rev":"3.17","proto_major":3,"proto_minor":12}
2017-11-15 19:27:25 1510792045.407208: {"class":"DEVICES","devices":[{"class":"DEVICE","path":"/dev/ttyUSB0","driver":"SiRF","subtype":"9\u0006GSD4e_4.1.2-P1_RPATCH.05-F-GPS-4R-1510281 11/03/2015 307","activated":"2017-11-16T00:27:25.384Z","flags":1,"native":1,"bps":4800,"parity":"N","stopbits":1,"cycle":1.00}]}
2017-11-15 19:27:25 1510792045.407324: {"class":"WATCH","enable":true,"json":false,"nmea":true,"raw":0,"scaled":false,"timing":false,"split24":false,"pps":false}
2017-11-15 19:27:26 1510792046.346201: $GPZDA,002725.00,16,11,2017,00,00*67
2017-11-15 19:27:26 1510792046.346375: $GPGGA,002725,3946.9604,N,08404.9462,W,1,07,1.60,270.43,M,-33.324,M,,*7A
2017-11-15 19:27:26 1510792046.346436: $GPRMC,002725,A,3946.9604,N,08404.9462,W,0.4207,39.347,161117,,*05
2017-11-15 19:27:26 1510792046.346492: $GPGSA,A,3,32,31,16,26,1,22,23,,,,,,3.4,1.6,2.9*09
2017-11-15 19:27:27 1510792047.682003: $GPGSV,3,1,11,32,37,106,22,31,68,022,22,16,21,190,17,26,52,172,26*7C
2017-11-15 19:27:27 1510792047.682171: $GPGSV,3,2,11,01,06,253,04,29,10,072,04,22,50,273,16,14,56,091,13*7C
2017-11-15 19:27:27 1510792047.682231: $GPGSV,3,3,11,23,10,300,09,03,39,300,00,25,18,040,00*43
2017-11-15 19:27:27 1510792047.795572: $GPZDA,002726.00,16,11,2017,00,00*64
2017-11-15 19:27:27 1510792047.795727: $GPGGA,002726,3946.9604,N,08404.9462,W,1,06,1.60,270.43,M,-33.324,M,,*78
2017-11-15 19:27:27 1510792047.795786: $GPRMC,002726,A,3946.9604,N,08404.9462,W,0.5951,58.684,161117,,*02
2017-11-15 19:27:27 1510792047.795840: $GPGSA,A,3,32,31,16,26,22,23,,,,,,,3.4,1.6,2.9*38
2017-11-15 19:27:28 1510792048.346217: $GPZDA,002727.00,16,11,2017,00,00*65
2017-11-15 19:27:28 1510792048.346385: $GPGGA,002727,3946.9604,N,08404.9462,W,1,06,1.60,270.43,M,-33.324,M,,*79
2017-11-15 19:27:28 1510792048.346447: $GPRMC,002727,A,3946.9604,N,08404.9462,W,0.2422,93.794,161117,,*0A
2017-11-15 19:27:28 1510792048.346503: $GPGSA,A,3,32,31,16,26,22,23,,,,,,,3.4,1.6,2.9*38
2017-11-15 19:27:29 1510792049.329832: $GPZDA,002728.00,16,11,2017,00,00*6A
2017-11-15 19:27:29 1510792049.329989: $GPGGA,002728,3946.9604,N,08404.9462,W,1,06,1.60,270.43,M,-33.324,M,,*76
2017-11-15 19:27:29 1510792049.330049: $GPRMC,002728,A,3946.9604,N,08404.9462,W,0.4844,93.794,161117,,*0F
2017-11-15 19:27:29 1510792049.330105: $GPGSA,A,3,32,31,16,26,22,23,,,,,,,3.4,1.6,2.9*38
2017-11-15 19:27:30 1510792050.669125: $GPGSV,3,1,12,32,37,106,22,31,68,022,22,16,21,190,17,26,52,172,25*7C
2017-11-15 19:27:30 1510792050.669291: $GPGSV,3,2,12,01,06,253,04,29,10,072,08,22,50,273,15,14,56,091,00*72
2017-11-15 19:27:30 1510792050.669350: $GPGSV,3,3,12,23,10,300,09,03,39,300,00,25,18,040,00,138,38,213,00*41
2017-11-15 19:27:30 1510792050.782765: $GPZDA,002729.00,16,11,2017,00,00*6B
2017-11-15 19:27:30 1510792050.782927: $GPGGA,002729,3946.9604,N,08404.9462,W,1,07,1.60,270.43,M,-33.324,M,,*76
2017-11-15 19:27:30 1510792050.782987: $GPRMC,002729,A,3946.9604,N,08404.9462,W,0.0000,0.000,161117,,*32
2017-11-15 19:27:30 1510792050.783043: $GPGSA,A,3,32,31,16,26,29,22,23,,,,,,3.4,1.6,2.9*33
2017-11-15 19:27:31 1510792051.409359: $GPZDA,002730.00,16,11,2017,00,00*63
2017-11-15 19:27:31 1510792051.409518: $GPGGA,002730,3946.9604,N,08404.9462,W,1,07,1.40,270.43,M,-33.324,M,,*7C
2017-11-15 19:27:31 1510792051.409579: $GPRMC,002730,A,3946.9604,N,08404.9462,W,0.2422,93.794,161117,,*0C
2017-11-15 19:27:31 1510792051.409634: $GPGSA,A,3,32,31,16,26,29,22,23,,,,,,3.4,1.4,2.9*31
2017-11-15 19:27:32 1510792052.328990: $GPZDA,002731.00,16,11,2017,00,00*62
2017-11-15 19:27:32 1510792052.329149: $GPGGA,002731,3946.9596,N,08404.9462,W,1,07,1.60,270.56,M,-33.324,M,,*73
2017-11-15 19:27:32 1510792052.329210: $GPRMC,002731,A,3946.9596,N,08404.9462,W,0.3423,184.197,161117,,*37
2017-11-15 19:27:32 1510792052.329266: $GPGSA,A,3,32,31,16,26,29,22,23,,,,,,3.4,1.6,2.9*33
2017-11-15 19:27:33 1510792053.665750: $GPGSV,3,1,12,32,37,106,23,31,68,022,22,16,21,190,06,26,52,172,25*7D
2017-11-15 19:27:33 1510792053.665940: $GPGSV,3,2,12,01,06,253,06,29,10,072,10,22,50,273,06,14,56,091,00*7B
2017-11-15 19:27:33 1510792053.666050: $GPGSV,3,3,12,23,10,300,07,03,39,300,00,25,18,040,00,138,38,213,00*4F
2017-11-15 19:27:33 1510792053.779062: $GPZDA,002732.00,16,11,2017,00,00*61
2017-11-15 19:27:33 1510792053.779200: $GPGGA,002732,3946.9596,N,08404.9462,W,1,08,3.20,270.56,M,-33.324,M,,*79
2017-11-15 19:27:33 1510792053.779260: $GPRMC,002732,A,3946.9596,N,08404.9462,W,0.7238,140.710,161117,,*3D
2017-11-15 19:27:33 1510792053.779316: $GPGSA,A,3,32,31,16,26,1,29,22,23,,,,,3.4,3.2,2.9*04
2017-11-15 19:27:34 1510792054.328964: $GPZDA,002733.00,16,11,2017,00,00*60
2017-11-15 19:27:34 1510792054.329118: $GPGGA,002733,3946.9596,N,08404.9462,W,1,08,3.20,270.56,M,-33.324,M,,*78
2017-11-15 19:27:34 1510792054.329179: $GPRMC,002733,A,3946.9596,N,08404.9462,W,0.5306,114.352,161117,,*31
2017-11-15 19:27:34 1510792054.329234: $GPGSA,A,3,32,31,16,26,1,29,22,23,,,,,3.4,3.2,2.9*04
2017-11-15 19:27:35 1510792055.329573: $GPZDA,002734.00,16,11,2017,00,00*67
2017-11-15 19:27:35 1510792055.329742: $GPGGA,002734,3946.9593,N,08404.9463,W,1,08,3.20,271.32,M,-33.324,M,,*78
2017-11-15 19:27:35 1510792055.329804: $GPRMC,002734,A,3946.9593,N,08404.9463,W,0.3423,184.197,161117,,*36
2017-11-15 19:27:35 1510792055.329861: $GPGSA,A,3,32,31,16,26,1,29,22,23,,,,,3.4,3.2,2.9*04
