2017-11-15 19:18:14 1510791494.483493: {"class":"VERSION","release":"3.17","rev":"3.17","proto_major":3,"proto_minor":12}
2017-11-15 19:18:14 1510791494.484004: {"class":"DEVICES","devices":[{"class":"DEVICE","path":"/dev/ttyUSB0","driver":"SiRF","subtype":"9\u0006GSD4e_4.1.2-P1_RPATCH.05-F-GPS-4R-1510281 11/03/2015 307","activated":"2017-11-16T00:18:14.471Z","flags":1,"native":1,"bps":4800,"parity":"N","stopbits":1,"cycle":1.00}]}
2017-11-15 19:18:14 1510791494.484117: {"class":"WATCH","enable":true,"json":false,"nmea":true,"raw":0,"scaled":false,"timing":false,"split24":false,"pps":false}
2017-11-15 19:18:15 1510791495.665038: $GPGSV,3,1,12,32,41,102,25,14,59,084,20,22,49,280,15,26,46,175,23*78
2017-11-15 19:18:15 1510791495.665208: $GPGSV,3,2,12,31,72,013,16,29,09,076,16,03,36,304,20,25,22,042,00*7F
2017-11-15 19:18:15 1510791495.665267: $GPGSV,3,3,12,16,16,190,00,01,09,256,00,23,07,298,00,120,07,103,00*48
2017-11-15 19:18:15 1510791495.778650: $GPZDA,001814.00,16,11,2017,00,00*69
2017-11-15 19:18:15 1510791495.778816: $GPGGA,001814,3946.9547,N,08404.9500,W,1,07,1.20,267.46,M,-33.324,M,,*72
2017-11-15 19:18:15 1510791495.778877: $GPRMC,001814,A,3946.9547,N,08404.9500,W,0.5230,256.444,161117,,*30
2017-11-15 19:18:15 1510791495.778932: $GPGSA,A,3,32,14,22,26,31,29,3,,,,,,3.4,1.2,2.9*07
2017-11-15 19:18:16 1510791496.405291: $GPZDA,001815.00,16,11,2017,00,00*68
2017-11-15 19:18:16 1510791496.405450: $GPGGA,001815,3946.9547,N,08404.9500,W,1,07,1.20,267.46,M,-33.324,M,,*73
2017-11-15 19:18:16 1510791496.405511: $GPRMC,001815,A,3946.9547,N,08404.9500,W,0.7278,203.636,161117,,*38
2017-11-15 19:18:16 1510791496.405566: $GPGSA,A,3,32,14,22,26,31,29,3,,,,,,3.4,1.2,2.9*07
2017-11-15 19:18:17 1510791497.331118: $GPZDA,001816.00,16,11,2017,00,00*6B
2017-11-15 19:18:17 1510791497.331280: $GPGGA,001816,3946.9543,N,08404.9507,W,1,07,1.20,266.74,M,-33.324,M,,*73
2017-11-15 19:18:17 1510791497.331339: $GPRMC,001816,A,3946.9543,N,08404.9507,W,0.8414,219.347,161117,,*33
2017-11-15 19:18:17 1510791497.331395: $GPGSA,A,3,32,14,22,26,31,29,3,,,,,,3.4,1.2,2.9*07
2017-11-15 19:18:18 1510791498.666653: $GPGSV,3,1,12,32,41,102,25,14,59,084,20,22,49,280,15,26,46,175,23*78
2017-11-15 19:18:18 1510791498.666892: $GPGSV,3,2,12,31,72,013,15,29,09,076,16,03,36,304,20,16,16,190,04*71
2017-11-15 19:18:18 1510791498.666954: $GPGSV,3,3,12,25,22,042,00,01,09,256,00,23,07,298,00,120,07,103,00*41
2017-11-15 19:18:18 1510791498.780248: $GPZDA,001817.00,16,11,2017,00,00*6A
2017-11-15 19:18:18 1510791498.780411: $GPGGA,001817,3946.9540,N,08404.9508,W,1,07,1.20,267.50,M,-33.324,M,,*79
2017-11-15 19:18:18 1510791498.780471: $GPRMC,001817,A,3946.9540,N,08404.9508,W,1.0018,230.691,161117,,*3A
2017-11-15 19:18:18 1510791498.780527: $GPGSA,A,3,32,14,22,26,31,29,3,,,,,,3.4,1.2,2.9*07
2017-11-15 19:18:19 1510791499.330803: $GPZDA,001818.00,16,11,2017,00,00*65
2017-11-15 19:18:19 1510791499.330968: $GPGGA,001818,3946.9540,N,08404.9515,W,1,07,1.20,267.42,M,-33.324,M,,*79
2017-11-15 19:18:19 1510791499.331030: $GPRMC,001818,A,3946.9540,N,08404.9515,W,0.8414,219.347,161117,,*3D
2017-11-15 19:18:19 1510791499.331085: $GPGSA,A,3,32,14,22,26,31,29,3,,,,,,3.4,1.2,2.9*07
2017-11-15 19:18:20 1510791500.329533: $GPZDA,001819.00,16,11,2017,00,00*64
2017-11-15 19:18:20 1510791500.329695: $GPGGA,001819,3946.9540,N,08404.9515,W,1,07,1.20,267.42,M,-33.324,M,,*78
2017-11-15 19:18:20 1510791500.329756: $GPRMC,001819,A,3946.9540,N,08404.9515,W,0.4207,219.347,161117,,*34
2017-11-15 19:18:20 1510791500.329812: $GPGSA,A,3,32,14,22,26,31,29,3,,,,,,3.4,1.2,2.9*07
2017-11-15 19:18:21 1510791501.665698: $GPGSV,3,1,12,32,41,102,26,14,59,084,20,22,49,280,15,26,46,175,23*7B
2017-11-15 19:18:21 1510791501.665868: $GPGSV,3,2,12,31,72,013,15,29,09,076,15,03,36,304,19,16,16,190,09*75
2017-11-15 19:18:21 1510791501.665928: $GPGSV,3,3,12,25,22,042,00,01,09,256,00,23,07,298,00,120,07,103,00*41
2017-11-15 19:18:21 1510791501.779006: $GPZDA,001820.00,16,11,2017,00,00*6E
2017-11-15 19:18:21 1510791501.779168: $GPGGA,001820,3946.9540,N,08404.9515,W,1,07,1.20,267.42,M,-33.324,M,,*72
2017-11-15 19:18:21 1510791501.779282: $GPRMC,001820,A,3946.9540,N,08404.9515,W,0.5951,238.684,161117,,*3E
2017-11-15 19:18:21 1510791501.779340: $GPGSA,A,3,32,14,22,26,31,29,3,,,,,,3.4,1.2,2.9*07
2017-11-15 19:18:22 1510791502.329973: $GPZDA,001821.00,16,11,2017,00,00*6F
2017-11-15 19:18:22 1510791502.330132: $GPGGA,001821,3946.9540,N,08404.9515,W,1,07,1.20,267.42,M,-33.324,M,,*73
2017-11-15 19:18:22 1510791502.330193: $GPRMC,001821,A,3946.9540,N,08404.9515,W,0.2422,273.794,161117,,*3E
2017-11-15 19:18:22 1510791502.330249: $GPGSA,A,3,32,14,22,26,31,29,3,,,,,,3.4,1.2,2.9*07
2017-11-15 19:18:23 1510791503.330799: $GPZDA,001822.00,16,11,2017,00,00*6C
2017-11-15 19:18:23 1510791503.330966: $GPGGA,001822,3946.9540,N,08404.9522,W,1,07,1.20,267.35,M,-33.324,M,,*74
2017-11-15 19:18:23 1510791503.331025: $GPRMC,001822,A,3946.9540,N,08404.9522,W,0.4179,328.778,161117,,*39
2017-11-15 19:18:23 1510791503.331081: $GPGSA,A,3,32,14,22,26,31,29,3,,,,,,3.4,1.2,2.9*07
