2017-12-29 10:46:12 1514562372.056213: {"class":"VERSION","release":"3.16","rev":"3.16-4","proto_major":3,"proto_minor":11}
2017-12-29 10:46:12 1514562372.056578: {"class":"DEVICES","devices":[{"class":"DEVICE","path":"/dev/ttyUSB0","driver":"SiRF","subtype":"9\u0006GSD4e_4.1.2-P1_RPATCH.05-F-GPS-4R-1510281 11/03/2015 307","activated":"2017-12-29T15:46:11.375Z","flags":1,"native":1,"bps":4800,"parity":"N","stopbits":1,"cycle":1.00}]}
2017-12-29 10:46:12 1514562372.056698: {"class":"WATCH","enable":true,"json":false,"nmea":true,"raw":0,"scaled":false,"timing":false,"split24":false,"pps":false}
2017-12-29 10:46:12 1514562372.827545: $GPZDA,154613.34,29,12,2017,00,00*69
2017-12-29 10:46:12 1514562372.827715: $GPGGA,154613,3946.9589,N,08404.9840,W,1,11,1.20,315.85,M,-33.324,M,,*7D
2017-12-29 10:46:12 1514562372.827783: $GPRMC,154613,A,3946.9589,N,08404.9840,W,0.3006,62.539,291217,,*03
2017-12-29 10:46:12 1514562372.827845: $GPGSA,A,3,10,13,15,18,20,21,24,27,32,29,138,,1.7,1.2,1.3*09
2017-12-29 10:46:14 1514562374.288528: $GPZDA,154614.34,29,12,2017,00,00*6E
2017-12-29 10:46:14 1514562374.288693: $GPGGA,154614,3946.9592,N,08404.9833,W,1,11,0.80,315.17,M,-33.324,M,,*74
2017-12-29 10:46:14 1514562374.288760: $GPRMC,154614,A,3946.9592,N,08404.9833,W,0.4584,148.179,291217,,*3B
2017-12-29 10:46:14 1514562374.288823: $GPGSA,A,3,10,13,15,18,20,21,24,27,32,29,138,,1.7,0.8,1.3*02
2017-12-29 10:46:14 1514562374.288882: $GPGBS,154614,10.91,M,10.38,M,30.89,M*0C
2017-12-29 10:46:15 1514562375.039491: $GPGSV,3,1,11,10,31,291,40,13,19,045,44,15,50,049,49,18,62,313,43*77
2017-12-29 10:46:15 1514562375.039684: $GPGSV,3,2,11,20,45,082,49,21,76,214,47,24,42,129,50,27,19,303,43*7F
2017-12-29 10:46:15 1514562375.039753: $GPGSV,3,3,11,29,02,186,28,32,10,231,29,138,38,213,00*7F
2017-12-29 10:46:15 1514562375.153118: $GPZDA,154614.84,29,12,2017,00,00*65
2017-12-29 10:46:15 1514562375.153276: $GPGGA,154614,3946.9588,N,08404.9833,W,1,10,0.80,314.53,M,-33.324,M,,*7F
2017-12-29 10:46:15 1514562375.153345: $GPRMC,154614,A,3946.9588,N,08404.9833,W,0.1867,180.000,291217,,*3E
2017-12-29 10:46:15 1514562375.153408: $GPGSA,A,3,10,13,15,18,20,21,24,27,29,32,,,1.7,0.8,1.3*38
2017-12-29 10:46:15 1514562375.603985: $GPZDA,154616.00,29,12,2017,00,00*6B
2017-12-29 10:46:15 1514562375.604143: $GPGGA,154616,3946.9588,N,08404.9833,W,1,10,0.80,314.53,M,-33.324,M,,*7D
2017-12-29 10:46:15 1514562375.604214: $GPRMC,154616,A,3946.9588,N,08404.9833,W,0.1867,180.000,291217,,*3C
2017-12-29 10:46:15 1514562375.604279: $GPGSA,A,3,10,13,15,18,20,21,24,27,29,32,,,1.7,0.8,1.3*38
2017-12-29 10:46:16 1514562376.371188: $GPZDA,154617.00,29,12,2017,00,00*6A
2017-12-29 10:46:16 1514562376.371357: $GPGGA,154617,3946.9592,N,08404.9832,W,1,10,0.80,313.76,M,-33.324,M,,*76
2017-12-29 10:46:16 1514562376.371428: $GPRMC,154617,A,3946.9592,N,08404.9832,W,0.0000,0.000,291217,,*36
2017-12-29 10:46:16 1514562376.371495: $GPGSA,A,3,10,13,15,18,20,21,24,27,29,32,,,1.7,0.8,1.3*38
2017-12-29 10:46:17 1514562377.707486: $GPGSV,3,1,11,10,31,291,41,13,19,045,43,15,50,049,50,18,62,313,44*7E
2017-12-29 10:46:17 1514562377.707682: $GPGSV,3,2,11,20,45,082,50,21,76,214,48,24,42,129,51,27,19,303,44*7E
2017-12-29 10:46:17 1514562377.707753: $GPGSV,3,3,11,29,02,186,29,32,10,231,32,138,38,213,46*76
2017-12-29 10:46:17 1514562377.820806: $GPZDA,154618.00,29,12,2017,00,00*65
2017-12-29 10:46:17 1514562377.820977: $GPGGA,154618,3946.9595,N,08404.9831,W,1,11,0.80,313.00,M,-33.324,M,,*7D
2017-12-29 10:46:17 1514562377.821093: $GPRMC,154618,A,3946.9595,N,08404.9831,W,0.0000,0.000,291217,,*3D
2017-12-29 10:46:17 1514562377.821169: $GPGSA,A,3,10,13,15,18,20,21,24,27,29,32,138,,1.7,0.8,1.3*02
2017-12-29 10:46:18 1514562378.371934: $GPZDA,154619.00,29,12,2017,00,00*64
2017-12-29 10:46:18 1514562378.372095: $GPGGA,154619,3946.9591,N,08404.9824,W,1,11,0.80,312.44,M,-33.324,M,,*7D
2017-12-29 10:46:18 1514562378.372167: $GPRMC,154619,A,3946.9591,N,08404.9824,W,0.0000,0.000,291217,,*3C
2017-12-29 10:46:18 1514562378.372246: $GPGSA,A,3,10,13,15,18,20,21,24,27,29,32,138,,1.7,0.8,1.3*02
2017-12-29 10:46:18 1514562378.372311: $GPGBS,154619,10.91,M,10.38,M,30.89,M*01
2017-12-29 10:46:19 1514562379.374048: $GPZDA,154620.00,29,12,2017,00,00*6E
2017-12-29 10:46:19 1514562379.374223: $GPGGA,154620,3946.9594,N,08404.9823,W,1,11,0.80,311.67,M,-33.324,M,,*77
2017-12-29 10:46:19 1514562379.374293: $GPRMC,154620,A,3946.9594,N,08404.9823,W,0.0000,0.000,291217,,*34
2017-12-29 10:46:19 1514562379.374354: $GPGSA,A,3,10,13,15,18,20,21,24,27,29,32,138,,1.7,0.8,1.3*02
2017-12-29 10:46:19 1514562379.374414: $GPGBS,154620,10.91,M,10.38,M,30.89,M*0B
2017-12-29 10:46:20 1514562380.708100: $GPGSV,3,1,11,10,31,291,42,13,19,045,43,15,50,049,50,18,62,313,44*7D
2017-12-29 10:46:20 1514562380.708283: $GPGSV,3,2,11,20,45,082,50,21,76,214,48,24,42,129,50,27,19,303,43*78
2017-12-29 10:46:20 1514562380.708371: $GPGSV,3,3,11,29,02,186,29,32,10,231,32,138,38,213,46*76
2017-12-29 10:46:20 1514562380.821865: $GPZDA,154621.00,29,12,2017,00,00*6F
2017-12-29 10:46:20 1514562380.822008: $GPGGA,154621,3946.9594,N,08404.9823,W,1,11,0.80,311.67,M,-33.324,M,,*76
2017-12-29 10:46:20 1514562380.822093: $GPRMC,154621,A,3946.9594,N,08404.9823,W,0.0000,0.000,291217,,*35
2017-12-29 10:46:20 1514562380.822159: $GPGSA,A,3,10,13,15,18,20,21,24,27,29,32,138,,1.7,0.8,1.3*02
2017-12-29 10:46:21 1514562381.375271: $GPZDA,154622.00,29,12,2017,00,00*6C
2017-12-29 10:46:21 1514562381.375448: $GPGGA,154622,3946.9598,N,08404.9823,W,1,11,0.80,310.91,M,-33.324,M,,*71
2017-12-29 10:46:21 1514562381.375520: $GPRMC,154622,A,3946.9598,N,08404.9823,W,0.0000,0.000,291217,,*3A
2017-12-29 10:46:21 1514562381.375586: $GPGSA,A,3,10,13,15,18,20,21,24,27,29,32,138,,1.7,0.8,1.3*02
2017-12-29 10:46:22 1514562382.373069: $GPZDA,154623.00,29,12,2017,00,00*6D
2017-12-29 10:46:22 1514562382.373237: $GPGGA,154623,3946.9598,N,08404.9823,W,1,11,0.80,310.91,M,-33.324,M,,*70
2017-12-29 10:46:22 1514562382.373308: $GPRMC,154623,A,3946.9598,N,08404.9823,W,0.0000,0.000,291217,,*3B
2017-12-29 10:46:22 1514562382.373372: $GPGSA,A,3,10,13,15,18,20,21,24,27,29,32,138,,1.7,0.8,1.3*02
2017-12-29 10:46:23 1514562383.709730: $GPGSV,3,1,11,10,31,291,42,13,19,045,43,15,50,049,50,18,62,313,44*7D
2017-12-29 10:46:23 1514562383.709904: $GPGSV,3,2,11,20,45,082,50,21,76,214,48,24,42,129,51,27,19,303,43*79
2017-12-29 10:46:23 1514562383.709974: $GPGSV,3,3,11,29,02,186,30,32,10,231,32,138,38,213,46*7E
2017-12-29 10:46:23 1514562383.823535: $GPZDA,154624.00,29,12,2017,00,00*6A
2017-12-29 10:46:23 1514562383.823671: $GPGGA,154624,3946.9598,N,08404.9823,W,1,11,0.80,310.91,M,-33.324,M,,*77
2017-12-29 10:46:23 1514562383.823739: $GPRMC,154624,A,3946.9598,N,08404.9823,W,0.0000,0.000,291217,,*3C
2017-12-29 10:46:23 1514562383.823803: $GPGSA,A,3,10,13,15,18,20,21,24,27,29,32,138,,1.7,0.8,1.3*02
2017-12-29 10:46:24 1514562384.372969: $GPZDA,154625.00,29,12,2017,00,00*6B
2017-12-29 10:46:24 1514562384.373132: $GPGGA,154625,3946.9601,N,08404.9822,W,1,11,0.80,310.14,M,-33.324,M,,*79
2017-12-29 10:46:24 1514562384.373201: $GPRMC,154625,A,3946.9601,N,08404.9822,W,0.0000,0.000,291217,,*3F
2017-12-29 10:46:24 1514562384.373264: $GPGSA,A,3,10,13,15,18,20,21,24,27,29,32,138,,1.7,0.8,1.3*02
2017-12-29 10:46:25 1514562385.375086: $GPZDA,154626.00,29,12,2017,00,00*68
2017-12-29 10:46:25 1514562385.375249: $GPGGA,154626,3946.9606,N,08404.9812,W,2,11,1.40,305.89,M,-33.324,M,,*70
2017-12-29 10:46:25 1514562385.375317: $GPRMC,154626,A,3946.9606,N,08404.9812,W,0.0000,0.000,291217,,*38
2017-12-29 10:46:25 1514562385.375382: $GPGSA,A,3,10,13,15,18,20,21,24,27,29,32,138,,1.7,1.4,1.3*0F
2017-12-29 10:46:26 1514562386.710614: $GPGSV,3,1,11,10,31,291,42,13,19,045,43,15,50,049,50,18,62,313,44*7D
2017-12-29 10:46:26 1514562386.710790: $GPGSV,3,2,11,20,45,082,50,21,76,214,48,24,42,129,51,27,19,303,42*78
2017-12-29 10:46:26 1514562386.710861: $GPGSV,3,3,11,29,02,186,30,32,10,231,32,138,38,213,45*7D
2017-12-29 10:46:26 1514562386.824323: $GPZDA,154627.00,29,12,2017,00,00*69
2017-12-29 10:46:26 1514562386.824486: $GPGGA,154627,3946.9606,N,08404.9812,W,2,11,0.80,305.89,M,-33.324,M,,*7C
2017-12-29 10:46:26 1514562386.824558: $GPRMC,154627,A,3946.9606,N,08404.9812,W,0.0000,0.000,291217,,*39
2017-12-29 10:46:26 1514562386.824672: $GPGSA,A,3,10,13,15,18,20,21,24,27,29,32,138,,1.7,0.8,1.3*02
