2017-11-15 19:23:11 1510791791.344168: {"class":"VERSION","release":"3.17","rev":"3.17","proto_major":3,"proto_minor":12}
2017-11-15 19:23:11 1510791791.344691: {"class":"DEVICES","devices":[{"class":"DEVICE","path":"/dev/ttyUSB0","driver":"SiRF","subtype":"9\u0006GSD4e_4.1.2-P1_RPATCH.05-F-GPS-4R-1510281 11/03/2015 307","activated":"2017-11-16T00:23:11.235Z","flags":1,"native":1,"bps":4800,"parity":"N","stopbits":1,"cycle":1.00}]}
2017-11-15 19:23:11 1510791791.344834: {"class":"WATCH","enable":true,"json":false,"nmea":true,"raw":0,"scaled":false,"timing":false,"split24":false,"pps":false}
2017-11-15 19:23:11 1510791791.349189: $GPZDA,002310.00,16,11,2017,00,00*65
2017-11-15 19:23:11 1510791791.349353: $GPGGA,002310,3946.9589,N,08404.9399,W,1,08,0.80,294.14,M,-33.324,M,,*75
2017-11-15 19:23:11 1510791791.349412: $GPRMC,002310,A,3946.9589,N,08404.9399,W,0.3155,129.994,161117,,*35
2017-11-15 19:23:11 1510791791.349466: $GPGSA,A,3,32,14,22,26,29,16,3,1,,,,,3.4,0.8,2.9*38
2017-11-15 19:23:12 1510791792.666077: $GPGSV,3,1,11,32,39,105,22,14,58,087,19,22,50,276,14,26,49,174,25*74
2017-11-15 19:23:12 1510791792.666268: $GPGSV,3,2,11,31,71,018,11,29,09,075,16,16,18,190,13,03,37,303,18*78
2017-11-15 19:23:12 1510791792.666327: $GPGSV,3,3,11,01,08,255,10,25,20,042,00,23,08,298,00*4A
2017-11-15 19:23:12 1510791792.779430: $GPZDA,002311.00,16,11,2017,00,00*64
2017-11-15 19:23:12 1510791792.779595: $GPGGA,002311,3946.9581,N,08404.9399,W,1,08,0.80,294.27,M,-33.324,M,,*7C
2017-11-15 19:23:12 1510791792.779656: $GPRMC,002311,A,3946.9581,N,08404.9399,W,0.8359,148.779,161117,,*33
2017-11-15 19:23:12 1510791792.779711: $GPGSA,A,3,32,14,22,26,29,16,3,1,,,,,3.4,0.8,2.9*38
2017-11-15 19:23:13 1510791793.346539: $GPZDA,002312.00,16,11,2017,00,00*67
2017-11-15 19:23:13 1510791793.346700: $GPGGA,002312,3946.9581,N,08404.9392,W,1,08,1.00,294.35,M,-33.324,M,,*7E
2017-11-15 19:23:13 1510791793.346810: $GPRMC,002312,A,3946.9581,N,08404.9392,W,1.1124,122.165,161117,,*3C
2017-11-15 19:23:13 1510791793.346867: $GPGSA,A,3,32,14,22,26,29,16,3,1,,,,,3.4,1.0,2.9*31
2017-11-15 19:23:14 1510791794.347501: $GPZDA,002313.00,16,11,2017,00,00*66
2017-11-15 19:23:14 1510791794.347679: $GPGGA,002313,3946.9581,N,08404.9392,W,1,08,1.00,294.35,M,-33.324,M,,*7F
2017-11-15 19:23:14 1510791794.347742: $GPRMC,002313,A,3946.9581,N,08404.9392,W,1.0002,154.331,161117,,*3B
2017-11-15 19:23:14 1510791794.347798: $GPGSA,A,3,32,14,22,26,29,16,3,1,,,,,3.4,1.0,2.9*31
2017-11-15 19:23:15 1510791795.665676: $GPGSV,3,1,11,32,39,105,22,14,58,087,19,22,50,276,06,26,49,174,25*77
2017-11-15 19:23:15 1510791795.665846: $GPGSV,3,2,11,31,71,018,08,29,09,075,12,16,18,190,13,03,37,303,18*74
2017-11-15 19:23:15 1510791795.665906: $GPGSV,3,3,11,01,08,255,08,25,20,042,00,23,08,298,00*43
2017-11-15 19:23:15 1510791795.778992: $GPZDA,002314.00,16,11,2017,00,00*61
2017-11-15 19:23:15 1510791795.779161: $GPGGA,002314,3946.9581,N,08404.9392,W,1,08,1.00,294.35,M,-33.324,M,,*78
2017-11-15 19:23:15 1510791795.779222: $GPRMC,002314,A,3946.9581,N,08404.9392,W,1.2538,148.779,161117,,*37
2017-11-15 19:23:15 1510791795.779277: $GPGSA,A,3,32,14,22,26,29,16,3,1,,,,,3.4,1.0,2.9*31
2017-11-15 19:23:16 1510791796.405672: $GPZDA,002315.00,16,11,2017,00,00*60
2017-11-15 19:23:16 1510791796.405841: $GPGGA,002315,3946.9573,N,08404.9393,W,1,08,1.60,294.47,M,-33.324,M,,*76
2017-11-15 19:23:16 1510791796.405901: $GPRMC,002315,A,3946.9573,N,08404.9393,W,1.0002,154.331,161117,,*31
2017-11-15 19:23:16 1510791796.405957: $GPGSA,A,3,32,14,22,26,29,16,3,1,,,,,3.4,1.6,2.9*37
2017-11-15 19:23:17 1510791797.330236: $GPZDA,002316.00,16,11,2017,00,00*63
2017-11-15 19:23:17 1510791797.330399: $GPGGA,002316,3946.9573,N,08404.9386,W,1,08,1.80,294.55,M,-33.324,M,,*7C
2017-11-15 19:23:17 1510791797.330459: $GPRMC,002316,A,3946.9573,N,08404.9386,W,1.4168,152.696,161117,,*31
2017-11-15 19:23:17 1510791797.330515: $GPGSA,A,3,32,14,22,26,29,16,3,1,,,,,3.4,1.8,2.9*39
2017-11-15 19:23:18 1510791798.666048: $GPGSV,3,1,11,32,39,105,22,14,58,087,19,22,50,276,07,26,49,174,26*75
2017-11-15 19:23:18 1510791798.666224: $GPGSV,3,2,11,31,71,018,06,29,09,075,08,16,18,190,04,03,37,303,18*77
2017-11-15 19:23:18 1510791798.666333: $GPGSV,3,3,11,01,08,255,05,25,20,042,00,23,08,298,00*4E
2017-11-15 19:23:18 1510791798.779367: $GPZDA,002317.00,16,11,2017,00,00*62
2017-11-15 19:23:18 1510791798.779535: $GPGGA,002317,3946.9573,N,08404.9386,W,1,06,1.80,294.55,M,-33.324,M,,*73
2017-11-15 19:23:18 1510791798.779596: $GPRMC,002317,A,3946.9573,N,08404.9386,W,1.1391,143.662,161117,,*3A
2017-11-15 19:23:18 1510791798.779652: $GPGSA,A,3,32,14,22,26,29,3,,,,,,,3.4,1.8,2.9*0F
2017-11-15 19:23:19 1510791799.332962: $GPZDA,002318.00,16,11,2017,00,00*6D
2017-11-15 19:23:19 1510791799.333196: $GPGGA,002318,3946.9573,N,08404.9386,W,1,06,1.60,294.55,M,-33.324,M,,*72
2017-11-15 19:23:19 1510791799.333258: $GPRMC,002318,A,3946.9573,N,08404.9386,W,0.8011,119.090,161117,,*32
2017-11-15 19:23:19 1510791799.333314: $GPGSA,A,3,32,14,22,26,29,3,,,,,,,3.4,1.6,2.9*01
2017-11-15 19:23:20 1510791800.332475: $GPZDA,002319.00,16,11,2017,00,00*6C
2017-11-15 19:23:20 1510791800.332634: $GPGGA,002319,3946.9573,N,08404.9386,W,1,06,1.60,294.55,M,-33.324,M,,*73
2017-11-15 19:23:20 1510791800.332694: $GPRMC,002319,A,3946.9573,N,08404.9386,W,0.4844,93.795,161117,,*06
2017-11-15 19:23:20 1510791800.332749: $GPGSA,A,3,32,14,22,26,29,3,,,,,,,3.4,1.6,2.9*01
