2017-12-14 12:24:20 1513272260.676976: {"class":"VERSION","release":"3.16","rev":"3.16-4","proto_major":3,"proto_minor":11}
2017-12-14 12:24:20 1513272260.677646: {"class":"DEVICES","devices":[{"class":"DEVICE","path":"/dev/ttyUSB0","driver":"SiRF","subtype":"9\u0006GSD4e_4.1.2-P1_RPATCH.05-F-GPS-4R-1510281 11/03/2015 307","activated":"2017-12-14T17:24:20.640Z","flags":1,"native":1,"bps":4800,"parity":"N","stopbits":1,"cycle":1.00}]}
2017-12-14 12:24:20 1513272260.677765: {"class":"WATCH","enable":true,"json":false,"nmea":true,"raw":0,"scaled":false,"timing":false,"split24":false,"pps":false}
2017-12-14 12:24:21 1513272261.194421: $GPZDA,172422.00,14,12,2017,00,00*64
2017-12-14 12:24:21 1513272261.194591: $GPGGA,172422,3946.9504,N,08404.9423,W,1,07,1.40,363.01,M,-33.324,M,,*79
2017-12-14 12:24:21 1513272261.194656: $GPRMC,172422,A,3946.9504,N,08404.9423,W,0.3423,184.197,141217,,*3F
2017-12-14 12:24:21 1513272261.194717: $GPGSA,A,3,21,10,32,20,24,18,15,,,,,,6.6,1.4,6.2*39
2017-12-14 12:24:22 1513272262.192125: $GPZDA,172423.00,14,12,2017,00,00*65
2017-12-14 12:24:22 1513272262.192306: $GPGGA,172423,3946.9500,N,08404.9423,W,1,07,1.40,362.37,M,-33.324,M,,*78
2017-12-14 12:24:22 1513272262.192372: $GPRMC,172423,A,3946.9500,N,08404.9423,W,0.1867,180.000,141217,,*3F
2017-12-14 12:24:22 1513272262.192434: $GPGSA,A,3,21,10,32,20,24,18,15,,,,,,6.6,1.4,6.2*39
2017-12-14 12:24:23 1513272263.527950: $GPGSV,3,1,12,21,60,186,26,10,44,303,22,32,23,240,12,20,32,097,24*79
2017-12-14 12:24:23 1513272263.528125: $GPGSV,3,2,12,24,52,106,25,14,06,234,04,18,73,345,17,15,35,054,18*7B
2017-12-14 12:24:23 1513272263.528191: $GPGSV,3,3,12,08,06,321,12,27,19,286,00,13,05,049,00,138,38,213,00*4D
2017-12-14 12:24:23 1513272263.641518: $GPZDA,172424.00,14,12,2017,00,00*62
2017-12-14 12:24:23 1513272263.641679: $GPGGA,172424,3946.9499,N,08404.9416,W,1,07,1.40,362.45,M,-33.324,M,,*7D
2017-12-14 12:24:23 1513272263.641745: $GPRMC,172424,A,3946.9499,N,08404.9416,W,0.7278,203.636,141217,,*36
2017-12-14 12:24:23 1513272263.641806: $GPGSA,A,3,21,10,32,20,24,18,15,,,,,,6.6,1.4,6.2*39
2017-12-14 12:24:24 1513272264.193457: $GPZDA,172425.00,14,12,2017,00,00*63
2017-12-14 12:24:24 1513272264.193632: $GPGGA,172425,3946.9495,N,08404.9423,W,1,07,1.40,361.73,M,-33.324,M,,*70
2017-12-14 12:24:24 1513272264.193700: $GPRMC,172425,A,3946.9495,N,08404.9423,W,0.2959,234.767,141217,,*31
2017-12-14 12:24:24 1513272264.193761: $GPGSA,A,3,21,10,32,20,24,18,15,,,,,,6.6,1.4,6.2*39
2017-12-14 12:24:25 1513272265.192639: $GPZDA,172426.00,14,12,2017,00,00*60
2017-12-14 12:24:25 1513272265.192804: $GPGGA,172426,3946.9495,N,08404.9416,W,1,07,1.40,361.81,M,-33.324,M,,*78
2017-12-14 12:24:25 1513272265.192869: $GPRMC,172426,A,3946.9495,N,08404.9416,W,0.3735,180.000,141217,,*3B
2017-12-14 12:24:25 1513272265.192930: $GPGSA,A,3,21,10,32,20,24,18,15,,,,,,6.6,1.4,6.2*39
2017-12-14 12:24:26 1513272266.529760: $GPGSV,3,1,12,21,60,186,26,10,44,303,22,32,23,240,12,20,32,097,24*79
2017-12-14 12:24:26 1513272266.529923: $GPGSV,3,2,12,24,52,106,25,14,06,234,04,18,73,345,17,15,35,054,19*7A
2017-12-14 12:24:26 1513272266.529997: $GPGSV,3,3,12,27,19,286,00,08,06,321,00,13,05,049,00,138,38,213,00*4E
2017-12-14 12:24:26 1513272266.643798: $GPZDA,172427.00,14,12,2017,00,00*61
2017-12-14 12:24:26 1513272266.643973: $GPGGA,172427,3946.9491,N,08404.9416,W,1,07,1.40,361.17,M,-33.324,M,,*72
2017-12-14 12:24:26 1513272266.644040: $GPRMC,172427,A,3946.9491,N,08404.9416,W,0.4584,148.179,141217,,*3A
2017-12-14 12:24:26 1513272266.644102: $GPGSA,A,3,21,10,32,20,24,18,15,,,,,,6.6,1.4,6.2*39
2017-12-14 12:24:27 1513272267.192353: $GPZDA,172428.00,14,12,2017,00,00*6E
2017-12-14 12:24:27 1513272267.192537: $GPGGA,172428,3946.9491,N,08404.9416,W,1,07,1.40,361.17,M,-33.324,M,,*7D
2017-12-14 12:24:27 1513272267.192603: $GPRMC,172428,A,3946.9491,N,08404.9416,W,0.7238,140.710,141217,,*37
2017-12-14 12:24:27 1513272267.192664: $GPGSA,A,3,21,10,32,20,24,18,15,,,,,,6.6,1.4,6.2*39
2017-12-14 12:24:28 1513272268.192445: $GPZDA,172429.00,14,12,2017,00,00*6F
2017-12-14 12:24:28 1513272268.192685: $GPGGA,172429,3946.9488,N,08404.9417,W,1,07,1.40,361.94,M,-33.324,M,,*7E
2017-12-14 12:24:28 1513272268.192805: $GPRMC,172429,A,3946.9488,N,08404.9417,W,0.4985,185.768,141217,,*37
2017-12-14 12:24:28 1513272268.192868: $GPGSA,A,3,21,10,32,20,24,18,15,,,,,,6.6,1.4,6.2*39
2017-12-14 12:24:29 1513272269.527888: $GPGSV,3,1,12,21,60,186,27,10,44,303,22,32,23,240,11,20,32,097,24*7B
2017-12-14 12:24:29 1513272269.528061: $GPGSV,3,2,12,24,52,106,25,14,06,234,04,18,73,345,17,15,35,054,19*7A
2017-12-14 12:24:29 1513272269.528125: $GPGSV,3,3,12,08,06,321,13,27,19,286,00,13,05,049,00,138,38,213,00*4C
2017-12-14 12:24:29 1513272269.641200: $GPZDA,172430.00,14,12,2017,00,00*67
2017-12-14 12:24:29 1513272269.641373: $GPGGA,172430,3946.9484,N,08404.9411,W,1,07,1.40,362.78,M,-33.324,M,,*7D
2017-12-14 12:24:29 1513272269.641439: $GPRMC,172430,A,3946.9484,N,08404.9411,W,0.6872,165.975,141217,,*32
2017-12-14 12:24:29 1513272269.641519: $GPGSA,A,3,21,10,32,20,24,18,15,,,,,,6.6,1.4,6.2*39
2017-12-14 12:24:30 1513272270.190147: $GPZDA,172431.00,14,12,2017,00,00*66
2017-12-14 12:24:30 1513272270.190314: $GPGGA,172431,3946.9476,N,08404.9411,W,1,07,2.20,362.91,M,-33.324,M,,*73
2017-12-14 12:24:30 1513272270.190379: $GPRMC,172431,A,3946.9476,N,08404.9411,W,1.1535,186.234,141217,,*35
2017-12-14 12:24:30 1513272270.190440: $GPGSA,A,3,21,10,32,20,24,18,15,,,,,,6.6,2.2,6.2*3C
2017-12-14 12:24:31 1513272271.191526: $GPZDA,172432.00,14,12,2017,00,00*65
2017-12-14 12:24:31 1513272271.191691: $GPGGA,172432,3946.9473,N,08404.9412,W,1,07,2.20,363.67,M,-33.324,M,,*7E
2017-12-14 12:24:31 1513272271.191758: $GPRMC,172432,A,3946.9473,N,08404.9412,W,0.9801,214.742,141217,,*3F
2017-12-14 12:24:31 1513272271.191819: $GPGSA,A,3,21,10,32,20,24,18,15,,,,,,6.6,2.2,6.2*3C
2017-12-14 12:24:32 1513272272.527722: $GPGSV,3,1,12,21,60,186,27,10,44,303,23,32,23,240,04,20,32,097,25*7F
2017-12-14 12:24:32 1513272272.527900: $GPGSV,3,2,12,24,52,106,24,14,06,234,04,18,73,345,16,15,35,054,20*70
2017-12-14 12:24:32 1513272272.527966: $GPGSV,3,3,12,08,06,321,13,27,19,286,00,13,05,049,00,138,38,213,00*4C
2017-12-14 12:24:32 1513272272.641051: $GPZDA,172433.00,14,12,2017,00,00*64
2017-12-14 12:24:32 1513272272.641173: $GPGGA,172433,3946.9469,N,08404.9413,W,1,06,2.20,364.44,M,-33.324,M,,*72
2017-12-14 12:24:32 1513272272.641238: $GPRMC,172433,A,3946.9469,N,08404.9413,W,1.0269,184.197,141217,,*3C
2017-12-14 12:24:32 1513272272.641299: $GPGSA,A,3,21,10,20,24,18,15,,,,,,,6.6,2.2,6.2*3D
2017-12-14 12:24:33 1513272273.191229: $GPZDA,172434.00,14,12,2017,00,00*63
2017-12-14 12:24:33 1513272273.191406: $GPGGA,172434,3946.9462,N,08404.9414,W,1,06,2.20,364.56,M,-33.324,M,,*7A
2017-12-14 12:24:33 1513272273.191472: $GPRMC,172434,A,3946.9462,N,08404.9414,W,1.0269,184.197,141217,,*37
2017-12-14 12:24:33 1513272273.191533: $GPGSA,A,3,21,10,20,24,18,15,,,,,,,6.6,2.2,6.2*3D
2017-12-14 12:24:34 1513272274.190885: $GPZDA,172435.00,14,12,2017,00,00*62
2017-12-14 12:24:34 1513272274.191058: $GPGGA,172435,3946.9458,N,08404.9414,W,1,06,2.20,365.32,M,-33.324,M,,*71
2017-12-14 12:24:34 1513272274.191126: $GPRMC,172435,A,3946.9458,N,08404.9414,W,1.1385,209.379,141217,,*39
2017-12-14 12:24:34 1513272274.191187: $GPGSA,A,3,21,10,20,24,18,15,,,,,,,6.6,2.2,6.2*3D
2017-12-14 12:24:35 1513272275.525828: $GPGSV,3,1,12,21,60,186,26,10,44,303,23,32,23,240,04,20,32,097,25*7E
2017-12-14 12:24:35 1513272275.526008: $GPGSV,3,2,12,24,52,106,24,08,06,321,05,18,73,345,16,15,35,054,20*79
2017-12-14 12:24:35 1513272275.526073: $GPGSV,3,3,12,27,19,286,00,14,06,234,00,13,05,049,00,138,38,213,00*46
2017-12-14 12:24:35 1513272275.639505: $GPZDA,172436.00,14,12,2017,00,00*61
2017-12-14 12:24:35 1513272275.639672: $GPGGA,172436,3946.9455,N,08404.9422,W,1,06,2.20,366.01,M,-33.324,M,,*79
2017-12-14 12:24:35 1513272275.639738: $GPRMC,172436,A,3946.9455,N,08404.9422,W,1.3921,194.217,141217,,*3A
2017-12-14 12:24:35 1513272275.639798: $GPGSA,A,3,21,10,20,24,18,15,,,,,,,6.6,2.2,6.2*3D
2017-12-14 12:24:36 1513272276.191986: $GPZDA,172437.00,14,12,2017,00,00*60
2017-12-14 12:24:36 1513272276.194768: $GPGGA,172437,3946.9451,N,08404.9415,W,1,06,1.40,365.45,M,-33.324,M,,*7E
2017-12-14 12:24:36 1513272276.194941: $GPRMC,172437,A,3946.9451,N,08404.9415,W,1.3082,161.818,141217,,*34
2017-12-14 12:24:36 1513272276.195007: $GPGSA,A,3,21,10,20,24,18,15,,,,,,,6.6,1.4,6.2*38
2017-12-14 12:24:37 1513272277.192804: $GPZDA,172438.00,14,12,2017,00,00*6F
2017-12-14 12:24:37 1513272277.192980: $GPGGA,172438,3946.9447,N,08404.9416,W,1,06,1.40,366.21,M,-33.324,M,,*74
2017-12-14 12:24:37 1513272277.193049: $GPRMC,172438,A,3946.9447,N,08404.9416,W,1.3082,161.818,141217,,*3F
2017-12-14 12:24:37 1513272277.193111: $GPGSA,A,3,21,10,20,24,18,15,,,,,,,6.6,1.4,6.2*38
2017-12-14 12:24:38 1513272278.525751: $GPGSV,3,1,12,21,60,186,26,10,44,303,23,32,23,240,12,20,32,097,26*7A
2017-12-14 12:24:38 1513272278.525925: $GPGSV,3,2,12,24,52,106,24,27,19,286,07,18,73,345,04,15,35,054,19*7D
2017-12-14 12:24:38 1513272278.525990: $GPGSV,3,3,12,08,06,321,00,14,06,234,00,13,05,049,00,138,38,213,00*49
2017-12-14 12:24:38 1513272278.639105: $GPZDA,172439.00,14,12,2017,00,00*6E
2017-12-14 12:24:38 1513272278.639269: $GPGGA,172439,3946.9444,N,08404.9417,W,1,06,1.40,366.98,M,-33.324,M,,*75
2017-12-14 12:24:38 1513272278.639334: $GPRMC,172439,A,3946.9444,N,08404.9417,W,0.7246,164.668,141217,,*3F
2017-12-14 12:24:38 1513272278.639416: $GPGSA,A,3,21,10,32,20,24,15,,,,,,,6.6,1.4,6.2*30
2017-12-14 12:24:39 1513272279.190582: $GPZDA,172440.00,14,12,2017,00,00*60
2017-12-14 12:24:39 1513272279.190838: $GPGGA,172440,3946.9443,N,08404.9410,W,1,06,1.40,367.06,M,-33.324,M,,*7D
2017-12-14 12:24:39 1513272279.190908: $GPRMC,172440,A,3946.9443,N,08404.9410,W,0.8359,148.778,141217,,*3F
2017-12-14 12:24:39 1513272279.190980: $GPGSA,A,3,21,10,32,20,24,15,,,,,,,6.6,1.4,6.2*30
2017-12-14 12:24:40 1513272280.190097: $GPZDA,172441.00,14,12,2017,00,00*61
2017-12-14 12:24:40 1513272280.190269: $GPGGA,172441,3946.9440,N,08404.9410,W,1,06,1.40,367.82,M,-33.324,M,,*73
2017-12-14 12:24:40 1513272280.190357: $GPRMC,172441,A,3946.9440,N,08404.9410,W,0.9060,167.792,141217,,*3C
2017-12-14 12:24:40 1513272280.190420: $GPGSA,A,3,21,10,32,20,24,15,,,,,,,6.6,1.4,6.2*30
