2017-11-15 19:19:24 1510791564.782303: {"class":"VERSION","release":"3.17","rev":"3.17","proto_major":3,"proto_minor":12}
2017-11-15 19:19:24 1510791564.782757: {"class":"DEVICES","devices":[{"class":"DEVICE","path":"/dev/ttyUSB0","driver":"SiRF","subtype":"9\u0006GSD4e_4.1.2-P1_RPATCH.05-F-GPS-4R-1510281 11/03/2015 307","activated":"2017-11-16T00:19:24.779Z","flags":1,"native":1,"bps":4800,"parity":"N","stopbits":1,"cycle":1.00}]}
2017-11-15 19:19:24 1510791564.782874: {"class":"WATCH","enable":true,"json":false,"nmea":true,"raw":0,"scaled":false,"timing":false,"split24":false,"pps":false}
2017-11-15 19:19:25 1510791565.347774: $GPZDA,001924.00,16,11,2017,00,00*6B
2017-11-15 19:19:25 1510791565.347950: $GPGGA,001924,3946.9614,N,08404.9547,W,1,09,1.00,274.33,M,-33.324,M,,*7A
2017-11-15 19:19:25 1510791565.348010: $GPRMC,001924,A,3946.9614,N,08404.9547,W,0.4207,39.347,161117,,*0E
2017-11-15 19:19:25 1510791565.348066: $GPGSA,A,3,32,14,22,26,31,29,3,16,25,,,,3.4,1.0,2.9*05
2017-11-15 19:19:26 1510791566.330576: $GPZDA,001925.00,16,11,2017,00,00*6A
2017-11-15 19:19:26 1510791566.330739: $GPGGA,001925,3946.9619,N,08404.9547,W,1,09,1.00,274.97,M,-33.324,M,,*78
2017-11-15 19:19:26 1510791566.330800: $GPRMC,001925,A,3946.9619,N,08404.9547,W,0.8414,39.347,161117,,*0A
2017-11-15 19:19:26 1510791566.330855: $GPGSA,A,3,32,14,22,26,31,29,3,16,25,,,,3.4,1.0,2.9*05
2017-11-15 19:19:27 1510791567.682695: $GPGSV,3,1,11,32,39,103,29,14,58,085,16,22,50,277,19,26,48,174,22*7E
2017-11-15 19:19:27 1510791567.682876: $GPGSV,3,2,11,31,71,016,23,29,09,075,15,03,37,304,12,16,18,190,12*78
2017-11-15 19:19:27 1510791567.682939: $GPGSV,3,3,11,25,21,042,06,01,08,256,00,23,08,298,00*4F
2017-11-15 19:19:27 1510791567.796321: $GPZDA,001926.00,16,11,2017,00,00*69
2017-11-15 19:19:27 1510791567.796483: $GPGGA,001926,3946.9626,N,08404.9547,W,1,09,1.00,274.85,M,-33.324,M,,*74
2017-11-15 19:19:27 1510791567.796546: $GPRMC,001926,A,3946.9626,N,08404.9547,W,0.9019,18.875,161117,,*04
2017-11-15 19:19:27 1510791567.796605: $GPGSA,A,3,32,14,22,26,31,29,3,16,25,,,,3.4,1.0,2.9*05
2017-11-15 19:19:28 1510791568.330929: $GPZDA,001927.00,16,11,2017,00,00*68
2017-11-15 19:19:28 1510791568.331110: $GPGGA,001927,3946.9630,N,08404.9547,W,1,09,1.00,275.49,M,-33.324,M,,*73
2017-11-15 19:19:28 1510791568.331174: $GPRMC,001927,A,3946.9630,N,08404.9547,W,0.5287,2.716,161117,,*3A
2017-11-15 19:19:28 1510791568.331233: $GPGSA,A,3,32,14,22,26,31,29,3,16,25,,,,3.4,1.0,2.9*05
2017-11-15 19:19:29 1510791569.331439: $GPZDA,001928.00,16,11,2017,00,00*67
2017-11-15 19:19:29 1510791569.331609: $GPGGA,001928,3946.9630,N,08404.9547,W,1,09,1.20,275.49,M,-33.324,M,,*7E
2017-11-15 19:19:29 1510791569.331672: $GPRMC,001928,A,3946.9630,N,08404.9547,W,0.9019,18.875,161117,,*0D
2017-11-15 19:19:29 1510791569.331730: $GPGSA,A,3,32,14,22,26,31,29,3,16,25,,,,3.4,1.2,2.9*07
2017-11-15 19:19:30 1510791570.684781: $GPGSV,3,1,11,32,39,103,29,14,58,085,15,22,50,277,19,26,48,174,22*7D
2017-11-15 19:19:30 1510791570.684955: $GPGSV,3,2,11,31,71,016,24,29,09,075,15,03,37,304,11,16,18,190,00*7F
2017-11-15 19:19:30 1510791570.685018: $GPGSV,3,3,11,25,21,042,08,01,08,256,00,23,08,298,00*41
2017-11-15 19:19:30 1510791570.798065: $GPZDA,001929.00,16,11,2017,00,00*66
2017-11-15 19:19:30 1510791570.798237: $GPGGA,001929,3946.9638,N,08404.9546,W,1,08,1.40,275.36,M,-33.324,M,,*79
2017-11-15 19:19:30 1510791570.798301: $GPRMC,001929,A,3946.9638,N,08404.9546,W,0.4207,39.347,161117,,*0C
2017-11-15 19:19:30 1510791570.798360: $GPGSA,A,3,32,14,22,26,31,29,3,25,,,,,3.4,1.4,2.9*06
2017-11-15 19:19:31 1510791571.423446: $GPZDA,001930.00,16,11,2017,00,00*6E
2017-11-15 19:19:31 1510791571.423625: $GPGGA,001930,3946.9638,N,08404.9539,W,1,08,1.40,275.44,M,-33.324,M,,*7C
2017-11-15 19:19:31 1510791571.423690: $GPRMC,001930,A,3946.9638,N,08404.9539,W,0.3423,184.197,161117,,*33
2017-11-15 19:19:31 1510791571.423748: $GPGSA,A,3,32,14,22,26,31,29,3,25,,,,,3.4,1.4,2.9*06
2017-11-15 19:19:32 1510791572.346954: $GPZDA,001931.00,16,11,2017,00,00*6F
2017-11-15 19:19:32 1510791572.347124: $GPGGA,001931,3946.9642,N,08404.9546,W,1,08,1.40,276.00,M,-33.324,M,,*7B
2017-11-15 19:19:32 1510791572.347239: $GPRMC,001931,A,3946.9642,N,08404.9546,W,0.0000,0.000,161117,,*33
2017-11-15 19:19:32 1510791572.347297: $GPGSA,A,3,32,14,22,26,31,29,3,25,,,,,3.4,1.4,2.9*06
2017-11-15 19:19:33 1510791573.666371: $GPGSV,3,1,11,32,39,103,29,14,58,085,15,22,50,277,19,26,48,174,22*7D
2017-11-15 19:19:33 1510791573.666516: $GPGSV,3,2,11,31,71,016,24,29,09,075,16,03,37,304,10,16,18,190,00*7D
2017-11-15 19:19:33 1510791573.666575: $GPGSV,3,3,11,25,21,042,08,01,08,256,00,23,08,298,00*41
2017-11-15 19:19:33 1510791573.779686: $GPZDA,001932.00,16,11,2017,00,00*6C
2017-11-15 19:19:33 1510791573.779844: $GPGGA,001932,3946.9642,N,08404.9539,W,1,08,1.20,276.08,M,-33.324,M,,*7E
2017-11-15 19:19:33 1510791573.779905: $GPRMC,001932,A,3946.9642,N,08404.9539,W,0.5306,114.352,161117,,*38
2017-11-15 19:19:33 1510791573.779960: $GPGSA,A,3,32,14,22,26,31,29,3,25,,,,,3.4,1.2,2.9*00
2017-11-15 19:19:34 1510791574.346852: $GPZDA,001933.00,16,11,2017,00,00*6D
2017-11-15 19:19:34 1510791574.347026: $GPGGA,001933,3946.9642,N,08404.9539,W,1,08,1.20,276.08,M,-33.324,M,,*7F
2017-11-15 19:19:34 1510791574.347087: $GPRMC,001933,A,3946.9642,N,08404.9539,W,0.2422,93.794,161117,,*0F
2017-11-15 19:19:34 1510791574.347143: $GPGSA,A,3,32,14,22,26,31,29,3,25,,,,,3.4,1.2,2.9*00
