2017-11-16 17:24:48 1510871088.481108: {"class":"VERSION","release":"3.17","rev":"3.17","proto_major":3,"proto_minor":12}
2017-11-16 17:24:48 1510871088.481607: {"class":"DEVICES","devices":[{"class":"DEVICE","path":"/dev/ttyUSB0","driver":"SiRF","subtype":"9\u0006GSD4e_4.1.2-P1_RPATCH.05-F-GPS-4R-1510281 11/03/2015 307","activated":"2017-11-16T22:24:48.290Z","flags":1,"native":1,"bps":4800,"parity":"N","stopbits":1,"cycle":1.00}]}
2017-11-16 17:24:48 1510871088.481720: {"class":"WATCH","enable":true,"json":false,"nmea":true,"raw":0,"scaled":false,"timing":false,"split24":false,"pps":false}
2017-11-16 17:24:48 1510871088.738904: $GPGSV,3,1,11,01,21,304,37,10,51,147,50,22,16,312,42,12,23,052,50*79
2017-11-16 17:24:48 1510871088.739072: $GPGSV,3,2,11,14,65,321,47,18,21,142,39,11,09,285,40,25,39,094,48*74
2017-11-16 17:24:48 1510871088.739132: $GPGSV,3,3,11,31,52,222,49,32,69,018,49,138,38,213,44*78
2017-11-16 17:24:48 1510871088.852224: $GPZDA,222447.00,16,11,2017,00,00*60
2017-11-16 17:24:48 1510871088.852387: $GPGGA,222447,3946.9570,N,08404.9830,W,2,11,0.80,307.75,M,-33.324,M,,*79
2017-11-16 17:24:48 1510871088.852448: $GPRMC,222447,A,3946.9570,N,08404.9830,W,0.0000,0.000,161117,,*32
2017-11-16 17:24:48 1510871088.852504: $GPGSA,A,3,1,10,22,12,14,18,11,25,31,32,138,,1.6,0.8,1.3*3E
2017-11-16 17:24:49 1510871089.401827: $GPZDA,222448.00,16,11,2017,00,00*6F
2017-11-16 17:24:49 1510871089.402010: $GPGGA,222448,3946.9570,N,08404.9830,W,2,11,0.80,307.75,M,-33.324,M,,*76
2017-11-16 17:24:49 1510871089.402071: $GPRMC,222448,A,3946.9570,N,08404.9830,W,0.0000,0.000,161117,,*3D
2017-11-16 17:24:49 1510871089.402128: $GPGSA,A,3,1,10,22,12,14,18,11,25,31,32,138,,1.6,0.8,1.3*3E
2017-11-16 17:24:50 1510871090.401414: $GPZDA,222449.00,16,11,2017,00,00*6E
2017-11-16 17:24:50 1510871090.401580: $GPGGA,222449,3946.9570,N,08404.9830,W,2,11,0.80,307.75,M,-33.324,M,,*77
2017-11-16 17:24:50 1510871090.401642: $GPRMC,222449,A,3946.9570,N,08404.9830,W,0.0000,0.000,161117,,*3C
2017-11-16 17:24:50 1510871090.401698: $GPGSA,A,3,1,10,22,12,14,18,11,25,31,32,138,,1.6,0.8,1.3*3E
2017-11-16 17:24:51 1510871091.737915: $GPGSV,3,1,11,01,21,304,37,10,51,147,50,22,16,312,42,12,23,052,50*79
2017-11-16 17:24:51 1510871091.738087: $GPGSV,3,2,11,14,65,321,47,18,21,142,39,11,09,285,40,25,39,094,48*74
2017-11-16 17:24:51 1510871091.738148: $GPGSV,3,3,11,31,52,222,49,32,69,018,50,138,38,213,44*70
2017-11-16 17:24:51 1510871091.851269: $GPZDA,222450.00,16,11,2017,00,00*66
2017-11-16 17:24:51 1510871091.851430: $GPGGA,222450,3946.9570,N,08404.9830,W,2,11,0.80,307.75,M,-33.324,M,,*7F
2017-11-16 17:24:51 1510871091.851491: $GPRMC,222450,A,3946.9570,N,08404.9830,W,0.0000,0.000,161117,,*34
2017-11-16 17:24:51 1510871091.851547: $GPGSA,A,3,1,10,22,12,14,18,11,25,31,32,138,,1.6,0.8,1.3*3E
2017-11-16 17:24:52 1510871092.402157: $GPZDA,222451.00,16,11,2017,00,00*67
2017-11-16 17:24:52 1510871092.402335: $GPGGA,222451,3946.9570,N,08404.9830,W,2,11,0.80,307.75,M,-33.324,M,,*7E
2017-11-16 17:24:52 1510871092.402397: $GPRMC,222451,A,3946.9570,N,08404.9830,W,0.0000,0.000,161117,,*35
2017-11-16 17:24:52 1510871092.402453: $GPGSA,A,3,1,10,22,12,14,18,11,25,31,32,138,,1.6,0.8,1.3*3E
2017-11-16 17:24:53 1510871093.401764: $GPZDA,222452.00,16,11,2017,00,00*64
2017-11-16 17:24:53 1510871093.401941: $GPGGA,222452,3946.9570,N,08404.9830,W,2,11,0.80,307.75,M,-33.324,M,,*7D
2017-11-16 17:24:53 1510871093.402002: $GPRMC,222452,A,3946.9570,N,08404.9830,W,0.0000,0.000,161117,,*36
2017-11-16 17:24:53 1510871093.402058: $GPGSA,A,3,1,10,22,12,14,18,11,25,31,32,138,,1.6,0.8,1.3*3E
2017-11-16 17:24:54 1510871094.740314: $GPGSV,3,1,11,01,21,304,36,10,51,147,50,22,16,312,42,12,23,052,50*78
2017-11-16 17:24:54 1510871094.740484: $GPGSV,3,2,11,14,65,321,47,18,21,142,39,11,09,285,41,25,39,094,48*75
2017-11-16 17:24:54 1510871094.740544: $GPGSV,3,3,11,31,52,222,49,32,69,018,50,138,38,213,44*70
2017-11-16 17:24:54 1510871094.853776: $GPZDA,222453.00,16,11,2017,00,00*65
2017-11-16 17:24:54 1510871094.853993: $GPGGA,222453,3946.9570,N,08404.9830,W,2,11,0.80,307.75,M,-33.324,M,,*7C
2017-11-16 17:24:54 1510871094.854108: $GPRMC,222453,A,3946.9570,N,08404.9830,W,0.0000,0.000,161117,,*37
2017-11-16 17:24:54 1510871094.854166: $GPGSA,A,3,1,10,22,12,14,18,11,25,31,32,138,,1.6,0.8,1.3*3E
2017-11-16 17:24:55 1510871095.400916: $GPZDA,222454.00,16,11,2017,00,00*62
2017-11-16 17:24:55 1510871095.409330: $GPGGA,222454,3946.9570,N,08404.9830,W,2,11,0.80,307.75,M,-33.324,M,,*7B
2017-11-16 17:24:55 1510871095.409445: $GPRMC,222454,A,3946.9570,N,08404.9830,W,0.0000,0.000,161117,,*30
2017-11-16 17:24:55 1510871095.409504: $GPGSA,A,3,1,10,22,12,14,18,11,25,31,32,138,,1.6,0.8,1.3*3E
2017-11-16 17:24:56 1510871096.400864: $GPZDA,222455.00,16,11,2017,00,00*63
2017-11-16 17:24:56 1510871096.401030: $GPGGA,222455,3946.9570,N,08404.9830,W,2,11,0.80,307.75,M,-33.324,M,,*7A
2017-11-16 17:24:56 1510871096.401090: $GPRMC,222455,A,3946.9570,N,08404.9830,W,0.0000,0.000,161117,,*31
2017-11-16 17:24:56 1510871096.401146: $GPGSA,A,3,1,10,22,12,14,18,11,25,31,32,138,,1.6,0.8,1.3*3E
2017-11-16 17:24:57 1510871097.756624: $GPGSV,3,1,11,01,21,304,36,10,51,147,50,22,16,312,42,12,23,052,50*78
2017-11-16 17:24:57 1510871097.756821: $GPGSV,3,2,11,14,65,321,46,18,21,142,39,11,09,285,40,25,39,094,48*75
2017-11-16 17:24:57 1510871097.756884: $GPGSV,3,3,11,31,52,222,49,32,69,018,50,138,38,213,44*70
2017-11-16 17:24:57 1510871097.870009: $GPZDA,222456.00,16,11,2017,00,00*60
2017-11-16 17:24:57 1510871097.870173: $GPGGA,222456,3946.9570,N,08404.9830,W,2,11,0.80,307.75,M,-33.324,M,,*79
2017-11-16 17:24:57 1510871097.870236: $GPRMC,222456,A,3946.9570,N,08404.9830,W,0.0000,0.000,161117,,*32
2017-11-16 17:24:57 1510871097.870308: $GPGSA,A,3,1,10,22,12,14,18,11,25,31,32,138,,1.6,0.8,1.3*3E
2017-11-16 17:24:58 1510871098.400829: $GPZDA,222457.00,16,11,2017,00,00*61
2017-11-16 17:24:58 1510871098.400988: $GPGGA,222457,3946.9570,N,08404.9830,W,2,11,0.80,307.75,M,-33.324,M,,*78
2017-11-16 17:24:58 1510871098.401050: $GPRMC,222457,A,3946.9570,N,08404.9830,W,0.0000,0.000,161117,,*33
2017-11-16 17:24:58 1510871098.401106: $GPGSA,A,3,1,10,22,12,14,18,11,25,31,32,138,,1.6,0.8,1.3*3E
