2017-12-01 14:01:29 1512154889.968353: {"class":"VERSION","release":"3.16","rev":"3.16-4","proto_major":3,"proto_minor":11}
2017-12-01 14:01:29 1512154889.968772: {"class":"DEVICES","devices":[{"class":"DEVICE","path":"/dev/ttyUSB0","driver":"SiRF","subtype":"9\u0006GSD4e_4.1.2-P1_RPATCH.05-F-GPS-4R-1510281 11/03/2015 307","activated":"2017-12-01T19:01:29.960Z","flags":1,"native":1,"bps":4800,"parity":"N","stopbits":1,"cycle":1.00}]}
2017-12-01 14:01:29 1512154889.968911: {"class":"WATCH","enable":true,"json":false,"nmea":true,"raw":0,"scaled":false,"timing":false,"split24":false,"pps":false}
2017-12-01 14:01:31 1512154891.004494: $GPZDA,190131.30,01,12,2017,00,00*68
2017-12-01 14:01:31 1512154891.004652: $GPGGA,190131,3946.9540,N,08404.9788,W,1,12,0.80,315.83,M,-33.324,M,,*72
2017-12-01 14:01:31 1512154891.004719: $GPRMC,190131,A,3946.9540,N,08404.9788,W,0.1324,22.230,011217,,*03
2017-12-01 14:01:31 1512154891.004781: $GPGSA,A,3,10,14,15,18,20,21,24,27,32,8,12,138,2.0,0.8,1.5*37
2017-12-01 14:01:32 1512154892.168298: $GPGSV,3,1,12,08,08,303,37,10,60,319,50,14,21,246,40,15,18,061,39*77
2017-12-01 14:01:32 1512154892.168483: $GPGSV,3,2,12,18,76,063,41,20,16,112,41,21,39,180,44,24,50,070,47*76
2017-12-01 14:01:32 1512154892.168550: $GPGSV,3,3,12,27,11,268,42,32,39,256,42,12,03,114,05,138,38,213,44*49
2017-12-01 14:01:32 1512154892.281743: $GPZDA,190132.00,01,12,2017,00,00*68
2017-12-01 14:01:32 1512154892.281969: $GPGGA,190132,3946.9540,N,08404.9788,W,1,11,0.80,315.83,M,-33.324,M,,*72
2017-12-01 14:01:32 1512154892.282115: $GPRMC,190132,A,3946.9540,N,08404.9788,W,0.0407,142.014,011217,,*34
2017-12-01 14:01:32 1512154892.282245: $GPGSA,A,3,8,10,14,15,18,20,21,24,27,32,138,,2.0,0.8,1.5*34
2017-12-01 14:01:32 1512154892.733783: $GPZDA,190133.00,01,12,2017,00,00*69
2017-12-01 14:01:32 1512154892.733956: $GPGGA,190133,3946.9540,N,08404.9788,W,1,11,0.80,315.83,M,-33.324,M,,*73
2017-12-01 14:01:32 1512154892.734023: $GPRMC,190133,A,3946.9540,N,08404.9788,W,0.0407,142.014,011217,,*35
2017-12-01 14:01:32 1512154892.734105: $GPGSA,A,3,8,10,14,15,18,20,21,24,27,32,138,,2.0,0.8,1.5*34
2017-12-01 14:01:33 1512154893.410956: $GPZDA,190134.00,01,12,2017,00,00*6E
2017-12-01 14:01:33 1512154893.411144: $GPGGA,190134,3946.9540,N,08404.9794,W,1,11,0.80,314.34,M,-33.324,M,,*74
2017-12-01 14:01:33 1512154893.411227: $GPRMC,190134,A,3946.9540,N,08404.9794,W,0.1567,9.200,011217,,*30
2017-12-01 14:01:33 1512154893.411289: $GPGSA,A,3,8,10,14,15,18,20,21,24,27,32,138,,2.0,0.8,1.5*34
2017-12-01 14:01:34 1512154894.747389: $GPGSV,3,1,12,08,08,303,11,10,60,319,15,14,21,246,12,15,18,061,12*7C
2017-12-01 14:01:34 1512154894.747580: $GPGSV,3,2,12,18,76,063,12,20,16,112,12,21,39,180,13,24,50,070,14*72
2017-12-01 14:01:34 1512154894.747667: $GPGSV,3,3,12,27,11,268,12,32,39,256,13,12,03,114,04,138,38,213,16*4E
2017-12-01 14:01:34 1512154894.860780: $GPZDA,190135.00,01,12,2017,00,00*6F
2017-12-01 14:01:34 1512154894.860956: $GPGGA,190135,3946.9543,N,08404.9794,W,1,12,0.80,313.58,M,-33.324,M,,*78
2017-12-01 14:01:34 1512154894.861023: $GPRMC,190135,A,3946.9543,N,08404.9794,W,0.1867,180.000,011217,,*3D
2017-12-01 14:01:34 1512154894.861115: $GPGSA,A,3,8,10,14,15,18,20,21,24,27,32,12,138,2.0,0.8,1.5*37
2017-12-01 14:01:35 1512154895.411717: $GPZDA,190136.00,01,12,2017,00,00*6C
2017-12-01 14:01:35 1512154895.411891: $GPGGA,190136,3946.9544,N,08404.9801,W,1,12,0.80,313.50,M,-33.324,M,,*77
2017-12-01 14:01:35 1512154895.411958: $GPRMC,190136,A,3946.9544,N,08404.9801,W,0.1867,180.000,011217,,*3A
2017-12-01 14:01:35 1512154895.412019: $GPGSA,A,3,8,10,14,15,18,20,21,24,27,32,12,138,2.0,0.8,1.5*37
2017-12-01 14:01:36 1512154896.411190: $GPZDA,190137.00,01,12,2017,00,00*6D
2017-12-01 14:01:36 1512154896.411485: $GPGGA,190137,3946.9547,N,08404.9800,W,1,12,0.80,312.74,M,-33.324,M,,*73
2017-12-01 14:01:36 1512154896.411566: $GPRMC,190137,A,3946.9547,N,08404.9800,W,0.1567,9.200,011217,,*36
2017-12-01 14:01:36 1512154896.411628: $GPGSA,A,3,8,10,14,15,18,20,21,24,27,32,12,138,2.0,0.8,1.5*37
2017-12-01 14:01:36 1512154896.411687: $GPGBS,190137,10.70,M,15.43,M,35.28,M*0A
2017-12-01 14:01:37 1512154897.747117: $GPGSV,3,1,12,08,08,303,37,10,60,319,49,14,21,246,39,15,18,061,40*7F
2017-12-01 14:01:37 1512154897.747318: $GPGSV,3,2,12,18,76,063,42,20,16,112,42,21,39,180,44,24,50,070,48*79
2017-12-01 14:01:37 1512154897.747384: $GPGSV,3,3,12,27,11,268,42,32,39,256,43,12,03,114,18,138,38,213,46*46
2017-12-01 14:01:37 1512154897.860380: $GPZDA,190138.00,01,12,2017,00,00*62
2017-12-01 14:01:37 1512154897.860551: $GPGGA,190138,3946.9547,N,08404.9806,W,1,12,0.80,311.25,M,-33.324,M,,*7D
2017-12-01 14:01:37 1512154897.860617: $GPRMC,190138,A,3946.9547,N,08404.9806,W,0.0000,0.000,011217,,*31
2017-12-01 14:01:37 1512154897.860678: $GPGSA,A,3,8,10,14,15,18,20,21,24,27,32,12,138,2.0,0.8,1.5*37
2017-12-01 14:01:38 1512154898.412446: $GPZDA,190139.00,01,12,2017,00,00*63
2017-12-01 14:01:38 1512154898.412620: $GPGGA,190139,3946.9547,N,08404.9806,W,1,12,0.80,311.25,M,-33.324,M,,*7C
2017-12-01 14:01:38 1512154898.412687: $GPRMC,190139,A,3946.9547,N,08404.9806,W,0.0000,0.000,011217,,*30
2017-12-01 14:01:38 1512154898.412748: $GPGSA,A,3,8,10,14,15,18,20,21,24,27,32,12,138,2.0,0.8,1.5*37
2017-12-01 14:01:39 1512154899.412887: $GPZDA,190140.00,01,12,2017,00,00*6D
2017-12-01 14:01:39 1512154899.413082: $GPGGA,190140,3946.9550,N,08404.9805,W,1,12,0.80,310.49,M,-33.324,M,,*7C
2017-12-01 14:01:39 1512154899.413150: $GPRMC,190140,A,3946.9550,N,08404.9805,W,0.0000,0.000,011217,,*3B
2017-12-01 14:01:39 1512154899.413229: $GPGSA,A,3,8,10,14,15,18,20,21,24,27,32,12,138,2.0,0.8,1.5*37
2017-12-01 14:01:40 1512154900.745986: $GPGSV,3,1,12,08,08,303,36,10,60,319,49,14,21,246,40,15,18,061,40*70
2017-12-01 14:01:40 1512154900.746202: $GPGSV,3,2,12,18,76,063,42,20,16,112,42,21,39,180,44,24,50,070,48*79
2017-12-01 14:01:40 1512154900.746269: $GPGSV,3,3,12,27,11,268,42,32,39,256,43,12,03,114,17,138,38,213,47*48
2017-12-01 14:01:40 1512154900.859385: $GPZDA,190141.00,01,12,2017,00,00*6C
2017-12-01 14:01:40 1512154900.859530: $GPGGA,190141,3946.9550,N,08404.9805,W,1,12,0.80,310.49,M,-33.324,M,,*7D
2017-12-01 14:01:40 1512154900.859596: $GPRMC,190141,A,3946.9550,N,08404.9805,W,0.0000,0.000,011217,,*3A
2017-12-01 14:01:40 1512154900.859656: $GPGSA,A,3,8,10,14,15,18,20,21,24,27,32,12,138,2.0,0.8,1.5*37
2017-12-01 14:01:41 1512154901.411794: $GPZDA,190142.00,01,12,2017,00,00*6F
2017-12-01 14:01:41 1512154901.411961: $GPGGA,190142,3946.9561,N,08404.9830,W,2,12,1.40,306.47,M,-33.324,M,,*7D
2017-12-01 14:01:41 1512154901.412060: $GPRMC,190142,A,3946.9561,N,08404.9830,W,0.0000,0.000,011217,,*3D
2017-12-01 14:01:41 1512154901.412123: $GPGSA,A,3,8,10,14,15,18,20,21,24,27,32,12,138,2.0,1.4,1.5*3A
2017-12-01 14:01:42 1512154902.413633: $GPZDA,190143.00,01,12,2017,00,00*6E
2017-12-01 14:01:42 1512154902.413816: $GPGGA,190143,3946.9561,N,08404.9830,W,2,12,1.40,306.47,M,-33.324,M,,*7C
2017-12-01 14:01:42 1512154902.413884: $GPRMC,190143,A,3946.9561,N,08404.9830,W,0.0000,0.000,011217,,*3C
2017-12-01 14:01:42 1512154902.413945: $GPGSA,A,3,8,10,14,15,18,20,21,24,27,32,12,138,2.0,1.4,1.5*3A
2017-12-01 14:01:43 1512154903.752316: $GPGSV,3,1,12,08,08,303,36,10,60,319,50,14,21,246,40,15,18,061,40*78
2017-12-01 14:01:43 1512154903.752501: $GPGSV,3,2,12,18,76,063,42,20,16,112,42,21,39,180,44,24,50,070,48*79
2017-12-01 14:01:43 1512154903.752569: $GPGSV,3,3,12,27,11,268,42,32,39,256,44,12,03,114,18,138,38,213,47*40
2017-12-01 14:01:43 1512154903.862013: $GPZDA,190144.00,01,12,2017,00,00*69
2017-12-01 14:01:43 1512154903.862200: $GPGGA,190144,3946.9561,N,08404.9830,W,2,12,1.40,306.47,M,-33.324,M,,*7B
2017-12-01 14:01:43 1512154903.862268: $GPRMC,190144,A,3946.9561,N,08404.9830,W,0.0000,0.000,011217,,*3B
2017-12-01 14:01:43 1512154903.862329: $GPGSA,A,3,8,10,14,15,18,20,21,24,27,32,12,138,2.0,1.4,1.5*3A
2017-12-01 14:01:44 1512154904.486843: $GPZDA,190145.00,01,12,2017,00,00*68
2017-12-01 14:01:44 1512154904.487045: $GPGGA,190145,3946.9561,N,08404.9830,W,2,12,1.40,306.47,M,-33.324,M,,*7A
2017-12-01 14:01:44 1512154904.487116: $GPRMC,190145,A,3946.9561,N,08404.9830,W,0.0000,0.000,011217,,*3A
2017-12-01 14:01:44 1512154904.487263: $GPGSA,A,3,8,10,14,15,18,20,21,24,27,32,12,138,2.0,1.4,1.5*3A
