2018-01-12 04:07:56 1515748076.694758: {"class":"VERSION","release":"3.16","rev":"3.16-4","proto_major":3,"proto_minor":11}
2018-01-12 04:07:56 1515748076.695119: {"class":"DEVICES","devices":[{"class":"DEVICE","path":"/dev/ttyUSB0","driver":"SiRF","subtype":"9\u0006GSD4e_4.1.2-P1_RPATCH.05-F-GPS-4R-1510281 11/03/2015 307","activated":"2018-01-12T09:07:56.281Z","flags":1,"native":1,"bps":4800,"parity":"N","stopbits":1,"cycle":1.00}]}
2018-01-12 04:07:56 1515748076.695232: {"class":"WATCH","enable":true,"json":false,"nmea":true,"raw":0,"scaled":false,"timing":false,"split24":false,"pps":false}
2018-01-12 04:07:56 1515748076.888398: $GPZDA,090757.57,12,01,2018,00,00*61
2018-01-12 04:07:56 1515748076.888573: $GPGGA,090757,3946.9642,N,08404.9739,W,1,10,1.60,293.21,M,-33.324,M,,*74
2018-01-12 04:07:56 1515748076.888640: $GPRMC,090757,A,3946.9642,N,08404.9739,W,0.4106,230.498,120118,,*32
2018-01-12 04:07:56 1515748076.888701: $GPGSA,A,3,2,5,6,12,25,29,9,19,23,138,,,2.4,1.6,2.1*04
2018-01-12 04:07:56 1515748076.888759: $GPGBS,090757,11.98,M,14.47,M,47.88,M*06
2018-01-12 04:07:58 1515748078.156546: $GPGSV,3,1,12,02,71,327,36,05,43,198,39,06,52,048,37,12,53,262,35*7B
2018-01-12 04:07:58 1515748078.156709: $GPGSV,3,2,12,25,29,307,33,29,06,304,31,19,37,109,00,17,19,117,00*76
2018-01-12 04:07:58 1515748078.156775: $GPGSV,3,3,12,09,19,073,00,23,07,042,00,04,50,277,00,138,38,213,00*4D
2018-01-12 04:07:58 1515748078.270019: $GPZDA,090758.26,12,01,2018,00,00*68
2018-01-12 04:07:58 1515748078.270190: $GPGGA,090758,3946.9639,N,08404.9753,W,1,06,1.60,292.41,M,-33.324,M,,*7B
2018-01-12 04:07:58 1515748078.270257: $GPRMC,090758,A,3946.9639,N,08404.9753,W,0.4137,224.854,120118,,*36
2018-01-12 04:07:58 1515748078.270322: $GPGSA,A,3,2,5,6,12,25,29,,,,,,,2.4,1.6,2.1*0E
2018-01-12 04:07:59 1515748079.076467: $GPZDA,090759.00,12,01,2018,00,00*6D
2018-01-12 04:07:59 1515748079.076647: $GPGGA,090759,3946.9643,N,08404.9753,W,1,06,1.60,293.05,M,-33.324,M,,*76
2018-01-12 04:07:59 1515748079.076714: $GPRMC,090759,A,3946.9643,N,08404.9753,W,0.2710,280.223,120118,,*3B
2018-01-12 04:07:59 1515748079.076777: $GPGSA,A,3,2,5,6,12,25,29,,,,,,,2.4,1.6,2.1*0E
2018-01-12 04:07:59 1515748079.076834: $GPGBS,090759,11.98,M,14.47,M,47.88,M*08
2018-01-12 04:07:59 1515748079.527375: $GPZDA,090800.00,12,01,2018,00,00*6E
2018-01-12 04:07:59 1515748079.527549: $GPGGA,090800,3946.9643,N,08404.9753,W,1,06,1.00,293.05,M,-33.324,M,,*73
2018-01-12 04:07:59 1515748079.527617: $GPRMC,090800,A,3946.9643,N,08404.9753,W,0.0407,322.013,120118,,*37
2018-01-12 04:07:59 1515748079.527680: $GPGSA,A,3,2,5,6,12,25,29,,,,,,,2.4,1.0,2.1*08
2018-01-12 04:07:59 1515748079.527737: $GPGBS,090800,11.98,M,14.47,M,47.88,M*0B
2018-01-12 04:08:00 1515748080.717936: $GPGSV,3,1,12,02,71,327,46,05,43,198,50,06,52,048,47,12,53,262,44*72
2018-01-12 04:08:00 1515748080.718127: $GPGSV,3,2,12,25,29,307,42,29,06,304,41,09,19,073,21,19,37,109,16*7F
2018-01-12 04:08:00 1515748080.718197: $GPGSV,3,3,12,23,07,042,26,17,19,117,00,04,50,277,00,138,38,213,41*40
2018-01-12 04:08:00 1515748080.831354: $GPZDA,090801.00,12,01,2018,00,00*6F
2018-01-12 04:08:00 1515748080.831533: $GPGGA,090801,3946.9639,N,08404.9753,W,1,10,1.00,293.82,M,-33.324,M,,*77
2018-01-12 04:08:00 1515748080.831602: $GPRMC,090801,A,3946.9639,N,08404.9753,W,0.0000,0.000,120118,,*39
2018-01-12 04:08:00 1515748080.831667: $GPGSA,A,3,2,5,6,12,25,29,9,19,23,138,,,2.4,1.0,2.1*02
2018-01-12 04:08:01 1515748081.456938: $GPZDA,090802.00,12,01,2018,00,00*6C
2018-01-12 04:08:01 1515748081.457148: $GPGGA,090802,3946.9643,N,08404.9753,W,1,10,1.00,294.46,M,-33.324,M,,*76
2018-01-12 04:08:01 1515748081.457220: $GPRMC,090802,A,3946.9643,N,08404.9753,W,0.0000,0.000,120118,,*37
2018-01-12 04:08:01 1515748081.457286: $GPGSA,A,3,2,5,6,12,25,29,9,19,23,138,,,2.4,1.0,2.1*02
2018-01-12 04:08:02 1515748082.384133: $GPZDA,090803.00,12,01,2018,00,00*6D
2018-01-12 04:08:02 1515748082.384374: $GPGGA,090803,3946.9643,N,08404.9753,W,1,10,1.00,294.46,M,-33.324,M,,*77
2018-01-12 04:08:02 1515748082.384463: $GPRMC,090803,A,3946.9643,N,08404.9753,W,0.0000,0.000,120118,,*36
2018-01-12 04:08:02 1515748082.384598: $GPGSA,A,3,2,5,6,12,25,29,9,19,23,138,,,2.4,1.0,2.1*02
2018-01-12 04:08:03 1515748083.720691: $GPGSV,3,1,12,02,71,327,14,05,43,198,15,06,52,048,14,12,53,262,13*70
2018-01-12 04:08:03 1515748083.720867: $GPGSV,3,2,12,25,29,307,12,29,06,304,13,09,19,073,05,19,37,109,05*79
2018-01-12 04:08:03 1515748083.720933: $GPGSV,3,3,12,23,07,042,08,17,19,117,01,04,50,277,00,138,38,213,16*4F
2018-01-12 04:08:03 1515748083.834100: $GPZDA,090804.00,12,01,2018,00,00*6A
2018-01-12 04:08:03 1515748083.834370: $GPGGA,090804,3946.9640,N,08404.9754,W,1,10,1.00,295.22,M,-33.324,M,,*77
2018-01-12 04:08:03 1515748083.834462: $GPRMC,090804,A,3946.9640,N,08404.9754,W,0.3423,184.197,120118,,*31
2018-01-12 04:08:03 1515748083.834526: $GPGSA,A,3,2,5,6,12,25,29,9,19,23,138,,,2.4,1.0,2.1*02
2018-01-12 04:08:04 1515748084.379971: $GPZDA,090805.00,12,01,2018,00,00*6B
2018-01-12 04:08:04 1515748084.380128: $GPGGA,090805,3946.9640,N,08404.9761,W,1,10,1.00,295.14,M,-33.324,M,,*75
2018-01-12 04:08:04 1515748084.380194: $GPRMC,090805,A,3946.9640,N,08404.9761,W,0.1567,189.200,120118,,*35
2018-01-12 04:08:04 1515748084.380277: $GPGSA,A,3,2,5,6,12,25,29,9,19,23,138,,,2.4,1.0,2.1*02
2018-01-12 04:08:05 1515748085.383329: $GPZDA,090806.00,12,01,2018,00,00*68
2018-01-12 04:08:05 1515748085.383529: $GPGGA,090806,3946.9640,N,08404.9754,W,1,10,1.00,295.22,M,-33.324,M,,*75
2018-01-12 04:08:05 1515748085.383600: $GPRMC,090806,A,3946.9640,N,08404.9754,W,0.0000,0.000,120118,,*37
2018-01-12 04:08:05 1515748085.383665: $GPGSA,A,3,2,5,6,12,25,29,9,19,23,138,,,2.4,1.0,2.1*02
2018-01-12 04:08:06 1515748086.716078: $GPGSV,3,1,12,02,71,327,45,05,43,198,50,06,52,048,47,12,53,262,45*70
2018-01-12 04:08:06 1515748086.716281: $GPGSV,3,2,12,25,29,307,41,29,06,304,44,09,19,073,11,19,37,109,00*7D
2018-01-12 04:08:06 1515748086.716367: $GPGSV,3,3,12,23,07,042,28,17,19,117,00,04,50,277,00,138,38,213,48*47
2018-01-12 04:08:06 1515748086.829589: $GPZDA,090807.00,12,01,2018,00,00*69
2018-01-12 04:08:06 1515748086.829761: $GPGGA,090807,3946.9644,N,08404.9754,W,1,09,1.00,295.86,M,-33.324,M,,*76
2018-01-12 04:08:06 1515748086.829830: $GPRMC,090807,A,3946.9644,N,08404.9754,W,0.0000,0.000,120118,,*32
2018-01-12 04:08:06 1515748086.829894: $GPGSA,A,3,2,5,6,12,25,29,9,23,138,,,,2.4,1.0,2.1*0A
2018-01-12 04:08:07 1515748087.380314: $GPZDA,090808.00,12,01,2018,00,00*66
2018-01-12 04:08:07 1515748087.380505: $GPGGA,090808,3946.9641,N,08404.9755,W,1,09,1.00,296.63,M,-33.324,M,,*75
2018-01-12 04:08:07 1515748087.380574: $GPRMC,090808,A,3946.9641,N,08404.9755,W,0.0000,0.000,120118,,*39
2018-01-12 04:08:07 1515748087.380638: $GPGSA,A,3,2,5,6,12,25,29,9,23,138,,,,2.4,1.0,2.1*0A
2018-01-12 04:08:08 1515748088.380244: $GPZDA,090809.00,12,01,2018,00,00*67
2018-01-12 04:08:08 1515748088.380438: $GPGGA,090809,3946.9641,N,08404.9755,W,1,09,1.00,296.63,M,-33.324,M,,*74
2018-01-12 04:08:08 1515748088.380508: $GPRMC,090809,A,3946.9641,N,08404.9755,W,0.1867,0.000,120118,,*30
2018-01-12 04:08:08 1515748088.380572: $GPGSA,A,3,2,5,6,12,25,29,9,23,138,,,,2.4,1.0,2.1*0A
2018-01-12 04:08:09 1515748089.719554: $GPGSV,3,1,12,02,71,327,45,05,43,198,50,06,52,048,47,12,53,262,46*73
2018-01-12 04:08:09 1515748089.719736: $GPGSV,3,2,12,25,29,307,40,29,06,304,44,09,19,073,17,19,37,109,02*78
2018-01-12 04:08:09 1515748089.719804: $GPGSV,3,3,12,23,07,042,28,17,19,117,00,04,50,277,00,138,38,213,48*47
2018-01-12 04:08:09 1515748089.833226: $GPZDA,090810.00,12,01,2018,00,00*6F
2018-01-12 04:08:09 1515748089.833410: $GPGGA,090810,3946.9653,N,08404.9755,W,2,09,2.60,298.55,M,-33.324,M,,*72
2018-01-12 04:08:09 1515748089.833482: $GPRMC,090810,A,3946.9653,N,08404.9755,W,0.0000,0.000,120118,,*33
2018-01-12 04:08:09 1515748089.833547: $GPGSA,A,3,2,5,6,12,25,29,9,23,138,,,,2.4,2.6,2.1*0F
2018-01-12 04:08:10 1515748090.383776: $GPZDA,090811.00,12,01,2018,00,00*6E
2018-01-12 04:08:10 1515748090.383988: $GPGGA,090811,3946.9653,N,08404.9755,W,2,09,1.20,298.55,M,-33.324,M,,*74
2018-01-12 04:08:10 1515748090.384061: $GPRMC,090811,A,3946.9653,N,08404.9755,W,0.0000,0.000,120118,,*32
2018-01-12 04:08:10 1515748090.384269: $GPGSA,A,3,2,5,6,12,25,29,9,23,138,,,,2.4,1.2,2.1*08
2018-01-12 04:08:11 1515748091.381968: $GPZDA,090812.00,12,01,2018,00,00*6D
2018-01-12 04:08:11 1515748091.382133: $GPGGA,090812,3946.9653,N,08404.9755,W,2,09,1.00,298.55,M,-33.324,M,,*75
2018-01-12 04:08:11 1515748091.382199: $GPRMC,090812,A,3946.9653,N,08404.9755,W,0.0000,0.000,120118,,*31
2018-01-12 04:08:11 1515748091.382266: $GPGSA,A,3,2,5,6,12,25,29,9,23,138,,,,2.4,1.0,2.1*0A
2018-01-12 04:08:12 1515748092.717408: $GPGSV,3,1,12,02,71,327,45,05,43,198,50,06,52,048,47,12,53,262,46*73
2018-01-12 04:08:12 1515748092.717592: $GPGSV,3,2,12,25,29,307,40,29,06,304,43,09,19,073,24,19,37,109,00*7D
2018-01-12 04:08:12 1515748092.717659: $GPGSV,3,3,12,23,07,042,28,17,19,117,00,04,50,277,00,138,38,213,48*47
2018-01-12 04:08:12 1515748092.830934: $GPZDA,090813.00,12,01,2018,00,00*6C
2018-01-12 04:08:12 1515748092.831161: $GPGGA,090813,3946.9653,N,08404.9755,W,2,09,1.00,298.55,M,-33.324,M,,*74
2018-01-12 04:08:12 1515748092.831239: $GPRMC,090813,A,3946.9653,N,08404.9755,W,0.0000,0.000,120118,,*30
2018-01-12 04:08:12 1515748092.831309: $GPGSA,A,3,2,5,6,12,25,29,9,23,138,,,,2.4,1.0,2.1*0A
2018-01-12 04:08:13 1515748093.384498: $GPZDA,090814.00,12,01,2018,00,00*6B
2018-01-12 04:08:13 1515748093.384752: $GPGGA,090814,3946.9653,N,08404.9755,W,2,09,1.00,298.55,M,-33.324,M,,*73
2018-01-12 04:08:13 1515748093.384819: $GPRMC,090814,A,3946.9653,N,08404.9755,W,0.0000,0.000,120118,,*37
2018-01-12 04:08:13 1515748093.384882: $GPGSA,A,3,2,5,6,12,25,29,9,23,138,,,,2.4,1.0,2.1*0A
2018-01-12 04:08:14 1515748094.381558: $GPZDA,090815.00,12,01,2018,00,00*6A
2018-01-12 04:08:14 1515748094.381730: $GPGGA,090815,3946.9653,N,08404.9755,W,2,09,0.80,298.55,M,-33.324,M,,*7B
2018-01-12 04:08:14 1515748094.381797: $GPRMC,090815,A,3946.9653,N,08404.9755,W,0.0000,0.000,120118,,*36
2018-01-12 04:08:14 1515748094.381860: $GPGSA,A,3,2,5,6,12,25,29,9,23,138,,,,2.4,0.8,2.1*03
2018-01-12 04:08:15 1515748095.719477: $GPGSV,3,1,12,02,71,327,44,05,43,198,50,06,52,048,46,12,53,262,46*73
2018-01-12 04:08:15 1515748095.719672: $GPGSV,3,2,12,25,29,307,40,29,06,304,43,09,19,073,24,17,19,117,26*74
2018-01-12 04:08:15 1515748095.719744: $GPGSV,3,3,12,23,07,042,22,19,37,109,00,04,50,277,00,138,38,213,47*4F
2018-01-12 04:08:15 1515748095.832981: $GPZDA,090816.00,12,01,2018,00,00*69
2018-01-12 04:08:15 1515748095.833157: $GPGGA,090816,3946.9657,N,08404.9755,W,2,10,0.80,299.19,M,-33.324,M,,*7D
2018-01-12 04:08:15 1515748095.833229: $GPRMC,090816,A,3946.9657,N,08404.9755,W,0.0000,0.000,120118,,*31
2018-01-12 04:08:15 1515748095.833295: $GPGSA,A,3,2,5,6,12,25,29,9,17,23,138,,,2.4,0.8,2.1*05
2018-01-12 04:08:16 1515748096.458289: $GPZDA,090817.00,12,01,2018,00,00*68
2018-01-12 04:08:16 1515748096.458477: $GPGGA,090817,3946.9657,N,08404.9755,W,2,10,0.80,299.19,M,-33.324,M,,*7C
2018-01-12 04:08:16 1515748096.458549: $GPRMC,090817,A,3946.9657,N,08404.9755,W,0.0000,0.000,120118,,*30
2018-01-12 04:08:16 1515748096.458615: $GPGSA,A,3,2,5,6,12,25,29,9,17,23,138,,,2.4,0.8,2.1*05
