2017-12-01 11:57:58 1512147478.436693: {"class":"VERSION","release":"3.16","rev":"3.16-4","proto_major":3,"proto_minor":11}
2017-12-01 11:57:58 1512147478.437122: {"class":"DEVICES","devices":[{"class":"DEVICE","path":"/dev/ttyUSB0","driver":"SiRF","subtype":"9\u0006GSD4e_4.1.2-P1_RPATCH.05-F-GPS-4R-1510281 11/03/2015 307","activated":"2017-12-01T16:57:58.418Z","flags":1,"native":1,"bps":4800,"parity":"N","stopbits":1,"cycle":1.00}]}
2017-12-01 11:57:58 1512147478.437252: {"class":"WATCH","enable":true,"json":false,"nmea":true,"raw":0,"scaled":false,"timing":false,"split24":false,"pps":false}
2017-12-01 11:57:58 1512147478.531383: $GPZDA,165759.22,01,12,2017,00,00*69
2017-12-01 11:57:58 1512147478.531538: $GPGGA,165759,3946.9608,N,08404.9816,W,1,11,0.80,300.83,M,-33.324,M,,*70
2017-12-01 11:57:58 1512147478.531603: $GPRMC,165759,A,3946.9608,N,08404.9816,W,0.1567,189.200,011217,,*34
2017-12-01 11:57:58 1512147478.531665: $GPGSA,A,3,10,13,15,18,20,21,24,27,29,5,138,,2.0,0.8,1.5*34
2017-12-01 11:57:59 1512147479.799562: $GPGSV,3,1,12,10,17,277,30,13,37,046,36,15,69,058,36,18,48,291,35*75
2017-12-01 11:57:59 1512147479.799750: $GPGSV,3,2,12,20,58,060,36,21,73,297,36,24,26,144,38,27,12,319,30*7F
2017-12-01 11:57:59 1512147479.799818: $GPGSV,3,3,12,29,18,192,35,04,07,133,05,05,09,081,00,138,38,213,00*47
2017-12-01 11:57:59 1512147479.913448: $GPZDA,165759.90,01,12,2017,00,00*60
2017-12-01 11:57:59 1512147479.913646: $GPGGA,165759,3946.9608,N,08404.9816,W,1,09,0.80,300.83,M,-33.324,M,,*79
2017-12-01 11:57:59 1512147479.913714: $GPRMC,165759,A,3946.9608,N,08404.9816,W,0.0407,322.013,011217,,*31
2017-12-01 11:57:59 1512147479.913775: $GPGSA,A,3,10,13,15,18,20,21,24,27,29,,,,2.0,0.8,1.5*3B
2017-12-01 11:58:00 1512147480.719452: $GPZDA,165801.00,01,12,2017,00,00*6B
2017-12-01 11:58:00 1512147480.719637: $GPGGA,165801,3946.9608,N,08404.9816,W,1,09,0.80,300.83,M,-33.324,M,,*7B
2017-12-01 11:58:00 1512147480.719705: $GPRMC,165801,A,3946.9608,N,08404.9816,W,0.3106,249.940,011217,,*37
2017-12-01 11:58:00 1512147480.719767: $GPGSA,A,3,10,13,15,18,20,21,24,27,29,,,,2.0,0.8,1.5*3B
2017-12-01 11:58:00 1512147480.719825: $GPGBS,165801,10.70,M,15.43,M,35.28,M*0C
2017-12-01 11:58:01 1512147481.321701: $GPZDA,165802.00,01,12,2017,00,00*68
2017-12-01 11:58:01 1512147481.321870: $GPGGA,165802,3946.9604,N,08404.9823,W,1,09,0.80,300.11,M,-33.324,M,,*79
2017-12-01 11:58:01 1512147481.321936: $GPRMC,165802,A,3946.9604,N,08404.9823,W,0.0000,0.000,011217,,*38
2017-12-01 11:58:01 1512147481.321997: $GPGSA,A,3,10,13,15,18,20,21,24,27,29,,,,2.0,0.8,1.5*3B
2017-12-01 11:58:01 1512147481.322054: $GPGBS,165802,10.70,M,15.43,M,35.28,M*0F
2017-12-01 11:58:02 1512147482.656042: $GPGSV,3,1,12,10,17,277,39,13,37,046,44,15,69,058,45,18,48,291,45*7A
2017-12-01 11:58:02 1512147482.656225: $GPGSV,3,2,12,20,58,061,45,21,73,297,45,24,26,144,47,27,12,319,38*7E
2017-12-01 11:58:02 1512147482.656292: $GPGSV,3,3,12,29,18,192,44,04,07,133,00,05,09,081,29,138,38,213,48*43
2017-12-01 11:58:02 1512147482.769566: $GPZDA,165803.00,01,12,2017,00,00*69
2017-12-01 11:58:02 1512147482.769764: $GPGGA,165803,3946.9603,N,08404.9822,W,1,11,0.80,298.71,M,-33.324,M,,*71
2017-12-01 11:58:02 1512147482.769831: $GPRMC,165803,A,3946.9603,N,08404.9822,W,0.0000,0.000,011217,,*3F
2017-12-01 11:58:02 1512147482.769893: $GPGSA,A,3,10,13,15,18,20,21,24,27,29,5,138,,2.0,0.8,1.5*34
2017-12-01 11:58:03 1512147483.394768: $GPZDA,165804.00,01,12,2017,00,00*6E
2017-12-01 11:58:03 1512147483.394974: $GPGGA,165804,3946.9603,N,08404.9822,W,1,11,0.80,298.71,M,-33.324,M,,*76
2017-12-01 11:58:03 1512147483.395061: $GPRMC,165804,A,3946.9603,N,08404.9822,W,0.0000,0.000,011217,,*38
2017-12-01 11:58:03 1512147483.395125: $GPGSA,A,3,10,13,15,18,20,21,24,27,29,5,138,,2.0,0.8,1.5*34
2017-12-01 11:58:04 1512147484.321860: $GPZDA,165805.00,01,12,2017,00,00*6F
2017-12-01 11:58:04 1512147484.322029: $GPGGA,165805,3946.9599,N,08404.9822,W,1,11,0.80,298.07,M,-33.324,M,,*76
2017-12-01 11:58:04 1512147484.322096: $GPRMC,165805,A,3946.9599,N,08404.9822,W,0.2422,93.794,011217,,*0F
2017-12-01 11:58:04 1512147484.322157: $GPGSA,A,3,10,13,15,18,20,21,24,27,29,5,138,,2.0,0.8,1.5*34
2017-12-01 11:58:04 1512147484.322267: $GPGBS,165805,10.70,M,15.43,M,35.28,M*08
2017-12-01 11:58:05 1512147485.656376: $GPGSV,3,1,12,10,17,277,40,13,37,046,44,15,69,058,45,18,48,291,45*74
2017-12-01 11:58:05 1512147485.656576: $GPGSV,3,2,12,20,58,061,44,21,73,297,45,24,26,144,46,27,12,319,40*71
2017-12-01 11:58:05 1512147485.656644: $GPGSV,3,3,12,29,18,192,43,04,07,133,00,05,09,081,30,138,38,213,48*4C
2017-12-01 11:58:05 1512147485.770103: $GPZDA,165806.00,01,12,2017,00,00*6C
2017-12-01 11:58:05 1512147485.770271: $GPGGA,165806,3946.9599,N,08404.9822,W,1,11,0.80,298.07,M,-33.324,M,,*75
2017-12-01 11:58:05 1512147485.770337: $GPRMC,165806,A,3946.9599,N,08404.9822,W,0.2758,128.233,011217,,*3B
2017-12-01 11:58:05 1512147485.770398: $GPGSA,A,3,10,13,15,18,20,21,24,27,29,5,138,,2.0,0.8,1.5*34
2017-12-01 11:58:06 1512147486.320636: $GPZDA,165807.00,01,12,2017,00,00*6D
2017-12-01 11:58:06 1512147486.320808: $GPGGA,165807,3946.9598,N,08404.9822,W,1,11,0.80,296.66,M,-33.324,M,,*7C
2017-12-01 11:58:06 1512147486.320874: $GPRMC,165807,A,3946.9598,N,08404.9822,W,0.0000,0.000,011217,,*3A
2017-12-01 11:58:06 1512147486.320935: $GPGSA,A,3,10,13,15,18,20,21,24,27,29,5,138,,2.0,0.8,1.5*34
2017-12-01 11:58:07 1512147487.321885: $GPZDA,165808.00,01,12,2017,00,00*62
2017-12-01 11:58:07 1512147487.322056: $GPGGA,165808,3946.9598,N,08404.9822,W,1,11,0.80,296.66,M,-33.324,M,,*73
2017-12-01 11:58:07 1512147487.322121: $GPRMC,165808,A,3946.9598,N,08404.9822,W,0.0000,0.000,011217,,*35
2017-12-01 11:58:07 1512147487.322183: $GPGSA,A,3,10,13,15,18,20,21,24,27,29,5,138,,2.0,0.8,1.5*34
