2017-11-16 17:14:41 1510870481.580619: {"class":"VERSION","release":"3.17","rev":"3.17","proto_major":3,"proto_minor":12}
2017-11-16 17:14:41 1510870481.581058: {"class":"DEVICES","devices":[{"class":"DEVICE","path":"/dev/ttyUSB0","driver":"SiRF","subtype":"9\u0006GSD4e_4.1.2-P1_RPATCH.05-F-GPS-4R-1510281 11/03/2015 307","activated":"2017-11-16T22:14:41.540Z","flags":1,"native":1,"bps":4800,"parity":"N","stopbits":1,"cycle":1.00}]}
2017-11-16 17:14:41 1510870481.581174: {"class":"WATCH","enable":true,"json":false,"nmea":true,"raw":0,"scaled":false,"timing":false,"split24":false,"pps":false}
2017-11-16 17:14:42 1510870482.737651: $GPGSV,3,1,12,01,19,309,40,10,57,142,48,22,12,312,42,12,24,058,49*77
2017-11-16 17:14:42 1510870482.737855: $GPGSV,3,2,12,14,62,310,47,18,26,141,44,24,04,046,15,11,10,289,40*70
2017-11-16 17:14:42 1510870482.737932: $GPGSV,3,3,12,25,36,102,46,31,46,219,48,32,70,001,48,138,38,213,44*45
2017-11-16 17:14:42 1510870482.849640: $GPZDA,221441.00,16,11,2017,00,00*65
2017-11-16 17:14:42 1510870482.849805: $GPGGA,221441,3946.9568,N,08404.9826,W,2,12,0.80,312.81,M,-33.324,M,,*7E
2017-11-16 17:14:42 1510870482.849865: $GPRMC,221441,A,3946.9568,N,08404.9826,W,0.0000,0.000,161117,,*39
2017-11-16 17:14:42 1510870482.849920: $GPGSA,A,3,1,10,22,12,14,18,24,11,25,31,32,138,1.6,0.8,1.3*38
2017-11-16 17:14:43 1510870483.400104: $GPZDA,221442.00,16,11,2017,00,00*66
2017-11-16 17:14:43 1510870483.400264: $GPGGA,221442,3946.9568,N,08404.9826,W,2,12,0.80,312.81,M,-33.324,M,,*7D
2017-11-16 17:14:43 1510870483.400324: $GPRMC,221442,A,3946.9568,N,08404.9826,W,0.0000,0.000,161117,,*3A
2017-11-16 17:14:43 1510870483.400380: $GPGSA,A,3,1,10,22,12,14,18,24,11,25,31,32,138,1.6,0.8,1.3*38
2017-11-16 17:14:44 1510870484.393489: $GPZDA,221443.00,16,11,2017,00,00*67
2017-11-16 17:14:44 1510870484.393650: $GPGGA,221443,3946.9568,N,08404.9819,W,2,12,0.80,312.89,M,-33.324,M,,*78
2017-11-16 17:14:44 1510870484.393710: $GPRMC,221443,A,3946.9568,N,08404.9819,W,0.0000,0.000,161117,,*37
2017-11-16 17:14:44 1510870484.393766: $GPGSA,A,3,1,10,22,12,14,18,24,11,25,31,32,138,1.6,0.8,1.3*38
2017-11-16 17:14:45 1510870485.735585: $GPGSV,3,1,12,01,19,309,40,10,57,142,48,22,12,312,43,12,24,058,49*76
2017-11-16 17:14:45 1510870485.735720: $GPGSV,3,2,12,14,62,310,47,18,26,141,43,24,04,046,15,11,10,289,41*76
2017-11-16 17:14:45 1510870485.735778: $GPGSV,3,3,12,25,36,102,47,31,46,219,48,32,70,001,48,138,38,213,44*44
2017-11-16 17:14:45 1510870485.848850: $GPZDA,221444.00,16,11,2017,00,00*60
2017-11-16 17:14:45 1510870485.849010: $GPGGA,221444,3946.9568,N,08404.9819,W,2,12,0.80,312.89,M,-33.324,M,,*7F
2017-11-16 17:14:45 1510870485.849070: $GPRMC,221444,A,3946.9568,N,08404.9819,W,0.0000,0.000,161117,,*30
2017-11-16 17:14:45 1510870485.849125: $GPGSA,A,3,1,10,22,12,14,18,24,11,25,31,32,138,1.6,0.8,1.3*38
2017-11-16 17:14:46 1510870486.474217: $GPZDA,221445.00,16,11,2017,00,00*61
2017-11-16 17:14:46 1510870486.474374: $GPGGA,221445,3946.9568,N,08404.9819,W,2,12,0.80,312.89,M,-33.324,M,,*7E
2017-11-16 17:14:46 1510870486.474435: $GPRMC,221445,A,3946.9568,N,08404.9819,W,0.0000,0.000,161117,,*31
2017-11-16 17:14:46 1510870486.474491: $GPGSA,A,3,1,10,22,12,14,18,24,11,25,31,32,138,1.6,0.8,1.3*38
2017-11-16 17:14:47 1510870487.400130: $GPZDA,221446.00,16,11,2017,00,00*62
2017-11-16 17:14:47 1510870487.400299: $GPGGA,221446,3946.9568,N,08404.9819,W,2,12,0.80,312.89,M,-33.324,M,,*7D
2017-11-16 17:14:47 1510870487.400362: $GPRMC,221446,A,3946.9568,N,08404.9819,W,0.0000,0.000,161117,,*32
2017-11-16 17:14:47 1510870487.400418: $GPGSA,A,3,1,10,22,12,14,18,24,11,25,31,32,138,1.6,0.8,1.3*38
2017-11-16 17:14:48 1510870488.737158: $GPGSV,3,1,12,01,19,309,40,10,57,142,48,22,12,312,42,12,24,058,49*77
2017-11-16 17:14:48 1510870488.737359: $GPGSV,3,2,12,14,62,310,47,18,26,141,43,24,04,046,17,11,10,289,41*74
2017-11-16 17:14:48 1510870488.737442: $GPGSV,3,3,12,25,36,102,46,31,46,219,48,32,70,001,48,138,38,213,43*42
2017-11-16 17:14:48 1510870488.850502: $GPZDA,221447.00,16,11,2017,00,00*63
2017-11-16 17:14:48 1510870488.850649: $GPGGA,221447,3946.9568,N,08404.9819,W,2,12,0.80,312.89,M,-33.324,M,,*7C
2017-11-16 17:14:48 1510870488.850763: $GPRMC,221447,A,3946.9568,N,08404.9819,W,0.0000,0.000,161117,,*33
2017-11-16 17:14:48 1510870488.850821: $GPGSA,A,3,1,10,22,12,14,18,24,11,25,31,32,138,1.6,0.8,1.3*38
2017-11-16 17:14:49 1510870489.400088: $GPZDA,221448.00,16,11,2017,00,00*6C
2017-11-16 17:14:49 1510870489.400256: $GPGGA,221448,3946.9568,N,08404.9819,W,2,12,0.80,312.89,M,-33.324,M,,*73
2017-11-16 17:14:49 1510870489.400318: $GPRMC,221448,A,3946.9568,N,08404.9819,W,0.0000,0.000,161117,,*3C
2017-11-16 17:14:49 1510870489.400373: $GPGSA,A,3,1,10,22,12,14,18,24,11,25,31,32,138,1.6,0.8,1.3*38
2017-11-16 17:14:50 1510870490.418788: $GPZDA,221449.00,16,11,2017,00,00*6D
2017-11-16 17:14:50 1510870490.418938: $GPGGA,221449,3946.9568,N,08404.9819,W,2,12,0.80,312.89,M,-33.324,M,,*72
2017-11-16 17:14:50 1510870490.418999: $GPRMC,221449,A,3946.9568,N,08404.9819,W,0.0000,0.000,161117,,*3D
2017-11-16 17:14:50 1510870490.419055: $GPGSA,A,3,1,10,22,12,14,18,24,11,25,31,32,138,1.6,0.8,1.3*38
