2017-12-31 18:03:51 1514761431.196187: {"class":"VERSION","release":"3.16","rev":"3.16-4","proto_major":3,"proto_minor":11}
2017-12-31 18:03:51 1514761431.196548: {"class":"DEVICES","devices":[{"class":"DEVICE","path":"/dev/ttyUSB0","driver":"SiRF","activated":"2017-12-31T23:03:50.516Z","flags":1,"native":1,"bps":4800,"parity":"N","stopbits":1,"cycle":1.00}]}
2017-12-31 18:03:51 1514761431.196656: {"class":"WATCH","enable":true,"json":false,"nmea":true,"raw":0,"scaled":false,"timing":false,"split24":false,"pps":false}
2017-12-31 18:03:51 1514761431.711341: $GPGSV,3,1,11,22,25,216,39,23,51,307,44,09,18,312,40,03,34,237,44*74
2017-12-31 18:03:51 1514761431.718659: $GPGSV,3,2,11,16,77,192,43,29,07,033,31,14,18,132,30,31,30,072,39*7D
2017-12-31 18:03:51 1514761431.718771: $GPGSV,3,3,11,27,19,156,28,26,65,052,49,135,22,240,43*77
2017-12-31 18:03:51 1514761431.825077: $GPZDA,230352.00,31,12,2017,00,00*66
2017-12-31 18:03:51 1514761431.825230: $GPGGA,230352,3946.9561,N,08404.9874,W,2,11,0.60,308.17,M,-33.324,M,,*7C
2017-12-31 18:03:51 1514761431.825296: $GPRMC,230352,A,3946.9561,N,08404.9874,W,0.0000,0.000,311217,,*34
2017-12-31 18:03:51 1514761431.825357: $GPGSA,A,3,22,23,9,3,16,29,14,31,27,26,135,,1.7,0.6,1.3*06
2017-12-31 18:03:52 1514761432.347237: $GPZDA,230353.00,31,12,2017,00,00*67
2017-12-31 18:03:52 1514761432.347402: $GPGGA,230353,3946.9561,N,08404.9874,W,2,11,0.60,308.17,M,-33.324,M,,*7D
2017-12-31 18:03:52 1514761432.347469: $GPRMC,230353,A,3946.9561,N,08404.9874,W,0.0000,0.000,311217,,*35
2017-12-31 18:03:52 1514761432.347530: $GPGSA,A,3,22,23,9,3,16,29,14,31,27,26,135,,1.7,0.6,1.3*06
2017-12-31 18:03:53 1514761433.346755: $GPZDA,230354.00,31,12,2017,00,00*60
2017-12-31 18:03:53 1514761433.346900: $GPGGA,230354,3946.9561,N,08404.9874,W,2,11,0.60,308.17,M,-33.324,M,,*7A
2017-12-31 18:03:53 1514761433.346967: $GPRMC,230354,A,3946.9561,N,08404.9874,W,0.0000,0.000,311217,,*32
2017-12-31 18:03:53 1514761433.347028: $GPGSA,A,3,22,23,9,3,16,29,14,31,27,26,135,,1.7,0.6,1.3*06
2017-12-31 18:03:54 1514761434.710921: $GPGSV,3,1,11,22,25,216,39,23,51,307,44,09,18,312,40,03,34,237,44*74
2017-12-31 18:03:54 1514761434.711106: $GPGSV,3,2,11,16,77,192,43,29,07,033,31,14,18,132,30,31,30,072,38*7C
2017-12-31 18:03:54 1514761434.711173: $GPGSV,3,3,11,27,19,156,27,26,65,052,49,135,22,240,43*78
2017-12-31 18:03:54 1514761434.824599: $GPZDA,230355.00,31,12,2017,00,00*61
2017-12-31 18:03:54 1514761434.824737: $GPGGA,230355,3946.9561,N,08404.9874,W,2,11,0.60,308.17,M,-33.324,M,,*7B
2017-12-31 18:03:54 1514761434.824801: $GPRMC,230355,A,3946.9561,N,08404.9874,W,0.0000,0.000,311217,,*33
2017-12-31 18:03:54 1514761434.824862: $GPGSA,A,3,22,23,9,3,16,29,14,31,27,26,135,,1.7,0.6,1.3*06
2017-12-31 18:03:55 1514761435.449993: $GPZDA,230356.00,31,12,2017,00,00*62
2017-12-31 18:03:55 1514761435.450157: $GPGGA,230356,3946.9561,N,08404.9874,W,2,11,0.60,308.17,M,-33.324,M,,*78
2017-12-31 18:03:55 1514761435.450227: $GPRMC,230356,A,3946.9561,N,08404.9874,W,0.0000,0.000,311217,,*30
2017-12-31 18:03:55 1514761435.450289: $GPGSA,A,3,22,23,9,3,16,29,14,31,27,26,135,,1.7,0.6,1.3*06
2017-12-31 18:03:56 1514761436.368428: $GPZDA,230357.00,31,12,2017,00,00*63
2017-12-31 18:03:56 1514761436.368594: $GPGGA,230357,3946.9561,N,08404.9874,W,2,11,0.60,308.17,M,-33.324,M,,*79
2017-12-31 18:03:56 1514761436.368660: $GPRMC,230357,A,3946.9561,N,08404.9874,W,0.0000,0.000,311217,,*31
2017-12-31 18:03:56 1514761436.368722: $GPGSA,A,3,22,23,9,3,16,29,14,31,27,26,135,,1.7,0.6,1.3*06
2017-12-31 18:03:57 1514761437.682509: $GPGSV,3,1,11,22,25,216,39,23,51,307,44,09,18,312,41,03,34,237,44*75
2017-12-31 18:03:57 1514761437.682684: $GPGSV,3,2,11,16,77,192,44,29,07,033,31,14,18,132,30,31,30,072,37*74
2017-12-31 18:03:57 1514761437.682750: $GPGSV,3,3,11,27,19,156,28,26,65,052,49,135,22,240,44*70
2017-12-31 18:03:57 1514761437.796286: $GPZDA,230358.00,31,12,2017,00,00*6C
2017-12-31 18:03:57 1514761437.796429: $GPGGA,230358,3946.9561,N,08404.9874,W,2,11,0.60,308.17,M,-33.324,M,,*76
2017-12-31 18:03:57 1514761437.796495: $GPRMC,230358,A,3946.9561,N,08404.9874,W,0.0000,0.000,311217,,*3E
2017-12-31 18:03:57 1514761437.796627: $GPGSA,A,3,22,23,9,3,16,29,14,31,27,26,135,,1.7,0.6,1.3*06
2017-12-31 18:03:58 1514761438.346732: $GPZDA,230359.00,31,12,2017,00,00*6D
2017-12-31 18:03:58 1514761438.346915: $GPGGA,230359,3946.9561,N,08404.9874,W,2,11,0.60,308.17,M,-33.324,M,,*77
2017-12-31 18:03:58 1514761438.346982: $GPRMC,230359,A,3946.9561,N,08404.9874,W,0.0000,0.000,311217,,*3F
2017-12-31 18:03:58 1514761438.347044: $GPGSA,A,3,22,23,9,3,16,29,14,31,27,26,135,,1.7,0.6,1.3*06
2017-12-31 18:03:59 1514761439.346350: $GPZDA,230400.00,31,12,2017,00,00*66
2017-12-31 18:03:59 1514761439.346518: $GPGGA,230400,3946.9561,N,08404.9874,W,2,11,0.60,308.17,M,-33.324,M,,*7C
2017-12-31 18:03:59 1514761439.346586: $GPRMC,230400,A,3946.9561,N,08404.9874,W,0.0000,0.000,311217,,*34
2017-12-31 18:03:59 1514761439.346647: $GPGSA,A,3,22,23,9,3,16,29,14,31,27,26,135,,1.7,0.6,1.3*06
2017-12-31 18:04:00 1514761440.681596: $GPGSV,3,1,11,22,25,216,39,23,51,307,44,09,18,312,41,03,34,237,44*75
2017-12-31 18:04:00 1514761440.681753: $GPGSV,3,2,11,16,77,192,43,29,07,033,30,14,18,132,30,31,30,072,38*7D
2017-12-31 18:04:00 1514761440.681819: $GPGSV,3,3,11,27,19,156,29,26,65,052,48,135,22,240,44*70
2017-12-31 18:04:00 1514761440.794911: $GPZDA,230401.00,31,12,2017,00,00*67
2017-12-31 18:04:00 1514761440.795033: $GPGGA,230401,3946.9561,N,08404.9874,W,2,11,0.60,308.17,M,-33.324,M,,*7D
2017-12-31 18:04:00 1514761440.795099: $GPRMC,230401,A,3946.9561,N,08404.9874,W,0.0000,0.000,311217,,*35
2017-12-31 18:04:00 1514761440.795162: $GPGSA,A,3,22,23,9,3,16,29,14,31,27,26,135,,1.7,0.6,1.3*06
