2017-12-14 11:47:56 1513270076.852310: {"class":"VERSION","release":"3.16","rev":"3.16-4","proto_major":3,"proto_minor":11}
2017-12-14 11:47:56 1513270076.852700: {"class":"DEVICES","devices":[{"class":"DEVICE","path":"/dev/ttyUSB0","driver":"SiRF","subtype":"9\u0006GSD4e_4.1.2-P1_RPATCH.05-F-GPS-4R-1510281 11/03/2015 307","activated":"2017-12-14T16:47:56.364Z","flags":1,"native":1,"bps":4800,"parity":"N","stopbits":1,"cycle":1.00}]}
2017-12-14 11:47:56 1513270076.852824: {"class":"WATCH","enable":true,"json":false,"nmea":true,"raw":0,"scaled":false,"timing":false,"split24":false,"pps":false}
2017-12-14 11:47:57 1513270077.560009: $GPGSV,3,1,11,10,31,291,20,15,50,049,19,18,62,313,23,20,44,082,13*73
2017-12-14 11:47:57 1513270077.560193: $GPGSV,3,2,11,24,42,129,21,27,19,303,04,32,10,231,06,13,19,045,00*75
2017-12-14 11:47:57 1513270077.560261: $GPGSV,3,3,11,21,76,211,00,29,01,186,00,138,38,213,00*7D
2017-12-14 11:47:57 1513270077.673359: $GPZDA,164758.00,14,12,2017,00,00*6D
2017-12-14 11:47:57 1513270077.673531: $GPGGA,164758,3946.9389,N,08404.9572,W,1,05,2.20,346.37,M,-33.324,M,,*73
2017-12-14 11:47:57 1513270077.673598: $GPRMC,164758,A,3946.9389,N,08404.9572,W,0.2560,258.125,141217,,*3C
2017-12-14 11:47:57 1513270077.673658: $GPGSA,A,3,10,15,18,20,24,,,,,,,,6.6,2.2,6.2*3E
2017-12-14 11:47:58 1513270078.223797: $GPZDA,164759.00,14,12,2017,00,00*6C
2017-12-14 11:47:58 1513270078.223942: $GPGGA,164759,3946.9383,N,08404.9574,W,1,05,2.20,349.30,M,-33.324,M,,*76
2017-12-14 11:47:58 1513270078.224012: $GPRMC,164759,A,3946.9383,N,08404.9574,W,0.2478,109.994,141217,,*3C
2017-12-14 11:47:58 1513270078.224073: $GPGSA,A,3,10,15,18,20,24,,,,,,,,6.6,2.2,6.2*3E
2017-12-14 11:47:59 1513270079.224836: $GPZDA,164800.00,14,12,2017,00,00*6F
2017-12-14 11:47:59 1513270079.225011: $GPGGA,164800,3946.9384,N,08404.9568,W,1,05,2.20,352.19,M,-33.324,M,,*7E
2017-12-14 11:47:59 1513270079.225076: $GPRMC,164800,A,3946.9384,N,08404.9568,W,0.4823,79.732,141217,,*05
2017-12-14 11:47:59 1513270079.225138: $GPGSA,A,3,10,15,18,20,24,,,,,,,,6.6,2.2,6.2*3E
2017-12-14 11:48:00 1513270080.564772: $GPGSV,3,1,11,10,31,291,20,15,50,049,18,18,62,313,23,20,44,082,16*77
2017-12-14 11:48:00 1513270080.564924: $GPGSV,3,2,11,24,42,129,20,27,19,303,04,32,10,231,13,13,19,045,00*70
2017-12-14 11:48:00 1513270080.564990: $GPGSV,3,3,11,21,76,211,00,29,01,186,00,138,38,213,00*7D
2017-12-14 11:48:00 1513270080.678104: $GPZDA,164801.00,14,12,2017,00,00*6E
2017-12-14 11:48:00 1513270080.678228: $GPGGA,164801,3946.9392,N,08404.9562,W,1,06,1.80,354.95,M,-33.324,M,,*7A
2017-12-14 11:48:00 1513270080.678291: $GPRMC,164801,A,3946.9392,N,08404.9562,W,0.9527,53.553,141217,,*00
2017-12-14 11:48:00 1513270080.678353: $GPGSA,A,3,10,15,18,20,24,32,,,,,,,6.6,1.8,6.2*36
2017-12-14 11:48:01 1513270081.226533: $GPZDA,164802.00,14,12,2017,00,00*6D
2017-12-14 11:48:01 1513270081.226702: $GPGGA,164802,3946.9404,N,08404.9555,W,1,06,2.20,356.95,M,-33.324,M,,*7E
2017-12-14 11:48:01 1513270081.226768: $GPRMC,164802,A,3946.9404,N,08404.9555,W,1.2040,41.096,141217,,*0E
2017-12-14 11:48:01 1513270081.226831: $GPGSA,A,3,10,15,18,20,24,32,,,,,,,6.6,2.2,6.2*3F
2017-12-14 11:48:02 1513270082.225662: $GPZDA,164803.00,14,12,2017,00,00*6C
2017-12-14 11:48:02 1513270082.225837: $GPGGA,164803,3946.9418,N,08404.9539,W,1,06,2.20,355.46,M,-33.324,M,,*75
2017-12-14 11:48:02 1513270082.225907: $GPRMC,164803,A,3946.9418,N,08404.9539,W,1.8879,36.891,141217,,*0F
2017-12-14 11:48:02 1513270082.225972: $GPGSA,A,3,10,15,18,20,24,32,,,,,,,6.6,2.2,6.2*3F
2017-12-14 11:48:03 1513270083.561661: $GPGSV,3,1,11,10,31,291,21,15,50,049,04,18,62,313,22,20,44,082,16*7A
2017-12-14 11:48:03 1513270083.561855: $GPGSV,3,2,11,24,42,129,20,13,19,045,00,32,10,231,13,27,19,303,00*74
2017-12-14 11:48:03 1513270083.561946: $GPGSV,3,3,11,21,76,211,00,29,01,186,00,138,38,213,00*7D
2017-12-14 11:48:03 1513270083.675427: $GPZDA,164804.00,14,12,2017,00,00*6B
2017-12-14 11:48:03 1513270083.675605: $GPGGA,164804,3946.9432,N,08404.9530,W,1,05,2.20,353.88,M,-33.324,M,,*74
2017-12-14 11:48:03 1513270083.675677: $GPRMC,164804,A,3946.9432,N,08404.9530,W,1.8683,39.301,141217,,*0F
2017-12-14 11:48:03 1513270083.675813: $GPGSA,A,3,10,18,20,24,32,,,,,,,,6.6,2.2,6.2*3B
2017-12-14 11:48:04 1513270084.225547: $GPZDA,164805.00,14,12,2017,00,00*6A
2017-12-14 11:48:04 1513270084.225700: $GPGGA,164805,3946.9446,N,08404.9521,W,1,05,4.60,352.31,M,-33.324,M,,*77
2017-12-14 11:48:04 1513270084.225764: $GPRMC,164805,A,3946.9446,N,08404.9521,W,1.8892,50.137,141217,,*0B
2017-12-14 11:48:04 1513270084.225826: $GPGSA,A,3,10,18,20,24,32,,,,,,,,6.6,4.6,6.2*39
2017-12-14 11:48:05 1513270085.222975: $GPZDA,164806.00,14,12,2017,00,00*69
2017-12-14 11:48:05 1513270085.223158: $GPGGA,164806,3946.9453,N,08404.9512,W,1,05,4.60,350.86,M,-33.324,M,,*7E
2017-12-14 11:48:05 1513270085.223230: $GPRMC,164806,A,3946.9453,N,08404.9512,W,2.1840,52.899,141217,,*06
2017-12-14 11:48:05 1513270085.223294: $GPGSA,A,3,10,18,20,24,32,,,,,,,,6.6,4.6,6.2*39
2017-12-14 11:48:06 1513270086.558632: $GPGSV,3,1,11,10,31,291,21,15,50,049,04,18,62,313,22,20,44,082,00*7D
2017-12-14 11:48:06 1513270086.558826: $GPGSV,3,2,11,24,42,129,20,13,19,045,00,32,10,231,08,27,19,303,00*7E
2017-12-14 11:48:06 1513270086.558893: $GPGSV,3,3,11,21,76,211,00,29,01,186,00,138,38,213,00*7D
2017-12-14 11:48:06 1513270086.671915: $GPZDA,164807.00,14,12,2017,00,00*68
2017-12-14 11:48:06 1513270086.672109: $GPGGA,164807,3946.9456,N,08404.9505,W,1,04,4.60,350.17,M,-33.324,M,,*75
2017-12-14 11:48:06 1513270086.672186: $GPRMC,164807,A,3946.9456,N,08404.9505,W,1.7135,47.265,141217,,*07
2017-12-14 11:48:06 1513270086.672247: $GPGSA,A,3,10,18,24,32,,,,,,,,,6.6,4.6,6.2*3B
2017-12-14 11:48:07 1513270087.222010: $GPZDA,164808.00,14,12,2017,00,00*67
2017-12-14 11:48:07 1513270087.222209: $GPGGA,164808,3946.9463,N,08404.9497,W,1,04,4.60,350.13,M,-33.324,M,,*72
2017-12-14 11:48:07 1513270087.222275: $GPRMC,164808,A,3946.9463,N,08404.9497,W,1.6922,38.002,141217,,*00
2017-12-14 11:48:07 1513270087.222335: $GPGSA,A,3,10,18,24,32,,,,,,,,,6.6,4.6,6.2*3B
2017-12-14 11:48:08 1513270088.222148: $GPZDA,164809.00,14,12,2017,00,00*66
2017-12-14 11:48:08 1513270088.222326: $GPGGA,164809,3946.9463,N,08404.9497,W,1,04,4.60,350.13,M,-33.324,M,,*73
2017-12-14 11:48:08 1513270088.222392: $GPRMC,164809,A,3946.9463,N,08404.9497,W,1.4115,34.536,141217,,*01
2017-12-14 11:48:08 1513270088.222452: $GPGSA,A,3,10,18,24,32,,,,,,,,,6.6,4.6,6.2*3B
2017-12-14 11:48:09 1513270089.559625: $GPGSV,3,1,11,10,31,291,21,15,50,049,04,18,62,313,22,20,44,082,00*7D
2017-12-14 11:48:09 1513270089.559803: $GPGSV,3,2,11,24,42,129,21,13,19,045,00,32,10,231,12,27,19,303,00*74
2017-12-14 11:48:09 1513270089.559870: $GPGSV,3,3,11,21,76,211,00,29,01,186,00,138,38,213,00*7D
2017-12-14 11:48:09 1513270089.673123: $GPZDA,164810.00,14,12,2017,00,00*6E
2017-12-14 11:48:09 1513270089.673294: $GPGGA,164810,3946.9463,N,08404.9497,W,1,04,4.60,350.13,M,-33.324,M,,*7B
2017-12-14 11:48:09 1513270089.673360: $GPRMC,164810,A,3946.9463,N,08404.9497,W,0.8905,57.384,141217,,*07
2017-12-14 11:48:09 1513270089.673421: $GPGSA,A,3,10,18,24,32,,,,,,,,,6.6,4.6,6.2*3B
2017-12-14 11:48:10 1513270090.221941: $GPZDA,164811.00,14,12,2017,00,00*6F
2017-12-14 11:48:10 1513270090.222152: $GPGGA,164811,3946.9467,N,08404.9497,W,1,04,4.60,350.77,M,-33.324,M,,*7C
2017-12-14 11:48:10 1513270090.222219: $GPRMC,164811,A,3946.9467,N,08404.9497,W,0.2959,54.767,141217,,*0B
2017-12-14 11:48:10 1513270090.222280: $GPGSA,A,3,10,18,24,32,,,,,,,,,6.6,4.6,6.2*3B
2017-12-14 11:48:11 1513270091.222952: $GPZDA,164812.00,14,12,2017,00,00*6C
2017-12-14 11:48:11 1513270091.223123: $GPGGA,164812,3946.9472,N,08404.9497,W,1,04,4.60,351.41,M,-33.324,M,,*7F
2017-12-14 11:48:11 1513270091.223190: $GPRMC,164812,A,3946.9472,N,08404.9497,W,0.4179,328.778,141217,,*36
2017-12-14 11:48:11 1513270091.223250: $GPGSA,A,3,10,18,24,32,,,,,,,,,6.6,4.6,6.2*3B
2017-12-14 11:48:12 1513270092.558924: $GPGSV,3,1,11,10,31,291,21,15,50,049,04,18,62,313,22,20,44,082,00*7D
2017-12-14 11:48:12 1513270092.559103: $GPGSV,3,2,11,24,42,129,21,13,19,045,00,32,10,231,12,27,19,303,00*74
2017-12-14 11:48:12 1513270092.559170: $GPGSV,3,3,11,21,76,211,00,29,01,186,00,138,38,213,00*7D
2017-12-14 11:48:12 1513270092.672607: $GPZDA,164813.00,14,12,2017,00,00*6D
2017-12-14 11:48:12 1513270092.672759: $GPGGA,164813,3946.9476,N,08404.9497,W,1,04,4.60,352.05,M,-33.324,M,,*79
2017-12-14 11:48:12 1513270092.672824: $GPRMC,164813,A,3946.9476,N,08404.9497,W,0.9066,309.458,141217,,*33
2017-12-14 11:48:12 1513270092.672905: $GPGSA,A,3,10,18,24,32,,,,,,,,,6.6,4.6,6.2*3B
2017-12-14 11:48:13 1513270093.223974: $GPZDA,164814.00,14,12,2017,00,00*6A
2017-12-14 11:48:13 1513270093.224137: $GPGGA,164814,3946.9476,N,08404.9497,W,1,04,4.60,352.05,M,-33.324,M,,*7E
2017-12-14 11:48:13 1513270093.224202: $GPRMC,164814,A,3946.9476,N,08404.9497,W,0.7238,320.710,141217,,*37
2017-12-14 11:48:13 1513270093.224262: $GPGSA,A,3,10,18,24,32,,,,,,,,,6.6,4.6,6.2*3B
2017-12-14 11:48:14 1513270094.225341: $GPZDA,164815.00,14,12,2017,00,00*6B
2017-12-14 11:48:14 1513270094.225506: $GPGGA,164815,3946.9480,N,08404.9497,W,1,04,2.00,352.69,M,-33.324,M,,*7C
2017-12-14 11:48:14 1513270094.225571: $GPRMC,164815,A,3946.9480,N,08404.9497,W,0.9066,309.458,141217,,*3C
2017-12-14 11:48:14 1513270094.225631: $GPGSA,A,3,10,18,24,32,,,,,,,,,6.6,2.0,6.2*3B
2017-12-14 11:48:15 1513270095.562607: $GPGSV,3,1,11,10,31,291,21,15,50,049,10,18,62,313,22,20,44,082,04*7C
2017-12-14 11:48:15 1513270095.562787: $GPGSV,3,2,11,24,42,129,20,13,19,045,00,32,10,231,12,27,19,303,00*75
2017-12-14 11:48:15 1513270095.562853: $GPGSV,3,3,11,21,76,211,00,29,01,186,00,138,38,213,00*7D
2017-12-14 11:48:15 1513270095.676055: $GPZDA,164816.00,14,12,2017,00,00*68
2017-12-14 11:48:15 1513270095.676211: $GPGGA,164816,3946.9484,N,08404.9504,W,1,05,2.00,353.25,M,-33.324,M,,*78
2017-12-14 11:48:15 1513270095.676277: $GPRMC,164816,A,3946.9484,N,08404.9504,W,0.8011,299.090,141217,,*39
2017-12-14 11:48:15 1513270095.676337: $GPGSA,A,3,10,15,18,24,32,,,,,,,,6.6,2.0,6.2*3F
2017-12-14 11:48:16 1513270096.226839: $GPZDA,164817.00,14,12,2017,00,00*69
2017-12-14 11:48:16 1513270096.227007: $GPGGA,164817,3946.9484,N,08404.9504,W,1,05,2.00,353.25,M,-33.324,M,,*79
2017-12-14 11:48:16 1513270096.227073: $GPRMC,164817,A,3946.9484,N,08404.9504,W,0.4844,273.794,141217,,*3B
2017-12-14 11:48:16 1513270096.227133: $GPGSA,A,3,10,15,18,24,32,,,,,,,,6.6,2.0,6.2*3F
