2017-12-01 17:45:51 1512168351.653210: {"class":"VERSION","release":"3.16","rev":"3.16-4","proto_major":3,"proto_minor":11}
2017-12-01 17:45:51 1512168351.653642: {"class":"DEVICES","devices":[{"class":"DEVICE","path":"/dev/ttyUSB0","driver":"SiRF","subtype":"9\u0006GSD4e_4.1.2-P1_RPATCH.05-F-GPS-4R-1510281 11/03/2015 307","activated":"2017-12-01T22:45:51.592Z","flags":1,"native":1,"bps":4800,"parity":"N","stopbits":1,"cycle":1.00}]}
2017-12-01 17:45:51 1512168351.653768: {"class":"WATCH","enable":true,"json":false,"nmea":true,"raw":0,"scaled":false,"timing":false,"split24":false,"pps":false}
2017-12-01 17:45:52 1512168352.767623: $GPGSV,3,1,12,01,15,267,41,03,28,312,46,10,13,157,43,14,66,061,41*70
2017-12-01 17:45:52 1512168352.767780: $GPGSV,3,2,12,22,45,294,47,25,30,049,42,26,35,177,44,31,79,334,46*70
2017-12-01 17:45:52 1512168352.767846: $GPGSV,3,3,12,32,49,090,45,16,06,190,32,29,03,087,34,138,38,213,45*46
2017-12-01 17:45:52 1512168352.881062: $GPZDA,224553.00,01,12,2017,00,00*67
2017-12-01 17:45:52 1512168352.881233: $GPGGA,224553,3946.9736,N,08404.9837,W,2,12,0.80,294.10,M,-33.325,M,,*76
2017-12-01 17:45:52 1512168352.881299: $GPRMC,224553,A,3946.9736,N,08404.9837,W,0.0000,0.000,011217,,*32
2017-12-01 17:45:52 1512168352.881410: $GPGSA,A,3,1,3,10,14,22,25,26,31,32,16,29,138,2.0,0.8,1.5*0C
2017-12-01 17:45:53 1512168353.433151: $GPZDA,224554.00,01,12,2017,00,00*60
2017-12-01 17:45:53 1512168353.433321: $GPGGA,224554,3946.9736,N,08404.9837,W,2,12,0.80,294.10,M,-33.325,M,,*71
2017-12-01 17:45:53 1512168353.433388: $GPRMC,224554,A,3946.9736,N,08404.9837,W,0.0000,0.000,011217,,*35
2017-12-01 17:45:53 1512168353.433449: $GPGSA,A,3,1,3,10,14,22,25,26,31,32,16,29,138,2.0,0.8,1.5*0C
2017-12-01 17:45:54 1512168354.432881: $GPZDA,224555.00,01,12,2017,00,00*61
2017-12-01 17:45:54 1512168354.433054: $GPGGA,224555,3946.9736,N,08404.9837,W,2,12,0.80,294.10,M,-33.325,M,,*70
2017-12-01 17:45:54 1512168354.433122: $GPRMC,224555,A,3946.9736,N,08404.9837,W,0.0000,0.000,011217,,*34
2017-12-01 17:45:54 1512168354.433183: $GPGSA,A,3,1,3,10,14,22,25,26,31,32,16,29,138,2.0,0.8,1.5*0C
2017-12-01 17:45:55 1512168355.793424: $GPGSV,3,1,12,01,15,267,41,03,28,312,46,10,13,157,43,14,66,061,41*70
2017-12-01 17:45:55 1512168355.793609: $GPGSV,3,2,12,22,45,294,47,25,30,049,42,26,35,177,44,31,79,334,46*70
2017-12-01 17:45:55 1512168355.793678: $GPGSV,3,3,12,32,49,090,45,16,06,190,32,29,03,087,33,138,38,213,45*41
2017-12-01 17:45:55 1512168355.906013: $GPZDA,224556.00,01,12,2017,00,00*62
2017-12-01 17:45:55 1512168355.906176: $GPGGA,224556,3946.9736,N,08404.9837,W,2,12,0.80,294.10,M,-33.325,M,,*73
2017-12-01 17:45:55 1512168355.906242: $GPRMC,224556,A,3946.9736,N,08404.9837,W,0.0000,0.000,011217,,*37
2017-12-01 17:45:55 1512168355.906302: $GPGSA,A,3,1,3,10,14,22,25,26,31,32,16,29,138,2.0,0.8,1.5*0C
2017-12-01 17:45:56 1512168356.455236: $GPZDA,224557.00,01,12,2017,00,00*63
2017-12-01 17:45:56 1512168356.455393: $GPGGA,224557,3946.9736,N,08404.9837,W,2,12,0.80,294.10,M,-33.325,M,,*72
2017-12-01 17:45:56 1512168356.455459: $GPRMC,224557,A,3946.9736,N,08404.9837,W,0.0000,0.000,011217,,*36
2017-12-01 17:45:56 1512168356.455521: $GPGSA,A,3,1,3,10,14,22,25,26,31,32,16,29,138,2.0,0.8,1.5*0C
2017-12-01 17:45:57 1512168357.458046: $GPZDA,224558.00,01,12,2017,00,00*6C
2017-12-01 17:45:57 1512168357.458235: $GPGGA,224558,3946.9736,N,08404.9837,W,2,12,0.80,294.10,M,-33.325,M,,*7D
2017-12-01 17:45:57 1512168357.458303: $GPRMC,224558,A,3946.9736,N,08404.9837,W,0.0000,0.000,011217,,*39
2017-12-01 17:45:57 1512168357.458364: $GPGSA,A,3,1,3,10,14,22,25,26,31,32,16,29,138,2.0,0.8,1.5*0C
2017-12-01 17:45:58 1512168358.793757: $GPGSV,3,1,12,01,15,267,41,03,28,312,47,10,13,157,43,14,66,061,40*70
2017-12-01 17:45:58 1512168358.793939: $GPGSV,3,2,12,22,45,294,47,25,30,049,42,26,35,177,44,31,79,334,46*70
2017-12-01 17:45:58 1512168358.794006: $GPGSV,3,3,12,32,49,090,45,16,06,190,32,29,03,087,33,138,38,213,45*41
2017-12-01 17:45:58 1512168358.907113: $GPZDA,224559.00,01,12,2017,00,00*6D
2017-12-01 17:45:58 1512168358.907304: $GPGGA,224559,3946.9736,N,08404.9837,W,2,12,0.80,294.10,M,-33.325,M,,*7C
2017-12-01 17:45:58 1512168358.907424: $GPRMC,224559,A,3946.9736,N,08404.9837,W,0.0000,0.000,011217,,*38
2017-12-01 17:45:58 1512168358.907488: $GPGSA,A,3,1,3,10,14,22,25,26,31,32,16,29,138,2.0,0.8,1.5*0C
2017-12-01 17:45:59 1512168359.455464: $GPZDA,224600.00,01,12,2017,00,00*62
2017-12-01 17:45:59 1512168359.455672: $GPGGA,224600,3946.9736,N,08404.9837,W,2,12,0.80,294.10,M,-33.325,M,,*73
2017-12-01 17:45:59 1512168359.455740: $GPRMC,224600,A,3946.9736,N,08404.9837,W,0.0000,0.000,011217,,*37
2017-12-01 17:45:59 1512168359.455801: $GPGSA,A,3,1,3,10,14,22,25,26,31,32,16,29,138,2.0,0.8,1.5*0C
2017-12-01 17:46:00 1512168360.433051: $GPZDA,224601.00,01,12,2017,00,00*63
2017-12-01 17:46:00 1512168360.433225: $GPGGA,224601,3946.9736,N,08404.9837,W,2,12,0.80,294.10,M,-33.325,M,,*72
2017-12-01 17:46:00 1512168360.433292: $GPRMC,224601,A,3946.9736,N,08404.9837,W,0.0000,0.000,011217,,*36
2017-12-01 17:46:00 1512168360.433353: $GPGSA,A,3,1,3,10,14,22,25,26,31,32,16,29,138,2.0,0.8,1.5*0C
2017-12-01 17:46:01 1512168361.793333: $GPGSV,3,1,12,01,15,267,41,03,28,312,47,10,13,157,43,14,66,061,40*70
2017-12-01 17:46:01 1512168361.793519: $GPGSV,3,2,12,22,45,294,48,25,30,049,42,26,35,177,45,31,79,334,46*7E
2017-12-01 17:46:01 1512168361.793586: $GPGSV,3,3,12,32,49,090,44,16,06,190,32,29,03,087,33,138,38,213,45*40
2017-12-01 17:46:01 1512168361.906694: $GPZDA,224602.00,01,12,2017,00,00*60
2017-12-01 17:46:01 1512168361.906866: $GPGGA,224602,3946.9736,N,08404.9837,W,2,12,0.80,294.10,M,-33.325,M,,*71
2017-12-01 17:46:01 1512168361.906933: $GPRMC,224602,A,3946.9736,N,08404.9837,W,0.0000,0.000,011217,,*35
2017-12-01 17:46:01 1512168361.906994: $GPGSA,A,3,1,3,10,14,22,25,26,31,32,16,29,138,2.0,0.8,1.5*0C
2017-12-01 17:46:02 1512168362.532094: $GPZDA,224603.00,01,12,2017,00,00*61
2017-12-01 17:46:02 1512168362.532274: $GPGGA,224603,3946.9736,N,08404.9837,W,2,12,0.80,294.10,M,-33.325,M,,*70
2017-12-01 17:46:02 1512168362.532361: $GPRMC,224603,A,3946.9736,N,08404.9837,W,0.0000,0.000,011217,,*34
2017-12-01 17:46:02 1512168362.532425: $GPGSA,A,3,1,3,10,14,22,25,26,31,32,16,29,138,2.0,0.8,1.5*0C
2017-12-01 17:46:03 1512168363.456650: $GPZDA,224604.00,01,12,2017,00,00*66
2017-12-01 17:46:03 1512168363.456826: $GPGGA,224604,3946.9736,N,08404.9837,W,2,12,0.80,294.10,M,-33.325,M,,*77
2017-12-01 17:46:03 1512168363.456893: $GPRMC,224604,A,3946.9736,N,08404.9837,W,0.0000,0.000,011217,,*33
2017-12-01 17:46:03 1512168363.456953: $GPGSA,A,3,1,3,10,14,22,25,26,31,32,16,29,138,2.0,0.8,1.5*0C
2017-12-01 17:46:04 1512168364.793742: $GPGSV,3,1,12,01,15,267,41,03,28,312,47,10,13,157,43,14,66,061,40*70
2017-12-01 17:46:04 1512168364.793918: $GPGSV,3,2,12,22,45,294,47,25,30,049,42,26,35,177,45,31,79,334,46*71
2017-12-01 17:46:04 1512168364.793985: $GPGSV,3,3,12,32,49,090,44,16,06,190,32,29,03,087,32,138,38,213,46*42
2017-12-01 17:46:04 1512168364.907393: $GPZDA,224605.00,01,12,2017,00,00*67
2017-12-01 17:46:04 1512168364.907561: $GPGGA,224605,3946.9736,N,08404.9837,W,2,12,0.80,294.10,M,-33.325,M,,*76
2017-12-01 17:46:04 1512168364.907627: $GPRMC,224605,A,3946.9736,N,08404.9837,W,0.0000,0.000,011217,,*32
2017-12-01 17:46:04 1512168364.907689: $GPGSA,A,3,1,3,10,14,22,25,26,31,32,16,29,138,2.0,0.8,1.5*0C
2017-12-01 17:46:05 1512168365.431719: $GPZDA,224606.00,01,12,2017,00,00*64
2017-12-01 17:46:05 1512168365.431888: $GPGGA,224606,3946.9736,N,08404.9837,W,2,12,0.80,294.10,M,-33.325,M,,*75
2017-12-01 17:46:05 1512168365.431955: $GPRMC,224606,A,3946.9736,N,08404.9837,W,0.0000,0.000,011217,,*31
2017-12-01 17:46:05 1512168365.432016: $GPGSA,A,3,1,3,10,14,22,25,26,31,32,16,29,138,2.0,0.8,1.5*0C
2017-12-01 17:46:06 1512168366.458935: $GPZDA,224607.00,01,12,2017,00,00*65
2017-12-01 17:46:06 1512168366.459105: $GPGGA,224607,3946.9736,N,08404.9837,W,2,12,0.80,294.10,M,-33.325,M,,*74
2017-12-01 17:46:06 1512168366.459172: $GPRMC,224607,A,3946.9736,N,08404.9837,W,0.0000,0.000,011217,,*30
2017-12-01 17:46:06 1512168366.459233: $GPGSA,A,3,1,3,10,14,22,25,26,31,32,16,29,138,2.0,0.8,1.5*0C
2017-12-01 17:46:07 1512168367.792748: $GPGSV,3,1,12,01,15,267,41,03,28,312,47,10,13,157,43,14,66,061,40*70
2017-12-01 17:46:07 1512168367.792941: $GPGSV,3,2,12,22,45,294,47,25,30,049,42,26,35,177,45,31,79,334,46*71
2017-12-01 17:46:07 1512168367.796413: $GPGSV,3,3,12,32,49,090,45,16,06,190,32,29,03,087,32,138,38,213,46*43
2017-12-01 17:46:07 1512168367.906100: $GPZDA,224608.00,01,12,2017,00,00*6A
2017-12-01 17:46:07 1512168367.906248: $GPGGA,224608,3946.9736,N,08404.9837,W,2,12,0.80,294.10,M,-33.325,M,,*7B
2017-12-01 17:46:07 1512168367.906314: $GPRMC,224608,A,3946.9736,N,08404.9837,W,0.0000,0.000,011217,,*3F
2017-12-01 17:46:07 1512168367.906374: $GPGSA,A,3,1,3,10,14,22,25,26,31,32,16,29,138,2.0,0.8,1.5*0C
2017-12-01 17:46:08 1512168368.454804: $GPZDA,224609.00,01,12,2017,00,00*6B
2017-12-01 17:46:08 1512168368.454965: $GPGGA,224609,3946.9736,N,08404.9837,W,2,12,0.80,294.10,M,-33.325,M,,*7A
2017-12-01 17:46:08 1512168368.455032: $GPRMC,224609,A,3946.9736,N,08404.9837,W,0.0000,0.000,011217,,*3E
2017-12-01 17:46:08 1512168368.455093: $GPGSA,A,3,1,3,10,14,22,25,26,31,32,16,29,138,2.0,0.8,1.5*0C
2017-12-01 17:46:09 1512168369.460664: $GPZDA,224610.00,01,12,2017,00,00*63
2017-12-01 17:46:09 1512168369.460821: $GPGGA,224610,3946.9736,N,08404.9837,W,2,12,0.80,294.10,M,-33.325,M,,*72
2017-12-01 17:46:09 1512168369.460888: $GPRMC,224610,A,3946.9736,N,08404.9837,W,0.0000,0.000,011217,,*36
2017-12-01 17:46:09 1512168369.460949: $GPGSA,A,3,1,3,10,14,22,25,26,31,32,16,29,138,2.0,0.8,1.5*0C
2017-12-01 17:46:10 1512168370.796088: $GPGSV,3,1,12,01,15,267,41,03,28,312,47,10,13,157,43,14,66,061,40*70
2017-12-01 17:46:10 1512168370.796271: $GPGSV,3,2,12,22,45,294,47,25,30,049,42,26,35,177,45,31,79,334,47*70
2017-12-01 17:46:10 1512168370.796340: $GPGSV,3,3,12,32,49,090,45,16,06,190,32,29,03,087,37,138,38,213,46*46
2017-12-01 17:46:10 1512168370.909628: $GPZDA,224611.00,01,12,2017,00,00*62
2017-12-01 17:46:10 1512168370.909799: $GPGGA,224611,3946.9736,N,08404.9837,W,2,12,0.80,294.10,M,-33.325,M,,*73
2017-12-01 17:46:10 1512168370.909867: $GPRMC,224611,A,3946.9736,N,08404.9837,W,0.0000,0.000,011217,,*37
2017-12-01 17:46:10 1512168370.909927: $GPGSA,A,3,1,3,10,14,22,25,26,31,32,16,29,138,2.0,0.8,1.5*0C
2017-12-01 17:46:11 1512168371.434248: $GPZDA,224612.00,01,12,2017,00,00*61
2017-12-01 17:46:11 1512168371.434421: $GPGGA,224612,3946.9736,N,08404.9837,W,2,12,0.80,294.10,M,-33.325,M,,*70
2017-12-01 17:46:11 1512168371.434491: $GPRMC,224612,A,3946.9736,N,08404.9837,W,0.0000,0.000,011217,,*34
2017-12-01 17:46:11 1512168371.434552: $GPGSA,A,3,1,3,10,14,22,25,26,31,32,16,29,138,2.0,0.8,1.5*0C
