2017-11-16 15:35:13 1510864513.199419: {"class":"VERSION","release":"3.17","rev":"3.17","proto_major":3,"proto_minor":12}
2017-11-16 15:35:13 1510864513.199954: {"class":"DEVICES","devices":[{"class":"DEVICE","path":"/dev/ttyUSB0","driver":"SiRF","subtype":"9\u0006GSD4e_4.1.2-P1_RPATCH.05-F-GPS-4R-1510281 11/03/2015 307","activated":"2017-11-16T20:35:13.192Z","flags":1,"native":1,"bps":4800,"parity":"N","stopbits":1,"cycle":1.00}]}
2017-11-16 15:35:13 1510864513.200066: {"class":"WATCH","enable":true,"json":false,"nmea":true,"raw":0,"scaled":false,"timing":false,"split24":false,"pps":false}
2017-11-16 15:35:13 1510864513.705257: $GPGSV,3,1,12,08,04,289,36,10,73,337,51,14,32,256,46,15,08,069,30*73
2017-11-16 15:35:13 1510864513.705428: $GPGSV,3,2,12,18,67,102,48,20,05,120,16,21,25,178,44,24,42,055,49*78
2017-11-16 15:35:13 1510864513.705487: $GPGSV,3,3,12,25,06,139,25,32,49,270,45,12,12,103,33,138,38,213,44*4C
2017-11-16 15:35:13 1510864513.818715: $GPZDA,203512.00,16,11,2017,00,00*62
2017-11-16 15:35:13 1510864513.818894: $GPGGA,203512,3946.9568,N,08404.9860,W,2,12,1.00,309.61,M,-33.324,M,,*76
2017-11-16 15:35:13 1510864513.818955: $GPRMC,203512,A,3946.9568,N,08404.9860,W,0.0000,0.000,161117,,*3C
2017-11-16 15:35:13 1510864513.819011: $GPGSA,A,3,8,10,14,15,18,20,21,24,25,32,12,138,1.6,1.0,1.3*3F
2017-11-16 15:35:14 1510864514.375632: $GPZDA,203513.00,16,11,2017,00,00*63
2017-11-16 15:35:14 1510864514.375816: $GPGGA,203513,3946.9568,N,08404.9860,W,2,12,1.00,309.61,M,-33.324,M,,*77
2017-11-16 15:35:14 1510864514.375894: $GPRMC,203513,A,3946.9568,N,08404.9860,W,0.0000,0.000,161117,,*3D
2017-11-16 15:35:14 1510864514.375951: $GPGSA,A,3,8,10,14,15,18,20,21,24,25,32,12,138,1.6,1.0,1.3*3F
2017-11-16 15:35:15 1510864515.360582: $GPZDA,203514.00,16,11,2017,00,00*64
2017-11-16 15:35:15 1510864515.360754: $GPGGA,203514,3946.9568,N,08404.9860,W,2,12,1.00,309.61,M,-33.324,M,,*70
2017-11-16 15:35:15 1510864515.360833: $GPRMC,203514,A,3946.9568,N,08404.9860,W,0.0000,0.000,161117,,*3A
2017-11-16 15:35:15 1510864515.360891: $GPGSA,A,3,8,10,14,15,18,20,21,24,25,32,12,138,1.6,1.0,1.3*3F
2017-11-16 15:35:16 1510864516.696792: $GPGSV,3,1,12,08,04,289,31,10,73,337,51,14,32,256,46,15,08,069,30*74
2017-11-16 15:35:16 1510864516.697010: $GPGSV,3,2,12,18,67,102,47,20,05,120,16,21,25,178,44,24,42,055,49*77
2017-11-16 15:35:16 1510864516.697070: $GPGSV,3,3,12,25,06,139,25,32,49,270,45,12,12,103,32,138,38,213,45*4C
2017-11-16 15:35:16 1510864516.810072: $GPZDA,203515.00,16,11,2017,00,00*65
2017-11-16 15:35:16 1510864516.810234: $GPGGA,203515,3946.9568,N,08404.9860,W,2,12,1.00,309.61,M,-33.324,M,,*71
2017-11-16 15:35:16 1510864516.810343: $GPRMC,203515,A,3946.9568,N,08404.9860,W,0.0000,0.000,161117,,*3B
2017-11-16 15:35:16 1510864516.810407: $GPGSA,A,3,8,10,14,15,18,20,21,24,25,32,12,138,1.6,1.0,1.3*3F
2017-11-16 15:35:17 1510864517.369762: $GPZDA,203516.00,16,11,2017,00,00*66
2017-11-16 15:35:17 1510864517.369954: $GPGGA,203516,3946.9568,N,08404.9860,W,2,12,1.00,309.61,M,-33.324,M,,*72
2017-11-16 15:35:17 1510864517.370014: $GPRMC,203516,A,3946.9568,N,08404.9860,W,0.0000,0.000,161117,,*38
2017-11-16 15:35:17 1510864517.370069: $GPGSA,A,3,8,10,14,15,18,20,21,24,25,32,12,138,1.6,1.0,1.3*3F
2017-11-16 15:35:18 1510864518.385579: $GPZDA,203517.00,16,11,2017,00,00*67
2017-11-16 15:35:18 1510864518.385812: $GPGGA,203517,3946.9568,N,08404.9860,W,2,12,1.00,309.61,M,-33.324,M,,*73
2017-11-16 15:35:18 1510864518.385895: $GPRMC,203517,A,3946.9568,N,08404.9860,W,0.0000,0.000,161117,,*39
2017-11-16 15:35:18 1510864518.385954: $GPGSA,A,3,8,10,14,15,18,20,21,24,25,32,12,138,1.6,1.0,1.3*3F
2017-11-16 15:35:19 1510864519.725137: $GPGSV,3,1,12,08,04,289,30,10,73,337,51,14,32,256,45,15,08,069,30*76
2017-11-16 15:35:19 1510864519.725307: $GPGSV,3,2,12,18,67,102,48,20,05,120,16,21,25,178,44,24,42,055,50*70
2017-11-16 15:35:19 1510864519.725368: $GPGSV,3,3,12,25,06,139,24,32,49,270,45,12,12,103,26,138,38,213,44*49
2017-11-16 15:35:19 1510864519.837175: $GPZDA,203518.00,16,11,2017,00,00*68
2017-11-16 15:35:19 1510864519.837339: $GPGGA,203518,3946.9568,N,08404.9860,W,2,12,1.00,309.61,M,-33.324,M,,*7C
2017-11-16 15:35:19 1510864519.837452: $GPRMC,203518,A,3946.9568,N,08404.9860,W,0.0000,0.000,161117,,*36
2017-11-16 15:35:19 1510864519.837509: $GPGSA,A,3,8,10,14,15,18,20,21,24,25,32,12,138,1.6,1.0,1.3*3F
2017-11-16 15:35:20 1510864520.385620: $GPZDA,203519.00,16,11,2017,00,00*69
2017-11-16 15:35:20 1510864520.385814: $GPGGA,203519,3946.9568,N,08404.9860,W,2,12,1.00,309.61,M,-33.324,M,,*7D
2017-11-16 15:35:20 1510864520.385875: $GPRMC,203519,A,3946.9568,N,08404.9860,W,0.0000,0.000,161117,,*37
2017-11-16 15:35:20 1510864520.385931: $GPGSA,A,3,8,10,14,15,18,20,21,24,25,32,12,138,1.6,1.0,1.3*3F
2017-11-16 15:35:21 1510864521.368404: $GPZDA,203520.00,16,11,2017,00,00*63
2017-11-16 15:35:21 1510864521.368571: $GPGGA,203520,3946.9568,N,08404.9860,W,2,12,1.00,309.61,M,-33.324,M,,*77
2017-11-16 15:35:21 1510864521.368631: $GPRMC,203520,A,3946.9568,N,08404.9860,W,0.0000,0.000,161117,,*3D
2017-11-16 15:35:21 1510864521.368687: $GPGSA,A,3,8,10,14,15,18,20,21,24,25,32,12,138,1.6,1.0,1.3*3F
2017-11-16 15:35:22 1510864522.703044: $GPGSV,3,1,12,08,04,289,24,10,73,337,51,14,32,256,45,15,08,069,30*73
2017-11-16 15:35:22 1510864522.703217: $GPGSV,3,2,12,18,67,102,48,20,05,120,14,21,25,178,44,24,42,055,50*72
2017-11-16 15:35:22 1510864522.703277: $GPGSV,3,3,12,25,06,139,24,32,49,270,45,12,12,103,26,138,38,213,44*49
2017-11-16 15:35:22 1510864522.816291: $GPZDA,203521.00,16,11,2017,00,00*62
2017-11-16 15:35:22 1510864522.816457: $GPGGA,203521,3946.9568,N,08404.9860,W,2,12,1.20,309.61,M,-33.324,M,,*74
2017-11-16 15:35:22 1510864522.816517: $GPRMC,203521,A,3946.9568,N,08404.9860,W,0.0000,0.000,161117,,*3C
2017-11-16 15:35:22 1510864522.816573: $GPGSA,A,3,8,10,14,15,18,20,21,24,25,32,12,138,1.6,1.2,1.3*3D
