2017-12-01 17:00:08 1512165608.886967: {"class":"VERSION","release":"3.16","rev":"3.16-4","proto_major":3,"proto_minor":11}
2017-12-01 17:00:08 1512165608.887403: {"class":"DEVICES","devices":[{"class":"DEVICE","path":"/dev/ttyUSB0","driver":"SiRF","subtype":"9\u0006GSD4e_4.1.2-P1_RPATCH.05-F-GPS-4R-1510281 11/03/2015 307","activated":"2017-12-01T22:00:08.548Z","flags":1,"native":1,"bps":4800,"parity":"N","stopbits":1,"cycle":1.00}]}
2017-12-01 17:00:08 1512165608.887555: {"class":"WATCH","enable":true,"json":false,"nmea":true,"raw":0,"scaled":false,"timing":false,"split24":false,"pps":false}
2017-12-01 17:00:09 1512165609.408571: $GPZDA,220010.00,01,12,2017,00,00*61
2017-12-01 17:00:09 1512165609.408741: $GPGGA,220010,3946.9633,N,08404.9748,W,2,12,0.60,296.83,M,-33.324,M,,*74
2017-12-01 17:00:09 1512165609.408807: $GPRMC,220010,A,3946.9633,N,08404.9748,W,0.0000,0.000,011217,,*37
2017-12-01 17:00:09 1512165609.408868: $GPGSA,A,3,1,3,10,12,14,22,26,31,32,25,18,138,2.0,0.6,1.5*04
2017-12-01 17:00:10 1512165610.745047: $GPGSV,3,1,12,01,22,286,41,03,11,316,42,10,34,153,36,12,15,039,22*78
2017-12-01 17:00:10 1512165610.745229: $GPGSV,3,2,12,14,70,003,45,22,30,309,46,26,14,180,36,31,69,243,48*79
2017-12-01 17:00:10 1512165610.745295: $GPGSV,3,3,12,32,62,060,49,25,40,072,25,18,06,147,16,138,38,213,36*4B
2017-12-01 17:00:10 1512165610.858415: $GPZDA,220011.00,01,12,2017,00,00*60
2017-12-01 17:00:10 1512165610.858605: $GPGGA,220011,3946.9633,N,08404.9748,W,2,12,0.60,296.83,M,-33.324,M,,*75
2017-12-01 17:00:10 1512165610.858672: $GPRMC,220011,A,3946.9633,N,08404.9748,W,0.0000,0.000,011217,,*36
2017-12-01 17:00:10 1512165610.858732: $GPGSA,A,3,1,3,10,12,14,22,26,31,32,25,18,138,2.0,0.6,1.5*04
2017-12-01 17:00:11 1512165611.408043: $GPZDA,220012.00,01,12,2017,00,00*63
2017-12-01 17:00:11 1512165611.408242: $GPGGA,220012,3946.9633,N,08404.9748,W,2,12,0.60,296.83,M,-33.324,M,,*76
2017-12-01 17:00:11 1512165611.408330: $GPRMC,220012,A,3946.9633,N,08404.9748,W,0.0000,0.000,011217,,*35
2017-12-01 17:00:11 1512165611.408392: $GPGSA,A,3,1,3,10,12,14,22,26,31,32,25,18,138,2.0,0.6,1.5*04
2017-12-01 17:00:12 1512165612.405159: $GPZDA,220013.00,01,12,2017,00,00*62
2017-12-01 17:00:12 1512165612.405366: $GPGGA,220013,3946.9633,N,08404.9748,W,2,12,0.60,296.83,M,-33.324,M,,*77
2017-12-01 17:00:12 1512165612.405450: $GPRMC,220013,A,3946.9633,N,08404.9748,W,0.0000,0.000,011217,,*34
2017-12-01 17:00:12 1512165612.405512: $GPGSA,A,3,1,3,10,12,14,22,26,31,32,25,18,138,2.0,0.6,1.5*04
2017-12-01 17:00:13 1512165613.762245: $GPGSV,3,1,12,01,22,286,41,03,11,316,42,10,34,153,36,12,15,039,20*7A
2017-12-01 17:00:13 1512165613.762462: $GPGSV,3,2,12,14,70,003,45,22,30,309,46,26,14,180,35,31,69,243,48*7A
2017-12-01 17:00:13 1512165613.762529: $GPGSV,3,3,12,32,62,060,49,25,40,072,25,18,06,147,15,138,38,213,39*47
2017-12-01 17:00:13 1512165613.875710: $GPZDA,220014.00,01,12,2017,00,00*65
2017-12-01 17:00:13 1512165613.875887: $GPGGA,220014,3946.9633,N,08404.9748,W,2,12,0.60,296.83,M,-33.324,M,,*70
2017-12-01 17:00:13 1512165613.875956: $GPRMC,220014,A,3946.9633,N,08404.9748,W,0.0000,0.000,011217,,*33
2017-12-01 17:00:13 1512165613.876018: $GPGSA,A,3,1,3,10,12,14,22,26,31,32,25,18,138,2.0,0.6,1.5*04
2017-12-01 17:00:14 1512165614.406398: $GPZDA,220015.00,01,12,2017,00,00*64
2017-12-01 17:00:14 1512165614.406611: $GPGGA,220015,3946.9633,N,08404.9748,W,2,12,0.60,296.83,M,-33.324,M,,*71
2017-12-01 17:00:14 1512165614.406683: $GPRMC,220015,A,3946.9633,N,08404.9748,W,0.0000,0.000,011217,,*32
2017-12-01 17:00:14 1512165614.406745: $GPGSA,A,3,1,3,10,12,14,22,26,31,32,25,18,138,2.0,0.6,1.5*04
2017-12-01 17:00:15 1512165615.423125: $GPZDA,220016.00,01,12,2017,00,00*67
2017-12-01 17:00:15 1512165615.423505: $GPGGA,220016,3946.9633,N,08404.9748,W,2,12,0.60,296.83,M,-33.324,M,,*72
2017-12-01 17:00:15 1512165615.423631: $GPRMC,220016,A,3946.9633,N,08404.9748,W,0.0000,0.000,011217,,*31
2017-12-01 17:00:15 1512165615.423749: $GPGSA,A,3,1,3,10,12,14,22,26,31,32,25,18,138,2.0,0.6,1.5*04
2017-12-01 17:00:16 1512165616.758753: $GPGSV,3,1,12,01,22,286,41,03,11,316,42,10,34,153,36,12,15,039,20*7A
2017-12-01 17:00:16 1512165616.759004: $GPGSV,3,2,12,14,70,003,45,22,30,309,46,26,14,180,35,31,69,243,49*7B
2017-12-01 17:00:16 1512165616.759073: $GPGSV,3,3,12,32,62,060,49,25,40,072,24,18,06,147,11,138,38,213,39*42
2017-12-01 17:00:16 1512165616.872229: $GPZDA,220017.00,01,12,2017,00,00*66
2017-12-01 17:00:16 1512165616.872465: $GPGGA,220017,3946.9637,N,08404.9748,W,2,12,0.60,297.47,M,-33.324,M,,*7E
2017-12-01 17:00:16 1512165616.872534: $GPRMC,220017,A,3946.9637,N,08404.9748,W,0.0000,0.000,011217,,*34
2017-12-01 17:00:16 1512165616.872595: $GPGSA,A,3,1,3,10,12,14,22,26,31,32,25,18,138,2.0,0.6,1.5*04
2017-12-01 17:00:17 1512165617.425623: $GPZDA,220018.00,01,12,2017,00,00*69
2017-12-01 17:00:17 1512165617.425792: $GPGGA,220018,3946.9637,N,08404.9748,W,2,12,0.60,297.47,M,-33.324,M,,*71
2017-12-01 17:00:17 1512165617.425857: $GPRMC,220018,A,3946.9637,N,08404.9748,W,0.0000,0.000,011217,,*3B
2017-12-01 17:00:17 1512165617.425919: $GPGSA,A,3,1,3,10,12,14,22,26,31,32,25,18,138,2.0,0.6,1.5*04
2017-12-01 17:00:18 1512165618.426514: $GPZDA,220019.00,01,12,2017,00,00*68
2017-12-01 17:00:18 1512165618.426690: $GPGGA,220019,3946.9637,N,08404.9748,W,2,12,0.80,297.47,M,-33.324,M,,*7E
2017-12-01 17:00:18 1512165618.426758: $GPRMC,220019,A,3946.9637,N,08404.9748,W,0.0000,0.000,011217,,*3A
2017-12-01 17:00:18 1512165618.426819: $GPGSA,A,3,1,3,10,12,14,22,26,31,32,25,18,138,2.0,0.8,1.5*0A
2017-12-01 17:00:19 1512165619.743478: $GPGSV,3,1,12,01,22,286,41,03,11,316,42,10,34,153,36,12,15,039,19*70
2017-12-01 17:00:19 1512165619.743659: $GPGSV,3,2,12,14,70,003,45,22,30,309,46,26,14,180,32,31,69,243,48*7D
2017-12-01 17:00:19 1512165619.743727: $GPGSV,3,3,12,32,62,060,49,25,40,072,24,18,06,147,10,138,38,213,39*43
2017-12-01 17:00:19 1512165619.856855: $GPZDA,220020.00,01,12,2017,00,00*62
2017-12-01 17:00:19 1512165619.857025: $GPGGA,220020,3946.9637,N,08404.9748,W,2,12,0.60,297.47,M,-33.324,M,,*7A
2017-12-01 17:00:19 1512165619.857093: $GPRMC,220020,A,3946.9637,N,08404.9748,W,0.0000,0.000,011217,,*30
2017-12-01 17:00:19 1512165619.857155: $GPGSA,A,3,1,3,10,12,14,22,26,31,32,25,18,138,2.0,0.6,1.5*04
2017-12-01 17:00:20 1512165620.482255: $GPZDA,220021.00,01,12,2017,00,00*63
2017-12-01 17:00:20 1512165620.482440: $GPGGA,220021,3946.9637,N,08404.9748,W,2,12,0.60,297.47,M,-33.324,M,,*7B
2017-12-01 17:00:20 1512165620.482510: $GPRMC,220021,A,3946.9637,N,08404.9748,W,0.0000,0.000,011217,,*31
2017-12-01 17:00:20 1512165620.482571: $GPGSA,A,3,1,3,10,12,14,22,26,31,32,25,18,138,2.0,0.6,1.5*04
2017-12-01 17:00:21 1512165621.409353: $GPZDA,220022.00,01,12,2017,00,00*60
2017-12-01 17:00:21 1512165621.409533: $GPGGA,220022,3946.9637,N,08404.9748,W,2,12,0.80,297.47,M,-33.324,M,,*76
2017-12-01 17:00:21 1512165621.409600: $GPRMC,220022,A,3946.9637,N,08404.9748,W,0.0000,0.000,011217,,*32
2017-12-01 17:00:21 1512165621.409662: $GPGSA,A,3,1,3,10,12,14,22,26,31,32,25,18,138,2.0,0.8,1.5*0A
2017-12-01 17:00:22 1512165622.761252: $GPGSV,3,1,12,01,22,286,41,03,11,316,42,10,34,153,36,12,15,039,20*7A
2017-12-01 17:00:22 1512165622.761486: $GPGSV,3,2,12,14,70,003,45,22,30,309,46,26,14,180,34,31,69,243,48*7B
2017-12-01 17:00:22 1512165622.761557: $GPGSV,3,3,12,32,62,060,48,25,40,072,16,11,04,271,40,138,38,213,38*4A
2017-12-01 17:00:22 1512165622.874603: $GPZDA,220023.00,01,12,2017,00,00*61
2017-12-01 17:00:22 1512165622.874782: $GPGGA,220023,3946.9637,N,08404.9748,W,2,12,0.80,297.47,M,-33.324,M,,*77
2017-12-01 17:00:22 1512165622.874849: $GPRMC,220023,A,3946.9637,N,08404.9748,W,0.0000,0.000,011217,,*33
2017-12-01 17:00:22 1512165622.874911: $GPGSA,A,3,1,3,10,12,14,22,26,31,32,25,11,138,2.0,0.8,1.5*03
2017-12-01 17:00:23 1512165623.408051: $GPZDA,220024.00,01,12,2017,00,00*66
2017-12-01 17:00:23 1512165623.408245: $GPGGA,220024,3946.9637,N,08404.9748,W,2,12,0.80,297.47,M,-33.324,M,,*70
2017-12-01 17:00:23 1512165623.408316: $GPRMC,220024,A,3946.9637,N,08404.9748,W,0.0000,0.000,011217,,*34
2017-12-01 17:00:23 1512165623.408380: $GPGSA,A,3,1,3,10,12,14,22,26,31,32,25,11,138,2.0,0.8,1.5*03
2017-12-01 17:00:24 1512165624.423876: $GPZDA,220025.00,01,12,2017,00,00*67
2017-12-01 17:00:24 1512165624.424047: $GPGGA,220025,3946.9637,N,08404.9748,W,2,12,0.80,297.47,M,-33.324,M,,*71
2017-12-01 17:00:24 1512165624.424115: $GPRMC,220025,A,3946.9637,N,08404.9748,W,0.0000,0.000,011217,,*35
2017-12-01 17:00:24 1512165624.424176: $GPGSA,A,3,1,3,10,12,14,22,26,31,32,25,11,138,2.0,0.8,1.5*03
2017-12-01 17:00:25 1512165625.762852: $GPGSV,3,1,12,01,22,286,42,03,11,316,42,10,34,153,36,12,15,039,21*78
2017-12-01 17:00:25 1512165625.763037: $GPGSV,3,2,12,14,70,003,45,22,30,309,46,26,14,180,34,31,69,243,49*7A
2017-12-01 17:00:25 1512165625.763104: $GPGSV,3,3,12,32,62,060,49,25,40,072,19,11,04,271,40,138,38,213,40*4B
2017-12-01 17:00:25 1512165625.876554: $GPZDA,220026.00,01,12,2017,00,00*64
2017-12-01 17:00:25 1512165625.876723: $GPGGA,220026,3946.9637,N,08404.9748,W,2,12,0.80,297.47,M,-33.324,M,,*72
2017-12-01 17:00:25 1512165625.876790: $GPRMC,220026,A,3946.9637,N,08404.9748,W,0.0000,0.000,011217,,*36
2017-12-01 17:00:25 1512165625.876852: $GPGSA,A,3,1,3,10,12,14,22,26,31,32,25,11,138,2.0,0.8,1.5*03
2017-12-01 17:00:26 1512165626.426136: $GPZDA,220027.00,01,12,2017,00,00*65
2017-12-01 17:00:26 1512165626.426311: $GPGGA,220027,3946.9637,N,08404.9748,W,2,12,0.80,297.47,M,-33.324,M,,*73
2017-12-01 17:00:26 1512165626.426382: $GPRMC,220027,A,3946.9637,N,08404.9748,W,0.0000,0.000,011217,,*37
2017-12-01 17:00:26 1512165626.426444: $GPGSA,A,3,1,3,10,12,14,22,26,31,32,25,11,138,2.0,0.8,1.5*03
2017-12-01 17:00:27 1512165627.409258: $GPZDA,220028.00,01,12,2017,00,00*6A
2017-12-01 17:00:27 1512165627.409434: $GPGGA,220028,3946.9637,N,08404.9748,W,2,12,0.80,297.47,M,-33.324,M,,*7C
2017-12-01 17:00:27 1512165627.409504: $GPRMC,220028,A,3946.9637,N,08404.9748,W,0.0000,0.000,011217,,*38
2017-12-01 17:00:27 1512165627.409566: $GPGSA,A,3,1,3,10,12,14,22,26,31,32,25,11,138,2.0,0.8,1.5*03
2017-12-01 17:00:28 1512165628.761183: $GPGSV,3,1,12,01,22,286,42,03,11,316,42,10,34,153,36,12,15,039,21*78
2017-12-01 17:00:28 1512165628.761415: $GPGSV,3,2,12,14,70,003,45,22,30,309,46,26,14,180,34,31,69,243,48*7B
2017-12-01 17:00:28 1512165628.761496: $GPGSV,3,3,12,32,62,060,49,25,40,072,19,11,04,271,39,138,38,213,40*45
