2017-11-16 14:16:22 1510859782.746763: {"class":"VERSION","release":"3.17","rev":"3.17","proto_major":3,"proto_minor":12}
2017-11-16 14:16:22 1510859782.747242: {"class":"DEVICES","devices":[{"class":"DEVICE","path":"/dev/ttyUSB0","driver":"SiRF","subtype":"9\u0006GSD4e_4.1.2-P1_RPATCH.05-F-GPS-4R-1510281 11/03/2015 307","activated":"2017-11-16T19:16:22.653Z","flags":1,"native":1,"bps":4800,"parity":"N","stopbits":1,"cycle":1.00}]}
2017-11-16 14:16:22 1510859782.747358: {"class":"WATCH","enable":true,"json":false,"nmea":true,"raw":0,"scaled":false,"timing":false,"split24":false,"pps":false}
2017-11-16 14:16:23 1510859783.510755: $GPZDA,191622.00,16,11,2017,00,00*6A
2017-11-16 14:16:23 1510859783.510930: $GPGGA,191622,3946.9554,N,08404.9851,W,2,12,0.80,304.96,M,-33.324,M,,*7F
2017-11-16 14:16:23 1510859783.510990: $GPRMC,191622,A,3946.9554,N,08404.9851,W,0.0000,0.000,161117,,*39
2017-11-16 14:16:23 1510859783.511046: $GPGSA,A,3,8,10,13,15,18,21,20,24,27,32,14,138,1.6,0.8,1.3*35
2017-11-16 14:16:24 1510859784.847156: $GPGSV,3,1,12,08,06,321,32,10,42,301,43,13,07,049,23,15,36,052,51*7E
2017-11-16 14:16:24 1510859784.847327: $GPGSV,3,2,12,18,72,339,47,21,62,189,46,20,32,097,46,24,51,108,48*70
2017-11-16 14:16:24 1510859784.847388: $GPGSV,3,3,12,27,19,288,42,32,21,238,46,14,05,232,07,138,38,213,44*4F
2017-11-16 14:16:24 1510859784.960512: $GPZDA,191623.00,16,11,2017,00,00*6B
2017-11-16 14:16:24 1510859784.960672: $GPGGA,191623,3946.9554,N,08404.9851,W,2,12,0.80,304.96,M,-33.324,M,,*7E
2017-11-16 14:16:24 1510859784.960732: $GPRMC,191623,A,3946.9554,N,08404.9851,W,0.0000,0.000,161117,,*38
2017-11-16 14:16:24 1510859784.960787: $GPGSA,A,3,8,10,13,15,18,21,20,24,27,32,14,138,1.6,0.8,1.3*35
2017-11-16 14:16:25 1510859785.542269: $GPZDA,191624.00,16,11,2017,00,00*6C
2017-11-16 14:16:25 1510859785.542461: $GPGGA,191624,3946.9558,N,08404.9858,W,2,12,0.80,304.11,M,-33.324,M,,*73
2017-11-16 14:16:25 1510859785.542523: $GPRMC,191624,A,3946.9558,N,08404.9858,W,0.0000,0.000,161117,,*3A
2017-11-16 14:16:25 1510859785.542579: $GPGSA,A,3,8,10,13,15,18,21,20,24,27,32,14,138,1.6,0.8,1.3*35
2017-11-16 14:16:26 1510859786.541022: $GPZDA,191625.00,16,11,2017,00,00*6D
2017-11-16 14:16:26 1510859786.541186: $GPGGA,191625,3946.9558,N,08404.9858,W,2,12,0.80,304.11,M,-33.324,M,,*72
2017-11-16 14:16:26 1510859786.541247: $GPRMC,191625,A,3946.9558,N,08404.9858,W,0.0000,0.000,161117,,*3B
2017-11-16 14:16:26 1510859786.541302: $GPGSA,A,3,8,10,13,15,18,21,20,24,27,32,14,138,1.6,0.8,1.3*35
2017-11-16 14:16:27 1510859787.876687: $GPGSV,3,1,12,08,06,321,33,10,42,301,43,13,07,049,22,15,36,052,50*7F
2017-11-16 14:16:27 1510859787.876873: $GPGSV,3,2,12,18,72,339,47,21,62,189,46,20,32,097,46,24,51,108,48*70
2017-11-16 14:16:27 1510859787.876932: $GPGSV,3,3,12,27,19,288,42,32,21,238,46,14,05,232,10,138,38,213,44*49
2017-11-16 14:16:27 1510859787.989941: $GPZDA,191626.00,16,11,2017,00,00*6E
2017-11-16 14:16:27 1510859787.990098: $GPGGA,191626,3946.9558,N,08404.9858,W,2,12,0.80,304.11,M,-33.324,M,,*71
2017-11-16 14:16:27 1510859787.990158: $GPRMC,191626,A,3946.9558,N,08404.9858,W,0.0000,0.000,161117,,*38
2017-11-16 14:16:27 1510859787.990213: $GPGSA,A,3,8,10,13,15,18,21,20,24,27,32,14,138,1.6,0.8,1.3*35
2017-11-16 14:16:28 1510859788.542029: $GPZDA,191627.00,16,11,2017,00,00*6F
2017-11-16 14:16:28 1510859788.542191: $GPGGA,191627,3946.9558,N,08404.9858,W,2,12,0.80,304.11,M,-33.324,M,,*70
2017-11-16 14:16:28 1510859788.542251: $GPRMC,191627,A,3946.9558,N,08404.9858,W,0.0000,0.000,161117,,*39
2017-11-16 14:16:28 1510859788.542307: $GPGSA,A,3,8,10,13,15,18,21,20,24,27,32,14,138,1.6,0.8,1.3*35
2017-11-16 14:16:29 1510859789.509866: $GPZDA,191628.00,16,11,2017,00,00*60
2017-11-16 14:16:29 1510859789.510029: $GPGGA,191628,3946.9558,N,08404.9858,W,2,12,0.80,304.11,M,-33.324,M,,*7F
2017-11-16 14:16:29 1510859789.510089: $GPRMC,191628,A,3946.9558,N,08404.9858,W,0.0000,0.000,161117,,*36
2017-11-16 14:16:29 1510859789.510144: $GPGSA,A,3,8,10,13,15,18,21,20,24,27,32,14,138,1.6,0.8,1.3*35
2017-11-16 14:16:30 1510859790.871847: $GPGSV,3,1,12,08,06,321,38,10,42,301,43,13,07,049,22,15,36,052,51*75
2017-11-16 14:16:30 1510859790.872055: $GPGSV,3,2,12,18,72,339,47,21,62,189,47,20,32,097,46,24,51,108,48*71
2017-11-16 14:16:30 1510859790.872117: $GPGSV,3,3,12,27,19,288,42,32,21,238,46,14,05,232,13,138,38,213,44*4A
2017-11-16 14:16:30 1510859790.985184: $GPZDA,191629.00,16,11,2017,00,00*61
2017-11-16 14:16:30 1510859790.985343: $GPGGA,191629,3946.9558,N,08404.9858,W,2,12,0.80,304.11,M,-33.324,M,,*7E
2017-11-16 14:16:30 1510859790.985403: $GPRMC,191629,A,3946.9558,N,08404.9858,W,0.0000,0.000,161117,,*37
2017-11-16 14:16:30 1510859790.985459: $GPGSA,A,3,8,10,13,15,18,21,20,24,27,32,14,138,1.6,0.8,1.3*35
2017-11-16 14:16:31 1510859791.508562: $GPZDA,191630.00,16,11,2017,00,00*69
2017-11-16 14:16:31 1510859791.508720: $GPGGA,191630,3946.9558,N,08404.9858,W,2,12,0.80,304.11,M,-33.324,M,,*76
2017-11-16 14:16:31 1510859791.508780: $GPRMC,191630,A,3946.9558,N,08404.9858,W,0.0000,0.000,161117,,*3F
2017-11-16 14:16:31 1510859791.508836: $GPGSA,A,3,8,10,13,15,18,21,20,24,27,32,14,138,1.6,0.8,1.3*35
2017-11-16 14:16:32 1510859792.509304: $GPZDA,191631.00,16,11,2017,00,00*68
2017-11-16 14:16:32 1510859792.509490: $GPGGA,191631,3946.9558,N,08404.9858,W,2,12,0.80,304.11,M,-33.324,M,,*77
2017-11-16 14:16:32 1510859792.509571: $GPRMC,191631,A,3946.9558,N,08404.9858,W,0.0000,0.000,161117,,*3E
2017-11-16 14:16:32 1510859792.509630: $GPGSA,A,3,8,10,13,15,18,21,20,24,27,32,14,138,1.6,0.8,1.3*35
2017-11-16 14:16:33 1510859793.845036: $GPGSV,3,1,12,08,06,321,40,10,42,301,44,13,07,049,22,15,36,052,51*7D
2017-11-16 14:16:33 1510859793.845207: $GPGSV,3,2,12,18,72,339,47,21,62,189,47,20,32,097,46,24,51,108,48*71
2017-11-16 14:16:33 1510859793.845267: $GPGSV,3,3,12,27,19,288,42,32,21,238,46,14,05,232,16,138,38,213,44*4F
2017-11-16 14:16:33 1510859793.958377: $GPZDA,191632.00,16,11,2017,00,00*6B
2017-11-16 14:16:33 1510859793.958532: $GPGGA,191632,3946.9558,N,08404.9858,W,2,12,0.80,304.11,M,-33.324,M,,*74
2017-11-16 14:16:33 1510859793.958592: $GPRMC,191632,A,3946.9558,N,08404.9858,W,0.0000,0.000,161117,,*3D
2017-11-16 14:16:33 1510859793.958647: $GPGSA,A,3,8,10,13,15,18,21,20,24,27,32,14,138,1.6,0.8,1.3*35
2017-11-16 14:16:34 1510859794.583718: $GPZDA,191633.00,16,11,2017,00,00*6A
2017-11-16 14:16:34 1510859794.583877: $GPGGA,191633,3946.9558,N,08404.9858,W,2,12,0.80,304.11,M,-33.324,M,,*75
2017-11-16 14:16:34 1510859794.583938: $GPRMC,191633,A,3946.9558,N,08404.9858,W,0.0000,0.000,161117,,*3C
2017-11-16 14:16:34 1510859794.583994: $GPGSA,A,3,8,10,13,15,18,21,20,24,27,32,14,138,1.6,0.8,1.3*35
2017-11-16 14:16:35 1510859795.539477: $GPZDA,191634.00,16,11,2017,00,00*6D
2017-11-16 14:16:35 1510859795.539636: $GPGGA,191634,3946.9558,N,08404.9858,W,2,12,0.80,304.11,M,-33.324,M,,*72
2017-11-16 14:16:35 1510859795.539697: $GPRMC,191634,A,3946.9558,N,08404.9858,W,0.0000,0.000,161117,,*3B
2017-11-16 14:16:35 1510859795.539753: $GPGSA,A,3,8,10,13,15,18,21,20,24,27,32,14,138,1.6,0.8,1.3*35
2017-11-16 14:16:36 1510859796.840202: $GPGSV,3,1,12,08,06,321,41,10,42,301,44,13,07,049,20,15,36,052,51*7E
2017-11-16 14:16:36 1510859796.840441: $GPGSV,3,2,12,18,72,339,47,21,62,189,46,20,32,097,46,24,51,108,48*70
2017-11-16 14:16:36 1510859796.840504: $GPGSV,3,3,12,27,19,288,41,32,21,238,46,14,05,232,00,138,38,213,44*4B
2017-11-16 14:16:36 1510859796.953548: $GPZDA,191635.00,16,11,2017,00,00*6C
2017-11-16 14:16:36 1510859796.953703: $GPGGA,191635,3946.9558,N,08404.9858,W,2,11,0.80,304.11,M,-33.324,M,,*70
2017-11-16 14:16:36 1510859796.953762: $GPRMC,191635,A,3946.9558,N,08404.9858,W,0.0000,0.000,161117,,*3A
2017-11-16 14:16:36 1510859796.953818: $GPGSA,A,3,8,10,13,15,18,21,20,24,27,32,138,,1.6,0.8,1.3*30
2017-11-16 14:16:37 1510859797.543183: $GPZDA,191636.00,16,11,2017,00,00*6F
2017-11-16 14:16:37 1510859797.543360: $GPGGA,191636,3946.9558,N,08404.9858,W,2,11,0.80,304.11,M,-33.324,M,,*73
2017-11-16 14:16:37 1510859797.543445: $GPRMC,191636,A,3946.9558,N,08404.9858,W,0.0000,0.000,161117,,*39
2017-11-16 14:16:37 1510859797.543504: $GPGSA,A,3,8,10,13,15,18,21,20,24,27,32,138,,1.6,0.8,1.3*30
