2017-12-01 11:53:53 1512147233.746581: {"class":"VERSION","release":"3.16","rev":"3.16-4","proto_major":3,"proto_minor":11}
2017-12-01 11:53:53 1512147233.747007: {"class":"DEVICES","devices":[{"class":"DEVICE","path":"/dev/ttyUSB0","driver":"SiRF","subtype":"9\u0006GSD4e_4.1.2-P1_RPATCH.05-F-GPS-4R-1510281 11/03/2015 307","activated":"2017-12-01T16:53:53.739Z","flags":1,"native":1,"bps":4800,"parity":"N","stopbits":1,"cycle":1.00}]}
2017-12-01 11:53:53 1512147233.747132: {"class":"WATCH","enable":true,"json":false,"nmea":true,"raw":0,"scaled":false,"timing":false,"split24":false,"pps":false}
2017-12-01 11:53:53 1512147233.851097: $GPZDA,165354.00,01,12,2017,00,00*60
2017-12-01 11:53:53 1512147233.851276: $GPGGA,165354,3946.9566,N,08404.9847,W,2,11,0.80,299.09,M,-33.324,M,,*76
2017-12-01 11:53:53 1512147233.851388: $GPRMC,165354,A,3946.9566,N,08404.9847,W,0.0000,0.000,011217,,*35
2017-12-01 11:53:53 1512147233.851460: $GPGSA,A,3,13,15,18,20,21,24,27,29,5,10,138,,2.0,0.8,1.5*34
2017-12-01 11:53:54 1512147234.477743: $GPZDA,165355.00,01,12,2017,00,00*61
2017-12-01 11:53:54 1512147234.477929: $GPGGA,165355,3946.9566,N,08404.9847,W,2,11,0.80,299.09,M,-33.324,M,,*77
2017-12-01 11:53:54 1512147234.477995: $GPRMC,165355,A,3946.9566,N,08404.9847,W,0.0000,0.000,011217,,*34
2017-12-01 11:53:54 1512147234.478057: $GPGSA,A,3,13,15,18,20,21,24,27,29,5,10,138,,2.0,0.8,1.5*34
2017-12-01 11:53:55 1512147235.393635: $GPZDA,165356.00,01,12,2017,00,00*62
2017-12-01 11:53:55 1512147235.393829: $GPGGA,165356,3946.9566,N,08404.9847,W,2,11,0.80,299.09,M,-33.324,M,,*74
2017-12-01 11:53:55 1512147235.393898: $GPRMC,165356,A,3946.9566,N,08404.9847,W,0.0000,0.000,011217,,*37
2017-12-01 11:53:55 1512147235.393976: $GPGSA,A,3,13,15,18,20,21,24,27,29,5,10,138,,2.0,0.8,1.5*34
2017-12-01 11:53:56 1512147236.733093: $GPGSV,3,1,12,13,39,048,47,15,71,061,46,18,47,289,45,20,59,058,44*73
2017-12-01 11:53:56 1512147236.733276: $GPGSV,3,2,12,21,71,300,46,24,24,145,46,27,11,321,39,29,20,193,46*72
2017-12-01 11:53:56 1512147236.733344: $GPGSV,3,3,12,05,11,081,12,10,16,276,35,04,08,132,00,138,38,213,46*49
2017-12-01 11:53:56 1512147236.846481: $GPZDA,165357.00,01,12,2017,00,00*63
2017-12-01 11:53:56 1512147236.846652: $GPGGA,165357,3946.9566,N,08404.9847,W,2,11,0.80,299.09,M,-33.324,M,,*75
2017-12-01 11:53:56 1512147236.846719: $GPRMC,165357,A,3946.9566,N,08404.9847,W,0.0000,0.000,011217,,*36
2017-12-01 11:53:56 1512147236.846781: $GPGSA,A,3,13,15,18,20,21,24,27,29,5,10,138,,2.0,0.8,1.5*34
2017-12-01 11:53:57 1512147237.397360: $GPZDA,165358.00,01,12,2017,00,00*6C
2017-12-01 11:53:57 1512147237.397522: $GPGGA,165358,3946.9566,N,08404.9847,W,2,11,0.80,299.09,M,-33.324,M,,*7A
2017-12-01 11:53:57 1512147237.397588: $GPRMC,165358,A,3946.9566,N,08404.9847,W,0.0000,0.000,011217,,*39
2017-12-01 11:53:57 1512147237.397649: $GPGSA,A,3,13,15,18,20,21,24,27,29,5,10,138,,2.0,0.8,1.5*34
2017-12-01 11:53:58 1512147238.397098: $GPZDA,165359.00,01,12,2017,00,00*6D
2017-12-01 11:53:58 1512147238.397284: $GPGGA,165359,3946.9566,N,08404.9847,W,2,11,0.80,299.09,M,-33.324,M,,*7B
2017-12-01 11:53:58 1512147238.397355: $GPRMC,165359,A,3946.9566,N,08404.9847,W,0.0000,0.000,011217,,*38
2017-12-01 11:53:58 1512147238.397416: $GPGSA,A,3,13,15,18,20,21,24,27,29,5,10,138,,2.0,0.8,1.5*34
2017-12-01 11:53:58 1512147238.397475: $GPGBS,165359,2.67,M,3.86,M,8.82,M*3F
2017-12-01 11:53:59 1512147239.733296: $GPGSV,3,1,12,13,39,048,46,15,71,061,46,18,47,289,44,20,59,058,44*73
2017-12-01 11:53:59 1512147239.733476: $GPGSV,3,2,12,21,71,300,46,24,24,145,46,27,11,321,39,29,20,193,46*72
2017-12-01 11:53:59 1512147239.733542: $GPGSV,3,3,12,05,11,081,23,10,16,276,35,04,08,132,00,138,38,213,46*4B
2017-12-01 11:53:59 1512147239.846701: $GPZDA,165400.00,01,12,2017,00,00*66
2017-12-01 11:53:59 1512147239.846893: $GPGGA,165400,3946.9566,N,08404.9847,W,2,11,0.80,299.09,M,-33.324,M,,*70
2017-12-01 11:53:59 1512147239.846962: $GPRMC,165400,A,3946.9566,N,08404.9847,W,0.0000,0.000,011217,,*33
2017-12-01 11:53:59 1512147239.847023: $GPGSA,A,3,13,15,18,20,21,24,27,29,5,10,138,,2.0,0.8,1.5*34
2017-12-01 11:54:00 1512147240.401309: $GPZDA,165401.00,01,12,2017,00,00*67
2017-12-01 11:54:00 1512147240.401549: $GPGGA,165401,3946.9566,N,08404.9847,W,2,11,0.80,299.09,M,-33.324,M,,*71
2017-12-01 11:54:00 1512147240.401639: $GPRMC,165401,A,3946.9566,N,08404.9847,W,0.0000,0.000,011217,,*32
2017-12-01 11:54:00 1512147240.401827: $GPGSA,A,3,13,15,18,20,21,24,27,29,5,10,138,,2.0,0.8,1.5*34
2017-12-01 11:54:01 1512147241.397192: $GPZDA,165402.00,01,12,2017,00,00*64
2017-12-01 11:54:01 1512147241.397365: $GPGGA,165402,3946.9566,N,08404.9847,W,2,11,0.80,299.09,M,-33.324,M,,*72
2017-12-01 11:54:01 1512147241.397431: $GPRMC,165402,A,3946.9566,N,08404.9847,W,0.0000,0.000,011217,,*31
2017-12-01 11:54:01 1512147241.397492: $GPGSA,A,3,13,15,18,20,21,24,27,29,5,10,138,,2.0,0.8,1.5*34
2017-12-01 11:54:02 1512147242.732892: $GPGSV,3,1,12,13,39,048,47,15,71,061,46,18,47,289,44,20,59,058,44*72
2017-12-01 11:54:02 1512147242.733072: $GPGSV,3,2,12,21,71,300,46,24,24,145,46,27,11,321,40,29,20,193,45*7F
2017-12-01 11:54:02 1512147242.733139: $GPGSV,3,3,12,05,11,081,18,10,16,276,36,04,08,132,00,138,38,213,47*41
2017-12-01 11:54:02 1512147242.846638: $GPZDA,165403.00,01,12,2017,00,00*65
2017-12-01 11:54:02 1512147242.846813: $GPGGA,165403,3946.9566,N,08404.9847,W,2,11,0.80,299.09,M,-33.324,M,,*73
2017-12-01 11:54:02 1512147242.846880: $GPRMC,165403,A,3946.9566,N,08404.9847,W,0.0000,0.000,011217,,*30
2017-12-01 11:54:02 1512147242.846941: $GPGSA,A,3,13,15,18,20,21,24,27,29,5,10,138,,2.0,0.8,1.5*34
2017-12-01 11:54:03 1512147243.395963: $GPZDA,165404.00,01,12,2017,00,00*62
2017-12-01 11:54:03 1512147243.396133: $GPGGA,165404,3946.9566,N,08404.9847,W,2,11,0.80,299.09,M,-33.324,M,,*74
2017-12-01 11:54:03 1512147243.396200: $GPRMC,165404,A,3946.9566,N,08404.9847,W,0.2422,93.794,011217,,*01
2017-12-01 11:54:03 1512147243.396261: $GPGSA,A,3,13,15,18,20,21,24,27,29,5,10,138,,2.0,0.8,1.5*34
