2017-11-16 15:55:31 1510865731.636430: {"class":"VERSION","release":"3.17","rev":"3.17","proto_major":3,"proto_minor":12}
2017-11-16 15:55:31 1510865731.636868: {"class":"DEVICES","devices":[{"class":"DEVICE","path":"/dev/ttyUSB0","driver":"SiRF","subtype":"9\u0006GSD4e_4.1.2-P1_RPATCH.05-F-GPS-4R-1510281 11/03/2015 307","activated":"2017-11-16T20:55:31.255Z","flags":1,"native":1,"bps":4800,"parity":"N","stopbits":1,"cycle":1.00}]}
2017-11-16 15:55:31 1510865731.636979: {"class":"WATCH","enable":true,"json":false,"nmea":true,"raw":0,"scaled":false,"timing":false,"split24":false,"pps":false}
2017-11-16 15:55:31 1510865731.704408: $GPGSV,3,1,12,11,05,319,34,10,81,009,50,14,39,265,45,31,11,205,31*7D
2017-11-16 15:55:31 1510865731.704525: $GPGSV,3,2,12,18,59,117,48,25,13,132,34,21,15,177,35,24,34,049,51*7F
2017-11-16 15:55:31 1510865731.704587: $GPGSV,3,3,12,15,02,075,30,32,55,283,48,12,17,094,48,138,38,213,44*4C
2017-11-16 15:55:31 1510865731.818111: $GPZDA,205530.00,16,11,2017,00,00*64
2017-11-16 15:55:31 1510865731.818270: $GPGGA,205530,3946.9585,N,08404.9843,W,2,12,0.80,307.35,M,-33.324,M,,*74
2017-11-16 15:55:31 1510865731.818333: $GPRMC,205530,A,3946.9585,N,08404.9843,W,0.0000,0.000,161117,,*38
2017-11-16 15:55:31 1510865731.818391: $GPGSA,A,3,11,10,14,31,18,25,21,24,15,32,12,138,1.6,0.8,1.3*0E
2017-11-16 15:55:32 1510865732.360330: $GPZDA,205531.00,16,11,2017,00,00*65
2017-11-16 15:55:32 1510865732.360505: $GPGGA,205531,3946.9585,N,08404.9843,W,2,12,0.80,307.35,M,-33.324,M,,*75
2017-11-16 15:55:32 1510865732.360570: $GPRMC,205531,A,3946.9585,N,08404.9843,W,0.0000,0.000,161117,,*39
2017-11-16 15:55:32 1510865732.360627: $GPGSA,A,3,11,10,14,31,18,25,21,24,15,32,12,138,1.6,0.8,1.3*0E
2017-11-16 15:55:33 1510865733.360765: $GPZDA,205532.00,16,11,2017,00,00*66
2017-11-16 15:55:33 1510865733.360939: $GPGGA,205532,3946.9585,N,08404.9843,W,2,12,0.80,307.35,M,-33.324,M,,*76
2017-11-16 15:55:33 1510865733.361001: $GPRMC,205532,A,3946.9585,N,08404.9843,W,0.0000,0.000,161117,,*3A
2017-11-16 15:55:33 1510865733.361058: $GPGSA,A,3,11,10,14,31,18,25,21,24,15,32,12,138,1.6,0.8,1.3*0E
2017-11-16 15:55:34 1510865734.702800: $GPGSV,3,1,12,11,05,319,35,10,81,009,50,14,39,265,45,31,11,205,23*7F
2017-11-16 15:55:34 1510865734.702975: $GPGSV,3,2,12,18,59,117,48,25,13,132,34,21,15,177,34,24,34,049,51*7E
2017-11-16 15:55:34 1510865734.703036: $GPGSV,3,3,12,15,02,075,30,32,55,283,48,12,17,094,48,138,38,213,44*4C
2017-11-16 15:55:34 1510865734.816105: $GPZDA,205533.00,16,11,2017,00,00*67
2017-11-16 15:55:34 1510865734.816283: $GPGGA,205533,3946.9585,N,08404.9843,W,2,12,0.80,307.35,M,-33.324,M,,*77
2017-11-16 15:55:34 1510865734.816348: $GPRMC,205533,A,3946.9585,N,08404.9843,W,0.0000,0.000,161117,,*3B
2017-11-16 15:55:34 1510865734.816408: $GPGSA,A,3,11,10,14,31,18,25,21,24,15,32,12,138,1.6,0.8,1.3*0E
2017-11-16 15:55:35 1510865735.383224: $GPZDA,205534.00,16,11,2017,00,00*60
2017-11-16 15:55:35 1510865735.383400: $GPGGA,205534,3946.9585,N,08404.9843,W,2,12,0.80,307.35,M,-33.324,M,,*70
2017-11-16 15:55:35 1510865735.383466: $GPRMC,205534,A,3946.9585,N,08404.9843,W,0.0000,0.000,161117,,*3C
2017-11-16 15:55:35 1510865735.383523: $GPGSA,A,3,11,10,14,31,18,25,21,24,15,32,12,138,1.6,0.8,1.3*0E
2017-11-16 15:55:36 1510865736.384944: $GPZDA,205535.00,16,11,2017,00,00*61
2017-11-16 15:55:36 1510865736.385117: $GPGGA,205535,3946.9585,N,08404.9843,W,2,12,0.80,307.35,M,-33.324,M,,*71
2017-11-16 15:55:36 1510865736.385181: $GPRMC,205535,A,3946.9585,N,08404.9843,W,0.0000,0.000,161117,,*3D
2017-11-16 15:55:36 1510865736.385238: $GPGSA,A,3,11,10,14,31,18,25,21,24,15,32,12,138,1.6,0.8,1.3*0E
2017-11-16 15:55:37 1510865737.705703: $GPGSV,3,1,12,11,05,319,36,10,81,009,49,14,39,265,45,31,11,205,25*72
2017-11-16 15:55:37 1510865737.705876: $GPGSV,3,2,12,18,59,117,48,25,13,132,34,21,15,177,34,24,34,049,50*7F
2017-11-16 15:55:37 1510865737.705938: $GPGSV,3,3,12,15,02,075,30,32,55,283,48,12,17,094,48,138,38,213,44*4C
2017-11-16 15:55:37 1510865737.817783: $GPZDA,205536.00,16,11,2017,00,00*62
2017-11-16 15:55:37 1510865737.817952: $GPGGA,205536,3946.9585,N,08404.9843,W,2,12,0.80,307.35,M,-33.324,M,,*72
2017-11-16 15:55:37 1510865737.818070: $GPRMC,205536,A,3946.9585,N,08404.9843,W,0.0000,0.000,161117,,*3E
2017-11-16 15:55:37 1510865737.818129: $GPGSA,A,3,11,10,14,31,18,25,21,24,15,32,12,138,1.6,0.8,1.3*0E
2017-11-16 15:55:38 1510865738.366665: $GPZDA,205537.00,16,11,2017,00,00*63
2017-11-16 15:55:38 1510865738.366841: $GPGGA,205537,3946.9585,N,08404.9843,W,2,12,0.80,307.35,M,-33.324,M,,*73
2017-11-16 15:55:38 1510865738.366904: $GPRMC,205537,A,3946.9585,N,08404.9843,W,0.0000,0.000,161117,,*3F
2017-11-16 15:55:38 1510865738.366962: $GPGSA,A,3,11,10,14,31,18,25,21,24,15,32,12,138,1.6,0.8,1.3*0E
2017-11-16 15:55:39 1510865739.366076: $GPZDA,205538.00,16,11,2017,00,00*6C
2017-11-16 15:55:39 1510865739.366239: $GPGGA,205538,3946.9585,N,08404.9843,W,2,12,0.80,307.35,M,-33.324,M,,*7C
2017-11-16 15:55:39 1510865739.366302: $GPRMC,205538,A,3946.9585,N,08404.9843,W,0.0000,0.000,161117,,*30
2017-11-16 15:55:39 1510865739.366362: $GPGSA,A,3,11,10,14,31,18,25,21,24,15,32,12,138,1.6,0.8,1.3*0E
2017-11-16 15:55:40 1510865740.695540: $GPGSV,3,1,12,11,05,319,38,10,81,009,49,14,39,265,45,31,11,205,26*7F
2017-11-16 15:55:40 1510865740.695728: $GPGSV,3,2,12,18,59,117,48,25,13,132,34,21,15,177,34,24,34,049,51*7E
2017-11-16 15:55:40 1510865740.695790: $GPGSV,3,3,12,15,02,075,30,32,55,283,48,12,17,094,48,138,38,213,44*4C
2017-11-16 15:55:40 1510865740.808576: $GPZDA,205539.00,16,11,2017,00,00*6D
2017-11-16 15:55:40 1510865740.808738: $GPGGA,205539,3946.9585,N,08404.9843,W,2,12,0.80,307.35,M,-33.324,M,,*7D
2017-11-16 15:55:40 1510865740.808801: $GPRMC,205539,A,3946.9585,N,08404.9843,W,0.0000,0.000,161117,,*31
2017-11-16 15:55:40 1510865740.808858: $GPGSA,A,3,11,10,14,31,18,25,21,24,15,32,12,138,1.6,0.8,1.3*0E
2017-11-16 15:55:41 1510865741.435256: $GPZDA,205540.00,16,11,2017,00,00*63
2017-11-16 15:55:41 1510865741.435432: $GPGGA,205540,3946.9585,N,08404.9843,W,2,12,0.80,307.35,M,-33.324,M,,*73
2017-11-16 15:55:41 1510865741.435494: $GPRMC,205540,A,3946.9585,N,08404.9843,W,0.0000,0.000,161117,,*3F
2017-11-16 15:55:41 1510865741.435551: $GPGSA,A,3,11,10,14,31,18,25,21,24,15,32,12,138,1.6,0.8,1.3*0E
