2017-12-31 18:48:19 1514764099.766990: {"class":"VERSION","release":"3.16","rev":"3.16-4","proto_major":3,"proto_minor":11}
2017-12-31 18:48:19 1514764099.767466: {"class":"DEVICES","devices":[{"class":"DEVICE","path":"/dev/ttyUSB0","driver":"SiRF","activated":"2017-12-31T23:48:19.668Z","flags":1,"native":1,"bps":4800,"parity":"N","stopbits":1,"cycle":1.00}]}
2017-12-31 18:48:19 1514764099.767577: {"class":"WATCH","enable":true,"json":false,"nmea":true,"raw":0,"scaled":false,"timing":false,"split24":false,"pps":false}
2017-12-31 18:48:20 1514764100.347338: $GPZDA,234821.00,31,12,2017,00,00*6D
2017-12-31 18:48:20 1514764100.347496: $GPGGA,234821,3946.9585,N,08404.9862,W,2,11,0.80,304.30,M,-33.324,M,,*7D
2017-12-31 18:48:20 1514764100.347564: $GPRMC,234821,A,3946.9585,N,08404.9862,W,0.0000,0.000,311217,,*32
2017-12-31 18:48:20 1514764100.347624: $GPGSA,A,3,22,23,9,3,16,8,31,27,7,26,135,,1.7,0.8,1.3*09
2017-12-31 18:48:21 1514764101.689003: $GPGSV,3,1,11,22,08,204,26,23,68,282,40,09,36,310,41,03,18,220,39*79
2017-12-31 18:48:21 1514764101.689181: $GPGSV,3,2,11,16,77,036,43,08,16,175,36,31,16,088,36,27,39,144,40*7E
2017-12-31 18:48:21 1514764101.689247: $GPGSV,3,3,11,07,10,285,46,26,45,048,45,135,22,240,44*7B
2017-12-31 18:48:21 1514764101.802618: $GPZDA,234822.00,31,12,2017,00,00*6E
2017-12-31 18:48:21 1514764101.802775: $GPGGA,234822,3946.9585,N,08404.9862,W,2,11,0.80,304.30,M,-33.324,M,,*7E
2017-12-31 18:48:21 1514764101.802844: $GPRMC,234822,A,3946.9585,N,08404.9862,W,0.0000,0.000,311217,,*31
2017-12-31 18:48:21 1514764101.802906: $GPGSA,A,3,22,23,9,3,16,8,31,27,7,26,135,,1.7,0.8,1.3*09
2017-12-31 18:48:22 1514764102.353625: $GPZDA,234823.00,31,12,2017,00,00*6F
2017-12-31 18:48:22 1514764102.353816: $GPGGA,234823,3946.9585,N,08404.9862,W,2,11,0.80,304.30,M,-33.324,M,,*7F
2017-12-31 18:48:22 1514764102.353882: $GPRMC,234823,A,3946.9585,N,08404.9862,W,0.0000,0.000,311217,,*30
2017-12-31 18:48:22 1514764102.353949: $GPGSA,A,3,22,23,9,3,16,8,31,27,7,26,135,,1.7,0.8,1.3*09
2017-12-31 18:48:23 1514764103.352882: $GPZDA,234824.00,31,12,2017,00,00*68
2017-12-31 18:48:23 1514764103.353067: $GPGGA,234824,3946.9585,N,08404.9862,W,2,11,0.80,304.30,M,-33.324,M,,*78
2017-12-31 18:48:23 1514764103.353138: $GPRMC,234824,A,3946.9585,N,08404.9862,W,0.0000,0.000,311217,,*37
2017-12-31 18:48:23 1514764103.353200: $GPGSA,A,3,22,23,9,3,16,8,31,27,7,26,135,,1.7,0.8,1.3*09
2017-12-31 18:48:24 1514764104.688606: $GPGSV,3,1,11,22,08,204,26,23,68,282,41,09,36,310,41,03,18,220,39*78
2017-12-31 18:48:24 1514764104.691499: $GPGSV,3,2,11,16,77,036,43,08,16,175,36,31,16,088,36,27,39,144,40*7E
2017-12-31 18:48:24 1514764104.691606: $GPGSV,3,3,11,07,10,285,46,26,45,048,45,135,22,240,44*7B
2017-12-31 18:48:24 1514764104.802303: $GPZDA,234825.00,31,12,2017,00,00*69
2017-12-31 18:48:24 1514764104.802492: $GPGGA,234825,3946.9585,N,08404.9862,W,2,11,0.80,304.30,M,-33.324,M,,*79
2017-12-31 18:48:24 1514764104.802559: $GPRMC,234825,A,3946.9585,N,08404.9862,W,0.0000,0.000,311217,,*36
2017-12-31 18:48:24 1514764104.802620: $GPGSA,A,3,22,23,9,3,16,8,31,27,7,26,135,,1.7,0.8,1.3*09
2017-12-31 18:48:25 1514764105.427739: $GPZDA,234826.00,31,12,2017,00,00*6A
2017-12-31 18:48:25 1514764105.427914: $GPGGA,234826,3946.9585,N,08404.9862,W,2,11,0.80,304.30,M,-33.324,M,,*7A
2017-12-31 18:48:25 1514764105.427980: $GPRMC,234826,A,3946.9585,N,08404.9862,W,0.0000,0.000,311217,,*35
2017-12-31 18:48:25 1514764105.428040: $GPGSA,A,3,22,23,9,3,16,8,31,27,7,26,135,,1.7,0.8,1.3*09
2017-12-31 18:48:26 1514764106.353271: $GPZDA,234827.00,31,12,2017,00,00*6B
2017-12-31 18:48:26 1514764106.353441: $GPGGA,234827,3946.9585,N,08404.9862,W,2,11,0.80,304.30,M,-33.324,M,,*7B
2017-12-31 18:48:26 1514764106.353506: $GPRMC,234827,A,3946.9585,N,08404.9862,W,0.0000,0.000,311217,,*34
2017-12-31 18:48:26 1514764106.353567: $GPGSA,A,3,22,23,9,3,16,8,31,27,7,26,135,,1.7,0.8,1.3*09
2017-12-31 18:48:27 1514764107.689026: $GPGSV,3,1,11,22,08,204,27,23,68,282,41,09,36,310,41,03,18,220,39*79
2017-12-31 18:48:27 1514764107.689182: $GPGSV,3,2,11,16,77,036,42,08,16,175,36,31,16,088,36,27,39,144,41*7E
2017-12-31 18:48:27 1514764107.689291: $GPGSV,3,3,11,07,10,285,46,26,45,048,44,135,22,240,44*7A
2017-12-31 18:48:27 1514764107.802702: $GPZDA,234828.00,31,12,2017,00,00*64
2017-12-31 18:48:27 1514764107.802901: $GPGGA,234828,3946.9585,N,08404.9862,W,2,11,0.80,304.30,M,-33.324,M,,*74
2017-12-31 18:48:27 1514764107.802968: $GPRMC,234828,A,3946.9585,N,08404.9862,W,0.0000,0.000,311217,,*3B
2017-12-31 18:48:27 1514764107.803029: $GPGSA,A,3,22,23,9,3,16,8,31,27,7,26,135,,1.7,0.8,1.3*09
2017-12-31 18:48:28 1514764108.353455: $GPZDA,234829.00,31,12,2017,00,00*65
2017-12-31 18:48:28 1514764108.353654: $GPGGA,234829,3946.9585,N,08404.9862,W,2,11,0.80,304.30,M,-33.324,M,,*75
2017-12-31 18:48:28 1514764108.353726: $GPRMC,234829,A,3946.9585,N,08404.9862,W,0.0000,0.000,311217,,*3A
2017-12-31 18:48:28 1514764108.353790: $GPGSA,A,3,22,23,9,3,16,8,31,27,7,26,135,,1.7,0.8,1.3*09
2017-12-31 18:48:29 1514764109.352944: $GPZDA,234830.00,31,12,2017,00,00*6D
2017-12-31 18:48:29 1514764109.353118: $GPGGA,234830,3946.9585,N,08404.9862,W,2,11,0.80,304.30,M,-33.324,M,,*7D
2017-12-31 18:48:29 1514764109.353188: $GPRMC,234830,A,3946.9585,N,08404.9862,W,0.0000,0.000,311217,,*32
2017-12-31 18:48:29 1514764109.353252: $GPGSA,A,3,22,23,9,3,16,8,31,27,7,26,135,,1.7,0.8,1.3*09
2017-12-31 18:48:30 1514764110.681795: $GPGSV,3,1,11,22,08,204,27,23,68,282,41,09,36,310,42,03,18,220,39*7A
2017-12-31 18:48:30 1514764110.681996: $GPGSV,3,2,11,16,77,036,42,08,16,175,36,31,16,088,36,27,39,144,41*7E
2017-12-31 18:48:30 1514764110.682066: $GPGSV,3,3,11,07,10,285,47,26,45,048,44,135,22,240,44*7B
2017-12-31 18:48:30 1514764110.795178: $GPZDA,234831.00,31,12,2017,00,00*6C
2017-12-31 18:48:30 1514764110.795361: $GPGGA,234831,3946.9585,N,08404.9862,W,2,11,0.80,304.30,M,-33.324,M,,*7C
2017-12-31 18:48:30 1514764110.795432: $GPRMC,234831,A,3946.9585,N,08404.9862,W,0.0000,0.000,311217,,*33
2017-12-31 18:48:30 1514764110.795496: $GPGSA,A,3,22,23,9,3,16,8,31,27,7,26,135,,1.7,0.8,1.3*09
2017-12-31 18:48:31 1514764111.354812: $GPZDA,234832.00,31,12,2017,00,00*6F
2017-12-31 18:48:31 1514764111.354997: $GPGGA,234832,3946.9585,N,08404.9862,W,2,11,0.80,304.30,M,-33.324,M,,*7F
2017-12-31 18:48:31 1514764111.355066: $GPRMC,234832,A,3946.9585,N,08404.9862,W,0.0000,0.000,311217,,*30
2017-12-31 18:48:31 1514764111.355145: $GPGSA,A,3,22,23,9,3,16,8,31,27,7,26,135,,1.7,0.8,1.3*09
2017-12-31 18:48:32 1514764112.354593: $GPZDA,234833.00,31,12,2017,00,00*6E
2017-12-31 18:48:32 1514764112.354773: $GPGGA,234833,3946.9585,N,08404.9862,W,2,11,0.80,304.30,M,-33.324,M,,*7E
2017-12-31 18:48:32 1514764112.354858: $GPRMC,234833,A,3946.9585,N,08404.9862,W,0.0000,0.000,311217,,*31
2017-12-31 18:48:32 1514764112.354923: $GPGSA,A,3,22,23,9,3,16,8,31,27,7,26,135,,1.7,0.8,1.3*09
2017-12-31 18:48:33 1514764113.688908: $GPGSV,3,1,11,22,08,204,22,23,68,282,42,09,36,310,43,03,18,220,40*73
2017-12-31 18:48:33 1514764113.689091: $GPGSV,3,2,11,16,77,036,42,08,16,175,36,31,16,088,36,27,39,144,40*7F
2017-12-31 18:48:33 1514764113.689161: $GPGSV,3,3,11,07,10,285,47,26,45,048,45,135,22,240,42*7C
2017-12-31 18:48:33 1514764113.808870: $GPZDA,234834.00,31,12,2017,00,00*69
2017-12-31 18:48:33 1514764113.809052: $GPGGA,234834,3946.9585,N,08404.9862,W,2,11,0.80,304.30,M,-33.324,M,,*79
2017-12-31 18:48:33 1514764113.809122: $GPRMC,234834,A,3946.9585,N,08404.9862,W,0.0000,0.000,311217,,*36
2017-12-31 18:48:33 1514764113.809186: $GPGSA,A,3,22,23,9,3,16,8,31,27,7,26,135,,1.7,0.8,1.3*09
2017-12-31 18:48:34 1514764114.353268: $GPZDA,234835.00,31,12,2017,00,00*68
2017-12-31 18:48:34 1514764114.353636: $GPGGA,234835,3946.9585,N,08404.9862,W,2,11,0.80,304.30,M,-33.324,M,,*78
2017-12-31 18:48:34 1514764114.353800: $GPRMC,234835,A,3946.9585,N,08404.9862,W,0.0000,0.000,311217,,*37
2017-12-31 18:48:34 1514764114.353912: $GPGSA,A,3,22,23,9,3,16,8,31,27,7,26,135,,1.7,0.8,1.3*09
2017-12-31 18:48:35 1514764115.352407: $GPZDA,234836.00,31,12,2017,00,00*6B
2017-12-31 18:48:35 1514764115.352619: $GPGGA,234836,3946.9585,N,08404.9862,W,2,11,0.80,304.30,M,-33.324,M,,*7B
2017-12-31 18:48:35 1514764115.397298: $GPRMC,234836,A,3946.9585,N,08404.9862,W,0.0000,0.000,311217,,*34
2017-12-31 18:48:35 1514764115.397452: $GPGSA,A,3,22,23,9,3,16,8,31,27,7,26,135,,1.7,0.8,1.3*09
2017-12-31 18:48:36 1514764116.681745: $GPGSV,3,1,11,22,08,204,11,23,68,282,42,09,36,310,42,03,18,220,40*72
2017-12-31 18:48:36 1514764116.681942: $GPGSV,3,2,11,16,77,036,43,08,16,175,36,31,16,088,37,27,39,144,41*7E
2017-12-31 18:48:36 1514764116.682008: $GPGSV,3,3,11,07,10,285,47,26,45,048,45,135,22,240,43*7D
2017-12-31 18:48:36 1514764116.797268: $GPZDA,234837.00,31,12,2017,00,00*6A
2017-12-31 18:48:36 1514764116.797456: $GPGGA,234837,3946.9585,N,08404.9862,W,2,10,0.80,304.30,M,-33.324,M,,*7B
2017-12-31 18:48:36 1514764116.797542: $GPRMC,234837,A,3946.9585,N,08404.9862,W,0.0000,0.000,311217,,*35
2017-12-31 18:48:36 1514764116.797606: $GPGSA,A,3,23,9,3,16,8,31,27,7,26,135,,,1.7,0.8,1.3*09
2017-12-31 18:48:37 1514764117.354874: $GPZDA,234838.00,31,12,2017,00,00*65
2017-12-31 18:48:37 1514764117.355042: $GPGGA,234838,3946.9585,N,08404.9862,W,2,10,0.80,304.30,M,-33.324,M,,*74
2017-12-31 18:48:37 1514764117.355111: $GPRMC,234838,A,3946.9585,N,08404.9862,W,0.0000,0.000,311217,,*3A
2017-12-31 18:48:37 1514764117.355171: $GPGSA,A,3,23,9,3,16,8,31,27,7,26,135,,,1.7,0.8,1.3*09
2017-12-31 18:48:38 1514764118.354704: $GPZDA,234839.00,31,12,2017,00,00*64
2017-12-31 18:48:38 1514764118.354905: $GPGGA,234839,3946.9585,N,08404.9862,W,2,10,0.80,304.30,M,-33.324,M,,*75
2017-12-31 18:48:38 1514764118.354974: $GPRMC,234839,A,3946.9585,N,08404.9862,W,0.0000,0.000,311217,,*3B
2017-12-31 18:48:38 1514764118.355037: $GPGSA,A,3,23,9,3,16,8,31,27,7,26,135,,,1.7,0.8,1.3*09
2017-12-31 18:48:39 1514764119.688976: $GPGSV,3,1,11,22,08,204,14,23,68,282,40,09,36,310,42,03,18,220,39*7B
2017-12-31 18:48:39 1514764119.689144: $GPGSV,3,2,11,16,77,036,43,08,16,175,35,31,16,088,36,27,39,144,41*7C
2017-12-31 18:48:39 1514764119.689214: $GPGSV,3,3,11,07,10,285,47,26,45,048,45,135,22,240,44*7A
2017-12-31 18:48:39 1514764119.802239: $GPZDA,234840.00,31,12,2017,00,00*6A
2017-12-31 18:48:39 1514764119.802414: $GPGGA,234840,3946.9585,N,08404.9862,W,2,11,0.80,304.30,M,-33.324,M,,*7A
2017-12-31 18:48:39 1514764119.802484: $GPRMC,234840,A,3946.9585,N,08404.9862,W,0.0000,0.000,311217,,*35
2017-12-31 18:48:39 1514764119.802548: $GPGSA,A,3,22,23,9,3,16,8,31,27,7,26,135,,1.7,0.8,1.3*09
