2017-12-31 16:43:02 1514756582.147958: {"class":"VERSION","release":"3.16","rev":"3.16-4","proto_major":3,"proto_minor":11}
2017-12-31 16:43:02 1514756582.148368: {"class":"DEVICES","devices":[{"class":"DEVICE","path":"/dev/ttyUSB0","driver":"SiRF","activated":"2017-12-31T21:43:01.496Z","flags":1,"native":1,"bps":4800,"parity":"N","stopbits":1,"cycle":1.00}]}
2017-12-31 16:43:02 1514756582.148486: {"class":"WATCH","enable":true,"json":false,"nmea":true,"raw":0,"scaled":false,"timing":false,"split24":false,"pps":false}
2017-12-31 16:43:02 1514756582.348293: $GPZDA,214303.00,31,12,2017,00,00*64
2017-12-31 16:43:02 1514756582.348486: $GPGGA,214303,3946.9575,N,08404.9834,W,2,11,0.80,303.34,M,-33.324,M,,*7B
2017-12-31 16:43:02 1514756582.348552: $GPRMC,214303,A,3946.9575,N,08404.9834,W,0.0000,0.000,311217,,*37
2017-12-31 16:43:02 1514756582.348613: $GPGSA,A,3,22,23,25,3,16,29,31,14,32,26,135,,1.7,0.8,1.3*32
2017-12-31 16:43:03 1514756583.698996: $GPGSV,3,1,12,22,49,255,43,23,19,304,42,25,11,039,36,03,45,286,30*7D
2017-12-31 16:43:03 1514756583.699182: $GPGSV,3,2,12,16,34,189,48,29,13,066,29,01,01,246,21,31,58,040,51*79
2017-12-31 16:43:03 1514756583.699250: $GPGSV,3,3,12,14,49,103,47,32,27,115,41,26,64,163,42,135,22,240,43*45
2017-12-31 16:43:03 1514756583.812616: $GPZDA,214304.00,31,12,2017,00,00*63
2017-12-31 16:43:03 1514756583.812795: $GPGGA,214304,3946.9575,N,08404.9834,W,2,11,0.80,303.34,M,-33.324,M,,*7C
2017-12-31 16:43:03 1514756583.812862: $GPRMC,214304,A,3946.9575,N,08404.9834,W,0.0000,0.000,311217,,*30
2017-12-31 16:43:03 1514756583.812923: $GPGSA,A,3,22,23,25,3,16,29,31,14,32,26,135,,1.7,0.8,1.3*32
2017-12-31 16:43:04 1514756584.345966: $GPZDA,214305.00,31,12,2017,00,00*62
2017-12-31 16:43:04 1514756584.346121: $GPGGA,214305,3946.9575,N,08404.9834,W,2,11,0.80,303.34,M,-33.324,M,,*7D
2017-12-31 16:43:04 1514756584.346187: $GPRMC,214305,A,3946.9575,N,08404.9834,W,0.0000,0.000,311217,,*31
2017-12-31 16:43:04 1514756584.346248: $GPGSA,A,3,22,23,25,3,16,29,31,14,32,26,135,,1.7,0.8,1.3*32
2017-12-31 16:43:05 1514756585.347684: $GPZDA,214306.00,31,12,2017,00,00*61
2017-12-31 16:43:05 1514756585.347853: $GPGGA,214306,3946.9575,N,08404.9834,W,2,11,0.80,303.34,M,-33.324,M,,*7E
2017-12-31 16:43:05 1514756585.347920: $GPRMC,214306,A,3946.9575,N,08404.9834,W,0.0000,0.000,311217,,*32
2017-12-31 16:43:05 1514756585.347981: $GPGSA,A,3,22,23,25,3,16,29,31,14,32,26,135,,1.7,0.8,1.3*32
2017-12-31 16:43:05 1514756585.348039: $GPGBS,214306,2.22,M,3.43,M,7.66,M*3D
2017-12-31 16:43:06 1514756586.681827: $GPGSV,3,1,11,22,49,253,42,23,20,304,42,25,09,039,36,03,45,285,32*7B
2017-12-31 16:43:06 1514756586.681996: $GPGSV,3,2,11,16,35,189,48,29,13,064,29,31,57,042,51,14,48,105,47*79
2017-12-31 16:43:06 1514756586.682063: $GPGSV,3,3,11,32,26,115,41,26,66,162,41,135,22,240,43*7E
2017-12-31 16:43:06 1514756586.795413: $GPZDA,214307.00,31,12,2017,00,00*60
2017-12-31 16:43:06 1514756586.795538: $GPGGA,214307,3946.9575,N,08404.9834,W,2,11,0.80,303.34,M,-33.324,M,,*7F
2017-12-31 16:43:06 1514756586.795627: $GPRMC,214307,A,3946.9575,N,08404.9834,W,0.0000,0.000,311217,,*33
2017-12-31 16:43:06 1514756586.795690: $GPGSA,A,3,22,23,25,3,16,29,31,14,32,26,135,,1.7,0.8,1.3*32
2017-12-31 16:43:07 1514756587.363803: $GPZDA,214308.00,31,12,2017,00,00*6F
2017-12-31 16:43:07 1514756587.363966: $GPGGA,214308,3946.9575,N,08404.9834,W,2,11,0.80,303.34,M,-33.324,M,,*70
2017-12-31 16:43:07 1514756587.364033: $GPRMC,214308,A,3946.9575,N,08404.9834,W,0.0000,0.000,311217,,*3C
2017-12-31 16:43:07 1514756587.364095: $GPGSA,A,3,22,23,25,3,16,29,31,14,32,26,135,,1.7,0.8,1.3*32
2017-12-31 16:43:08 1514756588.338480: $GPZDA,214309.00,31,12,2017,00,00*6E
2017-12-31 16:43:08 1514756588.338677: $GPGGA,214309,3946.9575,N,08404.9834,W,2,11,0.80,303.34,M,-33.324,M,,*71
2017-12-31 16:43:08 1514756588.338772: $GPRMC,214309,A,3946.9575,N,08404.9834,W,0.0000,0.000,311217,,*3D
2017-12-31 16:43:08 1514756588.338834: $GPGSA,A,3,22,23,25,3,16,29,31,14,32,26,135,,1.7,0.8,1.3*32
2017-12-31 16:43:09 1514756589.681414: $GPGSV,3,1,11,22,49,253,42,23,20,304,41,25,09,039,36,03,45,285,32*78
2017-12-31 16:43:09 1514756589.896897: $GPGSV,3,2,11,16,35,189,48,29,13,064,28,31,57,042,51,14,48,105,47*78
2017-12-31 16:43:09 1514756589.897039: $GPGSV,3,3,11,32,26,115,42,26,66,162,41,135,22,240,43*7D
2017-12-31 16:43:09 1514756589.897175: $GPZDA,214310.00,31,12,2017,00,00*66
2017-12-31 16:43:09 1514756589.897243: $GPGGA,214310,3946.9575,N,08404.9834,W,2,11,0.80,303.34,M,-33.324,M,,*79
2017-12-31 16:43:09 1514756589.897305: $GPRMC,214310,A,3946.9575,N,08404.9834,W,0.0000,0.000,311217,,*35
2017-12-31 16:43:09 1514756589.897365: $GPGSA,A,3,22,23,25,3,16,29,31,14,32,26,135,,1.7,0.8,1.3*32
2017-12-31 16:43:10 1514756590.420414: $GPZDA,214311.00,31,12,2017,00,00*67
2017-12-31 16:43:10 1514756590.420609: $GPGGA,214311,3946.9575,N,08404.9834,W,2,11,0.80,303.34,M,-33.324,M,,*78
2017-12-31 16:43:10 1514756590.420681: $GPRMC,214311,A,3946.9575,N,08404.9834,W,0.0000,0.000,311217,,*34
2017-12-31 16:43:10 1514756590.420763: $GPGSA,A,3,22,23,25,3,16,29,31,14,32,26,135,,1.7,0.8,1.3*32
2017-12-31 16:43:11 1514756591.362513: $GPZDA,214312.00,31,12,2017,00,00*64
2017-12-31 16:43:11 1514756591.362751: $GPGGA,214312,3946.9575,N,08404.9834,W,2,11,0.80,303.34,M,-33.324,M,,*7B
2017-12-31 16:43:11 1514756591.362822: $GPRMC,214312,A,3946.9575,N,08404.9834,W,0.0000,0.000,311217,,*37
2017-12-31 16:43:11 1514756591.362886: $GPGSA,A,3,22,23,25,3,16,29,31,14,32,26,135,,1.7,0.8,1.3*32
