2017-11-16 17:17:02 1510870622.560809: {"class":"VERSION","release":"3.17","rev":"3.17","proto_major":3,"proto_minor":12}
2017-11-16 17:17:02 1510870622.561273: {"class":"DEVICES","devices":[{"class":"DEVICE","path":"/dev/ttyUSB0","driver":"SiRF","subtype":"9\u0006GSD4e_4.1.2-P1_RPATCH.05-F-GPS-4R-1510281 11/03/2015 307","activated":"2017-11-16T22:17:02.535Z","flags":1,"native":1,"bps":4800,"parity":"N","stopbits":1,"cycle":1.00}]}
2017-11-16 17:17:02 1510870622.561390: {"class":"WATCH","enable":true,"json":false,"nmea":true,"raw":0,"scaled":false,"timing":false,"split24":false,"pps":false}
2017-11-16 17:17:03 1510870623.732343: $GPGSV,3,1,12,01,20,307,40,10,56,144,48,22,13,312,38,12,24,057,48*76
2017-11-16 17:17:03 1510870623.732511: $GPGSV,3,2,12,14,63,313,47,18,25,141,44,24,03,048,00,11,10,288,37*7D
2017-11-16 17:17:03 1510870623.732571: $GPGSV,3,3,12,25,37,100,48,31,48,219,49,32,70,006,48,138,38,213,44*40
2017-11-16 17:17:03 1510870623.845851: $GPZDA,221702.00,16,11,2017,00,00*61
2017-11-16 17:17:03 1510870623.846028: $GPGGA,221702,3946.9567,N,08404.9826,W,2,11,0.80,311.41,M,-33.324,M,,*79
2017-11-16 17:17:03 1510870623.846202: $GPRMC,221702,A,3946.9567,N,08404.9826,W,0.0000,0.000,161117,,*32
2017-11-16 17:17:03 1510870623.846259: $GPGSA,A,3,1,10,22,12,14,18,11,25,31,32,138,,1.6,0.8,1.3*3E
2017-11-16 17:17:04 1510870624.401446: $GPZDA,221703.00,16,11,2017,00,00*60
2017-11-16 17:17:04 1510870624.401623: $GPGGA,221703,3946.9567,N,08404.9826,W,2,11,0.80,311.41,M,-33.324,M,,*78
2017-11-16 17:17:04 1510870624.401686: $GPRMC,221703,A,3946.9567,N,08404.9826,W,0.0000,0.000,161117,,*33
2017-11-16 17:17:04 1510870624.401743: $GPGSA,A,3,1,10,22,12,14,18,11,25,31,32,138,,1.6,0.8,1.3*3E
2017-11-16 17:17:05 1510870625.401079: $GPZDA,221704.00,16,11,2017,00,00*67
2017-11-16 17:17:05 1510870625.401247: $GPGGA,221704,3946.9567,N,08404.9826,W,2,11,0.80,311.41,M,-33.324,M,,*7F
2017-11-16 17:17:05 1510870625.401309: $GPRMC,221704,A,3946.9567,N,08404.9826,W,0.0000,0.000,161117,,*34
2017-11-16 17:17:05 1510870625.401365: $GPGSA,A,3,1,10,22,12,14,18,11,25,31,32,138,,1.6,0.8,1.3*3E
2017-11-16 17:17:06 1510870626.737937: $GPGSV,3,1,12,01,20,307,40,10,56,144,48,22,13,312,39,12,24,057,49*76
2017-11-16 17:17:06 1510870626.738191: $GPGSV,3,2,12,14,63,313,47,18,25,141,43,24,03,048,00,11,10,288,37*7A
2017-11-16 17:17:06 1510870626.738257: $GPGSV,3,3,12,25,37,100,48,31,48,219,49,32,70,006,48,138,38,213,44*40
2017-11-16 17:17:06 1510870626.850904: $GPZDA,221705.00,16,11,2017,00,00*66
2017-11-16 17:17:06 1510870626.851081: $GPGGA,221705,3946.9567,N,08404.9826,W,2,11,0.80,311.41,M,-33.324,M,,*7E
2017-11-16 17:17:06 1510870626.851142: $GPRMC,221705,A,3946.9567,N,08404.9826,W,0.0000,0.000,161117,,*35
2017-11-16 17:17:06 1510870626.851199: $GPGSA,A,3,1,10,22,12,14,18,11,25,31,32,138,,1.6,0.8,1.3*3E
2017-11-16 17:17:07 1510870627.401804: $GPZDA,221706.00,16,11,2017,00,00*65
2017-11-16 17:17:07 1510870627.401969: $GPGGA,221706,3946.9567,N,08404.9826,W,2,11,0.80,311.41,M,-33.324,M,,*7D
2017-11-16 17:17:07 1510870627.402030: $GPRMC,221706,A,3946.9567,N,08404.9826,W,0.0000,0.000,161117,,*36
2017-11-16 17:17:07 1510870627.402086: $GPGSA,A,3,1,10,22,12,14,18,11,25,31,32,138,,1.6,0.8,1.3*3E
2017-11-16 17:17:08 1510870628.396559: $GPZDA,221707.00,16,11,2017,00,00*64
2017-11-16 17:17:08 1510870628.396724: $GPGGA,221707,3946.9567,N,08404.9826,W,2,11,0.80,311.41,M,-33.324,M,,*7C
2017-11-16 17:17:08 1510870628.396786: $GPRMC,221707,A,3946.9567,N,08404.9826,W,0.0000,0.000,161117,,*37
2017-11-16 17:17:08 1510870628.396842: $GPGSA,A,3,1,10,22,12,14,18,11,25,31,32,138,,1.6,0.8,1.3*3E
2017-11-16 17:17:09 1510870629.732314: $GPGSV,3,1,12,01,20,307,40,10,56,144,49,22,13,312,39,12,24,057,49*77
2017-11-16 17:17:09 1510870629.732490: $GPGSV,3,2,12,14,63,313,47,18,25,141,44,24,03,048,00,11,10,288,36*7C
2017-11-16 17:17:09 1510870629.732553: $GPGSV,3,3,12,25,37,100,48,31,48,219,49,32,70,006,49,138,38,213,44*41
2017-11-16 17:17:09 1510870629.845669: $GPZDA,221708.00,16,11,2017,00,00*6B
2017-11-16 17:17:09 1510870629.845841: $GPGGA,221708,3946.9567,N,08404.9826,W,2,11,0.80,311.41,M,-33.324,M,,*73
2017-11-16 17:17:09 1510870629.845958: $GPRMC,221708,A,3946.9567,N,08404.9826,W,0.0000,0.000,161117,,*38
2017-11-16 17:17:09 1510870629.846015: $GPGSA,A,3,1,10,22,12,14,18,11,25,31,32,138,,1.6,0.8,1.3*3E
2017-11-16 17:17:10 1510870630.401393: $GPZDA,221709.00,16,11,2017,00,00*6A
2017-11-16 17:17:10 1510870630.401554: $GPGGA,221709,3946.9567,N,08404.9826,W,2,11,0.80,311.41,M,-33.324,M,,*72
2017-11-16 17:17:10 1510870630.401614: $GPRMC,221709,A,3946.9567,N,08404.9826,W,0.0000,0.000,161117,,*39
2017-11-16 17:17:10 1510870630.401670: $GPGSA,A,3,1,10,22,12,14,18,11,25,31,32,138,,1.6,0.8,1.3*3E
2017-11-16 17:17:11 1510870631.401778: $GPZDA,221710.00,16,11,2017,00,00*62
2017-11-16 17:17:11 1510870631.401941: $GPGGA,221710,3946.9567,N,08404.9826,W,2,11,0.80,311.41,M,-33.324,M,,*7A
2017-11-16 17:17:11 1510870631.402001: $GPRMC,221710,A,3946.9567,N,08404.9826,W,0.0000,0.000,161117,,*31
2017-11-16 17:17:11 1510870631.402056: $GPGSA,A,3,1,10,22,12,14,18,11,25,31,32,138,,1.6,0.8,1.3*3E
