2017-12-01 17:43:25 1512168205.137139: {"class":"VERSION","release":"3.16","rev":"3.16-4","proto_major":3,"proto_minor":11}
2017-12-01 17:43:25 1512168205.137531: {"class":"DEVICES","devices":[{"class":"DEVICE","path":"/dev/ttyUSB0","driver":"SiRF","subtype":"9\u0006GSD4e_4.1.2-P1_RPATCH.05-F-GPS-4R-1510281 11/03/2015 307","activated":"2017-12-01T22:43:25.066Z","flags":1,"native":1,"bps":4800,"parity":"N","stopbits":1,"cycle":1.00}]}
2017-12-01 17:43:25 1512168205.137653: {"class":"WATCH","enable":true,"json":false,"nmea":true,"raw":0,"scaled":false,"timing":false,"split24":false,"pps":false}
2017-12-01 17:43:26 1512168206.132611: $GPZDA,224326.36,01,12,2017,00,00*66
2017-12-01 17:43:26 1512168206.132779: $GPGGA,224326,3946.9751,N,08404.9871,W,1,12,0.80,295.63,M,-33.325,M,,*77
2017-12-01 17:43:26 1512168206.132870: $GPRMC,224326,A,3946.9751,N,08404.9871,W,0.3423,4.196,011217,,*39
2017-12-01 17:43:26 1512168206.132932: $GPGSA,A,3,1,3,10,14,22,25,26,31,32,16,29,138,2.0,0.8,1.5*0C
2017-12-01 17:43:26 1512168206.132992: $GPGBS,224326,10.70,M,15.43,M,35.28,M*04
2017-12-01 17:43:27 1512168207.298705: $GPGSV,3,1,12,01,15,267,43,03,27,312,47,10,14,157,44,14,66,058,43*74
2017-12-01 17:43:27 1512168207.298893: $GPGSV,3,2,12,22,44,295,47,25,31,049,45,26,34,177,43,29,03,088,37*76
2017-12-01 17:43:27 1512168207.298960: $GPGSV,3,3,12,31,79,330,46,32,49,090,46,12,01,030,07,138,38,213,30*47
2017-12-01 17:43:27 1512168207.412170: $GPZDA,224327.00,01,12,2017,00,00*62
2017-12-01 17:43:27 1512168207.412346: $GPGGA,224327,3946.9750,N,08404.9864,W,1,11,0.80,295.71,M,-33.325,M,,*73
2017-12-01 17:43:27 1512168207.412412: $GPRMC,224327,A,3946.9750,N,08404.9864,W,0.0000,0.000,011217,,*31
2017-12-01 17:43:27 1512168207.412473: $GPGSA,A,3,1,3,10,14,22,25,26,29,31,32,138,,2.0,0.8,1.5*0B
2017-12-01 17:43:27 1512168207.862904: $GPZDA,224328.00,01,12,2017,00,00*6D
2017-12-01 17:43:27 1512168207.863074: $GPGGA,224328,3946.9747,N,08404.9865,W,1,11,0.80,296.47,M,-33.325,M,,*7D
2017-12-01 17:43:27 1512168207.863141: $GPRMC,224328,A,3946.9747,N,08404.9865,W,0.1867,180.000,011217,,*38
2017-12-01 17:43:27 1512168207.863202: $GPGSA,A,3,1,3,10,14,22,25,26,29,31,32,138,,2.0,0.8,1.5*0B
2017-12-01 17:43:28 1512168208.420364: $GPZDA,224329.00,01,12,2017,00,00*6C
2017-12-01 17:43:28 1512168208.420534: $GPGGA,224329,3946.9743,N,08404.9866,W,1,11,0.80,297.24,M,-33.325,M,,*7F
2017-12-01 17:43:28 1512168208.420601: $GPRMC,224329,A,3946.9743,N,08404.9866,W,0.0000,0.000,011217,,*3F
2017-12-01 17:43:28 1512168208.420662: $GPGSA,A,3,1,3,10,14,22,25,26,29,31,32,138,,2.0,0.8,1.5*0B
2017-12-01 17:43:29 1512168209.756589: $GPGSV,3,1,12,01,15,267,43,03,27,312,46,10,14,157,44,14,66,058,42*74
2017-12-01 17:43:29 1512168209.756772: $GPGSV,3,2,12,22,44,295,47,25,31,049,44,26,34,177,43,29,03,088,36*76
2017-12-01 17:43:29 1512168209.756839: $GPGSV,3,3,12,31,79,330,46,32,49,090,46,12,01,030,20,138,38,213,46*43
2017-12-01 17:43:29 1512168209.868959: $GPZDA,224330.00,01,12,2017,00,00*64
2017-12-01 17:43:29 1512168209.869127: $GPGGA,224330,3946.9739,N,08404.9866,W,1,12,0.80,296.60,M,-33.325,M,,*78
2017-12-01 17:43:29 1512168209.869193: $GPRMC,224330,A,3946.9739,N,08404.9866,W,0.0000,0.000,011217,,*3A
2017-12-01 17:43:29 1512168209.869255: $GPGSA,A,3,1,3,10,14,22,25,26,29,31,32,12,138,2.0,0.8,1.5*08
2017-12-01 17:43:30 1512168210.419749: $GPZDA,224331.00,01,12,2017,00,00*65
2017-12-01 17:43:30 1512168210.419923: $GPGGA,224331,3946.9739,N,08404.9866,W,1,12,0.80,296.60,M,-33.325,M,,*79
2017-12-01 17:43:30 1512168210.419990: $GPRMC,224331,A,3946.9739,N,08404.9866,W,0.0000,0.000,011217,,*3B
2017-12-01 17:43:30 1512168210.420051: $GPGSA,A,3,1,3,10,14,22,25,26,29,31,32,12,138,2.0,0.8,1.5*08
2017-12-01 17:43:31 1512168211.419219: $GPZDA,224332.00,01,12,2017,00,00*66
2017-12-01 17:43:31 1512168211.419391: $GPGGA,224332,3946.9736,N,08404.9867,W,1,12,0.80,297.36,M,-33.325,M,,*76
2017-12-01 17:43:31 1512168211.419458: $GPRMC,224332,A,3946.9736,N,08404.9867,W,0.0000,0.000,011217,,*36
2017-12-01 17:43:31 1512168211.419519: $GPGSA,A,3,1,3,10,14,22,25,26,29,31,32,12,138,2.0,0.8,1.5*08
2017-12-01 17:43:31 1512168211.419629: $GPGBS,224332,10.70,M,15.43,M,35.28,M*01
2017-12-01 17:43:32 1512168212.753502: $GPGSV,3,1,12,01,15,267,43,03,27,312,46,10,14,157,44,14,66,058,42*74
2017-12-01 17:43:32 1512168212.753684: $GPGSV,3,2,12,22,44,295,47,25,31,049,44,26,34,177,44,29,03,088,36*71
2017-12-01 17:43:32 1512168212.753751: $GPGSV,3,3,12,31,79,330,46,32,49,090,46,16,06,190,14,138,38,213,46*4C
2017-12-01 17:43:32 1512168212.866848: $GPZDA,224333.00,01,12,2017,00,00*67
2017-12-01 17:43:32 1512168212.867021: $GPGGA,224333,3946.9736,N,08404.9867,W,1,12,0.80,297.36,M,-33.325,M,,*77
2017-12-01 17:43:32 1512168212.867087: $GPRMC,224333,A,3946.9736,N,08404.9867,W,0.0000,0.000,011217,,*37
2017-12-01 17:43:32 1512168212.867148: $GPGSA,A,3,1,3,10,14,22,25,26,29,31,32,16,138,2.0,0.8,1.5*0C
2017-12-01 17:43:33 1512168213.419117: $GPZDA,224334.00,01,12,2017,00,00*60
2017-12-01 17:43:33 1512168213.419289: $GPGGA,224334,3946.9732,N,08404.9860,W,1,12,0.80,298.20,M,-33.325,M,,*7B
2017-12-01 17:43:33 1512168213.419356: $GPRMC,224334,A,3946.9732,N,08404.9860,W,0.0000,0.000,011217,,*33
2017-12-01 17:43:33 1512168213.419416: $GPGSA,A,3,1,3,10,14,22,25,26,29,31,32,16,138,2.0,0.8,1.5*0C
2017-12-01 17:43:34 1512168214.419670: $GPZDA,224335.00,01,12,2017,00,00*61
2017-12-01 17:43:34 1512168214.419839: $GPGGA,224335,3946.9714,N,08404.9856,W,2,12,1.80,300.70,M,-33.325,M,,*7C
2017-12-01 17:43:34 1512168214.419906: $GPRMC,224335,A,3946.9714,N,08404.9856,W,0.0000,0.000,011217,,*33
2017-12-01 17:43:34 1512168214.419967: $GPGSA,A,3,1,3,10,14,22,25,26,29,31,32,16,138,2.0,1.8,1.5*0D
2017-12-01 17:43:35 1512168215.753884: $GPGSV,3,1,12,01,15,267,34,03,27,312,36,10,14,157,35,14,66,058,33*73
2017-12-01 17:43:36 1512168216.480232: $GPGSV,3,2,12,22,44,295,38,25,31,049,34,26,34,177,35,29,03,088,28*77
2017-12-01 17:43:36 1512168216.480399: $GPGSV,3,3,12,31,79,330,36,32,49,090,36,16,06,190,15,138,38,213,40*4B
2017-12-01 17:43:36 1512168216.480501: $GPZDA,224336.00,01,12,2017,00,00*62
2017-12-01 17:43:36 1512168216.480560: $GPGGA,224336,3946.9714,N,08404.9856,W,2,12,1.80,300.70,M,-33.325,M,,*7F
2017-12-01 17:43:36 1512168216.480622: $GPRMC,224336,A,3946.9714,N,08404.9856,W,0.0000,0.000,011217,,*30
2017-12-01 17:43:36 1512168216.480681: $GPGSA,A,3,1,3,10,14,22,25,26,29,31,32,16,138,2.0,1.8,1.5*0D
2017-12-01 17:43:36 1512168216.480739: $GPZDA,224337.00,01,12,2017,00,00*63
2017-12-01 17:43:36 1512168216.480793: $GPGGA,224337,3946.9714,N,08404.9856,W,2,12,1.80,300.70,M,-33.325,M,,*7E
2017-12-01 17:43:36 1512168216.480854: $GPRMC,224337,A,3946.9714,N,08404.9856,W,0.0000,0.000,011217,,*31
2017-12-01 17:43:36 1512168216.480913: $GPGSA,A,3,1,3,10,14,22,25,26,29,31,32,16,138,2.0,1.8,1.5*0D
2017-12-01 17:43:37 1512168217.418441: $GPZDA,224338.00,01,12,2017,00,00*6C
2017-12-01 17:43:37 1512168217.418619: $GPGGA,224338,3946.9725,N,08404.9855,W,2,12,1.80,299.81,M,-33.325,M,,*7F
2017-12-01 17:43:37 1512168217.418685: $GPRMC,224338,A,3946.9725,N,08404.9855,W,0.0000,0.000,011217,,*3F
2017-12-01 17:43:37 1512168217.418747: $GPGSA,A,3,1,3,10,14,22,25,26,29,31,32,16,138,2.0,1.8,1.5*0D
2017-12-01 17:43:38 1512168218.754733: $GPGSV,3,1,12,01,15,267,43,03,27,312,45,10,14,157,45,14,66,058,42*76
2017-12-01 17:43:38 1512168218.754917: $GPGSV,3,2,12,22,44,295,47,25,31,049,43,26,34,177,44,29,03,088,36*76
2017-12-01 17:43:38 1512168218.754982: $GPGSV,3,3,12,31,79,330,46,32,49,090,45,16,06,190,18,138,38,213,46*43
2017-12-01 17:43:38 1512168218.868688: $GPZDA,224339.00,01,12,2017,00,00*6D
2017-12-01 17:43:38 1512168218.868864: $GPGGA,224339,3946.9725,N,08404.9855,W,2,12,1.80,299.81,M,-33.325,M,,*7E
2017-12-01 17:43:38 1512168218.868931: $GPRMC,224339,A,3946.9725,N,08404.9855,W,0.0000,0.000,011217,,*3E
2017-12-01 17:43:38 1512168218.868992: $GPGSA,A,3,1,3,10,14,22,25,26,29,31,32,16,138,2.0,1.8,1.5*0D
2017-12-01 17:43:39 1512168219.493708: $GPZDA,224340.00,01,12,2017,00,00*63
2017-12-01 17:43:39 1512168219.493880: $GPGGA,224340,3946.9725,N,08404.9855,W,2,12,1.80,299.81,M,-33.325,M,,*70
2017-12-01 17:43:39 1512168219.493948: $GPRMC,224340,A,3946.9725,N,08404.9855,W,0.0000,0.000,011217,,*30
2017-12-01 17:43:39 1512168219.494057: $GPGSA,A,3,1,3,10,14,22,25,26,29,31,32,16,138,2.0,1.8,1.5*0D
2017-12-01 17:43:40 1512168220.420639: $GPZDA,224341.00,01,12,2017,00,00*62
2017-12-01 17:43:40 1512168220.420816: $GPGGA,224341,3946.9725,N,08404.9855,W,2,12,1.80,299.81,M,-33.325,M,,*71
2017-12-01 17:43:40 1512168220.420884: $GPRMC,224341,A,3946.9725,N,08404.9855,W,0.0000,0.000,011217,,*31
2017-12-01 17:43:40 1512168220.420944: $GPGSA,A,3,1,3,10,14,22,25,26,29,31,32,16,138,2.0,1.8,1.5*0D
2017-12-01 17:43:41 1512168221.755043: $GPGSV,3,1,12,01,15,267,43,03,27,312,45,10,14,157,44,14,66,058,42*77
2017-12-01 17:43:41 1512168221.755225: $GPGSV,3,2,12,22,44,295,47,25,31,049,42,26,34,177,44,29,03,088,36*77
2017-12-01 17:43:41 1512168221.755292: $GPGSV,3,3,12,31,79,330,47,32,49,090,45,16,06,190,18,138,38,213,46*42
2017-12-01 17:43:41 1512168221.869040: $GPZDA,224342.00,01,12,2017,00,00*61
2017-12-01 17:43:41 1512168221.869216: $GPGGA,224342,3946.9725,N,08404.9855,W,2,12,0.80,299.81,M,-33.325,M,,*73
2017-12-01 17:43:41 1512168221.869282: $GPRMC,224342,A,3946.9725,N,08404.9855,W,0.0000,0.000,011217,,*32
2017-12-01 17:43:41 1512168221.869343: $GPGSA,A,3,1,3,10,14,22,25,26,29,31,32,16,138,2.0,0.8,1.5*0C
2017-12-01 17:43:42 1512168222.420219: $GPZDA,224343.00,01,12,2017,00,00*60
2017-12-01 17:43:42 1512168222.420406: $GPGGA,224343,3946.9725,N,08404.9855,W,2,12,0.80,299.81,M,-33.325,M,,*72
2017-12-01 17:43:42 1512168222.420476: $GPRMC,224343,A,3946.9725,N,08404.9855,W,0.0000,0.000,011217,,*33
2017-12-01 17:43:42 1512168222.420537: $GPGSA,A,3,1,3,10,14,22,25,26,29,31,32,16,138,2.0,0.8,1.5*0C
2017-12-01 17:43:43 1512168223.421589: $GPZDA,224344.00,01,12,2017,00,00*67
2017-12-01 17:43:43 1512168223.421767: $GPGGA,224344,3946.9725,N,08404.9855,W,2,12,0.80,299.81,M,-33.325,M,,*75
2017-12-01 17:43:43 1512168223.421837: $GPRMC,224344,A,3946.9725,N,08404.9855,W,0.0000,0.000,011217,,*34
2017-12-01 17:43:43 1512168223.421915: $GPGSA,A,3,1,3,10,14,22,25,26,29,31,32,16,138,2.0,0.8,1.5*0C
2017-12-01 17:43:43 1512168223.421977: $GPGBS,224344,2.67,M,3.86,M,8.82,M*35
2017-12-01 17:43:44 1512168224.756845: $GPGSV,3,1,12,01,15,267,43,03,27,312,44,10,14,157,44,14,66,058,41*75
2017-12-01 17:43:44 1512168224.757046: $GPGSV,3,2,12,22,44,295,47,25,31,049,43,26,34,177,44,29,03,088,36*76
2017-12-01 17:43:44 1512168224.757118: $GPGSV,3,3,12,31,79,330,47,32,49,090,45,16,06,190,17,138,38,213,46*4D
2017-12-01 17:43:44 1512168224.869852: $GPZDA,224345.00,01,12,2017,00,00*66
2017-12-01 17:43:44 1512168224.870022: $GPGGA,224345,3946.9725,N,08404.9855,W,2,12,0.80,299.81,M,-33.325,M,,*74
2017-12-01 17:43:44 1512168224.870089: $GPRMC,224345,A,3946.9725,N,08404.9855,W,0.0000,0.000,011217,,*35
2017-12-01 17:43:44 1512168224.870149: $GPGSA,A,3,1,3,10,14,22,25,26,29,31,32,16,138,2.0,0.8,1.5*0C
