2018-01-11 20:20:17 1515720017.136585: {"class":"VERSION","release":"3.16","rev":"3.16-4","proto_major":3,"proto_minor":11}
2018-01-11 20:20:17 1515720017.136932: {"class":"DEVICES","devices":[{"class":"DEVICE","path":"/dev/ttyUSB0","driver":"SiRF","subtype":"9\u0006GSD4e_4.1.2-P1_RPATCH.05-F-GPS-4R-1510281 11/03/2015 307","activated":"2018-01-12T01:20:16.511Z","flags":1,"native":1,"bps":4800,"parity":"N","stopbits":1,"cycle":1.00}]}
2018-01-11 20:20:17 1515720017.137045: {"class":"WATCH","enable":true,"json":false,"nmea":true,"raw":0,"scaled":false,"timing":false,"split24":false,"pps":false}
2018-01-11 20:20:17 1515720017.706646: $GPGSV,3,1,11,07,59,315,42,08,75,115,45,09,45,225,43,11,23,166,46*77
2018-01-11 20:20:17 1515720017.706800: $GPGSV,3,2,11,16,20,063,39,23,25,189,48,27,44,051,49,28,17,261,38*76
2018-01-11 20:20:17 1515720017.706864: $GPGSV,3,3,11,30,32,307,36,01,02,162,15,138,38,213,45*78
2018-01-11 20:20:17 1515720017.820346: $GPZDA,012018.00,12,01,2018,00,00*65
2018-01-11 20:20:17 1515720017.820471: $GPGGA,012018,3946.9591,N,08404.9853,W,2,11,0.80,301.45,M,-33.324,M,,*79
2018-01-11 20:20:17 1515720017.820534: $GPRMC,012018,A,3946.9591,N,08404.9853,W,0.0000,0.000,120118,,*3D
2018-01-11 20:20:17 1515720017.820594: $GPGSA,A,3,7,8,9,11,16,23,27,28,30,1,138,,4.0,0.8,3.5*0F
2018-01-11 20:20:18 1515720018.445688: $GPZDA,012019.00,12,01,2018,00,00*64
2018-01-11 20:20:18 1515720018.445853: $GPGGA,012019,3946.9591,N,08404.9853,W,2,11,0.80,301.45,M,-33.324,M,,*78
2018-01-11 20:20:18 1515720018.445918: $GPRMC,012019,A,3946.9591,N,08404.9853,W,0.0000,0.000,120118,,*3C
2018-01-11 20:20:18 1515720018.445979: $GPGSA,A,3,7,8,9,11,16,23,27,28,30,1,138,,4.0,0.8,3.5*0F
2018-01-11 20:20:19 1515720019.371572: $GPZDA,012020.00,12,01,2018,00,00*6E
2018-01-11 20:20:19 1515720019.371736: $GPGGA,012020,3946.9591,N,08404.9853,W,2,11,0.80,301.45,M,-33.324,M,,*72
2018-01-11 20:20:19 1515720019.371801: $GPRMC,012020,A,3946.9591,N,08404.9853,W,0.0000,0.000,120118,,*36
2018-01-11 20:20:19 1515720019.371861: $GPGSA,A,3,7,8,9,11,16,23,27,28,30,1,138,,4.0,0.8,3.5*0F
2018-01-11 20:20:20 1515720020.720759: $GPGSV,3,1,11,07,59,315,42,08,75,115,45,09,45,225,43,11,23,166,46*77
2018-01-11 20:20:20 1515720020.720925: $GPGSV,3,2,11,16,20,063,39,23,25,189,48,27,44,051,49,28,17,261,38*76
2018-01-11 20:20:20 1515720020.720992: $GPGSV,3,3,11,30,32,307,36,01,02,162,14,138,38,213,46*7A
2018-01-11 20:20:20 1515720020.833157: $GPZDA,012021.00,12,01,2018,00,00*6F
2018-01-11 20:20:20 1515720020.833274: $GPGGA,012021,3946.9591,N,08404.9853,W,2,11,0.80,301.45,M,-33.324,M,,*73
2018-01-11 20:20:20 1515720020.833336: $GPRMC,012021,A,3946.9591,N,08404.9853,W,0.0000,0.000,120118,,*37
2018-01-11 20:20:20 1515720020.833395: $GPGSA,A,3,7,8,9,11,16,23,27,28,30,1,138,,4.0,0.8,3.5*0F
2018-01-11 20:20:21 1515720021.387847: $GPZDA,012022.00,12,01,2018,00,00*6C
2018-01-11 20:20:21 1515720021.388007: $GPGGA,012022,3946.9591,N,08404.9853,W,2,11,0.80,301.45,M,-33.324,M,,*70
2018-01-11 20:20:21 1515720021.388073: $GPRMC,012022,A,3946.9591,N,08404.9853,W,0.0000,0.000,120118,,*34
2018-01-11 20:20:21 1515720021.388134: $GPGSA,A,3,7,8,9,11,16,23,27,28,30,1,138,,4.0,0.8,3.5*0F
2018-01-11 20:20:22 1515720022.371160: $GPZDA,012023.00,12,01,2018,00,00*6D
2018-01-11 20:20:22 1515720022.371327: $GPGGA,012023,3946.9591,N,08404.9853,W,2,11,0.80,301.45,M,-33.324,M,,*71
2018-01-11 20:20:22 1515720022.371393: $GPRMC,012023,A,3946.9591,N,08404.9853,W,0.0000,0.000,120118,,*35
2018-01-11 20:20:22 1515720022.371453: $GPGSA,A,3,7,8,9,11,16,23,27,28,30,1,138,,4.0,0.8,3.5*0F
2018-01-11 20:20:23 1515720023.722358: $GPGSV,3,1,11,07,59,315,42,08,75,115,45,09,45,225,42,11,23,166,46*76
2018-01-11 20:20:23 1515720023.722521: $GPGSV,3,2,11,16,20,063,39,23,25,189,48,27,44,051,49,28,17,261,38*76
2018-01-11 20:20:23 1515720023.722587: $GPGSV,3,3,11,30,32,307,36,01,02,162,14,138,38,213,45*79
2018-01-11 20:20:23 1515720023.835985: $GPZDA,012024.00,12,01,2018,00,00*6A
2018-01-11 20:20:23 1515720023.836093: $GPGGA,012024,3946.9591,N,08404.9853,W,2,11,0.80,301.45,M,-33.324,M,,*76
2018-01-11 20:20:23 1515720023.836156: $GPRMC,012024,A,3946.9591,N,08404.9853,W,0.0000,0.000,120118,,*32
2018-01-11 20:20:23 1515720023.836257: $GPGSA,A,3,7,8,9,11,16,23,27,28,30,1,138,,4.0,0.8,3.5*0F
2018-01-11 20:20:24 1515720024.370673: $GPZDA,012025.00,12,01,2018,00,00*6B
2018-01-11 20:20:24 1515720024.370843: $GPGGA,012025,3946.9591,N,08404.9853,W,2,11,0.80,301.45,M,-33.324,M,,*77
2018-01-11 20:20:24 1515720024.370908: $GPRMC,012025,A,3946.9591,N,08404.9853,W,0.0000,0.000,120118,,*33
2018-01-11 20:20:24 1515720024.370968: $GPGSA,A,3,7,8,9,11,16,23,27,28,30,1,138,,4.0,0.8,3.5*0F
2018-01-11 20:20:25 1515720025.875403: $GPZDA,012026.00,12,01,2018,00,00*68
2018-01-11 20:20:25 1515720025.875574: $GPGGA,012026,3946.9594,N,08404.9845,W,2,11,0.80,300.76,M,-33.324,M,,*77
2018-01-11 20:20:25 1515720025.875640: $GPRMC,012026,A,3946.9594,N,08404.9845,W,0.0000,0.000,120118,,*32
2018-01-11 20:20:25 1515720025.875699: $GPGSA,A,3,7,8,9,11,16,23,27,28,30,1,138,,4.0,0.8,3.5*0F
2018-01-11 20:20:26 1515720026.723341: $GPGSV,3,1,11,07,60,315,42,08,75,114,45,09,44,225,42,11,24,166,46*7B
2018-01-11 20:20:26 1515720026.723510: $GPGSV,3,2,11,16,20,063,39,23,24,189,49,27,43,049,49,28,17,261,38*78
2018-01-11 20:20:26 1515720026.723575: $GPGSV,3,3,11,30,33,307,36,01,02,162,13,138,38,213,45*7F
2018-01-11 20:20:26 1515720026.836964: $GPZDA,012027.00,12,01,2018,00,00*69
2018-01-11 20:20:26 1515720026.837082: $GPGGA,012027,3946.9594,N,08404.9845,W,2,11,0.80,300.76,M,-33.324,M,,*76
2018-01-11 20:20:26 1515720026.837144: $GPRMC,012027,A,3946.9594,N,08404.9845,W,0.0000,0.000,120118,,*33
2018-01-11 20:20:26 1515720026.837203: $GPGSA,A,3,7,8,9,11,16,23,27,28,30,1,138,,4.0,0.8,3.5*0F
2018-01-11 20:20:27 1515720027.386618: $GPZDA,012028.00,12,01,2018,00,00*66
2018-01-11 20:20:27 1515720027.386788: $GPGGA,012028,3946.9594,N,08404.9845,W,2,11,0.80,300.76,M,-33.324,M,,*79
2018-01-11 20:20:27 1515720027.386853: $GPRMC,012028,A,3946.9594,N,08404.9845,W,0.0000,0.000,120118,,*3C
2018-01-11 20:20:27 1515720027.386913: $GPGSA,A,3,7,8,9,11,16,23,27,28,30,1,138,,4.0,0.8,3.5*0F
2018-01-11 20:20:28 1515720028.386997: $GPZDA,012029.00,12,01,2018,00,00*67
2018-01-11 20:20:28 1515720028.387164: $GPGGA,012029,3946.9594,N,08404.9845,W,2,11,0.80,300.76,M,-33.324,M,,*78
2018-01-11 20:20:28 1515720028.387230: $GPRMC,012029,A,3946.9594,N,08404.9845,W,0.0000,0.000,120118,,*3D
2018-01-11 20:20:28 1515720028.387290: $GPGSA,A,3,7,8,9,11,16,23,27,28,30,1,138,,4.0,0.8,3.5*0F
