2018-01-12 03:07:20 1515744440.813666: {"class":"VERSION","release":"3.16","rev":"3.16-4","proto_major":3,"proto_minor":11}
2018-01-12 03:07:20 1515744440.813998: {"class":"DEVICES","devices":[{"class":"DEVICE","path":"/dev/ttyUSB0","driver":"SiRF","subtype":"9\u0006GSD4e_4.1.2-P1_RPATCH.05-F-GPS-4R-1510281 11/03/2015 307","activated":"2018-01-12T08:07:20.577Z","flags":1,"native":1,"bps":4800,"parity":"N","stopbits":1,"cycle":1.00}]}
2018-01-12 03:07:20 1515744440.814111: {"class":"WATCH","enable":true,"json":false,"nmea":true,"raw":0,"scaled":false,"timing":false,"split24":false,"pps":false}
2018-01-12 03:07:21 1515744441.190314: $GPZDA,080721.87,12,01,2018,00,00*6C
2018-01-12 03:07:21 1515744441.190482: $GPGGA,080721,3946.9526,N,08404.9796,W,1,12,2.60,301.75,M,-33.324,M,,*7A
2018-01-12 03:07:21 1515744441.190548: $GPRMC,080721,A,3946.9526,N,08404.9796,W,0.2202,173.469,120118,,*3D
2018-01-12 03:07:21 1515744441.190609: $GPGSA,A,3,2,6,12,17,19,25,5,3,9,24,23,138,2.4,2.6,2.1*3F
2018-01-12 03:07:22 1515744442.316570: $GPZDA,080722.55,12,01,2018,00,00*60
2018-01-12 03:07:22 1515744442.316741: $GPGGA,080722,3946.9526,N,08404.9796,W,1,12,2.60,301.75,M,-33.324,M,,*79
2018-01-12 03:07:22 1515744442.316809: $GPRMC,080722,A,3946.9526,N,08404.9796,W,0.3006,62.539,120118,,*0C
2018-01-12 03:07:22 1515744442.316872: $GPGSA,A,3,2,6,12,17,19,25,5,3,9,24,23,138,2.4,2.6,2.1*3F
2018-01-12 03:07:22 1515744442.316931: $GPGBS,080722,11.98,M,14.47,M,47.88,M*05
2018-01-12 03:07:23 1515744443.505371: $GPGSV,3,1,12,02,57,267,48,06,73,007,51,12,44,304,53,17,40,094,42*7D
2018-01-12 03:07:23 1515744443.505510: $GPGSV,3,2,12,19,57,076,44,25,09,322,39,05,15,193,32,09,08,099,02*7F
2018-01-12 03:07:23 1515744443.505575: $GPGSV,3,3,12,23,07,066,02,24,09,255,03,04,29,250,00,138,38,213,00*49
2018-01-12 03:07:23 1515744443.618994: $GPZDA,080723.00,12,01,2018,00,00*61
2018-01-12 03:07:23 1515744443.619115: $GPGGA,080723,3946.9526,N,08404.9802,W,1,07,1.00,300.27,M,-33.324,M,,*7D
2018-01-12 03:07:23 1515744443.619177: $GPRMC,080723,A,3946.9526,N,08404.9802,W,0.3423,184.197,120118,,*35
2018-01-12 03:07:23 1515744443.619237: $GPGSA,A,3,2,6,12,17,19,25,5,,,,,,2.4,1.0,2.1*0D
2018-01-12 03:07:24 1515744444.069940: $GPZDA,080724.00,12,01,2018,00,00*66
2018-01-12 03:07:24 1515744444.070081: $GPGGA,080724,3946.9529,N,08404.9801,W,1,07,0.80,299.50,M,-33.324,M,,*7E
2018-01-12 03:07:24 1515744444.070146: $GPRMC,080724,A,3946.9529,N,08404.9801,W,0.0000,0.000,120118,,*3A
2018-01-12 03:07:24 1515744444.070205: $GPGSA,A,3,2,6,12,17,19,25,5,,,,,,2.4,0.8,2.1*04
2018-01-12 03:07:24 1515744444.522026: $GPZDA,080725.00,12,01,2018,00,00*67
2018-01-12 03:07:24 1515744444.522165: $GPGGA,080725,3946.9533,N,08404.9807,W,1,07,0.80,298.66,M,-33.324,M,,*76
2018-01-12 03:07:24 1515744444.522228: $GPRMC,080725,A,3946.9533,N,08404.9807,W,0.0000,0.000,120118,,*36
2018-01-12 03:07:24 1515744444.522289: $GPGSA,A,3,2,6,12,17,19,25,5,,,,,,2.4,0.8,2.1*04
2018-01-12 03:07:25 1515744445.712006: $GPGSV,3,1,12,02,57,267,49,06,73,007,51,12,44,304,53,17,40,094,43*7D
2018-01-12 03:07:25 1515744445.712168: $GPGSV,3,2,12,19,57,076,44,25,09,322,40,05,15,193,34,09,08,099,23*74
2018-01-12 03:07:25 1515744445.712234: $GPGSV,3,3,12,23,07,066,24,24,09,255,32,03,03,034,16,138,38,213,41*42
2018-01-12 03:07:25 1515744445.825520: $GPZDA,080726.00,12,01,2018,00,00*64
2018-01-12 03:07:25 1515744445.825670: $GPGGA,080726,3946.9533,N,08404.9807,W,1,12,0.80,298.66,M,-33.324,M,,*71
2018-01-12 03:07:25 1515744445.825734: $GPRMC,080726,A,3946.9533,N,08404.9807,W,0.0000,0.000,120118,,*35
2018-01-12 03:07:25 1515744445.825794: $GPGSA,A,3,2,6,12,17,19,25,5,9,23,24,3,138,2.4,0.8,2.1*33
2018-01-12 03:07:26 1515744446.376335: $GPZDA,080727.00,12,01,2018,00,00*65
2018-01-12 03:07:26 1515744446.376482: $GPGGA,080727,3946.9532,N,08404.9807,W,1,12,0.80,297.26,M,-33.324,M,,*7A
2018-01-12 03:07:26 1515744446.376547: $GPRMC,080727,A,3946.9532,N,08404.9807,W,0.0000,0.000,120118,,*35
2018-01-12 03:07:26 1515744446.376607: $GPGSA,A,3,2,6,12,17,19,25,5,9,23,24,3,138,2.4,0.8,2.1*33
