2017-12-31 16:58:58 1514757538.107441: {"class":"VERSION","release":"3.16","rev":"3.16-4","proto_major":3,"proto_minor":11}
2017-12-31 16:58:58 1514757538.107860: {"class":"DEVICES","devices":[{"class":"DEVICE","path":"/dev/ttyUSB0","driver":"SiRF","activated":"2017-12-31T21:58:57.950Z","flags":1,"native":1,"bps":4800,"parity":"N","stopbits":1,"cycle":1.00}]}
2017-12-31 16:58:58 1514757538.107964: {"class":"WATCH","enable":true,"json":false,"nmea":true,"raw":0,"scaled":false,"timing":false,"split24":false,"pps":false}
2017-12-31 16:58:58 1514757538.344355: $GPZDA,215859.00,31,12,2017,00,00*61
2017-12-31 16:58:58 1514757538.344536: $GPGGA,215859,3946.9584,N,08404.9855,W,2,11,1.00,302.98,M,-33.324,M,,*79
2017-12-31 16:58:58 1514757538.344603: $GPRMC,215859,A,3946.9584,N,08404.9855,W,0.0000,0.000,311217,,*3B
2017-12-31 16:58:58 1514757538.344665: $GPGSA,A,3,22,23,25,3,16,29,31,14,32,26,135,,1.7,1.0,1.3*3B
2017-12-31 16:58:59 1514757539.343941: $GPZDA,215900.00,31,12,2017,00,00*6C
2017-12-31 16:58:59 1514757539.344124: $GPGGA,215900,3946.9584,N,08404.9855,W,2,11,1.00,302.98,M,-33.324,M,,*74
2017-12-31 16:58:59 1514757539.344190: $GPRMC,215900,A,3946.9584,N,08404.9855,W,0.0000,0.000,311217,,*36
2017-12-31 16:58:59 1514757539.344252: $GPGSA,A,3,22,23,25,3,16,29,31,14,32,26,135,,1.7,1.0,1.3*3B
2017-12-31 16:59:00 1514757540.687936: $GPGSV,3,1,11,22,46,244,41,23,25,307,45,25,04,037,25,03,46,276,40*7B
2017-12-31 16:59:00 1514757540.688122: $GPGSV,3,2,11,16,42,190,46,29,14,058,32,31,52,048,51,14,43,111,39*75
2017-12-31 16:59:00 1514757540.688188: $GPGSV,3,3,11,32,21,120,44,26,72,151,45,135,22,240,43*7B
2017-12-31 16:59:00 1514757540.801367: $GPZDA,215901.00,31,12,2017,00,00*6D
2017-12-31 16:59:00 1514757540.801525: $GPGGA,215901,3946.9584,N,08404.9855,W,2,11,1.00,302.98,M,-33.324,M,,*75
2017-12-31 16:59:00 1514757540.801594: $GPRMC,215901,A,3946.9584,N,08404.9855,W,0.0000,0.000,311217,,*37
2017-12-31 16:59:00 1514757540.801655: $GPGSA,A,3,22,23,25,3,16,29,31,14,32,26,135,,1.7,1.0,1.3*3B
2017-12-31 16:59:01 1514757541.361191: $GPZDA,215902.00,31,12,2017,00,00*6E
2017-12-31 16:59:01 1514757541.361359: $GPGGA,215902,3946.9584,N,08404.9855,W,2,11,1.00,302.98,M,-33.324,M,,*76
2017-12-31 16:59:01 1514757541.361425: $GPRMC,215902,A,3946.9584,N,08404.9855,W,0.0000,0.000,311217,,*34
2017-12-31 16:59:01 1514757541.361486: $GPGSA,A,3,22,23,25,3,16,29,31,14,32,26,135,,1.7,1.0,1.3*3B
2017-12-31 16:59:02 1514757542.360607: $GPZDA,215903.00,31,12,2017,00,00*6F
2017-12-31 16:59:02 1514757542.360758: $GPGGA,215903,3946.9584,N,08404.9855,W,2,11,1.00,302.98,M,-33.324,M,,*77
2017-12-31 16:59:02 1514757542.360827: $GPRMC,215903,A,3946.9584,N,08404.9855,W,0.0000,0.000,311217,,*35
2017-12-31 16:59:02 1514757542.360890: $GPGSA,A,3,22,23,25,3,16,29,31,14,32,26,135,,1.7,1.0,1.3*3B
2017-12-31 16:59:03 1514757543.680059: $GPGSV,3,1,11,22,46,244,40,23,25,307,44,25,04,037,25,03,46,276,40*7B
2017-12-31 16:59:03 1514757543.680217: $GPGSV,3,2,11,16,42,190,46,29,14,058,32,31,52,048,51,14,43,111,39*75
2017-12-31 16:59:03 1514757543.680282: $GPGSV,3,3,11,32,21,120,44,26,72,151,45,135,22,240,42*7A
2017-12-31 16:59:03 1514757543.793752: $GPZDA,215904.00,31,12,2017,00,00*68
2017-12-31 16:59:03 1514757543.793939: $GPGGA,215904,3946.9584,N,08404.9855,W,2,11,1.00,302.98,M,-33.324,M,,*70
2017-12-31 16:59:03 1514757543.794008: $GPRMC,215904,A,3946.9584,N,08404.9855,W,0.0000,0.000,311217,,*32
2017-12-31 16:59:03 1514757543.794071: $GPGSA,A,3,22,23,25,3,16,29,31,14,32,26,135,,1.7,1.0,1.3*3B
2017-12-31 16:59:04 1514757544.343009: $GPZDA,215905.00,31,12,2017,00,00*69
2017-12-31 16:59:04 1514757544.343189: $GPGGA,215905,3946.9584,N,08404.9855,W,2,11,1.00,302.98,M,-33.324,M,,*71
2017-12-31 16:59:04 1514757544.343257: $GPRMC,215905,A,3946.9584,N,08404.9855,W,0.0000,0.000,311217,,*33
2017-12-31 16:59:04 1514757544.343319: $GPGSA,A,3,22,23,25,3,16,29,31,14,32,26,135,,1.7,1.0,1.3*3B
2017-12-31 16:59:05 1514757545.343459: $GPZDA,215906.00,31,12,2017,00,00*6A
2017-12-31 16:59:05 1514757545.343653: $GPGGA,215906,3946.9584,N,08404.9855,W,2,11,1.00,302.98,M,-33.324,M,,*72
2017-12-31 16:59:05 1514757545.343780: $GPRMC,215906,A,3946.9584,N,08404.9855,W,0.0000,0.000,311217,,*30
2017-12-31 16:59:05 1514757545.343849: $GPGSA,A,3,22,23,25,3,16,29,31,14,32,26,135,,1.7,1.0,1.3*3B
2017-12-31 16:59:06 1514757546.689127: $GPGSV,3,1,11,22,46,244,41,23,25,307,44,25,04,037,25,03,46,276,40*7A
2017-12-31 16:59:06 1514757546.689298: $GPGSV,3,2,11,16,42,190,46,29,14,058,32,31,52,048,51,14,43,111,40*7B
2017-12-31 16:59:06 1514757546.689365: $GPGSV,3,3,11,32,21,120,44,26,72,151,45,135,22,240,42*7A
2017-12-31 16:59:06 1514757546.802503: $GPZDA,215907.00,31,12,2017,00,00*6B
2017-12-31 16:59:06 1514757546.802686: $GPGGA,215907,3946.9584,N,08404.9855,W,2,11,1.00,302.98,M,-33.324,M,,*73
2017-12-31 16:59:06 1514757546.802752: $GPRMC,215907,A,3946.9584,N,08404.9855,W,0.0000,0.000,311217,,*31
2017-12-31 16:59:06 1514757546.802819: $GPGSA,A,3,22,23,25,3,16,29,31,14,32,26,135,,1.7,1.0,1.3*3B
2017-12-31 16:59:07 1514757547.344674: $GPZDA,215908.00,31,12,2017,00,00*64
2017-12-31 16:59:07 1514757547.344851: $GPGGA,215908,3946.9584,N,08404.9855,W,2,11,1.00,302.98,M,-33.324,M,,*7C
2017-12-31 16:59:07 1514757547.344929: $GPRMC,215908,A,3946.9584,N,08404.9855,W,0.0000,0.000,311217,,*3E
2017-12-31 16:59:07 1514757547.344991: $GPGSA,A,3,22,23,25,3,16,29,31,14,32,26,135,,1.7,1.0,1.3*3B
2017-12-31 16:59:08 1514757548.336298: $GPZDA,215909.00,31,12,2017,00,00*65
2017-12-31 16:59:08 1514757548.336463: $GPGGA,215909,3946.9584,N,08404.9855,W,2,11,1.00,302.98,M,-33.324,M,,*7D
2017-12-31 16:59:08 1514757548.336531: $GPRMC,215909,A,3946.9584,N,08404.9855,W,0.0000,0.000,311217,,*3F
2017-12-31 16:59:08 1514757548.336593: $GPGSA,A,3,22,23,25,3,16,29,31,14,32,26,135,,1.7,1.0,1.3*3B
2017-12-31 16:59:09 1514757549.680191: $GPGSV,3,1,11,22,46,244,40,23,25,307,44,25,04,037,24,03,46,276,40*7A
2017-12-31 16:59:09 1514757549.680392: $GPGSV,3,2,11,16,42,190,46,29,14,058,33,31,52,048,51,14,43,111,39*74
2017-12-31 16:59:09 1514757549.680458: $GPGSV,3,3,11,32,21,120,44,26,72,151,45,135,22,240,43*7B
2017-12-31 16:59:09 1514757549.793722: $GPZDA,215910.00,31,12,2017,00,00*6D
2017-12-31 16:59:09 1514757549.793921: $GPGGA,215910,3946.9584,N,08404.9855,W,2,11,1.00,302.98,M,-33.324,M,,*75
2017-12-31 16:59:09 1514757549.793988: $GPRMC,215910,A,3946.9584,N,08404.9855,W,0.0000,0.000,311217,,*37
2017-12-31 16:59:09 1514757549.794050: $GPGSA,A,3,22,23,25,3,16,29,31,14,32,26,135,,1.7,1.0,1.3*3B
2017-12-31 16:59:10 1514757550.419099: $GPZDA,215911.00,31,12,2017,00,00*6C
2017-12-31 16:59:10 1514757550.419267: $GPGGA,215911,3946.9584,N,08404.9855,W,2,11,1.00,302.98,M,-33.324,M,,*74
2017-12-31 16:59:10 1514757550.419333: $GPRMC,215911,A,3946.9584,N,08404.9855,W,0.0000,0.000,311217,,*36
2017-12-31 16:59:10 1514757550.419394: $GPGSA,A,3,22,23,25,3,16,29,31,14,32,26,135,,1.7,1.0,1.3*3B
2017-12-31 16:59:11 1514757551.359700: $GPZDA,215912.00,31,12,2017,00,00*6F
2017-12-31 16:59:11 1514757551.359927: $GPGGA,215912,3946.9584,N,08404.9855,W,2,11,1.00,302.98,M,-33.324,M,,*77
2017-12-31 16:59:11 1514757551.359997: $GPRMC,215912,A,3946.9584,N,08404.9855,W,0.0000,0.000,311217,,*35
2017-12-31 16:59:11 1514757551.360077: $GPGSA,A,3,22,23,25,3,16,29,31,14,32,26,135,,1.7,1.0,1.3*3B
2017-12-31 16:59:12 1514757552.677947: $GPGSV,3,1,11,22,46,244,41,23,25,307,45,25,04,037,24,03,46,276,40*7A
2017-12-31 16:59:12 1514757552.680489: $GPGSV,3,2,11,16,42,190,46,29,14,058,00,31,52,048,51,14,43,111,39*74
2017-12-31 16:59:12 1514757552.680585: $GPGSV,3,3,11,32,21,120,44,26,72,151,45,135,22,240,43*7B
2017-12-31 16:59:12 1514757552.791308: $GPZDA,215913.00,31,12,2017,00,00*6E
2017-12-31 16:59:12 1514757552.791461: $GPGGA,215913,3946.9584,N,08404.9855,W,2,10,1.00,302.98,M,-33.324,M,,*77
2017-12-31 16:59:12 1514757552.791527: $GPRMC,215913,A,3946.9584,N,08404.9855,W,0.0000,0.000,311217,,*34
2017-12-31 16:59:12 1514757552.791588: $GPGSA,A,3,22,23,25,3,16,31,14,32,26,135,,,1.7,1.0,1.3*30
2017-12-31 16:59:13 1514757553.346296: $GPZDA,215914.00,31,12,2017,00,00*69
2017-12-31 16:59:13 1514757553.346451: $GPGGA,215914,3946.9584,N,08404.9855,W,2,10,1.00,302.98,M,-33.324,M,,*70
2017-12-31 16:59:13 1514757553.346562: $GPRMC,215914,A,3946.9584,N,08404.9855,W,0.0000,0.000,311217,,*33
2017-12-31 16:59:13 1514757553.346624: $GPGSA,A,3,22,23,25,3,16,31,14,32,26,135,,,1.7,1.0,1.3*30
2017-12-31 16:59:14 1514757554.353544: $GPZDA,215915.00,31,12,2017,00,00*68
2017-12-31 16:59:14 1514757554.353719: $GPGGA,215915,3946.9584,N,08404.9855,W,2,10,1.00,302.98,M,-33.324,M,,*71
2017-12-31 16:59:14 1514757554.353788: $GPRMC,215915,A,3946.9584,N,08404.9855,W,0.0000,0.000,311217,,*32
2017-12-31 16:59:14 1514757554.353865: $GPGSA,A,3,22,23,25,3,16,31,14,32,26,135,,,1.7,1.0,1.3*30
2017-12-31 16:59:15 1514757555.679540: $GPGSV,3,1,11,22,46,244,41,23,25,307,44,25,04,037,24,03,46,276,40*7B
2017-12-31 16:59:15 1514757555.679738: $GPGSV,3,2,11,16,42,190,46,29,14,058,32,31,52,048,50,14,43,111,39*74
2017-12-31 16:59:15 1514757555.679804: $GPGSV,3,3,11,32,21,120,44,26,72,151,45,135,22,240,42*7A
2017-12-31 16:59:15 1514757555.792944: $GPZDA,215916.00,31,12,2017,00,00*6B
2017-12-31 16:59:15 1514757555.793114: $GPGGA,215916,3946.9584,N,08404.9855,W,2,11,1.00,302.98,M,-33.324,M,,*73
2017-12-31 16:59:15 1514757555.793180: $GPRMC,215916,A,3946.9584,N,08404.9855,W,0.0000,0.000,311217,,*31
2017-12-31 16:59:15 1514757555.793241: $GPGSA,A,3,22,23,25,3,16,29,31,14,32,26,135,,1.7,1.0,1.3*3B
2017-12-31 16:59:16 1514757556.343863: $GPZDA,215917.00,31,12,2017,00,00*6A
2017-12-31 16:59:16 1514757556.344031: $GPGGA,215917,3946.9584,N,08404.9855,W,2,11,1.00,302.98,M,-33.324,M,,*72
2017-12-31 16:59:16 1514757556.344095: $GPRMC,215917,A,3946.9584,N,08404.9855,W,0.0000,0.000,311217,,*30
2017-12-31 16:59:16 1514757556.344157: $GPGSA,A,3,22,23,25,3,16,29,31,14,32,26,135,,1.7,1.0,1.3*3B
2017-12-31 16:59:17 1514757557.359637: $GPZDA,215918.00,31,12,2017,00,00*65
2017-12-31 16:59:17 1514757557.359863: $GPGGA,215918,3946.9584,N,08404.9855,W,2,11,1.00,302.98,M,-33.324,M,,*7D
2017-12-31 16:59:17 1514757557.359934: $GPRMC,215918,A,3946.9584,N,08404.9855,W,0.0000,0.000,311217,,*3F
2017-12-31 16:59:17 1514757557.359995: $GPGSA,A,3,22,23,25,3,16,29,31,14,32,26,135,,1.7,1.0,1.3*3B
