2018-01-11 19:54:45 1515718485.188302: {"class":"VERSION","release":"3.16","rev":"3.16-4","proto_major":3,"proto_minor":11}
2018-01-11 19:54:45 1515718485.188740: {"class":"DEVICES","devices":[{"class":"DEVICE","path":"/dev/ttyUSB0","driver":"SiRF","subtype":"9\u0006GSD4e_4.1.2-P1_RPATCH.05-F-GPS-4R-1510281 11/03/2015 307","activated":"2018-01-12T00:54:45.076Z","flags":1,"native":1,"bps":4800,"parity":"N","stopbits":1,"cycle":1.00}]}
2018-01-11 19:54:45 1515718485.188866: {"class":"WATCH","enable":true,"json":false,"nmea":true,"raw":0,"scaled":false,"timing":false,"split24":false,"pps":false}
2018-01-11 19:54:45 1515718485.190396: $GPZDA,005445.88,12,01,2018,00,00*6F
2018-01-11 19:54:45 1515718485.190482: $GPGGA,005445,3946.9530,N,08404.9729,W,1,10,0.80,308.80,M,-33.324,M,,*78
2018-01-11 19:54:45 1515718485.190545: $GPRMC,005445,A,3946.9530,N,08404.9729,W,0.2967,46.893,120118,,*04
2018-01-11 19:54:45 1515718485.190605: $GPGSA,A,3,7,8,9,11,16,23,27,30,28,138,,,4.0,0.8,3.5*3E
2018-01-11 19:54:46 1515718486.271841: $GPZDA,005446.56,12,01,2018,00,00*6F
2018-01-11 19:54:46 1515718486.271995: $GPGGA,005446,3946.9538,N,08404.9739,W,1,10,0.80,316.38,M,-33.324,M,,*7E
2018-01-11 19:54:46 1515718486.272061: $GPRMC,005446,A,3946.9538,N,08404.9739,W,0.3133,189.200,120118,,*34
2018-01-11 19:54:46 1515718486.272122: $GPGSA,A,3,7,8,9,11,16,23,27,30,28,138,,,4.0,0.8,3.5*3E
2018-01-11 19:54:46 1515718486.272179: $GPGBS,005446,14.62,M,24.83,M,80.38,M*02
2018-01-11 19:54:47 1515718487.414141: $GPGSV,3,1,11,07,49,312,42,08,68,150,46,09,53,240,44,11,14,169,34*72
2018-01-11 19:54:47 1515718487.414298: $GPGSV,3,2,11,16,28,055,47,23,36,192,48,27,53,060,51,28,09,253,35*74
2018-01-11 19:54:47 1515718487.414363: $GPGSV,3,3,11,30,23,303,37,26,03,069,00,138,38,213,04*72
2018-01-11 19:54:47 1515718487.527787: $GPZDA,005447.00,12,01,2018,00,00*6D
2018-01-11 19:54:47 1515718487.527961: $GPGGA,005447,3946.9538,N,08404.9739,W,1,10,0.80,316.38,M,-33.324,M,,*7F
2018-01-11 19:54:47 1515718487.528047: $GPRMC,005447,A,3946.9538,N,08404.9739,W,0.3133,189.200,120118,,*35
2018-01-11 19:54:47 1515718487.528109: $GPGSA,A,3,7,8,9,11,16,23,27,28,30,138,,,4.0,0.8,3.5*3E
2018-01-11 19:54:47 1515718487.979956: $GPZDA,005448.00,12,01,2018,00,00*62
2018-01-11 19:54:47 1515718487.980113: $GPGGA,005448,3946.9538,N,08404.9746,W,1,10,0.80,316.30,M,-33.324,M,,*70
2018-01-11 19:54:47 1515718487.980179: $GPRMC,005448,A,3946.9538,N,08404.9746,W,0.2172,85.763,120118,,*0B
2018-01-11 19:54:47 1515718487.980240: $GPGSA,A,3,7,8,9,11,16,23,27,28,30,138,,,4.0,0.8,3.5*3E
2018-01-11 19:54:48 1515718488.430805: $GPZDA,005449.00,12,01,2018,00,00*63
2018-01-11 19:54:48 1515718488.430962: $GPGGA,005449,3946.9542,N,08404.9746,W,1,10,0.80,315.54,M,-33.324,M,,*7D
2018-01-11 19:54:48 1515718488.431029: $GPRMC,005449,A,3946.9542,N,08404.9746,W,0.0000,0.000,120118,,*3E
2018-01-11 19:54:48 1515718488.431090: $GPGSA,A,3,7,8,9,11,16,23,27,28,30,138,,,4.0,0.8,3.5*3E
2018-01-11 19:54:49 1515718489.718271: $GPGSV,3,1,11,07,49,312,43,08,68,150,46,09,53,240,44,11,14,169,34*73
2018-01-11 19:54:49 1515718489.718438: $GPGSV,3,2,11,16,28,055,47,23,36,192,48,27,53,060,51,28,09,253,35*74
2018-01-11 19:54:49 1515718489.718504: $GPGSV,3,3,11,30,23,303,38,26,03,069,00,138,38,213,46*7B
2018-01-11 19:54:49 1515718489.831707: $GPZDA,005450.00,12,01,2018,00,00*6B
2018-01-11 19:54:49 1515718489.831821: $GPGGA,005450,3946.9541,N,08404.9752,W,1,10,0.80,314.06,M,-33.324,M,,*75
2018-01-11 19:54:49 1515718489.831886: $GPRMC,005450,A,3946.9541,N,08404.9752,W,0.0000,0.000,120118,,*30
2018-01-11 19:54:49 1515718489.831946: $GPGSA,A,3,7,8,9,11,16,23,27,28,30,138,,,4.0,0.8,3.5*3E
2018-01-11 19:54:50 1515718490.381573: $GPZDA,005451.00,12,01,2018,00,00*6A
2018-01-11 19:54:50 1515718490.381745: $GPGGA,005451,3946.9541,N,08404.9752,W,1,10,0.80,314.06,M,-33.324,M,,*74
2018-01-11 19:54:50 1515718490.381811: $GPRMC,005451,A,3946.9541,N,08404.9752,W,0.0000,0.000,120118,,*31
2018-01-11 19:54:50 1515718490.381871: $GPGSA,A,3,7,8,9,11,16,23,27,28,30,138,,,4.0,0.8,3.5*3E
2018-01-11 19:54:51 1515718491.383575: $GPZDA,005452.00,12,01,2018,00,00*69
2018-01-11 19:54:51 1515718491.383801: $GPGGA,005452,3946.9564,N,08404.9796,W,2,10,2.60,307.51,M,-33.324,M,,*77
2018-01-11 19:54:51 1515718491.383870: $GPRMC,005452,A,3946.9564,N,08404.9796,W,0.0000,0.000,120118,,*3D
2018-01-11 19:54:51 1515718491.383932: $GPGSA,A,3,7,8,9,11,16,23,27,28,30,138,,,4.0,2.6,3.5*32
2018-01-11 19:54:51 1515718491.383989: $GPGBS,005452,3.65,M,6.21,M,20.10,M*0E
2018-01-11 19:54:52 1515718492.717752: $GPGSV,3,1,11,07,49,312,43,08,68,150,46,09,53,240,44,11,14,169,34*73
2018-01-11 19:54:52 1515718492.717957: $GPGSV,3,2,11,16,28,055,47,23,36,192,48,27,53,060,51,28,09,253,35*74
2018-01-11 19:54:52 1515718492.718043: $GPGSV,3,3,11,30,23,303,38,26,03,069,00,138,38,213,46*7B
2018-01-11 19:54:52 1515718492.831398: $GPZDA,005453.00,12,01,2018,00,00*68
2018-01-11 19:54:52 1515718492.831560: $GPGGA,005453,3946.9564,N,08404.9796,W,2,10,1.20,307.51,M,-33.324,M,,*71
2018-01-11 19:54:52 1515718492.831625: $GPRMC,005453,A,3946.9564,N,08404.9796,W,0.0000,0.000,120118,,*3C
2018-01-11 19:54:52 1515718492.831685: $GPGSA,A,3,7,8,9,11,16,23,27,28,30,138,,,4.0,1.2,3.5*35
2018-01-11 19:54:53 1515718493.384773: $GPZDA,005454.00,12,01,2018,00,00*6F
2018-01-11 19:54:53 1515718493.384943: $GPGGA,005454,3946.9568,N,08404.9809,W,2,10,0.80,306.59,M,-33.324,M,,*71
2018-01-11 19:54:53 1515718493.385009: $GPRMC,005454,A,3946.9568,N,08404.9809,W,0.2758,128.233,120118,,*3F
2018-01-11 19:54:53 1515718493.385071: $GPGSA,A,3,7,8,9,11,16,23,27,28,30,138,,,4.0,0.8,3.5*3E
2018-01-11 19:54:54 1515718494.381375: $GPZDA,005455.00,12,01,2018,00,00*6E
2018-01-11 19:54:54 1515718494.381543: $GPGGA,005455,3946.9568,N,08404.9809,W,2,10,0.80,306.59,M,-33.324,M,,*70
2018-01-11 19:54:54 1515718494.381609: $GPRMC,005455,A,3946.9568,N,08404.9809,W,0.0000,0.000,120118,,*3F
2018-01-11 19:54:54 1515718494.381670: $GPGSA,A,3,7,8,9,11,16,23,27,28,30,138,,,4.0,0.8,3.5*3E
