2018-01-12 19:56:00 1515804960.173364: {"class":"VERSION","release":"3.16","rev":"3.16-4","proto_major":3,"proto_minor":11}
2018-01-12 19:56:00 1515804960.173723: {"class":"DEVICES","devices":[{"class":"DEVICE","path":"/dev/ttyUSB0","driver":"SiRF","subtype":"9\u0006GSD4e_4.1.2-P1_RPATCH.05-F-GPS-4R-1510281 11/03/2015 307","activated":"2018-01-13T00:55:59.306Z","flags":1,"native":1,"bps":4800,"parity":"N","stopbits":1,"cycle":1.00}]}
2018-01-12 19:56:00 1515804960.173843: {"class":"WATCH","enable":true,"json":false,"nmea":true,"raw":0,"scaled":false,"timing":false,"split24":false,"pps":false}
2018-01-12 19:56:00 1515804960.500970: $GPGSV,3,1,11,08,70,145,26,07,51,313,24,09,51,235,27,16,27,057,18*71
2018-01-12 19:56:00 1515804960.501154: $GPGSV,3,2,11,23,34,192,23,27,51,058,22,26,02,070,14,30,25,304,00*7E
2018-01-12 19:56:00 1515804960.501222: $GPGSV,3,3,11,11,16,169,00,28,11,255,00,138,38,213,00*79
2018-01-12 19:56:00 1515804960.614771: $GPZDA,005601.00,13,01,2018,00,00*6C
2018-01-12 19:56:00 1515804960.614963: $GPGGA,005601,3946.9559,N,08404.9482,W,1,07,1.20,325.84,M,-33.324,M,,*71
2018-01-12 19:56:00 1515804960.615030: $GPRMC,005601,A,3946.9559,N,08404.9482,W,0.7480,200.892,130118,,*3A
2018-01-12 19:56:00 1515804960.615093: $GPGSA,A,3,8,7,9,16,23,27,26,,,,,,4.8,1.2,4.6*0E
2018-01-12 19:56:01 1515804961.165206: $GPZDA,005602.00,13,01,2018,00,00*6F
2018-01-12 19:56:01 1515804961.165388: $GPGGA,005602,3946.9555,N,08404.9483,W,1,07,1.20,326.60,M,-33.324,M,,*76
2018-01-12 19:56:01 1515804961.165457: $GPRMC,005602,A,3946.9555,N,08404.9483,W,0.9019,198.875,130118,,*35
2018-01-12 19:56:01 1515804961.165520: $GPGSA,A,3,8,7,9,16,23,27,26,,,,,,4.8,1.2,4.6*0E
2018-01-12 19:56:02 1515804962.164191: $GPZDA,005603.00,13,01,2018,00,00*6E
2018-01-12 19:56:02 1515804962.164363: $GPGGA,005603,3946.9544,N,08404.9484,W,1,07,1.20,327.49,M,-33.324,M,,*7A
2018-01-12 19:56:02 1515804962.164431: $GPRMC,005603,A,3946.9544,N,08404.9484,W,1.0269,184.197,130118,,*36
2018-01-12 19:56:02 1515804962.164493: $GPGSA,A,3,8,7,9,16,23,27,26,,,,,,4.8,1.2,4.6*0E
2018-01-12 19:56:03 1515804963.501561: $GPGSV,3,1,11,08,70,145,25,07,51,313,24,09,51,235,26,16,27,057,18*73
2018-01-12 19:56:03 1515804963.501745: $GPGSV,3,2,11,23,34,192,23,27,51,058,22,26,02,070,14,30,25,304,00*7E
2018-01-12 19:56:03 1515804963.501815: $GPGSV,3,3,11,11,16,169,00,28,11,255,00,138,38,213,00*79
2018-01-12 19:56:03 1515804963.615186: $GPZDA,005604.00,13,01,2018,00,00*69
2018-01-12 19:56:03 1515804963.615402: $GPGGA,005604,3946.9544,N,08404.9484,W,1,07,1.20,327.49,M,-33.324,M,,*7D
2018-01-12 19:56:03 1515804963.615474: $GPRMC,005604,A,3946.9544,N,08404.9484,W,1.0269,184.197,130118,,*31
2018-01-12 19:56:03 1515804963.615540: $GPGSA,A,3,8,7,9,16,23,27,26,,,,,,4.8,1.2,4.6*0E
2018-01-12 19:56:04 1515804964.166516: $GPZDA,005605.00,13,01,2018,00,00*68
2018-01-12 19:56:04 1515804964.179134: $GPGGA,005605,3946.9548,N,08404.9484,W,1,07,1.20,326.73,M,-33.324,M,,*78
2018-01-12 19:56:04 1515804964.179243: $GPRMC,005605,A,3946.9548,N,08404.9484,W,0.7623,163.489,130118,,*33
2018-01-12 19:56:04 1515804964.179309: $GPGSA,A,3,8,7,9,16,23,27,26,,,,,,4.8,1.2,4.6*0E
2018-01-12 19:56:05 1515804965.166426: $GPZDA,005606.00,13,01,2018,00,00*6B
2018-01-12 19:56:05 1515804965.166605: $GPGGA,005606,3946.9549,N,08404.9485,W,1,07,1.20,329.53,M,-33.324,M,,*76
2018-01-12 19:56:05 1515804965.166677: $GPRMC,005606,A,3946.9549,N,08404.9485,W,0.3423,184.197,130118,,*35
2018-01-12 19:56:05 1515804965.166743: $GPGSA,A,3,8,7,9,16,23,27,26,,,,,,4.8,1.2,4.6*0E
2018-01-12 19:56:05 1515804965.166805: $GPGBS,005606,14.24,M,16.36,M,105.11,M*3E
2018-01-12 19:56:06 1515804966.502023: $GPGSV,3,1,11,08,70,145,25,07,51,313,24,09,51,235,27,16,27,057,18*72
2018-01-12 19:56:06 1515804966.502200: $GPGSV,3,2,11,23,34,192,23,27,51,058,23,26,02,070,14,30,25,304,00*7F
2018-01-12 19:56:06 1515804966.502268: $GPGSV,3,3,11,11,16,169,00,28,11,255,00,138,38,213,00*79
2018-01-12 19:56:06 1515804966.615870: $GPZDA,005607.00,13,01,2018,00,00*6A
2018-01-12 19:56:06 1515804966.616046: $GPGGA,005607,3946.9545,N,08404.9486,W,1,07,1.20,330.30,M,-33.324,M,,*75
2018-01-12 19:56:06 1515804966.616168: $GPRMC,005607,A,3946.9545,N,08404.9486,W,0.2172,85.764,130118,,*01
2018-01-12 19:56:06 1515804966.616231: $GPGSA,A,3,8,7,9,16,23,27,26,,,,,,4.8,1.2,4.6*0E
2018-01-12 19:56:07 1515804967.267151: $GPZDA,005608.00,13,01,2018,00,00*65
2018-01-12 19:56:07 1515804967.267333: $GPGGA,005608,3946.9547,N,08404.9480,W,1,07,1.20,333.19,M,-33.324,M,,*76
2018-01-12 19:56:07 1515804967.267403: $GPRMC,005608,A,3946.9547,N,08404.9480,W,0.1324,202.232,130118,,*33
2018-01-12 19:56:07 1515804967.267465: $GPGSA,A,3,8,7,9,16,23,27,26,,,,,,4.8,1.2,4.6*0E
2018-01-12 19:56:07 1515804967.267523: $GPGBS,005608,14.24,M,16.36,M,105.11,M*30
2018-01-12 19:56:08 1515804968.165985: $GPZDA,005609.00,13,01,2018,00,00*64
2018-01-12 19:56:08 1515804968.166157: $GPGGA,005609,3946.9543,N,08404.9481,W,1,07,1.20,333.95,M,-33.324,M,,*76
2018-01-12 19:56:08 1515804968.166226: $GPRMC,005609,A,3946.9543,N,08404.9481,W,0.2172,85.764,130118,,*0E
2018-01-12 19:56:08 1515804968.166290: $GPGSA,A,3,8,7,9,16,23,27,26,,,,,,4.8,1.2,4.6*0E
2018-01-12 19:56:08 1515804968.166347: $GPGBS,005609,14.24,M,16.36,M,105.11,M*31
2018-01-12 19:56:09 1515804969.502152: $GPGSV,3,1,11,08,70,145,25,07,51,313,24,09,51,235,27,16,27,057,18*72
2018-01-12 19:56:09 1515804969.502346: $GPGSV,3,2,11,23,34,192,24,27,51,058,23,26,02,070,13,30,25,304,00*7F
2018-01-12 19:56:09 1515804969.713966: $GPGSV,3,3,11,11,16,169,00,28,11,255,00,138,38,213,00*79
2018-01-12 19:56:09 1515804969.714165: $GPZDA,005610.00,13,01,2018,00,00*6C
2018-01-12 19:56:09 1515804969.714230: $GPGGA,005610,3946.9539,N,08404.9481,W,1,07,1.20,333.31,M,-33.324,M,,*7D
2018-01-12 19:56:09 1515804969.714295: $GPRMC,005610,A,3946.9539,N,08404.9481,W,0.5918,54.767,130118,,*07
2018-01-12 19:56:09 1515804969.714355: $GPGSA,A,3,8,7,9,16,23,27,26,,,,,,4.8,1.2,4.6*0E
2018-01-12 19:56:10 1515804970.166066: $GPZDA,005611.00,13,01,2018,00,00*6D
2018-01-12 19:56:10 1515804970.166239: $GPGGA,005611,3946.9542,N,08404.9473,W,1,07,1.20,332.63,M,-33.324,M,,*7B
2018-01-12 19:56:10 1515804970.166308: $GPRMC,005611,A,3946.9542,N,08404.9473,W,0.7288,106.152,130118,,*31
2018-01-12 19:56:10 1515804970.166370: $GPGSA,A,3,8,7,9,16,23,27,26,,,,,,4.8,1.2,4.6*0E
2018-01-12 19:56:11 1515804971.166562: $GPZDA,005612.00,13,01,2018,00,00*6E
2018-01-12 19:56:11 1515804971.166747: $GPGGA,005612,3946.9538,N,08404.9473,W,1,07,1.20,331.99,M,-33.324,M,,*73
2018-01-12 19:56:11 1515804971.166820: $GPRMC,005612,A,3946.9538,N,08404.9473,W,1.2111,93.794,130118,,*09
2018-01-12 19:56:11 1515804971.166883: $GPGSA,A,3,8,7,9,16,23,27,26,,,,,,4.8,1.2,4.6*0E
2018-01-12 19:56:12 1515804972.500204: $GPGSV,3,1,11,08,70,145,25,07,51,313,25,09,51,235,27,16,27,057,18*73
2018-01-12 19:56:12 1515804972.500369: $GPGSV,3,2,11,23,34,192,24,27,51,058,24,26,02,070,14,30,25,304,00*7F
2018-01-12 19:56:12 1515804972.500434: $GPGSV,3,3,11,11,16,169,00,28,11,255,00,138,38,213,00*79
2018-01-12 19:56:12 1515804972.613655: $GPZDA,005613.00,13,01,2018,00,00*6F
2018-01-12 19:56:12 1515804972.613834: $GPGGA,005613,3946.9534,N,08404.9467,W,1,07,1.20,332.83,M,-33.324,M,,*73
2018-01-12 19:56:12 1515804972.613903: $GPRMC,005613,A,3946.9534,N,08404.9467,W,1.3870,123.370,130118,,*3A
2018-01-12 19:56:12 1515804972.613965: $GPGSA,A,3,8,7,9,16,23,27,26,,,,,,4.8,1.2,4.6*0E
2018-01-12 19:56:13 1515804973.166410: $GPZDA,005614.00,13,01,2018,00,00*68
2018-01-12 19:56:13 1515804973.166597: $GPGGA,005614,3946.9535,N,08404.9468,W,1,07,1.20,334.23,M,-33.324,M,,*76
2018-01-12 19:56:13 1515804973.166671: $GPRMC,005614,A,3946.9535,N,08404.9468,W,0.7288,106.152,130118,,*3E
2018-01-12 19:56:13 1515804973.166737: $GPGSA,A,3,8,7,9,16,23,27,26,,,,,,4.8,1.2,4.6*0E
2018-01-12 19:56:14 1515804974.166318: $GPZDA,005615.00,13,01,2018,00,00*69
2018-01-12 19:56:14 1515804974.166503: $GPGGA,005615,3946.9530,N,08404.9461,W,1,07,1.20,333.67,M,-33.324,M,,*7C
2018-01-12 19:56:14 1515804974.166572: $GPRMC,005615,A,3946.9530,N,08404.9461,W,0.6831,140.632,130118,,*39
2018-01-12 19:56:14 1515804974.166635: $GPGSA,A,3,8,7,9,16,23,27,26,,,,,,4.8,1.2,4.6*0E
2018-01-12 19:56:15 1515804975.501311: $GPGSV,3,1,11,08,70,145,25,07,51,313,25,09,51,235,27,16,27,057,18*73
2018-01-12 19:56:16 1515804976.364722: $GPGSV,3,2,11,23,34,192,24,27,51,058,24,26,02,070,14,11,16,169,08*7D
2018-01-12 19:56:16 1515804976.364888: $GPGSV,3,3,11,30,25,304,00,28,11,255,00,138,38,213,00*73
2018-01-12 19:56:16 1515804976.365006: $GPZDA,005616.00,13,01,2018,00,00*6A
2018-01-12 19:56:16 1515804976.365068: $GPGGA,005616,3946.9531,N,08404.9462,W,1,07,1.20,335.08,M,-33.324,M,,*72
2018-01-12 19:56:16 1515804976.365134: $GPRMC,005616,A,3946.9531,N,08404.9462,W,0.8670,128.874,130118,,*3F
2018-01-12 19:56:16 1515804976.365197: $GPGSA,A,3,8,7,9,16,23,27,26,,,,,,4.8,1.2,4.6*0E
2018-01-12 19:56:16 1515804976.365257: $GPZDA,005617.00,13,01,2018,00,00*6B
2018-01-12 19:56:16 1515804976.365314: $GPGGA,005617,3946.9531,N,08404.9462,W,1,07,1.20,335.08,M,-33.324,M,,*73
2018-01-12 19:56:16 1515804976.365378: $GPRMC,005617,A,3946.9531,N,08404.9462,W,0.4949,112.165,130118,,*37
2018-01-12 19:56:16 1515804976.365441: $GPGSA,A,3,8,7,9,16,23,27,26,,,,,,4.8,1.2,4.6*0E
2018-01-12 19:56:17 1515804977.168072: $GPZDA,005618.00,13,01,2018,00,00*64
2018-01-12 19:56:17 1515804977.168309: $GPGGA,005618,3946.9531,N,08404.9462,W,1,07,1.20,335.08,M,-33.324,M,,*7C
2018-01-12 19:56:17 1515804977.168383: $GPRMC,005618,A,3946.9531,N,08404.9462,W,0.3423,184.197,130118,,*3C
2018-01-12 19:56:17 1515804977.168448: $GPGSA,A,3,8,7,9,16,23,27,26,,,,,,4.8,1.2,4.6*0E
2018-01-12 19:56:18 1515804978.503379: $GPGSV,3,1,11,08,70,145,24,07,51,313,25,09,51,235,27,16,27,057,18*72
2018-01-12 19:56:18 1515804978.503591: $GPGSV,3,2,11,23,34,192,24,27,51,058,25,26,02,070,10,11,16,169,12*73
2018-01-12 19:56:18 1515804978.503669: $GPGSV,3,3,11,30,25,304,08,28,11,255,17,138,38,213,00*7D
2018-01-12 19:56:18 1515804978.616702: $GPZDA,005619.00,13,01,2018,00,00*65
2018-01-12 19:56:18 1515804978.616893: $GPGGA,005619,3946.9527,N,08404.9462,W,1,07,1.20,334.44,M,-33.324,M,,*73
2018-01-12 19:56:18 1515804978.616967: $GPRMC,005619,A,3946.9527,N,08404.9462,W,0.3423,184.197,130118,,*3A
2018-01-12 19:56:18 1515804978.617032: $GPGSA,A,3,8,7,9,16,23,27,26,,,,,,4.8,1.2,4.6*0E
2018-01-12 19:56:19 1515804979.166812: $GPZDA,005620.00,13,01,2018,00,00*6F
2018-01-12 19:56:19 1515804979.166997: $GPGGA,005620,3946.9527,N,08404.9462,W,1,07,1.20,334.44,M,-33.324,M,,*79
2018-01-12 19:56:19 1515804979.167067: $GPRMC,005620,A,3946.9527,N,08404.9462,W,0.7246,164.668,130118,,*38
2018-01-12 19:56:19 1515804979.167133: $GPGSA,A,3,8,7,9,16,23,27,26,,,,,,4.8,1.2,4.6*0E
2018-01-12 19:56:20 1515804980.169328: $GPZDA,005621.00,13,01,2018,00,00*6E
2018-01-12 19:56:20 1515804980.169530: $GPGGA,005621,3946.9523,N,08404.9462,W,1,07,1.20,335.20,M,-33.324,M,,*7F
2018-01-12 19:56:20 1515804980.169628: $GPRMC,005621,A,3946.9523,N,08404.9462,W,1.0534,170.904,130118,,*39
2018-01-12 19:56:20 1515804980.169696: $GPGSA,A,3,8,7,9,16,23,27,26,,,,,,4.8,1.2,4.6*0E
