2017-11-16 14:43:30 1510861410.600542: {"class":"VERSION","release":"3.17","rev":"3.17","proto_major":3,"proto_minor":12}
2017-11-16 14:43:30 1510861410.601143: {"class":"DEVICES","devices":[{"class":"DEVICE","path":"/dev/ttyUSB0","driver":"SiRF","subtype":"9\u0006GSD4e_4.1.2-P1_RPATCH.05-F-GPS-4R-1510281 11/03/2015 307","activated":"2017-11-16T19:43:30.423Z","flags":1,"native":1,"bps":4800,"parity":"N","stopbits":1,"cycle":1.00}]}
2017-11-16 14:43:30 1510861410.601261: {"class":"WATCH","enable":true,"json":false,"nmea":true,"raw":0,"scaled":false,"timing":false,"split24":false,"pps":false}
2017-11-16 14:43:30 1510861410.872423: $GPGSV,3,1,11,08,08,310,27,10,52,312,50,15,26,057,51,18,77,021,45*72
2017-11-16 14:43:30 1510861410.872731: $GPGSV,3,2,11,21,49,183,47,20,23,106,46,24,53,087,48,27,15,276,43*7F
2017-11-16 14:43:30 1510861410.872859: $GPGSV,3,3,11,32,31,247,47,14,15,240,41,138,38,213,44*7B
2017-11-16 14:43:30 1510861410.985621: $GPZDA,194329.00,16,11,2017,00,00*61
2017-11-16 14:43:30 1510861410.985785: $GPGGA,194329,3946.9564,N,08404.9849,W,2,11,0.80,302.66,M,-33.324,M,,*74
2017-11-16 14:43:30 1510861410.985869: $GPRMC,194329,A,3946.9564,N,08404.9849,W,0.0000,0.000,161117,,*38
2017-11-16 14:43:30 1510861410.985926: $GPGSA,A,3,8,10,15,18,21,20,24,27,32,14,138,,1.6,0.8,1.3*37
2017-11-16 14:43:31 1510861411.495236: $GPZDA,194330.00,16,11,2017,00,00*69
2017-11-16 14:43:31 1510861411.495419: $GPGGA,194330,3946.9564,N,08404.9849,W,2,11,0.80,302.66,M,-33.324,M,,*7C
2017-11-16 14:43:31 1510861411.495482: $GPRMC,194330,A,3946.9564,N,08404.9849,W,0.0000,0.000,161117,,*30
2017-11-16 14:43:31 1510861411.495538: $GPGSA,A,3,8,10,15,18,21,20,24,27,32,14,138,,1.6,0.8,1.3*37
2017-11-16 14:43:32 1510861412.501093: $GPZDA,194331.00,16,11,2017,00,00*68
2017-11-16 14:43:32 1510861412.501276: $GPGGA,194331,3946.9564,N,08404.9849,W,2,11,0.80,302.66,M,-33.324,M,,*7D
2017-11-16 14:43:32 1510861412.501339: $GPRMC,194331,A,3946.9564,N,08404.9849,W,0.0000,0.000,161117,,*31
2017-11-16 14:43:32 1510861412.501394: $GPGSA,A,3,8,10,15,18,21,20,24,27,32,14,138,,1.6,0.8,1.3*37
2017-11-16 14:43:33 1510861413.836884: $GPGSV,3,1,11,08,08,310,19,10,52,312,50,15,26,057,51,18,77,021,45*7F
2017-11-16 14:43:33 1510861413.837053: $GPGSV,3,2,11,21,49,183,47,20,23,106,46,24,53,087,49,27,15,276,43*7E
2017-11-16 14:43:33 1510861413.837114: $GPGSV,3,3,11,32,31,247,48,14,15,240,41,138,38,213,44*74
2017-11-16 14:43:33 1510861413.950525: $GPZDA,194332.00,16,11,2017,00,00*6B
2017-11-16 14:43:33 1510861413.950709: $GPGGA,194332,3946.9564,N,08404.9849,W,2,11,0.80,302.66,M,-33.324,M,,*7E
2017-11-16 14:43:33 1510861413.950772: $GPRMC,194332,A,3946.9564,N,08404.9849,W,0.0000,0.000,161117,,*32
2017-11-16 14:43:33 1510861413.950845: $GPGSA,A,3,8,10,15,18,21,20,24,27,32,14,138,,1.6,0.8,1.3*37
2017-11-16 14:43:34 1510861414.576930: $GPZDA,194333.00,16,11,2017,00,00*6A
2017-11-16 14:43:34 1510861414.577091: $GPGGA,194333,3946.9564,N,08404.9849,W,2,11,0.80,302.66,M,-33.324,M,,*7F
2017-11-16 14:43:34 1510861414.577151: $GPRMC,194333,A,3946.9564,N,08404.9849,W,0.0000,0.000,161117,,*33
2017-11-16 14:43:34 1510861414.577207: $GPGSA,A,3,8,10,15,18,21,20,24,27,32,14,138,,1.6,0.8,1.3*37
2017-11-16 14:43:35 1510861415.500435: $GPZDA,194334.00,16,11,2017,00,00*6D
2017-11-16 14:43:35 1510861415.500615: $GPGGA,194334,3946.9564,N,08404.9849,W,2,11,0.80,302.66,M,-33.324,M,,*78
2017-11-16 14:43:35 1510861415.500677: $GPRMC,194334,A,3946.9564,N,08404.9849,W,0.0000,0.000,161117,,*34
2017-11-16 14:43:35 1510861415.500750: $GPGSA,A,3,8,10,15,18,21,20,24,27,32,14,138,,1.6,0.8,1.3*37
2017-11-16 14:43:36 1510861416.836963: $GPGSV,3,1,11,08,08,310,24,10,52,312,50,15,26,057,51,18,77,021,45*71
2017-11-16 14:43:36 1510861416.837144: $GPGSV,3,2,11,21,49,183,47,20,23,106,46,24,53,087,48,27,15,276,44*78
2017-11-16 14:43:36 1510861416.837204: $GPGSV,3,3,11,32,31,247,47,14,15,240,40,138,38,213,43*7D
2017-11-16 14:43:36 1510861416.950331: $GPZDA,194335.00,16,11,2017,00,00*6C
2017-11-16 14:43:36 1510861416.950520: $GPGGA,194335,3946.9564,N,08404.9849,W,2,11,0.80,302.66,M,-33.324,M,,*79
2017-11-16 14:43:36 1510861416.950677: $GPRMC,194335,A,3946.9564,N,08404.9849,W,0.0000,0.000,161117,,*35
2017-11-16 14:43:36 1510861416.950735: $GPGSA,A,3,8,10,15,18,21,20,24,27,32,14,138,,1.6,0.8,1.3*37
2017-11-16 14:43:37 1510861417.534893: $GPZDA,194336.00,16,11,2017,00,00*6F
2017-11-16 14:43:37 1510861417.535059: $GPGGA,194336,3946.9564,N,08404.9849,W,2,11,0.80,302.66,M,-33.324,M,,*7A
2017-11-16 14:43:37 1510861417.535120: $GPRMC,194336,A,3946.9564,N,08404.9849,W,0.0000,0.000,161117,,*36
2017-11-16 14:43:37 1510861417.535175: $GPGSA,A,3,8,10,15,18,21,20,24,27,32,14,138,,1.6,0.8,1.3*37
2017-11-16 14:43:38 1510861418.534436: $GPZDA,194337.00,16,11,2017,00,00*6E
2017-11-16 14:43:38 1510861418.534608: $GPGGA,194337,3946.9564,N,08404.9849,W,2,11,0.80,302.66,M,-33.324,M,,*7B
2017-11-16 14:43:38 1510861418.534671: $GPRMC,194337,A,3946.9564,N,08404.9849,W,0.0000,0.000,161117,,*37
2017-11-16 14:43:38 1510861418.534728: $GPGSA,A,3,8,10,15,18,21,20,24,27,32,14,138,,1.6,0.8,1.3*37
2017-11-16 14:43:39 1510861419.869657: $GPGSV,3,1,11,08,08,310,24,10,52,312,50,15,26,057,51,18,77,021,44*70
2017-11-16 14:43:39 1510861419.869828: $GPGSV,3,2,11,21,49,183,47,20,23,106,46,24,53,087,48,27,15,276,44*78
2017-11-16 14:43:39 1510861419.869889: $GPGSV,3,3,11,32,31,247,47,14,15,240,41,138,38,213,44*7B
2017-11-16 14:43:39 1510861419.982970: $GPZDA,194338.00,16,11,2017,00,00*61
2017-11-16 14:43:39 1510861419.983139: $GPGGA,194338,3946.9564,N,08404.9849,W,2,11,0.80,302.66,M,-33.324,M,,*74
2017-11-16 14:43:39 1510861419.983201: $GPRMC,194338,A,3946.9564,N,08404.9849,W,0.0000,0.000,161117,,*38
2017-11-16 14:43:39 1510861419.983257: $GPGSA,A,3,8,10,15,18,21,20,24,27,32,14,138,,1.6,0.8,1.3*37
2017-11-16 14:43:40 1510861420.500539: $GPZDA,194339.00,16,11,2017,00,00*60
2017-11-16 14:43:40 1510861420.500702: $GPGGA,194339,3946.9564,N,08404.9849,W,2,11,0.80,302.66,M,-33.324,M,,*75
2017-11-16 14:43:40 1510861420.500765: $GPRMC,194339,A,3946.9564,N,08404.9849,W,0.0000,0.000,161117,,*39
2017-11-16 14:43:40 1510861420.500820: $GPGSA,A,3,8,10,15,18,21,20,24,27,32,14,138,,1.6,0.8,1.3*37
