2017-12-14 12:18:31 1513271911.354509: {"class":"VERSION","release":"3.16","rev":"3.16-4","proto_major":3,"proto_minor":11}
2017-12-14 12:18:31 1513271911.354876: {"class":"DEVICES","devices":[{"class":"DEVICE","path":"/dev/ttyUSB0","driver":"SiRF","subtype":"9\u0006GSD4e_4.1.2-P1_RPATCH.05-F-GPS-4R-1510281 11/03/2015 307","activated":"2017-12-14T17:18:31.353Z","flags":1,"native":1,"bps":4800,"parity":"N","stopbits":1,"cycle":1.00}]}
2017-12-14 12:18:31 1513271911.355006: {"class":"WATCH","enable":true,"json":false,"nmea":true,"raw":0,"scaled":false,"timing":false,"split24":false,"pps":false}
2017-12-14 12:18:32 1513271912.557509: $GPGSV,3,1,12,21,63,187,28,15,37,052,18,18,71,337,19,20,34,096,17*78
2017-12-14 12:18:32 1513271912.557678: $GPGSV,3,2,12,24,50,111,18,14,03,232,04,32,21,238,10,10,41,301,00*7D
2017-12-14 12:18:32 1513271912.557742: $GPGSV,3,3,12,27,19,289,00,13,08,048,00,08,06,322,00,120,07,103,00*49
2017-12-14 12:18:32 1513271912.670936: $GPZDA,171833.00,14,12,2017,00,00*6B
2017-12-14 12:18:32 1513271912.671124: $GPGGA,171833,3946.9557,N,08404.9273,W,1,05,2.80,354.41,M,-33.324,M,,*7E
2017-12-14 12:18:32 1513271912.671189: $GPRMC,171833,A,3946.9557,N,08404.9273,W,1.5558,145.035,141217,,*3B
2017-12-14 12:18:32 1513271912.671251: $GPGSA,A,3,21,15,18,20,24,,,,,,,,6.6,2.8,6.2*36
2017-12-14 12:18:33 1513271913.241060: $GPZDA,171834.00,14,12,2017,00,00*6C
2017-12-14 12:18:33 1513271913.241236: $GPGGA,171834,3946.9552,N,08404.9273,W,1,05,1.80,353.77,M,-33.324,M,,*7D
2017-12-14 12:18:33 1513271913.241303: $GPRMC,171834,A,3946.9552,N,08404.9273,W,1.1323,158.868,141217,,*3B
2017-12-14 12:18:33 1513271913.241363: $GPGSA,A,3,21,15,18,20,24,,,,,,,,6.6,1.8,6.2*35
2017-12-14 12:18:34 1513271914.241217: $GPZDA,171835.00,14,12,2017,00,00*6D
2017-12-14 12:18:34 1513271914.241382: $GPGGA,171835,3946.9549,N,08404.9274,W,1,05,1.80,354.54,M,-33.324,M,,*77
2017-12-14 12:18:34 1513271914.241448: $GPRMC,171835,A,3946.9549,N,08404.9274,W,1.4168,152.696,141217,,*3A
2017-12-14 12:18:34 1513271914.241509: $GPGSA,A,3,21,15,18,20,24,,,,,,,,6.6,1.8,6.2*35
2017-12-14 12:18:35 1513271915.577468: $GPGSV,3,1,12,21,63,187,28,15,37,052,18,18,71,337,18,20,34,096,17*79
2017-12-14 12:18:35 1513271915.577660: $GPGSV,3,2,12,24,50,111,19,14,03,232,04,32,21,238,17,10,41,301,00*7B
2017-12-14 12:18:35 1513271915.577729: $GPGSV,3,3,12,27,19,289,00,13,08,048,00,08,06,322,00,120,07,103,00*49
2017-12-14 12:18:35 1513271915.691052: $GPZDA,171836.00,14,12,2017,00,00*6E
2017-12-14 12:18:35 1513271915.691206: $GPGGA,171836,3946.9541,N,08404.9268,W,1,06,1.80,354.74,M,-33.324,M,,*70
2017-12-14 12:18:35 1513271915.691272: $GPRMC,171836,A,3946.9541,N,08404.9268,W,1.6717,148.779,141217,,*3B
2017-12-14 12:18:35 1513271915.691333: $GPGSA,A,3,21,15,18,20,24,32,,,,,,,6.6,1.8,6.2*34
2017-12-14 12:18:36 1513271916.223876: $GPZDA,171837.00,14,12,2017,00,00*6F
2017-12-14 12:18:36 1513271916.224287: $GPGGA,171837,3946.9536,N,08404.9261,W,1,06,1.80,354.18,M,-33.324,M,,*72
2017-12-14 12:18:36 1513271916.227522: $GPRMC,171837,A,3946.9536,N,08404.9261,W,1.7736,129.173,141217,,*3A
2017-12-14 12:18:36 1513271916.227603: $GPGSA,A,3,21,15,18,20,24,32,,,,,,,6.6,1.8,6.2*34
2017-12-14 12:18:37 1513271917.223500: $GPZDA,171838.00,14,12,2017,00,00*60
2017-12-14 12:18:37 1513271917.223669: $GPGGA,171838,3946.9536,N,08404.9261,W,1,06,1.80,354.18,M,-33.324,M,,*7D
2017-12-14 12:18:37 1513271917.223737: $GPRMC,171838,A,3946.9536,N,08404.9261,W,1.3305,117.203,141217,,*3C
2017-12-14 12:18:37 1513271917.223879: $GPGSA,A,3,21,15,18,20,24,32,,,,,,,6.6,1.8,6.2*34
2017-12-14 12:18:38 1513271918.560505: $GPGSV,3,1,12,21,63,187,29,15,37,052,18,18,71,337,18,20,34,096,18*77
2017-12-14 12:18:38 1513271918.560689: $GPGSV,3,2,12,24,50,111,20,10,41,301,00,32,21,238,17,27,19,289,00*7E
2017-12-14 12:18:38 1513271918.560756: $GPGSV,3,3,12,13,08,048,00,08,06,322,00,14,03,232,00,120,07,103,00*42
2017-12-14 12:18:38 1513271918.673188: $GPZDA,171839.00,14,12,2017,00,00*61
2017-12-14 12:18:38 1513271918.673369: $GPGGA,171839,3946.9529,N,08404.9254,W,1,06,1.80,354.38,M,-33.324,M,,*76
2017-12-14 12:18:38 1513271918.673491: $GPRMC,171839,A,3946.9529,N,08404.9254,W,1.6397,119.644,141217,,*32
2017-12-14 12:18:38 1513271918.673556: $GPGSA,A,3,21,15,18,20,24,32,,,,,,,6.6,1.8,6.2*34
2017-12-14 12:18:39 1513271919.224173: $GPZDA,171840.00,14,12,2017,00,00*6F
2017-12-14 12:18:39 1513271919.224332: $GPGGA,171840,3946.9529,N,08404.9254,W,1,06,1.80,354.38,M,-33.324,M,,*78
2017-12-14 12:18:39 1513271919.224399: $GPRMC,171840,A,3946.9529,N,08404.9254,W,1.2221,129.597,141217,,*3A
2017-12-14 12:18:39 1513271919.224461: $GPGSA,A,3,21,15,18,20,24,32,,,,,,,6.6,1.8,6.2*34
2017-12-14 12:18:40 1513271920.225819: $GPZDA,171841.00,14,12,2017,00,00*6E
2017-12-14 12:18:40 1513271920.226041: $GPGGA,171841,3946.9524,N,08404.9247,W,1,06,1.80,353.82,M,-33.324,M,,*70
2017-12-14 12:18:40 1513271920.226110: $GPRMC,171841,A,3946.9524,N,08404.9247,W,1.8133,129.459,141217,,*3D
2017-12-14 12:18:40 1513271920.226173: $GPGSA,A,3,21,15,18,20,24,32,,,,,,,6.6,1.8,6.2*34
2017-12-14 12:18:41 1513271921.559331: $GPGSV,3,1,12,21,63,187,29,15,37,052,18,18,71,337,17,20,34,096,17*77
2017-12-14 12:18:41 1513271921.559531: $GPGSV,3,2,12,24,50,111,21,10,41,301,00,32,21,238,17,27,19,289,00*7F
2017-12-14 12:18:41 1513271921.559619: $GPGSV,3,3,12,13,08,048,00,08,06,322,00,14,03,232,00,120,07,103,00*42
2017-12-14 12:18:41 1513271921.672682: $GPZDA,171842.00,14,12,2017,00,00*6D
2017-12-14 12:18:41 1513271921.672855: $GPGGA,171842,3946.9516,N,08404.9248,W,1,06,1.80,353.95,M,-33.324,M,,*7B
2017-12-14 12:18:41 1513271921.672925: $GPRMC,171842,A,3946.9516,N,08404.9248,W,1.4256,123.893,141217,,*3C
2017-12-14 12:18:41 1513271921.673003: $GPGSA,A,3,21,15,18,20,24,32,,,,,,,6.6,1.8,6.2*34
2017-12-14 12:18:42 1513271922.223772: $GPZDA,171843.00,14,12,2017,00,00*6C
2017-12-14 12:18:42 1513271922.223955: $GPGGA,171843,3946.9516,N,08404.9241,W,1,06,1.80,354.03,M,-33.324,M,,*7B
2017-12-14 12:18:42 1513271922.224022: $GPRMC,171843,A,3946.9516,N,08404.9241,W,1.5243,107.945,141217,,*3D
2017-12-14 12:18:42 1513271922.224084: $GPGSA,A,3,21,15,18,20,24,32,,,,,,,6.6,1.8,6.2*34
2017-12-14 12:18:43 1513271923.223697: $GPZDA,171844.00,14,12,2017,00,00*6B
2017-12-14 12:18:43 1513271923.223865: $GPGGA,171844,3946.9512,N,08404.9234,W,1,06,1.80,353.47,M,-33.324,M,,*7D
2017-12-14 12:18:43 1513271923.223931: $GPRMC,171844,A,3946.9512,N,08404.9234,W,1.6397,119.644,141217,,*36
2017-12-14 12:18:43 1513271923.223992: $GPGSA,A,3,21,15,18,20,24,32,,,,,,,6.6,1.8,6.2*34
2017-12-14 12:18:44 1513271924.559879: $GPGSV,3,1,12,21,63,187,29,15,37,052,18,18,71,337,17,20,34,096,17*77
2017-12-14 12:18:44 1513271924.560057: $GPGSV,3,2,12,24,50,111,22,10,41,301,00,32,21,238,17,27,19,289,00*7C
2017-12-14 12:18:44 1513271924.560121: $GPGSV,3,3,12,13,08,048,00,08,06,322,00,14,03,232,00,120,07,103,00*42
2017-12-14 12:18:44 1513271924.673643: $GPZDA,171845.00,14,12,2017,00,00*6A
2017-12-14 12:18:44 1513271924.673800: $GPGGA,171845,3946.9507,N,08404.9234,W,1,06,1.80,352.83,M,-33.324,M,,*71
2017-12-14 12:18:44 1513271924.673866: $GPRMC,171845,A,3946.9507,N,08404.9234,W,1.9373,133.726,141217,,*3B
2017-12-14 12:18:44 1513271924.673926: $GPGSA,A,3,21,15,18,20,24,32,,,,,,,6.6,1.8,6.2*34
2017-12-14 12:18:45 1513271925.223471: $GPZDA,171846.00,14,12,2017,00,00*69
2017-12-14 12:18:45 1513271925.223628: $GPGGA,171846,3946.9500,N,08404.9235,W,1,06,1.80,352.95,M,-33.324,M,,*73
2017-12-14 12:18:45 1513271925.223694: $GPRMC,171846,A,3946.9500,N,08404.9235,W,1.5964,144.958,141217,,*39
2017-12-14 12:18:45 1513271925.223755: $GPGSA,A,3,21,15,18,20,24,32,,,,,,,6.6,1.8,6.2*34
2017-12-14 12:18:46 1513271926.223563: $GPZDA,171847.00,14,12,2017,00,00*68
2017-12-14 12:18:46 1513271926.223735: $GPGGA,171847,3946.9499,N,08404.9228,W,1,06,1.80,353.03,M,-33.324,M,,*71
2017-12-14 12:18:46 1513271926.223823: $GPRMC,171847,A,3946.9499,N,08404.9228,W,1.3488,135.720,141217,,*3B
2017-12-14 12:18:46 1513271926.223885: $GPGSA,A,3,21,15,18,20,24,32,,,,,,,6.6,1.8,6.2*34
2017-12-14 12:18:47 1513271927.560452: $GPGSV,3,1,12,21,63,187,29,15,37,052,18,18,71,337,17,20,34,096,17*77
2017-12-14 12:18:47 1513271927.560643: $GPGSV,3,2,12,24,50,111,22,27,19,289,07,32,21,238,17,10,41,301,00*7B
2017-12-14 12:18:47 1513271927.560782: $GPGSV,3,3,12,13,08,048,00,08,06,322,00,14,03,232,00,138,38,213,00*45
2017-12-14 12:18:47 1513271927.672699: $GPZDA,171848.00,14,12,2017,00,00*67
2017-12-14 12:18:47 1513271927.672908: $GPGGA,171848,3946.9495,N,08404.9228,W,1,06,1.80,352.39,M,-33.324,M,,*7A
2017-12-14 12:18:47 1513271927.672977: $GPRMC,171848,A,3946.9495,N,08404.9228,W,0.8763,148.465,141217,,*3C
2017-12-14 12:18:47 1513271927.673039: $GPGSA,A,3,21,15,18,20,24,32,,,,,,,6.6,1.8,6.2*34
2017-12-14 12:18:48 1513271928.225330: $GPZDA,171849.00,14,12,2017,00,00*66
2017-12-14 12:18:48 1513271928.225633: $GPGGA,171849,3946.9491,N,08404.9228,W,1,06,1.80,351.75,M,-33.324,M,,*74
2017-12-14 12:18:48 1513271928.225785: $GPRMC,171849,A,3946.9491,N,08404.9228,W,1.4882,140.746,141217,,*3E
2017-12-14 12:18:48 1513271928.225890: $GPGSA,A,3,21,15,18,20,24,32,,,,,,,6.6,1.8,6.2*34
2017-12-14 12:18:49 1513271929.224205: $GPZDA,171850.00,14,12,2017,00,00*6E
2017-12-14 12:18:49 1513271929.224366: $GPGGA,171850,3946.9487,N,08404.9228,W,1,06,1.80,351.11,M,-33.324,M,,*79
2017-12-14 12:18:49 1513271929.224431: $GPRMC,171850,A,3946.9487,N,08404.9228,W,1.3893,135.904,141217,,*3C
2017-12-14 12:18:49 1513271929.224492: $GPGSA,A,3,21,15,18,20,24,32,,,,,,,6.6,1.8,6.2*34
2017-12-14 12:18:50 1513271930.560365: $GPGSV,3,1,12,21,63,187,29,15,37,052,19,18,71,337,16,20,34,096,17*77
2017-12-14 12:18:50 1513271930.560541: $GPGSV,3,2,12,24,50,111,23,27,19,289,12,32,21,238,17,10,41,301,00*7E
2017-12-14 12:18:50 1513271930.560606: $GPGSV,3,3,12,13,08,048,00,08,06,322,00,14,03,232,00,138,38,213,00*45
2017-12-14 12:18:50 1513271930.673763: $GPZDA,171851.00,14,12,2017,00,00*6F
2017-12-14 12:18:50 1513271930.673936: $GPGGA,171851,3946.9487,N,08404.9228,W,1,06,1.80,351.11,M,-33.324,M,,*78
2017-12-14 12:18:50 1513271930.674002: $GPRMC,171851,A,3946.9487,N,08404.9228,W,1.6371,144.885,141217,,*31
2017-12-14 12:18:50 1513271930.674062: $GPGSA,A,3,21,15,18,20,24,32,,,,,,,6.6,1.8,6.2*34
2017-12-14 12:18:51 1513271931.223916: $GPZDA,171852.00,14,12,2017,00,00*6C
2017-12-14 12:18:51 1513271931.224079: $GPGGA,171852,3946.9483,N,08404.9228,W,1,06,1.80,350.47,M,-33.324,M,,*7D
2017-12-14 12:18:51 1513271931.224144: $GPRMC,171852,A,3946.9483,N,08404.9228,W,1.2204,143.552,141217,,*31
2017-12-14 12:18:51 1513271931.224205: $GPGSA,A,3,21,15,18,20,24,32,,,,,,,6.6,1.8,6.2*34
