2017-12-14 12:18:06 1513271886.273588: {"class":"VERSION","release":"3.16","rev":"3.16-4","proto_major":3,"proto_minor":11}
2017-12-14 12:18:06 1513271886.273940: {"class":"DEVICES","devices":[{"class":"DEVICE","path":"/dev/ttyUSB0","driver":"SiRF","subtype":"9\u0006GSD4e_4.1.2-P1_RPATCH.05-F-GPS-4R-1510281 11/03/2015 307","activated":"2017-12-14T17:18:06.239Z","flags":1,"native":1,"bps":4800,"parity":"N","stopbits":1,"cycle":1.00}]}
2017-12-14 12:18:06 1513271886.274058: {"class":"WATCH","enable":true,"json":false,"nmea":true,"raw":0,"scaled":false,"timing":false,"split24":false,"pps":false}
2017-12-14 12:18:07 1513271887.223719: $GPZDA,171808.00,14,12,2017,00,00*63
2017-12-14 12:18:07 1513271887.223905: $GPGGA,171808,3946.9619,N,08404.9283,W,1,06,1.80,356.07,M,-33.324,M,,*70
2017-12-14 12:18:07 1513271887.223974: $GPRMC,171808,A,3946.9619,N,08404.9283,W,0.8414,39.347,141217,,*0C
2017-12-14 12:18:07 1513271887.224036: $GPGSA,A,3,21,15,18,20,24,32,,,,,,,6.6,1.8,6.2*34
2017-12-14 12:18:08 1513271888.574965: $GPGSV,3,1,12,21,63,187,28,15,37,052,19,18,71,337,22,20,34,096,20*75
2017-12-14 12:18:08 1513271888.575157: $GPGSV,3,2,12,24,50,111,15,10,41,301,00,27,19,289,00,32,21,238,17*78
2017-12-14 12:18:08 1513271888.575221: $GPGSV,3,3,12,13,08,048,00,08,06,322,00,14,03,232,00,138,38,213,00*45
2017-12-14 12:18:08 1513271888.688375: $GPZDA,171809.00,14,12,2017,00,00*62
2017-12-14 12:18:08 1513271888.688535: $GPGGA,171809,3946.9619,N,08404.9283,W,1,06,1.80,356.07,M,-33.324,M,,*71
2017-12-14 12:18:08 1513271888.688601: $GPRMC,171809,A,3946.9619,N,08404.9283,W,0.7070,48.987,141217,,*04
2017-12-14 12:18:08 1513271888.688661: $GPGSA,A,3,21,15,18,20,24,32,,,,,,,6.6,1.8,6.2*34
2017-12-14 12:18:09 1513271889.224833: $GPZDA,171810.00,14,12,2017,00,00*6A
2017-12-14 12:18:09 1513271889.225003: $GPGGA,171810,3946.9619,N,08404.9283,W,1,06,1.80,356.07,M,-33.324,M,,*79
2017-12-14 12:18:09 1513271889.225072: $GPRMC,171810,A,3946.9619,N,08404.9283,W,0.6846,4.197,141217,,*31
2017-12-14 12:18:09 1513271889.225131: $GPGSA,A,3,21,15,18,20,24,32,,,,,,,6.6,1.8,6.2*34
2017-12-14 12:18:10 1513271890.239850: $GPZDA,171811.00,14,12,2017,00,00*6B
2017-12-14 12:18:10 1513271890.240033: $GPGGA,171811,3946.9615,N,08404.9283,W,1,06,1.80,355.43,M,-33.324,M,,*77
2017-12-14 12:18:10 1513271890.240122: $GPRMC,171811,A,3946.9615,N,08404.9283,W,0.3423,184.197,141217,,*3F
2017-12-14 12:18:10 1513271890.240186: $GPGSA,A,3,21,15,18,20,24,32,,,,,,,6.6,1.8,6.2*34
2017-12-14 12:18:11 1513271891.576023: $GPGSV,3,1,12,21,63,187,29,15,37,052,19,18,71,337,22,20,34,096,20*74
2017-12-14 12:18:11 1513271891.576188: $GPGSV,3,2,12,24,50,111,18,10,41,301,00,27,19,289,00,32,21,238,17*75
2017-12-14 12:18:11 1513271891.576253: $GPGSV,3,3,12,13,08,048,00,08,06,322,00,14,03,232,00,138,38,213,00*45
2017-12-14 12:18:11 1513271891.689657: $GPZDA,171812.00,14,12,2017,00,00*68
2017-12-14 12:18:11 1513271891.689826: $GPGGA,171812,3946.9608,N,08404.9283,W,1,06,1.80,355.55,M,-33.324,M,,*7F
2017-12-14 12:18:11 1513271891.689891: $GPRMC,171812,A,3946.9608,N,08404.9283,W,0.4179,148.779,141217,,*3B
2017-12-14 12:18:11 1513271891.689952: $GPGSA,A,3,21,15,18,20,24,32,,,,,,,6.6,1.8,6.2*34
2017-12-14 12:18:12 1513271892.241543: $GPZDA,171813.00,14,12,2017,00,00*69
2017-12-14 12:18:12 1513271892.241715: $GPGGA,171813,3946.9608,N,08404.9283,W,1,06,1.80,355.55,M,-33.324,M,,*7E
2017-12-14 12:18:12 1513271892.241781: $GPRMC,171813,A,3946.9608,N,08404.9283,W,0.5951,58.685,141217,,*0B
2017-12-14 12:18:12 1513271892.241842: $GPGSA,A,3,21,15,18,20,24,32,,,,,,,6.6,1.8,6.2*34
2017-12-14 12:18:13 1513271893.240491: $GPZDA,171814.00,14,12,2017,00,00*6E
2017-12-14 12:18:13 1513271893.240671: $GPGGA,171814,3946.9608,N,08404.9283,W,1,06,1.80,355.55,M,-33.324,M,,*79
2017-12-14 12:18:13 1513271893.240737: $GPRMC,171814,A,3946.9608,N,08404.9283,W,1.0018,50.691,141217,,*01
2017-12-14 12:18:13 1513271893.240798: $GPGSA,A,3,21,15,18,20,24,32,,,,,,,6.6,1.8,6.2*34
2017-12-14 12:18:14 1513271894.577945: $GPGSV,3,1,12,21,63,187,28,15,37,052,18,18,71,337,21,20,34,096,20*77
2017-12-14 12:18:14 1513271894.578120: $GPGSV,3,2,12,24,50,111,18,10,41,301,00,27,19,289,00,32,21,238,17*75
2017-12-14 12:18:14 1513271894.578238: $GPGSV,3,3,12,13,08,048,00,08,06,322,00,14,03,232,00,138,38,213,00*45
2017-12-14 12:18:14 1513271894.691296: $GPZDA,171815.00,14,12,2017,00,00*6F
2017-12-14 12:18:14 1513271894.691453: $GPGGA,171815,3946.9608,N,08404.9283,W,1,06,1.80,355.55,M,-33.324,M,,*78
2017-12-14 12:18:14 1513271894.691519: $GPRMC,171815,A,3946.9608,N,08404.9283,W,1.1385,29.379,141217,,*0B
2017-12-14 12:18:14 1513271894.691580: $GPGSA,A,3,21,15,18,20,24,32,,,,,,,6.6,1.8,6.2*34
2017-12-14 12:18:15 1513271895.242655: $GPZDA,171816.00,14,12,2017,00,00*6C
2017-12-14 12:18:15 1513271895.242878: $GPGGA,171816,3946.9607,N,08404.9276,W,1,06,2.60,355.63,M,-33.324,M,,*76
2017-12-14 12:18:15 1513271895.242971: $GPRMC,171816,A,3946.9607,N,08404.9276,W,0.8414,39.347,141217,,*06
2017-12-14 12:18:15 1513271895.243039: $GPGSA,A,3,21,15,18,20,24,32,,,,,,,6.6,2.6,6.2*39
2017-12-14 12:18:16 1513271896.238997: $GPZDA,171817.00,14,12,2017,00,00*6D
2017-12-14 12:18:16 1513271896.239165: $GPGGA,171817,3946.9603,N,08404.9276,W,1,06,2.60,354.99,M,-33.324,M,,*77
2017-12-14 12:18:16 1513271896.239230: $GPRMC,171817,A,3946.9603,N,08404.9276,W,0.5951,58.685,141217,,*0E
2017-12-14 12:18:16 1513271896.239293: $GPGSA,A,3,21,15,18,20,24,32,,,,,,,6.6,2.6,6.2*39
2017-12-14 12:18:17 1513271897.560967: $GPGSV,3,1,12,21,63,187,28,15,37,052,18,18,71,337,21,20,34,096,20*77
2017-12-14 12:18:17 1513271897.561150: $GPGSV,3,2,12,24,50,111,16,14,03,232,14,10,41,301,00,32,21,238,17*75
2017-12-14 12:18:17 1513271897.561216: $GPGSV,3,3,12,27,19,289,00,13,08,048,00,08,06,322,00,120,07,103,00*49
2017-12-14 12:18:17 1513271897.674569: $GPZDA,171818.00,14,12,2017,00,00*62
2017-12-14 12:18:17 1513271897.674701: $GPGGA,171818,3946.9603,N,08404.9276,W,1,06,1.80,354.99,M,-33.324,M,,*75
2017-12-14 12:18:17 1513271897.674783: $GPRMC,171818,A,3946.9603,N,08404.9276,W,0.2422,93.795,141217,,*08
2017-12-14 12:18:17 1513271897.674846: $GPGSA,A,3,21,15,18,20,24,32,,,,,,,6.6,1.8,6.2*34
2017-12-14 12:18:18 1513271898.242291: $GPZDA,171819.00,14,12,2017,00,00*63
2017-12-14 12:18:18 1513271898.242461: $GPGGA,171819,3946.9599,N,08404.9276,W,1,06,1.80,354.35,M,-33.324,M,,*72
2017-12-14 12:18:18 1513271898.242528: $GPRMC,171819,A,3946.9599,N,08404.9276,W,0.5306,114.353,141217,,*3F
2017-12-14 12:18:18 1513271898.242589: $GPGSA,A,3,21,15,18,20,24,32,,,,,,,6.6,1.8,6.2*34
2017-12-14 12:18:19 1513271899.226111: $GPZDA,171820.00,14,12,2017,00,00*69
2017-12-14 12:18:19 1513271899.226283: $GPGGA,171820,3946.9599,N,08404.9276,W,1,06,1.80,354.35,M,-33.324,M,,*78
2017-12-14 12:18:19 1513271899.226367: $GPRMC,171820,A,3946.9599,N,08404.9276,W,0.2422,273.795,141217,,*3F
2017-12-14 12:18:19 1513271899.226431: $GPGSA,A,3,21,15,18,20,24,32,,,,,,,6.6,1.8,6.2*34
2017-12-14 12:18:20 1513271900.569567: $GPGSV,3,1,12,21,63,187,28,15,37,052,18,18,71,337,21,20,34,096,19*7D
2017-12-14 12:18:20 1513271900.569749: $GPGSV,3,2,12,24,50,111,00,14,03,232,08,10,41,301,00,32,21,238,00*79
2017-12-14 12:18:20 1513271900.569814: $GPGSV,3,3,12,27,19,289,00,13,08,048,00,08,06,322,00,120,07,103,00*49
2017-12-14 12:18:20 1513271900.680677: $GPRMC,171821,V,3946.9591,N,08404.9277,W,0.2422,273.795,141217,,*20
2017-12-14 12:18:20 1513271900.680852: $GPGSA,A,1,21,15,18,20,,,,,,,,,,,,*3E
2017-12-14 12:18:21 1513271901.232102: $GPRMC,171822,V,3946.9591,N,08404.9277,W,0.2422,273.795,141217,,*23
2017-12-14 12:18:21 1513271901.232311: $GPGSA,A,1,21,15,18,20,,,,,,,,,,,,*3E
2017-12-14 12:18:22 1513271902.215541: $GPRMC,171823,V,3946.9592,N,08404.9284,W,0.2422,273.795,141217,,*2D
2017-12-14 12:18:22 1513271902.215741: $GPGSA,A,1,21,15,18,20,,,,,,,,,,,,*3E
2017-12-14 12:18:23 1513271903.568972: $GPGSV,3,1,12,21,63,187,28,15,37,052,18,18,71,337,20,20,34,096,18*7D
2017-12-14 12:18:23 1513271903.569153: $GPGSV,3,2,12,24,50,111,00,14,03,232,05,10,41,301,00,32,21,238,00*74
2017-12-14 12:18:23 1513271903.569218: $GPGSV,3,3,12,27,19,289,00,13,08,048,00,08,06,322,00,120,07,103,00*49
2017-12-14 12:18:23 1513271903.681433: $GPRMC,171824,V,3946.9584,N,08404.9285,W,0.2422,273.795,141217,,*2C
2017-12-14 12:18:23 1513271903.681660: $GPGSA,A,1,21,15,18,20,,,,,,,,,,,,*3E
2017-12-14 12:18:24 1513271904.216475: $GPRMC,171825,V,3946.9584,N,08404.9285,W,0.2422,273.795,141217,,*2D
2017-12-14 12:18:24 1513271904.216631: $GPGSA,A,1,21,15,18,20,,,,,,,,,,,,*3E
2017-12-14 12:18:25 1513271905.232875: $GPRMC,171826,V,3946.9584,N,08404.9285,W,0.2422,273.795,141217,,*2E
2017-12-14 12:18:25 1513271905.233055: $GPGSA,A,1,21,15,18,20,,,,,,,,,,,,*3E
