2017-12-29 15:02:59 1514577779.011873: {"class":"VERSION","release":"3.16","rev":"3.16-4","proto_major":3,"proto_minor":11}
2017-12-29 15:02:59 1514577779.012255: {"class":"DEVICES","devices":[{"class":"DEVICE","path":"/dev/ttyUSB0","driver":"SiRF","subtype":"9\u0006GSD4e_4.1.2-P1_RPATCH.05-F-GPS-4R-1510281 11/03/2015 307","activated":"2017-12-29T20:02:58.969Z","flags":1,"native":1,"bps":4800,"parity":"N","stopbits":1,"cycle":1.00}]}
2017-12-29 15:02:59 1514577779.012388: {"class":"WATCH","enable":true,"json":false,"nmea":true,"raw":0,"scaled":false,"timing":false,"split24":false,"pps":false}
2017-12-29 15:02:59 1514577779.397045: $GPZDA,200300.00,29,12,2017,00,00*6B
2017-12-29 15:02:59 1514577779.397200: $GPGGA,200300,3946.9577,N,08404.9825,W,2,12,0.80,299.84,M,-33.324,M,,*75
2017-12-29 15:02:59 1514577779.397265: $GPRMC,200300,A,3946.9577,N,08404.9825,W,0.0000,0.000,291217,,*3A
2017-12-29 15:02:59 1514577779.397327: $GPGSA,A,3,3,10,1,12,14,22,25,31,32,18,11,138,1.7,0.8,1.3*0C
2017-12-29 15:03:00 1514577780.395417: $GPZDA,200301.00,29,12,2017,00,00*6A
2017-12-29 15:03:00 1514577780.395574: $GPGGA,200301,3946.9577,N,08404.9825,W,2,12,0.80,299.84,M,-33.324,M,,*74
2017-12-29 15:03:00 1514577780.395665: $GPRMC,200301,A,3946.9577,N,08404.9825,W,0.0000,0.000,291217,,*3B
2017-12-29 15:03:00 1514577780.395743: $GPGSA,A,3,3,10,1,12,14,22,25,31,32,18,11,138,1.7,0.8,1.3*0C
2017-12-29 15:03:01 1514577781.714643: $GPGSV,3,1,12,03,11,316,40,10,35,153,50,01,22,288,37,12,16,040,42*7F
2017-12-29 15:03:01 1514577781.714796: $GPGSV,3,2,12,14,70,357,43,22,30,309,41,25,41,073,50,31,70,241,46*70
2017-12-29 15:03:01 1514577781.714861: $GPGSV,3,3,12,32,62,058,49,18,06,147,25,11,04,273,36,138,38,213,44*43
2017-12-29 15:03:01 1514577781.828248: $GPZDA,200302.00,29,12,2017,00,00*69
2017-12-29 15:03:01 1514577781.828374: $GPGGA,200302,3946.9577,N,08404.9825,W,2,12,0.80,299.84,M,-33.324,M,,*77
2017-12-29 15:03:01 1514577781.828438: $GPRMC,200302,A,3946.9577,N,08404.9825,W,0.0000,0.000,291217,,*38
2017-12-29 15:03:01 1514577781.828497: $GPGSA,A,3,3,10,1,12,14,22,25,31,32,18,11,138,1.7,0.8,1.3*0C
2017-12-29 15:03:02 1514577782.453389: $GPZDA,200303.00,29,12,2017,00,00*68
2017-12-29 15:03:02 1514577782.453552: $GPGGA,200303,3946.9577,N,08404.9832,W,2,12,0.80,299.76,M,-33.324,M,,*7D
2017-12-29 15:03:02 1514577782.453649: $GPRMC,200303,A,3946.9577,N,08404.9832,W,0.0000,0.000,291217,,*3F
2017-12-29 15:03:02 1514577782.453742: $GPGSA,A,3,3,10,1,12,14,22,25,31,32,18,11,138,1.7,0.8,1.3*0C
2017-12-29 15:03:03 1514577783.398302: $GPZDA,200304.00,29,12,2017,00,00*6F
2017-12-29 15:03:03 1514577783.398457: $GPGGA,200304,3946.9577,N,08404.9832,W,2,12,0.80,299.76,M,-33.324,M,,*7A
2017-12-29 15:03:03 1514577783.398523: $GPRMC,200304,A,3946.9577,N,08404.9832,W,0.0000,0.000,291217,,*38
2017-12-29 15:03:03 1514577783.398605: $GPGSA,A,3,3,10,1,12,14,22,25,31,32,18,11,138,1.7,0.8,1.3*0C
2017-12-29 15:03:04 1514577784.732508: $GPGSV,3,1,12,03,11,316,39,10,35,153,49,01,22,288,37,12,16,040,42*79
2017-12-29 15:03:04 1514577784.732729: $GPGSV,3,2,12,14,70,357,43,22,30,309,42,25,41,073,50,31,70,241,47*72
2017-12-29 15:03:04 1514577784.732799: $GPGSV,3,3,12,32,62,058,50,18,06,147,25,11,04,273,36,138,38,213,43*4C
2017-12-29 15:03:04 1514577784.846134: $GPZDA,200305.00,29,12,2017,00,00*6E
2017-12-29 15:03:04 1514577784.846259: $GPGGA,200305,3946.9577,N,08404.9832,W,2,12,0.80,299.76,M,-33.324,M,,*7B
2017-12-29 15:03:04 1514577784.846324: $GPRMC,200305,A,3946.9577,N,08404.9832,W,0.0000,0.000,291217,,*39
2017-12-29 15:03:04 1514577784.846384: $GPGSA,A,3,3,10,1,12,14,22,25,31,32,18,11,138,1.7,0.8,1.3*0C
2017-12-29 15:03:05 1514577785.397008: $GPZDA,200306.00,29,12,2017,00,00*6D
2017-12-29 15:03:05 1514577785.397166: $GPGGA,200306,3946.9577,N,08404.9832,W,2,12,0.80,299.76,M,-33.324,M,,*78
2017-12-29 15:03:05 1514577785.397232: $GPRMC,200306,A,3946.9577,N,08404.9832,W,0.0000,0.000,291217,,*3A
2017-12-29 15:03:05 1514577785.397293: $GPGSA,A,3,3,10,1,12,14,22,25,31,32,18,11,138,1.7,0.8,1.3*0C
2017-12-29 15:03:06 1514577786.397872: $GPZDA,200307.00,29,12,2017,00,00*6C
2017-12-29 15:03:06 1514577786.398076: $GPGGA,200307,3946.9577,N,08404.9832,W,2,12,0.80,299.76,M,-33.324,M,,*79
2017-12-29 15:03:06 1514577786.398146: $GPRMC,200307,A,3946.9577,N,08404.9832,W,0.0000,0.000,291217,,*3B
2017-12-29 15:03:06 1514577786.398206: $GPGSA,A,3,3,10,1,12,14,22,25,31,32,18,11,138,1.7,0.8,1.3*0C
2017-12-29 15:03:07 1514577787.716582: $GPGSV,3,1,12,03,11,316,39,10,35,153,49,01,22,288,36,12,16,040,43*79
2017-12-29 15:03:07 1514577787.716765: $GPGSV,3,2,12,14,70,357,43,22,30,309,42,25,41,073,50,31,70,241,47*72
2017-12-29 15:03:07 1514577787.716831: $GPGSV,3,3,12,32,62,058,50,18,06,147,25,11,04,273,36,138,38,213,43*4C
2017-12-29 15:03:07 1514577787.830190: $GPZDA,200308.00,29,12,2017,00,00*63
2017-12-29 15:03:07 1514577787.830314: $GPGGA,200308,3946.9577,N,08404.9832,W,2,12,0.80,299.76,M,-33.324,M,,*76
2017-12-29 15:03:07 1514577787.830380: $GPRMC,200308,A,3946.9577,N,08404.9832,W,0.0000,0.000,291217,,*34
2017-12-29 15:03:07 1514577787.830441: $GPGSA,A,3,3,10,1,12,14,22,25,31,32,18,11,138,1.7,0.8,1.3*0C
2017-12-29 15:03:08 1514577788.381130: $GPZDA,200309.00,29,12,2017,00,00*62
2017-12-29 15:03:08 1514577788.381300: $GPGGA,200309,3946.9577,N,08404.9832,W,2,12,0.80,299.76,M,-33.324,M,,*77
2017-12-29 15:03:08 1514577788.381367: $GPRMC,200309,A,3946.9577,N,08404.9832,W,0.0000,0.000,291217,,*35
2017-12-29 15:03:08 1514577788.381427: $GPGSA,A,3,3,10,1,12,14,22,25,31,32,18,11,138,1.7,0.8,1.3*0C
