2017-12-29 11:35:23 1514565323.299782: {"class":"VERSION","release":"3.16","rev":"3.16-4","proto_major":3,"proto_minor":11}
2017-12-29 11:35:23 1514565323.300117: {"class":"DEVICES","devices":[{"class":"DEVICE","path":"/dev/ttyUSB0","driver":"SiRF","subtype":"9\u0006GSD4e_4.1.2-P1_RPATCH.05-F-GPS-4R-1510281 11/03/2015 307","activated":"2017-12-29T16:35:23.255Z","flags":1,"native":1,"bps":4800,"parity":"N","stopbits":1,"cycle":1.00}]}
2017-12-29 11:35:23 1514565323.300228: {"class":"WATCH","enable":true,"json":false,"nmea":true,"raw":0,"scaled":false,"timing":false,"split24":false,"pps":false}
2017-12-29 11:35:23 1514565323.367321: $GPZDA,163524.00,29,12,2017,00,00*6D
2017-12-29 11:35:23 1514565323.367476: $GPGGA,163524,3946.9598,N,08404.9867,W,2,10,1.00,314.01,M,-33.324,M,,*76
2017-12-29 11:35:23 1514565323.367541: $GPRMC,163524,A,3946.9598,N,08404.9867,W,0.0000,0.000,291217,,*3B
2017-12-29 11:35:23 1514565323.367602: $GPGSA,A,3,8,10,15,18,20,21,24,27,32,138,,,1.7,1.0,1.3*3A
2017-12-29 11:35:24 1514565324.679130: $GPGSV,3,1,12,08,07,316,40,10,48,307,46,15,30,055,49,18,76,004,44*7A
2017-12-29 11:35:24 1514565324.679310: $GPGSV,3,2,12,20,28,102,48,21,54,184,46,24,53,096,51,27,17,282,38*7A
2017-12-29 11:35:24 1514565324.679376: $GPGSV,3,3,12,32,28,244,38,14,10,237,28,13,01,051,00,138,38,213,44*46
2017-12-29 11:35:24 1514565324.791494: $GPZDA,163525.00,29,12,2017,00,00*6C
2017-12-29 11:35:24 1514565324.791638: $GPGGA,163525,3946.9598,N,08404.9867,W,2,11,0.80,314.01,M,-33.324,M,,*7F
2017-12-29 11:35:24 1514565324.791704: $GPRMC,163525,A,3946.9598,N,08404.9867,W,0.0000,0.000,291217,,*3A
2017-12-29 11:35:24 1514565324.791765: $GPGSA,A,3,8,10,15,18,20,21,24,27,32,14,138,,1.7,0.8,1.3*36
2017-12-29 11:35:25 1514565325.934902: $GPZDA,163526.00,29,12,2017,00,00*6F
2017-12-29 11:35:25 1514565325.935084: $GPGGA,163526,3946.9598,N,08404.9867,W,2,11,0.80,314.01,M,-33.324,M,,*7C
2017-12-29 11:35:25 1514565325.935151: $GPRMC,163526,A,3946.9598,N,08404.9867,W,0.0000,0.000,291217,,*39
2017-12-29 11:35:25 1514565325.935213: $GPGSA,A,3,8,10,15,18,20,21,24,27,32,14,138,,1.7,0.8,1.3*36
2017-12-29 11:35:26 1514565326.386948: $GPZDA,163527.00,29,12,2017,00,00*6E
2017-12-29 11:35:26 1514565326.387139: $GPGGA,163527,3946.9598,N,08404.9867,W,2,11,0.80,314.01,M,-33.324,M,,*7D
2017-12-29 11:35:26 1514565326.387207: $GPRMC,163527,A,3946.9598,N,08404.9867,W,0.0000,0.000,291217,,*38
2017-12-29 11:35:26 1514565326.387268: $GPGSA,A,3,8,10,15,18,20,21,24,27,32,14,138,,1.7,0.8,1.3*36
2017-12-29 11:35:27 1514565327.695302: $GPGSV,3,1,12,08,07,316,40,10,48,307,46,15,30,055,49,18,76,004,44*7A
2017-12-29 11:35:27 1514565327.695480: $GPGSV,3,2,12,20,28,102,48,21,54,184,46,24,53,096,51,27,17,280,37*77
2017-12-29 11:35:27 1514565327.695547: $GPGSV,3,3,12,32,28,244,38,14,10,237,30,13,01,051,00,138,38,213,45*4E
2017-12-29 11:35:27 1514565327.808327: $GPZDA,163528.00,29,12,2017,00,00*61
2017-12-29 11:35:27 1514565327.808553: $GPGGA,163528,3946.9598,N,08404.9867,W,2,11,1.00,314.01,M,-33.324,M,,*7B
2017-12-29 11:35:27 1514565327.808627: $GPRMC,163528,A,3946.9598,N,08404.9867,W,0.0000,0.000,291217,,*37
2017-12-29 11:35:27 1514565327.808703: $GPGSA,A,3,8,10,15,18,20,21,24,27,32,14,138,,1.7,1.0,1.3*3F
2017-12-29 11:35:28 1514565328.355026: $GPZDA,163529.00,29,12,2017,00,00*60
2017-12-29 11:35:28 1514565328.355215: $GPGGA,163529,3946.9598,N,08404.9867,W,2,11,1.00,314.01,M,-33.324,M,,*7A
2017-12-29 11:35:28 1514565328.355282: $GPRMC,163529,A,3946.9598,N,08404.9867,W,0.0000,0.000,291217,,*36
2017-12-29 11:35:28 1514565328.355343: $GPGSA,A,3,8,10,15,18,20,21,24,27,32,14,138,,1.7,1.0,1.3*3F
2017-12-29 11:35:29 1514565329.343139: $GPZDA,163530.00,29,12,2017,00,00*68
2017-12-29 11:35:29 1514565329.343310: $GPGGA,163530,3946.9598,N,08404.9867,W,2,11,1.00,314.01,M,-33.324,M,,*72
2017-12-29 11:35:29 1514565329.343376: $GPRMC,163530,A,3946.9598,N,08404.9867,W,0.0000,0.000,291217,,*3E
2017-12-29 11:35:29 1514565329.343437: $GPGSA,A,3,8,10,15,18,20,21,24,27,32,14,138,,1.7,1.0,1.3*3F
2017-12-29 11:35:30 1514565330.695101: $GPGSV,3,1,12,08,07,316,39,10,48,307,46,15,30,055,49,18,76,004,44*74
2017-12-29 11:35:30 1514565330.695351: $GPGSV,3,2,12,20,28,102,49,21,54,184,46,24,53,096,51,27,17,280,37*76
2017-12-29 11:35:30 1514565330.695421: $GPGSV,3,3,12,32,28,244,38,14,10,237,29,13,01,051,00,138,38,213,45*46
2017-12-29 11:35:30 1514565330.808625: $GPZDA,163531.00,29,12,2017,00,00*69
2017-12-29 11:35:30 1514565330.808814: $GPGGA,163531,3946.9598,N,08404.9867,W,2,11,1.00,314.01,M,-33.324,M,,*73
2017-12-29 11:35:30 1514565330.808884: $GPRMC,163531,A,3946.9598,N,08404.9867,W,0.0000,0.000,291217,,*3F
2017-12-29 11:35:30 1514565330.808945: $GPGSA,A,3,8,10,15,18,20,21,24,27,32,14,138,,1.7,1.0,1.3*3F
2017-12-29 11:35:31 1514565331.361173: $GPZDA,163532.00,29,12,2017,00,00*6A
2017-12-29 11:35:31 1514565331.361286: $GPGGA,163532,3946.9598,N,08404.9867,W,2,11,1.00,314.01,M,-33.324,M,,*70
2017-12-29 11:35:31 1514565331.361320: $GPRMC,163532,A,3946.9598,N,08404.9867,W,0.0000,0.000,291217,,*3C
2017-12-29 11:35:31 1514565331.361351: $GPGSA,A,3,8,10,15,18,20,21,24,27,32,14,138,,1.7,1.0,1.3*3F
2017-12-29 11:35:32 1514565332.359010: $GPZDA,163533.00,29,12,2017,00,00*6B
2017-12-29 11:35:32 1514565332.359180: $GPGGA,163533,3946.9598,N,08404.9867,W,2,11,1.00,314.01,M,-33.324,M,,*71
2017-12-29 11:35:32 1514565332.359247: $GPRMC,163533,A,3946.9598,N,08404.9867,W,0.0000,0.000,291217,,*3D
2017-12-29 11:35:32 1514565332.359308: $GPGSA,A,3,8,10,15,18,20,21,24,27,32,14,138,,1.7,1.0,1.3*3F
2017-12-29 11:35:33 1514565333.672212: $GPGSV,3,1,12,08,07,316,38,10,48,307,46,15,30,055,50,18,76,004,44*7D
2017-12-29 11:35:33 1514565333.672394: $GPGSV,3,2,12,20,28,102,49,21,54,184,46,24,53,096,51,27,17,280,36*77
2017-12-29 11:35:33 1514565333.672460: $GPGSV,3,3,12,32,28,244,38,14,10,237,26,13,01,051,00,138,38,213,44*48
2017-12-29 11:35:33 1514565333.785839: $GPZDA,163534.00,29,12,2017,00,00*6C
2017-12-29 11:35:33 1514565333.785974: $GPGGA,163534,3946.9597,N,08404.9860,W,2,11,1.00,314.08,M,-33.324,M,,*77
2017-12-29 11:35:33 1514565333.786040: $GPRMC,163534,A,3946.9597,N,08404.9860,W,0.0000,0.000,291217,,*32
2017-12-29 11:35:33 1514565333.786101: $GPGSA,A,3,8,10,15,18,20,21,24,27,32,14,138,,1.7,1.0,1.3*3F
2017-12-29 11:35:34 1514565334.356601: $GPZDA,163535.00,29,12,2017,00,00*6D
2017-12-29 11:35:34 1514565334.356833: $GPGGA,163535,3946.9597,N,08404.9860,W,2,11,1.00,314.08,M,-33.324,M,,*76
2017-12-29 11:35:34 1514565334.356903: $GPRMC,163535,A,3946.9597,N,08404.9860,W,0.0000,0.000,291217,,*33
2017-12-29 11:35:34 1514565334.356965: $GPGSA,A,3,8,10,15,18,20,21,24,27,32,14,138,,1.7,1.0,1.3*3F
2017-12-29 11:35:35 1514565335.342316: $GPZDA,163536.00,29,12,2017,00,00*6E
2017-12-29 11:35:35 1514565335.342469: $GPGGA,163536,3946.9597,N,08404.9860,W,2,11,1.00,314.08,M,-33.324,M,,*75
2017-12-29 11:35:35 1514565335.342536: $GPRMC,163536,A,3946.9597,N,08404.9860,W,0.0000,0.000,291217,,*30
2017-12-29 11:35:35 1514565335.342597: $GPGSA,A,3,8,10,15,18,20,21,24,27,32,14,138,,1.7,1.0,1.3*3F
2017-12-29 11:35:36 1514565336.677618: $GPGSV,3,1,12,08,07,316,38,10,48,307,46,15,30,055,50,18,76,004,44*7D
2017-12-29 11:35:36 1514565336.677833: $GPGSV,3,2,12,20,28,102,49,21,54,184,46,24,53,096,51,27,17,280,33*72
2017-12-29 11:35:36 1514565336.677901: $GPGSV,3,3,12,32,28,244,37,14,10,237,00,13,01,051,00,138,38,213,44*43
2017-12-29 11:35:36 1514565336.791269: $GPZDA,163537.00,29,12,2017,00,00*6F
2017-12-29 11:35:36 1514565336.791409: $GPGGA,163537,3946.9597,N,08404.9860,W,2,10,1.00,314.08,M,-33.324,M,,*75
2017-12-29 11:35:36 1514565336.791474: $GPRMC,163537,A,3946.9597,N,08404.9860,W,0.0000,0.000,291217,,*31
2017-12-29 11:35:36 1514565336.791535: $GPGSA,A,3,8,10,15,18,20,21,24,27,32,138,,,1.7,1.0,1.3*3A
2017-12-29 11:35:37 1514565337.362171: $GPZDA,163538.00,29,12,2017,00,00*60
2017-12-29 11:35:37 1514565337.362522: $GPGGA,163538,3946.9597,N,08404.9860,W,2,10,1.00,314.08,M,-33.324,M,,*7A
2017-12-29 11:35:37 1514565337.362646: $GPRMC,163538,A,3946.9597,N,08404.9860,W,0.0000,0.000,291217,,*3E
2017-12-29 11:35:37 1514565337.362780: $GPGSA,A,3,8,10,15,18,20,21,24,27,32,138,,,1.7,1.0,1.3*3A
