2017-12-01 16:38:08 1512164288.546993: {"class":"VERSION","release":"3.16","rev":"3.16-4","proto_major":3,"proto_minor":11}
2017-12-01 16:38:08 1512164288.547410: {"class":"DEVICES","devices":[{"class":"DEVICE","path":"/dev/ttyUSB0","driver":"SiRF","subtype":"9\u0006GSD4e_4.1.2-P1_RPATCH.05-F-GPS-4R-1510281 11/03/2015 307","activated":"2017-12-01T21:38:08.486Z","flags":1,"native":1,"bps":4800,"parity":"N","stopbits":1,"cycle":1.00}]}
2017-12-01 16:38:08 1512164288.547525: {"class":"WATCH","enable":true,"json":false,"nmea":true,"raw":0,"scaled":false,"timing":false,"split24":false,"pps":false}
2017-12-01 16:38:08 1512164288.664461: $GPZDA,213809.32,01,12,2017,00,00*60
2017-12-01 16:38:08 1512164288.664602: $GPGGA,213809,3946.9668,N,08404.9714,W,1,12,1.80,302.99,M,-33.324,M,,*78
2017-12-01 16:38:08 1512164288.664667: $GPRMC,213809,A,3946.9668,N,08404.9714,W,0.6723,109.509,011217,,*34
2017-12-01 16:38:08 1512164288.664728: $GPGSA,A,3,1,10,14,22,31,32,11,12,25,26,18,138,2.0,1.8,1.5*38
2017-12-01 16:38:10 1512164290.104659: $GPGSV,3,1,12,01,22,297,25,10,44,150,27,11,07,279,22,14,67,336,27*7E
2017-12-01 16:38:10 1512164290.104835: $GPGSV,3,2,12,22,22,312,26,31,60,229,31,32,67,039,29,25,40,085,00*7F
2017-12-01 16:38:10 1512164290.104903: $GPGSV,3,3,12,12,20,046,00,18,14,145,00,26,05,181,00,138,38,213,00*4D
2017-12-01 16:38:10 1512164290.217715: $GPZDA,213810.01,01,12,2017,00,00*68
2017-12-01 16:38:10 1512164290.217882: $GPGGA,213810,3946.9667,N,08404.9706,W,1,07,1.80,301.66,M,-33.324,M,,*7B
2017-12-01 16:38:10 1512164290.217948: $GPRMC,213810,A,3946.9667,N,08404.9706,W,0.5731,102.935,011217,,*38
2017-12-01 16:38:10 1512164290.218010: $GPGSA,A,3,1,10,11,14,22,31,32,,,,,,2.0,1.8,1.5*0B
2017-12-01 16:38:11 1512164291.046726: $GPZDA,213811.00,01,12,2017,00,00*68
2017-12-01 16:38:11 1512164291.046949: $GPGGA,213811,3946.9667,N,08404.9706,W,1,07,1.80,301.66,M,-33.324,M,,*7A
2017-12-01 16:38:11 1512164291.047046: $GPRMC,213811,A,3946.9667,N,08404.9706,W,0.5616,84.026,011217,,*09
2017-12-01 16:38:11 1512164291.047110: $GPGSA,A,3,1,10,11,14,22,31,32,,,,,,2.0,1.8,1.5*0B
2017-12-01 16:38:11 1512164291.047169: $GPGBS,213811,10.70,M,15.43,M,35.28,M*0F
2017-12-01 16:38:11 1512164291.499008: $GPZDA,213812.00,01,12,2017,00,00*6B
2017-12-01 16:38:11 1512164291.499187: $GPGGA,213812,3946.9671,N,08404.9705,W,1,07,0.80,300.90,M,-33.324,M,,*74
2017-12-01 16:38:11 1512164291.499254: $GPRMC,213812,A,3946.9671,N,08404.9705,W,0.1567,9.200,011217,,*3C
2017-12-01 16:38:11 1512164291.499315: $GPGSA,A,3,1,10,11,14,22,31,32,,,,,,2.0,0.8,1.5*0A
2017-12-01 16:38:11 1512164291.499371: $GPGBS,213812,10.70,M,15.43,M,35.28,M*0C
2017-12-01 16:38:12 1512164292.697098: $GPGSV,3,1,12,01,22,297,42,10,44,150,43,11,07,279,37,14,67,336,44*7C
2017-12-01 16:38:12 1512164292.697259: $GPGSV,3,2,12,22,22,312,43,31,60,229,50,32,67,039,48,12,20,046,28*7B
2017-12-01 16:38:12 1512164292.697324: $GPGSV,3,3,12,25,40,085,26,26,05,181,29,18,14,145,00,138,38,213,39*45
2017-12-01 16:38:12 1512164292.810466: $GPZDA,213813.00,01,12,2017,00,00*6A
2017-12-01 16:38:12 1512164292.810633: $GPGGA,213813,3946.9667,N,08404.9705,W,1,11,0.80,300.26,M,-33.324,M,,*78
2017-12-01 16:38:12 1512164292.810699: $GPRMC,213813,A,3946.9667,N,08404.9705,W,0.0000,0.000,011217,,*34
2017-12-01 16:38:12 1512164292.810759: $GPGSA,A,3,1,10,11,14,22,31,32,12,25,26,138,,2.0,0.8,1.5*30
2017-12-01 16:38:13 1512164293.435908: $GPZDA,213814.00,01,12,2017,00,00*6D
2017-12-01 16:38:13 1512164293.436081: $GPGGA,213814,3946.9670,N,08404.9704,W,1,11,0.80,299.49,M,-33.324,M,,*70
2017-12-01 16:38:13 1512164293.436148: $GPRMC,213814,A,3946.9670,N,08404.9704,W,0.0000,0.000,011217,,*34
2017-12-01 16:38:13 1512164293.436209: $GPGSA,A,3,1,10,11,14,22,31,32,12,25,26,138,,2.0,0.8,1.5*30
2017-12-01 16:38:14 1512164294.369404: $GPZDA,213815.00,01,12,2017,00,00*6C
2017-12-01 16:38:14 1512164294.369574: $GPGGA,213815,3946.9670,N,08404.9704,W,1,11,1.00,299.49,M,-33.324,M,,*78
2017-12-01 16:38:14 1512164294.369641: $GPRMC,213815,A,3946.9670,N,08404.9704,W,0.2422,93.794,011217,,*03
2017-12-01 16:38:14 1512164294.369702: $GPGSA,A,3,1,10,11,14,22,31,32,12,25,26,138,,2.0,1.0,1.5*39
2017-12-01 16:38:15 1512164295.698633: $GPGSV,3,1,12,01,22,297,42,10,44,150,43,11,07,279,37,14,67,336,44*7C
2017-12-01 16:38:15 1512164295.698817: $GPGSV,3,2,12,22,22,312,43,31,60,229,50,32,67,039,48,12,20,046,28*7B
2017-12-01 16:38:15 1512164295.698885: $GPGSV,3,3,12,25,40,085,26,26,05,181,28,18,14,145,00,138,38,213,40*4A
2017-12-01 16:38:15 1512164295.812128: $GPZDA,213816.00,01,12,2017,00,00*6F
2017-12-01 16:38:15 1512164295.812259: $GPGGA,213816,3946.9670,N,08404.9704,W,1,11,1.00,299.49,M,-33.324,M,,*7B
2017-12-01 16:38:15 1512164295.812324: $GPRMC,213816,A,3946.9670,N,08404.9704,W,0.0000,0.000,011217,,*36
2017-12-01 16:38:15 1512164295.812385: $GPGSA,A,3,1,10,11,14,22,31,32,12,25,26,138,,2.0,1.0,1.5*39
2017-12-01 16:38:16 1512164296.362892: $GPZDA,213817.00,01,12,2017,00,00*6E
2017-12-01 16:38:16 1512164296.363079: $GPGGA,213817,3946.9667,N,08404.9718,W,2,11,1.20,298.69,M,-33.324,M,,*73
2017-12-01 16:38:16 1512164296.363147: $GPRMC,213817,A,3946.9667,N,08404.9718,W,0.0000,0.000,011217,,*3C
2017-12-01 16:38:16 1512164296.363208: $GPGSA,A,3,1,10,11,14,22,31,32,12,25,26,138,,2.0,1.2,1.5*3B
2017-12-01 16:38:17 1512164297.363826: $GPZDA,213818.00,01,12,2017,00,00*61
2017-12-01 16:38:17 1512164297.364004: $GPGGA,213818,3946.9667,N,08404.9718,W,2,11,1.00,298.69,M,-33.324,M,,*7E
2017-12-01 16:38:17 1512164297.364070: $GPRMC,213818,A,3946.9667,N,08404.9718,W,0.0000,0.000,011217,,*33
2017-12-01 16:38:17 1512164297.364131: $GPGSA,A,3,1,10,11,14,22,31,32,12,25,26,138,,2.0,1.0,1.5*39
2017-12-01 16:38:18 1512164298.700214: $GPGSV,3,1,12,01,22,297,42,10,44,150,43,11,07,279,38,14,67,336,43*74
2017-12-01 16:38:18 1512164298.700396: $GPGSV,3,2,12,22,22,312,43,31,60,229,50,32,67,039,48,12,20,046,28*7B
2017-12-01 16:38:18 1512164298.700464: $GPGSV,3,3,12,25,40,085,27,26,05,181,28,18,14,145,00,138,38,213,40*4B
2017-12-01 16:38:18 1512164298.813592: $GPZDA,213819.00,01,12,2017,00,00*60
2017-12-01 16:38:18 1512164298.813758: $GPGGA,213819,3946.9667,N,08404.9718,W,2,11,1.00,298.69,M,-33.324,M,,*7F
2017-12-01 16:38:18 1512164298.813824: $GPRMC,213819,A,3946.9667,N,08404.9718,W,0.0000,0.000,011217,,*32
2017-12-01 16:38:18 1512164298.813884: $GPGSA,A,3,1,10,11,14,22,31,32,12,25,26,138,,2.0,1.0,1.5*39
2017-12-01 16:38:19 1512164299.368177: $GPZDA,213820.00,01,12,2017,00,00*6A
2017-12-01 16:38:19 1512164299.368354: $GPGGA,213820,3946.9664,N,08404.9726,W,2,11,1.00,299.38,M,-33.324,M,,*7E
2017-12-01 16:38:19 1512164299.368422: $GPRMC,213820,A,3946.9664,N,08404.9726,W,0.0000,0.000,011217,,*36
2017-12-01 16:38:19 1512164299.368483: $GPGSA,A,3,1,10,11,14,22,31,32,12,25,26,138,,2.0,1.0,1.5*39
2017-12-01 16:38:20 1512164300.360355: $GPZDA,213821.00,01,12,2017,00,00*6B
2017-12-01 16:38:20 1512164300.360533: $GPGGA,213821,3946.9659,N,08404.9726,W,2,11,1.00,298.74,M,-33.324,M,,*78
2017-12-01 16:38:20 1512164300.360600: $GPRMC,213821,A,3946.9659,N,08404.9726,W,0.0000,0.000,011217,,*39
2017-12-01 16:38:20 1512164300.360661: $GPGSA,A,3,1,10,11,14,22,31,32,12,25,26,138,,2.0,1.0,1.5*39
2017-12-01 16:38:21 1512164301.703552: $GPGSV,3,1,12,01,22,297,42,10,44,150,43,11,07,279,39,14,67,336,43*75
2017-12-01 16:38:21 1512164301.703745: $GPGSV,3,2,12,22,22,312,44,31,60,229,50,32,67,039,48,12,20,046,28*7C
2017-12-01 16:38:21 1512164301.703812: $GPGSV,3,3,12,25,40,085,28,26,05,181,28,18,14,145,00,138,38,213,38*4B
2017-12-01 16:38:21 1512164301.816935: $GPZDA,213822.00,01,12,2017,00,00*68
2017-12-01 16:38:21 1512164301.817085: $GPGGA,213822,3946.9659,N,08404.9726,W,2,11,1.00,298.74,M,-33.324,M,,*7B
2017-12-01 16:38:21 1512164301.817149: $GPRMC,213822,A,3946.9659,N,08404.9726,W,0.0000,0.000,011217,,*3A
2017-12-01 16:38:21 1512164301.817208: $GPGSA,A,3,1,10,11,14,22,31,32,12,25,26,138,,2.0,1.0,1.5*39
2017-12-01 16:38:22 1512164302.366534: $GPZDA,213823.00,01,12,2017,00,00*69
2017-12-01 16:38:22 1512164302.366702: $GPGGA,213823,3946.9659,N,08404.9726,W,2,11,1.00,298.74,M,-33.324,M,,*7A
2017-12-01 16:38:22 1512164302.366768: $GPRMC,213823,A,3946.9659,N,08404.9726,W,0.0000,0.000,011217,,*3B
2017-12-01 16:38:22 1512164302.366876: $GPGSA,A,3,1,10,11,14,22,31,32,12,25,26,138,,2.0,1.0,1.5*39
2017-12-01 16:38:23 1512164303.367766: $GPZDA,213824.00,01,12,2017,00,00*6E
2017-12-01 16:38:23 1512164303.367928: $GPGGA,213824,3946.9659,N,08404.9726,W,2,11,1.00,298.74,M,-33.324,M,,*7D
2017-12-01 16:38:23 1512164303.367993: $GPRMC,213824,A,3946.9659,N,08404.9726,W,0.0000,0.000,011217,,*3C
2017-12-01 16:38:23 1512164303.368053: $GPGSA,A,3,1,10,11,14,22,31,32,12,25,26,138,,2.0,1.0,1.5*39
2017-12-01 16:38:24 1512164304.702678: $GPGSV,3,1,12,01,22,297,42,10,44,150,43,11,07,279,40,14,67,336,43*7B
2017-12-01 16:38:24 1512164304.702859: $GPGSV,3,2,12,22,22,312,44,31,60,229,50,32,67,039,48,12,20,046,28*7C
2017-12-01 16:38:24 1512164304.702926: $GPGSV,3,3,12,25,40,085,29,26,05,181,19,18,14,145,00,138,38,213,40*47
2017-12-01 16:38:24 1512164304.816287: $GPZDA,213825.00,01,12,2017,00,00*6F
2017-12-01 16:38:24 1512164304.816434: $GPGGA,213825,3946.9659,N,08404.9726,W,2,11,1.00,298.74,M,-33.324,M,,*7C
2017-12-01 16:38:24 1512164304.816498: $GPRMC,213825,A,3946.9659,N,08404.9726,W,0.0000,0.000,011217,,*3D
2017-12-01 16:38:24 1512164304.816558: $GPGSA,A,3,1,10,11,14,22,31,32,12,25,26,138,,2.0,1.0,1.5*39
2017-12-01 16:38:25 1512164305.371122: $GPZDA,213826.00,01,12,2017,00,00*6C
2017-12-01 16:38:25 1512164305.371274: $GPGGA,213826,3946.9664,N,08404.9726,W,2,11,1.00,299.38,M,-33.324,M,,*78
2017-12-01 16:38:25 1512164305.371337: $GPRMC,213826,A,3946.9664,N,08404.9726,W,0.0000,0.000,011217,,*30
2017-12-01 16:38:25 1512164305.371493: $GPGSA,A,3,1,10,11,14,22,31,32,12,25,26,138,,2.0,1.0,1.5*39
2017-12-01 16:38:26 1512164306.363074: $GPZDA,213827.00,01,12,2017,00,00*6D
2017-12-01 16:38:26 1512164306.363246: $GPGGA,213827,3946.9664,N,08404.9726,W,2,11,1.00,299.38,M,-33.324,M,,*79
2017-12-01 16:38:26 1512164306.363312: $GPRMC,213827,A,3946.9664,N,08404.9726,W,0.0000,0.000,011217,,*31
2017-12-01 16:38:26 1512164306.363373: $GPGSA,A,3,1,10,11,14,22,31,32,12,25,26,138,,2.0,1.0,1.5*39
2017-12-01 16:38:27 1512164307.704664: $GPGSV,3,1,12,01,22,297,42,10,44,150,43,11,07,279,40,14,67,336,43*7B
2017-12-01 16:38:27 1512164307.704842: $GPGSV,3,2,12,22,22,312,44,31,60,229,50,32,67,039,48,12,20,046,29*7D
2017-12-01 16:38:27 1512164307.704909: $GPGSV,3,3,12,25,40,085,30,26,05,181,22,18,14,145,00,138,38,213,41*46
2017-12-01 16:38:27 1512164307.818146: $GPZDA,213828.00,01,12,2017,00,00*62
2017-12-01 16:38:27 1512164307.818282: $GPGGA,213828,3946.9664,N,08404.9726,W,2,11,1.00,299.38,M,-33.324,M,,*76
2017-12-01 16:38:27 1512164307.818346: $GPRMC,213828,A,3946.9664,N,08404.9726,W,0.0000,0.000,011217,,*3E
2017-12-01 16:38:27 1512164307.818406: $GPGSA,A,3,1,10,11,14,22,31,32,12,25,26,138,,2.0,1.0,1.5*39
2017-12-01 16:38:28 1512164308.443395: $GPZDA,213829.00,01,12,2017,00,00*63
2017-12-01 16:38:28 1512164308.443568: $GPGGA,213829,3946.9664,N,08404.9726,W,2,11,1.00,299.38,M,-33.324,M,,*77
2017-12-01 16:38:28 1512164308.443635: $GPRMC,213829,A,3946.9664,N,08404.9726,W,0.0000,0.000,011217,,*3F
2017-12-01 16:38:28 1512164308.443695: $GPGSA,A,3,1,10,11,14,22,31,32,12,25,26,138,,2.0,1.0,1.5*39
