2018-01-12 04:06:28 1515747988.667766: {"class":"VERSION","release":"3.16","rev":"3.16-4","proto_major":3,"proto_minor":11}
2018-01-12 04:06:28 1515747988.668110: {"class":"DEVICES","devices":[{"class":"DEVICE","path":"/dev/ttyUSB0","driver":"SiRF","subtype":"9\u0006GSD4e_4.1.2-P1_RPATCH.05-F-GPS-4R-1510281 11/03/2015 307","activated":"2018-01-12T09:06:28.301Z","flags":1,"native":1,"bps":4800,"parity":"N","stopbits":1,"cycle":1.00}]}
2018-01-12 04:06:28 1515747988.668224: {"class":"WATCH","enable":true,"json":false,"nmea":true,"raw":0,"scaled":false,"timing":false,"split24":false,"pps":false}
2018-01-12 04:06:28 1515747988.903888: $GPZDA,090629.59,12,01,2018,00,00*67
2018-01-12 04:06:28 1515747988.904058: $GPGGA,090629,3946.9622,N,08404.9717,W,1,11,1.60,302.33,M,-33.324,M,,*7D
2018-01-12 04:06:28 1515747988.904123: $GPRMC,090629,A,3946.9622,N,08404.9717,W,0.4949,112.164,120118,,*36
2018-01-12 04:06:28 1515747988.904239: $GPGSA,A,3,2,5,6,12,25,29,9,17,19,23,138,,2.4,1.6,2.1*02
2018-01-12 04:06:28 1515747988.904307: $GPGBS,090629,11.98,M,14.47,M,47.88,M*0E
2018-01-12 04:06:29 1515747989.835905: $GPZDA,090630.27,12,01,2018,00,00*66
2018-01-12 04:06:29 1515747989.836070: $GPGGA,090630,3946.9618,N,08404.9717,W,1,11,1.60,301.69,M,-33.324,M,,*70
2018-01-12 04:06:29 1515747989.836135: $GPRMC,090630,A,3946.9618,N,08404.9717,W,0.0000,0.000,120118,,*36
2018-01-12 04:06:29 1515747989.836195: $GPGSA,A,3,2,5,6,12,25,29,9,17,19,23,138,,2.4,1.6,2.1*02
2018-01-12 04:06:29 1515747989.836253: $GPGBS,090630,11.98,M,14.47,M,47.88,M*06
2018-01-12 04:06:30 1515747990.978501: $GPGSV,3,1,12,02,71,325,44,05,42,196,50,06,52,048,45,12,53,264,47*7A
2018-01-12 04:06:30 1515747990.978670: $GPGSV,3,2,12,25,29,307,45,29,06,304,43,09,19,073,10,17,19,117,11*72
2018-01-12 04:06:30 1515747990.978736: $GPGSV,3,3,12,19,37,109,12,23,07,042,00,04,50,276,00,138,38,213,00*4E
2018-01-12 04:06:31 1515747991.092095: $GPZDA,090631.00,12,01,2018,00,00*62
2018-01-12 04:06:31 1515747991.092263: $GPGGA,090631,3946.9621,N,08404.9716,W,1,06,1.60,300.92,M,-33.324,M,,*79
2018-01-12 04:06:31 1515747991.092350: $GPRMC,090631,A,3946.9621,N,08404.9716,W,0.0000,0.000,120118,,*3C
2018-01-12 04:06:31 1515747991.092414: $GPGSA,A,3,2,5,6,12,25,29,,,,,,,2.4,1.6,2.1*0E
2018-01-12 04:06:31 1515747991.544398: $GPZDA,090632.00,12,01,2018,00,00*61
2018-01-12 04:06:31 1515747991.544563: $GPGGA,090632,3946.9626,N,08404.9723,W,1,06,1.00,301.49,M,-33.324,M,,*7A
2018-01-12 04:06:31 1515747991.544630: $GPRMC,090632,A,3946.9626,N,08404.9723,W,0.0000,0.000,120118,,*3E
2018-01-12 04:06:31 1515747991.544714: $GPGSA,A,3,2,5,6,12,25,29,,,,,,,2.4,1.0,2.1*08
2018-01-12 04:06:32 1515747992.401174: $GPZDA,090633.00,12,01,2018,00,00*60
2018-01-12 04:06:32 1515747992.401331: $GPGGA,090633,3946.9629,N,08404.9723,W,1,06,1.00,300.72,M,-33.324,M,,*7D
2018-01-12 04:06:32 1515747992.401413: $GPRMC,090633,A,3946.9629,N,08404.9723,W,0.0000,0.000,120118,,*30
2018-01-12 04:06:32 1515747992.401475: $GPGSA,A,3,2,5,6,12,25,29,,,,,,,2.4,1.0,2.1*08
2018-01-12 04:06:33 1515747993.731321: $GPGSV,3,1,12,02,71,325,45,05,42,196,49,06,52,048,46,12,53,264,47*70
2018-01-12 04:06:33 1515747993.731498: $GPGSV,3,2,12,25,29,307,45,29,06,304,44,09,19,073,25,17,19,117,28*79
2018-01-12 04:06:33 1515747993.731564: $GPGSV,3,3,12,19,37,109,28,23,07,042,12,04,50,276,00,138,38,213,49*49
2018-01-12 04:06:33 1515747993.844836: $GPZDA,090634.00,12,01,2018,00,00*67
2018-01-12 04:06:33 1515747993.845005: $GPGGA,090634,3946.9629,N,08404.9723,W,1,11,0.80,300.72,M,-33.324,M,,*75
2018-01-12 04:06:33 1515747993.845072: $GPRMC,090634,A,3946.9629,N,08404.9723,W,0.0000,0.000,120118,,*37
2018-01-12 04:06:33 1515747993.845132: $GPGSA,A,3,2,5,6,12,25,29,9,17,19,23,138,,2.4,0.8,2.1*0D
2018-01-12 04:06:34 1515747994.395849: $GPZDA,090635.00,12,01,2018,00,00*66
2018-01-12 04:06:34 1515747994.396008: $GPGGA,090635,3946.9633,N,08404.9722,W,1,11,1.00,299.96,M,-33.324,M,,*7C
2018-01-12 04:06:34 1515747994.396074: $GPRMC,090635,A,3946.9633,N,08404.9722,W,0.3423,4.197,120118,,*31
2018-01-12 04:06:34 1515747994.396135: $GPGSA,A,3,2,5,6,12,25,29,9,17,19,23,138,,2.4,1.0,2.1*04
