2017-12-29 11:50:16 1514566216.349979: {"class":"VERSION","release":"3.16","rev":"3.16-4","proto_major":3,"proto_minor":11}
2017-12-29 11:50:16 1514566216.350466: {"class":"DEVICES","devices":[{"class":"DEVICE","path":"/dev/ttyUSB0","driver":"SiRF","subtype":"9\u0006GSD4e_4.1.2-P1_RPATCH.05-F-GPS-4R-1510281 11/03/2015 307","activated":"2017-12-29T16:50:16.271Z","flags":1,"native":1,"bps":4800,"parity":"N","stopbits":1,"cycle":1.00}]}
2017-12-29 11:50:16 1514566216.350593: {"class":"WATCH","enable":true,"json":false,"nmea":true,"raw":0,"scaled":false,"timing":false,"split24":false,"pps":false}
2017-12-29 11:50:16 1514566216.719631: $GPGSV,3,1,11,10,53,313,46,14,15,240,35,15,24,058,46,18,77,030,46*7B
2017-12-29 11:50:16 1514566216.719790: $GPGSV,3,2,11,20,23,106,48,21,48,183,47,24,53,084,51,32,33,249,36*75
2017-12-29 11:50:16 1514566216.719855: $GPGSV,3,3,11,27,15,276,35,08,08,310,38,138,38,213,44*75
2017-12-29 11:50:16 1514566216.833392: $GPZDA,165017.00,29,12,2017,00,00*6E
2017-12-29 11:50:16 1514566216.833697: $GPGGA,165017,3946.9614,N,08404.9833,W,2,11,0.80,319.77,M,-33.324,M,,*77
2017-12-29 11:50:16 1514566216.833820: $GPRMC,165017,A,3946.9614,N,08404.9833,W,0.0000,0.000,291217,,*3E
2017-12-29 11:50:16 1514566216.833945: $GPGSA,A,3,10,14,15,18,20,21,24,32,27,8,138,,1.7,0.8,1.3*36
2017-12-29 11:50:17 1514566217.406523: $GPZDA,165018.00,29,12,2017,00,00*61
2017-12-29 11:50:17 1514566217.411226: $GPGGA,165018,3946.9611,N,08404.9834,W,2,11,0.80,320.53,M,-33.324,M,,*76
2017-12-29 11:50:17 1514566217.411380: $GPRMC,165018,A,3946.9611,N,08404.9834,W,0.0000,0.000,291217,,*33
2017-12-29 11:50:17 1514566217.411444: $GPGSA,A,3,10,14,15,18,20,21,24,32,27,8,138,,1.7,0.8,1.3*36
2017-12-29 11:50:18 1514566218.391174: $GPZDA,165019.00,29,12,2017,00,00*60
2017-12-29 11:50:18 1514566218.391383: $GPGGA,165019,3946.9618,N,08404.9826,W,2,11,0.80,320.49,M,-33.324,M,,*76
2017-12-29 11:50:18 1514566218.391449: $GPRMC,165019,A,3946.9618,N,08404.9826,W,0.0000,0.000,291217,,*38
2017-12-29 11:50:18 1514566218.391510: $GPGSA,A,3,10,14,15,18,20,21,24,32,27,8,138,,1.7,0.8,1.3*36
2017-12-29 11:50:19 1514566219.741225: $GPGSV,3,1,11,10,53,313,46,14,15,240,35,15,24,058,46,18,77,030,45*78
2017-12-29 11:50:19 1514566219.741408: $GPGSV,3,2,11,20,23,106,49,21,48,183,47,24,53,084,51,32,33,249,36*74
2017-12-29 11:50:19 1514566219.741477: $GPGSV,3,3,11,27,15,276,36,08,08,310,39,138,38,213,45*76
2017-12-29 11:50:19 1514566219.856220: $GPZDA,165020.00,29,12,2017,00,00*6A
2017-12-29 11:50:19 1514566219.856399: $GPGGA,165020,3946.9618,N,08404.9826,W,2,11,0.80,320.49,M,-33.324,M,,*7C
2017-12-29 11:50:19 1514566219.856468: $GPRMC,165020,A,3946.9618,N,08404.9826,W,0.0000,0.000,291217,,*32
2017-12-29 11:50:19 1514566219.856545: $GPGSA,A,3,10,14,15,18,20,21,24,32,27,8,138,,1.7,0.8,1.3*36
2017-12-29 11:50:20 1514566220.405380: $GPZDA,165021.00,29,12,2017,00,00*6B
2017-12-29 11:50:20 1514566220.405550: $GPGGA,165021,3946.9618,N,08404.9826,W,2,11,0.80,320.49,M,-33.324,M,,*7D
2017-12-29 11:50:20 1514566220.405615: $GPRMC,165021,A,3946.9618,N,08404.9826,W,0.0000,0.000,291217,,*33
2017-12-29 11:50:20 1514566220.405677: $GPGSA,A,3,10,14,15,18,20,21,24,32,27,8,138,,1.7,0.8,1.3*36
2017-12-29 11:50:21 1514566221.383716: $GPZDA,165022.00,29,12,2017,00,00*68
2017-12-29 11:50:21 1514566221.383890: $GPGGA,165022,3946.9618,N,08404.9826,W,2,11,0.80,320.49,M,-33.324,M,,*7E
2017-12-29 11:50:21 1514566221.383958: $GPRMC,165022,A,3946.9618,N,08404.9826,W,0.0000,0.000,291217,,*30
2017-12-29 11:50:21 1514566221.384018: $GPGSA,A,3,10,14,15,18,20,21,24,32,27,8,138,,1.7,0.8,1.3*36
2017-12-29 11:50:22 1514566222.724479: $GPGSV,3,1,11,10,53,313,46,14,15,240,35,15,24,058,46,18,77,030,45*78
2017-12-29 11:50:22 1514566222.724667: $GPGSV,3,2,11,20,23,106,49,21,48,183,47,24,53,084,51,32,33,249,36*74
2017-12-29 11:50:22 1514566222.724734: $GPGSV,3,3,11,27,15,276,37,08,08,310,40,138,38,213,45*79
2017-12-29 11:50:22 1514566222.837852: $GPZDA,165023.00,29,12,2017,00,00*69
2017-12-29 11:50:22 1514566222.838025: $GPGGA,165023,3946.9618,N,08404.9826,W,2,11,0.80,320.49,M,-33.324,M,,*7F
2017-12-29 11:50:22 1514566222.838152: $GPRMC,165023,A,3946.9618,N,08404.9826,W,0.0000,0.000,291217,,*31
2017-12-29 11:50:22 1514566222.838215: $GPGSA,A,3,10,14,15,18,20,21,24,32,27,8,138,,1.7,0.8,1.3*36
2017-12-29 11:50:23 1514566223.387537: $GPZDA,165024.00,29,12,2017,00,00*6E
2017-12-29 11:50:23 1514566223.387708: $GPGGA,165024,3946.9614,N,08404.9827,W,2,11,0.80,321.25,M,-33.324,M,,*7E
2017-12-29 11:50:23 1514566223.387777: $GPRMC,165024,A,3946.9614,N,08404.9827,W,0.0000,0.000,291217,,*3B
2017-12-29 11:50:23 1514566223.387838: $GPGSA,A,3,10,14,15,18,20,21,24,32,27,8,138,,1.7,0.8,1.3*36
2017-12-29 11:50:24 1514566224.390163: $GPZDA,165025.00,29,12,2017,00,00*6F
2017-12-29 11:50:24 1514566224.390378: $GPGGA,165025,3946.9614,N,08404.9827,W,2,11,0.80,321.25,M,-33.324,M,,*7F
2017-12-29 11:50:24 1514566224.390458: $GPRMC,165025,A,3946.9614,N,08404.9827,W,0.0000,0.000,291217,,*3A
2017-12-29 11:50:24 1514566224.390521: $GPGSA,A,3,10,14,15,18,20,21,24,32,27,8,138,,1.7,0.8,1.3*36
2017-12-29 11:50:25 1514566225.724817: $GPGSV,3,1,11,10,53,313,46,14,15,240,35,15,24,058,46,18,77,030,46*7B
2017-12-29 11:50:25 1514566225.725003: $GPGSV,3,2,11,20,23,106,49,21,48,183,47,24,53,084,51,32,33,249,37*75
2017-12-29 11:50:25 1514566225.725072: $GPGSV,3,3,11,27,15,276,38,08,08,310,40,138,38,213,44*77
2017-12-29 11:50:25 1514566225.838215: $GPZDA,165026.00,29,12,2017,00,00*6C
2017-12-29 11:50:25 1514566225.838390: $GPGGA,165026,3946.9614,N,08404.9827,W,2,11,0.80,321.25,M,-33.324,M,,*7C
2017-12-29 11:50:25 1514566225.838456: $GPRMC,165026,A,3946.9614,N,08404.9827,W,0.0000,0.000,291217,,*39
2017-12-29 11:50:25 1514566225.838519: $GPGSA,A,3,10,14,15,18,20,21,24,32,27,8,138,,1.7,0.8,1.3*36
2017-12-29 11:50:26 1514566226.389059: $GPZDA,165027.00,29,12,2017,00,00*6D
2017-12-29 11:50:26 1514566226.389235: $GPGGA,165027,3946.9614,N,08404.9827,W,2,11,0.80,321.25,M,-33.324,M,,*7D
2017-12-29 11:50:26 1514566226.389301: $GPRMC,165027,A,3946.9614,N,08404.9827,W,0.0000,0.000,291217,,*38
2017-12-29 11:50:26 1514566226.389363: $GPGSA,A,3,10,14,15,18,20,21,24,32,27,8,138,,1.7,0.8,1.3*36
2017-12-29 11:50:27 1514566227.382558: $GPZDA,165028.00,29,12,2017,00,00*62
2017-12-29 11:50:27 1514566227.382761: $GPGGA,165028,3946.9614,N,08404.9820,W,2,11,0.80,321.33,M,-33.324,M,,*72
2017-12-29 11:50:27 1514566227.382832: $GPRMC,165028,A,3946.9614,N,08404.9820,W,0.0000,0.000,291217,,*30
2017-12-29 11:50:27 1514566227.382898: $GPGSA,A,3,10,14,15,18,20,21,24,32,27,8,138,,1.7,0.8,1.3*36
2017-12-29 11:50:28 1514566228.724533: $GPGSV,3,1,11,10,53,313,46,14,15,240,34,15,24,058,46,18,77,030,46*7A
2017-12-29 11:50:28 1514566228.724739: $GPGSV,3,2,11,20,23,106,48,21,48,183,47,24,53,084,51,32,33,249,37*74
2017-12-29 11:50:28 1514566228.724804: $GPGSV,3,3,11,27,15,276,38,08,08,310,41,138,38,213,44*76
2017-12-29 11:50:28 1514566228.837800: $GPZDA,165029.00,29,12,2017,00,00*63
2017-12-29 11:50:28 1514566228.837973: $GPGGA,165029,3946.9614,N,08404.9820,W,2,11,0.80,321.33,M,-33.324,M,,*73
2017-12-29 11:50:28 1514566228.838042: $GPRMC,165029,A,3946.9614,N,08404.9820,W,0.0000,0.000,291217,,*31
2017-12-29 11:50:28 1514566228.838105: $GPGSA,A,3,10,14,15,18,20,21,24,32,27,8,138,,1.7,0.8,1.3*36
2017-12-29 11:50:29 1514566229.463166: $GPZDA,165030.00,29,12,2017,00,00*6B
2017-12-29 11:50:29 1514566229.463338: $GPGGA,165030,3946.9614,N,08404.9820,W,2,11,0.80,321.33,M,-33.324,M,,*7B
2017-12-29 11:50:29 1514566229.463402: $GPRMC,165030,A,3946.9614,N,08404.9820,W,0.0000,0.000,291217,,*39
2017-12-29 11:50:29 1514566229.463464: $GPGSA,A,3,10,14,15,18,20,21,24,32,27,8,138,,1.7,0.8,1.3*36
2017-12-29 11:50:30 1514566230.389001: $GPZDA,165031.00,29,12,2017,00,00*6A
2017-12-29 11:50:30 1514566230.389177: $GPGGA,165031,3946.9614,N,08404.9820,W,2,11,0.80,321.33,M,-33.324,M,,*7A
2017-12-29 11:50:30 1514566230.389245: $GPRMC,165031,A,3946.9614,N,08404.9820,W,0.0000,0.000,291217,,*38
2017-12-29 11:50:30 1514566230.389305: $GPGSA,A,3,10,14,15,18,20,21,24,32,27,8,138,,1.7,0.8,1.3*36
