2018-01-11 19:57:40 1515718660.535920: {"class":"VERSION","release":"3.16","rev":"3.16-4","proto_major":3,"proto_minor":11}
2018-01-11 19:57:40 1515718660.536279: {"class":"DEVICES","devices":[{"class":"DEVICE","path":"/dev/ttyUSB0","driver":"SiRF","subtype":"9\u0006GSD4e_4.1.2-P1_RPATCH.05-F-GPS-4R-1510281 11/03/2015 307","activated":"2018-01-12T00:57:40.276Z","flags":1,"native":1,"bps":4800,"parity":"N","stopbits":1,"cycle":1.00}]}
2018-01-11 19:57:40 1515718660.536397: {"class":"WATCH","enable":true,"json":false,"nmea":true,"raw":0,"scaled":false,"timing":false,"split24":false,"pps":false}
2018-01-11 19:57:41 1515718661.071801: $GPZDA,005741.76,12,01,2018,00,00*69
2018-01-11 19:57:41 1515718661.071994: $GPGGA,005741,3946.9574,N,08404.9758,W,1,10,0.80,317.69,M,-33.324,M,,*70
2018-01-11 19:57:41 1515718661.072062: $GPRMC,005741,A,3946.9574,N,08404.9758,W,0.5122,127.148,120118,,*32
2018-01-11 19:57:41 1515718661.072125: $GPGSA,A,3,7,8,9,11,16,23,27,30,28,138,,,4.0,0.8,3.5*3E
2018-01-11 19:57:41 1515718661.072183: $GPGBS,005741,14.62,M,24.83,M,80.38,M*06
2018-01-11 19:57:42 1515718662.466883: $GPGSV,3,1,11,07,50,312,26,08,69,148,27,09,52,237,26,11,15,169,22*74
2018-01-11 19:57:42 1515718662.467064: $GPGSV,3,2,11,16,27,057,27,23,35,192,28,27,52,058,31,28,10,253,20*7A
2018-01-11 19:57:42 1515718662.467131: $GPGSV,3,3,11,30,24,304,23,26,02,069,00,138,38,213,00*72
2018-01-11 19:57:42 1515718662.580301: $GPZDA,005742.25,12,01,2018,00,00*6C
2018-01-11 19:57:42 1515718662.580473: $GPGGA,005742,3946.9571,N,08404.9759,W,1,09,0.80,318.46,M,-33.324,M,,*7D
2018-01-11 19:57:42 1515718662.580538: $GPRMC,005742,A,3946.9571,N,08404.9759,W,0.1324,202.230,120118,,*3D
2018-01-11 19:57:42 1515718662.580601: $GPGSA,A,3,7,8,9,11,16,23,27,28,30,,,,4.0,0.8,3.5*04
2018-01-11 19:57:43 1515718663.364263: $GPZDA,005743.00,12,01,2018,00,00*6A
2018-01-11 19:57:43 1515718663.364419: $GPGGA,005743,3946.9567,N,08404.9760,W,1,09,0.80,319.22,M,-33.324,M,,*72
2018-01-11 19:57:43 1515718663.364486: $GPRMC,005743,A,3946.9567,N,08404.9760,W,0.3133,189.200,120118,,*34
2018-01-11 19:57:43 1515718663.364549: $GPGSA,A,3,7,8,9,11,16,23,27,28,30,,,,4.0,0.8,3.5*04
2018-01-11 19:57:43 1515718663.364606: $GPGBS,005743,14.62,M,24.83,M,80.38,M*04
2018-01-11 19:57:43 1515718663.815603: $GPZDA,005744.00,12,01,2018,00,00*6D
2018-01-11 19:57:43 1515718663.815793: $GPGGA,005744,3946.9568,N,08404.9766,W,1,09,0.80,319.14,M,-33.324,M,,*79
2018-01-11 19:57:43 1515718663.815870: $GPRMC,005744,A,3946.9568,N,08404.9766,W,0.1567,189.200,120118,,*3D
2018-01-11 19:57:43 1515718663.815939: $GPGSA,A,3,7,8,9,11,16,23,27,28,30,,,,4.0,0.8,3.5*04
2018-01-11 19:57:43 1515718663.816000: $GPGBS,005744,14.62,M,24.83,M,80.38,M*03
2018-01-11 19:57:44 1515718664.714611: $GPGSV,3,1,11,07,50,312,44,08,69,148,46,09,52,237,43,11,15,169,38*7F
2018-01-11 19:57:44 1515718664.714793: $GPGSV,3,2,11,16,27,057,47,23,35,192,47,27,52,058,51,28,10,253,34*76
2018-01-11 19:57:44 1515718664.714866: $GPGSV,3,3,11,30,24,304,38,26,02,069,05,138,38,213,46*7F
2018-01-11 19:57:44 1515718664.828349: $GPZDA,005745.00,12,01,2018,00,00*6C
2018-01-11 19:57:44 1515718664.828476: $GPGGA,005745,3946.9568,N,08404.9766,W,1,10,0.80,319.14,M,-33.324,M,,*70
2018-01-11 19:57:44 1515718664.828544: $GPRMC,005745,A,3946.9568,N,08404.9766,W,0.2422,93.794,120118,,*0D
2018-01-11 19:57:44 1515718664.828607: $GPGSA,A,3,7,8,9,11,16,23,27,28,30,138,,,4.0,0.8,3.5*3E
2018-01-11 19:57:45 1515718665.453684: $GPZDA,005746.00,12,01,2018,00,00*6F
2018-01-11 19:57:45 1515718665.453832: $GPGGA,005746,3946.9568,N,08404.9773,W,1,10,0.80,319.06,M,-33.324,M,,*74
2018-01-11 19:57:45 1515718665.453902: $GPRMC,005746,A,3946.9568,N,08404.9773,W,0.0000,0.000,120118,,*3C
2018-01-11 19:57:45 1515718665.453967: $GPGSA,A,3,7,8,9,11,16,23,27,28,30,138,,,4.0,0.8,3.5*3E
2018-01-11 19:57:46 1515718666.372127: $GPZDA,005747.00,12,01,2018,00,00*6E
2018-01-11 19:57:46 1515718666.372284: $GPGGA,005747,3946.9564,N,08404.9780,W,1,10,0.80,318.34,M,-33.324,M,,*75
2018-01-11 19:57:46 1515718666.372353: $GPRMC,005747,A,3946.9564,N,08404.9780,W,0.0000,0.000,120118,,*3D
2018-01-11 19:57:46 1515718666.372471: $GPGSA,A,3,7,8,9,11,16,23,27,28,30,138,,,4.0,0.8,3.5*3E
2018-01-11 19:57:47 1515718667.708571: $GPGSV,3,1,11,07,50,312,44,08,69,148,46,09,52,237,43,11,15,169,38*7F
2018-01-11 19:57:47 1515718667.712640: $GPGSV,3,2,11,16,27,057,47,23,35,192,47,27,52,058,51,28,10,253,33*71
2018-01-11 19:57:47 1515718667.712764: $GPGSV,3,3,11,30,24,304,38,26,02,069,00,138,38,213,46*7A
2018-01-11 19:57:47 1515718667.822349: $GPZDA,005748.00,12,01,2018,00,00*61
2018-01-11 19:57:47 1515718667.822477: $GPGGA,005748,3946.9558,N,08404.9828,W,2,10,1.40,315.10,M,-33.324,M,,*7D
2018-01-11 19:57:47 1515718667.822542: $GPRMC,005748,A,3946.9558,N,08404.9828,W,0.0000,0.000,120118,,*30
2018-01-11 19:57:47 1515718667.822603: $GPGSA,A,3,7,8,9,11,16,23,27,28,30,138,,,4.0,1.4,3.5*33
2018-01-11 19:57:48 1515718668.371915: $GPZDA,005749.00,12,01,2018,00,00*60
2018-01-11 19:57:48 1515718668.372061: $GPGGA,005749,3946.9558,N,08404.9828,W,2,10,1.40,315.10,M,-33.324,M,,*7C
2018-01-11 19:57:48 1515718668.372127: $GPRMC,005749,A,3946.9558,N,08404.9828,W,0.0000,0.000,120118,,*31
2018-01-11 19:57:48 1515718668.372188: $GPGSA,A,3,7,8,9,11,16,23,27,28,30,138,,,4.0,1.4,3.5*33
2018-01-11 19:57:49 1515718669.376472: $GPZDA,005750.00,12,01,2018,00,00*68
2018-01-11 19:57:49 1515718669.376643: $GPGGA,005750,3946.9559,N,08404.9819,W,2,10,1.40,311.61,M,-33.324,M,,*75
2018-01-11 19:57:49 1515718669.376709: $GPRMC,005750,A,3946.9559,N,08404.9819,W,0.3155,129.994,120118,,*36
2018-01-11 19:57:49 1515718669.376775: $GPGSA,A,3,7,8,9,11,16,23,27,28,30,138,,,4.0,1.4,3.5*33
