2017-12-01 16:21:46 1512163306.446906: {"class":"VERSION","release":"3.16","rev":"3.16-4","proto_major":3,"proto_minor":11}
2017-12-01 16:21:46 1512163306.447331: {"class":"DEVICES","devices":[{"class":"DEVICE","path":"/dev/ttyUSB0","driver":"SiRF","subtype":"9\u0006GSD4e_4.1.2-P1_RPATCH.05-F-GPS-4R-1510281 11/03/2015 307","activated":"2017-12-01T21:21:46.409Z","flags":1,"native":1,"bps":4800,"parity":"N","stopbits":1,"cycle":1.00}]}
2017-12-01 16:21:46 1512163306.447457: {"class":"WATCH","enable":true,"json":false,"nmea":true,"raw":0,"scaled":false,"timing":false,"split24":false,"pps":false}
2017-12-01 16:21:46 1512163306.586281: $GPZDA,212147.25,01,12,2017,00,00*64
2017-12-01 16:21:46 1512163306.586453: $GPGGA,212147,3946.9625,N,08404.9745,W,1,11,2.00,289.17,M,-33.324,M,,*7B
2017-12-01 16:21:46 1512163306.586518: $GPRMC,212147,A,3946.9625,N,08404.9745,W,0.7645,140.779,011217,,*33
2017-12-01 16:21:46 1512163306.586580: $GPGSA,A,3,10,11,12,14,22,25,31,32,1,18,138,,2.0,2.0,1.5*37
2017-12-01 16:21:48 1512163308.004158: $GPGSV,3,1,11,01,21,304,33,10,52,145,34,11,09,286,28,14,64,319,33*7C
2017-12-01 16:21:48 1512163308.004347: $GPGSV,3,2,11,22,16,312,34,31,52,222,39,32,69,018,39,25,38,096,00*7B
2017-12-01 16:21:48 1512163308.004415: $GPGSV,3,3,11,12,23,054,00,18,21,142,00,138,38,213,00*76
2017-12-01 16:21:48 1512163308.117269: $GPZDA,212147.93,01,12,2017,00,00*69
2017-12-01 16:21:48 1512163308.117429: $GPGGA,212147,3946.9625,N,08404.9745,W,1,07,2.00,289.17,M,-33.324,M,,*7C
2017-12-01 16:21:48 1512163308.117496: $GPRMC,212147,A,3946.9625,N,08404.9745,W,0.4179,148.778,011217,,*31
2017-12-01 16:21:48 1512163308.117557: $GPGSA,A,3,1,10,11,14,22,31,32,,,,,,2.0,2.0,1.5*00
2017-12-01 16:21:48 1512163308.923798: $GPZDA,212149.00,01,12,2017,00,00*6D
2017-12-01 16:21:48 1512163308.923963: $GPGGA,212149,3946.9625,N,08404.9738,W,1,07,1.20,289.25,M,-33.324,M,,*78
2017-12-01 16:21:48 1512163308.924029: $GPRMC,212149,A,3946.9625,N,08404.9738,W,0.3006,242.539,011217,,*35
2017-12-01 16:21:48 1512163308.924090: $GPGSA,A,3,1,10,11,14,22,31,32,,,,,,2.0,1.2,1.5*01
2017-12-01 16:21:48 1512163308.924146: $GPGBS,212149,10.70,M,15.43,M,35.28,M*0A
2017-12-01 16:21:49 1512163309.212696: $GPZDA,212150.00,01,12,2017,00,00*65
2017-12-01 16:21:49 1512163309.212861: $GPGGA,212150,3946.9629,N,08404.9738,W,1,07,0.80,289.89,M,-33.324,M,,*71
2017-12-01 16:21:49 1512163309.212928: $GPRMC,212150,A,3946.9629,N,08404.9738,W,0.1867,0.000,011217,,*37
2017-12-01 16:21:49 1512163309.212989: $GPGSA,A,3,1,10,11,14,22,31,32,,,,,,2.0,0.8,1.5*0A
2017-12-01 16:21:49 1512163309.213046: $GPGBS,212150,10.70,M,15.43,M,35.28,M*02
2017-12-01 16:21:50 1512163310.718356: $GPGSV,3,1,11,01,21,304,42,10,52,145,44,11,09,286,34,14,64,319,43*77
2017-12-01 16:21:50 1512163310.718502: $GPGSV,3,2,11,22,16,312,42,31,52,222,50,32,69,018,49,18,21,142,02*7E
2017-12-01 16:21:50 1512163310.718567: $GPGSV,3,3,11,25,38,096,30,12,23,054,00,138,38,213,40*7F
2017-12-01 16:21:50 1512163310.832223: $GPZDA,212151.00,01,12,2017,00,00*64
2017-12-01 16:21:50 1512163310.832387: $GPGGA,212151,3946.9629,N,08404.9738,W,1,09,1.20,289.89,M,-33.324,M,,*75
2017-12-01 16:21:50 1512163310.832453: $GPRMC,212151,A,3946.9629,N,08404.9738,W,0.0000,0.000,011217,,*3E
2017-12-01 16:21:50 1512163310.832514: $GPGSA,A,3,1,10,11,14,22,31,32,25,138,,,,2.0,1.2,1.5*3C
2017-12-01 16:21:51 1512163311.457086: $GPZDA,212152.00,01,12,2017,00,00*67
2017-12-01 16:21:51 1512163311.457322: $GPGGA,212152,3946.9629,N,08404.9738,W,1,09,0.80,289.89,M,-33.324,M,,*7D
2017-12-01 16:21:51 1512163311.457411: $GPRMC,212152,A,3946.9629,N,08404.9738,W,0.0000,0.000,011217,,*3D
2017-12-01 16:21:51 1512163311.457474: $GPGSA,A,3,1,10,11,14,22,31,32,25,138,,,,2.0,0.8,1.5*37
2017-12-01 16:21:52 1512163312.384413: $GPZDA,212153.00,01,12,2017,00,00*66
2017-12-01 16:21:52 1512163312.384595: $GPGGA,212153,3946.9633,N,08404.9738,W,1,09,0.80,290.53,M,-33.324,M,,*78
2017-12-01 16:21:52 1512163312.384663: $GPRMC,212153,A,3946.9633,N,08404.9738,W,0.0000,0.000,011217,,*37
2017-12-01 16:21:52 1512163312.384740: $GPGSA,A,3,1,10,11,14,22,31,32,25,138,,,,2.0,0.8,1.5*37
2017-12-01 16:21:52 1512163312.384849: $GPGBS,212153,10.70,M,15.43,M,35.28,M*01
2017-12-01 16:21:53 1512163313.718657: $GPGSV,3,1,11,01,21,304,42,10,52,145,44,11,09,286,34,14,64,319,42*76
2017-12-01 16:21:53 1512163313.718863: $GPGSV,3,2,11,22,16,312,41,31,52,222,49,32,69,018,49,12,23,054,24*7F
2017-12-01 16:21:53 1512163313.718931: $GPGSV,3,3,11,18,21,142,25,25,38,096,30,138,38,213,40*76
2017-12-01 16:21:53 1512163313.832266: $GPZDA,212154.00,01,12,2017,00,00*61
2017-12-01 16:21:53 1512163313.832432: $GPGGA,212154,3946.9652,N,08404.9723,W,2,11,1.20,292.48,M,-33.324,M,,*7B
2017-12-01 16:21:53 1512163313.832498: $GPRMC,212154,A,3946.9652,N,08404.9723,W,0.0000,0.000,011217,,*3D
2017-12-01 16:21:53 1512163313.832558: $GPGSA,A,3,1,10,11,14,22,31,32,12,18,25,138,,2.0,1.2,1.5*36
2017-12-01 16:21:54 1512163314.380287: $GPZDA,212155.00,01,12,2017,00,00*60
2017-12-01 16:21:54 1512163314.380461: $GPGGA,212155,3946.9652,N,08404.9723,W,2,11,1.20,292.48,M,-33.324,M,,*7A
2017-12-01 16:21:54 1512163314.380528: $GPRMC,212155,A,3946.9652,N,08404.9723,W,0.0000,0.000,011217,,*3C
2017-12-01 16:21:54 1512163314.380614: $GPGSA,A,3,1,10,11,14,22,31,32,12,18,25,138,,2.0,1.2,1.5*36
2017-12-01 16:21:55 1512163315.382538: $GPZDA,212156.00,01,12,2017,00,00*63
2017-12-01 16:21:55 1512163315.382723: $GPGGA,212156,3946.9652,N,08404.9723,W,2,11,1.60,292.48,M,-33.324,M,,*7D
2017-12-01 16:21:55 1512163315.382788: $GPRMC,212156,A,3946.9652,N,08404.9723,W,0.0000,0.000,011217,,*3F
2017-12-01 16:21:55 1512163315.382849: $GPGSA,A,3,1,10,11,14,22,31,32,12,18,25,138,,2.0,1.6,1.5*32
2017-12-01 16:21:56 1512163316.718902: $GPGSV,3,1,11,01,21,304,43,10,52,145,44,11,09,286,33,14,64,319,42*70
2017-12-01 16:21:56 1512163316.721524: $GPGSV,3,2,11,22,16,312,41,31,52,222,48,32,69,018,49,18,21,142,02*74
2017-12-01 16:21:56 1512163316.721641: $GPGSV,3,3,11,12,23,054,00,25,38,096,30,138,38,213,40*7F
2017-12-01 16:21:56 1512163316.832366: $GPZDA,212157.00,01,12,2017,00,00*62
2017-12-01 16:21:56 1512163316.832508: $GPGGA,212157,3946.9648,N,08404.9723,W,2,09,1.60,291.84,M,-33.324,M,,*7D
2017-12-01 16:21:56 1512163316.832573: $GPRMC,212157,A,3946.9648,N,08404.9723,W,0.3155,309.994,011217,,*39
2017-12-01 16:21:56 1512163316.832633: $GPGSA,A,3,1,10,11,14,22,31,32,25,138,,,,2.0,1.6,1.5*38
2017-12-01 16:21:57 1512163317.384458: $GPZDA,212158.00,01,12,2017,00,00*6D
2017-12-01 16:21:57 1512163317.384632: $GPGGA,212158,3946.9648,N,08404.9723,W,2,09,0.80,291.84,M,-33.324,M,,*7D
2017-12-01 16:21:57 1512163317.384699: $GPRMC,212158,A,3946.9648,N,08404.9723,W,0.0000,0.000,011217,,*3A
2017-12-01 16:21:57 1512163317.384760: $GPGSA,A,3,1,10,11,14,22,31,32,25,138,,,,2.0,0.8,1.5*37
2017-12-01 16:21:58 1512163318.382801: $GPZDA,212159.00,01,12,2017,00,00*6C
2017-12-01 16:21:58 1512163318.382972: $GPGGA,212159,3946.9648,N,08404.9723,W,2,09,0.80,291.84,M,-33.324,M,,*7C
2017-12-01 16:21:58 1512163318.383039: $GPRMC,212159,A,3946.9648,N,08404.9723,W,0.0000,0.000,011217,,*3B
2017-12-01 16:21:58 1512163318.383100: $GPGSA,A,3,1,10,11,14,22,31,32,25,138,,,,2.0,0.8,1.5*37
2017-12-01 16:21:59 1512163319.718506: $GPGSV,3,1,11,01,21,304,42,10,52,145,44,11,09,286,34,14,64,319,42*76
2017-12-01 16:21:59 1512163319.718716: $GPGSV,3,2,11,22,16,312,41,31,52,222,48,32,69,018,49,18,21,142,26*72
2017-12-01 16:21:59 1512163319.718784: $GPGSV,3,3,11,12,23,054,25,25,38,096,31,138,38,213,38*76
2017-12-01 16:21:59 1512163319.832297: $GPZDA,212200.00,01,12,2017,00,00*63
2017-12-01 16:21:59 1512163319.832464: $GPGGA,212200,3946.9648,N,08404.9723,W,2,11,0.80,291.84,M,-33.324,M,,*7A
2017-12-01 16:21:59 1512163319.832530: $GPRMC,212200,A,3946.9648,N,08404.9723,W,0.0000,0.000,011217,,*34
2017-12-01 16:21:59 1512163319.832591: $GPGSA,A,3,1,10,11,14,22,31,32,18,12,25,138,,2.0,0.8,1.5*3D
2017-12-01 16:22:00 1512163320.383134: $GPZDA,212201.00,01,12,2017,00,00*62
2017-12-01 16:22:00 1512163320.383304: $GPGGA,212201,3946.9648,N,08404.9723,W,2,11,0.80,291.84,M,-33.324,M,,*7B
2017-12-01 16:22:00 1512163320.383371: $GPRMC,212201,A,3946.9648,N,08404.9723,W,0.0000,0.000,011217,,*35
2017-12-01 16:22:00 1512163320.383568: $GPGSA,A,3,1,10,11,14,22,31,32,18,12,25,138,,2.0,0.8,1.5*3D
2017-12-01 16:22:01 1512163321.384516: $GPZDA,212202.00,01,12,2017,00,00*61
2017-12-01 16:22:01 1512163321.384685: $GPGGA,212202,3946.9645,N,08404.9724,W,2,11,0.80,292.61,M,-33.324,M,,*7A
2017-12-01 16:22:01 1512163321.384750: $GPRMC,212202,A,3946.9645,N,08404.9724,W,0.0000,0.000,011217,,*3C
2017-12-01 16:22:01 1512163321.384811: $GPGSA,A,3,1,10,11,14,22,31,32,18,12,25,138,,2.0,0.8,1.5*3D
2017-12-01 16:22:02 1512163322.717658: $GPGSV,3,1,11,01,21,304,42,10,52,145,45,11,09,286,34,14,64,319,42*77
2017-12-01 16:22:02 1512163322.717846: $GPGSV,3,2,11,22,16,312,42,31,52,222,49,32,69,018,49,12,23,054,00*7A
2017-12-01 16:22:02 1512163322.717913: $GPGSV,3,3,11,18,21,142,00,25,38,096,31,138,38,213,40*70
2017-12-01 16:22:02 1512163322.831052: $GPZDA,212203.00,01,12,2017,00,00*60
2017-12-01 16:22:02 1512163322.831187: $GPGGA,212203,3946.9645,N,08404.9724,W,2,09,1.20,292.61,M,-33.324,M,,*79
2017-12-01 16:22:02 1512163322.831254: $GPRMC,212203,A,3946.9645,N,08404.9724,W,0.0000,0.000,011217,,*3D
2017-12-01 16:22:02 1512163322.831315: $GPGSA,A,3,1,10,11,14,22,31,32,25,138,,,,2.0,1.2,1.5*3C
2017-12-01 16:22:03 1512163323.382034: $GPZDA,212204.00,01,12,2017,00,00*67
2017-12-01 16:22:03 1512163323.382193: $GPGGA,212204,3946.9649,N,08404.9724,W,2,09,1.20,293.25,M,-33.324,M,,*73
2017-12-01 16:22:03 1512163323.382259: $GPRMC,212204,A,3946.9649,N,08404.9724,W,0.0000,0.000,011217,,*36
2017-12-01 16:22:03 1512163323.382319: $GPGSA,A,3,1,10,11,14,22,31,32,25,138,,,,2.0,1.2,1.5*3C
2017-12-01 16:22:04 1512163324.378939: $GPZDA,212205.00,01,12,2017,00,00*66
2017-12-01 16:22:04 1512163324.379108: $GPGGA,212205,3946.9652,N,08404.9723,W,2,09,1.20,292.48,M,-33.324,M,,*75
2017-12-01 16:22:04 1512163324.379175: $GPRMC,212205,A,3946.9652,N,08404.9723,W,0.5951,58.684,011217,,*05
2017-12-01 16:22:04 1512163324.379236: $GPGSA,A,3,1,10,11,14,22,31,32,25,138,,,,2.0,1.2,1.5*3C
2017-12-01 16:22:04 1512163324.379294: $GPGBS,212205,2.67,M,3.86,M,8.82,M*34
2017-12-01 16:22:05 1512163325.714699: $GPGSV,3,1,11,01,21,304,42,10,52,145,43,11,09,286,34,14,64,319,42*71
2017-12-01 16:22:05 1512163325.714888: $GPGSV,3,2,11,22,16,312,41,31,52,222,48,32,69,018,48,12,23,054,00*79
2017-12-01 16:22:05 1512163325.714956: $GPGSV,3,3,11,18,21,142,00,25,38,096,32,138,38,213,43*70
2017-12-01 16:22:05 1512163325.828133: $GPZDA,212206.00,01,12,2017,00,00*65
2017-12-01 16:22:05 1512163325.828299: $GPGGA,212206,3946.9649,N,08404.9724,W,2,09,1.20,293.25,M,-33.324,M,,*71
2017-12-01 16:22:05 1512163325.828364: $GPRMC,212206,A,3946.9649,N,08404.9724,W,0.5951,238.684,011217,,*3F
2017-12-01 16:22:05 1512163325.828425: $GPGSA,A,3,1,10,11,14,22,31,32,25,138,,,,2.0,1.2,1.5*3C
