2017-11-16 15:11:01 1510863061.195631: {"class":"VERSION","release":"3.17","rev":"3.17","proto_major":3,"proto_minor":12}
2017-11-16 15:11:01 1510863061.196078: {"class":"DEVICES","devices":[{"class":"DEVICE","path":"/dev/ttyUSB0","driver":"SiRF","subtype":"9\u0006GSD4e_4.1.2-P1_RPATCH.05-F-GPS-4R-1510281 11/03/2015 307","activated":"2017-11-16T20:11:00.704Z","flags":1,"native":1,"bps":4800,"parity":"N","stopbits":1,"cycle":1.00}]}
2017-11-16 15:11:01 1510863061.196196: {"class":"WATCH","enable":true,"json":false,"nmea":true,"raw":0,"scaled":false,"timing":false,"split24":false,"pps":false}
2017-11-16 15:11:01 1510863061.725742: $GPGSV,3,1,12,08,07,300,36,10,63,322,50,14,24,249,44,15,16,063,41*7C
2017-11-16 15:11:01 1510863061.725887: $GPGSV,3,2,12,18,75,073,46,20,13,114,32,21,36,181,45,24,49,067,49*7B
2017-11-16 15:11:01 1510863061.725948: $GPGSV,3,3,12,27,10,265,40,32,41,258,48,12,05,112,18,138,38,213,44*40
2017-11-16 15:11:01 1510863061.839386: $GPZDA,201100.00,16,11,2017,00,00*67
2017-11-16 15:11:01 1510863061.839544: $GPGGA,201100,3946.9582,N,08404.9846,W,2,12,0.80,300.25,M,-33.324,M,,*73
2017-11-16 15:11:01 1510863061.839605: $GPRMC,201100,A,3946.9582,N,08404.9846,W,0.0000,0.000,161117,,*39
2017-11-16 15:11:01 1510863061.839662: $GPGSA,A,3,8,10,14,15,18,20,21,24,27,32,12,138,1.6,0.8,1.3*34
2017-11-16 15:11:02 1510863062.403993: $GPZDA,201101.00,16,11,2017,00,00*66
2017-11-16 15:11:02 1510863062.404160: $GPGGA,201101,3946.9582,N,08404.9846,W,2,12,0.80,300.25,M,-33.324,M,,*72
2017-11-16 15:11:02 1510863062.404221: $GPRMC,201101,A,3946.9582,N,08404.9846,W,0.0000,0.000,161117,,*38
2017-11-16 15:11:02 1510863062.404277: $GPGSA,A,3,8,10,14,15,18,20,21,24,27,32,12,138,1.6,0.8,1.3*34
2017-11-16 15:11:03 1510863063.382321: $GPZDA,201102.00,16,11,2017,00,00*65
2017-11-16 15:11:03 1510863063.382479: $GPGGA,201102,3946.9578,N,08404.9846,W,2,12,0.80,299.61,M,-33.324,M,,*75
2017-11-16 15:11:03 1510863063.382539: $GPRMC,201102,A,3946.9578,N,08404.9846,W,0.0000,0.000,161117,,*3E
2017-11-16 15:11:03 1510863063.382595: $GPGSA,A,3,8,10,14,15,18,20,21,24,27,32,12,138,1.6,0.8,1.3*34
2017-11-16 15:11:04 1510863064.735322: $GPGSV,3,1,12,08,07,300,36,10,63,322,50,14,24,249,44,15,16,063,41*7C
2017-11-16 15:11:04 1510863064.735501: $GPGSV,3,2,12,18,75,073,46,20,13,114,32,21,36,181,45,24,49,067,49*7B
2017-11-16 15:11:04 1510863064.735563: $GPGSV,3,3,12,27,10,265,40,32,41,258,48,12,05,112,17,138,38,213,44*4F
2017-11-16 15:11:04 1510863064.848860: $GPZDA,201103.00,16,11,2017,00,00*64
2017-11-16 15:11:04 1510863064.849020: $GPGGA,201103,3946.9578,N,08404.9846,W,2,12,0.80,299.61,M,-33.324,M,,*74
2017-11-16 15:11:04 1510863064.849080: $GPRMC,201103,A,3946.9578,N,08404.9846,W,0.0000,0.000,161117,,*3F
2017-11-16 15:11:04 1510863064.849136: $GPGSA,A,3,8,10,14,15,18,20,21,24,27,32,12,138,1.6,0.8,1.3*34
2017-11-16 15:11:05 1510863065.405981: $GPZDA,201104.00,16,11,2017,00,00*63
2017-11-16 15:11:05 1510863065.406145: $GPGGA,201104,3946.9578,N,08404.9846,W,2,12,0.80,299.61,M,-33.324,M,,*73
2017-11-16 15:11:05 1510863065.406207: $GPRMC,201104,A,3946.9578,N,08404.9846,W,0.0000,0.000,161117,,*38
2017-11-16 15:11:05 1510863065.406263: $GPGSA,A,3,8,10,14,15,18,20,21,24,27,32,12,138,1.6,0.8,1.3*34
2017-11-16 15:11:06 1510863066.389314: $GPZDA,201105.00,16,11,2017,00,00*62
2017-11-16 15:11:06 1510863066.389487: $GPGGA,201105,3946.9578,N,08404.9846,W,2,12,0.80,299.61,M,-33.324,M,,*72
2017-11-16 15:11:06 1510863066.389549: $GPRMC,201105,A,3946.9578,N,08404.9846,W,0.0000,0.000,161117,,*39
2017-11-16 15:11:06 1510863066.389605: $GPGSA,A,3,8,10,14,15,18,20,21,24,27,32,12,138,1.6,0.8,1.3*34
2017-11-16 15:11:07 1510863067.839471: $GPGSV,3,1,12,08,07,300,36,10,63,322,50,14,24,249,44,15,16,063,41*7C
2017-11-16 15:11:07 1510863067.839638: $GPGSV,3,2,12,18,75,073,46,20,13,114,33,21,36,181,45,24,49,067,48*7B
2017-11-16 15:11:07 1510863067.839699: $GPGSV,3,3,12,27,10,265,40,32,41,258,48,12,05,112,16,138,38,213,44*4E
2017-11-16 15:11:07 1510863067.953824: $GPZDA,201106.00,16,11,2017,00,00*61
2017-11-16 15:11:07 1510863067.953994: $GPGGA,201106,3946.9578,N,08404.9846,W,2,12,0.80,299.61,M,-33.324,M,,*71
2017-11-16 15:11:07 1510863067.954112: $GPRMC,201106,A,3946.9578,N,08404.9846,W,0.0000,0.000,161117,,*3A
2017-11-16 15:11:07 1510863067.954170: $GPGSA,A,3,8,10,14,15,18,20,21,24,27,32,12,138,1.6,0.8,1.3*34
2017-11-16 15:11:08 1510863068.404890: $GPZDA,201107.00,16,11,2017,00,00*60
2017-11-16 15:11:08 1510863068.405087: $GPGGA,201107,3946.9578,N,08404.9846,W,2,12,0.80,299.61,M,-33.324,M,,*70
2017-11-16 15:11:08 1510863068.405150: $GPRMC,201107,A,3946.9578,N,08404.9846,W,0.0000,0.000,161117,,*3B
2017-11-16 15:11:08 1510863068.405206: $GPGSA,A,3,8,10,14,15,18,20,21,24,27,32,12,138,1.6,0.8,1.3*34
2017-11-16 15:11:09 1510863069.383550: $GPZDA,201108.00,16,11,2017,00,00*6F
2017-11-16 15:11:09 1510863069.383869: $GPGGA,201108,3946.9578,N,08404.9846,W,2,12,0.80,299.61,M,-33.324,M,,*7F
2017-11-16 15:11:09 1510863069.384003: $GPRMC,201108,A,3946.9578,N,08404.9846,W,0.0000,0.000,161117,,*34
2017-11-16 15:11:09 1510863069.384131: $GPGSA,A,3,8,10,14,15,18,20,21,24,27,32,12,138,1.6,0.8,1.3*34
2017-11-16 15:11:10 1510863070.740268: $GPGSV,3,1,12,08,07,300,36,10,63,322,50,14,24,249,44,15,16,063,41*7C
2017-11-16 15:11:10 1510863070.740474: $GPGSV,3,2,12,18,75,073,47,20,13,114,33,21,36,181,44,24,49,067,48*7B
2017-11-16 15:11:10 1510863070.740534: $GPGSV,3,3,12,27,10,265,40,32,41,258,48,12,05,112,21,138,38,213,44*4A
2017-11-16 15:11:10 1510863070.854358: $GPZDA,201109.00,16,11,2017,00,00*6E
2017-11-16 15:11:10 1510863070.854516: $GPGGA,201109,3946.9578,N,08404.9846,W,2,12,0.80,299.61,M,-33.324,M,,*7E
2017-11-16 15:11:10 1510863070.854593: $GPRMC,201109,A,3946.9578,N,08404.9846,W,0.0000,0.000,161117,,*35
2017-11-16 15:11:10 1510863070.854651: $GPGSA,A,3,8,10,14,15,18,20,21,24,27,32,12,138,1.6,0.8,1.3*34
