2017-12-01 15:22:50 1512159770.587237: {"class":"VERSION","release":"3.16","rev":"3.16-4","proto_major":3,"proto_minor":11}
2017-12-01 15:22:50 1512159770.587627: {"class":"DEVICES","devices":[{"class":"DEVICE","path":"/dev/ttyUSB0","driver":"SiRF","subtype":"9\u0006GSD4e_4.1.2-P1_RPATCH.05-F-GPS-4R-1510281 11/03/2015 307","activated":"2017-12-01T20:22:50.562Z","flags":1,"native":1,"bps":4800,"parity":"N","stopbits":1,"cycle":1.00}]}
2017-12-01 15:22:50 1512159770.587743: {"class":"WATCH","enable":true,"json":false,"nmea":true,"raw":0,"scaled":false,"timing":false,"split24":false,"pps":false}
2017-12-01 15:22:51 1512159771.735932: $GPGSV,3,1,12,01,08,324,35,10,79,108,47,11,09,310,34,12,23,082,44*73
2017-12-01 15:22:51 1512159771.736099: $GPGSV,3,2,12,14,48,279,43,18,47,129,48,24,23,045,45,25,22,123,45*74
2017-12-01 15:22:51 1512159771.736168: $GPGSV,3,3,12,31,25,208,46,32,64,306,47,21,03,174,00,138,38,213,46*43
2017-12-01 15:22:51 1512159771.849359: $GPZDA,202252.00,01,12,2017,00,00*65
2017-12-01 15:22:51 1512159771.849565: $GPGGA,202252,3946.9597,N,08404.9844,W,2,11,0.80,298.59,M,-33.324,M,,*7A
2017-12-01 15:22:51 1512159771.849632: $GPRMC,202252,A,3946.9597,N,08404.9844,W,0.0000,0.000,011217,,*3D
2017-12-01 15:22:51 1512159771.849694: $GPGSA,A,3,1,10,11,12,14,18,24,25,31,32,138,,2.0,0.8,1.5*3B
2017-12-01 15:22:52 1512159772.400251: $GPZDA,202253.00,01,12,2017,00,00*64
2017-12-01 15:22:52 1512159772.400423: $GPGGA,202253,3946.9597,N,08404.9844,W,2,11,0.80,298.59,M,-33.324,M,,*7B
2017-12-01 15:22:52 1512159772.400493: $GPRMC,202253,A,3946.9597,N,08404.9844,W,0.0000,0.000,011217,,*3C
2017-12-01 15:22:52 1512159772.400559: $GPGSA,A,3,1,10,11,12,14,18,24,25,31,32,138,,2.0,0.8,1.5*3B
2017-12-01 15:22:53 1512159773.401012: $GPZDA,202254.00,01,12,2017,00,00*63
2017-12-01 15:22:53 1512159773.401186: $GPGGA,202254,3946.9597,N,08404.9844,W,2,11,0.80,298.59,M,-33.324,M,,*7C
2017-12-01 15:22:53 1512159773.401254: $GPRMC,202254,A,3946.9597,N,08404.9844,W,0.0000,0.000,011217,,*3B
2017-12-01 15:22:53 1512159773.401318: $GPGSA,A,3,1,10,11,12,14,18,24,25,31,32,138,,2.0,0.8,1.5*3B
2017-12-01 15:22:54 1512159774.736751: $GPGSV,3,1,12,01,08,324,34,10,79,108,46,11,09,310,24,12,23,082,44*72
2017-12-01 15:22:54 1512159774.736932: $GPGSV,3,2,12,14,48,279,43,18,47,129,48,24,23,045,45,25,22,123,45*74
2017-12-01 15:22:54 1512159774.737000: $GPGSV,3,3,12,31,25,208,46,32,64,306,47,21,03,174,00,138,38,213,45*40
2017-12-01 15:22:54 1512159774.850116: $GPZDA,202255.00,01,12,2017,00,00*62
2017-12-01 15:22:54 1512159774.850287: $GPGGA,202255,3946.9597,N,08404.9844,W,2,11,0.80,298.59,M,-33.324,M,,*7D
2017-12-01 15:22:54 1512159774.850356: $GPRMC,202255,A,3946.9597,N,08404.9844,W,0.0000,0.000,011217,,*3A
2017-12-01 15:22:54 1512159774.850419: $GPGSA,A,3,1,10,11,12,14,18,24,25,31,32,138,,2.0,0.8,1.5*3B
2017-12-01 15:22:55 1512159775.402562: $GPZDA,202256.00,01,12,2017,00,00*61
2017-12-01 15:22:55 1512159775.407361: $GPGGA,202256,3946.9597,N,08404.9844,W,2,11,0.80,298.59,M,-33.324,M,,*7E
2017-12-01 15:22:55 1512159775.407473: $GPRMC,202256,A,3946.9597,N,08404.9844,W,0.0000,0.000,011217,,*39
2017-12-01 15:22:55 1512159775.407546: $GPGSA,A,3,1,10,11,12,14,18,24,25,31,32,138,,2.0,0.8,1.5*3B
2017-12-01 15:22:56 1512159776.400375: $GPZDA,202257.00,01,12,2017,00,00*60
2017-12-01 15:22:56 1512159776.400589: $GPGGA,202257,3946.9597,N,08404.9844,W,2,11,0.80,298.59,M,-33.324,M,,*7F
2017-12-01 15:22:56 1512159776.400662: $GPRMC,202257,A,3946.9597,N,08404.9844,W,0.0000,0.000,011217,,*38
2017-12-01 15:22:56 1512159776.400727: $GPGSA,A,3,1,10,11,12,14,18,24,25,31,32,138,,2.0,0.8,1.5*3B
2017-12-01 15:22:57 1512159777.737092: $GPGSV,3,1,12,01,08,324,34,10,79,108,47,11,09,310,26,12,23,082,43*76
2017-12-01 15:22:57 1512159777.737295: $GPGSV,3,2,12,14,48,279,43,18,47,129,49,24,23,045,45,25,22,123,45*75
2017-12-01 15:22:57 1512159777.737366: $GPGSV,3,3,12,31,25,208,46,32,64,306,47,21,03,174,14,138,38,213,46*46
2017-12-01 15:22:57 1512159777.851008: $GPZDA,202258.00,01,12,2017,00,00*6F
2017-12-01 15:22:57 1512159777.851185: $GPGGA,202258,3946.9597,N,08404.9844,W,2,11,0.80,298.59,M,-33.324,M,,*70
2017-12-01 15:22:57 1512159777.851308: $GPRMC,202258,A,3946.9597,N,08404.9844,W,0.0000,0.000,011217,,*37
2017-12-01 15:22:57 1512159777.851431: $GPGSA,A,3,1,10,11,12,14,18,24,25,31,32,138,,2.0,0.8,1.5*3B
2017-12-01 15:22:58 1512159778.401472: $GPZDA,202259.00,01,12,2017,00,00*6E
2017-12-01 15:22:58 1512159778.401662: $GPGGA,202259,3946.9597,N,08404.9844,W,2,11,0.80,298.59,M,-33.324,M,,*71
2017-12-01 15:22:58 1512159778.401728: $GPRMC,202259,A,3946.9597,N,08404.9844,W,0.0000,0.000,011217,,*36
2017-12-01 15:22:58 1512159778.401790: $GPGSA,A,3,1,10,11,12,14,18,24,25,31,32,138,,2.0,0.8,1.5*3B
2017-12-01 15:22:59 1512159779.400977: $GPZDA,202300.00,01,12,2017,00,00*63
2017-12-01 15:22:59 1512159779.401150: $GPGGA,202300,3946.9597,N,08404.9844,W,2,11,0.80,298.59,M,-33.324,M,,*7C
2017-12-01 15:22:59 1512159779.401218: $GPRMC,202300,A,3946.9597,N,08404.9844,W,0.0000,0.000,011217,,*3B
2017-12-01 15:22:59 1512159779.401280: $GPGSA,A,3,1,10,11,12,14,18,24,25,31,32,138,,2.0,0.8,1.5*3B
2017-12-01 15:23:00 1512159780.735432: $GPGSV,3,1,12,01,08,324,34,10,79,108,46,11,09,310,11,12,23,082,43*73
2017-12-01 15:23:01 1512159781.161653: $GPGSV,3,2,12,14,48,279,43,18,47,129,48,24,23,045,44,25,22,123,45*75
2017-12-01 15:23:01 1512159781.161797: $GPGSV,3,3,12,31,25,208,46,32,64,306,47,21,03,174,10,138,38,213,45*41
2017-12-01 15:23:01 1512159781.161895: $GPZDA,202301.00,01,12,2017,00,00*62
2017-12-01 15:23:01 1512159781.161952: $GPGGA,202301,3946.9597,N,08404.9844,W,2,11,0.80,298.59,M,-33.324,M,,*7D
2017-12-01 15:23:01 1512159781.162014: $GPRMC,202301,A,3946.9597,N,08404.9844,W,0.0000,0.000,011217,,*3A
2017-12-01 15:23:01 1512159781.162074: $GPGSA,A,3,1,10,11,12,14,18,24,25,31,32,138,,2.0,0.8,1.5*3B
2017-12-01 15:23:01 1512159781.474218: $GPZDA,202302.00,01,12,2017,00,00*61
2017-12-01 15:23:01 1512159781.474406: $GPGGA,202302,3946.9597,N,08404.9844,W,2,11,0.80,298.59,M,-33.324,M,,*7E
2017-12-01 15:23:01 1512159781.474474: $GPRMC,202302,A,3946.9597,N,08404.9844,W,0.0000,0.000,011217,,*39
2017-12-01 15:23:01 1512159781.474534: $GPGSA,A,3,1,10,11,12,14,18,24,25,31,32,138,,2.0,0.8,1.5*3B
2017-12-01 15:23:02 1512159782.401515: $GPZDA,202303.00,01,12,2017,00,00*60
2017-12-01 15:23:02 1512159782.401697: $GPGGA,202303,3946.9597,N,08404.9844,W,2,11,0.80,298.59,M,-33.324,M,,*7F
2017-12-01 15:23:02 1512159782.401764: $GPRMC,202303,A,3946.9597,N,08404.9844,W,0.0000,0.000,011217,,*38
2017-12-01 15:23:02 1512159782.401826: $GPGSA,A,3,1,10,11,12,14,18,24,25,31,32,138,,2.0,0.8,1.5*3B
2017-12-01 15:23:03 1512159783.736089: $GPGSV,3,1,12,01,08,324,34,10,79,108,47,11,09,310,26,12,23,082,43*76
2017-12-01 15:23:03 1512159783.736273: $GPGSV,3,2,12,14,48,279,43,18,47,129,48,24,23,045,44,25,22,123,45*75
2017-12-01 15:23:03 1512159783.736341: $GPGSV,3,3,12,31,25,208,46,32,64,306,47,21,03,174,00,138,38,213,46*43
2017-12-01 15:23:03 1512159783.849769: $GPZDA,202304.00,01,12,2017,00,00*67
2017-12-01 15:23:03 1512159783.849914: $GPGGA,202304,3946.9597,N,08404.9844,W,2,11,0.80,298.59,M,-33.324,M,,*78
2017-12-01 15:23:03 1512159783.849980: $GPRMC,202304,A,3946.9597,N,08404.9844,W,0.0000,0.000,011217,,*3F
2017-12-01 15:23:03 1512159783.850041: $GPGSA,A,3,1,10,11,12,14,18,24,25,31,32,138,,2.0,0.8,1.5*3B
2017-12-01 15:23:04 1512159784.400457: $GPZDA,202305.00,01,12,2017,00,00*66
2017-12-01 15:23:04 1512159784.400617: $GPGGA,202305,3946.9597,N,08404.9844,W,2,11,0.80,298.59,M,-33.324,M,,*79
2017-12-01 15:23:04 1512159784.400686: $GPRMC,202305,A,3946.9597,N,08404.9844,W,0.0000,0.000,011217,,*3E
2017-12-01 15:23:04 1512159784.400747: $GPGSA,A,3,1,10,11,12,14,18,24,25,31,32,138,,2.0,0.8,1.5*3B
2017-12-01 15:23:05 1512159785.401430: $GPZDA,202306.00,01,12,2017,00,00*65
2017-12-01 15:23:05 1512159785.401608: $GPGGA,202306,3946.9597,N,08404.9844,W,2,11,0.80,298.59,M,-33.324,M,,*7A
2017-12-01 15:23:05 1512159785.401675: $GPRMC,202306,A,3946.9597,N,08404.9844,W,0.0000,0.000,011217,,*3D
2017-12-01 15:23:05 1512159785.401736: $GPGSA,A,3,1,10,11,12,14,18,24,25,31,32,138,,2.0,0.8,1.5*3B
2017-12-01 15:23:06 1512159786.736589: $GPGSV,3,1,12,01,08,324,41,10,79,108,47,11,09,310,28,12,23,082,43*7A
2017-12-01 15:23:06 1512159786.736821: $GPGSV,3,2,12,14,48,279,43,18,47,129,48,24,23,045,44,25,22,123,45*75
2017-12-01 15:23:06 1512159786.736889: $GPGSV,3,3,12,31,25,208,47,32,64,306,47,21,03,174,00,138,38,213,47*43
2017-12-01 15:23:06 1512159786.850277: $GPZDA,202307.00,01,12,2017,00,00*64
2017-12-01 15:23:06 1512159786.850447: $GPGGA,202307,3946.9597,N,08404.9844,W,2,11,0.80,298.59,M,-33.324,M,,*7B
2017-12-01 15:23:06 1512159786.850513: $GPRMC,202307,A,3946.9597,N,08404.9844,W,0.0000,0.000,011217,,*3C
2017-12-01 15:23:06 1512159786.850574: $GPGSA,A,3,1,10,11,12,14,18,24,25,31,32,138,,2.0,0.8,1.5*3B
2017-12-01 15:23:07 1512159787.398743: $GPZDA,202308.00,01,12,2017,00,00*6B
2017-12-01 15:23:07 1512159787.398927: $GPGGA,202308,3946.9597,N,08404.9844,W,2,11,0.80,298.59,M,-33.324,M,,*74
2017-12-01 15:23:07 1512159787.398995: $GPRMC,202308,A,3946.9597,N,08404.9844,W,0.0000,0.000,011217,,*33
2017-12-01 15:23:07 1512159787.399056: $GPGSA,A,3,1,10,11,12,14,18,24,25,31,32,138,,2.0,0.8,1.5*3B
2017-12-01 15:23:08 1512159788.397947: $GPZDA,202309.00,01,12,2017,00,00*6A
2017-12-01 15:23:08 1512159788.398124: $GPGGA,202309,3946.9597,N,08404.9844,W,2,11,0.80,298.59,M,-33.324,M,,*75
2017-12-01 15:23:08 1512159788.398191: $GPRMC,202309,A,3946.9597,N,08404.9844,W,0.0000,0.000,011217,,*32
2017-12-01 15:23:08 1512159788.398255: $GPGSA,A,3,1,10,11,12,14,18,24,25,31,32,138,,2.0,0.8,1.5*3B
2017-12-01 15:23:09 1512159789.739974: $GPGSV,3,1,12,01,08,324,40,10,79,108,47,11,09,310,28,12,23,082,43*7B
2017-12-01 15:23:09 1512159789.740154: $GPGSV,3,2,12,14,48,279,44,18,47,129,48,24,23,045,44,25,22,123,45*72
2017-12-01 15:23:09 1512159789.740219: $GPGSV,3,3,12,31,25,208,46,32,64,306,47,21,03,174,00,138,38,213,45*40
2017-12-01 15:23:09 1512159789.853427: $GPZDA,202310.00,01,12,2017,00,00*62
2017-12-01 15:23:09 1512159789.853583: $GPGGA,202310,3946.9597,N,08404.9844,W,2,11,0.80,298.59,M,-33.324,M,,*7D
2017-12-01 15:23:09 1512159789.853651: $GPRMC,202310,A,3946.9597,N,08404.9844,W,0.0000,0.000,011217,,*3A
2017-12-01 15:23:09 1512159789.853713: $GPGSA,A,3,1,10,11,12,14,18,24,25,31,32,138,,2.0,0.8,1.5*3B
2017-12-01 15:23:10 1512159790.404217: $GPZDA,202311.00,01,12,2017,00,00*63
2017-12-01 15:23:10 1512159790.404377: $GPGGA,202311,3946.9597,N,08404.9844,W,2,11,0.80,298.59,M,-33.324,M,,*7C
2017-12-01 15:23:10 1512159790.404444: $GPRMC,202311,A,3946.9597,N,08404.9844,W,0.0000,0.000,011217,,*3B
2017-12-01 15:23:10 1512159790.404505: $GPGSA,A,3,1,10,11,12,14,18,24,25,31,32,138,,2.0,0.8,1.5*3B
