2017-11-15 19:31:25 1510792285.199994: {"class":"VERSION","release":"3.17","rev":"3.17","proto_major":3,"proto_minor":12}
2017-11-15 19:31:25 1510792285.200452: {"class":"DEVICES","devices":[{"class":"DEVICE","path":"/dev/ttyUSB0","driver":"SiRF","subtype":"9\u0006GSD4e_4.1.2-P1_RPATCH.05-F-GPS-4R-1510281 11/03/2015 307","activated":"2017-11-16T00:31:25.168Z","flags":1,"native":1,"bps":4800,"parity":"N","stopbits":1,"cycle":1.00}]}
2017-11-15 19:31:25 1510792285.200570: {"class":"WATCH","enable":true,"json":false,"nmea":true,"raw":0,"scaled":false,"timing":false,"split24":false,"pps":false}
2017-11-15 19:31:25 1510792285.346524: $GPZDA,003124.00,16,11,2017,00,00*61
2017-11-15 19:31:25 1510792285.346699: $GPGGA,003124,3946.9590,N,08404.9449,W,1,06,2.00,282.92,M,-33.324,M,,*7E
2017-11-15 19:31:25 1510792285.346824: $GPRMC,003124,A,3946.9590,N,08404.9449,W,0.5912,129.173,161117,,*3F
2017-11-15 19:31:25 1510792285.346906: $GPGSA,A,3,32,16,26,14,31,3,,,,,,,3.4,2.0,2.9*0A
2017-11-15 19:31:26 1510792286.329292: $GPZDA,003125.00,16,11,2017,00,00*60
2017-11-15 19:31:26 1510792286.329457: $GPGGA,003125,3946.9590,N,08404.9449,W,1,06,2.00,282.92,M,-33.324,M,,*7F
2017-11-15 19:31:26 1510792286.329519: $GPRMC,003125,A,3946.9590,N,08404.9449,W,0.0000,0.000,161117,,*3E
2017-11-15 19:31:26 1510792286.329576: $GPGSA,A,3,32,16,26,14,31,3,,,,,,,3.4,2.0,2.9*0A
2017-11-15 19:31:27 1510792287.681338: $GPGSV,3,1,12,32,36,108,22,25,17,040,00,16,23,190,16,26,53,172,16*78
2017-11-15 19:31:27 1510792287.681486: $GPGSV,3,2,12,14,55,093,20,31,67,025,07,03,40,298,18,29,11,070,00*74
2017-11-15 19:31:27 1510792287.681546: $GPGSV,3,3,12,23,11,301,04,01,05,252,00,22,50,270,04,138,38,213,00*49
2017-11-15 19:31:27 1510792287.794684: $GPZDA,003126.00,16,11,2017,00,00*63
2017-11-15 19:31:27 1510792287.794835: $GPGGA,003126,3946.9590,N,08404.9456,W,1,06,2.00,282.84,M,-33.324,M,,*75
2017-11-15 19:31:27 1510792287.794895: $GPRMC,003126,A,3946.9590,N,08404.9456,W,0.5912,309.173,161117,,*33
2017-11-15 19:31:27 1510792287.794951: $GPGSA,A,3,32,16,26,14,31,3,,,,,,,3.4,2.0,2.9*0A
2017-11-15 19:31:28 1510792288.345589: $GPZDA,003127.00,16,11,2017,00,00*62
2017-11-15 19:31:28 1510792288.345757: $GPGGA,003127,3946.9590,N,08404.9456,W,1,06,2.00,282.84,M,-33.324,M,,*74
2017-11-15 19:31:28 1510792288.345821: $GPRMC,003127,A,3946.9590,N,08404.9456,W,0.5951,238.684,161117,,*39
2017-11-15 19:31:28 1510792288.345877: $GPGSA,A,3,32,16,26,14,31,3,,,,,,,3.4,2.0,2.9*0A
2017-11-15 19:31:29 1510792289.346454: $GPZDA,003128.00,16,11,2017,00,00*6D
2017-11-15 19:31:29 1510792289.346614: $GPGGA,003128,3946.9586,N,08404.9456,W,1,06,2.00,282.20,M,-33.324,M,,*72
2017-11-15 19:31:29 1510792289.346678: $GPRMC,003128,A,3946.9586,N,08404.9456,W,0.3423,184.197,161117,,*3E
2017-11-15 19:31:29 1510792289.346789: $GPGSA,A,3,32,16,26,14,31,3,,,,,,,3.4,2.0,2.9*0A
2017-11-15 19:31:30 1510792290.665988: $GPGSV,3,1,12,32,36,108,22,25,17,040,00,16,23,190,16,26,53,172,17*79
2017-11-15 19:31:30 1510792290.666175: $GPGSV,3,2,12,14,55,093,20,31,67,025,08,03,40,298,18,29,11,070,00*7B
2017-11-15 19:31:30 1510792290.666236: $GPGSV,3,3,12,23,11,301,06,01,05,252,00,22,50,270,04,138,38,213,00*4B
2017-11-15 19:31:30 1510792290.778090: $GPZDA,003129.00,16,11,2017,00,00*6C
2017-11-15 19:31:30 1510792290.778255: $GPGGA,003129,3946.9586,N,08404.9456,W,1,06,2.00,282.20,M,-33.324,M,,*73
2017-11-15 19:31:30 1510792290.778315: $GPRMC,003129,A,3946.9586,N,08404.9456,W,0.4207,39.347,161117,,*00
2017-11-15 19:31:30 1510792290.778370: $GPGSA,A,3,32,16,26,14,31,3,,,,,,,3.4,2.0,2.9*0A
2017-11-15 19:31:31 1510792291.404640: $GPZDA,003130.00,16,11,2017,00,00*64
2017-11-15 19:31:31 1510792291.404821: $GPGGA,003130,3946.9590,N,08404.9456,W,1,06,2.00,282.84,M,-33.324,M,,*72
2017-11-15 19:31:31 1510792291.404884: $GPRMC,003130,A,3946.9590,N,08404.9456,W,0.3423,4.197,161117,,*39
2017-11-15 19:31:31 1510792291.404940: $GPGSA,A,3,32,16,26,14,31,3,,,,,,,3.4,2.0,2.9*0A
2017-11-15 19:31:32 1510792292.345564: $GPZDA,003131.00,16,11,2017,00,00*65
2017-11-15 19:31:32 1510792292.345732: $GPGGA,003131,3946.9591,N,08404.9463,W,1,06,2.00,282.76,M,-33.324,M,,*79
2017-11-15 19:31:32 1510792292.345847: $GPRMC,003131,A,3946.9591,N,08404.9463,W,0.5912,309.173,161117,,*32
2017-11-15 19:31:32 1510792292.345907: $GPGSA,A,3,32,16,26,14,31,3,,,,,,,3.4,2.0,2.9*0A
2017-11-15 19:31:33 1510792293.665152: $GPGSV,3,1,12,32,36,108,22,25,17,040,00,16,23,190,08,26,53,172,18*79
2017-11-15 19:31:33 1510792293.665316: $GPGSV,3,2,12,14,55,093,20,31,67,025,10,03,40,298,18,29,11,070,00*72
2017-11-15 19:31:33 1510792293.665377: $GPGSV,3,3,12,23,11,301,06,01,05,252,00,22,50,270,04,135,23,238,00*45
2017-11-15 19:31:33 1510792293.778776: $GPZDA,003132.00,16,11,2017,00,00*66
2017-11-15 19:31:33 1510792293.778934: $GPGGA,003132,3946.9591,N,08404.9463,W,1,07,2.00,282.76,M,-33.324,M,,*7B
2017-11-15 19:31:33 1510792293.778996: $GPRMC,003132,A,3946.9591,N,08404.9463,W,1.1391,323.662,161117,,*3A
2017-11-15 19:31:33 1510792293.779052: $GPGSA,A,3,32,16,26,14,31,3,23,,,,,,3.4,2.0,2.9*0B
2017-11-15 19:31:34 1510792294.345883: $GPZDA,003133.00,16,11,2017,00,00*67
2017-11-15 19:31:34 1510792294.346043: $GPGGA,003133,3946.9599,N,08404.9469,W,1,07,2.00,282.55,M,-33.324,M,,*79
2017-11-15 19:31:34 1510792294.346103: $GPRMC,003133,A,3946.9599,N,08404.9469,W,1.3082,341.818,161117,,*3D
2017-11-15 19:31:34 1510792294.346162: $GPGSA,A,3,32,16,26,14,31,3,23,,,,,,3.4,2.0,2.9*0B
