2018-01-12 03:12:56 1515744776.528775: {"class":"VERSION","release":"3.16","rev":"3.16-4","proto_major":3,"proto_minor":11}
2018-01-12 03:12:56 1515744776.529670: {"class":"DEVICES","devices":[{"class":"DEVICE","path":"/dev/ttyUSB0","driver":"SiRF","subtype":"9\u0006GSD4e_4.1.2-P1_RPATCH.05-F-GPS-4R-1510281 11/03/2015 307","activated":"2018-01-12T08:12:56.478Z","flags":1,"native":1,"bps":4800,"parity":"N","stopbits":1,"cycle":1.00}]}
2018-01-12 03:12:56 1515744776.529860: {"class":"WATCH","enable":true,"json":false,"nmea":true,"raw":0,"scaled":false,"timing":false,"split24":false,"pps":false}
2018-01-12 03:12:57 1515744777.368895: $GPZDA,081258.00,12,01,2018,00,00*69
2018-01-12 03:12:57 1515744777.369071: $GPGGA,081258,3946.9582,N,08404.9842,W,2,12,0.80,292.46,M,-33.324,M,,*7C
2018-01-12 03:12:57 1515744777.369137: $GPRMC,081258,A,3946.9582,N,08404.9842,W,0.0000,0.000,120118,,*33
2018-01-12 03:12:57 1515744777.369200: $GPGSA,A,3,2,5,6,12,17,19,24,25,3,9,23,138,2.4,0.8,2.1*33
2018-01-12 03:12:58 1515744778.710527: $GPGSV,3,1,12,02,59,271,48,05,17,195,41,06,72,013,51,12,46,303,51*75
2018-01-12 03:12:58 1515744778.710707: $GPGSV,3,2,12,17,38,096,41,19,55,081,43,24,08,253,35,25,11,321,42*77
2018-01-12 03:12:58 1515744778.710772: $GPGSV,3,3,12,03,01,033,18,09,09,096,29,23,07,063,16,138,38,213,38*4B
2018-01-12 03:12:58 1515744778.823988: $GPZDA,081259.00,12,01,2018,00,00*68
2018-01-12 03:12:58 1515744778.824128: $GPGGA,081259,3946.9582,N,08404.9842,W,2,12,0.80,292.46,M,-33.324,M,,*7D
2018-01-12 03:12:58 1515744778.824294: $GPRMC,081259,A,3946.9582,N,08404.9842,W,0.0000,0.000,120118,,*32
2018-01-12 03:12:58 1515744778.824360: $GPGSA,A,3,2,5,6,12,17,19,24,25,3,9,23,138,2.4,0.8,2.1*33
2018-01-12 03:12:59 1515744779.370119: $GPZDA,081300.00,12,01,2018,00,00*65
2018-01-12 03:12:59 1515744779.370292: $GPGGA,081300,3946.9582,N,08404.9842,W,2,12,0.80,292.46,M,-33.324,M,,*70
2018-01-12 03:12:59 1515744779.370358: $GPRMC,081300,A,3946.9582,N,08404.9842,W,0.0000,0.000,120118,,*3F
2018-01-12 03:12:59 1515744779.370421: $GPGSA,A,3,2,5,6,12,17,19,24,25,3,9,23,138,2.4,0.8,2.1*33
2018-01-12 03:13:00 1515744780.367277: $GPZDA,081301.00,12,01,2018,00,00*64
2018-01-12 03:13:00 1515744780.367447: $GPGGA,081301,3946.9582,N,08404.9842,W,2,12,0.80,292.46,M,-33.324,M,,*71
2018-01-12 03:13:00 1515744780.367513: $GPRMC,081301,A,3946.9582,N,08404.9842,W,0.0000,0.000,120118,,*3E
2018-01-12 03:13:00 1515744780.367576: $GPGSA,A,3,2,5,6,12,17,19,24,25,3,9,23,138,2.4,0.8,2.1*33
2018-01-12 03:13:00 1515744780.367634: $GPGBS,081301,3.00,M,3.62,M,11.97,M*0F
2018-01-12 03:13:01 1515744781.705759: $GPGSV,3,1,12,02,59,271,48,05,17,195,41,06,72,013,51,12,46,303,51*75
2018-01-12 03:13:01 1515744781.705961: $GPGSV,3,2,12,17,38,096,41,19,55,081,43,24,08,253,35,25,11,321,42*77
2018-01-12 03:13:01 1515744781.706050: $GPGSV,3,3,12,03,01,033,18,09,09,096,29,23,07,063,16,138,38,213,38*4B
2018-01-12 03:13:01 1515744781.819374: $GPZDA,081302.00,12,01,2018,00,00*67
2018-01-12 03:13:01 1515744781.819525: $GPGGA,081302,3946.9582,N,08404.9842,W,2,12,0.80,292.46,M,-33.324,M,,*72
2018-01-12 03:13:01 1515744781.819591: $GPRMC,081302,A,3946.9582,N,08404.9842,W,0.0000,0.000,120118,,*3D
2018-01-12 03:13:01 1515744781.819652: $GPGSA,A,3,2,5,6,12,17,19,24,25,3,9,23,138,2.4,0.8,2.1*33
2018-01-12 03:13:02 1515744782.369157: $GPZDA,081303.00,12,01,2018,00,00*66
2018-01-12 03:13:02 1515744782.369315: $GPGGA,081303,3946.9582,N,08404.9842,W,2,12,0.80,292.46,M,-33.324,M,,*73
2018-01-12 03:13:02 1515744782.369380: $GPRMC,081303,A,3946.9582,N,08404.9842,W,0.0000,0.000,120118,,*3C
2018-01-12 03:13:02 1515744782.369443: $GPGSA,A,3,2,5,6,12,17,19,24,25,3,9,23,138,2.4,0.8,2.1*33
2018-01-12 03:13:03 1515744783.367402: $GPZDA,081304.00,12,01,2018,00,00*61
2018-01-12 03:13:03 1515744783.367562: $GPGGA,081304,3946.9582,N,08404.9842,W,2,12,0.80,292.46,M,-33.324,M,,*74
2018-01-12 03:13:03 1515744783.367628: $GPRMC,081304,A,3946.9582,N,08404.9842,W,0.0000,0.000,120118,,*3B
2018-01-12 03:13:03 1515744783.367690: $GPGSA,A,3,2,5,6,12,17,19,24,25,3,9,23,138,2.4,0.8,2.1*33
2018-01-12 03:13:04 1515744784.699192: $GPGSV,3,1,12,02,59,271,46,05,17,195,41,06,72,013,49,12,46,303,50*73
2018-01-12 03:13:04 1515744784.699420: $GPGSV,3,2,12,17,38,096,42,19,55,081,43,24,08,253,35,25,11,321,41*77
2018-01-12 03:13:04 1515744784.699490: $GPGSV,3,3,12,03,01,033,00,09,09,096,28,23,07,063,18,138,38,213,34*41
2018-01-12 03:13:04 1515744784.812972: $GPZDA,081305.00,12,01,2018,00,00*60
2018-01-12 03:13:04 1515744784.813119: $GPGGA,081305,3946.9583,N,08404.9843,W,2,11,0.80,293.86,M,-33.324,M,,*7B
2018-01-12 03:13:04 1515744784.813186: $GPRMC,081305,A,3946.9583,N,08404.9843,W,0.0000,0.000,120118,,*3A
2018-01-12 03:13:04 1515744784.813247: $GPGSA,A,3,2,5,6,12,17,19,24,25,9,23,138,,2.4,0.8,2.1*00
2018-01-12 03:13:05 1515744785.361230: $GPZDA,081306.00,12,01,2018,00,00*63
2018-01-12 03:13:05 1515744785.361404: $GPGGA,081306,3946.9576,N,08404.9851,W,2,11,0.80,295.31,M,-33.324,M,,*7B
2018-01-12 03:13:05 1515744785.361471: $GPRMC,081306,A,3946.9576,N,08404.9851,W,0.1567,189.200,120118,,*37
2018-01-12 03:13:05 1515744785.361534: $GPGSA,A,3,2,5,6,12,17,19,24,25,9,23,138,,2.4,0.8,2.1*00
2018-01-12 03:13:06 1515744786.361338: $GPZDA,081307.00,12,01,2018,00,00*62
2018-01-12 03:13:06 1515744786.361516: $GPGGA,081307,3946.9576,N,08404.9851,W,2,11,0.80,295.31,M,-33.324,M,,*7A
2018-01-12 03:13:06 1515744786.361584: $GPRMC,081307,A,3946.9576,N,08404.9851,W,0.0000,0.000,120118,,*31
2018-01-12 03:13:06 1515744786.361645: $GPGSA,A,3,2,5,6,12,17,19,24,25,9,23,138,,2.4,0.8,2.1*00
2018-01-12 03:13:07 1515744787.700709: $GPGSV,3,1,12,02,59,271,47,05,17,195,42,06,72,013,50,12,46,303,51*78
2018-01-12 03:13:07 1515744787.700898: $GPGSV,3,2,12,17,38,096,43,19,55,081,43,24,08,253,36,25,11,321,42*76
2018-01-12 03:13:07 1515744787.700964: $GPGSV,3,3,12,03,01,033,00,09,09,096,28,23,07,063,18,138,38,213,36*43
2018-01-12 03:13:07 1515744787.814470: $GPZDA,081308.00,12,01,2018,00,00*6D
2018-01-12 03:13:07 1515744787.814633: $GPGGA,081308,3946.9576,N,08404.9851,W,2,11,0.80,295.31,M,-33.324,M,,*75
2018-01-12 03:13:07 1515744787.814700: $GPRMC,081308,A,3946.9576,N,08404.9851,W,0.0000,0.000,120118,,*3E
2018-01-12 03:13:07 1515744787.814761: $GPGSA,A,3,2,5,6,12,17,19,24,25,9,23,138,,2.4,0.8,2.1*00
2018-01-12 03:13:08 1515744788.364538: $GPZDA,081309.00,12,01,2018,00,00*6C
2018-01-12 03:13:08 1515744788.364700: $GPGGA,081309,3946.9576,N,08404.9851,W,2,11,0.80,295.31,M,-33.324,M,,*74
2018-01-12 03:13:08 1515744788.364767: $GPRMC,081309,A,3946.9576,N,08404.9851,W,0.0000,0.000,120118,,*3F
2018-01-12 03:13:08 1515744788.364828: $GPGSA,A,3,2,5,6,12,17,19,24,25,9,23,138,,2.4,0.8,2.1*00
2018-01-12 03:13:09 1515744789.367457: $GPZDA,081310.00,12,01,2018,00,00*64
2018-01-12 03:13:09 1515744789.367625: $GPGGA,081310,3946.9576,N,08404.9851,W,2,11,0.80,295.31,M,-33.324,M,,*7C
2018-01-12 03:13:09 1515744789.367691: $GPRMC,081310,A,3946.9576,N,08404.9851,W,0.0000,0.000,120118,,*37
2018-01-12 03:13:09 1515744789.367752: $GPGSA,A,3,2,5,6,12,17,19,24,25,9,23,138,,2.4,0.8,2.1*00
2018-01-12 03:13:10 1515744790.699085: $GPGSV,3,1,12,02,59,271,48,05,17,195,41,06,72,013,50,12,46,303,50*75
2018-01-12 03:13:10 1515744790.699267: $GPGSV,3,2,12,17,38,096,43,19,55,081,43,24,08,253,37,25,11,321,42*77
2018-01-12 03:13:10 1515744790.699334: $GPGSV,3,3,12,03,01,033,00,09,09,096,28,23,07,063,17,138,38,213,38*42
2018-01-12 03:13:10 1515744790.813837: $GPZDA,081311.00,12,01,2018,00,00*65
2018-01-12 03:13:10 1515744790.814021: $GPGGA,081311,3946.9576,N,08404.9851,W,2,11,0.80,295.31,M,-33.324,M,,*7D
2018-01-12 03:13:10 1515744790.814087: $GPRMC,081311,A,3946.9576,N,08404.9851,W,0.0000,0.000,120118,,*36
2018-01-12 03:13:10 1515744790.814148: $GPGSA,A,3,2,5,6,12,17,19,24,25,9,23,138,,2.4,0.8,2.1*00
2018-01-12 03:13:11 1515744791.437872: $GPZDA,081312.00,12,01,2018,00,00*66
2018-01-12 03:13:11 1515744791.438046: $GPGGA,081312,3946.9576,N,08404.9851,W,2,11,0.80,295.31,M,-33.324,M,,*7E
2018-01-12 03:13:11 1515744791.438113: $GPRMC,081312,A,3946.9576,N,08404.9851,W,0.0000,0.000,120118,,*35
2018-01-12 03:13:11 1515744791.438174: $GPGSA,A,3,2,5,6,12,17,19,24,25,9,23,138,,2.4,0.8,2.1*00
2018-01-12 03:13:12 1515744792.362740: $GPZDA,081313.00,12,01,2018,00,00*67
2018-01-12 03:13:12 1515744792.362926: $GPGGA,081313,3946.9576,N,08404.9851,W,2,11,0.80,295.31,M,-33.324,M,,*7F
2018-01-12 03:13:12 1515744792.362994: $GPRMC,081313,A,3946.9576,N,08404.9851,W,0.0000,0.000,120118,,*34
2018-01-12 03:13:12 1515744792.363054: $GPGSA,A,3,2,5,6,12,17,19,24,25,9,23,138,,2.4,0.8,2.1*00
2018-01-12 03:13:13 1515744793.703247: $GPGSV,3,1,12,02,59,271,48,05,17,195,41,06,72,013,50,12,46,303,50*75
2018-01-12 03:13:13 1515744793.703429: $GPGSV,3,2,12,17,38,096,43,19,55,081,42,24,08,253,37,25,11,321,42*76
2018-01-12 03:13:13 1515744793.703494: $GPGSV,3,3,12,03,01,033,00,09,09,096,28,23,07,063,14,138,38,213,40*4E
2018-01-12 03:13:13 1515744793.816918: $GPZDA,081314.00,12,01,2018,00,00*60
2018-01-12 03:13:13 1515744793.817086: $GPGGA,081314,3946.9576,N,08404.9851,W,2,11,0.80,295.31,M,-33.324,M,,*78
2018-01-12 03:13:13 1515744793.817152: $GPRMC,081314,A,3946.9576,N,08404.9851,W,0.0000,0.000,120118,,*33
2018-01-12 03:13:13 1515744793.817213: $GPGSA,A,3,2,5,6,12,17,19,24,25,9,23,138,,2.4,0.8,2.1*00
2018-01-12 03:13:14 1515744794.365415: $GPZDA,081315.00,12,01,2018,00,00*61
2018-01-12 03:13:14 1515744794.365596: $GPGGA,081315,3946.9576,N,08404.9844,W,2,11,0.80,295.39,M,-33.324,M,,*75
2018-01-12 03:13:14 1515744794.365663: $GPRMC,081315,A,3946.9576,N,08404.9844,W,0.0000,0.000,120118,,*36
2018-01-12 03:13:14 1515744794.365724: $GPGSA,A,3,2,5,6,12,17,19,24,25,9,23,138,,2.4,0.8,2.1*00
2018-01-12 03:13:15 1515744795.368375: $GPZDA,081316.00,12,01,2018,00,00*62
2018-01-12 03:13:15 1515744795.368536: $GPGGA,081316,3946.9576,N,08404.9844,W,2,11,0.80,295.39,M,-33.324,M,,*76
2018-01-12 03:13:15 1515744795.368602: $GPRMC,081316,A,3946.9576,N,08404.9844,W,0.0000,0.000,120118,,*35
2018-01-12 03:13:15 1515744795.368663: $GPGSA,A,3,2,5,6,12,17,19,24,25,9,23,138,,2.4,0.8,2.1*00
