2017-12-01 17:36:27 1512167787.406583: {"class":"VERSION","release":"3.16","rev":"3.16-4","proto_major":3,"proto_minor":11}
2017-12-01 17:36:27 1512167787.407008: {"class":"DEVICES","devices":[{"class":"DEVICE","path":"/dev/ttyUSB0","driver":"SiRF","subtype":"9\u0006GSD4e_4.1.2-P1_RPATCH.05-F-GPS-4R-1510281 11/03/2015 307","activated":"2017-12-01T22:36:27.368Z","flags":1,"native":1,"bps":4800,"parity":"N","stopbits":1,"cycle":1.00}]}
2017-12-01 17:36:27 1512167787.407138: {"class":"WATCH","enable":true,"json":false,"nmea":true,"raw":0,"scaled":false,"timing":false,"split24":false,"pps":false}
2017-12-01 17:36:27 1512167787.482334: $GPZDA,223628.00,01,12,2017,00,00*6F
2017-12-01 17:36:27 1512167787.482506: $GPGGA,223628,3946.9721,N,08404.9842,W,2,11,1.00,300.73,M,-33.325,M,,*79
2017-12-01 17:36:27 1512167787.482573: $GPRMC,223628,A,3946.9721,N,08404.9842,W,0.0000,0.000,011217,,*3E
2017-12-01 17:36:27 1512167787.482634: $GPGSA,A,3,1,3,10,14,22,25,26,31,32,12,138,,2.0,1.0,1.5*0A
2017-12-01 17:36:28 1512167788.484241: $GPZDA,223629.00,01,12,2017,00,00*6E
2017-12-01 17:36:28 1512167788.484417: $GPGGA,223629,3946.9721,N,08404.9842,W,2,11,1.00,300.73,M,-33.325,M,,*78
2017-12-01 17:36:28 1512167788.484504: $GPRMC,223629,A,3946.9721,N,08404.9842,W,0.0000,0.000,011217,,*3F
2017-12-01 17:36:28 1512167788.484567: $GPGSA,A,3,1,3,10,14,22,25,26,31,32,12,138,,2.0,1.0,1.5*0A
2017-12-01 17:36:29 1512167789.798629: $GPGSV,3,1,12,01,17,271,45,03,24,313,44,10,18,157,44,14,68,049,42*75
2017-12-01 17:36:29 1512167789.798811: $GPGSV,3,2,12,22,42,298,48,25,33,054,44,26,30,177,42,31,80,306,45*7A
2017-12-01 17:36:29 1512167789.798879: $GPGSV,3,3,12,32,52,085,45,12,04,031,06,29,01,090,06,138,38,213,45*46
2017-12-01 17:36:29 1512167789.912110: $GPZDA,223630.00,01,12,2017,00,00*66
2017-12-01 17:36:29 1512167789.912241: $GPGGA,223630,3946.9721,N,08404.9842,W,2,11,1.00,300.73,M,-33.325,M,,*70
2017-12-01 17:36:29 1512167789.912306: $GPRMC,223630,A,3946.9721,N,08404.9842,W,0.0000,0.000,011217,,*37
2017-12-01 17:36:29 1512167789.912366: $GPGSA,A,3,1,3,10,14,22,25,26,31,32,12,138,,2.0,1.0,1.5*0A
2017-12-01 17:36:30 1512167790.537634: $GPZDA,223631.00,01,12,2017,00,00*67
2017-12-01 17:36:30 1512167790.537796: $GPGGA,223631,3946.9721,N,08404.9842,W,2,11,1.00,300.73,M,-33.325,M,,*71
2017-12-01 17:36:30 1512167790.537864: $GPRMC,223631,A,3946.9721,N,08404.9842,W,0.0000,0.000,011217,,*36
2017-12-01 17:36:30 1512167790.537929: $GPGSA,A,3,1,3,10,14,22,25,26,31,32,12,138,,2.0,1.0,1.5*0A
2017-12-01 17:36:31 1512167791.483282: $GPZDA,223632.00,01,12,2017,00,00*64
2017-12-01 17:36:31 1512167791.483463: $GPGGA,223632,3946.9721,N,08404.9842,W,2,11,1.00,300.73,M,-33.325,M,,*72
2017-12-01 17:36:31 1512167791.483531: $GPRMC,223632,A,3946.9721,N,08404.9842,W,0.0000,0.000,011217,,*35
2017-12-01 17:36:31 1512167791.483592: $GPGSA,A,3,1,3,10,14,22,25,26,31,32,12,138,,2.0,1.0,1.5*0A
2017-12-01 17:36:32 1512167792.817720: $GPGSV,3,1,12,01,17,271,45,03,24,313,44,10,18,157,44,14,68,049,41*76
2017-12-01 17:36:32 1512167792.817909: $GPGSV,3,2,12,22,42,298,48,25,33,054,43,26,30,177,42,31,80,306,45*7D
2017-12-01 17:36:32 1512167792.817977: $GPGSV,3,3,12,32,52,085,45,12,04,031,10,16,02,190,18,138,38,213,45*40
2017-12-01 17:36:32 1512167792.931161: $GPZDA,223633.00,01,12,2017,00,00*65
2017-12-01 17:36:32 1512167792.931327: $GPGGA,223633,3946.9721,N,08404.9842,W,2,12,1.00,300.73,M,-33.325,M,,*70
2017-12-01 17:36:32 1512167792.931459: $GPRMC,223633,A,3946.9721,N,08404.9842,W,0.0000,0.000,011217,,*34
2017-12-01 17:36:32 1512167792.931521: $GPGSA,A,3,1,3,10,14,22,25,26,31,32,12,16,138,2.0,1.0,1.5*0D
2017-12-01 17:36:33 1512167793.483554: $GPZDA,223634.00,01,12,2017,00,00*62
2017-12-01 17:36:33 1512167793.483726: $GPGGA,223634,3946.9721,N,08404.9842,W,2,12,1.00,300.73,M,-33.325,M,,*77
2017-12-01 17:36:33 1512167793.483793: $GPRMC,223634,A,3946.9721,N,08404.9842,W,0.0000,0.000,011217,,*33
2017-12-01 17:36:33 1512167793.483854: $GPGSA,A,3,1,3,10,14,22,25,26,31,32,12,16,138,2.0,1.0,1.5*0D
2017-12-01 17:36:34 1512167794.482992: $GPZDA,223635.00,01,12,2017,00,00*63
2017-12-01 17:36:34 1512167794.483222: $GPGGA,223635,3946.9721,N,08404.9842,W,2,12,1.00,300.73,M,-33.325,M,,*76
2017-12-01 17:36:34 1512167794.483291: $GPRMC,223635,A,3946.9721,N,08404.9842,W,0.0000,0.000,011217,,*32
2017-12-01 17:36:34 1512167794.483354: $GPGSA,A,3,1,3,10,14,22,25,26,31,32,12,16,138,2.0,1.0,1.5*0D
2017-12-01 17:36:35 1512167795.795555: $GPGSV,3,1,12,01,17,271,45,03,24,313,44,10,18,157,44,14,68,049,40*77
2017-12-01 17:36:35 1512167795.795740: $GPGSV,3,2,12,22,42,298,48,25,33,054,44,26,30,177,43,31,80,306,45*7B
2017-12-01 17:36:35 1512167795.795808: $GPGSV,3,3,12,32,52,085,45,12,04,031,08,16,02,190,18,138,38,213,45*49
2017-12-01 17:36:35 1512167795.908958: $GPZDA,223636.00,01,12,2017,00,00*60
2017-12-01 17:36:35 1512167795.909098: $GPGGA,223636,3946.9721,N,08404.9842,W,2,12,1.00,300.73,M,-33.325,M,,*75
2017-12-01 17:36:35 1512167795.909164: $GPRMC,223636,A,3946.9721,N,08404.9842,W,0.0000,0.000,011217,,*31
2017-12-01 17:36:35 1512167795.909227: $GPGSA,A,3,1,3,10,14,22,25,26,31,32,12,16,138,2.0,1.0,1.5*0D
2017-12-01 17:36:36 1512167796.454861: $GPZDA,223637.00,01,12,2017,00,00*61
2017-12-01 17:36:36 1512167796.455035: $GPGGA,223637,3946.9721,N,08404.9842,W,2,12,1.00,300.73,M,-33.325,M,,*74
2017-12-01 17:36:36 1512167796.455102: $GPRMC,223637,A,3946.9721,N,08404.9842,W,0.0000,0.000,011217,,*30
2017-12-01 17:36:36 1512167796.455162: $GPGSA,A,3,1,3,10,14,22,25,26,31,32,12,16,138,2.0,1.0,1.5*0D
2017-12-01 17:36:37 1512167797.455643: $GPZDA,223638.00,01,12,2017,00,00*6E
2017-12-01 17:36:37 1512167797.455823: $GPGGA,223638,3946.9721,N,08404.9842,W,2,12,1.00,300.73,M,-33.325,M,,*7B
2017-12-01 17:36:37 1512167797.455891: $GPRMC,223638,A,3946.9721,N,08404.9842,W,0.0000,0.000,011217,,*3F
2017-12-01 17:36:37 1512167797.455952: $GPGSA,A,3,1,3,10,14,22,25,26,31,32,12,16,138,2.0,1.0,1.5*0D
2017-12-01 17:36:38 1512167798.797695: $GPGSV,3,1,12,01,17,271,45,03,24,313,45,10,18,157,44,14,68,049,41*77
2017-12-01 17:36:38 1512167798.797878: $GPGSV,3,2,12,22,42,298,48,25,33,054,43,26,30,177,43,31,80,306,45*7C
2017-12-01 17:36:38 1512167798.797946: $GPGSV,3,3,12,32,52,085,45,12,04,031,11,16,02,190,18,138,38,213,46*42
2017-12-01 17:36:38 1512167798.911075: $GPZDA,223639.00,01,12,2017,00,00*6F
2017-12-01 17:36:38 1512167798.911390: $GPGGA,223639,3946.9721,N,08404.9842,W,2,12,1.00,300.73,M,-33.325,M,,*7A
2017-12-01 17:36:38 1512167798.911474: $GPRMC,223639,A,3946.9721,N,08404.9842,W,0.0000,0.000,011217,,*3E
2017-12-01 17:36:38 1512167798.911536: $GPGSA,A,3,1,3,10,14,22,25,26,31,32,12,16,138,2.0,1.0,1.5*0D
2017-12-01 17:36:39 1512167799.460779: $GPZDA,223640.00,01,12,2017,00,00*61
2017-12-01 17:36:39 1512167799.460954: $GPGGA,223640,3946.9721,N,08404.9842,W,2,12,1.00,300.73,M,-33.325,M,,*74
2017-12-01 17:36:39 1512167799.461021: $GPRMC,223640,A,3946.9721,N,08404.9842,W,0.0000,0.000,011217,,*30
2017-12-01 17:36:39 1512167799.461082: $GPGSA,A,3,1,3,10,14,22,25,26,31,32,12,16,138,2.0,1.0,1.5*0D
2017-12-01 17:36:40 1512167800.459770: $GPZDA,223641.00,01,12,2017,00,00*60
2017-12-01 17:36:40 1512167800.459941: $GPGGA,223641,3946.9721,N,08404.9842,W,2,12,1.00,300.73,M,-33.325,M,,*75
2017-12-01 17:36:40 1512167800.460008: $GPRMC,223641,A,3946.9721,N,08404.9842,W,0.0000,0.000,011217,,*31
2017-12-01 17:36:40 1512167800.460069: $GPGSA,A,3,1,3,10,14,22,25,26,31,32,12,16,138,2.0,1.0,1.5*0D
2017-12-01 17:36:41 1512167801.800465: $GPGSV,3,1,12,01,17,271,45,03,24,313,44,10,18,157,44,14,68,049,41*76
2017-12-01 17:36:41 1512167801.800652: $GPGSV,3,2,12,22,42,298,48,25,33,054,43,26,30,177,43,31,80,306,46*7F
2017-12-01 17:36:41 1512167801.800741: $GPGSV,3,3,12,32,52,085,45,12,04,031,11,16,02,190,18,138,38,213,46*42
2017-12-01 17:36:41 1512167801.913831: $GPZDA,223642.00,01,12,2017,00,00*63
2017-12-01 17:36:41 1512167801.913979: $GPGGA,223642,3946.9721,N,08404.9842,W,2,12,1.00,300.73,M,-33.325,M,,*76
2017-12-01 17:36:41 1512167801.914043: $GPRMC,223642,A,3946.9721,N,08404.9842,W,0.0000,0.000,011217,,*32
2017-12-01 17:36:41 1512167801.914104: $GPGSA,A,3,1,3,10,14,22,25,26,31,32,12,16,138,2.0,1.0,1.5*0D
2017-12-01 17:36:42 1512167802.462240: $GPZDA,223643.00,01,12,2017,00,00*62
2017-12-01 17:36:42 1512167802.462460: $GPGGA,223643,3946.9721,N,08404.9842,W,2,12,1.00,300.73,M,-33.325,M,,*77
2017-12-01 17:36:42 1512167802.462529: $GPRMC,223643,A,3946.9721,N,08404.9842,W,0.0000,0.000,011217,,*33
2017-12-01 17:36:42 1512167802.462610: $GPGSA,A,3,1,3,10,14,22,25,26,31,32,12,16,138,2.0,1.0,1.5*0D
2017-12-01 17:36:43 1512167803.464317: $GPZDA,223644.00,01,12,2017,00,00*65
2017-12-01 17:36:43 1512167803.464494: $GPGGA,223644,3946.9721,N,08404.9842,W,2,12,1.00,300.73,M,-33.325,M,,*70
2017-12-01 17:36:43 1512167803.464563: $GPRMC,223644,A,3946.9721,N,08404.9842,W,0.0000,0.000,011217,,*34
2017-12-01 17:36:43 1512167803.464624: $GPGSA,A,3,1,3,10,14,22,25,26,31,32,12,16,138,2.0,1.0,1.5*0D
2017-12-01 17:36:44 1512167804.790038: $GPGSV,3,1,12,01,17,271,45,03,24,313,44,10,18,157,44,14,68,049,41*76
2017-12-01 17:36:44 1512167804.790221: $GPGSV,3,2,12,22,42,298,48,25,33,054,42,26,30,177,43,31,80,306,46*7E
2017-12-01 17:36:44 1512167804.790288: $GPGSV,3,3,12,32,52,085,45,12,04,031,19,16,02,190,18,138,38,213,46*4A
2017-12-01 17:36:44 1512167804.903401: $GPZDA,223645.00,01,12,2017,00,00*64
2017-12-01 17:36:44 1512167804.903577: $GPGGA,223645,3946.9721,N,08404.9842,W,2,12,1.00,300.73,M,-33.325,M,,*71
2017-12-01 17:36:44 1512167804.903643: $GPRMC,223645,A,3946.9721,N,08404.9842,W,0.0000,0.000,011217,,*35
2017-12-01 17:36:44 1512167804.903704: $GPGSA,A,3,1,3,10,14,22,25,26,31,32,12,16,138,2.0,1.0,1.5*0D
2017-12-01 17:36:45 1512167805.528898: $GPZDA,223646.00,01,12,2017,00,00*67
2017-12-01 17:36:45 1512167805.529069: $GPGGA,223646,3946.9721,N,08404.9842,W,2,12,1.00,300.73,M,-33.325,M,,*72
2017-12-01 17:36:45 1512167805.529136: $GPRMC,223646,A,3946.9721,N,08404.9842,W,0.0000,0.000,011217,,*36
2017-12-01 17:36:45 1512167805.529197: $GPGSA,A,3,1,3,10,14,22,25,26,31,32,12,16,138,2.0,1.0,1.5*0D
2017-12-01 17:36:46 1512167806.460999: $GPZDA,223647.00,01,12,2017,00,00*66
2017-12-01 17:36:46 1512167806.461170: $GPGGA,223647,3946.9721,N,08404.9842,W,2,12,1.00,300.73,M,-33.325,M,,*73
2017-12-01 17:36:46 1512167806.461237: $GPRMC,223647,A,3946.9721,N,08404.9842,W,0.0000,0.000,011217,,*37
2017-12-01 17:36:46 1512167806.461299: $GPGSA,A,3,1,3,10,14,22,25,26,31,32,12,16,138,2.0,1.0,1.5*0D
