2017-11-16 13:23:00 1510856580.477478: {"class":"VERSION","release":"3.17","rev":"3.17","proto_major":3,"proto_minor":12}
2017-11-16 13:23:00 1510856580.477943: {"class":"DEVICES","devices":[{"class":"DEVICE","path":"/dev/ttyUSB0","driver":"SiRF","subtype":"9\u0006GSD4e_4.1.2-P1_RPATCH.05-F-GPS-4R-1510281 11/03/2015 307","activated":"2017-11-16T18:23:00.165Z","flags":1,"native":1,"bps":4800,"parity":"N","stopbits":1,"cycle":1.00}]}
2017-11-16 13:23:00 1510856580.478058: {"class":"WATCH","enable":true,"json":false,"nmea":true,"raw":0,"scaled":false,"timing":false,"split24":false,"pps":false}
2017-11-16 13:23:00 1510856580.613441: $GPGSV,3,1,12,10,24,283,44,13,28,045,46,15,59,051,50,18,55,301,47*7C
2017-11-16 13:23:00 1510856580.613610: $GPGSV,3,2,12,20,50,073,48,21,78,264,46,24,35,138,40,27,17,312,38*7C
2017-11-16 13:23:00 1510856580.613669: $GPGSV,3,3,12,05,03,088,00,29,08,189,35,32,02,226,21,138,38,213,44*4E
2017-11-16 13:23:00 1510856580.726745: $GPZDA,182259.00,16,11,2017,00,00*60
2017-11-16 13:23:00 1510856580.726901: $GPGGA,182259,3946.9610,N,08404.9852,W,2,11,0.80,301.84,M,-33.324,M,,*70
2017-11-16 13:23:00 1510856580.726961: $GPRMC,182259,A,3946.9610,N,08404.9852,W,0.0000,0.000,161117,,*33
2017-11-16 13:23:00 1510856580.727016: $GPGSA,A,3,10,13,15,18,20,21,24,27,29,32,138,,1.6,0.8,1.3*03
2017-11-16 13:23:01 1510856581.282579: $GPZDA,182300.00,16,11,2017,00,00*6D
2017-11-16 13:23:01 1510856581.282749: $GPGGA,182300,3946.9610,N,08404.9852,W,2,11,0.80,301.84,M,-33.324,M,,*7D
2017-11-16 13:23:01 1510856581.282811: $GPRMC,182300,A,3946.9610,N,08404.9852,W,0.0000,0.000,161117,,*3E
2017-11-16 13:23:01 1510856581.282867: $GPGSA,A,3,10,13,15,18,20,21,24,27,29,32,138,,1.6,0.8,1.3*03
2017-11-16 13:23:02 1510856582.282172: $GPZDA,182301.00,16,11,2017,00,00*6C
2017-11-16 13:23:02 1510856582.282346: $GPGGA,182301,3946.9610,N,08404.9852,W,2,11,0.80,301.84,M,-33.324,M,,*7C
2017-11-16 13:23:02 1510856582.282409: $GPRMC,182301,A,3946.9610,N,08404.9852,W,0.0000,0.000,161117,,*3F
2017-11-16 13:23:02 1510856582.282465: $GPGSA,A,3,10,13,15,18,20,21,24,27,29,32,138,,1.6,0.8,1.3*03
2017-11-16 13:23:03 1510856583.616666: $GPGSV,3,1,12,10,24,283,45,13,28,045,46,15,59,051,50,18,55,301,47*7D
2017-11-16 13:23:03 1510856583.616837: $GPGSV,3,2,12,20,50,073,48,21,78,264,46,24,35,138,39,27,17,312,40*7D
2017-11-16 13:23:03 1510856583.616898: $GPGSV,3,3,12,05,03,088,00,29,08,189,35,32,02,226,20,138,38,213,45*4E
2017-11-16 13:23:03 1510856583.729997: $GPZDA,182302.00,16,11,2017,00,00*6F
2017-11-16 13:23:03 1510856583.730165: $GPGGA,182302,3946.9610,N,08404.9852,W,2,11,0.80,301.84,M,-33.324,M,,*7F
2017-11-16 13:23:03 1510856583.730226: $GPRMC,182302,A,3946.9610,N,08404.9852,W,0.0000,0.000,161117,,*3C
2017-11-16 13:23:03 1510856583.730360: $GPGSA,A,3,10,13,15,18,20,21,24,27,29,32,138,,1.6,0.8,1.3*03
2017-11-16 13:23:04 1510856584.280891: $GPZDA,182303.00,16,11,2017,00,00*6E
2017-11-16 13:23:04 1510856584.281067: $GPGGA,182303,3946.9610,N,08404.9852,W,2,11,0.80,301.84,M,-33.324,M,,*7E
2017-11-16 13:23:04 1510856584.281130: $GPRMC,182303,A,3946.9610,N,08404.9852,W,0.0000,0.000,161117,,*3D
2017-11-16 13:23:04 1510856584.281187: $GPGSA,A,3,10,13,15,18,20,21,24,27,29,32,138,,1.6,0.8,1.3*03
2017-11-16 13:23:05 1510856585.281181: $GPZDA,182304.00,16,11,2017,00,00*69
2017-11-16 13:23:05 1510856585.281334: $GPGGA,182304,3946.9610,N,08404.9852,W,2,11,0.80,301.84,M,-33.324,M,,*79
2017-11-16 13:23:05 1510856585.281395: $GPRMC,182304,A,3946.9610,N,08404.9852,W,0.0000,0.000,161117,,*3A
2017-11-16 13:23:05 1510856585.281451: $GPGSA,A,3,10,13,15,18,20,21,24,27,29,32,138,,1.6,0.8,1.3*03
2017-11-16 13:23:06 1510856586.619562: $GPGSV,3,1,12,10,24,283,45,13,28,045,46,15,59,051,50,18,55,301,47*7D
2017-11-16 13:23:06 1510856586.619804: $GPGSV,3,2,12,20,50,073,48,21,78,264,47,24,35,138,39,27,17,312,40*7C
2017-11-16 13:23:06 1510856586.619872: $GPGSV,3,3,12,05,03,088,00,29,08,189,35,32,02,226,20,138,38,213,44*4F
2017-11-16 13:23:06 1510856586.732682: $GPZDA,182305.00,16,11,2017,00,00*68
2017-11-16 13:23:06 1510856586.732840: $GPGGA,182305,3946.9610,N,08404.9852,W,2,11,0.80,301.84,M,-33.324,M,,*78
2017-11-16 13:23:06 1510856586.732959: $GPRMC,182305,A,3946.9610,N,08404.9852,W,0.0000,0.000,161117,,*3B
2017-11-16 13:23:06 1510856586.733017: $GPGSA,A,3,10,13,15,18,20,21,24,27,29,32,138,,1.6,0.8,1.3*03
2017-11-16 13:23:07 1510856587.284803: $GPZDA,182306.00,16,11,2017,00,00*6B
2017-11-16 13:23:07 1510856587.284965: $GPGGA,182306,3946.9610,N,08404.9852,W,2,11,0.80,301.84,M,-33.324,M,,*7B
2017-11-16 13:23:07 1510856587.285045: $GPRMC,182306,A,3946.9610,N,08404.9852,W,0.0000,0.000,161117,,*38
2017-11-16 13:23:07 1510856587.285103: $GPGSA,A,3,10,13,15,18,20,21,24,27,29,32,138,,1.6,0.8,1.3*03
2017-11-16 13:23:08 1510856588.275612: $GPZDA,182307.00,16,11,2017,00,00*6A
2017-11-16 13:23:08 1510856588.275784: $GPGGA,182307,3946.9610,N,08404.9852,W,2,11,0.80,301.84,M,-33.324,M,,*7A
2017-11-16 13:23:08 1510856588.275846: $GPRMC,182307,A,3946.9610,N,08404.9852,W,0.0000,0.000,161117,,*39
2017-11-16 13:23:08 1510856588.275902: $GPGSA,A,3,10,13,15,18,20,21,24,27,29,32,138,,1.6,0.8,1.3*03
2017-11-16 13:23:09 1510856589.617677: $GPGSV,3,1,12,10,24,283,44,13,28,045,45,15,59,051,50,18,55,301,47*7F
2017-11-16 13:23:09 1510856589.617849: $GPGSV,3,2,12,20,50,073,48,21,78,264,46,24,35,138,39,27,17,312,41*7C
2017-11-16 13:23:09 1510856589.617910: $GPGSV,3,3,12,05,03,088,00,29,08,189,34,32,02,226,22,138,38,213,44*4C
2017-11-16 13:23:09 1510856589.731369: $GPZDA,182308.00,16,11,2017,00,00*65
2017-11-16 13:23:09 1510856589.735420: $GPGGA,182308,3946.9610,N,08404.9852,W,2,11,0.80,301.84,M,-33.324,M,,*75
2017-11-16 13:23:09 1510856589.735516: $GPRMC,182308,A,3946.9610,N,08404.9852,W,0.0000,0.000,161117,,*36
2017-11-16 13:23:09 1510856589.735594: $GPGSA,A,3,10,13,15,18,20,21,24,27,29,32,138,,1.6,0.8,1.3*03
2017-11-16 13:23:10 1510856590.357745: $GPZDA,182309.00,16,11,2017,00,00*64
2017-11-16 13:23:10 1510856590.357908: $GPGGA,182309,3946.9610,N,08404.9852,W,2,11,0.80,301.84,M,-33.324,M,,*74
2017-11-16 13:23:10 1510856590.357968: $GPRMC,182309,A,3946.9610,N,08404.9852,W,0.0000,0.000,161117,,*37
2017-11-16 13:23:10 1510856590.358023: $GPGSA,A,3,10,13,15,18,20,21,24,27,29,32,138,,1.6,0.8,1.3*03
2017-11-16 13:23:11 1510856591.299682: $GPZDA,182310.00,16,11,2017,00,00*6C
2017-11-16 13:23:11 1510856591.299844: $GPGGA,182310,3946.9610,N,08404.9852,W,2,11,0.80,301.84,M,-33.324,M,,*7C
2017-11-16 13:23:11 1510856591.299906: $GPRMC,182310,A,3946.9610,N,08404.9852,W,0.0000,0.000,161117,,*3F
2017-11-16 13:23:11 1510856591.299962: $GPGSA,A,3,10,13,15,18,20,21,24,27,29,32,138,,1.6,0.8,1.3*03
2017-11-16 13:23:12 1510856592.639135: $GPGSV,3,1,12,10,24,283,44,13,28,045,45,15,59,051,50,18,55,301,47*7F
2017-11-16 13:23:12 1510856592.639305: $GPGSV,3,2,12,20,50,073,48,21,78,264,46,24,35,138,40,27,17,312,42*71
2017-11-16 13:23:12 1510856592.639366: $GPGSV,3,3,12,05,03,088,02,29,08,189,34,32,02,226,23,138,38,213,45*4E
2017-11-16 13:23:12 1510856592.752627: $GPZDA,182311.00,16,11,2017,00,00*6D
2017-11-16 13:23:12 1510856592.752858: $GPGGA,182311,3946.9610,N,08404.9852,W,2,11,0.80,301.84,M,-33.324,M,,*7D
2017-11-16 13:23:12 1510856592.752924: $GPRMC,182311,A,3946.9610,N,08404.9852,W,0.0000,0.000,161117,,*3E
2017-11-16 13:23:12 1510856592.752981: $GPGSA,A,3,10,13,15,18,20,21,24,27,29,32,138,,1.6,0.8,1.3*03
2017-11-16 13:23:13 1510856593.282070: $GPZDA,182312.00,16,11,2017,00,00*6E
2017-11-16 13:23:13 1510856593.282232: $GPGGA,182312,3946.9610,N,08404.9852,W,2,11,0.80,301.84,M,-33.324,M,,*7E
2017-11-16 13:23:13 1510856593.282293: $GPRMC,182312,A,3946.9610,N,08404.9852,W,0.0000,0.000,161117,,*3D
2017-11-16 13:23:13 1510856593.282349: $GPGSA,A,3,10,13,15,18,20,21,24,27,29,32,138,,1.6,0.8,1.3*03
2017-11-16 13:23:14 1510856594.280549: $GPZDA,182313.00,16,11,2017,00,00*6F
2017-11-16 13:23:14 1510856594.280837: $GPGGA,182313,3946.9610,N,08404.9852,W,2,11,0.80,301.84,M,-33.324,M,,*7F
2017-11-16 13:23:14 1510856594.280938: $GPRMC,182313,A,3946.9610,N,08404.9852,W,0.0000,0.000,161117,,*3C
2017-11-16 13:23:14 1510856594.281050: $GPGSA,A,3,10,13,15,18,20,21,24,27,29,32,138,,1.6,0.8,1.3*03
