2017-12-31 17:47:08 1514760428.206071: {"class":"VERSION","release":"3.16","rev":"3.16-4","proto_major":3,"proto_minor":11}
2017-12-31 17:47:08 1514760428.206406: {"class":"DEVICES","devices":[{"class":"DEVICE","path":"/dev/ttyUSB0","driver":"SiRF","activated":"2017-12-31T22:47:08.160Z","flags":1,"native":1,"bps":4800,"parity":"N","stopbits":1,"cycle":1.00}]}
2017-12-31 17:47:08 1514760428.206504: {"class":"WATCH","enable":true,"json":false,"nmea":true,"raw":0,"scaled":false,"timing":false,"split24":false,"pps":false}
2017-12-31 17:47:08 1514760428.337729: $GPZDA,224709.00,31,12,2017,00,00*69
2017-12-31 17:47:08 1514760428.337881: $GPGGA,224709,3946.9582,N,08404.9863,W,2,12,0.60,305.06,M,-33.324,M,,*76
2017-12-31 17:47:08 1514760428.337946: $GPRMC,224709,A,3946.9582,N,08404.9863,W,0.0000,0.000,311217,,*30
2017-12-31 17:47:08 1514760428.338006: $GPGSA,A,3,22,23,9,3,16,29,14,31,27,32,26,135,1.7,0.6,1.3*07
2017-12-31 17:47:08 1514760428.338064: $GPGBS,224709,2.22,M,3.43,M,7.66,M*35
2017-12-31 17:47:09 1514760429.680977: $GPGSV,3,1,12,22,30,220,45,23,45,309,45,09,12,312,42,03,39,244,45*77
2017-12-31 17:47:09 1514760429.681162: $GPGSV,3,2,12,16,69,192,44,29,10,037,39,14,24,127,26,31,35,067,41*7E
2017-12-31 17:47:09 1514760429.681228: $GPGSV,3,3,12,27,13,159,26,32,03,132,17,26,71,061,46,135,22,240,44*46
2017-12-31 17:47:09 1514760429.794359: $GPZDA,224710.00,31,12,2017,00,00*61
2017-12-31 17:47:09 1514760429.794481: $GPGGA,224710,3946.9582,N,08404.9863,W,2,12,0.60,305.06,M,-33.324,M,,*7E
2017-12-31 17:47:09 1514760429.794544: $GPRMC,224710,A,3946.9582,N,08404.9863,W,0.0000,0.000,311217,,*38
2017-12-31 17:47:09 1514760429.794603: $GPGSA,A,3,22,23,9,3,16,29,14,31,27,32,26,135,1.7,0.6,1.3*07
2017-12-31 17:47:10 1514760430.421073: $GPZDA,224711.00,31,12,2017,00,00*60
2017-12-31 17:47:10 1514760430.421235: $GPGGA,224711,3946.9582,N,08404.9863,W,2,12,0.60,305.06,M,-33.324,M,,*7F
2017-12-31 17:47:10 1514760430.421300: $GPRMC,224711,A,3946.9582,N,08404.9863,W,0.0000,0.000,311217,,*39
2017-12-31 17:47:10 1514760430.421360: $GPGSA,A,3,22,23,9,3,16,29,14,31,27,32,26,135,1.7,0.6,1.3*07
2017-12-31 17:47:11 1514760431.370801: $GPZDA,224712.00,31,12,2017,00,00*63
2017-12-31 17:47:11 1514760431.370973: $GPGGA,224712,3946.9582,N,08404.9863,W,2,12,0.60,305.06,M,-33.324,M,,*7C
2017-12-31 17:47:11 1514760431.371039: $GPRMC,224712,A,3946.9582,N,08404.9863,W,0.0000,0.000,311217,,*3A
2017-12-31 17:47:11 1514760431.371100: $GPGSA,A,3,22,23,9,3,16,29,14,31,27,32,26,135,1.7,0.6,1.3*07
2017-12-31 17:47:12 1514760432.681386: $GPGSV,3,1,12,22,30,220,45,23,45,309,45,09,12,312,42,03,39,244,45*77
2017-12-31 17:47:12 1514760432.681564: $GPGSV,3,2,12,16,69,192,44,29,10,037,39,14,24,127,26,31,35,067,41*7E
2017-12-31 17:47:12 1514760432.681629: $GPGSV,3,3,12,27,13,159,26,32,03,132,17,26,71,061,47,135,22,240,44*47
2017-12-31 17:47:12 1514760432.794792: $GPZDA,224713.00,31,12,2017,00,00*62
2017-12-31 17:47:12 1514760432.794961: $GPGGA,224713,3946.9582,N,08404.9863,W,2,12,0.60,305.06,M,-33.324,M,,*7D
2017-12-31 17:47:12 1514760432.795027: $GPRMC,224713,A,3946.9582,N,08404.9863,W,0.0000,0.000,311217,,*3B
2017-12-31 17:47:12 1514760432.795088: $GPGSA,A,3,22,23,9,3,16,29,14,31,27,32,26,135,1.7,0.6,1.3*07
2017-12-31 17:47:13 1514760433.598311: $GPZDA,224714.00,31,12,2017,00,00*65
2017-12-31 17:47:13 1514760433.598472: $GPGGA,224714,3946.9582,N,08404.9863,W,2,12,0.60,305.06,M,-33.324,M,,*7A
2017-12-31 17:47:13 1514760433.598538: $GPRMC,224714,A,3946.9582,N,08404.9863,W,0.0000,0.000,311217,,*3C
2017-12-31 17:47:13 1514760433.598597: $GPGSA,A,3,22,23,9,3,16,29,14,31,27,32,26,135,1.7,0.6,1.3*07
2017-12-31 17:47:13 1514760433.598655: $GPGBS,224714,2.22,M,3.43,M,7.66,M*39
2017-12-31 17:47:14 1514760434.339084: $GPZDA,224715.00,31,12,2017,00,00*64
2017-12-31 17:47:14 1514760434.339261: $GPGGA,224715,3946.9582,N,08404.9863,W,2,12,0.60,305.06,M,-33.324,M,,*7B
2017-12-31 17:47:14 1514760434.339327: $GPRMC,224715,A,3946.9582,N,08404.9863,W,0.0000,0.000,311217,,*3D
2017-12-31 17:47:14 1514760434.339388: $GPGSA,A,3,22,23,9,3,16,29,14,31,27,32,26,135,1.7,0.6,1.3*07
2017-12-31 17:47:14 1514760434.339501: $GPGBS,224715,2.22,M,3.43,M,7.66,M*38
2017-12-31 17:47:15 1514760435.681662: $GPGSV,3,1,12,22,30,220,45,23,45,309,45,09,12,312,42,03,38,244,45*76
2017-12-31 17:47:15 1514760435.681828: $GPGSV,3,2,12,16,69,192,44,29,10,037,40,14,23,127,26,31,35,067,40*76
2017-12-31 17:47:15 1514760435.681893: $GPGSV,3,3,12,27,13,159,27,32,03,132,17,26,71,061,47,135,22,240,44*46
2017-12-31 17:47:15 1514760435.795194: $GPZDA,224716.00,31,12,2017,00,00*67
2017-12-31 17:47:15 1514760435.795367: $GPGGA,224716,3946.9582,N,08404.9863,W,2,12,0.60,305.06,M,-33.324,M,,*78
2017-12-31 17:47:15 1514760435.795434: $GPRMC,224716,A,3946.9582,N,08404.9863,W,0.0000,0.000,311217,,*3E
2017-12-31 17:47:15 1514760435.795494: $GPGSA,A,3,22,23,9,3,16,29,14,31,27,32,26,135,1.7,0.6,1.3*07
2017-12-31 17:47:16 1514760436.346217: $GPZDA,224717.00,31,12,2017,00,00*66
2017-12-31 17:47:16 1514760436.346385: $GPGGA,224717,3946.9582,N,08404.9863,W,2,12,0.60,305.06,M,-33.324,M,,*79
2017-12-31 17:47:16 1514760436.346450: $GPRMC,224717,A,3946.9582,N,08404.9863,W,0.0000,0.000,311217,,*3F
2017-12-31 17:47:16 1514760436.346511: $GPGSA,A,3,22,23,9,3,16,29,14,31,27,32,26,135,1.7,0.6,1.3*07
2017-12-31 17:47:17 1514760437.371908: $GPZDA,224718.00,31,12,2017,00,00*69
2017-12-31 17:47:17 1514760437.372084: $GPGGA,224718,3946.9582,N,08404.9863,W,2,12,0.60,305.06,M,-33.324,M,,*76
2017-12-31 17:47:17 1514760437.372150: $GPRMC,224718,A,3946.9582,N,08404.9863,W,0.0000,0.000,311217,,*30
2017-12-31 17:47:17 1514760437.372210: $GPGSA,A,3,22,23,9,3,16,29,14,31,27,32,26,135,1.7,0.6,1.3*07
