2017-11-16 16:50:01 1510869001.430394: {"class":"VERSION","release":"3.17","rev":"3.17","proto_major":3,"proto_minor":12}
2017-11-16 16:50:01 1510869001.430876: {"class":"DEVICES","devices":[{"class":"DEVICE","path":"/dev/ttyUSB0","driver":"SiRF","subtype":"9\u0006GSD4e_4.1.2-P1_RPATCH.05-F-GPS-4R-1510281 11/03/2015 307","activated":"2017-11-16T21:50:01.331Z","flags":1,"native":1,"bps":4800,"parity":"N","stopbits":1,"cycle":1.00}]}
2017-11-16 16:50:01 1510869001.430994: {"class":"WATCH","enable":true,"json":false,"nmea":true,"raw":0,"scaled":false,"timing":false,"split24":false,"pps":false}
2017-11-16 16:50:01 1510869001.443848: $GPZDA,215000.00,16,11,2017,00,00*63
2017-11-16 16:50:01 1510869001.443959: $GPGGA,215000,3946.9581,N,08404.9823,W,2,12,0.80,308.35,M,-33.324,M,,*7E
2017-11-16 16:50:01 1510869001.444018: $GPRMC,215000,A,3946.9581,N,08404.9823,W,0.0000,0.000,161117,,*3D
2017-11-16 16:50:01 1510869001.444072: $GPGSA,A,3,1,10,11,12,14,18,24,25,31,32,22,138,1.6,0.8,1.3*38
2017-11-16 16:50:02 1510869002.797208: $GPGSV,3,1,12,01,14,318,36,10,68,133,48,11,11,300,28,12,25,070,46*79
2017-11-16 16:50:02 1510869002.797355: $GPGSV,3,2,12,14,56,294,45,18,36,136,44,24,13,045,43,25,30,112,42*79
2017-11-16 16:50:02 1510869002.797415: $GPGSV,3,3,12,31,35,213,46,32,68,331,51,22,03,310,31,138,38,213,45*45
2017-11-16 16:50:02 1510869002.910499: $GPZDA,215001.00,16,11,2017,00,00*62
2017-11-16 16:50:02 1510869002.910646: $GPGGA,215001,3946.9581,N,08404.9823,W,2,12,0.80,308.35,M,-33.324,M,,*7F
2017-11-16 16:50:02 1510869002.910705: $GPRMC,215001,A,3946.9581,N,08404.9823,W,0.0000,0.000,161117,,*3C
2017-11-16 16:50:02 1510869002.910760: $GPGSA,A,3,1,10,11,12,14,18,24,25,31,32,22,138,1.6,0.8,1.3*38
2017-11-16 16:50:03 1510869003.446701: $GPZDA,215002.00,16,11,2017,00,00*61
2017-11-16 16:50:03 1510869003.446863: $GPGGA,215002,3946.9581,N,08404.9823,W,2,12,0.80,308.35,M,-33.324,M,,*7C
2017-11-16 16:50:03 1510869003.446925: $GPRMC,215002,A,3946.9581,N,08404.9823,W,0.0000,0.000,161117,,*3F
2017-11-16 16:50:03 1510869003.446981: $GPGSA,A,3,1,10,11,12,14,18,24,25,31,32,22,138,1.6,0.8,1.3*38
2017-11-16 16:50:04 1510869004.456274: $GPZDA,215003.00,16,11,2017,00,00*60
2017-11-16 16:50:04 1510869004.456437: $GPGGA,215003,3946.9581,N,08404.9823,W,2,12,0.80,308.35,M,-33.324,M,,*7D
2017-11-16 16:50:04 1510869004.456497: $GPRMC,215003,A,3946.9581,N,08404.9823,W,0.0000,0.000,161117,,*3E
2017-11-16 16:50:04 1510869004.456553: $GPGSA,A,3,1,10,11,12,14,18,24,25,31,32,22,138,1.6,0.8,1.3*38
2017-11-16 16:50:05 1510869005.780506: $GPGSV,3,1,12,01,14,318,35,10,68,133,48,11,11,300,28,12,25,070,46*7A
2017-11-16 16:50:05 1510869005.780652: $GPGSV,3,2,12,14,56,294,45,18,36,136,43,24,13,045,43,25,30,112,42*7E
2017-11-16 16:50:05 1510869005.780713: $GPGSV,3,3,12,31,35,213,46,32,68,331,51,22,03,310,29,138,38,213,45*4C
2017-11-16 16:50:05 1510869005.893794: $GPZDA,215004.00,16,11,2017,00,00*67
2017-11-16 16:50:05 1510869005.893966: $GPGGA,215004,3946.9581,N,08404.9823,W,2,12,0.80,308.35,M,-33.324,M,,*7A
2017-11-16 16:50:05 1510869005.894029: $GPRMC,215004,A,3946.9581,N,08404.9823,W,0.0000,0.000,161117,,*39
2017-11-16 16:50:05 1510869005.894085: $GPGSA,A,3,1,10,11,12,14,18,24,25,31,32,22,138,1.6,0.8,1.3*38
2017-11-16 16:50:06 1510869006.519164: $GPZDA,215005.00,16,11,2017,00,00*66
2017-11-16 16:50:06 1510869006.519334: $GPGGA,215005,3946.9581,N,08404.9823,W,2,12,0.80,308.35,M,-33.324,M,,*7B
2017-11-16 16:50:06 1510869006.519395: $GPRMC,215005,A,3946.9581,N,08404.9823,W,0.0000,0.000,161117,,*38
2017-11-16 16:50:06 1510869006.519451: $GPGSA,A,3,1,10,11,12,14,18,24,25,31,32,22,138,1.6,0.8,1.3*38
2017-11-16 16:50:07 1510869007.462550: $GPZDA,215006.00,16,11,2017,00,00*65
2017-11-16 16:50:07 1510869007.462720: $GPGGA,215006,3946.9581,N,08404.9823,W,2,12,0.80,308.35,M,-33.324,M,,*78
2017-11-16 16:50:07 1510869007.462784: $GPRMC,215006,A,3946.9581,N,08404.9823,W,0.0000,0.000,161117,,*3B
2017-11-16 16:50:07 1510869007.462840: $GPGSA,A,3,1,10,11,12,14,18,24,25,31,32,22,138,1.6,0.8,1.3*38
2017-11-16 16:50:08 1510869008.798423: $GPGSV,3,1,12,01,14,318,35,10,68,133,48,11,11,300,29,12,25,070,46*7B
2017-11-16 16:50:08 1510869008.798638: $GPGSV,3,2,12,14,56,294,46,18,36,136,43,24,13,045,43,25,30,112,42*7D
2017-11-16 16:50:08 1510869008.798701: $GPGSV,3,3,12,31,35,213,46,32,68,331,51,22,03,310,27,138,38,213,44*43
2017-11-16 16:50:08 1510869008.911610: $GPZDA,215007.00,16,11,2017,00,00*64
2017-11-16 16:50:08 1510869008.911772: $GPGGA,215007,3946.9581,N,08404.9823,W,2,12,0.80,308.35,M,-33.324,M,,*79
2017-11-16 16:50:08 1510869008.911834: $GPRMC,215007,A,3946.9581,N,08404.9823,W,0.0000,0.000,161117,,*3A
2017-11-16 16:50:08 1510869008.911890: $GPGSA,A,3,1,10,11,12,14,18,24,25,31,32,22,138,1.6,0.8,1.3*38
2017-11-16 16:50:09 1510869009.445107: $GPZDA,215008.00,16,11,2017,00,00*6B
2017-11-16 16:50:09 1510869009.445277: $GPGGA,215008,3946.9581,N,08404.9823,W,2,12,0.80,308.35,M,-33.324,M,,*76
2017-11-16 16:50:09 1510869009.445339: $GPRMC,215008,A,3946.9581,N,08404.9823,W,0.0000,0.000,161117,,*35
2017-11-16 16:50:09 1510869009.445394: $GPGSA,A,3,1,10,11,12,14,18,24,25,31,32,22,138,1.6,0.8,1.3*38
2017-11-16 16:50:10 1510869010.444686: $GPZDA,215009.00,16,11,2017,00,00*6A
2017-11-16 16:50:10 1510869010.444860: $GPGGA,215009,3946.9581,N,08404.9823,W,2,12,0.80,308.35,M,-33.324,M,,*77
2017-11-16 16:50:10 1510869010.444921: $GPRMC,215009,A,3946.9581,N,08404.9823,W,0.0000,0.000,161117,,*34
2017-11-16 16:50:10 1510869010.444977: $GPGSA,A,3,1,10,11,12,14,18,24,25,31,32,22,138,1.6,0.8,1.3*38
