2017-12-01 11:55:05 1512147305.796886: {"class":"VERSION","release":"3.16","rev":"3.16-4","proto_major":3,"proto_minor":11}
2017-12-01 11:55:05 1512147305.797430: {"class":"DEVICES","devices":[{"class":"DEVICE","path":"/dev/ttyUSB0","driver":"SiRF","subtype":"9\u0006GSD4e_4.1.2-P1_RPATCH.05-F-GPS-4R-1510281 11/03/2015 307","activated":"2017-12-01T16:55:05.772Z","flags":1,"native":1,"bps":4800,"parity":"N","stopbits":1,"cycle":1.00}]}
2017-12-01 11:55:05 1512147305.797565: {"class":"WATCH","enable":true,"json":false,"nmea":true,"raw":0,"scaled":false,"timing":false,"split24":false,"pps":false}
2017-12-01 11:55:06 1512147306.667346: $GPZDA,165507.11,01,12,2017,00,00*60
2017-12-01 11:55:06 1512147306.667518: $GPGGA,165507,3946.9599,N,08404.9866,W,1,11,1.00,299.76,M,-33.324,M,,*77
2017-12-01 11:55:06 1512147306.667584: $GPRMC,165507,A,3946.9599,N,08404.9866,W,0.0407,142.014,011217,,*37
2017-12-01 11:55:06 1512147306.667645: $GPGSA,A,3,13,15,18,20,21,24,27,29,5,10,138,,2.0,1.0,1.5*3D
2017-12-01 11:55:07 1512147307.874943: $GPGSV,3,1,12,13,38,048,46,15,71,060,45,18,47,291,43,20,59,058,45*7F
2017-12-01 11:55:07 1512147307.875110: $GPGSV,3,2,12,21,72,300,45,24,25,145,46,27,12,321,38,29,19,193,46*7B
2017-12-01 11:55:07 1512147307.875177: $GPGSV,3,3,12,05,10,081,08,10,17,276,22,04,08,132,00,138,38,213,00*46
2017-12-01 11:55:07 1512147307.988321: $GPZDA,165508.00,01,12,2017,00,00*6F
2017-12-01 11:55:07 1512147307.988490: $GPGGA,165508,3946.9599,N,08404.9866,W,1,09,0.80,299.76,M,-33.324,M,,*78
2017-12-01 11:55:07 1512147307.988556: $GPRMC,165508,A,3946.9599,N,08404.9866,W,0.2422,93.794,011217,,*0F
2017-12-01 11:55:07 1512147307.988616: $GPGSA,A,3,13,15,18,20,21,24,27,29,10,,,,2.0,0.8,1.5*3B
2017-12-01 11:55:08 1512147308.439202: $GPZDA,165509.00,01,12,2017,00,00*6E
2017-12-01 11:55:08 1512147308.439367: $GPGGA,165509,3946.9594,N,08404.9859,W,1,09,0.80,299.20,M,-33.324,M,,*7B
2017-12-01 11:55:08 1512147308.439432: $GPRMC,165509,A,3946.9594,N,08404.9859,W,0.0000,0.000,011217,,*39
2017-12-01 11:55:08 1512147308.439493: $GPGSA,A,3,13,15,18,20,21,24,27,29,10,,,,2.0,0.8,1.5*3B
2017-12-01 11:55:09 1512147309.331406: $GPZDA,165510.00,01,12,2017,00,00*66
2017-12-01 11:55:09 1512147309.331587: $GPGGA,165510,3946.9594,N,08404.9859,W,1,09,0.80,299.20,M,-33.324,M,,*73
2017-12-01 11:55:09 1512147309.331657: $GPRMC,165510,A,3946.9594,N,08404.9859,W,0.0000,0.000,011217,,*31
2017-12-01 11:55:09 1512147309.331718: $GPGSA,A,3,13,15,18,20,21,24,27,29,10,,,,2.0,0.8,1.5*3B
2017-12-01 11:55:10 1512147310.666565: $GPGSV,3,1,12,13,38,048,45,15,71,060,44,18,47,291,44,20,59,058,44*7B
2017-12-01 11:55:10 1512147310.666754: $GPGSV,3,2,12,21,72,300,45,24,25,145,46,27,12,321,38,29,19,193,45*78
2017-12-01 11:55:10 1512147310.666821: $GPGSV,3,3,12,05,10,081,30,10,17,276,36,04,08,132,00,138,38,213,46*4A
2017-12-01 11:55:10 1512147310.779914: $GPZDA,165511.00,01,12,2017,00,00*67
2017-12-01 11:55:10 1512147310.780080: $GPGGA,165511,3946.9594,N,08404.9859,W,1,11,0.80,299.20,M,-33.324,M,,*7B
2017-12-01 11:55:10 1512147310.780145: $GPRMC,165511,A,3946.9594,N,08404.9859,W,0.0000,0.000,011217,,*30
2017-12-01 11:55:10 1512147310.780205: $GPGSA,A,3,13,15,18,20,21,24,27,29,5,10,138,,2.0,0.8,1.5*34
2017-12-01 11:55:11 1512147311.330857: $GPZDA,165512.00,01,12,2017,00,00*64
2017-12-01 11:55:11 1512147311.331031: $GPGGA,165512,3946.9594,N,08404.9859,W,1,11,0.80,299.20,M,-33.324,M,,*78
2017-12-01 11:55:11 1512147311.331096: $GPRMC,165512,A,3946.9594,N,08404.9859,W,0.0000,0.000,011217,,*33
2017-12-01 11:55:11 1512147311.331157: $GPGSA,A,3,13,15,18,20,21,24,27,29,5,10,138,,2.0,0.8,1.5*34
2017-12-01 11:55:12 1512147312.330381: $GPZDA,165513.00,01,12,2017,00,00*65
2017-12-01 11:55:12 1512147312.330554: $GPGGA,165513,3946.9593,N,08404.9858,W,1,11,0.80,297.79,M,-33.324,M,,*7D
2017-12-01 11:55:12 1512147312.330621: $GPRMC,165513,A,3946.9593,N,08404.9858,W,0.0000,0.000,011217,,*34
2017-12-01 11:55:12 1512147312.330682: $GPGSA,A,3,13,15,18,20,21,24,27,29,5,10,138,,2.0,0.8,1.5*34
2017-12-01 11:55:12 1512147312.330742: $GPGBS,165513,10.70,M,15.43,M,35.28,M*02
2017-12-01 11:55:13 1512147313.671035: $GPGSV,3,1,12,13,38,048,45,15,71,060,45,18,47,291,44,20,59,058,44*7A
2017-12-01 11:55:13 1512147313.671237: $GPGSV,3,2,12,21,72,300,45,24,25,145,46,27,12,321,38,29,19,193,45*78
2017-12-01 11:55:13 1512147313.671305: $GPGSV,3,3,12,05,10,081,30,10,17,276,37,04,08,132,02,138,38,213,47*48
2017-12-01 11:55:13 1512147313.785475: $GPZDA,165514.00,01,12,2017,00,00*62
2017-12-01 11:55:13 1512147313.785684: $GPGGA,165514,3946.9593,N,08404.9858,W,1,11,0.80,297.79,M,-33.324,M,,*7A
2017-12-01 11:55:13 1512147313.785755: $GPRMC,165514,A,3946.9593,N,08404.9858,W,0.0000,0.000,011217,,*33
2017-12-01 11:55:13 1512147313.785816: $GPGSA,A,3,13,15,18,20,21,24,27,29,5,10,138,,2.0,0.8,1.5*34
2017-12-01 11:55:14 1512147314.331866: $GPZDA,165515.00,01,12,2017,00,00*63
2017-12-01 11:55:14 1512147314.332038: $GPGGA,165515,3946.9593,N,08404.9858,W,1,11,0.80,297.79,M,-33.324,M,,*7B
2017-12-01 11:55:14 1512147314.332105: $GPRMC,165515,A,3946.9593,N,08404.9858,W,0.0000,0.000,011217,,*32
2017-12-01 11:55:14 1512147314.332184: $GPGSA,A,3,13,15,18,20,21,24,27,29,5,10,138,,2.0,0.8,1.5*34
2017-12-01 11:55:15 1512147315.336279: $GPZDA,165516.00,01,12,2017,00,00*60
2017-12-01 11:55:15 1512147315.336477: $GPGGA,165516,3946.9593,N,08404.9858,W,1,11,0.80,297.79,M,-33.324,M,,*78
2017-12-01 11:55:15 1512147315.336547: $GPRMC,165516,A,3946.9593,N,08404.9858,W,0.0000,0.000,011217,,*31
2017-12-01 11:55:15 1512147315.336609: $GPGSA,A,3,13,15,18,20,21,24,27,29,5,10,138,,2.0,0.8,1.5*34
