2017-12-01 12:23:11 1512148991.023326: {"class":"VERSION","release":"3.16","rev":"3.16-4","proto_major":3,"proto_minor":11}
2017-12-01 12:23:11 1512148991.023757: {"class":"DEVICES","devices":[{"class":"DEVICE","path":"/dev/ttyUSB0","driver":"SiRF","subtype":"9\u0006GSD4e_4.1.2-P1_RPATCH.05-F-GPS-4R-1510281 11/03/2015 307","activated":"2017-12-01T17:23:10.918Z","flags":1,"native":1,"bps":4800,"parity":"N","stopbits":1,"cycle":1.00}]}
2017-12-01 12:23:11 1512148991.023883: {"class":"WATCH","enable":true,"json":false,"nmea":true,"raw":0,"scaled":false,"timing":false,"split24":false,"pps":false}
2017-12-01 12:23:11 1512148991.330033: $GPZDA,172312.00,01,12,2017,00,00*64
2017-12-01 12:23:11 1512148991.330207: $GPGGA,172312,3946.9567,N,08404.9841,W,2,12,0.80,301.98,M,-33.324,M,,*7E
2017-12-01 12:23:11 1512148991.330276: $GPRMC,172312,A,3946.9567,N,08404.9841,W,0.0000,0.000,011217,,*36
2017-12-01 12:23:11 1512148991.330337: $GPGSA,A,3,10,13,15,18,20,21,24,27,32,29,5,138,2.0,0.8,1.5*35
2017-12-01 12:23:12 1512148992.330031: $GPZDA,172313.00,01,12,2017,00,00*65
2017-12-01 12:23:12 1512148992.330200: $GPGGA,172313,3946.9567,N,08404.9841,W,2,12,0.80,301.98,M,-33.324,M,,*7F
2017-12-01 12:23:12 1512148992.330268: $GPRMC,172313,A,3946.9567,N,08404.9841,W,0.0000,0.000,011217,,*37
2017-12-01 12:23:12 1512148992.330328: $GPGSA,A,3,10,13,15,18,20,21,24,27,32,29,5,138,2.0,0.8,1.5*35
2017-12-01 12:23:12 1512148992.330387: $GPGBS,172313,2.67,M,3.86,M,8.82,M*37
2017-12-01 12:23:13 1512148993.663619: $GPGSV,3,1,12,10,25,285,41,13,27,045,45,15,58,051,47,18,56,303,44*77
2017-12-01 12:23:13 1512148993.663799: $GPGSV,3,2,12,20,50,075,44,21,79,253,42,24,35,136,48,27,17,310,29*73
2017-12-01 12:23:13 1512148993.663867: $GPGSV,3,3,12,32,03,226,26,29,08,189,27,05,02,088,00,138,38,213,45*4B
2017-12-01 12:23:13 1512148993.777302: $GPZDA,172314.00,01,12,2017,00,00*62
2017-12-01 12:23:13 1512148993.777426: $GPGGA,172314,3946.9567,N,08404.9841,W,2,11,0.80,301.98,M,-33.324,M,,*7B
2017-12-01 12:23:13 1512148993.777491: $GPRMC,172314,A,3946.9567,N,08404.9841,W,0.0000,0.000,011217,,*30
2017-12-01 12:23:13 1512148993.777550: $GPGSA,A,3,10,13,15,18,20,21,24,27,32,29,138,,2.0,0.8,1.5*00
2017-12-01 12:23:14 1512148994.328297: $GPZDA,172315.00,01,12,2017,00,00*63
2017-12-01 12:23:14 1512148994.328465: $GPGGA,172315,3946.9567,N,08404.9841,W,2,11,0.80,301.98,M,-33.324,M,,*7A
2017-12-01 12:23:14 1512148994.328531: $GPRMC,172315,A,3946.9567,N,08404.9841,W,0.0000,0.000,011217,,*31
2017-12-01 12:23:14 1512148994.328592: $GPGSA,A,3,10,13,15,18,20,21,24,27,32,29,138,,2.0,0.8,1.5*00
2017-12-01 12:23:15 1512148995.331715: $GPZDA,172316.00,01,12,2017,00,00*60
2017-12-01 12:23:15 1512148995.331888: $GPGGA,172316,3946.9567,N,08404.9841,W,2,11,0.80,301.98,M,-33.324,M,,*79
2017-12-01 12:23:15 1512148995.331956: $GPRMC,172316,A,3946.9567,N,08404.9841,W,0.0000,0.000,011217,,*32
2017-12-01 12:23:15 1512148995.332017: $GPGSA,A,3,10,13,15,18,20,21,24,27,32,29,138,,2.0,0.8,1.5*00
2017-12-01 12:23:16 1512148996.667011: $GPGSV,3,1,12,10,25,285,42,13,27,045,45,15,58,051,47,18,56,303,44*74
2017-12-01 12:23:16 1512148996.667189: $GPGSV,3,2,12,20,50,075,45,21,79,253,42,24,35,136,48,27,17,310,32*78
2017-12-01 12:23:16 1512148996.667256: $GPGSV,3,3,12,32,03,226,26,29,08,189,28,05,02,088,00,138,38,213,45*44
2017-12-01 12:23:16 1512148996.780718: $GPZDA,172317.00,01,12,2017,00,00*61
2017-12-01 12:23:16 1512148996.780845: $GPGGA,172317,3946.9567,N,08404.9841,W,2,11,0.80,301.98,M,-33.324,M,,*78
2017-12-01 12:23:16 1512148996.780910: $GPRMC,172317,A,3946.9567,N,08404.9841,W,0.0000,0.000,011217,,*33
2017-12-01 12:23:16 1512148996.780970: $GPGSA,A,3,10,13,15,18,20,21,24,27,32,29,138,,2.0,0.8,1.5*00
2017-12-01 12:23:17 1512148997.328769: $GPZDA,172318.00,01,12,2017,00,00*6E
2017-12-01 12:23:17 1512148997.328933: $GPGGA,172318,3946.9567,N,08404.9841,W,2,11,0.80,301.98,M,-33.324,M,,*77
2017-12-01 12:23:17 1512148997.329001: $GPRMC,172318,A,3946.9567,N,08404.9841,W,0.0000,0.000,011217,,*3C
2017-12-01 12:23:17 1512148997.329062: $GPGSA,A,3,10,13,15,18,20,21,24,27,32,29,138,,2.0,0.8,1.5*00
2017-12-01 12:23:18 1512148998.329114: $GPZDA,172319.00,01,12,2017,00,00*6F
2017-12-01 12:23:18 1512148998.329291: $GPGGA,172319,3946.9567,N,08404.9841,W,2,11,0.80,301.98,M,-33.324,M,,*76
2017-12-01 12:23:18 1512148998.329360: $GPRMC,172319,A,3946.9567,N,08404.9841,W,0.0000,0.000,011217,,*3D
2017-12-01 12:23:18 1512148998.329421: $GPGSA,A,3,10,13,15,18,20,21,24,27,32,29,138,,2.0,0.8,1.5*00
2017-12-01 12:23:19 1512148999.666162: $GPGSV,3,1,12,10,25,285,41,13,27,045,45,15,58,051,47,18,56,303,44*77
2017-12-01 12:23:19 1512148999.666337: $GPGSV,3,2,12,20,50,075,45,21,79,253,42,24,35,136,48,27,17,310,33*79
2017-12-01 12:23:19 1512148999.666403: $GPGSV,3,3,12,32,03,226,26,29,08,189,28,05,02,088,00,138,38,213,46*47
2017-12-01 12:23:19 1512148999.778263: $GPZDA,172320.00,01,12,2017,00,00*65
2017-12-01 12:23:19 1512148999.778435: $GPGGA,172320,3946.9560,N,08404.9849,W,2,11,0.80,302.02,M,-33.324,M,,*73
2017-12-01 12:23:19 1512148999.778503: $GPRMC,172320,A,3946.9560,N,08404.9849,W,0.0000,0.000,011217,,*38
2017-12-01 12:23:19 1512148999.778564: $GPGSA,A,3,10,13,15,18,20,21,24,27,32,29,138,,2.0,0.8,1.5*00
2017-12-01 12:23:20 1512149000.329079: $GPZDA,172321.00,01,12,2017,00,00*64
2017-12-01 12:23:20 1512149000.329266: $GPGGA,172321,3946.9560,N,08404.9849,W,2,11,0.80,302.02,M,-33.324,M,,*72
2017-12-01 12:23:20 1512149000.329335: $GPRMC,172321,A,3946.9560,N,08404.9849,W,0.0000,0.000,011217,,*39
2017-12-01 12:23:20 1512149000.329399: $GPGSA,A,3,10,13,15,18,20,21,24,27,32,29,138,,2.0,0.8,1.5*00
