2018-01-11 19:48:55 1515718135.485602: {"class":"VERSION","release":"3.16","rev":"3.16-4","proto_major":3,"proto_minor":11}
2018-01-11 19:48:55 1515718135.485936: {"class":"DEVICES","devices":[{"class":"DEVICE","path":"/dev/ttyUSB0","driver":"SiRF","subtype":"9\u0006GSD4e_4.1.2-P1_RPATCH.05-F-GPS-4R-1510281 11/03/2015 307","activated":"2018-01-12T00:48:55.308Z","flags":1,"native":1,"bps":4800,"parity":"N","stopbits":1,"cycle":1.00}]}
2018-01-11 19:48:55 1515718135.486048: {"class":"WATCH","enable":true,"json":false,"nmea":true,"raw":0,"scaled":false,"timing":false,"split24":false,"pps":false}
2018-01-11 19:48:55 1515718135.756824: $GPGSV,3,1,11,07,46,310,40,08,65,154,45,09,54,244,43,16,31,054,46*79
2018-01-11 19:48:55 1515718135.757010: $GPGSV,3,2,11,23,39,193,49,27,55,064,49,30,21,303,30,11,12,171,33*78
2018-01-11 19:48:55 1515718135.757077: $GPGSV,3,3,11,26,05,067,00,28,07,250,29,138,38,213,45*78
2018-01-11 19:48:55 1515718135.870236: $GPZDA,004856.00,12,01,2018,00,00*60
2018-01-11 19:48:55 1515718135.870367: $GPGGA,004856,3946.9567,N,08404.9812,W,2,10,0.80,312.97,M,-33.324,M,,*7C
2018-01-11 19:48:55 1515718135.870431: $GPRMC,004856,A,3946.9567,N,08404.9812,W,0.0000,0.000,120118,,*34
2018-01-11 19:48:55 1515718135.870490: $GPGSA,A,3,7,8,9,16,23,27,30,11,28,138,,,4.0,0.8,3.5*3E
2018-01-11 19:48:56 1515718136.429872: $GPZDA,004857.00,12,01,2018,00,00*61
2018-01-11 19:48:56 1515718136.430024: $GPGGA,004857,3946.9567,N,08404.9812,W,2,10,0.80,312.97,M,-33.324,M,,*7D
2018-01-11 19:48:56 1515718136.430088: $GPRMC,004857,A,3946.9567,N,08404.9812,W,0.0000,0.000,120118,,*35
2018-01-11 19:48:56 1515718136.430148: $GPGSA,A,3,7,8,9,16,23,27,30,11,28,138,,,4.0,0.8,3.5*3E
2018-01-11 19:48:57 1515718137.436934: $GPZDA,004858.00,12,01,2018,00,00*6E
2018-01-11 19:48:57 1515718137.437097: $GPGGA,004858,3946.9567,N,08404.9812,W,2,10,0.80,312.97,M,-33.324,M,,*72
2018-01-11 19:48:57 1515718137.437163: $GPRMC,004858,A,3946.9567,N,08404.9812,W,0.0000,0.000,120118,,*3A
2018-01-11 19:48:57 1515718137.437224: $GPGSA,A,3,7,8,9,16,23,27,30,11,28,138,,,4.0,0.8,3.5*3E
2018-01-11 19:48:58 1515718138.765158: $GPGSV,3,1,11,07,46,310,39,08,65,154,45,09,54,244,43,16,31,054,46*77
2018-01-11 19:48:58 1515718138.765312: $GPGSV,3,2,11,23,39,193,49,27,55,064,49,30,21,303,29,11,12,171,33*70
2018-01-11 19:48:58 1515718138.765378: $GPGSV,3,3,11,26,05,067,19,28,07,250,29,138,38,213,45*70
2018-01-11 19:48:58 1515718138.878543: $GPZDA,004859.00,12,01,2018,00,00*6F
2018-01-11 19:48:58 1515718138.878718: $GPGGA,004859,3946.9567,N,08404.9812,W,2,11,0.80,312.97,M,-33.324,M,,*72
2018-01-11 19:48:58 1515718138.878784: $GPRMC,004859,A,3946.9567,N,08404.9812,W,0.0000,0.000,120118,,*3B
2018-01-11 19:48:58 1515718138.878844: $GPGSA,A,3,7,8,9,16,23,27,30,11,26,28,138,,4.0,0.8,3.5*3A
2018-01-11 19:48:59 1515718139.429472: $GPZDA,004900.00,12,01,2018,00,00*62
2018-01-11 19:48:59 1515718139.429645: $GPGGA,004900,3946.9567,N,08404.9812,W,2,11,0.80,312.97,M,-33.324,M,,*7F
2018-01-11 19:48:59 1515718139.429712: $GPRMC,004900,A,3946.9567,N,08404.9812,W,0.0000,0.000,120118,,*36
2018-01-11 19:48:59 1515718139.429773: $GPGSA,A,3,7,8,9,16,23,27,30,11,26,28,138,,4.0,0.8,3.5*3A
2018-01-11 19:49:00 1515718140.433530: $GPZDA,004901.00,12,01,2018,00,00*63
2018-01-11 19:49:00 1515718140.433695: $GPGGA,004901,3946.9567,N,08404.9812,W,2,11,0.80,312.97,M,-33.324,M,,*7E
2018-01-11 19:49:00 1515718140.433762: $GPRMC,004901,A,3946.9567,N,08404.9812,W,0.0000,0.000,120118,,*37
2018-01-11 19:49:00 1515718140.433822: $GPGSA,A,3,7,8,9,16,23,27,30,11,26,28,138,,4.0,0.8,3.5*3A
2018-01-11 19:49:01 1515718141.748066: $GPGSV,3,1,11,07,46,310,39,08,65,154,45,09,54,244,43,16,31,054,46*77
2018-01-11 19:49:01 1515718141.748216: $GPGSV,3,2,11,23,39,193,49,27,55,064,49,30,21,303,28,11,12,171,33*71
2018-01-11 19:49:01 1515718141.748280: $GPGSV,3,3,11,26,05,067,18,28,07,250,29,138,38,213,45*71
2018-01-11 19:49:01 1515718141.861373: $GPZDA,004902.00,12,01,2018,00,00*60
2018-01-11 19:49:01 1515718141.861501: $GPGGA,004902,3946.9567,N,08404.9812,W,2,11,0.80,312.97,M,-33.324,M,,*7D
2018-01-11 19:49:01 1515718141.861565: $GPRMC,004902,A,3946.9567,N,08404.9812,W,0.0000,0.000,120118,,*34
2018-01-11 19:49:01 1515718141.861670: $GPGSA,A,3,7,8,9,16,23,27,30,11,26,28,138,,4.0,0.8,3.5*3A
2018-01-11 19:49:02 1515718142.422285: $GPZDA,004903.00,12,01,2018,00,00*61
2018-01-11 19:49:02 1515718142.422425: $GPGGA,004903,3946.9567,N,08404.9812,W,2,11,0.80,312.97,M,-33.324,M,,*7C
2018-01-11 19:49:02 1515718142.422489: $GPRMC,004903,A,3946.9567,N,08404.9812,W,0.0000,0.000,120118,,*35
2018-01-11 19:49:02 1515718142.422549: $GPGSA,A,3,7,8,9,16,23,27,30,11,26,28,138,,4.0,0.8,3.5*3A
2018-01-11 19:49:03 1515718143.429498: $GPZDA,004904.00,12,01,2018,00,00*66
2018-01-11 19:49:03 1515718143.429659: $GPGGA,004904,3946.9567,N,08404.9812,W,2,11,0.80,312.97,M,-33.324,M,,*7B
2018-01-11 19:49:03 1515718143.429726: $GPRMC,004904,A,3946.9567,N,08404.9812,W,0.0000,0.000,120118,,*32
2018-01-11 19:49:03 1515718143.429787: $GPGSA,A,3,7,8,9,16,23,27,30,11,26,28,138,,4.0,0.8,3.5*3A
