2017-11-15 19:20:49 1510791649.255163: {"class":"VERSION","release":"3.17","rev":"3.17","proto_major":3,"proto_minor":12}
2017-11-15 19:20:49 1510791649.255630: {"class":"DEVICES","devices":[{"class":"DEVICE","path":"/dev/ttyUSB0","driver":"SiRF","subtype":"9\u0006GSD4e_4.1.2-P1_RPATCH.05-F-GPS-4R-1510281 11/03/2015 307","activated":"2017-11-16T00:20:49.217Z","flags":1,"native":1,"bps":4800,"parity":"N","stopbits":1,"cycle":1.00}]}
2017-11-15 19:20:49 1510791649.255757: {"class":"WATCH","enable":true,"json":false,"nmea":true,"raw":0,"scaled":false,"timing":false,"split24":false,"pps":false}
2017-11-15 19:20:49 1510791649.332241: $GPZDA,002048.00,16,11,2017,00,00*6B
2017-11-15 19:20:49 1510791649.332558: $GPGGA,002048,3946.9624,N,08404.9495,W,1,06,1.40,283.27,M,-33.324,M,,*71
2017-11-15 19:20:49 1510791649.332630: $GPRMC,002048,A,3946.9624,N,08404.9495,W,1.1385,29.379,161117,,*00
2017-11-15 19:20:49 1510791649.332691: $GPGSA,A,3,32,22,26,31,29,3,,,,,,,3.4,1.4,2.9*04
2017-11-15 19:20:50 1510791650.330761: $GPZDA,002049.00,16,11,2017,00,00*6A
2017-11-15 19:20:50 1510791650.330939: $GPGGA,002049,3946.9623,N,08404.9488,W,1,06,1.40,283.35,M,-33.324,M,,*78
2017-11-15 19:20:50 1510791650.330999: $GPRMC,002049,A,3946.9623,N,08404.9488,W,0.4207,39.347,161117,,*09
2017-11-15 19:20:50 1510791650.331056: $GPGSA,A,3,32,22,26,31,29,3,,,,,,,3.4,1.4,2.9*04
2017-11-15 19:20:51 1510791651.666068: $GPGSV,3,1,12,32,39,105,23,14,58,087,21,22,50,276,21,26,49,174,25*7B
2017-11-15 19:20:51 1510791651.666242: $GPGSV,3,2,12,31,71,018,22,29,09,075,09,16,18,190,16,03,37,303,15*7D
2017-11-15 19:20:51 1510791651.666305: $GPGSV,3,3,12,25,20,042,00,23,08,298,00,01,08,255,00,138,38,213,00*49
2017-11-15 19:20:51 1510791651.779442: $GPZDA,002050.00,16,11,2017,00,00*62
2017-11-15 19:20:51 1510791651.779608: $GPGGA,002050,3946.9623,N,08404.9488,W,1,08,1.40,283.35,M,-33.324,M,,*7E
2017-11-15 19:20:51 1510791651.779669: $GPRMC,002050,A,3946.9623,N,08404.9488,W,0.4207,39.347,161117,,*01
2017-11-15 19:20:51 1510791651.779727: $GPGSA,A,3,32,14,22,26,31,29,16,3,,,,,3.4,1.4,2.9*06
2017-11-15 19:20:52 1510791652.328934: $GPZDA,002051.00,16,11,2017,00,00*63
2017-11-15 19:20:52 1510791652.329094: $GPGGA,002051,3946.9623,N,08404.9481,W,1,08,1.40,283.43,M,-33.324,M,,*77
2017-11-15 19:20:52 1510791652.329155: $GPRMC,002051,A,3946.9623,N,08404.9481,W,0.8054,68.645,161117,,*02
2017-11-15 19:20:52 1510791652.329211: $GPGSA,A,3,32,14,22,26,31,29,16,3,,,,,3.4,1.4,2.9*06
2017-11-15 19:20:53 1510791653.329798: $GPZDA,002052.00,16,11,2017,00,00*60
2017-11-15 19:20:53 1510791653.329961: $GPGGA,002052,3946.9623,N,08404.9481,W,1,08,1.40,283.43,M,-33.324,M,,*74
2017-11-15 19:20:53 1510791653.330022: $GPRMC,002052,A,3946.9623,N,08404.9481,W,0.8414,39.347,161117,,*02
2017-11-15 19:20:53 1510791653.330078: $GPGSA,A,3,32,14,22,26,31,29,16,3,,,,,3.4,1.4,2.9*06
2017-11-15 19:20:54 1510791654.664340: $GPGSV,3,1,12,32,39,105,23,14,58,087,22,22,50,276,21,26,49,174,25*78
2017-11-15 19:20:54 1510791654.664527: $GPGSV,3,2,12,31,71,018,22,29,09,075,08,16,18,190,17,03,37,303,15*7D
2017-11-15 19:20:54 1510791654.664588: $GPGSV,3,3,12,25,20,042,00,23,08,298,00,01,08,255,00,138,38,213,00*49
2017-11-15 19:20:54 1510791654.777730: $GPZDA,002053.00,16,11,2017,00,00*61
2017-11-15 19:20:54 1510791654.777893: $GPGGA,002053,3946.9630,N,08404.9474,W,1,07,1.40,283.38,M,-33.324,M,,*7E
2017-11-15 19:20:54 1510791654.777953: $GPRMC,002053,A,3946.9630,N,08404.9474,W,1.1048,66.987,161117,,*02
2017-11-15 19:20:54 1510791654.778009: $GPGSA,A,3,32,14,22,26,31,29,3,,,,,,3.4,1.4,2.9*01
2017-11-15 19:20:55 1510791655.344763: $GPZDA,002054.00,16,11,2017,00,00*66
2017-11-15 19:20:55 1510791655.344979: $GPGGA,002054,3946.9630,N,08404.9467,W,1,07,1.40,283.46,M,-33.324,M,,*72
2017-11-15 19:20:55 1510791655.345045: $GPRMC,002054,A,3946.9630,N,08404.9467,W,1.3954,64.414,161117,,*04
2017-11-15 19:20:55 1510791655.345101: $GPGSA,A,3,32,14,22,26,31,29,3,,,,,,3.4,1.4,2.9*01
2017-11-15 19:20:56 1510791656.329514: $GPZDA,002055.00,16,11,2017,00,00*67
2017-11-15 19:20:56 1510791656.329692: $GPGGA,002055,3946.9633,N,08404.9459,W,1,07,1.40,282.78,M,-33.324,M,,*71
2017-11-15 19:20:56 1510791656.329812: $GPRMC,002055,A,3946.9633,N,08404.9459,W,1.7854,58.684,161117,,*0A
2017-11-15 19:20:56 1510791656.329873: $GPGSA,A,3,32,14,22,26,31,29,3,,,,,,3.4,1.4,2.9*01
2017-11-15 19:20:57 1510791657.666031: $GPGSV,3,1,12,32,39,105,23,14,58,087,22,22,50,276,21,26,49,174,25*78
2017-11-15 19:20:57 1510791657.666201: $GPGSV,3,2,12,31,71,018,21,29,09,075,10,25,20,042,00,03,37,303,14*75
2017-11-15 19:20:57 1510791657.666262: $GPGSV,3,3,12,16,18,190,00,23,08,298,00,01,08,255,00,138,38,213,00*4C
2017-11-15 19:20:57 1510791657.779658: $GPZDA,002056.00,16,11,2017,00,00*64
2017-11-15 19:20:57 1510791657.779823: $GPGGA,002056,3946.9637,N,08404.9459,W,1,07,1.40,283.42,M,-33.324,M,,*7E
2017-11-15 19:20:57 1510791657.779884: $GPRMC,002056,A,3946.9637,N,08404.9459,W,1.1902,58.684,161117,,*09
2017-11-15 19:20:57 1510791657.779940: $GPGSA,A,3,32,14,22,26,31,29,3,,,,,,3.4,1.4,2.9*01
2017-11-15 19:20:58 1510791658.334262: $GPZDA,002057.00,16,11,2017,00,00*65
2017-11-15 19:20:58 1510791658.334425: $GPGGA,002057,3946.9637,N,08404.9452,W,1,07,1.40,283.49,M,-33.324,M,,*7F
2017-11-15 19:20:58 1510791658.334486: $GPRMC,002057,A,3946.9637,N,08404.9452,W,1.2357,86.544,161117,,*06
2017-11-15 19:20:58 1510791658.334542: $GPGSA,A,3,32,14,22,26,31,29,3,,,,,,3.4,1.4,2.9*01
