2017-11-16 15:26:15 1510863975.766482: {"class":"VERSION","release":"3.17","rev":"3.17","proto_major":3,"proto_minor":12}
2017-11-16 15:26:15 1510863975.766950: {"class":"DEVICES","devices":[{"class":"DEVICE","path":"/dev/ttyUSB0","driver":"SiRF","subtype":"9\u0006GSD4e_4.1.2-P1_RPATCH.05-F-GPS-4R-1510281 11/03/2015 307","activated":"2017-11-16T20:26:15.693Z","flags":1,"native":1,"bps":4800,"parity":"N","stopbits":1,"cycle":1.00}]}
2017-11-16 15:26:15 1510863975.767069: {"class":"WATCH","enable":true,"json":false,"nmea":true,"raw":0,"scaled":false,"timing":false,"split24":false,"pps":false}
2017-11-16 15:26:16 1510863976.698459: $GPGSV,3,1,12,08,06,292,38,10,69,331,51,14,29,253,47,15,11,066,18*7B
2017-11-16 15:26:16 1510863976.698666: $GPGSV,3,2,12,18,71,094,48,20,08,118,32,21,29,180,44,24,45,058,50*78
2017-11-16 15:26:16 1510863976.698747: $GPGSV,3,3,12,27,06,259,27,32,46,265,48,12,09,106,31,138,38,213,45*43
2017-11-16 15:26:16 1510863976.812024: $GPZDA,202615.00,16,11,2017,00,00*67
2017-11-16 15:26:16 1510863976.812183: $GPGGA,202615,3946.9569,N,08404.9867,W,2,12,1.00,309.53,M,-33.324,M,,*74
2017-11-16 15:26:16 1510863976.812244: $GPRMC,202615,A,3946.9569,N,08404.9867,W,0.0000,0.000,161117,,*3F
2017-11-16 15:26:16 1510863976.812300: $GPGSA,A,3,8,10,14,15,18,20,21,24,27,32,12,138,1.6,1.0,1.3*3D
2017-11-16 15:26:17 1510863977.387862: $GPZDA,202616.00,16,11,2017,00,00*64
2017-11-16 15:26:17 1510863977.388028: $GPGGA,202616,3946.9569,N,08404.9867,W,2,12,0.80,309.53,M,-33.324,M,,*7E
2017-11-16 15:26:17 1510863977.388089: $GPRMC,202616,A,3946.9569,N,08404.9867,W,0.0000,0.000,161117,,*3C
2017-11-16 15:26:17 1510863977.388145: $GPGSA,A,3,8,10,14,15,18,20,21,24,27,32,12,138,1.6,0.8,1.3*34
2017-11-16 15:26:18 1510863978.367239: $GPZDA,202617.00,16,11,2017,00,00*65
2017-11-16 15:26:18 1510863978.367407: $GPGGA,202617,3946.9569,N,08404.9867,W,2,12,1.00,309.53,M,-33.324,M,,*76
2017-11-16 15:26:18 1510863978.367470: $GPRMC,202617,A,3946.9569,N,08404.9867,W,0.0000,0.000,161117,,*3D
2017-11-16 15:26:18 1510863978.367528: $GPGSA,A,3,8,10,14,15,18,20,21,24,27,32,12,138,1.6,1.0,1.3*3D
2017-11-16 15:26:19 1510863979.721758: $GPGSV,3,1,12,08,06,292,37,10,69,331,51,14,29,253,47,15,11,066,22*7D
2017-11-16 15:26:19 1510863979.721945: $GPGSV,3,2,12,18,71,094,48,20,08,118,32,21,29,180,45,24,45,058,50*79
2017-11-16 15:26:19 1510863979.722019: $GPGSV,3,3,12,27,06,259,28,32,46,265,48,12,09,106,30,138,38,213,45*4D
2017-11-16 15:26:19 1510863979.833802: $GPZDA,202618.00,16,11,2017,00,00*6A
2017-11-16 15:26:19 1510863979.833972: $GPGGA,202618,3946.9569,N,08404.9867,W,2,12,0.80,309.53,M,-33.324,M,,*70
2017-11-16 15:26:19 1510863979.834035: $GPRMC,202618,A,3946.9569,N,08404.9867,W,0.0000,0.000,161117,,*32
2017-11-16 15:26:19 1510863979.834092: $GPGSA,A,3,8,10,14,15,18,20,21,24,27,32,12,138,1.6,0.8,1.3*34
2017-11-16 15:26:20 1510863980.361295: $GPZDA,202619.00,16,11,2017,00,00*6B
2017-11-16 15:26:20 1510863980.361472: $GPGGA,202619,3946.9569,N,08404.9867,W,2,12,1.00,309.53,M,-33.324,M,,*78
2017-11-16 15:26:20 1510863980.361536: $GPRMC,202619,A,3946.9569,N,08404.9867,W,0.0000,0.000,161117,,*33
2017-11-16 15:26:20 1510863980.361593: $GPGSA,A,3,8,10,14,15,18,20,21,24,27,32,12,138,1.6,1.0,1.3*3D
2017-11-16 15:26:21 1510863981.383963: $GPZDA,202620.00,16,11,2017,00,00*61
2017-11-16 15:26:21 1510863981.384137: $GPGGA,202620,3946.9569,N,08404.9867,W,2,12,1.00,309.53,M,-33.324,M,,*72
2017-11-16 15:26:21 1510863981.384199: $GPRMC,202620,A,3946.9569,N,08404.9867,W,0.0000,0.000,161117,,*39
2017-11-16 15:26:21 1510863981.384256: $GPGSA,A,3,8,10,14,15,18,20,21,24,27,32,12,138,1.6,1.0,1.3*3D
2017-11-16 15:26:22 1510863982.702019: $GPGSV,3,1,12,08,06,292,36,10,69,331,51,14,29,253,46,15,11,066,00*7D
2017-11-16 15:26:22 1510863982.948309: $GPGSV,3,2,12,18,71,094,48,20,08,118,32,21,29,180,44,24,45,058,50*78
2017-11-16 15:26:22 1510863982.948461: $GPGSV,3,3,12,27,06,259,28,32,46,265,48,12,09,106,30,138,38,213,45*4D
2017-11-16 15:26:22 1510863982.948575: $GPZDA,202621.00,16,11,2017,00,00*60
2017-11-16 15:26:22 1510863982.948631: $GPGGA,202621,3946.9569,N,08404.9867,W,2,11,1.00,309.53,M,-33.324,M,,*70
2017-11-16 15:26:22 1510863982.948717: $GPRMC,202621,A,3946.9569,N,08404.9867,W,0.0000,0.000,161117,,*38
2017-11-16 15:26:22 1510863982.948774: $GPGSA,A,3,8,10,14,18,20,21,24,27,32,12,138,,1.6,1.0,1.3*39
2017-11-16 15:26:23 1510863983.385332: $GPZDA,202622.00,16,11,2017,00,00*63
2017-11-16 15:26:23 1510863983.385530: $GPGGA,202622,3946.9569,N,08404.9867,W,2,11,0.80,309.53,M,-33.324,M,,*7A
2017-11-16 15:26:23 1510863983.385595: $GPRMC,202622,A,3946.9569,N,08404.9867,W,0.0000,0.000,161117,,*3B
2017-11-16 15:26:23 1510863983.385653: $GPGSA,A,3,8,10,14,18,20,21,24,27,32,12,138,,1.6,0.8,1.3*30
2017-11-16 15:26:24 1510863984.368629: $GPZDA,202623.00,16,11,2017,00,00*62
2017-11-16 15:26:24 1510863984.368792: $GPGGA,202623,3946.9572,N,08404.9866,W,2,11,0.80,308.76,M,-33.324,M,,*76
2017-11-16 15:26:24 1510863984.368854: $GPRMC,202623,A,3946.9572,N,08404.9866,W,0.0000,0.000,161117,,*31
2017-11-16 15:26:24 1510863984.368910: $GPGSA,A,3,8,10,14,18,20,21,24,27,32,12,138,,1.6,0.8,1.3*30
2017-11-16 15:26:25 1510863985.725353: $GPGSV,3,1,12,08,06,292,35,10,69,331,51,14,29,253,47,15,11,066,03*7C
2017-11-16 15:26:25 1510863985.725521: $GPGSV,3,2,12,18,71,094,48,20,08,118,32,21,29,180,44,24,45,058,50*78
2017-11-16 15:26:25 1510863985.725582: $GPGSV,3,3,12,27,06,259,28,32,46,265,48,12,09,106,25,138,38,213,45*49
