2017-11-15 19:47:11 1510793231.820381: {"class":"VERSION","release":"3.17","rev":"3.17","proto_major":3,"proto_minor":12}
2017-11-15 19:47:11 1510793231.820784: {"class":"DEVICES","devices":[{"class":"DEVICE","path":"/dev/ttyUSB0","driver":"SiRF","subtype":"9\u0006GSD4e_4.1.2-P1_RPATCH.05-F-GPS-4R-1510281 11/03/2015 307","activated":"2017-11-16T00:47:11.470Z","flags":1,"native":1,"bps":4800,"parity":"N","stopbits":1,"cycle":1.00}]}
2017-11-15 19:47:11 1510793231.820909: {"class":"WATCH","enable":true,"json":false,"nmea":true,"raw":0,"scaled":false,"timing":false,"split24":false,"pps":false}
2017-11-15 19:47:12 1510793232.680510: $GPGSV,3,1,11,32,30,114,21,16,30,190,21,22,50,259,09,26,61,169,22*7E
2017-11-15 19:47:12 1510793232.680679: $GPGSV,3,2,11,14,49,102,19,31,62,034,12,29,12,064,04,23,16,303,12*72
2017-11-15 19:47:12 1510793232.680739: $GPGSV,3,3,11,03,43,291,18,25,11,039,00,01,01,247,00*42
2017-11-15 19:47:12 1510793232.793809: $GPZDA,004711.00,16,11,2017,00,00*66
2017-11-15 19:47:12 1510793232.793967: $GPGGA,004711,3946.9711,N,08404.9371,W,1,07,1.20,351.42,M,-33.324,M,,*7C
2017-11-15 19:47:12 1510793232.794026: $GPRMC,004711,A,3946.9711,N,08404.9371,W,1.5494,42.258,161117,,*0B
2017-11-15 19:47:12 1510793232.794081: $GPGSA,A,3,32,16,22,26,14,23,3,,,,,,3.4,1.2,2.9*08
2017-11-15 19:47:13 1510793233.329745: $GPZDA,004712.00,16,11,2017,00,00*65
2017-11-15 19:47:13 1510793233.329904: $GPGGA,004712,3946.9714,N,08404.9370,W,1,07,1.20,350.66,M,-33.324,M,,*7C
2017-11-15 19:47:13 1510793233.329964: $GPRMC,004712,A,3946.9714,N,08404.9370,W,1.6828,39.347,161117,,*07
2017-11-15 19:47:13 1510793233.330020: $GPGSA,A,3,32,16,22,26,14,23,3,,,,,,3.4,1.2,2.9*08
2017-11-15 19:47:14 1510793234.345587: $GPZDA,004713.00,16,11,2017,00,00*64
2017-11-15 19:47:14 1510793234.345772: $GPGGA,004713,3946.9714,N,08404.9363,W,1,07,1.20,350.73,M,-33.324,M,,*7B
2017-11-15 19:47:14 1510793234.345836: $GPRMC,004713,A,3946.9714,N,08404.9363,W,1.2621,39.347,161117,,*07
2017-11-15 19:47:14 1510793234.345892: $GPGSA,A,3,32,16,22,26,14,23,3,,,,,,3.4,1.2,2.9*08
2017-11-15 19:47:15 1510793235.680193: $GPGSV,3,1,11,32,30,114,22,16,30,190,21,22,50,259,07,26,61,169,22*73
2017-11-15 19:47:15 1510793235.680368: $GPGSV,3,2,11,14,49,102,19,31,62,034,15,29,12,064,00,23,16,303,08*7A
2017-11-15 19:47:15 1510793235.680427: $GPGSV,3,3,11,03,43,291,18,25,11,039,00,01,01,247,00*42
2017-11-15 19:47:15 1510793235.793524: $GPZDA,004714.00,16,11,2017,00,00*63
2017-11-15 19:47:15 1510793235.793670: $GPGGA,004714,3946.9714,N,08404.9363,W,1,07,1.40,350.73,M,-33.324,M,,*7A
2017-11-15 19:47:15 1510793235.793730: $GPRMC,004714,A,3946.9714,N,08404.9363,W,0.8414,39.347,161117,,*0F
2017-11-15 19:47:15 1510793235.793785: $GPGSA,A,3,32,16,22,26,14,23,3,,,,,,3.4,1.4,2.9*0E
2017-11-15 19:47:16 1510793236.418848: $GPZDA,004715.00,16,11,2017,00,00*62
2017-11-15 19:47:16 1510793236.419005: $GPGGA,004715,3946.9714,N,08404.9363,W,1,07,1.40,350.73,M,-33.324,M,,*7B
2017-11-15 19:47:16 1510793236.419064: $GPRMC,004715,A,3946.9714,N,08404.9363,W,0.7278,23.637,161117,,*04
2017-11-15 19:47:16 1510793236.419120: $GPGSA,A,3,32,16,22,26,14,23,3,,,,,,3.4,1.4,2.9*0E
2017-11-15 19:47:17 1510793237.344724: $GPZDA,004716.00,16,11,2017,00,00*61
2017-11-15 19:47:17 1510793237.344871: $GPGGA,004716,3946.9714,N,08404.9363,W,1,07,1.40,350.73,M,-33.324,M,,*78
2017-11-15 19:47:17 1510793237.344932: $GPRMC,004716,A,3946.9714,N,08404.9363,W,0.4207,39.347,161117,,*05
2017-11-15 19:47:17 1510793237.344988: $GPGSA,A,3,32,16,22,26,14,23,3,,,,,,3.4,1.4,2.9*0E
2017-11-15 19:47:18 1510793238.665471: $GPGSV,3,1,11,32,30,114,22,16,30,190,21,22,50,259,07,26,61,169,22*73
2017-11-15 19:47:18 1510793238.665615: $GPGSV,3,2,11,14,49,102,20,31,62,034,14,29,12,064,00,23,16,303,06*7F
2017-11-15 19:47:18 1510793238.665692: $GPGSV,3,3,11,03,43,291,18,25,11,039,00,01,01,247,00*42
2017-11-15 19:47:18 1510793238.778784: $GPZDA,004717.00,16,11,2017,00,00*60
2017-11-15 19:47:18 1510793238.778919: $GPGGA,004717,3946.9713,N,08404.9356,W,1,07,1.40,350.81,M,-33.324,M,,*75
2017-11-15 19:47:18 1510793238.778979: $GPRMC,004717,A,3946.9713,N,08404.9356,W,0.3006,62.540,161117,,*0E
2017-11-15 19:47:18 1510793238.779106: $GPGSA,A,3,32,16,22,26,14,23,3,,,,,,3.4,1.4,2.9*0E
2017-11-15 19:47:19 1510793239.345949: $GPZDA,004718.00,16,11,2017,00,00*6F
2017-11-15 19:47:19 1510793239.346110: $GPGGA,004718,3946.9710,N,08404.9357,W,1,07,1.40,351.58,M,-33.324,M,,*7D
2017-11-15 19:47:19 1510793239.346172: $GPRMC,004718,A,3946.9710,N,08404.9357,W,0.2422,93.795,161117,,*04
2017-11-15 19:47:19 1510793239.346231: $GPGSA,A,3,32,16,22,26,14,23,3,,,,,,3.4,1.4,2.9*0E
2017-11-15 19:47:20 1510793240.345675: $GPZDA,004719.00,16,11,2017,00,00*6E
2017-11-15 19:47:20 1510793240.345847: $GPGGA,004719,3946.9706,N,08404.9357,W,1,07,1.40,350.94,M,-33.324,M,,*7A
2017-11-15 19:47:20 1510793240.345909: $GPRMC,004719,A,3946.9706,N,08404.9357,W,0.8359,148.779,161117,,*36
2017-11-15 19:47:20 1510793240.345965: $GPGSA,A,3,32,16,22,26,14,23,3,,,,,,3.4,1.4,2.9*0E
2017-11-15 19:47:21 1510793241.680864: $GPGSV,3,1,11,32,30,114,22,16,30,190,22,22,50,259,05,26,61,169,21*71
2017-11-15 19:47:21 1510793241.681048: $GPGSV,3,2,11,14,49,102,20,31,62,034,00,29,12,064,00,23,16,303,05*79
2017-11-15 19:47:21 1510793241.681108: $GPGSV,3,3,11,03,43,291,18,25,11,039,00,01,01,247,00*42
2017-11-15 19:47:21 1510793241.794568: $GPZDA,004720.00,16,11,2017,00,00*64
2017-11-15 19:47:21 1510793241.794713: $GPGGA,004720,3946.9702,N,08404.9357,W,1,05,1.40,350.30,M,-33.324,M,,*78
2017-11-15 19:47:21 1510793241.794774: $GPRMC,004720,A,3946.9702,N,08404.9357,W,0.7238,140.710,161117,,*36
2017-11-15 19:47:21 1510793241.794829: $GPGSA,A,3,32,16,26,14,3,,,,,,,,3.4,1.4,2.9*0F
