2017-11-16 14:15:06 1510859706.247802: {"class":"VERSION","release":"3.17","rev":"3.17","proto_major":3,"proto_minor":12}
2017-11-16 14:15:06 1510859706.248315: {"class":"DEVICES","devices":[{"class":"DEVICE","path":"/dev/ttyUSB0","driver":"SiRF","subtype":"9\u0006GSD4e_4.1.2-P1_RPATCH.05-F-GPS-4R-1510281 11/03/2015 307","activated":"2017-11-16T19:15:05.687Z","flags":1,"native":1,"bps":4800,"parity":"N","stopbits":1,"cycle":1.00}]}
2017-11-16 14:15:06 1510859706.248471: {"class":"WATCH","enable":true,"json":false,"nmea":true,"raw":0,"scaled":false,"timing":false,"split24":false,"pps":false}
2017-11-16 14:15:06 1510859706.851429: $GPGSV,3,1,12,08,06,321,37,10,42,301,44,13,07,049,30,15,37,052,51*7F
2017-11-16 14:15:06 1510859706.851573: $GPGSV,3,2,12,18,71,337,47,21,63,190,47,20,32,096,47,24,51,109,47*7B
2017-11-16 14:15:06 1510859706.851634: $GPGSV,3,3,12,27,19,288,38,32,21,238,46,14,05,232,17,138,38,213,44*43
2017-11-16 14:15:06 1510859706.964725: $GPZDA,191505.00,16,11,2017,00,00*6C
2017-11-16 14:15:06 1510859706.964888: $GPGGA,191505,3946.9557,N,08404.9851,W,2,11,0.80,304.19,M,-33.324,M,,*7E
2017-11-16 14:15:06 1510859706.964952: $GPRMC,191505,A,3946.9557,N,08404.9851,W,0.0000,0.000,161117,,*3C
2017-11-16 14:15:06 1510859706.965008: $GPGSA,A,3,8,10,13,15,18,21,20,24,27,32,138,,1.6,0.8,1.3*30
2017-11-16 14:15:07 1510859707.546800: $GPZDA,191506.00,16,11,2017,00,00*6F
2017-11-16 14:15:07 1510859707.546981: $GPGGA,191506,3946.9557,N,08404.9851,W,2,11,0.80,304.19,M,-33.324,M,,*7D
2017-11-16 14:15:07 1510859707.547045: $GPRMC,191506,A,3946.9557,N,08404.9851,W,0.0000,0.000,161117,,*3F
2017-11-16 14:15:07 1510859707.547101: $GPGSA,A,3,8,10,13,15,18,21,20,24,27,32,138,,1.6,0.8,1.3*30
2017-11-16 14:15:08 1510859708.541456: $GPZDA,191507.00,16,11,2017,00,00*6E
2017-11-16 14:15:08 1510859708.541616: $GPGGA,191507,3946.9557,N,08404.9851,W,2,11,0.80,304.19,M,-33.324,M,,*7C
2017-11-16 14:15:08 1510859708.541678: $GPRMC,191507,A,3946.9557,N,08404.9851,W,0.0000,0.000,161117,,*3E
2017-11-16 14:15:08 1510859708.541734: $GPGSA,A,3,8,10,13,15,18,21,20,24,27,32,138,,1.6,0.8,1.3*30
2017-11-16 14:15:09 1510859709.882804: $GPGSV,3,1,12,08,06,321,37,10,42,301,44,13,07,049,30,15,37,052,51*7F
2017-11-16 14:15:09 1510859709.882976: $GPGSV,3,2,12,18,71,337,47,21,63,190,47,20,32,096,47,24,51,109,48*74
2017-11-16 14:15:09 1510859709.883038: $GPGSV,3,3,12,27,19,288,37,32,21,238,46,14,05,232,00,138,38,213,44*4A
2017-11-16 14:15:09 1510859709.996076: $GPZDA,191508.00,16,11,2017,00,00*61
2017-11-16 14:15:09 1510859709.996235: $GPGGA,191508,3946.9557,N,08404.9851,W,2,11,0.80,304.19,M,-33.324,M,,*73
2017-11-16 14:15:09 1510859709.996296: $GPRMC,191508,A,3946.9557,N,08404.9851,W,0.0000,0.000,161117,,*31
2017-11-16 14:15:09 1510859709.996353: $GPGSA,A,3,8,10,13,15,18,21,20,24,27,32,138,,1.6,0.8,1.3*30
2017-11-16 14:15:10 1510859710.546939: $GPZDA,191509.00,16,11,2017,00,00*60
2017-11-16 14:15:10 1510859710.547111: $GPGGA,191509,3946.9557,N,08404.9851,W,2,11,0.80,304.19,M,-33.324,M,,*72
2017-11-16 14:15:10 1510859710.547174: $GPRMC,191509,A,3946.9557,N,08404.9851,W,0.0000,0.000,161117,,*30
2017-11-16 14:15:10 1510859710.547231: $GPGSA,A,3,8,10,13,15,18,21,20,24,27,32,138,,1.6,0.8,1.3*30
2017-11-16 14:15:11 1510859711.545769: $GPZDA,191510.00,16,11,2017,00,00*68
2017-11-16 14:15:11 1510859711.545952: $GPGGA,191510,3946.9557,N,08404.9851,W,2,11,0.80,304.19,M,-33.324,M,,*7A
2017-11-16 14:15:11 1510859711.546019: $GPRMC,191510,A,3946.9557,N,08404.9851,W,0.0000,0.000,161117,,*38
2017-11-16 14:15:11 1510859711.546079: $GPGSA,A,3,8,10,13,15,18,21,20,24,27,32,138,,1.6,0.8,1.3*30
2017-11-16 14:15:12 1510859712.853472: $GPGSV,3,1,12,08,06,321,37,10,42,301,44,13,07,049,30,15,37,052,51*7F
2017-11-16 14:15:12 1510859712.853641: $GPGSV,3,2,12,18,71,337,47,21,63,190,47,20,32,096,47,24,51,109,48*74
2017-11-16 14:15:12 1510859712.853704: $GPGSV,3,3,12,27,19,288,37,32,21,238,46,14,05,232,17,138,38,213,43*4B
2017-11-16 14:15:12 1510859712.966745: $GPZDA,191511.00,16,11,2017,00,00*69
2017-11-16 14:15:12 1510859712.966909: $GPGGA,191511,3946.9557,N,08404.9851,W,2,12,0.80,304.19,M,-33.324,M,,*78
2017-11-16 14:15:12 1510859712.967021: $GPRMC,191511,A,3946.9557,N,08404.9851,W,0.0000,0.000,161117,,*39
2017-11-16 14:15:12 1510859712.967080: $GPGSA,A,3,8,10,13,15,18,21,20,24,27,32,14,138,1.6,0.8,1.3*35
2017-11-16 14:15:13 1510859713.508844: $GPZDA,191512.00,16,11,2017,00,00*6A
2017-11-16 14:15:13 1510859713.509009: $GPGGA,191512,3946.9557,N,08404.9851,W,2,12,0.80,304.19,M,-33.324,M,,*7B
2017-11-16 14:15:13 1510859713.509071: $GPRMC,191512,A,3946.9557,N,08404.9851,W,0.0000,0.000,161117,,*3A
2017-11-16 14:15:13 1510859713.509127: $GPGSA,A,3,8,10,13,15,18,21,20,24,27,32,14,138,1.6,0.8,1.3*35
2017-11-16 14:15:14 1510859714.540418: $GPZDA,191513.00,16,11,2017,00,00*6B
2017-11-16 14:15:14 1510859714.540589: $GPGGA,191513,3946.9557,N,08404.9851,W,2,12,0.80,304.19,M,-33.324,M,,*7A
2017-11-16 14:15:14 1510859714.540654: $GPRMC,191513,A,3946.9557,N,08404.9851,W,0.0000,0.000,161117,,*3B
2017-11-16 14:15:14 1510859714.540713: $GPGSA,A,3,8,10,13,15,18,21,20,24,27,32,14,138,1.6,0.8,1.3*35
2017-11-16 14:15:15 1510859715.882354: $GPGSV,3,1,12,08,06,321,28,10,42,301,44,13,07,049,30,15,37,052,51*71
2017-11-16 14:15:15 1510859715.882529: $GPGSV,3,2,12,18,71,337,47,21,63,190,47,20,32,096,47,24,51,109,47*7B
2017-11-16 14:15:15 1510859715.882588: $GPGSV,3,3,12,27,19,288,37,32,21,238,46,14,05,232,00,138,38,213,44*4A
2017-11-16 14:15:15 1510859715.996160: $GPZDA,191514.00,16,11,2017,00,00*6C
2017-11-16 14:15:15 1510859715.996323: $GPGGA,191514,3946.9557,N,08404.9851,W,2,11,0.80,304.19,M,-33.324,M,,*7E
2017-11-16 14:15:15 1510859715.996385: $GPRMC,191514,A,3946.9557,N,08404.9851,W,0.0000,0.000,161117,,*3C
2017-11-16 14:15:15 1510859715.996458: $GPGSA,A,3,8,10,13,15,18,21,20,24,27,32,138,,1.6,0.8,1.3*30
2017-11-16 14:15:16 1510859716.515213: $GPZDA,191515.00,16,11,2017,00,00*6D
2017-11-16 14:15:16 1510859716.515386: $GPGGA,191515,3946.9557,N,08404.9851,W,2,11,0.80,304.19,M,-33.324,M,,*7F
2017-11-16 14:15:16 1510859716.515448: $GPRMC,191515,A,3946.9557,N,08404.9851,W,0.0000,0.000,161117,,*3D
2017-11-16 14:15:16 1510859716.515507: $GPGSA,A,3,8,10,13,15,18,21,20,24,27,32,138,,1.6,0.8,1.3*30
2017-11-16 14:15:17 1510859717.546602: $GPZDA,191516.00,16,11,2017,00,00*6E
2017-11-16 14:15:17 1510859717.546770: $GPGGA,191516,3946.9557,N,08404.9851,W,2,11,0.80,304.19,M,-33.324,M,,*7C
2017-11-16 14:15:17 1510859717.546848: $GPRMC,191516,A,3946.9557,N,08404.9851,W,0.0000,0.000,161117,,*3E
2017-11-16 14:15:17 1510859717.546905: $GPGSA,A,3,8,10,13,15,18,21,20,24,27,32,138,,1.6,0.8,1.3*30
2017-11-16 14:15:18 1510859718.850536: $GPGSV,3,1,12,14,05,232,11,10,42,301,44,13,07,049,30,15,37,052,51*76
2017-11-16 14:15:18 1510859718.850704: $GPGSV,3,2,12,18,71,337,46,21,63,190,46,20,32,096,47,24,51,109,47*7B
2017-11-16 14:15:18 1510859718.850763: $GPGSV,3,3,12,27,19,288,36,32,21,238,46,08,06,321,00,138,38,213,43*41
2017-11-16 14:15:18 1510859718.963870: $GPZDA,191517.00,16,11,2017,00,00*6F
2017-11-16 14:15:18 1510859718.964029: $GPGGA,191517,3946.9557,N,08404.9851,W,2,10,1.00,304.19,M,-33.324,M,,*75
2017-11-16 14:15:18 1510859718.964090: $GPRMC,191517,A,3946.9557,N,08404.9851,W,0.0000,0.000,161117,,*3F
2017-11-16 14:15:18 1510859718.964145: $GPGSA,A,3,10,13,15,18,21,20,24,27,32,138,,,1.6,1.0,1.3*01
2017-11-16 14:15:19 1510859719.589609: $GPZDA,191518.00,16,11,2017,00,00*60
2017-11-16 14:15:19 1510859719.589770: $GPGGA,191518,3946.9557,N,08404.9851,W,2,10,1.00,304.19,M,-33.324,M,,*7A
2017-11-16 14:15:19 1510859719.589832: $GPRMC,191518,A,3946.9557,N,08404.9851,W,0.0000,0.000,161117,,*30
2017-11-16 14:15:19 1510859719.589887: $GPGSA,A,3,10,13,15,18,21,20,24,27,32,138,,,1.6,1.0,1.3*01
2017-11-16 14:15:20 1510859720.516145: $GPZDA,191519.00,16,11,2017,00,00*61
2017-11-16 14:15:20 1510859720.516352: $GPGGA,191519,3946.9557,N,08404.9851,W,2,10,1.00,304.19,M,-33.324,M,,*7B
2017-11-16 14:15:20 1510859720.516417: $GPRMC,191519,A,3946.9557,N,08404.9851,W,0.0000,0.000,161117,,*31
2017-11-16 14:15:20 1510859720.516477: $GPGSA,A,3,10,13,15,18,21,20,24,27,32,138,,,1.6,1.0,1.3*01
