2018-01-12 04:36:51 1515749811.459541: {"class":"VERSION","release":"3.16","rev":"3.16-4","proto_major":3,"proto_minor":11}
2018-01-12 04:36:51 1515749811.459892: {"class":"DEVICES","devices":[{"class":"DEVICE","path":"/dev/ttyUSB0","driver":"SiRF","subtype":"9\u0006GSD4e_4.1.2-P1_RPATCH.05-F-GPS-4R-1510281 11/03/2015 307","activated":"2018-01-12T09:36:51.421Z","flags":1,"native":1,"bps":4800,"parity":"N","stopbits":1,"cycle":1.00}]}
2018-01-12 04:36:51 1515749811.460009: {"class":"WATCH","enable":true,"json":false,"nmea":true,"raw":0,"scaled":false,"timing":false,"split24":false,"pps":false}
2018-01-12 04:36:51 1515749811.598036: $GPZDA,093652.28,12,01,2018,00,00*6E
2018-01-12 04:36:51 1515749811.598194: $GPGGA,093652,3946.9672,N,08404.9757,W,1,12,1.60,305.32,M,-33.324,M,,*76
2018-01-12 04:36:51 1515749811.598259: $GPRMC,093652,A,3946.9672,N,08404.9757,W,0.8180,71.377,120118,,*0D
2018-01-12 04:36:51 1515749811.598320: $GPGSA,A,3,2,5,6,12,25,29,9,20,23,19,17,138,2.4,1.6,2.1*00
2018-01-12 04:36:52 1515749812.878122: $GPGSV,3,1,12,02,70,006,34,05,58,201,39,06,42,060,27,12,48,241,38*7D
2018-01-12 04:36:52 1515749812.878288: $GPGSV,3,2,12,25,35,294,28,29,17,309,38,19,26,120,00,09,19,060,00*7B
2018-01-12 04:36:52 1515749812.878354: $GPGSV,3,3,12,17,08,124,00,20,06,220,00,04,59,295,00,138,38,213,00*40
2018-01-12 04:36:52 1515749812.991735: $GPZDA,093652.97,12,01,2018,00,00*6A
2018-01-12 04:36:52 1515749812.991859: $GPGGA,093652,3946.9668,N,08404.9757,W,1,06,1.60,304.68,M,-33.324,M,,*76
2018-01-12 04:36:52 1515749812.991923: $GPRMC,093652,A,3946.9668,N,08404.9757,W,0.2959,54.767,120118,,*02
2018-01-12 04:36:52 1515749812.991983: $GPGSA,A,3,2,5,6,12,25,29,,,,,,,2.4,1.6,2.1*0E
2018-01-12 04:36:53 1515749813.820675: $GPZDA,093654.00,12,01,2018,00,00*62
2018-01-12 04:36:53 1515749813.820831: $GPGGA,093654,3946.9667,N,08404.9750,W,1,06,0.80,304.76,M,-33.324,M,,*78
2018-01-12 04:36:53 1515749813.820898: $GPRMC,093654,A,3946.9667,N,08404.9750,W,0.3106,249.940,120118,,*3A
2018-01-12 04:36:53 1515749813.820960: $GPGSA,A,3,2,5,6,12,25,29,,,,,,,2.4,0.8,2.1*01
2018-01-12 04:36:53 1515749813.821016: $GPGBS,093654,11.98,M,14.47,M,47.88,M*07
2018-01-12 04:36:54 1515749814.391486: $GPZDA,093655.00,12,01,2018,00,00*63
2018-01-12 04:36:54 1515749814.391636: $GPGGA,093655,3946.9667,N,08404.9750,W,1,06,0.80,304.76,M,-33.324,M,,*79
2018-01-12 04:36:54 1515749814.391702: $GPRMC,093655,A,3946.9667,N,08404.9750,W,0.1567,189.200,120118,,*3A
2018-01-12 04:36:54 1515749814.391763: $GPGSA,A,3,2,5,6,12,25,29,,,,,,,2.4,0.8,2.1*01
2018-01-12 04:36:54 1515749814.391819: $GPGBS,093655,11.98,M,14.47,M,47.88,M*06
2018-01-12 04:36:55 1515749815.733373: $GPGSV,3,1,12,02,70,006,43,05,58,201,49,06,42,060,34,12,48,241,50*76
2018-01-12 04:36:55 1515749815.733532: $GPGSV,3,2,12,25,35,294,37,29,17,309,49,09,19,060,17,17,08,124,22*73
2018-01-12 04:36:55 1515749815.733597: $GPGSV,3,3,12,19,26,120,22,20,06,220,28,04,59,295,00,138,38,213,41*49
2018-01-12 04:36:55 1515749815.846822: $GPZDA,093656.00,12,01,2018,00,00*60
2018-01-12 04:36:55 1515749815.846952: $GPGGA,093656,3946.9663,N,08404.9743,W,1,11,0.80,304.20,M,-33.324,M,,*79
2018-01-12 04:36:55 1515749815.847016: $GPRMC,093656,A,3946.9663,N,08404.9743,W,0.0000,0.000,120118,,*38
2018-01-12 04:36:55 1515749815.847077: $GPGSA,A,3,2,5,6,12,25,29,9,17,19,20,138,,2.4,0.8,2.1*0E
2018-01-12 04:36:56 1515749816.472255: $GPZDA,093657.00,12,01,2018,00,00*61
2018-01-12 04:36:56 1515749816.472426: $GPGGA,093657,3946.9666,N,08404.9742,W,1,11,0.80,303.43,M,-33.324,M,,*7E
2018-01-12 04:36:56 1515749816.472493: $GPRMC,093657,A,3946.9666,N,08404.9742,W,0.0000,0.000,120118,,*3D
2018-01-12 04:36:56 1515749816.472555: $GPGSA,A,3,2,5,6,12,25,29,9,17,19,20,138,,2.4,0.8,2.1*0E
2018-01-12 04:36:57 1515749817.392992: $GPZDA,093658.00,12,01,2018,00,00*6E
2018-01-12 04:36:57 1515749817.393148: $GPGGA,093658,3946.9666,N,08404.9742,W,1,11,0.80,303.43,M,-33.324,M,,*71
2018-01-12 04:36:57 1515749817.393213: $GPRMC,093658,A,3946.9666,N,08404.9742,W,0.0000,0.000,120118,,*32
2018-01-12 04:36:57 1515749817.393274: $GPGSA,A,3,2,5,6,12,25,29,9,17,19,20,138,,2.4,0.8,2.1*0E
2018-01-12 04:36:57 1515749817.393382: $GPGBS,093658,11.98,M,14.47,M,47.88,M*0B
