2017-12-29 14:48:30 1514576910.166518: {"class":"VERSION","release":"3.16","rev":"3.16-4","proto_major":3,"proto_minor":11}
2017-12-29 14:48:30 1514576910.166980: {"class":"DEVICES","devices":[{"class":"DEVICE","path":"/dev/ttyUSB0","driver":"SiRF","subtype":"9\u0006GSD4e_4.1.2-P1_RPATCH.05-F-GPS-4R-1510281 11/03/2015 307","activated":"2017-12-29T19:48:30.094Z","flags":1,"native":1,"bps":4800,"parity":"N","stopbits":1,"cycle":1.00}]}
2017-12-29 14:48:30 1514576910.167107: {"class":"WATCH","enable":true,"json":false,"nmea":true,"raw":0,"scaled":false,"timing":false,"split24":false,"pps":false}
2017-12-29 14:48:31 1514576911.056934: $GPZDA,194831.75,29,12,2017,00,00*6E
2017-12-29 14:48:31 1514576911.057111: $GPGGA,194831,3946.9600,N,08404.9753,W,1,12,0.80,299.50,M,-33.324,M,,*75
2017-12-29 14:48:31 1514576911.057177: $GPRMC,194831,A,3946.9600,N,08404.9753,W,0.3775,149.506,291217,,*39
2017-12-29 14:48:31 1514576911.057239: $GPGSA,A,3,1,10,12,14,18,22,25,26,31,32,11,138,1.7,0.8,1.3*3B
2017-12-29 14:48:31 1514576911.057298: $GPGBS,194831,10.91,M,10.38,M,30.89,M*09
2017-12-29 14:48:32 1514576912.000961: $GPZDA,194832.43,29,12,2017,00,00*68
2017-12-29 14:48:32 1514576912.001167: $GPGGA,194832,3946.9604,N,08404.9753,W,1,12,0.80,300.14,M,-33.324,M,,*73
2017-12-29 14:48:32 1514576912.001236: $GPRMC,194832,A,3946.9604,N,08404.9753,W,0.1867,180.000,291217,,*36
2017-12-29 14:48:32 1514576912.001297: $GPGSA,A,3,1,10,12,14,18,22,25,26,31,32,11,138,1.7,0.8,1.3*3B
2017-12-29 14:48:32 1514576912.001356: $GPGBS,194832,10.91,M,10.38,M,30.89,M*0A
2017-12-29 14:48:33 1514576913.281936: $GPGSV,3,1,12,01,22,295,35,10,41,150,50,11,06,277,40,12,19,045,45*7F
2017-12-29 14:48:33 1514576913.282107: $GPGSV,3,2,12,14,68,340,43,18,12,145,36,22,24,312,38,25,41,084,52*7B
2017-12-29 14:48:33 1514576913.282172: $GPGSV,3,3,12,31,64,231,47,32,66,045,50,26,08,181,04,138,38,213,00*4D
2017-12-29 14:48:33 1514576913.395572: $GPZDA,194833.00,29,12,2017,00,00*6E
2017-12-29 14:48:33 1514576913.395709: $GPGGA,194833,3946.9601,N,08404.9760,W,1,10,0.80,300.82,M,-33.324,M,,*7A
2017-12-29 14:48:33 1514576913.395795: $GPRMC,194833,A,3946.9601,N,08404.9760,W,0.3006,62.539,291217,,*0D
2017-12-29 14:48:33 1514576913.395857: $GPGSA,A,3,1,10,11,12,14,18,22,25,31,32,,,1.7,0.8,1.3*05
2017-12-29 14:48:34 1514576914.018313: $GPZDA,194834.00,29,12,2017,00,00*69
2017-12-29 14:48:34 1514576914.018455: $GPGGA,194834,3946.9601,N,08404.9760,W,1,10,0.80,300.82,M,-33.324,M,,*7D
2017-12-29 14:48:34 1514576914.018520: $GPRMC,194834,A,3946.9601,N,08404.9760,W,0.1567,9.200,291217,,*3A
2017-12-29 14:48:34 1514576914.018581: $GPGSA,A,3,1,10,11,12,14,18,22,25,31,32,,,1.7,0.8,1.3*05
2017-12-29 14:48:34 1514576914.018638: $GPGBS,194834,10.91,M,10.38,M,30.89,M*0C
2017-12-29 14:48:34 1514576914.470518: $GPZDA,194835.00,29,12,2017,00,00*68
2017-12-29 14:48:34 1514576914.470668: $GPGGA,194835,3946.9605,N,08404.9760,W,1,10,0.80,301.46,M,-33.324,M,,*71
2017-12-29 14:48:34 1514576914.470754: $GPRMC,194835,A,3946.9605,N,08404.9760,W,0.0000,0.000,291217,,*31
2017-12-29 14:48:34 1514576914.470816: $GPGSA,A,3,1,10,11,12,14,18,22,25,31,32,,,1.7,0.8,1.3*05
2017-12-29 14:48:34 1514576914.470891: $GPGBS,194835,10.91,M,10.38,M,30.89,M*0D
2017-12-29 14:48:35 1514576915.680412: $GPGSV,3,1,12,01,22,295,36,10,41,151,49,11,06,277,41,12,19,045,44*75
2017-12-29 14:48:35 1514576915.680573: $GPGSV,3,2,12,14,68,340,42,18,12,145,37,22,24,312,39,25,41,082,51*7F
2017-12-29 14:48:35 1514576915.680638: $GPGSV,3,3,12,31,64,231,47,32,66,045,50,26,08,181,18,138,38,213,45*41
2017-12-29 14:48:35 1514576915.794136: $GPZDA,194836.00,29,12,2017,00,00*6B
2017-12-29 14:48:35 1514576915.794279: $GPGGA,194836,3946.9601,N,08404.9761,W,1,12,0.80,302.23,M,-33.324,M,,*75
2017-12-29 14:48:35 1514576915.794343: $GPRMC,194836,A,3946.9601,N,08404.9761,W,0.1567,9.200,291217,,*39
2017-12-29 14:48:35 1514576915.794404: $GPGSA,A,3,1,10,11,12,14,18,22,25,31,32,26,138,1.7,0.8,1.3*3B
2017-12-29 14:48:36 1514576916.344934: $GPZDA,194837.00,29,12,2017,00,00*6A
2017-12-29 14:48:36 1514576916.345098: $GPGGA,194837,3946.9601,N,08404.9761,W,1,12,0.80,302.23,M,-33.324,M,,*74
2017-12-29 14:48:36 1514576916.345217: $GPRMC,194837,A,3946.9601,N,08404.9761,W,0.0000,0.000,291217,,*36
2017-12-29 14:48:36 1514576916.345279: $GPGSA,A,3,1,10,11,12,14,18,22,25,31,32,26,138,1.7,0.8,1.3*3B
2017-12-29 14:48:37 1514576917.344460: $GPZDA,194838.00,29,12,2017,00,00*65
2017-12-29 14:48:37 1514576917.344626: $GPGGA,194838,3946.9601,N,08404.9761,W,1,12,0.80,302.23,M,-33.324,M,,*7B
2017-12-29 14:48:37 1514576917.344691: $GPRMC,194838,A,3946.9601,N,08404.9761,W,0.0000,0.000,291217,,*39
2017-12-29 14:48:37 1514576917.344778: $GPGSA,A,3,1,10,11,12,14,18,22,25,31,32,26,138,1.7,0.8,1.3*3B
2017-12-29 14:48:37 1514576917.344855: $GPGBS,194838,10.91,M,10.38,M,30.89,M*00
2017-12-29 14:48:38 1514576918.678642: $GPGSV,3,1,12,01,22,295,37,10,41,151,50,11,06,277,41,12,19,045,44*7C
2017-12-29 14:48:38 1514576918.678812: $GPGSV,3,2,12,14,68,340,42,18,12,145,37,22,24,312,39,25,41,082,51*7F
2017-12-29 14:48:38 1514576918.678895: $GPGSV,3,3,12,31,64,231,48,32,66,045,50,26,08,181,20,138,38,213,43*43
2017-12-29 14:48:38 1514576918.792328: $GPZDA,194839.00,29,12,2017,00,00*64
2017-12-29 14:48:38 1514576918.792463: $GPGGA,194839,3946.9602,N,08404.9762,W,1,12,0.80,303.63,M,-33.324,M,,*7F
2017-12-29 14:48:38 1514576918.792528: $GPRMC,194839,A,3946.9602,N,08404.9762,W,0.0000,0.000,291217,,*38
2017-12-29 14:48:38 1514576918.792588: $GPGSA,A,3,1,10,11,12,14,18,22,25,31,32,26,138,1.7,0.8,1.3*3B
2017-12-29 14:48:39 1514576919.345660: $GPZDA,194840.00,29,12,2017,00,00*6A
2017-12-29 14:48:39 1514576919.345859: $GPGGA,194840,3946.9602,N,08404.9762,W,1,12,0.80,303.63,M,-33.324,M,,*71
2017-12-29 14:48:39 1514576919.345927: $GPRMC,194840,A,3946.9602,N,08404.9762,W,0.0000,0.000,291217,,*36
2017-12-29 14:48:39 1514576919.345988: $GPGSA,A,3,1,10,11,12,14,18,22,25,31,32,26,138,1.7,0.8,1.3*3B
