2017-12-01 17:59:19 1512169159.216693: {"class":"VERSION","release":"3.16","rev":"3.16-4","proto_major":3,"proto_minor":11}
2017-12-01 17:59:19 1512169159.217107: {"class":"DEVICES","devices":[{"class":"DEVICE","path":"/dev/ttyUSB0","driver":"SiRF","subtype":"9\u0006GSD4e_4.1.2-P1_RPATCH.05-F-GPS-4R-1510281 11/03/2015 307","activated":"2017-12-01T22:59:19.214Z","flags":1,"native":1,"bps":4800,"parity":"N","stopbits":1,"cycle":1.00}]}
2017-12-01 17:59:19 1512169159.217246: {"class":"WATCH","enable":true,"json":false,"nmea":true,"raw":0,"scaled":false,"timing":false,"split24":false,"pps":false}
2017-12-01 17:59:19 1512169159.391403: $GPZDA,225920.00,01,12,2017,00,00*6E
2017-12-01 17:59:19 1512169159.391568: $GPGGA,225920,3946.9735,N,08404.9839,W,2,11,0.80,299.08,M,-33.325,M,,*75
2017-12-01 17:59:19 1512169159.391634: $GPRMC,225920,A,3946.9735,N,08404.9839,W,0.0000,0.000,011217,,*36
2017-12-01 17:59:19 1512169159.391695: $GPGSA,A,3,1,3,10,14,16,22,29,25,26,32,138,,2.0,0.8,1.5*0E
2017-12-01 17:59:20 1512169160.731890: $GPGSV,3,1,11,01,12,261,37,03,33,309,47,10,08,159,38,14,63,073,43*7E
2017-12-01 17:59:20 1512169160.732089: $GPGSV,3,2,11,16,12,189,40,22,48,288,46,29,06,082,29,25,26,045,41*7F
2017-12-01 17:59:20 1512169160.732171: $GPGSV,3,3,11,26,41,175,46,32,44,097,44,138,38,213,46*75
2017-12-01 17:59:20 1512169160.845256: $GPZDA,225921.00,01,12,2017,00,00*6F
2017-12-01 17:59:20 1512169160.845424: $GPGGA,225921,3946.9735,N,08404.9839,W,2,11,0.80,299.08,M,-33.325,M,,*74
2017-12-01 17:59:20 1512169160.845490: $GPRMC,225921,A,3946.9735,N,08404.9839,W,0.0000,0.000,011217,,*37
2017-12-01 17:59:20 1512169160.845550: $GPGSA,A,3,1,3,10,14,16,22,29,25,26,32,138,,2.0,0.8,1.5*0E
2017-12-01 17:59:21 1512169161.470628: $GPZDA,225922.00,01,12,2017,00,00*6C
2017-12-01 17:59:21 1512169161.470806: $GPGGA,225922,3946.9735,N,08404.9839,W,2,11,0.80,299.08,M,-33.325,M,,*77
2017-12-01 17:59:21 1512169161.470873: $GPRMC,225922,A,3946.9735,N,08404.9839,W,0.0000,0.000,011217,,*34
2017-12-01 17:59:21 1512169161.470934: $GPGSA,A,3,1,3,10,14,16,22,29,25,26,32,138,,2.0,0.8,1.5*0E
2017-12-01 17:59:22 1512169162.420193: $GPZDA,225923.00,01,12,2017,00,00*6D
2017-12-01 17:59:22 1512169162.420366: $GPGGA,225923,3946.9735,N,08404.9839,W,2,11,0.80,299.08,M,-33.325,M,,*76
2017-12-01 17:59:22 1512169162.420433: $GPRMC,225923,A,3946.9735,N,08404.9839,W,0.0000,0.000,011217,,*35
2017-12-01 17:59:22 1512169162.420494: $GPGSA,A,3,1,3,10,14,16,22,29,25,26,32,138,,2.0,0.8,1.5*0E
2017-12-01 17:59:23 1512169163.757193: $GPGSV,3,1,11,01,12,261,38,03,33,309,47,10,08,159,38,14,63,073,43*71
2017-12-01 17:59:23 1512169163.757374: $GPGSV,3,2,11,16,12,189,39,22,48,288,46,29,06,082,28,25,26,045,41*70
2017-12-01 17:59:23 1512169163.757441: $GPGSV,3,3,11,26,41,175,46,32,44,097,45,138,38,213,46*74
2017-12-01 17:59:23 1512169163.870660: $GPZDA,225924.00,01,12,2017,00,00*6A
2017-12-01 17:59:23 1512169163.870831: $GPGGA,225924,3946.9735,N,08404.9839,W,2,11,0.80,299.08,M,-33.325,M,,*71
2017-12-01 17:59:23 1512169163.870899: $GPRMC,225924,A,3946.9735,N,08404.9839,W,0.0000,0.000,011217,,*32
2017-12-01 17:59:23 1512169163.870982: $GPGSA,A,3,1,3,10,14,16,22,29,25,26,32,138,,2.0,0.8,1.5*0E
2017-12-01 17:59:24 1512169164.390248: $GPZDA,225925.00,01,12,2017,00,00*6B
2017-12-01 17:59:24 1512169164.390517: $GPGGA,225925,3946.9735,N,08404.9839,W,2,11,0.80,299.08,M,-33.325,M,,*70
2017-12-01 17:59:24 1512169164.390644: $GPRMC,225925,A,3946.9735,N,08404.9839,W,0.0000,0.000,011217,,*33
2017-12-01 17:59:24 1512169164.390763: $GPGSA,A,3,1,3,10,14,16,22,29,25,26,32,138,,2.0,0.8,1.5*0E
2017-12-01 17:59:25 1512169165.422463: $GPZDA,225926.00,01,12,2017,00,00*68
2017-12-01 17:59:25 1512169165.422654: $GPGGA,225926,3946.9735,N,08404.9839,W,2,11,0.80,299.08,M,-33.325,M,,*73
2017-12-01 17:59:25 1512169165.422721: $GPRMC,225926,A,3946.9735,N,08404.9839,W,0.0000,0.000,011217,,*30
2017-12-01 17:59:25 1512169165.422782: $GPGSA,A,3,1,3,10,14,16,22,29,25,26,32,138,,2.0,0.8,1.5*0E
2017-12-01 17:59:26 1512169166.725027: $GPGSV,3,1,11,01,12,261,38,03,33,309,47,10,08,159,38,14,63,073,42*70
2017-12-01 17:59:26 1512169166.725322: $GPGSV,3,2,11,16,12,189,40,22,48,288,46,29,06,082,28,25,26,045,42*7D
2017-12-01 17:59:26 1512169166.725396: $GPGSV,3,3,11,26,41,175,46,32,44,097,44,138,38,213,46*75
2017-12-01 17:59:26 1512169166.838691: $GPZDA,225927.00,01,12,2017,00,00*69
2017-12-01 17:59:26 1512169166.838862: $GPGGA,225927,3946.9735,N,08404.9839,W,2,11,0.80,299.08,M,-33.325,M,,*72
2017-12-01 17:59:26 1512169166.838950: $GPRMC,225927,A,3946.9735,N,08404.9839,W,0.0000,0.000,011217,,*31
2017-12-01 17:59:26 1512169166.839013: $GPGSA,A,3,1,3,10,14,16,22,29,25,26,32,138,,2.0,0.8,1.5*0E
2017-12-01 17:59:27 1512169167.395778: $GPZDA,225928.00,01,12,2017,00,00*66
2017-12-01 17:59:27 1512169167.395972: $GPGGA,225928,3946.9735,N,08404.9839,W,2,11,0.80,299.08,M,-33.325,M,,*7D
2017-12-01 17:59:27 1512169167.396040: $GPRMC,225928,A,3946.9735,N,08404.9839,W,0.0000,0.000,011217,,*3E
2017-12-01 17:59:27 1512169167.396119: $GPGSA,A,3,1,3,10,14,16,22,29,25,26,32,138,,2.0,0.8,1.5*0E
2017-12-01 17:59:28 1512169168.395170: $GPZDA,225929.00,01,12,2017,00,00*67
2017-12-01 17:59:28 1512169168.395357: $GPGGA,225929,3946.9735,N,08404.9839,W,2,11,0.80,299.08,M,-33.325,M,,*7C
2017-12-01 17:59:28 1512169168.395424: $GPRMC,225929,A,3946.9735,N,08404.9839,W,0.0000,0.000,011217,,*3F
2017-12-01 17:59:28 1512169168.395486: $GPGSA,A,3,1,3,10,14,16,22,29,25,26,32,138,,2.0,0.8,1.5*0E
2017-12-01 17:59:29 1512169169.730862: $GPGSV,3,1,11,01,12,261,37,03,33,309,47,10,08,159,38,14,63,073,43*7E
2017-12-01 17:59:29 1512169169.731075: $GPGSV,3,2,11,16,12,189,39,22,48,288,47,29,06,082,28,25,26,045,42*72
2017-12-01 17:59:29 1512169169.731143: $GPGSV,3,3,11,26,41,175,47,32,44,097,44,138,38,213,46*74
2017-12-01 17:59:29 1512169169.844535: $GPZDA,225930.00,01,12,2017,00,00*6F
2017-12-01 17:59:29 1512169169.844673: $GPGGA,225930,3946.9735,N,08404.9839,W,2,11,0.80,299.08,M,-33.325,M,,*74
2017-12-01 17:59:29 1512169169.844738: $GPRMC,225930,A,3946.9735,N,08404.9839,W,0.0000,0.000,011217,,*37
2017-12-01 17:59:29 1512169169.844799: $GPGSA,A,3,1,3,10,14,16,22,29,25,26,32,138,,2.0,0.8,1.5*0E
2017-12-01 17:59:30 1512169170.393986: $GPZDA,225931.00,01,12,2017,00,00*6E
2017-12-01 17:59:30 1512169170.394222: $GPGGA,225931,3946.9735,N,08404.9839,W,2,11,0.80,299.08,M,-33.325,M,,*75
2017-12-01 17:59:30 1512169170.394292: $GPRMC,225931,A,3946.9735,N,08404.9839,W,0.0000,0.000,011217,,*36
2017-12-01 17:59:30 1512169170.394353: $GPGSA,A,3,1,3,10,14,16,22,29,25,26,32,138,,2.0,0.8,1.5*0E
2017-12-01 17:59:31 1512169171.396973: $GPZDA,225932.00,01,12,2017,00,00*6D
2017-12-01 17:59:31 1512169171.397173: $GPGGA,225932,3946.9735,N,08404.9839,W,2,11,0.80,299.08,M,-33.325,M,,*76
2017-12-01 17:59:31 1512169171.397240: $GPRMC,225932,A,3946.9735,N,08404.9839,W,0.0000,0.000,011217,,*35
2017-12-01 17:59:31 1512169171.397301: $GPGSA,A,3,1,3,10,14,16,22,29,25,26,32,138,,2.0,0.8,1.5*0E
2017-12-01 17:59:32 1512169172.731204: $GPGSV,3,1,11,01,12,261,38,03,33,309,47,10,08,159,38,14,63,073,43*71
2017-12-01 17:59:32 1512169172.731465: $GPGSV,3,2,11,16,12,189,40,22,48,288,47,29,06,082,10,25,26,045,43*76
2017-12-01 17:59:32 1512169172.731544: $GPGSV,3,3,11,26,41,175,46,32,44,097,44,138,38,213,46*75
2017-12-01 17:59:32 1512169172.844594: $GPZDA,225933.00,01,12,2017,00,00*6C
2017-12-01 17:59:32 1512169172.844778: $GPGGA,225933,3946.9735,N,08404.9839,W,2,10,0.80,299.08,M,-33.325,M,,*76
2017-12-01 17:59:32 1512169172.844869: $GPRMC,225933,A,3946.9735,N,08404.9839,W,0.0000,0.000,011217,,*34
2017-12-01 17:59:32 1512169172.844932: $GPGSA,A,3,1,3,10,14,16,22,25,26,32,138,,,2.0,0.8,1.5*05
2017-12-01 17:59:33 1512169173.394185: $GPZDA,225934.00,01,12,2017,00,00*6B
2017-12-01 17:59:33 1512169173.398618: $GPGGA,225934,3946.9735,N,08404.9839,W,2,10,0.80,299.08,M,-33.325,M,,*71
2017-12-01 17:59:33 1512169173.398734: $GPRMC,225934,A,3946.9735,N,08404.9839,W,0.0000,0.000,011217,,*33
2017-12-01 17:59:33 1512169173.398798: $GPGSA,A,3,1,3,10,14,16,22,25,26,32,138,,,2.0,0.8,1.5*05
2017-12-01 17:59:34 1512169174.395046: $GPZDA,225935.00,01,12,2017,00,00*6A
2017-12-01 17:59:34 1512169174.395223: $GPGGA,225935,3946.9735,N,08404.9839,W,2,10,0.80,299.08,M,-33.325,M,,*70
2017-12-01 17:59:34 1512169174.395343: $GPRMC,225935,A,3946.9735,N,08404.9839,W,0.0000,0.000,011217,,*32
2017-12-01 17:59:34 1512169174.395407: $GPGSA,A,3,1,3,10,14,16,22,25,26,32,138,,,2.0,0.8,1.5*05
2017-12-01 17:59:35 1512169175.730766: $GPGSV,3,1,11,01,12,261,37,03,33,309,47,10,08,159,38,14,63,073,42*7F
2017-12-01 17:59:35 1512169175.730982: $GPGSV,3,2,11,16,12,189,40,22,48,288,47,29,06,082,24,25,26,045,42*70
2017-12-01 17:59:35 1512169175.731050: $GPGSV,3,3,11,26,41,175,46,32,44,097,44,138,38,213,46*75
2017-12-01 17:59:35 1512169175.844110: $GPZDA,225936.00,01,12,2017,00,00*69
2017-12-01 17:59:35 1512169175.844243: $GPGGA,225936,3946.9735,N,08404.9839,W,2,11,0.80,299.08,M,-33.325,M,,*72
2017-12-01 17:59:35 1512169175.844309: $GPRMC,225936,A,3946.9735,N,08404.9839,W,0.0000,0.000,011217,,*31
2017-12-01 17:59:35 1512169175.844369: $GPGSA,A,3,1,3,10,14,16,22,29,25,26,32,138,,2.0,0.8,1.5*0E
2017-12-01 17:59:36 1512169176.470782: $GPZDA,225937.00,01,12,2017,00,00*68
2017-12-01 17:59:36 1512169176.470999: $GPGGA,225937,3946.9735,N,08404.9839,W,2,11,0.80,299.08,M,-33.325,M,,*73
2017-12-01 17:59:36 1512169176.471067: $GPRMC,225937,A,3946.9735,N,08404.9839,W,0.0000,0.000,011217,,*30
2017-12-01 17:59:36 1512169176.471128: $GPGSA,A,3,1,3,10,14,16,22,29,25,26,32,138,,2.0,0.8,1.5*0E
2017-12-01 17:59:37 1512169177.396617: $GPZDA,225938.00,01,12,2017,00,00*67
2017-12-01 17:59:37 1512169177.396814: $GPGGA,225938,3946.9735,N,08404.9839,W,2,11,0.80,299.08,M,-33.325,M,,*7C
2017-12-01 17:59:37 1512169177.396883: $GPRMC,225938,A,3946.9735,N,08404.9839,W,0.0000,0.000,011217,,*3F
2017-12-01 17:59:37 1512169177.396971: $GPGSA,A,3,1,3,10,14,16,22,29,25,26,32,138,,2.0,0.8,1.5*0E
2017-12-01 17:59:38 1512169178.731176: $GPGSV,3,1,11,01,12,261,37,03,33,309,47,10,08,159,37,14,63,073,42*70
2017-12-01 17:59:38 1512169178.731416: $GPGSV,3,2,11,16,12,189,40,22,48,288,47,29,06,082,13,25,26,045,42*74
2017-12-01 17:59:38 1512169178.731488: $GPGSV,3,3,11,26,41,175,46,32,44,097,43,138,38,213,46*72
2017-12-01 17:59:38 1512169178.844481: $GPZDA,225939.00,01,12,2017,00,00*66
2017-12-01 17:59:38 1512169178.844657: $GPGGA,225939,3946.9735,N,08404.9839,W,2,11,0.80,299.08,M,-33.325,M,,*7D
2017-12-01 17:59:38 1512169178.844724: $GPRMC,225939,A,3946.9735,N,08404.9839,W,0.0000,0.000,011217,,*3E
2017-12-01 17:59:38 1512169178.844814: $GPGSA,A,3,1,3,10,14,16,22,29,25,26,32,138,,2.0,0.8,1.5*0E
