2017-11-15 19:24:36 1510791876.182651: {"class":"VERSION","release":"3.17","rev":"3.17","proto_major":3,"proto_minor":12}
2017-11-15 19:24:36 1510791876.183187: {"class":"DEVICES","devices":[{"class":"DEVICE","path":"/dev/ttyUSB0","driver":"SiRF","subtype":"9\u0006GSD4e_4.1.2-P1_RPATCH.05-F-GPS-4R-1510281 11/03/2015 307","activated":"2017-11-16T00:24:36.152Z","flags":1,"native":1,"bps":4800,"parity":"N","stopbits":1,"cycle":1.00}]}
2017-11-15 19:24:36 1510791876.183313: {"class":"WATCH","enable":true,"json":false,"nmea":true,"raw":0,"scaled":false,"timing":false,"split24":false,"pps":false}
2017-11-15 19:24:36 1510791876.665571: $GPGSV,3,1,12,32,38,105,25,31,70,021,21,14,57,088,12,26,50,174,27*76
2017-11-15 19:24:36 1510791876.665756: $GPGSV,3,2,12,16,20,190,00,29,10,073,04,22,50,274,13,03,38,301,21*73
2017-11-15 19:24:36 1510791876.665817: $GPGSV,3,3,12,25,19,040,00,23,09,300,00,01,07,255,00,135,23,238,00*41
2017-11-15 19:24:36 1510791876.779019: $GPZDA,002435.00,16,11,2017,00,00*65
2017-11-15 19:24:36 1510791876.779183: $GPGGA,002435,3946.9631,N,08404.9524,W,1,06,1.40,311.32,M,-33.324,M,,*7E
2017-11-15 19:24:36 1510791876.779246: $GPRMC,002435,A,3946.9631,N,08404.9524,W,0.3423,4.197,161117,,*34
2017-11-15 19:24:36 1510791876.779301: $GPGSA,A,3,32,31,14,26,22,3,,,,,,,3.4,1.4,2.9*0A
2017-11-15 19:24:37 1510791877.330084: $GPZDA,002436.00,16,11,2017,00,00*66
2017-11-15 19:24:37 1510791877.330264: $GPGGA,002436,3946.9631,N,08404.9531,W,1,06,1.40,311.24,M,-33.324,M,,*7E
2017-11-15 19:24:37 1510791877.330329: $GPRMC,002436,A,3946.9631,N,08404.9531,W,0.4179,328.778,161117,,*34
2017-11-15 19:24:37 1510791877.330386: $GPGSA,A,3,32,31,14,26,22,3,,,,,,,3.4,1.4,2.9*0A
2017-11-15 19:24:38 1510791878.330779: $GPZDA,002437.00,16,11,2017,00,00*67
2017-11-15 19:24:38 1510791878.330960: $GPGGA,002437,3946.9635,N,08404.9531,W,1,06,1.60,310.48,M,-33.324,M,,*72
2017-11-15 19:24:38 1510791878.331023: $GPRMC,002437,A,3946.9635,N,08404.9531,W,0.7238,320.710,161117,,*32
2017-11-15 19:24:38 1510791878.331081: $GPGSA,A,3,32,31,14,26,22,3,,,,,,,3.4,1.6,2.9*08
2017-11-15 19:24:39 1510791879.681524: $GPGSV,3,1,12,32,38,105,25,31,70,021,22,14,57,088,14,26,50,174,28*7C
2017-11-15 19:24:39 1510791879.681707: $GPGSV,3,2,12,16,20,190,00,29,10,073,08,22,50,274,13,03,38,301,20*7E
2017-11-15 19:24:39 1510791879.681786: $GPGSV,3,3,12,25,19,040,00,23,09,300,00,01,07,255,00,135,23,238,00*41
2017-11-15 19:24:39 1510791879.794844: $GPZDA,002438.00,16,11,2017,00,00*68
2017-11-15 19:24:39 1510791879.795009: $GPGGA,002438,3946.9635,N,08404.9531,W,1,07,1.40,310.48,M,-33.324,M,,*7E
2017-11-15 19:24:39 1510791879.795092: $GPRMC,002438,A,3946.9635,N,08404.9531,W,0.9060,347.792,161117,,*37
2017-11-15 19:24:39 1510791879.795150: $GPGSA,A,3,32,31,14,26,29,22,3,,,,,,3.4,1.4,2.9*01
2017-11-15 19:24:40 1510791880.329656: $GPZDA,002439.00,16,11,2017,00,00*69
2017-11-15 19:24:40 1510791880.329827: $GPGGA,002439,3946.9638,N,08404.9537,W,1,07,1.60,309.63,M,-33.324,M,,*77
2017-11-15 19:24:40 1510791880.329889: $GPRMC,002439,A,3946.9638,N,08404.9537,W,0.7238,320.710,161117,,*37
2017-11-15 19:24:40 1510791880.329945: $GPGSA,A,3,32,31,14,26,29,22,3,,,,,,3.4,1.6,2.9*03
2017-11-15 19:24:41 1510791881.346109: $GPZDA,002440.00,16,11,2017,00,00*67
2017-11-15 19:24:41 1510791881.346271: $GPGGA,002440,3946.9638,N,08404.9537,W,1,07,1.60,309.63,M,-33.324,M,,*79
2017-11-15 19:24:41 1510791881.346331: $GPRMC,002440,A,3946.9638,N,08404.9537,W,0.5912,309.173,161117,,*30
2017-11-15 19:24:41 1510791881.346386: $GPGSA,A,3,32,31,14,26,29,22,3,,,,,,3.4,1.6,2.9*03
2017-11-15 19:24:42 1510791882.681975: $GPGSV,3,1,12,32,38,105,26,31,70,021,22,14,57,088,14,26,50,174,28*7F
2017-11-15 19:24:42 1510791882.682109: $GPGSV,3,2,12,16,20,190,11,29,10,073,07,22,50,274,14,03,38,301,20*76
2017-11-15 19:24:42 1510791882.682168: $GPGSV,3,3,12,25,19,040,00,23,09,300,00,01,07,255,00,135,23,238,00*41
2017-11-15 19:24:42 1510791882.795562: $GPZDA,002441.00,16,11,2017,00,00*66
2017-11-15 19:24:42 1510791882.795724: $GPGGA,002441,3946.9639,N,08404.9544,W,1,07,1.60,309.55,M,-33.324,M,,*78
2017-11-15 19:24:42 1510791882.795836: $GPRMC,002441,A,3946.9639,N,08404.9544,W,0.9988,284.546,161117,,*3D
2017-11-15 19:24:42 1510791882.795893: $GPGSA,A,3,32,31,14,26,29,22,3,,,,,,3.4,1.6,2.9*03
2017-11-15 19:24:43 1510791883.346483: $GPZDA,002442.00,16,11,2017,00,00*65
2017-11-15 19:24:43 1510791883.346667: $GPGGA,002442,3946.9635,N,08404.9544,W,1,07,1.60,308.91,M,-33.324,M,,*7E
2017-11-15 19:24:43 1510791883.346841: $GPRMC,002442,A,3946.9635,N,08404.9544,W,0.9066,309.458,161117,,*31
2017-11-15 19:24:43 1510791883.346901: $GPGSA,A,3,32,31,14,26,29,22,3,,,,,,3.4,1.6,2.9*03
2017-11-15 19:24:44 1510791884.344911: $GPZDA,002443.00,16,11,2017,00,00*64
2017-11-15 19:24:44 1510791884.345072: $GPGGA,002443,3946.9638,N,08404.9543,W,1,07,1.80,308.15,M,-33.324,M,,*77
2017-11-15 19:24:44 1510791884.345132: $GPRMC,002443,A,3946.9638,N,08404.9543,W,0.4179,328.778,161117,,*3A
2017-11-15 19:24:44 1510791884.345189: $GPGSA,A,3,32,31,14,26,29,22,3,,,,,,3.4,1.8,2.9*0D
2017-11-15 19:24:45 1510791885.680350: $GPGSV,3,1,12,32,38,105,26,31,70,021,22,14,57,088,00,26,50,174,27*75
2017-11-15 19:24:45 1510791885.680518: $GPGSV,3,2,12,16,20,190,00,29,10,073,08,22,50,274,14,03,38,301,20*79
2017-11-15 19:24:45 1510791885.680598: $GPGSV,3,3,12,25,19,040,00,23,09,300,00,01,07,255,00,135,23,238,00*41
2017-11-15 19:24:45 1510791885.794043: $GPZDA,002444.00,16,11,2017,00,00*63
2017-11-15 19:24:45 1510791885.794202: $GPGGA,002444,3946.9638,N,08404.9543,W,1,06,1.60,308.15,M,-33.324,M,,*7F
2017-11-15 19:24:45 1510791885.794263: $GPRMC,002444,A,3946.9638,N,08404.9543,W,0.2422,273.794,161117,,*3D
2017-11-15 19:24:45 1510791885.794318: $GPGSA,A,3,32,31,26,29,22,3,,,,,,,3.4,1.6,2.9*06
