2017-11-16 17:28:37 1510871317.021752: {"class":"VERSION","release":"3.17","rev":"3.17","proto_major":3,"proto_minor":12}
2017-11-16 17:28:37 1510871317.022216: {"class":"DEVICES","devices":[{"class":"DEVICE","path":"/dev/ttyUSB0","driver":"SiRF","subtype":"9\u0006GSD4e_4.1.2-P1_RPATCH.05-F-GPS-4R-1510281 11/03/2015 307","activated":"2017-11-16T22:28:36.993Z","flags":1,"native":1,"bps":4800,"parity":"N","stopbits":1,"cycle":1.00}]}
2017-11-16 17:28:37 1510871317.022335: {"class":"WATCH","enable":true,"json":false,"nmea":true,"raw":0,"scaled":false,"timing":false,"split24":false,"pps":false}
2017-11-16 17:28:37 1510871317.401957: $GPZDA,222836.00,16,11,2017,00,00*6A
2017-11-16 17:28:37 1510871317.402119: $GPGGA,222836,3946.9573,N,08404.9836,W,2,11,0.80,305.51,M,-33.324,M,,*72
2017-11-16 17:28:37 1510871317.402181: $GPRMC,222836,A,3946.9573,N,08404.9836,W,0.0000,0.000,161117,,*3D
2017-11-16 17:28:37 1510871317.402236: $GPGSA,A,3,1,10,22,12,14,18,11,25,31,32,138,,1.6,0.8,1.3*3E
2017-11-16 17:28:38 1510871318.401603: $GPZDA,222837.00,16,11,2017,00,00*6B
2017-11-16 17:28:38 1510871318.401805: $GPGGA,222837,3946.9573,N,08404.9836,W,2,11,0.80,305.51,M,-33.324,M,,*73
2017-11-16 17:28:38 1510871318.401870: $GPRMC,222837,A,3946.9573,N,08404.9836,W,0.0000,0.000,161117,,*3C
2017-11-16 17:28:38 1510871318.401933: $GPGSA,A,3,1,10,22,12,14,18,11,25,31,32,138,,1.6,0.8,1.3*3E
2017-11-16 17:28:39 1510871319.751196: $GPGSV,3,1,11,01,21,303,36,10,50,147,50,22,17,312,39,12,23,051,51*71
2017-11-16 17:28:39 1510871319.751358: $GPGSV,3,2,11,14,65,324,48,18,20,144,37,11,09,283,40,25,39,093,49*77
2017-11-16 17:28:39 1510871319.751420: $GPGSV,3,3,11,31,53,223,49,32,69,022,50,138,38,213,46*7B
2017-11-16 17:28:39 1510871319.864528: $GPZDA,222838.00,16,11,2017,00,00*64
2017-11-16 17:28:39 1510871319.864711: $GPGGA,222838,3946.9573,N,08404.9836,W,2,11,0.80,305.51,M,-33.324,M,,*7C
2017-11-16 17:28:39 1510871319.864790: $GPRMC,222838,A,3946.9573,N,08404.9836,W,0.0000,0.000,161117,,*33
2017-11-16 17:28:39 1510871319.864848: $GPGSA,A,3,1,10,22,12,14,18,11,25,31,32,138,,1.6,0.8,1.3*3E
2017-11-16 17:28:40 1510871320.421586: $GPZDA,222839.00,16,11,2017,00,00*65
2017-11-16 17:28:40 1510871320.421746: $GPGGA,222839,3946.9573,N,08404.9836,W,2,11,0.80,305.51,M,-33.324,M,,*7D
2017-11-16 17:28:40 1510871320.421826: $GPRMC,222839,A,3946.9573,N,08404.9836,W,0.0000,0.000,161117,,*32
2017-11-16 17:28:40 1510871320.421883: $GPGSA,A,3,1,10,22,12,14,18,11,25,31,32,138,,1.6,0.8,1.3*3E
2017-11-16 17:28:41 1510871321.420701: $GPZDA,222840.00,16,11,2017,00,00*6B
2017-11-16 17:28:41 1510871321.420929: $GPGGA,222840,3946.9573,N,08404.9836,W,2,11,0.80,305.51,M,-33.324,M,,*73
2017-11-16 17:28:41 1510871321.420991: $GPRMC,222840,A,3946.9573,N,08404.9836,W,0.0000,0.000,161117,,*3C
2017-11-16 17:28:41 1510871321.421047: $GPGSA,A,3,1,10,22,12,14,18,11,25,31,32,138,,1.6,0.8,1.3*3E
2017-11-16 17:28:42 1510871322.764006: $GPGSV,3,1,11,01,21,303,36,10,50,147,50,22,17,312,39,12,23,051,51*71
2017-11-16 17:28:42 1510871322.764177: $GPGSV,3,2,11,14,65,324,48,18,20,144,37,11,09,283,40,25,39,093,49*77
2017-11-16 17:28:42 1510871322.764238: $GPGSV,3,3,11,31,53,223,49,32,69,022,50,138,38,213,44*79
2017-11-16 17:28:42 1510871322.877811: $GPZDA,222841.00,16,11,2017,00,00*6A
2017-11-16 17:28:42 1510871322.878108: $GPGGA,222841,3946.9573,N,08404.9836,W,2,11,0.80,305.51,M,-33.324,M,,*72
2017-11-16 17:28:42 1510871322.878225: $GPRMC,222841,A,3946.9573,N,08404.9836,W,0.0000,0.000,161117,,*3D
2017-11-16 17:28:42 1510871322.878338: $GPGSA,A,3,1,10,22,12,14,18,11,25,31,32,138,,1.6,0.8,1.3*3E
2017-11-16 17:28:43 1510871323.421957: $GPZDA,222842.00,16,11,2017,00,00*69
2017-11-16 17:28:44 1510871324.109244: $GPGGA,222842,3946.9573,N,08404.9836,W,2,11,0.80,305.51,M,-33.324,M,,*71
2017-11-16 17:28:44 1510871324.109395: $GPRMC,222842,A,3946.9573,N,08404.9836,W,0.0000,0.000,161117,,*3E
2017-11-16 17:28:44 1510871324.109455: $GPGSA,A,3,1,10,22,12,14,18,11,25,31,32,138,,1.6,0.8,1.3*3E
2017-11-16 17:28:44 1510871324.396544: $GPZDA,222843.00,16,11,2017,00,00*68
2017-11-16 17:28:44 1510871324.396700: $GPGGA,222843,3946.9573,N,08404.9836,W,2,11,0.80,305.51,M,-33.324,M,,*70
2017-11-16 17:28:44 1510871324.396829: $GPRMC,222843,A,3946.9573,N,08404.9836,W,0.0000,0.000,161117,,*3F
2017-11-16 17:28:44 1510871324.396903: $GPGSA,A,3,1,10,22,12,14,18,11,25,31,32,138,,1.6,0.8,1.3*3E
2017-11-16 17:28:45 1510871325.758574: $GPGSV,3,1,11,01,21,303,36,10,50,147,50,22,17,312,38,12,23,051,51*70
2017-11-16 17:28:45 1510871325.758762: $GPGSV,3,2,11,14,65,324,48,18,20,144,37,11,09,283,40,25,39,093,48*76
2017-11-16 17:28:45 1510871325.758824: $GPGSV,3,3,11,31,53,223,49,32,69,022,50,138,38,213,44*79
2017-11-16 17:28:45 1510871325.871906: $GPZDA,222844.00,16,11,2017,00,00*6F
2017-11-16 17:28:45 1510871325.872063: $GPGGA,222844,3946.9573,N,08404.9836,W,2,11,0.80,305.51,M,-33.324,M,,*77
2017-11-16 17:28:45 1510871325.872124: $GPRMC,222844,A,3946.9573,N,08404.9836,W,0.0000,0.000,161117,,*38
2017-11-16 17:28:45 1510871325.872179: $GPGSA,A,3,1,10,22,12,14,18,11,25,31,32,138,,1.6,0.8,1.3*3E
2017-11-16 17:28:46 1510871326.497288: $GPZDA,222845.00,16,11,2017,00,00*6E
2017-11-16 17:28:46 1510871326.497444: $GPGGA,222845,3946.9573,N,08404.9836,W,2,11,0.80,305.51,M,-33.324,M,,*76
2017-11-16 17:28:46 1510871326.497505: $GPRMC,222845,A,3946.9573,N,08404.9836,W,0.0000,0.000,161117,,*39
2017-11-16 17:28:46 1510871326.497561: $GPGSA,A,3,1,10,22,12,14,18,11,25,31,32,138,,1.6,0.8,1.3*3E
