2018-01-12 04:13:02 1515748382.087651: {"class":"VERSION","release":"3.16","rev":"3.16-4","proto_major":3,"proto_minor":11}
2018-01-12 04:13:02 1515748382.088099: {"class":"DEVICES","devices":[{"class":"DEVICE","path":"/dev/ttyUSB0","driver":"SiRF","subtype":"9\u0006GSD4e_4.1.2-P1_RPATCH.05-F-GPS-4R-1510281 11/03/2015 307","activated":"2018-01-12T09:13:01.940Z","flags":1,"native":1,"bps":4800,"parity":"N","stopbits":1,"cycle":1.00}]}
2018-01-12 04:13:02 1515748382.088223: {"class":"WATCH","enable":true,"json":false,"nmea":true,"raw":0,"scaled":false,"timing":false,"split24":false,"pps":false}
2018-01-12 04:13:02 1515748382.349446: $GPZDA,091303.00,12,01,2018,00,00*67
2018-01-12 04:13:02 1515748382.349623: $GPGGA,091303,3946.9652,N,08404.9728,W,2,10,1.00,300.27,M,-33.324,M,,*79
2018-01-12 04:13:02 1515748382.349692: $GPRMC,091303,A,3946.9652,N,08404.9728,W,0.0000,0.000,120118,,*30
2018-01-12 04:13:02 1515748382.349753: $GPGSA,A,3,2,5,6,12,25,29,19,17,23,138,,,2.4,1.0,2.1*3D
2018-01-12 04:13:03 1515748383.350194: $GPZDA,091304.00,12,01,2018,00,00*60
2018-01-12 04:13:03 1515748383.350392: $GPGGA,091304,3946.9652,N,08404.9728,W,2,10,0.80,300.27,M,-33.324,M,,*77
2018-01-12 04:13:03 1515748383.350460: $GPRMC,091304,A,3946.9652,N,08404.9728,W,0.0000,0.000,120118,,*37
2018-01-12 04:13:03 1515748383.350521: $GPGSA,A,3,2,5,6,12,25,29,19,17,23,138,,,2.4,0.8,2.1*34
2018-01-12 04:13:04 1515748384.685511: $GPGSV,3,1,12,02,71,333,44,05,45,198,49,06,50,049,48,12,53,259,47*7C
2018-01-12 04:13:04 1515748384.685693: $GPGSV,3,2,12,25,30,306,45,29,08,306,45,09,19,072,00,19,35,111,17*71
2018-01-12 04:13:04 1515748384.685759: $GPGSV,3,3,12,17,17,118,20,23,07,040,17,04,52,279,00,138,38,213,48*46
2018-01-12 04:13:04 1515748384.798885: $GPZDA,091305.00,12,01,2018,00,00*61
2018-01-12 04:13:04 1515748384.799076: $GPGGA,091305,3946.9652,N,08404.9728,W,2,10,0.80,300.27,M,-33.324,M,,*76
2018-01-12 04:13:04 1515748384.799141: $GPRMC,091305,A,3946.9652,N,08404.9728,W,0.0000,0.000,120118,,*36
2018-01-12 04:13:04 1515748384.799204: $GPGSA,A,3,2,5,6,12,25,29,19,17,23,138,,,2.4,0.8,2.1*34
2018-01-12 04:13:05 1515748385.354821: $GPZDA,091306.00,12,01,2018,00,00*62
2018-01-12 04:13:05 1515748385.355009: $GPGGA,091306,3946.9652,N,08404.9728,W,2,10,0.80,300.27,M,-33.324,M,,*75
2018-01-12 04:13:05 1515748385.355082: $GPRMC,091306,A,3946.9652,N,08404.9728,W,0.0000,0.000,120118,,*35
2018-01-12 04:13:05 1515748385.355147: $GPGSA,A,3,2,5,6,12,25,29,19,17,23,138,,,2.4,0.8,2.1*34
2018-01-12 04:13:06 1515748386.349466: $GPZDA,091307.00,12,01,2018,00,00*63
2018-01-12 04:13:06 1515748386.349658: $GPGGA,091307,3946.9652,N,08404.9728,W,2,10,0.80,300.27,M,-33.324,M,,*74
2018-01-12 04:13:06 1515748386.349727: $GPRMC,091307,A,3946.9652,N,08404.9728,W,0.0000,0.000,120118,,*34
2018-01-12 04:13:06 1515748386.349794: $GPGSA,A,3,2,5,6,12,25,29,19,17,23,138,,,2.4,0.8,2.1*34
2018-01-12 04:13:07 1515748387.692627: $GPGSV,3,1,12,02,71,333,44,05,45,198,49,06,50,049,47,12,53,259,46*72
2018-01-12 04:13:07 1515748387.692790: $GPGSV,3,2,12,25,30,306,45,29,08,306,46,09,19,072,00,19,35,111,18*7D
2018-01-12 04:13:07 1515748387.692858: $GPGSV,3,3,12,17,17,118,21,23,07,040,24,04,52,279,00,138,38,213,47*48
2018-01-12 04:13:07 1515748387.806383: $GPZDA,091308.00,12,01,2018,00,00*6C
2018-01-12 04:13:07 1515748387.806556: $GPGGA,091308,3946.9652,N,08404.9728,W,2,10,0.80,300.27,M,-33.324,M,,*7B
2018-01-12 04:13:07 1515748387.806623: $GPRMC,091308,A,3946.9652,N,08404.9728,W,0.0000,0.000,120118,,*3B
2018-01-12 04:13:07 1515748387.806688: $GPGSA,A,3,2,5,6,12,25,29,19,17,23,138,,,2.4,0.8,2.1*34
2018-01-12 04:13:08 1515748388.431736: $GPZDA,091309.00,12,01,2018,00,00*6D
2018-01-12 04:13:08 1515748388.431897: $GPGGA,091309,3946.9652,N,08404.9728,W,2,10,0.80,300.27,M,-33.324,M,,*7A
2018-01-12 04:13:08 1515748388.431971: $GPRMC,091309,A,3946.9652,N,08404.9728,W,0.0000,0.000,120118,,*3A
2018-01-12 04:13:08 1515748388.432039: $GPGSA,A,3,2,5,6,12,25,29,19,17,23,138,,,2.4,0.8,2.1*34
2018-01-12 04:13:09 1515748389.350219: $GPZDA,091310.00,12,01,2018,00,00*65
2018-01-12 04:13:09 1515748389.350426: $GPGGA,091310,3946.9652,N,08404.9728,W,2,10,0.80,300.27,M,-33.324,M,,*72
2018-01-12 04:13:09 1515748389.350556: $GPRMC,091310,A,3946.9652,N,08404.9728,W,0.0000,0.000,120118,,*32
2018-01-12 04:13:09 1515748389.350620: $GPGSA,A,3,2,5,6,12,25,29,19,17,23,138,,,2.4,0.8,2.1*34
2018-01-12 04:13:10 1515748390.685475: $GPGSV,3,1,12,02,71,333,44,05,45,198,50,06,50,049,48,12,53,259,46*75
2018-01-12 04:13:10 1515748390.685660: $GPGSV,3,2,12,25,30,306,45,29,08,306,46,09,19,072,00,19,35,111,19*7C
2018-01-12 04:13:10 1515748390.685725: $GPGSV,3,3,12,17,17,118,26,23,07,040,24,04,52,279,00,138,38,213,48*40
2018-01-12 04:13:10 1515748390.799405: $GPZDA,091311.00,12,01,2018,00,00*64
2018-01-12 04:13:10 1515748390.799584: $GPGGA,091311,3946.9652,N,08404.9728,W,2,10,0.80,300.27,M,-33.324,M,,*73
2018-01-12 04:13:10 1515748390.799653: $GPRMC,091311,A,3946.9652,N,08404.9728,W,0.0000,0.000,120118,,*33
2018-01-12 04:13:10 1515748390.799714: $GPGSA,A,3,2,5,6,12,25,29,19,17,23,138,,,2.4,0.8,2.1*34
2018-01-12 04:13:11 1515748391.349835: $GPZDA,091312.00,12,01,2018,00,00*67
2018-01-12 04:13:11 1515748391.350015: $GPGGA,091312,3946.9652,N,08404.9728,W,2,10,0.80,300.27,M,-33.324,M,,*70
2018-01-12 04:13:11 1515748391.350084: $GPRMC,091312,A,3946.9652,N,08404.9728,W,0.0000,0.000,120118,,*30
2018-01-12 04:13:11 1515748391.350146: $GPGSA,A,3,2,5,6,12,25,29,19,17,23,138,,,2.4,0.8,2.1*34
2018-01-12 04:13:12 1515748392.349662: $GPZDA,091313.00,12,01,2018,00,00*66
2018-01-12 04:13:12 1515748392.349863: $GPGGA,091313,3946.9652,N,08404.9728,W,2,10,0.80,300.27,M,-33.324,M,,*71
2018-01-12 04:13:12 1515748392.349937: $GPRMC,091313,A,3946.9652,N,08404.9728,W,0.0000,0.000,120118,,*31
2018-01-12 04:13:12 1515748392.349998: $GPGSA,A,3,2,5,6,12,25,29,19,17,23,138,,,2.4,0.8,2.1*34
2018-01-12 04:13:13 1515748393.685839: $GPGSV,3,1,12,02,71,333,44,05,45,198,50,06,50,049,48,12,53,259,46*75
2018-01-12 04:13:13 1515748393.685999: $GPGSV,3,2,12,25,30,306,44,29,08,306,46,09,19,072,00,19,35,111,21*76
2018-01-12 04:13:13 1515748393.686066: $GPGSV,3,3,12,17,17,118,26,23,07,040,24,04,52,279,00,138,38,213,47*4F
2018-01-12 04:13:13 1515748393.799605: $GPZDA,091314.00,12,01,2018,00,00*61
2018-01-12 04:13:13 1515748393.799791: $GPGGA,091314,3946.9652,N,08404.9728,W,2,10,0.80,300.27,M,-33.324,M,,*76
2018-01-12 04:13:13 1515748393.799881: $GPRMC,091314,A,3946.9652,N,08404.9728,W,0.0000,0.000,120118,,*36
2018-01-12 04:13:13 1515748393.799948: $GPGSA,A,3,2,5,6,12,25,29,19,17,23,138,,,2.4,0.8,2.1*34
2018-01-12 04:13:14 1515748394.348966: $GPZDA,091315.00,12,01,2018,00,00*60
2018-01-12 04:13:14 1515748394.349147: $GPGGA,091315,3946.9652,N,08404.9728,W,2,10,0.80,300.27,M,-33.324,M,,*77
2018-01-12 04:13:14 1515748394.349213: $GPRMC,091315,A,3946.9652,N,08404.9728,W,0.0000,0.000,120118,,*37
2018-01-12 04:13:14 1515748394.349276: $GPGSA,A,3,2,5,6,12,25,29,19,17,23,138,,,2.4,0.8,2.1*34
2018-01-12 04:13:15 1515748395.353626: $GPZDA,091316.00,12,01,2018,00,00*63
2018-01-12 04:13:15 1515748395.353817: $GPGGA,091316,3946.9652,N,08404.9728,W,2,10,0.80,300.27,M,-33.324,M,,*74
2018-01-12 04:13:15 1515748395.353886: $GPRMC,091316,A,3946.9652,N,08404.9728,W,0.0000,0.000,120118,,*34
2018-01-12 04:13:15 1515748395.353952: $GPGSA,A,3,2,5,6,12,25,29,19,17,23,138,,,2.4,0.8,2.1*34
2018-01-12 04:13:16 1515748396.704293: $GPGSV,3,1,12,02,71,333,44,05,45,198,49,06,50,049,47,12,53,259,46*72
2018-01-12 04:13:16 1515748396.704456: $GPGSV,3,2,12,25,30,306,44,29,08,306,46,09,19,072,00,19,35,111,20*77
2018-01-12 04:13:16 1515748396.704523: $GPGSV,3,3,12,17,17,118,24,23,07,040,18,04,52,279,00,138,38,213,47*42
2018-01-12 04:13:16 1515748396.817837: $GPZDA,091317.00,12,01,2018,00,00*62
2018-01-12 04:13:16 1515748396.818018: $GPGGA,091317,3946.9652,N,08404.9728,W,2,10,0.80,300.27,M,-33.324,M,,*75
2018-01-12 04:13:16 1515748396.818083: $GPRMC,091317,A,3946.9652,N,08404.9728,W,0.0000,0.000,120118,,*35
2018-01-12 04:13:16 1515748396.818147: $GPGSA,A,3,2,5,6,12,25,29,19,17,23,138,,,2.4,0.8,2.1*34
2018-01-12 04:13:17 1515748397.353621: $GPZDA,091318.00,12,01,2018,00,00*6D
2018-01-12 04:13:17 1515748397.353844: $GPGGA,091318,3946.9652,N,08404.9728,W,2,10,0.80,300.27,M,-33.324,M,,*7A
2018-01-12 04:13:17 1515748397.353918: $GPRMC,091318,A,3946.9652,N,08404.9728,W,0.0000,0.000,120118,,*3A
2018-01-12 04:13:17 1515748397.353981: $GPGSA,A,3,2,5,6,12,25,29,19,17,23,138,,,2.4,0.8,2.1*34
2018-01-12 04:13:18 1515748398.355418: $GPZDA,091319.00,12,01,2018,00,00*6C
2018-01-12 04:13:18 1515748398.355608: $GPGGA,091319,3946.9652,N,08404.9728,W,2,10,1.00,300.27,M,-33.324,M,,*72
2018-01-12 04:13:18 1515748398.355675: $GPRMC,091319,A,3946.9652,N,08404.9728,W,0.0000,0.000,120118,,*3B
2018-01-12 04:13:18 1515748398.355738: $GPGSA,A,3,2,5,6,12,25,29,19,17,23,138,,,2.4,1.0,2.1*3D
2018-01-12 04:13:19 1515748399.693333: $GPGSV,3,1,12,02,71,333,44,05,45,198,49,06,50,049,48,12,53,259,47*7C
2018-01-12 04:13:19 1515748399.693503: $GPGSV,3,2,12,25,30,306,44,29,08,306,46,09,19,072,00,19,35,111,17*73
2018-01-12 04:13:19 1515748399.693569: $GPGSV,3,3,12,17,17,118,05,23,07,040,16,04,52,279,00,138,38,213,47*4F
2018-01-12 04:13:19 1515748399.807891: $GPZDA,091320.00,12,01,2018,00,00*66
2018-01-12 04:13:19 1515748399.808072: $GPGGA,091320,3946.9652,N,08404.9728,W,2,09,1.00,300.27,M,-33.324,M,,*70
2018-01-12 04:13:19 1515748399.808139: $GPRMC,091320,A,3946.9652,N,08404.9728,W,0.0000,0.000,120118,,*31
2018-01-12 04:13:19 1515748399.808200: $GPGSA,A,3,2,5,6,12,25,29,19,23,138,,,,2.4,1.0,2.1*3B
2018-01-12 04:13:20 1515748400.370179: $GPZDA,091321.00,12,01,2018,00,00*67
2018-01-12 04:13:20 1515748400.370347: $GPGGA,091321,3946.9652,N,08404.9728,W,2,09,1.00,300.27,M,-33.324,M,,*71
2018-01-12 04:13:20 1515748400.370417: $GPRMC,091321,A,3946.9652,N,08404.9728,W,0.0000,0.000,120118,,*30
2018-01-12 04:13:20 1515748400.370482: $GPGSA,A,3,2,5,6,12,25,29,19,23,138,,,,2.4,1.0,2.1*3B
2018-01-12 04:13:21 1515748401.371051: $GPZDA,091322.00,12,01,2018,00,00*64
2018-01-12 04:13:21 1515748401.371239: $GPGGA,091322,3946.9652,N,08404.9728,W,2,09,1.00,300.27,M,-33.324,M,,*72
2018-01-12 04:13:21 1515748401.371309: $GPRMC,091322,A,3946.9652,N,08404.9728,W,0.0000,0.000,120118,,*33
2018-01-12 04:13:21 1515748401.371374: $GPGSA,A,3,2,5,6,12,25,29,19,23,138,,,,2.4,1.0,2.1*3B
