2017-12-01 14:46:08 1512157568.376829: {"class":"VERSION","release":"3.16","rev":"3.16-4","proto_major":3,"proto_minor":11}
2017-12-01 14:46:08 1512157568.377234: {"class":"DEVICES","devices":[{"class":"DEVICE","path":"/dev/ttyUSB0","driver":"SiRF","subtype":"9\u0006GSD4e_4.1.2-P1_RPATCH.05-F-GPS-4R-1510281 11/03/2015 307","activated":"2017-12-01T19:46:08.341Z","flags":1,"native":1,"bps":4800,"parity":"N","stopbits":1,"cycle":1.00}]}
2017-12-01 14:46:08 1512157568.377355: {"class":"WATCH","enable":true,"json":false,"nmea":true,"raw":0,"scaled":false,"timing":false,"split24":false,"pps":false}
2017-12-01 14:46:09 1512157569.106845: $GPGSV,3,1,12,10,78,352,47,12,15,099,41,14,36,262,44,18,62,112,48*76
2017-12-01 14:46:09 1512157569.107041: $GPGSV,3,2,12,21,18,177,44,24,37,051,46,32,53,279,46,25,10,135,28*76
2017-12-01 14:46:09 1512157569.107113: $GPGSV,3,3,12,15,04,072,25,11,03,322,32,31,09,204,28,138,38,213,47*4C
2017-12-01 14:46:09 1512157569.220188: $GPZDA,194609.00,01,12,2017,00,00*63
2017-12-01 14:46:09 1512157569.220367: $GPGGA,194609,3946.9586,N,08404.9842,W,2,12,1.40,293.10,M,-33.324,M,,*72
2017-12-01 14:46:09 1512157569.220435: $GPRMC,194609,A,3946.9586,N,08404.9842,W,0.0000,0.000,011217,,*3D
2017-12-01 14:46:09 1512157569.220497: $GPGSA,A,3,10,12,14,18,21,24,32,25,15,11,31,138,2.0,1.4,1.5*00
2017-12-01 14:46:10 1512157570.040050: $GPZDA,194610.00,01,12,2017,00,00*6B
2017-12-01 14:46:10 1512157570.040226: $GPGGA,194610,3946.9586,N,08404.9842,W,2,12,1.20,293.10,M,-33.324,M,,*7C
2017-12-01 14:46:10 1512157570.040292: $GPRMC,194610,A,3946.9586,N,08404.9842,W,0.0000,0.000,011217,,*35
2017-12-01 14:46:10 1512157570.040354: $GPGSA,A,3,10,12,14,18,21,24,32,25,15,11,31,138,2.0,1.2,1.5*06
2017-12-01 14:46:10 1512157570.040413: $GPGBS,194610,2.67,M,3.86,M,8.82,M*39
2017-12-01 14:46:10 1512157570.492971: $GPZDA,194611.00,01,12,2017,00,00*6A
2017-12-01 14:46:10 1512157570.493166: $GPGGA,194611,3946.9586,N,08404.9842,W,2,12,1.20,293.10,M,-33.324,M,,*7D
2017-12-01 14:46:10 1512157570.493240: $GPRMC,194611,A,3946.9586,N,08404.9842,W,0.0000,0.000,011217,,*34
2017-12-01 14:46:10 1512157570.493304: $GPGSA,A,3,10,12,14,18,21,24,32,25,15,11,31,138,2.0,1.2,1.5*06
2017-12-01 14:46:10 1512157570.493368: $GPGBS,194611,2.67,M,3.86,M,8.82,M*38
2017-12-01 14:46:11 1512157571.751636: $GPGSV,3,1,12,10,78,352,47,12,15,099,41,14,36,262,44,18,62,112,47*79
2017-12-01 14:46:11 1512157571.751816: $GPGSV,3,2,12,21,18,177,43,24,37,051,46,32,54,279,46,25,10,135,28*76
2017-12-01 14:46:11 1512157571.751882: $GPGSV,3,3,12,15,04,072,25,11,03,322,26,31,09,204,28,138,38,213,47*49
2017-12-01 14:46:11 1512157571.864904: $GPZDA,194612.00,01,12,2017,00,00*69
2017-12-01 14:46:11 1512157571.865082: $GPGGA,194612,3946.9586,N,08404.9842,W,2,12,1.20,293.10,M,-33.324,M,,*7E
2017-12-01 14:46:11 1512157571.865150: $GPRMC,194612,A,3946.9586,N,08404.9842,W,0.0000,0.000,011217,,*37
2017-12-01 14:46:11 1512157571.865212: $GPGSA,A,3,10,12,14,18,21,24,32,25,15,11,31,138,2.0,1.2,1.5*06
2017-12-01 14:46:12 1512157572.413291: $GPZDA,194613.00,01,12,2017,00,00*68
2017-12-01 14:46:12 1512157572.413462: $GPGGA,194613,3946.9586,N,08404.9842,W,2,12,1.20,293.10,M,-33.324,M,,*7F
2017-12-01 14:46:12 1512157572.413529: $GPRMC,194613,A,3946.9586,N,08404.9842,W,0.0000,0.000,011217,,*36
2017-12-01 14:46:12 1512157572.413591: $GPGSA,A,3,10,12,14,18,21,24,32,25,15,11,31,138,2.0,1.2,1.5*06
2017-12-01 14:46:13 1512157573.414169: $GPZDA,194614.00,01,12,2017,00,00*6F
2017-12-01 14:46:13 1512157573.414355: $GPGGA,194614,3946.9586,N,08404.9842,W,2,12,1.20,293.10,M,-33.324,M,,*78
2017-12-01 14:46:13 1512157573.414447: $GPRMC,194614,A,3946.9586,N,08404.9842,W,0.0000,0.000,011217,,*31
2017-12-01 14:46:13 1512157573.414510: $GPGSA,A,3,10,12,14,18,21,24,32,25,15,11,31,138,2.0,1.2,1.5*06
2017-12-01 14:46:14 1512157574.749408: $GPGSV,3,1,12,10,78,352,46,12,15,099,42,14,36,262,44,18,62,112,47*7B
2017-12-01 14:46:14 1512157574.749592: $GPGSV,3,2,12,21,18,177,43,24,37,051,46,32,54,279,45,25,10,135,28*75
2017-12-01 14:46:14 1512157574.749658: $GPGSV,3,3,12,15,04,072,25,11,03,322,26,31,09,204,28,138,38,213,46*48
2017-12-01 14:46:14 1512157574.862763: $GPZDA,194615.00,01,12,2017,00,00*6E
2017-12-01 14:46:14 1512157574.862919: $GPGGA,194615,3946.9586,N,08404.9842,W,2,12,1.20,293.10,M,-33.324,M,,*79
2017-12-01 14:46:14 1512157574.862992: $GPRMC,194615,A,3946.9586,N,08404.9842,W,0.0000,0.000,011217,,*30
2017-12-01 14:46:14 1512157574.863053: $GPGSA,A,3,10,12,14,18,21,24,32,25,15,11,31,138,2.0,1.2,1.5*06
2017-12-01 14:46:15 1512157575.414892: $GPZDA,194616.00,01,12,2017,00,00*6D
2017-12-01 14:46:15 1512157575.415082: $GPGGA,194616,3946.9586,N,08404.9842,W,2,12,1.20,293.10,M,-33.324,M,,*7A
2017-12-01 14:46:15 1512157575.415151: $GPRMC,194616,A,3946.9586,N,08404.9842,W,0.0000,0.000,011217,,*33
2017-12-01 14:46:15 1512157575.415213: $GPGSA,A,3,10,12,14,18,21,24,32,25,15,11,31,138,2.0,1.2,1.5*06
2017-12-01 14:46:16 1512157576.415790: $GPZDA,194617.00,01,12,2017,00,00*6C
2017-12-01 14:46:16 1512157576.415972: $GPGGA,194617,3946.9586,N,08404.9842,W,2,12,1.20,293.10,M,-33.324,M,,*7B
2017-12-01 14:46:16 1512157576.416039: $GPRMC,194617,A,3946.9586,N,08404.9842,W,0.0000,0.000,011217,,*32
2017-12-01 14:46:16 1512157576.416104: $GPGSA,A,3,10,12,14,18,21,24,32,25,15,11,31,138,2.0,1.2,1.5*06
2017-12-01 14:46:17 1512157577.749070: $GPGSV,3,1,12,10,78,352,46,12,15,099,42,14,36,262,44,18,62,112,47*7B
2017-12-01 14:46:17 1512157577.749258: $GPGSV,3,2,12,21,18,177,42,24,37,051,46,32,54,279,45,25,10,135,29*75
2017-12-01 14:46:17 1512157577.749328: $GPGSV,3,3,12,15,04,072,26,11,03,322,25,31,09,204,29,138,38,213,47*48
2017-12-01 14:46:17 1512157577.862693: $GPZDA,194618.00,01,12,2017,00,00*63
2017-12-01 14:46:17 1512157577.862860: $GPGGA,194618,3946.9586,N,08404.9842,W,2,12,1.20,293.10,M,-33.324,M,,*74
2017-12-01 14:46:17 1512157577.862928: $GPRMC,194618,A,3946.9586,N,08404.9842,W,0.0000,0.000,011217,,*3D
2017-12-01 14:46:17 1512157577.862992: $GPGSA,A,3,10,12,14,18,21,24,32,25,15,11,31,138,2.0,1.2,1.5*06
2017-12-01 14:46:18 1512157578.414610: $GPZDA,194619.00,01,12,2017,00,00*62
2017-12-01 14:46:18 1512157578.414793: $GPGGA,194619,3946.9586,N,08404.9842,W,2,12,1.20,293.10,M,-33.324,M,,*75
2017-12-01 14:46:18 1512157578.414882: $GPRMC,194619,A,3946.9586,N,08404.9842,W,0.0000,0.000,011217,,*3C
2017-12-01 14:46:18 1512157578.414947: $GPGSA,A,3,10,12,14,18,21,24,32,25,15,11,31,138,2.0,1.2,1.5*06
2017-12-01 14:46:19 1512157579.416205: $GPZDA,194620.00,01,12,2017,00,00*68
2017-12-01 14:46:19 1512157579.416399: $GPGGA,194620,3946.9586,N,08404.9842,W,2,12,1.20,293.10,M,-33.324,M,,*7F
2017-12-01 14:46:19 1512157579.416468: $GPRMC,194620,A,3946.9586,N,08404.9842,W,0.0000,0.000,011217,,*36
2017-12-01 14:46:19 1512157579.416530: $GPGSA,A,3,10,12,14,18,21,24,32,25,15,11,31,138,2.0,1.2,1.5*06
2017-12-01 14:46:20 1512157580.749376: $GPGSV,3,1,12,10,78,352,46,12,15,099,42,14,36,262,44,18,62,112,47*7B
2017-12-01 14:46:20 1512157580.749557: $GPGSV,3,2,12,21,18,177,42,24,37,051,46,32,54,279,46,25,10,135,29*76
2017-12-01 14:46:20 1512157580.749623: $GPGSV,3,3,12,15,04,072,26,11,03,322,26,31,09,204,34,138,38,213,46*46
2017-12-01 14:46:20 1512157580.862778: $GPZDA,194621.00,01,12,2017,00,00*69
2017-12-01 14:46:20 1512157580.862927: $GPGGA,194621,3946.9586,N,08404.9842,W,2,12,1.20,293.10,M,-33.324,M,,*7E
2017-12-01 14:46:20 1512157580.862995: $GPRMC,194621,A,3946.9586,N,08404.9842,W,0.0000,0.000,011217,,*37
2017-12-01 14:46:20 1512157580.863060: $GPGSA,A,3,10,12,14,18,21,24,32,25,15,11,31,138,2.0,1.2,1.5*06
2017-12-01 14:46:21 1512157581.417358: $GPZDA,194622.00,01,12,2017,00,00*6A
2017-12-01 14:46:21 1512157581.417528: $GPGGA,194622,3946.9586,N,08404.9842,W,2,12,1.20,293.10,M,-33.324,M,,*7D
2017-12-01 14:46:21 1512157581.417596: $GPRMC,194622,A,3946.9586,N,08404.9842,W,0.0000,0.000,011217,,*34
2017-12-01 14:46:21 1512157581.417678: $GPGSA,A,3,10,12,14,18,21,24,32,25,15,11,31,138,2.0,1.2,1.5*06
2017-12-01 14:46:22 1512157582.418599: $GPZDA,194623.00,01,12,2017,00,00*6B
2017-12-01 14:46:22 1512157582.418773: $GPGGA,194623,3946.9586,N,08404.9842,W,2,12,1.20,293.10,M,-33.324,M,,*7C
2017-12-01 14:46:22 1512157582.418841: $GPRMC,194623,A,3946.9586,N,08404.9842,W,0.0000,0.000,011217,,*35
2017-12-01 14:46:22 1512157582.418957: $GPGSA,A,3,10,12,14,18,21,24,32,25,15,11,31,138,2.0,1.2,1.5*06
2017-12-01 14:46:23 1512157583.755308: $GPGSV,3,1,12,10,78,352,47,12,15,099,42,14,36,262,44,18,62,112,47*7A
2017-12-01 14:46:23 1512157583.755506: $GPGSV,3,2,12,21,18,177,43,24,37,051,46,32,54,279,46,25,10,135,30*7F
2017-12-01 14:46:23 1512157583.755594: $GPGSV,3,3,12,15,04,072,26,11,03,322,27,31,09,204,34,138,38,213,46*47
2017-12-01 14:46:23 1512157583.868624: $GPZDA,194624.00,01,12,2017,00,00*6C
2017-12-01 14:46:23 1512157583.868796: $GPGGA,194624,3946.9583,N,08404.9843,W,2,12,1.20,293.86,M,-33.324,M,,*70
2017-12-01 14:46:23 1512157583.868884: $GPRMC,194624,A,3946.9583,N,08404.9843,W,0.0000,0.000,011217,,*36
2017-12-01 14:46:23 1512157583.868950: $GPGSA,A,3,10,12,14,18,21,24,32,25,15,11,31,138,2.0,1.2,1.5*06
2017-12-01 14:46:24 1512157584.494348: $GPZDA,194625.00,01,12,2017,00,00*6D
2017-12-01 14:46:24 1512157584.494518: $GPGGA,194625,3946.9583,N,08404.9843,W,2,12,1.20,293.86,M,-33.324,M,,*71
2017-12-01 14:46:24 1512157584.494587: $GPRMC,194625,A,3946.9583,N,08404.9843,W,0.0000,0.000,011217,,*37
2017-12-01 14:46:24 1512157584.494647: $GPGSA,A,3,10,12,14,18,21,24,32,25,15,11,31,138,2.0,1.2,1.5*06
2017-12-01 14:46:25 1512157585.411477: $GPZDA,194626.00,01,12,2017,00,00*6E
2017-12-01 14:46:25 1512157585.411654: $GPGGA,194626,3946.9583,N,08404.9843,W,2,12,1.20,293.86,M,-33.324,M,,*72
2017-12-01 14:46:25 1512157585.411722: $GPRMC,194626,A,3946.9583,N,08404.9843,W,0.0000,0.000,011217,,*34
2017-12-01 14:46:25 1512157585.411783: $GPGSA,A,3,10,12,14,18,21,24,32,25,15,11,31,138,2.0,1.2,1.5*06
2017-12-01 14:46:26 1512157586.746943: $GPGSV,3,1,12,10,78,352,47,12,15,099,42,14,36,262,43,18,62,112,47*7D
2017-12-01 14:46:26 1512157586.747123: $GPGSV,3,2,12,21,18,177,43,24,37,051,46,32,54,279,46,25,10,135,30*7F
2017-12-01 14:46:26 1512157586.747189: $GPGSV,3,3,12,15,04,072,26,11,03,322,28,31,09,204,34,138,38,213,47*49
2017-12-01 14:46:26 1512157586.860257: $GPZDA,194627.00,01,12,2017,00,00*6F
2017-12-01 14:46:26 1512157586.860394: $GPGGA,194627,3946.9583,N,08404.9843,W,2,12,1.20,293.86,M,-33.324,M,,*73
2017-12-01 14:46:26 1512157586.860459: $GPRMC,194627,A,3946.9583,N,08404.9843,W,0.0000,0.000,011217,,*35
2017-12-01 14:46:26 1512157586.860519: $GPGSA,A,3,10,12,14,18,21,24,32,25,15,11,31,138,2.0,1.2,1.5*06
2017-12-01 14:46:27 1512157587.420204: $GPZDA,194628.00,01,12,2017,00,00*60
2017-12-01 14:46:27 1512157587.420375: $GPGGA,194628,3946.9583,N,08404.9843,W,2,12,1.20,293.86,M,-33.324,M,,*7C
2017-12-01 14:46:27 1512157587.420442: $GPRMC,194628,A,3946.9583,N,08404.9843,W,0.0000,0.000,011217,,*3A
2017-12-01 14:46:27 1512157587.420502: $GPGSA,A,3,10,12,14,18,21,24,32,25,15,11,31,138,2.0,1.2,1.5*06
2017-12-01 14:46:28 1512157588.419723: $GPZDA,194629.00,01,12,2017,00,00*61
2017-12-01 14:46:28 1512157588.419907: $GPGGA,194629,3946.9583,N,08404.9843,W,2,12,1.20,293.86,M,-33.324,M,,*7D
2017-12-01 14:46:28 1512157588.419975: $GPRMC,194629,A,3946.9583,N,08404.9843,W,0.0000,0.000,011217,,*3B
2017-12-01 14:46:28 1512157588.420036: $GPGSA,A,3,10,12,14,18,21,24,32,25,15,11,31,138,2.0,1.2,1.5*06
2017-12-01 14:46:29 1512157589.754744: $GPGSV,3,1,12,10,78,352,46,12,15,099,43,14,36,262,43,18,62,112,47*7D
2017-12-01 14:46:29 1512157589.754935: $GPGSV,3,2,12,21,18,177,43,24,37,051,47,32,54,279,46,25,10,135,30*7E
2017-12-01 14:46:29 1512157589.755003: $GPGSV,3,3,12,15,04,072,27,11,03,322,33,31,09,204,34,138,38,213,48*4D
2017-12-01 14:46:29 1512157589.868140: $GPZDA,194630.00,01,12,2017,00,00*69
2017-12-01 14:46:29 1512157589.868298: $GPGGA,194630,3946.9583,N,08404.9843,W,2,12,1.20,293.86,M,-33.324,M,,*75
2017-12-01 14:46:29 1512157589.868367: $GPRMC,194630,A,3946.9583,N,08404.9843,W,0.0000,0.000,011217,,*33
2017-12-01 14:46:29 1512157589.868427: $GPGSA,A,3,10,12,14,18,21,24,32,25,15,11,31,138,2.0,1.2,1.5*06
2017-12-01 14:46:30 1512157590.419290: $GPZDA,194631.00,01,12,2017,00,00*68
2017-12-01 14:46:30 1512157590.419460: $GPGGA,194631,3946.9583,N,08404.9843,W,2,12,1.20,293.86,M,-33.324,M,,*74
2017-12-01 14:46:30 1512157590.419575: $GPRMC,194631,A,3946.9583,N,08404.9843,W,0.0000,0.000,011217,,*32
2017-12-01 14:46:30 1512157590.419658: $GPGSA,A,3,10,12,14,18,21,24,32,25,15,11,31,138,2.0,1.2,1.5*06
2017-12-01 14:46:31 1512157591.465139: $GPZDA,194632.00,01,12,2017,00,00*6B
2017-12-01 14:46:31 1512157591.465307: $GPGGA,194632,3946.9583,N,08404.9843,W,2,12,1.20,293.86,M,-33.324,M,,*77
2017-12-01 14:46:31 1512157591.465373: $GPRMC,194632,A,3946.9583,N,08404.9843,W,0.0000,0.000,011217,,*31
2017-12-01 14:46:31 1512157591.465433: $GPGSA,A,3,10,12,14,18,21,24,32,25,15,11,31,138,2.0,1.2,1.5*06
2017-12-01 14:46:32 1512157592.794366: $GPGSV,3,1,12,10,78,352,46,12,15,099,43,14,36,262,44,18,62,112,48*75
2017-12-01 14:46:32 1512157592.794543: $GPGSV,3,2,12,21,18,177,43,24,37,051,47,32,54,279,46,25,10,135,31*7F
2017-12-01 14:46:32 1512157592.794629: $GPGSV,3,3,12,15,04,072,26,11,03,322,31,31,09,204,33,138,38,213,47*46
2017-12-01 14:46:32 1512157592.908052: $GPZDA,194633.00,01,12,2017,00,00*6A
2017-12-01 14:46:32 1512157592.908222: $GPGGA,194633,3946.9583,N,08404.9843,W,2,12,1.20,293.86,M,-33.324,M,,*76
2017-12-01 14:46:32 1512157592.908290: $GPRMC,194633,A,3946.9583,N,08404.9843,W,0.0000,0.000,011217,,*30
2017-12-01 14:46:32 1512157592.908351: $GPGSA,A,3,10,12,14,18,21,24,32,25,15,11,31,138,2.0,1.2,1.5*06
