2017-11-16 17:34:30 1510871670.653006: {"class":"VERSION","release":"3.17","rev":"3.17","proto_major":3,"proto_minor":12}
2017-11-16 17:34:30 1510871670.653609: {"class":"DEVICES","devices":[{"class":"DEVICE","path":"/dev/ttyUSB0","driver":"SiRF","subtype":"9\u0006GSD4e_4.1.2-P1_RPATCH.05-F-GPS-4R-1510281 11/03/2015 307","activated":"2017-11-16T22:34:30.286Z","flags":1,"native":1,"bps":4800,"parity":"N","stopbits":1,"cycle":1.00}]}
2017-11-16 17:34:30 1510871670.653733: {"class":"WATCH","enable":true,"json":false,"nmea":true,"raw":0,"scaled":false,"timing":false,"split24":false,"pps":false}
2017-11-16 17:34:30 1510871670.735869: $GPGSV,3,1,12,01,21,300,30,10,47,148,46,22,19,312,44,12,22,049,49*7C
2017-11-16 17:34:30 1510871670.736027: $GPGSV,3,2,12,14,66,330,47,18,17,144,40,26,03,183,21,11,08,280,39*71
2017-11-16 17:34:30 1510871670.736086: $GPGSV,3,3,12,25,40,088,48,31,56,226,48,32,68,030,49,138,38,213,44*4E
2017-11-16 17:34:30 1510871670.849951: $GPZDA,223429.00,16,11,2017,00,00*69
2017-11-16 17:34:30 1510871670.850117: $GPGGA,223429,3946.9576,N,08404.9841,W,2,12,0.80,303.26,M,-33.324,M,,*71
2017-11-16 17:34:30 1510871670.850179: $GPRMC,223429,A,3946.9576,N,08404.9841,W,0.0000,0.000,161117,,*3B
2017-11-16 17:34:30 1510871670.850234: $GPGSA,A,3,1,10,22,12,14,18,26,11,25,31,32,138,1.6,0.8,1.3*3A
2017-11-16 17:34:31 1510871671.474823: $GPZDA,223430.00,16,11,2017,00,00*61
2017-11-16 17:34:31 1510871671.474982: $GPGGA,223430,3946.9576,N,08404.9841,W,2,12,0.80,303.26,M,-33.324,M,,*79
2017-11-16 17:34:31 1510871671.475092: $GPRMC,223430,A,3946.9576,N,08404.9841,W,0.0000,0.000,161117,,*33
2017-11-16 17:34:31 1510871671.475150: $GPGSA,A,3,1,10,22,12,14,18,26,11,25,31,32,138,1.6,0.8,1.3*3A
2017-11-16 17:34:32 1510871672.399122: $GPZDA,223431.00,16,11,2017,00,00*60
2017-11-16 17:34:32 1510871672.419929: $GPGGA,223431,3946.9576,N,08404.9841,W,2,12,0.80,303.26,M,-33.324,M,,*78
2017-11-16 17:34:32 1510871672.420081: $GPRMC,223431,A,3946.9576,N,08404.9841,W,0.0000,0.000,161117,,*32
2017-11-16 17:34:32 1510871672.420143: $GPGSA,A,3,1,10,22,12,14,18,26,11,25,31,32,138,1.6,0.8,1.3*3A
2017-11-16 17:34:33 1510871673.734884: $GPGSV,3,1,12,01,21,300,31,10,47,148,46,22,19,312,44,12,22,049,49*7D
2017-11-16 17:34:33 1510871673.735094: $GPGSV,3,2,12,14,66,330,47,18,17,144,40,26,03,183,00,11,08,280,38*73
2017-11-16 17:34:33 1510871673.735165: $GPGSV,3,3,12,25,40,088,48,31,56,226,48,32,68,030,49,138,38,213,44*4E
2017-11-16 17:34:33 1510871673.848471: $GPZDA,223432.00,16,11,2017,00,00*63
2017-11-16 17:34:33 1510871673.848635: $GPGGA,223432,3946.9575,N,08404.9834,W,2,11,0.80,303.34,M,-33.324,M,,*7A
2017-11-16 17:34:33 1510871673.848696: $GPRMC,223432,A,3946.9575,N,08404.9834,W,0.0000,0.000,161117,,*30
2017-11-16 17:34:33 1510871673.848752: $GPGSA,A,3,1,10,22,12,14,18,11,25,31,32,138,,1.6,0.8,1.3*3E
2017-11-16 17:34:34 1510871674.433076: $GPZDA,223433.00,16,11,2017,00,00*62
2017-11-16 17:34:34 1510871674.433227: $GPGGA,223433,3946.9575,N,08404.9834,W,2,11,0.80,303.34,M,-33.324,M,,*7B
2017-11-16 17:34:34 1510871674.433288: $GPRMC,223433,A,3946.9575,N,08404.9834,W,0.0000,0.000,161117,,*31
2017-11-16 17:34:34 1510871674.433344: $GPGSA,A,3,1,10,22,12,14,18,11,25,31,32,138,,1.6,0.8,1.3*3E
2017-11-16 17:34:35 1510871675.398587: $GPZDA,223434.00,16,11,2017,00,00*65
2017-11-16 17:34:35 1510871675.398757: $GPGGA,223434,3946.9575,N,08404.9834,W,2,11,0.80,303.34,M,-33.324,M,,*7C
2017-11-16 17:34:35 1510871675.398818: $GPRMC,223434,A,3946.9575,N,08404.9834,W,0.0000,0.000,161117,,*36
2017-11-16 17:34:35 1510871675.398874: $GPGSA,A,3,1,10,22,12,14,18,11,25,31,32,138,,1.6,0.8,1.3*3E
2017-11-16 17:34:36 1510871676.757601: $GPGSV,3,1,11,01,21,300,32,10,47,148,46,22,19,312,44,12,22,049,49*7D
2017-11-16 17:34:36 1510871676.757779: $GPGSV,3,2,11,14,66,330,47,18,17,144,40,11,08,280,39,25,40,088,48*73
2017-11-16 17:34:36 1510871676.757860: $GPGSV,3,3,11,31,56,226,49,32,68,030,49,138,38,213,44*73
2017-11-16 17:34:36 1510871676.870926: $GPZDA,223435.00,16,11,2017,00,00*64
2017-11-16 17:34:36 1510871676.871083: $GPGGA,223435,3946.9575,N,08404.9834,W,2,11,0.80,303.34,M,-33.324,M,,*7D
2017-11-16 17:34:36 1510871676.871213: $GPRMC,223435,A,3946.9575,N,08404.9834,W,0.0000,0.000,161117,,*37
2017-11-16 17:34:36 1510871676.871272: $GPGSA,A,3,1,10,22,12,14,18,11,25,31,32,138,,1.6,0.8,1.3*3E
2017-11-16 17:34:37 1510871677.421816: $GPZDA,223436.00,16,11,2017,00,00*67
2017-11-16 17:34:37 1510871677.421978: $GPGGA,223436,3946.9575,N,08404.9834,W,2,11,0.80,303.34,M,-33.324,M,,*7E
2017-11-16 17:34:37 1510871677.422040: $GPRMC,223436,A,3946.9575,N,08404.9834,W,0.0000,0.000,161117,,*34
2017-11-16 17:34:37 1510871677.422096: $GPGSA,A,3,1,10,22,12,14,18,11,25,31,32,138,,1.6,0.8,1.3*3E
2017-11-16 17:34:38 1510871678.417672: $GPZDA,223437.00,16,11,2017,00,00*66
2017-11-16 17:34:38 1510871678.417843: $GPGGA,223437,3946.9575,N,08404.9834,W,2,11,0.80,303.34,M,-33.324,M,,*7F
2017-11-16 17:34:38 1510871678.417903: $GPRMC,223437,A,3946.9575,N,08404.9834,W,0.0000,0.000,161117,,*35
2017-11-16 17:34:38 1510871678.417959: $GPGSA,A,3,1,10,22,12,14,18,11,25,31,32,138,,1.6,0.8,1.3*3E
2017-11-16 17:34:39 1510871679.758417: $GPGSV,3,1,11,01,21,300,34,10,47,148,46,22,19,312,44,12,22,049,50*73
2017-11-16 17:34:39 1510871679.758592: $GPGSV,3,2,11,14,66,330,46,18,17,144,40,11,08,280,38,25,40,088,48*73
2017-11-16 17:34:39 1510871679.758652: $GPGSV,3,3,11,31,56,226,49,32,68,030,49,138,38,213,43*74
2017-11-16 17:34:39 1510871679.872230: $GPZDA,223438.00,16,11,2017,00,00*69
2017-11-16 17:34:39 1510871679.872403: $GPGGA,223438,3946.9575,N,08404.9834,W,2,11,0.80,303.34,M,-33.324,M,,*70
2017-11-16 17:34:39 1510871679.872468: $GPRMC,223438,A,3946.9575,N,08404.9834,W,0.0000,0.000,161117,,*3A
2017-11-16 17:34:39 1510871679.872525: $GPGSA,A,3,1,10,22,12,14,18,11,25,31,32,138,,1.6,0.8,1.3*3E
2017-11-16 17:34:40 1510871680.421350: $GPZDA,223439.00,16,11,2017,00,00*68
2017-11-16 17:34:40 1510871680.421514: $GPGGA,223439,3946.9575,N,08404.9834,W,2,11,0.80,303.34,M,-33.324,M,,*71
2017-11-16 17:34:40 1510871680.421577: $GPRMC,223439,A,3946.9575,N,08404.9834,W,0.0000,0.000,161117,,*3B
2017-11-16 17:34:40 1510871680.421633: $GPGSA,A,3,1,10,22,12,14,18,11,25,31,32,138,,1.6,0.8,1.3*3E
