2017-11-15 19:29:18 1510792158.254513: {"class":"VERSION","release":"3.17","rev":"3.17","proto_major":3,"proto_minor":12}
2017-11-15 19:29:18 1510792158.255056: {"class":"DEVICES","devices":[{"class":"DEVICE","path":"/dev/ttyUSB0","driver":"SiRF","subtype":"9\u0006GSD4e_4.1.2-P1_RPATCH.05-F-GPS-4R-1510281 11/03/2015 307","activated":"2017-11-16T00:29:18.215Z","flags":1,"native":1,"bps":4800,"parity":"N","stopbits":1,"cycle":1.00}]}
2017-11-15 19:29:18 1510792158.255177: {"class":"WATCH","enable":true,"json":false,"nmea":true,"raw":0,"scaled":false,"timing":false,"split24":false,"pps":false}
2017-11-15 19:29:18 1510792158.664593: $GPGSV,3,1,12,32,37,106,20,31,68,022,18,16,21,190,04,26,52,172,26*76
2017-11-15 19:29:18 1510792158.664763: $GPGSV,3,2,12,29,10,072,04,25,18,040,00,03,39,300,16,14,56,091,19*71
2017-11-15 19:29:18 1510792158.664823: $GPGSV,3,3,12,23,10,300,10,01,06,253,00,22,50,273,16,133,44,201,00*4D
2017-11-15 19:29:18 1510792158.777958: $GPZDA,002917.00,16,11,2017,00,00*68
2017-11-15 19:29:18 1510792158.778117: $GPGGA,002917,3946.9513,N,08404.9508,W,1,07,1.40,276.51,M,-33.324,M,,*7A
2017-11-15 19:29:18 1510792158.778178: $GPRMC,002917,A,3946.9513,N,08404.9508,W,1.2132,183.551,161117,,*31
2017-11-15 19:29:18 1510792158.778233: $GPGSA,A,3,32,31,26,3,14,23,22,,,,,,3.4,1.4,2.9*0B
2017-11-15 19:29:19 1510792159.328793: $GPZDA,002918.00,16,11,2017,00,00*67
2017-11-15 19:29:19 1510792159.328960: $GPGGA,002918,3946.9506,N,08404.9509,W,1,07,1.40,276.63,M,-33.324,M,,*71
2017-11-15 19:29:19 1510792159.329021: $GPRMC,002918,A,3946.9506,N,08404.9509,W,1.2361,194.852,161117,,*37
2017-11-15 19:29:19 1510792159.329076: $GPGSA,A,3,32,31,26,3,14,23,22,,,,,,3.4,1.4,2.9*0B
2017-11-15 19:29:20 1510792160.328411: $GPZDA,002919.00,16,11,2017,00,00*66
2017-11-15 19:29:20 1510792160.328579: $GPGGA,002919,3946.9506,N,08404.9509,W,1,07,1.40,276.63,M,-33.324,M,,*70
2017-11-15 19:29:20 1510792160.328641: $GPRMC,002919,A,3946.9506,N,08404.9509,W,1.3044,205.352,161117,,*33
2017-11-15 19:29:20 1510792160.328697: $GPGSA,A,3,32,31,26,3,14,23,22,,,,,,3.4,1.4,2.9*0B
2017-11-15 19:29:21 1510792161.664964: $GPGSV,3,1,12,32,37,106,20,31,68,022,18,16,21,190,04,26,52,172,26*76
2017-11-15 19:29:21 1510792161.665166: $GPGSV,3,2,12,29,10,072,05,25,18,040,00,03,39,300,16,14,56,091,19*70
2017-11-15 19:29:21 1510792161.665247: $GPGSV,3,3,12,23,10,300,12,01,06,253,00,22,50,273,16,133,44,201,00*4F
2017-11-15 19:29:21 1510792161.778287: $GPZDA,002920.00,16,11,2017,00,00*6C
2017-11-15 19:29:21 1510792161.778453: $GPGGA,002920,3946.9506,N,08404.9516,W,1,07,1.40,276.55,M,-33.324,M,,*71
2017-11-15 19:29:21 1510792161.778514: $GPRMC,002920,A,3946.9506,N,08404.9516,W,1.2621,219.347,161117,,*3A
2017-11-15 19:29:21 1510792161.778570: $GPGSA,A,3,32,31,26,3,14,23,22,,,,,,3.4,1.4,2.9*0B
2017-11-15 19:29:22 1510792162.345459: $GPZDA,002921.00,16,11,2017,00,00*6D
2017-11-15 19:29:22 1510792162.345628: $GPGGA,002921,3946.9503,N,08404.9516,W,1,07,1.40,277.32,M,-33.324,M,,*75
2017-11-15 19:29:22 1510792162.345691: $GPRMC,002921,A,3946.9503,N,08404.9516,W,1.4115,214.536,161117,,*35
2017-11-15 19:29:22 1510792162.345747: $GPGSA,A,3,32,31,26,3,14,23,22,,,,,,3.4,1.4,2.9*0B
2017-11-15 19:29:23 1510792163.330119: $GPZDA,002922.00,16,11,2017,00,00*6E
2017-11-15 19:29:23 1510792163.330288: $GPGGA,002922,3946.9498,N,08404.9516,W,1,07,1.40,276.68,M,-33.324,M,,*7B
2017-11-15 19:29:23 1510792163.330350: $GPRMC,002922,A,3946.9498,N,08404.9516,W,1.7157,208.752,161117,,*3D
2017-11-15 19:29:23 1510792163.330405: $GPGSA,A,3,32,31,26,3,14,23,22,,,,,,3.4,1.4,2.9*0B
2017-11-15 19:29:24 1510792164.664651: $GPGSV,3,1,12,32,37,106,20,31,68,022,18,16,21,190,11,26,52,172,26*72
2017-11-15 19:29:24 1510792164.664818: $GPGSV,3,2,12,29,10,072,04,25,18,040,00,03,39,300,16,14,56,091,19*71
2017-11-15 19:29:24 1510792164.664878: $GPGSV,3,3,12,23,10,300,11,01,06,253,00,22,50,273,17,133,44,201,00*4D
2017-11-15 19:29:24 1510792164.777983: $GPZDA,002923.00,16,11,2017,00,00*6F
2017-11-15 19:29:24 1510792164.778140: $GPGGA,002923,3946.9495,N,08404.9523,W,1,07,1.40,275.96,M,-33.324,M,,*73
2017-11-15 19:29:24 1510792164.778251: $GPRMC,002923,A,3946.9495,N,08404.9523,W,2.1306,210.832,161117,,*34
2017-11-15 19:29:24 1510792164.778309: $GPGSA,A,3,32,31,26,3,14,23,22,,,,,,3.4,1.4,2.9*0B
2017-11-15 19:29:25 1510792165.328833: $GPZDA,002924.00,16,11,2017,00,00*68
2017-11-15 19:29:25 1510792165.328993: $GPGGA,002924,3946.9491,N,08404.9524,W,1,07,1.40,276.72,M,-33.324,M,,*7E
2017-11-15 19:29:25 1510792165.329053: $GPRMC,002924,A,3946.9491,N,08404.9524,W,1.9726,213.613,161117,,*33
2017-11-15 19:29:25 1510792165.329109: $GPGSA,A,3,32,31,26,3,14,23,22,,,,,,3.4,1.4,2.9*0B
2017-11-15 19:29:26 1510792166.344213: $GPZDA,002925.00,16,11,2017,00,00*69
2017-11-15 19:29:26 1510792166.344414: $GPGGA,002925,3946.9487,N,08404.9524,W,1,07,1.40,276.08,M,-33.324,M,,*75
2017-11-15 19:29:26 1510792166.344479: $GPRMC,002925,A,3946.9487,N,08404.9524,W,1.7820,199.971,161117,,*38
2017-11-15 19:29:26 1510792166.344538: $GPGSA,A,3,32,31,26,3,14,23,22,,,,,,3.4,1.4,2.9*0B
2017-11-15 19:29:27 1510792167.663680: $GPGSV,3,1,12,32,37,106,20,31,68,022,18,16,21,190,00,26,52,172,26*72
2017-11-15 19:29:27 1510792167.663855: $GPGSV,3,2,12,29,10,072,04,25,18,040,00,03,39,300,16,14,56,091,19*71
2017-11-15 19:29:27 1510792167.663918: $GPGSV,3,3,12,23,10,300,11,01,06,253,00,22,50,273,17,133,44,201,00*4D
2017-11-15 19:29:27 1510792167.777065: $GPZDA,002926.00,16,11,2017,00,00*6A
2017-11-15 19:29:27 1510792167.777232: $GPGGA,002926,3946.9484,N,08404.9525,W,1,07,1.40,276.85,M,-33.324,M,,*71
2017-11-15 19:29:27 1510792167.777295: $GPRMC,002926,A,3946.9484,N,08404.9525,W,1.6828,219.347,161117,,*34
2017-11-15 19:29:27 1510792167.777354: $GPGSA,A,3,32,31,26,3,14,23,22,,,,,,3.4,1.4,2.9*0B
