2018-01-12 19:56:41 1515805001.210436: {"class":"VERSION","release":"3.16","rev":"3.16-4","proto_major":3,"proto_minor":11}
2018-01-12 19:56:41 1515805001.210804: {"class":"DEVICES","devices":[{"class":"DEVICE","path":"/dev/ttyUSB0","driver":"SiRF","subtype":"9\u0006GSD4e_4.1.2-P1_RPATCH.05-F-GPS-4R-1510281 11/03/2015 307","activated":"2018-01-13T00:56:41.185Z","flags":1,"native":1,"bps":4800,"parity":"N","stopbits":1,"cycle":1.00}]}
2018-01-12 19:56:41 1515805001.210922: {"class":"WATCH","enable":true,"json":false,"nmea":true,"raw":0,"scaled":false,"timing":false,"split24":false,"pps":false}
2018-01-12 19:56:42 1515805002.520795: $GPGSV,3,1,11,08,70,145,23,07,51,313,25,09,51,235,24,16,27,057,12*7C
2018-01-12 19:56:42 1515805002.520977: $GPGSV,3,2,11,23,34,192,26,27,51,058,26,26,02,070,12,11,16,169,12*70
2018-01-12 19:56:42 1515805002.521044: $GPGSV,3,3,11,30,25,304,00,28,11,255,00,138,38,213,00*73
2018-01-12 19:56:42 1515805002.634222: $GPZDA,005643.00,13,01,2018,00,00*6A
2018-01-12 19:56:42 1515805002.634380: $GPGGA,005643,3946.9534,N,08404.9484,W,1,08,1.20,337.65,M,-33.324,M,,*79
2018-01-12 19:56:42 1515805002.634447: $GPRMC,005643,A,3946.9534,N,08404.9484,W,0.2422,93.794,130118,,*0D
2018-01-12 19:56:42 1515805002.634512: $GPGSA,A,3,8,7,9,16,23,27,26,11,,,,,4.8,1.2,4.6*0E
2018-01-12 19:56:43 1515805003.185538: $GPZDA,005644.00,13,01,2018,00,00*6D
2018-01-12 19:56:43 1515805003.185720: $GPGGA,005644,3946.9534,N,08404.9484,W,1,08,1.20,337.65,M,-33.324,M,,*7E
2018-01-12 19:56:43 1515805003.185788: $GPRMC,005644,A,3946.9534,N,08404.9484,W,0.0000,0.000,130118,,*3C
2018-01-12 19:56:43 1515805003.185850: $GPGSA,A,3,8,7,9,16,23,27,26,11,,,,,4.8,1.2,4.6*0E
2018-01-12 19:56:44 1515805004.185910: $GPZDA,005645.00,13,01,2018,00,00*6C
2018-01-12 19:56:44 1515805004.186082: $GPGGA,005645,3946.9534,N,08404.9484,W,1,08,1.20,337.65,M,-33.324,M,,*7F
2018-01-12 19:56:44 1515805004.186148: $GPRMC,005645,A,3946.9534,N,08404.9484,W,0.2422,93.794,130118,,*0B
2018-01-12 19:56:44 1515805004.186211: $GPGSA,A,3,8,7,9,16,23,27,26,11,,,,,4.8,1.2,4.6*0E
2018-01-12 19:56:45 1515805005.521907: $GPGSV,3,1,11,08,70,145,23,07,51,313,25,09,51,235,24,16,27,057,12*7C
2018-01-12 19:56:45 1515805005.522103: $GPGSV,3,2,11,23,34,192,26,27,51,058,26,26,02,070,13,11,16,169,12*71
2018-01-12 19:56:45 1515805005.522173: $GPGSV,3,3,11,30,25,304,00,28,11,255,00,138,38,213,00*73
2018-01-12 19:56:45 1515805005.635283: $GPZDA,005646.00,13,01,2018,00,00*6F
2018-01-12 19:56:45 1515805005.635471: $GPGGA,005646,3946.9534,N,08404.9484,W,1,08,1.20,337.65,M,-33.324,M,,*7C
2018-01-12 19:56:45 1515805005.635548: $GPRMC,005646,A,3946.9534,N,08404.9484,W,0.5912,129.173,130118,,*3E
2018-01-12 19:56:45 1515805005.635616: $GPGSA,A,3,8,7,9,16,23,27,26,11,,,,,4.8,1.2,4.6*0E
2018-01-12 19:56:46 1515805006.168940: $GPZDA,005647.00,13,01,2018,00,00*6E
2018-01-12 19:56:46 1515805006.169369: $GPGGA,005647,3946.9533,N,08404.9477,W,1,08,1.20,337.73,M,-33.324,M,,*71
2018-01-12 19:56:46 1515805006.174618: $GPRMC,005647,A,3946.9533,N,08404.9477,W,0.4179,148.778,130118,,*3A
2018-01-12 19:56:46 1515805006.174702: $GPGSA,A,3,8,7,9,16,23,27,26,11,,,,,4.8,1.2,4.6*0E
2018-01-12 19:56:47 1515805007.170217: $GPZDA,005648.00,13,01,2018,00,00*61
2018-01-12 19:56:47 1515805007.170393: $GPGGA,005648,3946.9533,N,08404.9477,W,1,08,1.20,337.73,M,-33.324,M,,*7E
2018-01-12 19:56:47 1515805007.170464: $GPRMC,005648,A,3946.9533,N,08404.9477,W,0.8011,119.090,130118,,*33
2018-01-12 19:56:47 1515805007.170532: $GPGSA,A,3,8,7,9,16,23,27,26,11,,,,,4.8,1.2,4.6*0E
2018-01-12 19:56:48 1515805008.506287: $GPGSV,3,1,11,08,70,145,23,07,51,313,26,09,51,235,24,16,27,057,12*7F
2018-01-12 19:56:48 1515805008.506479: $GPGSV,3,2,11,23,34,192,26,27,51,058,26,26,02,070,12,11,16,169,10*72
2018-01-12 19:56:48 1515805008.506548: $GPGSV,3,3,11,30,25,304,00,28,11,255,00,138,38,213,00*73
2018-01-12 19:56:48 1515805008.619618: $GPZDA,005649.00,13,01,2018,00,00*60
2018-01-12 19:56:48 1515805008.619772: $GPGGA,005649,3946.9529,N,08404.9477,W,1,08,1.20,337.09,M,-33.324,M,,*79
2018-01-12 19:56:48 1515805008.619843: $GPRMC,005649,A,3946.9529,N,08404.9477,W,0.4179,148.778,130118,,*3F
2018-01-12 19:56:48 1515805008.619965: $GPGSA,A,3,8,7,9,16,23,27,26,11,,,,,4.8,1.2,4.6*0E
2018-01-12 19:56:49 1515805009.192532: $GPZDA,005650.00,13,01,2018,00,00*68
2018-01-12 19:56:49 1515805009.192709: $GPGGA,005650,3946.9529,N,08404.9477,W,1,08,1.20,337.09,M,-33.324,M,,*71
2018-01-12 19:56:49 1515805009.192776: $GPRMC,005650,A,3946.9529,N,08404.9477,W,0.5951,238.684,130118,,*32
2018-01-12 19:56:49 1515805009.192839: $GPGSA,A,3,8,7,9,16,23,27,26,11,,,,,4.8,1.2,4.6*0E
2018-01-12 19:56:50 1515805010.187670: $GPZDA,005651.00,13,01,2018,00,00*69
2018-01-12 19:56:50 1515805010.187844: $GPGGA,005651,3946.9529,N,08404.9477,W,1,08,1.20,337.09,M,-33.324,M,,*70
2018-01-12 19:56:50 1515805010.187912: $GPRMC,005651,A,3946.9529,N,08404.9477,W,0.1567,189.201,130118,,*3E
2018-01-12 19:56:50 1515805010.187976: $GPGSA,A,3,8,7,9,16,23,27,26,11,,,,,4.8,1.2,4.6*0E
2018-01-12 19:56:51 1515805011.522009: $GPGSV,3,1,11,08,70,145,24,07,51,313,26,09,51,235,23,16,27,057,12*7F
2018-01-12 19:56:51 1515805011.522195: $GPGSV,3,2,11,23,34,192,26,27,51,058,26,26,02,070,11,11,16,169,10*71
2018-01-12 19:56:51 1515805011.522263: $GPGSV,3,3,11,30,25,304,00,28,11,255,00,120,07,103,00*74
2018-01-12 19:56:51 1515805011.635339: $GPZDA,005652.00,13,01,2018,00,00*6A
2018-01-12 19:56:51 1515805011.635481: $GPGGA,005652,3946.9529,N,08404.9477,W,1,08,1.20,337.09,M,-33.324,M,,*73
2018-01-12 19:56:51 1515805011.635550: $GPRMC,005652,A,3946.9529,N,08404.9477,W,0.3006,242.540,130118,,*3B
2018-01-12 19:56:51 1515805011.635615: $GPGSA,A,3,8,7,9,16,23,27,26,11,,,,,4.8,1.2,4.6*0E
2018-01-12 19:56:52 1515805012.187020: $GPZDA,005653.00,13,01,2018,00,00*6B
2018-01-12 19:56:52 1515805012.187197: $GPGGA,005653,3946.9529,N,08404.9477,W,1,08,1.20,337.09,M,-33.324,M,,*72
2018-01-12 19:56:52 1515805012.187263: $GPRMC,005653,A,3946.9529,N,08404.9477,W,0.1867,180.000,130118,,*3B
2018-01-12 19:56:52 1515805012.187327: $GPGSA,A,3,8,7,9,16,23,27,26,11,,,,,4.8,1.2,4.6*0E
2018-01-12 19:56:53 1515805013.187413: $GPZDA,005654.00,13,01,2018,00,00*6C
2018-01-12 19:56:53 1515805013.187598: $GPGGA,005654,3946.9529,N,08404.9470,W,1,08,1.20,337.17,M,-33.324,M,,*7D
2018-01-12 19:56:53 1515805013.187668: $GPRMC,005654,A,3946.9529,N,08404.9470,W,0.5912,129.173,130118,,*3A
2018-01-12 19:56:53 1515805013.187730: $GPGSA,A,3,8,7,9,16,23,27,26,11,,,,,4.8,1.2,4.6*0E
2018-01-12 19:56:54 1515805014.529349: $GPGSV,3,1,11,08,70,145,24,07,51,313,26,09,51,235,23,16,27,057,13*7E
2018-01-12 19:56:54 1515805014.529538: $GPGSV,3,2,11,23,34,192,26,27,51,058,26,26,02,070,11,11,16,169,11*70
2018-01-12 19:56:54 1515805014.529608: $GPGSV,3,3,11,28,11,255,02,30,25,304,02,120,07,103,00*74
2018-01-12 19:56:54 1515805014.643782: $GPZDA,005655.00,13,01,2018,00,00*6D
2018-01-12 19:56:54 1515805014.643978: $GPGGA,005655,3946.9529,N,08404.9470,W,1,08,1.20,337.17,M,-33.324,M,,*7C
2018-01-12 19:56:54 1515805014.644052: $GPRMC,005655,A,3946.9529,N,08404.9470,W,0.5951,58.684,130118,,*04
2018-01-12 19:56:54 1515805014.644114: $GPGSA,A,3,8,7,9,16,23,27,26,11,,,,,4.8,1.2,4.6*0E
2018-01-12 19:56:55 1515805015.171897: $GPZDA,005656.00,13,01,2018,00,00*6E
2018-01-12 19:56:55 1515805015.172072: $GPGGA,005656,3946.9532,N,08404.9469,W,1,08,1.20,336.40,M,-33.324,M,,*7E
2018-01-12 19:56:55 1515805015.172139: $GPRMC,005656,A,3946.9532,N,08404.9469,W,1.0018,50.691,130118,,*09
2018-01-12 19:56:55 1515805015.172202: $GPGSA,A,3,8,7,9,16,23,27,26,11,,,,,4.8,1.2,4.6*0E
2018-01-12 19:56:56 1515805016.186414: $GPZDA,005657.00,13,01,2018,00,00*6F
2018-01-12 19:56:56 1515805016.186608: $GPGGA,005657,3946.9532,N,08404.9462,W,1,08,1.20,336.48,M,-33.324,M,,*7C
2018-01-12 19:56:56 1515805016.186701: $GPRMC,005657,A,3946.9532,N,08404.9462,W,0.4207,39.347,130118,,*0B
2018-01-12 19:56:56 1515805016.186765: $GPGSA,A,3,8,7,9,16,23,27,26,11,,,,,4.8,1.2,4.6*0E
2018-01-12 19:56:57 1515805017.522495: $GPGSV,3,1,11,08,70,145,24,07,51,313,26,09,51,235,22,16,27,057,13*7F
2018-01-12 19:56:57 1515805017.522673: $GPGSV,3,2,11,23,34,192,26,27,51,058,26,26,02,070,10,11,16,169,11*71
2018-01-12 19:56:57 1515805017.522792: $GPGSV,3,3,11,28,11,255,00,30,25,304,04,120,07,103,00*70
2018-01-12 19:56:57 1515805017.637376: $GPZDA,005658.00,13,01,2018,00,00*60
2018-01-12 19:56:57 1515805017.637575: $GPGGA,005658,3946.9532,N,08404.9462,W,1,08,1.20,336.48,M,-33.324,M,,*73
2018-01-12 19:56:57 1515805017.637645: $GPRMC,005658,A,3946.9532,N,08404.9462,W,0.3006,62.540,130118,,*0F
2018-01-12 19:56:57 1515805017.637709: $GPGSA,A,3,8,7,9,16,23,27,26,11,,,,,4.8,1.2,4.6*0E
2018-01-12 19:56:58 1515805018.188800: $GPZDA,005659.00,13,01,2018,00,00*61
2018-01-12 19:56:58 1515805018.188970: $GPGGA,005659,3946.9535,N,08404.9462,W,1,08,1.20,335.72,M,-33.324,M,,*7F
2018-01-12 19:56:58 1515805018.189038: $GPRMC,005659,A,3946.9535,N,08404.9462,W,0.3006,62.540,130118,,*09
2018-01-12 19:56:58 1515805018.189100: $GPGSA,A,3,8,7,9,16,23,27,26,11,,,,,4.8,1.2,4.6*0E
2018-01-12 19:56:59 1515805019.197622: $GPZDA,005700.00,13,01,2018,00,00*6C
2018-01-12 19:56:59 1515805019.197799: $GPGGA,005700,3946.9535,N,08404.9462,W,1,08,0.80,335.72,M,-33.324,M,,*79
2018-01-12 19:56:59 1515805019.197867: $GPRMC,005700,A,3946.9535,N,08404.9462,W,0.2422,93.794,130118,,*02
2018-01-12 19:56:59 1515805019.197932: $GPGSA,A,3,8,7,9,16,23,27,26,11,,,,,4.8,0.8,4.6*05
2018-01-12 19:57:00 1515805020.528811: $GPGSV,3,1,11,08,70,145,24,07,51,313,26,09,51,235,22,16,27,057,14*78
2018-01-12 19:57:00 1515805020.528997: $GPGSV,3,2,11,23,34,192,26,27,51,058,26,26,02,070,10,11,16,169,11*71
2018-01-12 19:57:00 1515805020.529081: $GPGSV,3,3,11,28,11,255,17,30,25,304,12,120,07,103,00*71
2018-01-12 19:57:00 1515805020.642287: $GPZDA,005701.00,13,01,2018,00,00*6D
2018-01-12 19:57:00 1515805020.642476: $GPGGA,005701,3946.9535,N,08404.9462,W,1,09,0.80,335.72,M,-33.324,M,,*79
2018-01-12 19:57:00 1515805020.642562: $GPRMC,005701,A,3946.9535,N,08404.9462,W,0.0000,0.000,130118,,*35
2018-01-12 19:57:00 1515805020.642624: $GPGSA,A,3,8,7,9,16,23,27,26,11,30,,,,4.8,0.8,4.6*06
