2017-12-01 14:00:12 1512154812.048255: {"class":"VERSION","release":"3.16","rev":"3.16-4","proto_major":3,"proto_minor":11}
2017-12-01 14:00:12 1512154812.048652: {"class":"DEVICES","devices":[{"class":"DEVICE","path":"/dev/ttyUSB0","driver":"SiRF","subtype":"9\u0006GSD4e_4.1.2-P1_RPATCH.05-F-GPS-4R-1510281 11/03/2015 307","activated":"2017-12-01T19:00:11.653Z","flags":1,"native":1,"bps":4800,"parity":"N","stopbits":1,"cycle":1.00}]}
2017-12-01 14:00:12 1512154812.048774: {"class":"WATCH","enable":true,"json":false,"nmea":true,"raw":0,"scaled":false,"timing":false,"split24":false,"pps":false}
2017-12-01 14:00:12 1512154812.671713: $GPGSV,3,1,12,10,60,319,50,14,21,246,39,15,19,061,39,18,76,060,42*74
2017-12-01 14:00:12 1512154812.671893: $GPGSV,3,2,12,20,17,112,43,21,40,181,46,24,51,072,48,27,12,268,39*7C
2017-12-01 14:00:12 1512154812.671961: $GPGSV,3,3,12,32,38,255,43,08,08,303,35,12,03,115,25,138,38,213,47*43
2017-12-01 14:00:12 1512154812.787037: $GPZDA,190013.00,01,12,2017,00,00*6A
2017-12-01 14:00:12 1512154812.787209: $GPGGA,190013,3946.9574,N,08404.9820,W,2,12,0.80,302.09,M,-33.324,M,,*7E
2017-12-01 14:00:12 1512154812.787276: $GPRMC,190013,A,3946.9574,N,08404.9820,W,0.0000,0.000,011217,,*3D
2017-12-01 14:00:12 1512154812.787337: $GPGSA,A,3,10,14,15,18,20,21,24,27,32,8,12,138,2.0,0.8,1.5*37
2017-12-01 14:00:13 1512154813.337563: $GPZDA,190014.00,01,12,2017,00,00*6D
2017-12-01 14:00:13 1512154813.337737: $GPGGA,190014,3946.9574,N,08404.9820,W,2,12,0.80,302.09,M,-33.324,M,,*79
2017-12-01 14:00:13 1512154813.337805: $GPRMC,190014,A,3946.9574,N,08404.9820,W,0.0000,0.000,011217,,*3A
2017-12-01 14:00:13 1512154813.337866: $GPGSA,A,3,10,14,15,18,20,21,24,27,32,8,12,138,2.0,0.8,1.5*37
2017-12-01 14:00:14 1512154814.335955: $GPZDA,190015.00,01,12,2017,00,00*6C
2017-12-01 14:00:14 1512154814.336132: $GPGGA,190015,3946.9574,N,08404.9820,W,2,12,0.80,302.09,M,-33.324,M,,*78
2017-12-01 14:00:14 1512154814.336200: $GPRMC,190015,A,3946.9574,N,08404.9820,W,0.0000,0.000,011217,,*3B
2017-12-01 14:00:14 1512154814.336280: $GPGSA,A,3,10,14,15,18,20,21,24,27,32,8,12,138,2.0,0.8,1.5*37
2017-12-01 14:00:15 1512154815.673803: $GPGSV,3,1,12,10,60,319,49,14,21,246,39,15,19,061,38,18,76,060,42*7D
2017-12-01 14:00:15 1512154815.673982: $GPGSV,3,2,12,20,17,112,44,21,40,181,46,24,51,072,48,27,12,268,40*75
2017-12-01 14:00:15 1512154815.674048: $GPGSV,3,3,12,32,38,255,43,08,08,303,36,12,03,115,25,138,38,213,46*41
2017-12-01 14:00:15 1512154815.787484: $GPZDA,190016.00,01,12,2017,00,00*6F
2017-12-01 14:00:15 1512154815.787657: $GPGGA,190016,3946.9571,N,08404.9821,W,2,12,0.80,302.86,M,-33.324,M,,*78
2017-12-01 14:00:15 1512154815.787724: $GPRMC,190016,A,3946.9571,N,08404.9821,W,0.0000,0.000,011217,,*3C
2017-12-01 14:00:15 1512154815.787784: $GPGSA,A,3,10,14,15,18,20,21,24,27,32,8,12,138,2.0,0.8,1.5*37
2017-12-01 14:00:16 1512154816.338345: $GPZDA,190017.00,01,12,2017,00,00*6E
2017-12-01 14:00:16 1512154816.338518: $GPGGA,190017,3946.9571,N,08404.9821,W,2,12,0.80,302.86,M,-33.324,M,,*79
2017-12-01 14:00:16 1512154816.338585: $GPRMC,190017,A,3946.9571,N,08404.9821,W,0.0000,0.000,011217,,*3D
2017-12-01 14:00:16 1512154816.338646: $GPGSA,A,3,10,14,15,18,20,21,24,27,32,8,12,138,2.0,0.8,1.5*37
2017-12-01 14:00:17 1512154817.337496: $GPZDA,190018.00,01,12,2017,00,00*61
2017-12-01 14:00:17 1512154817.337667: $GPGGA,190018,3946.9571,N,08404.9821,W,2,12,0.80,302.86,M,-33.324,M,,*76
2017-12-01 14:00:17 1512154817.337733: $GPRMC,190018,A,3946.9571,N,08404.9821,W,0.0000,0.000,011217,,*32
2017-12-01 14:00:17 1512154817.337795: $GPGSA,A,3,10,14,15,18,20,21,24,27,32,8,12,138,2.0,0.8,1.5*37
2017-12-01 14:00:18 1512154818.672871: $GPGSV,3,1,12,10,60,319,49,14,21,246,38,15,19,061,39,18,76,060,42*7D
2017-12-01 14:00:18 1512154818.673054: $GPGSV,3,2,12,20,17,112,44,21,40,181,45,24,51,072,47,27,12,268,39*77
2017-12-01 14:00:18 1512154818.673122: $GPGSV,3,3,12,32,38,255,43,08,08,303,37,12,03,115,26,138,38,213,47*42
2017-12-01 14:00:18 1512154818.786598: $GPZDA,190019.00,01,12,2017,00,00*60
2017-12-01 14:00:18 1512154818.786733: $GPGGA,190019,3946.9571,N,08404.9821,W,2,12,0.80,302.86,M,-33.324,M,,*77
2017-12-01 14:00:18 1512154818.786849: $GPRMC,190019,A,3946.9571,N,08404.9821,W,0.0000,0.000,011217,,*33
2017-12-01 14:00:18 1512154818.786911: $GPGSA,A,3,10,14,15,18,20,21,24,27,32,8,12,138,2.0,0.8,1.5*37
2017-12-01 14:00:19 1512154819.339740: $GPZDA,190020.00,01,12,2017,00,00*6A
2017-12-01 14:00:19 1512154819.339942: $GPGGA,190020,3946.9570,N,08404.9827,W,2,12,0.80,301.37,M,-33.324,M,,*73
2017-12-01 14:00:19 1512154819.340012: $GPRMC,190020,A,3946.9570,N,08404.9827,W,0.0000,0.000,011217,,*3E
2017-12-01 14:00:19 1512154819.340073: $GPGSA,A,3,10,14,15,18,20,21,24,27,32,8,12,138,2.0,0.8,1.5*37
2017-12-01 14:00:20 1512154820.336723: $GPZDA,190021.00,01,12,2017,00,00*6B
2017-12-01 14:00:20 1512154820.336911: $GPGGA,190021,3946.9570,N,08404.9827,W,2,12,0.80,301.37,M,-33.324,M,,*72
2017-12-01 14:00:20 1512154820.336980: $GPRMC,190021,A,3946.9570,N,08404.9827,W,0.0000,0.000,011217,,*3F
2017-12-01 14:00:20 1512154820.337041: $GPGSA,A,3,10,14,15,18,20,21,24,27,32,8,12,138,2.0,0.8,1.5*37
2017-12-01 14:00:21 1512154821.672482: $GPGSV,3,1,12,10,60,319,50,14,21,246,39,15,19,061,39,18,76,060,42*74
2017-12-01 14:00:21 1512154821.672667: $GPGSV,3,2,12,20,17,112,44,21,40,181,45,24,51,072,48,27,12,268,40*76
2017-12-01 14:00:21 1512154821.672734: $GPGSV,3,3,12,32,38,255,42,08,08,303,37,12,03,115,26,138,38,213,47*43
2017-12-01 14:00:21 1512154821.785841: $GPZDA,190022.00,01,12,2017,00,00*68
2017-12-01 14:00:21 1512154821.786007: $GPGGA,190022,3946.9570,N,08404.9827,W,2,12,0.80,301.37,M,-33.324,M,,*71
2017-12-01 14:00:21 1512154821.786072: $GPRMC,190022,A,3946.9570,N,08404.9827,W,0.0000,0.000,011217,,*3C
2017-12-01 14:00:21 1512154821.786132: $GPGSA,A,3,10,14,15,18,20,21,24,27,32,8,12,138,2.0,0.8,1.5*37
2017-12-01 14:00:22 1512154822.411198: $GPZDA,190023.00,01,12,2017,00,00*69
2017-12-01 14:00:22 1512154822.411411: $GPGGA,190023,3946.9570,N,08404.9827,W,2,12,0.80,301.37,M,-33.324,M,,*70
2017-12-01 14:00:22 1512154822.411487: $GPRMC,190023,A,3946.9570,N,08404.9827,W,0.0000,0.000,011217,,*3D
2017-12-01 14:00:22 1512154822.411550: $GPGSA,A,3,10,14,15,18,20,21,24,27,32,8,12,138,2.0,0.8,1.5*37
2017-12-01 14:00:23 1512154823.338526: $GPZDA,190024.00,01,12,2017,00,00*6E
2017-12-01 14:00:23 1512154823.338713: $GPGGA,190024,3946.9567,N,08404.9827,W,2,12,0.80,302.14,M,-33.324,M,,*73
2017-12-01 14:00:23 1512154823.338805: $GPRMC,190024,A,3946.9567,N,08404.9827,W,0.0000,0.000,011217,,*3C
2017-12-01 14:00:23 1512154823.338998: $GPGSA,A,3,10,14,15,18,20,21,24,27,32,8,12,138,2.0,0.8,1.5*37
2017-12-01 14:00:24 1512154824.674096: $GPGSV,3,1,12,10,60,319,49,14,21,246,39,15,19,061,39,18,76,060,42*7C
2017-12-01 14:00:24 1512154824.674272: $GPGSV,3,2,12,20,17,112,44,21,40,181,45,24,51,072,48,27,12,268,40*76
2017-12-01 14:00:24 1512154824.674337: $GPGSV,3,3,12,32,38,255,42,08,08,303,38,12,03,115,26,138,38,213,47*4C
2017-12-01 14:00:24 1512154824.787394: $GPZDA,190025.00,01,12,2017,00,00*6F
2017-12-01 14:00:24 1512154824.787520: $GPGGA,190025,3946.9567,N,08404.9827,W,2,12,0.80,302.14,M,-33.324,M,,*72
2017-12-01 14:00:24 1512154824.787583: $GPRMC,190025,A,3946.9567,N,08404.9827,W,0.0000,0.000,011217,,*3D
2017-12-01 14:00:24 1512154824.787643: $GPGSA,A,3,10,14,15,18,20,21,24,27,32,8,12,138,2.0,0.8,1.5*37
2017-12-01 14:00:25 1512154825.338315: $GPZDA,190026.00,01,12,2017,00,00*6C
2017-12-01 14:00:25 1512154825.338522: $GPGGA,190026,3946.9567,N,08404.9827,W,2,12,0.80,302.14,M,-33.324,M,,*71
2017-12-01 14:00:25 1512154825.338594: $GPRMC,190026,A,3946.9567,N,08404.9827,W,0.0000,0.000,011217,,*3E
2017-12-01 14:00:25 1512154825.338658: $GPGSA,A,3,10,14,15,18,20,21,24,27,32,8,12,138,2.0,0.8,1.5*37
2017-12-01 14:00:26 1512154826.336795: $GPZDA,190027.00,01,12,2017,00,00*6D
2017-12-01 14:00:26 1512154826.336971: $GPGGA,190027,3946.9566,N,08404.9821,W,2,12,0.80,302.22,M,-33.324,M,,*72
2017-12-01 14:00:26 1512154826.337041: $GPRMC,190027,A,3946.9566,N,08404.9821,W,0.0000,0.000,011217,,*38
2017-12-01 14:00:26 1512154826.337104: $GPGSA,A,3,10,14,15,18,20,21,24,27,32,8,12,138,2.0,0.8,1.5*37
