2017-12-31 17:07:19 1514758039.476244: {"class":"VERSION","release":"3.16","rev":"3.16-4","proto_major":3,"proto_minor":11}
2017-12-31 17:07:19 1514758039.476591: {"class":"DEVICES","devices":[{"class":"DEVICE","path":"/dev/ttyUSB0","driver":"SiRF","activated":"2017-12-31T22:07:19.452Z","flags":1,"native":1,"bps":4800,"parity":"N","stopbits":1,"cycle":1.00}]}
2017-12-31 17:07:19 1514758039.476689: {"class":"WATCH","enable":true,"json":false,"nmea":true,"raw":0,"scaled":false,"timing":false,"split24":false,"pps":false}
2017-12-31 17:07:20 1514758040.342855: $GPZDA,220721.00,31,12,2017,00,00*67
2017-12-31 17:07:20 1514758040.343026: $GPGGA,220721,3946.9587,N,08404.9854,W,2,11,1.00,302.21,M,-33.324,M,,*7F
2017-12-31 17:07:20 1514758040.343093: $GPRMC,220721,A,3946.9587,N,08404.9854,W,0.0000,0.000,311217,,*3F
2017-12-31 17:07:20 1514758040.343154: $GPGSA,A,3,22,23,25,3,16,29,31,14,32,26,135,,1.7,1.0,1.3*3B
2017-12-31 17:07:21 1514758041.695738: $GPGSV,3,1,11,22,44,238,43,23,28,307,38,25,01,037,10,03,46,270,40*72
2017-12-31 17:07:21 1514758041.695899: $GPGSV,3,2,11,16,47,190,42,29,14,054,33,31,49,051,50,14,40,114,37*72
2017-12-31 17:07:21 1514758041.695965: $GPGSV,3,3,11,32,18,123,40,26,75,139,47,135,22,240,42*7C
2017-12-31 17:07:21 1514758041.809328: $GPZDA,220722.00,31,12,2017,00,00*64
2017-12-31 17:07:21 1514758041.809446: $GPGGA,220722,3946.9587,N,08404.9854,W,2,11,1.00,302.21,M,-33.324,M,,*7C
2017-12-31 17:07:21 1514758041.809509: $GPRMC,220722,A,3946.9587,N,08404.9854,W,0.0000,0.000,311217,,*3C
2017-12-31 17:07:21 1514758041.809570: $GPGSA,A,3,22,23,25,3,16,29,31,14,32,26,135,,1.7,1.0,1.3*3B
2017-12-31 17:07:22 1514758042.360183: $GPZDA,220723.00,31,12,2017,00,00*65
2017-12-31 17:07:22 1514758042.360326: $GPGGA,220723,3946.9587,N,08404.9854,W,2,11,1.00,302.21,M,-33.324,M,,*7D
2017-12-31 17:07:22 1514758042.360393: $GPRMC,220723,A,3946.9587,N,08404.9854,W,0.0000,0.000,311217,,*3D
2017-12-31 17:07:22 1514758042.360453: $GPGSA,A,3,22,23,25,3,16,29,31,14,32,26,135,,1.7,1.0,1.3*3B
2017-12-31 17:07:23 1514758043.359892: $GPZDA,220724.00,31,12,2017,00,00*62
2017-12-31 17:07:23 1514758043.360081: $GPGGA,220724,3946.9587,N,08404.9854,W,2,11,1.00,302.21,M,-33.324,M,,*7A
2017-12-31 17:07:23 1514758043.360167: $GPRMC,220724,A,3946.9587,N,08404.9854,W,0.0000,0.000,311217,,*3A
2017-12-31 17:07:23 1514758043.360231: $GPGSA,A,3,22,23,25,3,16,29,31,14,32,26,135,,1.7,1.0,1.3*3B
2017-12-31 17:07:24 1514758044.687839: $GPGSV,3,1,11,22,44,238,43,23,28,307,38,25,01,037,11,03,46,270,39*7D
2017-12-31 17:07:24 1514758044.688026: $GPGSV,3,2,11,16,47,190,42,29,14,054,34,31,49,051,50,14,40,114,36*74
2017-12-31 17:07:24 1514758044.688094: $GPGSV,3,3,11,32,18,123,40,26,75,139,47,135,22,240,42*7C
2017-12-31 17:07:24 1514758044.801551: $GPZDA,220725.00,31,12,2017,00,00*63
2017-12-31 17:07:24 1514758044.801694: $GPGGA,220725,3946.9587,N,08404.9854,W,2,11,1.00,302.21,M,-33.324,M,,*7B
2017-12-31 17:07:24 1514758044.801759: $GPRMC,220725,A,3946.9587,N,08404.9854,W,0.0000,0.000,311217,,*3B
2017-12-31 17:07:24 1514758044.801819: $GPGSA,A,3,22,23,25,3,16,29,31,14,32,26,135,,1.7,1.0,1.3*3B
2017-12-31 17:07:25 1514758045.426867: $GPZDA,220726.00,31,12,2017,00,00*60
2017-12-31 17:07:25 1514758045.427025: $GPGGA,220726,3946.9587,N,08404.9854,W,2,11,1.00,302.21,M,-33.324,M,,*78
2017-12-31 17:07:25 1514758045.427148: $GPRMC,220726,A,3946.9587,N,08404.9854,W,0.0000,0.000,311217,,*38
2017-12-31 17:07:25 1514758045.427219: $GPGSA,A,3,22,23,25,3,16,29,31,14,32,26,135,,1.7,1.0,1.3*3B
2017-12-31 17:07:26 1514758046.367903: $GPZDA,220727.00,31,12,2017,00,00*61
2017-12-31 17:07:26 1514758046.368064: $GPGGA,220727,3946.9587,N,08404.9854,W,2,11,1.00,302.21,M,-33.324,M,,*79
2017-12-31 17:07:26 1514758046.368131: $GPRMC,220727,A,3946.9587,N,08404.9854,W,0.0000,0.000,311217,,*39
2017-12-31 17:07:26 1514758046.368192: $GPGSA,A,3,22,23,25,3,16,29,31,14,32,26,135,,1.7,1.0,1.3*3B
2017-12-31 17:07:27 1514758047.680694: $GPGSV,3,1,11,22,44,238,43,23,28,307,37,25,01,037,10,03,46,270,40*7D
2017-12-31 17:07:27 1514758047.680875: $GPGSV,3,2,11,16,47,190,42,29,14,054,34,31,49,051,50,14,40,114,36*74
2017-12-31 17:07:27 1514758047.680997: $GPGSV,3,3,11,32,18,123,40,26,75,139,47,135,22,240,43*7D
2017-12-31 17:07:27 1514758047.793054: $GPZDA,220728.00,31,12,2017,00,00*6E
2017-12-31 17:07:27 1514758047.793178: $GPGGA,220728,3946.9587,N,08404.9854,W,2,11,1.00,302.21,M,-33.324,M,,*76
2017-12-31 17:07:27 1514758047.793241: $GPRMC,220728,A,3946.9587,N,08404.9854,W,0.0000,0.000,311217,,*36
2017-12-31 17:07:27 1514758047.793301: $GPGSA,A,3,22,23,25,3,16,29,31,14,32,26,135,,1.7,1.0,1.3*3B
2017-12-31 17:07:28 1514758048.360202: $GPZDA,220729.00,31,12,2017,00,00*6F
2017-12-31 17:07:28 1514758048.360370: $GPGGA,220729,3946.9587,N,08404.9854,W,2,11,1.00,302.21,M,-33.324,M,,*77
2017-12-31 17:07:28 1514758048.360436: $GPRMC,220729,A,3946.9587,N,08404.9854,W,0.0000,0.000,311217,,*37
2017-12-31 17:07:28 1514758048.360497: $GPGSA,A,3,22,23,25,3,16,29,31,14,32,26,135,,1.7,1.0,1.3*3B
2017-12-31 17:07:29 1514758049.344520: $GPZDA,220730.00,31,12,2017,00,00*67
2017-12-31 17:07:29 1514758049.344702: $GPGGA,220730,3946.9587,N,08404.9854,W,2,11,1.00,302.21,M,-33.324,M,,*7F
2017-12-31 17:07:29 1514758049.344768: $GPRMC,220730,A,3946.9587,N,08404.9854,W,0.0000,0.000,311217,,*3F
2017-12-31 17:07:29 1514758049.344829: $GPGSA,A,3,22,23,25,3,16,29,31,14,32,26,135,,1.7,1.0,1.3*3B
