2017-11-16 17:31:41 1510871501.393283: {"class":"VERSION","release":"3.17","rev":"3.17","proto_major":3,"proto_minor":12}
2017-11-16 17:31:41 1510871501.393917: {"class":"DEVICES","devices":[{"class":"DEVICE","path":"/dev/ttyUSB0","driver":"SiRF","subtype":"9\u0006GSD4e_4.1.2-P1_RPATCH.05-F-GPS-4R-1510281 11/03/2015 307","activated":"2017-11-16T22:31:41.309Z","flags":1,"native":1,"bps":4800,"parity":"N","stopbits":1,"cycle":1.00}]}
2017-11-16 17:31:41 1510871501.394058: {"class":"WATCH","enable":true,"json":false,"nmea":true,"raw":0,"scaled":false,"timing":false,"split24":false,"pps":false}
2017-11-16 17:31:41 1510871501.422800: $GPZDA,223140.00,16,11,2017,00,00*63
2017-11-16 17:31:41 1510871501.422972: $GPGGA,223140,3946.9572,N,08404.9835,W,2,12,0.80,304.10,M,-33.324,M,,*7E
2017-11-16 17:31:41 1510871501.423033: $GPRMC,223140,A,3946.9572,N,08404.9835,W,0.0000,0.000,161117,,*36
2017-11-16 17:31:41 1510871501.423089: $GPGSA,A,3,1,10,22,12,14,18,26,11,25,31,32,138,1.6,0.8,1.3*3A
2017-11-16 17:31:42 1510871502.737389: $GPGSV,3,1,12,01,21,301,38,10,48,148,50,22,18,312,44,12,22,051,51*7C
2017-11-16 17:31:42 1510871502.737619: $GPGSV,3,2,12,14,66,327,48,18,19,144,39,26,01,183,00,11,08,282,40*75
2017-11-16 17:31:42 1510871502.737684: $GPGSV,3,3,12,25,39,091,48,31,55,225,48,32,69,025,49,138,38,213,44*4D
2017-11-16 17:31:42 1510871502.849360: $GPZDA,223141.00,16,11,2017,00,00*62
2017-11-16 17:31:42 1510871502.849534: $GPGGA,223141,3946.9572,N,08404.9835,W,2,11,0.80,304.10,M,-33.324,M,,*7C
2017-11-16 17:31:42 1510871502.849596: $GPRMC,223141,A,3946.9572,N,08404.9835,W,0.0000,0.000,161117,,*37
2017-11-16 17:31:42 1510871502.849651: $GPGSA,A,3,1,10,22,12,14,18,11,25,31,32,138,,1.6,0.8,1.3*3E
2017-11-16 17:31:43 1510871503.402751: $GPZDA,223142.00,16,11,2017,00,00*61
2017-11-16 17:31:43 1510871503.402951: $GPGGA,223142,3946.9572,N,08404.9835,W,2,11,0.80,304.10,M,-33.324,M,,*7F
2017-11-16 17:31:43 1510871503.403014: $GPRMC,223142,A,3946.9572,N,08404.9835,W,0.0000,0.000,161117,,*34
2017-11-16 17:31:43 1510871503.403070: $GPGSA,A,3,1,10,22,12,14,18,11,25,31,32,138,,1.6,0.8,1.3*3E
2017-11-16 17:31:44 1510871504.423454: $GPZDA,223143.00,16,11,2017,00,00*60
2017-11-16 17:31:44 1510871504.423642: $GPGGA,223143,3946.9572,N,08404.9835,W,2,11,0.80,304.10,M,-33.324,M,,*7E
2017-11-16 17:31:44 1510871504.423705: $GPRMC,223143,A,3946.9572,N,08404.9835,W,0.0000,0.000,161117,,*35
2017-11-16 17:31:44 1510871504.423762: $GPGSA,A,3,1,10,22,12,14,18,11,25,31,32,138,,1.6,0.8,1.3*3E
2017-11-16 17:31:45 1510871505.736804: $GPGSV,3,1,12,01,21,301,38,10,48,148,49,22,18,312,44,12,22,051,51*74
2017-11-16 17:31:45 1510871505.736976: $GPGSV,3,2,12,14,66,327,48,18,19,144,39,26,01,183,00,11,08,282,40*75
2017-11-16 17:31:45 1510871505.737036: $GPGSV,3,3,12,25,39,091,48,31,55,225,48,32,69,025,49,138,38,213,44*4D
2017-11-16 17:31:45 1510871505.850119: $GPZDA,223144.00,16,11,2017,00,00*67
2017-11-16 17:31:45 1510871505.850312: $GPGGA,223144,3946.9572,N,08404.9835,W,2,11,0.80,304.10,M,-33.324,M,,*79
2017-11-16 17:31:45 1510871505.850394: $GPRMC,223144,A,3946.9572,N,08404.9835,W,0.0000,0.000,161117,,*32
2017-11-16 17:31:45 1510871505.850451: $GPGSA,A,3,1,10,22,12,14,18,11,25,31,32,138,,1.6,0.8,1.3*3E
2017-11-16 17:31:46 1510871506.475489: $GPZDA,223145.00,16,11,2017,00,00*66
2017-11-16 17:31:46 1510871506.475658: $GPGGA,223145,3946.9572,N,08404.9835,W,2,11,0.80,304.10,M,-33.324,M,,*78
2017-11-16 17:31:46 1510871506.475720: $GPRMC,223145,A,3946.9572,N,08404.9835,W,0.0000,0.000,161117,,*33
2017-11-16 17:31:46 1510871506.475777: $GPGSA,A,3,1,10,22,12,14,18,11,25,31,32,138,,1.6,0.8,1.3*3E
2017-11-16 17:31:47 1510871507.422509: $GPZDA,223146.00,16,11,2017,00,00*65
2017-11-16 17:31:47 1510871507.422692: $GPGGA,223146,3946.9572,N,08404.9835,W,2,11,0.80,304.10,M,-33.324,M,,*7B
2017-11-16 17:31:47 1510871507.422754: $GPRMC,223146,A,3946.9572,N,08404.9835,W,0.0000,0.000,161117,,*30
2017-11-16 17:31:47 1510871507.422811: $GPGSA,A,3,1,10,22,12,14,18,11,25,31,32,138,,1.6,0.8,1.3*3E
2017-11-16 17:31:48 1510871508.759645: $GPGSV,3,1,12,01,21,301,39,10,48,148,49,22,18,312,44,12,22,051,51*75
2017-11-16 17:31:48 1510871508.759857: $GPGSV,3,2,12,14,66,327,48,18,19,144,39,26,01,183,14,11,08,282,40*70
2017-11-16 17:31:48 1510871508.759921: $GPGSV,3,3,12,25,39,091,48,31,55,225,49,32,69,025,49,138,38,213,44*4C
2017-11-16 17:31:48 1510871508.873006: $GPZDA,223147.00,16,11,2017,00,00*64
2017-11-16 17:31:48 1510871508.873180: $GPGGA,223147,3946.9572,N,08404.9835,W,2,11,0.80,304.10,M,-33.324,M,,*7A
2017-11-16 17:31:48 1510871508.873258: $GPRMC,223147,A,3946.9572,N,08404.9835,W,0.0000,0.000,161117,,*31
2017-11-16 17:31:48 1510871508.873315: $GPGSA,A,3,1,10,22,12,14,18,11,25,31,32,138,,1.6,0.8,1.3*3E
2017-11-16 17:31:49 1510871509.423706: $GPZDA,223148.00,16,11,2017,00,00*6B
2017-11-16 17:31:49 1510871509.423940: $GPGGA,223148,3946.9572,N,08404.9835,W,2,11,0.80,304.10,M,-33.324,M,,*75
2017-11-16 17:31:49 1510871509.424001: $GPRMC,223148,A,3946.9572,N,08404.9835,W,0.0000,0.000,161117,,*3E
2017-11-16 17:31:49 1510871509.424057: $GPGSA,A,3,1,10,22,12,14,18,11,25,31,32,138,,1.6,0.8,1.3*3E
2017-11-16 17:31:50 1510871510.399616: $GPZDA,223149.00,16,11,2017,00,00*6A
2017-11-16 17:31:50 1510871510.399796: $GPGGA,223149,3946.9572,N,08404.9835,W,2,11,0.80,304.10,M,-33.324,M,,*74
2017-11-16 17:31:50 1510871510.399857: $GPRMC,223149,A,3946.9572,N,08404.9835,W,0.0000,0.000,161117,,*3F
2017-11-16 17:31:50 1510871510.399914: $GPGSA,A,3,1,10,22,12,14,18,11,25,31,32,138,,1.6,0.8,1.3*3E
