2017-11-16 15:08:04 1510862884.557373: {"class":"VERSION","release":"3.17","rev":"3.17","proto_major":3,"proto_minor":12}
2017-11-16 15:08:04 1510862884.557868: {"class":"DEVICES","devices":[{"class":"DEVICE","path":"/dev/ttyUSB0","driver":"SiRF","subtype":"9\u0006GSD4e_4.1.2-P1_RPATCH.05-F-GPS-4R-1510281 11/03/2015 307","activated":"2017-11-16T20:08:04.303Z","flags":1,"native":1,"bps":4800,"parity":"N","stopbits":1,"cycle":1.00}]}
2017-11-16 15:08:04 1510862884.557990: {"class":"WATCH","enable":true,"json":false,"nmea":true,"raw":0,"scaled":false,"timing":false,"split24":false,"pps":false}
2017-11-16 15:08:04 1510862884.753059: $GPGSV,3,1,12,08,07,300,24,10,62,321,51,14,23,247,43,15,17,063,42*70
2017-11-16 15:08:04 1510862884.753230: $GPGSV,3,2,12,18,76,069,47,20,14,114,37,21,38,181,45,24,50,069,48*79
2017-11-16 15:08:04 1510862884.753290: $GPGSV,3,3,12,27,11,267,44,32,40,258,46,12,04,114,25,138,38,213,45*40
2017-11-16 15:08:04 1510862884.866795: $GPZDA,200803.00,16,11,2017,00,00*6C
2017-11-16 15:08:04 1510862884.866962: $GPGGA,200803,3946.9593,N,08404.9844,W,2,12,0.80,297.95,M,-33.324,M,,*7E
2017-11-16 15:08:04 1510862884.867023: $GPRMC,200803,A,3946.9593,N,08404.9844,W,0.0000,0.000,161117,,*30
2017-11-16 15:08:04 1510862884.867079: $GPGSA,A,3,8,10,14,15,18,20,21,24,27,32,12,138,1.6,0.8,1.3*34
2017-11-16 15:08:05 1510862885.417031: $GPZDA,200804.00,16,11,2017,00,00*6B
2017-11-16 15:08:05 1510862885.417199: $GPGGA,200804,3946.9593,N,08404.9844,W,2,12,0.80,297.95,M,-33.324,M,,*79
2017-11-16 15:08:05 1510862885.417262: $GPRMC,200804,A,3946.9593,N,08404.9844,W,0.0000,0.000,161117,,*37
2017-11-16 15:08:05 1510862885.417318: $GPGSA,A,3,8,10,14,15,18,20,21,24,27,32,12,138,1.6,0.8,1.3*34
2017-11-16 15:08:06 1510862886.416039: $GPZDA,200805.00,16,11,2017,00,00*6A
2017-11-16 15:08:06 1510862886.416214: $GPGGA,200805,3946.9593,N,08404.9844,W,2,12,1.00,297.95,M,-33.324,M,,*71
2017-11-16 15:08:06 1510862886.416294: $GPRMC,200805,A,3946.9593,N,08404.9844,W,0.0000,0.000,161117,,*36
2017-11-16 15:08:06 1510862886.416352: $GPGSA,A,3,8,10,14,15,18,20,21,24,27,32,12,138,1.6,1.0,1.3*3D
2017-11-16 15:08:07 1510862887.735620: $GPGSV,3,1,12,08,07,300,04,10,62,321,51,14,23,247,43,15,17,063,42*72
2017-11-16 15:08:07 1510862887.735756: $GPGSV,3,2,12,18,76,069,47,20,14,114,37,21,38,181,45,24,50,069,49*78
2017-11-16 15:08:07 1510862887.735831: $GPGSV,3,3,12,27,11,267,44,32,40,258,46,12,04,114,26,138,38,213,45*43
2017-11-16 15:08:07 1510862887.848903: $GPZDA,200806.00,16,11,2017,00,00*69
2017-11-16 15:08:07 1510862887.849092: $GPGGA,200806,3946.9593,N,08404.9844,W,2,11,1.00,297.95,M,-33.324,M,,*71
2017-11-16 15:08:07 1510862887.849156: $GPRMC,200806,A,3946.9593,N,08404.9844,W,0.0000,0.000,161117,,*35
2017-11-16 15:08:07 1510862887.849213: $GPGSA,A,3,10,14,15,18,20,21,24,27,32,12,138,,1.6,1.0,1.3*05
2017-11-16 15:08:08 1510862888.393495: $GPZDA,200807.00,16,11,2017,00,00*68
2017-11-16 15:08:08 1510862888.393673: $GPGGA,200807,3946.9593,N,08404.9844,W,2,11,0.80,297.95,M,-33.324,M,,*79
2017-11-16 15:08:08 1510862888.393735: $GPRMC,200807,A,3946.9593,N,08404.9844,W,0.0000,0.000,161117,,*34
2017-11-16 15:08:08 1510862888.393792: $GPGSA,A,3,10,14,15,18,20,21,24,27,32,12,138,,1.6,0.8,1.3*0C
2017-11-16 15:08:09 1510862889.399274: $GPZDA,200808.00,16,11,2017,00,00*67
2017-11-16 15:08:09 1510862889.399441: $GPGGA,200808,3946.9593,N,08404.9844,W,2,11,0.80,297.95,M,-33.324,M,,*76
2017-11-16 15:08:09 1510862889.399521: $GPRMC,200808,A,3946.9593,N,08404.9844,W,0.0000,0.000,161117,,*3B
2017-11-16 15:08:09 1510862889.399579: $GPGSA,A,3,10,14,15,18,20,21,24,27,32,12,138,,1.6,0.8,1.3*0C
2017-11-16 15:08:10 1510862890.728979: $GPGSV,3,1,12,08,07,300,20,10,62,321,51,14,23,247,43,15,17,063,42*74
2017-11-16 15:08:10 1510862890.729143: $GPGSV,3,2,12,18,76,069,47,20,14,114,37,21,38,181,45,24,50,069,49*78
2017-11-16 15:08:10 1510862890.729220: $GPGSV,3,3,12,27,11,267,44,32,40,258,46,12,04,114,24,138,38,213,44*40
2017-11-16 15:08:10 1510862890.842023: $GPZDA,200809.00,16,11,2017,00,00*66
2017-11-16 15:08:10 1510862890.842203: $GPGGA,200809,3946.9593,N,08404.9844,W,2,12,0.80,297.95,M,-33.324,M,,*74
2017-11-16 15:08:10 1510862890.842320: $GPRMC,200809,A,3946.9593,N,08404.9844,W,0.0000,0.000,161117,,*3A
2017-11-16 15:08:10 1510862890.842378: $GPGSA,A,3,8,10,14,15,18,20,21,24,27,32,12,138,1.6,0.8,1.3*34
2017-11-16 15:08:11 1510862891.467355: $GPZDA,200810.00,16,11,2017,00,00*6E
2017-11-16 15:08:11 1510862891.467532: $GPGGA,200810,3946.9593,N,08404.9844,W,2,12,0.80,297.95,M,-33.324,M,,*7C
2017-11-16 15:08:11 1510862891.467595: $GPRMC,200810,A,3946.9593,N,08404.9844,W,0.0000,0.000,161117,,*32
2017-11-16 15:08:11 1510862891.467652: $GPGSA,A,3,8,10,14,15,18,20,21,24,27,32,12,138,1.6,0.8,1.3*34
2017-11-16 15:08:12 1510862892.399385: $GPZDA,200811.00,16,11,2017,00,00*6F
2017-11-16 15:08:12 1510862892.399570: $GPGGA,200811,3946.9593,N,08404.9844,W,2,12,0.80,297.95,M,-33.324,M,,*7D
2017-11-16 15:08:12 1510862892.399634: $GPRMC,200811,A,3946.9593,N,08404.9844,W,0.0000,0.000,161117,,*33
2017-11-16 15:08:12 1510862892.399691: $GPGSA,A,3,8,10,14,15,18,20,21,24,27,32,12,138,1.6,0.8,1.3*34
2017-11-16 15:08:13 1510862893.737753: $GPGSV,3,1,12,08,07,300,28,10,62,321,51,14,23,247,43,15,17,063,42*7C
2017-11-16 15:08:13 1510862893.737920: $GPGSV,3,2,12,18,76,069,47,20,14,114,37,21,38,181,44,24,50,069,48*78
2017-11-16 15:08:13 1510862893.737980: $GPGSV,3,3,12,27,11,267,44,32,40,258,46,12,04,114,20,138,38,213,44*44
2017-11-16 15:08:13 1510862893.851403: $GPZDA,200812.00,16,11,2017,00,00*6C
2017-11-16 15:08:13 1510862893.851596: $GPGGA,200812,3946.9593,N,08404.9844,W,2,12,0.80,297.95,M,-33.324,M,,*7E
2017-11-16 15:08:13 1510862893.851682: $GPRMC,200812,A,3946.9593,N,08404.9844,W,0.0000,0.000,161117,,*30
2017-11-16 15:08:13 1510862893.851740: $GPGSA,A,3,8,10,14,15,18,20,21,24,27,32,12,138,1.6,0.8,1.3*34
2017-11-16 15:08:14 1510862894.393344: $GPZDA,200813.00,16,11,2017,00,00*6D
2017-11-16 15:08:14 1510862894.393503: $GPGGA,200813,3946.9593,N,08404.9844,W,2,12,0.80,297.95,M,-33.324,M,,*7F
2017-11-16 15:08:14 1510862894.393565: $GPRMC,200813,A,3946.9593,N,08404.9844,W,0.0000,0.000,161117,,*31
2017-11-16 15:08:14 1510862894.393621: $GPGSA,A,3,8,10,14,15,18,20,21,24,27,32,12,138,1.6,0.8,1.3*34
