2017-11-15 19:06:41 1510790801.308246: {"class":"VERSION","release":"3.17","rev":"3.17","proto_major":3,"proto_minor":12}
2017-11-15 19:06:41 1510790801.308768: {"class":"DEVICES","devices":[{"class":"DEVICE","path":"/dev/ttyUSB0","driver":"SiRF","subtype":"9\u0006GSD4e_4.1.2-P1_RPATCH.05-F-GPS-4R-1510281 11/03/2015 307","activated":"2017-11-16T00:06:41.231Z","flags":1,"native":1,"bps":4800,"parity":"N","stopbits":1,"cycle":1.00}]}
2017-11-15 19:06:41 1510790801.308888: {"class":"WATCH","enable":true,"json":false,"nmea":true,"raw":0,"scaled":false,"timing":false,"split24":false,"pps":false}
2017-11-15 19:06:41 1510790801.344991: $GPZDA,000640.00,16,11,2017,00,00*67
2017-11-15 19:06:41 1510790801.345149: $GPGGA,000640,3946.9629,N,08404.9505,W,1,07,2.00,300.88,M,-33.324,M,,*71
2017-11-15 19:06:41 1510790801.345209: $GPRMC,000640,A,3946.9629,N,08404.9505,W,1.3082,161.818,161117,,*3E
2017-11-15 19:06:41 1510790801.345265: $GPGSA,A,3,32,14,29,26,31,16,22,,,,,,3.4,2.0,2.9*32
2017-11-15 19:06:42 1510790802.680573: $GPGSV,3,1,12,32,44,097,18,14,62,076,25,29,07,081,11,26,42,175,23*7C
2017-11-15 19:06:42 1510790802.682221: $GPGSV,3,2,12,31,75,001,22,16,12,190,15,22,48,286,20,03,33,309,00*79
2017-11-15 19:06:42 1510790802.682288: $GPGSV,3,3,12,25,25,045,00,01,11,261,00,10,07,159,00,138,38,213,00*45
2017-11-15 19:06:42 1510790802.794269: $GPZDA,000641.00,16,11,2017,00,00*66
2017-11-15 19:06:42 1510790802.794428: $GPGGA,000641,3946.9629,N,08404.9512,W,1,07,2.00,300.80,M,-33.324,M,,*7E
2017-11-15 19:06:42 1510790802.794490: $GPRMC,000641,A,3946.9629,N,08404.9512,W,0.7246,164.668,161117,,*3A
2017-11-15 19:06:42 1510790802.794546: $GPGSA,A,3,32,14,29,26,31,16,22,,,,,,3.4,2.0,2.9*32
2017-11-15 19:06:43 1510790803.344757: $GPZDA,000642.00,16,11,2017,00,00*65
2017-11-15 19:06:43 1510790803.344920: $GPGGA,000642,3946.9629,N,08404.9512,W,1,07,2.00,300.80,M,-33.324,M,,*7D
2017-11-15 19:06:43 1510790803.344980: $GPRMC,000642,A,3946.9629,N,08404.9512,W,0.4179,148.778,161117,,*3B
2017-11-15 19:06:43 1510790803.345036: $GPGSA,A,3,32,14,29,26,31,16,22,,,,,,3.4,2.0,2.9*32
2017-11-15 19:06:44 1510790804.329470: $GPZDA,000643.00,16,11,2017,00,00*64
2017-11-15 19:06:44 1510790804.329642: $GPGGA,000643,3946.9629,N,08404.9512,W,1,07,2.00,300.80,M,-33.324,M,,*7C
2017-11-15 19:06:44 1510790804.329704: $GPRMC,000643,A,3946.9629,N,08404.9512,W,0.4179,328.778,161117,,*3E
2017-11-15 19:06:44 1510790804.329760: $GPGSA,A,3,32,14,29,26,31,16,22,,,,,,3.4,2.0,2.9*32
2017-11-15 19:06:45 1510790805.680071: $GPGSV,3,1,12,32,44,097,19,14,62,076,25,03,33,309,00,26,42,175,22*70
2017-11-15 19:06:45 1510790805.680241: $GPGSV,3,2,12,31,75,001,23,16,12,190,15,22,48,286,20,25,25,045,00*70
2017-11-15 19:06:45 1510790805.680323: $GPGSV,3,3,12,01,11,261,00,29,07,081,00,10,07,159,00,138,38,213,00*41
2017-11-15 19:06:45 1510790805.793477: $GPZDA,000644.00,16,11,2017,00,00*63
2017-11-15 19:06:45 1510790805.793655: $GPGGA,000644,3946.9633,N,08404.9512,W,1,06,2.00,301.44,M,-33.324,M,,*78
2017-11-15 19:06:45 1510790805.793717: $GPRMC,000644,A,3946.9633,N,08404.9512,W,0.7246,344.668,161117,,*34
2017-11-15 19:06:45 1510790805.793774: $GPGSA,A,3,32,14,26,31,16,22,,,,,,,3.4,2.0,2.9*39
2017-11-15 19:06:46 1510790806.418839: $GPZDA,000645.00,16,11,2017,00,00*62
2017-11-15 19:06:46 1510790806.419015: $GPGGA,000645,3946.9633,N,08404.9519,W,1,06,2.00,301.37,M,-33.324,M,,*76
2017-11-15 19:06:46 1510790806.419077: $GPRMC,000645,A,3946.9633,N,08404.9519,W,0.3423,4.197,161117,,*3F
2017-11-15 19:06:46 1510790806.419132: $GPGSA,A,3,32,14,26,31,16,22,,,,,,,3.4,2.0,2.9*39
2017-11-15 19:06:47 1510790807.345863: $GPZDA,000646.00,16,11,2017,00,00*61
2017-11-15 19:06:47 1510790807.346102: $GPGGA,000646,3946.9641,N,08404.9518,W,1,06,2.00,301.24,M,-33.324,M,,*73
2017-11-15 19:06:47 1510790807.346163: $GPRMC,000646,A,3946.9641,N,08404.9518,W,0.4207,39.347,161117,,*0E
2017-11-15 19:06:47 1510790807.346219: $GPGSA,A,3,32,14,26,31,16,22,,,,,,,3.4,2.0,2.9*39
2017-11-15 19:06:48 1510790808.681747: $GPGSV,3,1,12,32,44,097,19,14,62,076,25,03,33,309,00,26,42,175,22*70
2017-11-15 19:06:48 1510790808.681891: $GPGSV,3,2,12,31,75,001,23,16,12,190,16,22,48,286,21,25,25,045,00*72
2017-11-15 19:06:48 1510790808.682001: $GPGSV,3,3,12,01,11,261,00,29,07,081,00,10,07,159,00,138,38,213,00*41
2017-11-15 19:06:48 1510790808.795073: $GPZDA,000647.00,16,11,2017,00,00*60
2017-11-15 19:06:48 1510790808.795246: $GPGGA,000647,3946.9641,N,08404.9518,W,1,06,2.00,301.24,M,-33.324,M,,*72
2017-11-15 19:06:48 1510790808.795307: $GPRMC,000647,A,3946.9641,N,08404.9518,W,0.4844,93.794,161117,,*08
2017-11-15 19:06:48 1510790808.795363: $GPGSA,A,3,32,14,26,31,16,22,,,,,,,3.4,2.0,2.9*39
2017-11-15 19:06:49 1510790809.329788: $GPZDA,000648.00,16,11,2017,00,00*6F
2017-11-15 19:06:49 1510790809.329971: $GPGGA,000648,3946.9641,N,08404.9518,W,1,06,2.00,301.24,M,-33.324,M,,*7D
2017-11-15 19:06:49 1510790809.330033: $GPRMC,000648,A,3946.9641,N,08404.9518,W,0.7267,93.794,161117,,*0F
2017-11-15 19:06:49 1510790809.330089: $GPGSA,A,3,32,14,26,31,16,22,,,,,,,3.4,2.0,2.9*39
2017-11-15 19:06:50 1510790810.345550: $GPZDA,000649.00,16,11,2017,00,00*6E
2017-11-15 19:06:50 1510790810.345719: $GPGGA,000649,3946.9645,N,08404.9511,W,1,06,2.00,301.96,M,-33.324,M,,*78
2017-11-15 19:06:50 1510790810.345780: $GPRMC,000649,A,3946.9645,N,08404.9511,W,1.0018,50.691,161117,,*04
2017-11-15 19:06:50 1510790810.345836: $GPGSA,A,3,32,14,26,31,16,22,,,,,,,3.4,2.0,2.9*39
