2017-12-01 14:23:32 1512156212.806945: {"class":"VERSION","release":"3.16","rev":"3.16-4","proto_major":3,"proto_minor":11}
2017-12-01 14:23:32 1512156212.807334: {"class":"DEVICES","devices":[{"class":"DEVICE","path":"/dev/ttyUSB0","driver":"SiRF","subtype":"9\u0006GSD4e_4.1.2-P1_RPATCH.05-F-GPS-4R-1510281 11/03/2015 307","activated":"2017-12-01T19:23:32.492Z","flags":1,"native":1,"bps":4800,"parity":"N","stopbits":1,"cycle":1.00}]}
2017-12-01 14:23:32 1512156212.807452: {"class":"WATCH","enable":true,"json":false,"nmea":true,"raw":0,"scaled":false,"timing":false,"split24":false,"pps":false}
2017-12-01 14:23:33 1512156213.356279: $GPZDA,192334.00,01,12,2017,00,00*6E
2017-12-01 14:23:33 1512156213.356436: $GPGGA,192334,3946.9580,N,08404.9866,W,2,12,0.80,310.04,M,-33.324,M,,*7D
2017-12-01 14:23:33 1512156213.356503: $GPRMC,192334,A,3946.9580,N,08404.9866,W,0.0000,0.000,011217,,*30
2017-12-01 14:23:33 1512156213.356564: $GPGSA,A,3,10,12,14,15,18,21,24,27,32,8,20,138,2.0,0.8,1.5*37
2017-12-01 14:23:34 1512156214.689991: $GPGSV,3,1,12,10,69,331,49,12,09,108,24,14,29,253,40,15,11,066,33*75
2017-12-01 14:23:34 1512156214.690189: $GPGSV,3,2,12,18,70,093,45,21,29,178,45,24,45,058,48,27,06,259,30*71
2017-12-01 14:23:34 1512156214.690257: $GPGSV,3,3,12,32,46,265,44,08,06,294,26,20,09,118,24,138,38,213,46*4B
2017-12-01 14:23:34 1512156214.803623: $GPZDA,192335.00,01,12,2017,00,00*6F
2017-12-01 14:23:34 1512156214.803811: $GPGGA,192335,3946.9580,N,08404.9866,W,2,12,0.80,310.04,M,-33.324,M,,*7C
2017-12-01 14:23:34 1512156214.803878: $GPRMC,192335,A,3946.9580,N,08404.9866,W,0.0000,0.000,011217,,*31
2017-12-01 14:23:34 1512156214.803956: $GPGSA,A,3,10,12,14,15,18,21,24,27,32,8,20,138,2.0,0.8,1.5*37
2017-12-01 14:23:35 1512156215.357733: $GPZDA,192336.00,01,12,2017,00,00*6C
2017-12-01 14:23:35 1512156215.357973: $GPGGA,192336,3946.9580,N,08404.9866,W,2,12,0.80,310.04,M,-33.324,M,,*7F
2017-12-01 14:23:35 1512156215.358060: $GPRMC,192336,A,3946.9580,N,08404.9866,W,0.0000,0.000,011217,,*32
2017-12-01 14:23:35 1512156215.358125: $GPGSA,A,3,10,12,14,15,18,21,24,27,32,8,20,138,2.0,0.8,1.5*37
2017-12-01 14:23:36 1512156216.390375: $GPZDA,192337.00,01,12,2017,00,00*6D
2017-12-01 14:23:36 1512156216.390554: $GPGGA,192337,3946.9580,N,08404.9866,W,2,12,0.80,310.04,M,-33.324,M,,*7E
2017-12-01 14:23:36 1512156216.390622: $GPRMC,192337,A,3946.9580,N,08404.9866,W,0.0000,0.000,011217,,*33
2017-12-01 14:23:36 1512156216.390684: $GPGSA,A,3,10,12,14,15,18,21,24,27,32,8,20,138,2.0,0.8,1.5*37
2017-12-01 14:23:37 1512156217.725892: $GPGSV,3,1,12,10,69,331,49,12,09,108,25,14,29,253,40,15,11,066,32*75
2017-12-01 14:23:37 1512156217.726087: $GPGSV,3,2,12,18,70,093,45,21,29,178,45,24,45,058,48,27,06,259,30*71
2017-12-01 14:23:37 1512156217.726154: $GPGSV,3,3,12,32,46,265,45,08,06,294,07,20,09,118,25,138,38,213,47*49
2017-12-01 14:23:37 1512156217.839251: $GPZDA,192338.00,01,12,2017,00,00*62
2017-12-01 14:23:37 1512156217.839429: $GPGGA,192338,3946.9580,N,08404.9866,W,2,12,1.00,310.04,M,-33.324,M,,*78
2017-12-01 14:23:37 1512156217.839494: $GPRMC,192338,A,3946.9580,N,08404.9866,W,0.0000,0.000,011217,,*3C
2017-12-01 14:23:37 1512156217.839555: $GPGSA,A,3,10,12,14,15,18,21,24,27,32,8,20,138,2.0,1.0,1.5*3E
2017-12-01 14:23:38 1512156218.385293: $GPZDA,192339.00,01,12,2017,00,00*63
2017-12-01 14:23:38 1512156218.385454: $GPGGA,192339,3946.9580,N,08404.9866,W,2,12,0.80,310.04,M,-33.324,M,,*70
2017-12-01 14:23:38 1512156218.385521: $GPRMC,192339,A,3946.9580,N,08404.9866,W,0.0000,0.000,011217,,*3D
2017-12-01 14:23:38 1512156218.385581: $GPGSA,A,3,10,12,14,15,18,21,24,27,32,8,20,138,2.0,0.8,1.5*37
2017-12-01 14:23:39 1512156219.389248: $GPZDA,192340.00,01,12,2017,00,00*6D
2017-12-01 14:23:39 1512156219.389425: $GPGGA,192340,3946.9580,N,08404.9866,W,2,12,1.00,310.04,M,-33.324,M,,*77
2017-12-01 14:23:39 1512156219.389492: $GPRMC,192340,A,3946.9580,N,08404.9866,W,0.0000,0.000,011217,,*33
2017-12-01 14:23:39 1512156219.389553: $GPGSA,A,3,10,12,14,15,18,21,24,27,32,8,20,138,2.0,1.0,1.5*3E
2017-12-01 14:23:40 1512156220.691340: $GPGSV,3,1,12,10,69,331,49,12,09,108,26,14,29,253,40,15,11,066,32*76
2017-12-01 14:23:40 1512156220.691619: $GPGSV,3,2,12,18,70,093,44,21,29,178,45,24,45,058,48,27,06,259,27*76
2017-12-01 14:23:40 1512156220.691688: $GPGSV,3,3,12,32,46,265,45,08,06,294,19,20,09,118,24,138,38,213,47*47
2017-12-01 14:23:40 1512156220.804608: $GPZDA,192341.00,01,12,2017,00,00*6C
2017-12-01 14:23:40 1512156220.804805: $GPGGA,192341,3946.9580,N,08404.9866,W,2,12,0.80,310.04,M,-33.324,M,,*7F
2017-12-01 14:23:40 1512156220.804875: $GPRMC,192341,A,3946.9580,N,08404.9866,W,0.0000,0.000,011217,,*32
2017-12-01 14:23:40 1512156220.804955: $GPGSA,A,3,10,12,14,15,18,21,24,27,32,8,20,138,2.0,0.8,1.5*37
2017-12-01 14:23:41 1512156221.387243: $GPZDA,192342.00,01,12,2017,00,00*6F
2017-12-01 14:23:41 1512156221.387413: $GPGGA,192342,3946.9580,N,08404.9866,W,2,12,1.00,310.04,M,-33.324,M,,*75
2017-12-01 14:23:41 1512156221.387480: $GPRMC,192342,A,3946.9580,N,08404.9866,W,0.0000,0.000,011217,,*31
2017-12-01 14:23:41 1512156221.387541: $GPGSA,A,3,10,12,14,15,18,21,24,27,32,8,20,138,2.0,1.0,1.5*3E
2017-12-01 14:23:42 1512156222.355309: $GPZDA,192343.00,01,12,2017,00,00*6E
2017-12-01 14:23:42 1512156222.355554: $GPGGA,192343,3946.9580,N,08404.9866,W,2,12,1.00,310.04,M,-33.324,M,,*74
2017-12-01 14:23:42 1512156222.355625: $GPRMC,192343,A,3946.9580,N,08404.9866,W,0.0000,0.000,011217,,*30
2017-12-01 14:23:42 1512156222.355686: $GPGSA,A,3,10,12,14,15,18,21,24,27,32,8,20,138,2.0,1.0,1.5*3E
2017-12-01 14:23:43 1512156223.725866: $GPGSV,3,1,12,10,69,331,49,12,09,108,26,14,29,253,40,15,11,066,32*76
2017-12-01 14:23:43 1512156223.726067: $GPGSV,3,2,12,18,70,093,44,21,29,178,45,24,45,058,48,27,06,259,27*76
2017-12-01 14:23:43 1512156223.726136: $GPGSV,3,3,12,32,46,265,45,08,06,294,19,20,09,118,24,138,38,213,46*46
2017-12-01 14:23:43 1512156223.839504: $GPZDA,192344.00,01,12,2017,00,00*69
2017-12-01 14:23:43 1512156223.839672: $GPGGA,192344,3946.9580,N,08404.9866,W,2,12,0.80,310.04,M,-33.324,M,,*7A
2017-12-01 14:23:43 1512156223.839737: $GPRMC,192344,A,3946.9580,N,08404.9866,W,0.0000,0.000,011217,,*37
2017-12-01 14:23:43 1512156223.839822: $GPGSA,A,3,10,12,14,15,18,21,24,27,32,8,20,138,2.0,0.8,1.5*37
2017-12-01 14:23:44 1512156224.464616: $GPZDA,192345.00,01,12,2017,00,00*68
2017-12-01 14:23:44 1512156224.464822: $GPGGA,192345,3946.9580,N,08404.9866,W,2,12,0.80,310.04,M,-33.324,M,,*7B
2017-12-01 14:23:44 1512156224.464918: $GPRMC,192345,A,3946.9580,N,08404.9866,W,0.0000,0.000,011217,,*36
2017-12-01 14:23:44 1512156224.464981: $GPGSA,A,3,10,12,14,15,18,21,24,27,32,8,20,138,2.0,0.8,1.5*37
2017-12-01 14:23:45 1512156225.355502: $GPZDA,192346.00,01,12,2017,00,00*6B
2017-12-01 14:23:45 1512156225.355680: $GPGGA,192346,3946.9580,N,08404.9866,W,2,12,0.80,310.04,M,-33.324,M,,*78
2017-12-01 14:23:45 1512156225.355747: $GPRMC,192346,A,3946.9580,N,08404.9866,W,0.0000,0.000,011217,,*35
2017-12-01 14:23:45 1512156225.355836: $GPGSA,A,3,10,12,14,15,18,21,24,27,32,8,20,138,2.0,0.8,1.5*37
2017-12-01 14:23:46 1512156226.692486: $GPGSV,3,1,12,10,69,331,49,12,09,108,27,14,29,253,40,15,11,066,32*77
2017-12-01 14:23:46 1512156226.692647: $GPGSV,3,2,12,18,70,093,44,21,29,178,45,24,45,058,48,27,06,259,28*79
2017-12-01 14:23:46 1512156226.692713: $GPGSV,3,3,12,32,46,265,44,08,06,294,22,20,09,118,25,138,38,213,47*4F
2017-12-01 14:23:46 1512156226.805833: $GPZDA,192347.00,01,12,2017,00,00*6A
2017-12-01 14:23:46 1512156226.806031: $GPGGA,192347,3946.9580,N,08404.9866,W,2,12,0.80,310.04,M,-33.324,M,,*79
2017-12-01 14:23:46 1512156226.806099: $GPRMC,192347,A,3946.9580,N,08404.9866,W,0.0000,0.000,011217,,*34
2017-12-01 14:23:46 1512156226.806160: $GPGSA,A,3,10,12,14,15,18,21,24,27,32,8,20,138,2.0,0.8,1.5*37
2017-12-01 14:23:47 1512156227.355470: $GPZDA,192348.00,01,12,2017,00,00*65
2017-12-01 14:23:47 1512156227.357087: $GPGGA,192348,3946.9580,N,08404.9866,W,2,12,0.80,310.04,M,-33.324,M,,*76
2017-12-01 14:23:47 1512156227.357187: $GPRMC,192348,A,3946.9580,N,08404.9866,W,0.0000,0.000,011217,,*3B
2017-12-01 14:23:47 1512156227.357251: $GPGSA,A,3,10,12,14,15,18,21,24,27,32,8,20,138,2.0,0.8,1.5*37
2017-12-01 14:23:48 1512156228.381387: $GPZDA,192349.00,01,12,2017,00,00*64
2017-12-01 14:23:48 1512156228.381569: $GPGGA,192349,3946.9580,N,08404.9866,W,2,12,0.80,310.04,M,-33.324,M,,*77
2017-12-01 14:23:48 1512156228.381639: $GPRMC,192349,A,3946.9580,N,08404.9866,W,0.0000,0.000,011217,,*3A
2017-12-01 14:23:48 1512156228.381700: $GPGSA,A,3,10,12,14,15,18,21,24,27,32,8,20,138,2.0,0.8,1.5*37
2017-12-01 14:23:49 1512156229.726601: $GPGSV,3,1,12,10,69,331,49,12,09,108,27,14,29,253,40,15,11,066,32*77
2017-12-01 14:23:49 1512156229.726804: $GPGSV,3,2,12,18,70,093,44,21,29,178,45,24,45,058,49,27,06,259,28*78
2017-12-01 14:23:49 1512156229.726871: $GPGSV,3,3,12,32,46,265,44,08,06,294,30,20,09,118,18,138,38,213,47*42
2017-12-01 14:23:49 1512156229.839991: $GPZDA,192350.00,01,12,2017,00,00*6C
2017-12-01 14:23:49 1512156229.840169: $GPGGA,192350,3946.9580,N,08404.9866,W,2,12,0.80,310.04,M,-33.324,M,,*7F
2017-12-01 14:23:49 1512156229.840237: $GPRMC,192350,A,3946.9580,N,08404.9866,W,0.0000,0.000,011217,,*32
2017-12-01 14:23:49 1512156229.840298: $GPGSA,A,3,10,12,14,15,18,21,24,27,32,8,20,138,2.0,0.8,1.5*37
2017-12-01 14:23:50 1512156230.354604: $GPZDA,192351.00,01,12,2017,00,00*6D
2017-12-01 14:23:50 1512156230.354799: $GPGGA,192351,3946.9577,N,08404.9867,W,2,12,0.80,310.81,M,-33.324,M,,*7A
2017-12-01 14:23:50 1512156230.354865: $GPRMC,192351,A,3946.9577,N,08404.9867,W,0.0000,0.000,011217,,*3A
2017-12-01 14:23:50 1512156230.354944: $GPGSA,A,3,10,12,14,15,18,21,24,27,32,8,20,138,2.0,0.8,1.5*37
2017-12-01 14:23:51 1512156231.390488: $GPZDA,192352.00,01,12,2017,00,00*6E
2017-12-01 14:23:51 1512156231.390680: $GPGGA,192352,3946.9577,N,08404.9867,W,2,12,0.80,310.81,M,-33.324,M,,*79
2017-12-01 14:23:51 1512156231.390765: $GPRMC,192352,A,3946.9577,N,08404.9867,W,0.0000,0.000,011217,,*39
2017-12-01 14:23:51 1512156231.390827: $GPGSA,A,3,10,12,14,15,18,21,24,27,32,8,20,138,2.0,0.8,1.5*37
2017-12-01 14:23:52 1512156232.692472: $GPGSV,3,1,12,10,69,331,49,12,09,108,26,14,29,253,40,15,11,066,32*76
2017-12-01 14:23:52 1512156232.692624: $GPGSV,3,2,12,18,70,093,44,21,29,178,45,24,45,058,49,27,06,259,28*78
2017-12-01 14:23:52 1512156232.692689: $GPGSV,3,3,12,32,46,265,45,08,06,294,25,20,09,118,20,138,38,213,46*4D
2017-12-01 14:23:52 1512156232.806147: $GPZDA,192353.00,01,12,2017,00,00*6F
2017-12-01 14:23:52 1512156232.806328: $GPGGA,192353,3946.9577,N,08404.9867,W,2,12,0.80,310.81,M,-33.324,M,,*78
2017-12-01 14:23:52 1512156232.806397: $GPRMC,192353,A,3946.9577,N,08404.9867,W,0.0000,0.000,011217,,*38
2017-12-01 14:23:52 1512156232.806460: $GPGSA,A,3,10,12,14,15,18,21,24,27,32,8,20,138,2.0,0.8,1.5*37
