2017-12-01 12:24:07 1512149047.516532: {"class":"VERSION","release":"3.16","rev":"3.16-4","proto_major":3,"proto_minor":11}
2017-12-01 12:24:07 1512149047.516951: {"class":"DEVICES","devices":[{"class":"DEVICE","path":"/dev/ttyUSB0","driver":"SiRF","subtype":"9\u0006GSD4e_4.1.2-P1_RPATCH.05-F-GPS-4R-1510281 11/03/2015 307","activated":"2017-12-01T17:24:07.231Z","flags":1,"native":1,"bps":4800,"parity":"N","stopbits":1,"cycle":1.00}]}
2017-12-01 12:24:07 1512149047.517079: {"class":"WATCH","enable":true,"json":false,"nmea":true,"raw":0,"scaled":false,"timing":false,"split24":false,"pps":false}
2017-12-01 12:24:07 1512149047.681160: $GPGSV,3,1,12,10,25,285,40,13,26,045,44,15,58,051,46,18,56,303,45*76
2017-12-01 12:24:07 1512149047.681341: $GPGSV,3,2,12,20,49,075,45,21,79,252,42,24,36,136,47,27,17,310,36*79
2017-12-01 12:24:07 1512149047.681470: $GPGSV,3,3,12,32,03,226,30,29,07,189,27,05,02,090,20,138,38,213,46*4B
2017-12-01 12:24:07 1512149047.794554: $GPZDA,172408.00,01,12,2017,00,00*68
2017-12-01 12:24:07 1512149047.794739: $GPGGA,172408,3946.9567,N,08404.9841,W,2,12,0.80,301.98,M,-33.324,M,,*72
2017-12-01 12:24:07 1512149047.794809: $GPRMC,172408,A,3946.9567,N,08404.9841,W,0.0000,0.000,011217,,*3A
2017-12-01 12:24:07 1512149047.794871: $GPGSA,A,3,10,13,15,18,20,21,24,27,32,29,5,138,2.0,0.8,1.5*35
2017-12-01 12:24:08 1512149048.419932: $GPZDA,172409.00,01,12,2017,00,00*69
2017-12-01 12:24:08 1512149048.420106: $GPGGA,172409,3946.9567,N,08404.9841,W,2,12,0.80,301.98,M,-33.324,M,,*73
2017-12-01 12:24:08 1512149048.420173: $GPRMC,172409,A,3946.9567,N,08404.9841,W,0.0000,0.000,011217,,*3B
2017-12-01 12:24:08 1512149048.420234: $GPGSA,A,3,10,13,15,18,20,21,24,27,32,29,5,138,2.0,0.8,1.5*35
2017-12-01 12:24:09 1512149049.332125: $GPZDA,172410.00,01,12,2017,00,00*61
2017-12-01 12:24:09 1512149049.332310: $GPGGA,172410,3946.9567,N,08404.9841,W,2,12,0.80,301.98,M,-33.324,M,,*7B
2017-12-01 12:24:09 1512149049.332377: $GPRMC,172410,A,3946.9567,N,08404.9841,W,0.0000,0.000,011217,,*33
2017-12-01 12:24:09 1512149049.332439: $GPGSA,A,3,10,13,15,18,20,21,24,27,32,29,5,138,2.0,0.8,1.5*35
2017-12-01 12:24:10 1512149050.685324: $GPGSV,3,1,12,10,25,285,40,13,26,045,44,15,58,051,46,18,56,303,45*76
2017-12-01 12:24:10 1512149050.685484: $GPGSV,3,2,12,20,49,075,45,21,79,252,42,24,36,136,47,27,17,310,36*79
2017-12-01 12:24:10 1512149050.685551: $GPGSV,3,3,12,32,03,226,30,29,07,189,27,05,02,090,20,138,38,213,45*48
2017-12-01 12:24:10 1512149050.798667: $GPZDA,172411.00,01,12,2017,00,00*60
2017-12-01 12:24:10 1512149050.798841: $GPGGA,172411,3946.9567,N,08404.9841,W,2,12,0.80,301.98,M,-33.324,M,,*7A
2017-12-01 12:24:10 1512149050.798908: $GPRMC,172411,A,3946.9567,N,08404.9841,W,0.0000,0.000,011217,,*32
2017-12-01 12:24:10 1512149050.798968: $GPGSA,A,3,10,13,15,18,20,21,24,27,32,29,5,138,2.0,0.8,1.5*35
2017-12-01 12:24:11 1512149051.349508: $GPZDA,172412.00,01,12,2017,00,00*63
2017-12-01 12:24:11 1512149051.349683: $GPGGA,172412,3946.9567,N,08404.9841,W,2,12,0.80,301.98,M,-33.324,M,,*79
2017-12-01 12:24:11 1512149051.349749: $GPRMC,172412,A,3946.9567,N,08404.9841,W,0.0000,0.000,011217,,*31
2017-12-01 12:24:11 1512149051.349811: $GPGSA,A,3,10,13,15,18,20,21,24,27,32,29,5,138,2.0,0.8,1.5*35
2017-12-01 12:24:12 1512149052.332896: $GPZDA,172413.00,01,12,2017,00,00*62
2017-12-01 12:24:12 1512149052.333076: $GPGGA,172413,3946.9567,N,08404.9841,W,2,12,0.80,301.98,M,-33.324,M,,*78
2017-12-01 12:24:12 1512149052.333146: $GPRMC,172413,A,3946.9567,N,08404.9841,W,0.0000,0.000,011217,,*30
2017-12-01 12:24:12 1512149052.333206: $GPGSA,A,3,10,13,15,18,20,21,24,27,32,29,5,138,2.0,0.8,1.5*35
2017-12-01 12:24:13 1512149053.664372: $GPGSV,3,1,12,10,25,285,40,13,26,045,44,15,58,051,46,18,56,303,45*76
2017-12-01 12:24:13 1512149053.664574: $GPGSV,3,2,12,20,49,075,45,21,79,252,42,24,36,136,48,27,17,310,36*76
2017-12-01 12:24:13 1512149053.664644: $GPGSV,3,3,12,32,03,226,30,29,07,189,17,05,02,090,20,138,38,213,45*4B
2017-12-01 12:24:13 1512149053.777752: $GPZDA,172414.00,01,12,2017,00,00*65
2017-12-01 12:24:13 1512149053.777933: $GPGGA,172414,3946.9567,N,08404.9841,W,2,12,0.80,301.98,M,-33.324,M,,*7F
2017-12-01 12:24:13 1512149053.778054: $GPRMC,172414,A,3946.9567,N,08404.9841,W,0.0000,0.000,011217,,*37
2017-12-01 12:24:13 1512149053.778116: $GPGSA,A,3,10,13,15,18,20,21,24,27,32,29,5,138,2.0,0.8,1.5*35
2017-12-01 12:24:14 1512149054.332447: $GPZDA,172415.00,01,12,2017,00,00*64
2017-12-01 12:24:14 1512149054.332643: $GPGGA,172415,3946.9567,N,08404.9841,W,2,12,0.80,301.98,M,-33.324,M,,*7E
2017-12-01 12:24:14 1512149054.332732: $GPRMC,172415,A,3946.9567,N,08404.9841,W,0.0000,0.000,011217,,*36
2017-12-01 12:24:14 1512149054.332796: $GPGSA,A,3,10,13,15,18,20,21,24,27,32,29,5,138,2.0,0.8,1.5*35
2017-12-01 12:24:15 1512149055.333669: $GPZDA,172416.00,01,12,2017,00,00*67
2017-12-01 12:24:15 1512149055.333841: $GPGGA,172416,3946.9568,N,08404.9848,W,2,12,0.80,301.90,M,-33.324,M,,*73
2017-12-01 12:24:15 1512149055.333908: $GPRMC,172416,A,3946.9568,N,08404.9848,W,0.0000,0.000,011217,,*33
2017-12-01 12:24:15 1512149055.333969: $GPGSA,A,3,10,13,15,18,20,21,24,27,32,29,5,138,2.0,0.8,1.5*35
2017-12-01 12:24:16 1512149056.668973: $GPGSV,3,1,12,10,25,285,39,13,26,045,44,15,58,051,46,18,56,303,45*78
2017-12-01 12:24:16 1512149056.669156: $GPGSV,3,2,12,20,49,075,46,21,79,252,42,24,36,136,48,27,17,310,37*74
2017-12-01 12:24:16 1512149056.669222: $GPGSV,3,3,12,32,03,226,30,29,07,189,26,05,02,090,20,138,38,213,46*4A
2017-12-01 12:24:16 1512149056.782724: $GPZDA,172417.00,01,12,2017,00,00*66
2017-12-01 12:24:16 1512149056.782899: $GPGGA,172417,3946.9568,N,08404.9848,W,2,12,0.80,301.90,M,-33.324,M,,*72
2017-12-01 12:24:16 1512149056.782966: $GPRMC,172417,A,3946.9568,N,08404.9848,W,0.0000,0.000,011217,,*32
2017-12-01 12:24:16 1512149056.783027: $GPGSA,A,3,10,13,15,18,20,21,24,27,32,29,5,138,2.0,0.8,1.5*35
2017-12-01 12:24:17 1512149057.332036: $GPZDA,172418.00,01,12,2017,00,00*69
2017-12-01 12:24:17 1512149057.332207: $GPGGA,172418,3946.9568,N,08404.9848,W,2,12,0.80,301.90,M,-33.324,M,,*7D
2017-12-01 12:24:17 1512149057.332273: $GPRMC,172418,A,3946.9568,N,08404.9848,W,0.0000,0.000,011217,,*3D
2017-12-01 12:24:17 1512149057.332335: $GPGSA,A,3,10,13,15,18,20,21,24,27,32,29,5,138,2.0,0.8,1.5*35
