2017-12-01 13:47:31 1512154051.696787: {"class":"VERSION","release":"3.16","rev":"3.16-4","proto_major":3,"proto_minor":11}
2017-12-01 13:47:31 1512154051.697235: {"class":"DEVICES","devices":[{"class":"DEVICE","path":"/dev/ttyUSB0","driver":"SiRF","subtype":"9\u0006GSD4e_4.1.2-P1_RPATCH.05-F-GPS-4R-1510281 11/03/2015 307","activated":"2017-12-01T18:47:31.551Z","flags":1,"native":1,"bps":4800,"parity":"N","stopbits":1,"cycle":1.00}]}
2017-12-01 13:47:31 1512154051.697358: {"class":"WATCH","enable":true,"json":false,"nmea":true,"raw":0,"scaled":false,"timing":false,"split24":false,"pps":false}
2017-12-01 13:47:32 1512154052.771167: $GPGSV,3,1,11,08,08,309,27,10,55,313,48,14,16,241,39,15,24,058,47*7B
2017-12-01 13:47:32 1512154052.771397: $GPGSV,3,2,11,18,77,034,43,20,21,108,47,21,46,181,44,24,53,082,48*75
2017-12-01 13:47:32 1512154052.771475: $GPGSV,3,3,11,27,14,274,36,32,34,250,44,138,38,213,46*7F
2017-12-01 13:47:32 1512154052.884584: $GPZDA,184733.00,01,12,2017,00,00*6A
2017-12-01 13:47:32 1512154052.884758: $GPGGA,184733,3946.9577,N,08404.9852,W,2,11,0.80,296.72,M,-33.324,M,,*7B
2017-12-01 13:47:32 1512154052.884826: $GPRMC,184733,A,3946.9577,N,08404.9852,W,0.0000,0.000,011217,,*3B
2017-12-01 13:47:32 1512154052.884904: $GPGSA,A,3,8,10,14,15,18,20,21,24,27,32,138,,2.0,0.8,1.5*34
2017-12-01 13:47:33 1512154053.436762: $GPZDA,184734.00,01,12,2017,00,00*6D
2017-12-01 13:47:33 1512154053.436951: $GPGGA,184734,3946.9577,N,08404.9852,W,2,11,0.80,296.72,M,-33.324,M,,*7C
2017-12-01 13:47:33 1512154053.437019: $GPRMC,184734,A,3946.9577,N,08404.9852,W,0.0000,0.000,011217,,*3C
2017-12-01 13:47:33 1512154053.437079: $GPGSA,A,3,8,10,14,15,18,20,21,24,27,32,138,,2.0,0.8,1.5*34
2017-12-01 13:47:34 1512154054.411453: $GPZDA,184735.00,01,12,2017,00,00*6C
2017-12-01 13:47:34 1512154054.411630: $GPGGA,184735,3946.9577,N,08404.9852,W,2,11,0.80,296.72,M,-33.324,M,,*7D
2017-12-01 13:47:34 1512154054.411717: $GPRMC,184735,A,3946.9577,N,08404.9852,W,0.0000,0.000,011217,,*3D
2017-12-01 13:47:34 1512154054.411781: $GPGSA,A,3,8,10,14,15,18,20,21,24,27,32,138,,2.0,0.8,1.5*34
2017-12-01 13:47:35 1512154055.770887: $GPGSV,3,1,11,08,08,309,28,10,55,313,48,14,16,241,39,15,24,058,47*74
2017-12-01 13:47:35 1512154055.771065: $GPGSV,3,2,11,18,77,034,43,20,21,108,47,21,46,181,44,24,53,082,47*7A
2017-12-01 13:47:35 1512154055.771132: $GPGSV,3,3,11,27,14,274,35,32,34,250,44,138,38,213,46*7C
2017-12-01 13:47:35 1512154055.884474: $GPZDA,184736.00,01,12,2017,00,00*6F
2017-12-01 13:47:35 1512154055.884642: $GPGGA,184736,3946.9577,N,08404.9852,W,2,11,0.80,296.72,M,-33.324,M,,*7E
2017-12-01 13:47:35 1512154055.884731: $GPRMC,184736,A,3946.9577,N,08404.9852,W,0.0000,0.000,011217,,*3E
2017-12-01 13:47:35 1512154055.884794: $GPGSA,A,3,8,10,14,15,18,20,21,24,27,32,138,,2.0,0.8,1.5*34
2017-12-01 13:47:36 1512154056.509813: $GPZDA,184737.00,01,12,2017,00,00*6E
2017-12-01 13:47:36 1512154056.510002: $GPGGA,184737,3946.9577,N,08404.9852,W,2,11,0.80,296.72,M,-33.324,M,,*7F
2017-12-01 13:47:36 1512154056.510069: $GPRMC,184737,A,3946.9577,N,08404.9852,W,0.0000,0.000,011217,,*3F
2017-12-01 13:47:36 1512154056.510130: $GPGSA,A,3,8,10,14,15,18,20,21,24,27,32,138,,2.0,0.8,1.5*34
2017-12-01 13:47:37 1512154057.439204: $GPZDA,184738.00,01,12,2017,00,00*61
2017-12-01 13:47:37 1512154057.439364: $GPGGA,184738,3946.9577,N,08404.9852,W,2,11,0.80,296.72,M,-33.324,M,,*70
2017-12-01 13:47:37 1512154057.439431: $GPRMC,184738,A,3946.9577,N,08404.9852,W,0.0000,0.000,011217,,*30
2017-12-01 13:47:37 1512154057.439492: $GPGSA,A,3,8,10,14,15,18,20,21,24,27,32,138,,2.0,0.8,1.5*34
2017-12-01 13:47:38 1512154058.776142: $GPGSV,3,1,11,08,08,309,32,10,55,313,48,14,16,241,38,15,24,058,47*7E
2017-12-01 13:47:38 1512154058.776322: $GPGSV,3,2,11,18,77,034,43,20,21,108,47,21,46,181,44,24,53,082,48*75
2017-12-01 13:47:38 1512154058.776388: $GPGSV,3,3,11,27,14,274,35,32,34,250,44,138,38,213,46*7C
2017-12-01 13:47:38 1512154058.888239: $GPZDA,184739.00,01,12,2017,00,00*60
2017-12-01 13:47:38 1512154058.888389: $GPGGA,184739,3946.9577,N,08404.9852,W,2,11,0.80,296.72,M,-33.324,M,,*71
2017-12-01 13:47:38 1512154058.888507: $GPRMC,184739,A,3946.9577,N,08404.9852,W,0.0000,0.000,011217,,*31
2017-12-01 13:47:38 1512154058.888569: $GPGSA,A,3,8,10,14,15,18,20,21,24,27,32,138,,2.0,0.8,1.5*34
2017-12-01 13:47:39 1512154059.412904: $GPZDA,184740.00,01,12,2017,00,00*6E
2017-12-01 13:47:39 1512154059.413080: $GPGGA,184740,3946.9577,N,08404.9852,W,2,11,0.80,296.72,M,-33.324,M,,*7F
2017-12-01 13:47:39 1512154059.413148: $GPRMC,184740,A,3946.9577,N,08404.9852,W,0.0000,0.000,011217,,*3F
2017-12-01 13:47:39 1512154059.413209: $GPGSA,A,3,8,10,14,15,18,20,21,24,27,32,138,,2.0,0.8,1.5*34
2017-12-01 13:47:40 1512154060.412849: $GPZDA,184741.00,01,12,2017,00,00*6F
2017-12-01 13:47:40 1512154060.413018: $GPGGA,184741,3946.9577,N,08404.9852,W,2,11,0.80,296.72,M,-33.324,M,,*7E
2017-12-01 13:47:40 1512154060.413086: $GPRMC,184741,A,3946.9577,N,08404.9852,W,0.0000,0.000,011217,,*3E
2017-12-01 13:47:40 1512154060.413147: $GPGSA,A,3,8,10,14,15,18,20,21,24,27,32,138,,2.0,0.8,1.5*34
