2017-12-01 16:36:04 1512164164.847089: {"class":"VERSION","release":"3.16","rev":"3.16-4","proto_major":3,"proto_minor":11}
2017-12-01 16:36:04 1512164164.847529: {"class":"DEVICES","devices":[{"class":"DEVICE","path":"/dev/ttyUSB0","driver":"SiRF","subtype":"9\u0006GSD4e_4.1.2-P1_RPATCH.05-F-GPS-4R-1510281 11/03/2015 307","activated":"2017-12-01T21:36:04.575Z","flags":1,"native":1,"bps":4800,"parity":"N","stopbits":1,"cycle":1.00}]}
2017-12-01 16:36:04 1512164164.847684: {"class":"WATCH","enable":true,"json":false,"nmea":true,"raw":0,"scaled":false,"timing":false,"split24":false,"pps":false}
2017-12-01 16:36:05 1512164165.763376: $GPGSV,3,1,12,01,22,298,41,10,45,148,44,14,67,333,45,22,21,312,45*76
2017-12-01 16:36:05 1512164165.763608: $GPGSV,3,2,12,26,04,183,31,31,58,228,50,32,68,034,48,11,08,280,33*77
2017-12-01 16:36:05 1512164165.763678: $GPGSV,3,3,12,12,21,048,14,18,16,144,00,25,40,087,33,138,38,213,34*46
2017-12-01 16:36:05 1512164165.876690: $GPZDA,213606.00,01,12,2017,00,00*60
2017-12-01 16:36:05 1512164165.876842: $GPGGA,213606,3946.9636,N,08404.9758,W,2,11,1.00,302.37,M,-33.324,M,,*76
2017-12-01 16:36:05 1512164165.876909: $GPRMC,213606,A,3946.9636,N,08404.9758,W,0.0000,0.000,011217,,*32
2017-12-01 16:36:05 1512164165.876970: $GPGSA,A,3,1,10,14,22,26,31,32,11,12,25,138,,2.0,1.0,1.5*39
2017-12-01 16:36:06 1512164166.543096: $GPZDA,213607.00,01,12,2017,00,00*61
2017-12-01 16:36:06 1512164166.543268: $GPGGA,213607,3946.9636,N,08404.9758,W,2,11,1.00,302.37,M,-33.324,M,,*77
2017-12-01 16:36:06 1512164166.543335: $GPRMC,213607,A,3946.9636,N,08404.9758,W,0.0000,0.000,011217,,*33
2017-12-01 16:36:06 1512164166.543397: $GPGSA,A,3,1,10,14,22,26,31,32,11,12,25,138,,2.0,1.0,1.5*39
2017-12-01 16:36:06 1512164166.543476: $GPGBS,213607,2.67,M,3.86,M,8.82,M*33
2017-12-01 16:36:07 1512164167.446911: $GPZDA,213608.00,01,12,2017,00,00*6E
2017-12-01 16:36:07 1512164167.447080: $GPGGA,213608,3946.9636,N,08404.9758,W,2,11,1.00,302.37,M,-33.324,M,,*78
2017-12-01 16:36:07 1512164167.447150: $GPRMC,213608,A,3946.9636,N,08404.9758,W,0.0000,0.000,011217,,*3C
2017-12-01 16:36:07 1512164167.447211: $GPGSA,A,3,1,10,14,22,26,31,32,11,12,25,138,,2.0,1.0,1.5*39
2017-12-01 16:36:07 1512164167.447270: $GPGBS,213608,2.67,M,3.86,M,8.82,M*3C
2017-12-01 16:36:08 1512164168.786536: $GPGSV,3,1,12,01,22,298,41,10,45,148,44,14,67,333,45,22,21,312,45*76
2017-12-01 16:36:08 1512164168.786733: $GPGSV,3,2,12,26,04,183,32,31,58,228,50,32,68,034,48,11,08,280,32*75
2017-12-01 16:36:08 1512164168.786800: $GPGSV,3,3,12,12,21,048,24,18,16,144,21,25,40,087,33,138,38,213,38*4A
2017-12-01 16:36:08 1512164168.900199: $GPZDA,213609.00,01,12,2017,00,00*6F
2017-12-01 16:36:08 1512164168.900367: $GPGGA,213609,3946.9636,N,08404.9758,W,2,12,0.80,302.37,M,-33.324,M,,*73
2017-12-01 16:36:08 1512164168.900454: $GPRMC,213609,A,3946.9636,N,08404.9758,W,0.0000,0.000,011217,,*3D
2017-12-01 16:36:08 1512164168.900518: $GPGSA,A,3,1,10,14,22,26,31,32,11,12,18,25,138,2.0,0.8,1.5*39
2017-12-01 16:36:09 1512164169.449454: $GPZDA,213610.00,01,12,2017,00,00*67
2017-12-01 16:36:09 1512164169.449650: $GPGGA,213610,3946.9636,N,08404.9758,W,2,12,0.80,302.37,M,-33.324,M,,*7B
2017-12-01 16:36:09 1512164169.449718: $GPRMC,213610,A,3946.9636,N,08404.9758,W,0.0000,0.000,011217,,*35
2017-12-01 16:36:09 1512164169.449780: $GPGSA,A,3,1,10,14,22,26,31,32,11,12,18,25,138,2.0,0.8,1.5*39
2017-12-01 16:36:10 1512164170.450464: $GPZDA,213611.00,01,12,2017,00,00*66
2017-12-01 16:36:10 1512164170.450649: $GPGGA,213611,3946.9636,N,08404.9758,W,2,12,0.80,302.37,M,-33.324,M,,*7A
2017-12-01 16:36:10 1512164170.450717: $GPRMC,213611,A,3946.9636,N,08404.9758,W,0.0000,0.000,011217,,*34
2017-12-01 16:36:10 1512164170.450778: $GPGSA,A,3,1,10,14,22,26,31,32,11,12,18,25,138,2.0,0.8,1.5*39
2017-12-01 16:36:11 1512164171.769772: $GPGSV,3,1,12,01,22,298,41,10,45,148,44,14,67,333,45,22,21,312,44*77
2017-12-01 16:36:11 1512164171.769957: $GPGSV,3,2,12,26,04,183,32,31,58,228,50,32,68,034,48,11,08,280,32*75
2017-12-01 16:36:11 1512164171.770024: $GPGSV,3,3,12,12,21,048,25,18,16,144,21,25,40,087,33,138,38,213,40*44
2017-12-01 16:36:11 1512164171.883469: $GPZDA,213612.00,01,12,2017,00,00*65
2017-12-01 16:36:11 1512164171.883657: $GPGGA,213612,3946.9636,N,08404.9758,W,2,12,0.80,302.37,M,-33.324,M,,*79
2017-12-01 16:36:11 1512164171.883724: $GPRMC,213612,A,3946.9636,N,08404.9758,W,0.0000,0.000,011217,,*37
2017-12-01 16:36:11 1512164171.883785: $GPGSA,A,3,1,10,14,22,26,31,32,11,12,18,25,138,2.0,0.8,1.5*39
2017-12-01 16:36:12 1512164172.508779: $GPZDA,213613.00,01,12,2017,00,00*64
2017-12-01 16:36:12 1512164172.508948: $GPGGA,213613,3946.9636,N,08404.9758,W,2,12,0.80,302.37,M,-33.324,M,,*78
2017-12-01 16:36:12 1512164172.509015: $GPRMC,213613,A,3946.9636,N,08404.9758,W,0.0000,0.000,011217,,*36
2017-12-01 16:36:12 1512164172.509076: $GPGSA,A,3,1,10,14,22,26,31,32,11,12,18,25,138,2.0,0.8,1.5*39
2017-12-01 16:36:13 1512164173.433394: $GPZDA,213614.00,01,12,2017,00,00*63
2017-12-01 16:36:13 1512164173.433602: $GPGGA,213614,3946.9636,N,08404.9758,W,2,12,0.80,302.37,M,-33.324,M,,*7F
2017-12-01 16:36:13 1512164173.433672: $GPRMC,213614,A,3946.9636,N,08404.9758,W,0.0000,0.000,011217,,*31
2017-12-01 16:36:13 1512164173.433750: $GPGSA,A,3,1,10,14,22,26,31,32,11,12,18,25,138,2.0,0.8,1.5*39
2017-12-01 16:36:14 1512164174.763892: $GPGSV,3,1,12,01,22,298,41,10,45,148,44,14,67,333,44,22,21,312,44*76
2017-12-01 16:36:14 1512164174.764056: $GPGSV,3,2,12,26,04,183,32,31,58,228,50,32,68,034,48,11,08,280,30*77
2017-12-01 16:36:14 1512164174.764123: $GPGSV,3,3,12,12,21,048,26,18,16,144,21,25,40,087,33,138,38,213,40*47
2017-12-01 16:36:14 1512164174.877575: $GPZDA,213615.00,01,12,2017,00,00*62
2017-12-01 16:36:14 1512164174.877743: $GPGGA,213615,3946.9636,N,08404.9758,W,2,12,0.80,302.37,M,-33.324,M,,*7E
2017-12-01 16:36:14 1512164174.877810: $GPRMC,213615,A,3946.9636,N,08404.9758,W,0.0000,0.000,011217,,*30
2017-12-01 16:36:14 1512164174.877872: $GPGSA,A,3,1,10,14,22,26,31,32,11,12,18,25,138,2.0,0.8,1.5*39
2017-12-01 16:36:15 1512164175.436098: $GPZDA,213616.00,01,12,2017,00,00*61
2017-12-01 16:36:15 1512164175.436281: $GPGGA,213616,3946.9636,N,08404.9758,W,2,12,0.80,302.37,M,-33.324,M,,*7D
2017-12-01 16:36:15 1512164175.436348: $GPRMC,213616,A,3946.9636,N,08404.9758,W,0.0000,0.000,011217,,*33
2017-12-01 16:36:15 1512164175.436432: $GPGSA,A,3,1,10,14,22,26,31,32,11,12,18,25,138,2.0,0.8,1.5*39
2017-12-01 16:36:16 1512164176.434041: $GPZDA,213617.00,01,12,2017,00,00*60
2017-12-01 16:36:16 1512164176.434240: $GPGGA,213617,3946.9636,N,08404.9758,W,2,12,0.80,302.37,M,-33.324,M,,*7C
2017-12-01 16:36:16 1512164176.434308: $GPRMC,213617,A,3946.9636,N,08404.9758,W,0.0000,0.000,011217,,*32
2017-12-01 16:36:16 1512164176.434371: $GPGSA,A,3,1,10,14,22,26,31,32,11,12,18,25,138,2.0,0.8,1.5*39
2017-12-01 16:36:17 1512164177.769259: $GPGSV,3,1,12,01,22,298,41,10,45,148,43,14,67,333,44,22,21,312,45*70
2017-12-01 16:36:17 1512164177.769462: $GPGSV,3,2,12,26,04,183,33,31,58,228,50,32,68,034,48,11,08,280,31*77
2017-12-01 16:36:17 1512164177.769531: $GPGSV,3,3,12,12,21,048,26,18,16,144,21,25,40,087,32,138,38,213,38*49
2017-12-01 16:36:17 1512164177.882647: $GPZDA,213618.00,01,12,2017,00,00*6F
2017-12-01 16:36:17 1512164177.882803: $GPGGA,213618,3946.9636,N,08404.9758,W,2,12,0.80,302.37,M,-33.324,M,,*73
2017-12-01 16:36:17 1512164177.882870: $GPRMC,213618,A,3946.9636,N,08404.9758,W,0.0000,0.000,011217,,*3D
2017-12-01 16:36:17 1512164177.882932: $GPGSA,A,3,1,10,14,22,26,31,32,11,12,18,25,138,2.0,0.8,1.5*39
2017-12-01 16:36:18 1512164178.428507: $GPZDA,213619.00,01,12,2017,00,00*6E
2017-12-01 16:36:18 1512164178.428703: $GPGGA,213619,3946.9636,N,08404.9758,W,2,12,0.80,302.37,M,-33.324,M,,*72
2017-12-01 16:36:18 1512164178.428771: $GPRMC,213619,A,3946.9636,N,08404.9758,W,0.0000,0.000,011217,,*3C
2017-12-01 16:36:18 1512164178.428833: $GPGSA,A,3,1,10,14,22,26,31,32,11,12,18,25,138,2.0,0.8,1.5*39
2017-12-01 16:36:19 1512164179.434640: $GPZDA,213620.00,01,12,2017,00,00*64
2017-12-01 16:36:19 1512164179.434803: $GPGGA,213620,3946.9636,N,08404.9758,W,2,12,0.80,302.37,M,-33.324,M,,*78
2017-12-01 16:36:19 1512164179.434870: $GPRMC,213620,A,3946.9636,N,08404.9758,W,0.0000,0.000,011217,,*36
2017-12-01 16:36:19 1512164179.434976: $GPGSA,A,3,1,10,14,22,26,31,32,11,12,18,25,138,2.0,0.8,1.5*39
2017-12-01 16:36:20 1512164180.763962: $GPGSV,3,1,12,01,22,298,40,10,45,148,43,14,67,333,44,22,21,312,45*71
2017-12-01 16:36:20 1512164180.764128: $GPGSV,3,2,12,26,04,183,33,31,58,228,50,32,68,034,48,11,08,280,31*77
2017-12-01 16:36:20 1512164180.764196: $GPGSV,3,3,12,12,21,048,26,18,16,144,21,25,40,087,32,138,38,213,39*48
2017-12-01 16:36:20 1512164180.877917: $GPZDA,213621.00,01,12,2017,00,00*65
2017-12-01 16:36:20 1512164180.878084: $GPGGA,213621,3946.9636,N,08404.9758,W,2,12,0.80,302.37,M,-33.324,M,,*79
2017-12-01 16:36:20 1512164180.878163: $GPRMC,213621,A,3946.9636,N,08404.9758,W,0.0000,0.000,011217,,*37
2017-12-01 16:36:20 1512164180.878225: $GPGSA,A,3,1,10,14,22,26,31,32,11,12,18,25,138,2.0,0.8,1.5*39
2017-12-01 16:36:21 1512164181.433143: $GPZDA,213622.00,01,12,2017,00,00*66
2017-12-01 16:36:21 1512164181.433322: $GPGGA,213622,3946.9636,N,08404.9758,W,2,12,0.80,302.37,M,-33.324,M,,*7A
2017-12-01 16:36:21 1512164181.433413: $GPRMC,213622,A,3946.9636,N,08404.9758,W,0.0000,0.000,011217,,*34
2017-12-01 16:36:21 1512164181.433477: $GPGSA,A,3,1,10,14,22,26,31,32,11,12,18,25,138,2.0,0.8,1.5*39
2017-12-01 16:36:22 1512164182.432490: $GPZDA,213623.00,01,12,2017,00,00*67
2017-12-01 16:36:22 1512164182.432677: $GPGGA,213623,3946.9636,N,08404.9758,W,2,12,0.80,302.37,M,-33.324,M,,*7B
2017-12-01 16:36:22 1512164182.432744: $GPRMC,213623,A,3946.9636,N,08404.9758,W,0.0000,0.000,011217,,*35
2017-12-01 16:36:22 1512164182.432805: $GPGSA,A,3,1,10,14,22,26,31,32,11,12,18,25,138,2.0,0.8,1.5*39
2017-12-01 16:36:23 1512164183.768040: $GPGSV,3,1,12,01,22,298,40,10,45,148,43,14,67,333,44,22,21,312,45*71
2017-12-01 16:36:23 1512164183.768222: $GPGSV,3,2,12,26,04,183,33,31,58,228,50,32,68,034,48,11,08,280,31*77
2017-12-01 16:36:23 1512164183.768290: $GPGSV,3,3,12,12,21,048,26,18,16,144,00,25,40,087,32,138,38,213,41*44
2017-12-01 16:36:23 1512164183.881781: $GPZDA,213624.00,01,12,2017,00,00*60
2017-12-01 16:36:23 1512164183.881947: $GPGGA,213624,3946.9636,N,08404.9758,W,2,11,1.00,302.37,M,-33.324,M,,*76
2017-12-01 16:36:23 1512164183.882014: $GPRMC,213624,A,3946.9636,N,08404.9758,W,0.0000,0.000,011217,,*32
2017-12-01 16:36:23 1512164183.882075: $GPGSA,A,3,1,10,14,22,26,31,32,11,12,25,138,,2.0,1.0,1.5*39
2017-12-01 16:36:24 1512164184.439724: $GPZDA,213625.00,01,12,2017,00,00*61
2017-12-01 16:36:24 1512164184.439900: $GPGGA,213625,3946.9636,N,08404.9758,W,2,11,1.00,302.37,M,-33.324,M,,*77
2017-12-01 16:36:24 1512164184.439969: $GPRMC,213625,A,3946.9636,N,08404.9758,W,0.0000,0.000,011217,,*33
2017-12-01 16:36:24 1512164184.440031: $GPGSA,A,3,1,10,14,22,26,31,32,11,12,25,138,,2.0,1.0,1.5*39
