2018-01-11 20:13:29 1515719609.325536: {"class":"VERSION","release":"3.16","rev":"3.16-4","proto_major":3,"proto_minor":11}
2018-01-11 20:13:29 1515719609.325933: {"class":"DEVICES","devices":[{"class":"DEVICE","path":"/dev/ttyUSB0","driver":"SiRF","subtype":"9\u0006GSD4e_4.1.2-P1_RPATCH.05-F-GPS-4R-1510281 11/03/2015 307","activated":"2018-01-12T01:13:29.278Z","flags":1,"native":1,"bps":4800,"parity":"N","stopbits":1,"cycle":1.00}]}
2018-01-11 20:13:29 1515719609.326051: {"class":"WATCH","enable":true,"json":false,"nmea":true,"raw":0,"scaled":false,"timing":false,"split24":false,"pps":false}
2018-01-11 20:13:29 1515719609.391907: $GPZDA,011330.00,12,01,2018,00,00*6F
2018-01-11 20:13:29 1515719609.392083: $GPGGA,011330,3946.9575,N,08404.9841,W,2,10,0.80,301.85,M,-33.324,M,,*77
2018-01-11 20:13:29 1515719609.392151: $GPRMC,011330,A,3946.9575,N,08404.9841,W,0.0000,0.000,120118,,*3E
2018-01-11 20:13:29 1515719609.392214: $GPGSA,A,3,7,8,9,11,16,23,27,28,30,138,,,4.0,0.8,3.5*3E
2018-01-11 20:13:30 1515719610.896101: $GPZDA,011331.00,12,01,2018,00,00*6E
2018-01-11 20:13:30 1515719610.896266: $GPGGA,011331,3946.9575,N,08404.9834,W,2,10,0.80,301.93,M,-33.324,M,,*73
2018-01-11 20:13:30 1515719610.896332: $GPRMC,011331,A,3946.9575,N,08404.9834,W,0.0000,0.000,120118,,*3D
2018-01-11 20:13:30 1515719610.896394: $GPGSA,A,3,7,8,9,11,16,23,27,28,30,138,,,4.0,0.8,3.5*3E
2018-01-11 20:13:31 1515719611.727759: $GPGSV,3,1,10,07,57,315,41,08,74,127,46,09,47,228,42,11,21,166,46*74
2018-01-11 20:13:31 1515719611.727927: $GPGSV,3,2,10,16,22,061,45,23,28,189,48,27,46,052,50,28,15,259,40*7E
2018-01-11 20:13:31 1515719611.727997: $GPGSV,3,3,10,30,30,306,36,138,38,213,45*48
2018-01-11 20:13:31 1515719611.841381: $GPZDA,011332.00,12,01,2018,00,00*6D
2018-01-11 20:13:31 1515719611.841521: $GPGGA,011332,3946.9575,N,08404.9834,W,2,10,0.80,301.93,M,-33.324,M,,*70
2018-01-11 20:13:31 1515719611.841587: $GPRMC,011332,A,3946.9575,N,08404.9834,W,0.0000,0.000,120118,,*3E
2018-01-11 20:13:31 1515719611.841648: $GPGSA,A,3,7,8,9,11,16,23,27,28,30,138,,,4.0,0.8,3.5*3E
2018-01-11 20:13:32 1515719612.392273: $GPZDA,011333.00,12,01,2018,00,00*6C
2018-01-11 20:13:32 1515719612.392442: $GPGGA,011333,3946.9575,N,08404.9834,W,2,10,0.80,301.93,M,-33.324,M,,*71
2018-01-11 20:13:32 1515719612.392509: $GPRMC,011333,A,3946.9575,N,08404.9834,W,0.0000,0.000,120118,,*3F
2018-01-11 20:13:32 1515719612.392570: $GPGSA,A,3,7,8,9,11,16,23,27,28,30,138,,,4.0,0.8,3.5*3E
2018-01-11 20:13:33 1515719613.393157: $GPZDA,011334.00,12,01,2018,00,00*6B
2018-01-11 20:13:33 1515719613.393357: $GPGGA,011334,3946.9575,N,08404.9834,W,2,10,0.80,301.93,M,-33.324,M,,*76
2018-01-11 20:13:33 1515719613.393430: $GPRMC,011334,A,3946.9575,N,08404.9834,W,0.0000,0.000,120118,,*38
2018-01-11 20:13:33 1515719613.393494: $GPGSA,A,3,7,8,9,11,16,23,27,28,30,138,,,4.0,0.8,3.5*3E
2018-01-11 20:13:34 1515719614.728603: $GPGSV,3,1,10,07,57,315,42,08,74,127,46,09,47,228,42,11,21,166,46*77
2018-01-11 20:13:34 1515719614.728771: $GPGSV,3,2,10,16,22,061,45,23,28,189,48,27,46,052,50,28,15,259,41*7F
2018-01-11 20:13:34 1515719614.728843: $GPGSV,3,3,10,30,30,306,37,138,38,213,44*48
2018-01-11 20:13:34 1515719614.842216: $GPZDA,011335.00,12,01,2018,00,00*6A
2018-01-11 20:13:34 1515719614.842369: $GPGGA,011335,3946.9575,N,08404.9834,W,2,10,0.80,301.93,M,-33.324,M,,*77
2018-01-11 20:13:34 1515719614.842438: $GPRMC,011335,A,3946.9575,N,08404.9834,W,0.0000,0.000,120118,,*39
2018-01-11 20:13:34 1515719614.842502: $GPGSA,A,3,7,8,9,11,16,23,27,28,30,138,,,4.0,0.8,3.5*3E
2018-01-11 20:13:35 1515719615.467621: $GPZDA,011336.00,12,01,2018,00,00*69
2018-01-11 20:13:35 1515719615.467798: $GPGGA,011336,3946.9575,N,08404.9834,W,2,10,0.80,301.93,M,-33.324,M,,*74
2018-01-11 20:13:35 1515719615.467867: $GPRMC,011336,A,3946.9575,N,08404.9834,W,0.0000,0.000,120118,,*3A
2018-01-11 20:13:35 1515719615.467934: $GPGSA,A,3,7,8,9,11,16,23,27,28,30,138,,,4.0,0.8,3.5*3E
2018-01-11 20:13:36 1515719616.394726: $GPZDA,011337.00,12,01,2018,00,00*68
2018-01-11 20:13:36 1515719616.394918: $GPGGA,011337,3946.9575,N,08404.9834,W,2,10,0.80,301.93,M,-33.324,M,,*75
2018-01-11 20:13:36 1515719616.395052: $GPRMC,011337,A,3946.9575,N,08404.9834,W,0.0000,0.000,120118,,*3B
2018-01-11 20:13:36 1515719616.395115: $GPGSA,A,3,7,8,9,11,16,23,27,28,30,138,,,4.0,0.8,3.5*3E
2018-01-11 20:13:37 1515719617.730251: $GPGSV,3,1,10,07,57,315,42,08,74,127,46,09,47,228,42,11,21,166,46*77
2018-01-11 20:13:37 1515719617.730416: $GPGSV,3,2,10,16,22,061,45,23,28,189,48,27,46,052,50,28,15,259,40*7E
2018-01-11 20:13:37 1515719617.730482: $GPGSV,3,3,10,30,30,306,37,138,38,213,45*49
2018-01-11 20:13:37 1515719617.844014: $GPZDA,011338.00,12,01,2018,00,00*67
2018-01-11 20:13:37 1515719617.844164: $GPGGA,011338,3946.9575,N,08404.9834,W,2,10,0.80,301.93,M,-33.324,M,,*7A
2018-01-11 20:13:37 1515719617.844230: $GPRMC,011338,A,3946.9575,N,08404.9834,W,0.0000,0.000,120118,,*34
2018-01-11 20:13:37 1515719617.844292: $GPGSA,A,3,7,8,9,11,16,23,27,28,30,138,,,4.0,0.8,3.5*3E
2018-01-11 20:13:38 1515719618.394851: $GPZDA,011339.00,12,01,2018,00,00*66
2018-01-11 20:13:38 1515719618.395050: $GPGGA,011339,3946.9575,N,08404.9834,W,2,10,0.80,301.93,M,-33.324,M,,*7B
2018-01-11 20:13:38 1515719618.395119: $GPRMC,011339,A,3946.9575,N,08404.9834,W,0.0000,0.000,120118,,*35
2018-01-11 20:13:38 1515719618.395182: $GPGSA,A,3,7,8,9,11,16,23,27,28,30,138,,,4.0,0.8,3.5*3E
2018-01-11 20:13:39 1515719619.395324: $GPZDA,011340.00,12,01,2018,00,00*68
2018-01-11 20:13:39 1515719619.395520: $GPGGA,011340,3946.9575,N,08404.9834,W,2,10,0.80,301.93,M,-33.324,M,,*75
2018-01-11 20:13:39 1515719619.395590: $GPRMC,011340,A,3946.9575,N,08404.9834,W,0.0000,0.000,120118,,*3B
2018-01-11 20:13:39 1515719619.395655: $GPGSA,A,3,7,8,9,11,16,23,27,28,30,138,,,4.0,0.8,3.5*3E
2018-01-11 20:13:40 1515719620.729360: $GPGSV,3,1,10,07,57,315,42,08,74,127,46,09,47,228,42,11,21,166,46*77
2018-01-11 20:13:40 1515719620.729550: $GPGSV,3,2,10,16,22,061,46,23,28,189,48,27,46,052,50,28,15,259,40*7D
2018-01-11 20:13:40 1515719620.729620: $GPGSV,3,3,10,30,30,306,37,138,38,213,45*49
2018-01-11 20:13:40 1515719620.842939: $GPZDA,011341.00,12,01,2018,00,00*69
2018-01-11 20:13:40 1515719620.843069: $GPGGA,011341,3946.9575,N,08404.9834,W,2,10,0.80,301.93,M,-33.324,M,,*74
2018-01-11 20:13:40 1515719620.843136: $GPRMC,011341,A,3946.9575,N,08404.9834,W,0.0000,0.000,120118,,*3A
2018-01-11 20:13:40 1515719620.843199: $GPGSA,A,3,7,8,9,11,16,23,27,28,30,138,,,4.0,0.8,3.5*3E
