2017-12-01 17:39:43 1512167983.343834: {"class":"VERSION","release":"3.16","rev":"3.16-4","proto_major":3,"proto_minor":11}
2017-12-01 17:39:43 1512167983.344220: {"class":"DEVICES","devices":[{"class":"DEVICE","path":"/dev/ttyUSB0","driver":"SiRF","subtype":"9\u0006GSD4e_4.1.2-P1_RPATCH.05-F-GPS-4R-1510281 11/03/2015 307","activated":"2017-12-01T22:39:43.281Z","flags":1,"native":1,"bps":4800,"parity":"N","stopbits":1,"cycle":1.00}]}
2017-12-01 17:39:43 1512167983.344444: {"class":"WATCH","enable":true,"json":false,"nmea":true,"raw":0,"scaled":false,"timing":false,"split24":false,"pps":false}
2017-12-01 17:39:43 1512167983.459850: $GPZDA,223944.00,01,12,2017,00,00*6A
2017-12-01 17:39:43 1512167983.460019: $GPGGA,223944,3946.9725,N,08404.9838,W,2,12,0.80,294.99,M,-33.325,M,,*77
2017-12-01 17:39:43 1512167983.460086: $GPRMC,223944,A,3946.9725,N,08404.9838,W,0.0000,0.000,011217,,*32
2017-12-01 17:39:43 1512167983.460147: $GPGSA,A,3,1,3,10,14,22,25,26,31,32,12,16,138,2.0,0.8,1.5*04
2017-12-01 17:39:44 1512167984.777828: $GPGSV,3,1,12,01,16,270,44,03,25,313,45,10,16,157,42,14,67,054,42*7F
2017-12-01 17:39:44 1512167984.778022: $GPGSV,3,2,12,22,43,298,48,25,33,052,41,26,32,177,44,31,80,316,46*7E
2017-12-01 17:39:44 1512167984.778090: $GPGSV,3,3,12,32,51,087,46,12,03,030,27,16,04,190,22,138,38,213,46*4C
2017-12-01 17:39:44 1512167984.891452: $GPZDA,223945.00,01,12,2017,00,00*6B
2017-12-01 17:39:44 1512167984.891595: $GPGGA,223945,3946.9725,N,08404.9838,W,2,12,0.80,294.99,M,-33.325,M,,*76
2017-12-01 17:39:44 1512167984.891661: $GPRMC,223945,A,3946.9725,N,08404.9838,W,0.0000,0.000,011217,,*33
2017-12-01 17:39:44 1512167984.891722: $GPGSA,A,3,1,3,10,14,22,25,26,31,32,12,16,138,2.0,0.8,1.5*04
2017-12-01 17:39:45 1512167985.516758: $GPZDA,223946.00,01,12,2017,00,00*68
2017-12-01 17:39:45 1512167985.516920: $GPGGA,223946,3946.9725,N,08404.9838,W,2,12,0.80,294.99,M,-33.325,M,,*75
2017-12-01 17:39:45 1512167985.516988: $GPRMC,223946,A,3946.9725,N,08404.9838,W,0.0000,0.000,011217,,*30
2017-12-01 17:39:45 1512167985.517050: $GPGSA,A,3,1,3,10,14,22,25,26,31,32,12,16,138,2.0,0.8,1.5*04
2017-12-01 17:39:46 1512167986.466232: $GPZDA,223947.00,01,12,2017,00,00*69
2017-12-01 17:39:46 1512167986.466409: $GPGGA,223947,3946.9725,N,08404.9838,W,2,12,0.80,294.99,M,-33.325,M,,*74
2017-12-01 17:39:46 1512167986.466476: $GPRMC,223947,A,3946.9725,N,08404.9838,W,0.0000,0.000,011217,,*31
2017-12-01 17:39:46 1512167986.466536: $GPGSA,A,3,1,3,10,14,22,25,26,31,32,12,16,138,2.0,0.8,1.5*04
2017-12-01 17:39:47 1512167987.801919: $GPGSV,3,1,12,01,16,270,44,03,25,313,46,10,16,157,43,14,67,054,42*7D
2017-12-01 17:39:47 1512167987.802097: $GPGSV,3,2,12,22,43,298,48,25,33,052,40,26,32,177,43,31,80,316,46*78
2017-12-01 17:39:47 1512167987.802165: $GPGSV,3,3,12,32,51,087,45,12,03,030,27,16,04,190,22,138,38,213,46*4F
2017-12-01 17:39:47 1512167987.915185: $GPZDA,223948.00,01,12,2017,00,00*66
2017-12-01 17:39:47 1512167987.915369: $GPGGA,223948,3946.9725,N,08404.9838,W,2,12,0.80,294.99,M,-33.325,M,,*7B
2017-12-01 17:39:47 1512167987.915458: $GPRMC,223948,A,3946.9725,N,08404.9838,W,0.0000,0.000,011217,,*3E
2017-12-01 17:39:47 1512167987.915520: $GPGSA,A,3,1,3,10,14,22,25,26,31,32,12,16,138,2.0,0.8,1.5*04
2017-12-01 17:39:48 1512167988.459845: $GPZDA,223949.00,01,12,2017,00,00*67
2017-12-01 17:39:48 1512167988.460031: $GPGGA,223949,3946.9725,N,08404.9838,W,2,12,0.80,294.99,M,-33.325,M,,*7A
2017-12-01 17:39:48 1512167988.460119: $GPRMC,223949,A,3946.9725,N,08404.9838,W,0.0000,0.000,011217,,*3F
2017-12-01 17:39:48 1512167988.460183: $GPGSA,A,3,1,3,10,14,22,25,26,31,32,12,16,138,2.0,0.8,1.5*04
2017-12-01 17:39:49 1512167989.968422: $GPZDA,223950.00,01,12,2017,00,00*6F
2017-12-01 17:39:49 1512167989.968597: $GPGGA,223950,3946.9723,N,08404.9846,W,2,12,0.80,297.08,M,-33.325,M,,*76
2017-12-01 17:39:49 1512167989.968665: $GPRMC,223950,A,3946.9723,N,08404.9846,W,0.0000,0.000,011217,,*38
2017-12-01 17:39:49 1512167989.968725: $GPGSA,A,3,1,3,10,14,22,25,26,31,32,12,16,138,2.0,0.8,1.5*04
2017-12-01 17:39:50 1512167990.929862: $GPGSV,3,1,12,01,16,268,44,03,26,313,46,10,16,157,43,14,67,055,41*75
2017-12-01 17:39:50 1512167990.930091: $GPGSV,3,2,12,22,43,297,48,25,32,051,41,26,32,177,43,31,79,319,45*7E
2017-12-01 17:39:50 1512167990.930161: $GPGSV,3,3,12,32,50,087,45,12,02,030,27,16,04,190,22,138,38,213,46*4F
2017-12-01 17:39:51 1512167991.043247: $GPZDA,223951.00,01,12,2017,00,00*6E
2017-12-01 17:39:51 1512167991.043438: $GPGGA,223951,3946.9723,N,08404.9846,W,2,12,0.80,297.08,M,-33.325,M,,*77
2017-12-01 17:39:51 1512167991.043506: $GPRMC,223951,A,3946.9723,N,08404.9846,W,0.0000,0.000,011217,,*39
2017-12-01 17:39:51 1512167991.043567: $GPGSA,A,3,1,3,10,14,22,25,26,31,32,12,16,138,2.0,0.8,1.5*04
2017-12-01 17:39:51 1512167991.497033: $GPZDA,223952.00,01,12,2017,00,00*6D
2017-12-01 17:39:51 1512167991.497362: $GPGGA,223952,3946.9723,N,08404.9846,W,2,12,0.80,297.08,M,-33.325,M,,*74
2017-12-01 17:39:51 1512167991.497491: $GPRMC,223952,A,3946.9723,N,08404.9846,W,0.0000,0.000,011217,,*3A
2017-12-01 17:39:51 1512167991.497640: $GPGSA,A,3,1,3,10,14,22,25,26,31,32,12,16,138,2.0,0.8,1.5*04
2017-12-01 17:39:52 1512167992.442463: $GPZDA,223953.00,01,12,2017,00,00*6C
2017-12-01 17:39:52 1512167992.442645: $GPGGA,223953,3946.9723,N,08404.9846,W,2,12,0.80,297.08,M,-33.325,M,,*75
2017-12-01 17:39:52 1512167992.442746: $GPRMC,223953,A,3946.9723,N,08404.9846,W,0.0000,0.000,011217,,*3B
2017-12-01 17:39:52 1512167992.442810: $GPGSA,A,3,1,3,10,14,22,25,26,31,32,12,16,138,2.0,0.8,1.5*04
2017-12-01 17:39:53 1512167993.776872: $GPGSV,3,1,12,01,16,268,44,03,26,313,46,10,16,157,43,14,67,055,41*75
2017-12-01 17:39:53 1512167993.779555: $GPGSV,3,2,12,22,43,297,48,25,32,051,41,26,32,177,44,31,79,319,46*7A
2017-12-01 17:39:53 1512167993.779662: $GPGSV,3,3,12,32,50,087,45,12,02,030,27,16,04,190,23,138,38,213,46*4E
2017-12-01 17:39:53 1512167993.890680: $GPZDA,223954.00,01,12,2017,00,00*6B
2017-12-01 17:39:53 1512167993.890874: $GPGGA,223954,3946.9723,N,08404.9846,W,2,12,0.80,297.08,M,-33.325,M,,*72
2017-12-01 17:39:53 1512167993.890941: $GPRMC,223954,A,3946.9723,N,08404.9846,W,0.0000,0.000,011217,,*3C
2017-12-01 17:39:53 1512167993.891007: $GPGSA,A,3,1,3,10,14,22,25,26,31,32,12,16,138,2.0,0.8,1.5*04
2017-12-01 17:39:54 1512167994.443984: $GPZDA,223955.00,01,12,2017,00,00*6A
2017-12-01 17:39:54 1512167994.444154: $GPGGA,223955,3946.9723,N,08404.9846,W,2,12,0.80,297.08,M,-33.325,M,,*73
2017-12-01 17:39:54 1512167994.444219: $GPRMC,223955,A,3946.9723,N,08404.9846,W,0.0000,0.000,011217,,*3D
2017-12-01 17:39:54 1512167994.444280: $GPGSA,A,3,1,3,10,14,22,25,26,31,32,12,16,138,2.0,0.8,1.5*04
2017-12-01 17:39:55 1512167995.443007: $GPZDA,223956.00,01,12,2017,00,00*69
2017-12-01 17:39:55 1512167995.443182: $GPGGA,223956,3946.9723,N,08404.9846,W,2,12,0.80,297.08,M,-33.325,M,,*70
2017-12-01 17:39:55 1512167995.443248: $GPRMC,223956,A,3946.9723,N,08404.9846,W,0.0000,0.000,011217,,*3E
2017-12-01 17:39:55 1512167995.443308: $GPGSA,A,3,1,3,10,14,22,25,26,31,32,12,16,138,2.0,0.8,1.5*04
2017-12-01 17:39:56 1512167996.772345: $GPGSV,3,1,12,01,16,268,44,03,26,313,46,10,16,157,43,14,67,055,41*75
2017-12-01 17:39:56 1512167996.772523: $GPGSV,3,2,12,22,43,297,48,25,32,051,40,26,32,177,43,31,79,319,46*7C
2017-12-01 17:39:56 1512167996.772590: $GPGSV,3,3,12,32,50,087,45,12,02,030,27,16,04,190,22,138,38,213,46*4F
2017-12-01 17:39:56 1512167996.884594: $GPZDA,223957.00,01,12,2017,00,00*68
2017-12-01 17:39:56 1512167996.884766: $GPGGA,223957,3946.9723,N,08404.9846,W,2,12,0.80,297.08,M,-33.325,M,,*71
2017-12-01 17:39:56 1512167996.884834: $GPRMC,223957,A,3946.9723,N,08404.9846,W,0.0000,0.000,011217,,*3F
2017-12-01 17:39:56 1512167996.884896: $GPGSA,A,3,1,3,10,14,22,25,26,31,32,12,16,138,2.0,0.8,1.5*04
2017-12-01 17:39:57 1512167997.441728: $GPZDA,223958.00,01,12,2017,00,00*67
2017-12-01 17:39:57 1512167997.441900: $GPGGA,223958,3946.9723,N,08404.9846,W,2,12,0.80,297.08,M,-33.325,M,,*7E
2017-12-01 17:39:57 1512167997.441983: $GPRMC,223958,A,3946.9723,N,08404.9846,W,0.0000,0.000,011217,,*30
2017-12-01 17:39:57 1512167997.442046: $GPGSA,A,3,1,3,10,14,22,25,26,31,32,12,16,138,2.0,0.8,1.5*04
2017-12-01 17:39:58 1512167998.442678: $GPZDA,223959.00,01,12,2017,00,00*66
2017-12-01 17:39:58 1512167998.442850: $GPGGA,223959,3946.9723,N,08404.9846,W,2,12,0.80,297.08,M,-33.325,M,,*7F
2017-12-01 17:39:58 1512167998.442916: $GPRMC,223959,A,3946.9723,N,08404.9846,W,0.0000,0.000,011217,,*31
2017-12-01 17:39:58 1512167998.442976: $GPGSA,A,3,1,3,10,14,22,25,26,31,32,12,16,138,2.0,0.8,1.5*04
2017-12-01 17:39:59 1512167999.778102: $GPGSV,3,1,12,01,16,268,44,03,26,313,45,10,16,157,43,14,67,055,42*75
2017-12-01 17:39:59 1512167999.778280: $GPGSV,3,2,12,22,43,297,48,25,32,051,40,26,32,177,43,31,79,319,46*7C
2017-12-01 17:39:59 1512167999.778347: $GPGSV,3,3,12,32,50,087,45,12,02,030,27,16,04,190,22,138,38,213,46*4F
2017-12-01 17:39:59 1512167999.891841: $GPZDA,224000.00,01,12,2017,00,00*64
2017-12-01 17:39:59 1512167999.892013: $GPGGA,224000,3946.9723,N,08404.9846,W,2,12,0.80,297.08,M,-33.325,M,,*7D
2017-12-01 17:39:59 1512167999.892081: $GPRMC,224000,A,3946.9723,N,08404.9846,W,0.0000,0.000,011217,,*33
2017-12-01 17:39:59 1512167999.892143: $GPGSA,A,3,1,3,10,14,22,25,26,31,32,12,16,138,2.0,0.8,1.5*04
2017-12-01 17:40:00 1512168000.517087: $GPZDA,224001.00,01,12,2017,00,00*65
2017-12-01 17:40:00 1512168000.517258: $GPGGA,224001,3946.9723,N,08404.9846,W,2,12,0.80,297.08,M,-33.325,M,,*7C
2017-12-01 17:40:00 1512168000.517324: $GPRMC,224001,A,3946.9723,N,08404.9846,W,0.0000,0.000,011217,,*32
2017-12-01 17:40:00 1512168000.517385: $GPGSA,A,3,1,3,10,14,22,25,26,31,32,12,16,138,2.0,0.8,1.5*04
2017-12-01 17:40:01 1512168001.435775: $GPZDA,224002.00,01,12,2017,00,00*66
2017-12-01 17:40:01 1512168001.435942: $GPGGA,224002,3946.9723,N,08404.9846,W,2,12,0.80,297.08,M,-33.325,M,,*7F
2017-12-01 17:40:01 1512168001.436010: $GPRMC,224002,A,3946.9723,N,08404.9846,W,0.0000,0.000,011217,,*31
2017-12-01 17:40:01 1512168001.436071: $GPGSA,A,3,1,3,10,14,22,25,26,31,32,12,16,138,2.0,0.8,1.5*04
2017-12-01 17:40:02 1512168002.772131: $GPGSV,3,1,12,01,16,268,44,03,26,313,45,10,16,157,42,14,67,055,42*74
2017-12-01 17:40:02 1512168002.772288: $GPGSV,3,2,12,22,43,297,48,25,32,051,40,26,32,177,43,31,79,319,46*7C
2017-12-01 17:40:02 1512168002.772354: $GPGSV,3,3,12,32,50,087,45,12,02,030,27,16,04,190,23,138,38,213,46*4E
2017-12-01 17:40:02 1512168002.885798: $GPZDA,224003.00,01,12,2017,00,00*67
2017-12-01 17:40:02 1512168002.885971: $GPGGA,224003,3946.9723,N,08404.9846,W,2,12,0.80,297.08,M,-33.325,M,,*7E
2017-12-01 17:40:02 1512168002.886039: $GPRMC,224003,A,3946.9723,N,08404.9846,W,0.0000,0.000,011217,,*30
2017-12-01 17:40:02 1512168002.886100: $GPGSA,A,3,1,3,10,14,22,25,26,31,32,12,16,138,2.0,0.8,1.5*04
