2017-12-14 11:43:49 1513269829.331520: {"class":"VERSION","release":"3.16","rev":"3.16-4","proto_major":3,"proto_minor":11}
2017-12-14 11:43:49 1513269829.331867: {"class":"DEVICES","devices":[{"class":"DEVICE","path":"/dev/ttyUSB0","driver":"SiRF","subtype":"9\u0006GSD4e_4.1.2-P1_RPATCH.05-F-GPS-4R-1510281 11/03/2015 307","activated":"2017-12-14T16:43:49.307Z","flags":1,"native":1,"bps":4800,"parity":"N","stopbits":1,"cycle":1.00}]}
2017-12-14 11:43:49 1513269829.331980: {"class":"WATCH","enable":true,"json":false,"nmea":true,"raw":0,"scaled":false,"timing":false,"split24":false,"pps":false}
2017-12-14 11:43:50 1513269830.500287: $GPGSV,3,1,11,24,40,130,23,15,52,049,24,27,18,306,10,20,46,081,17*75
2017-12-14 11:43:50 1513269830.500461: $GPGSV,3,2,11,10,29,289,04,21,77,219,20,18,60,310,16,13,21,045,08*7C
2017-12-14 11:43:50 1513269830.500526: $GPGSV,3,3,11,32,08,229,00,29,03,187,00,135,22,240,00*7E
2017-12-14 11:43:50 1513269830.613757: $GPZDA,164351.00,14,12,2017,00,00*60
2017-12-14 11:43:50 1513269830.613942: $GPGGA,164351,3946.9474,N,08404.9343,W,1,06,2.00,341.59,M,-33.324,M,,*71
2017-12-14 11:43:50 1513269830.614008: $GPRMC,164351,A,3946.9474,N,08404.9343,W,1.8343,45.514,141217,,*04
2017-12-14 11:43:50 1513269830.614068: $GPGSA,A,3,24,15,20,21,18,13,,,,,,,6.6,2.0,6.2*3C
2017-12-14 11:43:51 1513269831.166607: $GPZDA,164352.00,14,12,2017,00,00*63
2017-12-14 11:43:51 1513269831.166774: $GPGGA,164352,3946.9481,N,08404.9343,W,1,06,2.00,341.46,M,-33.324,M,,*76
2017-12-14 11:43:51 1513269831.166839: $GPRMC,164352,A,3946.9481,N,08404.9343,W,2.3805,58.684,141217,,*0A
2017-12-14 11:43:51 1513269831.166900: $GPGSA,A,3,24,15,20,21,18,13,,,,,,,6.6,2.0,6.2*3C
2017-12-14 11:43:52 1513269832.166087: $GPZDA,164353.00,14,12,2017,00,00*62
2017-12-14 11:43:52 1513269832.166267: $GPGGA,164353,3946.9485,N,08404.9343,W,1,06,2.00,342.10,M,-33.324,M,,*73
2017-12-14 11:43:52 1513269832.166333: $GPRMC,164353,A,3946.9485,N,08404.9343,W,1.9884,62.702,141217,,*09
2017-12-14 11:43:52 1513269832.166394: $GPGSA,A,3,24,15,20,21,18,13,,,,,,,6.6,2.0,6.2*3C
2017-12-14 11:43:53 1513269833.504690: $GPGSV,3,1,11,24,40,130,24,15,52,049,24,27,18,306,12,20,46,081,17*70
2017-12-14 11:43:53 1513269833.504868: $GPGSV,3,2,11,10,29,289,07,21,77,219,20,18,60,310,17,13,21,045,08*7E
2017-12-14 11:43:53 1513269833.504933: $GPGSV,3,3,11,32,08,229,00,29,03,187,00,135,22,240,00*7E
2017-12-14 11:43:53 1513269833.618482: $GPZDA,164354.00,14,12,2017,00,00*65
2017-12-14 11:43:53 1513269833.618633: $GPGGA,164354,3946.9482,N,08404.9357,W,1,07,1.80,341.30,M,-33.324,M,,*7D
2017-12-14 11:43:53 1513269833.618698: $GPRMC,164354,A,3946.9482,N,08404.9357,W,2.1994,65.962,141217,,*08
2017-12-14 11:43:53 1513269833.618757: $GPGSA,A,3,24,15,27,20,21,18,13,,,,,,6.6,1.8,6.2*32
2017-12-14 11:43:54 1513269834.152394: $GPZDA,164355.00,14,12,2017,00,00*64
2017-12-14 11:43:54 1513269834.152783: $GPGGA,164355,3946.9486,N,08404.9364,W,1,07,1.80,341.87,M,-33.324,M,,*74
2017-12-14 11:43:54 1513269834.160062: $GPRMC,164355,A,3946.9486,N,08404.9364,W,1.8892,53.841,141217,,*05
2017-12-14 11:43:54 1513269834.160168: $GPGSA,A,3,24,15,27,20,21,18,13,,,,,,6.6,1.8,6.2*32
2017-12-14 11:43:55 1513269835.641410: $GPZDA,164356.00,14,12,2017,00,00*67
2017-12-14 11:43:55 1513269835.641568: $GPGGA,164356,3946.9491,N,08404.9371,W,1,07,1.80,342.43,M,-33.324,M,,*7E
2017-12-14 11:43:55 1513269835.641633: $GPRMC,164356,A,3946.9491,N,08404.9371,W,1.5494,42.258,141217,,*01
2017-12-14 11:43:55 1513269835.641694: $GPGSA,A,3,24,15,27,20,21,18,13,,,,,,6.6,1.8,6.2*32
2017-12-14 11:43:56 1513269836.504702: $GPGSV,3,1,11,24,41,130,24,15,52,049,24,27,19,304,13,20,45,081,16*71
2017-12-14 11:43:56 1513269836.504886: $GPGSV,3,2,11,10,30,289,06,21,77,217,20,18,61,312,18,13,21,045,07*7A
2017-12-14 11:43:56 1513269836.504952: $GPGSV,3,3,11,32,09,229,00,29,03,187,00,135,22,240,00*7F
2017-12-14 11:43:56 1513269836.618715: $GPZDA,164357.00,14,12,2017,00,00*66
2017-12-14 11:43:56 1513269836.618877: $GPGGA,164357,3946.9491,N,08404.9371,W,1,07,1.80,342.43,M,-33.324,M,,*7F
2017-12-14 11:43:56 1513269836.618943: $GPRMC,164357,A,3946.9491,N,08404.9371,W,0.8414,39.347,141217,,*07
2017-12-14 11:43:56 1513269836.619056: $GPGSA,A,3,24,15,27,20,21,18,13,,,,,,6.6,1.8,6.2*32
2017-12-14 11:43:57 1513269837.168087: $GPZDA,164358.00,14,12,2017,00,00*69
2017-12-14 11:43:57 1513269837.168270: $GPGGA,164358,3946.9494,N,08404.9370,W,1,07,1.80,341.66,M,-33.324,M,,*70
2017-12-14 11:43:57 1513269837.168340: $GPRMC,164358,A,3946.9494,N,08404.9370,W,0.5617,31.295,141217,,*06
2017-12-14 11:43:57 1513269837.168401: $GPGSA,A,3,24,15,27,20,21,18,13,,,,,,6.6,1.8,6.2*32
2017-12-14 11:43:58 1513269838.149332: $GPZDA,164359.00,14,12,2017,00,00*68
2017-12-14 11:43:58 1513269838.149508: $GPGGA,164359,3946.9495,N,08404.9377,W,1,07,1.80,341.58,M,-33.324,M,,*7A
2017-12-14 11:43:58 1513269838.149577: $GPRMC,164359,A,3946.9495,N,08404.9377,W,0.3775,329.506,141217,,*35
2017-12-14 11:43:58 1513269838.149638: $GPGSA,A,3,24,15,27,20,21,18,13,,,,,,6.6,1.8,6.2*32
2017-12-14 11:43:59 1513269839.485479: $GPGSV,3,1,11,24,41,130,24,15,52,049,24,27,19,304,11,20,45,081,16*73
2017-12-14 11:43:59 1513269839.485654: $GPGSV,3,2,11,10,30,289,07,21,77,217,19,18,61,312,18,13,21,045,00*76
2017-12-14 11:43:59 1513269839.485721: $GPGSV,3,3,11,32,09,229,00,29,03,187,00,135,22,240,00*7F
2017-12-14 11:43:59 1513269839.598856: $GPZDA,164400.00,14,12,2017,00,00*63
2017-12-14 11:43:59 1513269839.599020: $GPGGA,164400,3946.9495,N,08404.9377,W,1,06,1.80,341.58,M,-33.324,M,,*70
2017-12-14 11:43:59 1513269839.599106: $GPRMC,164400,A,3946.9495,N,08404.9377,W,0.5467,339.487,141217,,*31
2017-12-14 11:43:59 1513269839.599168: $GPGSA,A,3,24,15,27,20,21,18,,,,,,,6.6,1.8,6.2*30
2017-12-14 11:44:00 1513269840.150270: $GPZDA,164401.00,14,12,2017,00,00*62
2017-12-14 11:44:00 1513269840.150446: $GPGGA,164401,3946.9494,N,08404.9376,W,1,06,1.80,340.18,M,-33.324,M,,*74
2017-12-14 11:44:00 1513269840.150513: $GPRMC,164401,A,3946.9494,N,08404.9376,W,0.7093,26.530,141217,,*0D
2017-12-14 11:44:00 1513269840.150574: $GPGSA,A,3,24,15,27,20,21,18,,,,,,,6.6,1.8,6.2*30
2017-12-14 11:44:01 1513269841.150312: $GPZDA,164402.00,14,12,2017,00,00*61
2017-12-14 11:44:01 1513269841.150473: $GPGGA,164402,3946.9494,N,08404.9383,W,1,06,1.80,340.10,M,-33.324,M,,*75
2017-12-14 11:44:01 1513269841.150538: $GPRMC,164402,A,3946.9494,N,08404.9383,W,0.8334,42.078,141217,,*0E
2017-12-14 11:44:01 1513269841.150598: $GPGSA,A,3,24,15,27,20,21,18,,,,,,,6.6,1.8,6.2*30
2017-12-14 11:44:02 1513269842.486057: $GPGSV,3,1,11,24,41,130,24,15,52,049,24,27,19,304,13,20,45,081,16*71
2017-12-14 11:44:02 1513269842.486250: $GPGSV,3,2,11,10,30,289,07,21,77,217,19,18,61,312,18,13,21,045,00*76
2017-12-14 11:44:02 1513269842.486317: $GPGSV,3,3,11,32,09,229,00,29,03,187,00,135,22,240,00*7F
2017-12-14 11:44:02 1513269842.599865: $GPZDA,164403.00,14,12,2017,00,00*60
2017-12-14 11:44:02 1513269842.600019: $GPGGA,164403,3946.9494,N,08404.9383,W,1,07,1.80,340.10,M,-33.324,M,,*75
2017-12-14 11:44:02 1513269842.600110: $GPRMC,164403,A,3946.9494,N,08404.9383,W,1.1240,45.393,141217,,*04
2017-12-14 11:44:02 1513269842.600188: $GPGSA,A,3,24,15,27,20,10,21,18,,,,,,6.6,1.8,6.2*31
2017-12-14 11:44:03 1513269843.148314: $GPZDA,164404.00,14,12,2017,00,00*67
2017-12-14 11:44:03 1513269843.148490: $GPGGA,164404,3946.9502,N,08404.9382,W,1,07,1.80,339.97,M,-33.324,M,,*7C
2017-12-14 11:44:03 1513269843.148558: $GPRMC,164404,A,3946.9502,N,08404.9382,W,1.5545,32.064,141217,,*01
2017-12-14 11:44:03 1513269843.148618: $GPGSA,A,3,24,15,27,20,10,21,18,,,,,,6.6,1.8,6.2*31
2017-12-14 11:44:04 1513269844.149661: $GPZDA,164405.00,14,12,2017,00,00*66
2017-12-14 11:44:04 1513269844.149831: $GPGGA,164405,3946.9502,N,08404.9382,W,1,07,1.80,339.97,M,-33.324,M,,*7D
2017-12-14 11:44:04 1513269844.149897: $GPRMC,164405,A,3946.9502,N,08404.9382,W,0.9801,34.742,141217,,*05
2017-12-14 11:44:04 1513269844.149957: $GPGSA,A,3,24,15,27,20,10,21,18,,,,,,6.6,1.8,6.2*31
2017-12-14 11:44:05 1513269845.485832: $GPGSV,3,1,11,24,41,130,23,15,52,049,23,27,19,304,13,20,45,081,15*72
2017-12-14 11:44:05 1513269845.486012: $GPGSV,3,2,11,10,30,289,06,21,77,217,19,18,61,312,18,13,21,045,00*77
2017-12-14 11:44:05 1513269845.486150: $GPGSV,3,3,11,32,09,229,00,29,03,187,00,135,22,240,00*7F
2017-12-14 11:44:05 1513269845.599305: $GPZDA,164406.00,14,12,2017,00,00*65
2017-12-14 11:44:05 1513269845.599477: $GPGGA,164406,3946.9502,N,08404.9382,W,1,06,1.80,339.97,M,-33.324,M,,*7F
2017-12-14 11:44:05 1513269845.599542: $GPRMC,164406,A,3946.9502,N,08404.9382,W,0.7070,48.986,141217,,*0B
2017-12-14 11:44:05 1513269845.599603: $GPGSA,A,3,24,15,27,20,21,18,,,,,,,6.6,1.8,6.2*30
2017-12-14 11:44:06 1513269846.149487: $GPZDA,164407.00,14,12,2017,00,00*64
2017-12-14 11:44:06 1513269846.149661: $GPGGA,164407,3946.9498,N,08404.9382,W,1,06,1.80,339.33,M,-33.324,M,,*72
2017-12-14 11:44:06 1513269846.149728: $GPRMC,164407,A,3946.9498,N,08404.9382,W,0.3106,69.941,141217,,*04
2017-12-14 11:44:06 1513269846.149788: $GPGSA,A,3,24,15,27,20,21,18,,,,,,,6.6,1.8,6.2*30
2017-12-14 11:44:07 1513269847.150353: $GPZDA,164408.00,14,12,2017,00,00*6B
2017-12-14 11:44:07 1513269847.150527: $GPGGA,164408,3946.9501,N,08404.9382,W,1,06,1.80,338.57,M,-33.324,M,,*7F
2017-12-14 11:44:07 1513269847.150594: $GPRMC,164408,A,3946.9501,N,08404.9382,W,0.6100,66.301,141217,,*08
2017-12-14 11:44:07 1513269847.150655: $GPGSA,A,3,24,15,27,20,21,18,,,,,,,6.6,1.8,6.2*30
2017-12-14 11:44:08 1513269848.485202: $GPGSV,3,1,11,24,41,130,23,15,52,049,24,27,19,304,14,20,45,081,14*73
2017-12-14 11:44:08 1513269848.485413: $GPGSV,3,2,11,10,30,289,15,21,77,217,19,18,61,312,18,13,21,045,00*75
2017-12-14 11:44:08 1513269848.485480: $GPGSV,3,3,11,32,09,229,00,29,03,187,00,135,22,240,00*7F
2017-12-14 11:44:08 1513269848.598644: $GPZDA,164409.00,14,12,2017,00,00*6A
2017-12-14 11:44:08 1513269848.598818: $GPGGA,164409,3946.9497,N,08404.9382,W,1,06,1.80,337.93,M,-33.324,M,,*77
2017-12-14 11:44:08 1513269848.598883: $GPRMC,164409,A,3946.9497,N,08404.9382,W,0.6039,117.940,141217,,*34
2017-12-14 11:44:08 1513269848.598943: $GPGSA,A,3,24,15,27,20,21,18,,,,,,,6.6,1.8,6.2*30
2017-12-14 11:44:09 1513269849.151344: $GPZDA,164410.00,14,12,2017,00,00*62
2017-12-14 11:44:09 1513269849.151507: $GPGGA,164410,3946.9493,N,08404.9382,W,1,06,2.00,337.29,M,-33.324,M,,*71
2017-12-14 11:44:09 1513269849.151574: $GPRMC,164410,A,3946.9493,N,08404.9382,W,0.7108,131.360,141217,,*36
2017-12-14 11:44:09 1513269849.151635: $GPGSA,A,3,24,15,27,20,21,18,,,,,,,6.6,2.0,6.2*3B
