2017-12-01 12:26:32 1512149192.224664: {"class":"VERSION","release":"3.16","rev":"3.16-4","proto_major":3,"proto_minor":11}
2017-12-01 12:26:32 1512149192.225227: {"class":"DEVICES","devices":[{"class":"DEVICE","path":"/dev/ttyUSB0","driver":"SiRF","subtype":"9\u0006GSD4e_4.1.2-P1_RPATCH.05-F-GPS-4R-1510281 11/03/2015 307","activated":"2017-12-01T17:26:32.217Z","flags":1,"native":1,"bps":4800,"parity":"N","stopbits":1,"cycle":1.00}]}
2017-12-01 12:26:32 1512149192.225358: {"class":"WATCH","enable":true,"json":false,"nmea":true,"raw":0,"scaled":false,"timing":false,"split24":false,"pps":false}
2017-12-01 12:26:32 1512149192.330551: $GPZDA,172633.00,01,12,2017,00,00*62
2017-12-01 12:26:32 1512149192.330744: $GPGGA,172633,3946.9574,N,08404.9840,W,2,11,0.80,300.45,M,-33.324,M,,*79
2017-12-01 12:26:32 1512149192.330813: $GPRMC,172633,A,3946.9574,N,08404.9840,W,0.0000,0.000,011217,,*33
2017-12-01 12:26:32 1512149192.330877: $GPGSA,A,3,10,13,15,18,20,21,24,29,27,5,138,,2.0,0.8,1.5*34
2017-12-01 12:26:33 1512149193.334151: $GPZDA,172634.00,01,12,2017,00,00*65
2017-12-01 12:26:33 1512149193.334312: $GPGGA,172634,3946.9574,N,08404.9840,W,2,11,0.80,300.45,M,-33.324,M,,*7E
2017-12-01 12:26:33 1512149193.334381: $GPRMC,172634,A,3946.9574,N,08404.9840,W,0.0000,0.000,011217,,*34
2017-12-01 12:26:33 1512149193.334459: $GPGSA,A,3,10,13,15,18,20,21,24,29,27,5,138,,2.0,0.8,1.5*34
2017-12-01 12:26:34 1512149194.669788: $GPGSV,3,1,12,10,26,286,40,13,25,045,44,15,57,049,47,18,57,304,45*74
2017-12-01 12:26:34 1512149194.669964: $GPGSV,3,2,12,20,49,076,46,21,79,246,41,24,37,135,46,29,07,189,28*7E
2017-12-01 12:26:34 1512149194.670030: $GPGSV,3,3,12,27,17,309,36,32,04,226,25,05,01,090,18,138,38,213,46*45
2017-12-01 12:26:34 1512149194.783402: $GPZDA,172635.00,01,12,2017,00,00*64
2017-12-01 12:26:34 1512149194.783572: $GPGGA,172635,3946.9574,N,08404.9840,W,2,12,0.80,300.45,M,-33.324,M,,*7C
2017-12-01 12:26:34 1512149194.783660: $GPRMC,172635,A,3946.9574,N,08404.9840,W,0.0000,0.000,011217,,*35
2017-12-01 12:26:34 1512149194.783728: $GPGSA,A,3,10,13,15,18,20,21,24,29,27,32,5,138,2.0,0.8,1.5*35
2017-12-01 12:26:35 1512149195.409111: $GPZDA,172636.00,01,12,2017,00,00*67
2017-12-01 12:26:35 1512149195.409285: $GPGGA,172636,3946.9574,N,08404.9840,W,2,12,0.80,300.45,M,-33.324,M,,*7F
2017-12-01 12:26:35 1512149195.409353: $GPRMC,172636,A,3946.9574,N,08404.9840,W,0.0000,0.000,011217,,*36
2017-12-01 12:26:35 1512149195.409415: $GPGSA,A,3,10,13,15,18,20,21,24,29,27,32,5,138,2.0,0.8,1.5*35
2017-12-01 12:26:36 1512149196.329660: $GPZDA,172637.00,01,12,2017,00,00*66
2017-12-01 12:26:36 1512149196.329864: $GPGGA,172637,3946.9574,N,08404.9840,W,2,12,0.80,300.45,M,-33.324,M,,*7E
2017-12-01 12:26:36 1512149196.329971: $GPRMC,172637,A,3946.9574,N,08404.9840,W,0.0000,0.000,011217,,*37
2017-12-01 12:26:36 1512149196.330038: $GPGSA,A,3,10,13,15,18,20,21,24,29,27,32,5,138,2.0,0.8,1.5*35
2017-12-01 12:26:37 1512149197.671321: $GPGSV,3,1,12,10,26,286,41,13,25,045,43,15,57,049,46,18,57,304,45*73
2017-12-01 12:26:37 1512149197.671556: $GPGSV,3,2,12,20,49,076,46,21,79,246,41,24,37,135,46,29,07,189,29*7F
2017-12-01 12:26:37 1512149197.671632: $GPGSV,3,3,12,27,17,309,36,32,04,226,25,05,01,090,17,138,38,213,46*4A
2017-12-01 12:26:37 1512149197.785120: $GPZDA,172638.00,01,12,2017,00,00*69
2017-12-01 12:26:37 1512149197.785289: $GPGGA,172638,3946.9574,N,08404.9840,W,2,12,0.80,300.45,M,-33.324,M,,*71
2017-12-01 12:26:37 1512149197.785359: $GPRMC,172638,A,3946.9574,N,08404.9840,W,0.0000,0.000,011217,,*38
2017-12-01 12:26:37 1512149197.785424: $GPGSA,A,3,10,13,15,18,20,21,24,29,27,32,5,138,2.0,0.8,1.5*35
2017-12-01 12:26:38 1512149198.334667: $GPZDA,172639.00,01,12,2017,00,00*68
2017-12-01 12:26:38 1512149198.334847: $GPGGA,172639,3946.9578,N,08404.9840,W,2,12,0.80,301.09,M,-33.324,M,,*75
2017-12-01 12:26:38 1512149198.334917: $GPRMC,172639,A,3946.9578,N,08404.9840,W,0.0000,0.000,011217,,*35
2017-12-01 12:26:38 1512149198.334983: $GPGSA,A,3,10,13,15,18,20,21,24,29,27,32,5,138,2.0,0.8,1.5*35
2017-12-01 12:26:39 1512149199.335231: $GPZDA,172640.00,01,12,2017,00,00*66
2017-12-01 12:26:39 1512149199.335459: $GPGGA,172640,3946.9578,N,08404.9840,W,2,12,0.80,301.09,M,-33.324,M,,*7B
2017-12-01 12:26:39 1512149199.335528: $GPRMC,172640,A,3946.9578,N,08404.9840,W,0.0000,0.000,011217,,*3B
2017-12-01 12:26:39 1512149199.335591: $GPGSA,A,3,10,13,15,18,20,21,24,29,27,32,5,138,2.0,0.8,1.5*35
2017-12-01 12:26:40 1512149200.671841: $GPGSV,3,1,12,10,26,286,40,13,25,045,43,15,57,049,47,18,57,304,45*73
2017-12-01 12:26:40 1512149200.672032: $GPGSV,3,2,12,20,49,076,46,21,79,246,41,24,37,135,47,29,07,189,30*76
2017-12-01 12:26:40 1512149200.672099: $GPGSV,3,3,12,27,17,309,36,32,04,226,25,05,01,090,17,138,38,213,47*4B
2017-12-01 12:26:40 1512149200.785326: $GPZDA,172641.00,01,12,2017,00,00*67
2017-12-01 12:26:40 1512149200.785496: $GPGGA,172641,3946.9578,N,08404.9840,W,2,12,0.80,301.09,M,-33.324,M,,*7A
2017-12-01 12:26:40 1512149200.785562: $GPRMC,172641,A,3946.9578,N,08404.9840,W,0.0000,0.000,011217,,*3A
2017-12-01 12:26:40 1512149200.785624: $GPGSA,A,3,10,13,15,18,20,21,24,29,27,32,5,138,2.0,0.8,1.5*35
2017-12-01 12:26:41 1512149201.334658: $GPZDA,172642.00,01,12,2017,00,00*64
2017-12-01 12:26:41 1512149201.334885: $GPGGA,172642,3946.9578,N,08404.9840,W,2,12,0.80,301.09,M,-33.324,M,,*79
2017-12-01 12:26:41 1512149201.334981: $GPRMC,172642,A,3946.9578,N,08404.9840,W,0.0000,0.000,011217,,*39
2017-12-01 12:26:41 1512149201.335049: $GPGSA,A,3,10,13,15,18,20,21,24,29,27,32,5,138,2.0,0.8,1.5*35
