2017-12-31 16:42:48 1514756568.119452: {"class":"VERSION","release":"3.16","rev":"3.16-4","proto_major":3,"proto_minor":11}
2017-12-31 16:42:48 1514756568.123156: {"class":"DEVICES","devices":[{"class":"DEVICE","path":"/dev/ttyUSB0","driver":"SiRF","activated":"2017-12-31T21:42:47.486Z","flags":1,"native":1,"bps":4800,"parity":"N","stopbits":1,"cycle":1.00}]}
2017-12-31 16:42:48 1514756568.123279: {"class":"WATCH","enable":true,"json":false,"nmea":true,"raw":0,"scaled":false,"timing":false,"split24":false,"pps":false}
2017-12-31 16:42:48 1514756568.680061: $GPGSV,3,1,12,22,49,255,43,23,19,304,41,25,11,039,35,03,45,286,35*78
2017-12-31 16:42:48 1514756568.680206: $GPGSV,3,2,12,16,34,189,47,29,13,066,29,01,01,246,00,31,58,040,51*75
2017-12-31 16:42:48 1514756568.680269: $GPGSV,3,3,12,14,49,103,47,32,27,115,40,26,64,163,41,135,22,240,43*47
2017-12-31 16:42:48 1514756568.793722: $GPZDA,214249.00,31,12,2017,00,00*6B
2017-12-31 16:42:48 1514756568.793844: $GPGGA,214249,3946.9575,N,08404.9834,W,2,11,0.80,303.34,M,-33.324,M,,*74
2017-12-31 16:42:48 1514756568.793906: $GPRMC,214249,A,3946.9575,N,08404.9834,W,0.0000,0.000,311217,,*38
2017-12-31 16:42:48 1514756568.793965: $GPGSA,A,3,22,23,25,3,16,29,31,14,32,26,135,,1.7,0.8,1.3*32
2017-12-31 16:42:49 1514756569.363420: $GPZDA,214250.00,31,12,2017,00,00*63
2017-12-31 16:42:49 1514756569.363587: $GPGGA,214250,3946.9575,N,08404.9834,W,2,11,0.80,303.34,M,-33.324,M,,*7C
2017-12-31 16:42:49 1514756569.363653: $GPRMC,214250,A,3946.9575,N,08404.9834,W,0.0000,0.000,311217,,*30
2017-12-31 16:42:49 1514756569.363713: $GPGSA,A,3,22,23,25,3,16,29,31,14,32,26,135,,1.7,0.8,1.3*32
2017-12-31 16:42:50 1514756570.345886: $GPZDA,214251.00,31,12,2017,00,00*62
2017-12-31 16:42:50 1514756570.346062: $GPGGA,214251,3946.9575,N,08404.9834,W,2,11,0.80,303.34,M,-33.324,M,,*7D
2017-12-31 16:42:50 1514756570.346129: $GPRMC,214251,A,3946.9575,N,08404.9834,W,0.0000,0.000,311217,,*31
2017-12-31 16:42:50 1514756570.346189: $GPGSA,A,3,22,23,25,3,16,29,31,14,32,26,135,,1.7,0.8,1.3*32
2017-12-31 16:42:51 1514756571.681648: $GPGSV,3,1,12,22,49,255,43,23,19,304,41,25,11,039,35,03,45,286,30*7D
2017-12-31 16:42:51 1514756571.681825: $GPGSV,3,2,12,16,34,189,48,29,13,066,29,01,01,246,00,31,58,040,51*7A
2017-12-31 16:42:51 1514756571.681890: $GPGSV,3,3,12,14,49,103,47,32,27,115,40,26,64,163,41,135,22,240,43*47
2017-12-31 16:42:51 1514756571.795065: $GPZDA,214252.00,31,12,2017,00,00*61
2017-12-31 16:42:51 1514756571.795179: $GPGGA,214252,3946.9575,N,08404.9834,W,2,11,0.80,303.34,M,-33.324,M,,*7E
2017-12-31 16:42:51 1514756571.795243: $GPRMC,214252,A,3946.9575,N,08404.9834,W,0.0000,0.000,311217,,*32
2017-12-31 16:42:51 1514756571.795304: $GPGSA,A,3,22,23,25,3,16,29,31,14,32,26,135,,1.7,0.8,1.3*32
2017-12-31 16:42:52 1514756572.362378: $GPZDA,214253.00,31,12,2017,00,00*60
2017-12-31 16:42:52 1514756572.362531: $GPGGA,214253,3946.9575,N,08404.9834,W,2,11,0.80,303.34,M,-33.324,M,,*7F
2017-12-31 16:42:52 1514756572.362596: $GPRMC,214253,A,3946.9575,N,08404.9834,W,0.0000,0.000,311217,,*33
2017-12-31 16:42:52 1514756572.362656: $GPGSA,A,3,22,23,25,3,16,29,31,14,32,26,135,,1.7,0.8,1.3*32
2017-12-31 16:42:53 1514756573.346729: $GPZDA,214254.00,31,12,2017,00,00*67
2017-12-31 16:42:53 1514756573.346928: $GPGGA,214254,3946.9575,N,08404.9834,W,2,11,0.80,303.34,M,-33.324,M,,*78
2017-12-31 16:42:53 1514756573.346997: $GPRMC,214254,A,3946.9575,N,08404.9834,W,0.0000,0.000,311217,,*34
2017-12-31 16:42:53 1514756573.347059: $GPGSA,A,3,22,23,25,3,16,29,31,14,32,26,135,,1.7,0.8,1.3*32
2017-12-31 16:42:54 1514756574.691245: $GPGSV,3,1,12,22,49,255,43,23,19,304,41,25,11,039,35,03,45,286,37*7A
2017-12-31 16:42:54 1514756574.691414: $GPGSV,3,2,12,16,34,189,48,29,13,066,29,01,01,246,00,31,58,040,51*7A
2017-12-31 16:42:54 1514756574.691479: $GPGSV,3,3,12,14,49,103,47,32,27,115,40,26,64,163,41,135,22,240,43*47
2017-12-31 16:42:54 1514756574.804838: $GPZDA,214255.00,31,12,2017,00,00*66
2017-12-31 16:42:54 1514756574.804967: $GPGGA,214255,3946.9575,N,08404.9834,W,2,11,0.80,303.34,M,-33.324,M,,*79
2017-12-31 16:42:54 1514756574.805032: $GPRMC,214255,A,3946.9575,N,08404.9834,W,0.0000,0.000,311217,,*35
2017-12-31 16:42:54 1514756574.805148: $GPGSA,A,3,22,23,25,3,16,29,31,14,32,26,135,,1.7,0.8,1.3*32
2017-12-31 16:42:55 1514756575.430238: $GPZDA,214256.00,31,12,2017,00,00*65
2017-12-31 16:42:55 1514756575.430405: $GPGGA,214256,3946.9575,N,08404.9834,W,2,11,0.80,303.34,M,-33.324,M,,*7A
2017-12-31 16:42:55 1514756575.430472: $GPRMC,214256,A,3946.9575,N,08404.9834,W,0.0000,0.000,311217,,*36
2017-12-31 16:42:55 1514756575.430533: $GPGSA,A,3,22,23,25,3,16,29,31,14,32,26,135,,1.7,0.8,1.3*32
2017-12-31 16:42:56 1514756576.357395: $GPZDA,214257.00,31,12,2017,00,00*64
2017-12-31 16:42:56 1514756576.357564: $GPGGA,214257,3946.9575,N,08404.9834,W,2,11,0.80,303.34,M,-33.324,M,,*7B
2017-12-31 16:42:56 1514756576.357630: $GPRMC,214257,A,3946.9575,N,08404.9834,W,0.0000,0.000,311217,,*37
2017-12-31 16:42:56 1514756576.357691: $GPGSA,A,3,22,23,25,3,16,29,31,14,32,26,135,,1.7,0.8,1.3*32
2017-12-31 16:42:57 1514756577.680350: $GPGSV,3,1,12,22,49,255,43,23,19,304,41,25,11,039,35,03,45,286,35*78
2017-12-31 16:42:57 1514756577.680512: $GPGSV,3,2,12,16,34,189,48,29,13,066,30,01,01,246,00,31,58,040,51*72
2017-12-31 16:42:57 1514756577.680578: $GPGSV,3,3,12,14,49,103,47,32,27,115,41,26,64,163,42,135,22,240,43*45
2017-12-31 16:42:57 1514756577.793958: $GPZDA,214258.00,31,12,2017,00,00*6B
2017-12-31 16:42:57 1514756577.794097: $GPGGA,214258,3946.9575,N,08404.9834,W,2,11,0.80,303.34,M,-33.324,M,,*74
2017-12-31 16:42:57 1514756577.794164: $GPRMC,214258,A,3946.9575,N,08404.9834,W,0.0000,0.000,311217,,*38
2017-12-31 16:42:57 1514756577.794225: $GPGSA,A,3,22,23,25,3,16,29,31,14,32,26,135,,1.7,0.8,1.3*32
