2018-01-11 19:56:12 1515718572.280419: {"class":"VERSION","release":"3.16","rev":"3.16-4","proto_major":3,"proto_minor":11}
2018-01-11 19:56:12 1515718572.281007: {"class":"DEVICES","devices":[{"class":"DEVICE","path":"/dev/ttyUSB0","driver":"SiRF","subtype":"9\u0006GSD4e_4.1.2-P1_RPATCH.05-F-GPS-4R-1510281 11/03/2015 307","activated":"2018-01-12T00:56:11.916Z","flags":1,"native":1,"bps":4800,"parity":"N","stopbits":1,"cycle":1.00}]}
2018-01-11 19:56:12 1515718572.281126: {"class":"WATCH","enable":true,"json":false,"nmea":true,"raw":0,"scaled":false,"timing":false,"split24":false,"pps":false}
2018-01-11 19:56:13 1515718573.080943: $GPZDA,005613.77,12,01,2018,00,00*6E
2018-01-11 19:56:13 1515718573.081104: $GPGGA,005613,3946.9582,N,08404.9820,W,1,10,0.80,303.37,M,-33.324,M,,*71
2018-01-11 19:56:13 1515718573.081171: $GPRMC,005613,A,3946.9582,N,08404.9820,W,0.5122,127.148,120118,,*3D
2018-01-11 19:56:13 1515718573.081232: $GPGSA,A,3,7,8,9,11,16,23,27,28,30,138,,,4.0,0.8,3.5*3E
2018-01-11 19:56:13 1515718573.081289: $GPGBS,005613,14.62,M,24.83,M,80.38,M*00
2018-01-11 19:56:14 1515718574.139944: $GPZDA,005614.26,12,01,2018,00,00*6D
2018-01-11 19:56:14 1515718574.140110: $GPGGA,005614,3946.9579,N,08404.9821,W,1,10,0.80,304.14,M,-33.324,M,,*75
2018-01-11 19:56:14 1515718574.140176: $GPRMC,005614,A,3946.9579,N,08404.9821,W,0.0814,322.014,120118,,*39
2018-01-11 19:56:14 1515718574.140236: $GPGSA,A,3,7,8,9,11,16,23,27,28,30,138,,,4.0,0.8,3.5*3E
2018-01-11 19:56:15 1515718575.258417: $GPGSV,3,1,11,07,49,312,44,08,68,148,45,09,52,238,44,11,14,169,38*7C
2018-01-11 19:56:15 1515718575.258602: $GPGSV,3,2,11,16,28,057,47,23,36,192,48,27,52,060,51,30,23,304,35*75
2018-01-11 19:56:15 1515718575.258671: $GPGSV,3,3,11,28,09,253,06,26,03,069,00,138,38,213,20*73
2018-01-11 19:56:15 1515718575.372158: $GPZDA,005615.00,12,01,2018,00,00*68
2018-01-11 19:56:15 1515718575.372329: $GPGGA,005615,3946.9583,N,08404.9821,W,1,09,0.80,304.78,M,-33.324,M,,*73
2018-01-11 19:56:15 1515718575.372396: $GPRMC,005615,A,3946.9583,N,08404.9821,W,0.0814,322.014,120118,,*3D
2018-01-11 19:56:15 1515718575.372456: $GPGSA,A,3,7,8,9,11,16,23,27,30,138,,,,4.0,0.8,3.5*34
2018-01-11 19:56:15 1515718575.824251: $GPZDA,005616.00,12,01,2018,00,00*6B
2018-01-11 19:56:15 1515718575.824408: $GPGGA,005616,3946.9583,N,08404.9821,W,1,09,0.80,304.78,M,-33.324,M,,*70
2018-01-11 19:56:15 1515718575.824474: $GPRMC,005616,A,3946.9583,N,08404.9821,W,0.2365,125.883,120118,,*32
2018-01-11 19:56:15 1515718575.824534: $GPGSA,A,3,7,8,9,11,16,23,27,30,138,,,,4.0,0.8,3.5*34
2018-01-11 19:56:16 1515718576.381374: $GPZDA,005617.00,12,01,2018,00,00*6A
2018-01-11 19:56:16 1515718576.381544: $GPGGA,005617,3946.9583,N,08404.9821,W,1,09,0.80,304.78,M,-33.324,M,,*71
2018-01-11 19:56:16 1515718576.381610: $GPRMC,005617,A,3946.9583,N,08404.9821,W,0.0000,0.000,120118,,*34
2018-01-11 19:56:16 1515718576.381670: $GPGSA,A,3,7,8,9,11,16,23,27,30,138,,,,4.0,0.8,3.5*34
2018-01-11 19:56:17 1515718577.716260: $GPGSV,3,1,11,07,49,312,44,08,68,148,46,09,52,238,44,11,14,169,38*7F
2018-01-11 19:56:17 1515718577.716429: $GPGSV,3,2,11,16,28,057,48,23,36,192,48,27,52,060,51,30,23,304,34*7B
2018-01-11 19:56:17 1515718577.716511: $GPGSV,3,3,11,28,09,253,29,26,03,069,00,138,38,213,46*7E
2018-01-11 19:56:17 1515718577.830070: $GPZDA,005618.00,12,01,2018,00,00*65
2018-01-11 19:56:17 1515718577.830212: $GPGGA,005618,3946.9583,N,08404.9821,W,1,10,0.80,304.78,M,-33.324,M,,*76
2018-01-11 19:56:17 1515718577.830278: $GPRMC,005618,A,3946.9583,N,08404.9821,W,0.0000,0.000,120118,,*3B
2018-01-11 19:56:17 1515718577.830339: $GPGSA,A,3,7,8,9,11,16,23,27,30,28,138,,,4.0,0.8,3.5*3E
2018-01-11 19:56:18 1515718578.382148: $GPZDA,005619.00,12,01,2018,00,00*64
2018-01-11 19:56:18 1515718578.382316: $GPGGA,005619,3946.9583,N,08404.9821,W,1,10,0.80,304.78,M,-33.324,M,,*77
2018-01-11 19:56:18 1515718578.382382: $GPRMC,005619,A,3946.9583,N,08404.9821,W,0.0000,0.000,120118,,*3A
2018-01-11 19:56:18 1515718578.382442: $GPGSA,A,3,7,8,9,11,16,23,27,30,28,138,,,4.0,0.8,3.5*3E
2018-01-11 19:56:19 1515718579.381610: $GPZDA,005620.00,12,01,2018,00,00*6E
2018-01-11 19:56:19 1515718579.381869: $GPGGA,005620,3946.9583,N,08404.9821,W,1,10,0.80,304.78,M,-33.324,M,,*7D
2018-01-11 19:56:19 1515718579.381940: $GPRMC,005620,A,3946.9583,N,08404.9821,W,0.0000,0.000,120118,,*30
2018-01-11 19:56:19 1515718579.382001: $GPGSA,A,3,7,8,9,11,16,23,27,30,28,138,,,4.0,0.8,3.5*3E
2018-01-11 19:56:19 1515718579.382059: $GPGBS,005620,14.62,M,24.83,M,80.38,M*00
2018-01-11 19:56:20 1515718580.717022: $GPGSV,3,1,11,07,49,312,44,08,68,148,46,09,52,238,44,11,14,169,38*7F
2018-01-11 19:56:20 1515718580.717193: $GPGSV,3,2,11,16,28,057,48,23,36,192,48,27,52,060,51,30,23,304,34*7B
2018-01-11 19:56:20 1515718580.717275: $GPGSV,3,3,11,28,09,253,28,26,03,069,00,138,38,213,46*7F
2018-01-11 19:56:20 1515718580.830708: $GPZDA,005621.00,12,01,2018,00,00*6F
2018-01-11 19:56:20 1515718580.830863: $GPGGA,005621,3946.9583,N,08404.9821,W,1,10,0.80,304.78,M,-33.324,M,,*7C
2018-01-11 19:56:20 1515718580.830929: $GPRMC,005621,A,3946.9583,N,08404.9821,W,0.0000,0.000,120118,,*31
2018-01-11 19:56:20 1515718580.830990: $GPGSA,A,3,7,8,9,11,16,23,27,30,28,138,,,4.0,0.8,3.5*3E
2018-01-11 19:56:21 1515718581.381181: $GPZDA,005622.00,12,01,2018,00,00*6C
2018-01-11 19:56:21 1515718581.381354: $GPGGA,005622,3946.9586,N,08404.9819,W,2,10,2.60,302.61,M,-33.324,M,,*70
2018-01-11 19:56:21 1515718581.381419: $GPRMC,005622,A,3946.9586,N,08404.9819,W,0.0000,0.000,120118,,*3C
2018-01-11 19:56:21 1515718581.381480: $GPGSA,A,3,7,8,9,11,16,23,27,30,28,138,,,4.0,2.6,3.5*32
