2017-12-01 11:54:21 1512147261.866777: {"class":"VERSION","release":"3.16","rev":"3.16-4","proto_major":3,"proto_minor":11}
2017-12-01 11:54:21 1512147261.867164: {"class":"DEVICES","devices":[{"class":"DEVICE","path":"/dev/ttyUSB0","driver":"SiRF","subtype":"9\u0006GSD4e_4.1.2-P1_RPATCH.05-F-GPS-4R-1510281 11/03/2015 307","activated":"2017-12-01T16:54:21.539Z","flags":1,"native":1,"bps":4800,"parity":"N","stopbits":1,"cycle":1.00}]}
2017-12-01 11:54:21 1512147261.867289: {"class":"WATCH","enable":true,"json":false,"nmea":true,"raw":0,"scaled":false,"timing":false,"split24":false,"pps":false}
2017-12-01 11:54:22 1512147262.396108: $GPZDA,165423.00,01,12,2017,00,00*67
2017-12-01 11:54:22 1512147262.396295: $GPGGA,165423,3946.9557,N,08404.9850,W,2,10,0.80,302.79,M,-33.324,M,,*70
2017-12-01 11:54:22 1512147262.396362: $GPRMC,165423,A,3946.9557,N,08404.9850,W,0.0000,0.000,011217,,*36
2017-12-01 11:54:22 1512147262.396425: $GPGSA,A,3,13,15,18,20,21,24,27,29,10,138,,,2.0,0.8,1.5*01
2017-12-01 11:54:23 1512147263.732802: $GPGSV,3,1,12,13,38,048,46,15,71,061,44,18,47,289,44,20,59,058,44*70
2017-12-01 11:54:23 1512147263.732981: $GPGSV,3,2,12,21,71,300,45,24,24,145,46,27,11,321,40,29,19,193,45*76
2017-12-01 11:54:23 1512147263.733049: $GPGSV,3,3,12,05,10,081,20,10,16,276,36,04,08,132,00,138,38,213,46*4A
2017-12-01 11:54:23 1512147263.846513: $GPZDA,165424.00,01,12,2017,00,00*60
2017-12-01 11:54:23 1512147263.846697: $GPGGA,165424,3946.9557,N,08404.9850,W,2,11,0.80,302.79,M,-33.324,M,,*76
2017-12-01 11:54:23 1512147263.846768: $GPRMC,165424,A,3946.9557,N,08404.9850,W,0.0000,0.000,011217,,*31
2017-12-01 11:54:23 1512147263.846829: $GPGSA,A,3,13,15,18,20,21,24,27,29,5,10,138,,2.0,0.8,1.5*34
2017-12-01 11:54:24 1512147264.471906: $GPZDA,165425.00,01,12,2017,00,00*61
2017-12-01 11:54:24 1512147264.472071: $GPGGA,165425,3946.9557,N,08404.9850,W,2,11,0.80,302.79,M,-33.324,M,,*77
2017-12-01 11:54:24 1512147264.472140: $GPRMC,165425,A,3946.9557,N,08404.9850,W,0.0000,0.000,011217,,*30
2017-12-01 11:54:24 1512147264.472201: $GPGSA,A,3,13,15,18,20,21,24,27,29,5,10,138,,2.0,0.8,1.5*34
2017-12-01 11:54:25 1512147265.395170: $GPZDA,165426.00,01,12,2017,00,00*62
2017-12-01 11:54:25 1512147265.395361: $GPGGA,165426,3946.9557,N,08404.9850,W,2,11,0.80,302.79,M,-33.324,M,,*74
2017-12-01 11:54:25 1512147265.395433: $GPRMC,165426,A,3946.9557,N,08404.9850,W,0.0000,0.000,011217,,*33
2017-12-01 11:54:25 1512147265.395497: $GPGSA,A,3,13,15,18,20,21,24,27,29,5,10,138,,2.0,0.8,1.5*34
2017-12-01 11:54:26 1512147266.734349: $GPGSV,3,1,12,13,38,048,45,15,71,061,44,18,47,289,44,20,59,058,44*73
2017-12-01 11:54:26 1512147266.734538: $GPGSV,3,2,12,21,71,300,45,24,24,145,46,27,11,321,40,29,19,193,45*76
2017-12-01 11:54:26 1512147266.734609: $GPGSV,3,3,12,05,10,081,06,10,16,276,36,04,08,132,00,138,38,213,46*4E
2017-12-01 11:54:26 1512147266.847702: $GPZDA,165427.00,01,12,2017,00,00*63
2017-12-01 11:54:26 1512147266.847909: $GPGGA,165427,3946.9557,N,08404.9850,W,2,10,0.80,302.79,M,-33.324,M,,*74
2017-12-01 11:54:26 1512147266.847983: $GPRMC,165427,A,3946.9557,N,08404.9850,W,0.0000,0.000,011217,,*32
2017-12-01 11:54:26 1512147266.848045: $GPGSA,A,3,13,15,18,20,21,24,27,29,10,138,,,2.0,0.8,1.5*01
2017-12-01 11:54:27 1512147267.396101: $GPZDA,165428.00,01,12,2017,00,00*6C
2017-12-01 11:54:27 1512147267.396289: $GPGGA,165428,3946.9557,N,08404.9850,W,2,10,0.80,302.79,M,-33.324,M,,*7B
2017-12-01 11:54:27 1512147267.396380: $GPRMC,165428,A,3946.9557,N,08404.9850,W,0.0000,0.000,011217,,*3D
2017-12-01 11:54:27 1512147267.396444: $GPGSA,A,3,13,15,18,20,21,24,27,29,10,138,,,2.0,0.8,1.5*01
2017-12-01 11:54:28 1512147268.396987: $GPZDA,165429.00,01,12,2017,00,00*6D
2017-12-01 11:54:28 1512147268.397167: $GPGGA,165429,3946.9557,N,08404.9850,W,2,10,0.80,302.79,M,-33.324,M,,*7A
2017-12-01 11:54:28 1512147268.397237: $GPRMC,165429,A,3946.9557,N,08404.9850,W,0.0000,0.000,011217,,*3C
2017-12-01 11:54:28 1512147268.397298: $GPGSA,A,3,13,15,18,20,21,24,27,29,10,138,,,2.0,0.8,1.5*01
2017-12-01 11:54:29 1512147269.733430: $GPGSV,3,1,12,13,38,048,45,15,71,061,44,18,47,289,44,20,59,058,44*73
2017-12-01 11:54:29 1512147269.733667: $GPGSV,3,2,12,21,71,300,45,24,24,145,46,27,11,321,40,29,19,193,45*76
2017-12-01 11:54:29 1512147269.733738: $GPGSV,3,3,12,05,10,081,00,10,16,276,36,04,08,132,00,138,38,213,47*49
2017-12-01 11:54:29 1512147269.847184: $GPZDA,165430.00,01,12,2017,00,00*65
2017-12-01 11:54:29 1512147269.847339: $GPGGA,165430,3946.9557,N,08404.9850,W,2,10,0.80,302.79,M,-33.324,M,,*72
2017-12-01 11:54:29 1512147269.847403: $GPRMC,165430,A,3946.9557,N,08404.9850,W,0.0000,0.000,011217,,*34
2017-12-01 11:54:29 1512147269.847466: $GPGSA,A,3,13,15,18,20,21,24,27,29,10,138,,,2.0,0.8,1.5*01
2017-12-01 11:54:30 1512147270.397682: $GPZDA,165431.00,01,12,2017,00,00*64
2017-12-01 11:54:30 1512147270.397861: $GPGGA,165431,3946.9557,N,08404.9850,W,2,10,0.80,302.79,M,-33.324,M,,*73
2017-12-01 11:54:30 1512147270.397928: $GPRMC,165431,A,3946.9557,N,08404.9850,W,0.0000,0.000,011217,,*35
2017-12-01 11:54:30 1512147270.397990: $GPGSA,A,3,13,15,18,20,21,24,27,29,10,138,,,2.0,0.8,1.5*01
2017-12-01 11:54:31 1512147271.394808: $GPZDA,165432.00,01,12,2017,00,00*67
2017-12-01 11:54:31 1512147271.394989: $GPGGA,165432,3946.9557,N,08404.9850,W,2,10,0.80,302.79,M,-33.324,M,,*70
2017-12-01 11:54:31 1512147271.395058: $GPRMC,165432,A,3946.9557,N,08404.9850,W,0.0000,0.000,011217,,*36
2017-12-01 11:54:31 1512147271.395120: $GPGSA,A,3,13,15,18,20,21,24,27,29,10,138,,,2.0,0.8,1.5*01
