2017-12-29 11:02:45 1514563365.596329: {"class":"VERSION","release":"3.16","rev":"3.16-4","proto_major":3,"proto_minor":11}
2017-12-29 11:02:45 1514563365.596687: {"class":"DEVICES","devices":[{"class":"DEVICE","path":"/dev/ttyUSB0","driver":"SiRF","subtype":"9\u0006GSD4e_4.1.2-P1_RPATCH.05-F-GPS-4R-1510281 11/03/2015 307","activated":"2017-12-29T16:02:45.596Z","flags":1,"native":1,"bps":4800,"parity":"N","stopbits":1,"cycle":1.00}]}
2017-12-29 11:02:45 1514563365.596801: {"class":"WATCH","enable":true,"json":false,"nmea":true,"raw":0,"scaled":false,"timing":false,"split24":false,"pps":false}
2017-12-29 11:02:46 1514563366.435318: $GPZDA,160247.00,29,12,2017,00,00*6C
2017-12-29 11:02:46 1514563366.435482: $GPGGA,160247,3946.9601,N,08404.9837,W,2,11,1.00,299.31,M,-33.324,M,,*77
2017-12-29 11:02:46 1514563366.435549: $GPRMC,160247,A,3946.9601,N,08404.9837,W,0.0000,0.000,291217,,*3C
2017-12-29 11:02:46 1514563366.435611: $GPGSA,A,3,10,13,15,18,20,21,24,27,32,8,138,,1.7,1.0,1.3*38
2017-12-29 11:02:47 1514563367.769700: $GPGSV,3,1,11,10,37,297,43,13,13,046,33,15,43,051,49,18,67,325,43*76
2017-12-29 11:02:47 1514563367.769863: $GPGSV,3,2,11,20,39,090,49,21,70,196,47,24,47,120,48,27,19,295,37*70
2017-12-29 11:02:47 1514563367.769929: $GPGSV,3,3,11,32,16,234,36,08,03,328,29,138,38,213,44*77
2017-12-29 11:02:47 1514563367.883474: $GPZDA,160248.00,29,12,2017,00,00*63
2017-12-29 11:02:47 1514563367.883616: $GPGGA,160248,3946.9601,N,08404.9837,W,2,11,1.00,299.31,M,-33.324,M,,*78
2017-12-29 11:02:47 1514563367.883682: $GPRMC,160248,A,3946.9601,N,08404.9837,W,0.0000,0.000,291217,,*33
2017-12-29 11:02:47 1514563367.883742: $GPGSA,A,3,10,13,15,18,20,21,24,27,32,8,138,,1.7,1.0,1.3*38
2017-12-29 11:02:48 1514563368.435242: $GPZDA,160249.00,29,12,2017,00,00*62
2017-12-29 11:02:48 1514563368.435395: $GPGGA,160249,3946.9605,N,08404.9837,W,2,11,1.00,299.95,M,-33.324,M,,*73
2017-12-29 11:02:48 1514563368.435462: $GPRMC,160249,A,3946.9605,N,08404.9837,W,0.0000,0.000,291217,,*36
2017-12-29 11:02:48 1514563368.435523: $GPGSA,A,3,10,13,15,18,20,21,24,27,32,8,138,,1.7,1.0,1.3*38
2017-12-29 11:02:49 1514563369.434911: $GPZDA,160250.00,29,12,2017,00,00*6A
2017-12-29 11:02:49 1514563369.435069: $GPGGA,160250,3946.9605,N,08404.9838,W,2,11,1.00,301.36,M,-33.324,M,,*7D
2017-12-29 11:02:49 1514563369.435136: $GPRMC,160250,A,3946.9605,N,08404.9838,W,0.3006,242.539,291217,,*3F
2017-12-29 11:02:49 1514563369.435197: $GPGSA,A,3,10,13,15,18,20,21,24,27,32,8,138,,1.7,1.0,1.3*38
2017-12-29 11:02:50 1514563370.770585: $GPGSV,3,1,11,10,37,297,42,13,13,046,33,15,43,051,50,18,67,325,43*7F
2017-12-29 11:02:50 1514563370.770760: $GPGSV,3,2,11,20,39,090,49,21,70,196,47,24,47,120,48,27,19,295,37*70
2017-12-29 11:02:50 1514563370.770828: $GPGSV,3,3,11,32,16,234,35,08,03,328,29,138,38,213,45*75
2017-12-29 11:02:50 1514563370.883967: $GPZDA,160251.00,29,12,2017,00,00*6B
2017-12-29 11:02:50 1514563370.884111: $GPGGA,160251,3946.9605,N,08404.9838,W,2,11,1.00,301.36,M,-33.324,M,,*7C
2017-12-29 11:02:50 1514563370.884178: $GPRMC,160251,A,3946.9605,N,08404.9838,W,0.3155,309.994,291217,,*3C
2017-12-29 11:02:50 1514563370.884258: $GPGSA,A,3,10,13,15,18,20,21,24,27,32,8,138,,1.7,1.0,1.3*38
2017-12-29 11:02:51 1514563371.509334: $GPZDA,160252.00,29,12,2017,00,00*68
2017-12-29 11:02:51 1514563371.509485: $GPGGA,160252,3946.9605,N,08404.9838,W,2,11,1.00,301.36,M,-33.324,M,,*7F
2017-12-29 11:02:51 1514563371.509553: $GPRMC,160252,A,3946.9605,N,08404.9838,W,0.0000,0.000,291217,,*33
2017-12-29 11:02:51 1514563371.509613: $GPGSA,A,3,10,13,15,18,20,21,24,27,32,8,138,,1.7,1.0,1.3*38
2017-12-29 11:02:52 1514563372.431538: $GPZDA,160253.00,29,12,2017,00,00*69
2017-12-29 11:02:52 1514563372.431689: $GPGGA,160253,3946.9605,N,08404.9838,W,2,11,1.00,301.36,M,-33.324,M,,*7E
2017-12-29 11:02:52 1514563372.431755: $GPRMC,160253,A,3946.9605,N,08404.9838,W,0.0000,0.000,291217,,*32
2017-12-29 11:02:52 1514563372.431816: $GPGSA,A,3,10,13,15,18,20,21,24,27,32,8,138,,1.7,1.0,1.3*38
2017-12-29 11:02:53 1514563373.770925: $GPGSV,3,1,11,10,37,297,43,13,13,046,33,15,43,051,50,18,67,325,43*7E
2017-12-29 11:02:53 1514563373.771212: $GPGSV,3,2,11,20,39,090,49,21,70,196,46,24,47,120,48,27,19,295,37*71
2017-12-29 11:02:53 1514563373.771284: $GPGSV,3,3,11,32,16,234,35,08,03,328,26,138,38,213,46*79
2017-12-29 11:02:53 1514563373.884357: $GPZDA,160254.00,29,12,2017,00,00*6E
2017-12-29 11:02:53 1514563373.884494: $GPGGA,160254,3946.9605,N,08404.9838,W,2,11,1.00,301.36,M,-33.324,M,,*79
2017-12-29 11:02:53 1514563373.884560: $GPRMC,160254,A,3946.9605,N,08404.9838,W,0.0000,0.000,291217,,*35
2017-12-29 11:02:53 1514563373.884620: $GPGSA,A,3,10,13,15,18,20,21,24,27,32,8,138,,1.7,1.0,1.3*38
2017-12-29 11:02:54 1514563374.435167: $GPZDA,160255.00,29,12,2017,00,00*6F
2017-12-29 11:02:54 1514563374.435312: $GPGGA,160255,3946.9605,N,08404.9838,W,2,11,1.00,301.36,M,-33.324,M,,*78
2017-12-29 11:02:54 1514563374.435377: $GPRMC,160255,A,3946.9605,N,08404.9838,W,0.0000,0.000,291217,,*34
2017-12-29 11:02:54 1514563374.435438: $GPGSA,A,3,10,13,15,18,20,21,24,27,32,8,138,,1.7,1.0,1.3*38
2017-12-29 11:02:55 1514563375.433594: $GPZDA,160256.00,29,12,2017,00,00*6C
2017-12-29 11:02:55 1514563375.433757: $GPGGA,160256,3946.9605,N,08404.9838,W,2,11,1.00,301.36,M,-33.324,M,,*7B
2017-12-29 11:02:55 1514563375.433824: $GPRMC,160256,A,3946.9605,N,08404.9838,W,0.0000,0.000,291217,,*37
2017-12-29 11:02:55 1514563375.433886: $GPGSA,A,3,10,13,15,18,20,21,24,27,32,8,138,,1.7,1.0,1.3*38
2017-12-29 11:02:56 1514563376.770023: $GPGSV,3,1,11,10,37,297,42,13,13,046,33,15,43,051,50,18,67,325,43*7F
2017-12-29 11:02:56 1514563376.770196: $GPGSV,3,2,11,20,39,090,49,21,70,196,46,24,47,120,48,27,19,295,38*7E
2017-12-29 11:02:56 1514563376.770261: $GPGSV,3,3,11,32,16,234,35,08,03,328,24,138,38,213,45*78
2017-12-29 11:02:56 1514563376.882239: $GPZDA,160257.00,29,12,2017,00,00*6D
2017-12-29 11:02:56 1514563376.882381: $GPGGA,160257,3946.9605,N,08404.9838,W,2,11,1.00,301.36,M,-33.324,M,,*7A
2017-12-29 11:02:56 1514563376.882447: $GPRMC,160257,A,3946.9605,N,08404.9838,W,0.0000,0.000,291217,,*36
2017-12-29 11:02:56 1514563376.882507: $GPGSA,A,3,10,13,15,18,20,21,24,27,32,8,138,,1.7,1.0,1.3*38
2017-12-29 11:02:57 1514563377.434282: $GPZDA,160258.00,29,12,2017,00,00*62
2017-12-29 11:02:57 1514563377.434424: $GPGGA,160258,3946.9605,N,08404.9838,W,2,11,1.00,301.36,M,-33.324,M,,*75
2017-12-29 11:02:57 1514563377.434490: $GPRMC,160258,A,3946.9605,N,08404.9838,W,0.0000,0.000,291217,,*39
2017-12-29 11:02:57 1514563377.434551: $GPGSA,A,3,10,13,15,18,20,21,24,27,32,8,138,,1.7,1.0,1.3*38
2017-12-29 11:02:58 1514563378.435260: $GPZDA,160259.00,29,12,2017,00,00*63
2017-12-29 11:02:58 1514563378.435425: $GPGGA,160259,3946.9605,N,08404.9838,W,2,11,1.00,301.36,M,-33.324,M,,*74
2017-12-29 11:02:58 1514563378.435492: $GPRMC,160259,A,3946.9605,N,08404.9838,W,0.0000,0.000,291217,,*38
2017-12-29 11:02:58 1514563378.435554: $GPGSA,A,3,10,13,15,18,20,21,24,27,32,8,138,,1.7,1.0,1.3*38
2017-12-29 11:02:59 1514563379.772137: $GPGSV,3,1,11,10,37,297,42,13,13,046,33,15,43,051,50,18,67,325,43*7F
2017-12-29 11:02:59 1514563379.772323: $GPGSV,3,2,11,20,39,090,49,21,70,196,47,24,47,120,49,27,19,295,38*7E
2017-12-29 11:02:59 1514563379.772393: $GPGSV,3,3,11,32,16,234,34,08,03,328,24,138,38,213,45*79
2017-12-29 11:02:59 1514563379.885526: $GPZDA,160300.00,29,12,2017,00,00*6E
2017-12-29 11:02:59 1514563379.885664: $GPGGA,160300,3946.9605,N,08404.9838,W,2,11,1.00,301.36,M,-33.324,M,,*79
2017-12-29 11:02:59 1514563379.885732: $GPRMC,160300,A,3946.9605,N,08404.9838,W,0.0000,0.000,291217,,*35
2017-12-29 11:02:59 1514563379.885795: $GPGSA,A,3,10,13,15,18,20,21,24,27,32,8,138,,1.7,1.0,1.3*38
2017-12-29 11:03:00 1514563380.437666: $GPZDA,160301.00,29,12,2017,00,00*6F
2017-12-29 11:03:00 1514563380.437828: $GPGGA,160301,3946.9605,N,08404.9838,W,2,11,1.00,301.36,M,-33.324,M,,*78
2017-12-29 11:03:00 1514563380.437897: $GPRMC,160301,A,3946.9605,N,08404.9838,W,0.0000,0.000,291217,,*34
2017-12-29 11:03:00 1514563380.437961: $GPGSA,A,3,10,13,15,18,20,21,24,27,32,8,138,,1.7,1.0,1.3*38
2017-12-29 11:03:01 1514563381.438052: $GPZDA,160302.00,29,12,2017,00,00*6C
2017-12-29 11:03:01 1514563381.438271: $GPGGA,160302,3946.9605,N,08404.9838,W,2,11,1.00,301.36,M,-33.324,M,,*7B
2017-12-29 11:03:01 1514563381.438341: $GPRMC,160302,A,3946.9605,N,08404.9838,W,0.0000,0.000,291217,,*37
2017-12-29 11:03:01 1514563381.438401: $GPGSA,A,3,10,13,15,18,20,21,24,27,32,8,138,,1.7,1.0,1.3*38
2017-12-29 11:03:02 1514563382.773750: $GPGSV,3,1,11,10,37,297,42,13,13,046,33,15,43,051,50,18,67,325,43*7F
2017-12-29 11:03:02 1514563382.773896: $GPGSV,3,2,11,20,39,090,49,21,70,196,47,24,47,120,48,27,19,295,38*7F
2017-12-29 11:03:02 1514563382.773961: $GPGSV,3,3,11,32,16,234,34,08,03,328,24,138,38,213,45*79
2017-12-29 11:03:02 1514563382.887142: $GPZDA,160303.00,29,12,2017,00,00*6D
2017-12-29 11:03:02 1514563382.887287: $GPGGA,160303,3946.9605,N,08404.9838,W,2,11,1.00,301.36,M,-33.324,M,,*7A
2017-12-29 11:03:02 1514563382.887353: $GPRMC,160303,A,3946.9605,N,08404.9838,W,0.0000,0.000,291217,,*36
2017-12-29 11:03:02 1514563382.887414: $GPGSA,A,3,10,13,15,18,20,21,24,27,32,8,138,,1.7,1.0,1.3*38
2017-12-29 11:03:03 1514563383.431800: $GPZDA,160304.00,29,12,2017,00,00*6A
2017-12-29 11:03:03 1514563383.431943: $GPGGA,160304,3946.9605,N,08404.9838,W,2,11,1.00,301.36,M,-33.324,M,,*7D
2017-12-29 11:03:03 1514563383.432010: $GPRMC,160304,A,3946.9605,N,08404.9838,W,0.0000,0.000,291217,,*31
2017-12-29 11:03:03 1514563383.432071: $GPGSA,A,3,10,13,15,18,20,21,24,27,32,8,138,,1.7,1.0,1.3*38
2017-12-29 11:03:04 1514563384.436429: $GPZDA,160305.00,29,12,2017,00,00*6B
2017-12-29 11:03:04 1514563384.436587: $GPGGA,160305,3946.9605,N,08404.9838,W,2,11,1.00,301.36,M,-33.324,M,,*7C
2017-12-29 11:03:04 1514563384.436653: $GPRMC,160305,A,3946.9605,N,08404.9838,W,0.0000,0.000,291217,,*30
2017-12-29 11:03:04 1514563384.436714: $GPGSA,A,3,10,13,15,18,20,21,24,27,32,8,138,,1.7,1.0,1.3*38
