2017-12-01 12:13:03 1512148383.806687: {"class":"VERSION","release":"3.16","rev":"3.16-4","proto_major":3,"proto_minor":11}
2017-12-01 12:13:03 1512148383.807085: {"class":"DEVICES","devices":[{"class":"DEVICE","path":"/dev/ttyUSB0","driver":"SiRF","subtype":"9\u0006GSD4e_4.1.2-P1_RPATCH.05-F-GPS-4R-1510281 11/03/2015 307","activated":"2017-12-01T17:13:03.557Z","flags":1,"native":1,"bps":4800,"parity":"N","stopbits":1,"cycle":1.00}]}
2017-12-01 12:13:03 1512148383.807206: {"class":"WATCH","enable":true,"json":false,"nmea":true,"raw":0,"scaled":false,"timing":false,"split24":false,"pps":false}
2017-12-01 12:13:04 1512148384.751431: $GPGSV,3,1,12,10,22,282,41,13,31,045,46,15,63,052,45,18,53,298,45*7D
2017-12-01 12:13:04 1512148384.751610: $GPGSV,3,2,12,20,53,069,46,21,77,277,44,24,31,139,45,27,15,315,38*70
2017-12-01 12:13:04 1512148384.751677: $GPGSV,3,3,12,29,12,190,26,05,05,085,25,04,02,135,00,138,38,213,46*46
2017-12-01 12:13:04 1512148384.865056: $GPZDA,171305.00,01,12,2017,00,00*61
2017-12-01 12:13:04 1512148384.865208: $GPGGA,171305,3946.9585,N,08404.9832,W,2,11,0.80,299.64,M,-33.324,M,,*73
2017-12-01 12:13:04 1512148384.865275: $GPRMC,171305,A,3946.9585,N,08404.9832,W,0.0000,0.000,011217,,*3B
2017-12-01 12:13:04 1512148384.865336: $GPGSA,A,3,10,13,15,18,20,21,24,27,29,5,138,,2.0,0.8,1.5*34
2017-12-01 12:13:05 1512148385.415919: $GPZDA,171306.00,01,12,2017,00,00*62
2017-12-01 12:13:05 1512148385.416078: $GPGGA,171306,3946.9585,N,08404.9832,W,2,11,0.80,299.64,M,-33.324,M,,*70
2017-12-01 12:13:05 1512148385.416145: $GPRMC,171306,A,3946.9585,N,08404.9832,W,0.0000,0.000,011217,,*38
2017-12-01 12:13:05 1512148385.416206: $GPGSA,A,3,10,13,15,18,20,21,24,27,29,5,138,,2.0,0.8,1.5*34
2017-12-01 12:13:06 1512148386.418274: $GPZDA,171307.00,01,12,2017,00,00*63
2017-12-01 12:13:06 1512148386.418431: $GPGGA,171307,3946.9585,N,08404.9832,W,2,11,0.80,299.64,M,-33.324,M,,*71
2017-12-01 12:13:06 1512148386.418498: $GPRMC,171307,A,3946.9585,N,08404.9832,W,0.0000,0.000,011217,,*39
2017-12-01 12:13:06 1512148386.418603: $GPGSA,A,3,10,13,15,18,20,21,24,27,29,5,138,,2.0,0.8,1.5*34
2017-12-01 12:13:07 1512148387.753014: $GPGSV,3,1,12,10,22,282,41,13,31,045,45,15,63,052,45,18,53,298,45*7E
2017-12-01 12:13:07 1512148387.753204: $GPGSV,3,2,12,20,53,069,46,21,77,277,44,24,31,139,45,27,15,315,38*70
2017-12-01 12:13:07 1512148387.753292: $GPGSV,3,3,12,29,12,190,00,05,05,085,25,04,02,135,00,138,38,213,46*42
2017-12-01 12:13:07 1512148387.866649: $GPZDA,171308.00,01,12,2017,00,00*6C
2017-12-01 12:13:07 1512148387.866818: $GPGGA,171308,3946.9585,N,08404.9832,W,2,10,1.00,299.64,M,-33.324,M,,*76
2017-12-01 12:13:07 1512148387.866885: $GPRMC,171308,A,3946.9585,N,08404.9832,W,0.0000,0.000,011217,,*36
2017-12-01 12:13:07 1512148387.866946: $GPGSA,A,3,10,13,15,18,20,21,24,27,5,138,,,2.0,1.0,1.5*36
2017-12-01 12:13:08 1512148388.416325: $GPZDA,171309.00,01,12,2017,00,00*6D
2017-12-01 12:13:08 1512148388.416497: $GPGGA,171309,3946.9585,N,08404.9832,W,2,10,1.00,299.64,M,-33.324,M,,*77
2017-12-01 12:13:08 1512148388.416565: $GPRMC,171309,A,3946.9585,N,08404.9832,W,0.0000,0.000,011217,,*37
2017-12-01 12:13:08 1512148388.416626: $GPGSA,A,3,10,13,15,18,20,21,24,27,5,138,,,2.0,1.0,1.5*36
2017-12-01 12:13:09 1512148389.415929: $GPZDA,171310.00,01,12,2017,00,00*65
2017-12-01 12:13:09 1512148389.416099: $GPGGA,171310,3946.9585,N,08404.9832,W,2,10,1.00,299.64,M,-33.324,M,,*7F
2017-12-01 12:13:09 1512148389.416166: $GPRMC,171310,A,3946.9585,N,08404.9832,W,0.0000,0.000,011217,,*3F
2017-12-01 12:13:09 1512148389.416228: $GPGSA,A,3,10,13,15,18,20,21,24,27,5,138,,,2.0,1.0,1.5*36
2017-12-01 12:13:10 1512148390.752641: $GPGSV,3,1,12,10,22,282,41,13,31,045,45,15,63,052,46,18,53,298,45*7D
2017-12-01 12:13:10 1512148390.752821: $GPGSV,3,2,12,20,53,069,46,21,77,277,44,24,31,139,45,27,15,315,40*7F
2017-12-01 12:13:10 1512148390.752888: $GPGSV,3,3,12,29,12,190,00,05,05,085,25,04,02,135,00,138,38,213,46*42
2017-12-01 12:13:10 1512148390.865137: $GPZDA,171311.00,01,12,2017,00,00*64
2017-12-01 12:13:10 1512148390.865309: $GPGGA,171311,3946.9585,N,08404.9832,W,2,10,1.00,299.64,M,-33.324,M,,*7E
2017-12-01 12:13:10 1512148390.865429: $GPRMC,171311,A,3946.9585,N,08404.9832,W,0.0000,0.000,011217,,*3E
2017-12-01 12:13:10 1512148390.865492: $GPGSA,A,3,10,13,15,18,20,21,24,27,5,138,,,2.0,1.0,1.5*36
2017-12-01 12:13:11 1512148391.491467: $GPZDA,171312.00,01,12,2017,00,00*67
2017-12-01 12:13:11 1512148391.491645: $GPGGA,171312,3946.9585,N,08404.9832,W,2,10,1.00,299.64,M,-33.324,M,,*7D
2017-12-01 12:13:11 1512148391.491713: $GPRMC,171312,A,3946.9585,N,08404.9832,W,0.0000,0.000,011217,,*3D
2017-12-01 12:13:11 1512148391.491773: $GPGSA,A,3,10,13,15,18,20,21,24,27,5,138,,,2.0,1.0,1.5*36
2017-12-01 12:13:12 1512148392.417566: $GPZDA,171313.00,01,12,2017,00,00*66
2017-12-01 12:13:12 1512148392.417726: $GPGGA,171313,3946.9585,N,08404.9832,W,2,10,1.00,299.64,M,-33.324,M,,*7C
2017-12-01 12:13:12 1512148392.417792: $GPRMC,171313,A,3946.9585,N,08404.9832,W,0.0000,0.000,011217,,*3C
2017-12-01 12:13:12 1512148392.417853: $GPGSA,A,3,10,13,15,18,20,21,24,27,5,138,,,2.0,1.0,1.5*36
2017-12-01 12:13:13 1512148393.753739: $GPGSV,3,1,12,10,22,282,41,13,31,045,45,15,63,052,46,18,53,298,45*7D
2017-12-01 12:13:13 1512148393.753924: $GPGSV,3,2,12,20,53,069,46,21,77,277,43,24,31,139,45,27,15,315,42*7A
2017-12-01 12:13:13 1512148393.753990: $GPGSV,3,3,12,29,12,190,00,05,05,085,24,04,02,135,00,138,38,213,46*43
