2017-12-29 10:49:05 1514562545.106932: {"class":"VERSION","release":"3.16","rev":"3.16-4","proto_major":3,"proto_minor":11}
2017-12-29 10:49:05 1514562545.107272: {"class":"DEVICES","devices":[{"class":"DEVICE","path":"/dev/ttyUSB0","driver":"SiRF","subtype":"9\u0006GSD4e_4.1.2-P1_RPATCH.05-F-GPS-4R-1510281 11/03/2015 307","activated":"2017-12-29T15:49:04.654Z","flags":1,"native":1,"bps":4800,"parity":"N","stopbits":1,"cycle":1.00}]}
2017-12-29 10:49:05 1514562545.107387: {"class":"WATCH","enable":true,"json":false,"nmea":true,"raw":0,"scaled":false,"timing":false,"split24":false,"pps":false}
2017-12-29 10:49:05 1514562545.438692: $GPZDA,154906.00,29,12,2017,00,00*65
2017-12-29 10:49:05 1514562545.438877: $GPGGA,154906,3946.9603,N,08404.9833,W,2,11,0.80,305.01,M,-33.324,M,,*76
2017-12-29 10:49:05 1514562545.438943: $GPRMC,154906,A,3946.9603,N,08404.9833,W,0.0000,0.000,291217,,*33
2017-12-29 10:49:05 1514562545.439004: $GPGSA,A,3,10,13,15,18,20,21,24,27,32,29,138,,1.7,0.8,1.3*02
2017-12-29 10:49:06 1514562546.774234: $GPGSV,3,1,11,10,32,291,40,13,19,046,44,15,49,049,50,18,63,315,44*77
2017-12-29 10:49:06 1514562546.774401: $GPGSV,3,2,11,20,44,084,50,21,76,211,48,24,43,127,50,27,19,303,38*79
2017-12-29 10:49:06 1514562546.774471: $GPGSV,3,3,11,32,11,231,32,29,01,186,25,138,38,213,44*7A
2017-12-29 10:49:06 1514562546.888921: $GPZDA,154907.00,29,12,2017,00,00*64
2017-12-29 10:49:06 1514562546.889119: $GPGGA,154907,3946.9603,N,08404.9833,W,2,11,0.80,305.01,M,-33.324,M,,*77
2017-12-29 10:49:06 1514562546.889232: $GPRMC,154907,A,3946.9603,N,08404.9833,W,0.0000,0.000,291217,,*32
2017-12-29 10:49:06 1514562546.889332: $GPGSA,A,3,10,13,15,18,20,21,24,27,32,29,138,,1.7,0.8,1.3*02
2017-12-29 10:49:07 1514562547.402624: $GPZDA,154908.00,29,12,2017,00,00*6B
2017-12-29 10:49:07 1514562547.402803: $GPGGA,154908,3946.9603,N,08404.9833,W,2,11,0.80,305.01,M,-33.324,M,,*78
2017-12-29 10:49:07 1514562547.402874: $GPRMC,154908,A,3946.9603,N,08404.9833,W,0.0000,0.000,291217,,*3D
2017-12-29 10:49:07 1514562547.402938: $GPGSA,A,3,10,13,15,18,20,21,24,27,32,29,138,,1.7,0.8,1.3*02
2017-12-29 10:49:08 1514562548.438435: $GPZDA,154909.00,29,12,2017,00,00*6A
2017-12-29 10:49:08 1514562548.438601: $GPGGA,154909,3946.9603,N,08404.9833,W,2,11,0.80,305.01,M,-33.324,M,,*79
2017-12-29 10:49:08 1514562548.438670: $GPRMC,154909,A,3946.9603,N,08404.9833,W,0.0000,0.000,291217,,*3C
2017-12-29 10:49:08 1514562548.438734: $GPGSA,A,3,10,13,15,18,20,21,24,27,32,29,138,,1.7,0.8,1.3*02
2017-12-29 10:49:09 1514562549.729564: $GPGSV,3,1,11,10,32,291,40,13,19,046,44,15,49,049,50,18,63,315,44*77
2017-12-29 10:49:09 1514562549.729743: $GPGSV,3,2,11,20,44,084,50,21,76,211,48,24,43,127,50,27,19,303,37*76
2017-12-29 10:49:09 1514562549.729812: $GPGSV,3,3,11,32,11,231,32,29,01,186,00,138,38,213,44*7D
2017-12-29 10:49:09 1514562549.842963: $GPZDA,154910.00,29,12,2017,00,00*62
2017-12-29 10:49:09 1514562549.843099: $GPGGA,154910,3946.9603,N,08404.9833,W,2,10,0.80,305.01,M,-33.324,M,,*70
2017-12-29 10:49:09 1514562549.843168: $GPRMC,154910,A,3946.9603,N,08404.9833,W,0.0000,0.000,291217,,*34
2017-12-29 10:49:09 1514562549.843231: $GPGSA,A,3,10,13,15,18,20,21,24,27,32,138,,,1.7,0.8,1.3*09
2017-12-29 10:49:10 1514562550.449074: $GPZDA,154911.00,29,12,2017,00,00*63
2017-12-29 10:49:10 1514562550.449234: $GPGGA,154911,3946.9603,N,08404.9833,W,2,10,0.80,305.01,M,-33.324,M,,*71
2017-12-29 10:49:10 1514562550.449302: $GPRMC,154911,A,3946.9603,N,08404.9833,W,0.0000,0.000,291217,,*35
2017-12-29 10:49:10 1514562550.449366: $GPGSA,A,3,10,13,15,18,20,21,24,27,32,138,,,1.7,0.8,1.3*09
2017-12-29 10:49:11 1514562551.439997: $GPZDA,154912.00,29,12,2017,00,00*60
2017-12-29 10:49:11 1514562551.440161: $GPGGA,154912,3946.9603,N,08404.9833,W,2,10,0.80,305.01,M,-33.324,M,,*72
2017-12-29 10:49:11 1514562551.440230: $GPRMC,154912,A,3946.9603,N,08404.9833,W,0.0000,0.000,291217,,*36
2017-12-29 10:49:11 1514562551.440293: $GPGSA,A,3,10,13,15,18,20,21,24,27,32,138,,,1.7,0.8,1.3*09
2017-12-29 10:49:12 1514562552.737901: $GPGSV,3,1,11,10,32,291,40,13,19,046,44,15,49,049,50,18,63,315,44*77
2017-12-29 10:49:12 1514562552.738131: $GPGSV,3,2,11,20,44,084,50,21,76,211,47,24,43,127,50,27,19,303,36*78
2017-12-29 10:49:12 1514562552.738201: $GPGSV,3,3,11,32,11,231,32,29,01,186,26,138,38,213,46*7B
2017-12-29 10:49:12 1514562552.851326: $GPZDA,154913.00,29,12,2017,00,00*61
2017-12-29 10:49:12 1514562552.851468: $GPGGA,154913,3946.9603,N,08404.9833,W,2,11,0.80,305.01,M,-33.324,M,,*72
2017-12-29 10:49:12 1514562552.851536: $GPRMC,154913,A,3946.9603,N,08404.9833,W,0.0000,0.000,291217,,*37
2017-12-29 10:49:12 1514562552.851596: $GPGSA,A,3,10,13,15,18,20,21,24,27,32,29,138,,1.7,0.8,1.3*02
2017-12-29 10:49:13 1514562553.400956: $GPZDA,154914.00,29,12,2017,00,00*66
2017-12-29 10:49:13 1514562553.401175: $GPGGA,154914,3946.9603,N,08404.9833,W,2,11,0.80,305.01,M,-33.324,M,,*75
2017-12-29 10:49:13 1514562553.401243: $GPRMC,154914,A,3946.9603,N,08404.9833,W,0.0000,0.000,291217,,*30
2017-12-29 10:49:13 1514562553.401304: $GPGSA,A,3,10,13,15,18,20,21,24,27,32,29,138,,1.7,0.8,1.3*02
2017-12-29 10:49:14 1514562554.401602: $GPZDA,154915.00,29,12,2017,00,00*67
2017-12-29 10:49:14 1514562554.401772: $GPGGA,154915,3946.9603,N,08404.9833,W,2,11,0.80,305.01,M,-33.324,M,,*74
2017-12-29 10:49:14 1514562554.401839: $GPRMC,154915,A,3946.9603,N,08404.9833,W,0.0000,0.000,291217,,*31
2017-12-29 10:49:14 1514562554.401899: $GPGSA,A,3,10,13,15,18,20,21,24,27,32,29,138,,1.7,0.8,1.3*02
2017-12-29 10:49:15 1514562555.737063: $GPGSV,3,1,11,10,32,291,41,13,19,046,44,15,49,049,50,18,63,315,44*76
2017-12-29 10:49:15 1514562555.737212: $GPGSV,3,2,11,20,44,084,50,21,76,211,47,24,43,127,50,27,19,303,30*7E
2017-12-29 10:49:15 1514562555.737277: $GPGSV,3,3,11,32,11,231,30,29,01,186,00,138,38,213,45*7E
2017-12-29 10:49:15 1514562555.850647: $GPZDA,154916.00,29,12,2017,00,00*64
2017-12-29 10:49:15 1514562555.850785: $GPGGA,154916,3946.9603,N,08404.9833,W,2,10,0.80,305.01,M,-33.324,M,,*76
2017-12-29 10:49:15 1514562555.850850: $GPRMC,154916,A,3946.9603,N,08404.9833,W,0.0000,0.000,291217,,*32
2017-12-29 10:49:15 1514562555.850910: $GPGSA,A,3,10,13,15,18,20,21,24,27,32,138,,,1.7,0.8,1.3*09
2017-12-29 10:49:16 1514562556.396543: $GPZDA,154917.00,29,12,2017,00,00*65
2017-12-29 10:49:16 1514562556.396727: $GPGGA,154917,3946.9603,N,08404.9833,W,2,10,0.80,305.01,M,-33.324,M,,*77
2017-12-29 10:49:16 1514562556.396813: $GPRMC,154917,A,3946.9603,N,08404.9833,W,0.0000,0.000,291217,,*33
2017-12-29 10:49:16 1514562556.396875: $GPGSA,A,3,10,13,15,18,20,21,24,27,32,138,,,1.7,0.8,1.3*09
2017-12-29 10:49:17 1514562557.394941: $GPZDA,154918.00,29,12,2017,00,00*6A
2017-12-29 10:49:17 1514562557.395122: $GPGGA,154918,3946.9603,N,08404.9833,W,2,10,0.80,305.01,M,-33.324,M,,*78
2017-12-29 10:49:17 1514562557.395192: $GPRMC,154918,A,3946.9603,N,08404.9833,W,0.0000,0.000,291217,,*3C
2017-12-29 10:49:17 1514562557.395257: $GPGSA,A,3,10,13,15,18,20,21,24,27,32,138,,,1.7,0.8,1.3*09
2017-12-29 10:49:18 1514562558.736660: $GPGSV,3,1,11,10,32,291,42,13,19,046,44,15,49,049,50,18,63,315,45*74
2017-12-29 10:49:18 1514562558.736826: $GPGSV,3,2,11,20,44,084,50,21,76,211,47,24,43,127,51,27,19,303,30*7F
2017-12-29 10:49:18 1514562558.736896: $GPGSV,3,3,11,32,11,231,29,29,01,186,00,138,38,213,45*76
2017-12-29 10:49:18 1514562558.850266: $GPZDA,154919.00,29,12,2017,00,00*6B
2017-12-29 10:49:18 1514562558.850415: $GPGGA,154919,3946.9603,N,08404.9833,W,2,10,0.80,305.01,M,-33.324,M,,*79
2017-12-29 10:49:18 1514562558.850483: $GPRMC,154919,A,3946.9603,N,08404.9833,W,0.0000,0.000,291217,,*3D
2017-12-29 10:49:18 1514562558.850547: $GPGSA,A,3,10,13,15,18,20,21,24,27,32,138,,,1.7,0.8,1.3*09
2017-12-29 10:49:19 1514562559.475674: $GPZDA,154920.00,29,12,2017,00,00*61
2017-12-29 10:49:19 1514562559.475841: $GPGGA,154920,3946.9603,N,08404.9833,W,2,10,0.80,305.01,M,-33.324,M,,*73
2017-12-29 10:49:19 1514562559.475910: $GPRMC,154920,A,3946.9603,N,08404.9833,W,0.0000,0.000,291217,,*37
2017-12-29 10:49:19 1514562559.475973: $GPGSA,A,3,10,13,15,18,20,21,24,27,32,138,,,1.7,0.8,1.3*09
