2017-11-15 18:39:19 1510789159.523608: {"class":"VERSION","release":"3.17","rev":"3.17","proto_major":3,"proto_minor":12}
2017-11-15 18:39:19 1510789159.524050: {"class":"DEVICES","devices":[{"class":"DEVICE","path":"/dev/ttyUSB0","driver":"SiRF","subtype":"9\u0006GSD4e_4.1.2-P1_RPATCH.05-F-GPS-4R-1510281 11/03/2015 307","activated":"2017-11-15T23:39:19.504Z","flags":1,"native":1,"bps":4800,"parity":"N","stopbits":1,"cycle":1.00}]}
2017-11-15 18:39:19 1510789159.524168: {"class":"WATCH","enable":true,"json":false,"nmea":true,"raw":0,"scaled":false,"timing":false,"split24":false,"pps":false}
2017-11-15 18:39:20 1510789160.329688: $GPZDA,233919.00,15,11,2017,00,00*65
2017-11-15 18:39:20 1510789160.329854: $GPGGA,233919,3946.9487,N,08404.9560,W,1,08,1.00,302.77,M,-33.324,M,,*7B
2017-11-15 18:39:20 1510789160.329916: $GPRMC,233919,A,3946.9487,N,08404.9560,W,1.3954,64.414,151117,,*0F
2017-11-15 18:39:20 1510789160.329972: $GPGSA,A,3,25,14,22,32,31,3,10,26,,,,,3.4,1.0,2.9*08
2017-11-15 18:39:21 1510789161.699986: $GPGSV,3,1,11,25,34,055,17,14,68,046,14,22,41,301,19,32,54,082,18*7D
2017-11-15 18:39:21 1510789161.700129: $GPGSV,3,2,11,31,79,291,23,03,22,315,12,10,20,157,06,26,27,178,20*73
2017-11-15 18:39:21 1510789161.700188: $GPGSV,3,3,11,01,18,273,00,12,05,031,00,120,07,103,00*75
2017-11-15 18:39:21 1510789161.813295: $GPZDA,233920.00,15,11,2017,00,00*6F
2017-11-15 18:39:21 1510789161.813464: $GPGGA,233920,3946.9491,N,08404.9560,W,1,07,1.00,303.41,M,-33.324,M,,*7D
2017-11-15 18:39:21 1510789161.813526: $GPRMC,233920,A,3946.9491,N,08404.9560,W,1.2621,39.347,151117,,*07
2017-11-15 18:39:21 1510789161.813582: $GPGSA,A,3,25,14,22,32,31,3,26,,,,,,3.4,1.0,2.9*09
2017-11-15 18:39:22 1510789162.364508: $GPZDA,233921.00,15,11,2017,00,00*6E
2017-11-15 18:39:22 1510789162.364669: $GPGGA,233921,3946.9490,N,08404.9553,W,1,07,1.00,303.49,M,-33.324,M,,*75
2017-11-15 18:39:22 1510789162.364730: $GPRMC,233921,A,3946.9490,N,08404.9553,W,1.0018,50.691,151117,,*08
2017-11-15 18:39:22 1510789162.364786: $GPGSA,A,3,25,14,22,32,31,3,26,,,,,,3.4,1.0,2.9*09
2017-11-15 18:39:23 1510789163.364143: $GPZDA,233922.00,15,11,2017,00,00*6D
2017-11-15 18:39:23 1510789163.364306: $GPGGA,233922,3946.9494,N,08404.9553,W,1,07,1.00,304.13,M,-33.324,M,,*7A
2017-11-15 18:39:23 1510789163.364367: $GPRMC,233922,A,3946.9494,N,08404.9553,W,1.1294,43.341,151117,,*02
2017-11-15 18:39:23 1510789163.364422: $GPGSA,A,3,25,14,22,32,31,3,26,,,,,,3.4,1.0,2.9*09
2017-11-15 18:39:24 1510789164.665817: $GPGSV,3,1,11,25,34,055,17,14,68,046,14,22,41,301,20,32,54,082,18*77
2017-11-15 18:39:24 1510789164.665987: $GPGSV,3,2,11,31,79,291,23,03,22,315,09,10,20,157,08,26,27,178,20*77
2017-11-15 18:39:24 1510789164.666047: $GPGSV,3,3,11,01,18,273,00,12,05,031,00,120,07,103,00*75
2017-11-15 18:39:24 1510789164.779162: $GPZDA,233923.00,15,11,2017,00,00*6C
2017-11-15 18:39:24 1510789164.779324: $GPGGA,233923,3946.9494,N,08404.9553,W,1,08,1.20,304.13,M,-33.324,M,,*76
2017-11-15 18:39:24 1510789164.779384: $GPRMC,233923,A,3946.9494,N,08404.9553,W,0.7103,45.706,151117,,*08
2017-11-15 18:39:24 1510789164.779440: $GPGSA,A,3,25,14,22,32,31,3,10,26,,,,,3.4,1.2,2.9*0A
2017-11-15 18:39:25 1510789165.331324: $GPZDA,233924.00,15,11,2017,00,00*6B
2017-11-15 18:39:25 1510789165.331485: $GPGGA,233924,3946.9499,N,08404.9553,W,1,08,1.20,304.77,M,-33.324,M,,*7E
2017-11-15 18:39:25 1510789165.331548: $GPRMC,233924,A,3946.9499,N,08404.9553,W,0.9929,32.499,151117,,*09
2017-11-15 18:39:25 1510789165.331605: $GPGSA,A,3,25,14,22,32,31,3,10,26,,,,,3.4,1.2,2.9*0A
2017-11-15 18:39:26 1510789166.330507: $GPZDA,233925.00,15,11,2017,00,00*6A
2017-11-15 18:39:26 1510789166.330674: $GPGGA,233925,3946.9498,N,08404.9546,W,1,08,1.00,304.85,M,-33.324,M,,*75
2017-11-15 18:39:26 1510789166.330735: $GPRMC,233925,A,3946.9498,N,08404.9546,W,1.0298,74.382,151117,,*0B
2017-11-15 18:39:26 1510789166.330790: $GPGSA,A,3,25,14,22,32,31,3,10,26,,,,,3.4,1.0,2.9*08
2017-11-15 18:39:27 1510789167.699996: $GPGSV,3,1,11,25,34,055,17,14,68,046,14,22,41,301,20,32,54,082,18*77
2017-11-15 18:39:27 1510789167.700138: $GPGSV,3,2,11,31,79,291,22,03,22,315,09,10,20,157,08,26,27,178,20*76
2017-11-15 18:39:27 1510789167.700257: $GPGSV,3,3,11,01,18,273,00,12,05,031,00,120,07,103,00*75
2017-11-15 18:39:27 1510789167.813614: $GPZDA,233926.00,15,11,2017,00,00*69
2017-11-15 18:39:27 1510789167.813770: $GPGGA,233926,3946.9498,N,08404.9539,W,1,08,1.20,304.93,M,-33.324,M,,*7B
2017-11-15 18:39:27 1510789167.813830: $GPRMC,233926,A,3946.9498,N,08404.9539,W,1.3954,64.414,151117,,*01
2017-11-15 18:39:27 1510789167.813886: $GPGSA,A,3,25,14,22,32,31,3,10,26,,,,,3.4,1.2,2.9*0A
2017-11-15 18:39:28 1510789168.332057: $GPZDA,233927.00,15,11,2017,00,00*68
2017-11-15 18:39:28 1510789168.332221: $GPGGA,233927,3946.9505,N,08404.9538,W,1,08,1.00,304.81,M,-33.324,M,,*7F
2017-11-15 18:39:28 1510789168.332281: $GPRMC,233927,A,3946.9505,N,08404.9538,W,1.2621,39.347,151117,,*01
2017-11-15 18:39:28 1510789168.332337: $GPGSA,A,3,25,14,22,32,31,3,10,26,,,,,3.4,1.0,2.9*08
2017-11-15 18:39:29 1510789169.334100: $GPZDA,233928.00,15,11,2017,00,00*67
2017-11-15 18:39:29 1510789169.334270: $GPGGA,233928,3946.9510,N,08404.9538,W,1,08,1.20,305.45,M,-33.324,M,,*7F
2017-11-15 18:39:29 1510789169.334330: $GPRMC,233928,A,3946.9510,N,08404.9538,W,1.5738,12.547,151117,,*0B
2017-11-15 18:39:29 1510789169.334386: $GPGSA,A,3,25,14,22,32,31,3,10,26,,,,,3.4,1.2,2.9*0A
2017-11-15 18:39:30 1510789170.700893: $GPGSV,3,1,10,25,34,055,17,14,68,046,15,22,41,301,20,32,54,082,18*77
2017-11-15 18:39:30 1510789170.701103: $GPGSV,3,2,10,31,79,291,22,03,22,315,08,10,20,157,08,26,27,178,20*76
2017-11-15 18:39:30 1510789170.701163: $GPGSV,3,3,10,01,18,273,00,120,07,103,00*40
2017-11-15 18:39:30 1510789170.814493: $GPZDA,233929.00,15,11,2017,00,00*66
2017-11-15 18:39:30 1510789170.814650: $GPGGA,233929,3946.9510,N,08404.9538,W,1,08,1.00,305.45,M,-33.324,M,,*7C
2017-11-15 18:39:30 1510789170.814711: $GPRMC,233929,A,3946.9510,N,08404.9538,W,1.5555,3.693,151117,,*39
2017-11-15 18:39:30 1510789170.814766: $GPGSA,A,3,25,14,22,32,31,3,10,26,,,,,3.4,1.0,2.9*08
2017-11-15 18:39:31 1510789171.439510: $GPZDA,233930.00,15,11,2017,00,00*6E
2017-11-15 18:39:31 1510789171.439670: $GPGGA,233930,3946.9517,N,08404.9538,W,1,08,1.00,305.32,M,-33.324,M,,*73
2017-11-15 18:39:31 1510789171.439730: $GPRMC,233930,A,3946.9517,N,08404.9538,W,1.5746,354.845,151117,,*32
2017-11-15 18:39:31 1510789171.439786: $GPGSA,A,3,25,14,22,32,31,3,10,26,,,,,3.4,1.0,2.9*08
2017-11-15 18:39:32 1510789172.329792: $GPZDA,233931.00,15,11,2017,00,00*6F
2017-11-15 18:39:32 1510789172.329960: $GPGGA,233931,3946.9525,N,08404.9537,W,1,08,1.20,305.20,M,-33.324,M,,*7D
2017-11-15 18:39:32 1510789172.330021: $GPRMC,233931,A,3946.9525,N,08404.9537,W,1.9131,11.058,151117,,*01
2017-11-15 18:39:32 1510789172.330077: $GPGSA,A,3,25,14,22,32,31,3,10,26,,,,,3.4,1.2,2.9*0A
2017-11-15 18:39:32 1510789172.330129: $GPGBS,233931,13.59,M,20.35,M,67.34,M*0B
2017-11-15 18:39:33 1510789173.665601: $GPGSV,3,1,12,25,33,054,17,14,68,049,16,22,41,300,20,32,53,084,17*70
2017-11-15 18:39:33 1510789173.665772: $GPGSV,3,2,12,31,79,298,22,03,23,315,06,29,01,090,17,10,18,157,08*71
2017-11-15 18:39:33 1510789173.665831: $GPGSV,3,3,12,26,29,178,20,01,17,271,00,12,04,031,00,120,07,103,00*49
2017-11-15 18:39:33 1510789173.778909: $GPZDA,233932.00,15,11,2017,00,00*6C
2017-11-15 18:39:33 1510789173.779071: $GPGGA,233932,3946.9529,N,08404.9537,W,1,08,1.20,305.84,M,-33.324,M,,*7C
2017-11-15 18:39:33 1510789173.779132: $GPRMC,233932,A,3946.9529,N,08404.9537,W,1.7157,28.752,151117,,*07
2017-11-15 18:39:33 1510789173.779205: $GPGSA,A,3,25,14,22,32,31,29,10,26,,,,,3.4,1.2,2.9*32
2017-11-15 18:39:34 1510789174.329751: $GPZDA,233933.00,15,11,2017,00,00*6D
2017-11-15 18:39:34 1510789174.329915: $GPGGA,233933,3946.9537,N,08404.9536,W,1,08,1.20,305.71,M,-33.324,M,,*79
2017-11-15 18:39:34 1510789174.329976: $GPRMC,233933,A,3946.9537,N,08404.9536,W,1.6283,21.001,151117,,*0B
2017-11-15 18:39:34 1510789174.330032: $GPGSA,A,3,25,14,22,32,31,29,10,26,,,,,3.4,1.2,2.9*32
