2017-12-14 12:18:58 1513271938.042113: {"class":"VERSION","release":"3.16","rev":"3.16-4","proto_major":3,"proto_minor":11}
2017-12-14 12:18:58 1513271938.042517: {"class":"DEVICES","devices":[{"class":"DEVICE","path":"/dev/ttyUSB0","driver":"SiRF","subtype":"9\u0006GSD4e_4.1.2-P1_RPATCH.05-F-GPS-4R-1510281 11/03/2015 307","activated":"2017-12-14T17:18:57.747Z","flags":1,"native":1,"bps":4800,"parity":"N","stopbits":1,"cycle":1.00}]}
2017-12-14 12:18:58 1513271938.042638: {"class":"WATCH","enable":true,"json":false,"nmea":true,"raw":0,"scaled":false,"timing":false,"split24":false,"pps":false}
2017-12-14 12:18:59 1513271939.470135: $GPRMC,171900,V,18000.0000,N,00000.0000,W,0.0000,0.000,141217,,*1F
2017-12-14 12:18:59 1513271939.470317: $GPGSA,A,1,21,15,18,20,24,27,32,,,,,,,,,*3C
2017-12-14 12:19:00 1513271940.436683: $GPRMC,171901,V,3946.9490,N,08404.9260,W,0.0000,0.000,141217,,*2E
2017-12-14 12:19:00 1513271940.436885: $GPGSA,A,1,21,15,18,20,24,27,32,,,,,,,,,*3C
2017-12-14 12:19:01 1513271941.028939: $GPGSV,3,1,11,15,37,052,06,20,34,096,02,24,51,109,08,32,21,238,06*7D
2017-12-14 12:19:01 1513271941.029120: $GPGSV,3,2,11,21,62,187,22,18,71,339,00,10,42,301,00,27,19,289,00*7C
2017-12-14 12:19:01 1513271941.029186: $GPGSV,3,3,11,13,07,048,00,08,06,322,00,14,04,232,00*4F
2017-12-14 12:19:01 1513271941.140140: $GPRMC,171901,V,3946.9468,N,08404.9295,W,1.0002,334.332,141217,,*26
2017-12-14 12:19:01 1513271941.140372: $GPGSA,A,1,15,20,24,32,21,,,,,,,,,,,*30
2017-12-14 12:19:01 1513271941.692661: $GPRMC,171902,V,3946.9471,N,08404.9314,W,2.3248,343.122,141217,,*2A
2017-12-14 12:19:01 1513271941.692840: $GPGSA,A,1,15,20,24,32,21,,,,,,,,,,,*30
2017-12-14 12:19:01 1513271941.948890: $GPZDA,171902.46,14,12,2017,00,00*6A
2017-12-14 12:19:01 1513271941.949082: $GPGGA,171902,3946.9473,N,08404.9312,W,1,05,2.40,335.52,M,-33.324,M,,*75
2017-12-14 12:19:01 1513271941.949155: $GPRMC,171902,A,3946.9473,N,08404.9312,W,3.1566,348.583,141217,,*35
2017-12-14 12:19:01 1513271941.949221: $GPGSA,A,3,15,20,24,32,21,,,,,,,,6.6,2.4,6.2*32
2017-12-14 12:19:01 1513271941.949278: $GPGBS,171902,24.66,M,21.80,M,143.40,M*3D
2017-12-14 12:19:02 1513271942.712172: $GPGSV,3,1,12,15,37,052,22,20,34,096,16,24,51,109,28,32,21,238,19*71
2017-12-14 12:19:02 1513271942.712350: $GPGSV,3,2,12,21,62,187,31,18,71,339,08,27,19,289,02,10,42,301,00*77
2017-12-14 12:19:02 1513271942.712415: $GPGSV,3,3,12,13,07,048,00,08,06,322,00,14,04,232,00,138,38,213,00*4D
2017-12-14 12:19:02 1513271942.825485: $GPZDA,171903.00,14,12,2017,00,00*69
2017-12-14 12:19:02 1513271942.825659: $GPGGA,171903,3946.9464,N,08404.9311,W,1,06,2.40,332.84,M,-33.324,M,,*7E
2017-12-14 12:19:02 1513271942.825744: $GPRMC,171903,A,3946.9464,N,08404.9311,W,1.7834,10.234,141217,,*0A
2017-12-14 12:19:02 1513271942.825807: $GPGSA,A,3,15,20,24,32,21,18,,,,,,,6.6,2.4,6.2*3B
2017-12-14 12:19:03 1513271943.194426: $GPZDA,171904.00,14,12,2017,00,00*6E
2017-12-14 12:19:03 1513271943.194596: $GPGGA,171904,3946.9466,N,08404.9309,W,1,06,1.80,329.27,M,-33.324,M,,*7E
2017-12-14 12:19:03 1513271943.194663: $GPRMC,171904,A,3946.9466,N,08404.9309,W,0.8324,74.022,141217,,*05
2017-12-14 12:19:03 1513271943.194726: $GPGSA,A,3,15,20,24,32,21,18,,,,,,,6.6,1.8,6.2*34
2017-12-14 12:19:04 1513271944.193369: $GPZDA,171905.00,14,12,2017,00,00*6F
2017-12-14 12:19:04 1513271944.193529: $GPGGA,171905,3946.9473,N,08404.9315,W,1,06,1.80,327.66,M,-33.324,M,,*7D
2017-12-14 12:19:04 1513271944.193598: $GPRMC,171905,A,3946.9473,N,08404.9315,W,0.3026,105.366,141217,,*33
2017-12-14 12:19:04 1513271944.193659: $GPGSA,A,3,15,20,24,32,21,18,,,,,,,6.6,1.8,6.2*34
2017-12-14 12:19:05 1513271945.529293: $GPGSV,3,1,12,15,37,052,23,20,34,096,17,24,51,109,29,32,21,238,20*7A
2017-12-14 12:19:05 1513271945.529451: $GPGSV,3,2,12,21,62,187,31,18,71,339,00,27,19,289,14,10,42,301,13*7A
2017-12-14 12:19:05 1513271945.529516: $GPGSV,3,3,12,13,07,048,00,08,06,322,00,14,04,232,00,138,38,213,00*4D
2017-12-14 12:19:05 1513271945.641972: $GPZDA,171906.00,14,12,2017,00,00*6C
2017-12-14 12:19:05 1513271945.642264: $GPGGA,171906,3946.9479,N,08404.9312,W,1,07,1.80,324.73,M,-33.324,M,,*75
2017-12-14 12:19:05 1513271945.642410: $GPRMC,171906,A,3946.9479,N,08404.9312,W,0.2202,173.468,141217,,*30
2017-12-14 12:19:05 1513271945.642476: $GPGSA,A,3,15,20,24,32,21,27,10,,,,,,6.6,1.8,6.2*39
2017-12-14 12:19:06 1513271946.195768: $GPZDA,171907.00,14,12,2017,00,00*6D
2017-12-14 12:19:06 1513271946.195946: $GPGGA,171907,3946.9482,N,08404.9318,W,1,07,1.80,322.48,M,-33.324,M,,*74
2017-12-14 12:19:06 1513271946.196013: $GPRMC,171907,A,3946.9482,N,08404.9318,W,0.7794,178.158,141217,,*3D
2017-12-14 12:19:06 1513271946.196076: $GPGSA,A,3,15,20,24,32,21,27,10,,,,,,6.6,1.8,6.2*39
2017-12-14 12:19:07 1513271947.197561: $GPZDA,171908.00,14,12,2017,00,00*62
2017-12-14 12:19:07 1513271947.197734: $GPGGA,171908,3946.9481,N,08404.9324,W,1,07,1.80,319.59,M,-33.324,M,,*7F
2017-12-14 12:19:07 1513271947.197825: $GPRMC,171908,A,3946.9481,N,08404.9324,W,1.1569,190.793,141217,,*3E
2017-12-14 12:19:07 1513271947.197888: $GPGSA,A,3,15,20,24,32,21,27,10,,,,,,6.6,1.8,6.2*39
2017-12-14 12:19:08 1513271948.532721: $GPGSV,3,1,12,15,37,052,23,20,34,096,18,24,51,109,29,32,21,238,20*75
2017-12-14 12:19:08 1513271948.532919: $GPGSV,3,2,12,21,62,187,31,18,71,339,00,27,19,289,14,10,42,301,12*7B
2017-12-14 12:19:08 1513271948.532991: $GPGSV,3,3,12,13,07,048,00,08,06,322,00,14,04,232,00,138,38,213,00*4D
2017-12-14 12:19:08 1513271948.645911: $GPZDA,171909.00,14,12,2017,00,00*63
2017-12-14 12:19:08 1513271948.646072: $GPGGA,171909,3946.9480,N,08404.9322,W,1,07,1.80,316.78,M,-33.324,M,,*75
2017-12-14 12:19:08 1513271948.646139: $GPRMC,171909,A,3946.9480,N,08404.9322,W,1.0585,204.163,141217,,*3C
2017-12-14 12:19:08 1513271948.646201: $GPGSA,A,3,15,20,24,32,21,27,10,,,,,,6.6,1.8,6.2*39
2017-12-14 12:19:09 1513271949.196038: $GPZDA,171910.00,14,12,2017,00,00*6B
2017-12-14 12:19:09 1513271949.196207: $GPGGA,171910,3946.9479,N,08404.9314,W,1,07,1.80,315.46,M,-33.324,M,,*70
2017-12-14 12:19:09 1513271949.196293: $GPRMC,171910,A,3946.9479,N,08404.9314,W,1.5261,179.059,141217,,*3E
2017-12-14 12:19:09 1513271949.196356: $GPGSA,A,3,15,20,24,32,21,27,10,,,,,,6.6,1.8,6.2*39
2017-12-14 12:19:10 1513271950.198574: $GPZDA,171911.00,14,12,2017,00,00*6A
2017-12-14 12:19:10 1513271950.198783: $GPGGA,171911,3946.9482,N,08404.9314,W,1,07,1.80,314.69,M,-33.324,M,,*79
2017-12-14 12:19:10 1513271950.198867: $GPRMC,171911,A,3946.9482,N,08404.9314,W,1.0550,163.943,141217,,*32
2017-12-14 12:19:10 1513271950.198929: $GPGSA,A,3,15,20,24,32,21,27,10,,,,,,6.6,1.8,6.2*39
2017-12-14 12:19:11 1513271951.532314: $GPGSV,3,1,12,15,37,052,23,20,34,096,18,24,51,109,29,32,21,238,20*75
2017-12-14 12:19:11 1513271951.532490: $GPGSV,3,2,12,21,62,187,31,18,71,339,16,27,19,289,14,10,42,301,12*7C
2017-12-14 12:19:11 1513271951.532557: $GPGSV,3,3,12,13,07,048,00,08,06,322,00,14,04,232,00,138,38,213,00*4D
2017-12-14 12:19:11 1513271951.646160: $GPZDA,171912.00,14,12,2017,00,00*69
2017-12-14 12:19:11 1513271951.646450: $GPGGA,171912,3946.9475,N,08404.9321,W,1,08,1.80,314.74,M,-33.324,M,,*77
2017-12-14 12:19:11 1513271951.646582: $GPRMC,171912,A,3946.9475,N,08404.9321,W,1.5625,162.943,141217,,*3A
2017-12-14 12:19:11 1513271951.646738: $GPGSA,A,3,15,20,24,32,21,18,27,10,,,,,6.6,1.8,6.2*30
2017-12-14 12:19:12 1513271952.195451: $GPZDA,171913.00,14,12,2017,00,00*68
2017-12-14 12:19:12 1513271952.195620: $GPGGA,171913,3946.9479,N,08404.9321,W,1,08,1.80,315.38,M,-33.324,M,,*73
2017-12-14 12:19:12 1513271952.195708: $GPRMC,171913,A,3946.9479,N,08404.9321,W,0.7469,180.000,141217,,*3C
2017-12-14 12:19:12 1513271952.195771: $GPGSA,A,3,15,20,24,32,21,18,27,10,,,,,6.6,1.8,6.2*30
2017-12-14 12:19:13 1513271953.194192: $GPZDA,171914.00,14,12,2017,00,00*6F
2017-12-14 12:19:13 1513271953.194365: $GPGGA,171914,3946.9474,N,08404.9321,W,1,08,1.80,313.33,M,-33.324,M,,*74
2017-12-14 12:19:13 1513271953.194431: $GPRMC,171914,A,3946.9474,N,08404.9321,W,1.4380,211.441,141217,,*3E
2017-12-14 12:19:13 1513271953.194492: $GPGSA,A,3,15,20,24,32,21,18,27,10,,,,,6.6,1.8,6.2*30
2017-12-14 12:19:14 1513271954.531614: $GPGSV,3,1,12,15,37,052,23,20,34,096,18,24,51,109,30,32,21,238,20*7D
2017-12-14 12:19:14 1513271954.531867: $GPGSV,3,2,12,21,62,187,31,18,71,339,00,27,19,289,14,10,42,301,04*7C
2017-12-14 12:19:14 1513271954.531951: $GPGSV,3,3,12,13,07,048,00,08,06,322,00,14,04,232,00,138,38,213,00*4D
2017-12-14 12:19:14 1513271954.645052: $GPZDA,171915.00,14,12,2017,00,00*6E
2017-12-14 12:19:14 1513271954.645217: $GPGGA,171915,3946.9473,N,08404.9320,W,1,06,1.80,311.93,M,-33.324,M,,*75
2017-12-14 12:19:14 1513271954.645283: $GPRMC,171915,A,3946.9473,N,08404.9320,W,0.7238,219.288,141217,,*32
2017-12-14 12:19:14 1513271954.645343: $GPGSA,A,3,15,20,24,32,21,27,,,,,,,6.6,1.8,6.2*38
2017-12-14 12:19:15 1513271955.195180: $GPZDA,171916.00,14,12,2017,00,00*6D
2017-12-14 12:19:15 1513271955.197908: $GPGGA,171916,3946.9481,N,08404.9326,W,1,06,1.80,311.72,M,-33.324,M,,*72
2017-12-14 12:19:15 1513271955.198019: $GPRMC,171916,A,3946.9481,N,08404.9326,W,0.6708,130.718,141217,,*39
2017-12-14 12:19:15 1513271955.198083: $GPGSA,A,3,15,20,24,32,21,27,,,,,,,6.6,1.8,6.2*38
2017-12-14 12:19:16 1513271956.195375: $GPZDA,171917.00,14,12,2017,00,00*6C
2017-12-14 12:19:16 1513271956.195572: $GPGGA,171917,3946.9481,N,08404.9326,W,1,06,1.80,311.72,M,-33.324,M,,*73
2017-12-14 12:19:16 1513271956.195643: $GPRMC,171917,A,3946.9481,N,08404.9326,W,0.8003,162.423,141217,,*36
2017-12-14 12:19:16 1513271956.195706: $GPGSA,A,3,15,20,24,32,21,27,,,,,,,6.6,1.8,6.2*38
2017-12-14 12:19:17 1513271957.530879: $GPGSV,3,1,12,15,37,052,23,20,34,096,18,24,51,109,30,32,21,238,19*77
2017-12-14 12:19:17 1513271957.531056: $GPGSV,3,2,12,21,62,187,30,18,71,339,00,27,19,289,14,10,42,301,04*7D
2017-12-14 12:19:17 1513271957.531123: $GPGSV,3,3,12,13,07,048,00,08,06,322,00,14,04,232,00,138,38,213,00*4D
2017-12-14 12:19:17 1513271957.644239: $GPZDA,171918.00,14,12,2017,00,00*63
2017-12-14 12:19:17 1513271957.644394: $GPGGA,171918,3946.9476,N,08404.9318,W,1,06,1.80,309.76,M,-33.324,M,,*74
2017-12-14 12:19:17 1513271957.644463: $GPRMC,171918,A,3946.9476,N,08404.9318,W,0.9863,130.486,141217,,*3B
2017-12-14 12:19:17 1513271957.644526: $GPGSA,A,3,15,20,24,32,21,27,,,,,,,6.6,1.8,6.2*38
