2017-12-14 11:50:55 1513270255.042152: {"class":"VERSION","release":"3.16","rev":"3.16-4","proto_major":3,"proto_minor":11}
2017-12-14 11:50:55 1513270255.042521: {"class":"DEVICES","devices":[{"class":"DEVICE","path":"/dev/ttyUSB0","driver":"SiRF","subtype":"9\u0006GSD4e_4.1.2-P1_RPATCH.05-F-GPS-4R-1510281 11/03/2015 307","activated":"2017-12-14T16:50:54.506Z","flags":1,"native":1,"bps":4800,"parity":"N","stopbits":1,"cycle":1.00}]}
2017-12-14 11:50:55 1513270255.042644: {"class":"WATCH","enable":true,"json":false,"nmea":true,"raw":0,"scaled":false,"timing":false,"split24":false,"pps":false}
2017-12-14 11:50:55 1513270255.217955: $GPZDA,165056.00,14,12,2017,00,00*65
2017-12-14 11:50:55 1513270255.218142: $GPGGA,165056,3946.9435,N,08404.9504,W,1,05,1.80,370.49,M,-33.324,M,,*7F
2017-12-14 11:50:55 1513270255.218215: $GPRMC,165056,A,3946.9435,N,08404.9504,W,0.3690,160.159,141217,,*3B
2017-12-14 11:50:55 1513270255.218281: $GPGSA,A,3,15,24,20,10,18,,,,,,,,6.6,1.8,6.2*37
2017-12-14 11:50:55 1513270255.218337: $GPGBS,165056,24.66,M,21.80,M,143.40,M*30
2017-12-14 11:50:56 1513270256.552610: $GPGSV,3,1,11,15,49,049,28,24,43,127,28,20,43,084,26,10,32,292,20*7C
2017-12-14 11:50:56 1513270256.552804: $GPGSV,3,2,11,18,63,315,13,08,01,331,09,21,75,207,18,27,19,301,13*70
2017-12-14 11:50:56 1513270256.552875: $GPGSV,3,3,11,13,18,046,00,32,11,231,00,138,38,213,00*70
2017-12-14 11:50:56 1513270256.665957: $GPZDA,165057.00,14,12,2017,00,00*64
2017-12-14 11:50:56 1513270256.666111: $GPGGA,165057,3946.9438,N,08404.9496,W,1,07,1.80,369.80,M,-33.324,M,,*76
2017-12-14 11:50:56 1513270256.666178: $GPRMC,165057,A,3946.9438,N,08404.9496,W,0.6383,107.547,141217,,*35
2017-12-14 11:50:56 1513270256.666240: $GPGSA,A,3,15,24,20,10,18,21,27,,,,,,6.6,1.8,6.2*31
2017-12-14 11:50:57 1513270257.216083: $GPZDA,165058.00,14,12,2017,00,00*6B
2017-12-14 11:50:57 1513270257.216266: $GPGGA,165058,3946.9436,N,08404.9488,W,1,07,1.80,367.07,M,-33.324,M,,*79
2017-12-14 11:50:57 1513270257.216333: $GPRMC,165058,A,3946.9436,N,08404.9488,W,1.3447,125.700,141217,,*31
2017-12-14 11:50:57 1513270257.216395: $GPGSA,A,3,15,24,20,10,18,21,27,,,,,,6.6,1.8,6.2*31
2017-12-14 11:50:58 1513270258.215705: $GPZDA,165059.00,14,12,2017,00,00*6A
2017-12-14 11:50:58 1513270258.215863: $GPGGA,165059,3946.9439,N,08404.9486,W,1,07,1.80,364.91,M,-33.324,M,,*75
2017-12-14 11:50:58 1513270258.215928: $GPRMC,165059,A,3946.9439,N,08404.9486,W,0.7422,112.889,141217,,*3D
2017-12-14 11:50:58 1513270258.215989: $GPGSA,A,3,15,24,20,10,18,21,27,,,,,,6.6,1.8,6.2*31
2017-12-14 11:50:59 1513270259.551902: $GPGSV,3,1,11,15,49,049,28,24,43,127,28,20,43,084,26,10,32,292,20*7C
2017-12-14 11:50:59 1513270259.552133: $GPGSV,3,2,11,18,63,315,00,13,18,046,00,21,75,207,19,27,19,301,12*7A
2017-12-14 11:50:59 1513270259.552210: $GPGSV,3,3,11,32,11,231,00,08,01,331,00,138,38,213,00*71
2017-12-14 11:50:59 1513270259.665256: $GPZDA,165100.00,14,12,2017,00,00*67
2017-12-14 11:50:59 1513270259.665436: $GPGGA,165100,3946.9435,N,08404.9486,W,1,06,1.80,364.27,M,-33.324,M,,*78
2017-12-14 11:50:59 1513270259.665503: $GPRMC,165100,A,3946.9435,N,08404.9486,W,0.4504,100.999,141217,,*39
2017-12-14 11:50:59 1513270259.665563: $GPGSA,A,3,15,24,20,10,21,27,,,,,,,6.6,1.8,6.2*38
2017-12-14 11:51:00 1513270260.215477: $GPZDA,165101.00,14,12,2017,00,00*66
2017-12-14 11:51:00 1513270260.215654: $GPGGA,165101,3946.9435,N,08404.9479,W,1,06,1.80,364.34,M,-33.324,M,,*7B
2017-12-14 11:51:00 1513270260.215723: $GPRMC,165101,A,3946.9435,N,08404.9479,W,1.1224,57.875,141217,,*09
2017-12-14 11:51:00 1513270260.215784: $GPGSA,A,3,15,24,20,10,21,27,,,,,,,6.6,1.8,6.2*38
2017-12-14 11:51:01 1513270261.214286: $GPZDA,165102.00,14,12,2017,00,00*65
2017-12-14 11:51:01 1513270261.214451: $GPGGA,165102,3946.9434,N,08404.9479,W,1,06,1.80,362.94,M,-33.324,M,,*75
2017-12-14 11:51:01 1513270261.214518: $GPRMC,165102,A,3946.9434,N,08404.9479,W,0.2301,49.662,141217,,*08
2017-12-14 11:51:01 1513270261.214580: $GPGSA,A,3,15,24,20,10,21,27,,,,,,,6.6,1.8,6.2*38
2017-12-14 11:51:02 1513270262.550706: $GPGSV,3,1,11,15,49,049,29,24,43,127,28,20,43,084,26,10,32,292,20*7D
2017-12-14 11:51:02 1513270262.550972: $GPGSV,3,2,11,18,63,315,00,13,18,046,00,21,75,207,19,27,19,301,11*79
2017-12-14 11:51:02 1513270262.551042: $GPGSV,3,3,11,32,11,231,00,08,01,331,00,138,38,213,00*71
2017-12-14 11:51:02 1513270262.663907: $GPZDA,165103.00,14,12,2017,00,00*64
2017-12-14 11:51:02 1513270262.664088: $GPGGA,165103,3946.9434,N,08404.9479,W,1,06,1.80,362.94,M,-33.324,M,,*74
2017-12-14 11:51:02 1513270262.664159: $GPRMC,165103,A,3946.9434,N,08404.9479,W,0.6560,39.477,141217,,*0D
2017-12-14 11:51:02 1513270262.664223: $GPGSA,A,3,15,24,20,10,21,27,,,,,,,6.6,1.8,6.2*38
2017-12-14 11:51:03 1513270263.214770: $GPZDA,165104.00,14,12,2017,00,00*63
2017-12-14 11:51:03 1513270263.214941: $GPGGA,165104,3946.9433,N,08404.9478,W,1,06,1.80,361.54,M,-33.324,M,,*7A
2017-12-14 11:51:03 1513270263.215007: $GPRMC,165104,A,3946.9433,N,08404.9478,W,0.3787,27.585,141217,,*01
2017-12-14 11:51:03 1513270263.215068: $GPGSA,A,3,15,24,20,10,21,27,,,,,,,6.6,1.8,6.2*38
2017-12-14 11:51:04 1513270264.214889: $GPZDA,165105.00,14,12,2017,00,00*62
2017-12-14 11:51:04 1513270264.215084: $GPGGA,165105,3946.9433,N,08404.9478,W,1,06,1.80,361.54,M,-33.324,M,,*7B
2017-12-14 11:51:04 1513270264.215151: $GPRMC,165105,A,3946.9433,N,08404.9478,W,0.5425,352.976,141217,,*3C
2017-12-14 11:51:04 1513270264.215216: $GPGSA,A,3,15,24,20,10,21,27,,,,,,,6.6,1.8,6.2*38
2017-12-14 11:51:05 1513270265.551114: $GPGSV,3,1,11,15,49,049,29,24,43,127,28,20,43,084,25,10,32,292,20*7E
2017-12-14 11:51:05 1513270265.963720: $GPGSV,3,2,11,18,63,315,00,27,19,301,00,21,75,207,20,13,18,046,00*73
2017-12-14 11:51:05 1513270265.963921: $GPGSV,3,3,11,32,11,231,00,08,01,331,00,138,38,213,00*71
2017-12-14 11:51:05 1513270265.964040: $GPZDA,165106.00,14,12,2017,00,00*61
2017-12-14 11:51:05 1513270265.964104: $GPGGA,165106,3946.9441,N,08404.9477,W,1,05,1.80,361.41,M,-33.324,M,,*75
2017-12-14 11:51:05 1513270265.964169: $GPRMC,165106,A,3946.9441,N,08404.9477,W,0.8867,13.063,141217,,*09
2017-12-14 11:51:05 1513270265.964231: $GPGSA,A,3,15,24,20,10,21,,,,,,,,6.6,1.8,6.2*3D
2017-12-14 11:51:06 1513270266.320007: $GPZDA,165107.00,14,12,2017,00,00*60
2017-12-14 11:51:06 1513270266.320231: $GPGGA,165107,3946.9440,N,08404.9476,W,1,05,1.80,360.01,M,-33.324,M,,*71
2017-12-14 11:51:06 1513270266.320303: $GPRMC,165107,A,3946.9440,N,08404.9476,W,0.7952,33.776,141217,,*01
2017-12-14 11:51:06 1513270266.320366: $GPGSA,A,3,15,24,20,10,21,,,,,,,,6.6,1.8,6.2*3D
2017-12-14 11:51:06 1513270266.320447: $GPGBS,165107,24.66,M,21.80,M,143.40,M*35
2017-12-14 11:51:07 1513270267.216191: $GPZDA,165108.00,14,12,2017,00,00*6F
2017-12-14 11:51:07 1513270267.216353: $GPGGA,165108,3946.9440,N,08404.9483,W,1,05,1.80,359.93,M,-33.324,M,,*75
2017-12-14 11:51:07 1513270267.216422: $GPRMC,165108,A,3946.9440,N,08404.9483,W,0.2172,335.117,141217,,*3F
2017-12-14 11:51:07 1513270267.216504: $GPGSA,A,3,15,24,20,10,21,,,,,,,,6.6,1.8,6.2*3D
2017-12-14 11:51:08 1513270268.551859: $GPGSV,3,1,11,15,49,049,29,24,43,127,28,20,43,084,25,10,32,292,20*7E
2017-12-14 11:51:08 1513270268.552111: $GPGSV,3,2,11,18,63,315,00,27,19,301,00,21,75,207,20,13,18,046,00*73
2017-12-14 11:51:08 1513270268.552207: $GPGSV,3,3,11,32,11,231,00,08,01,331,00,138,38,213,00*71
2017-12-14 11:51:08 1513270268.665293: $GPZDA,165109.00,14,12,2017,00,00*6E
2017-12-14 11:51:08 1513270268.665437: $GPGGA,165109,3946.9435,N,08404.9483,W,1,05,1.80,357.88,M,-33.324,M,,*72
2017-12-14 11:51:08 1513270268.665505: $GPRMC,165109,A,3946.9435,N,08404.9483,W,0.6702,243.502,141217,,*39
2017-12-14 11:51:08 1513270268.665568: $GPGSA,A,3,15,24,20,10,21,,,,,,,,6.6,1.8,6.2*3D
2017-12-14 11:51:09 1513270269.215411: $GPZDA,165110.00,14,12,2017,00,00*66
2017-12-14 11:51:09 1513270269.215574: $GPGGA,165110,3946.9436,N,08404.9483,W,1,05,1.80,359.29,M,-33.324,M,,*7C
2017-12-14 11:51:09 1513270269.215643: $GPRMC,165110,A,3946.9436,N,08404.9483,W,0.3308,205.323,141217,,*3E
2017-12-14 11:51:09 1513270269.215706: $GPGSA,A,3,15,24,20,10,21,,,,,,,,6.6,1.8,6.2*3D
2017-12-14 11:51:10 1513270270.216774: $GPZDA,165111.00,14,12,2017,00,00*67
2017-12-14 11:51:10 1513270270.217086: $GPGGA,165111,3946.9440,N,08404.9483,W,1,05,1.80,359.93,M,-33.324,M,,*7D
2017-12-14 11:51:10 1513270270.217182: $GPRMC,165111,A,3946.9440,N,08404.9483,W,0.2472,30.450,141217,,*02
2017-12-14 11:51:10 1513270270.217246: $GPGSA,A,3,15,24,20,10,21,,,,,,,,6.6,1.8,6.2*3D
2017-12-14 11:51:11 1513270271.553056: $GPGSV,3,1,11,15,49,049,29,24,43,127,28,20,43,084,24,10,32,292,19*75
2017-12-14 11:51:11 1513270271.553388: $GPGSV,3,2,11,18,63,315,04,27,19,301,00,21,75,207,20,13,18,046,00*77
2017-12-14 11:51:11 1513270271.553511: $GPGSV,3,3,11,32,11,231,00,08,01,331,00,138,38,213,00*71
2017-12-14 11:51:11 1513270271.666461: $GPZDA,165112.00,14,12,2017,00,00*64
2017-12-14 11:51:11 1513270271.666623: $GPGGA,165112,3946.9436,N,08404.9476,W,1,05,1.80,359.37,M,-33.324,M,,*7B
2017-12-14 11:51:11 1513270271.666689: $GPRMC,165112,A,3946.9436,N,08404.9476,W,0.4165,61.766,141217,,*0D
2017-12-14 11:51:11 1513270271.666749: $GPGSA,A,3,15,24,20,10,21,,,,,,,,6.6,1.8,6.2*3D
2017-12-14 11:51:12 1513270272.215259: $GPZDA,165113.00,14,12,2017,00,00*65
2017-12-14 11:51:12 1513270272.215427: $GPGGA,165113,3946.9443,N,08404.9475,W,1,05,1.80,357.84,M,-33.324,M,,*7D
2017-12-14 11:51:12 1513270272.215491: $GPRMC,165113,A,3946.9443,N,08404.9475,W,0.5266,48.102,141217,,*03
2017-12-14 11:51:12 1513270272.215552: $GPGSA,A,3,15,24,20,10,21,,,,,,,,6.6,1.8,6.2*3D
2017-12-14 11:51:13 1513270273.216147: $GPZDA,165114.00,14,12,2017,00,00*62
2017-12-14 11:51:13 1513270273.216314: $GPGGA,165114,3946.9442,N,08404.9468,W,1,05,1.80,357.92,M,-33.324,M,,*70
2017-12-14 11:51:13 1513270273.216380: $GPRMC,165114,A,3946.9442,N,08404.9468,W,0.9446,44.215,141217,,*08
2017-12-14 11:51:13 1513270273.216440: $GPGSA,A,3,15,24,20,10,21,,,,,,,,6.6,1.8,6.2*3D
2017-12-14 11:51:14 1513270274.551059: $GPGSV,3,1,11,15,49,049,29,24,43,127,28,20,43,084,24,10,32,292,19*75
2017-12-14 11:51:14 1513270274.551252: $GPGSV,3,2,11,18,63,315,04,27,19,301,00,21,75,207,20,13,18,046,00*77
2017-12-14 11:51:14 1513270274.551319: $GPGSV,3,3,11,32,11,231,00,08,01,331,00,138,38,213,00*71
2017-12-14 11:51:14 1513270274.664506: $GPZDA,165115.00,14,12,2017,00,00*63
2017-12-14 11:51:14 1513270274.664678: $GPGGA,165115,3946.9446,N,08404.9468,W,1,05,1.80,358.56,M,-33.324,M,,*72
2017-12-14 11:51:14 1513270274.664745: $GPRMC,165115,A,3946.9446,N,08404.9468,W,0.8662,79.020,141217,,*02
2017-12-14 11:51:14 1513270274.664806: $GPGSA,A,3,15,24,20,10,21,,,,,,,,6.6,1.8,6.2*3D
