2017-11-16 15:24:36 1510863876.866367: {"class":"VERSION","release":"3.17","rev":"3.17","proto_major":3,"proto_minor":12}
2017-11-16 15:24:36 1510863876.866837: {"class":"DEVICES","devices":[{"class":"DEVICE","path":"/dev/ttyUSB0","driver":"SiRF","subtype":"9\u0006GSD4e_4.1.2-P1_RPATCH.05-F-GPS-4R-1510281 11/03/2015 307","activated":"2017-11-16T20:24:36.527Z","flags":1,"native":1,"bps":4800,"parity":"N","stopbits":1,"cycle":1.00}]}
2017-11-16 15:24:36 1510863876.866965: {"class":"WATCH","enable":true,"json":false,"nmea":true,"raw":0,"scaled":false,"timing":false,"split24":false,"pps":false}
2017-11-16 15:24:37 1510863877.706099: $GPGSV,3,1,12,08,06,294,36,10,68,330,51,14,28,252,46,15,12,066,30*7B
2017-11-16 15:24:37 1510863877.706275: $GPGSV,3,2,12,18,71,090,48,20,09,117,29,21,30,180,42,24,46,060,51*7F
2017-11-16 15:24:37 1510863877.706335: $GPGSV,3,3,12,27,07,261,24,32,45,264,47,12,08,108,29,138,38,213,44*40
2017-11-16 15:24:37 1510863877.819388: $GPZDA,202436.00,16,11,2017,00,00*64
2017-11-16 15:24:37 1510863877.819558: $GPGGA,202436,3946.9572,N,08404.9866,W,2,12,0.80,308.76,M,-33.324,M,,*73
2017-11-16 15:24:37 1510863877.819619: $GPRMC,202436,A,3946.9572,N,08404.9866,W,0.0000,0.000,161117,,*37
2017-11-16 15:24:37 1510863877.819676: $GPGSA,A,3,8,10,14,15,18,20,21,24,27,32,12,138,1.6,0.8,1.3*34
2017-11-16 15:24:38 1510863878.379355: $GPZDA,202437.00,16,11,2017,00,00*65
2017-11-16 15:24:38 1510863878.379515: $GPGGA,202437,3946.9572,N,08404.9866,W,2,12,0.80,308.76,M,-33.324,M,,*72
2017-11-16 15:24:38 1510863878.379575: $GPRMC,202437,A,3946.9572,N,08404.9866,W,0.0000,0.000,161117,,*36
2017-11-16 15:24:38 1510863878.379631: $GPGSA,A,3,8,10,14,15,18,20,21,24,27,32,12,138,1.6,0.8,1.3*34
2017-11-16 15:24:39 1510863879.384904: $GPZDA,202438.00,16,11,2017,00,00*6A
2017-11-16 15:24:39 1510863879.385070: $GPGGA,202438,3946.9572,N,08404.9866,W,2,12,0.80,308.76,M,-33.324,M,,*7D
2017-11-16 15:24:39 1510863879.385132: $GPRMC,202438,A,3946.9572,N,08404.9866,W,0.0000,0.000,161117,,*39
2017-11-16 15:24:39 1510863879.385189: $GPGSA,A,3,8,10,14,15,18,20,21,24,27,32,12,138,1.6,0.8,1.3*34
2017-11-16 15:24:40 1510863880.705657: $GPGSV,3,1,12,08,06,294,36,10,68,330,50,14,28,252,46,15,12,066,30*7A
2017-11-16 15:24:40 1510863880.705825: $GPGSV,3,2,12,18,71,090,47,20,09,117,30,21,30,180,42,24,46,060,51*78
2017-11-16 15:24:40 1510863880.705885: $GPGSV,3,3,12,27,07,261,24,32,45,264,48,12,08,108,29,138,38,213,45*4E
2017-11-16 15:24:40 1510863880.818919: $GPZDA,202439.00,16,11,2017,00,00*6B
2017-11-16 15:24:40 1510863880.819105: $GPGGA,202439,3946.9572,N,08404.9866,W,2,12,0.80,308.76,M,-33.324,M,,*7C
2017-11-16 15:24:40 1510863880.819189: $GPRMC,202439,A,3946.9572,N,08404.9866,W,0.0000,0.000,161117,,*38
2017-11-16 15:24:40 1510863880.819248: $GPGSA,A,3,8,10,14,15,18,20,21,24,27,32,12,138,1.6,0.8,1.3*34
2017-11-16 15:24:41 1510863881.444302: $GPZDA,202440.00,16,11,2017,00,00*65
2017-11-16 15:24:41 1510863881.444474: $GPGGA,202440,3946.9572,N,08404.9866,W,2,12,0.80,308.76,M,-33.324,M,,*72
2017-11-16 15:24:41 1510863881.444536: $GPRMC,202440,A,3946.9572,N,08404.9866,W,0.0000,0.000,161117,,*36
2017-11-16 15:24:41 1510863881.444593: $GPGSA,A,3,8,10,14,15,18,20,21,24,27,32,12,138,1.6,0.8,1.3*34
2017-11-16 15:24:42 1510863882.369273: $GPZDA,202441.00,16,11,2017,00,00*64
2017-11-16 15:24:42 1510863882.369438: $GPGGA,202441,3946.9572,N,08404.9866,W,2,12,0.80,308.76,M,-33.324,M,,*73
2017-11-16 15:24:42 1510863882.369499: $GPRMC,202441,A,3946.9572,N,08404.9866,W,0.0000,0.000,161117,,*37
2017-11-16 15:24:42 1510863882.369555: $GPGSA,A,3,8,10,14,15,18,20,21,24,27,32,12,138,1.6,0.8,1.3*34
2017-11-16 15:24:43 1510863883.723490: $GPGSV,3,1,12,08,06,294,37,10,68,330,51,14,28,252,46,15,12,066,29*72
2017-11-16 15:24:43 1510863883.723646: $GPGSV,3,2,12,18,71,090,47,20,09,117,30,21,30,180,42,24,46,060,51*78
2017-11-16 15:24:43 1510863883.723709: $GPGSV,3,3,12,27,07,261,24,32,45,264,48,12,08,108,28,138,38,213,44*4E
2017-11-16 15:24:43 1510863883.837098: $GPZDA,202442.00,16,11,2017,00,00*67
2017-11-16 15:24:43 1510863883.837266: $GPGGA,202442,3946.9572,N,08404.9866,W,2,12,0.80,308.76,M,-33.324,M,,*70
2017-11-16 15:24:43 1510863883.837380: $GPRMC,202442,A,3946.9572,N,08404.9866,W,0.0000,0.000,161117,,*34
2017-11-16 15:24:43 1510863883.837438: $GPGSA,A,3,8,10,14,15,18,20,21,24,27,32,12,138,1.6,0.8,1.3*34
2017-11-16 15:24:44 1510863884.364332: $GPZDA,202443.00,16,11,2017,00,00*66
2017-11-16 15:24:44 1510863884.364511: $GPGGA,202443,3946.9572,N,08404.9866,W,2,12,0.80,308.76,M,-33.324,M,,*71
2017-11-16 15:24:44 1510863884.364589: $GPRMC,202443,A,3946.9572,N,08404.9866,W,0.0000,0.000,161117,,*35
2017-11-16 15:24:44 1510863884.364648: $GPGSA,A,3,8,10,14,15,18,20,21,24,27,32,12,138,1.6,0.8,1.3*34
2017-11-16 15:24:45 1510863885.369685: $GPZDA,202444.00,16,11,2017,00,00*61
2017-11-16 15:24:45 1510863885.369859: $GPGGA,202444,3946.9572,N,08404.9866,W,2,12,0.80,308.76,M,-33.324,M,,*76
2017-11-16 15:24:45 1510863885.369920: $GPRMC,202444,A,3946.9572,N,08404.9866,W,0.0000,0.000,161117,,*32
2017-11-16 15:24:45 1510863885.369978: $GPGSA,A,3,8,10,14,15,18,20,21,24,27,32,12,138,1.6,0.8,1.3*34
2017-11-16 15:24:46 1510863886.705111: $GPGSV,3,1,12,08,06,294,37,10,68,330,50,14,28,252,46,15,12,066,29*73
2017-11-16 15:24:46 1510863886.705320: $GPGSV,3,2,12,18,71,090,47,20,09,117,31,21,30,180,42,24,46,060,51*79
2017-11-16 15:24:46 1510863886.705384: $GPGSV,3,3,12,27,07,261,29,32,45,264,48,12,08,108,24,138,38,213,44*4F
2017-11-16 15:24:46 1510863886.818316: $GPZDA,202445.00,16,11,2017,00,00*60
2017-11-16 15:24:46 1510863886.818470: $GPGGA,202445,3946.9572,N,08404.9866,W,2,12,0.80,308.76,M,-33.324,M,,*77
2017-11-16 15:24:46 1510863886.818531: $GPRMC,202445,A,3946.9572,N,08404.9866,W,0.0000,0.000,161117,,*33
2017-11-16 15:24:46 1510863886.818588: $GPGSA,A,3,8,10,14,15,18,20,21,24,27,32,12,138,1.6,0.8,1.3*34
