2017-12-29 15:00:48 1514577648.312435: {"class":"VERSION","release":"3.16","rev":"3.16-4","proto_major":3,"proto_minor":11}
2017-12-29 15:00:48 1514577648.312840: {"class":"DEVICES","devices":[{"class":"DEVICE","path":"/dev/ttyUSB0","driver":"SiRF","subtype":"9\u0006GSD4e_4.1.2-P1_RPATCH.05-F-GPS-4R-1510281 11/03/2015 307","activated":"2017-12-29T20:00:48.292Z","flags":1,"native":1,"bps":4800,"parity":"N","stopbits":1,"cycle":1.00}]}
2017-12-29 15:00:48 1514577648.312958: {"class":"WATCH","enable":true,"json":false,"nmea":true,"raw":0,"scaled":false,"timing":false,"split24":false,"pps":false}
2017-12-29 15:00:48 1514577648.740071: $GPGSV,3,1,12,01,22,289,40,03,10,316,37,10,36,153,48,11,04,273,37*75
2017-12-29 15:00:48 1514577648.740234: $GPGSV,3,2,12,12,17,040,42,14,70,354,43,22,29,310,40,25,41,075,51*72
2017-12-29 15:00:48 1514577648.740301: $GPGSV,3,3,12,31,69,240,46,32,63,057,50,18,07,147,25,138,38,213,44*4A
2017-12-29 15:00:48 1514577648.853679: $GPZDA,200049.00,29,12,2017,00,00*65
2017-12-29 15:00:48 1514577648.853803: $GPGGA,200049,3946.9582,N,08404.9845,W,2,12,0.80,298.84,M,-33.324,M,,*76
2017-12-29 15:00:48 1514577648.853868: $GPRMC,200049,A,3946.9582,N,08404.9845,W,0.0000,0.000,291217,,*38
2017-12-29 15:00:48 1514577648.853931: $GPGSA,A,3,1,3,10,11,12,14,22,25,31,32,18,138,1.7,0.8,1.3*0C
2017-12-29 15:00:49 1514577649.479070: $GPZDA,200050.00,29,12,2017,00,00*6D
2017-12-29 15:00:49 1514577649.479228: $GPGGA,200050,3946.9585,N,08404.9839,W,2,12,0.80,299.56,M,-33.324,M,,*7C
2017-12-29 15:00:49 1514577649.479296: $GPRMC,200050,A,3946.9585,N,08404.9839,W,0.0000,0.000,291217,,*3C
2017-12-29 15:00:49 1514577649.479357: $GPGSA,A,3,1,3,10,11,12,14,22,25,31,32,18,138,1.7,0.8,1.3*0C
2017-12-29 15:00:50 1514577650.403434: $GPZDA,200051.00,29,12,2017,00,00*6C
2017-12-29 15:00:50 1514577650.403612: $GPGGA,200051,3946.9585,N,08404.9839,W,2,12,0.80,299.56,M,-33.324,M,,*7D
2017-12-29 15:00:50 1514577650.403680: $GPRMC,200051,A,3946.9585,N,08404.9839,W,0.0000,0.000,291217,,*3D
2017-12-29 15:00:50 1514577650.403743: $GPGSA,A,3,1,3,10,11,12,14,22,25,31,32,18,138,1.7,0.8,1.3*0C
2017-12-29 15:00:51 1514577651.740430: $GPGSV,3,1,12,01,22,289,40,03,10,316,37,10,36,153,48,11,04,273,37*75
2017-12-29 15:00:51 1514577651.740601: $GPGSV,3,2,12,12,17,040,42,14,70,354,43,22,29,310,40,25,41,075,51*72
2017-12-29 15:00:51 1514577651.740668: $GPGSV,3,3,12,31,69,240,46,32,63,057,50,18,07,147,25,138,38,213,44*4A
2017-12-29 15:00:51 1514577651.853758: $GPZDA,200052.00,29,12,2017,00,00*6F
2017-12-29 15:00:51 1514577651.853905: $GPGGA,200052,3946.9585,N,08404.9839,W,2,12,0.80,299.56,M,-33.324,M,,*7E
2017-12-29 15:00:51 1514577651.853974: $GPRMC,200052,A,3946.9585,N,08404.9839,W,0.0000,0.000,291217,,*3E
2017-12-29 15:00:51 1514577651.854038: $GPGSA,A,3,1,3,10,11,12,14,22,25,31,32,18,138,1.7,0.8,1.3*0C
2017-12-29 15:00:52 1514577652.403764: $GPZDA,200053.00,29,12,2017,00,00*6E
2017-12-29 15:00:52 1514577652.403955: $GPGGA,200053,3946.9585,N,08404.9839,W,2,12,0.80,299.56,M,-33.324,M,,*7F
2017-12-29 15:00:52 1514577652.404040: $GPRMC,200053,A,3946.9585,N,08404.9839,W,0.0000,0.000,291217,,*3F
2017-12-29 15:00:52 1514577652.404101: $GPGSA,A,3,1,3,10,11,12,14,22,25,31,32,18,138,1.7,0.8,1.3*0C
2017-12-29 15:00:53 1514577653.403364: $GPZDA,200054.00,29,12,2017,00,00*69
2017-12-29 15:00:53 1514577653.406666: $GPGGA,200054,3946.9585,N,08404.9839,W,2,12,0.80,299.56,M,-33.324,M,,*78
2017-12-29 15:00:53 1514577653.406777: $GPRMC,200054,A,3946.9585,N,08404.9839,W,0.0000,0.000,291217,,*38
2017-12-29 15:00:53 1514577653.406866: $GPGSA,A,3,1,3,10,11,12,14,22,25,31,32,18,138,1.7,0.8,1.3*0C
2017-12-29 15:00:54 1514577654.738265: $GPGSV,3,1,12,01,22,289,41,03,10,316,37,10,36,153,48,11,04,273,37*74
2017-12-29 15:00:54 1514577654.738428: $GPGSV,3,2,12,12,17,040,42,14,70,354,43,22,29,310,41,25,41,075,51*73
2017-12-29 15:00:54 1514577654.738494: $GPGSV,3,3,12,31,69,240,46,32,63,057,51,18,07,147,26,138,38,213,43*4F
2017-12-29 15:00:54 1514577654.851997: $GPZDA,200055.00,29,12,2017,00,00*68
2017-12-29 15:00:54 1514577654.852125: $GPGGA,200055,3946.9585,N,08404.9839,W,2,12,0.80,299.56,M,-33.324,M,,*79
2017-12-29 15:00:54 1514577654.852243: $GPRMC,200055,A,3946.9585,N,08404.9839,W,0.0000,0.000,291217,,*39
2017-12-29 15:00:54 1514577654.852305: $GPGSA,A,3,1,3,10,11,12,14,22,25,31,32,18,138,1.7,0.8,1.3*0C
2017-12-29 15:00:55 1514577655.410303: $GPZDA,200056.00,29,12,2017,00,00*6B
2017-12-29 15:00:55 1514577655.410471: $GPGGA,200056,3946.9585,N,08404.9839,W,2,12,0.80,299.56,M,-33.324,M,,*7A
2017-12-29 15:00:55 1514577655.410538: $GPRMC,200056,A,3946.9585,N,08404.9839,W,0.0000,0.000,291217,,*3A
2017-12-29 15:00:55 1514577655.410599: $GPGSA,A,3,1,3,10,11,12,14,22,25,31,32,18,138,1.7,0.8,1.3*0C
2017-12-29 15:00:56 1514577656.403684: $GPZDA,200057.00,29,12,2017,00,00*6A
2017-12-29 15:00:56 1514577656.403874: $GPGGA,200057,3946.9585,N,08404.9839,W,2,12,0.80,299.56,M,-33.324,M,,*7B
2017-12-29 15:00:56 1514577656.403958: $GPRMC,200057,A,3946.9585,N,08404.9839,W,0.0000,0.000,291217,,*3B
2017-12-29 15:00:56 1514577656.404021: $GPGSA,A,3,1,3,10,11,12,14,22,25,31,32,18,138,1.7,0.8,1.3*0C
2017-12-29 15:00:57 1514577657.739117: $GPGSV,3,1,12,01,22,289,40,03,10,316,36,10,36,153,48,11,04,273,37*74
2017-12-29 15:00:57 1514577657.739276: $GPGSV,3,2,12,12,17,040,42,14,70,354,43,22,29,310,41,25,41,075,51*73
2017-12-29 15:00:57 1514577657.739344: $GPGSV,3,3,12,31,69,240,46,32,63,057,51,18,07,147,26,138,38,213,43*4F
2017-12-29 15:00:57 1514577657.852760: $GPZDA,200058.00,29,12,2017,00,00*65
2017-12-29 15:00:57 1514577657.852908: $GPGGA,200058,3946.9585,N,08404.9839,W,2,12,0.80,299.56,M,-33.324,M,,*74
2017-12-29 15:00:57 1514577657.852992: $GPRMC,200058,A,3946.9585,N,08404.9839,W,0.0000,0.000,291217,,*34
2017-12-29 15:00:57 1514577657.853053: $GPGSA,A,3,1,3,10,11,12,14,22,25,31,32,18,138,1.7,0.8,1.3*0C
