2017-12-01 14:33:20 1512156800.566913: {"class":"VERSION","release":"3.16","rev":"3.16-4","proto_major":3,"proto_minor":11}
2017-12-01 14:33:20 1512156800.567309: {"class":"DEVICES","devices":[{"class":"DEVICE","path":"/dev/ttyUSB0","driver":"SiRF","subtype":"9\u0006GSD4e_4.1.2-P1_RPATCH.05-F-GPS-4R-1510281 11/03/2015 307","activated":"2017-12-01T19:33:20.498Z","flags":1,"native":1,"bps":4800,"parity":"N","stopbits":1,"cycle":1.00}]}
2017-12-01 14:33:20 1512156800.567423: {"class":"WATCH","enable":true,"json":false,"nmea":true,"raw":0,"scaled":false,"timing":false,"split24":false,"pps":false}
2017-12-01 14:33:21 1512156801.361241: $GPZDA,193322.00,01,12,2017,00,00*68
2017-12-01 14:33:21 1512156801.361463: $GPGGA,193322,3946.9589,N,08404.9834,W,2,12,1.20,292.42,M,-33.324,M,,*77
2017-12-01 14:33:21 1512156801.361535: $GPRMC,193322,A,3946.9589,N,08404.9834,W,0.0000,0.000,011217,,*38
2017-12-01 14:33:21 1512156801.361597: $GPGSA,A,3,12,10,14,18,21,24,32,8,25,27,20,138,2.0,1.2,1.5*3F
2017-12-01 14:33:22 1512156802.691962: $GPGSV,3,1,12,12,12,103,28,10,73,337,47,14,32,256,40,18,67,102,46*79
2017-12-01 14:33:22 1512156802.692134: $GPGSV,3,2,12,21,24,178,45,24,42,055,48,32,49,270,43,08,04,291,23*74
2017-12-01 14:33:22 1512156802.692199: $GPGSV,3,3,12,25,05,139,24,27,04,256,22,20,06,120,21,138,38,213,47*43
2017-12-01 14:33:22 1512156802.805331: $GPZDA,193323.00,01,12,2017,00,00*69
2017-12-01 14:33:22 1512156802.805504: $GPGGA,193323,3946.9589,N,08404.9834,W,2,12,1.20,292.42,M,-33.324,M,,*76
2017-12-01 14:33:22 1512156802.805573: $GPRMC,193323,A,3946.9589,N,08404.9834,W,0.0000,0.000,011217,,*39
2017-12-01 14:33:22 1512156802.805634: $GPGSA,A,3,12,10,14,18,21,24,32,8,25,27,20,138,2.0,1.2,1.5*3F
2017-12-01 14:33:23 1512156803.432054: $GPZDA,193324.00,01,12,2017,00,00*6E
2017-12-01 14:33:23 1512156803.432227: $GPGGA,193324,3946.9589,N,08404.9834,W,2,12,1.00,292.42,M,-33.324,M,,*73
2017-12-01 14:33:23 1512156803.432295: $GPRMC,193324,A,3946.9589,N,08404.9834,W,0.0000,0.000,011217,,*3E
2017-12-01 14:33:23 1512156803.432356: $GPGSA,A,3,12,10,14,18,21,24,32,8,25,27,20,138,2.0,1.0,1.5*3D
2017-12-01 14:33:24 1512156804.351619: $GPZDA,193325.00,01,12,2017,00,00*6F
2017-12-01 14:33:24 1512156804.351815: $GPGGA,193325,3946.9589,N,08404.9834,W,2,12,1.20,292.42,M,-33.324,M,,*70
2017-12-01 14:33:24 1512156804.351889: $GPRMC,193325,A,3946.9589,N,08404.9834,W,0.0000,0.000,011217,,*3F
2017-12-01 14:33:24 1512156804.351950: $GPGSA,A,3,12,10,14,18,21,24,32,8,25,27,20,138,2.0,1.2,1.5*3F
2017-12-01 14:33:25 1512156805.693713: $GPGSV,3,1,12,12,12,103,29,10,73,337,47,14,32,256,39,18,67,102,46*76
2017-12-01 14:33:25 1512156805.693910: $GPGSV,3,2,12,21,24,178,46,24,42,055,48,32,49,270,43,08,04,291,31*74
2017-12-01 14:33:25 1512156805.693980: $GPGSV,3,3,12,25,05,139,24,27,04,256,14,20,06,120,20,138,38,213,46*46
2017-12-01 14:33:25 1512156805.806944: $GPZDA,193326.00,01,12,2017,00,00*6C
2017-12-01 14:33:25 1512156805.807110: $GPGGA,193326,3946.9589,N,08404.9834,W,2,12,1.20,292.42,M,-33.324,M,,*73
2017-12-01 14:33:25 1512156805.807177: $GPRMC,193326,A,3946.9589,N,08404.9834,W,0.0000,0.000,011217,,*3C
2017-12-01 14:33:25 1512156805.807239: $GPGSA,A,3,12,10,14,18,21,24,32,8,25,27,20,138,2.0,1.2,1.5*3F
2017-12-01 14:33:26 1512156806.356561: $GPZDA,193327.00,01,12,2017,00,00*6D
2017-12-01 14:33:26 1512156806.356734: $GPGGA,193327,3946.9589,N,08404.9834,W,2,12,1.40,292.42,M,-33.324,M,,*74
2017-12-01 14:33:26 1512156806.356804: $GPRMC,193327,A,3946.9589,N,08404.9834,W,0.0000,0.000,011217,,*3D
2017-12-01 14:33:26 1512156806.356869: $GPGSA,A,3,12,10,14,18,21,24,32,8,25,27,20,138,2.0,1.4,1.5*39
2017-12-01 14:33:27 1512156807.356203: $GPZDA,193328.00,01,12,2017,00,00*62
2017-12-01 14:33:27 1512156807.356360: $GPGGA,193328,3946.9589,N,08404.9834,W,2,12,1.40,292.42,M,-33.324,M,,*7B
2017-12-01 14:33:27 1512156807.356426: $GPRMC,193328,A,3946.9589,N,08404.9834,W,0.0000,0.000,011217,,*32
2017-12-01 14:33:27 1512156807.356489: $GPGSA,A,3,12,10,14,18,21,24,32,8,25,27,20,138,2.0,1.4,1.5*39
2017-12-01 14:33:28 1512156808.702709: $GPGSV,3,1,12,12,12,103,30,10,73,337,46,14,32,256,38,18,67,102,46*7E
2017-12-01 14:33:28 1512156808.702955: $GPGSV,3,2,12,21,24,178,45,24,42,055,48,32,49,270,44,08,04,291,31*70
2017-12-01 14:33:28 1512156808.703026: $GPGSV,3,3,12,25,05,139,23,15,08,069,00,20,06,120,20,138,38,213,47*46
2017-12-01 14:33:28 1512156808.816075: $GPZDA,193329.00,01,12,2017,00,00*63
2017-12-01 14:33:28 1512156808.816235: $GPGGA,193329,3946.9589,N,08404.9834,W,2,11,1.40,292.42,M,-33.324,M,,*79
2017-12-01 14:33:28 1512156808.816301: $GPRMC,193329,A,3946.9589,N,08404.9834,W,0.0000,0.000,011217,,*33
2017-12-01 14:33:28 1512156808.816362: $GPGSA,A,3,12,10,14,18,21,24,32,8,25,20,138,,2.0,1.4,1.5*3C
2017-12-01 14:33:29 1512156809.358274: $GPZDA,193330.00,01,12,2017,00,00*6B
2017-12-01 14:33:29 1512156809.358446: $GPGGA,193330,3946.9589,N,08404.9834,W,2,11,1.40,292.42,M,-33.324,M,,*71
2017-12-01 14:33:29 1512156809.358514: $GPRMC,193330,A,3946.9589,N,08404.9834,W,0.0000,0.000,011217,,*3B
2017-12-01 14:33:29 1512156809.358576: $GPGSA,A,3,12,10,14,18,21,24,32,8,25,20,138,,2.0,1.4,1.5*3C
2017-12-01 14:33:30 1512156810.356945: $GPZDA,193331.00,01,12,2017,00,00*6A
2017-12-01 14:33:30 1512156810.357120: $GPGGA,193331,3946.9593,N,08404.9833,W,2,11,1.40,291.65,M,-33.324,M,,*7A
2017-12-01 14:33:30 1512156810.357185: $GPRMC,193331,A,3946.9593,N,08404.9833,W,0.0000,0.000,011217,,*36
2017-12-01 14:33:30 1512156810.357248: $GPGSA,A,3,12,10,14,18,21,24,32,8,25,20,138,,2.0,1.4,1.5*3C
2017-12-01 14:33:31 1512156811.692313: $GPGSV,3,1,12,12,12,103,30,10,73,337,46,14,32,256,39,18,67,102,46*7F
2017-12-01 14:33:31 1512156811.692494: $GPGSV,3,2,12,21,24,178,45,24,42,055,48,32,49,270,44,08,04,291,32*73
2017-12-01 14:33:31 1512156811.692562: $GPGSV,3,3,12,25,05,139,22,27,04,256,09,20,06,120,20,138,38,213,46*4C
2017-12-01 14:33:31 1512156811.805761: $GPZDA,193332.00,01,12,2017,00,00*69
2017-12-01 14:33:31 1512156811.805935: $GPGGA,193332,3946.9593,N,08404.9833,W,2,12,1.40,291.65,M,-33.324,M,,*7A
2017-12-01 14:33:31 1512156811.806004: $GPRMC,193332,A,3946.9593,N,08404.9833,W,0.0000,0.000,011217,,*35
2017-12-01 14:33:31 1512156811.806064: $GPGSA,A,3,12,10,14,18,21,24,32,8,25,27,20,138,2.0,1.4,1.5*39
2017-12-01 14:33:32 1512156812.351677: $GPZDA,193333.00,01,12,2017,00,00*68
2017-12-01 14:33:32 1512156812.351869: $GPGGA,193333,3946.9593,N,08404.9833,W,2,12,1.40,291.65,M,-33.324,M,,*7B
2017-12-01 14:33:32 1512156812.351938: $GPRMC,193333,A,3946.9593,N,08404.9833,W,0.0000,0.000,011217,,*34
2017-12-01 14:33:32 1512156812.352001: $GPGSA,A,3,12,10,14,18,21,24,32,8,25,27,20,138,2.0,1.4,1.5*39
2017-12-01 14:33:33 1512156813.361079: $GPZDA,193334.00,01,12,2017,00,00*6F
2017-12-01 14:33:33 1512156813.361250: $GPGGA,193334,3946.9593,N,08404.9833,W,2,12,1.40,291.65,M,-33.324,M,,*7C
2017-12-01 14:33:33 1512156813.361317: $GPRMC,193334,A,3946.9593,N,08404.9833,W,0.0000,0.000,011217,,*33
2017-12-01 14:33:33 1512156813.361440: $GPGSA,A,3,12,10,14,18,21,24,32,8,25,27,20,138,2.0,1.4,1.5*39
2017-12-01 14:33:34 1512156814.692785: $GPGSV,3,1,12,12,12,103,31,10,73,337,47,14,32,256,38,18,67,102,46*7E
2017-12-01 14:33:34 1512156814.692970: $GPGSV,3,2,12,21,24,178,45,24,42,055,48,32,49,270,45,08,04,291,32*72
2017-12-01 14:33:34 1512156814.693037: $GPGSV,3,3,12,25,05,139,18,27,04,256,10,20,06,120,19,138,38,213,47*46
2017-12-01 14:33:34 1512156814.806376: $GPZDA,193335.00,01,12,2017,00,00*6E
2017-12-01 14:33:34 1512156814.806527: $GPGGA,193335,3946.9593,N,08404.9833,W,2,12,1.40,291.65,M,-33.324,M,,*7D
2017-12-01 14:33:34 1512156814.806594: $GPRMC,193335,A,3946.9593,N,08404.9833,W,0.0000,0.000,011217,,*32
2017-12-01 14:33:34 1512156814.806655: $GPGSA,A,3,12,10,14,18,21,24,32,8,25,27,20,138,2.0,1.4,1.5*39
2017-12-01 14:33:35 1512156815.356051: $GPZDA,193336.00,01,12,2017,00,00*6D
2017-12-01 14:33:35 1512156815.356222: $GPGGA,193336,3946.9593,N,08404.9833,W,2,12,1.40,291.65,M,-33.324,M,,*7E
2017-12-01 14:33:35 1512156815.356288: $GPRMC,193336,A,3946.9593,N,08404.9833,W,0.0000,0.000,011217,,*31
2017-12-01 14:33:35 1512156815.356350: $GPGSA,A,3,12,10,14,18,21,24,32,8,25,27,20,138,2.0,1.4,1.5*39
2017-12-01 14:33:36 1512156816.396539: $GPZDA,193337.00,01,12,2017,00,00*6C
2017-12-01 14:33:36 1512156816.396726: $GPGGA,193337,3946.9593,N,08404.9833,W,2,12,1.40,291.65,M,-33.324,M,,*7F
2017-12-01 14:33:36 1512156816.396795: $GPRMC,193337,A,3946.9593,N,08404.9833,W,0.0000,0.000,011217,,*30
2017-12-01 14:33:36 1512156816.396858: $GPGSA,A,3,12,10,14,18,21,24,32,8,25,27,20,138,2.0,1.4,1.5*39
2017-12-01 14:33:37 1512156817.729907: $GPGSV,3,1,12,12,12,103,32,10,73,337,47,14,32,256,38,18,67,102,46*7D
2017-12-01 14:33:37 1512156817.730092: $GPGSV,3,2,12,21,24,178,46,24,42,055,48,32,49,270,45,08,04,291,34*77
2017-12-01 14:33:37 1512156817.730157: $GPGSV,3,3,12,25,05,139,18,27,04,256,21,20,06,120,18,138,38,213,47*45
2017-12-01 14:33:37 1512156817.843701: $GPZDA,193338.00,01,12,2017,00,00*63
2017-12-01 14:33:37 1512156817.843898: $GPGGA,193338,3946.9593,N,08404.9833,W,2,12,1.40,291.65,M,-33.324,M,,*70
2017-12-01 14:33:37 1512156817.843972: $GPRMC,193338,A,3946.9593,N,08404.9833,W,0.0000,0.000,011217,,*3F
2017-12-01 14:33:37 1512156817.844034: $GPGSA,A,3,12,10,14,18,21,24,32,8,25,27,20,138,2.0,1.4,1.5*39
2017-12-01 14:33:38 1512156818.470213: $GPZDA,193339.00,01,12,2017,00,00*62
2017-12-01 14:33:38 1512156818.470383: $GPGGA,193339,3946.9593,N,08404.9833,W,2,12,1.40,291.65,M,-33.324,M,,*71
2017-12-01 14:33:38 1512156818.470449: $GPRMC,193339,A,3946.9593,N,08404.9833,W,0.0000,0.000,011217,,*3E
2017-12-01 14:33:38 1512156818.470511: $GPGSA,A,3,12,10,14,18,21,24,32,8,25,27,20,138,2.0,1.4,1.5*39
2017-12-01 14:33:39 1512156819.396065: $GPZDA,193340.00,01,12,2017,00,00*6C
2017-12-01 14:33:39 1512156819.396237: $GPGGA,193340,3946.9593,N,08404.9833,W,2,12,1.40,291.65,M,-33.324,M,,*7F
2017-12-01 14:33:39 1512156819.396304: $GPRMC,193340,A,3946.9593,N,08404.9833,W,0.0000,0.000,011217,,*30
2017-12-01 14:33:39 1512156819.396366: $GPGSA,A,3,12,10,14,18,21,24,32,8,25,27,20,138,2.0,1.4,1.5*39
2017-12-01 14:33:40 1512156820.692749: $GPGSV,3,1,12,12,12,103,32,10,73,337,47,14,32,256,39,18,67,102,46*7C
2017-12-01 14:33:40 1512156820.692926: $GPGSV,3,2,12,21,24,178,46,24,42,055,49,32,49,270,45,08,04,291,30*72
2017-12-01 14:33:40 1512156820.692993: $GPGSV,3,3,12,25,05,139,19,15,08,069,23,20,06,120,18,138,38,213,47*45
2017-12-01 14:33:40 1512156820.806408: $GPZDA,193341.00,01,12,2017,00,00*6D
2017-12-01 14:33:40 1512156820.806581: $GPGGA,193341,3946.9593,N,08404.9833,W,2,11,1.40,291.65,M,-33.324,M,,*7D
2017-12-01 14:33:40 1512156820.806647: $GPRMC,193341,A,3946.9593,N,08404.9833,W,0.0000,0.000,011217,,*31
2017-12-01 14:33:40 1512156820.806710: $GPGSA,A,3,12,10,14,18,21,24,32,8,25,20,138,,2.0,1.4,1.5*3C
2017-12-01 14:33:41 1512156821.394435: $GPZDA,193342.00,01,12,2017,00,00*6E
2017-12-01 14:33:41 1512156821.394632: $GPGGA,193342,3946.9593,N,08404.9833,W,2,11,1.40,291.65,M,-33.324,M,,*7E
2017-12-01 14:33:41 1512156821.394701: $GPRMC,193342,A,3946.9593,N,08404.9833,W,0.0000,0.000,011217,,*32
2017-12-01 14:33:41 1512156821.394765: $GPGSA,A,3,12,10,14,18,21,24,32,8,25,20,138,,2.0,1.4,1.5*3C
2017-12-01 14:33:42 1512156822.356593: $GPZDA,193343.00,01,12,2017,00,00*6F
2017-12-01 14:33:42 1512156822.356792: $GPGGA,193343,3946.9593,N,08404.9833,W,2,11,1.40,291.65,M,-33.324,M,,*7F
2017-12-01 14:33:42 1512156822.356884: $GPRMC,193343,A,3946.9593,N,08404.9833,W,0.0000,0.000,011217,,*33
2017-12-01 14:33:42 1512156822.356952: $GPGSA,A,3,12,10,14,18,21,24,32,8,25,20,138,,2.0,1.4,1.5*3C
2017-12-01 14:33:43 1512156823.733093: $GPGSV,3,1,12,12,12,103,33,10,73,337,47,14,32,256,39,18,67,102,45*7E
2017-12-01 14:33:43 1512156823.733271: $GPGSV,3,2,12,21,24,178,46,24,42,055,49,32,49,270,45,08,04,291,28*7B
2017-12-01 14:33:43 1512156823.733337: $GPGSV,3,3,12,25,05,139,19,15,08,069,05,20,06,120,18,138,38,213,46*40
2017-12-01 14:33:43 1512156823.846793: $GPZDA,193344.00,01,12,2017,00,00*68
2017-12-01 14:33:43 1512156823.846968: $GPGGA,193344,3946.9593,N,08404.9833,W,2,11,1.40,291.65,M,-33.324,M,,*78
2017-12-01 14:33:43 1512156823.847035: $GPRMC,193344,A,3946.9593,N,08404.9833,W,0.0000,0.000,011217,,*34
2017-12-01 14:33:43 1512156823.847098: $GPGSA,A,3,12,10,14,18,21,24,32,8,25,20,138,,2.0,1.4,1.5*3C
2017-12-01 14:33:44 1512156824.357693: $GPZDA,193345.00,01,12,2017,00,00*69
2017-12-01 14:33:44 1512156824.357869: $GPGGA,193345,3946.9593,N,08404.9833,W,2,11,1.40,291.65,M,-33.324,M,,*79
2017-12-01 14:33:44 1512156824.357935: $GPRMC,193345,A,3946.9593,N,08404.9833,W,0.0000,0.000,011217,,*35
2017-12-01 14:33:44 1512156824.357998: $GPGSA,A,3,12,10,14,18,21,24,32,8,25,20,138,,2.0,1.4,1.5*3C
2017-12-01 14:33:45 1512156825.357268: $GPZDA,193346.00,01,12,2017,00,00*6A
2017-12-01 14:33:45 1512156825.357439: $GPGGA,193346,3946.9593,N,08404.9833,W,2,11,1.40,291.65,M,-33.324,M,,*7A
2017-12-01 14:33:45 1512156825.357506: $GPRMC,193346,A,3946.9593,N,08404.9833,W,0.0000,0.000,011217,,*36
2017-12-01 14:33:45 1512156825.357568: $GPGSA,A,3,12,10,14,18,21,24,32,8,25,20,138,,2.0,1.4,1.5*3C
