2017-11-15 19:10:41 1510791041.322257: {"class":"VERSION","release":"3.17","rev":"3.17","proto_major":3,"proto_minor":12}
2017-11-15 19:10:41 1510791041.322711: {"class":"DEVICES","devices":[{"class":"DEVICE","path":"/dev/ttyUSB0","driver":"SiRF","subtype":"9\u0006GSD4e_4.1.2-P1_RPATCH.05-F-GPS-4R-1510281 11/03/2015 307","activated":"2017-11-16T00:10:41.215Z","flags":1,"native":1,"bps":4800,"parity":"N","stopbits":1,"cycle":1.00}]}
2017-11-15 19:10:41 1510791041.322829: {"class":"WATCH","enable":true,"json":false,"nmea":true,"raw":0,"scaled":false,"timing":false,"split24":false,"pps":false}
2017-11-15 19:10:41 1510791041.328589: $GPZDA,001040.00,16,11,2017,00,00*60
2017-11-15 19:10:41 1510791041.328717: $GPGGA,001040,3946.9573,N,08404.9377,W,1,07,1.40,303.90,M,-33.324,M,,*74
2017-11-15 19:10:41 1510791041.328780: $GPRMC,001040,A,3946.9573,N,08404.9377,W,0.5951,58.684,161117,,*06
2017-11-15 19:10:41 1510791041.328854: $GPGSA,A,3,32,14,3,26,31,16,22,,,,,,3.4,1.4,2.9*0D
2017-11-15 19:10:42 1510791042.664458: $GPGSV,3,1,12,32,43,099,19,14,61,079,25,03,34,307,08,26,43,175,12*76
2017-11-15 19:10:42 1510791042.664640: $GPGSV,3,2,12,31,74,006,25,16,14,190,19,22,49,283,13,25,24,043,00*79
2017-11-15 19:10:42 1510791042.664700: $GPGSV,3,3,12,01,10,259,00,29,07,079,00,10,05,159,00,135,23,238,00*40
2017-11-15 19:10:42 1510791042.777831: $GPZDA,001041.00,16,11,2017,00,00*61
2017-11-15 19:10:42 1510791042.778006: $GPGGA,001041,3946.9576,N,08404.9377,W,1,07,1.40,303.14,M,-33.324,M,,*7C
2017-11-15 19:10:42 1510791042.778069: $GPRMC,001041,A,3946.9576,N,08404.9377,W,1.0018,50.691,161117,,*0E
2017-11-15 19:10:42 1510791042.778126: $GPGSA,A,3,32,14,3,26,31,16,22,,,,,,3.4,1.4,2.9*0D
2017-11-15 19:10:43 1510791043.331133: $GPZDA,001042.00,16,11,2017,00,00*62
2017-11-15 19:10:43 1510791043.331308: $GPGGA,001042,3946.9580,N,08404.9377,W,1,07,1.40,303.78,M,-33.324,M,,*7C
2017-11-15 19:10:43 1510791043.331373: $GPRMC,001042,A,3946.9580,N,08404.9377,W,1.2621,39.347,161117,,*0B
2017-11-15 19:10:43 1510791043.331432: $GPGSA,A,3,32,14,3,26,31,16,22,,,,,,3.4,1.4,2.9*0D
2017-11-15 19:10:44 1510791044.329554: $GPZDA,001043.00,16,11,2017,00,00*63
2017-11-15 19:10:44 1510791044.329723: $GPGGA,001043,3946.9588,N,08404.9376,W,1,07,1.40,303.65,M,-33.324,M,,*78
2017-11-15 19:10:44 1510791044.329785: $GPRMC,001043,A,3946.9588,N,08404.9376,W,1.4167,47.343,161117,,*0D
2017-11-15 19:10:44 1510791044.329840: $GPGSA,A,3,32,14,3,26,31,16,22,,,,,,3.4,1.4,2.9*0D
2017-11-15 19:10:45 1510791045.664101: $GPGSV,3,1,12,32,43,099,18,14,61,079,25,03,34,307,08,26,43,175,12*77
2017-11-15 19:10:45 1510791045.664274: $GPGSV,3,2,12,31,74,006,26,16,14,190,19,22,49,283,12,25,24,043,00*7B
2017-11-15 19:10:45 1510791045.664333: $GPGSV,3,3,12,01,10,259,00,29,07,079,00,10,05,159,00,135,23,238,00*40
2017-11-15 19:10:45 1510791045.778116: $GPZDA,001044.00,16,11,2017,00,00*64
2017-11-15 19:10:45 1510791045.778292: $GPGGA,001044,3946.9588,N,08404.9369,W,1,07,2.00,303.73,M,-33.324,M,,*71
2017-11-15 19:10:45 1510791045.778356: $GPRMC,001044,A,3946.9588,N,08404.9369,W,1.3954,64.414,161117,,*0F
2017-11-15 19:10:45 1510791045.778414: $GPGSA,A,3,32,14,3,26,31,16,22,,,,,,3.4,2.0,2.9*0A
2017-11-15 19:10:46 1510791046.404142: $GPZDA,001045.00,16,11,2017,00,00*65
2017-11-15 19:10:46 1510791046.404309: $GPGGA,001045,3946.9595,N,08404.9368,W,1,07,1.40,303.61,M,-33.324,M,,*79
2017-11-15 19:10:46 1510791046.404370: $GPRMC,001045,A,3946.9595,N,08404.9368,W,1.8343,45.514,161117,,*06
2017-11-15 19:10:46 1510791046.404425: $GPGSA,A,3,32,14,3,26,31,16,22,,,,,,3.4,1.4,2.9*0D
2017-11-15 19:10:47 1510791047.330217: $GPZDA,001046.00,16,11,2017,00,00*66
2017-11-15 19:10:47 1510791047.330413: $GPGGA,001046,3946.9603,N,08404.9367,W,1,07,2.00,303.48,M,-33.324,M,,*75
2017-11-15 19:10:47 1510791047.330480: $GPRMC,001046,A,3946.9603,N,08404.9367,W,1.6828,39.347,161117,,*05
2017-11-15 19:10:47 1510791047.330541: $GPGSA,A,3,32,14,3,26,31,16,22,,,,,,3.4,2.0,2.9*0A
2017-11-15 19:10:48 1510791048.664475: $GPGSV,3,1,12,32,43,099,18,14,61,079,25,03,34,307,06,26,43,175,13*78
2017-11-15 19:10:48 1510791048.664660: $GPGSV,3,2,12,31,74,006,26,16,14,190,19,22,49,283,12,25,24,043,00*7B
2017-11-15 19:10:48 1510791048.664781: $GPGSV,3,3,12,01,10,259,00,29,07,079,00,10,05,159,00,135,23,238,00*40
2017-11-15 19:10:48 1510791048.777990: $GPZDA,001047.00,16,11,2017,00,00*67
2017-11-15 19:10:48 1510791048.778164: $GPGGA,001047,3946.9610,N,08404.9360,W,1,07,2.00,303.44,M,-33.324,M,,*7D
2017-11-15 19:10:48 1510791048.778225: $GPRMC,001047,A,3946.9610,N,08404.9360,W,1.4167,47.343,161117,,*0C
2017-11-15 19:10:48 1510791048.778281: $GPGSA,A,3,32,14,3,26,31,16,22,,,,,,3.4,2.0,2.9*0A
2017-11-15 19:10:49 1510791049.345418: $GPZDA,001048.00,16,11,2017,00,00*68
2017-11-15 19:10:49 1510791049.345609: $GPGGA,001048,3946.9614,N,08404.9360,W,1,07,2.60,304.08,M,-33.324,M,,*7F
2017-11-15 19:10:49 1510791049.345696: $GPRMC,001048,A,3946.9614,N,08404.9360,W,1.7854,58.684,161117,,*0D
2017-11-15 19:10:49 1510791049.345775: $GPGSA,A,3,32,14,3,26,31,16,22,,,,,,3.4,2.6,2.9*0C
2017-11-15 19:10:50 1510791050.330062: $GPZDA,001049.00,16,11,2017,00,00*69
2017-11-15 19:10:50 1510791050.330225: $GPGGA,001049,3946.9614,N,08404.9353,W,1,07,2.60,304.16,M,-33.324,M,,*71
2017-11-15 19:10:50 1510791050.330285: $GPRMC,001049,A,3946.9614,N,08404.9353,W,1.7837,77.574,161117,,*08
2017-11-15 19:10:50 1510791050.330340: $GPGSA,A,3,32,14,3,26,31,16,22,,,,,,3.4,2.6,2.9*0C
