2017-12-14 12:14:21 1513271661.684342: {"class":"VERSION","release":"3.16","rev":"3.16-4","proto_major":3,"proto_minor":11}
2017-12-14 12:14:21 1513271661.684704: {"class":"DEVICES","devices":[{"class":"DEVICE","path":"/dev/ttyUSB0","driver":"SiRF","subtype":"9\u0006GSD4e_4.1.2-P1_RPATCH.05-F-GPS-4R-1510281 11/03/2015 307","activated":"2017-12-14T17:14:21.319Z","flags":1,"native":1,"bps":4800,"parity":"N","stopbits":1,"cycle":1.00}]}
2017-12-14 12:14:21 1513271661.684818: {"class":"WATCH","enable":true,"json":false,"nmea":true,"raw":0,"scaled":false,"timing":false,"split24":false,"pps":false}
2017-12-14 12:14:22 1513271662.515238: $GPGSV,3,1,12,24,50,114,32,10,40,300,21,14,02,231,05,20,35,094,19*78
2017-12-14 12:14:22 1513271662.515418: $GPGSV,3,2,12,27,19,291,18,32,20,237,22,21,65,189,24,18,70,333,10*7A
2017-12-14 12:14:22 1513271662.515482: $GPGSV,3,3,12,15,39,052,00,13,09,048,00,08,05,324,00,138,38,213,00*4D
2017-12-14 12:14:22 1513271662.628621: $GPZDA,171423.00,14,12,2017,00,00*66
2017-12-14 12:14:22 1513271662.628755: $GPGGA,171423,3946.9562,N,08404.9479,W,1,07,1.40,397.02,M,-33.324,M,,*7C
2017-12-14 12:14:22 1513271662.628820: $GPRMC,171423,A,3946.9562,N,08404.9479,W,0.4356,313.339,141217,,*3A
2017-12-14 12:14:22 1513271662.628880: $GPGSA,A,3,24,10,20,27,32,21,18,,,,,,6.6,1.4,6.2*38
2017-12-14 12:14:23 1513271663.180107: $GPZDA,171424.00,14,12,2017,00,00*61
2017-12-14 12:14:23 1513271663.180421: $GPGGA,171424,3946.9562,N,08404.9479,W,1,07,1.40,397.02,M,-33.324,M,,*7B
2017-12-14 12:14:23 1513271663.180547: $GPRMC,171424,A,3946.9562,N,08404.9479,W,0.6263,355.412,141217,,*34
2017-12-14 12:14:23 1513271663.180665: $GPGSA,A,3,24,10,20,27,32,21,18,,,,,,6.6,1.4,6.2*38
2017-12-14 12:14:24 1513271664.180151: $GPZDA,171425.00,14,12,2017,00,00*60
2017-12-14 12:14:24 1513271664.180308: $GPGGA,171425,3946.9565,N,08404.9479,W,1,07,1.40,396.26,M,-33.324,M,,*7A
2017-12-14 12:14:24 1513271664.180372: $GPRMC,171425,A,3946.9565,N,08404.9479,W,0.9147,302.070,141217,,*3A
2017-12-14 12:14:24 1513271664.180433: $GPGSA,A,3,24,10,20,27,32,21,18,,,,,,6.6,1.4,6.2*38
2017-12-14 12:14:25 1513271665.515108: $GPGSV,3,1,12,24,50,114,31,10,40,300,21,14,02,231,08,20,35,094,19*76
2017-12-14 12:14:25 1513271665.515284: $GPGSV,3,2,12,27,19,291,18,32,20,237,21,21,65,189,24,18,70,333,00*78
2017-12-14 12:14:25 1513271665.515367: $GPGSV,3,3,12,15,39,052,00,13,09,048,00,08,05,324,00,138,38,213,00*4D
2017-12-14 12:14:25 1513271665.628488: $GPZDA,171426.00,14,12,2017,00,00*63
2017-12-14 12:14:25 1513271665.628675: $GPGGA,171426,3946.9566,N,08404.9479,W,1,06,1.40,397.66,M,-33.324,M,,*7E
2017-12-14 12:14:25 1513271665.628741: $GPRMC,171426,A,3946.9566,N,08404.9479,W,0.4356,313.339,141217,,*3B
2017-12-14 12:14:25 1513271665.628801: $GPGSA,A,3,24,10,20,27,32,21,,,,,,,6.6,1.4,6.2*31
2017-12-14 12:14:26 1513271666.181856: $GPZDA,171427.00,14,12,2017,00,00*62
2017-12-14 12:14:26 1513271666.182100: $GPGGA,171427,3946.9562,N,08404.9479,W,1,06,1.40,397.02,M,-33.324,M,,*79
2017-12-14 12:14:26 1513271666.182177: $GPRMC,171427,A,3946.9562,N,08404.9479,W,0.6039,297.940,141217,,*3F
2017-12-14 12:14:26 1513271666.182239: $GPGSA,A,3,24,10,20,27,32,21,,,,,,,6.6,1.4,6.2*31
2017-12-14 12:14:27 1513271667.179498: $GPZDA,171428.00,14,12,2017,00,00*6D
2017-12-14 12:14:27 1513271667.179665: $GPGGA,171428,3946.9568,N,08404.9477,W,1,06,1.40,394.09,M,-33.324,M,,*7A
2017-12-14 12:14:27 1513271667.179731: $GPRMC,171428,A,3946.9568,N,08404.9477,W,0.2172,85.764,141217,,*07
2017-12-14 12:14:27 1513271667.179791: $GPGSA,A,3,24,10,20,27,32,21,,,,,,,6.6,1.4,6.2*31
2017-12-14 12:14:28 1513271668.518353: $GPGSV,3,1,12,24,50,114,31,10,40,300,21,14,02,231,09,20,35,094,19*77
2017-12-14 12:14:28 1513271668.518556: $GPGSV,3,2,12,27,19,291,17,32,20,237,21,21,65,189,24,15,39,052,16*74
2017-12-14 12:14:28 1513271668.518628: $GPGSV,3,3,12,18,70,333,00,13,09,048,00,08,05,324,00,138,38,213,00*49
2017-12-14 12:14:28 1513271668.631809: $GPZDA,171429.00,14,12,2017,00,00*6C
2017-12-14 12:14:28 1513271668.631980: $GPGGA,171429,3946.9564,N,08404.9477,W,1,08,1.40,393.45,M,-33.324,M,,*76
2017-12-14 12:14:28 1513271668.632153: $GPRMC,171429,A,3946.9564,N,08404.9477,W,0.1567,189.201,141217,,*32
2017-12-14 12:14:28 1513271668.632224: $GPGSA,A,3,24,10,14,20,27,32,21,15,,,,,6.6,1.4,6.2*30
2017-12-14 12:14:29 1513271669.183187: $GPZDA,171430.00,14,12,2017,00,00*64
2017-12-14 12:14:29 1513271669.183371: $GPGGA,171430,3946.9564,N,08404.9477,W,1,08,1.40,393.45,M,-33.324,M,,*7E
2017-12-14 12:14:29 1513271669.183438: $GPRMC,171430,A,3946.9564,N,08404.9477,W,0.3423,184.197,141217,,*38
2017-12-14 12:14:29 1513271669.183499: $GPGSA,A,3,24,10,14,20,27,32,21,15,,,,,6.6,1.4,6.2*30
2017-12-14 12:14:30 1513271670.182182: $GPZDA,171431.00,14,12,2017,00,00*65
2017-12-14 12:14:30 1513271670.182343: $GPGGA,171431,3946.9560,N,08404.9478,W,1,08,1.40,394.21,M,-33.324,M,,*71
2017-12-14 12:14:30 1513271670.182410: $GPRMC,171431,A,3946.9560,N,08404.9478,W,0.6846,184.197,141217,,*38
2017-12-14 12:14:30 1513271670.182471: $GPGSA,A,3,24,10,14,20,27,32,21,15,,,,,6.6,1.4,6.2*30
2017-12-14 12:14:32 1513271672.015991: $GPGSV,3,1,12,24,50,112,31,10,40,300,21,18,70,334,00,20,35,094,19*75
2017-12-14 12:14:32 1513271672.016172: $GPGSV,3,2,12,27,19,291,17,32,20,237,21,21,64,189,25,15,39,052,18*7A
2017-12-14 12:14:32 1513271672.016238: $GPGSV,3,3,12,13,09,048,00,08,05,324,00,14,02,231,00,138,38,213,00*43
2017-12-14 12:14:32 1513271672.129405: $GPZDA,171432.00,14,12,2017,00,00*66
2017-12-14 12:14:32 1513271672.129553: $GPGGA,171432,3946.9560,N,08404.9478,W,1,07,1.40,394.21,M,-33.324,M,,*7D
2017-12-14 12:14:32 1513271672.129618: $GPRMC,171432,A,3946.9560,N,08404.9478,W,0.4844,93.794,141217,,*09
2017-12-14 12:14:32 1513271672.129678: $GPGSA,A,3,24,10,20,27,32,21,15,,,,,,6.6,1.4,6.2*35
2017-12-14 12:14:32 1513271672.384590: $GPZDA,171433.00,14,12,2017,00,00*67
2017-12-14 12:14:32 1513271672.384760: $GPGGA,171433,3946.9560,N,08404.9471,W,1,07,1.40,394.29,M,-33.324,M,,*7D
2017-12-14 12:14:32 1513271672.384825: $GPRMC,171433,A,3946.9560,N,08404.9471,W,0.2422,93.794,141217,,*0B
2017-12-14 12:14:32 1513271672.384885: $GPGSA,A,3,24,10,20,27,32,21,15,,,,,,6.6,1.4,6.2*35
2017-12-14 12:14:33 1513271673.180955: $GPZDA,171434.00,14,12,2017,00,00*60
2017-12-14 12:14:33 1513271673.181126: $GPGGA,171434,3946.9556,N,08404.9478,W,1,07,1.40,393.57,M,-33.324,M,,*78
2017-12-14 12:14:33 1513271673.181192: $GPRMC,171434,A,3946.9556,N,08404.9478,W,0.5951,238.684,141217,,*3D
2017-12-14 12:14:33 1513271673.181252: $GPGSA,A,3,24,10,20,27,32,21,15,,,,,,6.6,1.4,6.2*35
2017-12-14 12:14:34 1513271674.517099: $GPGSV,3,1,12,24,50,112,31,10,40,300,21,18,70,334,00,20,35,094,19*75
2017-12-14 12:14:34 1513271674.517281: $GPGSV,3,2,12,27,19,291,17,32,20,237,21,21,64,189,25,15,39,052,18*7A
2017-12-14 12:14:34 1513271674.517346: $GPGSV,3,3,12,13,09,048,00,08,05,324,00,14,02,231,00,138,38,213,00*43
2017-12-14 12:14:34 1513271674.630639: $GPZDA,171435.00,14,12,2017,00,00*61
2017-12-14 12:14:34 1513271674.630808: $GPGGA,171435,3946.9556,N,08404.9478,W,1,07,1.40,393.57,M,-33.324,M,,*79
2017-12-14 12:14:34 1513271674.630875: $GPRMC,171435,A,3946.9556,N,08404.9478,W,0.5951,238.684,141217,,*3C
2017-12-14 12:14:34 1513271674.630938: $GPGSA,A,3,24,10,20,27,32,21,15,,,,,,6.6,1.4,6.2*35
2017-12-14 12:14:35 1513271675.180629: $GPZDA,171436.00,14,12,2017,00,00*62
2017-12-14 12:14:35 1513271675.180795: $GPGGA,171436,3946.9556,N,08404.9478,W,1,07,1.40,393.57,M,-33.324,M,,*7A
2017-12-14 12:14:35 1513271675.180860: $GPRMC,171436,A,3946.9556,N,08404.9478,W,0.5951,238.684,141217,,*3F
2017-12-14 12:14:35 1513271675.180925: $GPGSA,A,3,24,10,20,27,32,21,15,,,,,,6.6,1.4,6.2*35
2017-12-14 12:14:36 1513271676.181884: $GPZDA,171437.00,14,12,2017,00,00*63
2017-12-14 12:14:36 1513271676.182054: $GPGGA,171437,3946.9556,N,08404.9478,W,1,07,1.40,393.57,M,-33.324,M,,*7B
2017-12-14 12:14:36 1513271676.182191: $GPRMC,171437,A,3946.9556,N,08404.9478,W,0.5306,294.352,141217,,*3E
2017-12-14 12:14:36 1513271676.182256: $GPGSA,A,3,24,10,20,27,32,21,15,,,,,,6.6,1.4,6.2*35
2017-12-14 12:14:37 1513271677.518940: $GPGSV,3,1,12,24,50,112,31,10,40,300,22,18,70,334,00,20,35,094,20*7C
2017-12-14 12:14:37 1513271677.519173: $GPGSV,3,2,12,27,19,291,17,32,20,237,21,21,64,189,25,15,39,052,19*7B
2017-12-14 12:14:37 1513271677.519261: $GPGSV,3,3,12,13,09,048,00,08,05,324,00,14,02,231,00,138,38,213,00*43
2017-12-14 12:14:37 1513271677.631099: $GPZDA,171438.00,14,12,2017,00,00*6C
2017-12-14 12:14:37 1513271677.631237: $GPGGA,171438,3946.9556,N,08404.9478,W,1,07,1.40,393.57,M,-33.324,M,,*74
2017-12-14 12:14:37 1513271677.631302: $GPRMC,171438,A,3946.9556,N,08404.9478,W,0.5287,2.716,141217,,*30
2017-12-14 12:14:37 1513271677.631361: $GPGSA,A,3,24,10,20,27,32,21,15,,,,,,6.6,1.4,6.2*35
2017-12-14 12:14:38 1513271678.181238: $GPZDA,171439.00,14,12,2017,00,00*6D
2017-12-14 12:14:38 1513271678.181406: $GPGGA,171439,3946.9564,N,08404.9477,W,1,07,1.40,393.45,M,-33.324,M,,*78
2017-12-14 12:14:38 1513271678.181470: $GPRMC,171439,A,3946.9564,N,08404.9477,W,0.6846,4.197,141217,,*32
2017-12-14 12:14:38 1513271678.181530: $GPGSA,A,3,24,10,20,27,32,21,15,,,,,,6.6,1.4,6.2*35
2017-12-14 12:14:39 1513271679.182715: $GPZDA,171440.00,14,12,2017,00,00*63
2017-12-14 12:14:39 1513271679.182892: $GPGGA,171440,3946.9564,N,08404.9477,W,1,07,1.40,393.45,M,-33.324,M,,*76
2017-12-14 12:14:39 1513271679.182968: $GPRMC,171440,A,3946.9564,N,08404.9477,W,0.5857,338.291,141217,,*36
2017-12-14 12:14:39 1513271679.183033: $GPGSA,A,3,24,10,20,27,32,21,15,,,,,,6.6,1.4,6.2*35
2017-12-14 12:14:40 1513271680.516354: $GPGSV,3,1,12,24,50,112,31,10,40,300,22,18,70,334,00,20,35,094,19*76
2017-12-14 12:14:40 1513271680.516529: $GPGSV,3,2,12,27,19,291,16,32,20,237,20,21,64,189,26,15,39,052,19*78
2017-12-14 12:14:40 1513271680.516594: $GPGSV,3,3,12,13,09,048,00,08,05,324,00,14,02,231,00,138,38,213,00*43
2017-12-14 12:14:40 1513271680.629719: $GPZDA,171441.00,14,12,2017,00,00*62
2017-12-14 12:14:40 1513271680.629886: $GPGGA,171441,3946.9564,N,08404.9477,W,1,07,1.40,393.45,M,-33.324,M,,*77
2017-12-14 12:14:40 1513271680.629951: $GPRMC,171441,A,3946.9564,N,08404.9477,W,0.4179,328.778,141217,,*30
2017-12-14 12:14:40 1513271680.630011: $GPGSA,A,3,24,10,20,27,32,21,15,,,,,,6.6,1.4,6.2*35
2017-12-14 12:14:41 1513271681.180854: $GPZDA,171442.00,14,12,2017,00,00*61
2017-12-14 12:14:41 1513271681.181024: $GPGGA,171442,3946.9564,N,08404.9477,W,1,07,1.40,393.45,M,-33.324,M,,*74
2017-12-14 12:14:41 1513271681.181090: $GPRMC,171442,A,3946.9564,N,08404.9477,W,0.0000,0.000,141217,,*39
2017-12-14 12:14:41 1513271681.181150: $GPGSA,A,3,24,10,20,27,32,21,15,,,,,,6.6,1.4,6.2*35
