2017-11-16 14:26:48 1510860408.535963: {"class":"VERSION","release":"3.17","rev":"3.17","proto_major":3,"proto_minor":12}
2017-11-16 14:26:48 1510860408.536474: {"class":"DEVICES","devices":[{"class":"DEVICE","path":"/dev/ttyUSB0","driver":"SiRF","subtype":"9\u0006GSD4e_4.1.2-P1_RPATCH.05-F-GPS-4R-1510281 11/03/2015 307","activated":"2017-11-16T19:26:48.391Z","flags":1,"native":1,"bps":4800,"parity":"N","stopbits":1,"cycle":1.00}]}
2017-11-16 14:26:48 1510860408.536604: {"class":"WATCH","enable":true,"json":false,"nmea":true,"raw":0,"scaled":false,"timing":false,"split24":false,"pps":false}
2017-11-16 14:26:48 1510860408.840829: $GPGSV,3,1,12,08,07,318,42,10,46,306,48,13,03,051,19,15,33,054,51*7D
2017-11-16 14:26:48 1510860408.840997: $GPGSV,3,2,12,18,74,349,46,21,58,187,45,20,29,100,46,24,52,102,48*78
2017-11-16 14:26:48 1510860408.841058: $GPGSV,3,3,12,27,18,283,42,32,25,241,45,14,08,235,36,138,38,213,44*44
2017-11-16 14:26:48 1510860408.954232: $GPZDA,192647.00,16,11,2017,00,00*6A
2017-11-16 14:26:48 1510860408.954408: $GPGGA,192647,3946.9569,N,08404.9849,W,2,12,0.80,303.30,M,-33.324,M,,*73
2017-11-16 14:26:48 1510860408.954470: $GPRMC,192647,A,3946.9569,N,08404.9849,W,0.0000,0.000,161117,,*3E
2017-11-16 14:26:48 1510860408.954525: $GPGSA,A,3,8,10,13,15,18,21,20,24,27,32,14,138,1.6,0.8,1.3*35
2017-11-16 14:26:49 1510860409.579626: $GPZDA,192648.00,16,11,2017,00,00*65
2017-11-16 14:26:49 1510860409.579778: $GPGGA,192648,3946.9569,N,08404.9849,W,2,12,0.80,303.30,M,-33.324,M,,*7C
2017-11-16 14:26:49 1510860409.579839: $GPRMC,192648,A,3946.9569,N,08404.9849,W,0.0000,0.000,161117,,*31
2017-11-16 14:26:49 1510860409.579894: $GPGSA,A,3,8,10,13,15,18,21,20,24,27,32,14,138,1.6,0.8,1.3*35
2017-11-16 14:26:50 1510860410.504155: $GPZDA,192649.00,16,11,2017,00,00*64
2017-11-16 14:26:50 1510860410.504326: $GPGGA,192649,3946.9569,N,08404.9849,W,2,12,0.80,303.30,M,-33.324,M,,*7D
2017-11-16 14:26:50 1510860410.504388: $GPRMC,192649,A,3946.9569,N,08404.9849,W,0.0000,0.000,161117,,*30
2017-11-16 14:26:50 1510860410.504444: $GPGSA,A,3,8,10,13,15,18,21,20,24,27,32,14,138,1.6,0.8,1.3*35
2017-11-16 14:26:51 1510860411.871342: $GPGSV,3,1,12,08,07,318,42,10,46,306,48,13,03,051,20,15,33,054,51*77
2017-11-16 14:26:51 1510860411.871529: $GPGSV,3,2,12,18,74,349,46,21,58,187,45,20,29,100,46,24,52,102,48*78
2017-11-16 14:26:51 1510860411.871590: $GPGSV,3,3,12,27,18,283,41,32,25,241,45,14,08,235,37,138,38,213,44*46
2017-11-16 14:26:51 1510860411.984680: $GPZDA,192650.00,16,11,2017,00,00*6C
2017-11-16 14:26:51 1510860411.984846: $GPGGA,192650,3946.9569,N,08404.9849,W,2,12,0.80,303.30,M,-33.324,M,,*75
2017-11-16 14:26:51 1510860411.984906: $GPRMC,192650,A,3946.9569,N,08404.9849,W,0.0000,0.000,161117,,*38
2017-11-16 14:26:51 1510860411.984962: $GPGSA,A,3,8,10,13,15,18,21,20,24,27,32,14,138,1.6,0.8,1.3*35
2017-11-16 14:26:52 1510860412.504300: $GPZDA,192651.00,16,11,2017,00,00*6D
2017-11-16 14:26:52 1510860412.504471: $GPGGA,192651,3946.9569,N,08404.9849,W,2,12,0.80,303.30,M,-33.324,M,,*74
2017-11-16 14:26:52 1510860412.504531: $GPRMC,192651,A,3946.9569,N,08404.9849,W,0.0000,0.000,161117,,*39
2017-11-16 14:26:52 1510860412.504587: $GPGSA,A,3,8,10,13,15,18,21,20,24,27,32,14,138,1.6,0.8,1.3*35
2017-11-16 14:26:53 1510860413.535051: $GPZDA,192652.00,16,11,2017,00,00*6E
2017-11-16 14:26:53 1510860413.535215: $GPGGA,192652,3946.9569,N,08404.9849,W,2,12,0.80,303.30,M,-33.324,M,,*77
2017-11-16 14:26:53 1510860413.535276: $GPRMC,192652,A,3946.9569,N,08404.9849,W,0.0000,0.000,161117,,*3A
2017-11-16 14:26:53 1510860413.535331: $GPGSA,A,3,8,10,13,15,18,21,20,24,27,32,14,138,1.6,0.8,1.3*35
2017-11-16 14:26:54 1510860414.866671: $GPGSV,3,1,12,08,07,318,38,10,46,306,48,13,03,051,20,15,33,054,51*7A
2017-11-16 14:26:54 1510860414.866855: $GPGSV,3,2,12,18,74,349,46,21,58,187,44,20,29,100,46,24,52,102,48*79
2017-11-16 14:26:54 1510860414.866916: $GPGSV,3,3,12,27,18,283,42,32,25,241,45,14,08,235,38,138,38,213,44*4A
2017-11-16 14:26:54 1510860414.979985: $GPZDA,192653.00,16,11,2017,00,00*6F
2017-11-16 14:26:54 1510860414.980138: $GPGGA,192653,3946.9569,N,08404.9849,W,2,12,0.80,303.30,M,-33.324,M,,*76
2017-11-16 14:26:54 1510860414.980253: $GPRMC,192653,A,3946.9569,N,08404.9849,W,0.0000,0.000,161117,,*3B
2017-11-16 14:26:54 1510860414.980373: $GPGSA,A,3,8,10,13,15,18,21,20,24,27,32,14,138,1.6,0.8,1.3*35
2017-11-16 14:26:55 1510860415.535873: $GPZDA,192654.00,16,11,2017,00,00*68
2017-11-16 14:26:55 1510860415.536048: $GPGGA,192654,3946.9569,N,08404.9849,W,2,12,0.80,303.30,M,-33.324,M,,*71
2017-11-16 14:26:55 1510860415.536109: $GPRMC,192654,A,3946.9569,N,08404.9849,W,0.0000,0.000,161117,,*3C
2017-11-16 14:26:55 1510860415.536165: $GPGSA,A,3,8,10,13,15,18,21,20,24,27,32,14,138,1.6,0.8,1.3*35
2017-11-16 14:26:56 1510860416.504212: $GPZDA,192655.00,16,11,2017,00,00*69
2017-11-16 14:26:56 1510860416.504379: $GPGGA,192655,3946.9569,N,08404.9849,W,2,12,0.80,303.30,M,-33.324,M,,*70
2017-11-16 14:26:56 1510860416.504440: $GPRMC,192655,A,3946.9569,N,08404.9849,W,0.0000,0.000,161117,,*3D
2017-11-16 14:26:56 1510860416.504497: $GPGSA,A,3,8,10,13,15,18,21,20,24,27,32,14,138,1.6,0.8,1.3*35
2017-11-16 14:26:57 1510860417.840194: $GPGSV,3,1,12,08,07,318,35,10,46,306,48,13,03,051,20,15,33,054,51*77
2017-11-16 14:26:57 1510860417.840408: $GPGSV,3,2,12,18,74,349,46,21,58,187,44,20,29,100,46,24,52,102,48*79
2017-11-16 14:26:57 1510860417.840472: $GPGSV,3,3,12,27,18,283,42,32,25,241,46,14,08,235,38,138,38,213,43*4E
2017-11-16 14:26:57 1510860417.953458: $GPZDA,192656.00,16,11,2017,00,00*6A
2017-11-16 14:26:57 1510860417.953655: $GPGGA,192656,3946.9569,N,08404.9849,W,2,12,0.80,303.30,M,-33.324,M,,*73
2017-11-16 14:26:57 1510860417.953716: $GPRMC,192656,A,3946.9569,N,08404.9849,W,0.0000,0.000,161117,,*3E
2017-11-16 14:26:57 1510860417.953773: $GPGSA,A,3,8,10,13,15,18,21,20,24,27,32,14,138,1.6,0.8,1.3*35
2017-11-16 14:26:58 1510860418.504292: $GPZDA,192657.00,16,11,2017,00,00*6B
2017-11-16 14:26:58 1510860418.504473: $GPGGA,192657,3946.9569,N,08404.9849,W,2,12,0.80,303.30,M,-33.324,M,,*72
2017-11-16 14:26:58 1510860418.504553: $GPRMC,192657,A,3946.9569,N,08404.9849,W,0.0000,0.000,161117,,*3F
2017-11-16 14:26:58 1510860418.504610: $GPGSA,A,3,8,10,13,15,18,21,20,24,27,32,14,138,1.6,0.8,1.3*35
2017-11-16 14:26:59 1510860419.504745: $GPZDA,192658.00,16,11,2017,00,00*64
2017-11-16 14:26:59 1510860419.504921: $GPGGA,192658,3946.9569,N,08404.9849,W,2,12,0.80,303.30,M,-33.324,M,,*7D
2017-11-16 14:26:59 1510860419.504982: $GPRMC,192658,A,3946.9569,N,08404.9849,W,0.0000,0.000,161117,,*30
2017-11-16 14:26:59 1510860419.505037: $GPGSA,A,3,8,10,13,15,18,21,20,24,27,32,14,138,1.6,0.8,1.3*35
2017-11-16 14:27:00 1510860420.868018: $GPGSV,3,1,12,08,07,318,28,10,46,306,48,13,03,051,21,15,33,054,51*7A
2017-11-16 14:27:00 1510860420.868187: $GPGSV,3,2,12,18,74,349,46,21,58,187,45,20,29,100,46,24,52,102,48*78
2017-11-16 14:27:00 1510860420.868247: $GPGSV,3,3,12,27,18,283,42,32,25,241,46,14,08,235,38,138,38,213,42*4F
2017-11-16 14:27:00 1510860420.981480: $GPZDA,192659.00,16,11,2017,00,00*65
2017-11-16 14:27:00 1510860420.981688: $GPGGA,192659,3946.9569,N,08404.9849,W,2,12,0.80,303.30,M,-33.324,M,,*7C
2017-11-16 14:27:00 1510860420.981752: $GPRMC,192659,A,3946.9569,N,08404.9849,W,0.0000,0.000,161117,,*31
2017-11-16 14:27:00 1510860420.981809: $GPGSA,A,3,8,10,13,15,18,21,20,24,27,32,14,138,1.6,0.8,1.3*35
2017-11-16 14:27:01 1510860421.505117: $GPZDA,192700.00,16,11,2017,00,00*68
2017-11-16 14:27:01 1510860421.505292: $GPGGA,192700,3946.9569,N,08404.9849,W,2,12,0.80,303.30,M,-33.324,M,,*71
2017-11-16 14:27:01 1510860421.505352: $GPRMC,192700,A,3946.9569,N,08404.9849,W,0.0000,0.000,161117,,*3C
2017-11-16 14:27:01 1510860421.505408: $GPGSA,A,3,8,10,13,15,18,21,20,24,27,32,14,138,1.6,0.8,1.3*35
2017-11-16 14:27:02 1510860422.537440: $GPZDA,192701.00,16,11,2017,00,00*69
2017-11-16 14:27:02 1510860422.537616: $GPGGA,192701,3946.9569,N,08404.9849,W,2,12,0.80,303.30,M,-33.324,M,,*70
2017-11-16 14:27:02 1510860422.537694: $GPRMC,192701,A,3946.9569,N,08404.9849,W,0.0000,0.000,161117,,*3D
2017-11-16 14:27:02 1510860422.537752: $GPGSA,A,3,8,10,13,15,18,21,20,24,27,32,14,138,1.6,0.8,1.3*35
2017-11-16 14:27:03 1510860423.872811: $GPGSV,3,1,12,08,07,318,28,10,46,306,48,13,03,051,21,15,33,054,51*7A
2017-11-16 14:27:03 1510860423.872982: $GPGSV,3,2,12,18,74,349,46,21,58,187,45,20,29,100,45,24,52,102,48*7B
2017-11-16 14:27:03 1510860423.873042: $GPGSV,3,3,12,27,18,283,41,32,25,241,45,14,08,235,38,138,38,213,43*4E
2017-11-16 14:27:03 1510860423.986446: $GPZDA,192702.00,16,11,2017,00,00*6A
2017-11-16 14:27:03 1510860423.986613: $GPGGA,192702,3946.9569,N,08404.9849,W,2,12,0.80,303.30,M,-33.324,M,,*73
2017-11-16 14:27:03 1510860423.986675: $GPRMC,192702,A,3946.9569,N,08404.9849,W,0.0000,0.000,161117,,*3E
2017-11-16 14:27:03 1510860423.986737: $GPGSA,A,3,8,10,13,15,18,21,20,24,27,32,14,138,1.6,0.8,1.3*35
2017-11-16 14:27:04 1510860424.611426: $GPZDA,192703.00,16,11,2017,00,00*6B
2017-11-16 14:27:04 1510860424.611602: $GPGGA,192703,3946.9569,N,08404.9849,W,2,12,0.80,303.30,M,-33.324,M,,*72
2017-11-16 14:27:04 1510860424.611669: $GPRMC,192703,A,3946.9569,N,08404.9849,W,0.0000,0.000,161117,,*3F
2017-11-16 14:27:04 1510860424.611730: $GPGSA,A,3,8,10,13,15,18,21,20,24,27,32,14,138,1.6,0.8,1.3*35
2017-11-16 14:27:05 1510860425.536303: $GPZDA,192704.00,16,11,2017,00,00*6C
2017-11-16 14:27:05 1510860425.536467: $GPGGA,192704,3946.9569,N,08404.9849,W,2,12,0.80,303.30,M,-33.324,M,,*75
2017-11-16 14:27:05 1510860425.536527: $GPRMC,192704,A,3946.9569,N,08404.9849,W,0.0000,0.000,161117,,*38
2017-11-16 14:27:05 1510860425.536584: $GPGSA,A,3,8,10,13,15,18,21,20,24,27,32,14,138,1.6,0.8,1.3*35
2017-11-16 14:27:06 1510860426.874337: $GPGSV,3,1,12,08,07,318,34,10,46,306,48,13,03,051,21,15,33,054,51*77
2017-11-16 14:27:06 1510860426.874511: $GPGSV,3,2,12,18,74,349,46,21,58,187,45,20,29,100,45,24,52,102,48*7B
2017-11-16 14:27:06 1510860426.874572: $GPGSV,3,3,12,27,18,283,41,32,25,241,45,14,08,235,39,138,38,213,44*48
2017-11-16 14:27:06 1510860426.986401: $GPZDA,192705.00,16,11,2017,00,00*6D
2017-11-16 14:27:06 1510860426.986565: $GPGGA,192705,3946.9569,N,08404.9849,W,2,12,0.80,303.30,M,-33.324,M,,*74
2017-11-16 14:27:06 1510860426.986628: $GPRMC,192705,A,3946.9569,N,08404.9849,W,0.0000,0.000,161117,,*39
2017-11-16 14:27:06 1510860426.986687: $GPGSA,A,3,8,10,13,15,18,21,20,24,27,32,14,138,1.6,0.8,1.3*35
2017-11-16 14:27:07 1510860427.503791: $GPZDA,192706.00,16,11,2017,00,00*6E
2017-11-16 14:27:07 1510860427.503957: $GPGGA,192706,3946.9569,N,08404.9849,W,2,12,0.80,303.30,M,-33.324,M,,*77
2017-11-16 14:27:07 1510860427.504019: $GPRMC,192706,A,3946.9569,N,08404.9849,W,0.0000,0.000,161117,,*3A
2017-11-16 14:27:07 1510860427.504075: $GPGSA,A,3,8,10,13,15,18,21,20,24,27,32,14,138,1.6,0.8,1.3*35
2017-11-16 14:27:08 1510860428.504703: $GPZDA,192707.00,16,11,2017,00,00*6F
2017-11-16 14:27:08 1510860428.504871: $GPGGA,192707,3946.9569,N,08404.9849,W,2,12,0.80,303.30,M,-33.324,M,,*76
2017-11-16 14:27:08 1510860428.504932: $GPRMC,192707,A,3946.9569,N,08404.9849,W,0.0000,0.000,161117,,*3B
2017-11-16 14:27:08 1510860428.504988: $GPGSA,A,3,8,10,13,15,18,21,20,24,27,32,14,138,1.6,0.8,1.3*35
2017-11-16 14:27:09 1510860429.839747: $GPGSV,3,1,12,08,07,318,34,10,46,306,47,13,03,051,21,15,33,054,51*78
2017-11-16 14:27:09 1510860429.839940: $GPGSV,3,2,12,18,74,349,46,21,58,187,45,20,29,100,46,24,52,102,48*78
2017-11-16 14:27:09 1510860429.840002: $GPGSV,3,3,12,27,18,283,40,32,25,241,45,14,08,235,38,138,38,213,43*4F
2017-11-16 14:27:09 1510860429.953450: $GPZDA,192708.00,16,11,2017,00,00*60
2017-11-16 14:27:09 1510860429.953613: $GPGGA,192708,3946.9569,N,08404.9849,W,2,12,0.80,303.30,M,-33.324,M,,*79
2017-11-16 14:27:09 1510860429.953675: $GPRMC,192708,A,3946.9569,N,08404.9849,W,0.0000,0.000,161117,,*34
2017-11-16 14:27:09 1510860429.953734: $GPGSA,A,3,8,10,13,15,18,21,20,24,27,32,14,138,1.6,0.8,1.3*35
2017-11-16 14:27:10 1510860430.504333: $GPZDA,192709.00,16,11,2017,00,00*61
2017-11-16 14:27:10 1510860430.504491: $GPGGA,192709,3946.9569,N,08404.9849,W,2,12,0.80,303.30,M,-33.324,M,,*78
2017-11-16 14:27:10 1510860430.504553: $GPRMC,192709,A,3946.9569,N,08404.9849,W,0.0000,0.000,161117,,*35
2017-11-16 14:27:10 1510860430.504609: $GPGSA,A,3,8,10,13,15,18,21,20,24,27,32,14,138,1.6,0.8,1.3*35
2017-11-16 14:27:11 1510860431.503693: $GPZDA,192710.00,16,11,2017,00,00*69
2017-11-16 14:27:11 1510860431.503870: $GPGGA,192710,3946.9569,N,08404.9849,W,2,12,0.80,303.30,M,-33.324,M,,*70
2017-11-16 14:27:11 1510860431.503932: $GPRMC,192710,A,3946.9569,N,08404.9849,W,0.0000,0.000,161117,,*3D
2017-11-16 14:27:11 1510860431.503988: $GPGSA,A,3,8,10,13,15,18,21,20,24,27,32,14,138,1.6,0.8,1.3*35
2017-11-16 14:27:12 1510860432.841976: $GPGSV,3,1,12,08,07,318,35,10,46,306,47,13,03,051,21,15,33,054,51*79
2017-11-16 14:27:12 1510860432.842130: $GPGSV,3,2,12,18,74,349,46,21,58,187,45,20,29,100,46,24,52,102,47*77
2017-11-16 14:27:12 1510860432.842190: $GPGSV,3,3,12,27,18,283,40,32,25,241,45,14,08,235,38,138,38,213,43*4F
2017-11-16 14:27:12 1510860432.955254: $GPZDA,192711.00,16,11,2017,00,00*68
2017-11-16 14:27:12 1510860432.955459: $GPGGA,192711,3946.9569,N,08404.9849,W,2,12,0.80,303.30,M,-33.324,M,,*71
2017-11-16 14:27:12 1510860432.955520: $GPRMC,192711,A,3946.9569,N,08404.9849,W,0.0000,0.000,161117,,*3C
2017-11-16 14:27:12 1510860432.955576: $GPGSA,A,3,8,10,13,15,18,21,20,24,27,32,14,138,1.6,0.8,1.3*35
2017-11-16 14:27:13 1510860433.504984: $GPZDA,192712.00,16,11,2017,00,00*6B
2017-11-16 14:27:13 1510860433.505163: $GPGGA,192712,3946.9569,N,08404.9849,W,2,12,0.80,303.30,M,-33.324,M,,*72
2017-11-16 14:27:13 1510860433.505224: $GPRMC,192712,A,3946.9569,N,08404.9849,W,0.0000,0.000,161117,,*3F
2017-11-16 14:27:13 1510860433.505280: $GPGSA,A,3,8,10,13,15,18,21,20,24,27,32,14,138,1.6,0.8,1.3*35
2017-11-16 14:27:14 1510860434.499390: $GPZDA,192713.00,16,11,2017,00,00*6A
2017-11-16 14:27:14 1510860434.499552: $GPGGA,192713,3946.9569,N,08404.9849,W,2,12,0.80,303.30,M,-33.324,M,,*73
2017-11-16 14:27:14 1510860434.499614: $GPRMC,192713,A,3946.9569,N,08404.9849,W,0.0000,0.000,161117,,*3E
2017-11-16 14:27:14 1510860434.499670: $GPGSA,A,3,8,10,13,15,18,21,20,24,27,32,14,138,1.6,0.8,1.3*35
2017-11-16 14:27:15 1510860435.839993: $GPGSV,3,1,12,08,07,318,35,10,46,306,46,13,03,051,20,15,33,054,51*79
2017-11-16 14:27:15 1510860435.840162: $GPGSV,3,2,12,18,74,349,46,21,58,187,45,20,29,100,46,24,52,102,47*77
2017-11-16 14:27:15 1510860435.840222: $GPGSV,3,3,12,27,18,283,40,32,25,241,45,14,08,235,38,138,38,213,44*48
2017-11-16 14:27:15 1510860435.953559: $GPZDA,192714.00,16,11,2017,00,00*6D
2017-11-16 14:27:15 1510860435.953732: $GPGGA,192714,3946.9569,N,08404.9849,W,2,12,0.80,303.30,M,-33.324,M,,*74
2017-11-16 14:27:15 1510860435.953797: $GPRMC,192714,A,3946.9569,N,08404.9849,W,0.0000,0.000,161117,,*39
2017-11-16 14:27:15 1510860435.953853: $GPGSA,A,3,8,10,13,15,18,21,20,24,27,32,14,138,1.6,0.8,1.3*35
2017-11-16 14:27:16 1510860436.504205: $GPZDA,192715.00,16,11,2017,00,00*6C
2017-11-16 14:27:16 1510860436.504372: $GPGGA,192715,3946.9569,N,08404.9849,W,2,12,0.80,303.30,M,-33.324,M,,*75
2017-11-16 14:27:16 1510860436.504434: $GPRMC,192715,A,3946.9569,N,08404.9849,W,0.0000,0.000,161117,,*38
2017-11-16 14:27:16 1510860436.504490: $GPGSA,A,3,8,10,13,15,18,21,20,24,27,32,14,138,1.6,0.8,1.3*35
2017-11-16 14:27:17 1510860437.505359: $GPZDA,192716.00,16,11,2017,00,00*6F
2017-11-16 14:27:17 1510860437.505514: $GPGGA,192716,3946.9569,N,08404.9849,W,2,12,0.80,303.30,M,-33.324,M,,*76
2017-11-16 14:27:17 1510860437.505575: $GPRMC,192716,A,3946.9569,N,08404.9849,W,0.0000,0.000,161117,,*3B
2017-11-16 14:27:17 1510860437.505631: $GPGSA,A,3,8,10,13,15,18,21,20,24,27,32,14,138,1.6,0.8,1.3*35
