2017-12-01 12:23:53 1512149033.477124: {"class":"VERSION","release":"3.16","rev":"3.16-4","proto_major":3,"proto_minor":11}
2017-12-01 12:23:53 1512149033.477550: {"class":"DEVICES","devices":[{"class":"DEVICE","path":"/dev/ttyUSB0","driver":"SiRF","subtype":"9\u0006GSD4e_4.1.2-P1_RPATCH.05-F-GPS-4R-1510281 11/03/2015 307","activated":"2017-12-01T17:23:53.458Z","flags":1,"native":1,"bps":4800,"parity":"N","stopbits":1,"cycle":1.00}]}
2017-12-01 12:23:53 1512149033.477667: {"class":"WATCH","enable":true,"json":false,"nmea":true,"raw":0,"scaled":false,"timing":false,"split24":false,"pps":false}
2017-12-01 12:23:54 1512149034.345815: $GPZDA,172355.00,01,12,2017,00,00*67
2017-12-01 12:23:54 1512149034.345987: $GPGGA,172355,3946.9568,N,08404.9848,W,2,12,0.80,301.90,M,-33.324,M,,*73
2017-12-01 12:23:54 1512149034.346056: $GPRMC,172355,A,3946.9568,N,08404.9848,W,0.0000,0.000,011217,,*33
2017-12-01 12:23:54 1512149034.346117: $GPGSA,A,3,10,13,15,18,20,21,24,27,32,29,5,138,2.0,0.8,1.5*35
2017-12-01 12:23:55 1512149035.664873: $GPGSV,3,1,12,10,25,285,39,13,26,045,45,15,58,051,47,18,56,303,45*78
2017-12-01 12:23:55 1512149035.665055: $GPGSV,3,2,12,20,49,075,44,21,79,252,42,24,36,136,47,27,17,310,38*76
2017-12-01 12:23:55 1512149035.665121: $GPGSV,3,3,12,32,03,226,23,29,07,189,28,05,02,090,20,138,38,213,45*45
2017-12-01 12:23:55 1512149035.778255: $GPZDA,172356.00,01,12,2017,00,00*64
2017-12-01 12:23:55 1512149035.778426: $GPGGA,172356,3946.9568,N,08404.9848,W,2,12,0.80,301.90,M,-33.324,M,,*70
2017-12-01 12:23:55 1512149035.778492: $GPRMC,172356,A,3946.9568,N,08404.9848,W,0.0000,0.000,011217,,*30
2017-12-01 12:23:55 1512149035.778553: $GPGSA,A,3,10,13,15,18,20,21,24,27,32,29,5,138,2.0,0.8,1.5*35
2017-12-01 12:23:56 1512149036.327871: $GPZDA,172357.00,01,12,2017,00,00*65
2017-12-01 12:23:56 1512149036.328045: $GPGGA,172357,3946.9568,N,08404.9848,W,2,12,0.80,301.90,M,-33.324,M,,*71
2017-12-01 12:23:56 1512149036.328112: $GPRMC,172357,A,3946.9568,N,08404.9848,W,0.0000,0.000,011217,,*31
2017-12-01 12:23:56 1512149036.328173: $GPGSA,A,3,10,13,15,18,20,21,24,27,32,29,5,138,2.0,0.8,1.5*35
2017-12-01 12:23:57 1512149037.348766: $GPZDA,172358.00,01,12,2017,00,00*6A
2017-12-01 12:23:57 1512149037.348947: $GPGGA,172358,3946.9568,N,08404.9848,W,2,12,0.80,301.90,M,-33.324,M,,*7E
2017-12-01 12:23:57 1512149037.349015: $GPRMC,172358,A,3946.9568,N,08404.9848,W,0.0000,0.000,011217,,*3E
2017-12-01 12:23:57 1512149037.349076: $GPGSA,A,3,10,13,15,18,20,21,24,27,32,29,5,138,2.0,0.8,1.5*35
2017-12-01 12:23:58 1512149038.667716: $GPGSV,3,1,12,10,25,285,40,13,26,045,44,15,58,051,47,18,56,303,45*77
2017-12-01 12:23:58 1512149038.667876: $GPGSV,3,2,12,20,49,075,44,21,79,252,42,24,36,136,47,27,17,310,38*76
2017-12-01 12:23:58 1512149038.667942: $GPGSV,3,3,12,32,03,226,24,29,07,189,28,05,02,090,21,138,38,213,45*43
2017-12-01 12:23:58 1512149038.781087: $GPZDA,172359.00,01,12,2017,00,00*6B
2017-12-01 12:23:58 1512149038.781262: $GPGGA,172359,3946.9568,N,08404.9848,W,2,12,0.80,301.90,M,-33.324,M,,*7F
2017-12-01 12:23:58 1512149038.781329: $GPRMC,172359,A,3946.9568,N,08404.9848,W,0.0000,0.000,011217,,*3F
2017-12-01 12:23:58 1512149038.781493: $GPGSA,A,3,10,13,15,18,20,21,24,27,32,29,5,138,2.0,0.8,1.5*35
2017-12-01 12:23:59 1512149039.349445: $GPZDA,172400.00,01,12,2017,00,00*60
2017-12-01 12:23:59 1512149039.349617: $GPGGA,172400,3946.9567,N,08404.9841,W,2,12,0.80,301.98,M,-33.324,M,,*7A
2017-12-01 12:23:59 1512149039.349683: $GPRMC,172400,A,3946.9567,N,08404.9841,W,0.0000,0.000,011217,,*32
2017-12-01 12:23:59 1512149039.349745: $GPGSA,A,3,10,13,15,18,20,21,24,27,32,29,5,138,2.0,0.8,1.5*35
2017-12-01 12:24:00 1512149040.332850: $GPZDA,172401.00,01,12,2017,00,00*61
2017-12-01 12:24:00 1512149040.333020: $GPGGA,172401,3946.9567,N,08404.9841,W,2,12,0.80,301.98,M,-33.324,M,,*7B
2017-12-01 12:24:00 1512149040.333087: $GPRMC,172401,A,3946.9567,N,08404.9841,W,0.0000,0.000,011217,,*33
2017-12-01 12:24:00 1512149040.333148: $GPGSA,A,3,10,13,15,18,20,21,24,27,32,29,5,138,2.0,0.8,1.5*35
2017-12-01 12:24:01 1512149041.668582: $GPGSV,3,1,12,10,25,285,40,13,26,045,44,15,58,051,47,18,56,303,45*77
2017-12-01 12:24:01 1512149041.668834: $GPGSV,3,2,12,20,49,075,44,21,79,252,42,24,36,136,47,27,17,310,38*76
2017-12-01 12:24:01 1512149041.668905: $GPGSV,3,3,12,32,03,226,25,29,07,189,28,05,02,090,21,138,38,213,46*41
2017-12-01 12:24:01 1512149041.781962: $GPZDA,172402.00,01,12,2017,00,00*62
2017-12-01 12:24:01 1512149041.782121: $GPGGA,172402,3946.9567,N,08404.9841,W,2,12,0.80,301.98,M,-33.324,M,,*78
2017-12-01 12:24:01 1512149041.782188: $GPRMC,172402,A,3946.9567,N,08404.9841,W,0.0000,0.000,011217,,*30
2017-12-01 12:24:01 1512149041.782249: $GPGSA,A,3,10,13,15,18,20,21,24,27,32,29,5,138,2.0,0.8,1.5*35
2017-12-01 12:24:02 1512149042.342926: $GPZDA,172403.00,01,12,2017,00,00*63
2017-12-01 12:24:02 1512149042.343093: $GPGGA,172403,3946.9567,N,08404.9841,W,2,12,0.80,301.98,M,-33.324,M,,*79
2017-12-01 12:24:02 1512149042.343158: $GPRMC,172403,A,3946.9567,N,08404.9841,W,0.0000,0.000,011217,,*31
2017-12-01 12:24:02 1512149042.343219: $GPGSA,A,3,10,13,15,18,20,21,24,27,32,29,5,138,2.0,0.8,1.5*35
2017-12-01 12:24:03 1512149043.333212: $GPZDA,172404.00,01,12,2017,00,00*64
2017-12-01 12:24:03 1512149043.333380: $GPGGA,172404,3946.9567,N,08404.9841,W,2,12,0.80,301.98,M,-33.324,M,,*7E
2017-12-01 12:24:03 1512149043.333446: $GPRMC,172404,A,3946.9567,N,08404.9841,W,0.0000,0.000,011217,,*36
2017-12-01 12:24:03 1512149043.333528: $GPGSA,A,3,10,13,15,18,20,21,24,27,32,29,5,138,2.0,0.8,1.5*35
