2017-11-16 13:48:31 1510858111.138396: {"class":"VERSION","release":"3.17","rev":"3.17","proto_major":3,"proto_minor":12}
2017-11-16 13:48:31 1510858111.138942: {"class":"DEVICES","devices":[{"class":"DEVICE","path":"/dev/ttyUSB0","driver":"SiRF","subtype":"9\u0006GSD4e_4.1.2-P1_RPATCH.05-F-GPS-4R-1510281 11/03/2015 307","activated":"2017-11-16T18:48:30.458Z","flags":1,"native":1,"bps":4800,"parity":"N","stopbits":1,"cycle":1.00}]}
2017-11-16 13:48:31 1510858111.139058: {"class":"WATCH","enable":true,"json":false,"nmea":true,"raw":0,"scaled":false,"timing":false,"split24":false,"pps":false}
2017-11-16 13:48:31 1510858111.661548: $GPGSV,3,1,11,10,33,292,37,13,17,046,46,15,48,049,51,18,63,316,48*76
2017-11-16 13:48:31 1510858111.661716: $GPGSV,3,2,11,20,41,085,48,21,74,208,46,24,44,126,45,27,19,300,36*7F
2017-11-16 13:48:31 1510858111.661775: $GPGSV,3,3,11,32,11,231,24,08,02,330,00,138,38,213,44*75
2017-11-16 13:48:31 1510858111.774974: $GPZDA,184830.00,16,11,2017,00,00*63
2017-11-16 13:48:31 1510858111.775144: $GPGGA,184830,3946.9600,N,08404.9834,W,2,10,0.80,305.77,M,-33.324,M,,*7B
2017-11-16 13:48:31 1510858111.775204: $GPRMC,184830,A,3946.9600,N,08404.9834,W,0.0000,0.000,161117,,*31
2017-11-16 13:48:31 1510858111.775260: $GPGSA,A,3,10,13,15,18,20,21,24,27,32,138,,,1.6,0.8,1.3*08
2017-11-16 13:48:32 1510858112.400792: $GPZDA,184831.00,16,11,2017,00,00*62
2017-11-16 13:48:32 1510858112.400943: $GPGGA,184831,3946.9600,N,08404.9834,W,2,10,0.80,305.77,M,-33.324,M,,*7A
2017-11-16 13:48:32 1510858112.401010: $GPRMC,184831,A,3946.9600,N,08404.9834,W,0.0000,0.000,161117,,*30
2017-11-16 13:48:32 1510858112.401070: $GPGSA,A,3,10,13,15,18,20,21,24,27,32,138,,,1.6,0.8,1.3*08
2017-11-16 13:48:33 1510858113.322625: $GPZDA,184832.00,16,11,2017,00,00*61
2017-11-16 13:48:33 1510858113.322789: $GPGGA,184832,3946.9600,N,08404.9834,W,2,10,0.80,305.77,M,-33.324,M,,*79
2017-11-16 13:48:33 1510858113.322850: $GPRMC,184832,A,3946.9600,N,08404.9834,W,0.0000,0.000,161117,,*33
2017-11-16 13:48:33 1510858113.322905: $GPGSA,A,3,10,13,15,18,20,21,24,27,32,138,,,1.6,0.8,1.3*08
2017-11-16 13:48:34 1510858114.658651: $GPGSV,3,1,11,10,33,292,36,13,17,046,46,15,48,049,51,18,63,316,48*77
2017-11-16 13:48:34 1510858114.658800: $GPGSV,3,2,11,20,41,085,48,21,74,208,46,24,44,126,44,27,19,300,36*7E
2017-11-16 13:48:34 1510858114.658860: $GPGSV,3,3,11,32,11,231,24,08,02,330,00,138,38,213,44*75
2017-11-16 13:48:34 1510858114.770742: $GPZDA,184833.00,16,11,2017,00,00*60
2017-11-16 13:48:34 1510858114.770922: $GPGGA,184833,3946.9600,N,08404.9834,W,2,10,0.80,305.77,M,-33.324,M,,*78
2017-11-16 13:48:34 1510858114.770983: $GPRMC,184833,A,3946.9600,N,08404.9834,W,0.0000,0.000,161117,,*32
2017-11-16 13:48:34 1510858114.771039: $GPGSA,A,3,10,13,15,18,20,21,24,27,32,138,,,1.6,0.8,1.3*08
2017-11-16 13:48:35 1510858115.322878: $GPZDA,184834.00,16,11,2017,00,00*67
2017-11-16 13:48:35 1510858115.323066: $GPGGA,184834,3946.9600,N,08404.9834,W,2,10,0.80,305.77,M,-33.324,M,,*7F
2017-11-16 13:48:35 1510858115.323149: $GPRMC,184834,A,3946.9600,N,08404.9834,W,0.0000,0.000,161117,,*35
2017-11-16 13:48:35 1510858115.323206: $GPGSA,A,3,10,13,15,18,20,21,24,27,32,138,,,1.6,0.8,1.3*08
2017-11-16 13:48:36 1510858116.321481: $GPZDA,184835.00,16,11,2017,00,00*66
2017-11-16 13:48:36 1510858116.321649: $GPGGA,184835,3946.9600,N,08404.9834,W,2,10,0.80,305.77,M,-33.324,M,,*7E
2017-11-16 13:48:36 1510858116.321711: $GPRMC,184835,A,3946.9600,N,08404.9834,W,0.0000,0.000,161117,,*34
2017-11-16 13:48:36 1510858116.321767: $GPGSA,A,3,10,13,15,18,20,21,24,27,32,138,,,1.6,0.8,1.3*08
2017-11-16 13:48:37 1510858117.659441: $GPGSV,3,1,11,10,33,292,38,13,17,046,46,15,48,049,51,18,63,316,48*79
2017-11-16 13:48:37 1510858117.659629: $GPGSV,3,2,11,20,41,085,48,21,74,208,46,24,44,126,44,27,19,300,36*7E
2017-11-16 13:48:37 1510858117.659689: $GPGSV,3,3,11,32,11,231,24,08,02,330,00,138,38,213,43*72
2017-11-16 13:48:37 1510858117.772785: $GPZDA,184836.00,16,11,2017,00,00*65
2017-11-16 13:48:37 1510858117.772946: $GPGGA,184836,3946.9600,N,08404.9834,W,2,10,0.80,305.77,M,-33.324,M,,*7D
2017-11-16 13:48:37 1510858117.773060: $GPRMC,184836,A,3946.9600,N,08404.9834,W,0.0000,0.000,161117,,*37
2017-11-16 13:48:37 1510858117.773118: $GPGSA,A,3,10,13,15,18,20,21,24,27,32,138,,,1.6,0.8,1.3*08
2017-11-16 13:48:38 1510858118.322497: $GPZDA,184837.00,16,11,2017,00,00*64
2017-11-16 13:48:38 1510858118.322659: $GPGGA,184837,3946.9600,N,08404.9834,W,2,10,0.80,305.77,M,-33.324,M,,*7C
2017-11-16 13:48:38 1510858118.322719: $GPRMC,184837,A,3946.9600,N,08404.9834,W,0.0000,0.000,161117,,*36
2017-11-16 13:48:38 1510858118.322775: $GPGSA,A,3,10,13,15,18,20,21,24,27,32,138,,,1.6,0.8,1.3*08
2017-11-16 13:48:39 1510858119.326007: $GPZDA,184838.00,16,11,2017,00,00*6B
2017-11-16 13:48:39 1510858119.326170: $GPGGA,184838,3946.9600,N,08404.9834,W,2,10,0.80,305.77,M,-33.324,M,,*73
2017-11-16 13:48:39 1510858119.326232: $GPRMC,184838,A,3946.9600,N,08404.9834,W,0.0000,0.000,161117,,*39
2017-11-16 13:48:39 1510858119.326288: $GPGSA,A,3,10,13,15,18,20,21,24,27,32,138,,,1.6,0.8,1.3*08
2017-11-16 13:48:40 1510858120.660865: $GPGSV,3,1,11,10,33,292,32,13,17,046,46,15,48,049,51,18,63,316,48*73
2017-11-16 13:48:40 1510858120.661036: $GPGSV,3,2,11,20,41,085,48,21,74,208,46,24,44,126,44,27,19,300,36*7E
2017-11-16 13:48:40 1510858120.661097: $GPGSV,3,3,11,32,11,231,25,08,02,330,00,138,38,213,44*74
2017-11-16 13:48:40 1510858120.774472: $GPZDA,184839.00,16,11,2017,00,00*6A
2017-11-16 13:48:40 1510858120.774628: $GPGGA,184839,3946.9600,N,08404.9834,W,2,10,0.80,305.77,M,-33.324,M,,*72
2017-11-16 13:48:40 1510858120.774689: $GPRMC,184839,A,3946.9600,N,08404.9834,W,0.0000,0.000,161117,,*38
2017-11-16 13:48:40 1510858120.774745: $GPGSA,A,3,10,13,15,18,20,21,24,27,32,138,,,1.6,0.8,1.3*08
