2018-01-11 20:07:14 1515719234.101008: {"class":"VERSION","release":"3.16","rev":"3.16-4","proto_major":3,"proto_minor":11}
2018-01-11 20:07:14 1515719234.101492: {"class":"DEVICES","devices":[{"class":"DEVICE","path":"/dev/ttyUSB0","driver":"SiRF","subtype":"9\u0006GSD4e_4.1.2-P1_RPATCH.05-F-GPS-4R-1510281 11/03/2015 307","activated":"2018-01-12T01:07:13.489Z","flags":1,"native":1,"bps":4800,"parity":"N","stopbits":1,"cycle":1.00}]}
2018-01-11 20:07:14 1515719234.101613: {"class":"WATCH","enable":true,"json":false,"nmea":true,"raw":0,"scaled":false,"timing":false,"split24":false,"pps":false}
2018-01-11 20:07:14 1515719234.347595: $GPZDA,010715.00,12,01,2018,00,00*6D
2018-01-11 20:07:14 1515719234.347766: $GPGGA,010715,3946.9568,N,08404.9822,W,2,10,0.80,305.02,M,-33.324,M,,*77
2018-01-11 20:07:14 1515719234.347831: $GPRMC,010715,A,3946.9568,N,08404.9822,W,0.0000,0.000,120118,,*35
2018-01-11 20:07:14 1515719234.347892: $GPGSA,A,3,7,8,9,11,16,23,27,28,30,138,,,4.0,0.8,3.5*3E
2018-01-11 20:07:15 1515719235.689581: $GPGSV,3,1,10,07,54,313,40,08,72,138,46,09,49,231,44,11,18,168,47*7D
2018-01-11 20:07:15 1515719235.689753: $GPGSV,3,2,10,16,24,058,44,23,31,190,47,27,49,054,50,28,13,256,31*7A
2018-01-11 20:07:15 1515719235.689820: $GPGSV,3,3,10,30,27,306,36,138,38,213,45*4E
2018-01-11 20:07:15 1515719235.802931: $GPZDA,010716.00,12,01,2018,00,00*6E
2018-01-11 20:07:15 1515719235.803071: $GPGGA,010716,3946.9568,N,08404.9822,W,2,10,0.80,305.02,M,-33.324,M,,*74
2018-01-11 20:07:15 1515719235.803137: $GPRMC,010716,A,3946.9568,N,08404.9822,W,0.0000,0.000,120118,,*36
2018-01-11 20:07:15 1515719235.803197: $GPGSA,A,3,7,8,9,11,16,23,27,28,30,138,,,4.0,0.8,3.5*3E
2018-01-11 20:07:16 1515719236.353831: $GPZDA,010717.00,12,01,2018,00,00*6F
2018-01-11 20:07:16 1515719236.353992: $GPGGA,010717,3946.9568,N,08404.9822,W,2,10,0.80,305.02,M,-33.324,M,,*75
2018-01-11 20:07:16 1515719236.354058: $GPRMC,010717,A,3946.9568,N,08404.9822,W,0.0000,0.000,120118,,*37
2018-01-11 20:07:16 1515719236.354119: $GPGSA,A,3,7,8,9,11,16,23,27,28,30,138,,,4.0,0.8,3.5*3E
2018-01-11 20:07:17 1515719237.352960: $GPZDA,010718.00,12,01,2018,00,00*60
2018-01-11 20:07:17 1515719237.353122: $GPGGA,010718,3946.9568,N,08404.9822,W,2,10,0.80,305.02,M,-33.324,M,,*7A
2018-01-11 20:07:17 1515719237.353189: $GPRMC,010718,A,3946.9568,N,08404.9822,W,0.0000,0.000,120118,,*38
2018-01-11 20:07:17 1515719237.353251: $GPGSA,A,3,7,8,9,11,16,23,27,28,30,138,,,4.0,0.8,3.5*3E
2018-01-11 20:07:18 1515719238.688694: $GPGSV,3,1,10,07,54,313,41,08,72,138,46,09,49,231,44,11,18,168,47*7C
2018-01-11 20:07:18 1515719238.688880: $GPGSV,3,2,10,16,24,058,44,23,31,190,47,27,49,054,50,28,13,256,31*7A
2018-01-11 20:07:18 1515719238.688947: $GPGSV,3,3,10,30,27,306,36,138,38,213,45*4E
2018-01-11 20:07:18 1515719238.802027: $GPZDA,010719.00,12,01,2018,00,00*61
2018-01-11 20:07:18 1515719238.802165: $GPGGA,010719,3946.9568,N,08404.9822,W,2,10,0.80,305.02,M,-33.324,M,,*7B
2018-01-11 20:07:18 1515719238.802232: $GPRMC,010719,A,3946.9568,N,08404.9822,W,0.0000,0.000,120118,,*39
2018-01-11 20:07:18 1515719238.802294: $GPGSA,A,3,7,8,9,11,16,23,27,28,30,138,,,4.0,0.8,3.5*3E
2018-01-11 20:07:19 1515719239.350828: $GPZDA,010720.00,12,01,2018,00,00*6B
2018-01-11 20:07:19 1515719239.350983: $GPGGA,010720,3946.9568,N,08404.9829,W,2,10,0.80,304.95,M,-33.324,M,,*75
2018-01-11 20:07:19 1515719239.351049: $GPRMC,010720,A,3946.9568,N,08404.9829,W,0.0000,0.000,120118,,*38
2018-01-11 20:07:19 1515719239.351110: $GPGSA,A,3,7,8,9,11,16,23,27,28,30,138,,,4.0,0.8,3.5*3E
2018-01-11 20:07:20 1515719240.354079: $GPZDA,010721.00,12,01,2018,00,00*6A
2018-01-11 20:07:20 1515719240.354251: $GPGGA,010721,3946.9568,N,08404.9829,W,2,10,0.80,304.95,M,-33.324,M,,*74
2018-01-11 20:07:20 1515719240.354317: $GPRMC,010721,A,3946.9568,N,08404.9829,W,0.0000,0.000,120118,,*39
2018-01-11 20:07:20 1515719240.354378: $GPGSA,A,3,7,8,9,11,16,23,27,28,30,138,,,4.0,0.8,3.5*3E
2018-01-11 20:07:21 1515719241.688260: $GPGSV,3,1,10,07,54,313,42,08,72,138,46,09,49,231,44,11,18,168,47*7F
2018-01-11 20:07:21 1515719241.688433: $GPGSV,3,2,10,16,24,058,45,23,31,190,47,27,49,054,50,28,13,256,27*7C
2018-01-11 20:07:21 1515719241.688555: $GPGSV,3,3,10,30,27,306,36,138,38,213,45*4E
2018-01-11 20:07:21 1515719241.801896: $GPZDA,010722.00,12,01,2018,00,00*69
2018-01-11 20:07:21 1515719241.802042: $GPGGA,010722,3946.9568,N,08404.9829,W,2,10,0.80,304.95,M,-33.324,M,,*77
2018-01-11 20:07:21 1515719241.802108: $GPRMC,010722,A,3946.9568,N,08404.9829,W,0.0000,0.000,120118,,*3A
2018-01-11 20:07:21 1515719241.802169: $GPGSA,A,3,7,8,9,11,16,23,27,28,30,138,,,4.0,0.8,3.5*3E
2018-01-11 20:07:22 1515719242.427279: $GPZDA,010723.00,12,01,2018,00,00*68
2018-01-11 20:07:22 1515719242.427451: $GPGGA,010723,3946.9568,N,08404.9829,W,2,10,0.80,304.95,M,-33.324,M,,*76
2018-01-11 20:07:22 1515719242.427516: $GPRMC,010723,A,3946.9568,N,08404.9829,W,0.0000,0.000,120118,,*3B
2018-01-11 20:07:22 1515719242.427576: $GPGSA,A,3,7,8,9,11,16,23,27,28,30,138,,,4.0,0.8,3.5*3E
2018-01-11 20:07:23 1515719243.354394: $GPZDA,010724.00,12,01,2018,00,00*6F
2018-01-11 20:07:23 1515719243.354563: $GPGGA,010724,3946.9568,N,08404.9829,W,2,10,0.80,304.95,M,-33.324,M,,*71
2018-01-11 20:07:23 1515719243.354629: $GPRMC,010724,A,3946.9568,N,08404.9829,W,0.0000,0.000,120118,,*3C
2018-01-11 20:07:23 1515719243.354690: $GPGSA,A,3,7,8,9,11,16,23,27,28,30,138,,,4.0,0.8,3.5*3E
2018-01-11 20:07:24 1515719244.691101: $GPGSV,3,1,10,07,54,313,42,08,72,138,46,09,49,231,44,11,18,168,47*7F
2018-01-11 20:07:24 1515719244.691260: $GPGSV,3,2,10,16,24,058,45,23,31,190,47,27,49,054,50,28,13,256,29*72
2018-01-11 20:07:24 1515719244.691325: $GPGSV,3,3,10,30,27,306,35,138,38,213,45*4D
2018-01-11 20:07:24 1515719244.804757: $GPZDA,010725.00,12,01,2018,00,00*6E
2018-01-11 20:07:24 1515719244.804896: $GPGGA,010725,3946.9568,N,08404.9829,W,2,10,0.80,304.95,M,-33.324,M,,*70
2018-01-11 20:07:24 1515719244.804961: $GPRMC,010725,A,3946.9568,N,08404.9829,W,0.0000,0.000,120118,,*3D
2018-01-11 20:07:24 1515719244.805022: $GPGSA,A,3,7,8,9,11,16,23,27,28,30,138,,,4.0,0.8,3.5*3E
