2017-12-29 14:56:50 1514577410.016451: {"class":"VERSION","release":"3.16","rev":"3.16-4","proto_major":3,"proto_minor":11}
2017-12-29 14:56:50 1514577410.016859: {"class":"DEVICES","devices":[{"class":"DEVICE","path":"/dev/ttyUSB0","driver":"SiRF","subtype":"9\u0006GSD4e_4.1.2-P1_RPATCH.05-F-GPS-4R-1510281 11/03/2015 307","activated":"2017-12-29T19:56:49.580Z","flags":1,"native":1,"bps":4800,"parity":"N","stopbits":1,"cycle":1.00}]}
2017-12-29 14:56:50 1514577410.017047: {"class":"WATCH","enable":true,"json":false,"nmea":true,"raw":0,"scaled":false,"timing":false,"split24":false,"pps":false}
2017-12-29 14:56:50 1514577410.438185: $GPZDA,195651.00,29,12,2017,00,00*65
2017-12-29 14:56:50 1514577410.438351: $GPGGA,195651,3946.9560,N,08404.9823,W,2,12,0.80,305.15,M,-33.324,M,,*77
2017-12-29 14:56:50 1514577410.438433: $GPRMC,195651,A,3946.9560,N,08404.9823,W,0.0000,0.000,291217,,*34
2017-12-29 14:56:50 1514577410.438495: $GPGSA,A,3,1,3,10,11,12,14,18,22,25,31,32,138,1.7,0.8,1.3*0C
2017-12-29 14:56:51 1514577411.776099: $GPGSV,3,1,12,01,22,291,39,03,08,316,31,10,38,151,47,11,05,274,30*7F
2017-12-29 14:56:51 1514577411.776259: $GPGSV,3,2,12,12,18,042,43,14,69,349,42,18,08,147,33,22,27,310,42*70
2017-12-29 14:56:51 1514577411.776326: $GPGSV,3,3,12,25,41,078,50,31,67,237,46,32,64,054,50,138,38,213,44*43
2017-12-29 14:56:51 1514577411.889780: $GPZDA,195652.00,29,12,2017,00,00*66
2017-12-29 14:56:51 1514577411.889923: $GPGGA,195652,3946.9560,N,08404.9823,W,2,12,0.80,305.15,M,-33.324,M,,*74
2017-12-29 14:56:51 1514577411.889989: $GPRMC,195652,A,3946.9560,N,08404.9823,W,0.0000,0.000,291217,,*37
2017-12-29 14:56:51 1514577411.890049: $GPGSA,A,3,1,3,10,11,12,14,18,22,25,31,32,138,1.7,0.8,1.3*0C
2017-12-29 14:56:52 1514577412.515127: $GPZDA,195653.00,29,12,2017,00,00*67
2017-12-29 14:56:52 1514577412.515293: $GPGGA,195653,3946.9560,N,08404.9823,W,2,12,0.80,305.15,M,-33.324,M,,*75
2017-12-29 14:56:52 1514577412.515359: $GPRMC,195653,A,3946.9560,N,08404.9823,W,0.0000,0.000,291217,,*36
2017-12-29 14:56:52 1514577412.515420: $GPGSA,A,3,1,3,10,11,12,14,18,22,25,31,32,138,1.7,0.8,1.3*0C
2017-12-29 14:56:53 1514577413.401001: $GPZDA,195654.00,29,12,2017,00,00*60
2017-12-29 14:56:53 1514577413.401215: $GPGGA,195654,3946.9560,N,08404.9823,W,2,12,0.80,305.15,M,-33.324,M,,*72
2017-12-29 14:56:53 1514577413.401283: $GPRMC,195654,A,3946.9560,N,08404.9823,W,0.0000,0.000,291217,,*31
2017-12-29 14:56:53 1514577413.401343: $GPGSA,A,3,1,3,10,11,12,14,18,22,25,31,32,138,1.7,0.8,1.3*0C
2017-12-29 14:56:54 1514577414.771464: $GPGSV,3,1,12,01,22,291,40,03,08,316,30,10,38,151,48,26,11,180,14*70
2017-12-29 14:56:54 1514577414.771623: $GPGSV,3,2,12,12,18,042,42,14,69,349,43,18,08,147,32,22,27,310,42*71
2017-12-29 14:56:54 1514577414.771687: $GPGSV,3,3,12,25,41,078,51,31,67,237,47,32,64,054,50,138,38,213,44*43
2017-12-29 14:56:54 1514577414.885075: $GPZDA,195655.00,29,12,2017,00,00*61
2017-12-29 14:56:54 1514577414.885216: $GPGGA,195655,3946.9560,N,08404.9823,W,2,11,0.80,305.15,M,-33.324,M,,*70
2017-12-29 14:56:54 1514577414.885280: $GPRMC,195655,A,3946.9560,N,08404.9823,W,0.0000,0.000,291217,,*30
2017-12-29 14:56:54 1514577414.885341: $GPGSA,A,3,1,3,10,12,14,18,22,25,31,32,138,,1.7,0.8,1.3*0C
2017-12-29 14:56:55 1514577415.442022: $GPZDA,195656.00,29,12,2017,00,00*62
2017-12-29 14:56:55 1514577415.442197: $GPGGA,195656,3946.9560,N,08404.9823,W,2,11,0.80,305.15,M,-33.324,M,,*73
2017-12-29 14:56:55 1514577415.442267: $GPRMC,195656,A,3946.9560,N,08404.9823,W,0.0000,0.000,291217,,*33
2017-12-29 14:56:55 1514577415.442328: $GPGSA,A,3,1,3,10,12,14,18,22,25,31,32,138,,1.7,0.8,1.3*0C
2017-12-29 14:56:56 1514577416.433143: $GPZDA,195657.00,29,12,2017,00,00*63
2017-12-29 14:56:56 1514577416.433311: $GPGGA,195657,3946.9560,N,08404.9823,W,2,11,0.80,305.15,M,-33.324,M,,*72
2017-12-29 14:56:56 1514577416.433379: $GPRMC,195657,A,3946.9560,N,08404.9823,W,0.0000,0.000,291217,,*32
2017-12-29 14:56:56 1514577416.433440: $GPGSA,A,3,1,3,10,12,14,18,22,25,31,32,138,,1.7,0.8,1.3*0C
2017-12-29 14:56:57 1514577417.774341: $GPGSV,3,1,12,01,22,291,40,03,08,316,30,10,38,151,48,11,05,274,31*7E
2017-12-29 14:56:57 1514577417.774552: $GPGSV,3,2,12,12,18,042,41,14,69,349,43,18,08,147,32,22,27,310,42*72
2017-12-29 14:56:57 1514577417.774623: $GPGSV,3,3,12,25,41,078,51,31,67,237,47,32,64,054,51,138,38,213,43*45
2017-12-29 14:56:57 1514577417.887980: $GPZDA,195658.00,29,12,2017,00,00*6C
2017-12-29 14:56:57 1514577417.888134: $GPGGA,195658,3946.9560,N,08404.9823,W,2,12,0.80,305.15,M,-33.324,M,,*7E
2017-12-29 14:56:57 1514577417.888200: $GPRMC,195658,A,3946.9560,N,08404.9823,W,0.0000,0.000,291217,,*3D
2017-12-29 14:56:57 1514577417.888264: $GPGSA,A,3,1,3,10,11,12,14,18,22,25,31,32,138,1.7,0.8,1.3*0C
2017-12-29 14:56:58 1514577418.401481: $GPZDA,195659.00,29,12,2017,00,00*6D
2017-12-29 14:56:58 1514577418.401640: $GPGGA,195659,3946.9564,N,08404.9822,W,2,12,0.80,304.38,M,-33.324,M,,*74
2017-12-29 14:56:58 1514577418.401709: $GPRMC,195659,A,3946.9564,N,08404.9822,W,0.0000,0.000,291217,,*39
2017-12-29 14:56:58 1514577418.401770: $GPGSA,A,3,1,3,10,11,12,14,18,22,25,31,32,138,1.7,0.8,1.3*0C
2017-12-29 14:56:59 1514577419.441149: $GPZDA,195700.00,29,12,2017,00,00*60
2017-12-29 14:56:59 1514577419.441329: $GPGGA,195700,3946.9564,N,08404.9822,W,2,12,0.80,304.38,M,-33.324,M,,*79
2017-12-29 14:56:59 1514577419.441396: $GPRMC,195700,A,3946.9564,N,08404.9822,W,0.0000,0.000,291217,,*34
2017-12-29 14:56:59 1514577419.441458: $GPGSA,A,3,1,3,10,11,12,14,18,22,25,31,32,138,1.7,0.8,1.3*0C
