2017-11-16 15:37:58 1510864678.595632: {"class":"VERSION","release":"3.17","rev":"3.17","proto_major":3,"proto_minor":12}
2017-11-16 15:37:58 1510864678.596175: {"class":"DEVICES","devices":[{"class":"DEVICE","path":"/dev/ttyUSB0","driver":"SiRF","subtype":"9\u0006GSD4e_4.1.2-P1_RPATCH.05-F-GPS-4R-1510281 11/03/2015 307","activated":"2017-11-16T20:37:58.262Z","flags":1,"native":1,"bps":4800,"parity":"N","stopbits":1,"cycle":1.00}]}
2017-11-16 15:37:58 1510864678.596309: {"class":"WATCH","enable":true,"json":false,"nmea":true,"raw":0,"scaled":false,"timing":false,"split24":false,"pps":false}
2017-11-16 15:37:58 1510864678.711594: $GPGSV,3,1,12,15,07,069,00,10,74,340,51,14,33,258,45,31,04,204,40*7A
2017-11-16 15:37:58 1510864678.711773: $GPGSV,3,2,12,18,66,105,49,20,04,121,22,21,23,178,44,24,40,054,50*75
2017-11-16 15:37:58 1510864678.711833: $GPGSV,3,3,12,25,07,138,21,32,50,271,46,12,13,102,33,138,38,213,44*42
2017-11-16 15:37:58 1510864678.824739: $GPZDA,203757.00,16,11,2017,00,00*61
2017-11-16 15:37:58 1510864678.824912: $GPGGA,203757,3946.9568,N,08404.9860,W,2,11,1.20,309.61,M,-33.324,M,,*74
2017-11-16 15:37:58 1510864678.824974: $GPRMC,203757,A,3946.9568,N,08404.9860,W,0.0000,0.000,161117,,*3F
2017-11-16 15:37:58 1510864678.825033: $GPGSA,A,3,10,14,31,18,20,21,24,25,32,12,138,,1.6,1.2,1.3*03
2017-11-16 15:37:59 1510864679.364521: $GPZDA,203758.00,16,11,2017,00,00*6E
2017-11-16 15:37:59 1510864679.364682: $GPGGA,203758,3946.9568,N,08404.9860,W,2,11,1.20,309.61,M,-33.324,M,,*7B
2017-11-16 15:37:59 1510864679.364744: $GPRMC,203758,A,3946.9568,N,08404.9860,W,0.0000,0.000,161117,,*30
2017-11-16 15:37:59 1510864679.364799: $GPGSA,A,3,10,14,31,18,20,21,24,25,32,12,138,,1.6,1.2,1.3*03
2017-11-16 15:38:00 1510864680.365946: $GPZDA,203759.00,16,11,2017,00,00*6F
2017-11-16 15:38:00 1510864680.366045: $GPGGA,203759,3946.9568,N,08404.9860,W,2,11,1.20,309.61,M,-33.324,M,,*7A
2017-11-16 15:38:00 1510864680.366076: $GPRMC,203759,A,3946.9568,N,08404.9860,W,0.0000,0.000,161117,,*31
2017-11-16 15:38:00 1510864680.366107: $GPGSA,A,3,10,14,31,18,20,21,24,25,32,12,138,,1.6,1.2,1.3*03
2017-11-16 15:38:01 1510864681.702893: $GPGSV,3,1,12,15,07,069,23,10,74,340,51,14,33,258,45,31,04,204,40*7B
2017-11-16 15:38:01 1510864681.703006: $GPGSV,3,2,12,18,66,105,49,20,04,121,21,21,23,178,44,24,40,054,50*76
2017-11-16 15:38:01 1510864681.703037: $GPGSV,3,3,12,25,07,138,19,32,50,271,46,12,13,102,33,138,38,213,45*48
2017-11-16 15:38:01 1510864681.815801: $GPZDA,203800.00,16,11,2017,00,00*6C
2017-11-16 15:38:01 1510864681.815908: $GPGGA,203800,3946.9568,N,08404.9860,W,2,11,1.20,309.61,M,-33.324,M,,*79
2017-11-16 15:38:01 1510864681.815938: $GPRMC,203800,A,3946.9568,N,08404.9860,W,0.0000,0.000,161117,,*32
2017-11-16 15:38:01 1510864681.815967: $GPGSA,A,3,15,10,14,31,18,20,21,24,32,12,138,,1.6,1.2,1.3*00
2017-11-16 15:38:02 1510864682.390249: $GPZDA,203801.00,16,11,2017,00,00*6D
2017-11-16 15:38:02 1510864682.390481: $GPGGA,203801,3946.9568,N,08404.9860,W,2,11,1.20,309.61,M,-33.324,M,,*78
2017-11-16 15:38:02 1510864682.390545: $GPRMC,203801,A,3946.9568,N,08404.9860,W,0.0000,0.000,161117,,*33
2017-11-16 15:38:02 1510864682.390603: $GPGSA,A,3,15,10,14,31,18,20,21,24,32,12,138,,1.6,1.2,1.3*00
2017-11-16 15:38:03 1510864683.365615: $GPZDA,203802.00,16,11,2017,00,00*6E
2017-11-16 15:38:03 1510864683.365800: $GPGGA,203802,3946.9568,N,08404.9860,W,2,11,1.20,309.61,M,-33.324,M,,*7B
2017-11-16 15:38:03 1510864683.365882: $GPRMC,203802,A,3946.9568,N,08404.9860,W,0.0000,0.000,161117,,*30
2017-11-16 15:38:03 1510864683.365940: $GPGSA,A,3,15,10,14,31,18,20,21,24,32,12,138,,1.6,1.2,1.3*00
2017-11-16 15:38:04 1510864684.715052: $GPGSV,3,1,12,15,07,069,10,10,74,340,51,14,33,258,45,31,04,204,40*7B
2017-11-16 15:38:04 1510864684.715160: $GPGSV,3,2,12,18,66,105,49,20,04,121,04,21,23,178,43,24,40,054,50*76
2017-11-16 15:38:04 1510864684.715191: $GPGSV,3,3,12,08,04,288,29,32,50,271,45,12,13,102,34,138,38,213,43*4D
2017-11-16 15:38:04 1510864684.827878: $GPZDA,203803.00,16,11,2017,00,00*6F
2017-11-16 15:38:04 1510864684.827988: $GPGGA,203803,3946.9568,N,08404.9860,W,2,10,1.20,309.61,M,-33.324,M,,*7B
2017-11-16 15:38:04 1510864684.828050: $GPRMC,203803,A,3946.9568,N,08404.9860,W,0.0000,0.000,161117,,*31
2017-11-16 15:38:04 1510864684.828082: $GPGSA,A,3,10,14,31,18,21,24,8,32,12,138,,,1.6,1.2,1.3*3E
2017-11-16 15:38:05 1510864685.365912: $GPZDA,203804.00,16,11,2017,00,00*68
2017-11-16 15:38:05 1510864685.366080: $GPGGA,203804,3946.9568,N,08404.9860,W,2,10,1.20,309.61,M,-33.324,M,,*7C
2017-11-16 15:38:05 1510864685.366141: $GPRMC,203804,A,3946.9568,N,08404.9860,W,0.0000,0.000,161117,,*36
2017-11-16 15:38:05 1510864685.366198: $GPGSA,A,3,10,14,31,18,21,24,8,32,12,138,,,1.6,1.2,1.3*3E
2017-11-16 15:38:06 1510864686.365064: $GPZDA,203805.00,16,11,2017,00,00*69
2017-11-16 15:38:06 1510864686.365228: $GPGGA,203805,3946.9568,N,08404.9860,W,2,10,1.20,309.61,M,-33.324,M,,*7D
2017-11-16 15:38:06 1510864686.365289: $GPRMC,203805,A,3946.9568,N,08404.9860,W,0.0000,0.000,161117,,*37
2017-11-16 15:38:06 1510864686.365346: $GPGSA,A,3,10,14,31,18,21,24,8,32,12,138,,,1.6,1.2,1.3*3E
2017-11-16 15:38:07 1510864687.718048: $GPGSV,3,1,12,27,03,255,31,10,74,340,51,14,33,258,44,31,04,204,39*7F
2017-11-16 15:38:07 1510864687.718219: $GPGSV,3,2,12,18,66,105,48,20,04,121,06,21,23,178,43,24,40,054,49*7D
2017-11-16 15:38:07 1510864687.718280: $GPGSV,3,3,12,08,04,288,28,32,50,271,45,12,13,102,34,138,38,213,43*4C
2017-11-16 15:38:07 1510864687.831372: $GPZDA,203806.00,16,11,2017,00,00*6A
2017-11-16 15:38:07 1510864687.831536: $GPGGA,203806,3946.9568,N,08404.9860,W,2,12,1.20,309.61,M,-33.324,M,,*7C
2017-11-16 15:38:07 1510864687.831599: $GPRMC,203806,A,3946.9568,N,08404.9860,W,0.0000,0.000,161117,,*34
2017-11-16 15:38:07 1510864687.831657: $GPGSA,A,3,27,10,14,31,18,20,21,24,8,32,12,138,1.6,1.2,1.3*39
2017-11-16 15:38:08 1510864688.382206: $GPZDA,203807.00,16,11,2017,00,00*6B
2017-11-16 15:38:08 1510864688.382373: $GPGGA,203807,3946.9568,N,08404.9860,W,2,12,1.20,309.61,M,-33.324,M,,*7D
2017-11-16 15:38:08 1510864688.382455: $GPRMC,203807,A,3946.9568,N,08404.9860,W,0.0000,0.000,161117,,*35
2017-11-16 15:38:08 1510864688.382513: $GPGSA,A,3,27,10,14,31,18,20,21,24,8,32,12,138,1.6,1.2,1.3*39
