2017-11-16 15:39:16 1510864756.115776: {"class":"VERSION","release":"3.17","rev":"3.17","proto_major":3,"proto_minor":12}
2017-11-16 15:39:16 1510864756.116252: {"class":"DEVICES","devices":[{"class":"DEVICE","path":"/dev/ttyUSB0","driver":"SiRF","subtype":"9\u0006GSD4e_4.1.2-P1_RPATCH.05-F-GPS-4R-1510281 11/03/2015 307","activated":"2017-11-16T20:39:15.699Z","flags":1,"native":1,"bps":4800,"parity":"N","stopbits":1,"cycle":1.00}]}
2017-11-16 15:39:16 1510864756.116371: {"class":"WATCH","enable":true,"json":false,"nmea":true,"raw":0,"scaled":false,"timing":false,"split24":false,"pps":false}
2017-11-16 15:39:16 1510864756.695798: $GPGSV,3,1,12,15,07,069,08,10,74,340,51,14,33,258,44,31,04,204,36*72
2017-11-16 15:39:16 1510864756.695968: $GPGSV,3,2,12,18,66,105,48,08,04,288,31,21,23,178,43,24,40,054,49*73
2017-11-16 15:39:16 1510864756.696028: $GPGSV,3,3,12,25,07,138,21,32,50,271,46,12,13,102,35,138,38,213,44*44
2017-11-16 15:39:16 1510864756.809314: $GPZDA,203915.00,16,11,2017,00,00*69
2017-11-16 15:39:16 1510864756.809473: $GPGGA,203915,3946.9568,N,08404.9859,W,2,11,1.20,308.20,M,-33.324,M,,*72
2017-11-16 15:39:16 1510864756.809535: $GPRMC,203915,A,3946.9568,N,08404.9859,W,0.0000,0.000,161117,,*3D
2017-11-16 15:39:16 1510864756.809591: $GPGSA,A,3,10,14,31,18,8,21,24,25,32,12,138,,1.6,1.2,1.3*39
2017-11-16 15:39:17 1510864757.366206: $GPZDA,203916.00,16,11,2017,00,00*6A
2017-11-16 15:39:17 1510864757.366374: $GPGGA,203916,3946.9568,N,08404.9859,W,2,11,1.20,308.20,M,-33.324,M,,*71
2017-11-16 15:39:17 1510864757.366436: $GPRMC,203916,A,3946.9568,N,08404.9859,W,0.0000,0.000,161117,,*3E
2017-11-16 15:39:17 1510864757.366492: $GPGSA,A,3,10,14,31,18,8,21,24,25,32,12,138,,1.6,1.2,1.3*39
2017-11-16 15:39:18 1510864758.391489: $GPZDA,203917.00,16,11,2017,00,00*6B
2017-11-16 15:39:18 1510864758.391618: $GPGGA,203917,3946.9568,N,08404.9859,W,2,11,1.20,308.20,M,-33.324,M,,*70
2017-11-16 15:39:18 1510864758.391652: $GPRMC,203917,A,3946.9568,N,08404.9859,W,0.0000,0.000,161117,,*3F
2017-11-16 15:39:18 1510864758.391680: $GPGSA,A,3,10,14,31,18,8,21,24,25,32,12,138,,1.6,1.2,1.3*39
2017-11-16 15:39:19 1510864759.719128: $GPGSV,3,1,12,15,07,069,25,10,74,340,51,14,33,258,44,31,04,204,36*7D
2017-11-16 15:39:20 1510864760.113494: $GPGSV,3,2,12,18,66,105,48,20,04,121,18,21,23,178,43,24,40,054,49*72
2017-11-16 15:39:20 1510864760.113629: $GPGSV,3,3,12,25,07,138,21,32,50,271,46,12,13,102,35,138,38,213,44*44
2017-11-16 15:39:20 1510864760.113730: $GPZDA,203918.00,16,11,2017,00,00*64
2017-11-16 15:39:20 1510864760.113783: $GPGGA,203918,3946.9568,N,08404.9859,W,2,11,1.20,308.20,M,-33.324,M,,*7F
2017-11-16 15:39:20 1510864760.113839: $GPRMC,203918,A,3946.9568,N,08404.9859,W,0.0000,0.000,161117,,*30
2017-11-16 15:39:20 1510864760.113894: $GPGSA,A,3,15,10,14,31,18,21,24,25,32,12,138,,1.6,1.2,1.3*05
2017-11-16 15:39:20 1510864760.367296: $GPZDA,203919.00,16,11,2017,00,00*65
2017-11-16 15:39:20 1510864760.367469: $GPGGA,203919,3946.9568,N,08404.9859,W,2,11,1.20,308.20,M,-33.324,M,,*7E
2017-11-16 15:39:20 1510864760.367532: $GPRMC,203919,A,3946.9568,N,08404.9859,W,0.0000,0.000,161117,,*31
2017-11-16 15:39:20 1510864760.367588: $GPGSA,A,3,15,10,14,31,18,21,24,25,32,12,138,,1.6,1.2,1.3*05
2017-11-16 15:39:21 1510864761.366781: $GPZDA,203920.00,16,11,2017,00,00*6F
2017-11-16 15:39:21 1510864761.366888: $GPGGA,203920,3946.9568,N,08404.9859,W,2,11,1.20,308.20,M,-33.324,M,,*74
2017-11-16 15:39:21 1510864761.366919: $GPRMC,203920,A,3946.9568,N,08404.9859,W,0.0000,0.000,161117,,*3B
2017-11-16 15:39:21 1510864761.366947: $GPGSA,A,3,15,10,14,31,18,21,24,25,32,12,138,,1.6,1.2,1.3*05
2017-11-16 15:39:22 1510864762.716958: $GPGSV,3,1,12,27,03,255,21,10,74,340,51,14,33,258,44,31,04,204,36*71
2017-11-16 15:39:22 1510864762.717126: $GPGSV,3,2,12,18,66,105,48,08,04,288,32,21,23,178,42,24,40,054,49*71
2017-11-16 15:39:22 1510864762.717187: $GPGSV,3,3,12,25,07,138,23,32,50,271,46,12,13,102,35,138,38,213,44*46
2017-11-16 15:39:22 1510864762.830873: $GPZDA,203921.00,16,11,2017,00,00*6E
2017-11-16 15:39:22 1510864762.831017: $GPGGA,203921,3946.9568,N,08404.9859,W,2,12,1.20,308.20,M,-33.324,M,,*76
2017-11-16 15:39:22 1510864762.831128: $GPRMC,203921,A,3946.9568,N,08404.9859,W,0.0000,0.000,161117,,*3A
2017-11-16 15:39:22 1510864762.831185: $GPGSA,A,3,27,10,14,31,18,8,21,24,25,32,12,138,1.6,1.2,1.3*3C
2017-11-16 15:39:23 1510864763.366106: $GPZDA,203922.00,16,11,2017,00,00*6D
2017-11-16 15:39:23 1510864763.366269: $GPGGA,203922,3946.9568,N,08404.9859,W,2,12,1.20,308.20,M,-33.324,M,,*75
2017-11-16 15:39:23 1510864763.366329: $GPRMC,203922,A,3946.9568,N,08404.9859,W,0.0000,0.000,161117,,*39
2017-11-16 15:39:23 1510864763.366385: $GPGSA,A,3,27,10,14,31,18,8,21,24,25,32,12,138,1.6,1.2,1.3*3C
2017-11-16 15:39:24 1510864764.365752: $GPZDA,203923.00,16,11,2017,00,00*6C
2017-11-16 15:39:24 1510864764.365910: $GPGGA,203923,3946.9568,N,08404.9859,W,2,12,1.20,308.20,M,-33.324,M,,*74
2017-11-16 15:39:24 1510864764.365971: $GPRMC,203923,A,3946.9568,N,08404.9859,W,0.0000,0.000,161117,,*38
2017-11-16 15:39:24 1510864764.366026: $GPGSA,A,3,27,10,14,31,18,8,21,24,25,32,12,138,1.6,1.2,1.3*3C
2017-11-16 15:39:25 1510864765.719079: $GPGSV,3,1,12,27,03,255,22,10,74,340,51,14,33,258,44,31,04,204,35*71
2017-11-16 15:39:25 1510864765.745999: $GPGSV,3,2,12,18,66,105,48,08,04,288,34,21,23,178,43,24,40,054,50*7E
2017-11-16 15:39:25 1510864765.746096: $GPGSV,3,3,12,11,01,325,27,32,50,271,46,12,13,102,35,138,38,213,44*4D
2017-11-16 15:39:25 1510864765.832364: $GPZDA,203924.00,16,11,2017,00,00*6B
2017-11-16 15:39:25 1510864765.832504: $GPGGA,203924,3946.9568,N,08404.9859,W,2,12,1.20,308.20,M,-33.324,M,,*73
2017-11-16 15:39:25 1510864765.832564: $GPRMC,203924,A,3946.9568,N,08404.9859,W,0.0000,0.000,161117,,*3F
2017-11-16 15:39:25 1510864765.832618: $GPGSA,A,3,27,10,14,31,18,8,21,24,11,32,12,138,1.6,1.2,1.3*3B
