2017-12-29 11:41:33 1514565693.497847: {"class":"VERSION","release":"3.16","rev":"3.16-4","proto_major":3,"proto_minor":11}
2017-12-29 11:41:33 1514565693.498197: {"class":"DEVICES","devices":[{"class":"DEVICE","path":"/dev/ttyUSB0","driver":"SiRF","subtype":"9\u0006GSD4e_4.1.2-P1_RPATCH.05-F-GPS-4R-1510281 11/03/2015 307","activated":"2017-12-29T16:41:33.498Z","flags":1,"native":1,"bps":4800,"parity":"N","stopbits":1,"cycle":1.00}]}
2017-12-29 11:41:33 1514565693.498313: {"class":"WATCH","enable":true,"json":false,"nmea":true,"raw":0,"scaled":false,"timing":false,"split24":false,"pps":false}
2017-12-29 11:41:34 1514565694.385663: $GPZDA,164135.00,29,12,2017,00,00*6E
2017-12-29 11:41:34 1514565694.385834: $GPGGA,164135,3946.9583,N,08404.9847,W,2,10,1.00,326.57,M,-33.324,M,,*7F
2017-12-29 11:41:34 1514565694.385918: $GPRMC,164135,A,3946.9583,N,08404.9847,W,0.0000,0.000,291217,,*30
2017-12-29 11:41:34 1514565694.385981: $GPGSA,A,3,8,10,15,18,20,21,24,32,27,138,,,1.7,1.0,1.3*3A
2017-12-29 11:41:35 1514565695.722452: $GPGSV,3,1,11,08,08,313,42,10,50,310,45,15,27,057,48,18,76,013,45*7F
2017-12-29 11:41:35 1514565695.722624: $GPGSV,3,2,11,20,26,103,48,21,52,183,47,24,53,091,51,32,30,246,41*76
2017-12-29 11:41:35 1514565695.722690: $GPGSV,3,3,11,27,16,279,38,14,12,238,34,138,38,213,45*74
2017-12-29 11:41:35 1514565695.834991: $GPZDA,164136.00,29,12,2017,00,00*6D
2017-12-29 11:41:35 1514565695.835178: $GPGGA,164136,3946.9583,N,08404.9847,W,2,11,1.00,326.57,M,-33.324,M,,*7D
2017-12-29 11:41:35 1514565695.835247: $GPRMC,164136,A,3946.9583,N,08404.9847,W,0.0000,0.000,291217,,*33
2017-12-29 11:41:35 1514565695.835308: $GPGSA,A,3,8,10,15,18,20,21,24,32,27,14,138,,1.7,1.0,1.3*3F
2017-12-29 11:41:36 1514565696.386785: $GPZDA,164137.00,29,12,2017,00,00*6C
2017-12-29 11:41:36 1514565696.386953: $GPGGA,164137,3946.9583,N,08404.9840,W,2,11,1.00,326.65,M,-33.324,M,,*7A
2017-12-29 11:41:36 1514565696.387021: $GPRMC,164137,A,3946.9583,N,08404.9840,W,0.0000,0.000,291217,,*35
2017-12-29 11:41:36 1514565696.387081: $GPGSA,A,3,8,10,15,18,20,21,24,32,27,14,138,,1.7,1.0,1.3*3F
2017-12-29 11:41:37 1514565697.390149: $GPZDA,164138.00,29,12,2017,00,00*63
2017-12-29 11:41:37 1514565697.390320: $GPGGA,164138,3946.9583,N,08404.9840,W,2,11,1.00,326.65,M,-33.324,M,,*75
2017-12-29 11:41:37 1514565697.390387: $GPRMC,164138,A,3946.9583,N,08404.9840,W,0.0000,0.000,291217,,*3A
2017-12-29 11:41:37 1514565697.390448: $GPGSA,A,3,8,10,15,18,20,21,24,32,27,14,138,,1.7,1.0,1.3*3F
2017-12-29 11:41:38 1514565698.722047: $GPGSV,3,1,11,08,08,313,41,10,50,310,44,15,27,057,48,18,76,013,44*7C
2017-12-29 11:41:38 1514565698.722229: $GPGSV,3,2,11,20,26,103,48,21,52,183,47,24,53,091,51,32,30,246,42*75
2017-12-29 11:41:38 1514565698.722295: $GPGSV,3,3,11,27,16,279,39,14,12,238,31,138,38,213,46*73
2017-12-29 11:41:38 1514565698.835421: $GPZDA,164139.00,29,12,2017,00,00*62
2017-12-29 11:41:38 1514565698.835598: $GPGGA,164139,3946.9583,N,08404.9840,W,2,11,1.00,326.65,M,-33.324,M,,*74
2017-12-29 11:41:38 1514565698.835664: $GPRMC,164139,A,3946.9583,N,08404.9840,W,0.0000,0.000,291217,,*3B
2017-12-29 11:41:38 1514565698.835727: $GPGSA,A,3,8,10,15,18,20,21,24,32,27,14,138,,1.7,1.0,1.3*3F
2017-12-29 11:41:39 1514565699.460799: $GPZDA,164140.00,29,12,2017,00,00*6C
2017-12-29 11:41:39 1514565699.460974: $GPGGA,164140,3946.9587,N,08404.9840,W,2,11,1.00,327.29,M,-33.324,M,,*77
2017-12-29 11:41:39 1514565699.461133: $GPRMC,164140,A,3946.9587,N,08404.9840,W,0.0000,0.000,291217,,*31
2017-12-29 11:41:39 1514565699.461204: $GPGSA,A,3,8,10,15,18,20,21,24,32,27,14,138,,1.7,1.0,1.3*3F
2017-12-29 11:41:40 1514565700.379198: $GPZDA,164141.00,29,12,2017,00,00*6D
2017-12-29 11:41:40 1514565700.379365: $GPGGA,164141,3946.9584,N,08404.9840,W,2,11,1.00,328.05,M,-33.324,M,,*74
2017-12-29 11:41:40 1514565700.379431: $GPRMC,164141,A,3946.9584,N,08404.9840,W,0.0000,0.000,291217,,*33
2017-12-29 11:41:40 1514565700.379497: $GPGSA,A,3,8,10,15,18,20,21,24,32,27,14,138,,1.7,1.0,1.3*3F
2017-12-29 11:41:41 1514565701.729931: $GPGSV,3,1,11,08,08,313,41,10,50,310,45,15,27,057,49,18,76,013,45*7D
2017-12-29 11:41:41 1514565701.730168: $GPGSV,3,2,11,20,26,103,48,21,52,183,47,24,53,091,51,32,30,246,42*75
2017-12-29 11:41:41 1514565701.730239: $GPGSV,3,3,11,27,16,279,39,14,12,238,12,138,38,213,45*71
2017-12-29 11:41:41 1514565701.843364: $GPZDA,164142.00,29,12,2017,00,00*6E
2017-12-29 11:41:41 1514565701.843564: $GPGGA,164142,3946.9584,N,08404.9840,W,2,10,1.00,328.05,M,-33.324,M,,*76
2017-12-29 11:41:41 1514565701.843636: $GPRMC,164142,A,3946.9584,N,08404.9840,W,0.0000,0.000,291217,,*30
2017-12-29 11:41:41 1514565701.843700: $GPGSA,A,3,8,10,15,18,20,21,24,32,27,138,,,1.7,1.0,1.3*3A
2017-12-29 11:41:42 1514565702.386865: $GPZDA,164143.00,29,12,2017,00,00*6F
2017-12-29 11:41:42 1514565702.387040: $GPGGA,164143,3946.9584,N,08404.9840,W,2,10,1.00,328.05,M,-33.324,M,,*77
2017-12-29 11:41:42 1514565702.387109: $GPRMC,164143,A,3946.9584,N,08404.9840,W,0.0000,0.000,291217,,*31
2017-12-29 11:41:42 1514565702.387171: $GPGSA,A,3,8,10,15,18,20,21,24,32,27,138,,,1.7,1.0,1.3*3A
2017-12-29 11:41:43 1514565703.386274: $GPZDA,164144.00,29,12,2017,00,00*68
2017-12-29 11:41:43 1514565703.386443: $GPGGA,164144,3946.9584,N,08404.9840,W,2,10,1.00,328.05,M,-33.324,M,,*70
2017-12-29 11:41:43 1514565703.386515: $GPRMC,164144,A,3946.9584,N,08404.9840,W,0.0000,0.000,291217,,*36
2017-12-29 11:41:43 1514565703.386577: $GPGSA,A,3,8,10,15,18,20,21,24,32,27,138,,,1.7,1.0,1.3*3A
2017-12-29 11:41:44 1514565704.721541: $GPGSV,3,1,11,08,08,313,41,10,50,310,45,15,27,057,49,18,76,013,45*7D
2017-12-29 11:41:44 1514565704.721731: $GPGSV,3,2,11,20,26,103,48,21,52,183,47,24,53,091,51,32,30,246,41*76
2017-12-29 11:41:44 1514565704.721797: $GPGSV,3,3,11,27,16,279,39,14,12,238,33,138,38,213,45*72
2017-12-29 11:41:44 1514565704.834942: $GPZDA,164145.00,29,12,2017,00,00*69
2017-12-29 11:41:44 1514565704.835114: $GPGGA,164145,3946.9584,N,08404.9840,W,2,11,1.00,328.05,M,-33.324,M,,*70
2017-12-29 11:41:44 1514565704.835181: $GPRMC,164145,A,3946.9584,N,08404.9840,W,0.0000,0.000,291217,,*37
2017-12-29 11:41:44 1514565704.835243: $GPGSA,A,3,8,10,15,18,20,21,24,32,27,14,138,,1.7,1.0,1.3*3F
2017-12-29 11:41:45 1514565705.385855: $GPZDA,164146.00,29,12,2017,00,00*6A
2017-12-29 11:41:45 1514565705.386023: $GPGGA,164146,3946.9584,N,08404.9840,W,2,11,1.00,328.05,M,-33.324,M,,*73
2017-12-29 11:41:45 1514565705.386090: $GPRMC,164146,A,3946.9584,N,08404.9840,W,0.0000,0.000,291217,,*34
2017-12-29 11:41:45 1514565705.386151: $GPGSA,A,3,8,10,15,18,20,21,24,32,27,14,138,,1.7,1.0,1.3*3F
2017-12-29 11:41:46 1514565706.386694: $GPZDA,164147.00,29,12,2017,00,00*6B
2017-12-29 11:41:46 1514565706.386877: $GPGGA,164147,3946.9584,N,08404.9840,W,2,11,1.00,328.05,M,-33.324,M,,*72
2017-12-29 11:41:46 1514565706.386943: $GPRMC,164147,A,3946.9584,N,08404.9840,W,0.0000,0.000,291217,,*35
2017-12-29 11:41:46 1514565706.387006: $GPGSA,A,3,8,10,15,18,20,21,24,32,27,14,138,,1.7,1.0,1.3*3F
2017-12-29 11:41:47 1514565707.738722: $GPGSV,3,1,11,08,08,313,41,10,50,310,44,15,27,057,49,18,76,013,45*7C
2017-12-29 11:41:47 1514565707.738887: $GPGSV,3,2,11,20,26,103,48,21,52,183,47,24,53,091,51,32,30,246,41*76
2017-12-29 11:41:47 1514565707.738953: $GPGSV,3,3,11,27,16,279,38,14,12,238,33,138,38,213,45*73
2017-12-29 11:41:47 1514565707.852167: $GPZDA,164148.00,29,12,2017,00,00*64
2017-12-29 11:41:47 1514565707.852331: $GPGGA,164148,3946.9584,N,08404.9840,W,2,11,1.00,328.05,M,-33.324,M,,*7D
2017-12-29 11:41:47 1514565707.852397: $GPRMC,164148,A,3946.9584,N,08404.9840,W,0.0000,0.000,291217,,*3A
2017-12-29 11:41:47 1514565707.852457: $GPGSA,A,3,8,10,15,18,20,21,24,32,27,14,138,,1.7,1.0,1.3*3F
