2017-12-01 15:52:39 1512161559.446958: {"class":"VERSION","release":"3.16","rev":"3.16-4","proto_major":3,"proto_minor":11}
2017-12-01 15:52:39 1512161559.447447: {"class":"DEVICES","devices":[{"class":"DEVICE","path":"/dev/ttyUSB0","driver":"SiRF","subtype":"9\u0006GSD4e_4.1.2-P1_RPATCH.05-F-GPS-4R-1510281 11/03/2015 307","activated":"2017-12-01T20:52:39.417Z","flags":1,"native":1,"bps":4800,"parity":"N","stopbits":1,"cycle":1.00}]}
2017-12-01 15:52:39 1512161559.447591: {"class":"WATCH","enable":true,"json":false,"nmea":true,"raw":0,"scaled":false,"timing":false,"split24":false,"pps":false}
2017-12-01 15:52:40 1512161560.417598: $GPZDA,205241.00,01,12,2017,00,00*60
2017-12-01 15:52:40 1512161560.417770: $GPGGA,205241,3946.9598,N,08404.9861,W,2,11,0.80,290.57,M,-33.324,M,,*71
2017-12-01 15:52:40 1512161560.417836: $GPRMC,205241,A,3946.9598,N,08404.9861,W,0.0000,0.000,011217,,*30
2017-12-01 15:52:40 1512161560.417898: $GPGSA,A,3,10,12,14,18,25,31,32,1,11,24,138,,2.0,0.8,1.5*3B
2017-12-01 15:52:41 1512161561.754582: $GPGSV,3,1,12,10,66,135,47,12,25,067,39,14,57,297,43,18,34,136,47*77
2017-12-01 15:52:41 1512161561.754763: $GPGSV,3,2,12,25,32,111,42,31,38,213,49,32,69,339,47,01,16,316,38*73
2017-12-01 15:52:41 1512161561.754829: $GPGSV,3,3,12,11,11,298,33,24,11,046,23,22,05,312,27,138,38,213,46*4F
2017-12-01 15:52:41 1512161561.868007: $GPZDA,205242.00,01,12,2017,00,00*63
2017-12-01 15:52:41 1512161561.868203: $GPGGA,205242,3946.9602,N,08404.9861,W,2,12,0.80,291.21,M,-33.324,M,,*71
2017-12-01 15:52:41 1512161561.868293: $GPRMC,205242,A,3946.9602,N,08404.9861,W,0.0000,0.000,011217,,*33
2017-12-01 15:52:41 1512161561.868370: $GPGSA,A,3,10,12,14,18,25,31,32,1,11,24,22,138,2.0,0.8,1.5*3B
2017-12-01 15:52:42 1512161562.420099: $GPZDA,205243.00,01,12,2017,00,00*62
2017-12-01 15:52:42 1512161562.420298: $GPGGA,205243,3946.9602,N,08404.9861,W,2,12,0.80,291.21,M,-33.324,M,,*70
2017-12-01 15:52:42 1512161562.420382: $GPRMC,205243,A,3946.9602,N,08404.9861,W,0.0000,0.000,011217,,*32
2017-12-01 15:52:42 1512161562.420444: $GPGSA,A,3,10,12,14,18,25,31,32,1,11,24,22,138,2.0,0.8,1.5*3B
2017-12-01 15:52:43 1512161563.420965: $GPZDA,205244.00,01,12,2017,00,00*65
2017-12-01 15:52:43 1512161563.421155: $GPGGA,205244,3946.9602,N,08404.9861,W,2,12,0.80,291.21,M,-33.324,M,,*77
2017-12-01 15:52:43 1512161563.421250: $GPRMC,205244,A,3946.9602,N,08404.9861,W,0.0000,0.000,011217,,*35
2017-12-01 15:52:43 1512161563.421316: $GPGSA,A,3,10,12,14,18,25,31,32,1,11,24,22,138,2.0,0.8,1.5*3B
2017-12-01 15:52:44 1512161564.751724: $GPGSV,3,1,12,10,66,135,47,12,25,067,39,14,57,297,43,18,34,136,46*76
2017-12-01 15:52:44 1512161564.751924: $GPGSV,3,2,12,25,32,111,42,31,38,213,49,32,69,339,47,01,16,316,38*73
2017-12-01 15:52:44 1512161564.751994: $GPGSV,3,3,12,11,11,298,25,24,11,046,24,22,05,312,26,138,38,213,46*4E
2017-12-01 15:52:44 1512161564.865365: $GPZDA,205245.00,01,12,2017,00,00*64
2017-12-01 15:52:44 1512161564.865622: $GPGGA,205245,3946.9602,N,08404.9861,W,2,12,0.80,291.21,M,-33.324,M,,*76
2017-12-01 15:52:44 1512161564.865720: $GPRMC,205245,A,3946.9602,N,08404.9861,W,0.0000,0.000,011217,,*34
2017-12-01 15:52:44 1512161564.865790: $GPGSA,A,3,10,12,14,18,25,31,32,1,11,24,22,138,2.0,0.8,1.5*3B
2017-12-01 15:52:45 1512161565.490498: $GPZDA,205246.00,01,12,2017,00,00*67
2017-12-01 15:52:45 1512161565.490670: $GPGGA,205246,3946.9602,N,08404.9861,W,2,12,1.00,291.21,M,-33.324,M,,*7C
2017-12-01 15:52:45 1512161565.490738: $GPRMC,205246,A,3946.9602,N,08404.9861,W,0.0000,0.000,011217,,*37
2017-12-01 15:52:45 1512161565.490802: $GPGSA,A,3,10,12,14,18,25,31,32,1,11,24,22,138,2.0,1.0,1.5*32
2017-12-01 15:52:46 1512161566.422617: $GPZDA,205247.00,01,12,2017,00,00*66
2017-12-01 15:52:46 1512161566.422791: $GPGGA,205247,3946.9602,N,08404.9861,W,2,12,1.00,291.21,M,-33.324,M,,*7D
2017-12-01 15:52:46 1512161566.422861: $GPRMC,205247,A,3946.9602,N,08404.9861,W,0.0000,0.000,011217,,*36
2017-12-01 15:52:46 1512161566.422945: $GPGSA,A,3,10,12,14,18,25,31,32,1,11,24,22,138,2.0,1.0,1.5*32
2017-12-01 15:52:47 1512161567.757054: $GPGSV,3,1,12,10,66,135,47,12,25,067,40,14,57,297,44,18,34,136,47*7E
2017-12-01 15:52:47 1512161567.757286: $GPGSV,3,2,12,25,32,111,41,31,38,213,49,32,69,339,47,01,16,316,40*7F
2017-12-01 15:52:47 1512161567.757386: $GPGSV,3,3,12,11,11,298,27,24,11,046,23,22,05,312,27,138,38,213,46*4A
2017-12-01 15:52:47 1512161567.870448: $GPZDA,205248.00,01,12,2017,00,00*69
2017-12-01 15:52:47 1512161567.870620: $GPGGA,205248,3946.9602,N,08404.9861,W,2,12,0.80,291.21,M,-33.324,M,,*7B
2017-12-01 15:52:47 1512161567.870688: $GPRMC,205248,A,3946.9602,N,08404.9861,W,0.0000,0.000,011217,,*39
2017-12-01 15:52:47 1512161567.870749: $GPGSA,A,3,10,12,14,18,25,31,32,1,11,24,22,138,2.0,0.8,1.5*3B
2017-12-01 15:52:48 1512161568.423861: $GPZDA,205249.00,01,12,2017,00,00*68
2017-12-01 15:52:48 1512161568.424032: $GPGGA,205249,3946.9599,N,08404.9855,W,2,12,0.80,293.46,M,-33.324,M,,*7F
2017-12-01 15:52:48 1512161568.424099: $GPRMC,205249,A,3946.9599,N,08404.9855,W,0.0000,0.000,011217,,*3E
2017-12-01 15:52:48 1512161568.424160: $GPGSA,A,3,10,12,14,18,25,31,32,1,11,24,22,138,2.0,0.8,1.5*3B
2017-12-01 15:52:49 1512161569.422687: $GPZDA,205250.00,01,12,2017,00,00*60
2017-12-01 15:52:49 1512161569.422857: $GPGGA,205250,3946.9599,N,08404.9855,W,2,12,0.80,293.46,M,-33.324,M,,*77
2017-12-01 15:52:49 1512161569.422925: $GPRMC,205250,A,3946.9599,N,08404.9855,W,0.0000,0.000,011217,,*36
2017-12-01 15:52:49 1512161569.422986: $GPGSA,A,3,10,12,14,18,25,31,32,1,11,24,22,138,2.0,0.8,1.5*3B
2017-12-01 15:52:50 1512161570.758657: $GPGSV,3,1,12,10,66,135,47,12,25,067,40,14,57,297,44,18,34,136,47*7E
2017-12-01 15:52:50 1512161570.758840: $GPGSV,3,2,12,25,32,111,41,31,38,213,48,32,69,339,47,01,16,316,40*7E
2017-12-01 15:52:50 1512161570.758908: $GPGSV,3,3,12,11,11,298,30,24,11,046,25,22,05,312,26,138,38,213,45*48
2017-12-01 15:52:50 1512161570.872161: $GPZDA,205251.00,01,12,2017,00,00*61
2017-12-01 15:52:50 1512161570.872350: $GPGGA,205251,3946.9599,N,08404.9855,W,2,12,0.80,293.46,M,-33.324,M,,*76
2017-12-01 15:52:50 1512161570.872419: $GPRMC,205251,A,3946.9599,N,08404.9855,W,0.0000,0.000,011217,,*37
2017-12-01 15:52:50 1512161570.872480: $GPGSA,A,3,10,12,14,18,25,31,32,1,11,24,22,138,2.0,0.8,1.5*3B
2017-12-01 15:52:51 1512161571.421727: $GPZDA,205252.00,01,12,2017,00,00*62
2017-12-01 15:52:51 1512161571.421911: $GPGGA,205252,3946.9598,N,08404.9848,W,2,12,0.80,293.54,M,-33.324,M,,*7B
2017-12-01 15:52:51 1512161571.421980: $GPRMC,205252,A,3946.9598,N,08404.9848,W,0.0000,0.000,011217,,*39
2017-12-01 15:52:51 1512161571.422041: $GPGSA,A,3,10,12,14,18,25,31,32,1,11,24,22,138,2.0,0.8,1.5*3B
2017-12-01 15:52:52 1512161572.421601: $GPZDA,205253.00,01,12,2017,00,00*63
2017-12-01 15:52:52 1512161572.421775: $GPGGA,205253,3946.9598,N,08404.9848,W,2,12,0.80,293.54,M,-33.324,M,,*7A
2017-12-01 15:52:52 1512161572.421841: $GPRMC,205253,A,3946.9598,N,08404.9848,W,0.0000,0.000,011217,,*38
2017-12-01 15:52:52 1512161572.421901: $GPGSA,A,3,10,12,14,18,25,31,32,1,11,24,22,138,2.0,0.8,1.5*3B
2017-12-01 15:52:53 1512161573.758387: $GPGSV,3,1,12,10,66,135,47,12,25,067,40,14,57,297,43,18,34,136,47*79
2017-12-01 15:52:53 1512161573.758553: $GPGSV,3,2,12,25,32,111,41,31,38,213,49,32,69,339,47,01,16,316,41*7E
2017-12-01 15:52:53 1512161573.758622: $GPGSV,3,3,12,11,11,298,33,24,11,046,26,22,05,312,26,138,38,213,46*4B
2017-12-01 15:52:53 1512161573.872121: $GPZDA,205254.00,01,12,2017,00,00*64
2017-12-01 15:52:53 1512161573.872333: $GPGGA,205254,3946.9598,N,08404.9848,W,2,12,0.80,293.54,M,-33.324,M,,*7D
2017-12-01 15:52:53 1512161573.872404: $GPRMC,205254,A,3946.9598,N,08404.9848,W,0.0000,0.000,011217,,*3F
2017-12-01 15:52:53 1512161573.872468: $GPGSA,A,3,10,12,14,18,25,31,32,1,11,24,22,138,2.0,0.8,1.5*3B
2017-12-01 15:52:54 1512161574.424571: $GPZDA,205255.00,01,12,2017,00,00*65
2017-12-01 15:52:54 1512161574.424752: $GPGGA,205255,3946.9598,N,08404.9848,W,2,12,0.80,293.54,M,-33.324,M,,*7C
2017-12-01 15:52:54 1512161574.424828: $GPRMC,205255,A,3946.9598,N,08404.9848,W,0.0000,0.000,011217,,*3E
2017-12-01 15:52:54 1512161574.424892: $GPGSA,A,3,10,12,14,18,25,31,32,1,11,24,22,138,2.0,0.8,1.5*3B
2017-12-01 15:52:55 1512161575.422068: $GPZDA,205256.00,01,12,2017,00,00*66
2017-12-01 15:52:55 1512161575.422252: $GPGGA,205256,3946.9598,N,08404.9848,W,2,12,0.80,293.54,M,-33.324,M,,*7F
2017-12-01 15:52:55 1512161575.422320: $GPRMC,205256,A,3946.9598,N,08404.9848,W,0.0000,0.000,011217,,*3D
2017-12-01 15:52:55 1512161575.422380: $GPGSA,A,3,10,12,14,18,25,31,32,1,11,24,22,138,2.0,0.8,1.5*3B
2017-12-01 15:52:56 1512161576.757458: $GPGSV,3,1,12,10,66,135,47,12,25,067,40,14,57,297,43,18,34,136,47*79
2017-12-01 15:52:56 1512161576.757637: $GPGSV,3,2,12,25,32,111,41,31,38,213,49,32,69,339,47,01,16,316,42*7D
2017-12-01 15:52:56 1512161576.757703: $GPGSV,3,3,12,11,11,298,32,24,11,046,26,22,05,312,29,138,38,213,46*45
2017-12-01 15:52:56 1512161576.871076: $GPZDA,205257.00,01,12,2017,00,00*67
2017-12-01 15:52:56 1512161576.871244: $GPGGA,205257,3946.9598,N,08404.9848,W,2,12,0.80,293.54,M,-33.324,M,,*7E
2017-12-01 15:52:56 1512161576.871311: $GPRMC,205257,A,3946.9598,N,08404.9848,W,0.0000,0.000,011217,,*3C
2017-12-01 15:52:56 1512161576.871426: $GPGSA,A,3,10,12,14,18,25,31,32,1,11,24,22,138,2.0,0.8,1.5*3B
2017-12-01 15:52:57 1512161577.423150: $GPZDA,205258.00,01,12,2017,00,00*68
2017-12-01 15:52:57 1512161577.423321: $GPGGA,205258,3946.9598,N,08404.9848,W,2,12,0.80,293.54,M,-33.324,M,,*71
2017-12-01 15:52:57 1512161577.423387: $GPRMC,205258,A,3946.9598,N,08404.9848,W,0.0000,0.000,011217,,*33
2017-12-01 15:52:57 1512161577.423447: $GPGSA,A,3,10,12,14,18,25,31,32,1,11,24,22,138,2.0,0.8,1.5*3B
2017-12-01 15:52:58 1512161578.422978: $GPZDA,205259.00,01,12,2017,00,00*69
2017-12-01 15:52:58 1512161578.423166: $GPGGA,205259,3946.9598,N,08404.9848,W,2,12,0.80,293.54,M,-33.324,M,,*70
2017-12-01 15:52:58 1512161578.423238: $GPRMC,205259,A,3946.9598,N,08404.9848,W,0.0000,0.000,011217,,*32
2017-12-01 15:52:58 1512161578.423302: $GPGSA,A,3,10,12,14,18,25,31,32,1,11,24,22,138,2.0,0.8,1.5*3B
