2017-11-16 15:08:32 1510862912.678406: {"class":"VERSION","release":"3.17","rev":"3.17","proto_major":3,"proto_minor":12}
2017-11-16 15:08:32 1510862912.678812: {"class":"DEVICES","devices":[{"class":"DEVICE","path":"/dev/ttyUSB0","driver":"SiRF","subtype":"9\u0006GSD4e_4.1.2-P1_RPATCH.05-F-GPS-4R-1510281 11/03/2015 307","activated":"2017-11-16T20:08:32.555Z","flags":1,"native":1,"bps":4800,"parity":"N","stopbits":1,"cycle":1.00}]}
2017-11-16 15:08:32 1510862912.678938: {"class":"WATCH","enable":true,"json":false,"nmea":true,"raw":0,"scaled":false,"timing":false,"split24":false,"pps":false}
2017-11-16 15:08:33 1510862913.413265: $GPZDA,200832.00,16,11,2017,00,00*6E
2017-11-16 15:08:33 1510862913.413437: $GPGGA,200832,3946.9589,N,08404.9845,W,2,12,0.80,298.72,M,-33.324,M,,*70
2017-11-16 15:08:33 1510862913.413498: $GPRMC,200832,A,3946.9589,N,08404.9845,W,0.0000,0.000,161117,,*38
2017-11-16 15:08:33 1510862913.413554: $GPGSA,A,3,8,10,14,15,18,20,21,24,27,32,12,138,1.6,0.8,1.3*34
2017-11-16 15:08:34 1510862914.748827: $GPGSV,3,1,12,08,07,300,27,10,62,321,51,14,23,247,42,15,17,063,42*72
2017-11-16 15:08:34 1510862914.749000: $GPGSV,3,2,12,18,76,069,46,20,14,114,36,21,38,181,44,24,50,069,48*78
2017-11-16 15:08:34 1510862914.749061: $GPGSV,3,3,12,27,11,267,43,32,40,258,46,12,04,114,20,138,38,213,44*43
2017-11-16 15:08:34 1510862914.862244: $GPZDA,200833.00,16,11,2017,00,00*6F
2017-11-16 15:08:34 1510862914.862413: $GPGGA,200833,3946.9589,N,08404.9845,W,2,12,0.80,298.72,M,-33.324,M,,*71
2017-11-16 15:08:34 1510862914.862476: $GPRMC,200833,A,3946.9589,N,08404.9845,W,0.0000,0.000,161117,,*39
2017-11-16 15:08:34 1510862914.862532: $GPGSA,A,3,8,10,14,15,18,20,21,24,27,32,12,138,1.6,0.8,1.3*34
2017-11-16 15:08:35 1510862915.412999: $GPZDA,200834.00,16,11,2017,00,00*68
2017-11-16 15:08:35 1510862915.413308: $GPGGA,200834,3946.9589,N,08404.9845,W,2,12,0.80,298.72,M,-33.324,M,,*76
2017-11-16 15:08:35 1510862915.413428: $GPRMC,200834,A,3946.9589,N,08404.9845,W,0.0000,0.000,161117,,*3E
2017-11-16 15:08:35 1510862915.413527: $GPGSA,A,3,8,10,14,15,18,20,21,24,27,32,12,138,1.6,0.8,1.3*34
2017-11-16 15:08:36 1510862916.396902: $GPZDA,200835.00,16,11,2017,00,00*69
2017-11-16 15:08:36 1510862916.397042: $GPGGA,200835,3946.9589,N,08404.9845,W,2,12,0.80,298.72,M,-33.324,M,,*77
2017-11-16 15:08:36 1510862916.397103: $GPRMC,200835,A,3946.9589,N,08404.9845,W,0.0000,0.000,161117,,*3F
2017-11-16 15:08:36 1510862916.397159: $GPGSA,A,3,8,10,14,15,18,20,21,24,27,32,12,138,1.6,0.8,1.3*34
2017-11-16 15:08:37 1510862917.750095: $GPGSV,3,1,12,08,07,300,28,10,62,321,51,14,23,247,42,15,17,063,42*7D
2017-11-16 15:08:37 1510862917.750250: $GPGSV,3,2,12,18,76,069,46,20,14,114,36,21,38,181,44,24,50,069,48*78
2017-11-16 15:08:37 1510862917.750372: $GPGSV,3,3,12,27,11,267,43,32,40,258,46,12,04,114,20,138,38,213,43*44
2017-11-16 15:08:37 1510862917.863394: $GPZDA,200836.00,16,11,2017,00,00*6A
2017-11-16 15:08:37 1510862917.863581: $GPGGA,200836,3946.9589,N,08404.9845,W,2,12,0.80,298.72,M,-33.324,M,,*74
2017-11-16 15:08:37 1510862917.863664: $GPRMC,200836,A,3946.9589,N,08404.9845,W,0.0000,0.000,161117,,*3C
2017-11-16 15:08:37 1510862917.863723: $GPGSA,A,3,8,10,14,15,18,20,21,24,27,32,12,138,1.6,0.8,1.3*34
2017-11-16 15:08:38 1510862918.395543: $GPZDA,200837.00,16,11,2017,00,00*6B
2017-11-16 15:08:38 1510862918.395765: $GPGGA,200837,3946.9589,N,08404.9845,W,2,12,0.80,298.72,M,-33.324,M,,*75
2017-11-16 15:08:38 1510862918.395829: $GPRMC,200837,A,3946.9589,N,08404.9845,W,0.0000,0.000,161117,,*3D
2017-11-16 15:08:38 1510862918.395886: $GPGSA,A,3,8,10,14,15,18,20,21,24,27,32,12,138,1.6,0.8,1.3*34
2017-11-16 15:08:39 1510862919.406274: $GPZDA,200838.00,16,11,2017,00,00*64
2017-11-16 15:08:39 1510862919.406462: $GPGGA,200838,3946.9589,N,08404.9845,W,2,12,0.80,298.72,M,-33.324,M,,*7A
2017-11-16 15:08:39 1510862919.406545: $GPRMC,200838,A,3946.9589,N,08404.9845,W,0.0000,0.000,161117,,*32
2017-11-16 15:08:39 1510862919.406602: $GPGSA,A,3,8,10,14,15,18,20,21,24,27,32,12,138,1.6,0.8,1.3*34
2017-11-16 15:08:40 1510862920.750180: $GPGSV,3,1,12,08,07,300,30,10,62,321,51,14,23,247,42,15,17,063,42*74
2017-11-16 15:08:40 1510862920.750612: $GPGSV,3,2,12,18,76,069,47,20,14,114,36,21,38,181,44,24,50,069,48*79
2017-11-16 15:08:40 1510862920.750736: $GPGSV,3,3,12,27,11,267,43,32,40,258,46,12,04,114,21,138,38,213,44*42
2017-11-16 15:08:40 1510862920.862921: $GPZDA,200839.00,16,11,2017,00,00*65
2017-11-16 15:08:40 1510862920.863084: $GPGGA,200839,3946.9589,N,08404.9845,W,2,12,0.80,298.72,M,-33.324,M,,*7B
2017-11-16 15:08:40 1510862920.863145: $GPRMC,200839,A,3946.9589,N,08404.9845,W,0.0000,0.000,161117,,*33
2017-11-16 15:08:40 1510862920.863201: $GPGSA,A,3,8,10,14,15,18,20,21,24,27,32,12,138,1.6,0.8,1.3*34
2017-11-16 15:08:41 1510862921.488255: $GPZDA,200840.00,16,11,2017,00,00*6B
2017-11-16 15:08:41 1510862921.488431: $GPGGA,200840,3946.9589,N,08404.9845,W,2,12,0.80,298.72,M,-33.324,M,,*75
2017-11-16 15:08:41 1510862921.488494: $GPRMC,200840,A,3946.9589,N,08404.9845,W,0.0000,0.000,161117,,*3D
2017-11-16 15:08:41 1510862921.488550: $GPGSA,A,3,8,10,14,15,18,20,21,24,27,32,12,138,1.6,0.8,1.3*34
2017-11-16 15:08:42 1510862922.395539: $GPZDA,200841.00,16,11,2017,00,00*6A
2017-11-16 15:08:42 1510862922.395700: $GPGGA,200841,3946.9589,N,08404.9845,W,2,12,0.80,298.72,M,-33.324,M,,*74
2017-11-16 15:08:42 1510862922.395761: $GPRMC,200841,A,3946.9589,N,08404.9845,W,0.0000,0.000,161117,,*3C
2017-11-16 15:08:42 1510862922.395818: $GPGSA,A,3,8,10,14,15,18,20,21,24,27,32,12,138,1.6,0.8,1.3*34
