2017-11-16 13:28:44 1510856924.598610: {"class":"VERSION","release":"3.17","rev":"3.17","proto_major":3,"proto_minor":12}
2017-11-16 13:28:44 1510856924.599072: {"class":"DEVICES","devices":[{"class":"DEVICE","path":"/dev/ttyUSB0","driver":"SiRF","subtype":"9\u0006GSD4e_4.1.2-P1_RPATCH.05-F-GPS-4R-1510281 11/03/2015 307","activated":"2017-11-16T18:28:44.596Z","flags":1,"native":1,"bps":4800,"parity":"N","stopbits":1,"cycle":1.00}]}
2017-11-16 13:28:44 1510856924.599185: {"class":"WATCH","enable":true,"json":false,"nmea":true,"raw":0,"scaled":false,"timing":false,"split24":false,"pps":false}
2017-11-16 13:28:45 1510856925.603876: $GPGSV,3,1,12,10,26,286,44,13,26,045,45,15,57,049,50,18,57,304,46*77
2017-11-16 13:28:45 1510856925.604042: $GPGSV,3,2,12,20,48,076,48,21,79,252,46,24,36,135,43,27,17,309,40*7C
2017-11-16 13:28:45 1510856925.604102: $GPGSV,3,3,12,29,06,187,25,05,02,090,23,32,04,226,29,138,38,213,46*4A
2017-11-16 13:28:45 1510856925.717192: $GPZDA,182844.00,16,11,2017,00,00*66
2017-11-16 13:28:45 1510856925.717346: $GPGGA,182844,3946.9611,N,08404.9845,W,2,12,0.80,303.32,M,-33.324,M,,*7D
2017-11-16 13:28:45 1510856925.717407: $GPRMC,182844,A,3946.9611,N,08404.9845,W,0.0000,0.000,161117,,*32
2017-11-16 13:28:45 1510856925.717463: $GPGSA,A,3,10,13,15,18,20,21,24,27,29,5,32,138,1.6,0.8,1.3*36
2017-11-16 13:28:46 1510856926.288032: $GPZDA,182845.00,16,11,2017,00,00*67
2017-11-16 13:28:46 1510856926.288188: $GPGGA,182845,3946.9611,N,08404.9845,W,2,12,0.80,303.32,M,-33.324,M,,*7C
2017-11-16 13:28:46 1510856926.288249: $GPRMC,182845,A,3946.9611,N,08404.9845,W,0.0000,0.000,161117,,*33
2017-11-16 13:28:46 1510856926.288305: $GPGSA,A,3,10,13,15,18,20,21,24,27,29,5,32,138,1.6,0.8,1.3*36
2017-11-16 13:28:47 1510856927.267620: $GPZDA,182846.00,16,11,2017,00,00*64
2017-11-16 13:28:47 1510856927.267776: $GPGGA,182846,3946.9611,N,08404.9845,W,2,12,0.80,303.32,M,-33.324,M,,*7F
2017-11-16 13:28:47 1510856927.267837: $GPRMC,182846,A,3946.9611,N,08404.9845,W,0.0000,0.000,161117,,*30
2017-11-16 13:28:47 1510856927.267893: $GPGSA,A,3,10,13,15,18,20,21,24,27,29,5,32,138,1.6,0.8,1.3*36
2017-11-16 13:28:48 1510856928.623368: $GPGSV,3,1,12,10,26,286,45,13,26,045,45,15,57,049,50,18,57,304,46*76
2017-11-16 13:28:48 1510856928.623535: $GPGSV,3,2,12,20,48,076,48,21,79,252,47,24,36,135,43,27,17,309,40*7D
2017-11-16 13:28:48 1510856928.623595: $GPGSV,3,3,12,29,06,187,26,05,02,090,22,32,04,226,29,138,38,213,46*48
2017-11-16 13:28:48 1510856928.737314: $GPZDA,182847.00,16,11,2017,00,00*65
2017-11-16 13:28:48 1510856928.737478: $GPGGA,182847,3946.9611,N,08404.9845,W,2,12,0.80,303.32,M,-33.324,M,,*7E
2017-11-16 13:28:48 1510856928.737539: $GPRMC,182847,A,3946.9611,N,08404.9845,W,0.0000,0.000,161117,,*31
2017-11-16 13:28:48 1510856928.737595: $GPGSA,A,3,10,13,15,18,20,21,24,27,29,5,32,138,1.6,0.8,1.3*36
2017-11-16 13:28:49 1510856929.271812: $GPZDA,182848.00,16,11,2017,00,00*6A
2017-11-16 13:28:49 1510856929.271975: $GPGGA,182848,3946.9611,N,08404.9845,W,2,12,0.80,303.32,M,-33.324,M,,*71
2017-11-16 13:28:49 1510856929.272045: $GPRMC,182848,A,3946.9611,N,08404.9845,W,0.0000,0.000,161117,,*3E
2017-11-16 13:28:49 1510856929.272111: $GPGSA,A,3,10,13,15,18,20,21,24,27,29,5,32,138,1.6,0.8,1.3*36
2017-11-16 13:28:50 1510856930.270387: $GPZDA,182849.00,16,11,2017,00,00*6B
2017-11-16 13:28:50 1510856930.270568: $GPGGA,182849,3946.9611,N,08404.9845,W,2,12,0.80,303.32,M,-33.324,M,,*70
2017-11-16 13:28:50 1510856930.270634: $GPRMC,182849,A,3946.9611,N,08404.9845,W,0.0000,0.000,161117,,*3F
2017-11-16 13:28:50 1510856930.270693: $GPGSA,A,3,10,13,15,18,20,21,24,27,29,5,32,138,1.6,0.8,1.3*36
2017-11-16 13:28:51 1510856931.623583: $GPGSV,3,1,12,10,26,286,45,13,26,045,45,15,57,049,50,18,57,304,46*76
2017-11-16 13:28:51 1510856931.623751: $GPGSV,3,2,12,20,48,076,48,21,79,252,47,24,36,135,43,27,17,309,41*7C
2017-11-16 13:28:51 1510856931.623815: $GPGSV,3,3,12,29,06,187,27,05,02,090,09,32,04,226,29,138,38,213,44*42
2017-11-16 13:28:51 1510856931.736911: $GPZDA,182850.00,16,11,2017,00,00*63
2017-11-16 13:28:51 1510856931.737081: $GPGGA,182850,3946.9611,N,08404.9845,W,2,12,0.80,303.32,M,-33.324,M,,*78
2017-11-16 13:28:51 1510856931.737198: $GPRMC,182850,A,3946.9611,N,08404.9845,W,0.0000,0.000,161117,,*37
2017-11-16 13:28:51 1510856931.737255: $GPGSA,A,3,10,13,15,18,20,21,24,27,29,5,32,138,1.6,0.8,1.3*36
2017-11-16 13:28:52 1510856932.266517: $GPZDA,182851.00,16,11,2017,00,00*62
2017-11-16 13:28:52 1510856932.266690: $GPGGA,182851,3946.9611,N,08404.9845,W,2,12,0.80,303.32,M,-33.324,M,,*79
2017-11-16 13:28:52 1510856932.266751: $GPRMC,182851,A,3946.9611,N,08404.9845,W,0.0000,0.000,161117,,*36
2017-11-16 13:28:52 1510856932.266806: $GPGSA,A,3,10,13,15,18,20,21,24,27,29,5,32,138,1.6,0.8,1.3*36
2017-11-16 13:28:53 1510856933.268587: $GPZDA,182852.00,16,11,2017,00,00*61
2017-11-16 13:28:53 1510856933.268755: $GPGGA,182852,3946.9611,N,08404.9845,W,2,12,0.80,303.32,M,-33.324,M,,*7A
2017-11-16 13:28:53 1510856933.268816: $GPRMC,182852,A,3946.9611,N,08404.9845,W,0.0000,0.000,161117,,*35
2017-11-16 13:28:53 1510856933.268872: $GPGSA,A,3,10,13,15,18,20,21,24,27,29,5,32,138,1.6,0.8,1.3*36
2017-11-16 13:28:54 1510856934.613113: $GPGSV,3,1,12,10,26,286,44,13,26,045,45,15,57,049,50,18,57,304,46*77
2017-11-16 13:28:54 1510856934.613279: $GPGSV,3,2,12,20,48,076,48,21,79,252,47,24,36,135,43,27,17,309,41*7C
2017-11-16 13:28:54 1510856934.613340: $GPGSV,3,3,12,29,06,187,27,05,02,090,00,32,04,226,28,138,38,213,44*4A
2017-11-16 13:28:54 1510856934.726380: $GPZDA,182853.00,16,11,2017,00,00*60
2017-11-16 13:28:54 1510856934.726552: $GPGGA,182853,3946.9611,N,08404.9845,W,2,11,0.80,303.32,M,-33.324,M,,*78
2017-11-16 13:28:54 1510856934.726613: $GPRMC,182853,A,3946.9611,N,08404.9845,W,0.0000,0.000,161117,,*34
2017-11-16 13:28:54 1510856934.726669: $GPGSA,A,3,10,13,15,18,20,21,24,27,29,32,138,,1.6,0.8,1.3*03
2017-11-16 13:28:55 1510856935.351735: $GPZDA,182854.00,16,11,2017,00,00*67
2017-11-16 13:28:55 1510856935.351900: $GPGGA,182854,3946.9611,N,08404.9845,W,2,11,0.80,303.32,M,-33.324,M,,*7F
2017-11-16 13:28:55 1510856935.351962: $GPRMC,182854,A,3946.9611,N,08404.9845,W,0.0000,0.000,161117,,*33
2017-11-16 13:28:55 1510856935.352018: $GPGSA,A,3,10,13,15,18,20,21,24,27,29,32,138,,1.6,0.8,1.3*03
2017-11-16 13:28:56 1510856936.267559: $GPZDA,182855.00,16,11,2017,00,00*66
2017-11-16 13:28:56 1510856936.267722: $GPGGA,182855,3946.9611,N,08404.9845,W,2,11,0.80,303.32,M,-33.324,M,,*7E
2017-11-16 13:28:56 1510856936.267784: $GPRMC,182855,A,3946.9611,N,08404.9845,W,0.0000,0.000,161117,,*32
2017-11-16 13:28:56 1510856936.267840: $GPGSA,A,3,10,13,15,18,20,21,24,27,29,32,138,,1.6,0.8,1.3*03
2017-11-16 13:28:57 1510856937.603383: $GPGSV,3,1,12,10,26,286,44,13,26,045,45,15,57,049,50,18,57,304,46*77
2017-11-16 13:28:57 1510856937.603550: $GPGSV,3,2,12,20,48,076,48,21,79,252,47,24,36,135,44,27,17,309,41*7B
2017-11-16 13:28:57 1510856937.603609: $GPGSV,3,3,12,29,06,187,28,05,02,090,20,32,04,226,28,138,38,213,45*46
2017-11-16 13:28:57 1510856937.716636: $GPZDA,182856.00,16,11,2017,00,00*65
2017-11-16 13:28:57 1510856937.716805: $GPGGA,182856,3946.9611,N,08404.9845,W,2,12,0.80,303.32,M,-33.324,M,,*7E
2017-11-16 13:28:57 1510856937.716866: $GPRMC,182856,A,3946.9611,N,08404.9845,W,0.0000,0.000,161117,,*31
2017-11-16 13:28:57 1510856937.716921: $GPGSA,A,3,10,13,15,18,20,21,24,27,29,5,32,138,1.6,0.8,1.3*36
2017-11-16 13:28:58 1510856938.267491: $GPZDA,182857.00,16,11,2017,00,00*64
2017-11-16 13:28:58 1510856938.267656: $GPGGA,182857,3946.9611,N,08404.9845,W,2,12,0.80,303.32,M,-33.324,M,,*7F
2017-11-16 13:28:58 1510856938.267717: $GPRMC,182857,A,3946.9611,N,08404.9845,W,0.0000,0.000,161117,,*30
2017-11-16 13:28:58 1510856938.267773: $GPGSA,A,3,10,13,15,18,20,21,24,27,29,5,32,138,1.6,0.8,1.3*36
2017-11-16 13:28:59 1510856939.267136: $GPZDA,182858.00,16,11,2017,00,00*6B
2017-11-16 13:28:59 1510856939.267318: $GPGGA,182858,3946.9611,N,08404.9845,W,2,12,0.80,303.32,M,-33.324,M,,*70
2017-11-16 13:28:59 1510856939.267380: $GPRMC,182858,A,3946.9611,N,08404.9845,W,0.0000,0.000,161117,,*3F
2017-11-16 13:28:59 1510856939.267436: $GPGSA,A,3,10,13,15,18,20,21,24,27,29,5,32,138,1.6,0.8,1.3*36
