2017-12-01 17:32:21 1512167541.747131: {"class":"VERSION","release":"3.16","rev":"3.16-4","proto_major":3,"proto_minor":11}
2017-12-01 17:32:21 1512167541.747570: {"class":"DEVICES","devices":[{"class":"DEVICE","path":"/dev/ttyUSB0","driver":"SiRF","subtype":"9\u0006GSD4e_4.1.2-P1_RPATCH.05-F-GPS-4R-1510281 11/03/2015 307","activated":"2017-12-01T22:32:21.679Z","flags":1,"native":1,"bps":4800,"parity":"N","stopbits":1,"cycle":1.00}]}
2017-12-01 17:32:21 1512167541.747688: {"class":"WATCH","enable":true,"json":false,"nmea":true,"raw":0,"scaled":false,"timing":false,"split24":false,"pps":false}
2017-12-01 17:32:22 1512167542.362925: $GPZDA,223223.00,01,12,2017,00,00*60
2017-12-01 17:32:22 1512167542.363101: $GPGGA,223223,3946.9738,N,08404.9844,W,2,11,0.80,295.43,M,-33.325,M,,*7F
2017-12-01 17:32:22 1512167542.363168: $GPRMC,223223,A,3946.9738,N,08404.9844,W,0.0000,0.000,011217,,*3F
2017-12-01 17:32:22 1512167542.363230: $GPGSA,A,3,1,3,10,14,22,25,26,31,32,12,138,,2.0,0.8,1.5*03
2017-12-01 17:32:23 1512167543.698642: $GPGSV,3,1,11,01,17,273,45,03,23,315,44,10,19,157,43,14,68,046,42*7C
2017-12-01 17:32:23 1512167543.704860: $GPGSV,3,2,11,22,41,300,48,25,34,055,42,26,29,177,42,31,79,297,46*7E
2017-12-01 17:32:23 1512167543.704985: $GPGSV,3,3,11,32,53,082,46,12,05,031,22,138,38,213,45*72
2017-12-01 17:32:23 1512167543.812205: $GPZDA,223224.00,01,12,2017,00,00*67
2017-12-01 17:32:23 1512167543.812342: $GPGGA,223224,3946.9738,N,08404.9844,W,2,11,0.80,295.43,M,-33.325,M,,*78
2017-12-01 17:32:23 1512167543.812407: $GPRMC,223224,A,3946.9738,N,08404.9844,W,0.0000,0.000,011217,,*38
2017-12-01 17:32:23 1512167543.812468: $GPGSA,A,3,1,3,10,14,22,25,26,31,32,12,138,,2.0,0.8,1.5*03
2017-12-01 17:32:24 1512167544.364217: $GPZDA,223225.00,01,12,2017,00,00*66
2017-12-01 17:32:24 1512167544.364389: $GPGGA,223225,3946.9738,N,08404.9844,W,2,11,0.80,295.43,M,-33.325,M,,*79
2017-12-01 17:32:24 1512167544.364460: $GPRMC,223225,A,3946.9738,N,08404.9844,W,0.0000,0.000,011217,,*39
2017-12-01 17:32:24 1512167544.364522: $GPGSA,A,3,1,3,10,14,22,25,26,31,32,12,138,,2.0,0.8,1.5*03
2017-12-01 17:32:25 1512167545.365195: $GPZDA,223226.00,01,12,2017,00,00*65
2017-12-01 17:32:25 1512167545.365377: $GPGGA,223226,3946.9738,N,08404.9844,W,2,11,0.80,295.43,M,-33.325,M,,*7A
2017-12-01 17:32:25 1512167545.365445: $GPRMC,223226,A,3946.9738,N,08404.9844,W,0.0000,0.000,011217,,*3A
2017-12-01 17:32:25 1512167545.365507: $GPGSA,A,3,1,3,10,14,22,25,26,31,32,12,138,,2.0,0.8,1.5*03
2017-12-01 17:32:26 1512167546.706955: $GPGSV,3,1,11,01,17,273,45,03,23,315,44,10,19,157,43,14,68,046,42*7C
2017-12-01 17:32:26 1512167546.707136: $GPGSV,3,2,11,22,41,300,48,25,34,055,42,26,29,177,42,31,79,297,46*7E
2017-12-01 17:32:26 1512167546.707203: $GPGSV,3,3,11,32,53,082,46,12,05,031,22,138,38,213,45*72
2017-12-01 17:32:26 1512167546.820325: $GPZDA,223227.00,01,12,2017,00,00*64
2017-12-01 17:32:26 1512167546.820498: $GPGGA,223227,3946.9738,N,08404.9844,W,2,11,0.80,295.43,M,-33.325,M,,*7B
2017-12-01 17:32:26 1512167546.820566: $GPRMC,223227,A,3946.9738,N,08404.9844,W,0.0000,0.000,011217,,*3B
2017-12-01 17:32:26 1512167546.820626: $GPGSA,A,3,1,3,10,14,22,25,26,31,32,12,138,,2.0,0.8,1.5*03
2017-12-01 17:32:27 1512167547.445822: $GPZDA,223228.00,01,12,2017,00,00*6B
2017-12-01 17:32:27 1512167547.446002: $GPGGA,223228,3946.9738,N,08404.9844,W,2,11,0.80,295.43,M,-33.325,M,,*74
2017-12-01 17:32:27 1512167547.446071: $GPRMC,223228,A,3946.9738,N,08404.9844,W,0.0000,0.000,011217,,*34
2017-12-01 17:32:27 1512167547.446132: $GPGSA,A,3,1,3,10,14,22,25,26,31,32,12,138,,2.0,0.8,1.5*03
2017-12-01 17:32:28 1512167548.362877: $GPZDA,223229.00,01,12,2017,00,00*6A
2017-12-01 17:32:28 1512167548.363059: $GPGGA,223229,3946.9738,N,08404.9844,W,2,11,0.80,295.43,M,-33.325,M,,*75
2017-12-01 17:32:28 1512167548.363128: $GPRMC,223229,A,3946.9738,N,08404.9844,W,0.0000,0.000,011217,,*35
2017-12-01 17:32:28 1512167548.363189: $GPGSA,A,3,1,3,10,14,22,25,26,31,32,12,138,,2.0,0.8,1.5*03
2017-12-01 17:32:29 1512167549.698578: $GPGSV,3,1,12,01,17,273,45,03,23,315,44,10,19,157,43,14,68,046,41*7C
2017-12-01 17:32:29 1512167549.698816: $GPGSV,3,2,12,22,41,300,48,25,34,055,42,26,29,177,42,31,79,297,45*7E
2017-12-01 17:32:29 1512167549.698885: $GPGSV,3,3,12,32,53,082,46,12,05,031,23,16,01,190,15,138,38,213,45*4A
2017-12-01 17:32:29 1512167549.812072: $GPZDA,223230.00,01,12,2017,00,00*62
2017-12-01 17:32:29 1512167549.812263: $GPGGA,223230,3946.9738,N,08404.9844,W,2,11,0.80,295.43,M,-33.325,M,,*7D
2017-12-01 17:32:29 1512167549.812335: $GPRMC,223230,A,3946.9738,N,08404.9844,W,0.0000,0.000,011217,,*3D
2017-12-01 17:32:29 1512167549.812398: $GPGSA,A,3,1,3,10,14,22,25,26,31,32,12,138,,2.0,0.8,1.5*03
2017-12-01 17:32:30 1512167550.365342: $GPZDA,223231.00,01,12,2017,00,00*63
2017-12-01 17:32:30 1512167550.365512: $GPGGA,223231,3946.9738,N,08404.9844,W,2,11,0.80,295.43,M,-33.325,M,,*7C
2017-12-01 17:32:30 1512167550.365578: $GPRMC,223231,A,3946.9738,N,08404.9844,W,0.0000,0.000,011217,,*3C
2017-12-01 17:32:30 1512167550.365639: $GPGSA,A,3,1,3,10,14,22,25,26,31,32,12,138,,2.0,0.8,1.5*03
2017-12-01 17:32:31 1512167551.363693: $GPZDA,223232.00,01,12,2017,00,00*60
2017-12-01 17:32:31 1512167551.363871: $GPGGA,223232,3946.9738,N,08404.9844,W,2,11,0.80,295.43,M,-33.325,M,,*7F
2017-12-01 17:32:31 1512167551.363939: $GPRMC,223232,A,3946.9738,N,08404.9844,W,0.0000,0.000,011217,,*3F
2017-12-01 17:32:31 1512167551.364001: $GPGSA,A,3,1,3,10,14,22,25,26,31,32,12,138,,2.0,0.8,1.5*03
2017-12-01 17:32:32 1512167552.699003: $GPGSV,3,1,12,01,17,273,45,03,23,315,44,10,19,157,43,14,68,046,42*7F
2017-12-01 17:32:32 1512167552.699157: $GPGSV,3,2,12,22,41,300,48,25,34,055,42,26,29,177,43,31,79,297,45*7F
2017-12-01 17:32:32 1512167552.699222: $GPGSV,3,3,12,32,53,082,47,12,05,031,22,16,01,190,14,138,38,213,46*48
2017-12-01 17:32:32 1512167552.812957: $GPZDA,223233.00,01,12,2017,00,00*61
2017-12-01 17:32:32 1512167552.813130: $GPGGA,223233,3946.9738,N,08404.9844,W,2,11,0.80,295.43,M,-33.325,M,,*7E
2017-12-01 17:32:32 1512167552.813197: $GPRMC,223233,A,3946.9738,N,08404.9844,W,0.0000,0.000,011217,,*3E
2017-12-01 17:32:32 1512167552.813258: $GPGSA,A,3,1,3,10,14,22,25,26,31,32,12,138,,2.0,0.8,1.5*03
2017-12-01 17:32:33 1512167553.363293: $GPZDA,223234.00,01,12,2017,00,00*66
2017-12-01 17:32:33 1512167553.363471: $GPGGA,223234,3946.9738,N,08404.9844,W,2,11,0.80,295.43,M,-33.325,M,,*79
2017-12-01 17:32:33 1512167553.363539: $GPRMC,223234,A,3946.9738,N,08404.9844,W,0.0000,0.000,011217,,*39
2017-12-01 17:32:33 1512167553.363600: $GPGSA,A,3,1,3,10,14,22,25,26,31,32,12,138,,2.0,0.8,1.5*03
2017-12-01 17:32:34 1512167554.361671: $GPZDA,223235.00,01,12,2017,00,00*67
2017-12-01 17:32:34 1512167554.361875: $GPGGA,223235,3946.9738,N,08404.9844,W,2,11,0.80,295.43,M,-33.325,M,,*78
2017-12-01 17:32:34 1512167554.361943: $GPRMC,223235,A,3946.9738,N,08404.9844,W,0.0000,0.000,011217,,*38
2017-12-01 17:32:34 1512167554.362004: $GPGSA,A,3,1,3,10,14,22,25,26,31,32,12,138,,2.0,0.8,1.5*03
2017-12-01 17:32:35 1512167555.698550: $GPGSV,3,1,12,01,17,273,45,03,23,315,44,10,19,157,43,14,68,046,42*7F
2017-12-01 17:32:35 1512167555.719133: $GPGSV,3,2,12,22,41,300,48,25,34,055,42,26,29,177,42,31,79,297,45*7E
2017-12-01 17:32:35 1512167555.719267: $GPGSV,3,3,12,32,53,082,47,12,05,031,22,16,01,190,00,138,38,213,46*4D
2017-12-01 17:32:35 1512167555.810732: $GPZDA,223236.00,01,12,2017,00,00*64
2017-12-01 17:32:35 1512167555.810909: $GPGGA,223236,3946.9738,N,08404.9844,W,2,11,0.80,295.43,M,-33.325,M,,*7B
2017-12-01 17:32:35 1512167555.810975: $GPRMC,223236,A,3946.9738,N,08404.9844,W,0.0000,0.000,011217,,*3B
2017-12-01 17:32:35 1512167555.811036: $GPGSA,A,3,1,3,10,14,22,25,26,31,32,12,138,,2.0,0.8,1.5*03
2017-12-01 17:32:36 1512167556.361690: $GPZDA,223237.00,01,12,2017,00,00*65
2017-12-01 17:32:36 1512167556.361896: $GPGGA,223237,3946.9738,N,08404.9844,W,2,11,0.80,295.43,M,-33.325,M,,*7A
2017-12-01 17:32:36 1512167556.361964: $GPRMC,223237,A,3946.9738,N,08404.9844,W,0.0000,0.000,011217,,*3A
2017-12-01 17:32:36 1512167556.362025: $GPGSA,A,3,1,3,10,14,22,25,26,31,32,12,138,,2.0,0.8,1.5*03
2017-12-01 17:32:37 1512167557.364463: $GPZDA,223238.00,01,12,2017,00,00*6A
2017-12-01 17:32:37 1512167557.364675: $GPGGA,223238,3946.9738,N,08404.9844,W,2,11,0.80,295.43,M,-33.325,M,,*75
2017-12-01 17:32:37 1512167557.364765: $GPRMC,223238,A,3946.9738,N,08404.9844,W,0.0000,0.000,011217,,*35
2017-12-01 17:32:37 1512167557.364827: $GPGSA,A,3,1,3,10,14,22,25,26,31,32,12,138,,2.0,0.8,1.5*03
2017-12-01 17:32:38 1512167558.695176: $GPGSV,3,1,12,01,17,273,45,03,23,315,44,10,19,157,43,14,68,046,42*7F
2017-12-01 17:32:38 1512167558.695333: $GPGSV,3,2,12,22,41,300,48,25,34,055,42,26,29,177,42,31,79,297,46*7D
2017-12-01 17:32:38 1512167558.695399: $GPGSV,3,3,12,32,53,082,47,12,05,031,23,16,01,190,13,138,38,213,46*4E
2017-12-01 17:32:38 1512167558.808565: $GPZDA,223239.00,01,12,2017,00,00*6B
2017-12-01 17:32:38 1512167558.808758: $GPGGA,223239,3946.9738,N,08404.9844,W,2,11,0.80,295.43,M,-33.325,M,,*74
2017-12-01 17:32:38 1512167558.808827: $GPRMC,223239,A,3946.9738,N,08404.9844,W,0.0000,0.000,011217,,*34
2017-12-01 17:32:38 1512167558.808905: $GPGSA,A,3,1,3,10,14,22,25,26,31,32,12,138,,2.0,0.8,1.5*03
2017-12-01 17:32:39 1512167559.366956: $GPZDA,223240.00,01,12,2017,00,00*65
2017-12-01 17:32:39 1512167559.367132: $GPGGA,223240,3946.9738,N,08404.9844,W,2,11,0.80,295.43,M,-33.325,M,,*7A
2017-12-01 17:32:39 1512167559.367200: $GPRMC,223240,A,3946.9738,N,08404.9844,W,0.0000,0.000,011217,,*3A
2017-12-01 17:32:39 1512167559.367261: $GPGSA,A,3,1,3,10,14,22,25,26,31,32,12,138,,2.0,0.8,1.5*03
2017-12-01 17:32:40 1512167560.366760: $GPZDA,223241.00,01,12,2017,00,00*64
2017-12-01 17:32:40 1512167560.366961: $GPGGA,223241,3946.9738,N,08404.9844,W,2,11,0.80,295.43,M,-33.325,M,,*7B
2017-12-01 17:32:40 1512167560.367050: $GPRMC,223241,A,3946.9738,N,08404.9844,W,0.0000,0.000,011217,,*3B
2017-12-01 17:32:40 1512167560.367115: $GPGSA,A,3,1,3,10,14,22,25,26,31,32,12,138,,2.0,0.8,1.5*03
2017-12-01 17:32:41 1512167561.702255: $GPGSV,3,1,12,01,17,273,45,03,23,315,44,10,19,157,43,14,68,046,42*7F
2017-12-01 17:32:41 1512167561.702434: $GPGSV,3,2,12,22,41,300,47,25,34,055,43,26,29,177,42,31,79,297,46*73
2017-12-01 17:32:41 1512167561.702502: $GPGSV,3,3,12,32,53,082,47,12,05,031,24,16,01,190,00,138,38,213,46*4B
