2017-12-29 14:50:58 1514577058.392435: {"class":"VERSION","release":"3.16","rev":"3.16-4","proto_major":3,"proto_minor":11}
2017-12-29 14:50:58 1514577058.392797: {"class":"DEVICES","devices":[{"class":"DEVICE","path":"/dev/ttyUSB0","driver":"SiRF","subtype":"9\u0006GSD4e_4.1.2-P1_RPATCH.05-F-GPS-4R-1510281 11/03/2015 307","activated":"2017-12-29T19:50:58.292Z","flags":1,"native":1,"bps":4800,"parity":"N","stopbits":1,"cycle":1.00}]}
2017-12-29 14:50:58 1514577058.392917: {"class":"WATCH","enable":true,"json":false,"nmea":true,"raw":0,"scaled":false,"timing":false,"split24":false,"pps":false}
2017-12-29 14:50:58 1514577058.740898: $GPGSV,3,1,12,01,22,294,35,26,09,180,22,10,40,151,48,03,06,316,38*72
2017-12-29 14:50:58 1514577058.741097: $GPGSV,3,2,12,12,19,043,44,14,68,342,42,18,11,145,32,22,25,310,39*78
2017-12-29 14:50:58 1514577058.741171: $GPGSV,3,3,12,25,41,082,51,31,64,232,46,32,65,048,50,138,38,213,42*4B
2017-12-29 14:50:58 1514577058.854220: $GPZDA,195059.00,29,12,2017,00,00*6B
2017-12-29 14:50:58 1514577058.854348: $GPGGA,195059,3946.9571,N,08404.9771,W,2,12,0.80,302.65,M,-33.324,M,,*71
2017-12-29 14:50:58 1514577058.854412: $GPRMC,195059,A,3946.9571,N,08404.9771,W,0.0000,0.000,291217,,*32
2017-12-29 14:50:58 1514577058.854472: $GPGSA,A,3,1,26,10,3,12,14,18,22,25,31,32,138,1.7,0.8,1.3*08
2017-12-29 14:50:59 1514577059.403916: $GPZDA,195100.00,29,12,2017,00,00*66
2017-12-29 14:50:59 1514577059.404083: $GPGGA,195100,3946.9571,N,08404.9771,W,2,12,0.80,302.65,M,-33.324,M,,*7C
2017-12-29 14:50:59 1514577059.404150: $GPRMC,195100,A,3946.9571,N,08404.9771,W,0.0000,0.000,291217,,*3F
2017-12-29 14:50:59 1514577059.404211: $GPGSA,A,3,1,26,10,3,12,14,18,22,25,31,32,138,1.7,0.8,1.3*08
2017-12-29 14:51:00 1514577060.360005: $GPZDA,195101.00,29,12,2017,00,00*67
2017-12-29 14:51:00 1514577060.360121: $GPGGA,195101,3946.9571,N,08404.9771,W,2,12,0.80,302.65,M,-33.324,M,,*7D
2017-12-29 14:51:00 1514577060.360155: $GPRMC,195101,A,3946.9571,N,08404.9771,W,0.0000,0.000,291217,,*3E
2017-12-29 14:51:00 1514577060.360186: $GPGSA,A,3,1,26,10,3,12,14,18,22,25,31,32,138,1.7,0.8,1.3*08
2017-12-29 14:51:01 1514577061.698744: $GPGSV,3,1,12,01,22,294,36,26,09,180,22,10,40,151,48,03,06,316,38*71
2017-12-29 14:51:01 1514577061.698900: $GPGSV,3,2,12,12,19,043,44,14,68,342,42,18,11,145,32,22,25,310,39*78
2017-12-29 14:51:01 1514577061.698966: $GPGSV,3,3,12,25,41,082,51,31,64,232,46,32,65,048,51,138,38,213,44*4C
2017-12-29 14:51:01 1514577061.812396: $GPZDA,195102.00,29,12,2017,00,00*64
2017-12-29 14:51:01 1514577061.812531: $GPGGA,195102,3946.9571,N,08404.9771,W,2,12,0.80,302.65,M,-33.324,M,,*7E
2017-12-29 14:51:01 1514577061.812594: $GPRMC,195102,A,3946.9571,N,08404.9771,W,0.0000,0.000,291217,,*3D
2017-12-29 14:51:01 1514577061.812653: $GPGSA,A,3,1,26,10,3,12,14,18,22,25,31,32,138,1.7,0.8,1.3*08
2017-12-29 14:51:02 1514577062.367964: $GPZDA,195103.00,29,12,2017,00,00*65
2017-12-29 14:51:02 1514577062.368118: $GPGGA,195103,3946.9571,N,08404.9771,W,2,12,0.80,302.65,M,-33.324,M,,*7F
2017-12-29 14:51:02 1514577062.368184: $GPRMC,195103,A,3946.9571,N,08404.9771,W,0.0000,0.000,291217,,*3C
2017-12-29 14:51:02 1514577062.368247: $GPGSA,A,3,1,26,10,3,12,14,18,22,25,31,32,138,1.7,0.8,1.3*08
2017-12-29 14:51:03 1514577063.403809: $GPZDA,195104.00,29,12,2017,00,00*62
2017-12-29 14:51:03 1514577063.403979: $GPGGA,195104,3946.9571,N,08404.9771,W,2,12,0.80,302.65,M,-33.324,M,,*78
2017-12-29 14:51:03 1514577063.404045: $GPRMC,195104,A,3946.9571,N,08404.9771,W,0.0000,0.000,291217,,*3B
2017-12-29 14:51:03 1514577063.404107: $GPGSA,A,3,1,26,10,3,12,14,18,22,25,31,32,138,1.7,0.8,1.3*08
2017-12-29 14:51:04 1514577064.702098: $GPGSV,3,1,12,01,22,294,36,26,09,180,23,10,40,151,49,03,06,316,38*71
2017-12-29 14:51:04 1514577064.702258: $GPGSV,3,2,12,12,19,043,44,14,68,342,43,18,11,145,32,22,25,310,39*79
2017-12-29 14:51:04 1514577064.702324: $GPGSV,3,3,12,25,41,082,51,31,64,232,47,32,65,048,51,138,38,213,43*4A
2017-12-29 14:51:04 1514577064.815409: $GPZDA,195105.00,29,12,2017,00,00*63
2017-12-29 14:51:04 1514577064.815531: $GPGGA,195105,3946.9571,N,08404.9771,W,2,12,0.80,302.65,M,-33.324,M,,*79
2017-12-29 14:51:04 1514577064.815647: $GPRMC,195105,A,3946.9571,N,08404.9771,W,0.0000,0.000,291217,,*3A
2017-12-29 14:51:04 1514577064.815709: $GPGSA,A,3,1,26,10,3,12,14,18,22,25,31,32,138,1.7,0.8,1.3*08
2017-12-29 14:51:05 1514577065.440793: $GPZDA,195106.00,29,12,2017,00,00*60
2017-12-29 14:51:05 1514577065.440967: $GPGGA,195106,3946.9571,N,08404.9771,W,2,12,0.80,302.65,M,-33.324,M,,*7A
2017-12-29 14:51:05 1514577065.441123: $GPRMC,195106,A,3946.9571,N,08404.9771,W,0.0000,0.000,291217,,*39
2017-12-29 14:51:05 1514577065.441197: $GPGSA,A,3,1,26,10,3,12,14,18,22,25,31,32,138,1.7,0.8,1.3*08
2017-12-29 14:51:06 1514577066.399448: $GPZDA,195107.00,29,12,2017,00,00*61
2017-12-29 14:51:06 1514577066.399620: $GPGGA,195107,3946.9571,N,08404.9771,W,2,12,0.80,302.65,M,-33.324,M,,*7B
2017-12-29 14:51:06 1514577066.399686: $GPRMC,195107,A,3946.9571,N,08404.9771,W,0.0000,0.000,291217,,*38
2017-12-29 14:51:06 1514577066.399748: $GPGSA,A,3,1,26,10,3,12,14,18,22,25,31,32,138,1.7,0.8,1.3*08
2017-12-29 14:51:07 1514577067.742431: $GPGSV,3,1,12,01,22,294,36,26,09,180,23,10,40,151,49,03,06,316,39*70
2017-12-29 14:51:07 1514577067.742595: $GPGSV,3,2,12,12,19,043,43,14,68,342,43,18,11,145,32,22,25,310,39*7E
2017-12-29 14:51:07 1514577067.742661: $GPGSV,3,3,12,25,41,082,51,31,64,232,47,32,65,048,51,138,38,213,43*4A
2017-12-29 14:51:07 1514577067.856033: $GPZDA,195108.00,29,12,2017,00,00*6E
2017-12-29 14:51:07 1514577067.856159: $GPGGA,195108,3946.9571,N,08404.9771,W,2,12,0.80,302.65,M,-33.324,M,,*74
2017-12-29 14:51:07 1514577067.856222: $GPRMC,195108,A,3946.9571,N,08404.9771,W,0.0000,0.000,291217,,*37
2017-12-29 14:51:07 1514577067.856282: $GPGSA,A,3,1,26,10,3,12,14,18,22,25,31,32,138,1.7,0.8,1.3*08
2017-12-29 14:51:08 1514577068.366979: $GPZDA,195109.00,29,12,2017,00,00*6F
2017-12-29 14:51:08 1514577068.367157: $GPGGA,195109,3946.9571,N,08404.9771,W,2,12,0.80,302.65,M,-33.324,M,,*75
2017-12-29 14:51:08 1514577068.367225: $GPRMC,195109,A,3946.9571,N,08404.9771,W,0.0000,0.000,291217,,*36
2017-12-29 14:51:08 1514577068.367286: $GPGSA,A,3,1,26,10,3,12,14,18,22,25,31,32,138,1.7,0.8,1.3*08
