2017-11-16 17:38:03 1510871883.551191: {"class":"VERSION","release":"3.17","rev":"3.17","proto_major":3,"proto_minor":12}
2017-11-16 17:38:03 1510871883.551740: {"class":"DEVICES","devices":[{"class":"DEVICE","path":"/dev/ttyUSB0","driver":"SiRF","subtype":"9\u0006GSD4e_4.1.2-P1_RPATCH.05-F-GPS-4R-1510281 11/03/2015 307","activated":"2017-11-16T22:38:03.305Z","flags":1,"native":1,"bps":4800,"parity":"N","stopbits":1,"cycle":1.00}]}
2017-11-16 17:38:03 1510871883.551865: {"class":"WATCH","enable":true,"json":false,"nmea":true,"raw":0,"scaled":false,"timing":false,"split24":false,"pps":false}
2017-11-16 17:38:03 1510871883.759199: $GPGSV,3,1,12,01,22,298,32,10,46,148,45,22,21,312,43,12,21,048,50*79
2017-11-16 17:38:03 1510871883.759442: $GPGSV,3,2,12,14,67,333,46,18,16,145,40,26,04,183,23,11,08,280,37*79
2017-11-16 17:38:03 1510871883.759505: $GPGSV,3,3,12,25,40,087,49,31,58,228,47,32,68,033,49,138,38,213,44*4C
2017-11-16 17:38:03 1510871883.867852: $GPZDA,223802.00,16,11,2017,00,00*6C
2017-11-16 17:38:03 1510871883.868016: $GPGGA,223802,3946.9576,N,08404.9841,W,2,12,0.80,303.26,M,-33.324,M,,*74
2017-11-16 17:38:03 1510871883.868075: $GPRMC,223802,A,3946.9576,N,08404.9841,W,0.0000,0.000,161117,,*3E
2017-11-16 17:38:03 1510871883.868131: $GPGSA,A,3,1,10,22,12,14,18,26,11,25,31,32,138,1.6,0.8,1.3*3A
2017-11-16 17:38:04 1510871884.411177: $GPZDA,223803.00,16,11,2017,00,00*6D
2017-11-16 17:38:04 1510871884.411347: $GPGGA,223803,3946.9576,N,08404.9841,W,2,12,0.80,303.26,M,-33.324,M,,*75
2017-11-16 17:38:04 1510871884.411409: $GPRMC,223803,A,3946.9576,N,08404.9841,W,0.0000,0.000,161117,,*3F
2017-11-16 17:38:04 1510871884.411466: $GPGSA,A,3,1,10,22,12,14,18,26,11,25,31,32,138,1.6,0.8,1.3*3A
2017-11-16 17:38:05 1510871885.418529: $GPZDA,223804.00,16,11,2017,00,00*6A
2017-11-16 17:38:05 1510871885.418690: $GPGGA,223804,3946.9576,N,08404.9841,W,2,12,0.80,303.26,M,-33.324,M,,*72
2017-11-16 17:38:05 1510871885.418750: $GPRMC,223804,A,3946.9576,N,08404.9841,W,0.0000,0.000,161117,,*38
2017-11-16 17:38:05 1510871885.418807: $GPGSA,A,3,1,10,22,12,14,18,26,11,25,31,32,138,1.6,0.8,1.3*3A
2017-11-16 17:38:06 1510871886.754829: $GPGSV,3,1,12,01,22,298,30,10,46,148,45,22,21,312,43,12,21,048,50*7B
2017-11-16 17:38:06 1510871886.754995: $GPGSV,3,2,12,14,67,333,47,18,16,145,40,26,04,183,23,11,08,280,38*77
2017-11-16 17:38:06 1510871886.755110: $GPGSV,3,3,12,25,40,087,49,31,58,228,47,32,68,033,50,138,38,213,44*44
2017-11-16 17:38:06 1510871886.868332: $GPZDA,223805.00,16,11,2017,00,00*6B
2017-11-16 17:38:06 1510871886.868489: $GPGGA,223805,3946.9576,N,08404.9841,W,2,12,0.80,303.26,M,-33.324,M,,*73
2017-11-16 17:38:06 1510871886.868550: $GPRMC,223805,A,3946.9576,N,08404.9841,W,0.0000,0.000,161117,,*39
2017-11-16 17:38:06 1510871886.868606: $GPGSA,A,3,1,10,22,12,14,18,26,11,25,31,32,138,1.6,0.8,1.3*3A
2017-11-16 17:38:07 1510871887.419013: $GPZDA,223806.00,16,11,2017,00,00*68
2017-11-16 17:38:07 1510871887.419182: $GPGGA,223806,3946.9576,N,08404.9841,W,2,12,0.80,303.26,M,-33.324,M,,*70
2017-11-16 17:38:07 1510871887.419244: $GPRMC,223806,A,3946.9576,N,08404.9841,W,0.0000,0.000,161117,,*3A
2017-11-16 17:38:07 1510871887.419300: $GPGSA,A,3,1,10,22,12,14,18,26,11,25,31,32,138,1.6,0.8,1.3*3A
2017-11-16 17:38:08 1510871888.401098: $GPZDA,223807.00,16,11,2017,00,00*69
2017-11-16 17:38:08 1510871888.401270: $GPGGA,223807,3946.9576,N,08404.9841,W,2,12,0.80,303.26,M,-33.324,M,,*71
2017-11-16 17:38:08 1510871888.401333: $GPRMC,223807,A,3946.9576,N,08404.9841,W,0.0000,0.000,161117,,*3B
2017-11-16 17:38:08 1510871888.401389: $GPGSA,A,3,1,10,22,12,14,18,26,11,25,31,32,138,1.6,0.8,1.3*3A
2017-11-16 17:38:09 1510871889.733147: $GPGSV,3,1,12,01,22,298,25,10,46,148,46,22,21,312,44,12,21,048,50*7B
2017-11-16 17:38:09 1510871889.733318: $GPGSV,3,2,12,14,67,333,47,18,16,145,41,26,04,183,23,11,08,280,38*76
2017-11-16 17:38:09 1510871889.733379: $GPGSV,3,3,12,25,40,087,49,31,58,228,48,32,68,033,50,138,38,213,44*4B
2017-11-16 17:38:09 1510871889.846800: $GPZDA,223808.00,16,11,2017,00,00*66
2017-11-16 17:38:09 1510871889.846944: $GPGGA,223808,3946.9576,N,08404.9841,W,2,12,0.80,303.26,M,-33.324,M,,*7E
2017-11-16 17:38:09 1510871889.847057: $GPRMC,223808,A,3946.9576,N,08404.9841,W,0.0000,0.000,161117,,*34
2017-11-16 17:38:09 1510871889.847115: $GPGSA,A,3,1,10,22,12,14,18,26,11,25,31,32,138,1.6,0.8,1.3*3A
2017-11-16 17:38:10 1510871890.418817: $GPZDA,223809.00,16,11,2017,00,00*67
2017-11-16 17:38:10 1510871890.418977: $GPGGA,223809,3946.9576,N,08404.9841,W,2,12,0.80,303.26,M,-33.324,M,,*7F
2017-11-16 17:38:10 1510871890.419037: $GPRMC,223809,A,3946.9576,N,08404.9841,W,0.0000,0.000,161117,,*35
2017-11-16 17:38:10 1510871890.419092: $GPGSA,A,3,1,10,22,12,14,18,26,11,25,31,32,138,1.6,0.8,1.3*3A
2017-11-16 17:38:11 1510871891.420064: $GPZDA,223810.00,16,11,2017,00,00*6F
2017-11-16 17:38:11 1510871891.420265: $GPGGA,223810,3946.9576,N,08404.9841,W,2,12,0.80,303.26,M,-33.324,M,,*77
2017-11-16 17:38:11 1510871891.420328: $GPRMC,223810,A,3946.9576,N,08404.9841,W,0.0000,0.000,161117,,*3D
2017-11-16 17:38:11 1510871891.420383: $GPGSA,A,3,1,10,22,12,14,18,26,11,25,31,32,138,1.6,0.8,1.3*3A
2017-11-16 17:38:12 1510871892.732212: $GPGSV,3,1,12,01,22,298,25,10,46,148,46,22,21,312,44,12,21,048,50*7B
2017-11-16 17:38:12 1510871892.732356: $GPGSV,3,2,12,14,67,333,47,18,16,145,41,26,04,183,22,11,08,280,37*78
2017-11-16 17:38:12 1510871892.732416: $GPGSV,3,3,12,25,40,087,48,31,58,228,48,32,68,033,50,138,38,213,44*4A
2017-11-16 17:38:12 1510871892.845779: $GPZDA,223811.00,16,11,2017,00,00*6E
2017-11-16 17:38:12 1510871892.848588: $GPGGA,223811,3946.9576,N,08404.9841,W,2,12,0.80,303.26,M,-33.324,M,,*76
2017-11-16 17:38:12 1510871892.848696: $GPRMC,223811,A,3946.9576,N,08404.9841,W,0.0000,0.000,161117,,*3C
2017-11-16 17:38:12 1510871892.848755: $GPGSA,A,3,1,10,22,12,14,18,26,11,25,31,32,138,1.6,0.8,1.3*3A
2017-11-16 17:38:13 1510871893.397927: $GPZDA,223812.00,16,11,2017,00,00*6D
2017-11-16 17:38:13 1510871893.398088: $GPGGA,223812,3946.9576,N,08404.9841,W,2,12,0.80,303.26,M,-33.324,M,,*75
2017-11-16 17:38:13 1510871893.398149: $GPRMC,223812,A,3946.9576,N,08404.9841,W,0.0000,0.000,161117,,*3F
2017-11-16 17:38:13 1510871893.398204: $GPGSA,A,3,1,10,22,12,14,18,26,11,25,31,32,138,1.6,0.8,1.3*3A
