2017-11-16 15:09:17 1510862957.936565: {"class":"VERSION","release":"3.17","rev":"3.17","proto_major":3,"proto_minor":12}
2017-11-16 15:09:17 1510862957.937015: {"class":"DEVICES","devices":[{"class":"DEVICE","path":"/dev/ttyUSB0","driver":"SiRF","subtype":"9\u0006GSD4e_4.1.2-P1_RPATCH.05-F-GPS-4R-1510281 11/03/2015 307","activated":"2017-11-16T20:09:17.535Z","flags":1,"native":1,"bps":4800,"parity":"N","stopbits":1,"cycle":1.00}]}
2017-11-16 15:09:17 1510862957.937130: {"class":"WATCH","enable":true,"json":false,"nmea":true,"raw":0,"scaled":false,"timing":false,"split24":false,"pps":false}
2017-11-16 15:09:18 1510862958.393127: $GPZDA,200917.00,16,11,2017,00,00*68
2017-11-16 15:09:18 1510862958.393295: $GPGGA,200917,3946.9586,N,08404.9845,W,2,12,0.80,299.48,M,-33.324,M,,*71
2017-11-16 15:09:18 1510862958.393356: $GPRMC,200917,A,3946.9586,N,08404.9845,W,0.0000,0.000,161117,,*31
2017-11-16 15:09:18 1510862958.393412: $GPGSA,A,3,8,10,14,15,18,20,21,24,27,32,12,138,1.6,0.8,1.3*34
2017-11-16 15:09:19 1510862959.730100: $GPGSV,3,1,12,08,07,300,30,10,62,321,50,14,23,247,44,15,17,063,41*70
2017-11-16 15:09:19 1510862959.730272: $GPGSV,3,2,12,18,76,069,47,20,14,114,36,21,38,181,45,24,50,069,49*79
2017-11-16 15:09:19 1510862959.730389: $GPGSV,3,3,12,27,11,267,43,32,40,258,47,12,04,114,23,138,38,213,44*41
2017-11-16 15:09:19 1510862959.843384: $GPZDA,200918.00,16,11,2017,00,00*67
2017-11-16 15:09:19 1510862959.843563: $GPGGA,200918,3946.9586,N,08404.9845,W,2,12,0.80,299.48,M,-33.324,M,,*7E
2017-11-16 15:09:19 1510862959.843627: $GPRMC,200918,A,3946.9586,N,08404.9845,W,0.0000,0.000,161117,,*3E
2017-11-16 15:09:19 1510862959.843686: $GPGSA,A,3,8,10,14,15,18,20,21,24,27,32,12,138,1.6,0.8,1.3*34
2017-11-16 15:09:20 1510862960.394197: $GPZDA,200919.00,16,11,2017,00,00*66
2017-11-16 15:09:20 1510862960.394386: $GPGGA,200919,3946.9586,N,08404.9845,W,2,12,0.80,299.48,M,-33.324,M,,*7F
2017-11-16 15:09:20 1510862960.394449: $GPRMC,200919,A,3946.9586,N,08404.9845,W,0.0000,0.000,161117,,*3F
2017-11-16 15:09:20 1510862960.394506: $GPGSA,A,3,8,10,14,15,18,20,21,24,27,32,12,138,1.6,0.8,1.3*34
2017-11-16 15:09:21 1510862961.409621: $GPZDA,200920.00,16,11,2017,00,00*6C
2017-11-16 15:09:21 1510862961.409784: $GPGGA,200920,3946.9586,N,08404.9845,W,2,12,0.80,299.48,M,-33.324,M,,*75
2017-11-16 15:09:21 1510862961.409846: $GPRMC,200920,A,3946.9586,N,08404.9845,W,0.0000,0.000,161117,,*35
2017-11-16 15:09:21 1510862961.409919: $GPGSA,A,3,8,10,14,15,18,20,21,24,27,32,12,138,1.6,0.8,1.3*34
2017-11-16 15:09:22 1510862962.729110: $GPGSV,3,1,12,08,07,300,31,10,62,321,50,14,23,247,44,15,17,063,40*70
2017-11-16 15:09:22 1510862962.729266: $GPGSV,3,2,12,18,76,069,47,20,14,114,36,21,38,181,45,24,50,069,49*79
2017-11-16 15:09:22 1510862962.729327: $GPGSV,3,3,12,27,11,267,44,32,40,258,47,12,04,114,22,138,38,213,43*40
2017-11-16 15:09:22 1510862962.842412: $GPZDA,200921.00,16,11,2017,00,00*6D
2017-11-16 15:09:22 1510862962.842576: $GPGGA,200921,3946.9586,N,08404.9845,W,2,12,0.80,299.48,M,-33.324,M,,*74
2017-11-16 15:09:22 1510862962.842637: $GPRMC,200921,A,3946.9586,N,08404.9845,W,0.0000,0.000,161117,,*34
2017-11-16 15:09:22 1510862962.842694: $GPGSA,A,3,8,10,14,15,18,20,21,24,27,32,12,138,1.6,0.8,1.3*34
2017-11-16 15:09:23 1510862963.409678: $GPZDA,200922.00,16,11,2017,00,00*6E
2017-11-16 15:09:23 1510862963.409861: $GPGGA,200922,3946.9586,N,08404.9845,W,2,12,0.80,299.48,M,-33.324,M,,*77
2017-11-16 15:09:23 1510862963.409921: $GPRMC,200922,A,3946.9586,N,08404.9845,W,0.0000,0.000,161117,,*37
2017-11-16 15:09:23 1510862963.409982: $GPGSA,A,3,8,10,14,15,18,20,21,24,27,32,12,138,1.6,0.8,1.3*34
2017-11-16 15:09:24 1510862964.410565: $GPZDA,200923.00,16,11,2017,00,00*6F
2017-11-16 15:09:24 1510862964.410749: $GPGGA,200923,3946.9586,N,08404.9845,W,2,12,0.80,299.48,M,-33.324,M,,*76
2017-11-16 15:09:24 1510862964.410812: $GPRMC,200923,A,3946.9586,N,08404.9845,W,0.0000,0.000,161117,,*36
2017-11-16 15:09:24 1510862964.410869: $GPGSA,A,3,8,10,14,15,18,20,21,24,27,32,12,138,1.6,0.8,1.3*34
2017-11-16 15:09:25 1510862965.747250: $GPGSV,3,1,12,08,07,300,31,10,62,321,50,14,23,247,44,15,17,063,40*70
2017-11-16 15:09:26 1510862966.243879: $GPGSV,3,2,12,18,76,069,47,20,14,114,36,21,38,181,45,24,50,069,49*79
2017-11-16 15:09:26 1510862966.244123: $GPGSV,3,3,12,27,11,267,44,32,40,258,47,12,04,114,23,138,38,213,44*46
2017-11-16 15:09:26 1510862966.244219: $GPZDA,200924.00,16,11,2017,00,00*68
2017-11-16 15:09:26 1510862966.244273: $GPGGA,200924,3946.9586,N,08404.9845,W,2,12,0.80,299.48,M,-33.324,M,,*71
2017-11-16 15:09:26 1510862966.244329: $GPRMC,200924,A,3946.9586,N,08404.9845,W,0.0000,0.000,161117,,*31
2017-11-16 15:09:26 1510862966.244384: $GPGSA,A,3,8,10,14,15,18,20,21,24,27,32,12,138,1.6,0.8,1.3*34
2017-11-16 15:09:26 1510862966.485981: $GPZDA,200925.00,16,11,2017,00,00*69
2017-11-16 15:09:26 1510862966.486144: $GPGGA,200925,3946.9586,N,08404.9845,W,2,12,0.80,299.48,M,-33.324,M,,*70
2017-11-16 15:09:26 1510862966.486206: $GPRMC,200925,A,3946.9586,N,08404.9845,W,0.0000,0.000,161117,,*30
2017-11-16 15:09:26 1510862966.486262: $GPGSA,A,3,8,10,14,15,18,20,21,24,27,32,12,138,1.6,0.8,1.3*34
2017-11-16 15:09:27 1510862967.393053: $GPZDA,200926.00,16,11,2017,00,00*6A
2017-11-16 15:09:27 1510862967.393216: $GPGGA,200926,3946.9586,N,08404.9845,W,2,12,0.80,299.48,M,-33.324,M,,*73
2017-11-16 15:09:27 1510862967.393277: $GPRMC,200926,A,3946.9586,N,08404.9845,W,0.0000,0.000,161117,,*33
2017-11-16 15:09:27 1510862967.393334: $GPGSA,A,3,8,10,14,15,18,20,21,24,27,32,12,138,1.6,0.8,1.3*34
