2017-12-01 16:11:01 1512162661.736666: {"class":"VERSION","release":"3.16","rev":"3.16-4","proto_major":3,"proto_minor":11}
2017-12-01 16:11:01 1512162661.737091: {"class":"DEVICES","devices":[{"class":"DEVICE","path":"/dev/ttyUSB0","driver":"SiRF","subtype":"9\u0006GSD4e_4.1.2-P1_RPATCH.05-F-GPS-4R-1510281 11/03/2015 307","activated":"2017-12-01T21:11:01.426Z","flags":1,"native":1,"bps":4800,"parity":"N","stopbits":1,"cycle":1.00}]}
2017-12-01 16:11:01 1512162661.737215: {"class":"WATCH","enable":true,"json":false,"nmea":true,"raw":0,"scaled":false,"timing":false,"split24":false,"pps":false}
2017-12-01 16:11:02 1512162662.619387: $GPGSV,3,1,12,01,19,309,32,10,57,142,49,11,10,291,38,12,25,058,45*7B
2017-12-01 16:11:02 1512162662.619569: $GPGSV,3,2,12,14,61,309,45,18,26,141,44,22,12,312,44,25,36,102,48*75
2017-12-01 16:11:02 1512162662.619637: $GPGSV,3,3,12,31,47,219,49,32,70,003,47,24,04,046,23,138,38,213,46*48
2017-12-01 16:11:02 1512162662.731787: $GPZDA,211103.00,01,12,2017,00,00*60
2017-12-01 16:11:02 1512162662.731980: $GPGGA,211103,3946.9561,N,08404.9808,W,2,12,0.80,315.98,M,-33.324,M,,*74
2017-12-01 16:11:02 1512162662.732050: $GPRMC,211103,A,3946.9561,N,08404.9808,W,0.0000,0.000,011217,,*39
2017-12-01 16:11:02 1512162662.732137: $GPGSA,A,3,1,10,11,12,14,18,22,25,31,32,24,138,2.0,0.8,1.5*3B
2017-12-01 16:11:03 1512162663.284875: $GPZDA,211104.00,01,12,2017,00,00*67
2017-12-01 16:11:03 1512162663.285051: $GPGGA,211104,3946.9565,N,08404.9808,W,2,12,0.80,316.62,M,-33.324,M,,*71
2017-12-01 16:11:03 1512162663.285118: $GPRMC,211104,A,3946.9565,N,08404.9808,W,0.0000,0.000,011217,,*3A
2017-12-01 16:11:03 1512162663.285179: $GPGSA,A,3,1,10,11,12,14,18,22,25,31,32,24,138,2.0,0.8,1.5*3B
2017-12-01 16:11:04 1512162664.284987: $GPZDA,211105.00,01,12,2017,00,00*66
2017-12-01 16:11:04 1512162664.285174: $GPGGA,211105,3946.9565,N,08404.9808,W,2,12,0.80,316.62,M,-33.324,M,,*70
2017-12-01 16:11:04 1512162664.285242: $GPRMC,211105,A,3946.9565,N,08404.9808,W,0.0000,0.000,011217,,*3B
2017-12-01 16:11:04 1512162664.285303: $GPGSA,A,3,1,10,11,12,14,18,22,25,31,32,24,138,2.0,0.8,1.5*3B
2017-12-01 16:11:05 1512162665.619948: $GPGSV,3,1,12,01,19,309,28,10,57,142,48,11,10,291,37,12,25,058,45*7E
2017-12-01 16:11:05 1512162665.620125: $GPGSV,3,2,12,14,61,309,45,18,26,141,44,22,12,312,44,25,36,102,48*75
2017-12-01 16:11:05 1512162665.620193: $GPGSV,3,3,12,31,47,219,49,32,70,003,47,24,04,046,22,138,38,213,45*4A
2017-12-01 16:11:05 1512162665.733327: $GPZDA,211106.00,01,12,2017,00,00*65
2017-12-01 16:11:05 1512162665.733499: $GPGGA,211106,3946.9565,N,08404.9808,W,2,12,0.80,316.62,M,-33.324,M,,*73
2017-12-01 16:11:05 1512162665.733568: $GPRMC,211106,A,3946.9565,N,08404.9808,W,0.0000,0.000,011217,,*38
2017-12-01 16:11:05 1512162665.733628: $GPGSA,A,3,1,10,11,12,14,18,22,25,31,32,24,138,2.0,0.8,1.5*3B
2017-12-01 16:11:06 1512162666.365015: $GPZDA,211107.00,01,12,2017,00,00*64
2017-12-01 16:11:06 1512162666.365193: $GPGGA,211107,3946.9565,N,08404.9808,W,2,12,0.80,316.62,M,-33.324,M,,*72
2017-12-01 16:11:06 1512162666.365259: $GPRMC,211107,A,3946.9565,N,08404.9808,W,0.0000,0.000,011217,,*39
2017-12-01 16:11:06 1512162666.365320: $GPGSA,A,3,1,10,11,12,14,18,22,25,31,32,24,138,2.0,0.8,1.5*3B
2017-12-01 16:11:06 1512162666.365379: $GPGBS,211107,2.67,M,3.86,M,8.82,M*36
2017-12-01 16:11:07 1512162667.300113: $GPZDA,211108.00,01,12,2017,00,00*6B
2017-12-01 16:11:07 1512162667.300290: $GPGGA,211108,3946.9565,N,08404.9808,W,2,12,0.80,316.62,M,-33.324,M,,*7D
2017-12-01 16:11:07 1512162667.300356: $GPRMC,211108,A,3946.9565,N,08404.9808,W,0.0000,0.000,011217,,*36
2017-12-01 16:11:07 1512162667.300417: $GPGSA,A,3,1,10,11,12,14,18,22,25,31,32,24,138,2.0,0.8,1.5*3B
2017-12-01 16:11:07 1512162667.300476: $GPGBS,211108,2.67,M,3.86,M,8.82,M*39
2017-12-01 16:11:08 1512162668.629591: $GPGSV,3,1,12,01,19,309,20,10,57,142,48,11,10,291,32,12,25,058,45*73
2017-12-01 16:11:08 1512162668.629770: $GPGSV,3,2,12,14,61,309,44,18,26,141,44,22,12,312,43,25,36,102,48*73
2017-12-01 16:11:08 1512162668.629837: $GPGSV,3,3,12,31,47,219,49,32,70,003,47,24,04,046,17,138,38,213,46*4F
2017-12-01 16:11:08 1512162668.742946: $GPZDA,211109.00,01,12,2017,00,00*6A
2017-12-01 16:11:08 1512162668.743118: $GPGGA,211109,3946.9565,N,08404.9808,W,2,12,0.80,316.62,M,-33.324,M,,*7C
2017-12-01 16:11:08 1512162668.743184: $GPRMC,211109,A,3946.9565,N,08404.9808,W,0.0000,0.000,011217,,*37
2017-12-01 16:11:08 1512162668.743246: $GPGSA,A,3,1,10,11,12,14,18,22,25,31,32,24,138,2.0,0.8,1.5*3B
2017-12-01 16:11:09 1512162669.298094: $GPZDA,211110.00,01,12,2017,00,00*62
2017-12-01 16:11:09 1512162669.298268: $GPGGA,211110,3946.9565,N,08404.9808,W,2,12,0.80,316.62,M,-33.324,M,,*74
2017-12-01 16:11:09 1512162669.298335: $GPRMC,211110,A,3946.9565,N,08404.9808,W,0.0000,0.000,011217,,*3F
2017-12-01 16:11:09 1512162669.298396: $GPGSA,A,3,1,10,11,12,14,18,22,25,31,32,24,138,2.0,0.8,1.5*3B
2017-12-01 16:11:10 1512162670.298232: $GPZDA,211111.00,01,12,2017,00,00*63
2017-12-01 16:11:10 1512162670.298403: $GPGGA,211111,3946.9564,N,08404.9801,W,2,12,0.80,316.70,M,-33.324,M,,*7E
2017-12-01 16:11:10 1512162670.298470: $GPRMC,211111,A,3946.9564,N,08404.9801,W,0.0000,0.000,011217,,*36
2017-12-01 16:11:10 1512162670.298531: $GPGSA,A,3,1,10,11,12,14,18,22,25,31,32,24,138,2.0,0.8,1.5*3B
2017-12-01 16:11:11 1512162671.618198: $GPGSV,3,1,12,01,19,309,19,10,57,142,48,11,10,291,31,12,25,058,45*7A
2017-12-01 16:11:11 1512162671.618352: $GPGSV,3,2,12,14,61,309,44,18,26,141,44,22,12,312,43,25,36,102,48*73
2017-12-01 16:11:11 1512162671.618418: $GPGSV,3,3,12,31,47,219,48,32,70,003,47,24,04,046,17,138,38,213,45*4D
2017-12-01 16:11:11 1512162671.731700: $GPZDA,211112.00,01,12,2017,00,00*60
2017-12-01 16:11:11 1512162671.731867: $GPGGA,211112,3946.9564,N,08404.9801,W,2,12,0.80,316.70,M,-33.324,M,,*7D
2017-12-01 16:11:11 1512162671.731935: $GPRMC,211112,A,3946.9564,N,08404.9801,W,0.0000,0.000,011217,,*35
2017-12-01 16:11:11 1512162671.731996: $GPGSA,A,3,1,10,11,12,14,18,22,25,31,32,24,138,2.0,0.8,1.5*3B
2017-12-01 16:11:12 1512162672.282977: $GPZDA,211113.00,01,12,2017,00,00*61
2017-12-01 16:11:12 1512162672.283152: $GPGGA,211113,3946.9564,N,08404.9801,W,2,12,0.80,316.70,M,-33.324,M,,*7C
2017-12-01 16:11:12 1512162672.283219: $GPRMC,211113,A,3946.9564,N,08404.9801,W,0.0000,0.000,011217,,*34
2017-12-01 16:11:12 1512162672.283280: $GPGSA,A,3,1,10,11,12,14,18,22,25,31,32,24,138,2.0,0.8,1.5*3B
2017-12-01 16:11:13 1512162673.281831: $GPZDA,211114.00,01,12,2017,00,00*66
2017-12-01 16:11:13 1512162673.282005: $GPGGA,211114,3946.9564,N,08404.9801,W,2,12,0.80,316.70,M,-33.324,M,,*7B
2017-12-01 16:11:13 1512162673.282072: $GPRMC,211114,A,3946.9564,N,08404.9801,W,0.0000,0.000,011217,,*33
2017-12-01 16:11:13 1512162673.282133: $GPGSA,A,3,1,10,11,12,14,18,22,25,31,32,24,138,2.0,0.8,1.5*3B
2017-12-01 16:11:14 1512162674.633830: $GPGSV,3,1,12,01,19,309,21,10,57,142,48,11,10,291,22,12,25,058,45*73
2017-12-01 16:11:14 1512162674.634014: $GPGSV,3,2,12,14,61,309,44,18,26,141,44,22,12,312,43,25,36,102,48*73
2017-12-01 16:11:14 1512162674.634080: $GPGSV,3,3,12,31,47,219,48,32,70,003,46,24,04,046,18,138,38,213,46*40
2017-12-01 16:11:14 1512162674.747510: $GPZDA,211115.00,01,12,2017,00,00*67
2017-12-01 16:11:14 1512162674.747675: $GPGGA,211115,3946.9564,N,08404.9801,W,2,12,0.80,316.70,M,-33.324,M,,*7A
2017-12-01 16:11:14 1512162674.747741: $GPRMC,211115,A,3946.9564,N,08404.9801,W,0.0000,0.000,011217,,*32
2017-12-01 16:11:14 1512162674.747802: $GPGSA,A,3,1,10,11,12,14,18,22,25,31,32,24,138,2.0,0.8,1.5*3B
2017-12-01 16:11:15 1512162675.281513: $GPZDA,211116.00,01,12,2017,00,00*64
2017-12-01 16:11:15 1512162675.281675: $GPGGA,211116,3946.9564,N,08404.9801,W,2,12,0.80,316.70,M,-33.324,M,,*79
2017-12-01 16:11:15 1512162675.281743: $GPRMC,211116,A,3946.9564,N,08404.9801,W,0.0000,0.000,011217,,*31
2017-12-01 16:11:15 1512162675.281804: $GPGSA,A,3,1,10,11,12,14,18,22,25,31,32,24,138,2.0,0.8,1.5*3B
2017-12-01 16:11:16 1512162676.300354: $GPZDA,211117.00,01,12,2017,00,00*65
2017-12-01 16:11:16 1512162676.300510: $GPGGA,211117,3946.9564,N,08404.9801,W,2,12,0.80,316.70,M,-33.324,M,,*78
2017-12-01 16:11:16 1512162676.300577: $GPRMC,211117,A,3946.9564,N,08404.9801,W,0.0000,0.000,011217,,*30
2017-12-01 16:11:16 1512162676.300685: $GPGSA,A,3,1,10,11,12,14,18,22,25,31,32,24,138,2.0,0.8,1.5*3B
2017-12-01 16:11:17 1512162677.634933: $GPGSV,3,1,12,01,19,309,28,10,57,142,48,11,10,291,30,12,25,058,45*79
2017-12-01 16:11:17 1512162677.635130: $GPGSV,3,2,12,14,61,309,44,18,26,141,44,22,12,312,43,25,36,102,48*73
2017-12-01 16:11:17 1512162677.635201: $GPGSV,3,3,12,31,47,219,49,32,70,003,46,24,04,046,18,138,38,213,46*41
2017-12-01 16:11:17 1512162677.748811: $GPZDA,211118.00,01,12,2017,00,00*6A
2017-12-01 16:11:17 1512162677.748985: $GPGGA,211118,3946.9564,N,08404.9801,W,2,12,0.80,316.70,M,-33.324,M,,*77
2017-12-01 16:11:17 1512162677.749055: $GPRMC,211118,A,3946.9564,N,08404.9801,W,0.0000,0.000,011217,,*3F
2017-12-01 16:11:17 1512162677.749119: $GPGSA,A,3,1,10,11,12,14,18,22,25,31,32,24,138,2.0,0.8,1.5*3B
2017-12-01 16:11:18 1512162678.300426: $GPZDA,211119.00,01,12,2017,00,00*6B
2017-12-01 16:11:18 1512162678.300612: $GPGGA,211119,3946.9564,N,08404.9801,W,2,12,0.80,316.70,M,-33.324,M,,*76
2017-12-01 16:11:18 1512162678.300706: $GPRMC,211119,A,3946.9564,N,08404.9801,W,0.0000,0.000,011217,,*3E
2017-12-01 16:11:18 1512162678.300773: $GPGSA,A,3,1,10,11,12,14,18,22,25,31,32,24,138,2.0,0.8,1.5*3B
2017-12-01 16:11:19 1512162679.276776: $GPZDA,211120.00,01,12,2017,00,00*61
2017-12-01 16:11:19 1512162679.276966: $GPGGA,211120,3946.9564,N,08404.9801,W,2,12,0.80,316.70,M,-33.324,M,,*7C
2017-12-01 16:11:19 1512162679.277040: $GPRMC,211120,A,3946.9564,N,08404.9801,W,0.0000,0.000,011217,,*34
2017-12-01 16:11:19 1512162679.277104: $GPGSA,A,3,1,10,11,12,14,18,22,25,31,32,24,138,2.0,0.8,1.5*3B
2017-12-01 16:11:20 1512162680.635889: $GPGSV,3,1,12,01,19,309,20,10,57,142,48,11,10,291,29,12,25,058,45*79
2017-12-01 16:11:20 1512162680.636155: $GPGSV,3,2,12,14,61,309,45,18,26,141,44,22,12,312,43,25,36,102,48*72
2017-12-01 16:11:20 1512162680.636232: $GPGSV,3,3,12,31,47,219,49,32,70,003,46,24,04,046,18,138,38,213,45*42
2017-12-01 16:11:20 1512162680.748874: $GPZDA,211121.00,01,12,2017,00,00*60
2017-12-01 16:11:20 1512162680.749046: $GPGGA,211121,3946.9564,N,08404.9801,W,2,12,0.80,316.70,M,-33.324,M,,*7D
2017-12-01 16:11:20 1512162680.749115: $GPRMC,211121,A,3946.9564,N,08404.9801,W,0.0000,0.000,011217,,*35
2017-12-01 16:11:20 1512162680.749179: $GPGSA,A,3,1,10,11,12,14,18,22,25,31,32,24,138,2.0,0.8,1.5*3B
2017-12-01 16:11:21 1512162681.299015: $GPZDA,211122.00,01,12,2017,00,00*63
2017-12-01 16:11:21 1512162681.299194: $GPGGA,211122,3946.9564,N,08404.9801,W,2,12,0.80,316.70,M,-33.324,M,,*7E
2017-12-01 16:11:21 1512162681.299264: $GPRMC,211122,A,3946.9564,N,08404.9801,W,0.0000,0.000,011217,,*36
2017-12-01 16:11:21 1512162681.299327: $GPGSA,A,3,1,10,11,12,14,18,22,25,31,32,24,138,2.0,0.8,1.5*3B
