2017-12-31 17:05:24 1514757924.551167: {"class":"VERSION","release":"3.16","rev":"3.16-4","proto_major":3,"proto_minor":11}
2017-12-31 17:05:24 1514757924.551513: {"class":"DEVICES","devices":[{"class":"DEVICE","path":"/dev/ttyUSB0","driver":"SiRF","activated":"2017-12-31T22:05:24.238Z","flags":1,"native":1,"bps":4800,"parity":"N","stopbits":1,"cycle":1.00}]}
2017-12-31 17:05:24 1514757924.551612: {"class":"WATCH","enable":true,"json":false,"nmea":true,"raw":0,"scaled":false,"timing":false,"split24":false,"pps":false}
2017-12-31 17:05:24 1514757924.687929: $GPGSV,3,1,11,22,44,240,38,23,28,307,34,25,01,037,04,03,46,270,38*77
2017-12-31 17:05:24 1514757924.688075: $GPGSV,3,2,11,16,47,190,43,29,14,054,29,31,49,051,48,14,40,114,32*74
2017-12-31 17:05:24 1514757924.688140: $GPGSV,3,3,11,32,18,123,38,26,74,141,44,135,22,240,39*72
2017-12-31 17:05:24 1514757924.801577: $GPZDA,220525.00,31,12,2017,00,00*61
2017-12-31 17:05:24 1514757924.801722: $GPGGA,220525,3946.9587,N,08404.9854,W,2,10,1.00,302.21,M,-33.324,M,,*78
2017-12-31 17:05:24 1514757924.801789: $GPRMC,220525,A,3946.9587,N,08404.9854,W,0.0000,0.000,311217,,*39
2017-12-31 17:05:24 1514757924.801849: $GPGSA,A,3,22,23,3,16,29,31,14,32,26,135,,,1.7,1.0,1.3*3C
2017-12-31 17:05:25 1514757925.426719: $GPZDA,220526.00,31,12,2017,00,00*62
2017-12-31 17:05:25 1514757925.426885: $GPGGA,220526,3946.9587,N,08404.9854,W,2,10,1.00,302.21,M,-33.324,M,,*7B
2017-12-31 17:05:25 1514757925.426952: $GPRMC,220526,A,3946.9587,N,08404.9854,W,0.0000,0.000,311217,,*3A
2017-12-31 17:05:25 1514757925.427014: $GPGSA,A,3,22,23,3,16,29,31,14,32,26,135,,,1.7,1.0,1.3*3C
2017-12-31 17:05:26 1514757926.702402: $GPZDA,220527.00,31,12,2017,00,00*63
2017-12-31 17:05:26 1514757926.702578: $GPGGA,220527,3946.9587,N,08404.9854,W,2,10,1.00,302.21,M,-33.324,M,,*7A
2017-12-31 17:05:26 1514757926.702647: $GPRMC,220527,A,3946.9587,N,08404.9854,W,0.0000,0.000,311217,,*3B
2017-12-31 17:05:26 1514757926.702708: $GPGSA,A,3,22,23,3,16,29,31,14,32,26,135,,,1.7,1.0,1.3*3C
2017-12-31 17:05:26 1514757926.702767: $GPGBS,220527,2.22,M,3.43,M,7.66,M*3F
2017-12-31 17:05:27 1514757927.682190: $GPGSV,3,1,11,22,44,238,40,23,28,307,37,25,01,037,05,03,46,270,39*74
2017-12-31 17:05:27 1514757927.682372: $GPGSV,3,2,11,16,47,190,44,29,14,054,36,31,49,051,49,14,40,114,35*7B
2017-12-31 17:05:27 1514757927.682437: $GPGSV,3,3,11,32,18,123,39,26,75,139,45,135,22,240,42*70
2017-12-31 17:05:27 1514757927.795554: $GPZDA,220528.00,31,12,2017,00,00*6C
2017-12-31 17:05:27 1514757927.795707: $GPGGA,220528,3946.9587,N,08404.9854,W,2,10,1.00,302.21,M,-33.324,M,,*75
2017-12-31 17:05:27 1514757927.795775: $GPRMC,220528,A,3946.9587,N,08404.9854,W,0.0000,0.000,311217,,*34
2017-12-31 17:05:27 1514757927.795836: $GPGSA,A,3,22,23,3,16,29,31,14,32,26,135,,,1.7,1.0,1.3*3C
2017-12-31 17:05:28 1514757928.360455: $GPZDA,220529.00,31,12,2017,00,00*6D
2017-12-31 17:05:28 1514757928.360616: $GPGGA,220529,3946.9587,N,08404.9854,W,2,10,1.00,302.21,M,-33.324,M,,*74
2017-12-31 17:05:28 1514757928.360679: $GPRMC,220529,A,3946.9587,N,08404.9854,W,0.0000,0.000,311217,,*35
2017-12-31 17:05:28 1514757928.360741: $GPGSA,A,3,22,23,3,16,29,31,14,32,26,135,,,1.7,1.0,1.3*3C
2017-12-31 17:05:29 1514757929.346322: $GPZDA,220530.00,31,12,2017,00,00*65
2017-12-31 17:05:29 1514757929.346481: $GPGGA,220530,3946.9587,N,08404.9854,W,2,10,1.00,302.21,M,-33.324,M,,*7C
2017-12-31 17:05:29 1514757929.346547: $GPRMC,220530,A,3946.9587,N,08404.9854,W,0.0000,0.000,311217,,*3D
2017-12-31 17:05:29 1514757929.346610: $GPGSA,A,3,22,23,3,16,29,31,14,32,26,135,,,1.7,1.0,1.3*3C
2017-12-31 17:05:30 1514757930.682531: $GPGSV,3,1,11,22,44,238,41,23,28,307,37,25,01,037,05,03,46,270,39*75
2017-12-31 17:05:30 1514757930.682711: $GPGSV,3,2,11,16,47,190,44,29,14,054,36,31,49,051,50,14,40,114,36*70
2017-12-31 17:05:30 1514757930.682776: $GPGSV,3,3,11,32,18,123,40,26,75,139,46,135,22,240,42*7D
2017-12-31 17:05:30 1514757930.796131: $GPZDA,220531.00,31,12,2017,00,00*64
2017-12-31 17:05:30 1514757930.796249: $GPGGA,220531,3946.9587,N,08404.9854,W,2,10,1.00,302.21,M,-33.324,M,,*7D
2017-12-31 17:05:30 1514757930.796369: $GPRMC,220531,A,3946.9587,N,08404.9854,W,0.0000,0.000,311217,,*3C
2017-12-31 17:05:30 1514757930.796432: $GPGSA,A,3,22,23,3,16,29,31,14,32,26,135,,,1.7,1.0,1.3*3C
2017-12-31 17:05:31 1514757931.344413: $GPZDA,220532.00,31,12,2017,00,00*67
2017-12-31 17:05:31 1514757931.344582: $GPGGA,220532,3946.9587,N,08404.9854,W,2,10,1.00,302.21,M,-33.324,M,,*7E
2017-12-31 17:05:31 1514757931.344649: $GPRMC,220532,A,3946.9587,N,08404.9854,W,0.0000,0.000,311217,,*3F
2017-12-31 17:05:31 1514757931.344711: $GPGSA,A,3,22,23,3,16,29,31,14,32,26,135,,,1.7,1.0,1.3*3C
2017-12-31 17:05:32 1514757932.335258: $GPZDA,220533.00,31,12,2017,00,00*66
2017-12-31 17:05:32 1514757932.335434: $GPGGA,220533,3946.9587,N,08404.9854,W,2,10,1.00,302.21,M,-33.324,M,,*7F
2017-12-31 17:05:32 1514757932.335503: $GPRMC,220533,A,3946.9587,N,08404.9854,W,0.0000,0.000,311217,,*3E
2017-12-31 17:05:32 1514757932.335565: $GPGSA,A,3,22,23,3,16,29,31,14,32,26,135,,,1.7,1.0,1.3*3C
2017-12-31 17:05:33 1514757933.679639: $GPGSV,3,1,11,22,44,238,42,23,28,307,37,25,01,037,06,03,46,270,39*75
2017-12-31 17:05:33 1514757933.679833: $GPGSV,3,2,11,16,47,190,44,29,14,054,36,31,49,051,50,14,40,114,37*71
2017-12-31 17:05:33 1514757933.679902: $GPGSV,3,3,11,32,18,123,40,26,75,139,46,135,22,240,43*7C
2017-12-31 17:05:33 1514757933.793367: $GPZDA,220534.00,31,12,2017,00,00*61
2017-12-31 17:05:33 1514757933.793504: $GPGGA,220534,3946.9587,N,08404.9854,W,2,10,1.00,302.21,M,-33.324,M,,*78
2017-12-31 17:05:33 1514757933.793571: $GPRMC,220534,A,3946.9587,N,08404.9854,W,0.0000,0.000,311217,,*39
2017-12-31 17:05:33 1514757933.793632: $GPGSA,A,3,22,23,3,16,29,31,14,32,26,135,,,1.7,1.0,1.3*3C
2017-12-31 17:05:34 1514757934.344363: $GPZDA,220535.00,31,12,2017,00,00*60
2017-12-31 17:05:34 1514757934.344522: $GPGGA,220535,3946.9587,N,08404.9854,W,2,10,1.00,302.21,M,-33.324,M,,*79
2017-12-31 17:05:34 1514757934.344590: $GPRMC,220535,A,3946.9587,N,08404.9854,W,0.0000,0.000,311217,,*38
2017-12-31 17:05:34 1514757934.344651: $GPGSA,A,3,22,23,3,16,29,31,14,32,26,135,,,1.7,1.0,1.3*3C
