2017-12-01 11:38:44 1512146324.647528: {"class":"VERSION","release":"3.16","rev":"3.16-4","proto_major":3,"proto_minor":11}
2017-12-01 11:38:44 1512146324.647977: {"class":"DEVICES","devices":[{"class":"DEVICE","path":"/dev/ttyUSB0","driver":"SiRF","subtype":"9\u0006GSD4e_4.1.2-P1_RPATCH.05-F-GPS-4R-1510281 11/03/2015 307","activated":"2017-12-01T16:38:44.499Z","flags":1,"native":1,"bps":4800,"parity":"N","stopbits":1,"cycle":1.00}]}
2017-12-01 11:38:44 1512146324.648160: {"class":"WATCH","enable":true,"json":false,"nmea":true,"raw":0,"scaled":false,"timing":false,"split24":false,"pps":false}
2017-12-01 11:38:45 1512146325.362229: $GPZDA,163846.00,01,12,2017,00,00*6E
2017-12-01 11:38:45 1512146325.362406: $GPGGA,163846,3946.9558,N,08404.9844,W,2,11,0.80,305.68,M,-33.324,M,,*75
2017-12-01 11:38:45 1512146325.362477: $GPRMC,163846,A,3946.9558,N,08404.9844,W,0.0000,0.000,011217,,*35
2017-12-01 11:38:45 1512146325.362539: $GPGSA,A,3,5,10,13,15,18,20,21,24,27,29,138,,2.0,0.8,1.5*34
2017-12-01 11:38:46 1512146326.702808: $GPGSV,3,1,12,05,15,076,35,10,11,270,44,13,45,051,47,15,77,081,48*7F
2017-12-01 11:38:46 1512146326.702992: $GPGSV,3,2,12,18,42,283,45,20,64,046,42,21,65,307,45,24,18,150,42*70
2017-12-01 11:38:46 1512146326.703059: $GPGSV,3,3,12,27,07,325,36,29,26,195,43,04,14,129,00,138,38,213,45*47
2017-12-01 11:38:46 1512146326.816141: $GPZDA,163847.00,01,12,2017,00,00*6F
2017-12-01 11:38:46 1512146326.816311: $GPGGA,163847,3946.9558,N,08404.9844,W,2,11,0.80,305.68,M,-33.324,M,,*74
2017-12-01 11:38:46 1512146326.816378: $GPRMC,163847,A,3946.9558,N,08404.9844,W,0.0000,0.000,011217,,*34
2017-12-01 11:38:46 1512146326.816440: $GPGSA,A,3,5,10,13,15,18,20,21,24,27,29,138,,2.0,0.8,1.5*34
2017-12-01 11:38:47 1512146327.441550: $GPZDA,163848.00,01,12,2017,00,00*60
2017-12-01 11:38:47 1512146327.441732: $GPGGA,163848,3946.9558,N,08404.9844,W,2,11,0.80,305.68,M,-33.324,M,,*7B
2017-12-01 11:38:47 1512146327.441805: $GPRMC,163848,A,3946.9558,N,08404.9844,W,0.0000,0.000,011217,,*3B
2017-12-01 11:38:47 1512146327.441866: $GPGSA,A,3,5,10,13,15,18,20,21,24,27,29,138,,2.0,0.8,1.5*34
2017-12-01 11:38:48 1512146328.363645: $GPZDA,163849.00,01,12,2017,00,00*61
2017-12-01 11:38:48 1512146328.363835: $GPGGA,163849,3946.9554,N,08404.9845,W,2,11,0.80,306.44,M,-33.324,M,,*7A
2017-12-01 11:38:48 1512146328.363904: $GPRMC,163849,A,3946.9554,N,08404.9845,W,0.0000,0.000,011217,,*37
2017-12-01 11:38:48 1512146328.363965: $GPGSA,A,3,5,10,13,15,18,20,21,24,27,29,138,,2.0,0.8,1.5*34
2017-12-01 11:38:50 1512146330.198907: $GPGSV,3,1,12,05,15,076,35,10,12,270,44,13,45,051,47,15,77,079,48*7B
2017-12-01 11:38:50 1512146330.199086: $GPGSV,3,2,12,18,42,283,45,20,64,046,42,21,65,307,45,24,18,150,42*70
2017-12-01 11:38:50 1512146330.199152: $GPGSV,3,3,12,27,07,325,36,29,26,195,43,04,14,129,00,138,38,213,45*47
2017-12-01 11:38:50 1512146330.312561: $GPZDA,163850.00,01,12,2017,00,00*69
2017-12-01 11:38:50 1512146330.312728: $GPGGA,163850,3946.9554,N,08404.9845,W,2,11,0.80,306.44,M,-33.324,M,,*72
2017-12-01 11:38:50 1512146330.312799: $GPRMC,163850,A,3946.9554,N,08404.9845,W,0.0000,0.000,011217,,*3F
2017-12-01 11:38:50 1512146330.312860: $GPGSA,A,3,5,10,13,15,18,20,21,24,27,29,138,,2.0,0.8,1.5*34
2017-12-01 11:38:50 1512146330.764082: $GPZDA,163851.00,01,12,2017,00,00*68
2017-12-01 11:38:50 1512146330.764286: $GPGGA,163851,3946.9554,N,08404.9845,W,2,11,0.80,306.44,M,-33.324,M,,*73
2017-12-01 11:38:50 1512146330.764363: $GPRMC,163851,A,3946.9554,N,08404.9845,W,0.0000,0.000,011217,,*3E
2017-12-01 11:38:50 1512146330.764430: $GPGSA,A,3,5,10,13,15,18,20,21,24,27,29,138,,2.0,0.8,1.5*34
2017-12-01 11:38:51 1512146331.365114: $GPZDA,163852.00,01,12,2017,00,00*6B
2017-12-01 11:38:51 1512146331.365302: $GPGGA,163852,3946.9554,N,08404.9845,W,2,11,0.80,306.44,M,-33.324,M,,*70
2017-12-01 11:38:51 1512146331.365372: $GPRMC,163852,A,3946.9554,N,08404.9845,W,0.0000,0.000,011217,,*3D
2017-12-01 11:38:51 1512146331.365434: $GPGSA,A,3,5,10,13,15,18,20,21,24,27,29,138,,2.0,0.8,1.5*34
2017-12-01 11:38:52 1512146332.683025: $GPGSV,3,1,12,05,15,076,34,10,12,270,45,13,45,051,47,15,77,079,48*7B
2017-12-01 11:38:52 1512146332.683271: $GPGSV,3,2,12,18,42,283,45,20,64,046,42,21,65,307,45,24,18,150,41*73
2017-12-01 11:38:52 1512146332.683342: $GPGSV,3,3,12,27,07,325,38,29,26,195,44,04,14,129,00,138,38,213,46*4D
2017-12-01 11:38:52 1512146332.796461: $GPZDA,163853.00,01,12,2017,00,00*6A
2017-12-01 11:38:52 1512146332.796646: $GPGGA,163853,3946.9554,N,08404.9845,W,2,11,0.80,306.44,M,-33.324,M,,*71
2017-12-01 11:38:52 1512146332.796715: $GPRMC,163853,A,3946.9554,N,08404.9845,W,0.0000,0.000,011217,,*3C
2017-12-01 11:38:52 1512146332.796780: $GPGSA,A,3,5,10,13,15,18,20,21,24,27,29,138,,2.0,0.8,1.5*34
2017-12-01 11:38:53 1512146333.362337: $GPZDA,163854.00,01,12,2017,00,00*6D
2017-12-01 11:38:53 1512146333.362525: $GPGGA,163854,3946.9554,N,08404.9845,W,2,11,0.80,306.44,M,-33.324,M,,*76
2017-12-01 11:38:53 1512146333.362595: $GPRMC,163854,A,3946.9554,N,08404.9845,W,0.0000,0.000,011217,,*3B
2017-12-01 11:38:53 1512146333.362661: $GPGSA,A,3,5,10,13,15,18,20,21,24,27,29,138,,2.0,0.8,1.5*34
2017-12-01 11:38:54 1512146334.340682: $GPZDA,163855.00,01,12,2017,00,00*6C
2017-12-01 11:38:54 1512146334.340859: $GPGGA,163855,3946.9554,N,08404.9845,W,2,11,0.80,306.44,M,-33.324,M,,*77
2017-12-01 11:38:54 1512146334.340926: $GPRMC,163855,A,3946.9554,N,08404.9845,W,0.0000,0.000,011217,,*3A
2017-12-01 11:38:54 1512146334.340989: $GPGSA,A,3,5,10,13,15,18,20,21,24,27,29,138,,2.0,0.8,1.5*34
