2017-12-01 18:23:51 1512170631.256871: {"class":"VERSION","release":"3.16","rev":"3.16-4","proto_major":3,"proto_minor":11}
2017-12-01 18:23:51 1512170631.257294: {"class":"DEVICES","devices":[{"class":"DEVICE","path":"/dev/ttyUSB0","driver":"SiRF","subtype":"9\u0006GSD4e_4.1.2-P1_RPATCH.05-F-GPS-4R-1510281 11/03/2015 307","activated":"2017-12-01T23:23:50.570Z","flags":1,"native":1,"bps":4800,"parity":"N","stopbits":1,"cycle":1.00}]}
2017-12-01 18:23:51 1512170631.257421: {"class":"WATCH","enable":true,"json":false,"nmea":true,"raw":0,"scaled":false,"timing":false,"split24":false,"pps":false}
2017-12-01 18:23:51 1512170631.461196: $GPZDA,232352.00,01,12,2017,00,00*67
2017-12-01 18:23:51 1512170631.461432: $GPGGA,232352,3946.9729,N,08404.9830,W,2,11,0.80,294.31,M,-33.325,M,,*7F
2017-12-01 18:23:51 1512170631.461513: $GPRMC,232352,A,3946.9729,N,08404.9830,W,0.0000,0.000,011217,,*3B
2017-12-01 18:23:51 1512170631.461579: $GPGSA,A,3,1,3,14,16,22,23,25,26,31,32,138,,2.0,0.8,1.5*07
2017-12-01 18:23:52 1512170632.765639: $GPGSV,3,1,12,01,06,253,41,03,40,300,47,14,55,091,44,16,23,189,42*74
2017-12-01 18:23:52 1512170632.765840: $GPGSV,3,2,12,22,50,271,44,23,11,300,40,25,18,040,39,26,53,172,46*78
2017-12-01 18:23:52 1512170632.765907: $GPGSV,3,3,12,31,67,025,47,32,36,108,40,29,11,072,00,138,38,213,45*4A
2017-12-01 18:23:52 1512170632.879265: $GPZDA,232353.00,01,12,2017,00,00*66
2017-12-01 18:23:52 1512170632.879431: $GPGGA,232353,3946.9729,N,08404.9830,W,2,11,0.80,294.31,M,-33.325,M,,*7E
2017-12-01 18:23:52 1512170632.879500: $GPRMC,232353,A,3946.9729,N,08404.9830,W,0.0000,0.000,011217,,*3A
2017-12-01 18:23:52 1512170632.879563: $GPGSA,A,3,1,3,14,16,22,23,25,26,31,32,138,,2.0,0.8,1.5*07
2017-12-01 18:23:53 1512170633.505921: $GPZDA,232354.00,01,12,2017,00,00*61
2017-12-01 18:23:53 1512170633.506093: $GPGGA,232354,3946.9724,N,08404.9830,W,2,11,0.80,293.67,M,-33.325,M,,*70
2017-12-01 18:23:53 1512170633.506161: $GPRMC,232354,A,3946.9724,N,08404.9830,W,0.0000,0.000,011217,,*30
2017-12-01 18:23:53 1512170633.506224: $GPGSA,A,3,1,3,14,16,22,23,25,26,31,32,138,,2.0,0.8,1.5*07
2017-12-01 18:23:54 1512170634.462790: $GPZDA,232355.00,01,12,2017,00,00*60
2017-12-01 18:23:54 1512170634.462971: $GPGGA,232355,3946.9724,N,08404.9830,W,2,11,0.80,293.67,M,-33.325,M,,*71
2017-12-01 18:23:54 1512170634.463042: $GPRMC,232355,A,3946.9724,N,08404.9830,W,0.0000,0.000,011217,,*31
2017-12-01 18:23:54 1512170634.463103: $GPGSA,A,3,1,3,14,16,22,23,25,26,31,32,138,,2.0,0.8,1.5*07
2017-12-01 18:23:55 1512170635.797237: $GPGSV,3,1,12,01,06,253,42,03,40,300,47,14,55,091,44,16,23,189,42*77
2017-12-01 18:23:55 1512170635.797431: $GPGSV,3,2,12,22,50,271,44,23,11,300,40,25,18,040,40,26,53,172,46*76
2017-12-01 18:23:55 1512170635.797499: $GPGSV,3,3,12,31,67,025,46,32,36,108,41,29,11,072,00,138,38,213,46*49
2017-12-01 18:23:55 1512170635.910874: $GPZDA,232356.00,01,12,2017,00,00*63
2017-12-01 18:23:55 1512170635.911044: $GPGGA,232356,3946.9724,N,08404.9830,W,2,11,0.80,293.67,M,-33.325,M,,*72
2017-12-01 18:23:55 1512170635.911109: $GPRMC,232356,A,3946.9724,N,08404.9830,W,0.0000,0.000,011217,,*32
2017-12-01 18:23:55 1512170635.911172: $GPGSA,A,3,1,3,14,16,22,23,25,26,31,32,138,,2.0,0.8,1.5*07
2017-12-01 18:23:56 1512170636.425259: $GPZDA,232357.00,01,12,2017,00,00*62
2017-12-01 18:23:56 1512170636.425450: $GPGGA,232357,3946.9729,N,08404.9830,W,2,11,0.80,294.31,M,-33.325,M,,*7A
2017-12-01 18:23:56 1512170636.425520: $GPRMC,232357,A,3946.9729,N,08404.9830,W,0.0000,0.000,011217,,*3E
2017-12-01 18:23:56 1512170636.425582: $GPGSA,A,3,1,3,14,16,22,23,25,26,31,32,138,,2.0,0.8,1.5*07
2017-12-01 18:23:57 1512170637.462761: $GPZDA,232358.00,01,12,2017,00,00*6D
2017-12-01 18:23:57 1512170637.462965: $GPGGA,232358,3946.9729,N,08404.9830,W,2,11,0.80,294.31,M,-33.325,M,,*75
2017-12-01 18:23:57 1512170637.463036: $GPRMC,232358,A,3946.9729,N,08404.9830,W,0.0000,0.000,011217,,*31
2017-12-01 18:23:57 1512170637.463097: $GPGSA,A,3,1,3,14,16,22,23,25,26,31,32,138,,2.0,0.8,1.5*07
2017-12-01 18:23:58 1512170638.768823: $GPGSV,3,1,12,01,06,253,42,03,40,300,47,14,55,091,44,16,23,189,42*77
2017-12-01 18:23:58 1512170638.769059: $GPGSV,3,2,12,22,50,271,44,23,11,300,40,25,18,040,39,26,53,172,46*78
2017-12-01 18:23:58 1512170638.769129: $GPGSV,3,3,12,31,67,025,46,32,36,108,35,29,11,072,09,138,38,213,46*43
2017-12-01 18:23:58 1512170638.882645: $GPZDA,232359.00,01,12,2017,00,00*6C
2017-12-01 18:23:58 1512170638.882815: $GPGGA,232359,3946.9729,N,08404.9830,W,2,11,0.80,294.31,M,-33.325,M,,*74
2017-12-01 18:23:58 1512170638.882884: $GPRMC,232359,A,3946.9729,N,08404.9830,W,0.0000,0.000,011217,,*30
2017-12-01 18:23:58 1512170638.882945: $GPGSA,A,3,1,3,14,16,22,23,25,26,31,32,138,,2.0,0.8,1.5*07
2017-12-01 18:23:59 1512170639.430816: $GPZDA,232400.00,01,12,2017,00,00*67
2017-12-01 18:23:59 1512170639.430991: $GPGGA,232400,3946.9729,N,08404.9830,W,2,11,0.80,294.31,M,-33.325,M,,*7F
2017-12-01 18:23:59 1512170639.431057: $GPRMC,232400,A,3946.9729,N,08404.9830,W,0.0000,0.000,011217,,*3B
2017-12-01 18:23:59 1512170639.431119: $GPGSA,A,3,1,3,14,16,22,23,25,26,31,32,138,,2.0,0.8,1.5*07
2017-12-01 18:24:00 1512170640.431484: $GPZDA,232401.00,01,12,2017,00,00*66
2017-12-01 18:24:00 1512170640.434166: $GPGGA,232401,3946.9729,N,08404.9830,W,2,11,0.80,294.31,M,-33.325,M,,*7E
2017-12-01 18:24:00 1512170640.434286: $GPRMC,232401,A,3946.9729,N,08404.9830,W,0.0000,0.000,011217,,*3A
2017-12-01 18:24:00 1512170640.434355: $GPGSA,A,3,1,3,14,16,22,23,25,26,31,32,138,,2.0,0.8,1.5*07
2017-12-01 18:24:01 1512170641.767184: $GPGSV,3,1,12,01,06,253,42,03,40,300,48,14,55,091,44,16,23,189,42*78
2017-12-01 18:24:01 1512170641.767392: $GPGSV,3,2,12,22,50,271,44,23,11,300,40,25,18,040,40,26,53,172,46*76
2017-12-01 18:24:01 1512170641.767466: $GPGSV,3,3,12,31,67,025,46,32,36,108,38,29,11,072,12,138,38,213,46*44
2017-12-01 18:24:01 1512170641.880887: $GPZDA,232402.00,01,12,2017,00,00*65
2017-12-01 18:24:01 1512170641.881024: $GPGGA,232402,3946.9729,N,08404.9830,W,2,11,0.80,294.31,M,-33.325,M,,*7D
2017-12-01 18:24:01 1512170641.881093: $GPRMC,232402,A,3946.9729,N,08404.9830,W,0.0000,0.000,011217,,*39
2017-12-01 18:24:01 1512170641.881156: $GPGSA,A,3,1,3,14,16,22,23,25,26,31,32,138,,2.0,0.8,1.5*07
2017-12-01 18:24:02 1512170642.423990: $GPZDA,232403.00,01,12,2017,00,00*64
2017-12-01 18:24:02 1512170642.424173: $GPGGA,232403,3946.9724,N,08404.9830,W,2,11,0.80,293.67,M,-33.325,M,,*75
2017-12-01 18:24:02 1512170642.424250: $GPRMC,232403,A,3946.9724,N,08404.9830,W,0.0000,0.000,011217,,*35
2017-12-01 18:24:02 1512170642.424316: $GPGSA,A,3,1,3,14,16,22,23,25,26,31,32,138,,2.0,0.8,1.5*07
2017-12-01 18:24:03 1512170643.429238: $GPZDA,232404.00,01,12,2017,00,00*63
2017-12-01 18:24:03 1512170643.429424: $GPGGA,232404,3946.9724,N,08404.9830,W,2,11,0.80,293.67,M,-33.325,M,,*72
2017-12-01 18:24:03 1512170643.429496: $GPRMC,232404,A,3946.9724,N,08404.9830,W,0.0000,0.000,011217,,*32
2017-12-01 18:24:03 1512170643.429562: $GPGSA,A,3,1,3,14,16,22,23,25,26,31,32,138,,2.0,0.8,1.5*07
2017-12-01 18:24:04 1512170644.771254: $GPGSV,3,1,12,01,06,253,42,03,40,300,47,14,55,091,44,16,23,189,42*77
2017-12-01 18:24:04 1512170644.771493: $GPGSV,3,2,12,22,50,271,44,23,11,300,41,25,18,040,40,26,53,172,47*76
2017-12-01 18:24:04 1512170644.771567: $GPGSV,3,3,12,31,67,025,46,32,36,108,39,29,11,072,02,138,38,213,46*44
2017-12-01 18:24:04 1512170644.884916: $GPZDA,232405.00,01,12,2017,00,00*62
2017-12-01 18:24:04 1512170644.885092: $GPGGA,232405,3946.9724,N,08404.9830,W,2,11,0.80,293.67,M,-33.325,M,,*73
2017-12-01 18:24:04 1512170644.885163: $GPRMC,232405,A,3946.9724,N,08404.9830,W,0.0000,0.000,011217,,*33
2017-12-01 18:24:04 1512170644.885231: $GPGSA,A,3,1,3,14,16,22,23,25,26,31,32,138,,2.0,0.8,1.5*07
2017-12-01 18:24:05 1512170645.430491: $GPZDA,232406.00,01,12,2017,00,00*61
2017-12-01 18:24:05 1512170645.430684: $GPGGA,232406,3946.9724,N,08404.9830,W,2,11,0.80,293.67,M,-33.325,M,,*70
2017-12-01 18:24:05 1512170645.430758: $GPRMC,232406,A,3946.9724,N,08404.9830,W,0.0000,0.000,011217,,*30
2017-12-01 18:24:05 1512170645.430824: $GPGSA,A,3,1,3,14,16,22,23,25,26,31,32,138,,2.0,0.8,1.5*07
2017-12-01 18:24:06 1512170646.430359: $GPZDA,232407.00,01,12,2017,00,00*60
2017-12-01 18:24:06 1512170646.430585: $GPGGA,232407,3946.9724,N,08404.9830,W,2,11,0.80,293.67,M,-33.325,M,,*71
2017-12-01 18:24:06 1512170646.430655: $GPRMC,232407,A,3946.9724,N,08404.9830,W,0.0000,0.000,011217,,*31
2017-12-01 18:24:06 1512170646.430716: $GPGSA,A,3,1,3,14,16,22,23,25,26,31,32,138,,2.0,0.8,1.5*07
2017-12-01 18:24:07 1512170647.763357: $GPGSV,3,1,12,01,06,253,41,03,40,300,47,14,55,091,43,16,23,189,41*70
2017-12-01 18:24:07 1512170647.763556: $GPGSV,3,2,12,22,50,271,44,23,11,300,42,25,18,040,39,26,53,172,46*7A
2017-12-01 18:24:07 1512170647.763625: $GPGSV,3,3,12,31,67,025,46,32,36,108,39,29,11,072,03,138,38,213,46*45
2017-12-01 18:24:07 1512170647.876978: $GPZDA,232408.00,01,12,2017,00,00*6F
2017-12-01 18:24:07 1512170647.877154: $GPGGA,232408,3946.9724,N,08404.9830,W,2,11,0.80,293.67,M,-33.325,M,,*7E
2017-12-01 18:24:07 1512170647.877223: $GPRMC,232408,A,3946.9724,N,08404.9830,W,0.0000,0.000,011217,,*3E
2017-12-01 18:24:07 1512170647.877288: $GPGSA,A,3,1,3,14,16,22,23,25,26,31,32,138,,2.0,0.8,1.5*07
2017-12-01 18:24:08 1512170648.502401: $GPZDA,232409.00,01,12,2017,00,00*6E
2017-12-01 18:24:08 1512170648.502584: $GPGGA,232409,3946.9724,N,08404.9830,W,2,11,0.80,293.67,M,-33.325,M,,*7F
2017-12-01 18:24:08 1512170648.502653: $GPRMC,232409,A,3946.9724,N,08404.9830,W,0.0000,0.000,011217,,*3F
2017-12-01 18:24:08 1512170648.502716: $GPGSA,A,3,1,3,14,16,22,23,25,26,31,32,138,,2.0,0.8,1.5*07
2017-12-01 18:24:09 1512170649.432293: $GPZDA,232410.00,01,12,2017,00,00*66
2017-12-01 18:24:09 1512170649.432490: $GPGGA,232410,3946.9724,N,08404.9830,W,2,11,0.80,293.67,M,-33.325,M,,*77
2017-12-01 18:24:09 1512170649.432564: $GPRMC,232410,A,3946.9724,N,08404.9830,W,0.0000,0.000,011217,,*37
2017-12-01 18:24:09 1512170649.432628: $GPGSA,A,3,1,3,14,16,22,23,25,26,31,32,138,,2.0,0.8,1.5*07
2017-12-01 18:24:10 1512170650.768761: $GPGSV,3,1,12,01,06,253,41,03,40,300,47,14,55,091,43,16,23,189,41*70
2017-12-01 18:24:10 1512170650.770493: $GPGSV,3,2,12,22,50,271,45,23,11,300,42,25,18,040,40,26,53,172,47*74
2017-12-01 18:24:10 1512170650.770593: $GPGSV,3,3,12,31,67,025,46,32,36,108,40,29,11,072,05,138,38,213,46*4D
2017-12-01 18:24:10 1512170650.882196: $GPZDA,232411.00,01,12,2017,00,00*67
2017-12-01 18:24:10 1512170650.882369: $GPGGA,232411,3946.9724,N,08404.9830,W,2,11,0.80,293.67,M,-33.325,M,,*76
2017-12-01 18:24:10 1512170650.882436: $GPRMC,232411,A,3946.9724,N,08404.9830,W,0.0000,0.000,011217,,*36
2017-12-01 18:24:10 1512170650.882499: $GPGSA,A,3,1,3,14,16,22,23,25,26,31,32,138,,2.0,0.8,1.5*07
