2017-12-01 12:12:05 1512148325.876780: {"class":"VERSION","release":"3.16","rev":"3.16-4","proto_major":3,"proto_minor":11}
2017-12-01 12:12:05 1512148325.877207: {"class":"DEVICES","devices":[{"class":"DEVICE","path":"/dev/ttyUSB0","driver":"SiRF","subtype":"9\u0006GSD4e_4.1.2-P1_RPATCH.05-F-GPS-4R-1510281 11/03/2015 307","activated":"2017-12-01T17:12:05.661Z","flags":1,"native":1,"bps":4800,"parity":"N","stopbits":1,"cycle":1.00}]}
2017-12-01 12:12:05 1512148325.877343: {"class":"WATCH","enable":true,"json":false,"nmea":true,"raw":0,"scaled":false,"timing":false,"split24":false,"pps":false}
2017-12-01 12:12:06 1512148326.682840: $GPGSV,3,1,12,10,22,280,40,13,31,045,44,15,63,052,45,18,52,297,45*72
2017-12-01 12:12:06 1512148326.683002: $GPGSV,3,2,12,20,53,069,46,21,77,279,43,24,31,141,44,27,15,315,41*79
2017-12-01 12:12:06 1512148326.683068: $GPGSV,3,3,12,29,12,190,32,05,05,085,05,04,02,135,00,138,38,213,46*41
2017-12-01 12:12:06 1512148326.796249: $GPZDA,171207.00,01,12,2017,00,00*62
2017-12-01 12:12:06 1512148326.796433: $GPGGA,171207,3946.9592,N,08404.9850,W,2,10,0.80,296.47,M,-33.324,M,,*7D
2017-12-01 12:12:06 1512148326.801546: $GPRMC,171207,A,3946.9592,N,08404.9850,W,0.0000,0.000,011217,,*3A
2017-12-01 12:12:06 1512148326.801725: $GPGSA,A,3,10,13,15,18,20,21,24,27,29,138,,,2.0,0.8,1.5*01
2017-12-01 12:12:07 1512148327.348443: $GPZDA,171208.00,01,12,2017,00,00*6D
2017-12-01 12:12:07 1512148327.348645: $GPGGA,171208,3946.9592,N,08404.9850,W,2,10,0.80,296.47,M,-33.324,M,,*72
2017-12-01 12:12:07 1512148327.348715: $GPRMC,171208,A,3946.9592,N,08404.9850,W,0.0000,0.000,011217,,*35
2017-12-01 12:12:07 1512148327.348776: $GPGSA,A,3,10,13,15,18,20,21,24,27,29,138,,,2.0,0.8,1.5*01
2017-12-01 12:12:08 1512148328.341789: $GPZDA,171209.00,01,12,2017,00,00*6C
2017-12-01 12:12:08 1512148328.341960: $GPGGA,171209,3946.9592,N,08404.9850,W,2,10,0.80,296.47,M,-33.324,M,,*73
2017-12-01 12:12:08 1512148328.342027: $GPRMC,171209,A,3946.9592,N,08404.9850,W,0.0000,0.000,011217,,*34
2017-12-01 12:12:08 1512148328.342088: $GPGSA,A,3,10,13,15,18,20,21,24,27,29,138,,,2.0,0.8,1.5*01
2017-12-01 12:12:09 1512148329.698763: $GPGSV,3,1,12,10,22,280,40,13,31,045,44,15,63,052,45,18,52,297,45*72
2017-12-01 12:12:09 1512148329.698938: $GPGSV,3,2,12,20,53,069,45,21,77,279,43,24,31,141,44,27,15,315,42*79
2017-12-01 12:12:09 1512148329.699004: $GPGSV,3,3,12,29,12,190,32,05,05,085,13,04,02,135,00,138,38,213,46*46
2017-12-01 12:12:09 1512148329.812229: $GPZDA,171210.00,01,12,2017,00,00*64
2017-12-01 12:12:09 1512148329.812400: $GPGGA,171210,3946.9592,N,08404.9850,W,2,11,0.80,296.47,M,-33.324,M,,*7A
2017-12-01 12:12:09 1512148329.812468: $GPRMC,171210,A,3946.9592,N,08404.9850,W,0.0000,0.000,011217,,*3C
2017-12-01 12:12:09 1512148329.812533: $GPGSA,A,3,10,13,15,18,20,21,24,27,29,5,138,,2.0,0.8,1.5*34
2017-12-01 12:12:10 1512148330.346712: $GPZDA,171211.00,01,12,2017,00,00*65
2017-12-01 12:12:10 1512148330.346896: $GPGGA,171211,3946.9592,N,08404.9850,W,2,11,0.80,296.47,M,-33.324,M,,*7B
2017-12-01 12:12:10 1512148330.346965: $GPRMC,171211,A,3946.9592,N,08404.9850,W,0.0000,0.000,011217,,*3D
2017-12-01 12:12:10 1512148330.347028: $GPGSA,A,3,10,13,15,18,20,21,24,27,29,5,138,,2.0,0.8,1.5*34
2017-12-01 12:12:11 1512148331.347332: $GPZDA,171212.00,01,12,2017,00,00*66
2017-12-01 12:12:11 1512148331.347511: $GPGGA,171212,3946.9592,N,08404.9850,W,2,11,0.80,296.47,M,-33.324,M,,*78
2017-12-01 12:12:11 1512148331.347579: $GPRMC,171212,A,3946.9592,N,08404.9850,W,0.0000,0.000,011217,,*3E
2017-12-01 12:12:11 1512148331.347644: $GPGSA,A,3,10,13,15,18,20,21,24,27,29,5,138,,2.0,0.8,1.5*34
2017-12-01 12:12:12 1512148332.702870: $GPGSV,3,1,12,10,22,280,40,13,31,045,44,15,63,052,44,18,52,297,45*73
2017-12-01 12:12:12 1512148332.703029: $GPGSV,3,2,12,20,53,069,45,21,77,279,44,24,31,141,44,27,15,315,43*7F
2017-12-01 12:12:12 1512148332.703096: $GPGSV,3,3,12,29,12,190,32,05,05,085,14,04,02,135,00,138,38,213,46*41
2017-12-01 12:12:12 1512148332.817257: $GPZDA,171213.00,01,12,2017,00,00*67
2017-12-01 12:12:12 1512148332.817448: $GPGGA,171213,3946.9592,N,08404.9850,W,2,11,0.80,296.47,M,-33.324,M,,*79
2017-12-01 12:12:12 1512148332.817586: $GPRMC,171213,A,3946.9592,N,08404.9850,W,0.0000,0.000,011217,,*3F
2017-12-01 12:12:12 1512148332.817655: $GPGSA,A,3,10,13,15,18,20,21,24,27,29,5,138,,2.0,0.8,1.5*34
2017-12-01 12:12:13 1512148333.364572: $GPZDA,171214.00,01,12,2017,00,00*60
2017-12-01 12:12:13 1512148333.364753: $GPGGA,171214,3946.9592,N,08404.9850,W,2,11,0.80,296.47,M,-33.324,M,,*7E
2017-12-01 12:12:13 1512148333.364820: $GPRMC,171214,A,3946.9592,N,08404.9850,W,0.0000,0.000,011217,,*38
2017-12-01 12:12:13 1512148333.364884: $GPGSA,A,3,10,13,15,18,20,21,24,27,29,5,138,,2.0,0.8,1.5*34
2017-12-01 12:12:14 1512148334.347159: $GPZDA,171215.00,01,12,2017,00,00*61
2017-12-01 12:12:14 1512148334.347349: $GPGGA,171215,3946.9592,N,08404.9850,W,2,11,0.80,296.47,M,-33.324,M,,*7F
2017-12-01 12:12:14 1512148334.347418: $GPRMC,171215,A,3946.9592,N,08404.9850,W,0.0000,0.000,011217,,*39
2017-12-01 12:12:14 1512148334.347482: $GPGSA,A,3,10,13,15,18,20,21,24,27,29,5,138,,2.0,0.8,1.5*34
2017-12-01 12:12:15 1512148335.682443: $GPGSV,3,1,12,10,22,280,40,13,31,045,44,15,63,052,45,18,52,297,45*72
2017-12-01 12:12:15 1512148335.682634: $GPGSV,3,2,12,20,53,069,45,21,77,279,43,24,31,141,44,27,15,315,44*7F
2017-12-01 12:12:15 1512148335.682703: $GPGSV,3,3,12,29,12,190,32,05,05,085,13,04,02,135,00,138,38,213,46*46
2017-12-01 12:12:15 1512148335.795876: $GPZDA,171216.00,01,12,2017,00,00*62
2017-12-01 12:12:15 1512148335.796035: $GPGGA,171216,3946.9589,N,08404.9851,W,2,11,0.80,297.23,M,-33.324,M,,*74
2017-12-01 12:12:15 1512148335.796101: $GPRMC,171216,A,3946.9589,N,08404.9851,W,0.0000,0.000,011217,,*31
2017-12-01 12:12:15 1512148335.796161: $GPGSA,A,3,10,13,15,18,20,21,24,27,29,5,138,,2.0,0.8,1.5*34
