2017-11-16 15:23:40 1510863820.376358: {"class":"VERSION","release":"3.17","rev":"3.17","proto_major":3,"proto_minor":12}
2017-11-16 15:23:40 1510863820.376856: {"class":"DEVICES","devices":[{"class":"DEVICE","path":"/dev/ttyUSB0","driver":"SiRF","subtype":"9\u0006GSD4e_4.1.2-P1_RPATCH.05-F-GPS-4R-1510281 11/03/2015 307","activated":"2017-11-16T20:23:40.257Z","flags":1,"native":1,"bps":4800,"parity":"N","stopbits":1,"cycle":1.00}]}
2017-11-16 15:23:40 1510863820.376982: {"class":"WATCH","enable":true,"json":false,"nmea":true,"raw":0,"scaled":false,"timing":false,"split24":false,"pps":false}
2017-11-16 15:23:40 1510863820.706537: $GPGSV,3,1,12,08,06,294,31,10,68,330,51,14,28,252,46,15,12,066,29*74
2017-11-16 15:23:40 1510863820.706709: $GPGSV,3,2,12,18,71,090,48,20,09,117,21,21,30,180,45,24,46,060,51*70
2017-11-16 15:23:40 1510863820.706771: $GPGSV,3,3,12,27,07,261,33,32,45,264,49,12,08,108,30,138,38,213,45*41
2017-11-16 15:23:40 1510863820.819855: $GPZDA,202339.00,16,11,2017,00,00*6C
2017-11-16 15:23:40 1510863820.820018: $GPGGA,202339,3946.9575,N,08404.9858,W,2,12,0.80,308.08,M,-33.324,M,,*78
2017-11-16 15:23:40 1510863820.820080: $GPRMC,202339,A,3946.9575,N,08404.9858,W,0.0000,0.000,161117,,*35
2017-11-16 15:23:40 1510863820.820136: $GPGSA,A,3,8,10,14,15,18,20,21,24,27,32,12,138,1.6,0.8,1.3*34
2017-11-16 15:23:41 1510863821.445234: $GPZDA,202340.00,16,11,2017,00,00*62
2017-11-16 15:23:41 1510863821.445450: $GPGGA,202340,3946.9575,N,08404.9858,W,2,12,0.80,308.08,M,-33.324,M,,*76
2017-11-16 15:23:41 1510863821.445512: $GPRMC,202340,A,3946.9575,N,08404.9858,W,0.0000,0.000,161117,,*3B
2017-11-16 15:23:41 1510863821.445569: $GPGSA,A,3,8,10,14,15,18,20,21,24,27,32,12,138,1.6,0.8,1.3*34
2017-11-16 15:23:42 1510863822.386043: $GPZDA,202341.00,16,11,2017,00,00*63
2017-11-16 15:23:42 1510863822.386222: $GPGGA,202341,3946.9575,N,08404.9858,W,2,12,0.80,308.08,M,-33.324,M,,*77
2017-11-16 15:23:42 1510863822.386332: $GPRMC,202341,A,3946.9575,N,08404.9858,W,0.0000,0.000,161117,,*3A
2017-11-16 15:23:42 1510863822.386412: $GPGSA,A,3,8,10,14,15,18,20,21,24,27,32,12,138,1.6,0.8,1.3*34
2017-11-16 15:23:43 1510863823.723098: $GPGSV,3,1,12,08,06,294,32,10,68,330,51,14,28,252,46,15,12,066,30*7F
2017-11-16 15:23:43 1510863823.723285: $GPGSV,3,2,12,18,71,090,48,20,09,117,24,21,30,180,45,24,46,060,51*75
2017-11-16 15:23:43 1510863823.723364: $GPGSV,3,3,12,27,07,261,33,32,45,264,49,12,08,108,29,138,38,213,45*49
2017-11-16 15:23:43 1510863823.836393: $GPZDA,202342.00,16,11,2017,00,00*60
2017-11-16 15:23:43 1510863823.836558: $GPGGA,202342,3946.9575,N,08404.9858,W,2,12,0.80,308.08,M,-33.324,M,,*74
2017-11-16 15:23:43 1510863823.836619: $GPRMC,202342,A,3946.9575,N,08404.9858,W,0.0000,0.000,161117,,*39
2017-11-16 15:23:43 1510863823.836675: $GPGSA,A,3,8,10,14,15,18,20,21,24,27,32,12,138,1.6,0.8,1.3*34
2017-11-16 15:23:44 1510863824.369746: $GPZDA,202343.00,16,11,2017,00,00*61
2017-11-16 15:23:44 1510863824.369916: $GPGGA,202343,3946.9575,N,08404.9858,W,2,12,0.80,308.08,M,-33.324,M,,*75
2017-11-16 15:23:44 1510863824.369978: $GPRMC,202343,A,3946.9575,N,08404.9858,W,0.0000,0.000,161117,,*38
2017-11-16 15:23:44 1510863824.370036: $GPGSA,A,3,8,10,14,15,18,20,21,24,27,32,12,138,1.6,0.8,1.3*34
2017-11-16 15:23:45 1510863825.387005: $GPZDA,202344.00,16,11,2017,00,00*66
2017-11-16 15:23:45 1510863825.387226: $GPGGA,202344,3946.9575,N,08404.9858,W,2,12,0.80,308.08,M,-33.324,M,,*72
2017-11-16 15:23:45 1510863825.387290: $GPRMC,202344,A,3946.9575,N,08404.9858,W,0.0000,0.000,161117,,*3F
2017-11-16 15:23:45 1510863825.387370: $GPGSA,A,3,8,10,14,15,18,20,21,24,27,32,12,138,1.6,0.8,1.3*34
2017-11-16 15:23:46 1510863826.705891: $GPGSV,3,1,12,08,06,294,33,10,68,330,51,14,28,252,46,15,12,066,30*7E
2017-11-16 15:23:46 1510863826.706061: $GPGSV,3,2,12,18,71,090,48,20,09,117,25,21,30,180,44,24,46,060,51*75
2017-11-16 15:23:46 1510863826.706122: $GPGSV,3,3,12,27,07,261,32,32,45,264,49,12,08,108,29,138,38,213,45*48
2017-11-16 15:23:46 1510863826.819192: $GPZDA,202345.00,16,11,2017,00,00*67
2017-11-16 15:23:46 1510863826.819378: $GPGGA,202345,3946.9575,N,08404.9858,W,2,12,0.80,308.08,M,-33.324,M,,*73
2017-11-16 15:23:46 1510863826.819496: $GPRMC,202345,A,3946.9575,N,08404.9858,W,0.0000,0.000,161117,,*3E
2017-11-16 15:23:46 1510863826.819555: $GPGSA,A,3,8,10,14,15,18,20,21,24,27,32,12,138,1.6,0.8,1.3*34
2017-11-16 15:23:47 1510863827.386458: $GPZDA,202346.00,16,11,2017,00,00*64
2017-11-16 15:23:47 1510863827.393651: $GPGGA,202346,3946.9575,N,08404.9858,W,2,12,0.80,308.08,M,-33.324,M,,*70
2017-11-16 15:23:47 1510863827.393960: $GPRMC,202346,A,3946.9575,N,08404.9858,W,0.0000,0.000,161117,,*3D
2017-11-16 15:23:47 1510863827.394100: $GPGSA,A,3,8,10,14,15,18,20,21,24,27,32,12,138,1.6,0.8,1.3*34
2017-11-16 15:23:48 1510863828.387203: $GPZDA,202347.00,16,11,2017,00,00*65
2017-11-16 15:23:48 1510863828.387397: $GPGGA,202347,3946.9575,N,08404.9858,W,2,12,0.80,308.08,M,-33.324,M,,*71
2017-11-16 15:23:48 1510863828.387461: $GPRMC,202347,A,3946.9575,N,08404.9858,W,0.0000,0.000,161117,,*3C
2017-11-16 15:23:48 1510863828.387517: $GPGSA,A,3,8,10,14,15,18,20,21,24,27,32,12,138,1.6,0.8,1.3*34
2017-11-16 15:23:49 1510863829.708029: $GPGSV,3,1,12,08,06,294,34,10,68,330,51,14,28,252,46,15,12,066,30*79
2017-11-16 15:23:49 1510863829.708232: $GPGSV,3,2,12,18,71,090,48,20,09,117,26,21,30,180,44,24,46,060,51*76
2017-11-16 15:23:49 1510863829.708295: $GPGSV,3,3,12,27,07,261,32,32,45,264,48,12,08,108,28,138,38,213,44*49
2017-11-16 15:23:49 1510863829.821802: $GPZDA,202348.00,16,11,2017,00,00*6A
2017-11-16 15:23:49 1510863829.821959: $GPGGA,202348,3946.9575,N,08404.9858,W,2,12,0.80,308.08,M,-33.324,M,,*7E
2017-11-16 15:23:49 1510863829.822020: $GPRMC,202348,A,3946.9575,N,08404.9858,W,0.0000,0.000,161117,,*33
2017-11-16 15:23:49 1510863829.822099: $GPGSA,A,3,8,10,14,15,18,20,21,24,27,32,12,138,1.6,0.8,1.3*34
