2017-12-01 13:14:16 1512152056.153465: {"class":"VERSION","release":"3.16","rev":"3.16-4","proto_major":3,"proto_minor":11}
2017-12-01 13:14:16 1512152056.153896: {"class":"DEVICES","devices":[{"class":"DEVICE","path":"/dev/ttyUSB0","driver":"SiRF","subtype":"9\u0006GSD4e_4.1.2-P1_RPATCH.05-F-GPS-4R-1510281 11/03/2015 307","activated":"2017-12-01T18:14:15.520Z","flags":1,"native":1,"bps":4800,"parity":"N","stopbits":1,"cycle":1.00}]}
2017-12-01 13:14:16 1512152056.154025: {"class":"WATCH","enable":true,"json":false,"nmea":true,"raw":0,"scaled":false,"timing":false,"split24":false,"pps":false}
2017-12-01 13:14:16 1512152056.376973: $GPZDA,181417.00,01,12,2017,00,00*6A
2017-12-01 13:14:16 1512152056.377152: $GPGGA,181417,3946.9573,N,08404.9840,W,2,11,0.80,313.29,M,-33.324,M,,*7E
2017-12-01 13:14:16 1512152056.377220: $GPRMC,181417,A,3946.9573,N,08404.9840,W,0.0000,0.000,011217,,*3C
2017-12-01 13:14:16 1512152056.377283: $GPGSA,A,3,8,10,15,18,20,21,24,27,32,14,138,,2.0,0.8,1.5*34
2017-12-01 13:14:17 1512152057.710148: $GPGSV,3,1,12,08,06,321,41,10,42,301,45,15,36,052,46,18,72,339,44*76
2017-12-01 13:14:17 1512152057.710333: $GPGSV,3,2,12,20,33,096,47,21,62,189,44,24,51,108,46,27,19,288,36*71
2017-12-01 13:14:17 1512152057.710402: $GPGSV,3,3,12,32,22,238,38,13,07,049,12,14,05,232,22,138,38,213,46*42
2017-12-01 13:14:17 1512152057.824835: $GPZDA,181418.00,01,12,2017,00,00*65
2017-12-01 13:14:17 1512152057.825017: $GPGGA,181418,3946.9573,N,08404.9840,W,2,11,0.80,313.29,M,-33.324,M,,*71
2017-12-01 13:14:17 1512152057.825085: $GPRMC,181418,A,3946.9573,N,08404.9840,W,0.0000,0.000,011217,,*33
2017-12-01 13:14:17 1512152057.825147: $GPGSA,A,3,8,10,15,18,20,21,24,27,32,14,138,,2.0,0.8,1.5*34
2017-12-01 13:14:18 1512152058.449210: $GPZDA,181419.00,01,12,2017,00,00*64
2017-12-01 13:14:18 1512152058.449384: $GPGGA,181419,3946.9573,N,08404.9840,W,2,11,0.80,313.29,M,-33.324,M,,*70
2017-12-01 13:14:18 1512152058.449452: $GPRMC,181419,A,3946.9573,N,08404.9840,W,0.0000,0.000,011217,,*32
2017-12-01 13:14:18 1512152058.449531: $GPGSA,A,3,8,10,15,18,20,21,24,27,32,14,138,,2.0,0.8,1.5*34
2017-12-01 13:14:19 1512152059.381202: $GPZDA,181420.00,01,12,2017,00,00*6E
2017-12-01 13:14:19 1512152059.381420: $GPGGA,181420,3946.9573,N,08404.9840,W,2,11,0.80,313.29,M,-33.324,M,,*7A
2017-12-01 13:14:19 1512152059.381497: $GPRMC,181420,A,3946.9573,N,08404.9840,W,0.0000,0.000,011217,,*38
2017-12-01 13:14:19 1512152059.381559: $GPGSA,A,3,8,10,15,18,20,21,24,27,32,14,138,,2.0,0.8,1.5*34
2017-12-01 13:14:20 1512152060.710450: $GPGSV,3,1,12,08,06,321,41,10,42,301,44,15,36,052,46,18,72,339,43*70
2017-12-01 13:14:20 1512152060.783517: $GPGSV,3,2,12,20,33,096,46,21,62,189,44,24,51,108,46,27,19,288,36*70
2017-12-01 13:14:20 1512152060.783668: $GPGSV,3,3,12,32,22,238,38,13,07,049,23,14,05,232,22,138,38,213,46*40
2017-12-01 13:14:20 1512152060.824250: $GPZDA,181421.00,01,12,2017,00,00*6F
2017-12-01 13:14:20 1512152060.824394: $GPGGA,181421,3946.9573,N,08404.9840,W,2,12,0.80,313.29,M,-33.324,M,,*78
2017-12-01 13:14:20 1512152060.824459: $GPRMC,181421,A,3946.9573,N,08404.9840,W,0.0000,0.000,011217,,*39
2017-12-01 13:14:20 1512152060.824521: $GPGSA,A,3,8,10,15,18,20,21,24,27,32,13,14,138,2.0,0.8,1.5*36
2017-12-01 13:14:21 1512152061.375398: $GPZDA,181422.00,01,12,2017,00,00*6C
2017-12-01 13:14:21 1512152061.375591: $GPGGA,181422,3946.9573,N,08404.9840,W,2,12,0.80,313.29,M,-33.324,M,,*7B
2017-12-01 13:14:21 1512152061.375666: $GPRMC,181422,A,3946.9573,N,08404.9840,W,0.0000,0.000,011217,,*3A
2017-12-01 13:14:21 1512152061.375729: $GPGSA,A,3,8,10,15,18,20,21,24,27,32,13,14,138,2.0,0.8,1.5*36
2017-12-01 13:14:22 1512152062.375987: $GPZDA,181423.00,01,12,2017,00,00*6D
2017-12-01 13:14:22 1512152062.376161: $GPGGA,181423,3946.9573,N,08404.9840,W,2,12,0.80,313.29,M,-33.324,M,,*7A
2017-12-01 13:14:22 1512152062.376229: $GPRMC,181423,A,3946.9573,N,08404.9840,W,0.0000,0.000,011217,,*3B
2017-12-01 13:14:22 1512152062.376290: $GPGSA,A,3,8,10,15,18,20,21,24,27,32,13,14,138,2.0,0.8,1.5*36
2017-12-01 13:14:23 1512152063.710831: $GPGSV,3,1,12,08,06,321,40,10,42,301,44,15,36,052,46,18,72,339,43*71
2017-12-01 13:14:23 1512152063.711082: $GPGSV,3,2,12,20,33,096,46,21,62,189,44,24,51,108,47,27,19,288,36*71
2017-12-01 13:14:23 1512152063.711153: $GPGSV,3,3,12,32,22,238,38,13,07,049,24,14,05,232,18,138,38,213,46*4E
2017-12-01 13:14:23 1512152063.824556: $GPZDA,181424.00,01,12,2017,00,00*6A
2017-12-01 13:14:23 1512152063.824730: $GPGGA,181424,3946.9573,N,08404.9840,W,2,12,0.80,313.29,M,-33.324,M,,*7D
2017-12-01 13:14:23 1512152063.824799: $GPRMC,181424,A,3946.9573,N,08404.9840,W,0.0000,0.000,011217,,*3C
2017-12-01 13:14:23 1512152063.824863: $GPGSA,A,3,8,10,15,18,20,21,24,27,32,13,14,138,2.0,0.8,1.5*36
2017-12-01 13:14:24 1512152064.374217: $GPZDA,181425.00,01,12,2017,00,00*6B
2017-12-01 13:14:24 1512152064.374387: $GPGGA,181425,3946.9573,N,08404.9840,W,2,12,0.80,313.29,M,-33.324,M,,*7C
2017-12-01 13:14:24 1512152064.374455: $GPRMC,181425,A,3946.9573,N,08404.9840,W,0.0000,0.000,011217,,*3D
2017-12-01 13:14:24 1512152064.374530: $GPGSA,A,3,8,10,15,18,20,21,24,27,32,13,14,138,2.0,0.8,1.5*36
2017-12-01 13:14:25 1512152065.374650: $GPZDA,181426.00,01,12,2017,00,00*68
2017-12-01 13:14:25 1512152065.374829: $GPGGA,181426,3946.9573,N,08404.9840,W,2,12,0.80,313.29,M,-33.324,M,,*7F
2017-12-01 13:14:25 1512152065.374899: $GPRMC,181426,A,3946.9573,N,08404.9840,W,0.0000,0.000,011217,,*3E
2017-12-01 13:14:25 1512152065.374981: $GPGSA,A,3,8,10,15,18,20,21,24,27,32,13,14,138,2.0,0.8,1.5*36
