2017-12-01 17:40:57 1512168057.217912: {"class":"VERSION","release":"3.16","rev":"3.16-4","proto_major":3,"proto_minor":11}
2017-12-01 17:40:57 1512168057.218286: {"class":"DEVICES","devices":[{"class":"DEVICE","path":"/dev/ttyUSB0","driver":"SiRF","subtype":"9\u0006GSD4e_4.1.2-P1_RPATCH.05-F-GPS-4R-1510281 11/03/2015 307","activated":"2017-12-01T22:40:57.197Z","flags":1,"native":1,"bps":4800,"parity":"N","stopbits":1,"cycle":1.00}]}
2017-12-01 17:40:57 1512168057.218398: {"class":"WATCH","enable":true,"json":false,"nmea":true,"raw":0,"scaled":false,"timing":false,"split24":false,"pps":false}
2017-12-01 17:40:57 1512168057.374283: $GPZDA,224058.00,01,12,2017,00,00*69
2017-12-01 17:40:57 1512168057.374457: $GPGGA,224058,3946.9723,N,08404.9846,W,2,12,0.80,297.08,M,-33.325,M,,*70
2017-12-01 17:40:57 1512168057.374523: $GPRMC,224058,A,3946.9723,N,08404.9846,W,0.0000,0.000,011217,,*3E
2017-12-01 17:40:57 1512168057.374584: $GPGSA,A,3,1,3,10,14,22,25,26,31,32,12,16,138,2.0,0.8,1.5*04
2017-12-01 17:40:58 1512168058.710447: $GPGSV,3,1,12,01,16,268,43,03,26,313,45,10,15,157,42,14,67,055,42*70
2017-12-01 17:40:58 1512168058.710646: $GPGSV,3,2,12,22,43,297,47,25,32,051,43,26,33,177,43,31,79,322,46*79
2017-12-01 17:40:58 1512168058.710715: $GPGSV,3,3,12,32,50,088,45,12,02,030,20,16,04,190,21,138,38,213,45*47
2017-12-01 17:40:58 1512168058.824102: $GPZDA,224059.00,01,12,2017,00,00*68
2017-12-01 17:40:58 1512168058.824273: $GPGGA,224059,3946.9723,N,08404.9846,W,2,12,0.80,297.08,M,-33.325,M,,*71
2017-12-01 17:40:58 1512168058.824339: $GPRMC,224059,A,3946.9723,N,08404.9846,W,0.0000,0.000,011217,,*3F
2017-12-01 17:40:58 1512168058.824401: $GPGSA,A,3,1,3,10,14,22,25,26,31,32,12,16,138,2.0,0.8,1.5*04
2017-12-01 17:40:59 1512168059.372553: $GPZDA,224100.00,01,12,2017,00,00*65
2017-12-01 17:40:59 1512168059.372727: $GPGGA,224100,3946.9720,N,08404.9847,W,2,12,0.80,297.85,M,-33.325,M,,*7B
2017-12-01 17:40:59 1512168059.372793: $GPRMC,224100,A,3946.9720,N,08404.9847,W,0.0000,0.000,011217,,*30
2017-12-01 17:40:59 1512168059.372854: $GPGSA,A,3,1,3,10,14,22,25,26,31,32,12,16,138,2.0,0.8,1.5*04
2017-12-01 17:41:00 1512168060.375861: $GPZDA,224101.00,01,12,2017,00,00*64
2017-12-01 17:41:00 1512168060.376024: $GPGGA,224101,3946.9720,N,08404.9847,W,2,12,0.80,297.85,M,-33.325,M,,*7A
2017-12-01 17:41:00 1512168060.376091: $GPRMC,224101,A,3946.9720,N,08404.9847,W,0.0000,0.000,011217,,*31
2017-12-01 17:41:00 1512168060.376152: $GPGSA,A,3,1,3,10,14,22,25,26,31,32,12,16,138,2.0,0.8,1.5*04
2017-12-01 17:41:01 1512168061.726300: $GPGSV,3,1,12,01,16,268,43,03,26,313,45,10,15,157,42,14,67,055,41*73
2017-12-01 17:41:01 1512168061.726478: $GPGSV,3,2,12,22,43,297,48,25,32,051,42,26,33,177,43,31,79,322,46*77
2017-12-01 17:41:01 1512168061.726545: $GPGSV,3,3,12,32,50,088,45,29,02,088,21,16,04,190,21,138,38,213,46*4E
2017-12-01 17:41:01 1512168061.839867: $GPZDA,224102.00,01,12,2017,00,00*67
2017-12-01 17:41:01 1512168061.840020: $GPGGA,224102,3946.9720,N,08404.9847,W,2,11,0.80,297.85,M,-33.325,M,,*7A
2017-12-01 17:41:01 1512168061.840086: $GPRMC,224102,A,3946.9720,N,08404.9847,W,0.0000,0.000,011217,,*32
2017-12-01 17:41:01 1512168061.840147: $GPGSA,A,3,1,3,10,14,22,25,26,31,32,16,138,,2.0,0.8,1.5*07
2017-12-01 17:41:02 1512168062.368307: $GPZDA,224103.00,01,12,2017,00,00*66
2017-12-01 17:41:02 1512168062.368476: $GPGGA,224103,3946.9720,N,08404.9847,W,2,11,0.80,297.85,M,-33.325,M,,*7B
2017-12-01 17:41:02 1512168062.368542: $GPRMC,224103,A,3946.9720,N,08404.9847,W,0.0000,0.000,011217,,*33
2017-12-01 17:41:02 1512168062.368603: $GPGSA,A,3,1,3,10,14,22,25,26,31,32,16,138,,2.0,0.8,1.5*07
2017-12-01 17:41:03 1512168063.394904: $GPZDA,224104.00,01,12,2017,00,00*61
2017-12-01 17:41:03 1512168063.395077: $GPGGA,224104,3946.9720,N,08404.9847,W,2,11,0.80,297.85,M,-33.325,M,,*7C
2017-12-01 17:41:03 1512168063.395166: $GPRMC,224104,A,3946.9720,N,08404.9847,W,0.0000,0.000,011217,,*34
2017-12-01 17:41:03 1512168063.395245: $GPGSA,A,3,1,3,10,14,22,25,26,31,32,16,138,,2.0,0.8,1.5*07
2017-12-01 17:41:04 1512168064.730280: $GPGSV,3,1,12,01,16,268,43,03,26,313,45,10,15,157,42,14,67,055,41*73
2017-12-01 17:41:04 1512168064.730511: $GPGSV,3,2,12,22,43,297,48,25,32,051,43,26,33,177,44,31,79,322,45*72
2017-12-01 17:41:04 1512168064.730581: $GPGSV,3,3,12,32,50,088,45,29,02,088,20,16,04,190,22,138,38,213,46*4C
2017-12-01 17:41:04 1512168064.843728: $GPZDA,224105.00,01,12,2017,00,00*60
2017-12-01 17:41:04 1512168064.843895: $GPGGA,224105,3946.9720,N,08404.9847,W,2,12,0.80,297.85,M,-33.325,M,,*7E
2017-12-01 17:41:04 1512168064.843963: $GPRMC,224105,A,3946.9720,N,08404.9847,W,0.0000,0.000,011217,,*35
2017-12-01 17:41:04 1512168064.844024: $GPGSA,A,3,1,3,10,14,22,25,26,31,32,29,16,138,2.0,0.8,1.5*0C
2017-12-01 17:41:05 1512168065.396307: $GPZDA,224106.00,01,12,2017,00,00*63
2017-12-01 17:41:05 1512168065.396478: $GPGGA,224106,3946.9720,N,08404.9847,W,2,12,0.80,297.85,M,-33.325,M,,*7D
2017-12-01 17:41:05 1512168065.396545: $GPRMC,224106,A,3946.9720,N,08404.9847,W,0.0000,0.000,011217,,*36
2017-12-01 17:41:05 1512168065.396606: $GPGSA,A,3,1,3,10,14,22,25,26,31,32,29,16,138,2.0,0.8,1.5*0C
2017-12-01 17:41:06 1512168066.397217: $GPZDA,224107.00,01,12,2017,00,00*62
2017-12-01 17:41:06 1512168066.397389: $GPGGA,224107,3946.9720,N,08404.9847,W,2,12,0.80,297.85,M,-33.325,M,,*7C
2017-12-01 17:41:06 1512168066.397456: $GPRMC,224107,A,3946.9720,N,08404.9847,W,0.0000,0.000,011217,,*37
2017-12-01 17:41:06 1512168066.397517: $GPGSA,A,3,1,3,10,14,22,25,26,31,32,29,16,138,2.0,0.8,1.5*0C
2017-12-01 17:41:07 1512168067.708738: $GPGSV,3,1,12,01,16,268,43,03,26,313,45,10,15,157,42,14,67,055,41*73
2017-12-01 17:41:07 1512168067.708930: $GPGSV,3,2,12,22,43,297,48,25,32,051,42,26,33,177,44,31,79,322,46*70
2017-12-01 17:41:07 1512168067.708998: $GPGSV,3,3,12,32,50,088,45,29,02,088,20,16,04,190,22,138,38,213,46*4C
2017-12-01 17:41:07 1512168067.822079: $GPZDA,224108.00,01,12,2017,00,00*6D
2017-12-01 17:41:07 1512168067.822258: $GPGGA,224108,3946.9720,N,08404.9847,W,2,12,0.80,297.85,M,-33.325,M,,*73
2017-12-01 17:41:07 1512168067.822325: $GPRMC,224108,A,3946.9720,N,08404.9847,W,0.0000,0.000,011217,,*38
2017-12-01 17:41:07 1512168067.822387: $GPGSA,A,3,1,3,10,14,22,25,26,31,32,29,16,138,2.0,0.8,1.5*0C
2017-12-01 17:41:08 1512168068.447383: $GPZDA,224109.00,01,12,2017,00,00*6C
2017-12-01 17:41:08 1512168068.447540: $GPGGA,224109,3946.9720,N,08404.9847,W,2,12,0.80,297.85,M,-33.325,M,,*72
2017-12-01 17:41:08 1512168068.447608: $GPRMC,224109,A,3946.9720,N,08404.9847,W,0.0000,0.000,011217,,*39
2017-12-01 17:41:08 1512168068.447669: $GPGSA,A,3,1,3,10,14,22,25,26,31,32,29,16,138,2.0,0.8,1.5*0C
2017-12-01 17:41:09 1512168069.374657: $GPZDA,224110.00,01,12,2017,00,00*64
2017-12-01 17:41:09 1512168069.374829: $GPGGA,224110,3946.9720,N,08404.9847,W,2,12,0.80,297.85,M,-33.325,M,,*7A
2017-12-01 17:41:09 1512168069.374897: $GPRMC,224110,A,3946.9720,N,08404.9847,W,0.0000,0.000,011217,,*31
2017-12-01 17:41:09 1512168069.374958: $GPGSA,A,3,1,3,10,14,22,25,26,31,32,29,16,138,2.0,0.8,1.5*0C
2017-12-01 17:41:10 1512168070.732692: $GPGSV,3,1,12,01,16,268,43,03,26,313,44,10,15,157,42,14,67,055,41*72
2017-12-01 17:41:10 1512168070.732871: $GPGSV,3,2,12,22,43,297,48,25,32,051,42,26,33,177,44,31,79,322,45*73
2017-12-01 17:41:10 1512168070.732936: $GPGSV,3,3,12,32,50,088,45,29,02,088,20,16,04,190,22,138,38,213,46*4C
2017-12-01 17:41:10 1512168070.847783: $GPZDA,224111.00,01,12,2017,00,00*65
2017-12-01 17:41:10 1512168070.847947: $GPGGA,224111,3946.9720,N,08404.9847,W,2,12,0.80,297.85,M,-33.325,M,,*7B
2017-12-01 17:41:10 1512168070.848043: $GPRMC,224111,A,3946.9720,N,08404.9847,W,0.0000,0.000,011217,,*30
2017-12-01 17:41:10 1512168070.848123: $GPGSA,A,3,1,3,10,14,22,25,26,31,32,29,16,138,2.0,0.8,1.5*0C
2017-12-01 17:41:11 1512168071.394477: $GPZDA,224112.00,01,12,2017,00,00*66
2017-12-01 17:41:11 1512168071.394646: $GPGGA,224112,3946.9720,N,08404.9847,W,2,12,0.80,297.85,M,-33.325,M,,*78
2017-12-01 17:41:11 1512168071.394713: $GPRMC,224112,A,3946.9720,N,08404.9847,W,0.0000,0.000,011217,,*33
2017-12-01 17:41:11 1512168071.394773: $GPGSA,A,3,1,3,10,14,22,25,26,31,32,29,16,138,2.0,0.8,1.5*0C
2017-12-01 17:41:12 1512168072.394073: $GPZDA,224113.00,01,12,2017,00,00*67
2017-12-01 17:41:12 1512168072.394284: $GPGGA,224113,3946.9720,N,08404.9847,W,2,12,0.80,297.85,M,-33.325,M,,*79
2017-12-01 17:41:12 1512168072.394354: $GPRMC,224113,A,3946.9720,N,08404.9847,W,0.0000,0.000,011217,,*32
2017-12-01 17:41:12 1512168072.394415: $GPGSA,A,3,1,3,10,14,22,25,26,31,32,29,16,138,2.0,0.8,1.5*0C
2017-12-01 17:41:13 1512168073.734411: $GPGSV,3,1,12,01,16,268,43,03,26,313,44,10,15,157,42,14,67,055,42*71
2017-12-01 17:41:13 1512168073.737539: $GPGSV,3,2,12,22,43,297,48,25,32,051,41,26,33,177,44,31,79,322,46*73
2017-12-01 17:41:13 1512168073.737738: $GPGSV,3,3,12,32,50,088,45,29,02,088,20,16,04,190,22,138,38,213,46*4C
2017-12-01 17:41:13 1512168073.846432: $GPZDA,224114.00,01,12,2017,00,00*60
2017-12-01 17:41:13 1512168073.846608: $GPGGA,224114,3946.9720,N,08404.9847,W,2,12,0.80,297.85,M,-33.325,M,,*7E
2017-12-01 17:41:13 1512168073.846675: $GPRMC,224114,A,3946.9720,N,08404.9847,W,0.0000,0.000,011217,,*35
2017-12-01 17:41:13 1512168073.846737: $GPGSA,A,3,1,3,10,14,22,25,26,31,32,29,16,138,2.0,0.8,1.5*0C
2017-12-01 17:41:14 1512168074.396070: $GPZDA,224115.00,01,12,2017,00,00*61
2017-12-01 17:41:14 1512168074.396243: $GPGGA,224115,3946.9720,N,08404.9847,W,2,12,0.80,297.85,M,-33.325,M,,*7F
2017-12-01 17:41:14 1512168074.396310: $GPRMC,224115,A,3946.9720,N,08404.9847,W,0.0000,0.000,011217,,*34
2017-12-01 17:41:14 1512168074.396371: $GPGSA,A,3,1,3,10,14,22,25,26,31,32,29,16,138,2.0,0.8,1.5*0C
2017-12-01 17:41:15 1512168075.396160: $GPZDA,224116.00,01,12,2017,00,00*62
2017-12-01 17:41:15 1512168075.396358: $GPGGA,224116,3946.9723,N,08404.9846,W,2,12,0.80,297.08,M,-33.325,M,,*7B
2017-12-01 17:41:15 1512168075.396425: $GPRMC,224116,A,3946.9723,N,08404.9846,W,0.0000,0.000,011217,,*35
2017-12-01 17:41:15 1512168075.396486: $GPGSA,A,3,1,3,10,14,22,25,26,31,32,29,16,138,2.0,0.8,1.5*0C
2017-12-01 17:41:16 1512168076.730089: $GPGSV,3,1,12,01,16,268,43,03,26,313,44,10,15,157,42,14,67,055,41*72
2017-12-01 17:41:16 1512168076.730272: $GPGSV,3,2,12,22,43,297,48,25,32,051,42,26,33,177,44,31,79,322,46*70
2017-12-01 17:41:16 1512168076.730339: $GPGSV,3,3,12,32,50,088,45,29,02,088,20,16,04,190,22,138,38,213,46*4C
2017-12-01 17:41:16 1512168076.843480: $GPZDA,224117.00,01,12,2017,00,00*63
2017-12-01 17:41:16 1512168076.843632: $GPGGA,224117,3946.9723,N,08404.9846,W,2,12,0.80,297.08,M,-33.325,M,,*7A
2017-12-01 17:41:16 1512168076.843699: $GPRMC,224117,A,3946.9723,N,08404.9846,W,0.0000,0.000,011217,,*34
2017-12-01 17:41:16 1512168076.843759: $GPGSA,A,3,1,3,10,14,22,25,26,31,32,29,16,138,2.0,0.8,1.5*0C
