2017-12-01 16:46:40 1512164800.966869: {"class":"VERSION","release":"3.16","rev":"3.16-4","proto_major":3,"proto_minor":11}
2017-12-01 16:46:40 1512164800.967311: {"class":"DEVICES","devices":[{"class":"DEVICE","path":"/dev/ttyUSB0","driver":"SiRF","subtype":"9\u0006GSD4e_4.1.2-P1_RPATCH.05-F-GPS-4R-1510281 11/03/2015 307","activated":"2017-12-01T21:46:40.751Z","flags":1,"native":1,"bps":4800,"parity":"N","stopbits":1,"cycle":1.00}]}
2017-12-01 16:46:40 1512164800.967457: {"class":"WATCH","enable":true,"json":false,"nmea":true,"raw":0,"scaled":false,"timing":false,"split24":false,"pps":false}
2017-12-01 16:46:41 1512164801.438283: $GPZDA,214642.00,01,12,2017,00,00*67
2017-12-01 16:46:41 1512164801.438458: $GPGGA,214642,3946.9645,N,08404.9761,W,2,12,0.80,295.78,M,-33.324,M,,*71
2017-12-01 16:46:41 1512164801.438525: $GPRMC,214642,A,3946.9645,N,08404.9761,W,0.0000,0.000,011217,,*3B
2017-12-01 16:46:41 1512164801.438586: $GPGSA,A,3,1,10,14,22,31,32,11,12,18,25,26,138,2.0,0.8,1.5*39
2017-12-01 16:46:42 1512164802.774007: $GPGSV,3,1,12,01,22,292,40,10,40,151,40,14,69,345,44,22,25,310,44*7D
2017-12-01 16:46:42 1512164802.774182: $GPGSV,3,2,12,31,64,232,50,32,65,046,48,11,06,276,23,12,19,043,21*7A
2017-12-01 16:46:42 1512164802.774248: $GPGSV,3,3,12,18,11,145,18,25,41,081,18,26,09,181,28,138,38,213,35*40
2017-12-01 16:46:42 1512164802.887349: $GPZDA,214643.00,01,12,2017,00,00*66
2017-12-01 16:46:42 1512164802.887549: $GPGGA,214643,3946.9645,N,08404.9761,W,2,12,0.80,295.78,M,-33.324,M,,*70
2017-12-01 16:46:42 1512164802.887618: $GPRMC,214643,A,3946.9645,N,08404.9761,W,0.0000,0.000,011217,,*3A
2017-12-01 16:46:42 1512164802.887703: $GPGSA,A,3,1,10,14,22,31,32,11,12,18,25,26,138,2.0,0.8,1.5*39
2017-12-01 16:46:43 1512164803.435736: $GPZDA,214644.00,01,12,2017,00,00*61
2017-12-01 16:46:43 1512164803.435968: $GPGGA,214644,3946.9645,N,08404.9761,W,2,12,0.80,295.78,M,-33.324,M,,*77
2017-12-01 16:46:43 1512164803.436039: $GPRMC,214644,A,3946.9645,N,08404.9761,W,0.0000,0.000,011217,,*3D
2017-12-01 16:46:43 1512164803.436100: $GPGSA,A,3,1,10,14,22,31,32,11,12,18,25,26,138,2.0,0.8,1.5*39
2017-12-01 16:46:44 1512164804.435362: $GPZDA,214645.00,01,12,2017,00,00*60
2017-12-01 16:46:44 1512164804.435563: $GPGGA,214645,3946.9645,N,08404.9761,W,2,12,0.80,295.78,M,-33.324,M,,*76
2017-12-01 16:46:44 1512164804.435651: $GPRMC,214645,A,3946.9645,N,08404.9761,W,0.0000,0.000,011217,,*3C
2017-12-01 16:46:44 1512164804.435714: $GPGSA,A,3,1,10,14,22,31,32,11,12,18,25,26,138,2.0,0.8,1.5*39
2017-12-01 16:46:45 1512164805.774958: $GPGSV,3,1,12,01,22,292,41,10,40,151,40,14,69,345,44,22,25,310,43*7B
2017-12-01 16:46:45 1512164805.775147: $GPGSV,3,2,12,31,64,232,50,32,65,046,48,11,06,276,27,12,19,043,21*7E
2017-12-01 16:46:45 1512164805.775214: $GPGSV,3,3,12,18,11,145,18,25,41,081,21,26,09,181,28,138,38,213,39*46
2017-12-01 16:46:45 1512164805.888416: $GPZDA,214646.00,01,12,2017,00,00*63
2017-12-01 16:46:45 1512164805.888591: $GPGGA,214646,3946.9645,N,08404.9761,W,2,12,0.80,295.78,M,-33.324,M,,*75
2017-12-01 16:46:45 1512164805.888678: $GPRMC,214646,A,3946.9645,N,08404.9761,W,0.0000,0.000,011217,,*3F
2017-12-01 16:46:45 1512164805.888741: $GPGSA,A,3,1,10,14,22,31,32,11,12,18,25,26,138,2.0,0.8,1.5*39
2017-12-01 16:46:46 1512164806.514003: $GPZDA,214647.00,01,12,2017,00,00*62
2017-12-01 16:46:46 1512164806.514184: $GPGGA,214647,3946.9645,N,08404.9761,W,2,12,0.80,295.78,M,-33.324,M,,*74
2017-12-01 16:46:46 1512164806.514251: $GPRMC,214647,A,3946.9645,N,08404.9761,W,0.0000,0.000,011217,,*3E
2017-12-01 16:46:46 1512164806.514311: $GPGSA,A,3,1,10,14,22,31,32,11,12,18,25,26,138,2.0,0.8,1.5*39
2017-12-01 16:46:47 1512164807.437000: $GPZDA,214648.00,01,12,2017,00,00*6D
2017-12-01 16:46:47 1512164807.437173: $GPGGA,214648,3946.9645,N,08404.9761,W,2,12,0.80,295.78,M,-33.324,M,,*7B
2017-12-01 16:46:47 1512164807.437239: $GPRMC,214648,A,3946.9645,N,08404.9761,W,0.0000,0.000,011217,,*31
2017-12-01 16:46:47 1512164807.437300: $GPGSA,A,3,1,10,14,22,31,32,11,12,18,25,26,138,2.0,0.8,1.5*39
2017-12-01 16:46:48 1512164808.775202: $GPGSV,3,1,12,01,22,292,41,10,40,151,40,14,69,345,44,22,25,310,43*7B
2017-12-01 16:46:48 1512164808.775401: $GPGSV,3,2,12,31,64,232,50,32,65,046,48,11,06,276,28,12,19,043,20*70
2017-12-01 16:46:48 1512164808.775469: $GPGSV,3,3,12,18,11,145,18,25,41,081,22,26,09,181,28,138,38,213,40*4B
2017-12-01 16:46:48 1512164808.887354: $GPZDA,214649.00,01,12,2017,00,00*6C
2017-12-01 16:46:48 1512164808.887536: $GPGGA,214649,3946.9647,N,08404.9746,W,2,12,0.80,295.18,M,-33.324,M,,*7B
2017-12-01 16:46:48 1512164808.887603: $GPRMC,214649,A,3946.9647,N,08404.9746,W,0.2422,93.794,011217,,*01
2017-12-01 16:46:48 1512164808.887665: $GPGSA,A,3,1,10,14,22,31,32,11,12,18,25,26,138,2.0,0.8,1.5*39
2017-12-01 16:46:49 1512164809.439554: $GPZDA,214650.00,01,12,2017,00,00*64
2017-12-01 16:46:49 1512164809.439730: $GPGGA,214650,3946.9647,N,08404.9746,W,2,12,0.80,295.18,M,-33.324,M,,*73
2017-12-01 16:46:49 1512164809.439797: $GPRMC,214650,A,3946.9647,N,08404.9746,W,0.0000,0.000,011217,,*3F
2017-12-01 16:46:49 1512164809.439859: $GPGSA,A,3,1,10,14,22,31,32,11,12,18,25,26,138,2.0,0.8,1.5*39
2017-12-01 16:46:50 1512164810.439515: $GPZDA,214651.00,01,12,2017,00,00*65
2017-12-01 16:46:50 1512164810.439694: $GPGGA,214651,3946.9651,N,08404.9746,W,2,12,0.80,295.82,M,-33.324,M,,*76
2017-12-01 16:46:50 1512164810.439760: $GPRMC,214651,A,3946.9651,N,08404.9746,W,0.0000,0.000,011217,,*39
2017-12-01 16:46:50 1512164810.439820: $GPGSA,A,3,1,10,14,22,31,32,11,12,18,25,26,138,2.0,0.8,1.5*39
2017-12-01 16:46:51 1512164811.773131: $GPGSV,3,1,12,01,22,292,41,10,40,151,40,14,69,345,44,22,25,310,44*7C
2017-12-01 16:46:51 1512164811.773330: $GPGSV,3,2,12,31,64,232,50,32,65,046,48,11,06,276,32,12,19,043,20*7B
2017-12-01 16:46:51 1512164811.773400: $GPGSV,3,3,12,18,11,145,19,25,41,081,26,26,09,181,28,138,38,213,39*40
2017-12-01 16:46:51 1512164811.886756: $GPZDA,214652.00,01,12,2017,00,00*66
2017-12-01 16:46:51 1512164811.886911: $GPGGA,214652,3946.9651,N,08404.9746,W,2,12,0.80,295.82,M,-33.324,M,,*75
2017-12-01 16:46:51 1512164811.886981: $GPRMC,214652,A,3946.9651,N,08404.9746,W,0.0000,0.000,011217,,*3A
2017-12-01 16:46:51 1512164811.887045: $GPGSA,A,3,1,10,14,22,31,32,11,12,18,25,26,138,2.0,0.8,1.5*39
2017-12-01 16:46:52 1512164812.437656: $GPZDA,214653.00,01,12,2017,00,00*67
2017-12-01 16:46:52 1512164812.437815: $GPGGA,214653,3946.9651,N,08404.9746,W,2,12,0.80,295.82,M,-33.324,M,,*74
2017-12-01 16:46:52 1512164812.437885: $GPRMC,214653,A,3946.9651,N,08404.9746,W,0.0000,0.000,011217,,*3B
2017-12-01 16:46:52 1512164812.437949: $GPGSA,A,3,1,10,14,22,31,32,11,12,18,25,26,138,2.0,0.8,1.5*39
2017-12-01 16:46:53 1512164813.438293: $GPZDA,214654.00,01,12,2017,00,00*60
2017-12-01 16:46:53 1512164813.438468: $GPGGA,214654,3946.9651,N,08404.9746,W,2,12,0.80,295.82,M,-33.324,M,,*73
2017-12-01 16:46:53 1512164813.438538: $GPRMC,214654,A,3946.9651,N,08404.9746,W,0.0000,0.000,011217,,*3C
2017-12-01 16:46:53 1512164813.438602: $GPGSA,A,3,1,10,14,22,31,32,11,12,18,25,26,138,2.0,0.8,1.5*39
2017-12-01 16:46:54 1512164814.775178: $GPGSV,3,1,12,01,22,292,41,10,40,151,41,14,69,345,44,22,25,310,43*7A
2017-12-01 16:46:54 1512164814.775367: $GPGSV,3,2,12,31,64,232,50,32,65,046,47,11,06,276,36,12,19,043,19*7A
2017-12-01 16:46:54 1512164814.775439: $GPGSV,3,3,12,18,11,145,19,25,41,081,25,26,09,181,29,138,38,213,38*43
2017-12-01 16:46:54 1512164814.888690: $GPZDA,214655.00,01,12,2017,00,00*61
2017-12-01 16:46:54 1512164814.888869: $GPGGA,214655,3946.9651,N,08404.9746,W,2,12,0.80,295.82,M,-33.324,M,,*72
2017-12-01 16:46:54 1512164814.888938: $GPRMC,214655,A,3946.9651,N,08404.9746,W,0.0000,0.000,011217,,*3D
2017-12-01 16:46:54 1512164814.889001: $GPGSA,A,3,1,10,14,22,31,32,11,12,18,25,26,138,2.0,0.8,1.5*39
2017-12-01 16:46:55 1512164815.436941: $GPZDA,214656.00,01,12,2017,00,00*62
2017-12-01 16:46:55 1512164815.437132: $GPGGA,214656,3946.9651,N,08404.9746,W,2,12,0.80,295.82,M,-33.324,M,,*71
2017-12-01 16:46:55 1512164815.437225: $GPRMC,214656,A,3946.9651,N,08404.9746,W,0.0000,0.000,011217,,*3E
2017-12-01 16:46:55 1512164815.437292: $GPGSA,A,3,1,10,14,22,31,32,11,12,18,25,26,138,2.0,0.8,1.5*39
2017-12-01 16:46:56 1512164816.437313: $GPZDA,214657.00,01,12,2017,00,00*63
2017-12-01 16:46:56 1512164816.437491: $GPGGA,214657,3946.9651,N,08404.9746,W,2,12,0.80,295.82,M,-33.324,M,,*70
2017-12-01 16:46:56 1512164816.437558: $GPRMC,214657,A,3946.9651,N,08404.9746,W,0.0000,0.000,011217,,*3F
2017-12-01 16:46:56 1512164816.437619: $GPGSA,A,3,1,10,14,22,31,32,11,12,18,25,26,138,2.0,0.8,1.5*39
2017-12-01 16:46:57 1512164817.774288: $GPGSV,3,1,12,01,22,292,40,10,40,151,41,14,69,345,44,22,25,310,44*7C
2017-12-01 16:46:57 1512164817.774469: $GPGSV,3,2,12,31,64,232,50,32,65,046,47,11,06,276,36,12,19,043,18*7B
2017-12-01 16:46:57 1512164817.774536: $GPGSV,3,3,12,18,11,145,19,25,41,081,18,26,09,181,29,138,38,213,40*42
2017-12-01 16:46:57 1512164817.887822: $GPZDA,214658.00,01,12,2017,00,00*6C
2017-12-01 16:46:57 1512164817.887995: $GPGGA,214658,3946.9656,N,08404.9746,W,2,12,0.80,296.46,M,-33.324,M,,*73
2017-12-01 16:46:57 1512164817.888063: $GPRMC,214658,A,3946.9656,N,08404.9746,W,0.0000,0.000,011217,,*37
2017-12-01 16:46:57 1512164817.888125: $GPGSA,A,3,1,10,14,22,31,32,11,12,18,25,26,138,2.0,0.8,1.5*39
2017-12-01 16:46:58 1512164818.438588: $GPZDA,214659.00,01,12,2017,00,00*6D
2017-12-01 16:46:58 1512164818.438759: $GPGGA,214659,3946.9656,N,08404.9746,W,2,12,0.80,296.46,M,-33.324,M,,*72
2017-12-01 16:46:58 1512164818.438826: $GPRMC,214659,A,3946.9656,N,08404.9746,W,0.0000,0.000,011217,,*36
2017-12-01 16:46:58 1512164818.438886: $GPGSA,A,3,1,10,14,22,31,32,11,12,18,25,26,138,2.0,0.8,1.5*39
2017-12-01 16:46:59 1512164819.436921: $GPZDA,214700.00,01,12,2017,00,00*60
2017-12-01 16:46:59 1512164819.437094: $GPGGA,214700,3946.9652,N,08404.9747,W,2,12,0.80,297.22,M,-33.324,M,,*79
2017-12-01 16:46:59 1512164819.437161: $GPRMC,214700,A,3946.9652,N,08404.9747,W,0.0000,0.000,011217,,*3E
2017-12-01 16:46:59 1512164819.437223: $GPGSA,A,3,1,10,14,22,31,32,11,12,18,25,26,138,2.0,0.8,1.5*39
2017-12-01 16:47:00 1512164820.771513: $GPGSV,3,1,12,01,22,292,40,10,40,151,42,14,69,345,44,22,25,310,44*7F
2017-12-01 16:47:00 1512164820.771686: $GPGSV,3,2,12,31,64,232,49,32,65,046,47,11,06,276,36,12,19,043,16*7D
2017-12-01 16:47:00 1512164820.771752: $GPGSV,3,3,12,18,11,145,19,25,41,081,16,26,09,181,29,138,38,213,40*4C
2017-12-01 16:47:00 1512164820.885203: $GPZDA,214701.00,01,12,2017,00,00*61
2017-12-01 16:47:00 1512164820.885370: $GPGGA,214701,3946.9652,N,08404.9747,W,2,12,0.80,297.22,M,-33.324,M,,*78
2017-12-01 16:47:00 1512164820.885436: $GPRMC,214701,A,3946.9652,N,08404.9747,W,0.0000,0.000,011217,,*3F
2017-12-01 16:47:00 1512164820.885514: $GPGSA,A,3,1,10,14,22,31,32,11,12,18,25,26,138,2.0,0.8,1.5*39
