2017-12-14 12:04:27 1513271067.322243: {"class":"VERSION","release":"3.16","rev":"3.16-4","proto_major":3,"proto_minor":11}
2017-12-14 12:04:27 1513271067.322640: {"class":"DEVICES","devices":[{"class":"DEVICE","path":"/dev/ttyUSB0","driver":"SiRF","subtype":"9\u0006GSD4e_4.1.2-P1_RPATCH.05-F-GPS-4R-1510281 11/03/2015 307","activated":"2017-12-14T17:04:27.297Z","flags":1,"native":1,"bps":4800,"parity":"N","stopbits":1,"cycle":1.00}]}
2017-12-14 12:04:27 1513271067.322767: {"class":"WATCH","enable":true,"json":false,"nmea":true,"raw":0,"scaled":false,"timing":false,"split24":false,"pps":false}
2017-12-14 12:04:28 1513271068.521174: $GPGSV,3,1,11,21,69,195,23,24,47,120,24,15,43,051,24,10,37,297,04*77
2017-12-14 12:04:28 1513271068.521331: $GPGSV,3,2,11,20,39,090,20,32,16,234,16,27,19,295,12,13,13,046,02*7F
2017-12-14 12:04:28 1513271068.521397: $GPGSV,3,3,11,18,67,325,00,08,03,327,00,138,38,213,00*79
2017-12-14 12:04:28 1513271068.634767: $GPZDA,170429.00,14,12,2017,00,00*6D
2017-12-14 12:04:28 1513271068.634934: $GPGGA,170429,3946.9560,N,08404.9345,W,1,06,3.00,345.76,M,-33.324,M,,*76
2017-12-14 12:04:28 1513271068.635001: $GPRMC,170429,A,3946.9560,N,08404.9345,W,2.2282,146.659,141217,,*36
2017-12-14 12:04:28 1513271068.635062: $GPGSA,A,3,21,24,15,20,32,27,,,,,,,6.6,3.0,6.2*32
2017-12-14 12:04:29 1513271069.182558: $GPZDA,170430.00,14,12,2017,00,00*65
2017-12-14 12:04:29 1513271069.182730: $GPGGA,170430,3946.9553,N,08404.9340,W,1,06,3.00,347.36,M,-33.324,M,,*7D
2017-12-14 12:04:29 1513271069.182797: $GPRMC,170430,A,3946.9553,N,08404.9340,W,1.3932,145.388,141217,,*33
2017-12-14 12:04:29 1513271069.182858: $GPGSA,A,3,21,24,15,20,32,27,,,,,,,6.6,3.0,6.2*32
2017-12-14 12:04:30 1513271070.181097: $GPZDA,170431.00,14,12,2017,00,00*64
2017-12-14 12:04:30 1513271070.181270: $GPGGA,170431,3946.9557,N,08404.9339,W,1,06,3.00,346.60,M,-33.324,M,,*74
2017-12-14 12:04:30 1513271070.181336: $GPRMC,170431,A,3946.9557,N,08404.9339,W,0.7627,173.119,141217,,*39
2017-12-14 12:04:30 1513271070.181401: $GPGSA,A,3,21,24,15,20,32,27,,,,,,,6.6,3.0,6.2*32
2017-12-14 12:04:31 1513271071.517351: $GPGSV,3,1,11,21,69,195,23,24,47,120,25,15,43,051,24,18,67,325,00*77
2017-12-14 12:04:31 1513271071.517538: $GPGSV,3,2,11,20,39,090,20,32,16,234,16,27,19,295,13,13,13,046,13*7E
2017-12-14 12:04:31 1513271071.517603: $GPGSV,3,3,11,10,37,297,00,08,03,327,00,138,38,213,00*7C
2017-12-14 12:04:31 1513271071.630740: $GPZDA,170432.00,14,12,2017,00,00*67
2017-12-14 12:04:31 1513271071.630883: $GPGGA,170432,3946.9550,N,08404.9341,W,1,06,3.00,348.13,M,-33.324,M,,*75
2017-12-14 12:04:31 1513271071.630948: $GPRMC,170432,A,3946.9550,N,08404.9341,W,0.9777,161.636,141217,,*31
2017-12-14 12:04:31 1513271071.631010: $GPGSA,A,3,21,24,15,20,32,27,,,,,,,6.6,3.0,6.2*32
2017-12-14 12:04:32 1513271072.183051: $GPZDA,170433.00,14,12,2017,00,00*66
2017-12-14 12:04:32 1513271072.183214: $GPGGA,170433,3946.9553,N,08404.9333,W,1,06,3.00,347.44,M,-33.324,M,,*7F
2017-12-14 12:04:32 1513271072.183283: $GPRMC,170433,A,3946.9553,N,08404.9333,W,1.5553,138.378,141217,,*3C
2017-12-14 12:04:32 1513271072.183344: $GPGSA,A,3,21,24,15,20,32,27,,,,,,,6.6,3.0,6.2*32
2017-12-14 12:04:33 1513271073.183115: $GPZDA,170434.00,14,12,2017,00,00*61
2017-12-14 12:04:33 1513271073.183283: $GPGGA,170434,3946.9547,N,08404.9314,W,1,06,3.00,337.77,M,-33.324,M,,*7F
2017-12-14 12:04:33 1513271073.183351: $GPRMC,170434,A,3946.9547,N,08404.9314,W,1.4068,140.673,141217,,*36
2017-12-14 12:04:33 1513271073.183415: $GPGSA,A,3,21,24,15,20,32,27,,,,,,,6.6,3.0,6.2*32
2017-12-14 12:04:34 1513271074.517954: $GPGSV,3,1,11,21,69,195,22,24,47,120,24,15,43,051,23,08,03,327,03*72
2017-12-14 12:04:34 1513271074.518148: $GPGSV,3,2,11,20,39,090,20,32,16,234,16,27,19,295,12,13,13,046,13*7F
2017-12-14 12:04:34 1513271074.518235: $GPGSV,3,3,11,18,67,325,00,10,37,297,00,138,38,213,00*7D
2017-12-14 12:04:34 1513271074.631584: $GPZDA,170435.00,14,12,2017,00,00*60
2017-12-14 12:04:34 1513271074.631755: $GPGGA,170435,3946.9551,N,08404.9314,W,1,07,3.00,338.41,M,-33.324,M,,*72
2017-12-14 12:04:34 1513271074.631821: $GPRMC,170435,A,3946.9551,N,08404.9314,W,0.9948,137.276,141217,,*36
2017-12-14 12:04:34 1513271074.631937: $GPGSA,A,3,21,24,15,20,32,27,13,,,,,,6.6,3.0,6.2*30
2017-12-14 12:04:35 1513271075.182768: $GPZDA,170436.00,14,12,2017,00,00*63
2017-12-14 12:04:35 1513271075.182914: $GPGGA,170436,3946.9551,N,08404.9314,W,1,07,3.00,338.41,M,-33.324,M,,*71
2017-12-14 12:04:35 1513271075.182982: $GPRMC,170436,A,3946.9551,N,08404.9314,W,1.1824,129.173,141217,,*3E
2017-12-14 12:04:35 1513271075.183044: $GPGSA,A,3,21,24,15,20,32,27,13,,,,,,6.6,3.0,6.2*30
2017-12-14 12:04:36 1513271076.182895: $GPZDA,170437.00,14,12,2017,00,00*62
2017-12-14 12:04:36 1513271076.183076: $GPGGA,170437,3946.9547,N,08404.9308,W,1,07,3.00,339.26,M,-33.324,M,,*7A
2017-12-14 12:04:36 1513271076.183147: $GPRMC,170437,A,3946.9547,N,08404.9308,W,1.7178,138.722,141217,,*31
2017-12-14 12:04:36 1513271076.183209: $GPGSA,A,3,21,24,15,20,32,27,13,,,,,,6.6,3.0,6.2*30
2017-12-14 12:04:37 1513271077.519859: $GPGSV,3,1,11,21,69,195,22,24,47,120,24,15,43,051,23,18,67,325,12*73
2017-12-14 12:04:37 1513271077.520037: $GPGSV,3,2,11,20,39,090,20,32,16,234,16,27,19,295,11,13,13,046,13*7C
2017-12-14 12:04:37 1513271077.520103: $GPGSV,3,3,11,10,37,297,00,08,03,327,00,138,38,213,00*7C
2017-12-14 12:04:37 1513271077.633420: $GPZDA,170438.00,14,12,2017,00,00*6D
2017-12-14 12:04:37 1513271077.633592: $GPGGA,170438,3946.9543,N,08404.9308,W,1,07,3.00,338.62,M,-33.324,M,,*70
2017-12-14 12:04:37 1513271077.633659: $GPRMC,170438,A,3946.9543,N,08404.9308,W,1.7178,138.722,141217,,*3A
2017-12-14 12:04:37 1513271077.633721: $GPGSA,A,3,21,24,15,20,32,27,13,,,,,,6.6,3.0,6.2*30
2017-12-14 12:04:38 1513271078.182255: $GPZDA,170439.00,14,12,2017,00,00*6C
2017-12-14 12:04:38 1513271078.182433: $GPGGA,170439,3946.9547,N,08404.9308,W,1,07,3.00,339.26,M,-33.324,M,,*74
2017-12-14 12:04:38 1513271078.182503: $GPRMC,170439,A,3946.9547,N,08404.9308,W,1.1124,122.165,141217,,*3E
2017-12-14 12:04:38 1513271078.182564: $GPGSA,A,3,21,24,15,20,32,27,13,,,,,,6.6,3.0,6.2*30
2017-12-14 12:04:39 1513271079.181022: $GPZDA,170440.00,14,12,2017,00,00*62
2017-12-14 12:04:39 1513271079.181210: $GPGGA,170440,3946.9552,N,08404.9315,W,1,07,3.00,339.82,M,-33.324,M,,*7C
2017-12-14 12:04:39 1513271079.181279: $GPRMC,170440,A,3946.9552,N,08404.9315,W,0.3006,242.540,141217,,*3C
2017-12-14 12:04:39 1513271079.181342: $GPGSA,A,3,21,24,15,20,32,27,13,,,,,,6.6,3.0,6.2*30
2017-12-14 12:04:40 1513271080.518465: $GPGSV,3,1,11,21,69,195,21,24,47,120,24,15,43,051,23,18,67,325,00*73
2017-12-14 12:04:40 1513271080.518646: $GPGSV,3,2,11,20,39,090,21,32,16,234,16,27,19,295,09,13,13,046,04*72
2017-12-14 12:04:40 1513271080.518730: $GPGSV,3,3,11,10,37,297,00,08,03,327,00,138,38,213,00*7C
2017-12-14 12:04:40 1513271080.631910: $GPZDA,170441.00,14,12,2017,00,00*63
2017-12-14 12:04:40 1513271080.632127: $GPGGA,170441,3946.9556,N,08404.9315,W,1,06,3.00,340.46,M,-33.324,M,,*7E
2017-12-14 12:04:40 1513271080.632198: $GPRMC,170441,A,3946.9556,N,08404.9315,W,0.5287,2.716,141217,,*33
2017-12-14 12:04:40 1513271080.632259: $GPGSA,A,3,21,24,15,20,32,27,,,,,,,6.6,3.0,6.2*32
2017-12-14 12:04:41 1513271081.182343: $GPZDA,170442.00,14,12,2017,00,00*60
2017-12-14 12:04:41 1513271081.182514: $GPGGA,170442,3946.9556,N,08404.9315,W,1,06,3.00,340.46,M,-33.324,M,,*7D
2017-12-14 12:04:41 1513271081.182580: $GPRMC,170442,A,3946.9556,N,08404.9315,W,0.5857,338.291,141217,,*37
2017-12-14 12:04:41 1513271081.182641: $GPGSA,A,3,21,24,15,20,32,27,,,,,,,6.6,3.0,6.2*32
2017-12-14 12:04:42 1513271082.181885: $GPZDA,170443.00,14,12,2017,00,00*61
2017-12-14 12:04:42 1513271082.182040: $GPGGA,170443,3946.9556,N,08404.9315,W,1,06,3.00,340.46,M,-33.324,M,,*7C
2017-12-14 12:04:42 1513271082.182172: $GPRMC,170443,A,3946.9556,N,08404.9315,W,0.3423,4.197,141217,,*36
2017-12-14 12:04:42 1513271082.182235: $GPGSA,A,3,21,24,15,20,32,27,,,,,,,6.6,3.0,6.2*32
2017-12-14 12:04:43 1513271083.519185: $GPGSV,3,1,11,21,69,195,21,24,47,120,25,15,43,051,23,18,67,325,00*72
2017-12-14 12:04:43 1513271083.519382: $GPGSV,3,2,11,20,39,090,21,32,16,234,16,27,19,295,07,13,13,046,12*7B
2017-12-14 12:04:43 1513271083.519504: $GPGSV,3,3,11,10,37,297,00,08,03,327,00,138,38,213,00*7C
2017-12-14 12:04:43 1513271083.632616: $GPZDA,170444.00,14,12,2017,00,00*66
2017-12-14 12:04:43 1513271083.632795: $GPGGA,170444,3946.9556,N,08404.9315,W,1,07,3.00,340.46,M,-33.324,M,,*7A
2017-12-14 12:04:43 1513271083.632862: $GPRMC,170444,A,3946.9556,N,08404.9315,W,0.0000,0.000,141217,,*3C
2017-12-14 12:04:43 1513271083.632923: $GPGSA,A,3,21,24,15,20,32,27,13,,,,,,6.6,3.0,6.2*30
2017-12-14 12:04:44 1513271084.183908: $GPZDA,170445.00,14,12,2017,00,00*67
2017-12-14 12:04:44 1513271084.184050: $GPGGA,170445,3946.9556,N,08404.9315,W,1,07,3.00,340.46,M,-33.324,M,,*7B
2017-12-14 12:04:44 1513271084.184116: $GPRMC,170445,A,3946.9556,N,08404.9315,W,0.5912,129.173,141217,,*3D
2017-12-14 12:04:44 1513271084.184177: $GPGSA,A,3,21,24,15,20,32,27,13,,,,,,6.6,3.0,6.2*30
2017-12-14 12:04:45 1513271085.184042: $GPZDA,170446.00,14,12,2017,00,00*64
2017-12-14 12:04:45 1513271085.185906: $GPGGA,170446,3946.9556,N,08404.9315,W,1,07,3.00,340.46,M,-33.324,M,,*78
2017-12-14 12:04:45 1513271085.185999: $GPRMC,170446,A,3946.9556,N,08404.9315,W,0.7621,107.945,141217,,*32
2017-12-14 12:04:45 1513271085.186063: $GPGSA,A,3,21,24,15,20,32,27,13,,,,,,6.6,3.0,6.2*30
2017-12-14 12:04:46 1513271086.518979: $GPGSV,3,1,11,21,69,195,20,24,47,120,25,15,43,051,22,18,67,325,00*72
2017-12-14 12:04:46 1513271086.519154: $GPGSV,3,2,11,20,39,090,21,32,16,234,16,27,19,295,10,13,13,046,12*7D
2017-12-14 12:04:46 1513271086.519221: $GPGSV,3,3,11,10,37,297,00,08,03,327,00,138,38,213,00*7C
2017-12-14 12:04:46 1513271086.632654: $GPZDA,170447.00,14,12,2017,00,00*65
2017-12-14 12:04:46 1513271086.632820: $GPGGA,170447,3946.9561,N,08404.9322,W,1,07,3.00,341.02,M,-33.324,M,,*78
2017-12-14 12:04:46 1513271086.632886: $GPRMC,170447,A,3946.9561,N,08404.9322,W,0.2422,93.795,141217,,*08
2017-12-14 12:04:46 1513271086.632947: $GPGSA,A,3,21,24,15,20,32,27,13,,,,,,6.6,3.0,6.2*30
2017-12-14 12:04:47 1513271087.183521: $GPZDA,170448.00,14,12,2017,00,00*6A
2017-12-14 12:04:47 1513271087.183692: $GPGGA,170448,3946.9565,N,08404.9322,W,1,07,3.00,341.66,M,-33.324,M,,*71
2017-12-14 12:04:47 1513271087.183759: $GPRMC,170448,A,3946.9565,N,08404.9322,W,0.3423,4.197,141217,,*39
2017-12-14 12:04:47 1513271087.183819: $GPGSA,A,3,21,24,15,20,32,27,13,,,,,,6.6,3.0,6.2*30
