2017-11-16 13:53:13 1510858393.198775: {"class":"VERSION","release":"3.17","rev":"3.17","proto_major":3,"proto_minor":12}
2017-11-16 13:53:13 1510858393.199313: {"class":"DEVICES","devices":[{"class":"DEVICE","path":"/dev/ttyUSB0","driver":"SiRF","subtype":"9\u0006GSD4e_4.1.2-P1_RPATCH.05-F-GPS-4R-1510281 11/03/2015 307","activated":"2017-11-16T18:53:13.177Z","flags":1,"native":1,"bps":4800,"parity":"N","stopbits":1,"cycle":1.00}]}
2017-11-16 13:53:13 1510858393.199486: {"class":"WATCH","enable":true,"json":false,"nmea":true,"raw":0,"scaled":false,"timing":false,"split24":false,"pps":false}
2017-11-16 13:53:13 1510858393.690716: $GPGSV,3,1,11,10,34,294,40,13,16,046,44,15,47,049,51,18,64,318,48*72
2017-11-16 13:53:13 1510858393.696022: $GPGSV,3,2,11,20,40,087,48,21,73,205,46,24,45,124,45,27,19,300,36*75
2017-11-16 13:53:13 1510858393.696125: $GPGSV,3,3,11,32,12,232,34,08,02,328,24,138,38,213,44*7B
2017-11-16 13:53:13 1510858393.804018: $GPZDA,185312.00,16,11,2017,00,00*69
2017-11-16 13:53:13 1510858393.804184: $GPGGA,185312,3946.9611,N,08404.9826,W,2,11,0.80,306.37,M,-33.324,M,,*74
2017-11-16 13:53:13 1510858393.804246: $GPRMC,185312,A,3946.9611,N,08404.9826,W,0.0000,0.000,161117,,*38
2017-11-16 13:53:13 1510858393.804302: $GPGSA,A,3,10,13,15,18,20,21,24,27,32,8,138,,1.6,0.8,1.3*30
2017-11-16 13:53:14 1510858394.378671: $GPZDA,185313.00,16,11,2017,00,00*68
2017-11-16 13:53:14 1510858394.378831: $GPGGA,185313,3946.9611,N,08404.9826,W,2,11,0.80,306.37,M,-33.324,M,,*75
2017-11-16 13:53:14 1510858394.378892: $GPRMC,185313,A,3946.9611,N,08404.9826,W,0.0000,0.000,161117,,*39
2017-11-16 13:53:14 1510858394.378948: $GPGSA,A,3,10,13,15,18,20,21,24,27,32,8,138,,1.6,0.8,1.3*30
2017-11-16 13:53:15 1510858395.379664: $GPZDA,185314.00,16,11,2017,00,00*6F
2017-11-16 13:53:15 1510858395.379816: $GPGGA,185314,3946.9611,N,08404.9826,W,2,11,0.80,306.37,M,-33.324,M,,*72
2017-11-16 13:53:15 1510858395.379877: $GPRMC,185314,A,3946.9611,N,08404.9826,W,0.0000,0.000,161117,,*3E
2017-11-16 13:53:15 1510858395.379933: $GPGSA,A,3,10,13,15,18,20,21,24,27,32,8,138,,1.6,0.8,1.3*30
2017-11-16 13:53:16 1510858396.690542: $GPGSV,3,1,11,10,34,294,40,13,16,046,44,15,47,049,51,18,64,318,48*72
2017-11-16 13:53:16 1510858396.690713: $GPGSV,3,2,11,20,40,087,48,21,73,205,47,24,45,124,45,27,19,300,34*76
2017-11-16 13:53:16 1510858396.690774: $GPGSV,3,3,11,32,12,232,34,08,02,328,25,138,38,213,44*7A
2017-11-16 13:53:16 1510858396.804210: $GPZDA,185315.00,16,11,2017,00,00*6E
2017-11-16 13:53:16 1510858396.804469: $GPGGA,185315,3946.9611,N,08404.9826,W,2,11,0.80,306.37,M,-33.324,M,,*73
2017-11-16 13:53:16 1510858396.804537: $GPRMC,185315,A,3946.9611,N,08404.9826,W,0.0000,0.000,161117,,*3F
2017-11-16 13:53:16 1510858396.804593: $GPGSA,A,3,10,13,15,18,20,21,24,27,32,8,138,,1.6,0.8,1.3*30
2017-11-16 13:53:17 1510858397.429252: $GPZDA,185316.00,16,11,2017,00,00*6D
2017-11-16 13:53:17 1510858397.429422: $GPGGA,185316,3946.9611,N,08404.9826,W,2,11,0.80,306.37,M,-33.324,M,,*70
2017-11-16 13:53:17 1510858397.429484: $GPRMC,185316,A,3946.9611,N,08404.9826,W,0.0000,0.000,161117,,*3C
2017-11-16 13:53:17 1510858397.429540: $GPGSA,A,3,10,13,15,18,20,21,24,27,32,8,138,,1.6,0.8,1.3*30
2017-11-16 13:53:18 1510858398.373979: $GPZDA,185317.00,16,11,2017,00,00*6C
2017-11-16 13:53:18 1510858398.374161: $GPGGA,185317,3946.9611,N,08404.9826,W,2,11,0.80,306.37,M,-33.324,M,,*71
2017-11-16 13:53:18 1510858398.374223: $GPRMC,185317,A,3946.9611,N,08404.9826,W,0.0000,0.000,161117,,*3D
2017-11-16 13:53:18 1510858398.374298: $GPGSA,A,3,10,13,15,18,20,21,24,27,32,8,138,,1.6,0.8,1.3*30
2017-11-16 13:53:19 1510858399.693567: $GPGSV,3,1,11,10,34,294,40,13,16,046,44,15,47,049,51,18,64,318,48*72
2017-11-16 13:53:19 1510858399.693738: $GPGSV,3,2,11,20,40,087,48,21,73,205,47,24,45,124,45,27,19,300,31*73
2017-11-16 13:53:19 1510858399.693797: $GPGSV,3,3,11,32,12,232,35,08,02,328,26,138,38,213,43*7F
2017-11-16 13:53:19 1510858399.805818: $GPZDA,185318.00,16,11,2017,00,00*63
2017-11-16 13:53:19 1510858399.805996: $GPGGA,185318,3946.9611,N,08404.9826,W,2,11,0.80,306.37,M,-33.324,M,,*7E
2017-11-16 13:53:19 1510858399.806109: $GPRMC,185318,A,3946.9611,N,08404.9826,W,0.0000,0.000,161117,,*32
2017-11-16 13:53:19 1510858399.806166: $GPGSA,A,3,10,13,15,18,20,21,24,27,32,8,138,,1.6,0.8,1.3*30
2017-11-16 13:53:20 1510858400.356611: $GPZDA,185319.00,16,11,2017,00,00*62
2017-11-16 13:53:20 1510858400.356768: $GPGGA,185319,3946.9611,N,08404.9826,W,2,11,1.00,306.37,M,-33.324,M,,*76
2017-11-16 13:53:20 1510858400.356830: $GPRMC,185319,A,3946.9611,N,08404.9826,W,0.0000,0.000,161117,,*33
2017-11-16 13:53:20 1510858400.356885: $GPGSA,A,3,10,13,15,18,20,21,24,27,32,8,138,,1.6,1.0,1.3*39
2017-11-16 13:53:21 1510858401.380024: $GPZDA,185320.00,16,11,2017,00,00*68
2017-11-16 13:53:21 1510858401.380184: $GPGGA,185320,3946.9611,N,08404.9826,W,2,11,0.80,306.37,M,-33.324,M,,*75
2017-11-16 13:53:21 1510858401.380245: $GPRMC,185320,A,3946.9611,N,08404.9826,W,0.0000,0.000,161117,,*39
2017-11-16 13:53:21 1510858401.380367: $GPGSA,A,3,10,13,15,18,20,21,24,27,32,8,138,,1.6,0.8,1.3*30
2017-11-16 13:53:22 1510858402.690429: $GPGSV,3,1,11,10,34,294,32,13,16,046,44,15,47,049,51,18,64,318,48*77
2017-11-16 13:53:22 1510858402.690597: $GPGSV,3,2,11,20,40,087,48,21,73,205,47,24,45,124,44,27,19,300,26*74
2017-11-16 13:53:22 1510858402.690659: $GPGSV,3,3,11,32,12,232,35,08,02,328,26,138,38,213,44*78
2017-11-16 13:53:22 1510858402.803828: $GPZDA,185321.00,16,11,2017,00,00*69
2017-11-16 13:53:22 1510858402.803995: $GPGGA,185321,3946.9611,N,08404.9826,W,2,11,0.80,306.37,M,-33.324,M,,*74
2017-11-16 13:53:22 1510858402.804058: $GPRMC,185321,A,3946.9611,N,08404.9826,W,0.0000,0.000,161117,,*38
2017-11-16 13:53:22 1510858402.804114: $GPGSA,A,3,10,13,15,18,20,21,24,27,32,8,138,,1.6,0.8,1.3*30
