2017-12-01 16:27:30 1512163650.016781: {"class":"VERSION","release":"3.16","rev":"3.16-4","proto_major":3,"proto_minor":11}
2017-12-01 16:27:30 1512163650.017186: {"class":"DEVICES","devices":[{"class":"DEVICE","path":"/dev/ttyUSB0","driver":"SiRF","subtype":"9\u0006GSD4e_4.1.2-P1_RPATCH.05-F-GPS-4R-1510281 11/03/2015 307","activated":"2017-12-01T21:27:29.692Z","flags":1,"native":1,"bps":4800,"parity":"N","stopbits":1,"cycle":1.00}]}
2017-12-01 16:27:30 1512163650.017309: {"class":"WATCH","enable":true,"json":false,"nmea":true,"raw":0,"scaled":false,"timing":false,"split24":false,"pps":false}
2017-12-01 16:27:30 1512163650.712664: $GPGSV,3,1,12,01,21,301,42,10,49,147,44,14,65,324,43,22,18,312,45*7C
2017-12-01 16:27:30 1512163650.712835: $GPGSV,3,2,12,25,39,093,33,31,55,223,50,32,69,025,49,11,09,283,34*7B
2017-12-01 16:27:30 1512163650.712903: $GPGSV,3,3,12,18,19,144,21,12,22,051,24,26,01,183,22,138,38,213,33*46
2017-12-01 16:27:30 1512163650.826170: $GPZDA,212731.00,01,12,2017,00,00*64
2017-12-01 16:27:30 1512163650.826372: $GPGGA,212731,3946.9640,N,08404.9734,W,2,12,0.80,298.27,M,-33.324,M,,*70
2017-12-01 16:27:30 1512163650.826440: $GPRMC,212731,A,3946.9640,N,08404.9734,W,0.0000,0.000,011217,,*3D
2017-12-01 16:27:30 1512163650.826519: $GPGSA,A,3,1,10,14,22,25,31,32,11,18,12,26,138,2.0,0.8,1.5*39
2017-12-01 16:27:31 1512163651.373198: $GPZDA,212732.00,01,12,2017,00,00*67
2017-12-01 16:27:31 1512163651.373390: $GPGGA,212732,3946.9640,N,08404.9734,W,2,12,0.80,298.27,M,-33.324,M,,*73
2017-12-01 16:27:31 1512163651.373484: $GPRMC,212732,A,3946.9640,N,08404.9734,W,0.0000,0.000,011217,,*3E
2017-12-01 16:27:31 1512163651.373546: $GPGSA,A,3,1,10,14,22,25,31,32,11,18,12,26,138,2.0,0.8,1.5*39
2017-12-01 16:27:32 1512163652.371831: $GPZDA,212733.00,01,12,2017,00,00*66
2017-12-01 16:27:32 1512163652.372165: $GPGGA,212733,3946.9640,N,08404.9734,W,2,12,0.80,298.27,M,-33.324,M,,*72
2017-12-01 16:27:32 1512163652.372290: $GPRMC,212733,A,3946.9640,N,08404.9734,W,0.0000,0.000,011217,,*3F
2017-12-01 16:27:32 1512163652.372423: $GPGSA,A,3,1,10,14,22,25,31,32,11,18,12,26,138,2.0,0.8,1.5*39
2017-12-01 16:27:33 1512163653.728551: $GPGSV,3,1,12,01,21,301,42,10,49,147,44,14,65,324,44,22,18,312,45*7B
2017-12-01 16:27:33 1512163653.728713: $GPGSV,3,2,12,25,39,093,33,31,55,223,50,32,69,025,49,11,09,283,34*7B
2017-12-01 16:27:33 1512163653.728779: $GPGSV,3,3,12,18,19,144,21,12,22,051,24,26,01,183,23,138,38,213,37*43
2017-12-01 16:27:33 1512163653.841970: $GPZDA,212734.00,01,12,2017,00,00*61
2017-12-01 16:27:33 1512163653.842119: $GPGGA,212734,3946.9640,N,08404.9734,W,2,12,0.80,298.27,M,-33.324,M,,*75
2017-12-01 16:27:33 1512163653.842184: $GPRMC,212734,A,3946.9640,N,08404.9734,W,0.0000,0.000,011217,,*38
2017-12-01 16:27:33 1512163653.842245: $GPGSA,A,3,1,10,14,22,25,31,32,11,18,12,26,138,2.0,0.8,1.5*39
2017-12-01 16:27:34 1512163654.392915: $GPZDA,212735.00,01,12,2017,00,00*60
2017-12-01 16:27:34 1512163654.393081: $GPGGA,212735,3946.9640,N,08404.9734,W,2,12,0.80,298.27,M,-33.324,M,,*74
2017-12-01 16:27:34 1512163654.393149: $GPRMC,212735,A,3946.9640,N,08404.9734,W,0.0000,0.000,011217,,*39
2017-12-01 16:27:34 1512163654.393210: $GPGSA,A,3,1,10,14,22,25,31,32,11,18,12,26,138,2.0,0.8,1.5*39
2017-12-01 16:27:35 1512163655.394483: $GPZDA,212736.00,01,12,2017,00,00*63
2017-12-01 16:27:35 1512163655.394665: $GPGGA,212736,3946.9640,N,08404.9734,W,2,12,0.80,298.27,M,-33.324,M,,*77
2017-12-01 16:27:35 1512163655.394733: $GPRMC,212736,A,3946.9640,N,08404.9734,W,0.0000,0.000,011217,,*3A
2017-12-01 16:27:35 1512163655.394795: $GPGSA,A,3,1,10,14,22,25,31,32,11,18,12,26,138,2.0,0.8,1.5*39
2017-12-01 16:27:36 1512163656.730222: $GPGSV,3,1,12,01,21,301,42,10,49,147,44,14,65,324,43,22,18,312,44*7D
2017-12-01 16:27:36 1512163656.730415: $GPGSV,3,2,12,25,39,093,33,31,55,223,49,32,69,025,49,11,09,283,34*73
2017-12-01 16:27:36 1512163656.730504: $GPGSV,3,3,12,18,19,144,15,12,22,051,20,26,01,183,24,138,38,213,39*49
2017-12-01 16:27:36 1512163656.843561: $GPZDA,212737.00,01,12,2017,00,00*62
2017-12-01 16:27:36 1512163656.843732: $GPGGA,212737,3946.9640,N,08404.9734,W,2,12,0.80,298.27,M,-33.324,M,,*76
2017-12-01 16:27:36 1512163656.843848: $GPRMC,212737,A,3946.9640,N,08404.9734,W,0.0000,0.000,011217,,*3B
2017-12-01 16:27:36 1512163656.843911: $GPGSA,A,3,1,10,14,22,25,31,32,11,18,12,26,138,2.0,0.8,1.5*39
2017-12-01 16:27:37 1512163657.393247: $GPZDA,212738.00,01,12,2017,00,00*6D
2017-12-01 16:27:37 1512163657.393427: $GPGGA,212738,3946.9640,N,08404.9734,W,2,12,0.80,298.27,M,-33.324,M,,*79
2017-12-01 16:27:37 1512163657.393494: $GPRMC,212738,A,3946.9640,N,08404.9734,W,0.0000,0.000,011217,,*34
2017-12-01 16:27:37 1512163657.393556: $GPGSA,A,3,1,10,14,22,25,31,32,11,18,12,26,138,2.0,0.8,1.5*39
2017-12-01 16:27:38 1512163658.376589: $GPZDA,212739.00,01,12,2017,00,00*6C
2017-12-01 16:27:38 1512163658.376766: $GPGGA,212739,3946.9640,N,08404.9734,W,2,12,0.80,298.27,M,-33.324,M,,*78
2017-12-01 16:27:38 1512163658.376832: $GPRMC,212739,A,3946.9640,N,08404.9734,W,0.0000,0.000,011217,,*35
2017-12-01 16:27:38 1512163658.376894: $GPGSA,A,3,1,10,14,22,25,31,32,11,18,12,26,138,2.0,0.8,1.5*39
2017-12-01 16:27:39 1512163659.713572: $GPGSV,3,1,12,01,21,301,43,10,49,147,44,14,65,324,43,22,18,312,44*7C
2017-12-01 16:27:39 1512163659.713769: $GPGSV,3,2,12,25,39,093,32,31,55,223,49,32,69,025,49,11,09,283,34*72
2017-12-01 16:27:39 1512163659.713838: $GPGSV,3,3,12,18,19,144,20,12,22,051,21,26,01,183,24,138,38,213,40*40
2017-12-01 16:27:39 1512163659.826910: $GPZDA,212740.00,01,12,2017,00,00*62
2017-12-01 16:27:39 1512163659.827087: $GPGGA,212740,3946.9640,N,08404.9734,W,2,12,0.80,298.27,M,-33.324,M,,*76
2017-12-01 16:27:39 1512163659.827154: $GPRMC,212740,A,3946.9640,N,08404.9734,W,0.0000,0.000,011217,,*3B
2017-12-01 16:27:39 1512163659.827215: $GPGSA,A,3,1,10,14,22,25,31,32,11,18,12,26,138,2.0,0.8,1.5*39
2017-12-01 16:27:40 1512163660.452314: $GPZDA,212741.00,01,12,2017,00,00*63
2017-12-01 16:27:40 1512163660.452493: $GPGGA,212741,3946.9640,N,08404.9734,W,2,12,0.80,298.27,M,-33.324,M,,*77
2017-12-01 16:27:40 1512163660.452559: $GPRMC,212741,A,3946.9640,N,08404.9734,W,0.0000,0.000,011217,,*3A
2017-12-01 16:27:40 1512163660.452620: $GPGSA,A,3,1,10,14,22,25,31,32,11,18,12,26,138,2.0,0.8,1.5*39
2017-12-01 16:27:41 1512163661.393232: $GPZDA,212742.00,01,12,2017,00,00*60
2017-12-01 16:27:41 1512163661.393413: $GPGGA,212742,3946.9640,N,08404.9734,W,2,12,0.80,298.27,M,-33.324,M,,*74
2017-12-01 16:27:41 1512163661.393480: $GPRMC,212742,A,3946.9640,N,08404.9734,W,0.0000,0.000,011217,,*39
2017-12-01 16:27:41 1512163661.393542: $GPGSA,A,3,1,10,14,22,25,31,32,11,18,12,26,138,2.0,0.8,1.5*39
2017-12-01 16:27:42 1512163662.723964: $GPGSV,3,1,12,01,21,301,43,10,49,147,44,14,65,324,43,22,18,312,45*7D
2017-12-01 16:27:42 1512163662.724144: $GPGSV,3,2,12,25,39,093,28,31,55,223,49,32,69,025,49,11,09,283,33*7E
2017-12-01 16:27:42 1512163662.724210: $GPGSV,3,3,12,18,19,144,21,12,22,051,22,26,01,183,25,138,38,213,38*4C
2017-12-01 16:27:42 1512163662.837794: $GPZDA,212743.00,01,12,2017,00,00*61
2017-12-01 16:27:42 1512163662.837976: $GPGGA,212743,3946.9640,N,08404.9734,W,2,12,0.80,298.27,M,-33.324,M,,*75
2017-12-01 16:27:42 1512163662.838044: $GPRMC,212743,A,3946.9640,N,08404.9734,W,0.0000,0.000,011217,,*38
2017-12-01 16:27:42 1512163662.838107: $GPGSA,A,3,1,10,14,22,25,31,32,11,18,12,26,138,2.0,0.8,1.5*39
2017-12-01 16:27:43 1512163663.395742: $GPZDA,212744.00,01,12,2017,00,00*66
2017-12-01 16:27:43 1512163663.395920: $GPGGA,212744,3946.9640,N,08404.9734,W,2,12,0.80,298.27,M,-33.324,M,,*72
2017-12-01 16:27:43 1512163663.395987: $GPRMC,212744,A,3946.9640,N,08404.9734,W,0.0000,0.000,011217,,*3F
2017-12-01 16:27:43 1512163663.396048: $GPGSA,A,3,1,10,14,22,25,31,32,11,18,12,26,138,2.0,0.8,1.5*39
2017-12-01 16:27:44 1512163664.395702: $GPZDA,212745.00,01,12,2017,00,00*67
2017-12-01 16:27:44 1512163664.395876: $GPGGA,212745,3946.9640,N,08404.9734,W,2,12,0.80,298.27,M,-33.324,M,,*73
2017-12-01 16:27:44 1512163664.395944: $GPRMC,212745,A,3946.9640,N,08404.9734,W,0.0000,0.000,011217,,*3E
2017-12-01 16:27:44 1512163664.396006: $GPGSA,A,3,1,10,14,22,25,31,32,11,18,12,26,138,2.0,0.8,1.5*39
2017-12-01 16:27:45 1512163665.712992: $GPGSV,3,1,12,01,21,301,42,10,49,147,44,14,65,324,42,22,18,312,45*7D
2017-12-01 16:27:45 1512163665.713179: $GPGSV,3,2,12,25,39,093,27,31,55,223,49,32,69,025,49,11,09,283,24*77
2017-12-01 16:27:45 1512163665.713243: $GPGSV,3,3,12,18,19,144,21,12,22,051,22,26,01,183,26,138,38,213,39*4E
2017-12-01 16:27:45 1512163665.826391: $GPZDA,212746.00,01,12,2017,00,00*64
2017-12-01 16:27:45 1512163665.826584: $GPGGA,212746,3946.9640,N,08404.9734,W,2,12,0.80,298.27,M,-33.324,M,,*70
2017-12-01 16:27:45 1512163665.826653: $GPRMC,212746,A,3946.9640,N,08404.9734,W,0.0000,0.000,011217,,*3D
2017-12-01 16:27:45 1512163665.826714: $GPGSA,A,3,1,10,14,22,25,31,32,11,18,12,26,138,2.0,0.8,1.5*39
2017-12-01 16:27:46 1512163666.393522: $GPZDA,212747.00,01,12,2017,00,00*65
2017-12-01 16:27:46 1512163666.393699: $GPGGA,212747,3946.9640,N,08404.9734,W,2,12,0.80,298.27,M,-33.324,M,,*71
2017-12-01 16:27:46 1512163666.393765: $GPRMC,212747,A,3946.9640,N,08404.9734,W,0.0000,0.000,011217,,*3C
2017-12-01 16:27:46 1512163666.393827: $GPGSA,A,3,1,10,14,22,25,31,32,11,18,12,26,138,2.0,0.8,1.5*39
2017-12-01 16:27:47 1512163667.394393: $GPZDA,212748.00,01,12,2017,00,00*6A
2017-12-01 16:27:47 1512163667.394572: $GPGGA,212748,3946.9640,N,08404.9734,W,2,12,0.80,298.27,M,-33.324,M,,*7E
2017-12-01 16:27:47 1512163667.394643: $GPRMC,212748,A,3946.9640,N,08404.9734,W,0.0000,0.000,011217,,*33
2017-12-01 16:27:47 1512163667.394705: $GPGSA,A,3,1,10,14,22,25,31,32,11,18,12,26,138,2.0,0.8,1.5*39
2017-12-01 16:27:48 1512163668.708882: $GPGSV,3,1,12,01,21,301,42,10,49,147,44,14,65,324,42,22,18,312,45*7D
2017-12-01 16:27:48 1512163668.709062: $GPGSV,3,2,12,25,39,093,28,31,55,223,49,32,69,025,49,11,09,283,23*7F
2017-12-01 16:27:48 1512163668.709130: $GPGSV,3,3,12,18,19,144,22,12,22,051,22,26,01,183,25,138,38,213,41*41
2017-12-01 16:27:48 1512163668.822335: $GPZDA,212749.00,01,12,2017,00,00*6B
2017-12-01 16:27:48 1512163668.822509: $GPGGA,212749,3946.9640,N,08404.9734,W,2,12,0.80,298.27,M,-33.324,M,,*7F
2017-12-01 16:27:48 1512163668.822576: $GPRMC,212749,A,3946.9640,N,08404.9734,W,0.0000,0.000,011217,,*32
2017-12-01 16:27:48 1512163668.822636: $GPGSA,A,3,1,10,14,22,25,31,32,11,18,12,26,138,2.0,0.8,1.5*39
2017-12-01 16:27:49 1512163669.378394: $GPZDA,212750.00,01,12,2017,00,00*63
2017-12-01 16:27:49 1512163669.378560: $GPGGA,212750,3946.9640,N,08404.9734,W,2,12,1.00,298.27,M,-33.324,M,,*7E
2017-12-01 16:27:49 1512163669.378626: $GPRMC,212750,A,3946.9640,N,08404.9734,W,0.0000,0.000,011217,,*3A
2017-12-01 16:27:49 1512163669.378687: $GPGSA,A,3,1,10,14,22,25,31,32,11,18,12,26,138,2.0,1.0,1.5*30
