2017-11-16 15:28:37 1510864117.146488: {"class":"VERSION","release":"3.17","rev":"3.17","proto_major":3,"proto_minor":12}
2017-11-16 15:28:37 1510864117.146912: {"class":"DEVICES","devices":[{"class":"DEVICE","path":"/dev/ttyUSB0","driver":"SiRF","subtype":"9\u0006GSD4e_4.1.2-P1_RPATCH.05-F-GPS-4R-1510281 11/03/2015 307","activated":"2017-11-16T20:28:36.508Z","flags":1,"native":1,"bps":4800,"parity":"N","stopbits":1,"cycle":1.00}]}
2017-11-16 15:28:37 1510864117.147020: {"class":"WATCH","enable":true,"json":false,"nmea":true,"raw":0,"scaled":false,"timing":false,"split24":false,"pps":false}
2017-11-16 15:28:37 1510864117.704592: $GPGSV,3,1,12,08,05,292,30,10,70,333,51,14,30,255,44,20,07,118,21*74
2017-11-16 15:28:37 1510864117.704921: $GPGSV,3,2,12,18,70,097,47,15,10,067,00,21,28,180,43,24,44,057,51*7B
2017-11-16 15:28:37 1510864117.705039: $GPGSV,3,3,12,27,05,258,34,32,47,267,49,12,10,106,31,138,38,213,44*48
2017-11-16 15:28:37 1510864117.817821: $GPZDA,202836.00,16,11,2017,00,00*68
2017-11-16 15:28:37 1510864117.817990: $GPGGA,202836,3946.9568,N,08404.9860,W,2,11,1.00,309.61,M,-33.324,M,,*7F
2017-11-16 15:28:37 1510864117.818054: $GPRMC,202836,A,3946.9568,N,08404.9860,W,0.0000,0.000,161117,,*36
2017-11-16 15:28:37 1510864117.818110: $GPGSA,A,3,8,10,14,20,18,21,24,27,32,12,138,,1.6,1.0,1.3*39
2017-11-16 15:28:38 1510864118.366357: $GPZDA,202837.00,16,11,2017,00,00*69
2017-11-16 15:28:38 1510864118.366533: $GPGGA,202837,3946.9568,N,08404.9860,W,2,11,1.00,309.61,M,-33.324,M,,*7E
2017-11-16 15:28:38 1510864118.366593: $GPRMC,202837,A,3946.9568,N,08404.9860,W,0.0000,0.000,161117,,*37
2017-11-16 15:28:38 1510864118.366649: $GPGSA,A,3,8,10,14,20,18,21,24,27,32,12,138,,1.6,1.0,1.3*39
2017-11-16 15:28:39 1510864119.369715: $GPZDA,202838.00,16,11,2017,00,00*66
2017-11-16 15:28:39 1510864119.369871: $GPGGA,202838,3946.9568,N,08404.9860,W,2,11,1.00,309.61,M,-33.324,M,,*71
2017-11-16 15:28:39 1510864119.369933: $GPRMC,202838,A,3946.9568,N,08404.9860,W,0.0000,0.000,161117,,*38
2017-11-16 15:28:39 1510864119.369989: $GPGSA,A,3,8,10,14,20,18,21,24,27,32,12,138,,1.6,1.0,1.3*39
2017-11-16 15:28:40 1510864120.702924: $GPGSV,3,1,12,08,05,292,30,10,70,333,50,14,30,255,44,20,07,118,22*76
2017-11-16 15:28:40 1510864120.703095: $GPGSV,3,2,12,18,70,097,47,15,10,067,00,21,28,180,43,24,44,057,51*7B
2017-11-16 15:28:40 1510864120.703155: $GPGSV,3,3,12,27,05,258,34,32,47,267,49,12,10,106,31,138,38,213,45*49
2017-11-16 15:28:40 1510864120.816305: $GPZDA,202839.00,16,11,2017,00,00*67
2017-11-16 15:28:40 1510864120.816478: $GPGGA,202839,3946.9568,N,08404.9860,W,2,11,1.00,309.61,M,-33.324,M,,*70
2017-11-16 15:28:40 1510864120.816539: $GPRMC,202839,A,3946.9568,N,08404.9860,W,0.0000,0.000,161117,,*39
2017-11-16 15:28:40 1510864120.816594: $GPGSA,A,3,8,10,14,20,18,21,24,27,32,12,138,,1.6,1.0,1.3*39
2017-11-16 15:28:41 1510864121.441551: $GPZDA,202840.00,16,11,2017,00,00*69
2017-11-16 15:28:41 1510864121.441728: $GPGGA,202840,3946.9568,N,08404.9860,W,2,11,1.00,309.61,M,-33.324,M,,*7E
2017-11-16 15:28:41 1510864121.441792: $GPRMC,202840,A,3946.9568,N,08404.9860,W,0.0000,0.000,161117,,*37
2017-11-16 15:28:41 1510864121.441850: $GPGSA,A,3,8,10,14,20,18,21,24,27,32,12,138,,1.6,1.0,1.3*39
2017-11-16 15:28:42 1510864122.375109: $GPZDA,202841.00,16,11,2017,00,00*68
2017-11-16 15:28:42 1510864122.375285: $GPGGA,202841,3946.9568,N,08404.9860,W,2,11,0.80,309.61,M,-33.324,M,,*76
2017-11-16 15:28:42 1510864122.375378: $GPRMC,202841,A,3946.9568,N,08404.9860,W,0.0000,0.000,161117,,*36
2017-11-16 15:28:42 1510864122.375458: $GPGSA,A,3,8,10,14,20,18,21,24,27,32,12,138,,1.6,0.8,1.3*30
2017-11-16 15:28:43 1510864123.703152: $GPGSV,3,1,12,08,05,292,32,10,70,333,51,14,30,255,43,20,07,118,22*72
2017-11-16 15:28:43 1510864123.703343: $GPGSV,3,2,12,18,70,097,47,15,10,067,20,21,28,180,43,24,44,057,51*79
2017-11-16 15:28:43 1510864123.703408: $GPGSV,3,3,12,27,05,258,34,32,47,267,48,12,10,106,31,138,38,213,44*49
2017-11-16 15:28:43 1510864123.816884: $GPZDA,202842.00,16,11,2017,00,00*6B
2017-11-16 15:28:43 1510864123.817050: $GPGGA,202842,3946.9568,N,08404.9860,W,2,12,0.80,309.61,M,-33.324,M,,*76
2017-11-16 15:28:43 1510864123.817190: $GPRMC,202842,A,3946.9568,N,08404.9860,W,0.0000,0.000,161117,,*35
2017-11-16 15:28:43 1510864123.817249: $GPGSA,A,3,8,10,14,20,18,15,21,24,27,32,12,138,1.6,0.8,1.3*34
2017-11-16 15:28:44 1510864124.367349: $GPZDA,202843.00,16,11,2017,00,00*6A
2017-11-16 15:28:44 1510864124.367507: $GPGGA,202843,3946.9568,N,08404.9860,W,2,12,0.80,309.61,M,-33.324,M,,*77
2017-11-16 15:28:44 1510864124.367568: $GPRMC,202843,A,3946.9568,N,08404.9860,W,0.0000,0.000,161117,,*34
2017-11-16 15:28:44 1510864124.367623: $GPGSA,A,3,8,10,14,20,18,15,21,24,27,32,12,138,1.6,0.8,1.3*34
2017-11-16 15:28:45 1510864125.384468: $GPZDA,202844.00,16,11,2017,00,00*6D
2017-11-16 15:28:45 1510864125.384665: $GPGGA,202844,3946.9568,N,08404.9860,W,2,12,0.80,309.61,M,-33.324,M,,*70
2017-11-16 15:28:45 1510864125.384729: $GPRMC,202844,A,3946.9568,N,08404.9860,W,0.0000,0.000,161117,,*33
2017-11-16 15:28:45 1510864125.384785: $GPGSA,A,3,8,10,14,20,18,15,21,24,27,32,12,138,1.6,0.8,1.3*34
2017-11-16 15:28:46 1510864126.703493: $GPGSV,3,1,12,08,05,292,34,10,70,333,51,14,30,255,44,20,07,118,23*72
2017-11-16 15:28:46 1510864126.703679: $GPGSV,3,2,12,18,70,097,47,15,10,067,22,21,28,180,43,24,44,057,51*7B
2017-11-16 15:28:46 1510864126.703740: $GPGSV,3,3,12,27,05,258,35,32,47,267,48,12,10,106,31,138,38,213,44*48
2017-11-16 15:28:46 1510864126.815577: $GPZDA,202845.00,16,11,2017,00,00*6C
2017-11-16 15:28:46 1510864126.815742: $GPGGA,202845,3946.9568,N,08404.9860,W,2,12,0.80,309.61,M,-33.324,M,,*71
2017-11-16 15:28:46 1510864126.815804: $GPRMC,202845,A,3946.9568,N,08404.9860,W,0.0000,0.000,161117,,*32
2017-11-16 15:28:46 1510864126.815860: $GPGSA,A,3,8,10,14,20,18,15,21,24,27,32,12,138,1.6,0.8,1.3*34
