2018-01-11 19:48:23 1515718103.064863: {"class":"VERSION","release":"3.16","rev":"3.16-4","proto_major":3,"proto_minor":11}
2018-01-11 19:48:23 1515718103.065207: {"class":"DEVICES","devices":[{"class":"DEVICE","path":"/dev/ttyUSB0","driver":"SiRF","subtype":"9\u0006GSD4e_4.1.2-P1_RPATCH.05-F-GPS-4R-1510281 11/03/2015 307","activated":"2018-01-12T00:48:23.001Z","flags":1,"native":1,"bps":4800,"parity":"N","stopbits":1,"cycle":1.00}]}
2018-01-11 19:48:23 1515718103.065321: {"class":"WATCH","enable":true,"json":false,"nmea":true,"raw":0,"scaled":false,"timing":false,"split24":false,"pps":false}
2018-01-11 19:48:23 1515718103.414195: $GPZDA,004824.00,12,01,2018,00,00*65
2018-01-11 19:48:23 1515718103.414369: $GPGGA,004824,3946.9568,N,08404.9819,W,2,11,0.80,312.89,M,-33.324,M,,*73
2018-01-11 19:48:23 1515718103.414435: $GPRMC,004824,A,3946.9568,N,08404.9819,W,0.0000,0.000,120118,,*35
2018-01-11 19:48:23 1515718103.414495: $GPGSA,A,3,7,8,9,16,23,27,30,11,26,28,138,,4.0,0.8,3.5*3A
2018-01-11 19:48:25 1515718105.286306: $GPZDA,004825.00,12,01,2018,00,00*64
2018-01-11 19:48:25 1515718105.286467: $GPGGA,004825,3946.9560,N,08404.9814,W,2,11,0.80,314.50,M,-33.324,M,,*75
2018-01-11 19:48:25 1515718105.286533: $GPRMC,004825,A,3946.9560,N,08404.9814,W,0.0000,0.000,120118,,*31
2018-01-11 19:48:25 1515718105.286594: $GPGSA,A,3,7,8,9,16,23,27,30,11,26,28,138,,4.0,0.8,3.5*3A
2018-01-11 19:48:25 1515718105.286652: $GPGBS,004825,3.65,M,6.21,M,20.10,M*03
2018-01-11 19:48:26 1515718106.247759: $GPGSV,3,1,11,07,46,310,44,08,65,154,44,09,54,244,44,16,31,054,47*7A
2018-01-11 19:48:26 1515718106.247938: $GPGSV,3,2,11,23,39,193,48,27,55,064,49,30,21,303,35,11,12,171,31*7E
2018-01-11 19:48:26 1515718106.248005: $GPGSV,3,3,11,26,05,067,22,28,07,250,25,138,38,213,45*74
2018-01-11 19:48:26 1515718106.361401: $GPZDA,004826.00,12,01,2018,00,00*67
2018-01-11 19:48:26 1515718106.361537: $GPGGA,004826,3946.9564,N,08404.9813,W,2,11,0.80,313.73,M,-33.324,M,,*73
2018-01-11 19:48:26 1515718106.361602: $GPRMC,004826,A,3946.9564,N,08404.9813,W,0.0000,0.000,120118,,*31
2018-01-11 19:48:26 1515718106.361663: $GPGSA,A,3,7,8,9,16,23,27,30,11,26,28,138,,4.0,0.8,3.5*3A
2018-01-11 19:48:26 1515718106.812232: $GPZDA,004827.00,12,01,2018,00,00*66
2018-01-11 19:48:26 1515718106.812372: $GPGGA,004827,3946.9564,N,08404.9813,W,2,11,0.80,313.73,M,-33.324,M,,*72
2018-01-11 19:48:26 1515718106.812437: $GPRMC,004827,A,3946.9564,N,08404.9813,W,0.0000,0.000,120118,,*30
2018-01-11 19:48:26 1515718106.812498: $GPGSA,A,3,7,8,9,16,23,27,30,11,26,28,138,,4.0,0.8,3.5*3A
2018-01-11 19:48:27 1515718107.413171: $GPZDA,004828.00,12,01,2018,00,00*69
2018-01-11 19:48:27 1515718107.413348: $GPGGA,004828,3946.9564,N,08404.9813,W,2,11,0.80,313.73,M,-33.324,M,,*7D
2018-01-11 19:48:27 1515718107.413414: $GPRMC,004828,A,3946.9564,N,08404.9813,W,0.0000,0.000,120118,,*3F
2018-01-11 19:48:27 1515718107.413474: $GPGSA,A,3,7,8,9,16,23,27,30,11,26,28,138,,4.0,0.8,3.5*3A
2018-01-11 19:48:28 1515718108.748603: $GPGSV,3,1,11,07,46,310,44,08,65,154,44,09,54,244,44,16,31,054,47*7A
2018-01-11 19:48:28 1515718108.748773: $GPGSV,3,2,11,23,39,193,48,27,55,064,49,30,21,303,35,11,12,171,30*7F
2018-01-11 19:48:28 1515718108.748840: $GPGSV,3,3,11,26,05,067,23,28,07,250,25,138,38,213,44*74
2018-01-11 19:48:28 1515718108.862233: $GPZDA,004829.00,12,01,2018,00,00*68
2018-01-11 19:48:28 1515718108.862369: $GPGGA,004829,3946.9564,N,08404.9813,W,2,11,0.80,313.73,M,-33.324,M,,*7C
2018-01-11 19:48:28 1515718108.862434: $GPRMC,004829,A,3946.9564,N,08404.9813,W,0.0000,0.000,120118,,*3E
2018-01-11 19:48:28 1515718108.862494: $GPGSA,A,3,7,8,9,16,23,27,30,11,26,28,138,,4.0,0.8,3.5*3A
2018-01-11 19:48:29 1515718109.413125: $GPZDA,004830.00,12,01,2018,00,00*60
2018-01-11 19:48:29 1515718109.413279: $GPGGA,004830,3946.9564,N,08404.9813,W,2,11,0.80,313.73,M,-33.324,M,,*74
2018-01-11 19:48:29 1515718109.413346: $GPRMC,004830,A,3946.9564,N,08404.9813,W,0.0000,0.000,120118,,*36
2018-01-11 19:48:29 1515718109.413407: $GPGSA,A,3,7,8,9,16,23,27,30,11,26,28,138,,4.0,0.8,3.5*3A
2018-01-11 19:48:30 1515718110.407233: $GPZDA,004831.00,12,01,2018,00,00*61
2018-01-11 19:48:30 1515718110.407458: $GPGGA,004831,3946.9564,N,08404.9813,W,2,11,0.80,313.73,M,-33.324,M,,*75
2018-01-11 19:48:30 1515718110.407529: $GPRMC,004831,A,3946.9564,N,08404.9813,W,0.0000,0.000,120118,,*37
2018-01-11 19:48:30 1515718110.407590: $GPGSA,A,3,7,8,9,16,23,27,30,11,26,28,138,,4.0,0.8,3.5*3A
2018-01-11 19:48:31 1515718111.747684: $GPGSV,3,1,11,07,46,310,44,08,65,154,44,09,54,244,44,16,31,054,47*7A
2018-01-11 19:48:31 1515718111.747847: $GPGSV,3,2,11,23,39,193,48,27,55,064,49,30,21,303,35,11,12,171,30*7F
2018-01-11 19:48:31 1515718111.747915: $GPGSV,3,3,11,26,05,067,23,28,07,250,25,138,38,213,45*75
2018-01-11 19:48:31 1515718111.861303: $GPZDA,004832.00,12,01,2018,00,00*62
2018-01-11 19:48:31 1515718111.861446: $GPGGA,004832,3946.9564,N,08404.9813,W,2,11,0.80,313.73,M,-33.324,M,,*76
2018-01-11 19:48:31 1515718111.861511: $GPRMC,004832,A,3946.9564,N,08404.9813,W,0.0000,0.000,120118,,*34
2018-01-11 19:48:31 1515718111.861572: $GPGSA,A,3,7,8,9,16,23,27,30,11,26,28,138,,4.0,0.8,3.5*3A
