2017-11-16 13:22:03 1510856523.338488: {"class":"VERSION","release":"3.17","rev":"3.17","proto_major":3,"proto_minor":12}
2017-11-16 13:22:03 1510856523.339114: {"class":"DEVICES","devices":[{"class":"DEVICE","path":"/dev/ttyUSB0","driver":"SiRF","subtype":"9\u0006GSD4e_4.1.2-P1_RPATCH.05-F-GPS-4R-1510281 11/03/2015 307","activated":"2017-11-16T18:22:03.189Z","flags":1,"native":1,"bps":4800,"parity":"N","stopbits":1,"cycle":1.00}]}
2017-11-16 13:22:03 1510856523.339237: {"class":"WATCH","enable":true,"json":false,"nmea":true,"raw":0,"scaled":false,"timing":false,"split24":false,"pps":false}
2017-11-16 13:22:03 1510856523.639181: $GPGSV,3,1,12,10,24,283,44,13,28,045,47,15,59,051,51,18,55,301,47*7C
2017-11-16 13:22:03 1510856523.639347: $GPGSV,3,2,12,20,50,073,47,21,78,264,47,24,35,138,38,27,17,312,40*72
2017-11-16 13:22:03 1510856523.639409: $GPGSV,3,3,12,05,03,088,00,29,08,189,33,32,02,226,25,138,38,213,45*4D
2017-11-16 13:22:03 1510856523.752928: $GPZDA,182202.00,16,11,2017,00,00*6E
2017-11-16 13:22:03 1510856523.753107: $GPGGA,182202,3946.9606,N,08404.9852,W,2,11,0.80,301.20,M,-33.324,M,,*77
2017-11-16 13:22:03 1510856523.753168: $GPRMC,182202,A,3946.9606,N,08404.9852,W,0.0000,0.000,161117,,*3A
2017-11-16 13:22:03 1510856523.753224: $GPGSA,A,3,10,13,15,18,20,21,24,27,29,32,138,,1.6,0.8,1.3*03
2017-11-16 13:22:04 1510856524.303434: $GPZDA,182203.00,16,11,2017,00,00*6F
2017-11-16 13:22:04 1510856524.303612: $GPGGA,182203,3946.9606,N,08404.9845,W,2,11,0.80,301.28,M,-33.324,M,,*78
2017-11-16 13:22:04 1510856524.303697: $GPRMC,182203,A,3946.9606,N,08404.9845,W,0.0000,0.000,161117,,*3D
2017-11-16 13:22:04 1510856524.303758: $GPGSA,A,3,10,13,15,18,20,21,24,27,29,32,138,,1.6,0.8,1.3*03
2017-11-16 13:22:05 1510856525.284803: $GPZDA,182204.00,16,11,2017,00,00*68
2017-11-16 13:22:05 1510856525.284988: $GPGGA,182204,3946.9606,N,08404.9845,W,2,11,0.80,301.28,M,-33.324,M,,*7F
2017-11-16 13:22:05 1510856525.285052: $GPRMC,182204,A,3946.9606,N,08404.9845,W,0.0000,0.000,161117,,*3A
2017-11-16 13:22:05 1510856525.285109: $GPGSA,A,3,10,13,15,18,20,21,24,27,29,32,138,,1.6,0.8,1.3*03
2017-11-16 13:22:06 1510856526.614340: $GPGSV,3,1,12,10,24,283,45,13,28,045,47,15,59,051,51,18,55,301,47*7D
2017-11-16 13:22:06 1510856526.614507: $GPGSV,3,2,12,20,50,073,48,21,78,264,47,24,35,138,37,27,17,312,41*73
2017-11-16 13:22:06 1510856526.614568: $GPGSV,3,3,12,05,03,088,00,29,08,189,32,32,02,226,27,138,38,213,46*4D
2017-11-16 13:22:06 1510856526.727610: $GPZDA,182205.00,16,11,2017,00,00*69
2017-11-16 13:22:06 1510856526.727779: $GPGGA,182205,3946.9606,N,08404.9845,W,2,11,0.80,301.28,M,-33.324,M,,*7E
2017-11-16 13:22:06 1510856526.727842: $GPRMC,182205,A,3946.9606,N,08404.9845,W,0.0000,0.000,161117,,*3B
2017-11-16 13:22:06 1510856526.727898: $GPGSA,A,3,10,13,15,18,20,21,24,27,29,32,138,,1.6,0.8,1.3*03
2017-11-16 13:22:07 1510856527.284978: $GPZDA,182206.00,16,11,2017,00,00*6A
2017-11-16 13:22:07 1510856527.285141: $GPGGA,182206,3946.9606,N,08404.9845,W,2,11,0.80,301.28,M,-33.324,M,,*7D
2017-11-16 13:22:07 1510856527.285203: $GPRMC,182206,A,3946.9606,N,08404.9845,W,0.0000,0.000,161117,,*38
2017-11-16 13:22:07 1510856527.285260: $GPGSA,A,3,10,13,15,18,20,21,24,27,29,32,138,,1.6,0.8,1.3*03
2017-11-16 13:22:08 1510856528.283055: $GPZDA,182207.00,16,11,2017,00,00*6B
2017-11-16 13:22:08 1510856528.283219: $GPGGA,182207,3946.9606,N,08404.9845,W,2,11,0.80,301.28,M,-33.324,M,,*7C
2017-11-16 13:22:08 1510856528.283283: $GPRMC,182207,A,3946.9606,N,08404.9845,W,0.0000,0.000,161117,,*39
2017-11-16 13:22:08 1510856528.283340: $GPGSA,A,3,10,13,15,18,20,21,24,27,29,32,138,,1.6,0.8,1.3*03
2017-11-16 13:22:09 1510856529.620044: $GPGSV,3,1,12,10,24,283,45,13,28,045,47,15,59,051,51,18,55,301,47*7D
2017-11-16 13:22:09 1510856529.620239: $GPGSV,3,2,12,20,50,073,48,21,78,264,47,24,35,138,36,27,17,312,41*72
2017-11-16 13:22:09 1510856529.620366: $GPGSV,3,3,12,05,03,088,00,29,08,189,27,32,02,226,27,138,38,213,44*4B
2017-11-16 13:22:09 1510856529.733358: $GPZDA,182208.00,16,11,2017,00,00*64
2017-11-16 13:22:09 1510856529.733526: $GPGGA,182208,3946.9606,N,08404.9845,W,2,11,0.80,301.28,M,-33.324,M,,*73
2017-11-16 13:22:09 1510856529.733639: $GPRMC,182208,A,3946.9606,N,08404.9845,W,0.0000,0.000,161117,,*36
2017-11-16 13:22:09 1510856529.733699: $GPGSA,A,3,10,13,15,18,20,21,24,27,29,32,138,,1.6,0.8,1.3*03
2017-11-16 13:22:10 1510856530.358717: $GPZDA,182209.00,16,11,2017,00,00*65
2017-11-16 13:22:10 1510856530.358880: $GPGGA,182209,3946.9606,N,08404.9845,W,2,11,0.80,301.28,M,-33.324,M,,*72
2017-11-16 13:22:10 1510856530.358943: $GPRMC,182209,A,3946.9606,N,08404.9845,W,0.0000,0.000,161117,,*37
2017-11-16 13:22:10 1510856530.358999: $GPGSA,A,3,10,13,15,18,20,21,24,27,29,32,138,,1.6,0.8,1.3*03
2017-11-16 13:22:11 1510856531.282021: $GPZDA,182210.00,16,11,2017,00,00*6D
2017-11-16 13:22:11 1510856531.282161: $GPGGA,182210,3946.9606,N,08404.9845,W,2,11,0.80,301.28,M,-33.324,M,,*7A
2017-11-16 13:22:11 1510856531.282222: $GPRMC,182210,A,3946.9606,N,08404.9845,W,0.0000,0.000,161117,,*3F
2017-11-16 13:22:11 1510856531.282281: $GPGSA,A,3,10,13,15,18,20,21,24,27,29,32,138,,1.6,0.8,1.3*03
2017-11-16 13:22:12 1510856532.619015: $GPGSV,3,1,12,10,24,283,44,13,28,045,46,15,59,051,51,18,55,301,47*7D
2017-11-16 13:22:12 1510856532.619184: $GPGSV,3,2,12,20,50,073,47,21,78,264,47,24,35,138,36,27,17,312,42*7E
2017-11-16 13:22:12 1510856532.619245: $GPGSV,3,3,12,05,03,088,00,29,08,189,27,32,02,226,26,138,38,213,44*4A
2017-11-16 13:22:12 1510856532.732331: $GPZDA,182211.00,16,11,2017,00,00*6C
2017-11-16 13:22:12 1510856532.732503: $GPGGA,182211,3946.9606,N,08404.9845,W,2,11,0.80,301.28,M,-33.324,M,,*7B
2017-11-16 13:22:12 1510856532.732566: $GPRMC,182211,A,3946.9606,N,08404.9845,W,0.0000,0.000,161117,,*3E
2017-11-16 13:22:12 1510856532.732623: $GPGSA,A,3,10,13,15,18,20,21,24,27,29,32,138,,1.6,0.8,1.3*03
2017-11-16 13:22:13 1510856533.280785: $GPZDA,182212.00,16,11,2017,00,00*6F
2017-11-16 13:22:13 1510856533.280948: $GPGGA,182212,3946.9606,N,08404.9845,W,2,11,0.80,301.28,M,-33.324,M,,*78
2017-11-16 13:22:13 1510856533.281009: $GPRMC,182212,A,3946.9606,N,08404.9845,W,0.0000,0.000,161117,,*3D
2017-11-16 13:22:13 1510856533.281066: $GPGSA,A,3,10,13,15,18,20,21,24,27,29,32,138,,1.6,0.8,1.3*03
2017-11-16 13:22:14 1510856534.284375: $GPZDA,182213.00,16,11,2017,00,00*6E
2017-11-16 13:22:14 1510856534.284540: $GPGGA,182213,3946.9606,N,08404.9845,W,2,11,0.80,301.28,M,-33.324,M,,*79
2017-11-16 13:22:14 1510856534.284603: $GPRMC,182213,A,3946.9606,N,08404.9845,W,0.0000,0.000,161117,,*3C
2017-11-16 13:22:14 1510856534.284659: $GPGSA,A,3,10,13,15,18,20,21,24,27,29,32,138,,1.6,0.8,1.3*03
2017-11-16 13:22:15 1510856535.618009: $GPGSV,3,1,12,10,24,283,43,13,28,045,47,15,59,051,51,18,55,301,47*7B
2017-11-16 13:22:15 1510856535.618184: $GPGSV,3,2,12,20,50,073,47,21,78,264,47,24,35,138,37,27,17,312,42*7F
2017-11-16 13:22:15 1510856535.618246: $GPGSV,3,3,12,05,03,088,00,29,08,189,27,32,02,226,26,138,38,213,45*4B
2017-11-16 13:22:15 1510856535.731380: $GPZDA,182214.00,16,11,2017,00,00*69
2017-11-16 13:22:15 1510856535.731554: $GPGGA,182214,3946.9606,N,08404.9845,W,2,11,0.80,301.28,M,-33.324,M,,*7E
2017-11-16 13:22:15 1510856535.731617: $GPRMC,182214,A,3946.9606,N,08404.9845,W,0.0000,0.000,161117,,*3B
2017-11-16 13:22:15 1510856535.731675: $GPGSA,A,3,10,13,15,18,20,21,24,27,29,32,138,,1.6,0.8,1.3*03
2017-11-16 13:22:16 1510856536.282311: $GPZDA,182215.00,16,11,2017,00,00*68
2017-11-16 13:22:16 1510856536.282509: $GPGGA,182215,3946.9606,N,08404.9845,W,2,11,0.80,301.28,M,-33.324,M,,*7F
2017-11-16 13:22:16 1510856536.282573: $GPRMC,182215,A,3946.9606,N,08404.9845,W,0.0000,0.000,161117,,*3A
2017-11-16 13:22:16 1510856536.282631: $GPGSA,A,3,10,13,15,18,20,21,24,27,29,32,138,,1.6,0.8,1.3*03
2017-11-16 13:22:17 1510856537.284425: $GPZDA,182216.00,16,11,2017,00,00*6B
2017-11-16 13:22:17 1510856537.284574: $GPGGA,182216,3946.9606,N,08404.9845,W,2,11,0.80,301.28,M,-33.324,M,,*7C
2017-11-16 13:22:17 1510856537.284635: $GPRMC,182216,A,3946.9606,N,08404.9845,W,0.0000,0.000,161117,,*39
2017-11-16 13:22:17 1510856537.284692: $GPGSA,A,3,10,13,15,18,20,21,24,27,29,32,138,,1.6,0.8,1.3*03
