2018-01-11 19:56:46 1515718606.466704: {"class":"VERSION","release":"3.16","rev":"3.16-4","proto_major":3,"proto_minor":11}
2018-01-11 19:56:46 1515718606.467184: {"class":"DEVICES","devices":[{"class":"DEVICE","path":"/dev/ttyUSB0","driver":"SiRF","subtype":"9\u0006GSD4e_4.1.2-P1_RPATCH.05-F-GPS-4R-1510281 11/03/2015 307","activated":"2018-01-12T00:56:46.422Z","flags":1,"native":1,"bps":4800,"parity":"N","stopbits":1,"cycle":1.00}]}
2018-01-11 19:56:46 1515718606.467307: {"class":"WATCH","enable":true,"json":false,"nmea":true,"raw":0,"scaled":false,"timing":false,"split24":false,"pps":false}
2018-01-11 19:56:47 1515718607.717629: $GPGSV,3,1,11,07,49,312,42,08,68,148,45,09,52,238,43,11,14,169,36*73
2018-01-11 19:56:47 1515718607.717803: $GPGSV,3,2,11,16,28,057,46,23,36,192,47,27,52,060,51,30,23,304,00*7D
2018-01-11 19:56:47 1515718607.717869: $GPGSV,3,3,11,28,09,253,28,26,03,069,14,138,38,213,46*7A
2018-01-11 19:56:47 1515718607.831027: $GPZDA,005648.00,12,01,2018,00,00*60
2018-01-11 19:56:47 1515718607.831157: $GPGGA,005648,3946.9598,N,08404.9847,W,2,10,1.00,292.13,M,-33.324,M,,*70
2018-01-11 19:56:47 1515718607.831223: $GPRMC,005648,A,3946.9598,N,08404.9847,W,0.0000,0.000,120118,,*34
2018-01-11 19:56:47 1515718607.831283: $GPGSA,A,3,7,8,9,11,16,23,27,28,26,138,,,4.0,1.0,3.5*30
2018-01-11 19:56:48 1515718608.889929: $GPZDA,005649.00,12,01,2018,00,00*61
2018-01-11 19:56:48 1515718608.890097: $GPGGA,005649,3946.9594,N,08404.9848,W,2,10,1.00,292.90,M,-33.324,M,,*79
2018-01-11 19:56:48 1515718608.890163: $GPRMC,005649,A,3946.9594,N,08404.9848,W,0.0000,0.000,120118,,*36
2018-01-11 19:56:48 1515718608.890224: $GPGSA,A,3,7,8,9,11,16,23,27,28,26,138,,,4.0,1.0,3.5*30
2018-01-11 19:56:49 1515718609.384375: $GPZDA,005650.00,12,01,2018,00,00*69
2018-01-11 19:56:49 1515718609.384519: $GPGGA,005650,3946.9594,N,08404.9848,W,2,10,0.80,292.90,M,-33.324,M,,*78
2018-01-11 19:56:49 1515718609.384586: $GPRMC,005650,A,3946.9594,N,08404.9848,W,0.0000,0.000,120118,,*3E
2018-01-11 19:56:49 1515718609.384646: $GPGSA,A,3,7,8,9,11,16,23,27,28,26,138,,,4.0,0.8,3.5*39
2018-01-11 19:56:50 1515718610.717332: $GPGSV,3,1,11,07,50,312,42,08,69,148,44,09,52,238,43,11,15,169,37*7B
2018-01-11 19:56:50 1515718610.717517: $GPGSV,3,2,11,16,28,057,46,23,35,192,47,27,52,060,51,30,24,304,24*7F
2018-01-11 19:56:50 1515718610.717586: $GPGSV,3,3,11,28,10,253,28,26,03,069,00,138,38,213,45*74
2018-01-11 19:56:50 1515718610.831106: $GPZDA,005651.00,12,01,2018,00,00*68
2018-01-11 19:56:50 1515718610.831239: $GPGGA,005651,3946.9594,N,08404.9848,W,2,10,0.80,292.90,M,-33.324,M,,*79
2018-01-11 19:56:50 1515718610.831304: $GPRMC,005651,A,3946.9594,N,08404.9848,W,0.0000,0.000,120118,,*3F
2018-01-11 19:56:50 1515718610.831365: $GPGSA,A,3,7,8,9,11,16,23,27,30,28,138,,,4.0,0.8,3.5*3E
2018-01-11 19:56:51 1515718611.382892: $GPZDA,005652.00,12,01,2018,00,00*6B
2018-01-11 19:56:51 1515718611.383043: $GPGGA,005652,3946.9594,N,08404.9848,W,2,10,0.80,292.90,M,-33.324,M,,*7A
2018-01-11 19:56:51 1515718611.383109: $GPRMC,005652,A,3946.9594,N,08404.9848,W,0.0000,0.000,120118,,*3C
2018-01-11 19:56:51 1515718611.383170: $GPGSA,A,3,7,8,9,11,16,23,27,30,28,138,,,4.0,0.8,3.5*3E
2018-01-11 19:56:52 1515718612.382028: $GPZDA,005653.00,12,01,2018,00,00*6A
2018-01-11 19:56:52 1515718612.382184: $GPGGA,005653,3946.9594,N,08404.9841,W,2,10,1.00,292.98,M,-33.324,M,,*73
2018-01-11 19:56:52 1515718612.382251: $GPRMC,005653,A,3946.9594,N,08404.9841,W,0.0000,0.000,120118,,*34
2018-01-11 19:56:52 1515718612.382312: $GPGSA,A,3,7,8,9,11,16,23,27,30,28,138,,,4.0,1.0,3.5*37
2018-01-11 19:56:53 1515718613.717674: $GPGSV,3,1,11,07,50,312,43,08,69,148,44,09,52,238,43,11,15,169,37*7A
2018-01-11 19:56:53 1515718613.717853: $GPGSV,3,2,11,16,28,057,46,23,35,192,46,27,52,060,50,30,24,304,00*79
2018-01-11 19:56:53 1515718613.717920: $GPGSV,3,3,11,28,10,253,28,26,03,069,00,138,38,213,45*74
2018-01-11 19:56:53 1515718613.831070: $GPZDA,005654.00,12,01,2018,00,00*6D
2018-01-11 19:56:53 1515718613.831194: $GPGGA,005654,3946.9594,N,08404.9841,W,2,09,1.00,292.98,M,-33.324,M,,*7C
2018-01-11 19:56:53 1515718613.831260: $GPRMC,005654,A,3946.9594,N,08404.9841,W,0.0000,0.000,120118,,*33
2018-01-11 19:56:53 1515718613.831378: $GPGSA,A,3,7,8,9,11,16,23,27,28,138,,,,4.0,1.0,3.5*34
2018-01-11 19:56:54 1515718614.383215: $GPZDA,005655.00,12,01,2018,00,00*6C
2018-01-11 19:56:54 1515718614.383368: $GPGGA,005655,3946.9594,N,08404.9841,W,2,09,1.00,292.98,M,-33.324,M,,*7D
2018-01-11 19:56:54 1515718614.383436: $GPRMC,005655,A,3946.9594,N,08404.9841,W,0.0000,0.000,120118,,*32
2018-01-11 19:56:54 1515718614.383497: $GPGSA,A,3,7,8,9,11,16,23,27,28,138,,,,4.0,1.0,3.5*34
2018-01-11 19:56:55 1515718615.381794: $GPZDA,005656.00,12,01,2018,00,00*6F
2018-01-11 19:56:55 1515718615.381945: $GPGGA,005656,3946.9594,N,08404.9841,W,2,09,0.80,292.98,M,-33.324,M,,*77
2018-01-11 19:56:55 1515718615.382011: $GPRMC,005656,A,3946.9594,N,08404.9841,W,0.0000,0.000,120118,,*31
2018-01-11 19:56:55 1515718615.382072: $GPGSA,A,3,7,8,9,11,16,23,27,28,138,,,,4.0,0.8,3.5*3D
