2017-11-15 18:29:23 1510788563.475541: {"class":"VERSION","release":"3.17","rev":"3.17","proto_major":3,"proto_minor":12}
2017-11-15 18:29:23 1510788563.476012: {"class":"DEVICES","devices":[{"class":"DEVICE","path":"/dev/ttyUSB0","driver":"SiRF","subtype":"9\u0006GSD4e_4.1.2-P1_RPATCH.05-F-GPS-4R-1510281 11/03/2015 307","activated":"2017-11-15T23:29:23.469Z","flags":1,"native":1,"bps":4800,"parity":"N","stopbits":1,"cycle":1.00}]}
2017-11-15 18:29:23 1510788563.476174: {"class":"WATCH","enable":true,"json":false,"nmea":true,"raw":0,"scaled":false,"timing":false,"split24":false,"pps":false}
2017-11-15 18:29:24 1510788564.694071: $GPGSV,3,1,10,10,24,156,14,14,69,034,21,25,36,058,09,26,23,178,16*7E
2017-11-15 18:29:24 1510788564.694263: $GPGSV,3,2,10,31,77,270,11,32,57,076,22,01,19,276,14,22,38,304,00*7F
2017-11-15 18:29:24 1510788564.694340: $GPGSV,3,3,10,03,19,316,00,12,08,033,00*7C
2017-11-15 18:29:24 1510788564.807870: $GPZDA,232923.00,15,11,2017,00,00*6D
2017-11-15 18:29:24 1510788564.808165: $GPGGA,232923,3946.9600,N,08404.9564,W,1,07,1.20,290.07,M,-33.324,M,,*7A
2017-11-15 18:29:24 1510788564.808266: $GPRMC,232923,A,3946.9600,N,08404.9564,W,0.5306,294.352,151117,,*3C
2017-11-15 18:29:24 1510788564.808409: $GPGSA,A,3,10,14,25,26,31,32,1,,,,,,3.4,1.2,2.9*08
2017-11-15 18:29:25 1510788565.327189: $GPZDA,232924.00,15,11,2017,00,00*6A
2017-11-15 18:29:25 1510788565.327363: $GPGGA,232924,3946.9600,N,08404.9564,W,1,07,1.20,290.07,M,-33.324,M,,*7D
2017-11-15 18:29:25 1510788565.327424: $GPRMC,232924,A,3946.9600,N,08404.9564,W,0.4179,328.778,151117,,*3A
2017-11-15 18:29:25 1510788565.327480: $GPGSA,A,3,10,14,25,26,31,32,1,,,,,,3.4,1.2,2.9*08
2017-11-15 18:29:26 1510788566.327527: $GPZDA,232925.00,15,11,2017,00,00*6B
2017-11-15 18:29:26 1510788566.327689: $GPGGA,232925,3946.9600,N,08404.9564,W,1,07,1.20,290.07,M,-33.324,M,,*7C
2017-11-15 18:29:26 1510788566.327749: $GPRMC,232925,A,3946.9600,N,08404.9564,W,0.4207,39.347,151117,,*0A
2017-11-15 18:29:26 1510788566.327805: $GPGSA,A,3,10,14,25,26,31,32,1,,,,,,3.4,1.2,2.9*08
2017-11-15 18:29:27 1510788567.695703: $GPGSV,3,1,10,10,24,156,14,14,69,034,21,25,36,058,08,26,23,178,16*7F
2017-11-15 18:29:27 1510788567.695885: $GPGSV,3,2,10,31,77,270,10,32,57,076,22,01,19,276,14,22,38,304,00*7E
2017-11-15 18:29:27 1510788567.695968: $GPGSV,3,3,10,03,19,316,00,12,08,033,00*7C
2017-11-15 18:29:27 1510788567.807858: $GPZDA,232926.00,15,11,2017,00,00*68
2017-11-15 18:29:27 1510788567.808016: $GPGGA,232926,3946.9604,N,08404.9564,W,1,07,1.20,290.71,M,-33.324,M,,*7A
2017-11-15 18:29:27 1510788567.808076: $GPRMC,232926,A,3946.9604,N,08404.9564,W,0.4207,39.347,151117,,*0D
2017-11-15 18:29:27 1510788567.808150: $GPGSA,A,3,10,14,25,26,31,32,1,,,,,,3.4,1.2,2.9*08
2017-11-15 18:29:28 1510788568.327485: $GPZDA,232927.00,15,11,2017,00,00*69
2017-11-15 18:29:28 1510788568.327639: $GPGGA,232927,3946.9604,N,08404.9564,W,1,07,1.20,290.71,M,-33.324,M,,*7B
2017-11-15 18:29:28 1510788568.327700: $GPRMC,232927,A,3946.9604,N,08404.9564,W,0.4179,328.778,151117,,*3D
2017-11-15 18:29:28 1510788568.327756: $GPGSA,A,3,10,14,25,26,31,32,1,,,,,,3.4,1.2,2.9*08
2017-11-15 18:29:29 1510788569.359567: $GPZDA,232928.00,15,11,2017,00,00*66
2017-11-15 18:29:29 1510788569.359728: $GPGGA,232928,3946.9604,N,08404.9564,W,1,07,1.20,290.71,M,-33.324,M,,*74
2017-11-15 18:29:29 1510788569.359789: $GPRMC,232928,A,3946.9604,N,08404.9564,W,0.4844,273.794,151117,,*38
2017-11-15 18:29:29 1510788569.359845: $GPGSA,A,3,10,14,25,26,31,32,1,,,,,,3.4,1.2,2.9*08
2017-11-15 18:29:30 1510788570.664053: $GPGSV,3,1,10,10,24,156,13,14,69,034,20,25,36,058,09,26,23,178,16*78
2017-11-15 18:29:30 1510788570.664274: $GPGSV,3,2,10,31,77,270,11,32,57,076,21,01,19,276,14,22,38,304,00*7C
2017-11-15 18:29:30 1510788570.664336: $GPGSV,3,3,10,03,19,316,00,12,08,033,00*7C
2017-11-15 18:29:30 1510788570.777521: $GPZDA,232929.00,15,11,2017,00,00*67
2017-11-15 18:29:30 1510788570.777679: $GPGGA,232929,3946.9604,N,08404.9571,W,1,07,1.20,290.64,M,-33.324,M,,*75
2017-11-15 18:29:30 1510788570.777740: $GPRMC,232929,A,3946.9604,N,08404.9571,W,0.9689,273.794,151117,,*3F
2017-11-15 18:29:30 1510788570.777847: $GPGSA,A,3,10,14,25,26,31,32,1,,,,,,3.4,1.2,2.9*08
2017-11-15 18:29:31 1510788571.402851: $GPZDA,232930.00,15,11,2017,00,00*6F
2017-11-15 18:29:31 1510788571.403011: $GPGGA,232930,3946.9604,N,08404.9571,W,1,07,1.20,290.64,M,-33.324,M,,*7D
2017-11-15 18:29:31 1510788571.403072: $GPRMC,232930,A,3946.9604,N,08404.9571,W,0.2422,273.794,151117,,*3F
2017-11-15 18:29:31 1510788571.403147: $GPGSA,A,3,10,14,25,26,31,32,1,,,,,,3.4,1.2,2.9*08
2017-11-15 18:29:32 1510788572.327490: $GPZDA,232931.00,15,11,2017,00,00*6E
2017-11-15 18:29:32 1510788572.327654: $GPGGA,232931,3946.9604,N,08404.9571,W,1,07,1.20,290.64,M,-33.324,M,,*7C
2017-11-15 18:29:32 1510788572.327714: $GPRMC,232931,A,3946.9604,N,08404.9571,W,0.4844,273.794,151117,,*34
2017-11-15 18:29:32 1510788572.327770: $GPGSA,A,3,10,14,25,26,31,32,1,,,,,,3.4,1.2,2.9*08
