2017-12-31 17:59:33 1514761173.306553: {"class":"VERSION","release":"3.16","rev":"3.16-4","proto_major":3,"proto_minor":11}
2017-12-31 17:59:33 1514761173.306903: {"class":"DEVICES","devices":[{"class":"DEVICE","path":"/dev/ttyUSB0","driver":"SiRF","activated":"2017-12-31T22:59:33.256Z","flags":1,"native":1,"bps":4800,"parity":"N","stopbits":1,"cycle":1.00}]}
2017-12-31 17:59:33 1514761173.307006: {"class":"WATCH","enable":true,"json":false,"nmea":true,"raw":0,"scaled":false,"timing":false,"split24":false,"pps":false}
2017-12-31 17:59:33 1514761173.706315: $GPGSV,3,1,11,22,26,217,44,23,50,307,42,09,16,312,39,03,35,238,45*74
2017-12-31 17:59:33 1514761173.706492: $GPGSV,3,2,11,16,76,192,43,29,07,033,34,14,19,130,32,31,31,072,43*74
2017-12-31 17:59:33 1514761173.706558: $GPGSV,3,3,11,27,18,156,29,26,66,054,49,135,22,240,44*75
2017-12-31 17:59:33 1514761173.819632: $GPZDA,225934.00,31,12,2017,00,00*68
2017-12-31 17:59:33 1514761173.819749: $GPGGA,225934,3946.9564,N,08404.9866,W,2,11,0.60,307.48,M,-33.324,M,,*71
2017-12-31 17:59:33 1514761173.819812: $GPRMC,225934,A,3946.9564,N,08404.9866,W,0.0000,0.000,311217,,*3C
2017-12-31 17:59:33 1514761173.819871: $GPGSA,A,3,22,23,9,3,16,29,14,31,27,26,135,,1.7,0.6,1.3*06
2017-12-31 17:59:34 1514761174.345939: $GPZDA,225935.00,31,12,2017,00,00*69
2017-12-31 17:59:34 1514761174.346126: $GPGGA,225935,3946.9564,N,08404.9866,W,2,11,0.60,307.48,M,-33.324,M,,*70
2017-12-31 17:59:34 1514761174.346194: $GPRMC,225935,A,3946.9564,N,08404.9866,W,0.0000,0.000,311217,,*3D
2017-12-31 17:59:34 1514761174.346255: $GPGSA,A,3,22,23,9,3,16,29,14,31,27,26,135,,1.7,0.6,1.3*06
2017-12-31 17:59:35 1514761175.345013: $GPZDA,225936.00,31,12,2017,00,00*6A
2017-12-31 17:59:35 1514761175.345199: $GPGGA,225936,3946.9564,N,08404.9866,W,2,11,0.60,307.48,M,-33.324,M,,*73
2017-12-31 17:59:35 1514761175.345267: $GPRMC,225936,A,3946.9564,N,08404.9866,W,0.0000,0.000,311217,,*3E
2017-12-31 17:59:35 1514761175.345328: $GPGSA,A,3,22,23,9,3,16,29,14,31,27,26,135,,1.7,0.6,1.3*06
2017-12-31 17:59:36 1514761176.706690: $GPGSV,3,1,11,22,26,217,44,23,50,307,42,09,16,312,40,03,35,238,45*7A
2017-12-31 17:59:36 1514761176.706858: $GPGSV,3,2,11,16,76,192,43,29,07,033,35,14,19,130,32,31,31,072,42*74
2017-12-31 17:59:36 1514761176.706923: $GPGSV,3,3,11,27,18,156,29,26,66,054,49,135,22,240,45*74
2017-12-31 17:59:36 1514761176.820443: $GPZDA,225937.00,31,12,2017,00,00*6B
2017-12-31 17:59:36 1514761176.820588: $GPGGA,225937,3946.9564,N,08404.9866,W,2,11,0.60,307.48,M,-33.324,M,,*72
2017-12-31 17:59:36 1514761176.820653: $GPRMC,225937,A,3946.9564,N,08404.9866,W,0.0000,0.000,311217,,*3F
2017-12-31 17:59:36 1514761176.820713: $GPGSA,A,3,22,23,9,3,16,29,14,31,27,26,135,,1.7,0.6,1.3*06
2017-12-31 17:59:37 1514761177.372212: $GPZDA,225938.00,31,12,2017,00,00*64
2017-12-31 17:59:37 1514761177.372387: $GPGGA,225938,3946.9564,N,08404.9866,W,2,11,0.60,307.48,M,-33.324,M,,*7D
2017-12-31 17:59:37 1514761177.372452: $GPRMC,225938,A,3946.9564,N,08404.9866,W,0.0000,0.000,311217,,*30
2017-12-31 17:59:37 1514761177.372514: $GPGSA,A,3,22,23,9,3,16,29,14,31,27,26,135,,1.7,0.6,1.3*06
2017-12-31 17:59:38 1514761178.345550: $GPZDA,225939.00,31,12,2017,00,00*65
2017-12-31 17:59:38 1514761178.345742: $GPGGA,225939,3946.9564,N,08404.9866,W,2,11,0.60,307.48,M,-33.324,M,,*7C
2017-12-31 17:59:38 1514761178.345830: $GPRMC,225939,A,3946.9564,N,08404.9866,W,0.0000,0.000,311217,,*31
2017-12-31 17:59:38 1514761178.345892: $GPGSA,A,3,22,23,9,3,16,29,14,31,27,26,135,,1.7,0.6,1.3*06
2017-12-31 17:59:39 1514761179.681333: $GPGSV,3,1,11,22,26,217,44,23,50,307,43,09,16,312,40,03,35,238,45*7B
2017-12-31 17:59:39 1514761179.681491: $GPGSV,3,2,11,16,76,192,43,29,07,033,36,14,19,130,32,31,31,072,42*77
2017-12-31 17:59:39 1514761179.681555: $GPGSV,3,3,11,27,18,156,29,26,66,054,49,135,22,240,43*72
2017-12-31 17:59:39 1514761179.794890: $GPZDA,225940.00,31,12,2017,00,00*6B
2017-12-31 17:59:39 1514761179.795024: $GPGGA,225940,3946.9564,N,08404.9866,W,2,11,0.60,307.48,M,-33.324,M,,*72
2017-12-31 17:59:39 1514761179.795089: $GPRMC,225940,A,3946.9564,N,08404.9866,W,0.0000,0.000,311217,,*3F
2017-12-31 17:59:39 1514761179.795204: $GPGSA,A,3,22,23,9,3,16,29,14,31,27,26,135,,1.7,0.6,1.3*06
2017-12-31 17:59:40 1514761180.420296: $GPZDA,225941.00,31,12,2017,00,00*6A
2017-12-31 17:59:40 1514761180.420461: $GPGGA,225941,3946.9564,N,08404.9866,W,2,11,0.60,307.48,M,-33.324,M,,*73
2017-12-31 17:59:40 1514761180.420526: $GPRMC,225941,A,3946.9564,N,08404.9866,W,0.0000,0.000,311217,,*3E
2017-12-31 17:59:40 1514761180.420587: $GPGSA,A,3,22,23,9,3,16,29,14,31,27,26,135,,1.7,0.6,1.3*06
2017-12-31 17:59:41 1514761181.371153: $GPZDA,225942.00,31,12,2017,00,00*69
2017-12-31 17:59:41 1514761181.371323: $GPGGA,225942,3946.9564,N,08404.9866,W,2,11,0.60,307.48,M,-33.324,M,,*70
2017-12-31 17:59:41 1514761181.371389: $GPRMC,225942,A,3946.9564,N,08404.9866,W,0.0000,0.000,311217,,*3D
2017-12-31 17:59:41 1514761181.371451: $GPGSA,A,3,22,23,9,3,16,29,14,31,27,26,135,,1.7,0.6,1.3*06
2017-12-31 17:59:42 1514761182.674158: $GPGSV,3,1,11,22,26,217,44,23,50,307,43,09,16,312,39,03,35,238,45*75
2017-12-31 17:59:42 1514761182.674338: $GPGSV,3,2,11,16,76,192,43,29,07,033,39,14,19,130,33,31,31,072,42*79
2017-12-31 17:59:42 1514761182.674402: $GPGSV,3,3,11,27,18,156,29,26,66,054,49,135,22,240,43*72
2017-12-31 17:59:42 1514761182.787800: $GPZDA,225943.00,31,12,2017,00,00*68
2017-12-31 17:59:42 1514761182.787931: $GPGGA,225943,3946.9564,N,08404.9866,W,2,11,0.60,307.48,M,-33.324,M,,*71
2017-12-31 17:59:42 1514761182.787996: $GPRMC,225943,A,3946.9564,N,08404.9866,W,0.0000,0.000,311217,,*3C
2017-12-31 17:59:42 1514761182.788056: $GPGSA,A,3,22,23,9,3,16,29,14,31,27,26,135,,1.7,0.6,1.3*06
