2017-11-16 14:13:19 1510859599.546424: {"class":"VERSION","release":"3.17","rev":"3.17","proto_major":3,"proto_minor":12}
2017-11-16 14:13:19 1510859599.547183: {"class":"DEVICES","devices":[{"class":"DEVICE","path":"/dev/ttyUSB0","driver":"SiRF","subtype":"9\u0006GSD4e_4.1.2-P1_RPATCH.05-F-GPS-4R-1510281 11/03/2015 307","activated":"2017-11-16T19:13:19.486Z","flags":1,"native":1,"bps":4800,"parity":"N","stopbits":1,"cycle":1.00}]}
2017-11-16 14:13:19 1510859599.547306: {"class":"WATCH","enable":true,"json":false,"nmea":true,"raw":0,"scaled":false,"timing":false,"split24":false,"pps":false}
2017-11-16 14:13:19 1510859599.599459: $GPZDA,191318.00,16,11,2017,00,00*66
2017-11-16 14:13:19 1510859599.599598: $GPGGA,191318,3946.9550,N,08404.9851,W,2,12,0.80,304.32,M,-33.324,M,,*79
2017-11-16 14:13:19 1510859599.599659: $GPRMC,191318,A,3946.9550,N,08404.9851,W,0.0000,0.000,161117,,*31
2017-11-16 14:13:19 1510859599.599714: $GPGSA,A,3,8,10,13,15,18,21,20,24,27,32,14,138,1.6,0.8,1.3*35
2017-11-16 14:13:20 1510859600.524338: $GPZDA,191319.00,16,11,2017,00,00*67
2017-11-16 14:13:20 1510859600.524593: $GPGGA,191319,3946.9550,N,08404.9851,W,2,12,0.80,304.32,M,-33.324,M,,*78
2017-11-16 14:13:20 1510859600.524685: $GPRMC,191319,A,3946.9550,N,08404.9851,W,0.0000,0.000,161117,,*30
2017-11-16 14:13:20 1510859600.524775: $GPGSA,A,3,8,10,13,15,18,21,20,24,27,32,14,138,1.6,0.8,1.3*35
2017-11-16 14:13:21 1510859601.859749: $GPGSV,3,1,12,08,06,322,30,10,41,300,42,13,08,048,23,15,38,052,49*75
2017-11-16 14:13:21 1510859601.859909: $GPGSV,3,2,12,18,70,334,47,21,65,192,46,20,33,096,46,24,50,111,48*7B
2017-11-16 14:13:21 1510859601.859969: $GPGSV,3,3,12,27,19,289,37,32,20,237,46,14,04,232,18,138,38,213,44*4D
2017-11-16 14:13:21 1510859601.973027: $GPZDA,191320.00,16,11,2017,00,00*6D
2017-11-16 14:13:21 1510859601.973184: $GPGGA,191320,3946.9550,N,08404.9851,W,2,12,0.80,304.32,M,-33.324,M,,*72
2017-11-16 14:13:21 1510859601.973244: $GPRMC,191320,A,3946.9550,N,08404.9851,W,0.0000,0.000,161117,,*3A
2017-11-16 14:13:21 1510859601.973299: $GPGSA,A,3,8,10,13,15,18,21,20,24,27,32,14,138,1.6,0.8,1.3*35
2017-11-16 14:13:22 1510859602.552655: $GPZDA,191321.00,16,11,2017,00,00*6C
2017-11-16 14:13:22 1510859602.552833: $GPGGA,191321,3946.9550,N,08404.9851,W,2,12,0.80,304.32,M,-33.324,M,,*73
2017-11-16 14:13:22 1510859602.552913: $GPRMC,191321,A,3946.9550,N,08404.9851,W,0.0000,0.000,161117,,*3B
2017-11-16 14:13:22 1510859602.552971: $GPGSA,A,3,8,10,13,15,18,21,20,24,27,32,14,138,1.6,0.8,1.3*35
2017-11-16 14:13:23 1510859603.523354: $GPZDA,191322.00,16,11,2017,00,00*6F
2017-11-16 14:13:23 1510859603.523515: $GPGGA,191322,3946.9554,N,08404.9851,W,2,12,0.80,304.96,M,-33.324,M,,*7A
2017-11-16 14:13:23 1510859603.523576: $GPRMC,191322,A,3946.9554,N,08404.9851,W,0.0000,0.000,161117,,*3C
2017-11-16 14:13:23 1510859603.523632: $GPGSA,A,3,8,10,13,15,18,21,20,24,27,32,14,138,1.6,0.8,1.3*35
2017-11-16 14:13:24 1510859604.883501: $GPGSV,3,1,12,08,06,322,31,10,41,300,42,13,08,048,23,15,38,052,49*74
2017-11-16 14:13:24 1510859604.883694: $GPGSV,3,2,12,18,70,334,47,21,65,192,46,20,33,096,46,24,50,111,48*7B
2017-11-16 14:13:24 1510859604.883782: $GPGSV,3,3,12,27,19,289,38,32,20,237,46,14,04,232,20,138,38,213,44*49
2017-11-16 14:13:24 1510859604.996827: $GPZDA,191323.00,16,11,2017,00,00*6E
2017-11-16 14:13:24 1510859604.996973: $GPGGA,191323,3946.9554,N,08404.9851,W,2,12,0.80,304.96,M,-33.324,M,,*7B
2017-11-16 14:13:24 1510859604.997034: $GPRMC,191323,A,3946.9554,N,08404.9851,W,0.0000,0.000,161117,,*3D
2017-11-16 14:13:24 1510859604.997091: $GPGSA,A,3,8,10,13,15,18,21,20,24,27,32,14,138,1.6,0.8,1.3*35
2017-11-16 14:13:25 1510859605.523964: $GPZDA,191324.00,16,11,2017,00,00*69
2017-11-16 14:13:25 1510859605.524125: $GPGGA,191324,3946.9554,N,08404.9851,W,2,12,0.80,304.96,M,-33.324,M,,*7C
2017-11-16 14:13:25 1510859605.524187: $GPRMC,191324,A,3946.9554,N,08404.9851,W,0.0000,0.000,161117,,*3A
2017-11-16 14:13:25 1510859605.524243: $GPGSA,A,3,8,10,13,15,18,21,20,24,27,32,14,138,1.6,0.8,1.3*35
2017-11-16 14:13:26 1510859606.550994: $GPZDA,191325.00,16,11,2017,00,00*68
2017-11-16 14:13:26 1510859606.551207: $GPGGA,191325,3946.9554,N,08404.9851,W,2,12,0.80,304.96,M,-33.324,M,,*7D
2017-11-16 14:13:26 1510859606.551270: $GPRMC,191325,A,3946.9554,N,08404.9851,W,0.0000,0.000,161117,,*3B
2017-11-16 14:13:26 1510859606.551326: $GPGSA,A,3,8,10,13,15,18,21,20,24,27,32,14,138,1.6,0.8,1.3*35
2017-11-16 14:13:27 1510859607.886528: $GPGSV,3,1,12,08,06,322,38,10,41,300,39,13,08,048,23,15,38,052,49*71
2017-11-16 14:13:27 1510859607.886676: $GPGSV,3,2,12,18,70,334,47,21,65,192,47,20,33,096,46,24,50,111,48*7A
2017-11-16 14:13:27 1510859607.886740: $GPGSV,3,3,12,27,19,289,38,32,20,237,45,14,04,232,00,138,38,213,44*48
2017-11-16 14:13:27 1510859607.999962: $GPZDA,191326.00,16,11,2017,00,00*6B
2017-11-16 14:13:28 1510859608.000133: $GPGGA,191326,3946.9554,N,08404.9851,W,2,11,0.80,304.96,M,-33.324,M,,*7D
2017-11-16 14:13:28 1510859608.000200: $GPRMC,191326,A,3946.9554,N,08404.9851,W,0.0000,0.000,161117,,*38
2017-11-16 14:13:28 1510859608.000261: $GPGSA,A,3,8,10,13,15,18,21,20,24,27,32,138,,1.6,0.8,1.3*30
2017-11-16 14:13:28 1510859608.522381: $GPZDA,191327.00,16,11,2017,00,00*6A
2017-11-16 14:13:28 1510859608.522550: $GPGGA,191327,3946.9554,N,08404.9851,W,2,11,0.80,304.96,M,-33.324,M,,*7C
2017-11-16 14:13:28 1510859608.522614: $GPRMC,191327,A,3946.9554,N,08404.9851,W,0.0000,0.000,161117,,*39
2017-11-16 14:13:28 1510859608.522673: $GPGSA,A,3,8,10,13,15,18,21,20,24,27,32,138,,1.6,0.8,1.3*30
