2017-11-16 17:38:17 1510871897.602682: {"class":"VERSION","release":"3.17","rev":"3.17","proto_major":3,"proto_minor":12}
2017-11-16 17:38:17 1510871897.603118: {"class":"DEVICES","devices":[{"class":"DEVICE","path":"/dev/ttyUSB0","driver":"SiRF","subtype":"9\u0006GSD4e_4.1.2-P1_RPATCH.05-F-GPS-4R-1510281 11/03/2015 307","activated":"2017-11-16T22:38:17.536Z","flags":1,"native":1,"bps":4800,"parity":"N","stopbits":1,"cycle":1.00}]}
2017-11-16 17:38:17 1510871897.603238: {"class":"WATCH","enable":true,"json":false,"nmea":true,"raw":0,"scaled":false,"timing":false,"split24":false,"pps":false}
2017-11-16 17:38:18 1510871898.734602: $GPGSV,3,1,12,01,22,298,25,10,46,148,46,22,21,312,44,12,21,048,50*7B
2017-11-16 17:38:18 1510871898.734766: $GPGSV,3,2,12,14,67,333,47,18,16,145,41,26,04,183,23,11,08,280,37*79
2017-11-16 17:38:18 1510871898.734826: $GPGSV,3,3,12,25,40,087,49,31,58,228,47,32,68,033,50,138,38,213,44*44
2017-11-16 17:38:18 1510871898.848138: $GPZDA,223817.00,16,11,2017,00,00*68
2017-11-16 17:38:18 1510871898.848290: $GPGGA,223817,3946.9576,N,08404.9841,W,2,12,0.80,303.26,M,-33.324,M,,*70
2017-11-16 17:38:18 1510871898.848351: $GPRMC,223817,A,3946.9576,N,08404.9841,W,0.0000,0.000,161117,,*3A
2017-11-16 17:38:18 1510871898.848406: $GPGSA,A,3,1,10,22,12,14,18,26,11,25,31,32,138,1.6,0.8,1.3*3A
2017-11-16 17:38:19 1510871899.396227: $GPZDA,223818.00,16,11,2017,00,00*67
2017-11-16 17:38:19 1510871899.396395: $GPGGA,223818,3946.9576,N,08404.9841,W,2,12,0.80,303.26,M,-33.324,M,,*7F
2017-11-16 17:38:19 1510871899.396457: $GPRMC,223818,A,3946.9576,N,08404.9841,W,0.0000,0.000,161117,,*35
2017-11-16 17:38:19 1510871899.396513: $GPGSA,A,3,1,10,22,12,14,18,26,11,25,31,32,138,1.6,0.8,1.3*3A
2017-11-16 17:38:20 1510871900.389600: $GPZDA,223819.00,16,11,2017,00,00*66
2017-11-16 17:38:20 1510871900.389768: $GPGGA,223819,3946.9576,N,08404.9841,W,2,12,0.80,303.26,M,-33.324,M,,*7E
2017-11-16 17:38:20 1510871900.389829: $GPRMC,223819,A,3946.9576,N,08404.9841,W,0.0000,0.000,161117,,*34
2017-11-16 17:38:20 1510871900.389885: $GPGSA,A,3,1,10,22,12,14,18,26,11,25,31,32,138,1.6,0.8,1.3*3A
2017-11-16 17:38:21 1510871901.731078: $GPGSV,3,1,12,01,22,298,25,10,46,148,46,22,21,312,44,12,21,048,50*7B
2017-11-16 17:38:21 1510871901.731246: $GPGSV,3,2,12,14,67,333,47,18,16,145,41,26,04,183,23,11,08,280,37*79
2017-11-16 17:38:21 1510871901.731306: $GPGSV,3,3,12,25,40,087,49,31,58,228,48,32,68,033,50,138,38,213,44*4B
2017-11-16 17:38:21 1510871901.844403: $GPZDA,223820.00,16,11,2017,00,00*6C
2017-11-16 17:38:21 1510871901.844564: $GPGGA,223820,3946.9576,N,08404.9841,W,2,12,0.80,303.26,M,-33.324,M,,*74
2017-11-16 17:38:21 1510871901.844625: $GPRMC,223820,A,3946.9576,N,08404.9841,W,0.0000,0.000,161117,,*3E
2017-11-16 17:38:21 1510871901.844681: $GPGSA,A,3,1,10,22,12,14,18,26,11,25,31,32,138,1.6,0.8,1.3*3A
2017-11-16 17:38:22 1510871902.395583: $GPZDA,223821.00,16,11,2017,00,00*6D
2017-11-16 17:38:22 1510871902.395743: $GPGGA,223821,3946.9576,N,08404.9841,W,2,12,0.80,303.26,M,-33.324,M,,*75
2017-11-16 17:38:22 1510871902.395821: $GPRMC,223821,A,3946.9576,N,08404.9841,W,0.0000,0.000,161117,,*3F
2017-11-16 17:38:22 1510871902.395900: $GPGSA,A,3,1,10,22,12,14,18,26,11,25,31,32,138,1.6,0.8,1.3*3A
2017-11-16 17:38:23 1510871903.396187: $GPZDA,223822.00,16,11,2017,00,00*6E
2017-11-16 17:38:23 1510871903.397781: $GPGGA,223822,3946.9576,N,08404.9841,W,2,12,0.80,303.26,M,-33.324,M,,*76
2017-11-16 17:38:23 1510871903.397900: $GPRMC,223822,A,3946.9576,N,08404.9841,W,0.0000,0.000,161117,,*3C
2017-11-16 17:38:23 1510871903.397989: $GPGSA,A,3,1,10,22,12,14,18,26,11,25,31,32,138,1.6,0.8,1.3*3A
2017-11-16 17:38:24 1510871904.731903: $GPGSV,3,1,12,01,22,298,26,10,46,148,46,22,21,312,44,12,21,048,50*78
2017-11-16 17:38:24 1510871904.732099: $GPGSV,3,2,12,14,67,333,47,18,16,145,41,26,04,183,23,11,08,280,37*79
2017-11-16 17:38:24 1510871904.732182: $GPGSV,3,3,12,25,40,087,49,31,58,228,48,32,68,033,50,138,38,213,44*4B
2017-11-16 17:38:24 1510871904.845294: $GPZDA,223823.00,16,11,2017,00,00*6F
2017-11-16 17:38:24 1510871904.845541: $GPGGA,223823,3946.9576,N,08404.9841,W,2,12,0.80,303.26,M,-33.324,M,,*77
2017-11-16 17:38:24 1510871904.845750: $GPRMC,223823,A,3946.9576,N,08404.9841,W,0.0000,0.000,161117,,*3D
2017-11-16 17:38:24 1510871904.845882: $GPGSA,A,3,1,10,22,12,14,18,26,11,25,31,32,138,1.6,0.8,1.3*3A
2017-11-16 17:38:25 1510871905.399852: $GPZDA,223824.00,16,11,2017,00,00*68
2017-11-16 17:38:25 1510871905.400030: $GPGGA,223824,3946.9576,N,08404.9841,W,2,12,0.80,303.26,M,-33.324,M,,*70
2017-11-16 17:38:25 1510871905.400108: $GPRMC,223824,A,3946.9576,N,08404.9841,W,0.0000,0.000,161117,,*3A
2017-11-16 17:38:25 1510871905.400165: $GPGSA,A,3,1,10,22,12,14,18,26,11,25,31,32,138,1.6,0.8,1.3*3A
2017-11-16 17:38:26 1510871906.399158: $GPZDA,223825.00,16,11,2017,00,00*69
2017-11-16 17:38:26 1510871906.399318: $GPGGA,223825,3946.9576,N,08404.9841,W,2,12,0.80,303.26,M,-33.324,M,,*71
2017-11-16 17:38:26 1510871906.399378: $GPRMC,223825,A,3946.9576,N,08404.9841,W,0.0000,0.000,161117,,*3B
2017-11-16 17:38:26 1510871906.399433: $GPGSA,A,3,1,10,22,12,14,18,26,11,25,31,32,138,1.6,0.8,1.3*3A
