2017-11-16 15:26:44 1510864004.006405: {"class":"VERSION","release":"3.17","rev":"3.17","proto_major":3,"proto_minor":12}
2017-11-16 15:26:44 1510864004.006888: {"class":"DEVICES","devices":[{"class":"DEVICE","path":"/dev/ttyUSB0","driver":"SiRF","subtype":"9\u0006GSD4e_4.1.2-P1_RPATCH.05-F-GPS-4R-1510281 11/03/2015 307","activated":"2017-11-16T20:26:43.975Z","flags":1,"native":1,"bps":4800,"parity":"N","stopbits":1,"cycle":1.00}]}
2017-11-16 15:26:44 1510864004.007001: {"class":"WATCH","enable":true,"json":false,"nmea":true,"raw":0,"scaled":false,"timing":false,"split24":false,"pps":false}
2017-11-16 15:26:44 1510864004.362511: $GPZDA,202643.00,16,11,2017,00,00*64
2017-11-16 15:26:44 1510864004.362688: $GPGGA,202643,3946.9572,N,08404.9866,W,2,12,0.80,308.76,M,-33.324,M,,*73
2017-11-16 15:26:44 1510864004.362773: $GPRMC,202643,A,3946.9572,N,08404.9866,W,0.0000,0.000,161117,,*37
2017-11-16 15:26:44 1510864004.362830: $GPGSA,A,3,8,10,14,15,18,20,21,24,27,32,12,138,1.6,0.8,1.3*34
2017-11-16 15:26:45 1510864005.384850: $GPZDA,202644.00,16,11,2017,00,00*63
2017-11-16 15:26:45 1510864005.385012: $GPGGA,202644,3946.9572,N,08404.9866,W,2,12,0.80,308.76,M,-33.324,M,,*74
2017-11-16 15:26:45 1510864005.385074: $GPRMC,202644,A,3946.9572,N,08404.9866,W,0.0000,0.000,161117,,*30
2017-11-16 15:26:45 1510864005.385130: $GPGSA,A,3,8,10,14,15,18,20,21,24,27,32,12,138,1.6,0.8,1.3*34
2017-11-16 15:26:46 1510864006.721049: $GPGSV,3,1,12,08,06,292,34,10,69,331,51,14,29,253,46,15,11,066,35*79
2017-11-16 15:26:46 1510864006.721217: $GPGSV,3,2,12,18,71,094,48,20,08,118,23,21,29,180,45,24,45,058,51*78
2017-11-16 15:26:46 1510864006.721278: $GPGSV,3,3,12,27,06,259,25,32,46,265,48,12,09,106,20,138,38,213,45*41
2017-11-16 15:26:46 1510864006.834422: $GPZDA,202645.00,16,11,2017,00,00*62
2017-11-16 15:26:46 1510864006.834596: $GPGGA,202645,3946.9572,N,08404.9866,W,2,12,0.80,308.76,M,-33.324,M,,*75
2017-11-16 15:26:46 1510864006.834658: $GPRMC,202645,A,3946.9572,N,08404.9866,W,0.0000,0.000,161117,,*31
2017-11-16 15:26:46 1510864006.834715: $GPGSA,A,3,8,10,14,15,18,20,21,24,27,32,12,138,1.6,0.8,1.3*34
2017-11-16 15:26:47 1510864007.384252: $GPZDA,202646.00,16,11,2017,00,00*61
2017-11-16 15:26:47 1510864007.384424: $GPGGA,202646,3946.9572,N,08404.9866,W,2,12,0.80,308.76,M,-33.324,M,,*76
2017-11-16 15:26:47 1510864007.384486: $GPRMC,202646,A,3946.9572,N,08404.9866,W,0.0000,0.000,161117,,*32
2017-11-16 15:26:47 1510864007.384543: $GPGSA,A,3,8,10,14,15,18,20,21,24,27,32,12,138,1.6,0.8,1.3*34
2017-11-16 15:26:48 1510864008.383607: $GPZDA,202647.00,16,11,2017,00,00*60
2017-11-16 15:26:48 1510864008.383794: $GPGGA,202647,3946.9572,N,08404.9866,W,2,12,0.80,308.76,M,-33.324,M,,*77
2017-11-16 15:26:48 1510864008.383858: $GPRMC,202647,A,3946.9572,N,08404.9866,W,0.0000,0.000,161117,,*33
2017-11-16 15:26:48 1510864008.383917: $GPGSA,A,3,8,10,14,15,18,20,21,24,27,32,12,138,1.6,0.8,1.3*34
2017-11-16 15:26:49 1510864009.704355: $GPGSV,3,1,12,08,06,292,36,10,69,331,51,14,29,253,46,15,11,066,36*78
2017-11-16 15:26:49 1510864009.704556: $GPGSV,3,2,12,18,71,094,48,20,08,118,22,21,29,180,45,24,45,058,51*79
2017-11-16 15:26:49 1510864009.704619: $GPGSV,3,3,12,27,06,259,25,32,46,265,48,12,09,106,12,138,38,213,44*41
2017-11-16 15:26:49 1510864009.817932: $GPZDA,202648.00,16,11,2017,00,00*6F
2017-11-16 15:26:49 1510864009.818089: $GPGGA,202648,3946.9572,N,08404.9866,W,2,12,0.80,308.76,M,-33.324,M,,*78
2017-11-16 15:26:49 1510864009.818166: $GPRMC,202648,A,3946.9572,N,08404.9866,W,0.0000,0.000,161117,,*3C
2017-11-16 15:26:49 1510864009.818222: $GPGSA,A,3,8,10,14,15,18,20,21,24,27,32,12,138,1.6,0.8,1.3*34
2017-11-16 15:26:50 1510864010.368015: $GPZDA,202649.00,16,11,2017,00,00*6E
2017-11-16 15:26:50 1510864010.368194: $GPGGA,202649,3946.9572,N,08404.9866,W,2,12,0.80,308.76,M,-33.324,M,,*79
2017-11-16 15:26:50 1510864010.368290: $GPRMC,202649,A,3946.9572,N,08404.9866,W,0.0000,0.000,161117,,*3D
2017-11-16 15:26:50 1510864010.368349: $GPGSA,A,3,8,10,14,15,18,20,21,24,27,32,12,138,1.6,0.8,1.3*34
2017-11-16 15:26:51 1510864011.367854: $GPZDA,202650.00,16,11,2017,00,00*66
2017-11-16 15:26:51 1510864011.368072: $GPGGA,202650,3946.9572,N,08404.9866,W,2,12,0.80,308.76,M,-33.324,M,,*71
2017-11-16 15:26:51 1510864011.368137: $GPRMC,202650,A,3946.9572,N,08404.9866,W,0.0000,0.000,161117,,*35
2017-11-16 15:26:51 1510864011.368193: $GPGSA,A,3,8,10,14,15,18,20,21,24,27,32,12,138,1.6,0.8,1.3*34
2017-11-16 15:26:52 1510864012.703440: $GPGSV,3,1,12,08,06,292,36,10,69,331,51,14,29,253,46,15,11,066,35*7B
2017-11-16 15:26:52 1510864012.703608: $GPGSV,3,2,12,18,71,094,48,20,08,118,22,21,29,180,44,24,45,058,51*78
2017-11-16 15:26:52 1510864012.703685: $GPGSV,3,3,12,27,06,259,26,32,46,265,47,12,09,106,21,138,38,213,44*4D
2017-11-16 15:26:52 1510864012.816832: $GPZDA,202651.00,16,11,2017,00,00*67
2017-11-16 15:26:52 1510864012.817205: $GPGGA,202651,3946.9572,N,08404.9866,W,2,12,0.80,308.76,M,-33.324,M,,*70
2017-11-16 15:26:52 1510864012.817274: $GPRMC,202651,A,3946.9572,N,08404.9866,W,0.0000,0.000,161117,,*34
2017-11-16 15:26:52 1510864012.817359: $GPGSA,A,3,8,10,14,15,18,20,21,24,27,32,12,138,1.6,0.8,1.3*34
2017-11-16 15:26:53 1510864013.369062: $GPZDA,202652.00,16,11,2017,00,00*64
2017-11-16 15:26:53 1510864013.369216: $GPGGA,202652,3946.9572,N,08404.9866,W,2,12,0.80,308.76,M,-33.324,M,,*73
2017-11-16 15:26:53 1510864013.369277: $GPRMC,202652,A,3946.9572,N,08404.9866,W,0.0000,0.000,161117,,*37
2017-11-16 15:26:53 1510864013.369358: $GPGSA,A,3,8,10,14,15,18,20,21,24,27,32,12,138,1.6,0.8,1.3*34
