2017-11-15 19:15:24 1510791324.595297: {"class":"VERSION","release":"3.17","rev":"3.17","proto_major":3,"proto_minor":12}
2017-11-15 19:15:24 1510791324.595796: {"class":"DEVICES","devices":[{"class":"DEVICE","path":"/dev/ttyUSB0","driver":"SiRF","subtype":"9\u0006GSD4e_4.1.2-P1_RPATCH.05-F-GPS-4R-1510281 11/03/2015 307","activated":"2017-11-16T00:15:24.234Z","flags":1,"native":1,"bps":4800,"parity":"N","stopbits":1,"cycle":1.00}]}
2017-11-15 19:15:24 1510791324.595929: {"class":"WATCH","enable":true,"json":false,"nmea":true,"raw":0,"scaled":false,"timing":false,"split24":false,"pps":false}
2017-11-15 19:15:24 1510791324.684274: $GPGSV,3,1,12,32,42,100,17,14,60,081,24,22,49,282,18,26,45,175,20*7C
2017-11-15 19:15:24 1510791324.684437: $GPGSV,3,2,12,31,73,009,24,16,15,190,09,03,35,306,16,01,10,258,07*7F
2017-11-15 19:15:24 1510791324.684496: $GPGSV,3,3,12,29,08,078,07,25,23,043,00,23,06,297,00,133,44,201,00*49
2017-11-15 19:15:24 1510791324.797620: $GPZDA,001523.00,16,11,2017,00,00*60
2017-11-15 19:15:24 1510791324.797801: $GPGGA,001523,3946.9657,N,08404.9581,W,1,08,1.40,303.85,M,-33.324,M,,*75
2017-11-15 19:15:24 1510791324.797863: $GPRMC,001523,A,3946.9657,N,08404.9581,W,0.5951,238.684,161117,,*38
2017-11-15 19:15:24 1510791324.797919: $GPGSA,A,3,32,14,22,26,31,16,3,1,,,,,3.4,1.4,2.9*3C
2017-11-15 19:15:25 1510791325.348728: $GPZDA,001524.00,16,11,2017,00,00*67
2017-11-15 19:15:25 1510791325.348902: $GPGGA,001524,3946.9657,N,08404.9581,W,1,08,1.00,303.85,M,-33.324,M,,*76
2017-11-15 19:15:25 1510791325.348963: $GPRMC,001524,A,3946.9657,N,08404.9581,W,0.4844,273.794,161117,,*34
2017-11-15 19:15:25 1510791325.349018: $GPGSA,A,3,32,14,22,26,31,16,3,1,,,,,3.4,1.0,2.9*38
2017-11-15 19:15:26 1510791326.346335: $GPZDA,001525.00,16,11,2017,00,00*66
2017-11-15 19:15:26 1510791326.346494: $GPGGA,001525,3946.9657,N,08404.9581,W,1,08,1.00,303.85,M,-33.324,M,,*77
2017-11-15 19:15:26 1510791326.346554: $GPRMC,001525,A,3946.9657,N,08404.9581,W,0.8054,248.645,161117,,*35
2017-11-15 19:15:26 1510791326.346610: $GPGSA,A,3,32,14,22,26,31,16,3,1,,,,,3.4,1.0,2.9*38
2017-11-15 19:15:27 1510791327.683461: $GPGSV,3,1,11,32,42,100,17,14,60,081,24,22,49,282,19,26,45,175,20*7E
2017-11-15 19:15:27 1510791327.683631: $GPGSV,3,2,11,31,73,009,23,16,15,190,09,03,35,306,15,01,10,258,07*78
2017-11-15 19:15:27 1510791327.683690: $GPGSV,3,3,11,29,08,078,12,23,06,297,04,25,23,043,00*48
2017-11-15 19:15:27 1510791327.796695: $GPZDA,001526.00,16,11,2017,00,00*65
2017-11-15 19:15:27 1510791327.796909: $GPGGA,001526,3946.9657,N,08404.9581,W,1,09,1.00,303.85,M,-33.324,M,,*75
2017-11-15 19:15:27 1510791327.796969: $GPRMC,001526,A,3946.9657,N,08404.9581,W,0.4844,273.794,161117,,*36
2017-11-15 19:15:27 1510791327.797025: $GPGSA,A,3,32,14,22,26,31,16,3,1,29,,,,3.4,1.0,2.9*33
2017-11-15 19:15:28 1510791328.330150: $GPZDA,001527.00,16,11,2017,00,00*64
2017-11-15 19:15:28 1510791328.330301: $GPGGA,001527,3946.9661,N,08404.9581,W,1,09,1.00,303.09,M,-33.324,M,,*75
2017-11-15 19:15:28 1510791328.330362: $GPRMC,001527,A,3946.9661,N,08404.9581,W,0.8011,299.090,161117,,*31
2017-11-15 19:15:28 1510791328.330418: $GPGSA,A,3,32,14,22,26,31,16,3,1,29,,,,3.4,1.0,2.9*33
2017-11-15 19:15:29 1510791329.346258: $GPZDA,001528.00,16,11,2017,00,00*6B
2017-11-15 19:15:29 1510791329.346411: $GPGGA,001528,3946.9661,N,08404.9581,W,1,09,1.40,303.09,M,-33.324,M,,*7E
2017-11-15 19:15:29 1510791329.346472: $GPRMC,001528,A,3946.9661,N,08404.9581,W,1.1391,323.662,161117,,*36
2017-11-15 19:15:29 1510791329.346527: $GPGSA,A,3,32,14,22,26,31,16,3,1,29,,,,3.4,1.4,2.9*37
2017-11-15 19:15:30 1510791330.666764: $GPGSV,3,1,11,32,42,100,16,14,60,081,24,22,49,282,20,26,45,175,20*75
2017-11-15 19:15:30 1510791330.666934: $GPGSV,3,2,11,31,73,009,23,16,15,190,09,03,35,306,15,01,10,258,07*78
2017-11-15 19:15:30 1510791330.667009: $GPGSV,3,3,11,29,08,078,10,25,23,043,00,23,06,297,00*4E
2017-11-15 19:15:30 1510791330.778809: $GPZDA,001529.00,16,11,2017,00,00*6A
2017-11-15 19:15:30 1510791330.778969: $GPGGA,001529,3946.9668,N,08404.9580,W,1,09,1.40,302.96,M,-33.324,M,,*70
2017-11-15 19:15:30 1510791330.779028: $GPRMC,001529,A,3946.9668,N,08404.9580,W,1.4168,332.696,161117,,*35
2017-11-15 19:15:30 1510791330.779134: $GPGSA,A,3,32,14,22,26,31,16,3,1,29,,,,3.4,1.4,2.9*37
2017-11-15 19:15:31 1510791331.405612: $GPZDA,001530.00,16,11,2017,00,00*62
2017-11-15 19:15:31 1510791331.405780: $GPGGA,001530,3946.9668,N,08404.9580,W,1,09,1.40,302.96,M,-33.324,M,,*78
2017-11-15 19:15:31 1510791331.405840: $GPRMC,001530,A,3946.9668,N,08404.9580,W,1.0002,334.331,161117,,*3A
2017-11-15 19:15:31 1510791331.405897: $GPGSA,A,3,32,14,22,26,31,16,3,1,29,,,,3.4,1.4,2.9*37
2017-11-15 19:15:32 1510791332.348043: $GPZDA,001531.00,16,11,2017,00,00*63
2017-11-15 19:15:32 1510791332.348211: $GPGGA,001531,3946.9672,N,08404.9579,W,1,09,1.40,302.20,M,-33.324,M,,*79
2017-11-15 19:15:32 1510791332.348287: $GPRMC,001531,A,3946.9672,N,08404.9579,W,0.0000,0.000,161117,,*30
2017-11-15 19:15:32 1510791332.348343: $GPGSA,A,3,32,14,22,26,31,16,3,1,29,,,,3.4,1.4,2.9*37
2017-11-15 19:15:33 1510791333.683412: $GPGSV,3,1,11,32,42,100,16,14,60,081,24,22,49,282,20,26,45,175,20*75
2017-11-15 19:15:33 1510791333.683577: $GPGSV,3,2,11,31,73,009,23,16,15,190,09,03,35,306,15,01,10,258,09*76
2017-11-15 19:15:33 1510791333.683637: $GPGSV,3,3,11,29,08,078,09,25,23,043,00,23,06,297,00*46
2017-11-15 19:15:33 1510791333.796937: $GPZDA,001532.00,16,11,2017,00,00*60
2017-11-15 19:15:33 1510791333.797104: $GPGGA,001532,3946.9676,N,08404.9572,W,1,09,1.40,302.92,M,-33.324,M,,*7C
2017-11-15 19:15:33 1510791333.797167: $GPRMC,001532,A,3946.9676,N,08404.9572,W,0.3423,4.197,161117,,*31
2017-11-15 19:15:33 1510791333.797224: $GPGSA,A,3,32,14,22,26,31,16,3,1,29,,,,3.4,1.4,2.9*37
2017-11-15 19:15:34 1510791334.331409: $GPZDA,001533.00,16,11,2017,00,00*61
2017-11-15 19:15:34 1510791334.331592: $GPGGA,001533,3946.9676,N,08404.9572,W,1,09,1.40,302.92,M,-33.324,M,,*7D
2017-11-15 19:15:34 1510791334.331654: $GPRMC,001533,A,3946.9676,N,08404.9572,W,0.3423,4.197,161117,,*30
2017-11-15 19:15:34 1510791334.331710: $GPGSA,A,3,32,14,22,26,31,16,3,1,29,,,,3.4,1.4,2.9*37
