2017-11-15 19:07:09 1510790829.572673: {"class":"VERSION","release":"3.17","rev":"3.17","proto_major":3,"proto_minor":12}
2017-11-15 19:07:09 1510790829.573247: {"class":"DEVICES","devices":[{"class":"DEVICE","path":"/dev/ttyUSB0","driver":"SiRF","subtype":"9\u0006GSD4e_4.1.2-P1_RPATCH.05-F-GPS-4R-1510281 11/03/2015 307","activated":"2017-11-16T00:07:09.216Z","flags":1,"native":1,"bps":4800,"parity":"N","stopbits":1,"cycle":1.00}]}
2017-11-15 19:07:09 1510790829.573367: {"class":"WATCH","enable":true,"json":false,"nmea":true,"raw":0,"scaled":false,"timing":false,"split24":false,"pps":false}
2017-11-15 19:07:09 1510790829.665818: $GPGSV,3,1,12,32,44,097,21,14,62,076,24,29,07,081,16,26,42,175,21*72
2017-11-15 19:07:09 1510790829.665981: $GPGSV,3,2,12,31,75,001,25,16,12,190,16,22,48,286,23,03,33,309,00*7E
2017-11-15 19:07:09 1510790829.666040: $GPGSV,3,3,12,25,25,045,00,01,11,261,00,10,07,159,00,135,23,238,00*4B
2017-11-15 19:07:09 1510790829.779189: $GPZDA,000708.00,16,11,2017,00,00*6A
2017-11-15 19:07:09 1510790829.779366: $GPGGA,000708,3946.9677,N,08404.9509,W,1,07,1.20,304.27,M,-33.324,M,,*7B
2017-11-15 19:07:09 1510790829.779428: $GPRMC,000708,A,3946.9677,N,08404.9509,W,0.4844,273.794,161117,,*3B
2017-11-15 19:07:09 1510790829.779502: $GPGSA,A,3,32,14,29,26,31,16,22,,,,,,3.4,1.2,2.9*33
2017-11-15 19:07:10 1510790830.328807: $GPZDA,000709.00,16,11,2017,00,00*6B
2017-11-15 19:07:10 1510790830.328970: $GPGGA,000709,3946.9677,N,08404.9509,W,1,07,1.20,304.27,M,-33.324,M,,*7A
2017-11-15 19:07:10 1510790830.329031: $GPRMC,000709,A,3946.9677,N,08404.9509,W,0.4844,273.794,161117,,*3A
2017-11-15 19:07:10 1510790830.329087: $GPGSA,A,3,32,14,29,26,31,16,22,,,,,,3.4,1.2,2.9*33
2017-11-15 19:07:11 1510790831.329171: $GPZDA,000710.00,16,11,2017,00,00*63
2017-11-15 19:07:11 1510790831.329333: $GPGGA,000710,3946.9677,N,08404.9509,W,1,07,1.20,304.27,M,-33.324,M,,*72
2017-11-15 19:07:11 1510790831.329395: $GPRMC,000710,A,3946.9677,N,08404.9509,W,0.2422,93.794,161117,,*04
2017-11-15 19:07:11 1510790831.329451: $GPGSA,A,3,32,14,29,26,31,16,22,,,,,,3.4,1.2,2.9*33
2017-11-15 19:07:12 1510790832.666245: $GPGSV,3,1,12,32,44,097,21,14,62,076,24,29,07,081,16,26,42,175,20*73
2017-11-15 19:07:12 1510790832.666427: $GPGSV,3,2,12,31,75,001,26,16,12,190,16,22,48,286,24,03,33,309,00*7A
2017-11-15 19:07:12 1510790832.666509: $GPGSV,3,3,12,25,25,045,00,01,11,261,00,10,07,159,00,135,23,238,00*4B
2017-11-15 19:07:12 1510790832.780044: $GPZDA,000711.00,16,11,2017,00,00*62
2017-11-15 19:07:12 1510790832.780211: $GPGGA,000711,3946.9677,N,08404.9509,W,1,07,1.20,304.27,M,-33.324,M,,*73
2017-11-15 19:07:12 1510790832.780273: $GPRMC,000711,A,3946.9677,N,08404.9509,W,0.3155,129.994,161117,,*3F
2017-11-15 19:07:12 1510790832.780330: $GPGSA,A,3,32,14,29,26,31,16,22,,,,,,3.4,1.2,2.9*33
2017-11-15 19:07:13 1510790833.330824: $GPZDA,000712.00,16,11,2017,00,00*61
2017-11-15 19:07:13 1510790833.331092: $GPGGA,000712,3946.9677,N,08404.9509,W,1,07,1.20,304.27,M,-33.324,M,,*70
2017-11-15 19:07:13 1510790833.331154: $GPRMC,000712,A,3946.9677,N,08404.9509,W,0.4179,148.778,161117,,*3E
2017-11-15 19:07:13 1510790833.331212: $GPGSA,A,3,32,14,29,26,31,16,22,,,,,,3.4,1.2,2.9*33
2017-11-15 19:07:14 1510790834.328799: $GPZDA,000713.00,16,11,2017,00,00*60
2017-11-15 19:07:14 1510790834.328961: $GPGGA,000713,3946.9677,N,08404.9509,W,1,07,1.20,304.27,M,-33.324,M,,*71
2017-11-15 19:07:14 1510790834.329022: $GPRMC,000713,A,3946.9677,N,08404.9509,W,0.4844,93.794,161117,,*0D
2017-11-15 19:07:14 1510790834.329077: $GPGSA,A,3,32,14,29,26,31,16,22,,,,,,3.4,1.2,2.9*33
2017-11-15 19:07:15 1510790835.665792: $GPGSV,3,1,12,32,44,097,22,14,62,076,24,29,07,081,17,26,42,175,20*71
2017-11-15 19:07:15 1510790835.665970: $GPGSV,3,2,12,31,75,001,26,16,12,190,16,22,48,286,24,03,33,309,00*7A
2017-11-15 19:07:15 1510790835.666031: $GPGSV,3,3,12,25,25,045,00,01,11,261,00,10,07,159,00,135,23,238,00*4B
2017-11-15 19:07:15 1510790835.779129: $GPZDA,000714.00,16,11,2017,00,00*67
2017-11-15 19:07:15 1510790835.779292: $GPGGA,000714,3946.9672,N,08404.9502,W,1,07,1.20,303.71,M,-33.324,M,,*7C
2017-11-15 19:07:15 1510790835.779404: $GPRMC,000714,A,3946.9672,N,08404.9502,W,0.7621,107.945,161117,,*34
2017-11-15 19:07:15 1510790835.779480: $GPGSA,A,3,32,14,29,26,31,16,22,,,,,,3.4,1.2,2.9*33
2017-11-15 19:07:16 1510790836.404631: $GPZDA,000715.00,16,11,2017,00,00*66
2017-11-15 19:07:16 1510790836.404798: $GPGGA,000715,3946.9672,N,08404.9502,W,1,07,1.20,303.71,M,-33.324,M,,*7D
2017-11-15 19:07:16 1510790836.404860: $GPRMC,000715,A,3946.9672,N,08404.9502,W,0.5912,129.173,161117,,*39
2017-11-15 19:07:16 1510790836.404917: $GPGSA,A,3,32,14,29,26,31,16,22,,,,,,3.4,1.2,2.9*33
2017-11-15 19:07:17 1510790837.327982: $GPZDA,000716.00,16,11,2017,00,00*65
2017-11-15 19:07:17 1510790837.328143: $GPGGA,000716,3946.9672,N,08404.9502,W,1,07,1.20,303.71,M,-33.324,M,,*7E
2017-11-15 19:07:17 1510790837.328203: $GPRMC,000716,A,3946.9672,N,08404.9502,W,0.4179,148.778,161117,,*34
2017-11-15 19:07:17 1510790837.328259: $GPGSA,A,3,32,14,29,26,31,16,22,,,,,,3.4,1.2,2.9*33
2017-11-15 19:07:18 1510790838.664924: $GPGSV,3,1,12,32,44,097,22,14,62,076,24,29,07,081,16,26,42,175,21*71
2017-11-15 19:07:18 1510790838.665096: $GPGSV,3,2,12,31,75,001,26,16,12,190,16,22,48,286,24,03,33,309,00*7A
2017-11-15 19:07:18 1510790838.665156: $GPGSV,3,3,12,25,25,045,00,01,11,261,00,10,07,159,00,135,23,238,00*4B
2017-11-15 19:07:18 1510790838.778605: $GPZDA,000717.00,16,11,2017,00,00*64
2017-11-15 19:07:18 1510790838.778760: $GPGGA,000717,3946.9669,N,08404.9503,W,1,07,1.20,304.47,M,-33.324,M,,*76
2017-11-15 19:07:18 1510790838.778821: $GPRMC,000717,A,3946.9669,N,08404.9503,W,0.5912,129.173,161117,,*30
2017-11-15 19:07:18 1510790838.778877: $GPGSA,A,3,32,14,29,26,31,16,22,,,,,,3.4,1.2,2.9*33
2017-11-15 19:07:19 1510790839.329449: $GPZDA,000718.00,16,11,2017,00,00*6B
2017-11-15 19:07:19 1510790839.329612: $GPGGA,000718,3946.9669,N,08404.9503,W,1,07,1.20,304.47,M,-33.324,M,,*79
2017-11-15 19:07:19 1510790839.329672: $GPRMC,000718,A,3946.9669,N,08404.9503,W,0.4179,148.778,161117,,*31
2017-11-15 19:07:19 1510790839.329728: $GPGSA,A,3,32,14,29,26,31,16,22,,,,,,3.4,1.2,2.9*33
