2017-12-31 17:58:06 1514761086.438420: {"class":"VERSION","release":"3.16","rev":"3.16-4","proto_major":3,"proto_minor":11}
2017-12-31 17:58:06 1514761086.438772: {"class":"DEVICES","devices":[{"class":"DEVICE","path":"/dev/ttyUSB0","driver":"SiRF","activated":"2017-12-31T22:58:06.226Z","flags":1,"native":1,"bps":4800,"parity":"N","stopbits":1,"cycle":1.00}]}
2017-12-31 17:58:06 1514761086.438872: {"class":"WATCH","enable":true,"json":false,"nmea":true,"raw":0,"scaled":false,"timing":false,"split24":false,"pps":false}
2017-12-31 17:58:06 1514761086.675845: $GPGSV,3,1,11,22,26,217,44,23,49,307,41,09,16,312,42,03,35,238,45*73
2017-12-31 17:58:06 1514761086.676017: $GPGSV,3,2,11,16,75,192,43,29,08,034,30,14,19,130,31,31,32,070,44*7E
2017-12-31 17:58:06 1514761086.676083: $GPGSV,3,3,11,27,18,156,29,26,67,054,49,135,22,240,43*73
2017-12-31 17:58:06 1514761086.789207: $GPZDA,225807.00,31,12,2017,00,00*69
2017-12-31 17:58:06 1514761086.789339: $GPGGA,225807,3946.9567,N,08404.9865,W,2,11,0.60,306.72,M,-33.324,M,,*78
2017-12-31 17:58:06 1514761086.789403: $GPRMC,225807,A,3946.9567,N,08404.9865,W,0.0000,0.000,311217,,*3D
2017-12-31 17:58:06 1514761086.789462: $GPGSA,A,3,22,23,9,3,16,29,14,31,27,26,135,,1.7,0.6,1.3*06
2017-12-31 17:58:07 1514761087.522002: $GPZDA,225808.00,31,12,2017,00,00*66
2017-12-31 17:58:07 1514761087.522169: $GPGGA,225808,3946.9567,N,08404.9865,W,2,11,0.60,306.72,M,-33.324,M,,*77
2017-12-31 17:58:07 1514761087.522234: $GPRMC,225808,A,3946.9567,N,08404.9865,W,0.0000,0.000,311217,,*32
2017-12-31 17:58:07 1514761087.522294: $GPGSA,A,3,22,23,9,3,16,29,14,31,27,26,135,,1.7,0.6,1.3*06
2017-12-31 17:58:07 1514761087.522351: $GPGBS,225808,2.22,M,3.43,M,7.66,M*3A
2017-12-31 17:58:08 1514761088.370374: $GPZDA,225809.00,31,12,2017,00,00*67
2017-12-31 17:58:08 1514761088.370548: $GPGGA,225809,3946.9567,N,08404.9865,W,2,11,0.60,306.72,M,-33.324,M,,*76
2017-12-31 17:58:08 1514761088.370614: $GPRMC,225809,A,3946.9567,N,08404.9865,W,0.0000,0.000,311217,,*33
2017-12-31 17:58:08 1514761088.370675: $GPGSA,A,3,22,23,9,3,16,29,14,31,27,26,135,,1.7,0.6,1.3*06
2017-12-31 17:58:08 1514761088.370733: $GPGBS,225809,2.22,M,3.43,M,7.66,M*3B
2017-12-31 17:58:09 1514761089.706104: $GPGSV,3,1,11,22,26,217,44,23,49,307,41,09,16,312,42,03,35,238,45*73
2017-12-31 17:58:09 1514761089.706267: $GPGSV,3,2,11,16,75,192,42,29,08,034,35,14,19,130,32,31,32,070,44*79
2017-12-31 17:58:09 1514761089.706332: $GPGSV,3,3,11,27,18,156,28,26,67,054,49,135,22,240,43*72
2017-12-31 17:58:09 1514761089.819417: $GPZDA,225810.00,31,12,2017,00,00*6F
2017-12-31 17:58:09 1514761089.819542: $GPGGA,225810,3946.9567,N,08404.9865,W,2,11,0.60,306.72,M,-33.324,M,,*7E
2017-12-31 17:58:09 1514761089.819606: $GPRMC,225810,A,3946.9567,N,08404.9865,W,0.0000,0.000,311217,,*3B
2017-12-31 17:58:09 1514761089.819665: $GPGSA,A,3,22,23,9,3,16,29,14,31,27,26,135,,1.7,0.6,1.3*06
2017-12-31 17:58:10 1514761090.444843: $GPZDA,225811.00,31,12,2017,00,00*6E
2017-12-31 17:58:10 1514761090.445006: $GPGGA,225811,3946.9567,N,08404.9865,W,2,11,0.60,306.72,M,-33.324,M,,*7F
2017-12-31 17:58:10 1514761090.445072: $GPRMC,225811,A,3946.9567,N,08404.9865,W,0.0000,0.000,311217,,*3A
2017-12-31 17:58:10 1514761090.445131: $GPGSA,A,3,22,23,9,3,16,29,14,31,27,26,135,,1.7,0.6,1.3*06
2017-12-31 17:58:11 1514761091.344463: $GPZDA,225812.00,31,12,2017,00,00*6D
2017-12-31 17:58:11 1514761091.344631: $GPGGA,225812,3946.9567,N,08404.9865,W,2,11,0.60,306.72,M,-33.324,M,,*7C
2017-12-31 17:58:11 1514761091.344697: $GPRMC,225812,A,3946.9567,N,08404.9865,W,0.0000,0.000,311217,,*39
2017-12-31 17:58:11 1514761091.344757: $GPGSA,A,3,22,23,9,3,16,29,14,31,27,26,135,,1.7,0.6,1.3*06
2017-12-31 17:58:12 1514761092.673953: $GPGSV,3,1,11,22,26,217,44,23,49,307,42,09,16,312,42,03,35,238,45*70
2017-12-31 17:58:12 1514761092.674116: $GPGSV,3,2,11,16,75,192,42,29,08,034,36,14,19,130,25,31,32,070,44*7C
2017-12-31 17:58:12 1514761092.674179: $GPGSV,3,3,11,27,18,156,29,26,67,054,49,135,22,240,43*73
2017-12-31 17:58:12 1514761092.787359: $GPZDA,225813.00,31,12,2017,00,00*6C
2017-12-31 17:58:12 1514761092.787485: $GPGGA,225813,3946.9567,N,08404.9865,W,2,11,0.60,306.72,M,-33.324,M,,*7D
2017-12-31 17:58:12 1514761092.787596: $GPRMC,225813,A,3946.9567,N,08404.9865,W,0.0000,0.000,311217,,*38
2017-12-31 17:58:12 1514761092.787657: $GPGSA,A,3,22,23,9,3,16,29,14,31,27,26,135,,1.7,0.6,1.3*06
2017-12-31 17:58:13 1514761093.583813: $GPZDA,225814.00,31,12,2017,00,00*6B
2017-12-31 17:58:13 1514761093.583970: $GPGGA,225814,3946.9567,N,08404.9865,W,2,11,0.60,306.72,M,-33.324,M,,*7A
2017-12-31 17:58:13 1514761093.584033: $GPRMC,225814,A,3946.9567,N,08404.9865,W,0.0000,0.000,311217,,*3F
2017-12-31 17:58:13 1514761093.584093: $GPGSA,A,3,22,23,9,3,16,29,14,31,27,26,135,,1.7,0.6,1.3*06
2017-12-31 17:58:13 1514761093.584150: $GPGBS,225814,2.22,M,3.43,M,7.66,M*37
2017-12-31 17:58:14 1514761094.344688: $GPZDA,225815.00,31,12,2017,00,00*6A
2017-12-31 17:58:14 1514761094.344835: $GPGGA,225815,3946.9567,N,08404.9865,W,2,11,0.60,306.72,M,-33.324,M,,*7B
2017-12-31 17:58:14 1514761094.344897: $GPRMC,225815,A,3946.9567,N,08404.9865,W,0.0000,0.000,311217,,*3E
2017-12-31 17:58:14 1514761094.344956: $GPGSA,A,3,22,23,9,3,16,29,14,31,27,26,135,,1.7,0.6,1.3*06
2017-12-31 17:58:14 1514761094.345013: $GPGBS,225815,2.22,M,3.43,M,7.66,M*36
2017-12-31 17:58:15 1514761095.706151: $GPGSV,3,1,11,22,26,217,44,23,49,307,42,09,16,312,42,03,35,238,45*70
2017-12-31 17:58:15 1514761095.708745: $GPGSV,3,2,11,16,75,192,42,29,08,034,35,14,19,130,28,31,32,070,44*72
2017-12-31 17:58:15 1514761095.708838: $GPGSV,3,3,11,27,18,156,30,26,67,054,49,135,22,240,44*7C
2017-12-31 17:58:15 1514761095.818295: $GPZDA,225816.00,31,12,2017,00,00*69
2017-12-31 17:58:15 1514761095.818425: $GPGGA,225816,3946.9567,N,08404.9865,W,2,11,0.60,306.72,M,-33.324,M,,*78
2017-12-31 17:58:15 1514761095.818488: $GPRMC,225816,A,3946.9567,N,08404.9865,W,0.0000,0.000,311217,,*3D
2017-12-31 17:58:15 1514761095.818547: $GPGSA,A,3,22,23,9,3,16,29,14,31,27,26,135,,1.7,0.6,1.3*06
2017-12-31 17:58:16 1514761096.345353: $GPZDA,225817.00,31,12,2017,00,00*68
2017-12-31 17:58:16 1514761096.345496: $GPGGA,225817,3946.9567,N,08404.9865,W,2,11,0.60,306.72,M,-33.324,M,,*79
2017-12-31 17:58:16 1514761096.345560: $GPRMC,225817,A,3946.9567,N,08404.9865,W,0.0000,0.000,311217,,*3C
2017-12-31 17:58:16 1514761096.345619: $GPGSA,A,3,22,23,9,3,16,29,14,31,27,26,135,,1.7,0.6,1.3*06
