2017-12-01 17:30:42 1512167442.796920: {"class":"VERSION","release":"3.16","rev":"3.16-4","proto_major":3,"proto_minor":11}
2017-12-01 17:30:42 1512167442.797315: {"class":"DEVICES","devices":[{"class":"DEVICE","path":"/dev/ttyUSB0","driver":"SiRF","subtype":"9\u0006GSD4e_4.1.2-P1_RPATCH.05-F-GPS-4R-1510281 11/03/2015 307","activated":"2017-12-01T22:30:42.722Z","flags":1,"native":1,"bps":4800,"parity":"N","stopbits":1,"cycle":1.00}]}
2017-12-01 17:30:42 1512167442.797521: {"class":"WATCH","enable":true,"json":false,"nmea":true,"raw":0,"scaled":false,"timing":false,"split24":false,"pps":false}
2017-12-01 17:30:43 1512167443.743857: $GPGSV,3,1,11,01,18,273,45,03,23,315,43,10,20,157,44,14,69,045,42*7B
2017-12-01 17:30:43 1512167443.744037: $GPGSV,3,2,11,22,41,301,48,25,35,055,43,26,28,177,42,31,79,294,45*7E
2017-12-01 17:30:43 1512167443.744103: $GPGSV,3,3,11,32,53,082,45,12,06,031,20,138,38,213,45*70
2017-12-01 17:30:43 1512167443.857342: $GPZDA,223044.00,01,12,2017,00,00*63
2017-12-01 17:30:43 1512167443.857513: $GPGGA,223044,3946.9758,N,08404.9814,W,2,11,1.40,293.97,M,-33.325,M,,*7D
2017-12-01 17:30:43 1512167443.857579: $GPRMC,223044,A,3946.9758,N,08404.9814,W,0.0000,0.000,011217,,*3F
2017-12-01 17:30:43 1512167443.857640: $GPGSA,A,3,1,3,10,14,22,25,26,31,32,12,138,,2.0,1.4,1.5*0E
2017-12-01 17:30:44 1512167444.406923: $GPZDA,223045.00,01,12,2017,00,00*62
2017-12-01 17:30:44 1512167444.407095: $GPGGA,223045,3946.9758,N,08404.9814,W,2,11,1.40,293.97,M,-33.325,M,,*7C
2017-12-01 17:30:44 1512167444.407163: $GPRMC,223045,A,3946.9758,N,08404.9814,W,0.0000,0.000,011217,,*3E
2017-12-01 17:30:44 1512167444.407223: $GPGSA,A,3,1,3,10,14,22,25,26,31,32,12,138,,2.0,1.4,1.5*0E
2017-12-01 17:30:45 1512167445.407782: $GPZDA,223046.00,01,12,2017,00,00*61
2017-12-01 17:30:45 1512167445.407961: $GPGGA,223046,3946.9758,N,08404.9814,W,2,11,1.00,293.97,M,-33.325,M,,*7B
2017-12-01 17:30:45 1512167445.408028: $GPRMC,223046,A,3946.9758,N,08404.9814,W,0.0000,0.000,011217,,*3D
2017-12-01 17:30:45 1512167445.408089: $GPGSA,A,3,1,3,10,14,22,25,26,31,32,12,138,,2.0,1.0,1.5*0A
2017-12-01 17:30:46 1512167446.743396: $GPGSV,3,1,11,01,18,273,45,03,23,315,43,10,20,157,44,14,69,045,42*7B
2017-12-01 17:30:46 1512167446.743575: $GPGSV,3,2,11,22,41,301,48,25,35,055,42,26,28,177,42,31,79,294,45*7F
2017-12-01 17:30:46 1512167446.743642: $GPGSV,3,3,11,32,53,082,45,12,06,031,11,138,38,213,45*72
2017-12-01 17:30:46 1512167446.857049: $GPZDA,223047.00,01,12,2017,00,00*60
2017-12-01 17:30:46 1512167446.857182: $GPGGA,223047,3946.9758,N,08404.9814,W,2,11,0.80,293.97,M,-33.325,M,,*73
2017-12-01 17:30:46 1512167446.857247: $GPRMC,223047,A,3946.9758,N,08404.9814,W,0.0000,0.000,011217,,*3C
2017-12-01 17:30:46 1512167446.857306: $GPGSA,A,3,1,3,10,14,22,25,26,31,32,12,138,,2.0,0.8,1.5*03
2017-12-01 17:30:47 1512167447.411862: $GPZDA,223048.00,01,12,2017,00,00*6F
2017-12-01 17:30:47 1512167447.412036: $GPGGA,223048,3946.9758,N,08404.9814,W,2,11,0.80,293.97,M,-33.325,M,,*7C
2017-12-01 17:30:47 1512167447.412103: $GPRMC,223048,A,3946.9758,N,08404.9814,W,0.0000,0.000,011217,,*33
2017-12-01 17:30:47 1512167447.412163: $GPGSA,A,3,1,3,10,14,22,25,26,31,32,12,138,,2.0,0.8,1.5*03
2017-12-01 17:30:48 1512167448.410560: $GPZDA,223049.00,01,12,2017,00,00*6E
2017-12-01 17:30:48 1512167448.410737: $GPGGA,223049,3946.9758,N,08404.9814,W,2,11,0.80,293.97,M,-33.325,M,,*7D
2017-12-01 17:30:48 1512167448.410803: $GPRMC,223049,A,3946.9758,N,08404.9814,W,0.0000,0.000,011217,,*32
2017-12-01 17:30:48 1512167448.410863: $GPGSA,A,3,1,3,10,14,22,25,26,31,32,12,138,,2.0,0.8,1.5*03
2017-12-01 17:30:49 1512167449.748752: $GPGSV,3,1,11,01,18,273,45,03,23,315,43,10,20,157,44,14,69,045,41*78
2017-12-01 17:30:49 1512167449.748927: $GPGSV,3,2,11,22,41,301,48,25,35,055,42,26,28,177,43,31,79,294,45*7E
2017-12-01 17:30:49 1512167449.748994: $GPGSV,3,3,11,32,53,082,45,12,06,031,17,138,38,213,45*74
2017-12-01 17:30:49 1512167449.862228: $GPZDA,223050.00,01,12,2017,00,00*66
2017-12-01 17:30:49 1512167449.862403: $GPGGA,223050,3946.9754,N,08404.9814,W,2,11,0.80,293.33,M,-33.325,M,,*77
2017-12-01 17:30:49 1512167449.862521: $GPRMC,223050,A,3946.9754,N,08404.9814,W,0.0000,0.000,011217,,*36
2017-12-01 17:30:49 1512167449.862584: $GPGSA,A,3,1,3,10,14,22,25,26,31,32,12,138,,2.0,0.8,1.5*03
2017-12-01 17:30:50 1512167450.411870: $GPZDA,223051.00,01,12,2017,00,00*67
2017-12-01 17:30:50 1512167450.412043: $GPGGA,223051,3946.9754,N,08404.9814,W,2,11,1.00,293.33,M,-33.325,M,,*7F
2017-12-01 17:30:50 1512167450.412110: $GPRMC,223051,A,3946.9754,N,08404.9814,W,0.0000,0.000,011217,,*37
2017-12-01 17:30:50 1512167450.412171: $GPGSA,A,3,1,3,10,14,22,25,26,31,32,12,138,,2.0,1.0,1.5*0A
2017-12-01 17:30:51 1512167451.415074: $GPZDA,223052.00,01,12,2017,00,00*64
2017-12-01 17:30:51 1512167451.415254: $GPGGA,223052,3946.9754,N,08404.9814,W,2,11,1.00,293.33,M,-33.325,M,,*7C
2017-12-01 17:30:51 1512167451.415325: $GPRMC,223052,A,3946.9754,N,08404.9814,W,0.0000,0.000,011217,,*34
2017-12-01 17:30:51 1512167451.415387: $GPGSA,A,3,1,3,10,14,22,25,26,31,32,12,138,,2.0,1.0,1.5*0A
2017-12-01 17:30:51 1512167451.415445: $GPGBS,223052,2.67,M,3.86,M,8.82,M*36
2017-12-01 17:30:52 1512167452.749527: $GPGSV,3,1,11,01,18,273,45,03,23,315,43,10,20,157,44,14,69,045,42*7B
2017-12-01 17:30:52 1512167452.749705: $GPGSV,3,2,11,22,41,301,48,25,35,055,42,26,28,177,43,31,79,294,45*7E
2017-12-01 17:30:52 1512167452.749773: $GPGSV,3,3,11,32,53,082,45,12,06,031,08,138,38,213,45*7A
2017-12-01 17:30:52 1512167452.863163: $GPZDA,223053.00,01,12,2017,00,00*65
2017-12-01 17:30:52 1512167452.863293: $GPGGA,223053,3946.9754,N,08404.9814,W,2,11,1.00,293.33,M,-33.325,M,,*7D
2017-12-01 17:30:52 1512167452.863359: $GPRMC,223053,A,3946.9754,N,08404.9814,W,0.0000,0.000,011217,,*35
2017-12-01 17:30:52 1512167452.863419: $GPGSA,A,3,1,3,10,14,22,25,26,31,32,12,138,,2.0,1.0,1.5*0A
2017-12-01 17:30:53 1512167453.488672: $GPZDA,223054.00,01,12,2017,00,00*62
2017-12-01 17:30:53 1512167453.488845: $GPGGA,223054,3946.9754,N,08404.9814,W,2,11,0.80,293.33,M,-33.325,M,,*73
2017-12-01 17:30:53 1512167453.488910: $GPRMC,223054,A,3946.9754,N,08404.9814,W,0.0000,0.000,011217,,*32
2017-12-01 17:30:53 1512167453.488971: $GPGSA,A,3,1,3,10,14,22,25,26,31,32,12,138,,2.0,0.8,1.5*03
2017-12-01 17:30:54 1512167454.406763: $GPZDA,223055.00,01,12,2017,00,00*63
2017-12-01 17:30:54 1512167454.406933: $GPGGA,223055,3946.9754,N,08404.9814,W,2,11,0.80,293.33,M,-33.325,M,,*72
2017-12-01 17:30:54 1512167454.407000: $GPRMC,223055,A,3946.9754,N,08404.9814,W,0.0000,0.000,011217,,*33
2017-12-01 17:30:54 1512167454.407060: $GPGSA,A,3,1,3,10,14,22,25,26,31,32,12,138,,2.0,0.8,1.5*03
2017-12-01 17:30:55 1512167455.748644: $GPGSV,3,1,11,01,18,273,45,03,23,315,43,10,20,157,44,14,69,045,42*7B
2017-12-01 17:30:55 1512167455.748828: $GPGSV,3,2,11,22,41,301,48,25,35,055,41,26,28,177,42,31,79,294,45*7C
2017-12-01 17:30:55 1512167455.748895: $GPGSV,3,3,11,32,53,082,45,12,06,031,14,138,38,213,46*74
2017-12-01 17:30:55 1512167455.862095: $GPZDA,223056.00,01,12,2017,00,00*60
2017-12-01 17:30:55 1512167455.862270: $GPGGA,223056,3946.9754,N,08404.9814,W,2,11,0.80,293.33,M,-33.325,M,,*71
2017-12-01 17:30:55 1512167455.862337: $GPRMC,223056,A,3946.9754,N,08404.9814,W,0.0000,0.000,011217,,*30
2017-12-01 17:30:55 1512167455.862398: $GPGSA,A,3,1,3,10,14,22,25,26,31,32,12,138,,2.0,0.8,1.5*03
2017-12-01 17:30:56 1512167456.411886: $GPZDA,223057.00,01,12,2017,00,00*61
2017-12-01 17:30:56 1512167456.412053: $GPGGA,223057,3946.9754,N,08404.9814,W,2,11,0.80,293.33,M,-33.325,M,,*70
2017-12-01 17:30:56 1512167456.412120: $GPRMC,223057,A,3946.9754,N,08404.9814,W,0.0000,0.000,011217,,*31
2017-12-01 17:30:56 1512167456.412181: $GPGSA,A,3,1,3,10,14,22,25,26,31,32,12,138,,2.0,0.8,1.5*03
2017-12-01 17:30:57 1512167457.410086: $GPZDA,223058.00,01,12,2017,00,00*6E
2017-12-01 17:30:57 1512167457.410259: $GPGGA,223058,3946.9754,N,08404.9814,W,2,11,0.80,293.33,M,-33.325,M,,*7F
2017-12-01 17:30:57 1512167457.410326: $GPRMC,223058,A,3946.9754,N,08404.9814,W,0.0000,0.000,011217,,*3E
2017-12-01 17:30:57 1512167457.410387: $GPGSA,A,3,1,3,10,14,22,25,26,31,32,12,138,,2.0,0.8,1.5*03
2017-12-01 17:30:58 1512167458.746572: $GPGSV,3,1,11,01,18,273,45,03,23,315,42,10,20,157,44,14,69,045,42*7A
2017-12-01 17:30:58 1512167458.746804: $GPGSV,3,2,11,22,41,301,47,25,35,055,41,26,28,177,42,31,79,294,46*70
2017-12-01 17:30:58 1512167458.746872: $GPGSV,3,3,11,32,53,082,45,12,06,031,15,138,38,213,46*75
2017-12-01 17:30:58 1512167458.859988: $GPZDA,223059.00,01,12,2017,00,00*6F
2017-12-01 17:30:58 1512167458.860147: $GPGGA,223059,3946.9754,N,08404.9814,W,2,11,0.80,293.33,M,-33.325,M,,*7E
2017-12-01 17:30:58 1512167458.860213: $GPRMC,223059,A,3946.9754,N,08404.9814,W,0.0000,0.000,011217,,*3F
2017-12-01 17:30:58 1512167458.860274: $GPGSA,A,3,1,3,10,14,22,25,26,31,32,12,138,,2.0,0.8,1.5*03
2017-12-01 17:30:59 1512167459.412142: $GPZDA,223100.00,01,12,2017,00,00*62
2017-12-01 17:30:59 1512167459.412321: $GPGGA,223100,3946.9754,N,08404.9814,W,2,11,1.00,293.33,M,-33.325,M,,*7A
2017-12-01 17:30:59 1512167459.412389: $GPRMC,223100,A,3946.9754,N,08404.9814,W,0.0000,0.000,011217,,*32
2017-12-01 17:30:59 1512167459.412449: $GPGSA,A,3,1,3,10,14,22,25,26,31,32,12,138,,2.0,1.0,1.5*0A
2017-12-01 17:31:00 1512167460.405445: $GPZDA,223101.00,01,12,2017,00,00*63
2017-12-01 17:31:00 1512167460.405617: $GPGGA,223101,3946.9754,N,08404.9814,W,2,11,0.80,293.33,M,-33.325,M,,*72
2017-12-01 17:31:00 1512167460.405684: $GPRMC,223101,A,3946.9754,N,08404.9814,W,0.0000,0.000,011217,,*33
2017-12-01 17:31:00 1512167460.405745: $GPGSA,A,3,1,3,10,14,22,25,26,31,32,12,138,,2.0,0.8,1.5*03
2017-12-01 17:31:01 1512167461.748620: $GPGSV,3,1,11,01,18,273,45,03,23,315,42,10,20,157,44,14,69,045,42*7A
2017-12-01 17:31:01 1512167461.748802: $GPGSV,3,2,11,22,41,301,48,25,35,055,42,26,28,177,42,31,79,294,46*7C
2017-12-01 17:31:01 1512167461.748869: $GPGSV,3,3,11,32,53,082,46,12,06,031,11,138,38,213,46*72
2017-12-01 17:31:01 1512167461.862162: $GPZDA,223102.00,01,12,2017,00,00*60
2017-12-01 17:31:01 1512167461.862339: $GPGGA,223102,3946.9754,N,08404.9814,W,2,11,0.80,293.33,M,-33.325,M,,*71
2017-12-01 17:31:01 1512167461.862408: $GPRMC,223102,A,3946.9754,N,08404.9814,W,0.0000,0.000,011217,,*30
2017-12-01 17:31:01 1512167461.862470: $GPGSA,A,3,1,3,10,14,22,25,26,31,32,12,138,,2.0,0.8,1.5*03
2017-12-01 17:31:02 1512167462.411674: $GPZDA,223103.00,01,12,2017,00,00*61
2017-12-01 17:31:02 1512167462.411852: $GPGGA,223103,3946.9754,N,08404.9814,W,2,11,0.80,293.33,M,-33.325,M,,*70
2017-12-01 17:31:02 1512167462.411920: $GPRMC,223103,A,3946.9754,N,08404.9814,W,0.0000,0.000,011217,,*31
2017-12-01 17:31:02 1512167462.411981: $GPGSA,A,3,1,3,10,14,22,25,26,31,32,12,138,,2.0,0.8,1.5*03
