2017-12-01 16:04:04 1512162244.486821: {"class":"VERSION","release":"3.16","rev":"3.16-4","proto_major":3,"proto_minor":11}
2017-12-01 16:04:04 1512162244.487261: {"class":"DEVICES","devices":[{"class":"DEVICE","path":"/dev/ttyUSB0","driver":"SiRF","subtype":"9\u0006GSD4e_4.1.2-P1_RPATCH.05-F-GPS-4R-1510281 11/03/2015 307","activated":"2017-12-01T21:04:04.474Z","flags":1,"native":1,"bps":4800,"parity":"N","stopbits":1,"cycle":1.00}]}
2017-12-01 16:04:04 1512162244.487396: {"class":"WATCH","enable":true,"json":false,"nmea":true,"raw":0,"scaled":false,"timing":false,"split24":false,"pps":false}
2017-12-01 16:04:05 1512162245.770578: $GPGSV,3,1,12,10,61,141,48,11,10,294,33,12,25,061,44,14,60,304,45*7E
2017-12-01 16:04:05 1512162245.770775: $GPGSV,3,2,12,18,29,139,43,22,09,312,38,25,35,106,48,31,44,216,48*76
2017-12-01 16:04:05 1512162245.770844: $GPGSV,3,3,12,32,70,354,47,01,18,312,37,24,07,046,24,138,38,213,46*47
2017-12-01 16:04:05 1512162245.884306: $GPZDA,210406.00,01,12,2017,00,00*61
2017-12-01 16:04:05 1512162245.884469: $GPGGA,210406,3946.9572,N,08404.9833,W,2,12,0.80,311.97,M,-33.324,M,,*74
2017-12-01 16:04:05 1512162245.884555: $GPRMC,210406,A,3946.9572,N,08404.9833,W,0.2758,128.233,011217,,*33
2017-12-01 16:04:05 1512162245.884622: $GPGSA,A,3,10,11,12,14,18,22,25,31,32,1,24,138,2.0,0.8,1.5*3B
2017-12-01 16:04:06 1512162246.434875: $GPZDA,210407.00,01,12,2017,00,00*60
2017-12-01 16:04:06 1512162246.435058: $GPGGA,210407,3946.9572,N,08404.9833,W,2,12,0.80,311.97,M,-33.324,M,,*75
2017-12-01 16:04:06 1512162246.435148: $GPRMC,210407,A,3946.9572,N,08404.9833,W,0.0000,0.000,011217,,*33
2017-12-01 16:04:06 1512162246.435213: $GPGSA,A,3,10,11,12,14,18,22,25,31,32,1,24,138,2.0,0.8,1.5*3B
2017-12-01 16:04:07 1512162247.435649: $GPZDA,210408.00,01,12,2017,00,00*6F
2017-12-01 16:04:07 1512162247.435830: $GPGGA,210408,3946.9568,N,08404.9833,W,2,12,0.80,312.73,M,-33.324,M,,*78
2017-12-01 16:04:07 1512162247.435898: $GPRMC,210408,A,3946.9568,N,08404.9833,W,0.0000,0.000,011217,,*37
2017-12-01 16:04:07 1512162247.435960: $GPGSA,A,3,10,11,12,14,18,22,25,31,32,1,24,138,2.0,0.8,1.5*3B
2017-12-01 16:04:08 1512162248.775253: $GPGSV,3,1,12,10,61,141,48,11,10,294,32,12,25,061,44,14,60,304,44*7E
2017-12-01 16:04:08 1512162248.775434: $GPGSV,3,2,12,18,29,139,42,22,09,312,37,25,35,106,48,31,44,216,48*78
2017-12-01 16:04:08 1512162248.775502: $GPGSV,3,3,12,32,70,354,46,01,18,312,38,24,07,046,24,138,38,213,46*49
2017-12-01 16:04:08 1512162248.888591: $GPZDA,210409.00,01,12,2017,00,00*6E
2017-12-01 16:04:08 1512162248.888750: $GPGGA,210409,3946.9568,N,08404.9833,W,2,12,0.80,312.73,M,-33.324,M,,*79
2017-12-01 16:04:08 1512162248.888819: $GPRMC,210409,A,3946.9568,N,08404.9833,W,0.0000,0.000,011217,,*36
2017-12-01 16:04:08 1512162248.888882: $GPGSA,A,3,10,11,12,14,18,22,25,31,32,1,24,138,2.0,0.8,1.5*3B
2017-12-01 16:04:09 1512162249.440841: $GPZDA,210410.00,01,12,2017,00,00*66
2017-12-01 16:04:09 1512162249.441054: $GPGGA,210410,3946.9568,N,08404.9833,W,2,12,0.80,312.73,M,-33.324,M,,*71
2017-12-01 16:04:09 1512162249.441125: $GPRMC,210410,A,3946.9568,N,08404.9833,W,0.0000,0.000,011217,,*3E
2017-12-01 16:04:09 1512162249.441187: $GPGSA,A,3,10,11,12,14,18,22,25,31,32,1,24,138,2.0,0.8,1.5*3B
2017-12-01 16:04:10 1512162250.439885: $GPZDA,210411.00,01,12,2017,00,00*67
2017-12-01 16:04:10 1512162250.440063: $GPGGA,210411,3946.9568,N,08404.9833,W,2,12,0.80,312.73,M,-33.324,M,,*70
2017-12-01 16:04:10 1512162250.440130: $GPRMC,210411,A,3946.9568,N,08404.9833,W,0.0000,0.000,011217,,*3F
2017-12-01 16:04:10 1512162250.440191: $GPGSA,A,3,10,11,12,14,18,22,25,31,32,1,24,138,2.0,0.8,1.5*3B
2017-12-01 16:04:11 1512162251.776782: $GPGSV,3,1,12,10,61,141,48,11,10,294,32,12,25,061,44,14,60,304,44*7E
2017-12-01 16:04:11 1512162251.776944: $GPGSV,3,2,12,18,29,139,42,22,09,312,37,25,35,106,47,31,44,216,48*77
2017-12-01 16:04:11 1512162251.777011: $GPGSV,3,3,12,32,70,354,46,01,18,312,39,24,07,046,24,138,38,213,46*48
2017-12-01 16:04:11 1512162251.890198: $GPZDA,210412.00,01,12,2017,00,00*64
2017-12-01 16:04:11 1512162251.890372: $GPGGA,210412,3946.9568,N,08404.9833,W,2,12,0.80,312.73,M,-33.324,M,,*73
2017-12-01 16:04:11 1512162251.890490: $GPRMC,210412,A,3946.9568,N,08404.9833,W,0.0000,0.000,011217,,*3C
2017-12-01 16:04:11 1512162251.890553: $GPGSA,A,3,10,11,12,14,18,22,25,31,32,1,24,138,2.0,0.8,1.5*3B
2017-12-01 16:04:12 1512162252.437354: $GPZDA,210413.00,01,12,2017,00,00*65
2017-12-01 16:04:12 1512162252.437525: $GPGGA,210413,3946.9568,N,08404.9833,W,2,12,0.80,312.73,M,-33.324,M,,*72
2017-12-01 16:04:12 1512162252.437613: $GPRMC,210413,A,3946.9568,N,08404.9833,W,0.0000,0.000,011217,,*3D
2017-12-01 16:04:12 1512162252.437676: $GPGSA,A,3,10,11,12,14,18,22,25,31,32,1,24,138,2.0,0.8,1.5*3B
2017-12-01 16:04:13 1512162253.440826: $GPZDA,210414.00,01,12,2017,00,00*62
2017-12-01 16:04:13 1512162253.440998: $GPGGA,210414,3946.9568,N,08404.9833,W,2,12,0.80,312.73,M,-33.324,M,,*75
2017-12-01 16:04:13 1512162253.441065: $GPRMC,210414,A,3946.9568,N,08404.9833,W,0.0000,0.000,011217,,*3A
2017-12-01 16:04:13 1512162253.441126: $GPGSA,A,3,10,11,12,14,18,22,25,31,32,1,24,138,2.0,0.8,1.5*3B
2017-12-01 16:04:14 1512162254.770155: $GPGSV,3,1,12,10,61,141,48,11,10,294,33,12,25,061,44,14,60,304,44*7F
2017-12-01 16:04:14 1512162254.770335: $GPGSV,3,2,12,18,29,139,43,22,09,312,37,25,35,106,47,31,44,216,48*76
2017-12-01 16:04:14 1512162254.770401: $GPGSV,3,3,12,32,70,354,46,01,18,312,39,24,07,046,24,138,38,213,45*4B
2017-12-01 16:04:14 1512162254.883543: $GPZDA,210415.00,01,12,2017,00,00*63
2017-12-01 16:04:14 1512162254.883742: $GPGGA,210415,3946.9568,N,08404.9833,W,2,12,0.80,312.73,M,-33.324,M,,*74
2017-12-01 16:04:14 1512162254.883811: $GPRMC,210415,A,3946.9568,N,08404.9833,W,0.0000,0.000,011217,,*3B
2017-12-01 16:04:14 1512162254.883872: $GPGSA,A,3,10,11,12,14,18,22,25,31,32,1,24,138,2.0,0.8,1.5*3B
2017-12-01 16:04:15 1512162255.508917: $GPZDA,210416.00,01,12,2017,00,00*60
2017-12-01 16:04:15 1512162255.509082: $GPGGA,210416,3946.9568,N,08404.9833,W,2,12,0.80,312.73,M,-33.324,M,,*77
2017-12-01 16:04:15 1512162255.509149: $GPRMC,210416,A,3946.9568,N,08404.9833,W,0.0000,0.000,011217,,*38
2017-12-01 16:04:15 1512162255.509210: $GPGSA,A,3,10,11,12,14,18,22,25,31,32,1,24,138,2.0,0.8,1.5*3B
2017-12-01 16:04:16 1512162256.441493: $GPZDA,210417.00,01,12,2017,00,00*61
2017-12-01 16:04:16 1512162256.441698: $GPGGA,210417,3946.9568,N,08404.9833,W,2,12,0.80,312.73,M,-33.324,M,,*76
2017-12-01 16:04:16 1512162256.441767: $GPRMC,210417,A,3946.9568,N,08404.9833,W,0.0000,0.000,011217,,*39
2017-12-01 16:04:16 1512162256.441829: $GPGSA,A,3,10,11,12,14,18,22,25,31,32,1,24,138,2.0,0.8,1.5*3B
2017-12-01 16:04:17 1512162257.776763: $GPGSV,3,1,12,10,61,141,48,11,10,294,32,12,25,061,44,14,60,304,44*7E
2017-12-01 16:04:17 1512162257.776951: $GPGSV,3,2,12,18,29,139,43,22,09,312,36,25,35,106,48,31,44,216,49*79
2017-12-01 16:04:17 1512162257.777018: $GPGSV,3,3,12,32,70,354,47,01,18,312,39,24,07,046,24,138,38,213,46*49
2017-12-01 16:04:17 1512162257.888895: $GPZDA,210418.00,01,12,2017,00,00*6E
2017-12-01 16:04:17 1512162257.889032: $GPGGA,210418,3946.9568,N,08404.9833,W,2,12,0.80,312.73,M,-33.324,M,,*79
2017-12-01 16:04:17 1512162257.889097: $GPRMC,210418,A,3946.9568,N,08404.9833,W,0.0000,0.000,011217,,*36
2017-12-01 16:04:17 1512162257.889158: $GPGSA,A,3,10,11,12,14,18,22,25,31,32,1,24,138,2.0,0.8,1.5*3B
2017-12-01 16:04:18 1512162258.441415: $GPZDA,210419.00,01,12,2017,00,00*6F
2017-12-01 16:04:18 1512162258.441716: $GPGGA,210419,3946.9568,N,08404.9833,W,2,12,0.80,312.73,M,-33.324,M,,*78
2017-12-01 16:04:18 1512162258.441794: $GPRMC,210419,A,3946.9568,N,08404.9833,W,0.0000,0.000,011217,,*37
2017-12-01 16:04:18 1512162258.441937: $GPGSA,A,3,10,11,12,14,18,22,25,31,32,1,24,138,2.0,0.8,1.5*3B
2017-12-01 16:04:19 1512162259.441999: $GPZDA,210420.00,01,12,2017,00,00*65
2017-12-01 16:04:19 1512162259.442169: $GPGGA,210420,3946.9568,N,08404.9833,W,2,12,0.80,312.73,M,-33.324,M,,*72
2017-12-01 16:04:19 1512162259.442235: $GPRMC,210420,A,3946.9568,N,08404.9833,W,0.0000,0.000,011217,,*3D
2017-12-01 16:04:19 1512162259.442296: $GPGSA,A,3,10,11,12,14,18,22,25,31,32,1,24,138,2.0,0.8,1.5*3B
2017-12-01 16:04:20 1512162260.770876: $GPGSV,3,1,12,10,61,141,48,11,10,294,36,12,25,061,44,14,60,304,44*7A
2017-12-01 16:04:20 1512162260.771044: $GPGSV,3,2,12,18,29,139,43,22,09,312,37,25,35,106,48,31,44,216,49*78
2017-12-01 16:04:20 1512162260.771110: $GPGSV,3,3,12,32,70,354,46,01,18,312,38,24,07,046,23,138,38,213,46*4E
2017-12-01 16:04:20 1512162260.884275: $GPZDA,210421.00,01,12,2017,00,00*64
2017-12-01 16:04:20 1512162260.884445: $GPGGA,210421,3946.9568,N,08404.9833,W,2,12,0.80,312.73,M,-33.324,M,,*73
2017-12-01 16:04:20 1512162260.884510: $GPRMC,210421,A,3946.9568,N,08404.9833,W,0.0000,0.000,011217,,*3C
2017-12-01 16:04:20 1512162260.884594: $GPGSA,A,3,10,11,12,14,18,22,25,31,32,1,24,138,2.0,0.8,1.5*3B
2017-12-01 16:04:21 1512162261.440152: $GPZDA,210422.00,01,12,2017,00,00*67
2017-12-01 16:04:21 1512162261.440314: $GPGGA,210422,3946.9568,N,08404.9833,W,2,12,0.80,312.73,M,-33.324,M,,*70
2017-12-01 16:04:21 1512162261.440381: $GPRMC,210422,A,3946.9568,N,08404.9833,W,0.0000,0.000,011217,,*3F
2017-12-01 16:04:21 1512162261.440441: $GPGSA,A,3,10,11,12,14,18,22,25,31,32,1,24,138,2.0,0.8,1.5*3B
2017-12-01 16:04:22 1512162262.440196: $GPZDA,210423.00,01,12,2017,00,00*66
2017-12-01 16:04:22 1512162262.440370: $GPGGA,210423,3946.9568,N,08404.9826,W,2,12,0.80,312.81,M,-33.324,M,,*78
2017-12-01 16:04:22 1512162262.440436: $GPRMC,210423,A,3946.9568,N,08404.9826,W,0.0000,0.000,011217,,*3A
2017-12-01 16:04:22 1512162262.440498: $GPGSA,A,3,10,11,12,14,18,22,25,31,32,1,24,138,2.0,0.8,1.5*3B
2017-12-01 16:04:23 1512162263.776801: $GPGSV,3,1,12,10,61,141,48,11,10,294,36,12,25,061,43,14,60,304,44*7D
2017-12-01 16:04:23 1512162263.776997: $GPGSV,3,2,12,18,29,139,42,22,09,312,38,25,35,106,48,31,44,216,49*76
2017-12-01 16:04:23 1512162263.777064: $GPGSV,3,3,12,32,70,354,46,01,18,312,37,24,07,046,23,138,38,213,45*42
2017-12-01 16:04:23 1512162263.890127: $GPZDA,210424.00,01,12,2017,00,00*61
2017-12-01 16:04:23 1512162263.890272: $GPGGA,210424,3946.9568,N,08404.9826,W,2,12,0.80,312.81,M,-33.324,M,,*7F
2017-12-01 16:04:23 1512162263.890338: $GPRMC,210424,A,3946.9568,N,08404.9826,W,0.0000,0.000,011217,,*3D
2017-12-01 16:04:23 1512162263.890399: $GPGSA,A,3,10,11,12,14,18,22,25,31,32,1,24,138,2.0,0.8,1.5*3B
2017-12-01 16:04:24 1512162264.442288: $GPZDA,210425.00,01,12,2017,00,00*60
2017-12-01 16:04:24 1512162264.442457: $GPGGA,210425,3946.9568,N,08404.9826,W,2,12,0.80,312.81,M,-33.324,M,,*7E
2017-12-01 16:04:24 1512162264.442547: $GPRMC,210425,A,3946.9568,N,08404.9826,W,0.0000,0.000,011217,,*3C
2017-12-01 16:04:24 1512162264.442611: $GPGSA,A,3,10,11,12,14,18,22,25,31,32,1,24,138,2.0,0.8,1.5*3B
