2018-01-11 20:01:08 1515718868.965366: {"class":"VERSION","release":"3.16","rev":"3.16-4","proto_major":3,"proto_minor":11}
2018-01-11 20:01:08 1515718868.965703: {"class":"DEVICES","devices":[{"class":"DEVICE","path":"/dev/ttyUSB0","driver":"SiRF","subtype":"9\u0006GSD4e_4.1.2-P1_RPATCH.05-F-GPS-4R-1510281 11/03/2015 307","activated":"2018-01-12T01:01:08.959Z","flags":1,"native":1,"bps":4800,"parity":"N","stopbits":1,"cycle":1.00}]}
2018-01-11 20:01:08 1515718868.965822: {"class":"WATCH","enable":true,"json":false,"nmea":true,"raw":0,"scaled":false,"timing":false,"split24":false,"pps":false}
2018-01-11 20:01:09 1515718869.468288: $GPZDA,010110.00,12,01,2018,00,00*6E
2018-01-11 20:01:09 1515718869.468459: $GPGGA,010110,3946.9600,N,08404.9821,W,2,11,0.80,308.74,M,-33.324,M,,*77
2018-01-11 20:01:09 1515718869.468525: $GPRMC,010110,A,3946.9600,N,08404.9821,W,0.0000,0.000,120118,,*38
2018-01-11 20:01:09 1515718869.468585: $GPGSA,A,3,7,8,9,11,16,23,27,28,30,26,138,,4.0,0.8,3.5*3A
2018-01-11 20:01:10 1515718870.396934: $GPZDA,010111.00,12,01,2018,00,00*6F
2018-01-11 20:01:10 1515718870.397117: $GPGGA,010111,3946.9600,N,08404.9821,W,2,11,0.80,308.74,M,-33.324,M,,*76
2018-01-11 20:01:10 1515718870.397185: $GPRMC,010111,A,3946.9600,N,08404.9821,W,0.0000,0.000,120118,,*39
2018-01-11 20:01:10 1515718870.397246: $GPGSA,A,3,7,8,9,11,16,23,27,28,30,26,138,,4.0,0.8,3.5*3A
2018-01-11 20:01:11 1515718871.732395: $GPGSV,3,1,11,07,51,313,40,08,70,145,46,09,51,235,42,11,16,169,42*70
2018-01-11 20:01:11 1515718871.732550: $GPGSV,3,2,11,16,26,057,46,23,34,192,46,27,51,057,51,28,11,255,36*7F
2018-01-11 20:01:11 1515718871.732614: $GPGSV,3,3,11,30,25,304,35,26,02,070,21,138,38,213,46*7D
2018-01-11 20:01:11 1515718871.845996: $GPZDA,010112.00,12,01,2018,00,00*6C
2018-01-11 20:01:11 1515718871.846140: $GPGGA,010112,3946.9600,N,08404.9821,W,2,11,0.80,308.74,M,-33.324,M,,*75
2018-01-11 20:01:11 1515718871.846205: $GPRMC,010112,A,3946.9600,N,08404.9821,W,0.0000,0.000,120118,,*3A
2018-01-11 20:01:11 1515718871.846265: $GPGSA,A,3,7,8,9,11,16,23,27,28,30,26,138,,4.0,0.8,3.5*3A
2018-01-11 20:01:12 1515718872.398166: $GPZDA,010113.00,12,01,2018,00,00*6D
2018-01-11 20:01:12 1515718872.398331: $GPGGA,010113,3946.9600,N,08404.9821,W,2,11,0.80,308.74,M,-33.324,M,,*74
2018-01-11 20:01:12 1515718872.398397: $GPRMC,010113,A,3946.9600,N,08404.9821,W,0.0000,0.000,120118,,*3B
2018-01-11 20:01:12 1515718872.398457: $GPGSA,A,3,7,8,9,11,16,23,27,28,30,26,138,,4.0,0.8,3.5*3A
2018-01-11 20:01:13 1515718873.399062: $GPZDA,010114.00,12,01,2018,00,00*6A
2018-01-11 20:01:13 1515718873.399242: $GPGGA,010114,3946.9597,N,08404.9822,W,2,11,0.80,309.50,M,-33.324,M,,*7A
2018-01-11 20:01:13 1515718873.399309: $GPRMC,010114,A,3946.9597,N,08404.9822,W,0.0000,0.000,120118,,*32
2018-01-11 20:01:13 1515718873.399369: $GPGSA,A,3,7,8,9,11,16,23,27,28,30,26,138,,4.0,0.8,3.5*3A
2018-01-11 20:01:14 1515718874.731464: $GPGSV,3,1,11,07,51,313,40,08,70,145,46,09,51,235,42,11,16,169,42*70
2018-01-11 20:01:14 1515718874.731611: $GPGSV,3,2,11,16,26,057,47,23,34,192,46,27,51,057,51,28,11,255,37*7F
2018-01-11 20:01:14 1515718874.731675: $GPGSV,3,3,11,30,25,304,36,26,02,070,00,138,38,213,45*7E
2018-01-11 20:01:14 1515718874.845089: $GPZDA,010115.00,12,01,2018,00,00*6B
2018-01-11 20:01:14 1515718874.845210: $GPGGA,010115,3946.9597,N,08404.9822,W,2,10,0.80,309.50,M,-33.324,M,,*7A
2018-01-11 20:01:14 1515718874.845274: $GPRMC,010115,A,3946.9597,N,08404.9822,W,0.0000,0.000,120118,,*33
2018-01-11 20:01:14 1515718874.845334: $GPGSA,A,3,7,8,9,11,16,23,27,28,30,138,,,4.0,0.8,3.5*3E
2018-01-11 20:01:15 1515718875.399788: $GPZDA,010116.00,12,01,2018,00,00*68
2018-01-11 20:01:15 1515718875.399951: $GPGGA,010116,3946.9597,N,08404.9822,W,2,10,0.80,309.50,M,-33.324,M,,*79
2018-01-11 20:01:15 1515718875.400017: $GPRMC,010116,A,3946.9597,N,08404.9822,W,0.0000,0.000,120118,,*30
2018-01-11 20:01:15 1515718875.400078: $GPGSA,A,3,7,8,9,11,16,23,27,28,30,138,,,4.0,0.8,3.5*3E
2018-01-11 20:01:16 1515718876.398120: $GPZDA,010117.00,12,01,2018,00,00*69
2018-01-11 20:01:16 1515718876.398275: $GPGGA,010117,3946.9597,N,08404.9822,W,2,10,0.80,309.50,M,-33.324,M,,*78
2018-01-11 20:01:16 1515718876.398395: $GPRMC,010117,A,3946.9597,N,08404.9822,W,0.0000,0.000,120118,,*31
2018-01-11 20:01:16 1515718876.398457: $GPGSA,A,3,7,8,9,11,16,23,27,28,30,138,,,4.0,0.8,3.5*3E
2018-01-11 20:01:17 1515718877.734814: $GPGSV,3,1,11,07,51,313,40,08,70,145,46,09,51,235,42,11,16,169,42*70
2018-01-11 20:01:17 1515718877.734982: $GPGSV,3,2,11,16,26,057,47,23,34,192,46,27,51,057,51,28,11,255,37*7F
2018-01-11 20:01:17 1515718877.735048: $GPGSV,3,3,11,30,25,304,36,26,02,070,00,138,38,213,45*7E
2018-01-11 20:01:17 1515718877.848441: $GPZDA,010118.00,12,01,2018,00,00*66
2018-01-11 20:01:17 1515718877.848564: $GPGGA,010118,3946.9597,N,08404.9822,W,2,10,0.80,309.50,M,-33.324,M,,*77
2018-01-11 20:01:17 1515718877.848629: $GPRMC,010118,A,3946.9597,N,08404.9822,W,0.0000,0.000,120118,,*3E
2018-01-11 20:01:17 1515718877.848689: $GPGSA,A,3,7,8,9,11,16,23,27,28,30,138,,,4.0,0.8,3.5*3E
2018-01-11 20:01:18 1515718878.396863: $GPZDA,010119.00,12,01,2018,00,00*67
2018-01-11 20:01:18 1515718878.397016: $GPGGA,010119,3946.9597,N,08404.9822,W,2,10,0.80,309.50,M,-33.324,M,,*76
2018-01-11 20:01:18 1515718878.397082: $GPRMC,010119,A,3946.9597,N,08404.9822,W,0.0000,0.000,120118,,*3F
2018-01-11 20:01:18 1515718878.397142: $GPGSA,A,3,7,8,9,11,16,23,27,28,30,138,,,4.0,0.8,3.5*3E
