2017-12-01 13:11:09 1512151869.916734: {"class":"VERSION","release":"3.16","rev":"3.16-4","proto_major":3,"proto_minor":11}
2017-12-01 13:11:09 1512151869.917156: {"class":"DEVICES","devices":[{"class":"DEVICE","path":"/dev/ttyUSB0","driver":"SiRF","subtype":"9\u0006GSD4e_4.1.2-P1_RPATCH.05-F-GPS-4R-1510281 11/03/2015 307","activated":"2017-12-01T18:11:09.553Z","flags":1,"native":1,"bps":4800,"parity":"N","stopbits":1,"cycle":1.00}]}
2017-12-01 13:11:09 1512151869.917287: {"class":"WATCH","enable":true,"json":false,"nmea":true,"raw":0,"scaled":false,"timing":false,"split24":false,"pps":false}
2017-12-01 13:11:10 1512151870.748994: $GPGSV,3,1,12,08,06,322,34,10,41,301,45,15,38,052,48,18,71,336,44*78
2017-12-01 13:11:10 1512151870.749180: $GPGSV,3,2,12,20,34,096,47,21,63,189,46,24,50,111,46,32,21,238,43*7A
2017-12-01 13:11:10 1512151870.749248: $GPGSV,3,3,12,13,08,048,30,27,19,289,37,14,04,232,15,138,38,213,46*40
2017-12-01 13:11:10 1512151870.862462: $GPZDA,181111.00,01,12,2017,00,00*69
2017-12-01 13:11:10 1512151870.862632: $GPGGA,181111,3946.9577,N,08404.9859,W,2,12,0.80,296.64,M,-33.324,M,,*77
2017-12-01 13:11:10 1512151870.862698: $GPRMC,181111,A,3946.9577,N,08404.9859,W,0.0000,0.000,011217,,*33
2017-12-01 13:11:10 1512151870.862760: $GPGSA,A,3,8,10,15,18,20,21,24,32,13,27,14,138,2.0,0.8,1.5*36
2017-12-01 13:11:11 1512151871.489122: $GPZDA,181112.00,01,12,2017,00,00*6A
2017-12-01 13:11:11 1512151871.489296: $GPGGA,181112,3946.9577,N,08404.9859,W,2,12,0.80,296.64,M,-33.324,M,,*74
2017-12-01 13:11:11 1512151871.489365: $GPRMC,181112,A,3946.9577,N,08404.9859,W,0.0000,0.000,011217,,*30
2017-12-01 13:11:11 1512151871.489427: $GPGSA,A,3,8,10,15,18,20,21,24,32,13,27,14,138,2.0,0.8,1.5*36
2017-12-01 13:11:12 1512151872.414953: $GPZDA,181113.00,01,12,2017,00,00*6B
2017-12-01 13:11:12 1512151872.415133: $GPGGA,181113,3946.9577,N,08404.9859,W,2,12,0.80,296.64,M,-33.324,M,,*75
2017-12-01 13:11:12 1512151872.415201: $GPRMC,181113,A,3946.9577,N,08404.9859,W,0.0000,0.000,011217,,*31
2017-12-01 13:11:12 1512151872.415263: $GPGSA,A,3,8,10,15,18,20,21,24,32,13,27,14,138,2.0,0.8,1.5*36
2017-12-01 13:11:13 1512151873.745724: $GPGSV,3,1,12,08,06,322,35,10,41,301,45,15,38,052,48,18,71,336,44*79
2017-12-01 13:11:13 1512151873.745940: $GPGSV,3,2,12,20,34,096,47,21,63,189,46,24,50,111,46,32,21,238,43*7A
2017-12-01 13:11:13 1512151873.746016: $GPGSV,3,3,12,13,08,048,30,27,19,289,37,14,04,232,14,138,38,213,46*41
2017-12-01 13:11:13 1512151873.859039: $GPZDA,181114.00,01,12,2017,00,00*6C
2017-12-01 13:11:13 1512151873.866262: $GPGGA,181114,3946.9577,N,08404.9859,W,2,12,0.80,296.64,M,-33.324,M,,*72
2017-12-01 13:11:13 1512151873.866388: $GPRMC,181114,A,3946.9577,N,08404.9859,W,0.0000,0.000,011217,,*36
2017-12-01 13:11:13 1512151873.866454: $GPGSA,A,3,8,10,15,18,20,21,24,32,13,27,14,138,2.0,0.8,1.5*36
2017-12-01 13:11:14 1512151874.410061: $GPZDA,181115.00,01,12,2017,00,00*6D
2017-12-01 13:11:14 1512151874.410237: $GPGGA,181115,3946.9577,N,08404.9859,W,2,12,0.80,296.64,M,-33.324,M,,*73
2017-12-01 13:11:14 1512151874.410304: $GPRMC,181115,A,3946.9577,N,08404.9859,W,0.0000,0.000,011217,,*37
2017-12-01 13:11:14 1512151874.410367: $GPGSA,A,3,8,10,15,18,20,21,24,32,13,27,14,138,2.0,0.8,1.5*36
2017-12-01 13:11:15 1512151875.414541: $GPZDA,181116.00,01,12,2017,00,00*6E
2017-12-01 13:11:15 1512151875.414719: $GPGGA,181116,3946.9577,N,08404.9859,W,2,12,0.80,296.64,M,-33.324,M,,*70
2017-12-01 13:11:15 1512151875.414786: $GPRMC,181116,A,3946.9577,N,08404.9859,W,0.0000,0.000,011217,,*34
2017-12-01 13:11:15 1512151875.414849: $GPGSA,A,3,8,10,15,18,20,21,24,32,13,27,14,138,2.0,0.8,1.5*36
2017-12-01 13:11:16 1512151876.749791: $GPGSV,3,1,12,08,06,322,35,10,41,301,45,15,38,052,47,18,71,336,44*76
2017-12-01 13:11:16 1512151876.749999: $GPGSV,3,2,12,20,34,096,47,21,63,189,46,24,50,111,46,32,21,238,43*7A
2017-12-01 13:11:16 1512151876.750067: $GPGSV,3,3,12,13,08,048,30,27,19,289,38,14,04,232,06,138,38,213,46*4D
2017-12-01 13:11:16 1512151876.863193: $GPZDA,181117.00,01,12,2017,00,00*6F
2017-12-01 13:11:16 1512151876.863368: $GPGGA,181117,3946.9577,N,08404.9859,W,2,12,0.80,296.64,M,-33.324,M,,*71
2017-12-01 13:11:16 1512151876.863487: $GPRMC,181117,A,3946.9577,N,08404.9859,W,0.0000,0.000,011217,,*35
2017-12-01 13:11:16 1512151876.863549: $GPGSA,A,3,8,10,15,18,20,21,24,32,13,27,14,138,2.0,0.8,1.5*36
2017-12-01 13:11:17 1512151877.413162: $GPZDA,181118.00,01,12,2017,00,00*60
2017-12-01 13:11:17 1512151877.413332: $GPGGA,181118,3946.9577,N,08404.9859,W,2,12,0.80,296.64,M,-33.324,M,,*7E
2017-12-01 13:11:17 1512151877.413398: $GPRMC,181118,A,3946.9577,N,08404.9859,W,0.0000,0.000,011217,,*3A
2017-12-01 13:11:17 1512151877.413461: $GPGSA,A,3,8,10,15,18,20,21,24,32,13,27,14,138,2.0,0.8,1.5*36
2017-12-01 13:11:18 1512151878.414189: $GPZDA,181119.00,01,12,2017,00,00*61
2017-12-01 13:11:18 1512151878.414361: $GPGGA,181119,3946.9577,N,08404.9859,W,2,12,0.80,296.64,M,-33.324,M,,*7F
2017-12-01 13:11:18 1512151878.414430: $GPRMC,181119,A,3946.9577,N,08404.9859,W,0.0000,0.000,011217,,*3B
2017-12-01 13:11:18 1512151878.414491: $GPGSA,A,3,8,10,15,18,20,21,24,32,13,27,14,138,2.0,0.8,1.5*36
2017-12-01 13:11:19 1512151879.750649: $GPGSV,3,1,12,08,06,322,36,10,41,301,45,15,38,052,48,18,71,336,44*7A
2017-12-01 13:11:19 1512151879.750835: $GPGSV,3,2,12,20,34,096,47,21,63,189,46,24,50,111,47,32,21,238,43*7B
2017-12-01 13:11:19 1512151879.750905: $GPGSV,3,3,12,13,08,048,30,27,19,289,39,14,04,232,00,138,38,213,46*4A
2017-12-01 13:11:19 1512151879.862780: $GPZDA,181120.00,01,12,2017,00,00*6B
2017-12-01 13:11:19 1512151879.862967: $GPGGA,181120,3946.9577,N,08404.9859,W,2,11,0.80,296.64,M,-33.324,M,,*76
2017-12-01 13:11:19 1512151879.863034: $GPRMC,181120,A,3946.9577,N,08404.9859,W,0.0000,0.000,011217,,*31
2017-12-01 13:11:19 1512151879.863097: $GPGSA,A,3,8,10,15,18,20,21,24,32,13,27,138,,2.0,0.8,1.5*33
