2017-11-15 19:04:48 1510790688.042073: {"class":"VERSION","release":"3.17","rev":"3.17","proto_major":3,"proto_minor":12}
2017-11-15 19:04:48 1510790688.042569: {"class":"DEVICES","devices":[{"class":"DEVICE","path":"/dev/ttyUSB0","driver":"SiRF","subtype":"9\u0006GSD4e_4.1.2-P1_RPATCH.05-F-GPS-4R-1510281 11/03/2015 307","activated":"2017-11-16T00:04:47.470Z","flags":1,"native":1,"bps":4800,"parity":"N","stopbits":1,"cycle":1.00}]}
2017-11-15 19:04:48 1510790688.042690: {"class":"WATCH","enable":true,"json":false,"nmea":true,"raw":0,"scaled":false,"timing":false,"split24":false,"pps":false}
2017-11-15 19:04:48 1510790688.664354: $GPGSV,3,1,11,32,45,096,20,14,63,073,18,03,32,309,20,26,40,175,16*75
2017-11-15 19:04:48 1510790688.664535: $GPGSV,3,2,11,31,76,355,28,16,11,190,18,22,47,288,14,25,26,045,00*72
2017-11-15 19:04:48 1510790688.664595: $GPGSV,3,3,11,10,08,159,00,01,12,262,05,29,06,081,00*48
2017-11-15 19:04:48 1510790688.777737: $GPZDA,000447.00,16,11,2017,00,00*62
2017-11-15 19:04:48 1510790688.777896: $GPGGA,000447,3946.9648,N,08404.9442,W,1,07,1.40,291.95,M,-33.324,M,,*73
2017-11-15 19:04:48 1510790688.777956: $GPRMC,000447,A,3946.9648,N,08404.9442,W,0.6846,184.197,161117,,*3F
2017-11-15 19:04:48 1510790688.778012: $GPGSA,A,3,32,14,3,26,31,16,22,,,,,,3.4,1.4,2.9*0D
2017-11-15 19:04:49 1510790689.329802: $GPZDA,000448.00,16,11,2017,00,00*6D
2017-11-15 19:04:49 1510790689.329969: $GPGGA,000448,3946.9644,N,08404.9442,W,1,07,1.40,291.31,M,-33.324,M,,*7E
2017-11-15 19:04:49 1510790689.330030: $GPRMC,000448,A,3946.9644,N,08404.9442,W,0.4207,219.347,161117,,*39
2017-11-15 19:04:49 1510790689.330086: $GPGSA,A,3,32,14,3,26,31,16,22,,,,,,3.4,1.4,2.9*0D
2017-11-15 19:04:50 1510790690.329487: $GPZDA,000449.00,16,11,2017,00,00*6C
2017-11-15 19:04:50 1510790690.329662: $GPGGA,000449,3946.9644,N,08404.9442,W,1,07,1.40,291.31,M,-33.324,M,,*7F
2017-11-15 19:04:50 1510790690.329728: $GPRMC,000449,A,3946.9644,N,08404.9442,W,1.0269,184.197,161117,,*3D
2017-11-15 19:04:50 1510790690.329787: $GPGSA,A,3,32,14,3,26,31,16,22,,,,,,3.4,1.4,2.9*0D
2017-11-15 19:04:51 1510790691.664727: $GPGSV,3,1,11,32,45,096,19,14,63,073,18,03,32,309,20,26,40,175,16*7F
2017-11-15 19:04:51 1510790691.664899: $GPGSV,3,2,11,31,76,355,28,16,11,190,18,22,47,288,11,25,26,045,00*77
2017-11-15 19:04:51 1510790691.664961: $GPGSV,3,3,11,10,08,159,00,01,12,262,07,29,06,081,00*4A
2017-11-15 19:04:51 1510790691.778097: $GPZDA,000450.00,16,11,2017,00,00*64
2017-11-15 19:04:51 1510790691.778268: $GPGGA,000450,3946.9636,N,08404.9442,W,1,07,1.60,291.44,M,-33.324,M,,*72
2017-11-15 19:04:51 1510790691.778334: $GPRMC,000450,A,3946.9636,N,08404.9442,W,1.5555,183.694,161117,,*3E
2017-11-15 19:04:51 1510790691.778394: $GPGSA,A,3,32,14,3,26,31,16,1,,,,,,3.4,1.6,2.9*3E
2017-11-15 19:04:52 1510790692.328932: $GPZDA,000451.00,16,11,2017,00,00*65
2017-11-15 19:04:52 1510790692.329099: $GPGGA,000451,3946.9632,N,08404.9442,W,1,07,1.40,290.80,M,-33.324,M,,*7C
2017-11-15 19:04:52 1510790692.329163: $GPRMC,000451,A,3946.9632,N,08404.9442,W,2.0697,190.918,161117,,*39
2017-11-15 19:04:52 1510790692.329223: $GPGSA,A,3,32,14,3,26,31,16,1,,,,,,3.4,1.4,2.9*3C
2017-11-15 19:04:53 1510790693.333554: $GPZDA,000452.00,16,11,2017,00,00*66
2017-11-15 19:04:53 1510790693.333708: $GPGGA,000452,3946.9624,N,08404.9443,W,1,07,1.40,290.92,M,-33.324,M,,*7A
2017-11-15 19:04:53 1510790693.333773: $GPRMC,000452,A,3946.9624,N,08404.9443,W,2.2922,196.048,161117,,*35
2017-11-15 19:04:53 1510790693.333833: $GPGSA,A,3,32,14,3,26,31,16,1,,,,,,3.4,1.4,2.9*3C
2017-11-15 19:04:54 1510790694.681892: $GPGSV,3,1,11,32,45,096,19,14,63,073,18,03,32,309,20,26,40,175,16*7F
2017-11-15 19:04:54 1510790694.682085: $GPGSV,3,2,11,31,76,355,28,16,11,190,18,22,47,288,13,25,26,045,00*75
2017-11-15 19:04:54 1510790694.682150: $GPGSV,3,3,11,10,08,159,00,01,12,262,07,29,06,081,00*4A
2017-11-15 19:04:54 1510790694.795169: $GPZDA,000453.00,16,11,2017,00,00*67
2017-11-15 19:04:54 1510790694.795330: $GPGGA,000453,3946.9617,N,08404.9444,W,1,08,1.40,291.05,M,-33.324,M,,*7C
2017-11-15 19:04:54 1510790694.795395: $GPRMC,000453,A,3946.9617,N,08404.9444,W,2.9656,193.331,161117,,*3C
2017-11-15 19:04:54 1510790694.795535: $GPGSA,A,3,32,14,3,26,31,16,22,1,,,,,3.4,1.4,2.9*3C
2017-11-15 19:04:55 1510790695.346371: $GPZDA,000454.00,16,11,2017,00,00*60
2017-11-15 19:04:55 1510790695.346532: $GPGGA,000454,3946.9609,N,08404.9445,W,1,08,1.40,291.17,M,-33.324,M,,*76
2017-11-15 19:04:55 1510790695.346592: $GPRMC,000454,A,3946.9609,N,08404.9445,W,2.2533,190.018,161117,,*35
2017-11-15 19:04:55 1510790695.346648: $GPGSA,A,3,32,14,3,26,31,16,22,1,,,,,3.4,1.4,2.9*3C
2017-11-15 19:04:56 1510790696.329247: $GPZDA,000455.00,16,11,2017,00,00*61
2017-11-15 19:04:56 1510790696.329408: $GPGGA,000455,3946.9609,N,08404.9445,W,1,08,1.40,291.17,M,-33.324,M,,*77
2017-11-15 19:04:56 1510790696.329468: $GPRMC,000455,A,3946.9609,N,08404.9445,W,2.2533,190.018,161117,,*34
2017-11-15 19:04:56 1510790696.329525: $GPGSA,A,3,32,14,3,26,31,16,22,1,,,,,3.4,1.4,2.9*3C
2017-11-15 19:04:57 1510790697.681025: $GPGSV,3,1,11,32,45,096,19,14,63,073,18,03,32,309,20,26,40,175,16*7F
2017-11-15 19:04:57 1510790697.681196: $GPGSV,3,2,11,31,76,355,28,16,11,190,18,22,47,288,16,25,26,045,00*70
2017-11-15 19:04:57 1510790697.681256: $GPGSV,3,3,11,10,08,159,00,01,12,262,09,29,06,081,00*44
2017-11-15 19:04:57 1510790697.794611: $GPZDA,000456.00,16,11,2017,00,00*62
2017-11-15 19:04:57 1510790697.794770: $GPGGA,000456,3946.9601,N,08404.9445,W,1,08,1.40,291.30,M,-33.324,M,,*79
2017-11-15 19:04:57 1510790697.794830: $GPRMC,000456,A,3946.9601,N,08404.9445,W,1.8977,183.784,161117,,*3A
2017-11-15 19:04:57 1510790697.794886: $GPGSA,A,3,32,14,3,26,31,16,22,1,,,,,3.4,1.4,2.9*3C
