2017-12-01 11:37:03 1512146223.886669: {"class":"VERSION","release":"3.16","rev":"3.16-4","proto_major":3,"proto_minor":11}
2017-12-01 11:37:03 1512146223.887075: {"class":"DEVICES","devices":[{"class":"DEVICE","path":"/dev/ttyUSB0","driver":"SiRF","subtype":"9\u0006GSD4e_4.1.2-P1_RPATCH.05-F-GPS-4R-1510281 11/03/2015 307","activated":"2017-12-01T16:37:03.494Z","flags":1,"native":1,"bps":4800,"parity":"N","stopbits":1,"cycle":1.00}]}
2017-12-01 11:37:03 1512146223.887197: {"class":"WATCH","enable":true,"json":false,"nmea":true,"raw":0,"scaled":false,"timing":false,"split24":false,"pps":false}
2017-12-01 11:37:04 1512146224.354830: $GPZDA,163705.00,01,12,2017,00,00*66
2017-12-01 11:37:04 1512146224.355002: $GPGGA,163705,3946.9565,N,08404.9830,W,2,11,0.80,305.71,M,-33.324,M,,*78
2017-12-01 11:37:04 1512146224.355069: $GPRMC,163705,A,3946.9565,N,08404.9830,W,0.0000,0.000,011217,,*30
2017-12-01 11:37:04 1512146224.355130: $GPGSA,A,3,5,10,13,15,18,20,21,24,27,29,138,,2.0,0.8,1.5*34
2017-12-01 11:37:05 1512146225.689078: $GPGSV,3,1,12,05,16,075,16,10,11,270,37,13,46,052,46,15,77,084,47*71
2017-12-01 11:37:05 1512146225.689260: $GPGSV,3,2,12,18,41,282,44,20,64,045,40,21,64,307,46,24,18,150,42*70
2017-12-01 11:37:05 1512146225.689327: $GPGSV,3,3,12,27,07,325,37,29,27,196,44,04,15,129,00,138,38,213,46*41
2017-12-01 11:37:05 1512146225.802764: $GPZDA,163706.00,01,12,2017,00,00*65
2017-12-01 11:37:05 1512146225.802930: $GPGGA,163706,3946.9565,N,08404.9830,W,2,11,0.80,305.71,M,-33.324,M,,*7B
2017-12-01 11:37:05 1512146225.802997: $GPRMC,163706,A,3946.9565,N,08404.9830,W,0.0000,0.000,011217,,*33
2017-12-01 11:37:05 1512146225.803057: $GPGSA,A,3,5,10,13,15,18,20,21,24,27,29,138,,2.0,0.8,1.5*34
2017-12-01 11:37:06 1512146226.427863: $GPZDA,163707.00,01,12,2017,00,00*64
2017-12-01 11:37:06 1512146226.428034: $GPGGA,163707,3946.9561,N,08404.9830,W,2,11,0.80,306.47,M,-33.324,M,,*78
2017-12-01 11:37:06 1512146226.428102: $GPRMC,163707,A,3946.9561,N,08404.9830,W,0.0000,0.000,011217,,*36
2017-12-01 11:37:06 1512146226.428163: $GPGSA,A,3,5,10,13,15,18,20,21,24,27,29,138,,2.0,0.8,1.5*34
2017-12-01 11:37:07 1512146227.353934: $GPZDA,163708.00,01,12,2017,00,00*6B
2017-12-01 11:37:07 1512146227.354107: $GPGGA,163708,3946.9561,N,08404.9830,W,2,11,0.80,306.47,M,-33.324,M,,*77
2017-12-01 11:37:07 1512146227.354174: $GPRMC,163708,A,3946.9561,N,08404.9830,W,0.0000,0.000,011217,,*39
2017-12-01 11:37:07 1512146227.354255: $GPGSA,A,3,5,10,13,15,18,20,21,24,27,29,138,,2.0,0.8,1.5*34
2017-12-01 11:37:08 1512146228.686962: $GPGSV,3,1,12,05,16,075,19,10,11,270,37,13,46,052,46,15,77,084,47*7E
2017-12-01 11:37:08 1512146228.687164: $GPGSV,3,2,12,18,41,282,44,20,64,045,41,21,64,307,46,24,18,150,42*71
2017-12-01 11:37:08 1512146228.687234: $GPGSV,3,3,12,27,07,325,37,29,27,196,45,04,15,129,00,138,38,213,46*40
2017-12-01 11:37:08 1512146228.799301: $GPZDA,163709.00,01,12,2017,00,00*6A
2017-12-01 11:37:08 1512146228.799474: $GPGGA,163709,3946.9561,N,08404.9830,W,2,11,0.80,306.47,M,-33.324,M,,*76
2017-12-01 11:37:08 1512146228.799563: $GPRMC,163709,A,3946.9561,N,08404.9830,W,0.0000,0.000,011217,,*38
2017-12-01 11:37:08 1512146228.799626: $GPGSA,A,3,5,10,13,15,18,20,21,24,27,29,138,,2.0,0.8,1.5*34
2017-12-01 11:37:09 1512146229.353686: $GPZDA,163710.00,01,12,2017,00,00*62
2017-12-01 11:37:09 1512146229.353876: $GPGGA,163710,3946.9561,N,08404.9823,W,2,11,0.80,306.55,M,-33.324,M,,*7F
2017-12-01 11:37:09 1512146229.353944: $GPRMC,163710,A,3946.9561,N,08404.9823,W,0.0000,0.000,011217,,*32
2017-12-01 11:37:09 1512146229.354005: $GPGSA,A,3,5,10,13,15,18,20,21,24,27,29,138,,2.0,0.8,1.5*34
2017-12-01 11:37:10 1512146230.354553: $GPZDA,163711.00,01,12,2017,00,00*63
2017-12-01 11:37:10 1512146230.354734: $GPGGA,163711,3946.9561,N,08404.9823,W,2,11,0.80,306.55,M,-33.324,M,,*7E
2017-12-01 11:37:10 1512146230.354802: $GPRMC,163711,A,3946.9561,N,08404.9823,W,0.0000,0.000,011217,,*33
2017-12-01 11:37:10 1512146230.354864: $GPGSA,A,3,5,10,13,15,18,20,21,24,27,29,138,,2.0,0.8,1.5*34
2017-12-01 11:37:11 1512146231.689845: $GPGSV,3,1,12,05,16,075,24,10,11,270,29,13,46,052,46,15,77,084,47*7F
2017-12-01 11:37:11 1512146231.690052: $GPGSV,3,2,12,18,41,282,44,20,64,045,41,21,64,307,46,24,18,150,41*72
2017-12-01 11:37:11 1512146231.690120: $GPGSV,3,3,12,27,07,325,37,29,27,196,45,04,15,129,00,138,38,213,46*40
2017-12-01 11:37:11 1512146231.803475: $GPZDA,163712.00,01,12,2017,00,00*60
2017-12-01 11:37:11 1512146231.803643: $GPGGA,163712,3946.9557,N,08404.9824,W,2,11,0.80,307.32,M,-33.324,M,,*7F
2017-12-01 11:37:11 1512146231.803710: $GPRMC,163712,A,3946.9557,N,08404.9824,W,0.0000,0.000,011217,,*32
2017-12-01 11:37:11 1512146231.803771: $GPGSA,A,3,5,10,13,15,18,20,21,24,27,29,138,,2.0,0.8,1.5*34
2017-12-01 11:37:12 1512146232.353150: $GPZDA,163713.00,01,12,2017,00,00*61
2017-12-01 11:37:12 1512146232.353318: $GPGGA,163713,3946.9557,N,08404.9824,W,2,11,0.80,307.32,M,-33.324,M,,*7E
2017-12-01 11:37:12 1512146232.353385: $GPRMC,163713,A,3946.9557,N,08404.9824,W,0.0000,0.000,011217,,*33
2017-12-01 11:37:12 1512146232.353447: $GPGSA,A,3,5,10,13,15,18,20,21,24,27,29,138,,2.0,0.8,1.5*34
2017-12-01 11:37:13 1512146233.363646: $GPZDA,163714.00,01,12,2017,00,00*66
2017-12-01 11:37:13 1512146233.363819: $GPGGA,163714,3946.9557,N,08404.9824,W,2,11,0.80,307.32,M,-33.324,M,,*79
2017-12-01 11:37:13 1512146233.363886: $GPRMC,163714,A,3946.9557,N,08404.9824,W,0.0000,0.000,011217,,*34
2017-12-01 11:37:13 1512146233.363948: $GPGSA,A,3,5,10,13,15,18,20,21,24,27,29,138,,2.0,0.8,1.5*34
