2017-11-16 16:52:50 1510869170.482888: {"class":"VERSION","release":"3.17","rev":"3.17","proto_major":3,"proto_minor":12}
2017-11-16 16:52:50 1510869170.483361: {"class":"DEVICES","devices":[{"class":"DEVICE","path":"/dev/ttyUSB0","driver":"SiRF","subtype":"9\u0006GSD4e_4.1.2-P1_RPATCH.05-F-GPS-4R-1510281 11/03/2015 307","activated":"2017-11-16T21:52:50.325Z","flags":1,"native":1,"bps":4800,"parity":"N","stopbits":1,"cycle":1.00}]}
2017-11-16 16:52:50 1510869170.483477: {"class":"WATCH","enable":true,"json":false,"nmea":true,"raw":0,"scaled":false,"timing":false,"split24":false,"pps":false}
2017-11-16 16:52:50 1510869170.774956: $GPGSV,3,1,12,01,15,316,28,10,67,135,49,11,11,298,26,12,25,069,47*76
2017-11-16 16:52:50 1510869170.775179: $GPGSV,3,2,12,14,56,295,45,18,35,136,41,24,12,045,40,25,31,112,41*7E
2017-11-16 16:52:50 1510869170.775242: $GPGSV,3,3,12,31,37,213,46,32,68,334,51,22,04,310,31,138,38,213,44*44
2017-11-16 16:52:50 1510869170.888225: $GPZDA,215249.00,16,11,2017,00,00*6C
2017-11-16 16:52:50 1510869170.888394: $GPGGA,215249,3946.9581,N,08404.9830,W,2,12,0.80,308.27,M,-33.324,M,,*70
2017-11-16 16:52:50 1510869170.888455: $GPRMC,215249,A,3946.9581,N,08404.9830,W,0.0000,0.000,161117,,*30
2017-11-16 16:52:50 1510869170.888510: $GPGSA,A,3,1,10,11,12,14,18,24,25,31,32,22,138,1.6,0.8,1.3*38
2017-11-16 16:52:51 1510869171.513853: $GPZDA,215250.00,16,11,2017,00,00*64
2017-11-16 16:52:51 1510869171.514018: $GPGGA,215250,3946.9581,N,08404.9830,W,2,12,0.80,308.27,M,-33.324,M,,*78
2017-11-16 16:52:51 1510869171.514078: $GPRMC,215250,A,3946.9581,N,08404.9830,W,0.0000,0.000,161117,,*38
2017-11-16 16:52:51 1510869171.514133: $GPGSA,A,3,1,10,11,12,14,18,24,25,31,32,22,138,1.6,0.8,1.3*38
2017-11-16 16:52:52 1510869172.456160: $GPZDA,215251.00,16,11,2017,00,00*65
2017-11-16 16:52:52 1510869172.456324: $GPGGA,215251,3946.9581,N,08404.9830,W,2,12,0.80,308.27,M,-33.324,M,,*79
2017-11-16 16:52:52 1510869172.456385: $GPRMC,215251,A,3946.9581,N,08404.9830,W,0.0000,0.000,161117,,*39
2017-11-16 16:52:52 1510869172.456440: $GPGSA,A,3,1,10,11,12,14,18,24,25,31,32,22,138,1.6,0.8,1.3*38
2017-11-16 16:52:53 1510869173.796556: $GPGSV,3,1,12,01,15,316,29,10,67,135,49,11,11,298,23,12,25,069,48*7D
2017-11-16 16:52:53 1510869173.796719: $GPGSV,3,2,12,14,56,295,45,18,35,136,41,24,12,045,40,25,31,112,42*7D
2017-11-16 16:52:53 1510869173.796778: $GPGSV,3,3,12,31,37,213,46,32,68,334,51,22,04,310,31,138,38,213,44*44
2017-11-16 16:52:53 1510869173.909839: $GPZDA,215252.00,16,11,2017,00,00*66
2017-11-16 16:52:53 1510869173.909985: $GPGGA,215252,3946.9581,N,08404.9830,W,2,12,0.80,308.27,M,-33.324,M,,*7A
2017-11-16 16:52:53 1510869173.910042: $GPRMC,215252,A,3946.9581,N,08404.9830,W,0.0000,0.000,161117,,*3A
2017-11-16 16:52:53 1510869173.910096: $GPGSA,A,3,1,10,11,12,14,18,24,25,31,32,22,138,1.6,0.8,1.3*38
2017-11-16 16:52:54 1510869174.445763: $GPZDA,215253.00,16,11,2017,00,00*67
2017-11-16 16:52:54 1510869174.445919: $GPGGA,215253,3946.9581,N,08404.9830,W,2,12,0.80,308.27,M,-33.324,M,,*7B
2017-11-16 16:52:54 1510869174.445978: $GPRMC,215253,A,3946.9581,N,08404.9830,W,0.0000,0.000,161117,,*3B
2017-11-16 16:52:54 1510869174.446034: $GPGSA,A,3,1,10,11,12,14,18,24,25,31,32,22,138,1.6,0.8,1.3*38
2017-11-16 16:52:55 1510869175.462932: $GPZDA,215254.00,16,11,2017,00,00*60
2017-11-16 16:52:55 1510869175.463108: $GPGGA,215254,3946.9581,N,08404.9830,W,2,12,0.80,308.27,M,-33.324,M,,*7C
2017-11-16 16:52:55 1510869175.463169: $GPRMC,215254,A,3946.9581,N,08404.9830,W,0.0000,0.000,161117,,*3C
2017-11-16 16:52:55 1510869175.463226: $GPGSA,A,3,1,10,11,12,14,18,24,25,31,32,22,138,1.6,0.8,1.3*38
2017-11-16 16:52:56 1510869176.798271: $GPGSV,3,1,12,01,15,316,30,10,67,135,49,11,11,298,25,12,25,069,48*73
2017-11-16 16:52:56 1510869176.798471: $GPGSV,3,2,12,14,56,295,46,18,35,136,41,24,12,045,40,25,31,112,42*7E
2017-11-16 16:52:56 1510869176.798531: $GPGSV,3,3,12,31,37,213,46,32,68,334,51,22,04,310,31,138,38,213,44*44
2017-11-16 16:52:56 1510869176.911519: $GPZDA,215255.00,16,11,2017,00,00*61
2017-11-16 16:52:56 1510869176.911677: $GPGGA,215255,3946.9581,N,08404.9830,W,2,12,0.80,308.27,M,-33.324,M,,*7D
2017-11-16 16:52:56 1510869176.911789: $GPRMC,215255,A,3946.9581,N,08404.9830,W,0.0000,0.000,161117,,*3D
2017-11-16 16:52:56 1510869176.911847: $GPGSA,A,3,1,10,11,12,14,18,24,25,31,32,22,138,1.6,0.8,1.3*38
2017-11-16 16:52:57 1510869177.443646: $GPZDA,215256.00,16,11,2017,00,00*62
2017-11-16 16:52:57 1510869177.443805: $GPGGA,215256,3946.9581,N,08404.9830,W,2,12,0.80,308.27,M,-33.324,M,,*7E
2017-11-16 16:52:57 1510869177.443865: $GPRMC,215256,A,3946.9581,N,08404.9830,W,0.0000,0.000,161117,,*3E
2017-11-16 16:52:57 1510869177.443921: $GPGSA,A,3,1,10,11,12,14,18,24,25,31,32,22,138,1.6,0.8,1.3*38
2017-11-16 16:52:58 1510869178.460751: $GPZDA,215257.00,16,11,2017,00,00*63
2017-11-16 16:52:58 1510869178.460914: $GPGGA,215257,3946.9581,N,08404.9830,W,2,12,0.80,308.27,M,-33.324,M,,*7F
2017-11-16 16:52:58 1510869178.460974: $GPRMC,215257,A,3946.9581,N,08404.9830,W,0.0000,0.000,161117,,*3F
2017-11-16 16:52:58 1510869178.461030: $GPGSA,A,3,1,10,11,12,14,18,24,25,31,32,22,138,1.6,0.8,1.3*38
2017-11-16 16:52:59 1510869179.781478: $GPGSV,3,1,12,01,15,316,36,10,67,135,49,11,11,298,33,12,25,069,48*72
2017-11-16 16:52:59 1510869179.781646: $GPGSV,3,2,12,14,56,295,45,18,35,136,42,24,12,045,40,25,31,112,42*7E
2017-11-16 16:52:59 1510869179.781706: $GPGSV,3,3,12,31,37,213,46,32,68,334,50,22,04,310,32,138,38,213,44*46
2017-11-16 16:52:59 1510869179.894775: $GPZDA,215258.00,16,11,2017,00,00*6C
2017-11-16 16:52:59 1510869179.894935: $GPGGA,215258,3946.9581,N,08404.9830,W,2,12,0.80,308.27,M,-33.324,M,,*70
2017-11-16 16:52:59 1510869179.894994: $GPRMC,215258,A,3946.9581,N,08404.9830,W,0.0000,0.000,161117,,*30
2017-11-16 16:52:59 1510869179.895102: $GPGSA,A,3,1,10,11,12,14,18,24,25,31,32,22,138,1.6,0.8,1.3*38
2017-11-16 16:53:00 1510869180.446896: $GPZDA,215259.00,16,11,2017,00,00*6D
2017-11-16 16:53:00 1510869180.447046: $GPGGA,215259,3946.9581,N,08404.9830,W,2,12,0.80,308.27,M,-33.324,M,,*71
2017-11-16 16:53:00 1510869180.447107: $GPRMC,215259,A,3946.9581,N,08404.9830,W,0.0000,0.000,161117,,*31
2017-11-16 16:53:00 1510869180.447161: $GPGSA,A,3,1,10,11,12,14,18,24,25,31,32,22,138,1.6,0.8,1.3*38
