2017-12-31 18:33:54 1514763234.944900: {"class":"VERSION","release":"3.16","rev":"3.16-4","proto_major":3,"proto_minor":11}
2017-12-31 18:33:54 1514763234.945270: {"class":"DEVICES","devices":[{"class":"DEVICE","path":"/dev/ttyUSB0","driver":"SiRF","activated":"2017-12-31T23:33:54.917Z","flags":1,"native":1,"bps":4800,"parity":"N","stopbits":1,"cycle":1.00}]}
2017-12-31 18:33:54 1514763234.945397: {"class":"WATCH","enable":true,"json":false,"nmea":true,"raw":0,"scaled":false,"timing":false,"split24":false,"pps":false}
2017-12-31 18:33:55 1514763235.426969: $GPZDA,233356.00,31,12,2017,00,00*61
2017-12-31 18:33:55 1514763235.427295: $GPGGA,233356,3946.9578,N,08404.9837,W,2,12,0.80,307.55,M,-33.324,M,,*70
2017-12-31 18:33:55 1514763235.427400: $GPRMC,233356,A,3946.9578,N,08404.9837,W,0.0000,0.000,311217,,*3C
2017-12-31 18:33:55 1514763235.427464: $GPGSA,A,3,22,23,9,3,16,8,14,31,27,7,26,135,1.7,0.8,1.3*0C
2017-12-31 18:33:56 1514763236.377878: $GPZDA,233357.00,31,12,2017,00,00*60
2017-12-31 18:33:56 1514763236.378056: $GPGGA,233357,3946.9578,N,08404.9837,W,2,12,0.80,307.55,M,-33.324,M,,*71
2017-12-31 18:33:56 1514763236.378124: $GPRMC,233357,A,3946.9578,N,08404.9837,W,0.0000,0.000,311217,,*3D
2017-12-31 18:33:56 1514763236.378210: $GPGSA,A,3,22,23,9,3,16,8,14,31,27,7,26,135,1.7,0.8,1.3*0C
2017-12-31 18:33:57 1514763237.687379: $GPGSV,3,1,12,22,14,208,26,23,63,295,41,09,29,312,42,03,24,226,39*71
2017-12-31 18:33:57 1514763237.687546: $GPGSV,3,2,12,16,85,051,42,08,09,177,20,14,06,138,13,31,21,082,39*7B
2017-12-31 18:33:57 1514763237.687697: $GPGSV,3,3,12,27,32,148,39,07,05,280,45,26,52,046,47,135,22,240,44*43
2017-12-31 18:33:57 1514763237.800927: $GPZDA,233358.00,31,12,2017,00,00*6F
2017-12-31 18:33:57 1514763237.801058: $GPGGA,233358,3946.9578,N,08404.9837,W,2,12,0.80,307.55,M,-33.324,M,,*7E
2017-12-31 18:33:57 1514763237.801143: $GPRMC,233358,A,3946.9578,N,08404.9837,W,0.0000,0.000,311217,,*32
2017-12-31 18:33:57 1514763237.801246: $GPGSA,A,3,22,23,9,3,16,8,14,31,27,7,26,135,1.7,0.8,1.3*0C
2017-12-31 18:33:58 1514763238.351834: $GPZDA,233359.00,31,12,2017,00,00*6E
2017-12-31 18:33:58 1514763238.352001: $GPGGA,233359,3946.9578,N,08404.9837,W,2,12,0.80,307.55,M,-33.324,M,,*7F
2017-12-31 18:33:58 1514763238.352067: $GPRMC,233359,A,3946.9578,N,08404.9837,W,0.0000,0.000,311217,,*33
2017-12-31 18:33:58 1514763238.352148: $GPGSA,A,3,22,23,9,3,16,8,14,31,27,7,26,135,1.7,0.8,1.3*0C
2017-12-31 18:33:59 1514763239.387755: $GPZDA,233400.00,31,12,2017,00,00*65
2017-12-31 18:33:59 1514763239.387922: $GPGGA,233400,3946.9578,N,08404.9837,W,2,12,0.80,307.55,M,-33.324,M,,*74
2017-12-31 18:33:59 1514763239.387988: $GPRMC,233400,A,3946.9578,N,08404.9837,W,0.0000,0.000,311217,,*38
2017-12-31 18:33:59 1514763239.388065: $GPGSA,A,3,22,23,9,3,16,8,14,31,27,7,26,135,1.7,0.8,1.3*0C
2017-12-31 18:34:00 1514763240.680319: $GPGSV,3,1,12,22,14,208,26,23,63,295,41,09,29,312,43,03,24,226,38*71
2017-12-31 18:34:00 1514763240.680513: $GPGSV,3,2,12,16,85,051,41,08,09,177,20,14,06,138,15,31,21,082,39*7E
2017-12-31 18:34:00 1514763240.680582: $GPGSV,3,3,12,27,32,148,39,07,05,280,45,26,52,046,47,135,22,240,43*44
2017-12-31 18:34:00 1514763240.793937: $GPZDA,233401.00,31,12,2017,00,00*64
2017-12-31 18:34:00 1514763240.794068: $GPGGA,233401,3946.9578,N,08404.9837,W,2,12,0.80,307.55,M,-33.324,M,,*75
2017-12-31 18:34:00 1514763240.794157: $GPRMC,233401,A,3946.9578,N,08404.9837,W,0.0000,0.000,311217,,*39
2017-12-31 18:34:00 1514763240.794221: $GPGSA,A,3,22,23,9,3,16,8,14,31,27,7,26,135,1.7,0.8,1.3*0C
2017-12-31 18:34:01 1514763241.352044: $GPZDA,233402.00,31,12,2017,00,00*67
2017-12-31 18:34:01 1514763241.352252: $GPGGA,233402,3946.9578,N,08404.9837,W,2,12,0.80,307.55,M,-33.324,M,,*76
2017-12-31 18:34:01 1514763241.352325: $GPRMC,233402,A,3946.9578,N,08404.9837,W,0.0000,0.000,311217,,*3A
2017-12-31 18:34:01 1514763241.352389: $GPGSA,A,3,22,23,9,3,16,8,14,31,27,7,26,135,1.7,0.8,1.3*0C
2017-12-31 18:34:02 1514763242.357989: $GPZDA,233403.00,31,12,2017,00,00*66
2017-12-31 18:34:02 1514763242.358187: $GPGGA,233403,3946.9578,N,08404.9837,W,2,12,0.80,307.55,M,-33.324,M,,*77
2017-12-31 18:34:02 1514763242.358340: $GPRMC,233403,A,3946.9578,N,08404.9837,W,0.0000,0.000,311217,,*3B
2017-12-31 18:34:02 1514763242.358404: $GPGSA,A,3,22,23,9,3,16,8,14,31,27,7,26,135,1.7,0.8,1.3*0C
2017-12-31 18:34:03 1514763243.723661: $GPGSV,3,1,12,22,14,208,23,23,63,295,42,09,29,312,43,03,24,226,38*77
2017-12-31 18:34:03 1514763243.723833: $GPGSV,3,2,12,16,85,051,41,08,09,177,23,14,06,138,16,31,21,082,39*7E
2017-12-31 18:34:03 1514763243.723899: $GPGSV,3,3,12,27,32,148,39,07,05,280,45,26,52,046,47,135,22,240,43*44
2017-12-31 18:34:03 1514763243.837362: $GPZDA,233404.00,31,12,2017,00,00*61
2017-12-31 18:34:03 1514763243.837496: $GPGGA,233404,3946.9578,N,08404.9837,W,2,12,0.80,307.55,M,-33.324,M,,*70
2017-12-31 18:34:03 1514763243.837560: $GPRMC,233404,A,3946.9578,N,08404.9837,W,0.0000,0.000,311217,,*3C
2017-12-31 18:34:03 1514763243.837620: $GPGSA,A,3,22,23,9,3,16,8,14,31,27,7,26,135,1.7,0.8,1.3*0C
2017-12-31 18:34:04 1514763244.351908: $GPZDA,233405.00,31,12,2017,00,00*60
2017-12-31 18:34:04 1514763244.352091: $GPGGA,233405,3946.9578,N,08404.9837,W,2,12,0.80,307.55,M,-33.324,M,,*71
2017-12-31 18:34:04 1514763244.352160: $GPRMC,233405,A,3946.9578,N,08404.9837,W,0.0000,0.000,311217,,*3D
2017-12-31 18:34:04 1514763244.352238: $GPGSA,A,3,22,23,9,3,16,8,14,31,27,7,26,135,1.7,0.8,1.3*0C
