2017-12-14 12:41:29 1513273289.326771: {"class":"VERSION","release":"3.16","rev":"3.16-4","proto_major":3,"proto_minor":11}
2017-12-14 12:41:29 1513273289.327121: {"class":"DEVICES","devices":[{"class":"DEVICE","path":"/dev/ttyUSB0","driver":"SiRF","subtype":"9\u0006GSD4e_4.1.2-P1_RPATCH.05-F-GPS-4R-1510281 11/03/2015 307","activated":"2017-12-14T17:41:29.254Z","flags":1,"native":1,"bps":4800,"parity":"N","stopbits":1,"cycle":1.00}]}
2017-12-14 12:41:29 1513273289.327239: {"class":"WATCH","enable":true,"json":false,"nmea":true,"raw":0,"scaled":false,"timing":false,"split24":false,"pps":false}
2017-12-14 12:41:30 1513273290.566689: $GPGSV,3,1,11,10,50,309,09,18,76,009,24,20,26,103,22,27,17,279,00*70
2017-12-14 12:41:30 1513273290.566863: $GPGSV,3,2,11,24,53,093,14,32,29,246,19,14,11,238,00,08,08,313,00*78
2017-12-14 12:41:30 1513273290.566928: $GPGSV,3,3,11,15,28,055,13,21,52,183,00,120,07,103,00*7D
2017-12-14 12:41:30 1513273290.680215: $GPZDA,174131.00,14,12,2017,00,00*65
2017-12-14 12:41:30 1513273290.680385: $GPGGA,174131,3946.9528,N,08404.9432,W,1,04,2.00,332.59,M,-33.324,M,,*7B
2017-12-14 12:41:30 1513273290.680452: $GPRMC,174131,A,3946.9528,N,08404.9432,W,0.3423,4.197,141217,,*39
2017-12-14 12:41:30 1513273290.680514: $GPGSA,A,3,18,20,32,15,,,,,,,,,6.6,2.0,6.2*3A
2017-12-14 12:41:31 1513273291.229693: $GPZDA,174132.00,14,12,2017,00,00*66
2017-12-14 12:41:31 1513273291.229872: $GPGGA,174132,3946.9528,N,08404.9432,W,1,04,2.00,332.59,M,-33.324,M,,*78
2017-12-14 12:41:31 1513273291.229960: $GPRMC,174132,A,3946.9528,N,08404.9432,W,0.4844,93.795,141217,,*0A
2017-12-14 12:41:31 1513273291.230029: $GPGSA,A,3,18,20,32,15,,,,,,,,,6.6,2.0,6.2*3A
2017-12-14 12:41:32 1513273292.213642: $GPZDA,174133.00,14,12,2017,00,00*67
2017-12-14 12:41:32 1513273292.213824: $GPGGA,174133,3946.9528,N,08404.9425,W,1,04,2.00,332.66,M,-33.324,M,,*73
2017-12-14 12:41:32 1513273292.213893: $GPRMC,174133,A,3946.9528,N,08404.9425,W,0.4844,93.795,141217,,*0D
2017-12-14 12:41:32 1513273292.213957: $GPGSA,A,3,18,20,32,15,,,,,,,,,6.6,2.0,6.2*3A
2017-12-14 12:41:33 1513273293.567352: $GPGSV,3,1,11,10,50,309,04,18,76,009,24,20,26,103,22,27,17,279,00*7D
2017-12-14 12:41:33 1513273293.567525: $GPGSV,3,2,11,24,53,093,14,32,29,246,18,14,11,238,00,08,08,313,00*79
2017-12-14 12:41:33 1513273293.567590: $GPGSV,3,3,11,15,28,055,12,21,52,183,00,120,07,103,00*7C
2017-12-14 12:41:33 1513273293.679775: $GPZDA,174134.00,14,12,2017,00,00*60
2017-12-14 12:41:33 1513273293.679909: $GPGGA,174134,3946.9528,N,08404.9425,W,1,05,2.00,332.66,M,-33.324,M,,*75
2017-12-14 12:41:33 1513273293.679975: $GPRMC,174134,A,3946.9528,N,08404.9425,W,0.4844,93.795,141217,,*0A
2017-12-14 12:41:33 1513273293.680038: $GPGSA,A,3,18,20,24,32,15,,,,,,,,6.6,2.0,6.2*3C
2017-12-14 12:41:34 1513273294.224915: $GPRMC,174135,V,3946.9524,N,08404.9425,W,0.4844,93.795,141217,,*10
2017-12-14 12:41:34 1513273294.225081: $GPGSA,A,1,18,20,24,32,15,,,,,,,,,,,*3A
2017-12-14 12:41:35 1513273295.225050: $GPRMC,174136,V,3946.9523,N,08404.9418,W,0.4844,93.795,141217,,*1A
2017-12-14 12:41:35 1513273295.225229: $GPGSA,A,1,18,20,24,32,15,,,,,,,,,,,*3A
2017-12-14 12:41:36 1513273296.563005: $GPGSV,3,1,11,10,50,309,07,18,76,009,24,20,26,103,21,24,53,093,11*78
2017-12-14 12:41:36 1513273296.563194: $GPGSV,3,2,11,27,17,279,00,32,29,246,18,14,11,238,00,08,08,313,00*79
2017-12-14 12:41:36 1513273296.563283: $GPGSV,3,3,11,15,28,055,04,21,52,183,00,120,07,103,00*7B
2017-12-14 12:41:36 1513273296.675393: $GPRMC,174137,V,3946.9520,N,08404.9419,W,0.4844,93.795,141217,,*19
2017-12-14 12:41:36 1513273296.675562: $GPGSA,A,1,10,18,20,32,,,,,,,,,,,,*39
2017-12-14 12:41:37 1513273297.210525: $GPRMC,174138,V,3946.9520,N,08404.9419,W,0.4844,93.795,141217,,*16
2017-12-14 12:41:37 1513273297.210696: $GPGSA,A,1,10,18,20,32,,,,,,,,,,,,*39
2017-12-14 12:41:38 1513273298.230455: $GPZDA,174139.08,14,12,2017,00,00*65
2017-12-14 12:41:38 1513273298.230629: $GPGGA,174139,3946.9516,N,08404.9419,W,1,04,2.80,332.23,M,-33.324,M,,*72
2017-12-14 12:41:38 1513273298.230714: $GPRMC,174139,A,3946.9516,N,08404.9419,W,0.5774,207.515,141217,,*3D
2017-12-14 12:41:38 1513273298.230830: $GPGSA,A,3,10,18,20,32,,,,,,,,,6.6,2.8,6.2*37
2017-12-14 12:41:38 1513273298.230888: $GPGBS,174139,24.66,M,21.80,M,143.40,M*38
2017-12-14 12:41:39 1513273299.562874: $GPGSV,3,1,11,10,50,309,08,18,76,009,24,20,26,103,21,24,53,093,14*72
2017-12-14 12:41:39 1513273299.563054: $GPGSV,3,2,11,15,28,055,00,32,29,246,18,27,17,279,00,14,11,238,00*76
2017-12-14 12:41:39 1513273299.563124: $GPGSV,3,3,11,08,08,313,00,21,52,183,00,120,07,103,00*70
2017-12-14 12:41:39 1513273299.675240: $GPRMC,174140,V,3946.9516,N,08404.9419,W,0.5774,207.515,141217,,*24
2017-12-14 12:41:39 1513273299.675406: $GPGSA,A,1,10,18,20,32,,,,,,,,,,,,*39
2017-12-14 12:41:40 1513273300.224121: $GPRMC,174141,V,3946.9516,N,08404.9419,W,0.5774,207.515,141217,,*25
2017-12-14 12:41:40 1513273300.224294: $GPGSA,A,1,10,18,20,32,,,,,,,,,,,,*39
2017-12-14 12:41:41 1513273301.207499: $GPRMC,174142,V,3946.9512,N,08404.9419,W,0.5774,207.515,141217,,*22
2017-12-14 12:41:41 1513273301.207673: $GPGSA,A,1,10,18,20,32,,,,,,,,,,,,*39
2017-12-14 12:41:42 1513273302.543479: $GPGSV,3,1,11,10,50,309,07,18,76,009,24,20,26,103,21,24,53,093,00*78
2017-12-14 12:41:42 1513273302.543655: $GPGSV,3,2,11,15,28,055,00,32,29,246,18,27,17,279,00,14,11,238,00*76
2017-12-14 12:41:42 1513273302.543722: $GPGSV,3,3,11,08,08,313,00,21,52,183,00,120,07,103,00*70
2017-12-14 12:41:42 1513273302.655864: $GPRMC,174143,V,3946.9508,N,08404.9420,W,0.5774,207.515,141217,,*22
2017-12-14 12:41:42 1513273302.656037: $GPGSA,A,1,10,18,20,32,,,,,,,,,,,,*39
2017-12-14 12:41:43 1513273303.208495: $GPRMC,174144,V,3946.9508,N,08404.9420,W,0.5774,207.515,141217,,*25
2017-12-14 12:41:43 1513273303.208669: $GPGSA,A,1,10,18,20,32,,,,,,,,,,,,*39
2017-12-14 12:41:44 1513273304.207367: $GPRMC,174145,V,3946.9504,N,08404.9420,W,0.5774,207.515,141217,,*28
2017-12-14 12:41:44 1513273304.207538: $GPGSA,A,1,10,18,20,32,,,,,,,,,,,,*39
2017-12-14 12:41:45 1513273305.544614: $GPGSV,3,1,11,10,50,309,05,18,76,009,24,20,26,103,21,24,53,093,11*7A
2017-12-14 12:41:45 1513273305.544781: $GPGSV,3,2,11,15,28,055,00,32,29,246,18,27,17,279,00,14,11,238,00*76
2017-12-14 12:41:45 1513273305.544850: $GPGSV,3,3,11,08,08,313,00,21,52,183,00,120,07,103,00*70
2017-12-14 12:41:45 1513273305.657018: $GPRMC,174146,V,3946.9504,N,08404.9427,W,0.5774,207.515,141217,,*2C
2017-12-14 12:41:45 1513273305.657193: $GPGSA,A,1,18,20,32,,,,,,,,,,,,,*38
2017-12-14 12:41:46 1513273306.207865: $GPRMC,174147,V,3946.9504,N,08404.9427,W,0.5774,207.515,141217,,*2D
2017-12-14 12:41:46 1513273306.208046: $GPGSA,A,1,18,20,32,,,,,,,,,,,,,*38
2017-12-14 12:41:47 1513273307.208075: $GPRMC,174148,V,3946.9500,N,08404.9427,W,0.5774,207.515,141217,,*26
2017-12-14 12:41:47 1513273307.208249: $GPGSA,A,1,18,20,32,,,,,,,,,,,,,*38
2017-12-14 12:41:48 1513273308.546459: $GPGSV,3,1,11,10,50,309,04,18,76,009,24,20,26,103,21,24,53,093,00*7B
2017-12-14 12:41:48 1513273308.546637: $GPGSV,3,2,11,15,28,055,00,32,29,246,18,27,17,279,00,14,11,238,00*76
2017-12-14 12:41:48 1513273308.546703: $GPGSV,3,3,11,08,08,313,00,21,52,183,00,120,07,103,00*70
2017-12-14 12:41:48 1513273308.658859: $GPRMC,174149,V,3946.9497,N,08404.9428,W,0.5774,207.515,141217,,*27
2017-12-14 12:41:48 1513273308.659031: $GPGSA,A,1,18,20,32,,,,,,,,,,,,,*38
2017-12-14 12:41:49 1513273309.207790: $GPRMC,174150,V,3946.9497,N,08404.9428,W,0.5774,207.515,141217,,*2F
2017-12-14 12:41:49 1513273309.207963: $GPGSA,A,1,18,20,32,,,,,,,,,,,,,*38
