2017-11-16 17:09:30 1510870170.791809: {"class":"VERSION","release":"3.17","rev":"3.17","proto_major":3,"proto_minor":12}
2017-11-16 17:09:30 1510870170.792283: {"class":"DEVICES","devices":[{"class":"DEVICE","path":"/dev/ttyUSB0","driver":"SiRF","subtype":"9\u0006GSD4e_4.1.2-P1_RPATCH.05-F-GPS-4R-1510281 11/03/2015 307","activated":"2017-11-16T22:09:30.734Z","flags":1,"native":1,"bps":4800,"parity":"N","stopbits":1,"cycle":1.00}]}
2017-11-16 17:09:30 1510870170.792410: {"class":"WATCH","enable":true,"json":false,"nmea":true,"raw":0,"scaled":false,"timing":false,"split24":false,"pps":false}
2017-11-16 17:09:30 1510870170.847773: $GPZDA,220929.00,16,11,2017,00,00*67
2017-11-16 17:09:30 1510870170.847921: $GPGGA,220929,3946.9568,N,08404.9826,W,2,12,0.80,312.81,M,-33.324,M,,*7C
2017-11-16 17:09:30 1510870170.847983: $GPRMC,220929,A,3946.9568,N,08404.9826,W,0.0000,0.000,161117,,*3B
2017-11-16 17:09:30 1510870170.848041: $GPGSA,A,3,1,10,11,12,14,18,22,24,25,31,32,138,1.6,0.8,1.3*38
2017-11-16 17:09:31 1510870171.472781: $GPZDA,220930.00,16,11,2017,00,00*6F
2017-11-16 17:09:31 1510870171.472950: $GPGGA,220930,3946.9568,N,08404.9826,W,2,12,0.80,312.81,M,-33.324,M,,*74
2017-11-16 17:09:31 1510870171.473012: $GPRMC,220930,A,3946.9568,N,08404.9826,W,0.0000,0.000,161117,,*33
2017-11-16 17:09:31 1510870171.473073: $GPGSA,A,3,1,10,11,12,14,18,22,24,25,31,32,138,1.6,0.8,1.3*38
2017-11-16 17:09:32 1510870172.392423: $GPZDA,220931.00,16,11,2017,00,00*6E
2017-11-16 17:09:32 1510870172.392590: $GPGGA,220931,3946.9568,N,08404.9826,W,2,12,0.80,312.81,M,-33.324,M,,*75
2017-11-16 17:09:32 1510870172.392652: $GPRMC,220931,A,3946.9568,N,08404.9826,W,0.0000,0.000,161117,,*32
2017-11-16 17:09:32 1510870172.392709: $GPGSA,A,3,1,10,11,12,14,18,22,24,25,31,32,138,1.6,0.8,1.3*38
2017-11-16 17:09:33 1510870173.734504: $GPGSV,3,1,12,01,19,310,41,10,59,142,48,11,10,291,33,12,25,060,49*74
2017-11-16 17:09:33 1510870173.734672: $GPGSV,3,2,12,14,61,309,47,18,28,141,44,22,11,312,34,24,05,046,33*71
2017-11-16 17:09:33 1510870173.734733: $GPGSV,3,3,12,25,36,103,47,31,45,217,49,32,70,358,49,138,38,213,44*47
2017-11-16 17:09:33 1510870173.847786: $GPZDA,220932.00,16,11,2017,00,00*6D
2017-11-16 17:09:33 1510870173.847968: $GPGGA,220932,3946.9568,N,08404.9826,W,2,12,0.80,312.81,M,-33.324,M,,*76
2017-11-16 17:09:33 1510870173.848033: $GPRMC,220932,A,3946.9568,N,08404.9826,W,0.0000,0.000,161117,,*31
2017-11-16 17:09:33 1510870173.848089: $GPGSA,A,3,1,10,11,12,14,18,22,24,25,31,32,138,1.6,0.8,1.3*38
2017-11-16 17:09:34 1510870174.398665: $GPZDA,220933.00,16,11,2017,00,00*6C
2017-11-16 17:09:34 1510870174.398828: $GPGGA,220933,3946.9568,N,08404.9826,W,2,12,0.80,312.81,M,-33.324,M,,*77
2017-11-16 17:09:34 1510870174.398889: $GPRMC,220933,A,3946.9568,N,08404.9826,W,0.0000,0.000,161117,,*30
2017-11-16 17:09:34 1510870174.398944: $GPGSA,A,3,1,10,11,12,14,18,22,24,25,31,32,138,1.6,0.8,1.3*38
2017-11-16 17:09:35 1510870175.398663: $GPZDA,220934.00,16,11,2017,00,00*6B
2017-11-16 17:09:35 1510870175.398856: $GPGGA,220934,3946.9568,N,08404.9826,W,2,12,0.80,312.81,M,-33.324,M,,*70
2017-11-16 17:09:35 1510870175.398950: $GPRMC,220934,A,3946.9568,N,08404.9826,W,0.0000,0.000,161117,,*37
2017-11-16 17:09:35 1510870175.399007: $GPGSA,A,3,1,10,11,12,14,18,22,24,25,31,32,138,1.6,0.8,1.3*38
2017-11-16 17:09:36 1510870176.736128: $GPGSV,3,1,12,01,19,310,42,10,59,142,48,11,10,291,35,12,25,060,49*71
2017-11-16 17:09:36 1510870176.736298: $GPGSV,3,2,12,14,61,309,47,18,28,141,43,22,11,312,29,24,05,046,32*7B
2017-11-16 17:09:36 1510870176.736359: $GPGSV,3,3,12,25,36,103,46,31,45,217,49,32,70,358,49,138,38,213,44*46
2017-11-16 17:09:36 1510870176.849428: $GPZDA,220935.00,16,11,2017,00,00*6A
2017-11-16 17:09:36 1510870176.849589: $GPGGA,220935,3946.9568,N,08404.9826,W,2,12,0.80,312.81,M,-33.324,M,,*71
2017-11-16 17:09:36 1510870176.849650: $GPRMC,220935,A,3946.9568,N,08404.9826,W,0.0000,0.000,161117,,*36
2017-11-16 17:09:36 1510870176.849706: $GPGSA,A,3,1,10,11,12,14,18,22,24,25,31,32,138,1.6,0.8,1.3*38
2017-11-16 17:09:37 1510870177.399467: $GPZDA,220936.00,16,11,2017,00,00*69
2017-11-16 17:09:37 1510870177.399678: $GPGGA,220936,3946.9568,N,08404.9826,W,2,12,0.80,312.81,M,-33.324,M,,*72
2017-11-16 17:09:37 1510870177.399741: $GPRMC,220936,A,3946.9568,N,08404.9826,W,0.0000,0.000,161117,,*35
2017-11-16 17:09:37 1510870177.399797: $GPGSA,A,3,1,10,11,12,14,18,22,24,25,31,32,138,1.6,0.8,1.3*38
2017-11-16 17:09:38 1510870178.399108: $GPZDA,220937.00,16,11,2017,00,00*68
2017-11-16 17:09:38 1510870178.399383: $GPGGA,220937,3946.9568,N,08404.9826,W,2,12,0.80,312.81,M,-33.324,M,,*73
2017-11-16 17:09:38 1510870178.399683: $GPRMC,220937,A,3946.9568,N,08404.9826,W,0.0000,0.000,161117,,*34
2017-11-16 17:09:38 1510870178.399772: $GPGSA,A,3,1,10,11,12,14,18,22,24,25,31,32,138,1.6,0.8,1.3*38
2017-11-16 17:09:39 1510870179.734495: $GPGSV,3,1,12,01,19,310,42,10,59,142,47,11,10,291,34,12,25,060,49*7F
2017-11-16 17:09:39 1510870179.734680: $GPGSV,3,2,12,14,61,309,46,18,28,141,43,22,11,312,34,24,05,046,32*76
2017-11-16 17:09:39 1510870179.734741: $GPGSV,3,3,12,25,36,103,46,31,45,217,49,32,70,358,49,138,38,213,44*46
2017-11-16 17:09:39 1510870179.847826: $GPZDA,220938.00,16,11,2017,00,00*67
2017-11-16 17:09:39 1510870179.848005: $GPGGA,220938,3946.9568,N,08404.9826,W,2,12,0.80,312.81,M,-33.324,M,,*7C
2017-11-16 17:09:39 1510870179.848084: $GPRMC,220938,A,3946.9568,N,08404.9826,W,0.0000,0.000,161117,,*3B
2017-11-16 17:09:39 1510870179.848140: $GPGSA,A,3,1,10,11,12,14,18,22,24,25,31,32,138,1.6,0.8,1.3*38
2017-11-16 17:09:40 1510870180.395312: $GPZDA,220939.00,16,11,2017,00,00*66
2017-11-16 17:09:40 1510870180.399558: $GPGGA,220939,3946.9568,N,08404.9826,W,2,12,0.80,312.81,M,-33.324,M,,*7D
2017-11-16 17:09:40 1510870180.399740: $GPRMC,220939,A,3946.9568,N,08404.9826,W,0.0000,0.000,161117,,*3A
2017-11-16 17:09:40 1510870180.399860: $GPGSA,A,3,1,10,11,12,14,18,22,24,25,31,32,138,1.6,0.8,1.3*38
