2017-12-01 11:34:26 1512146066.046838: {"class":"VERSION","release":"3.16","rev":"3.16-4","proto_major":3,"proto_minor":11}
2017-12-01 11:34:26 1512146066.047289: {"class":"DEVICES","devices":[{"class":"DEVICE","path":"/dev/ttyUSB0","driver":"SiRF","subtype":"9\u0006GSD4e_4.1.2-P1_RPATCH.05-F-GPS-4R-1510281 11/03/2015 307","activated":"2017-12-01T16:34:25.940Z","flags":1,"native":1,"bps":4800,"parity":"N","stopbits":1,"cycle":1.00}]}
2017-12-01 11:34:26 1512146066.047424: {"class":"WATCH","enable":true,"json":false,"nmea":true,"raw":0,"scaled":false,"timing":false,"split24":false,"pps":false}
2017-12-01 11:34:26 1512146066.343598: $GPZDA,163427.00,01,12,2017,00,00*65
2017-12-01 11:34:26 1512146066.343795: $GPGGA,163427,3946.9578,N,08404.9820,W,2,11,0.80,302.73,M,-33.324,M,,*73
2017-12-01 11:34:26 1512146066.343865: $GPRMC,163427,A,3946.9578,N,08404.9820,W,0.0000,0.000,011217,,*3E
2017-12-01 11:34:26 1512146066.343926: $GPGSA,A,3,10,13,15,18,20,21,24,29,5,27,138,,2.0,0.8,1.5*34
2017-12-01 11:34:27 1512146067.333113: $GPZDA,163428.00,01,12,2017,00,00*6A
2017-12-01 11:34:27 1512146067.333286: $GPGGA,163428,3946.9578,N,08404.9820,W,2,11,0.80,302.73,M,-33.324,M,,*7C
2017-12-01 11:34:27 1512146067.333354: $GPRMC,163428,A,3946.9578,N,08404.9820,W,0.0000,0.000,011217,,*31
2017-12-01 11:34:27 1512146067.333415: $GPGSA,A,3,10,13,15,18,20,21,24,29,5,27,138,,2.0,0.8,1.5*34
2017-12-01 11:34:28 1512146068.685082: $GPGSV,3,1,11,10,10,268,39,13,47,052,47,15,78,090,48,18,40,282,44*73
2017-12-01 11:34:28 1512146068.685250: $GPGSV,3,2,11,20,65,042,42,21,63,309,46,24,16,151,43,29,29,196,44*7A
2017-12-01 11:34:28 1512146068.685317: $GPGSV,3,3,11,05,17,075,32,27,06,327,40,138,38,213,46*7B
2017-12-01 11:34:28 1512146068.797192: $GPZDA,163429.00,01,12,2017,00,00*6B
2017-12-01 11:34:28 1512146068.797366: $GPGGA,163429,3946.9578,N,08404.9820,W,2,11,0.80,302.73,M,-33.324,M,,*7D
2017-12-01 11:34:28 1512146068.797435: $GPRMC,163429,A,3946.9578,N,08404.9820,W,0.0000,0.000,011217,,*30
2017-12-01 11:34:28 1512146068.797495: $GPGSA,A,3,10,13,15,18,20,21,24,29,5,27,138,,2.0,0.8,1.5*34
2017-12-01 11:34:29 1512146069.423808: $GPZDA,163430.00,01,12,2017,00,00*63
2017-12-01 11:34:29 1512146069.423998: $GPGGA,163430,3946.9578,N,08404.9820,W,2,11,0.80,302.73,M,-33.324,M,,*75
2017-12-01 11:34:29 1512146069.424068: $GPRMC,163430,A,3946.9578,N,08404.9820,W,0.0000,0.000,011217,,*38
2017-12-01 11:34:29 1512146069.424129: $GPGSA,A,3,10,13,15,18,20,21,24,29,5,27,138,,2.0,0.8,1.5*34
2017-12-01 11:34:30 1512146070.334662: $GPZDA,163431.00,01,12,2017,00,00*62
2017-12-01 11:34:30 1512146070.334842: $GPGGA,163431,3946.9578,N,08404.9820,W,2,11,0.80,302.73,M,-33.324,M,,*74
2017-12-01 11:34:30 1512146070.334910: $GPRMC,163431,A,3946.9578,N,08404.9820,W,0.0000,0.000,011217,,*39
2017-12-01 11:34:30 1512146070.334972: $GPGSA,A,3,10,13,15,18,20,21,24,29,5,27,138,,2.0,0.8,1.5*34
2017-12-01 11:34:31 1512146071.681715: $GPGSV,3,1,11,10,10,268,38,13,47,052,46,15,78,090,48,18,40,282,44*73
2017-12-01 11:34:31 1512146071.681899: $GPGSV,3,2,11,20,65,042,42,21,63,309,46,24,16,151,43,29,29,196,44*7A
2017-12-01 11:34:31 1512146071.681965: $GPGSV,3,3,11,05,17,075,32,27,06,327,40,138,38,213,45*78
2017-12-01 11:34:31 1512146071.795070: $GPZDA,163432.00,01,12,2017,00,00*61
2017-12-01 11:34:31 1512146071.795250: $GPGGA,163432,3946.9578,N,08404.9820,W,2,11,0.80,302.73,M,-33.324,M,,*77
2017-12-01 11:34:31 1512146071.795319: $GPRMC,163432,A,3946.9578,N,08404.9820,W,0.0000,0.000,011217,,*3A
2017-12-01 11:34:31 1512146071.795381: $GPGSA,A,3,10,13,15,18,20,21,24,29,5,27,138,,2.0,0.8,1.5*34
2017-12-01 11:34:32 1512146072.328487: $GPZDA,163433.00,01,12,2017,00,00*60
2017-12-01 11:34:32 1512146072.328639: $GPGGA,163433,3946.9578,N,08404.9820,W,2,11,0.80,302.73,M,-33.324,M,,*76
2017-12-01 11:34:32 1512146072.328707: $GPRMC,163433,A,3946.9578,N,08404.9820,W,0.0000,0.000,011217,,*3B
2017-12-01 11:34:32 1512146072.328768: $GPGSA,A,3,10,13,15,18,20,21,24,29,5,27,138,,2.0,0.8,1.5*34
2017-12-01 11:34:33 1512146073.331956: $GPZDA,163434.00,01,12,2017,00,00*67
2017-12-01 11:34:33 1512146073.332126: $GPGGA,163434,3946.9578,N,08404.9820,W,2,11,0.80,302.73,M,-33.324,M,,*71
2017-12-01 11:34:33 1512146073.332244: $GPRMC,163434,A,3946.9578,N,08404.9820,W,0.0000,0.000,011217,,*3C
2017-12-01 11:34:33 1512146073.332307: $GPGSA,A,3,10,13,15,18,20,21,24,29,5,27,138,,2.0,0.8,1.5*34
2017-12-01 11:34:34 1512146074.685762: $GPGSV,3,1,11,10,10,268,38,13,47,052,47,15,78,090,48,18,40,282,44*72
2017-12-01 11:34:34 1512146074.685948: $GPGSV,3,2,11,20,65,042,42,21,63,309,46,24,16,151,42,29,29,196,44*7B
2017-12-01 11:34:34 1512146074.686015: $GPGSV,3,3,11,05,17,075,32,27,06,327,40,138,38,213,47*7A
2017-12-01 11:34:34 1512146074.799173: $GPZDA,163435.00,01,12,2017,00,00*66
2017-12-01 11:34:34 1512146074.799343: $GPGGA,163435,3946.9575,N,08404.9821,W,2,11,0.80,303.50,M,-33.324,M,,*7C
2017-12-01 11:34:34 1512146074.799411: $GPRMC,163435,A,3946.9575,N,08404.9821,W,0.0000,0.000,011217,,*31
2017-12-01 11:34:34 1512146074.799472: $GPGSA,A,3,10,13,15,18,20,21,24,29,5,27,138,,2.0,0.8,1.5*34
2017-12-01 11:34:35 1512146075.334079: $GPZDA,163436.00,01,12,2017,00,00*65
2017-12-01 11:34:35 1512146075.334257: $GPGGA,163436,3946.9575,N,08404.9821,W,2,11,0.80,303.50,M,-33.324,M,,*7F
2017-12-01 11:34:35 1512146075.334346: $GPRMC,163436,A,3946.9575,N,08404.9821,W,0.0000,0.000,011217,,*32
2017-12-01 11:34:35 1512146075.334409: $GPGSA,A,3,10,13,15,18,20,21,24,29,5,27,138,,2.0,0.8,1.5*34
