2017-12-29 11:54:49 1514566489.308442: {"class":"VERSION","release":"3.16","rev":"3.16-4","proto_major":3,"proto_minor":11}
2017-12-29 11:54:49 1514566489.308789: {"class":"DEVICES","devices":[{"class":"DEVICE","path":"/dev/ttyUSB0","driver":"SiRF","subtype":"9\u0006GSD4e_4.1.2-P1_RPATCH.05-F-GPS-4R-1510281 11/03/2015 307","activated":"2017-12-29T16:54:49.239Z","flags":1,"native":1,"bps":4800,"parity":"N","stopbits":1,"cycle":1.00}]}
2017-12-29 11:54:49 1514566489.308905: {"class":"WATCH","enable":true,"json":false,"nmea":true,"raw":0,"scaled":false,"timing":false,"split24":false,"pps":false}
2017-12-29 11:54:49 1514566489.351862: $GPZDA,165450.00,29,12,2017,00,00*69
2017-12-29 11:54:49 1514566489.352038: $GPGGA,165450,3946.9629,N,08404.9894,W,2,11,0.80,303.92,M,-33.324,M,,*73
2017-12-29 11:54:49 1514566489.352206: $GPRMC,165450,A,3946.9629,N,08404.9894,W,0.1867,180.000,291217,,*3B
2017-12-29 11:54:49 1514566489.352274: $GPGSA,A,3,10,14,15,18,20,21,24,27,32,8,138,,1.7,0.8,1.3*36
2017-12-29 11:54:50 1514566490.687556: $GPGSV,3,1,11,10,55,315,46,14,16,241,31,15,23,058,46,18,77,040,45*7E
2017-12-29 11:54:50 1514566490.687736: $GPGSV,3,2,11,20,22,108,49,21,45,181,47,24,52,081,50,27,14,273,32*7D
2017-12-29 11:54:50 1514566490.687801: $GPGSV,3,3,11,32,35,250,35,08,08,309,19,138,38,213,44*7C
2017-12-29 11:54:50 1514566490.800919: $GPZDA,165451.00,29,12,2017,00,00*68
2017-12-29 11:54:50 1514566490.801194: $GPGGA,165451,3946.9626,N,08404.9894,W,2,11,0.80,304.69,M,-33.324,M,,*7E
2017-12-29 11:54:50 1514566490.801266: $GPRMC,165451,A,3946.9626,N,08404.9894,W,0.0000,0.000,291217,,*34
2017-12-29 11:54:50 1514566490.801327: $GPGSA,A,3,10,14,15,18,20,21,24,27,32,8,138,,1.7,0.8,1.3*36
2017-12-29 11:54:51 1514566491.426328: $GPZDA,165452.00,29,12,2017,00,00*6B
2017-12-29 11:54:51 1514566491.426516: $GPGGA,165452,3946.9626,N,08404.9894,W,2,11,0.80,304.69,M,-33.324,M,,*7D
2017-12-29 11:54:51 1514566491.426584: $GPRMC,165452,A,3946.9626,N,08404.9894,W,0.0000,0.000,291217,,*37
2017-12-29 11:54:51 1514566491.426646: $GPGSA,A,3,10,14,15,18,20,21,24,27,32,8,138,,1.7,0.8,1.3*36
2017-12-29 11:54:52 1514566492.344917: $GPZDA,165453.00,29,12,2017,00,00*6A
2017-12-29 11:54:52 1514566492.345114: $GPGGA,165453,3946.9626,N,08404.9894,W,2,11,0.80,304.69,M,-33.324,M,,*7C
2017-12-29 11:54:52 1514566492.345182: $GPRMC,165453,A,3946.9626,N,08404.9894,W,0.0000,0.000,291217,,*36
2017-12-29 11:54:52 1514566492.345246: $GPGSA,A,3,10,14,15,18,20,21,24,27,32,8,138,,1.7,0.8,1.3*36
2017-12-29 11:54:53 1514566493.681654: $GPGSV,3,1,11,10,55,315,45,14,16,241,31,15,23,058,45,18,77,040,45*7E
2017-12-29 11:54:53 1514566493.681835: $GPGSV,3,2,11,20,22,108,49,21,45,181,47,24,52,081,50,27,14,273,32*7D
2017-12-29 11:54:53 1514566493.681901: $GPGSV,3,3,11,32,35,250,35,08,08,309,27,138,38,213,46*73
2017-12-29 11:54:53 1514566493.795008: $GPZDA,165454.00,29,12,2017,00,00*6D
2017-12-29 11:54:53 1514566493.795155: $GPGGA,165454,3946.9626,N,08404.9894,W,2,11,0.80,304.69,M,-33.324,M,,*7B
2017-12-29 11:54:53 1514566493.795222: $GPRMC,165454,A,3946.9626,N,08404.9894,W,0.0000,0.000,291217,,*31
2017-12-29 11:54:53 1514566493.795283: $GPGSA,A,3,10,14,15,18,20,21,24,27,32,8,138,,1.7,0.8,1.3*36
2017-12-29 11:54:54 1514566494.334721: $GPZDA,165455.00,29,12,2017,00,00*6C
2017-12-29 11:54:54 1514566494.334893: $GPGGA,165455,3946.9625,N,08404.9887,W,2,11,0.80,304.77,M,-33.324,M,,*74
2017-12-29 11:54:54 1514566494.334960: $GPRMC,165455,A,3946.9625,N,08404.9887,W,0.0000,0.000,291217,,*31
2017-12-29 11:54:54 1514566494.335024: $GPGSA,A,3,10,14,15,18,20,21,24,27,32,8,138,,1.7,0.8,1.3*36
2017-12-29 11:54:55 1514566495.335646: $GPZDA,165456.00,29,12,2017,00,00*6F
2017-12-29 11:54:55 1514566495.335835: $GPGGA,165456,3946.9625,N,08404.9887,W,2,11,0.80,304.77,M,-33.324,M,,*77
2017-12-29 11:54:55 1514566495.335900: $GPRMC,165456,A,3946.9625,N,08404.9887,W,0.0000,0.000,291217,,*32
2017-12-29 11:54:55 1514566495.335965: $GPGSA,A,3,10,14,15,18,20,21,24,27,32,8,138,,1.7,0.8,1.3*36
2017-12-29 11:54:56 1514566496.669584: $GPGSV,3,1,11,10,55,315,44,14,16,241,31,15,23,058,46,18,77,040,45*7C
2017-12-29 11:54:56 1514566496.669813: $GPGSV,3,2,11,20,22,108,49,21,45,181,47,24,52,081,50,27,14,273,32*7D
2017-12-29 11:54:56 1514566496.669880: $GPGSV,3,3,11,32,35,250,35,08,08,309,30,138,38,213,44*77
2017-12-29 11:54:56 1514566496.783511: $GPZDA,165457.00,29,12,2017,00,00*6E
2017-12-29 11:54:56 1514566496.783697: $GPGGA,165457,3946.9625,N,08404.9887,W,2,11,0.80,304.77,M,-33.324,M,,*76
2017-12-29 11:54:56 1514566496.783767: $GPRMC,165457,A,3946.9625,N,08404.9887,W,0.0000,0.000,291217,,*33
2017-12-29 11:54:56 1514566496.783828: $GPGSA,A,3,10,14,15,18,20,21,24,27,32,8,138,,1.7,0.8,1.3*36
2017-12-29 11:54:57 1514566497.351679: $GPZDA,165458.00,29,12,2017,00,00*61
2017-12-29 11:54:57 1514566497.351849: $GPGGA,165458,3946.9625,N,08404.9887,W,2,11,0.80,304.77,M,-33.324,M,,*79
2017-12-29 11:54:57 1514566497.351917: $GPRMC,165458,A,3946.9625,N,08404.9887,W,0.0000,0.000,291217,,*3C
2017-12-29 11:54:57 1514566497.351980: $GPGSA,A,3,10,14,15,18,20,21,24,27,32,8,138,,1.7,0.8,1.3*36
2017-12-29 11:54:58 1514566498.352567: $GPZDA,165459.00,29,12,2017,00,00*60
2017-12-29 11:54:58 1514566498.352738: $GPGGA,165459,3946.9625,N,08404.9887,W,2,11,0.80,304.77,M,-33.324,M,,*78
2017-12-29 11:54:58 1514566498.352804: $GPRMC,165459,A,3946.9625,N,08404.9887,W,0.0000,0.000,291217,,*3D
2017-12-29 11:54:58 1514566498.352865: $GPGSA,A,3,10,14,15,18,20,21,24,27,32,8,138,,1.7,0.8,1.3*36
2017-12-29 11:54:59 1514566499.671591: $GPGSV,3,1,11,10,55,315,45,14,16,241,31,15,23,058,46,18,77,040,45*7D
2017-12-29 11:54:59 1514566499.671791: $GPGSV,3,2,11,20,22,108,49,21,45,181,47,24,52,081,50,27,14,273,32*7D
2017-12-29 11:54:59 1514566499.671859: $GPGSV,3,3,11,32,35,250,35,08,08,309,30,138,38,213,45*76
2017-12-29 11:54:59 1514566499.785110: $GPZDA,165500.00,29,12,2017,00,00*6D
2017-12-29 11:54:59 1514566499.785269: $GPGGA,165500,3946.9625,N,08404.9887,W,2,11,0.80,304.77,M,-33.324,M,,*75
2017-12-29 11:54:59 1514566499.785355: $GPRMC,165500,A,3946.9625,N,08404.9887,W,0.0000,0.000,291217,,*30
2017-12-29 11:54:59 1514566499.785417: $GPGSA,A,3,10,14,15,18,20,21,24,27,32,8,138,,1.7,0.8,1.3*36
2017-12-29 11:55:00 1514566500.351257: $GPZDA,165501.00,29,12,2017,00,00*6C
2017-12-29 11:55:00 1514566500.351428: $GPGGA,165501,3946.9625,N,08404.9887,W,2,11,0.80,304.77,M,-33.324,M,,*74
2017-12-29 11:55:00 1514566500.351497: $GPRMC,165501,A,3946.9625,N,08404.9887,W,0.0000,0.000,291217,,*31
2017-12-29 11:55:00 1514566500.351558: $GPGSA,A,3,10,14,15,18,20,21,24,27,32,8,138,,1.7,0.8,1.3*36
2017-12-29 11:55:01 1514566501.336702: $GPZDA,165502.00,29,12,2017,00,00*6F
2017-12-29 11:55:01 1514566501.336884: $GPGGA,165502,3946.9625,N,08404.9887,W,2,11,0.80,304.77,M,-33.324,M,,*77
2017-12-29 11:55:01 1514566501.336951: $GPRMC,165502,A,3946.9625,N,08404.9887,W,0.0000,0.000,291217,,*32
2017-12-29 11:55:01 1514566501.337017: $GPGSA,A,3,10,14,15,18,20,21,24,27,32,8,138,,1.7,0.8,1.3*36
2017-12-29 11:55:02 1514566502.670866: $GPGSV,3,1,11,10,55,315,44,14,16,241,31,15,23,058,46,18,77,040,46*7F
2017-12-29 11:55:02 1514566502.671101: $GPGSV,3,2,11,20,22,108,48,21,45,181,47,24,52,081,50,27,14,273,32*7C
2017-12-29 11:55:02 1514566502.671181: $GPGSV,3,3,11,32,35,250,35,08,08,309,30,138,38,213,44*77
2017-12-29 11:55:02 1514566502.784647: $GPZDA,165503.00,29,12,2017,00,00*6E
2017-12-29 11:55:02 1514566502.784817: $GPGGA,165503,3946.9622,N,08404.9888,W,2,11,0.80,305.53,M,-33.324,M,,*79
2017-12-29 11:55:02 1514566502.784885: $GPRMC,165503,A,3946.9622,N,08404.9888,W,0.0000,0.000,291217,,*3B
2017-12-29 11:55:02 1514566502.784948: $GPGSA,A,3,10,14,15,18,20,21,24,27,32,8,138,,1.7,0.8,1.3*36
2017-12-29 11:55:03 1514566503.351704: $GPZDA,165504.00,29,12,2017,00,00*69
2017-12-29 11:55:03 1514566503.351879: $GPGGA,165504,3946.9622,N,08404.9888,W,2,11,0.80,305.53,M,-33.324,M,,*7E
2017-12-29 11:55:03 1514566503.351950: $GPRMC,165504,A,3946.9622,N,08404.9888,W,0.0000,0.000,291217,,*3C
2017-12-29 11:55:03 1514566503.352011: $GPGSA,A,3,10,14,15,18,20,21,24,27,32,8,138,,1.7,0.8,1.3*36
