2017-12-01 16:56:29 1512165389.113969: {"class":"VERSION","release":"3.16","rev":"3.16-4","proto_major":3,"proto_minor":11}
2017-12-01 16:56:29 1512165389.114349: {"class":"DEVICES","devices":[{"class":"DEVICE","path":"/dev/ttyUSB0","driver":"SiRF","subtype":"9\u0006GSD4e_4.1.2-P1_RPATCH.05-F-GPS-4R-1510281 11/03/2015 307","activated":"2017-12-01T21:56:28.706Z","flags":1,"native":1,"bps":4800,"parity":"N","stopbits":1,"cycle":1.00}]}
2017-12-01 16:56:29 1512165389.114507: {"class":"WATCH","enable":true,"json":false,"nmea":true,"raw":0,"scaled":false,"timing":false,"split24":false,"pps":false}
2017-12-01 16:56:29 1512165389.391730: $GPZDA,215630.00,01,12,2017,00,00*63
2017-12-01 16:56:29 1512165389.391933: $GPGGA,215630,3946.9653,N,08404.9752,W,2,12,0.80,306.41,M,-33.324,M,,*73
2017-12-01 16:56:29 1512165389.392019: $GPRMC,215630,A,3946.9653,N,08404.9752,W,0.0000,0.000,011217,,*38
2017-12-01 16:56:29 1512165389.392096: $GPGSA,A,3,1,3,10,12,14,22,26,31,32,18,25,138,2.0,0.8,1.5*0A
2017-12-01 16:56:30 1512165390.724591: $GPGSV,3,1,12,01,22,288,43,03,09,316,41,10,35,153,38,12,16,040,23*7D
2017-12-01 16:56:30 1512165390.724745: $GPGSV,3,2,12,14,70,358,46,22,29,310,42,26,13,180,34,31,68,240,47*7B
2017-12-01 16:56:30 1512165390.724810: $GPGSV,3,3,12,32,63,057,48,18,07,147,22,25,40,073,26,138,38,213,36*4B
2017-12-01 16:56:30 1512165390.837963: $GPZDA,215631.00,01,12,2017,00,00*62
2017-12-01 16:56:30 1512165390.838134: $GPGGA,215631,3946.9653,N,08404.9752,W,2,12,0.80,306.41,M,-33.324,M,,*72
2017-12-01 16:56:30 1512165390.838201: $GPRMC,215631,A,3946.9653,N,08404.9752,W,0.0000,0.000,011217,,*39
2017-12-01 16:56:30 1512165390.838262: $GPGSA,A,3,1,3,10,12,14,22,26,31,32,18,25,138,2.0,0.8,1.5*0A
2017-12-01 16:56:31 1512165391.391311: $GPZDA,215632.00,01,12,2017,00,00*61
2017-12-01 16:56:31 1512165391.391536: $GPGGA,215632,3946.9653,N,08404.9752,W,2,12,0.80,306.41,M,-33.324,M,,*71
2017-12-01 16:56:31 1512165391.391605: $GPRMC,215632,A,3946.9653,N,08404.9752,W,0.0000,0.000,011217,,*3A
2017-12-01 16:56:31 1512165391.391666: $GPGSA,A,3,1,3,10,12,14,22,26,31,32,18,25,138,2.0,0.8,1.5*0A
2017-12-01 16:56:32 1512165392.389710: $GPZDA,215633.00,01,12,2017,00,00*60
2017-12-01 16:56:32 1512165392.389887: $GPGGA,215633,3946.9653,N,08404.9752,W,2,12,0.80,306.41,M,-33.324,M,,*70
2017-12-01 16:56:32 1512165392.389954: $GPRMC,215633,A,3946.9653,N,08404.9752,W,0.0000,0.000,011217,,*3B
2017-12-01 16:56:32 1512165392.390015: $GPGSA,A,3,1,3,10,12,14,22,26,31,32,18,25,138,2.0,0.8,1.5*0A
2017-12-01 16:56:33 1512165393.726675: $GPGSV,3,1,12,01,22,288,43,03,09,316,41,10,35,153,37,12,16,040,24*75
2017-12-01 16:56:33 1512165393.726859: $GPGSV,3,2,12,14,70,358,46,22,29,310,41,26,13,180,34,31,68,240,47*78
2017-12-01 16:56:33 1512165393.726926: $GPGSV,3,3,12,32,63,057,48,18,07,147,23,25,40,073,28,138,38,213,39*4B
2017-12-01 16:56:33 1512165393.839972: $GPZDA,215634.00,01,12,2017,00,00*67
2017-12-01 16:56:33 1512165393.840110: $GPGGA,215634,3946.9653,N,08404.9752,W,2,12,0.80,306.41,M,-33.324,M,,*77
2017-12-01 16:56:33 1512165393.840176: $GPRMC,215634,A,3946.9653,N,08404.9752,W,0.0000,0.000,011217,,*3C
2017-12-01 16:56:33 1512165393.840236: $GPGSA,A,3,1,3,10,12,14,22,26,31,32,18,25,138,2.0,0.8,1.5*0A
2017-12-01 16:56:34 1512165394.466653: $GPZDA,215635.00,01,12,2017,00,00*66
2017-12-01 16:56:34 1512165394.466831: $GPGGA,215635,3946.9653,N,08404.9752,W,2,12,0.80,306.41,M,-33.324,M,,*76
2017-12-01 16:56:34 1512165394.466898: $GPRMC,215635,A,3946.9653,N,08404.9752,W,0.0000,0.000,011217,,*3D
2017-12-01 16:56:34 1512165394.466959: $GPGSA,A,3,1,3,10,12,14,22,26,31,32,18,25,138,2.0,0.8,1.5*0A
2017-12-01 16:56:35 1512165395.390004: $GPZDA,215636.00,01,12,2017,00,00*65
2017-12-01 16:56:35 1512165395.390177: $GPGGA,215636,3946.9653,N,08404.9752,W,2,12,0.80,306.41,M,-33.324,M,,*75
2017-12-01 16:56:35 1512165395.390244: $GPRMC,215636,A,3946.9653,N,08404.9752,W,0.0000,0.000,011217,,*3E
2017-12-01 16:56:35 1512165395.390305: $GPGSA,A,3,1,3,10,12,14,22,26,31,32,18,25,138,2.0,0.8,1.5*0A
2017-12-01 16:56:36 1512165396.724527: $GPGSV,3,1,12,01,22,288,42,03,09,316,40,10,35,153,36,12,16,040,25*75
2017-12-01 16:56:36 1512165396.724765: $GPGSV,3,2,12,14,70,358,46,22,29,310,41,26,13,180,34,31,68,240,48*77
2017-12-01 16:56:36 1512165396.724836: $GPGSV,3,3,12,32,63,057,48,18,07,147,24,25,40,073,33,138,38,213,40*48
2017-12-01 16:56:36 1512165396.836648: $GPZDA,215637.00,01,12,2017,00,00*64
2017-12-01 16:56:36 1512165396.836835: $GPGGA,215637,3946.9649,N,08404.9752,W,2,12,0.80,305.77,M,-33.324,M,,*79
2017-12-01 16:56:36 1512165396.836902: $GPRMC,215637,A,3946.9649,N,08404.9752,W,0.0000,0.000,011217,,*34
2017-12-01 16:56:36 1512165396.836963: $GPGSA,A,3,1,3,10,12,14,22,26,31,32,18,25,138,2.0,0.8,1.5*0A
2017-12-01 16:56:37 1512165397.393778: $GPZDA,215638.00,01,12,2017,00,00*6B
2017-12-01 16:56:37 1512165397.393951: $GPGGA,215638,3946.9649,N,08404.9752,W,2,12,0.80,305.77,M,-33.324,M,,*76
2017-12-01 16:56:37 1512165397.394018: $GPRMC,215638,A,3946.9649,N,08404.9752,W,0.0000,0.000,011217,,*3B
2017-12-01 16:56:37 1512165397.394080: $GPGSA,A,3,1,3,10,12,14,22,26,31,32,18,25,138,2.0,0.8,1.5*0A
2017-12-01 16:56:38 1512165398.392184: $GPZDA,215639.00,01,12,2017,00,00*6A
2017-12-01 16:56:39 1512165399.279603: $GPGGA,215639,3946.9649,N,08404.9752,W,2,12,0.80,305.77,M,-33.324,M,,*77
2017-12-01 16:56:39 1512165399.279777: $GPRMC,215639,A,3946.9649,N,08404.9752,W,0.0000,0.000,011217,,*3A
2017-12-01 16:56:39 1512165399.279842: $GPGSA,A,3,1,3,10,12,14,22,26,31,32,18,25,138,2.0,0.8,1.5*0A
2017-12-01 16:56:39 1512165399.727470: $GPGSV,3,1,12,01,22,288,42,03,09,316,40,10,35,153,36,12,16,040,26*76
2017-12-01 16:56:39 1512165399.727652: $GPGSV,3,2,12,14,70,358,46,22,29,310,42,26,13,180,30,31,68,240,47*7F
2017-12-01 16:56:39 1512165399.727718: $GPGSV,3,3,12,32,63,057,48,18,07,147,24,25,40,073,32,138,38,213,40*49
2017-12-01 16:56:39 1512165399.840891: $GPZDA,215640.00,01,12,2017,00,00*64
2017-12-01 16:56:39 1512165399.841033: $GPGGA,215640,3946.9649,N,08404.9752,W,2,12,0.80,305.77,M,-33.324,M,,*79
2017-12-01 16:56:39 1512165399.841099: $GPRMC,215640,A,3946.9649,N,08404.9752,W,0.0000,0.000,011217,,*34
2017-12-01 16:56:39 1512165399.841159: $GPGSA,A,3,1,3,10,12,14,22,26,31,32,18,25,138,2.0,0.8,1.5*0A
2017-12-01 16:56:40 1512165400.390435: $GPZDA,215641.00,01,12,2017,00,00*65
2017-12-01 16:56:40 1512165400.390615: $GPGGA,215641,3946.9649,N,08404.9759,W,2,12,0.80,305.69,M,-33.324,M,,*7C
2017-12-01 16:56:40 1512165400.390683: $GPRMC,215641,A,3946.9649,N,08404.9759,W,0.0000,0.000,011217,,*3E
2017-12-01 16:56:40 1512165400.390744: $GPGSA,A,3,1,3,10,12,14,22,26,31,32,18,25,138,2.0,0.8,1.5*0A
2017-12-01 16:56:41 1512165401.391278: $GPZDA,215642.00,01,12,2017,00,00*66
2017-12-01 16:56:41 1512165401.391515: $GPGGA,215642,3946.9649,N,08404.9759,W,2,12,0.80,305.69,M,-33.324,M,,*7F
2017-12-01 16:56:41 1512165401.391603: $GPRMC,215642,A,3946.9649,N,08404.9759,W,0.0000,0.000,011217,,*3D
2017-12-01 16:56:41 1512165401.391666: $GPGSA,A,3,1,3,10,12,14,22,26,31,32,18,25,138,2.0,0.8,1.5*0A
2017-12-01 16:56:42 1512165402.727003: $GPGSV,3,1,12,01,22,288,41,03,09,316,40,10,35,153,36,12,16,040,26*75
2017-12-01 16:56:42 1512165402.727185: $GPGSV,3,2,12,14,70,358,46,22,29,310,42,26,13,180,32,31,68,240,47*7D
2017-12-01 16:56:42 1512165402.727253: $GPGSV,3,3,12,32,63,057,48,18,07,147,24,25,40,073,32,138,38,213,38*46
2017-12-01 16:56:42 1512165402.840434: $GPZDA,215643.00,01,12,2017,00,00*67
2017-12-01 16:56:42 1512165402.840627: $GPGGA,215643,3946.9649,N,08404.9759,W,2,12,0.80,305.69,M,-33.324,M,,*7E
2017-12-01 16:56:42 1512165402.840696: $GPRMC,215643,A,3946.9649,N,08404.9759,W,0.0000,0.000,011217,,*3C
2017-12-01 16:56:42 1512165402.840757: $GPGSA,A,3,1,3,10,12,14,22,26,31,32,18,25,138,2.0,0.8,1.5*0A
2017-12-01 16:56:43 1512165403.393017: $GPZDA,215644.00,01,12,2017,00,00*60
2017-12-01 16:56:43 1512165403.393387: $GPGGA,215644,3946.9649,N,08404.9759,W,2,12,0.80,305.69,M,-33.324,M,,*79
2017-12-01 16:56:43 1512165403.393617: $GPRMC,215644,A,3946.9649,N,08404.9759,W,0.0000,0.000,011217,,*3B
2017-12-01 16:56:43 1512165403.393749: $GPGSA,A,3,1,3,10,12,14,22,26,31,32,18,25,138,2.0,0.8,1.5*0A
2017-12-01 16:56:44 1512165404.389214: $GPZDA,215645.00,01,12,2017,00,00*61
2017-12-01 16:56:44 1512165404.389411: $GPGGA,215645,3946.9649,N,08404.9759,W,2,12,0.80,305.69,M,-33.324,M,,*78
2017-12-01 16:56:44 1512165404.389482: $GPRMC,215645,A,3946.9649,N,08404.9759,W,0.0000,0.000,011217,,*3A
2017-12-01 16:56:44 1512165404.389570: $GPGSA,A,3,1,3,10,12,14,22,26,31,32,18,25,138,2.0,0.8,1.5*0A
2017-12-01 16:56:45 1512165405.727364: $GPGSV,3,1,12,01,22,288,41,03,09,316,40,10,35,153,35,12,16,040,27*77
2017-12-01 16:56:45 1512165405.727576: $GPGSV,3,2,12,14,70,358,46,22,29,310,41,26,13,180,32,31,68,240,47*7E
2017-12-01 16:56:45 1512165405.727642: $GPGSV,3,3,12,32,63,057,48,18,07,147,25,25,40,073,32,138,38,213,41*49
2017-12-01 16:56:45 1512165405.840769: $GPZDA,215646.00,01,12,2017,00,00*62
2017-12-01 16:56:45 1512165405.840937: $GPGGA,215646,3946.9649,N,08404.9759,W,2,12,0.80,305.69,M,-33.324,M,,*7B
2017-12-01 16:56:45 1512165405.841003: $GPRMC,215646,A,3946.9649,N,08404.9759,W,0.0000,0.000,011217,,*39
2017-12-01 16:56:45 1512165405.841064: $GPGSA,A,3,1,3,10,12,14,22,26,31,32,18,25,138,2.0,0.8,1.5*0A
2017-12-01 16:56:46 1512165406.392083: $GPZDA,215647.00,01,12,2017,00,00*63
2017-12-01 16:56:46 1512165406.392242: $GPGGA,215647,3946.9649,N,08404.9759,W,2,12,0.80,305.69,M,-33.324,M,,*7A
2017-12-01 16:56:46 1512165406.392309: $GPRMC,215647,A,3946.9649,N,08404.9759,W,0.0000,0.000,011217,,*38
2017-12-01 16:56:46 1512165406.392371: $GPGSA,A,3,1,3,10,12,14,22,26,31,32,18,25,138,2.0,0.8,1.5*0A
2017-12-01 16:56:47 1512165407.389985: $GPZDA,215648.00,01,12,2017,00,00*6C
2017-12-01 16:56:47 1512165407.390157: $GPGGA,215648,3946.9649,N,08404.9759,W,2,12,0.80,305.69,M,-33.324,M,,*75
2017-12-01 16:56:47 1512165407.390224: $GPRMC,215648,A,3946.9649,N,08404.9759,W,0.0000,0.000,011217,,*37
2017-12-01 16:56:47 1512165407.390284: $GPGSA,A,3,1,3,10,12,14,22,26,31,32,18,25,138,2.0,0.8,1.5*0A
2017-12-01 16:56:48 1512165408.725720: $GPGSV,3,1,12,01,22,288,41,03,09,316,40,10,35,153,35,12,16,040,26*76
2017-12-01 16:56:48 1512165408.725899: $GPGSV,3,2,12,14,70,358,46,22,29,310,42,26,13,180,37,31,68,240,47*78
2017-12-01 16:56:48 1512165408.725967: $GPGSV,3,3,12,32,63,057,49,18,07,147,26,25,40,073,31,138,38,213,41*48
2017-12-01 16:56:48 1512165408.839109: $GPZDA,215649.00,01,12,2017,00,00*6D
2017-12-01 16:56:48 1512165408.839280: $GPGGA,215649,3946.9649,N,08404.9759,W,2,12,0.80,305.69,M,-33.324,M,,*74
2017-12-01 16:56:48 1512165408.839347: $GPRMC,215649,A,3946.9649,N,08404.9759,W,0.0000,0.000,011217,,*36
2017-12-01 16:56:48 1512165408.839429: $GPGSA,A,3,1,3,10,12,14,22,26,31,32,18,25,138,2.0,0.8,1.5*0A
