2017-12-29 11:30:13 1514565013.537763: {"class":"VERSION","release":"3.16","rev":"3.16-4","proto_major":3,"proto_minor":11}
2017-12-29 11:30:13 1514565013.538189: {"class":"DEVICES","devices":[{"class":"DEVICE","path":"/dev/ttyUSB0","driver":"SiRF","subtype":"9\u0006GSD4e_4.1.2-P1_RPATCH.05-F-GPS-4R-1510281 11/03/2015 307","activated":"2017-12-29T16:30:13.510Z","flags":1,"native":1,"bps":4800,"parity":"N","stopbits":1,"cycle":1.00}]}
2017-12-29 11:30:13 1514565013.538306: {"class":"WATCH","enable":true,"json":false,"nmea":true,"raw":0,"scaled":false,"timing":false,"split24":false,"pps":false}
2017-12-29 11:30:14 1514565014.729155: $GPGSV,3,1,12,08,07,318,38,10,46,306,46,15,32,054,49,18,75,354,44*72
2017-12-29 11:30:14 1514565014.729314: $GPGSV,3,2,12,20,30,100,49,21,57,186,45,24,52,100,50,27,18,283,43*7E
2017-12-29 11:30:14 1514565014.729379: $GPGSV,3,3,12,32,26,243,39,14,08,235,27,13,03,051,00,138,38,213,44*48
2017-12-29 11:30:14 1514565014.842800: $GPZDA,163015.00,29,12,2017,00,00*6A
2017-12-29 11:30:14 1514565014.842963: $GPGGA,163015,3946.9634,N,08404.9827,W,2,11,1.20,362.21,M,-33.324,M,,*70
2017-12-29 11:30:14 1514565014.843028: $GPRMC,163015,A,3946.9634,N,08404.9827,W,0.0000,0.000,291217,,*3D
2017-12-29 11:30:14 1514565014.843088: $GPGSA,A,3,8,10,15,18,20,21,24,27,32,14,138,,1.7,1.2,1.3*3D
2017-12-29 11:30:15 1514565015.393668: $GPZDA,163016.00,29,12,2017,00,00*69
2017-12-29 11:30:15 1514565015.393850: $GPGGA,163016,3946.9634,N,08404.9827,W,2,11,1.20,362.21,M,-33.324,M,,*73
2017-12-29 11:30:15 1514565015.393916: $GPRMC,163016,A,3946.9634,N,08404.9827,W,0.0000,0.000,291217,,*3E
2017-12-29 11:30:15 1514565015.393977: $GPGSA,A,3,8,10,15,18,20,21,24,27,32,14,138,,1.7,1.2,1.3*3D
2017-12-29 11:30:16 1514565016.388005: $GPZDA,163017.00,29,12,2017,00,00*68
2017-12-29 11:30:16 1514565016.388183: $GPGGA,163017,3946.9634,N,08404.9827,W,2,11,1.20,362.21,M,-33.324,M,,*72
2017-12-29 11:30:16 1514565016.388250: $GPRMC,163017,A,3946.9634,N,08404.9827,W,0.0000,0.000,291217,,*3F
2017-12-29 11:30:16 1514565016.388310: $GPGSA,A,3,8,10,15,18,20,21,24,27,32,14,138,,1.7,1.2,1.3*3D
2017-12-29 11:30:17 1514565017.729965: $GPGSV,3,1,12,08,07,318,38,10,46,306,46,15,32,054,48,18,75,354,44*73
2017-12-29 11:30:17 1514565017.730146: $GPGSV,3,2,12,20,30,100,50,21,57,186,46,24,52,100,50,27,18,283,44*72
2017-12-29 11:30:17 1514565017.730214: $GPGSV,3,3,12,32,26,243,39,14,08,235,19,13,03,051,00,138,38,213,45*44
2017-12-29 11:30:17 1514565017.843308: $GPZDA,163018.00,29,12,2017,00,00*67
2017-12-29 11:30:17 1514565017.843498: $GPGGA,163018,3946.9634,N,08404.9827,W,2,11,2.40,362.21,M,-33.324,M,,*78
2017-12-29 11:30:17 1514565017.843565: $GPRMC,163018,A,3946.9634,N,08404.9827,W,0.0000,0.000,291217,,*30
2017-12-29 11:30:17 1514565017.843642: $GPGSA,A,3,8,10,15,18,20,21,24,27,32,14,138,,1.7,2.4,1.3*38
2017-12-29 11:30:18 1514565018.394193: $GPZDA,163019.00,29,12,2017,00,00*66
2017-12-29 11:30:18 1514565018.394361: $GPGGA,163019,3946.9634,N,08404.9827,W,2,11,2.40,362.21,M,-33.324,M,,*79
2017-12-29 11:30:18 1514565018.394426: $GPRMC,163019,A,3946.9634,N,08404.9827,W,0.0000,0.000,291217,,*31
2017-12-29 11:30:18 1514565018.394515: $GPGSA,A,3,8,10,15,18,20,21,24,27,32,14,138,,1.7,2.4,1.3*38
2017-12-29 11:30:19 1514565019.394663: $GPZDA,163020.00,29,12,2017,00,00*6C
2017-12-29 11:30:19 1514565019.394864: $GPGGA,163020,3946.9634,N,08404.9827,W,2,11,2.40,362.21,M,-33.324,M,,*73
2017-12-29 11:30:19 1514565019.394931: $GPRMC,163020,A,3946.9634,N,08404.9827,W,0.0000,0.000,291217,,*3B
2017-12-29 11:30:19 1514565019.394991: $GPGSA,A,3,8,10,15,18,20,21,24,27,32,14,138,,1.7,2.4,1.3*38
2017-12-29 11:30:20 1514565020.730250: $GPGSV,3,1,12,08,07,318,39,10,46,306,46,15,32,054,48,18,75,354,44*72
2017-12-29 11:30:20 1514565020.730451: $GPGSV,3,2,12,20,30,100,50,21,57,186,46,24,52,100,50,27,18,283,44*72
2017-12-29 11:30:20 1514565020.730544: $GPGSV,3,3,12,32,26,243,39,14,08,235,23,13,03,051,00,138,38,213,46*4E
2017-12-29 11:30:20 1514565020.843618: $GPZDA,163021.00,29,12,2017,00,00*6D
2017-12-29 11:30:20 1514565020.843801: $GPGGA,163021,3946.9634,N,08404.9827,W,2,10,2.40,362.21,M,-33.324,M,,*73
2017-12-29 11:30:20 1514565020.843919: $GPRMC,163021,A,3946.9634,N,08404.9827,W,0.0000,0.000,291217,,*3A
2017-12-29 11:30:20 1514565020.843981: $GPGSA,A,3,8,10,15,18,20,21,24,27,32,138,,,1.7,2.4,1.3*3D
2017-12-29 11:30:21 1514565021.388222: $GPZDA,163022.00,29,12,2017,00,00*6E
2017-12-29 11:30:21 1514565021.388396: $GPGGA,163022,3946.9634,N,08404.9827,W,2,10,2.40,362.21,M,-33.324,M,,*70
2017-12-29 11:30:21 1514565021.388463: $GPRMC,163022,A,3946.9634,N,08404.9827,W,0.0000,0.000,291217,,*39
2017-12-29 11:30:21 1514565021.388541: $GPGSA,A,3,8,10,15,18,20,21,24,27,32,138,,,1.7,2.4,1.3*3D
2017-12-29 11:30:22 1514565022.392812: $GPZDA,163023.00,29,12,2017,00,00*6F
2017-12-29 11:30:22 1514565022.392985: $GPGGA,163023,3946.9634,N,08404.9827,W,1,10,1.00,362.21,M,-33.324,M,,*75
2017-12-29 11:30:22 1514565022.393052: $GPRMC,163023,A,3946.9634,N,08404.9827,W,0.0000,0.000,291217,,*38
2017-12-29 11:30:22 1514565022.393114: $GPGSA,A,3,8,10,15,18,20,21,24,27,32,138,,,1.7,1.0,1.3*3A
2017-12-29 11:30:23 1514565023.729893: $GPGSV,3,1,12,08,07,318,39,10,46,306,46,15,32,054,48,18,75,354,44*72
2017-12-29 11:30:23 1514565023.730223: $GPGSV,3,2,12,20,30,100,50,21,57,186,46,24,52,100,50,27,18,283,44*72
2017-12-29 11:30:23 1514565023.730361: $GPGSV,3,3,12,32,26,243,39,14,08,235,00,13,03,051,00,138,38,213,45*4C
2017-12-29 11:30:23 1514565023.843128: $GPZDA,163024.00,29,12,2017,00,00*68
2017-12-29 11:30:23 1514565023.846612: $GPGGA,163024,3946.9634,N,08404.9827,W,1,10,1.00,362.21,M,-33.324,M,,*72
2017-12-29 11:30:23 1514565023.846738: $GPRMC,163024,A,3946.9634,N,08404.9827,W,0.0000,0.000,291217,,*3F
2017-12-29 11:30:23 1514565023.846833: $GPGSA,A,3,8,10,15,18,20,21,24,27,32,138,,,1.7,1.0,1.3*3A
2017-12-29 11:30:24 1514565024.468956: $GPZDA,163025.00,29,12,2017,00,00*69
2017-12-29 11:30:24 1514565024.469120: $GPGGA,163025,3946.9634,N,08404.9827,W,1,10,1.00,362.21,M,-33.324,M,,*73
2017-12-29 11:30:24 1514565024.469186: $GPRMC,163025,A,3946.9634,N,08404.9827,W,0.0000,0.000,291217,,*3E
2017-12-29 11:30:24 1514565024.469247: $GPGSA,A,3,8,10,15,18,20,21,24,27,32,138,,,1.7,1.0,1.3*3A
2017-12-29 11:30:25 1514565025.394551: $GPZDA,163026.00,29,12,2017,00,00*6A
2017-12-29 11:30:25 1514565025.394727: $GPGGA,163026,3946.9630,N,08404.9827,W,1,10,1.00,361.57,M,-33.324,M,,*76
2017-12-29 11:30:25 1514565025.394793: $GPRMC,163026,A,3946.9630,N,08404.9827,W,0.0000,0.000,291217,,*39
2017-12-29 11:30:25 1514565025.394853: $GPGSA,A,3,8,10,15,18,20,21,24,27,32,138,,,1.7,1.0,1.3*3A
2017-12-29 11:30:26 1514565026.745146: $GPGSV,3,1,12,08,07,318,40,10,46,306,46,15,32,054,48,18,75,354,45*7D
2017-12-29 11:30:26 1514565026.745327: $GPGSV,3,2,12,20,30,100,49,21,57,186,46,24,52,100,50,27,18,283,44*7A
2017-12-29 11:30:26 1514565026.745393: $GPGSV,3,3,12,32,26,243,39,14,08,235,00,13,03,051,00,138,38,213,45*4C
2017-12-29 11:30:26 1514565026.858767: $GPZDA,163027.00,29,12,2017,00,00*6B
2017-12-29 11:30:26 1514565026.858936: $GPGGA,163027,3946.9633,N,08404.9826,W,1,10,1.40,360.81,M,-33.324,M,,*7B
2017-12-29 11:30:26 1514565026.859001: $GPRMC,163027,A,3946.9633,N,08404.9826,W,0.0000,0.000,291217,,*3A
2017-12-29 11:30:26 1514565026.859060: $GPGSA,A,3,8,10,15,18,20,21,24,27,32,138,,,1.7,1.4,1.3*3E
2017-12-29 11:30:27 1514565027.407138: $GPZDA,163028.00,29,12,2017,00,00*64
2017-12-29 11:30:27 1514565027.407307: $GPGGA,163028,3946.9633,N,08404.9826,W,1,10,1.40,360.81,M,-33.324,M,,*74
2017-12-29 11:30:27 1514565027.407372: $GPRMC,163028,A,3946.9633,N,08404.9826,W,0.0000,0.000,291217,,*35
2017-12-29 11:30:27 1514565027.407432: $GPGSA,A,3,8,10,15,18,20,21,24,27,32,138,,,1.7,1.4,1.3*3E
2017-12-29 11:30:28 1514565028.409236: $GPZDA,163029.00,29,12,2017,00,00*65
2017-12-29 11:30:28 1514565028.409404: $GPGGA,163029,3946.9633,N,08404.9826,W,1,10,1.00,360.81,M,-33.324,M,,*71
2017-12-29 11:30:28 1514565028.409470: $GPRMC,163029,A,3946.9633,N,08404.9826,W,0.0000,0.000,291217,,*34
2017-12-29 11:30:28 1514565028.409530: $GPGSA,A,3,8,10,15,18,20,21,24,27,32,138,,,1.7,1.0,1.3*3A
