2017-12-01 14:37:16 1512157036.967556: {"class":"VERSION","release":"3.16","rev":"3.16-4","proto_major":3,"proto_minor":11}
2017-12-01 14:37:16 1512157036.967947: {"class":"DEVICES","devices":[{"class":"DEVICE","path":"/dev/ttyUSB0","driver":"SiRF","subtype":"9\u0006GSD4e_4.1.2-P1_RPATCH.05-F-GPS-4R-1510281 11/03/2015 307","activated":"2017-12-01T19:37:16.481Z","flags":1,"native":1,"bps":4800,"parity":"N","stopbits":1,"cycle":1.00}]}
2017-12-01 14:37:16 1512157036.968063: {"class":"WATCH","enable":true,"json":false,"nmea":true,"raw":0,"scaled":false,"timing":false,"split24":false,"pps":false}
2017-12-01 14:37:17 1512157037.340403: $GPZDA,193718.00,01,12,2017,00,00*65
2017-12-01 14:37:17 1512157037.340583: $GPGGA,193718,3946.9599,N,08404.9868,W,2,12,1.00,291.89,M,-33.324,M,,*74
2017-12-01 14:37:17 1512157037.340651: $GPRMC,193718,A,3946.9599,N,08404.9868,W,0.0000,0.000,011217,,*3D
2017-12-01 14:37:17 1512157037.340713: $GPGSA,A,3,10,12,14,18,21,24,32,25,20,8,31,138,2.0,1.0,1.5*3A
2017-12-01 14:37:18 1512157038.668580: $GPGSV,3,1,12,10,74,340,47,12,13,102,29,14,33,258,42,18,66,105,46*74
2017-12-01 14:37:19 1512157039.359567: $GPGSV,3,2,12,21,23,178,44,24,40,054,48,32,50,273,44,25,07,138,25*77
2017-12-01 14:37:19 1512157039.359736: $GPGSV,3,3,12,15,07,069,23,08,04,289,36,31,04,204,24,138,38,213,47*49
2017-12-01 14:37:19 1512157039.359841: $GPZDA,193719.00,01,12,2017,00,00*64
2017-12-01 14:37:19 1512157039.359901: $GPGGA,193719,3946.9599,N,08404.9868,W,2,12,1.00,291.89,M,-33.324,M,,*75
2017-12-01 14:37:19 1512157039.359963: $GPRMC,193719,A,3946.9599,N,08404.9868,W,0.0000,0.000,011217,,*3C
2017-12-01 14:37:19 1512157039.360024: $GPGSA,A,3,10,12,14,18,21,24,32,25,15,8,31,138,2.0,1.0,1.5*3C
2017-12-01 14:37:19 1512157039.407707: $GPZDA,193720.00,01,12,2017,00,00*6E
2017-12-01 14:37:19 1512157039.407847: $GPGGA,193720,3946.9595,N,08404.9869,W,2,12,1.20,292.66,M,-33.324,M,,*72
2017-12-01 14:37:19 1512157039.407913: $GPRMC,193720,A,3946.9595,N,08404.9869,W,0.0000,0.000,011217,,*3B
2017-12-01 14:37:19 1512157039.407973: $GPGSA,A,3,10,12,14,18,21,24,32,25,15,8,31,138,2.0,1.2,1.5*3E
2017-12-01 14:37:20 1512157040.342023: $GPZDA,193721.00,01,12,2017,00,00*6F
2017-12-01 14:37:20 1512157040.342208: $GPGGA,193721,3946.9595,N,08404.9869,W,2,12,1.20,292.66,M,-33.324,M,,*73
2017-12-01 14:37:20 1512157040.342281: $GPRMC,193721,A,3946.9595,N,08404.9869,W,0.0000,0.000,011217,,*3A
2017-12-01 14:37:20 1512157040.342344: $GPGSA,A,3,10,12,14,18,21,24,32,25,15,8,31,138,2.0,1.2,1.5*3E
2017-12-01 14:37:21 1512157041.673973: $GPGSV,3,1,12,10,74,340,48,12,13,102,28,14,33,258,42,18,66,105,46*7A
2017-12-01 14:37:21 1512157041.674162: $GPGSV,3,2,12,21,23,178,43,24,40,054,48,32,50,273,44,25,07,138,24*71
2017-12-01 14:37:21 1512157041.674238: $GPGSV,3,3,12,27,03,255,04,08,04,289,35,31,04,204,25,138,38,213,47*46
2017-12-01 14:37:21 1512157041.787345: $GPZDA,193722.00,01,12,2017,00,00*6C
2017-12-01 14:37:21 1512157041.787566: $GPGGA,193722,3946.9595,N,08404.9869,W,2,11,1.20,292.66,M,-33.324,M,,*73
2017-12-01 14:37:21 1512157041.787649: $GPRMC,193722,A,3946.9595,N,08404.9869,W,0.0000,0.000,011217,,*39
2017-12-01 14:37:21 1512157041.787715: $GPGSA,A,3,10,12,14,18,21,24,32,25,8,31,138,,2.0,1.2,1.5*3A
2017-12-01 14:37:22 1512157042.339871: $GPZDA,193723.00,01,12,2017,00,00*6D
2017-12-01 14:37:22 1512157042.340049: $GPGGA,193723,3946.9595,N,08404.9869,W,2,11,1.20,292.66,M,-33.324,M,,*72
2017-12-01 14:37:22 1512157042.340120: $GPRMC,193723,A,3946.9595,N,08404.9869,W,0.0000,0.000,011217,,*38
2017-12-01 14:37:22 1512157042.340186: $GPGSA,A,3,10,12,14,18,21,24,32,25,8,31,138,,2.0,1.2,1.5*3A
2017-12-01 14:37:23 1512157043.337896: $GPZDA,193724.00,01,12,2017,00,00*6A
2017-12-01 14:37:23 1512157043.338071: $GPGGA,193724,3946.9595,N,08404.9869,W,2,11,1.20,292.66,M,-33.324,M,,*75
2017-12-01 14:37:23 1512157043.338140: $GPRMC,193724,A,3946.9595,N,08404.9869,W,0.0000,0.000,011217,,*3F
2017-12-01 14:37:23 1512157043.338204: $GPGSA,A,3,10,12,14,18,21,24,32,25,8,31,138,,2.0,1.2,1.5*3A
2017-12-01 14:37:24 1512157044.668065: $GPGSV,3,1,12,10,74,340,47,12,13,102,28,14,33,258,43,18,66,105,46*74
2017-12-01 14:37:24 1512157044.668337: $GPGSV,3,2,12,21,23,178,43,24,40,054,48,32,50,273,44,25,07,138,20*75
2017-12-01 14:37:24 1512157044.668423: $GPGSV,3,3,12,27,03,255,13,08,04,289,35,31,04,204,26,138,38,213,47*43
2017-12-01 14:37:24 1512157044.781593: $GPZDA,193725.00,01,12,2017,00,00*6B
2017-12-01 14:37:24 1512157044.781760: $GPGGA,193725,3946.9595,N,08404.9869,W,2,12,1.20,292.66,M,-33.324,M,,*77
2017-12-01 14:37:24 1512157044.781845: $GPRMC,193725,A,3946.9595,N,08404.9869,W,0.0000,0.000,011217,,*3E
2017-12-01 14:37:24 1512157044.781908: $GPGSA,A,3,10,12,14,18,21,24,32,25,27,8,31,138,2.0,1.2,1.5*3F
2017-12-01 14:37:25 1512157045.342842: $GPZDA,193726.00,01,12,2017,00,00*68
2017-12-01 14:37:25 1512157045.342999: $GPGGA,193726,3946.9595,N,08404.9869,W,2,12,1.20,292.66,M,-33.324,M,,*74
2017-12-01 14:37:25 1512157045.343065: $GPRMC,193726,A,3946.9595,N,08404.9869,W,0.0000,0.000,011217,,*3D
2017-12-01 14:37:25 1512157045.343126: $GPGSA,A,3,10,12,14,18,21,24,32,25,27,8,31,138,2.0,1.2,1.5*3F
2017-12-01 14:37:26 1512157046.338605: $GPZDA,193727.00,01,12,2017,00,00*69
2017-12-01 14:37:26 1512157046.338776: $GPGGA,193727,3946.9595,N,08404.9869,W,2,12,1.20,292.66,M,-33.324,M,,*75
2017-12-01 14:37:26 1512157046.338843: $GPRMC,193727,A,3946.9595,N,08404.9869,W,0.0000,0.000,011217,,*3C
2017-12-01 14:37:26 1512157046.338904: $GPGSA,A,3,10,12,14,18,21,24,32,25,27,8,31,138,2.0,1.2,1.5*3F
2017-12-01 14:37:27 1512157047.672887: $GPGSV,3,1,11,10,74,340,47,12,13,102,29,14,33,258,43,18,66,105,46*76
2017-12-01 14:37:27 1512157047.673070: $GPGSV,3,2,11,21,23,178,43,24,40,054,48,32,50,273,44,27,03,255,17*7C
2017-12-01 14:37:27 1512157047.673174: $GPGSV,3,3,11,08,04,289,36,31,04,204,27,138,38,213,47*74
2017-12-01 14:37:27 1512157047.786489: $GPZDA,193728.00,01,12,2017,00,00*66
2017-12-01 14:37:27 1512157047.786659: $GPGGA,193728,3946.9595,N,08404.9869,W,2,11,1.20,292.66,M,-33.324,M,,*79
2017-12-01 14:37:27 1512157047.786727: $GPRMC,193728,A,3946.9595,N,08404.9869,W,0.0000,0.000,011217,,*33
2017-12-01 14:37:27 1512157047.786788: $GPGSA,A,3,10,12,14,18,21,24,32,27,8,31,138,,2.0,1.2,1.5*38
2017-12-01 14:37:28 1512157048.342378: $GPZDA,193729.00,01,12,2017,00,00*67
2017-12-01 14:37:28 1512157048.342552: $GPGGA,193729,3946.9595,N,08404.9869,W,2,11,1.20,292.66,M,-33.324,M,,*78
2017-12-01 14:37:28 1512157048.342619: $GPRMC,193729,A,3946.9595,N,08404.9869,W,0.0000,0.000,011217,,*32
2017-12-01 14:37:28 1512157048.342681: $GPGSA,A,3,10,12,14,18,21,24,32,27,8,31,138,,2.0,1.2,1.5*38
2017-12-01 14:37:29 1512157049.342778: $GPZDA,193730.00,01,12,2017,00,00*6F
2017-12-01 14:37:29 1512157049.342950: $GPGGA,193730,3946.9595,N,08404.9869,W,2,11,1.00,292.66,M,-33.324,M,,*72
2017-12-01 14:37:29 1512157049.343017: $GPRMC,193730,A,3946.9595,N,08404.9869,W,0.0000,0.000,011217,,*3A
2017-12-01 14:37:29 1512157049.343078: $GPGSA,A,3,10,12,14,18,21,24,32,27,8,31,138,,2.0,1.0,1.5*3A
2017-12-01 14:37:30 1512157050.678065: $GPGSV,3,1,12,10,74,340,47,12,13,102,29,14,33,258,43,18,66,105,46*75
2017-12-01 14:37:30 1512157050.678266: $GPGSV,3,2,12,21,23,178,42,24,40,054,48,32,50,273,44,15,07,069,22*70
2017-12-01 14:37:30 1512157050.678336: $GPGSV,3,3,12,20,04,121,02,08,04,289,35,31,04,204,28,138,38,213,46*4C
2017-12-01 14:37:30 1512157050.792229: $GPZDA,193731.00,01,12,2017,00,00*6E
2017-12-01 14:37:30 1512157050.792362: $GPGGA,193731,3946.9595,N,08404.9869,W,2,11,1.00,292.66,M,-33.324,M,,*73
2017-12-01 14:37:30 1512157050.792428: $GPRMC,193731,A,3946.9595,N,08404.9869,W,0.0000,0.000,011217,,*3B
2017-12-01 14:37:30 1512157050.792509: $GPGSA,A,3,10,12,14,18,21,24,32,15,8,31,138,,2.0,1.0,1.5*3B
2017-12-01 14:37:31 1512157051.376188: $GPZDA,193732.00,01,12,2017,00,00*6D
2017-12-01 14:37:31 1512157051.376397: $GPGGA,193732,3946.9595,N,08404.9869,W,2,11,1.00,292.66,M,-33.324,M,,*70
2017-12-01 14:37:31 1512157051.376466: $GPRMC,193732,A,3946.9595,N,08404.9869,W,0.0000,0.000,011217,,*38
2017-12-01 14:37:31 1512157051.376528: $GPGSA,A,3,10,12,14,18,21,24,32,15,8,31,138,,2.0,1.0,1.5*3B
2017-12-01 14:37:32 1512157052.373231: $GPZDA,193733.00,01,12,2017,00,00*6C
2017-12-01 14:37:32 1512157052.373459: $GPGGA,193733,3946.9592,N,08404.9870,W,2,11,1.00,293.42,M,-33.324,M,,*79
2017-12-01 14:37:32 1512157052.373530: $GPRMC,193733,A,3946.9592,N,08404.9870,W,0.0000,0.000,011217,,*36
2017-12-01 14:37:32 1512157052.373592: $GPGSA,A,3,10,12,14,18,21,24,32,15,8,31,138,,2.0,1.0,1.5*3B
2017-12-01 14:37:33 1512157053.712734: $GPGSV,3,1,12,10,74,340,48,12,13,102,30,14,33,258,42,18,66,105,46*73
2017-12-01 14:37:33 1512157053.712900: $GPGSV,3,2,12,21,23,178,43,24,40,054,48,32,50,273,44,15,07,069,22*71
2017-12-01 14:37:33 1512157053.712967: $GPGSV,3,3,12,20,04,121,22,08,04,289,35,31,04,204,28,138,38,213,47*4F
2017-12-01 14:37:33 1512157053.826181: $GPZDA,193734.00,01,12,2017,00,00*6B
2017-12-01 14:37:33 1512157053.826393: $GPGGA,193734,3946.9592,N,08404.9870,W,2,12,1.00,293.42,M,-33.324,M,,*7D
2017-12-01 14:37:33 1512157053.826461: $GPRMC,193734,A,3946.9592,N,08404.9870,W,0.0000,0.000,011217,,*31
2017-12-01 14:37:33 1512157053.826522: $GPGSA,A,3,10,12,14,18,21,24,32,15,20,8,31,138,2.0,1.0,1.5*39
2017-12-01 14:37:34 1512157054.451494: $GPZDA,193735.00,01,12,2017,00,00*6A
2017-12-01 14:37:34 1512157054.454382: $GPGGA,193735,3946.9592,N,08404.9870,W,2,12,1.00,293.42,M,-33.324,M,,*7C
2017-12-01 14:37:34 1512157054.454491: $GPRMC,193735,A,3946.9592,N,08404.9870,W,0.0000,0.000,011217,,*30
2017-12-01 14:37:34 1512157054.454554: $GPGSA,A,3,10,12,14,18,21,24,32,15,20,8,31,138,2.0,1.0,1.5*39
2017-12-01 14:37:35 1512157055.374949: $GPZDA,193736.00,01,12,2017,00,00*69
2017-12-01 14:37:35 1512157055.375119: $GPGGA,193736,3946.9592,N,08404.9870,W,2,12,1.00,293.42,M,-33.324,M,,*7F
2017-12-01 14:37:35 1512157055.375185: $GPRMC,193736,A,3946.9592,N,08404.9870,W,0.0000,0.000,011217,,*33
2017-12-01 14:37:35 1512157055.375273: $GPGSA,A,3,10,12,14,18,21,24,32,15,20,8,31,138,2.0,1.0,1.5*39
2017-12-01 14:37:36 1512157056.675802: $GPGSV,3,1,12,10,74,340,47,12,13,102,30,14,33,258,42,18,66,105,46*7C
2017-12-01 14:37:36 1512157056.675985: $GPGSV,3,2,12,21,23,178,43,24,40,054,48,32,50,273,44,15,07,069,22*71
2017-12-01 14:37:36 1512157056.676051: $GPGSV,3,3,12,20,04,121,24,08,04,289,36,31,04,204,34,138,38,213,47*47
2017-12-01 14:37:36 1512157056.789236: $GPZDA,193737.00,01,12,2017,00,00*68
2017-12-01 14:37:36 1512157056.789396: $GPGGA,193737,3946.9592,N,08404.9870,W,2,12,1.00,293.42,M,-33.324,M,,*7E
2017-12-01 14:37:36 1512157056.789462: $GPRMC,193737,A,3946.9592,N,08404.9870,W,0.0000,0.000,011217,,*32
2017-12-01 14:37:36 1512157056.789523: $GPGSA,A,3,10,12,14,18,21,24,32,15,20,8,31,138,2.0,1.0,1.5*39
2017-12-01 14:37:37 1512157057.367664: $GPZDA,193738.00,01,12,2017,00,00*67
2017-12-01 14:37:37 1512157057.367831: $GPGGA,193738,3946.9592,N,08404.9870,W,2,12,1.00,293.42,M,-33.324,M,,*71
2017-12-01 14:37:37 1512157057.367898: $GPRMC,193738,A,3946.9592,N,08404.9870,W,0.0000,0.000,011217,,*3D
2017-12-01 14:37:37 1512157057.367960: $GPGSA,A,3,10,12,14,18,21,24,32,15,20,8,31,138,2.0,1.0,1.5*39
2017-12-01 14:37:38 1512157058.332783: $GPZDA,193739.00,01,12,2017,00,00*66
2017-12-01 14:37:38 1512157058.332924: $GPGGA,193739,3946.9592,N,08404.9870,W,2,12,1.00,293.42,M,-33.324,M,,*70
2017-12-01 14:37:38 1512157058.332991: $GPRMC,193739,A,3946.9592,N,08404.9870,W,0.0000,0.000,011217,,*3C
2017-12-01 14:37:38 1512157058.333052: $GPGSA,A,3,10,12,14,18,21,24,32,15,20,8,31,138,2.0,1.0,1.5*39
2017-12-01 14:37:39 1512157059.712551: $GPGSV,3,1,12,10,74,340,46,12,13,102,29,14,33,258,42,18,66,105,46*75
2017-12-01 14:37:39 1512157059.712716: $GPGSV,3,2,12,21,23,178,43,24,40,054,49,32,50,273,44,15,07,069,22*70
2017-12-01 14:37:39 1512157059.712783: $GPGSV,3,3,12,20,04,121,24,08,04,289,32,31,04,204,33,138,38,213,47*44
2017-12-01 14:37:39 1512157059.825922: $GPZDA,193740.00,01,12,2017,00,00*68
2017-12-01 14:37:39 1512157059.826118: $GPGGA,193740,3946.9592,N,08404.9870,W,2,12,1.00,293.42,M,-33.324,M,,*7E
2017-12-01 14:37:39 1512157059.826185: $GPRMC,193740,A,3946.9592,N,08404.9870,W,0.0000,0.000,011217,,*32
2017-12-01 14:37:39 1512157059.826267: $GPGSA,A,3,10,12,14,18,21,24,32,15,20,8,31,138,2.0,1.0,1.5*39
2017-12-01 14:37:40 1512157060.339775: $GPZDA,193741.00,01,12,2017,00,00*69
2017-12-01 14:37:40 1512157060.339944: $GPGGA,193741,3946.9596,N,08404.9870,W,2,12,1.00,294.06,M,-33.324,M,,*7C
2017-12-01 14:37:40 1512157060.340010: $GPRMC,193741,A,3946.9596,N,08404.9870,W,0.0000,0.000,011217,,*37
2017-12-01 14:37:40 1512157060.340071: $GPGSA,A,3,10,12,14,18,21,24,32,15,20,8,31,138,2.0,1.0,1.5*39
2017-12-01 14:37:41 1512157061.340526: $GPZDA,193742.00,01,12,2017,00,00*6A
2017-12-01 14:37:41 1512157061.340693: $GPGGA,193742,3946.9596,N,08404.9870,W,2,12,1.00,294.06,M,-33.324,M,,*7F
2017-12-01 14:37:41 1512157061.340759: $GPRMC,193742,A,3946.9596,N,08404.9870,W,0.0000,0.000,011217,,*34
2017-12-01 14:37:41 1512157061.340820: $GPGSA,A,3,10,12,14,18,21,24,32,15,20,8,31,138,2.0,1.0,1.5*39
