2017-11-15 19:51:11 1510793471.794629: {"class":"VERSION","release":"3.17","rev":"3.17","proto_major":3,"proto_minor":12}
2017-11-15 19:51:11 1510793471.795081: {"class":"DEVICES","devices":[{"class":"DEVICE","path":"/dev/ttyUSB0","driver":"SiRF","subtype":"9\u0006GSD4e_4.1.2-P1_RPATCH.05-F-GPS-4R-1510281 11/03/2015 307","activated":"2017-11-16T00:51:11.470Z","flags":1,"native":1,"bps":4800,"parity":"N","stopbits":1,"cycle":1.00}]}
2017-11-15 19:51:11 1510793471.795204: {"class":"WATCH","enable":true,"json":false,"nmea":true,"raw":0,"scaled":false,"timing":false,"split24":false,"pps":false}
2017-11-15 19:51:12 1510793472.666125: $GPGSV,3,1,10,32,28,115,20,16,33,190,17,31,59,039,24,26,64,166,28*70
2017-11-15 19:51:12 1510793472.666311: $GPGSV,3,2,10,14,47,105,24,22,49,255,19,29,13,061,00,23,19,304,17*7C
2017-11-15 19:51:12 1510793472.666370: $GPGSV,3,3,10,03,44,288,09,25,09,037,00*7A
2017-11-15 19:51:12 1510793472.779382: $GPZDA,005111.00,16,11,2017,00,00*61
2017-11-15 19:51:12 1510793472.779541: $GPGGA,005111,3946.9518,N,08404.9554,W,1,08,1.00,297.30,M,-33.324,M,,*72
2017-11-15 19:51:12 1510793472.779603: $GPRMC,005111,A,3946.9518,N,08404.9554,W,0.9066,309.458,161117,,*38
2017-11-15 19:51:12 1510793472.779658: $GPGSA,A,3,32,16,31,26,14,22,23,3,,,,,3.4,1.0,2.9*08
2017-11-15 19:51:13 1510793473.346476: $GPZDA,005112.00,16,11,2017,00,00*62
2017-11-15 19:51:13 1510793473.346641: $GPGGA,005112,3946.9526,N,08404.9554,W,1,08,1.00,297.17,M,-33.324,M,,*79
2017-11-15 19:51:13 1510793473.346701: $GPRMC,005112,A,3946.9526,N,08404.9554,W,1.0002,334.331,161117,,*3A
2017-11-15 19:51:13 1510793473.346816: $GPGSA,A,3,32,16,31,26,14,22,23,3,,,,,3.4,1.0,2.9*08
2017-11-15 19:51:14 1510793474.346090: $GPZDA,005113.00,16,11,2017,00,00*63
2017-11-15 19:51:14 1510793474.346254: $GPGGA,005113,3946.9526,N,08404.9561,W,1,08,1.00,297.10,M,-33.324,M,,*79
2017-11-15 19:51:14 1510793474.346314: $GPRMC,005113,A,3946.9526,N,08404.9561,W,1.0269,4.197,161117,,*3C
2017-11-15 19:51:14 1510793474.346369: $GPGSA,A,3,32,16,31,26,14,22,23,3,,,,,3.4,1.0,2.9*08
2017-11-15 19:51:15 1510793475.681851: $GPGSV,3,1,10,32,28,115,20,16,33,190,18,31,59,039,24,26,64,166,28*7F
2017-11-15 19:51:15 1510793475.682007: $GPGSV,3,2,10,14,47,105,24,22,49,255,18,29,13,061,00,23,19,304,17*7D
2017-11-15 19:51:15 1510793475.682067: $GPGSV,3,3,10,03,44,288,06,25,09,037,00*75
2017-11-15 19:51:15 1510793475.795207: $GPZDA,005114.00,16,11,2017,00,00*64
2017-11-15 19:51:15 1510793475.795370: $GPGGA,005114,3946.9526,N,08404.9561,W,1,07,1.00,297.10,M,-33.324,M,,*71
2017-11-15 19:51:15 1510793475.795430: $GPRMC,005114,A,3946.9526,N,08404.9561,W,1.2361,14.852,161117,,*01
2017-11-15 19:51:15 1510793475.795485: $GPGSA,A,3,32,16,31,26,14,22,23,,,,,,3.4,1.0,2.9*3B
2017-11-15 19:51:16 1510793476.420583: $GPZDA,005115.00,16,11,2017,00,00*65
2017-11-15 19:51:16 1510793476.420746: $GPGGA,005115,3946.9530,N,08404.9560,W,1,07,1.00,296.33,M,-33.324,M,,*76
2017-11-15 19:51:16 1510793476.420807: $GPRMC,005115,A,3946.9530,N,08404.9560,W,0.9060,347.792,161117,,*38
2017-11-15 19:51:16 1510793476.420862: $GPGSA,A,3,32,16,31,26,14,22,23,,,,,,3.4,1.0,2.9*3B
2017-11-15 19:51:17 1510793477.330564: $GPZDA,005116.00,16,11,2017,00,00*66
2017-11-15 19:51:17 1510793477.330724: $GPGGA,005116,3946.9534,N,08404.9560,W,1,07,1.00,296.97,M,-33.324,M,,*7F
2017-11-15 19:51:17 1510793477.330785: $GPRMC,005116,A,3946.9534,N,08404.9560,W,1.2381,352.270,161117,,*34
2017-11-15 19:51:17 1510793477.330840: $GPGSA,A,3,32,16,31,26,14,22,23,,,,,,3.4,1.0,2.9*3B
2017-11-15 19:51:18 1510793478.681044: $GPGSV,3,1,10,32,28,115,20,16,33,190,18,31,59,039,24,26,64,166,28*7F
2017-11-15 19:51:18 1510793478.681190: $GPGSV,3,2,10,14,47,105,24,22,49,255,18,29,13,061,00,23,19,304,17*7D
2017-11-15 19:51:18 1510793478.681248: $GPGSV,3,3,10,03,44,288,04,25,09,037,00*77
2017-11-15 19:51:18 1510793478.794716: $GPZDA,005117.00,16,11,2017,00,00*67
2017-11-15 19:51:18 1510793478.794884: $GPGGA,005117,3946.9534,N,08404.9560,W,1,07,1.00,296.97,M,-33.324,M,,*7E
2017-11-15 19:51:18 1510793478.794944: $GPRMC,005117,A,3946.9534,N,08404.9560,W,0.9060,347.792,161117,,*3E
2017-11-15 19:51:18 1510793478.795056: $GPGSA,A,3,32,16,31,26,14,22,23,,,,,,3.4,1.0,2.9*3B
2017-11-15 19:51:19 1510793479.329266: $GPZDA,005118.00,16,11,2017,00,00*68
2017-11-15 19:51:19 1510793479.329427: $GPGGA,005118,3946.9534,N,08404.9567,W,1,07,1.00,296.89,M,-33.324,M,,*79
2017-11-15 19:51:19 1510793479.329488: $GPRMC,005118,A,3946.9534,N,08404.9567,W,0.8359,328.778,161117,,*33
2017-11-15 19:51:19 1510793479.329543: $GPGSA,A,3,32,16,31,26,14,22,23,,,,,,3.4,1.0,2.9*3B
2017-11-15 19:51:20 1510793480.330150: $GPZDA,005119.00,16,11,2017,00,00*69
2017-11-15 19:51:20 1510793480.330312: $GPGGA,005119,3946.9534,N,08404.9567,W,1,07,1.00,296.89,M,-33.324,M,,*78
2017-11-15 19:51:20 1510793480.330373: $GPRMC,005119,A,3946.9534,N,08404.9567,W,0.9066,309.458,161117,,*3E
2017-11-15 19:51:20 1510793480.330429: $GPGSA,A,3,32,16,31,26,14,22,23,,,,,,3.4,1.0,2.9*3B
2017-11-15 19:51:21 1510793481.666386: $GPGSV,3,1,10,32,28,115,20,16,33,190,18,31,59,039,24,26,64,166,28*7F
2017-11-15 19:51:21 1510793481.666564: $GPGSV,3,2,10,14,47,105,24,22,49,255,17,29,13,061,00,23,19,304,17*72
2017-11-15 19:51:21 1510793481.666628: $GPGSV,3,3,10,03,44,288,04,25,09,037,00*77
2017-11-15 19:51:21 1510793481.779778: $GPZDA,005120.00,16,11,2017,00,00*63
2017-11-15 19:51:21 1510793481.779929: $GPGGA,005120,3946.9534,N,08404.9574,W,1,07,1.00,296.81,M,-33.324,M,,*78
2017-11-15 19:51:21 1510793481.779992: $GPRMC,005120,A,3946.9534,N,08404.9574,W,0.7267,273.794,161117,,*34
2017-11-15 19:51:21 1510793481.780050: $GPGSA,A,3,32,16,31,26,14,22,23,,,,,,3.4,1.0,2.9*3B
