2017-12-01 17:45:03 1512168303.316784: {"class":"VERSION","release":"3.16","rev":"3.16-4","proto_major":3,"proto_minor":11}
2017-12-01 17:45:03 1512168303.317228: {"class":"DEVICES","devices":[{"class":"DEVICE","path":"/dev/ttyUSB0","driver":"SiRF","subtype":"9\u0006GSD4e_4.1.2-P1_RPATCH.05-F-GPS-4R-1510281 11/03/2015 307","activated":"2017-12-01T22:45:03.287Z","flags":1,"native":1,"bps":4800,"parity":"N","stopbits":1,"cycle":1.00}]}
2017-12-01 17:45:03 1512168303.317364: {"class":"WATCH","enable":true,"json":false,"nmea":true,"raw":0,"scaled":false,"timing":false,"split24":false,"pps":false}
2017-12-01 17:45:04 1512168304.142495: $GPZDA,224504.38,01,12,2017,00,00*6E
2017-12-01 17:45:04 1512168304.142667: $GPGGA,224504,3946.9715,N,08404.9846,W,1,12,0.80,295.80,M,-33.325,M,,*78
2017-12-01 17:45:04 1512168304.142735: $GPRMC,224504,A,3946.9715,N,08404.9846,W,0.0407,142.013,011217,,*31
2017-12-01 17:45:04 1512168304.142797: $GPGSA,A,3,1,3,10,14,22,25,26,29,31,32,16,138,2.0,0.8,1.5*0C
2017-12-01 17:45:04 1512168304.142857: $GPGBS,224504,10.70,M,15.43,M,35.28,M*02
2017-12-01 17:45:05 1512168305.307437: $GPGSV,3,1,12,01,15,267,25,03,28,312,28,10,13,157,26,14,66,061,25*7B
2017-12-01 17:45:05 1512168305.307628: $GPGSV,3,2,12,22,45,295,28,25,31,049,26,26,35,177,26,31,79,333,27*7F
2017-12-01 17:45:05 1512168305.307694: $GPGSV,3,3,12,32,49,090,27,16,06,190,00,29,03,087,00,138,38,213,00*45
2017-12-01 17:45:05 1512168305.420861: $GPZDA,224505.00,01,12,2017,00,00*64
2017-12-01 17:45:05 1512168305.421036: $GPGGA,224505,3946.9715,N,08404.9846,W,1,09,0.80,295.80,M,-33.325,M,,*73
2017-12-01 17:45:05 1512168305.421104: $GPRMC,224505,A,3946.9715,N,08404.9846,W,0.2710,100.223,011217,,*30
2017-12-01 17:45:05 1512168305.421165: $GPGSA,A,3,1,3,10,14,22,25,26,31,32,,,,2.0,0.8,1.5*3A
2017-12-01 17:45:05 1512168305.872985: $GPZDA,224506.00,01,12,2017,00,00*67
2017-12-01 17:45:05 1512168305.873158: $GPGGA,224506,3946.9719,N,08404.9846,W,1,09,0.80,296.44,M,-33.325,M,,*77
2017-12-01 17:45:05 1512168305.873228: $GPRMC,224506,A,3946.9719,N,08404.9846,W,0.0407,142.013,011217,,*3F
2017-12-01 17:45:05 1512168305.873290: $GPGSA,A,3,1,3,10,14,22,25,26,31,32,,,,2.0,0.8,1.5*3A
2017-12-01 17:45:06 1512168306.430051: $GPZDA,224507.00,01,12,2017,00,00*66
2017-12-01 17:45:06 1512168306.430214: $GPGGA,224507,3946.9722,N,08404.9846,W,1,09,0.80,295.68,M,-33.325,M,,*73
2017-12-01 17:45:06 1512168306.430281: $GPRMC,224507,A,3946.9722,N,08404.9846,W,0.0407,142.013,011217,,*36
2017-12-01 17:45:06 1512168306.430347: $GPGSA,A,3,1,3,10,14,22,25,26,31,32,,,,2.0,0.8,1.5*3A
2017-12-01 17:45:07 1512168307.765283: $GPGSV,3,1,12,01,15,267,42,03,28,312,46,10,13,157,44,14,66,061,41*74
2017-12-01 17:45:07 1512168307.765475: $GPGSV,3,2,12,22,45,295,47,25,31,049,42,26,35,177,44,31,79,333,45*74
2017-12-01 17:45:07 1512168307.765544: $GPGSV,3,3,12,32,49,090,45,16,06,190,28,29,03,087,30,138,38,213,29*43
2017-12-01 17:45:07 1512168307.878581: $GPZDA,224508.00,01,12,2017,00,00*69
2017-12-01 17:45:07 1512168307.878724: $GPGGA,224508,3946.9722,N,08404.9839,W,1,12,0.80,295.76,M,-33.325,M,,*71
2017-12-01 17:45:07 1512168307.878791: $GPRMC,224508,A,3946.9722,N,08404.9839,W,0.0000,0.000,011217,,*37
2017-12-01 17:45:07 1512168307.878852: $GPGSA,A,3,1,3,10,14,22,25,26,31,32,16,29,138,2.0,0.8,1.5*0C
2017-12-01 17:45:08 1512168308.429588: $GPZDA,224509.00,01,12,2017,00,00*68
2017-12-01 17:45:08 1512168308.429784: $GPGGA,224509,3946.9725,N,08404.9838,W,1,12,0.80,294.99,M,-33.325,M,,*76
2017-12-01 17:45:08 1512168308.429874: $GPRMC,224509,A,3946.9725,N,08404.9838,W,0.0000,0.000,011217,,*30
2017-12-01 17:45:08 1512168308.429940: $GPGSA,A,3,1,3,10,14,22,25,26,31,32,16,29,138,2.0,0.8,1.5*0C
2017-12-01 17:45:09 1512168309.430267: $GPZDA,224510.00,01,12,2017,00,00*60
2017-12-01 17:45:09 1512168309.430453: $GPGGA,224510,3946.9725,N,08404.9838,W,1,12,0.80,294.99,M,-33.325,M,,*7E
2017-12-01 17:45:09 1512168309.430522: $GPRMC,224510,A,3946.9725,N,08404.9838,W,0.0000,0.000,011217,,*38
2017-12-01 17:45:09 1512168309.430584: $GPGSA,A,3,1,3,10,14,22,25,26,31,32,16,29,138,2.0,0.8,1.5*0C
2017-12-01 17:45:09 1512168309.430696: $GPGBS,224510,10.70,M,15.43,M,35.28,M*07
2017-12-01 17:45:10 1512168310.766047: $GPGSV,3,1,12,01,15,267,42,03,28,312,46,10,13,157,44,14,66,061,40*75
2017-12-01 17:45:10 1512168310.766248: $GPGSV,3,2,12,22,45,295,47,25,31,049,42,26,35,177,45,31,79,333,45*75
2017-12-01 17:45:10 1512168310.766320: $GPGSV,3,3,12,32,49,090,45,16,06,190,29,29,03,087,30,138,38,213,46*4B
2017-12-01 17:45:10 1512168310.879469: $GPZDA,224511.00,01,12,2017,00,00*61
2017-12-01 17:45:10 1512168310.879641: $GPGGA,224511,3946.9725,N,08404.9838,W,1,12,0.80,294.99,M,-33.325,M,,*7F
2017-12-01 17:45:10 1512168310.879706: $GPRMC,224511,A,3946.9725,N,08404.9838,W,0.0000,0.000,011217,,*39
2017-12-01 17:45:10 1512168310.879769: $GPGSA,A,3,1,3,10,14,22,25,26,31,32,16,29,138,2.0,0.8,1.5*0C
2017-12-01 17:45:11 1512168311.429072: $GPZDA,224512.00,01,12,2017,00,00*62
2017-12-01 17:45:11 1512168311.429246: $GPGGA,224512,3946.9725,N,08404.9838,W,1,12,0.80,294.99,M,-33.325,M,,*7C
2017-12-01 17:45:11 1512168311.429314: $GPRMC,224512,A,3946.9725,N,08404.9838,W,0.0000,0.000,011217,,*3A
2017-12-01 17:45:11 1512168311.429379: $GPGSA,A,3,1,3,10,14,22,25,26,31,32,16,29,138,2.0,0.8,1.5*0C
2017-12-01 17:45:12 1512168312.431916: $GPZDA,224513.00,01,12,2017,00,00*63
2017-12-01 17:45:12 1512168312.432074: $GPGGA,224513,3946.9725,N,08404.9838,W,1,12,0.80,294.99,M,-33.325,M,,*7D
2017-12-01 17:45:12 1512168312.432140: $GPRMC,224513,A,3946.9725,N,08404.9838,W,0.0000,0.000,011217,,*3B
2017-12-01 17:45:12 1512168312.432200: $GPGSA,A,3,1,3,10,14,22,25,26,31,32,16,29,138,2.0,0.8,1.5*0C
2017-12-01 17:45:13 1512168313.766440: $GPGSV,3,1,12,01,15,267,42,03,28,312,46,10,13,157,44,14,66,061,40*75
2017-12-01 17:45:14 1512168314.658402: $GPGSV,3,2,12,22,45,295,48,25,31,049,42,26,35,177,45,31,79,333,46*79
2017-12-01 17:45:14 1512168314.658573: $GPGSV,3,3,12,32,49,090,45,16,06,190,29,29,03,087,30,138,38,213,45*48
2017-12-01 17:45:14 1512168314.658679: $GPZDA,224514.00,01,12,2017,00,00*64
2017-12-01 17:45:14 1512168314.658737: $GPGGA,224514,3946.9729,N,08404.9837,W,1,12,0.80,294.23,M,-33.325,M,,*78
2017-12-01 17:45:14 1512168314.658800: $GPRMC,224514,A,3946.9729,N,08404.9837,W,0.0000,0.000,011217,,*3F
2017-12-01 17:45:14 1512168314.658859: $GPGSA,A,3,1,3,10,14,22,25,26,31,32,16,29,138,2.0,0.8,1.5*0C
2017-12-01 17:45:14 1512168314.658917: $GPZDA,224515.00,01,12,2017,00,00*65
2017-12-01 17:45:14 1512168314.658971: $GPGGA,224515,3946.9733,N,08404.9837,W,1,12,0.80,294.87,M,-33.325,M,,*7C
2017-12-01 17:45:14 1512168314.659031: $GPRMC,224515,A,3946.9733,N,08404.9837,W,0.0000,0.000,011217,,*35
2017-12-01 17:45:14 1512168314.659090: $GPGSA,A,3,1,3,10,14,22,25,26,31,32,16,29,138,2.0,0.8,1.5*0C
2017-12-01 17:45:15 1512168315.430199: $GPZDA,224516.00,01,12,2017,00,00*66
2017-12-01 17:45:15 1512168315.430370: $GPGGA,224516,3946.9733,N,08404.9830,W,1,12,0.80,294.95,M,-33.325,M,,*7B
2017-12-01 17:45:15 1512168315.430437: $GPRMC,224516,A,3946.9733,N,08404.9830,W,0.0000,0.000,011217,,*31
2017-12-01 17:45:15 1512168315.430498: $GPGSA,A,3,1,3,10,14,22,25,26,31,32,16,29,138,2.0,0.8,1.5*0C
2017-12-01 17:45:16 1512168316.767173: $GPGSV,3,1,12,01,15,267,42,03,28,312,45,10,13,157,44,14,66,061,41*77
2017-12-01 17:45:16 1512168316.767362: $GPGSV,3,2,12,22,45,295,47,25,31,049,42,26,35,177,45,31,79,333,46*76
2017-12-01 17:45:16 1512168316.767430: $GPGSV,3,3,12,32,49,090,45,16,06,190,29,29,03,087,30,138,38,213,46*4B
2017-12-01 17:45:16 1512168316.880587: $GPZDA,224517.00,01,12,2017,00,00*67
2017-12-01 17:45:16 1512168316.880722: $GPGGA,224517,3946.9740,N,08404.9829,W,2,12,2.00,293.42,M,-33.325,M,,*72
2017-12-01 17:45:16 1512168316.880787: $GPRMC,224517,A,3946.9740,N,08404.9829,W,0.0000,0.000,011217,,*3C
2017-12-01 17:45:16 1512168316.880847: $GPGSA,A,3,1,3,10,14,22,25,26,31,32,16,29,138,2.0,2.0,1.5*06
2017-12-01 17:45:17 1512168317.506039: $GPZDA,224518.00,01,12,2017,00,00*68
2017-12-01 17:45:17 1512168317.506212: $GPGGA,224518,3946.9740,N,08404.9829,W,2,12,0.80,293.42,M,-33.325,M,,*77
2017-12-01 17:45:17 1512168317.506278: $GPRMC,224518,A,3946.9740,N,08404.9829,W,0.0000,0.000,011217,,*33
2017-12-01 17:45:17 1512168317.506387: $GPGSA,A,3,1,3,10,14,22,25,26,31,32,16,29,138,2.0,0.8,1.5*0C
2017-12-01 17:45:18 1512168318.431788: $GPZDA,224519.00,01,12,2017,00,00*69
2017-12-01 17:45:18 1512168318.431961: $GPGGA,224519,3946.9733,N,08404.9837,W,2,12,0.80,294.87,M,-33.325,M,,*73
2017-12-01 17:45:18 1512168318.432027: $GPRMC,224519,A,3946.9733,N,08404.9837,W,0.0000,0.000,011217,,*39
2017-12-01 17:45:18 1512168318.432089: $GPGSA,A,3,1,3,10,14,22,25,26,31,32,16,29,138,2.0,0.8,1.5*0C
2017-12-01 17:45:19 1512168319.767752: $GPGSV,3,1,12,01,15,267,42,03,28,312,45,10,13,157,44,14,66,061,41*77
2017-12-01 17:45:19 1512168319.767930: $GPGSV,3,2,12,22,45,295,47,25,31,049,42,26,35,177,45,31,79,333,46*76
2017-12-01 17:45:19 1512168319.767997: $GPGSV,3,3,12,32,49,090,45,16,06,190,29,29,03,087,30,138,38,213,46*4B
2017-12-01 17:45:19 1512168319.880907: $GPZDA,224520.00,01,12,2017,00,00*63
2017-12-01 17:45:19 1512168319.881076: $GPGGA,224520,3946.9733,N,08404.9837,W,2,12,0.80,294.87,M,-33.325,M,,*79
2017-12-01 17:45:19 1512168319.881144: $GPRMC,224520,A,3946.9733,N,08404.9837,W,0.0000,0.000,011217,,*33
2017-12-01 17:45:19 1512168319.881205: $GPGSA,A,3,1,3,10,14,22,25,26,31,32,16,29,138,2.0,0.8,1.5*0C
2017-12-01 17:45:20 1512168320.432977: $GPZDA,224521.00,01,12,2017,00,00*62
2017-12-01 17:45:20 1512168320.433157: $GPGGA,224521,3946.9733,N,08404.9837,W,2,12,0.80,294.87,M,-33.325,M,,*78
2017-12-01 17:45:20 1512168320.433224: $GPRMC,224521,A,3946.9733,N,08404.9837,W,0.0000,0.000,011217,,*32
2017-12-01 17:45:20 1512168320.433286: $GPGSA,A,3,1,3,10,14,22,25,26,31,32,16,29,138,2.0,0.8,1.5*0C
2017-12-01 17:45:21 1512168321.432589: $GPZDA,224522.00,01,12,2017,00,00*61
2017-12-01 17:45:21 1512168321.432767: $GPGGA,224522,3946.9733,N,08404.9837,W,2,12,0.80,294.87,M,-33.325,M,,*7B
2017-12-01 17:45:21 1512168321.432834: $GPRMC,224522,A,3946.9733,N,08404.9837,W,0.0000,0.000,011217,,*31
2017-12-01 17:45:21 1512168321.432895: $GPGSA,A,3,1,3,10,14,22,25,26,31,32,16,29,138,2.0,0.8,1.5*0C
2017-12-01 17:45:21 1512168321.432954: $GPGBS,224522,2.67,M,3.86,M,8.82,M*33
2017-12-01 17:45:22 1512168322.767682: $GPGSV,3,1,12,01,15,267,42,03,28,312,45,10,13,157,43,14,66,061,40*71
2017-12-01 17:45:22 1512168322.767863: $GPGSV,3,2,12,22,45,295,48,25,31,049,41,26,35,177,45,31,79,333,46*7A
2017-12-01 17:45:22 1512168322.767931: $GPGSV,3,3,12,32,49,090,45,16,06,190,30,29,03,087,30,138,38,213,46*43
2017-12-01 17:45:22 1512168322.881011: $GPZDA,224523.00,01,12,2017,00,00*60
2017-12-01 17:45:22 1512168322.881148: $GPGGA,224523,3946.9733,N,08404.9837,W,2,12,0.80,294.87,M,-33.325,M,,*7A
2017-12-01 17:45:22 1512168322.881214: $GPRMC,224523,A,3946.9733,N,08404.9837,W,0.0000,0.000,011217,,*30
2017-12-01 17:45:22 1512168322.881275: $GPGSA,A,3,1,3,10,14,22,25,26,31,32,16,29,138,2.0,0.8,1.5*0C
