2017-12-14 12:13:57 1513271637.642323: {"class":"VERSION","release":"3.16","rev":"3.16-4","proto_major":3,"proto_minor":11}
2017-12-14 12:13:57 1513271637.642712: {"class":"DEVICES","devices":[{"class":"DEVICE","path":"/dev/ttyUSB0","driver":"SiRF","subtype":"9\u0006GSD4e_4.1.2-P1_RPATCH.05-F-GPS-4R-1510281 11/03/2015 307","activated":"2017-12-14T17:13:57.364Z","flags":1,"native":1,"bps":4800,"parity":"N","stopbits":1,"cycle":1.00}]}
2017-12-14 12:13:57 1513271637.642829: {"class":"WATCH","enable":true,"json":false,"nmea":true,"raw":0,"scaled":false,"timing":false,"split24":false,"pps":false}
2017-12-14 12:13:58 1513271638.654706: $GPRMC,171359,V,18000.0000,N,00000.0000,W,0.0000,0.000,141217,,*19
2017-12-14 12:13:58 1513271638.654876: $GPGSA,A,1,10,15,18,20,24,32,21,27,,,,,,,,*3D
2017-12-14 12:13:59 1513271639.622286: $GPZDA,171400.25,14,12,2017,00,00*60
2017-12-14 12:13:59 1513271639.622444: $GPGGA,171400,3946.9555,N,08404.9497,W,1,08,1.40,389.12,M,-33.324,M,,*78
2017-12-14 12:13:59 1513271639.622511: $GPRMC,171400,A,3946.9555,N,08404.9497,W,1.8856,346.716,141217,,*30
2017-12-14 12:13:59 1513271639.622572: $GPGSA,A,3,10,15,18,20,24,32,21,27,,,,,6.6,1.4,6.2*3C
2017-12-14 12:13:59 1513271639.622628: $GPGBS,171400,24.66,M,21.80,M,143.40,M*32
2017-12-14 12:14:00 1513271640.365409: $GPGSV,3,1,12,24,50,114,32,10,40,300,04,18,70,333,03,20,35,094,04*7F
2017-12-14 12:14:00 1513271640.365563: $GPGSV,3,2,12,27,19,291,04,32,20,237,04,15,39,052,00,13,09,048,00*77
2017-12-14 12:14:00 1513271640.365627: $GPGSV,3,3,12,08,05,324,00,21,65,189,00,14,02,231,00,138,38,213,00*44
2017-12-14 12:14:00 1513271640.478889: $GPZDA,171400.34,14,12,2017,00,00*60
2017-12-14 12:14:00 1513271640.479078: $GPGGA,171400,3946.9549,N,08404.9505,W,1,06,1.40,390.57,M,-33.324,M,,*78
2017-12-14 12:14:00 1513271640.479160: $GPRMC,171400,A,3946.9549,N,08404.9505,W,1.4624,339.656,141217,,*3D
2017-12-14 12:14:00 1513271640.479223: $GPGSA,A,3,24,10,18,20,27,32,,,,,,,6.6,1.4,6.2*3B
2017-12-14 12:14:00 1513271640.733938: $GPZDA,171400.84,14,12,2017,00,00*6B
2017-12-14 12:14:00 1513271640.734117: $GPGGA,171400,3946.9552,N,08404.9504,W,1,06,1.40,389.81,M,-33.324,M,,*70
2017-12-14 12:14:00 1513271640.734201: $GPRMC,171400,A,3946.9552,N,08404.9504,W,2.8284,346.716,141217,,*3A
2017-12-14 12:14:00 1513271640.734264: $GPGSA,A,3,24,10,18,20,27,32,,,,,,,6.6,1.4,6.2*3B
2017-12-14 12:14:00 1513271640.987873: $GPZDA,171401.00,14,12,2017,00,00*66
2017-12-14 12:14:00 1513271640.988061: $GPGGA,171401,3946.9556,N,08404.9504,W,1,06,1.40,390.45,M,-33.324,M,,*75
2017-12-14 12:14:00 1513271640.988128: $GPRMC,171401,A,3946.9556,N,08404.9504,W,3.1600,333.702,141217,,*38
2017-12-14 12:14:00 1513271640.988207: $GPGSA,A,3,24,10,18,20,27,32,,,,,,,6.6,1.4,6.2*3B
2017-12-14 12:14:01 1513271641.752269: $GPGSV,3,1,12,24,50,114,33,10,40,300,20,18,70,333,16,20,35,094,21*7B
2017-12-14 12:14:01 1513271641.752444: $GPGSV,3,2,12,27,19,291,18,32,20,237,23,21,65,189,12,15,39,052,00*7B
2017-12-14 12:14:01 1513271641.752509: $GPGSV,3,3,12,13,09,048,00,08,05,324,00,14,02,231,00,138,38,213,00*43
2017-12-14 12:14:01 1513271641.865642: $GPZDA,171402.00,14,12,2017,00,00*65
2017-12-14 12:14:01 1513271641.865808: $GPGGA,171402,3946.9568,N,08404.9497,W,1,07,1.40,391.04,M,-33.324,M,,*75
2017-12-14 12:14:01 1513271641.865874: $GPRMC,171402,A,3946.9568,N,08404.9497,W,1.8745,337.245,141217,,*34
2017-12-14 12:14:01 1513271641.865934: $GPGSA,A,3,24,10,18,20,27,32,21,,,,,,6.6,1.4,6.2*38
2017-12-14 12:14:02 1513271642.175738: $GPZDA,171403.00,14,12,2017,00,00*64
2017-12-14 12:14:02 1513271642.175901: $GPGGA,171403,3946.9564,N,08404.9497,W,1,07,1.40,391.81,M,-33.324,M,,*75
2017-12-14 12:14:02 1513271642.175966: $GPRMC,171403,A,3946.9564,N,08404.9497,W,0.6383,287.546,141217,,*36
2017-12-14 12:14:02 1513271642.176047: $GPGSA,A,3,24,10,18,20,27,32,21,,,,,,6.6,1.4,6.2*38
2017-12-14 12:14:03 1513271643.179623: $GPZDA,171404.00,14,12,2017,00,00*63
2017-12-14 12:14:03 1513271643.179789: $GPGGA,171404,3946.9560,N,08404.9497,W,1,07,1.40,391.17,M,-33.324,M,,*79
2017-12-14 12:14:03 1513271643.179855: $GPRMC,171404,A,3946.9560,N,08404.9497,W,0.6213,249.941,141217,,*34
2017-12-14 12:14:03 1513271643.179968: $GPGSA,A,3,24,10,18,20,27,32,21,,,,,,6.6,1.4,6.2*38
2017-12-14 12:14:04 1513271644.513203: $GPGSV,3,1,12,24,50,114,33,10,40,300,21,14,02,231,10,20,35,094,21*76
2017-12-14 12:14:04 1513271644.513377: $GPGSV,3,2,12,27,19,291,18,32,20,237,23,21,65,189,21,18,70,333,00*7F
2017-12-14 12:14:04 1513271644.513443: $GPGSV,3,3,12,15,39,052,00,13,09,048,00,08,05,324,00,138,38,213,00*4D
2017-12-14 12:14:04 1513271644.626644: $GPZDA,171405.00,14,12,2017,00,00*62
2017-12-14 12:14:04 1513271644.626775: $GPGGA,171405,3946.9564,N,08404.9497,W,1,07,1.40,391.81,M,-33.324,M,,*73
2017-12-14 12:14:04 1513271644.626841: $GPRMC,171405,A,3946.9564,N,08404.9497,W,0.4356,313.339,141217,,*38
2017-12-14 12:14:04 1513271644.626902: $GPGSA,A,3,24,10,14,20,27,32,21,,,,,,6.6,1.4,6.2*34
2017-12-14 12:14:05 1513271645.177352: $GPZDA,171406.00,14,12,2017,00,00*61
2017-12-14 12:14:05 1513271645.177565: $GPGGA,171406,3946.9571,N,08404.9490,W,1,07,1.40,391.76,M,-33.324,M,,*7B
2017-12-14 12:14:05 1513271645.177679: $GPRMC,171406,A,3946.9571,N,08404.9490,W,0.5799,326.883,141217,,*32
2017-12-14 12:14:05 1513271645.177778: $GPGSA,A,3,24,10,14,20,27,32,21,,,,,,6.6,1.4,6.2*34
2017-12-14 12:14:06 1513271646.178923: $GPZDA,171407.00,14,12,2017,00,00*60
2017-12-14 12:14:06 1513271646.179108: $GPGGA,171407,3946.9568,N,08404.9491,W,1,07,1.40,392.53,M,-33.324,M,,*77
2017-12-14 12:14:06 1513271646.179192: $GPRMC,171407,A,3946.9568,N,08404.9491,W,0.1599,117.754,141217,,*39
2017-12-14 12:14:06 1513271646.179254: $GPGSA,A,3,24,10,14,20,27,32,21,,,,,,6.6,1.4,6.2*34
2017-12-14 12:14:07 1513271647.516342: $GPGSV,3,1,12,24,50,114,33,10,40,300,21,14,02,231,11,20,35,094,22*74
2017-12-14 12:14:07 1513271647.516521: $GPGSV,3,2,12,27,19,291,18,32,20,237,23,21,65,189,21,18,70,333,13*7D
2017-12-14 12:14:07 1513271647.516588: $GPGSV,3,3,12,15,39,052,00,13,09,048,00,08,05,324,00,138,38,213,00*4D
2017-12-14 12:14:07 1513271647.629830: $GPZDA,171408.00,14,12,2017,00,00*6F
2017-12-14 12:14:07 1513271647.630017: $GPGGA,171408,3946.9564,N,08404.9491,W,1,07,1.40,393.29,M,-33.324,M,,*78
2017-12-14 12:14:07 1513271647.630085: $GPRMC,171408,A,3946.9564,N,08404.9491,W,0.5777,170.899,141217,,*33
2017-12-14 12:14:07 1513271647.630163: $GPGSA,A,3,24,10,14,20,27,32,21,,,,,,6.6,1.4,6.2*34
2017-12-14 12:14:08 1513271648.179860: $GPZDA,171409.00,14,12,2017,00,00*6E
2017-12-14 12:14:08 1513271648.180054: $GPGGA,171409,3946.9564,N,08404.9491,W,1,07,1.40,393.29,M,-33.324,M,,*79
2017-12-14 12:14:08 1513271648.180140: $GPRMC,171409,A,3946.9564,N,08404.9491,W,0.5310,223.716,141217,,*3A
2017-12-14 12:14:08 1513271648.180203: $GPGSA,A,3,24,10,14,20,27,32,21,,,,,,6.6,1.4,6.2*34
2017-12-14 12:14:09 1513271649.179966: $GPZDA,171410.00,14,12,2017,00,00*66
2017-12-14 12:14:09 1513271649.180140: $GPGGA,171410,3946.9564,N,08404.9484,W,1,07,1.40,393.37,M,-33.324,M,,*7A
2017-12-14 12:14:09 1513271649.180208: $GPRMC,171410,A,3946.9564,N,08404.9484,W,0.5310,223.716,141217,,*36
2017-12-14 12:14:09 1513271649.180285: $GPGSA,A,3,24,10,14,20,27,32,21,,,,,,6.6,1.4,6.2*34
2017-12-14 12:14:10 1513271650.515021: $GPGSV,3,1,12,24,50,114,32,10,40,300,21,14,02,231,05,20,35,094,21*73
2017-12-14 12:14:10 1513271650.515236: $GPGSV,3,2,12,27,19,291,18,32,20,237,23,21,65,189,22,18,70,333,11*7C
2017-12-14 12:14:10 1513271650.515324: $GPGSV,3,3,12,15,39,052,00,13,09,048,00,08,05,324,00,138,38,213,00*4D
2017-12-14 12:14:10 1513271650.628350: $GPZDA,171411.00,14,12,2017,00,00*67
2017-12-14 12:14:10 1513271650.628525: $GPGGA,171411,3946.9564,N,08404.9484,W,1,07,1.40,393.37,M,-33.324,M,,*7B
2017-12-14 12:14:10 1513271650.628592: $GPRMC,171411,A,3946.9564,N,08404.9484,W,0.2648,202.232,141217,,*38
2017-12-14 12:14:10 1513271650.628653: $GPGSA,A,3,24,10,20,27,32,21,18,,,,,,6.6,1.4,6.2*38
2017-12-14 12:14:11 1513271651.177980: $GPZDA,171412.00,14,12,2017,00,00*64
2017-12-14 12:14:11 1513271651.178161: $GPGGA,171412,3946.9568,N,08404.9484,W,1,07,1.40,394.01,M,-33.324,M,,*76
2017-12-14 12:14:11 1513271651.178227: $GPRMC,171412,A,3946.9568,N,08404.9484,W,0.4356,313.339,141217,,*30
2017-12-14 12:14:11 1513271651.178341: $GPGSA,A,3,24,10,20,27,32,21,18,,,,,,6.6,1.4,6.2*38
2017-12-14 12:14:12 1513271652.178117: $GPZDA,171413.00,14,12,2017,00,00*65
2017-12-14 12:14:12 1513271652.178294: $GPGGA,171413,3946.9568,N,08404.9484,W,1,07,1.40,394.01,M,-33.324,M,,*77
2017-12-14 12:14:12 1513271652.178362: $GPRMC,171413,A,3946.9568,N,08404.9484,W,0.6378,17.482,141217,,*0F
2017-12-14 12:14:12 1513271652.178423: $GPGSA,A,3,24,10,20,27,32,21,18,,,,,,6.6,1.4,6.2*38
2017-12-14 12:14:13 1513271653.515547: $GPGSV,3,1,12,24,50,114,32,10,40,300,21,14,02,231,04,20,35,094,21*72
2017-12-14 12:14:13 1513271653.515727: $GPGSV,3,2,12,27,19,291,18,32,20,237,22,21,65,189,22,18,70,333,10*7C
2017-12-14 12:14:13 1513271653.515793: $GPGSV,3,3,12,15,39,052,00,13,09,048,00,08,05,324,00,138,38,213,00*4D
2017-12-14 12:14:13 1513271653.629272: $GPZDA,171414.00,14,12,2017,00,00*62
2017-12-14 12:14:13 1513271653.629440: $GPGGA,171414,3946.9571,N,08404.9477,W,1,07,1.40,393.33,M,-33.324,M,,*72
2017-12-14 12:14:13 1513271653.629507: $GPRMC,171414,A,3946.9571,N,08404.9477,W,0.4854,63.204,141217,,*00
2017-12-14 12:14:13 1513271653.629567: $GPGSA,A,3,24,10,20,27,32,21,18,,,,,,6.6,1.4,6.2*38
2017-12-14 12:14:14 1513271654.180359: $GPZDA,171415.00,14,12,2017,00,00*63
2017-12-14 12:14:14 1513271654.180534: $GPGGA,171415,3946.9571,N,08404.9477,W,1,07,1.40,393.33,M,-33.324,M,,*73
2017-12-14 12:14:14 1513271654.180601: $GPRMC,171415,A,3946.9571,N,08404.9477,W,0.1975,75.900,141217,,*0E
2017-12-14 12:14:14 1513271654.180662: $GPGSA,A,3,24,10,20,27,32,21,18,,,,,,6.6,1.4,6.2*38
2017-12-14 12:14:15 1513271655.179711: $GPZDA,171416.00,14,12,2017,00,00*60
2017-12-14 12:14:15 1513271655.179877: $GPGGA,171416,3946.9564,N,08404.9478,W,1,07,1.40,394.85,M,-33.324,M,,*71
2017-12-14 12:14:15 1513271655.179943: $GPRMC,171416,A,3946.9564,N,08404.9478,W,0.4697,162.470,141217,,*3D
2017-12-14 12:14:15 1513271655.180004: $GPGSA,A,3,24,10,20,27,32,21,18,,,,,,6.6,1.4,6.2*38
2017-12-14 12:14:16 1513271656.516444: $GPGSV,3,1,12,24,50,114,32,10,40,300,21,14,02,231,04,20,35,094,20*73
2017-12-14 12:14:16 1513271656.516616: $GPGSV,3,2,12,27,19,291,18,32,20,237,22,21,65,189,22,18,70,333,11*7D
2017-12-14 12:14:16 1513271656.516680: $GPGSV,3,3,12,15,39,052,00,13,09,048,00,08,05,324,00,138,38,213,00*4D
2017-12-14 12:14:16 1513271656.628250: $GPZDA,171417.00,14,12,2017,00,00*61
2017-12-14 12:14:16 1513271656.628412: $GPGGA,171417,3946.9561,N,08404.9479,W,1,07,1.40,395.62,M,-33.324,M,,*7C
2017-12-14 12:14:16 1513271656.628477: $GPRMC,171417,A,3946.9561,N,08404.9479,W,0.9510,221.785,141217,,*34
2017-12-14 12:14:16 1513271656.628538: $GPGSA,A,3,24,10,20,27,32,21,18,,,,,,6.6,1.4,6.2*38
2017-12-14 12:14:17 1513271657.180822: $GPZDA,171418.00,14,12,2017,00,00*6E
2017-12-14 12:14:17 1513271657.180996: $GPGGA,171418,3946.9558,N,08404.9479,W,1,07,1.40,396.38,M,-33.324,M,,*75
2017-12-14 12:14:17 1513271657.181063: $GPRMC,171418,A,3946.9558,N,08404.9479,W,0.6660,216.056,141217,,*37
2017-12-14 12:14:17 1513271657.181124: $GPGSA,A,3,24,10,20,27,32,21,18,,,,,,6.6,1.4,6.2*38
