2017-11-16 13:25:33 1510856733.436961: {"class":"VERSION","release":"3.17","rev":"3.17","proto_major":3,"proto_minor":12}
2017-11-16 13:25:33 1510856733.437431: {"class":"DEVICES","devices":[{"class":"DEVICE","path":"/dev/ttyUSB0","driver":"SiRF","subtype":"9\u0006GSD4e_4.1.2-P1_RPATCH.05-F-GPS-4R-1510281 11/03/2015 307","activated":"2017-11-16T18:25:33.164Z","flags":1,"native":1,"bps":4800,"parity":"N","stopbits":1,"cycle":1.00}]}
2017-11-16 13:25:33 1510856733.437555: {"class":"WATCH","enable":true,"json":false,"nmea":true,"raw":0,"scaled":false,"timing":false,"split24":false,"pps":false}
2017-11-16 13:25:33 1510856733.612605: $GPGSV,3,1,12,10,25,285,42,13,27,045,47,15,59,051,51,18,56,303,48*7C
2017-11-16 13:25:33 1510856733.612792: $GPGSV,3,2,12,20,49,075,48,21,78,259,47,24,35,136,42,27,17,310,43*7F
2017-11-16 13:25:33 1510856733.612858: $GPGSV,3,3,12,32,02,226,22,29,07,189,30,05,02,088,00,138,38,213,45*47
2017-11-16 13:25:33 1510856733.726113: $GPZDA,182532.00,16,11,2017,00,00*6A
2017-11-16 13:25:33 1510856733.726259: $GPGGA,182532,3946.9615,N,08404.9845,W,2,11,0.80,303.96,M,-33.324,M,,*78
2017-11-16 13:25:33 1510856733.726320: $GPRMC,182532,A,3946.9615,N,08404.9845,W,0.0000,0.000,161117,,*3A
2017-11-16 13:25:33 1510856733.726375: $GPGSA,A,3,10,13,15,18,20,21,24,27,32,29,138,,1.6,0.8,1.3*03
2017-11-16 13:25:34 1510856734.275856: $GPZDA,182533.00,16,11,2017,00,00*6B
2017-11-16 13:25:34 1510856734.276014: $GPGGA,182533,3946.9615,N,08404.9845,W,2,11,0.80,303.96,M,-33.324,M,,*79
2017-11-16 13:25:34 1510856734.276078: $GPRMC,182533,A,3946.9615,N,08404.9845,W,0.0000,0.000,161117,,*3B
2017-11-16 13:25:34 1510856734.276133: $GPGSA,A,3,10,13,15,18,20,21,24,27,32,29,138,,1.6,0.8,1.3*03
2017-11-16 13:25:35 1510856735.274913: $GPZDA,182534.00,16,11,2017,00,00*6C
2017-11-16 13:25:35 1510856735.275095: $GPGGA,182534,3946.9615,N,08404.9845,W,2,11,0.80,303.96,M,-33.324,M,,*7E
2017-11-16 13:25:35 1510856735.275160: $GPRMC,182534,A,3946.9615,N,08404.9845,W,0.0000,0.000,161117,,*3C
2017-11-16 13:25:35 1510856735.275220: $GPGSA,A,3,10,13,15,18,20,21,24,27,32,29,138,,1.6,0.8,1.3*03
2017-11-16 13:25:36 1510856736.610363: $GPGSV,3,1,12,10,25,285,42,13,27,045,47,15,59,051,51,18,56,303,47*73
2017-11-16 13:25:36 1510856736.610541: $GPGSV,3,2,12,20,49,075,48,21,78,259,47,24,35,136,41,27,17,310,42*7D
2017-11-16 13:25:36 1510856736.610608: $GPGSV,3,3,12,32,02,226,21,29,07,189,31,05,02,088,00,138,38,213,45*45
2017-11-16 13:25:36 1510856736.723641: $GPZDA,182535.00,16,11,2017,00,00*6D
2017-11-16 13:25:36 1510856736.723766: $GPGGA,182535,3946.9615,N,08404.9845,W,2,11,0.80,303.96,M,-33.324,M,,*7F
2017-11-16 13:25:36 1510856736.723826: $GPRMC,182535,A,3946.9615,N,08404.9845,W,0.0000,0.000,161117,,*3D
2017-11-16 13:25:36 1510856736.723881: $GPGSA,A,3,10,13,15,18,20,21,24,27,32,29,138,,1.6,0.8,1.3*03
2017-11-16 13:25:37 1510856737.272302: $GPZDA,182536.00,16,11,2017,00,00*6E
2017-11-16 13:25:37 1510856737.272468: $GPGGA,182536,3946.9615,N,08404.9845,W,2,11,0.80,303.96,M,-33.324,M,,*7C
2017-11-16 13:25:37 1510856737.272532: $GPRMC,182536,A,3946.9615,N,08404.9845,W,0.0000,0.000,161117,,*3E
2017-11-16 13:25:37 1510856737.272589: $GPGSA,A,3,10,13,15,18,20,21,24,27,32,29,138,,1.6,0.8,1.3*03
2017-11-16 13:25:38 1510856738.270694: $GPZDA,182537.00,16,11,2017,00,00*6F
2017-11-16 13:25:38 1510856738.270868: $GPGGA,182537,3946.9615,N,08404.9845,W,2,11,0.80,303.96,M,-33.324,M,,*7D
2017-11-16 13:25:38 1510856738.270933: $GPRMC,182537,A,3946.9615,N,08404.9845,W,0.0000,0.000,161117,,*3F
2017-11-16 13:25:38 1510856738.270993: $GPGSA,A,3,10,13,15,18,20,21,24,27,32,29,138,,1.6,0.8,1.3*03
2017-11-16 13:25:39 1510856739.611095: $GPGSV,3,1,12,10,25,285,43,13,27,045,46,15,59,051,50,18,56,303,47*72
2017-11-16 13:25:39 1510856739.611266: $GPGSV,3,2,12,20,49,075,48,21,78,259,47,24,35,136,41,27,17,310,41*7E
2017-11-16 13:25:39 1510856739.611334: $GPGSV,3,3,12,05,02,088,00,29,07,189,31,32,02,226,00,138,38,213,44*47
2017-11-16 13:25:39 1510856739.724713: $GPZDA,182538.00,16,11,2017,00,00*60
2017-11-16 13:25:39 1510856739.724873: $GPGGA,182538,3946.9615,N,08404.9845,W,2,10,0.80,303.96,M,-33.324,M,,*73
2017-11-16 13:25:39 1510856739.724989: $GPRMC,182538,A,3946.9615,N,08404.9845,W,0.0000,0.000,161117,,*30
2017-11-16 13:25:39 1510856739.725048: $GPGSA,A,3,10,13,15,18,20,21,24,27,29,138,,,1.6,0.8,1.3*02
2017-11-16 13:25:40 1510856740.349679: $GPZDA,182539.00,16,11,2017,00,00*61
2017-11-16 13:25:40 1510856740.349848: $GPGGA,182539,3946.9615,N,08404.9845,W,2,10,0.80,303.96,M,-33.324,M,,*72
2017-11-16 13:25:40 1510856740.349913: $GPRMC,182539,A,3946.9615,N,08404.9845,W,0.0000,0.000,161117,,*31
2017-11-16 13:25:40 1510856740.349969: $GPGSA,A,3,10,13,15,18,20,21,24,27,29,138,,,1.6,0.8,1.3*02
2017-11-16 13:25:41 1510856741.276923: $GPZDA,182540.00,16,11,2017,00,00*6F
2017-11-16 13:25:41 1510856741.277087: $GPGGA,182540,3946.9615,N,08404.9845,W,2,10,0.80,303.96,M,-33.324,M,,*7C
2017-11-16 13:25:41 1510856741.277149: $GPRMC,182540,A,3946.9615,N,08404.9845,W,0.0000,0.000,161117,,*3F
2017-11-16 13:25:41 1510856741.277207: $GPGSA,A,3,10,13,15,18,20,21,24,27,29,138,,,1.6,0.8,1.3*02
2017-11-16 13:25:42 1510856742.611323: $GPGSV,3,1,12,10,25,285,42,13,27,045,46,15,59,051,51,18,56,303,47*72
2017-11-16 13:25:42 1510856742.611496: $GPGSV,3,2,12,20,49,075,48,21,78,259,47,24,35,136,41,27,17,310,41*7E
2017-11-16 13:25:42 1510856742.611558: $GPGSV,3,3,12,32,02,226,19,29,07,189,30,05,02,088,00,138,38,213,44*4E
2017-11-16 13:25:42 1510856742.725100: $GPZDA,182541.00,16,11,2017,00,00*6E
2017-11-16 13:25:42 1510856742.725269: $GPGGA,182541,3946.9615,N,08404.9845,W,2,11,0.80,303.96,M,-33.324,M,,*7C
2017-11-16 13:25:42 1510856742.725331: $GPRMC,182541,A,3946.9615,N,08404.9845,W,0.0000,0.000,161117,,*3E
2017-11-16 13:25:42 1510856742.725388: $GPGSA,A,3,10,13,15,18,20,21,24,27,32,29,138,,1.6,0.8,1.3*03
2017-11-16 13:25:43 1510856743.275623: $GPZDA,182542.00,16,11,2017,00,00*6D
2017-11-16 13:25:43 1510856743.275794: $GPGGA,182542,3946.9615,N,08404.9845,W,2,11,0.80,303.96,M,-33.324,M,,*7F
2017-11-16 13:25:43 1510856743.275856: $GPRMC,182542,A,3946.9615,N,08404.9845,W,0.0000,0.000,161117,,*3D
2017-11-16 13:25:43 1510856743.275912: $GPGSA,A,3,10,13,15,18,20,21,24,27,32,29,138,,1.6,0.8,1.3*03
2017-11-16 13:25:44 1510856744.291648: $GPZDA,182543.00,16,11,2017,00,00*6C
2017-11-16 13:25:44 1510856744.291811: $GPGGA,182543,3946.9615,N,08404.9845,W,2,11,0.80,303.96,M,-33.324,M,,*7E
2017-11-16 13:25:44 1510856744.291873: $GPRMC,182543,A,3946.9615,N,08404.9845,W,0.0000,0.000,161117,,*3C
2017-11-16 13:25:44 1510856744.291928: $GPGSA,A,3,10,13,15,18,20,21,24,27,32,29,138,,1.6,0.8,1.3*03
2017-11-16 13:25:45 1510856745.631782: $GPGSV,3,1,12,10,25,285,40,13,27,045,46,15,59,051,51,18,56,303,47*70
2017-11-16 13:25:45 1510856745.632706: $GPGSV,3,2,12,20,49,075,48,21,78,259,47,24,35,136,42,27,17,310,40*7C
2017-11-16 13:25:45 1510856745.632786: $GPGSV,3,3,12,32,02,226,17,29,07,189,31,05,02,088,00,138,38,213,45*40
2017-11-16 13:25:45 1510856745.743662: $GPZDA,182544.00,16,11,2017,00,00*6B
2017-11-16 13:25:45 1510856745.743839: $GPGGA,182544,3946.9615,N,08404.9845,W,2,11,0.80,303.96,M,-33.324,M,,*79
2017-11-16 13:25:45 1510856745.743901: $GPRMC,182544,A,3946.9615,N,08404.9845,W,0.0000,0.000,161117,,*3B
2017-11-16 13:25:45 1510856745.743957: $GPGSA,A,3,10,13,15,18,20,21,24,27,32,29,138,,1.6,0.8,1.3*03
2017-11-16 13:25:46 1510856746.274388: $GPZDA,182545.00,16,11,2017,00,00*6A
2017-11-16 13:25:46 1510856746.274548: $GPGGA,182545,3946.9615,N,08404.9845,W,2,11,0.80,303.96,M,-33.324,M,,*78
2017-11-16 13:25:46 1510856746.274611: $GPRMC,182545,A,3946.9615,N,08404.9845,W,0.0000,0.000,161117,,*3A
2017-11-16 13:25:46 1510856746.274667: $GPGSA,A,3,10,13,15,18,20,21,24,27,32,29,138,,1.6,0.8,1.3*03
2017-11-16 13:25:47 1510856747.273955: $GPZDA,182546.00,16,11,2017,00,00*69
2017-11-16 13:25:47 1510856747.274124: $GPGGA,182546,3946.9615,N,08404.9845,W,2,11,0.80,303.96,M,-33.324,M,,*7B
2017-11-16 13:25:47 1510856747.274186: $GPRMC,182546,A,3946.9615,N,08404.9845,W,0.0000,0.000,161117,,*39
2017-11-16 13:25:47 1510856747.274242: $GPGSA,A,3,10,13,15,18,20,21,24,27,32,29,138,,1.6,0.8,1.3*03
