2017-12-01 15:36:43 1512160603.645702: {"class":"VERSION","release":"3.16","rev":"3.16-4","proto_major":3,"proto_minor":11}
2017-12-01 15:36:43 1512160603.646057: {"class":"DEVICES","devices":[{"class":"DEVICE","path":"/dev/ttyUSB0","driver":"SiRF","subtype":"9\u0006GSD4e_4.1.2-P1_RPATCH.05-F-GPS-4R-1510281 11/03/2015 307","activated":"2017-12-01T20:36:43.567Z","flags":1,"native":1,"bps":4800,"parity":"N","stopbits":1,"cycle":1.00}]}
2017-12-01 15:36:43 1512160603.646229: {"class":"WATCH","enable":true,"json":false,"nmea":true,"raw":0,"scaled":false,"timing":false,"split24":false,"pps":false}
2017-12-01 15:36:44 1512160604.762243: $GPGSV,3,1,11,01,11,321,34,10,74,124,48,11,10,304,39,12,24,076,42*7A
2017-12-01 15:36:44 1512160604.762404: $GPGSV,3,2,11,14,52,286,43,18,41,132,45,24,18,045,40,25,27,118,46*7E
2017-12-01 15:36:44 1512160604.762470: $GPGSV,3,3,11,31,31,210,47,32,66,319,49,138,38,213,46*7D
2017-12-01 15:36:44 1512160604.874430: $GPZDA,203645.00,01,12,2017,00,00*66
2017-12-01 15:36:44 1512160604.874611: $GPGGA,203645,3946.9562,N,08404.9846,W,2,11,0.80,297.05,M,-33.324,M,,*77
2017-12-01 15:36:44 1512160604.874677: $GPRMC,203645,A,3946.9562,N,08404.9846,W,0.0000,0.000,011217,,*36
2017-12-01 15:36:44 1512160604.874737: $GPGSA,A,3,1,10,11,12,14,18,24,25,31,32,138,,2.0,0.8,1.5*3B
2017-12-01 15:36:45 1512160605.501444: $GPZDA,203646.00,01,12,2017,00,00*65
2017-12-01 15:36:45 1512160605.501617: $GPGGA,203646,3946.9562,N,08404.9846,W,2,11,0.80,297.05,M,-33.324,M,,*74
2017-12-01 15:36:45 1512160605.501687: $GPRMC,203646,A,3946.9562,N,08404.9846,W,0.0000,0.000,011217,,*35
2017-12-01 15:36:45 1512160605.501748: $GPGSA,A,3,1,10,11,12,14,18,24,25,31,32,138,,2.0,0.8,1.5*3B
2017-12-01 15:36:46 1512160606.424661: $GPZDA,203647.00,01,12,2017,00,00*64
2017-12-01 15:36:46 1512160606.424830: $GPGGA,203647,3946.9562,N,08404.9846,W,2,11,0.80,297.05,M,-33.324,M,,*75
2017-12-01 15:36:46 1512160606.424895: $GPRMC,203647,A,3946.9562,N,08404.9846,W,0.0000,0.000,011217,,*34
2017-12-01 15:36:46 1512160606.424955: $GPGSA,A,3,1,10,11,12,14,18,24,25,31,32,138,,2.0,0.8,1.5*3B
2017-12-01 15:36:47 1512160607.761443: $GPGSV,3,1,11,01,11,321,34,10,74,124,47,11,10,304,38,12,24,076,42*74
2017-12-01 15:36:47 1512160607.761624: $GPGSV,3,2,11,14,52,286,43,18,41,132,45,24,18,045,41,25,27,118,46*7F
2017-12-01 15:36:47 1512160607.761692: $GPGSV,3,3,11,31,31,210,47,32,66,319,50,138,38,213,45*76
2017-12-01 15:36:47 1512160607.875187: $GPZDA,203648.00,01,12,2017,00,00*6B
2017-12-01 15:36:47 1512160607.875377: $GPGGA,203648,3946.9562,N,08404.9846,W,2,11,0.80,297.05,M,-33.324,M,,*7A
2017-12-01 15:36:47 1512160607.875445: $GPRMC,203648,A,3946.9562,N,08404.9846,W,0.0000,0.000,011217,,*3B
2017-12-01 15:36:47 1512160607.875507: $GPGSA,A,3,1,10,11,12,14,18,24,25,31,32,138,,2.0,0.8,1.5*3B
2017-12-01 15:36:48 1512160608.411223: $GPZDA,203649.00,01,12,2017,00,00*6A
2017-12-01 15:36:48 1512160608.411526: $GPGGA,203649,3946.9562,N,08404.9846,W,2,11,0.80,297.05,M,-33.324,M,,*7B
2017-12-01 15:36:48 1512160608.411617: $GPRMC,203649,A,3946.9562,N,08404.9846,W,0.0000,0.000,011217,,*3A
2017-12-01 15:36:48 1512160608.411679: $GPGSA,A,3,1,10,11,12,14,18,24,25,31,32,138,,2.0,0.8,1.5*3B
2017-12-01 15:36:49 1512160609.405540: $GPZDA,203650.00,01,12,2017,00,00*62
2017-12-01 15:36:49 1512160609.405700: $GPGGA,203650,3946.9562,N,08404.9846,W,2,11,0.80,297.05,M,-33.324,M,,*73
2017-12-01 15:36:49 1512160609.405766: $GPRMC,203650,A,3946.9562,N,08404.9846,W,0.0000,0.000,011217,,*32
2017-12-01 15:36:49 1512160609.405826: $GPGSA,A,3,1,10,11,12,14,18,24,25,31,32,138,,2.0,0.8,1.5*3B
2017-12-01 15:36:50 1512160610.744241: $GPGSV,3,1,11,01,11,321,34,10,74,124,47,11,10,304,38,12,24,076,41*77
2017-12-01 15:36:50 1512160610.744403: $GPGSV,3,2,11,14,52,286,43,18,41,132,45,24,18,045,41,25,27,118,45*7C
2017-12-01 15:36:50 1512160610.744469: $GPGSV,3,3,11,31,31,210,48,32,66,319,49,138,38,213,46*72
2017-12-01 15:36:50 1512160610.857715: $GPZDA,203651.00,01,12,2017,00,00*63
2017-12-01 15:36:50 1512160610.857896: $GPGGA,203651,3946.9562,N,08404.9846,W,2,11,0.80,297.05,M,-33.324,M,,*72
2017-12-01 15:36:50 1512160610.858073: $GPRMC,203651,A,3946.9562,N,08404.9846,W,0.0000,0.000,011217,,*33
2017-12-01 15:36:50 1512160610.858160: $GPGSA,A,3,1,10,11,12,14,18,24,25,31,32,138,,2.0,0.8,1.5*3B
2017-12-01 15:36:51 1512160611.409845: $GPZDA,203652.00,01,12,2017,00,00*60
2017-12-01 15:36:51 1512160611.410037: $GPGGA,203652,3946.9562,N,08404.9846,W,2,11,0.80,297.05,M,-33.324,M,,*71
2017-12-01 15:36:51 1512160611.410123: $GPRMC,203652,A,3946.9562,N,08404.9846,W,0.0000,0.000,011217,,*30
2017-12-01 15:36:51 1512160611.410185: $GPGSA,A,3,1,10,11,12,14,18,24,25,31,32,138,,2.0,0.8,1.5*3B
2017-12-01 15:36:52 1512160612.409369: $GPZDA,203653.00,01,12,2017,00,00*61
2017-12-01 15:36:52 1512160612.409536: $GPGGA,203653,3946.9562,N,08404.9846,W,2,11,0.80,297.05,M,-33.324,M,,*70
2017-12-01 15:36:52 1512160612.409602: $GPRMC,203653,A,3946.9562,N,08404.9846,W,0.0000,0.000,011217,,*31
2017-12-01 15:36:52 1512160612.409664: $GPGSA,A,3,1,10,11,12,14,18,24,25,31,32,138,,2.0,0.8,1.5*3B
2017-12-01 15:36:53 1512160613.745024: $GPGSV,3,1,11,01,11,321,34,10,74,124,47,11,10,304,38,12,24,076,41*77
2017-12-01 15:36:53 1512160613.745228: $GPGSV,3,2,11,14,52,286,43,18,41,132,45,24,18,045,42,25,27,118,45*7F
2017-12-01 15:36:53 1512160613.745296: $GPGSV,3,3,11,31,31,210,48,32,66,319,49,138,38,213,46*72
2017-12-01 15:36:53 1512160613.858463: $GPZDA,203654.00,01,12,2017,00,00*66
2017-12-01 15:36:53 1512160613.858632: $GPGGA,203654,3946.9562,N,08404.9846,W,2,11,0.80,297.05,M,-33.324,M,,*77
2017-12-01 15:36:53 1512160613.858699: $GPRMC,203654,A,3946.9562,N,08404.9846,W,0.0000,0.000,011217,,*36
2017-12-01 15:36:53 1512160613.858759: $GPGSA,A,3,1,10,11,12,14,18,24,25,31,32,138,,2.0,0.8,1.5*3B
2017-12-01 15:36:54 1512160614.404353: $GPZDA,203655.00,01,12,2017,00,00*67
2017-12-01 15:36:54 1512160614.404525: $GPGGA,203655,3946.9562,N,08404.9846,W,2,11,0.80,297.05,M,-33.324,M,,*76
2017-12-01 15:36:54 1512160614.404592: $GPRMC,203655,A,3946.9562,N,08404.9846,W,0.0000,0.000,011217,,*37
2017-12-01 15:36:54 1512160614.404653: $GPGSA,A,3,1,10,11,12,14,18,24,25,31,32,138,,2.0,0.8,1.5*3B
2017-12-01 15:36:55 1512160615.409679: $GPZDA,203656.00,01,12,2017,00,00*64
2017-12-01 15:36:55 1512160615.409851: $GPGGA,203656,3946.9562,N,08404.9846,W,2,11,0.80,297.05,M,-33.324,M,,*75
2017-12-01 15:36:55 1512160615.409917: $GPRMC,203656,A,3946.9562,N,08404.9846,W,0.0000,0.000,011217,,*34
2017-12-01 15:36:55 1512160615.409999: $GPGSA,A,3,1,10,11,12,14,18,24,25,31,32,138,,2.0,0.8,1.5*3B
2017-12-01 15:36:56 1512160616.745397: $GPGSV,3,1,11,01,11,321,34,10,74,124,47,11,10,304,34,12,24,076,42*78
2017-12-01 15:36:56 1512160616.745577: $GPGSV,3,2,11,14,52,286,43,18,41,132,45,24,18,045,42,25,27,118,45*7F
2017-12-01 15:36:56 1512160616.745646: $GPGSV,3,3,11,31,31,210,48,32,66,319,49,138,38,213,46*72
2017-12-01 15:36:56 1512160616.859074: $GPZDA,203657.00,01,12,2017,00,00*65
2017-12-01 15:36:56 1512160616.859272: $GPGGA,203657,3946.9562,N,08404.9846,W,2,11,0.80,297.05,M,-33.324,M,,*74
2017-12-01 15:36:56 1512160616.859339: $GPRMC,203657,A,3946.9562,N,08404.9846,W,0.0000,0.000,011217,,*35
2017-12-01 15:36:56 1512160616.859400: $GPGSA,A,3,1,10,11,12,14,18,24,25,31,32,138,,2.0,0.8,1.5*3B
2017-12-01 15:36:57 1512160617.409718: $GPZDA,203658.00,01,12,2017,00,00*6A
2017-12-01 15:36:57 1512160617.409893: $GPGGA,203658,3946.9562,N,08404.9846,W,2,11,0.80,297.05,M,-33.324,M,,*7B
2017-12-01 15:36:57 1512160617.409981: $GPRMC,203658,A,3946.9562,N,08404.9846,W,0.0000,0.000,011217,,*3A
2017-12-01 15:36:57 1512160617.410043: $GPGSA,A,3,1,10,11,12,14,18,24,25,31,32,138,,2.0,0.8,1.5*3B
2017-12-01 15:36:58 1512160618.408067: $GPZDA,203659.00,01,12,2017,00,00*6B
2017-12-01 15:36:58 1512160618.408253: $GPGGA,203659,3946.9562,N,08404.9846,W,2,11,0.80,297.05,M,-33.324,M,,*7A
2017-12-01 15:36:58 1512160618.408320: $GPRMC,203659,A,3946.9562,N,08404.9846,W,0.0000,0.000,011217,,*3B
2017-12-01 15:36:58 1512160618.408381: $GPGSA,A,3,1,10,11,12,14,18,24,25,31,32,138,,2.0,0.8,1.5*3B
2017-12-01 15:36:59 1512160619.745146: $GPGSV,3,1,11,01,11,321,35,10,74,124,48,11,10,304,35,12,24,076,41*74
2017-12-01 15:36:59 1512160619.745390: $GPGSV,3,2,11,14,52,286,43,18,41,132,46,24,18,045,43,25,27,118,45*7D
2017-12-01 15:36:59 1512160619.745458: $GPGSV,3,3,11,31,31,210,48,32,66,319,49,138,38,213,47*73
2017-12-01 15:36:59 1512160619.858534: $GPZDA,203700.00,01,12,2017,00,00*66
2017-12-01 15:36:59 1512160619.858707: $GPGGA,203700,3946.9562,N,08404.9846,W,2,11,0.80,297.05,M,-33.324,M,,*77
2017-12-01 15:36:59 1512160619.858774: $GPRMC,203700,A,3946.9562,N,08404.9846,W,0.0000,0.000,011217,,*36
2017-12-01 15:36:59 1512160619.858834: $GPGSA,A,3,1,10,11,12,14,18,24,25,31,32,138,,2.0,0.8,1.5*3B
2017-12-01 15:37:00 1512160620.483814: $GPZDA,203701.00,01,12,2017,00,00*67
2017-12-01 15:37:00 1512160620.484010: $GPGGA,203701,3946.9562,N,08404.9846,W,2,11,0.80,297.05,M,-33.324,M,,*76
2017-12-01 15:37:00 1512160620.484095: $GPRMC,203701,A,3946.9562,N,08404.9846,W,0.0000,0.000,011217,,*37
2017-12-01 15:37:00 1512160620.484158: $GPGSA,A,3,1,10,11,12,14,18,24,25,31,32,138,,2.0,0.8,1.5*3B
2017-12-01 15:37:01 1512160621.409677: $GPZDA,203702.00,01,12,2017,00,00*64
2017-12-01 15:37:01 1512160621.409865: $GPGGA,203702,3946.9562,N,08404.9846,W,2,11,0.80,297.05,M,-33.324,M,,*75
2017-12-01 15:37:01 1512160621.409954: $GPRMC,203702,A,3946.9562,N,08404.9846,W,0.0000,0.000,011217,,*34
2017-12-01 15:37:01 1512160621.410017: $GPGSA,A,3,1,10,11,12,14,18,24,25,31,32,138,,2.0,0.8,1.5*3B
2017-12-01 15:37:02 1512160622.744130: $GPGSV,3,1,11,01,11,321,35,10,74,124,48,11,10,304,36,12,24,076,43*75
2017-12-01 15:37:02 1512160622.744312: $GPGSV,3,2,11,14,52,286,43,18,41,132,45,24,18,045,43,25,27,118,45*7E
2017-12-01 15:37:02 1512160622.744378: $GPGSV,3,3,11,31,31,210,47,32,66,319,49,138,38,213,45*7E
2017-12-01 15:37:02 1512160622.857607: $GPZDA,203703.00,01,12,2017,00,00*65
2017-12-01 15:37:02 1512160622.857759: $GPGGA,203703,3946.9562,N,08404.9846,W,2,11,0.80,297.05,M,-33.324,M,,*74
2017-12-01 15:37:02 1512160622.857826: $GPRMC,203703,A,3946.9562,N,08404.9846,W,0.0000,0.000,011217,,*35
2017-12-01 15:37:02 1512160622.857887: $GPGSA,A,3,1,10,11,12,14,18,24,25,31,32,138,,2.0,0.8,1.5*3B
2017-12-01 15:37:03 1512160623.409751: $GPZDA,203704.00,01,12,2017,00,00*62
2017-12-01 15:37:03 1512160623.409941: $GPGGA,203704,3946.9562,N,08404.9846,W,2,11,0.80,297.05,M,-33.324,M,,*73
2017-12-01 15:37:03 1512160623.410009: $GPRMC,203704,A,3946.9562,N,08404.9846,W,0.0000,0.000,011217,,*32
2017-12-01 15:37:03 1512160623.410086: $GPGSA,A,3,1,10,11,12,14,18,24,25,31,32,138,,2.0,0.8,1.5*3B
