2017-11-16 15:48:18 1510865298.576063: {"class":"VERSION","release":"3.17","rev":"3.17","proto_major":3,"proto_minor":12}
2017-11-16 15:48:18 1510865298.576593: {"class":"DEVICES","devices":[{"class":"DEVICE","path":"/dev/ttyUSB0","driver":"SiRF","subtype":"9\u0006GSD4e_4.1.2-P1_RPATCH.05-F-GPS-4R-1510281 11/03/2015 307","activated":"2017-11-16T20:48:18.524Z","flags":1,"native":1,"bps":4800,"parity":"N","stopbits":1,"cycle":1.00}]}
2017-11-16 15:48:18 1510865298.576706: {"class":"WATCH","enable":true,"json":false,"nmea":true,"raw":0,"scaled":false,"timing":false,"split24":false,"pps":false}
2017-11-16 15:48:19 1510865299.703263: $GPGSV,3,1,12,11,03,322,26,10,78,351,50,14,36,262,44,31,08,204,30*79
2017-11-16 15:48:19 1510865299.703431: $GPGSV,3,2,12,18,63,111,48,25,10,135,08,21,19,178,42,24,37,051,48*7A
2017-11-16 15:48:19 1510865299.703492: $GPGSV,3,3,12,15,04,072,26,32,53,277,45,12,15,099,42,138,38,213,44*4F
2017-11-16 15:48:19 1510865299.816825: $GPZDA,204818.00,16,11,2017,00,00*62
2017-11-16 15:48:19 1510865299.816984: $GPGGA,204818,3946.9576,N,08404.9852,W,2,12,1.20,309.56,M,-33.324,M,,*7E
2017-11-16 15:48:19 1510865299.817046: $GPRMC,204818,A,3946.9576,N,08404.9852,W,0.0000,0.000,161117,,*32
2017-11-16 15:48:19 1510865299.817102: $GPGSA,A,3,11,10,14,31,18,25,21,24,15,32,12,138,1.6,1.2,1.3*05
2017-11-16 15:48:20 1510865300.376464: $GPZDA,204819.00,16,11,2017,00,00*63
2017-11-16 15:48:20 1510865300.376614: $GPGGA,204819,3946.9576,N,08404.9852,W,2,12,1.20,309.56,M,-33.324,M,,*7F
2017-11-16 15:48:20 1510865300.376676: $GPRMC,204819,A,3946.9576,N,08404.9852,W,0.0000,0.000,161117,,*33
2017-11-16 15:48:20 1510865300.376732: $GPGSA,A,3,11,10,14,31,18,25,21,24,15,32,12,138,1.6,1.2,1.3*05
2017-11-16 15:48:21 1510865301.370725: $GPZDA,204820.00,16,11,2017,00,00*69
2017-11-16 15:48:21 1510865301.370912: $GPGGA,204820,3946.9576,N,08404.9852,W,2,12,1.20,309.56,M,-33.324,M,,*75
2017-11-16 15:48:21 1510865301.370983: $GPRMC,204820,A,3946.9576,N,08404.9852,W,0.0000,0.000,161117,,*39
2017-11-16 15:48:21 1510865301.371044: $GPGSA,A,3,11,10,14,31,18,25,21,24,15,32,12,138,1.6,1.2,1.3*05
2017-11-16 15:48:22 1510865302.702311: $GPGSV,3,1,12,11,03,322,25,10,78,351,50,14,36,262,44,31,08,204,31*7B
2017-11-16 15:48:22 1510865302.702458: $GPGSV,3,2,12,18,63,111,48,25,10,135,09,21,19,178,42,24,37,051,48*7B
2017-11-16 15:48:22 1510865302.702521: $GPGSV,3,3,12,15,04,072,26,32,53,277,45,12,15,099,42,138,38,213,44*4F
2017-11-16 15:48:22 1510865302.815588: $GPZDA,204821.00,16,11,2017,00,00*68
2017-11-16 15:48:22 1510865302.815745: $GPGGA,204821,3946.9576,N,08404.9852,W,2,12,1.20,309.56,M,-33.324,M,,*74
2017-11-16 15:48:22 1510865302.815809: $GPRMC,204821,A,3946.9576,N,08404.9852,W,0.0000,0.000,161117,,*38
2017-11-16 15:48:22 1510865302.815867: $GPGSA,A,3,11,10,14,31,18,25,21,24,15,32,12,138,1.6,1.2,1.3*05
2017-11-16 15:48:23 1510865303.366472: $GPZDA,204822.00,16,11,2017,00,00*6B
2017-11-16 15:48:23 1510865303.366638: $GPGGA,204822,3946.9576,N,08404.9852,W,2,12,1.20,309.56,M,-33.324,M,,*77
2017-11-16 15:48:23 1510865303.366703: $GPRMC,204822,A,3946.9576,N,08404.9852,W,0.0000,0.000,161117,,*3B
2017-11-16 15:48:23 1510865303.366762: $GPGSA,A,3,11,10,14,31,18,25,21,24,15,32,12,138,1.6,1.2,1.3*05
2017-11-16 15:48:24 1510865304.369025: $GPZDA,204823.00,16,11,2017,00,00*6A
2017-11-16 15:48:24 1510865304.369186: $GPGGA,204823,3946.9576,N,08404.9852,W,2,12,1.20,309.56,M,-33.324,M,,*76
2017-11-16 15:48:24 1510865304.369250: $GPRMC,204823,A,3946.9576,N,08404.9852,W,0.0000,0.000,161117,,*3A
2017-11-16 15:48:24 1510865304.369309: $GPGSA,A,3,11,10,14,31,18,25,21,24,15,32,12,138,1.6,1.2,1.3*05
2017-11-16 15:48:25 1510865305.704410: $GPGSV,3,1,12,11,03,322,26,10,78,351,50,14,36,262,44,31,08,204,32*7B
2017-11-16 15:48:25 1510865305.704584: $GPGSV,3,2,12,18,63,111,48,25,10,135,23,21,19,178,41,24,37,051,48*70
2017-11-16 15:48:25 1510865305.704648: $GPGSV,3,3,12,15,04,072,26,32,53,277,45,12,15,099,42,138,38,213,44*4F
2017-11-16 15:48:25 1510865305.818124: $GPZDA,204824.00,16,11,2017,00,00*6D
2017-11-16 15:48:25 1510865305.818313: $GPGGA,204824,3946.9576,N,08404.9852,W,2,12,1.20,309.56,M,-33.324,M,,*71
2017-11-16 15:48:25 1510865305.818432: $GPRMC,204824,A,3946.9576,N,08404.9852,W,0.0000,0.000,161117,,*3D
2017-11-16 15:48:25 1510865305.818490: $GPGSA,A,3,11,10,14,31,18,25,21,24,15,32,12,138,1.6,1.2,1.3*05
2017-11-16 15:48:26 1510865306.443152: $GPZDA,204825.00,16,11,2017,00,00*6C
2017-11-16 15:48:26 1510865306.443316: $GPGGA,204825,3946.9576,N,08404.9852,W,2,12,1.20,309.56,M,-33.324,M,,*70
2017-11-16 15:48:26 1510865306.443377: $GPRMC,204825,A,3946.9576,N,08404.9852,W,0.0000,0.000,161117,,*3C
2017-11-16 15:48:26 1510865306.443432: $GPGSA,A,3,11,10,14,31,18,25,21,24,15,32,12,138,1.6,1.2,1.3*05
2017-11-16 15:48:27 1510865307.366576: $GPZDA,204826.00,16,11,2017,00,00*6F
2017-11-16 15:48:27 1510865307.366745: $GPGGA,204826,3946.9576,N,08404.9852,W,2,12,1.20,309.56,M,-33.324,M,,*73
2017-11-16 15:48:27 1510865307.366807: $GPRMC,204826,A,3946.9576,N,08404.9852,W,0.0000,0.000,161117,,*3F
2017-11-16 15:48:27 1510865307.366863: $GPGSA,A,3,11,10,14,31,18,25,21,24,15,32,12,138,1.6,1.2,1.3*05
