2017-11-15 18:27:58 1510788478.736307: {"class":"VERSION","release":"3.17","rev":"3.17","proto_major":3,"proto_minor":12}
2017-11-15 18:27:58 1510788478.736999: {"class":"DEVICES","devices":[{"class":"DEVICE","path":"/dev/ttyUSB0","driver":"SiRF","subtype":"9\u0006GSD4e_4.1.2-P1_RPATCH.05-F-GPS-4R-1510281 11/03/2015 307","activated":"2017-11-15T23:27:58.469Z","flags":1,"native":1,"bps":4800,"parity":"N","stopbits":1,"cycle":1.00}]}
2017-11-15 18:27:58 1510788478.737123: {"class":"WATCH","enable":true,"json":false,"nmea":true,"raw":0,"scaled":false,"timing":false,"split24":false,"pps":false}
2017-11-15 18:27:59 1510788479.327771: $GPZDA,232758.00,15,11,2017,00,00*6F
2017-11-15 18:27:59 1510788479.327927: $GPGGA,232758,3946.9628,N,08404.9550,W,1,05,1.40,294.71,M,-33.324,M,,*74
2017-11-15 18:27:59 1510788479.327989: $GPRMC,232758,A,3946.9628,N,08404.9550,W,0.3423,184.197,151117,,*3C
2017-11-15 18:27:59 1510788479.328044: $GPGSA,A,3,10,14,25,31,22,,,,,,,,3.4,1.4,2.9*3A
2017-11-15 18:28:00 1510788480.663379: $GPGSV,3,1,11,10,24,156,11,14,69,034,24,25,36,058,18,26,23,178,00*78
2017-11-15 18:28:00 1510788480.663573: $GPGSV,3,2,11,31,77,270,28,32,57,076,04,01,19,276,00,22,38,304,18*7C
2017-11-15 18:28:00 1510788480.663635: $GPGSV,3,3,11,03,19,316,00,12,08,033,00,138,38,213,00*7C
2017-11-15 18:28:00 1510788480.776829: $GPZDA,232759.00,15,11,2017,00,00*6E
2017-11-15 18:28:00 1510788480.776988: $GPGGA,232759,3946.9628,N,08404.9550,W,1,05,1.40,294.71,M,-33.324,M,,*75
2017-11-15 18:28:00 1510788480.777049: $GPRMC,232759,A,3946.9628,N,08404.9550,W,0.2422,93.794,151117,,*0F
2017-11-15 18:28:00 1510788480.777104: $GPGSA,A,3,10,14,25,31,22,,,,,,,,3.4,1.4,2.9*3A
2017-11-15 18:28:01 1510788481.402104: $GPZDA,232800.00,15,11,2017,00,00*6D
2017-11-15 18:28:01 1510788481.402251: $GPGGA,232800,3946.9628,N,08404.9550,W,1,05,1.40,294.71,M,-33.324,M,,*76
2017-11-15 18:28:01 1510788481.402311: $GPRMC,232800,A,3946.9628,N,08404.9550,W,0.3006,242.539,151117,,*34
2017-11-15 18:28:01 1510788481.402367: $GPGSA,A,3,10,14,25,31,22,,,,,,,,3.4,1.4,2.9*3A
2017-11-15 18:28:02 1510788482.328058: $GPZDA,232801.00,15,11,2017,00,00*6C
2017-11-15 18:28:02 1510788482.328218: $GPGGA,232801,3946.9629,N,08404.9557,W,1,05,1.40,294.63,M,-33.324,M,,*72
2017-11-15 18:28:02 1510788482.328278: $GPRMC,232801,A,3946.9629,N,08404.9557,W,1.0298,254.382,151117,,*35
2017-11-15 18:28:02 1510788482.328334: $GPGSA,A,3,10,14,25,31,22,,,,,,,,3.4,1.4,2.9*3A
2017-11-15 18:28:03 1510788483.663851: $GPGSV,3,1,11,10,24,156,12,14,69,034,24,25,36,058,18,26,23,178,00*7B
2017-11-15 18:28:03 1510788483.664022: $GPGSV,3,2,11,31,77,270,28,32,57,076,04,01,19,276,00,22,38,304,18*7C
2017-11-15 18:28:03 1510788483.664082: $GPGSV,3,3,11,03,19,316,00,12,08,033,00,138,38,213,00*7C
2017-11-15 18:28:03 1510788483.777591: $GPZDA,232802.00,15,11,2017,00,00*6F
2017-11-15 18:28:03 1510788483.777781: $GPGGA,232802,3946.9629,N,08404.9557,W,1,05,1.40,294.63,M,-33.324,M,,*71
2017-11-15 18:28:03 1510788483.777842: $GPRMC,232802,A,3946.9629,N,08404.9557,W,0.8054,248.645,151117,,*3E
2017-11-15 18:28:03 1510788483.777898: $GPGSA,A,3,10,14,25,31,22,,,,,,,,3.4,1.4,2.9*3A
2017-11-15 18:28:04 1510788484.358413: $GPZDA,232803.00,15,11,2017,00,00*6E
2017-11-15 18:28:04 1510788484.363150: $GPGGA,232803,3946.9626,N,08404.9565,W,1,05,1.40,295.32,M,-33.324,M,,*7B
2017-11-15 18:28:04 1510788484.363255: $GPRMC,232803,A,3946.9626,N,08404.9565,W,1.0018,230.691,151117,,*36
2017-11-15 18:28:04 1510788484.363315: $GPGSA,A,3,10,14,25,31,22,,,,,,,,3.4,1.4,2.9*3A
2017-11-15 18:28:05 1510788485.328081: $GPZDA,232804.00,15,11,2017,00,00*69
2017-11-15 18:28:05 1510788485.328241: $GPGGA,232804,3946.9626,N,08404.9565,W,1,05,1.40,295.32,M,-33.324,M,,*7C
2017-11-15 18:28:05 1510788485.328302: $GPRMC,232804,A,3946.9626,N,08404.9565,W,0.8414,219.347,151117,,*35
2017-11-15 18:28:05 1510788485.328358: $GPGSA,A,3,10,14,25,31,22,,,,,,,,3.4,1.4,2.9*3A
2017-11-15 18:28:06 1510788486.667850: $GPGSV,3,1,11,10,24,156,12,14,69,034,24,25,36,058,18,26,23,178,04*7F
2017-11-15 18:28:06 1510788486.668013: $GPGSV,3,2,11,31,77,270,28,32,57,076,04,01,19,276,00,22,38,304,18*7C
2017-11-15 18:28:06 1510788486.668124: $GPGSV,3,3,11,03,19,316,00,12,08,033,00,138,38,213,00*7C
2017-11-15 18:28:06 1510788486.781199: $GPZDA,232805.00,15,11,2017,00,00*68
2017-11-15 18:28:06 1510788486.781362: $GPGGA,232805,3946.9626,N,08404.9565,W,1,05,5.40,295.32,M,-33.324,M,,*79
2017-11-15 18:28:06 1510788486.781422: $GPRMC,232805,A,3946.9626,N,08404.9565,W,0.9929,212.499,151117,,*39
2017-11-15 18:28:06 1510788486.781478: $GPGSA,A,3,10,14,25,31,22,,,,,,,,3.4,5.4,2.9*3E
2017-11-15 18:28:07 1510788487.359588: $GPZDA,232806.00,15,11,2017,00,00*6B
2017-11-15 18:28:07 1510788487.359764: $GPGGA,232806,3946.9626,N,08404.9565,W,1,05,5.40,295.32,M,-33.324,M,,*7A
2017-11-15 18:28:07 1510788487.359826: $GPRMC,232806,A,3946.9626,N,08404.9565,W,0.4207,219.347,151117,,*3F
2017-11-15 18:28:07 1510788487.359882: $GPGSA,A,3,10,14,25,31,22,,,,,,,,3.4,5.4,2.9*3E
2017-11-15 18:28:08 1510788488.359194: $GPZDA,232807.00,15,11,2017,00,00*6A
2017-11-15 18:28:08 1510788488.359357: $GPGGA,232807,3946.9626,N,08404.9572,W,1,05,5.40,295.24,M,-33.324,M,,*7A
2017-11-15 18:28:08 1510788488.359417: $GPRMC,232807,A,3946.9626,N,08404.9572,W,0.5951,238.684,151117,,*38
2017-11-15 18:28:08 1510788488.359473: $GPGSA,A,3,10,14,25,31,22,,,,,,,,3.4,5.4,2.9*3E
