2017-11-15 19:36:36 1510792596.112406: {"class":"VERSION","release":"3.17","rev":"3.17","proto_major":3,"proto_minor":12}
2017-11-15 19:36:36 1510792596.112868: {"class":"DEVICES","devices":[{"class":"DEVICE","path":"/dev/ttyUSB0","driver":"SiRF","subtype":"9\u0006GSD4e_4.1.2-P1_RPATCH.05-F-GPS-4R-1510281 11/03/2015 307","activated":"2017-11-16T00:36:35.661Z","flags":1,"native":1,"bps":4800,"parity":"N","stopbits":1,"cycle":1.00}]}
2017-11-15 19:36:36 1510792596.112986: {"class":"WATCH","enable":true,"json":false,"nmea":true,"raw":0,"scaled":false,"timing":false,"split24":false,"pps":false}
2017-11-15 19:36:36 1510792596.665788: $GPGSV,3,1,11,32,33,111,24,14,53,096,18,16,25,190,00,26,56,171,18*79
2017-11-15 19:36:36 1510792596.665935: $GPGSV,3,2,11,29,11,069,08,31,65,030,19,03,41,295,18,23,13,301,16*79
2017-11-15 19:36:36 1510792596.665994: $GPGSV,3,3,11,25,15,039,00,01,04,250,00,22,50,265,22*46
2017-11-15 19:36:36 1510792596.779110: $GPZDA,003635.00,16,11,2017,00,00*66
2017-11-15 19:36:36 1510792596.779293: $GPGGA,003635,3946.9601,N,08404.9566,W,1,08,1.20,292.88,M,-33.324,M,,*7B
2017-11-15 19:36:36 1510792596.779359: $GPRMC,003635,A,3946.9601,N,08404.9566,W,0.4844,273.794,161117,,*3F
2017-11-15 19:36:36 1510792596.779415: $GPGSA,A,3,32,14,26,29,31,3,23,22,,,,,3.4,1.2,2.9*06
2017-11-15 19:36:37 1510792597.346311: $GPZDA,003636.00,16,11,2017,00,00*65
2017-11-15 19:36:37 1510792597.346519: $GPGGA,003636,3946.9597,N,08404.9566,W,1,08,1.20,292.24,M,-33.324,M,,*72
2017-11-15 19:36:37 1510792597.346585: $GPRMC,003636,A,3946.9597,N,08404.9566,W,0.5951,238.684,161117,,*3B
2017-11-15 19:36:37 1510792597.346641: $GPGSA,A,3,32,14,26,29,31,3,23,22,,,,,3.4,1.2,2.9*06
2017-11-15 19:36:38 1510792598.329593: $GPZDA,003637.00,16,11,2017,00,00*64
2017-11-15 19:36:38 1510792598.329753: $GPGGA,003637,3946.9597,N,08404.9566,W,1,08,1.20,292.24,M,-33.324,M,,*73
2017-11-15 19:36:38 1510792598.329814: $GPRMC,003637,A,3946.9597,N,08404.9566,W,0.4179,328.778,161117,,*3B
2017-11-15 19:36:38 1510792598.329871: $GPGSA,A,3,32,14,26,29,31,3,23,22,,,,,3.4,1.2,2.9*06
2017-11-15 19:36:39 1510792599.681653: $GPGSV,3,1,11,32,33,111,24,14,53,096,18,16,25,190,00,26,56,171,18*79
2017-11-15 19:36:39 1510792599.681827: $GPGSV,3,2,11,29,11,069,08,31,65,030,20,03,41,295,18,23,13,301,16*73
2017-11-15 19:36:39 1510792599.681887: $GPGSV,3,3,11,25,15,039,00,01,04,250,00,22,50,265,22*46
2017-11-15 19:36:39 1510792599.794972: $GPZDA,003638.00,16,11,2017,00,00*6B
2017-11-15 19:36:39 1510792599.795137: $GPGGA,003638,3946.9601,N,08404.9566,W,1,08,1.20,292.88,M,-33.324,M,,*76
2017-11-15 19:36:39 1510792599.795198: $GPRMC,003638,A,3946.9601,N,08404.9566,W,0.1867,0.000,161117,,*3A
2017-11-15 19:36:39 1510792599.795257: $GPGSA,A,3,32,14,26,29,31,3,23,22,,,,,3.4,1.2,2.9*06
2017-11-15 19:36:40 1510792600.345827: $GPZDA,003639.00,16,11,2017,00,00*6A
2017-11-15 19:36:40 1510792600.351605: $GPGGA,003639,3946.9598,N,08404.9573,W,1,08,1.40,292.16,M,-33.324,M,,*71
2017-11-15 19:36:40 1510792600.351723: $GPRMC,003639,A,3946.9598,N,08404.9573,W,0.4844,273.794,161117,,*34
2017-11-15 19:36:40 1510792600.351781: $GPGSA,A,3,32,14,26,29,31,3,23,22,,,,,3.4,1.4,2.9*00
2017-11-15 19:36:41 1510792601.346214: $GPZDA,003640.00,16,11,2017,00,00*64
2017-11-15 19:36:41 1510792601.346387: $GPGGA,003640,3946.9602,N,08404.9573,W,1,08,1.40,292.80,M,-33.324,M,,*70
2017-11-15 19:36:41 1510792601.346451: $GPRMC,003640,A,3946.9602,N,08404.9573,W,0.9066,309.458,161117,,*30
2017-11-15 19:36:41 1510792601.346508: $GPGSA,A,3,32,14,26,29,31,3,23,22,,,,,3.4,1.4,2.9*00
2017-11-15 19:36:42 1510792602.664503: $GPGSV,3,1,11,32,33,111,24,14,53,096,19,16,25,190,00,26,56,171,19*79
2017-11-15 19:36:42 1510792602.664677: $GPGSV,3,2,11,29,11,069,07,31,65,030,21,03,41,295,18,23,13,301,16*7D
2017-11-15 19:36:42 1510792602.664738: $GPGSV,3,3,11,25,15,039,00,01,04,250,00,22,50,265,22*46
2017-11-15 19:36:42 1510792602.777863: $GPZDA,003641.00,16,11,2017,00,00*65
2017-11-15 19:36:42 1510792602.778026: $GPGGA,003641,3946.9602,N,08404.9573,W,1,08,1.40,292.80,M,-33.324,M,,*71
2017-11-15 19:36:42 1510792602.778089: $GPRMC,003641,A,3946.9602,N,08404.9573,W,0.8709,3.298,161117,,*3D
2017-11-15 19:36:42 1510792602.778206: $GPGSA,A,3,32,14,26,29,31,3,23,22,,,,,3.4,1.4,2.9*00
2017-11-15 19:36:43 1510792603.329921: $GPZDA,003642.00,16,11,2017,00,00*66
2017-11-15 19:36:43 1510792603.330110: $GPGGA,003642,3946.9602,N,08404.9573,W,1,08,1.40,292.80,M,-33.324,M,,*72
2017-11-15 19:36:43 1510792603.330175: $GPRMC,003642,A,3946.9602,N,08404.9573,W,0.6846,4.197,161117,,*3F
2017-11-15 19:36:43 1510792603.330234: $GPGSA,A,3,32,14,26,29,31,3,23,22,,,,,3.4,1.4,2.9*00
2017-11-15 19:36:44 1510792604.345884: $GPZDA,003643.00,16,11,2017,00,00*67
2017-11-15 19:36:44 1510792604.346055: $GPGGA,003643,3946.9602,N,08404.9580,W,1,08,1.40,292.72,M,-33.324,M,,*72
2017-11-15 19:36:44 1510792604.346116: $GPRMC,003643,A,3946.9602,N,08404.9580,W,0.6846,4.197,161117,,*32
2017-11-15 19:36:44 1510792604.346173: $GPGSA,A,3,32,14,26,29,31,3,23,22,,,,,3.4,1.4,2.9*00
2017-11-15 19:36:45 1510792605.665352: $GPGSV,3,1,11,32,33,111,24,14,53,096,19,16,25,190,07,26,56,171,19*7E
2017-11-15 19:36:45 1510792605.665524: $GPGSV,3,2,11,29,11,069,06,31,65,030,21,03,41,295,18,23,13,301,16*7C
2017-11-15 19:36:45 1510792605.665584: $GPGSV,3,3,11,25,15,039,00,01,04,250,00,22,50,265,22*46
2017-11-15 19:36:45 1510792605.778684: $GPZDA,003644.00,16,11,2017,00,00*60
2017-11-15 19:36:45 1510792605.778827: $GPGGA,003644,3946.9602,N,08404.9580,W,1,07,1.40,292.72,M,-33.324,M,,*7A
2017-11-15 19:36:45 1510792605.778886: $GPRMC,003644,A,3946.9602,N,08404.9580,W,0.0000,0.000,161117,,*32
2017-11-15 19:36:45 1510792605.778942: $GPGSA,A,3,32,14,26,31,3,23,22,,,,,,3.4,1.4,2.9*0B
