2017-12-29 14:53:11 1514577191.525390: {"class":"VERSION","release":"3.16","rev":"3.16-4","proto_major":3,"proto_minor":11}
2017-12-29 14:53:11 1514577191.525953: {"class":"DEVICES","devices":[{"class":"DEVICE","path":"/dev/ttyUSB0","driver":"SiRF","subtype":"9\u0006GSD4e_4.1.2-P1_RPATCH.05-F-GPS-4R-1510281 11/03/2015 307","activated":"2017-12-29T19:53:11.518Z","flags":1,"native":1,"bps":4800,"parity":"N","stopbits":1,"cycle":1.00}]}
2017-12-29 14:53:11 1514577191.526074: {"class":"WATCH","enable":true,"json":false,"nmea":true,"raw":0,"scaled":false,"timing":false,"split24":false,"pps":false}
2017-12-29 14:53:12 1514577192.330035: $GPZDA,195313.00,29,12,2017,00,00*66
2017-12-29 14:53:12 1514577192.330205: $GPGGA,195313,3946.9573,N,08404.9872,W,2,12,0.80,294.44,M,-33.324,M,,*7F
2017-12-29 14:53:12 1514577192.330274: $GPRMC,195313,A,3946.9573,N,08404.9872,W,0.0000,0.000,291217,,*31
2017-12-29 14:53:12 1514577192.330338: $GPGSA,A,3,1,3,10,12,14,22,25,31,32,18,26,138,1.7,0.8,1.3*08
2017-12-29 14:53:13 1514577193.664517: $GPGSV,3,1,12,01,22,292,36,03,07,316,41,10,39,151,48,12,18,043,46*7D
2017-12-29 14:53:13 1514577193.664669: $GPGSV,3,2,12,14,69,345,43,22,26,310,41,25,41,081,51,31,66,234,47*7C
2017-12-29 14:53:13 1514577193.664735: $GPGSV,3,3,12,32,65,049,51,18,10,145,27,11,06,276,34,138,38,213,43*48
2017-12-29 14:53:13 1514577193.777876: $GPZDA,195314.00,29,12,2017,00,00*61
2017-12-29 14:53:13 1514577193.778014: $GPGGA,195314,3946.9573,N,08404.9872,W,2,12,0.80,294.44,M,-33.324,M,,*78
2017-12-29 14:53:13 1514577193.778081: $GPRMC,195314,A,3946.9573,N,08404.9872,W,0.0000,0.000,291217,,*36
2017-12-29 14:53:13 1514577193.778142: $GPGSA,A,3,1,3,10,12,14,22,25,31,32,18,11,138,1.7,0.8,1.3*0C
2017-12-29 14:53:14 1514577194.326471: $GPZDA,195315.00,29,12,2017,00,00*60
2017-12-29 14:53:14 1514577194.326632: $GPGGA,195315,3946.9573,N,08404.9872,W,2,12,0.80,294.44,M,-33.324,M,,*79
2017-12-29 14:53:14 1514577194.326702: $GPRMC,195315,A,3946.9573,N,08404.9872,W,0.0000,0.000,291217,,*37
2017-12-29 14:53:14 1514577194.326764: $GPGSA,A,3,1,3,10,12,14,22,25,31,32,18,11,138,1.7,0.8,1.3*0C
2017-12-29 14:53:15 1514577195.331025: $GPZDA,195316.00,29,12,2017,00,00*63
2017-12-29 14:53:15 1514577195.331231: $GPGGA,195316,3946.9577,N,08404.9865,W,2,12,0.80,295.16,M,-33.324,M,,*7E
2017-12-29 14:53:15 1514577195.331301: $GPRMC,195316,A,3946.9577,N,08404.9865,W,0.0000,0.000,291217,,*36
2017-12-29 14:53:15 1514577195.331365: $GPGSA,A,3,1,3,10,12,14,22,25,31,32,18,11,138,1.7,0.8,1.3*0C
2017-12-29 14:53:15 1514577195.331425: $GPGBS,195316,2.73,M,2.59,M,7.72,M*3D
2017-12-29 14:53:16 1514577196.665978: $GPGSV,3,1,12,01,22,292,35,03,07,316,41,10,39,151,48,12,18,043,46*7E
2017-12-29 14:53:16 1514577196.666157: $GPGSV,3,2,12,14,69,345,43,22,26,310,41,25,41,081,51,31,66,234,47*7C
2017-12-29 14:53:16 1514577196.666227: $GPGSV,3,3,12,32,65,049,51,18,10,145,27,11,06,276,34,138,38,213,42*49
2017-12-29 14:53:16 1514577196.779588: $GPZDA,195317.00,29,12,2017,00,00*62
2017-12-29 14:53:16 1514577196.779712: $GPGGA,195317,3946.9577,N,08404.9865,W,2,12,0.80,295.16,M,-33.324,M,,*7F
2017-12-29 14:53:16 1514577196.779776: $GPRMC,195317,A,3946.9577,N,08404.9865,W,0.0000,0.000,291217,,*37
2017-12-29 14:53:16 1514577196.779837: $GPGSA,A,3,1,3,10,12,14,22,25,31,32,18,11,138,1.7,0.8,1.3*0C
2017-12-29 14:53:17 1514577197.330485: $GPZDA,195318.00,29,12,2017,00,00*6D
2017-12-29 14:53:17 1514577197.330628: $GPGGA,195318,3946.9577,N,08404.9865,W,2,12,0.80,295.16,M,-33.324,M,,*70
2017-12-29 14:53:17 1514577197.330695: $GPRMC,195318,A,3946.9577,N,08404.9865,W,0.0000,0.000,291217,,*38
2017-12-29 14:53:17 1514577197.330754: $GPGSA,A,3,1,3,10,12,14,22,25,31,32,18,11,138,1.7,0.8,1.3*0C
2017-12-29 14:53:18 1514577198.330116: $GPZDA,195319.00,29,12,2017,00,00*6C
2017-12-29 14:53:18 1514577198.330306: $GPGGA,195319,3946.9577,N,08404.9865,W,2,12,0.80,295.16,M,-33.324,M,,*71
2017-12-29 14:53:18 1514577198.330374: $GPRMC,195319,A,3946.9577,N,08404.9865,W,0.0000,0.000,291217,,*39
2017-12-29 14:53:18 1514577198.330436: $GPGSA,A,3,1,3,10,12,14,22,25,31,32,18,11,138,1.7,0.8,1.3*0C
2017-12-29 14:53:19 1514577199.666844: $GPGSV,3,1,12,01,22,292,35,03,07,316,41,10,39,151,49,12,18,043,47*7E
2017-12-29 14:53:19 1514577199.667027: $GPGSV,3,2,12,14,69,345,43,22,26,310,41,25,41,081,51,31,66,234,47*7C
2017-12-29 14:53:19 1514577199.667093: $GPGSV,3,3,12,32,65,049,51,18,10,145,27,26,10,180,19,138,38,213,43*4E
2017-12-29 14:53:19 1514577199.780571: $GPZDA,195320.00,29,12,2017,00,00*66
2017-12-29 14:53:19 1514577199.780696: $GPGGA,195320,3946.9578,N,08404.9866,W,2,11,0.80,296.56,M,-33.324,M,,*73
2017-12-29 14:53:19 1514577199.780760: $GPRMC,195320,A,3946.9578,N,08404.9866,W,0.2422,93.794,291217,,*09
2017-12-29 14:53:19 1514577199.780820: $GPGSA,A,3,1,3,10,12,14,22,25,31,32,18,138,,1.7,0.8,1.3*0C
2017-12-29 14:53:20 1514577200.330201: $GPZDA,195321.00,29,12,2017,00,00*67
2017-12-29 14:53:20 1514577200.330346: $GPGGA,195321,3946.9578,N,08404.9866,W,2,11,0.80,296.56,M,-33.324,M,,*72
2017-12-29 14:53:20 1514577200.330414: $GPRMC,195321,A,3946.9578,N,08404.9866,W,0.0000,0.000,291217,,*3E
2017-12-29 14:53:20 1514577200.330473: $GPGSA,A,3,1,3,10,12,14,22,25,31,32,18,138,,1.7,0.8,1.3*0C
2017-12-29 14:53:21 1514577201.328051: $GPZDA,195322.00,29,12,2017,00,00*64
2017-12-29 14:53:21 1514577201.328226: $GPGGA,195322,3946.9578,N,08404.9866,W,2,11,0.80,296.56,M,-33.324,M,,*71
2017-12-29 14:53:21 1514577201.328297: $GPRMC,195322,A,3946.9578,N,08404.9866,W,0.0000,0.000,291217,,*3D
2017-12-29 14:53:21 1514577201.328359: $GPGSA,A,3,1,3,10,12,14,22,25,31,32,18,138,,1.7,0.8,1.3*0C
