2017-12-29 11:06:00 1514563560.667761: {"class":"VERSION","release":"3.16","rev":"3.16-4","proto_major":3,"proto_minor":11}
2017-12-29 11:06:00 1514563560.668104: {"class":"DEVICES","devices":[{"class":"DEVICE","path":"/dev/ttyUSB0","driver":"SiRF","subtype":"9\u0006GSD4e_4.1.2-P1_RPATCH.05-F-GPS-4R-1510281 11/03/2015 307","activated":"2017-12-29T16:06:00.579Z","flags":1,"native":1,"bps":4800,"parity":"N","stopbits":1,"cycle":1.00}]}
2017-12-29 11:06:00 1514563560.668218: {"class":"WATCH","enable":true,"json":false,"nmea":true,"raw":0,"scaled":false,"timing":false,"split24":false,"pps":false}
2017-12-29 11:06:01 1514563561.416932: $GPZDA,160602.00,29,12,2017,00,00*69
2017-12-29 11:06:01 1514563561.417086: $GPGGA,160602,3946.9618,N,08404.9820,W,2,11,1.20,321.97,M,-33.324,M,,*70
2017-12-29 11:06:01 1514563561.417152: $GPRMC,160602,A,3946.9618,N,08404.9820,W,0.0407,142.013,291217,,*31
2017-12-29 11:06:01 1514563561.417213: $GPGSA,A,3,10,15,18,20,21,24,27,32,13,8,138,,1.7,1.2,1.3*3A
2017-12-29 11:06:02 1514563562.753887: $GPGSV,3,1,11,10,38,297,41,15,42,051,49,18,68,328,42,20,38,091,48*76
2017-12-29 11:06:02 1514563562.754073: $GPGSV,3,2,11,21,68,195,46,24,48,118,48,27,19,294,40,32,17,235,38*7A
2017-12-29 11:06:02 1514563562.754158: $GPGSV,3,3,11,13,12,048,29,08,04,327,27,138,38,213,44*71
2017-12-29 11:06:02 1514563562.867287: $GPZDA,160603.00,29,12,2017,00,00*68
2017-12-29 11:06:02 1514563562.867449: $GPGGA,160603,3946.9618,N,08404.9820,W,2,11,1.20,321.97,M,-33.324,M,,*71
2017-12-29 11:06:02 1514563562.867517: $GPRMC,160603,A,3946.9618,N,08404.9820,W,0.0000,0.000,291217,,*36
2017-12-29 11:06:02 1514563562.867593: $GPGSA,A,3,10,15,18,20,21,24,27,32,13,8,138,,1.7,1.2,1.3*3A
2017-12-29 11:06:03 1514563563.418137: $GPZDA,160604.00,29,12,2017,00,00*6F
2017-12-29 11:06:03 1514563563.418293: $GPGGA,160604,3946.9618,N,08404.9820,W,2,11,1.20,321.97,M,-33.324,M,,*76
2017-12-29 11:06:03 1514563563.418360: $GPRMC,160604,A,3946.9618,N,08404.9820,W,0.0000,0.000,291217,,*31
2017-12-29 11:06:03 1514563563.418420: $GPGSA,A,3,10,15,18,20,21,24,27,32,13,8,138,,1.7,1.2,1.3*3A
2017-12-29 11:06:04 1514563564.415278: $GPZDA,160605.00,29,12,2017,00,00*6E
2017-12-29 11:06:04 1514563564.415451: $GPGGA,160605,3946.9618,N,08404.9820,W,2,11,1.20,321.97,M,-33.324,M,,*77
2017-12-29 11:06:04 1514563564.415518: $GPRMC,160605,A,3946.9618,N,08404.9820,W,0.0000,0.000,291217,,*30
2017-12-29 11:06:04 1514563564.415594: $GPGSA,A,3,10,15,18,20,21,24,27,32,13,8,138,,1.7,1.2,1.3*3A
2017-12-29 11:06:05 1514563565.752249: $GPGSV,3,1,11,10,38,297,41,15,42,051,49,18,68,328,42,20,38,091,48*76
2017-12-29 11:06:05 1514563565.752444: $GPGSV,3,2,11,21,68,195,46,24,48,118,47,27,19,294,40,32,17,235,38*75
2017-12-29 11:06:05 1514563565.752510: $GPGSV,3,3,11,13,12,048,29,08,04,327,27,138,38,213,45*70
2017-12-29 11:06:05 1514563565.865653: $GPZDA,160606.00,29,12,2017,00,00*6D
2017-12-29 11:06:05 1514563565.865779: $GPGGA,160606,3946.9618,N,08404.9820,W,2,11,1.60,321.97,M,-33.324,M,,*70
2017-12-29 11:06:05 1514563565.865843: $GPRMC,160606,A,3946.9618,N,08404.9820,W,0.0000,0.000,291217,,*33
2017-12-29 11:06:05 1514563565.865903: $GPGSA,A,3,10,15,18,20,21,24,27,32,13,8,138,,1.7,1.6,1.3*3E
2017-12-29 11:06:06 1514563566.490975: $GPZDA,160607.00,29,12,2017,00,00*6C
2017-12-29 11:06:06 1514563566.491171: $GPGGA,160607,3946.9618,N,08404.9820,W,2,11,1.60,321.97,M,-33.324,M,,*71
2017-12-29 11:06:06 1514563566.491236: $GPRMC,160607,A,3946.9618,N,08404.9820,W,0.0000,0.000,291217,,*32
2017-12-29 11:06:06 1514563566.491297: $GPGSA,A,3,10,15,18,20,21,24,27,32,13,8,138,,1.7,1.6,1.3*3E
2017-12-29 11:06:07 1514563567.419410: $GPZDA,160608.00,29,12,2017,00,00*63
2017-12-29 11:06:07 1514563567.419633: $GPGGA,160608,3946.9618,N,08404.9820,W,2,11,1.60,321.97,M,-33.324,M,,*7E
2017-12-29 11:06:07 1514563567.419704: $GPRMC,160608,A,3946.9618,N,08404.9820,W,0.0000,0.000,291217,,*3D
2017-12-29 11:06:07 1514563567.419768: $GPGSA,A,3,10,15,18,20,21,24,27,32,13,8,138,,1.7,1.6,1.3*3E
2017-12-29 11:06:08 1514563568.752633: $GPGSV,3,1,11,10,38,297,42,15,42,051,50,18,68,328,42,20,38,091,48*7D
2017-12-29 11:06:08 1514563568.752868: $GPGSV,3,2,11,21,68,195,46,24,48,118,47,27,19,294,41,32,17,235,38*74
2017-12-29 11:06:08 1514563568.752938: $GPGSV,3,3,11,13,12,048,28,08,04,327,26,138,38,213,46*73
2017-12-29 11:06:08 1514563568.866022: $GPZDA,160609.00,29,12,2017,00,00*62
2017-12-29 11:06:08 1514563568.866163: $GPGGA,160609,3946.9618,N,08404.9820,W,2,11,1.60,321.97,M,-33.324,M,,*7F
2017-12-29 11:06:08 1514563568.866229: $GPRMC,160609,A,3946.9618,N,08404.9820,W,0.0000,0.000,291217,,*3C
2017-12-29 11:06:08 1514563568.866289: $GPGSA,A,3,10,15,18,20,21,24,27,32,13,8,138,,1.7,1.6,1.3*3E
2017-12-29 11:06:09 1514563569.416875: $GPZDA,160610.00,29,12,2017,00,00*6A
2017-12-29 11:06:09 1514563569.417024: $GPGGA,160610,3946.9618,N,08404.9820,W,2,11,1.60,321.97,M,-33.324,M,,*77
2017-12-29 11:06:09 1514563569.417089: $GPRMC,160610,A,3946.9618,N,08404.9820,W,0.0000,0.000,291217,,*34
2017-12-29 11:06:09 1514563569.417149: $GPGSA,A,3,10,15,18,20,21,24,27,32,13,8,138,,1.7,1.6,1.3*3E
2017-12-29 11:06:10 1514563570.417805: $GPZDA,160611.00,29,12,2017,00,00*6B
2017-12-29 11:06:10 1514563570.417971: $GPGGA,160611,3946.9618,N,08404.9820,W,2,11,1.60,321.97,M,-33.324,M,,*76
2017-12-29 11:06:10 1514563570.418037: $GPRMC,160611,A,3946.9618,N,08404.9820,W,0.0000,0.000,291217,,*35
2017-12-29 11:06:10 1514563570.418097: $GPGSA,A,3,10,15,18,20,21,24,27,32,13,8,138,,1.7,1.6,1.3*3E
2017-12-29 11:06:11 1514563571.754246: $GPGSV,3,1,11,10,38,297,42,15,42,051,50,18,68,328,42,20,38,091,48*7D
2017-12-29 11:06:11 1514563571.754441: $GPGSV,3,2,11,21,68,195,46,24,48,118,47,27,19,294,41,32,17,235,37*7B
2017-12-29 11:06:11 1514563571.754508: $GPGSV,3,3,11,13,12,048,28,08,04,327,27,138,38,213,45*71
2017-12-29 11:06:11 1514563571.867639: $GPZDA,160612.00,29,12,2017,00,00*68
2017-12-29 11:06:11 1514563571.867779: $GPGGA,160612,3946.9618,N,08404.9820,W,2,11,1.60,321.97,M,-33.324,M,,*75
2017-12-29 11:06:11 1514563571.867844: $GPRMC,160612,A,3946.9618,N,08404.9820,W,0.0000,0.000,291217,,*36
2017-12-29 11:06:11 1514563571.867904: $GPGSA,A,3,10,15,18,20,21,24,27,32,13,8,138,,1.7,1.6,1.3*3E
2017-12-29 11:06:12 1514563572.417223: $GPZDA,160613.00,29,12,2017,00,00*69
2017-12-29 11:06:12 1514563572.417374: $GPGGA,160613,3946.9618,N,08404.9820,W,2,11,1.60,321.97,M,-33.324,M,,*74
2017-12-29 11:06:12 1514563572.417463: $GPRMC,160613,A,3946.9618,N,08404.9820,W,0.0000,0.000,291217,,*37
2017-12-29 11:06:12 1514563572.417550: $GPGSA,A,3,10,15,18,20,21,24,27,32,13,8,138,,1.7,1.6,1.3*3E
2017-12-29 11:06:13 1514563573.416912: $GPZDA,160614.00,29,12,2017,00,00*6E
2017-12-29 11:06:13 1514563573.417088: $GPGGA,160614,3946.9617,N,08404.9819,W,2,11,1.60,320.57,M,-33.324,M,,*7B
2017-12-29 11:06:13 1514563573.417158: $GPRMC,160614,A,3946.9617,N,08404.9819,W,0.5951,58.684,291217,,*0A
2017-12-29 11:06:13 1514563573.417221: $GPGSA,A,3,10,15,18,20,21,24,27,32,13,8,138,,1.7,1.6,1.3*3E
2017-12-29 11:06:14 1514563574.753845: $GPGSV,3,1,11,10,38,297,42,15,42,051,50,18,68,328,42,20,38,091,49*7C
2017-12-29 11:06:14 1514563574.754021: $GPGSV,3,2,11,21,68,195,46,24,48,118,48,27,19,294,41,32,17,235,37*74
2017-12-29 11:06:14 1514563574.754089: $GPGSV,3,3,11,13,12,048,28,08,04,327,28,138,38,213,45*7E
2017-12-29 11:06:14 1514563574.867227: $GPZDA,160615.00,29,12,2017,00,00*6F
2017-12-29 11:06:14 1514563574.867362: $GPGGA,160615,3946.9617,N,08404.9819,W,2,11,1.60,320.57,M,-33.324,M,,*7A
2017-12-29 11:06:14 1514563574.867449: $GPRMC,160615,A,3946.9617,N,08404.9819,W,0.0000,0.000,291217,,*34
2017-12-29 11:06:14 1514563574.867513: $GPGSA,A,3,10,15,18,20,21,24,27,32,13,8,138,,1.7,1.6,1.3*3E
2017-12-29 11:06:15 1514563575.418076: $GPZDA,160616.00,29,12,2017,00,00*6C
2017-12-29 11:06:15 1514563575.418232: $GPGGA,160616,3946.9617,N,08404.9819,W,2,11,1.60,320.57,M,-33.324,M,,*79
2017-12-29 11:06:15 1514563575.418301: $GPRMC,160616,A,3946.9617,N,08404.9819,W,0.4207,39.346,291217,,*0D
2017-12-29 11:06:15 1514563575.418364: $GPGSA,A,3,10,15,18,20,21,24,27,32,13,8,138,,1.7,1.6,1.3*3E
2017-12-29 11:06:16 1514563576.417257: $GPZDA,160617.00,29,12,2017,00,00*6D
2017-12-29 11:06:16 1514563576.417492: $GPGGA,160617,3946.9609,N,08404.9812,W,2,11,1.60,319.37,M,-33.324,M,,*70
2017-12-29 11:06:16 1514563576.417589: $GPRMC,160617,A,3946.9609,N,08404.9812,W,0.0000,0.000,291217,,*32
2017-12-29 11:06:16 1514563576.417651: $GPGSA,A,3,10,15,18,20,21,24,27,32,13,8,138,,1.7,1.6,1.3*3E
2017-12-29 11:06:17 1514563577.752966: $GPGSV,3,1,11,10,38,297,43,15,42,051,49,18,68,328,42,20,38,091,48*74
2017-12-29 11:06:17 1514563577.753140: $GPGSV,3,2,11,21,68,195,46,24,48,118,47,27,19,294,41,32,17,235,37*7B
2017-12-29 11:06:17 1514563577.753205: $GPGSV,3,3,11,13,12,048,29,08,04,327,28,138,38,213,44*7E
2017-12-29 11:06:17 1514563577.866345: $GPZDA,160618.00,29,12,2017,00,00*62
2017-12-29 11:06:17 1514563577.866495: $GPGGA,160618,3946.9609,N,08404.9812,W,2,11,1.60,319.37,M,-33.324,M,,*7F
2017-12-29 11:06:17 1514563577.866576: $GPRMC,160618,A,3946.9609,N,08404.9812,W,0.0000,0.000,291217,,*3D
2017-12-29 11:06:17 1514563577.866638: $GPGSA,A,3,10,15,18,20,21,24,27,32,13,8,138,,1.7,1.6,1.3*3E
2017-12-29 11:06:18 1514563578.418437: $GPZDA,160619.00,29,12,2017,00,00*63
2017-12-29 11:06:18 1514563578.418588: $GPGGA,160619,3946.9609,N,08404.9812,W,2,11,1.60,319.37,M,-33.324,M,,*7E
2017-12-29 11:06:18 1514563578.418654: $GPRMC,160619,A,3946.9609,N,08404.9812,W,0.0000,0.000,291217,,*3C
2017-12-29 11:06:18 1514563578.418714: $GPGSA,A,3,10,15,18,20,21,24,27,32,13,8,138,,1.7,1.6,1.3*3E
2017-12-29 11:06:19 1514563579.418098: $GPZDA,160620.00,29,12,2017,00,00*69
2017-12-29 11:06:19 1514563579.420204: $GPGGA,160620,3946.9609,N,08404.9812,W,2,11,1.60,319.37,M,-33.324,M,,*74
2017-12-29 11:06:19 1514563579.420302: $GPRMC,160620,A,3946.9609,N,08404.9812,W,0.0000,0.000,291217,,*36
2017-12-29 11:06:19 1514563579.420382: $GPGSA,A,3,10,15,18,20,21,24,27,32,13,8,138,,1.7,1.6,1.3*3E
