2017-11-15 19:44:50 1510793090.274672: {"class":"VERSION","release":"3.17","rev":"3.17","proto_major":3,"proto_minor":12}
2017-11-15 19:44:50 1510793090.275118: {"class":"DEVICES","devices":[{"class":"DEVICE","path":"/dev/ttyUSB0","driver":"SiRF","subtype":"9\u0006GSD4e_4.1.2-P1_RPATCH.05-F-GPS-4R-1510281 11/03/2015 307","activated":"2017-11-16T00:44:50.217Z","flags":1,"native":1,"bps":4800,"parity":"N","stopbits":1,"cycle":1.00}]}
2017-11-15 19:44:50 1510793090.275240: {"class":"WATCH","enable":true,"json":false,"nmea":true,"raw":0,"scaled":false,"timing":false,"split24":false,"pps":false}
2017-11-15 19:44:50 1510793090.329405: $GPZDA,004449.00,16,11,2017,00,00*68
2017-11-15 19:44:50 1510793090.329550: $GPGGA,004449,3946.9689,N,08404.9537,W,1,08,1.20,343.64,M,-33.324,M,,*7E
2017-11-15 19:44:50 1510793090.329609: $GPRMC,004449,A,3946.9689,N,08404.9537,W,0.2422,273.794,161117,,*3F
2017-11-15 19:44:50 1510793090.329665: $GPGSA,A,3,32,16,22,26,14,31,23,3,,,,,3.4,1.2,2.9*0A
2017-11-15 19:44:51 1510793091.682199: $GPGSV,3,1,11,32,30,114,18,16,30,190,25,22,50,259,20,26,61,169,24*7D
2017-11-15 19:44:51 1510793091.682373: $GPGSV,3,2,11,14,49,102,24,31,62,034,11,29,12,064,00,23,16,303,09*71
2017-11-15 19:44:51 1510793091.682432: $GPGSV,3,3,11,03,43,291,18,25,11,039,00,01,01,247,00*42
2017-11-15 19:44:51 1510793091.795670: $GPZDA,004450.00,16,11,2017,00,00*60
2017-11-15 19:44:51 1510793091.795846: $GPGGA,004450,3946.9694,N,08404.9544,W,1,08,1.20,344.20,M,-33.324,M,,*79
2017-11-15 19:44:51 1510793091.795907: $GPRMC,004450,A,3946.9694,N,08404.9544,W,0.3423,4.197,161117,,*38
2017-11-15 19:44:51 1510793091.795961: $GPGSA,A,3,32,16,22,26,14,31,23,3,,,,,3.4,1.2,2.9*0A
2017-11-15 19:44:52 1510793092.328918: $GPZDA,004451.00,16,11,2017,00,00*61
2017-11-15 19:44:52 1510793092.329079: $GPGGA,004451,3946.9694,N,08404.9544,W,1,08,1.20,344.20,M,-33.324,M,,*78
2017-11-15 19:44:52 1510793092.329140: $GPRMC,004451,A,3946.9694,N,08404.9544,W,0.3423,4.197,161117,,*39
2017-11-15 19:44:52 1510793092.329195: $GPGSA,A,3,32,16,22,26,14,31,23,3,,,,,3.4,1.2,2.9*0A
2017-11-15 19:44:53 1510793093.346035: $GPZDA,004452.00,16,11,2017,00,00*62
2017-11-15 19:44:53 1510793093.346199: $GPGGA,004452,3946.9694,N,08404.9544,W,1,08,1.40,344.20,M,-33.324,M,,*7D
2017-11-15 19:44:53 1510793093.346260: $GPRMC,004452,A,3946.9694,N,08404.9544,W,0.2422,93.794,161117,,*01
2017-11-15 19:44:53 1510793093.346316: $GPGSA,A,3,32,16,22,26,14,31,23,3,,,,,3.4,1.4,2.9*0C
2017-11-15 19:44:54 1510793094.666839: $GPGSV,3,1,11,32,30,114,18,16,30,190,25,22,50,259,20,26,61,169,24*7D
2017-11-15 19:44:54 1510793094.667017: $GPGSV,3,2,11,14,49,102,23,31,62,034,11,29,12,064,00,23,16,303,07*78
2017-11-15 19:44:54 1510793094.667077: $GPGSV,3,3,11,03,43,291,17,25,11,039,00,01,01,247,00*4D
2017-11-15 19:44:54 1510793094.780085: $GPZDA,004453.00,16,11,2017,00,00*63
2017-11-15 19:44:54 1510793094.780210: $GPGGA,004453,3946.9694,N,08404.9544,W,1,08,1.40,344.20,M,-33.324,M,,*7C
2017-11-15 19:44:54 1510793094.780270: $GPRMC,004453,A,3946.9694,N,08404.9544,W,0.8414,39.347,161117,,*05
2017-11-15 19:44:54 1510793094.780325: $GPGSA,A,3,32,16,22,26,14,31,23,3,,,,,3.4,1.4,2.9*0C
2017-11-15 19:44:55 1510793095.329692: $GPZDA,004454.00,16,11,2017,00,00*64
2017-11-15 19:44:55 1510793095.329865: $GPGGA,004454,3946.9694,N,08404.9544,W,1,08,1.20,344.20,M,-33.324,M,,*7D
2017-11-15 19:44:55 1510793095.329927: $GPRMC,004454,A,3946.9694,N,08404.9544,W,0.6846,4.197,161117,,*36
2017-11-15 19:44:55 1510793095.329984: $GPGSA,A,3,32,16,22,26,14,31,23,3,,,,,3.4,1.2,2.9*0A
2017-11-15 19:44:56 1510793096.345365: $GPZDA,004455.00,16,11,2017,00,00*65
2017-11-15 19:44:56 1510793096.345525: $GPGGA,004455,3946.9698,N,08404.9544,W,1,08,1.20,344.84,M,-33.324,M,,*7E
2017-11-15 19:44:56 1510793096.345585: $GPRMC,004455,A,3946.9698,N,08404.9544,W,0.5774,27.515,161117,,*09
2017-11-15 19:44:56 1510793096.345640: $GPGSA,A,3,32,16,22,26,14,31,23,3,,,,,3.4,1.2,2.9*0A
2017-11-15 19:44:57 1510793097.680928: $GPGSV,3,1,11,32,30,114,18,16,30,190,25,22,50,259,20,26,61,169,24*7D
2017-11-15 19:44:57 1510793097.681101: $GPGSV,3,2,11,14,49,102,23,31,62,034,12,29,12,064,00,23,16,303,08*74
2017-11-15 19:44:57 1510793097.681212: $GPGSV,3,3,11,03,43,291,17,25,11,039,00,01,01,247,00*4D
2017-11-15 19:44:57 1510793097.794283: $GPZDA,004456.00,16,11,2017,00,00*66
2017-11-15 19:44:57 1510793097.794440: $GPGGA,004456,3946.9698,N,08404.9544,W,1,08,1.20,344.84,M,-33.324,M,,*7D
2017-11-15 19:44:57 1510793097.794500: $GPRMC,004456,A,3946.9698,N,08404.9544,W,0.0000,0.000,161117,,*3F
2017-11-15 19:44:57 1510793097.794555: $GPGSA,A,3,32,16,22,26,14,31,23,3,,,,,3.4,1.2,2.9*0A
2017-11-15 19:44:58 1510793098.345698: $GPZDA,004457.00,16,11,2017,00,00*67
2017-11-15 19:44:58 1510793098.345876: $GPGGA,004457,3946.9698,N,08404.9551,W,1,08,1.20,344.76,M,-33.324,M,,*75
2017-11-15 19:44:58 1510793098.345937: $GPRMC,004457,A,3946.9698,N,08404.9551,W,0.2758,128.233,161117,,*3B
2017-11-15 19:44:58 1510793098.345994: $GPGSA,A,3,32,16,22,26,14,31,23,3,,,,,3.4,1.2,2.9*0A
2017-11-15 19:44:59 1510793099.328776: $GPZDA,004458.00,16,11,2017,00,00*68
2017-11-15 19:44:59 1510793099.331915: $GPGGA,004458,3946.9695,N,08404.9552,W,1,08,1.40,345.52,M,-33.324,M,,*75
2017-11-15 19:44:59 1510793099.332012: $GPRMC,004458,A,3946.9695,N,08404.9552,W,0.4844,93.794,161117,,*07
2017-11-15 19:44:59 1510793099.332070: $GPGSA,A,3,32,16,22,26,14,31,23,3,,,,,3.4,1.4,2.9*0C
