2017-12-01 17:44:13 1512168253.102968: {"class":"VERSION","release":"3.16","rev":"3.16-4","proto_major":3,"proto_minor":11}
2017-12-01 17:44:13 1512168253.103358: {"class":"DEVICES","devices":[{"class":"DEVICE","path":"/dev/ttyUSB0","driver":"SiRF","subtype":"9\u0006GSD4e_4.1.2-P1_RPATCH.05-F-GPS-4R-1510281 11/03/2015 307","activated":"2017-12-01T22:44:12.559Z","flags":1,"native":1,"bps":4800,"parity":"N","stopbits":1,"cycle":1.00}]}
2017-12-01 17:44:13 1512168253.103485: {"class":"WATCH","enable":true,"json":false,"nmea":true,"raw":0,"scaled":false,"timing":false,"split24":false,"pps":false}
2017-12-01 17:44:13 1512168253.417852: $GPZDA,224414.00,01,12,2017,00,00*65
2017-12-01 17:44:13 1512168253.418027: $GPGGA,224414,3946.9731,N,08404.9846,W,2,12,0.80,298.36,M,-33.325,M,,*7D
2017-12-01 17:44:13 1512168253.418094: $GPRMC,224414,A,3946.9731,N,08404.9846,W,0.0000,0.000,011217,,*31
2017-12-01 17:44:13 1512168253.418157: $GPGSA,A,3,1,3,10,14,22,25,26,29,31,32,16,138,2.0,0.8,1.5*0C
2017-12-01 17:44:14 1512168254.760465: $GPGSV,3,1,12,01,15,267,43,03,27,312,45,10,14,157,44,14,66,058,41*74
2017-12-01 17:44:14 1512168254.760628: $GPGSV,3,2,12,22,44,295,46,25,31,049,43,26,34,177,45,29,03,088,37*77
2017-12-01 17:44:14 1512168254.760695: $GPGSV,3,3,12,31,79,330,46,32,49,090,46,16,06,190,18,138,38,213,45*43
2017-12-01 17:44:14 1512168254.873834: $GPZDA,224415.00,01,12,2017,00,00*64
2017-12-01 17:44:14 1512168254.874007: $GPGGA,224415,3946.9731,N,08404.9846,W,2,12,0.80,298.36,M,-33.325,M,,*7C
2017-12-01 17:44:14 1512168254.874072: $GPRMC,224415,A,3946.9731,N,08404.9846,W,0.0000,0.000,011217,,*30
2017-12-01 17:44:14 1512168254.874137: $GPGSA,A,3,1,3,10,14,22,25,26,29,31,32,16,138,2.0,0.8,1.5*0C
2017-12-01 17:44:15 1512168255.423441: $GPZDA,224416.00,01,12,2017,00,00*67
2017-12-01 17:44:15 1512168255.423616: $GPGGA,224416,3946.9731,N,08404.9846,W,2,12,0.80,298.36,M,-33.325,M,,*7F
2017-12-01 17:44:15 1512168255.423684: $GPRMC,224416,A,3946.9731,N,08404.9846,W,0.0000,0.000,011217,,*33
2017-12-01 17:44:15 1512168255.423747: $GPGSA,A,3,1,3,10,14,22,25,26,29,31,32,16,138,2.0,0.8,1.5*0C
2017-12-01 17:44:16 1512168256.424313: $GPZDA,224417.00,01,12,2017,00,00*66
2017-12-01 17:44:16 1512168256.424507: $GPGGA,224417,3946.9731,N,08404.9846,W,2,12,0.80,298.36,M,-33.325,M,,*7E
2017-12-01 17:44:16 1512168256.424576: $GPRMC,224417,A,3946.9731,N,08404.9846,W,0.0000,0.000,011217,,*32
2017-12-01 17:44:16 1512168256.424637: $GPGSA,A,3,1,3,10,14,22,25,26,29,31,32,16,138,2.0,0.8,1.5*0C
2017-12-01 17:44:17 1512168257.781399: $GPGSV,3,1,12,01,15,267,43,03,27,312,45,10,14,157,44,14,66,058,41*74
2017-12-01 17:44:17 1512168257.781581: $GPGSV,3,2,12,22,44,295,47,25,31,049,43,26,34,177,44,29,03,088,36*76
2017-12-01 17:44:17 1512168257.781647: $GPGSV,3,3,12,31,79,330,46,32,49,090,46,16,06,190,18,138,38,213,45*43
2017-12-01 17:44:17 1512168257.894914: $GPZDA,224418.00,01,12,2017,00,00*69
2017-12-01 17:44:17 1512168257.895093: $GPGGA,224418,3946.9731,N,08404.9846,W,2,12,0.80,298.36,M,-33.325,M,,*71
2017-12-01 17:44:17 1512168257.895160: $GPRMC,224418,A,3946.9731,N,08404.9846,W,0.0000,0.000,011217,,*3D
2017-12-01 17:44:17 1512168257.895221: $GPGSA,A,3,1,3,10,14,22,25,26,29,31,32,16,138,2.0,0.8,1.5*0C
2017-12-01 17:44:18 1512168258.425291: $GPZDA,224419.00,01,12,2017,00,00*68
2017-12-01 17:44:18 1512168258.425464: $GPGGA,224419,3946.9731,N,08404.9846,W,2,12,0.80,298.36,M,-33.325,M,,*70
2017-12-01 17:44:18 1512168258.425531: $GPRMC,224419,A,3946.9731,N,08404.9846,W,0.0000,0.000,011217,,*3C
2017-12-01 17:44:18 1512168258.425593: $GPGSA,A,3,1,3,10,14,22,25,26,29,31,32,16,138,2.0,0.8,1.5*0C
2017-12-01 17:44:19 1512168259.441225: $GPZDA,224420.00,01,12,2017,00,00*62
2017-12-01 17:44:19 1512168259.441489: $GPGGA,224420,3946.9731,N,08404.9846,W,2,12,0.80,298.36,M,-33.325,M,,*7A
2017-12-01 17:44:19 1512168259.441571: $GPRMC,224420,A,3946.9731,N,08404.9846,W,0.0000,0.000,011217,,*36
2017-12-01 17:44:19 1512168259.441645: $GPGSA,A,3,1,3,10,14,22,25,26,29,31,32,16,138,2.0,0.8,1.5*0C
2017-12-01 17:44:20 1512168260.781827: $GPGSV,3,1,12,01,15,267,43,03,27,312,45,10,14,157,44,14,66,058,40*75
2017-12-01 17:44:20 1512168260.782084: $GPGSV,3,2,12,22,44,295,47,25,31,049,43,26,34,177,45,29,03,088,36*77
2017-12-01 17:44:20 1512168260.782162: $GPGSV,3,3,12,31,79,330,46,32,49,090,45,16,06,190,24,138,38,213,45*4F
2017-12-01 17:44:20 1512168260.895351: $GPZDA,224421.00,01,12,2017,00,00*63
2017-12-01 17:44:20 1512168260.895520: $GPGGA,224421,3946.9731,N,08404.9846,W,2,12,0.80,298.36,M,-33.325,M,,*7B
2017-12-01 17:44:20 1512168260.895587: $GPRMC,224421,A,3946.9731,N,08404.9846,W,0.0000,0.000,011217,,*37
2017-12-01 17:44:20 1512168260.895648: $GPGSA,A,3,1,3,10,14,22,25,26,29,31,32,16,138,2.0,0.8,1.5*0C
2017-12-01 17:44:21 1512168261.444819: $GPZDA,224422.00,01,12,2017,00,00*60
2017-12-01 17:44:21 1512168261.444991: $GPGGA,224422,3946.9731,N,08404.9846,W,2,12,0.80,298.36,M,-33.325,M,,*78
2017-12-01 17:44:21 1512168261.445062: $GPRMC,224422,A,3946.9731,N,08404.9846,W,0.0000,0.000,011217,,*34
2017-12-01 17:44:21 1512168261.445124: $GPGSA,A,3,1,3,10,14,22,25,26,29,31,32,16,138,2.0,0.8,1.5*0C
2017-12-01 17:44:22 1512168262.448227: $GPZDA,224423.00,01,12,2017,00,00*61
2017-12-01 17:44:22 1512168262.448396: $GPGGA,224423,3946.9731,N,08404.9846,W,2,12,0.80,298.36,M,-33.325,M,,*79
2017-12-01 17:44:22 1512168262.448463: $GPRMC,224423,A,3946.9731,N,08404.9846,W,0.0000,0.000,011217,,*35
2017-12-01 17:44:22 1512168262.448525: $GPGSA,A,3,1,3,10,14,22,25,26,29,31,32,16,138,2.0,0.8,1.5*0C
2017-12-01 17:44:23 1512168263.761313: $GPGSV,3,1,12,01,15,267,43,03,27,312,45,10,14,157,44,14,66,058,41*74
2017-12-01 17:44:23 1512168263.761529: $GPGSV,3,2,12,22,44,295,47,25,31,049,43,26,34,177,45,29,03,088,36*77
2017-12-01 17:44:23 1512168263.761598: $GPGSV,3,3,12,31,79,330,46,32,49,090,45,16,06,190,15,138,38,213,46*4E
2017-12-01 17:44:23 1512168263.874659: $GPZDA,224424.00,01,12,2017,00,00*66
2017-12-01 17:44:23 1512168263.874793: $GPGGA,224424,3946.9731,N,08404.9846,W,2,12,0.80,298.36,M,-33.325,M,,*7E
2017-12-01 17:44:23 1512168263.874860: $GPRMC,224424,A,3946.9731,N,08404.9846,W,0.0000,0.000,011217,,*32
2017-12-01 17:44:23 1512168263.874920: $GPGSA,A,3,1,3,10,14,22,25,26,29,31,32,16,138,2.0,0.8,1.5*0C
2017-12-01 17:44:24 1512168264.500068: $GPZDA,224425.00,01,12,2017,00,00*67
2017-12-01 17:44:24 1512168264.500258: $GPGGA,224425,3946.9731,N,08404.9846,W,2,12,0.80,298.36,M,-33.325,M,,*7F
2017-12-01 17:44:24 1512168264.500327: $GPRMC,224425,A,3946.9731,N,08404.9846,W,0.0000,0.000,011217,,*33
2017-12-01 17:44:24 1512168264.500388: $GPGSA,A,3,1,3,10,14,22,25,26,29,31,32,16,138,2.0,0.8,1.5*0C
2017-12-01 17:44:25 1512168265.424665: $GPZDA,224426.00,01,12,2017,00,00*64
2017-12-01 17:44:25 1512168265.424849: $GPGGA,224426,3946.9731,N,08404.9846,W,2,12,0.80,298.36,M,-33.325,M,,*7C
2017-12-01 17:44:25 1512168265.424916: $GPRMC,224426,A,3946.9731,N,08404.9846,W,0.0000,0.000,011217,,*30
2017-12-01 17:44:25 1512168265.424983: $GPGSA,A,3,1,3,10,14,22,25,26,29,31,32,16,138,2.0,0.8,1.5*0C
2017-12-01 17:44:26 1512168266.783222: $GPGSV,3,1,12,01,15,267,43,03,27,312,45,10,14,157,44,14,66,058,41*74
2017-12-01 17:44:26 1512168266.783401: $GPGSV,3,2,12,22,44,295,47,25,31,049,43,26,34,177,45,29,03,088,37*76
2017-12-01 17:44:26 1512168266.783469: $GPGSV,3,3,12,31,79,330,46,32,49,090,45,16,06,190,18,138,38,213,46*43
2017-12-01 17:44:26 1512168266.896290: $GPZDA,224427.00,01,12,2017,00,00*65
2017-12-01 17:44:26 1512168266.896458: $GPGGA,224427,3946.9731,N,08404.9846,W,2,12,0.80,298.36,M,-33.325,M,,*7D
2017-12-01 17:44:26 1512168266.896525: $GPRMC,224427,A,3946.9731,N,08404.9846,W,0.0000,0.000,011217,,*31
2017-12-01 17:44:26 1512168266.896585: $GPGSA,A,3,1,3,10,14,22,25,26,29,31,32,16,138,2.0,0.8,1.5*0C
2017-12-01 17:44:27 1512168267.424666: $GPZDA,224428.00,01,12,2017,00,00*6A
2017-12-01 17:44:27 1512168267.424838: $GPGGA,224428,3946.9731,N,08404.9846,W,2,12,0.80,298.36,M,-33.325,M,,*72
2017-12-01 17:44:27 1512168267.424904: $GPRMC,224428,A,3946.9731,N,08404.9846,W,0.0000,0.000,011217,,*3E
2017-12-01 17:44:27 1512168267.424965: $GPGSA,A,3,1,3,10,14,22,25,26,29,31,32,16,138,2.0,0.8,1.5*0C
2017-12-01 17:44:28 1512168268.446853: $GPZDA,224429.00,01,12,2017,00,00*6B
2017-12-01 17:44:28 1512168268.447026: $GPGGA,224429,3946.9731,N,08404.9846,W,2,12,0.80,298.36,M,-33.325,M,,*73
2017-12-01 17:44:28 1512168268.447093: $GPRMC,224429,A,3946.9731,N,08404.9846,W,0.0000,0.000,011217,,*3F
2017-12-01 17:44:28 1512168268.447153: $GPGSA,A,3,1,3,10,14,22,25,26,29,31,32,16,138,2.0,0.8,1.5*0C
2017-12-01 17:44:29 1512168269.759601: $GPGSV,3,1,12,01,15,267,42,03,27,312,45,10,14,157,44,14,66,058,41*75
2017-12-01 17:44:29 1512168269.759785: $GPGSV,3,2,12,22,44,295,48,25,31,049,42,26,34,177,45,29,03,088,37*78
2017-12-01 17:44:29 1512168269.759852: $GPGSV,3,3,12,31,79,330,46,32,49,090,46,16,06,190,26,138,38,213,46*4D
2017-12-01 17:44:29 1512168269.873082: $GPZDA,224430.00,01,12,2017,00,00*63
2017-12-01 17:44:29 1512168269.873225: $GPGGA,224430,3946.9731,N,08404.9846,W,2,12,0.80,298.36,M,-33.325,M,,*7B
2017-12-01 17:44:29 1512168269.873292: $GPRMC,224430,A,3946.9731,N,08404.9846,W,0.0000,0.000,011217,,*37
2017-12-01 17:44:29 1512168269.873352: $GPGSA,A,3,1,3,10,14,22,25,26,29,31,32,16,138,2.0,0.8,1.5*0C
2017-12-01 17:44:30 1512168270.447700: $GPZDA,224431.00,01,12,2017,00,00*62
2017-12-01 17:44:30 1512168270.447857: $GPGGA,224431,3946.9731,N,08404.9846,W,2,12,0.80,298.36,M,-33.325,M,,*7A
2017-12-01 17:44:30 1512168270.447925: $GPRMC,224431,A,3946.9731,N,08404.9846,W,0.0000,0.000,011217,,*36
2017-12-01 17:44:30 1512168270.447986: $GPGSA,A,3,1,3,10,14,22,25,26,29,31,32,16,138,2.0,0.8,1.5*0C
2017-12-01 17:44:31 1512168271.447229: $GPZDA,224432.00,01,12,2017,00,00*61
2017-12-01 17:44:31 1512168271.447395: $GPGGA,224432,3946.9731,N,08404.9846,W,2,12,0.80,298.36,M,-33.325,M,,*79
2017-12-01 17:44:31 1512168271.447461: $GPRMC,224432,A,3946.9731,N,08404.9846,W,0.0000,0.000,011217,,*35
2017-12-01 17:44:31 1512168271.447522: $GPGSA,A,3,1,3,10,14,22,25,26,29,31,32,16,138,2.0,0.8,1.5*0C
2017-12-01 17:44:32 1512168272.782979: $GPGSV,3,1,12,01,15,267,42,03,27,312,45,10,14,157,44,14,66,058,41*75
2017-12-01 17:44:32 1512168272.783164: $GPGSV,3,2,12,22,44,295,48,25,31,049,42,26,34,177,45,29,03,088,38*77
2017-12-01 17:44:32 1512168272.783231: $GPGSV,3,3,12,31,79,330,47,32,49,090,45,16,06,190,26,138,38,213,45*4C
2017-12-01 17:44:32 1512168272.896930: $GPZDA,224433.00,01,12,2017,00,00*60
2017-12-01 17:44:32 1512168272.897121: $GPGGA,224433,3946.9731,N,08404.9846,W,2,12,0.80,298.36,M,-33.325,M,,*78
2017-12-01 17:44:32 1512168272.897188: $GPRMC,224433,A,3946.9731,N,08404.9846,W,0.0000,0.000,011217,,*34
2017-12-01 17:44:32 1512168272.897248: $GPGSA,A,3,1,3,10,14,22,25,26,29,31,32,16,138,2.0,0.8,1.5*0C
