2017-11-16 17:30:01 1510871401.621744: {"class":"VERSION","release":"3.17","rev":"3.17","proto_major":3,"proto_minor":12}
2017-11-16 17:30:01 1510871401.622227: {"class":"DEVICES","devices":[{"class":"DEVICE","path":"/dev/ttyUSB0","driver":"SiRF","subtype":"9\u0006GSD4e_4.1.2-P1_RPATCH.05-F-GPS-4R-1510281 11/03/2015 307","activated":"2017-11-16T22:30:01.615Z","flags":1,"native":1,"bps":4800,"parity":"N","stopbits":1,"cycle":1.00}]}
2017-11-16 17:30:01 1510871401.622353: {"class":"WATCH","enable":true,"json":false,"nmea":true,"raw":0,"scaled":false,"timing":false,"split24":false,"pps":false}
2017-11-16 17:30:02 1510871402.395988: $GPZDA,223001.00,16,11,2017,00,00*67
2017-11-16 17:30:02 1510871402.396154: $GPGGA,223001,3946.9573,N,08404.9836,W,2,11,0.80,305.51,M,-33.324,M,,*7F
2017-11-16 17:30:02 1510871402.396215: $GPRMC,223001,A,3946.9573,N,08404.9836,W,0.0000,0.000,161117,,*30
2017-11-16 17:30:02 1510871402.396271: $GPGSA,A,3,1,10,22,12,14,18,11,25,31,32,138,,1.6,0.8,1.3*3E
2017-11-16 17:30:03 1510871403.754243: $GPGSV,3,1,11,01,21,303,36,10,50,147,50,22,17,312,44,12,23,051,50*7A
2017-11-16 17:30:03 1510871403.754412: $GPGSV,3,2,11,14,65,324,48,18,20,144,40,11,09,283,41,25,39,093,48*77
2017-11-16 17:30:03 1510871403.754489: $GPGSV,3,3,11,31,53,223,48,32,69,022,49,138,38,213,45*71
2017-11-16 17:30:03 1510871403.867553: $GPZDA,223002.00,16,11,2017,00,00*64
2017-11-16 17:30:03 1510871403.867755: $GPGGA,223002,3946.9573,N,08404.9836,W,2,11,0.80,305.51,M,-33.324,M,,*7C
2017-11-16 17:30:03 1510871403.867817: $GPRMC,223002,A,3946.9573,N,08404.9836,W,0.0000,0.000,161117,,*33
2017-11-16 17:30:03 1510871403.867874: $GPGSA,A,3,1,10,22,12,14,18,11,25,31,32,138,,1.6,0.8,1.3*3E
2017-11-16 17:30:04 1510871404.402180: $GPZDA,223003.00,16,11,2017,00,00*65
2017-11-16 17:30:04 1510871404.402344: $GPGGA,223003,3946.9573,N,08404.9836,W,2,11,0.80,305.51,M,-33.324,M,,*7D
2017-11-16 17:30:04 1510871404.402404: $GPRMC,223003,A,3946.9573,N,08404.9836,W,0.0000,0.000,161117,,*32
2017-11-16 17:30:04 1510871404.402460: $GPGSA,A,3,1,10,22,12,14,18,11,25,31,32,138,,1.6,0.8,1.3*3E
2017-11-16 17:30:05 1510871405.424291: $GPZDA,223004.00,16,11,2017,00,00*62
2017-11-16 17:30:05 1510871405.424473: $GPGGA,223004,3946.9573,N,08404.9836,W,2,11,0.80,305.51,M,-33.324,M,,*7A
2017-11-16 17:30:05 1510871405.424535: $GPRMC,223004,A,3946.9573,N,08404.9836,W,0.0000,0.000,161117,,*35
2017-11-16 17:30:05 1510871405.424591: $GPGSA,A,3,1,10,22,12,14,18,11,25,31,32,138,,1.6,0.8,1.3*3E
2017-11-16 17:30:06 1510871406.760955: $GPGSV,3,1,11,01,21,303,36,10,50,147,50,22,17,312,44,12,23,051,50*7A
2017-11-16 17:30:06 1510871406.761172: $GPGSV,3,2,11,14,65,324,48,18,20,144,40,11,09,283,42,25,39,093,48*74
2017-11-16 17:30:06 1510871406.761238: $GPGSV,3,3,11,31,53,223,48,32,69,022,49,138,38,213,44*70
2017-11-16 17:30:06 1510871406.873259: $GPZDA,223005.00,16,11,2017,00,00*63
2017-11-16 17:30:06 1510871406.873419: $GPGGA,223005,3946.9573,N,08404.9836,W,2,11,0.80,305.51,M,-33.324,M,,*7B
2017-11-16 17:30:06 1510871406.873481: $GPRMC,223005,A,3946.9573,N,08404.9836,W,0.0000,0.000,161117,,*34
2017-11-16 17:30:06 1510871406.873540: $GPGSA,A,3,1,10,22,12,14,18,11,25,31,32,138,,1.6,0.8,1.3*3E
2017-11-16 17:30:07 1510871407.424118: $GPZDA,223006.00,16,11,2017,00,00*60
2017-11-16 17:30:07 1510871407.424282: $GPGGA,223006,3946.9573,N,08404.9836,W,2,11,0.80,305.51,M,-33.324,M,,*78
2017-11-16 17:30:07 1510871407.424345: $GPRMC,223006,A,3946.9573,N,08404.9836,W,0.0000,0.000,161117,,*37
2017-11-16 17:30:07 1510871407.424421: $GPGSA,A,3,1,10,22,12,14,18,11,25,31,32,138,,1.6,0.8,1.3*3E
2017-11-16 17:30:08 1510871408.424751: $GPZDA,223007.00,16,11,2017,00,00*61
2017-11-16 17:30:08 1510871408.424918: $GPGGA,223007,3946.9573,N,08404.9836,W,2,11,0.80,305.51,M,-33.324,M,,*79
2017-11-16 17:30:08 1510871408.424983: $GPRMC,223007,A,3946.9573,N,08404.9836,W,0.0000,0.000,161117,,*36
2017-11-16 17:30:08 1510871408.425093: $GPGSA,A,3,1,10,22,12,14,18,11,25,31,32,138,,1.6,0.8,1.3*3E
2017-11-16 17:30:09 1510871409.737933: $GPGSV,3,1,11,01,21,303,27,10,50,147,50,22,17,312,44,12,23,051,50*7A
2017-11-16 17:30:09 1510871409.738166: $GPGSV,3,2,11,14,65,324,48,18,20,144,40,11,09,283,41,25,39,093,48*77
2017-11-16 17:30:09 1510871409.738230: $GPGSV,3,3,11,31,53,223,48,32,69,022,49,138,38,213,44*70
2017-11-16 17:30:09 1510871409.851672: $GPZDA,223008.00,16,11,2017,00,00*6E
2017-11-16 17:30:09 1510871409.851866: $GPGGA,223008,3946.9573,N,08404.9836,W,2,11,0.80,305.51,M,-33.324,M,,*76
2017-11-16 17:30:09 1510871409.851928: $GPRMC,223008,A,3946.9573,N,08404.9836,W,0.0000,0.000,161117,,*39
2017-11-16 17:30:09 1510871409.851985: $GPGSA,A,3,1,10,22,12,14,18,11,25,31,32,138,,1.6,0.8,1.3*3E
2017-11-16 17:30:10 1510871410.402515: $GPZDA,223009.00,16,11,2017,00,00*6F
2017-11-16 17:30:10 1510871410.402670: $GPGGA,223009,3946.9573,N,08404.9836,W,2,11,0.80,305.51,M,-33.324,M,,*77
2017-11-16 17:30:10 1510871410.402731: $GPRMC,223009,A,3946.9573,N,08404.9836,W,0.0000,0.000,161117,,*38
2017-11-16 17:30:10 1510871410.402787: $GPGSA,A,3,1,10,22,12,14,18,11,25,31,32,138,,1.6,0.8,1.3*3E
2017-11-16 17:30:11 1510871411.402580: $GPZDA,223010.00,16,11,2017,00,00*67
2017-11-16 17:30:11 1510871411.402740: $GPGGA,223010,3946.9573,N,08404.9836,W,2,11,0.80,305.51,M,-33.324,M,,*7F
2017-11-16 17:30:11 1510871411.402802: $GPRMC,223010,A,3946.9573,N,08404.9836,W,0.0000,0.000,161117,,*30
2017-11-16 17:30:11 1510871411.402858: $GPGSA,A,3,1,10,22,12,14,18,11,25,31,32,138,,1.6,0.8,1.3*3E
