2018-01-11 19:47:17 1515718037.109338: {"class":"VERSION","release":"3.16","rev":"3.16-4","proto_major":3,"proto_minor":11}
2018-01-11 19:47:17 1515718037.109766: {"class":"DEVICES","devices":[{"class":"DEVICE","path":"/dev/ttyUSB0","driver":"SiRF","subtype":"9\u0006GSD4e_4.1.2-P1_RPATCH.05-F-GPS-4R-1510281 11/03/2015 307","activated":"2018-01-12T00:47:16.493Z","flags":1,"native":1,"bps":4800,"parity":"N","stopbits":1,"cycle":1.00}]}
2018-01-11 19:47:17 1515718037.109879: {"class":"WATCH","enable":true,"json":false,"nmea":true,"raw":0,"scaled":false,"timing":false,"split24":false,"pps":false}
2018-01-11 19:47:17 1515718037.351396: $GPZDA,004718.00,12,01,2018,00,00*65
2018-01-11 19:47:17 1515718037.351594: $GPGGA,004718,3946.9571,N,08404.9817,W,2,11,0.80,296.47,M,-33.324,M,,*7A
2018-01-11 19:47:17 1515718037.351660: $GPRMC,004718,A,3946.9571,N,08404.9817,W,0.0000,0.000,120118,,*33
2018-01-11 19:47:17 1515718037.351721: $GPGSA,A,3,7,8,9,16,23,27,11,26,28,30,138,,4.0,0.8,3.5*3A
2018-01-11 19:47:18 1515718038.685085: $GPGSV,3,1,12,07,45,310,40,08,64,156,45,09,54,246,43,16,31,054,47*79
2018-01-11 19:47:18 1515718038.685253: $GPGSV,3,2,12,23,40,193,49,27,55,066,50,11,11,171,33,26,06,066,20*7F
2018-01-11 19:47:18 1515718038.685340: $GPGSV,3,3,12,28,06,250,25,30,20,301,38,21,01,030,00,138,38,213,45*4F
2018-01-11 19:47:18 1515718038.798726: $GPZDA,004719.00,12,01,2018,00,00*64
2018-01-11 19:47:18 1515718038.798862: $GPGGA,004719,3946.9571,N,08404.9817,W,2,11,0.80,296.47,M,-33.324,M,,*7B
2018-01-11 19:47:18 1515718038.798928: $GPRMC,004719,A,3946.9571,N,08404.9817,W,0.0000,0.000,120118,,*32
2018-01-11 19:47:18 1515718038.798988: $GPGSA,A,3,7,8,9,16,23,27,11,26,28,30,138,,4.0,0.8,3.5*3A
2018-01-11 19:47:19 1515718039.351877: $GPZDA,004720.00,12,01,2018,00,00*6E
2018-01-11 19:47:19 1515718039.352059: $GPGGA,004720,3946.9571,N,08404.9817,W,2,11,0.80,296.47,M,-33.324,M,,*71
2018-01-11 19:47:19 1515718039.352126: $GPRMC,004720,A,3946.9571,N,08404.9817,W,0.0000,0.000,120118,,*38
2018-01-11 19:47:19 1515718039.352187: $GPGSA,A,3,7,8,9,16,23,27,11,26,28,30,138,,4.0,0.8,3.5*3A
2018-01-11 19:47:20 1515718040.345232: $GPZDA,004721.00,12,01,2018,00,00*6F
2018-01-11 19:47:20 1515718040.345445: $GPGGA,004721,3946.9571,N,08404.9817,W,2,11,0.80,296.47,M,-33.324,M,,*70
2018-01-11 19:47:20 1515718040.345514: $GPRMC,004721,A,3946.9571,N,08404.9817,W,0.0000,0.000,120118,,*39
2018-01-11 19:47:20 1515718040.345576: $GPGSA,A,3,7,8,9,16,23,27,11,26,28,30,138,,4.0,0.8,3.5*3A
2018-01-11 19:47:21 1515718041.702182: $GPGSV,3,1,12,07,45,310,39,08,64,156,45,09,54,246,43,16,31,054,47*77
2018-01-11 19:47:21 1515718041.702392: $GPGSV,3,2,12,23,40,193,49,27,55,066,50,11,11,171,33,26,06,066,17*7B
2018-01-11 19:47:21 1515718041.702459: $GPGSV,3,3,12,28,06,250,25,30,20,301,38,21,01,030,00,138,38,213,44*4E
2018-01-11 19:47:21 1515718041.815817: $GPZDA,004722.00,12,01,2018,00,00*6C
2018-01-11 19:47:21 1515718041.815951: $GPGGA,004722,3946.9571,N,08404.9817,W,2,11,0.80,296.47,M,-33.324,M,,*73
2018-01-11 19:47:21 1515718041.816016: $GPRMC,004722,A,3946.9571,N,08404.9817,W,0.0000,0.000,120118,,*3A
2018-01-11 19:47:21 1515718041.816076: $GPGSA,A,3,7,8,9,16,23,27,11,26,28,30,138,,4.0,0.8,3.5*3A
2018-01-11 19:47:22 1515718042.365269: $GPZDA,004723.00,12,01,2018,00,00*6D
2018-01-11 19:47:22 1515718042.365436: $GPGGA,004723,3946.9571,N,08404.9817,W,2,11,0.80,296.47,M,-33.324,M,,*72
2018-01-11 19:47:22 1515718042.365505: $GPRMC,004723,A,3946.9571,N,08404.9817,W,0.0000,0.000,120118,,*3B
2018-01-11 19:47:22 1515718042.365566: $GPGSA,A,3,7,8,9,16,23,27,11,26,28,30,138,,4.0,0.8,3.5*3A
2018-01-11 19:47:23 1515718043.376819: $GPZDA,004724.00,12,01,2018,00,00*6A
2018-01-11 19:47:23 1515718043.376996: $GPGGA,004724,3946.9571,N,08404.9817,W,2,11,0.80,296.47,M,-33.324,M,,*75
2018-01-11 19:47:23 1515718043.377062: $GPRMC,004724,A,3946.9571,N,08404.9817,W,0.0000,0.000,120118,,*3C
2018-01-11 19:47:23 1515718043.377124: $GPGSA,A,3,7,8,9,16,23,27,11,26,28,30,138,,4.0,0.8,3.5*3A
2018-01-11 19:47:24 1515718044.697550: $GPGSV,3,1,12,07,45,310,39,08,64,156,45,09,54,246,43,16,31,054,47*77
2018-01-11 19:47:24 1515718044.697778: $GPGSV,3,2,12,23,40,193,49,27,55,066,50,11,11,171,33,26,06,066,16*7A
2018-01-11 19:47:24 1515718044.697850: $GPGSV,3,3,12,28,06,250,24,30,20,301,39,21,01,030,00,138,38,213,45*4F
2018-01-11 19:47:24 1515718044.810910: $GPZDA,004725.00,12,01,2018,00,00*6B
2018-01-11 19:47:24 1515718044.811056: $GPGGA,004725,3946.9571,N,08404.9817,W,2,11,0.80,296.47,M,-33.324,M,,*74
2018-01-11 19:47:24 1515718044.811123: $GPRMC,004725,A,3946.9571,N,08404.9817,W,0.0000,0.000,120118,,*3D
2018-01-11 19:47:24 1515718044.811186: $GPGSA,A,3,7,8,9,16,23,27,11,26,28,30,138,,4.0,0.8,3.5*3A
2018-01-11 19:47:25 1515718045.368327: $GPZDA,004726.00,12,01,2018,00,00*68
2018-01-11 19:47:25 1515718045.368517: $GPGGA,004726,3946.9571,N,08404.9817,W,2,11,0.80,296.47,M,-33.324,M,,*77
2018-01-11 19:47:25 1515718045.368588: $GPRMC,004726,A,3946.9571,N,08404.9817,W,0.0000,0.000,120118,,*3E
2018-01-11 19:47:25 1515718045.368651: $GPGSA,A,3,7,8,9,16,23,27,11,26,28,30,138,,4.0,0.8,3.5*3A
