2017-12-29 11:43:29 1514565809.379601: {"class":"VERSION","release":"3.16","rev":"3.16-4","proto_major":3,"proto_minor":11}
2017-12-29 11:43:29 1514565809.380041: {"class":"DEVICES","devices":[{"class":"DEVICE","path":"/dev/ttyUSB0","driver":"SiRF","subtype":"9\u0006GSD4e_4.1.2-P1_RPATCH.05-F-GPS-4R-1510281 11/03/2015 307","activated":"2017-12-29T16:43:29.257Z","flags":1,"native":1,"bps":4800,"parity":"N","stopbits":1,"cycle":1.00}]}
2017-12-29 11:43:29 1514565809.380156: {"class":"WATCH","enable":true,"json":false,"nmea":true,"raw":0,"scaled":false,"timing":false,"split24":false,"pps":false}
2017-12-29 11:43:29 1514565809.707240: $GPGSV,3,1,11,08,08,313,38,10,51,310,45,15,27,057,48,18,77,016,45*77
2017-12-29 11:43:29 1514565809.707418: $GPGSV,3,2,11,20,26,105,49,21,51,183,47,24,53,090,51,27,16,277,28*7E
2017-12-29 11:43:29 1514565809.707482: $GPGSV,3,3,11,32,31,246,36,14,12,238,36,138,38,213,45*75
2017-12-29 11:43:29 1514565809.821396: $GPZDA,164330.00,29,12,2017,00,00*69
2017-12-29 11:43:29 1514565809.821592: $GPGGA,164330,3946.9629,N,08404.9864,W,2,11,0.80,314.91,M,-33.324,M,,*79
2017-12-29 11:43:29 1514565809.821662: $GPRMC,164330,A,3946.9629,N,08404.9864,W,0.0000,0.000,291217,,*35
2017-12-29 11:43:29 1514565809.821727: $GPGSA,A,3,8,10,15,18,20,21,24,27,32,14,138,,1.7,0.8,1.3*36
2017-12-29 11:43:30 1514565810.446202: $GPZDA,164331.00,29,12,2017,00,00*68
2017-12-29 11:43:30 1514565810.446374: $GPGGA,164331,3946.9630,N,08404.9865,W,2,11,0.80,316.32,M,-33.324,M,,*7A
2017-12-29 11:43:30 1514565810.446440: $GPRMC,164331,A,3946.9630,N,08404.9865,W,0.0000,0.000,291217,,*3D
2017-12-29 11:43:30 1514565810.446500: $GPGSA,A,3,8,10,15,18,20,21,24,27,32,14,138,,1.7,0.8,1.3*36
2017-12-29 11:43:31 1514565811.378107: $GPZDA,164332.00,29,12,2017,00,00*6B
2017-12-29 11:43:31 1514565811.378280: $GPGGA,164332,3946.9629,N,08404.9858,W,2,11,0.80,316.40,M,-33.324,M,,*7A
2017-12-29 11:43:31 1514565811.378346: $GPRMC,164332,A,3946.9629,N,08404.9858,W,0.0000,0.000,291217,,*38
2017-12-29 11:43:31 1514565811.378406: $GPGSA,A,3,8,10,15,18,20,21,24,27,32,14,138,,1.7,0.8,1.3*36
2017-12-29 11:43:32 1514565812.696369: $GPGSV,3,1,11,08,08,313,38,10,51,310,45,15,27,057,48,18,77,016,45*77
2017-12-29 11:43:32 1514565812.696546: $GPGSV,3,2,11,20,26,105,49,21,51,183,47,24,53,090,51,27,16,277,28*7E
2017-12-29 11:43:32 1514565812.696613: $GPGSV,3,3,11,32,31,246,37,14,12,238,37,138,38,213,46*76
2017-12-29 11:43:32 1514565812.810412: $GPZDA,164333.00,29,12,2017,00,00*6A
2017-12-29 11:43:32 1514565812.810573: $GPGGA,164333,3946.9629,N,08404.9858,W,2,11,0.80,316.40,M,-33.324,M,,*7B
2017-12-29 11:43:32 1514565812.810640: $GPRMC,164333,A,3946.9629,N,08404.9858,W,0.0000,0.000,291217,,*39
2017-12-29 11:43:32 1514565812.810702: $GPGSA,A,3,8,10,15,18,20,21,24,27,32,14,138,,1.7,0.8,1.3*36
2017-12-29 11:43:33 1514565813.377213: $GPZDA,164334.00,29,12,2017,00,00*6D
2017-12-29 11:43:33 1514565813.377415: $GPGGA,164334,3946.9629,N,08404.9858,W,2,11,0.80,316.40,M,-33.324,M,,*7C
2017-12-29 11:43:33 1514565813.377487: $GPRMC,164334,A,3946.9629,N,08404.9858,W,0.0000,0.000,291217,,*3E
2017-12-29 11:43:33 1514565813.377551: $GPGSA,A,3,8,10,15,18,20,21,24,27,32,14,138,,1.7,0.8,1.3*36
2017-12-29 11:43:34 1514565814.375223: $GPZDA,164335.00,29,12,2017,00,00*6C
2017-12-29 11:43:34 1514565814.375401: $GPGGA,164335,3946.9629,N,08404.9858,W,2,11,0.80,316.40,M,-33.324,M,,*7D
2017-12-29 11:43:34 1514565814.375470: $GPRMC,164335,A,3946.9629,N,08404.9858,W,0.0000,0.000,291217,,*3F
2017-12-29 11:43:34 1514565814.375534: $GPGSA,A,3,8,10,15,18,20,21,24,27,32,14,138,,1.7,0.8,1.3*36
2017-12-29 11:43:35 1514565815.696728: $GPGSV,3,1,11,08,08,313,38,10,51,310,45,15,27,057,48,18,77,016,45*77
2017-12-29 11:43:35 1514565815.696892: $GPGSV,3,2,11,20,26,105,49,21,51,183,47,24,53,090,51,27,16,277,29*7F
2017-12-29 11:43:35 1514565815.696961: $GPGSV,3,3,11,32,31,246,37,14,12,238,37,138,38,213,45*75
2017-12-29 11:43:35 1514565815.810444: $GPZDA,164336.00,29,12,2017,00,00*6F
2017-12-29 11:43:35 1514565815.810630: $GPGGA,164336,3946.9629,N,08404.9858,W,2,11,0.80,316.40,M,-33.324,M,,*7E
2017-12-29 11:43:35 1514565815.810755: $GPRMC,164336,A,3946.9629,N,08404.9858,W,0.0000,0.000,291217,,*3C
2017-12-29 11:43:35 1514565815.810818: $GPGSA,A,3,8,10,15,18,20,21,24,27,32,14,138,,1.7,0.8,1.3*36
2017-12-29 11:43:36 1514565816.377280: $GPZDA,164337.00,29,12,2017,00,00*6E
2017-12-29 11:43:36 1514565816.377449: $GPGGA,164337,3946.9629,N,08404.9858,W,2,11,0.80,316.40,M,-33.324,M,,*7F
2017-12-29 11:43:36 1514565816.377516: $GPRMC,164337,A,3946.9629,N,08404.9858,W,0.0000,0.000,291217,,*3D
2017-12-29 11:43:36 1514565816.377577: $GPGSA,A,3,8,10,15,18,20,21,24,27,32,14,138,,1.7,0.8,1.3*36
2017-12-29 11:43:37 1514565817.361931: $GPZDA,164338.00,29,12,2017,00,00*61
2017-12-29 11:43:37 1514565817.362093: $GPGGA,164338,3946.9629,N,08404.9858,W,2,11,0.80,316.40,M,-33.324,M,,*70
2017-12-29 11:43:37 1514565817.362160: $GPRMC,164338,A,3946.9629,N,08404.9858,W,0.0000,0.000,291217,,*32
2017-12-29 11:43:37 1514565817.362221: $GPGSA,A,3,8,10,15,18,20,21,24,27,32,14,138,,1.7,0.8,1.3*36
2017-12-29 11:43:38 1514565818.711423: $GPGSV,3,1,11,08,08,313,38,10,51,310,45,15,27,057,48,18,77,016,45*77
2017-12-29 11:43:38 1514565818.711603: $GPGSV,3,2,11,20,26,105,49,21,51,183,47,24,53,090,51,27,16,277,29*7F
2017-12-29 11:43:38 1514565818.711668: $GPGSV,3,3,11,32,31,246,38,14,12,238,37,138,38,213,45*7A
2017-12-29 11:43:38 1514565818.824805: $GPZDA,164339.00,29,12,2017,00,00*60
2017-12-29 11:43:38 1514565818.824964: $GPGGA,164339,3946.9629,N,08404.9858,W,2,11,0.80,316.40,M,-33.324,M,,*71
2017-12-29 11:43:38 1514565818.825029: $GPRMC,164339,A,3946.9629,N,08404.9858,W,0.0000,0.000,291217,,*33
2017-12-29 11:43:38 1514565818.825090: $GPGSA,A,3,8,10,15,18,20,21,24,27,32,14,138,,1.7,0.8,1.3*36
2017-12-29 11:43:39 1514565819.372248: $GPZDA,164340.00,29,12,2017,00,00*6E
2017-12-29 11:43:39 1514565819.372409: $GPGGA,164340,3946.9626,N,08404.9859,W,2,11,0.80,317.16,M,-33.324,M,,*73
2017-12-29 11:43:39 1514565819.372475: $GPRMC,164340,A,3946.9626,N,08404.9859,W,0.0000,0.000,291217,,*33
2017-12-29 11:43:39 1514565819.372535: $GPGSA,A,3,8,10,15,18,20,21,24,27,32,14,138,,1.7,0.8,1.3*36
2017-12-29 11:43:40 1514565820.356284: $GPZDA,164341.00,29,12,2017,00,00*6F
2017-12-29 11:43:40 1514565820.356451: $GPGGA,164341,3946.9626,N,08404.9859,W,2,11,0.80,317.16,M,-33.324,M,,*72
2017-12-29 11:43:40 1514565820.356517: $GPRMC,164341,A,3946.9626,N,08404.9859,W,0.0000,0.000,291217,,*32
2017-12-29 11:43:40 1514565820.356577: $GPGSA,A,3,8,10,15,18,20,21,24,27,32,14,138,,1.7,0.8,1.3*36
2017-12-29 11:43:41 1514565821.712973: $GPGSV,3,1,11,08,08,313,38,10,51,310,45,15,27,057,48,18,77,016,45*77
2017-12-29 11:43:41 1514565821.713132: $GPGSV,3,2,11,20,26,105,49,21,51,183,47,24,53,090,51,27,16,277,29*7F
2017-12-29 11:43:41 1514565821.713197: $GPGSV,3,3,11,32,31,246,37,14,12,238,37,138,38,213,44*74
2017-12-29 11:43:41 1514565821.826384: $GPZDA,164342.00,29,12,2017,00,00*6C
2017-12-29 11:43:41 1514565821.826554: $GPGGA,164342,3946.9626,N,08404.9859,W,2,11,0.80,317.16,M,-33.324,M,,*71
2017-12-29 11:43:41 1514565821.826618: $GPRMC,164342,A,3946.9626,N,08404.9859,W,0.0000,0.000,291217,,*31
2017-12-29 11:43:41 1514565821.826678: $GPGSA,A,3,8,10,15,18,20,21,24,27,32,14,138,,1.7,0.8,1.3*36
2017-12-29 11:43:42 1514565822.360194: $GPZDA,164343.00,29,12,2017,00,00*6D
2017-12-29 11:43:42 1514565822.360363: $GPGGA,164343,3946.9626,N,08404.9859,W,2,11,0.80,317.16,M,-33.324,M,,*70
2017-12-29 11:43:42 1514565822.360429: $GPRMC,164343,A,3946.9626,N,08404.9859,W,0.0000,0.000,291217,,*30
2017-12-29 11:43:42 1514565822.360490: $GPGSA,A,3,8,10,15,18,20,21,24,27,32,14,138,,1.7,0.8,1.3*36
2017-12-29 11:43:43 1514565823.361861: $GPZDA,164344.00,29,12,2017,00,00*6A
2017-12-29 11:43:43 1514565823.362044: $GPGGA,164344,3946.9626,N,08404.9859,W,2,11,0.80,317.16,M,-33.324,M,,*77
2017-12-29 11:43:43 1514565823.362111: $GPRMC,164344,A,3946.9626,N,08404.9859,W,0.0000,0.000,291217,,*37
2017-12-29 11:43:43 1514565823.362171: $GPGSA,A,3,8,10,15,18,20,21,24,27,32,14,138,,1.7,0.8,1.3*36
