2018-01-11 19:59:58 1515718798.678268: {"class":"VERSION","release":"3.16","rev":"3.16-4","proto_major":3,"proto_minor":11}
2018-01-11 19:59:58 1515718798.678671: {"class":"DEVICES","devices":[{"class":"DEVICE","path":"/dev/ttyUSB0","driver":"SiRF","subtype":"9\u0006GSD4e_4.1.2-P1_RPATCH.05-F-GPS-4R-1510281 11/03/2015 307","activated":"2018-01-12T00:59:58.490Z","flags":1,"native":1,"bps":4800,"parity":"N","stopbits":1,"cycle":1.00}]}
2018-01-11 19:59:58 1515718798.678787: {"class":"WATCH","enable":true,"json":false,"nmea":true,"raw":0,"scaled":false,"timing":false,"split24":false,"pps":false}
2018-01-11 19:59:59 1515718799.348000: $GPZDA,010000.00,12,01,2018,00,00*6E
2018-01-11 19:59:59 1515718799.348183: $GPGGA,010000,3946.9584,N,08404.9844,W,2,10,0.80,296.67,M,-33.324,M,,*7E
2018-01-11 19:59:59 1515718799.348250: $GPRMC,010000,A,3946.9584,N,08404.9844,W,0.0000,0.000,120118,,*34
2018-01-11 19:59:59 1515718799.348312: $GPGSA,A,3,7,8,9,11,16,23,27,30,28,138,,,4.0,0.8,3.5*3E
2018-01-11 20:00:00 1515718800.699937: $GPGSV,3,1,11,07,51,313,43,08,70,147,46,09,51,237,44,11,16,169,42*75
2018-01-11 20:00:00 1515718800.700111: $GPGSV,3,2,11,16,27,057,46,23,34,192,46,27,51,058,50,30,24,304,36*7A
2018-01-11 20:00:00 1515718800.700177: $GPGSV,3,3,11,28,10,255,29,26,02,069,00,138,38,213,45*72
2018-01-11 20:00:00 1515718800.813609: $GPZDA,010001.00,12,01,2018,00,00*6F
2018-01-11 20:00:00 1515718800.813736: $GPGGA,010001,3946.9584,N,08404.9844,W,2,10,0.80,296.67,M,-33.324,M,,*7F
2018-01-11 20:00:00 1515718800.813801: $GPRMC,010001,A,3946.9584,N,08404.9844,W,0.0000,0.000,120118,,*35
2018-01-11 20:00:00 1515718800.813861: $GPGSA,A,3,7,8,9,11,16,23,27,30,28,138,,,4.0,0.8,3.5*3E
2018-01-11 20:00:01 1515718801.366967: $GPZDA,010002.00,12,01,2018,00,00*6C
2018-01-11 20:00:01 1515718801.367114: $GPGGA,010002,3946.9584,N,08404.9844,W,2,10,0.80,296.67,M,-33.324,M,,*7C
2018-01-11 20:00:01 1515718801.367179: $GPRMC,010002,A,3946.9584,N,08404.9844,W,0.0000,0.000,120118,,*36
2018-01-11 20:00:01 1515718801.367239: $GPGSA,A,3,7,8,9,11,16,23,27,30,28,138,,,4.0,0.8,3.5*3E
2018-01-11 20:00:02 1515718802.364867: $GPZDA,010003.00,12,01,2018,00,00*6D
2018-01-11 20:00:02 1515718802.365032: $GPGGA,010003,3946.9584,N,08404.9844,W,2,10,0.80,296.67,M,-33.324,M,,*7D
2018-01-11 20:00:02 1515718802.365099: $GPRMC,010003,A,3946.9584,N,08404.9844,W,0.0000,0.000,120118,,*37
2018-01-11 20:00:02 1515718802.365160: $GPGSA,A,3,7,8,9,11,16,23,27,30,28,138,,,4.0,0.8,3.5*3E
2018-01-11 20:00:03 1515718803.700285: $GPGSV,3,1,11,07,51,313,43,08,70,147,45,09,51,237,44,11,16,169,42*76
2018-01-11 20:00:03 1515718803.700487: $GPGSV,3,2,11,16,27,057,46,23,34,192,46,27,51,058,50,30,24,304,37*7B
2018-01-11 20:00:03 1515718803.700570: $GPGSV,3,3,11,28,10,255,29,26,02,069,00,138,38,213,44*73
2018-01-11 20:00:03 1515718803.813968: $GPZDA,010004.00,12,01,2018,00,00*6A
2018-01-11 20:00:03 1515718803.814177: $GPGGA,010004,3946.9584,N,08404.9844,W,2,10,0.80,296.67,M,-33.324,M,,*7A
2018-01-11 20:00:03 1515718803.814245: $GPRMC,010004,A,3946.9584,N,08404.9844,W,0.0000,0.000,120118,,*30
2018-01-11 20:00:03 1515718803.814306: $GPGSA,A,3,7,8,9,11,16,23,27,30,28,138,,,4.0,0.8,3.5*3E
2018-01-11 20:00:04 1515718804.364845: $GPZDA,010005.00,12,01,2018,00,00*6B
2018-01-11 20:00:04 1515718804.364996: $GPGGA,010005,3946.9584,N,08404.9844,W,2,10,0.80,296.67,M,-33.324,M,,*7B
2018-01-11 20:00:04 1515718804.365061: $GPRMC,010005,A,3946.9584,N,08404.9844,W,0.0000,0.000,120118,,*31
2018-01-11 20:00:04 1515718804.365122: $GPGSA,A,3,7,8,9,11,16,23,27,30,28,138,,,4.0,0.8,3.5*3E
2018-01-11 20:00:05 1515718805.349539: $GPZDA,010006.00,12,01,2018,00,00*68
2018-01-11 20:00:05 1515718805.349701: $GPGGA,010006,3946.9584,N,08404.9844,W,2,10,0.80,296.67,M,-33.324,M,,*78
2018-01-11 20:00:05 1515718805.349767: $GPRMC,010006,A,3946.9584,N,08404.9844,W,0.0000,0.000,120118,,*32
2018-01-11 20:00:05 1515718805.349827: $GPGSA,A,3,7,8,9,11,16,23,27,30,28,138,,,4.0,0.8,3.5*3E
2018-01-11 20:00:06 1515718806.683650: $GPGSV,3,1,11,07,51,313,43,08,70,147,45,09,51,237,44,11,16,169,41*75
2018-01-11 20:00:06 1515718806.683824: $GPGSV,3,2,11,16,27,057,46,23,34,192,47,27,51,058,50,30,24,304,38*75
2018-01-11 20:00:06 1515718806.683944: $GPGSV,3,3,11,28,10,255,29,26,02,069,00,138,38,213,45*72
2018-01-11 20:00:06 1515718806.797284: $GPZDA,010007.00,12,01,2018,00,00*69
2018-01-11 20:00:06 1515718806.797481: $GPGGA,010007,3946.9584,N,08404.9844,W,2,10,0.80,296.67,M,-33.324,M,,*79
2018-01-11 20:00:06 1515718806.797547: $GPRMC,010007,A,3946.9584,N,08404.9844,W,0.0000,0.000,120118,,*33
2018-01-11 20:00:06 1515718806.797609: $GPGSA,A,3,7,8,9,11,16,23,27,30,28,138,,,4.0,0.8,3.5*3E
2018-01-11 20:00:07 1515718807.423888: $GPZDA,010008.00,12,01,2018,00,00*66
2018-01-11 20:00:07 1515718807.424039: $GPGGA,010008,3946.9584,N,08404.9844,W,2,10,0.80,296.67,M,-33.324,M,,*76
2018-01-11 20:00:07 1515718807.424105: $GPRMC,010008,A,3946.9584,N,08404.9844,W,0.0000,0.000,120118,,*3C
2018-01-11 20:00:07 1515718807.424166: $GPGSA,A,3,7,8,9,11,16,23,27,30,28,138,,,4.0,0.8,3.5*3E
2018-01-11 20:00:08 1515718808.342280: $GPZDA,010009.00,12,01,2018,00,00*67
2018-01-11 20:00:08 1515718808.342476: $GPGGA,010009,3946.9584,N,08404.9844,W,2,10,0.80,296.67,M,-33.324,M,,*77
2018-01-11 20:00:08 1515718808.342544: $GPRMC,010009,A,3946.9584,N,08404.9844,W,0.0000,0.000,120118,,*3D
2018-01-11 20:00:08 1515718808.342605: $GPGSA,A,3,7,8,9,11,16,23,27,30,28,138,,,4.0,0.8,3.5*3E
