2017-11-16 14:41:37 1510861297.895778: {"class":"VERSION","release":"3.17","rev":"3.17","proto_major":3,"proto_minor":12}
2017-11-16 14:41:37 1510861297.896290: {"class":"DEVICES","devices":[{"class":"DEVICE","path":"/dev/ttyUSB0","driver":"SiRF","subtype":"9\u0006GSD4e_4.1.2-P1_RPATCH.05-F-GPS-4R-1510281 11/03/2015 307","activated":"2017-11-16T19:41:37.649Z","flags":1,"native":1,"bps":4800,"parity":"N","stopbits":1,"cycle":1.00}]}
2017-11-16 14:41:37 1510861297.896400: {"class":"WATCH","enable":true,"json":false,"nmea":true,"raw":0,"scaled":false,"timing":false,"split24":false,"pps":false}
2017-11-16 14:41:38 1510861298.502477: $GPZDA,194137.00,16,11,2017,00,00*6C
2017-11-16 14:41:38 1510861298.502790: $GPGGA,194137,3946.9564,N,08404.9842,W,2,11,0.80,302.74,M,-33.324,M,,*71
2017-11-16 14:41:38 1510861298.502925: $GPRMC,194137,A,3946.9564,N,08404.9842,W,0.0000,0.000,161117,,*3E
2017-11-16 14:41:38 1510861298.503043: $GPGSA,A,3,8,10,15,18,21,20,24,27,32,14,138,,1.6,0.8,1.3*37
2017-11-16 14:41:39 1510861299.842581: $GPGSV,3,1,11,08,08,312,30,10,51,310,50,15,27,057,51,18,77,015,45*71
2017-11-16 14:41:39 1510861299.842766: $GPGSV,3,2,11,21,51,184,48,20,24,105,47,24,53,088,48,27,16,277,44*71
2017-11-16 14:41:39 1510861299.842848: $GPGSV,3,3,11,32,30,247,48,14,14,238,43,138,38,213,44*79
2017-11-16 14:41:39 1510861299.955949: $GPZDA,194138.00,16,11,2017,00,00*63
2017-11-16 14:41:39 1510861299.956125: $GPGGA,194138,3946.9564,N,08404.9842,W,2,11,0.80,302.74,M,-33.324,M,,*7E
2017-11-16 14:41:39 1510861299.956189: $GPRMC,194138,A,3946.9564,N,08404.9842,W,0.0000,0.000,161117,,*31
2017-11-16 14:41:39 1510861299.956245: $GPGSA,A,3,8,10,15,18,21,20,24,27,32,14,138,,1.6,0.8,1.3*37
2017-11-16 14:41:40 1510861300.508085: $GPZDA,194139.00,16,11,2017,00,00*62
2017-11-16 14:41:40 1510861300.508241: $GPGGA,194139,3946.9564,N,08404.9842,W,2,11,0.80,302.74,M,-33.324,M,,*7F
2017-11-16 14:41:40 1510861300.508303: $GPRMC,194139,A,3946.9564,N,08404.9842,W,0.0000,0.000,161117,,*30
2017-11-16 14:41:40 1510861300.508361: $GPGSA,A,3,8,10,15,18,21,20,24,27,32,14,138,,1.6,0.8,1.3*37
2017-11-16 14:41:41 1510861301.507793: $GPZDA,194140.00,16,11,2017,00,00*6C
2017-11-16 14:41:41 1510861301.507953: $GPGGA,194140,3946.9564,N,08404.9842,W,2,11,0.80,302.74,M,-33.324,M,,*71
2017-11-16 14:41:41 1510861301.508018: $GPRMC,194140,A,3946.9564,N,08404.9842,W,0.0000,0.000,161117,,*3E
2017-11-16 14:41:41 1510861301.508073: $GPGSA,A,3,8,10,15,18,21,20,24,27,32,14,138,,1.6,0.8,1.3*37
2017-11-16 14:41:42 1510861302.845717: $GPGSV,3,1,11,08,08,312,30,10,51,310,50,15,27,057,51,18,77,015,45*71
2017-11-16 14:41:42 1510861302.845913: $GPGSV,3,2,11,21,51,184,48,20,24,105,47,24,53,088,48,27,16,277,45*70
2017-11-16 14:41:42 1510861302.845979: $GPGSV,3,3,11,32,30,247,48,14,14,238,42,138,38,213,43*7F
2017-11-16 14:41:42 1510861302.958188: $GPZDA,194141.00,16,11,2017,00,00*6D
2017-11-16 14:41:42 1510861302.958348: $GPGGA,194141,3946.9564,N,08404.9842,W,2,11,0.80,302.74,M,-33.324,M,,*70
2017-11-16 14:41:42 1510861302.958409: $GPRMC,194141,A,3946.9564,N,08404.9842,W,0.0000,0.000,161117,,*3F
2017-11-16 14:41:42 1510861302.958465: $GPGSA,A,3,8,10,15,18,21,20,24,27,32,14,138,,1.6,0.8,1.3*37
2017-11-16 14:41:43 1510861303.502535: $GPZDA,194142.00,16,11,2017,00,00*6E
2017-11-16 14:41:43 1510861303.502700: $GPGGA,194142,3946.9564,N,08404.9842,W,2,11,0.80,302.74,M,-33.324,M,,*73
2017-11-16 14:41:43 1510861303.502762: $GPRMC,194142,A,3946.9564,N,08404.9842,W,0.0000,0.000,161117,,*3C
2017-11-16 14:41:43 1510861303.502819: $GPGSA,A,3,8,10,15,18,21,20,24,27,32,14,138,,1.6,0.8,1.3*37
2017-11-16 14:41:44 1510861304.503861: $GPZDA,194143.00,16,11,2017,00,00*6F
2017-11-16 14:41:44 1510861304.504035: $GPGGA,194143,3946.9564,N,08404.9842,W,2,11,0.80,302.74,M,-33.324,M,,*72
2017-11-16 14:41:44 1510861304.504113: $GPRMC,194143,A,3946.9564,N,08404.9842,W,0.0000,0.000,161117,,*3D
2017-11-16 14:41:44 1510861304.504173: $GPGSA,A,3,8,10,15,18,21,20,24,27,32,14,138,,1.6,0.8,1.3*37
2017-11-16 14:41:45 1510861305.877268: $GPGSV,3,1,11,08,08,312,23,10,51,310,50,15,27,057,50,18,77,015,45*72
2017-11-16 14:41:45 1510861305.877505: $GPGSV,3,2,11,21,51,184,48,20,24,105,47,24,53,088,48,27,16,277,45*70
2017-11-16 14:41:45 1510861305.877569: $GPGSV,3,3,11,32,30,247,48,14,14,238,42,138,38,213,44*78
2017-11-16 14:41:45 1510861305.991009: $GPZDA,194144.00,16,11,2017,00,00*68
2017-11-16 14:41:45 1510861305.991244: $GPGGA,194144,3946.9564,N,08404.9842,W,2,11,0.80,302.74,M,-33.324,M,,*75
2017-11-16 14:41:45 1510861305.991334: $GPRMC,194144,A,3946.9564,N,08404.9842,W,0.0000,0.000,161117,,*3A
2017-11-16 14:41:45 1510861305.991402: $GPGSA,A,3,8,10,15,18,21,20,24,27,32,14,138,,1.6,0.8,1.3*37
2017-11-16 14:41:46 1510861306.541525: $GPZDA,194145.00,16,11,2017,00,00*69
2017-11-16 14:41:46 1510861306.541690: $GPGGA,194145,3946.9564,N,08404.9842,W,2,11,0.80,302.74,M,-33.324,M,,*74
2017-11-16 14:41:46 1510861306.541753: $GPRMC,194145,A,3946.9564,N,08404.9842,W,0.0000,0.000,161117,,*3B
2017-11-16 14:41:46 1510861306.541808: $GPGSA,A,3,8,10,15,18,21,20,24,27,32,14,138,,1.6,0.8,1.3*37
2017-11-16 14:41:47 1510861307.541082: $GPZDA,194146.00,16,11,2017,00,00*6A
2017-11-16 14:41:47 1510861307.541244: $GPGGA,194146,3946.9564,N,08404.9842,W,2,11,0.80,302.74,M,-33.324,M,,*77
2017-11-16 14:41:47 1510861307.541309: $GPRMC,194146,A,3946.9564,N,08404.9842,W,0.0000,0.000,161117,,*38
2017-11-16 14:41:47 1510861307.541365: $GPGSA,A,3,8,10,15,18,21,20,24,27,32,14,138,,1.6,0.8,1.3*37
