2017-12-01 11:30:05 1512145805.777326: {"class":"VERSION","release":"3.16","rev":"3.16-4","proto_major":3,"proto_minor":11}
2017-12-01 11:30:05 1512145805.777692: {"class":"DEVICES","devices":[{"class":"DEVICE","path":"/dev/ttyUSB0","driver":"SiRF","subtype":"9\u0006GSD4e_4.1.2-P1_RPATCH.05-F-GPS-4R-1510281 11/03/2015 307","activated":"2017-12-01T16:30:05.574Z","flags":1,"native":1,"bps":4800,"parity":"N","stopbits":1,"cycle":1.00}]}
2017-12-01 11:30:05 1512145805.777805: {"class":"WATCH","enable":true,"json":false,"nmea":true,"raw":0,"scaled":false,"timing":false,"split24":false,"pps":false}
2017-12-01 11:30:06 1512145806.434804: $GPZDA,163007.00,01,12,2017,00,00*63
2017-12-01 11:30:06 1512145806.434980: $GPGGA,163007,3946.9576,N,08404.9844,W,2,11,1.00,295.39,M,-33.324,M,,*71
2017-12-01 11:30:06 1512145806.435047: $GPRMC,163007,A,3946.9576,N,08404.9844,W,0.0000,0.000,011217,,*34
2017-12-01 11:30:06 1512145806.435109: $GPGSA,A,3,5,10,13,15,18,20,21,24,29,27,138,,2.0,1.0,1.5*3D
2017-12-01 11:30:07 1512145807.754137: $GPGSV,3,1,12,05,18,073,40,10,09,267,35,13,48,054,46,15,79,102,48*71
2017-12-01 11:30:07 1512145807.754333: $GPGSV,3,2,12,18,39,280,43,20,66,039,42,21,61,309,46,24,15,151,39*7A
2017-12-01 11:30:07 1512145807.754402: $GPGSV,3,3,12,29,31,196,46,30,01,030,02,27,04,327,31,138,38,213,46*4A
2017-12-01 11:30:07 1512145807.866971: $GPZDA,163008.00,01,12,2017,00,00*6C
2017-12-01 11:30:07 1512145807.867151: $GPGGA,163008,3946.9576,N,08404.9844,W,2,11,1.00,295.39,M,-33.324,M,,*7E
2017-12-01 11:30:07 1512145807.867225: $GPRMC,163008,A,3946.9576,N,08404.9844,W,0.0000,0.000,011217,,*3B
2017-12-01 11:30:07 1512145807.867292: $GPGSA,A,3,5,10,13,15,18,20,21,24,29,27,138,,2.0,1.0,1.5*3D
2017-12-01 11:30:08 1512145808.433356: $GPZDA,163009.00,01,12,2017,00,00*6D
2017-12-01 11:30:08 1512145808.433545: $GPGGA,163009,3946.9576,N,08404.9844,W,2,11,1.00,295.39,M,-33.324,M,,*7F
2017-12-01 11:30:08 1512145808.433616: $GPRMC,163009,A,3946.9576,N,08404.9844,W,0.0000,0.000,011217,,*3A
2017-12-01 11:30:08 1512145808.433683: $GPGSA,A,3,5,10,13,15,18,20,21,24,29,27,138,,2.0,1.0,1.5*3D
2017-12-01 11:30:09 1512145809.435976: $GPZDA,163010.00,01,12,2017,00,00*65
2017-12-01 11:30:09 1512145809.436150: $GPGGA,163010,3946.9580,N,08404.9844,W,2,11,1.00,296.03,M,-33.324,M,,*74
2017-12-01 11:30:09 1512145809.436217: $GPRMC,163010,A,3946.9580,N,08404.9844,W,0.0000,0.000,011217,,*3B
2017-12-01 11:30:09 1512145809.436279: $GPGSA,A,3,5,10,13,15,18,20,21,24,29,27,138,,2.0,1.0,1.5*3D
2017-12-01 11:30:10 1512145810.754294: $GPGSV,3,1,12,05,18,073,40,10,09,267,36,13,48,054,46,15,79,102,48*72
2017-12-01 11:30:10 1512145810.754459: $GPGSV,3,2,12,18,39,280,43,20,66,039,42,21,61,309,46,24,15,151,39*7A
2017-12-01 11:30:10 1512145810.754526: $GPGSV,3,3,12,29,31,196,47,30,01,030,02,27,04,327,32,138,38,213,45*4B
2017-12-01 11:30:10 1512145810.868128: $GPZDA,163011.00,01,12,2017,00,00*64
2017-12-01 11:30:10 1512145810.868298: $GPGGA,163011,3946.9577,N,08404.9845,W,2,11,1.00,296.80,M,-33.324,M,,*77
2017-12-01 11:30:10 1512145810.868364: $GPRMC,163011,A,3946.9577,N,08404.9845,W,0.0000,0.000,011217,,*33
2017-12-01 11:30:10 1512145810.868426: $GPGSA,A,3,5,10,13,15,18,20,21,24,29,27,138,,2.0,1.0,1.5*3D
2017-12-01 11:30:11 1512145811.434825: $GPZDA,163012.00,01,12,2017,00,00*67
2017-12-01 11:30:11 1512145811.435015: $GPGGA,163012,3946.9577,N,08404.9845,W,2,11,1.00,296.80,M,-33.324,M,,*74
2017-12-01 11:30:11 1512145811.435083: $GPRMC,163012,A,3946.9577,N,08404.9845,W,0.0000,0.000,011217,,*30
2017-12-01 11:30:11 1512145811.435145: $GPGSA,A,3,5,10,13,15,18,20,21,24,29,27,138,,2.0,1.0,1.5*3D
2017-12-01 11:30:12 1512145812.418508: $GPZDA,163013.00,01,12,2017,00,00*66
2017-12-01 11:30:12 1512145812.418682: $GPGGA,163013,3946.9577,N,08404.9845,W,2,11,1.00,296.80,M,-33.324,M,,*75
2017-12-01 11:30:12 1512145812.418752: $GPRMC,163013,A,3946.9577,N,08404.9845,W,0.0000,0.000,011217,,*31
2017-12-01 11:30:12 1512145812.418815: $GPGSA,A,3,5,10,13,15,18,20,21,24,29,27,138,,2.0,1.0,1.5*3D
2017-12-01 11:30:13 1512145813.751293: $GPGSV,3,1,12,05,18,073,39,10,09,267,36,13,48,054,46,15,79,102,48*7C
2017-12-01 11:30:13 1512145813.751566: $GPGSV,3,2,12,18,39,280,43,20,66,039,42,21,61,309,46,24,15,151,39*7A
2017-12-01 11:30:13 1512145813.751638: $GPGSV,3,3,12,29,31,196,47,30,01,030,02,27,04,327,32,138,38,213,46*48
2017-12-01 11:30:13 1512145813.864661: $GPZDA,163014.00,01,12,2017,00,00*61
2017-12-01 11:30:13 1512145813.864838: $GPGGA,163014,3946.9577,N,08404.9845,W,2,11,1.00,296.80,M,-33.324,M,,*72
2017-12-01 11:30:13 1512145813.864907: $GPRMC,163014,A,3946.9577,N,08404.9845,W,0.0000,0.000,011217,,*36
2017-12-01 11:30:13 1512145813.864989: $GPGSA,A,3,5,10,13,15,18,20,21,24,29,27,138,,2.0,1.0,1.5*3D
2017-12-01 11:30:14 1512145814.490062: $GPZDA,163015.00,01,12,2017,00,00*60
2017-12-01 11:30:14 1512145814.490236: $GPGGA,163015,3946.9577,N,08404.9845,W,2,11,1.00,296.80,M,-33.324,M,,*73
2017-12-01 11:30:14 1512145814.490303: $GPRMC,163015,A,3946.9577,N,08404.9845,W,0.0000,0.000,011217,,*37
2017-12-01 11:30:14 1512145814.490385: $GPGSA,A,3,5,10,13,15,18,20,21,24,29,27,138,,2.0,1.0,1.5*3D
2017-12-01 11:30:15 1512145815.418488: $GPZDA,163016.00,01,12,2017,00,00*63
2017-12-01 11:30:15 1512145815.418646: $GPGGA,163016,3946.9577,N,08404.9845,W,2,11,1.00,296.80,M,-33.324,M,,*70
2017-12-01 11:30:15 1512145815.418732: $GPRMC,163016,A,3946.9577,N,08404.9845,W,0.0000,0.000,011217,,*34
2017-12-01 11:30:15 1512145815.418796: $GPGSA,A,3,5,10,13,15,18,20,21,24,29,27,138,,2.0,1.0,1.5*3D
