2017-12-01 18:11:36 1512169896.386819: {"class":"VERSION","release":"3.16","rev":"3.16-4","proto_major":3,"proto_minor":11}
2017-12-01 18:11:36 1512169896.387245: {"class":"DEVICES","devices":[{"class":"DEVICE","path":"/dev/ttyUSB0","driver":"SiRF","subtype":"9\u0006GSD4e_4.1.2-P1_RPATCH.05-F-GPS-4R-1510281 11/03/2015 307","activated":"2017-12-01T23:11:36.382Z","flags":1,"native":1,"bps":4800,"parity":"N","stopbits":1,"cycle":1.00}]}
2017-12-01 18:11:36 1512169896.387376: {"class":"WATCH","enable":true,"json":false,"nmea":true,"raw":0,"scaled":false,"timing":false,"split24":false,"pps":false}
2017-12-01 18:11:37 1512169897.720027: $GPGSV,3,1,12,03,37,304,47,14,59,084,42,16,18,189,41,22,50,279,47*79
2017-12-01 18:11:37 1512169897.720146: $GPGSV,3,2,12,23,07,298,44,25,22,042,40,26,47,174,46,31,71,016,47*7C
2017-12-01 18:11:37 1512169897.720180: $GPGSV,3,3,12,32,40,103,42,01,09,256,34,29,09,076,30,138,38,213,46*46
2017-12-01 18:11:37 1512169897.833638: $GPZDA,231138.00,01,12,2017,00,00*6A
2017-12-01 18:11:37 1512169897.833772: $GPGGA,231138,3946.9730,N,08404.9826,W,2,12,0.60,298.60,M,-33.325,M,,*78
2017-12-01 18:11:37 1512169897.833837: $GPRMC,231138,A,3946.9730,N,08404.9826,W,0.0000,0.000,011217,,*39
2017-12-01 18:11:37 1512169897.833898: $GPGSA,A,3,3,14,16,22,23,25,26,31,32,1,29,138,2.0,0.6,1.5*02
2017-12-01 18:11:38 1512169898.387856: $GPZDA,231139.00,01,12,2017,00,00*6B
2017-12-01 18:11:38 1512169898.395654: $GPGGA,231139,3946.9730,N,08404.9826,W,2,12,0.60,298.60,M,-33.325,M,,*79
2017-12-01 18:11:38 1512169898.395783: $GPRMC,231139,A,3946.9730,N,08404.9826,W,0.0000,0.000,011217,,*38
2017-12-01 18:11:38 1512169898.395851: $GPGSA,A,3,3,14,16,22,23,25,26,31,32,1,29,138,2.0,0.6,1.5*02
2017-12-01 18:11:39 1512169899.385707: $GPZDA,231140.00,01,12,2017,00,00*65
2017-12-01 18:11:39 1512169899.385881: $GPGGA,231140,3946.9730,N,08404.9826,W,2,12,0.60,298.60,M,-33.325,M,,*77
2017-12-01 18:11:39 1512169899.385949: $GPRMC,231140,A,3946.9730,N,08404.9826,W,0.0000,0.000,011217,,*36
2017-12-01 18:11:39 1512169899.386009: $GPGSA,A,3,3,14,16,22,23,25,26,31,32,1,29,138,2.0,0.6,1.5*02
2017-12-01 18:11:40 1512169900.721123: $GPGSV,3,1,12,03,37,304,47,14,59,084,42,16,18,189,40,22,50,279,47*78
2017-12-01 18:11:40 1512169900.721305: $GPGSV,3,2,12,23,07,298,44,25,22,042,40,26,47,174,46,31,71,016,47*7C
2017-12-01 18:11:40 1512169900.721429: $GPGSV,3,3,12,32,40,103,43,01,09,256,34,29,09,076,30,138,38,213,46*47
2017-12-01 18:11:40 1512169900.834488: $GPZDA,231141.00,01,12,2017,00,00*64
2017-12-01 18:11:40 1512169900.834658: $GPGGA,231141,3946.9730,N,08404.9826,W,2,12,0.60,298.60,M,-33.325,M,,*76
2017-12-01 18:11:40 1512169900.834725: $GPRMC,231141,A,3946.9730,N,08404.9826,W,0.0000,0.000,011217,,*37
2017-12-01 18:11:40 1512169900.834786: $GPGSA,A,3,3,14,16,22,23,25,26,31,32,1,29,138,2.0,0.6,1.5*02
2017-12-01 18:11:41 1512169901.459823: $GPZDA,231142.00,01,12,2017,00,00*67
2017-12-01 18:11:41 1512169901.459994: $GPGGA,231142,3946.9730,N,08404.9826,W,2,12,0.60,298.60,M,-33.325,M,,*75
2017-12-01 18:11:41 1512169901.460060: $GPRMC,231142,A,3946.9730,N,08404.9826,W,0.0000,0.000,011217,,*34
2017-12-01 18:11:41 1512169901.460121: $GPGSA,A,3,3,14,16,22,23,25,26,31,32,1,29,138,2.0,0.6,1.5*02
2017-12-01 18:11:42 1512169902.386228: $GPZDA,231143.00,01,12,2017,00,00*66
2017-12-01 18:11:42 1512169902.386404: $GPGGA,231143,3946.9730,N,08404.9826,W,2,12,0.60,298.60,M,-33.325,M,,*74
2017-12-01 18:11:42 1512169902.386473: $GPRMC,231143,A,3946.9730,N,08404.9826,W,0.0000,0.000,011217,,*35
2017-12-01 18:11:42 1512169902.386534: $GPGSA,A,3,3,14,16,22,23,25,26,31,32,1,29,138,2.0,0.6,1.5*02
2017-12-01 18:11:43 1512169903.722698: $GPGSV,3,1,12,03,37,304,47,14,59,084,42,16,18,189,41,22,50,279,47*79
2017-12-01 18:11:43 1512169903.722878: $GPGSV,3,2,12,23,07,298,44,25,22,042,40,26,47,174,46,31,71,016,46*7D
2017-12-01 18:11:43 1512169903.722945: $GPGSV,3,3,12,32,40,103,42,01,09,256,34,29,09,076,30,138,38,213,46*46
2017-12-01 18:11:43 1512169903.836403: $GPZDA,231144.00,01,12,2017,00,00*61
2017-12-01 18:11:43 1512169903.836547: $GPGGA,231144,3946.9730,N,08404.9826,W,2,12,0.60,298.60,M,-33.325,M,,*73
2017-12-01 18:11:43 1512169903.836666: $GPRMC,231144,A,3946.9730,N,08404.9826,W,0.0000,0.000,011217,,*32
2017-12-01 18:11:43 1512169903.836729: $GPGSA,A,3,3,14,16,22,23,25,26,31,32,1,29,138,2.0,0.6,1.5*02
2017-12-01 18:11:44 1512169904.385722: $GPZDA,231145.00,01,12,2017,00,00*60
2017-12-01 18:11:44 1512169904.385896: $GPGGA,231145,3946.9730,N,08404.9826,W,2,12,0.60,298.60,M,-33.325,M,,*72
2017-12-01 18:11:44 1512169904.385964: $GPRMC,231145,A,3946.9730,N,08404.9826,W,0.0000,0.000,011217,,*33
2017-12-01 18:11:44 1512169904.386024: $GPGSA,A,3,3,14,16,22,23,25,26,31,32,1,29,138,2.0,0.6,1.5*02
2017-12-01 18:11:45 1512169905.386530: $GPZDA,231146.00,01,12,2017,00,00*63
2017-12-01 18:11:45 1512169905.386700: $GPGGA,231146,3946.9730,N,08404.9826,W,2,12,0.60,298.60,M,-33.325,M,,*71
2017-12-01 18:11:45 1512169905.386766: $GPRMC,231146,A,3946.9730,N,08404.9826,W,0.0000,0.000,011217,,*30
2017-12-01 18:11:45 1512169905.386827: $GPGSA,A,3,3,14,16,22,23,25,26,31,32,1,29,138,2.0,0.6,1.5*02
2017-12-01 18:11:46 1512169906.722984: $GPGSV,3,1,12,03,37,304,47,14,59,084,42,16,18,189,41,22,50,279,48*76
2017-12-01 18:11:46 1512169906.723187: $GPGSV,3,2,12,23,07,298,44,25,22,042,40,26,47,174,46,31,71,016,47*7C
2017-12-01 18:11:46 1512169906.723282: $GPGSV,3,3,12,32,40,103,42,01,09,256,34,29,09,076,30,138,38,213,46*46
2017-12-01 18:11:46 1512169906.835212: $GPZDA,231147.00,01,12,2017,00,00*62
2017-12-01 18:11:46 1512169906.835400: $GPGGA,231147,3946.9730,N,08404.9826,W,2,12,0.60,298.60,M,-33.325,M,,*70
2017-12-01 18:11:46 1512169906.835469: $GPRMC,231147,A,3946.9730,N,08404.9826,W,0.0000,0.000,011217,,*31
2017-12-01 18:11:46 1512169906.835531: $GPGSA,A,3,3,14,16,22,23,25,26,31,32,1,29,138,2.0,0.6,1.5*02
2017-12-01 18:11:47 1512169907.386146: $GPZDA,231148.00,01,12,2017,00,00*6D
2017-12-01 18:11:47 1512169907.386337: $GPGGA,231148,3946.9730,N,08404.9826,W,2,12,0.60,298.60,M,-33.325,M,,*7F
2017-12-01 18:11:47 1512169907.386406: $GPRMC,231148,A,3946.9730,N,08404.9826,W,0.0000,0.000,011217,,*3E
2017-12-01 18:11:47 1512169907.386467: $GPGSA,A,3,3,14,16,22,23,25,26,31,32,1,29,138,2.0,0.6,1.5*02
2017-12-01 18:11:48 1512169908.383131: $GPZDA,231149.00,01,12,2017,00,00*6C
2017-12-01 18:11:48 1512169908.383330: $GPGGA,231149,3946.9730,N,08404.9826,W,2,12,0.60,298.60,M,-33.325,M,,*7E
2017-12-01 18:11:48 1512169908.383400: $GPRMC,231149,A,3946.9730,N,08404.9826,W,0.0000,0.000,011217,,*3F
2017-12-01 18:11:48 1512169908.383464: $GPGSA,A,3,3,14,16,22,23,25,26,31,32,1,29,138,2.0,0.6,1.5*02
2017-12-01 18:11:49 1512169909.727651: $GPGSV,3,1,12,03,37,304,46,14,59,084,42,16,18,189,41,22,50,279,47*78
2017-12-01 18:11:49 1512169909.727834: $GPGSV,3,2,12,23,07,298,43,25,22,042,40,26,47,174,46,31,71,016,47*7B
2017-12-01 18:11:49 1512169909.727904: $GPGSV,3,3,12,32,40,103,42,01,09,256,34,29,09,076,03,138,38,213,46*46
2017-12-01 18:11:49 1512169909.841311: $GPZDA,231150.00,01,12,2017,00,00*64
2017-12-01 18:11:49 1512169909.841511: $GPGGA,231150,3946.9731,N,08404.9833,W,2,11,0.80,299.92,M,-33.325,M,,*72
2017-12-01 18:11:49 1512169909.841581: $GPRMC,231150,A,3946.9731,N,08404.9833,W,0.0000,0.000,011217,,*32
2017-12-01 18:11:49 1512169909.841646: $GPGSA,A,3,3,14,16,22,23,25,26,31,32,1,138,,2.0,0.8,1.5*07
2017-12-01 18:11:50 1512169910.386818: $GPZDA,231151.00,01,12,2017,00,00*65
2017-12-01 18:11:50 1512169910.386993: $GPGGA,231151,3946.9731,N,08404.9833,W,2,11,0.80,299.92,M,-33.325,M,,*73
2017-12-01 18:11:50 1512169910.387062: $GPRMC,231151,A,3946.9731,N,08404.9833,W,0.0000,0.000,011217,,*33
2017-12-01 18:11:50 1512169910.387151: $GPGSA,A,3,3,14,16,22,23,25,26,31,32,1,138,,2.0,0.8,1.5*07
2017-12-01 18:11:51 1512169911.385931: $GPZDA,231152.00,01,12,2017,00,00*66
2017-12-01 18:11:51 1512169911.386126: $GPGGA,231152,3946.9731,N,08404.9833,W,2,11,0.80,299.92,M,-33.325,M,,*70
2017-12-01 18:11:51 1512169911.386199: $GPRMC,231152,A,3946.9731,N,08404.9833,W,0.0000,0.000,011217,,*30
2017-12-01 18:11:51 1512169911.386280: $GPGSA,A,3,3,14,16,22,23,25,26,31,32,1,138,,2.0,0.8,1.5*07
2017-12-01 18:11:52 1512169912.721702: $GPGSV,3,1,12,03,37,304,46,14,59,084,42,16,18,189,41,22,50,279,47*78
2017-12-01 18:11:52 1512169912.721924: $GPGSV,3,2,12,23,07,298,44,25,22,042,40,26,47,174,46,31,71,016,47*7C
2017-12-01 18:11:52 1512169912.721993: $GPGSV,3,3,12,32,40,103,42,01,09,256,27,10,02,159,24,138,38,213,46*4C
2017-12-01 18:11:52 1512169912.835095: $GPZDA,231153.00,01,12,2017,00,00*67
2017-12-01 18:11:52 1512169912.835293: $GPGGA,231153,3946.9731,N,08404.9833,W,2,12,0.80,299.92,M,-33.325,M,,*72
2017-12-01 18:11:52 1512169912.835362: $GPRMC,231153,A,3946.9731,N,08404.9833,W,0.0000,0.000,011217,,*31
2017-12-01 18:11:52 1512169912.835424: $GPGSA,A,3,3,14,16,22,23,25,26,31,32,1,10,138,2.0,0.8,1.5*06
2017-12-01 18:11:53 1512169913.388832: $GPZDA,231154.00,01,12,2017,00,00*60
2017-12-01 18:11:53 1512169913.389003: $GPGGA,231154,3946.9731,N,08404.9833,W,2,12,0.60,299.92,M,-33.325,M,,*7B
2017-12-01 18:11:53 1512169913.389072: $GPRMC,231154,A,3946.9731,N,08404.9833,W,0.0000,0.000,011217,,*36
2017-12-01 18:11:53 1512169913.389136: $GPGSA,A,3,3,14,16,22,23,25,26,31,32,1,10,138,2.0,0.6,1.5*08
2017-12-01 18:11:54 1512169914.387720: $GPZDA,231155.00,01,12,2017,00,00*61
2017-12-01 18:11:54 1512169914.387920: $GPGGA,231155,3946.9731,N,08404.9833,W,2,12,0.80,299.92,M,-33.325,M,,*74
2017-12-01 18:11:54 1512169914.387992: $GPRMC,231155,A,3946.9731,N,08404.9833,W,0.0000,0.000,011217,,*37
2017-12-01 18:11:54 1512169914.388230: $GPGSA,A,3,3,14,16,22,23,25,26,31,32,1,10,138,2.0,0.8,1.5*06
2017-12-01 18:11:55 1512169915.725165: $GPGSV,3,1,12,03,37,304,46,14,59,084,43,16,18,189,41,22,50,279,47*79
2017-12-01 18:11:55 1512169915.725360: $GPGSV,3,2,12,23,07,298,44,25,22,042,40,26,47,174,47,31,71,016,47*7D
2017-12-01 18:11:55 1512169915.725428: $GPGSV,3,3,12,32,40,103,42,01,09,256,27,10,02,159,24,138,38,213,46*4C
2017-12-01 18:11:55 1512169915.838737: $GPZDA,231156.00,01,12,2017,00,00*62
2017-12-01 18:11:55 1512169915.838907: $GPGGA,231156,3946.9731,N,08404.9833,W,2,12,0.80,299.92,M,-33.325,M,,*77
2017-12-01 18:11:55 1512169915.838974: $GPRMC,231156,A,3946.9731,N,08404.9833,W,0.0000,0.000,011217,,*34
2017-12-01 18:11:55 1512169915.839036: $GPGSA,A,3,3,14,16,22,23,25,26,31,32,1,10,138,2.0,0.8,1.5*06
