2017-11-15 19:36:50 1510792610.103932: {"class":"VERSION","release":"3.17","rev":"3.17","proto_major":3,"proto_minor":12}
2017-11-15 19:36:50 1510792610.104424: {"class":"DEVICES","devices":[{"class":"DEVICE","path":"/dev/ttyUSB0","driver":"SiRF","subtype":"9\u0006GSD4e_4.1.2-P1_RPATCH.05-F-GPS-4R-1510281 11/03/2015 307","activated":"2017-11-16T00:36:49.488Z","flags":1,"native":1,"bps":4800,"parity":"N","stopbits":1,"cycle":1.00}]}
2017-11-15 19:36:50 1510792610.104567: {"class":"WATCH","enable":true,"json":false,"nmea":true,"raw":0,"scaled":false,"timing":false,"split24":false,"pps":false}
2017-11-15 19:36:50 1510792610.332160: $GPZDA,003649.00,16,11,2017,00,00*6D
2017-11-15 19:36:50 1510792610.332324: $GPGGA,003649,3946.9591,N,08404.9587,W,1,07,1.40,292.13,M,-33.324,M,,*7E
2017-11-15 19:36:50 1510792610.332385: $GPRMC,003649,A,3946.9591,N,08404.9587,W,0.7238,320.710,161117,,*38
2017-11-15 19:36:50 1510792610.332441: $GPGSA,A,3,32,14,26,31,3,23,22,,,,,,3.4,1.4,2.9*0B
2017-11-15 19:36:51 1510792611.666117: $GPGSV,3,1,11,32,33,111,23,14,53,096,19,16,25,190,18,26,56,171,20*7D
2017-11-15 19:36:51 1510792611.666292: $GPGSV,3,2,11,29,11,069,12,31,65,030,22,03,41,295,18,23,13,301,15*79
2017-11-15 19:36:51 1510792611.666352: $GPGSV,3,3,11,25,15,039,00,01,04,250,00,22,50,265,22*46
2017-11-15 19:36:51 1510792611.779407: $GPZDA,003650.00,16,11,2017,00,00*65
2017-11-15 19:36:51 1510792611.779531: $GPGGA,003650,3946.9591,N,08404.9594,W,1,08,1.20,292.05,M,-33.324,M,,*7A
2017-11-15 19:36:51 1510792611.779591: $GPRMC,003650,A,3946.9591,N,08404.9594,W,0.7621,287.945,161117,,*3C
2017-11-15 19:36:51 1510792611.779646: $GPGSA,A,3,32,14,26,29,31,3,23,22,,,,,3.4,1.2,2.9*06
2017-11-15 19:36:52 1510792612.330307: $GPZDA,003651.00,16,11,2017,00,00*64
2017-11-15 19:36:52 1510792612.330468: $GPGGA,003651,3946.9591,N,08404.9594,W,1,08,1.20,292.05,M,-33.324,M,,*7B
2017-11-15 19:36:52 1510792612.330528: $GPRMC,003651,A,3946.9591,N,08404.9594,W,0.9066,309.458,161117,,*30
2017-11-15 19:36:52 1510792612.330584: $GPGSA,A,3,32,14,26,29,31,3,23,22,,,,,3.4,1.2,2.9*06
2017-11-15 19:36:53 1510792613.329937: $GPZDA,003652.00,16,11,2017,00,00*67
2017-11-15 19:36:53 1510792613.330085: $GPGGA,003652,3946.9591,N,08404.9601,W,1,08,1.40,291.97,M,-33.324,M,,*79
2017-11-15 19:36:53 1510792613.330145: $GPRMC,003652,A,3946.9591,N,08404.9601,W,0.8359,328.778,161117,,*30
2017-11-15 19:36:53 1510792613.330201: $GPGSA,A,3,32,14,26,29,31,3,23,22,,,,,3.4,1.4,2.9*00
2017-11-15 19:36:54 1510792614.665684: $GPGSV,3,1,11,32,33,111,23,14,53,096,19,16,25,190,00,26,56,171,20*74
2017-11-15 19:36:54 1510792614.665847: $GPGSV,3,2,11,29,11,069,13,31,65,030,22,03,41,295,18,23,13,301,15*78
2017-11-15 19:36:54 1510792614.665908: $GPGSV,3,3,11,25,15,039,00,01,04,250,00,22,50,265,22*46
2017-11-15 19:36:54 1510792614.779002: $GPZDA,003653.00,16,11,2017,00,00*66
2017-11-15 19:36:54 1510792614.779178: $GPGGA,003653,3946.9587,N,08404.9601,W,1,07,1.40,291.33,M,-33.324,M,,*7E
2017-11-15 19:36:54 1510792614.779239: $GPRMC,003653,A,3946.9587,N,08404.9601,W,0.7278,23.636,161117,,*08
2017-11-15 19:36:54 1510792614.779296: $GPGSA,A,3,32,14,26,31,3,23,22,,,,,,3.4,1.4,2.9*0B
2017-11-15 19:36:55 1510792615.330172: $GPZDA,003654.00,16,11,2017,00,00*61
2017-11-15 19:36:55 1510792615.330334: $GPGGA,003654,3946.9587,N,08404.9601,W,1,07,1.20,291.33,M,-33.324,M,,*7F
2017-11-15 19:36:55 1510792615.330394: $GPRMC,003654,A,3946.9587,N,08404.9601,W,0.7103,45.706,161117,,*02
2017-11-15 19:36:55 1510792615.330449: $GPGSA,A,3,32,14,26,31,3,23,22,,,,,,3.4,1.2,2.9*0D
2017-11-15 19:36:56 1510792616.329061: $GPZDA,003655.00,16,11,2017,00,00*60
2017-11-15 19:36:56 1510792616.329238: $GPGGA,003655,3946.9587,N,08404.9601,W,1,07,1.20,291.33,M,-33.324,M,,*7E
2017-11-15 19:36:56 1510792616.329299: $GPRMC,003655,A,3946.9587,N,08404.9601,W,0.5951,58.684,161117,,*09
2017-11-15 19:36:56 1510792616.329354: $GPGSA,A,3,32,14,26,31,3,23,22,,,,,,3.4,1.2,2.9*0D
2017-11-15 19:36:57 1510792617.666056: $GPGSV,3,1,11,32,33,111,23,14,53,096,19,16,25,190,14,26,56,171,20*71
2017-11-15 19:36:57 1510792617.666227: $GPGSV,3,2,11,29,11,069,14,31,65,030,22,03,41,295,19,23,13,301,15*7E
2017-11-15 19:36:57 1510792617.666338: $GPGSV,3,3,11,25,15,039,00,01,04,250,00,22,50,265,22*46
2017-11-15 19:36:57 1510792617.779501: $GPZDA,003656.00,16,11,2017,00,00*63
2017-11-15 19:36:57 1510792617.779684: $GPGGA,003656,3946.9583,N,08404.9601,W,1,08,1.20,290.69,M,-33.324,M,,*78
2017-11-15 19:36:57 1510792617.779745: $GPRMC,003656,A,3946.9583,N,08404.9601,W,0.3006,62.539,161117,,*0F
2017-11-15 19:36:57 1510792617.779801: $GPGSA,A,3,32,14,26,29,31,3,23,22,,,,,3.4,1.2,2.9*06
2017-11-15 19:36:58 1510792618.345245: $GPZDA,003657.00,16,11,2017,00,00*62
2017-11-15 19:36:58 1510792618.345406: $GPGGA,003657,3946.9583,N,08404.9601,W,1,08,1.20,290.69,M,-33.324,M,,*79
2017-11-15 19:36:58 1510792618.345467: $GPRMC,003657,A,3946.9583,N,08404.9601,W,0.1567,9.201,161117,,*3F
2017-11-15 19:36:58 1510792618.345522: $GPGSA,A,3,32,14,26,29,31,3,23,22,,,,,3.4,1.2,2.9*06
2017-11-15 19:36:59 1510792619.329882: $GPZDA,003658.00,16,11,2017,00,00*6D
2017-11-15 19:36:59 1510792619.330034: $GPGGA,003658,3946.9575,N,08404.9602,W,1,08,1.20,290.82,M,-33.324,M,,*79
2017-11-15 19:36:59 1510792619.330095: $GPRMC,003658,A,3946.9575,N,08404.9602,W,0.3155,129.994,161117,,*39
2017-11-15 19:36:59 1510792619.330151: $GPGSA,A,3,32,14,26,29,31,3,23,22,,,,,3.4,1.2,2.9*06
