2018-01-12 03:35:07 1515746107.020776: {"class":"VERSION","release":"3.16","rev":"3.16-4","proto_major":3,"proto_minor":11}
2018-01-12 03:35:07 1515746107.021187: {"class":"DEVICES","devices":[{"class":"DEVICE","path":"/dev/ttyUSB0","driver":"SiRF","subtype":"9\u0006GSD4e_4.1.2-P1_RPATCH.05-F-GPS-4R-1510281 11/03/2015 307","activated":"2018-01-12T08:35:06.996Z","flags":1,"native":1,"bps":4800,"parity":"N","stopbits":1,"cycle":1.00}]}
2018-01-12 03:35:07 1515746107.021306: {"class":"WATCH","enable":true,"json":false,"nmea":true,"raw":0,"scaled":false,"timing":false,"split24":false,"pps":false}
2018-01-12 03:35:07 1515746107.890975: $GPZDA,083508.33,12,01,2018,00,00*69
2018-01-12 03:35:07 1515746107.891152: $GPGGA,083508,3946.9593,N,08404.9832,W,1,11,1.00,300.92,M,-33.324,M,,*71
2018-01-12 03:35:07 1515746107.891217: $GPRMC,083508,A,3946.9593,N,08404.9832,W,0.3423,4.197,120118,,*39
2018-01-12 03:35:07 1515746107.891280: $GPGSA,A,3,2,5,6,12,17,19,23,25,9,24,138,,2.4,1.0,2.1*09
2018-01-12 03:35:09 1515746109.033673: $GPGSV,3,1,12,02,65,289,46,05,27,195,47,06,64,031,44,12,51,289,51*70
2018-01-12 03:35:09 1515746109.033863: $GPGSV,3,2,12,17,30,105,44,19,48,094,39,25,19,318,44,09,14,087,03*7C
2018-01-12 03:35:09 1515746109.033930: $GPGSV,3,3,12,23,09,054,03,24,02,246,03,04,39,261,00,138,38,213,00*4D
2018-01-12 03:35:09 1515746109.147158: $GPZDA,083509.00,12,01,2018,00,00*68
2018-01-12 03:35:09 1515746109.147309: $GPGGA,083509,3946.9593,N,08404.9832,W,1,07,1.00,300.92,M,-33.324,M,,*77
2018-01-12 03:35:09 1515746109.147396: $GPRMC,083509,A,3946.9593,N,08404.9832,W,0.2422,93.794,120118,,*03
2018-01-12 03:35:09 1515746109.147460: $GPGSA,A,3,2,5,6,12,17,19,25,,,,,,2.4,1.0,2.1*0D
2018-01-12 03:35:09 1515746109.599097: $GPZDA,083510.00,12,01,2018,00,00*60
2018-01-12 03:35:09 1515746109.599286: $GPGGA,083510,3946.9594,N,08404.9839,W,1,07,0.80,300.84,M,-33.324,M,,*7D
2018-01-12 03:35:09 1515746109.599386: $GPRMC,083510,A,3946.9594,N,08404.9839,W,0.0000,0.000,120118,,*31
2018-01-12 03:35:09 1515746109.599450: $GPGSA,A,3,2,5,6,12,17,19,25,,,,,,2.4,0.8,2.1*04
2018-01-12 03:35:10 1515746110.356426: $GPZDA,083511.00,12,01,2018,00,00*61
2018-01-12 03:35:10 1515746110.356614: $GPGGA,083511,3946.9590,N,08404.9839,W,1,07,0.80,300.20,M,-33.324,M,,*76
2018-01-12 03:35:10 1515746110.356680: $GPRMC,083511,A,3946.9590,N,08404.9839,W,0.0000,0.000,120118,,*34
2018-01-12 03:35:10 1515746110.356742: $GPGSA,A,3,2,5,6,12,17,19,25,,,,,,2.4,0.8,2.1*04
2018-01-12 03:35:11 1515746111.691557: $GPGSV,3,1,12,02,65,289,47,05,27,195,47,06,64,031,45,12,51,289,51*70
2018-01-12 03:35:11 1515746111.691749: $GPGSV,3,2,12,17,30,105,45,19,48,094,40,25,19,318,44,09,14,087,27*75
2018-01-12 03:35:11 1515746111.691819: $GPGSV,3,3,12,23,09,054,29,24,02,246,27,04,39,261,00,138,38,213,38*48
2018-01-12 03:35:11 1515746111.805396: $GPZDA,083512.00,12,01,2018,00,00*62
2018-01-12 03:35:11 1515746111.805594: $GPGGA,083512,3946.9590,N,08404.9839,W,1,11,0.80,300.20,M,-33.324,M,,*72
2018-01-12 03:35:11 1515746111.805665: $GPRMC,083512,A,3946.9590,N,08404.9839,W,0.0000,0.000,120118,,*37
2018-01-12 03:35:11 1515746111.805744: $GPGSA,A,3,2,5,6,12,17,19,25,9,23,24,138,,2.4,0.8,2.1*00
2018-01-12 03:35:12 1515746112.356806: $GPZDA,083513.00,12,01,2018,00,00*63
2018-01-12 03:35:12 1515746112.357081: $GPGGA,083513,3946.9585,N,08404.9839,W,1,11,0.80,299.56,M,-33.324,M,,*77
2018-01-12 03:35:12 1515746112.357154: $GPRMC,083513,A,3946.9585,N,08404.9839,W,0.0000,0.000,120118,,*32
2018-01-12 03:35:12 1515746112.357219: $GPGSA,A,3,2,5,6,12,17,19,25,9,23,24,138,,2.4,0.8,2.1*00
2018-01-12 03:35:13 1515746113.356567: $GPZDA,083514.00,12,01,2018,00,00*64
2018-01-12 03:35:13 1515746113.356723: $GPGGA,083514,3946.9586,N,08404.9845,W,1,11,0.80,299.48,M,-33.324,M,,*77
2018-01-12 03:35:13 1515746113.356793: $GPRMC,083514,A,3946.9586,N,08404.9845,W,0.0000,0.000,120118,,*3D
2018-01-12 03:35:13 1515746113.356857: $GPGSA,A,3,2,5,6,12,17,19,25,9,23,24,138,,2.4,0.8,2.1*00
2018-01-12 03:35:13 1515746113.356918: $GPGBS,083514,11.98,M,14.47,M,47.88,M*01
2018-01-12 03:35:14 1515746114.690994: $GPGSV,3,1,12,02,65,289,47,05,27,195,47,06,64,031,45,12,51,289,51*70
2018-01-12 03:35:14 1515746114.691211: $GPGSV,3,2,12,17,30,105,45,19,48,094,39,25,19,318,44,09,14,087,26*7A
2018-01-12 03:35:14 1515746114.691280: $GPGSV,3,3,12,23,09,054,30,24,02,246,26,04,39,261,00,138,38,213,40*4E
2018-01-12 03:35:14 1515746114.804783: $GPZDA,083515.00,12,01,2018,00,00*65
2018-01-12 03:35:14 1515746114.804959: $GPGGA,083515,3946.9586,N,08404.9845,W,1,11,0.80,299.48,M,-33.324,M,,*76
2018-01-12 03:35:14 1515746114.805027: $GPRMC,083515,A,3946.9586,N,08404.9845,W,0.0000,0.000,120118,,*3C
2018-01-12 03:35:14 1515746114.805088: $GPGSA,A,3,2,5,6,12,17,19,25,9,23,24,138,,2.4,0.8,2.1*00
2018-01-12 03:35:15 1515746115.357092: $GPZDA,083516.00,12,01,2018,00,00*66
2018-01-12 03:35:15 1515746115.357266: $GPGGA,083516,3946.9585,N,08404.9845,W,1,11,0.80,298.08,M,-33.324,M,,*73
2018-01-12 03:35:15 1515746115.357332: $GPRMC,083516,A,3946.9585,N,08404.9845,W,0.0000,0.000,120118,,*3C
2018-01-12 03:35:15 1515746115.357393: $GPGSA,A,3,2,5,6,12,17,19,25,9,23,24,138,,2.4,0.8,2.1*00
2018-01-12 03:35:16 1515746116.358275: $GPZDA,083517.00,12,01,2018,00,00*67
2018-01-12 03:35:16 1515746116.358465: $GPGGA,083517,3946.9585,N,08404.9845,W,1,11,0.80,298.08,M,-33.324,M,,*72
2018-01-12 03:35:16 1515746116.358534: $GPRMC,083517,A,3946.9585,N,08404.9845,W,0.0000,0.000,120118,,*3D
2018-01-12 03:35:16 1515746116.358598: $GPGSA,A,3,2,5,6,12,17,19,25,9,23,24,138,,2.4,0.8,2.1*00
2018-01-12 03:35:17 1515746117.691547: $GPGSV,3,1,12,02,65,289,47,05,27,195,47,06,64,031,45,12,51,289,51*70
2018-01-12 03:35:17 1515746117.691729: $GPGSV,3,2,12,17,30,105,45,19,48,094,39,25,19,318,44,09,14,087,26*7A
2018-01-12 03:35:17 1515746117.691797: $GPGSV,3,3,12,23,09,054,30,24,02,246,19,04,39,261,00,138,38,213,34*41
2018-01-12 03:35:17 1515746117.806227: $GPZDA,083518.00,12,01,2018,00,00*68
2018-01-12 03:35:17 1515746117.806396: $GPGGA,083518,3946.9585,N,08404.9845,W,1,11,0.80,298.08,M,-33.324,M,,*7D
2018-01-12 03:35:17 1515746117.806465: $GPRMC,083518,A,3946.9585,N,08404.9845,W,0.0000,0.000,120118,,*32
2018-01-12 03:35:17 1515746117.806529: $GPGSA,A,3,2,5,6,12,17,19,25,9,23,24,138,,2.4,0.8,2.1*00
2018-01-12 03:35:18 1515746118.362459: $GPZDA,083519.00,12,01,2018,00,00*69
2018-01-12 03:35:18 1515746118.362650: $GPGGA,083519,3946.9581,N,08404.9852,W,1,11,0.80,297.36,M,-33.324,M,,*7C
2018-01-12 03:35:18 1515746118.362720: $GPRMC,083519,A,3946.9581,N,08404.9852,W,0.0000,0.000,120118,,*31
2018-01-12 03:35:18 1515746118.362785: $GPGSA,A,3,2,5,6,12,17,19,25,9,23,24,138,,2.4,0.8,2.1*00
2018-01-12 03:35:19 1515746119.357843: $GPZDA,083520.00,12,01,2018,00,00*63
2018-01-12 03:35:19 1515746119.358012: $GPGGA,083520,3946.9581,N,08404.9852,W,1,11,0.80,297.36,M,-33.324,M,,*76
2018-01-12 03:35:19 1515746119.358083: $GPRMC,083520,A,3946.9581,N,08404.9852,W,0.0000,0.000,120118,,*3B
2018-01-12 03:35:19 1515746119.358147: $GPGSA,A,3,2,5,6,12,17,19,25,9,23,24,138,,2.4,0.8,2.1*00
2018-01-12 03:35:20 1515746120.694808: $GPGSV,3,1,12,02,65,289,47,05,27,195,47,06,64,031,45,12,51,289,51*70
2018-01-12 03:35:20 1515746120.694990: $GPGSV,3,2,12,17,30,105,45,19,48,094,39,25,19,318,44,09,14,087,00*7E
2018-01-12 03:35:20 1515746120.695060: $GPGSV,3,3,12,23,09,054,30,24,02,246,20,04,39,261,00,138,38,213,37*48
2018-01-12 03:35:20 1515746120.807129: $GPZDA,083521.00,12,01,2018,00,00*62
2018-01-12 03:35:20 1515746120.807318: $GPGGA,083521,3946.9581,N,08404.9852,W,1,10,0.80,297.36,M,-33.324,M,,*76
2018-01-12 03:35:20 1515746120.807391: $GPRMC,083521,A,3946.9581,N,08404.9852,W,0.0000,0.000,120118,,*3A
2018-01-12 03:35:20 1515746120.807455: $GPGSA,A,3,2,5,6,12,17,19,25,23,24,138,,,2.4,0.8,2.1*39
2018-01-12 03:35:21 1515746121.433587: $GPZDA,083522.00,12,01,2018,00,00*61
2018-01-12 03:35:21 1515746121.433773: $GPGGA,083522,3946.9581,N,08404.9852,W,1,10,0.80,297.36,M,-33.324,M,,*75
2018-01-12 03:35:21 1515746121.433843: $GPRMC,083522,A,3946.9581,N,08404.9852,W,0.0000,0.000,120118,,*39
2018-01-12 03:35:21 1515746121.433907: $GPGSA,A,3,2,5,6,12,17,19,25,23,24,138,,,2.4,0.8,2.1*39
2018-01-12 03:35:22 1515746122.361985: $GPZDA,083523.00,12,01,2018,00,00*60
2018-01-12 03:35:22 1515746122.362160: $GPGGA,083523,3946.9580,N,08404.9851,W,2,10,0.80,295.95,M,-33.324,M,,*7E
2018-01-12 03:35:22 1515746122.362227: $GPRMC,083523,A,3946.9580,N,08404.9851,W,0.0000,0.000,120118,,*3A
2018-01-12 03:35:22 1515746122.362288: $GPGSA,A,3,2,5,6,12,17,19,25,23,24,138,,,2.4,0.8,2.1*39
2018-01-12 03:35:23 1515746123.697730: $GPGSV,3,1,12,02,65,289,47,05,27,195,48,06,64,031,45,12,51,289,51*7F
2018-01-12 03:35:23 1515746123.697911: $GPGSV,3,2,12,17,30,105,45,19,48,094,39,25,19,318,44,09,14,087,22*7E
2018-01-12 03:35:23 1515746123.697976: $GPGSV,3,3,12,23,09,054,30,24,02,246,27,04,39,261,00,138,38,213,39*41
2018-01-12 03:35:23 1515746123.811227: $GPZDA,083524.00,12,01,2018,00,00*67
2018-01-12 03:35:23 1515746123.811414: $GPGGA,083524,3946.9580,N,08404.9851,W,2,11,0.80,295.95,M,-33.324,M,,*78
2018-01-12 03:35:23 1515746123.811482: $GPRMC,083524,A,3946.9580,N,08404.9851,W,0.0000,0.000,120118,,*3D
2018-01-12 03:35:23 1515746123.811543: $GPGSA,A,3,2,5,6,12,17,19,25,9,23,24,138,,2.4,0.8,2.1*00
2018-01-12 03:35:24 1515746124.365658: $GPZDA,083525.00,12,01,2018,00,00*66
2018-01-12 03:35:24 1515746124.365831: $GPGGA,083525,3946.9580,N,08404.9851,W,2,11,0.80,295.95,M,-33.324,M,,*79
2018-01-12 03:35:24 1515746124.365897: $GPRMC,083525,A,3946.9580,N,08404.9851,W,0.0000,0.000,120118,,*3C
2018-01-12 03:35:24 1515746124.365959: $GPGSA,A,3,2,5,6,12,17,19,25,9,23,24,138,,2.4,0.8,2.1*00
2018-01-12 03:35:25 1515746125.357662: $GPZDA,083526.00,12,01,2018,00,00*65
2018-01-12 03:35:25 1515746125.357830: $GPGGA,083526,3946.9580,N,08404.9851,W,2,11,0.80,295.95,M,-33.324,M,,*7A
2018-01-12 03:35:25 1515746125.357896: $GPRMC,083526,A,3946.9580,N,08404.9851,W,0.0000,0.000,120118,,*3F
2018-01-12 03:35:25 1515746125.357957: $GPGSA,A,3,2,5,6,12,17,19,25,9,23,24,138,,2.4,0.8,2.1*00
2018-01-12 03:35:25 1515746125.358015: $GPGBS,083526,3.00,M,3.62,M,11.97,M*0E
2018-01-12 03:35:26 1515746126.696634: $GPGSV,3,1,12,02,65,289,47,05,27,195,47,06,64,031,45,12,51,289,51*70
2018-01-12 03:35:26 1515746126.696826: $GPGSV,3,2,12,17,30,105,44,19,48,094,39,25,19,318,44,09,14,087,22*7F
2018-01-12 03:35:26 1515746126.696896: $GPGSV,3,3,12,23,09,054,30,24,02,246,27,04,39,261,00,138,38,213,37*4F
2018-01-12 03:35:26 1515746126.809973: $GPZDA,083527.00,12,01,2018,00,00*64
2018-01-12 03:35:26 1515746126.810109: $GPGGA,083527,3946.9580,N,08404.9851,W,2,11,0.80,295.95,M,-33.324,M,,*7B
2018-01-12 03:35:26 1515746126.810178: $GPRMC,083527,A,3946.9580,N,08404.9851,W,0.0000,0.000,120118,,*3E
2018-01-12 03:35:26 1515746126.810241: $GPGSA,A,3,2,5,6,12,17,19,25,9,23,24,138,,2.4,0.8,2.1*00
