2017-12-01 16:27:05 1512163625.454500: {"class":"VERSION","release":"3.16","rev":"3.16-4","proto_major":3,"proto_minor":11}
2017-12-01 16:27:05 1512163625.454884: {"class":"DEVICES","devices":[{"class":"DEVICE","path":"/dev/ttyUSB0","driver":"SiRF","subtype":"9\u0006GSD4e_4.1.2-P1_RPATCH.05-F-GPS-4R-1510281 11/03/2015 307","activated":"2017-12-01T21:27:05.409Z","flags":1,"native":1,"bps":4800,"parity":"N","stopbits":1,"cycle":1.00}]}
2017-12-01 16:27:05 1512163625.455013: {"class":"WATCH","enable":true,"json":false,"nmea":true,"raw":0,"scaled":false,"timing":false,"split24":false,"pps":false}
2017-12-01 16:27:06 1512163626.706264: $GPGSV,3,1,12,01,21,301,42,10,49,147,44,14,65,324,44,22,18,312,45*7B
2017-12-01 16:27:06 1512163626.706453: $GPGSV,3,2,12,25,39,093,26,31,55,223,50,32,69,024,49,11,09,283,31*7B
2017-12-01 16:27:06 1512163626.706521: $GPGSV,3,3,12,12,23,051,00,18,19,144,18,26,01,183,24,138,38,213,34*4A
2017-12-01 16:27:06 1512163626.819632: $GPZDA,212707.00,01,12,2017,00,00*61
2017-12-01 16:27:06 1512163626.819789: $GPGGA,212707,3946.9633,N,08404.9742,W,2,10,1.20,298.31,M,-33.324,M,,*7E
2017-12-01 16:27:06 1512163626.819856: $GPRMC,212707,A,3946.9633,N,08404.9742,W,0.0000,0.000,011217,,*3D
2017-12-01 16:27:06 1512163626.819919: $GPGSA,A,3,1,10,14,22,25,31,32,11,26,138,,,2.0,1.2,1.5*38
2017-12-01 16:27:07 1512163627.370499: $GPZDA,212708.00,01,12,2017,00,00*6E
2017-12-01 16:27:07 1512163627.370680: $GPGGA,212708,3946.9633,N,08404.9742,W,2,10,1.40,298.31,M,-33.324,M,,*77
2017-12-01 16:27:07 1512163627.370764: $GPRMC,212708,A,3946.9633,N,08404.9742,W,0.0000,0.000,011217,,*32
2017-12-01 16:27:07 1512163627.370829: $GPGSA,A,3,1,10,14,22,25,31,32,11,26,138,,,2.0,1.4,1.5*3E
2017-12-01 16:27:08 1512163628.373946: $GPZDA,212709.00,01,12,2017,00,00*6F
2017-12-01 16:27:08 1512163628.374129: $GPGGA,212709,3946.9633,N,08404.9742,W,2,10,1.40,298.31,M,-33.324,M,,*76
2017-12-01 16:27:08 1512163628.374202: $GPRMC,212709,A,3946.9633,N,08404.9742,W,0.0000,0.000,011217,,*33
2017-12-01 16:27:08 1512163628.374263: $GPGSA,A,3,1,10,14,22,25,31,32,11,26,138,,,2.0,1.4,1.5*3E
2017-12-01 16:27:09 1512163629.705983: $GPGSV,3,1,12,01,21,301,42,10,49,147,44,14,65,324,44,22,18,312,45*7B
2017-12-01 16:27:09 1512163629.706171: $GPGSV,3,2,12,25,39,093,26,31,55,223,50,32,69,024,49,11,09,283,15*7D
2017-12-01 16:27:09 1512163629.706239: $GPGSV,3,3,12,12,23,051,00,18,19,144,00,26,01,183,23,138,38,213,38*48
2017-12-01 16:27:09 1512163629.819254: $GPZDA,212710.00,01,12,2017,00,00*67
2017-12-01 16:27:09 1512163629.819433: $GPGGA,212710,3946.9633,N,08404.9742,W,2,09,1.40,298.31,M,-33.324,M,,*76
2017-12-01 16:27:09 1512163629.819504: $GPRMC,212710,A,3946.9633,N,08404.9742,W,0.0000,0.000,011217,,*3B
2017-12-01 16:27:09 1512163629.819569: $GPGSA,A,3,1,10,14,22,25,31,32,26,138,,,,2.0,1.4,1.5*3E
2017-12-01 16:27:10 1512163630.444745: $GPZDA,212711.00,01,12,2017,00,00*66
2017-12-01 16:27:10 1512163630.448678: $GPGGA,212711,3946.9633,N,08404.9742,W,2,09,1.40,298.31,M,-33.324,M,,*77
2017-12-01 16:27:10 1512163630.448798: $GPRMC,212711,A,3946.9633,N,08404.9742,W,0.0000,0.000,011217,,*3A
2017-12-01 16:27:10 1512163630.448862: $GPGSA,A,3,1,10,14,22,25,31,32,26,138,,,,2.0,1.4,1.5*3E
2017-12-01 16:27:11 1512163631.375876: $GPZDA,212712.00,01,12,2017,00,00*65
2017-12-01 16:27:11 1512163631.376050: $GPGGA,212712,3946.9633,N,08404.9742,W,2,09,1.40,298.31,M,-33.324,M,,*74
2017-12-01 16:27:11 1512163631.376117: $GPRMC,212712,A,3946.9633,N,08404.9742,W,0.0000,0.000,011217,,*39
2017-12-01 16:27:11 1512163631.376180: $GPGSA,A,3,1,10,14,22,25,31,32,26,138,,,,2.0,1.4,1.5*3E
2017-12-01 16:27:13 1512163633.068322: $GPGSV,3,1,12,01,21,301,42,10,49,147,44,14,65,324,44,22,18,312,45*7B
2017-12-01 16:27:13 1512163633.068524: $GPGSV,3,2,12,25,39,093,26,31,55,223,50,32,69,024,49,12,23,051,00*7F
2017-12-01 16:27:13 1512163633.068596: $GPGSV,3,3,12,18,19,144,18,11,09,283,00,26,01,183,23,138,38,213,40*48
2017-12-01 16:27:13 1512163633.181780: $GPZDA,212713.00,01,12,2017,00,00*64
2017-12-01 16:27:13 1512163633.181977: $GPGGA,212713,3946.9633,N,08404.9742,W,2,09,1.40,298.31,M,-33.324,M,,*75
2017-12-01 16:27:13 1512163633.182189: $GPRMC,212713,A,3946.9633,N,08404.9742,W,0.0000,0.000,011217,,*38
2017-12-01 16:27:13 1512163633.182260: $GPGSA,A,3,1,10,14,22,25,31,32,26,138,,,,2.0,1.4,1.5*3E
2017-12-01 16:27:13 1512163633.792701: $GPZDA,212714.00,01,12,2017,00,00*63
2017-12-01 16:27:13 1512163633.792876: $GPGGA,212714,3946.9640,N,08404.9734,W,2,09,1.40,298.27,M,-33.324,M,,*70
2017-12-01 16:27:13 1512163633.792943: $GPRMC,212714,A,3946.9640,N,08404.9734,W,0.2422,93.794,011217,,*0C
2017-12-01 16:27:13 1512163633.793004: $GPGSA,A,3,1,10,14,22,25,31,32,26,138,,,,2.0,1.4,1.5*3E
2017-12-01 16:27:13 1512163633.793062: $GPGBS,212714,2.67,M,3.86,M,8.82,M*31
2017-12-01 16:27:14 1512163634.372486: $GPZDA,212715.00,01,12,2017,00,00*62
2017-12-01 16:27:14 1512163634.372668: $GPGGA,212715,3946.9640,N,08404.9734,W,2,09,1.20,298.27,M,-33.324,M,,*77
2017-12-01 16:27:14 1512163634.372735: $GPRMC,212715,A,3946.9640,N,08404.9734,W,0.0000,0.000,011217,,*3B
2017-12-01 16:27:14 1512163634.372798: $GPGSA,A,3,1,10,14,22,25,31,32,26,138,,,,2.0,1.2,1.5*38
2017-12-01 16:27:14 1512163634.372856: $GPGBS,212715,2.67,M,3.86,M,8.82,M*30
2017-12-01 16:27:15 1512163635.713612: $GPGSV,3,1,12,01,21,301,42,10,49,147,44,14,65,324,44,22,18,312,45*7B
2017-12-01 16:27:15 1512163635.717515: $GPGSV,3,2,12,25,39,093,27,31,55,223,50,32,69,025,49,11,09,283,00*79
2017-12-01 16:27:15 1512163635.717622: $GPGSV,3,3,12,18,19,144,18,12,22,051,12,26,01,183,23,138,38,213,40*4C
2017-12-01 16:27:15 1512163635.825702: $GPZDA,212716.00,01,12,2017,00,00*61
2017-12-01 16:27:15 1512163635.825876: $GPGGA,212716,3946.9640,N,08404.9734,W,2,10,1.20,298.27,M,-33.324,M,,*7C
2017-12-01 16:27:15 1512163635.825945: $GPRMC,212716,A,3946.9640,N,08404.9734,W,0.0000,0.000,011217,,*38
2017-12-01 16:27:15 1512163635.826005: $GPGSA,A,3,1,10,14,22,25,31,32,18,26,138,,,2.0,1.2,1.5*31
2017-12-01 16:27:16 1512163636.382834: $GPZDA,212717.00,01,12,2017,00,00*60
2017-12-01 16:27:16 1512163636.383021: $GPGGA,212717,3946.9640,N,08404.9734,W,2,10,1.20,298.27,M,-33.324,M,,*7D
2017-12-01 16:27:16 1512163636.383089: $GPRMC,212717,A,3946.9640,N,08404.9734,W,0.0000,0.000,011217,,*39
2017-12-01 16:27:16 1512163636.383151: $GPGSA,A,3,1,10,14,22,25,31,32,18,26,138,,,2.0,1.2,1.5*31
2017-12-01 16:27:17 1512163637.376219: $GPZDA,212718.00,01,12,2017,00,00*6F
2017-12-01 16:27:17 1512163637.376395: $GPGGA,212718,3946.9640,N,08404.9734,W,2,10,1.20,298.27,M,-33.324,M,,*72
2017-12-01 16:27:17 1512163637.376465: $GPRMC,212718,A,3946.9640,N,08404.9734,W,0.0000,0.000,011217,,*36
2017-12-01 16:27:17 1512163637.376530: $GPGSA,A,3,1,10,14,22,25,31,32,18,26,138,,,2.0,1.2,1.5*31
2017-12-01 16:27:18 1512163638.713212: $GPGSV,3,1,12,01,21,301,42,10,49,147,44,14,65,324,44,22,18,312,45*7B
2017-12-01 16:27:18 1512163638.713398: $GPGSV,3,2,12,25,39,093,27,31,55,223,50,32,69,025,48,11,09,283,14*7D
2017-12-01 16:27:18 1512163638.713467: $GPGSV,3,3,12,18,19,144,20,12,22,051,13,26,01,183,23,138,38,213,38*49
2017-12-01 16:27:18 1512163638.826604: $GPZDA,212719.00,01,12,2017,00,00*6E
2017-12-01 16:27:18 1512163638.826771: $GPGGA,212719,3946.9640,N,08404.9734,W,2,12,1.20,298.27,M,-33.324,M,,*71
2017-12-01 16:27:18 1512163638.826837: $GPRMC,212719,A,3946.9640,N,08404.9734,W,0.0000,0.000,011217,,*37
2017-12-01 16:27:18 1512163638.826899: $GPGSA,A,3,1,10,14,22,25,31,32,11,18,12,26,138,2.0,1.2,1.5*32
2017-12-01 16:27:19 1512163639.378721: $GPZDA,212720.00,01,12,2017,00,00*64
2017-12-01 16:27:19 1512163639.378897: $GPGGA,212720,3946.9640,N,08404.9734,W,2,12,1.20,298.27,M,-33.324,M,,*7B
2017-12-01 16:27:19 1512163639.378965: $GPRMC,212720,A,3946.9640,N,08404.9734,W,0.0000,0.000,011217,,*3D
2017-12-01 16:27:19 1512163639.379027: $GPGSA,A,3,1,10,14,22,25,31,32,11,18,12,26,138,2.0,1.2,1.5*32
2017-12-01 16:27:20 1512163640.372840: $GPZDA,212721.00,01,12,2017,00,00*65
2017-12-01 16:27:20 1512163640.373024: $GPGGA,212721,3946.9640,N,08404.9734,W,2,12,1.20,298.27,M,-33.324,M,,*7A
2017-12-01 16:27:20 1512163640.373093: $GPRMC,212721,A,3946.9640,N,08404.9734,W,0.0000,0.000,011217,,*3C
2017-12-01 16:27:20 1512163640.373204: $GPGSA,A,3,1,10,14,22,25,31,32,11,18,12,26,138,2.0,1.2,1.5*32
2017-12-01 16:27:21 1512163641.712416: $GPGSV,3,1,12,01,21,301,42,10,49,147,44,14,65,324,43,22,18,312,45*7C
2017-12-01 16:27:21 1512163641.712599: $GPGSV,3,2,12,25,39,093,27,31,55,223,50,32,69,025,48,11,09,283,26*7C
2017-12-01 16:27:21 1512163641.712667: $GPGSV,3,3,12,18,19,144,21,12,22,051,14,26,01,183,24,138,38,213,40*47
2017-12-01 16:27:21 1512163641.825826: $GPZDA,212722.00,01,12,2017,00,00*66
2017-12-01 16:27:21 1512163641.825998: $GPGGA,212722,3946.9640,N,08404.9734,W,2,12,0.80,298.27,M,-33.324,M,,*72
2017-12-01 16:27:21 1512163641.826065: $GPRMC,212722,A,3946.9640,N,08404.9734,W,0.0000,0.000,011217,,*3F
2017-12-01 16:27:21 1512163641.826126: $GPGSA,A,3,1,10,14,22,25,31,32,11,18,12,26,138,2.0,0.8,1.5*39
2017-12-01 16:27:22 1512163642.376588: $GPZDA,212723.00,01,12,2017,00,00*67
2017-12-01 16:27:22 1512163642.376772: $GPGGA,212723,3946.9640,N,08404.9734,W,2,12,1.20,298.27,M,-33.324,M,,*78
2017-12-01 16:27:22 1512163642.376841: $GPRMC,212723,A,3946.9640,N,08404.9734,W,0.0000,0.000,011217,,*3E
2017-12-01 16:27:22 1512163642.376904: $GPGSA,A,3,1,10,14,22,25,31,32,11,18,12,26,138,2.0,1.2,1.5*32
2017-12-01 16:27:23 1512163643.382936: $GPZDA,212724.00,01,12,2017,00,00*60
2017-12-01 16:27:23 1512163643.383114: $GPGGA,212724,3946.9640,N,08404.9734,W,2,12,0.80,298.27,M,-33.324,M,,*74
2017-12-01 16:27:23 1512163643.383181: $GPRMC,212724,A,3946.9640,N,08404.9734,W,0.0000,0.000,011217,,*39
2017-12-01 16:27:23 1512163643.383241: $GPGSA,A,3,1,10,14,22,25,31,32,11,18,12,26,138,2.0,0.8,1.5*39
2017-12-01 16:27:24 1512163644.708190: $GPGSV,3,1,12,01,21,301,42,10,49,147,44,14,65,324,43,22,18,312,45*7C
2017-12-01 16:27:24 1512163644.708386: $GPGSV,3,2,12,25,39,093,28,31,55,223,50,32,69,025,49,11,09,283,27*73
2017-12-01 16:27:24 1512163644.708457: $GPGSV,3,3,12,18,19,144,21,12,22,051,24,26,01,183,17,138,38,213,41*45
2017-12-01 16:27:24 1512163644.821589: $GPZDA,212725.00,01,12,2017,00,00*61
2017-12-01 16:27:24 1512163644.821731: $GPGGA,212725,3946.9640,N,08404.9734,W,2,12,0.80,298.27,M,-33.324,M,,*75
2017-12-01 16:27:24 1512163644.821801: $GPRMC,212725,A,3946.9640,N,08404.9734,W,0.0000,0.000,011217,,*38
2017-12-01 16:27:24 1512163644.821864: $GPGSA,A,3,1,10,14,22,25,31,32,11,18,12,26,138,2.0,0.8,1.5*39
2017-12-01 16:27:25 1512163645.447190: $GPZDA,212726.00,01,12,2017,00,00*62
2017-12-01 16:27:25 1512163645.447381: $GPGGA,212726,3946.9640,N,08404.9734,W,2,12,1.00,298.27,M,-33.324,M,,*7F
2017-12-01 16:27:25 1512163645.447453: $GPRMC,212726,A,3946.9640,N,08404.9734,W,0.0000,0.000,011217,,*3B
2017-12-01 16:27:25 1512163645.447517: $GPGSA,A,3,1,10,14,22,25,31,32,11,18,12,26,138,2.0,1.0,1.5*30
