2017-12-31 16:57:25 1514757445.716759: {"class":"VERSION","release":"3.16","rev":"3.16-4","proto_major":3,"proto_minor":11}
2017-12-31 16:57:25 1514757445.717207: {"class":"DEVICES","devices":[{"class":"DEVICE","path":"/dev/ttyUSB0","driver":"SiRF","activated":"2017-12-31T21:57:25.550Z","flags":1,"native":1,"bps":4800,"parity":"N","stopbits":1,"cycle":1.00}]}
2017-12-31 16:57:25 1514757445.717321: {"class":"WATCH","enable":true,"json":false,"nmea":true,"raw":0,"scaled":false,"timing":false,"split24":false,"pps":false}
2017-12-31 16:57:26 1514757446.343787: $GPZDA,215727.00,31,12,2017,00,00*67
2017-12-31 16:57:26 1514757446.343958: $GPGGA,215727,3946.9584,N,08404.9862,W,2,11,1.00,302.90,M,-33.324,M,,*73
2017-12-31 16:57:26 1514757446.344025: $GPRMC,215727,A,3946.9584,N,08404.9862,W,0.0000,0.000,311217,,*39
2017-12-31 16:57:26 1514757446.344087: $GPGSA,A,3,22,23,25,3,16,29,31,14,32,26,135,,1.7,1.0,1.3*3B
2017-12-31 16:57:27 1514757447.680734: $GPGSV,3,1,11,22,46,244,40,23,25,307,42,25,04,037,23,03,46,276,40*7B
2017-12-31 16:57:27 1514757447.680915: $GPGSV,3,2,11,16,42,190,46,29,14,058,00,31,52,048,51,14,43,111,39*74
2017-12-31 16:57:27 1514757447.680986: $GPGSV,3,3,11,32,21,120,44,26,72,151,45,135,22,240,42*7A
2017-12-31 16:57:27 1514757447.794162: $GPZDA,215728.00,31,12,2017,00,00*68
2017-12-31 16:57:27 1514757447.794339: $GPGGA,215728,3946.9584,N,08404.9862,W,2,10,1.00,302.90,M,-33.324,M,,*7D
2017-12-31 16:57:27 1514757447.794404: $GPRMC,215728,A,3946.9584,N,08404.9862,W,0.0000,0.000,311217,,*36
2017-12-31 16:57:27 1514757447.794465: $GPGSA,A,3,22,23,25,3,16,31,14,32,26,135,,,1.7,1.0,1.3*30
2017-12-31 16:57:28 1514757448.343651: $GPZDA,215729.00,31,12,2017,00,00*69
2017-12-31 16:57:28 1514757448.343835: $GPGGA,215729,3946.9584,N,08404.9862,W,2,10,1.00,302.90,M,-33.324,M,,*7C
2017-12-31 16:57:28 1514757448.343902: $GPRMC,215729,A,3946.9584,N,08404.9862,W,0.0000,0.000,311217,,*37
2017-12-31 16:57:28 1514757448.343981: $GPGSA,A,3,22,23,25,3,16,31,14,32,26,135,,,1.7,1.0,1.3*30
2017-12-31 16:57:29 1514757449.360822: $GPZDA,215730.00,31,12,2017,00,00*61
2017-12-31 16:57:29 1514757449.361018: $GPGGA,215730,3946.9584,N,08404.9862,W,2,10,1.00,302.90,M,-33.324,M,,*74
2017-12-31 16:57:29 1514757449.361085: $GPRMC,215730,A,3946.9584,N,08404.9862,W,0.0000,0.000,311217,,*3F
2017-12-31 16:57:29 1514757449.361147: $GPGSA,A,3,22,23,25,3,16,31,14,32,26,135,,,1.7,1.0,1.3*30
2017-12-31 16:57:30 1514757450.672262: $GPGSV,3,1,11,22,46,244,40,23,25,307,42,25,04,037,23,03,46,276,40*7B
2017-12-31 16:57:30 1514757450.672443: $GPGSV,3,2,11,16,42,190,46,29,14,058,12,31,52,048,51,14,43,111,39*77
2017-12-31 16:57:30 1514757450.672512: $GPGSV,3,3,11,32,21,120,44,26,72,151,45,135,22,240,42*7A
2017-12-31 16:57:30 1514757450.785638: $GPZDA,215731.00,31,12,2017,00,00*60
2017-12-31 16:57:30 1514757450.785812: $GPGGA,215731,3946.9584,N,08404.9862,W,2,11,1.00,302.90,M,-33.324,M,,*74
2017-12-31 16:57:30 1514757450.785879: $GPRMC,215731,A,3946.9584,N,08404.9862,W,0.0000,0.000,311217,,*3E
2017-12-31 16:57:30 1514757450.785957: $GPGSA,A,3,22,23,25,3,16,29,31,14,32,26,135,,1.7,1.0,1.3*3B
2017-12-31 16:57:31 1514757451.344017: $GPZDA,215732.00,31,12,2017,00,00*63
2017-12-31 16:57:31 1514757451.344171: $GPGGA,215732,3946.9584,N,08404.9862,W,2,11,1.00,302.90,M,-33.324,M,,*77
2017-12-31 16:57:31 1514757451.344236: $GPRMC,215732,A,3946.9584,N,08404.9862,W,0.0000,0.000,311217,,*3D
2017-12-31 16:57:31 1514757451.344297: $GPGSA,A,3,22,23,25,3,16,29,31,14,32,26,135,,1.7,1.0,1.3*3B
2017-12-31 16:57:32 1514757452.352398: $GPZDA,215733.00,31,12,2017,00,00*62
2017-12-31 16:57:32 1514757452.352557: $GPGGA,215733,3946.9584,N,08404.9862,W,2,11,1.00,302.90,M,-33.324,M,,*76
2017-12-31 16:57:32 1514757452.352623: $GPRMC,215733,A,3946.9584,N,08404.9862,W,0.0000,0.000,311217,,*3C
2017-12-31 16:57:32 1514757452.352683: $GPGSA,A,3,22,23,25,3,16,29,31,14,32,26,135,,1.7,1.0,1.3*3B
2017-12-31 16:57:33 1514757453.679340: $GPGSV,3,1,11,22,46,244,41,23,25,307,42,25,04,037,23,03,46,276,39*74
2017-12-31 16:57:33 1514757453.679501: $GPGSV,3,2,11,16,42,190,46,29,14,058,22,31,52,048,51,14,43,111,39*74
2017-12-31 16:57:33 1514757453.679604: $GPGSV,3,3,11,32,21,120,44,26,72,151,45,135,22,240,43*7B
2017-12-31 16:57:33 1514757453.792772: $GPZDA,215734.00,31,12,2017,00,00*65
2017-12-31 16:57:33 1514757453.792967: $GPGGA,215734,3946.9584,N,08404.9862,W,2,11,1.00,302.90,M,-33.324,M,,*71
2017-12-31 16:57:33 1514757453.793035: $GPRMC,215734,A,3946.9584,N,08404.9862,W,0.0000,0.000,311217,,*3B
2017-12-31 16:57:33 1514757453.793096: $GPGSA,A,3,22,23,25,3,16,29,31,14,32,26,135,,1.7,1.0,1.3*3B
2017-12-31 16:57:34 1514757454.343623: $GPZDA,215735.00,31,12,2017,00,00*64
2017-12-31 16:57:34 1514757454.343808: $GPGGA,215735,3946.9584,N,08404.9862,W,2,11,1.00,302.90,M,-33.324,M,,*70
2017-12-31 16:57:34 1514757454.343893: $GPRMC,215735,A,3946.9584,N,08404.9862,W,0.0000,0.000,311217,,*3A
2017-12-31 16:57:34 1514757454.343972: $GPGSA,A,3,22,23,25,3,16,29,31,14,32,26,135,,1.7,1.0,1.3*3B
2017-12-31 16:57:35 1514757455.343972: $GPZDA,215736.00,31,12,2017,00,00*67
2017-12-31 16:57:35 1514757455.344152: $GPGGA,215736,3946.9584,N,08404.9862,W,2,11,1.00,302.90,M,-33.324,M,,*73
2017-12-31 16:57:35 1514757455.344219: $GPRMC,215736,A,3946.9584,N,08404.9862,W,0.0000,0.000,311217,,*39
2017-12-31 16:57:35 1514757455.344280: $GPGSA,A,3,22,23,25,3,16,29,31,14,32,26,135,,1.7,1.0,1.3*3B
