2018-01-12 04:42:47 1515750167.563394: {"class":"VERSION","release":"3.16","rev":"3.16-4","proto_major":3,"proto_minor":11}
2018-01-12 04:42:47 1515750167.563744: {"class":"DEVICES","devices":[{"class":"DEVICE","path":"/dev/ttyUSB0","driver":"SiRF","subtype":"9\u0006GSD4e_4.1.2-P1_RPATCH.05-F-GPS-4R-1510281 11/03/2015 307","activated":"2018-01-12T09:42:47.254Z","flags":1,"native":1,"bps":4800,"parity":"N","stopbits":1,"cycle":1.00}]}
2018-01-12 04:42:47 1515750167.563860: {"class":"WATCH","enable":true,"json":false,"nmea":true,"raw":0,"scaled":false,"timing":false,"split24":false,"pps":false}
2018-01-12 04:42:47 1515750167.703719: $GPGSV,3,1,12,02,70,013,43,05,60,201,49,12,46,238,51,20,08,222,31*73
2018-01-12 04:42:47 1515750167.703877: $GPGSV,3,2,12,25,35,291,37,29,19,310,48,06,40,063,31,09,19,058,20*72
2018-01-12 04:42:47 1515750167.703941: $GPGSV,3,3,12,17,06,126,22,19,24,121,22,04,61,300,00,138,38,213,47*41
2018-01-12 04:42:47 1515750167.817127: $GPZDA,094248.00,12,01,2018,00,00*6C
2018-01-12 04:42:47 1515750167.817301: $GPGGA,094248,3946.9662,N,08404.9827,W,2,11,0.80,316.85,M,-33.324,M,,*76
2018-01-12 04:42:47 1515750167.817367: $GPRMC,094248,A,3946.9662,N,08404.9827,W,0.0000,0.000,120118,,*38
2018-01-12 04:42:47 1515750167.817429: $GPGSA,A,3,2,5,12,20,25,29,6,9,17,19,138,,2.4,0.8,2.1*0E
2018-01-12 04:42:48 1515750168.368000: $GPZDA,094249.00,12,01,2018,00,00*6D
2018-01-12 04:42:48 1515750168.368177: $GPGGA,094249,3946.9662,N,08404.9827,W,2,11,0.80,316.85,M,-33.324,M,,*77
2018-01-12 04:42:48 1515750168.368246: $GPRMC,094249,A,3946.9662,N,08404.9827,W,0.0000,0.000,120118,,*39
2018-01-12 04:42:48 1515750168.368307: $GPGSA,A,3,2,5,12,20,25,29,6,9,17,19,138,,2.4,0.8,2.1*0E
2018-01-12 04:42:49 1515750169.371530: $GPZDA,094250.00,12,01,2018,00,00*65
2018-01-12 04:42:49 1515750169.371710: $GPGGA,094250,3946.9669,N,08404.9826,W,2,11,0.80,315.33,M,-33.324,M,,*7B
2018-01-12 04:42:49 1515750169.371776: $GPRMC,094250,A,3946.9669,N,08404.9826,W,0.0000,0.000,120118,,*3B
2018-01-12 04:42:49 1515750169.371838: $GPGSA,A,3,2,5,12,20,25,29,6,9,17,19,138,,2.4,0.8,2.1*0E
2018-01-12 04:42:50 1515750170.704599: $GPGSV,3,1,12,02,70,013,43,05,60,201,49,12,46,238,51,20,08,222,30*72
2018-01-12 04:42:50 1515750170.704778: $GPGSV,3,2,12,25,35,291,38,29,19,310,47,06,40,063,30,09,19,058,20*73
2018-01-12 04:42:50 1515750170.704844: $GPGSV,3,3,12,17,06,126,15,19,24,121,00,04,61,300,00,138,38,213,48*4A
2018-01-12 04:42:50 1515750170.818277: $GPZDA,094251.00,12,01,2018,00,00*64
2018-01-12 04:42:50 1515750170.818451: $GPGGA,094251,3946.9669,N,08404.9826,W,2,10,0.80,315.33,M,-33.324,M,,*7B
2018-01-12 04:42:50 1515750170.818518: $GPRMC,094251,A,3946.9669,N,08404.9826,W,0.0000,0.000,120118,,*3A
2018-01-12 04:42:50 1515750170.818580: $GPGSA,A,3,2,5,12,20,25,29,6,9,17,138,,,2.4,0.8,2.1*06
2018-01-12 04:42:51 1515750171.443329: $GPZDA,094252.00,12,01,2018,00,00*67
2018-01-12 04:42:51 1515750171.443505: $GPGGA,094252,3946.9669,N,08404.9826,W,2,10,0.80,315.33,M,-33.324,M,,*78
2018-01-12 04:42:51 1515750171.443574: $GPRMC,094252,A,3946.9669,N,08404.9826,W,0.0000,0.000,120118,,*39
2018-01-12 04:42:51 1515750171.443636: $GPGSA,A,3,2,5,12,20,25,29,6,9,17,138,,,2.4,0.8,2.1*06
2018-01-12 04:42:52 1515750172.368224: $GPZDA,094253.00,12,01,2018,00,00*66
2018-01-12 04:42:52 1515750172.368387: $GPGGA,094253,3946.9669,N,08404.9826,W,2,10,0.80,315.33,M,-33.324,M,,*79
2018-01-12 04:42:52 1515750172.368455: $GPRMC,094253,A,3946.9669,N,08404.9826,W,0.0000,0.000,120118,,*38
2018-01-12 04:42:52 1515750172.368516: $GPGSA,A,3,2,5,12,20,25,29,6,9,17,138,,,2.4,0.8,2.1*06
2018-01-12 04:42:53 1515750173.706257: $GPGSV,3,1,12,02,70,013,43,05,60,201,50,12,46,238,50,20,08,222,31*7A
2018-01-12 04:42:53 1515750173.706446: $GPGSV,3,2,12,25,35,291,38,29,19,310,47,06,40,063,30,09,19,058,20*73
2018-01-12 04:42:53 1515750173.706513: $GPGSV,3,3,12,17,06,126,19,23,02,030,08,19,24,121,00,138,38,213,47*41
2018-01-12 04:42:53 1515750173.819903: $GPZDA,094254.00,12,01,2018,00,00*61
2018-01-12 04:42:53 1515750173.820073: $GPGGA,094254,3946.9669,N,08404.9826,W,2,10,0.80,315.33,M,-33.324,M,,*7E
2018-01-12 04:42:53 1515750173.820192: $GPRMC,094254,A,3946.9669,N,08404.9826,W,0.0000,0.000,120118,,*3F
2018-01-12 04:42:53 1515750173.820255: $GPGSA,A,3,2,5,12,20,25,29,6,9,17,138,,,2.4,0.8,2.1*06
2018-01-12 04:42:54 1515750174.367072: $GPZDA,094255.00,12,01,2018,00,00*60
2018-01-12 04:42:54 1515750174.367253: $GPGGA,094255,3946.9669,N,08404.9826,W,2,10,1.00,315.33,M,-33.324,M,,*76
2018-01-12 04:42:54 1515750174.367319: $GPRMC,094255,A,3946.9669,N,08404.9826,W,0.0000,0.000,120118,,*3E
2018-01-12 04:42:54 1515750174.367381: $GPGSA,A,3,2,5,12,20,25,29,6,9,17,138,,,2.4,1.0,2.1*0F
2018-01-12 04:42:55 1515750175.369159: $GPZDA,094256.00,12,01,2018,00,00*63
2018-01-12 04:42:55 1515750175.369324: $GPGGA,094256,3946.9669,N,08404.9826,W,2,10,1.00,315.33,M,-33.324,M,,*75
2018-01-12 04:42:55 1515750175.369391: $GPRMC,094256,A,3946.9669,N,08404.9826,W,0.0000,0.000,120118,,*3D
2018-01-12 04:42:55 1515750175.369452: $GPGSA,A,3,2,5,12,20,25,29,6,9,17,138,,,2.4,1.0,2.1*0F
2018-01-12 04:42:56 1515750176.704066: $GPGSV,3,1,12,02,70,013,44,05,60,201,50,12,46,238,51,20,08,222,32*7F
2018-01-12 04:42:56 1515750176.704294: $GPGSV,3,2,12,25,35,291,37,29,19,310,47,06,40,063,31,09,19,058,20*7D
2018-01-12 04:42:56 1515750176.704364: $GPGSV,3,3,12,17,06,126,06,19,24,121,00,04,61,300,00,138,38,213,48*48
2018-01-12 04:42:56 1515750176.817925: $GPZDA,094257.00,12,01,2018,00,00*62
2018-01-12 04:42:56 1515750176.818084: $GPGGA,094257,3946.9669,N,08404.9826,W,2,10,1.00,315.33,M,-33.324,M,,*74
2018-01-12 04:42:56 1515750176.818150: $GPRMC,094257,A,3946.9669,N,08404.9826,W,0.0000,0.000,120118,,*3C
2018-01-12 04:42:56 1515750176.818211: $GPGSA,A,3,2,5,12,20,25,29,6,9,17,138,,,2.4,1.0,2.1*0F
2018-01-12 04:42:57 1515750177.369941: $GPZDA,094258.00,12,01,2018,00,00*6D
2018-01-12 04:42:57 1515750177.370138: $GPGGA,094258,3946.9669,N,08404.9826,W,2,10,0.80,315.33,M,-33.324,M,,*72
2018-01-12 04:42:57 1515750177.374834: $GPRMC,094258,A,3946.9669,N,08404.9826,W,0.0000,0.000,120118,,*33
2018-01-12 04:42:57 1515750177.374934: $GPGSA,A,3,2,5,12,20,25,29,6,9,17,138,,,2.4,0.8,2.1*06
2018-01-12 04:42:58 1515750178.372018: $GPZDA,094259.00,12,01,2018,00,00*6C
2018-01-12 04:42:58 1515750178.372187: $GPGGA,094259,3946.9665,N,08404.9826,W,2,10,0.80,314.69,M,-33.324,M,,*71
2018-01-12 04:42:58 1515750178.372254: $GPRMC,094259,A,3946.9665,N,08404.9826,W,0.0000,0.000,120118,,*3E
2018-01-12 04:42:58 1515750178.372314: $GPGSA,A,3,2,5,12,20,25,29,6,9,17,138,,,2.4,0.8,2.1*06
2018-01-12 04:42:59 1515750179.708664: $GPGSV,3,1,12,02,70,013,44,05,60,201,50,12,46,238,51,20,08,222,33*7E
2018-01-12 04:42:59 1515750179.708830: $GPGSV,3,2,12,25,35,291,38,29,19,310,47,06,40,063,31,09,19,058,19*78
2018-01-12 04:42:59 1515750179.708896: $GPGSV,3,3,12,17,06,126,16,19,24,121,00,04,61,300,00,138,38,213,47*46
2018-01-12 04:42:59 1515750179.822040: $GPZDA,094300.00,12,01,2018,00,00*61
2018-01-12 04:42:59 1515750179.822198: $GPGGA,094300,3946.9665,N,08404.9826,W,2,10,0.80,314.69,M,-33.324,M,,*7C
2018-01-12 04:42:59 1515750179.822278: $GPRMC,094300,A,3946.9665,N,08404.9826,W,0.0000,0.000,120118,,*33
2018-01-12 04:42:59 1515750179.822341: $GPGSA,A,3,2,5,12,20,25,29,6,9,17,138,,,2.4,0.8,2.1*06
2018-01-12 04:43:00 1515750180.369592: $GPZDA,094301.00,12,01,2018,00,00*60
2018-01-12 04:43:00 1515750180.369761: $GPGGA,094301,3946.9665,N,08404.9826,W,2,10,0.80,314.69,M,-33.324,M,,*7D
2018-01-12 04:43:00 1515750180.369828: $GPRMC,094301,A,3946.9665,N,08404.9826,W,0.0000,0.000,120118,,*32
2018-01-12 04:43:00 1515750180.369889: $GPGSA,A,3,2,5,12,20,25,29,6,9,17,138,,,2.4,0.8,2.1*06
2018-01-12 04:43:01 1515750181.371018: $GPZDA,094302.00,12,01,2018,00,00*63
2018-01-12 04:43:01 1515750181.371189: $GPGGA,094302,3946.9665,N,08404.9826,W,2,10,0.80,314.69,M,-33.324,M,,*7E
2018-01-12 04:43:01 1515750181.371256: $GPRMC,094302,A,3946.9665,N,08404.9826,W,0.0000,0.000,120118,,*31
2018-01-12 04:43:01 1515750181.371317: $GPGSA,A,3,2,5,12,20,25,29,6,9,17,138,,,2.4,0.8,2.1*06
2018-01-12 04:43:02 1515750182.707829: $GPGSV,3,1,12,02,70,013,44,05,60,201,50,12,46,238,51,20,08,222,34*79
2018-01-12 04:43:02 1515750182.708175: $GPGSV,3,2,12,25,35,291,37,29,19,310,47,06,40,063,32,09,19,058,20*7E
2018-01-12 04:43:02 1515750182.708253: $GPGSV,3,3,12,17,06,126,19,19,24,121,00,04,61,300,00,138,38,213,47*49
2018-01-12 04:43:02 1515750182.821197: $GPZDA,094303.00,12,01,2018,00,00*62
2018-01-12 04:43:02 1515750182.821349: $GPGGA,094303,3946.9665,N,08404.9826,W,2,10,0.80,314.69,M,-33.324,M,,*7F
2018-01-12 04:43:02 1515750182.821416: $GPRMC,094303,A,3946.9665,N,08404.9826,W,0.0000,0.000,120118,,*30
2018-01-12 04:43:02 1515750182.821477: $GPGSA,A,3,2,5,12,20,25,29,6,9,17,138,,,2.4,0.8,2.1*06
2018-01-12 04:43:03 1515750183.377449: $GPZDA,094304.00,12,01,2018,00,00*65
2018-01-12 04:43:03 1515750183.377608: $GPGGA,094304,3946.9665,N,08404.9826,W,2,10,0.80,314.69,M,-33.324,M,,*78
2018-01-12 04:43:03 1515750183.377691: $GPRMC,094304,A,3946.9665,N,08404.9826,W,0.0000,0.000,120118,,*37
2018-01-12 04:43:03 1515750183.377753: $GPGSA,A,3,2,5,12,20,25,29,6,9,17,138,,,2.4,0.8,2.1*06
2018-01-12 04:43:04 1515750184.368127: $GPZDA,094305.00,12,01,2018,00,00*64
2018-01-12 04:43:04 1515750184.368306: $GPGGA,094305,3946.9665,N,08404.9826,W,2,10,0.80,314.69,M,-33.324,M,,*79
2018-01-12 04:43:04 1515750184.368373: $GPRMC,094305,A,3946.9665,N,08404.9826,W,0.0000,0.000,120118,,*36
2018-01-12 04:43:04 1515750184.368435: $GPGSA,A,3,2,5,12,20,25,29,6,9,17,138,,,2.4,0.8,2.1*06
2018-01-12 04:43:05 1515750185.707392: $GPGSV,3,1,12,02,70,013,44,05,60,201,50,12,46,238,51,20,08,222,35*78
2018-01-12 04:43:05 1515750185.707574: $GPGSV,3,2,12,25,35,291,37,29,19,310,47,06,40,063,32,09,19,058,25*7B
2018-01-12 04:43:05 1515750185.707640: $GPGSV,3,3,12,17,06,126,20,19,24,121,00,04,61,300,00,138,38,213,47*43
2018-01-12 04:43:05 1515750185.820833: $GPZDA,094306.00,12,01,2018,00,00*67
2018-01-12 04:43:05 1515750185.821000: $GPGGA,094306,3946.9665,N,08404.9826,W,2,10,0.80,314.69,M,-33.324,M,,*7A
2018-01-12 04:43:05 1515750185.821068: $GPRMC,094306,A,3946.9665,N,08404.9826,W,0.0000,0.000,120118,,*35
2018-01-12 04:43:05 1515750185.821130: $GPGSA,A,3,2,5,12,20,25,29,6,9,17,138,,,2.4,0.8,2.1*06
2018-01-12 04:43:06 1515750186.446209: $GPZDA,094307.00,12,01,2018,00,00*66
2018-01-12 04:43:06 1515750186.446404: $GPGGA,094307,3946.9665,N,08404.9826,W,2,10,0.80,314.69,M,-33.324,M,,*7B
2018-01-12 04:43:06 1515750186.446482: $GPRMC,094307,A,3946.9665,N,08404.9826,W,0.0000,0.000,120118,,*34
2018-01-12 04:43:06 1515750186.446546: $GPGSA,A,3,2,5,12,20,25,29,6,9,17,138,,,2.4,0.8,2.1*06
2018-01-12 04:43:07 1515750187.367449: $GPZDA,094308.00,12,01,2018,00,00*69
2018-01-12 04:43:07 1515750187.367622: $GPGGA,094308,3946.9665,N,08404.9826,W,2,10,0.80,314.69,M,-33.324,M,,*74
2018-01-12 04:43:07 1515750187.367691: $GPRMC,094308,A,3946.9665,N,08404.9826,W,0.0000,0.000,120118,,*3B
2018-01-12 04:43:07 1515750187.367752: $GPGSA,A,3,2,5,12,20,25,29,6,9,17,138,,,2.4,0.8,2.1*06
