2017-11-16 17:19:09 1510870749.351579: {"class":"VERSION","release":"3.17","rev":"3.17","proto_major":3,"proto_minor":12}
2017-11-16 17:19:09 1510870749.352056: {"class":"DEVICES","devices":[{"class":"DEVICE","path":"/dev/ttyUSB0","driver":"SiRF","subtype":"9\u0006GSD4e_4.1.2-P1_RPATCH.05-F-GPS-4R-1510281 11/03/2015 307","activated":"2017-11-16T22:19:09.308Z","flags":1,"native":1,"bps":4800,"parity":"N","stopbits":1,"cycle":1.00}]}
2017-11-16 17:19:09 1510870749.352177: {"class":"WATCH","enable":true,"json":false,"nmea":true,"raw":0,"scaled":false,"timing":false,"split24":false,"pps":false}
2017-11-16 17:19:09 1510870749.757669: $GPGSV,3,1,12,01,20,306,35,10,54,145,50,22,14,312,25,12,24,055,49*77
2017-11-16 17:19:09 1510870749.757832: $GPGSV,3,2,12,14,63,316,48,18,24,142,43,24,02,048,16,11,10,288,39*7A
2017-11-16 17:19:09 1510870749.757892: $GPGSV,3,3,12,25,38,097,47,31,49,220,49,32,70,010,49,138,38,213,45*43
2017-11-16 17:19:09 1510870749.871200: $GPZDA,221908.00,16,11,2017,00,00*65
2017-11-16 17:19:09 1510870749.871366: $GPGGA,221908,3946.9571,N,08404.9825,W,2,12,0.80,310.64,M,-33.324,M,,*7C
2017-11-16 17:19:09 1510870749.871427: $GPRMC,221908,A,3946.9571,N,08404.9825,W,0.0000,0.000,161117,,*32
2017-11-16 17:19:09 1510870749.871484: $GPGSA,A,3,1,10,22,12,14,18,24,11,25,31,32,138,1.6,0.8,1.3*38
2017-11-16 17:19:10 1510870750.400685: $GPZDA,221909.00,16,11,2017,00,00*64
2017-11-16 17:19:10 1510870750.400857: $GPGGA,221909,3946.9571,N,08404.9825,W,2,12,0.80,310.64,M,-33.324,M,,*7D
2017-11-16 17:19:10 1510870750.400917: $GPRMC,221909,A,3946.9571,N,08404.9825,W,0.0000,0.000,161117,,*33
2017-11-16 17:19:10 1510870750.400972: $GPGSA,A,3,1,10,22,12,14,18,24,11,25,31,32,138,1.6,0.8,1.3*38
2017-11-16 17:19:11 1510870751.419827: $GPZDA,221910.00,16,11,2017,00,00*6C
2017-11-16 17:19:11 1510870751.419991: $GPGGA,221910,3946.9571,N,08404.9825,W,2,12,0.80,310.64,M,-33.324,M,,*75
2017-11-16 17:19:11 1510870751.420053: $GPRMC,221910,A,3946.9571,N,08404.9825,W,0.0000,0.000,161117,,*3B
2017-11-16 17:19:11 1510870751.420108: $GPGSA,A,3,1,10,22,12,14,18,24,11,25,31,32,138,1.6,0.8,1.3*38
2017-11-16 17:19:12 1510870752.738228: $GPGSV,3,1,12,01,20,306,36,10,54,145,50,22,14,312,28,12,24,055,49*79
2017-11-16 17:19:12 1510870752.738411: $GPGSV,3,2,12,14,63,316,48,18,24,142,43,24,02,048,16,11,10,288,39*7A
2017-11-16 17:19:12 1510870752.738472: $GPGSV,3,3,12,25,38,097,48,31,49,220,50,32,70,010,50,138,38,213,45*4C
2017-11-16 17:19:12 1510870752.851511: $GPZDA,221911.00,16,11,2017,00,00*6D
2017-11-16 17:19:12 1510870752.851662: $GPGGA,221911,3946.9571,N,08404.9825,W,2,12,0.80,310.64,M,-33.324,M,,*74
2017-11-16 17:19:12 1510870752.851724: $GPRMC,221911,A,3946.9571,N,08404.9825,W,0.0000,0.000,161117,,*3A
2017-11-16 17:19:12 1510870752.851780: $GPGSA,A,3,1,10,22,12,14,18,24,11,25,31,32,138,1.6,0.8,1.3*38
2017-11-16 17:19:13 1510870753.402328: $GPZDA,221912.00,16,11,2017,00,00*6E
2017-11-16 17:19:13 1510870753.405993: $GPGGA,221912,3946.9571,N,08404.9832,W,2,12,0.80,310.56,M,-33.324,M,,*70
2017-11-16 17:19:13 1510870753.406094: $GPRMC,221912,A,3946.9571,N,08404.9832,W,0.0000,0.000,161117,,*3F
2017-11-16 17:19:13 1510870753.406152: $GPGSA,A,3,1,10,22,12,14,18,24,11,25,31,32,138,1.6,0.8,1.3*38
2017-11-16 17:19:14 1510870754.420696: $GPZDA,221913.00,16,11,2017,00,00*6F
2017-11-16 17:19:14 1510870754.420859: $GPGGA,221913,3946.9571,N,08404.9832,W,2,12,0.80,310.56,M,-33.324,M,,*71
2017-11-16 17:19:14 1510870754.420920: $GPRMC,221913,A,3946.9571,N,08404.9832,W,0.0000,0.000,161117,,*3E
2017-11-16 17:19:14 1510870754.420975: $GPGSA,A,3,1,10,22,12,14,18,24,11,25,31,32,138,1.6,0.8,1.3*38
2017-11-16 17:19:15 1510870755.756532: $GPGSV,3,1,12,01,20,306,37,10,54,145,50,22,14,312,27,12,24,055,49*77
2017-11-16 17:19:15 1510870755.756702: $GPGSV,3,2,12,14,63,316,48,18,24,142,43,24,02,048,16,11,10,288,39*7A
2017-11-16 17:19:15 1510870755.756762: $GPGSV,3,3,12,25,38,097,47,31,49,220,50,32,70,010,50,138,38,213,45*43
2017-11-16 17:19:15 1510870755.869800: $GPZDA,221914.00,16,11,2017,00,00*68
2017-11-16 17:19:15 1510870755.869956: $GPGGA,221914,3946.9571,N,08404.9832,W,2,12,0.80,310.56,M,-33.324,M,,*76
2017-11-16 17:19:15 1510870755.870074: $GPRMC,221914,A,3946.9571,N,08404.9832,W,0.0000,0.000,161117,,*39
2017-11-16 17:19:15 1510870755.870132: $GPGSA,A,3,1,10,22,12,14,18,24,11,25,31,32,138,1.6,0.8,1.3*38
2017-11-16 17:19:16 1510870756.495241: $GPZDA,221915.00,16,11,2017,00,00*69
2017-11-16 17:19:16 1510870756.495407: $GPGGA,221915,3946.9571,N,08404.9832,W,2,12,0.80,310.56,M,-33.324,M,,*77
2017-11-16 17:19:16 1510870756.495469: $GPRMC,221915,A,3946.9571,N,08404.9832,W,0.0000,0.000,161117,,*38
2017-11-16 17:19:16 1510870756.495525: $GPGSA,A,3,1,10,22,12,14,18,24,11,25,31,32,138,1.6,0.8,1.3*38
2017-11-16 17:19:17 1510870757.403010: $GPZDA,221916.00,16,11,2017,00,00*6A
2017-11-16 17:19:17 1510870757.403175: $GPGGA,221916,3946.9571,N,08404.9832,W,2,12,0.80,310.56,M,-33.324,M,,*74
2017-11-16 17:19:17 1510870757.403237: $GPRMC,221916,A,3946.9571,N,08404.9832,W,0.0000,0.000,161117,,*3B
2017-11-16 17:19:17 1510870757.403293: $GPGSA,A,3,1,10,22,12,14,18,24,11,25,31,32,138,1.6,0.8,1.3*38
2017-11-16 17:19:18 1510870758.738274: $GPGSV,3,1,12,01,20,306,37,10,54,145,50,22,14,312,28,12,24,055,49*78
2017-11-16 17:19:18 1510870758.739867: $GPGSV,3,2,12,14,63,316,48,18,24,142,43,24,02,048,16,11,10,288,38*7B
2017-11-16 17:19:18 1510870758.739953: $GPGSV,3,3,12,25,38,097,47,31,49,220,50,32,70,010,50,138,38,213,45*43
2017-11-16 17:19:18 1510870758.851857: $GPZDA,221917.00,16,11,2017,00,00*6B
2017-11-16 17:19:18 1510870758.852026: $GPGGA,221917,3946.9571,N,08404.9832,W,2,12,0.80,310.56,M,-33.324,M,,*75
2017-11-16 17:19:18 1510870758.852087: $GPRMC,221917,A,3946.9571,N,08404.9832,W,0.0000,0.000,161117,,*3A
2017-11-16 17:19:18 1510870758.852143: $GPGSA,A,3,1,10,22,12,14,18,24,11,25,31,32,138,1.6,0.8,1.3*38
