2017-11-15 19:11:37 1510791097.862192: {"class":"VERSION","release":"3.17","rev":"3.17","proto_major":3,"proto_minor":12}
2017-11-15 19:11:37 1510791097.862654: {"class":"DEVICES","devices":[{"class":"DEVICE","path":"/dev/ttyUSB0","driver":"SiRF","subtype":"9\u0006GSD4e_4.1.2-P1_RPATCH.05-F-GPS-4R-1510281 11/03/2015 307","activated":"2017-11-16T00:11:37.470Z","flags":1,"native":1,"bps":4800,"parity":"N","stopbits":1,"cycle":1.00}]}
2017-11-15 19:11:37 1510791097.862772: {"class":"WATCH","enable":true,"json":false,"nmea":true,"raw":0,"scaled":false,"timing":false,"split24":false,"pps":false}
2017-11-15 19:11:38 1510791098.329386: $GPZDA,001137.00,16,11,2017,00,00*61
2017-11-15 19:11:38 1510791098.329547: $GPGGA,001137,3946.9691,N,08404.9424,W,1,06,1.60,304.21,M,-33.324,M,,*75
2017-11-15 19:11:38 1510791098.329608: $GPRMC,001137,A,3946.9691,N,08404.9424,W,0.4207,39.347,161117,,*0D
2017-11-15 19:11:38 1510791098.329664: $GPGSA,A,3,32,14,26,31,16,3,,,,,,,3.4,1.6,2.9*0F
2017-11-15 19:11:39 1510791099.663816: $GPGSV,3,1,11,32,43,099,24,14,61,079,24,22,49,283,00,26,43,175,11*75
2017-11-15 19:11:39 1510791099.663988: $GPGSV,3,2,11,31,74,006,27,16,14,190,18,25,24,043,00,03,34,307,18*76
2017-11-15 19:11:39 1510791099.664048: $GPGSV,3,3,11,01,10,259,00,29,07,079,00,10,05,159,00*4C
2017-11-15 19:11:39 1510791099.777526: $GPZDA,001138.00,16,11,2017,00,00*6E
2017-11-15 19:11:39 1510791099.777704: $GPGGA,001138,3946.9696,N,08404.9431,W,1,06,1.60,304.77,M,-33.324,M,,*7A
2017-11-15 19:11:39 1510791099.777770: $GPRMC,001138,A,3946.9696,N,08404.9431,W,0.2422,93.795,161117,,*0D
2017-11-15 19:11:39 1510791099.777827: $GPGSA,A,3,32,14,26,31,16,3,,,,,,,3.4,1.6,2.9*0F
2017-11-15 19:11:40 1510791100.344385: $GPZDA,001139.00,16,11,2017,00,00*6F
2017-11-15 19:11:40 1510791100.344550: $GPGGA,001139,3946.9696,N,08404.9431,W,1,06,1.60,304.77,M,-33.324,M,,*7B
2017-11-15 19:11:40 1510791100.344611: $GPRMC,001139,A,3946.9696,N,08404.9431,W,0.1867,180.000,161117,,*3A
2017-11-15 19:11:40 1510791100.344666: $GPGSA,A,3,32,14,26,31,16,3,,,,,,,3.4,1.6,2.9*0F
2017-11-15 19:11:41 1510791101.344751: $GPZDA,001140.00,16,11,2017,00,00*61
2017-11-15 19:11:41 1510791101.344920: $GPGGA,001140,3946.9696,N,08404.9431,W,1,06,1.60,304.77,M,-33.324,M,,*75
2017-11-15 19:11:41 1510791101.344982: $GPRMC,001140,A,3946.9696,N,08404.9431,W,0.3423,184.197,161117,,*31
2017-11-15 19:11:41 1510791101.345037: $GPGSA,A,3,32,14,26,31,16,3,,,,,,,3.4,1.6,2.9*0F
2017-11-15 19:11:42 1510791102.664158: $GPGSV,3,1,11,32,43,099,24,14,61,079,24,22,49,283,00,26,43,175,11*75
2017-11-15 19:11:42 1510791102.664334: $GPGSV,3,2,11,31,74,006,27,16,14,190,18,25,24,043,00,03,34,307,17*79
2017-11-15 19:11:42 1510791102.664397: $GPGSV,3,3,11,01,10,259,00,29,07,079,00,10,05,159,00*4C
2017-11-15 19:11:42 1510791102.777572: $GPZDA,001141.00,16,11,2017,00,00*60
2017-11-15 19:11:42 1510791102.777739: $GPGGA,001141,3946.9696,N,08404.9438,W,1,06,1.60,304.69,M,-33.324,M,,*72
2017-11-15 19:11:42 1510791102.777799: $GPRMC,001141,A,3946.9696,N,08404.9438,W,0.2422,93.795,161117,,*0A
2017-11-15 19:11:42 1510791102.777856: $GPGSA,A,3,32,14,26,31,16,3,,,,,,,3.4,1.6,2.9*0F
2017-11-15 19:11:43 1510791103.345870: $GPZDA,001142.00,16,11,2017,00,00*63
2017-11-15 19:11:43 1510791103.346032: $GPGGA,001142,3946.9696,N,08404.9438,W,1,06,2.20,304.69,M,-33.324,M,,*76
2017-11-15 19:11:43 1510791103.346094: $GPRMC,001142,A,3946.9696,N,08404.9438,W,0.7267,93.795,161117,,*0B
2017-11-15 19:11:43 1510791103.346150: $GPGSA,A,3,32,14,26,31,16,3,,,,,,,3.4,2.2,2.9*08
2017-11-15 19:11:44 1510791104.345502: $GPZDA,001143.00,16,11,2017,00,00*62
2017-11-15 19:11:44 1510791104.345675: $GPGGA,001143,3946.9696,N,08404.9438,W,1,06,2.20,304.69,M,-33.324,M,,*77
2017-11-15 19:11:44 1510791104.345737: $GPRMC,001143,A,3946.9696,N,08404.9438,W,0.9929,32.499,161117,,*01
2017-11-15 19:11:44 1510791104.345793: $GPGSA,A,3,32,14,26,31,16,3,,,,,,,3.4,2.2,2.9*08
2017-11-15 19:11:45 1510791105.665123: $GPGSV,3,1,11,32,43,099,24,14,61,079,24,22,49,283,00,26,43,175,04*71
2017-11-15 19:11:45 1510791105.665311: $GPGSV,3,2,11,31,74,006,27,16,14,190,18,25,24,043,00,03,34,307,17*79
2017-11-15 19:11:45 1510791105.665422: $GPGSV,3,3,11,01,10,259,00,29,07,079,00,10,05,159,00*4C
2017-11-15 19:11:45 1510791105.778492: $GPZDA,001144.00,16,11,2017,00,00*65
2017-11-15 19:11:45 1510791105.778674: $GPGGA,001144,3946.9703,N,08404.9437,W,1,05,2.20,304.56,M,-33.324,M,,*7D
2017-11-15 19:11:45 1510791105.778736: $GPRMC,001144,A,3946.9703,N,08404.9437,W,1.1385,29.379,161117,,*02
2017-11-15 19:11:45 1510791105.778791: $GPGSA,A,3,32,14,31,16,3,,,,,,,,3.4,2.2,2.9*0C
2017-11-15 19:11:46 1510791106.403731: $GPZDA,001145.00,16,11,2017,00,00*64
2017-11-15 19:11:46 1510791106.403894: $GPGGA,001145,3946.9703,N,08404.9437,W,1,05,2.20,304.56,M,-33.324,M,,*7C
2017-11-15 19:11:46 1510791106.403956: $GPRMC,001145,A,3946.9703,N,08404.9437,W,1.0567,17.448,161117,,*00
2017-11-15 19:11:46 1510791106.404012: $GPGSA,A,3,32,14,31,16,3,,,,,,,,3.4,2.2,2.9*0C
2017-11-15 19:11:47 1510791107.328365: $GPZDA,001146.00,16,11,2017,00,00*67
2017-11-15 19:11:47 1510791107.328531: $GPGGA,001146,3946.9711,N,08404.9436,W,1,05,2.60,304.44,M,-33.324,M,,*7A
2017-11-15 19:11:47 1510791107.328591: $GPRMC,001146,A,3946.9711,N,08404.9436,W,0.8709,3.298,161117,,*3C
2017-11-15 19:11:47 1510791107.328647: $GPGSA,A,3,32,14,31,16,3,,,,,,,,3.4,2.6,2.9*08
