2017-12-01 15:38:47 1512160727.426858: {"class":"VERSION","release":"3.16","rev":"3.16-4","proto_major":3,"proto_minor":11}
2017-12-01 15:38:47 1512160727.427297: {"class":"DEVICES","devices":[{"class":"DEVICE","path":"/dev/ttyUSB0","driver":"SiRF","subtype":"9\u0006GSD4e_4.1.2-P1_RPATCH.05-F-GPS-4R-1510281 11/03/2015 307","activated":"2017-12-01T20:38:47.360Z","flags":1,"native":1,"bps":4800,"parity":"N","stopbits":1,"cycle":1.00}]}
2017-12-01 15:38:47 1512160727.427422: {"class":"WATCH","enable":true,"json":false,"nmea":true,"raw":0,"scaled":false,"timing":false,"split24":false,"pps":false}
2017-12-01 15:38:48 1512160728.133358: $GPZDA,203848.40,01,12,2017,00,00*61
2017-12-01 15:38:48 1512160728.133546: $GPGGA,203848,3946.9587,N,08404.9790,W,1,11,0.80,300.76,M,-33.324,M,,*73
2017-12-01 15:38:48 1512160728.133614: $GPRMC,203848,A,3946.9587,N,08404.9790,W,0.1324,202.230,011217,,*3F
2017-12-01 15:38:48 1512160728.133680: $GPGSA,A,3,1,10,11,12,14,18,24,25,31,32,138,,2.0,0.8,1.5*3B
2017-12-01 15:38:48 1512160728.133739: $GPGBS,203848,10.70,M,15.43,M,35.28,M*02
2017-12-01 15:38:49 1512160729.275980: $GPGSV,3,1,11,01,12,319,34,10,72,127,48,11,10,304,40,12,25,075,41*78
2017-12-01 15:38:49 1512160729.276170: $GPGSV,3,2,11,14,53,288,42,18,40,133,47,24,16,045,42,25,28,117,42*7A
2017-12-01 15:38:49 1512160729.276236: $GPGSV,3,3,11,31,32,211,48,32,67,322,50,138,38,213,30*70
2017-12-01 15:38:49 1512160729.389320: $GPZDA,203849.00,01,12,2017,00,00*64
2017-12-01 15:38:49 1512160729.389503: $GPGGA,203849,3946.9588,N,08404.9797,W,1,11,0.80,302.08,M,-33.324,M,,*71
2017-12-01 15:38:49 1512160729.389574: $GPRMC,203849,A,3946.9588,N,08404.9797,W,0.0407,322.013,011217,,*31
2017-12-01 15:38:49 1512160729.389639: $GPGSA,A,3,1,10,11,12,14,18,24,25,31,32,138,,2.0,0.8,1.5*3B
2017-12-01 15:38:49 1512160729.842046: $GPZDA,203850.00,01,12,2017,00,00*6C
2017-12-01 15:38:49 1512160729.842218: $GPGGA,203850,3946.9592,N,08404.9846,W,1,11,0.80,288.68,M,-33.324,M,,*74
2017-12-01 15:38:49 1512160729.842286: $GPRMC,203850,A,3946.9592,N,08404.9846,W,0.1867,0.000,011217,,*3B
2017-12-01 15:38:49 1512160729.842348: $GPGSA,A,3,1,10,11,12,14,18,24,25,31,32,138,,2.0,0.8,1.5*3B
2017-12-01 15:38:50 1512160730.342537: $GPZDA,203851.00,01,12,2017,00,00*6D
2017-12-01 15:38:50 1512160730.342719: $GPGGA,203851,3946.9588,N,08404.9840,W,1,11,0.80,289.53,M,-33.324,M,,*71
2017-12-01 15:38:50 1512160730.342789: $GPRMC,203851,A,3946.9588,N,08404.9840,W,0.0000,0.000,011217,,*3F
2017-12-01 15:38:50 1512160730.342850: $GPGSA,A,3,1,10,11,12,14,18,24,25,31,32,138,,2.0,0.8,1.5*3B
2017-12-01 15:38:51 1512160731.677576: $GPGSV,3,1,11,01,12,319,34,10,72,127,48,11,10,304,41,12,25,075,42*7A
2017-12-01 15:38:51 1512160731.677762: $GPGSV,3,2,11,14,53,288,42,18,40,133,47,24,16,045,42,25,28,117,42*7A
2017-12-01 15:38:51 1512160731.677830: $GPGSV,3,3,11,31,32,211,48,32,67,322,50,138,38,213,46*71
2017-12-01 15:38:51 1512160731.790919: $GPZDA,203852.00,01,12,2017,00,00*6E
2017-12-01 15:38:51 1512160731.791084: $GPGGA,203852,3946.9588,N,08404.9840,W,1,11,0.80,289.53,M,-33.324,M,,*72
2017-12-01 15:38:51 1512160731.791152: $GPRMC,203852,A,3946.9588,N,08404.9840,W,0.0000,0.000,011217,,*3C
2017-12-01 15:38:51 1512160731.791212: $GPGSA,A,3,1,10,11,12,14,18,24,25,31,32,138,,2.0,0.8,1.5*3B
2017-12-01 15:38:52 1512160732.343060: $GPZDA,203853.00,01,12,2017,00,00*6F
2017-12-01 15:38:53 1512160733.135462: $GPGGA,203853,3946.9588,N,08404.9840,W,1,11,0.80,289.53,M,-33.324,M,,*73
2017-12-01 15:38:53 1512160733.135642: $GPRMC,203853,A,3946.9588,N,08404.9840,W,0.0000,0.000,011217,,*3D
2017-12-01 15:38:53 1512160733.135709: $GPGSA,A,3,1,10,11,12,14,18,24,25,31,32,138,,2.0,0.8,1.5*3B
2017-12-01 15:38:53 1512160733.345506: $GPZDA,203854.00,01,12,2017,00,00*68
2017-12-01 15:38:53 1512160733.345692: $GPGGA,203854,3946.9588,N,08404.9840,W,2,11,1.20,289.53,M,-33.324,M,,*7C
2017-12-01 15:38:53 1512160733.345760: $GPRMC,203854,A,3946.9588,N,08404.9840,W,0.0000,0.000,011217,,*3A
2017-12-01 15:38:53 1512160733.345822: $GPGSA,A,3,1,10,11,12,14,18,24,25,31,32,138,,2.0,1.2,1.5*30
2017-12-01 15:38:53 1512160733.345882: $GPGBS,203854,2.67,M,3.86,M,8.82,M*3A
2017-12-01 15:38:54 1512160734.678318: $GPGSV,3,1,11,01,12,319,34,10,72,127,48,11,10,304,41,12,25,075,42*7A
2017-12-01 15:38:54 1512160734.678510: $GPGSV,3,2,11,14,53,288,42,18,40,133,47,24,16,045,43,25,28,117,41*78
2017-12-01 15:38:54 1512160734.678577: $GPGSV,3,3,11,31,32,211,48,32,67,322,50,138,38,213,46*71
2017-12-01 15:38:54 1512160734.791706: $GPZDA,203855.00,01,12,2017,00,00*69
2017-12-01 15:38:54 1512160734.791862: $GPGGA,203855,3946.9588,N,08404.9840,W,2,11,1.20,289.53,M,-33.324,M,,*7D
2017-12-01 15:38:54 1512160734.791930: $GPRMC,203855,A,3946.9588,N,08404.9840,W,0.0000,0.000,011217,,*3B
2017-12-01 15:38:54 1512160734.791991: $GPGSA,A,3,1,10,11,12,14,18,24,25,31,32,138,,2.0,1.2,1.5*30
2017-12-01 15:38:55 1512160735.342639: $GPZDA,203856.00,01,12,2017,00,00*6A
2017-12-01 15:38:55 1512160735.342816: $GPGGA,203856,3946.9588,N,08404.9840,W,2,11,1.20,289.53,M,-33.324,M,,*7E
2017-12-01 15:38:55 1512160735.342884: $GPRMC,203856,A,3946.9588,N,08404.9840,W,0.0000,0.000,011217,,*38
2017-12-01 15:38:55 1512160735.342947: $GPGSA,A,3,1,10,11,12,14,18,24,25,31,32,138,,2.0,1.2,1.5*30
2017-12-01 15:38:56 1512160736.345828: $GPZDA,203857.00,01,12,2017,00,00*6B
2017-12-01 15:38:56 1512160736.346003: $GPGGA,203857,3946.9588,N,08404.9840,W,2,11,1.20,289.53,M,-33.324,M,,*7F
2017-12-01 15:38:56 1512160736.346070: $GPRMC,203857,A,3946.9588,N,08404.9840,W,0.0000,0.000,011217,,*39
2017-12-01 15:38:56 1512160736.346133: $GPGSA,A,3,1,10,11,12,14,18,24,25,31,32,138,,2.0,1.2,1.5*30
2017-12-01 15:38:57 1512160737.683714: $GPGSV,3,1,11,01,12,319,34,10,72,127,48,11,10,304,40,12,25,075,42*7B
2017-12-01 15:38:57 1512160737.683898: $GPGSV,3,2,11,14,53,288,42,18,40,133,47,24,16,045,44,25,28,117,42*7C
2017-12-01 15:38:57 1512160737.683967: $GPGSV,3,3,11,31,32,211,48,32,67,322,49,138,38,213,46*79
2017-12-01 15:38:57 1512160737.797406: $GPZDA,203858.00,01,12,2017,00,00*64
2017-12-01 15:38:57 1512160737.797586: $GPGGA,203858,3946.9589,N,08404.9840,W,2,11,0.80,290.93,M,-33.324,M,,*7E
2017-12-01 15:38:57 1512160737.797656: $GPRMC,203858,A,3946.9589,N,08404.9840,W,0.0000,0.000,011217,,*37
2017-12-01 15:38:57 1512160737.797719: $GPGSA,A,3,1,10,11,12,14,18,24,25,31,32,138,,2.0,0.8,1.5*3B
2017-12-01 15:38:58 1512160738.349528: $GPZDA,203859.00,01,12,2017,00,00*65
2017-12-01 15:38:58 1512160738.349712: $GPGGA,203859,3946.9589,N,08404.9840,W,2,11,0.80,290.93,M,-33.324,M,,*7F
2017-12-01 15:38:58 1512160738.349783: $GPRMC,203859,A,3946.9589,N,08404.9840,W,0.0000,0.000,011217,,*36
2017-12-01 15:38:58 1512160738.349848: $GPGSA,A,3,1,10,11,12,14,18,24,25,31,32,138,,2.0,0.8,1.5*3B
2017-12-01 15:38:59 1512160739.347645: $GPZDA,203900.00,01,12,2017,00,00*68
2017-12-01 15:38:59 1512160739.347821: $GPGGA,203900,3946.9589,N,08404.9840,W,2,11,0.80,290.93,M,-33.324,M,,*72
2017-12-01 15:38:59 1512160739.347892: $GPRMC,203900,A,3946.9589,N,08404.9840,W,0.0000,0.000,011217,,*3B
2017-12-01 15:38:59 1512160739.347956: $GPGSA,A,3,1,10,11,12,14,18,24,25,31,32,138,,2.0,0.8,1.5*3B
2017-12-01 15:39:00 1512160740.679539: $GPGSV,3,1,11,01,12,319,35,10,72,127,48,11,10,304,40,12,25,075,42*7A
2017-12-01 15:39:00 1512160740.679756: $GPGSV,3,2,11,14,53,288,42,18,40,133,47,24,16,045,44,25,28,117,42*7C
2017-12-01 15:39:00 1512160740.679825: $GPGSV,3,3,11,31,32,211,49,32,67,322,50,138,38,213,46*70
2017-12-01 15:39:00 1512160740.792999: $GPZDA,203901.00,01,12,2017,00,00*69
2017-12-01 15:39:00 1512160740.793146: $GPGGA,203901,3946.9589,N,08404.9840,W,2,11,0.80,290.93,M,-33.324,M,,*73
2017-12-01 15:39:00 1512160740.793216: $GPRMC,203901,A,3946.9589,N,08404.9840,W,0.0000,0.000,011217,,*3A
2017-12-01 15:39:00 1512160740.793281: $GPGSA,A,3,1,10,11,12,14,18,24,25,31,32,138,,2.0,0.8,1.5*3B
2017-12-01 15:39:01 1512160741.418757: $GPZDA,203902.00,01,12,2017,00,00*6A
2017-12-01 15:39:01 1512160741.418931: $GPGGA,203902,3946.9589,N,08404.9840,W,2,11,0.80,290.93,M,-33.324,M,,*70
2017-12-01 15:39:01 1512160741.419001: $GPRMC,203902,A,3946.9589,N,08404.9840,W,0.0000,0.000,011217,,*39
2017-12-01 15:39:01 1512160741.419065: $GPGSA,A,3,1,10,11,12,14,18,24,25,31,32,138,,2.0,0.8,1.5*3B
2017-12-01 15:39:02 1512160742.347961: $GPZDA,203903.00,01,12,2017,00,00*6B
2017-12-01 15:39:02 1512160742.348151: $GPGGA,203903,3946.9589,N,08404.9840,W,2,11,0.80,290.93,M,-33.324,M,,*71
2017-12-01 15:39:02 1512160742.348240: $GPRMC,203903,A,3946.9589,N,08404.9840,W,0.0000,0.000,011217,,*38
2017-12-01 15:39:02 1512160742.348304: $GPGSA,A,3,1,10,11,12,14,18,24,25,31,32,138,,2.0,0.8,1.5*3B
2017-12-01 15:39:03 1512160743.682403: $GPGSV,3,1,11,01,12,319,40,10,72,127,48,11,10,304,38,12,25,075,42*77
2017-12-01 15:39:03 1512160743.682613: $GPGSV,3,2,11,14,53,288,42,18,40,133,47,24,16,045,44,25,28,117,42*7C
2017-12-01 15:39:03 1512160743.682680: $GPGSV,3,3,11,31,32,211,49,32,67,322,49,138,38,213,47*79
2017-12-01 15:39:03 1512160743.795912: $GPZDA,203904.00,01,12,2017,00,00*6C
2017-12-01 15:39:03 1512160743.796086: $GPGGA,203904,3946.9589,N,08404.9840,W,2,11,0.80,290.93,M,-33.324,M,,*76
2017-12-01 15:39:03 1512160743.796154: $GPRMC,203904,A,3946.9589,N,08404.9840,W,0.0000,0.000,011217,,*3F
2017-12-01 15:39:03 1512160743.796217: $GPGSA,A,3,1,10,11,12,14,18,24,25,31,32,138,,2.0,0.8,1.5*3B
2017-12-01 15:39:04 1512160744.341772: $GPZDA,203905.00,01,12,2017,00,00*6D
2017-12-01 15:39:04 1512160744.341953: $GPGGA,203905,3946.9585,N,08404.9834,W,2,11,0.80,291.78,M,-33.324,M,,*7C
2017-12-01 15:39:04 1512160744.342020: $GPRMC,203905,A,3946.9585,N,08404.9834,W,0.0000,0.000,011217,,*31
2017-12-01 15:39:04 1512160744.342083: $GPGSA,A,3,1,10,11,12,14,18,24,25,31,32,138,,2.0,0.8,1.5*3B
2017-12-01 15:39:05 1512160745.341152: $GPZDA,203906.00,01,12,2017,00,00*6E
2017-12-01 15:39:05 1512160745.341328: $GPGGA,203906,3946.9589,N,08404.9840,W,2,11,0.80,290.93,M,-33.324,M,,*74
2017-12-01 15:39:05 1512160745.341456: $GPRMC,203906,A,3946.9589,N,08404.9840,W,0.0000,0.000,011217,,*3D
2017-12-01 15:39:05 1512160745.341522: $GPGSA,A,3,1,10,11,12,14,18,24,25,31,32,138,,2.0,0.8,1.5*3B
2017-12-01 15:39:05 1512160745.341586: $GPGBS,203906,2.67,M,3.86,M,8.82,M*3C
2017-12-01 15:39:06 1512160746.676573: $GPGSV,3,1,11,01,12,319,38,10,72,127,47,11,10,304,35,12,25,075,44*7C
2017-12-01 15:39:06 1512160746.676772: $GPGSV,3,2,11,14,53,288,42,18,40,133,46,24,16,045,43,25,28,117,42*7A
2017-12-01 15:39:06 1512160746.676840: $GPGSV,3,3,11,31,32,211,48,32,67,322,48,138,38,213,46*78
2017-12-01 15:39:06 1512160746.789758: $GPZDA,203907.00,01,12,2017,00,00*6F
2017-12-01 15:39:06 1512160746.789929: $GPGGA,203907,3946.9588,N,08404.9853,W,2,11,0.80,287.96,M,-33.324,M,,*75
2017-12-01 15:39:06 1512160746.789996: $GPRMC,203907,A,3946.9588,N,08404.9853,W,0.0000,0.000,011217,,*3F
2017-12-01 15:39:06 1512160746.790059: $GPGSA,A,3,1,10,11,12,14,18,24,25,31,32,138,,2.0,0.8,1.5*3B
2017-12-01 15:39:07 1512160747.345645: $GPZDA,203908.00,01,12,2017,00,00*60
2017-12-01 15:39:07 1512160747.349448: $GPGGA,203908,3946.9588,N,08404.9853,W,2,11,0.80,287.96,M,-33.324,M,,*7A
2017-12-01 15:39:07 1512160747.349565: $GPRMC,203908,A,3946.9588,N,08404.9853,W,0.0000,0.000,011217,,*30
2017-12-01 15:39:07 1512160747.349629: $GPGSA,A,3,1,10,11,12,14,18,24,25,31,32,138,,2.0,0.8,1.5*3B
