2017-12-31 16:56:36 1514757396.788914: {"class":"VERSION","release":"3.16","rev":"3.16-4","proto_major":3,"proto_minor":11}
2017-12-31 16:56:36 1514757396.789262: {"class":"DEVICES","devices":[{"class":"DEVICE","path":"/dev/ttyUSB0","driver":"SiRF","activated":"2017-12-31T21:56:36.679Z","flags":1,"native":1,"bps":4800,"parity":"N","stopbits":1,"cycle":1.00}]}
2017-12-31 16:56:36 1514757396.789359: {"class":"WATCH","enable":true,"json":false,"nmea":true,"raw":0,"scaled":false,"timing":false,"split24":false,"pps":false}
2017-12-31 16:56:36 1514757396.792619: $GPZDA,215637.00,31,12,2017,00,00*67
2017-12-31 16:56:36 1514757396.792702: $GPGGA,215637,3946.9584,N,08404.9862,W,2,11,0.80,302.90,M,-33.324,M,,*7A
2017-12-31 16:56:36 1514757396.792765: $GPRMC,215637,A,3946.9584,N,08404.9862,W,0.0000,0.000,311217,,*39
2017-12-31 16:56:36 1514757396.792825: $GPGSA,A,3,22,23,25,3,16,29,31,14,32,26,135,,1.7,0.8,1.3*32
2017-12-31 16:56:37 1514757397.344812: $GPZDA,215638.00,31,12,2017,00,00*68
2017-12-31 16:56:37 1514757397.344960: $GPGGA,215638,3946.9584,N,08404.9862,W,2,11,0.80,302.90,M,-33.324,M,,*75
2017-12-31 16:56:37 1514757397.345027: $GPRMC,215638,A,3946.9584,N,08404.9862,W,0.0000,0.000,311217,,*36
2017-12-31 16:56:37 1514757397.345087: $GPGSA,A,3,22,23,25,3,16,29,31,14,32,26,135,,1.7,0.8,1.3*32
2017-12-31 16:56:38 1514757398.360677: $GPZDA,215639.00,31,12,2017,00,00*69
2017-12-31 16:56:38 1514757398.360851: $GPGGA,215639,3946.9584,N,08404.9862,W,2,11,0.80,302.90,M,-33.324,M,,*74
2017-12-31 16:56:38 1514757398.360918: $GPRMC,215639,A,3946.9584,N,08404.9862,W,0.0000,0.000,311217,,*37
2017-12-31 16:56:38 1514757398.360979: $GPGSA,A,3,22,23,25,3,16,29,31,14,32,26,135,,1.7,0.8,1.3*32
2017-12-31 16:56:39 1514757399.678901: $GPGSV,3,1,11,22,47,246,42,23,24,306,38,25,05,037,14,03,46,277,38*7C
2017-12-31 16:56:39 1514757399.679077: $GPGSV,3,2,11,16,41,190,46,29,14,060,24,31,53,046,51,14,44,109,40*75
2017-12-31 16:56:39 1514757399.679144: $GPGSV,3,3,11,32,22,120,44,26,70,154,44,135,22,240,43*7E
2017-12-31 16:56:39 1514757399.792266: $GPZDA,215640.00,31,12,2017,00,00*67
2017-12-31 16:56:39 1514757399.792438: $GPGGA,215640,3946.9584,N,08404.9862,W,2,11,0.80,302.90,M,-33.324,M,,*7A
2017-12-31 16:56:39 1514757399.792503: $GPRMC,215640,A,3946.9584,N,08404.9862,W,0.0000,0.000,311217,,*39
2017-12-31 16:56:39 1514757399.792563: $GPGSA,A,3,22,23,25,3,16,29,31,14,32,26,135,,1.7,0.8,1.3*32
2017-12-31 16:56:40 1514757400.417723: $GPZDA,215641.00,31,12,2017,00,00*66
2017-12-31 16:56:40 1514757400.417893: $GPGGA,215641,3946.9584,N,08404.9862,W,2,11,0.80,302.90,M,-33.324,M,,*7B
2017-12-31 16:56:40 1514757400.417959: $GPRMC,215641,A,3946.9584,N,08404.9862,W,0.0000,0.000,311217,,*38
2017-12-31 16:56:40 1514757400.418019: $GPGSA,A,3,22,23,25,3,16,29,31,14,32,26,135,,1.7,0.8,1.3*32
2017-12-31 16:56:41 1514757401.343798: $GPZDA,215642.00,31,12,2017,00,00*65
2017-12-31 16:56:41 1514757401.343966: $GPGGA,215642,3946.9584,N,08404.9862,W,2,11,0.80,302.90,M,-33.324,M,,*78
2017-12-31 16:56:41 1514757401.344033: $GPRMC,215642,A,3946.9584,N,08404.9862,W,0.0000,0.000,311217,,*3B
2017-12-31 16:56:41 1514757401.344093: $GPGSA,A,3,22,23,25,3,16,29,31,14,32,26,135,,1.7,0.8,1.3*32
2017-12-31 16:56:42 1514757402.696738: $GPGSV,3,1,11,22,47,246,41,23,24,306,39,25,05,037,16,03,46,277,38*7C
2017-12-31 16:56:42 1514757402.696900: $GPGSV,3,2,11,16,41,190,46,29,14,060,24,31,53,046,51,14,44,109,41*74
2017-12-31 16:56:42 1514757402.696966: $GPGSV,3,3,11,32,22,120,44,26,70,154,45,135,22,240,43*7F
2017-12-31 16:56:42 1514757402.810388: $GPZDA,215643.00,31,12,2017,00,00*64
2017-12-31 16:56:42 1514757402.810560: $GPGGA,215643,3946.9584,N,08404.9862,W,2,11,0.80,302.90,M,-33.324,M,,*79
2017-12-31 16:56:42 1514757402.810625: $GPRMC,215643,A,3946.9584,N,08404.9862,W,0.0000,0.000,311217,,*3A
2017-12-31 16:56:42 1514757402.810686: $GPGSA,A,3,22,23,25,3,16,29,31,14,32,26,135,,1.7,0.8,1.3*32
2017-12-31 16:56:43 1514757403.345032: $GPZDA,215644.00,31,12,2017,00,00*63
2017-12-31 16:56:43 1514757403.345201: $GPGGA,215644,3946.9584,N,08404.9862,W,2,11,0.80,302.90,M,-33.324,M,,*7E
2017-12-31 16:56:43 1514757403.345323: $GPRMC,215644,A,3946.9584,N,08404.9862,W,0.0000,0.000,311217,,*3D
2017-12-31 16:56:43 1514757403.345386: $GPGSA,A,3,22,23,25,3,16,29,31,14,32,26,135,,1.7,0.8,1.3*32
2017-12-31 16:56:44 1514757404.335885: $GPZDA,215645.00,31,12,2017,00,00*62
2017-12-31 16:56:44 1514757404.336048: $GPGGA,215645,3946.9584,N,08404.9862,W,2,11,0.80,302.90,M,-33.324,M,,*7F
2017-12-31 16:56:44 1514757404.336114: $GPRMC,215645,A,3946.9584,N,08404.9862,W,0.0000,0.000,311217,,*3C
2017-12-31 16:56:44 1514757404.336175: $GPGSA,A,3,22,23,25,3,16,29,31,14,32,26,135,,1.7,0.8,1.3*32
2017-12-31 16:56:45 1514757405.695848: $GPGSV,3,1,11,22,47,246,41,23,24,306,39,25,05,037,16,03,46,277,39*7D
2017-12-31 16:56:45 1514757405.696008: $GPGSV,3,2,11,16,41,190,46,29,14,060,24,31,53,046,51,14,44,109,40*75
2017-12-31 16:56:45 1514757405.696073: $GPGSV,3,3,11,32,22,120,44,26,70,154,45,135,22,240,42*7E
2017-12-31 16:56:45 1514757405.809458: $GPZDA,215646.00,31,12,2017,00,00*61
2017-12-31 16:56:45 1514757405.809640: $GPGGA,215646,3946.9584,N,08404.9862,W,2,11,0.80,302.90,M,-33.324,M,,*7C
2017-12-31 16:56:45 1514757405.809706: $GPRMC,215646,A,3946.9584,N,08404.9862,W,0.0000,0.000,311217,,*3F
2017-12-31 16:56:45 1514757405.809767: $GPGSA,A,3,22,23,25,3,16,29,31,14,32,26,135,,1.7,0.8,1.3*32
2017-12-31 16:56:46 1514757406.361477: $GPZDA,215647.00,31,12,2017,00,00*60
2017-12-31 16:56:46 1514757406.361651: $GPGGA,215647,3946.9584,N,08404.9862,W,2,11,0.80,302.90,M,-33.324,M,,*7D
2017-12-31 16:56:46 1514757406.361719: $GPRMC,215647,A,3946.9584,N,08404.9862,W,0.0000,0.000,311217,,*3E
2017-12-31 16:56:46 1514757406.361781: $GPGSA,A,3,22,23,25,3,16,29,31,14,32,26,135,,1.7,0.8,1.3*32
