2017-11-16 14:09:33 1510859373.368324: {"class":"VERSION","release":"3.17","rev":"3.17","proto_major":3,"proto_minor":12}
2017-11-16 14:09:33 1510859373.369014: {"class":"DEVICES","devices":[{"class":"DEVICE","path":"/dev/ttyUSB0","driver":"SiRF","subtype":"9\u0006GSD4e_4.1.2-P1_RPATCH.05-F-GPS-4R-1510281 11/03/2015 307","activated":"2017-11-16T19:09:33.360Z","flags":1,"native":1,"bps":4800,"parity":"N","stopbits":1,"cycle":1.00}]}
2017-11-16 14:09:33 1510859373.369253: {"class":"WATCH","enable":true,"json":false,"nmea":true,"raw":0,"scaled":false,"timing":false,"split24":false,"pps":false}
2017-11-16 14:09:33 1510859373.868703: $GPGSV,3,1,12,10,40,300,43,13,09,048,32,15,39,052,51,18,70,331,48*71
2017-11-16 14:09:33 1510859373.873304: $GPGSV,3,2,12,20,34,094,47,21,66,192,46,24,50,114,48,32,19,237,45*7E
2017-11-16 14:09:33 1510859373.873417: $GPGSV,3,3,12,08,05,324,36,27,19,291,31,14,03,231,00,138,38,213,45*44
2017-11-16 14:09:33 1510859373.982263: $GPZDA,190932.00,16,11,2017,00,00*65
2017-11-16 14:09:33 1510859373.982399: $GPGGA,190932,3946.9569,N,08404.9850,W,2,11,0.80,304.71,M,-33.324,M,,*75
2017-11-16 14:09:33 1510859373.982460: $GPRMC,190932,A,3946.9569,N,08404.9850,W,0.0000,0.000,161117,,*39
2017-11-16 14:09:33 1510859373.982516: $GPGSA,A,3,10,13,15,18,20,21,24,32,8,27,138,,1.6,0.8,1.3*30
2017-11-16 14:09:34 1510859374.607645: $GPZDA,190933.00,16,11,2017,00,00*64
2017-11-16 14:09:34 1510859374.607831: $GPGGA,190933,3946.9569,N,08404.9850,W,2,11,0.80,304.71,M,-33.324,M,,*74
2017-11-16 14:09:34 1510859374.607892: $GPRMC,190933,A,3946.9569,N,08404.9850,W,0.0000,0.000,161117,,*38
2017-11-16 14:09:34 1510859374.607948: $GPGSA,A,3,10,13,15,18,20,21,24,32,8,27,138,,1.6,0.8,1.3*30
2017-11-16 14:09:35 1510859375.533242: $GPZDA,190934.00,16,11,2017,00,00*63
2017-11-16 14:09:35 1510859375.533398: $GPGGA,190934,3946.9569,N,08404.9850,W,2,11,0.80,304.71,M,-33.324,M,,*73
2017-11-16 14:09:35 1510859375.533459: $GPRMC,190934,A,3946.9569,N,08404.9850,W,0.0000,0.000,161117,,*3F
2017-11-16 14:09:35 1510859375.533515: $GPGSA,A,3,10,13,15,18,20,21,24,32,8,27,138,,1.6,0.8,1.3*30
2017-11-16 14:09:36 1510859376.870332: $GPGSV,3,1,12,10,40,300,43,13,09,048,32,15,39,052,51,18,70,331,48*71
2017-11-16 14:09:36 1510859376.870502: $GPGSV,3,2,12,20,34,094,47,21,66,192,46,24,50,114,47,32,19,237,44*70
2017-11-16 14:09:36 1510859376.870563: $GPGSV,3,3,12,08,05,324,37,27,19,291,31,14,03,231,00,138,38,213,45*45
2017-11-16 14:09:36 1510859376.983634: $GPZDA,190935.00,16,11,2017,00,00*62
2017-11-16 14:09:36 1510859376.983813: $GPGGA,190935,3946.9569,N,08404.9850,W,2,11,0.80,304.71,M,-33.324,M,,*72
2017-11-16 14:09:36 1510859376.983876: $GPRMC,190935,A,3946.9569,N,08404.9850,W,0.0000,0.000,161117,,*3E
2017-11-16 14:09:36 1510859376.983931: $GPGSA,A,3,10,13,15,18,20,21,24,32,8,27,138,,1.6,0.8,1.3*30
2017-11-16 14:09:37 1510859377.533257: $GPZDA,190936.00,16,11,2017,00,00*61
2017-11-16 14:09:37 1510859377.533423: $GPGGA,190936,3946.9569,N,08404.9850,W,2,11,0.80,304.71,M,-33.324,M,,*71
2017-11-16 14:09:37 1510859377.533484: $GPRMC,190936,A,3946.9569,N,08404.9850,W,0.0000,0.000,161117,,*3D
2017-11-16 14:09:37 1510859377.533540: $GPGSA,A,3,10,13,15,18,20,21,24,32,8,27,138,,1.6,0.8,1.3*30
2017-11-16 14:09:38 1510859378.527894: $GPZDA,190937.00,16,11,2017,00,00*60
2017-11-16 14:09:38 1510859378.528059: $GPGGA,190937,3946.9569,N,08404.9850,W,2,11,0.80,304.71,M,-33.324,M,,*70
2017-11-16 14:09:38 1510859378.528120: $GPRMC,190937,A,3946.9569,N,08404.9850,W,0.0000,0.000,161117,,*3C
2017-11-16 14:09:38 1510859378.528176: $GPGSA,A,3,10,13,15,18,20,21,24,32,8,27,138,,1.6,0.8,1.3*30
2017-11-16 14:09:39 1510859379.869420: $GPGSV,3,1,12,10,40,300,44,13,09,048,32,15,39,052,51,18,70,331,48*76
2017-11-16 14:09:39 1510859379.869612: $GPGSV,3,2,12,20,34,094,46,21,66,192,46,24,50,114,47,32,19,237,45*70
2017-11-16 14:09:39 1510859379.869673: $GPGSV,3,3,12,08,05,324,36,27,19,291,31,14,03,231,00,138,38,213,44*45
2017-11-16 14:09:39 1510859379.982726: $GPZDA,190938.00,16,11,2017,00,00*6F
2017-11-16 14:09:39 1510859379.982886: $GPGGA,190938,3946.9569,N,08404.9850,W,2,11,0.80,304.71,M,-33.324,M,,*7F
2017-11-16 14:09:39 1510859379.983002: $GPRMC,190938,A,3946.9569,N,08404.9850,W,0.0000,0.000,161117,,*33
2017-11-16 14:09:39 1510859379.983061: $GPGSA,A,3,10,13,15,18,20,21,24,32,8,27,138,,1.6,0.8,1.3*30
2017-11-16 14:09:40 1510859380.543855: $GPZDA,190939.00,16,11,2017,00,00*6E
2017-11-16 14:09:40 1510859380.544031: $GPGGA,190939,3946.9569,N,08404.9850,W,2,11,0.80,304.71,M,-33.324,M,,*7E
2017-11-16 14:09:40 1510859380.544093: $GPRMC,190939,A,3946.9569,N,08404.9850,W,0.0000,0.000,161117,,*32
2017-11-16 14:09:40 1510859380.544149: $GPGSA,A,3,10,13,15,18,20,21,24,32,8,27,138,,1.6,0.8,1.3*30
2017-11-16 14:09:41 1510859381.562231: $GPZDA,190940.00,16,11,2017,00,00*60
2017-11-16 14:09:41 1510859381.562407: $GPGGA,190940,3946.9569,N,08404.9850,W,2,11,0.80,304.71,M,-33.324,M,,*70
2017-11-16 14:09:41 1510859381.562468: $GPRMC,190940,A,3946.9569,N,08404.9850,W,0.0000,0.000,161117,,*3C
2017-11-16 14:09:41 1510859381.562524: $GPGSA,A,3,10,13,15,18,20,21,24,32,8,27,138,,1.6,0.8,1.3*30
2017-11-16 14:09:42 1510859382.899130: $GPGSV,3,1,12,10,40,300,44,13,09,048,33,15,39,052,51,18,70,331,48*77
2017-11-16 14:09:42 1510859382.899294: $GPGSV,3,2,12,20,34,094,46,21,66,192,46,24,50,114,48,32,19,237,45*7F
2017-11-16 14:09:42 1510859382.899355: $GPGSV,3,3,12,08,05,324,29,27,19,291,24,14,03,231,00,138,38,213,44*4F
2017-11-16 14:09:43 1510859383.012798: $GPZDA,190941.00,16,11,2017,00,00*61
2017-11-16 14:09:43 1510859383.012955: $GPGGA,190941,3946.9569,N,08404.9850,W,2,11,0.80,304.71,M,-33.324,M,,*71
2017-11-16 14:09:43 1510859383.013016: $GPRMC,190941,A,3946.9569,N,08404.9850,W,0.0000,0.000,161117,,*3D
2017-11-16 14:09:43 1510859383.013072: $GPGSA,A,3,10,13,15,18,20,21,24,32,8,27,138,,1.6,0.8,1.3*30
