2017-12-29 11:37:59 1514565479.276897: {"class":"VERSION","release":"3.16","rev":"3.16-4","proto_major":3,"proto_minor":11}
2017-12-29 11:37:59 1514565479.277245: {"class":"DEVICES","devices":[{"class":"DEVICE","path":"/dev/ttyUSB0","driver":"SiRF","subtype":"9\u0006GSD4e_4.1.2-P1_RPATCH.05-F-GPS-4R-1510281 11/03/2015 307","activated":"2017-12-29T16:37:59.245Z","flags":1,"native":1,"bps":4800,"parity":"N","stopbits":1,"cycle":1.00}]}
2017-12-29 11:37:59 1514565479.277360: {"class":"WATCH","enable":true,"json":false,"nmea":true,"raw":0,"scaled":false,"timing":false,"split24":false,"pps":false}
2017-12-29 11:37:59 1514565479.758294: $GPGSV,3,1,11,08,07,315,39,10,49,309,45,15,29,055,49,18,76,007,45*72
2017-12-29 11:37:59 1514565479.758473: $GPGSV,3,2,11,20,27,103,48,21,53,184,46,24,53,093,53,27,17,280,39*74
2017-12-29 11:37:59 1514565479.758539: $GPGSV,3,3,11,32,29,244,39,14,11,237,00,138,38,213,46*7B
2017-12-29 11:37:59 1514565479.872020: $GPZDA,163800.00,29,12,2017,00,00*66
2017-12-29 11:37:59 1514565479.872183: $GPGGA,163800,3946.9604,N,08404.9853,W,2,10,1.00,328.29,M,-33.324,M,,*79
2017-12-29 11:37:59 1514565479.872250: $GPRMC,163800,A,3946.9604,N,08404.9853,W,0.0000,0.000,291217,,*31
2017-12-29 11:37:59 1514565479.872310: $GPGSA,A,3,8,10,15,18,20,21,24,27,32,138,,,1.7,1.0,1.3*3A
2017-12-29 11:38:00 1514565480.424067: $GPZDA,163801.00,29,12,2017,00,00*67
2017-12-29 11:38:00 1514565480.424226: $GPGGA,163801,3946.9604,N,08404.9853,W,2,10,1.00,328.29,M,-33.324,M,,*78
2017-12-29 11:38:00 1514565480.424292: $GPRMC,163801,A,3946.9604,N,08404.9853,W,0.0000,0.000,291217,,*30
2017-12-29 11:38:00 1514565480.424352: $GPGSA,A,3,8,10,15,18,20,21,24,27,32,138,,,1.7,1.0,1.3*3A
2017-12-29 11:38:01 1514565481.424968: $GPZDA,163802.00,29,12,2017,00,00*64
2017-12-29 11:38:01 1514565481.425129: $GPGGA,163802,3946.9604,N,08404.9853,W,2,10,1.00,328.29,M,-33.324,M,,*7B
2017-12-29 11:38:01 1514565481.425194: $GPRMC,163802,A,3946.9604,N,08404.9853,W,0.0000,0.000,291217,,*33
2017-12-29 11:38:01 1514565481.425254: $GPGSA,A,3,8,10,15,18,20,21,24,27,32,138,,,1.7,1.0,1.3*3A
2017-12-29 11:38:02 1514565482.759158: $GPGSV,3,1,11,08,07,315,39,10,49,309,45,15,29,055,49,18,76,007,45*72
2017-12-29 11:38:02 1514565482.759354: $GPGSV,3,2,11,20,27,103,48,21,53,184,46,24,53,093,54,27,17,280,39*73
2017-12-29 11:38:02 1514565482.759422: $GPGSV,3,3,11,32,29,244,39,14,11,237,00,138,38,213,46*7B
2017-12-29 11:38:02 1514565482.872725: $GPZDA,163803.00,29,12,2017,00,00*65
2017-12-29 11:38:02 1514565482.872891: $GPGGA,163803,3946.9604,N,08404.9853,W,2,10,1.00,328.29,M,-33.324,M,,*7A
2017-12-29 11:38:02 1514565482.872972: $GPRMC,163803,A,3946.9604,N,08404.9853,W,0.0000,0.000,291217,,*32
2017-12-29 11:38:02 1514565482.873034: $GPGSA,A,3,8,10,15,18,20,21,24,27,32,138,,,1.7,1.0,1.3*3A
2017-12-29 11:38:03 1514565483.417373: $GPZDA,163804.00,29,12,2017,00,00*62
2017-12-29 11:38:03 1514565483.417540: $GPGGA,163804,3946.9604,N,08404.9853,W,2,10,1.00,328.29,M,-33.324,M,,*7D
2017-12-29 11:38:03 1514565483.417606: $GPRMC,163804,A,3946.9604,N,08404.9853,W,0.2422,273.794,291217,,*3F
2017-12-29 11:38:03 1514565483.417667: $GPGSA,A,3,8,10,15,18,20,21,24,27,32,138,,,1.7,1.0,1.3*3A
2017-12-29 11:38:04 1514565484.419001: $GPZDA,163805.00,29,12,2017,00,00*63
2017-12-29 11:38:04 1514565484.419172: $GPGGA,163805,3946.9604,N,08404.9853,W,2,10,1.00,328.29,M,-33.324,M,,*7C
2017-12-29 11:38:04 1514565484.419255: $GPRMC,163805,A,3946.9604,N,08404.9853,W,0.0000,0.000,291217,,*34
2017-12-29 11:38:04 1514565484.419317: $GPGSA,A,3,8,10,15,18,20,21,24,27,32,138,,,1.7,1.0,1.3*3A
2017-12-29 11:38:05 1514565485.753268: $GPGSV,3,1,11,08,07,315,38,10,49,309,44,15,29,055,49,18,76,007,45*72
2017-12-29 11:38:05 1514565485.753443: $GPGSV,3,2,11,20,27,103,48,21,53,184,45,24,53,093,52,27,17,280,39*76
2017-12-29 11:38:05 1514565485.753507: $GPGSV,3,3,11,32,29,244,39,14,11,237,00,138,38,213,46*7B
2017-12-29 11:38:05 1514565485.866580: $GPZDA,163806.00,29,12,2017,00,00*60
2017-12-29 11:38:05 1514565485.866707: $GPGGA,163806,3946.9608,N,08404.9853,W,2,10,1.00,328.93,M,-33.324,M,,*72
2017-12-29 11:38:05 1514565485.866828: $GPRMC,163806,A,3946.9608,N,08404.9853,W,0.1567,9.200,291217,,*35
2017-12-29 11:38:05 1514565485.866890: $GPGSA,A,3,8,10,15,18,20,21,24,27,32,138,,,1.7,1.0,1.3*3A
2017-12-29 11:38:06 1514565486.417779: $GPZDA,163807.00,29,12,2017,00,00*61
2017-12-29 11:38:06 1514565486.417950: $GPGGA,163807,3946.9608,N,08404.9853,W,2,10,1.00,328.93,M,-33.324,M,,*73
2017-12-29 11:38:06 1514565486.418018: $GPRMC,163807,A,3946.9608,N,08404.9853,W,0.0000,0.000,291217,,*3A
2017-12-29 11:38:06 1514565486.418079: $GPGSA,A,3,8,10,15,18,20,21,24,27,32,138,,,1.7,1.0,1.3*3A
2017-12-29 11:38:07 1514565487.420922: $GPZDA,163808.00,29,12,2017,00,00*6E
2017-12-29 11:38:07 1514565487.421147: $GPGGA,163808,3946.9608,N,08404.9853,W,2,10,1.00,328.93,M,-33.324,M,,*7C
2017-12-29 11:38:07 1514565487.421220: $GPRMC,163808,A,3946.9608,N,08404.9853,W,0.0000,0.000,291217,,*35
2017-12-29 11:38:07 1514565487.421281: $GPGSA,A,3,8,10,15,18,20,21,24,27,32,138,,,1.7,1.0,1.3*3A
2017-12-29 11:38:08 1514565488.755426: $GPGSV,3,1,11,08,07,315,37,10,49,309,44,15,29,055,49,18,76,007,45*7D
2017-12-29 11:38:08 1514565488.755600: $GPGSV,3,2,11,20,27,103,48,21,53,184,46,24,53,093,52,27,17,280,39*75
2017-12-29 11:38:08 1514565488.755665: $GPGSV,3,3,11,32,29,244,40,14,11,237,00,138,38,213,45*76
2017-12-29 11:38:08 1514565488.868760: $GPZDA,163809.00,29,12,2017,00,00*6F
2017-12-29 11:38:08 1514565488.868892: $GPGGA,163809,3946.9608,N,08404.9853,W,2,10,1.00,328.93,M,-33.324,M,,*7D
2017-12-29 11:38:08 1514565488.868956: $GPRMC,163809,A,3946.9608,N,08404.9853,W,0.0000,0.000,291217,,*34
2017-12-29 11:38:08 1514565488.869016: $GPGSA,A,3,8,10,15,18,20,21,24,27,32,138,,,1.7,1.0,1.3*3A
2017-12-29 11:38:09 1514565489.494424: $GPZDA,163810.00,29,12,2017,00,00*67
2017-12-29 11:38:09 1514565489.494593: $GPGGA,163810,3946.9608,N,08404.9853,W,2,10,1.00,328.93,M,-33.324,M,,*75
2017-12-29 11:38:09 1514565489.494659: $GPRMC,163810,A,3946.9608,N,08404.9853,W,0.0000,0.000,291217,,*3C
2017-12-29 11:38:09 1514565489.494720: $GPGSA,A,3,8,10,15,18,20,21,24,27,32,138,,,1.7,1.0,1.3*3A
2017-12-29 11:38:10 1514565490.417974: $GPZDA,163811.00,29,12,2017,00,00*66
2017-12-29 11:38:10 1514565490.418147: $GPGGA,163811,3946.9608,N,08404.9853,W,2,10,1.00,328.93,M,-33.324,M,,*74
2017-12-29 11:38:10 1514565490.418212: $GPRMC,163811,A,3946.9608,N,08404.9853,W,0.0000,0.000,291217,,*3D
2017-12-29 11:38:10 1514565490.418273: $GPGSA,A,3,8,10,15,18,20,21,24,27,32,138,,,1.7,1.0,1.3*3A
2017-12-29 11:38:11 1514565491.755788: $GPGSV,3,1,11,08,07,315,38,10,49,309,44,15,29,055,49,18,76,007,45*72
2017-12-29 11:38:11 1514565491.755967: $GPGSV,3,2,11,20,27,103,48,21,53,184,45,24,53,093,52,27,17,280,38*77
2017-12-29 11:38:11 1514565491.756033: $GPGSV,3,3,11,32,29,244,39,14,11,237,00,138,38,213,45*78
2017-12-29 11:38:11 1514565491.869427: $GPZDA,163812.00,29,12,2017,00,00*65
2017-12-29 11:38:11 1514565491.869563: $GPGGA,163812,3946.9608,N,08404.9853,W,2,10,1.00,328.93,M,-33.324,M,,*77
2017-12-29 11:38:11 1514565491.869628: $GPRMC,163812,A,3946.9608,N,08404.9853,W,0.0000,0.000,291217,,*3E
2017-12-29 11:38:11 1514565491.869688: $GPGSA,A,3,8,10,15,18,20,21,24,27,32,138,,,1.7,1.0,1.3*3A
2017-12-29 11:38:12 1514565492.425037: $GPZDA,163813.00,29,12,2017,00,00*64
2017-12-29 11:38:12 1514565492.425212: $GPGGA,163813,3946.9608,N,08404.9853,W,2,10,1.00,328.93,M,-33.324,M,,*76
2017-12-29 11:38:12 1514565492.425280: $GPRMC,163813,A,3946.9608,N,08404.9853,W,0.0000,0.000,291217,,*3F
2017-12-29 11:38:12 1514565492.425339: $GPGSA,A,3,8,10,15,18,20,21,24,27,32,138,,,1.7,1.0,1.3*3A
2017-12-29 11:38:13 1514565493.423480: $GPZDA,163814.00,29,12,2017,00,00*63
2017-12-29 11:38:13 1514565493.423657: $GPGGA,163814,3946.9608,N,08404.9853,W,2,10,1.00,328.93,M,-33.324,M,,*71
2017-12-29 11:38:13 1514565493.423724: $GPRMC,163814,A,3946.9608,N,08404.9853,W,0.0000,0.000,291217,,*38
2017-12-29 11:38:13 1514565493.423784: $GPGSA,A,3,8,10,15,18,20,21,24,27,32,138,,,1.7,1.0,1.3*3A
