2017-11-16 13:20:57 1510856457.099035: {"class":"VERSION","release":"3.17","rev":"3.17","proto_major":3,"proto_minor":12}
2017-11-16 13:20:57 1510856457.099543: {"class":"DEVICES","devices":[{"class":"DEVICE","path":"/dev/ttyUSB0","driver":"SiRF","subtype":"9\u0006GSD4e_4.1.2-P1_RPATCH.05-F-GPS-4R-1510281 11/03/2015 307","activated":"2017-11-16T18:20:56.440Z","flags":1,"native":1,"bps":4800,"parity":"N","stopbits":1,"cycle":1.00}]}
2017-11-16 13:20:57 1510856457.099698: {"class":"WATCH","enable":true,"json":false,"nmea":true,"raw":0,"scaled":false,"timing":false,"split24":false,"pps":false}
2017-11-16 13:20:57 1510856457.623053: $GPGSV,3,1,12,10,23,283,42,13,29,045,48,15,61,051,51,18,54,300,46*79
2017-11-16 13:20:57 1510856457.623241: $GPGSV,3,2,12,20,51,072,47,21,78,270,46,24,33,138,41,27,16,313,35*7C
2017-11-16 13:20:57 1510856457.623302: $GPGSV,3,3,12,05,04,087,06,29,09,189,32,32,01,225,21,138,38,213,45*47
2017-11-16 13:20:57 1510856457.736431: $GPZDA,182056.00,16,11,2017,00,00*6D
2017-11-16 13:20:57 1510856457.736590: $GPGGA,182056,3946.9602,N,08404.9845,W,2,11,0.80,300.64,M,-33.324,M,,*77
2017-11-16 13:20:57 1510856457.736652: $GPRMC,182056,A,3946.9602,N,08404.9845,W,0.0000,0.000,161117,,*3B
2017-11-16 13:20:57 1510856457.736707: $GPGSA,A,3,10,13,15,18,20,21,24,27,29,32,138,,1.6,0.8,1.3*03
2017-11-16 13:20:58 1510856458.305952: $GPZDA,182057.00,16,11,2017,00,00*6C
2017-11-16 13:20:58 1510856458.306130: $GPGGA,182057,3946.9602,N,08404.9845,W,2,11,0.80,300.64,M,-33.324,M,,*76
2017-11-16 13:20:58 1510856458.306192: $GPRMC,182057,A,3946.9602,N,08404.9845,W,0.0000,0.000,161117,,*3A
2017-11-16 13:20:58 1510856458.306247: $GPGSA,A,3,10,13,15,18,20,21,24,27,29,32,138,,1.6,0.8,1.3*03
2017-11-16 13:20:59 1510856459.286837: $GPZDA,182058.00,16,11,2017,00,00*63
2017-11-16 13:20:59 1510856459.287048: $GPGGA,182058,3946.9602,N,08404.9852,W,2,11,0.80,300.56,M,-33.324,M,,*7E
2017-11-16 13:20:59 1510856459.287110: $GPRMC,182058,A,3946.9602,N,08404.9852,W,0.0000,0.000,161117,,*33
2017-11-16 13:20:59 1510856459.287165: $GPGSA,A,3,10,13,15,18,20,21,24,27,29,32,138,,1.6,0.8,1.3*03
2017-11-16 13:21:00 1510856460.625760: $GPGSV,3,1,12,10,23,283,43,13,29,045,48,15,61,051,51,18,54,300,47*79
2017-11-16 13:21:00 1510856460.625961: $GPGSV,3,2,12,20,51,072,47,21,78,270,46,24,33,138,40,27,16,313,34*7C
2017-11-16 13:21:00 1510856460.626023: $GPGSV,3,3,12,05,04,087,00,29,09,189,32,32,01,225,22,138,38,213,45*42
2017-11-16 13:21:00 1510856460.739103: $GPZDA,182059.00,16,11,2017,00,00*62
2017-11-16 13:21:00 1510856460.739265: $GPGGA,182059,3946.9602,N,08404.9852,W,2,11,0.80,300.56,M,-33.324,M,,*7F
2017-11-16 13:21:00 1510856460.739327: $GPRMC,182059,A,3946.9602,N,08404.9852,W,0.0000,0.000,161117,,*32
2017-11-16 13:21:00 1510856460.739383: $GPGSA,A,3,10,13,15,18,20,21,24,27,29,32,138,,1.6,0.8,1.3*03
2017-11-16 13:21:01 1510856461.288949: $GPZDA,182100.00,16,11,2017,00,00*6F
2017-11-16 13:21:01 1510856461.293515: $GPGGA,182100,3946.9602,N,08404.9852,W,2,11,0.80,300.56,M,-33.324,M,,*72
2017-11-16 13:21:01 1510856461.293636: $GPRMC,182100,A,3946.9602,N,08404.9852,W,0.0000,0.000,161117,,*3F
2017-11-16 13:21:01 1510856461.293696: $GPGSA,A,3,10,13,15,18,20,21,24,27,29,32,138,,1.6,0.8,1.3*03
2017-11-16 13:21:02 1510856462.302109: $GPZDA,182101.00,16,11,2017,00,00*6E
2017-11-16 13:21:02 1510856462.302274: $GPGGA,182101,3946.9602,N,08404.9852,W,2,11,0.80,300.56,M,-33.324,M,,*73
2017-11-16 13:21:02 1510856462.302336: $GPRMC,182101,A,3946.9602,N,08404.9852,W,0.0000,0.000,161117,,*3E
2017-11-16 13:21:02 1510856462.302392: $GPGSA,A,3,10,13,15,18,20,21,24,27,29,32,138,,1.6,0.8,1.3*03
2017-11-16 13:21:03 1510856463.641619: $GPGSV,3,1,12,10,23,283,43,13,29,045,48,15,61,051,51,18,54,300,47*79
2017-11-16 13:21:03 1510856463.641877: $GPGSV,3,2,12,20,51,072,47,21,78,270,46,24,33,138,40,27,16,313,35*7D
2017-11-16 13:21:03 1510856463.641948: $GPGSV,3,3,12,05,04,087,21,29,09,189,31,32,01,225,22,138,38,213,45*42
2017-11-16 13:21:03 1510856463.754790: $GPZDA,182102.00,16,11,2017,00,00*6D
2017-11-16 13:21:03 1510856463.754971: $GPGGA,182102,3946.9602,N,08404.9852,W,2,12,0.80,300.56,M,-33.324,M,,*73
2017-11-16 13:21:03 1510856463.755087: $GPRMC,182102,A,3946.9602,N,08404.9852,W,0.0000,0.000,161117,,*3D
2017-11-16 13:21:03 1510856463.755145: $GPGSA,A,3,10,13,15,18,20,21,24,27,5,29,32,138,1.6,0.8,1.3*36
2017-11-16 13:21:04 1510856464.285798: $GPZDA,182103.00,16,11,2017,00,00*6C
2017-11-16 13:21:04 1510856464.285961: $GPGGA,182103,3946.9602,N,08404.9852,W,2,12,0.80,300.56,M,-33.324,M,,*72
2017-11-16 13:21:04 1510856464.286023: $GPRMC,182103,A,3946.9602,N,08404.9852,W,0.0000,0.000,161117,,*3C
2017-11-16 13:21:04 1510856464.286079: $GPGSA,A,3,10,13,15,18,20,21,24,27,5,29,32,138,1.6,0.8,1.3*36
2017-11-16 13:21:05 1510856465.308859: $GPZDA,182104.00,16,11,2017,00,00*6B
2017-11-16 13:21:05 1510856465.309020: $GPGGA,182104,3946.9602,N,08404.9852,W,2,12,0.80,300.56,M,-33.324,M,,*75
2017-11-16 13:21:05 1510856465.309081: $GPRMC,182104,A,3946.9602,N,08404.9852,W,0.0000,0.000,161117,,*3B
2017-11-16 13:21:05 1510856465.309138: $GPGSA,A,3,10,13,15,18,20,21,24,27,5,29,32,138,1.6,0.8,1.3*36
2017-11-16 13:21:06 1510856466.643185: $GPGSV,3,1,12,10,23,283,43,13,29,045,48,15,61,051,51,18,54,300,47*79
2017-11-16 13:21:06 1510856466.643355: $GPGSV,3,2,12,20,51,072,48,21,78,270,46,24,33,138,41,27,16,313,35*73
2017-11-16 13:21:06 1510856466.643415: $GPGSV,3,3,12,05,04,087,24,29,09,189,31,32,01,225,22,138,38,213,46*44
2017-11-16 13:21:06 1510856466.756395: $GPZDA,182105.00,16,11,2017,00,00*6A
2017-11-16 13:21:06 1510856466.756581: $GPGGA,182105,3946.9602,N,08404.9852,W,2,12,0.80,300.56,M,-33.324,M,,*74
2017-11-16 13:21:06 1510856466.756663: $GPRMC,182105,A,3946.9602,N,08404.9852,W,0.0000,0.000,161117,,*3A
2017-11-16 13:21:06 1510856466.756721: $GPGSA,A,3,10,13,15,18,20,21,24,27,5,29,32,138,1.6,0.8,1.3*36
