2017-11-16 17:44:10 1510872250.580835: {"class":"VERSION","release":"3.17","rev":"3.17","proto_major":3,"proto_minor":12}
2017-11-16 17:44:10 1510872250.581299: {"class":"DEVICES","devices":[{"class":"DEVICE","path":"/dev/ttyUSB0","driver":"SiRF","subtype":"9\u0006GSD4e_4.1.2-P1_RPATCH.05-F-GPS-4R-1510281 11/03/2015 307","activated":"2017-11-16T22:44:10.554Z","flags":1,"native":1,"bps":4800,"parity":"N","stopbits":1,"cycle":1.00}]}
2017-11-16 17:44:10 1510872250.581425: {"class":"WATCH","enable":true,"json":false,"nmea":true,"raw":0,"scaled":false,"timing":false,"split24":false,"pps":false}
2017-11-16 17:44:11 1510872251.394965: $GPZDA,224410.00,16,11,2017,00,00*64
2017-11-16 17:44:11 1510872251.395180: $GPGGA,224410,3946.9579,N,08404.9841,W,2,12,0.80,302.49,M,-33.324,M,,*7B
2017-11-16 17:44:11 1510872251.395243: $GPRMC,224410,A,3946.9579,N,08404.9841,W,0.0000,0.000,161117,,*39
2017-11-16 17:44:11 1510872251.395299: $GPGSA,A,3,1,10,11,12,14,18,26,22,25,31,32,138,1.6,0.8,1.3*3A
2017-11-16 17:44:12 1510872252.731692: $GPGSV,3,1,12,01,22,295,30,10,43,150,44,11,07,277,40,12,20,045,50*72
2017-11-16 17:44:12 1510872252.731861: $GPGSV,3,2,12,14,68,339,46,18,14,145,37,26,06,183,30,22,23,312,43*7E
2017-11-16 17:44:12 1510872252.731920: $GPGSV,3,3,12,25,40,084,49,31,60,229,47,32,67,039,50,138,38,213,44*48
2017-11-16 17:44:12 1510872252.844074: $GPZDA,224411.00,16,11,2017,00,00*65
2017-11-16 17:44:12 1510872252.844229: $GPGGA,224411,3946.9579,N,08404.9841,W,2,12,0.80,302.49,M,-33.324,M,,*7A
2017-11-16 17:44:12 1510872252.844290: $GPRMC,224411,A,3946.9579,N,08404.9841,W,0.0000,0.000,161117,,*38
2017-11-16 17:44:12 1510872252.844345: $GPGSA,A,3,1,10,11,12,14,18,26,22,25,31,32,138,1.6,0.8,1.3*3A
2017-11-16 17:44:13 1510872253.393586: $GPZDA,224412.00,16,11,2017,00,00*66
2017-11-16 17:44:13 1510872253.393741: $GPGGA,224412,3946.9579,N,08404.9841,W,2,12,0.80,302.49,M,-33.324,M,,*79
2017-11-16 17:44:13 1510872253.393801: $GPRMC,224412,A,3946.9579,N,08404.9841,W,0.0000,0.000,161117,,*3B
2017-11-16 17:44:13 1510872253.393857: $GPGSA,A,3,1,10,11,12,14,18,26,22,25,31,32,138,1.6,0.8,1.3*3A
2017-11-16 17:44:14 1510872254.386751: $GPZDA,224413.00,16,11,2017,00,00*67
2017-11-16 17:44:14 1510872254.386924: $GPGGA,224413,3946.9579,N,08404.9841,W,2,12,0.80,302.49,M,-33.324,M,,*78
2017-11-16 17:44:14 1510872254.386986: $GPRMC,224413,A,3946.9579,N,08404.9841,W,0.0000,0.000,161117,,*3A
2017-11-16 17:44:14 1510872254.387043: $GPGSA,A,3,1,10,11,12,14,18,26,22,25,31,32,138,1.6,0.8,1.3*3A
2017-11-16 17:44:15 1510872255.723854: $GPGSV,3,1,12,01,22,295,31,10,43,150,44,11,07,277,40,12,20,045,50*73
2017-11-16 17:44:15 1510872255.724022: $GPGSV,3,2,12,14,68,339,46,18,14,145,36,26,06,183,29,22,23,312,43*77
2017-11-16 17:44:15 1510872255.724082: $GPGSV,3,3,12,25,40,084,49,31,60,229,47,32,67,039,50,138,38,213,43*4F
2017-11-16 17:44:15 1510872255.837163: $GPZDA,224414.00,16,11,2017,00,00*60
2017-11-16 17:44:15 1510872255.837331: $GPGGA,224414,3946.9580,N,08404.9848,W,2,12,0.80,302.41,M,-33.324,M,,*78
2017-11-16 17:44:15 1510872255.837394: $GPRMC,224414,A,3946.9580,N,08404.9848,W,0.0000,0.000,161117,,*32
2017-11-16 17:44:15 1510872255.837450: $GPGSA,A,3,1,10,11,12,14,18,26,22,25,31,32,138,1.6,0.8,1.3*3A
2017-11-16 17:44:16 1510872256.462521: $GPZDA,224415.00,16,11,2017,00,00*61
2017-11-16 17:44:16 1510872256.462719: $GPGGA,224415,3946.9580,N,08404.9848,W,2,12,0.80,302.41,M,-33.324,M,,*79
2017-11-16 17:44:16 1510872256.462805: $GPRMC,224415,A,3946.9580,N,08404.9848,W,0.0000,0.000,161117,,*33
2017-11-16 17:44:16 1510872256.462864: $GPGSA,A,3,1,10,11,12,14,18,26,22,25,31,32,138,1.6,0.8,1.3*3A
2017-11-16 17:44:17 1510872257.393467: $GPZDA,224416.00,16,11,2017,00,00*62
2017-11-16 17:44:17 1510872257.393615: $GPGGA,224416,3946.9580,N,08404.9848,W,2,12,0.80,302.41,M,-33.324,M,,*7A
2017-11-16 17:44:17 1510872257.393677: $GPRMC,224416,A,3946.9580,N,08404.9848,W,0.0000,0.000,161117,,*30
2017-11-16 17:44:17 1510872257.393732: $GPGSA,A,3,1,10,11,12,14,18,26,22,25,31,32,138,1.6,0.8,1.3*3A
2017-11-16 17:44:18 1510872258.730448: $GPGSV,3,1,12,03,03,316,33,10,43,150,44,11,07,277,40,12,20,045,49*72
2017-11-16 17:44:18 1510872258.730668: $GPGSV,3,2,12,14,68,339,46,18,14,145,36,26,06,183,29,22,23,312,43*77
2017-11-16 17:44:18 1510872258.730731: $GPGSV,3,3,12,25,40,084,49,31,60,229,47,32,67,039,50,138,38,213,43*4F
2017-11-16 17:44:18 1510872258.844107: $GPZDA,224417.00,16,11,2017,00,00*63
2017-11-16 17:44:18 1510872258.844249: $GPGGA,224417,3946.9580,N,08404.9848,W,2,12,0.80,302.41,M,-33.324,M,,*7B
2017-11-16 17:44:18 1510872258.844307: $GPRMC,224417,A,3946.9580,N,08404.9848,W,0.0000,0.000,161117,,*31
2017-11-16 17:44:18 1510872258.844361: $GPGSA,A,3,3,10,11,12,14,18,26,22,25,31,32,138,1.6,0.8,1.3*38
2017-11-16 17:44:19 1510872259.394997: $GPZDA,224418.00,16,11,2017,00,00*6C
2017-11-16 17:44:19 1510872259.395247: $GPGGA,224418,3946.9580,N,08404.9848,W,2,12,0.80,302.41,M,-33.324,M,,*74
2017-11-16 17:44:19 1510872259.395307: $GPRMC,224418,A,3946.9580,N,08404.9848,W,0.0000,0.000,161117,,*3E
2017-11-16 17:44:19 1510872259.395361: $GPGSA,A,3,3,10,11,12,14,18,26,22,25,31,32,138,1.6,0.8,1.3*38
2017-11-16 17:44:20 1510872260.399324: $GPZDA,224419.00,16,11,2017,00,00*6D
2017-11-16 17:44:20 1510872260.399499: $GPGGA,224419,3946.9580,N,08404.9848,W,2,12,0.80,302.41,M,-33.324,M,,*75
2017-11-16 17:44:20 1510872260.399560: $GPRMC,224419,A,3946.9580,N,08404.9848,W,0.0000,0.000,161117,,*3F
2017-11-16 17:44:20 1510872260.399617: $GPGSA,A,3,3,10,11,12,14,18,26,22,25,31,32,138,1.6,0.8,1.3*38
