2017-11-16 17:05:03 1510869903.587949: {"class":"VERSION","release":"3.17","rev":"3.17","proto_major":3,"proto_minor":12}
2017-11-16 17:05:03 1510869903.588455: {"class":"DEVICES","devices":[{"class":"DEVICE","path":"/dev/ttyUSB0","driver":"SiRF","subtype":"9\u0006GSD4e_4.1.2-P1_RPATCH.05-F-GPS-4R-1510281 11/03/2015 307","activated":"2017-11-16T22:05:03.283Z","flags":1,"native":1,"bps":4800,"parity":"N","stopbits":1,"cycle":1.00}]}
2017-11-16 17:05:03 1510869903.588645: {"class":"WATCH","enable":true,"json":false,"nmea":true,"raw":0,"scaled":false,"timing":false,"split24":false,"pps":false}
2017-11-16 17:05:03 1510869903.731863: $GPGSV,3,1,12,01,18,312,44,10,61,141,48,11,11,292,38,12,25,061,49*72
2017-11-16 17:05:03 1510869903.732045: $GPGSV,3,2,12,14,60,304,46,18,29,139,42,22,09,312,39,24,07,046,28*78
2017-11-16 17:05:03 1510869903.732106: $GPGSV,3,3,12,25,35,105,45,31,43,216,48,32,70,352,50,138,38,213,44*44
2017-11-16 17:05:03 1510869903.845212: $GPZDA,220502.00,16,11,2017,00,00*62
2017-11-16 17:05:03 1510869903.845371: $GPGGA,220502,3946.9578,N,08404.9811,W,2,12,0.80,312.08,M,-33.324,M,,*7D
2017-11-16 17:05:03 1510869903.845431: $GPRMC,220502,A,3946.9578,N,08404.9811,W,0.0000,0.000,161117,,*3B
2017-11-16 17:05:03 1510869903.845487: $GPGSA,A,3,1,10,11,12,14,18,22,24,25,31,32,138,1.6,0.8,1.3*38
2017-11-16 17:05:04 1510869904.407348: $GPZDA,220503.00,16,11,2017,00,00*63
2017-11-16 17:05:04 1510869904.407515: $GPGGA,220503,3946.9578,N,08404.9811,W,2,12,0.80,312.08,M,-33.324,M,,*7C
2017-11-16 17:05:04 1510869904.407577: $GPRMC,220503,A,3946.9578,N,08404.9811,W,0.0000,0.000,161117,,*3A
2017-11-16 17:05:04 1510869904.407653: $GPGSA,A,3,1,10,11,12,14,18,22,24,25,31,32,138,1.6,0.8,1.3*38
2017-11-16 17:05:05 1510869905.413162: $GPZDA,220504.00,16,11,2017,00,00*64
2017-11-16 17:05:05 1510869905.413324: $GPGGA,220504,3946.9578,N,08404.9811,W,2,12,0.80,312.08,M,-33.324,M,,*7B
2017-11-16 17:05:05 1510869905.413385: $GPRMC,220504,A,3946.9578,N,08404.9811,W,0.0000,0.000,161117,,*3D
2017-11-16 17:05:05 1510869905.413441: $GPGSA,A,3,1,10,11,12,14,18,22,24,25,31,32,138,1.6,0.8,1.3*38
2017-11-16 17:05:06 1510869906.749896: $GPGSV,3,1,12,01,18,312,44,10,61,141,48,11,11,292,39,12,25,061,50*7B
2017-11-16 17:05:06 1510869906.750099: $GPGSV,3,2,12,14,60,304,46,18,29,139,42,22,09,312,39,24,07,046,28*78
2017-11-16 17:05:06 1510869906.750162: $GPGSV,3,3,12,25,35,105,45,31,43,216,49,32,70,352,49,138,38,213,44*4D
2017-11-16 17:05:06 1510869906.863681: $GPZDA,220505.00,16,11,2017,00,00*65
2017-11-16 17:05:06 1510869906.863868: $GPGGA,220505,3946.9578,N,08404.9811,W,2,12,0.80,312.08,M,-33.324,M,,*7A
2017-11-16 17:05:06 1510869906.863929: $GPRMC,220505,A,3946.9578,N,08404.9811,W,0.0000,0.000,161117,,*3C
2017-11-16 17:05:06 1510869906.863985: $GPGSA,A,3,1,10,11,12,14,18,22,24,25,31,32,138,1.6,0.8,1.3*38
2017-11-16 17:05:07 1510869907.413957: $GPZDA,220506.00,16,11,2017,00,00*66
2017-11-16 17:05:07 1510869907.414118: $GPGGA,220506,3946.9578,N,08404.9811,W,2,12,0.80,312.08,M,-33.324,M,,*79
2017-11-16 17:05:07 1510869907.414180: $GPRMC,220506,A,3946.9578,N,08404.9811,W,0.0000,0.000,161117,,*3F
2017-11-16 17:05:07 1510869907.414236: $GPGSA,A,3,1,10,11,12,14,18,22,24,25,31,32,138,1.6,0.8,1.3*38
2017-11-16 17:05:08 1510869908.408557: $GPZDA,220507.00,16,11,2017,00,00*67
2017-11-16 17:05:08 1510869908.408724: $GPGGA,220507,3946.9578,N,08404.9811,W,2,12,0.80,312.08,M,-33.324,M,,*78
2017-11-16 17:05:08 1510869908.408784: $GPRMC,220507,A,3946.9578,N,08404.9811,W,0.0000,0.000,161117,,*3E
2017-11-16 17:05:08 1510869908.408840: $GPGSA,A,3,1,10,11,12,14,18,22,24,25,31,32,138,1.6,0.8,1.3*38
2017-11-16 17:05:09 1510869909.733019: $GPGSV,3,1,12,01,18,312,44,10,61,141,48,11,11,292,40,12,25,061,50*75
2017-11-16 17:05:09 1510869909.733212: $GPGSV,3,2,12,14,60,304,46,18,29,139,42,22,09,312,38,24,07,046,29*78
2017-11-16 17:05:09 1510869909.733274: $GPGSV,3,3,12,25,35,105,45,31,43,216,48,32,70,352,50,138,38,213,43*43
2017-11-16 17:05:09 1510869909.845336: $GPZDA,220508.00,16,11,2017,00,00*68
2017-11-16 17:05:09 1510869909.845568: $GPGGA,220508,3946.9578,N,08404.9811,W,2,12,0.80,312.08,M,-33.324,M,,*77
2017-11-16 17:05:09 1510869909.845719: $GPRMC,220508,A,3946.9578,N,08404.9811,W,0.0000,0.000,161117,,*31
2017-11-16 17:05:09 1510869909.845789: $GPGSA,A,3,1,10,11,12,14,18,22,24,25,31,32,138,1.6,0.8,1.3*38
2017-11-16 17:05:10 1510869910.395983: $GPZDA,220509.00,16,11,2017,00,00*69
2017-11-16 17:05:10 1510869910.396159: $GPGGA,220509,3946.9578,N,08404.9811,W,2,12,0.80,312.08,M,-33.324,M,,*76
2017-11-16 17:05:10 1510869910.396220: $GPRMC,220509,A,3946.9578,N,08404.9811,W,0.0000,0.000,161117,,*30
2017-11-16 17:05:10 1510869910.396276: $GPGSA,A,3,1,10,11,12,14,18,22,24,25,31,32,138,1.6,0.8,1.3*38
2017-11-16 17:05:11 1510869911.396294: $GPZDA,220510.00,16,11,2017,00,00*61
2017-11-16 17:05:11 1510869911.396455: $GPGGA,220510,3946.9578,N,08404.9811,W,2,12,0.80,312.08,M,-33.324,M,,*7E
2017-11-16 17:05:11 1510869911.396516: $GPRMC,220510,A,3946.9578,N,08404.9811,W,0.0000,0.000,161117,,*38
2017-11-16 17:05:11 1510869911.396572: $GPGSA,A,3,1,10,11,12,14,18,22,24,25,31,32,138,1.6,0.8,1.3*38
2017-11-16 17:05:12 1510869912.734579: $GPGSV,3,1,12,01,18,312,44,10,61,141,48,11,11,292,39,12,25,061,50*7B
2017-11-16 17:05:12 1510869912.734751: $GPGSV,3,2,12,14,60,304,45,18,29,139,42,22,09,312,40,24,07,046,29*74
2017-11-16 17:05:12 1510869912.734811: $GPGSV,3,3,12,25,35,105,45,31,43,216,48,32,70,352,49,138,38,213,43*4B
2017-11-16 17:05:12 1510869912.847920: $GPZDA,220511.00,16,11,2017,00,00*60
2017-11-16 17:05:12 1510869912.848106: $GPGGA,220511,3946.9578,N,08404.9811,W,2,12,0.80,312.08,M,-33.324,M,,*7F
2017-11-16 17:05:12 1510869912.848168: $GPRMC,220511,A,3946.9578,N,08404.9811,W,0.0000,0.000,161117,,*39
2017-11-16 17:05:12 1510869912.848224: $GPGSA,A,3,1,10,11,12,14,18,22,24,25,31,32,138,1.6,0.8,1.3*38
2017-11-16 17:05:13 1510869913.397147: $GPZDA,220512.00,16,11,2017,00,00*63
2017-11-16 17:05:13 1510869913.397318: $GPGGA,220512,3946.9578,N,08404.9811,W,2,12,0.80,312.08,M,-33.324,M,,*7C
2017-11-16 17:05:13 1510869913.397379: $GPRMC,220512,A,3946.9578,N,08404.9811,W,0.0000,0.000,161117,,*3A
2017-11-16 17:05:13 1510869913.397435: $GPGSA,A,3,1,10,11,12,14,18,22,24,25,31,32,138,1.6,0.8,1.3*38
