2017-12-01 11:31:31 1512145891.776820: {"class":"VERSION","release":"3.16","rev":"3.16-4","proto_major":3,"proto_minor":11}
2017-12-01 11:31:31 1512145891.777378: {"class":"DEVICES","devices":[{"class":"DEVICE","path":"/dev/ttyUSB0","driver":"SiRF","subtype":"9\u0006GSD4e_4.1.2-P1_RPATCH.05-F-GPS-4R-1510281 11/03/2015 307","activated":"2017-12-01T16:31:31.507Z","flags":1,"native":1,"bps":4800,"parity":"N","stopbits":1,"cycle":1.00}]}
2017-12-01 11:31:31 1512145891.777560: {"class":"WATCH","enable":true,"json":false,"nmea":true,"raw":0,"scaled":false,"timing":false,"split24":false,"pps":false}
2017-12-01 11:31:32 1512145892.375211: $GPZDA,163133.00,01,12,2017,00,00*65
2017-12-01 11:31:32 1512145892.375386: $GPGGA,163133,3946.9565,N,08404.9863,W,2,11,0.80,302.51,M,-33.324,M,,*78
2017-12-01 11:31:32 1512145892.375471: $GPRMC,163133,A,3946.9565,N,08404.9863,W,0.0000,0.000,011217,,*35
2017-12-01 11:31:32 1512145892.375534: $GPGSA,A,3,5,10,13,15,18,20,21,24,27,29,138,,2.0,0.8,1.5*34
2017-12-01 11:31:33 1512145893.692202: $GPGSV,3,1,12,05,18,073,39,10,09,268,38,13,48,054,47,15,78,097,48*70
2017-12-01 11:31:33 1512145893.692384: $GPGSV,3,2,12,18,40,280,44,20,66,040,43,21,62,309,46,24,15,151,40*71
2017-12-01 11:31:33 1512145893.692451: $GPGSV,3,3,12,27,05,327,32,29,30,196,47,04,17,127,00,138,38,213,46*4D
2017-12-01 11:31:33 1512145893.805595: $GPZDA,163134.00,01,12,2017,00,00*62
2017-12-01 11:31:33 1512145893.805772: $GPGGA,163134,3946.9562,N,08404.9864,W,2,11,0.80,303.27,M,-33.324,M,,*7F
2017-12-01 11:31:33 1512145893.805840: $GPRMC,163134,A,3946.9562,N,08404.9864,W,0.0000,0.000,011217,,*32
2017-12-01 11:31:33 1512145893.805901: $GPGSA,A,3,5,10,13,15,18,20,21,24,27,29,138,,2.0,0.8,1.5*34
2017-12-01 11:31:34 1512145894.372751: $GPZDA,163135.00,01,12,2017,00,00*63
2017-12-01 11:31:34 1512145894.372921: $GPGGA,163135,3946.9562,N,08404.9864,W,2,11,0.80,303.27,M,-33.324,M,,*7E
2017-12-01 11:31:34 1512145894.372989: $GPRMC,163135,A,3946.9562,N,08404.9864,W,0.0000,0.000,011217,,*33
2017-12-01 11:31:34 1512145894.373050: $GPGSA,A,3,5,10,13,15,18,20,21,24,27,29,138,,2.0,0.8,1.5*34
2017-12-01 11:31:35 1512145895.373233: $GPZDA,163136.00,01,12,2017,00,00*60
2017-12-01 11:31:35 1512145895.373409: $GPGGA,163136,3946.9562,N,08404.9864,W,2,11,0.80,303.27,M,-33.324,M,,*7D
2017-12-01 11:31:35 1512145895.373477: $GPRMC,163136,A,3946.9562,N,08404.9864,W,0.0000,0.000,011217,,*30
2017-12-01 11:31:35 1512145895.373563: $GPGSA,A,3,5,10,13,15,18,20,21,24,27,29,138,,2.0,0.8,1.5*34
2017-12-01 11:31:36 1512145896.690121: $GPGSV,3,1,12,05,18,073,39,10,09,268,39,13,48,054,46,15,78,097,48*70
2017-12-01 11:31:36 1512145896.690313: $GPGSV,3,2,12,18,40,280,44,20,66,040,43,21,62,309,46,24,15,151,40*71
2017-12-01 11:31:36 1512145896.690383: $GPGSV,3,3,12,27,05,327,32,29,30,196,47,04,17,127,00,138,38,213,46*4D
2017-12-01 11:31:36 1512145896.803515: $GPZDA,163137.00,01,12,2017,00,00*61
2017-12-01 11:31:36 1512145896.803686: $GPGGA,163137,3946.9562,N,08404.9864,W,2,11,0.80,303.27,M,-33.324,M,,*7C
2017-12-01 11:31:36 1512145896.803756: $GPRMC,163137,A,3946.9562,N,08404.9864,W,0.0000,0.000,011217,,*31
2017-12-01 11:31:36 1512145896.803820: $GPGSA,A,3,5,10,13,15,18,20,21,24,27,29,138,,2.0,0.8,1.5*34
2017-12-01 11:31:37 1512145897.373111: $GPZDA,163138.00,01,12,2017,00,00*6E
2017-12-01 11:31:37 1512145897.373299: $GPGGA,163138,3946.9562,N,08404.9864,W,2,11,0.80,303.27,M,-33.324,M,,*73
2017-12-01 11:31:37 1512145897.373370: $GPRMC,163138,A,3946.9562,N,08404.9864,W,0.0000,0.000,011217,,*3E
2017-12-01 11:31:37 1512145897.373434: $GPGSA,A,3,5,10,13,15,18,20,21,24,27,29,138,,2.0,0.8,1.5*34
2017-12-01 11:31:38 1512145898.355480: $GPZDA,163139.00,01,12,2017,00,00*6F
2017-12-01 11:31:38 1512145898.355667: $GPGGA,163139,3946.9562,N,08404.9864,W,2,11,0.80,303.27,M,-33.324,M,,*72
2017-12-01 11:31:38 1512145898.355757: $GPRMC,163139,A,3946.9562,N,08404.9864,W,0.0000,0.000,011217,,*3F
2017-12-01 11:31:38 1512145898.355824: $GPGSA,A,3,5,10,13,15,18,20,21,24,27,29,138,,2.0,0.8,1.5*34
2017-12-01 11:31:39 1512145899.690897: $GPGSV,3,1,12,05,18,073,39,10,09,268,39,13,48,054,47,15,78,097,48*71
2017-12-01 11:31:39 1512145899.691147: $GPGSV,3,2,12,18,40,280,43,20,66,040,43,21,62,309,46,24,15,151,40*76
2017-12-01 11:31:39 1512145899.691233: $GPGSV,3,3,12,27,05,327,33,29,30,196,47,04,17,127,00,138,38,213,47*4D
2017-12-01 11:31:39 1512145899.804517: $GPZDA,163140.00,01,12,2017,00,00*61
2017-12-01 11:31:39 1512145899.804686: $GPGGA,163140,3946.9562,N,08404.9864,W,2,11,0.80,303.27,M,-33.324,M,,*7C
2017-12-01 11:31:39 1512145899.804753: $GPRMC,163140,A,3946.9562,N,08404.9864,W,0.0000,0.000,011217,,*31
2017-12-01 11:31:39 1512145899.804814: $GPGSA,A,3,5,10,13,15,18,20,21,24,27,29,138,,2.0,0.8,1.5*34
2017-12-01 11:31:40 1512145900.429644: $GPZDA,163141.00,01,12,2017,00,00*60
2017-12-01 11:31:40 1512145900.429820: $GPGGA,163141,3946.9565,N,08404.9857,W,2,11,0.80,303.99,M,-33.324,M,,*7F
2017-12-01 11:31:40 1512145900.429889: $GPRMC,163141,A,3946.9565,N,08404.9857,W,0.0000,0.000,011217,,*37
2017-12-01 11:31:40 1512145900.429950: $GPGSA,A,3,5,10,13,15,18,20,21,24,27,29,138,,2.0,0.8,1.5*34
2017-12-01 11:31:41 1512145901.354257: $GPZDA,163142.00,01,12,2017,00,00*63
2017-12-01 11:31:41 1512145901.354450: $GPGGA,163142,3946.9565,N,08404.9857,W,2,11,0.80,303.99,M,-33.324,M,,*7C
2017-12-01 11:31:41 1512145901.354523: $GPRMC,163142,A,3946.9565,N,08404.9857,W,0.0000,0.000,011217,,*34
2017-12-01 11:31:41 1512145901.354588: $GPGSA,A,3,5,10,13,15,18,20,21,24,27,29,138,,2.0,0.8,1.5*34
