2017-11-16 15:20:32 1510863632.695868: {"class":"VERSION","release":"3.17","rev":"3.17","proto_major":3,"proto_minor":12}
2017-11-16 15:20:32 1510863632.696336: {"class":"DEVICES","devices":[{"class":"DEVICE","path":"/dev/ttyUSB0","driver":"SiRF","subtype":"9\u0006GSD4e_4.1.2-P1_RPATCH.05-F-GPS-4R-1510281 11/03/2015 307","activated":"2017-11-16T20:20:32.514Z","flags":1,"native":1,"bps":4800,"parity":"N","stopbits":1,"cycle":1.00}]}
2017-11-16 15:20:32 1510863632.696446: {"class":"WATCH","enable":true,"json":false,"nmea":true,"raw":0,"scaled":false,"timing":false,"split24":false,"pps":false}
2017-11-16 15:20:33 1510863633.374649: $GPZDA,202032.00,16,11,2017,00,00*64
2017-11-16 15:20:33 1510863633.374813: $GPGGA,202032,3946.9574,N,08404.9858,W,2,12,0.80,306.67,M,-33.324,M,,*76
2017-11-16 15:20:33 1510863633.374874: $GPRMC,202032,A,3946.9574,N,08404.9858,W,0.0000,0.000,161117,,*3C
2017-11-16 15:20:33 1510863633.374931: $GPGSA,A,3,8,10,14,15,18,20,21,24,27,32,12,138,1.6,0.8,1.3*34
2017-11-16 15:20:34 1510863634.709082: $GPGSV,3,1,12,08,06,295,33,10,67,327,51,14,27,252,46,15,13,064,35*7F
2017-11-16 15:20:34 1510863634.709256: $GPGSV,3,2,12,18,72,087,46,20,10,117,25,21,32,180,46,24,46,061,50*76
2017-11-16 15:20:34 1510863634.709317: $GPGSV,3,3,12,27,08,262,33,32,44,262,48,12,08,109,33,138,38,213,45*49
2017-11-16 15:20:34 1510863634.822386: $GPZDA,202033.00,16,11,2017,00,00*65
2017-11-16 15:20:34 1510863634.822557: $GPGGA,202033,3946.9574,N,08404.9858,W,2,12,0.80,306.67,M,-33.324,M,,*77
2017-11-16 15:20:34 1510863634.822619: $GPRMC,202033,A,3946.9574,N,08404.9858,W,0.0000,0.000,161117,,*3D
2017-11-16 15:20:34 1510863634.822676: $GPGSA,A,3,8,10,14,15,18,20,21,24,27,32,12,138,1.6,0.8,1.3*34
2017-11-16 15:20:35 1510863635.373246: $GPZDA,202034.00,16,11,2017,00,00*62
2017-11-16 15:20:35 1510863635.373411: $GPGGA,202034,3946.9574,N,08404.9858,W,2,12,0.80,306.67,M,-33.324,M,,*70
2017-11-16 15:20:35 1510863635.373471: $GPRMC,202034,A,3946.9574,N,08404.9858,W,0.0000,0.000,161117,,*3A
2017-11-16 15:20:35 1510863635.373528: $GPGSA,A,3,8,10,14,15,18,20,21,24,27,32,12,138,1.6,0.8,1.3*34
2017-11-16 15:20:36 1510863636.373591: $GPZDA,202035.00,16,11,2017,00,00*63
2017-11-16 15:20:36 1510863636.373757: $GPGGA,202035,3946.9574,N,08404.9858,W,2,12,0.80,306.67,M,-33.324,M,,*71
2017-11-16 15:20:36 1510863636.373819: $GPRMC,202035,A,3946.9574,N,08404.9858,W,0.0000,0.000,161117,,*3B
2017-11-16 15:20:36 1510863636.373876: $GPGSA,A,3,8,10,14,15,18,20,21,24,27,32,12,138,1.6,0.8,1.3*34
2017-11-16 15:20:37 1510863637.728131: $GPGSV,3,1,12,08,06,295,34,10,67,327,51,14,27,252,46,15,13,064,35*78
2017-11-16 15:20:37 1510863637.728300: $GPGSV,3,2,12,18,72,087,46,20,10,117,25,21,32,180,46,24,46,061,50*76
2017-11-16 15:20:37 1510863637.728361: $GPGSV,3,3,12,27,08,262,29,32,44,262,48,12,08,109,33,138,38,213,44*43
2017-11-16 15:20:37 1510863637.841466: $GPZDA,202036.00,16,11,2017,00,00*60
2017-11-16 15:20:37 1510863637.841636: $GPGGA,202036,3946.9574,N,08404.9858,W,2,12,0.80,306.67,M,-33.324,M,,*72
2017-11-16 15:20:37 1510863637.841699: $GPRMC,202036,A,3946.9574,N,08404.9858,W,0.0000,0.000,161117,,*38
2017-11-16 15:20:37 1510863637.841756: $GPGSA,A,3,8,10,14,15,18,20,21,24,27,32,12,138,1.6,0.8,1.3*34
2017-11-16 15:20:38 1510863638.372290: $GPZDA,202037.00,16,11,2017,00,00*61
2017-11-16 15:20:38 1510863638.372455: $GPGGA,202037,3946.9574,N,08404.9858,W,2,12,0.80,306.67,M,-33.324,M,,*73
2017-11-16 15:20:38 1510863638.372517: $GPRMC,202037,A,3946.9574,N,08404.9858,W,0.0000,0.000,161117,,*39
2017-11-16 15:20:38 1510863638.372574: $GPGSA,A,3,8,10,14,15,18,20,21,24,27,32,12,138,1.6,0.8,1.3*34
2017-11-16 15:20:39 1510863639.383139: $GPZDA,202038.00,16,11,2017,00,00*6E
2017-11-16 15:20:39 1510863639.383303: $GPGGA,202038,3946.9574,N,08404.9858,W,2,12,0.80,306.67,M,-33.324,M,,*7C
2017-11-16 15:20:39 1510863639.383365: $GPRMC,202038,A,3946.9574,N,08404.9858,W,0.0000,0.000,161117,,*36
2017-11-16 15:20:39 1510863639.383421: $GPGSA,A,3,8,10,14,15,18,20,21,24,27,32,12,138,1.6,0.8,1.3*34
2017-11-16 15:20:40 1510863640.710168: $GPGSV,3,1,12,08,06,295,34,10,67,327,51,14,27,252,46,15,13,064,34*79
2017-11-16 15:20:40 1510863640.710463: $GPGSV,3,2,12,18,72,087,46,20,10,117,26,21,32,180,45,24,46,061,50*76
2017-11-16 15:20:40 1510863640.710534: $GPGSV,3,3,12,27,08,262,30,32,44,262,48,12,08,109,32,138,38,213,44*4A
2017-11-16 15:20:40 1510863640.823533: $GPZDA,202039.00,16,11,2017,00,00*6F
2017-11-16 15:20:40 1510863640.823719: $GPGGA,202039,3946.9574,N,08404.9858,W,2,12,0.80,306.67,M,-33.324,M,,*7D
2017-11-16 15:20:40 1510863640.823781: $GPRMC,202039,A,3946.9574,N,08404.9858,W,0.0000,0.000,161117,,*37
2017-11-16 15:20:40 1510863640.823837: $GPGSA,A,3,8,10,14,15,18,20,21,24,27,32,12,138,1.6,0.8,1.3*34
2017-11-16 15:20:41 1510863641.449111: $GPZDA,202040.00,16,11,2017,00,00*61
2017-11-16 15:20:41 1510863641.449271: $GPGGA,202040,3946.9574,N,08404.9858,W,2,12,0.80,306.67,M,-33.324,M,,*73
2017-11-16 15:20:41 1510863641.449333: $GPRMC,202040,A,3946.9574,N,08404.9858,W,0.0000,0.000,161117,,*39
2017-11-16 15:20:41 1510863641.449405: $GPGSA,A,3,8,10,14,15,18,20,21,24,27,32,12,138,1.6,0.8,1.3*34
2017-11-16 15:20:42 1510863642.390120: $GPZDA,202041.00,16,11,2017,00,00*60
2017-11-16 15:20:42 1510863642.390413: $GPGGA,202041,3946.9574,N,08404.9858,W,2,12,0.80,306.67,M,-33.324,M,,*72
2017-11-16 15:20:42 1510863642.390488: $GPRMC,202041,A,3946.9574,N,08404.9858,W,0.0000,0.000,161117,,*38
2017-11-16 15:20:42 1510863642.390545: $GPGSA,A,3,8,10,14,15,18,20,21,24,27,32,12,138,1.6,0.8,1.3*34
