2017-11-15 19:45:04 1510793104.344532: {"class":"VERSION","release":"3.17","rev":"3.17","proto_major":3,"proto_minor":12}
2017-11-15 19:45:04 1510793104.346941: {"class":"DEVICES","devices":[{"class":"DEVICE","path":"/dev/ttyUSB0","driver":"SiRF","subtype":"9\u0006GSD4e_4.1.2-P1_RPATCH.05-F-GPS-4R-1510281 11/03/2015 307","activated":"2017-11-16T00:45:04.328Z","flags":1,"native":1,"bps":4800,"parity":"N","stopbits":1,"cycle":1.00}]}
2017-11-15 19:45:04 1510793104.347138: {"class":"WATCH","enable":true,"json":false,"nmea":true,"raw":0,"scaled":false,"timing":false,"split24":false,"pps":false}
2017-11-15 19:45:05 1510793105.346517: $GPZDA,004504.00,16,11,2017,00,00*60
2017-11-15 19:45:05 1510793105.346675: $GPGGA,004504,3946.9703,N,08404.9545,W,1,08,1.00,346.88,M,-33.324,M,,*75
2017-11-15 19:45:05 1510793105.346799: $GPRMC,004504,A,3946.9703,N,08404.9545,W,0.5774,27.515,161117,,*0E
2017-11-15 19:45:05 1510793105.346859: $GPGSA,A,3,32,16,22,26,14,31,23,3,,,,,3.4,1.0,2.9*08
2017-11-15 19:45:06 1510793106.665147: $GPGSV,3,1,12,32,30,114,18,16,30,190,25,22,50,259,19,26,61,169,23*73
2017-11-15 19:45:06 1510793106.665319: $GPGSV,3,2,12,14,49,102,22,31,62,034,13,29,12,064,00,23,16,303,10*7E
2017-11-15 19:45:06 1510793106.665379: $GPGSV,3,3,12,03,43,291,17,25,11,039,00,01,01,247,00,138,38,213,00*4F
2017-11-15 19:45:06 1510793106.778449: $GPZDA,004505.00,16,11,2017,00,00*61
2017-11-15 19:45:06 1510793106.778606: $GPGGA,004505,3946.9703,N,08404.9545,W,1,08,1.00,346.88,M,-33.324,M,,*74
2017-11-15 19:45:06 1510793106.778667: $GPRMC,004505,A,3946.9703,N,08404.9545,W,0.5951,58.684,161117,,*05
2017-11-15 19:45:06 1510793106.778722: $GPGSA,A,3,32,16,22,26,14,31,23,3,,,,,3.4,1.0,2.9*08
2017-11-15 19:45:07 1510793107.328082: $GPZDA,004506.00,16,11,2017,00,00*62
2017-11-15 19:45:07 1510793107.328247: $GPGGA,004506,3946.9703,N,08404.9545,W,1,08,1.00,346.88,M,-33.324,M,,*77
2017-11-15 19:45:07 1510793107.328307: $GPRMC,004506,A,3946.9703,N,08404.9545,W,0.1567,189.201,161117,,*3F
2017-11-15 19:45:07 1510793107.328362: $GPGSA,A,3,32,16,22,26,14,31,23,3,,,,,3.4,1.0,2.9*08
2017-11-15 19:45:08 1510793108.345163: $GPZDA,004507.00,16,11,2017,00,00*63
2017-11-15 19:45:08 1510793108.345311: $GPGGA,004507,3946.9703,N,08404.9545,W,1,08,1.00,346.88,M,-33.324,M,,*76
2017-11-15 19:45:08 1510793108.345371: $GPRMC,004507,A,3946.9703,N,08404.9545,W,0.4179,148.778,161117,,*36
2017-11-15 19:45:08 1510793108.345427: $GPGSA,A,3,32,16,22,26,14,31,23,3,,,,,3.4,1.0,2.9*08
2017-11-15 19:45:09 1510793109.664865: $GPGSV,3,1,12,32,30,114,17,16,30,190,26,22,50,259,18,26,61,169,23*7E
2017-11-15 19:45:09 1510793109.665016: $GPGSV,3,2,12,14,49,102,22,31,62,034,12,29,12,064,00,23,16,303,11*7E
2017-11-15 19:45:09 1510793109.665076: $GPGSV,3,3,12,03,43,291,17,25,11,039,00,01,01,247,00,138,38,213,00*4F
2017-11-15 19:45:09 1510793109.778203: $GPZDA,004508.00,16,11,2017,00,00*6C
2017-11-15 19:45:09 1510793109.778365: $GPGGA,004508,3946.9703,N,08404.9538,W,1,08,1.20,346.96,M,-33.324,M,,*7E
2017-11-15 19:45:09 1510793109.778425: $GPRMC,004508,A,3946.9703,N,08404.9538,W,0.4844,93.794,161117,,*01
2017-11-15 19:45:09 1510793109.778480: $GPGSA,A,3,32,16,22,26,14,31,23,3,,,,,3.4,1.2,2.9*0A
2017-11-15 19:45:10 1510793110.346541: $GPZDA,004509.00,16,11,2017,00,00*6D
2017-11-15 19:45:10 1510793110.346751: $GPGGA,004509,3946.9703,N,08404.9538,W,1,08,1.20,346.96,M,-33.324,M,,*7F
2017-11-15 19:45:10 1510793110.346820: $GPRMC,004509,A,3946.9703,N,08404.9538,W,0.5951,58.684,161117,,*03
2017-11-15 19:45:10 1510793110.346876: $GPGSA,A,3,32,16,22,26,14,31,23,3,,,,,3.4,1.2,2.9*0A
2017-11-15 19:45:11 1510793111.347010: $GPZDA,004510.00,16,11,2017,00,00*65
2017-11-15 19:45:11 1510793111.347187: $GPGGA,004510,3946.9707,N,08404.9538,W,1,08,1.20,347.60,M,-33.324,M,,*7B
2017-11-15 19:45:11 1510793111.347250: $GPRMC,004510,A,3946.9707,N,08404.9538,W,0.5951,58.684,161117,,*0F
2017-11-15 19:45:11 1510793111.347306: $GPGSA,A,3,32,16,22,26,14,31,23,3,,,,,3.4,1.2,2.9*0A
2017-11-15 19:45:12 1510793112.666456: $GPGSV,3,1,12,32,30,114,17,16,30,190,26,22,50,259,18,26,61,169,22*7F
2017-11-15 19:45:12 1510793112.666675: $GPGSV,3,2,12,14,49,102,21,31,62,034,14,29,12,064,00,23,16,303,12*78
2017-11-15 19:45:12 1510793112.666797: $GPGSV,3,3,12,03,43,291,17,25,11,039,00,01,01,247,00,138,38,213,00*4F
2017-11-15 19:45:12 1510793112.779793: $GPZDA,004511.00,16,11,2017,00,00*64
2017-11-15 19:45:12 1510793112.779982: $GPGGA,004511,3946.9707,N,08404.9538,W,1,08,1.20,347.60,M,-33.324,M,,*7A
2017-11-15 19:45:12 1510793112.780058: $GPRMC,004511,A,3946.9707,N,08404.9538,W,0.8414,39.347,161117,,*02
2017-11-15 19:45:12 1510793112.780116: $GPGSA,A,3,32,16,22,26,14,31,23,3,,,,,3.4,1.2,2.9*0A
2017-11-15 19:45:13 1510793113.330646: $GPZDA,004512.00,16,11,2017,00,00*67
2017-11-15 19:45:13 1510793113.330824: $GPGGA,004512,3946.9707,N,08404.9538,W,1,08,1.20,347.60,M,-33.324,M,,*79
2017-11-15 19:45:13 1510793113.330885: $GPRMC,004512,A,3946.9707,N,08404.9538,W,0.8414,39.347,161117,,*01
2017-11-15 19:45:13 1510793113.330941: $GPGSA,A,3,32,16,22,26,14,31,23,3,,,,,3.4,1.2,2.9*0A
2017-11-15 19:45:14 1510793114.346943: $GPZDA,004513.00,16,11,2017,00,00*66
2017-11-15 19:45:14 1510793114.347114: $GPGGA,004513,3946.9707,N,08404.9538,W,1,08,1.20,347.60,M,-33.324,M,,*78
2017-11-15 19:45:14 1510793114.347174: $GPRMC,004513,A,3946.9707,N,08404.9538,W,0.0000,0.000,161117,,*33
2017-11-15 19:45:14 1510793114.347230: $GPGSA,A,3,32,16,22,26,14,31,23,3,,,,,3.4,1.2,2.9*0A
