2018-01-11 19:42:05 1515717725.615610: {"class":"VERSION","release":"3.16","rev":"3.16-4","proto_major":3,"proto_minor":11}
2018-01-11 19:42:05 1515717725.615952: {"class":"DEVICES","devices":[{"class":"DEVICE","path":"/dev/ttyUSB0","driver":"SiRF","subtype":"9\u0006GSD4e_4.1.2-P1_RPATCH.05-F-GPS-4R-1510281 11/03/2015 307","activated":"2018-01-12T00:42:05.605Z","flags":1,"native":1,"bps":4800,"parity":"N","stopbits":1,"cycle":1.00}]}
2018-01-11 19:42:05 1515717725.616065: {"class":"WATCH","enable":true,"json":false,"nmea":true,"raw":0,"scaled":false,"timing":false,"split24":false,"pps":false}
2018-01-11 19:42:05 1515717725.718988: $GPZDA,004206.40,12,01,2018,00,00*6B
2018-01-11 19:42:05 1515717725.719206: $GPGGA,004206,3946.9617,N,08404.9885,W,1,09,0.80,312.75,M,-33.324,M,,*7E
2018-01-11 19:42:05 1515717725.719274: $GPRMC,004206,A,3946.9617,N,08404.9885,W,0.1160,239.753,120118,,*3E
2018-01-11 19:42:05 1515717725.719335: $GPGSA,A,3,7,8,9,16,23,27,30,11,138,,,,4.0,0.8,3.5*34
2018-01-11 19:42:05 1515717725.719392: $GPGBS,004206,14.62,M,24.83,M,80.38,M*01
2018-01-11 19:42:06 1515717726.800445: $GPZDA,004207.09,12,01,2018,00,00*67
2018-01-11 19:42:06 1515717726.800603: $GPGGA,004207,3946.9614,N,08404.9886,W,1,09,0.80,313.52,M,-33.324,M,,*7B
2018-01-11 19:42:06 1515717726.800668: $GPRMC,004207,A,3946.9614,N,08404.9886,W,0.2648,202.230,120118,,*39
2018-01-11 19:42:06 1515717726.800729: $GPGSA,A,3,7,8,9,16,23,27,30,11,138,,,,4.0,0.8,3.5*34
2018-01-11 19:42:07 1515717727.993073: $GPGSV,3,1,12,07,44,309,39,08,62,159,46,09,55,249,42,11,09,172,31*73
2018-01-11 19:42:07 1515717727.993240: $GPGSV,3,2,12,16,33,052,47,23,42,195,47,27,56,069,50,30,18,301,33*75
2018-01-11 19:42:07 1515717727.993306: $GPGSV,3,3,12,28,05,249,10,26,07,066,00,21,01,031,00,138,38,213,34*4E
2018-01-11 19:42:08 1515717728.106412: $GPZDA,004208.00,12,01,2018,00,00*61
2018-01-11 19:42:08 1515717728.106548: $GPGGA,004208,3946.9614,N,08404.9886,W,1,10,0.80,313.52,M,-33.324,M,,*7C
2018-01-11 19:42:08 1515717728.106613: $GPRMC,004208,A,3946.9614,N,08404.9886,W,0.2872,195.166,120118,,*3C
2018-01-11 19:42:08 1515717728.106673: $GPGSA,A,3,7,8,9,11,16,23,27,30,28,138,,,4.0,0.8,3.5*3E
2018-01-11 19:42:08 1515717728.558546: $GPZDA,004209.00,12,01,2018,00,00*60
2018-01-11 19:42:08 1515717728.558705: $GPGGA,004209,3946.9614,N,08404.9886,W,1,10,0.80,313.52,M,-33.324,M,,*7D
2018-01-11 19:42:08 1515717728.558770: $GPRMC,004209,A,3946.9614,N,08404.9886,W,0.2758,128.233,120118,,*3F
2018-01-11 19:42:08 1515717728.558830: $GPGSA,A,3,7,8,9,11,16,23,27,30,28,138,,,4.0,0.8,3.5*3E
2018-01-11 19:42:09 1515717729.414410: $GPZDA,004210.00,12,01,2018,00,00*68
2018-01-11 19:42:09 1515717729.414568: $GPGGA,004210,3946.9617,N,08404.9878,W,1,10,0.80,312.83,M,-33.324,M,,*7A
2018-01-11 19:42:09 1515717729.414635: $GPRMC,004210,A,3946.9617,N,08404.9878,W,0.0000,0.000,120118,,*34
2018-01-11 19:42:09 1515717729.414696: $GPGSA,A,3,7,8,9,11,16,23,27,30,28,138,,,4.0,0.8,3.5*3E
2018-01-11 19:42:10 1515717730.750887: $GPGSV,3,1,12,07,44,309,38,08,62,159,45,09,55,249,42,11,09,172,31*71
2018-01-11 19:42:10 1515717730.751064: $GPGSV,3,2,12,16,33,052,47,23,42,195,47,27,56,069,50,30,18,301,32*74
2018-01-11 19:42:10 1515717730.751130: $GPGSV,3,3,12,28,05,249,25,26,07,066,00,21,01,031,00,138,38,213,44*4F
2018-01-11 19:42:10 1515717730.864223: $GPZDA,004211.00,12,01,2018,00,00*69
2018-01-11 19:42:10 1515717730.864349: $GPGGA,004211,3946.9613,N,08404.9878,W,1,10,0.80,312.19,M,-33.324,M,,*7C
2018-01-11 19:42:10 1515717730.864412: $GPRMC,004211,A,3946.9613,N,08404.9878,W,0.0000,0.000,120118,,*31
2018-01-11 19:42:10 1515717730.864471: $GPGSA,A,3,7,8,9,11,16,23,27,30,28,138,,,4.0,0.8,3.5*3E
2018-01-11 19:42:11 1515717731.416523: $GPZDA,004212.00,12,01,2018,00,00*6A
2018-01-11 19:42:11 1515717731.416672: $GPGGA,004212,3946.9613,N,08404.9878,W,1,10,0.80,312.19,M,-33.324,M,,*7F
2018-01-11 19:42:11 1515717731.416737: $GPRMC,004212,A,3946.9613,N,08404.9878,W,0.0000,0.000,120118,,*32
2018-01-11 19:42:11 1515717731.416798: $GPGSA,A,3,7,8,9,11,16,23,27,30,28,138,,,4.0,0.8,3.5*3E
2018-01-11 19:42:12 1515717732.416244: $GPZDA,004213.00,12,01,2018,00,00*6B
2018-01-11 19:42:12 1515717732.417985: $GPGGA,004213,3946.9613,N,08404.9878,W,1,10,0.80,312.19,M,-33.324,M,,*7E
2018-01-11 19:42:12 1515717732.418082: $GPRMC,004213,A,3946.9613,N,08404.9878,W,0.0000,0.000,120118,,*33
2018-01-11 19:42:12 1515717732.418145: $GPGSA,A,3,7,8,9,11,16,23,27,30,28,138,,,4.0,0.8,3.5*3E
2018-01-11 19:42:12 1515717732.418232: $GPGBS,004213,14.62,M,24.83,M,80.38,M*05
