2017-12-29 10:37:58 1514561878.087201: {"class":"VERSION","release":"3.16","rev":"3.16-4","proto_major":3,"proto_minor":11}
2017-12-29 10:37:58 1514561878.087558: {"class":"DEVICES","devices":[{"class":"DEVICE","path":"/dev/ttyUSB0","driver":"SiRF","subtype":"9\u0006GSD4e_4.1.2-P1_RPATCH.05-F-GPS-4R-1510281 11/03/2015 307","activated":"2017-12-29T15:37:57.929Z","flags":1,"native":1,"bps":4800,"parity":"N","stopbits":1,"cycle":1.00}]}
2017-12-29 10:37:58 1514561878.087674: {"class":"WATCH","enable":true,"json":false,"nmea":true,"raw":0,"scaled":false,"timing":false,"split24":false,"pps":false}
2017-12-29 10:37:58 1514561878.341381: $GPZDA,153759.00,29,12,2017,00,00*66
2017-12-29 10:37:58 1514561878.341543: $GPGGA,153759,3946.9585,N,08404.9811,W,2,11,0.80,301.28,M,-33.324,M,,*77
2017-12-29 10:37:58 1514561878.341609: $GPRMC,153759,A,3946.9585,N,08404.9811,W,0.0000,0.000,291217,,*3D
2017-12-29 10:37:58 1514561878.341671: $GPGSA,A,3,10,13,15,18,20,21,24,27,29,32,138,,1.7,0.8,1.3*02
2017-12-29 10:37:59 1514561879.341754: $GPZDA,153800.00,29,12,2017,00,00*65
2017-12-29 10:37:59 1514561879.341914: $GPGGA,153800,3946.9585,N,08404.9811,W,2,11,0.80,301.28,M,-33.324,M,,*74
2017-12-29 10:37:59 1514561879.342001: $GPRMC,153800,A,3946.9585,N,08404.9811,W,0.0000,0.000,291217,,*3E
2017-12-29 10:37:59 1514561879.342064: $GPGSA,A,3,10,13,15,18,20,21,24,27,29,32,138,,1.7,0.8,1.3*02
2017-12-29 10:38:00 1514561880.675909: $GPGSV,3,1,11,10,28,288,42,13,23,045,45,15,54,049,50,18,60,309,42*79
2017-12-29 10:38:00 1514561880.676089: $GPGSV,3,2,11,20,48,079,48,21,78,231,47,24,39,132,49,27,18,307,33*72
2017-12-29 10:38:00 1514561880.676159: $GPGSV,3,3,11,29,05,187,35,32,07,228,28,138,38,213,45*7B
2017-12-29 10:38:00 1514561880.789536: $GPZDA,153801.00,29,12,2017,00,00*64
2017-12-29 10:38:00 1514561880.789681: $GPGGA,153801,3946.9585,N,08404.9811,W,2,11,0.80,301.28,M,-33.324,M,,*75
2017-12-29 10:38:00 1514561880.789749: $GPRMC,153801,A,3946.9585,N,08404.9811,W,0.0000,0.000,291217,,*3F
2017-12-29 10:38:00 1514561880.789810: $GPGSA,A,3,10,13,15,18,20,21,24,27,29,32,138,,1.7,0.8,1.3*02
2017-12-29 10:38:01 1514561881.340430: $GPZDA,153802.00,29,12,2017,00,00*67
2017-12-29 10:38:01 1514561881.340591: $GPGGA,153802,3946.9585,N,08404.9811,W,2,11,0.80,301.28,M,-33.324,M,,*76
2017-12-29 10:38:01 1514561881.340656: $GPRMC,153802,A,3946.9585,N,08404.9811,W,0.0000,0.000,291217,,*3C
2017-12-29 10:38:01 1514561881.340718: $GPGSA,A,3,10,13,15,18,20,21,24,27,29,32,138,,1.7,0.8,1.3*02
2017-12-29 10:38:02 1514561882.340038: $GPZDA,153803.00,29,12,2017,00,00*66
2017-12-29 10:38:02 1514561882.340198: $GPGGA,153803,3946.9585,N,08404.9811,W,2,11,0.80,301.28,M,-33.324,M,,*77
2017-12-29 10:38:02 1514561882.340268: $GPRMC,153803,A,3946.9585,N,08404.9811,W,0.0000,0.000,291217,,*3D
2017-12-29 10:38:02 1514561882.340331: $GPGSA,A,3,10,13,15,18,20,21,24,27,29,32,138,,1.7,0.8,1.3*02
2017-12-29 10:38:03 1514561883.674262: $GPGSV,3,1,11,10,28,288,43,13,23,045,45,15,54,049,50,18,60,309,42*78
2017-12-29 10:38:03 1514561883.674465: $GPGSV,3,2,11,20,48,079,48,21,78,231,47,24,39,132,49,27,18,307,39*78
2017-12-29 10:38:03 1514561883.674534: $GPGSV,3,3,11,29,05,187,35,32,07,228,28,138,38,213,46*78
2017-12-29 10:38:03 1514561883.787881: $GPZDA,153804.00,29,12,2017,00,00*61
2017-12-29 10:38:03 1514561883.788005: $GPGGA,153804,3946.9585,N,08404.9811,W,2,11,0.80,301.28,M,-33.324,M,,*70
2017-12-29 10:38:03 1514561883.788086: $GPRMC,153804,A,3946.9585,N,08404.9811,W,0.0000,0.000,291217,,*3A
2017-12-29 10:38:03 1514561883.788149: $GPGSA,A,3,10,13,15,18,20,21,24,27,29,32,138,,1.7,0.8,1.3*02
2017-12-29 10:38:04 1514561884.413265: $GPZDA,153805.00,29,12,2017,00,00*60
2017-12-29 10:38:04 1514561884.413424: $GPGGA,153805,3946.9585,N,08404.9811,W,2,11,0.80,301.28,M,-33.324,M,,*71
2017-12-29 10:38:04 1514561884.413509: $GPRMC,153805,A,3946.9585,N,08404.9811,W,0.0000,0.000,291217,,*3B
2017-12-29 10:38:04 1514561884.413571: $GPGSA,A,3,10,13,15,18,20,21,24,27,29,32,138,,1.7,0.8,1.3*02
2017-12-29 10:38:05 1514561885.337941: $GPZDA,153806.00,29,12,2017,00,00*63
2017-12-29 10:38:05 1514561885.338128: $GPGGA,153806,3946.9589,N,08404.9811,W,2,11,0.80,301.92,M,-33.324,M,,*7F
2017-12-29 10:38:05 1514561885.338255: $GPRMC,153806,A,3946.9589,N,08404.9811,W,0.0000,0.000,291217,,*34
2017-12-29 10:38:05 1514561885.338318: $GPGSA,A,3,10,13,15,18,20,21,24,27,29,32,138,,1.7,0.8,1.3*02
2017-12-29 10:38:06 1514561886.675829: $GPGSV,3,1,11,10,28,288,43,13,23,045,45,15,54,049,51,18,60,309,42*79
2017-12-29 10:38:06 1514561886.676004: $GPGSV,3,2,11,20,48,079,48,21,78,231,47,24,39,132,49,27,18,307,39*78
2017-12-29 10:38:06 1514561886.676076: $GPGSV,3,3,11,29,05,187,35,32,07,228,28,138,38,213,45*7B
2017-12-29 10:38:06 1514561886.789492: $GPZDA,153807.00,29,12,2017,00,00*62
2017-12-29 10:38:06 1514561886.789632: $GPGGA,153807,3946.9589,N,08404.9811,W,2,11,0.80,301.92,M,-33.324,M,,*7E
2017-12-29 10:38:06 1514561886.789698: $GPRMC,153807,A,3946.9589,N,08404.9811,W,0.0000,0.000,291217,,*35
2017-12-29 10:38:06 1514561886.789759: $GPGSA,A,3,10,13,15,18,20,21,24,27,29,32,138,,1.7,0.8,1.3*02
2017-12-29 10:38:07 1514561887.342913: $GPZDA,153808.00,29,12,2017,00,00*6D
2017-12-29 10:38:07 1514561887.343085: $GPGGA,153808,3946.9589,N,08404.9811,W,2,11,0.80,301.92,M,-33.324,M,,*71
2017-12-29 10:38:07 1514561887.343151: $GPRMC,153808,A,3946.9589,N,08404.9811,W,0.0000,0.000,291217,,*3A
2017-12-29 10:38:07 1514561887.343211: $GPGSA,A,3,10,13,15,18,20,21,24,27,29,32,138,,1.7,0.8,1.3*02
