2017-11-16 15:23:54 1510863834.456402: {"class":"VERSION","release":"3.17","rev":"3.17","proto_major":3,"proto_minor":12}
2017-11-16 15:23:54 1510863834.456898: {"class":"DEVICES","devices":[{"class":"DEVICE","path":"/dev/ttyUSB0","driver":"SiRF","subtype":"9\u0006GSD4e_4.1.2-P1_RPATCH.05-F-GPS-4R-1510281 11/03/2015 307","activated":"2017-11-16T20:23:54.408Z","flags":1,"native":1,"bps":4800,"parity":"N","stopbits":1,"cycle":1.00}]}
2017-11-16 15:23:54 1510863834.457029: {"class":"WATCH","enable":true,"json":false,"nmea":true,"raw":0,"scaled":false,"timing":false,"split24":false,"pps":false}
2017-11-16 15:23:55 1510863835.706602: $GPGSV,3,1,12,08,06,294,35,10,68,330,51,14,28,252,46,15,12,066,31*79
2017-11-16 15:23:55 1510863835.706780: $GPGSV,3,2,12,18,71,090,48,20,09,117,25,21,30,180,44,24,46,060,51*75
2017-11-16 15:23:55 1510863835.706841: $GPGSV,3,3,12,27,07,261,32,32,45,264,48,12,08,108,28,138,38,213,44*49
2017-11-16 15:23:55 1510863835.820376: $GPZDA,202354.00,16,11,2017,00,00*67
2017-11-16 15:23:55 1510863835.820535: $GPGGA,202354,3946.9575,N,08404.9858,W,2,12,0.80,308.08,M,-33.324,M,,*73
2017-11-16 15:23:55 1510863835.820595: $GPRMC,202354,A,3946.9575,N,08404.9858,W,0.0000,0.000,161117,,*3E
2017-11-16 15:23:55 1510863835.820651: $GPGSA,A,3,8,10,14,15,18,20,21,24,27,32,12,138,1.6,0.8,1.3*34
2017-11-16 15:23:56 1510863836.445254: $GPZDA,202355.00,16,11,2017,00,00*66
2017-11-16 15:23:56 1510863836.445418: $GPGGA,202355,3946.9575,N,08404.9858,W,2,12,0.80,308.08,M,-33.324,M,,*72
2017-11-16 15:23:56 1510863836.445480: $GPRMC,202355,A,3946.9575,N,08404.9858,W,0.0000,0.000,161117,,*3F
2017-11-16 15:23:56 1510863836.445536: $GPGSA,A,3,8,10,14,15,18,20,21,24,27,32,12,138,1.6,0.8,1.3*34
2017-11-16 15:23:57 1510863837.370420: $GPZDA,202356.00,16,11,2017,00,00*65
2017-11-16 15:23:57 1510863837.370581: $GPGGA,202356,3946.9575,N,08404.9858,W,2,12,0.80,308.08,M,-33.324,M,,*71
2017-11-16 15:23:57 1510863837.370641: $GPRMC,202356,A,3946.9575,N,08404.9858,W,0.0000,0.000,161117,,*3C
2017-11-16 15:23:57 1510863837.370696: $GPGSA,A,3,8,10,14,15,18,20,21,24,27,32,12,138,1.6,0.8,1.3*34
2017-11-16 15:23:58 1510863838.705627: $GPGSV,3,1,12,08,06,294,35,10,68,330,51,14,28,252,45,15,12,066,31*7A
2017-11-16 15:23:58 1510863838.705795: $GPGSV,3,2,12,18,71,090,47,20,09,117,25,21,30,180,44,24,46,060,51*7A
2017-11-16 15:23:58 1510863838.705876: $GPGSV,3,3,12,27,07,261,32,32,45,264,48,12,08,108,28,138,38,213,44*49
2017-11-16 15:23:58 1510863838.818960: $GPZDA,202357.00,16,11,2017,00,00*64
2017-11-16 15:23:58 1510863838.819147: $GPGGA,202357,3946.9575,N,08404.9858,W,2,12,0.80,308.08,M,-33.324,M,,*70
2017-11-16 15:23:58 1510863838.819208: $GPRMC,202357,A,3946.9575,N,08404.9858,W,0.0000,0.000,161117,,*3D
2017-11-16 15:23:58 1510863838.819265: $GPGSA,A,3,8,10,14,15,18,20,21,24,27,32,12,138,1.6,0.8,1.3*34
2017-11-16 15:23:59 1510863839.369866: $GPZDA,202358.00,16,11,2017,00,00*6B
2017-11-16 15:23:59 1510863839.370045: $GPGGA,202358,3946.9575,N,08404.9858,W,2,12,0.80,308.08,M,-33.324,M,,*7F
2017-11-16 15:23:59 1510863839.370107: $GPRMC,202358,A,3946.9575,N,08404.9858,W,0.0000,0.000,161117,,*32
2017-11-16 15:23:59 1510863839.370163: $GPGSA,A,3,8,10,14,15,18,20,21,24,27,32,12,138,1.6,0.8,1.3*34
2017-11-16 15:24:00 1510863840.371211: $GPZDA,202359.00,16,11,2017,00,00*6A
2017-11-16 15:24:00 1510863840.371371: $GPGGA,202359,3946.9575,N,08404.9858,W,2,12,0.80,308.08,M,-33.324,M,,*7E
2017-11-16 15:24:00 1510863840.371432: $GPRMC,202359,A,3946.9575,N,08404.9858,W,0.0000,0.000,161117,,*33
2017-11-16 15:24:00 1510863840.371488: $GPGSA,A,3,8,10,14,15,18,20,21,24,27,32,12,138,1.6,0.8,1.3*34
2017-11-16 15:24:01 1510863841.723432: $GPGSV,3,1,12,08,06,294,35,10,68,330,51,14,28,252,45,15,12,066,31*7A
2017-11-16 15:24:01 1510863841.723576: $GPGSV,3,2,12,18,71,090,48,20,09,117,25,21,30,180,44,24,46,060,50*74
2017-11-16 15:24:01 1510863841.723636: $GPGSV,3,3,12,27,07,261,33,32,45,264,48,12,08,108,29,138,38,213,44*49
2017-11-16 15:24:01 1510863841.836971: $GPZDA,202400.00,16,11,2017,00,00*61
2017-11-16 15:24:01 1510863841.837130: $GPGGA,202400,3946.9575,N,08404.9858,W,2,12,0.80,308.08,M,-33.324,M,,*75
2017-11-16 15:24:01 1510863841.837267: $GPRMC,202400,A,3946.9575,N,08404.9858,W,0.0000,0.000,161117,,*38
2017-11-16 15:24:01 1510863841.837326: $GPGSA,A,3,8,10,14,15,18,20,21,24,27,32,12,138,1.6,0.8,1.3*34
2017-11-16 15:24:02 1510863842.385134: $GPZDA,202401.00,16,11,2017,00,00*60
2017-11-16 15:24:02 1510863842.385304: $GPGGA,202401,3946.9575,N,08404.9858,W,2,12,0.80,308.08,M,-33.324,M,,*74
2017-11-16 15:24:02 1510863842.385366: $GPRMC,202401,A,3946.9575,N,08404.9858,W,0.0000,0.000,161117,,*39
2017-11-16 15:24:02 1510863842.385422: $GPGSA,A,3,8,10,14,15,18,20,21,24,27,32,12,138,1.6,0.8,1.3*34
2017-11-16 15:24:03 1510863843.368453: $GPZDA,202402.00,16,11,2017,00,00*63
2017-11-16 15:24:03 1510863843.368633: $GPGGA,202402,3946.9575,N,08404.9858,W,2,12,0.80,308.08,M,-33.324,M,,*77
2017-11-16 15:24:03 1510863843.368697: $GPRMC,202402,A,3946.9575,N,08404.9858,W,0.0000,0.000,161117,,*3A
2017-11-16 15:24:03 1510863843.368778: $GPGSA,A,3,8,10,14,15,18,20,21,24,27,32,12,138,1.6,0.8,1.3*34
