2017-11-16 15:13:07 1510863187.877854: {"class":"VERSION","release":"3.17","rev":"3.17","proto_major":3,"proto_minor":12}
2017-11-16 15:13:07 1510863187.878299: {"class":"DEVICES","devices":[{"class":"DEVICE","path":"/dev/ttyUSB0","driver":"SiRF","subtype":"9\u0006GSD4e_4.1.2-P1_RPATCH.05-F-GPS-4R-1510281 11/03/2015 307","activated":"2017-11-16T20:13:07.849Z","flags":1,"native":1,"bps":4800,"parity":"N","stopbits":1,"cycle":1.00}]}
2017-11-16 15:13:07 1510863187.878417: {"class":"WATCH","enable":true,"json":false,"nmea":true,"raw":0,"scaled":false,"timing":false,"split24":false,"pps":false}
2017-11-16 15:13:08 1510863188.401217: $GPZDA,201307.00,16,11,2017,00,00*62
2017-11-16 15:13:08 1510863188.401377: $GPGGA,201307,3946.9579,N,08404.9847,W,2,12,0.80,301.01,M,-33.324,M,,*74
2017-11-16 15:13:08 1510863188.401439: $GPRMC,201307,A,3946.9579,N,08404.9847,W,0.0000,0.000,161117,,*39
2017-11-16 15:13:08 1510863188.401495: $GPGSA,A,3,8,10,14,15,18,20,21,24,27,32,12,138,1.6,0.8,1.3*34
2017-11-16 15:13:09 1510863189.384436: $GPZDA,201308.00,16,11,2017,00,00*6D
2017-11-16 15:13:09 1510863189.384599: $GPGGA,201308,3946.9579,N,08404.9847,W,2,12,0.80,301.01,M,-33.324,M,,*7B
2017-11-16 15:13:09 1510863189.384660: $GPRMC,201308,A,3946.9579,N,08404.9847,W,0.0000,0.000,161117,,*36
2017-11-16 15:13:09 1510863189.384716: $GPGSA,A,3,8,10,14,15,18,20,21,24,27,32,12,138,1.6,0.8,1.3*34
2017-11-16 15:13:10 1510863190.736510: $GPGSV,3,1,12,08,07,298,22,10,64,324,50,14,25,249,45,15,15,064,36*7C
2017-11-16 15:13:10 1510863190.736676: $GPGSV,3,2,12,18,74,079,47,20,12,115,30,21,35,180,44,24,48,064,49*72
2017-11-16 15:13:10 1510863190.736737: $GPGSV,3,3,12,27,09,264,41,32,42,259,47,12,06,111,28,138,38,213,44*46
2017-11-16 15:13:10 1510863190.849666: $GPZDA,201309.00,16,11,2017,00,00*6C
2017-11-16 15:13:10 1510863190.849835: $GPGGA,201309,3946.9579,N,08404.9847,W,2,12,0.80,301.01,M,-33.324,M,,*7A
2017-11-16 15:13:10 1510863190.849897: $GPRMC,201309,A,3946.9579,N,08404.9847,W,0.0000,0.000,161117,,*37
2017-11-16 15:13:10 1510863190.849953: $GPGSA,A,3,8,10,14,15,18,20,21,24,27,32,12,138,1.6,0.8,1.3*34
2017-11-16 15:13:11 1510863191.475196: $GPZDA,201310.00,16,11,2017,00,00*64
2017-11-16 15:13:11 1510863191.475364: $GPGGA,201310,3946.9579,N,08404.9847,W,2,12,0.80,301.01,M,-33.324,M,,*72
2017-11-16 15:13:11 1510863191.475424: $GPRMC,201310,A,3946.9579,N,08404.9847,W,0.0000,0.000,161117,,*3F
2017-11-16 15:13:11 1510863191.475480: $GPGSA,A,3,8,10,14,15,18,20,21,24,27,32,12,138,1.6,0.8,1.3*34
2017-11-16 15:13:12 1510863192.402166: $GPZDA,201311.00,16,11,2017,00,00*65
2017-11-16 15:13:12 1510863192.402343: $GPGGA,201311,3946.9579,N,08404.9847,W,2,12,0.80,301.01,M,-33.324,M,,*73
2017-11-16 15:13:12 1510863192.402404: $GPRMC,201311,A,3946.9579,N,08404.9847,W,0.0000,0.000,161117,,*3E
2017-11-16 15:13:12 1510863192.402460: $GPGSA,A,3,8,10,14,15,18,20,21,24,27,32,12,138,1.6,0.8,1.3*34
2017-11-16 15:13:13 1510863193.739487: $GPGSV,3,1,12,08,07,298,27,10,64,324,50,14,25,249,44,15,15,064,35*7B
2017-11-16 15:13:13 1510863193.739649: $GPGSV,3,2,12,18,74,079,47,20,12,115,30,21,35,180,44,24,48,064,49*72
2017-11-16 15:13:13 1510863193.739709: $GPGSV,3,3,12,27,09,264,41,32,42,259,47,12,06,111,28,138,38,213,43*41
2017-11-16 15:13:13 1510863193.852439: $GPZDA,201312.00,16,11,2017,00,00*66
2017-11-16 15:13:13 1510863193.852601: $GPGGA,201312,3946.9579,N,08404.9847,W,2,12,0.80,301.01,M,-33.324,M,,*70
2017-11-16 15:13:13 1510863193.852663: $GPRMC,201312,A,3946.9579,N,08404.9847,W,0.0000,0.000,161117,,*3D
2017-11-16 15:13:13 1510863193.852719: $GPGSA,A,3,8,10,14,15,18,20,21,24,27,32,12,138,1.6,0.8,1.3*34
2017-11-16 15:13:14 1510863194.384737: $GPZDA,201313.00,16,11,2017,00,00*67
2017-11-16 15:13:14 1510863194.384946: $GPGGA,201313,3946.9579,N,08404.9847,W,2,12,0.80,301.01,M,-33.324,M,,*71
2017-11-16 15:13:14 1510863194.385009: $GPRMC,201313,A,3946.9579,N,08404.9847,W,0.0000,0.000,161117,,*3C
2017-11-16 15:13:14 1510863194.385084: $GPGSA,A,3,8,10,14,15,18,20,21,24,27,32,12,138,1.6,0.8,1.3*34
2017-11-16 15:13:15 1510863195.385606: $GPZDA,201314.00,16,11,2017,00,00*60
2017-11-16 15:13:15 1510863195.385890: $GPGGA,201314,3946.9579,N,08404.9847,W,2,12,0.80,301.01,M,-33.324,M,,*76
2017-11-16 15:13:15 1510863195.385992: $GPRMC,201314,A,3946.9579,N,08404.9847,W,0.0000,0.000,161117,,*3B
2017-11-16 15:13:15 1510863195.386052: $GPGSA,A,3,8,10,14,15,18,20,21,24,27,32,12,138,1.6,0.8,1.3*34
2017-11-16 15:13:16 1510863196.720694: $GPGSV,3,1,12,08,07,298,26,10,64,324,50,14,25,249,44,15,15,064,36*79
2017-11-16 15:13:16 1510863196.720869: $GPGSV,3,2,12,18,74,079,47,20,12,115,30,21,35,180,43,24,48,064,49*75
2017-11-16 15:13:16 1510863196.720950: $GPGSV,3,3,12,27,09,264,41,32,42,259,47,12,06,111,25,138,38,213,44*4B
2017-11-16 15:13:16 1510863196.833977: $GPZDA,201315.00,16,11,2017,00,00*61
2017-11-16 15:13:16 1510863196.834152: $GPGGA,201315,3946.9579,N,08404.9847,W,2,12,0.80,301.01,M,-33.324,M,,*77
2017-11-16 15:13:16 1510863196.834215: $GPRMC,201315,A,3946.9579,N,08404.9847,W,0.0000,0.000,161117,,*3A
2017-11-16 15:13:16 1510863196.834271: $GPGSA,A,3,8,10,14,15,18,20,21,24,27,32,12,138,1.6,0.8,1.3*34
2017-11-16 15:13:17 1510863197.384821: $GPZDA,201316.00,16,11,2017,00,00*62
2017-11-16 15:13:17 1510863197.385007: $GPGGA,201316,3946.9579,N,08404.9847,W,2,12,0.80,301.01,M,-33.324,M,,*74
2017-11-16 15:13:17 1510863197.385071: $GPRMC,201316,A,3946.9579,N,08404.9847,W,0.0000,0.000,161117,,*39
2017-11-16 15:13:17 1510863197.385128: $GPGSA,A,3,8,10,14,15,18,20,21,24,27,32,12,138,1.6,0.8,1.3*34
