2017-11-15 18:30:19 1510788619.934139: {"class":"VERSION","release":"3.17","rev":"3.17","proto_major":3,"proto_minor":12}
2017-11-15 18:30:19 1510788619.934616: {"class":"DEVICES","devices":[{"class":"DEVICE","path":"/dev/ttyUSB0","driver":"SiRF","subtype":"9\u0006GSD4e_4.1.2-P1_RPATCH.05-F-GPS-4R-1510281 11/03/2015 307","activated":"2017-11-15T23:30:19.504Z","flags":1,"native":1,"bps":4800,"parity":"N","stopbits":1,"cycle":1.00}]}
2017-11-15 18:30:19 1510788619.934734: {"class":"WATCH","enable":true,"json":false,"nmea":true,"raw":0,"scaled":false,"timing":false,"split24":false,"pps":false}
2017-11-15 18:30:20 1510788620.328078: $GPZDA,233019.00,15,11,2017,00,00*6C
2017-11-15 18:30:20 1510788620.328242: $GPGGA,233019,3946.9556,N,08404.9469,W,1,07,1.80,289.00,M,-33.324,M,,*72
2017-11-15 18:30:20 1510788620.328303: $GPRMC,233019,A,3946.9556,N,08404.9469,W,0.7238,140.710,151117,,*37
2017-11-15 18:30:20 1510788620.328359: $GPGSA,A,3,10,14,26,31,32,1,22,,,,,,3.4,1.8,2.9*05
2017-11-15 18:30:21 1510788621.663352: $GPGSV,3,1,10,10,24,156,04,14,69,034,13,25,36,058,04,26,23,178,14*71
2017-11-15 18:30:21 1510788621.663523: $GPGSV,3,2,10,31,77,270,22,32,57,076,19,01,19,276,17,22,38,304,10*75
2017-11-15 18:30:21 1510788621.663583: $GPGSV,3,3,10,03,19,316,00,12,08,033,00*7C
2017-11-15 18:30:21 1510788621.776661: $GPZDA,233020.00,15,11,2017,00,00*66
2017-11-15 18:30:21 1510788621.776855: $GPGGA,233020,3946.9555,N,08404.9462,W,1,06,1.80,289.08,M,-33.324,M,,*79
2017-11-15 18:30:21 1510788621.776916: $GPRMC,233020,A,3946.9555,N,08404.9462,W,0.5287,182.716,151117,,*3B
2017-11-15 18:30:21 1510788621.776971: $GPGSA,A,3,14,26,31,32,1,22,,,,,,,3.4,1.8,2.9*04
2017-11-15 18:30:22 1510788622.361291: $GPZDA,233021.00,15,11,2017,00,00*67
2017-11-15 18:30:22 1510788622.361457: $GPGGA,233021,3946.9551,N,08404.9462,W,1,06,1.80,288.44,M,-33.324,M,,*75
2017-11-15 18:30:22 1510788622.361518: $GPRMC,233021,A,3946.9551,N,08404.9462,W,0.5774,207.515,151117,,*38
2017-11-15 18:30:22 1510788622.361573: $GPGSA,A,3,14,26,31,32,1,22,,,,,,,3.4,1.8,2.9*04
2017-11-15 18:30:23 1510788623.327179: $GPZDA,233022.00,15,11,2017,00,00*64
2017-11-15 18:30:23 1510788623.327342: $GPGGA,233022,3946.9551,N,08404.9462,W,1,06,1.80,288.44,M,-33.324,M,,*76
2017-11-15 18:30:23 1510788623.327403: $GPRMC,233022,A,3946.9551,N,08404.9462,W,0.5857,158.291,151117,,*37
2017-11-15 18:30:23 1510788623.327459: $GPGSA,A,3,14,26,31,32,1,22,,,,,,,3.4,1.8,2.9*04
2017-11-15 18:30:24 1510788624.696740: $GPGSV,3,1,10,10,24,156,04,14,69,034,13,25,36,058,00,26,23,178,14*75
2017-11-15 18:30:24 1510788624.696900: $GPGSV,3,2,10,31,77,270,23,32,57,076,18,01,19,276,17,22,38,304,11*74
2017-11-15 18:30:24 1510788624.696961: $GPGSV,3,3,10,03,19,316,00,12,08,033,00*7C
2017-11-15 18:30:24 1510788624.810192: $GPZDA,233023.00,15,11,2017,00,00*65
2017-11-15 18:30:24 1510788624.810352: $GPGGA,233023,3946.9551,N,08404.9462,W,1,06,1.80,288.44,M,-33.324,M,,*77
2017-11-15 18:30:24 1510788624.810414: $GPRMC,233023,A,3946.9551,N,08404.9462,W,0.5857,158.291,151117,,*36
2017-11-15 18:30:24 1510788624.810468: $GPGSA,A,3,14,26,31,32,1,22,,,,,,,3.4,1.8,2.9*04
2017-11-15 18:30:25 1510788625.362263: $GPZDA,233024.00,15,11,2017,00,00*62
2017-11-15 18:30:25 1510788625.362427: $GPGGA,233024,3946.9551,N,08404.9462,W,1,06,1.80,288.44,M,-33.324,M,,*70
2017-11-15 18:30:25 1510788625.362489: $GPRMC,233024,A,3946.9551,N,08404.9462,W,0.3423,184.197,151117,,*3C
2017-11-15 18:30:25 1510788625.362545: $GPGSA,A,3,14,26,31,32,1,22,,,,,,,3.4,1.8,2.9*04
2017-11-15 18:30:26 1510788626.360700: $GPZDA,233025.00,15,11,2017,00,00*63
2017-11-15 18:30:26 1510788626.360864: $GPGGA,233025,3946.9547,N,08404.9462,W,1,06,1.80,287.80,M,-33.324,M,,*71
2017-11-15 18:30:26 1510788626.360925: $GPRMC,233025,A,3946.9547,N,08404.9462,W,0.4207,219.347,151117,,*35
2017-11-15 18:30:26 1510788626.360980: $GPGSA,A,3,14,26,31,32,1,22,,,,,,,3.4,1.8,2.9*04
2017-11-15 18:30:27 1510788627.697066: $GPGSV,3,1,10,10,24,156,04,14,69,034,13,25,36,058,00,26,23,178,14*75
2017-11-15 18:30:27 1510788627.697242: $GPGSV,3,2,10,31,77,270,23,32,57,076,18,01,19,276,17,22,38,304,10*75
2017-11-15 18:30:27 1510788627.697370: $GPGSV,3,3,10,03,19,316,00,12,08,033,00*7C
2017-11-15 18:30:27 1510788627.810376: $GPZDA,233026.00,15,11,2017,00,00*60
2017-11-15 18:30:27 1510788627.810515: $GPGGA,233026,3946.9554,N,08404.9461,W,1,06,1.80,287.67,M,-33.324,M,,*7A
2017-11-15 18:30:27 1510788627.810574: $GPRMC,233026,A,3946.9554,N,08404.9461,W,0.8011,299.090,151117,,*3F
2017-11-15 18:30:27 1510788627.810629: $GPGSA,A,3,14,26,31,32,1,22,,,,,,,3.4,1.8,2.9*04
2017-11-15 18:30:28 1510788628.362462: $GPZDA,233027.00,15,11,2017,00,00*61
2017-11-15 18:30:28 1510788628.362634: $GPGGA,233027,3946.9555,N,08404.9468,W,1,06,1.80,287.59,M,-33.324,M,,*7E
2017-11-15 18:30:28 1510788628.362697: $GPRMC,233027,A,3946.9555,N,08404.9468,W,0.9066,309.458,151117,,*3F
2017-11-15 18:30:28 1510788628.362754: $GPGSA,A,3,14,26,31,32,1,22,,,,,,,3.4,1.8,2.9*04
2017-11-15 18:30:29 1510788629.362339: $GPZDA,233028.00,15,11,2017,00,00*6E
2017-11-15 18:30:29 1510788629.362538: $GPGGA,233028,3946.9555,N,08404.9468,W,1,06,1.80,287.59,M,-33.324,M,,*71
2017-11-15 18:30:29 1510788629.365190: $GPRMC,233028,A,3946.9555,N,08404.9468,W,0.8359,328.778,151117,,*3C
2017-11-15 18:30:29 1510788629.365267: $GPGSA,A,3,14,26,31,32,1,22,,,,,,,3.4,1.8,2.9*04
