2017-11-16 17:43:14 1510872194.121349: {"class":"VERSION","release":"3.17","rev":"3.17","proto_major":3,"proto_minor":12}
2017-11-16 17:43:14 1510872194.121849: {"class":"DEVICES","devices":[{"class":"DEVICE","path":"/dev/ttyUSB0","driver":"SiRF","subtype":"9\u0006GSD4e_4.1.2-P1_RPATCH.05-F-GPS-4R-1510281 11/03/2015 307","activated":"2017-11-16T22:43:13.558Z","flags":1,"native":1,"bps":4800,"parity":"N","stopbits":1,"cycle":1.00}]}
2017-11-16 17:43:14 1510872194.121964: {"class":"WATCH","enable":true,"json":false,"nmea":true,"raw":0,"scaled":false,"timing":false,"split24":false,"pps":false}
2017-11-16 17:43:14 1510872194.416150: $GPZDA,224313.00,16,11,2017,00,00*60
2017-11-16 17:43:14 1510872194.416313: $GPGGA,224313,3946.9579,N,08404.9841,W,2,12,0.80,302.49,M,-33.324,M,,*7F
2017-11-16 17:43:14 1510872194.416374: $GPRMC,224313,A,3946.9579,N,08404.9841,W,0.0000,0.000,161117,,*3D
2017-11-16 17:43:14 1510872194.416429: $GPGSA,A,3,1,10,11,12,14,18,26,22,25,31,32,138,1.6,0.8,1.3*3A
2017-11-16 17:43:15 1510872195.752889: $GPGSV,3,1,12,01,22,295,32,10,43,150,43,11,07,277,41,12,20,045,49*7E
2017-11-16 17:43:15 1510872195.753056: $GPGSV,3,2,12,14,68,339,46,18,14,145,36,26,06,183,29,22,23,312,42*76
2017-11-16 17:43:15 1510872195.753116: $GPGSV,3,3,12,25,40,084,48,31,60,229,47,32,67,039,48,138,38,213,45*41
2017-11-16 17:43:15 1510872195.866273: $GPZDA,224314.00,16,11,2017,00,00*67
2017-11-16 17:43:15 1510872195.866418: $GPGGA,224314,3946.9579,N,08404.9841,W,2,12,0.80,302.49,M,-33.324,M,,*78
2017-11-16 17:43:15 1510872195.866476: $GPRMC,224314,A,3946.9579,N,08404.9841,W,0.0000,0.000,161117,,*3A
2017-11-16 17:43:15 1510872195.866530: $GPGSA,A,3,1,10,11,12,14,18,26,22,25,31,32,138,1.6,0.8,1.3*3A
2017-11-16 17:43:16 1510872196.491601: $GPZDA,224315.00,16,11,2017,00,00*66
2017-11-16 17:43:16 1510872196.491766: $GPGGA,224315,3946.9579,N,08404.9841,W,2,12,0.80,302.49,M,-33.324,M,,*79
2017-11-16 17:43:16 1510872196.491827: $GPRMC,224315,A,3946.9579,N,08404.9841,W,0.0000,0.000,161117,,*3B
2017-11-16 17:43:16 1510872196.491883: $GPGSA,A,3,1,10,11,12,14,18,26,22,25,31,32,138,1.6,0.8,1.3*3A
2017-11-16 17:43:17 1510872197.393761: $GPZDA,224316.00,16,11,2017,00,00*65
2017-11-16 17:43:17 1510872197.393920: $GPGGA,224316,3946.9579,N,08404.9841,W,2,12,0.80,302.49,M,-33.324,M,,*7A
2017-11-16 17:43:17 1510872197.393981: $GPRMC,224316,A,3946.9579,N,08404.9841,W,0.0000,0.000,161117,,*38
2017-11-16 17:43:17 1510872197.394036: $GPGSA,A,3,1,10,11,12,14,18,26,22,25,31,32,138,1.6,0.8,1.3*3A
2017-11-16 17:43:18 1510872198.730694: $GPGSV,3,1,12,01,22,295,34,10,43,150,44,11,07,277,42,12,20,045,49*7C
2017-11-16 17:43:18 1510872198.730861: $GPGSV,3,2,12,14,68,339,46,18,14,145,36,26,06,183,29,22,23,312,42*76
2017-11-16 17:43:18 1510872198.730920: $GPGSV,3,3,12,25,40,084,49,31,60,229,48,32,67,039,49,138,38,213,44*4F
2017-11-16 17:43:18 1510872198.844013: $GPZDA,224317.00,16,11,2017,00,00*64
2017-11-16 17:43:18 1510872198.844167: $GPGGA,224317,3946.9579,N,08404.9841,W,2,12,0.80,302.49,M,-33.324,M,,*7B
2017-11-16 17:43:18 1510872198.844226: $GPRMC,224317,A,3946.9579,N,08404.9841,W,0.0000,0.000,161117,,*39
2017-11-16 17:43:18 1510872198.844281: $GPGSA,A,3,1,10,11,12,14,18,26,22,25,31,32,138,1.6,0.8,1.3*3A
2017-11-16 17:43:19 1510872199.394871: $GPZDA,224318.00,16,11,2017,00,00*6B
2017-11-16 17:43:19 1510872199.395061: $GPGGA,224318,3946.9579,N,08404.9841,W,2,12,0.80,302.49,M,-33.324,M,,*74
2017-11-16 17:43:19 1510872199.395130: $GPRMC,224318,A,3946.9579,N,08404.9841,W,0.0000,0.000,161117,,*36
2017-11-16 17:43:19 1510872199.395187: $GPGSA,A,3,1,10,11,12,14,18,26,22,25,31,32,138,1.6,0.8,1.3*3A
2017-11-16 17:43:20 1510872200.394564: $GPZDA,224319.00,16,11,2017,00,00*6A
2017-11-16 17:43:20 1510872200.403025: $GPGGA,224319,3946.9579,N,08404.9841,W,2,12,0.80,302.49,M,-33.324,M,,*75
2017-11-16 17:43:20 1510872200.403139: $GPRMC,224319,A,3946.9579,N,08404.9841,W,0.0000,0.000,161117,,*37
2017-11-16 17:43:20 1510872200.403197: $GPGSA,A,3,1,10,11,12,14,18,26,22,25,31,32,138,1.6,0.8,1.3*3A
2017-11-16 17:43:21 1510872201.729841: $GPGSV,3,1,12,01,22,295,33,10,43,150,44,11,07,277,42,12,20,045,50*73
2017-11-16 17:43:21 1510872201.730055: $GPGSV,3,2,12,14,68,339,46,18,14,145,36,26,06,183,29,22,23,312,42*76
2017-11-16 17:43:21 1510872201.730118: $GPGSV,3,3,12,25,40,084,49,31,60,229,48,32,67,039,49,138,38,213,44*4F
2017-11-16 17:43:21 1510872201.843471: $GPZDA,224320.00,16,11,2017,00,00*60
2017-11-16 17:43:21 1510872201.843632: $GPGGA,224320,3946.9579,N,08404.9841,W,2,12,0.80,302.49,M,-33.324,M,,*7F
2017-11-16 17:43:21 1510872201.843693: $GPRMC,224320,A,3946.9579,N,08404.9841,W,0.0000,0.000,161117,,*3D
2017-11-16 17:43:21 1510872201.843749: $GPGSA,A,3,1,10,11,12,14,18,26,22,25,31,32,138,1.6,0.8,1.3*3A
2017-11-16 17:43:22 1510872202.393038: $GPZDA,224321.00,16,11,2017,00,00*61
2017-11-16 17:43:22 1510872202.393199: $GPGGA,224321,3946.9579,N,08404.9841,W,2,12,0.80,302.49,M,-33.324,M,,*7E
2017-11-16 17:43:22 1510872202.393259: $GPRMC,224321,A,3946.9579,N,08404.9841,W,0.0000,0.000,161117,,*3C
2017-11-16 17:43:22 1510872202.393315: $GPGSA,A,3,1,10,11,12,14,18,26,22,25,31,32,138,1.6,0.8,1.3*3A
2017-11-16 17:43:23 1510872203.393893: $GPZDA,224322.00,16,11,2017,00,00*62
2017-11-16 17:43:23 1510872203.394052: $GPGGA,224322,3946.9579,N,08404.9841,W,2,12,0.80,302.49,M,-33.324,M,,*7D
2017-11-16 17:43:23 1510872203.394112: $GPRMC,224322,A,3946.9579,N,08404.9841,W,0.0000,0.000,161117,,*3F
2017-11-16 17:43:23 1510872203.394168: $GPGSA,A,3,1,10,11,12,14,18,26,22,25,31,32,138,1.6,0.8,1.3*3A
