2017-12-01 14:13:21 1512155601.107077: {"class":"VERSION","release":"3.16","rev":"3.16-4","proto_major":3,"proto_minor":11}
2017-12-01 14:13:21 1512155601.107505: {"class":"DEVICES","devices":[{"class":"DEVICE","path":"/dev/ttyUSB0","driver":"SiRF","subtype":"9\u0006GSD4e_4.1.2-P1_RPATCH.05-F-GPS-4R-1510281 11/03/2015 307","activated":"2017-12-01T19:13:20.701Z","flags":1,"native":1,"bps":4800,"parity":"N","stopbits":1,"cycle":1.00}]}
2017-12-01 14:13:21 1512155601.107633: {"class":"WATCH","enable":true,"json":false,"nmea":true,"raw":0,"scaled":false,"timing":false,"split24":false,"pps":false}
2017-12-01 14:13:21 1512155601.385205: $GPZDA,191322.00,01,12,2017,00,00*6A
2017-12-01 14:13:21 1512155601.385378: $GPGGA,191322,3946.9574,N,08404.9840,W,2,12,0.80,300.45,M,-33.324,M,,*72
2017-12-01 14:13:21 1512155601.385445: $GPRMC,191322,A,3946.9574,N,08404.9840,W,0.0000,0.000,011217,,*3B
2017-12-01 14:13:21 1512155601.385507: $GPGSA,A,3,10,14,18,21,24,32,8,12,15,20,27,138,2.0,0.8,1.5*37
2017-12-01 14:13:22 1512155602.720990: $GPGSV,3,1,12,10,65,325,50,14,25,250,42,18,73,082,43,21,33,180,44*72
2017-12-01 14:13:22 1512155602.721172: $GPGSV,3,2,12,24,48,064,48,32,43,261,45,08,07,297,32,12,06,111,28*71
2017-12-01 14:13:22 1512155602.721241: $GPGSV,3,3,12,15,14,064,25,20,12,115,33,27,09,264,30,138,38,213,47*47
2017-12-01 14:13:22 1512155602.834354: $GPZDA,191323.00,01,12,2017,00,00*6B
2017-12-01 14:13:22 1512155602.834491: $GPGGA,191323,3946.9574,N,08404.9840,W,2,12,0.80,300.45,M,-33.324,M,,*73
2017-12-01 14:13:22 1512155602.834557: $GPRMC,191323,A,3946.9574,N,08404.9840,W,0.0000,0.000,011217,,*3A
2017-12-01 14:13:22 1512155602.834619: $GPGSA,A,3,10,14,18,21,24,32,8,12,15,20,27,138,2.0,0.8,1.5*37
2017-12-01 14:13:23 1512155603.386435: $GPZDA,191324.00,01,12,2017,00,00*6C
2017-12-01 14:13:23 1512155603.386612: $GPGGA,191324,3946.9571,N,08404.9841,W,2,12,0.80,301.21,M,-33.324,M,,*73
2017-12-01 14:13:23 1512155603.386683: $GPRMC,191324,A,3946.9571,N,08404.9841,W,0.0000,0.000,011217,,*39
2017-12-01 14:13:23 1512155603.386748: $GPGSA,A,3,10,14,18,21,24,32,8,12,15,20,27,138,2.0,0.8,1.5*37
2017-12-01 14:13:24 1512155604.381197: $GPZDA,191325.00,01,12,2017,00,00*6D
2017-12-01 14:13:24 1512155604.381416: $GPGGA,191325,3946.9571,N,08404.9841,W,2,12,0.80,301.21,M,-33.324,M,,*72
2017-12-01 14:13:24 1512155604.381495: $GPRMC,191325,A,3946.9571,N,08404.9841,W,0.0000,0.000,011217,,*38
2017-12-01 14:13:24 1512155604.381557: $GPGSA,A,3,10,14,18,21,24,32,8,12,15,20,27,138,2.0,0.8,1.5*37
2017-12-01 14:13:25 1512155605.723080: $GPGSV,3,1,12,10,65,325,50,14,25,250,42,18,73,082,43,21,33,180,44*72
2017-12-01 14:13:25 1512155605.723266: $GPGSV,3,2,12,24,48,064,48,32,43,261,45,08,07,297,26,12,06,111,28*74
2017-12-01 14:13:25 1512155605.723334: $GPGSV,3,3,12,15,14,064,26,20,12,115,33,27,09,264,30,138,38,213,47*44
2017-12-01 14:13:25 1512155605.836434: $GPZDA,191326.00,01,12,2017,00,00*6E
2017-12-01 14:13:25 1512155605.836622: $GPGGA,191326,3946.9571,N,08404.9841,W,2,12,0.80,301.21,M,-33.324,M,,*71
2017-12-01 14:13:25 1512155605.836689: $GPRMC,191326,A,3946.9571,N,08404.9841,W,0.0000,0.000,011217,,*3B
2017-12-01 14:13:25 1512155605.836755: $GPGSA,A,3,10,14,18,21,24,32,8,12,15,20,27,138,2.0,0.8,1.5*37
2017-12-01 14:13:26 1512155606.462111: $GPZDA,191327.00,01,12,2017,00,00*6F
2017-12-01 14:13:26 1512155606.462286: $GPGGA,191327,3946.9571,N,08404.9841,W,2,12,0.80,301.21,M,-33.324,M,,*70
2017-12-01 14:13:26 1512155606.462353: $GPRMC,191327,A,3946.9571,N,08404.9841,W,0.0000,0.000,011217,,*3A
2017-12-01 14:13:26 1512155606.462414: $GPGSA,A,3,10,14,18,21,24,32,8,12,15,20,27,138,2.0,0.8,1.5*37
2017-12-01 14:13:27 1512155607.386576: $GPZDA,191328.00,01,12,2017,00,00*60
2017-12-01 14:13:27 1512155607.386757: $GPGGA,191328,3946.9571,N,08404.9841,W,2,12,0.80,301.21,M,-33.324,M,,*7F
2017-12-01 14:13:27 1512155607.386825: $GPRMC,191328,A,3946.9571,N,08404.9841,W,0.0000,0.000,011217,,*35
2017-12-01 14:13:27 1512155607.386888: $GPGSA,A,3,10,14,18,21,24,32,8,12,15,20,27,138,2.0,0.8,1.5*37
2017-12-01 14:13:28 1512155608.722174: $GPGSV,3,1,12,10,65,325,49,14,25,250,41,18,73,082,43,21,33,180,43*7E
2017-12-01 14:13:28 1512155608.722407: $GPGSV,3,2,12,24,48,064,47,32,43,261,45,08,07,297,25,12,06,111,24*74
2017-12-01 14:13:28 1512155608.722478: $GPGSV,3,3,12,15,14,064,21,20,12,115,33,27,09,264,30,138,38,213,47*43
2017-12-01 14:13:28 1512155608.835499: $GPZDA,191329.00,01,12,2017,00,00*61
2017-12-01 14:13:28 1512155608.835643: $GPGGA,191329,3946.9571,N,08404.9841,W,2,12,0.80,301.21,M,-33.324,M,,*7E
2017-12-01 14:13:28 1512155608.835717: $GPRMC,191329,A,3946.9571,N,08404.9841,W,0.0000,0.000,011217,,*34
2017-12-01 14:13:28 1512155608.835779: $GPGSA,A,3,10,14,18,21,24,32,8,12,15,20,27,138,2.0,0.8,1.5*37
2017-12-01 14:13:29 1512155609.385501: $GPZDA,191330.00,01,12,2017,00,00*69
2017-12-01 14:13:29 1512155609.385779: $GPGGA,191330,3946.9571,N,08404.9841,W,2,12,0.80,301.21,M,-33.324,M,,*76
2017-12-01 14:13:29 1512155609.385859: $GPRMC,191330,A,3946.9571,N,08404.9841,W,0.0000,0.000,011217,,*3C
2017-12-01 14:13:29 1512155609.385922: $GPGSA,A,3,10,14,18,21,24,32,8,12,15,20,27,138,2.0,0.8,1.5*37
2017-12-01 14:13:30 1512155610.386286: $GPZDA,191331.00,01,12,2017,00,00*68
2017-12-01 14:13:30 1512155610.386463: $GPGGA,191331,3946.9571,N,08404.9841,W,2,12,0.80,301.21,M,-33.324,M,,*77
2017-12-01 14:13:30 1512155610.386530: $GPRMC,191331,A,3946.9571,N,08404.9841,W,0.0000,0.000,011217,,*3D
2017-12-01 14:13:30 1512155610.386596: $GPGSA,A,3,10,14,18,21,24,32,8,12,15,20,27,138,2.0,0.8,1.5*37
2017-12-01 14:13:31 1512155611.722601: $GPGSV,3,1,12,10,65,325,50,14,25,250,41,18,73,082,42,21,33,180,43*77
2017-12-01 14:13:31 1512155611.722804: $GPGSV,3,2,12,24,48,064,48,32,43,261,45,08,07,297,25,12,06,111,23*7C
2017-12-01 14:13:31 1512155611.722872: $GPGSV,3,3,12,15,14,064,23,20,12,115,33,27,09,264,30,138,38,213,46*40
2017-12-01 14:13:31 1512155611.835984: $GPZDA,191332.00,01,12,2017,00,00*6B
2017-12-01 14:13:31 1512155611.836157: $GPGGA,191332,3946.9571,N,08404.9841,W,2,12,0.80,301.21,M,-33.324,M,,*74
2017-12-01 14:13:31 1512155611.836223: $GPRMC,191332,A,3946.9571,N,08404.9841,W,0.0000,0.000,011217,,*3E
2017-12-01 14:13:31 1512155611.836284: $GPGSA,A,3,10,14,18,21,24,32,8,12,15,20,27,138,2.0,0.8,1.5*37
2017-12-01 14:13:32 1512155612.385506: $GPZDA,191333.00,01,12,2017,00,00*6A
2017-12-01 14:13:32 1512155612.385682: $GPGGA,191333,3946.9571,N,08404.9841,W,2,12,0.80,301.21,M,-33.324,M,,*75
2017-12-01 14:13:32 1512155612.385749: $GPRMC,191333,A,3946.9571,N,08404.9841,W,0.0000,0.000,011217,,*3F
2017-12-01 14:13:32 1512155612.385810: $GPGSA,A,3,10,14,18,21,24,32,8,12,15,20,27,138,2.0,0.8,1.5*37
2017-12-01 14:13:33 1512155613.385146: $GPZDA,191334.00,01,12,2017,00,00*6D
2017-12-01 14:13:33 1512155613.385318: $GPGGA,191334,3946.9571,N,08404.9841,W,2,12,0.80,301.21,M,-33.324,M,,*72
2017-12-01 14:13:33 1512155613.385386: $GPRMC,191334,A,3946.9571,N,08404.9841,W,0.0000,0.000,011217,,*38
2017-12-01 14:13:33 1512155613.385446: $GPGSA,A,3,10,14,18,21,24,32,8,12,15,20,27,138,2.0,0.8,1.5*37
2017-12-01 14:13:34 1512155614.720895: $GPGSV,3,1,12,10,65,325,49,14,25,250,42,18,73,082,43,21,33,180,43*7D
2017-12-01 14:13:34 1512155614.721075: $GPGSV,3,2,12,24,48,064,48,32,43,261,45,08,07,297,18,12,06,111,22*73
2017-12-01 14:13:34 1512155614.721142: $GPGSV,3,3,12,15,14,064,23,20,12,115,33,27,09,264,30,138,38,213,47*41
2017-12-01 14:13:34 1512155614.834291: $GPZDA,191335.00,01,12,2017,00,00*6C
2017-12-01 14:13:34 1512155614.834439: $GPGGA,191335,3946.9571,N,08404.9841,W,2,12,0.80,301.21,M,-33.324,M,,*73
2017-12-01 14:13:34 1512155614.834505: $GPRMC,191335,A,3946.9571,N,08404.9841,W,0.0000,0.000,011217,,*39
2017-12-01 14:13:34 1512155614.834566: $GPGSA,A,3,10,14,18,21,24,32,8,12,15,20,27,138,2.0,0.8,1.5*37
2017-12-01 14:13:35 1512155615.387247: $GPZDA,191336.00,01,12,2017,00,00*6F
2017-12-01 14:13:35 1512155615.387417: $GPGGA,191336,3946.9571,N,08404.9841,W,2,12,0.80,301.21,M,-33.324,M,,*70
2017-12-01 14:13:35 1512155615.387483: $GPRMC,191336,A,3946.9571,N,08404.9841,W,0.0000,0.000,011217,,*3A
2017-12-01 14:13:35 1512155615.387545: $GPGSA,A,3,10,14,18,21,24,32,8,12,15,20,27,138,2.0,0.8,1.5*37
2017-12-01 14:13:36 1512155616.388345: $GPZDA,191337.00,01,12,2017,00,00*6E
2017-12-01 14:13:36 1512155616.388518: $GPGGA,191337,3946.9571,N,08404.9841,W,2,12,0.80,301.21,M,-33.324,M,,*71
2017-12-01 14:13:36 1512155616.388586: $GPRMC,191337,A,3946.9571,N,08404.9841,W,0.0000,0.000,011217,,*3B
2017-12-01 14:13:36 1512155616.388646: $GPGSA,A,3,10,14,18,21,24,32,8,12,15,20,27,138,2.0,0.8,1.5*37
2017-12-01 14:13:37 1512155617.716265: $GPGSV,3,1,12,10,65,325,50,14,25,250,42,18,73,082,43,21,33,180,43*75
2017-12-01 14:13:37 1512155617.716453: $GPGSV,3,2,12,24,48,064,48,32,43,261,45,08,07,297,21,12,06,111,16*7E
2017-12-01 14:13:37 1512155617.716521: $GPGSV,3,3,12,15,14,064,29,20,12,115,32,27,09,264,30,138,38,213,46*4B
2017-12-01 14:13:37 1512155617.829738: $GPZDA,191338.00,01,12,2017,00,00*61
2017-12-01 14:13:37 1512155617.829912: $GPGGA,191338,3946.9571,N,08404.9841,W,2,12,0.80,301.21,M,-33.324,M,,*7E
2017-12-01 14:13:37 1512155617.829980: $GPRMC,191338,A,3946.9571,N,08404.9841,W,0.0000,0.000,011217,,*34
2017-12-01 14:13:37 1512155617.830040: $GPGSA,A,3,10,14,18,21,24,32,8,12,15,20,27,138,2.0,0.8,1.5*37
2017-12-01 14:13:38 1512155618.379233: $GPZDA,191339.00,01,12,2017,00,00*60
2017-12-01 14:13:38 1512155618.379404: $GPGGA,191339,3946.9571,N,08404.9841,W,2,12,0.80,301.21,M,-33.324,M,,*7F
2017-12-01 14:13:38 1512155618.379471: $GPRMC,191339,A,3946.9571,N,08404.9841,W,0.0000,0.000,011217,,*35
2017-12-01 14:13:38 1512155618.379532: $GPGSA,A,3,10,14,18,21,24,32,8,12,15,20,27,138,2.0,0.8,1.5*37
2017-12-01 14:13:39 1512155619.386444: $GPZDA,191340.00,01,12,2017,00,00*6E
2017-12-01 14:13:39 1512155619.386614: $GPGGA,191340,3946.9571,N,08404.9841,W,2,12,0.80,301.21,M,-33.324,M,,*71
2017-12-01 14:13:39 1512155619.386681: $GPRMC,191340,A,3946.9571,N,08404.9841,W,0.0000,0.000,011217,,*3B
2017-12-01 14:13:39 1512155619.386742: $GPGSA,A,3,10,14,18,21,24,32,8,12,15,20,27,138,2.0,0.8,1.5*37
2017-12-01 14:13:40 1512155620.723368: $GPGSV,3,1,12,10,65,325,50,14,25,250,41,18,73,082,43,21,33,180,44*71
2017-12-01 14:13:40 1512155620.723570: $GPGSV,3,2,12,24,48,064,48,32,43,261,46,08,07,297,15,12,06,111,17*7B
2017-12-01 14:13:40 1512155620.723638: $GPGSV,3,3,12,15,14,064,28,20,12,115,32,27,09,264,30,138,38,213,46*4A
2017-12-01 14:13:40 1512155620.836901: $GPZDA,191341.00,01,12,2017,00,00*6F
2017-12-01 14:13:40 1512155620.837048: $GPGGA,191341,3946.9571,N,08404.9841,W,2,12,0.80,301.21,M,-33.324,M,,*70
2017-12-01 14:13:40 1512155620.837114: $GPRMC,191341,A,3946.9571,N,08404.9841,W,0.0000,0.000,011217,,*3A
2017-12-01 14:13:40 1512155620.837174: $GPGSA,A,3,10,14,18,21,24,32,8,12,15,20,27,138,2.0,0.8,1.5*37
