2017-12-29 10:59:30 1514563170.176580: {"class":"VERSION","release":"3.16","rev":"3.16-4","proto_major":3,"proto_minor":11}
2017-12-29 10:59:30 1514563170.176929: {"class":"DEVICES","devices":[{"class":"DEVICE","path":"/dev/ttyUSB0","driver":"SiRF","subtype":"9\u0006GSD4e_4.1.2-P1_RPATCH.05-F-GPS-4R-1510281 11/03/2015 307","activated":"2017-12-29T15:59:30.176Z","flags":1,"native":1,"bps":4800,"parity":"N","stopbits":1,"cycle":1.00}]}
2017-12-29 10:59:30 1514563170.177047: {"class":"WATCH","enable":true,"json":false,"nmea":true,"raw":0,"scaled":false,"timing":false,"split24":false,"pps":false}
2017-12-29 10:59:30 1514563170.353304: $GPZDA,155931.00,29,12,2017,00,00*60
2017-12-29 10:59:30 1514563170.353471: $GPGGA,155931,3946.9586,N,08404.9854,W,2,10,1.00,290.13,M,-33.324,M,,*7A
2017-12-29 10:59:30 1514563170.353539: $GPRMC,155931,A,3946.9586,N,08404.9854,W,0.0000,0.000,291217,,*39
2017-12-29 10:59:30 1514563170.353600: $GPGSA,A,3,10,13,15,18,20,21,24,27,32,138,,,1.7,1.0,1.3*00
2017-12-29 10:59:31 1514563171.690316: $GPGSV,3,1,11,08,03,328,06,10,35,295,43,13,14,046,38,15,44,051,50*7A
2017-12-29 10:59:31 1514563171.690481: $GPGSV,3,2,11,18,66,322,44,20,40,088,50,21,71,199,46,24,46,121,50*74
2017-12-29 10:59:31 1514563171.690551: $GPGSV,3,3,11,27,19,297,40,32,15,234,30,138,38,213,44*7E
2017-12-29 10:59:31 1514563171.803658: $GPZDA,155932.00,29,12,2017,00,00*63
2017-12-29 10:59:31 1514563171.803802: $GPGGA,155932,3946.9586,N,08404.9854,W,2,11,1.00,290.13,M,-33.324,M,,*78
2017-12-29 10:59:31 1514563171.803871: $GPRMC,155932,A,3946.9586,N,08404.9854,W,0.0000,0.000,291217,,*3A
2017-12-29 10:59:31 1514563171.803931: $GPGSA,A,3,8,10,13,15,18,20,21,24,27,32,138,,1.7,1.0,1.3*38
2017-12-29 10:59:32 1514563172.352105: $GPZDA,155933.00,29,12,2017,00,00*62
2017-12-29 10:59:32 1514563172.352285: $GPGGA,155933,3946.9582,N,08404.9855,W,2,11,1.00,290.90,M,-33.324,M,,*77
2017-12-29 10:59:32 1514563172.352352: $GPRMC,155933,A,3946.9582,N,08404.9855,W,0.0000,0.000,291217,,*3E
2017-12-29 10:59:32 1514563172.352413: $GPGSA,A,3,8,10,13,15,18,20,21,24,27,32,138,,1.7,1.0,1.3*38
2017-12-29 10:59:33 1514563173.350501: $GPZDA,155934.00,29,12,2017,00,00*65
2017-12-29 10:59:33 1514563173.350662: $GPGGA,155934,3946.9582,N,08404.9855,W,2,11,1.00,290.90,M,-33.324,M,,*70
2017-12-29 10:59:33 1514563173.350728: $GPRMC,155934,A,3946.9582,N,08404.9855,W,0.0000,0.000,291217,,*39
2017-12-29 10:59:33 1514563173.350790: $GPGSA,A,3,8,10,13,15,18,20,21,24,27,32,138,,1.7,1.0,1.3*38
2017-12-29 10:59:34 1514563174.688729: $GPGSV,3,1,11,08,03,328,16,10,35,295,43,13,14,046,38,15,44,051,50*7B
2017-12-29 10:59:34 1514563174.688890: $GPGSV,3,2,11,18,66,322,44,20,40,088,50,21,71,199,46,24,46,121,50*74
2017-12-29 10:59:34 1514563174.688956: $GPGSV,3,3,11,27,19,297,40,32,15,234,30,138,38,213,44*7E
2017-12-29 10:59:34 1514563174.802117: $GPZDA,155935.00,29,12,2017,00,00*64
2017-12-29 10:59:34 1514563174.802277: $GPGGA,155935,3946.9582,N,08404.9848,W,2,11,1.00,290.98,M,-33.324,M,,*75
2017-12-29 10:59:34 1514563174.802345: $GPRMC,155935,A,3946.9582,N,08404.9848,W,0.0000,0.000,291217,,*34
2017-12-29 10:59:34 1514563174.802405: $GPGSA,A,3,8,10,13,15,18,20,21,24,27,32,138,,1.7,1.0,1.3*38
2017-12-29 10:59:35 1514563175.427426: $GPZDA,155936.00,29,12,2017,00,00*67
2017-12-29 10:59:35 1514563175.427595: $GPGGA,155936,3946.9582,N,08404.9848,W,2,11,1.00,290.98,M,-33.324,M,,*76
2017-12-29 10:59:35 1514563175.427662: $GPRMC,155936,A,3946.9582,N,08404.9848,W,0.0000,0.000,291217,,*37
2017-12-29 10:59:35 1514563175.427722: $GPGSA,A,3,8,10,13,15,18,20,21,24,27,32,138,,1.7,1.0,1.3*38
2017-12-29 10:59:36 1514563176.352216: $GPZDA,155937.00,29,12,2017,00,00*66
2017-12-29 10:59:36 1514563176.352402: $GPGGA,155937,3946.9582,N,08404.9848,W,2,11,1.00,290.98,M,-33.324,M,,*77
2017-12-29 10:59:36 1514563176.352468: $GPRMC,155937,A,3946.9582,N,08404.9848,W,0.0000,0.000,291217,,*36
2017-12-29 10:59:36 1514563176.352530: $GPGSA,A,3,8,10,13,15,18,20,21,24,27,32,138,,1.7,1.0,1.3*38
2017-12-29 10:59:37 1514563177.689050: $GPGSV,3,1,11,08,03,328,17,10,35,295,42,13,14,046,38,15,44,051,50*7B
2017-12-29 10:59:37 1514563177.689272: $GPGSV,3,2,11,18,66,322,44,20,40,088,50,21,71,199,46,24,46,121,49*7C
2017-12-29 10:59:37 1514563177.689341: $GPGSV,3,3,11,27,19,297,40,32,15,234,30,138,38,213,46*7C
2017-12-29 10:59:37 1514563177.802456: $GPZDA,155938.00,29,12,2017,00,00*69
2017-12-29 10:59:37 1514563177.802587: $GPGGA,155938,3946.9582,N,08404.9848,W,2,11,1.00,290.98,M,-33.324,M,,*78
2017-12-29 10:59:37 1514563177.802651: $GPRMC,155938,A,3946.9582,N,08404.9848,W,0.0000,0.000,291217,,*39
2017-12-29 10:59:37 1514563177.802711: $GPGSA,A,3,8,10,13,15,18,20,21,24,27,32,138,,1.7,1.0,1.3*38
2017-12-29 10:59:38 1514563178.353309: $GPZDA,155939.00,29,12,2017,00,00*68
2017-12-29 10:59:38 1514563178.353482: $GPGGA,155939,3946.9582,N,08404.9848,W,2,11,1.00,290.98,M,-33.324,M,,*79
2017-12-29 10:59:38 1514563178.353548: $GPRMC,155939,A,3946.9582,N,08404.9848,W,0.0000,0.000,291217,,*38
2017-12-29 10:59:38 1514563178.353609: $GPGSA,A,3,8,10,13,15,18,20,21,24,27,32,138,,1.7,1.0,1.3*38
2017-12-29 10:59:39 1514563179.352935: $GPZDA,155940.00,29,12,2017,00,00*66
2017-12-29 10:59:39 1514563179.353099: $GPGGA,155940,3946.9586,N,08404.9848,W,2,11,1.00,291.62,M,-33.324,M,,*77
2017-12-29 10:59:39 1514563179.353165: $GPRMC,155940,A,3946.9586,N,08404.9848,W,0.0000,0.000,291217,,*32
2017-12-29 10:59:39 1514563179.353225: $GPGSA,A,3,8,10,13,15,18,20,21,24,27,32,138,,1.7,1.0,1.3*38
2017-12-29 10:59:40 1514563180.688161: $GPGSV,3,1,11,08,03,328,18,10,35,295,42,13,14,046,38,15,44,051,50*74
2017-12-29 10:59:40 1514563180.688340: $GPGSV,3,2,11,18,66,322,44,20,40,088,50,21,71,199,46,24,46,121,49*7C
2017-12-29 10:59:40 1514563180.688408: $GPGSV,3,3,11,27,19,297,39,32,15,234,28,138,38,213,45*78
2017-12-29 10:59:40 1514563180.800233: $GPZDA,155941.00,29,12,2017,00,00*67
2017-12-29 10:59:40 1514563180.800356: $GPGGA,155941,3946.9586,N,08404.9848,W,2,11,1.00,291.62,M,-33.324,M,,*76
2017-12-29 10:59:40 1514563180.800423: $GPRMC,155941,A,3946.9586,N,08404.9848,W,0.0000,0.000,291217,,*33
2017-12-29 10:59:40 1514563180.800485: $GPGSA,A,3,8,10,13,15,18,20,21,24,27,32,138,,1.7,1.0,1.3*38
2017-12-29 10:59:41 1514563181.352446: $GPZDA,155942.00,29,12,2017,00,00*64
2017-12-29 10:59:41 1514563181.352627: $GPGGA,155942,3946.9586,N,08404.9848,W,2,11,1.00,291.62,M,-33.324,M,,*75
2017-12-29 10:59:41 1514563181.352721: $GPRMC,155942,A,3946.9586,N,08404.9848,W,0.0000,0.000,291217,,*30
2017-12-29 10:59:41 1514563181.352787: $GPGSA,A,3,8,10,13,15,18,20,21,24,27,32,138,,1.7,1.0,1.3*38
2017-12-29 10:59:42 1514563182.353303: $GPZDA,155943.00,29,12,2017,00,00*65
2017-12-29 10:59:42 1514563182.353483: $GPGGA,155943,3946.9586,N,08404.9848,W,2,11,1.00,291.62,M,-33.324,M,,*74
2017-12-29 10:59:42 1514563182.353554: $GPRMC,155943,A,3946.9586,N,08404.9848,W,0.0000,0.000,291217,,*31
2017-12-29 10:59:42 1514563182.353617: $GPGSA,A,3,8,10,13,15,18,20,21,24,27,32,138,,1.7,1.0,1.3*38
2017-12-29 10:59:43 1514563183.690277: $GPGSV,3,1,11,08,03,328,22,10,35,295,42,13,14,046,38,15,44,051,50*7D
2017-12-29 10:59:43 1514563183.690440: $GPGSV,3,2,11,18,66,322,44,20,40,088,50,21,71,199,46,24,46,121,50*74
2017-12-29 10:59:43 1514563183.690508: $GPGSV,3,3,11,27,19,297,38,32,15,234,25,138,38,213,44*75
2017-12-29 10:59:43 1514563183.803599: $GPZDA,155944.00,29,12,2017,00,00*62
2017-12-29 10:59:43 1514563183.803721: $GPGGA,155944,3946.9586,N,08404.9848,W,2,11,1.00,291.62,M,-33.324,M,,*73
2017-12-29 10:59:43 1514563183.803787: $GPRMC,155944,A,3946.9586,N,08404.9848,W,0.0000,0.000,291217,,*36
2017-12-29 10:59:43 1514563183.803849: $GPGSA,A,3,8,10,13,15,18,20,21,24,27,32,138,,1.7,1.0,1.3*38
2017-12-29 10:59:44 1514563184.350768: $GPZDA,155945.00,29,12,2017,00,00*63
2017-12-29 10:59:44 1514563184.350946: $GPGGA,155945,3946.9582,N,08404.9848,W,2,11,1.00,290.98,M,-33.324,M,,*72
2017-12-29 10:59:44 1514563184.351015: $GPRMC,155945,A,3946.9582,N,08404.9848,W,0.0000,0.000,291217,,*33
2017-12-29 10:59:44 1514563184.351140: $GPGSA,A,3,8,10,13,15,18,20,21,24,27,32,138,,1.7,1.0,1.3*38
2017-12-29 10:59:46 1514563186.466143: $GPZDA,155946.00,29,12,2017,00,00*60
2017-12-29 10:59:46 1514563186.467925: $GPGGA,155946,3946.9582,N,08404.9848,W,2,11,1.00,290.98,M,-33.324,M,,*71
2017-12-29 10:59:46 1514563186.468028: $GPRMC,155946,A,3946.9582,N,08404.9848,W,0.0000,0.000,291217,,*30
2017-12-29 10:59:46 1514563186.468092: $GPGSA,A,3,8,10,13,15,18,20,21,24,27,32,138,,1.7,1.0,1.3*38
2017-12-29 10:59:48 1514563188.593830: $GPGSV,3,1,11,08,03,328,26,10,36,295,42,13,14,046,38,15,44,051,50*7A
2017-12-29 10:59:48 1514563188.594009: $GPGSV,3,2,11,18,66,324,44,20,40,088,50,21,71,199,47,24,46,121,50*73
2017-12-29 10:59:48 1514563188.594076: $GPGSV,3,3,11,27,19,297,37,32,15,234,26,138,38,213,45*78
2017-12-29 10:59:48 1514563188.707118: $GPZDA,155947.00,29,12,2017,00,00*61
2017-12-29 10:59:48 1514563188.707253: $GPGGA,155947,3946.9582,N,08404.9848,W,2,11,1.00,290.98,M,-33.324,M,,*70
2017-12-29 10:59:48 1514563188.707318: $GPRMC,155947,A,3946.9582,N,08404.9848,W,0.0000,0.000,291217,,*31
2017-12-29 10:59:48 1514563188.707377: $GPGSA,A,3,8,10,13,15,18,20,21,24,27,32,138,,1.7,1.0,1.3*38
2017-12-29 10:59:49 1514563189.159186: $GPZDA,155948.00,29,12,2017,00,00*6E
2017-12-29 10:59:49 1514563189.159328: $GPGGA,155948,3946.9582,N,08404.9848,W,2,11,1.00,290.98,M,-33.324,M,,*7F
2017-12-29 10:59:49 1514563189.159393: $GPRMC,155948,A,3946.9582,N,08404.9848,W,0.0000,0.000,291217,,*3E
2017-12-29 10:59:49 1514563189.159452: $GPGSA,A,3,8,10,13,15,18,20,21,24,27,32,138,,1.7,1.0,1.3*38
2017-12-29 10:59:49 1514563189.610105: $GPZDA,155949.00,29,12,2017,00,00*6F
2017-12-29 10:59:49 1514563189.610276: $GPGGA,155949,3946.9582,N,08404.9855,W,2,11,1.00,290.90,M,-33.324,M,,*7A
2017-12-29 10:59:49 1514563189.610343: $GPRMC,155949,A,3946.9582,N,08404.9855,W,0.0000,0.000,291217,,*33
2017-12-29 10:59:49 1514563189.610403: $GPGSA,A,3,8,10,13,15,18,20,21,24,27,32,138,,1.7,1.0,1.3*38
