2017-11-16 15:48:32 1510865312.595799: {"class":"VERSION","release":"3.17","rev":"3.17","proto_major":3,"proto_minor":12}
2017-11-16 15:48:32 1510865312.596692: {"class":"DEVICES","devices":[{"class":"DEVICE","path":"/dev/ttyUSB0","driver":"SiRF","subtype":"9\u0006GSD4e_4.1.2-P1_RPATCH.05-F-GPS-4R-1510281 11/03/2015 307","activated":"2017-11-16T20:48:32.508Z","flags":1,"native":1,"bps":4800,"parity":"N","stopbits":1,"cycle":1.00}]}
2017-11-16 15:48:32 1510865312.596835: {"class":"WATCH","enable":true,"json":false,"nmea":true,"raw":0,"scaled":false,"timing":false,"split24":false,"pps":false}
2017-11-16 15:48:33 1510865313.360265: $GPZDA,204832.00,16,11,2017,00,00*6A
2017-11-16 15:48:33 1510865313.360465: $GPGGA,204832,3946.9576,N,08404.9852,W,2,12,1.20,309.56,M,-33.324,M,,*76
2017-11-16 15:48:33 1510865313.360528: $GPRMC,204832,A,3946.9576,N,08404.9852,W,0.0000,0.000,161117,,*3A
2017-11-16 15:48:33 1510865313.360585: $GPGSA,A,3,11,10,14,31,18,25,21,24,15,32,12,138,1.6,1.2,1.3*05
2017-11-16 15:48:34 1510865314.703502: $GPGSV,3,1,12,11,03,322,30,10,78,351,50,14,36,262,44,31,08,204,33*7D
2017-11-16 15:48:34 1510865314.703678: $GPGSV,3,2,12,18,63,111,48,25,10,135,13,21,19,178,41,24,37,051,48*73
2017-11-16 15:48:34 1510865314.703741: $GPGSV,3,3,12,15,04,072,25,32,53,277,45,12,15,099,42,138,38,213,44*4C
2017-11-16 15:48:34 1510865314.816883: $GPZDA,204833.00,16,11,2017,00,00*6B
2017-11-16 15:48:34 1510865314.817042: $GPGGA,204833,3946.9576,N,08404.9852,W,2,11,1.20,309.56,M,-33.324,M,,*74
2017-11-16 15:48:34 1510865314.817101: $GPRMC,204833,A,3946.9576,N,08404.9852,W,0.0000,0.000,161117,,*3B
2017-11-16 15:48:34 1510865314.817158: $GPGSA,A,3,11,10,14,31,18,21,24,15,32,12,138,,1.6,1.2,1.3*02
2017-11-16 15:48:35 1510865315.383975: $GPZDA,204834.00,16,11,2017,00,00*6C
2017-11-16 15:48:35 1510865315.384139: $GPGGA,204834,3946.9576,N,08404.9852,W,2,11,1.20,309.56,M,-33.324,M,,*73
2017-11-16 15:48:35 1510865315.384200: $GPRMC,204834,A,3946.9576,N,08404.9852,W,0.0000,0.000,161117,,*3C
2017-11-16 15:48:35 1510865315.384258: $GPGSA,A,3,11,10,14,31,18,21,24,15,32,12,138,,1.6,1.2,1.3*02
2017-11-16 15:48:36 1510865316.384281: $GPZDA,204835.00,16,11,2017,00,00*6D
2017-11-16 15:48:36 1510865316.384447: $GPGGA,204835,3946.9576,N,08404.9852,W,2,11,1.20,309.56,M,-33.324,M,,*72
2017-11-16 15:48:36 1510865316.384512: $GPRMC,204835,A,3946.9576,N,08404.9852,W,0.0000,0.000,161117,,*3D
2017-11-16 15:48:36 1510865316.384569: $GPGSA,A,3,11,10,14,31,18,21,24,15,32,12,138,,1.6,1.2,1.3*02
2017-11-16 15:48:37 1510865317.723872: $GPGSV,3,1,12,11,03,322,29,10,78,351,50,14,36,262,43,31,08,204,33*72
2017-11-16 15:48:37 1510865317.724046: $GPGSV,3,2,12,18,63,111,48,25,10,135,12,21,19,178,42,24,37,051,49*70
2017-11-16 15:48:37 1510865317.724107: $GPGSV,3,3,12,15,04,072,25,32,53,277,45,12,15,099,42,138,38,213,44*4C
2017-11-16 15:48:37 1510865317.837142: $GPZDA,204836.00,16,11,2017,00,00*6E
2017-11-16 15:48:37 1510865317.837293: $GPGGA,204836,3946.9576,N,08404.9852,W,2,12,1.20,309.56,M,-33.324,M,,*72
2017-11-16 15:48:37 1510865317.837356: $GPRMC,204836,A,3946.9576,N,08404.9852,W,0.0000,0.000,161117,,*3E
2017-11-16 15:48:37 1510865317.837413: $GPGSA,A,3,11,10,14,31,18,25,21,24,15,32,12,138,1.6,1.2,1.3*05
2017-11-16 15:48:38 1510865318.370558: $GPZDA,204837.00,16,11,2017,00,00*6F
2017-11-16 15:48:38 1510865318.370727: $GPGGA,204837,3946.9576,N,08404.9852,W,2,12,1.20,309.56,M,-33.324,M,,*73
2017-11-16 15:48:38 1510865318.370793: $GPRMC,204837,A,3946.9576,N,08404.9852,W,0.0000,0.000,161117,,*3F
2017-11-16 15:48:38 1510865318.370851: $GPGSA,A,3,11,10,14,31,18,25,21,24,15,32,12,138,1.6,1.2,1.3*05
2017-11-16 15:48:39 1510865319.361447: $GPZDA,204838.00,16,11,2017,00,00*60
2017-11-16 15:48:39 1510865319.361598: $GPGGA,204838,3946.9576,N,08404.9852,W,2,12,1.20,309.56,M,-33.324,M,,*7C
2017-11-16 15:48:39 1510865319.361659: $GPRMC,204838,A,3946.9576,N,08404.9852,W,0.0000,0.000,161117,,*30
2017-11-16 15:48:39 1510865319.361715: $GPGSA,A,3,11,10,14,31,18,25,21,24,15,32,12,138,1.6,1.2,1.3*05
2017-11-16 15:48:40 1510865320.703444: $GPGSV,3,1,12,11,03,322,22,10,78,351,50,14,36,262,44,31,08,204,33*7E
2017-11-16 15:48:40 1510865320.703640: $GPGSV,3,2,12,18,63,111,48,25,10,135,15,21,19,178,42,24,37,051,49*77
2017-11-16 15:48:40 1510865320.703703: $GPGSV,3,3,12,15,04,072,24,32,53,277,45,12,15,099,42,138,38,213,44*4D
2017-11-16 15:48:40 1510865320.815782: $GPZDA,204839.00,16,11,2017,00,00*61
2017-11-16 15:48:40 1510865320.815950: $GPGGA,204839,3946.9576,N,08404.9852,W,2,12,1.20,309.56,M,-33.324,M,,*7D
2017-11-16 15:48:40 1510865320.816013: $GPRMC,204839,A,3946.9576,N,08404.9852,W,0.0000,0.000,161117,,*31
2017-11-16 15:48:40 1510865320.816070: $GPGSA,A,3,11,10,14,31,18,25,21,24,15,32,12,138,1.6,1.2,1.3*05
2017-11-16 15:48:41 1510865321.442131: $GPZDA,204840.00,16,11,2017,00,00*6F
2017-11-16 15:48:41 1510865321.442290: $GPGGA,204840,3946.9576,N,08404.9852,W,2,12,1.20,309.56,M,-33.324,M,,*73
2017-11-16 15:48:41 1510865321.442352: $GPRMC,204840,A,3946.9576,N,08404.9852,W,0.0000,0.000,161117,,*3F
2017-11-16 15:48:41 1510865321.442409: $GPGSA,A,3,11,10,14,31,18,25,21,24,15,32,12,138,1.6,1.2,1.3*05
2017-11-16 15:48:42 1510865322.367018: $GPZDA,204841.00,16,11,2017,00,00*6E
2017-11-16 15:48:42 1510865322.367180: $GPGGA,204841,3946.9576,N,08404.9852,W,2,12,1.20,309.56,M,-33.324,M,,*72
2017-11-16 15:48:42 1510865322.367242: $GPRMC,204841,A,3946.9576,N,08404.9852,W,0.0000,0.000,161117,,*3E
2017-11-16 15:48:42 1510865322.367298: $GPGSA,A,3,11,10,14,31,18,25,21,24,15,32,12,138,1.6,1.2,1.3*05
