2018-01-12 03:25:33 1515745533.474251: {"class":"VERSION","release":"3.16","rev":"3.16-4","proto_major":3,"proto_minor":11}
2018-01-12 03:25:33 1515745533.474658: {"class":"DEVICES","devices":[{"class":"DEVICE","path":"/dev/ttyUSB0","driver":"SiRF","subtype":"9\u0006GSD4e_4.1.2-P1_RPATCH.05-F-GPS-4R-1510281 11/03/2015 307","activated":"2018-01-12T08:25:33.406Z","flags":1,"native":1,"bps":4800,"parity":"N","stopbits":1,"cycle":1.00}]}
2018-01-12 03:25:33 1515745533.474779: {"class":"WATCH","enable":true,"json":false,"nmea":true,"raw":0,"scaled":false,"timing":false,"split24":false,"pps":false}
2018-01-12 03:25:34 1515745534.703196: $GPGSV,3,1,12,02,63,280,47,05,23,195,43,06,67,024,48,12,49,295,51*71
2018-01-12 03:25:34 1515745534.703383: $GPGSV,3,2,12,17,34,102,46,19,52,088,40,25,16,319,43,09,12,091,24*78
2018-01-12 03:25:34 1515745534.703451: $GPGSV,3,3,12,23,08,058,21,24,05,249,26,04,35,258,00,138,38,213,38*42
2018-01-12 03:25:34 1515745534.816604: $GPZDA,082535.00,12,01,2018,00,00*66
2018-01-12 03:25:34 1515745534.816772: $GPGGA,082535,3946.9561,N,08404.9859,W,2,11,0.80,294.08,M,-33.324,M,,*7B
2018-01-12 03:25:34 1515745534.816836: $GPRMC,082535,A,3946.9561,N,08404.9859,W,0.2422,93.794,120118,,*0D
2018-01-12 03:25:34 1515745534.816899: $GPGSA,A,3,2,5,6,12,17,19,25,9,23,24,138,,2.4,0.8,2.1*00
2018-01-12 03:25:35 1515745535.442256: $GPZDA,082536.00,12,01,2018,00,00*65
2018-01-12 03:25:35 1515745535.442436: $GPGGA,082536,3946.9564,N,08404.9858,W,2,11,0.80,293.32,M,-33.324,M,,*72
2018-01-12 03:25:35 1515745535.442504: $GPRMC,082536,A,3946.9564,N,08404.9858,W,0.2422,93.794,120118,,*0A
2018-01-12 03:25:35 1515745535.442565: $GPGSA,A,3,2,5,6,12,17,19,25,9,23,24,138,,2.4,0.8,2.1*00
2018-01-12 03:25:36 1515745536.367895: $GPZDA,082537.00,12,01,2018,00,00*64
2018-01-12 03:25:36 1515745536.368068: $GPGGA,082537,3946.9564,N,08404.9858,W,2,11,0.80,293.32,M,-33.324,M,,*73
2018-01-12 03:25:36 1515745536.368135: $GPRMC,082537,A,3946.9564,N,08404.9858,W,0.0000,0.000,120118,,*3D
2018-01-12 03:25:36 1515745536.368198: $GPGSA,A,3,2,5,6,12,17,19,25,9,23,24,138,,2.4,0.8,2.1*00
2018-01-12 03:25:37 1515745537.704856: $GPGSV,3,1,12,02,63,280,47,05,23,195,43,06,67,024,48,12,49,295,51*71
2018-01-12 03:25:37 1515745537.705043: $GPGSV,3,2,12,17,34,102,46,19,52,088,40,25,16,319,42,09,12,091,00*7F
2018-01-12 03:25:37 1515745537.705113: $GPGSV,3,3,12,23,08,058,20,24,05,249,23,04,35,258,00,138,38,213,38*46
2018-01-12 03:25:37 1515745537.818210: $GPZDA,082538.00,12,01,2018,00,00*6B
2018-01-12 03:25:37 1515745537.818378: $GPGGA,082538,3946.9564,N,08404.9858,W,2,10,0.80,293.32,M,-33.324,M,,*7D
2018-01-12 03:25:37 1515745537.818446: $GPRMC,082538,A,3946.9564,N,08404.9858,W,0.0000,0.000,120118,,*32
2018-01-12 03:25:37 1515745537.818510: $GPGSA,A,3,2,5,6,12,17,19,25,23,24,138,,,2.4,0.8,2.1*39
2018-01-12 03:25:38 1515745538.370321: $GPZDA,082539.00,12,01,2018,00,00*6A
2018-01-12 03:25:38 1515745538.370501: $GPGGA,082539,3946.9564,N,08404.9858,W,2,10,0.80,293.32,M,-33.324,M,,*7C
2018-01-12 03:25:38 1515745538.370573: $GPRMC,082539,A,3946.9564,N,08404.9858,W,0.0000,0.000,120118,,*33
2018-01-12 03:25:38 1515745538.370639: $GPGSA,A,3,2,5,6,12,17,19,25,23,24,138,,,2.4,0.8,2.1*39
2018-01-12 03:25:39 1515745539.371113: $GPZDA,082540.00,12,01,2018,00,00*64
2018-01-12 03:25:39 1515745539.371303: $GPGGA,082540,3946.9564,N,08404.9858,W,2,10,0.80,293.32,M,-33.324,M,,*72
2018-01-12 03:25:39 1515745539.371377: $GPRMC,082540,A,3946.9564,N,08404.9858,W,0.0000,0.000,120118,,*3D
2018-01-12 03:25:39 1515745539.371442: $GPGSA,A,3,2,5,6,12,17,19,25,23,24,138,,,2.4,0.8,2.1*39
2018-01-12 03:25:39 1515745539.371504: $GPGBS,082540,3.00,M,3.62,M,11.97,M*0F
2018-01-12 03:25:40 1515745540.706518: $GPGSV,3,1,12,02,63,280,47,05,23,195,43,06,67,024,48,12,49,295,51*71
2018-01-12 03:25:40 1515745540.706719: $GPGSV,3,2,12,17,34,102,46,19,52,088,40,25,16,319,42,09,12,091,15*7B
2018-01-12 03:25:40 1515745540.706788: $GPGSV,3,3,12,23,08,058,21,24,05,249,22,04,35,258,00,138,38,213,40*49
2018-01-12 03:25:40 1515745540.819792: $GPZDA,082541.00,12,01,2018,00,00*65
2018-01-12 03:25:40 1515745540.820023: $GPGGA,082541,3946.9564,N,08404.9858,W,2,10,0.80,293.32,M,-33.324,M,,*73
2018-01-12 03:25:40 1515745540.820097: $GPRMC,082541,A,3946.9564,N,08404.9858,W,0.0000,0.000,120118,,*3C
2018-01-12 03:25:40 1515745540.820161: $GPGSA,A,3,2,5,6,12,17,19,25,23,24,138,,,2.4,0.8,2.1*39
2018-01-12 03:25:41 1515745541.368448: $GPZDA,082542.00,12,01,2018,00,00*66
2018-01-12 03:25:41 1515745541.368619: $GPGGA,082542,3946.9564,N,08404.9858,W,2,10,0.80,293.32,M,-33.324,M,,*70
2018-01-12 03:25:41 1515745541.368686: $GPRMC,082542,A,3946.9564,N,08404.9858,W,0.0000,0.000,120118,,*3F
2018-01-12 03:25:41 1515745541.368749: $GPGSA,A,3,2,5,6,12,17,19,25,23,24,138,,,2.4,0.8,2.1*39
2018-01-12 03:25:42 1515745542.369078: $GPZDA,082543.00,12,01,2018,00,00*67
2018-01-12 03:25:42 1515745542.369263: $GPGGA,082543,3946.9564,N,08404.9858,W,2,10,0.80,293.32,M,-33.324,M,,*71
2018-01-12 03:25:42 1515745542.369332: $GPRMC,082543,A,3946.9564,N,08404.9858,W,0.0000,0.000,120118,,*3E
2018-01-12 03:25:42 1515745542.369396: $GPGSA,A,3,2,5,6,12,17,19,25,23,24,138,,,2.4,0.8,2.1*39
2018-01-12 03:25:43 1515745543.706413: $GPGSV,3,1,12,02,63,280,47,05,23,195,43,06,67,024,48,12,49,295,51*71
2018-01-12 03:25:43 1515745543.706604: $GPGSV,3,2,12,17,34,102,46,19,52,088,39,25,16,319,42,09,12,091,00*71
2018-01-12 03:25:43 1515745543.706671: $GPGSV,3,3,12,23,08,058,21,24,05,249,23,04,35,258,00,138,38,213,34*4B
2018-01-12 03:25:43 1515745543.818314: $GPZDA,082544.00,12,01,2018,00,00*60
2018-01-12 03:25:43 1515745543.818486: $GPGGA,082544,3946.9564,N,08404.9858,W,2,10,0.80,293.32,M,-33.324,M,,*76
2018-01-12 03:25:43 1515745543.818551: $GPRMC,082544,A,3946.9564,N,08404.9858,W,0.0000,0.000,120118,,*39
2018-01-12 03:25:43 1515745543.818614: $GPGSA,A,3,2,5,6,12,17,19,25,23,24,138,,,2.4,0.8,2.1*39
2018-01-12 03:25:44 1515745544.371845: $GPZDA,082545.00,12,01,2018,00,00*61
2018-01-12 03:25:44 1515745544.372018: $GPGGA,082545,3946.9564,N,08404.9858,W,2,10,0.80,293.32,M,-33.324,M,,*77
2018-01-12 03:25:44 1515745544.372086: $GPRMC,082545,A,3946.9564,N,08404.9858,W,0.0000,0.000,120118,,*38
2018-01-12 03:25:44 1515745544.372151: $GPGSA,A,3,2,5,6,12,17,19,25,23,24,138,,,2.4,0.8,2.1*39
2018-01-12 03:25:45 1515745545.371280: $GPZDA,082546.00,12,01,2018,00,00*62
2018-01-12 03:25:45 1515745545.371453: $GPGGA,082546,3946.9564,N,08404.9858,W,2,10,0.80,293.32,M,-33.324,M,,*74
2018-01-12 03:25:45 1515745545.371519: $GPRMC,082546,A,3946.9564,N,08404.9858,W,0.0000,0.000,120118,,*3B
2018-01-12 03:25:45 1515745545.371581: $GPGSA,A,3,2,5,6,12,17,19,25,23,24,138,,,2.4,0.8,2.1*39
2018-01-12 03:25:46 1515745546.707875: $GPGSV,3,1,12,02,63,280,47,05,23,195,43,06,67,024,48,12,49,295,51*71
2018-01-12 03:25:46 1515745546.708056: $GPGSV,3,2,12,17,34,102,47,19,52,088,40,25,16,319,42,09,12,091,00*7E
2018-01-12 03:25:46 1515745546.708128: $GPGSV,3,3,12,23,08,058,21,24,05,249,24,04,35,258,00,138,38,213,37*4F
2018-01-12 03:25:46 1515745546.821184: $GPZDA,082547.00,12,01,2018,00,00*63
2018-01-12 03:25:46 1515745546.821368: $GPGGA,082547,3946.9564,N,08404.9858,W,2,10,0.80,293.32,M,-33.324,M,,*75
2018-01-12 03:25:46 1515745546.821436: $GPRMC,082547,A,3946.9564,N,08404.9858,W,0.0000,0.000,120118,,*3A
2018-01-12 03:25:46 1515745546.821499: $GPGSA,A,3,2,5,6,12,17,19,25,23,24,138,,,2.4,0.8,2.1*39
2018-01-12 03:25:47 1515745547.371066: $GPZDA,082548.00,12,01,2018,00,00*6C
2018-01-12 03:25:47 1515745547.371248: $GPGGA,082548,3946.9568,N,08404.9857,W,2,10,0.80,292.55,M,-33.324,M,,*79
2018-01-12 03:25:47 1515745547.371316: $GPRMC,082548,A,3946.9568,N,08404.9857,W,0.0000,0.000,120118,,*36
2018-01-12 03:25:47 1515745547.371377: $GPGSA,A,3,2,5,6,12,17,19,25,23,24,138,,,2.4,0.8,2.1*39
2018-01-12 03:25:48 1515745548.367777: $GPZDA,082549.00,12,01,2018,00,00*6D
2018-01-12 03:25:48 1515745548.367959: $GPGGA,082549,3946.9568,N,08404.9857,W,2,10,0.80,292.55,M,-33.324,M,,*78
2018-01-12 03:25:48 1515745548.368026: $GPRMC,082549,A,3946.9568,N,08404.9857,W,0.0000,0.000,120118,,*37
2018-01-12 03:25:48 1515745548.368088: $GPGSA,A,3,2,5,6,12,17,19,25,23,24,138,,,2.4,0.8,2.1*39
2018-01-12 03:25:49 1515745549.708568: $GPGSV,3,1,12,02,63,280,47,05,23,195,43,06,67,024,48,12,49,295,51*71
2018-01-12 03:25:49 1515745549.708783: $GPGSV,3,2,12,17,34,102,47,19,52,088,40,25,16,319,42,09,12,091,01*7F
2018-01-12 03:25:49 1515745549.708865: $GPGSV,3,3,12,23,08,058,21,24,05,249,24,04,35,258,00,138,38,213,39*41
2018-01-12 03:25:49 1515745549.821890: $GPZDA,082550.00,12,01,2018,00,00*65
2018-01-12 03:25:49 1515745549.822065: $GPGGA,082550,3946.9571,N,08404.9863,W,2,10,0.80,291.71,M,-33.324,M,,*7A
2018-01-12 03:25:49 1515745549.822133: $GPRMC,082550,A,3946.9571,N,08404.9863,W,0.0000,0.000,120118,,*30
2018-01-12 03:25:49 1515745549.822198: $GPGSA,A,3,2,5,6,12,17,19,25,23,24,138,,,2.4,0.8,2.1*39
2018-01-12 03:25:50 1515745550.448778: $GPZDA,082551.00,12,01,2018,00,00*64
2018-01-12 03:25:50 1515745550.448967: $GPGGA,082551,3946.9571,N,08404.9863,W,2,10,0.80,291.71,M,-33.324,M,,*7B
2018-01-12 03:25:50 1515745550.449035: $GPRMC,082551,A,3946.9571,N,08404.9863,W,0.0000,0.000,120118,,*31
2018-01-12 03:25:50 1515745550.449100: $GPGSA,A,3,2,5,6,12,17,19,25,23,24,138,,,2.4,0.8,2.1*39
2018-01-12 03:25:51 1515745551.374523: $GPZDA,082552.00,12,01,2018,00,00*67
2018-01-12 03:25:51 1515745551.374789: $GPGGA,082552,3946.9571,N,08404.9863,W,2,10,0.80,291.71,M,-33.324,M,,*78
2018-01-12 03:25:51 1515745551.374885: $GPRMC,082552,A,3946.9571,N,08404.9863,W,0.0000,0.000,120118,,*32
2018-01-12 03:25:51 1515745551.374950: $GPGSA,A,3,2,5,6,12,17,19,25,23,24,138,,,2.4,0.8,2.1*39
2018-01-12 03:25:52 1515745552.711396: $GPGSV,3,1,12,02,63,280,47,05,23,195,43,06,67,024,48,12,49,295,51*71
2018-01-12 03:25:52 1515745552.711580: $GPGSV,3,2,12,17,34,102,47,19,52,088,39,25,16,319,42,09,12,091,20*72
2018-01-12 03:25:52 1515745552.711646: $GPGSV,3,3,12,23,08,058,20,24,05,249,25,04,35,258,00,138,38,213,38*40
2018-01-12 03:25:52 1515745552.824801: $GPZDA,082553.00,12,01,2018,00,00*66
2018-01-12 03:25:52 1515745552.824950: $GPGGA,082553,3946.9571,N,08404.9863,W,2,10,0.80,291.71,M,-33.324,M,,*79
2018-01-12 03:25:52 1515745552.825016: $GPRMC,082553,A,3946.9571,N,08404.9863,W,0.0000,0.000,120118,,*33
2018-01-12 03:25:52 1515745552.825077: $GPGSA,A,3,2,5,6,12,17,19,25,23,24,138,,,2.4,0.8,2.1*39
2018-01-12 03:25:53 1515745553.370924: $GPZDA,082554.00,12,01,2018,00,00*61
2018-01-12 03:25:53 1515745553.371097: $GPGGA,082554,3946.9571,N,08404.9863,W,2,10,0.80,291.71,M,-33.324,M,,*7E
2018-01-12 03:25:53 1515745553.371164: $GPRMC,082554,A,3946.9571,N,08404.9863,W,0.0000,0.000,120118,,*34
2018-01-12 03:25:53 1515745553.371225: $GPGSA,A,3,2,5,6,12,17,19,25,23,24,138,,,2.4,0.8,2.1*39
