2017-12-14 12:26:47 1513272407.106479: {"class":"VERSION","release":"3.16","rev":"3.16-4","proto_major":3,"proto_minor":11}
2017-12-14 12:26:47 1513272407.106938: {"class":"DEVICES","devices":[{"class":"DEVICE","path":"/dev/ttyUSB0","driver":"SiRF","subtype":"9\u0006GSD4e_4.1.2-P1_RPATCH.05-F-GPS-4R-1510281 11/03/2015 307","activated":"2017-12-14T17:26:46.291Z","flags":1,"native":1,"bps":4800,"parity":"N","stopbits":1,"cycle":1.00}]}
2017-12-14 12:26:47 1513272407.107054: {"class":"WATCH","enable":true,"json":false,"nmea":true,"raw":0,"scaled":false,"timing":false,"split24":false,"pps":false}
2017-12-14 12:26:47 1513272407.504578: $GPGSV,3,1,12,24,52,105,29,21,59,186,16,10,44,304,22,15,34,054,18*7C
2017-12-14 12:26:47 1513272407.504730: $GPGSV,3,2,12,18,73,346,20,20,31,099,26,08,07,319,10,32,24,240,10*74
2017-12-14 12:26:47 1513272407.504800: $GPGSV,3,3,12,27,18,286,00,14,06,234,00,13,05,049,00,120,07,103,00*40
2017-12-14 12:26:47 1513272407.618331: $GPZDA,172648.00,14,12,2017,00,00*6A
2017-12-14 12:26:47 1513272407.618501: $GPGGA,172648,3946.9638,N,08404.9312,W,1,07,1.40,336.20,M,-33.324,M,,*7D
2017-12-14 12:26:47 1513272407.618567: $GPRMC,172648,A,3946.9638,N,08404.9312,W,0.0000,0.000,141217,,*3C
2017-12-14 12:26:47 1513272407.618628: $GPGSA,A,3,24,10,15,18,20,8,32,,,,,,6.6,1.4,6.2*02
2017-12-14 12:26:48 1513272408.170611: $GPZDA,172649.00,14,12,2017,00,00*6B
2017-12-14 12:26:48 1513272408.170784: $GPGGA,172649,3946.9638,N,08404.9312,W,1,07,1.40,336.20,M,-33.324,M,,*7C
2017-12-14 12:26:48 1513272408.170851: $GPRMC,172649,A,3946.9638,N,08404.9312,W,0.3423,184.197,141217,,*39
2017-12-14 12:26:48 1513272408.170915: $GPGSA,A,3,24,10,15,18,20,8,32,,,,,,6.6,1.4,6.2*02
2017-12-14 12:26:49 1513272409.169093: $GPZDA,172650.00,14,12,2017,00,00*63
2017-12-14 12:26:49 1513272409.169267: $GPGGA,172650,3946.9638,N,08404.9312,W,1,07,1.40,336.20,M,-33.324,M,,*74
2017-12-14 12:26:49 1513272409.169335: $GPRMC,172650,A,3946.9638,N,08404.9312,W,0.1867,180.000,141217,,*34
2017-12-14 12:26:49 1513272409.169396: $GPGSA,A,3,24,10,15,18,20,8,32,,,,,,6.6,1.4,6.2*02
2017-12-14 12:26:50 1513272410.505235: $GPGSV,3,1,12,24,52,105,29,21,59,186,19,10,44,304,22,15,34,054,18*73
2017-12-14 12:26:50 1513272410.505408: $GPGSV,3,2,12,18,73,346,20,20,31,099,25,08,07,319,10,32,24,240,10*77
2017-12-14 12:26:50 1513272410.505473: $GPGSV,3,3,12,27,18,286,00,14,06,234,00,13,05,049,00,120,07,103,00*40
2017-12-14 12:26:50 1513272410.618558: $GPZDA,172651.00,14,12,2017,00,00*62
2017-12-14 12:26:50 1513272410.618691: $GPGGA,172651,3946.9638,N,08404.9312,W,1,08,1.40,336.20,M,-33.324,M,,*7A
2017-12-14 12:26:50 1513272410.618778: $GPRMC,172651,A,3946.9638,N,08404.9312,W,0.3423,184.197,141217,,*30
2017-12-14 12:26:50 1513272410.618841: $GPGSA,A,3,24,21,10,15,18,20,8,32,,,,,6.6,1.4,6.2*01
2017-12-14 12:26:51 1513272411.152575: $GPZDA,172652.00,14,12,2017,00,00*61
2017-12-14 12:26:51 1513272411.152847: $GPGGA,172652,3946.9639,N,08404.9319,W,1,08,1.40,336.12,M,-33.324,M,,*72
2017-12-14 12:26:51 1513272411.152936: $GPRMC,172652,A,3946.9639,N,08404.9319,W,0.2422,273.795,141217,,*36
2017-12-14 12:26:51 1513272411.153031: $GPGSA,A,3,24,21,10,15,18,20,8,32,,,,,6.6,1.4,6.2*01
2017-12-14 12:26:52 1513272412.168813: $GPZDA,172653.00,14,12,2017,00,00*60
2017-12-14 12:26:52 1513272412.168999: $GPGGA,172653,3946.9635,N,08404.9319,W,1,08,1.40,335.48,M,-33.324,M,,*73
2017-12-14 12:26:52 1513272412.169066: $GPRMC,172653,A,3946.9635,N,08404.9319,W,0.1567,189.201,141217,,*36
2017-12-14 12:26:52 1513272412.169126: $GPGSA,A,3,24,21,10,15,18,20,8,32,,,,,6.6,1.4,6.2*01
2017-12-14 12:26:53 1513272413.505830: $GPGSV,3,1,12,24,52,105,29,21,59,186,20,10,44,304,22,15,34,054,18*79
2017-12-14 12:26:53 1513272413.506040: $GPGSV,3,2,12,18,73,346,19,20,31,099,25,08,07,319,10,32,24,240,10*7D
2017-12-14 12:26:53 1513272413.506120: $GPGSV,3,3,12,27,18,286,00,14,06,234,00,13,05,049,00,120,07,103,00*40
2017-12-14 12:26:53 1513272413.619211: $GPZDA,172654.00,14,12,2017,00,00*67
2017-12-14 12:26:53 1513272413.619405: $GPGGA,172654,3946.9631,N,08404.9320,W,1,08,1.40,336.24,M,-33.324,M,,*73
2017-12-14 12:26:53 1513272413.619527: $GPRMC,172654,A,3946.9631,N,08404.9320,W,0.7246,164.668,141217,,*35
2017-12-14 12:26:53 1513272413.619590: $GPGSA,A,3,24,21,10,15,18,20,8,32,,,,,6.6,1.4,6.2*01
2017-12-14 12:26:54 1513272414.153186: $GPZDA,172655.00,14,12,2017,00,00*66
2017-12-14 12:26:54 1513272414.153359: $GPGGA,172655,3946.9631,N,08404.9320,W,1,08,1.40,336.24,M,-33.324,M,,*72
2017-12-14 12:26:54 1513272414.153425: $GPRMC,172655,A,3946.9631,N,08404.9320,W,0.4179,148.779,141217,,*37
2017-12-14 12:26:54 1513272414.153486: $GPGSA,A,3,24,21,10,15,18,20,8,32,,,,,6.6,1.4,6.2*01
2017-12-14 12:26:55 1513272415.168168: $GPZDA,172656.00,14,12,2017,00,00*65
2017-12-14 12:26:55 1513272415.168338: $GPGGA,172656,3946.9631,N,08404.9320,W,1,08,1.40,336.24,M,-33.324,M,,*71
2017-12-14 12:26:55 1513272415.168405: $GPRMC,172656,A,3946.9631,N,08404.9320,W,0.7246,164.668,141217,,*37
2017-12-14 12:26:55 1513272415.168465: $GPGSA,A,3,24,21,10,15,18,20,8,32,,,,,6.6,1.4,6.2*01
2017-12-14 12:26:56 1513272416.505674: $GPGSV,3,1,12,24,52,105,29,21,59,186,20,10,44,304,22,15,34,054,18*79
2017-12-14 12:26:56 1513272416.505897: $GPGSV,3,2,12,18,73,346,19,20,31,099,25,08,07,319,10,32,24,240,11*7C
2017-12-14 12:26:56 1513272416.505978: $GPGSV,3,3,12,13,05,049,05,27,18,286,00,14,06,234,00,120,07,103,00*45
2017-12-14 12:26:56 1513272416.619039: $GPZDA,172657.00,14,12,2017,00,00*64
2017-12-14 12:26:56 1513272416.619192: $GPGGA,172657,3946.9627,N,08404.9320,W,1,08,1.40,335.60,M,-33.324,M,,*74
2017-12-14 12:26:56 1513272416.619257: $GPRMC,172657,A,3946.9627,N,08404.9320,W,0.5912,129.173,141217,,*3D
2017-12-14 12:26:56 1513272416.619317: $GPGSA,A,3,24,21,10,15,18,20,8,32,,,,,6.6,1.4,6.2*01
2017-12-14 12:26:57 1513272417.169172: $GPZDA,172658.00,14,12,2017,00,00*6B
2017-12-14 12:26:57 1513272417.169320: $GPGGA,172658,3946.9624,N,08404.9321,W,1,08,1.40,336.37,M,-33.324,M,,*78
2017-12-14 12:26:57 1513272417.169384: $GPRMC,172658,A,3946.9624,N,08404.9321,W,0.4844,93.795,141217,,*0D
2017-12-14 12:26:57 1513272417.169444: $GPGSA,A,3,24,21,10,15,18,20,8,32,,,,,6.6,1.4,6.2*01
2017-12-14 12:26:58 1513272418.151289: $GPZDA,172659.00,14,12,2017,00,00*6A
2017-12-14 12:26:58 1513272418.151457: $GPGGA,172659,3946.9623,N,08404.9314,W,1,08,1.40,336.45,M,-33.324,M,,*7D
2017-12-14 12:26:58 1513272418.151523: $GPRMC,172659,A,3946.9623,N,08404.9314,W,0.4844,93.795,141217,,*0D
2017-12-14 12:26:58 1513272418.151583: $GPGSA,A,3,24,21,10,15,18,20,8,32,,,,,6.6,1.4,6.2*01
2017-12-14 12:26:59 1513272419.487537: $GPGSV,3,1,12,24,52,105,29,21,59,186,20,10,44,304,23,15,34,054,19*79
2017-12-14 12:26:59 1513272419.487736: $GPGSV,3,2,12,18,73,346,18,20,31,099,24,08,07,319,08,32,24,240,11*75
2017-12-14 12:26:59 1513272419.487804: $GPGSV,3,3,12,27,18,286,00,14,06,234,00,13,05,049,00,120,07,103,00*40
2017-12-14 12:26:59 1513272419.600996: $GPZDA,172700.00,14,12,2017,00,00*67
2017-12-14 12:26:59 1513272419.601170: $GPGGA,172700,3946.9623,N,08404.9314,W,1,07,1.40,336.45,M,-33.324,M,,*7F
2017-12-14 12:26:59 1513272419.601237: $GPRMC,172700,A,3946.9623,N,08404.9314,W,0.2422,93.795,141217,,*0A
2017-12-14 12:26:59 1513272419.601298: $GPGSA,A,3,24,21,10,15,18,20,32,,,,,,6.6,1.4,6.2*39
2017-12-14 12:27:00 1513272420.152349: $GPZDA,172701.00,14,12,2017,00,00*66
2017-12-14 12:27:00 1513272420.152524: $GPGGA,172701,3946.9623,N,08404.9314,W,1,07,1.40,336.45,M,-33.324,M,,*7E
2017-12-14 12:27:00 1513272420.152591: $GPRMC,172701,A,3946.9623,N,08404.9314,W,0.4207,39.347,141217,,*07
2017-12-14 12:27:00 1513272420.152652: $GPGSA,A,3,24,21,10,15,18,20,32,,,,,,6.6,1.4,6.2*39
2017-12-14 12:27:01 1513272421.153036: $GPZDA,172702.00,14,12,2017,00,00*65
2017-12-14 12:27:01 1513272421.153229: $GPGGA,172702,3946.9623,N,08404.9314,W,1,07,1.40,336.45,M,-33.324,M,,*7D
2017-12-14 12:27:01 1513272421.153301: $GPRMC,172702,A,3946.9623,N,08404.9314,W,0.5230,76.444,141217,,*0E
2017-12-14 12:27:01 1513272421.153427: $GPGSA,A,3,24,21,10,15,18,20,32,,,,,,6.6,1.4,6.2*39
2017-12-14 12:27:02 1513272422.487403: $GPGSV,3,1,12,24,52,105,29,21,59,186,20,10,44,304,23,15,34,054,19*79
2017-12-14 12:27:02 1513272422.487648: $GPGSV,3,2,12,18,73,346,18,20,31,099,24,08,07,319,04,32,24,240,12*7A
2017-12-14 12:27:02 1513272422.487752: $GPGSV,3,3,12,27,18,286,00,14,06,234,00,13,05,049,00,120,07,103,00*40
2017-12-14 12:27:02 1513272422.601045: $GPZDA,172703.00,14,12,2017,00,00*64
2017-12-14 12:27:02 1513272422.601213: $GPGGA,172703,3946.9623,N,08404.9314,W,1,07,1.40,336.45,M,-33.324,M,,*7C
2017-12-14 12:27:02 1513272422.601280: $GPRMC,172703,A,3946.9623,N,08404.9314,W,0.4207,39.347,141217,,*05
2017-12-14 12:27:02 1513272422.601340: $GPGSA,A,3,24,21,10,15,18,20,32,,,,,,6.6,1.4,6.2*39
2017-12-14 12:27:03 1513272423.153216: $GPZDA,172704.00,14,12,2017,00,00*63
2017-12-14 12:27:03 1513272423.153401: $GPGGA,172704,3946.9624,N,08404.9321,W,1,07,1.40,336.37,M,-33.324,M,,*7F
2017-12-14 12:27:03 1513272423.153468: $GPRMC,172704,A,3946.9624,N,08404.9321,W,0.3423,4.197,141217,,*35
2017-12-14 12:27:03 1513272423.153528: $GPGSA,A,3,24,21,10,15,18,20,32,,,,,,6.6,1.4,6.2*39
2017-12-14 12:27:04 1513272424.152299: $GPZDA,172705.00,14,12,2017,00,00*62
2017-12-14 12:27:04 1513272424.152468: $GPGGA,172705,3946.9620,N,08404.9321,W,1,07,1.40,335.73,M,-33.324,M,,*79
2017-12-14 12:27:04 1513272424.152534: $GPRMC,172705,A,3946.9620,N,08404.9321,W,0.0000,0.000,141217,,*3D
2017-12-14 12:27:04 1513272424.152595: $GPGSA,A,3,24,21,10,15,18,20,32,,,,,,6.6,1.4,6.2*39
2017-12-14 12:27:05 1513272425.488009: $GPGSV,3,1,12,24,52,105,30,21,59,186,21,10,44,304,23,15,34,054,19*70
2017-12-14 12:27:05 1513272425.488164: $GPGSV,3,2,12,18,73,346,17,20,31,099,24,08,07,319,04,32,24,240,11*76
2017-12-14 12:27:05 1513272425.488229: $GPGSV,3,3,12,27,18,286,00,14,06,234,00,13,05,049,00,120,07,103,00*40
2017-12-14 12:27:05 1513272425.601510: $GPZDA,172706.00,14,12,2017,00,00*61
2017-12-14 12:27:05 1513272425.601733: $GPGGA,172706,3946.9620,N,08404.9321,W,1,07,1.40,335.73,M,-33.324,M,,*7A
2017-12-14 12:27:05 1513272425.601801: $GPRMC,172706,A,3946.9620,N,08404.9321,W,0.4844,273.795,141217,,*3F
2017-12-14 12:27:05 1513272425.601900: $GPGSA,A,3,24,21,10,15,18,20,32,,,,,,6.6,1.4,6.2*39
2017-12-14 12:27:06 1513272426.151832: $GPZDA,172707.00,14,12,2017,00,00*60
2017-12-14 12:27:06 1513272426.152007: $GPGGA,172707,3946.9620,N,08404.9328,W,1,07,1.40,335.65,M,-33.324,M,,*75
2017-12-14 12:27:06 1513272426.152131: $GPRMC,172707,A,3946.9620,N,08404.9328,W,0.8905,237.384,141217,,*3B
2017-12-14 12:27:06 1513272426.152195: $GPGSA,A,3,24,21,10,15,18,20,32,,,,,,6.6,1.4,6.2*39
2017-12-14 12:27:07 1513272427.161898: $GPZDA,172708.00,14,12,2017,00,00*6F
2017-12-14 12:27:07 1513272427.162190: $GPGGA,172708,3946.9616,N,08404.9328,W,1,07,1.40,335.01,M,-33.324,M,,*7D
2017-12-14 12:27:07 1513272427.162264: $GPRMC,172708,A,3946.9616,N,08404.9328,W,0.4207,219.347,141217,,*37
2017-12-14 12:27:07 1513272427.162327: $GPGSA,A,3,24,21,10,15,18,20,32,,,,,,6.6,1.4,6.2*39
