2017-12-01 15:34:41 1512160481.315618: {"class":"VERSION","release":"3.16","rev":"3.16-4","proto_major":3,"proto_minor":11}
2017-12-01 15:34:41 1512160481.316048: {"class":"DEVICES","devices":[{"class":"DEVICE","path":"/dev/ttyUSB0","driver":"SiRF","subtype":"9\u0006GSD4e_4.1.2-P1_RPATCH.05-F-GPS-4R-1510281 11/03/2015 307","activated":"2017-12-01T20:34:41.292Z","flags":1,"native":1,"bps":4800,"parity":"N","stopbits":1,"cycle":1.00}]}
2017-12-01 15:34:41 1512160481.316168: {"class":"WATCH","enable":true,"json":false,"nmea":true,"raw":0,"scaled":false,"timing":false,"split24":false,"pps":false}
2017-12-01 15:34:41 1512160481.405786: $GPZDA,203442.00,01,12,2017,00,00*63
2017-12-01 15:34:41 1512160481.405955: $GPGGA,203442,3946.9565,N,08404.9823,W,2,11,0.80,307.19,M,-33.324,M,,*73
2017-12-01 15:34:41 1512160481.406020: $GPRMC,203442,A,3946.9565,N,08404.9823,W,0.0000,0.000,011217,,*37
2017-12-01 15:34:41 1512160481.406081: $GPGSA,A,3,1,10,11,12,14,18,24,25,31,32,138,,2.0,0.8,1.5*3B
2017-12-01 15:34:42 1512160482.737231: $GPGSV,3,1,11,01,11,321,37,10,74,123,47,11,10,306,36,12,24,076,43*7D
2017-12-01 15:34:42 1512160482.737410: $GPGSV,3,2,11,14,52,285,42,18,42,132,45,24,18,045,42,25,26,118,46*7C
2017-12-01 15:34:42 1512160482.737478: $GPGSV,3,3,11,31,30,210,46,32,66,318,49,138,38,213,46*7C
2017-12-01 15:34:42 1512160482.850546: $GPZDA,203443.00,01,12,2017,00,00*62
2017-12-01 15:34:42 1512160482.850685: $GPGGA,203443,3946.9565,N,08404.9823,W,2,11,0.80,307.19,M,-33.324,M,,*72
2017-12-01 15:34:42 1512160482.850752: $GPRMC,203443,A,3946.9565,N,08404.9823,W,0.0000,0.000,011217,,*36
2017-12-01 15:34:42 1512160482.850812: $GPGSA,A,3,1,10,11,12,14,18,24,25,31,32,138,,2.0,0.8,1.5*3B
2017-12-01 15:34:43 1512160483.401494: $GPZDA,203444.00,01,12,2017,00,00*65
2017-12-01 15:34:43 1512160483.401692: $GPGGA,203444,3946.9565,N,08404.9823,W,2,11,0.80,307.19,M,-33.324,M,,*75
2017-12-01 15:34:43 1512160483.401761: $GPRMC,203444,A,3946.9565,N,08404.9823,W,0.0000,0.000,011217,,*31
2017-12-01 15:34:43 1512160483.401821: $GPGSA,A,3,1,10,11,12,14,18,24,25,31,32,138,,2.0,0.8,1.5*3B
2017-12-01 15:34:44 1512160484.401463: $GPZDA,203445.00,01,12,2017,00,00*64
2017-12-01 15:34:44 1512160484.401652: $GPGGA,203445,3946.9565,N,08404.9823,W,2,11,0.80,307.19,M,-33.324,M,,*74
2017-12-01 15:34:44 1512160484.401721: $GPRMC,203445,A,3946.9565,N,08404.9823,W,0.0000,0.000,011217,,*30
2017-12-01 15:34:44 1512160484.401784: $GPGSA,A,3,1,10,11,12,14,18,24,25,31,32,138,,2.0,0.8,1.5*3B
2017-12-01 15:34:45 1512160485.756812: $GPGSV,3,1,11,01,11,321,36,10,74,123,47,11,10,306,35,12,24,076,42*7E
2017-12-01 15:34:45 1512160485.756998: $GPGSV,3,2,11,14,52,285,42,18,42,132,45,24,18,045,42,25,26,118,46*7C
2017-12-01 15:34:45 1512160485.757068: $GPGSV,3,3,11,31,30,210,46,32,66,318,49,138,38,213,45*7F
2017-12-01 15:34:45 1512160485.870248: $GPZDA,203446.00,01,12,2017,00,00*67
2017-12-01 15:34:45 1512160485.870416: $GPGGA,203446,3946.9565,N,08404.9823,W,2,11,0.80,307.19,M,-33.324,M,,*77
2017-12-01 15:34:45 1512160485.870485: $GPRMC,203446,A,3946.9565,N,08404.9823,W,0.0000,0.000,011217,,*33
2017-12-01 15:34:45 1512160485.870548: $GPGSA,A,3,1,10,11,12,14,18,24,25,31,32,138,,2.0,0.8,1.5*3B
2017-12-01 15:34:46 1512160486.421069: $GPZDA,203447.00,01,12,2017,00,00*66
2017-12-01 15:34:46 1512160486.421255: $GPGGA,203447,3946.9565,N,08404.9823,W,2,11,0.80,307.19,M,-33.324,M,,*76
2017-12-01 15:34:46 1512160486.421323: $GPRMC,203447,A,3946.9565,N,08404.9823,W,0.0000,0.000,011217,,*32
2017-12-01 15:34:46 1512160486.421437: $GPGSA,A,3,1,10,11,12,14,18,24,25,31,32,138,,2.0,0.8,1.5*3B
2017-12-01 15:34:47 1512160487.422738: $GPZDA,203448.00,01,12,2017,00,00*69
2017-12-01 15:34:47 1512160487.422915: $GPGGA,203448,3946.9565,N,08404.9823,W,2,11,0.80,307.19,M,-33.324,M,,*79
2017-12-01 15:34:47 1512160487.422985: $GPRMC,203448,A,3946.9565,N,08404.9823,W,0.0000,0.000,011217,,*3D
2017-12-01 15:34:47 1512160487.423046: $GPGSA,A,3,1,10,11,12,14,18,24,25,31,32,138,,2.0,0.8,1.5*3B
2017-12-01 15:34:48 1512160488.758450: $GPGSV,3,1,11,01,11,321,36,10,74,123,47,11,10,306,35,12,24,076,42*7E
2017-12-01 15:34:48 1512160488.758695: $GPGSV,3,2,11,14,52,285,42,18,42,132,46,24,18,045,42,25,26,118,45*7C
2017-12-01 15:34:48 1512160488.758765: $GPGSV,3,3,11,31,30,210,47,32,66,318,49,138,38,213,46*7D
2017-12-01 15:34:48 1512160488.871856: $GPZDA,203449.00,01,12,2017,00,00*68
2017-12-01 15:34:48 1512160488.871999: $GPGGA,203449,3946.9565,N,08404.9823,W,2,11,0.80,307.19,M,-33.324,M,,*78
2017-12-01 15:34:48 1512160488.872065: $GPRMC,203449,A,3946.9565,N,08404.9823,W,0.0000,0.000,011217,,*3C
2017-12-01 15:34:48 1512160488.872127: $GPGSA,A,3,1,10,11,12,14,18,24,25,31,32,138,,2.0,0.8,1.5*3B
2017-12-01 15:34:49 1512160489.421563: $GPZDA,203450.00,01,12,2017,00,00*60
2017-12-01 15:34:49 1512160489.421842: $GPGGA,203450,3946.9565,N,08404.9823,W,2,11,0.80,307.19,M,-33.324,M,,*70
2017-12-01 15:34:49 1512160489.421919: $GPRMC,203450,A,3946.9565,N,08404.9823,W,0.0000,0.000,011217,,*34
2017-12-01 15:34:49 1512160489.422025: $GPGSA,A,3,1,10,11,12,14,18,24,25,31,32,138,,2.0,0.8,1.5*3B
2017-12-01 15:34:50 1512160490.404802: $GPZDA,203451.00,01,12,2017,00,00*61
2017-12-01 15:34:50 1512160490.404977: $GPGGA,203451,3946.9565,N,08404.9823,W,2,11,0.80,307.19,M,-33.324,M,,*71
2017-12-01 15:34:50 1512160490.405044: $GPRMC,203451,A,3946.9565,N,08404.9823,W,0.0000,0.000,011217,,*35
2017-12-01 15:34:50 1512160490.405107: $GPGSA,A,3,1,10,11,12,14,18,24,25,31,32,138,,2.0,0.8,1.5*3B
2017-12-01 15:34:51 1512160491.741814: $GPGSV,3,1,11,01,11,321,35,10,74,123,47,11,10,306,36,12,24,076,42*7E
2017-12-01 15:34:51 1512160491.742014: $GPGSV,3,2,11,14,52,285,42,18,42,132,45,24,18,045,42,25,26,118,46*7C
2017-12-01 15:34:51 1512160491.742115: $GPGSV,3,3,11,31,30,210,47,32,66,318,49,138,38,213,45*7E
2017-12-01 15:34:51 1512160491.855289: $GPZDA,203452.00,01,12,2017,00,00*62
2017-12-01 15:34:51 1512160491.855462: $GPGGA,203452,3946.9565,N,08404.9823,W,2,11,0.80,307.19,M,-33.324,M,,*72
2017-12-01 15:34:51 1512160491.855533: $GPRMC,203452,A,3946.9565,N,08404.9823,W,0.0000,0.000,011217,,*36
2017-12-01 15:34:51 1512160491.855599: $GPGSA,A,3,1,10,11,12,14,18,24,25,31,32,138,,2.0,0.8,1.5*3B
2017-12-01 15:34:52 1512160492.480563: $GPZDA,203453.00,01,12,2017,00,00*63
2017-12-01 15:34:52 1512160492.480746: $GPGGA,203453,3946.9565,N,08404.9823,W,2,11,0.80,307.19,M,-33.324,M,,*73
2017-12-01 15:34:52 1512160492.480814: $GPRMC,203453,A,3946.9565,N,08404.9823,W,0.0000,0.000,011217,,*37
2017-12-01 15:34:52 1512160492.480876: $GPGSA,A,3,1,10,11,12,14,18,24,25,31,32,138,,2.0,0.8,1.5*3B
2017-12-01 15:34:53 1512160493.422886: $GPZDA,203454.00,01,12,2017,00,00*64
2017-12-01 15:34:53 1512160493.423057: $GPGGA,203454,3946.9565,N,08404.9823,W,2,11,0.80,307.19,M,-33.324,M,,*74
2017-12-01 15:34:53 1512160493.423126: $GPRMC,203454,A,3946.9565,N,08404.9823,W,0.0000,0.000,011217,,*30
2017-12-01 15:34:53 1512160493.423187: $GPGSA,A,3,1,10,11,12,14,18,24,25,31,32,138,,2.0,0.8,1.5*3B
2017-12-01 15:34:54 1512160494.737232: $GPGSV,3,1,11,01,11,321,32,10,74,123,48,11,10,306,36,12,24,076,42*76
2017-12-01 15:34:54 1512160494.737412: $GPGSV,3,2,11,14,52,285,42,18,42,132,46,24,18,045,42,25,26,118,46*7F
2017-12-01 15:34:54 1512160494.737500: $GPGSV,3,3,11,31,30,210,47,32,66,318,49,138,38,213,46*7D
2017-12-01 15:34:54 1512160494.850893: $GPZDA,203455.00,01,12,2017,00,00*65
2017-12-01 15:34:54 1512160494.851065: $GPGGA,203455,3946.9565,N,08404.9823,W,2,11,0.80,307.19,M,-33.324,M,,*75
2017-12-01 15:34:54 1512160494.851132: $GPRMC,203455,A,3946.9565,N,08404.9823,W,0.0000,0.000,011217,,*31
2017-12-01 15:34:54 1512160494.851194: $GPGSA,A,3,1,10,11,12,14,18,24,25,31,32,138,,2.0,0.8,1.5*3B
2017-12-01 15:34:55 1512160495.424326: $GPZDA,203456.00,01,12,2017,00,00*66
2017-12-01 15:34:55 1512160495.424490: $GPGGA,203456,3946.9565,N,08404.9823,W,2,11,0.80,307.19,M,-33.324,M,,*76
2017-12-01 15:34:55 1512160495.424559: $GPRMC,203456,A,3946.9565,N,08404.9823,W,0.0000,0.000,011217,,*32
2017-12-01 15:34:55 1512160495.424622: $GPGSA,A,3,1,10,11,12,14,18,24,25,31,32,138,,2.0,0.8,1.5*3B
2017-12-01 15:34:56 1512160496.423879: $GPZDA,203457.00,01,12,2017,00,00*67
2017-12-01 15:34:56 1512160496.424102: $GPGGA,203457,3946.9565,N,08404.9823,W,2,11,0.80,307.19,M,-33.324,M,,*77
2017-12-01 15:34:56 1512160496.424171: $GPRMC,203457,A,3946.9565,N,08404.9823,W,0.0000,0.000,011217,,*33
2017-12-01 15:34:56 1512160496.424233: $GPGSA,A,3,1,10,11,12,14,18,24,25,31,32,138,,2.0,0.8,1.5*3B
2017-12-01 15:34:57 1512160497.757571: $GPGSV,3,1,11,01,11,321,33,10,74,123,48,11,10,306,37,12,24,076,42*76
2017-12-01 15:34:57 1512160497.757754: $GPGSV,3,2,11,14,52,285,41,18,42,132,46,24,18,045,41,25,26,118,46*7F
2017-12-01 15:34:57 1512160497.757823: $GPGSV,3,3,11,31,30,210,47,32,66,318,49,138,38,213,46*7D
2017-12-01 15:34:57 1512160497.870935: $GPZDA,203458.00,01,12,2017,00,00*68
2017-12-01 15:34:57 1512160497.871111: $GPGGA,203458,3946.9565,N,08404.9823,W,2,11,0.80,307.19,M,-33.324,M,,*78
2017-12-01 15:34:57 1512160497.871179: $GPRMC,203458,A,3946.9565,N,08404.9823,W,0.0000,0.000,011217,,*3C
2017-12-01 15:34:57 1512160497.871240: $GPGSA,A,3,1,10,11,12,14,18,24,25,31,32,138,,2.0,0.8,1.5*3B
2017-12-01 15:34:58 1512160498.405546: $GPZDA,203459.00,01,12,2017,00,00*69
2017-12-01 15:34:58 1512160498.405726: $GPGGA,203459,3946.9565,N,08404.9823,W,2,11,0.80,307.19,M,-33.324,M,,*79
2017-12-01 15:34:58 1512160498.405792: $GPRMC,203459,A,3946.9565,N,08404.9823,W,0.0000,0.000,011217,,*3D
2017-12-01 15:34:58 1512160498.405854: $GPGSA,A,3,1,10,11,12,14,18,24,25,31,32,138,,2.0,0.8,1.5*3B
2017-12-01 15:34:59 1512160499.423898: $GPZDA,203500.00,01,12,2017,00,00*64
2017-12-01 15:34:59 1512160499.424076: $GPGGA,203500,3946.9565,N,08404.9823,W,2,11,0.80,307.19,M,-33.324,M,,*74
2017-12-01 15:34:59 1512160499.424143: $GPRMC,203500,A,3946.9565,N,08404.9823,W,0.0000,0.000,011217,,*30
2017-12-01 15:34:59 1512160499.424206: $GPGSA,A,3,1,10,11,12,14,18,24,25,31,32,138,,2.0,0.8,1.5*3B
2017-12-01 15:35:00 1512160500.743509: $GPGSV,3,1,11,01,11,321,29,10,74,123,47,11,10,306,38,12,24,076,43*7C
2017-12-01 15:35:00 1512160500.743736: $GPGSV,3,2,11,14,52,285,42,18,42,132,45,24,18,045,41,25,26,118,46*7F
2017-12-01 15:35:00 1512160500.743809: $GPGSV,3,3,11,31,30,210,46,32,66,318,49,138,38,213,45*7F
2017-12-01 15:35:00 1512160500.857157: $GPZDA,203501.00,01,12,2017,00,00*65
2017-12-01 15:35:00 1512160500.857328: $GPGGA,203501,3946.9565,N,08404.9830,W,2,11,0.80,307.11,M,-33.324,M,,*7F
2017-12-01 15:35:00 1512160500.857396: $GPRMC,203501,A,3946.9565,N,08404.9830,W,0.0000,0.000,011217,,*33
2017-12-01 15:35:00 1512160500.857461: $GPGSA,A,3,1,10,11,12,14,18,24,25,31,32,138,,2.0,0.8,1.5*3B
