2017-12-01 13:52:20 1512154340.398037: {"class":"VERSION","release":"3.16","rev":"3.16-4","proto_major":3,"proto_minor":11}
2017-12-01 13:52:20 1512154340.398437: {"class":"DEVICES","devices":[{"class":"DEVICE","path":"/dev/ttyUSB0","driver":"SiRF","subtype":"9\u0006GSD4e_4.1.2-P1_RPATCH.05-F-GPS-4R-1510281 11/03/2015 307","activated":"2017-12-01T18:52:20.394Z","flags":1,"native":1,"bps":4800,"parity":"N","stopbits":1,"cycle":1.00}]}
2017-12-01 13:52:20 1512154340.398569: {"class":"WATCH","enable":true,"json":false,"nmea":true,"raw":0,"scaled":false,"timing":false,"split24":false,"pps":false}
2017-12-01 13:52:21 1512154341.396491: $GPZDA,185222.00,01,12,2017,00,00*6E
2017-12-01 13:52:21 1512154341.396679: $GPGGA,185222,3946.9585,N,08404.9864,W,2,11,0.80,295.03,M,-33.324,M,,*72
2017-12-01 13:52:21 1512154341.396748: $GPRMC,185222,A,3946.9585,N,08404.9864,W,0.0000,0.000,011217,,*37
2017-12-01 13:52:21 1512154341.396812: $GPGSA,A,3,8,10,14,15,18,20,21,24,27,32,138,,2.0,0.8,1.5*34
2017-12-01 13:52:22 1512154342.733503: $GPGSV,3,1,11,08,08,306,30,10,57,316,48,14,18,243,37,15,22,060,45*78
2017-12-01 13:52:22 1512154342.733709: $GPGSV,3,2,11,18,77,045,43,20,19,109,45,21,43,181,45,24,52,078,47*74
2017-12-01 13:52:22 1512154342.733777: $GPGSV,3,3,11,27,13,271,37,32,35,252,42,138,38,213,46*79
2017-12-01 13:52:22 1512154342.846861: $GPZDA,185223.00,01,12,2017,00,00*6F
2017-12-01 13:52:22 1512154342.847050: $GPGGA,185223,3946.9585,N,08404.9864,W,2,11,0.80,295.03,M,-33.324,M,,*73
2017-12-01 13:52:22 1512154342.847119: $GPRMC,185223,A,3946.9585,N,08404.9864,W,0.0000,0.000,011217,,*36
2017-12-01 13:52:22 1512154342.847182: $GPGSA,A,3,8,10,14,15,18,20,21,24,27,32,138,,2.0,0.8,1.5*34
2017-12-01 13:52:23 1512154343.396451: $GPZDA,185224.00,01,12,2017,00,00*68
2017-12-01 13:52:23 1512154343.396639: $GPGGA,185224,3946.9585,N,08404.9864,W,2,11,0.80,295.03,M,-33.324,M,,*74
2017-12-01 13:52:23 1512154343.396707: $GPRMC,185224,A,3946.9585,N,08404.9864,W,0.0000,0.000,011217,,*31
2017-12-01 13:52:23 1512154343.396770: $GPGSA,A,3,8,10,14,15,18,20,21,24,27,32,138,,2.0,0.8,1.5*34
2017-12-01 13:52:24 1512154344.397229: $GPZDA,185225.00,01,12,2017,00,00*69
2017-12-01 13:52:24 1512154344.397417: $GPGGA,185225,3946.9585,N,08404.9864,W,2,11,0.80,295.03,M,-33.324,M,,*75
2017-12-01 13:52:24 1512154344.397486: $GPRMC,185225,A,3946.9585,N,08404.9864,W,0.0000,0.000,011217,,*30
2017-12-01 13:52:24 1512154344.397552: $GPGSA,A,3,8,10,14,15,18,20,21,24,27,32,138,,2.0,0.8,1.5*34
2017-12-01 13:52:24 1512154344.397611: $GPGBS,185225,2.67,M,3.86,M,8.82,M*3B
2017-12-01 13:52:25 1512154345.732967: $GPGSV,3,1,11,08,08,306,24,10,57,316,48,14,18,243,36,15,22,060,45*7C
2017-12-01 13:52:25 1512154345.733150: $GPGSV,3,2,11,18,77,045,43,20,19,109,45,21,43,181,45,24,52,078,47*74
2017-12-01 13:52:25 1512154345.733218: $GPGSV,3,3,11,27,13,271,37,32,35,252,42,138,38,213,46*79
2017-12-01 13:52:25 1512154345.846447: $GPZDA,185226.00,01,12,2017,00,00*6A
2017-12-01 13:52:25 1512154345.846649: $GPGGA,185226,3946.9585,N,08404.9864,W,2,11,0.80,295.03,M,-33.324,M,,*76
2017-12-01 13:52:25 1512154345.846720: $GPRMC,185226,A,3946.9585,N,08404.9864,W,0.0000,0.000,011217,,*33
2017-12-01 13:52:25 1512154345.846785: $GPGSA,A,3,8,10,14,15,18,20,21,24,27,32,138,,2.0,0.8,1.5*34
2017-12-01 13:52:26 1512154346.471849: $GPZDA,185227.00,01,12,2017,00,00*6B
2017-12-01 13:52:26 1512154346.472022: $GPGGA,185227,3946.9585,N,08404.9864,W,2,11,0.80,295.03,M,-33.324,M,,*77
2017-12-01 13:52:26 1512154346.472089: $GPRMC,185227,A,3946.9585,N,08404.9864,W,0.0000,0.000,011217,,*32
2017-12-01 13:52:26 1512154346.472152: $GPGSA,A,3,8,10,14,15,18,20,21,24,27,32,138,,2.0,0.8,1.5*34
2017-12-01 13:52:27 1512154347.397185: $GPZDA,185228.00,01,12,2017,00,00*64
2017-12-01 13:52:27 1512154347.397387: $GPGGA,185228,3946.9585,N,08404.9864,W,2,11,0.80,295.03,M,-33.324,M,,*78
2017-12-01 13:52:27 1512154347.397460: $GPRMC,185228,A,3946.9585,N,08404.9864,W,0.0000,0.000,011217,,*3D
2017-12-01 13:52:27 1512154347.397530: $GPGSA,A,3,8,10,14,15,18,20,21,24,27,32,138,,2.0,0.8,1.5*34
2017-12-01 13:52:28 1512154348.732276: $GPGSV,3,1,11,08,08,306,28,10,57,316,48,14,18,243,36,15,22,060,45*70
2017-12-01 13:52:28 1512154348.732555: $GPGSV,3,2,11,18,77,045,43,20,19,109,45,21,43,181,45,24,52,078,47*74
2017-12-01 13:52:28 1512154348.732637: $GPGSV,3,3,11,27,13,271,38,32,35,252,43,138,38,213,47*76
2017-12-01 13:52:28 1512154348.845428: $GPZDA,185229.00,01,12,2017,00,00*65
2017-12-01 13:52:28 1512154348.845631: $GPGGA,185229,3946.9585,N,08404.9864,W,2,11,0.80,295.03,M,-33.324,M,,*79
2017-12-01 13:52:28 1512154348.845700: $GPRMC,185229,A,3946.9585,N,08404.9864,W,0.0000,0.000,011217,,*3C
2017-12-01 13:52:28 1512154348.845763: $GPGSA,A,3,8,10,14,15,18,20,21,24,27,32,138,,2.0,0.8,1.5*34
2017-12-01 13:52:29 1512154349.397675: $GPZDA,185230.00,01,12,2017,00,00*6D
2017-12-01 13:52:29 1512154349.397851: $GPGGA,185230,3946.9585,N,08404.9864,W,2,11,0.80,295.03,M,-33.324,M,,*71
2017-12-01 13:52:29 1512154349.397940: $GPRMC,185230,A,3946.9585,N,08404.9864,W,0.0000,0.000,011217,,*34
2017-12-01 13:52:29 1512154349.398005: $GPGSA,A,3,8,10,14,15,18,20,21,24,27,32,138,,2.0,0.8,1.5*34
