2017-11-16 17:11:09 1510870269.332011: {"class":"VERSION","release":"3.17","rev":"3.17","proto_major":3,"proto_minor":12}
2017-11-16 17:11:09 1510870269.332500: {"class":"DEVICES","devices":[{"class":"DEVICE","path":"/dev/ttyUSB0","driver":"SiRF","subtype":"9\u0006GSD4e_4.1.2-P1_RPATCH.05-F-GPS-4R-1510281 11/03/2015 307","activated":"2017-11-16T22:11:09.286Z","flags":1,"native":1,"bps":4800,"parity":"N","stopbits":1,"cycle":1.00}]}
2017-11-16 17:11:09 1510870269.332618: {"class":"WATCH","enable":true,"json":false,"nmea":true,"raw":0,"scaled":false,"timing":false,"split24":false,"pps":false}
2017-11-16 17:11:09 1510870269.734397: $GPGSV,3,1,12,01,19,310,40,10,59,142,47,24,05,046,29,12,25,060,50*73
2017-11-16 17:11:09 1510870269.734568: $GPGSV,3,2,12,14,61,309,46,18,28,141,45,22,11,312,41,11,10,291,32*78
2017-11-16 17:11:09 1510870269.734628: $GPGSV,3,3,12,25,36,103,47,31,45,217,48,32,70,358,50,138,38,213,44*4E
2017-11-16 17:11:09 1510870269.847775: $GPZDA,221108.00,16,11,2017,00,00*6D
2017-11-16 17:11:09 1510870269.847944: $GPGGA,221108,3946.9568,N,08404.9826,W,2,12,0.80,312.81,M,-33.324,M,,*76
2017-11-16 17:11:09 1510870269.848005: $GPRMC,221108,A,3946.9568,N,08404.9826,W,0.0000,0.000,161117,,*31
2017-11-16 17:11:09 1510870269.848063: $GPGSA,A,3,1,10,24,12,14,18,22,11,25,31,32,138,1.6,0.8,1.3*38
2017-11-16 17:11:10 1510870270.398551: $GPZDA,221109.00,16,11,2017,00,00*6C
2017-11-16 17:11:10 1510870270.398718: $GPGGA,221109,3946.9568,N,08404.9826,W,2,12,0.80,312.81,M,-33.324,M,,*77
2017-11-16 17:11:10 1510870270.398783: $GPRMC,221109,A,3946.9568,N,08404.9826,W,0.0000,0.000,161117,,*30
2017-11-16 17:11:10 1510870270.398838: $GPGSA,A,3,1,10,24,12,14,18,22,11,25,31,32,138,1.6,0.8,1.3*38
2017-11-16 17:11:11 1510870271.400277: $GPZDA,221110.00,16,11,2017,00,00*64
2017-11-16 17:11:11 1510870271.400441: $GPGGA,221110,3946.9568,N,08404.9826,W,2,12,0.80,312.81,M,-33.324,M,,*7F
2017-11-16 17:11:11 1510870271.400501: $GPRMC,221110,A,3946.9568,N,08404.9826,W,0.0000,0.000,161117,,*38
2017-11-16 17:11:11 1510870271.400556: $GPGSA,A,3,1,10,24,12,14,18,22,11,25,31,32,138,1.6,0.8,1.3*38
2017-11-16 17:11:12 1510870272.741018: $GPGSV,3,1,12,01,19,310,40,10,59,142,47,24,05,046,09,12,25,060,50*71
2017-11-16 17:11:12 1510870272.741187: $GPGSV,3,2,12,14,61,309,46,18,28,141,45,22,11,312,41,11,10,291,32*78
2017-11-16 17:11:12 1510870272.741246: $GPGSV,3,3,12,25,36,103,47,31,45,217,49,32,70,358,50,138,38,213,44*4F
2017-11-16 17:11:12 1510870272.854300: $GPZDA,221111.00,16,11,2017,00,00*65
2017-11-16 17:11:12 1510870272.854474: $GPGGA,221111,3946.9568,N,08404.9826,W,2,11,0.80,312.81,M,-33.324,M,,*7D
2017-11-16 17:11:12 1510870272.854535: $GPRMC,221111,A,3946.9568,N,08404.9826,W,0.0000,0.000,161117,,*39
2017-11-16 17:11:12 1510870272.854590: $GPGSA,A,3,1,10,12,14,18,22,11,25,31,32,138,,1.6,0.8,1.3*3E
2017-11-16 17:11:13 1510870273.398982: $GPZDA,221112.00,16,11,2017,00,00*66
2017-11-16 17:11:13 1510870273.399162: $GPGGA,221112,3946.9568,N,08404.9826,W,2,11,0.80,312.81,M,-33.324,M,,*7E
2017-11-16 17:11:13 1510870273.399225: $GPRMC,221112,A,3946.9568,N,08404.9826,W,0.0000,0.000,161117,,*3A
2017-11-16 17:11:13 1510870273.399281: $GPGSA,A,3,1,10,12,14,18,22,11,25,31,32,138,,1.6,0.8,1.3*3E
2017-11-16 17:11:14 1510870274.398534: $GPZDA,221113.00,16,11,2017,00,00*67
2017-11-16 17:11:14 1510870274.398732: $GPGGA,221113,3946.9568,N,08404.9826,W,2,11,0.80,312.81,M,-33.324,M,,*7F
2017-11-16 17:11:14 1510870274.398799: $GPRMC,221113,A,3946.9568,N,08404.9826,W,0.0000,0.000,161117,,*3B
2017-11-16 17:11:14 1510870274.398858: $GPGSA,A,3,1,10,12,14,18,22,11,25,31,32,138,,1.6,0.8,1.3*3E
2017-11-16 17:11:15 1510870275.729390: $GPGSV,3,1,12,01,19,310,39,10,59,142,47,24,05,046,28,12,25,060,50*7C
2017-11-16 17:11:15 1510870275.729560: $GPGSV,3,2,12,14,61,309,46,18,28,141,45,22,11,312,42,11,10,291,33*7A
2017-11-16 17:11:15 1510870275.729622: $GPGSV,3,3,12,25,36,103,47,31,45,217,49,32,70,358,50,138,38,213,43*48
2017-11-16 17:11:15 1510870275.842670: $GPZDA,221114.00,16,11,2017,00,00*60
2017-11-16 17:11:15 1510870275.842842: $GPGGA,221114,3946.9568,N,08404.9826,W,2,12,0.80,312.81,M,-33.324,M,,*7B
2017-11-16 17:11:15 1510870275.842958: $GPRMC,221114,A,3946.9568,N,08404.9826,W,0.0000,0.000,161117,,*3C
2017-11-16 17:11:15 1510870275.843016: $GPGSA,A,3,1,10,24,12,14,18,22,11,25,31,32,138,1.6,0.8,1.3*38
2017-11-16 17:11:16 1510870276.468030: $GPZDA,221115.00,16,11,2017,00,00*61
2017-11-16 17:11:16 1510870276.468198: $GPGGA,221115,3946.9568,N,08404.9826,W,2,12,0.80,312.81,M,-33.324,M,,*7A
2017-11-16 17:11:16 1510870276.468261: $GPRMC,221115,A,3946.9568,N,08404.9826,W,0.0000,0.000,161117,,*3D
2017-11-16 17:11:16 1510870276.468316: $GPGSA,A,3,1,10,24,12,14,18,22,11,25,31,32,138,1.6,0.8,1.3*38
2017-11-16 17:11:17 1510870277.400344: $GPZDA,221116.00,16,11,2017,00,00*62
2017-11-16 17:11:17 1510870277.400530: $GPGGA,221116,3946.9568,N,08404.9826,W,2,12,0.80,312.81,M,-33.324,M,,*79
2017-11-16 17:11:17 1510870277.400592: $GPRMC,221116,A,3946.9568,N,08404.9826,W,0.0000,0.000,161117,,*3E
2017-11-16 17:11:17 1510870277.400648: $GPGSA,A,3,1,10,24,12,14,18,22,11,25,31,32,138,1.6,0.8,1.3*38
2017-11-16 17:11:18 1510870278.736046: $GPGSV,3,1,12,01,19,310,38,10,59,142,47,24,05,046,28,12,25,060,50*7D
2017-11-16 17:11:18 1510870278.736220: $GPGSV,3,2,12,14,61,309,46,18,28,141,45,22,11,312,42,11,10,291,32*7B
2017-11-16 17:11:18 1510870278.736279: $GPGSV,3,3,12,25,36,103,47,31,45,217,49,32,70,358,50,138,38,213,44*4F
2017-11-16 17:11:18 1510870278.849316: $GPZDA,221117.00,16,11,2017,00,00*63
2017-11-16 17:11:18 1510870278.849480: $GPGGA,221117,3946.9568,N,08404.9826,W,2,12,0.80,312.81,M,-33.324,M,,*78
2017-11-16 17:11:18 1510870278.849540: $GPRMC,221117,A,3946.9568,N,08404.9826,W,0.0000,0.000,161117,,*3F
2017-11-16 17:11:18 1510870278.849596: $GPGSA,A,3,1,10,24,12,14,18,22,11,25,31,32,138,1.6,0.8,1.3*38
