2017-12-01 11:30:19 1512145819.857137: {"class":"VERSION","release":"3.16","rev":"3.16-4","proto_major":3,"proto_minor":11}
2017-12-01 11:30:19 1512145819.857553: {"class":"DEVICES","devices":[{"class":"DEVICE","path":"/dev/ttyUSB0","driver":"SiRF","subtype":"9\u0006GSD4e_4.1.2-P1_RPATCH.05-F-GPS-4R-1510281 11/03/2015 307","activated":"2017-12-01T16:30:19.770Z","flags":1,"native":1,"bps":4800,"parity":"N","stopbits":1,"cycle":1.00}]}
2017-12-01 11:30:19 1512145819.857683: {"class":"WATCH","enable":true,"json":false,"nmea":true,"raw":0,"scaled":false,"timing":false,"split24":false,"pps":false}
2017-12-01 11:30:19 1512145819.884110: $GPZDA,163020.00,01,12,2017,00,00*66
2017-12-01 11:30:19 1512145819.884284: $GPGGA,163020,3946.9577,N,08404.9845,W,2,11,1.00,296.80,M,-33.324,M,,*75
2017-12-01 11:30:19 1512145819.884351: $GPRMC,163020,A,3946.9577,N,08404.9845,W,0.0000,0.000,011217,,*31
2017-12-01 11:30:19 1512145819.884411: $GPGSA,A,3,5,10,13,15,18,20,21,24,29,27,138,,2.0,1.0,1.5*3D
2017-12-01 11:30:20 1512145820.415019: $GPZDA,163021.00,01,12,2017,00,00*67
2017-12-01 11:30:20 1512145820.415193: $GPGGA,163021,3946.9577,N,08404.9845,W,2,11,1.00,296.80,M,-33.324,M,,*74
2017-12-01 11:30:20 1512145820.415260: $GPRMC,163021,A,3946.9577,N,08404.9845,W,0.0000,0.000,011217,,*30
2017-12-01 11:30:20 1512145820.415321: $GPGSA,A,3,5,10,13,15,18,20,21,24,29,27,138,,2.0,1.0,1.5*3D
2017-12-01 11:30:21 1512145821.421197: $GPZDA,163022.00,01,12,2017,00,00*64
2017-12-01 11:30:21 1512145821.421469: $GPGGA,163022,3946.9577,N,08404.9845,W,2,11,1.00,296.80,M,-33.324,M,,*77
2017-12-01 11:30:21 1512145821.421550: $GPRMC,163022,A,3946.9577,N,08404.9845,W,0.0000,0.000,011217,,*33
2017-12-01 11:30:21 1512145821.421612: $GPGSA,A,3,5,10,13,15,18,20,21,24,29,27,138,,2.0,1.0,1.5*3D
2017-12-01 11:30:22 1512145822.755473: $GPGSV,3,1,12,05,18,073,39,10,09,267,36,13,48,054,46,15,79,102,48*7C
2017-12-01 11:30:22 1512145822.755632: $GPGSV,3,2,12,18,39,280,43,20,66,039,42,21,61,309,46,24,15,151,40*74
2017-12-01 11:30:22 1512145822.755698: $GPGSV,3,3,12,29,31,196,46,30,01,030,02,27,04,327,35,138,38,213,45*4D
2017-12-01 11:30:22 1512145822.869126: $GPZDA,163023.00,01,12,2017,00,00*65
2017-12-01 11:30:22 1512145822.869303: $GPGGA,163023,3946.9577,N,08404.9845,W,2,11,1.00,296.80,M,-33.324,M,,*76
2017-12-01 11:30:22 1512145822.869369: $GPRMC,163023,A,3946.9577,N,08404.9845,W,0.0000,0.000,011217,,*32
2017-12-01 11:30:22 1512145822.869430: $GPGSA,A,3,5,10,13,15,18,20,21,24,29,27,138,,2.0,1.0,1.5*3D
2017-12-01 11:30:23 1512145823.423465: $GPZDA,163024.00,01,12,2017,00,00*62
2017-12-01 11:30:23 1512145823.423646: $GPGGA,163024,3946.9577,N,08404.9845,W,2,11,1.00,296.80,M,-33.324,M,,*71
2017-12-01 11:30:23 1512145823.423714: $GPRMC,163024,A,3946.9577,N,08404.9845,W,0.0000,0.000,011217,,*35
2017-12-01 11:30:23 1512145823.423775: $GPGSA,A,3,5,10,13,15,18,20,21,24,29,27,138,,2.0,1.0,1.5*3D
2017-12-01 11:30:24 1512145824.434066: $GPZDA,163025.00,01,12,2017,00,00*63
2017-12-01 11:30:24 1512145824.434233: $GPGGA,163025,3946.9577,N,08404.9845,W,2,11,1.00,296.80,M,-33.324,M,,*70
2017-12-01 11:30:24 1512145824.434299: $GPRMC,163025,A,3946.9577,N,08404.9845,W,0.0000,0.000,011217,,*34
2017-12-01 11:30:24 1512145824.434360: $GPGSA,A,3,5,10,13,15,18,20,21,24,29,27,138,,2.0,1.0,1.5*3D
2017-12-01 11:30:25 1512145825.753224: $GPGSV,3,1,12,05,18,073,38,10,09,267,36,13,48,054,46,15,79,102,48*7D
2017-12-01 11:30:25 1512145825.753405: $GPGSV,3,2,12,18,39,280,43,20,66,039,42,21,61,309,46,24,15,151,40*74
2017-12-01 11:30:25 1512145825.753490: $GPGSV,3,3,12,29,31,196,47,30,01,030,02,27,04,327,35,138,38,213,45*4C
2017-12-01 11:30:25 1512145825.866596: $GPZDA,163026.00,01,12,2017,00,00*60
2017-12-01 11:30:25 1512145825.866772: $GPGGA,163026,3946.9577,N,08404.9845,W,2,11,1.00,296.80,M,-33.324,M,,*73
2017-12-01 11:30:25 1512145825.866837: $GPRMC,163026,A,3946.9577,N,08404.9845,W,0.0000,0.000,011217,,*37
2017-12-01 11:30:25 1512145825.866897: $GPGSA,A,3,5,10,13,15,18,20,21,24,29,27,138,,2.0,1.0,1.5*3D
2017-12-01 11:30:26 1512145826.416235: $GPZDA,163027.00,01,12,2017,00,00*61
2017-12-01 11:30:26 1512145826.416457: $GPGGA,163027,3946.9577,N,08404.9845,W,2,11,0.80,296.80,M,-33.324,M,,*7B
2017-12-01 11:30:26 1512145826.416524: $GPRMC,163027,A,3946.9577,N,08404.9845,W,0.0000,0.000,011217,,*36
2017-12-01 11:30:26 1512145826.416676: $GPGSA,A,3,5,10,13,15,18,20,21,24,29,27,138,,2.0,0.8,1.5*34
2017-12-01 11:30:27 1512145827.435853: $GPZDA,163028.00,01,12,2017,00,00*6E
2017-12-01 11:30:27 1512145827.436038: $GPGGA,163028,3946.9577,N,08404.9845,W,2,11,0.80,296.80,M,-33.324,M,,*74
2017-12-01 11:30:27 1512145827.436106: $GPRMC,163028,A,3946.9577,N,08404.9845,W,0.0000,0.000,011217,,*39
2017-12-01 11:30:27 1512145827.436168: $GPGSA,A,3,5,10,13,15,18,20,21,24,29,27,138,,2.0,0.8,1.5*34
2017-12-01 11:30:28 1512145828.769087: $GPGSV,3,1,12,05,18,073,38,10,09,267,37,13,48,054,46,15,79,102,48*7C
2017-12-01 11:30:28 1512145828.769267: $GPGSV,3,2,12,18,39,280,42,20,66,039,42,21,61,309,46,24,15,151,39*7B
2017-12-01 11:30:28 1512145828.769333: $GPGSV,3,3,12,29,31,196,47,30,01,030,02,27,04,327,36,138,38,213,46*4C
2017-12-01 11:30:28 1512145828.882509: $GPZDA,163029.00,01,12,2017,00,00*6F
2017-12-01 11:30:28 1512145828.882693: $GPGGA,163029,3946.9577,N,08404.9845,W,2,11,0.80,296.80,M,-33.324,M,,*75
2017-12-01 11:30:28 1512145828.882779: $GPRMC,163029,A,3946.9577,N,08404.9845,W,0.0000,0.000,011217,,*38
2017-12-01 11:30:28 1512145828.882842: $GPGSA,A,3,5,10,13,15,18,20,21,24,29,27,138,,2.0,0.8,1.5*34
2017-12-01 11:30:29 1512145829.507828: $GPZDA,163030.00,01,12,2017,00,00*67
2017-12-01 11:30:29 1512145829.508009: $GPGGA,163030,3946.9577,N,08404.9845,W,2,11,0.80,296.80,M,-33.324,M,,*7D
2017-12-01 11:30:29 1512145829.508077: $GPRMC,163030,A,3946.9577,N,08404.9845,W,0.0000,0.000,011217,,*30
2017-12-01 11:30:29 1512145829.508159: $GPGSA,A,3,5,10,13,15,18,20,21,24,29,27,138,,2.0,0.8,1.5*34
