2017-12-01 15:37:33 1512160653.386743: {"class":"VERSION","release":"3.16","rev":"3.16-4","proto_major":3,"proto_minor":11}
2017-12-01 15:37:33 1512160653.387213: {"class":"DEVICES","devices":[{"class":"DEVICE","path":"/dev/ttyUSB0","driver":"SiRF","subtype":"9\u0006GSD4e_4.1.2-P1_RPATCH.05-F-GPS-4R-1510281 11/03/2015 307","activated":"2017-12-01T20:37:33.378Z","flags":1,"native":1,"bps":4800,"parity":"N","stopbits":1,"cycle":1.00}]}
2017-12-01 15:37:33 1512160653.387347: {"class":"WATCH","enable":true,"json":false,"nmea":true,"raw":0,"scaled":false,"timing":false,"split24":false,"pps":false}
2017-12-01 15:37:34 1512160654.714787: $GPGSV,3,1,11,01,12,321,33,10,73,126,47,11,10,304,24,12,24,075,43*7A
2017-12-01 15:37:34 1512160654.714982: $GPGSV,3,2,11,14,52,288,42,18,41,133,45,24,17,045,44,25,27,118,44*79
2017-12-01 15:37:34 1512160654.715050: $GPGSV,3,3,11,31,31,210,47,32,67,321,48,138,38,213,47*77
2017-12-01 15:37:34 1512160654.828227: $GPZDA,203735.00,01,12,2017,00,00*60
2017-12-01 15:37:34 1512160654.828360: $GPGGA,203735,3946.9578,N,08404.9839,W,2,11,0.80,299.69,M,-33.324,M,,*76
2017-12-01 15:37:34 1512160654.828427: $GPRMC,203735,A,3946.9578,N,08404.9839,W,0.3423,4.197,011217,,*3E
2017-12-01 15:37:34 1512160654.828487: $GPGSA,A,3,1,10,11,12,14,18,24,25,31,32,138,,2.0,0.8,1.5*3B
2017-12-01 15:37:35 1512160655.379352: $GPZDA,203736.00,01,12,2017,00,00*63
2017-12-01 15:37:35 1512160655.379535: $GPGGA,203736,3946.9578,N,08404.9839,W,2,11,0.80,299.69,M,-33.324,M,,*75
2017-12-01 15:37:35 1512160655.379624: $GPRMC,203736,A,3946.9578,N,08404.9839,W,0.0000,0.000,011217,,*30
2017-12-01 15:37:35 1512160655.379689: $GPGSA,A,3,1,10,11,12,14,18,24,25,31,32,138,,2.0,0.8,1.5*3B
2017-12-01 15:37:36 1512160656.379064: $GPZDA,203737.00,01,12,2017,00,00*62
2017-12-01 15:37:36 1512160656.379240: $GPGGA,203737,3946.9578,N,08404.9839,W,2,11,0.80,299.69,M,-33.324,M,,*74
2017-12-01 15:37:36 1512160656.379310: $GPRMC,203737,A,3946.9578,N,08404.9839,W,0.0000,0.000,011217,,*31
2017-12-01 15:37:36 1512160656.379371: $GPGSA,A,3,1,10,11,12,14,18,24,25,31,32,138,,2.0,0.8,1.5*3B
2017-12-01 15:37:37 1512160657.720630: $GPGSV,3,1,11,01,12,321,33,10,73,126,47,11,10,304,24,12,24,075,42*7B
2017-12-01 15:37:37 1512160657.720822: $GPGSV,3,2,11,14,52,288,42,18,41,133,45,24,17,045,44,25,27,118,43*7E
2017-12-01 15:37:37 1512160657.720890: $GPGSV,3,3,11,31,31,210,47,32,67,321,49,138,38,213,45*74
2017-12-01 15:37:37 1512160657.834013: $GPZDA,203738.00,01,12,2017,00,00*6D
2017-12-01 15:37:37 1512160657.834204: $GPGGA,203738,3946.9578,N,08404.9839,W,2,11,0.80,299.69,M,-33.324,M,,*7B
2017-12-01 15:37:37 1512160657.834274: $GPRMC,203738,A,3946.9578,N,08404.9839,W,0.0000,0.000,011217,,*3E
2017-12-01 15:37:37 1512160657.834337: $GPGSA,A,3,1,10,11,12,14,18,24,25,31,32,138,,2.0,0.8,1.5*3B
2017-12-01 15:37:38 1512160658.459779: $GPZDA,203739.00,01,12,2017,00,00*6C
2017-12-01 15:37:38 1512160658.459963: $GPGGA,203739,3946.9578,N,08404.9839,W,2,11,0.80,299.69,M,-33.324,M,,*7A
2017-12-01 15:37:38 1512160658.460032: $GPRMC,203739,A,3946.9578,N,08404.9839,W,0.0000,0.000,011217,,*3F
2017-12-01 15:37:38 1512160658.460093: $GPGSA,A,3,1,10,11,12,14,18,24,25,31,32,138,,2.0,0.8,1.5*3B
2017-12-01 15:37:39 1512160659.385624: $GPZDA,203740.00,01,12,2017,00,00*62
2017-12-01 15:37:39 1512160659.385803: $GPGGA,203740,3946.9578,N,08404.9839,W,2,11,0.80,299.69,M,-33.324,M,,*74
2017-12-01 15:37:39 1512160659.385873: $GPRMC,203740,A,3946.9578,N,08404.9839,W,0.0000,0.000,011217,,*31
2017-12-01 15:37:39 1512160659.385938: $GPGSA,A,3,1,10,11,12,14,18,24,25,31,32,138,,2.0,0.8,1.5*3B
2017-12-01 15:37:40 1512160660.721060: $GPGSV,3,1,11,01,12,321,33,10,73,126,47,11,10,304,33,12,24,075,42*7D
2017-12-01 15:37:40 1512160660.721240: $GPGSV,3,2,11,14,52,288,42,18,41,133,45,24,17,045,44,25,27,118,43*7E
2017-12-01 15:37:40 1512160660.721308: $GPGSV,3,3,11,31,31,210,48,32,67,321,49,138,38,213,46*78
2017-12-01 15:37:40 1512160660.834438: $GPZDA,203741.00,01,12,2017,00,00*63
2017-12-01 15:37:40 1512160660.834587: $GPGGA,203741,3946.9578,N,08404.9839,W,2,11,0.80,299.69,M,-33.324,M,,*75
2017-12-01 15:37:40 1512160660.834705: $GPRMC,203741,A,3946.9578,N,08404.9839,W,0.0000,0.000,011217,,*30
2017-12-01 15:37:40 1512160660.834769: $GPGSA,A,3,1,10,11,12,14,18,24,25,31,32,138,,2.0,0.8,1.5*3B
2017-12-01 15:37:41 1512160661.386540: $GPZDA,203742.00,01,12,2017,00,00*60
2017-12-01 15:37:41 1512160661.386717: $GPGGA,203742,3946.9578,N,08404.9839,W,2,11,0.80,299.69,M,-33.324,M,,*76
2017-12-01 15:37:41 1512160661.386786: $GPRMC,203742,A,3946.9578,N,08404.9839,W,0.0000,0.000,011217,,*33
2017-12-01 15:37:41 1512160661.386851: $GPGSA,A,3,1,10,11,12,14,18,24,25,31,32,138,,2.0,0.8,1.5*3B
2017-12-01 15:37:42 1512160662.384834: $GPZDA,203743.00,01,12,2017,00,00*61
2017-12-01 15:37:42 1512160662.385016: $GPGGA,203743,3946.9578,N,08404.9839,W,2,11,0.80,299.69,M,-33.324,M,,*77
2017-12-01 15:37:42 1512160662.385084: $GPRMC,203743,A,3946.9578,N,08404.9839,W,0.0000,0.000,011217,,*32
2017-12-01 15:37:42 1512160662.385147: $GPGSA,A,3,1,10,11,12,14,18,24,25,31,32,138,,2.0,0.8,1.5*3B
2017-12-01 15:37:43 1512160663.722591: $GPGSV,3,1,11,01,12,321,33,10,73,126,47,11,10,304,33,12,24,075,42*7D
2017-12-01 15:37:43 1512160663.722779: $GPGSV,3,2,11,14,52,288,42,18,41,133,45,24,17,045,45,25,27,118,43*7F
2017-12-01 15:37:43 1512160663.722850: $GPGSV,3,3,11,31,31,210,48,32,67,321,49,138,38,213,45*7B
2017-12-01 15:37:43 1512160663.836008: $GPZDA,203744.00,01,12,2017,00,00*66
2017-12-01 15:37:43 1512160663.836188: $GPGGA,203744,3946.9578,N,08404.9839,W,2,11,0.80,299.69,M,-33.324,M,,*70
2017-12-01 15:37:43 1512160663.836258: $GPRMC,203744,A,3946.9578,N,08404.9839,W,0.0000,0.000,011217,,*35
2017-12-01 15:37:43 1512160663.836319: $GPGSA,A,3,1,10,11,12,14,18,24,25,31,32,138,,2.0,0.8,1.5*3B
2017-12-01 15:37:44 1512160664.379345: $GPZDA,203745.00,01,12,2017,00,00*67
2017-12-01 15:37:44 1512160664.379519: $GPGGA,203745,3946.9578,N,08404.9839,W,2,11,0.80,299.69,M,-33.324,M,,*71
2017-12-01 15:37:44 1512160664.379586: $GPRMC,203745,A,3946.9578,N,08404.9839,W,0.0000,0.000,011217,,*34
2017-12-01 15:37:44 1512160664.379649: $GPGSA,A,3,1,10,11,12,14,18,24,25,31,32,138,,2.0,0.8,1.5*3B
2017-12-01 15:37:45 1512160665.386472: $GPZDA,203746.00,01,12,2017,00,00*64
2017-12-01 15:37:45 1512160665.386637: $GPGGA,203746,3946.9578,N,08404.9839,W,2,11,0.80,299.69,M,-33.324,M,,*72
2017-12-01 15:37:45 1512160665.386705: $GPRMC,203746,A,3946.9578,N,08404.9839,W,0.0000,0.000,011217,,*37
2017-12-01 15:37:45 1512160665.386788: $GPGSA,A,3,1,10,11,12,14,18,24,25,31,32,138,,2.0,0.8,1.5*3B
2017-12-01 15:37:46 1512160666.720965: $GPGSV,3,1,11,01,12,321,33,10,73,126,47,11,10,304,33,12,24,075,42*7D
2017-12-01 15:37:46 1512160666.721168: $GPGSV,3,2,11,14,52,288,42,18,41,133,45,24,17,045,45,25,27,118,43*7F
2017-12-01 15:37:46 1512160666.721236: $GPGSV,3,3,11,31,31,210,48,32,67,321,49,138,38,213,46*78
2017-12-01 15:37:46 1512160666.834321: $GPZDA,203747.00,01,12,2017,00,00*65
2017-12-01 15:37:46 1512160666.834504: $GPGGA,203747,3946.9578,N,08404.9839,W,2,11,0.80,299.69,M,-33.324,M,,*73
2017-12-01 15:37:46 1512160666.834572: $GPRMC,203747,A,3946.9578,N,08404.9839,W,0.0000,0.000,011217,,*36
2017-12-01 15:37:46 1512160666.834634: $GPGSA,A,3,1,10,11,12,14,18,24,25,31,32,138,,2.0,0.8,1.5*3B
2017-12-01 15:37:47 1512160667.385185: $GPZDA,203748.00,01,12,2017,00,00*6A
2017-12-01 15:37:47 1512160667.385369: $GPGGA,203748,3946.9578,N,08404.9839,W,2,11,0.80,299.69,M,-33.324,M,,*7C
2017-12-01 15:37:47 1512160667.385439: $GPRMC,203748,A,3946.9578,N,08404.9839,W,0.0000,0.000,011217,,*39
2017-12-01 15:37:47 1512160667.385502: $GPGSA,A,3,1,10,11,12,14,18,24,25,31,32,138,,2.0,0.8,1.5*3B
2017-12-01 15:37:48 1512160668.384756: $GPZDA,203749.00,01,12,2017,00,00*6B
2017-12-01 15:37:48 1512160668.384940: $GPGGA,203749,3946.9578,N,08404.9839,W,2,11,0.80,299.69,M,-33.324,M,,*7D
2017-12-01 15:37:48 1512160668.385009: $GPRMC,203749,A,3946.9578,N,08404.9839,W,0.0000,0.000,011217,,*38
2017-12-01 15:37:48 1512160668.385070: $GPGSA,A,3,1,10,11,12,14,18,24,25,31,32,138,,2.0,0.8,1.5*3B
2017-12-01 15:37:49 1512160669.722586: $GPGSV,3,1,11,01,12,321,39,10,73,126,48,11,10,304,33,12,24,075,41*7B
2017-12-01 15:37:49 1512160669.722823: $GPGSV,3,2,11,14,52,288,42,18,41,133,46,24,17,045,45,25,27,118,43*7C
2017-12-01 15:37:49 1512160669.722896: $GPGSV,3,3,11,31,31,210,48,32,67,321,49,138,38,213,46*78
2017-12-01 15:37:49 1512160669.836003: $GPZDA,203750.00,01,12,2017,00,00*63
2017-12-01 15:37:49 1512160669.836142: $GPGGA,203750,3946.9578,N,08404.9839,W,2,11,0.80,299.69,M,-33.324,M,,*75
2017-12-01 15:37:49 1512160669.836208: $GPRMC,203750,A,3946.9578,N,08404.9839,W,0.0000,0.000,011217,,*30
2017-12-01 15:37:49 1512160669.836270: $GPGSA,A,3,1,10,11,12,14,18,24,25,31,32,138,,2.0,0.8,1.5*3B
2017-12-01 15:37:50 1512160670.386420: $GPZDA,203751.00,01,12,2017,00,00*62
2017-12-01 15:37:50 1512160670.386631: $GPGGA,203751,3946.9578,N,08404.9839,W,2,11,0.80,299.69,M,-33.324,M,,*74
2017-12-01 15:37:50 1512160670.386699: $GPRMC,203751,A,3946.9578,N,08404.9839,W,0.0000,0.000,011217,,*31
2017-12-01 15:37:50 1512160670.386762: $GPGSA,A,3,1,10,11,12,14,18,24,25,31,32,138,,2.0,0.8,1.5*3B
2017-12-01 15:37:51 1512160671.385283: $GPZDA,203752.00,01,12,2017,00,00*61
2017-12-01 15:37:51 1512160671.385454: $GPGGA,203752,3946.9578,N,08404.9839,W,2,11,0.80,299.69,M,-33.324,M,,*77
2017-12-01 15:37:51 1512160671.385522: $GPRMC,203752,A,3946.9578,N,08404.9839,W,0.0000,0.000,011217,,*32
2017-12-01 15:37:51 1512160671.385583: $GPGSA,A,3,1,10,11,12,14,18,24,25,31,32,138,,2.0,0.8,1.5*3B
2017-12-01 15:37:52 1512160672.720945: $GPGSV,3,1,11,01,12,321,38,10,73,126,48,11,10,304,34,12,24,075,42*7E
2017-12-01 15:37:52 1512160672.721106: $GPGSV,3,2,11,14,52,288,43,18,41,133,46,24,17,045,45,25,27,118,43*7D
2017-12-01 15:37:52 1512160672.721174: $GPGSV,3,3,11,31,31,210,48,32,67,321,49,138,38,213,45*7B
2017-12-01 15:37:52 1512160672.834368: $GPZDA,203753.00,01,12,2017,00,00*60
2017-12-01 15:37:52 1512160672.834542: $GPGGA,203753,3946.9578,N,08404.9839,W,2,11,0.80,299.69,M,-33.324,M,,*76
2017-12-01 15:37:52 1512160672.834609: $GPRMC,203753,A,3946.9578,N,08404.9839,W,0.0000,0.000,011217,,*33
2017-12-01 15:37:52 1512160672.834672: $GPGSA,A,3,1,10,11,12,14,18,24,25,31,32,138,,2.0,0.8,1.5*3B
