2017-11-16 17:20:05 1510870805.433413: {"class":"VERSION","release":"3.17","rev":"3.17","proto_major":3,"proto_minor":12}
2017-11-16 17:20:05 1510870805.433959: {"class":"DEVICES","devices":[{"class":"DEVICE","path":"/dev/ttyUSB0","driver":"SiRF","subtype":"9\u0006GSD4e_4.1.2-P1_RPATCH.05-F-GPS-4R-1510281 11/03/2015 307","activated":"2017-11-16T22:20:05.420Z","flags":1,"native":1,"bps":4800,"parity":"N","stopbits":1,"cycle":1.00}]}
2017-11-16 17:20:05 1510870805.434138: {"class":"WATCH","enable":true,"json":false,"nmea":true,"raw":0,"scaled":false,"timing":false,"split24":false,"pps":false}
2017-11-16 17:20:06 1510870806.756218: $GPGSV,3,1,12,01,20,306,41,10,54,145,49,22,14,312,42,12,24,055,49*7D
2017-11-16 17:20:06 1510870806.756392: $GPGSV,3,2,12,14,63,316,48,18,24,142,42,24,02,048,14,11,10,288,38*78
2017-11-16 17:20:06 1510870806.756452: $GPGSV,3,3,12,25,38,097,48,31,49,220,50,32,70,010,49,138,38,213,45*44
2017-11-16 17:20:06 1510870806.869519: $GPZDA,222005.00,16,11,2017,00,00*62
2017-11-16 17:20:06 1510870806.869684: $GPGGA,222005,3946.9570,N,08404.9831,W,2,12,0.80,309.16,M,-33.324,M,,*72
2017-11-16 17:20:06 1510870806.869748: $GPRMC,222005,A,3946.9570,N,08404.9831,W,0.0000,0.000,161117,,*31
2017-11-16 17:20:06 1510870806.869804: $GPGSA,A,3,1,10,22,12,14,18,24,11,25,31,32,138,1.6,0.8,1.3*38
2017-11-16 17:20:07 1510870807.401657: $GPZDA,222006.00,16,11,2017,00,00*61
2017-11-16 17:20:07 1510870807.401838: $GPGGA,222006,3946.9570,N,08404.9831,W,2,12,0.80,309.16,M,-33.324,M,,*71
2017-11-16 17:20:07 1510870807.401947: $GPRMC,222006,A,3946.9570,N,08404.9831,W,0.0000,0.000,161117,,*32
2017-11-16 17:20:07 1510870807.402028: $GPGSA,A,3,1,10,22,12,14,18,24,11,25,31,32,138,1.6,0.8,1.3*38
2017-11-16 17:20:08 1510870808.401539: $GPZDA,222007.00,16,11,2017,00,00*60
2017-11-16 17:20:08 1510870808.401701: $GPGGA,222007,3946.9570,N,08404.9831,W,2,12,0.80,309.16,M,-33.324,M,,*70
2017-11-16 17:20:08 1510870808.401761: $GPRMC,222007,A,3946.9570,N,08404.9831,W,0.0000,0.000,161117,,*33
2017-11-16 17:20:08 1510870808.401817: $GPGSA,A,3,1,10,22,12,14,18,24,11,25,31,32,138,1.6,0.8,1.3*38
2017-11-16 17:20:09 1510870809.737098: $GPGSV,3,1,12,01,20,306,41,10,54,145,49,22,14,312,42,12,24,055,49*7D
2017-11-16 17:20:09 1510870809.737264: $GPGSV,3,2,12,14,63,316,48,18,24,142,42,24,02,048,14,11,10,288,38*78
2017-11-16 17:20:09 1510870809.737323: $GPGSV,3,3,12,25,38,097,48,31,49,220,50,32,70,010,49,138,38,213,44*45
2017-11-16 17:20:09 1510870809.850389: $GPZDA,222008.00,16,11,2017,00,00*6F
2017-11-16 17:20:09 1510870809.850555: $GPGGA,222008,3946.9570,N,08404.9831,W,2,12,0.80,309.16,M,-33.324,M,,*7F
2017-11-16 17:20:09 1510870809.850617: $GPRMC,222008,A,3946.9570,N,08404.9831,W,0.0000,0.000,161117,,*3C
2017-11-16 17:20:09 1510870809.850673: $GPGSA,A,3,1,10,22,12,14,18,24,11,25,31,32,138,1.6,0.8,1.3*38
2017-11-16 17:20:10 1510870810.401547: $GPZDA,222009.00,16,11,2017,00,00*6E
2017-11-16 17:20:10 1510870810.401707: $GPGGA,222009,3946.9570,N,08404.9831,W,2,12,0.80,309.16,M,-33.324,M,,*7E
2017-11-16 17:20:10 1510870810.401768: $GPRMC,222009,A,3946.9570,N,08404.9831,W,0.0000,0.000,161117,,*3D
2017-11-16 17:20:10 1510870810.401824: $GPGSA,A,3,1,10,22,12,14,18,24,11,25,31,32,138,1.6,0.8,1.3*38
2017-11-16 17:20:11 1510870811.420378: $GPZDA,222010.00,16,11,2017,00,00*66
2017-11-16 17:20:11 1510870811.420546: $GPGGA,222010,3946.9570,N,08404.9831,W,2,12,0.80,309.16,M,-33.324,M,,*76
2017-11-16 17:20:11 1510870811.420608: $GPRMC,222010,A,3946.9570,N,08404.9831,W,0.0000,0.000,161117,,*35
2017-11-16 17:20:11 1510870811.420664: $GPGSA,A,3,1,10,22,12,14,18,24,11,25,31,32,138,1.6,0.8,1.3*38
2017-11-16 17:20:12 1510870812.737572: $GPGSV,3,1,12,01,20,306,41,10,54,145,49,22,14,312,42,12,24,055,50*75
2017-11-16 17:20:12 1510870812.737956: $GPGSV,3,2,12,14,63,316,48,18,24,142,42,24,02,048,14,11,10,288,37*77
2017-11-16 17:20:12 1510870812.738124: $GPGSV,3,3,12,25,38,097,48,31,49,220,49,32,70,010,49,138,38,213,44*4D
2017-11-16 17:20:12 1510870812.850759: $GPZDA,222011.00,16,11,2017,00,00*67
2017-11-16 17:20:12 1510870812.850934: $GPGGA,222011,3946.9570,N,08404.9831,W,2,12,0.80,309.16,M,-33.324,M,,*77
2017-11-16 17:20:12 1510870812.851083: $GPRMC,222011,A,3946.9570,N,08404.9831,W,0.0000,0.000,161117,,*34
2017-11-16 17:20:12 1510870812.851143: $GPGSA,A,3,1,10,22,12,14,18,24,11,25,31,32,138,1.6,0.8,1.3*38
2017-11-16 17:20:13 1510870813.421775: $GPZDA,222012.00,16,11,2017,00,00*64
2017-11-16 17:20:13 1510870813.421952: $GPGGA,222012,3946.9570,N,08404.9831,W,2,12,0.80,309.16,M,-33.324,M,,*74
2017-11-16 17:20:13 1510870813.422030: $GPRMC,222012,A,3946.9570,N,08404.9831,W,0.0000,0.000,161117,,*37
2017-11-16 17:20:13 1510870813.422087: $GPGSA,A,3,1,10,22,12,14,18,24,11,25,31,32,138,1.6,0.8,1.3*38
2017-11-16 17:20:14 1510870814.415073: $GPZDA,222013.00,16,11,2017,00,00*65
2017-11-16 17:20:14 1510870814.415304: $GPGGA,222013,3946.9570,N,08404.9831,W,2,12,0.80,309.16,M,-33.324,M,,*75
2017-11-16 17:20:14 1510870814.415366: $GPRMC,222013,A,3946.9570,N,08404.9831,W,0.0000,0.000,161117,,*36
2017-11-16 17:20:14 1510870814.415423: $GPGSA,A,3,1,10,22,12,14,18,24,11,25,31,32,138,1.6,0.8,1.3*38
