2017-11-15 19:36:07 1510792567.793666: {"class":"VERSION","release":"3.17","rev":"3.17","proto_major":3,"proto_minor":12}
2017-11-15 19:36:07 1510792567.794120: {"class":"DEVICES","devices":[{"class":"DEVICE","path":"/dev/ttyUSB0","driver":"SiRF","subtype":"9\u0006GSD4e_4.1.2-P1_RPATCH.05-F-GPS-4R-1510281 11/03/2015 307","activated":"2017-11-16T00:36:07.469Z","flags":1,"native":1,"bps":4800,"parity":"N","stopbits":1,"cycle":1.00}]}
2017-11-15 19:36:07 1510792567.794244: {"class":"WATCH","enable":true,"json":false,"nmea":true,"raw":0,"scaled":false,"timing":false,"split24":false,"pps":false}
2017-11-15 19:36:08 1510792568.345052: $GPZDA,003607.00,16,11,2017,00,00*67
2017-11-15 19:36:08 1510792568.345236: $GPGGA,003607,3946.9491,N,08404.9589,W,1,08,1.40,292.42,M,-33.324,M,,*70
2017-11-15 19:36:08 1510792568.345331: $GPRMC,003607,A,3946.9491,N,08404.9589,W,1.2132,3.551,161117,,*35
2017-11-15 19:36:08 1510792568.345388: $GPGSA,A,3,32,14,16,26,31,3,23,22,,,,,3.4,1.4,2.9*0C
2017-11-15 19:36:09 1510792569.665877: $GPGSV,3,1,11,32,33,111,24,14,53,096,17,16,25,190,10,26,56,171,20*7C
2017-11-15 19:36:09 1510792569.666050: $GPGSV,3,2,11,25,15,039,00,31,65,030,14,03,41,295,20,23,13,301,17*7B
2017-11-15 19:36:09 1510792569.666111: $GPGSV,3,3,11,29,11,069,00,01,04,250,00,22,50,265,23*4A
2017-11-15 19:36:09 1510792569.779534: $GPZDA,003608.00,16,11,2017,00,00*68
2017-11-15 19:36:09 1510792569.779695: $GPGGA,003608,3946.9498,N,08404.9588,W,1,08,1.40,292.30,M,-33.324,M,,*72
2017-11-15 19:36:09 1510792569.779756: $GPRMC,003608,A,3946.9498,N,08404.9588,W,1.2381,352.270,161117,,*3B
2017-11-15 19:36:09 1510792569.779812: $GPGSA,A,3,32,14,16,26,31,3,23,22,,,,,3.4,1.4,2.9*0C
2017-11-15 19:36:10 1510792570.329293: $GPZDA,003609.00,16,11,2017,00,00*69
2017-11-15 19:36:10 1510792570.329491: $GPGGA,003609,3946.9506,N,08404.9588,W,1,08,1.40,292.17,M,-33.324,M,,*70
2017-11-15 19:36:10 1510792570.329552: $GPRMC,003609,A,3946.9506,N,08404.9588,W,1.8340,331.804,161117,,*37
2017-11-15 19:36:10 1510792570.329608: $GPGSA,A,3,32,14,16,26,31,3,23,22,,,,,3.4,1.4,2.9*0C
2017-11-15 19:36:11 1510792571.330780: $GPZDA,003610.00,16,11,2017,00,00*61
2017-11-15 19:36:11 1510792571.330943: $GPGGA,003610,3946.9514,N,08404.9594,W,1,08,1.40,291.97,M,-33.324,M,,*7D
2017-11-15 19:36:11 1510792571.331003: $GPRMC,003610,A,3946.9514,N,08404.9594,W,2.1309,336.740,161117,,*3E
2017-11-15 19:36:11 1510792571.331059: $GPGSA,A,3,32,14,16,26,31,3,23,22,,,,,3.4,1.4,2.9*0C
2017-11-15 19:36:12 1510792572.666167: $GPGSV,3,1,11,32,33,111,24,14,53,096,17,16,25,190,13,26,56,171,20*7F
2017-11-15 19:36:12 1510792572.666348: $GPGSV,3,2,11,29,11,069,11,31,65,030,14,03,41,295,20,23,13,301,17*76
2017-11-15 19:36:12 1510792572.666410: $GPGSV,3,3,11,25,15,039,00,01,04,250,00,22,50,265,23*47
2017-11-15 19:36:12 1510792572.779760: $GPZDA,003611.00,16,11,2017,00,00*60
2017-11-15 19:36:12 1510792572.779914: $GPGGA,003611,3946.9518,N,08404.9594,W,1,08,1.40,292.61,M,-33.324,M,,*7A
2017-11-15 19:36:12 1510792572.779973: $GPRMC,003611,A,3946.9518,N,08404.9594,W,1.6300,346.404,161117,,*3A
2017-11-15 19:36:12 1510792572.780028: $GPGSA,A,3,32,14,16,26,31,3,23,22,,,,,3.4,1.4,2.9*0C
2017-11-15 19:36:13 1510792573.345358: $GPZDA,003612.00,16,11,2017,00,00*63
2017-11-15 19:36:13 1510792573.345732: $GPGGA,003612,3946.9526,N,08404.9593,W,1,08,1.40,292.49,M,-33.324,M,,*79
2017-11-15 19:36:13 1510792573.345892: $GPRMC,003612,A,3946.9526,N,08404.9593,W,1.4168,332.696,161117,,*37
2017-11-15 19:36:13 1510792573.345952: $GPGSA,A,3,32,14,16,26,31,3,23,22,,,,,3.4,1.4,2.9*0C
2017-11-15 19:36:14 1510792574.346495: $GPZDA,003613.00,16,11,2017,00,00*62
2017-11-15 19:36:14 1510792574.346659: $GPGGA,003613,3946.9526,N,08404.9593,W,1,08,1.20,292.49,M,-33.324,M,,*7E
2017-11-15 19:36:14 1510792574.346898: $GPRMC,003613,A,3946.9526,N,08404.9593,W,1.0269,4.197,161117,,*30
2017-11-15 19:36:14 1510792574.346959: $GPGSA,A,3,32,14,16,26,31,3,23,22,,,,,3.4,1.2,2.9*0A
2017-11-15 19:36:15 1510792575.682006: $GPGSV,3,1,11,32,33,111,24,14,53,096,18,16,25,190,17,26,56,171,20*74
2017-11-15 19:36:15 1510792575.682138: $GPGSV,3,2,11,29,11,069,13,31,65,030,15,03,41,295,20,23,13,301,17*75
2017-11-15 19:36:15 1510792575.682256: $GPGSV,3,3,11,25,15,039,00,01,04,250,00,22,50,265,23*47
2017-11-15 19:36:15 1510792575.795605: $GPZDA,003614.00,16,11,2017,00,00*65
2017-11-15 19:36:15 1510792575.795762: $GPGGA,003614,3946.9533,N,08404.9593,W,1,08,1.20,292.36,M,-33.324,M,,*75
2017-11-15 19:36:15 1510792575.795822: $GPRMC,003614,A,3946.9533,N,08404.9593,W,1.3692,4.197,161117,,*30
2017-11-15 19:36:15 1510792575.795877: $GPGSA,A,3,32,14,26,29,31,3,23,22,,,,,3.4,1.2,2.9*06
2017-11-15 19:36:16 1510792576.421049: $GPZDA,003615.00,16,11,2017,00,00*64
2017-11-15 19:36:16 1510792576.421209: $GPGGA,003615,3946.9538,N,08404.9593,W,1,08,1.20,293.00,M,-33.324,M,,*7B
2017-11-15 19:36:16 1510792576.421270: $GPRMC,003615,A,3946.9538,N,08404.9593,W,1.0567,17.447,161117,,*0A
2017-11-15 19:36:16 1510792576.421326: $GPGSA,A,3,32,14,26,29,31,3,23,22,,,,,3.4,1.2,2.9*06
2017-11-15 19:36:17 1510792577.329437: $GPZDA,003616.00,16,11,2017,00,00*67
2017-11-15 19:36:17 1510792577.329593: $GPGGA,003616,3946.9541,N,08404.9592,W,1,08,1.20,292.24,M,-33.324,M,,*70
2017-11-15 19:36:17 1510792577.329653: $GPRMC,003616,A,3946.9541,N,08404.9592,W,0.8414,39.347,161117,,*01
2017-11-15 19:36:17 1510792577.329708: $GPGSA,A,3,32,14,26,29,31,3,23,22,,,,,3.4,1.2,2.9*06
