2017-11-16 16:47:38 1510868858.842613: {"class":"VERSION","release":"3.17","rev":"3.17","proto_major":3,"proto_minor":12}
2017-11-16 16:47:38 1510868858.843142: {"class":"DEVICES","devices":[{"class":"DEVICE","path":"/dev/ttyUSB0","driver":"SiRF","subtype":"9\u0006GSD4e_4.1.2-P1_RPATCH.05-F-GPS-4R-1510281 11/03/2015 307","activated":"2017-11-16T21:47:38.798Z","flags":1,"native":1,"bps":4800,"parity":"N","stopbits":1,"cycle":1.00}]}
2017-11-16 16:47:38 1510868858.843285: {"class":"WATCH","enable":true,"json":false,"nmea":true,"raw":0,"scaled":false,"timing":false,"split24":false,"pps":false}
2017-11-16 16:47:38 1510868858.911473: $GPZDA,214737.00,16,11,2017,00,00*61
2017-11-16 16:47:38 1510868858.911640: $GPGGA,214737,3946.9580,N,08404.9815,W,2,12,0.80,307.02,M,-33.324,M,,*73
2017-11-16 16:47:38 1510868858.911701: $GPRMC,214737,A,3946.9580,N,08404.9815,W,0.0000,0.000,161117,,*3B
2017-11-16 16:47:38 1510868858.911757: $GPGSA,A,3,1,10,11,12,14,18,24,25,31,32,22,138,1.6,0.8,1.3*38
2017-11-16 16:47:39 1510868859.447348: $GPZDA,214738.00,16,11,2017,00,00*6E
2017-11-16 16:47:39 1510868859.447538: $GPGGA,214738,3946.9580,N,08404.9815,W,2,12,0.80,307.02,M,-33.324,M,,*7C
2017-11-16 16:47:39 1510868859.447601: $GPRMC,214738,A,3946.9580,N,08404.9815,W,0.0000,0.000,161117,,*34
2017-11-16 16:47:39 1510868859.447657: $GPGSA,A,3,1,10,11,12,14,18,24,25,31,32,22,138,1.6,0.8,1.3*38
2017-11-16 16:47:40 1510868860.440695: $GPZDA,214739.00,16,11,2017,00,00*6F
2017-11-16 16:47:40 1510868860.440844: $GPGGA,214739,3946.9580,N,08404.9815,W,2,12,0.80,307.02,M,-33.324,M,,*7D
2017-11-16 16:47:40 1510868860.440926: $GPRMC,214739,A,3946.9580,N,08404.9815,W,0.0000,0.000,161117,,*35
2017-11-16 16:47:40 1510868860.440983: $GPGSA,A,3,1,10,11,12,14,18,24,25,31,32,22,138,1.6,0.8,1.3*38
2017-11-16 16:47:41 1510868861.781028: $GPGSV,3,1,12,01,14,318,33,10,70,132,49,11,11,301,23,12,25,072,47*7C
2017-11-16 16:47:41 1510868861.781200: $GPGSV,3,2,12,14,55,292,45,18,38,135,44,24,14,045,45,25,29,114,41*7D
2017-11-16 16:47:41 1510868861.781275: $GPGSV,3,3,12,31,34,211,45,32,68,328,51,22,02,310,35,138,38,213,45*48
2017-11-16 16:47:41 1510868861.894324: $GPZDA,214740.00,16,11,2017,00,00*61
2017-11-16 16:47:41 1510868861.894494: $GPGGA,214740,3946.9580,N,08404.9815,W,2,12,0.80,307.02,M,-33.324,M,,*73
2017-11-16 16:47:41 1510868861.894556: $GPRMC,214740,A,3946.9580,N,08404.9815,W,0.0000,0.000,161117,,*3B
2017-11-16 16:47:41 1510868861.894613: $GPGSA,A,3,1,10,11,12,14,18,24,25,31,32,22,138,1.6,0.8,1.3*38
2017-11-16 16:47:42 1510868862.463979: $GPZDA,214741.00,16,11,2017,00,00*60
2017-11-16 16:47:42 1510868862.464164: $GPGGA,214741,3946.9580,N,08404.9815,W,2,12,0.80,307.02,M,-33.324,M,,*72
2017-11-16 16:47:42 1510868862.464227: $GPRMC,214741,A,3946.9580,N,08404.9815,W,0.0000,0.000,161117,,*3A
2017-11-16 16:47:42 1510868862.464283: $GPGSA,A,3,1,10,11,12,14,18,24,25,31,32,22,138,1.6,0.8,1.3*38
2017-11-16 16:47:43 1510868863.447658: $GPZDA,214742.00,16,11,2017,00,00*63
2017-11-16 16:47:43 1510868863.447818: $GPGGA,214742,3946.9580,N,08404.9815,W,2,12,0.80,307.02,M,-33.324,M,,*71
2017-11-16 16:47:43 1510868863.447878: $GPRMC,214742,A,3946.9580,N,08404.9815,W,0.0000,0.000,161117,,*39
2017-11-16 16:47:43 1510868863.447955: $GPGSA,A,3,1,10,11,12,14,18,24,25,31,32,22,138,1.6,0.8,1.3*38
2017-11-16 16:47:44 1510868864.783201: $GPGSV,3,1,12,01,14,318,34,10,70,132,49,11,11,301,25,12,25,072,47*7D
2017-11-16 16:47:44 1510868864.783373: $GPGSV,3,2,12,14,55,292,45,18,38,135,44,24,14,045,45,25,29,114,42*7E
2017-11-16 16:47:44 1510868864.783434: $GPGSV,3,3,12,31,34,211,45,32,68,328,51,22,02,310,34,138,38,213,44*48
2017-11-16 16:47:44 1510868864.896602: $GPZDA,214743.00,16,11,2017,00,00*62
2017-11-16 16:47:44 1510868864.896767: $GPGGA,214743,3946.9580,N,08404.9815,W,2,12,0.80,307.02,M,-33.324,M,,*70
2017-11-16 16:47:44 1510868864.896831: $GPRMC,214743,A,3946.9580,N,08404.9815,W,0.0000,0.000,161117,,*38
2017-11-16 16:47:44 1510868864.896887: $GPGSA,A,3,1,10,11,12,14,18,24,25,31,32,22,138,1.6,0.8,1.3*38
2017-11-16 16:47:45 1510868865.456157: $GPZDA,214744.00,16,11,2017,00,00*65
2017-11-16 16:47:45 1510868865.456374: $GPGGA,214744,3946.9580,N,08404.9815,W,2,12,0.80,307.02,M,-33.324,M,,*77
2017-11-16 16:47:45 1510868865.456439: $GPRMC,214744,A,3946.9580,N,08404.9815,W,0.0000,0.000,161117,,*3F
2017-11-16 16:47:45 1510868865.456496: $GPGSA,A,3,1,10,11,12,14,18,24,25,31,32,22,138,1.6,0.8,1.3*38
2017-11-16 16:47:46 1510868866.456512: $GPZDA,214745.00,16,11,2017,00,00*64
2017-11-16 16:47:46 1510868866.456676: $GPGGA,214745,3946.9580,N,08404.9815,W,2,12,0.80,307.02,M,-33.324,M,,*76
2017-11-16 16:47:46 1510868866.456739: $GPRMC,214745,A,3946.9580,N,08404.9815,W,0.0000,0.000,161117,,*3E
2017-11-16 16:47:46 1510868866.456795: $GPGSA,A,3,1,10,11,12,14,18,24,25,31,32,22,138,1.6,0.8,1.3*38
2017-11-16 16:47:47 1510868867.783600: $GPGSV,3,1,12,01,14,318,35,10,70,132,49,11,11,301,25,12,25,072,47*7C
2017-11-16 16:47:47 1510868867.783769: $GPGSV,3,2,12,14,55,292,44,18,38,135,44,24,14,045,45,25,29,114,42*7F
2017-11-16 16:47:47 1510868867.783829: $GPGSV,3,3,12,31,34,211,45,32,68,328,51,22,02,310,36,138,38,213,44*4A
2017-11-16 16:47:47 1510868867.896003: $GPZDA,214746.00,16,11,2017,00,00*67
2017-11-16 16:47:47 1510868867.896182: $GPGGA,214746,3946.9580,N,08404.9815,W,2,12,0.80,307.02,M,-33.324,M,,*75
2017-11-16 16:47:47 1510868867.896243: $GPRMC,214746,A,3946.9580,N,08404.9815,W,0.0000,0.000,161117,,*3D
2017-11-16 16:47:47 1510868867.896299: $GPGSA,A,3,1,10,11,12,14,18,24,25,31,32,22,138,1.6,0.8,1.3*38
2017-11-16 16:47:48 1510868868.464497: $GPZDA,214747.00,16,11,2017,00,00*66
2017-11-16 16:47:48 1510868868.464652: $GPGGA,214747,3946.9580,N,08404.9815,W,2,12,0.80,307.02,M,-33.324,M,,*74
2017-11-16 16:47:48 1510868868.464712: $GPRMC,214747,A,3946.9580,N,08404.9815,W,0.0000,0.000,161117,,*3C
2017-11-16 16:47:48 1510868868.464768: $GPGSA,A,3,1,10,11,12,14,18,24,25,31,32,22,138,1.6,0.8,1.3*38
