2017-12-29 11:20:34 1514564434.045641: {"class":"VERSION","release":"3.16","rev":"3.16-4","proto_major":3,"proto_minor":11}
2017-12-29 11:20:34 1514564434.045987: {"class":"DEVICES","devices":[{"class":"DEVICE","path":"/dev/ttyUSB0","driver":"SiRF","subtype":"9\u0006GSD4e_4.1.2-P1_RPATCH.05-F-GPS-4R-1510281 11/03/2015 307","activated":"2017-12-29T16:20:33.985Z","flags":1,"native":1,"bps":4800,"parity":"N","stopbits":1,"cycle":1.00}]}
2017-12-29 11:20:34 1514564434.046105: {"class":"WATCH","enable":true,"json":false,"nmea":true,"raw":0,"scaled":false,"timing":false,"split24":false,"pps":false}
2017-12-29 11:20:34 1514564434.390141: $GPZDA,162035.00,29,12,2017,00,00*69
2017-12-29 11:20:34 1514564434.390312: $GPGGA,162035,3946.9565,N,08404.9849,W,1,10,1.00,327.58,M,-33.324,M,,*73
2017-12-29 11:20:34 1514564434.390378: $GPRMC,162035,A,3946.9565,N,08404.9849,W,0.0000,0.000,291217,,*31
2017-12-29 11:20:34 1514564434.390439: $GPGSA,A,3,8,10,15,18,20,21,24,27,32,138,,,1.7,1.0,1.3*3A
2017-12-29 11:20:35 1514564435.386900: $GPZDA,162036.00,29,12,2017,00,00*6A
2017-12-29 11:20:35 1514564435.387068: $GPGGA,162036,3946.9565,N,08404.9849,W,1,10,1.00,327.58,M,-33.324,M,,*70
2017-12-29 11:20:35 1514564435.387135: $GPRMC,162036,A,3946.9565,N,08404.9849,W,0.0000,0.000,291217,,*32
2017-12-29 11:20:35 1514564435.387196: $GPGSA,A,3,8,10,15,18,20,21,24,27,32,138,,,1.7,1.0,1.3*3A
2017-12-29 11:20:36 1514564436.721373: $GPGSV,3,1,12,08,06,322,34,10,42,301,42,15,36,052,45,18,72,340,40*79
2017-12-29 11:20:36 1514564436.721542: $GPGSV,3,2,12,20,34,096,47,21,62,189,42,24,51,108,45,27,19,288,39*7C
2017-12-29 11:20:36 1514564436.721608: $GPGSV,3,3,12,32,22,238,32,13,07,049,00,14,04,232,00,138,38,213,44*48
2017-12-29 11:20:36 1514564436.834989: $GPZDA,162037.00,29,12,2017,00,00*6B
2017-12-29 11:20:36 1514564436.835135: $GPGGA,162037,3946.9565,N,08404.9849,W,1,10,1.00,327.58,M,-33.324,M,,*71
2017-12-29 11:20:36 1514564436.835200: $GPRMC,162037,A,3946.9565,N,08404.9849,W,0.0000,0.000,291217,,*33
2017-12-29 11:20:36 1514564436.835260: $GPGSA,A,3,8,10,15,18,20,21,24,27,32,138,,,1.7,1.0,1.3*3A
2017-12-29 11:20:37 1514564437.460418: $GPZDA,162038.00,29,12,2017,00,00*64
2017-12-29 11:20:37 1514564437.460579: $GPGGA,162038,3946.9565,N,08404.9849,W,1,10,1.00,327.58,M,-33.324,M,,*7E
2017-12-29 11:20:37 1514564437.460644: $GPRMC,162038,A,3946.9565,N,08404.9849,W,0.0000,0.000,291217,,*3C
2017-12-29 11:20:37 1514564437.460705: $GPGSA,A,3,8,10,15,18,20,21,24,27,32,138,,,1.7,1.0,1.3*3A
2017-12-29 11:20:38 1514564438.386300: $GPZDA,162039.00,29,12,2017,00,00*65
2017-12-29 11:20:38 1514564438.386464: $GPGGA,162039,3946.9565,N,08404.9849,W,1,10,1.00,327.58,M,-33.324,M,,*7F
2017-12-29 11:20:38 1514564438.386529: $GPRMC,162039,A,3946.9565,N,08404.9849,W,0.0000,0.000,291217,,*3D
2017-12-29 11:20:38 1514564438.386607: $GPGSA,A,3,8,10,15,18,20,21,24,27,32,138,,,1.7,1.0,1.3*3A
2017-12-29 11:20:39 1514564439.716681: $GPGSV,3,1,12,08,06,322,36,10,42,301,42,15,36,052,45,18,72,340,40*7B
2017-12-29 11:20:39 1514564439.716845: $GPGSV,3,2,12,20,34,096,47,21,62,189,42,24,51,108,45,27,19,288,40*72
2017-12-29 11:20:39 1514564439.716910: $GPGSV,3,3,12,32,22,238,32,13,07,049,00,14,04,232,00,138,38,213,45*49
2017-12-29 11:20:39 1514564439.830405: $GPZDA,162040.00,29,12,2017,00,00*6B
2017-12-29 11:20:39 1514564439.830540: $GPGGA,162040,3946.9565,N,08404.9849,W,1,10,1.00,327.58,M,-33.324,M,,*71
2017-12-29 11:20:39 1514564439.830605: $GPRMC,162040,A,3946.9565,N,08404.9849,W,0.0000,0.000,291217,,*33
2017-12-29 11:20:39 1514564439.830665: $GPGSA,A,3,8,10,15,18,20,21,24,27,32,138,,,1.7,1.0,1.3*3A
2017-12-29 11:20:40 1514564440.386295: $GPZDA,162041.00,29,12,2017,00,00*6A
2017-12-29 11:20:40 1514564440.386453: $GPGGA,162041,3946.9565,N,08404.9849,W,1,10,1.00,327.58,M,-33.324,M,,*70
2017-12-29 11:20:40 1514564440.386519: $GPRMC,162041,A,3946.9565,N,08404.9849,W,0.0000,0.000,291217,,*32
2017-12-29 11:20:40 1514564440.386600: $GPGSA,A,3,8,10,15,18,20,21,24,27,32,138,,,1.7,1.0,1.3*3A
2017-12-29 11:20:41 1514564441.387165: $GPZDA,162042.00,29,12,2017,00,00*69
2017-12-29 11:20:41 1514564441.387323: $GPGGA,162042,3946.9564,N,08404.9842,W,1,10,1.00,327.66,M,-33.324,M,,*74
2017-12-29 11:20:41 1514564441.387441: $GPRMC,162042,A,3946.9564,N,08404.9842,W,0.0000,0.000,291217,,*3B
2017-12-29 11:20:41 1514564441.387502: $GPGSA,A,3,8,10,15,18,20,21,24,27,32,138,,,1.7,1.0,1.3*3A
2017-12-29 11:20:42 1514564442.722092: $GPGSV,3,1,12,08,06,322,36,10,42,301,42,15,36,052,45,18,72,340,40*7B
2017-12-29 11:20:42 1514564442.722259: $GPGSV,3,2,12,20,34,096,47,21,62,189,42,24,51,108,45,27,19,288,40*72
2017-12-29 11:20:42 1514564442.722325: $GPGSV,3,3,12,32,22,238,32,13,07,049,00,14,04,232,00,138,38,213,45*49
2017-12-29 11:20:42 1514564442.835701: $GPZDA,162043.00,29,12,2017,00,00*68
2017-12-29 11:20:42 1514564442.835838: $GPGGA,162043,3946.9564,N,08404.9842,W,1,10,1.00,327.66,M,-33.324,M,,*75
2017-12-29 11:20:42 1514564442.835903: $GPRMC,162043,A,3946.9564,N,08404.9842,W,0.0000,0.000,291217,,*3A
2017-12-29 11:20:42 1514564442.835964: $GPGSA,A,3,8,10,15,18,20,21,24,27,32,138,,,1.7,1.0,1.3*3A
2017-12-29 11:20:43 1514564443.391665: $GPZDA,162044.00,29,12,2017,00,00*6F
2017-12-29 11:20:43 1514564443.395860: $GPGGA,162044,3946.9564,N,08404.9842,W,1,10,1.00,327.66,M,-33.324,M,,*72
2017-12-29 11:20:43 1514564443.395971: $GPRMC,162044,A,3946.9564,N,08404.9842,W,0.0000,0.000,291217,,*3D
2017-12-29 11:20:43 1514564443.396035: $GPGSA,A,3,8,10,15,18,20,21,24,27,32,138,,,1.7,1.0,1.3*3A
2017-12-29 11:20:44 1514564444.386224: $GPZDA,162045.00,29,12,2017,00,00*6E
2017-12-29 11:20:44 1514564444.386392: $GPGGA,162045,3946.9564,N,08404.9842,W,1,10,1.00,327.66,M,-33.324,M,,*73
2017-12-29 11:20:44 1514564444.386457: $GPRMC,162045,A,3946.9564,N,08404.9842,W,0.0000,0.000,291217,,*3C
2017-12-29 11:20:44 1514564444.386517: $GPGSA,A,3,8,10,15,18,20,21,24,27,32,138,,,1.7,1.0,1.3*3A
2017-12-29 11:20:45 1514564445.717922: $GPGSV,3,1,12,08,06,322,36,10,42,301,42,15,36,052,46,18,72,340,41*79
2017-12-29 11:20:45 1514564445.718095: $GPGSV,3,2,12,20,34,096,47,21,62,189,43,24,51,108,45,27,19,288,40*73
2017-12-29 11:20:45 1514564445.718160: $GPGSV,3,3,12,32,22,238,32,14,04,232,06,13,07,049,00,138,38,213,44*4E
2017-12-29 11:20:45 1514564445.831590: $GPZDA,162046.00,29,12,2017,00,00*6D
2017-12-29 11:20:45 1514564445.831740: $GPGGA,162046,3946.9564,N,08404.9842,W,1,10,1.00,327.66,M,-33.324,M,,*70
2017-12-29 11:20:45 1514564445.831806: $GPRMC,162046,A,3946.9564,N,08404.9842,W,0.0000,0.000,291217,,*3F
2017-12-29 11:20:45 1514564445.831866: $GPGSA,A,3,8,10,15,18,20,21,24,27,32,138,,,1.7,1.0,1.3*3A
2017-12-29 11:20:46 1514564446.387422: $GPZDA,162047.00,29,12,2017,00,00*6C
2017-12-29 11:20:46 1514564446.387590: $GPGGA,162047,3946.9564,N,08404.9842,W,1,10,1.00,327.66,M,-33.324,M,,*71
2017-12-29 11:20:46 1514564446.387656: $GPRMC,162047,A,3946.9564,N,08404.9842,W,0.0000,0.000,291217,,*3E
2017-12-29 11:20:46 1514564446.387717: $GPGSA,A,3,8,10,15,18,20,21,24,27,32,138,,,1.7,1.0,1.3*3A
2017-12-29 11:20:47 1514564447.386602: $GPZDA,162048.00,29,12,2017,00,00*63
2017-12-29 11:20:47 1514564447.386764: $GPGGA,162048,3946.9564,N,08404.9842,W,1,10,1.00,327.66,M,-33.324,M,,*7E
2017-12-29 11:20:47 1514564447.386829: $GPRMC,162048,A,3946.9564,N,08404.9842,W,0.0000,0.000,291217,,*31
2017-12-29 11:20:47 1514564447.386890: $GPGSA,A,3,8,10,15,18,20,21,24,27,32,138,,,1.7,1.0,1.3*3A
2017-12-29 11:20:48 1514564448.720801: $GPGSV,3,1,12,08,06,322,36,10,42,301,42,15,36,052,45,18,72,340,41*7A
2017-12-29 11:20:48 1514564448.720958: $GPGSV,3,2,12,20,34,096,47,21,62,189,43,24,51,108,45,27,19,288,40*73
2017-12-29 11:20:48 1514564448.721023: $GPGSV,3,3,12,32,22,238,33,13,07,049,00,14,04,232,00,138,38,213,44*49
2017-12-29 11:20:48 1514564448.834385: $GPZDA,162049.00,29,12,2017,00,00*62
2017-12-29 11:20:48 1514564448.834522: $GPGGA,162049,3946.9564,N,08404.9842,W,1,10,1.00,327.66,M,-33.324,M,,*7F
2017-12-29 11:20:48 1514564448.834587: $GPRMC,162049,A,3946.9564,N,08404.9842,W,0.0000,0.000,291217,,*30
2017-12-29 11:20:48 1514564448.834648: $GPGSA,A,3,8,10,15,18,20,21,24,27,32,138,,,1.7,1.0,1.3*3A
2017-12-29 11:20:49 1514564449.386605: $GPZDA,162050.00,29,12,2017,00,00*6A
2017-12-29 11:20:49 1514564449.386816: $GPGGA,162050,3946.9564,N,08404.9842,W,1,10,1.00,327.66,M,-33.324,M,,*77
2017-12-29 11:20:49 1514564449.386884: $GPRMC,162050,A,3946.9564,N,08404.9842,W,0.0000,0.000,291217,,*38
2017-12-29 11:20:49 1514564449.386944: $GPGSA,A,3,8,10,15,18,20,21,24,27,32,138,,,1.7,1.0,1.3*3A
2017-12-29 11:20:50 1514564450.408728: $GPZDA,162051.00,29,12,2017,00,00*6B
2017-12-29 11:20:50 1514564450.408891: $GPGGA,162051,3946.9561,N,08404.9843,W,1,10,1.00,328.43,M,-33.324,M,,*7A
2017-12-29 11:20:50 1514564450.408955: $GPRMC,162051,A,3946.9561,N,08404.9843,W,0.0000,0.000,291217,,*3D
2017-12-29 11:20:50 1514564450.409015: $GPGSA,A,3,8,10,15,18,20,21,24,27,32,138,,,1.7,1.0,1.3*3A
2017-12-29 11:20:51 1514564451.717932: $GPGSV,3,1,12,08,06,322,36,10,42,301,42,15,36,052,44,18,72,340,40*7A
2017-12-29 11:20:51 1514564451.718101: $GPGSV,3,2,12,20,34,096,47,21,62,189,43,24,51,108,45,27,19,288,39*7D
2017-12-29 11:20:51 1514564451.718166: $GPGSV,3,3,12,32,22,238,33,14,04,232,15,13,07,049,00,138,38,213,44*4D
2017-12-29 11:20:51 1514564451.831609: $GPZDA,162052.00,29,12,2017,00,00*68
2017-12-29 11:20:51 1514564451.831768: $GPGGA,162052,3946.9561,N,08404.9843,W,1,10,1.00,328.43,M,-33.324,M,,*79
2017-12-29 11:20:51 1514564451.831834: $GPRMC,162052,A,3946.9561,N,08404.9843,W,0.0000,0.000,291217,,*3E
2017-12-29 11:20:51 1514564451.831894: $GPGSA,A,3,8,10,15,18,20,21,24,27,32,138,,,1.7,1.0,1.3*3A
2017-12-29 11:20:52 1514564452.456913: $GPZDA,162053.00,29,12,2017,00,00*69
2017-12-29 11:20:52 1514564452.457077: $GPGGA,162053,3946.9561,N,08404.9843,W,1,10,1.00,328.43,M,-33.324,M,,*78
2017-12-29 11:20:52 1514564452.457143: $GPRMC,162053,A,3946.9561,N,08404.9843,W,0.0000,0.000,291217,,*3F
2017-12-29 11:20:52 1514564452.457204: $GPGSA,A,3,8,10,15,18,20,21,24,27,32,138,,,1.7,1.0,1.3*3A
2017-12-29 11:20:53 1514564453.397784: $GPZDA,162054.00,29,12,2017,00,00*6E
2017-12-29 11:20:53 1514564453.397945: $GPGGA,162054,3946.9561,N,08404.9843,W,1,10,1.00,328.43,M,-33.324,M,,*7F
2017-12-29 11:20:53 1514564453.398011: $GPRMC,162054,A,3946.9561,N,08404.9843,W,0.0000,0.000,291217,,*38
2017-12-29 11:20:53 1514564453.398071: $GPGSA,A,3,8,10,15,18,20,21,24,27,32,138,,,1.7,1.0,1.3*3A
2017-12-29 11:20:54 1514564454.739510: $GPGSV,3,1,12,08,06,322,36,10,42,301,42,15,36,052,44,18,72,340,40*7A
2017-12-29 11:20:54 1514564454.739680: $GPGSV,3,2,12,20,34,096,47,21,62,189,42,24,51,108,45,27,19,288,39*7C
2017-12-29 11:20:54 1514564454.739746: $GPGSV,3,3,12,32,22,238,33,14,04,232,19,13,07,049,00,138,38,213,44*41
2017-12-29 11:20:54 1514564454.853242: $GPZDA,162055.00,29,12,2017,00,00*6F
2017-12-29 11:20:54 1514564454.853359: $GPGGA,162055,3946.9561,N,08404.9843,W,1,11,1.00,328.43,M,-33.324,M,,*7F
2017-12-29 11:20:54 1514564454.853423: $GPRMC,162055,A,3946.9561,N,08404.9843,W,0.0000,0.000,291217,,*39
2017-12-29 11:20:54 1514564454.853482: $GPGSA,A,3,8,10,15,18,20,21,24,27,32,14,138,,1.7,1.0,1.3*3F
2017-12-29 11:20:55 1514564455.405333: $GPZDA,162056.00,29,12,2017,00,00*6C
2017-12-29 11:20:55 1514564455.405501: $GPGGA,162056,3946.9561,N,08404.9843,W,1,11,1.00,328.43,M,-33.324,M,,*7C
2017-12-29 11:20:55 1514564455.405567: $GPRMC,162056,A,3946.9561,N,08404.9843,W,0.0000,0.000,291217,,*3A
2017-12-29 11:20:55 1514564455.405628: $GPGSA,A,3,8,10,15,18,20,21,24,27,32,14,138,,1.7,1.0,1.3*3F
2017-12-29 11:20:56 1514564456.386210: $GPZDA,162057.00,29,12,2017,00,00*6D
2017-12-29 11:20:56 1514564456.386380: $GPGGA,162057,3946.9561,N,08404.9843,W,1,11,1.00,328.43,M,-33.324,M,,*7D
2017-12-29 11:20:56 1514564456.386446: $GPRMC,162057,A,3946.9561,N,08404.9843,W,0.0000,0.000,291217,,*3B
2017-12-29 11:20:56 1514564456.386505: $GPGSA,A,3,8,10,15,18,20,21,24,27,32,14,138,,1.7,1.0,1.3*3F
2017-12-29 11:20:57 1514564457.738588: $GPGSV,3,1,12,08,06,322,35,10,42,301,42,15,36,052,44,18,72,340,40*79
2017-12-29 11:20:57 1514564457.738746: $GPGSV,3,2,12,20,34,096,46,21,62,189,42,24,51,108,45,27,19,288,38*7C
2017-12-29 11:20:57 1514564457.738811: $GPGSV,3,3,12,32,22,238,33,14,04,232,19,13,07,049,00,138,38,213,44*41
2017-12-29 11:20:57 1514564457.852344: $GPZDA,162058.00,29,12,2017,00,00*62
2017-12-29 11:20:57 1514564457.852475: $GPGGA,162058,3946.9561,N,08404.9843,W,1,11,1.00,328.43,M,-33.324,M,,*72
2017-12-29 11:20:57 1514564457.852539: $GPRMC,162058,A,3946.9561,N,08404.9843,W,0.0000,0.000,291217,,*34
2017-12-29 11:20:57 1514564457.852598: $GPGSA,A,3,8,10,15,18,20,21,24,27,32,14,138,,1.7,1.0,1.3*3F
2017-12-29 11:20:58 1514564458.386950: $GPZDA,162059.00,29,12,2017,00,00*63
2017-12-29 11:20:58 1514564458.387119: $GPGGA,162059,3946.9561,N,08404.9843,W,1,11,1.00,328.43,M,-33.324,M,,*73
2017-12-29 11:20:58 1514564458.387185: $GPRMC,162059,A,3946.9561,N,08404.9843,W,0.0000,0.000,291217,,*35
2017-12-29 11:20:58 1514564458.387245: $GPGSA,A,3,8,10,15,18,20,21,24,27,32,14,138,,1.7,1.0,1.3*3F
