2018-01-12 20:14:16 1515806056.582261: {"class":"VERSION","release":"3.16","rev":"3.16-4","proto_major":3,"proto_minor":11}
2018-01-12 20:14:16 1515806056.582589: {"class":"DEVICES","devices":[{"class":"DEVICE","path":"/dev/ttyUSB0","driver":"SiRF","subtype":"9\u0006GSD4e_4.1.2-P1_RPATCH.05-F-GPS-4R-1510281 11/03/2015 307","activated":"2018-01-13T01:14:16.334Z","flags":1,"native":1,"bps":4800,"parity":"N","stopbits":1,"cycle":1.00}]}
2018-01-12 20:14:16 1515806056.582701: {"class":"WATCH","enable":true,"json":false,"nmea":true,"raw":0,"scaled":false,"timing":false,"split24":false,"pps":false}
2018-01-12 20:14:17 1515806057.194968: $GPZDA,011418.00,13,01,2018,00,00*63
2018-01-12 20:14:17 1515806057.195132: $GPGGA,011418,3946.9502,N,08404.9475,W,1,06,1.60,329.04,M,-33.324,M,,*79
2018-01-12 20:14:17 1515806057.195198: $GPRMC,011418,A,3946.9502,N,08404.9475,W,1.0150,252.257,130118,,*39
2018-01-12 20:14:17 1515806057.195260: $GPGSA,A,3,8,9,7,27,11,23,,,,,,,4.8,1.6,4.6*09
2018-01-12 20:14:18 1515806058.528648: $GPGSV,3,1,11,08,75,118,24,28,16,261,12,09,45,226,24,07,59,315,20*72
2018-01-12 20:14:18 1515806058.528816: $GPGSV,3,2,11,27,45,051,00,11,23,166,14,23,26,189,16,30,32,307,00*79
2018-01-12 20:14:18 1515806058.528882: $GPGSV,3,3,11,16,20,063,00,01,01,162,00,138,38,213,00*7D
2018-01-12 20:14:18 1515806058.643092: $GPZDA,011419.00,13,01,2018,00,00*62
2018-01-12 20:14:18 1515806058.643520: $GPGGA,011419,3946.9502,N,08404.9469,W,1,06,2.40,330.52,M,-33.324,M,,*7F
2018-01-12 20:14:18 1515806058.643613: $GPRMC,011419,A,3946.9502,N,08404.9469,W,0.5918,234.767,130118,,*33
2018-01-12 20:14:18 1515806058.643678: $GPGSA,A,3,8,28,9,7,11,23,,,,,,,4.8,2.4,4.6*07
2018-01-12 20:14:19 1515806059.193385: $GPZDA,011420.00,13,01,2018,00,00*68
2018-01-12 20:14:19 1515806059.193616: $GPGGA,011420,3946.9499,N,08404.9476,W,1,06,2.40,329.80,M,-33.324,M,,*7F
2018-01-12 20:14:19 1515806059.193685: $GPRMC,011420,A,3946.9499,N,08404.9476,W,1.1862,236.731,130118,,*3C
2018-01-12 20:14:19 1515806059.193747: $GPGSA,A,3,8,28,9,7,11,23,,,,,,,4.8,2.4,4.6*07
2018-01-12 20:14:20 1515806060.191795: $GPZDA,011421.00,13,01,2018,00,00*69
2018-01-12 20:14:20 1515806060.191971: $GPGGA,011421,3946.9499,N,08404.9476,W,1,06,2.40,331.20,M,-33.324,M,,*7D
2018-01-12 20:14:20 1515806060.192039: $GPRMC,011421,A,3946.9499,N,08404.9476,W,0.7382,259.175,130118,,*30
2018-01-12 20:14:20 1515806060.192100: $GPGSA,A,3,8,28,9,7,11,23,,,,,,,4.8,2.4,4.6*07
2018-01-12 20:14:21 1515806061.527975: $GPGSV,3,1,11,08,75,118,24,28,16,261,12,09,45,226,24,07,59,315,20*72
2018-01-12 20:14:21 1515806061.528156: $GPGSV,3,2,11,27,45,051,16,11,23,166,13,23,26,189,16,30,32,307,00*79
2018-01-12 20:14:21 1515806061.528223: $GPGSV,3,3,11,16,20,063,00,01,01,162,00,138,38,213,00*7D
2018-01-12 20:14:21 1515806061.641550: $GPZDA,011422.00,13,01,2018,00,00*6A
2018-01-12 20:14:21 1515806061.641716: $GPGGA,011422,3946.9500,N,08404.9470,W,1,06,2.40,332.69,M,-33.324,M,,*77
2018-01-12 20:14:21 1515806061.641782: $GPRMC,011422,A,3946.9500,N,08404.9470,W,0.4207,219.347,130118,,*3C
2018-01-12 20:14:21 1515806061.641843: $GPGSA,A,3,8,28,9,7,11,23,,,,,,,4.8,2.4,4.6*07
2018-01-12 20:14:22 1515806062.192426: $GPZDA,011423.00,13,01,2018,00,00*6B
2018-01-12 20:14:22 1515806062.192628: $GPGGA,011423,3946.9500,N,08404.9477,W,1,06,2.40,332.61,M,-33.324,M,,*79
2018-01-12 20:14:22 1515806062.192798: $GPRMC,011423,A,3946.9500,N,08404.9477,W,0.5230,256.444,130118,,*30
2018-01-12 20:14:22 1515806062.192863: $GPGSA,A,3,8,28,9,7,11,23,,,,,,,4.8,2.4,4.6*07
2018-01-12 20:14:23 1515806063.192953: $GPZDA,011424.00,13,01,2018,00,00*6C
2018-01-12 20:14:23 1515806063.193123: $GPGGA,011424,3946.9503,N,08404.9476,W,1,06,2.40,330.44,M,-33.324,M,,*79
2018-01-12 20:14:23 1515806063.193255: $GPRMC,011424,A,3946.9503,N,08404.9476,W,0.4949,292.165,130118,,*3F
2018-01-12 20:14:23 1515806063.193318: $GPGSA,A,3,8,28,9,7,11,23,,,,,,,4.8,2.4,4.6*07
2018-01-12 20:14:24 1515806064.528698: $GPGSV,3,1,11,08,75,118,24,28,16,261,11,09,45,226,24,07,59,315,20*71
2018-01-12 20:14:24 1515806064.528880: $GPGSV,3,2,11,27,45,051,19,11,23,166,14,23,26,189,16,30,32,307,00*71
2018-01-12 20:14:24 1515806064.529000: $GPGSV,3,3,11,16,20,063,00,01,01,162,00,138,38,213,00*7D
2018-01-12 20:14:24 1515806064.644472: $GPZDA,011425.00,13,01,2018,00,00*6D
2018-01-12 20:14:24 1515806064.644697: $GPGGA,011425,3946.9499,N,08404.9476,W,1,07,2.40,329.80,M,-33.324,M,,*7B
2018-01-12 20:14:24 1515806064.644780: $GPRMC,011425,A,3946.9499,N,08404.9476,W,0.5287,182.716,130118,,*34
2018-01-12 20:14:24 1515806064.644843: $GPGSA,A,3,8,28,9,7,27,11,23,,,,,,4.8,2.4,4.6*02
2018-01-12 20:14:25 1515806065.192159: $GPZDA,011426.00,13,01,2018,00,00*6E
2018-01-12 20:14:25 1515806065.192331: $GPGGA,011426,3946.9494,N,08404.9475,W,1,07,2.40,327.76,M,-33.324,M,,*71
2018-01-12 20:14:25 1515806065.192418: $GPRMC,011426,A,3946.9494,N,08404.9475,W,1.0574,182.716,130118,,*36
2018-01-12 20:14:25 1515806065.192481: $GPGSA,A,3,8,28,9,7,27,11,23,,,,,,4.8,2.4,4.6*02
2018-01-12 20:14:26 1515806066.192302: $GPZDA,011427.00,13,01,2018,00,00*6F
2018-01-12 20:14:26 1515806066.192508: $GPGGA,011427,3946.9493,N,08404.9481,W,1,07,2.40,326.27,M,-33.324,M,,*79
2018-01-12 20:14:26 1515806066.192596: $GPRMC,011427,A,3946.9493,N,08404.9481,W,1.1548,207.515,130118,,*3A
2018-01-12 20:14:26 1515806066.192658: $GPGSA,A,3,8,28,9,7,27,11,23,,,,,,4.8,2.4,4.6*02
2018-01-12 20:14:27 1515806067.527201: $GPGSV,3,1,11,08,75,118,24,28,16,261,05,09,45,226,25,07,59,315,20*75
2018-01-12 20:14:27 1515806067.527354: $GPGSV,3,2,11,27,45,051,19,11,23,166,14,23,26,189,16,30,32,307,00*71
2018-01-12 20:14:27 1515806067.527441: $GPGSV,3,3,11,16,20,063,00,01,01,162,00,138,38,213,00*7D
2018-01-12 20:14:27 1515806067.640784: $GPZDA,011428.00,13,01,2018,00,00*60
2018-01-12 20:14:27 1515806067.640969: $GPGGA,011428,3946.9493,N,08404.9474,W,1,06,2.40,326.35,M,-33.324,M,,*7E
2018-01-12 20:14:27 1515806067.641037: $GPRMC,011428,A,3946.9493,N,08404.9474,W,1.2439,182.308,130118,,*3F
2018-01-12 20:14:27 1515806067.641099: $GPGSA,A,3,8,9,7,27,11,23,,,,,,,4.8,2.4,4.6*08
2018-01-12 20:14:28 1515806068.191997: $GPZDA,011429.00,13,01,2018,00,00*61
2018-01-12 20:14:28 1515806068.192166: $GPGGA,011429,3946.9496,N,08404.9473,W,1,06,2.40,325.59,M,-33.324,M,,*74
2018-01-12 20:14:28 1515806068.192233: $GPRMC,011429,A,3946.9496,N,08404.9473,W,0.5602,180.000,130118,,*39
2018-01-12 20:14:28 1515806068.192295: $GPGSA,A,3,8,9,7,27,11,23,,,,,,,4.8,2.4,4.6*08
2018-01-12 20:14:29 1515806069.194144: $GPZDA,011430.00,13,01,2018,00,00*69
2018-01-12 20:14:29 1515806069.194316: $GPGGA,011430,3946.9502,N,08404.9464,W,1,06,1.60,322.73,M,-33.324,M,,*78
2018-01-12 20:14:29 1515806069.194384: $GPRMC,011430,A,3946.9502,N,08404.9464,W,0.5616,84.027,130118,,*0E
2018-01-12 20:14:29 1515806069.194446: $GPGSA,A,3,8,9,7,27,11,23,,,,,,,4.8,1.6,4.6*09
2018-01-12 20:14:30 1515806070.529073: $GPGSV,3,1,11,08,75,118,24,28,16,261,08,09,45,226,25,07,59,315,20*78
2018-01-12 20:14:30 1515806070.529258: $GPGSV,3,2,11,27,45,051,19,11,23,166,14,23,26,189,16,30,32,307,00*71
2018-01-12 20:14:30 1515806070.529342: $GPGSV,3,3,11,16,20,063,00,01,01,162,00,138,38,213,00*7D
2018-01-12 20:14:30 1515806070.642827: $GPZDA,011431.00,13,01,2018,00,00*68
2018-01-12 20:14:30 1515806070.642999: $GPGGA,011431,3946.9508,N,08404.9462,W,1,07,1.60,319.80,M,-33.324,M,,*70
2018-01-12 20:14:30 1515806070.643080: $GPRMC,011431,A,3946.9508,N,08404.9462,W,0.6213,69.941,130118,,*0B
2018-01-12 20:14:30 1515806070.643190: $GPGSA,A,3,8,28,9,7,27,11,23,,,,,,4.8,1.6,4.6*03
2018-01-12 20:14:31 1515806071.192612: $GPZDA,011432.00,13,01,2018,00,00*6B
2018-01-12 20:14:31 1515806071.192782: $GPGGA,011432,3946.9509,N,08404.9463,W,1,07,2.40,321.20,M,-33.324,M,,*73
2018-01-12 20:14:31 1515806071.192873: $GPRMC,011432,A,3946.9509,N,08404.9463,W,0.4433,13.063,130118,,*0A
2018-01-12 20:14:31 1515806071.192936: $GPGSA,A,3,8,28,9,7,27,11,23,,,,,,4.8,2.4,4.6*02
2018-01-12 20:14:32 1515806072.193064: $GPZDA,011433.00,13,01,2018,00,00*6A
2018-01-12 20:14:32 1515806072.193281: $GPGGA,011433,3946.9509,N,08404.9457,W,1,07,2.40,322.69,M,-33.324,M,,*7B
2018-01-12 20:14:32 1515806072.193350: $GPRMC,011433,A,3946.9509,N,08404.9457,W,0.8131,100.223,130118,,*32
2018-01-12 20:14:32 1515806072.193465: $GPGSA,A,3,8,28,9,7,27,11,23,,,,,,4.8,2.4,4.6*02
2018-01-12 20:14:33 1515806073.528889: $GPGSV,3,1,11,08,75,118,24,28,16,261,09,09,45,226,25,07,59,315,20*79
2018-01-12 20:14:33 1515806073.529075: $GPGSV,3,2,11,27,45,051,17,11,23,166,15,23,26,189,16,30,32,307,00*7E
2018-01-12 20:14:33 1515806073.529140: $GPGSV,3,3,11,16,20,063,00,01,01,162,00,138,38,213,00*7D
2018-01-12 20:14:33 1515806073.642311: $GPZDA,011434.00,13,01,2018,00,00*6D
2018-01-12 20:14:33 1515806073.642481: $GPGGA,011434,3946.9510,N,08404.9464,W,1,07,2.40,322.61,M,-33.324,M,,*7C
2018-01-12 20:14:33 1515806073.642547: $GPRMC,011434,A,3946.9510,N,08404.9464,W,0.1176,39.708,130118,,*00
2018-01-12 20:14:33 1515806073.642608: $GPGSA,A,3,8,28,9,7,27,11,23,,,,,,4.8,2.4,4.6*02
2018-01-12 20:14:34 1515806074.208198: $GPZDA,011435.00,13,01,2018,00,00*6C
2018-01-12 20:14:34 1515806074.208376: $GPGGA,011435,3946.9513,N,08404.9463,W,1,07,2.40,321.84,M,-33.324,M,,*71
2018-01-12 20:14:34 1515806074.208444: $GPRMC,011435,A,3946.9513,N,08404.9463,W,0.5121,307.149,130118,,*3E
2018-01-12 20:14:34 1515806074.208505: $GPGSA,A,3,8,28,9,7,27,11,23,,,,,,4.8,2.4,4.6*02
2018-01-12 20:14:35 1515806075.208368: $GPZDA,011436.00,13,01,2018,00,00*6F
2018-01-12 20:14:35 1515806075.208556: $GPGGA,011436,3946.9510,N,08404.9471,W,1,07,2.40,322.53,M,-33.324,M,,*7B
2018-01-12 20:14:35 1515806075.208626: $GPRMC,011436,A,3946.9510,N,08404.9471,W,0.9049,279.838,130118,,*39
2018-01-12 20:14:35 1515806075.208688: $GPGSA,A,3,8,28,9,7,27,11,23,,,,,,4.8,2.4,4.6*02
2018-01-12 20:14:36 1515806076.544758: $GPGSV,3,1,11,08,75,118,24,28,16,261,08,09,45,226,25,07,59,315,20*78
2018-01-12 20:14:36 1515806076.544962: $GPGSV,3,2,11,27,45,051,16,11,23,166,15,23,26,189,16,30,32,307,00*7F
2018-01-12 20:14:36 1515806076.545029: $GPGSV,3,3,11,16,20,063,00,01,01,162,00,138,38,213,00*7D
