2017-11-15 18:28:55 1510788535.342116: {"class":"VERSION","release":"3.17","rev":"3.17","proto_major":3,"proto_minor":12}
2017-11-15 18:28:55 1510788535.350583: {"class":"DEVICES","devices":[{"class":"DEVICE","path":"/dev/ttyUSB0","driver":"SiRF","subtype":"9\u0006GSD4e_4.1.2-P1_RPATCH.05-F-GPS-4R-1510281 11/03/2015 307","activated":"2017-11-15T23:28:55.245Z","flags":1,"native":1,"bps":4800,"parity":"N","stopbits":1,"cycle":1.00}]}
2017-11-15 18:28:55 1510788535.350759: {"class":"WATCH","enable":true,"json":false,"nmea":true,"raw":0,"scaled":false,"timing":false,"split24":false,"pps":false}
2017-11-15 18:28:55 1510788535.358792: $GPZDA,232854.00,15,11,2017,00,00*6C
2017-11-15 18:28:55 1510788535.358906: $GPGGA,232854,3946.9610,N,08404.9592,W,1,06,3.00,291.04,M,-33.324,M,,*70
2017-11-15 18:28:55 1510788535.358966: $GPRMC,232854,A,3946.9610,N,08404.9592,W,0.3423,4.197,151117,,*33
2017-11-15 18:28:55 1510788535.359020: $GPGSA,A,3,10,14,25,26,31,32,,,,,,,3.4,3.0,2.9*39
2017-11-15 18:28:56 1510788536.330774: $GPZDA,232855.00,15,11,2017,00,00*6D
2017-11-15 18:28:56 1510788536.330935: $GPGGA,232855,3946.9610,N,08404.9592,W,1,06,3.00,291.04,M,-33.324,M,,*71
2017-11-15 18:28:56 1510788536.330995: $GPRMC,232855,A,3946.9610,N,08404.9592,W,0.4844,93.794,151117,,*03
2017-11-15 18:28:56 1510788536.331050: $GPGSA,A,3,10,14,25,26,31,32,,,,,,,3.4,3.0,2.9*39
2017-11-15 18:28:57 1510788537.663793: $GPGSV,3,1,11,10,24,156,13,14,69,034,21,25,36,058,12,26,23,178,17*73
2017-11-15 18:28:57 1510788537.663958: $GPGSV,3,2,11,31,77,270,23,32,57,076,20,03,19,316,15,22,38,304,04*7D
2017-11-15 18:28:57 1510788537.664017: $GPGSV,3,3,11,01,19,276,00,12,08,033,00,120,07,103,00*7E
2017-11-15 18:28:57 1510788537.777456: $GPZDA,232856.00,15,11,2017,00,00*6E
2017-11-15 18:28:57 1510788537.777615: $GPGGA,232856,3946.9610,N,08404.9592,W,1,06,3.00,291.04,M,-33.324,M,,*72
2017-11-15 18:28:57 1510788537.777675: $GPRMC,232856,A,3946.9610,N,08404.9592,W,0.2422,273.794,151117,,*36
2017-11-15 18:28:57 1510788537.777730: $GPGSA,A,3,10,14,25,26,31,32,,,,,,,3.4,3.0,2.9*39
2017-11-15 18:28:58 1510788538.359158: $GPZDA,232857.00,15,11,2017,00,00*6F
2017-11-15 18:28:58 1510788538.359340: $GPGGA,232857,3946.9610,N,08404.9592,W,1,06,1.20,291.04,M,-33.324,M,,*73
2017-11-15 18:28:58 1510788538.359403: $GPRMC,232857,A,3946.9610,N,08404.9592,W,0.0000,0.000,151117,,*3D
2017-11-15 18:28:58 1510788538.359463: $GPGSA,A,3,10,14,25,26,31,32,,,,,,,3.4,1.2,2.9*39
2017-11-15 18:28:59 1510788539.358813: $GPZDA,232858.00,15,11,2017,00,00*60
2017-11-15 18:28:59 1510788539.358976: $GPGGA,232858,3946.9605,N,08404.9592,W,1,06,1.20,290.40,M,-33.324,M,,*79
2017-11-15 18:28:59 1510788539.359039: $GPRMC,232858,A,3946.9605,N,08404.9592,W,0.4179,148.778,151117,,*38
2017-11-15 18:28:59 1510788539.359097: $GPGSA,A,3,10,14,25,26,31,32,,,,,,,3.4,1.2,2.9*39
2017-11-15 18:29:00 1510788540.694596: $GPGSV,3,1,11,10,24,156,13,14,69,034,21,25,36,058,12,26,23,178,17*73
2017-11-15 18:29:00 1510788540.694784: $GPGSV,3,2,11,31,77,270,22,32,57,076,20,03,19,316,14,22,38,304,12*7A
2017-11-15 18:29:00 1510788540.694848: $GPGSV,3,3,11,01,19,276,00,12,08,033,00,120,07,103,00*7E
2017-11-15 18:29:00 1510788540.807912: $GPZDA,232859.00,15,11,2017,00,00*61
2017-11-15 18:29:00 1510788540.808064: $GPGGA,232859,3946.9605,N,08404.9592,W,1,07,1.20,290.40,M,-33.324,M,,*79
2017-11-15 18:29:00 1510788540.808128: $GPRMC,232859,A,3946.9605,N,08404.9592,W,0.7621,107.945,151117,,*3B
2017-11-15 18:29:00 1510788540.808186: $GPGSA,A,3,10,14,25,26,31,32,22,,,,,,3.4,1.2,2.9*39
2017-11-15 18:29:01 1510788541.433552: $GPZDA,232900.00,15,11,2017,00,00*6C
2017-11-15 18:29:01 1510788541.433728: $GPGGA,232900,3946.9605,N,08404.9585,W,1,07,1.20,290.48,M,-33.324,M,,*7A
2017-11-15 18:29:01 1510788541.433792: $GPRMC,232900,A,3946.9605,N,08404.9585,W,0.9689,93.794,151117,,*02
2017-11-15 18:29:01 1510788541.433851: $GPGSA,A,3,10,14,25,26,31,32,22,,,,,,3.4,1.2,2.9*39
2017-11-15 18:29:02 1510788542.359101: $GPZDA,232901.00,15,11,2017,00,00*6D
2017-11-15 18:29:02 1510788542.359316: $GPGGA,232901,3946.9605,N,08404.9585,W,1,07,1.20,290.48,M,-33.324,M,,*7B
2017-11-15 18:29:02 1510788542.359455: $GPRMC,232901,A,3946.9605,N,08404.9585,W,1.3305,117.203,151117,,*3F
2017-11-15 18:29:02 1510788542.359515: $GPGSA,A,3,10,14,25,26,31,32,22,,,,,,3.4,1.2,2.9*39
2017-11-15 18:29:03 1510788543.663709: $GPGSV,3,1,11,10,24,156,13,14,69,034,21,25,36,058,12,26,23,178,17*73
2017-11-15 18:29:03 1510788543.663875: $GPGSV,3,2,11,31,77,270,22,32,57,076,20,01,19,276,11,22,38,304,12*7A
2017-11-15 18:29:03 1510788543.663934: $GPGSV,3,3,11,03,19,316,00,12,08,033,00,120,07,103,00*7B
2017-11-15 18:29:03 1510788543.777284: $GPZDA,232902.00,15,11,2017,00,00*6E
2017-11-15 18:29:03 1510788543.777437: $GPGGA,232902,3946.9605,N,08404.9578,W,1,07,3.00,290.56,M,-33.324,M,,*75
2017-11-15 18:29:03 1510788543.777499: $GPRMC,232902,A,3946.9605,N,08404.9578,W,1.1124,122.165,151117,,*38
2017-11-15 18:29:03 1510788543.777554: $GPGSA,A,3,10,14,25,26,31,32,22,,,,,,3.4,3.0,2.9*39
2017-11-15 18:29:04 1510788544.327941: $GPZDA,232903.00,15,11,2017,00,00*6F
2017-11-15 18:29:04 1510788544.328108: $GPGGA,232903,3946.9601,N,08404.9578,W,1,07,1.20,289.92,M,-33.324,M,,*70
2017-11-15 18:29:04 1510788544.328190: $GPRMC,232903,A,3946.9601,N,08404.9578,W,0.9988,104.546,151117,,*3B
2017-11-15 18:29:04 1510788544.328248: $GPGSA,A,3,10,14,25,26,31,32,22,,,,,,3.4,1.2,2.9*39
