2017-11-16 14:53:37 1510862017.815739: {"class":"VERSION","release":"3.17","rev":"3.17","proto_major":3,"proto_minor":12}
2017-11-16 14:53:37 1510862017.816237: {"class":"DEVICES","devices":[{"class":"DEVICE","path":"/dev/ttyUSB0","driver":"SiRF","subtype":"9\u0006GSD4e_4.1.2-P1_RPATCH.05-F-GPS-4R-1510281 11/03/2015 307","activated":"2017-11-16T19:53:37.633Z","flags":1,"native":1,"bps":4800,"parity":"N","stopbits":1,"cycle":1.00}]}
2017-11-16 14:53:37 1510862017.816375: {"class":"WATCH","enable":true,"json":false,"nmea":true,"raw":0,"scaled":false,"timing":false,"split24":false,"pps":false}
2017-11-16 14:53:38 1510862018.486645: $GPZDA,195337.00,16,11,2017,00,00*6F
2017-11-16 14:53:38 1510862018.486812: $GPGGA,195337,3946.9572,N,08404.9848,W,2,11,0.80,302.54,M,-33.324,M,,*7D
2017-11-16 14:53:38 1510862018.486874: $GPRMC,195337,A,3946.9572,N,08404.9848,W,0.0000,0.000,161117,,*30
2017-11-16 14:53:38 1510862018.486930: $GPGSA,A,3,8,10,15,18,21,20,24,27,32,14,138,,1.6,0.8,1.3*37
2017-11-16 14:53:39 1510862019.826919: $GPGSV,3,1,11,08,08,306,34,10,56,315,50,15,22,058,50,18,77,040,44*78
2017-11-16 14:53:39 1510862019.827088: $GPGSV,3,2,11,21,45,183,47,20,19,109,45,24,52,079,49,27,14,271,41*73
2017-11-16 14:53:39 1510862019.827149: $GPGSV,3,3,11,32,35,252,46,14,18,243,41,138,38,213,44*74
2017-11-16 14:53:39 1510862019.940221: $GPZDA,195338.00,16,11,2017,00,00*60
2017-11-16 14:53:39 1510862019.940545: $GPGGA,195338,3946.9572,N,08404.9848,W,2,11,0.80,302.54,M,-33.324,M,,*72
2017-11-16 14:53:39 1510862019.940669: $GPRMC,195338,A,3946.9572,N,08404.9848,W,0.0000,0.000,161117,,*3F
2017-11-16 14:53:39 1510862019.940767: $GPGSA,A,3,8,10,15,18,21,20,24,27,32,14,138,,1.6,0.8,1.3*37
2017-11-16 14:53:40 1510862020.491181: $GPZDA,195339.00,16,11,2017,00,00*61
2017-11-16 14:53:40 1510862020.491369: $GPGGA,195339,3946.9572,N,08404.9848,W,2,11,0.80,302.54,M,-33.324,M,,*73
2017-11-16 14:53:40 1510862020.491432: $GPRMC,195339,A,3946.9572,N,08404.9848,W,0.0000,0.000,161117,,*3E
2017-11-16 14:53:40 1510862020.491506: $GPGSA,A,3,8,10,15,18,21,20,24,27,32,14,138,,1.6,0.8,1.3*37
2017-11-16 14:53:41 1510862021.490947: $GPZDA,195340.00,16,11,2017,00,00*6F
2017-11-16 14:53:41 1510862021.491116: $GPGGA,195340,3946.9572,N,08404.9848,W,2,11,0.80,302.54,M,-33.324,M,,*7D
2017-11-16 14:53:41 1510862021.491177: $GPRMC,195340,A,3946.9572,N,08404.9848,W,0.0000,0.000,161117,,*30
2017-11-16 14:53:41 1510862021.491233: $GPGSA,A,3,8,10,15,18,21,20,24,27,32,14,138,,1.6,0.8,1.3*37
2017-11-16 14:53:42 1510862022.821630: $GPGSV,3,1,11,08,08,306,34,10,56,315,50,15,22,058,50,18,77,040,44*78
2017-11-16 14:53:42 1510862022.821930: $GPGSV,3,2,11,21,45,183,47,20,19,109,45,24,52,079,49,27,14,271,41*73
2017-11-16 14:53:42 1510862022.822048: $GPGSV,3,3,11,32,35,252,46,14,18,243,42,138,38,213,43*70
2017-11-16 14:53:42 1510862022.934982: $GPZDA,195341.00,16,11,2017,00,00*6E
2017-11-16 14:53:42 1510862022.935162: $GPGGA,195341,3946.9572,N,08404.9848,W,2,11,0.80,302.54,M,-33.324,M,,*7C
2017-11-16 14:53:42 1510862022.935223: $GPRMC,195341,A,3946.9572,N,08404.9848,W,0.0000,0.000,161117,,*31
2017-11-16 14:53:42 1510862022.935279: $GPGSA,A,3,8,10,15,18,21,20,24,27,32,14,138,,1.6,0.8,1.3*37
2017-11-16 14:53:43 1510862023.492135: $GPZDA,195342.00,16,11,2017,00,00*6D
2017-11-16 14:53:43 1510862023.492316: $GPGGA,195342,3946.9572,N,08404.9848,W,2,11,0.80,302.54,M,-33.324,M,,*7F
2017-11-16 14:53:43 1510862023.492380: $GPRMC,195342,A,3946.9572,N,08404.9848,W,0.0000,0.000,161117,,*32
2017-11-16 14:53:43 1510862023.492439: $GPGSA,A,3,8,10,15,18,21,20,24,27,32,14,138,,1.6,0.8,1.3*37
2017-11-16 14:53:44 1510862024.493788: $GPZDA,195343.00,16,11,2017,00,00*6C
2017-11-16 14:53:44 1510862024.493965: $GPGGA,195343,3946.9572,N,08404.9848,W,2,11,0.80,302.54,M,-33.324,M,,*7E
2017-11-16 14:53:44 1510862024.494028: $GPRMC,195343,A,3946.9572,N,08404.9848,W,0.0000,0.000,161117,,*33
2017-11-16 14:53:44 1510862024.494086: $GPGSA,A,3,8,10,15,18,21,20,24,27,32,14,138,,1.6,0.8,1.3*37
2017-11-16 14:53:45 1510862025.826928: $GPGSV,3,1,11,08,08,306,34,10,56,315,50,15,22,058,50,18,77,040,44*78
2017-11-16 14:53:45 1510862025.827166: $GPGSV,3,2,11,21,45,183,47,20,19,109,45,24,52,079,48,27,14,271,41*72
2017-11-16 14:53:45 1510862025.827231: $GPGSV,3,3,11,32,35,252,46,14,18,243,42,138,38,213,43*70
2017-11-16 14:53:45 1510862025.940539: $GPZDA,195344.00,16,11,2017,00,00*6B
2017-11-16 14:53:45 1510862025.940704: $GPGGA,195344,3946.9572,N,08404.9848,W,2,11,0.80,302.54,M,-33.324,M,,*79
2017-11-16 14:53:45 1510862025.940766: $GPRMC,195344,A,3946.9572,N,08404.9848,W,0.0000,0.000,161117,,*34
2017-11-16 14:53:45 1510862025.940823: $GPGSA,A,3,8,10,15,18,21,20,24,27,32,14,138,,1.6,0.8,1.3*37
2017-11-16 14:53:46 1510862026.491417: $GPZDA,195345.00,16,11,2017,00,00*6A
2017-11-16 14:53:46 1510862026.491599: $GPGGA,195345,3946.9572,N,08404.9848,W,2,11,0.80,302.54,M,-33.324,M,,*78
2017-11-16 14:53:46 1510862026.491661: $GPRMC,195345,A,3946.9572,N,08404.9848,W,0.0000,0.000,161117,,*35
2017-11-16 14:53:46 1510862026.491719: $GPGSA,A,3,8,10,15,18,21,20,24,27,32,14,138,,1.6,0.8,1.3*37
2017-11-16 14:53:47 1510862027.492311: $GPZDA,195346.00,16,11,2017,00,00*69
2017-11-16 14:53:47 1510862027.492505: $GPGGA,195346,3946.9572,N,08404.9848,W,2,11,0.80,302.54,M,-33.324,M,,*7B
2017-11-16 14:53:47 1510862027.492572: $GPRMC,195346,A,3946.9572,N,08404.9848,W,0.0000,0.000,161117,,*36
2017-11-16 14:53:47 1510862027.492631: $GPGSA,A,3,8,10,15,18,21,20,24,27,32,14,138,,1.6,0.8,1.3*37
