2017-12-01 14:25:34 1512156334.716770: {"class":"VERSION","release":"3.16","rev":"3.16-4","proto_major":3,"proto_minor":11}
2017-12-01 14:25:34 1512156334.717156: {"class":"DEVICES","devices":[{"class":"DEVICE","path":"/dev/ttyUSB0","driver":"SiRF","subtype":"9\u0006GSD4e_4.1.2-P1_RPATCH.05-F-GPS-4R-1510281 11/03/2015 307","activated":"2017-12-01T19:25:34.582Z","flags":1,"native":1,"bps":4800,"parity":"N","stopbits":1,"cycle":1.00}]}
2017-12-01 14:25:34 1512156334.717277: {"class":"WATCH","enable":true,"json":false,"nmea":true,"raw":0,"scaled":false,"timing":false,"split24":false,"pps":false}
2017-12-01 14:25:35 1512156335.440175: $GPZDA,192536.00,01,12,2017,00,00*6A
2017-12-01 14:25:35 1512156335.440351: $GPGGA,192536,3946.9542,N,08404.9843,W,2,12,0.80,313.79,M,-33.324,M,,*79
2017-12-01 14:25:35 1512156335.440418: $GPRMC,192536,A,3946.9542,N,08404.9843,W,0.0000,0.000,011217,,*3D
2017-12-01 14:25:35 1512156335.440480: $GPGSA,A,3,8,10,14,18,21,24,32,15,12,20,27,138,2.0,0.8,1.5*37
2017-12-01 14:25:36 1512156336.743311: $GPGSV,3,1,12,08,05,294,32,10,70,331,48,14,29,253,40,18,70,096,45*7E
2017-12-01 14:25:36 1512156336.747971: $GPGSV,3,2,12,21,28,178,46,24,44,058,48,32,47,267,46,15,11,067,24*79
2017-12-01 14:25:36 1512156336.748072: $GPGSV,3,3,12,12,10,106,29,20,08,118,28,27,06,259,23,138,38,213,46*43
2017-12-01 14:25:36 1512156336.857110: $GPZDA,192537.00,01,12,2017,00,00*6B
2017-12-01 14:25:36 1512156336.857280: $GPGGA,192537,3946.9542,N,08404.9843,W,2,12,0.80,313.79,M,-33.324,M,,*78
2017-12-01 14:25:36 1512156336.857346: $GPRMC,192537,A,3946.9542,N,08404.9843,W,0.0000,0.000,011217,,*3C
2017-12-01 14:25:36 1512156336.857408: $GPGSA,A,3,8,10,14,18,21,24,32,15,12,20,27,138,2.0,0.8,1.5*37
2017-12-01 14:25:37 1512156337.482388: $GPZDA,192538.00,01,12,2017,00,00*64
2017-12-01 14:25:37 1512156337.482559: $GPGGA,192538,3946.9542,N,08404.9843,W,2,12,0.80,313.79,M,-33.324,M,,*77
2017-12-01 14:25:37 1512156337.482625: $GPRMC,192538,A,3946.9542,N,08404.9843,W,0.0000,0.000,011217,,*33
2017-12-01 14:25:37 1512156337.482686: $GPGSA,A,3,8,10,14,18,21,24,32,15,12,20,27,138,2.0,0.8,1.5*37
2017-12-01 14:25:38 1512156338.445729: $GPZDA,192539.00,01,12,2017,00,00*65
2017-12-01 14:25:38 1512156338.445901: $GPGGA,192539,3946.9542,N,08404.9843,W,2,12,0.80,313.79,M,-33.324,M,,*76
2017-12-01 14:25:38 1512156338.445969: $GPRMC,192539,A,3946.9542,N,08404.9843,W,0.0000,0.000,011217,,*32
2017-12-01 14:25:38 1512156338.446030: $GPGSA,A,3,8,10,14,18,21,24,32,15,12,20,27,138,2.0,0.8,1.5*37
2017-12-01 14:25:39 1512156339.776170: $GPGSV,3,1,12,08,05,294,32,10,70,331,48,14,29,253,40,18,70,096,45*7E
2017-12-01 14:25:39 1512156339.776349: $GPGSV,3,2,12,21,28,178,46,24,44,058,48,32,47,267,46,15,11,067,24*79
2017-12-01 14:25:39 1512156339.776418: $GPGSV,3,3,12,12,10,106,29,20,08,118,28,27,06,259,20,138,38,213,47*41
2017-12-01 14:25:39 1512156339.889973: $GPZDA,192540.00,01,12,2017,00,00*6B
2017-12-01 14:25:39 1512156339.890139: $GPGGA,192540,3946.9542,N,08404.9843,W,2,12,0.80,313.79,M,-33.324,M,,*78
2017-12-01 14:25:39 1512156339.890204: $GPRMC,192540,A,3946.9542,N,08404.9843,W,0.0000,0.000,011217,,*3C
2017-12-01 14:25:39 1512156339.890266: $GPGSA,A,3,8,10,14,18,21,24,32,15,12,20,27,138,2.0,0.8,1.5*37
2017-12-01 14:25:40 1512156340.440840: $GPZDA,192541.00,01,12,2017,00,00*6A
2017-12-01 14:25:40 1512156340.440997: $GPGGA,192541,3946.9542,N,08404.9843,W,2,12,0.80,313.79,M,-33.324,M,,*79
2017-12-01 14:25:40 1512156340.441064: $GPRMC,192541,A,3946.9542,N,08404.9843,W,0.0000,0.000,011217,,*3D
2017-12-01 14:25:40 1512156340.441125: $GPGSA,A,3,8,10,14,18,21,24,32,15,12,20,27,138,2.0,0.8,1.5*37
2017-12-01 14:25:41 1512156341.407854: $GPZDA,192542.00,01,12,2017,00,00*69
2017-12-01 14:25:41 1512156341.408024: $GPGGA,192542,3946.9542,N,08404.9843,W,2,12,0.80,313.79,M,-33.324,M,,*7A
2017-12-01 14:25:41 1512156341.408092: $GPRMC,192542,A,3946.9542,N,08404.9843,W,0.0000,0.000,011217,,*3E
2017-12-01 14:25:41 1512156341.408153: $GPGSA,A,3,8,10,14,18,21,24,32,15,12,20,27,138,2.0,0.8,1.5*37
2017-12-01 14:25:42 1512156342.745292: $GPGSV,3,1,12,08,05,294,21,10,70,331,48,14,29,253,40,18,70,096,44*7D
2017-12-01 14:25:42 1512156342.745529: $GPGSV,3,2,12,21,28,178,46,24,44,058,48,32,47,267,46,15,11,067,26*7B
2017-12-01 14:25:42 1512156342.745598: $GPGSV,3,3,12,12,10,106,30,20,08,118,29,27,06,259,20,138,38,213,47*48
2017-12-01 14:25:42 1512156342.858706: $GPZDA,192543.00,01,12,2017,00,00*68
2017-12-01 14:25:42 1512156342.858889: $GPGGA,192543,3946.9542,N,08404.9843,W,2,12,0.80,313.79,M,-33.324,M,,*7B
2017-12-01 14:25:42 1512156342.858958: $GPRMC,192543,A,3946.9542,N,08404.9843,W,0.0000,0.000,011217,,*3F
2017-12-01 14:25:42 1512156342.859018: $GPGSA,A,3,8,10,14,18,21,24,32,15,12,20,27,138,2.0,0.8,1.5*37
2017-12-01 14:25:43 1512156343.407073: $GPZDA,192544.00,01,12,2017,00,00*6F
2017-12-01 14:25:43 1512156343.407250: $GPGGA,192544,3946.9542,N,08404.9843,W,2,12,0.80,313.79,M,-33.324,M,,*7C
2017-12-01 14:25:43 1512156343.407316: $GPRMC,192544,A,3946.9542,N,08404.9843,W,0.0000,0.000,011217,,*38
2017-12-01 14:25:43 1512156343.407377: $GPGSA,A,3,8,10,14,18,21,24,32,15,12,20,27,138,2.0,0.8,1.5*37
2017-12-01 14:25:44 1512156344.405493: $GPZDA,192545.00,01,12,2017,00,00*6E
2017-12-01 14:25:44 1512156344.405677: $GPGGA,192545,3946.9543,N,08404.9850,W,2,12,0.80,313.71,M,-33.324,M,,*76
2017-12-01 14:25:44 1512156344.405749: $GPRMC,192545,A,3946.9543,N,08404.9850,W,0.0000,0.000,011217,,*3A
2017-12-01 14:25:44 1512156344.405810: $GPGSA,A,3,8,10,14,18,21,24,32,15,12,20,27,138,2.0,0.8,1.5*37
2017-12-01 14:25:45 1512156345.742407: $GPGSV,3,1,12,08,05,294,33,10,70,331,48,14,29,253,39,18,70,096,44*70
2017-12-01 14:25:45 1512156345.742610: $GPGSV,3,2,12,21,28,178,46,24,44,058,48,32,47,267,46,15,11,067,27*7A
2017-12-01 14:25:45 1512156345.742680: $GPGSV,3,3,12,12,10,106,30,20,08,118,29,27,06,259,20,138,38,213,47*48
2017-12-01 14:25:45 1512156345.855770: $GPZDA,192546.00,01,12,2017,00,00*6D
2017-12-01 14:25:45 1512156345.855943: $GPGGA,192546,3946.9543,N,08404.9850,W,2,12,0.80,313.71,M,-33.324,M,,*75
2017-12-01 14:25:45 1512156345.856010: $GPRMC,192546,A,3946.9543,N,08404.9850,W,0.0000,0.000,011217,,*39
2017-12-01 14:25:45 1512156345.856093: $GPGSA,A,3,8,10,14,18,21,24,32,15,12,20,27,138,2.0,0.8,1.5*37
2017-12-01 14:25:46 1512156346.407042: $GPZDA,192547.00,01,12,2017,00,00*6C
2017-12-01 14:25:46 1512156346.407215: $GPGGA,192547,3946.9543,N,08404.9850,W,2,12,0.80,313.71,M,-33.324,M,,*74
2017-12-01 14:25:46 1512156346.407283: $GPRMC,192547,A,3946.9543,N,08404.9850,W,0.0000,0.000,011217,,*38
2017-12-01 14:25:46 1512156346.407345: $GPGSA,A,3,8,10,14,18,21,24,32,15,12,20,27,138,2.0,0.8,1.5*37
2017-12-01 14:25:47 1512156347.405808: $GPZDA,192548.00,01,12,2017,00,00*63
2017-12-01 14:25:47 1512156347.405997: $GPGGA,192548,3946.9543,N,08404.9850,W,2,12,0.80,313.71,M,-33.324,M,,*7B
2017-12-01 14:25:47 1512156347.406067: $GPRMC,192548,A,3946.9543,N,08404.9850,W,0.0000,0.000,011217,,*37
2017-12-01 14:25:47 1512156347.406128: $GPGSA,A,3,8,10,14,18,21,24,32,15,12,20,27,138,2.0,0.8,1.5*37
2017-12-01 14:25:48 1512156348.736497: $GPGSV,3,1,12,08,05,294,34,10,70,331,48,14,29,253,39,18,70,096,44*77
2017-12-01 14:25:48 1512156348.736708: $GPGSV,3,2,12,21,28,178,46,24,44,058,48,32,47,267,45,15,11,067,28*76
2017-12-01 14:25:48 1512156348.736778: $GPGSV,3,3,12,12,10,106,31,20,08,118,29,27,06,259,20,138,38,213,48*46
2017-12-01 14:25:48 1512156348.848900: $GPZDA,192549.00,01,12,2017,00,00*62
2017-12-01 14:25:48 1512156348.849078: $GPGGA,192549,3946.9543,N,08404.9850,W,2,12,0.80,313.71,M,-33.324,M,,*7A
2017-12-01 14:25:48 1512156348.849146: $GPRMC,192549,A,3946.9543,N,08404.9850,W,0.0000,0.000,011217,,*36
2017-12-01 14:25:48 1512156348.849208: $GPGSA,A,3,8,10,14,18,21,24,32,15,12,20,27,138,2.0,0.8,1.5*37
2017-12-01 14:25:49 1512156349.411047: $GPZDA,192550.00,01,12,2017,00,00*6A
2017-12-01 14:25:49 1512156349.411221: $GPGGA,192550,3946.9543,N,08404.9850,W,2,12,0.80,313.71,M,-33.324,M,,*72
2017-12-01 14:25:49 1512156349.411288: $GPRMC,192550,A,3946.9543,N,08404.9850,W,0.0000,0.000,011217,,*3E
2017-12-01 14:25:49 1512156349.411441: $GPGSA,A,3,8,10,14,18,21,24,32,15,12,20,27,138,2.0,0.8,1.5*37
2017-12-01 14:25:50 1512156350.408158: $GPZDA,192551.00,01,12,2017,00,00*6B
2017-12-01 14:25:50 1512156350.408321: $GPGGA,192551,3946.9543,N,08404.9850,W,2,12,0.80,313.71,M,-33.324,M,,*73
2017-12-01 14:25:50 1512156350.408388: $GPRMC,192551,A,3946.9543,N,08404.9850,W,0.0000,0.000,011217,,*3F
2017-12-01 14:25:50 1512156350.408451: $GPGSA,A,3,8,10,14,18,21,24,32,15,12,20,27,138,2.0,0.8,1.5*37
2017-12-01 14:25:51 1512156351.741229: $GPGSV,3,1,12,08,05,294,27,10,70,331,48,14,29,253,40,18,70,096,44*7B
2017-12-01 14:25:51 1512156351.741534: $GPGSV,3,2,12,21,28,178,46,24,44,058,49,32,47,267,45,15,11,067,28*77
2017-12-01 14:25:51 1512156351.741626: $GPGSV,3,3,12,12,10,106,31,20,08,118,28,27,06,259,20,138,38,213,47*48
2017-12-01 14:25:51 1512156351.854945: $GPZDA,192552.00,01,12,2017,00,00*68
2017-12-01 14:25:51 1512156351.855117: $GPGGA,192552,3946.9543,N,08404.9850,W,2,12,0.80,313.71,M,-33.324,M,,*70
2017-12-01 14:25:51 1512156351.855185: $GPRMC,192552,A,3946.9543,N,08404.9850,W,0.0000,0.000,011217,,*3C
2017-12-01 14:25:51 1512156351.855247: $GPGSA,A,3,8,10,14,18,21,24,32,15,12,20,27,138,2.0,0.8,1.5*37
2017-12-01 14:25:52 1512156352.479962: $GPZDA,192553.00,01,12,2017,00,00*69
2017-12-01 14:25:52 1512156352.480135: $GPGGA,192553,3946.9543,N,08404.9850,W,2,12,0.80,313.71,M,-33.324,M,,*71
2017-12-01 14:25:52 1512156352.480204: $GPRMC,192553,A,3946.9543,N,08404.9850,W,0.0000,0.000,011217,,*3D
2017-12-01 14:25:52 1512156352.480265: $GPGSA,A,3,8,10,14,18,21,24,32,15,12,20,27,138,2.0,0.8,1.5*37
2017-12-01 14:25:53 1512156353.409697: $GPZDA,192554.00,01,12,2017,00,00*6E
2017-12-01 14:25:53 1512156353.409868: $GPGGA,192554,3946.9543,N,08404.9850,W,2,12,0.80,313.71,M,-33.324,M,,*76
2017-12-01 14:25:53 1512156353.409936: $GPRMC,192554,A,3946.9543,N,08404.9850,W,0.0000,0.000,011217,,*3A
2017-12-01 14:25:53 1512156353.409998: $GPGSA,A,3,8,10,14,18,21,24,32,15,12,20,27,138,2.0,0.8,1.5*37
