2017-12-29 14:56:23 1514577383.332550: {"class":"VERSION","release":"3.16","rev":"3.16-4","proto_major":3,"proto_minor":11}
2017-12-29 14:56:23 1514577383.334177: {"class":"DEVICES","devices":[{"class":"DEVICE","path":"/dev/ttyUSB0","driver":"SiRF","subtype":"9\u0006GSD4e_4.1.2-P1_RPATCH.05-F-GPS-4R-1510281 11/03/2015 307","activated":"2017-12-29T19:56:23.284Z","flags":1,"native":1,"bps":4800,"parity":"N","stopbits":1,"cycle":1.00}]}
2017-12-29 14:56:23 1514577383.334312: {"class":"WATCH","enable":true,"json":false,"nmea":true,"raw":0,"scaled":false,"timing":false,"split24":false,"pps":false}
2017-12-29 14:56:23 1514577383.397555: $GPZDA,195624.00,29,12,2017,00,00*67
2017-12-29 14:56:23 1514577383.397705: $GPGGA,195624,3946.9557,N,08404.9823,W,2,12,0.80,305.91,M,-33.324,M,,*7D
2017-12-29 14:56:23 1514577383.397769: $GPRMC,195624,A,3946.9557,N,08404.9823,W,0.0000,0.000,291217,,*32
2017-12-29 14:56:23 1514577383.397830: $GPGSA,A,3,1,3,10,26,12,14,18,22,25,31,32,138,1.7,0.8,1.3*08
2017-12-29 14:56:25 1514577385.975947: $GPGSV,3,1,12,01,22,291,38,03,08,316,38,10,38,151,48,26,11,180,26*76
2017-12-29 14:56:25 1514577385.976095: $GPGSV,3,2,12,12,18,042,45,14,69,349,43,18,08,147,32,22,27,310,42*76
2017-12-29 14:56:25 1514577385.976161: $GPGSV,3,3,12,25,41,078,51,31,67,237,46,32,64,054,51,138,38,213,43*44
2017-12-29 14:56:26 1514577386.089313: $GPZDA,195625.00,29,12,2017,00,00*66
2017-12-29 14:56:26 1514577386.089481: $GPGGA,195625,3946.9560,N,08404.9823,W,2,12,0.80,305.15,M,-33.324,M,,*74
2017-12-29 14:56:26 1514577386.089548: $GPRMC,195625,A,3946.9560,N,08404.9823,W,0.1867,0.000,291217,,*3F
2017-12-29 14:56:26 1514577386.089610: $GPGSA,A,3,1,3,10,26,12,14,18,22,25,31,32,138,1.7,0.8,1.3*08
2017-12-29 14:56:26 1514577386.541733: $GPZDA,195626.00,29,12,2017,00,00*65
2017-12-29 14:56:26 1514577386.541909: $GPGGA,195626,3946.9560,N,08404.9823,W,2,12,0.80,305.15,M,-33.324,M,,*77
2017-12-29 14:56:26 1514577386.541977: $GPRMC,195626,A,3946.9560,N,08404.9823,W,0.0000,0.000,291217,,*34
2017-12-29 14:56:26 1514577386.542038: $GPGSA,A,3,1,3,10,26,12,14,18,22,25,31,32,138,1.7,0.8,1.3*08
2017-12-29 14:56:26 1514577386.992551: $GPZDA,195627.00,29,12,2017,00,00*64
2017-12-29 14:56:26 1514577386.992722: $GPGGA,195627,3946.9560,N,08404.9823,W,2,12,0.80,305.15,M,-33.324,M,,*76
2017-12-29 14:56:26 1514577386.992788: $GPRMC,195627,A,3946.9560,N,08404.9823,W,0.0000,0.000,291217,,*35
2017-12-29 14:56:26 1514577386.992849: $GPGSA,A,3,1,3,10,26,12,14,18,22,25,31,32,138,1.7,0.8,1.3*08
2017-12-29 14:56:27 1514577387.953807: $GPGSV,3,1,12,01,22,291,37,03,08,316,38,10,38,151,48,26,11,180,26*79
2017-12-29 14:56:27 1514577387.953980: $GPGSV,3,2,12,12,18,042,45,14,69,349,43,18,08,147,32,22,27,310,42*76
2017-12-29 14:56:27 1514577387.954045: $GPGSV,3,3,12,25,41,078,51,31,67,237,46,32,64,054,50,138,38,213,43*45
2017-12-29 14:56:28 1514577388.067258: $GPZDA,195628.00,29,12,2017,00,00*6B
2017-12-29 14:56:28 1514577388.067406: $GPGGA,195628,3946.9560,N,08404.9823,W,2,12,0.80,305.15,M,-33.324,M,,*79
2017-12-29 14:56:28 1514577388.067472: $GPRMC,195628,A,3946.9560,N,08404.9823,W,0.0000,0.000,291217,,*3A
2017-12-29 14:56:28 1514577388.067533: $GPGSA,A,3,1,3,10,26,12,14,18,22,25,31,32,138,1.7,0.8,1.3*08
2017-12-29 14:56:28 1514577388.519293: $GPZDA,195629.00,29,12,2017,00,00*6A
2017-12-29 14:56:28 1514577388.519488: $GPGGA,195629,3946.9560,N,08404.9823,W,2,12,0.80,305.15,M,-33.324,M,,*78
2017-12-29 14:56:28 1514577388.519578: $GPRMC,195629,A,3946.9560,N,08404.9823,W,0.0000,0.000,291217,,*3B
2017-12-29 14:56:28 1514577388.519643: $GPGSA,A,3,1,3,10,26,12,14,18,22,25,31,32,138,1.7,0.8,1.3*08
2017-12-29 14:56:29 1514577389.396333: $GPZDA,195630.00,29,12,2017,00,00*62
2017-12-29 14:56:29 1514577389.396518: $GPGGA,195630,3946.9560,N,08404.9823,W,2,12,0.80,305.15,M,-33.324,M,,*70
2017-12-29 14:56:29 1514577389.396606: $GPRMC,195630,A,3946.9560,N,08404.9823,W,0.0000,0.000,291217,,*33
2017-12-29 14:56:29 1514577389.396667: $GPGSA,A,3,1,3,10,26,12,14,18,22,25,31,32,138,1.7,0.8,1.3*08
2017-12-29 14:56:30 1514577390.730829: $GPGSV,3,1,12,01,22,291,38,03,08,316,37,10,38,151,48,26,11,180,26*79
2017-12-29 14:56:30 1514577390.731119: $GPGSV,3,2,12,12,18,042,46,14,69,349,42,18,08,147,32,22,27,310,42*74
2017-12-29 14:56:30 1514577390.731199: $GPGSV,3,3,12,25,41,078,51,31,67,237,46,32,64,054,50,138,38,213,45*43
2017-12-29 14:56:30 1514577390.844172: $GPZDA,195631.00,29,12,2017,00,00*63
2017-12-29 14:56:30 1514577390.844345: $GPGGA,195631,3946.9560,N,08404.9823,W,2,12,0.80,305.15,M,-33.324,M,,*71
2017-12-29 14:56:30 1514577390.844413: $GPRMC,195631,A,3946.9560,N,08404.9823,W,0.0000,0.000,291217,,*32
2017-12-29 14:56:30 1514577390.844477: $GPGSA,A,3,1,3,10,26,12,14,18,22,25,31,32,138,1.7,0.8,1.3*08
2017-12-29 14:56:31 1514577391.397550: $GPZDA,195632.00,29,12,2017,00,00*60
2017-12-29 14:56:31 1514577391.397726: $GPGGA,195632,3946.9560,N,08404.9823,W,2,12,0.80,305.15,M,-33.324,M,,*72
2017-12-29 14:56:31 1514577391.397792: $GPRMC,195632,A,3946.9560,N,08404.9823,W,0.0000,0.000,291217,,*31
2017-12-29 14:56:31 1514577391.397854: $GPGSA,A,3,1,3,10,26,12,14,18,22,25,31,32,138,1.7,0.8,1.3*08
2017-12-29 14:56:32 1514577392.398241: $GPZDA,195633.00,29,12,2017,00,00*61
2017-12-29 14:56:32 1514577392.398423: $GPGGA,195633,3946.9560,N,08404.9823,W,2,12,0.80,305.15,M,-33.324,M,,*73
2017-12-29 14:56:32 1514577392.398490: $GPRMC,195633,A,3946.9560,N,08404.9823,W,0.0000,0.000,291217,,*30
2017-12-29 14:56:32 1514577392.398552: $GPGSA,A,3,1,3,10,26,12,14,18,22,25,31,32,138,1.7,0.8,1.3*08
2017-12-29 14:56:33 1514577393.732431: $GPGSV,3,1,12,01,22,291,38,03,08,316,36,10,38,151,48,26,11,180,26*78
2017-12-29 14:56:33 1514577393.732671: $GPGSV,3,2,12,12,18,042,46,14,69,349,43,18,08,147,33,22,27,310,43*75
2017-12-29 14:56:33 1514577393.732758: $GPGSV,3,3,12,25,41,078,51,31,67,237,47,32,64,054,50,138,38,213,43*44
2017-12-29 14:56:33 1514577393.844515: $GPZDA,195634.00,29,12,2017,00,00*66
2017-12-29 14:56:33 1514577393.844677: $GPGGA,195634,3946.9560,N,08404.9823,W,2,12,0.80,305.15,M,-33.324,M,,*74
2017-12-29 14:56:33 1514577393.844743: $GPRMC,195634,A,3946.9560,N,08404.9823,W,0.0000,0.000,291217,,*37
2017-12-29 14:56:33 1514577393.844804: $GPGSA,A,3,1,3,10,26,12,14,18,22,25,31,32,138,1.7,0.8,1.3*08
2017-12-29 14:56:34 1514577394.395676: $GPZDA,195635.00,29,12,2017,00,00*67
2017-12-29 14:56:34 1514577394.395864: $GPGGA,195635,3946.9560,N,08404.9823,W,2,12,0.80,305.15,M,-33.324,M,,*75
2017-12-29 14:56:34 1514577394.395931: $GPRMC,195635,A,3946.9560,N,08404.9823,W,0.0000,0.000,291217,,*36
2017-12-29 14:56:34 1514577394.395992: $GPGSA,A,3,1,3,10,26,12,14,18,22,25,31,32,138,1.7,0.8,1.3*08
2017-12-29 14:56:35 1514577395.397550: $GPZDA,195636.00,29,12,2017,00,00*64
2017-12-29 14:56:35 1514577395.397724: $GPGGA,195636,3946.9560,N,08404.9823,W,2,12,0.80,305.15,M,-33.324,M,,*76
2017-12-29 14:56:35 1514577395.397789: $GPRMC,195636,A,3946.9560,N,08404.9823,W,0.0000,0.000,291217,,*35
2017-12-29 14:56:35 1514577395.397849: $GPGSA,A,3,1,3,10,26,12,14,18,22,25,31,32,138,1.7,0.8,1.3*08
2017-12-29 14:56:36 1514577396.734521: $GPGSV,3,1,12,01,22,291,38,03,08,316,36,10,38,151,48,26,11,180,25*7B
2017-12-29 14:56:36 1514577396.734702: $GPGSV,3,2,12,12,18,042,46,14,69,349,43,18,08,147,33,22,27,310,43*75
2017-12-29 14:56:36 1514577396.734768: $GPGSV,3,3,12,25,41,078,51,31,67,237,47,32,64,054,50,138,38,213,43*44
2017-12-29 14:56:36 1514577396.847858: $GPZDA,195637.00,29,12,2017,00,00*65
2017-12-29 14:56:36 1514577396.848033: $GPGGA,195637,3946.9560,N,08404.9823,W,2,12,0.80,305.15,M,-33.324,M,,*77
2017-12-29 14:56:36 1514577396.848117: $GPRMC,195637,A,3946.9560,N,08404.9823,W,0.0000,0.000,291217,,*34
2017-12-29 14:56:36 1514577396.848179: $GPGSA,A,3,1,3,10,26,12,14,18,22,25,31,32,138,1.7,0.8,1.3*08
2017-12-29 14:56:37 1514577397.473372: $GPZDA,195638.00,29,12,2017,00,00*6A
2017-12-29 14:56:37 1514577397.473537: $GPGGA,195638,3946.9560,N,08404.9823,W,2,12,0.80,305.15,M,-33.324,M,,*78
2017-12-29 14:56:37 1514577397.473605: $GPRMC,195638,A,3946.9560,N,08404.9823,W,0.0000,0.000,291217,,*3B
2017-12-29 14:56:37 1514577397.473665: $GPGSA,A,3,1,3,10,26,12,14,18,22,25,31,32,138,1.7,0.8,1.3*08
2017-12-29 14:56:38 1514577398.396659: $GPZDA,195639.00,29,12,2017,00,00*6B
2017-12-29 14:56:38 1514577398.396837: $GPGGA,195639,3946.9560,N,08404.9823,W,2,12,0.80,305.15,M,-33.324,M,,*79
2017-12-29 14:56:38 1514577398.396904: $GPRMC,195639,A,3946.9560,N,08404.9823,W,0.0000,0.000,291217,,*3A
2017-12-29 14:56:38 1514577398.396964: $GPGSA,A,3,1,3,10,26,12,14,18,22,25,31,32,138,1.7,0.8,1.3*08
2017-12-29 14:56:39 1514577399.733768: $GPGSV,3,1,12,01,22,291,38,03,08,316,36,10,38,151,48,26,11,180,24*7A
2017-12-29 14:56:39 1514577399.733961: $GPGSV,3,2,12,12,18,042,46,14,69,349,42,18,08,147,33,22,27,310,43*74
2017-12-29 14:56:39 1514577399.734047: $GPGSV,3,3,12,25,41,078,51,31,67,237,47,32,64,054,50,138,38,213,43*44
2017-12-29 14:56:39 1514577399.847249: $GPZDA,195640.00,29,12,2017,00,00*65
2017-12-29 14:56:39 1514577399.847436: $GPGGA,195640,3946.9560,N,08404.9823,W,2,12,0.80,305.15,M,-33.324,M,,*77
2017-12-29 14:56:39 1514577399.847502: $GPRMC,195640,A,3946.9560,N,08404.9823,W,0.0000,0.000,291217,,*34
2017-12-29 14:56:39 1514577399.847563: $GPGSA,A,3,1,3,10,26,12,14,18,22,25,31,32,138,1.7,0.8,1.3*08
2017-12-29 14:56:40 1514577400.396587: $GPZDA,195641.00,29,12,2017,00,00*64
2017-12-29 14:56:40 1514577400.396763: $GPGGA,195641,3946.9560,N,08404.9823,W,2,12,0.80,305.15,M,-33.324,M,,*76
2017-12-29 14:56:40 1514577400.396830: $GPRMC,195641,A,3946.9560,N,08404.9823,W,0.0000,0.000,291217,,*35
2017-12-29 14:56:40 1514577400.396893: $GPGSA,A,3,1,3,10,26,12,14,18,22,25,31,32,138,1.7,0.8,1.3*08
2017-12-29 14:56:41 1514577401.396629: $GPZDA,195642.00,29,12,2017,00,00*67
2017-12-29 14:56:41 1514577401.396811: $GPGGA,195642,3946.9560,N,08404.9823,W,2,12,0.80,305.15,M,-33.324,M,,*75
2017-12-29 14:56:41 1514577401.396882: $GPRMC,195642,A,3946.9560,N,08404.9823,W,0.0000,0.000,291217,,*36
2017-12-29 14:56:41 1514577401.396960: $GPGSA,A,3,1,3,10,26,12,14,18,22,25,31,32,138,1.7,0.8,1.3*08
2017-12-29 14:56:42 1514577402.733970: $GPGSV,3,1,12,01,22,291,38,03,08,316,35,10,38,151,48,26,11,180,24*79
2017-12-29 14:56:42 1514577402.734148: $GPGSV,3,2,12,12,18,042,45,14,69,349,43,18,08,147,33,22,27,310,43*76
2017-12-29 14:56:42 1514577402.734215: $GPGSV,3,3,12,25,41,078,51,31,67,237,47,32,64,054,50,138,38,213,43*44
2017-12-29 14:56:42 1514577402.847620: $GPZDA,195643.00,29,12,2017,00,00*66
2017-12-29 14:56:42 1514577402.847794: $GPGGA,195643,3946.9560,N,08404.9823,W,2,12,0.80,305.15,M,-33.324,M,,*74
2017-12-29 14:56:42 1514577402.847861: $GPRMC,195643,A,3946.9560,N,08404.9823,W,0.0000,0.000,291217,,*37
2017-12-29 14:56:42 1514577402.847922: $GPGSA,A,3,1,3,10,26,12,14,18,22,25,31,32,138,1.7,0.8,1.3*08
