2017-11-16 16:47:53 1510868873.150371: {"class":"VERSION","release":"3.17","rev":"3.17","proto_major":3,"proto_minor":12}
2017-11-16 16:47:53 1510868873.150813: {"class":"DEVICES","devices":[{"class":"DEVICE","path":"/dev/ttyUSB0","driver":"SiRF","subtype":"9\u0006GSD4e_4.1.2-P1_RPATCH.05-F-GPS-4R-1510281 11/03/2015 307","activated":"2017-11-16T21:47:52.582Z","flags":1,"native":1,"bps":4800,"parity":"N","stopbits":1,"cycle":1.00}]}
2017-11-16 16:47:53 1510868873.150930: {"class":"WATCH","enable":true,"json":false,"nmea":true,"raw":0,"scaled":false,"timing":false,"split24":false,"pps":false}
2017-11-16 16:47:53 1510868873.781160: $GPGSV,3,1,12,01,14,318,36,10,70,132,49,11,11,301,26,12,25,072,47*7C
2017-11-16 16:47:53 1510868873.781345: $GPGSV,3,2,12,14,55,292,44,18,38,135,45,24,14,045,45,25,29,114,42*7E
2017-11-16 16:47:53 1510868873.781406: $GPGSV,3,3,12,31,34,211,45,32,68,328,51,22,02,310,38,138,38,213,45*45
2017-11-16 16:47:53 1510868873.894741: $GPZDA,214752.00,16,11,2017,00,00*62
2017-11-16 16:47:53 1510868873.894878: $GPGGA,214752,3946.9580,N,08404.9822,W,2,12,0.80,306.94,M,-33.324,M,,*7A
2017-11-16 16:47:53 1510868873.894937: $GPRMC,214752,A,3946.9580,N,08404.9822,W,0.0000,0.000,161117,,*3C
2017-11-16 16:47:53 1510868873.894992: $GPGSA,A,3,1,10,11,12,14,18,24,25,31,32,22,138,1.6,0.8,1.3*38
2017-11-16 16:47:54 1510868874.464403: $GPZDA,214753.00,16,11,2017,00,00*63
2017-11-16 16:47:54 1510868874.468325: $GPGGA,214753,3946.9580,N,08404.9822,W,2,12,0.80,306.94,M,-33.324,M,,*7B
2017-11-16 16:47:54 1510868874.468426: $GPRMC,214753,A,3946.9580,N,08404.9822,W,0.0000,0.000,161117,,*3D
2017-11-16 16:47:54 1510868874.468484: $GPGSA,A,3,1,10,11,12,14,18,24,25,31,32,22,138,1.6,0.8,1.3*38
2017-11-16 16:47:55 1510868875.446551: $GPZDA,214754.00,16,11,2017,00,00*64
2017-11-16 16:47:55 1510868875.446710: $GPGGA,214754,3946.9580,N,08404.9822,W,2,12,0.80,306.94,M,-33.324,M,,*7C
2017-11-16 16:47:55 1510868875.446818: $GPRMC,214754,A,3946.9580,N,08404.9822,W,0.0000,0.000,161117,,*3A
2017-11-16 16:47:55 1510868875.446876: $GPGSA,A,3,1,10,11,12,14,18,24,25,31,32,22,138,1.6,0.8,1.3*38
2017-11-16 16:47:56 1510868876.794067: $GPGSV,3,1,12,01,14,318,37,10,70,132,49,11,11,301,26,12,25,072,47*7D
2017-11-16 16:47:56 1510868876.794268: $GPGSV,3,2,12,14,55,292,45,18,38,135,45,24,14,045,45,25,29,114,42*7F
2017-11-16 16:47:56 1510868876.794329: $GPGSV,3,3,12,31,34,211,45,32,68,328,51,22,02,310,36,138,38,213,45*4B
2017-11-16 16:47:56 1510868876.907357: $GPZDA,214755.00,16,11,2017,00,00*65
2017-11-16 16:47:56 1510868876.907567: $GPGGA,214755,3946.9580,N,08404.9822,W,2,12,0.80,306.94,M,-33.324,M,,*7D
2017-11-16 16:47:56 1510868876.907626: $GPRMC,214755,A,3946.9580,N,08404.9822,W,0.0000,0.000,161117,,*3B
2017-11-16 16:47:56 1510868876.907682: $GPGSA,A,3,1,10,11,12,14,18,24,25,31,32,22,138,1.6,0.8,1.3*38
2017-11-16 16:47:57 1510868877.446084: $GPZDA,214756.00,16,11,2017,00,00*66
2017-11-16 16:47:57 1510868877.446280: $GPGGA,214756,3946.9580,N,08404.9822,W,2,12,0.80,306.94,M,-33.324,M,,*7E
2017-11-16 16:47:57 1510868877.446341: $GPRMC,214756,A,3946.9580,N,08404.9822,W,0.0000,0.000,161117,,*38
2017-11-16 16:47:57 1510868877.446398: $GPGSA,A,3,1,10,11,12,14,18,24,25,31,32,22,138,1.6,0.8,1.3*38
2017-11-16 16:47:58 1510868878.456931: $GPZDA,214757.00,16,11,2017,00,00*67
2017-11-16 16:47:58 1510868878.457088: $GPGGA,214757,3946.9580,N,08404.9822,W,2,12,0.80,306.94,M,-33.324,M,,*7F
2017-11-16 16:47:58 1510868878.457173: $GPRMC,214757,A,3946.9580,N,08404.9822,W,0.0000,0.000,161117,,*39
2017-11-16 16:47:58 1510868878.457230: $GPGSA,A,3,1,10,11,12,14,18,24,25,31,32,22,138,1.6,0.8,1.3*38
2017-11-16 16:47:59 1510868879.800008: $GPGSV,3,1,12,01,14,318,37,10,70,132,49,11,11,301,26,12,25,072,47*7D
2017-11-16 16:47:59 1510868879.800207: $GPGSV,3,2,12,14,55,292,45,18,38,135,45,24,14,045,45,25,29,114,42*7F
2017-11-16 16:47:59 1510868879.800287: $GPGSV,3,3,12,31,34,211,45,32,68,328,51,22,02,310,35,138,38,213,44*49
2017-11-16 16:47:59 1510868879.913341: $GPZDA,214758.00,16,11,2017,00,00*68
2017-11-16 16:47:59 1510868879.913523: $GPGGA,214758,3946.9580,N,08404.9822,W,2,12,0.80,306.94,M,-33.324,M,,*70
2017-11-16 16:47:59 1510868879.913638: $GPRMC,214758,A,3946.9580,N,08404.9822,W,0.0000,0.000,161117,,*36
2017-11-16 16:47:59 1510868879.913697: $GPGSA,A,3,1,10,11,12,14,18,24,25,31,32,22,138,1.6,0.8,1.3*38
2017-11-16 16:48:00 1510868880.448214: $GPZDA,214759.00,16,11,2017,00,00*69
2017-11-16 16:48:00 1510868880.448373: $GPGGA,214759,3946.9580,N,08404.9822,W,2,12,0.80,306.94,M,-33.324,M,,*71
2017-11-16 16:48:00 1510868880.448434: $GPRMC,214759,A,3946.9580,N,08404.9822,W,0.0000,0.000,161117,,*37
2017-11-16 16:48:00 1510868880.448490: $GPGSA,A,3,1,10,11,12,14,18,24,25,31,32,22,138,1.6,0.8,1.3*38
2017-11-16 16:48:01 1510868881.462347: $GPZDA,214800.00,16,11,2017,00,00*6A
2017-11-16 16:48:01 1510868881.462504: $GPGGA,214800,3946.9580,N,08404.9822,W,2,12,0.80,306.94,M,-33.324,M,,*72
2017-11-16 16:48:01 1510868881.462565: $GPRMC,214800,A,3946.9580,N,08404.9822,W,0.0000,0.000,161117,,*34
2017-11-16 16:48:01 1510868881.462621: $GPGSA,A,3,1,10,11,12,14,18,24,25,31,32,22,138,1.6,0.8,1.3*38
2017-11-16 16:48:02 1510868882.776741: $GPGSV,3,1,12,01,14,318,39,10,70,132,50,11,11,301,27,12,25,072,46*7B
2017-11-16 16:48:02 1510868882.776910: $GPGSV,3,2,12,14,55,292,45,18,38,135,45,24,14,045,45,25,29,114,42*7F
2017-11-16 16:48:02 1510868882.776971: $GPGSV,3,3,12,31,34,211,45,32,68,328,50,22,02,310,36,138,38,213,44*4B
2017-11-16 16:48:02 1510868882.890192: $GPZDA,214801.00,16,11,2017,00,00*6B
2017-11-16 16:48:02 1510868882.890342: $GPGGA,214801,3946.9580,N,08404.9822,W,2,12,0.80,306.94,M,-33.324,M,,*73
2017-11-16 16:48:02 1510868882.890403: $GPRMC,214801,A,3946.9580,N,08404.9822,W,0.0000,0.000,161117,,*35
2017-11-16 16:48:02 1510868882.890460: $GPGSA,A,3,1,10,11,12,14,18,24,25,31,32,22,138,1.6,0.8,1.3*38
2017-11-16 16:48:03 1510868883.447526: $GPZDA,214802.00,16,11,2017,00,00*68
2017-11-16 16:48:03 1510868883.447684: $GPGGA,214802,3946.9580,N,08404.9822,W,2,12,0.80,306.94,M,-33.324,M,,*70
2017-11-16 16:48:03 1510868883.447744: $GPRMC,214802,A,3946.9580,N,08404.9822,W,0.0000,0.000,161117,,*36
2017-11-16 16:48:03 1510868883.447799: $GPGSA,A,3,1,10,11,12,14,18,24,25,31,32,22,138,1.6,0.8,1.3*38
2017-11-16 16:48:04 1510868884.442005: $GPZDA,214803.00,16,11,2017,00,00*69
2017-11-16 16:48:04 1510868884.442158: $GPGGA,214803,3946.9580,N,08404.9822,W,2,12,0.80,306.94,M,-33.324,M,,*71
2017-11-16 16:48:04 1510868884.442237: $GPRMC,214803,A,3946.9580,N,08404.9822,W,0.0000,0.000,161117,,*37
2017-11-16 16:48:04 1510868884.442294: $GPGSA,A,3,1,10,11,12,14,18,24,25,31,32,22,138,1.6,0.8,1.3*38
