2017-12-01 14:41:43 1512157303.696796: {"class":"VERSION","release":"3.16","rev":"3.16-4","proto_major":3,"proto_minor":11}
2017-12-01 14:41:43 1512157303.697246: {"class":"DEVICES","devices":[{"class":"DEVICE","path":"/dev/ttyUSB0","driver":"SiRF","subtype":"9\u0006GSD4e_4.1.2-P1_RPATCH.05-F-GPS-4R-1510281 11/03/2015 307","activated":"2017-12-01T19:41:43.276Z","flags":1,"native":1,"bps":4800,"parity":"N","stopbits":1,"cycle":1.00}]}
2017-12-01 14:41:43 1512157303.697372: {"class":"WATCH","enable":true,"json":false,"nmea":true,"raw":0,"scaled":false,"timing":false,"split24":false,"pps":false}
2017-12-01 14:41:43 1512157303.886509: $GPZDA,194144.57,01,12,2017,00,00*6F
2017-12-01 14:41:43 1512157303.886982: $GPGGA,194144,3946.9589,N,08404.9833,W,1,12,1.20,291.01,M,-33.324,M,,*72
2017-12-01 14:41:43 1512157303.887085: $GPRMC,194144,A,3946.9589,N,08404.9833,W,0.1160,239.753,011217,,*35
2017-12-01 14:41:43 1512157303.887153: $GPGSA,A,3,10,12,14,18,21,24,31,32,8,15,25,138,2.0,1.2,1.5*3E
2017-12-01 14:41:43 1512157303.887231: $GPGBS,194144,10.70,M,15.43,M,35.28,M*0A
2017-12-01 14:41:45 1512157305.033073: $GPZDA,194145.25,01,12,2017,00,00*6B
2017-12-01 14:41:45 1512157305.033248: $GPGGA,194145,3946.9589,N,08404.9833,W,1,12,1.20,291.01,M,-33.324,M,,*73
2017-12-01 14:41:45 1512157305.033316: $GPRMC,194145,A,3946.9589,N,08404.9833,W,0.1975,75.900,011217,,*0A
2017-12-01 14:41:45 1512157305.033378: $GPGSA,A,3,10,12,14,18,21,24,31,32,8,15,25,138,2.0,1.2,1.5*3E
2017-12-01 14:41:46 1512157306.244406: $GPGSV,3,1,12,08,03,286,34,10,77,346,48,12,14,100,34,14,35,261,43*75
2017-12-01 14:41:46 1512157306.244588: $GPGSV,3,2,12,18,64,109,47,21,20,177,45,24,38,052,48,32,52,276,45*78
2017-12-01 14:41:46 1512157306.244656: $GPGSV,3,3,12,15,05,070,11,25,09,136,11,31,07,204,08,138,38,213,00*4C
2017-12-01 14:41:46 1512157306.357697: $GPZDA,194146.00,01,12,2017,00,00*6F
2017-12-01 14:41:46 1512157306.357862: $GPGGA,194146,3946.9589,N,08404.9833,W,1,08,1.20,291.01,M,-33.324,M,,*7B
2017-12-01 14:41:46 1512157306.357928: $GPRMC,194146,A,3946.9589,N,08404.9833,W,0.1324,202.230,011217,,*3D
2017-12-01 14:41:46 1512157306.357991: $GPGSA,A,3,8,10,12,14,18,21,24,32,,,,,2.0,1.2,1.5*05
2017-12-01 14:41:46 1512157306.809851: $GPZDA,194147.00,01,12,2017,00,00*6E
2017-12-01 14:41:46 1512157306.810032: $GPGGA,194147,3946.9585,N,08404.9833,W,1,08,1.00,290.37,M,-33.324,M,,*70
2017-12-01 14:41:46 1512157306.810100: $GPRMC,194147,A,3946.9585,N,08404.9833,W,0.1567,189.200,011217,,*32
2017-12-01 14:41:46 1512157306.810162: $GPGSA,A,3,8,10,12,14,18,21,24,32,,,,,2.0,1.0,1.5*07
2017-12-01 14:41:47 1512157307.374495: $GPZDA,194148.00,01,12,2017,00,00*61
2017-12-01 14:41:47 1512157307.374668: $GPGGA,194148,3946.9585,N,08404.9833,W,1,08,1.00,290.37,M,-33.324,M,,*7F
2017-12-01 14:41:47 1512157307.374734: $GPRMC,194148,A,3946.9585,N,08404.9833,W,0.0000,0.000,011217,,*3A
2017-12-01 14:41:47 1512157307.374795: $GPGSA,A,3,8,10,12,14,18,21,24,32,,,,,2.0,1.0,1.5*07
2017-12-01 14:41:48 1512157308.710951: $GPGSV,3,1,12,08,03,286,34,10,77,346,48,12,14,100,35,14,35,261,43*74
2017-12-01 14:41:48 1512157308.711143: $GPGSV,3,2,12,18,64,109,47,21,20,177,45,24,38,052,48,32,52,276,45*78
2017-12-01 14:41:48 1512157308.711231: $GPGSV,3,3,12,15,05,070,28,20,02,123,21,31,07,204,20,138,38,213,47*46
2017-12-01 14:41:48 1512157308.824346: $GPZDA,194149.00,01,12,2017,00,00*60
2017-12-01 14:41:48 1512157308.824504: $GPGGA,194149,3946.9588,N,08404.9833,W,1,12,1.00,289.61,M,-33.324,M,,*73
2017-12-01 14:41:48 1512157308.824570: $GPRMC,194149,A,3946.9588,N,08404.9833,W,0.0000,0.000,011217,,*36
2017-12-01 14:41:48 1512157308.824630: $GPGSA,A,3,8,10,12,14,18,21,24,32,15,20,31,138,2.0,1.0,1.5*39
2017-12-01 14:41:49 1512157309.375563: $GPZDA,194150.00,01,12,2017,00,00*68
2017-12-01 14:41:49 1512157309.375732: $GPGGA,194150,3946.9588,N,08404.9833,W,1,12,1.00,289.61,M,-33.324,M,,*7B
2017-12-01 14:41:49 1512157309.375800: $GPRMC,194150,A,3946.9588,N,08404.9833,W,0.0000,0.000,011217,,*3E
2017-12-01 14:41:49 1512157309.375861: $GPGSA,A,3,8,10,12,14,18,21,24,32,15,20,31,138,2.0,1.0,1.5*39
2017-12-01 14:41:50 1512157310.384776: $GPZDA,194151.00,01,12,2017,00,00*69
2017-12-01 14:41:50 1512157310.384957: $GPGGA,194151,3946.9588,N,08404.9840,W,1,12,1.00,289.53,M,-33.324,M,,*7F
2017-12-01 14:41:50 1512157310.385023: $GPRMC,194151,A,3946.9588,N,08404.9840,W,0.0000,0.000,011217,,*3B
2017-12-01 14:41:50 1512157310.385084: $GPGSA,A,3,8,10,12,14,18,21,24,32,15,20,31,138,2.0,1.0,1.5*39
2017-12-01 14:41:50 1512157310.385142: $GPGBS,194151,10.70,M,15.43,M,35.28,M*0E
2017-12-01 14:41:51 1512157311.710437: $GPGSV,3,1,12,08,03,286,34,10,77,346,47,12,14,100,36,14,35,261,43*78
2017-12-01 14:41:51 1512157311.710623: $GPGSV,3,2,12,18,64,109,47,21,20,177,45,24,38,052,48,32,52,276,44*79
2017-12-01 14:41:51 1512157311.710691: $GPGSV,3,3,12,15,05,070,28,25,09,136,30,31,07,204,19,138,38,213,47*46
2017-12-01 14:41:51 1512157311.824147: $GPZDA,194152.00,01,12,2017,00,00*6A
2017-12-01 14:41:51 1512157311.824317: $GPGGA,194152,3946.9588,N,08404.9840,W,1,12,1.00,289.53,M,-33.324,M,,*7C
2017-12-01 14:41:51 1512157311.824385: $GPRMC,194152,A,3946.9588,N,08404.9840,W,0.0000,0.000,011217,,*38
2017-12-01 14:41:51 1512157311.824445: $GPGSA,A,3,8,10,12,14,18,21,24,32,15,25,31,138,2.0,1.0,1.5*3C
2017-12-01 14:41:52 1512157312.378451: $GPZDA,194153.00,01,12,2017,00,00*6B
2017-12-01 14:41:52 1512157312.378632: $GPGGA,194153,3946.9580,N,08404.9847,W,2,12,5.40,288.17,M,-33.324,M,,*70
2017-12-01 14:41:52 1512157312.378720: $GPRMC,194153,A,3946.9580,N,08404.9847,W,0.0000,0.000,011217,,*36
2017-12-01 14:41:52 1512157312.378784: $GPGSA,A,2,8,10,12,14,18,21,24,32,15,25,31,138,2.0,5.4,1.5*3D
2017-12-01 14:41:53 1512157313.377989: $GPZDA,194154.00,01,12,2017,00,00*6C
2017-12-01 14:41:53 1512157313.378157: $GPGGA,194154,3946.9580,N,08404.9847,W,2,12,1.00,288.17,M,-33.324,M,,*77
2017-12-01 14:41:53 1512157313.378223: $GPRMC,194154,A,3946.9580,N,08404.9847,W,0.0000,0.000,011217,,*31
2017-12-01 14:41:53 1512157313.378283: $GPGSA,A,3,8,10,12,14,18,21,24,32,15,25,31,138,2.0,1.0,1.5*3C
2017-12-01 14:41:54 1512157314.715852: $GPGSV,3,1,12,08,03,286,34,10,77,346,48,12,14,100,36,14,35,261,43*77
2017-12-01 14:41:54 1512157314.716037: $GPGSV,3,2,12,18,64,109,47,21,20,177,45,24,38,052,48,32,52,276,45*78
2017-12-01 14:41:54 1512157314.716104: $GPGSV,3,3,12,15,05,070,27,25,09,136,06,31,07,204,19,138,38,213,48*43
2017-12-01 14:41:54 1512157314.829570: $GPZDA,194155.00,01,12,2017,00,00*6D
2017-12-01 14:41:54 1512157314.829720: $GPGGA,194155,3946.9580,N,08404.9847,W,2,11,1.00,288.17,M,-33.324,M,,*75
2017-12-01 14:41:54 1512157314.829785: $GPRMC,194155,A,3946.9580,N,08404.9847,W,0.0000,0.000,011217,,*30
2017-12-01 14:41:54 1512157314.829846: $GPGSA,A,3,8,10,12,14,18,21,24,32,15,31,138,,2.0,1.0,1.5*3B
2017-12-01 14:41:55 1512157315.375407: $GPZDA,194156.00,01,12,2017,00,00*6E
2017-12-01 14:41:55 1512157315.375586: $GPGGA,194156,3946.9580,N,08404.9847,W,2,11,1.00,288.17,M,-33.324,M,,*76
2017-12-01 14:41:55 1512157315.375675: $GPRMC,194156,A,3946.9580,N,08404.9847,W,0.0000,0.000,011217,,*33
2017-12-01 14:41:55 1512157315.375754: $GPGSA,A,3,8,10,12,14,18,21,24,32,15,31,138,,2.0,1.0,1.5*3B
2017-12-01 14:41:56 1512157316.373465: $GPZDA,194157.00,01,12,2017,00,00*6F
2017-12-01 14:41:56 1512157316.373656: $GPGGA,194157,3946.9580,N,08404.9847,W,2,11,1.00,288.17,M,-33.324,M,,*77
2017-12-01 14:41:56 1512157316.373739: $GPRMC,194157,A,3946.9580,N,08404.9847,W,0.0000,0.000,011217,,*32
2017-12-01 14:41:56 1512157316.373803: $GPGSA,A,3,8,10,12,14,18,21,24,32,15,31,138,,2.0,1.0,1.5*3B
2017-12-01 14:41:57 1512157317.713072: $GPGSV,3,1,12,08,03,286,33,10,77,346,48,12,14,100,37,14,35,261,43*71
2017-12-01 14:41:57 1512157317.713255: $GPGSV,3,2,12,18,64,109,47,21,20,177,45,24,38,052,47,32,52,276,45*77
2017-12-01 14:41:57 1512157317.713321: $GPGSV,3,3,12,15,05,070,23,25,09,136,31,31,07,204,26,138,38,213,47*40
2017-12-01 14:41:57 1512157317.827354: $GPZDA,194158.00,01,12,2017,00,00*60
2017-12-01 14:41:57 1512157317.827756: $GPGGA,194158,3946.9580,N,08404.9847,W,2,12,1.00,288.17,M,-33.324,M,,*7B
2017-12-01 14:41:57 1512157317.827830: $GPRMC,194158,A,3946.9580,N,08404.9847,W,0.0000,0.000,011217,,*3D
2017-12-01 14:41:57 1512157317.827940: $GPGSA,A,3,8,10,12,14,18,21,24,32,15,25,31,138,2.0,1.0,1.5*3C
2017-12-01 14:41:58 1512157318.451767: $GPZDA,194159.00,01,12,2017,00,00*61
2017-12-01 14:41:58 1512157318.451939: $GPGGA,194159,3946.9580,N,08404.9847,W,2,12,1.00,288.17,M,-33.324,M,,*7A
2017-12-01 14:41:58 1512157318.452006: $GPRMC,194159,A,3946.9580,N,08404.9847,W,0.0000,0.000,011217,,*3C
2017-12-01 14:41:58 1512157318.452067: $GPGSA,A,3,8,10,12,14,18,21,24,32,15,25,31,138,2.0,1.0,1.5*3C
2017-12-01 14:41:59 1512157319.376426: $GPZDA,194200.00,01,12,2017,00,00*6E
2017-12-01 14:41:59 1512157319.376599: $GPGGA,194200,3946.9580,N,08404.9847,W,2,12,1.00,288.17,M,-33.324,M,,*75
2017-12-01 14:41:59 1512157319.376667: $GPRMC,194200,A,3946.9580,N,08404.9847,W,0.0000,0.000,011217,,*33
2017-12-01 14:41:59 1512157319.376746: $GPGSA,A,3,8,10,12,14,18,21,24,32,15,25,31,138,2.0,1.0,1.5*3C
2017-12-01 14:42:00 1512157320.712145: $GPGSV,3,1,12,08,03,286,33,10,77,346,48,12,14,100,37,14,35,261,43*71
2017-12-01 14:42:00 1512157320.712451: $GPGSV,3,2,12,18,64,109,47,21,20,177,46,24,38,052,48,32,52,276,46*78
2017-12-01 14:42:00 1512157320.712605: $GPGSV,3,3,12,15,05,070,22,25,09,136,31,31,07,204,27,138,38,213,48*4F
2017-12-01 14:42:00 1512157320.825878: $GPZDA,194201.00,01,12,2017,00,00*6F
2017-12-01 14:42:00 1512157320.826048: $GPGGA,194201,3946.9580,N,08404.9847,W,2,12,1.00,288.17,M,-33.324,M,,*74
2017-12-01 14:42:00 1512157320.826115: $GPRMC,194201,A,3946.9580,N,08404.9847,W,0.0000,0.000,011217,,*32
2017-12-01 14:42:00 1512157320.826175: $GPGSA,A,3,8,10,12,14,18,21,24,32,15,25,31,138,2.0,1.0,1.5*3C
2017-12-01 14:42:01 1512157321.377837: $GPZDA,194202.00,01,12,2017,00,00*6C
2017-12-01 14:42:01 1512157321.378005: $GPGGA,194202,3946.9580,N,08404.9847,W,2,12,1.00,288.17,M,-33.324,M,,*77
2017-12-01 14:42:01 1512157321.378072: $GPRMC,194202,A,3946.9580,N,08404.9847,W,0.0000,0.000,011217,,*31
2017-12-01 14:42:01 1512157321.378133: $GPGSA,A,3,8,10,12,14,18,21,24,32,15,25,31,138,2.0,1.0,1.5*3C
2017-12-01 14:42:02 1512157322.377348: $GPZDA,194203.00,01,12,2017,00,00*6D
2017-12-01 14:42:02 1512157322.377517: $GPGGA,194203,3946.9580,N,08404.9847,W,2,12,1.00,288.17,M,-33.324,M,,*76
2017-12-01 14:42:02 1512157322.377608: $GPRMC,194203,A,3946.9580,N,08404.9847,W,0.0000,0.000,011217,,*30
2017-12-01 14:42:02 1512157322.377671: $GPGSA,A,3,8,10,12,14,18,21,24,32,15,25,31,138,2.0,1.0,1.5*3C
2017-12-01 14:42:02 1512157322.377749: $GPGBS,194203,2.67,M,3.86,M,8.82,M*3F
2017-12-01 14:42:03 1512157323.708508: $GPGSV,3,1,12,08,03,286,10,10,77,346,14,12,14,100,11,14,35,261,13*78
2017-12-01 14:42:03 1512157323.708723: $GPGSV,3,2,12,18,64,109,14,21,20,177,14,24,38,052,14,32,52,276,13*70
2017-12-01 14:42:03 1512157323.708809: $GPGSV,3,3,12,15,05,070,06,25,09,136,09,31,07,204,10,138,38,213,16*4D
2017-12-01 14:42:03 1512157323.822342: $GPZDA,194204.00,01,12,2017,00,00*6A
2017-12-01 14:42:03 1512157323.822688: $GPGGA,194204,3946.9581,N,08404.9847,W,2,12,1.00,289.57,M,-33.324,M,,*75
2017-12-01 14:42:03 1512157323.822845: $GPRMC,194204,A,3946.9581,N,08404.9847,W,0.2422,93.794,011217,,*00
2017-12-01 14:42:03 1512157323.822974: $GPGSA,A,3,8,10,12,14,18,21,24,32,15,25,31,138,2.0,1.0,1.5*3C
2017-12-01 14:42:04 1512157324.372883: $GPZDA,194205.00,01,12,2017,00,00*6B
2017-12-01 14:42:04 1512157324.374509: $GPGGA,194205,3946.9581,N,08404.9847,W,2,12,1.00,289.57,M,-33.324,M,,*74
2017-12-01 14:42:04 1512157324.374642: $GPRMC,194205,A,3946.9581,N,08404.9847,W,0.3006,62.539,011217,,*09
2017-12-01 14:42:04 1512157324.374748: $GPGSA,A,3,8,10,12,14,18,21,24,32,15,25,31,138,2.0,1.0,1.5*3C
2017-12-01 14:42:05 1512157325.369973: $GPZDA,194206.00,01,12,2017,00,00*68
2017-12-01 14:42:05 1512157325.370150: $GPGGA,194206,3946.9578,N,08404.9848,W,2,12,1.00,290.34,M,-33.324,M,,*73
2017-12-01 14:42:05 1512157325.370219: $GPRMC,194206,A,3946.9578,N,08404.9848,W,0.2422,273.794,011217,,*37
2017-12-01 14:42:05 1512157325.370282: $GPGSA,A,3,8,10,12,14,18,21,24,32,15,25,31,138,2.0,1.0,1.5*3C
2017-12-01 14:42:06 1512157326.708196: $GPGSV,3,1,12,08,03,286,31,10,77,346,47,12,14,100,36,14,35,261,44*7A
2017-12-01 14:42:06 1512157326.708424: $GPGSV,3,2,12,18,64,109,46,21,20,177,46,24,38,052,48,32,52,276,44*7B
2017-12-01 14:42:06 1512157326.708492: $GPGSV,3,3,12,15,05,070,22,25,09,136,30,31,07,204,32,138,38,213,47*45
2017-12-01 14:42:06 1512157326.821824: $GPZDA,194207.00,01,12,2017,00,00*69
2017-12-01 14:42:06 1512157326.821993: $GPGGA,194207,3946.9578,N,08404.9848,W,2,12,1.00,290.34,M,-33.324,M,,*72
2017-12-01 14:42:06 1512157326.822059: $GPRMC,194207,A,3946.9578,N,08404.9848,W,0.0000,0.000,011217,,*3C
2017-12-01 14:42:06 1512157326.822120: $GPGSA,A,3,8,10,12,14,18,21,24,32,15,25,31,138,2.0,1.0,1.5*3C
2017-12-01 14:42:07 1512157327.376168: $GPZDA,194208.00,01,12,2017,00,00*66
2017-12-01 14:42:07 1512157327.376344: $GPGGA,194208,3946.9578,N,08404.9848,W,2,12,1.00,290.34,M,-33.324,M,,*7D
2017-12-01 14:42:07 1512157327.376412: $GPRMC,194208,A,3946.9578,N,08404.9848,W,0.0000,0.000,011217,,*33
2017-12-01 14:42:07 1512157327.376474: $GPGSA,A,3,8,10,12,14,18,21,24,32,15,25,31,138,2.0,1.0,1.5*3C
2017-12-01 14:42:08 1512157328.375764: $GPZDA,194209.00,01,12,2017,00,00*67
2017-12-01 14:42:08 1512157328.375936: $GPGGA,194209,3946.9578,N,08404.9848,W,2,12,1.00,290.34,M,-33.324,M,,*7C
2017-12-01 14:42:08 1512157328.376002: $GPRMC,194209,A,3946.9578,N,08404.9848,W,0.0000,0.000,011217,,*32
2017-12-01 14:42:08 1512157328.376063: $GPGSA,A,3,8,10,12,14,18,21,24,32,15,25,31,138,2.0,1.0,1.5*3C
