2017-12-29 10:45:32 1514562332.235584: {"class":"VERSION","release":"3.16","rev":"3.16-4","proto_major":3,"proto_minor":11}
2017-12-29 10:45:32 1514562332.235957: {"class":"DEVICES","devices":[{"class":"DEVICE","path":"/dev/ttyUSB0","driver":"SiRF","subtype":"9\u0006GSD4e_4.1.2-P1_RPATCH.05-F-GPS-4R-1510281 11/03/2015 307","activated":"2017-12-29T15:45:32.212Z","flags":1,"native":1,"bps":4800,"parity":"N","stopbits":1,"cycle":1.00}]}
2017-12-29 10:45:32 1514562332.236080: {"class":"WATCH","enable":true,"json":false,"nmea":true,"raw":0,"scaled":false,"timing":false,"split24":false,"pps":false}
2017-12-29 10:45:32 1514562332.723890: $GPGSV,3,1,11,10,31,291,42,13,20,045,42,15,51,049,50,18,62,313,44*77
2017-12-29 10:45:32 1514562332.724072: $GPGSV,3,2,11,20,45,082,50,21,77,217,47,24,41,129,50,27,19,304,27*73
2017-12-29 10:45:32 1514562332.724139: $GPGSV,3,3,11,32,10,229,30,29,02,187,01,138,38,213,45*75
2017-12-29 10:45:32 1514562332.836050: $GPZDA,154533.00,29,12,2017,00,00*6F
2017-12-29 10:45:32 1514562332.836180: $GPGGA,154533,3946.9608,N,08404.9823,W,2,10,0.80,300.75,M,-33.324,M,,*71
2017-12-29 10:45:32 1514562332.836245: $GPRMC,154533,A,3946.9608,N,08404.9823,W,0.0000,0.000,291217,,*33
2017-12-29 10:45:32 1514562332.836304: $GPGSA,A,3,10,13,15,18,20,21,24,27,32,138,,,1.7,0.8,1.3*09
2017-12-29 10:45:33 1514562333.379719: $GPZDA,154534.00,29,12,2017,00,00*68
2017-12-29 10:45:33 1514562333.379900: $GPGGA,154534,3946.9608,N,08404.9823,W,2,10,0.80,300.75,M,-33.324,M,,*76
2017-12-29 10:45:33 1514562333.379968: $GPRMC,154534,A,3946.9608,N,08404.9823,W,0.0000,0.000,291217,,*34
2017-12-29 10:45:33 1514562333.380029: $GPGSA,A,3,10,13,15,18,20,21,24,27,32,138,,,1.7,0.8,1.3*09
2017-12-29 10:45:34 1514562334.386384: $GPZDA,154535.00,29,12,2017,00,00*69
2017-12-29 10:45:34 1514562334.386543: $GPGGA,154535,3946.9608,N,08404.9823,W,2,10,0.80,300.75,M,-33.324,M,,*77
2017-12-29 10:45:34 1514562334.386609: $GPRMC,154535,A,3946.9608,N,08404.9823,W,0.0000,0.000,291217,,*35
2017-12-29 10:45:34 1514562334.386670: $GPGSA,A,3,10,13,15,18,20,21,24,27,32,138,,,1.7,0.8,1.3*09
2017-12-29 10:45:35 1514562335.686777: $GPGSV,3,1,11,10,31,291,42,13,20,045,42,15,51,049,49,18,62,313,44*7F
2017-12-29 10:45:35 1514562335.686949: $GPGSV,3,2,11,20,45,082,50,21,77,217,48,24,41,129,50,27,19,304,27*7C
2017-12-29 10:45:35 1514562335.687015: $GPGSV,3,3,11,32,10,229,30,29,02,187,01,138,38,213,45*75
2017-12-29 10:45:35 1514562335.800112: $GPZDA,154536.00,29,12,2017,00,00*6A
2017-12-29 10:45:35 1514562335.800251: $GPGGA,154536,3946.9608,N,08404.9823,W,2,10,0.80,300.75,M,-33.324,M,,*74
2017-12-29 10:45:35 1514562335.800316: $GPRMC,154536,A,3946.9608,N,08404.9823,W,0.0000,0.000,291217,,*36
2017-12-29 10:45:35 1514562335.800376: $GPGSA,A,3,10,13,15,18,20,21,24,27,32,138,,,1.7,0.8,1.3*09
2017-12-29 10:45:36 1514562336.385975: $GPZDA,154537.00,29,12,2017,00,00*6B
2017-12-29 10:45:36 1514562336.386143: $GPGGA,154537,3946.9608,N,08404.9823,W,2,10,0.80,300.75,M,-33.324,M,,*75
2017-12-29 10:45:36 1514562336.386209: $GPRMC,154537,A,3946.9608,N,08404.9823,W,0.0000,0.000,291217,,*37
2017-12-29 10:45:36 1514562336.386269: $GPGSA,A,3,10,13,15,18,20,21,24,27,32,138,,,1.7,0.8,1.3*09
2017-12-29 10:45:37 1514562337.386848: $GPZDA,154538.00,29,12,2017,00,00*64
2017-12-29 10:45:37 1514562337.387015: $GPGGA,154538,3946.9608,N,08404.9823,W,2,10,0.80,300.75,M,-33.324,M,,*7A
2017-12-29 10:45:37 1514562337.387081: $GPRMC,154538,A,3946.9608,N,08404.9823,W,0.0000,0.000,291217,,*38
2017-12-29 10:45:37 1514562337.387141: $GPGSA,A,3,10,13,15,18,20,21,24,27,32,138,,,1.7,0.8,1.3*09
2017-12-29 10:45:38 1514562338.722568: $GPGSV,3,1,11,10,31,291,43,13,20,045,42,15,51,049,50,18,62,313,44*76
2017-12-29 10:45:38 1514562338.722763: $GPGSV,3,2,11,20,45,082,50,21,77,217,47,24,41,129,50,27,19,304,27*73
2017-12-29 10:45:38 1514562338.722829: $GPGSV,3,3,11,32,10,229,26,29,02,187,01,138,38,213,46*71
2017-12-29 10:45:38 1514562338.836306: $GPZDA,154539.00,29,12,2017,00,00*65
2017-12-29 10:45:38 1514562338.836456: $GPGGA,154539,3946.9608,N,08404.9823,W,2,10,0.80,300.75,M,-33.324,M,,*7B
2017-12-29 10:45:38 1514562338.836594: $GPRMC,154539,A,3946.9608,N,08404.9823,W,0.0000,0.000,291217,,*39
2017-12-29 10:45:38 1514562338.836656: $GPGSA,A,3,10,13,15,18,20,21,24,27,32,138,,,1.7,0.8,1.3*09
2017-12-29 10:45:39 1514562339.461706: $GPZDA,154540.00,29,12,2017,00,00*6B
2017-12-29 10:45:39 1514562339.461873: $GPGGA,154540,3946.9608,N,08404.9823,W,2,10,1.20,300.75,M,-33.324,M,,*7E
2017-12-29 10:45:39 1514562339.461939: $GPRMC,154540,A,3946.9608,N,08404.9823,W,0.0000,0.000,291217,,*37
2017-12-29 10:45:39 1514562339.461999: $GPGSA,A,3,10,13,15,18,20,21,24,27,32,138,,,1.7,1.2,1.3*02
2017-12-29 10:45:40 1514562340.343865: $GPZDA,154541.00,29,12,2017,00,00*6A
2017-12-29 10:45:40 1514562340.344045: $GPGGA,154541,3946.9608,N,08404.9823,W,2,10,1.20,300.75,M,-33.324,M,,*7F
2017-12-29 10:45:40 1514562340.344113: $GPRMC,154541,A,3946.9608,N,08404.9823,W,0.0000,0.000,291217,,*36
2017-12-29 10:45:40 1514562340.344173: $GPGSA,A,3,10,13,15,18,20,21,24,27,32,138,,,1.7,1.2,1.3*02
2017-12-29 10:45:41 1514562341.721700: $GPGSV,3,1,11,10,31,291,43,13,20,045,42,15,51,049,50,18,62,313,43*71
2017-12-29 10:45:41 1514562341.721865: $GPGSV,3,2,11,20,45,082,50,21,77,217,48,24,41,129,50,27,19,304,34*7E
2017-12-29 10:45:41 1514562341.721931: $GPGSV,3,3,11,32,10,229,10,29,02,187,01,138,38,213,45*77
2017-12-29 10:45:41 1514562341.835362: $GPZDA,154542.00,29,12,2017,00,00*69
2017-12-29 10:45:41 1514562341.835495: $GPGGA,154542,3946.9608,N,08404.9823,W,2,10,0.80,300.75,M,-33.324,M,,*77
2017-12-29 10:45:41 1514562341.835561: $GPRMC,154542,A,3946.9608,N,08404.9823,W,0.0000,0.000,291217,,*35
2017-12-29 10:45:41 1514562341.835620: $GPGSA,A,3,10,13,15,18,20,21,24,27,32,138,,,1.7,0.8,1.3*09
2017-12-29 10:45:42 1514562342.386273: $GPZDA,154543.00,29,12,2017,00,00*68
2017-12-29 10:45:42 1514562342.386438: $GPGGA,154543,3946.9608,N,08404.9823,W,2,10,0.80,300.75,M,-33.324,M,,*76
2017-12-29 10:45:42 1514562342.386503: $GPRMC,154543,A,3946.9608,N,08404.9823,W,0.0000,0.000,291217,,*34
2017-12-29 10:45:42 1514562342.386579: $GPGSA,A,3,10,13,15,18,20,21,24,27,32,138,,,1.7,0.8,1.3*09
2017-12-29 10:45:43 1514562343.351027: $GPZDA,154544.00,29,12,2017,00,00*6F
2017-12-29 10:45:43 1514562343.351239: $GPGGA,154544,3946.9608,N,08404.9823,W,2,10,0.80,300.75,M,-33.324,M,,*71
2017-12-29 10:45:43 1514562343.351307: $GPRMC,154544,A,3946.9608,N,08404.9823,W,0.0000,0.000,291217,,*33
2017-12-29 10:45:43 1514562343.351367: $GPGSA,A,3,10,13,15,18,20,21,24,27,32,138,,,1.7,0.8,1.3*09
2017-12-29 10:45:44 1514562344.727050: $GPGSV,3,1,11,10,31,291,44,13,20,045,42,15,51,049,49,18,62,313,43*7E
2017-12-29 10:45:44 1514562344.727227: $GPGSV,3,2,11,20,45,082,50,21,77,217,48,24,41,129,50,27,19,304,33*79
2017-12-29 10:45:44 1514562344.727293: $GPGSV,3,3,11,32,10,229,17,29,02,187,01,138,38,213,45*70
2017-12-29 10:45:44 1514562344.840745: $GPZDA,154545.00,29,12,2017,00,00*6E
2017-12-29 10:45:44 1514562344.840879: $GPGGA,154545,3946.9608,N,08404.9823,W,2,10,0.80,300.75,M,-33.324,M,,*70
2017-12-29 10:45:44 1514562344.840943: $GPRMC,154545,A,3946.9608,N,08404.9823,W,0.0000,0.000,291217,,*32
2017-12-29 10:45:44 1514562344.841003: $GPGSA,A,3,10,13,15,18,20,21,24,27,32,138,,,1.7,0.8,1.3*09
2017-12-29 10:45:45 1514562345.349132: $GPZDA,154546.00,29,12,2017,00,00*6D
2017-12-29 10:45:45 1514562345.349299: $GPGGA,154546,3946.9608,N,08404.9823,W,2,10,0.80,300.75,M,-33.324,M,,*73
2017-12-29 10:45:45 1514562345.349365: $GPRMC,154546,A,3946.9608,N,08404.9823,W,0.0000,0.000,291217,,*31
2017-12-29 10:45:45 1514562345.349426: $GPGSA,A,3,10,13,15,18,20,21,24,27,32,138,,,1.7,0.8,1.3*09
2017-12-29 10:45:46 1514562346.386239: $GPZDA,154547.00,29,12,2017,00,00*6C
2017-12-29 10:45:46 1514562346.386397: $GPGGA,154547,3946.9608,N,08404.9823,W,2,10,0.80,300.75,M,-33.324,M,,*72
2017-12-29 10:45:46 1514562346.386462: $GPRMC,154547,A,3946.9608,N,08404.9823,W,0.0000,0.000,291217,,*30
2017-12-29 10:45:46 1514562346.386523: $GPGSA,A,3,10,13,15,18,20,21,24,27,32,138,,,1.7,0.8,1.3*09
