2017-12-01 15:24:07 1512159847.277228: {"class":"VERSION","release":"3.16","rev":"3.16-4","proto_major":3,"proto_minor":11}
2017-12-01 15:24:07 1512159847.277642: {"class":"DEVICES","devices":[{"class":"DEVICE","path":"/dev/ttyUSB0","driver":"SiRF","subtype":"9\u0006GSD4e_4.1.2-P1_RPATCH.05-F-GPS-4R-1510281 11/03/2015 307","activated":"2017-12-01T20:24:07.027Z","flags":1,"native":1,"bps":4800,"parity":"N","stopbits":1,"cycle":1.00}]}
2017-12-01 15:24:07 1512159847.277754: {"class":"WATCH","enable":true,"json":false,"nmea":true,"raw":0,"scaled":false,"timing":false,"split24":false,"pps":false}
2017-12-01 15:24:07 1512159847.625006: $GPZDA,202408.29,01,12,2017,00,00*67
2017-12-01 15:24:07 1512159847.625181: $GPGGA,202408,3946.9548,N,08404.9860,W,1,11,0.80,306.41,M,-33.324,M,,*7B
2017-12-01 15:24:07 1512159847.625251: $GPRMC,202408,A,3946.9548,N,08404.9860,W,0.1324,202.230,011217,,*35
2017-12-01 15:24:07 1512159847.625313: $GPGSA,A,3,1,10,11,12,14,18,24,25,31,32,138,,2.0,0.8,1.5*3B
2017-12-01 15:24:09 1512159849.042664: $GPGSV,3,1,12,01,08,324,23,10,79,111,28,11,09,309,20,12,23,082,27*7D
2017-12-01 15:24:09 1512159849.042845: $GPGSV,3,2,12,14,48,280,26,18,46,129,28,24,22,045,27,25,23,123,26*77
2017-12-01 15:24:09 1512159849.042912: $GPGSV,3,3,12,31,25,208,28,32,64,307,28,21,02,174,00,138,38,213,10*41
2017-12-01 15:24:09 1512159849.156355: $GPZDA,202408.98,01,12,2017,00,00*6D
2017-12-01 15:24:09 1512159849.156517: $GPGGA,202408,3946.9548,N,08404.9860,W,1,11,0.80,306.41,M,-33.324,M,,*7B
2017-12-01 15:24:09 1512159849.156584: $GPRMC,202408,A,3946.9548,N,08404.9860,W,0.0407,322.014,011217,,*35
2017-12-01 15:24:09 1512159849.156646: $GPGSA,A,3,1,10,11,12,14,18,24,25,31,32,138,,2.0,0.8,1.5*3B
2017-12-01 15:24:09 1512159849.962869: $GPZDA,202410.00,01,12,2017,00,00*65
2017-12-01 15:24:09 1512159849.963026: $GPGGA,202410,3946.9547,N,08404.9853,W,1,11,0.80,306.49,M,-33.324,M,,*75
2017-12-01 15:24:09 1512159849.963094: $GPRMC,202410,A,3946.9547,N,08404.9853,W,0.0407,322.014,011217,,*33
2017-12-01 15:24:09 1512159849.963157: $GPGSA,A,3,1,10,11,12,14,18,24,25,31,32,138,,2.0,0.8,1.5*3B
2017-12-01 15:24:09 1512159849.963219: $GPGBS,202410,10.70,M,15.43,M,35.28,M*02
2017-12-01 15:24:10 1512159850.419836: $GPZDA,202411.00,01,12,2017,00,00*64
2017-12-01 15:24:10 1512159850.419998: $GPGGA,202411,3946.9547,N,08404.9853,W,1,11,0.80,306.49,M,-33.324,M,,*74
2017-12-01 15:24:10 1512159850.420065: $GPRMC,202411,A,3946.9547,N,08404.9853,W,0.0407,322.014,011217,,*32
2017-12-01 15:24:10 1512159850.420130: $GPGSA,A,3,1,10,11,12,14,18,24,25,31,32,138,,2.0,0.8,1.5*3B
2017-12-01 15:24:10 1512159850.420188: $GPGBS,202411,10.70,M,15.43,M,35.28,M*03
2017-12-01 15:24:11 1512159851.755374: $GPGSV,3,1,12,01,08,324,39,10,79,111,46,11,09,309,26,12,23,082,45*7C
2017-12-01 15:24:11 1512159851.755553: $GPGSV,3,2,12,14,48,280,43,18,46,129,47,24,22,045,45,25,23,123,44*7D
2017-12-01 15:24:11 1512159851.755622: $GPGSV,3,3,12,31,25,208,45,32,64,307,47,21,02,174,19,138,38,213,45*4B
2017-12-01 15:24:11 1512159851.868980: $GPZDA,202412.00,01,12,2017,00,00*67
2017-12-01 15:24:11 1512159851.869120: $GPGGA,202412,3946.9551,N,08404.9852,W,1,12,0.80,305.72,M,-33.324,M,,*79
2017-12-01 15:24:11 1512159851.869187: $GPRMC,202412,A,3946.9551,N,08404.9852,W,0.0000,0.000,011217,,*32
2017-12-01 15:24:11 1512159851.869252: $GPGSA,A,3,1,10,11,12,14,18,24,25,31,32,21,138,2.0,0.8,1.5*38
2017-12-01 15:24:12 1512159852.494433: $GPZDA,202413.00,01,12,2017,00,00*66
2017-12-01 15:24:12 1512159852.494614: $GPGGA,202413,3946.9551,N,08404.9859,W,1,12,0.80,305.64,M,-33.324,M,,*74
2017-12-01 15:24:12 1512159852.494680: $GPRMC,202413,A,3946.9551,N,08404.9859,W,0.0000,0.000,011217,,*38
2017-12-01 15:24:12 1512159852.494742: $GPGSA,A,3,1,10,11,12,14,18,24,25,31,32,21,138,2.0,0.8,1.5*38
2017-12-01 15:24:13 1512159853.418891: $GPZDA,202414.00,01,12,2017,00,00*61
2017-12-01 15:24:13 1512159853.419066: $GPGGA,202414,3946.9551,N,08404.9859,W,1,12,0.80,305.64,M,-33.324,M,,*73
2017-12-01 15:24:13 1512159853.419136: $GPRMC,202414,A,3946.9551,N,08404.9859,W,0.0000,0.000,011217,,*3F
2017-12-01 15:24:13 1512159853.419254: $GPGSA,A,3,1,10,11,12,14,18,24,25,31,32,21,138,2.0,0.8,1.5*38
2017-12-01 15:24:13 1512159853.419317: $GPGBS,202414,10.70,M,15.43,M,35.28,M*06
2017-12-01 15:24:14 1512159854.755532: $GPGSV,3,1,12,01,08,324,39,10,79,111,46,11,09,309,28,12,23,082,44*73
2017-12-01 15:24:14 1512159854.755733: $GPGSV,3,2,12,14,48,280,44,18,46,129,48,24,22,045,45,25,23,123,44*75
2017-12-01 15:24:14 1512159854.755800: $GPGSV,3,3,12,31,25,208,45,32,64,307,47,21,02,174,19,138,38,213,46*48
2017-12-01 15:24:14 1512159854.869188: $GPZDA,202415.00,01,12,2017,00,00*60
2017-12-01 15:24:14 1512159854.869364: $GPGGA,202415,3946.9554,N,08404.9858,W,1,12,0.80,304.88,M,-33.324,M,,*75
2017-12-01 15:24:14 1512159854.869431: $GPRMC,202415,A,3946.9554,N,08404.9858,W,0.0000,0.000,011217,,*3A
2017-12-01 15:24:14 1512159854.869492: $GPGSA,A,3,1,10,11,12,14,18,24,25,31,32,21,138,2.0,0.8,1.5*38
2017-12-01 15:24:15 1512159855.421165: $GPZDA,202416.00,01,12,2017,00,00*63
2017-12-01 15:24:15 1512159855.421400: $GPGGA,202416,3946.9554,N,08404.9858,W,1,12,0.80,304.88,M,-33.324,M,,*76
2017-12-01 15:24:15 1512159855.421484: $GPRMC,202416,A,3946.9554,N,08404.9858,W,0.0000,0.000,011217,,*39
2017-12-01 15:24:15 1512159855.421547: $GPGSA,A,3,1,10,11,12,14,18,24,25,31,32,21,138,2.0,0.8,1.5*38
2017-12-01 15:24:16 1512159856.419676: $GPZDA,202417.00,01,12,2017,00,00*62
2017-12-01 15:24:16 1512159856.419849: $GPGGA,202417,3946.9560,N,08404.9855,W,2,12,1.00,300.54,M,-33.324,M,,*72
2017-12-01 15:24:16 1512159856.419916: $GPRMC,202417,A,3946.9560,N,08404.9855,W,0.0000,0.000,011217,,*32
2017-12-01 15:24:16 1512159856.419978: $GPGSA,A,3,1,10,11,12,14,18,24,25,31,32,21,138,2.0,1.0,1.5*31
2017-12-01 15:24:17 1512159857.757152: $GPGSV,3,1,12,01,08,324,39,10,79,111,47,11,09,309,12,12,23,082,44*7B
2017-12-01 15:24:17 1512159857.757350: $GPGSV,3,2,12,14,48,280,44,18,46,129,48,24,22,045,46,25,23,123,44*76
2017-12-01 15:24:17 1512159857.757421: $GPGSV,3,3,12,31,25,208,45,32,64,307,48,21,02,174,18,138,38,213,45*45
2017-12-01 15:24:17 1512159857.869272: $GPZDA,202418.00,01,12,2017,00,00*6D
2017-12-01 15:24:17 1512159857.869454: $GPGGA,202418,3946.9560,N,08404.9855,W,2,12,0.80,300.54,M,-33.324,M,,*74
2017-12-01 15:24:17 1512159857.869525: $GPRMC,202418,A,3946.9560,N,08404.9855,W,0.0000,0.000,011217,,*3D
2017-12-01 15:24:17 1512159857.869591: $GPGSA,A,3,1,10,11,12,14,18,24,25,31,32,21,138,2.0,0.8,1.5*38
2017-12-01 15:24:18 1512159858.424247: $GPZDA,202419.00,01,12,2017,00,00*6C
2017-12-01 15:24:18 1512159858.424427: $GPGGA,202419,3946.9559,N,08404.9855,W,2,12,0.80,299.14,M,-33.324,M,,*7A
2017-12-01 15:24:18 1512159858.424497: $GPRMC,202419,A,3946.9559,N,08404.9855,W,0.0000,0.000,011217,,*36
2017-12-01 15:24:18 1512159858.424562: $GPGSA,A,3,1,10,11,12,14,18,24,25,31,32,21,138,2.0,0.8,1.5*38
2017-12-01 15:24:19 1512159859.422583: $GPZDA,202420.00,01,12,2017,00,00*66
2017-12-01 15:24:19 1512159859.422760: $GPGGA,202420,3946.9559,N,08404.9855,W,2,12,0.80,299.14,M,-33.324,M,,*70
2017-12-01 15:24:19 1512159859.422832: $GPRMC,202420,A,3946.9559,N,08404.9855,W,0.0000,0.000,011217,,*3C
2017-12-01 15:24:19 1512159859.422896: $GPGSA,A,3,1,10,11,12,14,18,24,25,31,32,21,138,2.0,0.8,1.5*38
2017-12-01 15:24:20 1512159860.754305: $GPGSV,3,1,12,01,08,324,39,10,79,111,47,11,09,309,28,12,23,082,44*72
2017-12-01 15:24:20 1512159860.754490: $GPGSV,3,2,12,14,48,280,44,18,46,129,48,24,22,045,46,25,23,123,44*76
2017-12-01 15:24:20 1512159860.754563: $GPGSV,3,3,12,31,25,208,45,32,64,307,48,21,02,174,18,138,38,213,46*46
2017-12-01 15:24:20 1512159860.869212: $GPZDA,202421.00,01,12,2017,00,00*67
2017-12-01 15:24:20 1512159860.869408: $GPGGA,202421,3946.9559,N,08404.9855,W,2,12,0.80,299.14,M,-33.324,M,,*71
2017-12-01 15:24:20 1512159860.869483: $GPRMC,202421,A,3946.9559,N,08404.9855,W,0.0000,0.000,011217,,*3D
2017-12-01 15:24:20 1512159860.869553: $GPGSA,A,3,1,10,11,12,14,18,24,25,31,32,21,138,2.0,0.8,1.5*38
2017-12-01 15:24:21 1512159861.421015: $GPZDA,202422.00,01,12,2017,00,00*64
2017-12-01 15:24:21 1512159861.421205: $GPGGA,202422,3946.9559,N,08404.9855,W,2,12,0.80,299.14,M,-33.324,M,,*72
2017-12-01 15:24:21 1512159861.421330: $GPRMC,202422,A,3946.9559,N,08404.9855,W,0.0000,0.000,011217,,*3E
2017-12-01 15:24:21 1512159861.421456: $GPGSA,A,3,1,10,11,12,14,18,24,25,31,32,21,138,2.0,0.8,1.5*38
2017-12-01 15:24:22 1512159862.421418: $GPZDA,202423.00,01,12,2017,00,00*65
2017-12-01 15:24:22 1512159862.421593: $GPGGA,202423,3946.9559,N,08404.9855,W,2,12,0.80,299.14,M,-33.324,M,,*73
2017-12-01 15:24:22 1512159862.421663: $GPRMC,202423,A,3946.9559,N,08404.9855,W,0.0000,0.000,011217,,*3F
2017-12-01 15:24:22 1512159862.421726: $GPGSA,A,3,1,10,11,12,14,18,24,25,31,32,21,138,2.0,0.8,1.5*38
2017-12-01 15:24:23 1512159863.757115: $GPGSV,3,1,12,01,08,324,41,10,79,111,47,11,09,309,38,12,23,082,45*7D
2017-12-01 15:24:23 1512159863.757318: $GPGSV,3,2,12,14,48,280,43,18,46,129,48,24,22,045,46,25,23,123,44*71
2017-12-01 15:24:23 1512159863.757389: $GPGSV,3,3,12,31,25,208,45,32,64,307,48,21,02,174,18,138,38,213,47*47
2017-12-01 15:24:23 1512159863.870489: $GPZDA,202424.00,01,12,2017,00,00*62
2017-12-01 15:24:23 1512159863.870672: $GPGGA,202424,3946.9559,N,08404.9855,W,2,12,0.80,299.14,M,-33.324,M,,*74
2017-12-01 15:24:23 1512159863.870744: $GPRMC,202424,A,3946.9559,N,08404.9855,W,0.0000,0.000,011217,,*38
2017-12-01 15:24:23 1512159863.870811: $GPGSA,A,3,1,10,11,12,14,18,24,25,31,32,21,138,2.0,0.8,1.5*38
2017-12-01 15:24:24 1512159864.421433: $GPZDA,202425.00,01,12,2017,00,00*63
2017-12-01 15:24:24 1512159864.421614: $GPGGA,202425,3946.9559,N,08404.9855,W,2,12,0.80,299.14,M,-33.324,M,,*75
2017-12-01 15:24:24 1512159864.421686: $GPRMC,202425,A,3946.9559,N,08404.9855,W,0.0000,0.000,011217,,*39
2017-12-01 15:24:24 1512159864.421751: $GPGSA,A,3,1,10,11,12,14,18,24,25,31,32,21,138,2.0,0.8,1.5*38
2017-12-01 15:24:25 1512159865.418438: $GPZDA,202426.00,01,12,2017,00,00*60
2017-12-01 15:24:25 1512159865.418621: $GPGGA,202426,3946.9559,N,08404.9855,W,2,12,0.80,299.14,M,-33.324,M,,*76
2017-12-01 15:24:25 1512159865.418693: $GPRMC,202426,A,3946.9559,N,08404.9855,W,0.0000,0.000,011217,,*3A
2017-12-01 15:24:25 1512159865.418758: $GPGSA,A,3,1,10,11,12,14,18,24,25,31,32,21,138,2.0,0.8,1.5*38
2017-12-01 15:24:25 1512159865.418822: $GPGBS,202426,2.67,M,3.86,M,8.82,M*32
2017-12-01 15:24:26 1512159866.760411: $GPGSV,3,1,12,01,08,324,40,10,79,111,47,11,09,309,37,12,23,082,45*73
2017-12-01 15:24:26 1512159866.760598: $GPGSV,3,2,12,14,48,280,44,18,46,129,48,24,22,045,46,25,23,123,44*76
2017-12-01 15:24:26 1512159866.760671: $GPGSV,3,3,12,31,25,208,45,32,64,307,48,21,02,174,17,138,38,213,46*49
2017-12-01 15:24:26 1512159866.873801: $GPZDA,202427.00,01,12,2017,00,00*61
2017-12-01 15:24:26 1512159866.873949: $GPGGA,202427,3946.9559,N,08404.9855,W,2,12,0.80,299.14,M,-33.324,M,,*77
2017-12-01 15:24:26 1512159866.874020: $GPRMC,202427,A,3946.9559,N,08404.9855,W,0.0000,0.000,011217,,*3B
2017-12-01 15:24:26 1512159866.874088: $GPGSA,A,3,1,10,11,12,14,18,24,25,31,32,21,138,2.0,0.8,1.5*38
