2017-12-29 11:13:13 1514563993.496299: {"class":"VERSION","release":"3.16","rev":"3.16-4","proto_major":3,"proto_minor":11}
2017-12-29 11:13:13 1514563993.496642: {"class":"DEVICES","devices":[{"class":"DEVICE","path":"/dev/ttyUSB0","driver":"SiRF","subtype":"9\u0006GSD4e_4.1.2-P1_RPATCH.05-F-GPS-4R-1510281 11/03/2015 307","activated":"2017-12-29T16:13:13.277Z","flags":1,"native":1,"bps":4800,"parity":"N","stopbits":1,"cycle":1.00}]}
2017-12-29 11:13:13 1514563993.496755: {"class":"WATCH","enable":true,"json":false,"nmea":true,"raw":0,"scaled":false,"timing":false,"split24":false,"pps":false}
2017-12-29 11:13:13 1514563993.885056: $GPZDA,161314.55,29,12,2017,00,00*6A
2017-12-29 11:13:13 1514563993.885219: $GPGGA,161314,3946.9587,N,08404.9803,W,1,11,1.00,324.11,M,-33.324,M,,*7D
2017-12-29 11:13:13 1514563993.885283: $GPRMC,161314,A,3946.9587,N,08404.9803,W,0.3133,9.200,291217,,*39
2017-12-29 11:13:13 1514563993.885344: $GPGSA,A,3,8,10,15,18,20,21,24,27,32,13,138,,1.7,1.0,1.3*38
2017-12-29 11:13:13 1514563993.885401: $GPGBS,161314,10.91,M,10.38,M,30.89,M*0F
2017-12-29 11:13:14 1514563994.966457: $GPZDA,161315.23,29,12,2017,00,00*6A
2017-12-29 11:13:14 1514563994.966623: $GPGGA,161315,3946.9592,N,08404.9810,W,1,11,1.00,324.67,M,-33.324,M,,*7B
2017-12-29 11:13:14 1514563994.966691: $GPRMC,161315,A,3946.9592,N,08404.9810,W,0.1867,0.000,291217,,*3F
2017-12-29 11:13:14 1514563994.966751: $GPGSA,A,3,8,10,15,18,20,21,24,27,32,13,138,,1.7,1.0,1.3*38
2017-12-29 11:13:16 1514563996.109042: $GPGSV,3,1,12,08,05,324,36,10,40,300,45,15,38,052,49,18,70,334,43*7A
2017-12-29 11:13:16 1514563996.109200: $GPGSV,3,2,12,20,36,094,50,21,65,190,46,24,50,112,47,27,19,291,38*70
2017-12-29 11:13:16 1514563996.109264: $GPGSV,3,3,12,32,20,237,40,13,09,048,09,14,02,231,00,138,38,213,00*43
2017-12-29 11:13:16 1514563996.222678: $GPZDA,161316.00,29,12,2017,00,00*68
2017-12-29 11:13:16 1514563996.222798: $GPGGA,161316,3946.9588,N,08404.9810,W,1,10,0.80,325.44,M,-33.324,M,,*7B
2017-12-29 11:13:16 1514563996.222861: $GPRMC,161316,A,3946.9588,N,08404.9810,W,0.2959,54.767,291217,,*0F
2017-12-29 11:13:16 1514563996.222921: $GPGSA,A,3,8,10,15,18,20,21,24,27,32,13,,,1.7,0.8,1.3*0B
2017-12-29 11:13:16 1514563996.674825: $GPZDA,161317.00,29,12,2017,00,00*69
2017-12-29 11:13:16 1514563996.674985: $GPGGA,161317,3946.9584,N,08404.9810,W,1,10,0.80,324.80,M,-33.324,M,,*7F
2017-12-29 11:13:16 1514563996.675049: $GPRMC,161317,A,3946.9584,N,08404.9810,W,0.1867,0.000,291217,,*3A
2017-12-29 11:13:16 1514563996.675109: $GPGSA,A,3,8,10,15,18,20,21,24,27,32,13,,,1.7,0.8,1.3*0B
2017-12-29 11:13:17 1514563997.372935: $GPZDA,161318.00,29,12,2017,00,00*66
2017-12-29 11:13:17 1514563997.373075: $GPGGA,161318,3946.9588,N,08404.9810,W,1,10,0.80,324.03,M,-33.324,M,,*77
2017-12-29 11:13:17 1514563997.373139: $GPRMC,161318,A,3946.9588,N,08404.9810,W,0.0000,0.000,291217,,*31
2017-12-29 11:13:17 1514563997.373199: $GPGSA,A,3,8,10,15,18,20,21,24,27,32,13,,,1.7,0.8,1.3*0B
2017-12-29 11:13:18 1514563998.708176: $GPGSV,3,1,12,08,05,324,35,10,40,300,44,15,38,052,49,18,70,334,42*79
2017-12-29 11:13:18 1514563998.708361: $GPGSV,3,2,12,20,36,094,49,21,65,190,46,24,50,112,46,27,19,291,37*76
2017-12-29 11:13:18 1514563998.708428: $GPGSV,3,3,12,32,20,237,39,13,09,048,24,14,02,231,00,138,38,213,46*40
2017-12-29 11:13:18 1514563998.821551: $GPZDA,161319.00,29,12,2017,00,00*67
2017-12-29 11:13:18 1514563998.821679: $GPGGA,161319,3946.9588,N,08404.9810,W,1,11,0.80,324.03,M,-33.324,M,,*77
2017-12-29 11:13:18 1514563998.821743: $GPRMC,161319,A,3946.9588,N,08404.9810,W,0.0000,0.000,291217,,*30
2017-12-29 11:13:18 1514563998.821802: $GPGSA,A,3,8,10,15,18,20,21,24,27,32,13,138,,1.7,0.8,1.3*31
2017-12-29 11:13:19 1514563999.376119: $GPZDA,161320.00,29,12,2017,00,00*6D
2017-12-29 11:13:19 1514563999.376255: $GPGGA,161320,3946.9584,N,08404.9817,W,1,11,0.80,323.31,M,-33.324,M,,*70
2017-12-29 11:13:19 1514563999.376320: $GPRMC,161320,A,3946.9584,N,08404.9817,W,0.0000,0.000,291217,,*31
2017-12-29 11:13:19 1514563999.376379: $GPGSA,A,3,8,10,15,18,20,21,24,27,32,13,138,,1.7,0.8,1.3*31
2017-12-29 11:13:20 1514564000.374428: $GPZDA,161321.00,29,12,2017,00,00*6C
2017-12-29 11:13:20 1514564000.374578: $GPGGA,161321,3946.9584,N,08404.9817,W,1,11,0.80,323.31,M,-33.324,M,,*71
2017-12-29 11:13:20 1514564000.374644: $GPRMC,161321,A,3946.9584,N,08404.9817,W,0.0000,0.000,291217,,*30
2017-12-29 11:13:20 1514564000.374704: $GPGSA,A,3,8,10,15,18,20,21,24,27,32,13,138,,1.7,0.8,1.3*31
2017-12-29 11:13:20 1514564000.374762: $GPGBS,161321,10.91,M,10.38,M,30.89,M*09
2017-12-29 11:13:21 1514564001.708906: $GPGSV,3,1,12,08,05,324,32,10,40,300,44,15,38,052,49,18,70,334,42*7E
2017-12-29 11:13:21 1514564001.709095: $GPGSV,3,2,12,20,36,094,48,21,65,190,45,24,50,112,46,27,19,291,36*75
2017-12-29 11:13:21 1514564001.709161: $GPGSV,3,3,12,32,20,237,39,13,09,048,23,14,02,231,00,138,38,213,47*46
2017-12-29 11:13:21 1514564001.822288: $GPZDA,161322.00,29,12,2017,00,00*6F
2017-12-29 11:13:21 1514564001.822416: $GPGGA,161322,3946.9584,N,08404.9817,W,1,11,0.80,323.31,M,-33.324,M,,*72
2017-12-29 11:13:21 1514564001.822480: $GPRMC,161322,A,3946.9584,N,08404.9817,W,0.0000,0.000,291217,,*33
2017-12-29 11:13:21 1514564001.822540: $GPGSA,A,3,8,10,15,18,20,21,24,27,32,13,138,,1.7,0.8,1.3*31
2017-12-29 11:13:22 1514564002.374353: $GPZDA,161323.00,29,12,2017,00,00*6E
2017-12-29 11:13:22 1514564002.374506: $GPGGA,161323,3946.9580,N,08404.9817,W,1,11,0.80,322.67,M,-33.324,M,,*75
2017-12-29 11:13:22 1514564002.374572: $GPRMC,161323,A,3946.9580,N,08404.9817,W,0.0000,0.000,291217,,*36
2017-12-29 11:13:22 1514564002.374632: $GPGSA,A,3,8,10,15,18,20,21,24,27,32,13,138,,1.7,0.8,1.3*31
2017-12-29 11:13:23 1514564003.374785: $GPZDA,161324.00,29,12,2017,00,00*69
2017-12-29 11:13:23 1514564003.374946: $GPGGA,161324,3946.9583,N,08404.9816,W,1,11,0.80,321.91,M,-33.324,M,,*7A
2017-12-29 11:13:23 1514564003.375029: $GPRMC,161324,A,3946.9583,N,08404.9816,W,0.0000,0.000,291217,,*33
2017-12-29 11:13:23 1514564003.375092: $GPGSA,A,3,8,10,15,18,20,21,24,27,32,13,138,,1.7,0.8,1.3*31
2017-12-29 11:13:24 1514564004.711769: $GPGSV,3,1,12,08,05,324,30,10,40,300,43,15,38,052,48,18,70,334,43*7B
2017-12-29 11:13:24 1514564004.711960: $GPGSV,3,2,12,20,36,094,48,21,65,190,45,24,50,112,46,27,19,291,36*75
2017-12-29 11:13:24 1514564004.712026: $GPGSV,3,3,12,32,20,237,39,13,09,048,23,14,02,231,00,138,38,213,46*47
2017-12-29 11:13:24 1514564004.825102: $GPZDA,161325.00,29,12,2017,00,00*68
2017-12-29 11:13:24 1514564004.825248: $GPGGA,161325,3946.9575,N,08404.9822,W,2,11,1.20,319.15,M,-33.324,M,,*7A
2017-12-29 11:13:24 1514564004.825315: $GPRMC,161325,A,3946.9575,N,08404.9822,W,0.0000,0.000,291217,,*3C
2017-12-29 11:13:24 1514564004.825376: $GPGSA,A,3,8,10,15,18,20,21,24,27,32,13,138,,1.7,1.2,1.3*3A
2017-12-29 11:13:25 1514564005.375990: $GPZDA,161326.00,29,12,2017,00,00*6B
2017-12-29 11:13:25 1514564005.376134: $GPGGA,161326,3946.9575,N,08404.9816,W,2,11,0.80,320.63,M,-33.324,M,,*7E
2017-12-29 11:13:25 1514564005.376200: $GPRMC,161326,A,3946.9575,N,08404.9816,W,0.1867,0.000,291217,,*30
2017-12-29 11:13:25 1514564005.376259: $GPGSA,A,3,8,10,15,18,20,21,24,27,32,13,138,,1.7,0.8,1.3*31
2017-12-29 11:13:26 1514564006.376887: $GPZDA,161327.00,29,12,2017,00,00*6A
2017-12-29 11:13:26 1514564006.377060: $GPGGA,161327,3946.9575,N,08404.9816,W,2,11,0.80,320.63,M,-33.324,M,,*7F
2017-12-29 11:13:26 1514564006.377127: $GPRMC,161327,A,3946.9575,N,08404.9816,W,0.0000,0.000,291217,,*39
2017-12-29 11:13:26 1514564006.377187: $GPGSA,A,3,8,10,15,18,20,21,24,27,32,13,138,,1.7,0.8,1.3*31
2017-12-29 11:13:27 1514564007.712634: $GPGSV,3,1,12,08,05,324,29,10,40,300,43,15,38,052,48,18,70,334,42*72
2017-12-29 11:13:27 1514564007.712797: $GPGSV,3,2,12,20,36,094,48,21,65,190,45,24,50,112,46,27,19,291,36*75
2017-12-29 11:13:27 1514564007.712863: $GPGSV,3,3,12,32,20,237,39,13,09,048,24,14,02,231,00,138,38,213,45*43
2017-12-29 11:13:27 1514564007.826025: $GPZDA,161328.00,29,12,2017,00,00*65
2017-12-29 11:13:27 1514564007.826169: $GPGGA,161328,3946.9575,N,08404.9816,W,2,11,0.80,320.63,M,-33.324,M,,*70
2017-12-29 11:13:27 1514564007.826235: $GPRMC,161328,A,3946.9575,N,08404.9816,W,0.0000,0.000,291217,,*36
2017-12-29 11:13:27 1514564007.826347: $GPGSA,A,3,8,10,15,18,20,21,24,27,32,13,138,,1.7,0.8,1.3*31
2017-12-29 11:13:28 1514564008.451427: $GPZDA,161329.00,29,12,2017,00,00*64
2017-12-29 11:13:28 1514564008.451568: $GPGGA,161329,3946.9575,N,08404.9816,W,2,11,0.80,320.63,M,-33.324,M,,*71
2017-12-29 11:13:28 1514564008.451633: $GPRMC,161329,A,3946.9575,N,08404.9816,W,0.0000,0.000,291217,,*37
2017-12-29 11:13:28 1514564008.451696: $GPGSA,A,3,8,10,15,18,20,21,24,27,32,13,138,,1.7,0.8,1.3*31
2017-12-29 11:13:29 1514564009.374792: $GPZDA,161330.00,29,12,2017,00,00*6C
2017-12-29 11:13:29 1514564009.374945: $GPGGA,161330,3946.9575,N,08404.9816,W,2,11,0.80,320.63,M,-33.324,M,,*79
2017-12-29 11:13:29 1514564009.375010: $GPRMC,161330,A,3946.9575,N,08404.9816,W,0.0000,0.000,291217,,*3F
2017-12-29 11:13:29 1514564009.375072: $GPGSA,A,3,8,10,15,18,20,21,24,27,32,13,138,,1.7,0.8,1.3*31
2017-12-29 11:13:30 1514564010.711777: $GPGSV,3,1,12,08,05,324,29,10,40,300,43,15,38,052,48,18,70,334,42*72
2017-12-29 11:13:30 1514564010.711955: $GPGSV,3,2,12,20,36,094,48,21,65,190,45,24,50,112,46,27,19,291,36*75
2017-12-29 11:13:30 1514564010.712021: $GPGSV,3,3,12,32,20,237,38,13,09,048,24,14,02,231,00,138,38,213,46*41
2017-12-29 11:13:30 1514564010.825158: $GPZDA,161331.00,29,12,2017,00,00*6D
2017-12-29 11:13:30 1514564010.825281: $GPGGA,161331,3946.9575,N,08404.9816,W,2,11,0.80,320.63,M,-33.324,M,,*78
2017-12-29 11:13:30 1514564010.825346: $GPRMC,161331,A,3946.9575,N,08404.9816,W,0.0000,0.000,291217,,*3E
2017-12-29 11:13:30 1514564010.825406: $GPGSA,A,3,8,10,15,18,20,21,24,27,32,13,138,,1.7,0.8,1.3*31
2017-12-29 11:13:31 1514564011.377274: $GPZDA,161332.00,29,12,2017,00,00*6E
2017-12-29 11:13:31 1514564011.377408: $GPGGA,161332,3946.9575,N,08404.9816,W,2,11,0.80,320.63,M,-33.324,M,,*7B
2017-12-29 11:13:31 1514564011.377473: $GPRMC,161332,A,3946.9575,N,08404.9816,W,0.0000,0.000,291217,,*3D
2017-12-29 11:13:31 1514564011.377534: $GPGSA,A,3,8,10,15,18,20,21,24,27,32,13,138,,1.7,0.8,1.3*31
2017-12-29 11:13:32 1514564012.376923: $GPZDA,161333.00,29,12,2017,00,00*6F
2017-12-29 11:13:32 1514564012.377070: $GPGGA,161333,3946.9571,N,08404.9817,W,2,11,0.80,321.39,M,-33.324,M,,*71
2017-12-29 11:13:32 1514564012.377135: $GPRMC,161333,A,3946.9571,N,08404.9817,W,0.2422,93.794,291217,,*0F
2017-12-29 11:13:32 1514564012.377196: $GPGSA,A,3,8,10,15,18,20,21,24,27,32,13,138,,1.7,0.8,1.3*31
2017-12-29 11:13:32 1514564012.377254: $GPGBS,161333,2.73,M,2.59,M,7.72,M*31
2017-12-29 11:13:33 1514564013.708275: $GPGSV,3,1,12,08,05,324,08,10,40,300,13,15,38,052,14,18,70,334,12*78
2017-12-29 11:13:33 1514564013.708443: $GPGSV,3,2,12,20,36,094,14,21,65,190,13,24,50,112,14,27,19,291,11*7D
2017-12-29 11:13:33 1514564013.708508: $GPGSV,3,3,12,32,20,237,10,13,09,048,07,14,02,231,00,138,38,213,15*4C
2017-12-29 11:13:33 1514564013.821663: $GPZDA,161334.00,29,12,2017,00,00*68
2017-12-29 11:13:33 1514564013.821809: $GPGGA,161334,3946.9571,N,08404.9817,W,2,11,0.80,321.39,M,-33.324,M,,*76
2017-12-29 11:13:33 1514564013.821874: $GPRMC,161334,A,3946.9571,N,08404.9817,W,0.4207,39.346,291217,,*04
2017-12-29 11:13:33 1514564013.821935: $GPGSA,A,3,8,10,15,18,20,21,24,27,32,13,138,,1.7,0.8,1.3*31
2017-12-29 11:13:34 1514564014.372509: $GPZDA,161335.00,29,12,2017,00,00*69
2017-12-29 11:13:34 1514564014.372647: $GPGGA,161335,3946.9571,N,08404.9817,W,2,11,0.80,321.39,M,-33.324,M,,*77
2017-12-29 11:13:34 1514564014.372714: $GPRMC,161335,A,3946.9571,N,08404.9817,W,0.4179,148.778,291217,,*31
2017-12-29 11:13:34 1514564014.372778: $GPGSA,A,3,8,10,15,18,20,21,24,27,32,13,138,,1.7,0.8,1.3*31
2017-12-29 11:13:35 1514564015.373398: $GPZDA,161336.00,29,12,2017,00,00*6A
2017-12-29 11:13:35 1514564015.373565: $GPGGA,161336,3946.9571,N,08404.9816,W,2,11,0.80,319.99,M,-33.324,M,,*74
2017-12-29 11:13:35 1514564015.373631: $GPRMC,161336,A,3946.9571,N,08404.9816,W,0.1867,180.000,291217,,*3C
2017-12-29 11:13:35 1514564015.373691: $GPGSA,A,3,8,10,15,18,20,21,24,27,32,13,138,,1.7,0.8,1.3*31
2017-12-29 11:13:36 1514564016.711643: $GPGSV,3,1,12,08,05,324,29,10,40,300,42,15,38,052,48,18,70,334,42*73
2017-12-29 11:13:36 1514564016.711873: $GPGSV,3,2,12,20,36,094,47,21,65,190,44,24,50,112,45,27,19,291,34*7A
2017-12-29 11:13:36 1514564016.711959: $GPGSV,3,3,12,32,20,237,34,13,09,048,24,14,02,231,00,138,38,213,45*4E
2017-12-29 11:13:36 1514564016.824989: $GPZDA,161337.00,29,12,2017,00,00*6B
2017-12-29 11:13:36 1514564016.825132: $GPGGA,161337,3946.9571,N,08404.9816,W,2,11,0.80,319.99,M,-33.324,M,,*75
2017-12-29 11:13:36 1514564016.825197: $GPRMC,161337,A,3946.9571,N,08404.9816,W,0.0000,0.000,291217,,*3C
2017-12-29 11:13:36 1514564016.825258: $GPGSA,A,3,8,10,15,18,20,21,24,27,32,13,138,,1.7,0.8,1.3*31
2017-12-29 11:13:37 1514564017.378387: $GPZDA,161338.00,29,12,2017,00,00*64
2017-12-29 11:13:37 1514564017.378546: $GPGGA,161338,3946.9571,N,08404.9816,W,2,11,0.80,319.99,M,-33.324,M,,*7A
2017-12-29 11:13:37 1514564017.378612: $GPRMC,161338,A,3946.9571,N,08404.9816,W,0.0000,0.000,291217,,*33
2017-12-29 11:13:37 1514564017.378673: $GPGSA,A,3,8,10,15,18,20,21,24,27,32,13,138,,1.7,0.8,1.3*31
2017-12-29 11:13:38 1514564018.376266: $GPZDA,161339.00,29,12,2017,00,00*65
2017-12-29 11:13:38 1514564018.376426: $GPGGA,161339,3946.9571,N,08404.9816,W,2,11,0.80,319.99,M,-33.324,M,,*7B
2017-12-29 11:13:38 1514564018.376493: $GPRMC,161339,A,3946.9571,N,08404.9816,W,0.0000,0.000,291217,,*32
2017-12-29 11:13:38 1514564018.376554: $GPGSA,A,3,8,10,15,18,20,21,24,27,32,13,138,,1.7,0.8,1.3*31
