2017-12-31 16:48:27 1514756907.057143: {"class":"VERSION","release":"3.16","rev":"3.16-4","proto_major":3,"proto_minor":11}
2017-12-31 16:48:27 1514756907.057644: {"class":"DEVICES","devices":[{"class":"DEVICE","path":"/dev/ttyUSB0","driver":"SiRF","activated":"2017-12-31T21:48:26.486Z","flags":1,"native":1,"bps":4800,"parity":"N","stopbits":1,"cycle":1.00}]}
2017-12-31 16:48:27 1514756907.057742: {"class":"WATCH","enable":true,"json":false,"nmea":true,"raw":0,"scaled":false,"timing":false,"split24":false,"pps":false}
2017-12-31 16:48:27 1514756907.697534: $GPGSV,3,1,11,22,48,250,44,23,21,306,41,25,08,037,00,03,45,282,28*79
2017-12-31 16:48:27 1514756907.697706: $GPGSV,3,2,11,16,38,189,47,29,14,061,28,31,56,043,51,14,46,106,46*74
2017-12-31 16:48:27 1514756907.697797: $GPGSV,3,3,11,32,25,117,42,26,68,159,41,135,22,240,43*7A
2017-12-31 16:48:27 1514756907.811149: $GPZDA,214828.00,31,12,2017,00,00*66
2017-12-31 16:48:27 1514756907.811304: $GPGGA,214828,3946.9576,N,08404.9848,W,2,10,1.00,303.18,M,-33.324,M,,*77
2017-12-31 16:48:27 1514756907.811370: $GPRMC,214828,A,3946.9576,N,08404.9848,W,0.0000,0.000,311217,,*3D
2017-12-31 16:48:27 1514756907.811430: $GPGSA,A,3,22,23,3,16,29,31,14,32,26,135,,,1.7,1.0,1.3*3C
2017-12-31 16:48:28 1514756908.353372: $GPZDA,214829.00,31,12,2017,00,00*67
2017-12-31 16:48:28 1514756908.353533: $GPGGA,214829,3946.9576,N,08404.9848,W,2,10,1.00,303.18,M,-33.324,M,,*76
2017-12-31 16:48:28 1514756908.353599: $GPRMC,214829,A,3946.9576,N,08404.9848,W,0.0000,0.000,311217,,*3C
2017-12-31 16:48:28 1514756908.353661: $GPGSA,A,3,22,23,3,16,29,31,14,32,26,135,,,1.7,1.0,1.3*3C
2017-12-31 16:48:29 1514756909.345131: $GPZDA,214830.00,31,12,2017,00,00*6F
2017-12-31 16:48:29 1514756909.345294: $GPGGA,214830,3946.9576,N,08404.9848,W,2,10,1.00,303.18,M,-33.324,M,,*7E
2017-12-31 16:48:29 1514756909.345360: $GPRMC,214830,A,3946.9576,N,08404.9848,W,0.0000,0.000,311217,,*34
2017-12-31 16:48:29 1514756909.345420: $GPGSA,A,3,22,23,3,16,29,31,14,32,26,135,,,1.7,1.0,1.3*3C
2017-12-31 16:48:30 1514756910.674080: $GPGSV,3,1,11,22,48,250,43,23,21,306,41,25,08,037,19,03,45,282,21*7F
2017-12-31 16:48:30 1514756910.674260: $GPGSV,3,2,11,16,38,189,48,29,14,061,28,31,56,043,52,14,46,106,46*78
2017-12-31 16:48:30 1514756910.674325: $GPGSV,3,3,11,32,25,117,42,26,68,159,41,135,22,240,43*7A
2017-12-31 16:48:30 1514756910.787463: $GPZDA,214831.00,31,12,2017,00,00*6E
2017-12-31 16:48:30 1514756910.787601: $GPGGA,214831,3946.9576,N,08404.9848,W,2,11,0.80,303.18,M,-33.324,M,,*77
2017-12-31 16:48:30 1514756910.787666: $GPRMC,214831,A,3946.9576,N,08404.9848,W,0.0000,0.000,311217,,*35
2017-12-31 16:48:30 1514756910.787726: $GPGSA,A,3,22,23,25,3,16,29,31,14,32,26,135,,1.7,0.8,1.3*32
2017-12-31 16:48:31 1514756911.362077: $GPZDA,214832.00,31,12,2017,00,00*6D
2017-12-31 16:48:31 1514756911.362244: $GPGGA,214832,3946.9576,N,08404.9848,W,2,11,0.80,303.18,M,-33.324,M,,*74
2017-12-31 16:48:31 1514756911.362309: $GPRMC,214832,A,3946.9576,N,08404.9848,W,0.0000,0.000,311217,,*36
2017-12-31 16:48:31 1514756911.362369: $GPGSA,A,3,22,23,25,3,16,29,31,14,32,26,135,,1.7,0.8,1.3*32
2017-12-31 16:48:32 1514756912.344180: $GPZDA,214833.00,31,12,2017,00,00*6C
2017-12-31 16:48:32 1514756912.344336: $GPGGA,214833,3946.9576,N,08404.9848,W,2,11,0.80,303.18,M,-33.324,M,,*75
2017-12-31 16:48:32 1514756912.344401: $GPRMC,214833,A,3946.9576,N,08404.9848,W,0.0000,0.000,311217,,*37
2017-12-31 16:48:32 1514756912.344462: $GPGSA,A,3,22,23,25,3,16,29,31,14,32,26,135,,1.7,0.8,1.3*32
2017-12-31 16:48:33 1514756913.697463: $GPGSV,3,1,11,22,48,250,43,23,21,306,41,25,08,037,20,03,45,282,28*7C
2017-12-31 16:48:33 1514756913.697639: $GPGSV,3,2,11,16,38,189,48,29,14,061,29,31,56,043,52,14,46,106,46*79
2017-12-31 16:48:33 1514756913.697704: $GPGSV,3,3,11,32,25,117,43,26,68,159,41,135,22,240,44*7C
2017-12-31 16:48:33 1514756913.809491: $GPZDA,214834.00,31,12,2017,00,00*6B
2017-12-31 16:48:33 1514756913.809633: $GPGGA,214834,3946.9576,N,08404.9848,W,2,11,0.80,303.18,M,-33.324,M,,*72
2017-12-31 16:48:33 1514756913.809698: $GPRMC,214834,A,3946.9576,N,08404.9848,W,0.0000,0.000,311217,,*30
2017-12-31 16:48:33 1514756913.809812: $GPGSA,A,3,22,23,25,3,16,29,31,14,32,26,135,,1.7,0.8,1.3*32
2017-12-31 16:48:34 1514756914.344128: $GPZDA,214835.00,31,12,2017,00,00*6A
2017-12-31 16:48:34 1514756914.344314: $GPGGA,214835,3946.9576,N,08404.9848,W,2,11,0.80,303.18,M,-33.324,M,,*73
2017-12-31 16:48:34 1514756914.344382: $GPRMC,214835,A,3946.9576,N,08404.9848,W,0.0000,0.000,311217,,*31
2017-12-31 16:48:34 1514756914.344443: $GPGSA,A,3,22,23,25,3,16,29,31,14,32,26,135,,1.7,0.8,1.3*32
2017-12-31 16:48:35 1514756915.344506: $GPZDA,214836.00,31,12,2017,00,00*69
2017-12-31 16:48:35 1514756915.344694: $GPGGA,214836,3946.9576,N,08404.9848,W,2,11,0.80,303.18,M,-33.324,M,,*70
2017-12-31 16:48:35 1514756915.344761: $GPRMC,214836,A,3946.9576,N,08404.9848,W,0.0000,0.000,311217,,*32
2017-12-31 16:48:35 1514756915.344821: $GPGSA,A,3,22,23,25,3,16,29,31,14,32,26,135,,1.7,0.8,1.3*32
2017-12-31 16:48:36 1514756916.672759: $GPGSV,3,1,11,22,48,250,44,23,21,306,40,25,08,037,21,03,45,282,32*70
2017-12-31 16:48:36 1514756916.672940: $GPGSV,3,2,11,16,38,189,48,29,14,061,29,31,56,043,51,14,46,106,46*7A
2017-12-31 16:48:36 1514756916.673006: $GPGSV,3,3,11,32,25,117,43,26,68,159,42,135,22,240,43*78
2017-12-31 16:48:36 1514756916.786126: $GPZDA,214837.00,31,12,2017,00,00*68
2017-12-31 16:48:36 1514756916.786297: $GPGGA,214837,3946.9576,N,08404.9848,W,2,11,0.80,303.18,M,-33.324,M,,*71
2017-12-31 16:48:36 1514756916.786361: $GPRMC,214837,A,3946.9576,N,08404.9848,W,0.0000,0.000,311217,,*33
2017-12-31 16:48:36 1514756916.786437: $GPGSA,A,3,22,23,25,3,16,29,31,14,32,26,135,,1.7,0.8,1.3*32
