2017-11-16 15:29:47 1510864187.776842: {"class":"VERSION","release":"3.17","rev":"3.17","proto_major":3,"proto_minor":12}
2017-11-16 15:29:47 1510864187.777270: {"class":"DEVICES","devices":[{"class":"DEVICE","path":"/dev/ttyUSB0","driver":"SiRF","subtype":"9\u0006GSD4e_4.1.2-P1_RPATCH.05-F-GPS-4R-1510281 11/03/2015 307","activated":"2017-11-16T20:29:47.510Z","flags":1,"native":1,"bps":4800,"parity":"N","stopbits":1,"cycle":1.00}]}
2017-11-16 15:29:47 1510864187.777392: {"class":"WATCH","enable":true,"json":false,"nmea":true,"raw":0,"scaled":false,"timing":false,"split24":false,"pps":false}
2017-11-16 15:29:48 1510864188.385486: $GPZDA,202947.00,16,11,2017,00,00*6F
2017-11-16 15:29:48 1510864188.385655: $GPGGA,202947,3946.9568,N,08404.9860,W,2,12,0.80,309.61,M,-33.324,M,,*72
2017-11-16 15:29:48 1510864188.385718: $GPRMC,202947,A,3946.9568,N,08404.9860,W,0.0000,0.000,161117,,*31
2017-11-16 15:29:48 1510864188.385775: $GPGSA,A,3,8,10,14,20,18,15,21,24,27,32,12,138,1.6,0.8,1.3*34
2017-11-16 15:29:49 1510864189.706316: $GPGSV,3,1,12,08,05,292,35,10,70,333,51,14,30,255,45,20,07,118,14*76
2017-11-16 15:29:49 1510864189.706492: $GPGSV,3,2,12,18,70,097,47,15,10,067,31,21,28,180,42,24,44,057,50*79
2017-11-16 15:29:49 1510864189.706552: $GPGSV,3,3,12,27,05,258,30,32,47,267,48,12,10,106,34,138,38,213,44*48
2017-11-16 15:29:49 1510864189.819817: $GPZDA,202948.00,16,11,2017,00,00*60
2017-11-16 15:29:49 1510864189.819974: $GPGGA,202948,3946.9568,N,08404.9860,W,2,12,0.80,309.61,M,-33.324,M,,*7D
2017-11-16 15:29:49 1510864189.820035: $GPRMC,202948,A,3946.9568,N,08404.9860,W,0.0000,0.000,161117,,*3E
2017-11-16 15:29:49 1510864189.820090: $GPGSA,A,3,8,10,14,20,18,15,21,24,27,32,12,138,1.6,0.8,1.3*34
2017-11-16 15:29:50 1510864190.361822: $GPZDA,202949.00,16,11,2017,00,00*61
2017-11-16 15:29:50 1510864190.361990: $GPGGA,202949,3946.9568,N,08404.9860,W,2,12,0.80,309.61,M,-33.324,M,,*7C
2017-11-16 15:29:50 1510864190.362052: $GPRMC,202949,A,3946.9568,N,08404.9860,W,0.0000,0.000,161117,,*3F
2017-11-16 15:29:50 1510864190.362123: $GPGSA,A,3,8,10,14,20,18,15,21,24,27,32,12,138,1.6,0.8,1.3*34
2017-11-16 15:29:51 1510864191.360874: $GPZDA,202950.00,16,11,2017,00,00*69
2017-11-16 15:29:51 1510864191.361050: $GPGGA,202950,3946.9568,N,08404.9860,W,2,12,0.80,309.61,M,-33.324,M,,*74
2017-11-16 15:29:51 1510864191.361112: $GPRMC,202950,A,3946.9568,N,08404.9860,W,0.0000,0.000,161117,,*37
2017-11-16 15:29:51 1510864191.361168: $GPGSA,A,3,8,10,14,20,18,15,21,24,27,32,12,138,1.6,0.8,1.3*34
2017-11-16 15:29:52 1510864192.702900: $GPGSV,3,1,12,08,05,292,36,10,70,333,51,14,30,255,44,20,07,118,15*75
2017-11-16 15:29:52 1510864192.703081: $GPGSV,3,2,12,18,70,097,47,15,10,067,31,21,28,180,42,24,44,057,50*79
2017-11-16 15:29:52 1510864192.703141: $GPGSV,3,3,12,27,05,258,29,32,47,267,47,12,10,106,33,138,38,213,44*48
2017-11-16 15:29:52 1510864192.816460: $GPZDA,202951.00,16,11,2017,00,00*68
2017-11-16 15:29:52 1510864192.816619: $GPGGA,202951,3946.9568,N,08404.9860,W,2,12,0.80,309.61,M,-33.324,M,,*75
2017-11-16 15:29:52 1510864192.816680: $GPRMC,202951,A,3946.9568,N,08404.9860,W,0.0000,0.000,161117,,*36
2017-11-16 15:29:52 1510864192.816735: $GPGSA,A,3,8,10,14,20,18,15,21,24,27,32,12,138,1.6,0.8,1.3*34
2017-11-16 15:29:53 1510864193.369968: $GPZDA,202952.00,16,11,2017,00,00*6B
2017-11-16 15:29:53 1510864193.370146: $GPGGA,202952,3946.9568,N,08404.9860,W,2,12,0.80,309.61,M,-33.324,M,,*76
2017-11-16 15:29:53 1510864193.370207: $GPRMC,202952,A,3946.9568,N,08404.9860,W,0.0000,0.000,161117,,*35
2017-11-16 15:29:53 1510864193.370263: $GPGSA,A,3,8,10,14,20,18,15,21,24,27,32,12,138,1.6,0.8,1.3*34
2017-11-16 15:29:54 1510864194.383026: $GPZDA,202953.00,16,11,2017,00,00*6A
2017-11-16 15:29:54 1510864194.383197: $GPGGA,202953,3946.9568,N,08404.9860,W,2,12,0.80,309.61,M,-33.324,M,,*77
2017-11-16 15:29:54 1510864194.383277: $GPRMC,202953,A,3946.9568,N,08404.9860,W,0.0000,0.000,161117,,*34
2017-11-16 15:29:54 1510864194.383333: $GPGSA,A,3,8,10,14,20,18,15,21,24,27,32,12,138,1.6,0.8,1.3*34
2017-11-16 15:29:55 1510864195.703617: $GPGSV,3,1,12,08,05,292,36,10,70,333,51,14,30,255,44,20,07,118,15*75
2017-11-16 15:29:55 1510864195.703817: $GPGSV,3,2,12,18,70,097,47,15,10,067,31,21,28,180,42,24,44,057,50*79
2017-11-16 15:29:55 1510864195.703880: $GPGSV,3,3,12,27,05,258,18,32,47,267,47,12,10,106,33,138,38,213,44*4A
2017-11-16 15:29:55 1510864195.817215: $GPZDA,202954.00,16,11,2017,00,00*6D
2017-11-16 15:29:55 1510864195.817403: $GPGGA,202954,3946.9568,N,08404.9860,W,2,12,0.80,309.61,M,-33.324,M,,*70
2017-11-16 15:29:55 1510864195.817468: $GPRMC,202954,A,3946.9568,N,08404.9860,W,0.0000,0.000,161117,,*33
2017-11-16 15:29:55 1510864195.817525: $GPGSA,A,3,8,10,14,20,18,15,21,24,27,32,12,138,1.6,0.8,1.3*34
2017-11-16 15:29:56 1510864196.442625: $GPZDA,202955.00,16,11,2017,00,00*6C
2017-11-16 15:29:56 1510864196.442784: $GPGGA,202955,3946.9568,N,08404.9860,W,2,12,0.80,309.61,M,-33.324,M,,*71
2017-11-16 15:29:56 1510864196.442845: $GPRMC,202955,A,3946.9568,N,08404.9860,W,0.0000,0.000,161117,,*32
2017-11-16 15:29:56 1510864196.442901: $GPGSA,A,3,8,10,14,20,18,15,21,24,27,32,12,138,1.6,0.8,1.3*34
2017-11-16 15:29:57 1510864197.360746: $GPZDA,202956.00,16,11,2017,00,00*6F
2017-11-16 15:29:57 1510864197.360912: $GPGGA,202956,3946.9568,N,08404.9860,W,2,12,0.80,309.61,M,-33.324,M,,*72
2017-11-16 15:29:57 1510864197.360991: $GPRMC,202956,A,3946.9568,N,08404.9860,W,0.0000,0.000,161117,,*31
2017-11-16 15:29:57 1510864197.361049: $GPGSA,A,3,8,10,14,20,18,15,21,24,27,32,12,138,1.6,0.8,1.3*34
