2017-11-16 14:27:22 1510860442.557490: {"class":"VERSION","release":"3.17","rev":"3.17","proto_major":3,"proto_minor":12}
2017-11-16 14:27:22 1510860442.558023: {"class":"DEVICES","devices":[{"class":"DEVICE","path":"/dev/ttyUSB0","driver":"SiRF","subtype":"9\u0006GSD4e_4.1.2-P1_RPATCH.05-F-GPS-4R-1510281 11/03/2015 307","activated":"2017-11-16T19:27:22.543Z","flags":1,"native":1,"bps":4800,"parity":"N","stopbits":1,"cycle":1.00}]}
2017-11-16 14:27:22 1510860442.558144: {"class":"WATCH","enable":true,"json":false,"nmea":true,"raw":0,"scaled":false,"timing":false,"split24":false,"pps":false}
2017-11-16 14:27:23 1510860443.536387: $GPZDA,192722.00,16,11,2017,00,00*68
2017-11-16 14:27:23 1510860443.536562: $GPGGA,192722,3946.9569,N,08404.9849,W,2,12,0.80,303.30,M,-33.324,M,,*71
2017-11-16 14:27:23 1510860443.536623: $GPRMC,192722,A,3946.9569,N,08404.9849,W,0.0000,0.000,161117,,*3C
2017-11-16 14:27:23 1510860443.536678: $GPGSA,A,3,8,10,13,15,18,21,20,24,27,32,14,138,1.6,0.8,1.3*35
2017-11-16 14:27:24 1510860444.841738: $GPGSV,3,1,12,08,07,318,34,10,46,306,48,13,03,051,19,15,33,054,51*7C
2017-11-16 14:27:24 1510860444.841908: $GPGSV,3,2,12,18,74,349,46,21,58,187,45,20,29,100,46,24,52,102,48*78
2017-11-16 14:27:24 1510860444.841968: $GPGSV,3,3,12,27,18,283,40,32,25,241,45,14,08,235,36,138,38,213,44*46
2017-11-16 14:27:24 1510860444.955163: $GPZDA,192723.00,16,11,2017,00,00*69
2017-11-16 14:27:24 1510860444.955323: $GPGGA,192723,3946.9569,N,08404.9849,W,2,12,0.80,303.30,M,-33.324,M,,*70
2017-11-16 14:27:24 1510860444.955383: $GPRMC,192723,A,3946.9569,N,08404.9849,W,0.0000,0.000,161117,,*3D
2017-11-16 14:27:24 1510860444.955438: $GPGSA,A,3,8,10,13,15,18,21,20,24,27,32,14,138,1.6,0.8,1.3*35
2017-11-16 14:27:25 1510860445.536057: $GPZDA,192724.00,16,11,2017,00,00*6E
2017-11-16 14:27:25 1510860445.536218: $GPGGA,192724,3946.9569,N,08404.9849,W,2,12,0.80,303.30,M,-33.324,M,,*77
2017-11-16 14:27:25 1510860445.536279: $GPRMC,192724,A,3946.9569,N,08404.9849,W,0.0000,0.000,161117,,*3A
2017-11-16 14:27:25 1510860445.536335: $GPGSA,A,3,8,10,13,15,18,21,20,24,27,32,14,138,1.6,0.8,1.3*35
2017-11-16 14:27:26 1510860446.535742: $GPZDA,192725.00,16,11,2017,00,00*6F
2017-11-16 14:27:26 1510860446.535906: $GPGGA,192725,3946.9569,N,08404.9849,W,2,12,0.80,303.30,M,-33.324,M,,*76
2017-11-16 14:27:26 1510860446.535968: $GPRMC,192725,A,3946.9569,N,08404.9849,W,0.0000,0.000,161117,,*3B
2017-11-16 14:27:26 1510860446.536024: $GPGSA,A,3,8,10,13,15,18,21,20,24,27,32,14,138,1.6,0.8,1.3*35
2017-11-16 14:27:27 1510860447.871415: $GPGSV,3,1,12,08,07,318,36,10,46,306,48,13,03,051,18,15,33,054,51*7F
2017-11-16 14:27:27 1510860447.871572: $GPGSV,3,2,12,18,74,349,46,21,58,187,44,20,29,100,46,24,52,102,48*79
2017-11-16 14:27:27 1510860447.871632: $GPGSV,3,3,12,27,18,283,40,32,25,241,46,14,08,235,36,138,38,213,44*45
2017-11-16 14:27:27 1510860447.984697: $GPZDA,192726.00,16,11,2017,00,00*6C
2017-11-16 14:27:27 1510860447.984842: $GPGGA,192726,3946.9569,N,08404.9849,W,2,12,0.80,303.30,M,-33.324,M,,*75
2017-11-16 14:27:27 1510860447.984901: $GPRMC,192726,A,3946.9569,N,08404.9849,W,0.0000,0.000,161117,,*38
2017-11-16 14:27:27 1510860447.984956: $GPGSA,A,3,8,10,13,15,18,21,20,24,27,32,14,138,1.6,0.8,1.3*35
2017-11-16 14:27:28 1510860448.536025: $GPZDA,192727.00,16,11,2017,00,00*6D
2017-11-16 14:27:28 1510860448.536184: $GPGGA,192727,3946.9569,N,08404.9849,W,2,12,0.80,303.30,M,-33.324,M,,*74
2017-11-16 14:27:28 1510860448.536243: $GPRMC,192727,A,3946.9569,N,08404.9849,W,0.0000,0.000,161117,,*39
2017-11-16 14:27:28 1510860448.536299: $GPGSA,A,3,8,10,13,15,18,21,20,24,27,32,14,138,1.6,0.8,1.3*35
2017-11-16 14:27:29 1510860449.504727: $GPZDA,192728.00,16,11,2017,00,00*62
2017-11-16 14:27:29 1510860449.504897: $GPGGA,192728,3946.9569,N,08404.9849,W,2,12,0.80,303.30,M,-33.324,M,,*7B
2017-11-16 14:27:29 1510860449.504958: $GPRMC,192728,A,3946.9569,N,08404.9849,W,0.0000,0.000,161117,,*36
2017-11-16 14:27:29 1510860449.505014: $GPGSA,A,3,8,10,13,15,18,21,20,24,27,32,14,138,1.6,0.8,1.3*35
2017-11-16 14:27:30 1510860450.841956: $GPGSV,3,1,12,08,07,318,38,10,46,306,48,13,03,051,17,15,33,054,51*7E
2017-11-16 14:27:30 1510860450.842178: $GPGSV,3,2,12,18,74,349,46,21,58,187,44,20,29,100,46,24,52,102,48*79
2017-11-16 14:27:30 1510860450.842241: $GPGSV,3,3,12,27,18,283,40,32,25,241,46,14,08,235,36,138,38,213,43*42
2017-11-16 14:27:30 1510860450.955274: $GPZDA,192729.00,16,11,2017,00,00*63
2017-11-16 14:27:30 1510860450.955411: $GPGGA,192729,3946.9569,N,08404.9849,W,2,12,0.80,303.30,M,-33.324,M,,*7A
2017-11-16 14:27:30 1510860450.955469: $GPRMC,192729,A,3946.9569,N,08404.9849,W,0.0000,0.000,161117,,*37
2017-11-16 14:27:30 1510860450.955524: $GPGSA,A,3,8,10,13,15,18,21,20,24,27,32,14,138,1.6,0.8,1.3*35
2017-11-16 14:27:31 1510860451.567410: $GPZDA,192730.00,16,11,2017,00,00*6B
2017-11-16 14:27:31 1510860451.567572: $GPGGA,192730,3946.9569,N,08404.9849,W,2,12,0.80,303.30,M,-33.324,M,,*72
2017-11-16 14:27:31 1510860451.567632: $GPRMC,192730,A,3946.9569,N,08404.9849,W,0.0000,0.000,161117,,*3F
2017-11-16 14:27:31 1510860451.567688: $GPGSA,A,3,8,10,13,15,18,21,20,24,27,32,14,138,1.6,0.8,1.3*35
2017-11-16 14:27:31 1510860451.567742: $GPGBS,192730,2.12,M,3.10,M,7.47,M*37
2017-11-16 14:27:32 1510860452.499544: $GPZDA,192731.00,16,11,2017,00,00*6A
2017-11-16 14:27:32 1510860452.499691: $GPGGA,192731,3946.9569,N,08404.9849,W,2,12,0.80,303.30,M,-33.324,M,,*73
2017-11-16 14:27:32 1510860452.499752: $GPRMC,192731,A,3946.9569,N,08404.9849,W,0.0000,0.000,161117,,*3E
2017-11-16 14:27:32 1510860452.499808: $GPGSA,A,3,8,10,13,15,18,21,20,24,27,32,14,138,1.6,0.8,1.3*35
2017-11-16 14:27:32 1510860452.499863: $GPGBS,192731,2.12,M,3.10,M,7.47,M*36
2017-11-16 14:27:33 1510860453.871648: $GPGSV,3,1,12,08,07,316,40,10,47,306,47,13,02,051,17,15,32,054,51*71
2017-11-16 14:27:33 1510860453.871820: $GPGSV,3,2,12,18,75,354,46,21,57,186,44,20,28,100,46,24,53,099,48*79
2017-11-16 14:27:33 1510860453.871880: $GPGSV,3,3,12,27,18,282,40,32,26,243,46,14,09,235,36,138,38,213,42*42
2017-11-16 14:27:33 1510860453.986199: $GPZDA,192732.00,16,11,2017,00,00*69
2017-11-16 14:27:33 1510860453.986354: $GPGGA,192732,3946.9569,N,08404.9849,W,2,12,0.80,303.30,M,-33.324,M,,*70
2017-11-16 14:27:33 1510860453.986412: $GPRMC,192732,A,3946.9569,N,08404.9849,W,0.0000,0.000,161117,,*3D
2017-11-16 14:27:33 1510860453.986467: $GPGSA,A,3,8,10,13,15,18,21,20,24,27,32,14,138,1.6,0.8,1.3*35
2017-11-16 14:27:34 1510860454.611656: $GPZDA,192733.00,16,11,2017,00,00*68
2017-11-16 14:27:34 1510860454.611825: $GPGGA,192733,3946.9569,N,08404.9849,W,2,12,0.80,303.30,M,-33.324,M,,*71
2017-11-16 14:27:34 1510860454.611887: $GPRMC,192733,A,3946.9569,N,08404.9849,W,0.0000,0.000,161117,,*3C
2017-11-16 14:27:34 1510860454.611944: $GPGSA,A,3,8,10,13,15,18,21,20,24,27,32,14,138,1.6,0.8,1.3*35
2017-11-16 14:27:35 1510860455.536337: $GPZDA,192734.00,16,11,2017,00,00*6F
2017-11-16 14:27:35 1510860455.536514: $GPGGA,192734,3946.9569,N,08404.9849,W,2,12,0.80,303.30,M,-33.324,M,,*76
2017-11-16 14:27:35 1510860455.536578: $GPRMC,192734,A,3946.9569,N,08404.9849,W,0.0000,0.000,161117,,*3B
2017-11-16 14:27:35 1510860455.536634: $GPGSA,A,3,8,10,13,15,18,21,20,24,27,32,14,138,1.6,0.8,1.3*35
2017-11-16 14:27:36 1510860456.873294: $GPGSV,3,1,12,08,07,316,42,10,47,306,48,13,02,051,16,15,32,054,51*7D
2017-11-16 14:27:36 1510860456.873466: $GPGSV,3,2,12,18,75,354,46,21,57,186,45,20,28,100,46,24,53,099,47*77
2017-11-16 14:27:36 1510860456.873526: $GPGSV,3,3,12,27,18,282,40,32,26,243,46,14,09,235,37,138,38,213,42*43
2017-11-16 14:27:36 1510860456.986873: $GPZDA,192735.00,16,11,2017,00,00*6E
2017-11-16 14:27:36 1510860456.987032: $GPGGA,192735,3946.9569,N,08404.9849,W,2,12,0.80,303.30,M,-33.324,M,,*77
2017-11-16 14:27:36 1510860456.987115: $GPRMC,192735,A,3946.9569,N,08404.9849,W,0.0000,0.000,161117,,*3A
2017-11-16 14:27:36 1510860456.987172: $GPGSA,A,3,8,10,13,15,18,21,20,24,27,32,14,138,1.6,0.8,1.3*35
2017-11-16 14:27:37 1510860457.505267: $GPZDA,192736.00,16,11,2017,00,00*6D
2017-11-16 14:27:37 1510860457.505428: $GPGGA,192736,3946.9569,N,08404.9849,W,2,12,0.80,303.30,M,-33.324,M,,*74
2017-11-16 14:27:37 1510860457.505488: $GPRMC,192736,A,3946.9569,N,08404.9849,W,0.0000,0.000,161117,,*39
2017-11-16 14:27:37 1510860457.505593: $GPGSA,A,3,8,10,13,15,18,21,20,24,27,32,14,138,1.6,0.8,1.3*35
2017-11-16 14:27:38 1510860458.504633: $GPZDA,192737.00,16,11,2017,00,00*6C
2017-11-16 14:27:38 1510860458.504801: $GPGGA,192737,3946.9569,N,08404.9849,W,2,12,0.80,303.30,M,-33.324,M,,*75
2017-11-16 14:27:38 1510860458.504864: $GPRMC,192737,A,3946.9569,N,08404.9849,W,0.0000,0.000,161117,,*38
2017-11-16 14:27:38 1510860458.504921: $GPGSA,A,3,8,10,13,15,18,21,20,24,27,32,14,138,1.6,0.8,1.3*35
2017-11-16 14:27:39 1510860459.841320: $GPGSV,3,1,12,08,07,316,42,10,47,306,48,13,02,051,16,15,32,054,51*7D
2017-11-16 14:27:39 1510860459.841470: $GPGSV,3,2,12,18,75,354,46,21,57,186,45,20,28,100,46,24,53,099,47*77
2017-11-16 14:27:39 1510860459.841529: $GPGSV,3,3,12,27,18,282,40,32,26,243,46,14,09,235,37,138,38,213,43*42
2017-11-16 14:27:39 1510860459.954651: $GPZDA,192738.00,16,11,2017,00,00*63
2017-11-16 14:27:39 1510860459.954816: $GPGGA,192738,3946.9569,N,08404.9849,W,2,12,0.80,303.30,M,-33.324,M,,*7A
2017-11-16 14:27:39 1510860459.954894: $GPRMC,192738,A,3946.9569,N,08404.9849,W,0.0000,0.000,161117,,*37
2017-11-16 14:27:39 1510860459.954952: $GPGSA,A,3,8,10,13,15,18,21,20,24,27,32,14,138,1.6,0.8,1.3*35
2017-11-16 14:27:40 1510860460.511447: $GPZDA,192739.00,16,11,2017,00,00*62
2017-11-16 14:27:40 1510860460.511634: $GPGGA,192739,3946.9569,N,08404.9849,W,2,12,0.80,303.30,M,-33.324,M,,*7B
2017-11-16 14:27:40 1510860460.511699: $GPRMC,192739,A,3946.9569,N,08404.9849,W,0.0000,0.000,161117,,*36
2017-11-16 14:27:40 1510860460.511756: $GPGSA,A,3,8,10,13,15,18,21,20,24,27,32,14,138,1.6,0.8,1.3*35
2017-11-16 14:27:41 1510860461.505328: $GPZDA,192740.00,16,11,2017,00,00*6C
2017-11-16 14:27:41 1510860461.505489: $GPGGA,192740,3946.9569,N,08404.9849,W,2,12,0.80,303.30,M,-33.324,M,,*75
2017-11-16 14:27:41 1510860461.505550: $GPRMC,192740,A,3946.9569,N,08404.9849,W,0.0000,0.000,161117,,*38
2017-11-16 14:27:41 1510860461.505606: $GPGSA,A,3,8,10,13,15,18,21,20,24,27,32,14,138,1.6,0.8,1.3*35
2017-11-16 14:27:42 1510860462.868443: $GPGSV,3,1,12,08,07,316,42,10,47,306,47,13,02,051,15,15,32,054,50*70
2017-11-16 14:27:42 1510860462.868623: $GPGSV,3,2,12,18,75,354,46,21,57,186,46,20,28,100,46,24,53,099,47*74
2017-11-16 14:27:42 1510860462.868682: $GPGSV,3,3,12,27,18,282,41,32,26,243,46,14,09,235,37,138,38,213,44*44
2017-11-16 14:27:42 1510860462.981996: $GPZDA,192741.00,16,11,2017,00,00*6D
2017-11-16 14:27:42 1510860462.982155: $GPGGA,192741,3946.9569,N,08404.9849,W,2,12,0.80,303.30,M,-33.324,M,,*74
2017-11-16 14:27:42 1510860462.982215: $GPRMC,192741,A,3946.9569,N,08404.9849,W,0.0000,0.000,161117,,*39
2017-11-16 14:27:42 1510860462.982270: $GPGSA,A,3,8,10,13,15,18,21,20,24,27,32,14,138,1.6,0.8,1.3*35
2017-11-16 14:27:43 1510860463.505156: $GPZDA,192742.00,16,11,2017,00,00*6E
2017-11-16 14:27:43 1510860463.505349: $GPGGA,192742,3946.9569,N,08404.9849,W,2,12,0.80,303.30,M,-33.324,M,,*77
2017-11-16 14:27:43 1510860463.505411: $GPRMC,192742,A,3946.9569,N,08404.9849,W,0.0000,0.000,161117,,*3A
2017-11-16 14:27:43 1510860463.505468: $GPGSA,A,3,8,10,13,15,18,21,20,24,27,32,14,138,1.6,0.8,1.3*35
2017-11-16 14:27:44 1510860464.537002: $GPZDA,192743.00,16,11,2017,00,00*6F
2017-11-16 14:27:44 1510860464.537152: $GPGGA,192743,3946.9569,N,08404.9849,W,2,12,0.80,303.30,M,-33.324,M,,*76
2017-11-16 14:27:44 1510860464.537213: $GPRMC,192743,A,3946.9569,N,08404.9849,W,0.0000,0.000,161117,,*3B
2017-11-16 14:27:44 1510860464.537269: $GPGSA,A,3,8,10,13,15,18,21,20,24,27,32,14,138,1.6,0.8,1.3*35
2017-11-16 14:27:45 1510860465.872662: $GPGSV,3,1,12,08,07,316,42,10,47,306,47,13,02,051,15,15,32,054,51*71
2017-11-16 14:27:45 1510860465.872825: $GPGSV,3,2,12,18,75,354,46,21,57,186,46,20,28,100,46,24,53,099,46*75
2017-11-16 14:27:45 1510860465.872901: $GPGSV,3,3,12,27,18,282,41,32,26,243,45,14,09,235,37,138,38,213,43*40
2017-11-16 14:27:45 1510860465.986233: $GPZDA,192744.00,16,11,2017,00,00*68
2017-11-16 14:27:45 1510860465.986396: $GPGGA,192744,3946.9569,N,08404.9849,W,2,12,0.80,303.30,M,-33.324,M,,*71
2017-11-16 14:27:45 1510860465.986508: $GPRMC,192744,A,3946.9569,N,08404.9849,W,0.0000,0.000,161117,,*3C
2017-11-16 14:27:45 1510860465.986566: $GPGSA,A,3,8,10,13,15,18,21,20,24,27,32,14,138,1.6,0.8,1.3*35
2017-11-16 14:27:46 1510860466.537112: $GPZDA,192745.00,16,11,2017,00,00*69
2017-11-16 14:27:46 1510860466.537275: $GPGGA,192745,3946.9569,N,08404.9849,W,2,12,0.80,303.30,M,-33.324,M,,*70
2017-11-16 14:27:46 1510860466.537335: $GPRMC,192745,A,3946.9569,N,08404.9849,W,0.0000,0.000,161117,,*3D
2017-11-16 14:27:46 1510860466.537392: $GPGSA,A,3,8,10,13,15,18,21,20,24,27,32,14,138,1.6,0.8,1.3*35
2017-11-16 14:27:47 1510860467.505474: $GPZDA,192746.00,16,11,2017,00,00*6A
2017-11-16 14:27:47 1510860467.505635: $GPGGA,192746,3946.9569,N,08404.9849,W,2,12,0.80,303.30,M,-33.324,M,,*73
2017-11-16 14:27:47 1510860467.505696: $GPRMC,192746,A,3946.9569,N,08404.9849,W,0.0000,0.000,161117,,*3E
2017-11-16 14:27:47 1510860467.505752: $GPGSA,A,3,8,10,13,15,18,21,20,24,27,32,14,138,1.6,0.8,1.3*35
2017-11-16 14:27:48 1510860468.836027: $GPGSV,3,1,12,08,07,316,40,10,47,306,47,13,02,051,15,15,32,054,51*73
2017-11-16 14:27:48 1510860468.836193: $GPGSV,3,2,12,18,75,354,46,21,57,186,46,20,28,100,46,24,53,099,46*75
2017-11-16 14:27:48 1510860468.836253: $GPGSV,3,3,12,27,18,282,41,32,26,243,45,14,09,235,38,138,38,213,44*48
2017-11-16 14:27:48 1510860468.949607: $GPZDA,192747.00,16,11,2017,00,00*6B
2017-11-16 14:27:48 1510860468.949757: $GPGGA,192747,3946.9569,N,08404.9849,W,2,11,0.80,303.30,M,-33.324,M,,*71
2017-11-16 14:27:48 1510860468.949816: $GPRMC,192747,A,3946.9569,N,08404.9849,W,0.0000,0.000,161117,,*3F
2017-11-16 14:27:48 1510860468.949871: $GPGSA,A,3,8,10,15,18,21,20,24,27,32,14,138,,1.6,0.8,1.3*37
2017-11-16 14:27:49 1510860469.575955: $GPZDA,192748.00,16,11,2017,00,00*64
2017-11-16 14:27:49 1510860469.576138: $GPGGA,192748,3946.9569,N,08404.9849,W,2,11,0.80,303.30,M,-33.324,M,,*7E
2017-11-16 14:27:49 1510860469.576200: $GPRMC,192748,A,3946.9569,N,08404.9849,W,0.0000,0.000,161117,,*30
2017-11-16 14:27:49 1510860469.576257: $GPGSA,A,3,8,10,15,18,21,20,24,27,32,14,138,,1.6,0.8,1.3*37
2017-11-16 14:27:50 1510860470.499993: $GPZDA,192749.00,16,11,2017,00,00*65
2017-11-16 14:27:50 1510860470.500193: $GPGGA,192749,3946.9569,N,08404.9849,W,2,11,0.80,303.30,M,-33.324,M,,*7F
2017-11-16 14:27:50 1510860470.500255: $GPRMC,192749,A,3946.9569,N,08404.9849,W,0.0000,0.000,161117,,*31
2017-11-16 14:27:50 1510860470.500453: $GPGSA,A,3,8,10,15,18,21,20,24,27,32,14,138,,1.6,0.8,1.3*37
2017-11-16 14:27:51 1510860471.872811: $GPGSV,3,1,12,08,07,316,39,10,47,306,47,13,02,051,00,15,32,054,51*79
2017-11-16 14:27:51 1510860471.872977: $GPGSV,3,2,12,18,75,354,46,21,57,186,46,20,28,100,46,24,53,099,46*75
2017-11-16 14:27:51 1510860471.873037: $GPGSV,3,3,12,27,18,282,41,32,26,243,45,14,09,235,38,138,38,213,44*48
2017-11-16 14:27:51 1510860471.986129: $GPZDA,192750.00,16,11,2017,00,00*6D
2017-11-16 14:27:51 1510860471.986297: $GPGGA,192750,3946.9569,N,08404.9849,W,2,11,0.80,303.30,M,-33.324,M,,*77
2017-11-16 14:27:51 1510860471.986357: $GPRMC,192750,A,3946.9569,N,08404.9849,W,0.0000,0.000,161117,,*39
2017-11-16 14:27:51 1510860471.986413: $GPGSA,A,3,8,10,15,18,21,20,24,27,32,14,138,,1.6,0.8,1.3*37
2017-11-16 14:27:52 1510860472.505790: $GPZDA,192751.00,16,11,2017,00,00*6C
2017-11-16 14:27:52 1510860472.505960: $GPGGA,192751,3946.9569,N,08404.9849,W,2,11,0.80,303.30,M,-33.324,M,,*76
2017-11-16 14:27:52 1510860472.506021: $GPRMC,192751,A,3946.9569,N,08404.9849,W,0.0000,0.000,161117,,*38
2017-11-16 14:27:52 1510860472.506076: $GPGSA,A,3,8,10,15,18,21,20,24,27,32,14,138,,1.6,0.8,1.3*37
