2017-12-01 10:56:20 1512143780.397732: {"class":"VERSION","release":"3.16","rev":"3.16-4","proto_major":3,"proto_minor":11}
2017-12-01 10:56:20 1512143780.398519: {"class":"DEVICES","devices":[{"class":"DEVICE","path":"/dev/ttyUSB0","driver":"SiRF","subtype":"9\u0006GSD4e_4.1.2-P1_RPATCH.05-F-GPS-4R-1510281 11/03/2015 307","activated":"2017-12-01T15:56:20.337Z","flags":1,"native":1,"bps":4800,"parity":"N","stopbits":1,"cycle":1.00}]}
2017-12-01 10:56:20 1512143780.398645: {"class":"WATCH","enable":true,"json":false,"nmea":true,"raw":0,"scaled":false,"timing":false,"split24":false,"pps":false}
2017-12-01 10:56:21 1512143781.130629: $GPGSV,3,1,12,05,29,063,37,13,58,075,37,15,70,163,38,18,29,268,34*7B
2017-12-01 10:56:21 1512143781.130809: $GPGSV,3,2,12,20,73,357,35,21,48,310,37,29,46,204,40,02,08,123,00*72
2017-12-01 10:56:21 1512143781.130875: $GPGSV,3,3,12,30,06,042,00,04,30,118,00,24,03,160,00,138,38,213,00*45
2017-12-01 10:56:21 1512143781.244039: $GPZDA,155621.03,01,12,2017,00,00*67
2017-12-01 10:56:21 1512143781.244236: $GPGGA,155621,3946.9583,N,08404.9867,W,1,07,1.20,300.01,M,-33.324,M,,*7D
2017-12-01 10:56:21 1512143781.244302: $GPRMC,155621,A,3946.9583,N,08404.9867,W,0.1176,39.704,011217,,*00
2017-12-01 10:56:21 1512143781.244363: $GPGSA,A,3,5,13,15,18,20,21,29,,,,,,2.0,1.2,1.5*07
2017-12-01 10:56:22 1512143782.097002: $GPZDA,155622.00,01,12,2017,00,00*67
2017-12-01 10:56:22 1512143782.097218: $GPGGA,155622,3946.9583,N,08404.9860,W,1,07,1.20,300.09,M,-33.324,M,,*71
2017-12-01 10:56:22 1512143782.097288: $GPRMC,155622,A,3946.9583,N,08404.9860,W,0.3026,105.365,011217,,*3F
2017-12-01 10:56:22 1512143782.097350: $GPGSA,A,3,5,13,15,18,20,21,29,,,,,,2.0,1.2,1.5*07
2017-12-01 10:56:22 1512143782.097407: $GPGBS,155622,10.70,M,15.43,M,35.28,M*00
2017-12-01 10:56:22 1512143782.534475: $GPZDA,155623.00,01,12,2017,00,00*66
2017-12-01 10:56:22 1512143782.534646: $GPGGA,155623,3946.9583,N,08404.9860,W,1,07,1.00,300.09,M,-33.324,M,,*72
2017-12-01 10:56:22 1512143782.534713: $GPRMC,155623,A,3946.9583,N,08404.9860,W,0.3735,180.000,011217,,*36
2017-12-01 10:56:22 1512143782.534774: $GPGSA,A,3,5,13,15,18,20,21,29,,,,,,2.0,1.0,1.5*05
2017-12-01 10:56:23 1512143783.692639: $GPGSV,3,1,11,05,29,063,46,13,58,075,46,15,70,163,49,18,29,268,43*7E
2017-12-01 10:56:23 1512143783.692818: $GPGSV,3,2,11,20,73,357,44,21,48,310,47,29,46,204,51,02,08,123,21*73
2017-12-01 10:56:23 1512143783.692885: $GPGSV,3,3,11,16,02,315,29,30,05,042,32,138,38,213,20*72
2017-12-01 10:56:23 1512143783.806066: $GPZDA,155624.00,01,12,2017,00,00*61
2017-12-01 10:56:23 1512143783.806243: $GPGGA,155624,3946.9580,N,08404.9861,W,1,11,1.00,300.85,M,-33.324,M,,*74
2017-12-01 10:56:23 1512143783.806310: $GPRMC,155624,A,3946.9580,N,08404.9861,W,0.0000,0.000,011217,,*38
2017-12-01 10:56:23 1512143783.806371: $GPGSA,A,3,5,13,15,18,20,21,29,2,16,30,138,,2.0,1.0,1.5*09
2017-12-01 10:56:24 1512143784.431524: $GPZDA,155625.00,01,12,2017,00,00*60
2017-12-01 10:56:24 1512143784.431698: $GPGGA,155625,3946.9583,N,08404.9854,W,1,11,1.00,301.57,M,-33.324,M,,*7E
2017-12-01 10:56:24 1512143784.431765: $GPRMC,155625,A,3946.9583,N,08404.9854,W,0.0000,0.000,011217,,*3C
2017-12-01 10:56:24 1512143784.431825: $GPGSA,A,3,5,13,15,18,20,21,29,2,16,30,138,,2.0,1.0,1.5*09
2017-12-01 10:56:25 1512143785.361052: $GPZDA,155626.00,01,12,2017,00,00*63
2017-12-01 10:56:25 1512143785.361242: $GPGGA,155626,3946.9583,N,08404.9854,W,1,11,1.00,301.57,M,-33.324,M,,*7D
2017-12-01 10:56:25 1512143785.361309: $GPRMC,155626,A,3946.9583,N,08404.9854,W,0.0000,0.000,011217,,*3F
2017-12-01 10:56:25 1512143785.361421: $GPGSA,A,3,5,13,15,18,20,21,29,2,16,30,138,,2.0,1.0,1.5*09
2017-12-01 10:56:26 1512143786.694212: $GPGSV,3,1,11,05,29,063,46,13,58,075,46,15,70,163,49,18,29,268,42*7F
2017-12-01 10:56:26 1512143786.694418: $GPGSV,3,2,11,20,73,357,44,21,48,310,47,29,46,204,50,02,08,123,21*72
2017-12-01 10:56:26 1512143786.694485: $GPGSV,3,3,11,16,02,315,24,30,05,042,32,138,38,213,46*7F
2017-12-01 10:56:26 1512143786.807826: $GPZDA,155627.00,01,12,2017,00,00*62
2017-12-01 10:56:26 1512143786.807994: $GPGGA,155627,3946.9580,N,08404.9855,W,1,11,1.00,302.34,M,-33.324,M,,*78
2017-12-01 10:56:26 1512143786.808112: $GPRMC,155627,A,3946.9580,N,08404.9855,W,0.0000,0.000,011217,,*3C
2017-12-01 10:56:26 1512143786.808174: $GPGSA,A,3,5,13,15,18,20,21,29,2,16,30,138,,2.0,1.0,1.5*09
2017-12-01 10:56:27 1512143787.357402: $GPZDA,155628.00,01,12,2017,00,00*6D
2017-12-01 10:56:27 1512143787.357569: $GPGGA,155628,3946.9580,N,08404.9855,W,1,11,1.00,302.34,M,-33.324,M,,*77
2017-12-01 10:56:27 1512143787.357636: $GPRMC,155628,A,3946.9580,N,08404.9855,W,0.0000,0.000,011217,,*33
2017-12-01 10:56:27 1512143787.357698: $GPGSA,A,3,5,13,15,18,20,21,29,2,16,30,138,,2.0,1.0,1.5*09
2017-12-01 10:56:28 1512143788.363349: $GPZDA,155629.00,01,12,2017,00,00*6C
2017-12-01 10:56:28 1512143788.363530: $GPGGA,155629,3946.9584,N,08404.9855,W,1,11,1.00,302.98,M,-33.324,M,,*74
2017-12-01 10:56:28 1512143788.363596: $GPRMC,155629,A,3946.9584,N,08404.9855,W,0.0000,0.000,011217,,*36
2017-12-01 10:56:28 1512143788.363657: $GPGSA,A,3,5,13,15,18,20,21,29,2,16,30,138,,2.0,1.0,1.5*09
2017-12-01 10:56:29 1512143789.698268: $GPGSV,3,1,11,05,29,063,45,13,58,075,46,15,70,163,49,18,29,268,42*7C
2017-12-01 10:56:29 1512143789.698452: $GPGSV,3,2,11,20,73,357,44,21,48,310,46,29,46,204,50,02,08,123,22*70
2017-12-01 10:56:29 1512143789.698519: $GPGSV,3,3,11,16,02,315,26,30,05,042,28,138,38,213,45*75
2017-12-01 10:56:29 1512143789.811775: $GPZDA,155630.00,01,12,2017,00,00*64
2017-12-01 10:56:29 1512143789.811944: $GPGGA,155630,3946.9582,N,08404.9837,W,2,11,1.40,308.19,M,-33.324,M,,*7A
2017-12-01 10:56:29 1512143789.812011: $GPRMC,155630,A,3946.9582,N,08404.9837,W,0.0000,0.000,011217,,*3C
2017-12-01 10:56:29 1512143789.812071: $GPGSA,A,3,5,13,15,18,20,21,29,2,16,30,138,,2.0,1.4,1.5*0D
2017-12-01 10:56:30 1512143790.360012: $GPZDA,155631.00,01,12,2017,00,00*65
2017-12-01 10:56:30 1512143790.360264: $GPGGA,155631,3946.9583,N,08404.9834,W,2,11,1.00,303.21,M,-33.324,M,,*7D
2017-12-01 10:56:30 1512143790.360364: $GPRMC,155631,A,3946.9583,N,08404.9834,W,0.0000,0.000,011217,,*3F
2017-12-01 10:56:30 1512143790.360429: $GPGSA,A,3,5,13,15,18,20,21,29,2,16,30,138,,2.0,1.0,1.5*09
2017-12-01 10:56:31 1512143791.358884: $GPZDA,155632.00,01,12,2017,00,00*66
2017-12-01 10:56:31 1512143791.359068: $GPGGA,155632,3946.9583,N,08404.9834,W,2,11,1.00,303.21,M,-33.324,M,,*7E
2017-12-01 10:56:31 1512143791.359135: $GPRMC,155632,A,3946.9583,N,08404.9834,W,0.0000,0.000,011217,,*3C
2017-12-01 10:56:31 1512143791.359197: $GPGSA,A,3,5,13,15,18,20,21,29,2,16,30,138,,2.0,1.0,1.5*09
2017-12-01 10:56:32 1512143792.705375: $GPGSV,3,1,11,05,29,063,45,13,58,075,46,15,70,163,49,18,29,268,43*7D
2017-12-01 10:56:32 1512143792.705561: $GPGSV,3,2,11,20,73,357,43,21,48,310,46,29,46,204,50,02,08,123,22*77
2017-12-01 10:56:32 1512143792.705629: $GPGSV,3,3,11,16,02,315,13,30,05,042,26,138,38,213,46*7E
2017-12-01 10:56:32 1512143792.819336: $GPZDA,155633.00,01,12,2017,00,00*67
2017-12-01 10:56:32 1512143792.819523: $GPGGA,155633,3946.9583,N,08404.9834,W,2,10,1.00,303.21,M,-33.324,M,,*7E
2017-12-01 10:56:32 1512143792.819589: $GPRMC,155633,A,3946.9583,N,08404.9834,W,0.0000,0.000,011217,,*3D
2017-12-01 10:56:32 1512143792.819652: $GPGSA,A,3,5,13,15,18,20,21,29,2,30,138,,,2.0,1.0,1.5*0E
2017-12-01 10:56:33 1512143793.359798: $GPZDA,155634.00,01,12,2017,00,00*60
2017-12-01 10:56:33 1512143793.359996: $GPGGA,155634,3946.9583,N,08404.9834,W,2,10,1.00,303.21,M,-33.324,M,,*79
2017-12-01 10:56:33 1512143793.360070: $GPRMC,155634,A,3946.9583,N,08404.9834,W,0.0000,0.000,011217,,*3A
2017-12-01 10:56:33 1512143793.360135: $GPGSA,A,3,5,13,15,18,20,21,29,2,30,138,,,2.0,1.0,1.5*0E
2017-12-01 10:56:34 1512143794.362510: $GPZDA,155635.00,01,12,2017,00,00*61
2017-12-01 10:56:34 1512143794.362687: $GPGGA,155635,3946.9583,N,08404.9834,W,2,10,1.00,303.21,M,-33.324,M,,*78
2017-12-01 10:56:34 1512143794.362756: $GPRMC,155635,A,3946.9583,N,08404.9834,W,0.0000,0.000,011217,,*3B
2017-12-01 10:56:34 1512143794.362818: $GPGSA,A,3,5,13,15,18,20,21,29,2,30,138,,,2.0,1.0,1.5*0E
2017-12-01 10:56:35 1512143795.693188: $GPGSV,3,1,11,05,29,063,35,13,58,075,36,15,70,163,38,18,29,268,35*7A
2017-12-01 10:56:35 1512143795.693433: $GPGSV,3,2,11,20,73,357,34,21,48,310,36,29,46,204,39,02,08,123,17*79
2017-12-01 10:56:35 1512143795.693504: $GPGSV,3,3,11,16,02,315,24,30,05,042,21,138,38,213,40*7B
2017-12-01 10:56:35 1512143795.806583: $GPZDA,155636.00,01,12,2017,00,00*62
2017-12-01 10:56:35 1512143795.806762: $GPGGA,155636,3946.9580,N,08404.9834,W,2,11,1.00,303.98,M,-33.324,M,,*7B
2017-12-01 10:56:35 1512143795.806830: $GPRMC,155636,A,3946.9580,N,08404.9834,W,0.1567,9.200,011217,,*35
2017-12-01 10:56:35 1512143795.806894: $GPGSA,A,3,5,13,15,18,20,21,29,2,16,30,138,,2.0,1.0,1.5*09
2017-12-01 10:56:36 1512143796.356644: $GPZDA,155637.00,01,12,2017,00,00*63
2017-12-01 10:56:36 1512143796.356820: $GPGGA,155637,3946.9580,N,08404.9834,W,2,11,1.00,303.98,M,-33.324,M,,*7A
2017-12-01 10:56:36 1512143796.356888: $GPRMC,155637,A,3946.9580,N,08404.9834,W,0.2422,93.794,011217,,*0C
2017-12-01 10:56:36 1512143796.356949: $GPGSA,A,3,5,13,15,18,20,21,29,2,16,30,138,,2.0,1.0,1.5*09
2017-12-01 10:56:37 1512143797.357313: $GPZDA,155638.00,01,12,2017,00,00*6C
2017-12-01 10:56:37 1512143797.357486: $GPGGA,155638,3946.9582,N,08404.9839,W,2,11,1.00,300.33,M,-33.324,M,,*78
2017-12-01 10:56:37 1512143797.357553: $GPRMC,155638,A,3946.9582,N,08404.9839,W,0.0000,0.000,011217,,*3A
2017-12-01 10:56:37 1512143797.357615: $GPGSA,A,3,5,13,15,18,20,21,29,2,16,30,138,,2.0,1.0,1.5*09
2017-12-01 10:56:38 1512143798.700192: $GPGSV,3,1,12,05,29,063,45,13,58,075,46,15,70,163,48,18,29,268,45*79
2017-12-01 10:56:38 1512143798.700372: $GPGSV,3,2,12,20,73,357,44,21,48,310,45,29,46,204,49,02,08,123,22*78
2017-12-01 10:56:38 1512143798.700438: $GPGSV,3,3,12,16,02,315,30,24,03,160,01,30,05,042,29,138,38,213,45*43
2017-12-01 10:56:38 1512143798.812897: $GPZDA,155639.00,01,12,2017,00,00*6D
2017-12-01 10:56:38 1512143798.813099: $GPGGA,155639,3946.9578,N,08404.9840,W,2,11,1.00,301.09,M,-33.324,M,,*7A
2017-12-01 10:56:38 1512143798.813168: $GPRMC,155639,A,3946.9578,N,08404.9840,W,0.0000,0.000,011217,,*30
2017-12-01 10:56:38 1512143798.813230: $GPGSA,A,3,5,13,15,18,20,21,29,2,16,30,138,,2.0,1.0,1.5*09
2017-12-01 10:56:39 1512143799.439016: $GPZDA,155640.00,01,12,2017,00,00*63
2017-12-01 10:56:39 1512143799.439188: $GPGGA,155640,3946.9578,N,08404.9840,W,2,11,1.00,301.09,M,-33.324,M,,*74
2017-12-01 10:56:39 1512143799.439254: $GPRMC,155640,A,3946.9578,N,08404.9840,W,0.0000,0.000,011217,,*3E
2017-12-01 10:56:39 1512143799.439315: $GPGSA,A,3,5,13,15,18,20,21,29,2,16,30,138,,2.0,1.0,1.5*09
2017-12-01 10:56:40 1512143800.359801: $GPZDA,155641.00,01,12,2017,00,00*62
2017-12-01 10:56:40 1512143800.359972: $GPGGA,155641,3946.9578,N,08404.9840,W,2,11,1.00,301.09,M,-33.324,M,,*75
2017-12-01 10:56:40 1512143800.360038: $GPRMC,155641,A,3946.9578,N,08404.9840,W,0.0000,0.000,011217,,*3F
2017-12-01 10:56:40 1512143800.360099: $GPGSA,A,3,5,13,15,18,20,21,29,2,16,30,138,,2.0,1.0,1.5*09
2017-12-01 10:56:41 1512143801.694278: $GPGSV,3,1,11,05,29,063,44,13,58,075,46,15,70,163,48,18,29,268,45*7B
2017-12-01 10:56:41 1512143801.694459: $GPGSV,3,2,11,20,73,357,44,21,48,310,45,29,46,204,49,02,08,123,23*7A
2017-12-01 10:56:41 1512143801.694526: $GPGSV,3,3,11,04,30,118,00,30,05,042,29,138,38,213,45*7D
2017-12-01 10:56:41 1512143801.807848: $GPZDA,155642.00,01,12,2017,00,00*61
2017-12-01 10:56:41 1512143801.808029: $GPGGA,155642,3946.9578,N,08404.9840,W,2,10,1.00,301.09,M,-33.324,M,,*77
2017-12-01 10:56:41 1512143801.808097: $GPRMC,155642,A,3946.9578,N,08404.9840,W,0.0000,0.000,011217,,*3C
2017-12-01 10:56:41 1512143801.808158: $GPGSA,A,3,5,13,15,18,20,21,29,2,30,138,,,2.0,1.0,1.5*0E
2017-12-01 10:56:42 1512143802.361191: $GPZDA,155643.00,01,12,2017,00,00*60
2017-12-01 10:56:42 1512143802.361406: $GPGGA,155643,3946.9578,N,08404.9840,W,2,10,1.00,301.09,M,-33.324,M,,*76
2017-12-01 10:56:42 1512143802.361482: $GPRMC,155643,A,3946.9578,N,08404.9840,W,0.0000,0.000,011217,,*3D
2017-12-01 10:56:42 1512143802.361544: $GPGSA,A,3,5,13,15,18,20,21,29,2,30,138,,,2.0,1.0,1.5*0E
2017-12-01 10:56:43 1512143803.362194: $GPZDA,155644.00,01,12,2017,00,00*67
2017-12-01 10:56:43 1512143803.362418: $GPGGA,155644,3946.9578,N,08404.9840,W,2,10,1.00,301.09,M,-33.324,M,,*71
2017-12-01 10:56:43 1512143803.362486: $GPRMC,155644,A,3946.9578,N,08404.9840,W,0.0000,0.000,011217,,*3A
2017-12-01 10:56:43 1512143803.362548: $GPGSA,A,3,5,13,15,18,20,21,29,2,30,138,,,2.0,1.0,1.5*0E
2017-12-01 10:56:44 1512143804.699659: $GPGSV,3,1,11,05,29,063,43,13,58,075,46,15,70,163,48,18,29,268,44*7D
2017-12-01 10:56:44 1512143804.699841: $GPGSV,3,2,11,20,73,357,43,21,48,310,45,29,46,204,50,02,08,123,24*72
2017-12-01 10:56:44 1512143804.699908: $GPGSV,3,3,11,16,02,315,27,30,05,042,28,138,38,213,46*77
2017-12-01 10:56:44 1512143804.813542: $GPZDA,155645.00,01,12,2017,00,00*66
2017-12-01 10:56:44 1512143804.813709: $GPGGA,155645,3946.9578,N,08404.9840,W,2,11,1.00,301.09,M,-33.324,M,,*71
2017-12-01 10:56:44 1512143804.813775: $GPRMC,155645,A,3946.9578,N,08404.9840,W,0.0000,0.000,011217,,*3B
2017-12-01 10:56:44 1512143804.813837: $GPGSA,A,3,5,13,15,18,20,21,29,2,16,30,138,,2.0,1.0,1.5*09
2017-12-01 10:56:45 1512143805.360143: $GPZDA,155646.00,01,12,2017,00,00*65
2017-12-01 10:56:45 1512143805.360305: $GPGGA,155646,3946.9578,N,08404.9840,W,2,11,1.00,301.09,M,-33.324,M,,*72
2017-12-01 10:56:45 1512143805.360375: $GPRMC,155646,A,3946.9578,N,08404.9840,W,0.0000,0.000,011217,,*38
2017-12-01 10:56:45 1512143805.360438: $GPGSA,A,3,5,13,15,18,20,21,29,2,16,30,138,,2.0,1.0,1.5*09
2017-12-01 10:56:46 1512143806.363503: $GPZDA,155647.00,01,12,2017,00,00*64
2017-12-01 10:56:46 1512143806.363691: $GPGGA,155647,3946.9578,N,08404.9840,W,2,11,1.00,301.09,M,-33.324,M,,*73
2017-12-01 10:56:46 1512143806.363778: $GPRMC,155647,A,3946.9578,N,08404.9840,W,0.0000,0.000,011217,,*39
2017-12-01 10:56:46 1512143806.363843: $GPGSA,A,3,5,13,15,18,20,21,29,2,16,30,138,,2.0,1.0,1.5*09
2017-12-01 10:56:47 1512143807.700533: $GPGSV,3,1,11,05,29,063,42,13,58,075,46,15,70,163,48,18,29,268,44*7C
2017-12-01 10:56:47 1512143807.700716: $GPGSV,3,2,11,20,73,357,42,21,48,310,45,29,46,204,50,02,08,123,25*72
2017-12-01 10:56:47 1512143807.700783: $GPGSV,3,3,11,16,02,315,30,30,05,042,28,138,38,213,46*71
2017-12-01 10:56:47 1512143807.814047: $GPZDA,155648.00,01,12,2017,00,00*6B
2017-12-01 10:56:47 1512143807.814219: $GPGGA,155648,3946.9578,N,08404.9840,W,2,11,1.00,301.09,M,-33.324,M,,*7C
2017-12-01 10:56:47 1512143807.814286: $GPRMC,155648,A,3946.9578,N,08404.9840,W,0.0000,0.000,011217,,*36
2017-12-01 10:56:47 1512143807.814348: $GPGSA,A,3,5,13,15,18,20,21,29,2,16,30,138,,2.0,1.0,1.5*09
2017-12-01 10:56:48 1512143808.363856: $GPZDA,155649.00,01,12,2017,00,00*6A
2017-12-01 10:56:48 1512143808.364029: $GPGGA,155649,3946.9578,N,08404.9840,W,2,11,1.00,301.09,M,-33.324,M,,*7D
2017-12-01 10:56:48 1512143808.364094: $GPRMC,155649,A,3946.9578,N,08404.9840,W,0.0000,0.000,011217,,*37
2017-12-01 10:56:48 1512143808.364155: $GPGSA,A,3,5,13,15,18,20,21,29,2,16,30,138,,2.0,1.0,1.5*09
2017-12-01 10:56:49 1512143809.364753: $GPZDA,155650.00,01,12,2017,00,00*62
2017-12-01 10:56:49 1512143809.365014: $GPGGA,155650,3946.9577,N,08404.9832,W,2,11,1.00,299.76,M,-33.324,M,,*77
2017-12-01 10:56:49 1512143809.365096: $GPRMC,155650,A,3946.9577,N,08404.9832,W,0.2422,93.794,011217,,*03
2017-12-01 10:56:49 1512143809.365412: $GPGSA,A,3,5,13,15,18,20,21,29,2,16,30,138,,2.0,1.0,1.5*09
