2018-01-11 21:02:34 1515722554.075268: {"class":"VERSION","release":"3.16","rev":"3.16-4","proto_major":3,"proto_minor":11}
2018-01-11 21:02:34 1515722554.075608: {"class":"DEVICES","devices":[{"class":"DEVICE","path":"/dev/ttyUSB0","driver":"SiRF","subtype":"9\u0006GSD4e_4.1.2-P1_RPATCH.05-F-GPS-4R-1510281 11/03/2015 307","activated":"2018-01-12T02:02:34.066Z","flags":1,"native":1,"bps":4800,"parity":"N","stopbits":1,"cycle":1.00}]}
2018-01-11 21:02:34 1515722554.075720: {"class":"WATCH","enable":true,"json":false,"nmea":true,"raw":0,"scaled":false,"timing":false,"split24":false,"pps":false}
2018-01-11 21:02:35 1515722555.054183: $GPZDA,020235.75,12,01,2018,00,00*6B
2018-01-11 21:02:35 1515722555.054343: $GPGGA,020235,3946.9611,N,08404.9861,W,1,12,1.00,293.89,M,-33.324,M,,*7C
2018-01-11 21:02:35 1515722555.054408: $GPRMC,020235,A,3946.9611,N,08404.9861,W,0.3776,149.505,120118,,*32
2018-01-11 21:02:35 1515722555.054469: $GPGSA,A,3,1,7,8,9,11,27,28,30,16,23,13,138,4.0,1.0,3.5*04
2018-01-11 21:02:35 1515722555.054527: $GPGBS,020235,14.62,M,24.83,M,80.38,M*07
2018-01-11 21:02:36 1515722556.471345: $GPGSV,3,1,12,01,17,153,25,07,79,309,26,08,65,055,28,09,27,210,26*72
2018-01-11 21:02:36 1515722556.471499: $GPGSV,3,2,12,11,42,157,28,23,07,183,22,27,26,045,30,28,30,277,21*73
2018-01-11 21:02:36 1515722556.471562: $GPGSV,3,3,12,30,50,309,25,16,07,075,00,13,02,328,00,138,38,213,00*4B
2018-01-11 21:02:36 1515722556.584690: $GPZDA,020236.43,12,01,2018,00,00*6D
2018-01-11 21:02:36 1515722556.584831: $GPGGA,020236,3946.9606,N,08404.9867,W,1,09,1.00,290.37,M,-33.324,M,,*73
2018-01-11 21:02:36 1515722556.584895: $GPRMC,020236,A,3946.9606,N,08404.9867,W,0.0407,142.014,120118,,*39
2018-01-11 21:02:36 1515722556.584955: $GPGSA,A,3,1,7,8,9,11,23,27,28,30,,,,4.0,1.0,3.5*3B
2018-01-11 21:02:37 1515722557.391477: $GPZDA,020237.00,12,01,2018,00,00*6B
2018-01-11 21:02:37 1515722557.391640: $GPGGA,020237,3946.9602,N,08404.9874,W,1,09,1.00,289.65,M,-33.324,M,,*7B
2018-01-11 21:02:37 1515722557.391704: $GPRMC,020237,A,3946.9602,N,08404.9874,W,0.0407,142.014,120118,,*3E
2018-01-11 21:02:37 1515722557.391765: $GPGSA,A,3,1,7,8,9,11,23,27,28,30,,,,4.0,1.0,3.5*3B
2018-01-11 21:02:37 1515722557.391821: $GPGBS,020237,14.62,M,24.83,M,80.38,M*05
2018-01-11 21:02:37 1515722557.843579: $GPZDA,020238.00,12,01,2018,00,00*64
2018-01-11 21:02:37 1515722557.843714: $GPGGA,020238,3946.9613,N,08404.9837,W,1,09,0.80,276.31,M,-33.324,M,,*7B
2018-01-11 21:02:37 1515722557.843778: $GPRMC,020238,A,3946.9613,N,08404.9837,W,0.3006,62.539,120118,,*09
2018-01-11 21:02:37 1515722557.843837: $GPGSA,A,3,1,7,8,9,11,23,27,28,30,,,,4.0,0.8,3.5*32
2018-01-11 21:02:37 1515722557.843893: $GPGBS,020238,14.62,M,24.83,M,80.38,M*0A
2018-01-11 21:02:38 1515722558.684071: $GPGSV,3,1,12,01,17,153,43,07,79,309,43,08,65,055,46,09,27,210,42*7B
2018-01-11 21:02:38 1515722558.684224: $GPGSV,3,2,12,11,42,157,46,23,07,183,36,27,26,045,50,28,30,277,34*7C
2018-01-11 21:02:38 1515722558.684288: $GPGSV,3,3,12,30,50,309,41,13,02,328,21,16,07,075,22,138,38,213,45*4B
2018-01-11 21:02:38 1515722558.797669: $GPZDA,020239.00,12,01,2018,00,00*65
2018-01-11 21:02:38 1515722558.797780: $GPGGA,020239,3946.9613,N,08404.9838,W,1,12,0.80,277.72,M,-33.324,M,,*79
2018-01-11 21:02:38 1515722558.797842: $GPRMC,020239,A,3946.9613,N,08404.9838,W,0.0000,0.000,120118,,*39
2018-01-11 21:02:38 1515722558.797901: $GPGSA,A,3,1,7,8,9,11,23,27,28,30,13,16,138,4.0,0.8,3.5*0D
2018-01-11 21:02:39 1515722559.423081: $GPZDA,020240.00,12,01,2018,00,00*6B
2018-01-11 21:02:39 1515722559.423240: $GPGGA,020240,3946.9610,N,08404.9839,W,1,12,0.80,278.48,M,-33.324,M,,*73
2018-01-11 21:02:39 1515722559.423308: $GPRMC,020240,A,3946.9610,N,08404.9839,W,0.0000,0.000,120118,,*35
2018-01-11 21:02:39 1515722559.423370: $GPGSA,A,3,1,7,8,9,11,23,27,28,30,13,16,138,4.0,0.8,3.5*0D
2018-01-11 21:02:40 1515722560.347702: $GPZDA,020241.00,12,01,2018,00,00*6A
2018-01-11 21:02:40 1515722560.347862: $GPGGA,020241,3946.9610,N,08404.9839,W,1,12,0.80,278.48,M,-33.324,M,,*72
2018-01-11 21:02:40 1515722560.347930: $GPRMC,020241,A,3946.9610,N,08404.9839,W,0.0000,0.000,120118,,*34
2018-01-11 21:02:40 1515722560.348046: $GPGSA,A,3,1,7,8,9,11,23,27,28,30,13,16,138,4.0,0.8,3.5*0D
