2018-01-11 20:18:58 1515719938.371569: {"class":"VERSION","release":"3.16","rev":"3.16-4","proto_major":3,"proto_minor":11}
2018-01-11 20:18:58 1515719938.372041: {"class":"DEVICES","devices":[{"class":"DEVICE","path":"/dev/ttyUSB0","driver":"SiRF","subtype":"9\u0006GSD4e_4.1.2-P1_RPATCH.05-F-GPS-4R-1510281 11/03/2015 307","activated":"2018-01-12T01:18:58.298Z","flags":1,"native":1,"bps":4800,"parity":"N","stopbits":1,"cycle":1.00}]}
2018-01-11 20:18:58 1515719938.372159: {"class":"WATCH","enable":true,"json":false,"nmea":true,"raw":0,"scaled":false,"timing":false,"split24":false,"pps":false}
2018-01-11 20:18:58 1515719938.747399: $GPGSV,3,1,11,07,59,315,45,08,75,118,46,09,45,225,42,11,23,166,47*7E
2018-01-11 20:18:58 1515719938.747583: $GPGSV,3,2,11,16,20,063,39,23,25,189,48,27,44,051,50,28,16,261,39*7E
2018-01-11 20:18:58 1515719938.747650: $GPGSV,3,3,11,30,32,307,35,01,01,162,07,138,38,213,45*7B
2018-01-11 20:18:58 1515719938.859598: $GPZDA,011859.00,12,01,2018,00,00*6B
2018-01-11 20:18:58 1515719938.859736: $GPGGA,011859,3946.9578,N,08404.9813,W,2,10,0.80,302.81,M,-33.324,M,,*7E
2018-01-11 20:18:58 1515719938.859802: $GPRMC,011859,A,3946.9578,N,08404.9813,W,0.0000,0.000,120118,,*30
2018-01-11 20:18:58 1515719938.859863: $GPGSA,A,3,7,8,9,11,16,23,27,28,30,138,,,4.0,0.8,3.5*3E
2018-01-11 20:18:59 1515719939.412921: $GPZDA,011900.00,12,01,2018,00,00*66
2018-01-11 20:18:59 1515719939.413093: $GPGGA,011900,3946.9578,N,08404.9813,W,2,10,0.80,302.81,M,-33.324,M,,*73
2018-01-11 20:18:59 1515719939.413158: $GPRMC,011900,A,3946.9578,N,08404.9813,W,0.0000,0.000,120118,,*3D
2018-01-11 20:18:59 1515719939.413219: $GPGSA,A,3,7,8,9,11,16,23,27,28,30,138,,,4.0,0.8,3.5*3E
2018-01-11 20:19:00 1515719940.408792: $GPZDA,011901.00,12,01,2018,00,00*67
2018-01-11 20:19:00 1515719940.408963: $GPGGA,011901,3946.9578,N,08404.9813,W,2,10,0.80,302.81,M,-33.324,M,,*72
2018-01-11 20:19:00 1515719940.409098: $GPRMC,011901,A,3946.9578,N,08404.9813,W,0.0000,0.000,120118,,*3C
2018-01-11 20:19:00 1515719940.409168: $GPGSA,A,3,7,8,9,11,16,23,27,28,30,138,,,4.0,0.8,3.5*3E
2018-01-11 20:19:01 1515719941.759076: $GPGSV,3,1,11,07,59,315,45,08,75,118,45,09,45,225,42,11,23,166,47*7D
2018-01-11 20:19:01 1515719941.759244: $GPGSV,3,2,11,16,20,063,39,23,25,189,48,27,44,051,50,28,16,261,39*7E
2018-01-11 20:19:01 1515719941.759309: $GPGSV,3,3,11,30,32,307,35,01,01,162,04,138,38,213,45*78
2018-01-11 20:19:01 1515719941.872541: $GPZDA,011902.00,12,01,2018,00,00*64
2018-01-11 20:19:01 1515719941.872675: $GPGGA,011902,3946.9578,N,08404.9813,W,2,10,0.80,302.81,M,-33.324,M,,*71
2018-01-11 20:19:01 1515719941.872740: $GPRMC,011902,A,3946.9578,N,08404.9813,W,0.0000,0.000,120118,,*3F
2018-01-11 20:19:01 1515719941.872799: $GPGSA,A,3,7,8,9,11,16,23,27,28,30,138,,,4.0,0.8,3.5*3E
2018-01-11 20:19:02 1515719942.428278: $GPZDA,011903.00,12,01,2018,00,00*65
2018-01-11 20:19:02 1515719942.428470: $GPGGA,011903,3946.9574,N,08404.9813,W,2,10,0.80,302.17,M,-33.324,M,,*73
2018-01-11 20:19:02 1515719942.428537: $GPRMC,011903,A,3946.9574,N,08404.9813,W,0.0000,0.000,120118,,*32
2018-01-11 20:19:02 1515719942.428599: $GPGSA,A,3,7,8,9,11,16,23,27,28,30,138,,,4.0,0.8,3.5*3E
2018-01-11 20:19:03 1515719943.414143: $GPZDA,011904.00,12,01,2018,00,00*62
2018-01-11 20:19:03 1515719943.414329: $GPGGA,011904,3946.9574,N,08404.9813,W,2,10,0.80,302.17,M,-33.324,M,,*74
2018-01-11 20:19:03 1515719943.414395: $GPRMC,011904,A,3946.9574,N,08404.9813,W,0.0000,0.000,120118,,*35
2018-01-11 20:19:03 1515719943.414457: $GPGSA,A,3,7,8,9,11,16,23,27,28,30,138,,,4.0,0.8,3.5*3E
2018-01-11 20:19:04 1515719944.748664: $GPGSV,3,1,11,07,59,315,45,08,75,118,45,09,45,225,42,11,23,166,47*7D
2018-01-11 20:19:04 1515719944.748839: $GPGSV,3,2,11,16,20,063,39,23,25,189,48,27,44,051,50,28,16,261,38*7F
2018-01-11 20:19:04 1515719944.748908: $GPGSV,3,3,11,30,32,307,35,01,01,162,04,138,38,213,44*79
2018-01-11 20:19:04 1515719944.861994: $GPZDA,011905.00,12,01,2018,00,00*63
2018-01-11 20:19:04 1515719944.862136: $GPGGA,011905,3946.9574,N,08404.9813,W,2,10,0.80,302.17,M,-33.324,M,,*75
2018-01-11 20:19:04 1515719944.862207: $GPRMC,011905,A,3946.9574,N,08404.9813,W,0.0000,0.000,120118,,*34
2018-01-11 20:19:04 1515719944.862325: $GPGSA,A,3,7,8,9,11,16,23,27,28,30,138,,,4.0,0.8,3.5*3E
2018-01-11 20:19:05 1515719945.411657: $GPZDA,011906.00,12,01,2018,00,00*60
2018-01-11 20:19:05 1515719945.411833: $GPGGA,011906,3946.9574,N,08404.9813,W,2,10,0.80,302.17,M,-33.324,M,,*76
2018-01-11 20:19:05 1515719945.411900: $GPRMC,011906,A,3946.9574,N,08404.9813,W,0.0000,0.000,120118,,*37
2018-01-11 20:19:05 1515719945.411962: $GPGSA,A,3,7,8,9,11,16,23,27,28,30,138,,,4.0,0.8,3.5*3E
2018-01-11 20:19:06 1515719946.413268: $GPZDA,011907.00,12,01,2018,00,00*61
2018-01-11 20:19:06 1515719946.413444: $GPGGA,011907,3946.9574,N,08404.9813,W,2,10,0.80,302.17,M,-33.324,M,,*77
2018-01-11 20:19:06 1515719946.413509: $GPRMC,011907,A,3946.9574,N,08404.9813,W,0.0000,0.000,120118,,*36
2018-01-11 20:19:06 1515719946.413571: $GPGSA,A,3,7,8,9,11,16,23,27,28,30,138,,,4.0,0.8,3.5*3E
2018-01-11 20:19:07 1515719947.742715: $GPGSV,3,1,11,07,59,315,45,08,75,118,45,09,45,225,42,11,23,166,46*7C
2018-01-11 20:19:07 1515719947.747458: $GPGSV,3,2,11,16,20,063,39,23,25,189,48,27,44,051,50,28,16,261,38*7F
2018-01-11 20:19:07 1515719947.747577: $GPGSV,3,3,11,30,32,307,34,01,01,162,04,138,38,213,45*79
2018-01-11 20:19:07 1515719947.856106: $GPZDA,011908.00,12,01,2018,00,00*6E
2018-01-11 20:19:07 1515719947.856254: $GPGGA,011908,3946.9574,N,08404.9813,W,2,10,0.80,302.17,M,-33.324,M,,*78
2018-01-11 20:19:07 1515719947.856326: $GPRMC,011908,A,3946.9574,N,08404.9813,W,0.0000,0.000,120118,,*39
2018-01-11 20:19:07 1515719947.856386: $GPGSA,A,3,7,8,9,11,16,23,27,28,30,138,,,4.0,0.8,3.5*3E
2018-01-11 20:19:08 1515719948.406971: $GPZDA,011909.00,12,01,2018,00,00*6F
2018-01-11 20:19:08 1515719948.407144: $GPGGA,011909,3946.9574,N,08404.9813,W,2,10,0.80,302.17,M,-33.324,M,,*79
2018-01-11 20:19:08 1515719948.407211: $GPRMC,011909,A,3946.9574,N,08404.9813,W,0.0000,0.000,120118,,*38
2018-01-11 20:19:08 1515719948.407273: $GPGSA,A,3,7,8,9,11,16,23,27,28,30,138,,,4.0,0.8,3.5*3E
2018-01-11 20:19:09 1515719949.410390: $GPZDA,011910.00,12,01,2018,00,00*67
2018-01-11 20:19:09 1515719949.410562: $GPGGA,011910,3946.9574,N,08404.9813,W,2,10,0.80,302.17,M,-33.324,M,,*71
2018-01-11 20:19:09 1515719949.410627: $GPRMC,011910,A,3946.9574,N,08404.9813,W,0.0000,0.000,120118,,*30
2018-01-11 20:19:09 1515719949.410689: $GPGSA,A,3,7,8,9,11,16,23,27,28,30,138,,,4.0,0.8,3.5*3E
