2017-12-01 12:27:30 1512149250.113956: {"class":"VERSION","release":"3.16","rev":"3.16-4","proto_major":3,"proto_minor":11}
2017-12-01 12:27:30 1512149250.114350: {"class":"DEVICES","devices":[{"class":"DEVICE","path":"/dev/ttyUSB0","driver":"SiRF","subtype":"9\u0006GSD4e_4.1.2-P1_RPATCH.05-F-GPS-4R-1510281 11/03/2015 307","activated":"2017-12-01T17:27:29.991Z","flags":1,"native":1,"bps":4800,"parity":"N","stopbits":1,"cycle":1.00}]}
2017-12-01 12:27:30 1512149250.114474: {"class":"WATCH","enable":true,"json":false,"nmea":true,"raw":0,"scaled":false,"timing":false,"split24":false,"pps":false}
2017-12-01 12:27:30 1512149250.456302: $GPZDA,172731.00,01,12,2017,00,00*61
2017-12-01 12:27:30 1512149250.456507: $GPGGA,172731,3946.9585,N,08404.9818,W,2,12,0.80,301.20,M,-33.324,M,,*78
2017-12-01 12:27:30 1512149250.456578: $GPRMC,172731,A,3946.9585,N,08404.9818,W,0.0000,0.000,011217,,*33
2017-12-01 12:27:30 1512149250.456643: $GPGSA,A,3,10,13,15,18,20,21,24,27,29,5,32,138,2.0,0.8,1.5*35
2017-12-01 12:27:31 1512149251.380833: $GPZDA,172732.00,01,12,2017,00,00*62
2017-12-01 12:27:31 1512149251.381020: $GPGGA,172732,3946.9585,N,08404.9818,W,2,12,0.80,301.20,M,-33.324,M,,*7B
2017-12-01 12:27:31 1512149251.381089: $GPRMC,172732,A,3946.9585,N,08404.9818,W,0.0000,0.000,011217,,*30
2017-12-01 12:27:31 1512149251.381152: $GPGSA,A,3,10,13,15,18,20,21,24,27,29,5,32,138,2.0,0.8,1.5*35
2017-12-01 12:27:32 1512149252.714087: $GPGSV,3,1,12,10,27,286,43,13,25,045,42,15,56,049,48,18,57,306,46*7F
2017-12-01 12:27:32 1512149252.714274: $GPGSV,3,2,12,20,48,076,46,21,79,243,43,24,37,135,47,27,18,309,27*7C
2017-12-01 12:27:32 1512149252.714341: $GPGSV,3,3,12,29,06,187,33,05,01,090,26,32,05,228,29,138,38,213,46*44
2017-12-01 12:27:32 1512149252.827665: $GPZDA,172733.00,01,12,2017,00,00*63
2017-12-01 12:27:32 1512149252.827837: $GPGGA,172733,3946.9585,N,08404.9818,W,2,12,0.80,301.20,M,-33.324,M,,*7A
2017-12-01 12:27:32 1512149252.827907: $GPRMC,172733,A,3946.9585,N,08404.9818,W,0.0000,0.000,011217,,*31
2017-12-01 12:27:32 1512149252.827969: $GPGSA,A,3,10,13,15,18,20,21,24,27,29,5,32,138,2.0,0.8,1.5*35
2017-12-01 12:27:33 1512149253.379594: $GPZDA,172734.00,01,12,2017,00,00*64
2017-12-01 12:27:33 1512149253.379784: $GPGGA,172734,3946.9585,N,08404.9818,W,2,12,0.80,301.20,M,-33.324,M,,*7D
2017-12-01 12:27:33 1512149253.379853: $GPRMC,172734,A,3946.9585,N,08404.9818,W,0.0000,0.000,011217,,*36
2017-12-01 12:27:33 1512149253.379916: $GPGSA,A,3,10,13,15,18,20,21,24,27,29,5,32,138,2.0,0.8,1.5*35
2017-12-01 12:27:34 1512149254.379238: $GPZDA,172735.00,01,12,2017,00,00*65
2017-12-01 12:27:34 1512149254.379416: $GPGGA,172735,3946.9588,N,08404.9818,W,2,12,0.80,300.44,M,-33.324,M,,*72
2017-12-01 12:27:34 1512149254.379485: $GPRMC,172735,A,3946.9588,N,08404.9818,W,0.0000,0.000,011217,,*3A
2017-12-01 12:27:34 1512149254.379547: $GPGSA,A,3,10,13,15,18,20,21,24,27,29,5,32,138,2.0,0.8,1.5*35
2017-12-01 12:27:34 1512149254.379608: $GPGBS,172735,2.67,M,3.86,M,8.82,M*37
2017-12-01 12:27:35 1512149255.714490: $GPGSV,3,1,12,10,27,286,44,13,25,045,41,15,56,049,46,18,57,306,46*75
2017-12-01 12:27:35 1512149255.714685: $GPGSV,3,2,12,20,48,076,45,21,79,243,43,24,37,135,47,27,18,309,26*7E
2017-12-01 12:27:35 1512149255.714762: $GPGSV,3,3,12,29,06,187,31,05,01,090,26,32,05,228,31,138,38,213,47*4E
2017-12-01 12:27:35 1512149255.826841: $GPZDA,172736.00,01,12,2017,00,00*66
2017-12-01 12:27:35 1512149255.827000: $GPGGA,172736,3946.9593,N,08404.9818,W,2,12,0.80,301.08,M,-33.324,M,,*72
2017-12-01 12:27:35 1512149255.827066: $GPRMC,172736,A,3946.9593,N,08404.9818,W,0.1867,180.000,011217,,*32
2017-12-01 12:27:35 1512149255.827128: $GPGSA,A,3,10,13,15,18,20,21,24,27,29,5,32,138,2.0,0.8,1.5*35
2017-12-01 12:27:36 1512149256.380016: $GPZDA,172737.00,01,12,2017,00,00*67
2017-12-01 12:27:36 1512149256.380222: $GPGGA,172737,3946.9593,N,08404.9818,W,2,12,1.00,301.08,M,-33.324,M,,*7A
2017-12-01 12:27:36 1512149256.380311: $GPRMC,172737,A,3946.9593,N,08404.9818,W,0.0000,0.000,011217,,*32
2017-12-01 12:27:36 1512149256.380377: $GPGSA,A,3,10,13,15,18,20,21,24,27,29,5,32,138,2.0,1.0,1.5*3C
2017-12-01 12:27:37 1512149257.382143: $GPZDA,172738.00,01,12,2017,00,00*68
2017-12-01 12:27:37 1512149257.382330: $GPGGA,172738,3946.9592,N,08404.9811,W,2,12,0.80,301.16,M,-33.324,M,,*7B
2017-12-01 12:27:37 1512149257.382420: $GPRMC,172738,A,3946.9592,N,08404.9811,W,0.0000,0.000,011217,,*35
2017-12-01 12:27:37 1512149257.382486: $GPGSA,A,3,10,13,15,18,20,21,24,27,29,5,32,138,2.0,0.8,1.5*35
2017-12-01 12:27:38 1512149258.717842: $GPGSV,3,1,12,10,27,286,43,13,25,045,41,15,56,049,47,18,57,306,45*70
2017-12-01 12:27:38 1512149258.718044: $GPGSV,3,2,12,20,48,076,45,21,79,243,43,24,37,135,47,27,18,309,26*7E
2017-12-01 12:27:38 1512149258.718114: $GPGSV,3,3,12,29,06,187,32,05,01,090,26,32,05,228,31,138,38,213,47*4D
2017-12-01 12:27:38 1512149258.829988: $GPZDA,172739.00,01,12,2017,00,00*69
2017-12-01 12:27:38 1512149258.830191: $GPGGA,172739,3946.9592,N,08404.9811,W,2,12,0.80,301.16,M,-33.324,M,,*7A
2017-12-01 12:27:38 1512149258.830266: $GPRMC,172739,A,3946.9592,N,08404.9811,W,0.0000,0.000,011217,,*34
2017-12-01 12:27:38 1512149258.830333: $GPGSA,A,3,10,13,15,18,20,21,24,27,29,5,32,138,2.0,0.8,1.5*35
2017-12-01 12:27:39 1512149259.380838: $GPZDA,172740.00,01,12,2017,00,00*67
2017-12-01 12:27:39 1512149259.381015: $GPGGA,172740,3946.9592,N,08404.9811,W,2,12,0.80,301.16,M,-33.324,M,,*74
2017-12-01 12:27:39 1512149259.381085: $GPRMC,172740,A,3946.9592,N,08404.9811,W,0.0000,0.000,011217,,*3A
2017-12-01 12:27:39 1512149259.381150: $GPGSA,A,3,10,13,15,18,20,21,24,27,29,5,32,138,2.0,0.8,1.5*35
