2017-12-01 11:27:57 1512145677.456673: {"class":"VERSION","release":"3.16","rev":"3.16-4","proto_major":3,"proto_minor":11}
2017-12-01 11:27:57 1512145677.457100: {"class":"DEVICES","devices":[{"class":"DEVICE","path":"/dev/ttyUSB0","driver":"SiRF","subtype":"9\u0006GSD4e_4.1.2-P1_RPATCH.05-F-GPS-4R-1510281 11/03/2015 307","activated":"2017-12-01T16:27:57.260Z","flags":1,"native":1,"bps":4800,"parity":"N","stopbits":1,"cycle":1.00}]}
2017-12-01 11:27:57 1512145677.457227: {"class":"WATCH","enable":true,"json":false,"nmea":true,"raw":0,"scaled":false,"timing":false,"split24":false,"pps":false}
2017-12-01 11:27:57 1512145677.708726: $GPGSV,3,1,12,05,19,072,38,10,08,267,33,13,49,055,46,15,79,105,49*7F
2017-12-01 11:27:57 1512145677.708911: $GPGSV,3,2,12,18,39,279,46,20,67,037,45,21,60,309,47,24,14,153,36*7D
2017-12-01 11:27:57 1512145677.708977: $GPGSV,3,3,12,29,31,198,47,30,01,030,26,27,04,328,28,138,38,213,46*44
2017-12-01 11:27:57 1512145677.822169: $GPZDA,162758.00,01,12,2017,00,00*6F
2017-12-01 11:27:57 1512145677.822340: $GPGGA,162758,3946.9565,N,08404.9832,W,2,12,1.00,297.84,M,-33.324,M,,*79
2017-12-01 11:27:57 1512145677.822407: $GPRMC,162758,A,3946.9565,N,08404.9832,W,0.0000,0.000,011217,,*3B
2017-12-01 11:27:57 1512145677.822468: $GPGSA,A,3,5,10,13,15,18,20,21,24,29,30,27,138,2.0,1.0,1.5*3E
2017-12-01 11:27:58 1512145678.447828: $GPZDA,162759.00,01,12,2017,00,00*6E
2017-12-01 11:27:58 1512145678.447998: $GPGGA,162759,3946.9565,N,08404.9832,W,2,12,1.00,297.84,M,-33.324,M,,*78
2017-12-01 11:27:58 1512145678.448065: $GPRMC,162759,A,3946.9565,N,08404.9832,W,0.0000,0.000,011217,,*3A
2017-12-01 11:27:58 1512145678.448127: $GPGSA,A,3,5,10,13,15,18,20,21,24,29,30,27,138,2.0,1.0,1.5*3E
2017-12-01 11:27:59 1512145679.375698: $GPZDA,162800.00,01,12,2017,00,00*6D
2017-12-01 11:27:59 1512145679.375886: $GPGGA,162800,3946.9565,N,08404.9832,W,2,12,1.00,297.84,M,-33.324,M,,*7B
2017-12-01 11:27:59 1512145679.375957: $GPRMC,162800,A,3946.9565,N,08404.9832,W,0.0000,0.000,011217,,*39
2017-12-01 11:27:59 1512145679.376020: $GPGSA,A,3,5,10,13,15,18,20,21,24,29,30,27,138,2.0,1.0,1.5*3E
2017-12-01 11:28:00 1512145680.709092: $GPGSV,3,1,12,05,19,072,37,10,08,267,33,13,49,055,46,15,79,105,49*70
2017-12-01 11:28:00 1512145680.709271: $GPGSV,3,2,12,18,39,279,45,20,67,037,45,21,60,309,47,24,14,153,36*7E
2017-12-01 11:28:00 1512145680.709339: $GPGSV,3,3,12,29,31,198,46,30,01,030,18,27,04,328,29,138,38,213,46*49
2017-12-01 11:28:00 1512145680.822832: $GPZDA,162801.00,01,12,2017,00,00*6C
2017-12-01 11:28:00 1512145680.823005: $GPGGA,162801,3946.9565,N,08404.9832,W,2,12,1.00,297.84,M,-33.324,M,,*7A
2017-12-01 11:28:00 1512145680.823072: $GPRMC,162801,A,3946.9565,N,08404.9832,W,0.0000,0.000,011217,,*38
2017-12-01 11:28:00 1512145680.823132: $GPGSA,A,3,5,10,13,15,18,20,21,24,29,30,27,138,2.0,1.0,1.5*3E
2017-12-01 11:28:01 1512145681.377364: $GPZDA,162802.00,01,12,2017,00,00*6F
2017-12-01 11:28:01 1512145681.377526: $GPGGA,162802,3946.9565,N,08404.9832,W,2,12,1.00,297.84,M,-33.324,M,,*79
2017-12-01 11:28:01 1512145681.377591: $GPRMC,162802,A,3946.9565,N,08404.9832,W,0.0000,0.000,011217,,*3B
2017-12-01 11:28:01 1512145681.377652: $GPGSA,A,3,5,10,13,15,18,20,21,24,29,30,27,138,2.0,1.0,1.5*3E
2017-12-01 11:28:02 1512145682.375384: $GPZDA,162803.00,01,12,2017,00,00*6E
2017-12-01 11:28:02 1512145682.375561: $GPGGA,162803,3946.9565,N,08404.9832,W,2,12,1.00,297.84,M,-33.324,M,,*78
2017-12-01 11:28:02 1512145682.375629: $GPRMC,162803,A,3946.9565,N,08404.9832,W,0.0000,0.000,011217,,*3A
2017-12-01 11:28:02 1512145682.375690: $GPGSA,A,3,5,10,13,15,18,20,21,24,29,30,27,138,2.0,1.0,1.5*3E
2017-12-01 11:28:02 1512145682.375750: $GPGBS,162803,2.67,M,3.86,M,8.82,M*3C
2017-12-01 11:28:03 1512145683.713060: $GPGSV,3,1,12,05,19,072,11,10,08,267,00,13,49,055,14,15,79,105,14*7B
2017-12-01 11:28:03 1512145683.713225: $GPGSV,3,2,12,18,39,279,13,20,67,037,13,21,60,309,14,24,14,153,10*7C
2017-12-01 11:28:03 1512145683.713291: $GPGSV,3,3,12,29,31,198,14,30,01,030,04,27,04,328,09,138,38,213,16*44
2017-12-01 11:28:03 1512145683.826569: $GPZDA,162804.00,01,12,2017,00,00*69
2017-12-01 11:28:03 1512145683.826813: $GPGGA,162804,3946.9565,N,08404.9832,W,2,11,1.20,297.84,M,-33.324,M,,*7E
2017-12-01 11:28:03 1512145683.826890: $GPRMC,162804,A,3946.9565,N,08404.9832,W,0.0000,0.000,011217,,*3D
2017-12-01 11:28:03 1512145683.826952: $GPGSA,A,3,5,13,15,18,20,21,24,29,30,27,138,,2.0,1.2,1.5*3D
2017-12-01 11:28:04 1512145684.379870: $GPZDA,162805.00,01,12,2017,00,00*68
2017-12-01 11:28:04 1512145684.380045: $GPGGA,162805,3946.9568,N,08404.9832,W,2,11,1.00,297.08,M,-33.324,M,,*74
2017-12-01 11:28:04 1512145684.380113: $GPRMC,162805,A,3946.9568,N,08404.9832,W,0.1867,180.000,011217,,*30
2017-12-01 11:28:04 1512145684.380175: $GPGSA,A,3,5,13,15,18,20,21,24,29,30,27,138,,2.0,1.0,1.5*3F
2017-12-01 11:28:05 1512145685.372221: $GPZDA,162806.00,01,12,2017,00,00*6B
2017-12-01 11:28:05 1512145685.372406: $GPGGA,162806,3946.9571,N,08404.9830,W,2,11,1.00,294.91,M,-33.324,M,,*7E
2017-12-01 11:28:05 1512145685.372472: $GPRMC,162806,A,3946.9571,N,08404.9830,W,0.1867,180.000,011217,,*39
2017-12-01 11:28:05 1512145685.372533: $GPGSA,A,3,5,13,15,18,20,21,24,29,30,27,138,,2.0,1.0,1.5*3F
2017-12-01 11:28:06 1512145686.707686: $GPGSV,3,1,12,05,19,072,35,10,08,267,28,13,49,055,45,15,79,105,48*7A
2017-12-01 11:28:06 1512145686.707888: $GPGSV,3,2,12,18,39,279,44,20,67,037,44,21,60,309,46,24,14,153,35*7C
2017-12-01 11:28:06 1512145686.707958: $GPGSV,3,3,12,29,31,198,46,30,01,030,20,27,04,328,29,138,38,213,46*42
2017-12-01 11:28:06 1512145686.820151: $GPZDA,162807.00,01,12,2017,00,00*6A
2017-12-01 11:28:06 1512145686.820327: $GPGGA,162807,3946.9571,N,08404.9830,W,2,12,1.00,294.91,M,-33.324,M,,*7C
2017-12-01 11:28:06 1512145686.820396: $GPRMC,162807,A,3946.9571,N,08404.9830,W,0.0000,0.000,011217,,*39
2017-12-01 11:28:06 1512145686.820457: $GPGSA,A,3,5,10,13,15,18,20,21,24,29,30,27,138,2.0,1.0,1.5*3E
2017-12-01 11:28:07 1512145687.373492: $GPZDA,162808.00,01,12,2017,00,00*65
2017-12-01 11:28:07 1512145687.373657: $GPGGA,162808,3946.9571,N,08404.9830,W,2,12,1.20,294.91,M,-33.324,M,,*71
2017-12-01 11:28:07 1512145687.373725: $GPRMC,162808,A,3946.9571,N,08404.9830,W,0.0000,0.000,011217,,*36
2017-12-01 11:28:07 1512145687.373786: $GPGSA,A,3,5,10,13,15,18,20,21,24,29,30,27,138,2.0,1.2,1.5*3C
