2017-12-01 15:39:59 1512160799.407157: {"class":"VERSION","release":"3.16","rev":"3.16-4","proto_major":3,"proto_minor":11}
2017-12-01 15:39:59 1512160799.407608: {"class":"DEVICES","devices":[{"class":"DEVICE","path":"/dev/ttyUSB0","driver":"SiRF","subtype":"9\u0006GSD4e_4.1.2-P1_RPATCH.05-F-GPS-4R-1510281 11/03/2015 307","activated":"2017-12-01T20:39:59.402Z","flags":1,"native":1,"bps":4800,"parity":"N","stopbits":1,"cycle":1.00}]}
2017-12-01 15:39:59 1512160799.407722: {"class":"WATCH","enable":true,"json":false,"nmea":true,"raw":0,"scaled":false,"timing":false,"split24":false,"pps":false}
2017-12-01 15:40:00 1512160800.700920: $GPGSV,3,1,11,01,12,319,37,10,72,127,48,11,10,303,38,12,25,073,40*74
2017-12-01 15:40:00 1512160800.701101: $GPGSV,3,2,11,14,53,288,42,18,40,133,46,24,16,045,43,25,28,117,44*7C
2017-12-01 15:40:00 1512160800.701189: $GPGSV,3,3,11,31,32,211,48,32,67,322,48,138,38,213,46*78
2017-12-01 15:40:00 1512160800.814691: $GPZDA,204001.00,01,12,2017,00,00*67
2017-12-01 15:40:00 1512160800.814861: $GPGGA,204001,3946.9590,N,08404.9854,W,2,11,0.80,290.77,M,-33.324,M,,*7A
2017-12-01 15:40:00 1512160800.814928: $GPRMC,204001,A,3946.9590,N,08404.9854,W,0.0000,0.000,011217,,*39
2017-12-01 15:40:00 1512160800.814988: $GPGSA,A,3,1,10,11,12,14,18,24,25,31,32,138,,2.0,0.8,1.5*3B
2017-12-01 15:40:01 1512160801.441240: $GPZDA,204002.00,01,12,2017,00,00*64
2017-12-01 15:40:01 1512160801.441498: $GPGGA,204002,3946.9590,N,08404.9854,W,2,11,0.80,290.77,M,-33.324,M,,*79
2017-12-01 15:40:01 1512160801.441572: $GPRMC,204002,A,3946.9590,N,08404.9854,W,0.0000,0.000,011217,,*3A
2017-12-01 15:40:01 1512160801.441633: $GPGSA,A,3,1,10,11,12,14,18,24,25,31,32,138,,2.0,0.8,1.5*3B
2017-12-01 15:40:02 1512160802.358252: $GPZDA,204003.00,01,12,2017,00,00*65
2017-12-01 15:40:02 1512160802.358428: $GPGGA,204003,3946.9590,N,08404.9854,W,2,11,0.80,290.77,M,-33.324,M,,*78
2017-12-01 15:40:02 1512160802.358495: $GPRMC,204003,A,3946.9590,N,08404.9854,W,0.0000,0.000,011217,,*3B
2017-12-01 15:40:02 1512160802.358556: $GPGSA,A,3,1,10,11,12,14,18,24,25,31,32,138,,2.0,0.8,1.5*3B
2017-12-01 15:40:03 1512160803.683734: $GPGSV,3,1,11,01,12,319,36,10,72,127,48,11,10,303,38,12,25,073,40*75
2017-12-01 15:40:03 1512160803.683915: $GPGSV,3,2,11,14,53,288,42,18,40,133,46,24,16,045,43,25,28,117,44*7C
2017-12-01 15:40:03 1512160803.683982: $GPGSV,3,3,11,31,32,211,48,32,67,322,49,138,38,213,45*7A
2017-12-01 15:40:03 1512160803.797763: $GPZDA,204004.00,01,12,2017,00,00*62
2017-12-01 15:40:03 1512160803.797939: $GPGGA,204004,3946.9590,N,08404.9854,W,2,11,0.80,290.77,M,-33.324,M,,*7F
2017-12-01 15:40:03 1512160803.798009: $GPRMC,204004,A,3946.9590,N,08404.9854,W,0.0000,0.000,011217,,*3C
2017-12-01 15:40:03 1512160803.798071: $GPGSA,A,3,1,10,11,12,14,18,24,25,31,32,138,,2.0,0.8,1.5*3B
2017-12-01 15:40:04 1512160804.348210: $GPZDA,204005.00,01,12,2017,00,00*63
2017-12-01 15:40:04 1512160804.348383: $GPGGA,204005,3946.9590,N,08404.9854,W,2,11,0.80,290.77,M,-33.324,M,,*7E
2017-12-01 15:40:04 1512160804.348450: $GPRMC,204005,A,3946.9590,N,08404.9854,W,0.0000,0.000,011217,,*3D
2017-12-01 15:40:04 1512160804.348511: $GPGSA,A,3,1,10,11,12,14,18,24,25,31,32,138,,2.0,0.8,1.5*3B
2017-12-01 15:40:05 1512160805.347873: $GPZDA,204006.00,01,12,2017,00,00*60
2017-12-01 15:40:05 1512160805.348044: $GPGGA,204006,3946.9590,N,08404.9854,W,2,11,0.80,290.77,M,-33.324,M,,*7D
2017-12-01 15:40:05 1512160805.348112: $GPRMC,204006,A,3946.9590,N,08404.9854,W,0.0000,0.000,011217,,*3E
2017-12-01 15:40:05 1512160805.348174: $GPGSA,A,3,1,10,11,12,14,18,24,25,31,32,138,,2.0,0.8,1.5*3B
2017-12-01 15:40:06 1512160806.683034: $GPGSV,3,1,11,01,12,319,36,10,72,127,48,11,10,303,38,12,25,073,40*75
2017-12-01 15:40:06 1512160806.683281: $GPGSV,3,2,11,14,53,288,42,18,40,133,46,24,16,045,43,25,28,117,43*7B
2017-12-01 15:40:06 1512160806.683375: $GPGSV,3,3,11,31,32,211,49,32,67,322,48,138,38,213,46*79
2017-12-01 15:40:06 1512160806.796253: $GPZDA,204007.00,01,12,2017,00,00*61
2017-12-01 15:40:06 1512160806.796423: $GPGGA,204007,3946.9590,N,08404.9854,W,2,11,0.80,290.77,M,-33.324,M,,*7C
2017-12-01 15:40:06 1512160806.796566: $GPRMC,204007,A,3946.9590,N,08404.9854,W,0.0000,0.000,011217,,*3F
2017-12-01 15:40:06 1512160806.796629: $GPGSA,A,3,1,10,11,12,14,18,24,25,31,32,138,,2.0,0.8,1.5*3B
2017-12-01 15:40:07 1512160807.343699: $GPZDA,204008.00,01,12,2017,00,00*6E
2017-12-01 15:40:07 1512160807.343870: $GPGGA,204008,3946.9590,N,08404.9854,W,2,11,0.80,290.77,M,-33.324,M,,*73
2017-12-01 15:40:07 1512160807.343937: $GPRMC,204008,A,3946.9590,N,08404.9854,W,0.0000,0.000,011217,,*30
2017-12-01 15:40:07 1512160807.343999: $GPGSA,A,3,1,10,11,12,14,18,24,25,31,32,138,,2.0,0.8,1.5*3B
2017-12-01 15:40:08 1512160808.349340: $GPZDA,204009.00,01,12,2017,00,00*6F
2017-12-01 15:40:08 1512160808.349517: $GPGGA,204009,3946.9590,N,08404.9854,W,2,11,0.80,290.77,M,-33.324,M,,*72
2017-12-01 15:40:08 1512160808.349586: $GPRMC,204009,A,3946.9590,N,08404.9854,W,0.0000,0.000,011217,,*31
2017-12-01 15:40:08 1512160808.349648: $GPGSA,A,3,1,10,11,12,14,18,24,25,31,32,138,,2.0,0.8,1.5*3B
2017-12-01 15:40:09 1512160809.684916: $GPGSV,3,1,11,01,12,319,36,10,72,127,47,11,10,303,38,12,25,073,40*7A
2017-12-01 15:40:09 1512160809.685100: $GPGSV,3,2,11,14,53,288,42,18,40,133,46,24,16,045,44,25,28,117,43*7C
2017-12-01 15:40:09 1512160809.685167: $GPGSV,3,3,11,31,32,211,49,32,67,322,48,138,38,213,45*7A
2017-12-01 15:40:09 1512160809.798506: $GPZDA,204010.00,01,12,2017,00,00*67
2017-12-01 15:40:09 1512160809.798677: $GPGGA,204010,3946.9590,N,08404.9854,W,2,11,0.80,290.77,M,-33.324,M,,*7A
2017-12-01 15:40:09 1512160809.798742: $GPRMC,204010,A,3946.9590,N,08404.9854,W,0.0000,0.000,011217,,*39
2017-12-01 15:40:09 1512160809.798804: $GPGSA,A,3,1,10,11,12,14,18,24,25,31,32,138,,2.0,0.8,1.5*3B
2017-12-01 15:40:10 1512160810.346680: $GPZDA,204011.00,01,12,2017,00,00*66
2017-12-01 15:40:10 1512160810.346832: $GPGGA,204011,3946.9590,N,08404.9854,W,2,11,0.80,290.77,M,-33.324,M,,*7B
2017-12-01 15:40:10 1512160810.346897: $GPRMC,204011,A,3946.9590,N,08404.9854,W,0.0000,0.000,011217,,*38
2017-12-01 15:40:10 1512160810.346959: $GPGSA,A,3,1,10,11,12,14,18,24,25,31,32,138,,2.0,0.8,1.5*3B
2017-12-01 15:40:11 1512160811.348661: $GPZDA,204012.00,01,12,2017,00,00*65
2017-12-01 15:40:11 1512160811.348833: $GPGGA,204012,3946.9590,N,08404.9854,W,2,11,0.80,290.77,M,-33.324,M,,*78
2017-12-01 15:40:11 1512160811.348900: $GPRMC,204012,A,3946.9590,N,08404.9854,W,0.0000,0.000,011217,,*3B
2017-12-01 15:40:11 1512160811.348961: $GPGSA,A,3,1,10,11,12,14,18,24,25,31,32,138,,2.0,0.8,1.5*3B
2017-12-01 15:40:12 1512160812.681336: $GPGSV,3,1,11,01,12,319,36,10,72,127,48,11,10,303,37,12,25,073,40*7A
2017-12-01 15:40:12 1512160812.681618: $GPGSV,3,2,11,14,53,288,42,18,40,133,46,24,16,045,44,25,28,117,43*7C
2017-12-01 15:40:12 1512160812.681696: $GPGSV,3,3,11,31,32,211,49,32,67,322,49,138,38,213,46*78
2017-12-01 15:40:12 1512160812.793625: $GPZDA,204013.00,01,12,2017,00,00*64
2017-12-01 15:40:12 1512160812.793796: $GPGGA,204013,3946.9590,N,08404.9854,W,2,11,0.80,290.77,M,-33.324,M,,*79
2017-12-01 15:40:12 1512160812.793863: $GPRMC,204013,A,3946.9590,N,08404.9854,W,0.0000,0.000,011217,,*3A
2017-12-01 15:40:12 1512160812.793923: $GPGSA,A,3,1,10,11,12,14,18,24,25,31,32,138,,2.0,0.8,1.5*3B
2017-12-01 15:40:13 1512160813.350739: $GPZDA,204014.00,01,12,2017,00,00*63
2017-12-01 15:40:13 1512160813.350915: $GPGGA,204014,3946.9590,N,08404.9854,W,2,11,0.80,290.77,M,-33.324,M,,*7E
2017-12-01 15:40:13 1512160813.350982: $GPRMC,204014,A,3946.9590,N,08404.9854,W,0.0000,0.000,011217,,*3D
2017-12-01 15:40:13 1512160813.351042: $GPGSA,A,3,1,10,11,12,14,18,24,25,31,32,138,,2.0,0.8,1.5*3B
2017-12-01 15:40:14 1512160814.341747: $GPZDA,204015.00,01,12,2017,00,00*62
2017-12-01 15:40:14 1512160814.341920: $GPGGA,204015,3946.9590,N,08404.9854,W,2,11,0.80,290.77,M,-33.324,M,,*7F
2017-12-01 15:40:14 1512160814.341987: $GPRMC,204015,A,3946.9590,N,08404.9854,W,0.0000,0.000,011217,,*3C
2017-12-01 15:40:14 1512160814.342048: $GPGSA,A,3,1,10,11,12,14,18,24,25,31,32,138,,2.0,0.8,1.5*3B
2017-12-01 15:40:15 1512160815.683652: $GPGSV,3,1,11,01,12,319,38,10,72,127,48,11,10,303,37,12,25,073,40*74
2017-12-01 15:40:15 1512160815.683884: $GPGSV,3,2,11,14,53,288,42,18,40,133,46,24,16,045,44,25,28,117,43*7C
2017-12-01 15:40:15 1512160815.683972: $GPGSV,3,3,11,31,32,211,49,32,67,322,49,138,38,213,46*78
2017-12-01 15:40:15 1512160815.797096: $GPZDA,204016.00,01,12,2017,00,00*61
2017-12-01 15:40:15 1512160815.797254: $GPGGA,204016,3946.9589,N,08404.9847,W,2,11,0.80,290.85,M,-33.324,M,,*7B
2017-12-01 15:40:15 1512160815.797322: $GPRMC,204016,A,3946.9589,N,08404.9847,W,0.0000,0.000,011217,,*35
2017-12-01 15:40:15 1512160815.797383: $GPGSA,A,3,1,10,11,12,14,18,24,25,31,32,138,,2.0,0.8,1.5*3B
2017-12-01 15:40:16 1512160816.422562: $GPZDA,204017.00,01,12,2017,00,00*60
2017-12-01 15:40:16 1512160816.422731: $GPGGA,204017,3946.9589,N,08404.9847,W,2,11,0.80,290.85,M,-33.324,M,,*7A
2017-12-01 15:40:16 1512160816.422797: $GPRMC,204017,A,3946.9589,N,08404.9847,W,0.0000,0.000,011217,,*34
2017-12-01 15:40:16 1512160816.422857: $GPGSA,A,3,1,10,11,12,14,18,24,25,31,32,138,,2.0,0.8,1.5*3B
2017-12-01 15:40:17 1512160817.349634: $GPZDA,204018.00,01,12,2017,00,00*6F
2017-12-01 15:40:17 1512160817.349802: $GPGGA,204018,3946.9589,N,08404.9847,W,2,11,0.80,290.85,M,-33.324,M,,*75
2017-12-01 15:40:17 1512160817.349869: $GPRMC,204018,A,3946.9589,N,08404.9847,W,0.0000,0.000,011217,,*3B
2017-12-01 15:40:17 1512160817.349930: $GPGSA,A,3,1,10,11,12,14,18,24,25,31,32,138,,2.0,0.8,1.5*3B
2017-12-01 15:40:18 1512160818.683970: $GPGSV,3,1,11,01,12,319,38,10,72,127,48,11,10,303,38,12,25,073,42*79
2017-12-01 15:40:18 1512160818.684129: $GPGSV,3,2,11,14,53,288,42,18,40,133,46,24,16,045,44,25,28,117,43*7C
2017-12-01 15:40:18 1512160818.684217: $GPGSV,3,3,11,31,32,211,49,32,67,322,49,138,38,213,45*7B
2017-12-01 15:40:18 1512160818.796319: $GPZDA,204019.00,01,12,2017,00,00*6E
2017-12-01 15:40:18 1512160818.796485: $GPGGA,204019,3946.9589,N,08404.9847,W,2,11,0.80,290.85,M,-33.324,M,,*74
2017-12-01 15:40:18 1512160818.796551: $GPRMC,204019,A,3946.9589,N,08404.9847,W,0.0000,0.000,011217,,*3A
2017-12-01 15:40:18 1512160818.796612: $GPGSA,A,3,1,10,11,12,14,18,24,25,31,32,138,,2.0,0.8,1.5*3B
2017-12-01 15:40:19 1512160819.349514: $GPZDA,204020.00,01,12,2017,00,00*64
2017-12-01 15:40:19 1512160819.349683: $GPGGA,204020,3946.9589,N,08404.9847,W,2,11,0.80,290.85,M,-33.324,M,,*7E
2017-12-01 15:40:19 1512160819.349750: $GPRMC,204020,A,3946.9589,N,08404.9847,W,0.0000,0.000,011217,,*30
2017-12-01 15:40:19 1512160819.349812: $GPGSA,A,3,1,10,11,12,14,18,24,25,31,32,138,,2.0,0.8,1.5*3B
