2017-12-01 13:21:13 1512152473.956660: {"class":"VERSION","release":"3.16","rev":"3.16-4","proto_major":3,"proto_minor":11}
2017-12-01 13:21:13 1512152473.957317: {"class":"DEVICES","devices":[{"class":"DEVICE","path":"/dev/ttyUSB0","driver":"SiRF","subtype":"9\u0006GSD4e_4.1.2-P1_RPATCH.05-F-GPS-4R-1510281 11/03/2015 307","activated":"2017-12-01T18:21:13.543Z","flags":1,"native":1,"bps":4800,"parity":"N","stopbits":1,"cycle":1.00}]}
2017-12-01 13:21:13 1512152473.957543: {"class":"WATCH","enable":true,"json":false,"nmea":true,"raw":0,"scaled":false,"timing":false,"split24":false,"pps":false}
2017-12-01 13:21:14 1512152474.737492: $GPGSV,3,1,12,10,45,304,46,15,33,054,48,18,73,348,43,20,30,099,46*72
2017-12-01 13:21:14 1512152474.737672: $GPGSV,3,2,12,21,59,186,45,24,52,103,46,32,24,241,42,08,07,318,33*78
2017-12-01 13:21:14 1512152474.737740: $GPGSV,3,3,12,13,04,049,18,27,18,285,40,14,07,234,28,138,38,213,46*41
2017-12-01 13:21:14 1512152474.851175: $GPZDA,182115.00,01,12,2017,00,00*6E
2017-12-01 13:21:14 1512152474.851437: $GPGGA,182115,3946.9562,N,08404.9853,W,2,12,0.80,296.97,M,-33.324,M,,*72
2017-12-01 13:21:14 1512152474.851516: $GPRMC,182115,A,3946.9562,N,08404.9853,W,0.0000,0.000,011217,,*3A
2017-12-01 13:21:14 1512152474.851577: $GPGSA,A,3,10,15,18,20,21,24,32,8,13,27,14,138,2.0,0.8,1.5*36
2017-12-01 13:21:15 1512152475.476172: $GPZDA,182116.00,01,12,2017,00,00*6D
2017-12-01 13:21:15 1512152475.476381: $GPGGA,182116,3946.9562,N,08404.9853,W,2,12,0.80,296.97,M,-33.324,M,,*71
2017-12-01 13:21:15 1512152475.476448: $GPRMC,182116,A,3946.9562,N,08404.9853,W,0.0000,0.000,011217,,*39
2017-12-01 13:21:15 1512152475.476509: $GPGSA,A,3,10,15,18,20,21,24,32,8,13,27,14,138,2.0,0.8,1.5*36
2017-12-01 13:21:16 1512152476.403350: $GPZDA,182117.00,01,12,2017,00,00*6C
2017-12-01 13:21:16 1512152476.403522: $GPGGA,182117,3946.9562,N,08404.9853,W,2,12,0.80,296.97,M,-33.324,M,,*70
2017-12-01 13:21:16 1512152476.403589: $GPRMC,182117,A,3946.9562,N,08404.9853,W,0.0000,0.000,011217,,*38
2017-12-01 13:21:16 1512152476.403651: $GPGSA,A,3,10,15,18,20,21,24,32,8,13,27,14,138,2.0,0.8,1.5*36
2017-12-01 13:21:17 1512152477.739049: $GPGSV,3,1,12,10,45,304,46,15,33,054,48,18,73,348,43,20,30,099,46*72
2017-12-01 13:21:17 1512152477.739252: $GPGSV,3,2,12,21,59,186,45,24,52,103,46,32,24,241,42,08,07,318,34*7F
2017-12-01 13:21:17 1512152477.739346: $GPGSV,3,3,12,13,04,049,18,27,18,285,40,14,07,234,28,138,38,213,46*41
2017-12-01 13:21:17 1512152477.852532: $GPZDA,182118.00,01,12,2017,00,00*63
2017-12-01 13:21:17 1512152477.852688: $GPGGA,182118,3946.9562,N,08404.9853,W,2,12,0.80,296.97,M,-33.324,M,,*7F
2017-12-01 13:21:17 1512152477.852775: $GPRMC,182118,A,3946.9562,N,08404.9853,W,0.0000,0.000,011217,,*37
2017-12-01 13:21:17 1512152477.852838: $GPGSA,A,3,10,15,18,20,21,24,32,8,13,27,14,138,2.0,0.8,1.5*36
2017-12-01 13:21:18 1512152478.403284: $GPZDA,182119.00,01,12,2017,00,00*62
2017-12-01 13:21:18 1512152478.403489: $GPGGA,182119,3946.9572,N,08404.9851,W,2,12,0.80,294.67,M,-33.324,M,,*70
2017-12-01 13:21:18 1512152478.403557: $GPRMC,182119,A,3946.9572,N,08404.9851,W,0.0000,0.000,011217,,*35
2017-12-01 13:21:18 1512152478.403619: $GPGSA,A,3,10,15,18,20,21,24,32,8,13,27,14,138,2.0,0.8,1.5*36
2017-12-01 13:21:19 1512152479.403310: $GPZDA,182120.00,01,12,2017,00,00*68
2017-12-01 13:21:19 1512152479.403588: $GPGGA,182120,3946.9572,N,08404.9851,W,2,12,0.80,294.67,M,-33.324,M,,*7A
2017-12-01 13:21:19 1512152479.403715: $GPRMC,182120,A,3946.9572,N,08404.9851,W,0.0000,0.000,011217,,*3F
2017-12-01 13:21:19 1512152479.403843: $GPGSA,A,3,10,15,18,20,21,24,32,8,13,27,14,138,2.0,0.8,1.5*36
2017-12-01 13:21:20 1512152480.738110: $GPGSV,3,1,12,10,45,304,45,15,33,054,47,18,73,348,43,20,30,099,45*7D
2017-12-01 13:21:20 1512152480.738325: $GPGSV,3,2,12,21,59,186,45,24,52,103,46,32,24,241,42,08,07,318,33*78
2017-12-01 13:21:20 1512152480.738393: $GPGSV,3,3,12,13,04,049,18,27,18,285,40,14,07,234,29,138,38,213,46*40
2017-12-01 13:21:20 1512152480.851526: $GPZDA,182121.00,01,12,2017,00,00*69
2017-12-01 13:21:20 1512152480.851722: $GPGGA,182121,3946.9572,N,08404.9851,W,2,12,0.80,294.67,M,-33.324,M,,*7B
2017-12-01 13:21:20 1512152480.851844: $GPRMC,182121,A,3946.9572,N,08404.9851,W,0.0000,0.000,011217,,*3E
2017-12-01 13:21:20 1512152480.851908: $GPGSA,A,3,10,15,18,20,21,24,32,8,13,27,14,138,2.0,0.8,1.5*36
2017-12-01 13:21:21 1512152481.403459: $GPZDA,182122.00,01,12,2017,00,00*6A
2017-12-01 13:21:21 1512152481.403988: $GPGGA,182122,3946.9572,N,08404.9851,W,2,12,0.80,294.67,M,-33.324,M,,*78
2017-12-01 13:21:21 1512152481.404117: $GPRMC,182122,A,3946.9572,N,08404.9851,W,0.0000,0.000,011217,,*3D
2017-12-01 13:21:21 1512152481.404249: $GPGSA,A,3,10,15,18,20,21,24,32,8,13,27,14,138,2.0,0.8,1.5*36
2017-12-01 13:21:22 1512152482.402305: $GPZDA,182123.00,01,12,2017,00,00*6B
2017-12-01 13:21:22 1512152482.402468: $GPGGA,182123,3946.9572,N,08404.9851,W,2,12,0.80,294.67,M,-33.324,M,,*79
2017-12-01 13:21:22 1512152482.402535: $GPRMC,182123,A,3946.9572,N,08404.9851,W,0.0000,0.000,011217,,*3C
2017-12-01 13:21:22 1512152482.402595: $GPGSA,A,3,10,15,18,20,21,24,32,8,13,27,14,138,2.0,0.8,1.5*36
2017-12-01 13:21:23 1512152483.738994: $GPGSV,3,1,12,10,45,304,45,15,33,054,48,18,73,348,42,20,30,099,45*73
2017-12-01 13:21:23 1512152483.739200: $GPGSV,3,2,12,21,59,186,46,24,52,103,46,32,24,241,42,08,07,318,32*7A
2017-12-01 13:21:23 1512152483.739298: $GPGSV,3,3,12,13,04,049,18,27,18,285,41,14,07,234,28,138,38,213,46*40
2017-12-01 13:21:23 1512152483.852632: $GPZDA,182124.00,01,12,2017,00,00*6C
2017-12-01 13:21:23 1512152483.852770: $GPGGA,182124,3946.9572,N,08404.9851,W,2,12,0.80,294.67,M,-33.324,M,,*7E
2017-12-01 13:21:23 1512152483.852836: $GPRMC,182124,A,3946.9572,N,08404.9851,W,0.0000,0.000,011217,,*3B
2017-12-01 13:21:23 1512152483.852896: $GPGSA,A,3,10,15,18,20,21,24,32,8,13,27,14,138,2.0,0.8,1.5*36
