2017-12-01 16:10:37 1512162637.667017: {"class":"VERSION","release":"3.16","rev":"3.16-4","proto_major":3,"proto_minor":11}
2017-12-01 16:10:37 1512162637.667518: {"class":"DEVICES","devices":[{"class":"DEVICE","path":"/dev/ttyUSB0","driver":"SiRF","subtype":"9\u0006GSD4e_4.1.2-P1_RPATCH.05-F-GPS-4R-1510281 11/03/2015 307","activated":"2017-12-01T21:10:37.593Z","flags":1,"native":1,"bps":4800,"parity":"N","stopbits":1,"cycle":1.00}]}
2017-12-01 16:10:37 1512162637.667654: {"class":"WATCH","enable":true,"json":false,"nmea":true,"raw":0,"scaled":false,"timing":false,"split24":false,"pps":false}
2017-12-01 16:10:38 1512162638.614919: $GPGSV,3,1,12,01,19,309,35,10,57,142,48,11,10,291,39,12,25,058,45*7C
2017-12-01 16:10:38 1512162638.615116: $GPGSV,3,2,12,14,61,309,46,18,26,141,44,22,12,312,45,25,36,102,48*77
2017-12-01 16:10:38 1512162638.615184: $GPGSV,3,3,12,31,47,219,49,32,70,003,47,24,04,046,22,138,38,213,46*49
2017-12-01 16:10:38 1512162638.728333: $GPZDA,211039.00,01,12,2017,00,00*68
2017-12-01 16:10:38 1512162638.728495: $GPGGA,211039,3946.9558,N,08404.9809,W,2,12,0.80,318.15,M,-33.324,M,,*7F
2017-12-01 16:10:38 1512162638.728564: $GPRMC,211039,A,3946.9558,N,08404.9809,W,0.0000,0.000,011217,,*3A
2017-12-01 16:10:38 1512162638.728625: $GPGSA,A,3,1,10,11,12,14,18,22,25,31,32,24,138,2.0,0.8,1.5*3B
2017-12-01 16:10:39 1512162639.279698: $GPZDA,211040.00,01,12,2017,00,00*66
2017-12-01 16:10:39 1512162639.279873: $GPGGA,211040,3946.9558,N,08404.9809,W,2,12,0.80,318.15,M,-33.324,M,,*71
2017-12-01 16:10:39 1512162639.279941: $GPRMC,211040,A,3946.9558,N,08404.9809,W,0.0000,0.000,011217,,*34
2017-12-01 16:10:39 1512162639.280003: $GPGSA,A,3,1,10,11,12,14,18,22,25,31,32,24,138,2.0,0.8,1.5*3B
2017-12-01 16:10:40 1512162640.279859: $GPZDA,211041.00,01,12,2017,00,00*67
2017-12-01 16:10:40 1512162640.280020: $GPGGA,211041,3946.9558,N,08404.9809,W,2,12,0.80,318.15,M,-33.324,M,,*70
2017-12-01 16:10:40 1512162640.280114: $GPRMC,211041,A,3946.9558,N,08404.9809,W,0.0000,0.000,011217,,*35
2017-12-01 16:10:40 1512162640.280178: $GPGSA,A,3,1,10,11,12,14,18,22,25,31,32,24,138,2.0,0.8,1.5*3B
2017-12-01 16:10:41 1512162641.614781: $GPGSV,3,1,12,01,19,309,35,10,57,142,48,11,10,291,38,12,25,058,45*7D
2017-12-01 16:10:41 1512162641.614960: $GPGSV,3,2,12,14,61,309,46,18,26,141,44,22,12,312,45,25,36,102,48*77
2017-12-01 16:10:41 1512162641.615026: $GPGSV,3,3,12,31,47,219,49,32,70,003,47,24,04,046,22,138,38,213,45*4A
2017-12-01 16:10:41 1512162641.728175: $GPZDA,211042.00,01,12,2017,00,00*64
2017-12-01 16:10:41 1512162641.728370: $GPGGA,211042,3946.9558,N,08404.9809,W,2,12,0.80,318.15,M,-33.324,M,,*73
2017-12-01 16:10:41 1512162641.728437: $GPRMC,211042,A,3946.9558,N,08404.9809,W,0.0000,0.000,011217,,*36
2017-12-01 16:10:41 1512162641.728499: $GPGSA,A,3,1,10,11,12,14,18,22,25,31,32,24,138,2.0,0.8,1.5*3B
2017-12-01 16:10:42 1512162642.280810: $GPZDA,211043.00,01,12,2017,00,00*65
2017-12-01 16:10:42 1512162642.280985: $GPGGA,211043,3946.9558,N,08404.9809,W,2,12,0.80,318.15,M,-33.324,M,,*72
2017-12-01 16:10:42 1512162642.281054: $GPRMC,211043,A,3946.9558,N,08404.9809,W,0.0000,0.000,011217,,*37
2017-12-01 16:10:42 1512162642.281147: $GPGSA,A,3,1,10,11,12,14,18,22,25,31,32,24,138,2.0,0.8,1.5*3B
2017-12-01 16:10:43 1512162643.279163: $GPZDA,211044.00,01,12,2017,00,00*62
2017-12-01 16:10:43 1512162643.279360: $GPGGA,211044,3946.9558,N,08404.9809,W,2,12,0.80,318.15,M,-33.324,M,,*75
2017-12-01 16:10:43 1512162643.279429: $GPRMC,211044,A,3946.9558,N,08404.9809,W,0.0000,0.000,011217,,*30
2017-12-01 16:10:43 1512162643.279491: $GPGSA,A,3,1,10,11,12,14,18,22,25,31,32,24,138,2.0,0.8,1.5*3B
2017-12-01 16:10:44 1512162644.615412: $GPGSV,3,1,12,01,19,309,36,10,57,142,48,11,10,291,38,12,25,058,45*7E
2017-12-01 16:10:44 1512162644.615592: $GPGSV,3,2,12,14,61,309,46,18,26,141,44,22,12,312,44,25,36,102,48*76
2017-12-01 16:10:44 1512162644.615660: $GPGSV,3,3,12,31,47,219,49,32,70,003,47,24,04,046,22,138,38,213,46*49
2017-12-01 16:10:44 1512162644.729050: $GPZDA,211045.00,01,12,2017,00,00*63
2017-12-01 16:10:44 1512162644.729268: $GPGGA,211045,3946.9558,N,08404.9809,W,2,12,0.80,318.15,M,-33.324,M,,*74
2017-12-01 16:10:44 1512162644.729403: $GPRMC,211045,A,3946.9558,N,08404.9809,W,0.0000,0.000,011217,,*31
2017-12-01 16:10:44 1512162644.729467: $GPGSA,A,3,1,10,11,12,14,18,22,25,31,32,24,138,2.0,0.8,1.5*3B
2017-12-01 16:10:45 1512162645.280196: $GPZDA,211046.00,01,12,2017,00,00*60
2017-12-01 16:10:45 1512162645.280390: $GPGGA,211046,3946.9558,N,08404.9809,W,2,12,0.80,318.15,M,-33.324,M,,*77
2017-12-01 16:10:45 1512162645.280458: $GPRMC,211046,A,3946.9558,N,08404.9809,W,0.0000,0.000,011217,,*32
2017-12-01 16:10:45 1512162645.280519: $GPGSA,A,3,1,10,11,12,14,18,22,25,31,32,24,138,2.0,0.8,1.5*3B
2017-12-01 16:10:46 1512162646.279049: $GPZDA,211047.00,01,12,2017,00,00*61
2017-12-01 16:10:46 1512162646.279260: $GPGGA,211047,3946.9558,N,08404.9809,W,2,12,0.80,318.15,M,-33.324,M,,*76
2017-12-01 16:10:46 1512162646.279329: $GPRMC,211047,A,3946.9558,N,08404.9809,W,0.0000,0.000,011217,,*33
2017-12-01 16:10:46 1512162646.279392: $GPGSA,A,3,1,10,11,12,14,18,22,25,31,32,24,138,2.0,0.8,1.5*3B
2017-12-01 16:10:47 1512162647.616533: $GPGSV,3,1,12,01,19,309,36,10,57,142,48,11,10,291,38,12,25,058,46*7D
2017-12-01 16:10:47 1512162647.616716: $GPGSV,3,2,12,14,61,309,45,18,26,141,44,22,12,312,45,25,36,102,48*74
2017-12-01 16:10:47 1512162647.616782: $GPGSV,3,3,12,31,47,219,48,32,70,003,47,24,04,046,22,138,38,213,45*4B
2017-12-01 16:10:47 1512162647.728654: $GPZDA,211048.00,01,12,2017,00,00*6E
2017-12-01 16:10:47 1512162647.728834: $GPGGA,211048,3946.9558,N,08404.9809,W,2,12,0.80,318.15,M,-33.324,M,,*79
2017-12-01 16:10:47 1512162647.728901: $GPRMC,211048,A,3946.9558,N,08404.9809,W,0.0000,0.000,011217,,*3C
2017-12-01 16:10:47 1512162647.728962: $GPGSA,A,3,1,10,11,12,14,18,22,25,31,32,24,138,2.0,0.8,1.5*3B
2017-12-01 16:10:48 1512162648.279793: $GPZDA,211049.00,01,12,2017,00,00*6F
2017-12-01 16:10:48 1512162648.279961: $GPGGA,211049,3946.9564,N,08404.9807,W,2,12,0.80,315.22,M,-33.324,M,,*70
2017-12-01 16:10:48 1512162648.280028: $GPRMC,211049,A,3946.9564,N,08404.9807,W,0.0000,0.000,011217,,*3C
2017-12-01 16:10:48 1512162648.280114: $GPGSA,A,3,1,10,11,12,14,18,22,25,31,32,24,138,2.0,0.8,1.5*3B
2017-12-01 16:10:49 1512162649.279935: $GPZDA,211050.00,01,12,2017,00,00*67
2017-12-01 16:10:49 1512162649.280133: $GPGGA,211050,3946.9564,N,08404.9807,W,2,12,0.80,315.22,M,-33.324,M,,*78
2017-12-01 16:10:49 1512162649.280219: $GPRMC,211050,A,3946.9564,N,08404.9807,W,0.0000,0.000,011217,,*34
2017-12-01 16:10:49 1512162649.280283: $GPGSA,A,3,1,10,11,12,14,18,22,25,31,32,24,138,2.0,0.8,1.5*3B
2017-12-01 16:10:50 1512162650.618400: $GPGSV,3,1,12,01,19,309,37,10,57,142,48,11,10,291,38,12,25,058,46*7C
2017-12-01 16:10:50 1512162650.618558: $GPGSV,3,2,12,14,61,309,45,18,26,141,44,22,12,312,44,25,36,102,48*75
2017-12-01 16:10:50 1512162650.618624: $GPGSV,3,3,12,31,47,219,49,32,70,003,47,24,04,046,23,138,38,213,46*48
2017-12-01 16:10:50 1512162650.731993: $GPZDA,211051.00,01,12,2017,00,00*66
2017-12-01 16:10:50 1512162650.732184: $GPGGA,211051,3946.9564,N,08404.9807,W,2,12,0.80,315.22,M,-33.324,M,,*79
2017-12-01 16:10:50 1512162650.732258: $GPRMC,211051,A,3946.9564,N,08404.9807,W,0.0000,0.000,011217,,*35
2017-12-01 16:10:50 1512162650.732323: $GPGSA,A,3,1,10,11,12,14,18,22,25,31,32,24,138,2.0,0.8,1.5*3B
2017-12-01 16:10:51 1512162651.284533: $GPZDA,211052.00,01,12,2017,00,00*65
2017-12-01 16:10:51 1512162651.284703: $GPGGA,211052,3946.9564,N,08404.9807,W,2,12,0.80,315.22,M,-33.324,M,,*7A
2017-12-01 16:10:51 1512162651.284770: $GPRMC,211052,A,3946.9564,N,08404.9807,W,0.0000,0.000,011217,,*36
2017-12-01 16:10:51 1512162651.284831: $GPGSA,A,3,1,10,11,12,14,18,22,25,31,32,24,138,2.0,0.8,1.5*3B
2017-12-01 16:10:52 1512162652.285111: $GPZDA,211053.00,01,12,2017,00,00*64
2017-12-01 16:10:52 1512162652.285299: $GPGGA,211053,3946.9564,N,08404.9807,W,2,12,0.80,315.22,M,-33.324,M,,*7B
2017-12-01 16:10:52 1512162652.285366: $GPRMC,211053,A,3946.9564,N,08404.9807,W,0.0000,0.000,011217,,*37
2017-12-01 16:10:52 1512162652.285427: $GPGSA,A,3,1,10,11,12,14,18,22,25,31,32,24,138,2.0,0.8,1.5*3B
2017-12-01 16:10:53 1512162653.620297: $GPGSV,3,1,12,01,19,309,34,10,57,142,48,11,10,291,38,12,25,058,46*7F
2017-12-01 16:10:53 1512162653.620477: $GPGSV,3,2,12,14,61,309,45,18,26,141,44,22,12,312,45,25,36,102,48*74
2017-12-01 16:10:53 1512162653.620544: $GPGSV,3,3,12,31,47,219,49,32,70,003,46,24,04,046,23,138,38,213,46*49
2017-12-01 16:10:53 1512162653.733679: $GPZDA,211054.00,01,12,2017,00,00*63
2017-12-01 16:10:53 1512162653.733856: $GPGGA,211054,3946.9564,N,08404.9807,W,2,12,0.80,315.22,M,-33.324,M,,*7C
2017-12-01 16:10:53 1512162653.733924: $GPRMC,211054,A,3946.9564,N,08404.9807,W,0.0000,0.000,011217,,*30
2017-12-01 16:10:53 1512162653.733985: $GPGSA,A,3,1,10,11,12,14,18,22,25,31,32,24,138,2.0,0.8,1.5*3B
2017-12-01 16:10:54 1512162654.278846: $GPZDA,211055.00,01,12,2017,00,00*62
2017-12-01 16:10:54 1512162654.279015: $GPGGA,211055,3946.9564,N,08404.9807,W,2,12,0.80,315.22,M,-33.324,M,,*7D
2017-12-01 16:10:54 1512162654.279100: $GPRMC,211055,A,3946.9564,N,08404.9807,W,0.0000,0.000,011217,,*31
2017-12-01 16:10:54 1512162654.279163: $GPGSA,A,3,1,10,11,12,14,18,22,25,31,32,24,138,2.0,0.8,1.5*3B
2017-12-01 16:10:55 1512162655.285157: $GPZDA,211056.00,01,12,2017,00,00*61
2017-12-01 16:10:55 1512162655.285347: $GPGGA,211056,3946.9564,N,08404.9807,W,2,12,0.80,315.22,M,-33.324,M,,*7E
2017-12-01 16:10:55 1512162655.285413: $GPRMC,211056,A,3946.9564,N,08404.9807,W,0.0000,0.000,011217,,*32
2017-12-01 16:10:55 1512162655.285474: $GPGSA,A,3,1,10,11,12,14,18,22,25,31,32,24,138,2.0,0.8,1.5*3B
2017-12-01 16:10:56 1512162656.621428: $GPGSV,3,1,12,01,19,309,33,10,57,142,49,11,10,291,38,12,25,058,45*7A
2017-12-01 16:10:56 1512162656.621627: $GPGSV,3,2,12,14,61,309,45,18,26,141,44,22,12,312,45,25,36,102,48*74
2017-12-01 16:10:56 1512162656.621694: $GPGSV,3,3,12,31,47,219,49,32,70,003,46,24,04,046,23,138,38,213,45*4A
2017-12-01 16:10:56 1512162656.735109: $GPZDA,211057.00,01,12,2017,00,00*60
2017-12-01 16:10:56 1512162656.735298: $GPGGA,211057,3946.9564,N,08404.9807,W,2,12,0.80,315.22,M,-33.324,M,,*7F
2017-12-01 16:10:56 1512162656.735369: $GPRMC,211057,A,3946.9564,N,08404.9807,W,0.0000,0.000,011217,,*33
2017-12-01 16:10:56 1512162656.735437: $GPGSA,A,3,1,10,11,12,14,18,22,25,31,32,24,138,2.0,0.8,1.5*3B
2017-12-01 16:10:57 1512162657.284944: $GPZDA,211058.00,01,12,2017,00,00*6F
2017-12-01 16:10:57 1512162657.285133: $GPGGA,211058,3946.9564,N,08404.9807,W,2,12,0.80,315.22,M,-33.324,M,,*70
2017-12-01 16:10:57 1512162657.285218: $GPRMC,211058,A,3946.9564,N,08404.9807,W,0.0000,0.000,011217,,*3C
2017-12-01 16:10:57 1512162657.285280: $GPGSA,A,3,1,10,11,12,14,18,22,25,31,32,24,138,2.0,0.8,1.5*3B
