2017-11-16 16:42:42 1510868562.872082: {"class":"VERSION","release":"3.17","rev":"3.17","proto_major":3,"proto_minor":12}
2017-11-16 16:42:42 1510868562.872569: {"class":"DEVICES","devices":[{"class":"DEVICE","path":"/dev/ttyUSB0","driver":"SiRF","subtype":"9\u0006GSD4e_4.1.2-P1_RPATCH.05-F-GPS-4R-1510281 11/03/2015 307","activated":"2017-11-16T21:42:42.598Z","flags":1,"native":1,"bps":4800,"parity":"N","stopbits":1,"cycle":1.00}]}
2017-11-16 16:42:42 1510868562.872684: {"class":"WATCH","enable":true,"json":false,"nmea":true,"raw":0,"scaled":false,"timing":false,"split24":false,"pps":false}
2017-11-16 16:42:43 1510868563.457770: $GPZDA,214242.00,16,11,2017,00,00*66
2017-11-16 16:42:43 1510868563.457929: $GPGGA,214242,3946.9580,N,08404.9808,W,2,11,0.80,307.10,M,-33.324,M,,*78
2017-11-16 16:42:43 1510868563.457990: $GPRMC,214242,A,3946.9580,N,08404.9808,W,0.0000,0.000,161117,,*30
2017-11-16 16:42:43 1510868563.458047: $GPGSA,A,3,1,10,11,12,14,18,24,25,31,32,138,,1.6,0.8,1.3*38
2017-11-16 16:42:44 1510868564.770671: $GPGSV,3,1,11,01,12,321,40,10,73,127,48,11,10,303,39,12,25,075,48*71
2017-11-16 16:42:44 1510868564.770852: $GPGSV,3,2,11,14,53,288,42,18,40,133,45,24,16,045,48,25,28,117,44*74
2017-11-16 16:42:44 1510868564.770913: $GPGSV,3,3,11,31,31,211,45,32,67,321,51,138,38,213,44*7F
2017-11-16 16:42:44 1510868564.883967: $GPZDA,214243.00,16,11,2017,00,00*67
2017-11-16 16:42:44 1510868564.884131: $GPGGA,214243,3946.9580,N,08404.9808,W,2,11,0.80,307.10,M,-33.324,M,,*79
2017-11-16 16:42:44 1510868564.884193: $GPRMC,214243,A,3946.9580,N,08404.9808,W,0.0000,0.000,161117,,*31
2017-11-16 16:42:44 1510868564.884250: $GPGSA,A,3,1,10,11,12,14,18,24,25,31,32,138,,1.6,0.8,1.3*38
2017-11-16 16:42:45 1510868565.449876: $GPZDA,214244.00,16,11,2017,00,00*60
2017-11-16 16:42:45 1510868565.450050: $GPGGA,214244,3946.9580,N,08404.9808,W,2,11,0.80,307.10,M,-33.324,M,,*7E
2017-11-16 16:42:45 1510868565.450112: $GPRMC,214244,A,3946.9580,N,08404.9808,W,0.0000,0.000,161117,,*36
2017-11-16 16:42:45 1510868565.450168: $GPGSA,A,3,1,10,11,12,14,18,24,25,31,32,138,,1.6,0.8,1.3*38
2017-11-16 16:42:46 1510868566.455288: $GPZDA,214245.00,16,11,2017,00,00*61
2017-11-16 16:42:46 1510868566.455457: $GPGGA,214245,3946.9580,N,08404.9808,W,2,11,0.80,307.10,M,-33.324,M,,*7F
2017-11-16 16:42:46 1510868566.455519: $GPRMC,214245,A,3946.9580,N,08404.9808,W,0.0000,0.000,161117,,*37
2017-11-16 16:42:46 1510868566.455574: $GPGSA,A,3,1,10,11,12,14,18,24,25,31,32,138,,1.6,0.8,1.3*38
2017-11-16 16:42:47 1510868567.776056: $GPGSV,3,1,11,01,12,321,40,10,73,127,47,11,10,303,39,12,25,075,47*71
2017-11-16 16:42:47 1510868567.776229: $GPGSV,3,2,11,14,53,288,41,18,40,133,45,24,16,045,48,25,28,117,43*70
2017-11-16 16:42:47 1510868567.776289: $GPGSV,3,3,11,31,31,211,45,32,67,321,51,138,38,213,44*7F
2017-11-16 16:42:47 1510868567.889423: $GPZDA,214246.00,16,11,2017,00,00*62
2017-11-16 16:42:47 1510868567.889581: $GPGGA,214246,3946.9580,N,08404.9808,W,2,11,0.80,307.10,M,-33.324,M,,*7C
2017-11-16 16:42:47 1510868567.889646: $GPRMC,214246,A,3946.9580,N,08404.9808,W,0.0000,0.000,161117,,*34
2017-11-16 16:42:47 1510868567.889702: $GPGSA,A,3,1,10,11,12,14,18,24,25,31,32,138,,1.6,0.8,1.3*38
2017-11-16 16:42:48 1510868568.441572: $GPZDA,214247.00,16,11,2017,00,00*63
2017-11-16 16:42:48 1510868568.441737: $GPGGA,214247,3946.9580,N,08404.9808,W,2,11,0.80,307.10,M,-33.324,M,,*7D
2017-11-16 16:42:48 1510868568.441802: $GPRMC,214247,A,3946.9580,N,08404.9808,W,0.0000,0.000,161117,,*35
2017-11-16 16:42:48 1510868568.441861: $GPGSA,A,3,1,10,11,12,14,18,24,25,31,32,138,,1.6,0.8,1.3*38
2017-11-16 16:42:49 1510868569.456204: $GPZDA,214248.00,16,11,2017,00,00*6C
2017-11-16 16:42:49 1510868569.456374: $GPGGA,214248,3946.9580,N,08404.9808,W,2,11,0.80,307.10,M,-33.324,M,,*72
2017-11-16 16:42:49 1510868569.456436: $GPRMC,214248,A,3946.9580,N,08404.9808,W,0.0000,0.000,161117,,*3A
2017-11-16 16:42:49 1510868569.456494: $GPGSA,A,3,1,10,11,12,14,18,24,25,31,32,138,,1.6,0.8,1.3*38
2017-11-16 16:42:50 1510868570.791947: $GPGSV,3,1,11,01,12,321,39,10,73,127,48,11,10,303,39,12,25,075,47*70
2017-11-16 16:42:50 1510868570.792173: $GPGSV,3,2,11,14,53,288,41,18,40,133,45,24,16,045,48,25,28,117,43*70
2017-11-16 16:42:50 1510868570.792237: $GPGSV,3,3,11,31,31,211,44,32,67,321,50,138,38,213,44*7F
2017-11-16 16:42:50 1510868570.905301: $GPZDA,214249.00,16,11,2017,00,00*6D
2017-11-16 16:42:50 1510868570.905463: $GPGGA,214249,3946.9580,N,08404.9808,W,2,11,0.80,307.10,M,-33.324,M,,*73
2017-11-16 16:42:50 1510868570.905525: $GPRMC,214249,A,3946.9580,N,08404.9808,W,0.0000,0.000,161117,,*3B
2017-11-16 16:42:50 1510868570.905581: $GPGSA,A,3,1,10,11,12,14,18,24,25,31,32,138,,1.6,0.8,1.3*38
2017-11-16 16:42:51 1510868571.530640: $GPZDA,214250.00,16,11,2017,00,00*65
2017-11-16 16:42:51 1510868571.530825: $GPGGA,214250,3946.9580,N,08404.9808,W,2,11,0.80,307.10,M,-33.324,M,,*7B
2017-11-16 16:42:51 1510868571.530890: $GPRMC,214250,A,3946.9580,N,08404.9808,W,0.0000,0.000,161117,,*33
2017-11-16 16:42:51 1510868571.530947: $GPGSA,A,3,1,10,11,12,14,18,24,25,31,32,138,,1.6,0.8,1.3*38
2017-11-16 16:42:52 1510868572.451531: $GPZDA,214251.00,16,11,2017,00,00*64
2017-11-16 16:42:52 1510868572.451692: $GPGGA,214251,3946.9580,N,08404.9808,W,2,11,0.80,307.10,M,-33.324,M,,*7A
2017-11-16 16:42:52 1510868572.451754: $GPRMC,214251,A,3946.9580,N,08404.9808,W,0.0000,0.000,161117,,*32
2017-11-16 16:42:52 1510868572.451812: $GPGSA,A,3,1,10,11,12,14,18,24,25,31,32,138,,1.6,0.8,1.3*38
