2017-12-31 16:41:34 1514756494.608760: {"class":"VERSION","release":"3.16","rev":"3.16-4","proto_major":3,"proto_minor":11}
2017-12-31 16:41:34 1514756494.609104: {"class":"DEVICES","devices":[{"class":"DEVICE","path":"/dev/ttyUSB0","driver":"SiRF","activated":"2017-12-31T21:41:34.530Z","flags":1,"native":1,"bps":4800,"parity":"N","stopbits":1,"cycle":1.00}]}
2017-12-31 16:41:34 1514756494.609200: {"class":"WATCH","enable":true,"json":false,"nmea":true,"raw":0,"scaled":false,"timing":false,"split24":false,"pps":false}
2017-12-31 16:41:35 1514756495.347837: $GPZDA,214136.00,31,12,2017,00,00*60
2017-12-31 16:41:35 1514756495.348003: $GPGGA,214136,3946.9579,N,08404.9841,W,2,11,0.80,302.49,M,-33.324,M,,*7A
2017-12-31 16:41:35 1514756495.348069: $GPRMC,214136,A,3946.9579,N,08404.9841,W,0.0000,0.000,311217,,*3D
2017-12-31 16:41:35 1514756495.348131: $GPGSA,A,3,22,23,25,3,16,29,31,14,32,26,135,,1.7,0.8,1.3*32
2017-12-31 16:41:36 1514756496.683203: $GPGSV,3,1,12,22,49,255,42,23,19,304,35,25,11,039,36,03,45,286,32*7E
2017-12-31 16:41:36 1514756496.683387: $GPGSV,3,2,12,16,34,189,45,29,13,066,30,01,01,246,19,31,58,040,49*7E
2017-12-31 16:41:36 1514756496.683453: $GPGSV,3,3,12,14,49,103,44,32,27,115,32,26,64,163,41,135,22,240,43*41
2017-12-31 16:41:36 1514756496.796564: $GPZDA,214137.00,31,12,2017,00,00*61
2017-12-31 16:41:36 1514756496.796707: $GPGGA,214137,3946.9579,N,08404.9841,W,2,12,0.80,302.49,M,-33.324,M,,*78
2017-12-31 16:41:36 1514756496.796777: $GPRMC,214137,A,3946.9579,N,08404.9841,W,0.0000,0.000,311217,,*3C
2017-12-31 16:41:36 1514756496.796839: $GPGSA,A,3,22,23,25,3,16,29,1,31,14,32,26,135,1.7,0.8,1.3*03
2017-12-31 16:41:37 1514756497.340129: $GPZDA,214138.00,31,12,2017,00,00*6E
2017-12-31 16:41:37 1514756497.340283: $GPGGA,214138,3946.9579,N,08404.9841,W,2,12,0.80,302.49,M,-33.324,M,,*77
2017-12-31 16:41:37 1514756497.340349: $GPRMC,214138,A,3946.9579,N,08404.9841,W,0.0000,0.000,311217,,*33
2017-12-31 16:41:37 1514756497.340410: $GPGSA,A,3,22,23,25,3,16,29,1,31,14,32,26,135,1.7,0.8,1.3*03
2017-12-31 16:41:38 1514756498.354812: $GPZDA,214139.00,31,12,2017,00,00*6F
2017-12-31 16:41:38 1514756498.354992: $GPGGA,214139,3946.9579,N,08404.9841,W,2,12,0.80,302.49,M,-33.324,M,,*76
2017-12-31 16:41:38 1514756498.355060: $GPRMC,214139,A,3946.9579,N,08404.9841,W,0.0000,0.000,311217,,*32
2017-12-31 16:41:38 1514756498.355124: $GPGSA,A,3,22,23,25,3,16,29,1,31,14,32,26,135,1.7,0.8,1.3*03
2017-12-31 16:41:39 1514756499.681530: $GPGSV,3,1,12,22,49,255,43,23,19,304,42,25,11,039,36,03,45,286,38*75
2017-12-31 16:41:39 1514756499.681708: $GPGSV,3,2,12,16,34,189,46,29,13,066,30,01,01,246,00,31,58,040,50*7D
2017-12-31 16:41:39 1514756499.681778: $GPGSV,3,3,12,14,49,103,45,32,27,115,33,26,64,163,42,135,22,240,43*42
2017-12-31 16:41:39 1514756499.795178: $GPZDA,214140.00,31,12,2017,00,00*61
2017-12-31 16:41:39 1514756499.795311: $GPGGA,214140,3946.9579,N,08404.9841,W,2,11,0.80,302.49,M,-33.324,M,,*7B
2017-12-31 16:41:39 1514756499.795378: $GPRMC,214140,A,3946.9579,N,08404.9841,W,0.0000,0.000,311217,,*3C
2017-12-31 16:41:39 1514756499.795438: $GPGSA,A,3,22,23,25,3,16,29,31,14,32,26,135,,1.7,0.8,1.3*32
2017-12-31 16:41:40 1514756500.420563: $GPZDA,214141.00,31,12,2017,00,00*60
2017-12-31 16:41:40 1514756500.420708: $GPGGA,214141,3946.9579,N,08404.9841,W,2,11,0.80,302.49,M,-33.324,M,,*7A
2017-12-31 16:41:40 1514756500.420776: $GPRMC,214141,A,3946.9579,N,08404.9841,W,0.0000,0.000,311217,,*3D
2017-12-31 16:41:40 1514756500.420841: $GPGSA,A,3,22,23,25,3,16,29,31,14,32,26,135,,1.7,0.8,1.3*32
2017-12-31 16:41:41 1514756501.346459: $GPZDA,214142.00,31,12,2017,00,00*63
2017-12-31 16:41:41 1514756501.346630: $GPGGA,214142,3946.9579,N,08404.9841,W,2,11,0.80,302.49,M,-33.324,M,,*79
2017-12-31 16:41:41 1514756501.346696: $GPRMC,214142,A,3946.9579,N,08404.9841,W,0.0000,0.000,311217,,*3E
2017-12-31 16:41:41 1514756501.346757: $GPGSA,A,3,22,23,25,3,16,29,31,14,32,26,135,,1.7,0.8,1.3*32
2017-12-31 16:41:42 1514756502.681873: $GPGSV,3,1,12,22,49,255,43,23,19,304,40,25,11,039,36,03,45,286,33*7C
2017-12-31 16:41:42 1514756502.682049: $GPGSV,3,2,12,16,34,189,46,29,13,066,30,01,01,246,00,31,58,040,50*7D
2017-12-31 16:41:42 1514756502.682169: $GPGSV,3,3,12,14,49,103,46,32,27,115,34,26,64,163,42,135,22,240,42*47
2017-12-31 16:41:42 1514756502.795648: $GPZDA,214143.00,31,12,2017,00,00*62
2017-12-31 16:41:42 1514756502.795780: $GPGGA,214143,3946.9579,N,08404.9841,W,2,11,0.80,302.49,M,-33.324,M,,*78
2017-12-31 16:41:42 1514756502.795843: $GPRMC,214143,A,3946.9579,N,08404.9841,W,0.0000,0.000,311217,,*3F
2017-12-31 16:41:42 1514756502.795902: $GPGSA,A,3,22,23,25,3,16,29,31,14,32,26,135,,1.7,0.8,1.3*32
2017-12-31 16:41:43 1514756503.338633: $GPZDA,214144.00,31,12,2017,00,00*65
2017-12-31 16:41:43 1514756503.338804: $GPGGA,214144,3946.9579,N,08404.9841,W,2,11,0.80,302.49,M,-33.324,M,,*7F
2017-12-31 16:41:43 1514756503.338872: $GPRMC,214144,A,3946.9579,N,08404.9841,W,0.0000,0.000,311217,,*38
2017-12-31 16:41:43 1514756503.338933: $GPGSA,A,3,22,23,25,3,16,29,31,14,32,26,135,,1.7,0.8,1.3*32
2017-12-31 16:41:44 1514756504.360750: $GPZDA,214145.00,31,12,2017,00,00*64
2017-12-31 16:41:44 1514756504.360925: $GPGGA,214145,3946.9579,N,08404.9841,W,2,11,0.80,302.49,M,-33.324,M,,*7E
2017-12-31 16:41:44 1514756504.360993: $GPRMC,214145,A,3946.9579,N,08404.9841,W,0.0000,0.000,311217,,*39
2017-12-31 16:41:44 1514756504.361054: $GPGSA,A,3,22,23,25,3,16,29,31,14,32,26,135,,1.7,0.8,1.3*32
