2017-12-01 17:22:37 1512166957.257036: {"class":"VERSION","release":"3.16","rev":"3.16-4","proto_major":3,"proto_minor":11}
2017-12-01 17:22:37 1512166957.257422: {"class":"DEVICES","devices":[{"class":"DEVICE","path":"/dev/ttyUSB0","driver":"SiRF","subtype":"9\u0006GSD4e_4.1.2-P1_RPATCH.05-F-GPS-4R-1510281 11/03/2015 307","activated":"2017-12-01T22:22:37.199Z","flags":1,"native":1,"bps":4800,"parity":"N","stopbits":1,"cycle":1.00}]}
2017-12-01 17:22:37 1512166957.257537: {"class":"WATCH","enable":true,"json":false,"nmea":true,"raw":0,"scaled":false,"timing":false,"split24":false,"pps":false}
2017-12-01 17:22:37 1512166957.377395: $GPZDA,222238.00,01,12,2017,00,00*6B
2017-12-01 17:22:37 1512166957.377584: $GPGGA,222238,3946.9638,N,08404.9736,W,2,11,0.80,300.44,M,-33.324,M,,*74
2017-12-01 17:22:37 1512166957.377654: $GPRMC,222238,A,3946.9638,N,08404.9736,W,0.0000,0.000,011217,,*3F
2017-12-01 17:22:37 1512166957.377732: $GPGSA,A,3,1,3,10,14,22,25,26,31,32,12,138,,2.0,0.8,1.5*03
2017-12-01 17:22:38 1512166958.710376: $GPGSV,3,1,11,01,19,276,43,03,19,316,45,10,23,156,36,14,70,033,44*7D
2017-12-01 17:22:38 1512166958.710591: $GPGSV,3,2,11,22,38,304,48,25,37,060,32,26,24,178,38,31,77,273,46*7D
2017-12-01 17:22:38 1512166958.710658: $GPGSV,3,3,11,32,56,076,45,12,08,033,23,138,38,213,35*76
2017-12-01 17:22:38 1512166958.824192: $GPZDA,222239.00,01,12,2017,00,00*6A
2017-12-01 17:22:38 1512166958.824347: $GPGGA,222239,3946.9638,N,08404.9736,W,2,11,0.80,300.44,M,-33.324,M,,*75
2017-12-01 17:22:38 1512166958.824412: $GPRMC,222239,A,3946.9638,N,08404.9736,W,0.0000,0.000,011217,,*3E
2017-12-01 17:22:38 1512166958.824473: $GPGSA,A,3,1,3,10,14,22,25,26,31,32,12,138,,2.0,0.8,1.5*03
2017-12-01 17:22:39 1512166959.375920: $GPZDA,222240.00,01,12,2017,00,00*64
2017-12-01 17:22:39 1512166959.376125: $GPGGA,222240,3946.9638,N,08404.9736,W,2,11,0.80,300.44,M,-33.324,M,,*7B
2017-12-01 17:22:39 1512166959.376192: $GPRMC,222240,A,3946.9638,N,08404.9736,W,0.0000,0.000,011217,,*30
2017-12-01 17:22:39 1512166959.376254: $GPGSA,A,3,1,3,10,14,22,25,26,31,32,12,138,,2.0,0.8,1.5*03
2017-12-01 17:22:40 1512166960.375681: $GPZDA,222241.00,01,12,2017,00,00*65
2017-12-01 17:22:40 1512166960.375855: $GPGGA,222241,3946.9638,N,08404.9736,W,2,11,0.80,300.44,M,-33.324,M,,*7A
2017-12-01 17:22:40 1512166960.375920: $GPRMC,222241,A,3946.9638,N,08404.9736,W,0.0000,0.000,011217,,*31
2017-12-01 17:22:40 1512166960.375981: $GPGSA,A,3,1,3,10,14,22,25,26,31,32,12,138,,2.0,0.8,1.5*03
2017-12-01 17:22:41 1512166961.712587: $GPGSV,3,1,11,01,19,276,44,03,19,316,45,10,23,156,36,14,70,033,44*7A
2017-12-01 17:22:41 1512166961.712786: $GPGSV,3,2,11,22,38,304,48,25,37,060,32,26,24,178,37,31,77,273,46*72
2017-12-01 17:22:41 1512166961.712856: $GPGSV,3,3,11,32,56,076,45,12,08,033,24,138,38,213,39*7D
2017-12-01 17:22:41 1512166961.825877: $GPZDA,222242.00,01,12,2017,00,00*66
2017-12-01 17:22:41 1512166961.826046: $GPGGA,222242,3946.9638,N,08404.9736,W,2,11,0.80,300.44,M,-33.324,M,,*79
2017-12-01 17:22:41 1512166961.826113: $GPRMC,222242,A,3946.9638,N,08404.9736,W,0.0000,0.000,011217,,*32
2017-12-01 17:22:41 1512166961.826174: $GPGSA,A,3,1,3,10,14,22,25,26,31,32,12,138,,2.0,0.8,1.5*03
2017-12-01 17:22:42 1512166962.451323: $GPZDA,222243.00,01,12,2017,00,00*67
2017-12-01 17:22:42 1512166962.451583: $GPGGA,222243,3946.9638,N,08404.9736,W,2,11,0.80,300.44,M,-33.324,M,,*78
2017-12-01 17:22:42 1512166962.451653: $GPRMC,222243,A,3946.9638,N,08404.9736,W,0.0000,0.000,011217,,*33
2017-12-01 17:22:42 1512166962.451733: $GPGSA,A,3,1,3,10,14,22,25,26,31,32,12,138,,2.0,0.8,1.5*03
2017-12-01 17:22:43 1512166963.380949: $GPZDA,222244.00,01,12,2017,00,00*60
2017-12-01 17:22:43 1512166963.381123: $GPGGA,222244,3946.9638,N,08404.9736,W,2,11,0.80,300.44,M,-33.324,M,,*7F
2017-12-01 17:22:43 1512166963.381190: $GPRMC,222244,A,3946.9638,N,08404.9736,W,0.0000,0.000,011217,,*34
2017-12-01 17:22:43 1512166963.381251: $GPGSA,A,3,1,3,10,14,22,25,26,31,32,12,138,,2.0,0.8,1.5*03
2017-12-01 17:22:44 1512166964.709167: $GPGSV,3,1,11,01,19,276,43,03,19,316,44,10,23,156,36,14,70,033,44*7C
2017-12-01 17:22:44 1512166964.709416: $GPGSV,3,2,11,22,38,304,48,25,37,060,31,26,24,178,36,31,77,273,46*70
2017-12-01 17:22:44 1512166964.709489: $GPGSV,3,3,11,32,56,076,45,12,08,033,23,138,38,213,40*74
2017-12-01 17:22:44 1512166964.822581: $GPZDA,222245.00,01,12,2017,00,00*61
2017-12-01 17:22:44 1512166964.822769: $GPGGA,222245,3946.9638,N,08404.9736,W,2,11,0.80,300.44,M,-33.324,M,,*7E
2017-12-01 17:22:44 1512166964.822837: $GPRMC,222245,A,3946.9638,N,08404.9736,W,0.0000,0.000,011217,,*35
2017-12-01 17:22:44 1512166964.822898: $GPGSA,A,3,1,3,10,14,22,25,26,31,32,12,138,,2.0,0.8,1.5*03
2017-12-01 17:22:45 1512166965.379615: $GPZDA,222246.00,01,12,2017,00,00*62
2017-12-01 17:22:45 1512166965.379793: $GPGGA,222246,3946.9638,N,08404.9736,W,2,11,0.80,300.44,M,-33.324,M,,*7D
2017-12-01 17:22:45 1512166965.379860: $GPRMC,222246,A,3946.9638,N,08404.9736,W,0.0000,0.000,011217,,*36
2017-12-01 17:22:45 1512166965.379921: $GPGSA,A,3,1,3,10,14,22,25,26,31,32,12,138,,2.0,0.8,1.5*03
2017-12-01 17:22:46 1512166966.380878: $GPZDA,222247.00,01,12,2017,00,00*63
2017-12-01 17:22:46 1512166966.381097: $GPGGA,222247,3946.9638,N,08404.9736,W,2,11,0.80,300.44,M,-33.324,M,,*7C
2017-12-01 17:22:46 1512166966.381165: $GPRMC,222247,A,3946.9638,N,08404.9736,W,0.0000,0.000,011217,,*37
2017-12-01 17:22:46 1512166966.381227: $GPGSA,A,3,1,3,10,14,22,25,26,31,32,12,138,,2.0,0.8,1.5*03
2017-12-01 17:22:47 1512166967.714499: $GPGSV,3,1,11,01,19,276,43,03,19,316,44,10,23,156,30,14,70,033,44*7A
2017-12-01 17:22:47 1512166967.714690: $GPGSV,3,2,11,22,38,304,47,25,37,060,32,26,24,178,37,31,77,273,46*7D
2017-12-01 17:22:47 1512166967.714756: $GPGSV,3,3,11,32,56,076,45,12,08,033,24,138,38,213,40*73
2017-12-01 17:22:47 1512166967.827861: $GPZDA,222248.00,01,12,2017,00,00*6C
2017-12-01 17:22:47 1512166967.828037: $GPGGA,222248,3946.9638,N,08404.9736,W,2,11,0.80,300.44,M,-33.324,M,,*73
2017-12-01 17:22:47 1512166967.828105: $GPRMC,222248,A,3946.9638,N,08404.9736,W,0.0000,0.000,011217,,*38
2017-12-01 17:22:47 1512166967.828167: $GPGSA,A,3,1,3,10,14,22,25,26,31,32,12,138,,2.0,0.8,1.5*03
2017-12-01 17:22:48 1512166968.380255: $GPZDA,222249.00,01,12,2017,00,00*6D
2017-12-01 17:22:48 1512166968.380426: $GPGGA,222249,3946.9638,N,08404.9736,W,2,11,0.80,300.44,M,-33.324,M,,*72
2017-12-01 17:22:48 1512166968.380492: $GPRMC,222249,A,3946.9638,N,08404.9736,W,0.0000,0.000,011217,,*39
2017-12-01 17:22:48 1512166968.380576: $GPGSA,A,3,1,3,10,14,22,25,26,31,32,12,138,,2.0,0.8,1.5*03
2017-12-01 17:22:49 1512166969.886004: $GPZDA,222250.00,01,12,2017,00,00*65
2017-12-01 17:22:49 1512166969.886181: $GPGGA,222250,3946.9630,N,08404.9737,W,2,11,0.80,300.56,M,-33.324,M,,*70
2017-12-01 17:22:49 1512166969.886249: $GPRMC,222250,A,3946.9630,N,08404.9737,W,0.1867,180.000,011217,,*39
2017-12-01 17:22:49 1512166969.886311: $GPGSA,A,3,1,3,10,14,22,25,26,31,32,12,138,,2.0,0.8,1.5*03
2017-12-01 17:22:50 1512166970.711812: $GPGSV,3,1,11,01,19,276,44,03,20,316,44,10,23,156,33,14,70,034,44*73
2017-12-01 17:22:50 1512166970.712051: $GPGSV,3,2,11,22,38,304,46,25,37,058,32,26,24,178,38,31,78,274,47*71
2017-12-01 17:22:50 1512166970.712119: $GPGSV,3,3,11,32,56,078,45,12,08,033,24,138,38,213,39*73
2017-12-01 17:22:50 1512166970.825536: $GPZDA,222251.00,01,12,2017,00,00*64
2017-12-01 17:22:50 1512166970.825685: $GPGGA,222251,3946.9630,N,08404.9737,W,2,11,0.80,300.56,M,-33.324,M,,*71
2017-12-01 17:22:50 1512166970.825753: $GPRMC,222251,A,3946.9630,N,08404.9737,W,0.0000,0.000,011217,,*39
2017-12-01 17:22:50 1512166970.825814: $GPGSA,A,3,1,3,10,14,22,25,26,31,32,12,138,,2.0,0.8,1.5*03
2017-12-01 17:22:51 1512166971.379736: $GPZDA,222252.00,01,12,2017,00,00*67
2017-12-01 17:22:51 1512166971.379963: $GPGGA,222252,3946.9630,N,08404.9737,W,2,11,0.80,300.56,M,-33.324,M,,*72
2017-12-01 17:22:51 1512166971.380033: $GPRMC,222252,A,3946.9630,N,08404.9737,W,0.0000,0.000,011217,,*3A
2017-12-01 17:22:51 1512166971.380094: $GPGSA,A,3,1,3,10,14,22,25,26,31,32,12,138,,2.0,0.8,1.5*03
2017-12-01 17:22:52 1512166972.378843: $GPZDA,222253.00,01,12,2017,00,00*66
2017-12-01 17:22:52 1512166972.379015: $GPGGA,222253,3946.9630,N,08404.9737,W,2,11,0.80,300.56,M,-33.324,M,,*73
2017-12-01 17:22:52 1512166972.379131: $GPRMC,222253,A,3946.9630,N,08404.9737,W,0.0000,0.000,011217,,*3B
2017-12-01 17:22:52 1512166972.379195: $GPGSA,A,3,1,3,10,14,22,25,26,31,32,12,138,,2.0,0.8,1.5*03
2017-12-01 17:22:53 1512166973.715844: $GPGSV,3,1,11,01,19,276,44,03,20,316,44,10,23,156,36,14,70,034,44*76
2017-12-01 17:22:53 1512166973.716030: $GPGSV,3,2,11,22,38,304,47,25,37,058,31,26,24,178,38,31,78,274,47*73
2017-12-01 17:22:53 1512166973.716096: $GPGSV,3,3,11,32,56,078,45,12,08,033,25,138,38,213,40*7C
2017-12-01 17:22:53 1512166973.829228: $GPZDA,222254.00,01,12,2017,00,00*61
2017-12-01 17:22:53 1512166973.829399: $GPGGA,222254,3946.9630,N,08404.9737,W,2,11,0.80,300.56,M,-33.324,M,,*74
2017-12-01 17:22:53 1512166973.829464: $GPRMC,222254,A,3946.9630,N,08404.9737,W,0.0000,0.000,011217,,*3C
2017-12-01 17:22:53 1512166973.829554: $GPGSA,A,3,1,3,10,14,22,25,26,31,32,12,138,,2.0,0.8,1.5*03
2017-12-01 17:22:54 1512166974.375065: $GPZDA,222255.00,01,12,2017,00,00*60
2017-12-01 17:22:54 1512166974.375243: $GPGGA,222255,3946.9630,N,08404.9737,W,2,11,0.80,300.56,M,-33.324,M,,*75
2017-12-01 17:22:54 1512166974.375313: $GPRMC,222255,A,3946.9630,N,08404.9737,W,0.0000,0.000,011217,,*3D
2017-12-01 17:22:54 1512166974.375373: $GPGSA,A,3,1,3,10,14,22,25,26,31,32,12,138,,2.0,0.8,1.5*03
2017-12-01 17:22:55 1512166975.379676: $GPZDA,222256.00,01,12,2017,00,00*63
2017-12-01 17:22:55 1512166975.379854: $GPGGA,222256,3946.9630,N,08404.9737,W,2,11,0.80,300.56,M,-33.324,M,,*76
2017-12-01 17:22:55 1512166975.379921: $GPRMC,222256,A,3946.9630,N,08404.9737,W,0.0000,0.000,011217,,*3E
2017-12-01 17:22:55 1512166975.379982: $GPGSA,A,3,1,3,10,14,22,25,26,31,32,12,138,,2.0,0.8,1.5*03
2017-12-01 17:22:56 1512166976.715545: $GPGSV,3,1,11,01,19,276,44,03,20,316,44,10,23,156,37,14,70,034,44*77
2017-12-01 17:22:56 1512166976.715740: $GPGSV,3,2,11,22,38,304,47,25,37,058,31,26,24,178,38,31,78,274,47*73
2017-12-01 17:22:56 1512166976.715808: $GPGSV,3,3,11,32,56,078,44,12,08,033,26,138,38,213,41*7F
2017-12-01 17:22:56 1512166976.828024: $GPZDA,222257.00,01,12,2017,00,00*62
2017-12-01 17:22:56 1512166976.828194: $GPGGA,222257,3946.9630,N,08404.9737,W,2,11,0.80,300.56,M,-33.324,M,,*77
2017-12-01 17:22:56 1512166976.828259: $GPRMC,222257,A,3946.9630,N,08404.9737,W,0.0000,0.000,011217,,*3F
2017-12-01 17:22:56 1512166976.828320: $GPGSA,A,3,1,3,10,14,22,25,26,31,32,12,138,,2.0,0.8,1.5*03
