2017-12-01 13:48:57 1512154137.937019: {"class":"VERSION","release":"3.16","rev":"3.16-4","proto_major":3,"proto_minor":11}
2017-12-01 13:48:57 1512154137.937582: {"class":"DEVICES","devices":[{"class":"DEVICE","path":"/dev/ttyUSB0","driver":"SiRF","subtype":"9\u0006GSD4e_4.1.2-P1_RPATCH.05-F-GPS-4R-1510281 11/03/2015 307","activated":"2017-12-01T18:48:57.912Z","flags":1,"native":1,"bps":4800,"parity":"N","stopbits":1,"cycle":1.00}]}
2017-12-01 13:48:57 1512154137.937705: {"class":"WATCH","enable":true,"json":false,"nmea":true,"raw":0,"scaled":false,"timing":false,"split24":false,"pps":false}
2017-12-01 13:48:58 1512154138.322148: $GPZDA,184859.00,01,12,2017,00,00*69
2017-12-01 13:48:58 1512154138.322321: $GPGGA,184859,3946.9568,N,08404.9845,W,2,11,0.80,295.52,M,-33.324,M,,*71
2017-12-01 13:48:58 1512154138.322414: $GPRMC,184859,A,3946.9568,N,08404.9845,W,0.0000,0.000,011217,,*30
2017-12-01 13:48:58 1512154138.322477: $GPGSA,A,3,10,14,15,18,20,21,24,27,32,8,138,,2.0,0.8,1.5*34
2017-12-01 13:48:59 1512154139.349274: $GPZDA,184900.00,01,12,2017,00,00*64
2017-12-01 13:48:59 1512154139.349474: $GPGGA,184900,3946.9568,N,08404.9845,W,2,11,0.80,295.52,M,-33.324,M,,*7C
2017-12-01 13:48:59 1512154139.349561: $GPRMC,184900,A,3946.9568,N,08404.9845,W,0.0000,0.000,011217,,*3D
2017-12-01 13:48:59 1512154139.349626: $GPGSA,A,3,10,14,15,18,20,21,24,27,32,8,138,,2.0,0.8,1.5*34
2017-12-01 13:49:00 1512154140.683701: $GPGSV,3,1,11,10,55,315,48,14,17,241,39,15,23,058,46,18,77,036,43*7E
2017-12-01 13:49:00 1512154140.683887: $GPGSV,3,2,11,20,21,108,44,21,45,181,44,24,53,081,47,27,14,273,39*7C
2017-12-01 13:49:00 1512154140.683958: $GPGSV,3,3,11,32,34,250,42,08,08,307,28,138,38,213,46*73
2017-12-01 13:49:00 1512154140.797072: $GPZDA,184901.00,01,12,2017,00,00*65
2017-12-01 13:49:00 1512154140.797248: $GPGGA,184901,3946.9568,N,08404.9845,W,2,11,0.80,295.52,M,-33.324,M,,*7D
2017-12-01 13:49:00 1512154140.797318: $GPRMC,184901,A,3946.9568,N,08404.9845,W,0.0000,0.000,011217,,*3C
2017-12-01 13:49:00 1512154140.797408: $GPGSA,A,3,10,14,15,18,20,21,24,27,32,8,138,,2.0,0.8,1.5*34
2017-12-01 13:49:01 1512154141.321772: $GPZDA,184902.00,01,12,2017,00,00*66
2017-12-01 13:49:01 1512154141.321948: $GPGGA,184902,3946.9568,N,08404.9845,W,2,11,0.80,295.52,M,-33.324,M,,*7E
2017-12-01 13:49:01 1512154141.322018: $GPRMC,184902,A,3946.9568,N,08404.9845,W,0.0000,0.000,011217,,*3F
2017-12-01 13:49:01 1512154141.322082: $GPGSA,A,3,10,14,15,18,20,21,24,27,32,8,138,,2.0,0.8,1.5*34
2017-12-01 13:49:02 1512154142.347240: $GPZDA,184903.00,01,12,2017,00,00*67
2017-12-01 13:49:02 1512154142.347461: $GPGGA,184903,3946.9568,N,08404.9845,W,2,11,0.80,295.52,M,-33.324,M,,*7F
2017-12-01 13:49:02 1512154142.347551: $GPRMC,184903,A,3946.9568,N,08404.9845,W,0.0000,0.000,011217,,*3E
2017-12-01 13:49:02 1512154142.347616: $GPGSA,A,3,10,14,15,18,20,21,24,27,32,8,138,,2.0,0.8,1.5*34
2017-12-01 13:49:03 1512154143.684054: $GPGSV,3,1,11,10,55,315,48,14,17,241,38,15,23,058,47,18,77,036,43*7E
2017-12-01 13:49:03 1512154143.684231: $GPGSV,3,2,11,20,21,108,44,21,45,181,44,24,53,081,48,27,14,273,39*73
2017-12-01 13:49:03 1512154143.684302: $GPGSV,3,3,11,32,34,250,42,08,08,307,28,138,38,213,46*73
2017-12-01 13:49:03 1512154143.797457: $GPZDA,184904.00,01,12,2017,00,00*60
2017-12-01 13:49:03 1512154143.797652: $GPGGA,184904,3946.9573,N,08404.9845,W,2,11,0.80,296.16,M,-33.324,M,,*71
2017-12-01 13:49:03 1512154143.797724: $GPRMC,184904,A,3946.9573,N,08404.9845,W,0.0000,0.000,011217,,*33
2017-12-01 13:49:03 1512154143.797789: $GPGSA,A,3,10,14,15,18,20,21,24,27,32,8,138,,2.0,0.8,1.5*34
2017-12-01 13:49:04 1512154144.348326: $GPZDA,184905.00,01,12,2017,00,00*61
2017-12-01 13:49:04 1512154144.348557: $GPGGA,184905,3946.9573,N,08404.9845,W,2,11,0.80,296.16,M,-33.324,M,,*70
2017-12-01 13:49:04 1512154144.348632: $GPRMC,184905,A,3946.9573,N,08404.9845,W,0.0000,0.000,011217,,*32
2017-12-01 13:49:04 1512154144.348698: $GPGSA,A,3,10,14,15,18,20,21,24,27,32,8,138,,2.0,0.8,1.5*34
2017-12-01 13:49:05 1512154145.348217: $GPZDA,184906.00,01,12,2017,00,00*62
2017-12-01 13:49:05 1512154145.348412: $GPGGA,184906,3946.9573,N,08404.9845,W,2,11,0.80,296.16,M,-33.324,M,,*73
2017-12-01 13:49:05 1512154145.348553: $GPRMC,184906,A,3946.9573,N,08404.9845,W,0.0000,0.000,011217,,*31
2017-12-01 13:49:05 1512154145.348617: $GPGSA,A,3,10,14,15,18,20,21,24,27,32,8,138,,2.0,0.8,1.5*34
2017-12-01 13:49:06 1512154146.658687: $GPGSV,3,1,11,10,55,315,48,14,17,241,38,15,23,058,47,18,77,036,43*7E
2017-12-01 13:49:06 1512154146.658869: $GPGSV,3,2,11,20,21,108,44,21,45,181,44,24,53,081,48,27,14,273,40*7D
2017-12-01 13:49:06 1512154146.658936: $GPGSV,3,3,11,32,34,250,42,08,08,307,29,138,38,213,47*73
2017-12-01 13:49:06 1512154146.771058: $GPZDA,184907.00,01,12,2017,00,00*63
2017-12-01 13:49:06 1512154146.771229: $GPGGA,184907,3946.9573,N,08404.9845,W,2,11,0.80,296.16,M,-33.324,M,,*72
2017-12-01 13:49:06 1512154146.771296: $GPRMC,184907,A,3946.9573,N,08404.9845,W,0.0000,0.000,011217,,*30
2017-12-01 13:49:06 1512154146.771441: $GPGSA,A,3,10,14,15,18,20,21,24,27,32,8,138,,2.0,0.8,1.5*34
2017-12-01 13:49:07 1512154147.397448: $GPZDA,184908.00,01,12,2017,00,00*6C
2017-12-01 13:49:07 1512154147.397648: $GPGGA,184908,3946.9573,N,08404.9845,W,2,11,0.80,296.16,M,-33.324,M,,*7D
2017-12-01 13:49:07 1512154147.397717: $GPRMC,184908,A,3946.9573,N,08404.9845,W,0.0000,0.000,011217,,*3F
2017-12-01 13:49:07 1512154147.397778: $GPGSA,A,3,10,14,15,18,20,21,24,27,32,8,138,,2.0,0.8,1.5*34
