2017-11-15 18:47:04 1510789624.824880: {"class":"VERSION","release":"3.17","rev":"3.17","proto_major":3,"proto_minor":12}
2017-11-15 18:47:04 1510789624.825378: {"class":"DEVICES","devices":[{"class":"DEVICE","path":"/dev/ttyUSB0","driver":"SiRF","subtype":"9\u0006GSD4e_4.1.2-P1_RPATCH.05-F-GPS-4R-1510281 11/03/2015 307","activated":"2017-11-15T23:47:04.511Z","flags":1,"native":1,"bps":4800,"parity":"N","stopbits":1,"cycle":1.00}]}
2017-11-15 18:47:04 1510789624.825494: {"class":"WATCH","enable":true,"json":false,"nmea":true,"raw":0,"scaled":false,"timing":false,"split24":false,"pps":false}
2017-11-15 18:47:05 1510789625.370895: $GPZDA,234704.00,15,11,2017,00,00*60
2017-11-15 18:47:05 1510789625.371056: $GPGGA,234704,3946.9446,N,08404.9719,W,1,08,1.80,328.87,M,-33.324,M,,*70
2017-11-15 18:47:05 1510789625.371137: $GPRMC,234704,A,3946.9446,N,08404.9719,W,0.5857,158.291,151117,,*3B
2017-11-15 18:47:05 1510789625.371194: $GPGSA,A,3,1,14,32,31,26,25,10,29,,,,,3.4,1.8,2.9*09
2017-11-15 18:47:06 1510789626.665926: $GPGSV,3,1,12,01,16,268,15,14,67,055,14,03,26,313,04,32,51,087,16*78
2017-11-15 18:47:06 1510789626.666116: $GPGSV,3,2,12,31,79,315,23,26,32,177,14,25,32,051,07,10,16,157,11*70
2017-11-15 18:47:06 1510789626.666178: $GPGSV,3,3,12,12,02,030,04,22,43,297,00,29,02,088,10,133,44,201,00*4D
2017-11-15 18:47:06 1510789626.779271: $GPZDA,234705.00,15,11,2017,00,00*61
2017-11-15 18:47:06 1510789626.779430: $GPGGA,234705,3946.9446,N,08404.9712,W,1,08,1.80,328.95,M,-33.324,M,,*79
2017-11-15 18:47:06 1510789626.779491: $GPRMC,234705,A,3946.9446,N,08404.9712,W,0.5912,129.172,151117,,*39
2017-11-15 18:47:06 1510789626.779547: $GPGSA,A,3,1,14,32,31,26,25,10,29,,,,,3.4,1.8,2.9*09
2017-11-15 18:47:07 1510789627.330444: $GPZDA,234706.00,15,11,2017,00,00*62
2017-11-15 18:47:07 1510789627.330610: $GPGGA,234706,3946.9446,N,08404.9705,W,1,08,1.80,329.03,M,-33.324,M,,*72
2017-11-15 18:47:07 1510789627.330670: $GPRMC,234706,A,3946.9446,N,08404.9705,W,0.5306,114.352,151117,,*3D
2017-11-15 18:47:07 1510789627.330726: $GPGSA,A,3,1,14,32,31,26,25,10,29,,,,,3.4,1.8,2.9*09
2017-11-15 18:47:08 1510789628.334959: $GPZDA,234707.00,15,11,2017,00,00*63
2017-11-15 18:47:08 1510789628.335135: $GPGGA,234707,3946.9446,N,08404.9705,W,1,08,1.80,329.03,M,-33.324,M,,*73
2017-11-15 18:47:08 1510789628.335199: $GPRMC,234707,A,3946.9446,N,08404.9705,W,0.4844,93.794,151117,,*00
2017-11-15 18:47:08 1510789628.335255: $GPGSA,A,3,1,14,32,31,26,25,10,29,,,,,3.4,1.8,2.9*09
2017-11-15 18:47:09 1510789629.666821: $GPGSV,3,1,12,01,16,268,15,14,67,055,14,03,26,313,14,32,51,087,17*78
2017-11-15 18:47:09 1510789629.666991: $GPGSV,3,2,12,31,79,315,22,26,32,177,14,25,32,051,06,10,16,157,11*70
2017-11-15 18:47:09 1510789629.667052: $GPGSV,3,3,12,16,03,190,19,22,43,297,13,29,02,088,11,133,44,201,00*4C
2017-11-15 18:47:09 1510789629.780207: $GPZDA,234708.00,15,11,2017,00,00*6C
2017-11-15 18:47:09 1510789629.780369: $GPGGA,234708,3946.9445,N,08404.9698,W,1,08,1.80,329.10,M,-33.324,M,,*78
2017-11-15 18:47:09 1510789629.780431: $GPRMC,234708,A,3946.9445,N,08404.9698,W,0.4844,93.794,151117,,*09
2017-11-15 18:47:09 1510789629.780487: $GPGSA,A,3,1,14,32,31,26,25,10,29,,,,,3.4,1.8,2.9*09
2017-11-15 18:47:10 1510789630.331084: $GPZDA,234709.00,15,11,2017,00,00*6D
2017-11-15 18:47:10 1510789630.331260: $GPGGA,234709,3946.9445,N,08404.9698,W,1,08,1.80,329.10,M,-33.324,M,,*79
2017-11-15 18:47:10 1510789630.331321: $GPRMC,234709,A,3946.9445,N,08404.9698,W,0.8054,68.645,151117,,*04
2017-11-15 18:47:10 1510789630.331377: $GPGSA,A,3,1,14,32,31,26,25,10,29,,,,,3.4,1.8,2.9*09
2017-11-15 18:47:11 1510789631.374218: $GPZDA,234710.00,15,11,2017,00,00*65
2017-11-15 18:47:11 1510789631.374392: $GPGGA,234710,3946.9445,N,08404.9691,W,1,08,1.80,329.18,M,-33.324,M,,*70
2017-11-15 18:47:11 1510789631.374453: $GPRMC,234710,A,3946.9445,N,08404.9691,W,0.8054,68.645,151117,,*05
2017-11-15 18:47:11 1510789631.374508: $GPGSA,A,3,1,14,32,31,26,25,10,29,,,,,3.4,1.8,2.9*09
2017-11-15 18:47:12 1510789632.665947: $GPGSV,3,1,12,01,16,268,15,14,67,055,13,03,26,313,00,32,51,087,16*7B
2017-11-15 18:47:12 1510789632.666172: $GPGSV,3,2,12,31,79,315,23,26,32,177,14,25,32,051,05,10,16,157,11*72
2017-11-15 18:47:12 1510789632.666234: $GPGSV,3,3,12,12,02,030,04,22,43,297,12,29,02,088,11,133,44,201,00*4F
2017-11-15 18:47:12 1510789632.779609: $GPZDA,234711.00,15,11,2017,00,00*64
2017-11-15 18:47:12 1510789632.779768: $GPGGA,234711,3946.9445,N,08404.9684,W,1,07,1.80,329.26,M,-33.324,M,,*77
2017-11-15 18:47:12 1510789632.779829: $GPRMC,234711,A,3946.9445,N,08404.9684,W,0.5951,58.684,151117,,*0F
2017-11-15 18:47:12 1510789632.779884: $GPGSA,A,3,1,14,32,31,26,10,29,,,,,,3.4,1.8,2.9*0E
2017-11-15 18:47:13 1510789633.374214: $GPZDA,234712.00,15,11,2017,00,00*67
2017-11-15 18:47:13 1510789633.374373: $GPGGA,234712,3946.9452,N,08404.9683,W,1,07,1.60,329.14,M,-33.324,M,,*7A
2017-11-15 18:47:13 1510789633.374434: $GPRMC,234712,A,3946.9452,N,08404.9683,W,0.3423,4.197,151117,,*3F
2017-11-15 18:47:13 1510789633.374489: $GPGSA,A,3,1,14,32,31,26,10,29,,,,,,3.4,1.6,2.9*00
2017-11-15 18:47:14 1510789634.375035: $GPZDA,234713.00,15,11,2017,00,00*66
2017-11-15 18:47:14 1510789634.375203: $GPGGA,234713,3946.9452,N,08404.9683,W,1,07,1.80,329.14,M,-33.324,M,,*75
2017-11-15 18:47:14 1510789634.375263: $GPRMC,234713,A,3946.9452,N,08404.9683,W,0.5774,27.515,151117,,*06
2017-11-15 18:47:14 1510789634.375318: $GPGSA,A,3,1,14,32,31,26,10,29,,,,,,3.4,1.8,2.9*0E
2017-11-15 18:47:15 1510789635.666810: $GPGSV,3,1,12,01,16,268,15,14,67,055,14,03,26,313,14,32,51,087,16*79
2017-11-15 18:47:15 1510789635.666983: $GPGSV,3,2,12,31,79,315,23,26,32,177,14,25,32,051,06,10,16,157,11*71
2017-11-15 18:47:15 1510789635.667043: $GPGSV,3,3,12,16,03,190,18,22,43,297,14,29,02,088,11,133,44,201,00*4A
2017-11-15 18:47:15 1510789635.778929: $GPZDA,234714.00,15,11,2017,00,00*61
2017-11-15 18:47:15 1510789635.779096: $GPGGA,234714,3946.9452,N,08404.9683,W,1,08,1.80,329.14,M,-33.324,M,,*7D
2017-11-15 18:47:15 1510789635.779158: $GPRMC,234714,A,3946.9452,N,08404.9683,W,0.6846,4.197,151117,,*33
2017-11-15 18:47:15 1510789635.779214: $GPGSA,A,3,1,14,32,31,26,10,22,29,,,,,3.4,1.8,2.9*0E
2017-11-15 18:47:16 1510789636.405690: $GPZDA,234715.00,15,11,2017,00,00*60
2017-11-15 18:47:16 1510789636.409010: $GPGGA,234715,3946.9456,N,08404.9676,W,1,08,1.80,329.86,M,-33.324,M,,*79
2017-11-15 18:47:16 1510789636.409179: $GPRMC,234715,A,3946.9456,N,08404.9676,W,0.8709,3.298,151117,,*3D
2017-11-15 18:47:16 1510789636.409242: $GPGSA,A,3,1,14,32,31,26,10,22,29,,,,,3.4,1.8,2.9*0E
2017-11-15 18:47:17 1510789637.371712: $GPZDA,234716.00,15,11,2017,00,00*63
2017-11-15 18:47:17 1510789637.371878: $GPGGA,234716,3946.9460,N,08404.9683,W,1,08,1.00,329.01,M,-33.324,M,,*72
2017-11-15 18:47:17 1510789637.371939: $GPRMC,234716,A,3946.9460,N,08404.9683,W,0.9066,309.458,151117,,*3D
2017-11-15 18:47:17 1510789637.371994: $GPGSA,A,3,1,14,32,31,26,10,22,29,,,,,3.4,1.0,2.9*06
2017-11-15 18:47:18 1510789638.702105: $GPGSV,3,1,11,01,16,268,15,14,67,055,13,03,26,313,14,32,51,087,16*7D
2017-11-15 18:47:18 1510789638.702248: $GPGSV,3,2,11,31,79,315,22,26,32,177,14,25,32,051,08,10,16,157,11*7D
2017-11-15 18:47:18 1510789638.702307: $GPGSV,3,3,11,16,03,190,00,22,43,297,14,29,02,088,09*4B
2017-11-15 18:47:18 1510789638.815428: $GPZDA,234717.00,15,11,2017,00,00*62
2017-11-15 18:47:18 1510789638.815594: $GPGGA,234717,3946.9460,N,08404.9683,W,1,09,1.00,329.01,M,-33.324,M,,*72
2017-11-15 18:47:18 1510789638.815655: $GPRMC,234717,A,3946.9460,N,08404.9683,W,0.5306,294.352,151117,,*3D
2017-11-15 18:47:18 1510789638.815711: $GPGSA,A,3,1,14,32,31,26,25,10,22,29,,,,3.4,1.0,2.9*01
2017-11-15 18:47:19 1510789639.371313: $GPZDA,234718.00,15,11,2017,00,00*6D
2017-11-15 18:47:19 1510789639.371484: $GPGGA,234718,3946.9460,N,08404.9683,W,1,09,1.00,329.01,M,-33.324,M,,*7D
2017-11-15 18:47:19 1510789639.371547: $GPRMC,234718,A,3946.9460,N,08404.9683,W,0.4844,273.794,151117,,*39
2017-11-15 18:47:19 1510789639.371603: $GPGSA,A,3,1,14,32,31,26,25,10,22,29,,,,3.4,1.0,2.9*01
2017-11-15 18:47:20 1510789640.365988: $GPZDA,234719.00,15,11,2017,00,00*6C
2017-11-15 18:47:20 1510789640.366157: $GPGGA,234719,3946.9460,N,08404.9683,W,1,09,1.00,329.01,M,-33.324,M,,*7C
2017-11-15 18:47:20 1510789640.366265: $GPRMC,234719,A,3946.9460,N,08404.9683,W,0.2422,273.794,151117,,*32
2017-11-15 18:47:20 1510789640.366322: $GPGSA,A,3,1,14,32,31,26,25,10,22,29,,,,3.4,1.0,2.9*01
2017-11-15 18:47:21 1510789641.707535: $GPGSV,3,1,11,01,16,268,15,14,67,055,14,16,03,190,09,32,51,087,16*7C
2017-11-15 18:47:21 1510789641.707706: $GPGSV,3,2,11,31,79,315,22,26,32,177,14,25,32,051,10,10,16,157,12*77
2017-11-15 18:47:21 1510789641.707765: $GPGSV,3,3,11,03,26,313,00,22,43,297,17,29,02,088,08*43
2017-11-15 18:47:21 1510789641.821247: $GPZDA,234720.00,15,11,2017,00,00*66
2017-11-15 18:47:21 1510789641.821439: $GPGGA,234720,3946.9464,N,08404.9683,W,1,09,1.00,329.65,M,-33.324,M,,*70
2017-11-15 18:47:21 1510789641.821517: $GPRMC,234720,A,3946.9464,N,08404.9683,W,0.2422,273.794,151117,,*3C
2017-11-15 18:47:21 1510789641.821574: $GPGSA,A,3,1,14,32,31,26,25,10,22,29,,,,3.4,1.0,2.9*01
2017-11-15 18:47:22 1510789642.372104: $GPZDA,234721.00,15,11,2017,00,00*67
2017-11-15 18:47:22 1510789642.372255: $GPGGA,234721,3946.9460,N,08404.9676,W,1,09,1.00,330.50,M,-33.324,M,,*71
2017-11-15 18:47:22 1510789642.372315: $GPRMC,234721,A,3946.9460,N,08404.9676,W,0.2422,93.794,151117,,*0F
2017-11-15 18:47:22 1510789642.372370: $GPGSA,A,3,1,14,32,31,26,25,10,22,29,,,,3.4,1.0,2.9*01
2017-11-15 18:47:23 1510789643.330464: $GPZDA,234722.00,15,11,2017,00,00*64
2017-11-15 18:47:23 1510789643.330625: $GPGGA,234722,3946.9460,N,08404.9676,W,1,09,1.00,330.50,M,-33.324,M,,*72
2017-11-15 18:47:23 1510789643.330685: $GPRMC,234722,A,3946.9460,N,08404.9676,W,0.4179,148.778,151117,,*34
2017-11-15 18:47:23 1510789643.330741: $GPGSA,A,3,1,14,32,31,26,25,10,22,29,,,,3.4,1.0,2.9*01
2017-11-15 18:47:24 1510789644.665842: $GPGSV,3,1,11,01,16,268,16,14,67,055,14,03,26,313,12,32,51,087,16*7F
2017-11-15 18:47:24 1510789644.666013: $GPGSV,3,2,11,31,79,315,22,26,32,177,15,25,32,051,09,10,16,157,13*7F
2017-11-15 18:47:24 1510789644.666073: $GPGSV,3,3,11,16,03,190,00,22,43,297,18,29,02,088,08*46
2017-11-15 18:47:24 1510789644.779278: $GPZDA,234723.00,15,11,2017,00,00*65
2017-11-15 18:47:24 1510789644.779440: $GPGGA,234723,3946.9460,N,08404.9669,W,1,09,1.00,330.58,M,-33.324,M,,*75
2017-11-15 18:47:24 1510789644.779502: $GPRMC,234723,A,3946.9460,N,08404.9669,W,0.8011,119.090,151117,,*3D
2017-11-15 18:47:24 1510789644.779559: $GPGSA,A,3,1,14,32,31,26,25,10,22,29,,,,3.4,1.0,2.9*01
2017-11-15 18:47:25 1510789645.330408: $GPZDA,234724.00,15,11,2017,00,00*62
2017-11-15 18:47:25 1510789645.330569: $GPGGA,234724,3946.9460,N,08404.9669,W,1,09,1.00,330.58,M,-33.324,M,,*72
2017-11-15 18:47:25 1510789645.330629: $GPRMC,234724,A,3946.9460,N,08404.9669,W,0.7267,93.794,151117,,*06
2017-11-15 18:47:25 1510789645.330684: $GPGSA,A,3,1,14,32,31,26,25,10,22,29,,,,3.4,1.0,2.9*01
2017-11-15 18:47:26 1510789646.371625: $GPZDA,234725.00,15,11,2017,00,00*63
2017-11-15 18:47:26 1510789646.371789: $GPGGA,234725,3946.9460,N,08404.9662,W,1,09,1.00,330.66,M,-33.324,M,,*75
2017-11-15 18:47:26 1510789646.371848: $GPRMC,234725,A,3946.9460,N,08404.9662,W,0.9689,93.794,151117,,*06
2017-11-15 18:47:26 1510789646.371903: $GPGSA,A,3,1,14,32,31,26,25,10,22,29,,,,3.4,1.0,2.9*01
2017-11-15 18:47:27 1510789647.707502: $GPGSV,3,1,11,01,16,268,15,14,67,055,14,03,26,313,11,32,51,087,15*7C
2017-11-15 18:47:27 1510789647.707675: $GPGSV,3,2,11,31,79,315,22,26,32,177,15,25,32,051,10,10,16,157,12*76
2017-11-15 18:47:27 1510789647.707735: $GPGSV,3,3,11,16,03,190,00,22,43,297,18,29,02,088,10*4F
2017-11-15 18:47:27 1510789647.820819: $GPZDA,234726.00,15,11,2017,00,00*60
2017-11-15 18:47:27 1510789647.820977: $GPGGA,234726,3946.9459,N,08404.9656,W,1,10,0.80,330.73,M,-33.324,M,,*7E
2017-11-15 18:47:27 1510789647.821038: $GPRMC,234726,A,3946.9459,N,08404.9656,W,0.7267,93.794,151117,,*02
2017-11-15 18:47:27 1510789647.821093: $GPGSA,A,3,1,14,3,32,31,26,25,10,22,29,,,3.4,0.8,2.9*3B
2017-11-15 18:47:28 1510789648.372361: $GPZDA,234727.00,15,11,2017,00,00*61
2017-11-15 18:47:28 1510789648.372543: $GPGGA,234727,3946.9459,N,08404.9656,W,1,10,0.80,330.73,M,-33.324,M,,*7F
2017-11-15 18:47:28 1510789648.372652: $GPRMC,234727,A,3946.9459,N,08404.9656,W,0.5912,129.172,151117,,*36
2017-11-15 18:47:28 1510789648.372709: $GPGSA,A,3,1,14,3,32,31,26,25,10,22,29,,,3.4,0.8,2.9*3B
2017-11-15 18:47:29 1510789649.331245: $GPZDA,234728.00,15,11,2017,00,00*6E
2017-11-15 18:47:29 1510789649.331418: $GPGGA,234728,3946.9459,N,08404.9656,W,1,10,0.80,330.73,M,-33.324,M,,*70
2017-11-15 18:47:29 1510789649.331479: $GPRMC,234728,A,3946.9459,N,08404.9656,W,0.2422,93.794,151117,,*0E
2017-11-15 18:47:29 1510789649.331534: $GPGSA,A,3,1,14,3,32,31,26,25,10,22,29,,,3.4,0.8,2.9*3B
2017-11-15 18:47:30 1510789650.708410: $GPGSV,3,1,11,01,16,268,15,14,67,055,14,03,26,313,12,32,51,087,14*7E
2017-11-15 18:47:30 1510789650.708593: $GPGSV,3,2,11,31,79,315,22,26,32,177,15,25,32,051,11,10,16,157,12*77
2017-11-15 18:47:30 1510789650.708653: $GPGSV,3,3,11,12,02,030,03,22,43,297,19,29,02,088,10*43
2017-11-15 18:47:30 1510789650.821649: $GPZDA,234729.00,15,11,2017,00,00*6F
2017-11-15 18:47:30 1510789650.821812: $GPGGA,234729,3946.9459,N,08404.9649,W,1,10,0.80,330.81,M,-33.324,M,,*72
2017-11-15 18:47:30 1510789650.821874: $GPRMC,234729,A,3946.9459,N,08404.9649,W,0.4844,93.794,151117,,*0B
2017-11-15 18:47:30 1510789650.821929: $GPGSA,A,3,1,14,3,32,31,26,25,10,22,29,,,3.4,0.8,2.9*3B
2017-11-15 18:47:31 1510789651.447054: $GPZDA,234730.00,15,11,2017,00,00*67
2017-11-15 18:47:31 1510789651.447203: $GPGGA,234730,3946.9463,N,08404.9649,W,1,10,0.80,331.45,M,-33.324,M,,*7A
2017-11-15 18:47:31 1510789651.447263: $GPRMC,234730,A,3946.9463,N,08404.9649,W,0.5075,72.256,151117,,*05
2017-11-15 18:47:31 1510789651.447318: $GPGSA,A,3,1,14,3,32,31,26,25,10,22,29,,,3.4,0.8,2.9*3B
2017-11-15 18:47:32 1510789652.331645: $GPZDA,234731.00,15,11,2017,00,00*66
2017-11-15 18:47:32 1510789652.333583: $GPGGA,234731,3946.9466,N,08404.9641,W,1,10,0.80,330.77,M,-33.324,M,,*76
2017-11-15 18:47:32 1510789652.333668: $GPRMC,234731,A,3946.9466,N,08404.9641,W,0.7267,93.794,151117,,*0E
2017-11-15 18:47:32 1510789652.333726: $GPGSA,A,3,1,14,3,32,31,26,25,10,22,29,,,3.4,0.8,2.9*3B
2017-11-15 18:47:33 1510789653.669918: $GPGSV,3,1,11,01,16,268,15,14,67,055,15,03,26,313,11,32,51,087,14*7C
2017-11-15 18:47:33 1510789653.670084: $GPGSV,3,2,11,31,79,315,22,26,32,177,15,25,32,051,11,10,16,157,11*74
2017-11-15 18:47:33 1510789653.670145: $GPGSV,3,3,11,12,02,030,09,22,43,297,20,29,02,088,12*41
2017-11-15 18:47:33 1510789653.783320: $GPZDA,234732.00,15,11,2017,00,00*65
2017-11-15 18:47:33 1510789653.783474: $GPGGA,234732,3946.9466,N,08404.9634,W,1,10,0.80,330.85,M,-33.324,M,,*7A
2017-11-15 18:47:33 1510789653.783533: $GPRMC,234732,A,3946.9466,N,08404.9634,W,0.4844,93.794,151117,,*07
2017-11-15 18:47:33 1510789653.783587: $GPGSA,A,3,1,14,3,32,31,26,25,10,22,29,,,3.4,0.8,2.9*3B
2017-11-15 18:47:34 1510789654.372908: $GPZDA,234733.00,15,11,2017,00,00*64
2017-11-15 18:47:34 1510789654.373079: $GPGGA,234733,3946.9466,N,08404.9634,W,1,10,0.80,330.85,M,-33.324,M,,*7B
2017-11-15 18:47:34 1510789654.373140: $GPRMC,234733,A,3946.9466,N,08404.9634,W,0.4844,93.794,151117,,*06
2017-11-15 18:47:34 1510789654.373195: $GPGSA,A,3,1,14,3,32,31,26,25,10,22,29,,,3.4,0.8,2.9*3B
