2017-12-01 11:28:53 1512145733.807382: {"class":"VERSION","release":"3.16","rev":"3.16-4","proto_major":3,"proto_minor":11}
2017-12-01 11:28:53 1512145733.807755: {"class":"DEVICES","devices":[{"class":"DEVICE","path":"/dev/ttyUSB0","driver":"SiRF","subtype":"9\u0006GSD4e_4.1.2-P1_RPATCH.05-F-GPS-4R-1510281 11/03/2015 307","activated":"2017-12-01T16:28:53.533Z","flags":1,"native":1,"bps":4800,"parity":"N","stopbits":1,"cycle":1.00}]}
2017-12-01 11:28:53 1512145733.807868: {"class":"WATCH","enable":true,"json":false,"nmea":true,"raw":0,"scaled":false,"timing":false,"split24":false,"pps":false}
2017-12-01 11:28:54 1512145734.706742: $GPGSV,3,1,12,05,18,073,38,10,09,267,36,13,49,054,46,15,79,102,48*7C
2017-12-01 11:28:54 1512145734.706937: $GPGSV,3,2,12,18,39,280,44,20,66,037,43,21,61,309,47,24,15,151,37*7D
2017-12-01 11:28:54 1512145734.707003: $GPGSV,3,3,12,29,31,198,47,30,01,030,19,27,04,328,24,138,38,213,46*44
2017-12-01 11:28:54 1512145734.820386: $GPZDA,162855.00,01,12,2017,00,00*6D
2017-12-01 11:28:54 1512145734.820552: $GPGGA,162855,3946.9575,N,08404.9836,W,2,12,1.00,294.07,M,-33.324,M,,*76
2017-12-01 11:28:54 1512145734.820619: $GPRMC,162855,A,3946.9575,N,08404.9836,W,0.0000,0.000,011217,,*3C
2017-12-01 11:28:54 1512145734.820680: $GPGSA,A,3,5,10,13,15,18,20,21,24,29,30,27,138,2.0,1.0,1.5*3E
2017-12-01 11:28:55 1512145735.379797: $GPZDA,162856.00,01,12,2017,00,00*6E
2017-12-01 11:28:55 1512145735.379966: $GPGGA,162856,3946.9579,N,08404.9836,W,2,12,1.00,294.71,M,-33.324,M,,*78
2017-12-01 11:28:55 1512145735.380034: $GPRMC,162856,A,3946.9579,N,08404.9836,W,0.0000,0.000,011217,,*33
2017-12-01 11:28:55 1512145735.380095: $GPGSA,A,3,5,10,13,15,18,20,21,24,29,30,27,138,2.0,1.0,1.5*3E
2017-12-01 11:28:56 1512145736.378136: $GPZDA,162857.00,01,12,2017,00,00*6F
2017-12-01 11:28:56 1512145736.378290: $GPGGA,162857,3946.9579,N,08404.9836,W,2,12,1.00,294.71,M,-33.324,M,,*79
2017-12-01 11:28:56 1512145736.378356: $GPRMC,162857,A,3946.9579,N,08404.9836,W,0.0000,0.000,011217,,*32
2017-12-01 11:28:56 1512145736.378417: $GPGSA,A,3,5,10,13,15,18,20,21,24,29,30,27,138,2.0,1.0,1.5*3E
2017-12-01 11:28:57 1512145737.718806: $GPGSV,3,1,12,05,18,073,38,10,09,267,36,13,49,054,45,15,79,102,48*7F
2017-12-01 11:28:57 1512145737.718986: $GPGSV,3,2,12,18,39,280,44,20,66,037,44,21,61,309,46,24,15,151,37*7B
2017-12-01 11:28:57 1512145737.719071: $GPGSV,3,3,12,29,31,198,47,30,01,030,19,27,04,328,23,138,38,213,46*43
2017-12-01 11:28:57 1512145737.832263: $GPZDA,162858.00,01,12,2017,00,00*60
2017-12-01 11:28:57 1512145737.832452: $GPGGA,162858,3946.9579,N,08404.9836,W,2,12,1.00,294.71,M,-33.324,M,,*76
2017-12-01 11:28:57 1512145737.832519: $GPRMC,162858,A,3946.9579,N,08404.9836,W,0.0000,0.000,011217,,*3D
2017-12-01 11:28:57 1512145737.832580: $GPGSA,A,3,5,10,13,15,18,20,21,24,29,30,27,138,2.0,1.0,1.5*3E
2017-12-01 11:28:58 1512145738.457600: $GPZDA,162859.00,01,12,2017,00,00*61
2017-12-01 11:28:58 1512145738.457753: $GPGGA,162859,3946.9579,N,08404.9836,W,2,12,1.00,294.71,M,-33.324,M,,*77
2017-12-01 11:28:58 1512145738.457819: $GPRMC,162859,A,3946.9579,N,08404.9836,W,0.0000,0.000,011217,,*3C
2017-12-01 11:28:58 1512145738.457881: $GPGSA,A,3,5,10,13,15,18,20,21,24,29,30,27,138,2.0,1.0,1.5*3E
2017-12-01 11:28:59 1512145739.378467: $GPZDA,162900.00,01,12,2017,00,00*6C
2017-12-01 11:28:59 1512145739.378655: $GPGGA,162900,3946.9579,N,08404.9836,W,2,12,1.00,294.71,M,-33.324,M,,*7A
2017-12-01 11:28:59 1512145739.378726: $GPRMC,162900,A,3946.9579,N,08404.9836,W,0.0000,0.000,011217,,*31
2017-12-01 11:28:59 1512145739.378790: $GPGSA,A,3,5,10,13,15,18,20,21,24,29,30,27,138,2.0,1.0,1.5*3E
2017-12-01 11:29:00 1512145740.707943: $GPGSV,3,1,12,05,18,073,38,10,09,267,36,13,49,054,45,15,79,102,47*70
2017-12-01 11:29:00 1512145740.708125: $GPGSV,3,2,12,18,39,280,43,20,66,037,43,21,61,309,46,24,15,151,37*7B
2017-12-01 11:29:00 1512145740.708195: $GPGSV,3,3,12,29,31,198,47,30,01,030,18,27,04,328,23,138,38,213,46*42
2017-12-01 11:29:00 1512145740.821311: $GPZDA,162901.00,01,12,2017,00,00*6D
2017-12-01 11:29:00 1512145740.821543: $GPGGA,162901,3946.9579,N,08404.9836,W,2,12,1.00,294.71,M,-33.324,M,,*7B
2017-12-01 11:29:00 1512145740.821642: $GPRMC,162901,A,3946.9579,N,08404.9836,W,0.0000,0.000,011217,,*30
2017-12-01 11:29:00 1512145740.821705: $GPGSA,A,3,5,10,13,15,18,20,21,24,29,30,27,138,2.0,1.0,1.5*3E
2017-12-01 11:29:01 1512145741.401197: $GPZDA,162902.00,01,12,2017,00,00*6E
2017-12-01 11:29:01 1512145741.401465: $GPGGA,162902,3946.9579,N,08404.9836,W,2,12,1.00,294.71,M,-33.324,M,,*78
2017-12-01 11:29:01 1512145741.401543: $GPRMC,162902,A,3946.9579,N,08404.9836,W,0.0000,0.000,011217,,*33
2017-12-01 11:29:01 1512145741.401605: $GPGSA,A,3,5,10,13,15,18,20,21,24,29,30,27,138,2.0,1.0,1.5*3E
2017-12-01 11:29:02 1512145742.393333: $GPZDA,162903.00,01,12,2017,00,00*6F
2017-12-01 11:29:02 1512145742.393502: $GPGGA,162903,3946.9579,N,08404.9843,W,2,12,1.00,294.63,M,-33.324,M,,*78
2017-12-01 11:29:02 1512145742.393569: $GPRMC,162903,A,3946.9579,N,08404.9843,W,0.0000,0.000,011217,,*30
2017-12-01 11:29:02 1512145742.393631: $GPGSA,A,3,5,10,13,15,18,20,21,24,29,30,27,138,2.0,1.0,1.5*3E
2017-12-01 11:29:03 1512145743.714498: $GPGSV,3,1,12,05,18,073,38,10,09,267,36,13,49,054,45,15,79,102,48*7F
2017-12-01 11:29:03 1512145743.714678: $GPGSV,3,2,12,18,39,280,43,20,66,037,44,21,61,309,46,24,15,151,37*7C
2017-12-01 11:29:03 1512145743.714763: $GPGSV,3,3,12,29,31,198,47,30,01,030,17,27,04,328,29,138,38,213,46*47
