2017-12-29 11:48:20 1514566100.486040: {"class":"VERSION","release":"3.16","rev":"3.16-4","proto_major":3,"proto_minor":11}
2017-12-29 11:48:20 1514566100.486400: {"class":"DEVICES","devices":[{"class":"DEVICE","path":"/dev/ttyUSB0","driver":"SiRF","subtype":"9\u0006GSD4e_4.1.2-P1_RPATCH.05-F-GPS-4R-1510281 11/03/2015 307","activated":"2017-12-29T16:48:20.464Z","flags":1,"native":1,"bps":4800,"parity":"N","stopbits":1,"cycle":1.00}]}
2017-12-29 11:48:20 1514566100.486519: {"class":"WATCH","enable":true,"json":false,"nmea":true,"raw":0,"scaled":false,"timing":false,"split24":false,"pps":false}
2017-12-29 11:48:21 1514566101.663674: $GPGSV,3,1,11,08,08,310,31,10,53,312,46,14,14,240,34,15,25,057,46*7C
2017-12-29 11:48:21 1514566101.663829: $GPGSV,3,2,11,18,77,027,45,20,24,106,48,21,48,183,47,24,53,085,51*75
2017-12-29 11:48:21 1514566101.663894: $GPGSV,3,3,11,27,15,276,38,32,33,249,38,138,38,213,44*74
2017-12-29 11:48:21 1514566101.777692: $GPZDA,164822.00,29,12,2017,00,00*61
2017-12-29 11:48:21 1514566101.777860: $GPGGA,164822,3946.9596,N,08404.9816,W,2,11,0.80,323.83,M,-33.324,M,,*74
2017-12-29 11:48:21 1514566101.777927: $GPRMC,164822,A,3946.9596,N,08404.9816,W,0.0000,0.000,291217,,*3F
2017-12-29 11:48:21 1514566101.777989: $GPGSA,A,3,8,10,14,15,18,20,21,24,27,32,138,,1.7,0.8,1.3*36
2017-12-29 11:48:22 1514566102.402550: $GPZDA,164823.00,29,12,2017,00,00*60
2017-12-29 11:48:22 1514566102.402739: $GPGGA,164823,3946.9596,N,08404.9816,W,2,11,0.80,323.83,M,-33.324,M,,*75
2017-12-29 11:48:22 1514566102.402810: $GPRMC,164823,A,3946.9596,N,08404.9816,W,0.0000,0.000,291217,,*3E
2017-12-29 11:48:22 1514566102.402870: $GPGSA,A,3,8,10,14,15,18,20,21,24,27,32,138,,1.7,0.8,1.3*36
2017-12-29 11:48:23 1514566103.333644: $GPZDA,164824.00,29,12,2017,00,00*67
2017-12-29 11:48:23 1514566103.333806: $GPGGA,164824,3946.9592,N,08404.9816,W,2,11,0.80,323.19,M,-33.324,M,,*75
2017-12-29 11:48:23 1514566103.333872: $GPRMC,164824,A,3946.9592,N,08404.9816,W,0.0000,0.000,291217,,*3D
2017-12-29 11:48:23 1514566103.333934: $GPGSA,A,3,8,10,14,15,18,20,21,24,27,32,138,,1.7,0.8,1.3*36
2017-12-29 11:48:24 1514566104.686489: $GPGSV,3,1,11,08,08,310,32,10,53,312,46,14,14,240,28,15,25,057,45*71
2017-12-29 11:48:24 1514566104.686669: $GPGSV,3,2,11,18,77,027,45,20,24,106,48,21,48,183,47,24,53,085,51*75
2017-12-29 11:48:24 1514566104.686736: $GPGSV,3,3,11,27,15,276,37,32,33,249,39,138,38,213,46*78
2017-12-29 11:48:24 1514566104.799865: $GPZDA,164825.00,29,12,2017,00,00*66
2017-12-29 11:48:24 1514566104.800052: $GPGGA,164825,3946.9592,N,08404.9816,W,2,11,0.80,323.19,M,-33.324,M,,*74
2017-12-29 11:48:24 1514566104.800120: $GPRMC,164825,A,3946.9592,N,08404.9816,W,0.0000,0.000,291217,,*3C
2017-12-29 11:48:24 1514566104.800182: $GPGSA,A,3,8,10,14,15,18,20,21,24,27,32,138,,1.7,0.8,1.3*36
2017-12-29 11:48:25 1514566105.350745: $GPZDA,164826.00,29,12,2017,00,00*65
2017-12-29 11:48:25 1514566105.350920: $GPGGA,164826,3946.9592,N,08404.9816,W,2,11,0.80,323.19,M,-33.324,M,,*77
2017-12-29 11:48:25 1514566105.350985: $GPRMC,164826,A,3946.9592,N,08404.9816,W,0.0000,0.000,291217,,*3F
2017-12-29 11:48:25 1514566105.351111: $GPGSA,A,3,8,10,14,15,18,20,21,24,27,32,138,,1.7,0.8,1.3*36
2017-12-29 11:48:26 1514566106.333045: $GPZDA,164827.00,29,12,2017,00,00*64
2017-12-29 11:48:26 1514566106.333256: $GPGGA,164827,3946.9595,N,08404.9815,W,2,11,0.80,322.43,M,-33.324,M,,*7C
2017-12-29 11:48:26 1514566106.333328: $GPRMC,164827,A,3946.9595,N,08404.9815,W,0.0000,0.000,291217,,*3A
2017-12-29 11:48:26 1514566106.333390: $GPGSA,A,3,8,10,14,15,18,20,21,24,27,32,138,,1.7,0.8,1.3*36
2017-12-29 11:48:27 1514566107.664316: $GPGSV,3,1,11,08,08,310,32,10,53,312,46,14,14,240,29,15,25,057,45*70
2017-12-29 11:48:27 1514566107.665799: $GPGSV,3,2,11,18,77,027,45,20,24,106,49,21,48,183,47,24,53,085,51*74
2017-12-29 11:48:27 1514566107.665891: $GPGSV,3,3,11,27,15,276,37,32,33,249,38,138,38,213,45*7A
2017-12-29 11:48:27 1514566107.777729: $GPZDA,164828.00,29,12,2017,00,00*6B
2017-12-29 11:48:27 1514566107.777889: $GPGGA,164828,3946.9595,N,08404.9815,W,2,11,0.80,322.43,M,-33.324,M,,*73
2017-12-29 11:48:27 1514566107.778034: $GPRMC,164828,A,3946.9595,N,08404.9815,W,0.0000,0.000,291217,,*35
2017-12-29 11:48:27 1514566107.778097: $GPGSA,A,3,8,10,14,15,18,20,21,24,27,32,138,,1.7,0.8,1.3*36
2017-12-29 11:48:28 1514566108.329959: $GPZDA,164829.00,29,12,2017,00,00*6A
2017-12-29 11:48:28 1514566108.330132: $GPGGA,164829,3946.9595,N,08404.9815,W,2,11,1.00,322.43,M,-33.324,M,,*7B
2017-12-29 11:48:28 1514566108.330202: $GPRMC,164829,A,3946.9595,N,08404.9815,W,0.0000,0.000,291217,,*34
2017-12-29 11:48:28 1514566108.330267: $GPGSA,A,3,8,10,14,15,18,20,21,24,27,32,138,,1.7,1.0,1.3*3F
2017-12-29 11:48:29 1514566109.352020: $GPZDA,164830.00,29,12,2017,00,00*62
2017-12-29 11:48:29 1514566109.352197: $GPGGA,164830,3946.9595,N,08404.9815,W,2,11,0.80,322.43,M,-33.324,M,,*7A
2017-12-29 11:48:29 1514566109.352267: $GPRMC,164830,A,3946.9595,N,08404.9815,W,0.0000,0.000,291217,,*3C
2017-12-29 11:48:29 1514566109.352329: $GPGSA,A,3,8,10,14,15,18,20,21,24,27,32,138,,1.7,0.8,1.3*36
2017-12-29 11:48:30 1514566110.685221: $GPGSV,3,1,11,08,08,310,32,10,53,312,46,14,14,240,00,15,25,057,45*7B
2017-12-29 11:48:30 1514566110.685399: $GPGSV,3,2,11,18,77,027,45,20,24,106,49,21,48,183,47,24,53,085,51*74
2017-12-29 11:48:30 1514566110.685466: $GPGSV,3,3,11,27,15,276,36,32,33,249,39,138,38,213,45*7A
2017-12-29 11:48:30 1514566110.798551: $GPZDA,164831.00,29,12,2017,00,00*63
2017-12-29 11:48:30 1514566110.798710: $GPGGA,164831,3946.9595,N,08404.9815,W,2,10,1.00,322.43,M,-33.324,M,,*73
2017-12-29 11:48:30 1514566110.798776: $GPRMC,164831,A,3946.9595,N,08404.9815,W,0.0000,0.000,291217,,*3D
2017-12-29 11:48:30 1514566110.798836: $GPGSA,A,3,8,10,15,18,20,21,24,27,32,138,,,1.7,1.0,1.3*3A
2017-12-29 11:48:31 1514566111.335678: $GPZDA,164832.00,29,12,2017,00,00*60
2017-12-29 11:48:31 1514566111.335855: $GPGGA,164832,3946.9595,N,08404.9815,W,2,10,0.80,322.43,M,-33.324,M,,*79
2017-12-29 11:48:31 1514566111.335923: $GPRMC,164832,A,3946.9595,N,08404.9815,W,0.0000,0.000,291217,,*3E
2017-12-29 11:48:31 1514566111.335985: $GPGSA,A,3,8,10,15,18,20,21,24,27,32,138,,,1.7,0.8,1.3*33
2017-12-29 11:48:32 1514566112.351111: $GPZDA,164833.00,29,12,2017,00,00*61
2017-12-29 11:48:32 1514566112.351304: $GPGGA,164833,3946.9595,N,08404.9815,W,2,10,1.00,322.43,M,-33.324,M,,*71
2017-12-29 11:48:32 1514566112.351376: $GPRMC,164833,A,3946.9595,N,08404.9815,W,0.0000,0.000,291217,,*3F
2017-12-29 11:48:32 1514566112.351439: $GPGSA,A,3,8,10,15,18,20,21,24,27,32,138,,,1.7,1.0,1.3*3A
2017-12-29 11:48:33 1514566113.669347: $GPGSV,3,1,11,08,08,310,31,10,53,312,46,14,14,240,00,15,25,057,46*7B
2017-12-29 11:48:33 1514566113.669528: $GPGSV,3,2,11,18,77,027,45,20,24,106,48,21,48,183,48,24,53,085,51*7A
2017-12-29 11:48:33 1514566113.669594: $GPGSV,3,3,11,27,15,276,30,32,33,249,38,138,38,213,44*7C
2017-12-29 11:48:33 1514566113.783022: $GPZDA,164834.00,29,12,2017,00,00*66
2017-12-29 11:48:33 1514566113.783190: $GPGGA,164834,3946.9595,N,08404.9815,W,2,10,1.00,322.43,M,-33.324,M,,*76
2017-12-29 11:48:33 1514566113.783273: $GPRMC,164834,A,3946.9595,N,08404.9815,W,0.0000,0.000,291217,,*38
2017-12-29 11:48:33 1514566113.783335: $GPGSA,A,3,8,10,15,18,20,21,24,27,32,138,,,1.7,1.0,1.3*3A
2017-12-29 11:48:34 1514566114.334017: $GPZDA,164835.00,29,12,2017,00,00*67
2017-12-29 11:48:34 1514566114.334189: $GPGGA,164835,3946.9595,N,08404.9815,W,2,10,1.00,322.43,M,-33.324,M,,*77
2017-12-29 11:48:34 1514566114.334255: $GPRMC,164835,A,3946.9595,N,08404.9815,W,0.0000,0.000,291217,,*39
2017-12-29 11:48:34 1514566114.334316: $GPGSA,A,3,8,10,15,18,20,21,24,27,32,138,,,1.7,1.0,1.3*3A
2017-12-29 11:48:35 1514566115.351007: $GPZDA,164836.00,29,12,2017,00,00*64
2017-12-29 11:48:35 1514566115.351226: $GPGGA,164836,3946.9595,N,08404.9815,W,2,10,1.00,322.43,M,-33.324,M,,*74
2017-12-29 11:48:35 1514566115.351296: $GPRMC,164836,A,3946.9595,N,08404.9815,W,0.0000,0.000,291217,,*3A
2017-12-29 11:48:35 1514566115.351357: $GPGSA,A,3,8,10,15,18,20,21,24,27,32,138,,,1.7,1.0,1.3*3A
