2017-12-01 14:05:02 1512155102.976768: {"class":"VERSION","release":"3.16","rev":"3.16-4","proto_major":3,"proto_minor":11}
2017-12-01 14:05:02 1512155102.977169: {"class":"DEVICES","devices":[{"class":"DEVICE","path":"/dev/ttyUSB0","driver":"SiRF","subtype":"9\u0006GSD4e_4.1.2-P1_RPATCH.05-F-GPS-4R-1510281 11/03/2015 307","activated":"2017-12-01T19:05:02.648Z","flags":1,"native":1,"bps":4800,"parity":"N","stopbits":1,"cycle":1.00}]}
2017-12-01 14:05:02 1512155102.977295: {"class":"WATCH","enable":true,"json":false,"nmea":true,"raw":0,"scaled":false,"timing":false,"split24":false,"pps":false}
2017-12-01 14:05:03 1512155103.666210: $GPGSV,3,1,12,10,62,321,15,14,23,247,12,15,17,063,12,18,75,069,13*7D
2017-12-01 14:05:03 1512155103.666394: $GPGSV,3,2,12,20,15,112,11,21,37,180,13,24,50,069,14,27,11,267,12*7F
2017-12-01 14:05:03 1512155103.666464: $GPGSV,3,3,12,32,40,256,13,08,07,301,09,12,04,114,00,138,38,213,16*4D
2017-12-01 14:05:03 1512155103.779848: $GPZDA,190504.00,01,12,2017,00,00*69
2017-12-01 14:05:03 1512155103.780019: $GPGGA,190504,3946.9571,N,08404.9834,W,2,11,0.80,302.70,M,-33.324,M,,*70
2017-12-01 14:05:03 1512155103.780090: $GPRMC,190504,A,3946.9571,N,08404.9834,W,0.1867,0.000,011217,,*36
2017-12-01 14:05:03 1512155103.780246: $GPGSA,A,3,10,14,15,18,20,21,24,27,32,8,138,,2.0,0.8,1.5*34
2017-12-01 14:05:04 1512155104.334410: $GPZDA,190505.00,01,12,2017,00,00*68
2017-12-01 14:05:04 1512155104.334606: $GPGGA,190505,3946.9575,N,08404.9834,W,2,11,0.80,303.34,M,-33.324,M,,*74
2017-12-01 14:05:04 1512155104.334675: $GPRMC,190505,A,3946.9575,N,08404.9834,W,0.0000,0.000,011217,,*3B
2017-12-01 14:05:04 1512155104.334737: $GPGSA,A,3,10,14,15,18,20,21,24,27,32,8,138,,2.0,0.8,1.5*34
2017-12-01 14:05:05 1512155105.330136: $GPZDA,190506.00,01,12,2017,00,00*6B
2017-12-01 14:05:05 1512155105.330297: $GPGGA,190506,3946.9567,N,08404.9841,W,2,11,0.80,301.98,M,-33.324,M,,*72
2017-12-01 14:05:05 1512155105.330363: $GPRMC,190506,A,3946.9567,N,08404.9841,W,0.1867,180.000,011217,,*38
2017-12-01 14:05:05 1512155105.330425: $GPGSA,A,3,10,14,15,18,20,21,24,27,32,8,138,,2.0,0.8,1.5*34
2017-12-01 14:05:06 1512155106.667068: $GPGSV,3,1,12,10,62,321,49,14,23,247,41,15,17,063,39,18,75,069,42*7F
2017-12-01 14:05:06 1512155106.667257: $GPGSV,3,2,12,20,15,112,36,21,37,180,45,24,50,069,47,27,11,267,41*79
2017-12-01 14:05:06 1512155106.667326: $GPGSV,3,3,12,32,40,256,44,08,07,301,29,12,04,114,25,138,38,213,47*4E
2017-12-01 14:05:06 1512155106.780395: $GPZDA,190507.00,01,12,2017,00,00*6A
2017-12-01 14:05:06 1512155106.780547: $GPGGA,190507,3946.9572,N,08404.9841,W,2,12,0.80,302.62,M,-33.324,M,,*72
2017-12-01 14:05:06 1512155106.780614: $GPRMC,190507,A,3946.9572,N,08404.9841,W,0.0000,0.000,011217,,*3C
2017-12-01 14:05:06 1512155106.780676: $GPGSA,A,3,10,14,15,18,20,21,24,27,32,8,12,138,2.0,0.8,1.5*37
2017-12-01 14:05:07 1512155107.332598: $GPZDA,190508.00,01,12,2017,00,00*65
2017-12-01 14:05:07 1512155107.332771: $GPGGA,190508,3946.9568,N,08404.9842,W,2,12,0.80,303.38,M,-33.324,M,,*7B
2017-12-01 14:05:07 1512155107.332839: $GPRMC,190508,A,3946.9568,N,08404.9842,W,0.0000,0.000,011217,,*3B
2017-12-01 14:05:07 1512155107.332900: $GPGSA,A,3,10,14,15,18,20,21,24,27,32,8,12,138,2.0,0.8,1.5*37
2017-12-01 14:05:08 1512155108.331711: $GPZDA,190509.00,01,12,2017,00,00*64
2017-12-01 14:05:08 1512155108.331891: $GPGGA,190509,3946.9568,N,08404.9842,W,2,12,0.80,303.38,M,-33.324,M,,*7A
2017-12-01 14:05:08 1512155108.331958: $GPRMC,190509,A,3946.9568,N,08404.9842,W,0.0000,0.000,011217,,*3A
2017-12-01 14:05:08 1512155108.332019: $GPGSA,A,3,10,14,15,18,20,21,24,27,32,8,12,138,2.0,0.8,1.5*37
2017-12-01 14:05:09 1512155109.672423: $GPGSV,3,1,12,10,62,321,49,14,23,247,40,15,17,063,39,18,75,069,42*7E
2017-12-01 14:05:09 1512155109.672617: $GPGSV,3,2,12,20,15,112,36,21,37,180,45,24,50,069,47,27,11,267,41*79
2017-12-01 14:05:09 1512155109.672688: $GPGSV,3,3,12,32,40,256,44,08,07,301,31,12,04,114,15,138,38,213,47*44
2017-12-01 14:05:09 1512155109.786080: $GPZDA,190510.00,01,12,2017,00,00*6C
2017-12-01 14:05:09 1512155109.786252: $GPGGA,190510,3946.9568,N,08404.9842,W,2,12,0.80,303.38,M,-33.324,M,,*72
2017-12-01 14:05:09 1512155109.786374: $GPRMC,190510,A,3946.9568,N,08404.9842,W,0.0000,0.000,011217,,*32
2017-12-01 14:05:09 1512155109.786438: $GPGSA,A,3,10,14,15,18,20,21,24,27,32,8,12,138,2.0,0.8,1.5*37
2017-12-01 14:05:10 1512155110.336963: $GPZDA,190511.00,01,12,2017,00,00*6D
2017-12-01 14:05:10 1512155110.337134: $GPGGA,190511,3946.9568,N,08404.9835,W,2,12,0.80,303.46,M,-33.324,M,,*7A
2017-12-01 14:05:10 1512155110.337201: $GPRMC,190511,A,3946.9568,N,08404.9835,W,0.0000,0.000,011217,,*33
2017-12-01 14:05:10 1512155110.337262: $GPGSA,A,3,10,14,15,18,20,21,24,27,32,8,12,138,2.0,0.8,1.5*37
2017-12-01 14:05:11 1512155111.338254: $GPZDA,190512.00,01,12,2017,00,00*6E
2017-12-01 14:05:11 1512155111.338448: $GPGGA,190512,3946.9568,N,08404.9835,W,2,12,0.80,303.46,M,-33.324,M,,*79
2017-12-01 14:05:11 1512155111.338517: $GPRMC,190512,A,3946.9568,N,08404.9835,W,0.0000,0.000,011217,,*30
2017-12-01 14:05:11 1512155111.338578: $GPGSA,A,3,10,14,15,18,20,21,24,27,32,8,12,138,2.0,0.8,1.5*37
2017-12-01 14:05:12 1512155112.667333: $GPGSV,3,1,12,10,62,321,49,14,23,247,40,15,17,063,39,18,75,069,41*7D
2017-12-01 14:05:12 1512155112.667511: $GPGSV,3,2,12,20,15,112,36,21,37,180,44,24,50,069,48,27,11,267,41*77
2017-12-01 14:05:12 1512155112.667579: $GPGSV,3,3,12,32,40,256,44,08,07,301,31,12,04,114,26,138,38,213,47*44
2017-12-01 14:05:12 1512155112.780946: $GPZDA,190513.00,01,12,2017,00,00*6F
2017-12-01 14:05:12 1512155112.781117: $GPGGA,190513,3946.9568,N,08404.9835,W,2,12,0.80,303.46,M,-33.324,M,,*78
2017-12-01 14:05:12 1512155112.781184: $GPRMC,190513,A,3946.9568,N,08404.9835,W,0.0000,0.000,011217,,*31
2017-12-01 14:05:12 1512155112.781245: $GPGSA,A,3,10,14,15,18,20,21,24,27,32,8,12,138,2.0,0.8,1.5*37
2017-12-01 14:05:13 1512155113.405993: $GPZDA,190514.00,01,12,2017,00,00*68
2017-12-01 14:05:13 1512155113.406163: $GPGGA,190514,3946.9568,N,08404.9835,W,2,12,0.80,303.46,M,-33.324,M,,*7F
2017-12-01 14:05:13 1512155113.406229: $GPRMC,190514,A,3946.9568,N,08404.9835,W,0.0000,0.000,011217,,*36
2017-12-01 14:05:13 1512155113.406290: $GPGSA,A,3,10,14,15,18,20,21,24,27,32,8,12,138,2.0,0.8,1.5*37
2017-12-01 14:05:14 1512155114.335864: $GPZDA,190515.00,01,12,2017,00,00*69
2017-12-01 14:05:14 1512155114.336056: $GPGGA,190515,3946.9564,N,08404.9836,W,2,12,0.80,304.23,M,-33.324,M,,*75
2017-12-01 14:05:14 1512155114.336128: $GPRMC,190515,A,3946.9564,N,08404.9836,W,0.0000,0.000,011217,,*38
2017-12-01 14:05:14 1512155114.336193: $GPGSA,A,3,10,14,15,18,20,21,24,27,32,8,12,138,2.0,0.8,1.5*37
2017-12-01 14:05:15 1512155115.672621: $GPGSV,3,1,12,10,62,321,49,14,23,247,41,15,17,063,39,18,75,069,42*7F
2017-12-01 14:05:15 1512155115.672808: $GPGSV,3,2,12,20,15,112,36,21,37,180,44,24,50,069,48,27,11,267,42*74
2017-12-01 14:05:15 1512155115.672879: $GPGSV,3,3,12,32,40,256,44,08,07,301,32,12,04,114,27,138,38,213,47*46
2017-12-01 14:05:15 1512155115.786959: $GPZDA,190516.00,01,12,2017,00,00*6A
2017-12-01 14:05:15 1512155115.787150: $GPGGA,190516,3946.9564,N,08404.9836,W,2,12,0.80,304.23,M,-33.324,M,,*76
2017-12-01 14:05:15 1512155115.787221: $GPRMC,190516,A,3946.9564,N,08404.9836,W,0.0000,0.000,011217,,*3B
2017-12-01 14:05:15 1512155115.787286: $GPGSA,A,3,10,14,15,18,20,21,24,27,32,8,12,138,2.0,0.8,1.5*37
2017-12-01 14:05:16 1512155116.336943: $GPZDA,190517.00,01,12,2017,00,00*6B
2017-12-01 14:05:16 1512155116.337120: $GPGGA,190517,3946.9564,N,08404.9836,W,2,12,0.80,304.23,M,-33.324,M,,*77
2017-12-01 14:05:16 1512155116.337191: $GPRMC,190517,A,3946.9564,N,08404.9836,W,0.0000,0.000,011217,,*3A
2017-12-01 14:05:16 1512155116.337256: $GPGSA,A,3,10,14,15,18,20,21,24,27,32,8,12,138,2.0,0.8,1.5*37
2017-12-01 14:05:17 1512155117.336623: $GPZDA,190518.00,01,12,2017,00,00*64
2017-12-01 14:05:17 1512155117.336789: $GPGGA,190518,3946.9564,N,08404.9836,W,2,12,0.80,304.23,M,-33.324,M,,*78
2017-12-01 14:05:17 1512155117.336859: $GPRMC,190518,A,3946.9564,N,08404.9836,W,0.0000,0.000,011217,,*35
2017-12-01 14:05:17 1512155117.336923: $GPGSA,A,3,10,14,15,18,20,21,24,27,32,8,12,138,2.0,0.8,1.5*37
