2017-11-16 13:22:22 1510856542.466057: {"class":"VERSION","release":"3.17","rev":"3.17","proto_major":3,"proto_minor":12}
2017-11-16 13:22:22 1510856542.466516: {"class":"DEVICES","devices":[{"class":"DEVICE","path":"/dev/ttyUSB0","driver":"SiRF","subtype":"9\u0006GSD4e_4.1.2-P1_RPATCH.05-F-GPS-4R-1510281 11/03/2015 307","activated":"2017-11-16T18:22:22.426Z","flags":1,"native":1,"bps":4800,"parity":"N","stopbits":1,"cycle":1.00}]}
2017-11-16 13:22:22 1510856542.466637: {"class":"WATCH","enable":true,"json":false,"nmea":true,"raw":0,"scaled":false,"timing":false,"split24":false,"pps":false}
2017-11-16 13:22:23 1510856543.282694: $GPZDA,182222.00,16,11,2017,00,00*6C
2017-11-16 13:22:23 1510856543.282863: $GPGGA,182222,3946.9606,N,08404.9852,W,2,11,0.80,301.20,M,-33.324,M,,*75
2017-11-16 13:22:23 1510856543.282927: $GPRMC,182222,A,3946.9606,N,08404.9852,W,0.0000,0.000,161117,,*38
2017-11-16 13:22:23 1510856543.282984: $GPGSA,A,3,10,13,15,18,20,21,24,27,29,32,138,,1.6,0.8,1.3*03
2017-11-16 13:22:24 1510856544.637192: $GPGSV,3,1,12,10,24,283,43,13,28,045,46,15,59,051,50,18,55,301,46*7A
2017-11-16 13:22:24 1510856544.637363: $GPGSV,3,2,12,20,50,073,47,21,78,264,47,24,35,138,37,27,17,312,43*7E
2017-11-16 13:22:24 1510856544.637425: $GPGSV,3,3,12,05,03,088,00,29,08,189,28,32,02,226,21,138,38,213,46*40
2017-11-16 13:22:24 1510856544.750884: $GPZDA,182223.00,16,11,2017,00,00*6D
2017-11-16 13:22:24 1510856544.751056: $GPGGA,182223,3946.9606,N,08404.9852,W,2,11,0.80,301.20,M,-33.324,M,,*74
2017-11-16 13:22:24 1510856544.751117: $GPRMC,182223,A,3946.9606,N,08404.9852,W,0.0000,0.000,161117,,*39
2017-11-16 13:22:24 1510856544.751174: $GPGSA,A,3,10,13,15,18,20,21,24,27,29,32,138,,1.6,0.8,1.3*03
2017-11-16 13:22:25 1510856545.376223: $GPZDA,182224.00,16,11,2017,00,00*6A
2017-11-16 13:22:25 1510856545.376383: $GPGGA,182224,3946.9606,N,08404.9852,W,2,11,0.80,301.20,M,-33.324,M,,*73
2017-11-16 13:22:25 1510856545.376445: $GPRMC,182224,A,3946.9606,N,08404.9852,W,0.0000,0.000,161117,,*3E
2017-11-16 13:22:25 1510856545.376501: $GPGSA,A,3,10,13,15,18,20,21,24,27,29,32,138,,1.6,0.8,1.3*03
2017-11-16 13:22:26 1510856546.283099: $GPZDA,182225.00,16,11,2017,00,00*6B
2017-11-16 13:22:26 1510856546.283279: $GPGGA,182225,3946.9606,N,08404.9852,W,2,11,0.80,301.20,M,-33.324,M,,*72
2017-11-16 13:22:26 1510856546.283342: $GPRMC,182225,A,3946.9606,N,08404.9852,W,0.0000,0.000,161117,,*3F
2017-11-16 13:22:26 1510856546.283398: $GPGSA,A,3,10,13,15,18,20,21,24,27,29,32,138,,1.6,0.8,1.3*03
2017-11-16 13:22:27 1510856547.638721: $GPGSV,3,1,12,10,24,283,44,13,28,045,46,15,59,051,50,18,55,301,46*7D
2017-11-16 13:22:27 1510856547.638893: $GPGSV,3,2,12,20,50,073,47,21,78,264,47,24,35,138,37,27,17,312,42*7F
2017-11-16 13:22:27 1510856547.638954: $GPGSV,3,3,12,05,03,088,00,29,08,189,29,32,02,226,21,138,38,213,45*42
2017-11-16 13:22:27 1510856547.752455: $GPZDA,182226.00,16,11,2017,00,00*68
2017-11-16 13:22:27 1510856547.752611: $GPGGA,182226,3946.9606,N,08404.9852,W,2,11,0.80,301.20,M,-33.324,M,,*71
2017-11-16 13:22:27 1510856547.752670: $GPRMC,182226,A,3946.9606,N,08404.9852,W,0.0000,0.000,161117,,*3C
2017-11-16 13:22:27 1510856547.752726: $GPGSA,A,3,10,13,15,18,20,21,24,27,29,32,138,,1.6,0.8,1.3*03
2017-11-16 13:22:28 1510856548.282994: $GPZDA,182227.00,16,11,2017,00,00*69
2017-11-16 13:22:28 1510856548.283176: $GPGGA,182227,3946.9606,N,08404.9852,W,2,11,0.80,301.20,M,-33.324,M,,*70
2017-11-16 13:22:28 1510856548.283237: $GPRMC,182227,A,3946.9606,N,08404.9852,W,0.0000,0.000,161117,,*3D
2017-11-16 13:22:28 1510856548.283293: $GPGSA,A,3,10,13,15,18,20,21,24,27,29,32,138,,1.6,0.8,1.3*03
2017-11-16 13:22:29 1510856549.283687: $GPZDA,182228.00,16,11,2017,00,00*66
2017-11-16 13:22:29 1510856549.283845: $GPGGA,182228,3946.9606,N,08404.9852,W,2,11,0.80,301.20,M,-33.324,M,,*7F
2017-11-16 13:22:29 1510856549.283906: $GPRMC,182228,A,3946.9606,N,08404.9852,W,0.0000,0.000,161117,,*32
2017-11-16 13:22:29 1510856549.283962: $GPGSA,A,3,10,13,15,18,20,21,24,27,29,32,138,,1.6,0.8,1.3*03
2017-11-16 13:22:30 1510856550.637722: $GPGSV,3,1,12,10,24,283,44,13,28,045,46,15,59,051,50,18,55,301,47*7C
2017-11-16 13:22:30 1510856550.637937: $GPGSV,3,2,12,20,50,073,47,21,78,264,47,24,35,138,37,27,17,312,42*7F
2017-11-16 13:22:30 1510856550.638001: $GPGSV,3,3,12,05,03,088,00,29,08,189,29,32,02,226,20,138,38,213,44*42
2017-11-16 13:22:30 1510856550.751045: $GPZDA,182229.00,16,11,2017,00,00*67
2017-11-16 13:22:30 1510856550.751204: $GPGGA,182229,3946.9606,N,08404.9852,W,2,11,0.80,301.20,M,-33.324,M,,*7E
2017-11-16 13:22:30 1510856550.751266: $GPRMC,182229,A,3946.9606,N,08404.9852,W,0.0000,0.000,161117,,*33
2017-11-16 13:22:30 1510856550.751322: $GPGSA,A,3,10,13,15,18,20,21,24,27,29,32,138,,1.6,0.8,1.3*03
2017-11-16 13:22:31 1510856551.283076: $GPZDA,182230.00,16,11,2017,00,00*6F
2017-11-16 13:22:31 1510856551.283237: $GPGGA,182230,3946.9606,N,08404.9852,W,2,11,0.80,301.20,M,-33.324,M,,*76
2017-11-16 13:22:31 1510856551.283299: $GPRMC,182230,A,3946.9606,N,08404.9852,W,0.0000,0.000,161117,,*3B
2017-11-16 13:22:31 1510856551.283355: $GPGSA,A,3,10,13,15,18,20,21,24,27,29,32,138,,1.6,0.8,1.3*03
2017-11-16 13:22:32 1510856552.296394: $GPZDA,182231.00,16,11,2017,00,00*6E
2017-11-16 13:22:32 1510856552.296576: $GPGGA,182231,3946.9606,N,08404.9852,W,2,11,0.80,301.20,M,-33.324,M,,*77
2017-11-16 13:22:32 1510856552.296639: $GPRMC,182231,A,3946.9606,N,08404.9852,W,0.0000,0.000,161117,,*3A
2017-11-16 13:22:32 1510856552.296695: $GPGSA,A,3,10,13,15,18,20,21,24,27,29,32,138,,1.6,0.8,1.3*03
2017-11-16 13:22:33 1510856553.619642: $GPGSV,3,1,12,10,24,283,44,13,28,045,46,15,59,051,51,18,55,301,46*7C
2017-11-16 13:22:33 1510856553.619809: $GPGSV,3,2,12,20,50,073,47,21,78,264,47,24,35,138,37,27,17,312,42*7F
2017-11-16 13:22:33 1510856553.619869: $GPGSV,3,3,12,05,03,088,00,29,08,189,29,32,02,226,20,138,38,213,44*42
2017-11-16 13:22:33 1510856553.732930: $GPZDA,182232.00,16,11,2017,00,00*6D
2017-11-16 13:22:33 1510856553.733087: $GPGGA,182232,3946.9606,N,08404.9852,W,2,11,0.80,301.20,M,-33.324,M,,*74
2017-11-16 13:22:33 1510856553.733147: $GPRMC,182232,A,3946.9606,N,08404.9852,W,0.0000,0.000,161117,,*39
2017-11-16 13:22:33 1510856553.733203: $GPGSA,A,3,10,13,15,18,20,21,24,27,29,32,138,,1.6,0.8,1.3*03
2017-11-16 13:22:34 1510856554.302542: $GPZDA,182233.00,16,11,2017,00,00*6C
2017-11-16 13:22:34 1510856554.302712: $GPGGA,182233,3946.9606,N,08404.9852,W,2,11,0.80,301.20,M,-33.324,M,,*75
2017-11-16 13:22:34 1510856554.302774: $GPRMC,182233,A,3946.9606,N,08404.9852,W,0.0000,0.000,161117,,*38
2017-11-16 13:22:34 1510856554.302830: $GPGSA,A,3,10,13,15,18,20,21,24,27,29,32,138,,1.6,0.8,1.3*03
2017-11-16 13:22:35 1510856555.303014: $GPZDA,182234.00,16,11,2017,00,00*6B
2017-11-16 13:22:35 1510856555.303181: $GPGGA,182234,3946.9606,N,08404.9852,W,2,11,0.80,301.20,M,-33.324,M,,*72
2017-11-16 13:22:35 1510856555.303243: $GPRMC,182234,A,3946.9606,N,08404.9852,W,0.0000,0.000,161117,,*3F
2017-11-16 13:22:35 1510856555.303299: $GPGSA,A,3,10,13,15,18,20,21,24,27,29,32,138,,1.6,0.8,1.3*03
2017-11-16 13:22:36 1510856556.612503: $GPGSV,3,1,12,10,24,283,44,13,28,045,47,15,59,051,51,18,55,301,47*7C
2017-11-16 13:22:36 1510856556.612805: $GPGSV,3,2,12,20,50,073,47,21,78,264,47,24,35,138,38,27,17,312,42*70
2017-11-16 13:22:36 1510856556.612907: $GPGSV,3,3,12,05,03,088,00,29,08,189,30,32,02,226,21,138,38,213,45*4A
2017-11-16 13:22:36 1510856556.725950: $GPZDA,182235.00,16,11,2017,00,00*6A
2017-11-16 13:22:36 1510856556.726105: $GPGGA,182235,3946.9606,N,08404.9852,W,2,11,0.80,301.20,M,-33.324,M,,*73
2017-11-16 13:22:36 1510856556.726187: $GPRMC,182235,A,3946.9606,N,08404.9852,W,0.0000,0.000,161117,,*3E
2017-11-16 13:22:36 1510856556.726244: $GPGSA,A,3,10,13,15,18,20,21,24,27,29,32,138,,1.6,0.8,1.3*03
2017-11-16 13:22:37 1510856557.289327: $GPZDA,182236.00,16,11,2017,00,00*69
2017-11-16 13:22:37 1510856557.289495: $GPGGA,182236,3946.9606,N,08404.9852,W,2,11,0.80,301.20,M,-33.324,M,,*70
2017-11-16 13:22:37 1510856557.289556: $GPRMC,182236,A,3946.9606,N,08404.9852,W,0.0000,0.000,161117,,*3D
2017-11-16 13:22:37 1510856557.289613: $GPGSA,A,3,10,13,15,18,20,21,24,27,29,32,138,,1.6,0.8,1.3*03
