2017-11-16 14:10:01 1510859401.498571: {"class":"VERSION","release":"3.17","rev":"3.17","proto_major":3,"proto_minor":12}
2017-11-16 14:10:01 1510859401.499001: {"class":"DEVICES","devices":[{"class":"DEVICE","path":"/dev/ttyUSB0","driver":"SiRF","subtype":"9\u0006GSD4e_4.1.2-P1_RPATCH.05-F-GPS-4R-1510281 11/03/2015 307","activated":"2017-11-16T19:10:01.421Z","flags":1,"native":1,"bps":4800,"parity":"N","stopbits":1,"cycle":1.00}]}
2017-11-16 14:10:01 1510859401.499143: {"class":"WATCH","enable":true,"json":false,"nmea":true,"raw":0,"scaled":false,"timing":false,"split24":false,"pps":false}
2017-11-16 14:10:01 1510859401.535135: $GPZDA,191000.00,16,11,2017,00,00*6C
2017-11-16 14:10:01 1510859401.535285: $GPGGA,191000,3946.9566,N,08404.9851,W,2,11,0.80,305.47,M,-33.324,M,,*76
2017-11-16 14:10:01 1510859401.535346: $GPRMC,191000,A,3946.9566,N,08404.9851,W,0.0000,0.000,161117,,*3E
2017-11-16 14:10:01 1510859401.535402: $GPGSA,A,3,10,13,15,18,20,21,24,32,8,27,138,,1.6,0.8,1.3*30
2017-11-16 14:10:02 1510859402.532255: $GPZDA,191001.00,16,11,2017,00,00*6D
2017-11-16 14:10:02 1510859402.532421: $GPGGA,191001,3946.9566,N,08404.9851,W,2,11,0.80,305.47,M,-33.324,M,,*77
2017-11-16 14:10:02 1510859402.532509: $GPRMC,191001,A,3946.9566,N,08404.9851,W,0.0000,0.000,161117,,*3F
2017-11-16 14:10:02 1510859402.532567: $GPGSA,A,3,10,13,15,18,20,21,24,32,8,27,138,,1.6,0.8,1.3*30
2017-11-16 14:10:03 1510859403.898127: $GPGSV,3,1,12,10,40,300,45,13,09,048,34,15,39,052,51,18,70,331,47*7E
2017-11-16 14:10:03 1510859403.898296: $GPGSV,3,2,12,20,34,094,47,21,66,192,46,24,50,114,47,32,19,237,45*71
2017-11-16 14:10:03 1510859403.898356: $GPGSV,3,3,12,08,05,324,32,27,19,291,36,14,03,231,10,138,38,213,45*46
2017-11-16 14:10:04 1510859404.011420: $GPZDA,191002.00,16,11,2017,00,00*6E
2017-11-16 14:10:04 1510859404.011634: $GPGGA,191002,3946.9566,N,08404.9851,W,2,12,0.80,305.47,M,-33.324,M,,*77
2017-11-16 14:10:04 1510859404.011699: $GPRMC,191002,A,3946.9566,N,08404.9851,W,0.0000,0.000,161117,,*3C
2017-11-16 14:10:04 1510859404.011756: $GPGSA,A,3,10,13,15,18,20,21,24,32,8,27,14,138,1.6,0.8,1.3*35
2017-11-16 14:10:04 1510859404.636755: $GPZDA,191003.00,16,11,2017,00,00*6F
2017-11-16 14:10:04 1510859404.636923: $GPGGA,191003,3946.9566,N,08404.9851,W,2,12,0.80,305.47,M,-33.324,M,,*76
2017-11-16 14:10:04 1510859404.636985: $GPRMC,191003,A,3946.9566,N,08404.9851,W,0.0000,0.000,161117,,*3D
2017-11-16 14:10:04 1510859404.637041: $GPGSA,A,3,10,13,15,18,20,21,24,32,8,27,14,138,1.6,0.8,1.3*35
2017-11-16 14:10:05 1510859405.535169: $GPZDA,191004.00,16,11,2017,00,00*68
2017-11-16 14:10:05 1510859405.541135: $GPGGA,191004,3946.9566,N,08404.9851,W,2,12,0.80,305.47,M,-33.324,M,,*71
2017-11-16 14:10:05 1510859405.541249: $GPRMC,191004,A,3946.9566,N,08404.9851,W,0.0000,0.000,161117,,*3A
2017-11-16 14:10:05 1510859405.541308: $GPGSA,A,3,10,13,15,18,20,21,24,32,8,27,14,138,1.6,0.8,1.3*35
2017-11-16 14:10:06 1510859406.898445: $GPGSV,3,1,12,10,40,300,45,13,09,048,35,15,39,052,51,18,70,331,48*70
2017-11-16 14:10:06 1510859406.898668: $GPGSV,3,2,12,20,34,094,46,21,66,192,47,24,50,114,46,32,19,237,45*70
2017-11-16 14:10:06 1510859406.898730: $GPGSV,3,3,12,08,05,324,25,27,19,291,36,14,03,231,12,138,38,213,44*43
2017-11-16 14:10:07 1510859407.012056: $GPZDA,191005.00,16,11,2017,00,00*69
2017-11-16 14:10:07 1510859407.012214: $GPGGA,191005,3946.9566,N,08404.9851,W,2,12,0.80,305.47,M,-33.324,M,,*70
2017-11-16 14:10:07 1510859407.012275: $GPRMC,191005,A,3946.9566,N,08404.9851,W,0.0000,0.000,161117,,*3B
2017-11-16 14:10:07 1510859407.012331: $GPGSA,A,3,10,13,15,18,20,21,24,32,8,27,14,138,1.6,0.8,1.3*35
2017-11-16 14:10:07 1510859407.556362: $GPZDA,191006.00,16,11,2017,00,00*6A
2017-11-16 14:10:07 1510859407.556548: $GPGGA,191006,3946.9566,N,08404.9851,W,2,12,0.80,305.47,M,-33.324,M,,*73
2017-11-16 14:10:07 1510859407.556629: $GPRMC,191006,A,3946.9566,N,08404.9851,W,0.0000,0.000,161117,,*38
2017-11-16 14:10:07 1510859407.556688: $GPGSA,A,3,10,13,15,18,20,21,24,32,8,27,14,138,1.6,0.8,1.3*35
2017-11-16 14:10:08 1510859408.534737: $GPZDA,191007.00,16,11,2017,00,00*6B
2017-11-16 14:10:08 1510859408.534959: $GPGGA,191007,3946.9566,N,08404.9851,W,2,12,0.80,305.47,M,-33.324,M,,*72
2017-11-16 14:10:08 1510859408.535023: $GPRMC,191007,A,3946.9566,N,08404.9851,W,0.0000,0.000,161117,,*39
2017-11-16 14:10:08 1510859408.535080: $GPGSA,A,3,10,13,15,18,20,21,24,32,8,27,14,138,1.6,0.8,1.3*35
2017-11-16 14:10:09 1510859409.898943: $GPGSV,3,1,12,10,40,300,44,13,09,048,35,15,39,052,51,18,70,331,47*7E
2017-11-16 14:10:09 1510859409.899088: $GPGSV,3,2,12,20,34,094,46,21,66,192,46,24,50,114,47,32,19,237,46*73
2017-11-16 14:10:09 1510859409.899148: $GPGSV,3,3,12,08,05,324,21,27,19,291,36,14,03,231,00,138,38,213,44*44
2017-11-16 14:10:10 1510859410.012377: $GPZDA,191008.00,16,11,2017,00,00*64
2017-11-16 14:10:10 1510859410.012551: $GPGGA,191008,3946.9566,N,08404.9851,W,2,11,0.80,305.47,M,-33.324,M,,*7E
2017-11-16 14:10:10 1510859410.012630: $GPRMC,191008,A,3946.9566,N,08404.9851,W,0.0000,0.000,161117,,*36
2017-11-16 14:10:10 1510859410.012687: $GPGSA,A,3,10,13,15,18,20,21,24,32,8,27,138,,1.6,0.8,1.3*30
2017-11-16 14:10:10 1510859410.562241: $GPZDA,191009.00,16,11,2017,00,00*65
2017-11-16 14:10:10 1510859410.564071: $GPGGA,191009,3946.9566,N,08404.9851,W,2,11,0.80,305.47,M,-33.324,M,,*7F
2017-11-16 14:10:10 1510859410.564162: $GPRMC,191009,A,3946.9566,N,08404.9851,W,0.0000,0.000,161117,,*37
2017-11-16 14:10:10 1510859410.564221: $GPGSA,A,3,10,13,15,18,20,21,24,32,8,27,138,,1.6,0.8,1.3*30
