2017-11-16 15:09:03 1510862943.095581: {"class":"VERSION","release":"3.17","rev":"3.17","proto_major":3,"proto_minor":12}
2017-11-16 15:09:03 1510862943.096058: {"class":"DEVICES","devices":[{"class":"DEVICE","path":"/dev/ttyUSB0","driver":"SiRF","subtype":"9\u0006GSD4e_4.1.2-P1_RPATCH.05-F-GPS-4R-1510281 11/03/2015 307","activated":"2017-11-16T20:09:02.529Z","flags":1,"native":1,"bps":4800,"parity":"N","stopbits":1,"cycle":1.00}]}
2017-11-16 15:09:03 1510862943.096176: {"class":"WATCH","enable":true,"json":false,"nmea":true,"raw":0,"scaled":false,"timing":false,"split24":false,"pps":false}
2017-11-16 15:09:03 1510862943.394895: $GPZDA,200902.00,16,11,2017,00,00*6C
2017-11-16 15:09:03 1510862943.397634: $GPGGA,200902,3946.9586,N,08404.9845,W,2,12,0.80,299.48,M,-33.324,M,,*75
2017-11-16 15:09:03 1510862943.397712: $GPRMC,200902,A,3946.9586,N,08404.9845,W,0.0000,0.000,161117,,*35
2017-11-16 15:09:03 1510862943.397770: $GPGSA,A,3,8,10,14,15,18,20,21,24,27,32,12,138,1.6,0.8,1.3*34
2017-11-16 15:09:04 1510862944.730555: $GPGSV,3,1,12,08,07,300,35,10,62,321,51,14,23,247,44,15,17,063,41*74
2017-11-16 15:09:04 1510862944.730727: $GPGSV,3,2,12,18,76,069,47,20,14,114,36,21,38,181,44,24,50,069,48*79
2017-11-16 15:09:04 1510862944.730787: $GPGSV,3,3,12,27,11,267,43,32,40,258,47,12,04,114,23,138,38,213,43*46
2017-11-16 15:09:04 1510862944.843825: $GPZDA,200903.00,16,11,2017,00,00*6D
2017-11-16 15:09:04 1510862944.843982: $GPGGA,200903,3946.9586,N,08404.9845,W,2,12,0.80,299.48,M,-33.324,M,,*74
2017-11-16 15:09:04 1510862944.844044: $GPRMC,200903,A,3946.9586,N,08404.9845,W,0.0000,0.000,161117,,*34
2017-11-16 15:09:04 1510862944.844100: $GPGSA,A,3,8,10,14,15,18,20,21,24,27,32,12,138,1.6,0.8,1.3*34
2017-11-16 15:09:05 1510862945.395922: $GPZDA,200904.00,16,11,2017,00,00*6A
2017-11-16 15:09:05 1510862945.396083: $GPGGA,200904,3946.9586,N,08404.9845,W,2,12,0.80,299.48,M,-33.324,M,,*73
2017-11-16 15:09:05 1510862945.396144: $GPRMC,200904,A,3946.9586,N,08404.9845,W,0.0000,0.000,161117,,*33
2017-11-16 15:09:05 1510862945.396200: $GPGSA,A,3,8,10,14,15,18,20,21,24,27,32,12,138,1.6,0.8,1.3*34
2017-11-16 15:09:06 1510862946.393759: $GPZDA,200905.00,16,11,2017,00,00*6B
2017-11-16 15:09:06 1510862946.393952: $GPGGA,200905,3946.9586,N,08404.9845,W,2,12,0.80,299.48,M,-33.324,M,,*72
2017-11-16 15:09:06 1510862946.394014: $GPRMC,200905,A,3946.9586,N,08404.9845,W,0.0000,0.000,161117,,*32
2017-11-16 15:09:06 1510862946.394072: $GPGSA,A,3,8,10,14,15,18,20,21,24,27,32,12,138,1.6,0.8,1.3*34
2017-11-16 15:09:07 1510862947.730948: $GPGSV,3,1,12,08,07,300,35,10,62,321,51,14,23,247,44,15,17,063,41*74
2017-11-16 15:09:07 1510862947.731165: $GPGSV,3,2,12,18,76,069,47,20,14,114,36,21,38,181,44,24,50,069,48*79
2017-11-16 15:09:07 1510862947.731227: $GPGSV,3,3,12,27,11,267,42,32,40,258,47,12,04,114,23,138,38,213,43*47
2017-11-16 15:09:07 1510862947.846887: $GPZDA,200906.00,16,11,2017,00,00*68
2017-11-16 15:09:07 1510862947.847037: $GPGGA,200906,3946.9586,N,08404.9845,W,2,12,0.80,299.48,M,-33.324,M,,*71
2017-11-16 15:09:07 1510862947.847098: $GPRMC,200906,A,3946.9586,N,08404.9845,W,0.0000,0.000,161117,,*31
2017-11-16 15:09:07 1510862947.847185: $GPGSA,A,3,8,10,14,15,18,20,21,24,27,32,12,138,1.6,0.8,1.3*34
2017-11-16 15:09:08 1510862948.387987: $GPZDA,200907.00,16,11,2017,00,00*69
2017-11-16 15:09:08 1510862948.388103: $GPGGA,200907,3946.9586,N,08404.9845,W,2,12,0.80,299.48,M,-33.324,M,,*70
2017-11-16 15:09:08 1510862948.388135: $GPRMC,200907,A,3946.9586,N,08404.9845,W,0.0000,0.000,161117,,*30
2017-11-16 15:09:08 1510862948.388164: $GPGSA,A,3,8,10,14,15,18,20,21,24,27,32,12,138,1.6,0.8,1.3*34
2017-11-16 15:09:09 1510862949.393874: $GPZDA,200908.00,16,11,2017,00,00*66
2017-11-16 15:09:09 1510862949.394002: $GPGGA,200908,3946.9586,N,08404.9845,W,2,12,0.80,299.48,M,-33.324,M,,*7F
2017-11-16 15:09:09 1510862949.394034: $GPRMC,200908,A,3946.9586,N,08404.9845,W,0.0000,0.000,161117,,*3F
2017-11-16 15:09:09 1510862949.394062: $GPGSA,A,3,8,10,14,15,18,20,21,24,27,32,12,138,1.6,0.8,1.3*34
2017-11-16 15:09:10 1510862950.729060: $GPGSV,3,1,12,08,07,300,34,10,62,321,50,14,23,247,44,15,17,063,41*74
2017-11-16 15:09:10 1510862950.729282: $GPGSV,3,2,12,18,76,069,47,20,14,114,36,21,38,181,44,24,50,069,48*79
2017-11-16 15:09:10 1510862950.729345: $GPGSV,3,3,12,27,11,267,42,32,40,258,47,12,04,114,23,138,38,213,44*40
2017-11-16 15:09:10 1510862950.842708: $GPZDA,200909.00,16,11,2017,00,00*67
2017-11-16 15:09:10 1510862950.842921: $GPGGA,200909,3946.9586,N,08404.9845,W,2,12,0.80,299.48,M,-33.324,M,,*7E
2017-11-16 15:09:10 1510862950.842988: $GPRMC,200909,A,3946.9586,N,08404.9845,W,0.0000,0.000,161117,,*3E
2017-11-16 15:09:10 1510862950.843068: $GPGSA,A,3,8,10,14,15,18,20,21,24,27,32,12,138,1.6,0.8,1.3*34
2017-11-16 15:09:11 1510862951.467713: $GPZDA,200910.00,16,11,2017,00,00*6F
2017-11-16 15:09:11 1510862951.467935: $GPGGA,200910,3946.9586,N,08404.9845,W,2,12,0.80,299.48,M,-33.324,M,,*76
2017-11-16 15:09:11 1510862951.468024: $GPRMC,200910,A,3946.9586,N,08404.9845,W,0.0000,0.000,161117,,*36
2017-11-16 15:09:11 1510862951.468083: $GPGSA,A,3,8,10,14,15,18,20,21,24,27,32,12,138,1.6,0.8,1.3*34
2017-11-16 15:09:12 1510862952.394860: $GPZDA,200911.00,16,11,2017,00,00*6E
2017-11-16 15:09:12 1510862952.395048: $GPGGA,200911,3946.9586,N,08404.9845,W,2,12,0.80,299.48,M,-33.324,M,,*77
2017-11-16 15:09:12 1510862952.395112: $GPRMC,200911,A,3946.9586,N,08404.9845,W,0.0000,0.000,161117,,*37
2017-11-16 15:09:12 1510862952.395169: $GPGSA,A,3,8,10,14,15,18,20,21,24,27,32,12,138,1.6,0.8,1.3*34
