2017-12-01 14:02:08 1512154928.126822: {"class":"VERSION","release":"3.16","rev":"3.16-4","proto_major":3,"proto_minor":11}
2017-12-01 14:02:08 1512154928.127219: {"class":"DEVICES","devices":[{"class":"DEVICE","path":"/dev/ttyUSB0","driver":"SiRF","subtype":"9\u0006GSD4e_4.1.2-P1_RPATCH.05-F-GPS-4R-1510281 11/03/2015 307","activated":"2017-12-01T19:02:08.008Z","flags":1,"native":1,"bps":4800,"parity":"N","stopbits":1,"cycle":1.00}]}
2017-12-01 14:02:08 1512154928.127340: {"class":"WATCH","enable":true,"json":false,"nmea":true,"raw":0,"scaled":false,"timing":false,"split24":false,"pps":false}
2017-12-01 14:02:08 1512154928.416463: $GPZDA,190209.00,01,12,2017,00,00*63
2017-12-01 14:02:08 1512154928.416638: $GPGGA,190209,3946.9553,N,08404.9824,W,2,12,0.80,306.68,M,-33.324,M,,*75
2017-12-01 14:02:08 1512154928.416705: $GPRMC,190209,A,3946.9553,N,08404.9824,W,0.0000,0.000,011217,,*35
2017-12-01 14:02:08 1512154928.416766: $GPGSA,A,3,8,10,14,15,18,20,21,24,27,32,12,138,2.0,0.8,1.5*37
2017-12-01 14:02:09 1512154929.416479: $GPZDA,190210.00,01,12,2017,00,00*6B
2017-12-01 14:02:09 1512154929.416672: $GPGGA,190210,3946.9553,N,08404.9824,W,2,12,0.80,306.68,M,-33.324,M,,*7D
2017-12-01 14:02:09 1512154929.416740: $GPRMC,190210,A,3946.9553,N,08404.9824,W,0.0000,0.000,011217,,*3D
2017-12-01 14:02:09 1512154929.416803: $GPGSA,A,3,8,10,14,15,18,20,21,24,27,32,12,138,2.0,0.8,1.5*37
2017-12-01 14:02:10 1512154930.753579: $GPGSV,3,1,12,08,08,303,32,10,61,321,49,14,22,246,36,15,18,061,38*73
2017-12-01 14:02:10 1512154930.753731: $GPGSV,3,2,12,18,76,064,43,20,16,112,41,21,39,180,45,24,50,070,49*7C
2017-12-01 14:02:10 1512154930.753798: $GPGSV,3,3,12,27,11,268,43,32,39,256,44,12,03,114,19,138,38,213,47*40
2017-12-01 14:02:10 1512154930.866943: $GPZDA,190211.00,01,12,2017,00,00*6A
2017-12-01 14:02:10 1512154930.867131: $GPGGA,190211,3946.9553,N,08404.9824,W,2,12,0.80,306.68,M,-33.324,M,,*7C
2017-12-01 14:02:10 1512154930.867198: $GPRMC,190211,A,3946.9553,N,08404.9824,W,0.0000,0.000,011217,,*3C
2017-12-01 14:02:10 1512154930.867259: $GPGSA,A,3,8,10,14,15,18,20,21,24,27,32,12,138,2.0,0.8,1.5*37
2017-12-01 14:02:11 1512154931.417763: $GPZDA,190212.00,01,12,2017,00,00*69
2017-12-01 14:02:11 1512154931.417960: $GPGGA,190212,3946.9553,N,08404.9824,W,2,12,0.80,306.68,M,-33.324,M,,*7F
2017-12-01 14:02:11 1512154931.418044: $GPRMC,190212,A,3946.9553,N,08404.9824,W,0.0000,0.000,011217,,*3F
2017-12-01 14:02:11 1512154931.418107: $GPGSA,A,3,8,10,14,15,18,20,21,24,27,32,12,138,2.0,0.8,1.5*37
2017-12-01 14:02:12 1512154932.412413: $GPZDA,190213.00,01,12,2017,00,00*68
2017-12-01 14:02:12 1512154932.412585: $GPGGA,190213,3946.9553,N,08404.9824,W,2,12,0.80,306.68,M,-33.324,M,,*7E
2017-12-01 14:02:12 1512154932.412651: $GPRMC,190213,A,3946.9553,N,08404.9824,W,0.0000,0.000,011217,,*3E
2017-12-01 14:02:12 1512154932.412711: $GPGSA,A,3,8,10,14,15,18,20,21,24,27,32,12,138,2.0,0.8,1.5*37
2017-12-01 14:02:13 1512154933.753097: $GPGSV,3,1,12,08,08,303,32,10,61,321,49,14,22,246,32,15,18,061,38*77
2017-12-01 14:02:13 1512154933.753282: $GPGSV,3,2,12,18,76,064,43,20,16,112,41,21,39,180,45,24,50,070,49*7C
2017-12-01 14:02:13 1512154933.753348: $GPGSV,3,3,12,27,11,268,42,32,39,256,44,12,03,114,19,138,38,213,47*41
2017-12-01 14:02:13 1512154933.866926: $GPZDA,190214.00,01,12,2017,00,00*6F
2017-12-01 14:02:13 1512154933.867241: $GPGGA,190214,3946.9553,N,08404.9824,W,2,12,0.80,306.68,M,-33.324,M,,*79
2017-12-01 14:02:13 1512154933.867395: $GPRMC,190214,A,3946.9553,N,08404.9824,W,0.0000,0.000,011217,,*39
2017-12-01 14:02:13 1512154933.867527: $GPGSA,A,3,8,10,14,15,18,20,21,24,27,32,12,138,2.0,0.8,1.5*37
2017-12-01 14:02:14 1512154934.491900: $GPZDA,190215.00,01,12,2017,00,00*6E
2017-12-01 14:02:14 1512154934.492089: $GPGGA,190215,3946.9553,N,08404.9824,W,2,12,0.80,306.68,M,-33.324,M,,*78
2017-12-01 14:02:14 1512154934.492157: $GPRMC,190215,A,3946.9553,N,08404.9824,W,0.0000,0.000,011217,,*38
2017-12-01 14:02:14 1512154934.492218: $GPGSA,A,3,8,10,14,15,18,20,21,24,27,32,12,138,2.0,0.8,1.5*37
2017-12-01 14:02:15 1512154935.419057: $GPZDA,190216.00,01,12,2017,00,00*6D
2017-12-01 14:02:15 1512154935.419268: $GPGGA,190216,3946.9553,N,08404.9824,W,2,12,0.80,306.68,M,-33.324,M,,*7B
2017-12-01 14:02:15 1512154935.419338: $GPRMC,190216,A,3946.9553,N,08404.9824,W,0.0000,0.000,011217,,*3B
2017-12-01 14:02:15 1512154935.419399: $GPGSA,A,3,8,10,14,15,18,20,21,24,27,32,12,138,2.0,0.8,1.5*37
2017-12-01 14:02:16 1512154936.753947: $GPGSV,3,1,12,08,08,303,23,10,61,321,50,14,22,246,35,15,18,061,38*78
2017-12-01 14:02:16 1512154936.754340: $GPGSV,3,2,12,18,76,064,43,20,16,112,41,21,39,180,44,24,50,070,49*7D
2017-12-01 14:02:16 1512154936.754471: $GPGSV,3,3,12,27,11,268,43,32,39,256,43,12,03,114,19,138,38,213,46*46
2017-12-01 14:02:16 1512154936.867274: $GPZDA,190217.00,01,12,2017,00,00*6C
2017-12-01 14:02:16 1512154936.867443: $GPGGA,190217,3946.9553,N,08404.9824,W,2,12,0.80,306.68,M,-33.324,M,,*7A
2017-12-01 14:02:16 1512154936.867509: $GPRMC,190217,A,3946.9553,N,08404.9824,W,0.0000,0.000,011217,,*3A
2017-12-01 14:02:16 1512154936.867569: $GPGSA,A,3,8,10,14,15,18,20,21,24,27,32,12,138,2.0,0.8,1.5*37
2017-12-01 14:02:17 1512154937.416894: $GPZDA,190218.00,01,12,2017,00,00*63
2017-12-01 14:02:17 1512154937.417093: $GPGGA,190218,3946.9557,N,08404.9824,W,2,12,0.80,307.32,M,-33.324,M,,*7F
2017-12-01 14:02:17 1512154937.417161: $GPRMC,190218,A,3946.9557,N,08404.9824,W,0.0000,0.000,011217,,*31
2017-12-01 14:02:17 1512154937.417222: $GPGSA,A,3,8,10,14,15,18,20,21,24,27,32,12,138,2.0,0.8,1.5*37
2017-12-01 14:02:18 1512154938.420252: $GPZDA,190219.00,01,12,2017,00,00*62
2017-12-01 14:02:18 1512154938.420424: $GPGGA,190219,3946.9557,N,08404.9824,W,2,12,0.80,307.32,M,-33.324,M,,*7E
2017-12-01 14:02:18 1512154938.420492: $GPRMC,190219,A,3946.9557,N,08404.9824,W,0.0000,0.000,011217,,*30
2017-12-01 14:02:18 1512154938.420554: $GPGSA,A,3,8,10,14,15,18,20,21,24,27,32,12,138,2.0,0.8,1.5*37
2017-12-01 14:02:19 1512154939.753901: $GPGSV,3,1,12,08,08,303,20,10,61,321,49,14,22,246,36,15,18,061,38*70
2017-12-01 14:02:19 1512154939.754089: $GPGSV,3,2,12,18,76,064,43,20,16,112,41,21,39,180,44,24,50,070,49*7D
2017-12-01 14:02:19 1512154939.754154: $GPGSV,3,3,12,27,11,268,43,32,39,256,43,12,03,114,19,138,38,213,48*48
2017-12-01 14:02:19 1512154939.867259: $GPZDA,190220.00,01,12,2017,00,00*68
2017-12-01 14:02:19 1512154939.867414: $GPGGA,190220,3946.9557,N,08404.9824,W,2,12,0.80,307.32,M,-33.324,M,,*74
2017-12-01 14:02:19 1512154939.867480: $GPRMC,190220,A,3946.9557,N,08404.9824,W,0.0000,0.000,011217,,*3A
2017-12-01 14:02:19 1512154939.867541: $GPGSA,A,3,8,10,14,15,18,20,21,24,27,32,12,138,2.0,0.8,1.5*37
2017-12-01 14:02:20 1512154940.412329: $GPZDA,190221.00,01,12,2017,00,00*69
2017-12-01 14:02:20 1512154940.412501: $GPGGA,190221,3946.9554,N,08404.9825,W,2,12,0.80,308.08,M,-33.324,M,,*71
2017-12-01 14:02:20 1512154940.412567: $GPRMC,190221,A,3946.9554,N,08404.9825,W,0.0000,0.000,011217,,*39
2017-12-01 14:02:20 1512154940.412628: $GPGSA,A,3,8,10,14,15,18,20,21,24,27,32,12,138,2.0,0.8,1.5*37
2017-12-01 14:02:21 1512154941.416469: $GPZDA,190222.00,01,12,2017,00,00*6A
2017-12-01 14:02:21 1512154941.416644: $GPGGA,190222,3946.9554,N,08404.9825,W,2,12,0.80,308.08,M,-33.324,M,,*72
2017-12-01 14:02:21 1512154941.416710: $GPRMC,190222,A,3946.9554,N,08404.9825,W,0.0000,0.000,011217,,*3A
2017-12-01 14:02:21 1512154941.416770: $GPGSA,A,3,8,10,14,15,18,20,21,24,27,32,12,138,2.0,0.8,1.5*37
2017-12-01 14:02:22 1512154942.782171: $GPGSV,3,1,12,08,08,303,29,10,61,321,50,14,22,246,36,15,18,061,38*71
2017-12-01 14:02:22 1512154942.782328: $GPGSV,3,2,12,18,76,064,43,20,16,112,41,21,39,180,45,24,50,070,49*7C
2017-12-01 14:02:22 1512154942.782395: $GPGSV,3,3,12,27,11,268,43,32,39,256,43,12,03,114,18,138,38,213,47*46
2017-12-01 14:02:22 1512154942.895562: $GPZDA,190223.00,01,12,2017,00,00*6B
2017-12-01 14:02:22 1512154942.895733: $GPGGA,190223,3946.9554,N,08404.9825,W,2,12,0.80,308.08,M,-33.324,M,,*73
2017-12-01 14:02:22 1512154942.895799: $GPRMC,190223,A,3946.9554,N,08404.9825,W,0.0000,0.000,011217,,*3B
2017-12-01 14:02:22 1512154942.895882: $GPGSA,A,3,8,10,14,15,18,20,21,24,27,32,12,138,2.0,0.8,1.5*37
