2017-11-16 17:37:49 1510871869.570958: {"class":"VERSION","release":"3.17","rev":"3.17","proto_major":3,"proto_minor":12}
2017-11-16 17:37:49 1510871869.571399: {"class":"DEVICES","devices":[{"class":"DEVICE","path":"/dev/ttyUSB0","driver":"SiRF","subtype":"9\u0006GSD4e_4.1.2-P1_RPATCH.05-F-GPS-4R-1510281 11/03/2015 307","activated":"2017-11-16T22:37:49.560Z","flags":1,"native":1,"bps":4800,"parity":"N","stopbits":1,"cycle":1.00}]}
2017-11-16 17:37:49 1510871869.571510: {"class":"WATCH","enable":true,"json":false,"nmea":true,"raw":0,"scaled":false,"timing":false,"split24":false,"pps":false}
2017-11-16 17:37:50 1510871870.389712: $GPZDA,223749.00,16,11,2017,00,00*6C
2017-11-16 17:37:50 1510871870.389872: $GPGGA,223749,3946.9576,N,08404.9841,W,2,12,0.80,303.26,M,-33.324,M,,*74
2017-11-16 17:37:50 1510871870.389933: $GPRMC,223749,A,3946.9576,N,08404.9841,W,0.0000,0.000,161117,,*3E
2017-11-16 17:37:50 1510871870.389989: $GPGSA,A,3,1,10,22,12,14,18,26,11,25,31,32,138,1.6,0.8,1.3*3A
2017-11-16 17:37:51 1510871871.753454: $GPGSV,3,1,12,01,22,298,34,10,46,148,45,22,21,312,43,12,21,048,49*77
2017-11-16 17:37:51 1510871871.753623: $GPGSV,3,2,12,14,67,333,46,18,16,145,41,26,04,183,23,11,08,280,37*78
2017-11-16 17:37:51 1510871871.753682: $GPGSV,3,3,12,25,40,087,49,31,58,228,48,32,68,033,50,138,38,213,44*4B
2017-11-16 17:37:51 1510871871.867023: $GPZDA,223750.00,16,11,2017,00,00*64
2017-11-16 17:37:51 1510871871.867182: $GPGGA,223750,3946.9576,N,08404.9841,W,2,12,0.80,303.26,M,-33.324,M,,*7C
2017-11-16 17:37:51 1510871871.867243: $GPRMC,223750,A,3946.9576,N,08404.9841,W,0.0000,0.000,161117,,*36
2017-11-16 17:37:51 1510871871.867299: $GPGSA,A,3,1,10,22,12,14,18,26,11,25,31,32,138,1.6,0.8,1.3*3A
2017-11-16 17:37:52 1510871872.395458: $GPZDA,223751.00,16,11,2017,00,00*65
2017-11-16 17:37:52 1510871872.395619: $GPGGA,223751,3946.9576,N,08404.9841,W,2,12,0.80,303.26,M,-33.324,M,,*7D
2017-11-16 17:37:52 1510871872.395679: $GPRMC,223751,A,3946.9576,N,08404.9841,W,0.0000,0.000,161117,,*37
2017-11-16 17:37:52 1510871872.395735: $GPGSA,A,3,1,10,22,12,14,18,26,11,25,31,32,138,1.6,0.8,1.3*3A
2017-11-16 17:37:53 1510871873.402225: $GPZDA,223752.00,16,11,2017,00,00*66
2017-11-16 17:37:53 1510871873.402399: $GPGGA,223752,3946.9576,N,08404.9841,W,2,12,0.80,303.26,M,-33.324,M,,*7E
2017-11-16 17:37:53 1510871873.402459: $GPRMC,223752,A,3946.9576,N,08404.9841,W,0.0000,0.000,161117,,*34
2017-11-16 17:37:53 1510871873.402515: $GPGSA,A,3,1,10,22,12,14,18,26,11,25,31,32,138,1.6,0.8,1.3*3A
2017-11-16 17:37:54 1510871874.731774: $GPGSV,3,1,12,01,22,298,34,10,46,148,45,22,21,312,43,12,21,048,49*77
2017-11-16 17:37:54 1510871874.731952: $GPGSV,3,2,12,14,67,333,46,18,16,145,40,26,04,183,23,11,08,280,37*79
2017-11-16 17:37:54 1510871874.732016: $GPGSV,3,3,12,25,40,087,49,31,58,228,48,32,68,033,50,138,38,213,43*4C
2017-11-16 17:37:54 1510871874.845769: $GPZDA,223753.00,16,11,2017,00,00*67
2017-11-16 17:37:54 1510871874.845933: $GPGGA,223753,3946.9576,N,08404.9841,W,2,12,0.80,303.26,M,-33.324,M,,*7F
2017-11-16 17:37:54 1510871874.845998: $GPRMC,223753,A,3946.9576,N,08404.9841,W,0.0000,0.000,161117,,*35
2017-11-16 17:37:54 1510871874.846057: $GPGSA,A,3,1,10,22,12,14,18,26,11,25,31,32,138,1.6,0.8,1.3*3A
2017-11-16 17:37:55 1510871875.396269: $GPZDA,223754.00,16,11,2017,00,00*60
2017-11-16 17:37:55 1510871875.396432: $GPGGA,223754,3946.9576,N,08404.9841,W,2,12,0.80,303.26,M,-33.324,M,,*78
2017-11-16 17:37:55 1510871875.396495: $GPRMC,223754,A,3946.9576,N,08404.9841,W,0.0000,0.000,161117,,*32
2017-11-16 17:37:55 1510871875.396554: $GPGSA,A,3,1,10,22,12,14,18,26,11,25,31,32,138,1.6,0.8,1.3*3A
2017-11-16 17:37:56 1510871876.389124: $GPZDA,223755.00,16,11,2017,00,00*61
2017-11-16 17:37:56 1510871876.389287: $GPGGA,223755,3946.9576,N,08404.9841,W,2,12,0.80,303.26,M,-33.324,M,,*79
2017-11-16 17:37:56 1510871876.389351: $GPRMC,223755,A,3946.9576,N,08404.9841,W,0.0000,0.000,161117,,*33
2017-11-16 17:37:56 1510871876.389409: $GPGSA,A,3,1,10,22,12,14,18,26,11,25,31,32,138,1.6,0.8,1.3*3A
2017-11-16 17:37:57 1510871877.755859: $GPGSV,3,1,12,01,22,298,30,10,46,148,45,22,21,312,43,12,21,048,50*7B
2017-11-16 17:37:57 1510871877.756081: $GPGSV,3,2,12,14,67,333,46,18,16,145,40,26,04,183,23,11,08,280,37*79
2017-11-16 17:37:57 1510871877.756143: $GPGSV,3,3,12,25,40,087,49,31,58,228,48,32,68,033,50,138,38,213,43*4C
2017-11-16 17:37:57 1510871877.869448: $GPZDA,223756.00,16,11,2017,00,00*62
2017-11-16 17:37:57 1510871877.869591: $GPGGA,223756,3946.9576,N,08404.9841,W,2,12,0.80,303.26,M,-33.324,M,,*7A
2017-11-16 17:37:57 1510871877.869652: $GPRMC,223756,A,3946.9576,N,08404.9841,W,0.0000,0.000,161117,,*30
2017-11-16 17:37:57 1510871877.869708: $GPGSA,A,3,1,10,22,12,14,18,26,11,25,31,32,138,1.6,0.8,1.3*3A
2017-11-16 17:37:58 1510871878.397798: $GPZDA,223757.00,16,11,2017,00,00*63
2017-11-16 17:37:58 1510871878.397943: $GPGGA,223757,3946.9576,N,08404.9841,W,2,12,0.80,303.26,M,-33.324,M,,*7B
2017-11-16 17:37:58 1510871878.398004: $GPRMC,223757,A,3946.9576,N,08404.9841,W,0.0000,0.000,161117,,*31
2017-11-16 17:37:58 1510871878.398060: $GPGSA,A,3,1,10,22,12,14,18,26,11,25,31,32,138,1.6,0.8,1.3*3A
2017-11-16 17:37:59 1510871879.397378: $GPZDA,223758.00,16,11,2017,00,00*6C
2017-11-16 17:37:59 1510871879.397541: $GPGGA,223758,3946.9576,N,08404.9841,W,2,12,0.80,303.26,M,-33.324,M,,*74
2017-11-16 17:37:59 1510871879.397602: $GPRMC,223758,A,3946.9576,N,08404.9841,W,0.0000,0.000,161117,,*3E
2017-11-16 17:37:59 1510871879.397658: $GPGSA,A,3,1,10,22,12,14,18,26,11,25,31,32,138,1.6,0.8,1.3*3A
