2018-01-11 19:40:48 1515717648.986315: {"class":"VERSION","release":"3.16","rev":"3.16-4","proto_major":3,"proto_minor":11}
2018-01-11 19:40:48 1515717648.986652: {"class":"DEVICES","devices":[{"class":"DEVICE","path":"/dev/ttyUSB0","driver":"SiRF","subtype":"9\u0006GSD4e_4.1.2-P1_RPATCH.05-F-GPS-4R-1510281 11/03/2015 307","activated":"2018-01-12T00:40:48.922Z","flags":1,"native":1,"bps":4800,"parity":"N","stopbits":1,"cycle":1.00}]}
2018-01-11 19:40:48 1515717648.986772: {"class":"WATCH","enable":true,"json":false,"nmea":true,"raw":0,"scaled":false,"timing":false,"split24":false,"pps":false}
2018-01-11 19:40:49 1515717649.101112: $GPZDA,004049.78,12,01,2018,00,00*69
2018-01-11 19:40:49 1515717649.101282: $GPGGA,004049,3946.9578,N,08404.9795,W,1,11,1.20,321.51,M,-33.324,M,,*77
2018-01-11 19:40:49 1515717649.101441: $GPRMC,004049,A,3946.9578,N,08404.9795,W,0.0000,0.000,120118,,*3C
2018-01-11 19:40:49 1515717649.101505: $GPGSA,A,3,7,8,9,16,23,27,30,11,26,28,138,,4.0,1.2,3.5*31
2018-01-11 19:40:50 1515717650.182899: $GPZDA,004050.47,12,01,2018,00,00*6D
2018-01-11 19:40:50 1515717650.183061: $GPGGA,004050,3946.9574,N,08404.9795,W,1,11,1.20,320.87,M,-33.324,M,,*79
2018-01-11 19:40:50 1515717650.183128: $GPRMC,004050,A,3946.9574,N,08404.9795,W,0.2758,128.233,120118,,*39
2018-01-11 19:40:50 1515717650.183188: $GPGSA,A,3,7,8,9,16,23,27,30,11,26,28,138,,4.0,1.2,3.5*31
2018-01-11 19:40:50 1515717650.183246: $GPGBS,004050,14.62,M,24.83,M,80.38,M*00
2018-01-11 19:40:51 1515717651.324970: $GPGSV,3,1,12,07,43,309,43,08,62,159,47,09,56,250,41,16,34,052,48*74
2018-01-11 19:40:51 1515717651.325129: $GPGSV,3,2,12,23,43,195,48,27,57,070,49,30,18,301,37,21,01,033,04*7B
2018-01-11 19:40:51 1515717651.325195: $GPGSV,3,3,12,26,08,064,05,11,09,172,00,28,04,249,00,138,38,213,00*4C
2018-01-11 19:40:51 1515717651.438420: $GPZDA,004051.00,12,01,2018,00,00*6F
2018-01-11 19:40:51 1515717651.438577: $GPGGA,004051,3946.9574,N,08404.9795,W,1,07,1.20,320.87,M,-33.324,M,,*7F
2018-01-11 19:40:51 1515717651.438645: $GPRMC,004051,A,3946.9574,N,08404.9795,W,0.1867,0.000,120118,,*31
2018-01-11 19:40:51 1515717651.438709: $GPGSA,A,3,7,8,9,16,23,27,30,,,,,,4.0,1.2,3.5*05
2018-01-11 19:40:51 1515717651.889530: $GPZDA,004052.00,12,01,2018,00,00*6C
2018-01-11 19:40:51 1515717651.889699: $GPGGA,004052,3946.9578,N,08404.9802,W,1,07,1.00,321.43,M,-33.324,M,,*7A
2018-01-11 19:40:51 1515717651.889769: $GPRMC,004052,A,3946.9578,N,08404.9802,W,0.0407,322.013,120118,,*35
2018-01-11 19:40:51 1515717651.889846: $GPGSA,A,3,7,8,9,16,23,27,30,,,,,,4.0,1.0,3.5*07
2018-01-11 19:40:52 1515717652.395314: $GPZDA,004053.00,12,01,2018,00,00*6D
2018-01-11 19:40:52 1515717652.395478: $GPGGA,004053,3946.9578,N,08404.9802,W,1,07,0.80,321.43,M,-33.324,M,,*72
2018-01-11 19:40:52 1515717652.395545: $GPRMC,004053,A,3946.9578,N,08404.9802,W,0.0000,0.000,120118,,*36
2018-01-11 19:40:52 1515717652.395607: $GPGSA,A,3,7,8,9,16,23,27,30,,,,,,4.0,0.8,3.5*0E
2018-01-11 19:40:53 1515717653.729366: $GPGSV,3,1,12,07,43,309,43,08,62,159,47,09,56,250,42,16,34,052,49*76
2018-01-11 19:40:53 1515717653.729521: $GPGSV,3,2,12,23,43,195,48,27,57,070,50,30,18,301,36,21,01,033,22*76
2018-01-11 19:40:53 1515717653.729587: $GPGSV,3,3,12,26,08,064,25,11,09,172,23,28,04,249,00,138,38,213,45*4E
2018-01-11 19:40:53 1515717653.842710: $GPZDA,004054.00,12,01,2018,00,00*6A
2018-01-11 19:40:53 1515717653.842872: $GPGGA,004054,3946.9578,N,08404.9802,W,1,11,0.80,321.43,M,-33.324,M,,*72
2018-01-11 19:40:53 1515717653.842962: $GPRMC,004054,A,3946.9578,N,08404.9802,W,0.0000,0.000,120118,,*31
2018-01-11 19:40:53 1515717653.843025: $GPGSA,A,3,7,8,9,16,23,27,30,21,26,11,138,,4.0,0.8,3.5*33
2018-01-11 19:40:54 1515717654.393604: $GPZDA,004055.00,12,01,2018,00,00*6B
2018-01-11 19:40:54 1515717654.393770: $GPGGA,004055,3946.9578,N,08404.9802,W,1,11,0.80,321.43,M,-33.324,M,,*73
2018-01-11 19:40:54 1515717654.393838: $GPRMC,004055,A,3946.9578,N,08404.9802,W,0.0000,0.000,120118,,*30
2018-01-11 19:40:54 1515717654.393898: $GPGSA,A,3,7,8,9,16,23,27,30,21,26,11,138,,4.0,0.8,3.5*33
2018-01-11 19:40:55 1515717655.395647: $GPZDA,004056.00,12,01,2018,00,00*68
2018-01-11 19:40:55 1515717655.395863: $GPGGA,004056,3946.9582,N,08404.9801,W,1,11,0.80,320.66,M,-33.324,M,,*70
2018-01-11 19:40:55 1515717655.395931: $GPRMC,004056,A,3946.9582,N,08404.9801,W,0.0000,0.000,120118,,*35
2018-01-11 19:40:55 1515717655.395993: $GPGSA,A,3,7,8,9,16,23,27,30,21,26,11,138,,4.0,0.8,3.5*33
2018-01-11 19:40:55 1515717655.396051: $GPGBS,004056,14.62,M,24.83,M,80.38,M*06
2018-01-11 19:40:56 1515717656.729808: $GPGSV,3,1,12,07,43,309,43,08,62,159,47,09,56,250,42,16,34,052,49*76
2018-01-11 19:40:56 1515717656.729987: $GPGSV,3,2,12,23,43,195,48,27,57,070,50,30,18,301,35,21,01,033,22*75
2018-01-11 19:40:56 1515717656.730055: $GPGSV,3,3,12,26,08,064,00,11,09,172,23,28,04,249,00,138,38,213,45*49
2018-01-11 19:40:56 1515717656.843431: $GPZDA,004057.00,12,01,2018,00,00*69
2018-01-11 19:40:56 1515717656.843569: $GPGGA,004057,3946.9582,N,08404.9801,W,1,10,0.80,320.66,M,-33.324,M,,*70
2018-01-11 19:40:56 1515717656.843637: $GPRMC,004057,A,3946.9582,N,08404.9801,W,0.0000,0.000,120118,,*34
2018-01-11 19:40:56 1515717656.843701: $GPGSA,A,3,7,8,9,16,23,27,30,21,11,138,,,4.0,0.8,3.5*37
