2017-12-31 17:02:39 1514757759.426885: {"class":"VERSION","release":"3.16","rev":"3.16-4","proto_major":3,"proto_minor":11}
2017-12-31 17:02:39 1514757759.428285: {"class":"DEVICES","devices":[{"class":"DEVICE","path":"/dev/ttyUSB0","driver":"SiRF","activated":"2017-12-31T22:02:39.246Z","flags":1,"native":1,"bps":4800,"parity":"N","stopbits":1,"cycle":1.00}]}
2017-12-31 17:02:39 1514757759.428409: {"class":"WATCH","enable":true,"json":false,"nmea":true,"raw":0,"scaled":false,"timing":false,"split24":false,"pps":false}
2017-12-31 17:02:39 1514757759.696064: $GPGSV,3,1,11,22,45,240,40,23,27,307,38,25,02,037,20,03,46,271,40*71
2017-12-31 17:02:39 1514757759.696246: $GPGSV,3,2,11,16,45,190,43,29,14,055,25,31,50,049,50,14,41,112,38*7E
2017-12-31 17:02:39 1514757759.696314: $GPGSV,3,3,11,32,19,121,44,26,74,144,46,135,22,240,42*71
2017-12-31 17:02:39 1514757759.809700: $GPZDA,220240.00,31,12,2017,00,00*65
2017-12-31 17:02:39 1514757759.809839: $GPGGA,220240,3946.9587,N,08404.9854,W,2,11,1.00,302.21,M,-33.324,M,,*7D
2017-12-31 17:02:39 1514757759.809905: $GPRMC,220240,A,3946.9587,N,08404.9854,W,0.0000,0.000,311217,,*3D
2017-12-31 17:02:39 1514757759.809966: $GPGSA,A,3,22,23,25,3,16,29,31,14,32,26,135,,1.7,1.0,1.3*3B
2017-12-31 17:02:40 1514757760.435060: $GPZDA,220241.00,31,12,2017,00,00*64
2017-12-31 17:02:40 1514757760.435220: $GPGGA,220241,3946.9587,N,08404.9854,W,2,11,1.00,302.21,M,-33.324,M,,*7C
2017-12-31 17:02:40 1514757760.435288: $GPRMC,220241,A,3946.9587,N,08404.9854,W,0.0000,0.000,311217,,*3C
2017-12-31 17:02:40 1514757760.435348: $GPGSA,A,3,22,23,25,3,16,29,31,14,32,26,135,,1.7,1.0,1.3*3B
2017-12-31 17:02:41 1514757761.343470: $GPZDA,220242.00,31,12,2017,00,00*67
2017-12-31 17:02:41 1514757761.343640: $GPGGA,220242,3946.9587,N,08404.9854,W,2,11,1.00,302.21,M,-33.324,M,,*7F
2017-12-31 17:02:41 1514757761.343709: $GPRMC,220242,A,3946.9587,N,08404.9854,W,0.0000,0.000,311217,,*3F
2017-12-31 17:02:41 1514757761.343774: $GPGSA,A,3,22,23,25,3,16,29,31,14,32,26,135,,1.7,1.0,1.3*3B
2017-12-31 17:02:42 1514757762.680175: $GPGSV,3,1,11,22,45,240,40,23,27,307,38,25,02,037,20,03,46,271,40*71
2017-12-31 17:02:42 1514757762.680340: $GPGSV,3,2,11,16,45,190,43,29,14,055,26,31,50,049,50,14,41,112,38*7D
2017-12-31 17:02:42 1514757762.680407: $GPGSV,3,3,11,32,19,121,44,26,74,144,46,135,22,240,42*71
2017-12-31 17:02:42 1514757762.793776: $GPZDA,220243.00,31,12,2017,00,00*66
2017-12-31 17:02:42 1514757762.793901: $GPGGA,220243,3946.9587,N,08404.9854,W,2,11,1.00,302.21,M,-33.324,M,,*7E
2017-12-31 17:02:42 1514757762.793966: $GPRMC,220243,A,3946.9587,N,08404.9854,W,0.0000,0.000,311217,,*3E
2017-12-31 17:02:42 1514757762.794028: $GPGSA,A,3,22,23,25,3,16,29,31,14,32,26,135,,1.7,1.0,1.3*3B
2017-12-31 17:02:43 1514757763.344682: $GPZDA,220244.00,31,12,2017,00,00*61
2017-12-31 17:02:43 1514757763.344842: $GPGGA,220244,3946.9587,N,08404.9854,W,2,11,1.00,302.21,M,-33.324,M,,*79
2017-12-31 17:02:43 1514757763.344908: $GPRMC,220244,A,3946.9587,N,08404.9854,W,0.0000,0.000,311217,,*39
2017-12-31 17:02:43 1514757763.344970: $GPGSA,A,3,22,23,25,3,16,29,31,14,32,26,135,,1.7,1.0,1.3*3B
2017-12-31 17:02:44 1514757764.335555: $GPZDA,220245.00,31,12,2017,00,00*60
2017-12-31 17:02:44 1514757764.335724: $GPGGA,220245,3946.9587,N,08404.9854,W,2,11,1.00,302.21,M,-33.324,M,,*78
2017-12-31 17:02:44 1514757764.335792: $GPRMC,220245,A,3946.9587,N,08404.9854,W,0.0000,0.000,311217,,*38
2017-12-31 17:02:44 1514757764.335855: $GPGSA,A,3,22,23,25,3,16,29,31,14,32,26,135,,1.7,1.0,1.3*3B
2017-12-31 17:02:45 1514757765.679300: $GPGSV,3,1,11,22,45,240,41,23,27,307,39,25,02,037,20,03,46,271,41*70
2017-12-31 17:02:45 1514757765.679483: $GPGSV,3,2,11,16,45,190,44,29,14,055,27,31,50,049,50,14,41,112,38*7B
2017-12-31 17:02:45 1514757765.679551: $GPGSV,3,3,11,32,19,121,44,26,74,144,46,135,22,240,42*71
2017-12-31 17:02:45 1514757765.792734: $GPZDA,220246.00,31,12,2017,00,00*63
2017-12-31 17:02:45 1514757765.792858: $GPGGA,220246,3946.9587,N,08404.9854,W,2,11,1.00,302.21,M,-33.324,M,,*7B
2017-12-31 17:02:45 1514757765.792924: $GPRMC,220246,A,3946.9587,N,08404.9854,W,0.0000,0.000,311217,,*3B
2017-12-31 17:02:45 1514757765.793041: $GPGSA,A,3,22,23,25,3,16,29,31,14,32,26,135,,1.7,1.0,1.3*3B
2017-12-31 17:02:46 1514757766.360041: $GPZDA,220247.00,31,12,2017,00,00*62
2017-12-31 17:02:46 1514757766.360195: $GPGGA,220247,3946.9587,N,08404.9854,W,2,11,1.00,302.21,M,-33.324,M,,*7A
2017-12-31 17:02:46 1514757766.360261: $GPRMC,220247,A,3946.9587,N,08404.9854,W,0.0000,0.000,311217,,*3A
2017-12-31 17:02:46 1514757766.360323: $GPGSA,A,3,22,23,25,3,16,29,31,14,32,26,135,,1.7,1.0,1.3*3B
2017-12-31 17:02:47 1514757767.343407: $GPZDA,220248.00,31,12,2017,00,00*6D
2017-12-31 17:02:47 1514757767.343568: $GPGGA,220248,3946.9587,N,08404.9854,W,2,11,1.00,302.21,M,-33.324,M,,*75
2017-12-31 17:02:47 1514757767.343638: $GPRMC,220248,A,3946.9587,N,08404.9854,W,0.0000,0.000,311217,,*35
2017-12-31 17:02:47 1514757767.343703: $GPGSA,A,3,22,23,25,3,16,29,31,14,32,26,135,,1.7,1.0,1.3*3B
2017-12-31 17:02:48 1514757768.695134: $GPGSV,3,1,11,22,45,240,40,23,27,307,39,25,02,037,20,03,46,271,40*70
2017-12-31 17:02:48 1514757768.695316: $GPGSV,3,2,11,16,45,190,44,29,14,055,28,31,50,049,50,14,41,112,38*74
2017-12-31 17:02:48 1514757768.695383: $GPGSV,3,3,11,32,19,121,44,26,74,144,46,135,22,240,42*71
2017-12-31 17:02:48 1514757768.808890: $GPZDA,220249.00,31,12,2017,00,00*6C
2017-12-31 17:02:48 1514757768.809026: $GPGGA,220249,3946.9587,N,08404.9854,W,2,11,1.00,302.21,M,-33.324,M,,*74
2017-12-31 17:02:48 1514757768.809093: $GPRMC,220249,A,3946.9587,N,08404.9854,W,0.0000,0.000,311217,,*34
2017-12-31 17:02:48 1514757768.809154: $GPGSA,A,3,22,23,25,3,16,29,31,14,32,26,135,,1.7,1.0,1.3*3B
2017-12-31 17:02:49 1514757769.344744: $GPZDA,220250.00,31,12,2017,00,00*64
2017-12-31 17:02:49 1514757769.344902: $GPGGA,220250,3946.9587,N,08404.9854,W,2,11,1.00,302.21,M,-33.324,M,,*7C
2017-12-31 17:02:49 1514757769.344970: $GPRMC,220250,A,3946.9587,N,08404.9854,W,0.0000,0.000,311217,,*3C
2017-12-31 17:02:49 1514757769.345032: $GPGSA,A,3,22,23,25,3,16,29,31,14,32,26,135,,1.7,1.0,1.3*3B
