2017-12-29 11:13:42 1514564022.465618: {"class":"VERSION","release":"3.16","rev":"3.16-4","proto_major":3,"proto_minor":11}
2017-12-29 11:13:42 1514564022.465964: {"class":"DEVICES","devices":[{"class":"DEVICE","path":"/dev/ttyUSB0","driver":"SiRF","subtype":"9\u0006GSD4e_4.1.2-P1_RPATCH.05-F-GPS-4R-1510281 11/03/2015 307","activated":"2017-12-29T16:13:42.263Z","flags":1,"native":1,"bps":4800,"parity":"N","stopbits":1,"cycle":1.00}]}
2017-12-29 11:13:42 1514564022.466078: {"class":"WATCH","enable":true,"json":false,"nmea":true,"raw":0,"scaled":false,"timing":false,"split24":false,"pps":false}
2017-12-29 11:13:42 1514564022.712835: $GPGSV,3,1,12,08,05,324,29,10,40,300,42,15,38,052,48,18,70,334,42*73
2017-12-29 11:13:42 1514564022.713014: $GPGSV,3,2,12,20,36,094,48,21,65,190,44,24,50,112,46,27,19,291,36*74
2017-12-29 11:13:42 1514564022.713078: $GPGSV,3,3,12,32,20,237,34,13,09,048,24,14,02,231,00,138,38,213,45*4E
2017-12-29 11:13:42 1514564022.826188: $GPZDA,161343.00,29,12,2017,00,00*68
2017-12-29 11:13:42 1514564022.826317: $GPGGA,161343,3946.9571,N,08404.9816,W,2,11,0.80,319.99,M,-33.324,M,,*76
2017-12-29 11:13:42 1514564022.826381: $GPRMC,161343,A,3946.9571,N,08404.9816,W,0.0000,0.000,291217,,*3F
2017-12-29 11:13:42 1514564022.826440: $GPGSA,A,3,8,10,15,18,20,21,24,27,32,13,138,,1.7,0.8,1.3*31
2017-12-29 11:13:43 1514564023.451581: $GPZDA,161344.00,29,12,2017,00,00*6F
2017-12-29 11:13:43 1514564023.451728: $GPGGA,161344,3946.9571,N,08404.9816,W,2,11,0.80,319.99,M,-33.324,M,,*71
2017-12-29 11:13:43 1514564023.451792: $GPRMC,161344,A,3946.9571,N,08404.9816,W,0.0000,0.000,291217,,*38
2017-12-29 11:13:43 1514564023.451853: $GPGSA,A,3,8,10,15,18,20,21,24,27,32,13,138,,1.7,0.8,1.3*31
2017-12-29 11:13:44 1514564024.376220: $GPZDA,161345.00,29,12,2017,00,00*6E
2017-12-29 11:13:44 1514564024.376395: $GPGGA,161345,3946.9571,N,08404.9816,W,2,11,0.80,319.99,M,-33.324,M,,*70
2017-12-29 11:13:44 1514564024.376461: $GPRMC,161345,A,3946.9571,N,08404.9816,W,0.0000,0.000,291217,,*39
2017-12-29 11:13:44 1514564024.376522: $GPGSA,A,3,8,10,15,18,20,21,24,27,32,13,138,,1.7,0.8,1.3*31
2017-12-29 11:13:45 1514564025.714445: $GPGSV,3,1,12,08,05,324,29,10,40,300,42,15,38,052,48,18,70,334,42*73
2017-12-29 11:13:45 1514564025.714603: $GPGSV,3,2,12,20,36,094,48,21,65,190,45,24,50,112,46,27,19,291,36*75
2017-12-29 11:13:45 1514564025.714668: $GPGSV,3,3,12,32,20,237,35,13,09,048,25,14,02,231,00,138,38,213,45*4E
2017-12-29 11:13:45 1514564025.827794: $GPZDA,161346.00,29,12,2017,00,00*6D
2017-12-29 11:13:45 1514564025.827922: $GPGGA,161346,3946.9571,N,08404.9816,W,2,11,0.80,319.99,M,-33.324,M,,*73
2017-12-29 11:13:45 1514564025.827986: $GPRMC,161346,A,3946.9571,N,08404.9816,W,0.0000,0.000,291217,,*3A
2017-12-29 11:13:45 1514564025.828046: $GPGSA,A,3,8,10,15,18,20,21,24,27,32,13,138,,1.7,0.8,1.3*31
2017-12-29 11:13:46 1514564026.376153: $GPZDA,161347.00,29,12,2017,00,00*6C
2017-12-29 11:13:46 1514564026.376293: $GPGGA,161347,3946.9571,N,08404.9823,W,2,11,1.00,319.91,M,-33.324,M,,*75
2017-12-29 11:13:46 1514564026.376358: $GPRMC,161347,A,3946.9571,N,08404.9823,W,0.0000,0.000,291217,,*3D
2017-12-29 11:13:46 1514564026.376418: $GPGSA,A,3,8,10,15,18,20,21,24,27,32,13,138,,1.7,1.0,1.3*38
2017-12-29 11:13:47 1514564027.375839: $GPZDA,161348.00,29,12,2017,00,00*63
2017-12-29 11:13:47 1514564027.376001: $GPGGA,161348,3946.9571,N,08404.9823,W,2,11,1.00,319.91,M,-33.324,M,,*7A
2017-12-29 11:13:47 1514564027.376066: $GPRMC,161348,A,3946.9571,N,08404.9823,W,0.0000,0.000,291217,,*32
2017-12-29 11:13:47 1514564027.376127: $GPGSA,A,3,8,10,15,18,20,21,24,27,32,13,138,,1.7,1.0,1.3*38
2017-12-29 11:13:48 1514564028.711099: $GPGSV,3,1,12,08,05,324,29,10,40,300,41,15,38,052,48,18,70,334,42*70
2017-12-29 11:13:48 1514564028.711280: $GPGSV,3,2,12,20,36,094,48,21,65,190,45,24,50,112,46,27,19,291,38*7B
2017-12-29 11:13:48 1514564028.711345: $GPGSV,3,3,12,32,20,237,35,13,09,048,26,14,02,231,00,138,38,213,46*4E
2017-12-29 11:13:48 1514564028.824418: $GPZDA,161349.00,29,12,2017,00,00*62
2017-12-29 11:13:48 1514564028.824550: $GPGGA,161349,3946.9571,N,08404.9823,W,2,11,1.00,319.91,M,-33.324,M,,*7B
2017-12-29 11:13:48 1514564028.824666: $GPRMC,161349,A,3946.9571,N,08404.9823,W,0.0000,0.000,291217,,*33
2017-12-29 11:13:48 1514564028.824728: $GPGSA,A,3,8,10,15,18,20,21,24,27,32,13,138,,1.7,1.0,1.3*38
2017-12-29 11:13:49 1514564029.377801: $GPZDA,161350.00,29,12,2017,00,00*6A
2017-12-29 11:13:49 1514564029.377949: $GPGGA,161350,3946.9571,N,08404.9817,W,2,11,1.00,321.39,M,-33.324,M,,*7D
2017-12-29 11:13:49 1514564029.378013: $GPRMC,161350,A,3946.9571,N,08404.9817,W,0.3423,4.197,291217,,*31
2017-12-29 11:13:49 1514564029.378072: $GPGSA,A,3,8,10,15,18,20,21,24,27,32,13,138,,1.7,1.0,1.3*38
2017-12-29 11:13:50 1514564030.376377: $GPZDA,161351.00,29,12,2017,00,00*6B
2017-12-29 11:13:50 1514564030.376531: $GPGGA,161351,3946.9572,N,08404.9824,W,2,11,1.00,321.32,M,-33.324,M,,*74
2017-12-29 11:13:50 1514564030.376597: $GPRMC,161351,A,3946.9572,N,08404.9824,W,0.3423,4.197,291217,,*33
2017-12-29 11:13:50 1514564030.376658: $GPGSA,A,3,8,10,15,18,20,21,24,27,32,13,138,,1.7,1.0,1.3*38
2017-12-29 11:13:51 1514564031.709419: $GPGSV,3,1,12,08,05,324,28,10,40,300,41,15,38,052,48,18,70,334,42*71
2017-12-29 11:13:51 1514564031.709596: $GPGSV,3,2,12,20,36,094,48,21,65,190,44,24,50,112,45,27,19,291,39*78
2017-12-29 11:13:51 1514564031.709662: $GPGSV,3,3,12,32,20,237,35,13,09,048,26,14,02,231,00,138,38,213,46*4E
2017-12-29 11:13:51 1514564031.822791: $GPZDA,161352.00,29,12,2017,00,00*68
2017-12-29 11:13:51 1514564031.822951: $GPGGA,161352,3946.9564,N,08404.9824,W,2,11,1.00,320.04,M,-33.324,M,,*74
2017-12-29 11:13:51 1514564031.823036: $GPRMC,161352,A,3946.9564,N,08404.9824,W,0.1567,9.200,291217,,*34
2017-12-29 11:13:51 1514564031.823099: $GPGSA,A,3,8,10,15,18,20,21,24,27,32,13,138,,1.7,1.0,1.3*38
2017-12-29 11:13:52 1514564032.374905: $GPZDA,161353.00,29,12,2017,00,00*69
2017-12-29 11:13:52 1514564032.375058: $GPGGA,161353,3946.9564,N,08404.9824,W,2,11,1.00,320.04,M,-33.324,M,,*75
2017-12-29 11:13:52 1514564032.375123: $GPRMC,161353,A,3946.9564,N,08404.9824,W,0.0000,0.000,291217,,*3B
2017-12-29 11:13:52 1514564032.375183: $GPGSA,A,3,8,10,15,18,20,21,24,27,32,13,138,,1.7,1.0,1.3*38
2017-12-29 11:13:53 1514564033.376540: $GPZDA,161354.00,29,12,2017,00,00*6E
2017-12-29 11:13:53 1514564033.376710: $GPGGA,161354,3946.9564,N,08404.9824,W,2,11,1.00,320.04,M,-33.324,M,,*72
2017-12-29 11:13:53 1514564033.376776: $GPRMC,161354,A,3946.9564,N,08404.9824,W,0.0000,0.000,291217,,*3C
2017-12-29 11:13:53 1514564033.376837: $GPGSA,A,3,8,10,15,18,20,21,24,27,32,13,138,,1.7,1.0,1.3*38
2017-12-29 11:13:54 1514564034.712285: $GPGSV,3,1,12,08,05,324,28,10,40,300,41,15,38,052,48,18,70,334,42*71
2017-12-29 11:13:54 1514564034.712462: $GPGSV,3,2,12,20,36,094,48,21,65,190,45,24,50,112,45,27,19,291,39*79
2017-12-29 11:13:54 1514564034.712527: $GPGSV,3,3,12,32,20,237,35,13,09,048,26,14,02,231,00,138,38,213,45*4D
2017-12-29 11:13:54 1514564034.825625: $GPZDA,161355.00,29,12,2017,00,00*6F
2017-12-29 11:13:54 1514564034.825752: $GPGGA,161355,3946.9564,N,08404.9824,W,2,11,1.00,320.04,M,-33.324,M,,*73
2017-12-29 11:13:54 1514564034.825815: $GPRMC,161355,A,3946.9564,N,08404.9824,W,0.0000,0.000,291217,,*3D
2017-12-29 11:13:54 1514564034.825875: $GPGSA,A,3,8,10,15,18,20,21,24,27,32,13,138,,1.7,1.0,1.3*38
2017-12-29 11:13:55 1514564035.376480: $GPZDA,161356.00,29,12,2017,00,00*6C
2017-12-29 11:13:55 1514564035.376631: $GPGGA,161356,3946.9564,N,08404.9824,W,2,11,1.00,320.04,M,-33.324,M,,*70
2017-12-29 11:13:55 1514564035.376696: $GPRMC,161356,A,3946.9564,N,08404.9824,W,0.0000,0.000,291217,,*3E
2017-12-29 11:13:55 1514564035.376756: $GPGSA,A,3,8,10,15,18,20,21,24,27,32,13,138,,1.7,1.0,1.3*38
2017-12-29 11:13:56 1514564036.374912: $GPZDA,161357.00,29,12,2017,00,00*6D
2017-12-29 11:13:56 1514564036.375072: $GPGGA,161357,3946.9564,N,08404.9824,W,2,11,1.00,320.04,M,-33.324,M,,*71
2017-12-29 11:13:56 1514564036.375138: $GPRMC,161357,A,3946.9564,N,08404.9824,W,0.0000,0.000,291217,,*3F
2017-12-29 11:13:56 1514564036.375199: $GPGSA,A,3,8,10,15,18,20,21,24,27,32,13,138,,1.7,1.0,1.3*38
2017-12-29 11:13:57 1514564037.710650: $GPGSV,3,1,12,08,05,324,27,10,40,300,41,15,38,052,47,18,70,334,42*71
2017-12-29 11:13:57 1514564037.710876: $GPGSV,3,2,12,20,36,094,48,21,65,190,45,24,50,112,46,27,19,291,40*74
2017-12-29 11:13:57 1514564037.710945: $GPGSV,3,3,12,32,20,237,35,13,09,048,26,14,02,231,00,138,38,213,44*4C
2017-12-29 11:13:57 1514564037.824001: $GPZDA,161358.00,29,12,2017,00,00*62
2017-12-29 11:13:57 1514564037.824130: $GPGGA,161358,3946.9564,N,08404.9824,W,2,11,1.00,320.04,M,-33.324,M,,*7E
2017-12-29 11:13:57 1514564037.824195: $GPRMC,161358,A,3946.9564,N,08404.9824,W,0.0000,0.000,291217,,*30
2017-12-29 11:13:57 1514564037.824255: $GPGSA,A,3,8,10,15,18,20,21,24,27,32,13,138,,1.7,1.0,1.3*38
2017-12-29 11:13:58 1514564038.449383: $GPZDA,161359.00,29,12,2017,00,00*63
2017-12-29 11:13:58 1514564038.449541: $GPGGA,161359,3946.9568,N,08404.9824,W,2,11,1.00,320.68,M,-33.324,M,,*79
2017-12-29 11:13:58 1514564038.449624: $GPRMC,161359,A,3946.9568,N,08404.9824,W,0.0000,0.000,291217,,*3D
2017-12-29 11:13:58 1514564038.449686: $GPGSA,A,3,8,10,15,18,20,21,24,27,32,13,138,,1.7,1.0,1.3*38
2017-12-29 11:13:59 1514564039.375256: $GPZDA,161400.00,29,12,2017,00,00*68
2017-12-29 11:13:59 1514564039.375426: $GPGGA,161400,3946.9568,N,08404.9824,W,2,11,1.00,320.68,M,-33.324,M,,*72
2017-12-29 11:13:59 1514564039.375492: $GPRMC,161400,A,3946.9568,N,08404.9824,W,0.0000,0.000,291217,,*36
2017-12-29 11:13:59 1514564039.375552: $GPGSA,A,3,8,10,15,18,20,21,24,27,32,13,138,,1.7,1.0,1.3*38
2017-12-29 11:14:00 1514564040.711114: $GPGSV,3,1,12,08,05,324,27,10,40,300,42,15,38,052,47,18,70,334,42*72
2017-12-29 11:14:00 1514564040.711311: $GPGSV,3,2,12,20,36,094,48,21,65,190,44,24,50,112,46,27,19,291,41*74
2017-12-29 11:14:00 1514564040.711377: $GPGSV,3,3,12,32,20,237,35,13,09,048,26,14,02,231,00,138,38,213,45*4D
2017-12-29 11:14:00 1514564040.824670: $GPZDA,161401.00,29,12,2017,00,00*69
2017-12-29 11:14:00 1514564040.824807: $GPGGA,161401,3946.9568,N,08404.9824,W,2,11,1.00,320.68,M,-33.324,M,,*73
2017-12-29 11:14:00 1514564040.824872: $GPRMC,161401,A,3946.9568,N,08404.9824,W,0.0000,0.000,291217,,*37
2017-12-29 11:14:00 1514564040.824933: $GPGSA,A,3,8,10,15,18,20,21,24,27,32,13,138,,1.7,1.0,1.3*38
2017-12-29 11:14:01 1514564041.377814: $GPZDA,161402.00,29,12,2017,00,00*6A
2017-12-29 11:14:01 1514564041.377957: $GPGGA,161402,3946.9568,N,08404.9824,W,2,11,1.00,320.68,M,-33.324,M,,*70
2017-12-29 11:14:01 1514564041.378023: $GPRMC,161402,A,3946.9568,N,08404.9824,W,0.0000,0.000,291217,,*34
2017-12-29 11:14:01 1514564041.378087: $GPGSA,A,3,8,10,15,18,20,21,24,27,32,13,138,,1.7,1.0,1.3*38
2017-12-29 11:14:02 1514564042.378630: $GPZDA,161403.00,29,12,2017,00,00*6B
2017-12-29 11:14:02 1514564042.378804: $GPGGA,161403,3946.9568,N,08404.9824,W,2,11,1.00,320.68,M,-33.324,M,,*71
2017-12-29 11:14:02 1514564042.378872: $GPRMC,161403,A,3946.9568,N,08404.9824,W,0.1567,189.200,291217,,*32
2017-12-29 11:14:02 1514564042.378935: $GPGSA,A,3,8,10,15,18,20,21,24,27,32,13,138,,1.7,1.0,1.3*38
2017-12-29 11:14:03 1514564043.711449: $GPGSV,3,1,12,08,05,324,28,10,40,300,42,15,38,052,47,18,70,334,42*7D
2017-12-29 11:14:03 1514564043.711629: $GPGSV,3,2,12,20,36,094,48,21,65,190,44,24,50,112,45,27,19,291,40*76
2017-12-29 11:14:03 1514564043.711700: $GPGSV,3,3,12,32,20,237,35,13,09,048,26,14,02,231,00,138,38,213,44*4C
2017-12-29 11:14:03 1514564043.824949: $GPZDA,161404.00,29,12,2017,00,00*6C
2017-12-29 11:14:03 1514564043.825088: $GPGGA,161404,3946.9568,N,08404.9824,W,2,11,1.00,320.68,M,-33.324,M,,*76
2017-12-29 11:14:03 1514564043.825156: $GPRMC,161404,A,3946.9568,N,08404.9824,W,0.5287,182.716,291217,,*31
2017-12-29 11:14:03 1514564043.825218: $GPGSA,A,3,8,10,15,18,20,21,24,27,32,13,138,,1.7,1.0,1.3*38
2017-12-29 11:14:04 1514564044.378363: $GPZDA,161405.00,29,12,2017,00,00*6D
2017-12-29 11:14:04 1514564044.378504: $GPGGA,161405,3946.9564,N,08404.9824,W,2,11,1.00,320.04,M,-33.324,M,,*71
2017-12-29 11:14:04 1514564044.378574: $GPRMC,161405,A,3946.9564,N,08404.9824,W,0.4179,148.778,291217,,*31
2017-12-29 11:14:04 1514564044.378635: $GPGSA,A,3,8,10,15,18,20,21,24,27,32,13,138,,1.7,1.0,1.3*38
2017-12-29 11:14:05 1514564045.376725: $GPZDA,161406.00,29,12,2017,00,00*6E
2017-12-29 11:14:05 1514564045.376893: $GPGGA,161406,3946.9564,N,08404.9824,W,2,11,1.00,320.04,M,-33.324,M,,*72
2017-12-29 11:14:05 1514564045.376960: $GPRMC,161406,A,3946.9564,N,08404.9824,W,0.0000,0.000,291217,,*3C
2017-12-29 11:14:05 1514564045.377022: $GPGSA,A,3,8,10,15,18,20,21,24,27,32,13,138,,1.7,1.0,1.3*38
2017-12-29 11:14:06 1514564046.728470: $GPGSV,3,1,12,08,05,324,28,10,40,300,42,15,38,052,47,18,70,334,42*7D
2017-12-29 11:14:06 1514564046.728653: $GPGSV,3,2,12,20,36,094,47,21,65,190,44,24,50,112,45,27,19,291,39*77
2017-12-29 11:14:06 1514564046.728720: $GPGSV,3,3,12,32,20,237,34,13,09,048,26,14,02,231,00,138,38,213,44*4D
2017-12-29 11:14:06 1514564046.842110: $GPZDA,161407.00,29,12,2017,00,00*6F
2017-12-29 11:14:06 1514564046.842262: $GPGGA,161407,3946.9573,N,08404.9838,W,2,11,1.00,321.16,M,-33.324,M,,*7A
2017-12-29 11:14:06 1514564046.842328: $GPRMC,161407,A,3946.9573,N,08404.9838,W,0.1867,0.000,291217,,*3E
2017-12-29 11:14:06 1514564046.842390: $GPGSA,A,3,8,10,15,18,20,21,24,27,32,13,138,,1.7,1.0,1.3*38
2017-12-29 11:14:07 1514564047.391756: $GPZDA,161408.00,29,12,2017,00,00*60
2017-12-29 11:14:07 1514564047.391914: $GPGGA,161408,3946.9573,N,08404.9838,W,2,11,1.00,321.16,M,-33.324,M,,*75
2017-12-29 11:14:07 1514564047.391998: $GPRMC,161408,A,3946.9573,N,08404.9838,W,0.0000,0.000,291217,,*39
2017-12-29 11:14:07 1514564047.392061: $GPGSA,A,3,8,10,15,18,20,21,24,27,32,13,138,,1.7,1.0,1.3*38
