2018-01-11 19:41:04 1515717664.106975: {"class":"VERSION","release":"3.16","rev":"3.16-4","proto_major":3,"proto_minor":11}
2018-01-11 19:41:04 1515717664.107485: {"class":"DEVICES","devices":[{"class":"DEVICE","path":"/dev/ttyUSB0","driver":"SiRF","subtype":"9\u0006GSD4e_4.1.2-P1_RPATCH.05-F-GPS-4R-1510281 11/03/2015 307","activated":"2018-01-12T00:41:03.611Z","flags":1,"native":1,"bps":4800,"parity":"N","stopbits":1,"cycle":1.00}]}
2018-01-11 19:41:04 1515717664.107627: {"class":"WATCH","enable":true,"json":false,"nmea":true,"raw":0,"scaled":false,"timing":false,"split24":false,"pps":false}
2018-01-11 19:41:04 1515717664.394361: $GPZDA,004105.00,12,01,2018,00,00*6F
2018-01-11 19:41:04 1515717664.394604: $GPGGA,004105,3946.9581,N,08404.9801,W,2,09,1.00,319.26,M,-33.324,M,,*79
2018-01-11 19:41:04 1515717664.394675: $GPRMC,004105,A,3946.9581,N,08404.9801,W,0.0000,0.000,120118,,*31
2018-01-11 19:41:04 1515717664.394736: $GPGSA,A,3,7,8,9,16,23,27,30,11,138,,,,4.0,1.0,3.5*3D
2018-01-11 19:41:05 1515717665.732485: $GPGSV,3,1,12,07,43,309,44,08,62,159,46,09,56,250,43,16,34,052,48*70
2018-01-11 19:41:05 1515717665.732658: $GPGSV,3,2,12,23,43,195,47,27,57,070,49,30,18,301,33,21,01,033,01*75
2018-01-11 19:41:05 1515717665.732724: $GPGSV,3,3,12,26,08,064,02,11,09,172,03,28,04,249,00,138,38,213,47*4B
2018-01-11 19:41:05 1515717665.845908: $GPZDA,004106.00,12,01,2018,00,00*6C
2018-01-11 19:41:05 1515717665.846042: $GPGGA,004106,3946.9580,N,08404.9800,W,2,09,1.00,317.86,M,-33.324,M,,*7E
2018-01-11 19:41:05 1515717665.846107: $GPRMC,004106,A,3946.9580,N,08404.9800,W,0.0000,0.000,120118,,*32
2018-01-11 19:41:05 1515717665.846168: $GPGSA,A,3,7,8,9,16,23,27,30,26,138,,,,4.0,1.0,3.5*39
2018-01-11 19:41:06 1515717666.396814: $GPZDA,004107.00,12,01,2018,00,00*6D
2018-01-11 19:41:06 1515717666.396977: $GPGGA,004107,3946.9547,N,08404.9796,W,2,09,0.80,304.95,M,-33.324,M,,*7D
2018-01-11 19:41:06 1515717666.397042: $GPRMC,004107,A,3946.9547,N,08404.9796,W,0.1867,180.000,120118,,*39
2018-01-11 19:41:06 1515717666.397102: $GPGSA,A,3,7,8,9,16,23,27,30,26,138,,,,4.0,0.8,3.5*30
2018-01-11 19:41:07 1515717667.396277: $GPZDA,004108.00,12,01,2018,00,00*62
2018-01-11 19:41:07 1515717667.396443: $GPGGA,004108,3946.9533,N,08404.9794,W,2,09,0.80,300.22,M,-33.324,M,,*7B
2018-01-11 19:41:07 1515717667.396509: $GPRMC,004108,A,3946.9533,N,08404.9794,W,0.0000,0.000,120118,,*36
2018-01-11 19:41:07 1515717667.396570: $GPGSA,A,3,7,8,9,16,23,27,30,26,138,,,,4.0,0.8,3.5*30
2018-01-11 19:41:07 1515717667.396627: $GPGBS,004108,3.65,M,6.21,M,20.10,M*05
2018-01-11 19:41:08 1515717668.732736: $GPGSV,3,1,12,07,43,309,43,08,62,159,46,09,56,250,43,16,34,052,48*77
2018-01-11 19:41:08 1515717668.732902: $GPGSV,3,2,12,23,43,195,47,27,57,070,50,30,18,301,31,21,01,033,01*7F
2018-01-11 19:41:08 1515717668.732968: $GPGSV,3,3,12,28,04,249,24,11,09,172,23,26,08,064,00,138,38,213,44*4E
2018-01-11 19:41:08 1515717668.846076: $GPZDA,004109.00,12,01,2018,00,00*63
2018-01-11 19:41:08 1515717668.846207: $GPGGA,004109,3946.9533,N,08404.9794,W,2,10,0.80,300.22,M,-33.324,M,,*72
2018-01-11 19:41:08 1515717668.846273: $GPRMC,004109,A,3946.9533,N,08404.9794,W,0.0000,0.000,120118,,*37
2018-01-11 19:41:08 1515717668.846334: $GPGSA,A,3,7,8,9,16,23,27,30,28,11,138,,,4.0,0.8,3.5*3E
2018-01-11 19:41:09 1515717669.396978: $GPZDA,004110.00,12,01,2018,00,00*6B
2018-01-11 19:41:09 1515717669.397134: $GPGGA,004110,3946.9533,N,08404.9794,W,2,10,0.80,300.22,M,-33.324,M,,*7A
2018-01-11 19:41:09 1515717669.397201: $GPRMC,004110,A,3946.9533,N,08404.9794,W,0.0000,0.000,120118,,*3F
2018-01-11 19:41:09 1515717669.397261: $GPGSA,A,3,7,8,9,16,23,27,30,28,11,138,,,4.0,0.8,3.5*3E
2018-01-11 19:41:10 1515717670.396582: $GPZDA,004111.00,12,01,2018,00,00*6A
2018-01-11 19:41:10 1515717670.396737: $GPGGA,004111,3946.9533,N,08404.9794,W,2,10,0.80,300.22,M,-33.324,M,,*7B
2018-01-11 19:41:10 1515717670.396802: $GPRMC,004111,A,3946.9533,N,08404.9794,W,0.0000,0.000,120118,,*3E
2018-01-11 19:41:10 1515717670.396862: $GPGSA,A,3,7,8,9,16,23,27,30,28,11,138,,,4.0,0.8,3.5*3E
2018-01-11 19:41:11 1515717671.731071: $GPGSV,3,1,12,07,43,309,43,08,62,159,46,09,56,250,43,16,34,052,48*77
2018-01-11 19:41:11 1515717671.731307: $GPGSV,3,2,12,23,43,195,47,27,57,070,50,30,18,301,31,21,01,033,01*7F
2018-01-11 19:41:11 1515717671.731376: $GPGSV,3,3,12,26,08,064,00,11,09,172,24,28,04,249,00,138,38,213,45*4E
2018-01-11 19:41:11 1515717671.844379: $GPZDA,004112.00,12,01,2018,00,00*69
2018-01-11 19:41:11 1515717671.844505: $GPGGA,004112,3946.9533,N,08404.9794,W,2,09,0.80,300.22,M,-33.324,M,,*70
2018-01-11 19:41:11 1515717671.844568: $GPRMC,004112,A,3946.9533,N,08404.9794,W,0.0000,0.000,120118,,*3D
2018-01-11 19:41:11 1515717671.844627: $GPGSA,A,3,7,8,9,16,23,27,30,11,138,,,,4.0,0.8,3.5*34
