2017-11-15 19:52:50 1510793570.185128: {"class":"VERSION","release":"3.17","rev":"3.17","proto_major":3,"proto_minor":12}
2017-11-15 19:52:50 1510793570.185591: {"class":"DEVICES","devices":[{"class":"DEVICE","path":"/dev/ttyUSB0","driver":"SiRF","subtype":"9\u0006GSD4e_4.1.2-P1_RPATCH.05-F-GPS-4R-1510281 11/03/2015 307","activated":"2017-11-16T00:52:50.151Z","flags":1,"native":1,"bps":4800,"parity":"N","stopbits":1,"cycle":1.00}]}
2017-11-15 19:52:50 1510793570.185730: {"class":"WATCH","enable":true,"json":false,"nmea":true,"raw":0,"scaled":false,"timing":false,"split24":false,"pps":false}
2017-11-15 19:52:50 1510793570.329903: $GPZDA,005249.00,16,11,2017,00,00*6F
2017-11-15 19:52:50 1510793570.330069: $GPGGA,005249,3946.9498,N,08404.9588,W,1,08,1.00,292.30,M,-33.324,M,,*71
2017-11-15 19:52:50 1510793570.330130: $GPRMC,005249,A,3946.9498,N,08404.9588,W,0.1867,180.000,161117,,*35
2017-11-15 19:52:50 1510793570.330185: $GPGSA,A,3,32,16,31,26,14,22,3,23,,,,,3.4,1.0,2.9*08
2017-11-15 19:52:51 1510793571.665186: $GPGSV,3,1,11,32,28,115,08,16,33,190,18,31,59,039,21,26,64,166,24*7D
2017-11-15 19:52:51 1510793571.665355: $GPGSV,3,2,11,14,47,105,20,22,49,255,18,03,44,288,04,23,19,304,20*77
2017-11-15 19:52:51 1510793571.665415: $GPGSV,3,3,11,29,13,061,00,25,09,037,00,135,23,238,00*72
2017-11-15 19:52:51 1510793571.778872: $GPZDA,005250.00,16,11,2017,00,00*67
2017-11-15 19:52:51 1510793571.778991: $GPGGA,005250,3946.9499,N,08404.9595,W,1,07,1.00,292.22,M,-33.324,M,,*78
2017-11-15 19:52:51 1510793571.779049: $GPRMC,005250,A,3946.9499,N,08404.9595,W,0.5912,309.172,161117,,*30
2017-11-15 19:52:51 1510793571.779104: $GPGSA,A,3,32,16,31,26,14,22,23,,,,,,3.4,1.0,2.9*3B
2017-11-15 19:52:52 1510793572.329687: $GPZDA,005251.00,16,11,2017,00,00*66
2017-11-15 19:52:52 1510793572.329862: $GPGGA,005251,3946.9502,N,08404.9595,W,1,07,1.00,291.46,M,-33.324,M,,*7B
2017-11-15 19:52:52 1510793572.329923: $GPRMC,005251,A,3946.9502,N,08404.9595,W,0.7246,344.668,161117,,*3F
2017-11-15 19:52:52 1510793572.329980: $GPGSA,A,3,32,16,31,26,14,22,23,,,,,,3.4,1.0,2.9*3B
2017-11-15 19:52:53 1510793573.329294: $GPZDA,005252.00,16,11,2017,00,00*65
2017-11-15 19:52:53 1510793573.329453: $GPGGA,005252,3946.9502,N,08404.9595,W,1,07,1.00,291.46,M,-33.324,M,,*78
2017-11-15 19:52:53 1510793573.329513: $GPRMC,005252,A,3946.9502,N,08404.9595,W,0.4179,328.778,161117,,*3A
2017-11-15 19:52:53 1510793573.329570: $GPGSA,A,3,32,16,31,26,14,22,23,,,,,,3.4,1.0,2.9*3B
2017-11-15 19:52:54 1510793574.666083: $GPGSV,3,1,11,32,28,115,08,16,33,190,18,31,59,039,21,26,64,166,24*7D
2017-11-15 19:52:54 1510793574.666249: $GPGSV,3,2,11,14,47,105,20,22,49,255,18,03,44,288,04,23,19,304,20*77
2017-11-15 19:52:54 1510793574.666308: $GPGSV,3,3,11,29,13,061,00,25,09,037,00,135,23,238,00*72
2017-11-15 19:52:54 1510793574.779430: $GPZDA,005253.00,16,11,2017,00,00*64
2017-11-15 19:52:54 1510793574.779589: $GPGGA,005253,3946.9502,N,08404.9595,W,1,07,1.00,291.46,M,-33.324,M,,*79
2017-11-15 19:52:54 1510793574.779650: $GPRMC,005253,A,3946.9502,N,08404.9595,W,0.7278,23.636,161117,,*09
2017-11-15 19:52:54 1510793574.779705: $GPGSA,A,3,32,16,31,26,14,22,23,,,,,,3.4,1.0,2.9*3B
2017-11-15 19:52:55 1510793575.346509: $GPZDA,005254.00,16,11,2017,00,00*63
2017-11-15 19:52:55 1510793575.346676: $GPGGA,005254,3946.9498,N,08404.9595,W,1,07,1.00,290.82,M,-33.324,M,,*75
2017-11-15 19:52:55 1510793575.346794: $GPRMC,005254,A,3946.9498,N,08404.9595,W,0.7621,107.945,161117,,*38
2017-11-15 19:52:55 1510793575.346852: $GPGSA,A,3,32,16,31,26,14,22,23,,,,,,3.4,1.0,2.9*3B
2017-11-15 19:52:56 1510793576.347113: $GPZDA,005255.00,16,11,2017,00,00*62
2017-11-15 19:52:56 1510793576.347303: $GPGGA,005255,3946.9501,N,08404.9587,W,1,07,1.20,290.13,M,-33.324,M,,*7C
2017-11-15 19:52:56 1510793576.347365: $GPRMC,005255,A,3946.9501,N,08404.9587,W,0.7621,107.945,161117,,*3B
2017-11-15 19:52:56 1510793576.347421: $GPGSA,A,3,32,16,31,26,14,22,23,,,,,,3.4,1.2,2.9*39
2017-11-15 19:52:57 1510793577.682635: $GPGSV,3,1,11,32,28,115,07,16,33,190,19,31,59,039,21,26,64,166,23*74
2017-11-15 19:52:57 1510793577.682808: $GPGSV,3,2,11,14,47,105,19,22,49,255,18,03,44,288,04,23,19,304,20*7D
2017-11-15 19:52:57 1510793577.682919: $GPGSV,3,3,11,29,13,061,00,25,09,037,00,135,23,238,00*72
2017-11-15 19:52:57 1510793577.795978: $GPZDA,005256.00,16,11,2017,00,00*61
2017-11-15 19:52:57 1510793577.796130: $GPGGA,005256,3946.9501,N,08404.9587,W,1,07,1.20,290.13,M,-33.324,M,,*7F
2017-11-15 19:52:57 1510793577.796189: $GPRMC,005256,A,3946.9501,N,08404.9587,W,0.7267,93.794,161117,,*00
2017-11-15 19:52:57 1510793577.796244: $GPGSA,A,3,32,16,31,26,14,22,23,,,,,,3.4,1.2,2.9*39
2017-11-15 19:52:58 1510793578.347197: $GPZDA,005257.00,16,11,2017,00,00*60
2017-11-15 19:52:58 1510793578.347373: $GPGGA,005257,3946.9497,N,08404.9580,W,1,07,1.20,289.57,M,-33.324,M,,*7F
2017-11-15 19:52:58 1510793578.347434: $GPRMC,005257,A,3946.9497,N,08404.9580,W,0.5912,129.172,161117,,*3D
2017-11-15 19:52:58 1510793578.347490: $GPGSA,A,3,32,16,31,26,14,22,23,,,,,,3.4,1.2,2.9*39
2017-11-15 19:52:59 1510793579.346750: $GPZDA,005258.00,16,11,2017,00,00*6F
2017-11-15 19:52:59 1510793579.346917: $GPGGA,005258,3946.9497,N,08404.9580,W,1,07,1.20,289.57,M,-33.324,M,,*70
2017-11-15 19:52:59 1510793579.346978: $GPRMC,005258,A,3946.9497,N,08404.9580,W,0.7621,107.945,161117,,*3F
2017-11-15 19:52:59 1510793579.347034: $GPGSA,A,3,32,16,31,26,14,22,23,,,,,,3.4,1.2,2.9*39
