2018-01-12 04:27:50 1515749270.504876: {"class":"VERSION","release":"3.16","rev":"3.16-4","proto_major":3,"proto_minor":11}
2018-01-12 04:27:50 1515749270.505241: {"class":"DEVICES","devices":[{"class":"DEVICE","path":"/dev/ttyUSB0","driver":"SiRF","subtype":"9\u0006GSD4e_4.1.2-P1_RPATCH.05-F-GPS-4R-1510281 11/03/2015 307","activated":"2018-01-12T09:27:50.306Z","flags":1,"native":1,"bps":4800,"parity":"N","stopbits":1,"cycle":1.00}]}
2018-01-12 04:27:50 1515749270.505358: {"class":"WATCH","enable":true,"json":false,"nmea":true,"raw":0,"scaled":false,"timing":false,"split24":false,"pps":false}
2018-01-12 04:27:50 1515749270.754883: $GPGSV,3,1,12,02,71,354,44,05,53,199,49,06,45,057,38,12,50,247,48*74
2018-01-12 04:27:50 1515749270.755103: $GPGSV,3,2,12,25,33,298,40,29,13,307,46,09,20,064,20,19,30,117,00*73
2018-01-12 04:27:50 1515749270.755189: $GPGSV,3,3,12,20,02,219,28,23,05,036,28,17,12,123,00,138,38,213,48*49
2018-01-12 04:27:50 1515749270.868347: $GPZDA,092751.00,12,01,2018,00,00*67
2018-01-12 04:27:50 1515749270.868499: $GPGGA,092751,3946.9652,N,08404.9771,W,2,10,1.40,301.96,M,-33.324,M,,*7A
2018-01-12 04:27:50 1515749270.868565: $GPRMC,092751,A,3946.9652,N,08404.9771,W,0.0000,0.000,120118,,*3C
2018-01-12 04:27:50 1515749270.868627: $GPGSA,A,3,2,5,6,12,25,29,9,20,23,138,,,2.4,1.4,2.1*0C
2018-01-12 04:27:51 1515749271.421673: $GPZDA,092752.00,12,01,2018,00,00*64
2018-01-12 04:27:51 1515749271.421846: $GPGGA,092752,3946.9652,N,08404.9771,W,2,10,0.80,301.96,M,-33.324,M,,*74
2018-01-12 04:27:51 1515749271.421912: $GPRMC,092752,A,3946.9652,N,08404.9771,W,0.0000,0.000,120118,,*3F
2018-01-12 04:27:51 1515749271.421974: $GPGSA,A,3,2,5,6,12,25,29,9,20,23,138,,,2.4,0.8,2.1*01
2018-01-12 04:27:52 1515749272.419920: $GPZDA,092753.00,12,01,2018,00,00*65
2018-01-12 04:27:52 1515749272.420097: $GPGGA,092753,3946.9652,N,08404.9771,W,2,10,0.80,301.96,M,-33.324,M,,*75
2018-01-12 04:27:52 1515749272.420163: $GPRMC,092753,A,3946.9652,N,08404.9771,W,0.0000,0.000,120118,,*3E
2018-01-12 04:27:52 1515749272.420227: $GPGSA,A,3,2,5,6,12,25,29,9,20,23,138,,,2.4,0.8,2.1*01
2018-01-12 04:27:53 1515749273.758902: $GPGSV,3,1,12,02,71,354,44,05,53,199,49,06,45,057,38,12,50,247,48*74
2018-01-12 04:27:53 1515749273.759088: $GPGSV,3,2,12,25,33,298,40,29,13,307,46,09,20,064,24,17,12,123,25*79
2018-01-12 04:27:53 1515749273.759155: $GPGSV,3,3,12,04,56,288,09,23,05,036,28,19,30,117,23,138,38,213,48*4D
2018-01-12 04:27:53 1515749273.872268: $GPZDA,092754.00,12,01,2018,00,00*62
2018-01-12 04:27:53 1515749273.872409: $GPGGA,092754,3946.9652,N,08404.9771,W,2,11,0.80,301.96,M,-33.324,M,,*73
2018-01-12 04:27:53 1515749273.872476: $GPRMC,092754,A,3946.9652,N,08404.9771,W,0.0000,0.000,120118,,*39
2018-01-12 04:27:53 1515749273.872537: $GPGSA,A,3,2,5,6,12,25,29,9,17,23,19,138,,2.4,0.8,2.1*0D
2018-01-12 04:27:54 1515749274.421898: $GPZDA,092755.00,12,01,2018,00,00*63
2018-01-12 04:27:54 1515749274.422100: $GPGGA,092755,3946.9652,N,08404.9771,W,2,11,0.80,301.96,M,-33.324,M,,*72
2018-01-12 04:27:54 1515749274.422169: $GPRMC,092755,A,3946.9652,N,08404.9771,W,0.0000,0.000,120118,,*38
2018-01-12 04:27:54 1515749274.422233: $GPGSA,A,3,2,5,6,12,25,29,9,17,23,19,138,,2.4,0.8,2.1*0D
2018-01-12 04:27:55 1515749275.419474: $GPZDA,092756.00,12,01,2018,00,00*60
2018-01-12 04:27:55 1515749275.419647: $GPGGA,092756,3946.9652,N,08404.9771,W,2,11,0.80,301.96,M,-33.324,M,,*71
2018-01-12 04:27:55 1515749275.419716: $GPRMC,092756,A,3946.9652,N,08404.9771,W,0.0000,0.000,120118,,*3B
2018-01-12 04:27:55 1515749275.419777: $GPGSA,A,3,2,5,6,12,25,29,9,17,23,19,138,,2.4,0.8,2.1*0D
2018-01-12 04:27:56 1515749276.752319: $GPGSV,3,1,12,02,71,354,44,05,53,199,50,06,45,057,38,12,50,247,48*7C
2018-01-12 04:27:56 1515749276.752498: $GPGSV,3,2,12,25,33,298,39,29,13,307,46,09,20,064,17,17,12,123,26*74
2018-01-12 04:27:56 1515749276.752565: $GPGSV,3,3,12,20,02,219,27,23,05,036,27,19,30,117,23,138,38,213,47*4E
2018-01-12 04:27:56 1515749276.865999: $GPZDA,092757.00,12,01,2018,00,00*61
2018-01-12 04:27:56 1515749276.866150: $GPGGA,092757,3946.9652,N,08404.9771,W,2,12,0.80,301.96,M,-33.324,M,,*73
2018-01-12 04:27:56 1515749276.866264: $GPRMC,092757,A,3946.9652,N,08404.9771,W,0.0000,0.000,120118,,*3A
2018-01-12 04:27:56 1515749276.866328: $GPGSA,A,3,2,5,6,12,25,29,9,17,20,23,19,138,2.4,0.8,2.1*0F
2018-01-12 04:27:57 1515749277.491145: $GPZDA,092758.00,12,01,2018,00,00*6E
2018-01-12 04:27:57 1515749277.491320: $GPGGA,092758,3946.9652,N,08404.9771,W,2,12,0.80,301.96,M,-33.324,M,,*7C
2018-01-12 04:27:57 1515749277.491388: $GPRMC,092758,A,3946.9652,N,08404.9771,W,0.0000,0.000,120118,,*35
2018-01-12 04:27:57 1515749277.491450: $GPGSA,A,3,2,5,6,12,25,29,9,17,20,23,19,138,2.4,0.8,2.1*0F
2018-01-12 04:27:58 1515749278.420738: $GPZDA,092759.00,12,01,2018,00,00*6F
2018-01-12 04:27:58 1515749278.420902: $GPGGA,092759,3946.9652,N,08404.9771,W,2,12,0.80,301.96,M,-33.324,M,,*7D
2018-01-12 04:27:58 1515749278.420989: $GPRMC,092759,A,3946.9652,N,08404.9771,W,0.0000,0.000,120118,,*34
2018-01-12 04:27:58 1515749278.421052: $GPGSA,A,3,2,5,6,12,25,29,9,17,20,23,19,138,2.4,0.8,2.1*0F
2018-01-12 04:27:59 1515749279.755136: $GPGSV,3,1,12,02,71,354,44,05,53,199,50,06,45,057,38,12,50,247,48*7C
2018-01-12 04:27:59 1515749279.755343: $GPGSV,3,2,12,25,33,298,39,29,13,307,46,09,20,064,18,17,12,123,27*7A
2018-01-12 04:27:59 1515749279.755409: $GPGSV,3,3,12,20,02,219,27,23,05,036,26,19,30,117,23,138,38,213,47*4F
2018-01-12 04:27:59 1515749279.868751: $GPZDA,092800.00,12,01,2018,00,00*6C
2018-01-12 04:27:59 1515749279.868902: $GPGGA,092800,3946.9652,N,08404.9771,W,2,12,0.80,301.96,M,-33.324,M,,*7E
2018-01-12 04:27:59 1515749279.868988: $GPRMC,092800,A,3946.9652,N,08404.9771,W,0.0000,0.000,120118,,*37
2018-01-12 04:27:59 1515749279.869067: $GPGSA,A,3,2,5,6,12,25,29,9,17,20,23,19,138,2.4,0.8,2.1*0F
2018-01-12 04:28:00 1515749280.421946: $GPZDA,092801.00,12,01,2018,00,00*6D
2018-01-12 04:28:00 1515749280.422139: $GPGGA,092801,3946.9652,N,08404.9771,W,2,12,1.00,301.96,M,-33.324,M,,*76
2018-01-12 04:28:00 1515749280.422209: $GPRMC,092801,A,3946.9652,N,08404.9771,W,0.0000,0.000,120118,,*36
2018-01-12 04:28:00 1515749280.422271: $GPGSA,A,3,2,5,6,12,25,29,9,17,20,23,19,138,2.4,1.0,2.1*06
2018-01-12 04:28:01 1515749281.420270: $GPZDA,092802.00,12,01,2018,00,00*6E
2018-01-12 04:28:01 1515749281.420442: $GPGGA,092802,3946.9652,N,08404.9771,W,2,12,0.80,301.96,M,-33.324,M,,*7C
2018-01-12 04:28:01 1515749281.420510: $GPRMC,092802,A,3946.9652,N,08404.9771,W,0.0000,0.000,120118,,*35
2018-01-12 04:28:01 1515749281.420571: $GPGSA,A,3,2,5,6,12,25,29,9,17,20,23,19,138,2.4,0.8,2.1*0F
2018-01-12 04:28:02 1515749282.759241: $GPGSV,3,1,12,02,71,354,44,05,53,199,50,06,45,057,38,12,50,247,48*7C
2018-01-12 04:28:02 1515749282.759420: $GPGSV,3,2,12,25,33,298,39,29,13,307,46,09,20,064,19,17,12,123,28*74
2018-01-12 04:28:02 1515749282.759487: $GPGSV,3,3,12,20,02,219,26,23,05,036,21,19,30,117,23,138,38,213,47*49
2018-01-12 04:28:02 1515749282.872620: $GPZDA,092803.00,12,01,2018,00,00*6F
2018-01-12 04:28:02 1515749282.872788: $GPGGA,092803,3946.9652,N,08404.9771,W,2,12,0.80,301.96,M,-33.324,M,,*7D
2018-01-12 04:28:02 1515749282.872854: $GPRMC,092803,A,3946.9652,N,08404.9771,W,0.0000,0.000,120118,,*34
2018-01-12 04:28:02 1515749282.872935: $GPGSA,A,3,2,5,6,12,25,29,9,17,20,23,19,138,2.4,0.8,2.1*0F
2018-01-12 04:28:03 1515749283.419929: $GPZDA,092804.00,12,01,2018,00,00*68
2018-01-12 04:28:03 1515749283.420154: $GPGGA,092804,3946.9652,N,08404.9771,W,2,12,0.80,301.96,M,-33.324,M,,*7A
2018-01-12 04:28:03 1515749283.420224: $GPRMC,092804,A,3946.9652,N,08404.9771,W,0.0000,0.000,120118,,*33
2018-01-12 04:28:03 1515749283.420286: $GPGSA,A,3,2,5,6,12,25,29,9,17,20,23,19,138,2.4,0.8,2.1*0F
2018-01-12 04:28:04 1515749284.418231: $GPZDA,092805.00,12,01,2018,00,00*69
2018-01-12 04:28:04 1515749284.418386: $GPGGA,092805,3946.9656,N,08404.9771,W,2,12,0.80,302.60,M,-33.324,M,,*75
2018-01-12 04:28:04 1515749284.418453: $GPRMC,092805,A,3946.9656,N,08404.9771,W,0.0000,0.000,120118,,*36
2018-01-12 04:28:04 1515749284.418514: $GPGSA,A,3,2,5,6,12,25,29,9,17,20,23,19,138,2.4,0.8,2.1*0F
2018-01-12 04:28:05 1515749285.771358: $GPGSV,3,1,12,02,71,354,44,05,53,199,50,06,45,057,38,12,50,247,49*7D
2018-01-12 04:28:05 1515749285.771554: $GPGSV,3,2,12,25,33,298,39,29,13,307,46,09,20,064,20,17,12,123,29*7F
2018-01-12 04:28:05 1515749285.771622: $GPGSV,3,3,12,20,02,219,26,23,05,036,20,19,30,117,20,138,38,213,47*4B
2018-01-12 04:28:05 1515749285.884874: $GPZDA,092806.00,12,01,2018,00,00*6A
2018-01-12 04:28:05 1515749285.885075: $GPGGA,092806,3946.9656,N,08404.9771,W,2,12,0.80,302.60,M,-33.324,M,,*76
2018-01-12 04:28:05 1515749285.885143: $GPRMC,092806,A,3946.9656,N,08404.9771,W,0.0000,0.000,120118,,*35
2018-01-12 04:28:05 1515749285.885204: $GPGSA,A,3,2,5,6,12,25,29,9,17,20,23,19,138,2.4,0.8,2.1*0F
2018-01-12 04:28:06 1515749286.439807: $GPZDA,092807.00,12,01,2018,00,00*6B
2018-01-12 04:28:06 1515749286.440007: $GPGGA,092807,3946.9656,N,08404.9771,W,2,12,1.00,302.60,M,-33.324,M,,*7E
2018-01-12 04:28:06 1515749286.440093: $GPRMC,092807,A,3946.9656,N,08404.9771,W,0.0000,0.000,120118,,*34
2018-01-12 04:28:06 1515749286.440155: $GPGSA,A,3,2,5,6,12,25,29,9,17,20,23,19,138,2.4,1.0,2.1*06
2018-01-12 04:28:07 1515749287.420987: $GPZDA,092808.00,12,01,2018,00,00*64
2018-01-12 04:28:07 1515749287.421181: $GPGGA,092808,3946.9656,N,08404.9771,W,2,12,1.00,302.60,M,-33.324,M,,*71
2018-01-12 04:28:07 1515749287.421249: $GPRMC,092808,A,3946.9656,N,08404.9771,W,0.0000,0.000,120118,,*3B
2018-01-12 04:28:07 1515749287.421310: $GPGSA,A,3,2,5,6,12,25,29,9,17,20,23,19,138,2.4,1.0,2.1*06
2018-01-12 04:28:08 1515749288.752963: $GPGSV,3,1,12,02,71,354,43,05,53,199,50,06,45,057,38,12,50,247,49*7A
2018-01-12 04:28:08 1515749288.753161: $GPGSV,3,2,12,25,33,298,40,29,13,307,46,09,20,064,20,17,12,123,00*7A
2018-01-12 04:28:08 1515749288.753228: $GPGSV,3,3,12,20,02,219,28,23,05,036,19,19,30,117,19,138,38,213,47*45
2018-01-12 04:28:08 1515749288.866355: $GPZDA,092809.00,12,01,2018,00,00*65
2018-01-12 04:28:08 1515749288.866533: $GPGGA,092809,3946.9656,N,08404.9771,W,2,11,1.00,302.60,M,-33.324,M,,*73
2018-01-12 04:28:08 1515749288.866601: $GPRMC,092809,A,3946.9656,N,08404.9771,W,0.0000,0.000,120118,,*3A
2018-01-12 04:28:08 1515749288.866663: $GPGSA,A,3,2,5,6,12,25,29,9,20,23,19,138,,2.4,1.0,2.1*00
2018-01-12 04:28:09 1515749289.440068: $GPZDA,092810.00,12,01,2018,00,00*6D
2018-01-12 04:28:09 1515749289.440240: $GPGGA,092810,3946.9656,N,08404.9771,W,2,11,1.00,302.60,M,-33.324,M,,*7B
2018-01-12 04:28:09 1515749289.440306: $GPRMC,092810,A,3946.9656,N,08404.9771,W,0.0000,0.000,120118,,*32
2018-01-12 04:28:09 1515749289.440367: $GPGSA,A,3,2,5,6,12,25,29,9,20,23,19,138,,2.4,1.0,2.1*00
2018-01-12 04:28:10 1515749290.439332: $GPZDA,092811.00,12,01,2018,00,00*6C
2018-01-12 04:28:10 1515749290.439501: $GPGGA,092811,3946.9656,N,08404.9771,W,2,11,1.00,302.60,M,-33.324,M,,*7A
2018-01-12 04:28:10 1515749290.439568: $GPRMC,092811,A,3946.9656,N,08404.9771,W,0.0000,0.000,120118,,*33
2018-01-12 04:28:10 1515749290.439630: $GPGSA,A,3,2,5,6,12,25,29,9,20,23,19,138,,2.4,1.0,2.1*00
