2017-11-16 17:04:07 1510869847.210707: {"class":"VERSION","release":"3.17","rev":"3.17","proto_major":3,"proto_minor":12}
2017-11-16 17:04:07 1510869847.211244: {"class":"DEVICES","devices":[{"class":"DEVICE","path":"/dev/ttyUSB0","driver":"SiRF","subtype":"9\u0006GSD4e_4.1.2-P1_RPATCH.05-F-GPS-4R-1510281 11/03/2015 307","activated":"2017-11-16T22:04:06.988Z","flags":1,"native":1,"bps":4800,"parity":"N","stopbits":1,"cycle":1.00}]}
2017-11-16 17:04:07 1510869847.211373: {"class":"WATCH","enable":true,"json":false,"nmea":true,"raw":0,"scaled":false,"timing":false,"split24":false,"pps":false}
2017-11-16 17:04:07 1510869847.770847: $GPZDA,220406.00,16,11,2017,00,00*67
2017-11-16 17:04:07 1510869847.771012: $GPGGA,220406,3946.9595,N,08404.9817,W,2,12,0.80,313.16,M,-33.324,M,,*73
2017-11-16 17:04:07 1510869847.771093: $GPRMC,220406,A,3946.9595,N,08404.9817,W,0.0000,0.000,161117,,*3B
2017-11-16 17:04:07 1510869847.771150: $GPGSA,A,3,1,10,11,12,14,18,25,31,32,22,24,138,1.6,0.8,1.3*38
2017-11-16 17:04:07 1510869847.771221: $GPGBS,220406,2.07,M,2.72,M,7.42,M*3F
2017-11-16 17:04:08 1510869848.414225: $GPZDA,220407.00,16,11,2017,00,00*66
2017-11-16 17:04:08 1510869848.414400: $GPGGA,220407,3946.9595,N,08404.9817,W,2,12,0.80,313.16,M,-33.324,M,,*72
2017-11-16 17:04:08 1510869848.414461: $GPRMC,220407,A,3946.9595,N,08404.9817,W,0.0000,0.000,161117,,*3A
2017-11-16 17:04:08 1510869848.414517: $GPGSA,A,3,1,10,11,12,14,18,25,31,32,22,24,138,1.6,0.8,1.3*38
2017-11-16 17:04:09 1510869849.733687: $GPGSV,3,1,12,01,18,312,42,10,61,139,48,11,11,294,33,12,25,063,50*7C
2017-11-16 17:04:09 1510869849.733861: $GPGSV,3,2,12,14,60,304,46,18,30,139,44,25,35,106,46,31,42,216,49*74
2017-11-16 17:04:09 1510869849.733922: $GPGSV,3,3,12,32,70,351,50,22,09,312,33,24,07,046,31,138,38,213,44*47
2017-11-16 17:04:09 1510869849.847012: $GPZDA,220408.00,16,11,2017,00,00*69
2017-11-16 17:04:09 1510869849.847176: $GPGGA,220408,3946.9595,N,08404.9817,W,2,12,0.80,313.16,M,-33.324,M,,*7D
2017-11-16 17:04:09 1510869849.847237: $GPRMC,220408,A,3946.9595,N,08404.9817,W,0.0000,0.000,161117,,*35
2017-11-16 17:04:09 1510869849.847293: $GPGSA,A,3,1,10,11,12,14,18,25,31,32,22,24,138,1.6,0.8,1.3*38
2017-11-16 17:04:10 1510869850.414113: $GPZDA,220409.00,16,11,2017,00,00*68
2017-11-16 17:04:10 1510869850.414274: $GPGGA,220409,3946.9595,N,08404.9817,W,2,12,0.80,313.16,M,-33.324,M,,*7C
2017-11-16 17:04:10 1510869850.414335: $GPRMC,220409,A,3946.9595,N,08404.9817,W,0.0000,0.000,161117,,*34
2017-11-16 17:04:10 1510869850.414391: $GPGSA,A,3,1,10,11,12,14,18,25,31,32,22,24,138,1.6,0.8,1.3*38
2017-11-16 17:04:11 1510869851.396955: $GPZDA,220410.00,16,11,2017,00,00*60
2017-11-16 17:04:11 1510869851.397126: $GPGGA,220410,3946.9595,N,08404.9817,W,2,12,0.80,313.16,M,-33.324,M,,*74
2017-11-16 17:04:11 1510869851.397187: $GPRMC,220410,A,3946.9595,N,08404.9817,W,0.0000,0.000,161117,,*3C
2017-11-16 17:04:11 1510869851.397243: $GPGSA,A,3,1,10,11,12,14,18,25,31,32,22,24,138,1.6,0.8,1.3*38
2017-11-16 17:04:12 1510869852.732659: $GPGSV,3,1,12,01,18,312,42,10,61,139,48,11,11,294,32,12,25,063,50*7D
2017-11-16 17:04:12 1510869852.732843: $GPGSV,3,2,12,14,60,304,46,18,30,139,43,25,35,106,46,31,42,216,49*73
2017-11-16 17:04:12 1510869852.732906: $GPGSV,3,3,12,32,70,351,50,22,09,312,33,24,07,046,31,138,38,213,44*47
2017-11-16 17:04:12 1510869852.846046: $GPZDA,220411.00,16,11,2017,00,00*61
2017-11-16 17:04:12 1510869852.846228: $GPGGA,220411,3946.9595,N,08404.9817,W,2,12,0.80,313.16,M,-33.324,M,,*75
2017-11-16 17:04:12 1510869852.846293: $GPRMC,220411,A,3946.9595,N,08404.9817,W,0.0000,0.000,161117,,*3D
2017-11-16 17:04:12 1510869852.846370: $GPGSA,A,3,1,10,11,12,14,18,25,31,32,22,24,138,1.6,0.8,1.3*38
2017-11-16 17:04:13 1510869853.415717: $GPZDA,220412.00,16,11,2017,00,00*62
2017-11-16 17:04:13 1510869853.415920: $GPGGA,220412,3946.9595,N,08404.9817,W,2,12,0.80,313.16,M,-33.324,M,,*76
2017-11-16 17:04:13 1510869853.415985: $GPRMC,220412,A,3946.9595,N,08404.9817,W,0.0000,0.000,161117,,*3E
2017-11-16 17:04:13 1510869853.416043: $GPGSA,A,3,1,10,11,12,14,18,25,31,32,22,24,138,1.6,0.8,1.3*38
2017-11-16 17:04:14 1510869854.410144: $GPZDA,220413.00,16,11,2017,00,00*63
2017-11-16 17:04:14 1510869854.410331: $GPGGA,220413,3946.9595,N,08404.9817,W,2,12,0.80,313.16,M,-33.324,M,,*77
2017-11-16 17:04:14 1510869854.410395: $GPRMC,220413,A,3946.9595,N,08404.9817,W,0.0000,0.000,161117,,*3F
2017-11-16 17:04:14 1510869854.410451: $GPGSA,A,3,1,10,11,12,14,18,25,31,32,22,24,138,1.6,0.8,1.3*38
2017-11-16 17:04:15 1510869855.749691: $GPGSV,3,1,12,01,18,312,42,10,61,139,48,11,11,294,22,12,25,063,50*7C
2017-11-16 17:04:15 1510869855.749870: $GPGSV,3,2,12,14,60,304,46,18,30,139,43,25,35,106,45,31,42,216,49*70
2017-11-16 17:04:15 1510869855.749932: $GPGSV,3,3,12,32,70,351,50,22,09,312,33,24,07,046,31,138,38,213,43*40
2017-11-16 17:04:15 1510869855.862956: $GPZDA,220414.00,16,11,2017,00,00*64
2017-11-16 17:04:15 1510869855.863121: $GPGGA,220414,3946.9595,N,08404.9817,W,2,12,0.80,313.16,M,-33.324,M,,*70
2017-11-16 17:04:15 1510869855.863184: $GPRMC,220414,A,3946.9595,N,08404.9817,W,0.0000,0.000,161117,,*38
2017-11-16 17:04:15 1510869855.863240: $GPGSA,A,3,1,10,11,12,14,18,25,31,32,22,24,138,1.6,0.8,1.3*38
2017-11-16 17:04:16 1510869856.488297: $GPZDA,220415.00,16,11,2017,00,00*65
2017-11-16 17:04:16 1510869856.488467: $GPGGA,220415,3946.9595,N,08404.9817,W,2,12,0.80,313.16,M,-33.324,M,,*71
2017-11-16 17:04:16 1510869856.488532: $GPRMC,220415,A,3946.9595,N,08404.9817,W,0.0000,0.000,161117,,*39
2017-11-16 17:04:16 1510869856.488588: $GPGSA,A,3,1,10,11,12,14,18,25,31,32,22,24,138,1.6,0.8,1.3*38
