2017-12-01 17:54:50 1512168890.956771: {"class":"VERSION","release":"3.16","rev":"3.16-4","proto_major":3,"proto_minor":11}
2017-12-01 17:54:50 1512168890.957200: {"class":"DEVICES","devices":[{"class":"DEVICE","path":"/dev/ttyUSB0","driver":"SiRF","subtype":"9\u0006GSD4e_4.1.2-P1_RPATCH.05-F-GPS-4R-1510281 11/03/2015 307","activated":"2017-12-01T22:54:50.953Z","flags":1,"native":1,"bps":4800,"parity":"N","stopbits":1,"cycle":1.00}]}
2017-12-01 17:54:50 1512168890.957327: {"class":"WATCH","enable":true,"json":false,"nmea":true,"raw":0,"scaled":false,"timing":false,"split24":false,"pps":false}
2017-12-01 17:54:51 1512168891.067230: $GPZDA,225451.72,01,12,2017,00,00*60
2017-12-01 17:54:51 1512168891.067388: $GPGGA,225451,3946.9756,N,08404.9800,W,1,11,0.80,282.05,M,-33.325,M,,*75
2017-12-01 17:54:51 1512168891.067453: $GPRMC,225451,A,3946.9756,N,08404.9800,W,0.6267,9.200,011217,,*3C
2017-12-01 17:54:51 1512168891.067513: $GPGSA,A,3,1,3,10,14,16,22,25,26,29,31,138,,2.0,0.8,1.5*0D
2017-12-01 17:54:52 1512168892.171133: $GPZDA,225452.41,01,12,2017,00,00*63
2017-12-01 17:54:52 1512168892.171300: $GPGGA,225452,3946.9756,N,08404.9800,W,1,11,0.80,282.05,M,-33.325,M,,*76
2017-12-01 17:54:52 1512168892.171427: $GPRMC,225452,A,3946.9756,N,08404.9800,W,0.3106,69.940,011217,,*07
2017-12-01 17:54:52 1512168892.171492: $GPGSA,A,3,1,3,10,14,16,22,25,26,29,31,138,,2.0,0.8,1.5*0D
2017-12-01 17:54:52 1512168892.171550: $GPGBS,225452,10.70,M,15.43,M,35.28,M*01
2017-12-01 17:54:53 1512168893.336205: $GPGSV,3,1,12,01,13,262,33,03,31,310,49,10,09,159,42,14,64,070,44*70
2017-12-01 17:54:53 1512168893.336363: $GPGSV,3,2,12,16,10,189,40,22,47,289,47,29,06,084,34,25,27,046,44*7C
2017-12-01 17:54:53 1512168893.336428: $GPGSV,3,3,12,26,39,175,46,31,77,354,48,32,45,096,46,138,38,213,00*45
2017-12-01 17:54:53 1512168893.449623: $GPZDA,225453.00,01,12,2017,00,00*67
2017-12-01 17:54:53 1512168893.449768: $GPGGA,225453,3946.9752,N,08404.9801,W,1,11,0.80,282.81,M,-33.325,M,,*7E
2017-12-01 17:54:53 1512168893.449854: $GPRMC,225453,A,3946.9752,N,08404.9801,W,0.1324,22.230,011217,,*00
2017-12-01 17:54:53 1512168893.449916: $GPGSA,A,3,1,3,10,14,16,22,29,25,26,31,32,,2.0,0.8,1.5*36
2017-12-01 17:54:53 1512168893.901868: $GPZDA,225454.00,01,12,2017,00,00*60
2017-12-01 17:54:53 1512168893.902041: $GPGGA,225454,3946.9752,N,08404.9808,W,1,11,0.80,282.73,M,-33.325,M,,*7D
2017-12-01 17:54:53 1512168893.902107: $GPRMC,225454,A,3946.9752,N,08404.9808,W,0.3155,129.994,011217,,*37
2017-12-01 17:54:53 1512168893.902168: $GPGSA,A,3,1,3,10,14,16,22,29,25,26,31,32,,2.0,0.8,1.5*36
2017-12-01 17:54:54 1512168894.355157: $GPZDA,225455.00,01,12,2017,00,00*61
2017-12-01 17:54:54 1512168894.355333: $GPGGA,225455,3946.9749,N,08404.9808,W,1,11,0.80,283.50,M,-33.325,M,,*76
2017-12-01 17:54:54 1512168894.355398: $GPRMC,225455,A,3946.9749,N,08404.9808,W,0.0000,0.000,011217,,*30
2017-12-01 17:54:54 1512168894.355458: $GPGSA,A,3,1,3,10,14,16,22,29,25,26,31,32,,2.0,0.8,1.5*36
2017-12-01 17:54:55 1512168895.690295: $GPGSV,3,1,12,01,13,262,34,03,31,310,49,10,09,159,43,14,64,070,44*76
2017-12-01 17:54:55 1512168895.690491: $GPGSV,3,2,12,16,10,189,39,22,47,289,47,29,06,084,34,25,27,046,42*74
2017-12-01 17:54:55 1512168895.690560: $GPGSV,3,3,12,26,39,175,45,31,77,354,47,32,45,096,46,138,38,213,46*4B
2017-12-01 17:54:55 1512168895.803625: $GPZDA,225456.00,01,12,2017,00,00*62
2017-12-01 17:54:55 1512168895.810089: $GPGGA,225456,3946.9749,N,08404.9815,W,1,12,0.80,283.42,M,-33.325,M,,*79
2017-12-01 17:54:55 1512168895.810200: $GPRMC,225456,A,3946.9749,N,08404.9815,W,0.0000,0.000,011217,,*3F
2017-12-01 17:54:55 1512168895.810266: $GPGSA,A,3,1,3,10,14,16,22,29,25,26,31,32,138,2.0,0.8,1.5*0C
2017-12-01 17:54:56 1512168896.354543: $GPZDA,225457.00,01,12,2017,00,00*63
2017-12-01 17:54:56 1512168896.354718: $GPGGA,225457,3946.9749,N,08404.9815,W,1,12,0.80,283.42,M,-33.325,M,,*78
2017-12-01 17:54:56 1512168896.354783: $GPRMC,225457,A,3946.9749,N,08404.9815,W,0.0000,0.000,011217,,*3E
2017-12-01 17:54:56 1512168896.354843: $GPGSA,A,3,1,3,10,14,16,22,29,25,26,31,32,138,2.0,0.8,1.5*0C
2017-12-01 17:54:57 1512168897.356902: $GPZDA,225458.00,01,12,2017,00,00*6C
2017-12-01 17:54:57 1512168897.357070: $GPGGA,225458,3946.9746,N,08404.9816,W,1,12,0.80,284.18,M,-33.325,M,,*73
2017-12-01 17:54:57 1512168897.357136: $GPRMC,225458,A,3946.9746,N,08404.9816,W,0.0000,0.000,011217,,*3D
2017-12-01 17:54:57 1512168897.357197: $GPGSA,A,3,1,3,10,14,16,22,29,25,26,31,32,138,2.0,0.8,1.5*0C
2017-12-01 17:54:57 1512168897.357255: $GPGBS,225458,10.70,M,15.43,M,35.28,M*0B
2017-12-01 17:54:58 1512168898.692331: $GPGSV,3,1,12,01,13,262,34,03,31,310,49,10,09,159,43,14,64,070,43*71
2017-12-01 17:54:58 1512168898.692511: $GPGSV,3,2,12,16,10,189,40,22,47,289,48,29,06,084,34,25,27,046,43*74
2017-12-01 17:54:58 1512168898.692579: $GPGSV,3,3,12,26,39,175,46,31,77,354,47,32,45,096,46,138,38,213,46*48
2017-12-01 17:54:58 1512168898.805958: $GPZDA,225459.00,01,12,2017,00,00*6D
2017-12-01 17:54:58 1512168898.806117: $GPGGA,225459,3946.9734,N,08404.9847,W,2,12,1.20,286.92,M,-33.325,M,,*7B
2017-12-01 17:54:58 1512168898.806184: $GPRMC,225459,A,3946.9734,N,08404.9847,W,0.0000,0.000,011217,,*3D
2017-12-01 17:54:58 1512168898.806246: $GPGSA,A,2,1,3,10,14,16,22,29,25,26,31,32,138,2.0,1.2,1.5*06
2017-12-01 17:54:59 1512168899.355359: $GPZDA,225500.00,01,12,2017,00,00*60
2017-12-01 17:54:59 1512168899.355532: $GPGGA,225500,3946.9734,N,08404.9847,W,2,12,0.80,286.92,M,-33.325,M,,*7D
2017-12-01 17:54:59 1512168899.355599: $GPRMC,225500,A,3946.9734,N,08404.9847,W,0.0000,0.000,011217,,*30
2017-12-01 17:54:59 1512168899.355660: $GPGSA,A,3,1,3,10,14,16,22,29,25,26,31,32,138,2.0,0.8,1.5*0C
2017-12-01 17:55:00 1512168900.354737: $GPZDA,225501.00,01,12,2017,00,00*61
2017-12-01 17:55:00 1512168900.354899: $GPGGA,225501,3946.9734,N,08404.9847,W,2,12,0.80,286.92,M,-33.325,M,,*7C
2017-12-01 17:55:00 1512168900.354965: $GPRMC,225501,A,3946.9734,N,08404.9847,W,0.0000,0.000,011217,,*31
2017-12-01 17:55:00 1512168900.355025: $GPGSA,A,3,1,3,10,14,16,22,29,25,26,31,32,138,2.0,0.8,1.5*0C
2017-12-01 17:55:01 1512168901.697689: $GPGSV,3,1,12,01,13,262,34,03,31,310,49,10,09,159,43,14,64,070,43*71
2017-12-01 17:55:01 1512168901.697869: $GPGSV,3,2,12,16,10,189,40,22,47,289,48,29,06,084,33,25,27,046,42*72
2017-12-01 17:55:01 1512168901.697933: $GPGSV,3,3,12,26,39,175,46,31,77,354,47,32,45,096,46,138,38,213,46*48
2017-12-01 17:55:01 1512168901.811243: $GPZDA,225502.00,01,12,2017,00,00*62
2017-12-01 17:55:01 1512168901.811455: $GPGGA,225502,3946.9734,N,08404.9847,W,2,12,0.80,286.92,M,-33.325,M,,*7F
2017-12-01 17:55:01 1512168901.811530: $GPRMC,225502,A,3946.9734,N,08404.9847,W,0.0000,0.000,011217,,*32
2017-12-01 17:55:01 1512168901.811592: $GPGSA,A,3,1,3,10,14,16,22,29,25,26,31,32,138,2.0,0.8,1.5*0C
2017-12-01 17:55:02 1512168902.360892: $GPZDA,225503.00,01,12,2017,00,00*63
2017-12-01 17:55:02 1512168902.361063: $GPGGA,225503,3946.9734,N,08404.9847,W,2,12,0.80,286.92,M,-33.325,M,,*7E
2017-12-01 17:55:02 1512168902.361129: $GPRMC,225503,A,3946.9734,N,08404.9847,W,0.0000,0.000,011217,,*33
2017-12-01 17:55:02 1512168902.361191: $GPGSA,A,3,1,3,10,14,16,22,29,25,26,31,32,138,2.0,0.8,1.5*0C
2017-12-01 17:55:03 1512168903.355530: $GPZDA,225504.00,01,12,2017,00,00*64
2017-12-01 17:55:03 1512168903.355704: $GPGGA,225504,3946.9730,N,08404.9848,W,2,12,0.80,287.69,M,-33.325,M,,*77
2017-12-01 17:55:03 1512168903.355769: $GPRMC,225504,A,3946.9730,N,08404.9848,W,0.0000,0.000,011217,,*3F
2017-12-01 17:55:03 1512168903.355830: $GPGSA,A,3,1,3,10,14,16,22,29,25,26,31,32,138,2.0,0.8,1.5*0C
2017-12-01 17:55:04 1512168904.690972: $GPGSV,3,1,12,01,13,262,34,03,31,310,48,10,09,159,42,14,64,070,42*70
2017-12-01 17:55:04 1512168904.691154: $GPGSV,3,2,12,16,10,189,39,22,47,289,47,29,06,084,31,25,27,046,42*71
2017-12-01 17:55:04 1512168904.691221: $GPGSV,3,3,12,26,39,175,45,31,77,354,46,32,45,096,45,138,38,213,46*49
2017-12-01 17:55:04 1512168904.804843: $GPZDA,225505.00,01,12,2017,00,00*65
2017-12-01 17:55:04 1512168904.805010: $GPGGA,225505,3946.9730,N,08404.9848,W,2,12,0.80,287.69,M,-33.325,M,,*76
2017-12-01 17:55:04 1512168904.805077: $GPRMC,225505,A,3946.9730,N,08404.9848,W,0.2422,93.794,011217,,*08
2017-12-01 17:55:04 1512168904.805185: $GPGSA,A,3,1,3,10,14,16,22,29,25,26,31,32,138,2.0,0.8,1.5*0C
2017-12-01 17:55:05 1512168905.430000: $GPZDA,225506.00,01,12,2017,00,00*66
2017-12-01 17:55:05 1512168905.430167: $GPGGA,225506,3946.9733,N,08404.9844,W,2,12,0.80,293.38,M,-33.325,M,,*7B
2017-12-01 17:55:05 1512168905.430234: $GPRMC,225506,A,3946.9733,N,08404.9844,W,0.0000,0.000,011217,,*32
2017-12-01 17:55:05 1512168905.430295: $GPGSA,A,3,1,3,10,14,16,22,29,25,26,31,32,138,2.0,0.8,1.5*0C
2017-12-01 17:55:06 1512168906.354511: $GPZDA,225507.00,01,12,2017,00,00*67
2017-12-01 17:55:06 1512168906.354697: $GPGGA,225507,3946.9733,N,08404.9844,W,2,12,0.80,293.38,M,-33.325,M,,*7A
2017-12-01 17:55:06 1512168906.354765: $GPRMC,225507,A,3946.9733,N,08404.9844,W,0.0000,0.000,011217,,*33
2017-12-01 17:55:06 1512168906.354825: $GPGSA,A,3,1,3,10,14,16,22,29,25,26,31,32,138,2.0,0.8,1.5*0C
2017-12-01 17:55:07 1512168907.696340: $GPGSV,3,1,12,01,13,262,33,03,31,310,48,10,09,159,42,14,64,070,42*77
2017-12-01 17:55:07 1512168907.696527: $GPGSV,3,2,12,16,10,189,40,22,47,289,48,29,06,084,30,25,27,046,41*72
2017-12-01 17:55:07 1512168907.696593: $GPGSV,3,3,12,26,39,175,45,31,77,354,46,32,45,096,45,138,38,213,46*49
2017-12-01 17:55:07 1512168907.809683: $GPZDA,225508.00,01,12,2017,00,00*68
2017-12-01 17:55:07 1512168907.809849: $GPGGA,225508,3946.9733,N,08404.9844,W,2,12,0.80,293.38,M,-33.325,M,,*75
2017-12-01 17:55:07 1512168907.809915: $GPRMC,225508,A,3946.9733,N,08404.9844,W,0.0000,0.000,011217,,*3C
2017-12-01 17:55:07 1512168907.809976: $GPGSA,A,3,1,3,10,14,16,22,29,25,26,31,32,138,2.0,0.8,1.5*0C
2017-12-01 17:55:08 1512168908.355515: $GPZDA,225509.00,01,12,2017,00,00*69
2017-12-01 17:55:08 1512168908.355688: $GPGGA,225509,3946.9733,N,08404.9844,W,2,12,0.80,293.38,M,-33.325,M,,*74
2017-12-01 17:55:08 1512168908.355755: $GPRMC,225509,A,3946.9733,N,08404.9844,W,0.0000,0.000,011217,,*3D
2017-12-01 17:55:08 1512168908.355816: $GPGSA,A,3,1,3,10,14,16,22,29,25,26,31,32,138,2.0,0.8,1.5*0C
2017-12-01 17:55:09 1512168909.360122: $GPZDA,225510.00,01,12,2017,00,00*61
2017-12-01 17:55:09 1512168909.360291: $GPGGA,225510,3946.9733,N,08404.9844,W,2,12,0.80,293.38,M,-33.325,M,,*7C
2017-12-01 17:55:09 1512168909.360357: $GPRMC,225510,A,3946.9733,N,08404.9844,W,0.0000,0.000,011217,,*35
2017-12-01 17:55:09 1512168909.360417: $GPGSA,A,3,1,3,10,14,16,22,29,25,26,31,32,138,2.0,0.8,1.5*0C
2017-12-01 17:55:09 1512168909.360475: $GPGBS,225510,2.67,M,3.86,M,8.82,M*33
2017-12-01 17:55:10 1512168910.696489: $GPGSV,3,1,12,01,13,262,33,03,31,310,47,10,09,159,42,14,64,070,42*78
2017-12-01 17:55:10 1512168910.696675: $GPGSV,3,2,12,16,10,189,40,22,47,289,48,29,06,084,30,25,27,046,41*72
2017-12-01 17:55:10 1512168910.696744: $GPGSV,3,3,12,26,39,175,45,31,77,354,47,32,45,096,44,138,38,213,46*49
2017-12-01 17:55:10 1512168910.809919: $GPZDA,225511.00,01,12,2017,00,00*60
2017-12-01 17:55:10 1512168910.810094: $GPGGA,225511,3946.9733,N,08404.9844,W,2,12,0.80,293.38,M,-33.325,M,,*7D
2017-12-01 17:55:10 1512168910.810160: $GPRMC,225511,A,3946.9733,N,08404.9844,W,0.0000,0.000,011217,,*34
2017-12-01 17:55:10 1512168910.810221: $GPGSA,A,3,1,3,10,14,16,22,29,25,26,31,32,138,2.0,0.8,1.5*0C
