2017-12-01 14:29:24 1512156564.696863: {"class":"VERSION","release":"3.16","rev":"3.16-4","proto_major":3,"proto_minor":11}
2017-12-01 14:29:24 1512156564.697350: {"class":"DEVICES","devices":[{"class":"DEVICE","path":"/dev/ttyUSB0","driver":"SiRF","subtype":"9\u0006GSD4e_4.1.2-P1_RPATCH.05-F-GPS-4R-1510281 11/03/2015 307","activated":"2017-12-01T19:29:24.502Z","flags":1,"native":1,"bps":4800,"parity":"N","stopbits":1,"cycle":1.00}]}
2017-12-01 14:29:24 1512156564.697469: {"class":"WATCH","enable":true,"json":false,"nmea":true,"raw":0,"scaled":false,"timing":false,"split24":false,"pps":false}
2017-12-01 14:29:25 1512156565.361838: $GPZDA,192926.00,01,12,2017,00,00*67
2017-12-01 14:29:25 1512156565.362008: $GPGGA,192926,3946.9563,N,08404.9814,W,2,12,0.80,303.06,M,-33.324,M,,*7C
2017-12-01 14:29:25 1512156565.362075: $GPRMC,192926,A,3946.9563,N,08404.9814,W,0.0000,0.000,011217,,*31
2017-12-01 14:29:25 1512156565.362137: $GPGSA,A,3,10,14,18,21,24,32,8,12,15,27,20,138,2.0,0.8,1.5*37
2017-12-01 14:29:26 1512156566.702378: $GPGSV,3,1,12,10,71,334,48,14,30,255,41,18,69,099,45,21,26,178,45*79
2017-12-01 14:29:26 1512156566.702579: $GPGSV,3,2,12,24,43,057,49,32,48,268,45,08,05,292,16,12,10,105,25*77
2017-12-01 14:29:26 1512156566.702647: $GPGSV,3,3,12,15,10,067,33,27,05,258,18,20,07,120,17,138,38,213,46*4B
2017-12-01 14:29:26 1512156566.815662: $GPZDA,192927.00,01,12,2017,00,00*66
2017-12-01 14:29:26 1512156566.815835: $GPGGA,192927,3946.9563,N,08404.9821,W,2,12,0.80,302.98,M,-33.324,M,,*7D
2017-12-01 14:29:26 1512156566.815904: $GPRMC,192927,A,3946.9563,N,08404.9821,W,0.0000,0.000,011217,,*36
2017-12-01 14:29:26 1512156566.815966: $GPGSA,A,3,10,14,18,21,24,32,8,12,15,27,20,138,2.0,0.8,1.5*37
2017-12-01 14:29:27 1512156567.441026: $GPZDA,192928.00,01,12,2017,00,00*69
2017-12-01 14:29:27 1512156567.441214: $GPGGA,192928,3946.9563,N,08404.9821,W,2,12,0.80,302.98,M,-33.324,M,,*72
2017-12-01 14:29:27 1512156567.441287: $GPRMC,192928,A,3946.9563,N,08404.9821,W,0.0000,0.000,011217,,*39
2017-12-01 14:29:27 1512156567.441427: $GPGSA,A,3,10,14,18,21,24,32,8,12,15,27,20,138,2.0,0.8,1.5*37
2017-12-01 14:29:28 1512156568.368169: $GPZDA,192929.00,01,12,2017,00,00*68
2017-12-01 14:29:28 1512156568.368382: $GPGGA,192929,3946.9563,N,08404.9821,W,2,12,0.80,302.98,M,-33.324,M,,*73
2017-12-01 14:29:28 1512156568.368452: $GPRMC,192929,A,3946.9563,N,08404.9821,W,0.0000,0.000,011217,,*38
2017-12-01 14:29:28 1512156568.368514: $GPGSA,A,3,10,14,18,21,24,32,8,12,15,27,20,138,2.0,0.8,1.5*37
2017-12-01 14:29:29 1512156569.702656: $GPGSV,3,1,12,10,71,334,48,14,30,255,40,18,69,099,45,21,26,178,45*78
2017-12-01 14:29:29 1512156569.702855: $GPGSV,3,2,12,24,43,057,49,32,48,268,45,08,05,292,26,12,10,105,25*74
2017-12-01 14:29:29 1512156569.702922: $GPGSV,3,3,12,15,10,067,34,27,05,258,19,20,07,120,17,138,38,213,46*4D
2017-12-01 14:29:29 1512156569.816270: $GPZDA,192930.00,01,12,2017,00,00*60
2017-12-01 14:29:29 1512156569.816469: $GPGGA,192930,3946.9563,N,08404.9821,W,2,12,0.80,302.98,M,-33.324,M,,*7B
2017-12-01 14:29:29 1512156569.816537: $GPRMC,192930,A,3946.9563,N,08404.9821,W,0.0000,0.000,011217,,*30
2017-12-01 14:29:29 1512156569.816599: $GPGSA,A,3,10,14,18,21,24,32,8,12,15,27,20,138,2.0,0.8,1.5*37
2017-12-01 14:29:30 1512156570.367147: $GPZDA,192931.00,01,12,2017,00,00*61
2017-12-01 14:29:30 1512156570.367356: $GPGGA,192931,3946.9567,N,08404.9821,W,2,12,0.80,303.62,M,-33.324,M,,*7A
2017-12-01 14:29:30 1512156570.367424: $GPRMC,192931,A,3946.9567,N,08404.9821,W,0.0000,0.000,011217,,*35
2017-12-01 14:29:30 1512156570.367486: $GPGSA,A,3,10,14,18,21,24,32,8,12,15,27,20,138,2.0,0.8,1.5*37
2017-12-01 14:29:31 1512156571.369287: $GPZDA,192932.00,01,12,2017,00,00*62
2017-12-01 14:29:31 1512156571.369492: $GPGGA,192932,3946.9567,N,08404.9821,W,2,12,0.80,303.62,M,-33.324,M,,*79
2017-12-01 14:29:31 1512156571.369560: $GPRMC,192932,A,3946.9567,N,08404.9821,W,0.0000,0.000,011217,,*36
2017-12-01 14:29:31 1512156571.369621: $GPGSA,A,3,10,14,18,21,24,32,8,12,15,27,20,138,2.0,0.8,1.5*37
2017-12-01 14:29:32 1512156572.706774: $GPGSV,3,1,12,10,71,334,48,14,30,255,40,18,69,099,44,21,26,178,45*79
2017-12-01 14:29:32 1512156572.707009: $GPGSV,3,2,12,24,43,057,48,32,48,268,46,08,05,292,26,12,10,105,25*76
2017-12-01 14:29:32 1512156572.707078: $GPGSV,3,3,12,15,10,067,34,27,05,258,20,20,07,120,16,138,38,213,47*47
2017-12-01 14:29:32 1512156572.820157: $GPZDA,192933.00,01,12,2017,00,00*63
2017-12-01 14:29:32 1512156572.820369: $GPGGA,192933,3946.9567,N,08404.9821,W,2,11,0.80,303.62,M,-33.324,M,,*7B
2017-12-01 14:29:32 1512156572.820438: $GPRMC,192933,A,3946.9567,N,08404.9821,W,0.0000,0.000,011217,,*37
2017-12-01 14:29:32 1512156572.820500: $GPGSA,A,3,10,14,18,21,24,32,8,12,15,27,138,,2.0,0.8,1.5*35
2017-12-01 14:29:33 1512156573.366056: $GPZDA,192934.00,01,12,2017,00,00*64
2017-12-01 14:29:33 1512156573.366253: $GPGGA,192934,3946.9567,N,08404.9821,W,2,11,0.80,303.62,M,-33.324,M,,*7C
2017-12-01 14:29:33 1512156573.366341: $GPRMC,192934,A,3946.9567,N,08404.9821,W,0.0000,0.000,011217,,*30
2017-12-01 14:29:33 1512156573.366404: $GPGSA,A,3,10,14,18,21,24,32,8,12,15,27,138,,2.0,0.8,1.5*35
2017-12-01 14:29:34 1512156574.367652: $GPZDA,192935.00,01,12,2017,00,00*65
2017-12-01 14:29:34 1512156574.367871: $GPGGA,192935,3946.9567,N,08404.9821,W,2,11,0.80,303.62,M,-33.324,M,,*7D
2017-12-01 14:29:34 1512156574.367976: $GPRMC,192935,A,3946.9567,N,08404.9821,W,0.0000,0.000,011217,,*31
2017-12-01 14:29:34 1512156574.368042: $GPGSA,A,3,10,14,18,21,24,32,8,12,15,27,138,,2.0,0.8,1.5*35
2017-12-01 14:29:35 1512156575.703912: $GPGSV,3,1,12,10,71,334,48,14,30,255,40,18,69,099,44,21,26,178,44*78
2017-12-01 14:29:35 1512156575.704092: $GPGSV,3,2,12,24,43,057,48,32,48,268,46,08,05,292,19,12,10,105,26*79
2017-12-01 14:29:35 1512156575.704159: $GPGSV,3,3,12,15,10,067,34,27,05,258,20,25,04,141,18,138,38,213,46*49
2017-12-01 14:29:35 1512156575.817284: $GPZDA,192936.00,01,12,2017,00,00*66
2017-12-01 14:29:35 1512156575.817478: $GPGGA,192936,3946.9567,N,08404.9821,W,2,12,0.80,303.62,M,-33.324,M,,*7D
2017-12-01 14:29:35 1512156575.817545: $GPRMC,192936,A,3946.9567,N,08404.9821,W,0.0000,0.000,011217,,*32
2017-12-01 14:29:35 1512156575.817607: $GPGSA,A,3,10,14,18,21,24,32,8,12,15,27,25,138,2.0,0.8,1.5*32
2017-12-01 14:29:36 1512156576.363151: $GPZDA,192937.00,01,12,2017,00,00*67
2017-12-01 14:29:36 1512156576.366091: $GPGGA,192937,3946.9567,N,08404.9821,W,2,12,0.80,303.62,M,-33.324,M,,*7C
2017-12-01 14:29:36 1512156576.366211: $GPRMC,192937,A,3946.9567,N,08404.9821,W,0.0000,0.000,011217,,*33
2017-12-01 14:29:36 1512156576.366277: $GPGSA,A,3,10,14,18,21,24,32,8,12,15,27,25,138,2.0,0.8,1.5*32
2017-12-01 14:29:37 1512156577.368568: $GPZDA,192938.00,01,12,2017,00,00*68
2017-12-01 14:29:37 1512156577.368739: $GPGGA,192938,3946.9567,N,08404.9821,W,2,12,0.80,303.62,M,-33.324,M,,*73
2017-12-01 14:29:37 1512156577.368826: $GPRMC,192938,A,3946.9567,N,08404.9821,W,0.0000,0.000,011217,,*3C
2017-12-01 14:29:37 1512156577.368888: $GPGSA,A,3,10,14,18,21,24,32,8,12,15,27,25,138,2.0,0.8,1.5*32
2017-12-01 14:29:38 1512156578.704240: $GPGSV,3,1,12,10,71,334,48,14,30,255,40,18,69,099,44,21,26,178,44*78
2017-12-01 14:29:38 1512156578.704442: $GPGSV,3,2,12,24,43,057,48,32,48,268,46,08,05,292,30,12,10,105,26*72
2017-12-01 14:29:38 1512156578.704509: $GPGSV,3,3,12,15,10,067,34,27,05,258,19,25,04,141,17,138,38,213,47*4D
2017-12-01 14:29:38 1512156578.817659: $GPZDA,192939.00,01,12,2017,00,00*69
2017-12-01 14:29:38 1512156578.817854: $GPGGA,192939,3946.9567,N,08404.9821,W,2,12,0.80,303.62,M,-33.324,M,,*72
2017-12-01 14:29:38 1512156578.817920: $GPRMC,192939,A,3946.9567,N,08404.9821,W,0.0000,0.000,011217,,*3D
2017-12-01 14:29:38 1512156578.817981: $GPGSA,A,3,10,14,18,21,24,32,8,12,15,27,25,138,2.0,0.8,1.5*32
2017-12-01 14:29:39 1512156579.402572: $GPZDA,192940.00,01,12,2017,00,00*67
2017-12-01 14:29:39 1512156579.402739: $GPGGA,192940,3946.9564,N,08404.9822,W,2,12,0.80,304.38,M,-33.324,M,,*74
2017-12-01 14:29:39 1512156579.402807: $GPRMC,192940,A,3946.9564,N,08404.9822,W,0.0000,0.000,011217,,*33
2017-12-01 14:29:39 1512156579.402868: $GPGSA,A,3,10,14,18,21,24,32,8,12,15,27,25,138,2.0,0.8,1.5*32
2017-12-01 14:29:40 1512156580.368342: $GPZDA,192941.00,01,12,2017,00,00*66
2017-12-01 14:29:40 1512156580.368505: $GPGGA,192941,3946.9567,N,08404.9821,W,2,12,0.80,303.62,M,-33.324,M,,*7D
2017-12-01 14:29:40 1512156580.368572: $GPRMC,192941,A,3946.9567,N,08404.9821,W,0.0000,0.000,011217,,*32
2017-12-01 14:29:40 1512156580.368634: $GPGSA,A,3,10,14,18,21,24,32,8,12,15,27,25,138,2.0,0.8,1.5*32
2017-12-01 14:29:41 1512156581.736532: $GPGSV,3,1,12,10,71,334,48,14,30,255,40,18,69,099,44,21,26,178,44*78
2017-12-01 14:29:41 1512156581.736716: $GPGSV,3,2,12,24,43,057,49,32,48,268,45,08,05,292,31,12,10,105,26*71
2017-12-01 14:29:41 1512156581.736784: $GPGSV,3,3,12,15,10,067,34,27,05,258,19,20,07,120,00,138,38,213,48*45
2017-12-01 14:29:41 1512156581.849960: $GPZDA,192942.00,01,12,2017,00,00*65
2017-12-01 14:29:41 1512156581.850132: $GPGGA,192942,3946.9567,N,08404.9821,W,2,11,0.80,303.62,M,-33.324,M,,*7D
2017-12-01 14:29:41 1512156581.850218: $GPRMC,192942,A,3946.9567,N,08404.9821,W,0.0000,0.000,011217,,*31
2017-12-01 14:29:41 1512156581.850282: $GPGSA,A,3,10,14,18,21,24,32,8,12,15,27,138,,2.0,0.8,1.5*35
2017-12-01 14:29:42 1512156582.475327: $GPZDA,192943.00,01,12,2017,00,00*64
2017-12-01 14:29:42 1512156582.475495: $GPGGA,192943,3946.9567,N,08404.9821,W,2,11,0.80,303.62,M,-33.324,M,,*7C
2017-12-01 14:29:42 1512156582.475564: $GPRMC,192943,A,3946.9567,N,08404.9821,W,0.0000,0.000,011217,,*30
2017-12-01 14:29:42 1512156582.475626: $GPGSA,A,3,10,14,18,21,24,32,8,12,15,27,138,,2.0,0.8,1.5*35
2017-12-01 14:29:43 1512156583.393622: $GPZDA,192944.00,01,12,2017,00,00*63
2017-12-01 14:29:43 1512156583.393795: $GPGGA,192944,3946.9567,N,08404.9821,W,2,11,0.80,303.62,M,-33.324,M,,*7B
2017-12-01 14:29:43 1512156583.393864: $GPRMC,192944,A,3946.9567,N,08404.9821,W,0.0000,0.000,011217,,*37
2017-12-01 14:29:43 1512156583.393925: $GPGSA,A,3,10,14,18,21,24,32,8,12,15,27,138,,2.0,0.8,1.5*35
2017-12-01 14:29:44 1512156584.704271: $GPGSV,3,1,12,10,71,334,48,14,30,255,41,18,69,099,44,21,26,178,44*79
2017-12-01 14:29:44 1512156584.704470: $GPGSV,3,2,12,24,43,057,49,32,48,268,45,08,05,292,30,12,10,105,27*71
2017-12-01 14:29:44 1512156584.704539: $GPGSV,3,3,12,15,10,067,34,27,05,258,27,20,07,120,00,138,38,213,47*47
2017-12-01 14:29:44 1512156584.816457: $GPZDA,192945.00,01,12,2017,00,00*62
2017-12-01 14:29:44 1512156584.816627: $GPGGA,192945,3946.9567,N,08404.9821,W,2,11,0.80,303.62,M,-33.324,M,,*7A
2017-12-01 14:29:44 1512156584.816694: $GPRMC,192945,A,3946.9567,N,08404.9821,W,0.0000,0.000,011217,,*36
2017-12-01 14:29:44 1512156584.816755: $GPGSA,A,3,10,14,18,21,24,32,8,12,15,27,138,,2.0,0.8,1.5*35
2017-12-01 14:29:45 1512156585.403558: $GPZDA,192946.00,01,12,2017,00,00*61
2017-12-01 14:29:45 1512156585.403742: $GPGGA,192946,3946.9567,N,08404.9821,W,2,11,0.80,303.62,M,-33.324,M,,*79
2017-12-01 14:29:45 1512156585.403811: $GPRMC,192946,A,3946.9567,N,08404.9821,W,0.0000,0.000,011217,,*35
2017-12-01 14:29:45 1512156585.403872: $GPGSA,A,3,10,14,18,21,24,32,8,12,15,27,138,,2.0,0.8,1.5*35
2017-12-01 14:29:46 1512156586.369394: $GPZDA,192947.00,01,12,2017,00,00*60
2017-12-01 14:29:46 1512156586.369564: $GPGGA,192947,3946.9564,N,08404.9822,W,2,11,0.80,304.38,M,-33.324,M,,*70
2017-12-01 14:29:46 1512156586.369631: $GPRMC,192947,A,3946.9564,N,08404.9822,W,0.0000,0.000,011217,,*34
2017-12-01 14:29:46 1512156586.369692: $GPGSA,A,3,10,14,18,21,24,32,8,12,15,27,138,,2.0,0.8,1.5*35
2017-12-01 14:29:47 1512156587.740831: $GPGSV,3,1,12,10,71,334,47,14,30,255,42,18,69,099,45,21,26,178,45*75
2017-12-01 14:29:47 1512156587.741013: $GPGSV,3,2,12,24,43,057,49,32,48,268,45,08,05,292,30,12,10,105,27*71
2017-12-01 14:29:47 1512156587.741081: $GPGSV,3,3,12,15,10,067,34,27,05,258,26,20,07,120,00,138,38,213,46*47
2017-12-01 14:29:47 1512156587.854395: $GPZDA,192948.00,01,12,2017,00,00*6F
2017-12-01 14:29:47 1512156587.854568: $GPGGA,192948,3946.9564,N,08404.9822,W,2,11,0.80,304.38,M,-33.324,M,,*7F
2017-12-01 14:29:47 1512156587.854634: $GPRMC,192948,A,3946.9564,N,08404.9822,W,0.0000,0.000,011217,,*3B
2017-12-01 14:29:47 1512156587.854695: $GPGSA,A,3,10,14,18,21,24,32,8,12,15,27,138,,2.0,0.8,1.5*35
2017-12-01 14:29:48 1512156588.364020: $GPZDA,192949.00,01,12,2017,00,00*6E
2017-12-01 14:29:48 1512156588.364207: $GPGGA,192949,3946.9564,N,08404.9822,W,2,11,0.80,304.38,M,-33.324,M,,*7E
2017-12-01 14:29:48 1512156588.364275: $GPRMC,192949,A,3946.9564,N,08404.9822,W,0.0000,0.000,011217,,*3A
2017-12-01 14:29:48 1512156588.364336: $GPGSA,A,3,10,14,18,21,24,32,8,12,15,27,138,,2.0,0.8,1.5*35
2017-12-01 14:29:49 1512156589.370010: $GPZDA,192950.00,01,12,2017,00,00*66
2017-12-01 14:29:49 1512156589.370199: $GPGGA,192950,3946.9564,N,08404.9822,W,2,11,0.80,304.38,M,-33.324,M,,*76
2017-12-01 14:29:49 1512156589.370267: $GPRMC,192950,A,3946.9564,N,08404.9822,W,0.0000,0.000,011217,,*32
2017-12-01 14:29:49 1512156589.370328: $GPGSA,A,3,10,14,18,21,24,32,8,12,15,27,138,,2.0,0.8,1.5*35
