2017-11-16 17:33:48 1510871628.261130: {"class":"VERSION","release":"3.17","rev":"3.17","proto_major":3,"proto_minor":12}
2017-11-16 17:33:48 1510871628.261586: {"class":"DEVICES","devices":[{"class":"DEVICE","path":"/dev/ttyUSB0","driver":"SiRF","subtype":"9\u0006GSD4e_4.1.2-P1_RPATCH.05-F-GPS-4R-1510281 11/03/2015 307","activated":"2017-11-16T22:33:48.247Z","flags":1,"native":1,"bps":4800,"parity":"N","stopbits":1,"cycle":1.00}]}
2017-11-16 17:33:48 1510871628.261751: {"class":"WATCH","enable":true,"json":false,"nmea":true,"raw":0,"scaled":false,"timing":false,"split24":false,"pps":false}
2017-11-16 17:33:48 1510871628.761091: $GPGSV,3,1,12,01,21,300,33,10,47,148,47,22,19,312,42,12,22,049,50*70
2017-11-16 17:33:48 1510871628.762800: $GPGSV,3,2,12,14,66,330,47,18,17,144,39,26,03,183,13,11,08,280,38*7F
2017-11-16 17:33:48 1510871628.763059: $GPGSV,3,3,12,25,40,088,48,31,56,226,48,32,68,030,49,138,38,213,44*4E
2017-11-16 17:33:48 1510871628.873998: $GPZDA,223347.00,16,11,2017,00,00*66
2017-11-16 17:33:48 1510871628.874152: $GPGGA,223347,3946.9576,N,08404.9841,W,2,12,0.80,303.26,M,-33.324,M,,*7E
2017-11-16 17:33:48 1510871628.874212: $GPRMC,223347,A,3946.9576,N,08404.9841,W,0.0000,0.000,161117,,*34
2017-11-16 17:33:48 1510871628.874286: $GPGSA,A,3,1,10,22,12,14,18,26,11,25,31,32,138,1.6,0.8,1.3*3A
2017-11-16 17:33:49 1510871629.422371: $GPZDA,223348.00,16,11,2017,00,00*69
2017-11-16 17:33:49 1510871629.422548: $GPGGA,223348,3946.9576,N,08404.9841,W,2,12,0.80,303.26,M,-33.324,M,,*71
2017-11-16 17:33:49 1510871629.422609: $GPRMC,223348,A,3946.9576,N,08404.9841,W,0.0000,0.000,161117,,*3B
2017-11-16 17:33:49 1510871629.422665: $GPGSA,A,3,1,10,22,12,14,18,26,11,25,31,32,138,1.6,0.8,1.3*3A
2017-11-16 17:33:50 1510871630.415803: $GPZDA,223349.00,16,11,2017,00,00*68
2017-11-16 17:33:50 1510871630.415983: $GPGGA,223349,3946.9576,N,08404.9841,W,2,12,0.80,303.26,M,-33.324,M,,*70
2017-11-16 17:33:50 1510871630.416045: $GPRMC,223349,A,3946.9576,N,08404.9841,W,0.0000,0.000,161117,,*3A
2017-11-16 17:33:50 1510871630.416101: $GPGSA,A,3,1,10,22,12,14,18,26,11,25,31,32,138,1.6,0.8,1.3*3A
2017-11-16 17:33:51 1510871631.758598: $GPGSV,3,1,11,01,21,300,34,10,47,148,47,22,19,312,43,12,22,049,50*75
2017-11-16 17:33:51 1510871631.758800: $GPGSV,3,2,11,14,66,330,47,18,17,144,39,11,08,280,38,25,40,088,48*7C
2017-11-16 17:33:51 1510871631.758862: $GPGSV,3,3,11,31,56,226,48,32,68,030,49,138,38,213,44*72
2017-11-16 17:33:51 1510871631.871917: $GPZDA,223350.00,16,11,2017,00,00*60
2017-11-16 17:33:51 1510871631.872068: $GPGGA,223350,3946.9576,N,08404.9841,W,2,11,0.80,303.26,M,-33.324,M,,*7B
2017-11-16 17:33:51 1510871631.872128: $GPRMC,223350,A,3946.9576,N,08404.9841,W,0.0000,0.000,161117,,*32
2017-11-16 17:33:51 1510871631.872183: $GPGSA,A,3,1,10,22,12,14,18,11,25,31,32,138,,1.6,0.8,1.3*3E
2017-11-16 17:33:52 1510871632.422831: $GPZDA,223351.00,16,11,2017,00,00*61
2017-11-16 17:33:52 1510871632.422967: $GPGGA,223351,3946.9576,N,08404.9841,W,2,11,0.80,303.26,M,-33.324,M,,*7A
2017-11-16 17:33:52 1510871632.423029: $GPRMC,223351,A,3946.9576,N,08404.9841,W,0.0000,0.000,161117,,*33
2017-11-16 17:33:52 1510871632.423084: $GPGSA,A,3,1,10,22,12,14,18,11,25,31,32,138,,1.6,0.8,1.3*3E
2017-11-16 17:33:53 1510871633.399938: $GPZDA,223352.00,16,11,2017,00,00*62
2017-11-16 17:33:53 1510871633.400095: $GPGGA,223352,3946.9576,N,08404.9841,W,2,11,0.80,303.26,M,-33.324,M,,*79
2017-11-16 17:33:53 1510871633.400156: $GPRMC,223352,A,3946.9576,N,08404.9841,W,0.0000,0.000,161117,,*30
2017-11-16 17:33:53 1510871633.400212: $GPGSA,A,3,1,10,22,12,14,18,11,25,31,32,138,,1.6,0.8,1.3*3E
2017-11-16 17:33:54 1510871634.735558: $GPGSV,3,1,12,01,21,300,34,10,47,148,48,22,19,312,43,12,22,049,50*79
2017-11-16 17:33:54 1510871634.947768: $GPGSV,3,2,12,14,66,330,47,18,17,144,40,26,03,183,00,11,08,280,38*73
2017-11-16 17:33:54 1510871634.948092: $GPGSV,3,3,12,25,40,088,48,31,56,226,48,32,68,030,48,138,38,213,44*4F
2017-11-16 17:33:54 1510871634.948265: $GPZDA,223353.00,16,11,2017,00,00*63
2017-11-16 17:33:54 1510871634.948374: $GPGGA,223353,3946.9576,N,08404.9841,W,2,11,0.80,303.26,M,-33.324,M,,*78
2017-11-16 17:33:54 1510871634.948522: $GPRMC,223353,A,3946.9576,N,08404.9841,W,0.0000,0.000,161117,,*31
2017-11-16 17:33:54 1510871634.948667: $GPGSA,A,3,1,10,22,12,14,18,11,25,31,32,138,,1.6,0.8,1.3*3E
2017-11-16 17:33:55 1510871635.423607: $GPZDA,223354.00,16,11,2017,00,00*64
2017-11-16 17:33:55 1510871635.423781: $GPGGA,223354,3946.9576,N,08404.9841,W,2,11,0.80,303.26,M,-33.324,M,,*7F
2017-11-16 17:33:55 1510871635.423843: $GPRMC,223354,A,3946.9576,N,08404.9841,W,0.0000,0.000,161117,,*36
2017-11-16 17:33:55 1510871635.423899: $GPGSA,A,3,1,10,22,12,14,18,11,25,31,32,138,,1.6,0.8,1.3*3E
2017-11-16 17:33:56 1510871636.394068: $GPZDA,223355.00,16,11,2017,00,00*65
2017-11-16 17:33:56 1510871636.394238: $GPGGA,223355,3946.9576,N,08404.9841,W,2,11,0.80,303.26,M,-33.324,M,,*7E
2017-11-16 17:33:56 1510871636.394300: $GPRMC,223355,A,3946.9576,N,08404.9841,W,0.0000,0.000,161117,,*37
2017-11-16 17:33:56 1510871636.394356: $GPGSA,A,3,1,10,22,12,14,18,11,25,31,32,138,,1.6,0.8,1.3*3E
2017-11-16 17:33:57 1510871637.759807: $GPGSV,3,1,11,01,21,300,26,10,47,148,47,22,19,312,43,12,22,049,50*76
2017-11-16 17:33:57 1510871637.759973: $GPGSV,3,2,11,14,66,330,47,18,17,144,40,11,08,280,38,25,40,088,48*72
2017-11-16 17:33:57 1510871637.760034: $GPGSV,3,3,11,31,56,226,48,32,68,030,48,138,38,213,44*73
2017-11-16 17:33:57 1510871637.873130: $GPZDA,223356.00,16,11,2017,00,00*66
2017-11-16 17:33:57 1510871637.873280: $GPGGA,223356,3946.9576,N,08404.9841,W,2,11,0.80,303.26,M,-33.324,M,,*7D
2017-11-16 17:33:57 1510871637.873340: $GPRMC,223356,A,3946.9576,N,08404.9841,W,0.0000,0.000,161117,,*34
2017-11-16 17:33:57 1510871637.873396: $GPGSA,A,3,1,10,22,12,14,18,11,25,31,32,138,,1.6,0.8,1.3*3E
