2018-01-12 04:25:27 1515749127.743248: {"class":"VERSION","release":"3.16","rev":"3.16-4","proto_major":3,"proto_minor":11}
2018-01-12 04:25:27 1515749127.743602: {"class":"DEVICES","devices":[{"class":"DEVICE","path":"/dev/ttyUSB0","driver":"SiRF","subtype":"9\u0006GSD4e_4.1.2-P1_RPATCH.05-F-GPS-4R-1510281 11/03/2015 307","activated":"2018-01-12T09:25:27.709Z","flags":1,"native":1,"bps":4800,"parity":"N","stopbits":1,"cycle":1.00}]}
2018-01-12 04:25:27 1515749127.743719: {"class":"WATCH","enable":true,"json":false,"nmea":true,"raw":0,"scaled":false,"timing":false,"split24":false,"pps":false}
2018-01-12 04:25:27 1515749127.822833: $GPZDA,092528.00,12,01,2018,00,00*6B
2018-01-12 04:25:27 1515749127.823005: $GPGGA,092528,3946.9641,N,08404.9741,W,2,11,0.80,298.19,M,-33.324,M,,*7D
2018-01-12 04:25:27 1515749127.823071: $GPRMC,092528,A,3946.9641,N,08404.9741,W,0.0000,0.000,120118,,*31
2018-01-12 04:25:27 1515749127.823131: $GPGSA,A,3,2,5,6,12,25,29,19,9,23,17,138,,2.4,0.8,2.1*0D
2018-01-12 04:25:28 1515749128.357889: $GPZDA,092529.00,12,01,2018,00,00*6A
2018-01-12 04:25:28 1515749128.358053: $GPGGA,092529,3946.9641,N,08404.9741,W,2,11,0.80,298.19,M,-33.324,M,,*7C
2018-01-12 04:25:28 1515749128.358119: $GPRMC,092529,A,3946.9641,N,08404.9741,W,0.0000,0.000,120118,,*30
2018-01-12 04:25:28 1515749128.358180: $GPGSA,A,3,2,5,6,12,25,29,19,9,23,17,138,,2.4,0.8,2.1*0D
2018-01-12 04:25:29 1515749129.360274: $GPZDA,092530.00,12,01,2018,00,00*62
2018-01-12 04:25:29 1515749129.360450: $GPGGA,092530,3946.9641,N,08404.9741,W,2,11,0.80,298.19,M,-33.324,M,,*74
2018-01-12 04:25:29 1515749129.360518: $GPRMC,092530,A,3946.9641,N,08404.9741,W,0.0000,0.000,120118,,*38
2018-01-12 04:25:29 1515749129.360579: $GPGSA,A,3,2,5,6,12,25,29,19,9,23,17,138,,2.4,0.8,2.1*0D
2018-01-12 04:25:30 1515749130.696050: $GPGSV,3,1,12,02,71,349,44,05,51,199,50,06,46,055,40,12,51,249,48*73
2018-01-12 04:25:30 1515749130.696232: $GPGSV,3,2,12,25,33,300,44,29,12,307,45,19,31,117,23,09,20,066,17*73
2018-01-12 04:25:30 1515749130.696299: $GPGSV,3,3,12,20,01,219,04,23,05,036,26,17,13,121,27,138,38,213,48*4C
2018-01-12 04:25:30 1515749130.809656: $GPZDA,092531.00,12,01,2018,00,00*63
2018-01-12 04:25:30 1515749130.809826: $GPGGA,092531,3946.9641,N,08404.9741,W,2,11,0.80,298.19,M,-33.324,M,,*75
2018-01-12 04:25:30 1515749130.809907: $GPRMC,092531,A,3946.9641,N,08404.9741,W,0.0000,0.000,120118,,*39
2018-01-12 04:25:30 1515749130.809969: $GPGSA,A,3,2,5,6,12,25,29,19,9,23,17,138,,2.4,0.8,2.1*0D
2018-01-12 04:25:31 1515749131.381808: $GPZDA,092532.00,12,01,2018,00,00*60
2018-01-12 04:25:31 1515749131.381981: $GPGGA,092532,3946.9641,N,08404.9741,W,2,11,0.80,298.19,M,-33.324,M,,*76
2018-01-12 04:25:31 1515749131.382047: $GPRMC,092532,A,3946.9641,N,08404.9741,W,0.0000,0.000,120118,,*3A
2018-01-12 04:25:31 1515749131.382125: $GPGSA,A,3,2,5,6,12,25,29,19,9,23,17,138,,2.4,0.8,2.1*0D
2018-01-12 04:25:32 1515749132.371430: $GPZDA,092533.00,12,01,2018,00,00*61
2018-01-12 04:25:32 1515749132.371602: $GPGGA,092533,3946.9637,N,08404.9742,W,2,11,0.80,298.95,M,-33.324,M,,*71
2018-01-12 04:25:32 1515749132.371668: $GPRMC,092533,A,3946.9637,N,08404.9742,W,0.0000,0.000,120118,,*39
2018-01-12 04:25:32 1515749132.371729: $GPGSA,A,3,2,5,6,12,25,29,19,9,23,17,138,,2.4,0.8,2.1*0D
2018-01-12 04:25:33 1515749133.694474: $GPGSV,3,1,12,02,71,349,44,05,51,199,50,06,46,055,40,12,51,249,48*73
2018-01-12 04:25:33 1515749133.694669: $GPGSV,3,2,12,25,33,300,44,29,12,307,45,19,31,117,23,09,20,066,12*76
2018-01-12 04:25:33 1515749133.694735: $GPGSV,3,3,12,20,01,219,04,23,05,036,26,17,13,121,29,138,38,213,47*4D
2018-01-12 04:25:33 1515749133.808052: $GPZDA,092534.00,12,01,2018,00,00*66
2018-01-12 04:25:33 1515749133.808222: $GPGGA,092534,3946.9637,N,08404.9742,W,2,11,0.80,298.95,M,-33.324,M,,*76
2018-01-12 04:25:33 1515749133.808288: $GPRMC,092534,A,3946.9637,N,08404.9742,W,0.0000,0.000,120118,,*3E
2018-01-12 04:25:33 1515749133.808348: $GPGSA,A,3,2,5,6,12,25,29,19,9,23,17,138,,2.4,0.8,2.1*0D
2018-01-12 04:25:34 1515749134.433665: $GPZDA,092535.00,12,01,2018,00,00*67
2018-01-12 04:25:34 1515749134.433836: $GPGGA,092535,3946.9641,N,08404.9742,W,2,11,0.80,299.59,M,-33.324,M,,*77
2018-01-12 04:25:34 1515749134.433954: $GPRMC,092535,A,3946.9641,N,08404.9742,W,0.0000,0.000,120118,,*3E
2018-01-12 04:25:34 1515749134.434016: $GPGSA,A,3,2,5,6,12,25,29,19,9,23,17,138,,2.4,0.8,2.1*0D
2018-01-12 04:25:35 1515749135.374410: $GPZDA,092536.00,12,01,2018,00,00*64
2018-01-12 04:25:35 1515749135.374571: $GPGGA,092536,3946.9641,N,08404.9742,W,2,11,0.80,299.59,M,-33.324,M,,*74
2018-01-12 04:25:35 1515749135.374636: $GPRMC,092536,A,3946.9641,N,08404.9742,W,0.0000,0.000,120118,,*3D
2018-01-12 04:25:35 1515749135.374696: $GPGSA,A,3,2,5,6,12,25,29,19,9,23,17,138,,2.4,0.8,2.1*0D
2018-01-12 04:25:36 1515749136.693579: $GPGSV,3,1,12,02,71,349,43,05,51,199,50,06,46,055,40,12,51,249,48*74
2018-01-12 04:25:36 1515749136.693758: $GPGSV,3,2,12,25,33,300,43,29,12,307,45,19,31,117,23,09,20,066,00*72
2018-01-12 04:25:36 1515749136.693823: $GPGSV,3,3,12,04,56,286,00,23,05,036,26,17,13,121,29,138,38,213,48*44
2018-01-12 04:25:36 1515749136.807219: $GPZDA,092537.00,12,01,2018,00,00*65
2018-01-12 04:25:36 1515749136.807388: $GPGGA,092537,3946.9641,N,08404.9742,W,2,10,0.80,299.59,M,-33.324,M,,*74
2018-01-12 04:25:36 1515749136.807455: $GPRMC,092537,A,3946.9641,N,08404.9742,W,0.0000,0.000,120118,,*3C
2018-01-12 04:25:36 1515749136.807515: $GPGSA,A,3,2,5,6,12,25,29,19,23,17,138,,,2.4,0.8,2.1*34
2018-01-12 04:25:37 1515749137.376709: $GPZDA,092538.00,12,01,2018,00,00*6A
2018-01-12 04:25:37 1515749137.376904: $GPGGA,092538,3946.9641,N,08404.9742,W,2,10,0.80,299.59,M,-33.324,M,,*7B
2018-01-12 04:25:37 1515749137.376978: $GPRMC,092538,A,3946.9641,N,08404.9742,W,0.0000,0.000,120118,,*33
2018-01-12 04:25:37 1515749137.377064: $GPGSA,A,3,2,5,6,12,25,29,19,23,17,138,,,2.4,0.8,2.1*34
2018-01-12 04:25:38 1515749138.376560: $GPZDA,092539.00,12,01,2018,00,00*6B
2018-01-12 04:25:38 1515749138.376798: $GPGGA,092539,3946.9641,N,08404.9742,W,2,10,0.80,299.59,M,-33.324,M,,*7A
2018-01-12 04:25:38 1515749138.377016: $GPRMC,092539,A,3946.9641,N,08404.9742,W,0.0000,0.000,120118,,*32
2018-01-12 04:25:38 1515749138.377086: $GPGSA,A,3,2,5,6,12,25,29,19,23,17,138,,,2.4,0.8,2.1*34
2018-01-12 04:25:39 1515749139.710127: $GPGSV,3,1,12,02,71,349,43,05,51,199,50,06,46,055,40,12,51,249,48*74
2018-01-12 04:25:39 1515749139.710313: $GPGSV,3,2,12,25,33,300,43,29,12,307,44,19,31,117,23,09,20,066,19*7B
2018-01-12 04:25:39 1515749139.710394: $GPGSV,3,3,12,04,56,286,00,23,05,036,21,17,13,121,29,138,38,213,47*4C
2018-01-12 04:25:39 1515749139.824732: $GPZDA,092540.00,12,01,2018,00,00*65
2018-01-12 04:25:39 1515749139.824919: $GPGGA,092540,3946.9641,N,08404.9742,W,2,11,0.80,299.59,M,-33.324,M,,*75
2018-01-12 04:25:39 1515749139.824986: $GPRMC,092540,A,3946.9641,N,08404.9742,W,0.0000,0.000,120118,,*3C
2018-01-12 04:25:39 1515749139.825049: $GPGSA,A,3,2,5,6,12,25,29,19,9,23,17,138,,2.4,0.8,2.1*0D
2018-01-12 04:25:40 1515749140.375166: $GPZDA,092541.00,12,01,2018,00,00*64
2018-01-12 04:25:40 1515749140.375359: $GPGGA,092541,3946.9646,N,08404.9742,W,2,11,0.80,300.23,M,-33.324,M,,*7F
2018-01-12 04:25:40 1515749140.375427: $GPRMC,092541,A,3946.9646,N,08404.9742,W,0.0000,0.000,120118,,*3A
2018-01-12 04:25:40 1515749140.375490: $GPGSA,A,3,2,5,6,12,25,29,19,9,23,17,138,,2.4,0.8,2.1*0D
2018-01-12 04:25:41 1515749141.358179: $GPZDA,092542.00,12,01,2018,00,00*67
2018-01-12 04:25:41 1515749141.358347: $GPGGA,092542,3946.9646,N,08404.9749,W,2,11,0.80,300.16,M,-33.324,M,,*71
2018-01-12 04:25:41 1515749141.358416: $GPRMC,092542,A,3946.9646,N,08404.9749,W,0.0000,0.000,120118,,*32
2018-01-12 04:25:41 1515749141.358476: $GPGSA,A,3,2,5,6,12,25,29,19,9,23,17,138,,2.4,0.8,2.1*0D
2018-01-12 04:25:42 1515749142.709756: $GPGSV,3,1,12,02,71,349,43,05,51,199,50,06,46,055,40,12,51,249,48*74
2018-01-12 04:25:42 1515749142.709943: $GPGSV,3,2,12,25,33,300,43,29,12,307,44,19,31,117,23,09,20,066,20*71
2018-01-12 04:25:42 1515749142.710010: $GPGSV,3,3,12,04,56,286,00,23,05,036,20,17,13,121,29,138,38,213,47*4D
2018-01-12 04:25:42 1515749142.824007: $GPZDA,092543.00,12,01,2018,00,00*66
2018-01-12 04:25:42 1515749142.824311: $GPGGA,092543,3946.9646,N,08404.9749,W,2,11,0.80,300.16,M,-33.324,M,,*70
2018-01-12 04:25:42 1515749142.824396: $GPRMC,092543,A,3946.9646,N,08404.9749,W,0.0000,0.000,120118,,*33
2018-01-12 04:25:42 1515749142.824463: $GPGSA,A,3,2,5,6,12,25,29,19,9,23,17,138,,2.4,0.8,2.1*0D
2018-01-12 04:25:43 1515749143.359428: $GPZDA,092544.00,12,01,2018,00,00*61
2018-01-12 04:25:43 1515749143.359635: $GPGGA,092544,3946.9646,N,08404.9749,W,2,11,1.00,300.16,M,-33.324,M,,*7E
2018-01-12 04:25:43 1515749143.359707: $GPRMC,092544,A,3946.9646,N,08404.9749,W,0.0000,0.000,120118,,*34
2018-01-12 04:25:43 1515749143.359768: $GPGSA,A,3,2,5,6,12,25,29,19,9,23,17,138,,2.4,1.0,2.1*04
2018-01-12 04:25:44 1515749144.378441: $GPZDA,092545.00,12,01,2018,00,00*60
2018-01-12 04:25:44 1515749144.378627: $GPGGA,092545,3946.9646,N,08404.9749,W,2,11,1.00,300.16,M,-33.324,M,,*7F
2018-01-12 04:25:44 1515749144.378702: $GPRMC,092545,A,3946.9646,N,08404.9749,W,0.0000,0.000,120118,,*35
2018-01-12 04:25:44 1515749144.378764: $GPGSA,A,3,2,5,6,12,25,29,19,9,23,17,138,,2.4,1.0,2.1*04
2018-01-12 04:25:45 1515749145.711356: $GPGSV,3,1,12,02,71,349,43,05,51,199,50,06,46,055,40,12,51,249,49*75
2018-01-12 04:25:45 1515749145.711543: $GPGSV,3,2,12,25,33,300,42,29,12,307,44,19,31,117,23,09,20,066,20*70
2018-01-12 04:25:45 1515749145.711611: $GPGSV,3,3,12,17,13,121,24,23,05,036,18,04,56,286,00,138,38,213,47*4B
2018-01-12 04:25:45 1515749145.824818: $GPZDA,092546.00,12,01,2018,00,00*63
2018-01-12 04:25:45 1515749145.824995: $GPGGA,092546,3946.9646,N,08404.9749,W,2,11,0.80,300.16,M,-33.324,M,,*75
2018-01-12 04:25:45 1515749145.825062: $GPRMC,092546,A,3946.9646,N,08404.9749,W,0.0000,0.000,120118,,*36
2018-01-12 04:25:45 1515749145.825122: $GPGSA,A,3,2,5,6,12,25,29,19,9,17,23,138,,2.4,0.8,2.1*0D
2018-01-12 04:25:46 1515749146.358275: $GPZDA,092547.00,12,01,2018,00,00*62
2018-01-12 04:25:46 1515749146.358466: $GPGGA,092547,3946.9646,N,08404.9749,W,2,11,1.00,300.16,M,-33.324,M,,*7D
2018-01-12 04:25:46 1515749146.358535: $GPRMC,092547,A,3946.9646,N,08404.9749,W,0.0000,0.000,120118,,*37
2018-01-12 04:25:46 1515749146.358599: $GPGSA,A,3,2,5,6,12,25,29,19,9,17,23,138,,2.4,1.0,2.1*04
2018-01-12 04:25:47 1515749147.360486: $GPZDA,092548.00,12,01,2018,00,00*6D
2018-01-12 04:25:47 1515749147.360664: $GPGGA,092548,3946.9646,N,08404.9749,W,2,11,0.80,300.16,M,-33.324,M,,*7B
2018-01-12 04:25:47 1515749147.360731: $GPRMC,092548,A,3946.9646,N,08404.9749,W,0.0000,0.000,120118,,*38
2018-01-12 04:25:47 1515749147.360793: $GPGSA,A,3,2,5,6,12,25,29,19,9,17,23,138,,2.4,0.8,2.1*0D
