2017-12-29 11:00:18 1514563218.207403: {"class":"VERSION","release":"3.16","rev":"3.16-4","proto_major":3,"proto_minor":11}
2017-12-29 11:00:18 1514563218.207867: {"class":"DEVICES","devices":[{"class":"DEVICE","path":"/dev/ttyUSB0","driver":"SiRF","subtype":"9\u0006GSD4e_4.1.2-P1_RPATCH.05-F-GPS-4R-1510281 11/03/2015 307","activated":"2017-12-29T16:00:18.179Z","flags":1,"native":1,"bps":4800,"parity":"N","stopbits":1,"cycle":1.00}]}
2017-12-29 11:00:18 1514563218.208002: {"class":"WATCH","enable":true,"json":false,"nmea":true,"raw":0,"scaled":false,"timing":false,"split24":false,"pps":false}
2017-12-29 11:00:18 1514563218.355798: $GPZDA,160019.00,29,12,2017,00,00*65
2017-12-29 11:00:18 1514563218.356005: $GPGGA,160019,3946.9582,N,08404.9855,W,2,11,1.00,290.90,M,-33.324,M,,*70
2017-12-29 11:00:18 1514563218.356071: $GPRMC,160019,A,3946.9582,N,08404.9855,W,0.0000,0.000,291217,,*39
2017-12-29 11:00:18 1514563218.356131: $GPGSA,A,3,8,10,13,15,18,20,21,24,27,32,138,,1.7,1.0,1.3*38
2017-12-29 11:00:19 1514563219.694001: $GPGSV,3,1,11,08,03,328,26,10,36,295,41,13,14,046,37,15,44,051,50*76
2017-12-29 11:00:19 1514563219.700141: $GPGSV,3,2,11,18,66,324,45,20,40,088,49,21,71,199,47,24,46,121,50*7A
2017-12-29 11:00:19 1514563219.700377: $GPGSV,3,3,11,27,19,297,27,32,15,234,33,138,38,213,44*7C
2017-12-29 11:00:19 1514563219.806205: $GPZDA,160020.00,29,12,2017,00,00*6F
2017-12-29 11:00:19 1514563219.806356: $GPGGA,160020,3946.9582,N,08404.9855,W,2,11,1.00,290.90,M,-33.324,M,,*7A
2017-12-29 11:00:19 1514563219.806422: $GPRMC,160020,A,3946.9582,N,08404.9855,W,0.0000,0.000,291217,,*33
2017-12-29 11:00:19 1514563219.806483: $GPGSA,A,3,8,10,13,15,18,20,21,24,27,32,138,,1.7,1.0,1.3*38
2017-12-29 11:00:20 1514563220.433090: $GPZDA,160021.00,29,12,2017,00,00*6E
2017-12-29 11:00:20 1514563220.433251: $GPGGA,160021,3946.9582,N,08404.9855,W,2,11,1.00,290.90,M,-33.324,M,,*7B
2017-12-29 11:00:20 1514563220.433318: $GPRMC,160021,A,3946.9582,N,08404.9855,W,0.0000,0.000,291217,,*32
2017-12-29 11:00:20 1514563220.433378: $GPGSA,A,3,8,10,13,15,18,20,21,24,27,32,138,,1.7,1.0,1.3*38
2017-12-29 11:00:21 1514563221.351313: $GPZDA,160022.00,29,12,2017,00,00*6D
2017-12-29 11:00:21 1514563221.351477: $GPGGA,160022,3946.9582,N,08404.9855,W,2,11,1.00,290.90,M,-33.324,M,,*78
2017-12-29 11:00:21 1514563221.351544: $GPRMC,160022,A,3946.9582,N,08404.9855,W,0.0000,0.000,291217,,*31
2017-12-29 11:00:21 1514563221.351604: $GPGSA,A,3,8,10,13,15,18,20,21,24,27,32,138,,1.7,1.0,1.3*38
2017-12-29 11:00:22 1514563222.691907: $GPGSV,3,1,11,08,03,328,31,10,36,295,42,13,14,046,37,15,44,051,50*73
2017-12-29 11:00:22 1514563222.692073: $GPGSV,3,2,11,18,66,324,45,20,40,088,49,21,71,199,47,24,46,121,50*7A
2017-12-29 11:00:22 1514563222.692140: $GPGSV,3,3,11,27,19,297,27,32,15,234,32,138,38,213,44*7D
2017-12-29 11:00:22 1514563222.805285: $GPZDA,160023.00,29,12,2017,00,00*6C
2017-12-29 11:00:22 1514563222.805429: $GPGGA,160023,3946.9582,N,08404.9855,W,2,11,1.00,290.90,M,-33.324,M,,*79
2017-12-29 11:00:22 1514563222.805496: $GPRMC,160023,A,3946.9582,N,08404.9855,W,0.0000,0.000,291217,,*30
2017-12-29 11:00:22 1514563222.805556: $GPGSA,A,3,8,10,13,15,18,20,21,24,27,32,138,,1.7,1.0,1.3*38
2017-12-29 11:00:23 1514563223.351242: $GPZDA,160024.00,29,12,2017,00,00*6B
2017-12-29 11:00:23 1514563223.351423: $GPGGA,160024,3946.9582,N,08404.9855,W,2,11,1.00,290.90,M,-33.324,M,,*7E
2017-12-29 11:00:23 1514563223.351489: $GPRMC,160024,A,3946.9582,N,08404.9855,W,0.0000,0.000,291217,,*37
2017-12-29 11:00:23 1514563223.351549: $GPGSA,A,3,8,10,13,15,18,20,21,24,27,32,138,,1.7,1.0,1.3*38
2017-12-29 11:00:24 1514563224.354574: $GPZDA,160025.00,29,12,2017,00,00*6A
2017-12-29 11:00:24 1514563224.354740: $GPGGA,160025,3946.9582,N,08404.9855,W,2,11,1.00,290.90,M,-33.324,M,,*7F
2017-12-29 11:00:24 1514563224.354807: $GPRMC,160025,A,3946.9582,N,08404.9855,W,0.0000,0.000,291217,,*36
2017-12-29 11:00:24 1514563224.354868: $GPGSA,A,3,8,10,13,15,18,20,21,24,27,32,138,,1.7,1.0,1.3*38
2017-12-29 11:00:25 1514563225.693496: $GPGSV,3,1,11,08,03,328,32,10,36,295,42,13,14,046,36,15,44,051,50*71
2017-12-29 11:00:25 1514563225.693720: $GPGSV,3,2,11,18,66,324,45,20,40,088,48,21,71,199,47,24,46,121,49*73
2017-12-29 11:00:25 1514563225.693789: $GPGSV,3,3,11,27,19,297,28,32,15,234,32,138,38,213,46*70
2017-12-29 11:00:25 1514563225.806983: $GPZDA,160026.00,29,12,2017,00,00*69
2017-12-29 11:00:25 1514563225.807122: $GPGGA,160026,3946.9582,N,08404.9855,W,2,11,1.00,290.90,M,-33.324,M,,*7C
2017-12-29 11:00:25 1514563225.807188: $GPRMC,160026,A,3946.9582,N,08404.9855,W,0.0000,0.000,291217,,*35
2017-12-29 11:00:25 1514563225.807249: $GPGSA,A,3,8,10,13,15,18,20,21,24,27,32,138,,1.7,1.0,1.3*38
2017-12-29 11:00:26 1514563226.356598: $GPZDA,160027.00,29,12,2017,00,00*68
2017-12-29 11:00:26 1514563226.356784: $GPGGA,160027,3946.9582,N,08404.9855,W,2,11,1.00,290.90,M,-33.324,M,,*7D
2017-12-29 11:00:26 1514563226.356852: $GPRMC,160027,A,3946.9582,N,08404.9855,W,0.0000,0.000,291217,,*34
2017-12-29 11:00:26 1514563226.356913: $GPGSA,A,3,8,10,13,15,18,20,21,24,27,32,138,,1.7,1.0,1.3*38
2017-12-29 11:00:27 1514563227.356346: $GPZDA,160028.00,29,12,2017,00,00*67
2017-12-29 11:00:27 1514563227.356510: $GPGGA,160028,3946.9582,N,08404.9855,W,2,11,1.00,290.90,M,-33.324,M,,*72
2017-12-29 11:00:27 1514563227.356577: $GPRMC,160028,A,3946.9582,N,08404.9855,W,0.0000,0.000,291217,,*3B
2017-12-29 11:00:27 1514563227.356638: $GPGSA,A,3,8,10,13,15,18,20,21,24,27,32,138,,1.7,1.0,1.3*38
2017-12-29 11:00:28 1514563228.690654: $GPGSV,3,1,11,08,03,328,32,10,36,295,43,13,14,046,36,15,44,051,50*70
2017-12-29 11:00:28 1514563228.690809: $GPGSV,3,2,11,18,66,324,45,20,40,088,49,21,71,199,47,24,46,121,49*72
2017-12-29 11:00:28 1514563228.690877: $GPGSV,3,3,11,27,19,297,34,32,15,234,32,138,38,213,45*7E
2017-12-29 11:00:28 1514563228.804058: $GPZDA,160029.00,29,12,2017,00,00*66
2017-12-29 11:00:28 1514563228.804199: $GPGGA,160029,3946.9582,N,08404.9855,W,2,11,1.00,290.90,M,-33.324,M,,*73
2017-12-29 11:00:28 1514563228.804263: $GPRMC,160029,A,3946.9582,N,08404.9855,W,0.0000,0.000,291217,,*3A
2017-12-29 11:00:28 1514563228.804322: $GPGSA,A,3,8,10,13,15,18,20,21,24,27,32,138,,1.7,1.0,1.3*38
2017-12-29 11:00:29 1514563229.356437: $GPZDA,160030.00,29,12,2017,00,00*6E
2017-12-29 11:00:29 1514563229.356604: $GPGGA,160030,3946.9582,N,08404.9855,W,2,11,1.00,290.90,M,-33.324,M,,*7B
2017-12-29 11:00:29 1514563229.356669: $GPRMC,160030,A,3946.9582,N,08404.9855,W,0.0000,0.000,291217,,*32
2017-12-29 11:00:29 1514563229.356730: $GPGSA,A,3,8,10,13,15,18,20,21,24,27,32,138,,1.7,1.0,1.3*38
2017-12-29 11:00:30 1514563230.356851: $GPZDA,160031.00,29,12,2017,00,00*6F
2017-12-29 11:00:30 1514563230.357027: $GPGGA,160031,3946.9582,N,08404.9855,W,2,11,1.00,290.90,M,-33.324,M,,*7A
2017-12-29 11:00:30 1514563230.357093: $GPRMC,160031,A,3946.9582,N,08404.9855,W,0.0000,0.000,291217,,*33
2017-12-29 11:00:30 1514563230.357153: $GPGSA,A,3,8,10,13,15,18,20,21,24,27,32,138,,1.7,1.0,1.3*38
2017-12-29 11:00:31 1514563231.693497: $GPGSV,3,1,11,08,03,328,33,10,36,295,43,13,14,046,36,15,44,051,50*71
2017-12-29 11:00:31 1514563231.693672: $GPGSV,3,2,11,18,66,324,45,20,40,088,49,21,71,199,47,24,46,121,50*7A
2017-12-29 11:00:31 1514563231.693737: $GPGSV,3,3,11,27,19,297,33,32,15,234,32,138,38,213,44*78
2017-12-29 11:00:31 1514563231.807097: $GPZDA,160032.00,29,12,2017,00,00*6C
2017-12-29 11:00:31 1514563231.807227: $GPGGA,160032,3946.9582,N,08404.9855,W,2,11,1.00,290.90,M,-33.324,M,,*79
2017-12-29 11:00:31 1514563231.807293: $GPRMC,160032,A,3946.9582,N,08404.9855,W,0.0000,0.000,291217,,*30
2017-12-29 11:00:31 1514563231.807353: $GPGSA,A,3,8,10,13,15,18,20,21,24,27,32,138,,1.7,1.0,1.3*38
2017-12-29 11:00:32 1514563232.355505: $GPZDA,160033.00,29,12,2017,00,00*6D
2017-12-29 11:00:32 1514563232.355670: $GPGGA,160033,3946.9582,N,08404.9855,W,2,11,1.00,290.90,M,-33.324,M,,*78
2017-12-29 11:00:32 1514563232.355736: $GPRMC,160033,A,3946.9582,N,08404.9855,W,0.0000,0.000,291217,,*31
2017-12-29 11:00:32 1514563232.355797: $GPGSA,A,3,8,10,13,15,18,20,21,24,27,32,138,,1.7,1.0,1.3*38
2017-12-29 11:00:33 1514563233.351220: $GPZDA,160034.00,29,12,2017,00,00*6A
2017-12-29 11:00:33 1514563233.351424: $GPGGA,160034,3946.9582,N,08404.9855,W,2,11,1.00,290.90,M,-33.324,M,,*7F
2017-12-29 11:00:33 1514563233.351493: $GPRMC,160034,A,3946.9582,N,08404.9855,W,0.0000,0.000,291217,,*36
2017-12-29 11:00:33 1514563233.351553: $GPGSA,A,3,8,10,13,15,18,20,21,24,27,32,138,,1.7,1.0,1.3*38
2017-12-29 11:00:34 1514563234.691851: $GPGSV,3,1,11,08,03,328,33,10,36,295,44,13,14,046,36,15,44,051,50*76
2017-12-29 11:00:34 1514563234.692016: $GPGSV,3,2,11,18,66,324,45,20,40,088,49,21,71,199,47,24,46,121,49*72
2017-12-29 11:00:34 1514563234.692083: $GPGSV,3,3,11,27,19,297,32,32,15,234,33,138,38,213,44*78
2017-12-29 11:00:34 1514563234.805229: $GPZDA,160035.00,29,12,2017,00,00*6B
2017-12-29 11:00:34 1514563234.805354: $GPGGA,160035,3946.9582,N,08404.9855,W,2,11,1.00,290.90,M,-33.324,M,,*7E
2017-12-29 11:00:34 1514563234.805418: $GPRMC,160035,A,3946.9582,N,08404.9855,W,0.0000,0.000,291217,,*37
2017-12-29 11:00:34 1514563234.805478: $GPGSA,A,3,8,10,13,15,18,20,21,24,27,32,138,,1.7,1.0,1.3*38
2017-12-29 11:00:35 1514563235.430662: $GPZDA,160036.00,29,12,2017,00,00*68
2017-12-29 11:00:35 1514563235.430826: $GPGGA,160036,3946.9586,N,08404.9855,W,2,11,1.00,291.54,M,-33.324,M,,*70
2017-12-29 11:00:35 1514563235.430894: $GPRMC,160036,A,3946.9586,N,08404.9855,W,0.0000,0.000,291217,,*30
2017-12-29 11:00:35 1514563235.430955: $GPGSA,A,3,8,10,13,15,18,20,21,24,27,32,138,,1.7,1.0,1.3*38
2017-12-29 11:00:36 1514563236.355284: $GPZDA,160037.00,29,12,2017,00,00*69
2017-12-29 11:00:36 1514563236.355451: $GPGGA,160037,3946.9586,N,08404.9855,W,2,11,1.00,291.54,M,-33.324,M,,*71
2017-12-29 11:00:36 1514563236.355517: $GPRMC,160037,A,3946.9586,N,08404.9855,W,0.0000,0.000,291217,,*31
2017-12-29 11:00:36 1514563236.355577: $GPGSA,A,3,8,10,13,15,18,20,21,24,27,32,138,,1.7,1.0,1.3*38
2017-12-29 11:00:37 1514563237.693439: $GPGSV,3,1,11,08,03,328,33,10,36,295,44,13,14,046,36,15,44,051,50*76
2017-12-29 11:00:37 1514563237.693605: $GPGSV,3,2,11,18,66,324,45,20,40,088,49,21,71,199,46,24,46,121,49*73
2017-12-29 11:00:37 1514563237.693671: $GPGSV,3,3,11,27,19,297,32,32,15,234,33,138,38,213,44*78
2017-12-29 11:00:37 1514563237.805553: $GPZDA,160038.00,29,12,2017,00,00*66
2017-12-29 11:00:37 1514563237.805684: $GPGGA,160038,3946.9586,N,08404.9855,W,2,11,1.00,291.54,M,-33.324,M,,*7E
2017-12-29 11:00:37 1514563237.805748: $GPRMC,160038,A,3946.9586,N,08404.9855,W,0.0000,0.000,291217,,*3E
2017-12-29 11:00:37 1514563237.805808: $GPGSA,A,3,8,10,13,15,18,20,21,24,27,32,138,,1.7,1.0,1.3*38
