2017-11-16 15:53:43 1510865623.307119: {"class":"VERSION","release":"3.17","rev":"3.17","proto_major":3,"proto_minor":12}
2017-11-16 15:53:43 1510865623.307576: {"class":"DEVICES","devices":[{"class":"DEVICE","path":"/dev/ttyUSB0","driver":"SiRF","subtype":"9\u0006GSD4e_4.1.2-P1_RPATCH.05-F-GPS-4R-1510281 11/03/2015 307","activated":"2017-11-16T20:53:43.254Z","flags":1,"native":1,"bps":4800,"parity":"N","stopbits":1,"cycle":1.00}]}
2017-11-16 15:53:43 1510865623.307708: {"class":"WATCH","enable":true,"json":false,"nmea":true,"raw":0,"scaled":false,"timing":false,"split24":false,"pps":false}
2017-11-16 15:53:43 1510865623.703742: $GPGSV,3,1,12,11,04,321,33,10,80,001,50,14,38,264,45,31,10,205,25*7D
2017-11-16 15:53:43 1510865623.703921: $GPGSV,3,2,12,18,60,115,48,25,12,133,29,21,16,177,36,24,35,049,50*7B
2017-11-16 15:53:43 1510865623.703981: $GPGSV,3,3,12,15,03,073,29,32,55,280,47,12,17,096,45,138,38,213,44*40
2017-11-16 15:53:43 1510865623.817123: $GPZDA,205342.00,16,11,2017,00,00*67
2017-11-16 15:53:43 1510865623.817290: $GPGGA,205342,3946.9582,N,08404.9844,W,2,12,1.20,308.11,M,-33.324,M,,*75
2017-11-16 15:53:43 1510865623.817354: $GPRMC,205342,A,3946.9582,N,08404.9844,W,0.0000,0.000,161117,,*3B
2017-11-16 15:53:43 1510865623.817410: $GPGSA,A,3,11,10,14,31,18,25,21,24,15,32,12,138,1.6,1.2,1.3*05
2017-11-16 15:53:44 1510865624.366862: $GPZDA,205343.00,16,11,2017,00,00*66
2017-11-16 15:53:44 1510865624.367025: $GPGGA,205343,3946.9582,N,08404.9844,W,2,12,1.20,308.11,M,-33.324,M,,*74
2017-11-16 15:53:44 1510865624.367086: $GPRMC,205343,A,3946.9582,N,08404.9844,W,0.0000,0.000,161117,,*3A
2017-11-16 15:53:44 1510865624.367143: $GPGSA,A,3,11,10,14,31,18,25,21,24,15,32,12,138,1.6,1.2,1.3*05
2017-11-16 15:53:45 1510865625.383969: $GPZDA,205344.00,16,11,2017,00,00*61
2017-11-16 15:53:45 1510865625.384130: $GPGGA,205344,3946.9582,N,08404.9844,W,2,12,1.20,308.11,M,-33.324,M,,*73
2017-11-16 15:53:45 1510865625.384190: $GPRMC,205344,A,3946.9582,N,08404.9844,W,0.0000,0.000,161117,,*3D
2017-11-16 15:53:45 1510865625.384245: $GPGSA,A,3,11,10,14,31,18,25,21,24,15,32,12,138,1.6,1.2,1.3*05
2017-11-16 15:53:46 1510865626.702980: $GPGSV,3,1,12,11,04,321,33,10,80,001,50,14,38,264,44,31,10,205,25*7C
2017-11-16 15:53:46 1510865626.703174: $GPGSV,3,2,12,18,60,115,48,25,12,133,29,21,16,177,36,24,35,049,49*73
2017-11-16 15:53:46 1510865626.703234: $GPGSV,3,3,12,15,03,073,29,32,55,280,47,12,17,096,45,138,38,213,44*40
2017-11-16 15:53:46 1510865626.816155: $GPZDA,205345.00,16,11,2017,00,00*60
2017-11-16 15:53:46 1510865626.816320: $GPGGA,205345,3946.9582,N,08404.9844,W,2,12,1.20,308.11,M,-33.324,M,,*72
2017-11-16 15:53:46 1510865626.816381: $GPRMC,205345,A,3946.9582,N,08404.9844,W,0.0000,0.000,161117,,*3C
2017-11-16 15:53:46 1510865626.816437: $GPGSA,A,3,11,10,14,31,18,25,21,24,15,32,12,138,1.6,1.2,1.3*05
2017-11-16 15:53:47 1510865627.383306: $GPZDA,205346.00,16,11,2017,00,00*63
2017-11-16 15:53:47 1510865627.383487: $GPGGA,205346,3946.9582,N,08404.9844,W,2,12,1.20,308.11,M,-33.324,M,,*71
2017-11-16 15:53:47 1510865627.383572: $GPRMC,205346,A,3946.9582,N,08404.9844,W,0.0000,0.000,161117,,*3F
2017-11-16 15:53:47 1510865627.383630: $GPGSA,A,3,11,10,14,31,18,25,21,24,15,32,12,138,1.6,1.2,1.3*05
2017-11-16 15:53:48 1510865628.366629: $GPZDA,205347.00,16,11,2017,00,00*62
2017-11-16 15:53:48 1510865628.366794: $GPGGA,205347,3946.9582,N,08404.9844,W,2,12,1.20,308.11,M,-33.324,M,,*70
2017-11-16 15:53:48 1510865628.366855: $GPRMC,205347,A,3946.9582,N,08404.9844,W,0.0000,0.000,161117,,*3E
2017-11-16 15:53:48 1510865628.366911: $GPGSA,A,3,11,10,14,31,18,25,21,24,15,32,12,138,1.6,1.2,1.3*05
2017-11-16 15:53:49 1510865629.704984: $GPGSV,3,1,12,11,04,321,34,10,80,001,50,14,38,264,44,31,10,205,26*78
2017-11-16 15:53:49 1510865629.705153: $GPGSV,3,2,12,18,60,115,48,25,12,133,29,21,16,177,36,24,35,049,50*7B
2017-11-16 15:53:49 1510865629.705214: $GPGSV,3,3,12,15,03,073,29,32,55,280,47,12,17,096,45,138,38,213,44*40
2017-11-16 15:53:49 1510865629.818278: $GPZDA,205348.00,16,11,2017,00,00*6D
2017-11-16 15:53:49 1510865629.818442: $GPGGA,205348,3946.9582,N,08404.9844,W,2,12,1.20,308.11,M,-33.324,M,,*7F
2017-11-16 15:53:49 1510865629.818553: $GPRMC,205348,A,3946.9582,N,08404.9844,W,0.0000,0.000,161117,,*31
2017-11-16 15:53:49 1510865629.818612: $GPGSA,A,3,11,10,14,31,18,25,21,24,15,32,12,138,1.6,1.2,1.3*05
2017-11-16 15:53:50 1510865630.359141: $GPZDA,205349.00,16,11,2017,00,00*6C
2017-11-16 15:53:50 1510865630.359301: $GPGGA,205349,3946.9582,N,08404.9844,W,2,12,1.20,308.11,M,-33.324,M,,*7E
2017-11-16 15:53:50 1510865630.359362: $GPRMC,205349,A,3946.9582,N,08404.9844,W,0.0000,0.000,161117,,*30
2017-11-16 15:53:50 1510865630.359418: $GPGSA,A,3,11,10,14,31,18,25,21,24,15,32,12,138,1.6,1.2,1.3*05
2017-11-16 15:53:51 1510865631.359567: $GPZDA,205350.00,16,11,2017,00,00*64
2017-11-16 15:53:51 1510865631.359749: $GPGGA,205350,3946.9582,N,08404.9844,W,2,12,1.20,308.11,M,-33.324,M,,*76
2017-11-16 15:53:51 1510865631.359812: $GPRMC,205350,A,3946.9582,N,08404.9844,W,0.0000,0.000,161117,,*38
2017-11-16 15:53:51 1510865631.359869: $GPGSA,A,3,11,10,14,31,18,25,21,24,15,32,12,138,1.6,1.2,1.3*05
2017-11-16 15:53:52 1510865632.702856: $GPGSV,3,1,12,11,04,321,34,10,80,001,49,14,38,264,44,31,10,205,26*70
2017-11-16 15:53:52 1510865632.703021: $GPGSV,3,2,12,18,60,115,48,25,12,133,29,21,16,177,36,24,35,049,50*7B
2017-11-16 15:53:52 1510865632.703083: $GPGSV,3,3,12,15,03,073,29,32,55,280,47,12,17,096,45,138,38,213,44*40
2017-11-16 15:53:52 1510865632.816142: $GPZDA,205351.00,16,11,2017,00,00*65
2017-11-16 15:53:52 1510865632.816293: $GPGGA,205351,3946.9582,N,08404.9844,W,2,12,1.20,308.11,M,-33.324,M,,*77
2017-11-16 15:53:52 1510865632.816353: $GPRMC,205351,A,3946.9582,N,08404.9844,W,0.0000,0.000,161117,,*39
2017-11-16 15:53:52 1510865632.816409: $GPGSA,A,3,11,10,14,31,18,25,21,24,15,32,12,138,1.6,1.2,1.3*05
