2017-12-29 11:34:26 1514565266.158200: {"class":"VERSION","release":"3.16","rev":"3.16-4","proto_major":3,"proto_minor":11}
2017-12-29 11:34:26 1514565266.158555: {"class":"DEVICES","devices":[{"class":"DEVICE","path":"/dev/ttyUSB0","driver":"SiRF","subtype":"9\u0006GSD4e_4.1.2-P1_RPATCH.05-F-GPS-4R-1510281 11/03/2015 307","activated":"2017-12-29T16:34:25.437Z","flags":1,"native":1,"bps":4800,"parity":"N","stopbits":1,"cycle":1.00}]}
2017-12-29 11:34:26 1514565266.158668: {"class":"WATCH","enable":true,"json":false,"nmea":true,"raw":0,"scaled":false,"timing":false,"split24":false,"pps":false}
2017-12-29 11:34:26 1514565266.854461: $GPZDA,163427.20,29,12,2017,00,00*6D
2017-12-29 11:34:26 1514565266.854573: $GPGGA,163427,3946.9594,N,08404.9871,W,1,09,1.00,321.15,M,-33.324,M,,*77
2017-12-29 11:34:26 1514565266.854607: $GPRMC,163427,A,3946.9594,N,08404.9871,W,0.0407,322.014,291217,,*37
2017-12-29 11:34:26 1514565266.854637: $GPGSA,A,3,8,10,15,20,21,24,27,32,138,,,,1.7,1.0,1.3*33
2017-12-29 11:34:26 1514565266.854666: $GPGBS,163427,10.91,M,10.38,M,30.89,M*0A
2017-12-29 11:34:27 1514565267.935984: $GPZDA,163427.40,29,12,2017,00,00*6B
2017-12-29 11:34:27 1514565267.936136: $GPGGA,163427,3946.9590,N,08404.9878,W,1,09,1.00,320.43,M,-33.324,M,,*78
2017-12-29 11:34:27 1514565267.936174: $GPRMC,163427,A,3946.9590,N,08404.9878,W,0.2172,85.763,291217,,*06
2017-12-29 11:34:27 1514565267.936205: $GPGSA,A,3,8,10,15,20,21,24,27,32,138,,,,1.7,1.0,1.3*33
2017-12-29 11:34:29 1514565269.079015: $GPGSV,3,1,12,08,07,316,27,10,48,307,46,15,30,055,49,18,75,003,46*7D
2017-12-29 11:34:29 1514565269.079119: $GPGSV,3,2,12,20,28,102,49,21,55,184,46,24,53,096,45,27,17,282,36*71
2017-12-29 11:34:29 1514565269.079152: $GPGSV,3,3,12,32,28,244,27,14,10,237,00,13,01,051,00,138,38,213,04*46
2017-12-29 11:34:29 1514565269.191924: $GPZDA,163428.00,29,12,2017,00,00*60
2017-12-29 11:34:29 1514565269.192035: $GPGGA,163428,3946.9593,N,08404.9877,W,1,10,1.00,319.67,M,-33.324,M,,*7F
2017-12-29 11:34:29 1514565269.192068: $GPRMC,163428,A,3946.9593,N,08404.9877,W,0.0407,322.014,291217,,*39
2017-12-29 11:34:29 1514565269.192099: $GPGSA,A,3,8,10,15,18,20,21,24,27,32,138,,,1.7,1.0,1.3*3A
2017-12-29 11:34:29 1514565269.643512: $GPZDA,163429.00,29,12,2017,00,00*61
2017-12-29 11:34:29 1514565269.643679: $GPGGA,163429,3946.9593,N,08404.9877,W,1,10,0.80,319.67,M,-33.324,M,,*77
2017-12-29 11:34:29 1514565269.643743: $GPRMC,163429,A,3946.9593,N,08404.9877,W,0.2959,54.767,291217,,*0D
2017-12-29 11:34:29 1514565269.643803: $GPGSA,A,3,8,10,15,18,20,21,24,27,32,138,,,1.7,0.8,1.3*33
2017-12-29 11:34:30 1514565270.095830: $GPZDA,163430.00,29,12,2017,00,00*69
2017-12-29 11:34:30 1514565270.096025: $GPGGA,163430,3946.9593,N,08404.9877,W,1,10,0.80,319.67,M,-33.324,M,,*7F
2017-12-29 11:34:30 1514565270.096093: $GPRMC,163430,A,3946.9593,N,08404.9877,W,0.0000,0.000,291217,,*35
2017-12-29 11:34:30 1514565270.096153: $GPGSA,A,3,8,10,15,18,20,21,24,27,32,138,,,1.7,0.8,1.3*33
2017-12-29 11:34:31 1514565271.056992: $GPGSV,3,1,12,08,07,316,40,10,48,307,46,15,30,055,49,18,75,003,45*7F
2017-12-29 11:34:31 1514565271.057184: $GPGSV,3,2,12,20,28,102,49,21,55,184,46,24,53,096,50,27,17,282,41*75
2017-12-29 11:34:31 1514565271.057270: $GPGSV,3,3,12,32,28,244,39,14,10,237,28,13,01,051,00,138,38,213,46*45
2017-12-29 11:34:31 1514565271.170513: $GPZDA,163431.00,29,12,2017,00,00*68
2017-12-29 11:34:31 1514565271.170697: $GPGGA,163431,3946.9597,N,08404.9883,W,1,11,0.80,318.82,M,-33.324,M,,*7A
2017-12-29 11:34:31 1514565271.170764: $GPRMC,163431,A,3946.9597,N,08404.9883,W,0.0000,0.000,291217,,*3B
2017-12-29 11:34:31 1514565271.170825: $GPGSA,A,3,8,10,15,18,20,21,24,27,32,14,138,,1.7,0.8,1.3*36
2017-12-29 11:34:31 1514565271.621441: $GPZDA,163432.00,29,12,2017,00,00*6B
2017-12-29 11:34:31 1514565271.621610: $GPGGA,163432,3946.9597,N,08404.9883,W,1,11,0.80,318.82,M,-33.324,M,,*79
2017-12-29 11:34:31 1514565271.621676: $GPRMC,163432,A,3946.9597,N,08404.9883,W,0.0000,0.000,291217,,*38
2017-12-29 11:34:31 1514565271.621735: $GPGSA,A,3,8,10,15,18,20,21,24,27,32,14,138,,1.7,0.8,1.3*36
2017-12-29 11:34:32 1514565272.438259: $GPZDA,163433.00,29,12,2017,00,00*6A
2017-12-29 11:34:32 1514565272.438435: $GPGGA,163433,3946.9597,N,08404.9883,W,1,11,0.80,318.82,M,-33.324,M,,*78
2017-12-29 11:34:32 1514565272.438501: $GPRMC,163433,A,3946.9597,N,08404.9883,W,0.0000,0.000,291217,,*39
2017-12-29 11:34:32 1514565272.438561: $GPGSA,A,3,8,10,15,18,20,21,24,27,32,14,138,,1.7,0.8,1.3*36
2017-12-29 11:34:32 1514565272.438619: $GPGBS,163433,10.91,M,10.38,M,30.89,M*0F
2017-12-29 11:34:33 1514565273.771550: $GPGSV,3,1,12,08,07,316,12,10,48,307,14,15,30,055,14,18,75,003,14*73
2017-12-29 11:34:33 1514565273.771703: $GPGSV,3,2,12,20,28,102,14,21,55,184,14,24,53,096,15,27,17,282,12*7D
2017-12-29 11:34:33 1514565273.771768: $GPGSV,3,3,12,32,28,244,12,14,10,237,07,13,01,051,00,138,38,213,15*47
2017-12-29 11:34:33 1514565273.885157: $GPZDA,163434.00,29,12,2017,00,00*6D
2017-12-29 11:34:33 1514565273.885307: $GPGGA,163434,3946.9601,N,08404.9883,W,1,11,0.80,318.06,M,-33.324,M,,*7F
2017-12-29 11:34:33 1514565273.885373: $GPRMC,163434,A,3946.9601,N,08404.9883,W,0.3423,4.196,291217,,*3E
2017-12-29 11:34:33 1514565273.885433: $GPGSA,A,3,8,10,15,18,20,21,24,27,32,14,138,,1.7,0.8,1.3*36
2017-12-29 11:34:34 1514565274.439451: $GPZDA,163435.00,29,12,2017,00,00*6C
2017-12-29 11:34:34 1514565274.439640: $GPGGA,163435,3946.9601,N,08404.9883,W,1,11,0.80,318.06,M,-33.324,M,,*7E
2017-12-29 11:34:34 1514565274.439707: $GPRMC,163435,A,3946.9601,N,08404.9883,W,0.2422,93.794,291217,,*05
2017-12-29 11:34:34 1514565274.439788: $GPGSA,A,3,8,10,15,18,20,21,24,27,32,14,138,,1.7,0.8,1.3*36
2017-12-29 11:34:35 1514565275.434977: $GPZDA,163436.00,29,12,2017,00,00*6F
2017-12-29 11:34:35 1514565275.435158: $GPGGA,163436,3946.9604,N,08404.9882,W,1,11,0.80,317.30,M,-33.324,M,,*73
2017-12-29 11:34:35 1514565275.435226: $GPRMC,163436,A,3946.9604,N,08404.9882,W,0.3423,184.196,291217,,*31
2017-12-29 11:34:35 1514565275.435286: $GPGSA,A,3,8,10,15,18,20,21,24,27,32,14,138,,1.7,0.8,1.3*36
2017-12-29 11:34:36 1514565276.770569: $GPGSV,3,1,12,08,07,316,38,10,48,307,45,15,30,055,48,18,75,003,45*72
2017-12-29 11:34:36 1514565276.770746: $GPGSV,3,2,12,20,28,102,48,21,55,184,46,24,53,096,50,27,17,282,41*74
2017-12-29 11:34:36 1514565276.770811: $GPGSV,3,3,12,32,28,244,41,14,10,237,26,13,01,051,00,138,38,213,45*47
2017-12-29 11:34:36 1514565276.884039: $GPZDA,163437.00,29,12,2017,00,00*6E
2017-12-29 11:34:36 1514565276.884217: $GPGGA,163437,3946.9604,N,08404.9889,W,1,11,0.80,317.22,M,-33.324,M,,*7A
2017-12-29 11:34:36 1514565276.884283: $GPRMC,163437,A,3946.9604,N,08404.9889,W,0.0000,0.000,291217,,*3E
2017-12-29 11:34:36 1514565276.884343: $GPGSA,A,3,8,10,15,18,20,21,24,27,32,14,138,,1.7,0.8,1.3*36
2017-12-29 11:34:37 1514565277.437237: $GPZDA,163438.00,29,12,2017,00,00*61
2017-12-29 11:34:37 1514565277.437410: $GPGGA,163438,3946.9604,N,08404.9889,W,1,11,0.80,317.22,M,-33.324,M,,*75
2017-12-29 11:34:37 1514565277.437476: $GPRMC,163438,A,3946.9604,N,08404.9889,W,0.0000,0.000,291217,,*31
2017-12-29 11:34:37 1514565277.437537: $GPGSA,A,3,8,10,15,18,20,21,24,27,32,14,138,,1.7,0.8,1.3*36
2017-12-29 11:34:38 1514565278.437079: $GPZDA,163439.00,29,12,2017,00,00*60
2017-12-29 11:34:38 1514565278.437247: $GPGGA,163439,3946.9600,N,08404.9889,W,1,11,0.80,316.58,M,-33.324,M,,*7C
2017-12-29 11:34:38 1514565278.437312: $GPRMC,163439,A,3946.9600,N,08404.9889,W,0.0000,0.000,291217,,*34
2017-12-29 11:34:38 1514565278.437373: $GPGSA,A,3,8,10,15,18,20,21,24,27,32,14,138,,1.7,0.8,1.3*36
2017-12-29 11:34:39 1514565279.771360: $GPGSV,3,1,12,08,07,316,37,10,48,307,45,15,30,055,49,18,75,003,45*7C
2017-12-29 11:34:39 1514565279.771519: $GPGSV,3,2,12,20,28,102,48,21,55,184,46,24,53,096,50,27,17,282,41*74
2017-12-29 11:34:39 1514565279.771584: $GPGSV,3,3,12,32,28,244,40,14,10,237,26,13,01,051,00,138,38,213,45*46
2017-12-29 11:34:39 1514565279.884793: $GPZDA,163440.00,29,12,2017,00,00*6E
2017-12-29 11:34:39 1514565279.884968: $GPGGA,163440,3946.9604,N,08404.9888,W,1,11,0.80,315.81,M,-33.324,M,,*70
2017-12-29 11:34:39 1514565279.885034: $GPRMC,163440,A,3946.9604,N,08404.9888,W,0.0000,0.000,291217,,*3F
2017-12-29 11:34:39 1514565279.885144: $GPGSA,A,3,8,10,15,18,20,21,24,27,32,14,138,,1.7,0.8,1.3*36
2017-12-29 11:34:40 1514565280.510052: $GPZDA,163441.00,29,12,2017,00,00*6F
2017-12-29 11:34:40 1514565280.510221: $GPGGA,163441,3946.9604,N,08404.9888,W,1,11,0.80,315.81,M,-33.324,M,,*71
2017-12-29 11:34:40 1514565280.510286: $GPRMC,163441,A,3946.9604,N,08404.9888,W,0.0000,0.000,291217,,*3E
2017-12-29 11:34:40 1514565280.510346: $GPGSA,A,3,8,10,15,18,20,21,24,27,32,14,138,,1.7,0.8,1.3*36
