2017-12-01 15:59:59 1512161999.093569: {"class":"VERSION","release":"3.16","rev":"3.16-4","proto_major":3,"proto_minor":11}
2017-12-01 15:59:59 1512161999.094026: {"class":"DEVICES","devices":[{"class":"DEVICE","path":"/dev/ttyUSB0","driver":"SiRF","subtype":"9\u0006GSD4e_4.1.2-P1_RPATCH.05-F-GPS-4R-1510281 11/03/2015 307","activated":"2017-12-01T20:59:58.571Z","flags":1,"native":1,"bps":4800,"parity":"N","stopbits":1,"cycle":1.00}]}
2017-12-01 15:59:59 1512161999.094198: {"class":"WATCH","enable":true,"json":false,"nmea":true,"raw":0,"scaled":false,"timing":false,"split24":false,"pps":false}
2017-12-01 15:59:59 1512161999.431907: $GPZDA,210000.00,01,12,2017,00,00*63
2017-12-01 15:59:59 1512161999.432085: $GPGGA,210000,3946.9581,N,08404.9829,W,2,12,1.00,306.87,M,-33.324,M,,*7F
2017-12-01 15:59:59 1512161999.432154: $GPRMC,210000,A,3946.9581,N,08404.9829,W,0.0000,0.000,011217,,*37
2017-12-01 15:59:59 1512161999.432216: $GPGSA,A,3,1,10,12,14,18,22,25,31,32,11,24,138,2.0,1.0,1.5*32
2017-12-01 16:00:01 1512162001.266982: $GPGSV,3,1,12,01,17,313,37,10,62,139,48,12,25,064,40,14,59,301,44*71
2017-12-01 16:00:01 1512162001.267170: $GPGSV,3,2,12,18,31,138,44,22,08,312,39,25,34,108,48,31,42,216,49*71
2017-12-01 16:00:01 1512162001.267236: $GPGSV,3,3,12,32,69,349,48,11,11,295,24,24,08,046,20,138,38,213,45*40
2017-12-01 16:00:01 1512162001.380699: $GPZDA,210001.00,01,12,2017,00,00*62
2017-12-01 16:00:01 1512162001.380843: $GPGGA,210001,3946.9581,N,08404.9829,W,2,12,0.80,306.87,M,-33.324,M,,*77
2017-12-01 16:00:01 1512162001.380911: $GPRMC,210001,A,3946.9581,N,08404.9829,W,0.0000,0.000,011217,,*36
2017-12-01 16:00:01 1512162001.380972: $GPGSA,A,3,1,10,12,14,18,22,25,31,32,11,24,138,2.0,0.8,1.5*3B
2017-12-01 16:00:02 1512162002.005763: $GPZDA,210002.00,01,12,2017,00,00*61
2017-12-01 16:00:02 1512162002.005944: $GPGGA,210002,3946.9581,N,08404.9829,W,2,12,0.80,306.87,M,-33.324,M,,*74
2017-12-01 16:00:02 1512162002.006012: $GPRMC,210002,A,3946.9581,N,08404.9829,W,0.0000,0.000,011217,,*35
2017-12-01 16:00:02 1512162002.006074: $GPGSA,A,3,1,10,12,14,18,22,25,31,32,11,24,138,2.0,0.8,1.5*3B
2017-12-01 16:00:02 1512162002.456853: $GPZDA,210003.00,01,12,2017,00,00*60
2017-12-01 16:00:02 1512162002.457030: $GPGGA,210003,3946.9581,N,08404.9829,W,2,12,0.80,306.87,M,-33.324,M,,*75
2017-12-01 16:00:02 1512162002.457097: $GPRMC,210003,A,3946.9581,N,08404.9829,W,0.0000,0.000,011217,,*34
2017-12-01 16:00:02 1512162002.457159: $GPGSA,A,3,1,10,12,14,18,22,25,31,32,11,24,138,2.0,0.8,1.5*3B
2017-12-01 16:00:03 1512162003.751118: $GPGSV,3,1,12,01,17,313,36,10,62,139,47,12,25,064,40,14,59,301,44*7F
2017-12-01 16:00:03 1512162003.751306: $GPGSV,3,2,12,18,31,138,44,22,08,312,39,25,34,108,48,31,42,216,49*71
2017-12-01 16:00:03 1512162003.751421: $GPGSV,3,3,12,32,69,349,47,11,11,295,18,24,08,046,22,138,38,213,45*42
2017-12-01 16:00:03 1512162003.864472: $GPZDA,210004.00,01,12,2017,00,00*67
2017-12-01 16:00:03 1512162003.864650: $GPGGA,210004,3946.9581,N,08404.9829,W,2,12,0.80,306.87,M,-33.324,M,,*72
2017-12-01 16:00:03 1512162003.864717: $GPRMC,210004,A,3946.9581,N,08404.9829,W,0.0000,0.000,011217,,*33
2017-12-01 16:00:03 1512162003.864780: $GPGSA,A,3,1,10,12,14,18,22,25,31,32,11,24,138,2.0,0.8,1.5*3B
2017-12-01 16:00:04 1512162004.415346: $GPZDA,210005.00,01,12,2017,00,00*66
2017-12-01 16:00:04 1512162004.415517: $GPGGA,210005,3946.9581,N,08404.9829,W,2,12,0.80,306.87,M,-33.324,M,,*73
2017-12-01 16:00:04 1512162004.415589: $GPRMC,210005,A,3946.9581,N,08404.9829,W,0.0000,0.000,011217,,*32
2017-12-01 16:00:04 1512162004.415655: $GPGSA,A,3,1,10,12,14,18,22,25,31,32,11,24,138,2.0,0.8,1.5*3B
2017-12-01 16:00:05 1512162005.413726: $GPZDA,210006.00,01,12,2017,00,00*65
2017-12-01 16:00:05 1512162005.413884: $GPGGA,210006,3946.9581,N,08404.9829,W,2,12,0.80,306.87,M,-33.324,M,,*70
2017-12-01 16:00:05 1512162005.413952: $GPRMC,210006,A,3946.9581,N,08404.9829,W,0.0000,0.000,011217,,*31
2017-12-01 16:00:05 1512162005.414015: $GPGSA,A,3,1,10,12,14,18,22,25,31,32,11,24,138,2.0,0.8,1.5*3B
2017-12-01 16:00:06 1512162006.743991: $GPGSV,3,1,12,01,17,313,35,10,62,139,47,12,25,064,41,14,59,301,44*7D
2017-12-01 16:00:06 1512162006.744224: $GPGSV,3,2,12,18,31,138,44,22,08,312,39,25,34,108,48,31,42,216,49*71
2017-12-01 16:00:06 1512162006.744296: $GPGSV,3,3,12,32,69,349,47,11,11,295,18,24,08,046,23,138,38,213,46*40
2017-12-01 16:00:06 1512162006.857388: $GPZDA,210007.00,01,12,2017,00,00*64
2017-12-01 16:00:06 1512162006.857520: $GPGGA,210007,3946.9581,N,08404.9829,W,2,12,0.80,306.87,M,-33.324,M,,*71
2017-12-01 16:00:06 1512162006.857587: $GPRMC,210007,A,3946.9581,N,08404.9829,W,0.0000,0.000,011217,,*30
2017-12-01 16:00:06 1512162006.857651: $GPGSA,A,3,1,10,12,14,18,22,25,31,32,11,24,138,2.0,0.8,1.5*3B
2017-12-01 16:00:07 1512162007.414451: $GPZDA,210008.00,01,12,2017,00,00*6B
2017-12-01 16:00:07 1512162007.414647: $GPGGA,210008,3946.9581,N,08404.9829,W,2,12,0.80,306.87,M,-33.324,M,,*7E
2017-12-01 16:00:07 1512162007.414714: $GPRMC,210008,A,3946.9581,N,08404.9829,W,0.0000,0.000,011217,,*3F
2017-12-01 16:00:07 1512162007.414778: $GPGSA,A,3,1,10,12,14,18,22,25,31,32,11,24,138,2.0,0.8,1.5*3B
2017-12-01 16:00:08 1512162008.415434: $GPZDA,210009.00,01,12,2017,00,00*6A
2017-12-01 16:00:08 1512162008.419347: $GPGGA,210009,3946.9581,N,08404.9829,W,2,12,0.80,306.87,M,-33.324,M,,*7F
2017-12-01 16:00:08 1512162008.419457: $GPRMC,210009,A,3946.9581,N,08404.9829,W,0.0000,0.000,011217,,*3E
2017-12-01 16:00:08 1512162008.419526: $GPGSA,A,3,1,10,12,14,18,22,25,31,32,11,24,138,2.0,0.8,1.5*3B
2017-12-01 16:00:09 1512162009.749910: $GPGSV,3,1,12,01,17,313,35,10,62,139,47,12,25,064,41,14,59,301,44*7D
2017-12-01 16:00:09 1512162009.750092: $GPGSV,3,2,12,18,31,138,44,22,08,312,38,25,34,108,48,31,42,216,48*71
2017-12-01 16:00:09 1512162009.750161: $GPGSV,3,3,12,32,69,349,47,11,11,295,23,24,08,046,23,138,38,213,45*4B
2017-12-01 16:00:09 1512162009.862397: $GPZDA,210010.00,01,12,2017,00,00*62
2017-12-01 16:00:09 1512162009.862570: $GPGGA,210010,3946.9581,N,08404.9829,W,2,12,0.80,306.87,M,-33.324,M,,*77
2017-12-01 16:00:09 1512162009.862641: $GPRMC,210010,A,3946.9581,N,08404.9829,W,0.0000,0.000,011217,,*36
2017-12-01 16:00:09 1512162009.862702: $GPGSA,A,3,1,10,12,14,18,22,25,31,32,11,24,138,2.0,0.8,1.5*3B
2017-12-01 16:00:10 1512162010.414420: $GPZDA,210011.00,01,12,2017,00,00*63
2017-12-01 16:00:10 1512162010.414593: $GPGGA,210011,3946.9581,N,08404.9829,W,2,12,1.00,306.87,M,-33.324,M,,*7F
2017-12-01 16:00:10 1512162010.414665: $GPRMC,210011,A,3946.9581,N,08404.9829,W,0.0000,0.000,011217,,*37
2017-12-01 16:00:10 1512162010.414726: $GPGSA,A,3,1,10,12,14,18,22,25,31,32,11,24,138,2.0,1.0,1.5*32
2017-12-01 16:00:11 1512162011.415996: $GPZDA,210012.00,01,12,2017,00,00*60
2017-12-01 16:00:11 1512162011.416171: $GPGGA,210012,3946.9581,N,08404.9829,W,2,12,0.80,306.87,M,-33.324,M,,*75
2017-12-01 16:00:11 1512162011.416239: $GPRMC,210012,A,3946.9581,N,08404.9829,W,0.0000,0.000,011217,,*34
2017-12-01 16:00:11 1512162011.416300: $GPGSA,A,3,1,10,12,14,18,22,25,31,32,11,24,138,2.0,0.8,1.5*3B
2017-12-01 16:00:12 1512162012.746454: $GPGSV,3,1,12,01,17,313,35,10,62,139,47,12,25,064,41,14,59,301,44*7D
2017-12-01 16:00:12 1512162012.746642: $GPGSV,3,2,12,18,31,138,44,22,08,312,38,25,34,108,48,31,42,216,48*71
2017-12-01 16:00:12 1512162012.746709: $GPGSV,3,3,12,32,69,349,47,11,11,295,28,24,08,046,26,138,38,213,46*46
2017-12-01 16:00:12 1512162012.860084: $GPZDA,210013.00,01,12,2017,00,00*61
2017-12-01 16:00:12 1512162012.860228: $GPGGA,210013,3946.9581,N,08404.9829,W,2,12,0.80,306.87,M,-33.324,M,,*74
2017-12-01 16:00:12 1512162012.860292: $GPRMC,210013,A,3946.9581,N,08404.9829,W,0.0000,0.000,011217,,*35
2017-12-01 16:00:12 1512162012.860354: $GPGSA,A,3,1,10,12,14,18,22,25,31,32,11,24,138,2.0,0.8,1.5*3B
2017-12-01 16:00:13 1512162013.418443: $GPZDA,210014.00,01,12,2017,00,00*66
2017-12-01 16:00:13 1512162013.420453: $GPGGA,210014,3946.9577,N,08404.9830,W,2,12,1.00,307.63,M,-33.324,M,,*70
2017-12-01 16:00:13 1512162013.420557: $GPRMC,210014,A,3946.9577,N,08404.9830,W,0.0000,0.000,011217,,*33
2017-12-01 16:00:13 1512162013.420625: $GPGSA,A,3,1,10,12,14,18,22,25,31,32,11,24,138,2.0,1.0,1.5*32
2017-12-01 16:00:14 1512162014.409395: $GPZDA,210015.00,01,12,2017,00,00*67
2017-12-01 16:00:14 1512162014.409572: $GPGGA,210015,3946.9577,N,08404.9830,W,2,12,1.00,307.63,M,-33.324,M,,*71
2017-12-01 16:00:14 1512162014.409642: $GPRMC,210015,A,3946.9577,N,08404.9830,W,0.0000,0.000,011217,,*32
2017-12-01 16:00:14 1512162014.409703: $GPGSA,A,3,1,10,12,14,18,22,25,31,32,11,24,138,2.0,1.0,1.5*32
2017-12-01 16:00:15 1512162015.751100: $GPGSV,3,1,12,01,17,313,36,10,62,139,47,12,25,064,40,14,59,301,44*7F
2017-12-01 16:00:15 1512162015.751285: $GPGSV,3,2,12,18,31,138,44,22,08,312,38,25,34,108,49,31,42,216,49*71
2017-12-01 16:00:15 1512162015.751396: $GPGSV,3,3,12,32,69,349,47,11,11,295,28,24,08,046,00,138,38,213,46*42
2017-12-01 16:00:15 1512162015.864434: $GPZDA,210016.00,01,12,2017,00,00*64
2017-12-01 16:00:15 1512162015.864622: $GPGGA,210016,3946.9577,N,08404.9830,W,2,11,1.00,307.63,M,-33.324,M,,*71
2017-12-01 16:00:15 1512162015.864691: $GPRMC,210016,A,3946.9577,N,08404.9830,W,0.0000,0.000,011217,,*31
2017-12-01 16:00:15 1512162015.864756: $GPGSA,A,3,1,10,12,14,18,22,25,31,32,11,138,,2.0,1.0,1.5*34
2017-12-01 16:00:16 1512162016.489818: $GPZDA,210017.00,01,12,2017,00,00*65
2017-12-01 16:00:16 1512162016.489996: $GPGGA,210017,3946.9577,N,08404.9830,W,2,11,1.00,307.63,M,-33.324,M,,*70
2017-12-01 16:00:16 1512162016.490064: $GPRMC,210017,A,3946.9577,N,08404.9830,W,0.0000,0.000,011217,,*30
2017-12-01 16:00:16 1512162016.490128: $GPGSA,A,3,1,10,12,14,18,22,25,31,32,11,138,,2.0,1.0,1.5*34
2017-12-01 16:00:17 1512162017.423419: $GPZDA,210018.00,01,12,2017,00,00*6A
2017-12-01 16:00:17 1512162017.423590: $GPGGA,210018,3946.9577,N,08404.9830,W,2,11,1.00,307.63,M,-33.324,M,,*7F
2017-12-01 16:00:17 1512162017.423658: $GPRMC,210018,A,3946.9577,N,08404.9830,W,0.0000,0.000,011217,,*3F
2017-12-01 16:00:17 1512162017.423721: $GPGSA,A,3,1,10,12,14,18,22,25,31,32,11,138,,2.0,1.0,1.5*34
2017-12-01 16:00:18 1512162018.750307: $GPGSV,3,1,12,01,17,313,36,10,62,139,48,12,25,064,40,14,59,301,44*70
2017-12-01 16:00:18 1512162018.750493: $GPGSV,3,2,12,18,31,138,44,22,08,312,38,25,34,108,49,31,42,216,48*70
2017-12-01 16:00:18 1512162018.750560: $GPGSV,3,3,12,32,69,349,47,11,11,295,27,24,08,046,00,138,38,213,45*4E
2017-12-01 16:00:18 1512162018.863757: $GPZDA,210019.00,01,12,2017,00,00*6B
2017-12-01 16:00:18 1512162018.863927: $GPGGA,210019,3946.9577,N,08404.9830,W,2,11,1.00,307.63,M,-33.324,M,,*7E
2017-12-01 16:00:18 1512162018.863995: $GPRMC,210019,A,3946.9577,N,08404.9830,W,0.0000,0.000,011217,,*3E
2017-12-01 16:00:18 1512162018.864056: $GPGSA,A,3,1,10,12,14,18,22,25,31,32,11,138,,2.0,1.0,1.5*34
