2017-12-14 12:30:55 1513272655.392014: {"class":"VERSION","release":"3.16","rev":"3.16-4","proto_major":3,"proto_minor":11}
2017-12-14 12:30:55 1513272655.392430: {"class":"DEVICES","devices":[{"class":"DEVICE","path":"/dev/ttyUSB0","driver":"SiRF","subtype":"9\u0006GSD4e_4.1.2-P1_RPATCH.05-F-GPS-4R-1510281 11/03/2015 307","activated":"2017-12-14T17:30:55.355Z","flags":1,"native":1,"bps":4800,"parity":"N","stopbits":1,"cycle":1.00}]}
2017-12-14 12:30:55 1513272655.392547: {"class":"WATCH","enable":true,"json":false,"nmea":true,"raw":0,"scaled":false,"timing":false,"split24":false,"pps":false}
2017-12-14 12:30:56 1513272656.546921: $GPGSV,3,1,12,10,46,306,22,15,32,054,20,20,30,100,27,24,52,100,24*7B
2017-12-14 12:30:56 1513272656.547097: $GPGSV,3,2,12,27,18,283,16,32,26,241,19,18,74,352,17,08,07,318,13*7C
2017-12-14 12:30:56 1513272656.547162: $GPGSV,3,3,12,14,08,235,00,21,57,184,00,13,03,051,00,138,38,213,00*4B
2017-12-14 12:30:56 1513272656.660410: $GPZDA,173057.00,14,12,2017,00,00*63
2017-12-14 12:30:56 1513272656.660593: $GPGGA,173057,3946.9558,N,08404.9416,W,1,06,1.20,332.25,M,-33.324,M,,*74
2017-12-14 12:30:56 1513272656.660660: $GPRMC,173057,A,3946.9558,N,08404.9416,W,0.5080,160.865,141217,,*32
2017-12-14 12:30:56 1513272656.660726: $GPGSA,A,3,10,15,20,24,27,32,,,,,,,6.6,1.2,6.2*30
2017-12-14 12:30:57 1513272657.211902: $GPZDA,173058.00,14,12,2017,00,00*6C
2017-12-14 12:30:57 1513272657.212125: $GPGGA,173058,3946.9558,N,08404.9416,W,1,06,1.20,332.25,M,-33.324,M,,*7B
2017-12-14 12:30:57 1513272657.212205: $GPRMC,173058,A,3946.9558,N,08404.9416,W,0.5486,215.274,141217,,*34
2017-12-14 12:30:57 1513272657.212270: $GPGSA,A,3,10,15,20,24,27,32,,,,,,,6.6,1.2,6.2*30
2017-12-14 12:30:58 1513272658.214251: $GPZDA,173059.00,14,12,2017,00,00*6D
2017-12-14 12:30:58 1513272658.214428: $GPGGA,173059,3946.9558,N,08404.9416,W,1,06,1.20,332.25,M,-33.324,M,,*7A
2017-12-14 12:30:58 1513272658.214495: $GPRMC,173059,A,3946.9558,N,08404.9416,W,0.3133,189.201,141217,,*3C
2017-12-14 12:30:58 1513272658.214558: $GPGSA,A,3,10,15,20,24,27,32,,,,,,,6.6,1.2,6.2*30
2017-12-14 12:30:59 1513272659.547990: $GPGSV,3,1,12,10,46,306,22,15,32,054,20,20,30,100,26,24,52,100,24*7A
2017-12-14 12:30:59 1513272659.548166: $GPGSV,3,2,12,27,18,283,16,32,26,241,20,13,03,051,14,08,07,318,13*7E
2017-12-14 12:30:59 1513272659.548232: $GPGSV,3,3,12,18,74,352,00,14,08,235,00,21,57,184,00,138,38,213,00*40
2017-12-14 12:30:59 1513272659.661629: $GPZDA,173100.00,14,12,2017,00,00*60
2017-12-14 12:30:59 1513272659.661790: $GPGGA,173100,3946.9562,N,08404.9416,W,1,07,1.20,332.89,M,-33.324,M,,*79
2017-12-14 12:30:59 1513272659.661855: $GPRMC,173100,A,3946.9562,N,08404.9416,W,0.2365,125.884,141217,,*39
2017-12-14 12:30:59 1513272659.661917: $GPGSA,A,3,10,15,20,24,27,32,8,,,,,,6.6,1.2,6.2*08
2017-12-14 12:31:00 1513272660.210997: $GPZDA,173101.00,14,12,2017,00,00*61
2017-12-14 12:31:00 1513272660.211163: $GPGGA,173101,3946.9562,N,08404.9416,W,1,07,1.20,332.89,M,-33.324,M,,*78
2017-12-14 12:31:00 1513272660.211230: $GPRMC,173101,A,3946.9562,N,08404.9416,W,0.4700,189.201,141217,,*38
2017-12-14 12:31:00 1513272660.211294: $GPGSA,A,3,10,15,20,24,27,32,8,,,,,,6.6,1.2,6.2*08
2017-12-14 12:31:01 1513272661.212709: $GPZDA,173102.00,14,12,2017,00,00*62
2017-12-14 12:31:01 1513272661.212879: $GPGGA,173102,3946.9562,N,08404.9416,W,1,07,1.20,332.89,M,-33.324,M,,*7B
2017-12-14 12:31:01 1513272661.212946: $GPRMC,173102,A,3946.9562,N,08404.9416,W,0.4985,185.768,141217,,*3E
2017-12-14 12:31:01 1513272661.213007: $GPGSA,A,3,10,15,20,24,27,32,8,,,,,,6.6,1.2,6.2*08
2017-12-14 12:31:02 1513272662.548635: $GPGSV,3,1,12,10,46,306,22,15,32,054,20,20,30,100,26,24,52,100,24*7A
2017-12-14 12:31:02 1513272662.548819: $GPGSV,3,2,12,27,18,283,16,32,26,241,20,13,03,051,14,18,74,352,00*77
2017-12-14 12:31:02 1513272662.548886: $GPGSV,3,3,12,14,08,235,00,08,07,318,00,21,57,184,00,138,38,213,00*4B
2017-12-14 12:31:02 1513272662.662846: $GPZDA,173103.00,14,12,2017,00,00*63
2017-12-14 12:31:02 1513272662.663032: $GPGGA,173103,3946.9559,N,08404.9416,W,1,06,1.20,333.65,M,-33.324,M,,*70
2017-12-14 12:31:02 1513272662.663208: $GPRMC,173103,A,3946.9559,N,08404.9416,W,0.8804,201.094,141217,,*38
2017-12-14 12:31:02 1513272662.663307: $GPGSA,A,3,10,15,20,24,27,32,,,,,,,6.6,1.2,6.2*30
2017-12-14 12:31:03 1513272663.213562: $GPZDA,173104.00,14,12,2017,00,00*64
2017-12-14 12:31:03 1513272663.213737: $GPGGA,173104,3946.9559,N,08404.9416,W,1,06,1.20,333.65,M,-33.324,M,,*77
2017-12-14 12:31:03 1513272663.213806: $GPRMC,173104,A,3946.9559,N,08404.9416,W,1.0534,170.904,141217,,*3D
2017-12-14 12:31:03 1513272663.213866: $GPGSA,A,3,10,15,20,24,27,32,,,,,,,6.6,1.2,6.2*30
2017-12-14 12:31:04 1513272664.211086: $GPZDA,173105.00,14,12,2017,00,00*65
2017-12-14 12:31:04 1513272664.211260: $GPGGA,173105,3946.9554,N,08404.9409,W,1,06,1.20,333.09,M,-33.324,M,,*7F
2017-12-14 12:31:04 1513272664.211327: $GPRMC,173105,A,3946.9554,N,08404.9409,W,1.0534,170.904,141217,,*3F
2017-12-14 12:31:04 1513272664.211389: $GPGSA,A,3,10,15,20,24,27,32,,,,,,,6.6,1.2,6.2*30
2017-12-14 12:31:05 1513272665.548157: $GPGSV,3,1,12,10,46,306,22,15,32,054,20,20,30,100,26,24,52,100,23*7D
2017-12-14 12:31:05 1513272665.548348: $GPGSV,3,2,12,27,18,283,16,32,26,241,20,08,07,318,13,18,74,352,00*70
2017-12-14 12:31:05 1513272665.548416: $GPGSV,3,3,12,14,08,235,00,21,57,184,00,13,03,051,00,138,38,213,00*4B
2017-12-14 12:31:05 1513272665.661601: $GPZDA,173106.00,14,12,2017,00,00*66
2017-12-14 12:31:05 1513272665.661778: $GPGGA,173106,3946.9554,N,08404.9409,W,1,06,1.20,333.09,M,-33.324,M,,*7C
2017-12-14 12:31:05 1513272665.661843: $GPRMC,173106,A,3946.9554,N,08404.9409,W,0.8359,148.779,141217,,*37
2017-12-14 12:31:05 1513272665.661905: $GPGSA,A,3,10,15,20,24,27,32,,,,,,,6.6,1.2,6.2*30
2017-12-14 12:31:06 1513272666.213019: $GPZDA,173107.00,14,12,2017,00,00*67
2017-12-14 12:31:06 1513272666.213188: $GPGGA,173107,3946.9554,N,08404.9409,W,1,06,1.20,333.09,M,-33.324,M,,*7D
2017-12-14 12:31:06 1513272666.213256: $GPRMC,173107,A,3946.9554,N,08404.9409,W,0.4844,93.795,141217,,*08
2017-12-14 12:31:06 1513272666.213316: $GPGSA,A,3,10,15,20,24,27,32,,,,,,,6.6,1.2,6.2*30
2017-12-14 12:31:07 1513272667.213180: $GPZDA,173108.00,14,12,2017,00,00*68
2017-12-14 12:31:07 1513272667.213347: $GPGGA,173108,3946.9558,N,08404.9409,W,1,06,1.20,333.73,M,-33.324,M,,*73
2017-12-14 12:31:07 1513272667.213415: $GPRMC,173108,A,3946.9558,N,08404.9409,W,0.7103,45.706,141217,,*03
2017-12-14 12:31:07 1513272667.213476: $GPGSA,A,3,10,15,20,24,27,32,,,,,,,6.6,1.2,6.2*30
2017-12-14 12:31:08 1513272668.547845: $GPGSV,3,1,12,10,46,306,22,15,32,054,20,20,30,100,25,24,52,100,23*7E
2017-12-14 12:31:08 1513272668.548023: $GPGSV,3,2,12,27,18,283,15,32,26,241,20,08,07,318,12,13,03,051,08*71
2017-12-14 12:31:08 1513272668.548086: $GPGSV,3,3,12,18,74,352,00,14,08,235,00,21,57,184,00,138,38,213,00*40
2017-12-14 12:31:08 1513272668.661415: $GPZDA,173109.00,14,12,2017,00,00*69
2017-12-14 12:31:08 1513272668.661545: $GPGGA,173109,3946.9558,N,08404.9402,W,1,06,1.20,333.81,M,-33.324,M,,*74
2017-12-14 12:31:08 1513272668.661611: $GPRMC,173109,A,3946.9558,N,08404.9402,W,0.4207,39.347,141217,,*07
2017-12-14 12:31:08 1513272668.661674: $GPGSA,A,3,10,15,20,24,27,32,,,,,,,6.6,1.2,6.2*30
2017-12-14 12:31:09 1513272669.213869: $GPZDA,173110.00,14,12,2017,00,00*61
2017-12-14 12:31:09 1513272669.214046: $GPGGA,173110,3946.9565,N,08404.9402,W,1,06,1.20,333.68,M,-33.324,M,,*75
2017-12-14 12:31:09 1513272669.214114: $GPRMC,173110,A,3946.9565,N,08404.9402,W,0.4207,39.347,141217,,*01
2017-12-14 12:31:09 1513272669.214175: $GPGSA,A,3,10,15,20,24,27,32,,,,,,,6.6,1.2,6.2*30
2017-12-14 12:31:10 1513272670.210946: $GPZDA,173111.00,14,12,2017,00,00*60
2017-12-14 12:31:10 1513272670.211116: $GPGGA,173111,3946.9565,N,08404.9402,W,1,06,1.20,333.68,M,-33.324,M,,*74
2017-12-14 12:31:10 1513272670.211182: $GPRMC,173111,A,3946.9565,N,08404.9402,W,0.4179,328.779,141217,,*30
2017-12-14 12:31:10 1513272670.211245: $GPGSA,A,3,10,15,20,24,27,32,,,,,,,6.6,1.2,6.2*30
2017-12-14 12:31:11 1513272671.548420: $GPGSV,3,1,12,10,46,306,22,15,32,054,20,20,30,100,25,24,52,100,23*7E
2017-12-14 12:31:11 1513272671.548602: $GPGSV,3,2,12,27,18,283,15,32,26,241,20,18,74,352,18,13,03,051,11*78
2017-12-14 12:31:11 1513272671.548723: $GPGSV,3,3,12,14,08,235,00,08,07,318,00,21,57,184,00,138,38,213,00*4B
2017-12-14 12:31:11 1513272671.661870: $GPZDA,173112.00,14,12,2017,00,00*63
2017-12-14 12:31:11 1513272671.662037: $GPGGA,173112,3946.9565,N,08404.9402,W,1,06,1.20,333.68,M,-33.324,M,,*77
2017-12-14 12:31:11 1513272671.662170: $GPRMC,173112,A,3946.9565,N,08404.9402,W,0.3423,184.197,141217,,*3C
2017-12-14 12:31:11 1513272671.662234: $GPGSA,A,3,10,15,20,24,27,32,,,,,,,6.6,1.2,6.2*30
2017-12-14 12:31:12 1513272672.213296: $GPZDA,173113.00,14,12,2017,00,00*62
2017-12-14 12:31:12 1513272672.214903: $GPGGA,173113,3946.9565,N,08404.9402,W,1,06,1.20,333.68,M,-33.324,M,,*76
2017-12-14 12:31:12 1513272672.215018: $GPRMC,173113,A,3946.9565,N,08404.9402,W,0.4207,219.347,141217,,*32
2017-12-14 12:31:12 1513272672.215084: $GPGSA,A,3,10,15,20,24,27,32,,,,,,,6.6,1.2,6.2*30
2017-12-14 12:31:13 1513272673.212375: $GPZDA,173114.00,14,12,2017,00,00*65
2017-12-14 12:31:13 1513272673.212529: $GPGGA,173114,3946.9570,N,08404.9402,W,1,06,1.20,334.32,M,-33.324,M,,*7D
2017-12-14 12:31:13 1513272673.212596: $GPRMC,173114,A,3946.9570,N,08404.9402,W,0.2422,273.795,141217,,*31
2017-12-14 12:31:13 1513272673.212660: $GPGSA,A,3,10,15,20,24,27,32,,,,,,,6.6,1.2,6.2*30
2017-12-14 12:31:14 1513272674.548267: $GPGSV,3,1,12,10,46,306,21,15,32,054,20,20,30,100,24,24,52,100,22*7D
2017-12-14 12:31:14 1513272674.548449: $GPGSV,3,2,12,27,18,283,15,32,26,241,20,18,74,352,00,14,08,235,00*7D
2017-12-14 12:31:14 1513272674.548520: $GPGSV,3,3,12,08,07,318,00,21,57,184,00,13,03,051,00,138,38,213,00*47
2017-12-14 12:31:14 1513272674.661933: $GPZDA,173115.00,14,12,2017,00,00*64
2017-12-14 12:31:14 1513272674.662186: $GPGGA,173115,3946.9570,N,08404.9402,W,1,06,1.20,334.32,M,-33.324,M,,*7C
2017-12-14 12:31:14 1513272674.662263: $GPRMC,173115,A,3946.9570,N,08404.9402,W,0.3423,184.197,141217,,*3F
2017-12-14 12:31:14 1513272674.662325: $GPGSA,A,3,10,15,20,24,27,32,,,,,,,6.6,1.2,6.2*30
2017-12-14 12:31:15 1513272675.212934: $GPZDA,173116.00,14,12,2017,00,00*67
2017-12-14 12:31:15 1513272675.213067: $GPGGA,173116,3946.9570,N,08404.9402,W,1,06,1.20,334.32,M,-33.324,M,,*7F
2017-12-14 12:31:15 1513272675.213135: $GPRMC,173116,A,3946.9570,N,08404.9402,W,0.0000,0.000,141217,,*38
2017-12-14 12:31:15 1513272675.213195: $GPGSA,A,3,10,15,20,24,27,32,,,,,,,6.6,1.2,6.2*30
