2017-12-01 13:50:54 1512154254.147129: {"class":"VERSION","release":"3.16","rev":"3.16-4","proto_major":3,"proto_minor":11}
2017-12-01 13:50:54 1512154254.147563: {"class":"DEVICES","devices":[{"class":"DEVICE","path":"/dev/ttyUSB0","driver":"SiRF","subtype":"9\u0006GSD4e_4.1.2-P1_RPATCH.05-F-GPS-4R-1510281 11/03/2015 307","activated":"2017-12-01T18:50:53.498Z","flags":1,"native":1,"bps":4800,"parity":"N","stopbits":1,"cycle":1.00}]}
2017-12-01 13:50:54 1512154254.147681: {"class":"WATCH","enable":true,"json":false,"nmea":true,"raw":0,"scaled":false,"timing":false,"split24":false,"pps":false}
2017-12-01 13:50:54 1512154254.691530: $GPGSV,3,1,11,10,56,315,49,14,18,243,38,15,22,060,47,18,77,042,44*7F
2017-12-01 13:50:54 1512154254.691713: $GPGSV,3,2,11,20,20,109,44,21,44,181,45,24,52,079,48,27,14,273,38*74
2017-12-01 13:50:54 1512154254.691779: $GPGSV,3,3,11,32,35,252,43,08,08,307,23,138,38,213,47*7B
2017-12-01 13:50:54 1512154254.804686: $GPZDA,185055.00,01,12,2017,00,00*6C
2017-12-01 13:50:54 1512154254.804855: $GPGGA,185055,3946.9566,N,08404.9859,W,2,11,0.80,296.12,M,-33.324,M,,*70
2017-12-01 13:50:54 1512154254.804947: $GPRMC,185055,A,3946.9566,N,08404.9859,W,0.0000,0.000,011217,,*36
2017-12-01 13:50:54 1512154254.805027: $GPGSA,A,3,10,14,15,18,20,21,24,27,32,8,138,,2.0,0.8,1.5*34
2017-12-01 13:50:55 1512154255.430436: $GPZDA,185056.00,01,12,2017,00,00*6F
2017-12-01 13:50:55 1512154255.430604: $GPGGA,185056,3946.9566,N,08404.9859,W,2,11,0.80,296.12,M,-33.324,M,,*73
2017-12-01 13:50:55 1512154255.430671: $GPRMC,185056,A,3946.9566,N,08404.9859,W,0.0000,0.000,011217,,*35
2017-12-01 13:50:55 1512154255.430731: $GPGSA,A,3,10,14,15,18,20,21,24,27,32,8,138,,2.0,0.8,1.5*34
2017-12-01 13:50:56 1512154256.357342: $GPZDA,185057.00,01,12,2017,00,00*6E
2017-12-01 13:50:56 1512154256.357524: $GPGGA,185057,3946.9566,N,08404.9859,W,2,11,0.80,296.12,M,-33.324,M,,*72
2017-12-01 13:50:56 1512154256.357592: $GPRMC,185057,A,3946.9566,N,08404.9859,W,0.0000,0.000,011217,,*34
2017-12-01 13:50:56 1512154256.357654: $GPGSA,A,3,10,14,15,18,20,21,24,27,32,8,138,,2.0,0.8,1.5*34
2017-12-01 13:50:57 1512154257.694334: $GPGSV,3,1,11,10,56,315,49,14,18,243,37,15,22,060,47,18,77,042,44*70
2017-12-01 13:50:57 1512154257.694517: $GPGSV,3,2,11,20,20,109,44,21,44,181,45,24,52,079,48,27,14,273,38*74
2017-12-01 13:50:57 1512154257.694584: $GPGSV,3,3,11,32,35,252,43,08,08,307,20,138,38,213,47*78
2017-12-01 13:50:57 1512154257.806459: $GPZDA,185058.00,01,12,2017,00,00*61
2017-12-01 13:50:57 1512154257.806632: $GPGGA,185058,3946.9566,N,08404.9859,W,2,11,0.80,296.12,M,-33.324,M,,*7D
2017-12-01 13:50:57 1512154257.806701: $GPRMC,185058,A,3946.9566,N,08404.9859,W,0.0000,0.000,011217,,*3B
2017-12-01 13:50:57 1512154257.806762: $GPGSA,A,3,10,14,15,18,20,21,24,27,32,8,138,,2.0,0.8,1.5*34
2017-12-01 13:50:58 1512154258.358848: $GPZDA,185059.00,01,12,2017,00,00*60
2017-12-01 13:50:58 1512154258.359055: $GPGGA,185059,3946.9566,N,08404.9859,W,2,11,0.80,296.12,M,-33.324,M,,*7C
2017-12-01 13:50:58 1512154258.359142: $GPRMC,185059,A,3946.9566,N,08404.9859,W,0.0000,0.000,011217,,*3A
2017-12-01 13:50:58 1512154258.359205: $GPGSA,A,3,10,14,15,18,20,21,24,27,32,8,138,,2.0,0.8,1.5*34
2017-12-01 13:50:59 1512154259.360847: $GPZDA,185100.00,01,12,2017,00,00*6D
2017-12-01 13:50:59 1512154259.361057: $GPGGA,185100,3946.9566,N,08404.9859,W,2,11,0.80,296.12,M,-33.324,M,,*71
2017-12-01 13:50:59 1512154259.361127: $GPRMC,185100,A,3946.9566,N,08404.9859,W,0.0000,0.000,011217,,*37
2017-12-01 13:50:59 1512154259.361189: $GPGSA,A,3,10,14,15,18,20,21,24,27,32,8,138,,2.0,0.8,1.5*34
2017-12-01 13:50:59 1512154259.361248: $GPGBS,185100,2.67,M,3.86,M,8.82,M*3F
2017-12-01 13:51:00 1512154260.693424: $GPGSV,3,1,11,10,56,315,49,14,18,243,37,15,22,060,47,18,77,042,44*70
2017-12-01 13:51:00 1512154260.693617: $GPGSV,3,2,11,20,20,109,44,21,44,181,45,24,52,079,48,27,14,273,38*74
2017-12-01 13:51:00 1512154260.693688: $GPGSV,3,3,11,32,35,252,43,08,08,307,24,138,38,213,47*7C
2017-12-01 13:51:00 1512154260.806898: $GPZDA,185101.00,01,12,2017,00,00*6C
2017-12-01 13:51:00 1512154260.807086: $GPGGA,185101,3946.9566,N,08404.9859,W,2,11,0.80,296.12,M,-33.324,M,,*70
2017-12-01 13:51:00 1512154260.807207: $GPRMC,185101,A,3946.9566,N,08404.9859,W,0.0000,0.000,011217,,*36
2017-12-01 13:51:00 1512154260.807270: $GPGSA,A,3,10,14,15,18,20,21,24,27,32,8,138,,2.0,0.8,1.5*34
2017-12-01 13:51:02 1512154262.587520: $GPZDA,185102.00,01,12,2017,00,00*6F
2017-12-01 13:51:02 1512154262.587690: $GPGGA,185102,3946.9570,N,08404.9859,W,2,11,0.80,296.76,M,-33.324,M,,*76
2017-12-01 13:51:02 1512154262.587757: $GPRMC,185102,A,3946.9570,N,08404.9859,W,0.0000,0.000,011217,,*32
2017-12-01 13:51:02 1512154262.587817: $GPGSA,A,3,10,14,15,18,20,21,24,27,32,8,138,,2.0,0.8,1.5*34
2017-12-01 13:51:03 1512154263.039654: $GPZDA,185103.00,01,12,2017,00,00*6E
2017-12-01 13:51:03 1512154263.039819: $GPGGA,185103,3946.9570,N,08404.9859,W,2,11,0.80,296.76,M,-33.324,M,,*77
2017-12-01 13:51:03 1512154263.039905: $GPRMC,185103,A,3946.9570,N,08404.9859,W,0.0000,0.000,011217,,*33
2017-12-01 13:51:03 1512154263.039968: $GPGSA,A,3,10,14,15,18,20,21,24,27,32,8,138,,2.0,0.8,1.5*34
2017-12-01 13:51:03 1512154263.826446: $GPGSV,3,1,11,10,56,315,14,14,18,243,11,15,22,060,14,18,77,043,13*79
2017-12-01 13:51:03 1512154263.826618: $GPGSV,3,2,11,20,20,109,13,21,44,181,13,24,52,078,14,27,14,271,12*77
2017-12-01 13:51:03 1512154263.826687: $GPGSV,3,3,11,32,35,252,13,08,08,306,08,138,38,213,15*71
2017-12-01 13:51:03 1512154263.939827: $GPZDA,185104.00,01,12,2017,00,00*69
2017-12-01 13:51:03 1512154263.940035: $GPGGA,185104,3946.9570,N,08404.9859,W,2,11,0.80,296.76,M,-33.324,M,,*70
2017-12-01 13:51:03 1512154263.940103: $GPRMC,185104,A,3946.9570,N,08404.9859,W,0.1867,180.000,011217,,*35
2017-12-01 13:51:03 1512154263.940165: $GPGSA,A,3,10,14,15,18,20,21,24,27,32,8,138,,2.0,0.8,1.5*34
