2017-11-16 13:52:02 1510858322.848797: {"class":"VERSION","release":"3.17","rev":"3.17","proto_major":3,"proto_minor":12}
2017-11-16 13:52:02 1510858322.849241: {"class":"DEVICES","devices":[{"class":"DEVICE","path":"/dev/ttyUSB0","driver":"SiRF","subtype":"9\u0006GSD4e_4.1.2-P1_RPATCH.05-F-GPS-4R-1510281 11/03/2015 307","activated":"2017-11-16T18:52:02.565Z","flags":1,"native":1,"bps":4800,"parity":"N","stopbits":1,"cycle":1.00}]}
2017-11-16 13:52:02 1510858322.849389: {"class":"WATCH","enable":true,"json":false,"nmea":true,"raw":0,"scaled":false,"timing":false,"split24":false,"pps":false}
2017-11-16 13:52:03 1510858323.348606: $GPZDA,185202.00,16,11,2017,00,00*69
2017-11-16 13:52:03 1510858323.348767: $GPGGA,185202,3946.9612,N,08404.9827,W,2,11,0.80,307.77,M,-33.324,M,,*73
2017-11-16 13:52:03 1510858323.348828: $GPRMC,185202,A,3946.9612,N,08404.9827,W,0.0000,0.000,161117,,*3A
2017-11-16 13:52:03 1510858323.348884: $GPGSA,A,3,10,13,15,18,20,21,24,27,32,8,138,,1.6,0.8,1.3*30
2017-11-16 13:52:04 1510858324.685763: $GPGSV,3,1,11,10,34,294,42,13,16,046,47,15,47,049,51,18,64,318,48*73
2017-11-16 13:52:04 1510858324.685934: $GPGSV,3,2,11,20,40,087,48,21,73,205,48,24,45,124,46,27,19,300,33*7D
2017-11-16 13:52:04 1510858324.685994: $GPGSV,3,3,11,32,12,232,34,08,02,328,30,138,38,213,44*7E
2017-11-16 13:52:04 1510858324.799125: $GPZDA,185203.00,16,11,2017,00,00*68
2017-11-16 13:52:04 1510858324.799293: $GPGGA,185203,3946.9612,N,08404.9827,W,2,11,0.80,307.77,M,-33.324,M,,*72
2017-11-16 13:52:04 1510858324.799356: $GPRMC,185203,A,3946.9612,N,08404.9827,W,0.0000,0.000,161117,,*3B
2017-11-16 13:52:04 1510858324.799412: $GPGSA,A,3,10,13,15,18,20,21,24,27,32,8,138,,1.6,0.8,1.3*30
2017-11-16 13:52:05 1510858325.348669: $GPZDA,185204.00,16,11,2017,00,00*6F
2017-11-16 13:52:05 1510858325.348874: $GPGGA,185204,3946.9608,N,08404.9827,W,2,11,0.80,307.13,M,-33.324,M,,*7C
2017-11-16 13:52:05 1510858325.348938: $GPRMC,185204,A,3946.9608,N,08404.9827,W,0.0000,0.000,161117,,*37
2017-11-16 13:52:05 1510858325.348994: $GPGSA,A,3,10,13,15,18,20,21,24,27,32,8,138,,1.6,0.8,1.3*30
2017-11-16 13:52:06 1510858326.342761: $GPZDA,185205.00,16,11,2017,00,00*6E
2017-11-16 13:52:06 1510858326.342938: $GPGGA,185205,3946.9608,N,08404.9827,W,2,11,0.80,307.13,M,-33.324,M,,*7D
2017-11-16 13:52:06 1510858326.343001: $GPRMC,185205,A,3946.9608,N,08404.9827,W,0.0000,0.000,161117,,*36
2017-11-16 13:52:06 1510858326.343058: $GPGSA,A,3,10,13,15,18,20,21,24,27,32,8,138,,1.6,0.8,1.3*30
2017-11-16 13:52:06 1510858326.343113: $GPGBS,185205,2.12,M,3.10,M,7.47,M*32
2017-11-16 13:52:07 1510858327.685823: $GPGSV,3,1,11,10,34,294,42,13,16,046,47,15,47,049,51,18,64,318,48*73
2017-11-16 13:52:07 1510858327.685994: $GPGSV,3,2,11,20,40,087,48,21,73,205,48,24,45,124,46,27,19,300,33*7D
2017-11-16 13:52:07 1510858327.686056: $GPGSV,3,3,11,32,12,232,34,08,02,328,30,138,38,213,44*7E
2017-11-16 13:52:07 1510858327.799008: $GPZDA,185206.00,16,11,2017,00,00*6D
2017-11-16 13:52:07 1510858327.799170: $GPGGA,185206,3946.9608,N,08404.9827,W,2,11,0.80,307.13,M,-33.324,M,,*7E
2017-11-16 13:52:07 1510858327.799250: $GPRMC,185206,A,3946.9608,N,08404.9827,W,0.0000,0.000,161117,,*35
2017-11-16 13:52:07 1510858327.799308: $GPGSA,A,3,10,13,15,18,20,21,24,27,32,8,138,,1.6,0.8,1.3*30
2017-11-16 13:52:08 1510858328.350091: $GPZDA,185207.00,16,11,2017,00,00*6C
2017-11-16 13:52:08 1510858328.350253: $GPGGA,185207,3946.9608,N,08404.9827,W,2,11,0.80,307.13,M,-33.324,M,,*7F
2017-11-16 13:52:08 1510858328.350371: $GPRMC,185207,A,3946.9608,N,08404.9827,W,0.0000,0.000,161117,,*34
2017-11-16 13:52:08 1510858328.350437: $GPGSA,A,3,10,13,15,18,20,21,24,27,32,8,138,,1.6,0.8,1.3*30
2017-11-16 13:52:09 1510858329.348711: $GPZDA,185208.00,16,11,2017,00,00*63
2017-11-16 13:52:09 1510858329.348872: $GPGGA,185208,3946.9608,N,08404.9827,W,2,11,0.80,307.13,M,-33.324,M,,*70
2017-11-16 13:52:09 1510858329.348933: $GPRMC,185208,A,3946.9608,N,08404.9827,W,0.0000,0.000,161117,,*3B
2017-11-16 13:52:09 1510858329.348999: $GPGSA,A,3,10,13,15,18,20,21,24,27,32,8,138,,1.6,0.8,1.3*30
2017-11-16 13:52:10 1510858330.685624: $GPGSV,3,1,11,10,34,294,41,13,16,046,47,15,47,049,51,18,64,318,48*70
2017-11-16 13:52:10 1510858330.685801: $GPGSV,3,2,11,20,40,087,48,21,73,205,47,24,45,124,45,27,19,300,28*7B
2017-11-16 13:52:10 1510858330.685864: $GPGSV,3,3,11,32,12,232,34,08,02,328,29,138,38,213,44*76
2017-11-16 13:52:10 1510858330.799222: $GPZDA,185209.00,16,11,2017,00,00*62
2017-11-16 13:52:10 1510858330.799380: $GPGGA,185209,3946.9608,N,08404.9827,W,2,11,0.80,307.13,M,-33.324,M,,*71
2017-11-16 13:52:10 1510858330.799440: $GPRMC,185209,A,3946.9608,N,08404.9827,W,0.0000,0.000,161117,,*3A
2017-11-16 13:52:10 1510858330.799500: $GPGSA,A,3,10,13,15,18,20,21,24,27,32,8,138,,1.6,0.8,1.3*30
2017-11-16 13:52:11 1510858331.349788: $GPZDA,185210.00,16,11,2017,00,00*6A
2017-11-16 13:52:11 1510858331.349958: $GPGGA,185210,3946.9608,N,08404.9827,W,2,11,0.80,307.13,M,-33.324,M,,*79
2017-11-16 13:52:11 1510858331.350023: $GPRMC,185210,A,3946.9608,N,08404.9827,W,0.0000,0.000,161117,,*32
2017-11-16 13:52:11 1510858331.350079: $GPGSA,A,3,10,13,15,18,20,21,24,27,32,8,138,,1.6,0.8,1.3*30
2017-11-16 13:52:12 1510858332.369252: $GPZDA,185211.00,16,11,2017,00,00*6B
2017-11-16 13:52:12 1510858332.373932: $GPGGA,185211,3946.9608,N,08404.9827,W,2,11,0.80,307.13,M,-33.324,M,,*78
2017-11-16 13:52:12 1510858332.374114: $GPRMC,185211,A,3946.9608,N,08404.9827,W,0.0000,0.000,161117,,*33
2017-11-16 13:52:12 1510858332.374174: $GPGSA,A,3,10,13,15,18,20,21,24,27,32,8,138,,1.6,0.8,1.3*30
