2017-12-29 11:42:32 1514565752.206988: {"class":"VERSION","release":"3.16","rev":"3.16-4","proto_major":3,"proto_minor":11}
2017-12-29 11:42:32 1514565752.207323: {"class":"DEVICES","devices":[{"class":"DEVICE","path":"/dev/ttyUSB0","driver":"SiRF","subtype":"9\u0006GSD4e_4.1.2-P1_RPATCH.05-F-GPS-4R-1510281 11/03/2015 307","activated":"2017-12-29T16:42:31.464Z","flags":1,"native":1,"bps":4800,"parity":"N","stopbits":1,"cycle":1.00}]}
2017-12-29 11:42:32 1514565752.207435: {"class":"WATCH","enable":true,"json":false,"nmea":true,"raw":0,"scaled":false,"timing":false,"split24":false,"pps":false}
2017-12-29 11:42:32 1514565752.759648: $GPRMC,164233,V,18000.0000,N,00000.0000,W,0.0000,0.000,291217,,*1E
2017-12-29 11:42:32 1514565752.759827: $GPGSA,A,1,8,10,15,18,20,21,24,32,27,14,138,,,,,*3A
2017-12-29 11:42:34 1514565754.051136: $GPZDA,164233.52,29,12,2017,00,00*6C
2017-12-29 11:42:34 1514565754.051313: $GPGGA,164233,3946.9603,N,08404.9921,W,1,11,1.00,311.20,M,-33.324,M,,*76
2017-12-29 11:42:34 1514565754.051379: $GPRMC,164233,A,3946.9603,N,08404.9921,W,0.1567,9.200,291217,,*31
2017-12-29 11:42:34 1514565754.051440: $GPGSA,A,3,8,10,15,18,20,21,24,32,27,14,138,,1.7,1.0,1.3*3F
2017-12-29 11:42:35 1514565755.113095: $GPGSV,3,1,11,08,08,313,38,10,51,310,47,15,27,057,47,18,77,016,44*7B
2017-12-29 11:42:35 1514565755.113273: $GPGSV,3,2,11,20,26,105,49,21,51,183,47,24,53,090,52,27,16,277,39*7D
2017-12-29 11:42:35 1514565755.113338: $GPGSV,3,3,11,32,31,246,36,14,12,238,17,138,38,213,00*77
2017-12-29 11:42:35 1514565755.226579: $GPZDA,164234.42,29,12,2017,00,00*6A
2017-12-29 11:42:35 1514565755.226750: $GPGGA,164234,3946.9606,N,08404.9926,W,1,09,1.00,307.55,M,-33.324,M,,*7F
2017-12-29 11:42:35 1514565755.226815: $GPRMC,164234,A,3946.9606,N,08404.9926,W,0.1867,180.000,291217,,*3B
2017-12-29 11:42:35 1514565755.226876: $GPGSA,A,3,8,10,15,18,20,21,24,27,32,,,,1.7,1.0,1.3*00
2017-12-29 11:42:35 1514565755.481730: $GPZDA,164234.82,29,12,2017,00,00*66
2017-12-29 11:42:35 1514565755.481898: $GPGGA,164234,3946.9610,N,08404.9926,W,1,09,0.80,308.19,M,-33.324,M,,*76
2017-12-29 11:42:35 1514565755.481965: $GPRMC,164234,A,3946.9610,N,08404.9926,W,0.1567,9.200,291217,,*33
2017-12-29 11:42:35 1514565755.482025: $GPGSA,A,3,8,10,15,18,20,21,24,27,32,,,,1.7,0.8,1.3*09
2017-12-29 11:42:35 1514565755.735515: $GPZDA,164235.00,29,12,2017,00,00*6D
2017-12-29 11:42:35 1514565755.735683: $GPGGA,164235,3946.9614,N,08404.9919,W,1,09,0.80,308.91,M,-33.324,M,,*7F
2017-12-29 11:42:35 1514565755.735749: $GPRMC,164235,A,3946.9614,N,08404.9919,W,0.0407,142.014,291217,,*35
2017-12-29 11:42:35 1514565755.735810: $GPGSA,A,3,8,10,15,18,20,21,24,27,32,,,,1.7,0.8,1.3*09
2017-12-29 11:42:36 1514565756.697048: $GPGSV,3,1,11,08,08,313,36,10,51,310,45,15,27,057,46,18,77,016,44*76
2017-12-29 11:42:36 1514565756.697256: $GPGSV,3,2,11,20,26,105,48,21,51,183,47,24,53,090,51,27,16,277,39*7F
2017-12-29 11:42:36 1514565756.697332: $GPGSV,3,3,11,32,31,246,37,14,12,238,00,138,38,213,49*7D
2017-12-29 11:42:36 1514565756.810407: $GPZDA,164236.00,29,12,2017,00,00*6E
2017-12-29 11:42:36 1514565756.810575: $GPGGA,164236,3946.9616,N,08404.9931,W,1,10,1.00,305.18,M,-33.324,M,,*79
2017-12-29 11:42:36 1514565756.810641: $GPRMC,164236,A,3946.9616,N,08404.9931,W,0.0407,142.014,291217,,*3E
2017-12-29 11:42:36 1514565756.810702: $GPGSA,A,3,8,10,15,18,20,21,24,27,32,138,,,1.7,1.0,1.3*3A
2017-12-29 11:42:37 1514565757.261333: $GPZDA,164237.00,29,12,2017,00,00*6F
2017-12-29 11:42:37 1514565757.261513: $GPGGA,164237,3946.9638,N,08404.9934,W,1,10,1.00,301.92,M,-33.324,M,,*77
2017-12-29 11:42:37 1514565757.261599: $GPRMC,164237,A,3946.9638,N,08404.9934,W,0.1567,9.200,291217,,*39
2017-12-29 11:42:37 1514565757.261662: $GPGSA,A,3,8,10,15,18,20,21,24,27,32,138,,,1.7,1.0,1.3*3A
2017-12-29 11:42:37 1514565757.713330: $GPZDA,164238.00,29,12,2017,00,00*60
2017-12-29 11:42:37 1514565757.713509: $GPGGA,164238,3946.9638,N,08404.9934,W,1,10,0.80,301.92,M,-33.324,M,,*71
2017-12-29 11:42:37 1514565757.713576: $GPRMC,164238,A,3946.9638,N,08404.9934,W,0.0000,0.000,291217,,*38
2017-12-29 11:42:37 1514565757.713637: $GPGSA,A,3,8,10,15,18,20,21,24,27,32,138,,,1.7,0.8,1.3*33
2017-12-29 11:42:38 1514565758.690201: $GPGSV,3,1,11,08,08,313,34,10,51,310,45,15,27,057,47,18,77,016,45*74
2017-12-29 11:42:38 1514565758.690380: $GPGSV,3,2,11,20,26,105,49,21,51,183,47,24,53,090,51,27,16,277,39*7E
2017-12-29 11:42:38 1514565758.690444: $GPGSV,3,3,11,32,31,246,37,14,12,238,00,138,38,213,46*72
2017-12-29 11:42:38 1514565758.803540: $GPZDA,164239.00,29,12,2017,00,00*61
2017-12-29 11:42:38 1514565758.803679: $GPGGA,164239,3946.9638,N,08404.9934,W,1,10,1.00,301.92,M,-33.324,M,,*79
2017-12-29 11:42:38 1514565758.803744: $GPRMC,164239,A,3946.9638,N,08404.9934,W,0.0000,0.000,291217,,*39
2017-12-29 11:42:38 1514565758.803805: $GPGSA,A,3,8,10,15,18,20,21,24,27,32,138,,,1.7,1.0,1.3*3A
2017-12-29 11:42:39 1514565759.354736: $GPZDA,164240.00,29,12,2017,00,00*6F
2017-12-29 11:42:39 1514565759.354904: $GPGGA,164240,3946.9644,N,08404.9916,W,1,10,1.00,308.41,M,-33.324,M,,*7B
2017-12-29 11:42:39 1514565759.354970: $GPRMC,164240,A,3946.9644,N,08404.9916,W,0.0000,0.000,291217,,*3C
2017-12-29 11:42:39 1514565759.355030: $GPGSA,A,3,8,10,15,18,20,21,24,27,32,138,,,1.7,1.0,1.3*3A
2017-12-29 11:42:40 1514565760.357304: $GPZDA,164241.00,29,12,2017,00,00*6E
2017-12-29 11:42:40 1514565760.357468: $GPGGA,164241,3946.9644,N,08404.9909,W,1,10,0.80,308.49,M,-33.324,M,,*75
2017-12-29 11:42:40 1514565760.357533: $GPRMC,164241,A,3946.9644,N,08404.9909,W,0.0000,0.000,291217,,*33
2017-12-29 11:42:40 1514565760.357593: $GPGSA,A,3,8,10,15,18,20,21,24,27,32,138,,,1.7,0.8,1.3*33
2017-12-29 11:42:41 1514565761.693047: $GPGSV,3,1,11,08,08,313,34,10,51,310,45,15,27,057,47,18,77,016,45*74
2017-12-29 11:42:41 1514565761.693225: $GPGSV,3,2,11,20,26,105,49,21,51,183,47,24,53,090,51,27,16,277,38*7F
2017-12-29 11:42:41 1514565761.693290: $GPGSV,3,3,11,32,31,246,37,14,12,238,30,138,38,213,45*72
2017-12-29 11:42:41 1514565761.806383: $GPZDA,164242.00,29,12,2017,00,00*6D
2017-12-29 11:42:41 1514565761.806517: $GPGGA,164242,3946.9644,N,08404.9909,W,1,11,0.80,308.49,M,-33.324,M,,*77
2017-12-29 11:42:41 1514565761.806582: $GPRMC,164242,A,3946.9644,N,08404.9909,W,0.0000,0.000,291217,,*30
2017-12-29 11:42:41 1514565761.806642: $GPGSA,A,3,8,10,15,18,20,21,24,27,32,14,138,,1.7,0.8,1.3*36
2017-12-29 11:42:42 1514565762.358627: $GPZDA,164243.00,29,12,2017,00,00*6C
2017-12-29 11:42:42 1514565762.358822: $GPGGA,164243,3946.9644,N,08404.9909,W,2,11,0.80,308.49,M,-33.324,M,,*75
2017-12-29 11:42:42 1514565762.358908: $GPRMC,164243,A,3946.9644,N,08404.9909,W,0.0000,0.000,291217,,*31
2017-12-29 11:42:42 1514565762.358971: $GPGSA,A,3,8,10,15,18,20,21,24,27,32,14,138,,1.7,0.8,1.3*36
2017-12-29 11:42:43 1514565763.360751: $GPZDA,164244.00,29,12,2017,00,00*6B
2017-12-29 11:42:43 1514565763.360922: $GPGGA,164244,3946.9644,N,08404.9909,W,2,11,0.80,308.49,M,-33.324,M,,*72
2017-12-29 11:42:43 1514565763.360989: $GPRMC,164244,A,3946.9644,N,08404.9909,W,0.0000,0.000,291217,,*36
2017-12-29 11:42:43 1514565763.361120: $GPGSA,A,3,8,10,15,18,20,21,24,27,32,14,138,,1.7,0.8,1.3*36
2017-12-29 11:42:44 1514565764.696415: $GPGSV,3,1,11,08,08,313,33,10,51,310,45,15,27,057,48,18,77,016,45*7C
2017-12-29 11:42:44 1514565764.696599: $GPGSV,3,2,11,20,26,105,49,21,51,183,47,24,53,090,51,27,16,277,38*7F
2017-12-29 11:42:44 1514565764.696664: $GPGSV,3,3,11,32,31,246,36,14,12,238,31,138,38,213,45*72
2017-12-29 11:42:44 1514565764.809753: $GPZDA,164245.00,29,12,2017,00,00*6A
2017-12-29 11:42:44 1514565764.809883: $GPGGA,164245,3946.9644,N,08404.9909,W,2,11,0.80,308.49,M,-33.324,M,,*73
2017-12-29 11:42:44 1514565764.809949: $GPRMC,164245,A,3946.9644,N,08404.9909,W,0.0000,0.000,291217,,*37
2017-12-29 11:42:44 1514565764.810009: $GPGSA,A,3,8,10,15,18,20,21,24,27,32,14,138,,1.7,0.8,1.3*36
2017-12-29 11:42:45 1514565765.436066: $GPZDA,164246.00,29,12,2017,00,00*69
2017-12-29 11:42:45 1514565765.436240: $GPGGA,164246,3946.9644,N,08404.9909,W,2,11,0.80,308.49,M,-33.324,M,,*70
2017-12-29 11:42:45 1514565765.436306: $GPRMC,164246,A,3946.9644,N,08404.9909,W,0.0000,0.000,291217,,*34
2017-12-29 11:42:45 1514565765.436422: $GPGSA,A,3,8,10,15,18,20,21,24,27,32,14,138,,1.7,0.8,1.3*36
2017-12-29 11:42:46 1514565766.359925: $GPZDA,164247.00,29,12,2017,00,00*68
2017-12-29 11:42:46 1514565766.360093: $GPGGA,164247,3946.9640,N,08404.9910,W,2,11,0.80,309.26,M,-33.324,M,,*75
2017-12-29 11:42:46 1514565766.360160: $GPRMC,164247,A,3946.9640,N,08404.9910,W,0.0000,0.000,291217,,*39
2017-12-29 11:42:46 1514565766.360220: $GPGSA,A,3,8,10,15,18,20,21,24,27,32,14,138,,1.7,0.8,1.3*36
