2017-11-16 16:48:51 1510868931.065631: {"class":"VERSION","release":"3.17","rev":"3.17","proto_major":3,"proto_minor":12}
2017-11-16 16:48:51 1510868931.066231: {"class":"DEVICES","devices":[{"class":"DEVICE","path":"/dev/ttyUSB0","driver":"SiRF","subtype":"9\u0006GSD4e_4.1.2-P1_RPATCH.05-F-GPS-4R-1510281 11/03/2015 307","activated":"2017-11-16T21:48:51.022Z","flags":1,"native":1,"bps":4800,"parity":"N","stopbits":1,"cycle":1.00}]}
2017-11-16 16:48:51 1510868931.066348: {"class":"WATCH","enable":true,"json":false,"nmea":true,"raw":0,"scaled":false,"timing":false,"split24":false,"pps":false}
2017-11-16 16:48:51 1510868931.532494: $GPZDA,214850.00,16,11,2017,00,00*6F
2017-11-16 16:48:51 1510868931.532661: $GPGGA,214850,3946.9580,N,08404.9822,W,2,12,0.80,306.94,M,-33.324,M,,*77
2017-11-16 16:48:51 1510868931.532722: $GPRMC,214850,A,3946.9580,N,08404.9822,W,0.0000,0.000,161117,,*31
2017-11-16 16:48:51 1510868931.532780: $GPGSA,A,3,1,10,11,12,14,18,24,25,31,32,22,138,1.6,0.8,1.3*38
2017-11-16 16:48:52 1510868932.442125: $GPZDA,214851.00,16,11,2017,00,00*6E
2017-11-16 16:48:52 1510868932.442305: $GPGGA,214851,3946.9580,N,08404.9822,W,2,12,0.80,306.94,M,-33.324,M,,*76
2017-11-16 16:48:52 1510868932.442368: $GPRMC,214851,A,3946.9580,N,08404.9822,W,0.0000,0.000,161117,,*30
2017-11-16 16:48:52 1510868932.442423: $GPGSA,A,3,1,10,11,12,14,18,24,25,31,32,22,138,1.6,0.8,1.3*38
2017-11-16 16:48:53 1510868933.782889: $GPGSV,3,1,12,01,14,318,36,10,70,132,49,11,11,301,31,12,25,072,46*7B
2017-11-16 16:48:53 1510868933.783034: $GPGSV,3,2,12,14,55,292,44,18,38,135,44,24,14,045,40,25,29,114,43*7B
2017-11-16 16:48:53 1510868933.783097: $GPGSV,3,3,12,31,34,211,46,32,68,328,51,22,02,310,30,138,38,213,44*4F
2017-11-16 16:48:53 1510868933.896208: $GPZDA,214852.00,16,11,2017,00,00*6D
2017-11-16 16:48:53 1510868933.896373: $GPGGA,214852,3946.9580,N,08404.9822,W,2,12,0.80,306.94,M,-33.324,M,,*75
2017-11-16 16:48:53 1510868933.896435: $GPRMC,214852,A,3946.9580,N,08404.9822,W,0.0000,0.000,161117,,*33
2017-11-16 16:48:53 1510868933.896490: $GPGSA,A,3,1,10,11,12,14,18,24,25,31,32,22,138,1.6,0.8,1.3*38
2017-11-16 16:48:54 1510868934.448321: $GPZDA,214853.00,16,11,2017,00,00*6C
2017-11-16 16:48:54 1510868934.448490: $GPGGA,214853,3946.9580,N,08404.9822,W,2,12,0.80,306.94,M,-33.324,M,,*74
2017-11-16 16:48:54 1510868934.448552: $GPRMC,214853,A,3946.9580,N,08404.9822,W,0.0000,0.000,161117,,*32
2017-11-16 16:48:54 1510868934.448608: $GPGSA,A,3,1,10,11,12,14,18,24,25,31,32,22,138,1.6,0.8,1.3*38
2017-11-16 16:48:55 1510868935.447899: $GPZDA,214854.00,16,11,2017,00,00*6B
2017-11-16 16:48:55 1510868935.448068: $GPGGA,214854,3946.9584,N,08404.9822,W,2,12,0.80,307.58,M,-33.324,M,,*76
2017-11-16 16:48:55 1510868935.448134: $GPRMC,214854,A,3946.9584,N,08404.9822,W,0.0000,0.000,161117,,*31
2017-11-16 16:48:55 1510868935.448189: $GPGSA,A,3,1,10,11,12,14,18,24,25,31,32,22,138,1.6,0.8,1.3*38
2017-11-16 16:48:55 1510868935.448244: $GPGBS,214854,2.07,M,2.72,M,7.42,M*33
2017-11-16 16:48:56 1510868936.783159: $GPGSV,3,1,12,01,14,318,36,10,68,133,48,11,11,300,31,12,25,070,46*71
2017-11-16 16:48:56 1510868936.783333: $GPGSV,3,2,12,14,56,294,44,18,36,136,44,24,13,045,40,25,30,112,43*7A
2017-11-16 16:48:56 1510868936.783394: $GPGSV,3,3,12,31,35,213,46,32,68,331,51,22,03,310,30,138,38,213,44*45
2017-11-16 16:48:56 1510868936.896448: $GPZDA,214855.00,16,11,2017,00,00*6A
2017-11-16 16:48:56 1510868936.896611: $GPGGA,214855,3946.9584,N,08404.9822,W,2,12,0.80,307.58,M,-33.324,M,,*77
2017-11-16 16:48:56 1510868936.896673: $GPRMC,214855,A,3946.9584,N,08404.9822,W,0.0000,0.000,161117,,*30
2017-11-16 16:48:56 1510868936.896729: $GPGSA,A,3,1,10,11,12,14,18,24,25,31,32,22,138,1.6,0.8,1.3*38
2017-11-16 16:48:57 1510868937.446107: $GPZDA,214856.00,16,11,2017,00,00*69
2017-11-16 16:48:57 1510868937.446270: $GPGGA,214856,3946.9584,N,08404.9822,W,2,12,0.80,307.58,M,-33.324,M,,*74
2017-11-16 16:48:57 1510868937.446333: $GPRMC,214856,A,3946.9584,N,08404.9822,W,0.0000,0.000,161117,,*33
2017-11-16 16:48:57 1510868937.446388: $GPGSA,A,3,1,10,11,12,14,18,24,25,31,32,22,138,1.6,0.8,1.3*38
2017-11-16 16:48:58 1510868938.447343: $GPZDA,214857.00,16,11,2017,00,00*68
2017-11-16 16:48:58 1510868938.447532: $GPGGA,214857,3946.9584,N,08404.9822,W,2,12,0.80,307.58,M,-33.324,M,,*75
2017-11-16 16:48:58 1510868938.447595: $GPRMC,214857,A,3946.9584,N,08404.9822,W,0.0000,0.000,161117,,*32
2017-11-16 16:48:58 1510868938.447657: $GPGSA,A,3,1,10,11,12,14,18,24,25,31,32,22,138,1.6,0.8,1.3*38
2017-11-16 16:48:59 1510868939.783943: $GPGSV,3,1,12,01,14,318,37,10,68,133,49,11,11,300,30,12,25,070,46*70
2017-11-16 16:48:59 1510868939.784104: $GPGSV,3,2,12,14,56,294,44,18,36,136,44,24,13,045,40,25,30,112,43*7A
2017-11-16 16:48:59 1510868939.784163: $GPGSV,3,3,12,31,35,213,46,32,68,331,51,22,03,310,30,138,38,213,44*45
2017-11-16 16:48:59 1510868939.896021: $GPZDA,214858.00,16,11,2017,00,00*67
2017-11-16 16:48:59 1510868939.896187: $GPGGA,214858,3946.9584,N,08404.9822,W,2,12,0.80,307.58,M,-33.324,M,,*7A
2017-11-16 16:48:59 1510868939.896249: $GPRMC,214858,A,3946.9584,N,08404.9822,W,0.0000,0.000,161117,,*3D
2017-11-16 16:48:59 1510868939.896305: $GPGSA,A,3,1,10,11,12,14,18,24,25,31,32,22,138,1.6,0.8,1.3*38
2017-11-16 16:49:00 1510868940.448097: $GPZDA,214859.00,16,11,2017,00,00*66
2017-11-16 16:49:00 1510868940.448263: $GPGGA,214859,3946.9584,N,08404.9822,W,2,12,0.80,307.58,M,-33.324,M,,*7B
2017-11-16 16:49:00 1510868940.448327: $GPRMC,214859,A,3946.9584,N,08404.9822,W,0.0000,0.000,161117,,*3C
2017-11-16 16:49:00 1510868940.448383: $GPGSA,A,3,1,10,11,12,14,18,24,25,31,32,22,138,1.6,0.8,1.3*38
