2017-12-29 11:14:40 1514564080.516402: {"class":"VERSION","release":"3.16","rev":"3.16-4","proto_major":3,"proto_minor":11}
2017-12-29 11:14:40 1514564080.516737: {"class":"DEVICES","devices":[{"class":"DEVICE","path":"/dev/ttyUSB0","driver":"SiRF","subtype":"9\u0006GSD4e_4.1.2-P1_RPATCH.05-F-GPS-4R-1510281 11/03/2015 307","activated":"2017-12-29T16:14:40.496Z","flags":1,"native":1,"bps":4800,"parity":"N","stopbits":1,"cycle":1.00}]}
2017-12-29 11:14:40 1514564080.516849: {"class":"WATCH","enable":true,"json":false,"nmea":true,"raw":0,"scaled":false,"timing":false,"split24":false,"pps":false}
2017-12-29 11:14:41 1514564081.377070: $GPZDA,161442.00,29,12,2017,00,00*6E
2017-12-29 11:14:41 1514564081.377230: $GPGGA,161442,3946.9568,N,08404.9837,W,1,11,0.80,319.11,M,-33.324,M,,*78
2017-12-29 11:14:41 1514564081.377296: $GPRMC,161442,A,3946.9568,N,08404.9837,W,0.0000,0.000,291217,,*32
2017-12-29 11:14:41 1514564081.377357: $GPGSA,A,3,8,10,15,18,20,21,24,27,32,13,138,,1.7,0.8,1.3*31
2017-12-29 11:14:42 1514564082.717843: $GPGSV,3,1,12,08,05,324,28,10,40,300,46,15,38,052,49,18,70,334,43*76
2017-12-29 11:14:42 1514564082.718000: $GPGSV,3,2,12,20,36,094,49,21,65,190,46,24,50,112,47,27,19,291,30*70
2017-12-29 11:14:42 1514564082.718066: $GPGSV,3,3,12,32,20,237,36,13,09,048,26,14,02,231,00,138,38,213,44*4F
2017-12-29 11:14:42 1514564082.831246: $GPZDA,161443.00,29,12,2017,00,00*6F
2017-12-29 11:14:42 1514564082.831374: $GPGGA,161443,3946.9568,N,08404.9837,W,1,11,0.80,319.11,M,-33.324,M,,*79
2017-12-29 11:14:42 1514564082.831439: $GPRMC,161443,A,3946.9568,N,08404.9837,W,0.0000,0.000,291217,,*33
2017-12-29 11:14:42 1514564082.831499: $GPGSA,A,3,8,10,15,18,20,21,24,27,32,13,138,,1.7,0.8,1.3*31
2017-12-29 11:14:43 1514564083.456568: $GPZDA,161444.00,29,12,2017,00,00*68
2017-12-29 11:14:43 1514564083.456726: $GPGGA,161444,3946.9571,N,08404.9836,W,1,11,0.80,318.35,M,-33.324,M,,*70
2017-12-29 11:14:43 1514564083.456793: $GPRMC,161444,A,3946.9571,N,08404.9836,W,0.0000,0.000,291217,,*3D
2017-12-29 11:14:43 1514564083.456853: $GPGSA,A,3,8,10,15,18,20,21,24,27,32,13,138,,1.7,0.8,1.3*31
2017-12-29 11:14:44 1514564084.379932: $GPZDA,161445.00,29,12,2017,00,00*69
2017-12-29 11:14:44 1514564084.380067: $GPGGA,161445,3946.9571,N,08404.9836,W,1,11,0.80,318.35,M,-33.324,M,,*71
2017-12-29 11:14:44 1514564084.380131: $GPRMC,161445,A,3946.9571,N,08404.9836,W,0.0000,0.000,291217,,*3C
2017-12-29 11:14:44 1514564084.380192: $GPGSA,A,3,8,10,15,18,20,21,24,27,32,13,138,,1.7,0.8,1.3*31
2017-12-29 11:14:45 1514564085.711953: $GPGSV,3,1,12,08,05,324,28,10,40,300,45,15,38,052,48,18,70,334,42*75
2017-12-29 11:14:45 1514564085.712118: $GPGSV,3,2,12,20,36,094,48,21,65,190,46,24,50,112,47,27,19,291,30*71
2017-12-29 11:14:45 1514564085.712184: $GPGSV,3,3,12,32,20,237,36,13,09,048,26,14,02,231,00,138,38,213,45*4E
2017-12-29 11:14:45 1514564085.824047: $GPZDA,161446.00,29,12,2017,00,00*6A
2017-12-29 11:14:45 1514564085.824193: $GPGGA,161446,3946.9571,N,08404.9836,W,1,11,0.80,318.35,M,-33.324,M,,*72
2017-12-29 11:14:45 1514564085.824258: $GPRMC,161446,A,3946.9571,N,08404.9836,W,0.0000,0.000,291217,,*3F
2017-12-29 11:14:45 1514564085.824319: $GPGSA,A,3,8,10,15,18,20,21,24,27,32,13,138,,1.7,0.8,1.3*31
2017-12-29 11:14:46 1514564086.381219: $GPZDA,161447.00,29,12,2017,00,00*6B
2017-12-29 11:14:46 1514564086.381377: $GPGGA,161447,3946.9571,N,08404.9836,W,1,11,0.80,318.35,M,-33.324,M,,*73
2017-12-29 11:14:46 1514564086.381443: $GPRMC,161447,A,3946.9571,N,08404.9836,W,0.0000,0.000,291217,,*3E
2017-12-29 11:14:46 1514564086.381505: $GPGSA,A,3,8,10,15,18,20,21,24,27,32,13,138,,1.7,0.8,1.3*31
2017-12-29 11:14:47 1514564087.378316: $GPZDA,161448.00,29,12,2017,00,00*64
2017-12-29 11:14:47 1514564087.378485: $GPGGA,161448,3946.9571,N,08404.9836,W,1,11,0.80,318.35,M,-33.324,M,,*7C
2017-12-29 11:14:47 1514564087.378555: $GPRMC,161448,A,3946.9571,N,08404.9836,W,0.0000,0.000,291217,,*31
2017-12-29 11:14:47 1514564087.378619: $GPGSA,A,3,8,10,15,18,20,21,24,27,32,13,138,,1.7,0.8,1.3*31
2017-12-29 11:14:48 1514564088.716063: $GPGSV,3,1,12,08,05,324,27,10,40,300,44,15,38,052,48,18,70,334,42*7B
2017-12-29 11:14:48 1514564088.716270: $GPGSV,3,2,12,20,36,094,48,21,65,190,45,24,50,112,46,27,19,291,36*75
2017-12-29 11:14:48 1514564088.716337: $GPGSV,3,3,12,32,20,237,37,13,09,048,26,14,02,231,00,138,38,213,46*4C
2017-12-29 11:14:48 1514564088.829386: $GPZDA,161449.00,29,12,2017,00,00*65
2017-12-29 11:14:48 1514564088.829507: $GPGGA,161449,3946.9571,N,08404.9836,W,1,11,0.80,318.35,M,-33.324,M,,*7D
2017-12-29 11:14:48 1514564088.829571: $GPRMC,161449,A,3946.9571,N,08404.9836,W,0.0000,0.000,291217,,*30
2017-12-29 11:14:48 1514564088.829632: $GPGSA,A,3,8,10,15,18,20,21,24,27,32,13,138,,1.7,0.8,1.3*31
2017-12-29 11:14:49 1514564089.381560: $GPZDA,161450.00,29,12,2017,00,00*6D
2017-12-29 11:14:49 1514564089.381701: $GPGGA,161450,3946.9571,N,08404.9836,W,1,11,0.80,318.35,M,-33.324,M,,*75
2017-12-29 11:14:49 1514564089.381766: $GPRMC,161450,A,3946.9571,N,08404.9836,W,0.3423,4.197,291217,,*35
2017-12-29 11:14:49 1514564089.381827: $GPGSA,A,3,8,10,15,18,20,21,24,27,32,13,138,,1.7,0.8,1.3*31
2017-12-29 11:14:50 1514564090.381230: $GPZDA,161451.00,29,12,2017,00,00*6C
2017-12-29 11:14:50 1514564090.381385: $GPGGA,161451,3946.9571,N,08404.9836,W,1,11,0.80,318.35,M,-33.324,M,,*74
2017-12-29 11:14:50 1514564090.381450: $GPRMC,161451,A,3946.9571,N,08404.9836,W,0.2422,93.794,291217,,*0F
2017-12-29 11:14:50 1514564090.381511: $GPGSA,A,3,8,10,15,18,20,21,24,27,32,13,138,,1.7,0.8,1.3*31
2017-12-29 11:14:51 1514564091.715683: $GPGSV,3,1,12,08,05,324,27,10,40,300,44,15,38,052,48,18,70,334,42*7B
2017-12-29 11:14:51 1514564091.929192: $GPGSV,3,2,12,20,36,094,48,21,65,190,45,24,50,112,46,27,19,291,35*76
2017-12-29 11:14:51 1514564091.929334: $GPGSV,3,3,12,32,20,237,37,13,09,048,25,14,02,231,00,138,38,213,45*4C
2017-12-29 11:14:51 1514564091.929429: $GPZDA,161452.00,29,12,2017,00,00*6F
2017-12-29 11:14:51 1514564091.929487: $GPGGA,161452,3946.9575,N,08404.9835,W,1,11,0.80,317.58,M,-33.324,M,,*74
2017-12-29 11:14:51 1514564091.929558: $GPRMC,161452,A,3946.9575,N,08404.9835,W,0.3006,62.539,291217,,*03
2017-12-29 11:14:51 1514564091.929618: $GPGSA,A,3,8,10,15,18,20,21,24,27,32,13,138,,1.7,0.8,1.3*31
2017-12-29 11:14:52 1514564092.381199: $GPZDA,161453.00,29,12,2017,00,00*6E
2017-12-29 11:14:52 1514564092.381352: $GPGGA,161453,3946.9575,N,08404.9835,W,1,11,0.80,317.58,M,-33.324,M,,*75
2017-12-29 11:14:52 1514564092.381418: $GPRMC,161453,A,3946.9575,N,08404.9835,W,0.0000,0.000,291217,,*3C
2017-12-29 11:14:52 1514564092.381480: $GPGSA,A,3,8,10,15,18,20,21,24,27,32,13,138,,1.7,0.8,1.3*31
2017-12-29 11:14:53 1514564093.381592: $GPZDA,161454.00,29,12,2017,00,00*69
2017-12-29 11:14:53 1514564093.381757: $GPGGA,161454,3946.9575,N,08404.9835,W,1,11,0.80,317.58,M,-33.324,M,,*72
2017-12-29 11:14:53 1514564093.381826: $GPRMC,161454,A,3946.9575,N,08404.9835,W,0.0000,0.000,291217,,*3B
2017-12-29 11:14:53 1514564093.381890: $GPGSA,A,3,8,10,15,18,20,21,24,27,32,13,138,,1.7,0.8,1.3*31
2017-12-29 11:14:54 1514564094.717284: $GPGSV,3,1,12,08,05,324,26,10,40,300,44,15,38,052,48,18,70,334,42*7A
2017-12-29 11:14:54 1514564094.717472: $GPGSV,3,2,12,20,36,094,48,21,65,190,45,24,50,112,46,27,19,291,34*77
2017-12-29 11:14:54 1514564094.717542: $GPGSV,3,3,12,32,20,237,36,13,09,048,25,14,02,231,00,138,38,213,44*4C
2017-12-29 11:14:54 1514564094.830621: $GPZDA,161455.00,29,12,2017,00,00*68
2017-12-29 11:14:54 1514564094.830765: $GPGGA,161455,3946.9575,N,08404.9835,W,1,11,0.80,317.58,M,-33.324,M,,*73
2017-12-29 11:14:54 1514564094.830834: $GPRMC,161455,A,3946.9575,N,08404.9835,W,0.0000,0.000,291217,,*3A
2017-12-29 11:14:54 1514564094.830899: $GPGSA,A,3,8,10,15,18,20,21,24,27,32,13,138,,1.7,0.8,1.3*31
2017-12-29 11:14:55 1514564095.381529: $GPZDA,161456.00,29,12,2017,00,00*6B
2017-12-29 11:14:55 1514564095.381680: $GPGGA,161456,3946.9570,N,08404.9835,W,1,11,0.80,316.94,M,-33.324,M,,*74
2017-12-29 11:14:55 1514564095.381750: $GPRMC,161456,A,3946.9570,N,08404.9835,W,0.0000,0.000,291217,,*3C
2017-12-29 11:14:55 1514564095.381814: $GPGSA,A,3,8,10,15,18,20,21,24,27,32,13,138,,1.7,0.8,1.3*31
2017-12-29 11:14:56 1514564096.396402: $GPZDA,161457.00,29,12,2017,00,00*6A
2017-12-29 11:14:56 1514564096.396611: $GPGGA,161457,3946.9570,N,08404.9835,W,1,11,0.80,316.94,M,-33.324,M,,*75
2017-12-29 11:14:56 1514564096.396679: $GPRMC,161457,A,3946.9570,N,08404.9835,W,0.0000,0.000,291217,,*3D
2017-12-29 11:14:56 1514564096.396740: $GPGSA,A,3,8,10,15,18,20,21,24,27,32,13,138,,1.7,0.8,1.3*31
2017-12-29 11:14:57 1514564097.733148: $GPGSV,3,1,12,08,05,324,26,10,40,300,43,15,38,052,48,18,70,334,42*7D
2017-12-29 11:14:57 1514564097.733297: $GPGSV,3,2,12,20,36,094,48,21,65,190,45,24,50,112,46,27,19,291,34*77
2017-12-29 11:14:57 1514564097.733362: $GPGSV,3,3,12,32,20,237,36,13,09,048,24,14,02,231,00,138,38,213,45*4C
2017-12-29 11:14:57 1514564097.846740: $GPZDA,161458.00,29,12,2017,00,00*65
2017-12-29 11:14:57 1514564097.846870: $GPGGA,161458,3946.9574,N,08404.9835,W,1,11,0.80,316.18,M,-33.324,M,,*7A
2017-12-29 11:14:57 1514564097.846937: $GPRMC,161458,A,3946.9574,N,08404.9835,W,0.0000,0.000,291217,,*36
2017-12-29 11:14:57 1514564097.846998: $GPGSA,A,3,8,10,15,18,20,21,24,27,32,13,138,,1.7,0.8,1.3*31
2017-12-29 11:14:58 1514564098.472130: $GPZDA,161459.00,29,12,2017,00,00*64
2017-12-29 11:14:58 1514564098.472285: $GPGGA,161459,3946.9574,N,08404.9835,W,1,11,0.80,316.18,M,-33.324,M,,*7B
2017-12-29 11:14:58 1514564098.472352: $GPRMC,161459,A,3946.9574,N,08404.9835,W,0.0000,0.000,291217,,*37
2017-12-29 11:14:58 1514564098.472413: $GPGSA,A,3,8,10,15,18,20,21,24,27,32,13,138,,1.7,0.8,1.3*31
2017-12-29 11:14:59 1514564099.396771: $GPZDA,161500.00,29,12,2017,00,00*69
2017-12-29 11:14:59 1514564099.396920: $GPGGA,161500,3946.9574,N,08404.9835,W,1,11,0.80,316.18,M,-33.324,M,,*76
2017-12-29 11:14:59 1514564099.396987: $GPRMC,161500,A,3946.9574,N,08404.9835,W,0.0000,0.000,291217,,*3A
2017-12-29 11:14:59 1514564099.397048: $GPGSA,A,3,8,10,15,18,20,21,24,27,32,13,138,,1.7,0.8,1.3*31
2017-12-29 11:15:00 1514564100.731122: $GPGSV,3,1,12,08,05,324,27,10,40,300,43,15,38,052,47,18,70,334,42*73
2017-12-29 11:15:00 1514564100.731292: $GPGSV,3,2,12,20,36,094,48,21,65,190,45,24,50,112,46,27,19,291,34*77
2017-12-29 11:15:00 1514564100.731359: $GPGSV,3,3,12,32,20,237,35,13,09,048,24,14,02,231,00,138,38,213,44*4E
2017-12-29 11:15:00 1514564100.844600: $GPZDA,161501.00,29,12,2017,00,00*68
2017-12-29 11:15:00 1514564100.844725: $GPGGA,161501,3946.9574,N,08404.9835,W,1,11,0.80,316.18,M,-33.324,M,,*77
2017-12-29 11:15:00 1514564100.844791: $GPRMC,161501,A,3946.9574,N,08404.9835,W,0.0000,0.000,291217,,*3B
2017-12-29 11:15:00 1514564100.844852: $GPGSA,A,3,8,10,15,18,20,21,24,27,32,13,138,,1.7,0.8,1.3*31
2017-12-29 11:15:01 1514564101.398005: $GPZDA,161502.00,29,12,2017,00,00*6B
2017-12-29 11:15:01 1514564101.398158: $GPGGA,161502,3946.9574,N,08404.9835,W,1,11,0.80,316.18,M,-33.324,M,,*74
2017-12-29 11:15:01 1514564101.398224: $GPRMC,161502,A,3946.9574,N,08404.9835,W,0.0000,0.000,291217,,*38
2017-12-29 11:15:01 1514564101.398285: $GPGSA,A,3,8,10,15,18,20,21,24,27,32,13,138,,1.7,0.8,1.3*31
2017-12-29 11:15:02 1514564102.381409: $GPZDA,161503.00,29,12,2017,00,00*6A
2017-12-29 11:15:02 1514564102.381572: $GPGGA,161503,3946.9574,N,08404.9835,W,1,11,0.80,316.18,M,-33.324,M,,*75
2017-12-29 11:15:02 1514564102.381638: $GPRMC,161503,A,3946.9574,N,08404.9835,W,0.0000,0.000,291217,,*39
2017-12-29 11:15:02 1514564102.381699: $GPGSA,A,3,8,10,15,18,20,21,24,27,32,13,138,,1.7,0.8,1.3*31
2017-12-29 11:15:03 1514564103.732696: $GPGSV,3,1,12,08,05,324,27,10,40,300,42,15,38,052,48,18,70,334,42*7D
2017-12-29 11:15:03 1514564103.732865: $GPGSV,3,2,12,20,36,094,47,21,65,190,44,24,50,112,46,27,19,291,34*79
2017-12-29 11:15:03 1514564103.732930: $GPGSV,3,3,12,32,20,237,35,13,09,048,24,14,02,231,00,138,38,213,44*4E
2017-12-29 11:15:03 1514564103.846293: $GPZDA,161504.00,29,12,2017,00,00*6D
2017-12-29 11:15:03 1514564103.846434: $GPGGA,161504,3946.9574,N,08404.9835,W,1,11,0.80,316.18,M,-33.324,M,,*72
2017-12-29 11:15:03 1514564103.846499: $GPRMC,161504,A,3946.9574,N,08404.9835,W,0.2422,273.794,291217,,*34
2017-12-29 11:15:03 1514564103.846560: $GPGSA,A,3,8,10,15,18,20,21,24,27,32,13,138,,1.7,0.8,1.3*31
2017-12-29 11:15:04 1514564104.373384: $GPZDA,161505.00,29,12,2017,00,00*6C
2017-12-29 11:15:04 1514564104.373539: $GPGGA,161505,3946.9574,N,08404.9835,W,1,11,0.80,316.18,M,-33.324,M,,*73
2017-12-29 11:15:04 1514564104.373605: $GPRMC,161505,A,3946.9574,N,08404.9835,W,0.1567,9.200,291217,,*31
2017-12-29 11:15:04 1514564104.373666: $GPGSA,A,3,8,10,15,18,20,21,24,27,32,13,138,,1.7,0.8,1.3*31
2017-12-29 11:15:05 1514564105.398021: $GPZDA,161506.00,29,12,2017,00,00*6F
2017-12-29 11:15:05 1514564105.398183: $GPGGA,161506,3946.9574,N,08404.9835,W,1,11,0.80,316.18,M,-33.324,M,,*70
2017-12-29 11:15:05 1514564105.398250: $GPRMC,161506,A,3946.9574,N,08404.9835,W,0.0000,0.000,291217,,*3C
2017-12-29 11:15:05 1514564105.398311: $GPGSA,A,3,8,10,15,18,20,21,24,27,32,13,138,,1.7,0.8,1.3*31
