2017-12-29 14:38:09 1514576289.847825: {"class":"VERSION","release":"3.16","rev":"3.16-4","proto_major":3,"proto_minor":11}
2017-12-29 14:38:09 1514576289.848241: {"class":"DEVICES","devices":[{"class":"DEVICE","path":"/dev/ttyUSB0","driver":"SiRF","subtype":"9\u0006GSD4e_4.1.2-P1_RPATCH.05-F-GPS-4R-1510281 11/03/2015 307","activated":"2017-12-29T19:38:09.476Z","flags":1,"native":1,"bps":4800,"parity":"N","stopbits":1,"cycle":1.00}]}
2017-12-29 14:38:09 1514576289.848359: {"class":"WATCH","enable":true,"json":false,"nmea":true,"raw":0,"scaled":false,"timing":false,"split24":false,"pps":false}
2017-12-29 14:38:10 1514576290.701807: $GPGSV,3,1,12,01,21,300,36,10,47,148,51,12,22,049,44,14,66,328,43*72
2017-12-29 14:38:10 1514576290.701966: $GPGSV,3,2,12,18,16,144,47,22,20,312,41,25,40,090,51,31,58,226,48*7B
2017-12-29 14:38:10 1514576290.702032: $GPGSV,3,3,12,32,68,033,48,03,01,316,30,11,08,282,32,138,38,213,43*4B
2017-12-29 14:38:10 1514576290.815746: $GPZDA,193811.00,29,12,2017,00,00*69
2017-12-29 14:38:10 1514576290.815911: $GPGGA,193811,3946.9577,N,08404.9832,W,2,12,0.80,299.76,M,-33.324,M,,*7C
2017-12-29 14:38:10 1514576290.815976: $GPRMC,193811,A,3946.9577,N,08404.9832,W,0.0000,0.000,291217,,*3E
2017-12-29 14:38:10 1514576290.816041: $GPGSA,A,3,1,10,12,14,18,22,25,31,32,3,11,138,1.7,0.8,1.3*0C
2017-12-29 14:38:11 1514576291.364960: $GPZDA,193812.00,29,12,2017,00,00*6A
2017-12-29 14:38:11 1514576291.365132: $GPGGA,193812,3946.9577,N,08404.9832,W,2,12,0.80,299.76,M,-33.324,M,,*7F
2017-12-29 14:38:11 1514576291.365199: $GPRMC,193812,A,3946.9577,N,08404.9832,W,0.0000,0.000,291217,,*3D
2017-12-29 14:38:11 1514576291.365261: $GPGSA,A,3,1,10,12,14,18,22,25,31,32,3,11,138,1.7,0.8,1.3*0C
2017-12-29 14:38:12 1514576292.358279: $GPZDA,193813.00,29,12,2017,00,00*6B
2017-12-29 14:38:12 1514576292.358462: $GPGGA,193813,3946.9577,N,08404.9832,W,2,12,0.80,299.76,M,-33.324,M,,*7E
2017-12-29 14:38:12 1514576292.358534: $GPRMC,193813,A,3946.9577,N,08404.9832,W,0.0000,0.000,291217,,*3C
2017-12-29 14:38:12 1514576292.358597: $GPGSA,A,3,1,10,12,14,18,22,25,31,32,3,11,138,1.7,0.8,1.3*0C
2017-12-29 14:38:13 1514576293.711207: $GPGSV,3,1,12,01,21,300,36,10,47,148,51,12,22,049,44,14,66,328,43*72
2017-12-29 14:38:13 1514576293.711370: $GPGSV,3,2,12,18,16,144,47,22,20,312,41,25,40,090,51,31,58,226,48*7B
2017-12-29 14:38:13 1514576293.711450: $GPGSV,3,3,12,32,68,033,48,26,04,181,04,11,08,282,33,138,38,213,43*43
2017-12-29 14:38:13 1514576293.824795: $GPZDA,193814.00,29,12,2017,00,00*6C
2017-12-29 14:38:13 1514576293.824962: $GPGGA,193814,3946.9577,N,08404.9832,W,2,11,0.80,299.76,M,-33.324,M,,*7A
2017-12-29 14:38:13 1514576293.825028: $GPRMC,193814,A,3946.9577,N,08404.9832,W,0.0000,0.000,291217,,*3B
2017-12-29 14:38:13 1514576293.825106: $GPGSA,A,3,1,10,12,14,18,22,25,31,32,11,138,,1.7,0.8,1.3*3F
2017-12-29 14:38:14 1514576294.450185: $GPZDA,193815.00,29,12,2017,00,00*6D
2017-12-29 14:38:14 1514576294.450357: $GPGGA,193815,3946.9577,N,08404.9825,W,2,11,0.80,299.84,M,-33.324,M,,*70
2017-12-29 14:38:14 1514576294.450424: $GPRMC,193815,A,3946.9577,N,08404.9825,W,0.0000,0.000,291217,,*3C
2017-12-29 14:38:14 1514576294.450502: $GPGSA,A,3,1,10,12,14,18,22,25,31,32,11,138,,1.7,0.8,1.3*3F
2017-12-29 14:38:15 1514576295.328536: $GPZDA,193816.00,29,12,2017,00,00*6E
2017-12-29 14:38:15 1514576295.328734: $GPGGA,193816,3946.9577,N,08404.9825,W,2,11,0.80,299.84,M,-33.324,M,,*73
2017-12-29 14:38:15 1514576295.328804: $GPRMC,193816,A,3946.9577,N,08404.9825,W,0.0000,0.000,291217,,*3F
2017-12-29 14:38:15 1514576295.328869: $GPGSA,A,3,1,10,12,14,18,22,25,31,32,11,138,,1.7,0.8,1.3*3F
2017-12-29 14:38:16 1514576296.664042: $GPGSV,3,1,12,01,21,300,36,10,47,148,51,12,22,049,44,14,66,328,44*75
2017-12-29 14:38:16 1514576296.664218: $GPGSV,3,2,12,18,16,144,47,22,20,312,41,25,40,090,51,31,58,226,48*7B
2017-12-29 14:38:16 1514576296.664289: $GPGSV,3,3,12,32,68,033,48,03,01,316,30,11,08,282,34,138,38,213,43*4D
2017-12-29 14:38:16 1514576296.777449: $GPZDA,193817.00,29,12,2017,00,00*6F
2017-12-29 14:38:16 1514576296.777589: $GPGGA,193817,3946.9577,N,08404.9825,W,2,12,0.80,299.84,M,-33.324,M,,*71
2017-12-29 14:38:16 1514576296.777710: $GPRMC,193817,A,3946.9577,N,08404.9825,W,0.0000,0.000,291217,,*3E
2017-12-29 14:38:16 1514576296.777772: $GPGSA,A,3,1,10,12,14,18,22,25,31,32,3,11,138,1.7,0.8,1.3*0C
2017-12-29 14:38:17 1514576297.332229: $GPZDA,193818.00,29,12,2017,00,00*60
2017-12-29 14:38:17 1514576297.332391: $GPGGA,193818,3946.9577,N,08404.9825,W,2,12,0.80,299.84,M,-33.324,M,,*7E
2017-12-29 14:38:17 1514576297.332461: $GPRMC,193818,A,3946.9577,N,08404.9825,W,0.0000,0.000,291217,,*31
2017-12-29 14:38:17 1514576297.332539: $GPGSA,A,3,1,10,12,14,18,22,25,31,32,3,11,138,1.7,0.8,1.3*0C
2017-12-29 14:38:18 1514576298.328125: $GPZDA,193819.00,29,12,2017,00,00*61
2017-12-29 14:38:18 1514576298.328301: $GPGGA,193819,3946.9577,N,08404.9825,W,2,12,0.80,299.84,M,-33.324,M,,*7F
2017-12-29 14:38:18 1514576298.328369: $GPRMC,193819,A,3946.9577,N,08404.9825,W,0.0000,0.000,291217,,*30
2017-12-29 14:38:18 1514576298.328432: $GPGSA,A,3,1,10,12,14,18,22,25,31,32,3,11,138,1.7,0.8,1.3*0C
2017-12-29 14:38:19 1514576299.664363: $GPGSV,3,1,12,01,21,300,36,10,47,148,51,12,22,049,45,14,66,328,44*74
2017-12-29 14:38:19 1514576299.664554: $GPGSV,3,2,12,18,16,144,47,22,20,312,41,25,40,090,51,31,58,226,48*7B
2017-12-29 14:38:19 1514576299.664623: $GPGSV,3,3,12,32,68,033,48,03,01,316,30,11,08,282,33,138,38,213,44*4D
2017-12-29 14:38:19 1514576299.778010: $GPZDA,193820.00,29,12,2017,00,00*6B
2017-12-29 14:38:19 1514576299.778143: $GPGGA,193820,3946.9577,N,08404.9825,W,2,12,0.80,299.84,M,-33.324,M,,*75
2017-12-29 14:38:19 1514576299.778208: $GPRMC,193820,A,3946.9577,N,08404.9825,W,0.0000,0.000,291217,,*3A
2017-12-29 14:38:19 1514576299.778269: $GPGSA,A,3,1,10,12,14,18,22,25,31,32,3,11,138,1.7,0.8,1.3*0C
