2018-01-11 20:21:55 1515720115.417634: {"class":"VERSION","release":"3.16","rev":"3.16-4","proto_major":3,"proto_minor":11}
2018-01-11 20:21:55 1515720115.418076: {"class":"DEVICES","devices":[{"class":"DEVICE","path":"/dev/ttyUSB0","driver":"SiRF","subtype":"9\u0006GSD4e_4.1.2-P1_RPATCH.05-F-GPS-4R-1510281 11/03/2015 307","activated":"2018-01-12T01:21:55.277Z","flags":1,"native":1,"bps":4800,"parity":"N","stopbits":1,"cycle":1.00}]}
2018-01-11 20:21:55 1515720115.418204: {"class":"WATCH","enable":true,"json":false,"nmea":true,"raw":0,"scaled":false,"timing":false,"split24":false,"pps":false}
2018-01-11 20:21:55 1515720115.726734: $GPGSV,3,1,11,07,60,316,42,08,75,112,45,09,44,223,42,11,24,166,44*7A
2018-01-11 20:21:55 1515720115.726956: $GPGSV,3,2,11,16,19,063,36,23,24,189,49,27,43,049,51,28,17,262,31*7E
2018-01-11 20:21:55 1515720115.727025: $GPGSV,3,3,11,30,33,307,34,01,02,162,08,138,38,213,45*77
2018-01-11 20:21:55 1515720115.840174: $GPZDA,012156.00,12,01,2018,00,00*6E
2018-01-11 20:21:55 1515720115.840340: $GPGGA,012156,3946.9594,N,08404.9835,W,2,11,0.80,294.46,M,-33.324,M,,*79
2018-01-11 20:21:55 1515720115.840408: $GPRMC,012156,A,3946.9594,N,08404.9835,W,0.0000,0.000,120118,,*33
2018-01-11 20:21:55 1515720115.840468: $GPGSA,A,3,7,8,9,11,16,23,27,28,30,1,138,,4.0,0.8,3.5*0F
2018-01-11 20:21:56 1515720116.465511: $GPZDA,012157.00,12,01,2018,00,00*6F
2018-01-11 20:21:56 1515720116.465697: $GPGGA,012157,3946.9594,N,08404.9835,W,2,11,0.80,294.46,M,-33.324,M,,*78
2018-01-11 20:21:56 1515720116.465763: $GPRMC,012157,A,3946.9594,N,08404.9835,W,0.0000,0.000,120118,,*32
2018-01-11 20:21:56 1515720116.465842: $GPGSA,A,3,7,8,9,11,16,23,27,28,30,1,138,,4.0,0.8,3.5*0F
2018-01-11 20:21:57 1515720117.388875: $GPZDA,012158.00,12,01,2018,00,00*60
2018-01-11 20:21:57 1515720117.389111: $GPGGA,012158,3946.9594,N,08404.9835,W,2,11,0.80,294.46,M,-33.324,M,,*77
2018-01-11 20:21:57 1515720117.389186: $GPRMC,012158,A,3946.9594,N,08404.9835,W,0.0000,0.000,120118,,*3D
2018-01-11 20:21:57 1515720117.389247: $GPGSA,A,3,7,8,9,11,16,23,27,28,30,1,138,,4.0,0.8,3.5*0F
2018-01-11 20:21:58 1515720118.742101: $GPGSV,3,1,11,07,60,316,42,08,75,112,45,09,44,223,42,11,24,166,44*7A
2018-01-11 20:21:58 1515720118.742261: $GPGSV,3,2,11,16,19,063,36,23,24,189,49,27,43,049,51,28,17,262,31*7E
2018-01-11 20:21:58 1515720118.742326: $GPGSV,3,3,11,30,33,307,35,01,02,162,05,138,38,213,45*7B
2018-01-11 20:21:58 1515720118.855499: $GPZDA,012159.00,12,01,2018,00,00*61
2018-01-11 20:21:58 1515720118.855650: $GPGGA,012159,3946.9594,N,08404.9835,W,2,10,0.80,294.46,M,-33.324,M,,*77
2018-01-11 20:21:58 1515720118.855715: $GPRMC,012159,A,3946.9594,N,08404.9835,W,0.0000,0.000,120118,,*3C
2018-01-11 20:21:58 1515720118.855792: $GPGSA,A,3,7,8,9,11,16,23,27,28,30,138,,,4.0,0.8,3.5*3E
2018-01-11 20:21:59 1515720119.407629: $GPZDA,012200.00,12,01,2018,00,00*6E
2018-01-11 20:21:59 1515720119.415100: $GPGGA,012200,3946.9594,N,08404.9835,W,2,10,0.80,294.46,M,-33.324,M,,*78
2018-01-11 20:21:59 1515720119.415225: $GPRMC,012200,A,3946.9594,N,08404.9835,W,0.0000,0.000,120118,,*33
2018-01-11 20:21:59 1515720119.415305: $GPGSA,A,3,7,8,9,11,16,23,27,28,30,138,,,4.0,0.8,3.5*3E
2018-01-11 20:22:00 1515720120.392260: $GPZDA,012201.00,12,01,2018,00,00*6F
2018-01-11 20:22:00 1515720120.392435: $GPGGA,012201,3946.9594,N,08404.9835,W,2,10,0.80,294.46,M,-33.324,M,,*79
2018-01-11 20:22:00 1515720120.392502: $GPRMC,012201,A,3946.9594,N,08404.9835,W,0.0000,0.000,120118,,*32
2018-01-11 20:22:00 1515720120.392562: $GPGSA,A,3,7,8,9,11,16,23,27,28,30,138,,,4.0,0.8,3.5*3E
2018-01-11 20:22:01 1515720121.741197: $GPGSV,3,1,11,07,60,316,41,08,75,112,45,09,44,223,41,11,24,166,44*7A
2018-01-11 20:22:01 1515720121.741347: $GPGSV,3,2,11,16,19,063,36,23,24,189,49,27,43,049,51,28,17,262,32*7D
2018-01-11 20:22:01 1515720121.741411: $GPGSV,3,3,11,30,33,307,35,01,02,162,04,138,38,213,44*7B
2018-01-11 20:22:01 1515720121.854583: $GPZDA,012202.00,12,01,2018,00,00*6C
2018-01-11 20:22:01 1515720121.854724: $GPGGA,012202,3946.9594,N,08404.9835,W,2,10,0.80,294.46,M,-33.324,M,,*7A
2018-01-11 20:22:01 1515720121.854811: $GPRMC,012202,A,3946.9594,N,08404.9835,W,0.0000,0.000,120118,,*31
2018-01-11 20:22:01 1515720121.854954: $GPGSA,A,3,7,8,9,11,16,23,27,28,30,138,,,4.0,0.8,3.5*3E
2018-01-11 20:22:02 1515720122.392978: $GPZDA,012203.00,12,01,2018,00,00*6D
2018-01-11 20:22:02 1515720122.393158: $GPGGA,012203,3946.9594,N,08404.9835,W,2,10,0.80,294.46,M,-33.324,M,,*7B
2018-01-11 20:22:02 1515720122.393225: $GPRMC,012203,A,3946.9594,N,08404.9835,W,0.0000,0.000,120118,,*30
2018-01-11 20:22:02 1515720122.393286: $GPGSA,A,3,7,8,9,11,16,23,27,28,30,138,,,4.0,0.8,3.5*3E
2018-01-11 20:22:03 1515720123.410359: $GPZDA,012204.00,12,01,2018,00,00*6A
2018-01-11 20:22:03 1515720123.410510: $GPGGA,012204,3946.9594,N,08404.9835,W,2,10,0.80,294.46,M,-33.324,M,,*7C
2018-01-11 20:22:03 1515720123.410576: $GPRMC,012204,A,3946.9594,N,08404.9835,W,0.0000,0.000,120118,,*37
2018-01-11 20:22:03 1515720123.410636: $GPGSA,A,3,7,8,9,11,16,23,27,28,30,138,,,4.0,0.8,3.5*3E
2018-01-11 20:22:04 1515720124.745786: $GPGSV,3,1,11,07,60,316,41,08,75,112,45,09,44,223,42,11,24,166,44*79
2018-01-11 20:22:04 1515720124.751463: $GPGSV,3,2,11,16,19,063,36,23,24,189,49,27,43,049,51,28,17,262,32*7D
2018-01-11 20:22:04 1515720124.751572: $GPGSV,3,3,11,30,33,307,35,01,02,162,04,138,38,213,45*7A
2018-01-11 20:22:04 1515720124.859499: $GPZDA,012205.00,12,01,2018,00,00*6B
2018-01-11 20:22:04 1515720124.859628: $GPGGA,012205,3946.9594,N,08404.9835,W,2,10,0.80,294.46,M,-33.324,M,,*7D
2018-01-11 20:22:04 1515720124.859693: $GPRMC,012205,A,3946.9594,N,08404.9835,W,0.0000,0.000,120118,,*36
2018-01-11 20:22:04 1515720124.859774: $GPGSA,A,3,7,8,9,11,16,23,27,28,30,138,,,4.0,0.8,3.5*3E
2018-01-11 20:22:05 1515720125.410346: $GPZDA,012206.00,12,01,2018,00,00*68
2018-01-11 20:22:05 1515720125.410485: $GPGGA,012206,3946.9594,N,08404.9835,W,2,10,0.80,294.46,M,-33.324,M,,*7E
2018-01-11 20:22:05 1515720125.410550: $GPRMC,012206,A,3946.9594,N,08404.9835,W,0.0000,0.000,120118,,*35
2018-01-11 20:22:05 1515720125.410611: $GPGSA,A,3,7,8,9,11,16,23,27,28,30,138,,,4.0,0.8,3.5*3E
2018-01-11 20:22:06 1515720126.405700: $GPZDA,012207.00,12,01,2018,00,00*69
2018-01-11 20:22:06 1515720126.405878: $GPGGA,012207,3946.9594,N,08404.9835,W,2,10,0.80,294.46,M,-33.324,M,,*7F
2018-01-11 20:22:06 1515720126.405944: $GPRMC,012207,A,3946.9594,N,08404.9835,W,0.0000,0.000,120118,,*34
2018-01-11 20:22:06 1515720126.406004: $GPGSA,A,3,7,8,9,11,16,23,27,28,30,138,,,4.0,0.8,3.5*3E
2018-01-11 20:22:07 1515720127.746152: $GPGSV,3,1,11,07,60,316,40,08,75,112,45,09,44,223,42,11,24,166,44*78
2018-01-11 20:22:07 1515720127.746328: $GPGSV,3,2,11,16,19,063,37,23,24,189,49,27,43,049,50,28,17,262,32*7D
2018-01-11 20:22:07 1515720127.746395: $GPGSV,3,3,11,30,33,307,35,01,02,162,04,138,38,213,45*7A
2018-01-11 20:22:07 1515720127.859793: $GPZDA,012208.00,12,01,2018,00,00*66
2018-01-11 20:22:07 1515720127.859935: $GPGGA,012208,3946.9594,N,08404.9835,W,2,10,0.80,294.46,M,-33.324,M,,*70
2018-01-11 20:22:07 1515720127.859999: $GPRMC,012208,A,3946.9594,N,08404.9835,W,0.0000,0.000,120118,,*3B
2018-01-11 20:22:07 1515720127.860059: $GPGSA,A,3,7,8,9,11,16,23,27,28,30,138,,,4.0,0.8,3.5*3E
2018-01-11 20:22:08 1515720128.393108: $GPZDA,012209.00,12,01,2018,00,00*67
2018-01-11 20:22:08 1515720128.393249: $GPGGA,012209,3946.9594,N,08404.9835,W,2,10,0.80,294.46,M,-33.324,M,,*71
2018-01-11 20:22:08 1515720128.393315: $GPRMC,012209,A,3946.9594,N,08404.9835,W,0.0000,0.000,120118,,*3A
2018-01-11 20:22:08 1515720128.393375: $GPGSA,A,3,7,8,9,11,16,23,27,28,30,138,,,4.0,0.8,3.5*3E
