2017-11-16 13:51:06 1510858266.365757: {"class":"VERSION","release":"3.17","rev":"3.17","proto_major":3,"proto_minor":12}
2017-11-16 13:51:06 1510858266.366238: {"class":"DEVICES","devices":[{"class":"DEVICE","path":"/dev/ttyUSB0","driver":"SiRF","subtype":"9\u0006GSD4e_4.1.2-P1_RPATCH.05-F-GPS-4R-1510281 11/03/2015 307","activated":"2017-11-16T18:51:06.341Z","flags":1,"native":1,"bps":4800,"parity":"N","stopbits":1,"cycle":1.00}]}
2017-11-16 13:51:06 1510858266.366356: {"class":"WATCH","enable":true,"json":false,"nmea":true,"raw":0,"scaled":false,"timing":false,"split24":false,"pps":false}
2017-11-16 13:51:07 1510858267.681658: $GPGSV,3,1,11,10,34,294,43,13,16,046,44,15,47,049,51,18,64,318,48*71
2017-11-16 13:51:07 1510858267.681838: $GPGSV,3,2,11,20,40,087,48,21,73,205,47,24,45,124,46,27,19,300,30*71
2017-11-16 13:51:07 1510858267.681900: $GPGSV,3,3,11,32,12,232,29,08,02,328,00,138,38,213,44*71
2017-11-16 13:51:07 1510858267.795020: $GPZDA,185106.00,16,11,2017,00,00*6E
2017-11-16 13:51:07 1510858267.795198: $GPGGA,185106,3946.9612,N,08404.9827,W,2,10,0.80,307.77,M,-33.324,M,,*75
2017-11-16 13:51:07 1510858267.795260: $GPRMC,185106,A,3946.9612,N,08404.9827,W,0.0000,0.000,161117,,*3D
2017-11-16 13:51:07 1510858267.795316: $GPGSA,A,3,10,13,15,18,20,21,24,27,32,138,,,1.6,0.8,1.3*08
2017-11-16 13:51:08 1510858268.348452: $GPZDA,185107.00,16,11,2017,00,00*6F
2017-11-16 13:51:08 1510858268.348619: $GPGGA,185107,3946.9612,N,08404.9827,W,2,10,0.80,307.77,M,-33.324,M,,*74
2017-11-16 13:51:08 1510858268.348680: $GPRMC,185107,A,3946.9612,N,08404.9827,W,0.0000,0.000,161117,,*3C
2017-11-16 13:51:08 1510858268.348735: $GPGSA,A,3,10,13,15,18,20,21,24,27,32,138,,,1.6,0.8,1.3*08
2017-11-16 13:51:09 1510858269.344484: $GPZDA,185108.00,16,11,2017,00,00*60
2017-11-16 13:51:09 1510858269.344663: $GPGGA,185108,3946.9612,N,08404.9827,W,2,10,0.80,307.77,M,-33.324,M,,*7B
2017-11-16 13:51:09 1510858269.344726: $GPRMC,185108,A,3946.9612,N,08404.9827,W,0.0000,0.000,161117,,*33
2017-11-16 13:51:09 1510858269.344782: $GPGSA,A,3,10,13,15,18,20,21,24,27,32,138,,,1.6,0.8,1.3*08
2017-11-16 13:51:10 1510858270.679089: $GPGSV,3,1,11,10,34,294,43,13,16,046,44,15,47,049,51,18,64,318,47*7E
2017-11-16 13:51:10 1510858270.679265: $GPGSV,3,2,11,20,40,087,48,21,73,205,47,24,45,124,46,27,19,300,30*71
2017-11-16 13:51:10 1510858270.679325: $GPGSV,3,3,11,32,12,232,29,08,02,328,00,138,38,213,44*71
2017-11-16 13:51:10 1510858270.792516: $GPZDA,185109.00,16,11,2017,00,00*61
2017-11-16 13:51:10 1510858270.792657: $GPGGA,185109,3946.9615,N,08404.9826,W,2,10,0.80,307.01,M,-33.324,M,,*7D
2017-11-16 13:51:10 1510858270.792720: $GPRMC,185109,A,3946.9615,N,08404.9826,W,0.0000,0.000,161117,,*34
2017-11-16 13:51:10 1510858270.792775: $GPGSA,A,3,10,13,15,18,20,21,24,27,32,138,,,1.6,0.8,1.3*08
2017-11-16 13:51:11 1510858271.347142: $GPZDA,185110.00,16,11,2017,00,00*69
2017-11-16 13:51:11 1510858271.347330: $GPGGA,185110,3946.9615,N,08404.9826,W,2,10,0.80,307.01,M,-33.324,M,,*75
2017-11-16 13:51:11 1510858271.347393: $GPRMC,185110,A,3946.9615,N,08404.9826,W,0.0000,0.000,161117,,*3C
2017-11-16 13:51:11 1510858271.347466: $GPGSA,A,3,10,13,15,18,20,21,24,27,32,138,,,1.6,0.8,1.3*08
2017-11-16 13:51:12 1510858272.345066: $GPZDA,185111.00,16,11,2017,00,00*68
2017-11-16 13:51:12 1510858272.345238: $GPGGA,185111,3946.9615,N,08404.9826,W,2,10,0.80,307.01,M,-33.324,M,,*74
2017-11-16 13:51:12 1510858272.345298: $GPRMC,185111,A,3946.9615,N,08404.9826,W,0.0000,0.000,161117,,*3D
2017-11-16 13:51:12 1510858272.345353: $GPGSA,A,3,10,13,15,18,20,21,24,27,32,138,,,1.6,0.8,1.3*08
2017-11-16 13:51:13 1510858273.676088: $GPGSV,3,1,11,10,34,294,42,13,16,046,44,15,47,049,51,18,64,318,46*7E
2017-11-16 13:51:13 1510858273.676231: $GPGSV,3,2,11,20,40,087,48,21,73,205,47,24,45,124,46,27,19,300,28*78
2017-11-16 13:51:13 1510858273.676291: $GPGSV,3,3,11,32,12,232,29,08,02,328,23,138,38,213,44*70
2017-11-16 13:51:13 1510858273.789789: $GPZDA,185112.00,16,11,2017,00,00*6B
2017-11-16 13:51:13 1510858273.789947: $GPGGA,185112,3946.9615,N,08404.9826,W,2,11,0.80,307.01,M,-33.324,M,,*76
2017-11-16 13:51:13 1510858273.790060: $GPRMC,185112,A,3946.9615,N,08404.9826,W,0.0000,0.000,161117,,*3E
2017-11-16 13:51:13 1510858273.790117: $GPGSA,A,3,10,13,15,18,20,21,24,27,32,8,138,,1.6,0.8,1.3*30
2017-11-16 13:51:14 1510858274.344170: $GPZDA,185113.00,16,11,2017,00,00*6A
2017-11-16 13:51:14 1510858274.344332: $GPGGA,185113,3946.9615,N,08404.9826,W,2,11,0.80,307.01,M,-33.324,M,,*77
2017-11-16 13:51:14 1510858274.344393: $GPRMC,185113,A,3946.9615,N,08404.9826,W,0.0000,0.000,161117,,*3F
2017-11-16 13:51:14 1510858274.344450: $GPGSA,A,3,10,13,15,18,20,21,24,27,32,8,138,,1.6,0.8,1.3*30
2017-11-16 13:51:15 1510858275.345488: $GPZDA,185114.00,16,11,2017,00,00*6D
2017-11-16 13:51:15 1510858275.345676: $GPGGA,185114,3946.9615,N,08404.9826,W,2,11,0.80,307.01,M,-33.324,M,,*70
2017-11-16 13:51:15 1510858275.345773: $GPRMC,185114,A,3946.9615,N,08404.9826,W,0.0000,0.000,161117,,*38
2017-11-16 13:51:15 1510858275.345850: $GPGSA,A,3,10,13,15,18,20,21,24,27,32,8,138,,1.6,0.8,1.3*30
