2017-12-31 16:52:29 1514757149.017734: {"class":"VERSION","release":"3.16","rev":"3.16-4","proto_major":3,"proto_minor":11}
2017-12-31 16:52:29 1514757149.018111: {"class":"DEVICES","devices":[{"class":"DEVICE","path":"/dev/ttyUSB0","driver":"SiRF","activated":"2017-12-31T21:52:28.501Z","flags":1,"native":1,"bps":4800,"parity":"N","stopbits":1,"cycle":1.00}]}
2017-12-31 16:52:29 1514757149.018229: {"class":"WATCH","enable":true,"json":false,"nmea":true,"raw":0,"scaled":false,"timing":false,"split24":false,"pps":false}
2017-12-31 16:52:29 1514757149.344490: $GPZDA,215230.00,31,12,2017,00,00*64
2017-12-31 16:52:29 1514757149.344659: $GPGGA,215230,3946.9581,N,08404.9855,W,2,11,0.80,303.74,M,-33.324,M,,*73
2017-12-31 16:52:29 1514757149.344724: $GPRMC,215230,A,3946.9581,N,08404.9855,W,0.0000,0.000,311217,,*3B
2017-12-31 16:52:29 1514757149.344784: $GPGSA,A,3,22,23,25,3,16,29,31,14,32,26,135,,1.7,0.8,1.3*32
2017-12-31 16:52:30 1514757150.679461: $GPGSV,3,1,11,22,47,247,42,23,22,306,42,25,07,037,29,03,46,280,41*7C
2017-12-31 16:52:30 1514757150.679624: $GPGSV,3,2,11,16,39,190,46,29,14,060,24,31,55,045,51,14,45,108,43*7C
2017-12-31 16:52:30 1514757150.679692: $GPGSV,3,3,11,32,24,118,45,26,69,157,43,135,22,240,43*7E
2017-12-31 16:52:30 1514757150.793054: $GPZDA,215231.00,31,12,2017,00,00*65
2017-12-31 16:52:30 1514757150.793197: $GPGGA,215231,3946.9581,N,08404.9855,W,2,11,0.80,303.74,M,-33.324,M,,*72
2017-12-31 16:52:30 1514757150.793266: $GPRMC,215231,A,3946.9581,N,08404.9855,W,0.0000,0.000,311217,,*3A
2017-12-31 16:52:30 1514757150.793328: $GPGSA,A,3,22,23,25,3,16,29,31,14,32,26,135,,1.7,0.8,1.3*32
2017-12-31 16:52:31 1514757151.361456: $GPZDA,215232.00,31,12,2017,00,00*66
2017-12-31 16:52:31 1514757151.361621: $GPGGA,215232,3946.9581,N,08404.9855,W,2,11,0.80,303.74,M,-33.324,M,,*71
2017-12-31 16:52:31 1514757151.361691: $GPRMC,215232,A,3946.9581,N,08404.9855,W,0.0000,0.000,311217,,*39
2017-12-31 16:52:31 1514757151.361754: $GPGSA,A,3,22,23,25,3,16,29,31,14,32,26,135,,1.7,0.8,1.3*32
2017-12-31 16:52:32 1514757152.343570: $GPZDA,215233.00,31,12,2017,00,00*67
2017-12-31 16:52:32 1514757152.343730: $GPGGA,215233,3946.9581,N,08404.9855,W,2,11,0.80,303.74,M,-33.324,M,,*70
2017-12-31 16:52:32 1514757152.343799: $GPRMC,215233,A,3946.9581,N,08404.9855,W,0.0000,0.000,311217,,*38
2017-12-31 16:52:32 1514757152.343862: $GPGSA,A,3,22,23,25,3,16,29,31,14,32,26,135,,1.7,0.8,1.3*32
2017-12-31 16:52:33 1514757153.696533: $GPGSV,3,1,11,22,47,247,42,23,22,306,42,25,07,037,29,03,46,280,39*73
2017-12-31 16:52:33 1514757153.865802: $GPGSV,3,2,11,16,39,190,46,29,14,060,24,31,55,045,51,14,45,108,43*7C
2017-12-31 16:52:33 1514757153.865940: $GPGSV,3,3,11,32,24,118,44,26,69,157,43,135,22,240,43*7F
2017-12-31 16:52:33 1514757153.866053: $GPZDA,215234.00,31,12,2017,00,00*60
2017-12-31 16:52:33 1514757153.866131: $GPGGA,215234,3946.9581,N,08404.9855,W,2,11,0.80,303.74,M,-33.324,M,,*77
2017-12-31 16:52:33 1514757153.866196: $GPRMC,215234,A,3946.9581,N,08404.9855,W,0.0000,0.000,311217,,*3F
2017-12-31 16:52:33 1514757153.866258: $GPGSA,A,3,22,23,25,3,16,29,31,14,32,26,135,,1.7,0.8,1.3*32
2017-12-31 16:52:34 1514757154.359802: $GPZDA,215235.00,31,12,2017,00,00*61
2017-12-31 16:52:34 1514757154.359998: $GPGGA,215235,3946.9581,N,08404.9855,W,2,11,0.80,303.74,M,-33.324,M,,*76
2017-12-31 16:52:34 1514757154.360068: $GPRMC,215235,A,3946.9581,N,08404.9855,W,0.0000,0.000,311217,,*3E
2017-12-31 16:52:34 1514757154.360150: $GPGSA,A,3,22,23,25,3,16,29,31,14,32,26,135,,1.7,0.8,1.3*32
2017-12-31 16:52:35 1514757155.343905: $GPZDA,215236.00,31,12,2017,00,00*62
2017-12-31 16:52:35 1514757155.344109: $GPGGA,215236,3946.9581,N,08404.9855,W,2,11,0.80,303.74,M,-33.324,M,,*75
2017-12-31 16:52:35 1514757155.344180: $GPRMC,215236,A,3946.9581,N,08404.9855,W,0.0000,0.000,311217,,*3D
2017-12-31 16:52:35 1514757155.344244: $GPGSA,A,3,22,23,25,3,16,29,31,14,32,26,135,,1.7,0.8,1.3*32
2017-12-31 16:52:36 1514757156.671870: $GPGSV,3,1,11,22,47,247,42,23,22,306,42,25,07,037,29,03,46,280,39*73
2017-12-31 16:52:36 1514757156.672036: $GPGSV,3,2,11,16,39,190,46,29,14,060,05,31,55,045,51,14,45,108,43*7F
2017-12-31 16:52:36 1514757156.672160: $GPGSV,3,3,11,32,24,118,45,26,69,157,43,135,22,240,43*7E
2017-12-31 16:52:36 1514757156.785474: $GPZDA,215237.00,31,12,2017,00,00*63
2017-12-31 16:52:36 1514757156.785595: $GPGGA,215237,3946.9581,N,08404.9855,W,2,11,1.00,303.74,M,-33.324,M,,*7D
2017-12-31 16:52:36 1514757156.785659: $GPRMC,215237,A,3946.9581,N,08404.9855,W,0.0000,0.000,311217,,*3C
2017-12-31 16:52:36 1514757156.785719: $GPGSA,A,3,22,23,25,3,16,29,31,14,32,26,135,,1.7,1.0,1.3*3B
2017-12-31 16:52:37 1514757157.345131: $GPZDA,215238.00,31,12,2017,00,00*6C
2017-12-31 16:52:37 1514757157.345277: $GPGGA,215238,3946.9581,N,08404.9855,W,2,11,0.80,303.74,M,-33.324,M,,*7B
2017-12-31 16:52:37 1514757157.345342: $GPRMC,215238,A,3946.9581,N,08404.9855,W,0.0000,0.000,311217,,*33
2017-12-31 16:52:37 1514757157.345404: $GPGSA,A,3,22,23,25,3,16,29,31,14,32,26,135,,1.7,0.8,1.3*32
2017-12-31 16:52:38 1514757158.344748: $GPZDA,215239.00,31,12,2017,00,00*6D
2017-12-31 16:52:38 1514757158.344949: $GPGGA,215239,3946.9581,N,08404.9855,W,2,11,0.80,303.74,M,-33.324,M,,*7A
2017-12-31 16:52:38 1514757158.345017: $GPRMC,215239,A,3946.9581,N,08404.9855,W,0.0000,0.000,311217,,*32
2017-12-31 16:52:38 1514757158.345096: $GPGSA,A,3,22,23,25,3,16,29,31,14,32,26,135,,1.7,0.8,1.3*32
