2017-11-16 15:17:36 1510863456.418105: {"class":"VERSION","release":"3.17","rev":"3.17","proto_major":3,"proto_minor":12}
2017-11-16 15:17:36 1510863456.418369: {"class":"DEVICES","devices":[{"class":"DEVICE","path":"/dev/ttyUSB0","driver":"SiRF","subtype":"9\u0006GSD4e_4.1.2-P1_RPATCH.05-F-GPS-4R-1510281 11/03/2015 307","activated":"2017-11-16T20:17:36.415Z","flags":1,"native":1,"bps":4800,"parity":"N","stopbits":1,"cycle":1.00}]}
2017-11-16 15:17:36 1510863456.418425: {"class":"WATCH","enable":true,"json":false,"nmea":true,"raw":0,"scaled":false,"timing":false,"split24":false,"pps":false}
2017-11-16 15:17:37 1510863457.713982: $GPGSV,3,1,12,08,07,297,36,10,66,325,51,14,26,250,45,15,14,064,35*7D
2017-11-16 15:17:37 1510863457.714150: $GPGSV,3,2,12,18,73,084,46,20,11,115,30,21,33,180,45,24,47,063,50*72
2017-11-16 15:17:37 1510863457.714211: $GPGSV,3,3,12,27,08,262,40,32,43,261,48,12,07,109,24,138,38,213,44*41
2017-11-16 15:17:37 1510863457.827556: $GPZDA,201736.00,16,11,2017,00,00*64
2017-11-16 15:17:37 1510863457.827753: $GPGGA,201736,3946.9577,N,08404.9856,W,2,12,0.80,304.50,M,-33.324,M,,*7D
2017-11-16 15:17:37 1510863457.827815: $GPRMC,201736,A,3946.9577,N,08404.9856,W,0.0000,0.000,161117,,*31
2017-11-16 15:17:37 1510863457.827871: $GPGSA,A,3,8,10,14,15,18,20,21,24,27,32,12,138,1.6,0.8,1.3*34
2017-11-16 15:17:38 1510863458.370240: $GPZDA,201737.00,16,11,2017,00,00*65
2017-11-16 15:17:38 1510863458.370374: $GPGGA,201737,3946.9577,N,08404.9856,W,2,12,0.80,304.50,M,-33.324,M,,*7C
2017-11-16 15:17:38 1510863458.370407: $GPRMC,201737,A,3946.9577,N,08404.9856,W,0.0000,0.000,161117,,*30
2017-11-16 15:17:38 1510863458.370435: $GPGSA,A,3,8,10,14,15,18,20,21,24,27,32,12,138,1.6,0.8,1.3*34
2017-11-16 15:17:39 1510863459.377501: $GPZDA,201738.00,16,11,2017,00,00*6A
2017-11-16 15:17:39 1510863459.377661: $GPGGA,201738,3946.9577,N,08404.9856,W,2,12,0.80,304.50,M,-33.324,M,,*73
2017-11-16 15:17:39 1510863459.377700: $GPRMC,201738,A,3946.9577,N,08404.9856,W,0.0000,0.000,161117,,*3F
2017-11-16 15:17:39 1510863459.377730: $GPGSA,A,3,8,10,14,15,18,20,21,24,27,32,12,138,1.6,0.8,1.3*34
2017-11-16 15:17:40 1510863460.707282: $GPGSV,3,1,12,08,07,297,37,10,66,325,51,14,26,250,45,15,14,064,34*7D
2017-11-16 15:17:40 1510863460.707391: $GPGSV,3,2,12,18,73,084,46,20,11,115,29,21,33,180,45,24,47,063,50*7A
2017-11-16 15:17:40 1510863460.707422: $GPGSV,3,3,12,27,08,262,40,32,43,261,48,12,07,109,24,138,38,213,44*41
2017-11-16 15:17:40 1510863460.820120: $GPZDA,201739.00,16,11,2017,00,00*6B
2017-11-16 15:17:40 1510863460.820207: $GPGGA,201739,3946.9577,N,08404.9856,W,2,12,0.80,304.50,M,-33.324,M,,*72
2017-11-16 15:17:40 1510863460.820238: $GPRMC,201739,A,3946.9577,N,08404.9856,W,0.0000,0.000,161117,,*3E
2017-11-16 15:17:40 1510863460.820268: $GPGSA,A,3,8,10,14,15,18,20,21,24,27,32,12,138,1.6,0.8,1.3*34
2017-11-16 15:17:41 1510863461.445556: $GPZDA,201740.00,16,11,2017,00,00*65
2017-11-16 15:17:41 1510863461.445668: $GPGGA,201740,3946.9577,N,08404.9856,W,2,12,0.80,304.50,M,-33.324,M,,*7C
2017-11-16 15:17:41 1510863461.445701: $GPRMC,201740,A,3946.9577,N,08404.9856,W,0.0000,0.000,161117,,*30
2017-11-16 15:17:41 1510863461.445732: $GPGSA,A,3,8,10,14,15,18,20,21,24,27,32,12,138,1.6,0.8,1.3*34
2017-11-16 15:17:42 1510863462.375880: $GPZDA,201741.00,16,11,2017,00,00*64
2017-11-16 15:17:42 1510863462.376083: $GPGGA,201741,3946.9577,N,08404.9856,W,2,12,0.80,304.50,M,-33.324,M,,*7D
2017-11-16 15:17:42 1510863462.376147: $GPRMC,201741,A,3946.9577,N,08404.9856,W,0.0000,0.000,161117,,*31
2017-11-16 15:17:42 1510863462.376208: $GPGSA,A,3,8,10,14,15,18,20,21,24,27,32,12,138,1.6,0.8,1.3*34
2017-11-16 15:17:43 1510863463.719068: $GPGSV,3,1,12,08,07,297,37,10,66,325,51,14,26,250,45,15,14,064,35*7C
2017-11-16 15:17:43 1510863463.719253: $GPGSV,3,2,12,18,73,084,46,20,11,115,29,21,33,180,45,24,47,063,49*72
2017-11-16 15:17:43 1510863463.719320: $GPGSV,3,3,12,27,08,262,40,32,43,261,48,12,07,109,23,138,38,213,44*46
2017-11-16 15:17:43 1510863463.832405: $GPZDA,201742.00,16,11,2017,00,00*67
2017-11-16 15:17:43 1510863463.832585: $GPGGA,201742,3946.9577,N,08404.9856,W,2,12,0.80,304.50,M,-33.324,M,,*7E
2017-11-16 15:17:43 1510863463.832708: $GPRMC,201742,A,3946.9577,N,08404.9856,W,0.0000,0.000,161117,,*32
2017-11-16 15:17:43 1510863463.832769: $GPGSA,A,3,8,10,14,15,18,20,21,24,27,32,12,138,1.6,0.8,1.3*34
2017-11-16 15:17:44 1510863464.378492: $GPZDA,201743.00,16,11,2017,00,00*66
2017-11-16 15:17:44 1510863464.378681: $GPGGA,201743,3946.9577,N,08404.9856,W,2,12,0.80,304.50,M,-33.324,M,,*7F
2017-11-16 15:17:44 1510863464.378743: $GPRMC,201743,A,3946.9577,N,08404.9856,W,0.0000,0.000,161117,,*33
2017-11-16 15:17:44 1510863464.378798: $GPGSA,A,3,8,10,14,15,18,20,21,24,27,32,12,138,1.6,0.8,1.3*34
2017-11-16 15:17:45 1510863465.377815: $GPZDA,201744.00,16,11,2017,00,00*61
2017-11-16 15:17:45 1510863465.378015: $GPGGA,201744,3946.9577,N,08404.9856,W,2,12,0.80,304.50,M,-33.324,M,,*78
2017-11-16 15:17:45 1510863465.378079: $GPRMC,201744,A,3946.9577,N,08404.9856,W,0.0000,0.000,161117,,*34
2017-11-16 15:17:45 1510863465.378136: $GPGSA,A,3,8,10,14,15,18,20,21,24,27,32,12,138,1.6,0.8,1.3*34
