2017-12-01 11:53:39 1512147219.707411: {"class":"VERSION","release":"3.16","rev":"3.16-4","proto_major":3,"proto_minor":11}
2017-12-01 11:53:39 1512147219.707876: {"class":"DEVICES","devices":[{"class":"DEVICE","path":"/dev/ttyUSB0","driver":"SiRF","subtype":"9\u0006GSD4e_4.1.2-P1_RPATCH.05-F-GPS-4R-1510281 11/03/2015 307","activated":"2017-12-01T16:53:39.703Z","flags":1,"native":1,"bps":4800,"parity":"N","stopbits":1,"cycle":1.00}]}
2017-12-01 11:53:39 1512147219.708067: {"class":"WATCH","enable":true,"json":false,"nmea":true,"raw":0,"scaled":false,"timing":false,"split24":false,"pps":false}
2017-12-01 11:53:40 1512147220.638067: $GPZDA,165341.08,01,12,2017,00,00*6C
2017-12-01 11:53:40 1512147220.638244: $GPGGA,165341,3946.9612,N,08404.9880,W,1,11,1.00,302.92,M,-33.324,M,,*72
2017-12-01 11:53:40 1512147220.638312: $GPRMC,165341,A,3946.9612,N,08404.9880,W,0.1567,9.200,011217,,*34
2017-12-01 11:53:40 1512147220.638374: $GPGSA,A,3,10,13,15,18,20,21,24,27,29,5,138,,2.0,1.0,1.5*3D
2017-12-01 11:53:40 1512147220.638432: $GPGBS,165341,10.70,M,15.43,M,35.28,M*03
2017-12-01 11:53:41 1512147221.922750: $GPGSV,3,1,12,13,39,048,47,15,71,061,45,18,47,289,44,20,59,058,45*70
2017-12-01 11:53:41 1512147221.922931: $GPGSV,3,2,12,21,71,300,47,24,24,145,47,27,11,321,36,29,20,193,46*7D
2017-12-01 11:53:41 1512147221.922999: $GPGSV,3,3,12,05,11,081,15,10,16,276,23,04,08,132,00,138,38,213,35*4D
2017-12-01 11:53:42 1512147222.036198: $GPZDA,165342.00,01,12,2017,00,00*67
2017-12-01 11:53:42 1512147222.036372: $GPGGA,165342,3946.9608,N,08404.9880,W,1,10,0.80,302.28,M,-33.324,M,,*73
2017-12-01 11:53:42 1512147222.036439: $GPRMC,165342,A,3946.9608,N,08404.9880,W,0.2422,93.794,011217,,*04
2017-12-01 11:53:42 1512147222.036500: $GPGSA,A,3,13,15,18,20,21,24,27,29,10,138,,,2.0,0.8,1.5*01
2017-12-01 11:53:42 1512147222.486974: $GPZDA,165343.00,01,12,2017,00,00*66
2017-12-01 11:53:42 1512147222.487151: $GPGGA,165343,3946.9604,N,08404.9880,W,1,10,0.80,301.65,M,-33.324,M,,*74
2017-12-01 11:53:42 1512147222.487218: $GPRMC,165343,A,3946.9604,N,08404.9880,W,0.0000,0.000,011217,,*3F
2017-12-01 11:53:42 1512147222.487280: $GPGSA,A,3,13,15,18,20,21,24,27,29,10,138,,,2.0,0.8,1.5*01
2017-12-01 11:53:43 1512147223.399105: $GPZDA,165344.00,01,12,2017,00,00*61
2017-12-01 11:53:43 1512147223.399270: $GPGGA,165344,3946.9600,N,08404.9873,W,1,10,0.80,301.08,M,-33.324,M,,*70
2017-12-01 11:53:43 1512147223.399336: $GPRMC,165344,A,3946.9600,N,08404.9873,W,0.0000,0.000,011217,,*30
2017-12-01 11:53:43 1512147223.399397: $GPGSA,A,3,13,15,18,20,21,24,27,29,10,138,,,2.0,0.8,1.5*01
2017-12-01 11:53:44 1512147224.734396: $GPGSV,3,1,12,13,39,048,46,15,71,061,45,18,47,289,44,20,59,058,44*70
2017-12-01 11:53:44 1512147224.734617: $GPGSV,3,2,12,21,71,300,46,24,24,145,46,27,11,321,37,29,20,193,46*7C
2017-12-01 11:53:44 1512147224.734707: $GPGSV,3,3,12,05,11,081,26,10,16,276,35,04,08,132,02,138,38,213,46*4C
2017-12-01 11:53:44 1512147224.847769: $GPZDA,165345.00,01,12,2017,00,00*60
2017-12-01 11:53:44 1512147224.847940: $GPGGA,165345,3946.9600,N,08404.9873,W,1,11,0.80,301.08,M,-33.324,M,,*70
2017-12-01 11:53:44 1512147224.848006: $GPRMC,165345,A,3946.9600,N,08404.9873,W,0.0000,0.000,011217,,*31
2017-12-01 11:53:44 1512147224.848067: $GPGSA,A,3,13,15,18,20,21,24,27,29,5,10,138,,2.0,0.8,1.5*34
2017-12-01 11:53:45 1512147225.396378: $GPZDA,165346.00,01,12,2017,00,00*63
2017-12-01 11:53:45 1512147225.396545: $GPGGA,165346,3946.9595,N,08404.9873,W,1,11,0.80,300.44,M,-33.324,M,,*75
2017-12-01 11:53:45 1512147225.396612: $GPRMC,165346,A,3946.9595,N,08404.9873,W,0.0000,0.000,011217,,*3D
2017-12-01 11:53:45 1512147225.396672: $GPGSA,A,3,13,15,18,20,21,24,27,29,5,10,138,,2.0,0.8,1.5*34
2017-12-01 11:53:46 1512147226.395940: $GPZDA,165347.00,01,12,2017,00,00*62
2017-12-01 11:53:46 1512147226.396108: $GPGGA,165347,3946.9569,N,08404.9852,W,2,11,1.00,295.44,M,-33.324,M,,*73
2017-12-01 11:53:46 1512147226.396174: $GPRMC,165347,A,3946.9569,N,08404.9852,W,0.0000,0.000,011217,,*3C
2017-12-01 11:53:46 1512147226.396235: $GPGSA,A,3,13,15,18,20,21,24,27,29,5,10,138,,2.0,1.0,1.5*3D
2017-12-01 11:53:46 1512147226.396344: $GPGBS,165347,2.67,M,3.86,M,8.82,M*30
2017-12-01 11:53:47 1512147227.732717: $GPGSV,3,1,12,13,39,048,46,15,71,061,45,18,47,289,44,20,59,058,44*70
2017-12-01 11:53:47 1512147227.732897: $GPGSV,3,2,12,21,71,300,46,24,24,145,46,27,11,321,37,29,20,193,45*7F
2017-12-01 11:53:47 1512147227.732963: $GPGSV,3,3,12,05,11,081,27,10,16,276,36,04,08,132,00,138,38,213,47*4D
2017-12-01 11:53:47 1512147227.847445: $GPZDA,165348.00,01,12,2017,00,00*6D
2017-12-01 11:53:47 1512147227.847624: $GPGGA,165348,3946.9569,N,08404.9852,W,2,11,0.80,295.44,M,-33.324,M,,*75
2017-12-01 11:53:47 1512147227.847693: $GPRMC,165348,A,3946.9569,N,08404.9852,W,0.0000,0.000,011217,,*33
2017-12-01 11:53:47 1512147227.847755: $GPGSA,A,3,13,15,18,20,21,24,27,29,5,10,138,,2.0,0.8,1.5*34
2017-12-01 11:53:48 1512147228.398442: $GPZDA,165349.00,01,12,2017,00,00*6C
2017-12-01 11:53:48 1512147228.398614: $GPGGA,165349,3946.9570,N,08404.9846,W,2,11,0.80,298.33,M,-33.324,M,,*74
2017-12-01 11:53:48 1512147228.398682: $GPRMC,165349,A,3946.9570,N,08404.9846,W,0.0000,0.000,011217,,*3F
2017-12-01 11:53:48 1512147228.398742: $GPGSA,A,3,13,15,18,20,21,24,27,29,5,10,138,,2.0,0.8,1.5*34
2017-12-01 11:53:49 1512147229.397554: $GPZDA,165350.00,01,12,2017,00,00*64
2017-12-01 11:53:49 1512147229.397722: $GPGGA,165350,3946.9570,N,08404.9846,W,2,11,0.80,298.33,M,-33.324,M,,*7C
2017-12-01 11:53:49 1512147229.397789: $GPRMC,165350,A,3946.9570,N,08404.9846,W,0.0000,0.000,011217,,*37
2017-12-01 11:53:49 1512147229.397850: $GPGSA,A,3,13,15,18,20,21,24,27,29,5,10,138,,2.0,0.8,1.5*34
