2018-01-11 19:43:37 1515717817.350795: {"class":"VERSION","release":"3.16","rev":"3.16-4","proto_major":3,"proto_minor":11}
2018-01-11 19:43:37 1515717817.351148: {"class":"DEVICES","devices":[{"class":"DEVICE","path":"/dev/ttyUSB0","driver":"SiRF","subtype":"9\u0006GSD4e_4.1.2-P1_RPATCH.05-F-GPS-4R-1510281 11/03/2015 307","activated":"2018-01-12T00:43:37.067Z","flags":1,"native":1,"bps":4800,"parity":"N","stopbits":1,"cycle":1.00}]}
2018-01-11 19:43:37 1515717817.351261: {"class":"WATCH","enable":true,"json":false,"nmea":true,"raw":0,"scaled":false,"timing":false,"split24":false,"pps":false}
2018-01-11 19:43:37 1515717817.663866: $GPZDA,004338.35,12,01,2018,00,00*65
2018-01-11 19:43:37 1515717817.664036: $GPGGA,004338,3946.9590,N,08404.9800,W,1,11,1.20,306.29,M,-33.324,M,,*7D
2018-01-11 19:43:37 1515717817.664100: $GPRMC,004338,A,3946.9590,N,08404.9800,W,0.7833,189.200,120118,,*31
2018-01-11 19:43:37 1515717817.664161: $GPGSA,A,3,7,8,9,11,16,23,27,30,28,26,138,,4.0,1.2,3.5*31
2018-01-11 19:43:39 1515717819.081178: $GPGSV,3,1,12,07,44,310,24,08,63,157,28,09,55,247,25,16,32,052,29*7A
2018-01-11 19:43:39 1515717819.081339: $GPGSV,3,2,12,23,41,195,29,27,56,067,29,30,19,301,23,11,10,172,00*78
2018-01-11 19:43:39 1515717819.081403: $GPGSV,3,3,12,26,07,066,00,28,05,249,00,21,01,031,00,138,38,213,00*48
2018-01-11 19:43:39 1515717819.194829: $GPZDA,004339.04,12,01,2018,00,00*66
2018-01-11 19:43:39 1515717819.194947: $GPGGA,004339,3946.9587,N,08404.9800,W,1,07,1.20,307.06,M,-33.324,M,,*71
2018-01-11 19:43:39 1515717819.195010: $GPRMC,004339,A,3946.9587,N,08404.9800,W,0.2710,280.223,120118,,*36
2018-01-11 19:43:39 1515717819.195069: $GPGSA,A,3,7,8,9,16,23,27,30,,,,,,4.0,1.2,3.5*05
2018-01-11 19:43:40 1515717820.001085: $GPZDA,004340.00,12,01,2018,00,00*6C
2018-01-11 19:43:40 1515717820.001252: $GPGGA,004340,3946.9591,N,08404.9800,W,1,07,0.80,307.70,M,-33.324,M,,*72
2018-01-11 19:43:40 1515717820.001319: $GPRMC,004340,A,3946.9591,N,08404.9800,W,0.1867,0.000,120118,,*3A
2018-01-11 19:43:40 1515717820.001379: $GPGSA,A,3,7,8,9,16,23,27,30,,,,,,4.0,0.8,3.5*0E
2018-01-11 19:43:40 1515717820.001435: $GPGBS,004340,14.62,M,24.83,M,80.38,M*02
2018-01-11 19:43:40 1515717820.452019: $GPZDA,004341.00,12,01,2018,00,00*6D
2018-01-11 19:43:40 1515717820.452184: $GPGGA,004341,3946.9595,N,08404.9807,W,1,07,0.80,306.85,M,-33.324,M,,*7B
2018-01-11 19:43:40 1515717820.452252: $GPRMC,004341,A,3946.9595,N,08404.9807,W,0.2422,93.794,120118,,*06
2018-01-11 19:43:40 1515717820.452312: $GPGSA,A,3,7,8,9,16,23,27,30,,,,,,4.0,0.8,3.5*0E
2018-01-11 19:43:40 1515717820.452368: $GPGBS,004341,14.62,M,24.83,M,80.38,M*03
2018-01-11 19:43:41 1515717821.696391: $GPGSV,3,1,12,07,44,310,39,08,63,157,46,09,55,247,43,16,32,052,48*79
2018-01-11 19:43:41 1515717821.696554: $GPGSV,3,2,12,23,41,195,48,27,56,067,49,30,19,301,37,11,10,172,31*7E
2018-01-11 19:43:41 1515717821.696618: $GPGSV,3,3,12,26,07,066,16,28,05,249,20,21,01,031,00,138,38,213,44*4D
2018-01-11 19:43:41 1515717821.809779: $GPZDA,004342.00,12,01,2018,00,00*6E
2018-01-11 19:43:41 1515717821.809897: $GPGGA,004342,3946.9595,N,08404.9807,W,1,11,0.80,306.85,M,-33.324,M,,*7F
2018-01-11 19:43:41 1515717821.809961: $GPRMC,004342,A,3946.9595,N,08404.9807,W,0.0000,0.000,120118,,*33
2018-01-11 19:43:41 1515717821.810020: $GPGSA,A,3,7,8,9,16,23,27,30,11,26,28,138,,4.0,0.8,3.5*3A
2018-01-11 19:43:42 1515717822.435219: $GPZDA,004343.00,12,01,2018,00,00*6F
2018-01-11 19:43:42 1515717822.435392: $GPGGA,004343,3946.9595,N,08404.9807,W,1,11,0.80,306.85,M,-33.324,M,,*7E
2018-01-11 19:43:42 1515717822.435458: $GPRMC,004343,A,3946.9595,N,08404.9807,W,0.0000,0.000,120118,,*32
2018-01-11 19:43:42 1515717822.435519: $GPGSA,A,3,7,8,9,16,23,27,30,11,26,28,138,,4.0,0.8,3.5*3A
2018-01-11 19:43:43 1515717823.362378: $GPZDA,004344.00,12,01,2018,00,00*68
2018-01-11 19:43:43 1515717823.362556: $GPGGA,004344,3946.9595,N,08404.9814,W,1,11,0.80,306.77,M,-33.324,M,,*76
2018-01-11 19:43:43 1515717823.362620: $GPRMC,004344,A,3946.9595,N,08404.9814,W,0.0000,0.000,120118,,*37
2018-01-11 19:43:43 1515717823.362679: $GPGSA,A,3,7,8,9,16,23,27,30,11,26,28,138,,4.0,0.8,3.5*3A
2018-01-11 19:43:44 1515717824.697876: $GPGSV,3,1,12,07,44,310,39,08,63,157,47,09,55,247,43,16,32,052,48*78
2018-01-11 19:43:44 1515717824.698034: $GPGSV,3,2,12,23,41,195,48,27,56,067,49,30,19,301,37,11,10,172,32*7D
2018-01-11 19:43:44 1515717824.698099: $GPGSV,3,3,12,26,07,066,00,28,05,249,18,21,01,031,00,138,38,213,45*40
2018-01-11 19:43:44 1515717824.811371: $GPZDA,004345.00,12,01,2018,00,00*69
2018-01-11 19:43:44 1515717824.811514: $GPGGA,004345,3946.9595,N,08404.9814,W,1,10,0.80,306.77,M,-33.324,M,,*76
2018-01-11 19:43:44 1515717824.811577: $GPRMC,004345,A,3946.9595,N,08404.9814,W,0.0000,0.000,120118,,*36
2018-01-11 19:43:44 1515717824.811637: $GPGSA,A,3,7,8,9,16,23,27,30,11,28,138,,,4.0,0.8,3.5*3E
2018-01-11 19:43:45 1515717825.362199: $GPZDA,004346.00,12,01,2018,00,00*6A
2018-01-11 19:43:45 1515717825.362355: $GPGGA,004346,3946.9600,N,08404.9834,W,2,10,3.00,305.77,M,-33.324,M,,*73
2018-01-11 19:43:45 1515717825.362419: $GPRMC,004346,A,3946.9600,N,08404.9834,W,0.0000,0.000,120118,,*38
2018-01-11 19:43:45 1515717825.362479: $GPGSA,A,3,7,8,9,16,23,27,30,11,28,138,,,4.0,3.0,3.5*35
