2017-12-29 11:56:26 1514566586.299969: {"class":"VERSION","release":"3.16","rev":"3.16-4","proto_major":3,"proto_minor":11}
2017-12-29 11:56:26 1514566586.300318: {"class":"DEVICES","devices":[{"class":"DEVICE","path":"/dev/ttyUSB0","driver":"SiRF","subtype":"9\u0006GSD4e_4.1.2-P1_RPATCH.05-F-GPS-4R-1510281 11/03/2015 307","activated":"2017-12-29T16:56:26.252Z","flags":1,"native":1,"bps":4800,"parity":"N","stopbits":1,"cycle":1.00}]}
2017-12-29 11:56:26 1514566586.300434: {"class":"WATCH","enable":true,"json":false,"nmea":true,"raw":0,"scaled":false,"timing":false,"split24":false,"pps":false}
2017-12-29 11:56:26 1514566586.430621: $GPZDA,165627.00,29,12,2017,00,00*6B
2017-12-29 11:56:26 1514566586.430785: $GPGGA,165627,3946.9613,N,08404.9817,W,2,11,0.80,327.79,M,-33.324,M,,*70
2017-12-29 11:56:26 1514566586.430851: $GPRMC,165627,A,3946.9613,N,08404.9817,W,0.0000,0.000,291217,,*3A
2017-12-29 11:56:26 1514566586.430912: $GPGSA,A,3,8,10,15,18,20,21,24,32,14,27,138,,1.7,0.8,1.3*36
2017-12-29 11:56:27 1514566587.765163: $GPGSV,3,1,11,08,08,307,37,10,56,315,45,15,22,060,44,18,77,043,45*72
2017-12-29 11:56:27 1514566587.765357: $GPGSV,3,2,11,20,21,108,48,21,44,181,46,24,52,079,50,32,36,252,38*75
2017-12-29 11:56:27 1514566587.765423: $GPGSV,3,3,11,14,17,243,31,27,14,273,32,138,38,213,44*7B
2017-12-29 11:56:27 1514566587.878817: $GPZDA,165628.00,29,12,2017,00,00*64
2017-12-29 11:56:27 1514566587.878985: $GPGGA,165628,3946.9613,N,08404.9817,W,2,11,0.80,327.79,M,-33.324,M,,*7F
2017-12-29 11:56:27 1514566587.879051: $GPRMC,165628,A,3946.9613,N,08404.9817,W,0.0000,0.000,291217,,*35
2017-12-29 11:56:27 1514566587.879112: $GPGSA,A,3,8,10,15,18,20,21,24,32,14,27,138,,1.7,0.8,1.3*36
2017-12-29 11:56:28 1514566588.504182: $GPZDA,165629.00,29,12,2017,00,00*65
2017-12-29 11:56:28 1514566588.504347: $GPGGA,165629,3946.9613,N,08404.9817,W,2,11,0.80,327.79,M,-33.324,M,,*7E
2017-12-29 11:56:28 1514566588.504413: $GPRMC,165629,A,3946.9613,N,08404.9817,W,0.0000,0.000,291217,,*34
2017-12-29 11:56:28 1514566588.504473: $GPGSA,A,3,8,10,15,18,20,21,24,32,14,27,138,,1.7,0.8,1.3*36
2017-12-29 11:56:29 1514566589.429993: $GPZDA,165630.00,29,12,2017,00,00*6D
2017-12-29 11:56:29 1514566589.430167: $GPGGA,165630,3946.9613,N,08404.9817,W,2,11,0.80,327.79,M,-33.324,M,,*76
2017-12-29 11:56:29 1514566589.430238: $GPRMC,165630,A,3946.9613,N,08404.9817,W,0.0000,0.000,291217,,*3C
2017-12-29 11:56:29 1514566589.430298: $GPGSA,A,3,8,10,15,18,20,21,24,32,14,27,138,,1.7,0.8,1.3*36
2017-12-29 11:56:30 1514566590.766670: $GPGSV,3,1,11,08,08,307,38,10,56,315,45,15,22,060,44,18,77,043,45*7D
2017-12-29 11:56:30 1514566590.766882: $GPGSV,3,2,11,20,21,108,49,21,44,181,46,24,52,079,50,32,36,252,38*74
2017-12-29 11:56:30 1514566590.766951: $GPGSV,3,3,11,14,17,243,31,27,14,273,32,138,38,213,45*7A
2017-12-29 11:56:30 1514566590.880123: $GPZDA,165631.00,29,12,2017,00,00*6C
2017-12-29 11:56:30 1514566590.880296: $GPGGA,165631,3946.9610,N,08404.9817,W,2,11,0.80,328.56,M,-33.324,M,,*76
2017-12-29 11:56:30 1514566590.880364: $GPRMC,165631,A,3946.9610,N,08404.9817,W,0.0000,0.000,291217,,*3E
2017-12-29 11:56:30 1514566590.880424: $GPGSA,A,3,8,10,15,18,20,21,24,32,14,27,138,,1.7,0.8,1.3*36
2017-12-29 11:56:31 1514566591.413680: $GPZDA,165632.00,29,12,2017,00,00*6F
2017-12-29 11:56:31 1514566591.413913: $GPGGA,165632,3946.9610,N,08404.9817,W,2,11,0.80,328.56,M,-33.324,M,,*75
2017-12-29 11:56:31 1514566591.413982: $GPRMC,165632,A,3946.9610,N,08404.9817,W,0.0000,0.000,291217,,*3D
2017-12-29 11:56:31 1514566591.414042: $GPGSA,A,3,8,10,15,18,20,21,24,32,14,27,138,,1.7,0.8,1.3*36
2017-12-29 11:56:32 1514566592.412268: $GPZDA,165633.00,29,12,2017,00,00*6E
2017-12-29 11:56:32 1514566592.412460: $GPGGA,165633,3946.9609,N,08404.9810,W,2,11,0.80,328.64,M,-33.324,M,,*7A
2017-12-29 11:56:32 1514566592.412526: $GPRMC,165633,A,3946.9609,N,08404.9810,W,0.0000,0.000,291217,,*33
2017-12-29 11:56:32 1514566592.412587: $GPGSA,A,3,8,10,15,18,20,21,24,32,14,27,138,,1.7,0.8,1.3*36
2017-12-29 11:56:33 1514566593.748319: $GPGSV,3,1,11,08,08,307,37,10,56,315,45,15,22,060,44,18,77,043,45*72
2017-12-29 11:56:33 1514566593.748539: $GPGSV,3,2,11,20,21,108,49,21,44,181,46,24,52,079,50,32,36,252,38*74
2017-12-29 11:56:33 1514566593.748609: $GPGSV,3,3,11,14,17,243,32,27,14,273,32,138,38,213,44*78
2017-12-29 11:56:33 1514566593.861953: $GPZDA,165634.00,29,12,2017,00,00*69
2017-12-29 11:56:33 1514566593.862124: $GPGGA,165634,3946.9609,N,08404.9810,W,2,11,0.80,328.64,M,-33.324,M,,*7D
2017-12-29 11:56:33 1514566593.862191: $GPRMC,165634,A,3946.9609,N,08404.9810,W,0.0000,0.000,291217,,*34
2017-12-29 11:56:33 1514566593.862251: $GPGSA,A,3,8,10,15,18,20,21,24,32,14,27,138,,1.7,0.8,1.3*36
2017-12-29 11:56:34 1514566594.430088: $GPZDA,165635.00,29,12,2017,00,00*68
2017-12-29 11:56:34 1514566594.430243: $GPGGA,165635,3946.9609,N,08404.9810,W,2,11,0.80,328.64,M,-33.324,M,,*7C
2017-12-29 11:56:34 1514566594.430310: $GPRMC,165635,A,3946.9609,N,08404.9810,W,0.0000,0.000,291217,,*35
2017-12-29 11:56:34 1514566594.430371: $GPGSA,A,3,8,10,15,18,20,21,24,32,14,27,138,,1.7,0.8,1.3*36
2017-12-29 11:56:35 1514566595.424691: $GPZDA,165636.00,29,12,2017,00,00*6B
2017-12-29 11:56:35 1514566595.424899: $GPGGA,165636,3946.9613,N,08404.9810,W,2,11,0.80,329.28,M,-33.324,M,,*7D
2017-12-29 11:56:35 1514566595.424972: $GPRMC,165636,A,3946.9613,N,08404.9810,W,0.0000,0.000,291217,,*3D
2017-12-29 11:56:35 1514566595.425035: $GPGSA,A,3,8,10,15,18,20,21,24,32,14,27,138,,1.7,0.8,1.3*36
2017-12-29 11:56:36 1514566596.749325: $GPGSV,3,1,11,08,08,307,38,10,56,315,45,15,22,060,44,18,77,043,45*7D
2017-12-29 11:56:36 1514566596.749518: $GPGSV,3,2,11,20,21,108,48,21,44,181,46,24,52,079,50,32,36,252,38*75
2017-12-29 11:56:36 1514566596.749594: $GPGSV,3,3,11,14,17,243,32,27,14,273,32,138,38,213,44*78
2017-12-29 11:56:36 1514566596.862644: $GPZDA,165637.00,29,12,2017,00,00*6A
2017-12-29 11:56:36 1514566596.862817: $GPGGA,165637,3946.9613,N,08404.9810,W,2,11,0.80,329.28,M,-33.324,M,,*7C
2017-12-29 11:56:36 1514566596.862884: $GPRMC,165637,A,3946.9613,N,08404.9810,W,0.0000,0.000,291217,,*3C
2017-12-29 11:56:36 1514566596.862945: $GPGSA,A,3,8,10,15,18,20,21,24,32,14,27,138,,1.7,0.8,1.3*36
2017-12-29 11:56:37 1514566597.430855: $GPZDA,165638.00,29,12,2017,00,00*65
2017-12-29 11:56:37 1514566597.431088: $GPGGA,165638,3946.9613,N,08404.9810,W,2,11,0.80,329.28,M,-33.324,M,,*73
2017-12-29 11:56:37 1514566597.431166: $GPRMC,165638,A,3946.9613,N,08404.9810,W,0.0000,0.000,291217,,*33
2017-12-29 11:56:37 1514566597.431228: $GPGSA,A,3,8,10,15,18,20,21,24,32,14,27,138,,1.7,0.8,1.3*36
2017-12-29 11:56:38 1514566598.413837: $GPZDA,165639.00,29,12,2017,00,00*64
2017-12-29 11:56:38 1514566598.414006: $GPGGA,165639,3946.9613,N,08404.9810,W,2,11,0.80,329.28,M,-33.324,M,,*72
2017-12-29 11:56:38 1514566598.414072: $GPRMC,165639,A,3946.9613,N,08404.9810,W,0.0000,0.000,291217,,*32
2017-12-29 11:56:38 1514566598.414134: $GPGSA,A,3,8,10,15,18,20,21,24,32,14,27,138,,1.7,0.8,1.3*36
2017-12-29 11:56:39 1514566599.744793: $GPGSV,3,1,11,08,08,307,38,10,56,315,45,15,22,060,44,18,77,043,45*7D
2017-12-29 11:56:39 1514566599.744987: $GPGSV,3,2,11,20,21,108,48,21,44,181,46,24,52,079,49,32,36,252,38*7D
2017-12-29 11:56:39 1514566599.745056: $GPGSV,3,3,11,14,17,243,32,27,14,273,31,138,38,213,44*7B
2017-12-29 11:56:39 1514566599.857893: $GPZDA,165640.00,29,12,2017,00,00*6A
2017-12-29 11:56:39 1514566599.858060: $GPGGA,165640,3946.9613,N,08404.9810,W,2,11,0.80,329.28,M,-33.324,M,,*7C
2017-12-29 11:56:39 1514566599.858128: $GPRMC,165640,A,3946.9613,N,08404.9810,W,0.0000,0.000,291217,,*3C
2017-12-29 11:56:39 1514566599.858188: $GPGSA,A,3,8,10,15,18,20,21,24,32,14,27,138,,1.7,0.8,1.3*36
2017-12-29 11:56:40 1514566600.428806: $GPZDA,165641.00,29,12,2017,00,00*6B
2017-12-29 11:56:40 1514566600.428962: $GPGGA,165641,3946.9613,N,08404.9810,W,2,11,0.80,329.28,M,-33.324,M,,*7D
2017-12-29 11:56:40 1514566600.429029: $GPRMC,165641,A,3946.9613,N,08404.9810,W,0.0000,0.000,291217,,*3D
2017-12-29 11:56:40 1514566600.429091: $GPGSA,A,3,8,10,15,18,20,21,24,32,14,27,138,,1.7,0.8,1.3*36
