2017-12-01 13:18:34 1512152314.455308: {"class":"VERSION","release":"3.16","rev":"3.16-4","proto_major":3,"proto_minor":11}
2017-12-01 13:18:34 1512152314.456161: {"class":"DEVICES","devices":[{"class":"DEVICE","path":"/dev/ttyUSB0","driver":"SiRF","subtype":"9\u0006GSD4e_4.1.2-P1_RPATCH.05-F-GPS-4R-1510281 11/03/2015 307","activated":"2017-12-01T18:18:34.441Z","flags":1,"native":1,"bps":4800,"parity":"N","stopbits":1,"cycle":1.00}]}
2017-12-01 13:18:34 1512152314.456406: {"class":"WATCH","enable":true,"json":false,"nmea":true,"raw":0,"scaled":false,"timing":false,"split24":false,"pps":false}
2017-12-01 13:18:35 1512152315.738262: $GPGSV,3,1,12,08,07,319,42,10,44,303,46,15,34,054,48,18,73,345,43*7F
2017-12-01 13:18:35 1512152315.738462: $GPGSV,3,2,12,20,31,099,46,21,60,187,46,24,52,105,47,14,06,234,00*70
2017-12-01 13:18:35 1512152315.738529: $GPGSV,3,3,12,32,23,240,41,13,05,049,22,27,18,286,33,138,38,213,46*40
2017-12-01 13:18:35 1512152315.851951: $GPZDA,181836.00,01,12,2017,00,00*65
2017-12-01 13:18:35 1512152315.852136: $GPGGA,181836,3946.9584,N,08404.9848,W,2,11,1.00,304.46,M,-33.324,M,,*77
2017-12-01 13:18:35 1512152315.852230: $GPRMC,181836,A,3946.9584,N,08404.9848,W,0.0000,0.000,011217,,*33
2017-12-01 13:18:35 1512152315.852293: $GPGSA,A,3,8,10,15,18,20,21,24,32,13,27,138,,2.0,1.0,1.5*3A
2017-12-01 13:18:36 1512152316.477564: $GPZDA,181837.00,01,12,2017,00,00*64
2017-12-01 13:18:36 1512152316.477733: $GPGGA,181837,3946.9584,N,08404.9848,W,2,11,1.00,304.46,M,-33.324,M,,*76
2017-12-01 13:18:36 1512152316.477799: $GPRMC,181837,A,3946.9584,N,08404.9848,W,0.0000,0.000,011217,,*32
2017-12-01 13:18:36 1512152316.477860: $GPGSA,A,3,8,10,15,18,20,21,24,32,13,27,138,,2.0,1.0,1.5*3A
2017-12-01 13:18:37 1512152317.403202: $GPZDA,181838.00,01,12,2017,00,00*6B
2017-12-01 13:18:37 1512152317.403375: $GPGGA,181838,3946.9584,N,08404.9848,W,2,11,1.00,304.46,M,-33.324,M,,*79
2017-12-01 13:18:37 1512152317.403442: $GPRMC,181838,A,3946.9584,N,08404.9848,W,0.0000,0.000,011217,,*3D
2017-12-01 13:18:37 1512152317.403503: $GPGSA,A,3,8,10,15,18,20,21,24,32,13,27,138,,2.0,1.0,1.5*3A
2017-12-01 13:18:38 1512152318.733642: $GPGSV,3,1,12,08,07,319,41,10,44,303,46,15,34,054,48,18,73,345,43*7C
2017-12-01 13:18:38 1512152318.733819: $GPGSV,3,2,12,20,31,099,45,21,60,187,45,24,52,105,47,14,06,234,00*70
2017-12-01 13:18:38 1512152318.733885: $GPGSV,3,3,12,32,23,240,40,13,05,049,21,27,18,286,34,138,38,213,46*45
2017-12-01 13:18:38 1512152318.846046: $GPZDA,181839.00,01,12,2017,00,00*6A
2017-12-01 13:18:38 1512152318.846235: $GPGGA,181839,3946.9584,N,08404.9848,W,2,11,1.00,304.46,M,-33.324,M,,*78
2017-12-01 13:18:38 1512152318.846320: $GPRMC,181839,A,3946.9584,N,08404.9848,W,0.0000,0.000,011217,,*3C
2017-12-01 13:18:38 1512152318.846383: $GPGSA,A,3,8,10,15,18,20,21,24,32,13,27,138,,2.0,1.0,1.5*3A
2017-12-01 13:18:39 1512152319.401962: $GPZDA,181840.00,01,12,2017,00,00*64
2017-12-01 13:18:39 1512152319.402140: $GPGGA,181840,3946.9584,N,08404.9848,W,2,11,1.00,304.46,M,-33.324,M,,*76
2017-12-01 13:18:39 1512152319.402249: $GPRMC,181840,A,3946.9584,N,08404.9848,W,0.0000,0.000,011217,,*32
2017-12-01 13:18:39 1512152319.402335: $GPGSA,A,3,8,10,15,18,20,21,24,32,13,27,138,,2.0,1.0,1.5*3A
2017-12-01 13:18:40 1512152320.402837: $GPZDA,181841.00,01,12,2017,00,00*65
2017-12-01 13:18:40 1512152320.403006: $GPGGA,181841,3946.9581,N,08404.9849,W,2,11,1.00,305.22,M,-33.324,M,,*70
2017-12-01 13:18:40 1512152320.403073: $GPRMC,181841,A,3946.9581,N,08404.9849,W,0.0000,0.000,011217,,*37
2017-12-01 13:18:40 1512152320.403135: $GPGSA,A,3,8,10,15,18,20,21,24,32,13,27,138,,2.0,1.0,1.5*3A
2017-12-01 13:18:41 1512152321.738994: $GPGSV,3,1,12,08,07,319,40,10,44,303,46,15,34,054,47,18,73,345,43*72
2017-12-01 13:18:41 1512152321.739181: $GPGSV,3,2,12,20,31,099,45,21,60,187,45,24,52,105,47,14,06,234,00*70
2017-12-01 13:18:41 1512152321.739249: $GPGSV,3,3,12,32,23,240,40,13,05,049,21,27,18,286,34,138,38,213,46*45
2017-12-01 13:18:41 1512152321.852502: $GPZDA,181842.00,01,12,2017,00,00*66
2017-12-01 13:18:41 1512152321.852678: $GPGGA,181842,3946.9581,N,08404.9849,W,2,11,1.00,305.22,M,-33.324,M,,*73
2017-12-01 13:18:41 1512152321.852795: $GPRMC,181842,A,3946.9581,N,08404.9849,W,0.0000,0.000,011217,,*34
2017-12-01 13:18:41 1512152321.852859: $GPGSA,A,3,8,10,15,18,20,21,24,32,13,27,138,,2.0,1.0,1.5*3A
2017-12-01 13:18:42 1512152322.403367: $GPZDA,181843.00,01,12,2017,00,00*67
2017-12-01 13:18:42 1512152322.403537: $GPGGA,181843,3946.9581,N,08404.9849,W,2,11,1.00,305.22,M,-33.324,M,,*72
2017-12-01 13:18:42 1512152322.403604: $GPRMC,181843,A,3946.9581,N,08404.9849,W,0.0000,0.000,011217,,*35
2017-12-01 13:18:42 1512152322.403665: $GPGSA,A,3,8,10,15,18,20,21,24,32,13,27,138,,2.0,1.0,1.5*3A
2017-12-01 13:18:43 1512152323.401695: $GPZDA,181844.00,01,12,2017,00,00*60
2017-12-01 13:18:43 1512152323.401863: $GPGGA,181844,3946.9581,N,08404.9849,W,2,11,0.80,305.22,M,-33.324,M,,*7C
2017-12-01 13:18:43 1512152323.401931: $GPRMC,181844,A,3946.9581,N,08404.9849,W,0.0000,0.000,011217,,*32
2017-12-01 13:18:43 1512152323.401991: $GPGSA,A,3,8,10,15,18,20,21,24,32,13,27,138,,2.0,0.8,1.5*33
