2017-12-31 17:08:19 1514758099.729689: {"class":"VERSION","release":"3.16","rev":"3.16-4","proto_major":3,"proto_minor":11}
2017-12-31 17:08:19 1514758099.730083: {"class":"DEVICES","devices":[{"class":"DEVICE","path":"/dev/ttyUSB0","driver":"SiRF","activated":"2017-12-31T22:08:19.679Z","flags":1,"native":1,"bps":4800,"parity":"N","stopbits":1,"cycle":1.00}]}
2017-12-31 17:08:19 1514758099.730186: {"class":"WATCH","enable":true,"json":false,"nmea":true,"raw":0,"scaled":false,"timing":false,"split24":false,"pps":false}
2017-12-31 17:08:20 1514758100.337023: $GPZDA,220821.00,31,12,2017,00,00*68
2017-12-31 17:08:20 1514758100.337248: $GPGGA,220821,3946.9583,N,08404.9854,W,2,10,0.80,301.57,M,-33.324,M,,*7E
2017-12-31 17:08:20 1514758100.337340: $GPRMC,220821,A,3946.9583,N,08404.9854,W,0.0000,0.000,311217,,*34
2017-12-31 17:08:20 1514758100.337403: $GPGSA,A,3,22,23,3,16,29,31,14,32,26,135,,,1.7,0.8,1.3*35
2017-12-31 17:08:21 1514758101.697734: $GPGSV,3,1,10,22,43,237,40,23,29,307,34,03,46,268,35,16,48,190,42*78
2017-12-31 17:08:21 1514758101.697913: $GPGSV,3,2,10,29,14,052,30,31,48,052,49,14,39,115,36,32,17,123,39*75
2017-12-31 17:08:21 1514758101.697979: $GPGSV,3,3,10,26,75,136,45,135,22,240,42*4C
2017-12-31 17:08:21 1514758101.811335: $GPZDA,220822.00,31,12,2017,00,00*6B
2017-12-31 17:08:21 1514758101.811520: $GPGGA,220822,3946.9583,N,08404.9854,W,2,10,0.80,301.57,M,-33.324,M,,*7D
2017-12-31 17:08:21 1514758101.811587: $GPRMC,220822,A,3946.9583,N,08404.9854,W,0.0000,0.000,311217,,*37
2017-12-31 17:08:21 1514758101.811648: $GPGSA,A,3,22,23,3,16,29,31,14,32,26,135,,,1.7,0.8,1.3*35
2017-12-31 17:08:22 1514758102.345850: $GPZDA,220823.00,31,12,2017,00,00*6A
2017-12-31 17:08:22 1514758102.346014: $GPGGA,220823,3946.9583,N,08404.9854,W,2,10,0.80,301.57,M,-33.324,M,,*7C
2017-12-31 17:08:22 1514758102.346081: $GPRMC,220823,A,3946.9583,N,08404.9854,W,0.0000,0.000,311217,,*36
2017-12-31 17:08:22 1514758102.346163: $GPGSA,A,3,22,23,3,16,29,31,14,32,26,135,,,1.7,0.8,1.3*35
2017-12-31 17:08:23 1514758103.345582: $GPZDA,220824.00,31,12,2017,00,00*6D
2017-12-31 17:08:23 1514758103.345763: $GPGGA,220824,3946.9583,N,08404.9854,W,2,10,0.80,301.57,M,-33.324,M,,*7B
2017-12-31 17:08:23 1514758103.345830: $GPRMC,220824,A,3946.9583,N,08404.9854,W,0.0000,0.000,311217,,*31
2017-12-31 17:08:23 1514758103.345891: $GPGSA,A,3,22,23,3,16,29,31,14,32,26,135,,,1.7,0.8,1.3*35
2017-12-31 17:08:24 1514758104.679913: $GPGSV,3,1,10,22,43,237,41,23,29,307,35,03,46,268,37,16,48,190,43*7B
2017-12-31 17:08:24 1514758104.680078: $GPGSV,3,2,10,29,14,052,35,31,48,052,50,14,39,115,37,32,17,123,39*79
2017-12-31 17:08:24 1514758104.680144: $GPGSV,3,3,10,26,75,136,46,135,22,240,43*4E
2017-12-31 17:08:24 1514758104.793447: $GPZDA,220825.00,31,12,2017,00,00*6C
2017-12-31 17:08:24 1514758104.793627: $GPGGA,220825,3946.9583,N,08404.9854,W,2,10,0.80,301.57,M,-33.324,M,,*7A
2017-12-31 17:08:24 1514758104.793693: $GPRMC,220825,A,3946.9583,N,08404.9854,W,0.0000,0.000,311217,,*30
2017-12-31 17:08:24 1514758104.793755: $GPGSA,A,3,22,23,3,16,29,31,14,32,26,135,,,1.7,0.8,1.3*35
2017-12-31 17:08:25 1514758105.418650: $GPZDA,220826.00,31,12,2017,00,00*6F
2017-12-31 17:08:25 1514758105.418813: $GPGGA,220826,3946.9583,N,08404.9854,W,2,10,0.80,301.57,M,-33.324,M,,*79
2017-12-31 17:08:25 1514758105.418881: $GPRMC,220826,A,3946.9583,N,08404.9854,W,0.0000,0.000,311217,,*33
2017-12-31 17:08:25 1514758105.418941: $GPGSA,A,3,22,23,3,16,29,31,14,32,26,135,,,1.7,0.8,1.3*35
2017-12-31 17:08:26 1514758106.361044: $GPZDA,220827.00,31,12,2017,00,00*6E
2017-12-31 17:08:26 1514758106.361212: $GPGGA,220827,3946.9583,N,08404.9854,W,2,10,0.80,301.57,M,-33.324,M,,*78
2017-12-31 17:08:26 1514758106.361279: $GPRMC,220827,A,3946.9583,N,08404.9854,W,0.0000,0.000,311217,,*32
2017-12-31 17:08:26 1514758106.361340: $GPGSA,A,3,22,23,3,16,29,31,14,32,26,135,,,1.7,0.8,1.3*35
2017-12-31 17:08:27 1514758107.680183: $GPGSV,3,1,10,22,43,237,42,23,29,307,36,03,46,268,37,16,48,190,43*7B
2017-12-31 17:08:27 1514758107.680387: $GPGSV,3,2,10,29,14,052,36,31,48,052,50,14,39,115,37,32,17,123,40*74
2017-12-31 17:08:27 1514758107.680502: $GPGSV,3,3,10,26,75,136,46,135,22,240,42*4F
2017-12-31 17:08:27 1514758107.793836: $GPZDA,220828.00,31,12,2017,00,00*61
2017-12-31 17:08:27 1514758107.794006: $GPGGA,220828,3946.9583,N,08404.9854,W,2,10,0.80,301.57,M,-33.324,M,,*77
2017-12-31 17:08:27 1514758107.794072: $GPRMC,220828,A,3946.9583,N,08404.9854,W,0.0000,0.000,311217,,*3D
2017-12-31 17:08:27 1514758107.794132: $GPGSA,A,3,22,23,3,16,29,31,14,32,26,135,,,1.7,0.8,1.3*35
2017-12-31 17:08:28 1514758108.344734: $GPZDA,220829.00,31,12,2017,00,00*60
2017-12-31 17:08:28 1514758108.344900: $GPGGA,220829,3946.9583,N,08404.9854,W,2,10,0.80,301.57,M,-33.324,M,,*76
2017-12-31 17:08:28 1514758108.344966: $GPRMC,220829,A,3946.9583,N,08404.9854,W,0.0000,0.000,311217,,*3C
2017-12-31 17:08:28 1514758108.345028: $GPGSA,A,3,22,23,3,16,29,31,14,32,26,135,,,1.7,0.8,1.3*35
2017-12-31 17:08:29 1514758109.360543: $GPZDA,220830.00,31,12,2017,00,00*68
2017-12-31 17:08:29 1514758109.360708: $GPGGA,220830,3946.9583,N,08404.9854,W,2,10,0.80,301.57,M,-33.324,M,,*7E
2017-12-31 17:08:29 1514758109.360775: $GPRMC,220830,A,3946.9583,N,08404.9854,W,0.0000,0.000,311217,,*34
2017-12-31 17:08:29 1514758109.360837: $GPGSA,A,3,22,23,3,16,29,31,14,32,26,135,,,1.7,0.8,1.3*35
