2017-12-01 16:24:36 1512163476.966903: {"class":"VERSION","release":"3.16","rev":"3.16-4","proto_major":3,"proto_minor":11}
2017-12-01 16:24:36 1512163476.967321: {"class":"DEVICES","devices":[{"class":"DEVICE","path":"/dev/ttyUSB0","driver":"SiRF","subtype":"9\u0006GSD4e_4.1.2-P1_RPATCH.05-F-GPS-4R-1510281 11/03/2015 307","activated":"2017-12-01T21:24:36.502Z","flags":1,"native":1,"bps":4800,"parity":"N","stopbits":1,"cycle":1.00}]}
2017-12-01 16:24:36 1512163476.967442: {"class":"WATCH","enable":true,"json":false,"nmea":true,"raw":0,"scaled":false,"timing":false,"split24":false,"pps":false}
2017-12-01 16:24:37 1512163477.709371: $GPGSV,3,1,11,01,21,303,39,10,51,147,44,11,09,285,40,14,65,321,42*76
2017-12-01 16:24:37 1512163477.782534: $GPGSV,3,2,11,22,16,312,45,31,53,222,49,32,69,021,50,12,23,052,24*7E
2017-12-01 16:24:37 1512163477.782704: $GPGSV,3,3,11,18,21,142,22,25,39,094,30,138,38,213,34*71
2017-12-01 16:24:37 1512163477.823033: $GPZDA,212438.00,01,12,2017,00,00*6E
2017-12-01 16:24:37 1512163477.823187: $GPGGA,212438,3946.9642,N,08404.9769,W,2,11,0.80,297.87,M,-33.324,M,,*76
2017-12-01 16:24:37 1512163477.823253: $GPRMC,212438,A,3946.9642,N,08404.9769,W,0.0000,0.000,011217,,*3D
2017-12-01 16:24:37 1512163477.823313: $GPGSA,A,3,1,10,11,14,22,31,32,12,18,25,138,,2.0,0.8,1.5*3D
2017-12-01 16:24:38 1512163478.448406: $GPZDA,212439.00,01,12,2017,00,00*6F
2017-12-01 16:24:38 1512163478.448577: $GPGGA,212439,3946.9642,N,08404.9769,W,2,11,0.80,297.87,M,-33.324,M,,*77
2017-12-01 16:24:38 1512163478.448644: $GPRMC,212439,A,3946.9642,N,08404.9769,W,0.0000,0.000,011217,,*3C
2017-12-01 16:24:38 1512163478.448705: $GPGSA,A,3,1,10,11,14,22,31,32,12,18,25,138,,2.0,0.8,1.5*3D
2017-12-01 16:24:39 1512163479.380527: $GPZDA,212440.00,01,12,2017,00,00*61
2017-12-01 16:24:39 1512163479.380699: $GPGGA,212440,3946.9642,N,08404.9769,W,2,11,0.80,297.87,M,-33.324,M,,*79
2017-12-01 16:24:39 1512163479.380766: $GPRMC,212440,A,3946.9642,N,08404.9769,W,0.0000,0.000,011217,,*32
2017-12-01 16:24:39 1512163479.380826: $GPGSA,A,3,1,10,11,14,22,31,32,12,18,25,138,,2.0,0.8,1.5*3D
2017-12-01 16:24:40 1512163480.715954: $GPGSV,3,1,11,01,21,303,39,10,51,147,44,11,09,285,40,14,65,321,42*76
2017-12-01 16:24:40 1512163480.716146: $GPGSV,3,2,11,22,16,312,45,31,53,222,49,32,69,021,50,12,23,052,25*7F
2017-12-01 16:24:40 1512163480.716213: $GPGSV,3,3,11,18,21,142,23,25,39,094,34,138,38,213,38*78
2017-12-01 16:24:40 1512163480.828315: $GPZDA,212441.00,01,12,2017,00,00*60
2017-12-01 16:24:40 1512163480.828461: $GPGGA,212441,3946.9639,N,08404.9770,W,2,11,0.80,298.64,M,-33.324,M,,*7E
2017-12-01 16:24:40 1512163480.828528: $GPRMC,212441,A,3946.9639,N,08404.9770,W,0.0000,0.000,011217,,*37
2017-12-01 16:24:40 1512163480.828589: $GPGSA,A,3,1,10,11,14,22,31,32,12,18,25,138,,2.0,0.8,1.5*3D
2017-12-01 16:24:41 1512163481.379479: $GPZDA,212442.00,01,12,2017,00,00*63
2017-12-01 16:24:41 1512163481.379669: $GPGGA,212442,3946.9642,N,08404.9769,W,2,11,1.20,297.87,M,-33.324,M,,*70
2017-12-01 16:24:41 1512163481.379741: $GPRMC,212442,A,3946.9642,N,08404.9769,W,0.0000,0.000,011217,,*30
2017-12-01 16:24:41 1512163481.379805: $GPGSA,A,3,1,10,11,14,22,31,32,12,18,25,138,,2.0,1.2,1.5*36
2017-12-01 16:24:42 1512163482.363849: $GPZDA,212443.00,01,12,2017,00,00*62
2017-12-01 16:24:42 1512163482.364055: $GPGGA,212443,3946.9642,N,08404.9769,W,2,11,1.20,297.87,M,-33.324,M,,*71
2017-12-01 16:24:42 1512163482.364147: $GPRMC,212443,A,3946.9642,N,08404.9769,W,0.0000,0.000,011217,,*31
2017-12-01 16:24:42 1512163482.364213: $GPGSA,A,3,1,10,11,14,22,31,32,12,18,25,138,,2.0,1.2,1.5*36
2017-12-01 16:24:43 1512163483.701315: $GPGSV,3,1,11,01,21,303,40,10,51,147,44,11,09,285,40,14,65,321,42*78
2017-12-01 16:24:43 1512163483.701539: $GPGSV,3,2,11,22,16,312,44,31,53,222,49,32,69,021,50,18,21,142,24*77
2017-12-01 16:24:43 1512163483.701610: $GPGSV,3,3,11,12,23,052,00,25,39,094,34,138,38,213,39*70
2017-12-01 16:24:43 1512163483.815029: $GPZDA,212444.00,01,12,2017,00,00*65
2017-12-01 16:24:43 1512163483.815210: $GPGGA,212444,3946.9642,N,08404.9769,W,2,10,1.20,297.87,M,-33.324,M,,*77
2017-12-01 16:24:43 1512163483.815366: $GPRMC,212444,A,3946.9642,N,08404.9769,W,0.0000,0.000,011217,,*36
2017-12-01 16:24:43 1512163483.815431: $GPGSA,A,3,1,10,11,14,22,31,32,18,25,138,,,2.0,1.2,1.5*35
2017-12-01 16:24:44 1512163484.361928: $GPZDA,212445.00,01,12,2017,00,00*64
2017-12-01 16:24:44 1512163484.362112: $GPGGA,212445,3946.9642,N,08404.9769,W,2,10,1.20,297.87,M,-33.324,M,,*76
2017-12-01 16:24:44 1512163484.362183: $GPRMC,212445,A,3946.9642,N,08404.9769,W,0.0000,0.000,011217,,*37
2017-12-01 16:24:44 1512163484.362244: $GPGSA,A,3,1,10,11,14,22,31,32,18,25,138,,,2.0,1.2,1.5*35
2017-12-01 16:24:45 1512163485.362728: $GPZDA,212446.00,01,12,2017,00,00*67
2017-12-01 16:24:45 1512163485.362902: $GPGGA,212446,3946.9642,N,08404.9769,W,2,10,1.20,297.87,M,-33.324,M,,*75
2017-12-01 16:24:45 1512163485.362970: $GPRMC,212446,A,3946.9642,N,08404.9769,W,0.0000,0.000,011217,,*34
2017-12-01 16:24:45 1512163485.363031: $GPGSA,A,3,1,10,11,14,22,31,32,18,25,138,,,2.0,1.2,1.5*35
2017-12-01 16:24:46 1512163486.699672: $GPGSV,3,1,11,01,21,303,40,10,51,147,44,11,09,285,41,14,65,321,42*79
2017-12-01 16:24:46 1512163486.699850: $GPGSV,3,2,11,22,16,312,44,31,53,222,48,32,69,021,50,18,21,142,25*77
2017-12-01 16:24:46 1512163486.699916: $GPGSV,3,3,11,12,23,052,20,25,39,094,34,138,38,213,40*7C
2017-12-01 16:24:46 1512163486.813278: $GPZDA,212447.00,01,12,2017,00,00*66
2017-12-01 16:24:46 1512163486.813403: $GPGGA,212447,3946.9642,N,08404.9769,W,2,11,0.80,297.87,M,-33.324,M,,*7E
2017-12-01 16:24:46 1512163486.813467: $GPRMC,212447,A,3946.9642,N,08404.9769,W,0.0000,0.000,011217,,*35
2017-12-01 16:24:46 1512163486.813528: $GPGSA,A,3,1,10,11,14,22,31,32,18,12,25,138,,2.0,0.8,1.5*3D
2017-12-01 16:24:47 1512163487.361711: $GPZDA,212448.00,01,12,2017,00,00*69
2017-12-01 16:24:47 1512163487.361884: $GPGGA,212448,3946.9642,N,08404.9769,W,2,11,1.20,297.87,M,-33.324,M,,*7A
2017-12-01 16:24:47 1512163487.361976: $GPRMC,212448,A,3946.9642,N,08404.9769,W,0.0000,0.000,011217,,*3A
2017-12-01 16:24:47 1512163487.362041: $GPGSA,A,3,1,10,11,14,22,31,32,18,12,25,138,,2.0,1.2,1.5*36
2017-12-01 16:24:48 1512163488.354397: $GPZDA,212449.00,01,12,2017,00,00*68
2017-12-01 16:24:48 1512163488.354574: $GPGGA,212449,3946.9642,N,08404.9769,W,2,11,0.80,297.87,M,-33.324,M,,*70
2017-12-01 16:24:48 1512163488.354644: $GPRMC,212449,A,3946.9642,N,08404.9769,W,0.0000,0.000,011217,,*3B
2017-12-01 16:24:48 1512163488.354705: $GPGSA,A,3,1,10,11,14,22,31,32,18,12,25,138,,2.0,0.8,1.5*3D
2017-12-01 16:24:49 1512163489.692607: $GPGSV,3,1,11,01,21,303,40,10,51,147,43,11,09,285,41,14,65,321,42*7E
2017-12-01 16:24:49 1512163489.692760: $GPGSV,3,2,11,22,16,312,44,31,53,222,49,32,69,021,49,18,21,142,25*7E
2017-12-01 16:24:49 1512163489.692826: $GPGSV,3,3,11,12,23,052,16,25,39,094,34,138,38,213,38*76
2017-12-01 16:24:49 1512163489.806266: $GPZDA,212450.00,01,12,2017,00,00*60
2017-12-01 16:24:49 1512163489.806432: $GPGGA,212450,3946.9642,N,08404.9769,W,2,11,1.20,297.87,M,-33.324,M,,*73
2017-12-01 16:24:49 1512163489.806499: $GPRMC,212450,A,3946.9642,N,08404.9769,W,0.0000,0.000,011217,,*33
2017-12-01 16:24:49 1512163489.806561: $GPGSA,A,3,1,10,11,14,22,31,32,18,12,25,138,,2.0,1.2,1.5*36
2017-12-01 16:24:50 1512163490.362175: $GPZDA,212451.00,01,12,2017,00,00*61
2017-12-01 16:24:50 1512163490.362342: $GPGGA,212451,3946.9642,N,08404.9769,W,2,11,1.20,297.87,M,-33.324,M,,*72
2017-12-01 16:24:50 1512163490.362410: $GPRMC,212451,A,3946.9642,N,08404.9769,W,0.0000,0.000,011217,,*32
2017-12-01 16:24:50 1512163490.362472: $GPGSA,A,3,1,10,11,14,22,31,32,18,12,25,138,,2.0,1.2,1.5*36
2017-12-01 16:24:51 1512163491.361720: $GPZDA,212452.00,01,12,2017,00,00*62
2017-12-01 16:24:51 1512163491.361886: $GPGGA,212452,3946.9642,N,08404.9769,W,2,11,1.20,297.87,M,-33.324,M,,*71
2017-12-01 16:24:51 1512163491.361956: $GPRMC,212452,A,3946.9642,N,08404.9769,W,0.0000,0.000,011217,,*31
2017-12-01 16:24:51 1512163491.362021: $GPGSA,A,3,1,10,11,14,22,31,32,18,12,25,138,,2.0,1.2,1.5*36
2017-12-01 16:24:52 1512163492.698400: $GPGSV,3,1,11,01,21,303,40,10,51,147,44,11,09,285,41,14,65,321,42*79
2017-12-01 16:24:52 1512163492.698639: $GPGSV,3,2,11,22,16,312,44,31,53,222,49,32,69,021,49,18,21,142,26*7D
2017-12-01 16:24:52 1512163492.698710: $GPGSV,3,3,11,12,23,052,17,25,39,094,29,138,38,213,39*7A
2017-12-01 16:24:52 1512163492.810786: $GPZDA,212453.00,01,12,2017,00,00*63
2017-12-01 16:24:52 1512163492.810957: $GPGGA,212453,3946.9642,N,08404.9769,W,2,11,1.20,297.87,M,-33.324,M,,*70
2017-12-01 16:24:52 1512163492.811023: $GPRMC,212453,A,3946.9642,N,08404.9769,W,0.0000,0.000,011217,,*30
2017-12-01 16:24:52 1512163492.811084: $GPGSA,A,3,1,10,11,14,22,31,32,18,12,25,138,,2.0,1.2,1.5*36
2017-12-01 16:24:53 1512163493.437290: $GPZDA,212454.00,01,12,2017,00,00*64
2017-12-01 16:24:53 1512163493.437468: $GPGGA,212454,3946.9642,N,08404.9769,W,2,11,1.20,297.87,M,-33.324,M,,*77
2017-12-01 16:24:53 1512163493.437536: $GPRMC,212454,A,3946.9642,N,08404.9769,W,0.0000,0.000,011217,,*37
2017-12-01 16:24:53 1512163493.437597: $GPGSA,A,3,1,10,11,14,22,31,32,18,12,25,138,,2.0,1.2,1.5*36
2017-12-01 16:24:54 1512163494.363488: $GPZDA,212455.00,01,12,2017,00,00*65
2017-12-01 16:24:54 1512163494.363679: $GPGGA,212455,3946.9642,N,08404.9769,W,2,11,0.80,297.87,M,-33.324,M,,*7D
2017-12-01 16:24:54 1512163494.363746: $GPRMC,212455,A,3946.9642,N,08404.9769,W,0.0000,0.000,011217,,*36
2017-12-01 16:24:54 1512163494.363807: $GPGSA,A,3,1,10,11,14,22,31,32,18,12,25,138,,2.0,0.8,1.5*3D
2017-12-01 16:24:55 1512163495.692626: $GPGSV,3,1,11,01,21,303,40,10,51,147,44,11,09,285,41,14,65,321,42*79
2017-12-01 16:24:55 1512163495.692795: $GPGSV,3,2,11,22,16,312,44,31,53,222,48,32,69,021,50,18,21,142,26*74
2017-12-01 16:24:55 1512163495.692861: $GPGSV,3,3,11,12,23,052,00,25,39,094,30,138,38,213,41*7B
2017-12-01 16:24:55 1512163495.805995: $GPZDA,212456.00,01,12,2017,00,00*66
2017-12-01 16:24:55 1512163495.806129: $GPGGA,212456,3946.9642,N,08404.9769,W,2,10,1.20,297.87,M,-33.324,M,,*74
2017-12-01 16:24:55 1512163495.806195: $GPRMC,212456,A,3946.9642,N,08404.9769,W,0.0000,0.000,011217,,*35
2017-12-01 16:24:55 1512163495.806255: $GPGSA,A,3,1,10,11,14,22,31,32,18,25,138,,,2.0,1.2,1.5*35
2017-12-01 16:24:56 1512163496.363524: $GPZDA,212457.00,01,12,2017,00,00*67
2017-12-01 16:24:56 1512163496.363721: $GPGGA,212457,3946.9642,N,08404.9769,W,2,10,1.20,297.87,M,-33.324,M,,*75
2017-12-01 16:24:56 1512163496.363792: $GPRMC,212457,A,3946.9642,N,08404.9769,W,0.0000,0.000,011217,,*34
2017-12-01 16:24:56 1512163496.363856: $GPGSA,A,3,1,10,11,14,22,31,32,18,25,138,,,2.0,1.2,1.5*35
