2017-11-15 19:42:14 1510792934.905575: {"class":"VERSION","release":"3.17","rev":"3.17","proto_major":3,"proto_minor":12}
2017-11-15 19:42:14 1510792934.906083: {"class":"DEVICES","devices":[{"class":"DEVICE","path":"/dev/ttyUSB0","driver":"SiRF","subtype":"9\u0006GSD4e_4.1.2-P1_RPATCH.05-F-GPS-4R-1510281 11/03/2015 307","activated":"2017-11-16T00:42:14.486Z","flags":1,"native":1,"bps":4800,"parity":"N","stopbits":1,"cycle":1.00}]}
2017-11-15 19:42:14 1510792934.906216: {"class":"WATCH","enable":true,"json":false,"nmea":true,"raw":0,"scaled":false,"timing":false,"split24":false,"pps":false}
2017-11-15 19:42:15 1510792935.664166: $GPGSV,3,1,12,32,31,112,07,16,28,190,24,22,50,261,13,26,59,169,23*78
2017-11-15 19:42:15 1510792935.664354: $GPGSV,3,2,12,14,51,100,17,31,63,033,14,29,12,066,13,23,15,303,13*72
2017-11-15 19:42:15 1510792935.664414: $GPGSV,3,3,12,03,42,292,00,25,12,039,00,01,02,249,00,135,23,238,00*4B
2017-11-15 19:42:15 1510792935.777830: $GPZDA,004214.00,16,11,2017,00,00*66
2017-11-15 19:42:15 1510792935.777991: $GPGGA,004214,3946.9575,N,08404.9423,W,1,07,1.20,311.21,M,-33.324,M,,*7D
2017-11-15 19:42:15 1510792935.778051: $GPRMC,004214,A,3946.9575,N,08404.9423,W,0.2422,93.795,161117,,*08
2017-11-15 19:42:15 1510792935.778107: $GPGSA,A,3,16,22,26,14,31,29,23,,,,,,3.4,1.2,2.9*33
2017-11-15 19:42:16 1510792936.402901: $GPZDA,004215.00,16,11,2017,00,00*67
2017-11-15 19:42:16 1510792936.403066: $GPGGA,004215,3946.9579,N,08404.9423,W,1,07,1.60,311.85,M,-33.324,M,,*7A
2017-11-15 19:42:16 1510792936.403127: $GPRMC,004215,A,3946.9579,N,08404.9423,W,0.4207,39.347,161117,,*09
2017-11-15 19:42:16 1510792936.403182: $GPGSA,A,3,16,22,26,14,31,29,23,,,,,,3.4,1.6,2.9*37
2017-11-15 19:42:17 1510792937.344981: $GPZDA,004216.00,16,11,2017,00,00*64
2017-11-15 19:42:17 1510792937.345137: $GPGGA,004216,3946.9579,N,08404.9423,W,1,07,1.60,311.85,M,-33.324,M,,*79
2017-11-15 19:42:17 1510792937.345198: $GPRMC,004216,A,3946.9579,N,08404.9423,W,0.4207,39.347,161117,,*0A
2017-11-15 19:42:17 1510792937.345253: $GPGSA,A,3,16,22,26,14,31,29,23,,,,,,3.4,1.6,2.9*37
2017-11-15 19:42:18 1510792938.682062: $GPGSV,3,1,12,32,31,112,08,16,28,190,24,22,50,261,13,26,59,169,24*70
2017-11-15 19:42:18 1510792938.682223: $GPGSV,3,2,12,14,51,100,17,31,63,033,14,29,12,066,13,23,15,303,05*75
2017-11-15 19:42:18 1510792938.682283: $GPGSV,3,3,12,03,42,292,00,25,12,039,00,01,02,249,00,135,23,238,00*4B
2017-11-15 19:42:18 1510792938.795400: $GPZDA,004217.00,16,11,2017,00,00*65
2017-11-15 19:42:18 1510792938.795553: $GPGGA,004217,3946.9584,N,08404.9430,W,1,07,1.40,312.41,M,-33.324,M,,*71
2017-11-15 19:42:18 1510792938.795635: $GPRMC,004217,A,3946.9584,N,08404.9430,W,0.3423,4.197,161117,,*3D
2017-11-15 19:42:18 1510792938.795691: $GPGSA,A,3,32,16,22,26,14,31,29,,,,,,3.4,1.4,2.9*35
2017-11-15 19:42:19 1510792939.330027: $GPZDA,004218.00,16,11,2017,00,00*6A
2017-11-15 19:42:19 1510792939.330189: $GPGGA,004218,3946.9588,N,08404.9430,W,1,07,1.60,313.05,M,-33.324,M,,*71
2017-11-15 19:42:19 1510792939.330251: $GPRMC,004218,A,3946.9588,N,08404.9430,W,0.4207,39.347,161117,,*08
2017-11-15 19:42:19 1510792939.330307: $GPGSA,A,3,32,16,22,26,14,31,29,,,,,,3.4,1.6,2.9*37
2017-11-15 19:42:20 1510792940.346149: $GPZDA,004219.00,16,11,2017,00,00*6B
2017-11-15 19:42:20 1510792940.346323: $GPGGA,004219,3946.9588,N,08404.9430,W,1,07,1.40,313.05,M,-33.324,M,,*72
2017-11-15 19:42:20 1510792940.346385: $GPRMC,004219,A,3946.9588,N,08404.9430,W,0.3423,4.197,161117,,*3F
2017-11-15 19:42:20 1510792940.346440: $GPGSA,A,3,32,16,22,26,14,31,29,,,,,,3.4,1.4,2.9*35
2017-11-15 19:42:21 1510792941.682400: $GPGSV,3,1,12,32,31,112,07,16,28,190,24,22,50,261,13,26,59,169,24*7F
2017-11-15 19:42:21 1510792941.682588: $GPGSV,3,2,12,14,51,100,18,31,63,033,15,29,12,066,06,23,15,303,07*7D
2017-11-15 19:42:21 1510792941.682650: $GPGSV,3,3,12,03,42,292,00,25,12,039,00,01,02,249,00,135,23,238,00*4B
2017-11-15 19:42:21 1510792941.795995: $GPZDA,004220.00,16,11,2017,00,00*61
2017-11-15 19:42:21 1510792941.796135: $GPGGA,004220,3946.9592,N,08404.9430,W,1,07,2.00,313.69,M,-33.324,M,,*7E
2017-11-15 19:42:21 1510792941.796240: $GPRMC,004220,A,3946.9592,N,08404.9430,W,0.2422,273.795,161117,,*38
2017-11-15 19:42:21 1510792941.796297: $GPGSA,A,3,32,16,22,26,14,31,23,,,,,,3.4,2.0,2.9*38
2017-11-15 19:42:22 1510792942.331806: $GPZDA,004221.00,16,11,2017,00,00*60
2017-11-15 19:42:22 1510792942.332121: $GPGGA,004221,3946.9589,N,08404.9438,W,1,07,1.40,314.38,M,-33.324,M,,*79
2017-11-15 19:42:22 1510792942.332216: $GPRMC,004221,A,3946.9589,N,08404.9438,W,0.5912,309.173,161117,,*30
2017-11-15 19:42:22 1510792942.332315: $GPGSA,A,3,32,16,22,26,14,31,23,,,,,,3.4,1.4,2.9*3F
2017-11-15 19:42:23 1510792943.347950: $GPZDA,004222.00,16,11,2017,00,00*63
2017-11-15 19:42:23 1510792943.348130: $GPGGA,004222,3946.9593,N,08404.9438,W,1,07,1.40,315.02,M,-33.324,M,,*79
2017-11-15 19:42:23 1510792943.348193: $GPRMC,004222,A,3946.9593,N,08404.9438,W,1.0253,293.297,161117,,*39
2017-11-15 19:42:23 1510792943.348250: $GPGSA,A,3,32,16,22,26,14,31,23,,,,,,3.4,1.4,2.9*3F
2017-11-15 19:42:24 1510792944.682033: $GPGSV,3,1,12,32,31,112,06,16,28,190,24,22,50,261,13,26,59,169,24*7E
2017-11-15 19:42:24 1510792944.682204: $GPGSV,3,2,12,14,51,100,18,31,63,033,15,29,12,066,08,23,15,303,16*73
2017-11-15 19:42:24 1510792944.682264: $GPGSV,3,3,12,03,42,292,12,25,12,039,00,01,02,249,00,135,23,238,00*48
2017-11-15 19:42:24 1510792944.795277: $GPZDA,004223.00,16,11,2017,00,00*62
2017-11-15 19:42:24 1510792944.795431: $GPGGA,004223,3946.9594,N,08404.9445,W,1,08,1.00,314.94,M,-33.324,M,,*70
2017-11-15 19:42:24 1510792944.795490: $GPRMC,004223,A,3946.9594,N,08404.9445,W,0.9689,273.794,161117,,*36
2017-11-15 19:42:24 1510792944.795564: $GPGSA,A,3,32,16,22,26,14,31,29,23,,,,,3.4,1.0,2.9*30
