2018-01-11 21:00:24 1515722424.707144: {"class":"VERSION","release":"3.16","rev":"3.16-4","proto_major":3,"proto_minor":11}
2018-01-11 21:00:24 1515722424.707479: {"class":"DEVICES","devices":[{"class":"DEVICE","path":"/dev/ttyUSB0","driver":"SiRF","subtype":"9\u0006GSD4e_4.1.2-P1_RPATCH.05-F-GPS-4R-1510281 11/03/2015 307","activated":"2018-01-12T02:00:24.671Z","flags":1,"native":1,"bps":4800,"parity":"N","stopbits":1,"cycle":1.00}]}
2018-01-11 21:00:24 1515722424.707590: {"class":"WATCH","enable":true,"json":false,"nmea":true,"raw":0,"scaled":false,"timing":false,"split24":false,"pps":false}
2018-01-11 21:00:24 1515722424.785163: $GPZDA,020025.00,12,01,2018,00,00*6A
2018-01-11 21:00:24 1515722424.785333: $GPGGA,020025,3946.9580,N,08404.9864,W,2,11,0.80,294.39,M,-33.324,M,,*74
2018-01-11 21:00:24 1515722424.785399: $GPRMC,020025,A,3946.9580,N,08404.9864,W,0.0000,0.000,120118,,*36
2018-01-11 21:00:24 1515722424.785460: $GPGSA,A,3,1,7,8,9,11,27,30,16,23,28,138,,4.0,0.8,3.5*0F
2018-01-11 21:00:25 1515722425.336010: $GPZDA,020026.00,12,01,2018,00,00*69
2018-01-11 21:00:25 1515722425.336182: $GPGGA,020026,3946.9580,N,08404.9864,W,2,11,0.80,294.39,M,-33.324,M,,*77
2018-01-11 21:00:25 1515722425.336249: $GPRMC,020026,A,3946.9580,N,08404.9864,W,0.0000,0.000,120118,,*35
2018-01-11 21:00:25 1515722425.336311: $GPGSA,A,3,1,7,8,9,11,27,30,16,23,28,138,,4.0,0.8,3.5*0F
2018-01-11 21:00:26 1515722426.335654: $GPZDA,020027.00,12,01,2018,00,00*68
2018-01-11 21:00:26 1515722426.335830: $GPGGA,020027,3946.9580,N,08404.9864,W,2,11,0.80,294.39,M,-33.324,M,,*76
2018-01-11 21:00:26 1515722426.335898: $GPRMC,020027,A,3946.9580,N,08404.9864,W,0.0000,0.000,120118,,*34
2018-01-11 21:00:26 1515722426.335975: $GPGSA,A,3,1,7,8,9,11,27,30,16,23,28,138,,4.0,0.8,3.5*0F
2018-01-11 21:00:27 1515722427.672383: $GPGSV,3,1,12,01,16,153,42,07,78,310,43,08,66,057,48,09,29,211,42*72
2018-01-11 21:00:27 1515722427.672550: $GPGSV,3,2,12,11,40,157,46,27,27,045,50,30,49,310,41,16,07,075,18*78
2018-01-11 21:00:27 1515722427.672631: $GPGSV,3,3,12,23,08,183,33,28,29,276,35,13,01,330,18,138,38,213,45*47
2018-01-11 21:00:27 1515722427.786001: $GPZDA,020028.00,12,01,2018,00,00*67
2018-01-11 21:00:27 1515722427.786169: $GPGGA,020028,3946.9580,N,08404.9864,W,2,12,0.80,294.39,M,-33.324,M,,*7A
2018-01-11 21:00:27 1515722427.786252: $GPRMC,020028,A,3946.9580,N,08404.9864,W,0.0000,0.000,120118,,*3B
2018-01-11 21:00:27 1515722427.786314: $GPGSA,A,3,1,7,8,9,11,27,30,16,23,28,13,138,4.0,0.8,3.5*0D
2018-01-11 21:00:28 1515722428.411583: $GPZDA,020029.00,12,01,2018,00,00*66
2018-01-11 21:00:28 1515722428.411733: $GPGGA,020029,3946.9585,N,08404.9864,W,2,12,0.80,295.03,M,-33.324,M,,*76
2018-01-11 21:00:28 1515722428.411821: $GPRMC,020029,A,3946.9585,N,08404.9864,W,0.0000,0.000,120118,,*3F
2018-01-11 21:00:28 1515722428.411884: $GPGSA,A,3,1,7,8,9,11,27,30,16,23,28,13,138,4.0,0.8,3.5*0D
2018-01-11 21:00:29 1515722429.336041: $GPZDA,020030.00,12,01,2018,00,00*6E
2018-01-11 21:00:29 1515722429.336222: $GPGGA,020030,3946.9585,N,08404.9864,W,2,12,0.80,295.03,M,-33.324,M,,*7E
2018-01-11 21:00:29 1515722429.336331: $GPRMC,020030,A,3946.9585,N,08404.9864,W,0.0000,0.000,120118,,*37
2018-01-11 21:00:29 1515722429.336395: $GPGSA,A,3,1,7,8,9,11,27,30,16,23,28,13,138,4.0,0.8,3.5*0D
2018-01-11 21:00:30 1515722430.665249: $GPGSV,3,1,12,01,16,153,42,07,78,310,42,08,66,057,48,09,29,211,42*73
2018-01-11 21:00:30 1515722430.665429: $GPGSV,3,2,12,11,40,157,46,27,27,045,50,30,49,310,41,16,07,075,18*78
2018-01-11 21:00:30 1515722430.665499: $GPGSV,3,3,12,23,08,183,34,28,29,276,35,13,01,330,19,138,38,213,45*41
2018-01-11 21:00:30 1515722430.778886: $GPZDA,020031.00,12,01,2018,00,00*6F
2018-01-11 21:00:30 1515722430.779126: $GPGGA,020031,3946.9585,N,08404.9864,W,2,12,0.80,295.03,M,-33.324,M,,*7F
2018-01-11 21:00:30 1515722430.779203: $GPRMC,020031,A,3946.9585,N,08404.9864,W,0.0000,0.000,120118,,*36
2018-01-11 21:00:30 1515722430.779268: $GPGSA,A,3,1,7,8,9,11,27,30,16,23,28,13,138,4.0,0.8,3.5*0D
2018-01-11 21:00:31 1515722431.337267: $GPZDA,020032.00,12,01,2018,00,00*6C
2018-01-11 21:00:31 1515722431.337428: $GPGGA,020032,3946.9584,N,08404.9857,W,2,12,0.80,295.11,M,-33.324,M,,*7E
2018-01-11 21:00:31 1515722431.337552: $GPRMC,020032,A,3946.9584,N,08404.9857,W,0.0000,0.000,120118,,*34
2018-01-11 21:00:31 1515722431.337614: $GPGSA,A,3,1,7,8,9,11,27,30,16,23,28,13,138,4.0,0.8,3.5*0D
