2017-12-31 16:55:22 1514757322.665286: {"class":"VERSION","release":"3.16","rev":"3.16-4","proto_major":3,"proto_minor":11}
2017-12-31 16:55:22 1514757322.665622: {"class":"DEVICES","devices":[{"class":"DEVICE","path":"/dev/ttyUSB0","driver":"SiRF","activated":"2017-12-31T21:55:22.501Z","flags":1,"native":1,"bps":4800,"parity":"N","stopbits":1,"cycle":1.00}]}
2017-12-31 16:55:22 1514757322.665720: {"class":"WATCH","enable":true,"json":false,"nmea":true,"raw":0,"scaled":false,"timing":false,"split24":false,"pps":false}
2017-12-31 16:55:23 1514757323.343338: $GPZDA,215524.00,31,12,2017,00,00*66
2017-12-31 16:55:23 1514757323.343488: $GPGGA,215524,3946.9581,N,08404.9855,W,2,11,0.80,303.74,M,-33.324,M,,*71
2017-12-31 16:55:23 1514757323.343552: $GPRMC,215524,A,3946.9581,N,08404.9855,W,0.0000,0.000,311217,,*39
2017-12-31 16:55:23 1514757323.343612: $GPGSA,A,3,22,23,25,3,16,29,31,14,32,26,135,,1.7,0.8,1.3*32
2017-12-31 16:55:24 1514757324.671284: $GPGSV,3,1,11,22,47,246,40,23,24,306,38,25,05,037,20,03,46,277,39*78
2017-12-31 16:55:24 1514757324.671467: $GPGSV,3,2,11,16,41,190,46,29,14,060,27,31,53,046,51,14,44,109,42*74
2017-12-31 16:55:24 1514757324.671534: $GPGSV,3,3,11,32,22,120,44,26,70,154,43,135,22,240,43*79
2017-12-31 16:55:24 1514757324.784675: $GPZDA,215525.00,31,12,2017,00,00*67
2017-12-31 16:55:24 1514757324.784815: $GPGGA,215525,3946.9581,N,08404.9855,W,2,11,0.80,303.74,M,-33.324,M,,*70
2017-12-31 16:55:24 1514757324.784879: $GPRMC,215525,A,3946.9581,N,08404.9855,W,0.0000,0.000,311217,,*38
2017-12-31 16:55:24 1514757324.784939: $GPGSA,A,3,22,23,25,3,16,29,31,14,32,26,135,,1.7,0.8,1.3*32
2017-12-31 16:55:25 1514757325.410472: $GPZDA,215526.00,31,12,2017,00,00*64
2017-12-31 16:55:25 1514757325.410635: $GPGGA,215526,3946.9581,N,08404.9855,W,2,11,0.80,303.74,M,-33.324,M,,*73
2017-12-31 16:55:25 1514757325.410701: $GPRMC,215526,A,3946.9581,N,08404.9855,W,0.0000,0.000,311217,,*3B
2017-12-31 16:55:25 1514757325.410761: $GPGSA,A,3,22,23,25,3,16,29,31,14,32,26,135,,1.7,0.8,1.3*32
2017-12-31 16:55:26 1514757326.336314: $GPZDA,215527.00,31,12,2017,00,00*65
2017-12-31 16:55:26 1514757326.336468: $GPGGA,215527,3946.9581,N,08404.9855,W,2,11,0.80,303.74,M,-33.324,M,,*72
2017-12-31 16:55:26 1514757326.336533: $GPRMC,215527,A,3946.9581,N,08404.9855,W,0.0000,0.000,311217,,*3A
2017-12-31 16:55:26 1514757326.336593: $GPGSA,A,3,22,23,25,3,16,29,31,14,32,26,135,,1.7,0.8,1.3*32
2017-12-31 16:55:27 1514757327.679157: $GPGSV,3,1,11,22,47,246,40,23,24,306,38,25,05,037,20,03,46,277,38*79
2017-12-31 16:55:27 1514757327.679336: $GPGSV,3,2,11,16,41,190,46,29,14,060,28,31,53,046,51,14,44,109,42*7B
2017-12-31 16:55:27 1514757327.679404: $GPGSV,3,3,11,32,22,120,44,26,70,154,43,135,22,240,43*79
2017-12-31 16:55:27 1514757327.793025: $GPZDA,215528.00,31,12,2017,00,00*6A
2017-12-31 16:55:27 1514757327.793157: $GPGGA,215528,3946.9581,N,08404.9855,W,2,11,0.80,303.74,M,-33.324,M,,*7D
2017-12-31 16:55:27 1514757327.793221: $GPRMC,215528,A,3946.9581,N,08404.9855,W,0.0000,0.000,311217,,*35
2017-12-31 16:55:27 1514757327.793281: $GPGSA,A,3,22,23,25,3,16,29,31,14,32,26,135,,1.7,0.8,1.3*32
2017-12-31 16:55:28 1514757328.359747: $GPZDA,215529.00,31,12,2017,00,00*6B
2017-12-31 16:55:28 1514757328.359915: $GPGGA,215529,3946.9581,N,08404.9855,W,2,11,0.80,303.74,M,-33.324,M,,*7C
2017-12-31 16:55:28 1514757328.359981: $GPRMC,215529,A,3946.9581,N,08404.9855,W,0.0000,0.000,311217,,*34
2017-12-31 16:55:28 1514757328.360042: $GPGSA,A,3,22,23,25,3,16,29,31,14,32,26,135,,1.7,0.8,1.3*32
2017-12-31 16:55:29 1514757329.344269: $GPZDA,215530.00,31,12,2017,00,00*63
2017-12-31 16:55:29 1514757329.344437: $GPGGA,215530,3946.9581,N,08404.9855,W,2,11,0.80,303.74,M,-33.324,M,,*74
2017-12-31 16:55:29 1514757329.344504: $GPRMC,215530,A,3946.9581,N,08404.9855,W,0.0000,0.000,311217,,*3C
2017-12-31 16:55:29 1514757329.344565: $GPGSA,A,3,22,23,25,3,16,29,31,14,32,26,135,,1.7,0.8,1.3*32
2017-12-31 16:55:30 1514757330.679502: $GPGSV,3,1,11,22,47,246,41,23,24,306,39,25,05,037,20,03,46,277,39*78
2017-12-31 16:55:30 1514757330.679681: $GPGSV,3,2,11,16,41,190,46,29,14,060,29,31,53,046,51,14,44,109,42*7A
2017-12-31 16:55:30 1514757330.679801: $GPGSV,3,3,11,32,22,120,44,26,70,154,44,135,22,240,43*7E
2017-12-31 16:55:30 1514757330.792845: $GPZDA,215531.00,31,12,2017,00,00*62
2017-12-31 16:55:30 1514757330.793005: $GPGGA,215531,3946.9581,N,08404.9855,W,2,11,0.80,303.74,M,-33.324,M,,*75
2017-12-31 16:55:30 1514757330.793069: $GPRMC,215531,A,3946.9581,N,08404.9855,W,0.0000,0.000,311217,,*3D
2017-12-31 16:55:30 1514757330.793129: $GPGSA,A,3,22,23,25,3,16,29,31,14,32,26,135,,1.7,0.8,1.3*32
2017-12-31 16:55:31 1514757331.352724: $GPZDA,215532.00,31,12,2017,00,00*61
2017-12-31 16:55:31 1514757331.352869: $GPGGA,215532,3946.9581,N,08404.9855,W,2,11,0.80,303.74,M,-33.324,M,,*76
2017-12-31 16:55:31 1514757331.352934: $GPRMC,215532,A,3946.9581,N,08404.9855,W,0.0000,0.000,311217,,*3E
2017-12-31 16:55:31 1514757331.352994: $GPGSA,A,3,22,23,25,3,16,29,31,14,32,26,135,,1.7,0.8,1.3*32
2017-12-31 16:55:32 1514757332.352377: $GPZDA,215533.00,31,12,2017,00,00*60
2017-12-31 16:55:32 1514757332.352544: $GPGGA,215533,3946.9581,N,08404.9855,W,2,11,0.80,303.74,M,-33.324,M,,*77
2017-12-31 16:55:32 1514757332.352610: $GPRMC,215533,A,3946.9581,N,08404.9855,W,0.0000,0.000,311217,,*3F
2017-12-31 16:55:32 1514757332.352672: $GPGSA,A,3,22,23,25,3,16,29,31,14,32,26,135,,1.7,0.8,1.3*32
