2017-12-31 17:10:21 1514758221.795490: {"class":"VERSION","release":"3.16","rev":"3.16-4","proto_major":3,"proto_minor":11}
2017-12-31 17:10:21 1514758221.795821: {"class":"DEVICES","devices":[{"class":"DEVICE","path":"/dev/ttyUSB0","driver":"SiRF","activated":"2017-12-31T22:10:21.696Z","flags":1,"native":1,"bps":4800,"parity":"N","stopbits":1,"cycle":1.00}]}
2017-12-31 17:10:21 1514758221.795917: {"class":"WATCH","enable":true,"json":false,"nmea":true,"raw":0,"scaled":false,"timing":false,"split24":false,"pps":false}
2017-12-31 17:10:21 1514758221.809718: $GPZDA,221022.00,31,12,2017,00,00*62
2017-12-31 17:10:21 1514758221.809838: $GPGGA,221022,3946.9583,N,08404.9854,W,2,10,0.80,301.57,M,-33.324,M,,*74
2017-12-31 17:10:21 1514758221.809900: $GPRMC,221022,A,3946.9583,N,08404.9854,W,0.0000,0.000,311217,,*3E
2017-12-31 17:10:21 1514758221.809960: $GPGSA,A,3,22,23,3,16,29,31,14,32,26,135,,,1.7,0.8,1.3*35
2017-12-31 17:10:22 1514758222.345684: $GPZDA,221023.00,31,12,2017,00,00*63
2017-12-31 17:10:22 1514758222.345858: $GPGGA,221023,3946.9583,N,08404.9854,W,2,10,0.80,301.57,M,-33.324,M,,*75
2017-12-31 17:10:22 1514758222.345925: $GPRMC,221023,A,3946.9583,N,08404.9854,W,0.0000,0.000,311217,,*3F
2017-12-31 17:10:22 1514758222.345986: $GPGSA,A,3,22,23,3,16,29,31,14,32,26,135,,,1.7,0.8,1.3*35
2017-12-31 17:10:23 1514758223.366130: $GPZDA,221024.00,31,12,2017,00,00*64
2017-12-31 17:10:23 1514758223.366305: $GPGGA,221024,3946.9583,N,08404.9854,W,2,10,0.80,301.57,M,-33.324,M,,*72
2017-12-31 17:10:23 1514758223.366372: $GPRMC,221024,A,3946.9583,N,08404.9854,W,0.0000,0.000,311217,,*38
2017-12-31 17:10:23 1514758223.366433: $GPGSA,A,3,22,23,3,16,29,31,14,32,26,135,,,1.7,0.8,1.3*35
2017-12-31 17:10:24 1514758224.679348: $GPGSV,3,1,10,22,43,237,43,23,29,307,40,03,46,268,37,16,48,190,43*7B
2017-12-31 17:10:24 1514758224.679516: $GPGSV,3,2,10,29,14,052,26,31,48,052,51,14,39,115,35,32,17,123,40*76
2017-12-31 17:10:24 1514758224.679583: $GPGSV,3,3,10,26,75,136,47,135,22,240,42*4E
2017-12-31 17:10:24 1514758224.792718: $GPZDA,221025.00,31,12,2017,00,00*65
2017-12-31 17:10:24 1514758224.792865: $GPGGA,221025,3946.9583,N,08404.9854,W,2,10,0.80,301.57,M,-33.324,M,,*73
2017-12-31 17:10:24 1514758224.792930: $GPRMC,221025,A,3946.9583,N,08404.9854,W,0.0000,0.000,311217,,*39
2017-12-31 17:10:24 1514758224.792990: $GPGSA,A,3,22,23,3,16,29,31,14,32,26,135,,,1.7,0.8,1.3*35
2017-12-31 17:10:25 1514758225.419395: $GPZDA,221026.00,31,12,2017,00,00*66
2017-12-31 17:10:25 1514758225.419577: $GPGGA,221026,3946.9583,N,08404.9854,W,2,10,0.80,301.57,M,-33.324,M,,*70
2017-12-31 17:10:25 1514758225.419645: $GPRMC,221026,A,3946.9583,N,08404.9854,W,0.0000,0.000,311217,,*3A
2017-12-31 17:10:25 1514758225.419706: $GPGSA,A,3,22,23,3,16,29,31,14,32,26,135,,,1.7,0.8,1.3*35
2017-12-31 17:10:26 1514758226.336496: $GPZDA,221027.00,31,12,2017,00,00*67
2017-12-31 17:10:26 1514758226.336682: $GPGGA,221027,3946.9583,N,08404.9854,W,2,10,0.80,301.57,M,-33.324,M,,*71
2017-12-31 17:10:26 1514758226.336749: $GPRMC,221027,A,3946.9583,N,08404.9854,W,0.0000,0.000,311217,,*3B
2017-12-31 17:10:26 1514758226.336810: $GPGSA,A,3,22,23,3,16,29,31,14,32,26,135,,,1.7,0.8,1.3*35
2017-12-31 17:10:27 1514758227.695945: $GPGSV,3,1,10,22,43,237,43,23,29,307,39,03,46,268,37,16,48,190,43*75
2017-12-31 17:10:27 1514758227.696111: $GPGSV,3,2,10,29,14,052,32,31,48,052,51,14,39,115,36,32,17,123,40*70
2017-12-31 17:10:27 1514758227.696178: $GPGSV,3,3,10,26,75,136,47,135,22,240,42*4E
2017-12-31 17:10:27 1514758227.809363: $GPZDA,221028.00,31,12,2017,00,00*68
2017-12-31 17:10:27 1514758227.809533: $GPGGA,221028,3946.9583,N,08404.9854,W,2,10,0.80,301.57,M,-33.324,M,,*7E
2017-12-31 17:10:27 1514758227.809598: $GPRMC,221028,A,3946.9583,N,08404.9854,W,0.0000,0.000,311217,,*34
2017-12-31 17:10:27 1514758227.809658: $GPGSA,A,3,22,23,3,16,29,31,14,32,26,135,,,1.7,0.8,1.3*35
2017-12-31 17:10:28 1514758228.343938: $GPZDA,221029.00,31,12,2017,00,00*69
2017-12-31 17:10:28 1514758228.344124: $GPGGA,221029,3946.9583,N,08404.9854,W,2,10,0.80,301.57,M,-33.324,M,,*7F
2017-12-31 17:10:28 1514758228.344191: $GPRMC,221029,A,3946.9583,N,08404.9854,W,0.0000,0.000,311217,,*35
2017-12-31 17:10:28 1514758228.344307: $GPGSA,A,3,22,23,3,16,29,31,14,32,26,135,,,1.7,0.8,1.3*35
2017-12-31 17:10:29 1514758229.344967: $GPZDA,221030.00,31,12,2017,00,00*61
2017-12-31 17:10:29 1514758229.345148: $GPGGA,221030,3946.9583,N,08404.9854,W,2,10,0.80,301.57,M,-33.324,M,,*77
2017-12-31 17:10:29 1514758229.345215: $GPRMC,221030,A,3946.9583,N,08404.9854,W,0.0000,0.000,311217,,*3D
2017-12-31 17:10:29 1514758229.345276: $GPGSA,A,3,22,23,3,16,29,31,14,32,26,135,,,1.7,0.8,1.3*35
2017-12-31 17:10:30 1514758230.680078: $GPGSV,3,1,10,22,43,237,43,23,29,307,40,03,46,268,38,16,48,190,42*75
2017-12-31 17:10:30 1514758230.680228: $GPGSV,3,2,10,29,14,052,32,31,48,052,51,14,39,115,36,32,17,123,40*70
2017-12-31 17:10:30 1514758230.680294: $GPGSV,3,3,10,26,75,136,47,135,22,240,42*4E
2017-12-31 17:10:30 1514758230.793494: $GPZDA,221031.00,31,12,2017,00,00*60
2017-12-31 17:10:30 1514758230.793636: $GPGGA,221031,3946.9583,N,08404.9854,W,2,10,0.80,301.57,M,-33.324,M,,*76
2017-12-31 17:10:30 1514758230.793698: $GPRMC,221031,A,3946.9583,N,08404.9854,W,0.0000,0.000,311217,,*3C
2017-12-31 17:10:30 1514758230.793758: $GPGSA,A,3,22,23,3,16,29,31,14,32,26,135,,,1.7,0.8,1.3*35
2017-12-31 17:10:31 1514758231.360533: $GPZDA,221032.00,31,12,2017,00,00*63
2017-12-31 17:10:31 1514758231.360743: $GPGGA,221032,3946.9583,N,08404.9854,W,2,10,0.80,301.57,M,-33.324,M,,*75
2017-12-31 17:10:31 1514758231.360835: $GPRMC,221032,A,3946.9583,N,08404.9854,W,0.0000,0.000,311217,,*3F
2017-12-31 17:10:31 1514758231.360915: $GPGSA,A,3,22,23,3,16,29,31,14,32,26,135,,,1.7,0.8,1.3*35
