2017-12-31 18:03:34 1514761414.090189: {"class":"VERSION","release":"3.16","rev":"3.16-4","proto_major":3,"proto_minor":11}
2017-12-31 18:03:34 1514761414.090584: {"class":"DEVICES","devices":[{"class":"DEVICE","path":"/dev/ttyUSB0","driver":"SiRF","activated":"2017-12-31T23:03:33.937Z","flags":1,"native":1,"bps":4800,"parity":"N","stopbits":1,"cycle":1.00}]}
2017-12-31 18:03:34 1514761414.090699: {"class":"WATCH","enable":true,"json":false,"nmea":true,"raw":0,"scaled":false,"timing":false,"split24":false,"pps":false}
2017-12-31 18:03:34 1514761414.346293: $GPZDA,230335.00,31,12,2017,00,00*67
2017-12-31 18:03:34 1514761414.346470: $GPGGA,230335,3946.9561,N,08404.9874,W,2,11,0.60,308.17,M,-33.324,M,,*7D
2017-12-31 18:03:34 1514761414.346537: $GPRMC,230335,A,3946.9561,N,08404.9874,W,0.0000,0.000,311217,,*35
2017-12-31 18:03:34 1514761414.346598: $GPGSA,A,3,22,23,9,3,16,29,14,31,27,26,135,,1.7,0.6,1.3*06
2017-12-31 18:03:35 1514761415.346693: $GPZDA,230336.00,31,12,2017,00,00*64
2017-12-31 18:03:35 1514761415.346862: $GPGGA,230336,3946.9561,N,08404.9874,W,2,11,0.60,308.17,M,-33.324,M,,*7E
2017-12-31 18:03:35 1514761415.346929: $GPRMC,230336,A,3946.9561,N,08404.9874,W,0.0000,0.000,311217,,*36
2017-12-31 18:03:35 1514761415.346989: $GPGSA,A,3,22,23,9,3,16,29,14,31,27,26,135,,1.7,0.6,1.3*06
2017-12-31 18:03:36 1514761416.682197: $GPGSV,3,1,11,22,25,216,39,23,51,307,44,09,18,312,37,03,34,237,44*74
2017-12-31 18:03:36 1514761416.682404: $GPGSV,3,2,11,16,77,192,43,29,07,033,33,14,18,132,32,31,30,072,39*7D
2017-12-31 18:03:36 1514761416.682471: $GPGSV,3,3,11,27,19,156,30,26,65,052,49,135,22,240,44*79
2017-12-31 18:03:36 1514761416.795839: $GPZDA,230337.00,31,12,2017,00,00*65
2017-12-31 18:03:36 1514761416.796001: $GPGGA,230337,3946.9561,N,08404.9874,W,2,11,0.60,308.17,M,-33.324,M,,*7F
2017-12-31 18:03:36 1514761416.796068: $GPRMC,230337,A,3946.9561,N,08404.9874,W,0.0000,0.000,311217,,*37
2017-12-31 18:03:36 1514761416.796130: $GPGSA,A,3,22,23,9,3,16,29,14,31,27,26,135,,1.7,0.6,1.3*06
2017-12-31 18:03:37 1514761417.346665: $GPZDA,230338.00,31,12,2017,00,00*6A
2017-12-31 18:03:37 1514761417.346824: $GPGGA,230338,3946.9561,N,08404.9874,W,2,11,0.60,308.17,M,-33.324,M,,*70
2017-12-31 18:03:37 1514761417.346891: $GPRMC,230338,A,3946.9561,N,08404.9874,W,0.0000,0.000,311217,,*38
2017-12-31 18:03:37 1514761417.346951: $GPGSA,A,3,22,23,9,3,16,29,14,31,27,26,135,,1.7,0.6,1.3*06
2017-12-31 18:03:38 1514761418.375048: $GPZDA,230339.00,31,12,2017,00,00*6B
2017-12-31 18:03:38 1514761418.375225: $GPGGA,230339,3946.9561,N,08404.9874,W,2,11,0.60,308.17,M,-33.324,M,,*71
2017-12-31 18:03:38 1514761418.375293: $GPRMC,230339,A,3946.9561,N,08404.9874,W,0.0000,0.000,311217,,*39
2017-12-31 18:03:38 1514761418.375370: $GPGSA,A,3,22,23,9,3,16,29,14,31,27,26,135,,1.7,0.6,1.3*06
2017-12-31 18:03:39 1514761419.681760: $GPGSV,3,1,11,22,25,216,39,23,51,307,45,09,18,312,37,03,34,237,43*72
2017-12-31 18:03:39 1514761419.681928: $GPGSV,3,2,11,16,77,192,43,29,07,033,31,14,18,132,31,31,30,072,39*7C
2017-12-31 18:03:39 1514761419.681993: $GPGSV,3,3,11,27,19,156,30,26,65,052,50,135,22,240,43*76
2017-12-31 18:03:39 1514761419.795401: $GPZDA,230340.00,31,12,2017,00,00*65
2017-12-31 18:03:39 1514761419.795567: $GPGGA,230340,3946.9561,N,08404.9874,W,2,11,0.60,308.17,M,-33.324,M,,*7F
2017-12-31 18:03:39 1514761419.795633: $GPRMC,230340,A,3946.9561,N,08404.9874,W,0.0000,0.000,311217,,*37
2017-12-31 18:03:39 1514761419.795694: $GPGSA,A,3,22,23,9,3,16,29,14,31,27,26,135,,1.7,0.6,1.3*06
2017-12-31 18:03:40 1514761420.422031: $GPZDA,230341.00,31,12,2017,00,00*64
2017-12-31 18:03:40 1514761420.422212: $GPGGA,230341,3946.9561,N,08404.9874,W,2,11,0.60,308.17,M,-33.324,M,,*7E
2017-12-31 18:03:40 1514761420.422279: $GPRMC,230341,A,3946.9561,N,08404.9874,W,0.0000,0.000,311217,,*36
2017-12-31 18:03:40 1514761420.422356: $GPGSA,A,3,22,23,9,3,16,29,14,31,27,26,135,,1.7,0.6,1.3*06
2017-12-31 18:03:41 1514761421.346647: $GPZDA,230342.00,31,12,2017,00,00*67
2017-12-31 18:03:41 1514761421.346825: $GPGGA,230342,3946.9561,N,08404.9874,W,2,11,0.60,308.17,M,-33.324,M,,*7D
2017-12-31 18:03:41 1514761421.346946: $GPRMC,230342,A,3946.9561,N,08404.9874,W,0.0000,0.000,311217,,*35
2017-12-31 18:03:41 1514761421.347009: $GPGSA,A,3,22,23,9,3,16,29,14,31,27,26,135,,1.7,0.6,1.3*06
2017-12-31 18:03:42 1514761422.675871: $GPGSV,3,1,11,22,25,216,39,23,51,307,44,09,18,312,37,03,34,237,44*74
2017-12-31 18:03:42 1514761422.676037: $GPGSV,3,2,11,16,77,192,43,29,07,033,22,14,18,132,29,31,30,072,39*77
2017-12-31 18:03:42 1514761422.676104: $GPGSV,3,3,11,27,19,156,29,26,65,052,50,135,22,240,44*79
2017-12-31 18:03:42 1514761422.789510: $GPZDA,230343.00,31,12,2017,00,00*66
2017-12-31 18:03:42 1514761422.789645: $GPGGA,230343,3946.9561,N,08404.9874,W,2,11,0.60,308.17,M,-33.324,M,,*7C
2017-12-31 18:03:42 1514761422.789710: $GPRMC,230343,A,3946.9561,N,08404.9874,W,0.0000,0.000,311217,,*34
2017-12-31 18:03:42 1514761422.789770: $GPGSA,A,3,22,23,9,3,16,29,14,31,27,26,135,,1.7,0.6,1.3*06
2017-12-31 18:03:43 1514761423.376657: $GPZDA,230344.00,31,12,2017,00,00*61
2017-12-31 18:03:43 1514761423.376828: $GPGGA,230344,3946.9561,N,08404.9874,W,2,11,0.60,308.17,M,-33.324,M,,*7B
2017-12-31 18:03:43 1514761423.376894: $GPRMC,230344,A,3946.9561,N,08404.9874,W,0.0000,0.000,311217,,*33
2017-12-31 18:03:43 1514761423.376955: $GPGSA,A,3,22,23,9,3,16,29,14,31,27,26,135,,1.7,0.6,1.3*06
