2017-11-16 15:09:48 1510862988.275595: {"class":"VERSION","release":"3.17","rev":"3.17","proto_major":3,"proto_minor":12}
2017-11-16 15:09:48 1510862988.276336: {"class":"DEVICES","devices":[{"class":"DEVICE","path":"/dev/ttyUSB0","driver":"SiRF","subtype":"9\u0006GSD4e_4.1.2-P1_RPATCH.05-F-GPS-4R-1510281 11/03/2015 307","activated":"2017-11-16T20:09:48.231Z","flags":1,"native":1,"bps":4800,"parity":"N","stopbits":1,"cycle":1.00}]}
2017-11-16 15:09:48 1510862988.276462: {"class":"WATCH","enable":true,"json":false,"nmea":true,"raw":0,"scaled":false,"timing":false,"split24":false,"pps":false}
2017-11-16 15:09:48 1510862988.409682: $GPZDA,200947.00,16,11,2017,00,00*6D
2017-11-16 15:09:48 1510862988.409853: $GPGGA,200947,3946.9582,N,08404.9846,W,2,12,0.80,300.25,M,-33.324,M,,*79
2017-11-16 15:09:48 1510862988.409914: $GPRMC,200947,A,3946.9582,N,08404.9846,W,0.0000,0.000,161117,,*33
2017-11-16 15:09:48 1510862988.409970: $GPGSA,A,3,8,10,14,15,18,20,21,24,27,32,12,138,1.6,0.8,1.3*34
2017-11-16 15:09:49 1510862989.729203: $GPGSV,3,1,12,08,07,300,35,10,63,322,51,14,24,249,45,15,16,063,38*71
2017-11-16 15:09:49 1510862989.729376: $GPGSV,3,2,12,18,75,073,46,20,13,114,35,21,36,181,45,24,49,067,49*7C
2017-11-16 15:09:49 1510862989.729436: $GPGSV,3,3,12,27,10,265,45,32,41,258,47,12,05,112,00,138,38,213,43*44
2017-11-16 15:09:49 1510862989.842520: $GPZDA,200948.00,16,11,2017,00,00*62
2017-11-16 15:09:49 1510862989.842668: $GPGGA,200948,3946.9582,N,08404.9846,W,2,11,0.80,300.25,M,-33.324,M,,*75
2017-11-16 15:09:49 1510862989.842728: $GPRMC,200948,A,3946.9582,N,08404.9846,W,0.0000,0.000,161117,,*3C
2017-11-16 15:09:49 1510862989.842783: $GPGSA,A,3,8,10,14,15,18,20,21,24,27,32,138,,1.6,0.8,1.3*37
2017-11-16 15:09:50 1510862990.391335: $GPZDA,200949.00,16,11,2017,00,00*63
2017-11-16 15:09:50 1510862990.391551: $GPGGA,200949,3946.9582,N,08404.9846,W,2,11,0.80,300.25,M,-33.324,M,,*74
2017-11-16 15:09:50 1510862990.391623: $GPRMC,200949,A,3946.9582,N,08404.9846,W,0.0000,0.000,161117,,*3D
2017-11-16 15:09:50 1510862990.391683: $GPGSA,A,3,8,10,14,15,18,20,21,24,27,32,138,,1.6,0.8,1.3*37
2017-11-16 15:09:51 1510862991.391208: $GPZDA,200950.00,16,11,2017,00,00*6B
2017-11-16 15:09:51 1510862991.391374: $GPGGA,200950,3946.9582,N,08404.9846,W,2,11,0.80,300.25,M,-33.324,M,,*7C
2017-11-16 15:09:51 1510862991.391436: $GPRMC,200950,A,3946.9582,N,08404.9846,W,0.0000,0.000,161117,,*35
2017-11-16 15:09:51 1510862991.391491: $GPGSA,A,3,8,10,14,15,18,20,21,24,27,32,138,,1.6,0.8,1.3*37
2017-11-16 15:09:52 1510862992.728162: $GPGSV,3,1,12,08,07,300,35,10,63,322,51,14,24,249,45,15,16,063,38*71
2017-11-16 15:09:52 1510862992.728325: $GPGSV,3,2,12,18,75,073,46,20,13,114,35,21,36,181,45,24,49,067,49*7C
2017-11-16 15:09:52 1510862992.728385: $GPGSV,3,3,12,27,10,265,46,32,41,258,46,12,05,112,00,138,38,213,43*46
2017-11-16 15:09:52 1510862992.840194: $GPZDA,200951.00,16,11,2017,00,00*6A
2017-11-16 15:09:52 1510862992.840408: $GPGGA,200951,3946.9582,N,08404.9846,W,2,11,0.80,300.25,M,-33.324,M,,*7D
2017-11-16 15:09:52 1510862992.840469: $GPRMC,200951,A,3946.9582,N,08404.9846,W,0.0000,0.000,161117,,*34
2017-11-16 15:09:52 1510862992.840525: $GPGSA,A,3,8,10,14,15,18,20,21,24,27,32,138,,1.6,0.8,1.3*37
2017-11-16 15:09:53 1510862993.392372: $GPZDA,200952.00,16,11,2017,00,00*69
2017-11-16 15:09:53 1510862993.392533: $GPGGA,200952,3946.9582,N,08404.9846,W,2,11,0.80,300.25,M,-33.324,M,,*7E
2017-11-16 15:09:53 1510862993.392594: $GPRMC,200952,A,3946.9582,N,08404.9846,W,0.0000,0.000,161117,,*37
2017-11-16 15:09:53 1510862993.392650: $GPGSA,A,3,8,10,14,15,18,20,21,24,27,32,138,,1.6,0.8,1.3*37
2017-11-16 15:09:54 1510862994.390677: $GPZDA,200953.00,16,11,2017,00,00*68
2017-11-16 15:09:54 1510862994.390842: $GPGGA,200953,3946.9582,N,08404.9846,W,2,11,0.80,300.25,M,-33.324,M,,*7F
2017-11-16 15:09:54 1510862994.390903: $GPRMC,200953,A,3946.9582,N,08404.9846,W,0.0000,0.000,161117,,*36
2017-11-16 15:09:54 1510862994.390959: $GPGSA,A,3,8,10,14,15,18,20,21,24,27,32,138,,1.6,0.8,1.3*37
2017-11-16 15:09:55 1510862995.727689: $GPGSV,3,1,12,08,07,300,35,10,63,322,51,14,24,249,45,15,16,063,38*71
2017-11-16 15:09:55 1510862995.727927: $GPGSV,3,2,12,18,75,073,46,20,13,114,35,21,36,181,44,24,49,067,49*7D
2017-11-16 15:09:55 1510862995.727990: $GPGSV,3,3,12,27,10,265,46,32,41,258,46,12,05,112,00,138,38,213,44*41
2017-11-16 15:09:55 1510862995.841062: $GPZDA,200954.00,16,11,2017,00,00*6F
2017-11-16 15:09:55 1510862995.841224: $GPGGA,200954,3946.9582,N,08404.9846,W,2,11,0.80,300.25,M,-33.324,M,,*78
2017-11-16 15:09:55 1510862995.841286: $GPRMC,200954,A,3946.9582,N,08404.9846,W,0.0000,0.000,161117,,*31
2017-11-16 15:09:55 1510862995.841342: $GPGSA,A,3,8,10,14,15,18,20,21,24,27,32,138,,1.6,0.8,1.3*37
2017-11-16 15:09:56 1510862996.466375: $GPZDA,200955.00,16,11,2017,00,00*6E
2017-11-16 15:09:56 1510862996.466584: $GPGGA,200955,3946.9582,N,08404.9846,W,2,11,0.80,300.25,M,-33.324,M,,*79
2017-11-16 15:09:56 1510862996.466661: $GPRMC,200955,A,3946.9582,N,08404.9846,W,0.0000,0.000,161117,,*30
2017-11-16 15:09:56 1510862996.466724: $GPGSA,A,3,8,10,14,15,18,20,21,24,27,32,138,,1.6,0.8,1.3*37
2017-11-16 15:09:57 1510862997.390942: $GPZDA,200956.00,16,11,2017,00,00*6D
2017-11-16 15:09:57 1510862997.391098: $GPGGA,200956,3946.9582,N,08404.9846,W,2,11,0.80,300.25,M,-33.324,M,,*7A
2017-11-16 15:09:57 1510862997.391159: $GPRMC,200956,A,3946.9582,N,08404.9846,W,0.0000,0.000,161117,,*33
2017-11-16 15:09:57 1510862997.391214: $GPGSA,A,3,8,10,14,15,18,20,21,24,27,32,138,,1.6,0.8,1.3*37
