2017-12-29 14:51:13 1514577073.043429: {"class":"VERSION","release":"3.16","rev":"3.16-4","proto_major":3,"proto_minor":11}
2017-12-29 14:51:13 1514577073.043803: {"class":"DEVICES","devices":[{"class":"DEVICE","path":"/dev/ttyUSB0","driver":"SiRF","subtype":"9\u0006GSD4e_4.1.2-P1_RPATCH.05-F-GPS-4R-1510281 11/03/2015 307","activated":"2017-12-29T19:51:12.545Z","flags":1,"native":1,"bps":4800,"parity":"N","stopbits":1,"cycle":1.00}]}
2017-12-29 14:51:13 1514577073.043914: {"class":"WATCH","enable":true,"json":false,"nmea":true,"raw":0,"scaled":false,"timing":false,"split24":false,"pps":false}
2017-12-29 14:51:13 1514577073.737408: $GPGSV,3,1,12,01,22,294,36,26,09,180,23,10,40,151,49,03,06,316,38*71
2017-12-29 14:51:14 1514577074.280008: $GPGSV,3,2,12,12,19,043,42,14,68,342,43,18,11,145,32,22,25,310,40*71
2017-12-29 14:51:14 1514577074.280152: $GPGSV,3,3,12,25,41,082,51,31,64,232,47,32,65,048,51,138,38,213,43*4A
2017-12-29 14:51:14 1514577074.280248: $GPZDA,195114.00,29,12,2017,00,00*63
2017-12-29 14:51:14 1514577074.280305: $GPGGA,195114,3946.9571,N,08404.9771,W,2,12,0.80,302.65,M,-33.324,M,,*79
2017-12-29 14:51:14 1514577074.280367: $GPRMC,195114,A,3946.9571,N,08404.9771,W,0.0000,0.000,291217,,*3A
2017-12-29 14:51:14 1514577074.280426: $GPGSA,A,3,1,26,10,3,12,14,18,22,25,31,32,138,1.7,0.8,1.3*08
2017-12-29 14:51:14 1514577074.369434: $GPZDA,195115.00,29,12,2017,00,00*62
2017-12-29 14:51:14 1514577074.369583: $GPGGA,195115,3946.9571,N,08404.9764,W,2,12,0.80,302.73,M,-33.324,M,,*7B
2017-12-29 14:51:14 1514577074.369650: $GPRMC,195115,A,3946.9571,N,08404.9764,W,0.0000,0.000,291217,,*3F
2017-12-29 14:51:14 1514577074.369711: $GPGSA,A,3,1,26,10,3,12,14,18,22,25,31,32,138,1.7,0.8,1.3*08
2017-12-29 14:51:15 1514577075.368534: $GPZDA,195116.00,29,12,2017,00,00*61
2017-12-29 14:51:15 1514577075.368702: $GPGGA,195116,3946.9571,N,08404.9764,W,2,12,0.80,302.73,M,-33.324,M,,*78
2017-12-29 14:51:15 1514577075.368768: $GPRMC,195116,A,3946.9571,N,08404.9764,W,0.0000,0.000,291217,,*3C
2017-12-29 14:51:15 1514577075.368829: $GPGSA,A,3,1,26,10,3,12,14,18,22,25,31,32,138,1.7,0.8,1.3*08
2017-12-29 14:51:16 1514577076.742778: $GPGSV,3,1,12,01,22,294,36,26,09,180,24,10,40,151,48,03,06,316,35*7A
2017-12-29 14:51:16 1514577076.742928: $GPGSV,3,2,12,12,19,043,41,14,68,342,43,18,11,145,32,22,25,310,40*72
2017-12-29 14:51:16 1514577076.742993: $GPGSV,3,3,12,25,41,082,51,31,64,232,47,32,65,048,51,138,38,213,44*4D
2017-12-29 14:51:16 1514577076.856347: $GPZDA,195117.00,29,12,2017,00,00*60
2017-12-29 14:51:16 1514577076.856479: $GPGGA,195117,3946.9571,N,08404.9764,W,2,12,0.80,302.73,M,-33.324,M,,*79
2017-12-29 14:51:16 1514577076.856545: $GPRMC,195117,A,3946.9571,N,08404.9764,W,0.0000,0.000,291217,,*3D
2017-12-29 14:51:16 1514577076.856605: $GPGSA,A,3,1,26,10,3,12,14,18,22,25,31,32,138,1.7,0.8,1.3*08
2017-12-29 14:51:17 1514577077.408513: $GPZDA,195118.00,29,12,2017,00,00*6F
2017-12-29 14:51:17 1514577077.408683: $GPGGA,195118,3946.9571,N,08404.9764,W,2,12,0.80,302.73,M,-33.324,M,,*76
2017-12-29 14:51:17 1514577077.408750: $GPRMC,195118,A,3946.9571,N,08404.9764,W,0.0000,0.000,291217,,*32
2017-12-29 14:51:17 1514577077.408812: $GPGSA,A,3,1,26,10,3,12,14,18,22,25,31,32,138,1.7,0.8,1.3*08
2017-12-29 14:51:18 1514577078.408130: $GPZDA,195119.00,29,12,2017,00,00*6E
2017-12-29 14:51:18 1514577078.408300: $GPGGA,195119,3946.9571,N,08404.9764,W,2,12,0.80,302.73,M,-33.324,M,,*77
2017-12-29 14:51:18 1514577078.408367: $GPRMC,195119,A,3946.9571,N,08404.9764,W,0.0000,0.000,291217,,*33
2017-12-29 14:51:18 1514577078.408427: $GPGSA,A,3,1,26,10,3,12,14,18,22,25,31,32,138,1.7,0.8,1.3*08
2017-12-29 14:51:19 1514577079.743622: $GPGSV,3,1,12,01,22,294,36,26,09,180,24,10,40,151,49,03,06,316,36*78
2017-12-29 14:51:19 1514577079.743796: $GPGSV,3,2,12,12,19,043,41,14,68,342,43,18,11,145,32,22,25,310,41*73
2017-12-29 14:51:19 1514577079.743867: $GPGSV,3,3,12,25,41,082,51,31,64,232,47,32,65,048,51,138,38,213,44*4D
2017-12-29 14:51:19 1514577079.857192: $GPZDA,195120.00,29,12,2017,00,00*64
2017-12-29 14:51:19 1514577079.857327: $GPGGA,195120,3946.9571,N,08404.9764,W,2,12,0.80,302.73,M,-33.324,M,,*7D
2017-12-29 14:51:19 1514577079.857446: $GPRMC,195120,A,3946.9571,N,08404.9764,W,0.0000,0.000,291217,,*39
2017-12-29 14:51:19 1514577079.857509: $GPGSA,A,3,1,26,10,3,12,14,18,22,25,31,32,138,1.7,0.8,1.3*08
2017-12-29 14:51:20 1514577080.482725: $GPZDA,195121.00,29,12,2017,00,00*65
2017-12-29 14:51:20 1514577080.482892: $GPGGA,195121,3946.9571,N,08404.9764,W,2,12,0.80,302.73,M,-33.324,M,,*7C
2017-12-29 14:51:20 1514577080.482959: $GPRMC,195121,A,3946.9571,N,08404.9764,W,0.0000,0.000,291217,,*38
2017-12-29 14:51:20 1514577080.483020: $GPGSA,A,3,1,26,10,3,12,14,18,22,25,31,32,138,1.7,0.8,1.3*08
2017-12-29 14:51:21 1514577081.369721: $GPZDA,195122.00,29,12,2017,00,00*66
2017-12-29 14:51:21 1514577081.369882: $GPGGA,195122,3946.9571,N,08404.9764,W,2,12,0.80,302.73,M,-33.324,M,,*7F
2017-12-29 14:51:21 1514577081.369949: $GPRMC,195122,A,3946.9571,N,08404.9764,W,0.0000,0.000,291217,,*3B
2017-12-29 14:51:21 1514577081.370011: $GPGSA,A,3,1,26,10,3,12,14,18,22,25,31,32,138,1.7,0.8,1.3*08
2017-12-29 14:51:22 1514577082.705213: $GPGSV,3,1,12,01,22,294,36,26,09,180,25,10,40,151,48,03,06,316,37*79
2017-12-29 14:51:22 1514577082.705362: $GPGSV,3,2,12,12,19,043,42,14,68,342,43,18,11,145,32,22,25,310,41*70
2017-12-29 14:51:22 1514577082.705428: $GPGSV,3,3,12,25,41,082,51,31,64,232,47,32,65,048,51,138,38,213,43*4A
2017-12-29 14:51:22 1514577082.818790: $GPZDA,195123.00,29,12,2017,00,00*67
2017-12-29 14:51:22 1514577082.818918: $GPGGA,195123,3946.9571,N,08404.9764,W,2,12,0.80,302.73,M,-33.324,M,,*7E
2017-12-29 14:51:22 1514577082.818983: $GPRMC,195123,A,3946.9571,N,08404.9764,W,0.0000,0.000,291217,,*3A
2017-12-29 14:51:22 1514577082.819044: $GPGSA,A,3,1,26,10,3,12,14,18,22,25,31,32,138,1.7,0.8,1.3*08
