2017-11-16 17:07:24 1510870044.430559: {"class":"VERSION","release":"3.17","rev":"3.17","proto_major":3,"proto_minor":12}
2017-11-16 17:07:24 1510870044.431251: {"class":"DEVICES","devices":[{"class":"DEVICE","path":"/dev/ttyUSB0","driver":"SiRF","subtype":"9\u0006GSD4e_4.1.2-P1_RPATCH.05-F-GPS-4R-1510281 11/03/2015 307","activated":"2017-11-16T22:07:24.300Z","flags":1,"native":1,"bps":4800,"parity":"N","stopbits":1,"cycle":1.00}]}
2017-11-16 17:07:24 1510870044.431383: {"class":"WATCH","enable":true,"json":false,"nmea":true,"raw":0,"scaled":false,"timing":false,"split24":false,"pps":false}
2017-11-16 17:07:24 1510870044.750377: $GPGSV,3,1,12,01,18,312,39,10,60,141,47,11,10,292,34,12,25,061,49*7B
2017-11-16 17:07:24 1510870044.750546: $GPGSV,3,2,12,14,60,306,45,18,29,139,43,22,09,312,35,24,06,046,37*7B
2017-11-16 17:07:24 1510870044.750607: $GPGSV,3,3,12,25,35,105,47,31,43,217,48,32,70,354,50,138,38,213,44*41
2017-11-16 17:07:24 1510870044.863674: $GPZDA,220723.00,16,11,2017,00,00*63
2017-11-16 17:07:24 1510870044.863842: $GPGGA,220723,3946.9575,N,08404.9819,W,2,12,0.80,312.77,M,-33.324,M,,*71
2017-11-16 17:07:24 1510870044.863904: $GPRMC,220723,A,3946.9575,N,08404.9819,W,0.0000,0.000,161117,,*3F
2017-11-16 17:07:24 1510870044.863960: $GPGSA,A,3,1,10,11,12,14,18,22,24,25,31,32,138,1.6,0.8,1.3*38
2017-11-16 17:07:25 1510870045.397099: $GPZDA,220724.00,16,11,2017,00,00*64
2017-11-16 17:07:25 1510870045.397281: $GPGGA,220724,3946.9575,N,08404.9819,W,2,12,0.80,312.77,M,-33.324,M,,*76
2017-11-16 17:07:25 1510870045.397360: $GPRMC,220724,A,3946.9575,N,08404.9819,W,0.0000,0.000,161117,,*38
2017-11-16 17:07:25 1510870045.397417: $GPGSA,A,3,1,10,11,12,14,18,22,24,25,31,32,138,1.6,0.8,1.3*38
2017-11-16 17:07:26 1510870046.391346: $GPZDA,220725.00,16,11,2017,00,00*65
2017-11-16 17:07:26 1510870046.391513: $GPGGA,220725,3946.9575,N,08404.9819,W,2,12,0.80,312.77,M,-33.324,M,,*77
2017-11-16 17:07:26 1510870046.391575: $GPRMC,220725,A,3946.9575,N,08404.9819,W,0.0000,0.000,161117,,*39
2017-11-16 17:07:26 1510870046.391631: $GPGSA,A,3,1,10,11,12,14,18,22,24,25,31,32,138,1.6,0.8,1.3*38
2017-11-16 17:07:27 1510870047.733310: $GPGSV,3,1,12,01,18,312,38,10,60,141,47,11,10,292,29,12,25,061,50*7E
2017-11-16 17:07:27 1510870047.733479: $GPGSV,3,2,12,14,60,306,46,18,29,139,43,22,09,312,36,24,06,046,37*7B
2017-11-16 17:07:27 1510870047.733540: $GPGSV,3,3,12,25,35,105,47,31,43,217,48,32,70,354,50,138,38,213,44*41
2017-11-16 17:07:27 1510870047.846623: $GPZDA,220726.00,16,11,2017,00,00*66
2017-11-16 17:07:27 1510870047.846787: $GPGGA,220726,3946.9575,N,08404.9819,W,2,12,0.80,312.77,M,-33.324,M,,*74
2017-11-16 17:07:27 1510870047.846848: $GPRMC,220726,A,3946.9575,N,08404.9819,W,0.0000,0.000,161117,,*3A
2017-11-16 17:07:27 1510870047.846904: $GPGSA,A,3,1,10,11,12,14,18,22,24,25,31,32,138,1.6,0.8,1.3*38
2017-11-16 17:07:28 1510870048.397492: $GPZDA,220727.00,16,11,2017,00,00*67
2017-11-16 17:07:28 1510870048.397669: $GPGGA,220727,3946.9575,N,08404.9819,W,2,12,0.80,312.77,M,-33.324,M,,*75
2017-11-16 17:07:28 1510870048.397752: $GPRMC,220727,A,3946.9575,N,08404.9819,W,0.0000,0.000,161117,,*3B
2017-11-16 17:07:28 1510870048.397811: $GPGSA,A,3,1,10,11,12,14,18,22,24,25,31,32,138,1.6,0.8,1.3*38
2017-11-16 17:07:29 1510870049.413347: $GPZDA,220728.00,16,11,2017,00,00*68
2017-11-16 17:07:29 1510870049.413513: $GPGGA,220728,3946.9575,N,08404.9819,W,2,12,0.80,312.77,M,-33.324,M,,*7A
2017-11-16 17:07:29 1510870049.413575: $GPRMC,220728,A,3946.9575,N,08404.9819,W,0.0000,0.000,161117,,*34
2017-11-16 17:07:29 1510870049.413631: $GPGSA,A,3,1,10,11,12,14,18,22,24,25,31,32,138,1.6,0.8,1.3*38
2017-11-16 17:07:30 1510870050.750462: $GPGSV,3,1,12,01,18,312,38,10,60,141,47,11,10,292,29,12,25,061,50*7E
2017-11-16 17:07:30 1510870050.750779: $GPGSV,3,2,12,14,60,306,45,18,29,139,42,22,09,312,35,24,06,046,37*7A
2017-11-16 17:07:30 1510870050.750897: $GPGSV,3,3,12,25,35,105,47,31,43,217,47,32,70,354,50,138,38,213,44*4E
2017-11-16 17:07:30 1510870050.863762: $GPZDA,220729.00,16,11,2017,00,00*69
2017-11-16 17:07:30 1510870050.863943: $GPGGA,220729,3946.9575,N,08404.9819,W,2,12,0.80,312.77,M,-33.324,M,,*7B
2017-11-16 17:07:30 1510870050.864056: $GPRMC,220729,A,3946.9575,N,08404.9819,W,0.0000,0.000,161117,,*35
2017-11-16 17:07:30 1510870050.864113: $GPGSA,A,3,1,10,11,12,14,18,22,24,25,31,32,138,1.6,0.8,1.3*38
2017-11-16 17:07:31 1510870051.489087: $GPZDA,220730.00,16,11,2017,00,00*61
2017-11-16 17:07:31 1510870051.489265: $GPGGA,220730,3946.9575,N,08404.9819,W,2,12,0.80,312.77,M,-33.324,M,,*73
2017-11-16 17:07:31 1510870051.489344: $GPRMC,220730,A,3946.9575,N,08404.9819,W,0.0000,0.000,161117,,*3D
2017-11-16 17:07:31 1510870051.489401: $GPGSA,A,3,1,10,11,12,14,18,22,24,25,31,32,138,1.6,0.8,1.3*38
2017-11-16 17:07:32 1510870052.398171: $GPZDA,220731.00,16,11,2017,00,00*60
2017-11-16 17:07:32 1510870052.398353: $GPGGA,220731,3946.9572,N,08404.9819,W,2,12,0.80,313.53,M,-33.324,M,,*72
2017-11-16 17:07:32 1510870052.398425: $GPRMC,220731,A,3946.9572,N,08404.9819,W,0.0000,0.000,161117,,*3B
2017-11-16 17:07:32 1510870052.398482: $GPGSA,A,3,1,10,11,12,14,18,22,24,25,31,32,138,1.6,0.8,1.3*38
2017-11-16 17:07:33 1510870053.744528: $GPGSV,3,1,12,01,18,312,38,10,60,141,47,11,10,292,29,12,25,061,50*7E
2017-11-16 17:07:33 1510870053.744694: $GPGSV,3,2,12,14,60,306,45,18,29,139,43,22,09,312,35,24,06,046,37*7B
2017-11-16 17:07:33 1510870053.744772: $GPGSV,3,3,12,25,35,105,46,31,43,217,47,32,70,354,49,138,38,213,44*47
2017-11-16 17:07:33 1510870053.857098: $GPZDA,220732.00,16,11,2017,00,00*63
2017-11-16 17:07:33 1510870053.857364: $GPGGA,220732,3946.9572,N,08404.9819,W,2,12,0.80,313.53,M,-33.324,M,,*71
2017-11-16 17:07:33 1510870053.857438: $GPRMC,220732,A,3946.9572,N,08404.9819,W,0.0000,0.000,161117,,*38
2017-11-16 17:07:33 1510870053.857502: $GPGSA,A,3,1,10,11,12,14,18,22,24,25,31,32,138,1.6,0.8,1.3*38
