2017-11-15 19:41:46 1510792906.792749: {"class":"VERSION","release":"3.17","rev":"3.17","proto_major":3,"proto_minor":12}
2017-11-15 19:41:46 1510792906.793181: {"class":"DEVICES","devices":[{"class":"DEVICE","path":"/dev/ttyUSB0","driver":"SiRF","subtype":"9\u0006GSD4e_4.1.2-P1_RPATCH.05-F-GPS-4R-1510281 11/03/2015 307","activated":"2017-11-16T00:41:46.560Z","flags":1,"native":1,"bps":4800,"parity":"N","stopbits":1,"cycle":1.00}]}
2017-11-15 19:41:46 1510792906.793294: {"class":"WATCH","enable":true,"json":false,"nmea":true,"raw":0,"scaled":false,"timing":false,"split24":false,"pps":false}
2017-11-15 19:41:47 1510792907.345635: $GPZDA,004146.00,16,11,2017,00,00*62
2017-11-15 19:41:47 1510792907.345806: $GPGGA,004146,3946.9574,N,08404.9471,W,1,04,2.60,295.77,M,-33.324,M,,*75
2017-11-15 19:41:47 1510792907.345873: $GPRMC,004146,A,3946.9574,N,08404.9471,W,0.7637,117.901,161117,,*37
2017-11-15 19:41:47 1510792907.345930: $GPGSA,A,3,32,16,26,31,,,,,,,,,3.4,2.6,2.9*3A
2017-11-15 19:41:48 1510792908.664875: $GPGSV,3,1,12,32,31,112,09,16,28,190,22,25,12,039,11,26,59,169,16*7A
2017-11-15 19:41:48 1510792908.665043: $GPGSV,3,2,12,14,51,100,00,31,63,033,11,29,12,066,04,22,50,261,00*70
2017-11-15 19:41:48 1510792908.665104: $GPGSV,3,3,12,03,42,292,00,23,15,303,00,01,02,249,00,138,38,213,00*4E
2017-11-15 19:41:48 1510792908.778537: $GPZDA,004147.00,16,11,2017,00,00*63
2017-11-15 19:41:48 1510792908.778697: $GPGGA,004147,3946.9574,N,08404.9464,W,1,04,2.60,295.85,M,-33.324,M,,*7D
2017-11-15 19:41:48 1510792908.778762: $GPRMC,004147,A,3946.9574,N,08404.9464,W,0.7637,117.901,161117,,*32
2017-11-15 19:41:48 1510792908.778818: $GPGSA,A,3,32,16,26,31,,,,,,,,,3.4,2.6,2.9*3A
2017-11-15 19:41:49 1510792909.329548: $GPZDA,004148.00,16,11,2017,00,00*6C
2017-11-15 19:41:49 1510792909.329710: $GPGGA,004148,3946.9574,N,08404.9464,W,1,04,2.60,295.85,M,-33.324,M,,*72
2017-11-15 19:41:49 1510792909.329773: $GPRMC,004148,A,3946.9574,N,08404.9464,W,0.6872,165.975,161117,,*35
2017-11-15 19:41:49 1510792909.329829: $GPGSA,A,3,32,16,26,31,,,,,,,,,3.4,2.6,2.9*3A
2017-11-15 19:41:50 1510792910.345555: $GPZDA,004149.00,16,11,2017,00,00*6D
2017-11-15 19:41:50 1510792910.345717: $GPGGA,004149,3946.9570,N,08404.9465,W,1,04,2.60,296.61,M,-33.324,M,,*7F
2017-11-15 19:41:50 1510792910.345780: $GPRMC,004149,A,3946.9570,N,08404.9465,W,0.6267,189.201,161117,,*35
2017-11-15 19:41:50 1510792910.345838: $GPGSA,A,3,32,16,26,31,,,,,,,,,3.4,2.6,2.9*3A
2017-11-15 19:41:51 1510792911.680402: $GPGSV,3,1,12,32,31,112,08,16,28,190,23,25,12,039,11,26,59,169,17*7B
2017-11-15 19:41:51 1510792911.680573: $GPGSV,3,2,12,14,51,100,00,31,63,033,12,29,12,066,04,22,50,261,00*73
2017-11-15 19:41:51 1510792911.680634: $GPGSV,3,3,12,03,42,292,00,23,15,303,00,01,02,249,00,138,38,213,00*4E
2017-11-15 19:41:51 1510792911.793737: $GPZDA,004150.00,16,11,2017,00,00*65
2017-11-15 19:41:51 1510792911.793911: $GPGGA,004150,3946.9567,N,08404.9466,W,1,04,2.60,297.38,M,-33.324,M,,*7F
2017-11-15 19:41:51 1510792911.793995: $GPRMC,004150,A,3946.9567,N,08404.9466,W,0.9681,187.434,161117,,*35
2017-11-15 19:41:51 1510792911.794052: $GPGSA,A,3,32,16,26,31,,,,,,,,,3.4,2.6,2.9*3A
2017-11-15 19:41:52 1510792912.328634: $GPZDA,004151.00,16,11,2017,00,00*64
2017-11-15 19:41:52 1510792912.328812: $GPGGA,004151,3946.9563,N,08404.9459,W,1,04,2.60,298.22,M,-33.324,M,,*72
2017-11-15 19:41:52 1510792912.328878: $GPRMC,004151,A,3946.9563,N,08404.9459,W,1.0547,160.151,161117,,*32
2017-11-15 19:41:52 1510792912.328934: $GPGSA,A,3,32,16,26,31,,,,,,,,,3.4,2.6,2.9*3A
2017-11-15 19:41:53 1510792913.344204: $GPZDA,004152.00,16,11,2017,00,00*67
2017-11-15 19:41:53 1510792913.352800: $GPGGA,004152,3946.9567,N,08404.9452,W,1,04,2.60,298.94,M,-33.324,M,,*73
2017-11-15 19:41:53 1510792913.352915: $GPRMC,004152,A,3946.9567,N,08404.9452,W,0.9984,119.786,161117,,*37
2017-11-15 19:41:53 1510792913.352975: $GPGSA,A,3,32,16,26,31,,,,,,,,,3.4,2.6,2.9*3A
2017-11-15 19:41:54 1510792914.679997: $GPGSV,3,1,12,32,31,112,09,16,28,190,23,14,51,100,00,26,59,169,18*7B
2017-11-15 19:41:54 1510792914.680167: $GPGSV,3,2,12,22,50,261,00,31,63,033,12,29,12,066,06,03,42,292,00*7D
2017-11-15 19:41:54 1510792914.680280: $GPGSV,3,3,12,23,15,303,00,25,12,039,00,01,02,249,00,138,38,213,00*4C
2017-11-15 19:41:54 1510792914.793323: $GPZDA,004153.00,16,11,2017,00,00*66
2017-11-15 19:41:54 1510792914.793490: $GPGGA,004153,3946.9564,N,08404.9453,W,1,04,2.60,299.71,M,-33.324,M,,*7A
2017-11-15 19:41:54 1510792914.793552: $GPRMC,004153,A,3946.9564,N,08404.9453,W,1.2208,114.798,161117,,*33
2017-11-15 19:41:54 1510792914.793610: $GPGSA,A,3,32,16,26,31,,,,,,,,,3.4,2.6,2.9*3A
2017-11-15 19:41:55 1510792915.329509: $GPZDA,004154.00,16,11,2017,00,00*61
2017-11-15 19:41:55 1510792915.329670: $GPGGA,004154,3946.9564,N,08404.9447,W,1,04,2.60,301.19,M,-33.324,M,,*76
2017-11-15 19:41:55 1510792915.329735: $GPRMC,004154,A,3946.9564,N,08404.9447,W,1.3750,89.998,161117,,*03
2017-11-15 19:41:55 1510792915.329791: $GPGSA,A,3,32,16,26,31,,,,,,,,,3.4,2.6,2.9*3A
2017-11-15 19:41:56 1510792916.328328: $GPZDA,004155.00,16,11,2017,00,00*60
2017-11-15 19:41:56 1510792916.328497: $GPGGA,004155,3946.9564,N,08404.9441,W,1,04,2.60,302.67,M,-33.324,M,,*7B
2017-11-15 19:41:56 1510792916.328560: $GPRMC,004155,A,3946.9564,N,08404.9441,W,1.1461,98.563,161117,,*0F
2017-11-15 19:41:56 1510792916.328616: $GPGSA,A,3,32,16,26,31,,,,,,,,,3.4,2.6,2.9*3A
