2017-12-01 14:30:24 1512156624.325035: {"class":"VERSION","release":"3.16","rev":"3.16-4","proto_major":3,"proto_minor":11}
2017-12-01 14:30:24 1512156624.325476: {"class":"DEVICES","devices":[{"class":"DEVICE","path":"/dev/ttyUSB0","driver":"SiRF","subtype":"9\u0006GSD4e_4.1.2-P1_RPATCH.05-F-GPS-4R-1510281 11/03/2015 307","activated":"2017-12-01T19:30:24.245Z","flags":1,"native":1,"bps":4800,"parity":"N","stopbits":1,"cycle":1.00}]}
2017-12-01 14:30:24 1512156624.325605: {"class":"WATCH","enable":true,"json":false,"nmea":true,"raw":0,"scaled":false,"timing":false,"split24":false,"pps":false}
2017-12-01 14:30:24 1512156624.694940: $GPGSV,3,1,12,08,05,291,35,10,72,336,48,14,31,256,42,15,09,067,32*7A
2017-12-01 14:30:24 1512156624.695117: $GPGSV,3,2,12,18,68,100,45,21,25,178,45,24,43,055,48,32,48,268,44*7B
2017-12-01 14:30:24 1512156624.695182: $GPGSV,3,3,12,20,06,120,26,25,05,139,22,12,11,105,31,138,38,213,47*47
2017-12-01 14:30:24 1512156624.808356: $GPZDA,193025.00,01,12,2017,00,00*6C
2017-12-01 14:30:24 1512156624.808485: $GPGGA,193025,3946.9534,N,08404.9850,W,2,12,0.80,312.43,M,-33.324,M,,*74
2017-12-01 14:30:24 1512156624.808549: $GPRMC,193025,A,3946.9534,N,08404.9850,W,0.0000,0.000,011217,,*38
2017-12-01 14:30:24 1512156624.808608: $GPGSA,A,3,8,10,14,15,18,21,24,32,20,25,12,138,2.0,0.8,1.5*35
2017-12-01 14:30:25 1512156625.433705: $GPZDA,193026.00,01,12,2017,00,00*6F
2017-12-01 14:30:25 1512156625.433845: $GPGGA,193026,3946.9534,N,08404.9850,W,2,12,0.80,312.43,M,-33.324,M,,*77
2017-12-01 14:30:25 1512156625.433909: $GPRMC,193026,A,3946.9534,N,08404.9850,W,0.0000,0.000,011217,,*3B
2017-12-01 14:30:25 1512156625.433969: $GPGSA,A,3,8,10,14,15,18,21,24,32,20,25,12,138,2.0,0.8,1.5*35
2017-12-01 14:30:26 1512156626.358530: $GPZDA,193027.00,01,12,2017,00,00*6E
2017-12-01 14:30:26 1512156626.358684: $GPGGA,193027,3946.9534,N,08404.9850,W,2,12,0.80,312.43,M,-33.324,M,,*76
2017-12-01 14:30:26 1512156626.358748: $GPRMC,193027,A,3946.9534,N,08404.9850,W,0.0000,0.000,011217,,*3A
2017-12-01 14:30:26 1512156626.358808: $GPGSA,A,3,8,10,14,15,18,21,24,32,20,25,12,138,2.0,0.8,1.5*35
2017-12-01 14:30:27 1512156627.695434: $GPGSV,3,1,12,08,05,291,30,10,72,336,48,14,31,256,42,15,09,067,32*7F
2017-12-01 14:30:27 1512156627.695617: $GPGSV,3,2,12,18,68,100,45,21,25,178,45,24,43,055,48,32,48,268,44*7B
2017-12-01 14:30:27 1512156627.695685: $GPGSV,3,3,12,20,06,120,26,25,05,139,21,12,11,105,32,138,38,213,46*46
2017-12-01 14:30:27 1512156627.808925: $GPZDA,193028.00,01,12,2017,00,00*61
2017-12-01 14:30:27 1512156627.809079: $GPGGA,193028,3946.9534,N,08404.9850,W,2,12,0.80,312.43,M,-33.324,M,,*79
2017-12-01 14:30:27 1512156627.809143: $GPRMC,193028,A,3946.9534,N,08404.9850,W,0.0000,0.000,011217,,*35
2017-12-01 14:30:27 1512156627.809203: $GPGSA,A,3,8,10,14,15,18,21,24,32,20,25,12,138,2.0,0.8,1.5*35
2017-12-01 14:30:28 1512156628.364724: $GPZDA,193029.00,01,12,2017,00,00*60
2017-12-01 14:30:28 1512156628.364896: $GPGGA,193029,3946.9534,N,08404.9850,W,2,12,0.80,312.43,M,-33.324,M,,*78
2017-12-01 14:30:28 1512156628.364963: $GPRMC,193029,A,3946.9534,N,08404.9850,W,0.0000,0.000,011217,,*34
2017-12-01 14:30:28 1512156628.365024: $GPGSA,A,3,8,10,14,15,18,21,24,32,20,25,12,138,2.0,0.8,1.5*35
2017-12-01 14:30:29 1512156629.358163: $GPZDA,193030.00,01,12,2017,00,00*68
2017-12-01 14:30:29 1512156629.358332: $GPGGA,193030,3946.9534,N,08404.9850,W,2,12,0.80,312.43,M,-33.324,M,,*70
2017-12-01 14:30:29 1512156629.358400: $GPRMC,193030,A,3946.9534,N,08404.9850,W,0.0000,0.000,011217,,*3C
2017-12-01 14:30:29 1512156629.358461: $GPGSA,A,3,8,10,14,15,18,21,24,32,20,25,12,138,2.0,0.8,1.5*35
2017-12-01 14:30:30 1512156630.687057: $GPGSV,3,1,12,08,05,291,31,10,72,336,48,14,31,256,41,15,09,067,31*7E
2017-12-01 14:30:30 1512156630.687241: $GPGSV,3,2,12,18,68,100,45,21,25,178,45,24,43,055,48,32,48,268,44*7B
2017-12-01 14:30:30 1512156630.687306: $GPGSV,3,3,12,20,06,120,26,25,05,139,19,12,11,105,32,138,38,213,47*4C
2017-12-01 14:30:30 1512156630.800634: $GPZDA,193031.00,01,12,2017,00,00*69
2017-12-01 14:30:30 1512156630.800765: $GPGGA,193031,3946.9534,N,08404.9850,W,2,12,0.80,312.43,M,-33.324,M,,*71
2017-12-01 14:30:30 1512156630.800879: $GPRMC,193031,A,3946.9534,N,08404.9850,W,0.0000,0.000,011217,,*3D
2017-12-01 14:30:30 1512156630.800941: $GPGSA,A,3,8,10,14,15,18,21,24,32,20,25,12,138,2.0,0.8,1.5*35
2017-12-01 14:30:31 1512156631.354995: $GPZDA,193032.00,01,12,2017,00,00*6A
2017-12-01 14:30:31 1512156631.355157: $GPGGA,193032,3946.9534,N,08404.9850,W,2,12,0.80,312.43,M,-33.324,M,,*72
2017-12-01 14:30:31 1512156631.355222: $GPRMC,193032,A,3946.9534,N,08404.9850,W,0.0000,0.000,011217,,*3E
2017-12-01 14:30:31 1512156631.355283: $GPGSA,A,3,8,10,14,15,18,21,24,32,20,25,12,138,2.0,0.8,1.5*35
2017-12-01 14:30:32 1512156632.359895: $GPZDA,193033.00,01,12,2017,00,00*6B
2017-12-01 14:30:32 1512156632.360067: $GPGGA,193033,3946.9534,N,08404.9850,W,2,12,0.80,312.43,M,-33.324,M,,*73
2017-12-01 14:30:32 1512156632.360134: $GPRMC,193033,A,3946.9534,N,08404.9850,W,0.0000,0.000,011217,,*3F
2017-12-01 14:30:32 1512156632.360195: $GPGSA,A,3,8,10,14,15,18,21,24,32,20,25,12,138,2.0,0.8,1.5*35
2017-12-01 14:30:33 1512156633.694165: $GPGSV,3,1,12,08,05,291,29,10,72,336,47,14,31,256,42,15,09,067,31*7B
2017-12-01 14:30:33 1512156633.694350: $GPGSV,3,2,12,18,68,100,44,21,25,178,45,24,43,055,48,32,48,268,44*7A
2017-12-01 14:30:33 1512156633.694416: $GPGSV,3,3,12,20,06,120,25,25,05,139,04,12,11,105,32,138,38,213,47*43
2017-12-01 14:30:33 1512156633.807531: $GPZDA,193034.00,01,12,2017,00,00*6C
2017-12-01 14:30:33 1512156633.807679: $GPGGA,193034,3946.9534,N,08404.9850,W,2,11,0.80,312.43,M,-33.324,M,,*77
2017-12-01 14:30:33 1512156633.807744: $GPRMC,193034,A,3946.9534,N,08404.9850,W,0.0000,0.000,011217,,*38
2017-12-01 14:30:33 1512156633.807805: $GPGSA,A,3,8,10,14,15,18,21,24,32,20,12,138,,2.0,0.8,1.5*32
2017-12-01 14:30:34 1512156634.358656: $GPZDA,193035.00,01,12,2017,00,00*6D
2017-12-01 14:30:34 1512156634.358826: $GPGGA,193035,3946.9538,N,08404.9849,W,2,11,0.80,311.67,M,-33.324,M,,*77
2017-12-01 14:30:34 1512156634.358893: $GPRMC,193035,A,3946.9538,N,08404.9849,W,0.0000,0.000,011217,,*3D
2017-12-01 14:30:34 1512156634.358953: $GPGSA,A,3,8,10,14,15,18,21,24,32,20,12,138,,2.0,0.8,1.5*32
2017-12-01 14:30:35 1512156635.360011: $GPZDA,193036.00,01,12,2017,00,00*6E
2017-12-01 14:30:35 1512156635.360189: $GPGGA,193036,3946.9538,N,08404.9849,W,2,11,0.80,311.67,M,-33.324,M,,*74
2017-12-01 14:30:35 1512156635.360257: $GPRMC,193036,A,3946.9538,N,08404.9849,W,0.0000,0.000,011217,,*3E
2017-12-01 14:30:35 1512156635.360318: $GPGSA,A,3,8,10,14,15,18,21,24,32,20,12,138,,2.0,0.8,1.5*32
2017-12-01 14:30:36 1512156636.695783: $GPGSV,3,1,12,08,05,291,27,10,72,336,48,14,31,256,42,15,09,067,31*7A
2017-12-01 14:30:36 1512156636.695961: $GPGSV,3,2,12,18,68,100,44,21,25,178,44,24,43,055,48,32,48,268,44*7B
2017-12-01 14:30:36 1512156636.696029: $GPGSV,3,3,12,20,06,120,25,25,05,139,04,12,11,105,32,138,38,213,46*42
2017-12-01 14:30:36 1512156636.809165: $GPZDA,193037.00,01,12,2017,00,00*6F
2017-12-01 14:30:36 1512156636.809345: $GPGGA,193037,3946.9538,N,08404.9849,W,2,11,0.80,311.67,M,-33.324,M,,*75
2017-12-01 14:30:36 1512156636.809414: $GPRMC,193037,A,3946.9538,N,08404.9849,W,0.0000,0.000,011217,,*3F
2017-12-01 14:30:36 1512156636.809474: $GPGSA,A,3,8,10,14,15,18,21,24,32,20,12,138,,2.0,0.8,1.5*32
2017-12-01 14:30:37 1512156637.360014: $GPZDA,193038.00,01,12,2017,00,00*60
2017-12-01 14:30:37 1512156637.360212: $GPGGA,193038,3946.9538,N,08404.9849,W,2,11,0.80,311.67,M,-33.324,M,,*7A
2017-12-01 14:30:37 1512156637.360280: $GPRMC,193038,A,3946.9538,N,08404.9849,W,0.0000,0.000,011217,,*30
2017-12-01 14:30:37 1512156637.360340: $GPGSA,A,3,8,10,14,15,18,21,24,32,20,12,138,,2.0,0.8,1.5*32
2017-12-01 14:30:38 1512156638.358449: $GPZDA,193039.00,01,12,2017,00,00*61
2017-12-01 14:30:38 1512156638.358632: $GPGGA,193039,3946.9538,N,08404.9849,W,2,11,0.80,311.67,M,-33.324,M,,*7B
2017-12-01 14:30:38 1512156638.358700: $GPRMC,193039,A,3946.9538,N,08404.9849,W,0.0000,0.000,011217,,*31
2017-12-01 14:30:38 1512156638.358761: $GPGSA,A,3,8,10,14,15,18,21,24,32,20,12,138,,2.0,0.8,1.5*32
2017-12-01 14:30:39 1512156639.696639: $GPGSV,3,1,12,08,05,291,34,10,72,336,48,14,31,256,42,15,09,067,31*78
2017-12-01 14:30:39 1512156639.696825: $GPGSV,3,2,12,18,68,100,44,21,25,178,44,24,43,055,49,32,48,268,44*7A
2017-12-01 14:30:39 1512156639.696892: $GPGSV,3,3,12,20,06,120,24,25,05,139,04,12,11,105,33,138,38,213,47*43
2017-12-01 14:30:39 1512156639.810223: $GPZDA,193040.00,01,12,2017,00,00*6F
2017-12-01 14:30:39 1512156639.810412: $GPGGA,193040,3946.9538,N,08404.9849,W,2,11,0.80,311.67,M,-33.324,M,,*75
2017-12-01 14:30:39 1512156639.810482: $GPRMC,193040,A,3946.9538,N,08404.9849,W,0.0000,0.000,011217,,*3F
2017-12-01 14:30:39 1512156639.810543: $GPGSA,A,3,8,10,14,15,18,21,24,32,20,12,138,,2.0,0.8,1.5*32
2017-12-01 14:30:40 1512156640.435451: $GPZDA,193041.00,01,12,2017,00,00*6E
2017-12-01 14:30:40 1512156640.435620: $GPGGA,193041,3946.9538,N,08404.9849,W,2,11,0.80,311.67,M,-33.324,M,,*74
2017-12-01 14:30:40 1512156640.435688: $GPRMC,193041,A,3946.9538,N,08404.9849,W,0.0000,0.000,011217,,*3E
2017-12-01 14:30:40 1512156640.435750: $GPGSA,A,3,8,10,14,15,18,21,24,32,20,12,138,,2.0,0.8,1.5*32
2017-12-01 14:30:41 1512156641.361254: $GPZDA,193042.00,01,12,2017,00,00*6D
2017-12-01 14:30:41 1512156641.361480: $GPGGA,193042,3946.9538,N,08404.9849,W,2,11,0.80,311.67,M,-33.324,M,,*77
2017-12-01 14:30:41 1512156641.361551: $GPRMC,193042,A,3946.9538,N,08404.9849,W,0.0000,0.000,011217,,*3D
2017-12-01 14:30:41 1512156641.361613: $GPGSA,A,3,8,10,14,15,18,21,24,32,20,12,138,,2.0,0.8,1.5*32
2017-12-01 14:30:42 1512156642.704618: $GPGSV,3,1,12,08,05,291,33,10,72,336,47,14,31,256,42,15,09,067,31*70
2017-12-01 14:30:42 1512156642.704807: $GPGSV,3,2,12,18,68,100,45,21,25,178,44,24,43,055,49,32,48,268,44*7B
2017-12-01 14:30:42 1512156642.704875: $GPGSV,3,3,12,20,06,120,23,25,05,139,07,12,11,105,34,138,38,213,48*4F
2017-12-01 14:30:42 1512156642.817929: $GPZDA,193043.00,01,12,2017,00,00*6C
2017-12-01 14:30:42 1512156642.818103: $GPGGA,193043,3946.9538,N,08404.9849,W,2,12,0.80,311.67,M,-33.324,M,,*75
2017-12-01 14:30:42 1512156642.818170: $GPRMC,193043,A,3946.9538,N,08404.9849,W,0.0000,0.000,011217,,*3C
2017-12-01 14:30:42 1512156642.818234: $GPGSA,A,3,8,10,14,15,18,21,24,32,20,25,12,138,2.0,0.8,1.5*35
2017-12-01 14:30:43 1512156643.362633: $GPZDA,193044.00,01,12,2017,00,00*6B
2017-12-01 14:30:43 1512156643.362805: $GPGGA,193044,3946.9538,N,08404.9849,W,2,12,0.80,311.67,M,-33.324,M,,*72
2017-12-01 14:30:43 1512156643.362873: $GPRMC,193044,A,3946.9538,N,08404.9849,W,0.0000,0.000,011217,,*3B
2017-12-01 14:30:43 1512156643.362935: $GPGSA,A,3,8,10,14,15,18,21,24,32,20,25,12,138,2.0,0.8,1.5*35
2017-12-01 14:30:44 1512156644.354702: $GPZDA,193045.00,01,12,2017,00,00*6A
2017-12-01 14:30:44 1512156644.354874: $GPGGA,193045,3946.9538,N,08404.9849,W,2,12,0.80,311.67,M,-33.324,M,,*73
2017-12-01 14:30:44 1512156644.354942: $GPRMC,193045,A,3946.9538,N,08404.9849,W,0.0000,0.000,011217,,*3A
2017-12-01 14:30:44 1512156644.355004: $GPGSA,A,3,8,10,14,15,18,21,24,32,20,25,12,138,2.0,0.8,1.5*35
2017-12-01 14:30:45 1512156645.694975: $GPGSV,3,1,12,08,05,291,33,10,72,336,47,14,31,256,43,15,09,067,31*71
2017-12-01 14:30:45 1512156645.695177: $GPGSV,3,2,12,18,68,100,45,21,25,178,45,24,43,055,49,32,48,268,44*7A
2017-12-01 14:30:45 1512156645.695245: $GPGSV,3,3,12,20,06,120,16,25,05,139,07,12,11,105,34,138,38,213,47*46
2017-12-01 14:30:45 1512156645.808607: $GPZDA,193046.00,01,12,2017,00,00*69
2017-12-01 14:30:45 1512156645.808759: $GPGGA,193046,3946.9538,N,08404.9849,W,2,12,0.80,311.67,M,-33.324,M,,*70
2017-12-01 14:30:45 1512156645.808827: $GPRMC,193046,A,3946.9538,N,08404.9849,W,0.0000,0.000,011217,,*39
2017-12-01 14:30:45 1512156645.808888: $GPGSA,A,3,8,10,14,15,18,21,24,32,20,25,12,138,2.0,0.8,1.5*35
2017-12-01 14:30:46 1512156646.359505: $GPZDA,193047.00,01,12,2017,00,00*68
2017-12-01 14:30:46 1512156646.359672: $GPGGA,193047,3946.9538,N,08404.9849,W,2,12,0.80,311.67,M,-33.324,M,,*71
2017-12-01 14:30:46 1512156646.359740: $GPRMC,193047,A,3946.9538,N,08404.9849,W,0.0000,0.000,011217,,*38
2017-12-01 14:30:46 1512156646.359801: $GPGSA,A,3,8,10,14,15,18,21,24,32,20,25,12,138,2.0,0.8,1.5*35
2017-12-01 14:30:47 1512156647.401266: $GPZDA,193048.00,01,12,2017,00,00*67
2017-12-01 14:30:47 1512156647.401501: $GPGGA,193048,3946.9538,N,08404.9849,W,2,12,0.80,311.67,M,-33.324,M,,*7E
2017-12-01 14:30:47 1512156647.401573: $GPRMC,193048,A,3946.9538,N,08404.9849,W,0.0000,0.000,011217,,*37
2017-12-01 14:30:47 1512156647.401634: $GPGSA,A,3,8,10,14,15,18,21,24,32,20,25,12,138,2.0,0.8,1.5*35
2017-12-01 14:30:48 1512156648.733437: $GPGSV,3,1,12,08,05,291,33,10,72,336,47,14,31,256,43,15,09,067,31*71
2017-12-01 14:30:48 1512156648.733637: $GPGSV,3,2,12,18,68,100,45,21,25,178,45,24,43,055,50,32,48,268,44*72
2017-12-01 14:30:48 1512156648.733706: $GPGSV,3,3,12,20,06,120,15,25,05,139,08,12,11,105,34,138,38,213,46*4B
2017-12-01 14:30:48 1512156648.847012: $GPZDA,193049.00,01,12,2017,00,00*66
2017-12-01 14:30:48 1512156648.847190: $GPGGA,193049,3946.9538,N,08404.9849,W,2,12,0.80,311.67,M,-33.324,M,,*7F
2017-12-01 14:30:48 1512156648.847257: $GPRMC,193049,A,3946.9538,N,08404.9849,W,0.0000,0.000,011217,,*36
2017-12-01 14:30:48 1512156648.847319: $GPGSA,A,3,8,10,14,15,18,21,24,32,20,25,12,138,2.0,0.8,1.5*35
2017-12-01 14:30:49 1512156649.397691: $GPZDA,193050.00,01,12,2017,00,00*6E
2017-12-01 14:30:49 1512156649.397870: $GPGGA,193050,3946.9538,N,08404.9849,W,2,12,0.80,311.67,M,-33.324,M,,*77
2017-12-01 14:30:49 1512156649.397938: $GPRMC,193050,A,3946.9538,N,08404.9849,W,0.0000,0.000,011217,,*3E
2017-12-01 14:30:49 1512156649.398000: $GPGSA,A,3,8,10,14,15,18,21,24,32,20,25,12,138,2.0,0.8,1.5*35
