2018-01-11 20:08:28 1515719308.541723: {"class":"VERSION","release":"3.16","rev":"3.16-4","proto_major":3,"proto_minor":11}
2018-01-11 20:08:28 1515719308.542059: {"class":"DEVICES","devices":[{"class":"DEVICE","path":"/dev/ttyUSB0","driver":"SiRF","subtype":"9\u0006GSD4e_4.1.2-P1_RPATCH.05-F-GPS-4R-1510281 11/03/2015 307","activated":"2018-01-12T01:08:28.505Z","flags":1,"native":1,"bps":4800,"parity":"N","stopbits":1,"cycle":1.00}]}
2018-01-11 20:08:28 1515719308.542174: {"class":"WATCH","enable":true,"json":false,"nmea":true,"raw":0,"scaled":false,"timing":false,"split24":false,"pps":false}
2018-01-11 20:08:29 1515719309.700313: $GPGSV,3,1,10,07,54,313,43,08,73,135,46,09,48,231,42,11,19,168,48*7B
2018-01-11 20:08:29 1515719309.700494: $GPGSV,3,2,10,16,24,060,47,23,30,190,47,27,48,054,50,28,13,258,36*7B
2018-01-11 20:08:29 1515719309.700560: $GPGSV,3,3,10,30,28,306,34,138,38,213,46*40
2018-01-11 20:08:29 1515719309.813932: $GPZDA,010830.00,12,01,2018,00,00*65
2018-01-11 20:08:29 1515719309.814075: $GPGGA,010830,3946.9593,N,08404.9875,W,2,10,0.80,302.61,M,-33.324,M,,*7B
2018-01-11 20:08:29 1515719309.814141: $GPRMC,010830,A,3946.9593,N,08404.9875,W,0.0000,0.000,120118,,*3B
2018-01-11 20:08:29 1515719309.814202: $GPGSA,A,3,7,8,9,11,16,23,27,28,30,138,,,4.0,0.8,3.5*3E
2018-01-11 20:08:30 1515719310.439520: $GPZDA,010831.00,12,01,2018,00,00*64
2018-01-11 20:08:30 1515719310.439720: $GPGGA,010831,3946.9593,N,08404.9875,W,2,10,0.80,302.61,M,-33.324,M,,*7A
2018-01-11 20:08:30 1515719310.439788: $GPRMC,010831,A,3946.9593,N,08404.9875,W,0.0000,0.000,120118,,*3A
2018-01-11 20:08:30 1515719310.439849: $GPGSA,A,3,7,8,9,11,16,23,27,28,30,138,,,4.0,0.8,3.5*3E
2018-01-11 20:08:31 1515719311.365127: $GPZDA,010832.00,12,01,2018,00,00*67
2018-01-11 20:08:31 1515719311.365288: $GPGGA,010832,3946.9593,N,08404.9875,W,2,10,0.80,302.61,M,-33.324,M,,*79
2018-01-11 20:08:31 1515719311.365356: $GPRMC,010832,A,3946.9593,N,08404.9875,W,0.0000,0.000,120118,,*39
2018-01-11 20:08:31 1515719311.365416: $GPGSA,A,3,7,8,9,11,16,23,27,28,30,138,,,4.0,0.8,3.5*3E
2018-01-11 20:08:32 1515719312.700716: $GPGSV,3,1,10,07,54,313,44,08,73,135,46,09,48,231,42,11,19,168,48*7C
2018-01-11 20:08:32 1515719312.700895: $GPGSV,3,2,10,16,24,060,47,23,30,190,47,27,48,054,50,28,13,258,36*7B
2018-01-11 20:08:32 1515719312.700961: $GPGSV,3,3,10,30,28,306,34,138,38,213,46*40
2018-01-11 20:08:32 1515719312.814460: $GPZDA,010833.00,12,01,2018,00,00*66
2018-01-11 20:08:32 1515719312.814618: $GPGGA,010833,3946.9593,N,08404.9875,W,2,10,0.80,302.61,M,-33.324,M,,*78
2018-01-11 20:08:32 1515719312.814701: $GPRMC,010833,A,3946.9593,N,08404.9875,W,0.0000,0.000,120118,,*38
2018-01-11 20:08:32 1515719312.814763: $GPGSA,A,3,7,8,9,11,16,23,27,28,30,138,,,4.0,0.8,3.5*3E
2018-01-11 20:08:33 1515719313.359015: $GPZDA,010834.00,12,01,2018,00,00*61
2018-01-11 20:08:33 1515719313.359214: $GPGGA,010834,3946.9589,N,08404.9869,W,2,10,0.80,303.46,M,-33.324,M,,*7D
2018-01-11 20:08:33 1515719313.359280: $GPRMC,010834,A,3946.9589,N,08404.9869,W,0.4207,219.346,120118,,*33
2018-01-11 20:08:33 1515719313.359341: $GPGSA,A,3,7,8,9,11,16,23,27,28,30,138,,,4.0,0.8,3.5*3E
2018-01-11 20:08:34 1515719314.359798: $GPZDA,010835.00,12,01,2018,00,00*60
2018-01-11 20:08:34 1515719314.359958: $GPGGA,010835,3946.9589,N,08404.9869,W,2,10,0.80,303.46,M,-33.324,M,,*7C
2018-01-11 20:08:34 1515719314.360025: $GPRMC,010835,A,3946.9589,N,08404.9869,W,0.1867,0.000,120118,,*30
2018-01-11 20:08:34 1515719314.360086: $GPGSA,A,3,7,8,9,11,16,23,27,28,30,138,,,4.0,0.8,3.5*3E
2018-01-11 20:08:35 1515719315.693532: $GPGSV,3,1,10,07,54,313,44,08,73,135,45,09,48,231,41,11,19,168,47*73
2018-01-11 20:08:35 1515719315.784708: $GPGSV,3,2,10,16,24,060,46,23,30,190,46,27,48,054,49,28,13,258,36*73
2018-01-11 20:08:35 1515719315.784824: $GPGSV,3,3,10,30,28,306,33,138,38,213,45*44
2018-01-11 20:08:35 1515719315.806988: $GPZDA,010836.00,12,01,2018,00,00*63
2018-01-11 20:08:35 1515719315.807132: $GPGGA,010836,3946.9584,N,08404.9862,W,2,10,0.80,302.90,M,-33.324,M,,*73
2018-01-11 20:08:35 1515719315.807197: $GPRMC,010836,A,3946.9584,N,08404.9862,W,0.0000,0.000,120118,,*3D
2018-01-11 20:08:35 1515719315.807310: $GPGSA,A,3,7,8,9,11,16,23,27,28,30,138,,,4.0,0.8,3.5*3E
2018-01-11 20:08:36 1515719316.359157: $GPZDA,010837.00,12,01,2018,00,00*62
2018-01-11 20:08:36 1515719316.359308: $GPGGA,010837,3946.9584,N,08404.9862,W,2,10,0.80,302.90,M,-33.324,M,,*72
2018-01-11 20:08:36 1515719316.359373: $GPRMC,010837,A,3946.9584,N,08404.9862,W,0.0000,0.000,120118,,*3C
2018-01-11 20:08:36 1515719316.359434: $GPGSA,A,3,7,8,9,11,16,23,27,28,30,138,,,4.0,0.8,3.5*3E
2018-01-11 20:08:37 1515719317.360088: $GPZDA,010838.00,12,01,2018,00,00*6D
2018-01-11 20:08:37 1515719317.360249: $GPGGA,010838,3946.9584,N,08404.9862,W,2,10,0.80,302.90,M,-33.324,M,,*7D
2018-01-11 20:08:37 1515719317.360315: $GPRMC,010838,A,3946.9584,N,08404.9862,W,0.0000,0.000,120118,,*33
2018-01-11 20:08:37 1515719317.360376: $GPGSA,A,3,7,8,9,11,16,23,27,28,30,138,,,4.0,0.8,3.5*3E
2018-01-11 20:08:38 1515719318.695658: $GPGSV,3,1,10,07,54,313,44,08,73,135,46,09,48,231,42,11,19,168,47*73
2018-01-11 20:08:38 1515719318.695837: $GPGSV,3,2,10,16,24,060,47,23,30,190,47,27,48,054,49,28,13,258,36*73
2018-01-11 20:08:38 1515719318.695904: $GPGSV,3,3,10,30,28,306,33,138,38,213,45*44
2018-01-11 20:08:38 1515719318.809077: $GPZDA,010839.00,12,01,2018,00,00*6C
2018-01-11 20:08:38 1515719318.809225: $GPGGA,010839,3946.9584,N,08404.9862,W,2,10,0.80,302.90,M,-33.324,M,,*7C
2018-01-11 20:08:38 1515719318.809291: $GPRMC,010839,A,3946.9584,N,08404.9862,W,0.0000,0.000,120118,,*32
2018-01-11 20:08:38 1515719318.809352: $GPGSA,A,3,7,8,9,11,16,23,27,28,30,138,,,4.0,0.8,3.5*3E
2018-01-11 20:08:39 1515719319.359931: $GPZDA,010840.00,12,01,2018,00,00*62
2018-01-11 20:08:39 1515719319.360081: $GPGGA,010840,3946.9584,N,08404.9862,W,2,10,0.80,302.90,M,-33.324,M,,*72
2018-01-11 20:08:39 1515719319.360146: $GPRMC,010840,A,3946.9584,N,08404.9862,W,0.0000,0.000,120118,,*3C
2018-01-11 20:08:39 1515719319.360207: $GPGSA,A,3,7,8,9,11,16,23,27,28,30,138,,,4.0,0.8,3.5*3E
