2017-12-01 15:40:49 1512160849.056789: {"class":"VERSION","release":"3.16","rev":"3.16-4","proto_major":3,"proto_minor":11}
2017-12-01 15:40:49 1512160849.057323: {"class":"DEVICES","devices":[{"class":"DEVICE","path":"/dev/ttyUSB0","driver":"SiRF","subtype":"9\u0006GSD4e_4.1.2-P1_RPATCH.05-F-GPS-4R-1510281 11/03/2015 307","activated":"2017-12-01T20:40:48.668Z","flags":1,"native":1,"bps":4800,"parity":"N","stopbits":1,"cycle":1.00}]}
2017-12-01 15:40:49 1512160849.057443: {"class":"WATCH","enable":true,"json":false,"nmea":true,"raw":0,"scaled":false,"timing":false,"split24":false,"pps":false}
2017-12-01 15:40:49 1512160849.357115: $GPZDA,204050.00,01,12,2017,00,00*63
2017-12-01 15:40:49 1512160849.357322: $GPGGA,204050,3946.9579,N,08404.9847,W,2,11,0.80,301.01,M,-33.324,M,,*73
2017-12-01 15:40:49 1512160849.357389: $GPRMC,204050,A,3946.9579,N,08404.9847,W,0.0000,0.000,011217,,*38
2017-12-01 15:40:49 1512160849.357451: $GPGSA,A,3,1,10,11,12,14,18,24,25,31,32,138,,2.0,0.8,1.5*3B
2017-12-01 15:40:50 1512160850.687844: $GPGSV,3,1,12,01,13,319,42,10,72,129,48,11,10,303,37,12,25,073,42*77
2017-12-01 15:40:50 1512160850.688050: $GPGSV,3,2,12,14,53,289,42,18,39,133,46,24,16,045,45,25,28,117,43*71
2017-12-01 15:40:50 1512160850.688118: $GPGSV,3,3,12,31,33,211,49,32,67,324,49,22,01,310,00,138,38,213,46*4F
2017-12-01 15:40:50 1512160850.801461: $GPZDA,204051.00,01,12,2017,00,00*62
2017-12-01 15:40:50 1512160850.801589: $GPGGA,204051,3946.9579,N,08404.9847,W,2,11,0.80,301.01,M,-33.324,M,,*72
2017-12-01 15:40:50 1512160850.801654: $GPRMC,204051,A,3946.9579,N,08404.9847,W,0.0000,0.000,011217,,*39
2017-12-01 15:40:50 1512160850.801714: $GPGSA,A,3,1,10,11,12,14,18,24,25,31,32,138,,2.0,0.8,1.5*3B
2017-12-01 15:40:51 1512160851.352769: $GPZDA,204052.00,01,12,2017,00,00*61
2017-12-01 15:40:51 1512160851.352941: $GPGGA,204052,3946.9575,N,08404.9848,W,2,11,0.80,301.77,M,-33.324,M,,*73
2017-12-01 15:40:51 1512160851.353046: $GPRMC,204052,A,3946.9575,N,08404.9848,W,0.0000,0.000,011217,,*39
2017-12-01 15:40:51 1512160851.353171: $GPGSA,A,3,1,10,11,12,14,18,24,25,31,32,138,,2.0,0.8,1.5*3B
2017-12-01 15:40:52 1512160852.352193: $GPZDA,204053.00,01,12,2017,00,00*60
2017-12-01 15:40:52 1512160852.352364: $GPGGA,204053,3946.9575,N,08404.9848,W,2,11,0.80,301.77,M,-33.324,M,,*72
2017-12-01 15:40:52 1512160852.352431: $GPRMC,204053,A,3946.9575,N,08404.9848,W,0.0000,0.000,011217,,*38
2017-12-01 15:40:52 1512160852.352492: $GPGSA,A,3,1,10,11,12,14,18,24,25,31,32,138,,2.0,0.8,1.5*3B
2017-12-01 15:40:53 1512160853.690067: $GPGSV,3,1,12,01,13,319,42,10,72,129,48,11,10,303,37,12,25,073,41*74
2017-12-01 15:40:53 1512160853.690302: $GPGSV,3,2,12,14,53,289,42,18,39,133,46,24,16,045,45,25,28,117,42*70
2017-12-01 15:40:53 1512160853.690369: $GPGSV,3,3,12,31,33,211,49,32,67,324,49,22,01,310,00,138,38,213,45*4C
2017-12-01 15:40:53 1512160853.803602: $GPZDA,204054.00,01,12,2017,00,00*67
2017-12-01 15:40:53 1512160853.803770: $GPGGA,204054,3946.9575,N,08404.9848,W,2,11,0.80,301.77,M,-33.324,M,,*75
2017-12-01 15:40:53 1512160853.803836: $GPRMC,204054,A,3946.9575,N,08404.9848,W,0.0000,0.000,011217,,*3F
2017-12-01 15:40:53 1512160853.803898: $GPGSA,A,3,1,10,11,12,14,18,24,25,31,32,138,,2.0,0.8,1.5*3B
2017-12-01 15:40:54 1512160854.429974: $GPZDA,204055.00,01,12,2017,00,00*66
2017-12-01 15:40:54 1512160854.430198: $GPGGA,204055,3946.9575,N,08404.9848,W,2,11,0.80,301.77,M,-33.324,M,,*74
2017-12-01 15:40:54 1512160854.430266: $GPRMC,204055,A,3946.9575,N,08404.9848,W,0.0000,0.000,011217,,*3E
2017-12-01 15:40:54 1512160854.430327: $GPGSA,A,3,1,10,11,12,14,18,24,25,31,32,138,,2.0,0.8,1.5*3B
2017-12-01 15:40:55 1512160855.352183: $GPZDA,204056.00,01,12,2017,00,00*65
2017-12-01 15:40:55 1512160855.352352: $GPGGA,204056,3946.9575,N,08404.9848,W,2,11,0.80,301.77,M,-33.324,M,,*77
2017-12-01 15:40:55 1512160855.352418: $GPRMC,204056,A,3946.9575,N,08404.9848,W,0.0000,0.000,011217,,*3D
2017-12-01 15:40:55 1512160855.352501: $GPGSA,A,3,1,10,11,12,14,18,24,25,31,32,138,,2.0,0.8,1.5*3B
2017-12-01 15:40:56 1512160856.689071: $GPGSV,3,1,12,01,13,319,42,10,72,129,47,11,10,303,39,12,25,073,40*74
2017-12-01 15:40:56 1512160856.689346: $GPGSV,3,2,12,14,53,289,42,18,39,133,47,24,16,045,45,25,28,117,42*71
2017-12-01 15:40:56 1512160856.689415: $GPGSV,3,3,12,31,33,211,49,32,67,324,48,22,01,310,00,138,38,213,46*4E
2017-12-01 15:40:56 1512160856.802585: $GPZDA,204057.00,01,12,2017,00,00*64
2017-12-01 15:40:56 1512160856.802743: $GPGGA,204057,3946.9575,N,08404.9848,W,2,11,0.80,301.77,M,-33.324,M,,*76
2017-12-01 15:40:56 1512160856.802812: $GPRMC,204057,A,3946.9575,N,08404.9848,W,0.0000,0.000,011217,,*3C
2017-12-01 15:40:56 1512160856.802873: $GPGSA,A,3,1,10,11,12,14,18,24,25,31,32,138,,2.0,0.8,1.5*3B
2017-12-01 15:40:57 1512160857.353631: $GPZDA,204058.00,01,12,2017,00,00*6B
2017-12-01 15:40:57 1512160857.353803: $GPGGA,204058,3946.9575,N,08404.9848,W,2,11,0.80,301.77,M,-33.324,M,,*79
2017-12-01 15:40:57 1512160857.353869: $GPRMC,204058,A,3946.9575,N,08404.9848,W,0.0000,0.000,011217,,*33
2017-12-01 15:40:57 1512160857.353930: $GPGSA,A,3,1,10,11,12,14,18,24,25,31,32,138,,2.0,0.8,1.5*3B
2017-12-01 15:40:58 1512160858.352935: $GPZDA,204059.00,01,12,2017,00,00*6A
2017-12-01 15:40:58 1512160858.353155: $GPGGA,204059,3946.9575,N,08404.9848,W,2,11,0.80,301.77,M,-33.324,M,,*78
2017-12-01 15:40:58 1512160858.353245: $GPRMC,204059,A,3946.9575,N,08404.9848,W,0.0000,0.000,011217,,*32
2017-12-01 15:40:58 1512160858.353309: $GPGSA,A,3,1,10,11,12,14,18,24,25,31,32,138,,2.0,0.8,1.5*3B
2017-12-01 15:40:59 1512160859.689537: $GPGSV,3,1,12,01,13,319,42,10,72,129,47,11,10,303,38,12,25,073,40*75
2017-12-01 15:40:59 1512160859.689730: $GPGSV,3,2,12,14,53,289,42,18,39,133,47,24,16,045,45,25,28,117,42*71
2017-12-01 15:40:59 1512160859.689796: $GPGSV,3,3,12,31,33,211,49,32,67,324,48,22,01,310,00,138,38,213,45*4D
2017-12-01 15:40:59 1512160859.802835: $GPZDA,204100.00,01,12,2017,00,00*67
2017-12-01 15:40:59 1512160859.803044: $GPGGA,204100,3946.9575,N,08404.9848,W,2,11,0.80,301.77,M,-33.324,M,,*75
2017-12-01 15:40:59 1512160859.803128: $GPRMC,204100,A,3946.9575,N,08404.9848,W,0.0000,0.000,011217,,*3F
2017-12-01 15:40:59 1512160859.803191: $GPGSA,A,3,1,10,11,12,14,18,24,25,31,32,138,,2.0,0.8,1.5*3B
2017-12-01 15:41:00 1512160860.352534: $GPZDA,204101.00,01,12,2017,00,00*66
2017-12-01 15:41:00 1512160860.352711: $GPGGA,204101,3946.9579,N,08404.9841,W,2,11,0.80,302.49,M,-33.324,M,,*7F
2017-12-01 15:41:00 1512160860.352777: $GPRMC,204101,A,3946.9579,N,08404.9841,W,0.0000,0.000,011217,,*3B
2017-12-01 15:41:00 1512160860.352838: $GPGSA,A,3,1,10,11,12,14,18,24,25,31,32,138,,2.0,0.8,1.5*3B
2017-12-01 15:41:01 1512160861.869287: $GPZDA,204102.00,01,12,2017,00,00*65
2017-12-01 15:41:01 1512160861.869456: $GPGGA,204102,3946.9575,N,08404.9841,W,2,11,0.80,301.85,M,-33.324,M,,*73
2017-12-01 15:41:01 1512160861.869523: $GPRMC,204102,A,3946.9575,N,08404.9841,W,0.0000,0.000,011217,,*34
2017-12-01 15:41:01 1512160861.869584: $GPGSA,A,3,1,10,11,12,14,18,24,25,31,32,138,,2.0,0.8,1.5*3B
2017-12-01 15:41:02 1512160862.687430: $GPGSV,3,1,12,01,13,319,41,10,71,129,48,11,10,303,38,12,25,073,40*7A
2017-12-01 15:41:02 1512160862.687629: $GPGSV,3,2,12,14,53,289,42,18,39,133,47,24,15,045,45,25,28,117,42*72
2017-12-01 15:41:02 1512160862.687697: $GPGSV,3,3,12,31,33,211,49,32,67,325,48,22,01,310,00,138,38,213,46*4F
2017-12-01 15:41:02 1512160862.801111: $GPZDA,204103.00,01,12,2017,00,00*64
2017-12-01 15:41:02 1512160862.801258: $GPGGA,204103,3946.9575,N,08404.9841,W,2,11,0.80,301.85,M,-33.324,M,,*72
2017-12-01 15:41:02 1512160862.801323: $GPRMC,204103,A,3946.9575,N,08404.9841,W,0.0000,0.000,011217,,*35
2017-12-01 15:41:02 1512160862.801459: $GPGSA,A,3,1,10,11,12,14,18,24,25,31,32,138,,2.0,0.8,1.5*3B
2017-12-01 15:41:03 1512160863.354250: $GPZDA,204104.00,01,12,2017,00,00*63
2017-12-01 15:41:03 1512160863.354470: $GPGGA,204104,3946.9575,N,08404.9841,W,2,11,0.80,301.85,M,-33.324,M,,*75
2017-12-01 15:41:03 1512160863.354565: $GPRMC,204104,A,3946.9575,N,08404.9841,W,0.0000,0.000,011217,,*32
2017-12-01 15:41:03 1512160863.354633: $GPGSA,A,3,1,10,11,12,14,18,24,25,31,32,138,,2.0,0.8,1.5*3B
2017-12-01 15:41:04 1512160864.353468: $GPZDA,204105.00,01,12,2017,00,00*62
2017-12-01 15:41:04 1512160864.353691: $GPGGA,204105,3946.9575,N,08404.9841,W,2,11,0.80,301.85,M,-33.324,M,,*74
2017-12-01 15:41:04 1512160864.353759: $GPRMC,204105,A,3946.9575,N,08404.9841,W,0.0000,0.000,011217,,*33
2017-12-01 15:41:04 1512160864.353820: $GPGSA,A,3,1,10,11,12,14,18,24,25,31,32,138,,2.0,0.8,1.5*3B
2017-12-01 15:41:05 1512160865.690372: $GPGSV,3,1,12,01,13,319,42,10,71,129,48,11,10,303,38,12,25,073,40*79
2017-12-01 15:41:05 1512160865.690556: $GPGSV,3,2,12,14,53,289,42,18,39,133,47,24,15,045,45,25,28,117,42*72
2017-12-01 15:41:05 1512160865.690623: $GPGSV,3,3,12,31,33,211,50,32,67,325,49,22,01,310,00,138,38,213,46*46
2017-12-01 15:41:05 1512160865.803930: $GPZDA,204106.00,01,12,2017,00,00*61
2017-12-01 15:41:05 1512160865.804137: $GPGGA,204106,3946.9575,N,08404.9841,W,2,11,0.80,301.85,M,-33.324,M,,*77
2017-12-01 15:41:05 1512160865.804204: $GPRMC,204106,A,3946.9575,N,08404.9841,W,0.0000,0.000,011217,,*30
2017-12-01 15:41:05 1512160865.804265: $GPGSA,A,3,1,10,11,12,14,18,24,25,31,32,138,,2.0,0.8,1.5*3B
2017-12-01 15:41:06 1512160866.353567: $GPZDA,204107.00,01,12,2017,00,00*60
2017-12-01 15:41:06 1512160866.353739: $GPGGA,204107,3946.9575,N,08404.9841,W,2,11,0.80,301.85,M,-33.324,M,,*76
2017-12-01 15:41:06 1512160866.353805: $GPRMC,204107,A,3946.9575,N,08404.9841,W,0.0000,0.000,011217,,*31
2017-12-01 15:41:06 1512160866.353866: $GPGSA,A,3,1,10,11,12,14,18,24,25,31,32,138,,2.0,0.8,1.5*3B
2017-12-01 15:41:07 1512160867.355759: $GPZDA,204108.00,01,12,2017,00,00*6F
2017-12-01 15:41:07 1512160867.355932: $GPGGA,204108,3946.9575,N,08404.9841,W,2,11,0.80,301.85,M,-33.324,M,,*79
2017-12-01 15:41:07 1512160867.356023: $GPRMC,204108,A,3946.9575,N,08404.9841,W,0.0000,0.000,011217,,*3E
2017-12-01 15:41:07 1512160867.356102: $GPGSA,A,3,1,10,11,12,14,18,24,25,31,32,138,,2.0,0.8,1.5*3B
2017-12-01 15:41:08 1512160868.687423: $GPGSV,3,1,12,01,13,319,41,10,71,129,48,11,10,303,38,12,25,073,40*7A
2017-12-01 15:41:08 1512160868.687659: $GPGSV,3,2,12,14,53,289,42,18,39,133,47,24,15,045,46,25,28,117,42*71
2017-12-01 15:41:08 1512160868.687732: $GPGSV,3,3,12,31,33,211,49,32,67,325,49,22,01,310,00,138,38,213,45*4D
2017-12-01 15:41:08 1512160868.801032: $GPZDA,204109.00,01,12,2017,00,00*6E
2017-12-01 15:41:08 1512160868.801217: $GPGGA,204109,3946.9575,N,08404.9841,W,2,11,0.80,301.85,M,-33.324,M,,*78
2017-12-01 15:41:08 1512160868.801284: $GPRMC,204109,A,3946.9575,N,08404.9841,W,0.0000,0.000,011217,,*3F
2017-12-01 15:41:08 1512160868.801389: $GPGSA,A,3,1,10,11,12,14,18,24,25,31,32,138,,2.0,0.8,1.5*3B
