2017-11-15 19:06:27 1510790787.032178: {"class":"VERSION","release":"3.17","rev":"3.17","proto_major":3,"proto_minor":12}
2017-11-15 19:06:27 1510790787.032659: {"class":"DEVICES","devices":[{"class":"DEVICE","path":"/dev/ttyUSB0","driver":"SiRF","subtype":"9\u0006GSD4e_4.1.2-P1_RPATCH.05-F-GPS-4R-1510281 11/03/2015 307","activated":"2017-11-16T00:06:26.470Z","flags":1,"native":1,"bps":4800,"parity":"N","stopbits":1,"cycle":1.00}]}
2017-11-15 19:06:27 1510790787.032778: {"class":"WATCH","enable":true,"json":false,"nmea":true,"raw":0,"scaled":false,"timing":false,"split24":false,"pps":false}
2017-11-15 19:06:27 1510790787.665134: $GPGSV,3,1,12,32,44,097,14,14,62,076,25,29,07,081,13,26,42,175,25*74
2017-11-15 19:06:27 1510790787.665309: $GPGSV,3,2,12,31,75,001,22,16,12,190,17,22,48,286,18,03,33,309,00*70
2017-11-15 19:06:27 1510790787.665370: $GPGSV,3,3,12,25,25,045,00,01,11,261,00,10,07,159,00,138,38,213,00*45
2017-11-15 19:06:27 1510790787.778447: $GPZDA,000626.00,16,11,2017,00,00*67
2017-11-15 19:06:27 1510790787.778662: $GPGGA,000626,3946.9637,N,08404.9524,W,1,06,2.00,299.12,M,-33.324,M,,*7E
2017-11-15 19:06:27 1510790787.778744: $GPRMC,000626,A,3946.9637,N,08404.9524,W,0.8054,68.645,161117,,*0D
2017-11-15 19:06:27 1510790787.778803: $GPGSA,A,3,32,14,26,31,16,22,,,,,,,3.4,2.0,2.9*39
2017-11-15 19:06:28 1510790788.328147: $GPZDA,000627.00,16,11,2017,00,00*66
2017-11-15 19:06:28 1510790788.328341: $GPGGA,000627,3946.9637,N,08404.9524,W,1,06,2.00,299.12,M,-33.324,M,,*7F
2017-11-15 19:06:28 1510790788.328404: $GPRMC,000627,A,3946.9637,N,08404.9524,W,0.7267,93.794,161117,,*08
2017-11-15 19:06:28 1510790788.328464: $GPGSA,A,3,32,14,26,31,16,22,,,,,,,3.4,2.0,2.9*39
2017-11-15 19:06:29 1510790789.327779: $GPZDA,000628.00,16,11,2017,00,00*69
2017-11-15 19:06:29 1510790789.327981: $GPGGA,000628,3946.9636,N,08404.9517,W,1,06,2.00,299.20,M,-33.324,M,,*70
2017-11-15 19:06:29 1510790789.328046: $GPRMC,000628,A,3946.9636,N,08404.9517,W,0.9689,93.794,161117,,*0C
2017-11-15 19:06:29 1510790789.328105: $GPGSA,A,3,32,14,26,31,16,22,,,,,,,3.4,2.0,2.9*39
2017-11-15 19:06:30 1510790790.663580: $GPGSV,3,1,12,32,44,097,17,14,62,076,25,29,07,081,13,26,42,175,24*76
2017-11-15 19:06:30 1510790790.663837: $GPGSV,3,2,12,31,75,001,22,16,12,190,17,22,48,286,18,03,33,309,00*70
2017-11-15 19:06:30 1510790790.663939: $GPGSV,3,3,12,25,25,045,00,01,11,261,00,10,07,159,00,138,38,213,00*45
2017-11-15 19:06:30 1510790790.776893: $GPZDA,000629.00,16,11,2017,00,00*68
2017-11-15 19:06:30 1510790790.777054: $GPGGA,000629,3946.9636,N,08404.9517,W,1,07,2.00,299.20,M,-33.324,M,,*70
2017-11-15 19:06:30 1510790790.777115: $GPRMC,000629,A,3946.9636,N,08404.9517,W,0.8011,119.090,161117,,*3B
2017-11-15 19:06:30 1510790790.777190: $GPGSA,A,3,32,14,29,26,31,16,22,,,,,,3.4,2.0,2.9*32
2017-11-15 19:06:31 1510790791.402288: $GPZDA,000630.00,16,11,2017,00,00*60
2017-11-15 19:06:31 1510790791.402450: $GPGGA,000630,3946.9636,N,08404.9517,W,1,07,2.00,299.20,M,-33.324,M,,*78
2017-11-15 19:06:31 1510790791.402510: $GPRMC,000630,A,3946.9636,N,08404.9517,W,0.8709,183.298,161117,,*34
2017-11-15 19:06:31 1510790791.402585: $GPGSA,A,3,32,14,29,26,31,16,22,,,,,,3.4,2.0,2.9*32
2017-11-15 19:06:32 1510790792.329449: $GPZDA,000631.00,16,11,2017,00,00*61
2017-11-15 19:06:32 1510790792.329610: $GPGGA,000631,3946.9633,N,08404.9518,W,1,07,2.00,299.96,M,-33.324,M,,*7E
2017-11-15 19:06:32 1510790792.329672: $GPRMC,000631,A,3946.9633,N,08404.9518,W,0.3423,184.197,161117,,*34
2017-11-15 19:06:32 1510790792.329730: $GPGSA,A,3,32,14,29,26,31,16,22,,,,,,3.4,2.0,2.9*32
2017-11-15 19:06:33 1510790793.665118: $GPGSV,3,1,12,32,44,097,17,14,62,076,25,29,07,081,12,26,42,175,24*77
2017-11-15 19:06:33 1510790793.665291: $GPGSV,3,2,12,31,75,001,22,16,12,190,16,22,48,286,18,03,33,309,00*71
2017-11-15 19:06:33 1510790793.665351: $GPGSV,3,3,12,25,25,045,00,01,11,261,00,10,07,159,00,138,38,213,00*45
2017-11-15 19:06:33 1510790793.778427: $GPZDA,000632.00,16,11,2017,00,00*62
2017-11-15 19:06:33 1510790793.778572: $GPGGA,000632,3946.9633,N,08404.9518,W,1,07,2.00,299.96,M,-33.324,M,,*7D
2017-11-15 19:06:33 1510790793.778704: $GPRMC,000632,A,3946.9633,N,08404.9518,W,0.2422,273.794,161117,,*39
2017-11-15 19:06:33 1510790793.778764: $GPGSA,A,3,32,14,29,26,31,16,22,,,,,,3.4,2.0,2.9*32
2017-11-15 19:06:34 1510790794.329309: $GPZDA,000633.00,16,11,2017,00,00*63
2017-11-15 19:06:34 1510790794.329457: $GPGGA,000633,3946.9633,N,08404.9518,W,1,07,2.00,299.96,M,-33.324,M,,*7C
2017-11-15 19:06:34 1510790794.329535: $GPRMC,000633,A,3946.9633,N,08404.9518,W,0.4844,93.794,161117,,*0E
2017-11-15 19:06:34 1510790794.329592: $GPGSA,A,3,32,14,29,26,31,16,22,,,,,,3.4,2.0,2.9*32
2017-11-15 19:06:35 1510790795.330353: $GPZDA,000634.00,16,11,2017,00,00*64
2017-11-15 19:06:35 1510790795.330522: $GPGGA,000634,3946.9640,N,08404.9517,W,1,07,1.20,299.84,M,-33.324,M,,*72
2017-11-15 19:06:35 1510790795.330582: $GPRMC,000634,A,3946.9640,N,08404.9517,W,0.5230,76.444,161117,,*0F
2017-11-15 19:06:35 1510790795.330640: $GPGSA,A,3,32,14,29,26,31,16,22,,,,,,3.4,1.2,2.9*33
2017-11-15 19:06:36 1510790796.681920: $GPGSV,3,1,12,32,44,097,18,14,62,076,25,29,07,081,11,26,42,175,24*7B
2017-11-15 19:06:36 1510790796.682111: $GPGSV,3,2,12,31,75,001,22,16,12,190,16,22,48,286,19,03,33,309,00*70
2017-11-15 19:06:36 1510790796.682178: $GPGSV,3,3,12,25,25,045,00,01,11,261,00,10,07,159,00,138,38,213,00*45
2017-11-15 19:06:36 1510790796.795148: $GPZDA,000635.00,16,11,2017,00,00*65
2017-11-15 19:06:36 1510790796.795308: $GPGGA,000635,3946.9637,N,08404.9518,W,1,07,2.00,300.60,M,-33.324,M,,*76
2017-11-15 19:06:36 1510790796.795373: $GPRMC,000635,A,3946.9637,N,08404.9518,W,0.8011,119.090,161117,,*38
2017-11-15 19:06:36 1510790796.795433: $GPGSA,A,3,32,14,29,26,31,16,22,,,,,,3.4,2.0,2.9*32
