2017-12-01 13:49:42 1512154182.106934: {"class":"VERSION","release":"3.16","rev":"3.16-4","proto_major":3,"proto_minor":11}
2017-12-01 13:49:42 1512154182.107338: {"class":"DEVICES","devices":[{"class":"DEVICE","path":"/dev/ttyUSB0","driver":"SiRF","subtype":"9\u0006GSD4e_4.1.2-P1_RPATCH.05-F-GPS-4R-1510281 11/03/2015 307","activated":"2017-12-01T18:49:41.931Z","flags":1,"native":1,"bps":4800,"parity":"N","stopbits":1,"cycle":1.00}]}
2017-12-01 13:49:42 1512154182.107461: {"class":"WATCH","enable":true,"json":false,"nmea":true,"raw":0,"scaled":false,"timing":false,"split24":false,"pps":false}
2017-12-01 13:49:42 1512154182.342756: $GPZDA,184943.00,01,12,2017,00,00*63
2017-12-01 13:49:42 1512154182.342959: $GPGGA,184943,3946.9567,N,08404.9828,W,2,11,0.80,303.54,M,-33.324,M,,*77
2017-12-01 13:49:42 1512154182.343066: $GPRMC,184943,A,3946.9567,N,08404.9828,W,0.0000,0.000,011217,,*3E
2017-12-01 13:49:42 1512154182.343134: $GPGSA,A,3,10,14,15,18,20,21,24,27,32,8,138,,2.0,0.8,1.5*34
2017-12-01 13:49:43 1512154183.340856: $GPZDA,184944.00,01,12,2017,00,00*64
2017-12-01 13:49:43 1512154183.341032: $GPGGA,184944,3946.9567,N,08404.9828,W,2,11,0.80,303.54,M,-33.324,M,,*70
2017-12-01 13:49:43 1512154183.341102: $GPRMC,184944,A,3946.9567,N,08404.9828,W,0.0000,0.000,011217,,*39
2017-12-01 13:49:43 1512154183.341167: $GPGSA,A,3,10,14,15,18,20,21,24,27,32,8,138,,2.0,0.8,1.5*34
2017-12-01 13:49:44 1512154184.674297: $GPGSV,3,1,11,10,55,315,49,14,17,243,38,15,23,058,47,18,77,039,42*73
2017-12-01 13:49:44 1512154184.674502: $GPGSV,3,2,11,20,20,108,43,21,45,181,44,24,52,079,48,27,14,273,39*73
2017-12-01 13:49:44 1512154184.674571: $GPGSV,3,3,11,32,34,250,42,08,08,307,27,138,38,213,46*7C
2017-12-01 13:49:44 1512154184.787576: $GPZDA,184945.00,01,12,2017,00,00*65
2017-12-01 13:49:44 1512154184.787744: $GPGGA,184945,3946.9567,N,08404.9828,W,2,11,0.80,303.54,M,-33.324,M,,*71
2017-12-01 13:49:44 1512154184.787813: $GPRMC,184945,A,3946.9567,N,08404.9828,W,0.0000,0.000,011217,,*38
2017-12-01 13:49:44 1512154184.787877: $GPGSA,A,3,10,14,15,18,20,21,24,27,32,8,138,,2.0,0.8,1.5*34
2017-12-01 13:49:45 1512154185.345062: $GPZDA,184946.00,01,12,2017,00,00*66
2017-12-01 13:49:45 1512154185.345252: $GPGGA,184946,3946.9567,N,08404.9828,W,2,11,0.80,303.54,M,-33.324,M,,*72
2017-12-01 13:49:45 1512154185.345340: $GPRMC,184946,A,3946.9567,N,08404.9828,W,0.0000,0.000,011217,,*3B
2017-12-01 13:49:45 1512154185.345405: $GPGSA,A,3,10,14,15,18,20,21,24,27,32,8,138,,2.0,0.8,1.5*34
2017-12-01 13:49:46 1512154186.345946: $GPZDA,184947.00,01,12,2017,00,00*67
2017-12-01 13:49:46 1512154186.346115: $GPGGA,184947,3946.9567,N,08404.9828,W,2,11,0.80,303.54,M,-33.324,M,,*73
2017-12-01 13:49:46 1512154186.346210: $GPRMC,184947,A,3946.9567,N,08404.9828,W,0.0000,0.000,011217,,*3A
2017-12-01 13:49:46 1512154186.346276: $GPGSA,A,3,10,14,15,18,20,21,24,27,32,8,138,,2.0,0.8,1.5*34
2017-12-01 13:49:47 1512154187.682487: $GPGSV,3,1,11,10,55,315,49,14,17,243,38,15,23,058,47,18,77,039,42*73
2017-12-01 13:49:47 1512154187.682682: $GPGSV,3,2,11,20,20,108,43,21,45,181,44,24,52,079,48,27,14,273,39*73
2017-12-01 13:49:47 1512154187.682753: $GPGSV,3,3,11,32,34,250,42,08,08,307,27,138,38,213,46*7C
2017-12-01 13:49:47 1512154187.795873: $GPZDA,184948.00,01,12,2017,00,00*68
2017-12-01 13:49:47 1512154187.796007: $GPGGA,184948,3946.9567,N,08404.9828,W,2,11,0.80,303.54,M,-33.324,M,,*7C
2017-12-01 13:49:47 1512154187.796077: $GPRMC,184948,A,3946.9567,N,08404.9828,W,0.0000,0.000,011217,,*35
2017-12-01 13:49:47 1512154187.796141: $GPGSA,A,3,10,14,15,18,20,21,24,27,32,8,138,,2.0,0.8,1.5*34
2017-12-01 13:49:48 1512154188.422627: $GPZDA,184949.00,01,12,2017,00,00*69
2017-12-01 13:49:48 1512154188.422803: $GPGGA,184949,3946.9567,N,08404.9828,W,2,11,0.80,303.54,M,-33.324,M,,*7D
2017-12-01 13:49:48 1512154188.422873: $GPRMC,184949,A,3946.9567,N,08404.9828,W,0.0000,0.000,011217,,*34
2017-12-01 13:49:48 1512154188.422937: $GPGSA,A,3,10,14,15,18,20,21,24,27,32,8,138,,2.0,0.8,1.5*34
2017-12-01 13:49:49 1512154189.862945: $GPZDA,184950.00,01,12,2017,00,00*61
2017-12-01 13:49:49 1512154189.863120: $GPGGA,184950,3946.9582,N,08404.9833,W,2,11,0.80,301.81,M,-33.324,M,,*7E
2017-12-01 13:49:49 1512154189.863263: $GPRMC,184950,A,3946.9582,N,08404.9833,W,0.0000,0.000,011217,,*3D
2017-12-01 13:49:49 1512154189.863343: $GPGSA,A,3,10,14,15,18,20,21,24,27,32,8,138,,2.0,0.8,1.5*34
2017-12-01 13:49:50 1512154190.676202: $GPGSV,3,1,11,10,56,315,49,14,17,243,38,15,23,058,47,18,77,040,42*7E
2017-12-01 13:49:50 1512154190.676399: $GPGSV,3,2,11,20,20,109,43,21,44,181,44,24,52,079,48,27,14,273,40*7D
2017-12-01 13:49:50 1512154190.676467: $GPGSV,3,3,11,32,35,250,41,08,08,307,33,138,38,213,47*7A
2017-12-01 13:49:50 1512154190.789956: $GPZDA,184951.00,01,12,2017,00,00*60
2017-12-01 13:49:50 1512154190.790124: $GPGGA,184951,3946.9582,N,08404.9833,W,2,11,0.80,301.81,M,-33.324,M,,*7F
2017-12-01 13:49:50 1512154190.790213: $GPRMC,184951,A,3946.9582,N,08404.9833,W,0.0000,0.000,011217,,*3C
2017-12-01 13:49:50 1512154190.790292: $GPGSA,A,3,10,14,15,18,20,21,24,27,32,8,138,,2.0,0.8,1.5*34
2017-12-01 13:49:51 1512154191.345759: $GPZDA,184952.00,01,12,2017,00,00*63
2017-12-01 13:49:51 1512154191.345938: $GPGGA,184952,3946.9582,N,08404.9833,W,2,11,0.80,301.81,M,-33.324,M,,*7C
2017-12-01 13:49:51 1512154191.346005: $GPRMC,184952,A,3946.9582,N,08404.9833,W,0.0000,0.000,011217,,*3F
2017-12-01 13:49:51 1512154191.346066: $GPGSA,A,3,10,14,15,18,20,21,24,27,32,8,138,,2.0,0.8,1.5*34
