2017-12-01 16:45:51 1512164751.238199: {"class":"VERSION","release":"3.16","rev":"3.16-4","proto_major":3,"proto_minor":11}
2017-12-01 16:45:51 1512164751.238642: {"class":"DEVICES","devices":[{"class":"DEVICE","path":"/dev/ttyUSB0","driver":"SiRF","subtype":"9\u0006GSD4e_4.1.2-P1_RPATCH.05-F-GPS-4R-1510281 11/03/2015 307","activated":"2017-12-01T21:45:50.569Z","flags":1,"native":1,"bps":4800,"parity":"N","stopbits":1,"cycle":1.00}]}
2017-12-01 16:45:51 1512164751.238758: {"class":"WATCH","enable":true,"json":false,"nmea":true,"raw":0,"scaled":false,"timing":false,"split24":false,"pps":false}
2017-12-01 16:45:51 1512164751.420320: $GPZDA,214552.00,01,12,2017,00,00*65
2017-12-01 16:45:51 1512164751.420492: $GPGGA,214552,3946.9645,N,08404.9741,W,2,12,0.80,298.83,M,-33.324,M,,*78
2017-12-01 16:45:51 1512164751.420559: $GPRMC,214552,A,3946.9645,N,08404.9741,W,0.0000,0.000,011217,,*3B
2017-12-01 16:45:51 1512164751.420620: $GPGSA,A,3,1,10,14,22,31,32,25,11,12,18,26,138,2.0,0.8,1.5*39
2017-12-01 16:45:52 1512164752.755747: $GPGSV,3,1,12,01,22,294,41,10,41,151,43,14,69,343,45,22,25,310,44*7F
2017-12-01 16:45:52 1512164752.755929: $GPGSV,3,2,12,31,63,232,50,32,66,046,48,25,41,081,07,11,06,276,22*7C
2017-12-01 16:45:52 1512164752.755994: $GPGSV,3,3,12,12,19,043,24,18,11,145,15,26,08,181,24,138,38,213,34*49
2017-12-01 16:45:52 1512164752.869421: $GPZDA,214553.00,01,12,2017,00,00*64
2017-12-01 16:45:52 1512164752.869589: $GPGGA,214553,3946.9645,N,08404.9741,W,2,12,0.80,298.83,M,-33.324,M,,*79
2017-12-01 16:45:52 1512164752.869671: $GPRMC,214553,A,3946.9645,N,08404.9741,W,0.0000,0.000,011217,,*3A
2017-12-01 16:45:52 1512164752.869735: $GPGSA,A,3,1,10,14,22,31,32,25,11,12,18,26,138,2.0,0.8,1.5*39
2017-12-01 16:45:53 1512164753.494773: $GPZDA,214554.00,01,12,2017,00,00*63
2017-12-01 16:45:53 1512164753.494950: $GPGGA,214554,3946.9649,N,08404.9741,W,2,12,0.80,299.47,M,-33.324,M,,*7B
2017-12-01 16:45:53 1512164753.495017: $GPRMC,214554,A,3946.9649,N,08404.9741,W,0.0000,0.000,011217,,*31
2017-12-01 16:45:53 1512164753.495079: $GPGSA,A,3,1,10,14,22,31,32,25,11,12,18,26,138,2.0,0.8,1.5*39
2017-12-01 16:45:54 1512164754.435649: $GPZDA,214555.00,01,12,2017,00,00*62
2017-12-01 16:45:54 1512164754.435825: $GPGGA,214555,3946.9649,N,08404.9741,W,2,12,0.80,299.47,M,-33.324,M,,*7A
2017-12-01 16:45:54 1512164754.435891: $GPRMC,214555,A,3946.9649,N,08404.9741,W,0.0000,0.000,011217,,*30
2017-12-01 16:45:54 1512164754.435952: $GPGSA,A,3,1,10,14,22,31,32,25,11,12,18,26,138,2.0,0.8,1.5*39
2017-12-01 16:45:55 1512164755.767438: $GPGSV,3,1,12,01,22,294,41,10,41,151,43,14,69,343,46,22,25,310,43*7B
2017-12-01 16:45:55 1512164755.767630: $GPGSV,3,2,12,31,63,232,50,32,66,046,47,25,41,081,24,11,06,276,23*73
2017-12-01 16:45:55 1512164755.767699: $GPGSV,3,3,12,12,19,043,24,18,11,145,11,26,08,181,24,138,38,213,39*40
2017-12-01 16:45:55 1512164755.879499: $GPZDA,214556.00,01,12,2017,00,00*61
2017-12-01 16:45:55 1512164755.879676: $GPGGA,214556,3946.9649,N,08404.9741,W,2,12,0.80,299.47,M,-33.324,M,,*79
2017-12-01 16:45:55 1512164755.879745: $GPRMC,214556,A,3946.9649,N,08404.9741,W,0.0000,0.000,011217,,*33
2017-12-01 16:45:55 1512164755.879806: $GPGSA,A,3,1,10,14,22,31,32,25,11,12,18,26,138,2.0,0.8,1.5*39
2017-12-01 16:45:56 1512164756.430492: $GPZDA,214557.00,01,12,2017,00,00*60
2017-12-01 16:45:56 1512164756.430656: $GPGGA,214557,3946.9649,N,08404.9741,W,2,12,0.80,299.47,M,-33.324,M,,*78
2017-12-01 16:45:56 1512164756.430723: $GPRMC,214557,A,3946.9649,N,08404.9741,W,0.0000,0.000,011217,,*32
2017-12-01 16:45:56 1512164756.430783: $GPGSA,A,3,1,10,14,22,31,32,25,11,12,18,26,138,2.0,0.8,1.5*39
2017-12-01 16:45:57 1512164757.417752: $GPZDA,214558.00,01,12,2017,00,00*6F
2017-12-01 16:45:57 1512164757.417930: $GPGGA,214558,3946.9649,N,08404.9741,W,2,12,0.80,299.47,M,-33.324,M,,*77
2017-12-01 16:45:57 1512164757.417996: $GPRMC,214558,A,3946.9649,N,08404.9741,W,0.0000,0.000,011217,,*3D
2017-12-01 16:45:57 1512164757.418057: $GPGSA,A,3,1,10,14,22,31,32,25,11,12,18,26,138,2.0,0.8,1.5*39
2017-12-01 16:45:58 1512164758.753973: $GPGSV,3,1,12,01,22,294,41,10,41,151,43,14,69,343,45,22,25,310,44*7F
2017-12-01 16:45:58 1512164758.754222: $GPGSV,3,2,12,31,63,232,50,32,66,046,47,25,41,081,25,11,06,276,24*75
2017-12-01 16:45:58 1512164758.754294: $GPGSV,3,3,12,12,19,043,24,18,11,145,12,26,08,181,23,138,38,213,40*4A
2017-12-01 16:45:58 1512164758.867349: $GPZDA,214559.00,01,12,2017,00,00*6E
2017-12-01 16:45:58 1512164758.867531: $GPGGA,214559,3946.9649,N,08404.9741,W,2,12,0.80,299.47,M,-33.324,M,,*76
2017-12-01 16:45:58 1512164758.867599: $GPRMC,214559,A,3946.9649,N,08404.9741,W,0.0000,0.000,011217,,*3C
2017-12-01 16:45:58 1512164758.867661: $GPGSA,A,3,1,10,14,22,31,32,25,11,12,18,26,138,2.0,0.8,1.5*39
2017-12-01 16:45:59 1512164759.418470: $GPZDA,214600.00,01,12,2017,00,00*61
2017-12-01 16:45:59 1512164759.418645: $GPGGA,214600,3946.9649,N,08404.9741,W,2,12,0.80,299.47,M,-33.324,M,,*79
2017-12-01 16:45:59 1512164759.418712: $GPRMC,214600,A,3946.9649,N,08404.9741,W,0.0000,0.000,011217,,*33
2017-12-01 16:45:59 1512164759.418775: $GPGSA,A,3,1,10,14,22,31,32,25,11,12,18,26,138,2.0,0.8,1.5*39
2017-12-01 16:46:00 1512164760.419335: $GPZDA,214601.00,01,12,2017,00,00*60
2017-12-01 16:46:00 1512164760.419510: $GPGGA,214601,3946.9649,N,08404.9741,W,2,12,0.80,299.47,M,-33.324,M,,*78
2017-12-01 16:46:00 1512164760.419578: $GPRMC,214601,A,3946.9649,N,08404.9741,W,0.0000,0.000,011217,,*32
2017-12-01 16:46:00 1512164760.419641: $GPGSA,A,3,1,10,14,22,31,32,25,11,12,18,26,138,2.0,0.8,1.5*39
2017-12-01 16:46:01 1512164761.753647: $GPGSV,3,1,12,01,22,294,39,10,41,151,42,14,69,343,45,22,25,310,44*71
2017-12-01 16:46:01 1512164761.753828: $GPGSV,3,2,12,31,63,232,50,32,66,046,48,25,41,081,26,11,06,276,24*79
2017-12-01 16:46:01 1512164761.753898: $GPGSV,3,3,12,12,19,043,24,18,11,145,13,26,08,181,26,138,38,213,40*4E
2017-12-01 16:46:01 1512164761.867231: $GPZDA,214602.00,01,12,2017,00,00*63
2017-12-01 16:46:01 1512164761.867384: $GPGGA,214602,3946.9649,N,08404.9741,W,2,12,0.80,299.47,M,-33.324,M,,*7B
2017-12-01 16:46:01 1512164761.867451: $GPRMC,214602,A,3946.9649,N,08404.9741,W,0.0000,0.000,011217,,*31
2017-12-01 16:46:01 1512164761.867514: $GPGSA,A,3,1,10,14,22,31,32,25,11,12,18,26,138,2.0,0.8,1.5*39
2017-12-01 16:46:02 1512164762.417939: $GPZDA,214603.00,01,12,2017,00,00*62
2017-12-01 16:46:02 1512164762.418121: $GPGGA,214603,3946.9649,N,08404.9741,W,2,12,0.80,299.47,M,-33.324,M,,*7A
2017-12-01 16:46:02 1512164762.418190: $GPRMC,214603,A,3946.9649,N,08404.9741,W,0.0000,0.000,011217,,*30
2017-12-01 16:46:02 1512164762.418253: $GPGSA,A,3,1,10,14,22,31,32,25,11,12,18,26,138,2.0,0.8,1.5*39
2017-12-01 16:46:03 1512164763.419919: $GPZDA,214604.00,01,12,2017,00,00*65
2017-12-01 16:46:03 1512164763.420106: $GPGGA,214604,3946.9649,N,08404.9741,W,2,12,0.80,299.47,M,-33.324,M,,*7D
2017-12-01 16:46:03 1512164763.420174: $GPRMC,214604,A,3946.9649,N,08404.9741,W,0.0000,0.000,011217,,*37
2017-12-01 16:46:03 1512164763.420235: $GPGSA,A,3,1,10,14,22,31,32,25,11,12,18,26,138,2.0,0.8,1.5*39
2017-12-01 16:46:04 1512164764.755292: $GPGSV,3,1,12,01,22,294,39,10,41,151,42,14,69,343,45,22,25,310,44*71
2017-12-01 16:46:04 1512164764.755446: $GPGSV,3,2,12,31,63,232,50,32,66,046,47,25,41,081,26,11,06,276,24*76
2017-12-01 16:46:04 1512164764.755512: $GPGSV,3,3,12,12,19,043,23,18,11,145,13,26,08,181,28,138,38,213,38*48
2017-12-01 16:46:04 1512164764.867728: $GPZDA,214605.00,01,12,2017,00,00*64
2017-12-01 16:46:04 1512164764.867918: $GPGGA,214605,3946.9649,N,08404.9741,W,2,12,0.80,299.47,M,-33.324,M,,*7C
2017-12-01 16:46:04 1512164764.868003: $GPRMC,214605,A,3946.9649,N,08404.9741,W,0.0000,0.000,011217,,*36
2017-12-01 16:46:04 1512164764.868065: $GPGSA,A,3,1,10,14,22,31,32,25,11,12,18,26,138,2.0,0.8,1.5*39
2017-12-01 16:46:05 1512164765.418636: $GPZDA,214606.00,01,12,2017,00,00*67
2017-12-01 16:46:05 1512164765.418806: $GPGGA,214606,3946.9649,N,08404.9741,W,2,12,0.80,299.47,M,-33.324,M,,*7F
2017-12-01 16:46:05 1512164765.418893: $GPRMC,214606,A,3946.9649,N,08404.9741,W,0.0000,0.000,011217,,*35
2017-12-01 16:46:05 1512164765.418956: $GPGSA,A,3,1,10,14,22,31,32,25,11,12,18,26,138,2.0,0.8,1.5*39
2017-12-01 16:46:06 1512164766.412982: $GPZDA,214607.00,01,12,2017,00,00*66
2017-12-01 16:46:06 1512164766.413169: $GPGGA,214607,3946.9649,N,08404.9741,W,2,12,0.80,299.47,M,-33.324,M,,*7E
2017-12-01 16:46:06 1512164766.413238: $GPRMC,214607,A,3946.9649,N,08404.9741,W,0.0000,0.000,011217,,*34
2017-12-01 16:46:06 1512164766.413299: $GPGSA,A,3,1,10,14,22,31,32,25,11,12,18,26,138,2.0,0.8,1.5*39
2017-12-01 16:46:07 1512164767.754800: $GPGSV,3,1,12,01,22,294,38,10,41,151,42,14,69,343,45,22,25,310,44*70
2017-12-01 16:46:07 1512164767.755014: $GPGSV,3,2,12,31,63,232,50,32,66,046,47,25,41,081,27,11,06,276,24*77
2017-12-01 16:46:07 1512164767.755081: $GPGSV,3,3,12,12,19,043,23,18,11,145,16,26,08,181,20,138,38,213,40*4A
2017-12-01 16:46:07 1512164767.868275: $GPZDA,214608.00,01,12,2017,00,00*69
2017-12-01 16:46:07 1512164767.868419: $GPGGA,214608,3946.9649,N,08404.9741,W,2,12,0.80,299.47,M,-33.324,M,,*71
2017-12-01 16:46:07 1512164767.868487: $GPRMC,214608,A,3946.9649,N,08404.9741,W,0.0000,0.000,011217,,*3B
2017-12-01 16:46:07 1512164767.868549: $GPGSA,A,3,1,10,14,22,31,32,25,11,12,18,26,138,2.0,0.8,1.5*39
2017-12-01 16:46:08 1512164768.494916: $GPZDA,214609.00,01,12,2017,00,00*68
2017-12-01 16:46:08 1512164768.495098: $GPGGA,214609,3946.9649,N,08404.9741,W,2,12,0.80,299.47,M,-33.324,M,,*70
2017-12-01 16:46:08 1512164768.495165: $GPRMC,214609,A,3946.9649,N,08404.9741,W,0.0000,0.000,011217,,*3A
2017-12-01 16:46:08 1512164768.495226: $GPGSA,A,3,1,10,14,22,31,32,25,11,12,18,26,138,2.0,0.8,1.5*39
2017-12-01 16:46:09 1512164769.418195: $GPZDA,214610.00,01,12,2017,00,00*60
2017-12-01 16:46:09 1512164769.418378: $GPGGA,214610,3946.9649,N,08404.9741,W,2,12,0.80,299.47,M,-33.324,M,,*78
2017-12-01 16:46:09 1512164769.418446: $GPRMC,214610,A,3946.9649,N,08404.9741,W,0.0000,0.000,011217,,*32
2017-12-01 16:46:09 1512164769.418507: $GPGSA,A,3,1,10,14,22,31,32,25,11,12,18,26,138,2.0,0.8,1.5*39
2017-12-01 16:46:10 1512164770.753904: $GPGSV,3,1,12,01,22,294,38,10,41,151,41,14,69,343,45,22,25,310,44*73
2017-12-01 16:46:10 1512164770.754088: $GPGSV,3,2,12,31,63,232,50,32,66,046,48,25,41,081,27,11,06,276,26*7A
2017-12-01 16:46:10 1512164770.754155: $GPGSV,3,3,12,03,05,316,30,18,11,145,17,26,08,181,24,138,38,213,41*42
2017-12-01 16:46:10 1512164770.867324: $GPZDA,214611.00,01,12,2017,00,00*61
2017-12-01 16:46:10 1512164770.867500: $GPGGA,214611,3946.9649,N,08404.9741,W,2,12,0.80,299.47,M,-33.324,M,,*79
2017-12-01 16:46:10 1512164770.867566: $GPRMC,214611,A,3946.9649,N,08404.9741,W,0.0000,0.000,011217,,*33
2017-12-01 16:46:10 1512164770.867627: $GPGSA,A,3,1,10,14,22,31,32,25,11,3,18,26,138,2.0,0.8,1.5*09
