2018-01-11 19:39:32 1515717572.535811: {"class":"VERSION","release":"3.16","rev":"3.16-4","proto_major":3,"proto_minor":11}
2018-01-11 19:39:32 1515717572.536153: {"class":"DEVICES","devices":[{"class":"DEVICE","path":"/dev/ttyUSB0","driver":"SiRF","subtype":"9\u0006GSD4e_4.1.2-P1_RPATCH.05-F-GPS-4R-1510281 11/03/2015 307","activated":"2018-01-12T00:39:32.494Z","flags":1,"native":1,"bps":4800,"parity":"N","stopbits":1,"cycle":1.00}]}
2018-01-11 19:39:32 1515717572.536265: {"class":"WATCH","enable":true,"json":false,"nmea":true,"raw":0,"scaled":false,"timing":false,"split24":false,"pps":false}
2018-01-11 19:39:33 1515717573.377926: $GPZDA,003934.00,12,01,2018,00,00*62
2018-01-11 19:39:33 1515717573.378089: $GPGGA,003934,3946.9581,N,08404.9827,W,2,11,0.80,316.13,M,-33.324,M,,*79
2018-01-11 19:39:33 1515717573.378154: $GPRMC,003934,A,3946.9581,N,08404.9827,W,0.3423,4.197,120118,,*35
2018-01-11 19:39:33 1515717573.378215: $GPGSA,A,3,7,8,9,16,23,27,30,11,26,28,138,,4.0,0.8,3.5*3A
2018-01-11 19:39:34 1515717574.717383: $GPGSV,3,1,12,07,42,309,42,08,61,160,45,09,56,252,42,16,34,052,48*7E
2018-01-11 19:39:34 1515717574.717540: $GPGSV,3,2,12,23,44,195,45,27,57,072,50,30,17,300,38,11,08,172,02*72
2018-01-11 19:39:34 1515717574.717605: $GPGSV,3,3,12,26,08,064,25,28,04,249,23,21,02,033,02,138,38,213,47*42
2018-01-11 19:39:34 1515717574.830733: $GPZDA,003935.00,12,01,2018,00,00*63
2018-01-11 19:39:34 1515717574.830870: $GPGGA,003935,3946.9582,N,08404.9828,W,2,11,0.80,317.54,M,-33.324,M,,*76
2018-01-11 19:39:34 1515717574.830935: $GPRMC,003935,A,3946.9582,N,08404.9828,W,0.2422,93.794,120118,,*03
2018-01-11 19:39:34 1515717574.830995: $GPGSA,A,3,7,8,9,16,23,27,30,11,26,28,138,,4.0,0.8,3.5*3A
2018-01-11 19:39:35 1515717575.377867: $GPZDA,003936.00,12,01,2018,00,00*60
2018-01-11 19:39:35 1515717575.378018: $GPGGA,003936,3946.9571,N,08404.9825,W,2,11,0.80,310.64,M,-33.324,M,,*70
2018-01-11 19:39:35 1515717575.378084: $GPRMC,003936,A,3946.9571,N,08404.9825,W,0.2422,93.794,120118,,*01
2018-01-11 19:39:35 1515717575.378145: $GPGSA,A,3,7,8,9,16,23,27,30,11,26,28,138,,4.0,0.8,3.5*3A
2018-01-11 19:39:36 1515717576.377394: $GPZDA,003937.00,12,01,2018,00,00*61
2018-01-11 19:39:36 1515717576.377551: $GPGGA,003937,3946.9567,N,08404.9826,W,2,11,0.80,311.41,M,-33.324,M,,*73
2018-01-11 19:39:36 1515717576.377616: $GPRMC,003937,A,3946.9567,N,08404.9826,W,0.0000,0.000,120118,,*32
2018-01-11 19:39:36 1515717576.377676: $GPGSA,A,3,7,8,9,16,23,27,30,11,26,28,138,,4.0,0.8,3.5*3A
2018-01-11 19:39:36 1515717576.377734: $GPGBS,003937,3.65,M,6.21,M,20.10,M*06
2018-01-11 19:39:37 1515717577.716326: $GPGSV,3,1,12,07,42,309,41,08,61,160,46,09,56,252,42,16,34,052,48*7E
2018-01-11 19:39:37 1515717577.716504: $GPGSV,3,2,12,23,44,195,46,27,57,072,50,30,17,300,38,11,08,172,00*73
2018-01-11 19:39:37 1515717577.716570: $GPGSV,3,3,12,26,08,064,25,28,04,249,22,21,02,033,19,138,38,213,44*4A
2018-01-11 19:39:37 1515717577.829714: $GPZDA,003938.00,12,01,2018,00,00*6E
2018-01-11 19:39:37 1515717577.829854: $GPGGA,003938,3946.9567,N,08404.9826,W,2,11,1.00,311.41,M,-33.324,M,,*75
2018-01-11 19:39:37 1515717577.829920: $GPRMC,003938,A,3946.9567,N,08404.9826,W,0.0000,0.000,120118,,*3D
2018-01-11 19:39:37 1515717577.829980: $GPGSA,A,3,7,8,9,16,23,27,30,26,28,21,138,,4.0,1.0,3.5*30
2018-01-11 19:39:38 1515717578.379421: $GPZDA,003939.00,12,01,2018,00,00*6F
2018-01-11 19:39:38 1515717578.379570: $GPGGA,003939,3946.9567,N,08404.9826,W,2,11,1.00,311.41,M,-33.324,M,,*74
2018-01-11 19:39:38 1515717578.379636: $GPRMC,003939,A,3946.9567,N,08404.9826,W,0.0000,0.000,120118,,*3C
2018-01-11 19:39:38 1515717578.379696: $GPGSA,A,3,7,8,9,16,23,27,30,26,28,21,138,,4.0,1.0,3.5*30
2018-01-11 19:39:39 1515717579.380253: $GPZDA,003940.00,12,01,2018,00,00*61
2018-01-11 19:39:39 1515717579.380408: $GPGGA,003940,3946.9567,N,08404.9826,W,2,11,1.00,311.41,M,-33.324,M,,*7A
2018-01-11 19:39:39 1515717579.380475: $GPRMC,003940,A,3946.9567,N,08404.9826,W,0.0000,0.000,120118,,*32
2018-01-11 19:39:39 1515717579.380535: $GPGSA,A,3,7,8,9,16,23,27,30,26,28,21,138,,4.0,1.0,3.5*30
