2018-01-12 02:59:54 1515743994.003687: {"class":"VERSION","release":"3.16","rev":"3.16-4","proto_major":3,"proto_minor":11}
2018-01-12 02:59:54 1515743994.004034: {"class":"DEVICES","devices":[{"class":"DEVICE","path":"/dev/ttyUSB0","driver":"SiRF","subtype":"9\u0006GSD4e_4.1.2-P1_RPATCH.05-F-GPS-4R-1510281 11/03/2015 307","activated":"2018-01-12T07:59:53.962Z","flags":1,"native":1,"bps":4800,"parity":"N","stopbits":1,"cycle":1.00}]}
2018-01-12 02:59:54 1515743994.004148: {"class":"WATCH","enable":true,"json":false,"nmea":true,"raw":0,"scaled":false,"timing":false,"split24":false,"pps":false}
2018-01-12 02:59:54 1515743994.075387: $GPZDA,075954.00,12,01,2018,00,00*65
2018-01-12 02:59:54 1515743994.075581: $GPGGA,075954,3946.9667,N,08404.9853,W,2,11,0.80,300.12,M,-33.325,M,,*71
2018-01-12 02:59:54 1515743994.075650: $GPRMC,075954,A,3946.9667,N,08404.9853,W,0.0000,0.000,120118,,*37
2018-01-12 02:59:54 1515743994.075711: $GPGSA,A,3,2,5,6,12,17,19,3,24,25,28,138,,2.4,0.8,2.1*01
2018-01-12 02:59:54 1515743994.526397: $GPZDA,075955.00,12,01,2018,00,00*64
2018-01-12 02:59:54 1515743994.526554: $GPGGA,075955,3946.9667,N,08404.9853,W,2,11,0.80,300.12,M,-33.325,M,,*70
2018-01-12 02:59:54 1515743994.526620: $GPRMC,075955,A,3946.9667,N,08404.9853,W,0.0000,0.000,120118,,*36
2018-01-12 02:59:54 1515743994.526681: $GPGSA,A,3,2,5,6,12,17,19,3,24,25,28,138,,2.4,0.8,2.1*01
2018-01-12 02:59:55 1515743995.388752: $GPZDA,075956.00,12,01,2018,00,00*67
2018-01-12 02:59:55 1515743995.388920: $GPGGA,075956,3946.9667,N,08404.9853,W,2,11,0.80,300.12,M,-33.325,M,,*73
2018-01-12 02:59:55 1515743995.388985: $GPRMC,075956,A,3946.9667,N,08404.9853,W,0.0000,0.000,120118,,*35
2018-01-12 02:59:55 1515743995.389046: $GPGSA,A,3,2,5,6,12,17,19,3,24,25,28,138,,2.4,0.8,2.1*01
2018-01-12 02:59:56 1515743996.722796: $GPGSV,3,1,12,02,55,262,47,05,12,193,30,06,76,357,50,12,41,307,51*74
2018-01-12 02:59:56 1515743996.722953: $GPGSV,3,2,12,17,42,090,43,19,59,070,42,03,06,034,30,09,06,100,00*7F
2018-01-12 02:59:56 1515743996.723018: $GPGSV,3,3,12,24,11,258,31,25,06,322,35,28,04,153,19,138,38,213,38*4E
2018-01-12 02:59:56 1515743996.836125: $GPZDA,075957.00,12,01,2018,00,00*66
2018-01-12 02:59:56 1515743996.836243: $GPGGA,075957,3946.9667,N,08404.9853,W,2,11,0.80,300.12,M,-33.325,M,,*72
2018-01-12 02:59:56 1515743996.836307: $GPRMC,075957,A,3946.9667,N,08404.9853,W,0.0000,0.000,120118,,*34
2018-01-12 02:59:56 1515743996.836367: $GPGSA,A,3,2,5,6,12,17,19,3,24,25,28,138,,2.4,0.8,2.1*01
2018-01-12 02:59:57 1515743997.398546: $GPZDA,075958.00,12,01,2018,00,00*69
2018-01-12 02:59:57 1515743997.398711: $GPGGA,075958,3946.9667,N,08404.9853,W,2,11,0.80,300.12,M,-33.325,M,,*7D
2018-01-12 02:59:57 1515743997.398778: $GPRMC,075958,A,3946.9667,N,08404.9853,W,0.0000,0.000,120118,,*3B
2018-01-12 02:59:57 1515743997.398839: $GPGSA,A,3,2,5,6,12,17,19,3,24,25,28,138,,2.4,0.8,2.1*01
2018-01-12 02:59:58 1515743998.396509: $GPZDA,075959.00,12,01,2018,00,00*68
2018-01-12 02:59:58 1515743998.396677: $GPGGA,075959,3946.9667,N,08404.9846,W,2,11,0.80,300.20,M,-33.325,M,,*79
2018-01-12 02:59:58 1515743998.396744: $GPRMC,075959,A,3946.9667,N,08404.9846,W,0.0000,0.000,120118,,*3E
2018-01-12 02:59:58 1515743998.396804: $GPGSA,A,3,2,5,6,12,17,19,3,24,25,28,138,,2.4,0.8,2.1*01
2018-01-12 02:59:59 1515743999.729401: $GPGSV,3,1,12,02,55,262,47,05,12,193,29,06,76,357,50,12,41,307,51*7C
2018-01-12 02:59:59 1515743999.729574: $GPGSV,3,2,12,17,42,090,43,19,59,070,42,03,06,034,30,09,06,100,00*7F
2018-01-12 02:59:59 1515743999.729641: $GPGSV,3,3,12,24,11,258,31,25,06,322,36,28,04,153,19,138,38,213,37*42
2018-01-12 02:59:59 1515743999.843027: $GPZDA,080000.00,12,01,2018,00,00*67
2018-01-12 02:59:59 1515743999.843170: $GPGGA,080000,3946.9667,N,08404.9846,W,2,11,0.80,300.20,M,-33.325,M,,*76
2018-01-12 02:59:59 1515743999.843235: $GPRMC,080000,A,3946.9667,N,08404.9846,W,0.0000,0.000,120118,,*31
2018-01-12 02:59:59 1515743999.843296: $GPGSA,A,3,2,5,6,12,17,19,3,24,25,28,138,,2.4,0.8,2.1*01
