2017-12-31 18:42:15 1514763735.987204: {"class":"VERSION","release":"3.16","rev":"3.16-4","proto_major":3,"proto_minor":11}
2017-12-31 18:42:15 1514763735.987573: {"class":"DEVICES","devices":[{"class":"DEVICE","path":"/dev/ttyUSB0","driver":"SiRF","activated":"2017-12-31T23:42:15.980Z","flags":1,"native":1,"bps":4800,"parity":"N","stopbits":1,"cycle":1.00}]}
2017-12-31 18:42:15 1514763735.987675: {"class":"WATCH","enable":true,"json":false,"nmea":true,"raw":0,"scaled":false,"timing":false,"split24":false,"pps":false}
2017-12-31 18:42:16 1514763736.353606: $GPZDA,234217.00,31,12,2017,00,00*62
2017-12-31 18:42:16 1514763736.353776: $GPGGA,234217,3946.9581,N,08404.9836,W,2,12,0.80,306.79,M,-33.324,M,,*7B
2017-12-31 18:42:16 1514763736.353842: $GPRMC,234217,A,3946.9581,N,08404.9836,W,0.0000,0.000,311217,,*38
2017-12-31 18:42:16 1514763736.353919: $GPGSA,A,3,22,23,9,3,16,8,14,31,27,7,26,135,1.7,0.8,1.3*0C
2017-12-31 18:42:17 1514763737.353143: $GPZDA,234218.00,31,12,2017,00,00*6D
2017-12-31 18:42:17 1514763737.353314: $GPGGA,234218,3946.9581,N,08404.9836,W,2,12,0.80,306.79,M,-33.324,M,,*74
2017-12-31 18:42:17 1514763737.353381: $GPRMC,234218,A,3946.9581,N,08404.9836,W,0.0000,0.000,311217,,*37
2017-12-31 18:42:17 1514763737.353443: $GPGSA,A,3,22,23,9,3,16,8,14,31,27,7,26,135,1.7,0.8,1.3*0C
2017-12-31 18:42:18 1514763738.690003: $GPGSV,3,1,12,22,10,205,30,23,66,288,41,09,33,310,39,03,20,222,40*7D
2017-12-31 18:42:18 1514763738.690188: $GPGSV,3,2,12,16,80,037,41,08,13,177,31,14,02,139,22,31,18,087,36*71
2017-12-31 18:42:18 1514763738.690255: $GPGSV,3,3,12,27,36,145,40,07,08,282,30,26,47,046,45,135,22,240,44*4F
2017-12-31 18:42:18 1514763738.803619: $GPZDA,234219.00,31,12,2017,00,00*6C
2017-12-31 18:42:18 1514763738.803773: $GPGGA,234219,3946.9581,N,08404.9836,W,2,12,0.80,306.79,M,-33.324,M,,*75
2017-12-31 18:42:18 1514763738.803837: $GPRMC,234219,A,3946.9581,N,08404.9836,W,0.0000,0.000,311217,,*36
2017-12-31 18:42:18 1514763738.803899: $GPGSA,A,3,22,23,9,3,16,8,14,31,27,7,26,135,1.7,0.8,1.3*0C
2017-12-31 18:42:19 1514763739.354200: $GPZDA,234220.00,31,12,2017,00,00*66
2017-12-31 18:42:19 1514763739.354377: $GPGGA,234220,3946.9581,N,08404.9836,W,2,12,0.80,306.79,M,-33.324,M,,*7F
2017-12-31 18:42:19 1514763739.354446: $GPRMC,234220,A,3946.9581,N,08404.9836,W,0.0000,0.000,311217,,*3C
2017-12-31 18:42:19 1514763739.354509: $GPGSA,A,3,22,23,9,3,16,8,14,31,27,7,26,135,1.7,0.8,1.3*0C
2017-12-31 18:42:20 1514763740.353389: $GPZDA,234221.00,31,12,2017,00,00*67
2017-12-31 18:42:20 1514763740.353566: $GPGGA,234221,3946.9581,N,08404.9836,W,2,12,0.80,306.79,M,-33.324,M,,*7E
2017-12-31 18:42:20 1514763740.353634: $GPRMC,234221,A,3946.9581,N,08404.9836,W,0.0000,0.000,311217,,*3D
2017-12-31 18:42:20 1514763740.353696: $GPGSA,A,3,22,23,9,3,16,8,14,31,27,7,26,135,1.7,0.8,1.3*0C
2017-12-31 18:42:21 1514763741.687892: $GPGSV,3,1,12,22,10,205,24,23,66,288,40,09,33,310,40,03,20,222,41*76
2017-12-31 18:42:21 1514763741.688089: $GPGSV,3,2,12,16,80,037,41,08,13,177,31,14,02,139,23,31,18,087,36*70
2017-12-31 18:42:21 1514763741.688159: $GPGSV,3,3,12,27,36,145,40,07,08,282,38,26,47,046,45,135,22,240,44*47
2017-12-31 18:42:21 1514763741.801457: $GPZDA,234222.00,31,12,2017,00,00*64
2017-12-31 18:42:21 1514763741.801604: $GPGGA,234222,3946.9581,N,08404.9836,W,2,12,0.80,306.79,M,-33.324,M,,*7D
2017-12-31 18:42:21 1514763741.801669: $GPRMC,234222,A,3946.9581,N,08404.9836,W,0.0000,0.000,311217,,*3E
2017-12-31 18:42:21 1514763741.801731: $GPGSA,A,3,22,23,9,3,16,8,14,31,27,7,26,135,1.7,0.8,1.3*0C
2017-12-31 18:42:22 1514763742.388701: $GPZDA,234223.00,31,12,2017,00,00*65
2017-12-31 18:42:22 1514763742.388871: $GPGGA,234223,3946.9581,N,08404.9836,W,2,12,0.80,306.79,M,-33.324,M,,*7C
2017-12-31 18:42:22 1514763742.388940: $GPRMC,234223,A,3946.9581,N,08404.9836,W,0.0000,0.000,311217,,*3F
2017-12-31 18:42:22 1514763742.389005: $GPGSA,A,3,22,23,9,3,16,8,14,31,27,7,26,135,1.7,0.8,1.3*0C
2017-12-31 18:42:23 1514763743.353196: $GPZDA,234224.00,31,12,2017,00,00*62
2017-12-31 18:42:23 1514763743.353366: $GPGGA,234224,3946.9581,N,08404.9836,W,2,12,0.80,306.79,M,-33.324,M,,*7B
2017-12-31 18:42:23 1514763743.353488: $GPRMC,234224,A,3946.9581,N,08404.9836,W,0.0000,0.000,311217,,*38
2017-12-31 18:42:23 1514763743.353551: $GPGSA,A,3,22,23,9,3,16,8,14,31,27,7,26,135,1.7,0.8,1.3*0C
2017-12-31 18:42:24 1514763744.688720: $GPGSV,3,1,12,22,10,205,25,23,66,288,42,09,33,310,40,03,20,222,41*75
2017-12-31 18:42:24 1514763744.688925: $GPGSV,3,2,12,16,80,037,41,08,13,177,31,14,02,139,23,31,18,087,36*70
2017-12-31 18:42:24 1514763744.688998: $GPGSV,3,3,12,27,36,145,40,07,08,282,39,26,47,046,46,135,22,240,42*43
2017-12-31 18:42:24 1514763744.802028: $GPZDA,234225.00,31,12,2017,00,00*63
2017-12-31 18:42:24 1514763744.802193: $GPGGA,234225,3946.9581,N,08404.9836,W,2,12,0.80,306.79,M,-33.324,M,,*7A
2017-12-31 18:42:24 1514763744.802261: $GPRMC,234225,A,3946.9581,N,08404.9836,W,0.0000,0.000,311217,,*39
2017-12-31 18:42:24 1514763744.802323: $GPGSA,A,3,22,23,9,3,16,8,14,31,27,7,26,135,1.7,0.8,1.3*0C
2017-12-31 18:42:25 1514763745.427636: $GPZDA,234226.00,31,12,2017,00,00*60
2017-12-31 18:42:25 1514763745.427813: $GPGGA,234226,3946.9581,N,08404.9836,W,2,12,0.80,306.79,M,-33.324,M,,*79
2017-12-31 18:42:25 1514763745.427883: $GPRMC,234226,A,3946.9581,N,08404.9836,W,0.0000,0.000,311217,,*3A
2017-12-31 18:42:25 1514763745.427945: $GPGSA,A,3,22,23,9,3,16,8,14,31,27,7,26,135,1.7,0.8,1.3*0C
2017-12-31 18:42:26 1514763746.388352: $GPZDA,234227.00,31,12,2017,00,00*61
2017-12-31 18:42:26 1514763746.388523: $GPGGA,234227,3946.9581,N,08404.9836,W,2,12,0.80,306.79,M,-33.324,M,,*78
2017-12-31 18:42:26 1514763746.388591: $GPRMC,234227,A,3946.9581,N,08404.9836,W,0.0000,0.000,311217,,*3B
2017-12-31 18:42:26 1514763746.388652: $GPGSA,A,3,22,23,9,3,16,8,14,31,27,7,26,135,1.7,0.8,1.3*0C
2017-12-31 18:42:27 1514763747.689075: $GPGSV,3,1,12,22,10,205,24,23,66,288,42,09,33,310,40,03,20,222,41*74
2017-12-31 18:42:27 1514763747.689252: $GPGSV,3,2,12,16,80,037,42,08,13,177,30,14,02,139,23,31,18,087,38*7C
2017-12-31 18:42:27 1514763747.689318: $GPGSV,3,3,12,27,36,145,40,07,08,282,40,26,47,046,46,135,22,240,43*4C
2017-12-31 18:42:27 1514763747.802399: $GPZDA,234228.00,31,12,2017,00,00*6E
2017-12-31 18:42:27 1514763747.802566: $GPGGA,234228,3946.9581,N,08404.9843,W,2,12,0.80,306.71,M,-33.324,M,,*7D
2017-12-31 18:42:27 1514763747.802633: $GPRMC,234228,A,3946.9581,N,08404.9843,W,0.0000,0.000,311217,,*36
2017-12-31 18:42:27 1514763747.802695: $GPGSA,A,3,22,23,9,3,16,8,14,31,27,7,26,135,1.7,0.8,1.3*0C
2017-12-31 18:42:28 1514763748.352090: $GPZDA,234229.00,31,12,2017,00,00*6F
2017-12-31 18:42:28 1514763748.352258: $GPGGA,234229,3946.9581,N,08404.9843,W,2,12,0.80,306.71,M,-33.324,M,,*7C
2017-12-31 18:42:28 1514763748.352325: $GPRMC,234229,A,3946.9581,N,08404.9843,W,0.0000,0.000,311217,,*37
2017-12-31 18:42:28 1514763748.352386: $GPGSA,A,3,22,23,9,3,16,8,14,31,27,7,26,135,1.7,0.8,1.3*0C
2017-12-31 18:42:29 1514763749.389219: $GPZDA,234230.00,31,12,2017,00,00*67
2017-12-31 18:42:29 1514763749.389399: $GPGGA,234230,3946.9581,N,08404.9843,W,2,12,0.80,306.71,M,-33.324,M,,*74
2017-12-31 18:42:29 1514763749.389469: $GPRMC,234230,A,3946.9581,N,08404.9843,W,0.0000,0.000,311217,,*3F
2017-12-31 18:42:29 1514763749.389530: $GPGSA,A,3,22,23,9,3,16,8,14,31,27,7,26,135,1.7,0.8,1.3*0C
2017-12-31 18:42:30 1514763750.681989: $GPGSV,3,1,12,22,10,205,18,23,66,288,41,09,33,310,39,03,20,222,41*76
2017-12-31 18:42:30 1514763750.682204: $GPGSV,3,2,12,16,80,037,42,08,13,177,30,14,02,139,22,31,18,087,38*7D
2017-12-31 18:42:30 1514763750.682271: $GPGSV,3,3,12,27,36,145,40,07,08,282,40,26,47,046,45,135,22,240,44*48
2017-12-31 18:42:30 1514763750.795256: $GPZDA,234231.00,31,12,2017,00,00*66
2017-12-31 18:42:30 1514763750.795426: $GPGGA,234231,3946.9581,N,08404.9843,W,2,12,0.80,306.71,M,-33.324,M,,*75
2017-12-31 18:42:30 1514763750.795492: $GPRMC,234231,A,3946.9581,N,08404.9843,W,0.0000,0.000,311217,,*3E
2017-12-31 18:42:30 1514763750.795554: $GPGSA,A,3,22,23,9,3,16,8,14,31,27,7,26,135,1.7,0.8,1.3*0C
2017-12-31 18:42:31 1514763751.353586: $GPZDA,234232.00,31,12,2017,00,00*65
2017-12-31 18:42:31 1514763751.353772: $GPGGA,234232,3946.9581,N,08404.9843,W,2,12,0.80,306.71,M,-33.324,M,,*76
2017-12-31 18:42:31 1514763751.353930: $GPRMC,234232,A,3946.9581,N,08404.9843,W,0.0000,0.000,311217,,*3D
2017-12-31 18:42:31 1514763751.353994: $GPGSA,A,3,22,23,9,3,16,8,14,31,27,7,26,135,1.7,0.8,1.3*0C
2017-12-31 18:42:32 1514763752.352490: $GPZDA,234233.00,31,12,2017,00,00*64
2017-12-31 18:42:32 1514763752.352659: $GPGGA,234233,3946.9581,N,08404.9843,W,2,12,0.80,306.71,M,-33.324,M,,*77
2017-12-31 18:42:32 1514763752.352725: $GPRMC,234233,A,3946.9581,N,08404.9843,W,0.0000,0.000,311217,,*3C
2017-12-31 18:42:32 1514763752.352813: $GPGSA,A,3,22,23,9,3,16,8,14,31,27,7,26,135,1.7,0.8,1.3*0C
2017-12-31 18:42:33 1514763753.689231: $GPGSV,3,1,12,22,10,205,23,23,66,288,40,09,33,310,40,03,20,222,40*70
2017-12-31 18:42:33 1514763753.689412: $GPGSV,3,2,12,16,80,037,43,08,13,177,30,14,02,139,22,31,18,087,38*7C
2017-12-31 18:42:33 1514763753.689478: $GPGSV,3,3,12,27,36,145,40,07,08,282,40,26,47,046,44,135,22,240,44*49
2017-12-31 18:42:33 1514763753.802681: $GPZDA,234234.00,31,12,2017,00,00*63
2017-12-31 18:42:33 1514763753.802856: $GPGGA,234234,3946.9581,N,08404.9843,W,2,12,0.80,306.71,M,-33.324,M,,*70
2017-12-31 18:42:33 1514763753.802924: $GPRMC,234234,A,3946.9581,N,08404.9843,W,0.0000,0.000,311217,,*3B
2017-12-31 18:42:33 1514763753.802984: $GPGSA,A,3,22,23,9,3,16,8,14,31,27,7,26,135,1.7,0.8,1.3*0C
2017-12-31 18:42:34 1514763754.354632: $GPZDA,234235.00,31,12,2017,00,00*62
2017-12-31 18:42:34 1514763754.354802: $GPGGA,234235,3946.9581,N,08404.9843,W,2,12,0.80,306.71,M,-33.324,M,,*71
2017-12-31 18:42:34 1514763754.354869: $GPRMC,234235,A,3946.9581,N,08404.9843,W,0.0000,0.000,311217,,*3A
2017-12-31 18:42:34 1514763754.354930: $GPGSA,A,3,22,23,9,3,16,8,14,31,27,7,26,135,1.7,0.8,1.3*0C
2017-12-31 18:42:35 1514763755.353984: $GPZDA,234236.00,31,12,2017,00,00*61
2017-12-31 18:42:35 1514763755.354182: $GPGGA,234236,3946.9581,N,08404.9843,W,2,12,0.80,306.71,M,-33.324,M,,*72
2017-12-31 18:42:35 1514763755.354248: $GPRMC,234236,A,3946.9581,N,08404.9843,W,0.0000,0.000,311217,,*39
2017-12-31 18:42:35 1514763755.354309: $GPGSA,A,3,22,23,9,3,16,8,14,31,27,7,26,135,1.7,0.8,1.3*0C
