2018-01-11 19:44:52 1515717892.425912: {"class":"VERSION","release":"3.16","rev":"3.16-4","proto_major":3,"proto_minor":11}
2018-01-11 19:44:52 1515717892.426252: {"class":"DEVICES","devices":[{"class":"DEVICE","path":"/dev/ttyUSB0","driver":"SiRF","subtype":"9\u0006GSD4e_4.1.2-P1_RPATCH.05-F-GPS-4R-1510281 11/03/2015 307","activated":"2018-01-12T00:44:52.421Z","flags":1,"native":1,"bps":4800,"parity":"N","stopbits":1,"cycle":1.00}]}
2018-01-11 19:44:52 1515717892.426370: {"class":"WATCH","enable":true,"json":false,"nmea":true,"raw":0,"scaled":false,"timing":false,"split24":false,"pps":false}
2018-01-11 19:44:53 1515717893.706147: $GPGSV,3,1,12,07,44,310,36,08,63,157,46,09,55,247,44,16,32,052,47*7E
2018-01-11 19:44:53 1515717893.706305: $GPGSV,3,2,12,23,41,195,48,27,56,067,50,30,19,301,41,11,10,172,33*75
2018-01-11 19:44:53 1515717893.706371: $GPGSV,3,3,12,26,07,066,18,28,05,249,04,21,01,031,00,138,38,213,45*44
2018-01-11 19:44:53 1515717893.819544: $GPZDA,004454.00,12,01,2018,00,00*6E
2018-01-11 19:44:53 1515717893.819695: $GPGGA,004454,3946.9602,N,08404.9843,W,2,10,0.80,309.91,M,-33.324,M,,*7A
2018-01-11 19:44:53 1515717893.819761: $GPRMC,004454,A,3946.9602,N,08404.9843,W,0.0000,0.000,120118,,*3E
2018-01-11 19:44:53 1515717893.819821: $GPGSA,A,3,7,8,9,16,23,27,30,11,26,138,,,4.0,0.8,3.5*30
2018-01-11 19:44:54 1515717894.367902: $GPZDA,004455.00,12,01,2018,00,00*6F
2018-01-11 19:44:54 1515717894.368084: $GPGGA,004455,3946.9602,N,08404.9843,W,2,10,0.80,309.91,M,-33.324,M,,*7B
2018-01-11 19:44:54 1515717894.368151: $GPRMC,004455,A,3946.9602,N,08404.9843,W,0.0000,0.000,120118,,*3F
2018-01-11 19:44:54 1515717894.368213: $GPGSA,A,3,7,8,9,16,23,27,30,11,26,138,,,4.0,0.8,3.5*30
2018-01-11 19:44:55 1515717895.385005: $GPZDA,004456.00,12,01,2018,00,00*6C
2018-01-11 19:44:55 1515717895.385169: $GPGGA,004456,3946.9602,N,08404.9843,W,2,10,0.80,309.91,M,-33.324,M,,*78
2018-01-11 19:44:55 1515717895.385236: $GPRMC,004456,A,3946.9602,N,08404.9843,W,0.0000,0.000,120118,,*3C
2018-01-11 19:44:55 1515717895.385297: $GPGSA,A,3,7,8,9,16,23,27,30,11,26,138,,,4.0,0.8,3.5*30
2018-01-11 19:44:56 1515717896.704498: $GPGSV,3,1,12,07,44,310,36,08,63,157,46,09,55,247,44,16,32,052,47*7E
2018-01-11 19:44:56 1515717896.704674: $GPGSV,3,2,12,23,41,195,48,27,56,067,50,30,19,301,40,11,10,172,33*74
2018-01-11 19:44:56 1515717896.704738: $GPGSV,3,3,12,26,07,066,19,28,05,249,04,21,01,031,12,138,38,213,44*47
2018-01-11 19:44:56 1515717896.817832: $GPZDA,004457.00,12,01,2018,00,00*6D
2018-01-11 19:44:56 1515717896.817971: $GPGGA,004457,3946.9599,N,08404.9844,W,2,10,0.80,310.67,M,-33.324,M,,*7E
2018-01-11 19:44:56 1515717896.818036: $GPRMC,004457,A,3946.9599,N,08404.9844,W,0.0000,0.000,120118,,*3B
2018-01-11 19:44:56 1515717896.818096: $GPGSA,A,3,7,8,9,16,23,27,30,11,26,138,,,4.0,0.8,3.5*30
2018-01-11 19:44:57 1515717897.443188: $GPZDA,004458.00,12,01,2018,00,00*62
2018-01-11 19:44:57 1515717897.443358: $GPGGA,004458,3946.9599,N,08404.9844,W,2,10,0.80,310.67,M,-33.324,M,,*71
2018-01-11 19:44:57 1515717897.443424: $GPRMC,004458,A,3946.9599,N,08404.9844,W,0.0000,0.000,120118,,*34
2018-01-11 19:44:57 1515717897.443488: $GPGSA,A,3,7,8,9,16,23,27,30,11,26,138,,,4.0,0.8,3.5*30
2018-01-11 19:44:58 1515717898.367835: $GPZDA,004459.00,12,01,2018,00,00*63
2018-01-11 19:44:58 1515717898.367990: $GPGGA,004459,3946.9599,N,08404.9844,W,2,10,0.80,310.67,M,-33.324,M,,*70
2018-01-11 19:44:58 1515717898.368057: $GPRMC,004459,A,3946.9599,N,08404.9844,W,0.0000,0.000,120118,,*35
2018-01-11 19:44:58 1515717898.368118: $GPGSA,A,3,7,8,9,16,23,27,30,11,26,138,,,4.0,0.8,3.5*30
2018-01-11 19:44:59 1515717899.719828: $GPGSV,3,1,12,07,44,310,36,08,63,157,46,09,55,247,44,16,32,052,47*7E
2018-01-11 19:44:59 1515717899.720007: $GPGSV,3,2,12,23,41,195,48,27,56,067,50,30,19,301,40,11,10,172,33*74
2018-01-11 19:44:59 1515717899.720073: $GPGSV,3,3,12,26,07,066,19,28,05,249,04,21,01,031,00,138,38,213,45*45
2018-01-11 19:44:59 1515717899.833276: $GPZDA,004500.00,12,01,2018,00,00*6E
2018-01-11 19:44:59 1515717899.833416: $GPGGA,004500,3946.9599,N,08404.9844,W,2,10,0.80,310.67,M,-33.324,M,,*7D
2018-01-11 19:44:59 1515717899.833544: $GPRMC,004500,A,3946.9599,N,08404.9844,W,0.0000,0.000,120118,,*38
2018-01-11 19:44:59 1515717899.833606: $GPGSA,A,3,7,8,9,16,23,27,30,11,26,138,,,4.0,0.8,3.5*30
2018-01-11 19:45:00 1515717900.361636: $GPZDA,004501.00,12,01,2018,00,00*6F
2018-01-11 19:45:00 1515717900.361782: $GPGGA,004501,3946.9599,N,08404.9844,W,2,10,0.80,310.67,M,-33.324,M,,*7C
2018-01-11 19:45:00 1515717900.361850: $GPRMC,004501,A,3946.9599,N,08404.9844,W,0.0000,0.000,120118,,*39
2018-01-11 19:45:00 1515717900.361911: $GPGSA,A,3,7,8,9,16,23,27,30,11,26,138,,,4.0,0.8,3.5*30
