2017-12-01 15:32:15 1512160335.316880: {"class":"VERSION","release":"3.16","rev":"3.16-4","proto_major":3,"proto_minor":11}
2017-12-01 15:32:15 1512160335.317298: {"class":"DEVICES","devices":[{"class":"DEVICE","path":"/dev/ttyUSB0","driver":"SiRF","subtype":"9\u0006GSD4e_4.1.2-P1_RPATCH.05-F-GPS-4R-1510281 11/03/2015 307","activated":"2017-12-01T20:32:15.299Z","flags":1,"native":1,"bps":4800,"parity":"N","stopbits":1,"cycle":1.00}]}
2017-12-01 15:32:15 1512160335.317420: {"class":"WATCH","enable":true,"json":false,"nmea":true,"raw":0,"scaled":false,"timing":false,"split24":false,"pps":false}
2017-12-01 15:32:16 1512160336.359341: $GPZDA,203216.46,01,12,2017,00,00*66
2017-12-01 15:32:16 1512160336.359495: $GPGGA,203216,3946.9598,N,08404.9865,W,1,11,0.80,298.36,M,-33.324,M,,*7D
2017-12-01 15:32:16 1512160336.359561: $GPRMC,203216,A,3946.9598,N,08404.9865,W,0.1867,180.000,011217,,*31
2017-12-01 15:32:16 1512160336.359622: $GPGSA,A,3,1,10,11,12,14,18,24,25,31,32,138,,2.0,0.8,1.5*3B
2017-12-01 15:32:16 1512160336.359681: $GPGBS,203216,10.70,M,15.43,M,35.28,M*03
2017-12-01 15:32:17 1512160337.478161: $GPGSV,3,1,11,01,10,322,34,10,75,121,48,11,10,306,35,12,24,078,45*7B
2017-12-01 15:32:17 1512160337.478342: $GPGSV,3,2,11,14,51,285,42,18,43,132,46,24,19,045,43,25,26,120,46*76
2017-12-01 15:32:17 1512160337.478410: $GPGSV,3,3,11,31,29,210,47,32,66,315,48,138,38,213,31*79
2017-12-01 15:32:17 1512160337.591532: $GPZDA,203217.00,01,12,2017,00,00*65
2017-12-01 15:32:17 1512160337.591668: $GPGGA,203217,3946.9601,N,08404.9877,W,1,11,0.80,294.62,M,-33.324,M,,*71
2017-12-01 15:32:17 1512160337.591733: $GPRMC,203217,A,3946.9601,N,08404.9877,W,0.1567,9.200,011217,,*3F
2017-12-01 15:32:17 1512160337.591794: $GPGSA,A,3,1,10,11,12,14,18,24,25,31,32,138,,2.0,0.8,1.5*3B
2017-12-01 15:32:18 1512160338.043722: $GPZDA,203218.00,01,12,2017,00,00*6A
2017-12-01 15:32:18 1512160338.043899: $GPGGA,203218,3946.9603,N,08404.9882,W,1,11,0.80,290.97,M,-33.324,M,,*78
2017-12-01 15:32:18 1512160338.043968: $GPRMC,203218,A,3946.9603,N,08404.9882,W,0.0407,142.014,011217,,*37
2017-12-01 15:32:18 1512160338.044029: $GPGSA,A,3,1,10,11,12,14,18,24,25,31,32,138,,2.0,0.8,1.5*3B
2017-12-01 15:32:18 1512160338.494896: $GPZDA,203219.00,01,12,2017,00,00*6B
2017-12-01 15:32:18 1512160338.495064: $GPGGA,203219,3946.9599,N,08404.9882,W,1,11,0.80,291.74,M,-33.324,M,,*75
2017-12-01 15:32:18 1512160338.495130: $GPRMC,203219,A,3946.9599,N,08404.9882,W,0.0000,0.000,011217,,*37
2017-12-01 15:32:18 1512160338.495191: $GPGSA,A,3,1,10,11,12,14,18,24,25,31,32,138,,2.0,0.8,1.5*3B
2017-12-01 15:32:19 1512160339.734793: $GPGSV,3,1,11,01,10,322,34,10,75,121,48,11,10,306,36,12,24,078,45*78
2017-12-01 15:32:19 1512160339.734979: $GPGSV,3,2,11,14,51,285,41,18,43,132,47,24,19,045,44,25,26,120,45*70
2017-12-01 15:32:19 1512160339.735046: $GPGSV,3,3,11,31,29,210,47,32,66,315,49,138,38,213,46*78
2017-12-01 15:32:19 1512160339.848167: $GPZDA,203220.00,01,12,2017,00,00*61
2017-12-01 15:32:19 1512160339.848348: $GPGGA,203220,3946.9599,N,08404.9882,W,1,11,0.80,291.74,M,-33.324,M,,*7F
2017-12-01 15:32:19 1512160339.848415: $GPRMC,203220,A,3946.9599,N,08404.9882,W,0.0000,0.000,011217,,*3D
2017-12-01 15:32:19 1512160339.848477: $GPGSA,A,3,1,10,11,12,14,18,24,25,31,32,138,,2.0,0.8,1.5*3B
2017-12-01 15:32:20 1512160340.397772: $GPZDA,203221.00,01,12,2017,00,00*60
2017-12-01 15:32:20 1512160340.397961: $GPGGA,203221,3946.9599,N,08404.9882,W,1,11,0.80,291.74,M,-33.324,M,,*7E
2017-12-01 15:32:20 1512160340.398030: $GPRMC,203221,A,3946.9599,N,08404.9882,W,0.0000,0.000,011217,,*3C
2017-12-01 15:32:20 1512160340.398093: $GPGSA,A,3,1,10,11,12,14,18,24,25,31,32,138,,2.0,0.8,1.5*3B
2017-12-01 15:32:21 1512160341.401311: $GPZDA,203222.00,01,12,2017,00,00*63
2017-12-01 15:32:21 1512160341.401528: $GPGGA,203222,3946.9599,N,08404.9882,W,1,11,0.80,291.74,M,-33.324,M,,*7D
2017-12-01 15:32:21 1512160341.401598: $GPRMC,203222,A,3946.9599,N,08404.9882,W,0.0000,0.000,011217,,*3F
2017-12-01 15:32:21 1512160341.401659: $GPGSA,A,3,1,10,11,12,14,18,24,25,31,32,138,,2.0,0.8,1.5*3B
2017-12-01 15:32:21 1512160341.401719: $GPGBS,203222,10.70,M,15.43,M,35.28,M*04
2017-12-01 15:32:22 1512160342.738025: $GPGSV,3,1,11,01,10,322,34,10,75,121,48,11,10,306,37,12,24,078,45*79
2017-12-01 15:32:22 1512160342.738227: $GPGSV,3,2,11,14,51,285,42,18,43,132,47,24,19,045,44,25,26,120,45*73
2017-12-01 15:32:22 1512160342.738294: $GPGSV,3,3,11,31,29,210,47,32,66,315,49,138,38,213,47*79
2017-12-01 15:32:22 1512160342.851894: $GPZDA,203223.00,01,12,2017,00,00*62
2017-12-01 15:32:22 1512160342.852076: $GPGGA,203223,3946.9599,N,08404.9882,W,2,11,1.00,291.74,M,-33.324,M,,*76
2017-12-01 15:32:22 1512160342.852146: $GPRMC,203223,A,3946.9599,N,08404.9882,W,0.0000,0.000,011217,,*3E
2017-12-01 15:32:22 1512160342.852211: $GPGSA,A,3,1,10,11,12,14,18,24,25,31,32,138,,2.0,1.0,1.5*32
2017-12-01 15:32:23 1512160343.403621: $GPZDA,203224.00,01,12,2017,00,00*65
2017-12-01 15:32:23 1512160343.403781: $GPGGA,203224,3946.9604,N,08404.9882,W,2,11,0.80,292.38,M,-33.324,M,,*74
2017-12-01 15:32:23 1512160343.403849: $GPRMC,203224,A,3946.9604,N,08404.9882,W,0.0000,0.000,011217,,*3E
2017-12-01 15:32:23 1512160343.403909: $GPGSA,A,3,1,10,11,12,14,18,24,25,31,32,138,,2.0,0.8,1.5*3B
2017-12-01 15:32:24 1512160344.403065: $GPZDA,203225.00,01,12,2017,00,00*64
2017-12-01 15:32:24 1512160344.403262: $GPGGA,203225,3946.9600,N,08404.9876,W,2,11,0.80,293.22,M,-33.324,M,,*70
2017-12-01 15:32:24 1512160344.403330: $GPRMC,203225,A,3946.9600,N,08404.9876,W,0.0000,0.000,011217,,*30
2017-12-01 15:32:24 1512160344.403391: $GPGSA,A,3,1,10,11,12,14,18,24,25,31,32,138,,2.0,0.8,1.5*3B
2017-12-01 15:32:25 1512160345.739656: $GPGSV,3,1,11,01,10,322,35,10,75,121,48,11,10,306,37,12,24,078,44*79
2017-12-01 15:32:25 1512160345.739811: $GPGSV,3,2,11,14,51,285,42,18,43,132,47,24,19,045,44,25,26,120,45*73
2017-12-01 15:32:25 1512160345.739877: $GPGSV,3,3,11,31,29,210,47,32,66,315,49,138,38,213,46*78
2017-12-01 15:32:25 1512160345.853004: $GPZDA,203226.00,01,12,2017,00,00*67
2017-12-01 15:32:25 1512160345.853192: $GPGGA,203226,3946.9600,N,08404.9876,W,2,11,0.80,293.22,M,-33.324,M,,*73
2017-12-01 15:32:25 1512160345.853261: $GPRMC,203226,A,3946.9600,N,08404.9876,W,0.0000,0.000,011217,,*33
2017-12-01 15:32:25 1512160345.853324: $GPGSA,A,3,1,10,11,12,14,18,24,25,31,32,138,,2.0,0.8,1.5*3B
2017-12-01 15:32:26 1512160346.403861: $GPZDA,203227.00,01,12,2017,00,00*66
2017-12-01 15:32:26 1512160346.404044: $GPGGA,203227,3946.9600,N,08404.9876,W,2,11,0.80,293.22,M,-33.324,M,,*72
2017-12-01 15:32:26 1512160346.404115: $GPRMC,203227,A,3946.9600,N,08404.9876,W,0.0000,0.000,011217,,*32
2017-12-01 15:32:26 1512160346.404181: $GPGSA,A,3,1,10,11,12,14,18,24,25,31,32,138,,2.0,0.8,1.5*3B
2017-12-01 15:32:27 1512160347.403765: $GPZDA,203228.00,01,12,2017,00,00*69
2017-12-01 15:32:27 1512160347.403937: $GPGGA,203228,3946.9600,N,08404.9876,W,2,11,0.80,293.22,M,-33.324,M,,*7D
2017-12-01 15:32:27 1512160347.404005: $GPRMC,203228,A,3946.9600,N,08404.9876,W,0.0000,0.000,011217,,*3D
2017-12-01 15:32:27 1512160347.404069: $GPGSA,A,3,1,10,11,12,14,18,24,25,31,32,138,,2.0,0.8,1.5*3B
2017-12-01 15:32:28 1512160348.737994: $GPGSV,3,1,11,01,10,322,36,10,75,121,49,11,10,306,36,12,24,078,44*7A
2017-12-01 15:32:28 1512160348.738187: $GPGSV,3,2,11,14,51,285,43,18,43,132,47,24,19,045,44,25,26,120,45*72
2017-12-01 15:32:28 1512160348.738253: $GPGSV,3,3,11,31,29,210,47,32,66,315,49,138,38,213,46*78
2017-12-01 15:32:28 1512160348.851638: $GPZDA,203229.00,01,12,2017,00,00*68
2017-12-01 15:32:28 1512160348.851772: $GPGGA,203229,3946.9600,N,08404.9876,W,2,11,0.80,293.22,M,-33.324,M,,*7C
2017-12-01 15:32:28 1512160348.851840: $GPRMC,203229,A,3946.9600,N,08404.9876,W,0.0000,0.000,011217,,*3C
2017-12-01 15:32:28 1512160348.851902: $GPGSA,A,3,1,10,11,12,14,18,24,25,31,32,138,,2.0,0.8,1.5*3B
2017-12-01 15:32:29 1512160349.477012: $GPZDA,203230.00,01,12,2017,00,00*60
2017-12-01 15:32:29 1512160349.477183: $GPGGA,203230,3946.9600,N,08404.9876,W,2,11,0.80,293.22,M,-33.324,M,,*74
2017-12-01 15:32:29 1512160349.477250: $GPRMC,203230,A,3946.9600,N,08404.9876,W,0.0000,0.000,011217,,*34
2017-12-01 15:32:29 1512160349.477313: $GPGSA,A,3,1,10,11,12,14,18,24,25,31,32,138,,2.0,0.8,1.5*3B
2017-12-01 15:32:30 1512160350.398934: $GPZDA,203231.00,01,12,2017,00,00*61
2017-12-01 15:32:30 1512160350.399109: $GPGGA,203231,3946.9596,N,08404.9877,W,2,11,0.80,293.98,M,-33.324,M,,*79
2017-12-01 15:32:30 1512160350.399179: $GPRMC,203231,A,3946.9596,N,08404.9877,W,0.0000,0.000,011217,,*38
2017-12-01 15:32:30 1512160350.399240: $GPGSA,A,3,1,10,11,12,14,18,24,25,31,32,138,,2.0,0.8,1.5*3B
2017-12-01 15:32:31 1512160351.739684: $GPGSV,3,1,11,01,10,322,42,10,75,121,49,11,10,306,36,12,24,078,44*79
2017-12-01 15:32:31 1512160351.739868: $GPGSV,3,2,11,14,51,285,43,18,43,132,47,24,19,045,44,25,26,120,45*72
2017-12-01 15:32:31 1512160351.739936: $GPGSV,3,3,11,31,29,210,48,32,66,315,49,138,38,213,47*76
2017-12-01 15:32:31 1512160351.853044: $GPZDA,203232.00,01,12,2017,00,00*62
2017-12-01 15:32:31 1512160351.853259: $GPGGA,203232,3946.9596,N,08404.9877,W,2,11,0.80,293.98,M,-33.324,M,,*7A
2017-12-01 15:32:31 1512160351.853334: $GPRMC,203232,A,3946.9596,N,08404.9877,W,0.0000,0.000,011217,,*3B
2017-12-01 15:32:31 1512160351.853400: $GPGSA,A,3,1,10,11,12,14,18,24,25,31,32,138,,2.0,0.8,1.5*3B
2017-12-01 15:32:32 1512160352.402748: $GPZDA,203233.00,01,12,2017,00,00*63
2017-12-01 15:32:32 1512160352.402919: $GPGGA,203233,3946.9596,N,08404.9877,W,2,11,0.80,293.98,M,-33.324,M,,*7B
2017-12-01 15:32:32 1512160352.402986: $GPRMC,203233,A,3946.9596,N,08404.9877,W,0.0000,0.000,011217,,*3A
2017-12-01 15:32:32 1512160352.403051: $GPGSA,A,3,1,10,11,12,14,18,24,25,31,32,138,,2.0,0.8,1.5*3B
2017-12-01 15:32:33 1512160353.398364: $GPZDA,203234.00,01,12,2017,00,00*64
2017-12-01 15:32:33 1512160353.398554: $GPGGA,203234,3946.9597,N,08404.9870,W,2,11,0.80,295.47,M,-33.324,M,,*7E
2017-12-01 15:32:33 1512160353.398641: $GPRMC,203234,A,3946.9597,N,08404.9870,W,0.3423,184.196,011217,,*3E
2017-12-01 15:32:33 1512160353.398706: $GPGSA,A,3,1,10,11,12,14,18,24,25,31,32,138,,2.0,0.8,1.5*3B
2017-12-01 15:32:33 1512160353.398767: $GPGBS,203234,2.67,M,3.86,M,8.82,M*36
2017-12-01 15:32:34 1512160354.733627: $GPGSV,3,1,11,01,10,322,41,10,75,121,48,11,10,306,34,12,24,078,44*79
2017-12-01 15:32:34 1512160354.733824: $GPGSV,3,2,11,14,51,285,43,18,43,132,46,24,19,045,43,25,26,120,44*75
2017-12-01 15:32:34 1512160354.733893: $GPGSV,3,3,11,31,29,210,46,32,66,315,48,138,38,213,44*7A
2017-12-01 15:32:34 1512160354.846958: $GPZDA,203235.00,01,12,2017,00,00*65
2017-12-01 15:32:34 1512160354.847138: $GPGGA,203235,3946.9597,N,08404.9870,W,2,11,0.80,295.47,M,-33.324,M,,*7F
2017-12-01 15:32:34 1512160354.847205: $GPRMC,203235,A,3946.9597,N,08404.9870,W,0.0000,0.000,011217,,*3A
2017-12-01 15:32:34 1512160354.847267: $GPGSA,A,3,1,10,11,12,14,18,24,25,31,32,138,,2.0,0.8,1.5*3B
