2017-11-15 19:21:31 1510791691.520313: {"class":"VERSION","release":"3.17","rev":"3.17","proto_major":3,"proto_minor":12}
2017-11-15 19:21:31 1510791691.520751: {"class":"DEVICES","devices":[{"class":"DEVICE","path":"/dev/ttyUSB0","driver":"SiRF","subtype":"9\u0006GSD4e_4.1.2-P1_RPATCH.05-F-GPS-4R-1510281 11/03/2015 307","activated":"2017-11-16T00:21:31.458Z","flags":1,"native":1,"bps":4800,"parity":"N","stopbits":1,"cycle":1.00}]}
2017-11-15 19:21:31 1510791691.520871: {"class":"WATCH","enable":true,"json":false,"nmea":true,"raw":0,"scaled":false,"timing":false,"split24":false,"pps":false}
2017-11-15 19:21:32 1510791692.347534: $GPZDA,002131.00,16,11,2017,00,00*64
2017-11-15 19:21:32 1510791692.347697: $GPGGA,002131,3946.9532,N,08404.9427,W,1,06,1.60,284.87,M,-33.324,M,,*7C
2017-11-15 19:21:32 1510791692.347756: $GPRMC,002131,A,3946.9532,N,08404.9427,W,0.5951,238.684,161117,,*31
2017-11-15 19:21:32 1510791692.347811: $GPGSA,A,3,32,14,22,26,31,29,,,,,,,3.4,1.6,2.9*30
2017-11-15 19:21:33 1510791693.682951: $GPGSV,3,1,12,32,39,105,21,14,58,087,17,22,50,276,21,26,49,174,21*78
2017-11-15 19:21:33 1510791693.683119: $GPGSV,3,2,12,31,71,018,18,29,09,075,10,16,18,190,04,03,37,303,04*7F
2017-11-15 19:21:33 1510791693.683179: $GPGSV,3,3,12,01,08,255,13,25,20,042,00,23,08,298,00,120,07,103,00*4C
2017-11-15 19:21:33 1510791693.796337: $GPZDA,002132.00,16,11,2017,00,00*67
2017-11-15 19:21:33 1510791693.796501: $GPGGA,002132,3946.9532,N,08404.9433,W,1,06,1.60,284.79,M,-33.324,M,,*7B
2017-11-15 19:21:33 1510791693.796561: $GPRMC,002132,A,3946.9532,N,08404.9433,W,0.7278,203.636,161117,,*34
2017-11-15 19:21:33 1510791693.796618: $GPGSA,A,3,32,14,22,26,31,29,,,,,,,3.4,1.6,2.9*30
2017-11-15 19:21:34 1510791694.330866: $GPZDA,002133.00,16,11,2017,00,00*66
2017-11-15 19:21:34 1510791694.331028: $GPGGA,002133,3946.9532,N,08404.9433,W,1,06,1.60,284.79,M,-33.324,M,,*7A
2017-11-15 19:21:34 1510791694.331090: $GPRMC,002133,A,3946.9532,N,08404.9433,W,0.8709,183.298,161117,,*32
2017-11-15 19:21:34 1510791694.331146: $GPGSA,A,3,32,14,22,26,31,29,,,,,,,3.4,1.6,2.9*30
2017-11-15 19:21:35 1510791695.329900: $GPZDA,002134.00,16,11,2017,00,00*61
2017-11-15 19:21:35 1510791695.330063: $GPGGA,002134,3946.9529,N,08404.9434,W,1,06,1.60,285.55,M,-33.324,M,,*7F
2017-11-15 19:21:35 1510791695.330124: $GPRMC,002134,A,3946.9529,N,08404.9434,W,0.5912,129.173,161117,,*37
2017-11-15 19:21:35 1510791695.330180: $GPGSA,A,3,32,14,22,26,31,29,,,,,,,3.4,1.6,2.9*30
2017-11-15 19:21:35 1510791695.330230: $GPGBS,002134,13.59,M,20.35,M,67.34,M*06
2017-11-15 19:21:36 1510791696.666629: $GPGSV,3,1,12,32,39,105,21,14,58,087,15,22,50,276,21,26,49,174,21*7A
2017-11-15 19:21:36 1510791696.666854: $GPGSV,3,2,12,31,71,018,18,29,09,075,04,25,20,042,00,03,37,303,04*7B
2017-11-15 19:21:36 1510791696.666917: $GPGSV,3,3,12,01,08,255,14,16,18,190,00,23,08,298,00,120,07,103,00*4E
2017-11-15 19:21:36 1510791696.780133: $GPZDA,002135.00,16,11,2017,00,00*60
2017-11-15 19:21:36 1510791696.780276: $GPGGA,002135,3946.9529,N,08404.9434,W,1,05,1.80,285.55,M,-33.324,M,,*73
2017-11-15 19:21:36 1510791696.780337: $GPRMC,002135,A,3946.9529,N,08404.9434,W,0.0000,0.000,161117,,*36
2017-11-15 19:21:36 1510791696.780407: $GPGSA,A,3,32,22,26,31,1,,,,,,,,3.4,1.8,2.9*01
2017-11-15 19:21:37 1510791697.329719: $GPZDA,002136.00,16,11,2017,00,00*63
2017-11-15 19:21:37 1510791697.329873: $GPGGA,002136,3946.9529,N,08404.9434,W,1,05,1.60,285.55,M,-33.324,M,,*7E
2017-11-15 19:21:37 1510791697.329934: $GPRMC,002136,A,3946.9529,N,08404.9434,W,0.5306,294.353,161117,,*3F
2017-11-15 19:21:37 1510791697.330006: $GPGSA,A,3,32,22,26,31,1,,,,,,,,3.4,1.6,2.9*0F
2017-11-15 19:21:38 1510791698.330203: $GPZDA,002137.00,16,11,2017,00,00*62
2017-11-15 19:21:38 1510791698.330367: $GPGGA,002137,3946.9533,N,08404.9434,W,1,05,1.60,286.19,M,-33.324,M,,*7F
2017-11-15 19:21:38 1510791698.330446: $GPRMC,002137,A,3946.9533,N,08404.9434,W,0.5912,309.173,161117,,*3F
2017-11-15 19:21:38 1510791698.330502: $GPGSA,A,3,32,22,26,31,1,,,,,,,,3.4,1.6,2.9*0F
2017-11-15 19:21:39 1510791699.664766: $GPGSV,3,1,12,32,39,105,21,14,58,087,14,22,50,276,22,26,49,174,20*79
2017-11-15 19:21:39 1510791699.664986: $GPGSV,3,2,12,31,71,018,18,29,09,075,04,25,20,042,00,03,37,303,04*7B
2017-11-15 19:21:39 1510791699.665048: $GPGSV,3,3,12,01,08,255,14,16,18,190,00,23,08,298,00,120,07,103,00*4E
2017-11-15 19:21:39 1510791699.778356: $GPZDA,002138.00,16,11,2017,00,00*6D
2017-11-15 19:21:39 1510791699.778522: $GPGGA,002138,3946.9533,N,08404.9441,W,1,06,1.60,286.12,M,-33.324,M,,*7A
2017-11-15 19:21:39 1510791699.778583: $GPRMC,002138,A,3946.9533,N,08404.9441,W,0.9689,273.794,161117,,*30
2017-11-15 19:21:39 1510791699.778639: $GPGSA,A,3,32,14,22,26,31,1,,,,,,,3.4,1.6,2.9*0A
2017-11-15 19:21:40 1510791700.330183: $GPZDA,002139.00,16,11,2017,00,00*6C
2017-11-15 19:21:40 1510791700.330352: $GPGGA,002139,3946.9533,N,08404.9441,W,1,06,1.60,286.12,M,-33.324,M,,*7B
2017-11-15 19:21:40 1510791700.330412: $GPRMC,002139,A,3946.9533,N,08404.9441,W,0.2422,273.794,161117,,*39
2017-11-15 19:21:40 1510791700.330468: $GPGSA,A,3,32,14,22,26,31,1,,,,,,,3.4,1.6,2.9*0A
2017-11-15 19:21:41 1510791701.329327: $GPZDA,002140.00,16,11,2017,00,00*62
2017-11-15 19:21:41 1510791701.329496: $GPGGA,002140,3946.9533,N,08404.9441,W,1,06,1.20,286.12,M,-33.324,M,,*71
2017-11-15 19:21:41 1510791701.329557: $GPRMC,002140,A,3946.9533,N,08404.9441,W,0.4207,219.347,161117,,*36
2017-11-15 19:21:41 1510791701.329613: $GPGSA,A,3,32,14,22,26,31,1,,,,,,,3.4,1.2,2.9*0E
