2017-12-31 18:03:21 1514761401.097198: {"class":"VERSION","release":"3.16","rev":"3.16-4","proto_major":3,"proto_minor":11}
2017-12-31 18:03:21 1514761401.097562: {"class":"DEVICES","devices":[{"class":"DEVICE","path":"/dev/ttyUSB0","driver":"SiRF","activated":"2017-12-31T23:03:20.509Z","flags":1,"native":1,"bps":4800,"parity":"N","stopbits":1,"cycle":1.00}]}
2017-12-31 18:03:21 1514761401.097663: {"class":"WATCH","enable":true,"json":false,"nmea":true,"raw":0,"scaled":false,"timing":false,"split24":false,"pps":false}
2017-12-31 18:03:21 1514761401.683156: $GPGSV,3,1,11,22,25,216,40,23,51,307,44,09,18,312,34,03,34,237,44*79
2017-12-31 18:03:21 1514761401.683309: $GPGSV,3,2,11,16,77,192,43,29,07,033,34,14,18,132,32,31,30,072,38*7B
2017-12-31 18:03:21 1514761401.683374: $GPGSV,3,3,11,27,19,156,30,26,65,052,49,135,22,240,44*79
2017-12-31 18:03:21 1514761401.796479: $GPZDA,230322.00,31,12,2017,00,00*61
2017-12-31 18:03:21 1514761401.796595: $GPGGA,230322,3946.9561,N,08404.9874,W,2,11,0.60,308.17,M,-33.324,M,,*7B
2017-12-31 18:03:21 1514761401.796660: $GPRMC,230322,A,3946.9561,N,08404.9874,W,0.0000,0.000,311217,,*33
2017-12-31 18:03:21 1514761401.796719: $GPGSA,A,3,22,23,9,3,16,29,14,31,27,26,135,,1.7,0.6,1.3*06
2017-12-31 18:03:22 1514761402.347438: $GPZDA,230323.00,31,12,2017,00,00*60
2017-12-31 18:03:22 1514761402.347611: $GPGGA,230323,3946.9561,N,08404.9874,W,2,11,0.60,308.17,M,-33.324,M,,*7A
2017-12-31 18:03:22 1514761402.347678: $GPRMC,230323,A,3946.9561,N,08404.9874,W,0.0000,0.000,311217,,*32
2017-12-31 18:03:22 1514761402.347740: $GPGSA,A,3,22,23,9,3,16,29,14,31,27,26,135,,1.7,0.6,1.3*06
2017-12-31 18:03:23 1514761403.347330: $GPZDA,230324.00,31,12,2017,00,00*67
2017-12-31 18:03:23 1514761403.347498: $GPGGA,230324,3946.9561,N,08404.9874,W,2,11,0.60,308.17,M,-33.324,M,,*7D
2017-12-31 18:03:23 1514761403.347566: $GPRMC,230324,A,3946.9561,N,08404.9874,W,0.0000,0.000,311217,,*35
2017-12-31 18:03:23 1514761403.347627: $GPGSA,A,3,22,23,9,3,16,29,14,31,27,26,135,,1.7,0.6,1.3*06
2017-12-31 18:03:24 1514761404.681508: $GPGSV,3,1,11,22,25,216,40,23,51,307,45,09,18,312,36,03,34,237,44*7A
2017-12-31 18:03:24 1514761404.681690: $GPGSV,3,2,11,16,77,192,44,29,07,033,32,14,18,132,32,31,30,072,37*75
2017-12-31 18:03:24 1514761404.681756: $GPGSV,3,3,11,27,19,156,30,26,65,052,49,135,22,240,44*79
2017-12-31 18:03:24 1514761404.795106: $GPZDA,230325.00,31,12,2017,00,00*66
2017-12-31 18:03:24 1514761404.795233: $GPGGA,230325,3946.9561,N,08404.9874,W,2,11,0.60,308.17,M,-33.324,M,,*7C
2017-12-31 18:03:24 1514761404.795298: $GPRMC,230325,A,3946.9561,N,08404.9874,W,0.0000,0.000,311217,,*34
2017-12-31 18:03:24 1514761404.795359: $GPGSA,A,3,22,23,9,3,16,29,14,31,27,26,135,,1.7,0.6,1.3*06
2017-12-31 18:03:25 1514761405.420619: $GPZDA,230326.00,31,12,2017,00,00*65
2017-12-31 18:03:25 1514761405.420790: $GPGGA,230326,3946.9561,N,08404.9874,W,2,11,0.60,308.17,M,-33.324,M,,*7F
2017-12-31 18:03:25 1514761405.420856: $GPRMC,230326,A,3946.9561,N,08404.9874,W,0.0000,0.000,311217,,*37
2017-12-31 18:03:25 1514761405.420917: $GPGSA,A,3,22,23,9,3,16,29,14,31,27,26,135,,1.7,0.6,1.3*06
2017-12-31 18:03:26 1514761406.341425: $GPZDA,230327.00,31,12,2017,00,00*64
2017-12-31 18:03:26 1514761406.341595: $GPGGA,230327,3946.9561,N,08404.9874,W,2,11,0.60,308.17,M,-33.324,M,,*7E
2017-12-31 18:03:26 1514761406.341661: $GPRMC,230327,A,3946.9561,N,08404.9874,W,0.0000,0.000,311217,,*36
2017-12-31 18:03:26 1514761406.341722: $GPGSA,A,3,22,23,9,3,16,29,14,31,27,26,135,,1.7,0.6,1.3*06
2017-12-31 18:03:27 1514761407.683145: $GPGSV,3,1,11,22,25,216,39,23,51,307,45,09,18,312,35,03,34,237,45*76
2017-12-31 18:03:27 1514761407.683331: $GPGSV,3,2,11,16,77,192,43,29,07,033,32,14,18,132,32,31,30,072,38*7D
2017-12-31 18:03:27 1514761407.683398: $GPGSV,3,3,11,27,19,156,30,26,65,052,49,135,22,240,43*7E
2017-12-31 18:03:27 1514761407.796773: $GPZDA,230328.00,31,12,2017,00,00*6B
2017-12-31 18:03:27 1514761407.796917: $GPGGA,230328,3946.9561,N,08404.9874,W,2,11,0.60,308.17,M,-33.324,M,,*71
2017-12-31 18:03:27 1514761407.796983: $GPRMC,230328,A,3946.9561,N,08404.9874,W,0.0000,0.000,311217,,*39
2017-12-31 18:03:27 1514761407.797159: $GPGSA,A,3,22,23,9,3,16,29,14,31,27,26,135,,1.7,0.6,1.3*06
2017-12-31 18:03:28 1514761408.346511: $GPZDA,230329.00,31,12,2017,00,00*6A
2017-12-31 18:03:28 1514761408.346680: $GPGGA,230329,3946.9561,N,08404.9874,W,2,11,0.60,308.17,M,-33.324,M,,*70
2017-12-31 18:03:28 1514761408.346746: $GPRMC,230329,A,3946.9561,N,08404.9874,W,0.0000,0.000,311217,,*38
2017-12-31 18:03:28 1514761408.346807: $GPGSA,A,3,22,23,9,3,16,29,14,31,27,26,135,,1.7,0.6,1.3*06
2017-12-31 18:03:29 1514761409.346084: $GPZDA,230330.00,31,12,2017,00,00*62
2017-12-31 18:03:29 1514761409.346253: $GPGGA,230330,3946.9561,N,08404.9874,W,2,11,0.60,308.17,M,-33.324,M,,*78
2017-12-31 18:03:29 1514761409.346319: $GPRMC,230330,A,3946.9561,N,08404.9874,W,0.0000,0.000,311217,,*30
2017-12-31 18:03:29 1514761409.346380: $GPGSA,A,3,22,23,9,3,16,29,14,31,27,26,135,,1.7,0.6,1.3*06
2017-12-31 18:03:30 1514761410.704762: $GPGSV,3,1,11,22,25,216,39,23,51,307,45,09,18,312,35,03,34,237,44*77
2017-12-31 18:03:30 1514761410.704946: $GPGSV,3,2,11,16,77,192,44,29,07,033,32,14,18,132,32,31,30,072,39*7B
2017-12-31 18:03:30 1514761410.705013: $GPGSV,3,3,11,27,19,156,30,26,65,052,49,135,22,240,43*7E
2017-12-31 18:03:30 1514761410.818412: $GPZDA,230331.00,31,12,2017,00,00*63
2017-12-31 18:03:30 1514761410.818557: $GPGGA,230331,3946.9561,N,08404.9874,W,2,11,0.60,308.17,M,-33.324,M,,*79
2017-12-31 18:03:30 1514761410.818623: $GPRMC,230331,A,3946.9561,N,08404.9874,W,0.0000,0.000,311217,,*31
2017-12-31 18:03:30 1514761410.818684: $GPGSA,A,3,22,23,9,3,16,29,14,31,27,26,135,,1.7,0.6,1.3*06
