2017-12-01 11:30:35 1512145835.413266: {"class":"VERSION","release":"3.16","rev":"3.16-4","proto_major":3,"proto_minor":11}
2017-12-01 11:30:35 1512145835.413732: {"class":"DEVICES","devices":[{"class":"DEVICE","path":"/dev/ttyUSB0","driver":"SiRF","subtype":"9\u0006GSD4e_4.1.2-P1_RPATCH.05-F-GPS-4R-1510281 11/03/2015 307","activated":"2017-12-01T16:30:35.053Z","flags":1,"native":1,"bps":4800,"parity":"N","stopbits":1,"cycle":1.00}]}
2017-12-01 11:30:35 1512145835.413872: {"class":"WATCH","enable":true,"json":false,"nmea":true,"raw":0,"scaled":false,"timing":false,"split24":false,"pps":false}
2017-12-01 11:30:35 1512145835.656324: $GPZDA,163036.34,01,12,2017,00,00*66
2017-12-01 11:30:35 1512145835.656503: $GPGGA,163036,3946.9506,N,08404.9848,W,1,11,0.80,317.22,M,-33.324,M,,*73
2017-12-01 11:30:35 1512145835.656570: $GPRMC,163036,A,3946.9506,N,08404.9848,W,0.1324,202.230,011217,,*38
2017-12-01 11:30:35 1512145835.656632: $GPGSA,A,3,5,10,13,15,18,20,21,24,29,27,138,,2.0,0.8,1.5*34
2017-12-01 11:30:35 1512145835.656692: $GPGBS,163036,10.70,M,15.43,M,35.28,M*06
2017-12-01 11:30:36 1512145836.935971: $GPGSV,3,1,12,05,18,073,21,10,09,268,18,13,48,054,28,15,78,097,28*74
2017-12-01 11:30:36 1512145836.936150: $GPGSV,3,2,12,18,40,280,25,20,66,040,25,21,62,309,28,24,15,151,23*7B
2017-12-01 11:30:36 1512145836.936215: $GPGSV,3,3,12,27,05,327,21,29,30,196,28,04,17,127,00,138,38,213,00*44
2017-12-01 11:30:37 1512145837.049630: $GPZDA,163037.03,01,12,2017,00,00*63
2017-12-01 11:30:37 1512145837.049784: $GPGGA,163037,3946.9500,N,08404.9864,W,1,10,0.80,320.00,M,-33.324,M,,*7F
2017-12-01 11:30:37 1512145837.049849: $GPRMC,163037,A,3946.9500,N,08404.9864,W,0.2710,280.223,011217,,*39
2017-12-01 11:30:37 1512145837.049910: $GPGSA,A,3,5,10,13,15,18,20,21,24,27,29,,,2.0,0.8,1.5*0E
2017-12-01 11:30:37 1512145837.879540: $GPZDA,163038.00,01,12,2017,00,00*6F
2017-12-01 11:30:37 1512145837.879729: $GPGGA,163038,3946.9500,N,08404.9864,W,1,10,0.80,320.00,M,-33.324,M,,*70
2017-12-01 11:30:37 1512145837.879798: $GPRMC,163038,A,3946.9500,N,08404.9864,W,0.0407,322.015,011217,,*3F
2017-12-01 11:30:37 1512145837.879860: $GPGSA,A,3,5,10,13,15,18,20,21,24,27,29,,,2.0,0.8,1.5*0E
2017-12-01 11:30:37 1512145837.879918: $GPGBS,163038,10.70,M,15.43,M,35.28,M*08
2017-12-01 11:30:38 1512145838.350410: $GPZDA,163039.00,01,12,2017,00,00*6E
2017-12-01 11:30:38 1512145838.350605: $GPGGA,163039,3946.9504,N,08404.9864,W,1,10,0.80,319.23,M,-33.324,M,,*7E
2017-12-01 11:30:38 1512145838.350675: $GPRMC,163039,A,3946.9504,N,08404.9864,W,0.2172,85.763,011217,,*07
2017-12-01 11:30:38 1512145838.350737: $GPGSA,A,3,5,10,13,15,18,20,21,24,27,29,,,2.0,0.8,1.5*0E
2017-12-01 11:30:38 1512145838.350795: $GPGBS,163039,10.70,M,15.43,M,35.28,M*09
2017-12-01 11:30:39 1512145839.686134: $GPGSV,3,1,12,05,18,073,37,10,09,268,33,13,48,054,46,15,78,097,48*74
2017-12-01 11:30:39 1512145839.686300: $GPGSV,3,2,12,18,40,280,43,20,66,040,43,21,62,309,46,24,15,151,40*76
2017-12-01 11:30:39 1512145839.686367: $GPGSV,3,3,12,27,05,327,36,29,30,196,47,04,17,127,00,138,38,213,46*49
2017-12-01 11:30:39 1512145839.799514: $GPZDA,163040.00,01,12,2017,00,00*60
2017-12-01 11:30:39 1512145839.799695: $GPGGA,163040,3946.9511,N,08404.9862,W,1,11,0.80,317.70,M,-33.324,M,,*7B
2017-12-01 11:30:39 1512145839.799762: $GPRMC,163040,A,3946.9511,N,08404.9862,W,0.0000,0.000,011217,,*32
2017-12-01 11:30:39 1512145839.799840: $GPGSA,A,3,5,10,13,15,18,20,21,24,27,29,138,,2.0,0.8,1.5*34
2017-12-01 11:30:40 1512145840.425148: $GPZDA,163041.00,01,12,2017,00,00*61
2017-12-01 11:30:40 1512145840.425334: $GPGGA,163041,3946.9518,N,08404.9868,W,1,11,0.80,316.09,M,-33.324,M,,*76
2017-12-01 11:30:40 1512145840.425402: $GPRMC,163041,A,3946.9518,N,08404.9868,W,0.0000,0.000,011217,,*30
2017-12-01 11:30:40 1512145840.425463: $GPGSA,A,3,5,10,13,15,18,20,21,24,27,29,138,,2.0,0.8,1.5*34
2017-12-01 11:30:41 1512145841.353341: $GPZDA,163042.00,01,12,2017,00,00*62
2017-12-01 11:30:41 1512145841.353539: $GPGGA,163042,3946.9521,N,08404.9867,W,1,11,0.80,315.33,M,-33.324,M,,*7A
2017-12-01 11:30:41 1512145841.353608: $GPRMC,163042,A,3946.9521,N,08404.9867,W,0.0000,0.000,011217,,*36
2017-12-01 11:30:41 1512145841.353723: $GPGSA,A,3,5,10,13,15,18,20,21,24,27,29,138,,2.0,0.8,1.5*34
2017-12-01 11:30:42 1512145842.685165: $GPGSV,3,1,12,05,18,073,37,10,09,268,33,13,48,054,46,15,78,097,48*74
2017-12-01 11:30:42 1512145842.685375: $GPGSV,3,2,12,18,40,280,43,20,66,040,43,21,62,309,47,24,15,151,39*79
2017-12-01 11:30:42 1512145842.685469: $GPGSV,3,3,12,27,05,327,36,29,30,196,48,04,17,127,00,138,38,213,46*46
2017-12-01 11:30:42 1512145842.798694: $GPZDA,163043.00,01,12,2017,00,00*63
2017-12-01 11:30:42 1512145842.798910: $GPGGA,163043,3946.9521,N,08404.9866,W,1,11,0.80,313.93,M,-33.324,M,,*76
2017-12-01 11:30:42 1512145842.798980: $GPRMC,163043,A,3946.9521,N,08404.9866,W,0.0000,0.000,011217,,*36
2017-12-01 11:30:42 1512145842.799042: $GPGSA,A,3,5,10,13,15,18,20,21,24,27,29,138,,2.0,0.8,1.5*34
2017-12-01 11:30:43 1512145843.349654: $GPZDA,163044.00,01,12,2017,00,00*64
2017-12-01 11:30:43 1512145843.349839: $GPGGA,163044,3946.9524,N,08404.9865,W,1,11,0.80,313.16,M,-33.324,M,,*7A
2017-12-01 11:30:43 1512145843.349907: $GPRMC,163044,A,3946.9524,N,08404.9865,W,0.0000,0.000,011217,,*37
2017-12-01 11:30:43 1512145843.349969: $GPGSA,A,3,5,10,13,15,18,20,21,24,27,29,138,,2.0,0.8,1.5*34
2017-12-01 11:30:44 1512145844.350599: $GPZDA,163045.00,01,12,2017,00,00*65
2017-12-01 11:30:44 1512145844.350759: $GPGGA,163045,3946.9528,N,08404.9865,W,1,11,0.80,312.40,M,-33.324,M,,*75
2017-12-01 11:30:44 1512145844.350825: $GPRMC,163045,A,3946.9528,N,08404.9865,W,0.0000,0.000,011217,,*3A
2017-12-01 11:30:44 1512145844.350886: $GPGSA,A,3,5,10,13,15,18,20,21,24,27,29,138,,2.0,0.8,1.5*34
