2017-12-01 13:21:42 1512152502.256715: {"class":"VERSION","release":"3.16","rev":"3.16-4","proto_major":3,"proto_minor":11}
2017-12-01 13:21:42 1512152502.257116: {"class":"DEVICES","devices":[{"class":"DEVICE","path":"/dev/ttyUSB0","driver":"SiRF","subtype":"9\u0006GSD4e_4.1.2-P1_RPATCH.05-F-GPS-4R-1510281 11/03/2015 307","activated":"2017-12-01T18:21:42.242Z","flags":1,"native":1,"bps":4800,"parity":"N","stopbits":1,"cycle":1.00}]}
2017-12-01 13:21:42 1512152502.257243: {"class":"WATCH","enable":true,"json":false,"nmea":true,"raw":0,"scaled":false,"timing":false,"split24":false,"pps":false}
2017-12-01 13:21:42 1512152502.420091: $GPZDA,182143.00,01,12,2017,00,00*6D
2017-12-01 13:21:42 1512152502.420258: $GPGGA,182143,3946.9569,N,08404.9852,W,2,11,0.80,295.44,M,-33.324,M,,*75
2017-12-01 13:21:42 1512152502.420325: $GPRMC,182143,A,3946.9569,N,08404.9852,W,0.0000,0.000,011217,,*33
2017-12-01 13:21:42 1512152502.420387: $GPGSA,A,3,10,15,18,20,21,24,32,8,27,14,138,,2.0,0.8,1.5*34
2017-12-01 13:21:43 1512152503.400983: $GPZDA,182144.00,01,12,2017,00,00*6A
2017-12-01 13:21:43 1512152503.401168: $GPGGA,182144,3946.9569,N,08404.9852,W,2,11,0.80,295.44,M,-33.324,M,,*72
2017-12-01 13:21:43 1512152503.401236: $GPRMC,182144,A,3946.9569,N,08404.9852,W,0.0000,0.000,011217,,*34
2017-12-01 13:21:43 1512152503.401299: $GPGSA,A,3,10,15,18,20,21,24,32,8,27,14,138,,2.0,0.8,1.5*34
2017-12-01 13:21:44 1512152504.755501: $GPGSV,3,1,12,10,45,304,46,15,33,054,47,18,73,348,43,20,30,099,45*7E
2017-12-01 13:21:45 1512152505.233464: $GPGSV,3,2,12,21,59,186,45,24,52,103,46,32,24,241,43,08,07,318,37*7D
2017-12-01 13:21:45 1512152505.233619: $GPGSV,3,3,12,13,04,049,00,27,18,285,40,14,07,234,24,138,38,213,46*44
2017-12-01 13:21:45 1512152505.233728: $GPZDA,182145.00,01,12,2017,00,00*6B
2017-12-01 13:21:45 1512152505.233814: $GPGGA,182145,3946.9565,N,08404.9852,W,2,11,0.80,296.20,M,-33.324,M,,*7E
2017-12-01 13:21:45 1512152505.233881: $GPRMC,182145,A,3946.9565,N,08404.9852,W,0.0000,0.000,011217,,*39
2017-12-01 13:21:45 1512152505.233943: $GPGSA,A,3,10,15,18,20,21,24,32,8,27,14,138,,2.0,0.8,1.5*34
2017-12-01 13:21:45 1512152505.494219: $GPZDA,182146.00,01,12,2017,00,00*68
2017-12-01 13:21:45 1512152505.494399: $GPGGA,182146,3946.9565,N,08404.9852,W,2,11,0.80,296.20,M,-33.324,M,,*7D
2017-12-01 13:21:45 1512152505.494470: $GPRMC,182146,A,3946.9565,N,08404.9852,W,0.0000,0.000,011217,,*3A
2017-12-01 13:21:45 1512152505.494536: $GPGSA,A,3,10,15,18,20,21,24,32,8,27,14,138,,2.0,0.8,1.5*34
2017-12-01 13:21:46 1512152506.405141: $GPZDA,182147.00,01,12,2017,00,00*69
2017-12-01 13:21:46 1512152506.405317: $GPGGA,182147,3946.9565,N,08404.9852,W,2,11,0.80,296.20,M,-33.324,M,,*7C
2017-12-01 13:21:46 1512152506.405387: $GPRMC,182147,A,3946.9565,N,08404.9852,W,0.0000,0.000,011217,,*3B
2017-12-01 13:21:46 1512152506.405451: $GPGSA,A,3,10,15,18,20,21,24,32,8,27,14,138,,2.0,0.8,1.5*34
2017-12-01 13:21:47 1512152507.762083: $GPGSV,3,1,12,10,45,304,46,15,33,054,47,18,73,348,43,20,30,099,44*7F
2017-12-01 13:21:47 1512152507.762292: $GPGSV,3,2,12,21,59,186,45,24,52,103,46,32,24,241,42,08,07,318,37*7C
2017-12-01 13:21:47 1512152507.762365: $GPGSV,3,3,12,13,04,049,14,27,18,285,40,14,07,234,27,138,38,213,46*42
2017-12-01 13:21:47 1512152507.875512: $GPZDA,182148.00,01,12,2017,00,00*66
2017-12-01 13:21:47 1512152507.875667: $GPGGA,182148,3946.9565,N,08404.9852,W,2,11,0.80,296.20,M,-33.324,M,,*73
2017-12-01 13:21:47 1512152507.875737: $GPRMC,182148,A,3946.9565,N,08404.9852,W,0.0000,0.000,011217,,*34
2017-12-01 13:21:47 1512152507.875800: $GPGSA,A,3,10,15,18,20,21,24,32,8,27,14,138,,2.0,0.8,1.5*34
2017-12-01 13:21:48 1512152508.402630: $GPZDA,182149.00,01,12,2017,00,00*67
2017-12-01 13:21:48 1512152508.402805: $GPGGA,182149,3946.9565,N,08404.9852,W,2,11,0.80,296.20,M,-33.324,M,,*72
2017-12-01 13:21:48 1512152508.402878: $GPRMC,182149,A,3946.9565,N,08404.9852,W,0.0000,0.000,011217,,*35
2017-12-01 13:21:48 1512152508.402942: $GPGSA,A,3,10,15,18,20,21,24,32,8,27,14,138,,2.0,0.8,1.5*34
2017-12-01 13:21:49 1512152509.407232: $GPZDA,182150.00,01,12,2017,00,00*6F
2017-12-01 13:21:49 1512152509.407477: $GPGGA,182150,3946.9565,N,08404.9852,W,2,11,1.00,296.20,M,-33.324,M,,*73
2017-12-01 13:21:49 1512152509.407568: $GPRMC,182150,A,3946.9565,N,08404.9852,W,0.0000,0.000,011217,,*3D
2017-12-01 13:21:49 1512152509.407632: $GPGSA,A,3,10,15,18,20,21,24,32,8,27,14,138,,2.0,1.0,1.5*3D
2017-12-01 13:21:50 1512152510.763667: $GPGSV,3,1,12,10,45,304,46,15,33,054,47,18,73,348,43,20,30,099,44*7F
2017-12-01 13:21:50 1512152510.763836: $GPGSV,3,2,12,21,59,186,45,24,52,103,46,32,24,241,43,08,07,318,37*7D
2017-12-01 13:21:50 1512152510.763904: $GPGSV,3,3,12,13,04,049,15,27,18,285,39,14,07,234,06,138,38,213,47*4F
2017-12-01 13:21:50 1512152510.877301: $GPZDA,182151.00,01,12,2017,00,00*6E
2017-12-01 13:21:50 1512152510.877471: $GPGGA,182151,3946.9565,N,08404.9852,W,2,11,1.00,296.20,M,-33.324,M,,*72
2017-12-01 13:21:50 1512152510.877537: $GPRMC,182151,A,3946.9565,N,08404.9852,W,0.0000,0.000,011217,,*3C
2017-12-01 13:21:50 1512152510.877599: $GPGSA,A,3,10,15,18,20,21,24,32,8,13,27,138,,2.0,1.0,1.5*3A
2017-12-01 13:21:51 1512152511.405697: $GPZDA,182152.00,01,12,2017,00,00*6D
2017-12-01 13:21:51 1512152511.405858: $GPGGA,182152,3946.9565,N,08404.9852,W,2,11,0.80,296.20,M,-33.324,M,,*78
2017-12-01 13:21:51 1512152511.405924: $GPRMC,182152,A,3946.9565,N,08404.9852,W,0.0000,0.000,011217,,*3F
2017-12-01 13:21:51 1512152511.405985: $GPGSA,A,3,10,15,18,20,21,24,32,8,13,27,138,,2.0,0.8,1.5*33
