2017-12-31 18:42:43 1514763763.635841: {"class":"VERSION","release":"3.16","rev":"3.16-4","proto_major":3,"proto_minor":11}
2017-12-31 18:42:43 1514763763.636186: {"class":"DEVICES","devices":[{"class":"DEVICE","path":"/dev/ttyUSB0","driver":"SiRF","activated":"2017-12-31T23:42:43.495Z","flags":1,"native":1,"bps":4800,"parity":"N","stopbits":1,"cycle":1.00}]}
2017-12-31 18:42:43 1514763763.636287: {"class":"WATCH","enable":true,"json":false,"nmea":true,"raw":0,"scaled":false,"timing":false,"split24":false,"pps":false}
2017-12-31 18:42:44 1514763764.344740: $GPZDA,234245.00,31,12,2017,00,00*65
2017-12-31 18:42:44 1514763764.344963: $GPGGA,234245,3946.9581,N,08404.9843,W,2,12,0.80,306.71,M,-33.324,M,,*76
2017-12-31 18:42:44 1514763764.345031: $GPRMC,234245,A,3946.9581,N,08404.9843,W,0.0000,0.000,311217,,*3D
2017-12-31 18:42:44 1514763764.345093: $GPGSA,A,3,22,23,9,3,16,8,14,31,27,7,26,135,1.7,0.8,1.3*0C
2017-12-31 18:42:45 1514763765.727492: $GPGSV,3,1,12,22,10,205,18,23,66,288,40,09,33,310,40,03,20,222,40*78
2017-12-31 18:42:45 1514763765.727666: $GPGSV,3,2,12,16,80,037,41,08,13,177,08,14,02,139,00,31,18,087,39*74
2017-12-31 18:42:45 1514763765.727731: $GPGSV,3,3,12,27,36,145,39,07,08,282,42,26,47,046,44,135,22,240,43*42
2017-12-31 18:42:45 1514763765.840813: $GPZDA,234246.00,31,12,2017,00,00*66
2017-12-31 18:42:45 1514763765.840943: $GPGGA,234246,3946.9581,N,08404.9843,W,2,10,0.80,306.71,M,-33.324,M,,*77
2017-12-31 18:42:45 1514763765.841006: $GPRMC,234246,A,3946.9581,N,08404.9843,W,0.0000,0.000,311217,,*3E
2017-12-31 18:42:45 1514763765.841066: $GPGSA,A,3,22,23,9,3,16,31,27,7,26,135,,,1.7,0.8,1.3*31
2017-12-31 18:42:46 1514763766.393200: $GPZDA,234247.00,31,12,2017,00,00*67
2017-12-31 18:42:46 1514763766.393351: $GPGGA,234247,3946.9581,N,08404.9843,W,2,10,0.80,306.71,M,-33.324,M,,*76
2017-12-31 18:42:46 1514763766.393416: $GPRMC,234247,A,3946.9581,N,08404.9843,W,0.0000,0.000,311217,,*3F
2017-12-31 18:42:46 1514763766.393477: $GPGSA,A,3,22,23,9,3,16,31,27,7,26,135,,,1.7,0.8,1.3*31
2017-12-31 18:42:47 1514763767.390378: $GPZDA,234248.00,31,12,2017,00,00*68
2017-12-31 18:42:47 1514763767.390539: $GPGGA,234248,3946.9581,N,08404.9843,W,2,10,0.80,306.71,M,-33.324,M,,*79
2017-12-31 18:42:47 1514763767.390619: $GPRMC,234248,A,3946.9581,N,08404.9843,W,0.0000,0.000,311217,,*30
2017-12-31 18:42:47 1514763767.390681: $GPGSA,A,3,22,23,9,3,16,31,27,7,26,135,,,1.7,0.8,1.3*31
2017-12-31 18:42:48 1514763768.688319: $GPGSV,3,1,12,22,10,205,19,23,66,288,40,09,33,310,40,03,20,222,40*79
2017-12-31 18:42:48 1514763768.688495: $GPGSV,3,2,12,16,80,037,42,08,13,177,28,14,02,139,17,31,18,087,39*73
2017-12-31 18:42:48 1514763768.688561: $GPGSV,3,3,12,27,36,145,40,07,08,282,42,26,47,046,44,135,22,240,44*4B
2017-12-31 18:42:48 1514763768.801911: $GPZDA,234249.00,31,12,2017,00,00*69
2017-12-31 18:42:48 1514763768.802052: $GPGGA,234249,3946.9581,N,08404.9843,W,2,11,0.80,306.71,M,-33.324,M,,*79
2017-12-31 18:42:48 1514763768.802118: $GPRMC,234249,A,3946.9581,N,08404.9843,W,0.0000,0.000,311217,,*31
2017-12-31 18:42:48 1514763768.802178: $GPGSA,A,3,22,23,9,3,16,8,31,27,7,26,135,,1.7,0.8,1.3*09
2017-12-31 18:42:49 1514763769.355303: $GPZDA,234250.00,31,12,2017,00,00*61
2017-12-31 18:42:49 1514763769.355467: $GPGGA,234250,3946.9581,N,08404.9843,W,2,11,0.80,306.71,M,-33.324,M,,*71
2017-12-31 18:42:49 1514763769.355532: $GPRMC,234250,A,3946.9581,N,08404.9843,W,0.0000,0.000,311217,,*39
2017-12-31 18:42:49 1514763769.355593: $GPGSA,A,3,22,23,9,3,16,8,31,27,7,26,135,,1.7,0.8,1.3*09
2017-12-31 18:42:50 1514763770.354460: $GPZDA,234251.00,31,12,2017,00,00*60
2017-12-31 18:42:50 1514763770.354630: $GPGGA,234251,3946.9581,N,08404.9843,W,2,11,0.80,306.71,M,-33.324,M,,*70
2017-12-31 18:42:50 1514763770.354696: $GPRMC,234251,A,3946.9581,N,08404.9843,W,0.0000,0.000,311217,,*38
2017-12-31 18:42:50 1514763770.354757: $GPGSA,A,3,22,23,9,3,16,8,31,27,7,26,135,,1.7,0.8,1.3*09
2017-12-31 18:42:51 1514763771.724947: $GPGSV,3,1,12,22,10,205,00,23,66,288,40,09,33,310,41,03,20,222,40*70
2017-12-31 18:42:51 1514763771.725132: $GPGSV,3,2,12,16,80,037,42,08,13,177,29,14,02,139,17,31,18,087,39*72
2017-12-31 18:42:51 1514763771.725249: $GPGSV,3,3,12,27,36,145,41,07,08,282,42,26,47,046,45,135,22,240,44*4B
2017-12-31 18:42:51 1514763771.838577: $GPZDA,234252.00,31,12,2017,00,00*63
2017-12-31 18:42:51 1514763771.838730: $GPGGA,234252,3946.9581,N,08404.9843,W,2,11,0.80,306.71,M,-33.324,M,,*73
2017-12-31 18:42:51 1514763771.838796: $GPRMC,234252,A,3946.9581,N,08404.9843,W,0.0000,0.000,311217,,*3B
2017-12-31 18:42:51 1514763771.838856: $GPGSA,A,3,23,9,3,16,8,14,31,27,7,26,135,,1.7,0.8,1.3*0C
2017-12-31 18:42:52 1514763772.353141: $GPZDA,234253.00,31,12,2017,00,00*62
2017-12-31 18:42:52 1514763772.353304: $GPGGA,234253,3946.9581,N,08404.9843,W,2,11,0.80,306.71,M,-33.324,M,,*72
2017-12-31 18:42:52 1514763772.353371: $GPRMC,234253,A,3946.9581,N,08404.9843,W,0.0000,0.000,311217,,*3A
2017-12-31 18:42:52 1514763772.353432: $GPGSA,A,3,23,9,3,16,8,14,31,27,7,26,135,,1.7,0.8,1.3*0C
2017-12-31 18:42:53 1514763773.389061: $GPZDA,234254.00,31,12,2017,00,00*65
2017-12-31 18:42:53 1514763773.389225: $GPGGA,234254,3946.9581,N,08404.9843,W,2,11,0.80,306.71,M,-33.324,M,,*75
2017-12-31 18:42:53 1514763773.389290: $GPRMC,234254,A,3946.9581,N,08404.9843,W,0.0000,0.000,311217,,*3D
2017-12-31 18:42:53 1514763773.389350: $GPGSA,A,3,23,9,3,16,8,14,31,27,7,26,135,,1.7,0.8,1.3*0C
