2018-01-11 20:27:43 1515720463.255701: {"class":"VERSION","release":"3.16","rev":"3.16-4","proto_major":3,"proto_minor":11}
2018-01-11 20:27:43 1515720463.256045: {"class":"DEVICES","devices":[{"class":"DEVICE","path":"/dev/ttyUSB0","driver":"SiRF","subtype":"9\u0006GSD4e_4.1.2-P1_RPATCH.05-F-GPS-4R-1510281 11/03/2015 307","activated":"2018-01-12T01:27:42.896Z","flags":1,"native":1,"bps":4800,"parity":"N","stopbits":1,"cycle":1.00}]}
2018-01-11 20:27:43 1515720463.256164: {"class":"WATCH","enable":true,"json":false,"nmea":true,"raw":0,"scaled":false,"timing":false,"split24":false,"pps":false}
2018-01-11 20:27:44 1515720464.075422: $GPZDA,012744.77,12,01,2018,00,00*6B
2018-01-11 20:27:44 1515720464.075595: $GPGGA,012744,3946.9606,N,08404.9821,W,1,10,1.00,296.54,M,-33.324,M,,*7B
2018-01-11 20:27:44 1515720464.075661: $GPRMC,012744,A,3946.9606,N,08404.9821,W,0.4179,148.778,120118,,*35
2018-01-11 20:27:44 1515720464.075724: $GPGSA,A,3,7,8,9,11,16,23,27,28,30,138,,,4.0,1.0,3.5*37
2018-01-11 20:27:44 1515720464.075781: $GPGBS,012744,14.62,M,24.83,M,80.38,M*05
2018-01-11 20:27:45 1515720465.134418: $GPZDA,012745.26,12,01,2018,00,00*6E
2018-01-11 20:27:45 1515720465.134591: $GPGGA,012745,3946.9606,N,08404.9821,W,1,10,1.00,296.54,M,-33.324,M,,*7A
2018-01-11 20:27:45 1515720465.134657: $GPRMC,012745,A,3946.9606,N,08404.9821,W,0.3106,69.940,120118,,*0C
2018-01-11 20:27:45 1515720465.134718: $GPGSA,A,3,7,8,9,11,16,23,27,28,30,138,,,4.0,1.0,3.5*37
2018-01-11 20:27:46 1515720466.253008: $GPGSV,3,1,11,07,63,316,42,08,75,099,46,09,41,222,43,11,27,165,44*7D
2018-01-11 20:27:46 1515720466.253206: $GPGSV,3,2,11,23,21,187,49,27,41,048,50,28,19,264,36,30,36,309,36*7E
2018-01-11 20:27:46 1515720466.253273: $GPGSV,3,3,11,16,17,064,34,01,04,160,00,138,38,213,00*7E
2018-01-11 20:27:46 1515720466.366636: $GPZDA,012746.00,12,01,2018,00,00*69
2018-01-11 20:27:46 1515720466.366790: $GPGGA,012746,3946.9603,N,08404.9822,W,1,09,0.80,297.30,M,-33.324,M,,*7D
2018-01-11 20:27:46 1515720466.366856: $GPRMC,012746,A,3946.9603,N,08404.9822,W,0.1567,9.200,120118,,*31
2018-01-11 20:27:46 1515720466.366916: $GPGSA,A,3,7,8,9,11,23,27,28,30,16,,,,4.0,0.8,3.5*04
2018-01-11 20:27:46 1515720466.818690: $GPZDA,012747.00,12,01,2018,00,00*68
2018-01-11 20:27:46 1515720466.818831: $GPGGA,012747,3946.9606,N,08404.9821,W,1,09,0.80,296.54,M,-33.324,M,,*79
2018-01-11 20:27:46 1515720466.818894: $GPRMC,012747,A,3946.9606,N,08404.9821,W,0.0000,0.000,120118,,*38
2018-01-11 20:27:46 1515720466.818956: $GPGSA,A,3,7,8,9,11,23,27,28,30,16,,,,4.0,0.8,3.5*04
2018-01-11 20:27:47 1515720467.375890: $GPZDA,012748.00,12,01,2018,00,00*67
2018-01-11 20:27:47 1515720467.376054: $GPGGA,012748,3946.9606,N,08404.9828,W,1,09,0.80,296.46,M,-33.324,M,,*7C
2018-01-11 20:27:47 1515720467.376124: $GPRMC,012748,A,3946.9606,N,08404.9828,W,0.1567,9.200,120118,,*30
2018-01-11 20:27:47 1515720467.376188: $GPGSA,A,3,7,8,9,11,23,27,28,30,16,,,,4.0,0.8,3.5*04
2018-01-11 20:27:48 1515720468.710855: $GPGSV,3,1,11,07,63,316,43,08,75,099,46,09,41,222,43,11,27,165,44*7C
2018-01-11 20:27:48 1515720468.711010: $GPGSV,3,2,11,23,21,187,49,27,41,048,50,28,19,264,36,30,36,309,36*7E
2018-01-11 20:27:48 1515720468.711080: $GPGSV,3,3,11,16,17,064,34,01,04,160,17,138,38,213,46*7A
2018-01-11 20:27:48 1515720468.824459: $GPZDA,012749.00,12,01,2018,00,00*66
2018-01-11 20:27:48 1515720468.824588: $GPGGA,012749,3946.9606,N,08404.9828,W,1,11,0.80,296.46,M,-33.324,M,,*74
2018-01-11 20:27:48 1515720468.824654: $GPRMC,012749,A,3946.9606,N,08404.9828,W,0.0000,0.000,120118,,*3F
2018-01-11 20:27:48 1515720468.824714: $GPGSA,A,3,7,8,9,11,23,27,28,30,16,1,138,,4.0,0.8,3.5*0F
2018-01-11 20:27:49 1515720469.375357: $GPZDA,012750.00,12,01,2018,00,00*6E
2018-01-11 20:27:49 1515720469.375525: $GPGGA,012750,3946.9606,N,08404.9828,W,1,11,0.80,296.46,M,-33.324,M,,*7C
2018-01-11 20:27:49 1515720469.375590: $GPRMC,012750,A,3946.9606,N,08404.9828,W,0.0000,0.000,120118,,*37
2018-01-11 20:27:49 1515720469.375651: $GPGSA,A,3,7,8,9,11,23,27,28,30,16,1,138,,4.0,0.8,3.5*0F
2018-01-11 20:27:50 1515720470.375861: $GPZDA,012751.00,12,01,2018,00,00*6F
2018-01-11 20:27:50 1515720470.376085: $GPGGA,012751,3946.9603,N,08404.9835,W,1,11,0.80,295.74,M,-33.324,M,,*76
2018-01-11 20:27:50 1515720470.376158: $GPRMC,012751,A,3946.9603,N,08404.9835,W,0.0000,0.000,120118,,*3F
2018-01-11 20:27:50 1515720470.376218: $GPGSA,A,3,7,8,9,11,23,27,28,30,16,1,138,,4.0,0.8,3.5*0F
2018-01-11 20:27:50 1515720470.376278: $GPGBS,012751,14.62,M,24.83,M,80.38,M*01
2018-01-11 20:27:51 1515720471.712840: $GPGSV,3,1,11,07,63,316,43,08,75,099,46,09,41,222,42,11,27,165,44*7D
2018-01-11 20:27:51 1515720471.713003: $GPGSV,3,2,11,23,21,187,48,27,41,048,50,28,19,264,36,30,36,309,36*7F
2018-01-11 20:27:51 1515720471.713071: $GPGSV,3,3,11,16,17,064,34,01,04,160,00,138,38,213,45*7F
2018-01-11 20:27:51 1515720471.826164: $GPZDA,012752.00,12,01,2018,00,00*6C
2018-01-11 20:27:51 1515720471.826277: $GPGGA,012752,3946.9603,N,08404.9835,W,1,10,0.80,295.74,M,-33.324,M,,*74
2018-01-11 20:27:51 1515720471.826340: $GPRMC,012752,A,3946.9603,N,08404.9835,W,0.0000,0.000,120118,,*3C
2018-01-11 20:27:51 1515720471.826401: $GPGSA,A,3,7,8,9,11,23,27,28,30,16,138,,,4.0,0.8,3.5*3E
2018-01-11 20:27:52 1515720472.375926: $GPZDA,012753.00,12,01,2018,00,00*6D
2018-01-11 20:27:52 1515720472.376095: $GPGGA,012753,3946.9603,N,08404.9855,W,2,10,1.60,294.10,M,-33.324,M,,*7C
2018-01-11 20:27:52 1515720472.376163: $GPRMC,012753,A,3946.9603,N,08404.9855,W,0.0000,0.000,120118,,*3B
2018-01-11 20:27:52 1515720472.376225: $GPGSA,A,3,7,8,9,11,23,27,28,30,16,138,,,4.0,1.6,3.5*31
2018-01-11 20:27:53 1515720473.377458: $GPZDA,012754.00,12,01,2018,00,00*6A
2018-01-11 20:27:53 1515720473.377641: $GPGGA,012754,3946.9603,N,08404.9855,W,2,10,0.80,294.10,M,-33.324,M,,*74
2018-01-11 20:27:53 1515720473.377708: $GPRMC,012754,A,3946.9603,N,08404.9855,W,0.0000,0.000,120118,,*3C
2018-01-11 20:27:53 1515720473.377770: $GPGSA,A,3,7,8,9,11,23,27,28,30,16,138,,,4.0,0.8,3.5*3E
2018-01-11 20:27:54 1515720474.713181: $GPGSV,3,1,11,07,63,316,43,08,75,099,46,09,41,222,42,11,27,165,44*7D
2018-01-11 20:27:54 1515720474.713359: $GPGSV,3,2,11,23,21,187,48,27,41,048,50,28,19,264,36,30,36,309,36*7F
2018-01-11 20:27:54 1515720474.713424: $GPGSV,3,3,11,16,17,064,33,01,04,160,00,138,38,213,46*7B
2018-01-11 20:27:54 1515720474.826520: $GPZDA,012755.00,12,01,2018,00,00*6B
2018-01-11 20:27:54 1515720474.826649: $GPGGA,012755,3946.9603,N,08404.9855,W,2,10,0.80,294.10,M,-33.324,M,,*75
2018-01-11 20:27:54 1515720474.826713: $GPRMC,012755,A,3946.9603,N,08404.9855,W,0.0000,0.000,120118,,*3D
2018-01-11 20:27:54 1515720474.826775: $GPGSA,A,3,7,8,9,11,23,27,28,30,16,138,,,4.0,0.8,3.5*3E
2018-01-11 20:27:55 1515720475.378658: $GPZDA,012756.00,12,01,2018,00,00*68
2018-01-11 20:27:55 1515720475.378818: $GPGGA,012756,3946.9603,N,08404.9855,W,2,10,0.80,294.10,M,-33.324,M,,*76
2018-01-11 20:27:55 1515720475.378885: $GPRMC,012756,A,3946.9603,N,08404.9855,W,0.0000,0.000,120118,,*3E
2018-01-11 20:27:55 1515720475.378945: $GPGSA,A,3,7,8,9,11,23,27,28,30,16,138,,,4.0,0.8,3.5*3E
