2017-11-15 19:33:03 1510792383.811308: {"class":"VERSION","release":"3.17","rev":"3.17","proto_major":3,"proto_minor":12}
2017-11-15 19:33:03 1510792383.811774: {"class":"DEVICES","devices":[{"class":"DEVICE","path":"/dev/ttyUSB0","driver":"SiRF","subtype":"9\u0006GSD4e_4.1.2-P1_RPATCH.05-F-GPS-4R-1510281 11/03/2015 307","activated":"2017-11-16T00:33:03.797Z","flags":1,"native":1,"bps":4800,"parity":"N","stopbits":1,"cycle":1.00}]}
2017-11-15 19:33:03 1510792383.811886: {"class":"WATCH","enable":true,"json":false,"nmea":true,"raw":0,"scaled":false,"timing":false,"split24":false,"pps":false}
2017-11-15 19:33:04 1510792384.330106: $GPZDA,003303.00,16,11,2017,00,00*66
2017-11-15 19:33:04 1510792384.330273: $GPGGA,003303,3946.9564,N,08404.9445,W,1,08,1.40,285.54,M,-33.324,M,,*7A
2017-11-15 19:33:04 1510792384.330337: $GPRMC,003303,A,3946.9564,N,08404.9445,W,0.4844,93.794,161117,,*03
2017-11-15 19:33:04 1510792384.330394: $GPGSA,A,3,32,14,16,26,29,31,3,22,,,,,3.4,1.4,2.9*06
2017-11-15 19:33:05 1510792385.329681: $GPZDA,003304.00,16,11,2017,00,00*61
2017-11-15 19:33:05 1510792385.329842: $GPGGA,003304,3946.9564,N,08404.9445,W,1,08,1.40,285.54,M,-33.324,M,,*7D
2017-11-15 19:33:05 1510792385.329902: $GPRMC,003304,A,3946.9564,N,08404.9445,W,0.4179,148.778,161117,,*36
2017-11-15 19:33:05 1510792385.329960: $GPGSA,A,3,32,14,16,26,29,31,3,22,,,,,3.4,1.4,2.9*06
2017-11-15 19:33:06 1510792386.682291: $GPGSV,3,1,11,32,35,109,24,14,54,094,17,16,24,190,14,26,55,172,18*78
2017-11-15 19:33:06 1510792386.682463: $GPGSV,3,2,11,29,11,070,10,31,66,027,16,03,40,297,19,25,16,039,00*7C
2017-11-15 19:33:06 1510792386.682523: $GPGSV,3,3,11,23,12,301,00,01,05,252,00,22,50,268,22*41
2017-11-15 19:33:06 1510792386.795820: $GPZDA,003305.00,16,11,2017,00,00*60
2017-11-15 19:33:06 1510792386.795968: $GPGGA,003305,3946.9568,N,08404.9445,W,1,08,1.40,286.18,M,-33.324,M,,*7B
2017-11-15 19:33:06 1510792386.796029: $GPRMC,003305,A,3946.9568,N,08404.9445,W,0.4207,219.347,161117,,*3E
2017-11-15 19:33:06 1510792386.796087: $GPGSA,A,3,32,14,16,26,29,31,3,22,,,,,3.4,1.4,2.9*06
2017-11-15 19:33:07 1510792387.330477: $GPZDA,003306.00,16,11,2017,00,00*63
2017-11-15 19:33:07 1510792387.330640: $GPGGA,003306,3946.9569,N,08404.9452,W,1,08,1.40,286.10,M,-33.324,M,,*77
2017-11-15 19:33:07 1510792387.330702: $GPRMC,003306,A,3946.9569,N,08404.9452,W,0.3423,184.197,161117,,*35
2017-11-15 19:33:07 1510792387.330758: $GPGSA,A,3,32,14,16,26,29,31,3,22,,,,,3.4,1.4,2.9*06
2017-11-15 19:33:08 1510792388.346343: $GPZDA,003307.00,16,11,2017,00,00*62
2017-11-15 19:33:08 1510792388.346504: $GPGGA,003307,3946.9568,N,08404.9445,W,1,08,1.40,286.18,M,-33.324,M,,*79
2017-11-15 19:33:08 1510792388.346566: $GPRMC,003307,A,3946.9568,N,08404.9445,W,0.5306,114.352,161117,,*37
2017-11-15 19:33:08 1510792388.346622: $GPGSA,A,3,32,14,16,26,29,31,3,22,,,,,3.4,1.4,2.9*06
2017-11-15 19:33:09 1510792389.665520: $GPGSV,3,1,11,32,35,109,25,14,54,094,17,16,24,190,12,26,55,172,18*7F
2017-11-15 19:33:09 1510792389.665695: $GPGSV,3,2,11,29,11,070,12,31,66,027,16,03,40,297,19,25,16,039,00*7E
2017-11-15 19:33:09 1510792389.665756: $GPGSV,3,3,11,23,12,301,00,01,05,252,00,22,50,268,22*41
2017-11-15 19:33:09 1510792389.778867: $GPZDA,003308.00,16,11,2017,00,00*6D
2017-11-15 19:33:09 1510792389.779038: $GPGGA,003308,3946.9568,N,08404.9445,W,1,07,1.40,286.18,M,-33.324,M,,*79
2017-11-15 19:33:09 1510792389.779099: $GPRMC,003308,A,3946.9568,N,08404.9445,W,0.7576,81.915,161117,,*0F
2017-11-15 19:33:09 1510792389.779156: $GPGSA,A,3,32,14,26,29,31,3,22,,,,,,3.4,1.4,2.9*01
2017-11-15 19:33:10 1510792390.345951: $GPZDA,003309.00,16,11,2017,00,00*6C
2017-11-15 19:33:10 1510792390.346135: $GPGGA,003309,3946.9568,N,08404.9445,W,1,07,1.40,286.18,M,-33.324,M,,*78
2017-11-15 19:33:10 1510792390.346203: $GPRMC,003309,A,3946.9568,N,08404.9445,W,0.3006,62.540,161117,,*09
2017-11-15 19:33:10 1510792390.346260: $GPGSA,A,3,32,14,26,29,31,3,22,,,,,,3.4,1.4,2.9*01
2017-11-15 19:33:11 1510792391.346334: $GPZDA,003310.00,16,11,2017,00,00*64
2017-11-15 19:33:11 1510792391.601233: $GPGGA,003310,3946.9576,N,08404.9451,W,1,07,1.40,285.97,M,-33.324,M,,*7E
2017-11-15 19:33:11 1510792391.601435: $GPRMC,003310,A,3946.9576,N,08404.9451,W,0.7246,344.668,161117,,*37
2017-11-15 19:33:11 1510792391.601502: $GPGSA,A,3,32,14,26,29,31,3,22,,,,,,3.4,1.4,2.9*01
2017-11-15 19:33:12 1510792392.664628: $GPGSV,3,1,11,32,35,109,25,14,54,094,17,16,24,190,10,26,55,172,18*7D
2017-11-15 19:33:12 1510792392.664797: $GPGSV,3,2,11,29,11,070,12,31,66,027,16,03,40,297,19,25,16,039,00*7E
2017-11-15 19:33:12 1510792392.664857: $GPGSV,3,3,11,23,12,301,00,01,05,252,00,22,50,268,22*41
2017-11-15 19:33:12 1510792392.777976: $GPZDA,003311.00,16,11,2017,00,00*65
2017-11-15 19:33:12 1510792392.778124: $GPGGA,003311,3946.9576,N,08404.9451,W,1,08,1.40,285.97,M,-33.324,M,,*70
2017-11-15 19:33:12 1510792392.778188: $GPRMC,003311,A,3946.9576,N,08404.9451,W,0.1567,9.201,161117,,*35
2017-11-15 19:33:12 1510792392.778242: $GPGSA,A,3,32,14,16,26,29,31,3,22,,,,,3.4,1.4,2.9*06
2017-11-15 19:33:13 1510792393.345065: $GPZDA,003312.00,16,11,2017,00,00*66
2017-11-15 19:33:13 1510792393.345231: $GPGGA,003312,3946.9580,N,08404.9451,W,1,08,1.40,286.61,M,-33.324,M,,*70
2017-11-15 19:33:13 1510792393.345295: $GPRMC,003312,A,3946.9580,N,08404.9451,W,0.2422,93.794,161117,,*06
2017-11-15 19:33:13 1510792393.345351: $GPGSA,A,3,32,14,16,26,29,31,3,22,,,,,3.4,1.4,2.9*06
