2017-12-29 10:55:50 1514562950.776312: {"class":"VERSION","release":"3.16","rev":"3.16-4","proto_major":3,"proto_minor":11}
2017-12-29 10:55:50 1514562950.776655: {"class":"DEVICES","devices":[{"class":"DEVICE","path":"/dev/ttyUSB0","driver":"SiRF","subtype":"9\u0006GSD4e_4.1.2-P1_RPATCH.05-F-GPS-4R-1510281 11/03/2015 307","activated":"2017-12-29T15:55:50.743Z","flags":1,"native":1,"bps":4800,"parity":"N","stopbits":1,"cycle":1.00}]}
2017-12-29 10:55:50 1514562950.776770: {"class":"WATCH","enable":true,"json":false,"nmea":true,"raw":0,"scaled":false,"timing":false,"split24":false,"pps":false}
2017-12-29 10:55:51 1514562951.539980: $GPZDA,155552.21,29,12,2017,00,00*6A
2017-12-29 10:55:51 1514562951.540147: $GPGGA,155552,3946.9674,N,08404.9763,W,1,11,0.80,315.91,M,-33.324,M,,*7B
2017-12-29 10:55:51 1514562951.540212: $GPRMC,155552,A,3946.9674,N,08404.9763,W,0.3133,9.200,291217,,*3C
2017-12-29 10:55:51 1514562951.540272: $GPGSA,A,3,10,13,15,18,20,21,24,27,32,8,138,,1.7,0.8,1.3*31
2017-12-29 10:55:51 1514562951.540331: $GPGBS,155552,10.91,M,10.38,M,30.89,M*0C
2017-12-29 10:55:52 1514562952.461436: $GPZDA,155552.70,29,12,2017,00,00*6E
2017-12-29 10:55:52 1514562952.461595: $GPGGA,155552,3946.9669,N,08404.9763,W,1,11,0.80,315.27,M,-33.324,M,,*7A
2017-12-29 10:55:52 1514562952.461660: $GPRMC,155552,A,3946.9669,N,08404.9763,W,0.1567,9.200,291217,,*37
2017-12-29 10:55:52 1514562952.461720: $GPGSA,A,3,10,13,15,18,20,21,24,27,32,8,138,,1.7,0.8,1.3*31
2017-12-29 10:55:52 1514562952.461777: $GPGBS,155552,10.91,M,10.38,M,30.89,M*0C
2017-12-29 10:55:54 1514562954.233690: $GPGSV,3,1,11,10,34,294,44,13,15,046,41,15,46,051,50,18,65,321,45*7F
2017-12-29 10:55:54 1514562954.233854: $GPGSV,3,2,11,20,42,087,51,21,73,202,47,24,45,123,50,27,19,298,39*75
2017-12-29 10:55:54 1514562954.233920: $GPGSV,3,3,11,32,14,232,33,08,02,330,20,138,38,213,48*7B
2017-12-29 10:55:54 1514562954.347311: $GPZDA,155554.00,29,12,2017,00,00*6F
2017-12-29 10:55:54 1514562954.347466: $GPGGA,155554,3946.9669,N,08404.9763,W,1,11,0.80,315.27,M,-33.324,M,,*7C
2017-12-29 10:55:54 1514562954.347531: $GPRMC,155554,A,3946.9669,N,08404.9763,W,0.4207,39.347,291217,,*04
2017-12-29 10:55:54 1514562954.347592: $GPGSA,A,3,10,13,15,18,20,21,24,27,32,8,138,,1.7,0.8,1.3*31
2017-12-29 10:55:54 1514562954.947595: $GPZDA,155555.00,29,12,2017,00,00*6E
2017-12-29 10:55:54 1514562954.947763: $GPGGA,155555,3946.9666,N,08404.9770,W,1,11,0.80,314.55,M,-33.324,M,,*74
2017-12-29 10:55:54 1514562954.947828: $GPRMC,155555,A,3946.9666,N,08404.9770,W,0.1867,0.000,291217,,*3B
2017-12-29 10:55:54 1514562954.947888: $GPGSA,A,3,10,13,15,18,20,21,24,27,32,8,138,,1.7,0.8,1.3*31
2017-12-29 10:55:54 1514562954.947947: $GPGBS,155555,10.91,M,10.38,M,30.89,M*0B
2017-12-29 10:55:55 1514562955.398418: $GPZDA,155556.00,29,12,2017,00,00*6D
2017-12-29 10:55:55 1514562955.398556: $GPGGA,155556,3946.9661,N,08404.9770,W,1,11,0.80,313.92,M,-33.324,M,,*7C
2017-12-29 10:55:55 1514562955.398620: $GPRMC,155556,A,3946.9661,N,08404.9770,W,0.1867,0.000,291217,,*3F
2017-12-29 10:55:55 1514562955.398680: $GPGSA,A,3,10,13,15,18,20,21,24,27,32,8,138,,1.7,0.8,1.3*31
2017-12-29 10:55:55 1514562955.398737: $GPGBS,155556,10.91,M,10.38,M,30.89,M*08
2017-12-29 10:55:56 1514562956.673430: $GPGSV,3,1,11,10,34,294,44,13,15,046,40,15,46,051,50,18,65,321,45*7E
2017-12-29 10:55:56 1514562956.673597: $GPGSV,3,2,11,20,42,087,51,21,73,202,47,24,45,123,50,27,19,298,39*75
2017-12-29 10:55:56 1514562956.673663: $GPGSV,3,3,11,32,14,232,33,08,02,330,31,138,38,213,45*76
2017-12-29 10:55:56 1514562956.787053: $GPZDA,155557.00,29,12,2017,00,00*6C
2017-12-29 10:55:56 1514562956.787208: $GPGGA,155557,3946.9604,N,08404.9821,W,2,11,1.80,307.98,M,-33.324,M,,*78
2017-12-29 10:55:56 1514562956.787273: $GPRMC,155557,A,3946.9604,N,08404.9821,W,0.0000,0.000,291217,,*3E
2017-12-29 10:55:56 1514562956.787332: $GPGSA,A,3,10,13,15,18,20,21,24,27,32,8,138,,1.7,1.8,1.3*30
2017-12-29 10:55:57 1514562957.337828: $GPZDA,155558.00,29,12,2017,00,00*63
2017-12-29 10:55:57 1514562957.337996: $GPGGA,155558,3946.9604,N,08404.9821,W,2,11,1.80,307.98,M,-33.324,M,,*77
2017-12-29 10:55:57 1514562957.338116: $GPRMC,155558,A,3946.9604,N,08404.9821,W,0.0000,0.000,291217,,*31
2017-12-29 10:55:57 1514562957.338178: $GPGSA,A,3,10,13,15,18,20,21,24,27,32,8,138,,1.7,1.8,1.3*30
2017-12-29 10:55:57 1514562957.338236: $GPGBS,155558,2.73,M,2.59,M,7.72,M*3D
2017-12-29 10:55:58 1514562958.338693: $GPZDA,155559.00,29,12,2017,00,00*62
2017-12-29 10:55:58 1514562958.338852: $GPGGA,155559,3946.9604,N,08404.9821,W,2,11,1.80,307.98,M,-33.324,M,,*76
2017-12-29 10:55:58 1514562958.338918: $GPRMC,155559,A,3946.9604,N,08404.9821,W,0.0000,0.000,291217,,*30
2017-12-29 10:55:58 1514562958.338979: $GPGSA,A,3,10,13,15,18,20,21,24,27,32,8,138,,1.7,1.8,1.3*30
2017-12-29 10:55:58 1514562958.339037: $GPGBS,155559,2.73,M,2.59,M,7.72,M*3C
2017-12-29 10:55:59 1514562959.674156: $GPGSV,3,1,11,10,34,294,44,13,15,046,40,15,46,051,50,18,65,321,45*7E
2017-12-29 10:55:59 1514562959.674303: $GPGSV,3,2,11,20,42,087,51,21,73,202,47,24,45,123,50,27,19,298,39*75
2017-12-29 10:55:59 1514562959.674368: $GPGSV,3,3,11,32,14,232,33,08,02,330,30,138,38,213,46*74
2017-12-29 10:55:59 1514562959.787784: $GPZDA,155600.00,29,12,2017,00,00*6D
2017-12-29 10:55:59 1514562959.787921: $GPGGA,155600,3946.9604,N,08404.9821,W,2,11,1.80,307.98,M,-33.324,M,,*79
2017-12-29 10:55:59 1514562959.787985: $GPRMC,155600,A,3946.9604,N,08404.9821,W,0.0000,0.000,291217,,*3F
2017-12-29 10:55:59 1514562959.788044: $GPGSA,A,3,10,13,15,18,20,21,24,27,32,8,138,,1.7,1.8,1.3*30
2017-12-29 10:56:00 1514562960.338688: $GPZDA,155601.00,29,12,2017,00,00*6C
2017-12-29 10:56:00 1514562960.338860: $GPGGA,155601,3946.9604,N,08404.9821,W,2,11,0.80,307.98,M,-33.324,M,,*79
2017-12-29 10:56:00 1514562960.338927: $GPRMC,155601,A,3946.9604,N,08404.9821,W,0.0000,0.000,291217,,*3E
2017-12-29 10:56:00 1514562960.338989: $GPGSA,A,3,10,13,15,18,20,21,24,27,32,8,138,,1.7,0.8,1.3*31
2017-12-29 10:56:01 1514562961.341591: $GPZDA,155602.00,29,12,2017,00,00*6F
2017-12-29 10:56:01 1514562961.341758: $GPGGA,155602,3946.9604,N,08404.9821,W,2,11,0.80,307.98,M,-33.324,M,,*7A
2017-12-29 10:56:01 1514562961.341825: $GPRMC,155602,A,3946.9604,N,08404.9821,W,0.0000,0.000,291217,,*3D
2017-12-29 10:56:01 1514562961.341885: $GPGSA,A,3,10,13,15,18,20,21,24,27,32,8,138,,1.7,0.8,1.3*31
2017-12-29 10:56:02 1514562962.675779: $GPGSV,3,1,11,10,34,294,44,13,15,046,39,15,46,051,50,18,65,321,45*70
2017-12-29 10:56:02 1514562962.675952: $GPGSV,3,2,11,20,42,087,51,21,73,202,47,24,45,123,50,27,19,298,39*75
2017-12-29 10:56:02 1514562962.676018: $GPGSV,3,3,11,32,14,232,33,08,02,330,30,138,38,213,45*77
2017-12-29 10:56:02 1514562962.789386: $GPZDA,155603.00,29,12,2017,00,00*6E
2017-12-29 10:56:02 1514562962.789517: $GPGGA,155603,3946.9604,N,08404.9821,W,2,11,0.80,307.98,M,-33.324,M,,*7B
2017-12-29 10:56:02 1514562962.789581: $GPRMC,155603,A,3946.9604,N,08404.9821,W,0.0000,0.000,291217,,*3C
2017-12-29 10:56:02 1514562962.789641: $GPGSA,A,3,10,13,15,18,20,21,24,27,32,8,138,,1.7,0.8,1.3*31
2017-12-29 10:56:03 1514562963.337788: $GPZDA,155604.00,29,12,2017,00,00*69
2017-12-29 10:56:03 1514562963.337949: $GPGGA,155604,3946.9604,N,08404.9821,W,2,11,0.80,307.98,M,-33.324,M,,*7C
2017-12-29 10:56:03 1514562963.338016: $GPRMC,155604,A,3946.9604,N,08404.9821,W,0.2422,273.794,291217,,*31
2017-12-29 10:56:03 1514562963.338078: $GPGSA,A,3,10,13,15,18,20,21,24,27,32,8,138,,1.7,0.8,1.3*31
2017-12-29 10:56:04 1514562964.337407: $GPZDA,155605.00,29,12,2017,00,00*68
2017-12-29 10:56:04 1514562964.337557: $GPGGA,155605,3946.9604,N,08404.9821,W,2,11,0.80,307.98,M,-33.324,M,,*7D
2017-12-29 10:56:04 1514562964.337623: $GPRMC,155605,A,3946.9604,N,08404.9821,W,0.3423,184.197,291217,,*3E
2017-12-29 10:56:04 1514562964.337683: $GPGSA,A,3,10,13,15,18,20,21,24,27,32,8,138,,1.7,0.8,1.3*31
2017-12-29 10:56:05 1514562965.672892: $GPGSV,3,1,11,10,34,294,43,13,15,046,39,15,46,051,49,18,65,321,44*7E
2017-12-29 10:56:05 1514562965.673052: $GPGSV,3,2,11,20,42,087,50,21,73,202,46,24,45,123,49,27,19,298,36*72
2017-12-29 10:56:05 1514562965.673119: $GPGSV,3,3,11,32,14,232,32,08,02,330,00,138,38,213,45*75
2017-12-29 10:56:05 1514562965.786493: $GPZDA,155606.00,29,12,2017,00,00*6B
2017-12-29 10:56:05 1514562965.786608: $GPGGA,155606,3946.9601,N,08404.9811,W,2,10,0.80,303.84,M,-33.324,M,,*70
2017-12-29 10:56:05 1514562965.786670: $GPRMC,155606,A,3946.9601,N,08404.9811,W,0.2422,93.794,291217,,*09
2017-12-29 10:56:05 1514562965.786730: $GPGSA,A,3,10,13,15,18,20,21,24,27,32,138,,,1.7,0.8,1.3*09
2017-12-29 10:56:06 1514562966.411972: $GPZDA,155607.00,29,12,2017,00,00*6A
2017-12-29 10:56:07 1514562967.102704: $GPGGA,155607,3946.9601,N,08404.9811,W,2,10,0.80,303.84,M,-33.324,M,,*71
2017-12-29 10:56:07 1514562967.102857: $GPRMC,155607,A,3946.9601,N,08404.9811,W,0.0000,0.000,291217,,*3E
2017-12-29 10:56:07 1514562967.102924: $GPGSA,A,3,10,13,15,18,20,21,24,27,32,138,,,1.7,0.8,1.3*09
2017-12-29 10:56:07 1514562967.340389: $GPZDA,155608.00,29,12,2017,00,00*65
2017-12-29 10:56:07 1514562967.340566: $GPGGA,155608,3946.9601,N,08404.9811,W,2,10,0.80,303.84,M,-33.324,M,,*7E
2017-12-29 10:56:07 1514562967.340635: $GPRMC,155608,A,3946.9601,N,08404.9811,W,0.0000,0.000,291217,,*31
2017-12-29 10:56:07 1514562967.340699: $GPGSA,A,3,10,13,15,18,20,21,24,27,32,138,,,1.7,0.8,1.3*09
2017-12-29 10:56:08 1514562968.677042: $GPGSV,3,1,11,10,34,294,43,13,15,046,39,15,46,051,49,18,65,321,44*7E
2017-12-29 10:56:08 1514562968.677210: $GPGSV,3,2,11,20,42,087,50,21,73,202,47,24,45,123,50,27,19,298,36*7B
2017-12-29 10:56:08 1514562968.677280: $GPGSV,3,3,11,32,14,232,32,08,02,330,00,138,38,213,44*74
2017-12-29 10:56:08 1514562968.790744: $GPZDA,155609.00,29,12,2017,00,00*64
2017-12-29 10:56:08 1514562968.790877: $GPGGA,155609,3946.9601,N,08404.9811,W,2,10,0.80,303.84,M,-33.324,M,,*7F
2017-12-29 10:56:08 1514562968.790943: $GPRMC,155609,A,3946.9601,N,08404.9811,W,0.0000,0.000,291217,,*30
2017-12-29 10:56:08 1514562968.791006: $GPGSA,A,3,10,13,15,18,20,21,24,27,32,138,,,1.7,0.8,1.3*09
2017-12-29 10:56:09 1514562969.338668: $GPZDA,155610.00,29,12,2017,00,00*6C
2017-12-29 10:56:09 1514562969.338852: $GPGGA,155610,3946.9601,N,08404.9811,W,2,10,0.80,303.84,M,-33.324,M,,*77
2017-12-29 10:56:09 1514562969.338922: $GPRMC,155610,A,3946.9601,N,08404.9811,W,0.0000,0.000,291217,,*38
2017-12-29 10:56:09 1514562969.338986: $GPGSA,A,3,10,13,15,18,20,21,24,27,32,138,,,1.7,0.8,1.3*09
2017-12-29 10:56:09 1514562969.339047: $GPGBS,155610,2.73,M,2.59,M,7.72,M*32
2017-12-29 10:56:10 1514562970.339542: $GPZDA,155611.00,29,12,2017,00,00*6D
2017-12-29 10:56:10 1514562970.339716: $GPGGA,155611,3946.9601,N,08404.9811,W,2,10,0.80,303.84,M,-33.324,M,,*76
2017-12-29 10:56:10 1514562970.339788: $GPRMC,155611,A,3946.9601,N,08404.9811,W,0.0000,0.000,291217,,*39
2017-12-29 10:56:10 1514562970.339851: $GPGSA,A,3,10,13,15,18,20,21,24,27,32,138,,,1.7,0.8,1.3*09
2017-12-29 10:56:10 1514562970.339911: $GPGBS,155611,2.73,M,2.59,M,7.72,M*33
