2017-11-15 19:17:31 1510791451.766103: {"class":"VERSION","release":"3.17","rev":"3.17","proto_major":3,"proto_minor":12}
2017-11-15 19:17:31 1510791451.766803: {"class":"DEVICES","devices":[{"class":"DEVICE","path":"/dev/ttyUSB0","driver":"SiRF","subtype":"9\u0006GSD4e_4.1.2-P1_RPATCH.05-F-GPS-4R-1510281 11/03/2015 307","activated":"2017-11-16T00:17:31.545Z","flags":1,"native":1,"bps":4800,"parity":"N","stopbits":1,"cycle":1.00}]}
2017-11-15 19:17:31 1510791451.766967: {"class":"WATCH","enable":true,"json":false,"nmea":true,"raw":0,"scaled":false,"timing":false,"split24":false,"pps":false}
2017-11-15 19:17:32 1510791452.329821: $GPZDA,001731.00,16,11,2017,00,00*61
2017-11-15 19:17:32 1510791452.329995: $GPGGA,001731,3946.9637,N,08404.9499,W,1,06,1.40,278.73,M,-33.324,M,,*70
2017-11-15 19:17:32 1510791452.330055: $GPRMC,001731,A,3946.9637,N,08404.9499,W,0.4179,328.778,161117,,*36
2017-11-15 19:17:32 1510791452.330111: $GPGSA,A,3,32,14,22,26,31,3,,,,,,,3.4,1.4,2.9*0A
2017-11-15 19:17:33 1510791453.681837: $GPGSV,3,1,12,32,41,102,20,14,59,084,25,22,49,280,24,26,46,175,21*78
2017-11-15 19:17:33 1510791453.682005: $GPGSV,3,2,12,31,72,013,21,25,22,042,00,03,36,304,23,16,16,190,00*74
2017-11-15 19:17:33 1510791453.682065: $GPGSV,3,3,12,01,09,256,00,29,09,076,00,23,07,298,00,135,23,238,00*4A
2017-11-15 19:17:33 1510791453.795173: $GPZDA,001732.00,16,11,2017,00,00*62
2017-11-15 19:17:33 1510791453.795331: $GPGGA,001732,3946.9637,N,08404.9506,W,1,06,1.40,278.65,M,-33.324,M,,*73
2017-11-15 19:17:33 1510791453.795391: $GPRMC,001732,A,3946.9637,N,08404.9506,W,0.4844,273.794,161117,,*38
2017-11-15 19:17:33 1510791453.795447: $GPGSA,A,3,32,14,22,26,31,3,,,,,,,3.4,1.4,2.9*0A
2017-11-15 19:17:34 1510791454.329810: $GPZDA,001733.00,16,11,2017,00,00*63
2017-11-15 19:17:34 1510791454.329987: $GPGGA,001733,3946.9633,N,08404.9506,W,1,06,1.40,278.01,M,-33.324,M,,*74
2017-11-15 19:17:34 1510791454.330048: $GPRMC,001733,A,3946.9633,N,08404.9506,W,0.7103,225.706,161117,,*3C
2017-11-15 19:17:34 1510791454.330104: $GPGSA,A,3,32,14,22,26,31,3,,,,,,,3.4,1.4,2.9*0A
2017-11-15 19:17:35 1510791455.344423: $GPZDA,001734.00,16,11,2017,00,00*64
2017-11-15 19:17:35 1510791455.344585: $GPGGA,001734,3946.9633,N,08404.9506,W,1,06,1.40,278.01,M,-33.324,M,,*73
2017-11-15 19:17:35 1510791455.344646: $GPRMC,001734,A,3946.9633,N,08404.9506,W,0.5951,238.684,161117,,*31
2017-11-15 19:17:35 1510791455.344701: $GPGSA,A,3,32,14,22,26,31,3,,,,,,,3.4,1.4,2.9*0A
2017-11-15 19:17:36 1510791456.682161: $GPGSV,3,1,12,32,41,102,20,14,59,084,24,22,49,280,24,26,46,175,22*7A
2017-11-15 19:17:36 1510791456.682354: $GPGSV,3,2,12,31,72,013,21,25,22,042,00,03,36,304,23,16,16,190,00*74
2017-11-15 19:17:36 1510791456.682414: $GPGSV,3,3,12,01,09,256,00,29,09,076,00,23,07,298,00,135,23,238,00*4A
2017-11-15 19:17:36 1510791456.795559: $GPZDA,001735.00,16,11,2017,00,00*65
2017-11-15 19:17:36 1510791456.795727: $GPGGA,001735,3946.9626,N,08404.9506,W,1,06,1.40,278.13,M,-33.324,M,,*75
2017-11-15 19:17:36 1510791456.795787: $GPRMC,001735,A,3946.9626,N,08404.9506,W,0.8414,219.347,161117,,*3C
2017-11-15 19:17:36 1510791456.795843: $GPGSA,A,3,32,14,22,26,31,3,,,,,,,3.4,1.4,2.9*0A
2017-11-15 19:17:37 1510791457.330231: $GPZDA,001736.00,16,11,2017,00,00*66
2017-11-15 19:17:37 1510791457.330408: $GPGGA,001736,3946.9621,N,08404.9506,W,1,06,1.40,277.49,M,-33.324,M,,*71
2017-11-15 19:17:37 1510791457.330468: $GPRMC,001736,A,3946.9621,N,08404.9506,W,0.7103,225.706,161117,,*3A
2017-11-15 19:17:37 1510791457.330523: $GPGSA,A,3,32,14,22,26,31,3,,,,,,,3.4,1.4,2.9*0A
2017-11-15 19:17:38 1510791458.346078: $GPZDA,001737.00,16,11,2017,00,00*67
2017-11-15 19:17:38 1510791458.346242: $GPGGA,001737,3946.9621,N,08404.9506,W,1,06,1.40,277.49,M,-33.324,M,,*70
2017-11-15 19:17:38 1510791458.346307: $GPRMC,001737,A,3946.9621,N,08404.9506,W,0.4207,219.347,161117,,*31
2017-11-15 19:17:38 1510791458.346366: $GPGSA,A,3,32,14,22,26,31,3,,,,,,,3.4,1.4,2.9*0A
2017-11-15 19:17:39 1510791459.665515: $GPGSV,3,1,12,32,41,102,20,14,59,084,24,22,49,280,24,26,46,175,22*7A
2017-11-15 19:17:39 1510791459.665666: $GPGSV,3,2,12,31,72,013,20,25,22,042,00,03,36,304,23,16,16,190,00*75
2017-11-15 19:17:39 1510791459.665778: $GPGSV,3,3,12,01,09,256,00,29,09,076,00,23,07,298,00,135,23,238,00*4A
2017-11-15 19:17:39 1510791459.778959: $GPZDA,001738.00,16,11,2017,00,00*68
2017-11-15 19:17:39 1510791459.779121: $GPGGA,001738,3946.9617,N,08404.9506,W,1,06,1.40,276.85,M,-33.324,M,,*7B
2017-11-15 19:17:39 1510791459.779181: $GPRMC,001738,A,3946.9617,N,08404.9506,W,0.6846,184.197,161117,,*3E
2017-11-15 19:17:39 1510791459.779237: $GPGSA,A,3,32,14,22,26,31,3,,,,,,,3.4,1.4,2.9*0A
2017-11-15 19:17:40 1510791460.345955: $GPZDA,001739.00,16,11,2017,00,00*69
2017-11-15 19:17:40 1510791460.346123: $GPGGA,001739,3946.9617,N,08404.9506,W,1,06,1.40,276.85,M,-33.324,M,,*7A
2017-11-15 19:17:40 1510791460.346184: $GPRMC,001739,A,3946.9617,N,08404.9506,W,0.5857,158.291,161117,,*38
2017-11-15 19:17:40 1510791460.346240: $GPGSA,A,3,32,14,22,26,31,3,,,,,,,3.4,1.4,2.9*0A
2017-11-15 19:17:41 1510791461.345114: $GPZDA,001740.00,16,11,2017,00,00*67
2017-11-15 19:17:42 1510791462.164175: $GPGGA,001740,3946.9613,N,08404.9506,W,1,06,1.40,276.21,M,-33.324,M,,*7E
2017-11-15 19:17:42 1510791462.164335: $GPRMC,001740,A,3946.9613,N,08404.9506,W,0.9019,198.875,161117,,*30
2017-11-15 19:17:42 1510791462.164395: $GPGSA,A,3,32,14,22,26,31,3,,,,,,,3.4,1.4,2.9*0A
