2017-11-16 15:27:54 1510864074.626604: {"class":"VERSION","release":"3.17","rev":"3.17","proto_major":3,"proto_minor":12}
2017-11-16 15:27:54 1510864074.627088: {"class":"DEVICES","devices":[{"class":"DEVICE","path":"/dev/ttyUSB0","driver":"SiRF","subtype":"9\u0006GSD4e_4.1.2-P1_RPATCH.05-F-GPS-4R-1510281 11/03/2015 307","activated":"2017-11-16T20:27:54.524Z","flags":1,"native":1,"bps":4800,"parity":"N","stopbits":1,"cycle":1.00}]}
2017-11-16 15:27:54 1510864074.627208: {"class":"WATCH","enable":true,"json":false,"nmea":true,"raw":0,"scaled":false,"timing":false,"split24":false,"pps":false}
2017-11-16 15:27:55 1510864075.704872: $GPGSV,3,1,12,08,06,292,32,10,69,331,51,14,29,253,44,15,11,066,20*79
2017-11-16 15:27:55 1510864075.705047: $GPGSV,3,2,12,18,71,094,47,20,08,118,25,21,29,180,44,24,45,058,51*70
2017-11-16 15:27:55 1510864075.705108: $GPGSV,3,3,12,27,06,259,38,32,46,265,47,12,09,106,26,138,38,213,44*45
2017-11-16 15:27:55 1510864075.818441: $GPZDA,202754.00,16,11,2017,00,00*63
2017-11-16 15:27:55 1510864075.818601: $GPGGA,202754,3946.9572,N,08404.9866,W,2,12,0.80,308.76,M,-33.324,M,,*74
2017-11-16 15:27:55 1510864075.818662: $GPRMC,202754,A,3946.9572,N,08404.9866,W,0.0000,0.000,161117,,*30
2017-11-16 15:27:55 1510864075.818718: $GPGSA,A,3,8,10,14,15,18,20,21,24,27,32,12,138,1.6,0.8,1.3*34
2017-11-16 15:27:56 1510864076.443677: $GPZDA,202755.00,16,11,2017,00,00*62
2017-11-16 15:27:56 1510864076.443859: $GPGGA,202755,3946.9572,N,08404.9866,W,2,12,0.80,308.76,M,-33.324,M,,*75
2017-11-16 15:27:56 1510864076.443934: $GPRMC,202755,A,3946.9572,N,08404.9866,W,0.0000,0.000,161117,,*31
2017-11-16 15:27:56 1510864076.443997: $GPGSA,A,3,8,10,14,15,18,20,21,24,27,32,12,138,1.6,0.8,1.3*34
2017-11-16 15:27:57 1510864077.368176: $GPZDA,202756.00,16,11,2017,00,00*61
2017-11-16 15:27:57 1510864077.368340: $GPGGA,202756,3946.9572,N,08404.9866,W,2,12,0.80,308.76,M,-33.324,M,,*76
2017-11-16 15:27:57 1510864077.368401: $GPRMC,202756,A,3946.9572,N,08404.9866,W,0.0000,0.000,161117,,*32
2017-11-16 15:27:57 1510864077.368457: $GPGSA,A,3,8,10,14,15,18,20,21,24,27,32,12,138,1.6,0.8,1.3*34
2017-11-16 15:27:57 1510864077.368512: $GPGBS,202756,2.12,M,3.10,M,7.47,M*3D
2017-11-16 15:27:58 1510864078.720386: $GPGSV,3,1,12,08,05,292,33,10,70,333,51,14,30,255,44,15,10,067,20*7F
2017-11-16 15:27:58 1510864078.720564: $GPGSV,3,2,12,18,70,097,47,20,07,118,25,21,28,180,44,24,44,057,50*73
2017-11-16 15:27:58 1510864078.720632: $GPGSV,3,3,12,27,05,258,38,32,47,267,47,12,10,106,26,138,38,213,44*4C
2017-11-16 15:27:58 1510864078.833787: $GPZDA,202757.00,16,11,2017,00,00*60
2017-11-16 15:27:58 1510864078.833941: $GPGGA,202757,3946.9572,N,08404.9866,W,2,12,0.80,308.76,M,-33.324,M,,*77
2017-11-16 15:27:58 1510864078.834002: $GPRMC,202757,A,3946.9572,N,08404.9866,W,0.0000,0.000,161117,,*33
2017-11-16 15:27:58 1510864078.834058: $GPGSA,A,3,8,10,14,15,18,20,21,24,27,32,12,138,1.6,0.8,1.3*34
2017-11-16 15:27:59 1510864079.386897: $GPZDA,202758.00,16,11,2017,00,00*6F
2017-11-16 15:27:59 1510864079.387069: $GPGGA,202758,3946.9572,N,08404.9866,W,2,12,0.80,308.76,M,-33.324,M,,*78
2017-11-16 15:27:59 1510864079.387128: $GPRMC,202758,A,3946.9572,N,08404.9866,W,0.0000,0.000,161117,,*3C
2017-11-16 15:27:59 1510864079.387184: $GPGSA,A,3,8,10,14,15,18,20,21,24,27,32,12,138,1.6,0.8,1.3*34
2017-11-16 15:28:00 1510864080.370133: $GPZDA,202759.00,16,11,2017,00,00*6E
2017-11-16 15:28:00 1510864080.370412: $GPGGA,202759,3946.9572,N,08404.9866,W,2,12,0.80,308.76,M,-33.324,M,,*79
2017-11-16 15:28:00 1510864080.370483: $GPRMC,202759,A,3946.9572,N,08404.9866,W,0.0000,0.000,161117,,*3D
2017-11-16 15:28:00 1510864080.370540: $GPGSA,A,3,8,10,14,15,18,20,21,24,27,32,12,138,1.6,0.8,1.3*34
2017-11-16 15:28:01 1510864081.705509: $GPGSV,3,1,12,08,05,292,34,10,70,333,51,14,30,255,44,15,10,067,24*7C
2017-11-16 15:28:01 1510864081.885789: $GPGSV,3,2,12,18,70,097,47,20,07,118,25,21,28,180,44,24,44,057,50*73
2017-11-16 15:28:01 1510864081.885926: $GPGSV,3,3,12,27,05,258,38,32,47,267,47,12,10,106,27,138,38,213,44*4D
2017-11-16 15:28:01 1510864081.886023: $GPZDA,202800.00,16,11,2017,00,00*6D
2017-11-16 15:28:01 1510864081.886104: $GPGGA,202800,3946.9572,N,08404.9866,W,2,12,0.80,308.76,M,-33.324,M,,*7A
2017-11-16 15:28:01 1510864081.886163: $GPRMC,202800,A,3946.9572,N,08404.9866,W,0.0000,0.000,161117,,*3E
2017-11-16 15:28:01 1510864081.886218: $GPGSA,A,3,8,10,14,15,18,20,21,24,27,32,12,138,1.6,0.8,1.3*34
2017-11-16 15:28:02 1510864082.383469: $GPZDA,202801.00,16,11,2017,00,00*6C
2017-11-16 15:28:02 1510864082.383658: $GPGGA,202801,3946.9572,N,08404.9866,W,2,12,0.80,308.76,M,-33.324,M,,*7B
2017-11-16 15:28:02 1510864082.383721: $GPRMC,202801,A,3946.9572,N,08404.9866,W,0.0000,0.000,161117,,*3F
2017-11-16 15:28:02 1510864082.383778: $GPGSA,A,3,8,10,14,15,18,20,21,24,27,32,12,138,1.6,0.8,1.3*34
2017-11-16 15:28:03 1510864083.368030: $GPZDA,202802.00,16,11,2017,00,00*6F
2017-11-16 15:28:03 1510864083.368207: $GPGGA,202802,3946.9572,N,08404.9866,W,2,12,0.80,308.76,M,-33.324,M,,*78
2017-11-16 15:28:03 1510864083.368269: $GPRMC,202802,A,3946.9572,N,08404.9866,W,0.0000,0.000,161117,,*3C
2017-11-16 15:28:03 1510864083.368326: $GPGSA,A,3,8,10,14,15,18,20,21,24,27,32,12,138,1.6,0.8,1.3*34
