2017-12-01 12:25:49 1512149149.926770: {"class":"VERSION","release":"3.16","rev":"3.16-4","proto_major":3,"proto_minor":11}
2017-12-01 12:25:49 1512149149.927262: {"class":"DEVICES","devices":[{"class":"DEVICE","path":"/dev/ttyUSB0","driver":"SiRF","subtype":"9\u0006GSD4e_4.1.2-P1_RPATCH.05-F-GPS-4R-1510281 11/03/2015 307","activated":"2017-12-01T17:25:49.864Z","flags":1,"native":1,"bps":4800,"parity":"N","stopbits":1,"cycle":1.00}]}
2017-12-01 12:25:49 1512149149.927384: {"class":"WATCH","enable":true,"json":false,"nmea":true,"raw":0,"scaled":false,"timing":false,"split24":false,"pps":false}
2017-12-01 12:25:50 1512149150.837549: $GPZDA,172551.53,01,12,2017,00,00*63
2017-12-01 12:25:50 1512149150.837720: $GPGGA,172551,3946.9601,N,08404.9826,W,1,12,1.00,293.01,M,-33.324,M,,*7D
2017-12-01 12:25:50 1512149150.837806: $GPRMC,172551,A,3946.9601,N,08404.9826,W,0.7093,26.529,011217,,*02
2017-12-01 12:25:50 1512149150.837870: $GPGSA,A,3,10,13,15,18,20,21,24,27,5,29,32,138,2.0,1.0,1.5*3C
2017-12-01 12:25:50 1512149150.837945: $GPGBS,172551,10.70,M,15.43,M,35.28,M*02
2017-12-01 12:25:51 1512149151.919038: $GPZDA,172552.22,01,12,2017,00,00*66
2017-12-01 12:25:51 1512149151.919211: $GPGGA,172552,3946.9588,N,08404.9840,W,1,12,1.00,289.53,M,-33.324,M,,*70
2017-12-01 12:25:51 1512149151.919278: $GPRMC,172552,A,3946.9588,N,08404.9840,W,0.5287,2.716,011217,,*3E
2017-12-01 12:25:51 1512149151.919338: $GPGSA,A,3,10,13,15,18,20,21,24,27,5,29,32,138,2.0,1.0,1.5*3C
2017-12-01 12:25:53 1512149153.061661: $GPGSV,3,1,12,10,26,286,38,13,25,045,44,15,57,049,47,18,57,304,45*7B
2017-12-01 12:25:53 1512149153.061855: $GPGSV,3,2,12,20,49,076,46,21,79,246,42,24,37,135,47,29,07,189,33*76
2017-12-01 12:25:53 1512149153.061939: $GPGSV,3,3,12,27,17,309,33,32,04,226,08,05,01,090,00,138,38,213,00*44
2017-12-01 12:25:53 1512149153.175025: $GPZDA,172553.00,01,12,2017,00,00*67
2017-12-01 12:25:53 1512149153.175193: $GPGGA,172553,3946.9579,N,08404.9843,W,1,10,0.80,293.22,M,-33.324,M,,*7A
2017-12-01 12:25:53 1512149153.175260: $GPRMC,172553,A,3946.9579,N,08404.9843,W,0.1867,0.000,011217,,*30
2017-12-01 12:25:53 1512149153.175320: $GPGSA,A,3,10,13,15,18,20,21,24,29,27,32,,,2.0,0.8,1.5*3A
2017-12-01 12:25:53 1512149153.626263: $GPZDA,172554.00,01,12,2017,00,00*60
2017-12-01 12:25:53 1512149153.626442: $GPGGA,172554,3946.9578,N,08404.9842,W,1,10,0.80,291.82,M,-33.324,M,,*75
2017-12-01 12:25:53 1512149153.626507: $GPRMC,172554,A,3946.9578,N,08404.9842,W,0.2959,54.767,011217,,*0F
2017-12-01 12:25:53 1512149153.626633: $GPGSA,A,3,10,13,15,18,20,21,24,29,27,32,,,2.0,0.8,1.5*3A
2017-12-01 12:25:54 1512149154.325508: $GPZDA,172555.00,01,12,2017,00,00*61
2017-12-01 12:25:54 1512149154.325679: $GPGGA,172555,3946.9578,N,08404.9842,W,1,10,0.80,291.82,M,-33.324,M,,*74
2017-12-01 12:25:54 1512149154.325746: $GPRMC,172555,A,3946.9578,N,08404.9842,W,0.0000,0.000,011217,,*3E
2017-12-01 12:25:54 1512149154.325828: $GPGSA,A,3,10,13,15,18,20,21,24,29,27,32,,,2.0,0.8,1.5*3A
2017-12-01 12:25:55 1512149155.664495: $GPGSV,3,1,12,10,26,286,40,13,25,045,44,15,57,049,47,18,57,304,46*77
2017-12-01 12:25:55 1512149155.664659: $GPGSV,3,2,12,20,49,076,46,21,79,246,42,24,37,135,47,29,07,189,32*77
2017-12-01 12:25:55 1512149155.664726: $GPGSV,3,3,12,27,17,309,33,32,04,226,21,05,01,090,00,138,38,213,49*42
2017-12-01 12:25:55 1512149155.777924: $GPZDA,172556.00,01,12,2017,00,00*62
2017-12-01 12:25:55 1512149155.778097: $GPGGA,172556,3946.9578,N,08404.9842,W,1,11,0.80,291.82,M,-33.324,M,,*76
2017-12-01 12:25:55 1512149155.778164: $GPRMC,172556,A,3946.9578,N,08404.9842,W,0.0000,0.000,011217,,*3D
2017-12-01 12:25:55 1512149155.778225: $GPGSA,A,3,10,13,15,18,20,21,24,29,27,32,138,,2.0,0.8,1.5*00
2017-12-01 12:25:56 1512149156.328810: $GPZDA,172557.00,01,12,2017,00,00*63
2017-12-01 12:25:56 1512149156.329000: $GPGGA,172557,3946.9579,N,08404.9843,W,1,11,0.80,293.22,M,-33.324,M,,*7F
2017-12-01 12:25:56 1512149156.329069: $GPRMC,172557,A,3946.9579,N,08404.9843,W,0.0000,0.000,011217,,*3C
2017-12-01 12:25:56 1512149156.329129: $GPGSA,A,3,10,13,15,18,20,21,24,29,27,32,138,,2.0,0.8,1.5*00
2017-12-01 12:25:57 1512149157.333269: $GPZDA,172558.00,01,12,2017,00,00*6C
2017-12-01 12:25:57 1512149157.333444: $GPGGA,172558,3946.9579,N,08404.9843,W,1,11,0.80,293.22,M,-33.324,M,,*70
2017-12-01 12:25:57 1512149157.333511: $GPRMC,172558,A,3946.9579,N,08404.9843,W,0.0000,0.000,011217,,*33
2017-12-01 12:25:57 1512149157.333572: $GPGSA,A,3,10,13,15,18,20,21,24,29,27,32,138,,2.0,0.8,1.5*00
2017-12-01 12:25:57 1512149157.333631: $GPGBS,172558,10.70,M,15.43,M,35.28,M*0B
2017-12-01 12:25:58 1512149158.666471: $GPGSV,3,1,12,10,26,286,40,13,25,045,44,15,57,049,47,18,57,304,46*77
2017-12-01 12:25:58 1512149158.666654: $GPGSV,3,2,12,20,49,076,46,21,79,246,42,24,37,135,48,29,07,189,32*78
2017-12-01 12:25:58 1512149158.666722: $GPGSV,3,3,12,27,17,309,32,32,04,226,22,05,01,090,20,138,38,213,47*4C
2017-12-01 12:25:58 1512149158.778574: $GPZDA,172559.00,01,12,2017,00,00*6D
2017-12-01 12:25:58 1512149158.778719: $GPGGA,172559,3946.9579,N,08404.9843,W,2,12,1.60,293.22,M,-33.324,M,,*7E
2017-12-01 12:25:58 1512149158.778810: $GPRMC,172559,A,3946.9579,N,08404.9843,W,0.0000,0.000,011217,,*32
2017-12-01 12:25:58 1512149158.778897: $GPGSA,A,3,10,13,15,18,20,21,24,29,27,32,5,138,2.0,1.6,1.5*3A
2017-12-01 12:25:59 1512149159.330709: $GPZDA,172600.00,01,12,2017,00,00*62
2017-12-01 12:25:59 1512149159.330917: $GPGGA,172600,3946.9579,N,08404.9843,W,2,12,0.80,293.22,M,-33.324,M,,*7E
2017-12-01 12:25:59 1512149159.330986: $GPRMC,172600,A,3946.9579,N,08404.9843,W,0.0000,0.000,011217,,*3D
2017-12-01 12:25:59 1512149159.331047: $GPGSA,A,3,10,13,15,18,20,21,24,29,27,32,5,138,2.0,0.8,1.5*35
