2018-01-11 20:20:36 1515720036.180049: {"class":"VERSION","release":"3.16","rev":"3.16-4","proto_major":3,"proto_minor":11}
2018-01-11 20:20:36 1515720036.180454: {"class":"DEVICES","devices":[{"class":"DEVICE","path":"/dev/ttyUSB0","driver":"SiRF","subtype":"9\u0006GSD4e_4.1.2-P1_RPATCH.05-F-GPS-4R-1510281 11/03/2015 307","activated":"2018-01-12T01:20:35.962Z","flags":1,"native":1,"bps":4800,"parity":"N","stopbits":1,"cycle":1.00}]}
2018-01-11 20:20:36 1515720036.180571: {"class":"WATCH","enable":true,"json":false,"nmea":true,"raw":0,"scaled":false,"timing":false,"split24":false,"pps":false}
2018-01-11 20:20:36 1515720036.369582: $GPZDA,012037.00,12,01,2018,00,00*68
2018-01-11 20:20:36 1515720036.369740: $GPGGA,012037,3946.9594,N,08404.9845,W,2,10,0.80,300.76,M,-33.324,M,,*76
2018-01-11 20:20:36 1515720036.369805: $GPRMC,012037,A,3946.9594,N,08404.9845,W,0.0000,0.000,120118,,*32
2018-01-11 20:20:36 1515720036.369865: $GPGSA,A,3,7,8,9,11,16,23,27,28,30,138,,,4.0,0.8,3.5*3E
2018-01-11 20:20:37 1515720037.372920: $GPZDA,012038.00,12,01,2018,00,00*67
2018-01-11 20:20:37 1515720037.373073: $GPGGA,012038,3946.9594,N,08404.9845,W,2,10,0.80,300.76,M,-33.324,M,,*79
2018-01-11 20:20:37 1515720037.373137: $GPRMC,012038,A,3946.9594,N,08404.9845,W,0.0000,0.000,120118,,*3D
2018-01-11 20:20:37 1515720037.373197: $GPGSA,A,3,7,8,9,11,16,23,27,28,30,138,,,4.0,0.8,3.5*3E
2018-01-11 20:20:38 1515720038.724107: $GPGSV,3,1,11,07,60,315,43,08,75,114,45,09,44,225,41,11,24,166,45*7A
2018-01-11 20:20:38 1515720038.724267: $GPGSV,3,2,11,16,20,063,38,23,24,189,49,27,43,049,50,28,17,261,38*71
2018-01-11 20:20:38 1515720038.724331: $GPGSV,3,3,11,30,33,307,35,01,02,162,10,138,38,213,45*7F
2018-01-11 20:20:38 1515720038.837725: $GPZDA,012039.00,12,01,2018,00,00*66
2018-01-11 20:20:38 1515720038.837844: $GPGGA,012039,3946.9594,N,08404.9845,W,2,10,0.80,300.76,M,-33.324,M,,*78
2018-01-11 20:20:38 1515720038.837907: $GPRMC,012039,A,3946.9594,N,08404.9845,W,0.0000,0.000,120118,,*3C
2018-01-11 20:20:38 1515720038.837966: $GPGSA,A,3,7,8,9,11,16,23,27,28,30,138,,,4.0,0.8,3.5*3E
2018-01-11 20:20:39 1515720039.388645: $GPZDA,012040.00,12,01,2018,00,00*68
2018-01-11 20:20:39 1515720039.388793: $GPGGA,012040,3946.9594,N,08404.9845,W,2,10,0.80,300.76,M,-33.324,M,,*76
2018-01-11 20:20:39 1515720039.388858: $GPRMC,012040,A,3946.9594,N,08404.9845,W,0.0000,0.000,120118,,*32
2018-01-11 20:20:39 1515720039.388918: $GPGSA,A,3,7,8,9,11,16,23,27,28,30,138,,,4.0,0.8,3.5*3E
2018-01-11 20:20:40 1515720040.370797: $GPZDA,012041.00,12,01,2018,00,00*69
2018-01-11 20:20:40 1515720040.370977: $GPGGA,012041,3946.9594,N,08404.9845,W,2,10,0.80,300.76,M,-33.324,M,,*77
2018-01-11 20:20:40 1515720040.371062: $GPRMC,012041,A,3946.9594,N,08404.9845,W,0.0000,0.000,120118,,*33
2018-01-11 20:20:40 1515720040.371124: $GPGSA,A,3,7,8,9,11,16,23,27,28,30,138,,,4.0,0.8,3.5*3E
2018-01-11 20:20:41 1515720041.707485: $GPGSV,3,1,11,07,60,315,43,08,75,114,45,09,44,225,41,11,24,166,46*79
2018-01-11 20:20:41 1515720041.707649: $GPGSV,3,2,11,16,20,063,39,23,24,189,49,27,43,049,50,28,17,261,38*70
2018-01-11 20:20:41 1515720041.707716: $GPGSV,3,3,11,30,33,307,35,01,02,162,19,138,38,213,44*77
2018-01-11 20:20:41 1515720041.821108: $GPZDA,012042.00,12,01,2018,00,00*6A
2018-01-11 20:20:41 1515720041.821222: $GPGGA,012042,3946.9594,N,08404.9845,W,2,11,0.80,300.76,M,-33.324,M,,*75
2018-01-11 20:20:41 1515720041.821285: $GPRMC,012042,A,3946.9594,N,08404.9845,W,0.0000,0.000,120118,,*30
2018-01-11 20:20:41 1515720041.821344: $GPGSA,A,3,7,8,9,11,16,23,27,28,30,1,138,,4.0,0.8,3.5*0F
2018-01-11 20:20:42 1515720042.371996: $GPZDA,012043.00,12,01,2018,00,00*6B
2018-01-11 20:20:42 1515720042.372164: $GPGGA,012043,3946.9594,N,08404.9845,W,2,11,0.80,300.76,M,-33.324,M,,*74
2018-01-11 20:20:42 1515720042.372230: $GPRMC,012043,A,3946.9594,N,08404.9845,W,0.0000,0.000,120118,,*31
2018-01-11 20:20:42 1515720042.372290: $GPGSA,A,3,7,8,9,11,16,23,27,28,30,1,138,,4.0,0.8,3.5*0F
2018-01-11 20:20:43 1515720043.371113: $GPZDA,012044.00,12,01,2018,00,00*6C
2018-01-11 20:20:43 1515720043.371284: $GPGGA,012044,3946.9594,N,08404.9845,W,2,11,0.80,300.76,M,-33.324,M,,*73
2018-01-11 20:20:43 1515720043.371424: $GPRMC,012044,A,3946.9594,N,08404.9845,W,0.0000,0.000,120118,,*36
2018-01-11 20:20:43 1515720043.371487: $GPGSA,A,3,7,8,9,11,16,23,27,28,30,1,138,,4.0,0.8,3.5*0F
2018-01-11 20:20:44 1515720044.704062: $GPGSV,3,1,11,07,60,315,44,08,75,114,45,09,44,225,42,11,24,166,45*7E
2018-01-11 20:20:44 1515720044.704221: $GPGSV,3,2,11,16,20,063,39,23,24,189,49,27,43,049,50,28,17,261,38*70
2018-01-11 20:20:44 1515720044.704287: $GPGSV,3,3,11,30,33,307,35,01,02,162,20,138,38,213,45*7C
2018-01-11 20:20:44 1515720044.817712: $GPZDA,012045.00,12,01,2018,00,00*6D
2018-01-11 20:20:44 1515720044.817836: $GPGGA,012045,3946.9594,N,08404.9845,W,2,11,0.80,300.76,M,-33.324,M,,*72
2018-01-11 20:20:44 1515720044.817901: $GPRMC,012045,A,3946.9594,N,08404.9845,W,0.0000,0.000,120118,,*37
2018-01-11 20:20:44 1515720044.817961: $GPGSA,A,3,7,8,9,11,16,23,27,28,30,1,138,,4.0,0.8,3.5*0F
2018-01-11 20:20:45 1515720045.371104: $GPZDA,012046.00,12,01,2018,00,00*6E
2018-01-11 20:20:45 1515720045.371284: $GPGGA,012046,3946.9594,N,08404.9845,W,2,11,0.80,300.76,M,-33.324,M,,*71
2018-01-11 20:20:45 1515720045.371370: $GPRMC,012046,A,3946.9594,N,08404.9845,W,0.0000,0.000,120118,,*34
2018-01-11 20:20:45 1515720045.371433: $GPGSA,A,3,7,8,9,11,16,23,27,28,30,1,138,,4.0,0.8,3.5*0F
2018-01-11 20:20:46 1515720046.373218: $GPZDA,012047.00,12,01,2018,00,00*6F
2018-01-11 20:20:46 1515720046.373389: $GPGGA,012047,3946.9594,N,08404.9845,W,2,11,0.80,300.76,M,-33.324,M,,*70
2018-01-11 20:20:46 1515720046.373455: $GPRMC,012047,A,3946.9594,N,08404.9845,W,0.0000,0.000,120118,,*35
2018-01-11 20:20:46 1515720046.373515: $GPGSA,A,3,7,8,9,11,16,23,27,28,30,1,138,,4.0,0.8,3.5*0F
2018-01-11 20:20:47 1515720047.707411: $GPGSV,3,1,11,07,60,315,44,08,75,114,45,09,44,225,42,11,24,166,45*7E
2018-01-11 20:20:47 1515720047.707565: $GPGSV,3,2,11,16,20,063,39,23,24,189,49,27,43,049,50,28,17,261,38*70
2018-01-11 20:20:47 1515720047.707630: $GPGSV,3,3,11,30,33,307,34,01,02,162,04,138,38,213,45*7B
2018-01-11 20:20:47 1515720047.821047: $GPZDA,012048.00,12,01,2018,00,00*60
2018-01-11 20:20:47 1515720047.821171: $GPGGA,012048,3946.9594,N,08404.9845,W,2,10,0.80,300.76,M,-33.324,M,,*7E
2018-01-11 20:20:47 1515720047.821235: $GPRMC,012048,A,3946.9594,N,08404.9845,W,0.0000,0.000,120118,,*3A
2018-01-11 20:20:47 1515720047.821295: $GPGSA,A,3,7,8,9,11,16,23,27,28,30,138,,,4.0,0.8,3.5*3E
