2017-12-29 14:57:04 1514577424.976142: {"class":"VERSION","release":"3.16","rev":"3.16-4","proto_major":3,"proto_minor":11}
2017-12-29 14:57:04 1514577424.976579: {"class":"DEVICES","devices":[{"class":"DEVICE","path":"/dev/ttyUSB0","driver":"SiRF","subtype":"9\u0006GSD4e_4.1.2-P1_RPATCH.05-F-GPS-4R-1510281 11/03/2015 307","activated":"2017-12-29T19:57:04.581Z","flags":1,"native":1,"bps":4800,"parity":"N","stopbits":1,"cycle":1.00}]}
2017-12-29 14:57:04 1514577424.976697: {"class":"WATCH","enable":true,"json":false,"nmea":true,"raw":0,"scaled":false,"timing":false,"split24":false,"pps":false}
2017-12-29 14:57:05 1514577425.400574: $GPZDA,195706.00,29,12,2017,00,00*66
2017-12-29 14:57:05 1514577425.400784: $GPGGA,195706,3946.9564,N,08404.9822,W,2,12,0.80,304.38,M,-33.324,M,,*7F
2017-12-29 14:57:05 1514577425.400870: $GPRMC,195706,A,3946.9564,N,08404.9822,W,0.0000,0.000,291217,,*32
2017-12-29 14:57:05 1514577425.400933: $GPGSA,A,3,1,3,10,26,12,14,18,22,25,31,32,138,1.7,0.8,1.3*08
2017-12-29 14:57:06 1514577426.775083: $GPGSV,3,1,12,01,22,291,39,03,08,316,34,10,38,151,48,26,11,180,24*79
2017-12-29 14:57:06 1514577426.775277: $GPGSV,3,2,12,12,18,042,41,14,69,349,43,18,08,147,32,22,27,310,41*71
2017-12-29 14:57:06 1514577426.775346: $GPGSV,3,3,12,25,41,078,51,31,67,237,46,32,64,054,51,138,38,213,43*44
2017-12-29 14:57:06 1514577426.888426: $GPZDA,195707.00,29,12,2017,00,00*67
2017-12-29 14:57:06 1514577426.888588: $GPGGA,195707,3946.9564,N,08404.9822,W,2,12,0.80,304.38,M,-33.324,M,,*7E
2017-12-29 14:57:06 1514577426.888655: $GPRMC,195707,A,3946.9564,N,08404.9822,W,0.0000,0.000,291217,,*33
2017-12-29 14:57:06 1514577426.888716: $GPGSA,A,3,1,3,10,26,12,14,18,22,25,31,32,138,1.7,0.8,1.3*08
2017-12-29 14:57:07 1514577427.513815: $GPZDA,195708.00,29,12,2017,00,00*68
2017-12-29 14:57:07 1514577427.514012: $GPGGA,195708,3946.9564,N,08404.9822,W,2,12,0.80,304.38,M,-33.324,M,,*71
2017-12-29 14:57:07 1514577427.514081: $GPRMC,195708,A,3946.9564,N,08404.9822,W,0.0000,0.000,291217,,*3C
2017-12-29 14:57:07 1514577427.514157: $GPGSA,A,3,1,3,10,26,12,14,18,22,25,31,32,138,1.7,0.8,1.3*08
2017-12-29 14:57:08 1514577428.433427: $GPZDA,195709.00,29,12,2017,00,00*69
2017-12-29 14:57:08 1514577428.433602: $GPGGA,195709,3946.9564,N,08404.9822,W,2,12,0.80,304.38,M,-33.324,M,,*70
2017-12-29 14:57:08 1514577428.433669: $GPRMC,195709,A,3946.9564,N,08404.9822,W,0.0000,0.000,291217,,*3D
2017-12-29 14:57:08 1514577428.433729: $GPGSA,A,3,1,3,10,26,12,14,18,22,25,31,32,138,1.7,0.8,1.3*08
2017-12-29 14:57:09 1514577429.776677: $GPGSV,3,1,12,01,22,291,39,03,08,316,30,10,38,151,48,26,11,180,25*7C
2017-12-29 14:57:09 1514577429.776856: $GPGSV,3,2,12,12,18,042,41,14,69,349,43,18,08,147,32,22,27,310,42*72
2017-12-29 14:57:09 1514577429.776922: $GPGSV,3,3,12,25,41,078,51,31,67,237,46,32,64,054,51,138,38,213,44*43
2017-12-29 14:57:09 1514577429.890064: $GPZDA,195710.00,29,12,2017,00,00*61
2017-12-29 14:57:09 1514577429.890245: $GPGGA,195710,3946.9564,N,08404.9822,W,2,12,0.80,304.38,M,-33.324,M,,*78
2017-12-29 14:57:09 1514577429.890311: $GPRMC,195710,A,3946.9564,N,08404.9822,W,0.0000,0.000,291217,,*35
2017-12-29 14:57:09 1514577429.890372: $GPGSA,A,3,1,3,10,26,12,14,18,22,25,31,32,138,1.7,0.8,1.3*08
2017-12-29 14:57:10 1514577430.400913: $GPZDA,195711.00,29,12,2017,00,00*60
2017-12-29 14:57:10 1514577430.401199: $GPGGA,195711,3946.9564,N,08404.9822,W,2,12,0.80,304.38,M,-33.324,M,,*79
2017-12-29 14:57:10 1514577430.401289: $GPRMC,195711,A,3946.9564,N,08404.9822,W,0.0000,0.000,291217,,*34
2017-12-29 14:57:10 1514577430.401353: $GPGSA,A,3,1,3,10,26,12,14,18,22,25,31,32,138,1.7,0.8,1.3*08
2017-12-29 14:57:11 1514577431.403080: $GPZDA,195712.00,29,12,2017,00,00*63
2017-12-29 14:57:11 1514577431.403263: $GPGGA,195712,3946.9564,N,08404.9822,W,2,12,0.80,304.38,M,-33.324,M,,*7A
2017-12-29 14:57:11 1514577431.403329: $GPRMC,195712,A,3946.9564,N,08404.9822,W,0.0000,0.000,291217,,*37
2017-12-29 14:57:11 1514577431.403389: $GPGSA,A,3,1,3,10,26,12,14,18,22,25,31,32,138,1.7,0.8,1.3*08
2017-12-29 14:57:12 1514577432.739529: $GPGSV,3,1,12,01,22,291,38,03,08,316,32,10,38,151,48,26,11,180,26*7C
2017-12-29 14:57:12 1514577432.739764: $GPGSV,3,2,12,12,18,042,42,14,69,349,43,18,08,147,32,22,27,310,42*71
2017-12-29 14:57:12 1514577432.739834: $GPGSV,3,3,12,25,41,078,51,31,67,237,47,32,64,054,51,138,38,213,43*45
2017-12-29 14:57:12 1514577432.852873: $GPZDA,195713.00,29,12,2017,00,00*62
2017-12-29 14:57:12 1514577432.853037: $GPGGA,195713,3946.9564,N,08404.9822,W,2,12,0.80,304.38,M,-33.324,M,,*7B
2017-12-29 14:57:12 1514577432.853121: $GPRMC,195713,A,3946.9564,N,08404.9822,W,0.0000,0.000,291217,,*36
2017-12-29 14:57:12 1514577432.853183: $GPGSA,A,3,1,3,10,26,12,14,18,22,25,31,32,138,1.7,0.8,1.3*08
2017-12-29 14:57:13 1514577433.401299: $GPZDA,195714.00,29,12,2017,00,00*65
2017-12-29 14:57:13 1514577433.401474: $GPGGA,195714,3946.9564,N,08404.9822,W,2,12,0.80,304.38,M,-33.324,M,,*7C
2017-12-29 14:57:13 1514577433.401540: $GPRMC,195714,A,3946.9564,N,08404.9822,W,0.0000,0.000,291217,,*31
2017-12-29 14:57:13 1514577433.401601: $GPGSA,A,3,1,3,10,26,12,14,18,22,25,31,32,138,1.7,0.8,1.3*08
2017-12-29 14:57:14 1514577434.400874: $GPZDA,195715.00,29,12,2017,00,00*64
2017-12-29 14:57:14 1514577434.401139: $GPGGA,195715,3946.9564,N,08404.9822,W,2,12,0.80,304.38,M,-33.324,M,,*7D
2017-12-29 14:57:14 1514577434.401216: $GPRMC,195715,A,3946.9564,N,08404.9822,W,0.0000,0.000,291217,,*30
2017-12-29 14:57:14 1514577434.401278: $GPGSA,A,3,1,3,10,26,12,14,18,22,25,31,32,138,1.7,0.8,1.3*08
