2017-12-01 16:56:05 1512165365.047518: {"class":"VERSION","release":"3.16","rev":"3.16-4","proto_major":3,"proto_minor":11}
2017-12-01 16:56:05 1512165365.047948: {"class":"DEVICES","devices":[{"class":"DEVICE","path":"/dev/ttyUSB0","driver":"SiRF","subtype":"9\u0006GSD4e_4.1.2-P1_RPATCH.05-F-GPS-4R-1510281 11/03/2015 307","activated":"2017-12-01T21:56:05.029Z","flags":1,"native":1,"bps":4800,"parity":"N","stopbits":1,"cycle":1.00}]}
2017-12-01 16:56:05 1512165365.048138: {"class":"WATCH","enable":true,"json":false,"nmea":true,"raw":0,"scaled":false,"timing":false,"split24":false,"pps":false}
2017-12-01 16:56:06 1512165366.096568: $GPZDA,215606.34,01,12,2017,00,00*61
2017-12-01 16:56:06 1512165366.096730: $GPGGA,215606,3946.9623,N,08404.9751,W,1,12,1.40,300.53,M,-33.324,M,,*79
2017-12-01 16:56:06 1512165366.096797: $GPRMC,215606,A,3946.9623,N,08404.9751,W,0.3006,242.539,011217,,*37
2017-12-01 16:56:06 1512165366.096860: $GPGSA,A,3,1,3,10,12,14,22,26,31,32,18,25,138,2.0,1.4,1.5*07
2017-12-01 16:56:06 1512165366.096919: $GPGBS,215606,10.70,M,15.43,M,35.28,M*01
2017-12-01 16:56:07 1512165367.261737: $GPGSV,3,1,12,01,22,288,44,03,09,316,41,10,35,153,39,12,16,040,02*78
2017-12-01 16:56:07 1512165367.261925: $GPGSV,3,2,12,14,70,358,46,22,29,310,42,26,13,180,35,31,68,240,48*75
2017-12-01 16:56:07 1512165367.261993: $GPGSV,3,3,12,32,63,057,48,18,07,147,02,25,40,073,12,138,38,213,00*4B
2017-12-01 16:56:07 1512165367.375225: $GPZDA,215607.00,01,12,2017,00,00*67
2017-12-01 16:56:07 1512165367.375418: $GPGGA,215607,3946.9623,N,08404.9751,W,1,08,1.40,300.53,M,-33.324,M,,*73
2017-12-01 16:56:07 1512165367.375492: $GPRMC,215607,A,3946.9623,N,08404.9751,W,0.1567,189.200,011217,,*3F
2017-12-01 16:56:07 1512165367.375556: $GPGSA,A,3,1,3,10,14,22,26,31,32,,,,,2.0,1.4,1.5*30
2017-12-01 16:56:07 1512165367.827407: $GPZDA,215608.00,01,12,2017,00,00*68
2017-12-01 16:56:07 1512165367.827580: $GPGGA,215608,3946.9624,N,08404.9752,W,1,08,0.80,301.93,M,-33.324,M,,*78
2017-12-01 16:56:07 1512165367.827652: $GPRMC,215608,A,3946.9624,N,08404.9752,W,0.2758,128.233,011217,,*32
2017-12-01 16:56:07 1512165367.827736: $GPGSA,A,3,1,3,10,14,22,26,31,32,,,,,2.0,0.8,1.5*3D
2017-12-01 16:56:08 1512165368.386800: $GPZDA,215609.00,01,12,2017,00,00*69
2017-12-01 16:56:08 1512165368.386982: $GPGGA,215609,3946.9628,N,08404.9752,W,1,08,0.80,302.57,M,-33.324,M,,*7E
2017-12-01 16:56:08 1512165368.387051: $GPRMC,215609,A,3946.9628,N,08404.9752,W,0.0000,0.000,011217,,*3E
2017-12-01 16:56:08 1512165368.387116: $GPGSA,A,3,1,3,10,14,22,26,31,32,,,,,2.0,0.8,1.5*3D
2017-12-01 16:56:09 1512165369.724485: $GPGSV,3,1,12,01,22,288,44,03,09,316,41,10,35,153,38,12,16,040,23*7A
2017-12-01 16:56:09 1512165369.724675: $GPGSV,3,2,12,14,70,358,46,22,29,310,41,26,13,180,34,31,68,240,47*78
2017-12-01 16:56:09 1512165369.724746: $GPGSV,3,3,12,32,63,057,48,18,07,147,22,25,40,073,30,138,38,213,34*4E
2017-12-01 16:56:09 1512165369.837810: $GPZDA,215610.00,01,12,2017,00,00*61
2017-12-01 16:56:09 1512165369.837993: $GPGGA,215610,3946.9629,N,08404.9753,W,1,12,0.80,303.98,M,-33.324,M,,*7F
2017-12-01 16:56:09 1512165369.838092: $GPRMC,215610,A,3946.9629,N,08404.9753,W,0.0000,0.000,011217,,*36
2017-12-01 16:56:09 1512165369.838156: $GPGSA,A,3,1,3,10,12,14,22,26,31,32,18,25,138,2.0,0.8,1.5*0A
2017-12-01 16:56:10 1512165370.389010: $GPZDA,215611.00,01,12,2017,00,00*60
2017-12-01 16:56:10 1512165370.389181: $GPGGA,215611,3946.9629,N,08404.9760,W,1,12,0.80,303.90,M,-33.324,M,,*76
2017-12-01 16:56:10 1512165370.389249: $GPRMC,215611,A,3946.9629,N,08404.9760,W,0.0000,0.000,011217,,*37
2017-12-01 16:56:10 1512165370.389310: $GPGSA,A,3,1,3,10,12,14,22,26,31,32,18,25,138,2.0,0.8,1.5*0A
2017-12-01 16:56:11 1512165371.388259: $GPZDA,215612.00,01,12,2017,00,00*63
2017-12-01 16:56:11 1512165371.388443: $GPGGA,215612,3946.9630,N,08404.9760,W,1,12,0.80,305.30,M,-33.324,M,,*71
2017-12-01 16:56:11 1512165371.388511: $GPRMC,215612,A,3946.9630,N,08404.9760,W,0.0000,0.000,011217,,*3C
2017-12-01 16:56:11 1512165371.388594: $GPGSA,A,3,1,3,10,12,14,22,26,31,32,18,25,138,2.0,0.8,1.5*0A
2017-12-01 16:56:11 1512165371.388725: $GPGBS,215612,10.70,M,15.43,M,35.28,M*04
2017-12-01 16:56:12 1512165372.724052: $GPGSV,3,1,12,01,22,288,44,03,09,316,40,10,35,153,38,12,16,040,23*7B
2017-12-01 16:56:12 1512165372.724232: $GPGSV,3,2,12,14,70,358,46,22,29,310,42,26,13,180,34,31,68,240,47*7B
2017-12-01 16:56:12 1512165372.724299: $GPGSV,3,3,12,32,63,057,48,18,07,147,22,25,40,073,30,138,38,213,40*4D
2017-12-01 16:56:12 1512165372.837761: $GPZDA,215613.00,01,12,2017,00,00*62
2017-12-01 16:56:12 1512165372.837930: $GPGGA,215613,3946.9634,N,08404.9760,W,1,12,0.80,305.94,M,-33.324,M,,*7A
2017-12-01 16:56:12 1512165372.837995: $GPRMC,215613,A,3946.9634,N,08404.9760,W,0.0000,0.000,011217,,*39
2017-12-01 16:56:12 1512165372.838056: $GPGSA,A,3,1,3,10,12,14,22,26,31,32,18,25,138,2.0,0.8,1.5*0A
2017-12-01 16:56:13 1512165373.389885: $GPZDA,215614.00,01,12,2017,00,00*65
2017-12-01 16:56:13 1512165373.390044: $GPGGA,215614,3946.9634,N,08404.9760,W,1,12,0.80,305.94,M,-33.324,M,,*7D
2017-12-01 16:56:13 1512165373.390111: $GPRMC,215614,A,3946.9634,N,08404.9760,W,0.0000,0.000,011217,,*3E
2017-12-01 16:56:13 1512165373.390171: $GPGSA,A,3,1,3,10,12,14,22,26,31,32,18,25,138,2.0,0.8,1.5*0A
2017-12-01 16:56:14 1512165374.388978: $GPZDA,215615.00,01,12,2017,00,00*64
2017-12-01 16:56:14 1512165374.389148: $GPGGA,215615,3946.9634,N,08404.9760,W,1,12,0.80,305.94,M,-33.324,M,,*7C
2017-12-01 16:56:14 1512165374.389216: $GPRMC,215615,A,3946.9634,N,08404.9760,W,0.0000,0.000,011217,,*3F
2017-12-01 16:56:14 1512165374.389277: $GPGSA,A,3,1,3,10,12,14,22,26,31,32,18,25,138,2.0,0.8,1.5*0A
2017-12-01 16:56:15 1512165375.725633: $GPGSV,3,1,12,01,22,288,43,03,09,316,40,10,35,153,38,12,16,040,23*7C
2017-12-01 16:56:15 1512165375.725840: $GPGSV,3,2,12,14,70,358,46,22,29,310,43,26,13,180,34,31,68,240,47*7A
2017-12-01 16:56:15 1512165375.725908: $GPGSV,3,3,12,32,63,057,48,18,07,147,22,25,40,073,30,138,38,213,40*4D
2017-12-01 16:56:15 1512165375.839112: $GPZDA,215616.00,01,12,2017,00,00*67
2017-12-01 16:56:15 1512165375.839397: $GPGGA,215616,3946.9635,N,08404.9761,W,1,12,0.80,307.35,M,-33.324,M,,*76
2017-12-01 16:56:15 1512165375.839526: $GPRMC,215616,A,3946.9635,N,08404.9761,W,0.0000,0.000,011217,,*3C
2017-12-01 16:56:15 1512165375.839658: $GPGSA,A,3,1,3,10,12,14,22,26,31,32,18,25,138,2.0,0.8,1.5*0A
2017-12-01 16:56:16 1512165376.390009: $GPZDA,215617.00,01,12,2017,00,00*66
2017-12-01 16:56:16 1512165376.390195: $GPGGA,215617,3946.9649,N,08404.9777,W,2,12,1.20,311.92,M,-33.324,M,,*79
2017-12-01 16:56:16 1512165376.390288: $GPRMC,215617,A,3946.9649,N,08404.9777,W,0.0000,0.000,011217,,*31
2017-12-01 16:56:16 1512165376.390352: $GPGSA,A,3,1,3,10,12,14,22,26,31,32,18,25,138,2.0,1.2,1.5*01
2017-12-01 16:56:17 1512165377.392147: $GPZDA,215618.00,01,12,2017,00,00*69
2017-12-01 16:56:17 1512165377.392318: $GPGGA,215618,3946.9649,N,08404.9777,W,2,12,0.80,311.92,M,-33.324,M,,*7D
2017-12-01 16:56:17 1512165377.392385: $GPRMC,215618,A,3946.9649,N,08404.9777,W,0.0000,0.000,011217,,*3E
2017-12-01 16:56:17 1512165377.392446: $GPGSA,A,3,1,3,10,12,14,22,26,31,32,18,25,138,2.0,0.8,1.5*0A
2017-12-01 16:56:18 1512165378.726622: $GPGSV,3,1,12,01,22,288,43,03,09,316,41,10,35,153,38,12,16,040,23*7D
2017-12-01 16:56:18 1512165378.726975: $GPGSV,3,2,12,14,70,358,45,22,29,310,42,26,13,180,34,31,68,240,47*78
2017-12-01 16:56:18 1512165378.727100: $GPGSV,3,3,12,32,63,057,47,18,07,147,22,25,40,073,30,138,38,213,38*4D
2017-12-01 16:56:18 1512165378.839911: $GPZDA,215619.00,01,12,2017,00,00*68
2017-12-01 16:56:18 1512165378.840078: $GPGGA,215619,3946.9649,N,08404.9777,W,2,12,0.80,311.92,M,-33.324,M,,*7C
2017-12-01 16:56:18 1512165378.840145: $GPRMC,215619,A,3946.9649,N,08404.9777,W,0.0000,0.000,011217,,*3F
2017-12-01 16:56:18 1512165378.840206: $GPGSA,A,3,1,3,10,12,14,22,26,31,32,18,25,138,2.0,0.8,1.5*0A
2017-12-01 16:56:19 1512165379.465289: $GPZDA,215620.00,01,12,2017,00,00*62
2017-12-01 16:56:19 1512165379.465453: $GPGGA,215620,3946.9653,N,08404.9752,W,2,12,0.80,306.41,M,-33.324,M,,*72
2017-12-01 16:56:19 1512165379.465541: $GPRMC,215620,A,3946.9653,N,08404.9752,W,0.0000,0.000,011217,,*39
2017-12-01 16:56:19 1512165379.465649: $GPGSA,A,3,1,3,10,12,14,22,26,31,32,18,25,138,2.0,0.8,1.5*0A
2017-12-01 16:56:20 1512165380.388775: $GPZDA,215621.00,01,12,2017,00,00*63
2017-12-01 16:56:20 1512165380.388948: $GPGGA,215621,3946.9653,N,08404.9752,W,2,12,0.80,306.41,M,-33.324,M,,*73
2017-12-01 16:56:20 1512165380.389016: $GPRMC,215621,A,3946.9653,N,08404.9752,W,0.0000,0.000,011217,,*38
2017-12-01 16:56:20 1512165380.389077: $GPGSA,A,3,1,3,10,12,14,22,26,31,32,18,25,138,2.0,0.8,1.5*0A
2017-12-01 16:56:21 1512165381.726875: $GPGSV,3,1,12,01,22,288,43,03,09,316,41,10,35,153,38,12,16,040,23*7D
2017-12-01 16:56:21 1512165381.727044: $GPGSV,3,2,12,14,70,358,45,22,29,310,42,26,13,180,34,31,68,240,47*78
2017-12-01 16:56:21 1512165381.727111: $GPGSV,3,3,12,32,63,057,48,18,07,147,22,25,40,073,30,138,38,213,40*4D
2017-12-01 16:56:21 1512165381.840261: $GPZDA,215622.00,01,12,2017,00,00*60
2017-12-01 16:56:21 1512165381.840413: $GPGGA,215622,3946.9653,N,08404.9752,W,2,12,0.80,306.41,M,-33.324,M,,*70
2017-12-01 16:56:21 1512165381.840480: $GPRMC,215622,A,3946.9653,N,08404.9752,W,0.0000,0.000,011217,,*3B
2017-12-01 16:56:21 1512165381.840563: $GPGSA,A,3,1,3,10,12,14,22,26,31,32,18,25,138,2.0,0.8,1.5*0A
2017-12-01 16:56:22 1512165382.391141: $GPZDA,215623.00,01,12,2017,00,00*61
2017-12-01 16:56:22 1512165382.391303: $GPGGA,215623,3946.9653,N,08404.9752,W,2,12,0.80,306.41,M,-33.324,M,,*71
2017-12-01 16:56:22 1512165382.391428: $GPRMC,215623,A,3946.9653,N,08404.9752,W,0.0000,0.000,011217,,*3A
2017-12-01 16:56:22 1512165382.391493: $GPGSA,A,3,1,3,10,12,14,22,26,31,32,18,25,138,2.0,0.8,1.5*0A
2017-12-01 16:56:23 1512165383.390676: $GPZDA,215624.00,01,12,2017,00,00*66
2017-12-01 16:56:23 1512165383.390853: $GPGGA,215624,3946.9653,N,08404.9752,W,2,12,0.80,306.41,M,-33.324,M,,*76
2017-12-01 16:56:23 1512165383.390920: $GPRMC,215624,A,3946.9653,N,08404.9752,W,0.0000,0.000,011217,,*3D
2017-12-01 16:56:23 1512165383.390981: $GPGSA,A,3,1,3,10,12,14,22,26,31,32,18,25,138,2.0,0.8,1.5*0A
2017-12-01 16:56:23 1512165383.391040: $GPGBS,215624,2.67,M,3.86,M,8.82,M*34
2017-12-01 16:56:24 1512165384.725849: $GPGSV,3,1,12,01,22,288,42,03,09,316,41,10,35,153,37,12,16,040,22*72
2017-12-01 16:56:24 1512165384.726035: $GPGSV,3,2,12,14,70,358,46,22,29,310,42,26,13,180,35,31,68,240,47*7A
2017-12-01 16:56:24 1512165384.726103: $GPGSV,3,3,12,32,63,057,48,18,07,147,21,25,40,073,24,138,38,213,41*4A
2017-12-01 16:56:24 1512165384.839281: $GPZDA,215625.00,01,12,2017,00,00*67
2017-12-01 16:56:24 1512165384.839450: $GPGGA,215625,3946.9653,N,08404.9752,W,2,12,0.80,306.41,M,-33.324,M,,*77
2017-12-01 16:56:24 1512165384.839543: $GPRMC,215625,A,3946.9653,N,08404.9752,W,0.0000,0.000,011217,,*3C
2017-12-01 16:56:24 1512165384.839605: $GPGSA,A,3,1,3,10,12,14,22,26,31,32,18,25,138,2.0,0.8,1.5*0A
