2017-12-29 11:05:36 1514563536.606961: {"class":"VERSION","release":"3.16","rev":"3.16-4","proto_major":3,"proto_minor":11}
2017-12-29 11:05:36 1514563536.607353: {"class":"DEVICES","devices":[{"class":"DEVICE","path":"/dev/ttyUSB0","driver":"SiRF","subtype":"9\u0006GSD4e_4.1.2-P1_RPATCH.05-F-GPS-4R-1510281 11/03/2015 307","activated":"2017-12-29T16:05:36.420Z","flags":1,"native":1,"bps":4800,"parity":"N","stopbits":1,"cycle":1.00}]}
2017-12-29 11:05:36 1514563536.607471: {"class":"WATCH","enable":true,"json":false,"nmea":true,"raw":0,"scaled":false,"timing":false,"split24":false,"pps":false}
2017-12-29 11:05:37 1514563537.211850: $GPZDA,160537.88,29,12,2017,00,00*6C
2017-12-29 11:05:37 1514563537.212017: $GPGGA,160537,3946.9602,N,08404.9821,W,1,11,1.00,320.82,M,-33.324,M,,*7B
2017-12-29 11:05:37 1514563537.212083: $GPRMC,160537,A,3946.9602,N,08404.9821,W,0.2967,226.893,291217,,*36
2017-12-29 11:05:37 1514563537.212144: $GPGSA,A,3,10,15,18,20,21,24,27,32,8,13,138,,1.7,1.0,1.3*38
2017-12-29 11:05:38 1514563538.133284: $GPZDA,160538.38,29,12,2017,00,00*68
2017-12-29 11:05:38 1514563538.133457: $GPGGA,160538,3946.9606,N,08404.9831,W,1,11,1.00,327.76,M,-33.324,M,,*7D
2017-12-29 11:05:38 1514563538.133525: $GPRMC,160538,A,3946.9606,N,08404.9831,W,0.2710,100.223,291217,,*34
2017-12-29 11:05:38 1514563538.133608: $GPGSA,A,3,10,15,18,20,21,24,27,32,8,13,138,,1.7,1.0,1.3*38
2017-12-29 11:05:39 1514563539.252094: $GPGSV,3,1,11,10,38,297,41,15,42,051,50,18,68,328,44,20,38,091,49*79
2017-12-29 11:05:39 1514563539.252261: $GPGSV,3,2,11,21,68,195,47,24,48,118,48,27,19,294,40,32,17,235,38*7B
2017-12-29 11:05:39 1514563539.252328: $GPGSV,3,3,11,13,12,048,08,08,04,327,00,138,38,213,20*75
2017-12-29 11:05:39 1514563539.365476: $GPZDA,160539.00,29,12,2017,00,00*62
2017-12-29 11:05:39 1514563539.365625: $GPGGA,160539,3946.9603,N,08404.9832,W,1,09,1.00,328.52,M,-33.324,M,,*7A
2017-12-29 11:05:39 1514563539.365707: $GPRMC,160539,A,3946.9603,N,08404.9832,W,0.3133,9.200,291217,,*3C
2017-12-29 11:05:39 1514563539.365769: $GPGSA,A,3,10,15,18,20,21,24,27,32,138,,,,1.7,1.0,1.3*02
2017-12-29 11:05:39 1514563539.817644: $GPZDA,160540.00,29,12,2017,00,00*6C
2017-12-29 11:05:39 1514563539.817819: $GPGGA,160540,3946.9611,N,08404.9832,W,1,09,1.00,329.80,M,-33.324,M,,*79
2017-12-29 11:05:39 1514563539.817885: $GPRMC,160540,A,3946.9611,N,08404.9832,W,0.0000,0.000,291217,,*38
2017-12-29 11:05:39 1514563539.817947: $GPGSA,A,3,10,15,18,20,21,24,27,32,138,,,,1.7,1.0,1.3*02
2017-12-29 11:05:40 1514563540.414751: $GPZDA,160541.00,29,12,2017,00,00*6D
2017-12-29 11:05:40 1514563540.414905: $GPGGA,160541,3946.9612,N,08404.9833,W,1,09,1.00,331.21,M,-33.324,M,,*78
2017-12-29 11:05:40 1514563540.414970: $GPRMC,160541,A,3946.9612,N,08404.9833,W,0.0000,0.000,291217,,*3B
2017-12-29 11:05:40 1514563540.415030: $GPGSA,A,3,10,15,18,20,21,24,27,32,138,,,,1.7,1.0,1.3*02
2017-12-29 11:05:41 1514563541.751267: $GPGSV,3,1,11,10,38,297,40,15,42,051,50,18,68,328,43,20,38,091,48*7E
2017-12-29 11:05:41 1514563541.751448: $GPGSV,3,2,11,21,68,195,46,24,48,118,47,27,19,294,40,32,17,235,38*75
2017-12-29 11:05:41 1514563541.751535: $GPGSV,3,3,11,13,12,048,29,08,04,327,28,138,38,213,45*7F
2017-12-29 11:05:41 1514563541.863384: $GPZDA,160542.00,29,12,2017,00,00*6E
2017-12-29 11:05:41 1514563541.863537: $GPGGA,160542,3946.9608,N,08404.9833,W,1,11,1.00,330.57,M,-33.324,M,,*79
2017-12-29 11:05:41 1514563541.863605: $GPRMC,160542,A,3946.9608,N,08404.9833,W,0.0000,0.000,291217,,*33
2017-12-29 11:05:41 1514563541.863681: $GPGSA,A,3,10,15,18,20,21,24,27,32,13,8,138,,1.7,1.0,1.3*38
2017-12-29 11:05:42 1514563542.418095: $GPZDA,160543.00,29,12,2017,00,00*6F
2017-12-29 11:05:42 1514563542.418253: $GPGGA,160543,3946.9608,N,08404.9833,W,1,11,1.00,330.57,M,-33.324,M,,*78
2017-12-29 11:05:42 1514563542.418319: $GPRMC,160543,A,3946.9608,N,08404.9833,W,0.0000,0.000,291217,,*32
2017-12-29 11:05:42 1514563542.418379: $GPGSA,A,3,10,15,18,20,21,24,27,32,13,8,138,,1.7,1.0,1.3*38
2017-12-29 11:05:43 1514563543.417486: $GPZDA,160544.00,29,12,2017,00,00*68
2017-12-29 11:05:43 1514563543.417701: $GPGGA,160544,3946.9606,N,08404.9824,W,2,11,1.60,327.84,M,-33.324,M,,*7A
2017-12-29 11:05:43 1514563543.417826: $GPRMC,160544,A,3946.9606,N,08404.9824,W,0.0000,0.000,291217,,*3D
2017-12-29 11:05:43 1514563543.417890: $GPGSA,A,3,10,15,18,20,21,24,27,32,13,8,138,,1.7,1.6,1.3*3E
2017-12-29 11:05:43 1514563543.417948: $GPGBS,160544,2.73,M,2.59,M,7.72,M*36
2017-12-29 11:05:44 1514563544.753218: $GPGSV,3,1,11,10,38,297,40,15,42,051,50,18,68,328,43,20,38,091,48*7E
2017-12-29 11:05:44 1514563544.753393: $GPGSV,3,2,11,21,68,195,46,24,48,118,47,27,19,294,40,32,17,235,38*75
2017-12-29 11:05:44 1514563544.753459: $GPGSV,3,3,11,13,12,048,29,08,04,327,28,138,38,213,46*7C
2017-12-29 11:05:44 1514563544.866813: $GPZDA,160545.00,29,12,2017,00,00*69
2017-12-29 11:05:44 1514563544.866950: $GPGGA,160545,3946.9600,N,08404.9823,W,2,11,1.00,324.39,M,-33.324,M,,*79
2017-12-29 11:05:44 1514563544.867015: $GPRMC,160545,A,3946.9600,N,08404.9823,W,0.0000,0.000,291217,,*3D
2017-12-29 11:05:44 1514563544.867094: $GPGSA,A,3,10,15,18,20,21,24,27,32,13,8,138,,1.7,1.0,1.3*38
2017-12-29 11:05:45 1514563545.417688: $GPZDA,160546.00,29,12,2017,00,00*6A
2017-12-29 11:05:45 1514563545.417851: $GPGGA,160546,3946.9600,N,08404.9823,W,2,11,1.00,324.39,M,-33.324,M,,*7A
2017-12-29 11:05:45 1514563545.417919: $GPRMC,160546,A,3946.9600,N,08404.9823,W,0.0000,0.000,291217,,*3E
2017-12-29 11:05:45 1514563545.417979: $GPGSA,A,3,10,15,18,20,21,24,27,32,13,8,138,,1.7,1.0,1.3*38
2017-12-29 11:05:46 1514563546.418224: $GPZDA,160547.00,29,12,2017,00,00*6B
2017-12-29 11:05:46 1514563546.418383: $GPGGA,160547,3946.9600,N,08404.9823,W,2,11,1.00,324.39,M,-33.324,M,,*7B
2017-12-29 11:05:46 1514563546.418448: $GPRMC,160547,A,3946.9600,N,08404.9823,W,0.0000,0.000,291217,,*3F
2017-12-29 11:05:46 1514563546.418531: $GPGSA,A,3,10,15,18,20,21,24,27,32,13,8,138,,1.7,1.0,1.3*38
2017-12-29 11:05:47 1514563547.753674: $GPGSV,3,1,11,10,38,297,40,15,42,051,49,18,68,328,43,20,38,091,48*76
2017-12-29 11:05:47 1514563547.753842: $GPGSV,3,2,11,21,68,195,46,24,48,118,48,27,19,294,40,32,17,235,37*75
2017-12-29 11:05:47 1514563547.753907: $GPGSV,3,3,11,13,12,048,29,08,04,327,28,138,38,213,45*7F
2017-12-29 11:05:47 1514563547.867302: $GPZDA,160548.00,29,12,2017,00,00*64
2017-12-29 11:05:47 1514563547.867441: $GPGGA,160548,3946.9600,N,08404.9823,W,2,11,1.20,324.39,M,-33.324,M,,*76
2017-12-29 11:05:47 1514563547.867528: $GPRMC,160548,A,3946.9600,N,08404.9823,W,0.0000,0.000,291217,,*30
2017-12-29 11:05:47 1514563547.867590: $GPGSA,A,3,10,15,18,20,21,24,27,32,13,8,138,,1.7,1.2,1.3*3A
2017-12-29 11:05:48 1514563548.418224: $GPZDA,160549.00,29,12,2017,00,00*65
2017-12-29 11:05:48 1514563548.418371: $GPGGA,160549,3946.9600,N,08404.9823,W,2,11,1.20,324.39,M,-33.324,M,,*77
2017-12-29 11:05:48 1514563548.418437: $GPRMC,160549,A,3946.9600,N,08404.9823,W,0.0000,0.000,291217,,*31
2017-12-29 11:05:48 1514563548.418518: $GPGSA,A,3,10,15,18,20,21,24,27,32,13,8,138,,1.7,1.2,1.3*3A
2017-12-29 11:05:49 1514563549.417880: $GPZDA,160550.00,29,12,2017,00,00*6D
2017-12-29 11:05:49 1514563549.418038: $GPGGA,160550,3946.9604,N,08404.9822,W,2,11,1.20,323.63,M,-33.324,M,,*72
2017-12-29 11:05:49 1514563549.418103: $GPRMC,160550,A,3946.9604,N,08404.9822,W,0.0000,0.000,291217,,*3C
2017-12-29 11:05:49 1514563549.418164: $GPGSA,A,3,10,15,18,20,21,24,27,32,13,8,138,,1.7,1.2,1.3*3A
2017-12-29 11:05:50 1514563550.753249: $GPGSV,3,1,11,10,38,297,40,15,42,051,50,18,68,328,43,20,38,091,48*7E
2017-12-29 11:05:50 1514563550.753418: $GPGSV,3,2,11,21,68,195,46,24,48,118,48,27,19,294,40,32,17,235,37*75
2017-12-29 11:05:50 1514563550.753506: $GPGSV,3,3,11,13,12,048,29,08,04,327,28,138,38,213,45*7F
2017-12-29 11:05:50 1514563550.866955: $GPZDA,160551.00,29,12,2017,00,00*6C
2017-12-29 11:05:50 1514563550.867095: $GPGGA,160551,3946.9604,N,08404.9822,W,2,11,1.20,323.63,M,-33.324,M,,*73
2017-12-29 11:05:50 1514563550.867161: $GPRMC,160551,A,3946.9604,N,08404.9822,W,0.0000,0.000,291217,,*3D
2017-12-29 11:05:50 1514563550.867221: $GPGSA,A,3,10,15,18,20,21,24,27,32,13,8,138,,1.7,1.2,1.3*3A
2017-12-29 11:05:51 1514563551.492308: $GPZDA,160552.00,29,12,2017,00,00*6F
2017-12-29 11:05:51 1514563551.492527: $GPGGA,160552,3946.9604,N,08404.9822,W,2,11,1.20,323.63,M,-33.324,M,,*70
2017-12-29 11:05:51 1514563551.492596: $GPRMC,160552,A,3946.9604,N,08404.9822,W,0.0000,0.000,291217,,*3E
2017-12-29 11:05:51 1514563551.492675: $GPGSA,A,3,10,15,18,20,21,24,27,32,13,8,138,,1.7,1.2,1.3*3A
2017-12-29 11:05:52 1514563552.417018: $GPZDA,160553.00,29,12,2017,00,00*6E
2017-12-29 11:05:52 1514563552.417179: $GPGGA,160553,3946.9604,N,08404.9822,W,2,11,1.20,323.63,M,-33.324,M,,*71
2017-12-29 11:05:52 1514563552.417244: $GPRMC,160553,A,3946.9604,N,08404.9822,W,0.0000,0.000,291217,,*3F
2017-12-29 11:05:52 1514563552.417304: $GPGSA,A,3,10,15,18,20,21,24,27,32,13,8,138,,1.7,1.2,1.3*3A
2017-12-29 11:05:53 1514563553.751147: $GPGSV,3,1,11,10,38,297,40,15,42,051,49,18,68,328,43,20,38,091,48*76
2017-12-29 11:05:53 1514563553.751314: $GPGSV,3,2,11,21,68,195,46,24,48,118,48,27,19,294,40,32,17,235,38*7A
2017-12-29 11:05:53 1514563553.751378: $GPGSV,3,3,11,13,12,048,29,08,04,327,28,138,38,213,44*7E
2017-12-29 11:05:53 1514563553.864856: $GPZDA,160554.00,29,12,2017,00,00*69
2017-12-29 11:05:53 1514563553.864993: $GPGGA,160554,3946.9604,N,08404.9822,W,2,11,1.20,323.63,M,-33.324,M,,*76
2017-12-29 11:05:53 1514563553.865059: $GPRMC,160554,A,3946.9604,N,08404.9822,W,0.0000,0.000,291217,,*38
2017-12-29 11:05:53 1514563553.865119: $GPGSA,A,3,10,15,18,20,21,24,27,32,13,8,138,,1.7,1.2,1.3*3A
2017-12-29 11:05:54 1514563554.418143: $GPZDA,160555.00,29,12,2017,00,00*68
2017-12-29 11:05:54 1514563554.418281: $GPGGA,160555,3946.9604,N,08404.9822,W,2,11,1.20,323.63,M,-33.324,M,,*77
2017-12-29 11:05:54 1514563554.418346: $GPRMC,160555,A,3946.9604,N,08404.9822,W,0.0000,0.000,291217,,*39
2017-12-29 11:05:54 1514563554.418406: $GPGSA,A,3,10,15,18,20,21,24,27,32,13,8,138,,1.7,1.2,1.3*3A
2017-12-29 11:05:55 1514563555.419026: $GPZDA,160556.00,29,12,2017,00,00*6B
2017-12-29 11:05:55 1514563555.419180: $GPGGA,160556,3946.9604,N,08404.9822,W,2,11,1.20,323.63,M,-33.324,M,,*74
2017-12-29 11:05:55 1514563555.419245: $GPRMC,160556,A,3946.9604,N,08404.9822,W,0.4207,39.346,291217,,*00
2017-12-29 11:05:55 1514563555.419305: $GPGSA,A,3,10,15,18,20,21,24,27,32,13,8,138,,1.7,1.2,1.3*3A
2017-12-29 11:05:55 1514563555.419363: $GPGBS,160556,2.73,M,2.59,M,7.72,M*35
