2017-12-31 18:58:44 1514764724.112394: {"class":"VERSION","release":"3.16","rev":"3.16-4","proto_major":3,"proto_minor":11}
2017-12-31 18:58:44 1514764724.112790: {"class":"DEVICES","devices":[{"class":"DEVICE","path":"/dev/ttyUSB0","driver":"SiRF","activated":"2017-12-31T23:58:43.495Z","flags":1,"native":1,"bps":4800,"parity":"N","stopbits":1,"cycle":1.00}]}
2017-12-31 18:58:44 1514764724.112888: {"class":"WATCH","enable":true,"json":false,"nmea":true,"raw":0,"scaled":false,"timing":false,"split24":false,"pps":false}
2017-12-31 18:58:44 1514764724.346521: $GPZDA,235845.00,31,12,2017,00,00*6E
2017-12-31 18:58:44 1514764724.346707: $GPGGA,235845,3946.9575,N,08404.9825,W,2,11,0.80,311.28,M,-33.324,M,,*7F
2017-12-31 18:58:44 1514764724.346775: $GPRMC,235845,A,3946.9575,N,08404.9825,W,0.0000,0.000,311217,,*3D
2017-12-31 18:58:44 1514764724.346835: $GPGSA,A,3,22,23,9,3,16,8,31,27,7,26,135,,1.7,0.8,1.3*09
2017-12-31 18:58:45 1514764725.688044: $GPGSV,3,1,11,22,05,201,27,23,70,270,38,09,40,307,31,03,14,217,33*79
2017-12-31 18:58:45 1514764725.688191: $GPGSV,3,2,11,16,72,036,46,08,20,175,44,31,13,091,34,27,43,139,40*76
2017-12-31 18:58:45 1514764725.688256: $GPGSV,3,3,11,07,13,288,46,26,40,048,45,135,22,240,43*77
2017-12-31 18:58:45 1514764725.801632: $GPZDA,235846.00,31,12,2017,00,00*6D
2017-12-31 18:58:45 1514764725.801764: $GPGGA,235846,3946.9575,N,08404.9825,W,2,11,0.80,311.28,M,-33.324,M,,*7C
2017-12-31 18:58:45 1514764725.801828: $GPRMC,235846,A,3946.9575,N,08404.9825,W,0.0000,0.000,311217,,*3E
2017-12-31 18:58:45 1514764725.801888: $GPGSA,A,3,22,23,9,3,16,8,31,27,7,26,135,,1.7,0.8,1.3*09
2017-12-31 18:58:46 1514764726.353763: $GPZDA,235847.00,31,12,2017,00,00*6C
2017-12-31 18:58:46 1514764726.353926: $GPGGA,235847,3946.9575,N,08404.9825,W,2,11,0.80,311.28,M,-33.324,M,,*7D
2017-12-31 18:58:46 1514764726.353992: $GPRMC,235847,A,3946.9575,N,08404.9825,W,0.0000,0.000,311217,,*3F
2017-12-31 18:58:46 1514764726.354053: $GPGSA,A,3,22,23,9,3,16,8,31,27,7,26,135,,1.7,0.8,1.3*09
2017-12-31 18:58:47 1514764727.353145: $GPZDA,235848.00,31,12,2017,00,00*63
2017-12-31 18:58:47 1514764727.353337: $GPGGA,235848,3946.9575,N,08404.9825,W,2,11,0.80,311.28,M,-33.324,M,,*72
2017-12-31 18:58:47 1514764727.353404: $GPRMC,235848,A,3946.9575,N,08404.9825,W,0.0000,0.000,311217,,*30
2017-12-31 18:58:47 1514764727.353487: $GPGSA,A,3,22,23,9,3,16,8,31,27,7,26,135,,1.7,0.8,1.3*09
2017-12-31 18:58:48 1514764728.688893: $GPGSV,3,1,11,22,05,201,27,23,70,270,38,09,40,307,28,03,14,217,33*71
2017-12-31 18:58:48 1514764728.689074: $GPGSV,3,2,11,16,72,036,46,08,20,175,44,31,13,091,34,27,43,139,39*78
2017-12-31 18:58:48 1514764728.689140: $GPGSV,3,3,11,07,13,288,46,26,40,048,45,135,22,240,44*70
2017-12-31 18:58:48 1514764728.802518: $GPZDA,235849.00,31,12,2017,00,00*62
2017-12-31 18:58:48 1514764728.802674: $GPGGA,235849,3946.9575,N,08404.9825,W,2,11,0.80,311.28,M,-33.324,M,,*73
2017-12-31 18:58:48 1514764728.802740: $GPRMC,235849,A,3946.9575,N,08404.9825,W,0.0000,0.000,311217,,*31
2017-12-31 18:58:48 1514764728.802800: $GPGSA,A,3,22,23,9,3,16,8,31,27,7,26,135,,1.7,0.8,1.3*09
2017-12-31 18:58:49 1514764729.354386: $GPZDA,235850.00,31,12,2017,00,00*6A
2017-12-31 18:58:49 1514764729.354607: $GPGGA,235850,3946.9575,N,08404.9825,W,2,11,0.80,311.28,M,-33.324,M,,*7B
2017-12-31 18:58:49 1514764729.354675: $GPRMC,235850,A,3946.9575,N,08404.9825,W,0.0000,0.000,311217,,*39
2017-12-31 18:58:49 1514764729.354736: $GPGSA,A,3,22,23,9,3,16,8,31,27,7,26,135,,1.7,0.8,1.3*09
2017-12-31 18:58:50 1514764730.353759: $GPZDA,235851.00,31,12,2017,00,00*6B
2017-12-31 18:58:50 1514764730.353918: $GPGGA,235851,3946.9575,N,08404.9825,W,2,11,0.80,311.28,M,-33.324,M,,*7A
2017-12-31 18:58:50 1514764730.353984: $GPRMC,235851,A,3946.9575,N,08404.9825,W,0.0000,0.000,311217,,*38
2017-12-31 18:58:50 1514764730.354045: $GPGSA,A,3,22,23,9,3,16,8,31,27,7,26,135,,1.7,0.8,1.3*09
2017-12-31 18:58:51 1514764731.689288: $GPGSV,3,1,11,22,05,201,13,23,70,270,37,09,40,307,29,03,14,217,33*78
2017-12-31 18:58:51 1514764731.689472: $GPGSV,3,2,11,16,72,036,46,08,20,175,44,31,13,091,34,27,43,139,39*78
2017-12-31 18:58:51 1514764731.689590: $GPGSV,3,3,11,07,13,288,46,26,40,048,45,135,22,240,44*70
2017-12-31 18:58:51 1514764731.802986: $GPZDA,235852.00,31,12,2017,00,00*68
2017-12-31 18:58:51 1514764731.803127: $GPGGA,235852,3946.9575,N,08404.9825,W,2,10,0.80,311.28,M,-33.324,M,,*78
2017-12-31 18:58:51 1514764731.803192: $GPRMC,235852,A,3946.9575,N,08404.9825,W,0.0000,0.000,311217,,*3B
2017-12-31 18:58:51 1514764731.803267: $GPGSA,A,3,23,9,3,16,8,31,27,7,26,135,,,1.7,0.8,1.3*09
2017-12-31 18:58:52 1514764732.352613: $GPZDA,235853.00,31,12,2017,00,00*69
2017-12-31 18:58:52 1514764732.352782: $GPGGA,235853,3946.9575,N,08404.9825,W,2,10,0.80,311.28,M,-33.324,M,,*79
2017-12-31 18:58:52 1514764732.352847: $GPRMC,235853,A,3946.9575,N,08404.9825,W,0.0000,0.000,311217,,*3A
2017-12-31 18:58:52 1514764732.352907: $GPGSA,A,3,23,9,3,16,8,31,27,7,26,135,,,1.7,0.8,1.3*09
2017-12-31 18:58:53 1514764733.353094: $GPZDA,235854.00,31,12,2017,00,00*6E
2017-12-31 18:58:53 1514764733.353266: $GPGGA,235854,3946.9575,N,08404.9825,W,2,10,0.80,311.28,M,-33.324,M,,*7E
2017-12-31 18:58:53 1514764733.353332: $GPRMC,235854,A,3946.9575,N,08404.9825,W,0.0000,0.000,311217,,*3D
2017-12-31 18:58:53 1514764733.353392: $GPGSA,A,3,23,9,3,16,8,31,27,7,26,135,,,1.7,0.8,1.3*09
