2017-11-16 15:51:08 1510865468.337541: {"class":"VERSION","release":"3.17","rev":"3.17","proto_major":3,"proto_minor":12}
2017-11-16 15:51:08 1510865468.338007: {"class":"DEVICES","devices":[{"class":"DEVICE","path":"/dev/ttyUSB0","driver":"SiRF","subtype":"9\u0006GSD4e_4.1.2-P1_RPATCH.05-F-GPS-4R-1510281 11/03/2015 307","activated":"2017-11-16T20:51:08.271Z","flags":1,"native":1,"bps":4800,"parity":"N","stopbits":1,"cycle":1.00}]}
2017-11-16 15:51:08 1510865468.338134: {"class":"WATCH","enable":true,"json":false,"nmea":true,"raw":0,"scaled":false,"timing":false,"split24":false,"pps":false}
2017-11-16 15:51:08 1510865468.385076: $GPZDA,205107.00,16,11,2017,00,00*64
2017-11-16 15:51:08 1510865468.385258: $GPGGA,205107,3946.9575,N,08404.9851,W,2,12,1.20,308.16,M,-33.324,M,,*7D
2017-11-16 15:51:08 1510865468.385321: $GPRMC,205107,A,3946.9575,N,08404.9851,W,0.0000,0.000,161117,,*34
2017-11-16 15:51:08 1510865468.385379: $GPGSA,A,3,11,10,14,8,18,25,21,24,31,32,12,138,1.6,1.2,1.3*39
2017-11-16 15:51:09 1510865469.376004: $GPZDA,205108.00,16,11,2017,00,00*6B
2017-11-16 15:51:09 1510865469.376174: $GPGGA,205108,3946.9575,N,08404.9851,W,2,12,1.20,308.16,M,-33.324,M,,*72
2017-11-16 15:51:09 1510865469.376235: $GPRMC,205108,A,3946.9575,N,08404.9851,W,0.0000,0.000,161117,,*3B
2017-11-16 15:51:09 1510865469.376295: $GPGSA,A,3,11,10,14,8,18,25,21,24,31,32,12,138,1.6,1.2,1.3*39
2017-11-16 15:51:10 1510865470.707750: $GPGSV,3,1,12,11,03,322,32,10,79,355,50,14,37,264,45,15,03,072,11*72
2017-11-16 15:51:10 1510865470.707917: $GPGSV,3,2,12,18,62,112,48,25,11,135,17,21,18,177,40,24,36,051,50*73
2017-11-16 15:51:10 1510865470.707977: $GPGSV,3,3,12,31,09,204,32,32,54,279,46,12,16,097,43,138,38,213,45*45
2017-11-16 15:51:10 1510865470.821205: $GPZDA,205109.00,16,11,2017,00,00*6A
2017-11-16 15:51:10 1510865470.821367: $GPGGA,205109,3946.9575,N,08404.9851,W,2,11,1.20,308.16,M,-33.324,M,,*70
2017-11-16 15:51:10 1510865470.821428: $GPRMC,205109,A,3946.9575,N,08404.9851,W,0.0000,0.000,161117,,*3A
2017-11-16 15:51:10 1510865470.821486: $GPGSA,A,3,11,10,14,18,25,21,24,31,32,12,138,,1.6,1.2,1.3*01
2017-11-16 15:51:11 1510865471.446647: $GPZDA,205110.00,16,11,2017,00,00*62
2017-11-16 15:51:11 1510865471.446809: $GPGGA,205110,3946.9579,N,08404.9851,W,2,11,1.20,308.80,M,-33.324,M,,*7B
2017-11-16 15:51:11 1510865471.446871: $GPRMC,205110,A,3946.9579,N,08404.9851,W,0.0000,0.000,161117,,*3E
2017-11-16 15:51:11 1510865471.446927: $GPGSA,A,3,11,10,14,18,25,21,24,31,32,12,138,,1.6,1.2,1.3*01
2017-11-16 15:51:12 1510865472.368947: $GPZDA,205111.00,16,11,2017,00,00*63
2017-11-16 15:51:12 1510865472.369131: $GPGGA,205111,3946.9579,N,08404.9851,W,2,11,1.20,308.80,M,-33.324,M,,*7A
2017-11-16 15:51:12 1510865472.369197: $GPRMC,205111,A,3946.9579,N,08404.9851,W,0.0000,0.000,161117,,*3F
2017-11-16 15:51:12 1510865472.369258: $GPGSA,A,3,11,10,14,18,25,21,24,31,32,12,138,,1.6,1.2,1.3*01
2017-11-16 15:51:13 1510865473.706853: $GPGSV,3,1,12,11,03,322,31,10,79,355,50,14,37,264,45,08,02,283,31*72
2017-11-16 15:51:13 1510865473.707022: $GPGSV,3,2,12,18,62,112,48,25,11,135,24,21,18,177,40,24,36,051,50*73
2017-11-16 15:51:13 1510865473.707081: $GPGSV,3,3,12,31,09,204,31,32,54,279,46,12,16,097,43,138,38,213,44*47
2017-11-16 15:51:13 1510865473.818888: $GPZDA,205112.00,16,11,2017,00,00*60
2017-11-16 15:51:13 1510865473.819037: $GPGGA,205112,3946.9579,N,08404.9851,W,2,12,1.20,308.80,M,-33.324,M,,*7A
2017-11-16 15:51:13 1510865473.819096: $GPRMC,205112,A,3946.9579,N,08404.9851,W,0.0000,0.000,161117,,*3C
2017-11-16 15:51:13 1510865473.819154: $GPGSA,A,3,11,10,14,8,18,25,21,24,31,32,12,138,1.6,1.2,1.3*39
2017-11-16 15:51:14 1510865474.377249: $GPZDA,205113.00,16,11,2017,00,00*61
2017-11-16 15:51:14 1510865474.377414: $GPGGA,205113,3946.9579,N,08404.9851,W,2,12,1.20,308.80,M,-33.324,M,,*7B
2017-11-16 15:51:14 1510865474.377477: $GPRMC,205113,A,3946.9579,N,08404.9851,W,0.0000,0.000,161117,,*3D
2017-11-16 15:51:14 1510865474.377532: $GPGSA,A,3,11,10,14,8,18,25,21,24,31,32,12,138,1.6,1.2,1.3*39
2017-11-16 15:51:15 1510865475.366862: $GPZDA,205114.00,16,11,2017,00,00*66
2017-11-16 15:51:15 1510865475.367077: $GPGGA,205114,3946.9579,N,08404.9851,W,2,12,1.20,308.80,M,-33.324,M,,*7C
2017-11-16 15:51:15 1510865475.367143: $GPRMC,205114,A,3946.9579,N,08404.9851,W,0.0000,0.000,161117,,*3A
2017-11-16 15:51:15 1510865475.367200: $GPGSA,A,3,11,10,14,8,18,25,21,24,31,32,12,138,1.6,1.2,1.3*39
2017-11-16 15:51:16 1510865476.720948: $GPGSV,3,1,12,11,03,322,25,10,79,355,50,14,37,264,44,08,02,283,31*76
2017-11-16 15:51:16 1510865476.721090: $GPGSV,3,2,12,18,62,112,48,25,11,135,23,21,18,177,40,24,36,051,50*74
2017-11-16 15:51:16 1510865476.721153: $GPGSV,3,3,12,31,09,204,31,32,54,279,46,12,16,097,43,138,38,213,44*47
2017-11-16 15:51:16 1510865476.834252: $GPZDA,205115.00,16,11,2017,00,00*67
2017-11-16 15:51:16 1510865476.834408: $GPGGA,205115,3946.9579,N,08404.9851,W,2,12,1.20,308.80,M,-33.324,M,,*7D
2017-11-16 15:51:16 1510865476.834470: $GPRMC,205115,A,3946.9579,N,08404.9851,W,0.0000,0.000,161117,,*3B
2017-11-16 15:51:16 1510865476.834526: $GPGSA,A,3,11,10,14,8,18,25,21,24,31,32,12,138,1.6,1.2,1.3*39
2017-11-16 15:51:17 1510865477.370395: $GPZDA,205116.00,16,11,2017,00,00*64
2017-11-16 15:51:17 1510865477.370556: $GPGGA,205116,3946.9579,N,08404.9851,W,2,12,1.20,308.80,M,-33.324,M,,*7E
2017-11-16 15:51:17 1510865477.370617: $GPRMC,205116,A,3946.9579,N,08404.9851,W,0.0000,0.000,161117,,*38
2017-11-16 15:51:17 1510865477.370673: $GPGSA,A,3,11,10,14,8,18,25,21,24,31,32,12,138,1.6,1.2,1.3*39
