2017-11-16 16:46:56 1510868816.553186: {"class":"VERSION","release":"3.17","rev":"3.17","proto_major":3,"proto_minor":12}
2017-11-16 16:46:56 1510868816.553713: {"class":"DEVICES","devices":[{"class":"DEVICE","path":"/dev/ttyUSB0","driver":"SiRF","subtype":"9\u0006GSD4e_4.1.2-P1_RPATCH.05-F-GPS-4R-1510281 11/03/2015 307","activated":"2017-11-16T21:46:56.332Z","flags":1,"native":1,"bps":4800,"parity":"N","stopbits":1,"cycle":1.00}]}
2017-11-16 16:46:56 1510868816.553918: {"class":"WATCH","enable":true,"json":false,"nmea":true,"raw":0,"scaled":false,"timing":false,"split24":false,"pps":false}
2017-11-16 16:46:56 1510868816.781567: $GPGSV,3,1,12,01,14,318,39,10,70,132,48,11,11,301,32,12,25,072,46*76
2017-11-16 16:46:56 1510868816.781721: $GPGSV,3,2,12,14,55,292,44,18,38,135,45,24,14,045,44,25,29,114,42*7F
2017-11-16 16:46:56 1510868816.781781: $GPGSV,3,3,12,31,34,211,46,32,68,328,51,22,02,310,32,138,38,213,45*4C
2017-11-16 16:46:56 1510868816.894911: $GPZDA,214655.00,16,11,2017,00,00*64
2017-11-16 16:46:56 1510868816.895110: $GPGGA,214655,3946.9580,N,08404.9815,W,2,12,0.80,307.02,M,-33.324,M,,*76
2017-11-16 16:46:56 1510868816.895242: $GPRMC,214655,A,3946.9580,N,08404.9815,W,0.0000,0.000,161117,,*3E
2017-11-16 16:46:56 1510868816.895387: $GPGSA,A,3,1,10,11,12,14,18,24,25,31,32,22,138,1.6,0.8,1.3*38
2017-11-16 16:46:57 1510868817.460796: $GPZDA,214656.00,16,11,2017,00,00*67
2017-11-16 16:46:57 1510868817.460956: $GPGGA,214656,3946.9580,N,08404.9815,W,2,12,0.80,307.02,M,-33.324,M,,*75
2017-11-16 16:46:57 1510868817.461017: $GPRMC,214656,A,3946.9580,N,08404.9815,W,0.0000,0.000,161117,,*3D
2017-11-16 16:46:57 1510868817.461073: $GPGSA,A,3,1,10,11,12,14,18,24,25,31,32,22,138,1.6,0.8,1.3*38
2017-11-16 16:46:58 1510868818.461744: $GPZDA,214657.00,16,11,2017,00,00*66
2017-11-16 16:46:58 1510868818.461924: $GPGGA,214657,3946.9580,N,08404.9815,W,2,12,0.80,307.02,M,-33.324,M,,*74
2017-11-16 16:46:58 1510868818.461985: $GPRMC,214657,A,3946.9580,N,08404.9815,W,0.0000,0.000,161117,,*3C
2017-11-16 16:46:58 1510868818.462041: $GPGSA,A,3,1,10,11,12,14,18,24,25,31,32,22,138,1.6,0.8,1.3*38
2017-11-16 16:46:59 1510868819.782488: $GPGSV,3,1,12,01,14,318,39,10,70,132,48,11,11,301,34,12,25,072,46*70
2017-11-16 16:46:59 1510868819.782664: $GPGSV,3,2,12,14,55,292,44,18,38,135,45,24,14,045,44,25,29,114,42*7F
2017-11-16 16:46:59 1510868819.782724: $GPGSV,3,3,12,31,34,211,46,32,68,328,51,22,02,310,32,138,38,213,45*4C
2017-11-16 16:46:59 1510868819.896001: $GPZDA,214658.00,16,11,2017,00,00*69
2017-11-16 16:46:59 1510868819.896165: $GPGGA,214658,3946.9580,N,08404.9815,W,2,12,0.80,307.02,M,-33.324,M,,*7B
2017-11-16 16:46:59 1510868819.896225: $GPRMC,214658,A,3946.9580,N,08404.9815,W,0.0000,0.000,161117,,*33
2017-11-16 16:46:59 1510868819.896281: $GPGSA,A,3,1,10,11,12,14,18,24,25,31,32,22,138,1.6,0.8,1.3*38
2017-11-16 16:47:00 1510868820.464600: $GPZDA,214659.00,16,11,2017,00,00*68
2017-11-16 16:47:00 1510868820.464858: $GPGGA,214659,3946.9580,N,08404.9815,W,2,12,0.80,307.02,M,-33.324,M,,*7A
2017-11-16 16:47:00 1510868820.464930: $GPRMC,214659,A,3946.9580,N,08404.9815,W,0.0000,0.000,161117,,*32
2017-11-16 16:47:00 1510868820.464988: $GPGSA,A,3,1,10,11,12,14,18,24,25,31,32,22,138,1.6,0.8,1.3*38
2017-11-16 16:47:01 1510868821.444573: $GPZDA,214700.00,16,11,2017,00,00*65
2017-11-16 16:47:01 1510868821.444742: $GPGGA,214700,3946.9580,N,08404.9815,W,2,12,0.80,307.02,M,-33.324,M,,*77
2017-11-16 16:47:01 1510868821.444805: $GPRMC,214700,A,3946.9580,N,08404.9815,W,0.0000,0.000,161117,,*3F
2017-11-16 16:47:01 1510868821.444860: $GPGSA,A,3,1,10,11,12,14,18,24,25,31,32,22,138,1.6,0.8,1.3*38
2017-11-16 16:47:02 1510868822.781722: $GPGSV,3,1,12,01,14,318,38,10,70,132,48,11,11,301,33,12,25,072,46*76
2017-11-16 16:47:02 1510868822.781894: $GPGSV,3,2,12,14,55,292,44,18,38,135,45,24,14,045,44,25,29,114,42*7F
2017-11-16 16:47:02 1510868822.781954: $GPGSV,3,3,12,31,34,211,46,32,68,328,51,22,02,310,32,138,38,213,44*4D
2017-11-16 16:47:02 1510868822.895085: $GPZDA,214701.00,16,11,2017,00,00*64
2017-11-16 16:47:02 1510868822.895237: $GPGGA,214701,3946.9580,N,08404.9815,W,2,12,0.80,307.02,M,-33.324,M,,*76
2017-11-16 16:47:02 1510868822.895352: $GPRMC,214701,A,3946.9580,N,08404.9815,W,0.0000,0.000,161117,,*3E
2017-11-16 16:47:02 1510868822.895410: $GPGSA,A,3,1,10,11,12,14,18,24,25,31,32,22,138,1.6,0.8,1.3*38
2017-11-16 16:47:03 1510868823.457206: $GPZDA,214702.00,16,11,2017,00,00*67
2017-11-16 16:47:03 1510868823.457371: $GPGGA,214702,3946.9580,N,08404.9815,W,2,12,0.80,307.02,M,-33.324,M,,*75
2017-11-16 16:47:03 1510868823.457433: $GPRMC,214702,A,3946.9580,N,08404.9815,W,0.0000,0.000,161117,,*3D
2017-11-16 16:47:03 1510868823.457490: $GPGSA,A,3,1,10,11,12,14,18,24,25,31,32,22,138,1.6,0.8,1.3*38
2017-11-16 16:47:04 1510868824.447143: $GPZDA,214703.00,16,11,2017,00,00*66
2017-11-16 16:47:04 1510868824.447304: $GPGGA,214703,3946.9580,N,08404.9815,W,2,12,0.80,307.02,M,-33.324,M,,*74
2017-11-16 16:47:04 1510868824.447364: $GPRMC,214703,A,3946.9580,N,08404.9815,W,0.0000,0.000,161117,,*3C
2017-11-16 16:47:04 1510868824.447421: $GPGSA,A,3,1,10,11,12,14,18,24,25,31,32,22,138,1.6,0.8,1.3*38
2017-11-16 16:47:05 1510868825.797611: $GPGSV,3,1,12,01,14,318,38,10,70,132,49,11,11,301,33,12,25,072,46*77
2017-11-16 16:47:06 1510868826.498709: $GPGSV,3,2,12,14,55,292,44,18,38,135,45,24,14,045,44,25,29,114,43*7E
2017-11-16 16:47:06 1510868826.498875: $GPGSV,3,3,12,31,34,211,46,32,68,328,51,22,02,310,38,138,38,213,44*47
2017-11-16 16:47:06 1510868826.498971: $GPZDA,214704.00,16,11,2017,00,00*61
2017-11-16 16:47:06 1510868826.499024: $GPGGA,214704,3946.9580,N,08404.9815,W,2,12,0.80,307.02,M,-33.324,M,,*73
2017-11-16 16:47:06 1510868826.499081: $GPRMC,214704,A,3946.9580,N,08404.9815,W,0.0000,0.000,161117,,*3B
2017-11-16 16:47:06 1510868826.499136: $GPGSA,A,3,1,10,11,12,14,18,24,25,31,32,22,138,1.6,0.8,1.3*38
2017-11-16 16:47:06 1510868826.536645: $GPZDA,214705.00,16,11,2017,00,00*60
2017-11-16 16:47:06 1510868826.536800: $GPGGA,214705,3946.9580,N,08404.9815,W,2,12,0.80,307.02,M,-33.324,M,,*72
2017-11-16 16:47:06 1510868826.536860: $GPRMC,214705,A,3946.9580,N,08404.9815,W,0.0000,0.000,161117,,*3A
2017-11-16 16:47:06 1510868826.536915: $GPGSA,A,3,1,10,11,12,14,18,24,25,31,32,22,138,1.6,0.8,1.3*38
