2017-11-16 17:35:12 1510871712.960539: {"class":"VERSION","release":"3.17","rev":"3.17","proto_major":3,"proto_minor":12}
2017-11-16 17:35:12 1510871712.961049: {"class":"DEVICES","devices":[{"class":"DEVICE","path":"/dev/ttyUSB0","driver":"SiRF","subtype":"9\u0006GSD4e_4.1.2-P1_RPATCH.05-F-GPS-4R-1510281 11/03/2015 307","activated":"2017-11-16T22:35:12.908Z","flags":1,"native":1,"bps":4800,"parity":"N","stopbits":1,"cycle":1.00}]}
2017-11-16 17:35:12 1510871712.961174: {"class":"WATCH","enable":true,"json":false,"nmea":true,"raw":0,"scaled":false,"timing":false,"split24":false,"pps":false}
2017-11-16 17:35:13 1510871713.428055: $GPZDA,223512.00,16,11,2017,00,00*60
2017-11-16 17:35:13 1510871713.428230: $GPGGA,223512,3946.9575,N,08404.9834,W,2,11,0.80,303.34,M,-33.324,M,,*79
2017-11-16 17:35:13 1510871713.428293: $GPRMC,223512,A,3946.9575,N,08404.9834,W,0.0000,0.000,161117,,*33
2017-11-16 17:35:13 1510871713.428350: $GPGSA,A,3,1,10,22,12,14,18,11,25,31,32,138,,1.6,0.8,1.3*3E
2017-11-16 17:35:14 1510871714.392674: $GPZDA,223513.00,16,11,2017,00,00*61
2017-11-16 17:35:14 1510871714.392862: $GPGGA,223513,3946.9575,N,08404.9834,W,2,11,0.80,303.34,M,-33.324,M,,*78
2017-11-16 17:35:14 1510871714.392926: $GPRMC,223513,A,3946.9575,N,08404.9834,W,0.0000,0.000,161117,,*32
2017-11-16 17:35:14 1510871714.392982: $GPGSA,A,3,1,10,22,12,14,18,11,25,31,32,138,,1.6,0.8,1.3*3E
2017-11-16 17:35:15 1510871715.728481: $GPGSV,3,1,12,01,21,300,33,10,47,148,46,22,19,312,44,12,22,049,50*77
2017-11-16 17:35:15 1510871715.728654: $GPGSV,3,2,12,14,66,330,46,18,17,144,41,26,03,183,15,11,08,280,42*7A
2017-11-16 17:35:15 1510871715.728714: $GPGSV,3,3,12,25,40,088,48,31,56,226,48,32,68,030,49,138,38,213,44*4E
2017-11-16 17:35:15 1510871715.841779: $GPZDA,223514.00,16,11,2017,00,00*66
2017-11-16 17:35:15 1510871715.841957: $GPGGA,223514,3946.9575,N,08404.9834,W,2,12,0.80,303.34,M,-33.324,M,,*7C
2017-11-16 17:35:15 1510871715.842019: $GPRMC,223514,A,3946.9575,N,08404.9834,W,0.0000,0.000,161117,,*35
2017-11-16 17:35:15 1510871715.842074: $GPGSA,A,3,1,10,22,12,14,18,26,11,25,31,32,138,1.6,0.8,1.3*3A
2017-11-16 17:35:16 1510871716.467540: $GPZDA,223515.00,16,11,2017,00,00*67
2017-11-16 17:35:16 1510871716.467705: $GPGGA,223515,3946.9575,N,08404.9834,W,2,12,0.80,303.34,M,-33.324,M,,*7D
2017-11-16 17:35:16 1510871716.467770: $GPRMC,223515,A,3946.9575,N,08404.9834,W,0.0000,0.000,161117,,*34
2017-11-16 17:35:16 1510871716.467826: $GPGSA,A,3,1,10,22,12,14,18,26,11,25,31,32,138,1.6,0.8,1.3*3A
2017-11-16 17:35:17 1510871717.422098: $GPZDA,223516.00,16,11,2017,00,00*64
2017-11-16 17:35:17 1510871717.422256: $GPGGA,223516,3946.9575,N,08404.9834,W,2,12,0.80,303.34,M,-33.324,M,,*7E
2017-11-16 17:35:17 1510871717.422319: $GPRMC,223516,A,3946.9575,N,08404.9834,W,0.0000,0.000,161117,,*37
2017-11-16 17:35:17 1510871717.422376: $GPGSA,A,3,1,10,22,12,14,18,26,11,25,31,32,138,1.6,0.8,1.3*3A
2017-11-16 17:35:18 1510871718.735061: $GPGSV,3,1,11,01,21,300,34,10,47,148,46,22,19,312,44,12,22,049,50*73
2017-11-16 17:35:18 1510871718.735249: $GPGSV,3,2,11,14,66,330,46,18,17,144,41,11,08,280,42,25,40,088,48*7F
2017-11-16 17:35:18 1510871718.735312: $GPGSV,3,3,11,31,56,226,49,32,68,030,49,138,38,213,43*74
2017-11-16 17:35:18 1510871718.848317: $GPZDA,223517.00,16,11,2017,00,00*65
2017-11-16 17:35:18 1510871718.848465: $GPGGA,223517,3946.9575,N,08404.9834,W,2,11,0.80,303.34,M,-33.324,M,,*7C
2017-11-16 17:35:18 1510871718.848525: $GPRMC,223517,A,3946.9575,N,08404.9834,W,0.0000,0.000,161117,,*36
2017-11-16 17:35:18 1510871718.848585: $GPGSA,A,3,1,10,22,12,14,18,11,25,31,32,138,,1.6,0.8,1.3*3E
2017-11-16 17:35:19 1510871719.421685: $GPZDA,223518.00,16,11,2017,00,00*6A
2017-11-16 17:35:19 1510871719.421853: $GPGGA,223518,3946.9575,N,08404.9834,W,2,11,0.80,303.34,M,-33.324,M,,*73
2017-11-16 17:35:19 1510871719.421917: $GPRMC,223518,A,3946.9575,N,08404.9834,W,0.0000,0.000,161117,,*39
2017-11-16 17:35:19 1510871719.421973: $GPGSA,A,3,1,10,22,12,14,18,11,25,31,32,138,,1.6,0.8,1.3*3E
2017-11-16 17:35:20 1510871720.397651: $GPZDA,223519.00,16,11,2017,00,00*6B
2017-11-16 17:35:20 1510871720.397902: $GPGGA,223519,3946.9575,N,08404.9834,W,2,11,0.80,303.34,M,-33.324,M,,*72
2017-11-16 17:35:20 1510871720.397974: $GPRMC,223519,A,3946.9575,N,08404.9834,W,0.0000,0.000,161117,,*38
2017-11-16 17:35:20 1510871720.398034: $GPGSA,A,3,1,10,22,12,14,18,11,25,31,32,138,,1.6,0.8,1.3*3E
2017-11-16 17:35:21 1510871721.734331: $GPGSV,3,1,12,01,21,300,34,10,47,148,46,22,19,312,43,12,22,049,50*77
2017-11-16 17:35:21 1510871721.734513: $GPGSV,3,2,12,14,66,330,46,18,17,144,41,26,03,183,27,11,08,280,42*7B
2017-11-16 17:35:21 1510871721.734583: $GPGSV,3,3,12,25,40,088,47,31,56,226,49,32,68,030,49,138,38,213,43*47
2017-11-16 17:35:21 1510871721.847373: $GPZDA,223520.00,16,11,2017,00,00*61
2017-11-16 17:35:21 1510871721.847553: $GPGGA,223520,3946.9575,N,08404.9834,W,2,12,0.80,303.34,M,-33.324,M,,*7B
2017-11-16 17:35:21 1510871721.847618: $GPRMC,223520,A,3946.9575,N,08404.9834,W,0.0000,0.000,161117,,*32
2017-11-16 17:35:21 1510871721.847674: $GPGSA,A,3,1,10,22,12,14,18,26,11,25,31,32,138,1.6,0.8,1.3*3A
2017-11-16 17:35:22 1510871722.397265: $GPZDA,223521.00,16,11,2017,00,00*60
2017-11-16 17:35:22 1510871722.397442: $GPGGA,223521,3946.9575,N,08404.9834,W,2,12,0.80,303.34,M,-33.324,M,,*7A
2017-11-16 17:35:22 1510871722.397508: $GPRMC,223521,A,3946.9575,N,08404.9834,W,0.0000,0.000,161117,,*33
2017-11-16 17:35:22 1510871722.397565: $GPGSA,A,3,1,10,22,12,14,18,26,11,25,31,32,138,1.6,0.8,1.3*3A
