2017-11-16 13:52:59 1510858379.180806: {"class":"VERSION","release":"3.17","rev":"3.17","proto_major":3,"proto_minor":12}
2017-11-16 13:52:59 1510858379.181265: {"class":"DEVICES","devices":[{"class":"DEVICE","path":"/dev/ttyUSB0","driver":"SiRF","subtype":"9\u0006GSD4e_4.1.2-P1_RPATCH.05-F-GPS-4R-1510281 11/03/2015 307","activated":"2017-11-16T18:52:59.176Z","flags":1,"native":1,"bps":4800,"parity":"N","stopbits":1,"cycle":1.00}]}
2017-11-16 13:52:59 1510858379.181382: {"class":"WATCH","enable":true,"json":false,"nmea":true,"raw":0,"scaled":false,"timing":false,"split24":false,"pps":false}
2017-11-16 13:52:59 1510858379.353527: $GPZDA,185258.00,16,11,2017,00,00*66
2017-11-16 13:52:59 1510858379.353691: $GPGGA,185258,3946.9611,N,08404.9826,W,2,11,0.80,306.37,M,-33.324,M,,*7B
2017-11-16 13:52:59 1510858379.353751: $GPRMC,185258,A,3946.9611,N,08404.9826,W,0.0000,0.000,161117,,*37
2017-11-16 13:52:59 1510858379.353807: $GPGSA,A,3,10,13,15,18,20,21,24,27,32,8,138,,1.6,0.8,1.3*30
2017-11-16 13:53:00 1510858380.348250: $GPZDA,185259.00,16,11,2017,00,00*67
2017-11-16 13:53:00 1510858380.348418: $GPGGA,185259,3946.9611,N,08404.9826,W,2,11,0.80,306.37,M,-33.324,M,,*7A
2017-11-16 13:53:00 1510858380.348480: $GPRMC,185259,A,3946.9611,N,08404.9826,W,0.0000,0.000,161117,,*36
2017-11-16 13:53:00 1510858380.348536: $GPGSA,A,3,10,13,15,18,20,21,24,27,32,8,138,,1.6,0.8,1.3*30
2017-11-16 13:53:01 1510858381.689136: $GPGSV,3,1,11,10,34,294,41,13,16,046,44,15,47,049,51,18,64,318,49*72
2017-11-16 13:53:01 1510858381.689313: $GPGSV,3,2,11,20,40,087,48,21,73,205,47,24,45,124,45,27,19,300,36*74
2017-11-16 13:53:01 1510858381.689374: $GPGSV,3,3,11,32,12,232,33,08,02,328,16,138,38,213,44*7D
2017-11-16 13:53:01 1510858381.802464: $GPZDA,185300.00,16,11,2017,00,00*6A
2017-11-16 13:53:01 1510858381.802628: $GPGGA,185300,3946.9611,N,08404.9826,W,2,11,0.80,306.37,M,-33.324,M,,*77
2017-11-16 13:53:01 1510858381.802691: $GPRMC,185300,A,3946.9611,N,08404.9826,W,0.0000,0.000,161117,,*3B
2017-11-16 13:53:01 1510858381.802748: $GPGSA,A,3,10,13,15,18,20,21,24,27,32,8,138,,1.6,0.8,1.3*30
2017-11-16 13:53:02 1510858382.427850: $GPZDA,185301.00,16,11,2017,00,00*6B
2017-11-16 13:53:02 1510858382.428012: $GPGGA,185301,3946.9611,N,08404.9826,W,2,11,0.80,306.37,M,-33.324,M,,*76
2017-11-16 13:53:02 1510858382.428073: $GPRMC,185301,A,3946.9611,N,08404.9826,W,0.0000,0.000,161117,,*3A
2017-11-16 13:53:02 1510858382.428129: $GPGSA,A,3,10,13,15,18,20,21,24,27,32,8,138,,1.6,0.8,1.3*30
2017-11-16 13:53:03 1510858383.378826: $GPZDA,185302.00,16,11,2017,00,00*68
2017-11-16 13:53:03 1510858383.383276: $GPGGA,185302,3946.9611,N,08404.9826,W,2,11,0.80,306.37,M,-33.324,M,,*75
2017-11-16 13:53:03 1510858383.383378: $GPRMC,185302,A,3946.9611,N,08404.9826,W,0.0000,0.000,161117,,*39
2017-11-16 13:53:03 1510858383.383437: $GPGSA,A,3,10,13,15,18,20,21,24,27,32,8,138,,1.6,0.8,1.3*30
2017-11-16 13:53:04 1510858384.689712: $GPGSV,3,1,11,10,34,294,42,13,16,046,44,15,47,049,51,18,64,318,48*70
2017-11-16 13:53:04 1510858384.689886: $GPGSV,3,2,11,20,40,087,48,21,73,205,47,24,45,124,45,27,19,300,37*75
2017-11-16 13:53:04 1510858384.689946: $GPGSV,3,3,11,32,12,232,33,08,02,328,16,138,38,213,43*7A
2017-11-16 13:53:04 1510858384.803042: $GPZDA,185303.00,16,11,2017,00,00*69
2017-11-16 13:53:04 1510858384.803207: $GPGGA,185303,3946.9611,N,08404.9826,W,2,11,0.80,306.37,M,-33.324,M,,*74
2017-11-16 13:53:04 1510858384.803268: $GPRMC,185303,A,3946.9611,N,08404.9826,W,0.0000,0.000,161117,,*38
2017-11-16 13:53:04 1510858384.803324: $GPGSA,A,3,10,13,15,18,20,21,24,27,32,8,138,,1.6,0.8,1.3*30
2017-11-16 13:53:05 1510858385.377742: $GPZDA,185304.00,16,11,2017,00,00*6E
2017-11-16 13:53:05 1510858385.377908: $GPGGA,185304,3946.9611,N,08404.9826,W,2,11,0.80,306.37,M,-33.324,M,,*73
2017-11-16 13:53:05 1510858385.377969: $GPRMC,185304,A,3946.9611,N,08404.9826,W,0.0000,0.000,161117,,*3F
2017-11-16 13:53:05 1510858385.378025: $GPGSA,A,3,10,13,15,18,20,21,24,27,32,8,138,,1.6,0.8,1.3*30
2017-11-16 13:53:06 1510858386.352432: $GPZDA,185305.00,16,11,2017,00,00*6F
2017-11-16 13:53:06 1510858386.352604: $GPGGA,185305,3946.9611,N,08404.9826,W,2,11,0.80,306.37,M,-33.324,M,,*72
2017-11-16 13:53:06 1510858386.352716: $GPRMC,185305,A,3946.9611,N,08404.9826,W,0.0000,0.000,161117,,*3E
2017-11-16 13:53:06 1510858386.352774: $GPGSA,A,3,10,13,15,18,20,21,24,27,32,8,138,,1.6,0.8,1.3*30
2017-11-16 13:53:07 1510858387.716595: $GPGSV,3,1,11,10,34,294,40,13,16,046,44,15,47,049,51,18,64,318,48*72
2017-11-16 13:53:07 1510858387.716775: $GPGSV,3,2,11,20,40,087,48,21,73,205,47,24,45,124,44,27,19,300,30*73
2017-11-16 13:53:07 1510858387.716837: $GPGSV,3,3,11,32,12,232,33,08,02,328,24,138,38,213,43*7B
2017-11-16 13:53:07 1510858387.829863: $GPZDA,185306.00,16,11,2017,00,00*6C
2017-11-16 13:53:07 1510858387.830025: $GPGGA,185306,3946.9611,N,08404.9826,W,2,11,0.80,306.37,M,-33.324,M,,*71
2017-11-16 13:53:07 1510858387.830088: $GPRMC,185306,A,3946.9611,N,08404.9826,W,0.0000,0.000,161117,,*3D
2017-11-16 13:53:07 1510858387.830144: $GPGSA,A,3,10,13,15,18,20,21,24,27,32,8,138,,1.6,0.8,1.3*30
2017-11-16 13:53:08 1510858388.349563: $GPZDA,185307.00,16,11,2017,00,00*6D
2017-11-16 13:53:08 1510858388.349725: $GPGGA,185307,3946.9611,N,08404.9826,W,2,11,0.80,306.37,M,-33.324,M,,*70
2017-11-16 13:53:08 1510858388.349786: $GPRMC,185307,A,3946.9611,N,08404.9826,W,0.0000,0.000,161117,,*3C
2017-11-16 13:53:08 1510858388.349842: $GPGSA,A,3,10,13,15,18,20,21,24,27,32,8,138,,1.6,0.8,1.3*30
