2017-12-01 16:33:14 1512163994.657314: {"class":"VERSION","release":"3.16","rev":"3.16-4","proto_major":3,"proto_minor":11}
2017-12-01 16:33:14 1512163994.657720: {"class":"DEVICES","devices":[{"class":"DEVICE","path":"/dev/ttyUSB0","driver":"SiRF","subtype":"9\u0006GSD4e_4.1.2-P1_RPATCH.05-F-GPS-4R-1510281 11/03/2015 307","activated":"2017-12-01T21:33:14.401Z","flags":1,"native":1,"bps":4800,"parity":"N","stopbits":1,"cycle":1.00}]}
2017-12-01 16:33:14 1512163994.657832: {"class":"WATCH","enable":true,"json":false,"nmea":true,"raw":0,"scaled":false,"timing":false,"split24":false,"pps":false}
2017-12-01 16:33:15 1512163995.004751: $GPZDA,213315.66,01,12,2017,00,00*67
2017-12-01 16:33:15 1512163995.004922: $GPGGA,213315,3946.9649,N,08404.9762,W,1,11,1.80,297.83,M,-33.324,M,,*79
2017-12-01 16:33:15 1512163995.004989: $GPRMC,213315,A,3946.9649,N,08404.9762,W,0.6708,130.717,011217,,*3E
2017-12-01 16:33:15 1512163995.005051: $GPGSA,A,3,1,10,11,14,22,12,31,32,26,18,138,,2.0,1.8,1.5*3F
2017-12-01 16:33:16 1512163996.109819: $GPZDA,213316.35,01,12,2017,00,00*62
2017-12-01 16:33:16 1512163996.109993: $GPGGA,213316,3946.9652,N,08404.9754,W,1,11,1.80,297.14,M,-33.324,M,,*7B
2017-12-01 16:33:16 1512163996.110059: $GPRMC,213316,A,3946.9652,N,08404.9754,W,0.2710,100.223,011217,,*3E
2017-12-01 16:33:16 1512163996.110120: $GPGSA,A,3,1,10,11,14,22,12,31,32,26,18,138,,2.0,1.8,1.5*3F
2017-12-01 16:33:16 1512163996.110179: $GPGBS,213316,10.70,M,15.43,M,35.28,M*03
2017-12-01 16:33:17 1512163997.274903: $GPGSV,3,1,12,01,22,298,40,10,46,148,44,14,67,331,45,22,20,312,42*70
2017-12-01 16:33:17 1512163997.275056: $GPGSV,3,2,12,26,04,183,37,31,58,226,51,32,68,033,48,11,08,280,06*7F
2017-12-01 16:33:17 1512163997.275121: $GPGSV,3,3,12,12,21,048,08,18,16,144,06,25,40,088,00,138,38,213,00*45
2017-12-01 16:33:17 1512163997.388303: $GPZDA,213317.00,01,12,2017,00,00*65
2017-12-01 16:33:17 1512163997.388477: $GPGGA,213317,3946.9652,N,08404.9754,W,1,07,1.80,297.14,M,-33.324,M,,*7D
2017-12-01 16:33:17 1512163997.388546: $GPRMC,213317,A,3946.9652,N,08404.9754,W,0.1867,180.000,011217,,*38
2017-12-01 16:33:17 1512163997.388607: $GPGSA,A,3,1,10,14,22,26,31,32,,,,,,2.0,1.8,1.5*0F
2017-12-01 16:33:17 1512163997.839179: $GPZDA,213318.00,01,12,2017,00,00*6A
2017-12-01 16:33:17 1512163997.839354: $GPGGA,213318,3946.9648,N,08404.9754,W,1,07,0.80,296.50,M,-33.324,M,,*79
2017-12-01 16:33:17 1512163997.839419: $GPRMC,213318,A,3946.9648,N,08404.9754,W,0.2422,93.794,011217,,*0B
2017-12-01 16:33:17 1512163997.839480: $GPGSA,A,3,1,10,14,22,26,31,32,,,,,,2.0,0.8,1.5*0E
2017-12-01 16:33:18 1512163998.397582: $GPZDA,213319.00,01,12,2017,00,00*6B
2017-12-01 16:33:18 1512163998.397750: $GPGGA,213319,3946.9652,N,08404.9753,W,1,07,1.00,295.74,M,-33.324,M,,*78
2017-12-01 16:33:18 1512163998.397817: $GPRMC,213319,A,3946.9652,N,08404.9753,W,0.0000,0.000,011217,,*30
2017-12-01 16:33:18 1512163998.397878: $GPGSA,A,3,1,10,14,22,26,31,32,,,,,,2.0,1.0,1.5*07
2017-12-01 16:33:19 1512163999.744004: $GPGSV,3,1,12,01,22,298,41,10,46,148,44,14,67,331,45,22,20,312,41*72
2017-12-01 16:33:19 1512163999.744188: $GPGSV,3,2,12,26,04,183,37,31,58,226,51,32,68,033,49,11,08,280,31*7A
2017-12-01 16:33:19 1512163999.744255: $GPGSV,3,3,12,12,21,048,27,18,16,144,02,25,40,088,29,138,38,213,23*46
2017-12-01 16:33:19 1512163999.857429: $GPZDA,213320.00,01,12,2017,00,00*61
2017-12-01 16:33:19 1512163999.857600: $GPGGA,213320,3946.9652,N,08404.9753,W,1,11,1.00,295.74,M,-33.324,M,,*75
2017-12-01 16:33:19 1512163999.857668: $GPRMC,213320,A,3946.9652,N,08404.9753,W,0.0000,0.000,011217,,*3A
2017-12-01 16:33:19 1512163999.857728: $GPGSA,A,3,1,10,14,22,26,31,32,11,12,25,138,,2.0,1.0,1.5*39
2017-12-01 16:33:20 1512164000.398297: $GPZDA,213321.00,01,12,2017,00,00*60
2017-12-01 16:33:20 1512164000.398454: $GPGGA,213321,3946.9651,N,08404.9746,W,1,11,0.80,294.41,M,-33.324,M,,*7D
2017-12-01 16:33:20 1512164000.398520: $GPRMC,213321,A,3946.9651,N,08404.9746,W,0.0000,0.000,011217,,*3C
2017-12-01 16:33:20 1512164000.398581: $GPGSA,A,3,1,10,14,22,26,31,32,11,12,25,138,,2.0,0.8,1.5*30
2017-12-01 16:33:21 1512164001.399054: $GPZDA,213322.00,01,12,2017,00,00*63
2017-12-01 16:33:21 1512164001.399289: $GPGGA,213322,3946.9651,N,08404.9746,W,1,11,0.80,294.41,M,-33.324,M,,*7E
2017-12-01 16:33:21 1512164001.399358: $GPRMC,213322,A,3946.9651,N,08404.9746,W,0.0000,0.000,011217,,*3F
2017-12-01 16:33:21 1512164001.399418: $GPGSA,A,3,1,10,14,22,26,31,32,11,12,25,138,,2.0,0.8,1.5*30
2017-12-01 16:33:21 1512164001.399476: $GPGBS,213322,10.70,M,15.43,M,35.28,M*04
2017-12-01 16:33:22 1512164002.733511: $GPGSV,3,1,12,01,22,298,41,10,46,148,44,14,67,331,45,22,20,312,41*72
2017-12-01 16:33:22 1512164002.733694: $GPGSV,3,2,12,26,04,183,37,31,58,226,50,32,68,033,49,11,08,280,33*79
2017-12-01 16:33:22 1512164002.733762: $GPGSV,3,3,12,12,21,048,26,25,40,088,00,18,16,144,00,138,38,213,40*4B
2017-12-01 16:33:22 1512164002.847137: $GPZDA,213323.00,01,12,2017,00,00*62
2017-12-01 16:33:22 1512164002.847308: $GPGGA,213323,3946.9654,N,08404.9745,W,1,10,1.00,293.65,M,-33.324,M,,*70
2017-12-01 16:33:22 1512164002.847374: $GPRMC,213323,A,3946.9654,N,08404.9745,W,0.0000,0.000,011217,,*38
2017-12-01 16:33:22 1512164002.847434: $GPGSA,A,3,1,10,14,22,26,31,32,11,12,138,,,2.0,1.0,1.5*3E
2017-12-01 16:33:23 1512164003.403056: $GPZDA,213324.00,01,12,2017,00,00*65
2017-12-01 16:33:23 1512164003.403232: $GPGGA,213324,3946.9650,N,08404.9745,W,1,10,1.00,293.01,M,-33.324,M,,*71
2017-12-01 16:33:23 1512164003.403299: $GPRMC,213324,A,3946.9650,N,08404.9745,W,0.0000,0.000,011217,,*3B
2017-12-01 16:33:23 1512164003.403360: $GPGSA,A,3,1,10,14,22,26,31,32,11,12,138,,,2.0,1.0,1.5*3E
2017-12-01 16:33:24 1512164004.399432: $GPZDA,213325.00,01,12,2017,00,00*64
2017-12-01 16:33:24 1512164004.399607: $GPGGA,213325,3946.9653,N,08404.9744,W,1,10,1.00,292.25,M,-33.324,M,,*75
2017-12-01 16:33:24 1512164004.399676: $GPRMC,213325,A,3946.9653,N,08404.9744,W,0.0000,0.000,011217,,*38
2017-12-01 16:33:24 1512164004.399738: $GPGSA,A,3,1,10,14,22,26,31,32,11,12,138,,,2.0,1.0,1.5*3E
2017-12-01 16:33:25 1512164005.736419: $GPGSV,3,1,12,01,22,298,41,10,46,148,44,14,67,331,45,22,20,312,41*72
2017-12-01 16:33:25 1512164005.736602: $GPGSV,3,2,12,26,04,183,37,31,58,226,50,32,68,033,48,11,08,280,33*78
2017-12-01 16:33:25 1512164005.736669: $GPGSV,3,3,12,12,21,048,23,18,16,144,21,25,40,088,22,138,38,213,39*43
2017-12-01 16:33:25 1512164005.848562: $GPZDA,213326.00,01,12,2017,00,00*67
2017-12-01 16:33:25 1512164005.848722: $GPGGA,213326,3946.9653,N,08404.9744,W,1,12,0.80,292.25,M,-33.324,M,,*7D
2017-12-01 16:33:25 1512164005.848789: $GPRMC,213326,A,3946.9653,N,08404.9744,W,0.0000,0.000,011217,,*3B
2017-12-01 16:33:25 1512164005.848851: $GPGSA,A,3,1,10,14,22,26,31,32,11,12,18,25,138,2.0,0.8,1.5*39
2017-12-01 16:33:26 1512164006.400670: $GPZDA,213327.00,01,12,2017,00,00*66
2017-12-01 16:33:26 1512164006.400831: $GPGGA,213327,3946.9653,N,08404.9744,W,1,12,0.80,292.25,M,-33.324,M,,*7C
2017-12-01 16:33:26 1512164006.400897: $GPRMC,213327,A,3946.9653,N,08404.9744,W,0.0000,0.000,011217,,*3A
2017-12-01 16:33:26 1512164006.400958: $GPGSA,A,3,1,10,14,22,26,31,32,11,12,18,25,138,2.0,0.8,1.5*39
2017-12-01 16:33:27 1512164007.401922: $GPZDA,213328.00,01,12,2017,00,00*69
2017-12-01 16:33:27 1512164007.405539: $GPGGA,213328,3946.9657,N,08404.9743,W,1,12,0.80,291.48,M,-33.324,M,,*78
2017-12-01 16:33:27 1512164007.405648: $GPRMC,213328,A,3946.9657,N,08404.9743,W,0.0000,0.000,011217,,*36
2017-12-01 16:33:27 1512164007.405714: $GPGSA,A,3,1,10,14,22,26,31,32,11,12,18,25,138,2.0,0.8,1.5*39
2017-12-01 16:33:28 1512164008.734780: $GPGSV,3,1,12,01,22,298,41,10,46,148,44,14,67,331,44,22,20,312,41*73
2017-12-01 16:33:28 1512164008.734936: $GPGSV,3,2,12,26,04,183,38,31,58,226,50,32,68,033,48,11,08,280,34*70
2017-12-01 16:33:28 1512164008.735002: $GPGSV,3,3,12,12,21,048,22,18,16,144,00,25,40,088,28,138,38,213,39*4B
2017-12-01 16:33:28 1512164008.848189: $GPZDA,213329.00,01,12,2017,00,00*68
2017-12-01 16:33:28 1512164008.848368: $GPGGA,213329,3946.9659,N,08404.9734,W,2,11,1.20,287.99,M,-33.324,M,,*77
2017-12-01 16:33:28 1512164008.848434: $GPRMC,213329,A,3946.9659,N,08404.9734,W,0.0000,0.000,011217,,*39
2017-12-01 16:33:28 1512164008.848543: $GPGSA,A,3,1,10,14,22,26,31,32,11,12,25,138,,2.0,1.2,1.5*3B
2017-12-01 16:33:29 1512164009.474758: $GPZDA,213330.00,01,12,2017,00,00*60
2017-12-01 16:33:29 1512164009.474933: $GPGGA,213330,3946.9659,N,08404.9734,W,2,11,1.00,287.99,M,-33.324,M,,*7D
2017-12-01 16:33:29 1512164009.475000: $GPRMC,213330,A,3946.9659,N,08404.9734,W,0.0000,0.000,011217,,*31
2017-12-01 16:33:29 1512164009.475061: $GPGSA,A,3,1,10,14,22,26,31,32,11,12,25,138,,2.0,1.0,1.5*39
2017-12-01 16:33:30 1512164010.402026: $GPZDA,213331.00,01,12,2017,00,00*61
2017-12-01 16:33:30 1512164010.402216: $GPGGA,213331,3946.9659,N,08404.9734,W,2,11,0.80,287.99,M,-33.324,M,,*75
2017-12-01 16:33:30 1512164010.402284: $GPRMC,213331,A,3946.9659,N,08404.9734,W,0.0000,0.000,011217,,*30
2017-12-01 16:33:30 1512164010.402344: $GPGSA,A,3,1,10,14,22,26,31,32,11,12,25,138,,2.0,0.8,1.5*30
2017-12-01 16:33:31 1512164011.740198: $GPGSV,3,1,12,01,22,298,41,10,46,148,44,14,67,331,44,22,20,312,41*73
2017-12-01 16:33:31 1512164011.740377: $GPGSV,3,2,12,26,04,183,38,31,58,226,51,32,68,033,48,11,08,280,34*71
2017-12-01 16:33:31 1512164011.740442: $GPGSV,3,3,12,12,21,048,22,25,40,088,00,18,16,144,00,138,38,213,41*4E
2017-12-01 16:33:31 1512164011.853842: $GPZDA,213332.00,01,12,2017,00,00*62
2017-12-01 16:33:31 1512164011.853986: $GPGGA,213332,3946.9659,N,08404.9734,W,2,10,1.00,287.99,M,-33.324,M,,*7E
2017-12-01 16:33:31 1512164011.854053: $GPRMC,213332,A,3946.9659,N,08404.9734,W,0.0000,0.000,011217,,*33
2017-12-01 16:33:31 1512164011.854114: $GPGSA,A,3,1,10,14,22,26,31,32,11,12,138,,,2.0,1.0,1.5*3E
2017-12-01 16:33:32 1512164012.397184: $GPZDA,213333.00,01,12,2017,00,00*63
2017-12-01 16:33:32 1512164012.397342: $GPGGA,213333,3946.9659,N,08404.9734,W,2,10,1.00,287.99,M,-33.324,M,,*7F
2017-12-01 16:33:32 1512164012.397408: $GPRMC,213333,A,3946.9659,N,08404.9734,W,0.0000,0.000,011217,,*32
2017-12-01 16:33:32 1512164012.397469: $GPGSA,A,3,1,10,14,22,26,31,32,11,12,138,,,2.0,1.0,1.5*3E
2017-12-01 16:33:33 1512164013.399201: $GPZDA,213334.00,01,12,2017,00,00*64
2017-12-01 16:33:33 1512164013.399356: $GPGGA,213334,3946.9659,N,08404.9734,W,2,10,1.00,287.99,M,-33.324,M,,*78
2017-12-01 16:33:33 1512164013.399422: $GPRMC,213334,A,3946.9659,N,08404.9734,W,0.0000,0.000,011217,,*35
2017-12-01 16:33:33 1512164013.399483: $GPGSA,A,3,1,10,14,22,26,31,32,11,12,138,,,2.0,1.0,1.5*3E
2017-12-01 16:33:33 1512164013.399541: $GPGBS,213334,2.67,M,3.86,M,8.82,M*36
