2017-11-15 19:12:20 1510791140.942492: {"class":"VERSION","release":"3.17","rev":"3.17","proto_major":3,"proto_minor":12}
2017-11-15 19:12:20 1510791140.942924: {"class":"DEVICES","devices":[{"class":"DEVICE","path":"/dev/ttyUSB0","driver":"SiRF","subtype":"9\u0006GSD4e_4.1.2-P1_RPATCH.05-F-GPS-4R-1510281 11/03/2015 307","activated":"2017-11-16T00:12:20.646Z","flags":1,"native":1,"bps":4800,"parity":"N","stopbits":1,"cycle":1.00}]}
2017-11-15 19:12:20 1510791140.943033: {"class":"WATCH","enable":true,"json":false,"nmea":true,"raw":0,"scaled":false,"timing":false,"split24":false,"pps":false}
2017-11-15 19:12:21 1510791141.669205: $GPGSV,3,1,11,32,43,099,24,14,61,079,19,01,10,259,04,26,43,175,18*7C
2017-11-15 19:12:21 1510791141.669438: $GPGSV,3,2,11,31,74,006,25,16,14,190,16,03,34,307,15,22,49,283,15*71
2017-11-15 19:12:21 1510791141.669519: $GPGSV,3,3,11,29,07,079,08,25,24,043,14,10,05,159,00*49
2017-11-15 19:12:21 1510791141.786027: $GPZDA,001220.00,16,11,2017,00,00*64
2017-11-15 19:12:21 1510791141.786212: $GPGGA,001220,3946.9680,N,08404.9502,W,1,09,0.80,304.99,M,-33.324,M,,*76
2017-11-15 19:12:21 1510791141.786275: $GPRMC,001220,A,3946.9680,N,08404.9502,W,1.2361,194.852,161117,,*32
2017-11-15 19:12:21 1510791141.786331: $GPGSA,A,3,32,14,26,31,16,3,22,29,25,,,,3.4,0.8,2.9*0C
2017-11-15 19:12:22 1510791142.330902: $GPZDA,001221.00,16,11,2017,00,00*65
2017-11-15 19:12:22 1510791142.331064: $GPGGA,001221,3946.9676,N,08404.9502,W,1,09,0.80,304.35,M,-33.324,M,,*78
2017-11-15 19:12:22 1510791142.331124: $GPRMC,001221,A,3946.9676,N,08404.9502,W,1.5738,192.547,161117,,*3A
2017-11-15 19:12:22 1510791142.331181: $GPGSA,A,3,32,14,26,31,16,3,22,29,25,,,,3.4,0.8,2.9*0C
2017-11-15 19:12:23 1510791143.331559: $GPZDA,001222.00,16,11,2017,00,00*66
2017-11-15 19:12:23 1510791143.331706: $GPGGA,001222,3946.9673,N,08404.9503,W,1,09,0.80,305.11,M,-33.324,M,,*78
2017-11-15 19:12:23 1510791143.331766: $GPRMC,001222,A,3946.9673,N,08404.9503,W,1.3692,184.197,161117,,*34
2017-11-15 19:12:23 1510791143.331822: $GPGSA,A,3,32,14,26,31,16,3,22,29,25,,,,3.4,0.8,2.9*0C
2017-11-15 19:12:24 1510791144.667286: $GPGSV,3,1,11,32,43,099,24,14,61,079,18,01,10,259,04,26,43,175,19*7C
2017-11-15 19:12:24 1510791144.667457: $GPGSV,3,2,11,31,74,006,25,16,14,190,16,03,34,307,16,22,49,283,11*76
2017-11-15 19:12:24 1510791144.667516: $GPGSV,3,3,11,29,07,079,08,25,24,043,14,10,05,159,00*49
2017-11-15 19:12:24 1510791144.780628: $GPZDA,001223.00,16,11,2017,00,00*67
2017-11-15 19:12:24 1510791144.780796: $GPGGA,001223,3946.9669,N,08404.9503,W,1,09,0.80,304.47,M,-33.324,M,,*70
2017-11-15 19:12:24 1510791144.780856: $GPRMC,001223,A,3946.9669,N,08404.9503,W,1.2132,183.552,161117,,*38
2017-11-15 19:12:24 1510791144.780914: $GPGSA,A,3,32,14,26,31,16,3,22,29,25,,,,3.4,0.8,2.9*0C
2017-11-15 19:12:25 1510791145.331612: $GPZDA,001224.00,16,11,2017,00,00*60
2017-11-15 19:12:25 1510791145.331783: $GPGGA,001224,3946.9665,N,08404.9504,W,1,09,0.80,305.24,M,-33.324,M,,*78
2017-11-15 19:12:25 1510791145.331844: $GPRMC,001224,A,3946.9665,N,08404.9504,W,1.0002,154.331,161117,,*3D
2017-11-15 19:12:25 1510791145.331900: $GPGSA,A,3,32,14,26,31,16,3,22,29,25,,,,3.4,0.8,2.9*0C
2017-11-15 19:12:26 1510791146.330733: $GPZDA,001225.00,16,11,2017,00,00*61
2017-11-15 19:12:27 1510791147.075662: $GPGGA,001225,3946.9661,N,08404.9497,W,1,09,0.80,304.68,M,-33.324,M,,*7F
2017-11-15 19:12:27 1510791147.075805: $GPRMC,001225,A,3946.9661,N,08404.9497,W,0.8359,148.778,161117,,*33
2017-11-15 19:12:27 1510791147.075886: $GPGSA,A,3,32,14,26,31,16,3,22,29,25,,,,3.4,0.8,2.9*0C
2017-11-15 19:12:27 1510791147.666473: $GPGSV,3,1,11,32,43,099,24,14,61,079,18,01,10,259,04,26,43,175,19*7C
2017-11-15 19:12:27 1510791147.666646: $GPGSV,3,2,11,31,74,006,24,16,14,190,16,03,34,307,16,22,49,283,10*76
2017-11-15 19:12:27 1510791147.666789: $GPGSV,3,3,11,29,07,079,10,25,24,043,14,10,05,159,00*40
2017-11-15 19:12:27 1510791147.780118: $GPZDA,001226.00,16,11,2017,00,00*62
2017-11-15 19:12:27 1510791147.780299: $GPGGA,001226,3946.9661,N,08404.9497,W,1,09,0.80,304.68,M,-33.324,M,,*7C
2017-11-15 19:12:27 1510791147.780363: $GPRMC,001226,A,3946.9661,N,08404.9497,W,0.5912,129.173,161117,,*32
2017-11-15 19:12:27 1510791147.780474: $GPGSA,A,3,32,14,26,31,16,3,22,29,25,,,,3.4,0.8,2.9*0C
2017-11-15 19:12:28 1510791148.330666: $GPZDA,001227.00,16,11,2017,00,00*63
2017-11-15 19:12:28 1510791148.330834: $GPGGA,001227,3946.9657,N,08404.9491,W,1,09,0.80,305.52,M,-33.324,M,,*76
2017-11-15 19:12:28 1510791148.330897: $GPRMC,001227,A,3946.9657,N,08404.9491,W,0.5912,129.173,161117,,*30
2017-11-15 19:12:28 1510791148.330953: $GPGSA,A,3,32,14,26,31,16,3,22,29,25,,,,3.4,0.8,2.9*0C
2017-11-15 19:12:29 1510791149.331579: $GPZDA,001228.00,16,11,2017,00,00*6C
2017-11-15 19:12:29 1510791149.331765: $GPGGA,001228,3946.9657,N,08404.9491,W,1,09,0.80,305.52,M,-33.324,M,,*79
2017-11-15 19:12:29 1510791149.331828: $GPRMC,001228,A,3946.9657,N,08404.9491,W,0.2758,128.233,161117,,*3E
2017-11-15 19:12:29 1510791149.331886: $GPGSA,A,3,32,14,26,31,16,3,22,29,25,,,,3.4,0.8,2.9*0C
2017-11-15 19:12:30 1510791150.682365: $GPGSV,3,1,11,32,43,099,23,14,61,079,17,01,10,259,04,26,43,175,20*7E
2017-11-15 19:12:30 1510791150.682534: $GPGSV,3,2,11,31,74,006,24,16,14,190,16,03,34,307,16,22,49,283,10*76
2017-11-15 19:12:30 1510791150.682594: $GPGSV,3,3,11,29,07,079,10,25,24,043,14,10,05,159,00*40
2017-11-15 19:12:30 1510791150.796084: $GPZDA,001229.00,16,11,2017,00,00*6D
2017-11-15 19:12:30 1510791150.796293: $GPGGA,001229,3946.9657,N,08404.9491,W,1,09,0.80,305.52,M,-33.324,M,,*78
2017-11-15 19:12:30 1510791150.796405: $GPRMC,001229,A,3946.9657,N,08404.9491,W,0.3423,184.197,161117,,*3A
2017-11-15 19:12:30 1510791150.796516: $GPGSA,A,3,32,14,26,31,16,3,22,29,25,,,,3.4,0.8,2.9*0C
