2017-12-01 13:52:06 1512154326.297282: {"class":"VERSION","release":"3.16","rev":"3.16-4","proto_major":3,"proto_minor":11}
2017-12-01 13:52:06 1512154326.297680: {"class":"DEVICES","devices":[{"class":"DEVICE","path":"/dev/ttyUSB0","driver":"SiRF","subtype":"9\u0006GSD4e_4.1.2-P1_RPATCH.05-F-GPS-4R-1510281 11/03/2015 307","activated":"2017-12-01T18:52:05.995Z","flags":1,"native":1,"bps":4800,"parity":"N","stopbits":1,"cycle":1.00}]}
2017-12-01 13:52:06 1512154326.297798: {"class":"WATCH","enable":true,"json":false,"nmea":true,"raw":0,"scaled":false,"timing":false,"split24":false,"pps":false}
2017-12-01 13:52:06 1512154326.602499: $GPZDA,185207.29,01,12,2017,00,00*62
2017-12-01 13:52:06 1512154326.602672: $GPGGA,185207,3946.9559,N,08404.9845,W,1,11,0.80,307.08,M,-33.324,M,,*75
2017-12-01 13:52:06 1512154326.602739: $GPRMC,185207,A,3946.9559,N,08404.9845,W,0.2967,46.893,011217,,*08
2017-12-01 13:52:06 1512154326.602800: $GPGSA,A,3,10,14,15,18,20,21,24,27,32,8,138,,2.0,0.8,1.5*34
2017-12-01 13:52:08 1512154328.019660: $GPGSV,3,1,11,08,08,306,20,10,57,316,29,14,18,243,23,15,22,060,27*7F
2017-12-01 13:52:08 1512154328.019844: $GPGSV,3,2,11,18,77,045,25,20,19,109,26,21,43,181,26,24,52,078,28*7D
2017-12-01 13:52:08 1512154328.019910: $GPGSV,3,3,11,27,13,271,22,32,35,252,25,138,38,213,00*7E
2017-12-01 13:52:08 1512154328.133088: $GPZDA,185207.98,01,12,2017,00,00*68
2017-12-01 13:52:08 1512154328.133265: $GPGGA,185207,3946.9567,N,08404.9851,W,1,10,0.80,306.88,M,-33.324,M,,*75
2017-12-01 13:52:08 1512154328.133332: $GPRMC,185207,A,3946.9567,N,08404.9851,W,0.1567,9.200,011217,,*34
2017-12-01 13:52:08 1512154328.133393: $GPGSA,A,3,8,10,14,15,18,20,21,24,27,32,,,2.0,0.8,1.5*0E
2017-12-01 13:52:08 1512154328.939583: $GPZDA,185209.00,01,12,2017,00,00*67
2017-12-01 13:52:08 1512154328.939766: $GPGGA,185209,3946.9562,N,08404.9851,W,1,10,0.80,304.83,M,-33.324,M,,*77
2017-12-01 13:52:08 1512154328.939834: $GPRMC,185209,A,3946.9562,N,08404.9851,W,0.0000,0.000,011217,,*31
2017-12-01 13:52:08 1512154328.939894: $GPGSA,A,3,8,10,14,15,18,20,21,24,27,32,,,2.0,0.8,1.5*0E
2017-12-01 13:52:08 1512154328.939952: $GPGBS,185209,10.70,M,15.43,M,35.28,M*00
2017-12-01 13:52:09 1512154329.225016: $GPZDA,185210.00,01,12,2017,00,00*6F
2017-12-01 13:52:09 1512154329.225187: $GPGGA,185210,3946.9590,N,08404.9865,W,1,10,0.80,297.08,M,-33.324,M,,*7D
2017-12-01 13:52:09 1512154329.225253: $GPRMC,185210,A,3946.9590,N,08404.9865,W,0.0000,0.000,011217,,*33
2017-12-01 13:52:09 1512154329.225314: $GPGSA,A,3,8,10,14,15,18,20,21,24,27,32,,,2.0,0.8,1.5*0E
2017-12-01 13:52:09 1512154329.225372: $GPGBS,185210,10.70,M,15.43,M,35.28,M*08
2017-12-01 13:52:10 1512154330.731719: $GPGSV,3,1,11,08,08,306,34,10,57,316,48,14,18,243,37,15,22,060,45*7C
2017-12-01 13:52:10 1512154330.731909: $GPGSV,3,2,11,18,77,045,43,20,19,109,45,21,43,181,45,24,52,078,47*74
2017-12-01 13:52:10 1512154330.731976: $GPGSV,3,3,11,27,13,271,37,32,35,252,41,138,38,213,47*7B
2017-12-01 13:52:10 1512154330.845148: $GPZDA,185211.00,01,12,2017,00,00*6E
2017-12-01 13:52:10 1512154330.845318: $GPGGA,185211,3946.9589,N,08404.9858,W,1,11,0.80,297.15,M,-33.324,M,,*77
2017-12-01 13:52:10 1512154330.845385: $GPRMC,185211,A,3946.9589,N,08404.9858,W,0.0000,0.000,011217,,*34
2017-12-01 13:52:10 1512154330.845446: $GPGSA,A,3,8,10,14,15,18,20,21,24,27,32,138,,2.0,0.8,1.5*34
2017-12-01 13:52:11 1512154331.470829: $GPZDA,185212.00,01,12,2017,00,00*6D
2017-12-01 13:52:11 1512154331.471008: $GPGGA,185212,3946.9588,N,08404.9863,W,2,11,1.40,294.27,M,-33.324,M,,*71
2017-12-01 13:52:11 1512154331.471074: $GPRMC,185212,A,3946.9588,N,08404.9863,W,0.0000,0.000,011217,,*3E
2017-12-01 13:52:11 1512154331.471136: $GPGSA,A,3,8,10,14,15,18,20,21,24,27,32,138,,2.0,1.4,1.5*39
2017-12-01 13:52:12 1512154332.393991: $GPZDA,185213.00,01,12,2017,00,00*6C
2017-12-01 13:52:12 1512154332.394158: $GPGGA,185213,3946.9588,N,08404.9863,W,2,11,1.40,294.27,M,-33.324,M,,*70
2017-12-01 13:52:12 1512154332.394224: $GPRMC,185213,A,3946.9588,N,08404.9863,W,0.0000,0.000,011217,,*3F
2017-12-01 13:52:12 1512154332.394286: $GPGSA,A,3,8,10,14,15,18,20,21,24,27,32,138,,2.0,1.4,1.5*39
2017-12-01 13:52:12 1512154332.394394: $GPGBS,185213,2.67,M,3.86,M,8.82,M*3E
2017-12-01 13:52:13 1512154333.731958: $GPGSV,3,1,11,08,08,306,34,10,57,316,48,14,18,243,37,15,22,060,46*7F
2017-12-01 13:52:13 1512154333.734673: $GPGSV,3,2,11,18,77,045,43,20,19,109,45,21,43,181,45,24,52,078,47*74
2017-12-01 13:52:13 1512154333.734775: $GPGSV,3,3,11,27,13,271,38,32,35,252,41,138,38,213,46*75
2017-12-01 13:52:13 1512154333.845360: $GPZDA,185214.00,01,12,2017,00,00*6B
2017-12-01 13:52:13 1512154333.845532: $GPGGA,185214,3946.9588,N,08404.9863,W,2,11,1.40,294.27,M,-33.324,M,,*77
2017-12-01 13:52:13 1512154333.845599: $GPRMC,185214,A,3946.9588,N,08404.9863,W,0.0000,0.000,011217,,*38
2017-12-01 13:52:13 1512154333.845661: $GPGSA,A,3,8,10,14,15,18,20,21,24,27,32,138,,2.0,1.4,1.5*39
2017-12-01 13:52:14 1512154334.396230: $GPZDA,185215.00,01,12,2017,00,00*6A
2017-12-01 13:52:14 1512154334.396387: $GPGGA,185215,3946.9588,N,08404.9863,W,2,11,1.40,294.27,M,-33.324,M,,*76
2017-12-01 13:52:14 1512154334.396454: $GPRMC,185215,A,3946.9588,N,08404.9863,W,0.0000,0.000,011217,,*39
2017-12-01 13:52:14 1512154334.396516: $GPGSA,A,3,8,10,14,15,18,20,21,24,27,32,138,,2.0,1.4,1.5*39
2017-12-01 13:52:15 1512154335.401503: $GPZDA,185216.00,01,12,2017,00,00*69
2017-12-01 13:52:15 1512154335.401709: $GPGGA,185216,3946.9588,N,08404.9863,W,2,11,0.80,294.27,M,-33.324,M,,*78
2017-12-01 13:52:15 1512154335.401790: $GPRMC,185216,A,3946.9588,N,08404.9863,W,0.0000,0.000,011217,,*3A
2017-12-01 13:52:15 1512154335.401854: $GPGSA,A,3,8,10,14,15,18,20,21,24,27,32,138,,2.0,0.8,1.5*34
