2017-12-31 18:43:42 1514763822.937157: {"class":"VERSION","release":"3.16","rev":"3.16-4","proto_major":3,"proto_minor":11}
2017-12-31 18:43:42 1514763822.937531: {"class":"DEVICES","devices":[{"class":"DEVICE","path":"/dev/ttyUSB0","driver":"SiRF","activated":"2017-12-31T23:43:42.937Z","flags":1,"native":1,"bps":4800,"parity":"N","stopbits":1,"cycle":1.00}]}
2017-12-31 18:43:42 1514763822.937629: {"class":"WATCH","enable":true,"json":false,"nmea":true,"raw":0,"scaled":false,"timing":false,"split24":false,"pps":false}
2017-12-31 18:43:43 1514763823.391184: $GPZDA,234344.00,31,12,2017,00,00*65
2017-12-31 18:43:43 1514763823.391364: $GPGGA,234344,3946.9581,N,08404.9849,W,2,12,0.80,305.22,M,-33.324,M,,*79
2017-12-31 18:43:43 1514763823.391432: $GPRMC,234344,A,3946.9581,N,08404.9849,W,0.0000,0.000,311217,,*37
2017-12-31 18:43:43 1514763823.391492: $GPGSA,A,3,22,23,9,3,16,8,14,31,27,7,26,135,1.7,0.8,1.3*0C
2017-12-31 18:43:44 1514763824.389461: $GPZDA,234345.00,31,12,2017,00,00*64
2017-12-31 18:43:44 1514763824.389637: $GPGGA,234345,3946.9581,N,08404.9849,W,2,12,0.80,305.22,M,-33.324,M,,*78
2017-12-31 18:43:44 1514763824.389704: $GPRMC,234345,A,3946.9581,N,08404.9849,W,0.0000,0.000,311217,,*36
2017-12-31 18:43:44 1514763824.389782: $GPGSA,A,3,22,23,9,3,16,8,14,31,27,7,26,135,1.7,0.8,1.3*0C
2017-12-31 18:43:45 1514763825.724795: $GPGSV,3,1,12,22,10,205,22,23,66,288,41,09,33,310,43,03,20,222,38*7C
2017-12-31 18:43:45 1514763825.724972: $GPGSV,3,2,12,16,80,037,43,08,13,177,31,14,02,139,04,31,18,087,37*76
2017-12-31 18:43:45 1514763825.725039: $GPGSV,3,3,12,27,36,145,41,07,08,282,40,26,47,046,45,135,22,240,44*49
2017-12-31 18:43:45 1514763825.838381: $GPZDA,234346.00,31,12,2017,00,00*67
2017-12-31 18:43:45 1514763825.838528: $GPGGA,234346,3946.9581,N,08404.9849,W,2,11,0.80,305.22,M,-33.324,M,,*78
2017-12-31 18:43:45 1514763825.838594: $GPRMC,234346,A,3946.9581,N,08404.9849,W,0.0000,0.000,311217,,*35
2017-12-31 18:43:45 1514763825.838654: $GPGSA,A,3,22,23,9,3,16,8,31,27,7,26,135,,1.7,0.8,1.3*09
2017-12-31 18:43:46 1514763826.353994: $GPZDA,234347.00,31,12,2017,00,00*66
2017-12-31 18:43:46 1514763826.354192: $GPGGA,234347,3946.9581,N,08404.9849,W,2,11,0.80,305.22,M,-33.324,M,,*79
2017-12-31 18:43:46 1514763826.354261: $GPRMC,234347,A,3946.9581,N,08404.9849,W,0.0000,0.000,311217,,*34
2017-12-31 18:43:46 1514763826.354339: $GPGSA,A,3,22,23,9,3,16,8,31,27,7,26,135,,1.7,0.8,1.3*09
2017-12-31 18:43:47 1514763827.353631: $GPZDA,234348.00,31,12,2017,00,00*69
2017-12-31 18:43:47 1514763827.353811: $GPGGA,234348,3946.9581,N,08404.9849,W,2,11,0.80,305.22,M,-33.324,M,,*76
2017-12-31 18:43:47 1514763827.353877: $GPRMC,234348,A,3946.9581,N,08404.9849,W,0.0000,0.000,311217,,*3B
2017-12-31 18:43:47 1514763827.353938: $GPGSA,A,3,22,23,9,3,16,8,31,27,7,26,135,,1.7,0.8,1.3*09
2017-12-31 18:43:48 1514763828.681859: $GPGSV,3,1,12,22,10,205,22,23,66,288,40,09,33,310,44,03,20,222,39*7B
2017-12-31 18:43:48 1514763828.682038: $GPGSV,3,2,12,16,80,037,43,08,13,177,30,14,02,139,04,31,18,087,36*76
2017-12-31 18:43:48 1514763828.682104: $GPGSV,3,3,12,27,36,145,41,07,08,282,40,26,47,046,45,135,22,240,44*49
2017-12-31 18:43:48 1514763828.795225: $GPZDA,234349.00,31,12,2017,00,00*68
2017-12-31 18:43:48 1514763828.795371: $GPGGA,234349,3946.9581,N,08404.9849,W,2,11,0.80,305.22,M,-33.324,M,,*77
2017-12-31 18:43:48 1514763828.795436: $GPRMC,234349,A,3946.9581,N,08404.9849,W,0.0000,0.000,311217,,*3A
2017-12-31 18:43:48 1514763828.795497: $GPGSA,A,3,22,23,9,3,16,8,31,27,7,26,135,,1.7,0.8,1.3*09
2017-12-31 18:43:49 1514763829.353604: $GPZDA,234350.00,31,12,2017,00,00*60
2017-12-31 18:43:49 1514763829.353770: $GPGGA,234350,3946.9581,N,08404.9849,W,2,11,0.80,305.22,M,-33.324,M,,*7F
2017-12-31 18:43:49 1514763829.353836: $GPRMC,234350,A,3946.9581,N,08404.9849,W,0.0000,0.000,311217,,*32
2017-12-31 18:43:49 1514763829.353896: $GPGSA,A,3,22,23,9,3,16,8,31,27,7,26,135,,1.7,0.8,1.3*09
2017-12-31 18:43:50 1514763830.353970: $GPZDA,234351.00,31,12,2017,00,00*61
2017-12-31 18:43:50 1514763830.354150: $GPGGA,234351,3946.9581,N,08404.9849,W,2,11,0.80,305.22,M,-33.324,M,,*7E
2017-12-31 18:43:50 1514763830.354295: $GPRMC,234351,A,3946.9581,N,08404.9849,W,0.0000,0.000,311217,,*33
2017-12-31 18:43:50 1514763830.354358: $GPGSA,A,3,22,23,9,3,16,8,31,27,7,26,135,,1.7,0.8,1.3*09
2017-12-31 18:43:51 1514763831.689690: $GPGSV,3,1,12,22,10,205,21,23,66,288,42,09,33,310,43,03,20,222,40*73
2017-12-31 18:43:51 1514763831.689871: $GPGSV,3,2,12,16,80,037,43,08,13,177,30,14,02,139,04,31,18,087,36*76
2017-12-31 18:43:51 1514763831.689936: $GPGSV,3,3,12,27,36,145,41,07,08,282,40,26,47,046,45,135,22,240,44*49
2017-12-31 18:43:51 1514763831.803136: $GPZDA,234352.00,31,12,2017,00,00*62
2017-12-31 18:43:51 1514763831.803281: $GPGGA,234352,3946.9581,N,08404.9849,W,2,11,0.80,305.22,M,-33.324,M,,*7D
2017-12-31 18:43:51 1514763831.803347: $GPRMC,234352,A,3946.9581,N,08404.9849,W,0.0000,0.000,311217,,*30
2017-12-31 18:43:51 1514763831.803408: $GPGSA,A,3,22,23,9,3,16,8,31,27,7,26,135,,1.7,0.8,1.3*09
2017-12-31 18:43:52 1514763832.352870: $GPZDA,234353.00,31,12,2017,00,00*63
2017-12-31 18:43:52 1514763832.353050: $GPGGA,234353,3946.9581,N,08404.9849,W,2,11,0.80,305.22,M,-33.324,M,,*7C
2017-12-31 18:43:52 1514763832.353139: $GPRMC,234353,A,3946.9581,N,08404.9849,W,0.0000,0.000,311217,,*31
2017-12-31 18:43:52 1514763832.353201: $GPGSA,A,3,22,23,9,3,16,8,31,27,7,26,135,,1.7,0.8,1.3*09
