2018-01-11 21:05:25 1515722725.077621: {"class":"VERSION","release":"3.16","rev":"3.16-4","proto_major":3,"proto_minor":11}
2018-01-11 21:05:25 1515722725.078165: {"class":"DEVICES","devices":[{"class":"DEVICE","path":"/dev/ttyUSB0","driver":"SiRF","subtype":"9\u0006GSD4e_4.1.2-P1_RPATCH.05-F-GPS-4R-1510281 11/03/2015 307","activated":"2018-01-12T02:05:25.077Z","flags":1,"native":1,"bps":4800,"parity":"N","stopbits":1,"cycle":1.00}]}
2018-01-11 21:05:25 1515722725.078305: {"class":"WATCH","enable":true,"json":false,"nmea":true,"raw":0,"scaled":false,"timing":false,"split24":false,"pps":false}
2018-01-11 21:05:25 1515722725.189255: $GPZDA,020525.88,12,01,2018,00,00*6F
2018-01-11 21:05:25 1515722725.189430: $GPGGA,020525,3946.9572,N,08404.9813,W,1,12,1.00,315.01,M,-33.324,M,,*76
2018-01-11 21:05:25 1515722725.189496: $GPRMC,020525,A,3946.9572,N,08404.9813,W,0.5912,230.825,120118,,*3F
2018-01-11 21:05:25 1515722725.189557: $GPGSA,A,3,1,7,8,9,11,23,27,28,30,13,16,138,4.0,1.0,3.5*04
2018-01-11 21:05:25 1515722725.189615: $GPGBS,020525,14.62,M,24.83,M,80.38,M*01
2018-01-11 21:05:26 1515722726.270658: $GPZDA,020526.57,12,01,2018,00,00*6E
2018-01-11 21:05:26 1515722726.270853: $GPGGA,020526,3946.9572,N,08404.9813,W,1,12,1.00,315.01,M,-33.324,M,,*75
2018-01-11 21:05:26 1515722726.270920: $GPRMC,020526,A,3946.9572,N,08404.9813,W,0.5516,308.233,120118,,*33
2018-01-11 21:05:26 1515722726.270981: $GPGSA,A,3,1,7,8,9,11,23,27,28,30,13,16,138,4.0,1.0,3.5*04
2018-01-11 21:05:27 1515722727.413250: $GPGSV,3,1,12,01,18,151,45,07,81,306,45,08,64,054,46,09,26,210,43*7E
2018-01-11 21:05:27 1515722727.413425: $GPGSV,3,2,12,11,43,156,45,27,25,045,49,28,31,277,38,30,52,309,43*79
2018-01-11 21:05:27 1515722727.413493: $GPGSV,3,3,12,13,03,328,25,23,06,181,02,16,06,076,00,138,38,213,00*49
2018-01-11 21:05:27 1515722727.525356: $GPZDA,020527.00,12,01,2018,00,00*6D
2018-01-11 21:05:27 1515722727.525525: $GPGGA,020527,3946.9571,N,08404.9812,W,1,09,1.00,313.61,M,-33.324,M,,*7C
2018-01-11 21:05:27 1515722727.525612: $GPRMC,020527,A,3946.9571,N,08404.9812,W,0.0407,142.014,120118,,*3F
2018-01-11 21:05:27 1515722727.525675: $GPGSA,A,3,1,7,8,9,11,27,28,30,13,,,,4.0,1.0,3.5*38
2018-01-11 21:05:27 1515722727.977521: $GPZDA,020528.00,12,01,2018,00,00*62
2018-01-11 21:05:27 1515722727.977688: $GPGGA,020528,3946.9575,N,08404.9819,W,1,09,1.00,312.77,M,-33.324,M,,*7A
2018-01-11 21:05:27 1515722727.977753: $GPRMC,020528,A,3946.9575,N,08404.9819,W,0.0407,142.014,120118,,*3F
2018-01-11 21:05:27 1515722727.977814: $GPGSA,A,3,1,7,8,9,11,27,28,30,13,,,,4.0,1.0,3.5*38
2018-01-11 21:05:28 1515722728.428696: $GPZDA,020529.00,12,01,2018,00,00*63
2018-01-11 21:05:28 1515722728.428856: $GPGGA,020529,3946.9574,N,08404.9818,W,1,09,0.80,311.36,M,-33.324,M,,*74
2018-01-11 21:05:28 1515722728.428922: $GPRMC,020529,A,3946.9574,N,08404.9818,W,0.0000,0.000,120118,,*3F
2018-01-11 21:05:28 1515722728.428982: $GPGSA,A,3,1,7,8,9,11,27,28,30,13,,,,4.0,0.8,3.5*31
2018-01-11 21:05:29 1515722729.716183: $GPGSV,3,1,12,01,18,151,45,07,81,306,45,08,64,054,47,09,26,210,43*7F
2018-01-11 21:05:29 1515722729.716352: $GPGSV,3,2,12,11,43,156,45,27,25,045,49,28,31,277,38,30,52,309,43*79
2018-01-11 21:05:29 1515722729.716418: $GPGSV,3,3,12,13,03,328,32,23,06,181,24,16,06,076,15,138,38,213,46*4D
2018-01-11 21:05:29 1515722729.829846: $GPZDA,020530.00,12,01,2018,00,00*6B
2018-01-11 21:05:29 1515722729.829993: $GPGGA,020530,3946.9574,N,08404.9817,W,1,12,0.80,309.96,M,-33.324,M,,*7A
2018-01-11 21:05:29 1515722729.830059: $GPRMC,020530,A,3946.9574,N,08404.9817,W,0.0000,0.000,120118,,*38
2018-01-11 21:05:29 1515722729.830119: $GPGSA,A,3,1,7,8,9,11,27,28,30,13,23,16,138,4.0,0.8,3.5*0D
2018-01-11 21:05:30 1515722730.380734: $GPZDA,020531.00,12,01,2018,00,00*6A
2018-01-11 21:05:30 1515722730.380894: $GPGGA,020531,3946.9577,N,08404.9816,W,1,12,0.80,309.19,M,-33.324,M,,*7E
2018-01-11 21:05:30 1515722730.380960: $GPRMC,020531,A,3946.9577,N,08404.9816,W,0.0000,0.000,120118,,*3B
2018-01-11 21:05:30 1515722730.381021: $GPGSA,A,3,1,7,8,9,11,27,28,30,13,23,16,138,4.0,0.8,3.5*0D
2018-01-11 21:05:31 1515722731.381438: $GPZDA,020532.00,12,01,2018,00,00*69
2018-01-11 21:05:31 1515722731.381651: $GPGGA,020532,3946.9573,N,08404.9816,W,1,12,0.80,308.55,M,-33.324,M,,*70
2018-01-11 21:05:31 1515722731.381717: $GPRMC,020532,A,3946.9573,N,08404.9816,W,0.0000,0.000,120118,,*3C
2018-01-11 21:05:31 1515722731.381778: $GPGSA,A,3,1,7,8,9,11,27,28,30,13,23,16,138,4.0,0.8,3.5*0D
2018-01-11 21:05:31 1515722731.381836: $GPGBS,020532,14.62,M,24.83,M,80.38,M*07
