2017-12-01 17:05:26 1512165926.563705: {"class":"VERSION","release":"3.16","rev":"3.16-4","proto_major":3,"proto_minor":11}
2017-12-01 17:05:26 1512165926.564095: {"class":"DEVICES","devices":[{"class":"DEVICE","path":"/dev/ttyUSB0","driver":"SiRF","subtype":"9\u0006GSD4e_4.1.2-P1_RPATCH.05-F-GPS-4R-1510281 11/03/2015 307","activated":"2017-12-01T22:05:26.489Z","flags":1,"native":1,"bps":4800,"parity":"N","stopbits":1,"cycle":1.00}]}
2017-12-01 17:05:26 1512165926.564216: {"class":"WATCH","enable":true,"json":false,"nmea":true,"raw":0,"scaled":false,"timing":false,"split24":false,"pps":false}
2017-12-01 17:05:27 1512165927.770073: $GPGSV,3,1,12,01,21,285,42,03,13,316,42,10,31,154,37,12,14,037,32*74
2017-12-01 17:05:27 1512165927.770252: $GPGSV,3,2,12,14,70,010,46,22,32,309,45,25,40,069,31,26,16,180,37*70
2017-12-01 17:05:27 1512165927.770318: $GPGSV,3,3,12,31,72,247,49,32,61,064,47,18,03,148,00,138,38,213,35*46
2017-12-01 17:05:27 1512165927.883485: $GPZDA,220528.00,01,12,2017,00,00*6F
2017-12-01 17:05:27 1512165927.883649: $GPGGA,220528,3946.9631,N,08404.9734,W,2,11,0.80,295.59,M,-33.324,M,,*7A
2017-12-01 17:05:27 1512165927.883715: $GPRMC,220528,A,3946.9631,N,08404.9734,W,0.0000,0.000,011217,,*30
2017-12-01 17:05:27 1512165927.883775: $GPGSA,A,3,1,3,10,12,14,22,25,26,31,32,138,,2.0,0.8,1.5*03
2017-12-01 17:05:28 1512165928.434300: $GPZDA,220529.00,01,12,2017,00,00*6E
2017-12-01 17:05:28 1512165928.434471: $GPGGA,220529,3946.9631,N,08404.9734,W,2,11,0.80,295.59,M,-33.324,M,,*7B
2017-12-01 17:05:28 1512165928.434536: $GPRMC,220529,A,3946.9631,N,08404.9734,W,0.0000,0.000,011217,,*31
2017-12-01 17:05:28 1512165928.434597: $GPGSA,A,3,1,3,10,12,14,22,25,26,31,32,138,,2.0,0.8,1.5*03
2017-12-01 17:05:29 1512165929.452518: $GPZDA,220530.00,01,12,2017,00,00*66
2017-12-01 17:05:29 1512165929.452674: $GPGGA,220530,3946.9632,N,08404.9741,W,2,11,0.80,295.51,M,-33.324,M,,*7A
2017-12-01 17:05:29 1512165929.452740: $GPRMC,220530,A,3946.9632,N,08404.9741,W,0.0000,0.000,011217,,*38
2017-12-01 17:05:29 1512165929.452801: $GPGSA,A,3,1,3,10,12,14,22,25,26,31,32,138,,2.0,0.8,1.5*03
2017-12-01 17:05:30 1512165930.789202: $GPGSV,3,1,12,01,21,285,42,03,13,316,42,10,31,154,37,12,14,037,32*74
2017-12-01 17:05:30 1512165930.789382: $GPGSV,3,2,12,14,70,010,46,22,32,309,45,25,40,069,30,26,16,180,37*71
2017-12-01 17:05:30 1512165930.789448: $GPGSV,3,3,12,31,72,247,49,32,61,064,47,18,03,148,00,138,38,213,38*4B
2017-12-01 17:05:30 1512165930.902938: $GPZDA,220531.00,01,12,2017,00,00*67
2017-12-01 17:05:30 1512165930.903110: $GPGGA,220531,3946.9632,N,08404.9741,W,2,11,0.80,295.51,M,-33.324,M,,*7B
2017-12-01 17:05:30 1512165930.903177: $GPRMC,220531,A,3946.9632,N,08404.9741,W,0.0000,0.000,011217,,*39
2017-12-01 17:05:30 1512165930.903239: $GPGSA,A,3,1,3,10,12,14,22,25,26,31,32,138,,2.0,0.8,1.5*03
2017-12-01 17:05:31 1512165931.444998: $GPZDA,220532.00,01,12,2017,00,00*64
2017-12-01 17:05:31 1512165931.445167: $GPGGA,220532,3946.9632,N,08404.9741,W,2,11,0.80,295.51,M,-33.324,M,,*78
2017-12-01 17:05:31 1512165931.445235: $GPRMC,220532,A,3946.9632,N,08404.9741,W,0.0000,0.000,011217,,*3A
2017-12-01 17:05:31 1512165931.445298: $GPGSA,A,3,1,3,10,12,14,22,25,26,31,32,138,,2.0,0.8,1.5*03
2017-12-01 17:05:32 1512165932.444269: $GPZDA,220533.00,01,12,2017,00,00*65
2017-12-01 17:05:32 1512165932.444445: $GPGGA,220533,3946.9632,N,08404.9741,W,2,11,0.80,295.51,M,-33.324,M,,*79
2017-12-01 17:05:32 1512165932.444513: $GPRMC,220533,A,3946.9632,N,08404.9741,W,0.0000,0.000,011217,,*3B
2017-12-01 17:05:32 1512165932.444573: $GPGSA,A,3,1,3,10,12,14,22,25,26,31,32,138,,2.0,0.8,1.5*03
2017-12-01 17:05:33 1512165933.771241: $GPGSV,3,1,12,01,21,285,41,03,13,316,41,10,31,154,36,12,14,037,32*75
2017-12-01 17:05:33 1512165933.777906: $GPGSV,3,2,12,14,70,010,46,22,32,309,45,25,40,069,27,26,16,180,36*76
2017-12-01 17:05:33 1512165933.778015: $GPGSV,3,3,12,31,72,247,48,32,61,064,47,18,03,148,00,138,38,213,40*45
2017-12-01 17:05:33 1512165933.884843: $GPZDA,220534.00,01,12,2017,00,00*62
2017-12-01 17:05:33 1512165933.884985: $GPGGA,220534,3946.9632,N,08404.9741,W,2,11,0.80,295.51,M,-33.324,M,,*7E
2017-12-01 17:05:33 1512165933.885097: $GPRMC,220534,A,3946.9632,N,08404.9741,W,0.0000,0.000,011217,,*3C
2017-12-01 17:05:33 1512165933.885160: $GPGSA,A,3,1,3,10,12,14,22,25,26,31,32,138,,2.0,0.8,1.5*03
2017-12-01 17:05:34 1512165934.511251: $GPZDA,220535.00,01,12,2017,00,00*63
2017-12-01 17:05:34 1512165934.511477: $GPGGA,220535,3946.9632,N,08404.9741,W,2,11,0.80,295.51,M,-33.324,M,,*7F
2017-12-01 17:05:34 1512165934.511547: $GPRMC,220535,A,3946.9632,N,08404.9741,W,0.0000,0.000,011217,,*3D
2017-12-01 17:05:34 1512165934.511608: $GPGSA,A,3,1,3,10,12,14,22,25,26,31,32,138,,2.0,0.8,1.5*03
2017-12-01 17:05:35 1512165935.433599: $GPZDA,220536.00,01,12,2017,00,00*60
2017-12-01 17:05:35 1512165935.433773: $GPGGA,220536,3946.9632,N,08404.9741,W,2,11,0.80,295.51,M,-33.324,M,,*7C
2017-12-01 17:05:35 1512165935.433839: $GPRMC,220536,A,3946.9632,N,08404.9741,W,0.0000,0.000,011217,,*3E
2017-12-01 17:05:35 1512165935.433900: $GPGSA,A,3,1,3,10,12,14,22,25,26,31,32,138,,2.0,0.8,1.5*03
2017-12-01 17:05:36 1512165936.771680: $GPGSV,3,1,12,01,21,285,40,03,13,316,41,10,31,154,30,12,14,037,32*72
2017-12-01 17:05:36 1512165936.771866: $GPGSV,3,2,12,14,70,010,46,22,32,309,45,25,40,069,25,26,16,180,37*75
2017-12-01 17:05:36 1512165936.771932: $GPGSV,3,3,12,31,72,247,48,32,61,064,47,18,03,148,00,138,38,213,40*45
2017-12-01 17:05:36 1512165936.885008: $GPZDA,220537.00,01,12,2017,00,00*61
2017-12-01 17:05:36 1512165936.885177: $GPGGA,220537,3946.9632,N,08404.9741,W,2,11,0.80,295.51,M,-33.324,M,,*7D
2017-12-01 17:05:36 1512165936.885243: $GPRMC,220537,A,3946.9632,N,08404.9741,W,0.0000,0.000,011217,,*3F
2017-12-01 17:05:36 1512165936.885303: $GPGSA,A,3,1,3,10,12,14,22,25,26,31,32,138,,2.0,0.8,1.5*03
2017-12-01 17:05:37 1512165937.436096: $GPZDA,220538.00,01,12,2017,00,00*6E
2017-12-01 17:05:37 1512165937.436267: $GPGGA,220538,3946.9632,N,08404.9741,W,2,11,0.80,295.51,M,-33.324,M,,*72
2017-12-01 17:05:37 1512165937.436334: $GPRMC,220538,A,3946.9632,N,08404.9741,W,0.0000,0.000,011217,,*30
2017-12-01 17:05:37 1512165937.436395: $GPGSA,A,3,1,3,10,12,14,22,25,26,31,32,138,,2.0,0.8,1.5*03
2017-12-01 17:05:38 1512165938.429482: $GPZDA,220539.00,01,12,2017,00,00*6F
2017-12-01 17:05:38 1512165938.429654: $GPGGA,220539,3946.9632,N,08404.9741,W,2,11,0.80,295.51,M,-33.324,M,,*73
2017-12-01 17:05:38 1512165938.429722: $GPRMC,220539,A,3946.9632,N,08404.9741,W,0.0000,0.000,011217,,*31
2017-12-01 17:05:38 1512165938.429784: $GPGSA,A,3,1,3,10,12,14,22,25,26,31,32,138,,2.0,0.8,1.5*03
2017-12-01 17:05:39 1512165939.769486: $GPGSV,3,1,12,01,21,285,40,03,13,316,42,10,31,154,33,12,14,037,31*71
2017-12-01 17:05:39 1512165939.769670: $GPGSV,3,2,12,14,70,010,46,22,32,309,45,25,40,069,26,26,16,180,38*79
2017-12-01 17:05:39 1512165939.769736: $GPGSV,3,3,12,31,72,247,48,32,61,064,46,18,03,148,00,138,38,213,38*4B
2017-12-01 17:05:39 1512165939.883094: $GPZDA,220540.00,01,12,2017,00,00*61
2017-12-01 17:05:39 1512165939.883220: $GPGGA,220540,3946.9636,N,08404.9741,W,2,11,0.80,296.15,M,-33.324,M,,*7A
2017-12-01 17:05:39 1512165939.883285: $GPRMC,220540,A,3946.9636,N,08404.9741,W,0.0000,0.000,011217,,*3B
2017-12-01 17:05:39 1512165939.883344: $GPGSA,A,3,1,3,10,12,14,22,25,26,31,32,138,,2.0,0.8,1.5*03
2017-12-01 17:05:40 1512165940.433732: $GPZDA,220541.00,01,12,2017,00,00*60
2017-12-01 17:05:40 1512165940.433908: $GPGGA,220541,3946.9636,N,08404.9741,W,2,11,0.80,296.15,M,-33.324,M,,*7B
2017-12-01 17:05:40 1512165940.433976: $GPRMC,220541,A,3946.9636,N,08404.9741,W,0.0000,0.000,011217,,*3A
2017-12-01 17:05:40 1512165940.434037: $GPGSA,A,3,1,3,10,12,14,22,25,26,31,32,138,,2.0,0.8,1.5*03
2017-12-01 17:05:41 1512165941.435856: $GPZDA,220542.00,01,12,2017,00,00*63
2017-12-01 17:05:41 1512165941.436037: $GPGGA,220542,3946.9636,N,08404.9741,W,2,11,0.80,296.15,M,-33.324,M,,*78
2017-12-01 17:05:41 1512165941.436103: $GPRMC,220542,A,3946.9636,N,08404.9741,W,0.0000,0.000,011217,,*39
2017-12-01 17:05:41 1512165941.436164: $GPGSA,A,3,1,3,10,12,14,22,25,26,31,32,138,,2.0,0.8,1.5*03
2017-12-01 17:05:42 1512165942.772916: $GPGSV,3,1,12,01,21,285,40,03,13,316,42,10,31,154,34,12,14,037,26*70
2017-12-01 17:05:42 1512165942.773165: $GPGSV,3,2,12,14,70,010,46,22,32,309,45,25,40,069,25,26,16,180,38*7A
2017-12-01 17:05:42 1512165942.773235: $GPGSV,3,3,12,31,72,247,48,32,61,064,47,18,03,148,00,138,38,213,40*45
2017-12-01 17:05:42 1512165942.886450: $GPZDA,220543.00,01,12,2017,00,00*62
2017-12-01 17:05:42 1512165942.886623: $GPGGA,220543,3946.9636,N,08404.9741,W,2,11,0.80,296.15,M,-33.324,M,,*79
2017-12-01 17:05:42 1512165942.886690: $GPRMC,220543,A,3946.9636,N,08404.9741,W,0.0000,0.000,011217,,*38
2017-12-01 17:05:42 1512165942.886751: $GPGSA,A,3,1,3,10,12,14,22,25,26,31,32,138,,2.0,0.8,1.5*03
2017-12-01 17:05:43 1512165943.434816: $GPZDA,220544.00,01,12,2017,00,00*65
2017-12-01 17:05:43 1512165943.434988: $GPGGA,220544,3946.9636,N,08404.9741,W,2,11,0.80,296.15,M,-33.324,M,,*7E
2017-12-01 17:05:43 1512165943.435055: $GPRMC,220544,A,3946.9636,N,08404.9741,W,0.0000,0.000,011217,,*3F
2017-12-01 17:05:43 1512165943.435116: $GPGSA,A,3,1,3,10,12,14,22,25,26,31,32,138,,2.0,0.8,1.5*03
2017-12-01 17:05:45 1512165945.141992: $GPZDA,220545.00,01,12,2017,00,00*64
2017-12-01 17:05:45 1512165945.142164: $GPGGA,220545,3946.9636,N,08404.9741,W,2,11,0.80,296.15,M,-33.324,M,,*7F
2017-12-01 17:05:45 1512165945.142231: $GPRMC,220545,A,3946.9636,N,08404.9741,W,0.0000,0.000,011217,,*3E
2017-12-01 17:05:45 1512165945.142293: $GPGSA,A,3,1,3,10,12,14,22,25,26,31,32,138,,2.0,0.8,1.5*03
2017-12-01 17:05:46 1512165946.101769: $GPGSV,3,1,12,01,21,283,39,03,13,316,42,10,31,154,34,12,13,037,24*7D
2017-12-01 17:05:46 1512165946.101955: $GPGSV,3,2,12,14,70,010,46,22,32,307,45,25,39,069,25,26,17,180,39*7A
2017-12-01 17:05:46 1512165946.102021: $GPGSV,3,3,12,31,72,249,48,32,61,064,47,18,03,148,00,138,38,213,41*4A
2017-12-01 17:05:46 1512165946.213905: $GPZDA,220546.00,01,12,2017,00,00*67
2017-12-01 17:05:46 1512165946.214035: $GPGGA,220546,3946.9636,N,08404.9741,W,2,11,0.80,296.15,M,-33.324,M,,*7C
2017-12-01 17:05:46 1512165946.214100: $GPRMC,220546,A,3946.9636,N,08404.9741,W,0.0000,0.000,011217,,*3D
2017-12-01 17:05:46 1512165946.214161: $GPGSA,A,3,1,3,10,12,14,22,25,26,31,32,138,,2.0,0.8,1.5*03
