2017-12-29 14:39:52 1514576392.040826: {"class":"VERSION","release":"3.16","rev":"3.16-4","proto_major":3,"proto_minor":11}
2017-12-29 14:39:52 1514576392.041239: {"class":"DEVICES","devices":[{"class":"DEVICE","path":"/dev/ttyUSB0","driver":"SiRF","subtype":"9\u0006GSD4e_4.1.2-P1_RPATCH.05-F-GPS-4R-1510281 11/03/2015 307","activated":"2017-12-29T19:39:52.025Z","flags":1,"native":1,"bps":4800,"parity":"N","stopbits":1,"cycle":1.00}]}
2017-12-29 14:39:52 1514576392.041361: {"class":"WATCH","enable":true,"json":false,"nmea":true,"raw":0,"scaled":false,"timing":false,"split24":false,"pps":false}
2017-12-29 14:39:53 1514576393.092026: $GPZDA,193953.36,29,12,2017,00,00*6B
2017-12-29 14:39:53 1514576393.092210: $GPGGA,193953,3946.9585,N,08404.9789,W,1,12,0.80,312.19,M,-33.324,M,,*71
2017-12-29 14:39:53 1514576393.092280: $GPRMC,193953,A,3946.9585,N,08404.9789,W,0.2959,234.767,291217,,*3F
2017-12-29 14:39:53 1514576393.092341: $GPGSA,A,3,1,10,12,14,18,22,25,31,32,11,3,138,1.7,0.8,1.3*0C
2017-12-29 14:39:54 1514576394.310866: $GPGSV,3,1,12,01,22,298,36,10,46,148,51,11,08,282,38,12,21,048,46*70
2017-12-29 14:39:54 1514576394.311092: $GPGSV,3,2,12,14,66,330,44,18,15,144,48,22,21,312,40,25,40,088,52*7D
2017-12-29 14:39:54 1514576394.311170: $GPGSV,3,3,12,31,60,226,49,32,67,036,49,03,02,316,08,138,38,213,00*41
2017-12-29 14:39:54 1514576394.424452: $GPZDA,193954.00,29,12,2017,00,00*69
2017-12-29 14:39:54 1514576394.424582: $GPGGA,193954,3946.9585,N,08404.9789,W,1,10,0.80,312.19,M,-33.324,M,,*74
2017-12-29 14:39:54 1514576394.424648: $GPRMC,193954,A,3946.9585,N,08404.9789,W,0.1867,180.000,291217,,*3D
2017-12-29 14:39:54 1514576394.424709: $GPGSA,A,3,1,10,11,12,14,18,22,25,31,32,,,1.7,0.8,1.3*05
2017-12-29 14:39:55 1514576395.047249: $GPZDA,193955.00,29,12,2017,00,00*68
2017-12-29 14:39:55 1514576395.047416: $GPGGA,193955,3946.9585,N,08404.9789,W,1,10,0.80,312.19,M,-33.324,M,,*75
2017-12-29 14:39:55 1514576395.047482: $GPRMC,193955,A,3946.9585,N,08404.9789,W,0.0000,0.000,291217,,*3D
2017-12-29 14:39:55 1514576395.047543: $GPGSA,A,3,1,10,11,12,14,18,22,25,31,32,,,1.7,0.8,1.3*05
2017-12-29 14:39:55 1514576395.047602: $GPGBS,193955,10.91,M,10.38,M,30.89,M*0D
2017-12-29 14:39:55 1514576395.498127: $GPZDA,193956.00,29,12,2017,00,00*6B
2017-12-29 14:39:55 1514576395.498284: $GPGGA,193956,3946.9585,N,08404.9789,W,1,10,0.80,312.19,M,-33.324,M,,*76
2017-12-29 14:39:55 1514576395.498348: $GPRMC,193956,A,3946.9585,N,08404.9789,W,0.0000,0.000,291217,,*3E
2017-12-29 14:39:55 1514576395.498409: $GPGSA,A,3,1,10,11,12,14,18,22,25,31,32,,,1.7,0.8,1.3*05
2017-12-29 14:39:55 1514576395.498467: $GPGBS,193956,10.91,M,10.38,M,30.89,M*0E
2017-12-29 14:39:56 1514576396.710589: $GPGSV,3,1,12,01,22,298,35,10,46,148,52,11,08,282,38,12,21,048,46*70
2017-12-29 14:39:56 1514576396.710773: $GPGSV,3,2,12,14,66,330,44,18,15,144,48,22,21,312,41,25,40,088,52*7C
2017-12-29 14:39:56 1514576396.710840: $GPGSV,3,3,12,31,60,226,48,32,67,036,49,03,02,316,30,138,38,213,43*4C
2017-12-29 14:39:56 1514576396.824206: $GPZDA,193957.00,29,12,2017,00,00*6A
2017-12-29 14:39:56 1514576396.824348: $GPGGA,193957,3946.9581,N,08404.9789,W,1,12,0.80,311.55,M,-33.324,M,,*7A
2017-12-29 14:39:56 1514576396.824413: $GPRMC,193957,A,3946.9581,N,08404.9789,W,0.0000,0.000,291217,,*3B
2017-12-29 14:39:56 1514576396.824474: $GPGSA,A,3,1,10,11,12,14,18,22,25,31,32,3,138,1.7,0.8,1.3*0C
2017-12-29 14:39:57 1514576397.383855: $GPZDA,193958.00,29,12,2017,00,00*65
2017-12-29 14:39:57 1514576397.384020: $GPGGA,193958,3946.9581,N,08404.9789,W,1,12,0.80,311.55,M,-33.324,M,,*75
2017-12-29 14:39:57 1514576397.384085: $GPRMC,193958,A,3946.9581,N,08404.9789,W,0.0000,0.000,291217,,*34
2017-12-29 14:39:57 1514576397.384145: $GPGSA,A,3,1,10,11,12,14,18,22,25,31,32,3,138,1.7,0.8,1.3*0C
2017-12-29 14:39:58 1514576398.373365: $GPZDA,193959.00,29,12,2017,00,00*64
2017-12-29 14:39:58 1514576398.373521: $GPGGA,193959,3946.9584,N,08404.9789,W,1,12,0.80,310.79,M,-33.324,M,,*7E
2017-12-29 14:39:58 1514576398.373587: $GPRMC,193959,A,3946.9584,N,08404.9789,W,0.0000,0.000,291217,,*30
2017-12-29 14:39:58 1514576398.373647: $GPGSA,A,3,1,10,11,12,14,18,22,25,31,32,3,138,1.7,0.8,1.3*0C
2017-12-29 14:39:58 1514576398.373756: $GPGBS,193959,10.91,M,10.38,M,30.89,M*01
2017-12-29 14:39:59 1514576399.712583: $GPGSV,3,1,12,01,22,298,36,10,46,148,52,11,08,282,38,12,21,048,46*73
2017-12-29 14:39:59 1514576399.712762: $GPGSV,3,2,12,14,66,330,44,18,15,144,48,22,21,312,42,25,40,088,52*7F
2017-12-29 14:39:59 1514576399.712828: $GPGSV,3,3,12,31,60,226,48,32,67,036,49,03,02,316,26,138,38,213,43*4B
2017-12-29 14:39:59 1514576399.824896: $GPZDA,194000.00,29,12,2017,00,00*66
2017-12-29 14:39:59 1514576399.825025: $GPGGA,194000,3946.9584,N,08404.9789,W,1,12,0.80,310.79,M,-33.324,M,,*7C
2017-12-29 14:39:59 1514576399.825090: $GPRMC,194000,A,3946.9584,N,08404.9789,W,0.0000,0.000,291217,,*32
2017-12-29 14:39:59 1514576399.825151: $GPGSA,A,3,1,10,11,12,14,18,22,25,31,32,3,138,1.7,0.8,1.3*0C
2017-12-29 14:40:00 1514576400.383304: $GPZDA,194001.00,29,12,2017,00,00*67
2017-12-29 14:40:00 1514576400.383473: $GPGGA,194001,3946.9584,N,08404.9789,W,1,12,0.80,310.79,M,-33.324,M,,*7D
2017-12-29 14:40:00 1514576400.383540: $GPRMC,194001,A,3946.9584,N,08404.9789,W,0.0000,0.000,291217,,*33
2017-12-29 14:40:00 1514576400.383600: $GPGSA,A,3,1,10,11,12,14,18,22,25,31,32,3,138,1.7,0.8,1.3*0C
2017-12-29 14:40:01 1514576401.376178: $GPZDA,194002.00,29,12,2017,00,00*64
2017-12-29 14:40:01 1514576401.376334: $GPGGA,194002,3946.9580,N,08404.9789,W,1,12,0.80,310.15,M,-33.324,M,,*70
2017-12-29 14:40:01 1514576401.376400: $GPRMC,194002,A,3946.9580,N,08404.9789,W,0.0000,0.000,291217,,*34
2017-12-29 14:40:01 1514576401.376461: $GPGSA,A,3,1,10,11,12,14,18,22,25,31,32,3,138,1.7,0.8,1.3*0C
