2017-12-29 11:30:32 1514565032.556158: {"class":"VERSION","release":"3.16","rev":"3.16-4","proto_major":3,"proto_minor":11}
2017-12-29 11:30:32 1514565032.556512: {"class":"DEVICES","devices":[{"class":"DEVICE","path":"/dev/ttyUSB0","driver":"SiRF","subtype":"9\u0006GSD4e_4.1.2-P1_RPATCH.05-F-GPS-4R-1510281 11/03/2015 307","activated":"2017-12-29T16:30:32.280Z","flags":1,"native":1,"bps":4800,"parity":"N","stopbits":1,"cycle":1.00}]}
2017-12-29 11:30:32 1514565032.556628: {"class":"WATCH","enable":true,"json":false,"nmea":true,"raw":0,"scaled":false,"timing":false,"split24":false,"pps":false}
2017-12-29 11:30:32 1514565032.731274: $GPGSV,3,1,12,08,07,318,39,10,46,306,46,15,32,054,48,18,75,354,44*72
2017-12-29 11:30:32 1514565032.731457: $GPGSV,3,2,12,20,30,100,49,21,57,186,46,24,52,100,50,27,18,283,44*7A
2017-12-29 11:30:32 1514565032.731523: $GPGSV,3,3,12,32,26,243,38,14,08,235,00,13,03,051,00,138,38,213,45*4D
2017-12-29 11:30:32 1514565032.843454: $GPZDA,163033.00,29,12,2017,00,00*6E
2017-12-29 11:30:32 1514565032.843620: $GPGGA,163033,3946.9629,N,08404.9826,W,1,10,1.00,360.17,M,-33.324,M,,*7E
2017-12-29 11:30:32 1514565032.843686: $GPRMC,163033,A,3946.9629,N,08404.9826,W,0.0000,0.000,291217,,*34
2017-12-29 11:30:32 1514565032.843746: $GPGSA,A,3,8,10,15,18,20,21,24,27,32,138,,,1.7,1.0,1.3*3A
2017-12-29 11:30:33 1514565033.410625: $GPZDA,163034.00,29,12,2017,00,00*69
2017-12-29 11:30:33 1514565033.410793: $GPGGA,163034,3946.9629,N,08404.9826,W,1,10,1.00,360.17,M,-33.324,M,,*79
2017-12-29 11:30:33 1514565033.410859: $GPRMC,163034,A,3946.9629,N,08404.9826,W,0.0000,0.000,291217,,*33
2017-12-29 11:30:33 1514565033.410919: $GPGSA,A,3,8,10,15,18,20,21,24,27,32,138,,,1.7,1.0,1.3*3A
2017-12-29 11:30:34 1514565034.392214: $GPZDA,163035.00,29,12,2017,00,00*68
2017-12-29 11:30:34 1514565034.392398: $GPGGA,163035,3946.9629,N,08404.9826,W,1,10,1.00,360.17,M,-33.324,M,,*78
2017-12-29 11:30:34 1514565034.392467: $GPRMC,163035,A,3946.9629,N,08404.9826,W,0.0000,0.000,291217,,*32
2017-12-29 11:30:34 1514565034.392533: $GPGSA,A,3,8,10,15,18,20,21,24,27,32,138,,,1.7,1.0,1.3*3A
2017-12-29 11:30:35 1514565035.745278: $GPGSV,3,1,12,08,07,318,38,10,46,306,47,15,32,054,48,18,75,354,45*73
2017-12-29 11:30:35 1514565035.745431: $GPGSV,3,2,12,20,30,100,49,21,57,186,46,24,52,100,50,27,18,283,44*7A
2017-12-29 11:30:35 1514565035.745497: $GPGSV,3,3,12,32,26,243,38,14,08,235,00,13,03,051,00,138,38,213,45*4D
2017-12-29 11:30:35 1514565035.858588: $GPZDA,163036.00,29,12,2017,00,00*6B
2017-12-29 11:30:35 1514565035.858760: $GPGGA,163036,3946.9629,N,08404.9826,W,1,10,1.00,360.17,M,-33.324,M,,*7B
2017-12-29 11:30:35 1514565035.858827: $GPRMC,163036,A,3946.9629,N,08404.9826,W,0.0000,0.000,291217,,*31
2017-12-29 11:30:35 1514565035.858887: $GPGSA,A,3,8,10,15,18,20,21,24,27,32,138,,,1.7,1.0,1.3*3A
2017-12-29 11:30:36 1514565036.414456: $GPZDA,163037.00,29,12,2017,00,00*6A
2017-12-29 11:30:36 1514565036.414628: $GPGGA,163037,3946.9629,N,08404.9826,W,1,10,1.00,360.17,M,-33.324,M,,*7A
2017-12-29 11:30:36 1514565036.414694: $GPRMC,163037,A,3946.9629,N,08404.9826,W,0.0000,0.000,291217,,*30
2017-12-29 11:30:36 1514565036.414754: $GPGSA,A,3,8,10,15,18,20,21,24,27,32,138,,,1.7,1.0,1.3*3A
2017-12-29 11:30:37 1514565037.394186: $GPZDA,163038.00,29,12,2017,00,00*65
2017-12-29 11:30:37 1514565037.394367: $GPGGA,163038,3946.9629,N,08404.9826,W,1,10,1.00,360.17,M,-33.324,M,,*75
2017-12-29 11:30:37 1514565037.394434: $GPRMC,163038,A,3946.9629,N,08404.9826,W,0.0000,0.000,291217,,*3F
2017-12-29 11:30:37 1514565037.394495: $GPGSA,A,3,8,10,15,18,20,21,24,27,32,138,,,1.7,1.0,1.3*3A
2017-12-29 11:30:38 1514565038.745964: $GPGSV,3,1,12,08,07,318,38,10,46,306,46,15,32,054,48,18,75,354,44*73
2017-12-29 11:30:38 1514565038.746144: $GPGSV,3,2,12,20,30,100,49,21,57,186,46,24,52,100,50,27,18,283,44*7A
2017-12-29 11:30:38 1514565038.746210: $GPGSV,3,3,12,32,26,243,38,14,08,235,16,13,03,051,00,138,38,213,46*49
2017-12-29 11:30:38 1514565038.859372: $GPZDA,163039.00,29,12,2017,00,00*64
2017-12-29 11:30:38 1514565038.859538: $GPGGA,163039,3946.9629,N,08404.9826,W,1,11,0.80,360.17,M,-33.324,M,,*7C
2017-12-29 11:30:38 1514565038.859657: $GPRMC,163039,A,3946.9629,N,08404.9826,W,0.0000,0.000,291217,,*3E
2017-12-29 11:30:38 1514565038.859719: $GPGSA,A,3,8,10,15,18,20,21,24,27,32,14,138,,1.7,0.8,1.3*36
2017-12-29 11:30:39 1514565039.484808: $GPZDA,163040.00,29,12,2017,00,00*6A
2017-12-29 11:30:39 1514565039.484989: $GPGGA,163040,3946.9633,N,08404.9826,W,1,11,0.80,359.41,M,-33.324,M,,*70
2017-12-29 11:30:39 1514565039.485055: $GPRMC,163040,A,3946.9633,N,08404.9826,W,0.0000,0.000,291217,,*3B
2017-12-29 11:30:39 1514565039.485115: $GPGSA,A,3,8,10,15,18,20,21,24,27,32,14,138,,1.7,0.8,1.3*36
2017-12-29 11:30:40 1514565040.410884: $GPZDA,163041.00,29,12,2017,00,00*6B
2017-12-29 11:30:40 1514565040.411147: $GPGGA,163041,3946.9633,N,08404.9826,W,1,11,1.00,359.41,M,-33.324,M,,*78
2017-12-29 11:30:40 1514565040.411224: $GPRMC,163041,A,3946.9633,N,08404.9826,W,0.0000,0.000,291217,,*3A
2017-12-29 11:30:40 1514565040.411285: $GPGSA,A,3,8,10,15,18,20,21,24,27,32,14,138,,1.7,1.0,1.3*3F
2017-12-29 11:30:41 1514565041.746275: $GPGSV,3,1,12,08,07,318,37,10,46,306,46,15,32,054,48,18,75,354,44*7C
2017-12-29 11:30:41 1514565041.746425: $GPGSV,3,2,12,20,30,100,50,21,57,186,46,24,52,100,50,27,18,283,44*72
2017-12-29 11:30:41 1514565041.746489: $GPGSV,3,3,12,32,26,243,38,14,08,235,00,13,03,051,00,138,38,213,45*4D
2017-12-29 11:30:41 1514565041.859839: $GPZDA,163042.00,29,12,2017,00,00*68
2017-12-29 11:30:41 1514565041.859981: $GPGGA,163042,3946.9633,N,08404.9826,W,1,10,1.00,359.41,M,-33.324,M,,*7A
2017-12-29 11:30:41 1514565041.860046: $GPRMC,163042,A,3946.9633,N,08404.9826,W,0.0000,0.000,291217,,*39
2017-12-29 11:30:41 1514565041.860106: $GPGSA,A,3,8,10,15,18,20,21,24,27,32,138,,,1.7,1.0,1.3*3A
2017-12-29 11:30:42 1514565042.393245: $GPZDA,163043.00,29,12,2017,00,00*69
2017-12-29 11:30:42 1514565042.393412: $GPGGA,163043,3946.9628,N,08404.9826,W,1,10,1.00,358.77,M,-33.324,M,,*75
2017-12-29 11:30:42 1514565042.393478: $GPRMC,163043,A,3946.9628,N,08404.9826,W,0.0000,0.000,291217,,*32
2017-12-29 11:30:42 1514565042.393540: $GPGSA,A,3,8,10,15,18,20,21,24,27,32,138,,,1.7,1.0,1.3*3A
2017-12-29 11:30:43 1514565043.410342: $GPZDA,163044.00,29,12,2017,00,00*6E
2017-12-29 11:30:43 1514565043.410509: $GPGGA,163044,3946.9628,N,08404.9826,W,1,10,1.00,358.77,M,-33.324,M,,*72
2017-12-29 11:30:43 1514565043.410575: $GPRMC,163044,A,3946.9628,N,08404.9826,W,0.0000,0.000,291217,,*35
2017-12-29 11:30:43 1514565043.410637: $GPGSA,A,3,8,10,15,18,20,21,24,27,32,138,,,1.7,1.0,1.3*3A
2017-12-29 11:30:44 1514565044.729046: $GPGSV,3,1,12,08,07,318,36,10,46,306,46,15,32,054,48,18,75,354,44*7D
2017-12-29 11:30:44 1514565044.729225: $GPGSV,3,2,12,20,30,100,50,21,57,186,46,24,52,100,50,27,18,283,43*75
2017-12-29 11:30:44 1514565044.729291: $GPGSV,3,3,12,32,26,243,38,14,08,235,00,13,03,051,00,138,38,213,45*4D
2017-12-29 11:30:44 1514565044.842416: $GPZDA,163045.00,29,12,2017,00,00*6F
2017-12-29 11:30:44 1514565044.842558: $GPGGA,163045,3946.9628,N,08404.9826,W,1,10,1.40,358.77,M,-33.324,M,,*77
2017-12-29 11:30:44 1514565044.842624: $GPRMC,163045,A,3946.9628,N,08404.9826,W,0.0000,0.000,291217,,*34
2017-12-29 11:30:44 1514565044.842684: $GPGSA,A,3,8,10,15,18,20,21,24,27,32,138,,,1.7,1.4,1.3*3E
2017-12-29 11:30:45 1514565045.389510: $GPZDA,163046.00,29,12,2017,00,00*6C
2017-12-29 11:30:45 1514565045.389681: $GPGGA,163046,3946.9628,N,08404.9826,W,1,10,1.40,358.77,M,-33.324,M,,*74
2017-12-29 11:30:45 1514565045.389751: $GPRMC,163046,A,3946.9628,N,08404.9826,W,0.0000,0.000,291217,,*37
2017-12-29 11:30:45 1514565045.389815: $GPGSA,A,3,8,10,15,18,20,21,24,27,32,138,,,1.7,1.4,1.3*3E
2017-12-29 11:30:46 1514565046.409128: $GPZDA,163047.00,29,12,2017,00,00*6D
2017-12-29 11:30:46 1514565046.409298: $GPGGA,163047,3946.9628,N,08404.9826,W,1,10,1.00,358.77,M,-33.324,M,,*71
2017-12-29 11:30:46 1514565046.409364: $GPRMC,163047,A,3946.9628,N,08404.9826,W,0.0000,0.000,291217,,*36
2017-12-29 11:30:46 1514565046.409427: $GPGSA,A,3,8,10,15,18,20,21,24,27,32,138,,,1.7,1.0,1.3*3A
