2018-01-11 20:07:50 1515719270.766475: {"class":"VERSION","release":"3.16","rev":"3.16-4","proto_major":3,"proto_minor":11}
2018-01-11 20:07:50 1515719270.766811: {"class":"DEVICES","devices":[{"class":"DEVICE","path":"/dev/ttyUSB0","driver":"SiRF","subtype":"9\u0006GSD4e_4.1.2-P1_RPATCH.05-F-GPS-4R-1510281 11/03/2015 307","activated":"2018-01-12T01:07:50.494Z","flags":1,"native":1,"bps":4800,"parity":"N","stopbits":1,"cycle":1.00}]}
2018-01-11 20:07:50 1515719270.766924: {"class":"WATCH","enable":true,"json":false,"nmea":true,"raw":0,"scaled":false,"timing":false,"split24":false,"pps":false}
2018-01-11 20:07:51 1515719271.706258: $GPGSV,3,1,10,07,54,313,43,08,72,138,45,09,49,231,42,11,18,168,47*7B
2018-01-11 20:07:51 1515719271.706430: $GPGSV,3,2,10,16,24,058,45,23,31,190,47,27,49,054,50,28,13,256,28*73
2018-01-11 20:07:51 1515719271.706495: $GPGSV,3,3,10,30,27,306,28,138,38,213,45*41
2018-01-11 20:07:51 1515719271.820120: $GPZDA,010752.00,12,01,2018,00,00*6E
2018-01-11 20:07:51 1515719271.820257: $GPGGA,010752,3946.9568,N,08404.9829,W,2,10,0.80,304.95,M,-33.324,M,,*70
2018-01-11 20:07:51 1515719271.820323: $GPRMC,010752,A,3946.9568,N,08404.9829,W,0.0000,0.000,120118,,*3D
2018-01-11 20:07:51 1515719271.820383: $GPGSA,A,3,7,8,9,11,16,23,27,28,30,138,,,4.0,0.8,3.5*3E
2018-01-11 20:07:52 1515719272.445364: $GPZDA,010753.00,12,01,2018,00,00*6F
2018-01-11 20:07:52 1515719272.445526: $GPGGA,010753,3946.9568,N,08404.9829,W,2,10,0.80,304.95,M,-33.324,M,,*71
2018-01-11 20:07:52 1515719272.445592: $GPRMC,010753,A,3946.9568,N,08404.9829,W,0.0000,0.000,120118,,*3C
2018-01-11 20:07:52 1515719272.445653: $GPGSA,A,3,7,8,9,11,16,23,27,28,30,138,,,4.0,0.8,3.5*3E
2018-01-11 20:07:53 1515719273.353739: $GPZDA,010754.00,12,01,2018,00,00*68
2018-01-11 20:07:53 1515719273.353912: $GPGGA,010754,3946.9568,N,08404.9829,W,2,10,0.80,304.95,M,-33.324,M,,*76
2018-01-11 20:07:53 1515719273.353979: $GPRMC,010754,A,3946.9568,N,08404.9829,W,0.0000,0.000,120118,,*3B
2018-01-11 20:07:53 1515719273.354041: $GPGSA,A,3,7,8,9,11,16,23,27,28,30,138,,,4.0,0.8,3.5*3E
2018-01-11 20:07:54 1515719274.689158: $GPGSV,3,1,10,07,54,313,43,08,72,138,45,09,49,231,42,11,18,168,47*7B
2018-01-11 20:07:54 1515719274.689353: $GPGSV,3,2,10,16,24,058,45,23,31,190,47,27,49,054,50,28,13,256,28*73
2018-01-11 20:07:54 1515719274.689420: $GPGSV,3,3,10,30,27,306,29,138,38,213,45*40
2018-01-11 20:07:54 1515719274.802795: $GPZDA,010755.00,12,01,2018,00,00*69
2018-01-11 20:07:54 1515719274.802962: $GPGGA,010755,3946.9568,N,08404.9829,W,2,10,0.80,304.95,M,-33.324,M,,*77
2018-01-11 20:07:54 1515719274.803027: $GPRMC,010755,A,3946.9568,N,08404.9829,W,0.0000,0.000,120118,,*3A
2018-01-11 20:07:54 1515719274.803088: $GPGSA,A,3,7,8,9,11,16,23,27,28,30,138,,,4.0,0.8,3.5*3E
2018-01-11 20:07:55 1515719275.351226: $GPZDA,010756.00,12,01,2018,00,00*6A
2018-01-11 20:07:55 1515719275.351392: $GPGGA,010756,3946.9568,N,08404.9829,W,2,10,0.80,304.95,M,-33.324,M,,*74
2018-01-11 20:07:55 1515719275.351458: $GPRMC,010756,A,3946.9568,N,08404.9829,W,0.0000,0.000,120118,,*39
2018-01-11 20:07:55 1515719275.351519: $GPGSA,A,3,7,8,9,11,16,23,27,28,30,138,,,4.0,0.8,3.5*3E
2018-01-11 20:07:56 1515719276.349605: $GPZDA,010757.00,12,01,2018,00,00*6B
2018-01-11 20:07:56 1515719276.349771: $GPGGA,010757,3946.9568,N,08404.9829,W,2,10,0.80,304.95,M,-33.324,M,,*75
2018-01-11 20:07:56 1515719276.349837: $GPRMC,010757,A,3946.9568,N,08404.9829,W,0.0000,0.000,120118,,*38
2018-01-11 20:07:56 1515719276.349898: $GPGSA,A,3,7,8,9,11,16,23,27,28,30,138,,,4.0,0.8,3.5*3E
2018-01-11 20:07:57 1515719277.689449: $GPGSV,3,1,10,07,54,313,43,08,72,138,45,09,49,231,42,11,18,168,47*7B
2018-01-11 20:07:57 1515719277.689596: $GPGSV,3,2,10,16,24,058,45,23,31,190,47,27,49,054,50,28,13,256,29*72
2018-01-11 20:07:57 1515719277.689663: $GPGSV,3,3,10,30,27,306,30,138,38,213,45*48
2018-01-11 20:07:57 1515719277.802787: $GPZDA,010758.00,12,01,2018,00,00*64
2018-01-11 20:07:57 1515719277.802971: $GPGGA,010758,3946.9568,N,08404.9829,W,2,10,0.80,304.95,M,-33.324,M,,*7A
2018-01-11 20:07:57 1515719277.803038: $GPRMC,010758,A,3946.9568,N,08404.9829,W,0.0000,0.000,120118,,*37
2018-01-11 20:07:57 1515719277.803154: $GPGSA,A,3,7,8,9,11,16,23,27,28,30,138,,,4.0,0.8,3.5*3E
2018-01-11 20:07:58 1515719278.371440: $GPZDA,010759.00,12,01,2018,00,00*65
2018-01-11 20:07:58 1515719278.371603: $GPGGA,010759,3946.9568,N,08404.9829,W,2,10,0.80,304.95,M,-33.324,M,,*7B
2018-01-11 20:07:58 1515719278.371670: $GPRMC,010759,A,3946.9568,N,08404.9829,W,0.0000,0.000,120118,,*36
2018-01-11 20:07:58 1515719278.371731: $GPGSA,A,3,7,8,9,11,16,23,27,28,30,138,,,4.0,0.8,3.5*3E
2018-01-11 20:07:59 1515719279.372404: $GPZDA,010800.00,12,01,2018,00,00*66
2018-01-11 20:07:59 1515719279.372569: $GPGGA,010800,3946.9568,N,08404.9829,W,2,10,0.80,304.95,M,-33.324,M,,*78
2018-01-11 20:07:59 1515719279.372635: $GPRMC,010800,A,3946.9568,N,08404.9829,W,0.0000,0.000,120118,,*35
2018-01-11 20:07:59 1515719279.372695: $GPGSA,A,3,7,8,9,11,16,23,27,28,30,138,,,4.0,0.8,3.5*3E
2018-01-11 20:08:00 1515719280.690305: $GPGSV,3,1,10,07,54,313,43,08,72,138,46,09,49,231,42,11,18,168,47*78
2018-01-11 20:08:00 1515719280.690460: $GPGSV,3,2,10,16,24,058,45,23,31,190,47,27,49,054,50,28,13,256,29*72
2018-01-11 20:08:00 1515719280.690526: $GPGSV,3,3,10,30,27,306,30,138,38,213,45*48
2018-01-11 20:08:00 1515719280.803740: $GPZDA,010801.00,12,01,2018,00,00*67
2018-01-11 20:08:00 1515719280.803914: $GPGGA,010801,3946.9568,N,08404.9829,W,2,10,0.80,304.95,M,-33.324,M,,*79
2018-01-11 20:08:00 1515719280.803981: $GPRMC,010801,A,3946.9568,N,08404.9829,W,0.0000,0.000,120118,,*34
2018-01-11 20:08:00 1515719280.804043: $GPGSA,A,3,7,8,9,11,16,23,27,28,30,138,,,4.0,0.8,3.5*3E
2018-01-11 20:08:01 1515719281.354776: $GPZDA,010802.00,12,01,2018,00,00*64
2018-01-11 20:08:01 1515719281.354939: $GPGGA,010802,3946.9568,N,08404.9829,W,2,10,0.80,304.95,M,-33.324,M,,*7A
2018-01-11 20:08:01 1515719281.355005: $GPRMC,010802,A,3946.9568,N,08404.9829,W,0.0000,0.000,120118,,*37
2018-01-11 20:08:01 1515719281.355066: $GPGSA,A,3,7,8,9,11,16,23,27,28,30,138,,,4.0,0.8,3.5*3E
