2017-12-14 12:04:03 1513271043.262392: {"class":"VERSION","release":"3.16","rev":"3.16-4","proto_major":3,"proto_minor":11}
2017-12-14 12:04:03 1513271043.262791: {"class":"DEVICES","devices":[{"class":"DEVICE","path":"/dev/ttyUSB0","driver":"SiRF","subtype":"9\u0006GSD4e_4.1.2-P1_RPATCH.05-F-GPS-4R-1510281 11/03/2015 307","activated":"2017-12-14T17:04:03.072Z","flags":1,"native":1,"bps":4800,"parity":"N","stopbits":1,"cycle":1.00}]}
2017-12-14 12:04:03 1513271043.262919: {"class":"WATCH","enable":true,"json":false,"nmea":true,"raw":0,"scaled":false,"timing":false,"split24":false,"pps":false}
2017-12-14 12:04:04 1513271044.359367: $GPRMC,170405,V,18000.0000,N,00000.0000,W,0.0000,0.000,141217,,*16
2017-12-14 12:04:04 1513271044.359543: $GPGSA,A,1,15,32,21,24,20,,,,,,,,,,,*30
2017-12-14 12:04:05 1513271045.315312: $GPRMC,170406,V,3946.9510,N,08404.9338,W,0.0000,0.000,141217,,*20
2017-12-14 12:04:05 1513271045.315504: $GPGSA,A,1,15,32,21,24,20,,,,,,,,,,,*30
2017-12-14 12:04:05 1513271045.906284: $GPGSV,3,1,10,21,69,195,17,24,47,120,09,15,43,051,10,18,67,325,03*7B
2017-12-14 12:04:05 1513271045.906464: $GPGSV,3,2,10,20,39,090,08,32,16,234,02,10,37,297,00,27,19,295,00*7B
2017-12-14 12:04:05 1513271045.906532: $GPGSV,3,3,10,13,13,046,00,08,03,327,00*77
2017-12-14 12:04:06 1513271046.018669: $GPRMC,170406,V,3946.9520,N,08404.9336,W,1.1189,165.351,141217,,*28
2017-12-14 12:04:06 1513271046.018819: $GPGSA,A,1,21,24,15,18,20,32,,,,,,,,,,*39
2017-12-14 12:04:06 1513271046.607572: $GPRMC,170407,V,3946.9548,N,08404.9341,W,1.3758,180.368,141217,,*2E
2017-12-14 12:04:06 1513271046.607752: $GPGSA,A,1,21,24,15,18,20,32,,,,,,,,,,*39
2017-12-14 12:04:06 1513271046.862851: $GPRMC,170407,V,3946.9558,N,08404.9345,W,1.5068,217.893,141217,,*2B
2017-12-14 12:04:06 1513271046.863011: $GPGSA,A,1,21,24,15,18,20,32,,,,,,,,,,*39
2017-12-14 12:04:07 1513271047.628164: $GPGSV,3,1,11,21,69,195,24,24,47,120,23,15,43,051,25,18,67,325,16*70
2017-12-14 12:04:07 1513271047.628336: $GPGSV,3,2,11,20,39,090,20,32,16,234,16,27,19,295,03,10,37,297,00*76
2017-12-14 12:04:07 1513271047.628402: $GPGSV,3,3,11,13,13,046,00,08,03,327,00,138,38,213,00*77
2017-12-14 12:04:07 1513271047.739254: $GPRMC,170408,V,3946.9568,N,08404.9343,W,0.8212,233.339,141217,,*2F
2017-12-14 12:04:07 1513271047.739411: $GPGSA,A,1,21,24,15,18,20,32,,,,,,,,,,*39
2017-12-14 12:04:08 1513271048.182294: $GPZDA,170409.00,14,12,2017,00,00*6F
2017-12-14 12:04:08 1513271048.182467: $GPGGA,170409,3946.9568,N,08404.9343,W,1,06,3.00,329.98,M,-33.324,M,,*70
2017-12-14 12:04:08 1513271048.182538: $GPRMC,170409,A,3946.9568,N,08404.9343,W,0.8231,236.172,141217,,*30
2017-12-14 12:04:08 1513271048.182604: $GPGSA,A,3,21,24,15,18,20,32,,,,,,,6.6,3.0,6.2*3E
2017-12-14 12:04:08 1513271048.182661: $GPGBS,170409,24.66,M,21.80,M,143.40,M*3A
2017-12-14 12:04:09 1513271049.181841: $GPZDA,170410.00,14,12,2017,00,00*67
2017-12-14 12:04:09 1513271049.182021: $GPGGA,170410,3946.9580,N,08404.9349,W,1,06,3.00,330.42,M,-33.324,M,,*7B
2017-12-14 12:04:09 1513271049.182155: $GPRMC,170410,A,3946.9580,N,08404.9349,W,1.1452,265.754,141217,,*3B
2017-12-14 12:04:09 1513271049.182220: $GPGSA,A,3,21,24,15,18,20,32,,,,,,,6.6,3.0,6.2*3E
2017-12-14 12:04:09 1513271049.182278: $GPGBS,170410,24.66,M,21.80,M,143.40,M*32
2017-12-14 12:04:10 1513271050.516649: $GPGSV,3,1,11,21,69,195,24,24,47,120,24,15,43,051,25,08,03,327,11*71
2017-12-14 12:04:10 1513271050.516838: $GPGSV,3,2,11,20,39,090,20,32,16,234,15,27,19,295,13,18,67,325,00*71
2017-12-14 12:04:10 1513271050.516904: $GPGSV,3,3,11,10,37,297,00,13,13,046,00,138,38,213,00*73
2017-12-14 12:04:10 1513271050.630043: $GPZDA,170411.00,14,12,2017,00,00*66
2017-12-14 12:04:10 1513271050.630202: $GPGGA,170411,3946.9580,N,08404.9356,W,1,06,3.00,330.34,M,-33.324,M,,*75
2017-12-14 12:04:10 1513271050.630268: $GPRMC,170411,A,3946.9580,N,08404.9356,W,1.3348,272.310,141217,,*38
2017-12-14 12:04:10 1513271050.630331: $GPGSA,A,3,21,24,15,20,32,27,,,,,,,6.6,3.0,6.2*32
2017-12-14 12:04:11 1513271051.180235: $GPZDA,170412.00,14,12,2017,00,00*65
2017-12-14 12:04:11 1513271051.180411: $GPGGA,170412,3946.9580,N,08404.9356,W,1,06,3.00,330.34,M,-33.324,M,,*76
2017-12-14 12:04:11 1513271051.180534: $GPRMC,170412,A,3946.9580,N,08404.9356,W,1.0113,239.953,141217,,*36
2017-12-14 12:04:11 1513271051.180603: $GPGSA,A,3,21,24,15,20,32,27,,,,,,,6.6,3.0,6.2*32
2017-12-14 12:04:12 1513271052.181119: $GPZDA,170413.00,14,12,2017,00,00*64
2017-12-14 12:04:12 1513271052.181286: $GPGGA,170413,3946.9581,N,08404.9357,W,1,06,3.00,331.74,M,-33.324,M,,*72
2017-12-14 12:04:12 1513271052.181353: $GPRMC,170413,A,3946.9581,N,08404.9357,W,1.2267,213.878,141217,,*35
2017-12-14 12:04:12 1513271052.181414: $GPGSA,A,3,21,24,15,20,32,27,,,,,,,6.6,3.0,6.2*32
2017-12-14 12:04:13 1513271053.517336: $GPGSV,3,1,11,21,69,195,24,24,47,120,24,15,43,051,25,18,67,325,00*70
2017-12-14 12:04:13 1513271053.517531: $GPGSV,3,2,11,20,39,090,20,32,16,234,16,27,19,295,06,10,37,297,00*73
2017-12-14 12:04:13 1513271053.517602: $GPGSV,3,3,11,13,13,046,00,08,03,327,00,138,38,213,00*77
2017-12-14 12:04:13 1513271053.630705: $GPZDA,170414.00,14,12,2017,00,00*63
2017-12-14 12:04:13 1513271053.630859: $GPGGA,170414,3946.9580,N,08404.9366,W,1,05,3.00,335.24,M,-33.324,M,,*74
2017-12-14 12:04:13 1513271053.630925: $GPRMC,170414,A,3946.9580,N,08404.9366,W,0.9371,229.152,141217,,*35
2017-12-14 12:04:13 1513271053.630985: $GPGSA,A,3,21,24,15,20,32,,,,,,,,6.6,3.0,6.2*37
2017-12-14 12:04:14 1513271054.180911: $GPZDA,170415.00,14,12,2017,00,00*62
2017-12-14 12:04:14 1513271054.181055: $GPGGA,170415,3946.9580,N,08404.9367,W,1,05,3.00,336.64,M,-33.324,M,,*73
2017-12-14 12:04:14 1513271054.181124: $GPRMC,170415,A,3946.9580,N,08404.9367,W,0.6690,259.940,141217,,*3C
2017-12-14 12:04:14 1513271054.181186: $GPGSA,A,3,21,24,15,20,32,,,,,,,,6.6,3.0,6.2*37
2017-12-14 12:04:15 1513271055.180917: $GPZDA,170416.00,14,12,2017,00,00*61
2017-12-14 12:04:15 1513271055.181086: $GPGGA,170416,3946.9577,N,08404.9367,W,1,05,3.00,337.40,M,-33.324,M,,*7F
2017-12-14 12:04:15 1513271055.181152: $GPRMC,170416,A,3946.9577,N,08404.9367,W,0.6723,289.509,141217,,*32
2017-12-14 12:04:15 1513271055.181213: $GPGSA,A,3,21,24,15,20,32,,,,,,,,6.6,3.0,6.2*37
2017-12-14 12:04:16 1513271056.517118: $GPGSV,3,1,11,21,69,195,24,24,47,120,24,15,43,051,25,18,67,325,00*70
2017-12-14 12:04:16 1513271056.517262: $GPGSV,3,2,11,20,39,090,21,32,16,234,16,27,19,295,12,10,37,297,00*77
2017-12-14 12:04:16 1513271056.517326: $GPGSV,3,3,11,13,13,046,00,08,03,327,00,138,38,213,00*77
2017-12-14 12:04:16 1513271056.630536: $GPZDA,170417.00,14,12,2017,00,00*60
2017-12-14 12:04:16 1513271056.630706: $GPGGA,170417,3946.9577,N,08404.9367,W,1,05,3.00,337.40,M,-33.324,M,,*7E
2017-12-14 12:04:16 1513271056.630772: $GPRMC,170417,A,3946.9577,N,08404.9367,W,0.3306,342.355,141217,,*3C
2017-12-14 12:04:16 1513271056.630833: $GPGSA,A,3,21,24,15,20,32,,,,,,,,6.6,3.0,6.2*37
2017-12-14 12:04:17 1513271057.181491: $GPZDA,170418.00,14,12,2017,00,00*6F
2017-12-14 12:04:17 1513271057.181661: $GPGGA,170418,3946.9579,N,08404.9376,W,1,05,3.00,340.13,M,-33.324,M,,*79
2017-12-14 12:04:17 1513271057.181727: $GPRMC,170418,A,3946.9579,N,08404.9376,W,0.8311,312.916,141217,,*38
2017-12-14 12:04:17 1513271057.181788: $GPGSA,A,3,21,24,15,20,32,,,,,,,,6.6,3.0,6.2*37
2017-12-14 12:04:18 1513271058.181531: $GPZDA,170419.00,14,12,2017,00,00*6E
2017-12-14 12:04:18 1513271058.181699: $GPGGA,170419,3946.9583,N,08404.9376,W,1,05,3.00,340.77,M,-33.324,M,,*7F
2017-12-14 12:04:18 1513271058.181764: $GPRMC,170419,A,3946.9583,N,08404.9376,W,1.4215,311.360,141217,,*3C
2017-12-14 12:04:18 1513271058.181825: $GPGSA,A,3,21,24,15,20,32,,,,,,,,6.6,3.0,6.2*37
2017-12-14 12:04:19 1513271059.517814: $GPGSV,3,1,11,21,69,195,24,24,47,120,24,15,43,051,25,18,67,325,00*70
2017-12-14 12:04:19 1513271059.517992: $GPGSV,3,2,11,20,39,090,20,32,16,234,16,27,19,295,12,10,37,297,00*76
2017-12-14 12:04:19 1513271059.518058: $GPGSV,3,3,11,13,13,046,00,08,03,327,00,138,38,213,00*77
2017-12-14 12:04:19 1513271059.631181: $GPZDA,170420.00,14,12,2017,00,00*64
2017-12-14 12:04:19 1513271059.631336: $GPGGA,170420,3946.9579,N,08404.9377,W,1,06,3.00,341.54,M,-33.324,M,,*72
2017-12-14 12:04:19 1513271059.631455: $GPRMC,170420,A,3946.9579,N,08404.9377,W,1.0304,304.386,141217,,*3B
2017-12-14 12:04:19 1513271059.631517: $GPGSA,A,3,21,24,15,20,32,27,,,,,,,6.6,3.0,6.2*32
2017-12-14 12:04:20 1513271060.182635: $GPZDA,170421.00,14,12,2017,00,00*65
2017-12-14 12:04:20 1513271060.182786: $GPGGA,170421,3946.9581,N,08404.9378,W,1,06,3.00,344.35,M,-33.324,M,,*79
2017-12-14 12:04:20 1513271060.182851: $GPRMC,170421,A,3946.9581,N,08404.9378,W,0.8713,313.339,141217,,*3B
2017-12-14 12:04:20 1513271060.182912: $GPGSA,A,3,21,24,15,20,32,27,,,,,,,6.6,3.0,6.2*32
2017-12-14 12:04:21 1513271061.181451: $GPZDA,170422.00,14,12,2017,00,00*66
2017-12-14 12:04:21 1513271061.181620: $GPGGA,170422,3946.9581,N,08404.9379,W,1,06,3.00,345.75,M,-33.324,M,,*7E
2017-12-14 12:04:21 1513271061.181686: $GPRMC,170422,A,3946.9581,N,08404.9379,W,0.7069,291.282,141217,,*36
2017-12-14 12:04:21 1513271061.181747: $GPGSA,A,3,21,24,15,20,32,27,,,,,,,6.6,3.0,6.2*32
2017-12-14 12:04:22 1513271062.516974: $GPGSV,3,1,11,21,69,195,24,24,47,120,24,15,43,051,25,18,67,325,00*70
2017-12-14 12:04:22 1513271062.517150: $GPGSV,3,2,11,20,39,090,20,32,16,234,16,27,19,295,12,10,37,297,00*76
2017-12-14 12:04:22 1513271062.517216: $GPGSV,3,3,11,13,13,046,00,08,03,327,00,138,38,213,00*77
2017-12-14 12:04:22 1513271062.630564: $GPZDA,170423.00,14,12,2017,00,00*67
2017-12-14 12:04:22 1513271062.630686: $GPGGA,170423,3946.9581,N,08404.9378,W,1,06,3.00,344.35,M,-33.324,M,,*7B
2017-12-14 12:04:22 1513271062.630749: $GPRMC,170423,A,3946.9581,N,08404.9378,W,0.6690,259.940,141217,,*36
2017-12-14 12:04:22 1513271062.630810: $GPGSA,A,3,21,24,15,20,32,27,,,,,,,6.6,3.0,6.2*32
2017-12-14 12:04:23 1513271063.180734: $GPZDA,170424.00,14,12,2017,00,00*60
2017-12-14 12:04:23 1513271063.180901: $GPGGA,170424,3946.9578,N,08404.9379,W,1,06,3.00,346.52,M,-33.324,M,,*78
2017-12-14 12:04:23 1513271063.180967: $GPRMC,170424,A,3946.9578,N,08404.9379,W,0.6484,222.990,141217,,*30
2017-12-14 12:04:23 1513271063.181027: $GPGSA,A,3,21,24,15,20,32,27,,,,,,,6.6,3.0,6.2*32
