2017-11-16 17:12:05 1510870325.842420: {"class":"VERSION","release":"3.17","rev":"3.17","proto_major":3,"proto_minor":12}
2017-11-16 17:12:05 1510870325.842896: {"class":"DEVICES","devices":[{"class":"DEVICE","path":"/dev/ttyUSB0","driver":"SiRF","subtype":"9\u0006GSD4e_4.1.2-P1_RPATCH.05-F-GPS-4R-1510281 11/03/2015 307","activated":"2017-11-16T22:12:05.714Z","flags":1,"native":1,"bps":4800,"parity":"N","stopbits":1,"cycle":1.00}]}
2017-11-16 17:12:05 1510870325.843028: {"class":"WATCH","enable":true,"json":false,"nmea":true,"raw":0,"scaled":false,"timing":false,"split24":false,"pps":false}
2017-11-16 17:12:06 1510870326.735826: $GPGSV,3,1,12,01,19,310,41,10,59,142,48,24,05,046,26,12,25,060,49*7A
2017-11-16 17:12:06 1510870326.735991: $GPGSV,3,2,12,14,61,309,47,18,28,141,45,22,11,312,43,11,10,291,38*71
2017-11-16 17:12:06 1510870326.736051: $GPGSV,3,3,12,25,36,103,47,31,45,217,49,32,70,358,49,138,38,213,44*47
2017-11-16 17:12:06 1510870326.849047: $GPZDA,221205.00,16,11,2017,00,00*63
2017-11-16 17:12:06 1510870326.849325: $GPGGA,221205,3946.9564,N,08404.9820,W,2,12,0.80,313.65,M,-33.324,M,,*79
2017-11-16 17:12:06 1510870326.849443: $GPRMC,221205,A,3946.9564,N,08404.9820,W,0.0000,0.000,161117,,*35
2017-11-16 17:12:06 1510870326.849548: $GPGSA,A,3,1,10,24,12,14,18,22,11,25,31,32,138,1.6,0.8,1.3*38
2017-11-16 17:12:07 1510870327.399966: $GPZDA,221206.00,16,11,2017,00,00*60
2017-11-16 17:12:07 1510870327.400150: $GPGGA,221206,3946.9564,N,08404.9820,W,2,12,0.80,313.65,M,-33.324,M,,*7A
2017-11-16 17:12:07 1510870327.400211: $GPRMC,221206,A,3946.9564,N,08404.9820,W,0.0000,0.000,161117,,*36
2017-11-16 17:12:07 1510870327.400266: $GPGSA,A,3,1,10,24,12,14,18,22,11,25,31,32,138,1.6,0.8,1.3*38
2017-11-16 17:12:08 1510870328.399552: $GPZDA,221207.00,16,11,2017,00,00*61
2017-11-16 17:12:08 1510870328.399731: $GPGGA,221207,3946.9564,N,08404.9820,W,2,12,0.80,313.65,M,-33.324,M,,*7B
2017-11-16 17:12:08 1510870328.399792: $GPRMC,221207,A,3946.9564,N,08404.9820,W,0.0000,0.000,161117,,*37
2017-11-16 17:12:08 1510870328.399847: $GPGSA,A,3,1,10,24,12,14,18,22,11,25,31,32,138,1.6,0.8,1.3*38
2017-11-16 17:12:09 1510870329.735382: $GPGSV,3,1,12,01,19,310,41,10,59,142,48,24,05,046,26,12,25,060,49*7A
2017-11-16 17:12:09 1510870329.735568: $GPGSV,3,2,12,14,61,309,47,18,28,141,45,22,11,312,43,11,10,291,38*71
2017-11-16 17:12:09 1510870329.735645: $GPGSV,3,3,12,25,36,103,47,31,45,217,49,32,70,358,49,138,38,213,44*47
2017-11-16 17:12:09 1510870329.848670: $GPZDA,221208.00,16,11,2017,00,00*6E
2017-11-16 17:12:09 1510870329.848840: $GPGGA,221208,3946.9564,N,08404.9820,W,2,12,0.80,313.65,M,-33.324,M,,*74
2017-11-16 17:12:09 1510870329.848901: $GPRMC,221208,A,3946.9564,N,08404.9820,W,0.0000,0.000,161117,,*38
2017-11-16 17:12:09 1510870329.848956: $GPGSA,A,3,1,10,24,12,14,18,22,11,25,31,32,138,1.6,0.8,1.3*38
2017-11-16 17:12:10 1510870330.400157: $GPZDA,221209.00,16,11,2017,00,00*6F
2017-11-16 17:12:10 1510870330.400323: $GPGGA,221209,3946.9564,N,08404.9820,W,2,12,0.80,313.65,M,-33.324,M,,*75
2017-11-16 17:12:10 1510870330.400386: $GPRMC,221209,A,3946.9564,N,08404.9820,W,0.0000,0.000,161117,,*39
2017-11-16 17:12:10 1510870330.400442: $GPGSA,A,3,1,10,24,12,14,18,22,11,25,31,32,138,1.6,0.8,1.3*38
2017-11-16 17:12:11 1510870331.398679: $GPZDA,221210.00,16,11,2017,00,00*67
2017-11-16 17:12:11 1510870331.398847: $GPGGA,221210,3946.9564,N,08404.9820,W,2,12,0.80,313.65,M,-33.324,M,,*7D
2017-11-16 17:12:11 1510870331.398907: $GPRMC,221210,A,3946.9564,N,08404.9820,W,0.0000,0.000,161117,,*31
2017-11-16 17:12:11 1510870331.398963: $GPGSA,A,3,1,10,24,12,14,18,22,11,25,31,32,138,1.6,0.8,1.3*38
2017-11-16 17:12:12 1510870332.735693: $GPGSV,3,1,12,01,19,310,40,10,59,142,47,24,05,046,25,12,25,060,50*7F
2017-11-16 17:12:12 1510870332.735850: $GPGSV,3,2,12,14,61,309,47,18,28,141,45,22,11,312,43,11,10,291,37*7E
2017-11-16 17:12:12 1510870332.735911: $GPGSV,3,3,12,25,36,103,47,31,45,217,49,32,70,358,50,138,38,213,44*4F
2017-11-16 17:12:12 1510870332.849029: $GPZDA,221211.00,16,11,2017,00,00*66
2017-11-16 17:12:12 1510870332.849192: $GPGGA,221211,3946.9564,N,08404.9820,W,2,12,0.80,313.65,M,-33.324,M,,*7C
2017-11-16 17:12:12 1510870332.849325: $GPRMC,221211,A,3946.9564,N,08404.9820,W,0.0000,0.000,161117,,*30
2017-11-16 17:12:12 1510870332.849383: $GPGSA,A,3,1,10,24,12,14,18,22,11,25,31,32,138,1.6,0.8,1.3*38
2017-11-16 17:12:13 1510870333.399925: $GPZDA,221212.00,16,11,2017,00,00*65
2017-11-16 17:12:13 1510870333.400091: $GPGGA,221212,3946.9564,N,08404.9820,W,2,12,0.80,313.65,M,-33.324,M,,*7F
2017-11-16 17:12:13 1510870333.400153: $GPRMC,221212,A,3946.9564,N,08404.9820,W,0.0000,0.000,161117,,*33
2017-11-16 17:12:13 1510870333.400208: $GPGSA,A,3,1,10,24,12,14,18,22,11,25,31,32,138,1.6,0.8,1.3*38
2017-11-16 17:12:14 1510870334.393631: $GPZDA,221213.00,16,11,2017,00,00*64
2017-11-16 17:12:14 1510870334.393808: $GPGGA,221213,3946.9564,N,08404.9820,W,2,12,0.80,313.65,M,-33.324,M,,*7E
2017-11-16 17:12:14 1510870334.393880: $GPRMC,221213,A,3946.9564,N,08404.9820,W,0.0000,0.000,161117,,*32
2017-11-16 17:12:14 1510870334.393968: $GPGSA,A,3,1,10,24,12,14,18,22,11,25,31,32,138,1.6,0.8,1.3*38
2017-11-16 17:12:15 1510870335.735350: $GPGSV,3,1,12,01,19,310,39,10,59,142,47,24,05,046,25,12,25,060,49*79
2017-11-16 17:12:15 1510870335.735538: $GPGSV,3,2,12,14,61,309,46,18,28,141,45,22,11,312,43,11,10,291,36*7E
2017-11-16 17:12:15 1510870335.735615: $GPGSV,3,3,12,25,36,103,46,31,45,217,49,32,70,358,50,138,38,213,44*4E
2017-11-16 17:12:15 1510870335.848653: $GPZDA,221214.00,16,11,2017,00,00*63
2017-11-16 17:12:15 1510870335.848814: $GPGGA,221214,3946.9564,N,08404.9820,W,2,12,0.80,313.65,M,-33.324,M,,*79
2017-11-16 17:12:15 1510870335.848875: $GPRMC,221214,A,3946.9564,N,08404.9820,W,0.0000,0.000,161117,,*35
2017-11-16 17:12:15 1510870335.848930: $GPGSA,A,3,1,10,24,12,14,18,22,11,25,31,32,138,1.6,0.8,1.3*38
