2017-11-15 18:55:37 1510790137.453424: {"class":"VERSION","release":"3.17","rev":"3.17","proto_major":3,"proto_minor":12}
2017-11-15 18:55:37 1510790137.453865: {"class":"DEVICES","devices":[{"class":"DEVICE","path":"/dev/ttyUSB0","driver":"SiRF","subtype":"9\u0006GSD4e_4.1.2-P1_RPATCH.05-F-GPS-4R-1510281 11/03/2015 307","activated":"2017-11-15T23:55:37.446Z","flags":1,"native":1,"bps":4800,"parity":"N","stopbits":1,"cycle":1.00}]}
2017-11-15 18:55:37 1510790137.453984: {"class":"WATCH","enable":true,"json":false,"nmea":true,"raw":0,"scaled":false,"timing":false,"split24":false,"pps":false}
2017-11-15 18:55:38 1510790138.329006: $GPZDA,235537.00,15,11,2017,00,00*63
2017-11-15 18:55:38 1510790138.329165: $GPGGA,235537,3946.9514,N,08404.9602,W,1,07,1.40,306.14,M,-33.324,M,,*7B
2017-11-15 18:55:38 1510790138.329225: $GPRMC,235537,A,3946.9514,N,08404.9602,W,0.2422,273.794,151117,,*36
2017-11-15 18:55:38 1510790138.329281: $GPGSA,A,3,10,14,3,32,31,26,16,,,,,,3.4,1.4,2.9*0C
2017-11-15 18:55:39 1510790139.664874: $GPGSV,3,1,11,10,12,159,10,14,65,066,12,03,29,312,16,32,48,093,26*7C
2017-11-15 18:55:39 1510790139.665035: $GPGSV,3,2,11,31,78,337,18,26,36,177,21,22,46,292,00,16,07,190,11*7B
2017-11-15 18:55:39 1510790139.665095: $GPGSV,3,3,11,25,29,048,00,01,14,265,00,29,04,085,00*4E
2017-11-15 18:55:39 1510790139.778163: $GPZDA,235538.00,15,11,2017,00,00*6C
2017-11-15 18:55:39 1510790139.778322: $GPGGA,235538,3946.9518,N,08404.9609,W,1,07,1.40,306.70,M,-33.324,M,,*71
2017-11-15 18:55:39 1510790139.778382: $GPRMC,235538,A,3946.9518,N,08404.9609,W,0.7621,287.945,151117,,*33
2017-11-15 18:55:39 1510790139.778437: $GPGSA,A,3,10,14,3,32,31,26,16,,,,,,3.4,1.4,2.9*0C
2017-11-15 18:55:40 1510790140.329055: $GPZDA,235539.00,15,11,2017,00,00*6D
2017-11-15 18:55:40 1510790140.329220: $GPGGA,235539,3946.9518,N,08404.9609,W,1,07,1.40,306.70,M,-33.324,M,,*70
2017-11-15 18:55:40 1510790140.329281: $GPRMC,235539,A,3946.9518,N,08404.9609,W,0.5912,309.172,151117,,*34
2017-11-15 18:55:40 1510790140.329338: $GPGSA,A,3,10,14,3,32,31,26,16,,,,,,3.4,1.4,2.9*0C
2017-11-15 18:55:41 1510790141.329414: $GPZDA,235540.00,15,11,2017,00,00*63
2017-11-15 18:55:41 1510790141.329592: $GPGGA,235540,3946.9522,N,08404.9609,W,1,07,1.40,307.34,M,-33.324,M,,*76
2017-11-15 18:55:41 1510790141.329654: $GPRMC,235540,A,3946.9522,N,08404.9609,W,0.9948,317.276,151117,,*38
2017-11-15 18:55:41 1510790141.329733: $GPGSA,A,3,10,14,3,32,31,26,16,,,,,,3.4,1.4,2.9*0C
2017-11-15 18:55:42 1510790142.701464: $GPGSV,3,1,11,10,12,159,09,14,65,066,13,03,29,312,16,32,48,093,26*75
2017-11-15 18:55:42 1510790142.701635: $GPGSV,3,2,11,31,78,337,17,26,36,177,21,22,46,292,10,16,07,190,10*74
2017-11-15 18:55:42 1510790142.701714: $GPGSV,3,3,11,25,29,048,00,01,14,265,00,29,04,085,00*4E
2017-11-15 18:55:42 1510790142.815158: $GPZDA,235541.00,15,11,2017,00,00*62
2017-11-15 18:55:42 1510790142.815308: $GPGGA,235541,3946.9523,N,08404.9616,W,1,07,1.40,307.26,M,-33.324,M,,*7B
2017-11-15 18:55:42 1510790142.815368: $GPRMC,235541,A,3946.9523,N,08404.9616,W,0.8011,299.090,151117,,*3F
2017-11-15 18:55:42 1510790142.815424: $GPGSA,A,3,10,14,3,32,31,26,16,,,,,,3.4,1.4,2.9*0C
2017-11-15 18:55:43 1510790143.331050: $GPZDA,235542.00,15,11,2017,00,00*61
2017-11-15 18:55:43 1510790143.331225: $GPGGA,235542,3946.9523,N,08404.9616,W,1,07,1.40,307.26,M,-33.324,M,,*78
2017-11-15 18:55:43 1510790143.331287: $GPRMC,235542,A,3946.9523,N,08404.9616,W,0.8011,299.090,151117,,*3C
2017-11-15 18:55:43 1510790143.331342: $GPGSA,A,3,10,14,3,32,31,26,16,,,,,,3.4,1.4,2.9*0C
2017-11-15 18:55:44 1510790144.371874: $GPZDA,235543.00,15,11,2017,00,00*60
2017-11-15 18:55:44 1510790144.372026: $GPGGA,235543,3946.9530,N,08404.9615,W,1,07,1.40,307.13,M,-33.324,M,,*7E
2017-11-15 18:55:44 1510790144.372086: $GPRMC,235543,A,3946.9530,N,08404.9615,W,0.7238,320.710,151117,,*36
2017-11-15 18:55:44 1510790144.372142: $GPGSA,A,3,10,14,3,32,31,26,16,,,,,,3.4,1.4,2.9*0C
2017-11-15 18:55:45 1510790145.702251: $GPGSV,3,1,11,10,12,159,10,14,65,066,13,03,29,312,16,32,48,093,25*7E
2017-11-15 18:55:45 1510790145.702419: $GPGSV,3,2,11,31,78,337,17,26,36,177,21,22,46,292,07,16,07,190,09*7A
2017-11-15 18:55:45 1510790145.702531: $GPGSV,3,3,11,25,29,048,00,01,14,265,00,29,04,085,00*4E
2017-11-15 18:55:45 1510790145.816249: $GPZDA,235544.00,15,11,2017,00,00*67
2017-11-15 18:55:45 1510790145.816415: $GPGGA,235544,3946.9530,N,08404.9615,W,1,08,1.40,307.13,M,-33.324,M,,*76
2017-11-15 18:55:45 1510790145.816477: $GPRMC,235544,A,3946.9530,N,08404.9615,W,0.5857,338.291,151117,,*35
2017-11-15 18:55:45 1510790145.816533: $GPGSA,A,3,10,14,3,32,31,26,22,16,,,,,3.4,1.4,2.9*0C
2017-11-15 18:55:46 1510790146.441315: $GPZDA,235545.00,15,11,2017,00,00*66
2017-11-15 18:55:46 1510790146.441561: $GPGGA,235545,3946.9534,N,08404.9615,W,1,08,1.40,307.77,M,-33.324,M,,*71
2017-11-15 18:55:46 1510790146.441632: $GPRMC,235545,A,3946.9534,N,08404.9615,W,0.4844,273.794,151117,,*3D
2017-11-15 18:55:46 1510790146.441739: $GPGSA,A,3,10,14,3,32,31,26,22,16,,,,,3.4,1.4,2.9*0C
2017-11-15 18:55:47 1510790147.371904: $GPZDA,235546.00,15,11,2017,00,00*65
2017-11-15 18:55:47 1510790147.372068: $GPGGA,235546,3946.9535,N,08404.9622,W,1,08,1.40,307.70,M,-33.324,M,,*70
2017-11-15 18:55:47 1510790147.372129: $GPRMC,235546,A,3946.9535,N,08404.9622,W,0.4844,273.794,151117,,*3B
2017-11-15 18:55:47 1510790147.372186: $GPGSA,A,3,10,14,3,32,31,26,22,16,,,,,3.4,1.4,2.9*0C
2017-11-15 18:55:48 1510790148.708852: $GPGSV,3,1,11,10,12,159,08,14,65,066,12,03,29,312,16,32,48,093,25*76
2017-11-15 18:55:48 1510790148.709041: $GPGSV,3,2,11,31,78,337,17,26,36,177,21,22,46,292,11,16,07,190,08*7C
2017-11-15 18:55:48 1510790148.709102: $GPGSV,3,3,11,25,29,048,04,01,14,265,00,29,04,085,00*4A
2017-11-15 18:55:48 1510790148.822212: $GPZDA,235547.00,15,11,2017,00,00*64
2017-11-15 18:55:48 1510790148.822373: $GPGGA,235547,3946.9539,N,08404.9622,W,1,08,1.40,308.34,M,-33.324,M,,*72
2017-11-15 18:55:48 1510790148.822434: $GPRMC,235547,A,3946.9539,N,08404.9622,W,0.5912,309.172,151117,,*37
2017-11-15 18:55:48 1510790148.822489: $GPGSA,A,3,10,14,3,32,31,26,22,16,,,,,3.4,1.4,2.9*0C
2017-11-15 18:55:49 1510790149.372247: $GPZDA,235548.00,15,11,2017,00,00*6B
2017-11-15 18:55:49 1510790149.372407: $GPGGA,235548,3946.9539,N,08404.9622,W,1,08,1.40,308.34,M,-33.324,M,,*7D
2017-11-15 18:55:49 1510790149.372467: $GPRMC,235548,A,3946.9539,N,08404.9622,W,0.5912,309.172,151117,,*38
2017-11-15 18:55:49 1510790149.372523: $GPGSA,A,3,10,14,3,32,31,26,22,16,,,,,3.4,1.4,2.9*0C
2017-11-15 18:55:50 1510790150.376894: $GPZDA,235549.00,15,11,2017,00,00*6A
2017-11-15 18:55:50 1510790150.377056: $GPGGA,235549,3946.9542,N,08404.9621,W,1,08,1.40,307.57,M,-33.324,M,,*79
2017-11-15 18:55:50 1510790150.377118: $GPRMC,235549,A,3946.9542,N,08404.9621,W,0.4844,273.794,151117,,*37
2017-11-15 18:55:50 1510790150.377174: $GPGSA,A,3,10,14,3,32,31,26,22,16,,,,,3.4,1.4,2.9*0C
2017-11-15 18:55:51 1510790151.708057: $GPGSV,3,1,12,10,12,159,09,14,65,066,13,03,29,312,16,32,48,093,25*75
2017-11-15 18:55:51 1510790151.708223: $GPGSV,3,2,12,31,78,337,18,26,36,177,21,22,46,292,12,16,07,190,09*72
2017-11-15 18:55:51 1510790151.708282: $GPGSV,3,3,12,25,29,048,14,01,14,265,00,29,04,085,00,138,38,213,00*49
2017-11-15 18:55:51 1510790151.821741: $GPZDA,235550.00,15,11,2017,00,00*62
2017-11-15 18:55:51 1510790151.821912: $GPGGA,235550,3946.9546,N,08404.9621,W,1,09,1.00,308.21,M,-33.324,M,,*7E
2017-11-15 18:55:51 1510790151.821973: $GPRMC,235550,A,3946.9546,N,08404.9621,W,0.2422,273.794,151117,,*31
2017-11-15 18:55:51 1510790151.822029: $GPGSA,A,3,10,14,3,32,31,26,22,16,25,,,,3.4,1.0,2.9*0F
2017-11-15 18:55:52 1510790152.367344: $GPZDA,235551.00,15,11,2017,00,00*63
2017-11-15 18:55:52 1510790152.367523: $GPGGA,235551,3946.9547,N,08404.9628,W,1,09,1.00,308.13,M,-33.324,M,,*76
2017-11-15 18:55:52 1510790152.367584: $GPRMC,235551,A,3946.9547,N,08404.9628,W,0.2422,273.794,151117,,*38
2017-11-15 18:55:52 1510790152.367640: $GPGSA,A,3,10,14,3,32,31,26,22,16,25,,,,3.4,1.0,2.9*0F
2017-11-15 18:55:53 1510790153.330864: $GPZDA,235552.00,15,11,2017,00,00*60
2017-11-15 18:55:53 1510790153.331027: $GPGGA,235552,3946.9547,N,08404.9628,W,1,09,1.00,308.13,M,-33.324,M,,*75
2017-11-15 18:55:53 1510790153.331139: $GPRMC,235552,A,3946.9547,N,08404.9628,W,0.4207,219.347,151117,,*3A
2017-11-15 18:55:53 1510790153.331197: $GPGSA,A,3,10,14,3,32,31,26,22,16,25,,,,3.4,1.0,2.9*0F
2017-11-15 18:55:54 1510790154.707590: $GPGSV,3,1,12,10,12,159,08,14,65,066,13,03,29,312,16,32,48,093,25*74
2017-11-15 18:55:54 1510790154.707775: $GPGSV,3,2,12,31,78,337,18,26,36,177,21,22,46,292,12,16,07,190,08*73
2017-11-15 18:55:54 1510790154.707836: $GPGSV,3,3,12,25,29,048,14,01,14,265,00,29,04,085,00,138,38,213,00*49
2017-11-15 18:55:54 1510790154.821413: $GPZDA,235553.00,15,11,2017,00,00*61
2017-11-15 18:55:54 1510790154.821647: $GPGGA,235553,3946.9547,N,08404.9628,W,1,09,1.00,308.13,M,-33.324,M,,*74
2017-11-15 18:55:54 1510790154.821718: $GPRMC,235553,A,3946.9547,N,08404.9628,W,0.4207,219.347,151117,,*3B
2017-11-15 18:55:54 1510790154.821783: $GPGSA,A,3,10,14,3,32,31,26,22,16,25,,,,3.4,1.0,2.9*0F
2017-11-15 18:55:55 1510790155.371795: $GPZDA,235554.00,15,11,2017,00,00*66
2017-11-15 18:55:55 1510790155.371957: $GPGGA,235554,3946.9546,N,08404.9621,W,1,09,1.00,308.21,M,-33.324,M,,*7A
2017-11-15 18:55:55 1510790155.372020: $GPRMC,235554,A,3946.9546,N,08404.9621,W,0.5287,182.716,151117,,*3C
2017-11-15 18:55:55 1510790155.372076: $GPGSA,A,3,10,14,3,32,31,26,22,16,25,,,,3.4,1.0,2.9*0F
2017-11-15 18:55:56 1510790156.367209: $GPZDA,235555.00,15,11,2017,00,00*67
2017-11-15 18:55:56 1510790156.367380: $GPGGA,235555,3946.9546,N,08404.9621,W,1,09,1.00,308.21,M,-33.324,M,,*7B
2017-11-15 18:55:56 1510790156.367442: $GPRMC,235555,A,3946.9546,N,08404.9621,W,0.1867,180.000,151117,,*3F
2017-11-15 18:55:56 1510790156.367500: $GPGSA,A,3,10,14,3,32,31,26,22,16,25,,,,3.4,1.0,2.9*0F
2017-11-15 18:55:57 1510790157.707949: $GPGSV,3,1,12,10,12,159,09,14,65,066,13,03,29,312,16,32,48,093,24*74
2017-11-15 18:55:57 1510790157.708123: $GPGSV,3,2,12,31,78,337,18,26,36,177,21,22,46,292,12,16,07,190,09*72
2017-11-15 18:55:57 1510790157.708183: $GPGSV,3,3,12,25,29,048,14,01,14,265,00,29,04,085,00,138,38,213,00*49
2017-11-15 18:55:57 1510790157.821509: $GPZDA,235556.00,15,11,2017,00,00*64
2017-11-15 18:55:57 1510790157.821673: $GPGGA,235556,3946.9551,N,08404.9621,W,1,09,1.00,308.85,M,-33.324,M,,*70
2017-11-15 18:55:57 1510790157.821738: $GPRMC,235556,A,3946.9551,N,08404.9621,W,0.4179,148.778,151117,,*35
2017-11-15 18:55:57 1510790157.821795: $GPGSA,A,3,10,14,3,32,31,26,22,16,25,,,,3.4,1.0,2.9*0F
2017-11-15 18:55:58 1510790158.331229: $GPZDA,235557.00,15,11,2017,00,00*65
2017-11-15 18:55:58 1510790158.331389: $GPGGA,235557,3946.9551,N,08404.9621,W,1,09,1.00,308.85,M,-33.324,M,,*71
2017-11-15 18:55:58 1510790158.331450: $GPRMC,235557,A,3946.9551,N,08404.9621,W,0.2422,93.794,151117,,*0C
2017-11-15 18:55:58 1510790158.331508: $GPGSA,A,3,10,14,3,32,31,26,22,16,25,,,,3.4,1.0,2.9*0F
2017-11-15 18:55:59 1510790159.371887: $GPZDA,235558.00,15,11,2017,00,00*6A
2017-11-15 18:55:59 1510790159.372046: $GPGGA,235558,3946.9551,N,08404.9621,W,1,09,1.00,308.85,M,-33.324,M,,*7E
2017-11-15 18:55:59 1510790159.372108: $GPRMC,235558,A,3946.9551,N,08404.9621,W,0.3155,129.994,151117,,*39
2017-11-15 18:55:59 1510790159.372164: $GPGSA,A,3,10,14,3,32,31,26,22,16,25,,,,3.4,1.0,2.9*0F
2017-11-15 18:56:00 1510790160.708926: $GPGSV,3,1,12,10,12,159,09,14,65,066,13,03,29,312,16,32,48,093,24*74
2017-11-15 18:56:00 1510790160.709101: $GPGSV,3,2,12,31,78,337,18,26,36,177,22,22,46,292,12,16,07,190,07*7F
2017-11-15 18:56:00 1510790160.709162: $GPGSV,3,3,12,25,29,048,13,01,14,265,00,29,04,085,00,138,38,213,00*4E
2017-11-15 18:56:00 1510790160.822525: $GPZDA,235559.00,15,11,2017,00,00*6B
2017-11-15 18:56:00 1510790160.822701: $GPGGA,235559,3946.9550,N,08404.9614,W,1,09,1.00,308.93,M,-33.324,M,,*7F
2017-11-15 18:56:00 1510790160.822767: $GPRMC,235559,A,3946.9550,N,08404.9614,W,0.7238,140.710,151117,,*3E
2017-11-15 18:56:00 1510790160.822823: $GPGSA,A,3,10,14,3,32,31,26,22,16,25,,,,3.4,1.0,2.9*0F
2017-11-15 18:56:01 1510790161.447538: $GPZDA,235600.00,15,11,2017,00,00*64
2017-11-15 18:56:01 1510790161.447719: $GPGGA,235600,3946.9550,N,08404.9614,W,1,09,1.00,308.93,M,-33.324,M,,*70
2017-11-15 18:56:01 1510790161.447834: $GPRMC,235600,A,3946.9550,N,08404.9614,W,0.5857,158.291,151117,,*35
2017-11-15 18:56:01 1510790161.447892: $GPGSA,A,3,10,14,3,32,31,26,22,16,25,,,,3.4,1.0,2.9*0F
2017-11-15 18:56:02 1510790162.372126: $GPZDA,235601.00,15,11,2017,00,00*65
2017-11-15 18:56:02 1510790162.372294: $GPGGA,235601,3946.9550,N,08404.9614,W,1,09,1.00,308.93,M,-33.324,M,,*71
2017-11-15 18:56:02 1510790162.372358: $GPRMC,235601,A,3946.9550,N,08404.9614,W,0.5912,129.172,151117,,*3C
2017-11-15 18:56:02 1510790162.372415: $GPGSA,A,3,10,14,3,32,31,26,22,16,25,,,,3.4,1.0,2.9*0F
2017-11-15 18:56:03 1510790163.709160: $GPGSV,3,1,12,10,12,159,09,14,65,066,12,03,29,312,16,32,48,093,24*75
2017-11-15 18:56:03 1510790163.709314: $GPGSV,3,2,12,31,78,337,19,26,36,177,22,22,46,292,08,16,07,190,04*76
2017-11-15 18:56:03 1510790163.709376: $GPGSV,3,3,12,25,29,048,10,01,14,265,00,29,04,085,00,138,38,213,00*4D
2017-11-15 18:56:03 1510790163.822527: $GPZDA,235602.00,15,11,2017,00,00*66
2017-11-15 18:56:03 1510790163.822703: $GPGGA,235602,3946.9550,N,08404.9607,W,1,08,1.00,309.01,M,-33.324,M,,*7B
2017-11-15 18:56:03 1510790163.822767: $GPRMC,235602,A,3946.9550,N,08404.9607,W,0.4179,148.778,151117,,*32
2017-11-15 18:56:03 1510790163.822826: $GPGSA,A,3,10,14,3,32,31,26,22,25,,,,,3.4,1.0,2.9*08
2017-11-15 18:56:04 1510790164.329603: $GPZDA,235603.00,15,11,2017,00,00*67
2017-11-15 18:56:04 1510790164.397477: $GPGGA,235603,3946.9550,N,08404.9607,W,1,08,1.00,309.01,M,-33.324,M,,*7A
2017-11-15 18:56:04 1510790164.397599: $GPRMC,235603,A,3946.9550,N,08404.9607,W,0.4179,148.778,151117,,*33
2017-11-15 18:56:04 1510790164.397660: $GPGSA,A,3,10,14,3,32,31,26,22,25,,,,,3.4,1.0,2.9*08
2017-11-15 18:56:05 1510790165.330490: $GPZDA,235604.00,15,11,2017,00,00*60
2017-11-15 18:56:05 1510790165.330663: $GPGGA,235604,3946.9550,N,08404.9607,W,1,08,1.00,309.01,M,-33.324,M,,*7D
2017-11-15 18:56:05 1510790165.330729: $GPRMC,235604,A,3946.9550,N,08404.9607,W,0.7621,107.945,151117,,*36
2017-11-15 18:56:05 1510790165.330785: $GPGSA,A,3,10,14,3,32,31,26,22,25,,,,,3.4,1.0,2.9*08
2017-11-15 18:56:06 1510790166.665793: $GPGSV,3,1,12,10,12,159,08,14,65,066,13,03,29,312,16,32,48,093,23*72
2017-11-15 18:56:06 1510790166.665965: $GPGSV,3,2,12,31,78,337,19,26,36,177,22,22,46,292,08,16,07,190,11*72
2017-11-15 18:56:06 1510790166.666024: $GPGSV,3,3,12,25,29,048,09,01,14,265,00,29,04,085,00,138,38,213,00*45
2017-11-15 18:56:06 1510790166.779082: $GPZDA,235605.00,15,11,2017,00,00*61
2017-11-15 18:56:06 1510790166.779241: $GPGGA,235605,3946.9554,N,08404.9600,W,1,08,1.00,309.73,M,-33.324,M,,*7A
2017-11-15 18:56:06 1510790166.779301: $GPRMC,235605,A,3946.9554,N,08404.9600,W,0.4844,93.794,151117,,*04
2017-11-15 18:56:06 1510790166.779358: $GPGSA,A,3,10,14,3,32,31,26,22,25,,,,,3.4,1.0,2.9*08
2017-11-15 18:56:07 1510790167.330250: $GPZDA,235606.00,15,11,2017,00,00*62
2017-11-15 18:56:07 1510790167.330408: $GPGGA,235606,3946.9554,N,08404.9600,W,1,08,1.20,309.73,M,-33.324,M,,*7B
2017-11-15 18:56:07 1510790167.330469: $GPRMC,235606,A,3946.9554,N,08404.9600,W,0.3155,129.994,151117,,*37
2017-11-15 18:56:07 1510790167.330526: $GPGSA,A,3,10,14,3,32,31,26,22,25,,,,,3.4,1.2,2.9*0A
