2017-12-01 13:43:41 1512153821.526754: {"class":"VERSION","release":"3.16","rev":"3.16-4","proto_major":3,"proto_minor":11}
2017-12-01 13:43:41 1512153821.527147: {"class":"DEVICES","devices":[{"class":"DEVICE","path":"/dev/ttyUSB0","driver":"SiRF","subtype":"9\u0006GSD4e_4.1.2-P1_RPATCH.05-F-GPS-4R-1510281 11/03/2015 307","activated":"2017-12-01T18:43:41.514Z","flags":1,"native":1,"bps":4800,"parity":"N","stopbits":1,"cycle":1.00}]}
2017-12-01 13:43:41 1512153821.527269: {"class":"WATCH","enable":true,"json":false,"nmea":true,"raw":0,"scaled":false,"timing":false,"split24":false,"pps":false}
2017-12-01 13:43:42 1512153822.707456: $GPGSV,3,1,11,08,08,310,02,10,53,313,48,14,15,240,34,15,25,058,46*7D
2017-12-01 13:43:42 1512153822.707638: $GPGSV,3,2,11,18,77,027,43,20,22,106,47,21,48,183,46,24,53,084,46*7C
2017-12-01 13:43:42 1512153822.707706: $GPGSV,3,3,11,27,15,276,37,32,32,249,43,138,38,213,46*74
2017-12-01 13:43:42 1512153822.821219: $GPZDA,184343.00,01,12,2017,00,00*69
2017-12-01 13:43:42 1512153822.821602: $GPGGA,184343,3946.9588,N,08404.9857,W,2,11,0.80,294.35,M,-33.324,M,,*7C
2017-12-01 13:43:42 1512153822.821683: $GPRMC,184343,A,3946.9588,N,08404.9857,W,0.0000,0.000,011217,,*3D
2017-12-01 13:43:42 1512153822.821744: $GPGSA,A,3,8,10,14,15,18,20,21,24,27,32,138,,2.0,0.8,1.5*34
2017-12-01 13:43:43 1512153823.372958: $GPZDA,184344.00,01,12,2017,00,00*6E
2017-12-01 13:43:43 1512153823.373126: $GPGGA,184344,3946.9588,N,08404.9857,W,2,11,0.80,294.35,M,-33.324,M,,*7B
2017-12-01 13:43:43 1512153823.373192: $GPRMC,184344,A,3946.9588,N,08404.9857,W,0.0000,0.000,011217,,*3A
2017-12-01 13:43:43 1512153823.373252: $GPGSA,A,3,8,10,14,15,18,20,21,24,27,32,138,,2.0,0.8,1.5*34
2017-12-01 13:43:44 1512153824.372805: $GPZDA,184345.00,01,12,2017,00,00*6F
2017-12-01 13:43:44 1512153824.372972: $GPGGA,184345,3946.9588,N,08404.9857,W,2,11,0.80,294.35,M,-33.324,M,,*7A
2017-12-01 13:43:44 1512153824.373039: $GPRMC,184345,A,3946.9588,N,08404.9857,W,0.0000,0.000,011217,,*3B
2017-12-01 13:43:44 1512153824.373099: $GPGSA,A,3,8,10,14,15,18,20,21,24,27,32,138,,2.0,0.8,1.5*34
2017-12-01 13:43:44 1512153824.373157: $GPGBS,184345,2.67,M,3.86,M,8.82,M*3D
2017-12-01 13:43:45 1512153825.709144: $GPGSV,3,1,11,08,08,310,02,10,53,313,48,14,15,240,35,15,25,058,46*7C
2017-12-01 13:43:45 1512153825.709319: $GPGSV,3,2,11,18,77,027,43,20,22,106,46,21,48,183,46,24,53,084,46*7D
2017-12-01 13:43:45 1512153825.709386: $GPGSV,3,3,11,27,15,276,37,32,32,249,43,138,38,213,46*74
2017-12-01 13:43:45 1512153825.822796: $GPZDA,184346.00,01,12,2017,00,00*6C
2017-12-01 13:43:45 1512153825.822949: $GPGGA,184346,3946.9588,N,08404.9857,W,2,11,0.80,294.35,M,-33.324,M,,*79
2017-12-01 13:43:45 1512153825.823014: $GPRMC,184346,A,3946.9588,N,08404.9857,W,0.0000,0.000,011217,,*38
2017-12-01 13:43:45 1512153825.823075: $GPGSA,A,3,8,10,14,15,18,20,21,24,27,32,138,,2.0,0.8,1.5*34
2017-12-01 13:43:46 1512153826.383663: $GPZDA,184347.00,01,12,2017,00,00*6D
2017-12-01 13:43:46 1512153826.383888: $GPGGA,184347,3946.9588,N,08404.9857,W,2,11,1.00,294.35,M,-33.324,M,,*71
2017-12-01 13:43:46 1512153826.383978: $GPRMC,184347,A,3946.9588,N,08404.9857,W,0.0000,0.000,011217,,*39
2017-12-01 13:43:46 1512153826.384042: $GPGSA,A,3,8,10,14,15,18,20,21,24,27,32,138,,2.0,1.0,1.5*3D
2017-12-01 13:43:47 1512153827.372097: $GPZDA,184348.00,01,12,2017,00,00*62
2017-12-01 13:43:47 1512153827.372265: $GPGGA,184348,3946.9588,N,08404.9857,W,2,11,0.80,294.35,M,-33.324,M,,*77
2017-12-01 13:43:47 1512153827.372332: $GPRMC,184348,A,3946.9588,N,08404.9857,W,0.0000,0.000,011217,,*36
2017-12-01 13:43:47 1512153827.372393: $GPGSA,A,3,8,10,14,15,18,20,21,24,27,32,138,,2.0,0.8,1.5*34
2017-12-01 13:43:48 1512153828.707437: $GPGSV,3,1,11,08,08,310,34,10,53,313,48,14,15,240,35,15,25,058,46*79
2017-12-01 13:43:48 1512153828.707626: $GPGSV,3,2,11,18,77,027,43,20,22,106,47,21,48,183,46,24,53,084,47*7D
2017-12-01 13:43:48 1512153828.707694: $GPGSV,3,3,11,27,15,276,37,32,32,249,43,138,38,213,46*74
2017-12-01 13:43:48 1512153828.821196: $GPZDA,184349.00,01,12,2017,00,00*63
2017-12-01 13:43:48 1512153828.821405: $GPGGA,184349,3946.9593,N,08404.9857,W,2,11,0.80,296.39,M,-33.324,M,,*72
2017-12-01 13:43:48 1512153828.821536: $GPRMC,184349,A,3946.9593,N,08404.9857,W,0.0000,0.000,011217,,*3D
2017-12-01 13:43:48 1512153828.821599: $GPGSA,A,3,8,10,14,15,18,20,21,24,27,32,138,,2.0,0.8,1.5*34
2017-12-01 13:43:49 1512153829.376076: $GPZDA,184350.00,01,12,2017,00,00*6B
2017-12-01 13:43:49 1512153829.376265: $GPGGA,184350,3946.9593,N,08404.9857,W,2,11,1.00,296.39,M,-33.324,M,,*73
2017-12-01 13:43:49 1512153829.376361: $GPRMC,184350,A,3946.9593,N,08404.9857,W,0.0000,0.000,011217,,*35
2017-12-01 13:43:49 1512153829.376423: $GPGSA,A,3,8,10,14,15,18,20,21,24,27,32,138,,2.0,1.0,1.5*3D
2017-12-01 13:43:50 1512153830.373696: $GPZDA,184351.00,01,12,2017,00,00*6A
2017-12-01 13:43:50 1512153830.373870: $GPGGA,184351,3946.9593,N,08404.9857,W,2,11,0.80,296.39,M,-33.324,M,,*7B
2017-12-01 13:43:50 1512153830.373937: $GPRMC,184351,A,3946.9593,N,08404.9857,W,0.0000,0.000,011217,,*34
2017-12-01 13:43:50 1512153830.373998: $GPGSA,A,3,8,10,14,15,18,20,21,24,27,32,138,,2.0,0.8,1.5*34
