2017-11-16 14:54:48 1510862088.375789: {"class":"VERSION","release":"3.17","rev":"3.17","proto_major":3,"proto_minor":12}
2017-11-16 14:54:48 1510862088.376263: {"class":"DEVICES","devices":[{"class":"DEVICE","path":"/dev/ttyUSB0","driver":"SiRF","subtype":"9\u0006GSD4e_4.1.2-P1_RPATCH.05-F-GPS-4R-1510281 11/03/2015 307","activated":"2017-11-16T19:54:48.353Z","flags":1,"native":1,"bps":4800,"parity":"N","stopbits":1,"cycle":1.00}]}
2017-11-16 14:54:48 1510862088.376378: {"class":"WATCH","enable":true,"json":false,"nmea":true,"raw":0,"scaled":false,"timing":false,"split24":false,"pps":false}
2017-11-16 14:54:48 1510862088.866050: $GPGSV,3,1,11,08,08,306,14,10,56,315,50,15,22,058,50,18,77,040,44*7A
2017-11-16 14:54:48 1510862088.866218: $GPGSV,3,2,11,21,45,183,47,20,19,109,45,24,52,079,49,27,14,271,42*70
2017-11-16 14:54:48 1510862088.866279: $GPGSV,3,3,11,32,35,252,47,14,18,243,44,138,38,213,44*70
2017-11-16 14:54:48 1510862088.979328: $GPZDA,195447.00,16,11,2017,00,00*6F
2017-11-16 14:54:48 1510862088.979520: $GPGGA,195447,3946.9575,N,08404.9848,W,2,11,0.80,301.77,M,-33.324,M,,*78
2017-11-16 14:54:48 1510862088.979582: $GPRMC,195447,A,3946.9575,N,08404.9848,W,0.0000,0.000,161117,,*37
2017-11-16 14:54:48 1510862088.979639: $GPGSA,A,3,8,10,15,18,21,20,24,27,32,14,138,,1.6,0.8,1.3*37
2017-11-16 14:54:49 1510862089.605051: $GPZDA,195448.00,16,11,2017,00,00*60
2017-11-16 14:54:49 1510862089.605241: $GPGGA,195448,3946.9575,N,08404.9848,W,2,11,0.80,301.77,M,-33.324,M,,*77
2017-11-16 14:54:49 1510862089.605305: $GPRMC,195448,A,3946.9575,N,08404.9848,W,0.0000,0.000,161117,,*38
2017-11-16 14:54:49 1510862089.605395: $GPGSA,A,3,8,10,15,18,21,20,24,27,32,14,138,,1.6,0.8,1.3*37
2017-11-16 14:54:50 1510862090.530739: $GPZDA,195449.00,16,11,2017,00,00*61
2017-11-16 14:54:50 1510862090.530924: $GPGGA,195449,3946.9575,N,08404.9848,W,2,11,0.80,301.77,M,-33.324,M,,*76
2017-11-16 14:54:50 1510862090.530991: $GPRMC,195449,A,3946.9575,N,08404.9848,W,0.0000,0.000,161117,,*39
2017-11-16 14:54:50 1510862090.531052: $GPGSA,A,3,8,10,15,18,21,20,24,27,32,14,138,,1.6,0.8,1.3*37
2017-11-16 14:54:51 1510862091.865160: $GPGSV,3,1,11,08,08,306,24,10,56,315,50,15,22,058,50,18,77,040,45*78
2017-11-16 14:54:51 1510862091.865325: $GPGSV,3,2,11,21,45,183,47,20,19,109,45,24,52,079,49,27,14,271,42*70
2017-11-16 14:54:51 1510862091.865390: $GPGSV,3,3,11,32,35,252,47,14,18,243,44,138,38,213,45*71
2017-11-16 14:54:51 1510862091.978635: $GPZDA,195450.00,16,11,2017,00,00*69
2017-11-16 14:54:51 1510862091.978828: $GPGGA,195450,3946.9575,N,08404.9848,W,2,11,0.80,301.77,M,-33.324,M,,*7E
2017-11-16 14:54:51 1510862091.978895: $GPRMC,195450,A,3946.9575,N,08404.9848,W,0.0000,0.000,161117,,*31
2017-11-16 14:54:51 1510862091.978955: $GPGSA,A,3,8,10,15,18,21,20,24,27,32,14,138,,1.6,0.8,1.3*37
2017-11-16 14:54:52 1510862092.493194: $GPZDA,195451.00,16,11,2017,00,00*68
2017-11-16 14:54:52 1510862092.493376: $GPGGA,195451,3946.9575,N,08404.9848,W,2,11,0.80,301.77,M,-33.324,M,,*7F
2017-11-16 14:54:52 1510862092.493444: $GPRMC,195451,A,3946.9575,N,08404.9848,W,0.0000,0.000,161117,,*30
2017-11-16 14:54:52 1510862092.493509: $GPGSA,A,3,8,10,15,18,21,20,24,27,32,14,138,,1.6,0.8,1.3*37
2017-11-16 14:54:53 1510862093.530153: $GPZDA,195452.00,16,11,2017,00,00*6B
2017-11-16 14:54:53 1510862093.530414: $GPGGA,195452,3946.9575,N,08404.9848,W,2,11,0.80,301.77,M,-33.324,M,,*7C
2017-11-16 14:54:53 1510862093.530498: $GPRMC,195452,A,3946.9575,N,08404.9848,W,0.0000,0.000,161117,,*33
2017-11-16 14:54:53 1510862093.530562: $GPGSA,A,3,8,10,15,18,21,20,24,27,32,14,138,,1.6,0.8,1.3*37
2017-11-16 14:54:54 1510862094.860753: $GPGSV,3,1,11,08,08,306,25,10,56,315,50,15,22,058,50,18,77,040,45*79
2017-11-16 14:54:54 1510862094.860964: $GPGSV,3,2,11,21,45,183,47,20,19,109,45,24,52,079,49,27,14,271,42*70
2017-11-16 14:54:54 1510862094.861038: $GPGSV,3,3,11,32,35,252,47,14,18,243,44,138,38,213,44*70
2017-11-16 14:54:54 1510862094.973781: $GPZDA,195453.00,16,11,2017,00,00*6A
2017-11-16 14:54:54 1510862094.973959: $GPGGA,195453,3946.9575,N,08404.9848,W,2,11,0.80,301.77,M,-33.324,M,,*7D
2017-11-16 14:54:54 1510862094.974077: $GPRMC,195453,A,3946.9575,N,08404.9848,W,0.0000,0.000,161117,,*32
2017-11-16 14:54:54 1510862094.974136: $GPGSA,A,3,8,10,15,18,21,20,24,27,32,14,138,,1.6,0.8,1.3*37
2017-11-16 14:54:55 1510862095.530976: $GPZDA,195454.00,16,11,2017,00,00*6D
2017-11-16 14:54:55 1510862095.531150: $GPGGA,195454,3946.9575,N,08404.9848,W,2,11,0.80,301.77,M,-33.324,M,,*7A
2017-11-16 14:54:55 1510862095.531236: $GPRMC,195454,A,3946.9575,N,08404.9848,W,0.0000,0.000,161117,,*35
2017-11-16 14:54:55 1510862095.531315: $GPGSA,A,3,8,10,15,18,21,20,24,27,32,14,138,,1.6,0.8,1.3*37
2017-11-16 14:54:56 1510862096.530595: $GPZDA,195455.00,16,11,2017,00,00*6C
2017-11-16 14:54:56 1510862096.530763: $GPGGA,195455,3946.9575,N,08404.9848,W,2,11,0.80,301.77,M,-33.324,M,,*7B
2017-11-16 14:54:56 1510862096.530825: $GPRMC,195455,A,3946.9575,N,08404.9848,W,0.0000,0.000,161117,,*34
2017-11-16 14:54:56 1510862096.530882: $GPGSA,A,3,8,10,15,18,21,20,24,27,32,14,138,,1.6,0.8,1.3*37
2017-11-16 14:54:57 1510862097.827594: $GPGSV,3,1,11,08,08,306,26,10,56,315,50,15,22,058,50,18,77,040,45*7A
2017-11-16 14:54:57 1510862097.827754: $GPGSV,3,2,11,21,45,183,46,20,19,109,45,24,52,079,48,27,14,271,43*71
2017-11-16 14:54:57 1510862097.827815: $GPGSV,3,3,11,32,35,252,47,14,18,243,44,138,38,213,44*70
2017-11-16 14:54:57 1510862097.940953: $GPZDA,195456.00,16,11,2017,00,00*6F
2017-11-16 14:54:57 1510862097.941120: $GPGGA,195456,3946.9575,N,08404.9848,W,2,11,0.80,301.77,M,-33.324,M,,*78
2017-11-16 14:54:57 1510862097.941182: $GPRMC,195456,A,3946.9575,N,08404.9848,W,0.0000,0.000,161117,,*37
2017-11-16 14:54:57 1510862097.941238: $GPGSA,A,3,8,10,15,18,21,20,24,27,32,14,138,,1.6,0.8,1.3*37
