2017-12-01 14:18:39 1512155919.076946: {"class":"VERSION","release":"3.16","rev":"3.16-4","proto_major":3,"proto_minor":11}
2017-12-01 14:18:39 1512155919.077375: {"class":"DEVICES","devices":[{"class":"DEVICE","path":"/dev/ttyUSB0","driver":"SiRF","subtype":"9\u0006GSD4e_4.1.2-P1_RPATCH.05-F-GPS-4R-1510281 11/03/2015 307","activated":"2017-12-01T19:18:38.514Z","flags":1,"native":1,"bps":4800,"parity":"N","stopbits":1,"cycle":1.00}]}
2017-12-01 14:18:39 1512155919.077499: {"class":"WATCH","enable":true,"json":false,"nmea":true,"raw":0,"scaled":false,"timing":false,"split24":false,"pps":false}
2017-12-01 14:18:39 1512155919.358199: $GPZDA,191840.00,01,12,2017,00,00*65
2017-12-01 14:18:39 1512155919.358379: $GPGGA,191840,3946.9565,N,08404.9850,W,2,12,0.80,304.07,M,-33.324,M,,*7E
2017-12-01 14:18:39 1512155919.358445: $GPRMC,191840,A,3946.9565,N,08404.9850,W,0.0000,0.000,011217,,*35
2017-12-01 14:18:39 1512155919.358508: $GPGSA,A,3,10,14,15,18,21,24,27,32,8,12,20,138,2.0,0.8,1.5*37
2017-12-01 14:18:40 1512155920.694686: $GPGSV,3,1,12,10,67,328,49,14,27,252,40,15,13,066,34,18,72,088,45*71
2017-12-01 14:18:40 1512155920.694871: $GPGSV,3,2,12,21,31,180,45,24,46,061,48,27,08,262,37,32,44,262,45*74
2017-12-01 14:18:40 1512155920.694939: $GPGSV,3,3,12,08,06,295,34,12,08,109,30,20,11,117,17,138,38,213,46*4D
2017-12-01 14:18:40 1512155920.808035: $GPZDA,191841.00,01,12,2017,00,00*64
2017-12-01 14:18:40 1512155920.808184: $GPGGA,191841,3946.9565,N,08404.9850,W,2,12,0.80,304.07,M,-33.324,M,,*7F
2017-12-01 14:18:40 1512155920.808255: $GPRMC,191841,A,3946.9565,N,08404.9850,W,0.0000,0.000,011217,,*34
2017-12-01 14:18:40 1512155920.808316: $GPGSA,A,3,10,14,15,18,21,24,27,32,8,12,20,138,2.0,0.8,1.5*37
2017-12-01 14:18:41 1512155921.357683: $GPZDA,191842.00,01,12,2017,00,00*67
2017-12-01 14:18:41 1512155921.357866: $GPGGA,191842,3946.9565,N,08404.9850,W,2,12,0.80,304.07,M,-33.324,M,,*7C
2017-12-01 14:18:41 1512155921.357934: $GPRMC,191842,A,3946.9565,N,08404.9850,W,0.0000,0.000,011217,,*37
2017-12-01 14:18:41 1512155921.357999: $GPGSA,A,3,10,14,15,18,21,24,27,32,8,12,20,138,2.0,0.8,1.5*37
2017-12-01 14:18:42 1512155922.390048: $GPZDA,191843.00,01,12,2017,00,00*66
2017-12-01 14:18:42 1512155922.390227: $GPGGA,191843,3946.9562,N,08404.9851,W,2,12,0.80,304.83,M,-33.324,M,,*77
2017-12-01 14:18:42 1512155922.390294: $GPRMC,191843,A,3946.9562,N,08404.9851,W,0.0000,0.000,011217,,*30
2017-12-01 14:18:42 1512155922.390357: $GPGSA,A,3,10,14,15,18,21,24,27,32,8,12,20,138,2.0,0.8,1.5*37
2017-12-01 14:18:43 1512155923.727056: $GPGSV,3,1,12,10,67,328,49,14,27,252,40,15,13,066,34,18,72,088,45*71
2017-12-01 14:18:43 1512155923.727254: $GPGSV,3,2,12,21,31,180,45,24,46,061,48,27,08,262,37,32,44,262,45*74
2017-12-01 14:18:43 1512155923.727323: $GPGSV,3,3,12,08,06,295,33,12,08,109,30,20,11,117,17,138,38,213,46*4A
2017-12-01 14:18:43 1512155923.840414: $GPZDA,191844.00,01,12,2017,00,00*61
2017-12-01 14:18:43 1512155923.840586: $GPGGA,191844,3946.9562,N,08404.9851,W,2,12,0.80,304.83,M,-33.324,M,,*70
2017-12-01 14:18:43 1512155923.840653: $GPRMC,191844,A,3946.9562,N,08404.9851,W,0.0000,0.000,011217,,*37
2017-12-01 14:18:43 1512155923.840733: $GPGSA,A,3,10,14,15,18,21,24,27,32,8,12,20,138,2.0,0.8,1.5*37
2017-12-01 14:18:44 1512155924.388889: $GPZDA,191845.00,01,12,2017,00,00*60
2017-12-01 14:18:44 1512155924.389062: $GPGGA,191845,3946.9562,N,08404.9851,W,2,12,0.80,304.83,M,-33.324,M,,*71
2017-12-01 14:18:44 1512155924.389129: $GPRMC,191845,A,3946.9562,N,08404.9851,W,0.0000,0.000,011217,,*36
2017-12-01 14:18:44 1512155924.389190: $GPGSA,A,3,10,14,15,18,21,24,27,32,8,12,20,138,2.0,0.8,1.5*37
2017-12-01 14:18:45 1512155925.389248: $GPZDA,191846.00,01,12,2017,00,00*63
2017-12-01 14:18:45 1512155925.389419: $GPGGA,191846,3946.9562,N,08404.9851,W,2,12,0.80,304.83,M,-33.324,M,,*72
2017-12-01 14:18:45 1512155925.389486: $GPRMC,191846,A,3946.9562,N,08404.9851,W,0.0000,0.000,011217,,*35
2017-12-01 14:18:45 1512155925.389546: $GPGSA,A,3,10,14,15,18,21,24,27,32,8,12,20,138,2.0,0.8,1.5*37
2017-12-01 14:18:46 1512155926.692167: $GPGSV,3,1,12,10,67,328,49,14,27,252,39,15,13,066,34,18,72,088,44*7E
2017-12-01 14:18:46 1512155926.692415: $GPGSV,3,2,12,21,31,180,45,24,46,061,48,27,08,262,36,32,44,262,45*75
2017-12-01 14:18:46 1512155926.692486: $GPGSV,3,3,12,08,06,295,27,12,08,109,30,20,11,117,19,138,38,213,46*41
2017-12-01 14:18:46 1512155926.805766: $GPZDA,191847.00,01,12,2017,00,00*62
2017-12-01 14:18:46 1512155926.805909: $GPGGA,191847,3946.9562,N,08404.9851,W,2,12,0.80,304.83,M,-33.324,M,,*73
2017-12-01 14:18:46 1512155926.805976: $GPRMC,191847,A,3946.9562,N,08404.9851,W,0.0000,0.000,011217,,*34
2017-12-01 14:18:46 1512155926.806036: $GPGSA,A,3,10,14,15,18,21,24,27,32,8,12,20,138,2.0,0.8,1.5*37
2017-12-01 14:18:47 1512155927.389479: $GPZDA,191848.00,01,12,2017,00,00*6D
2017-12-01 14:18:47 1512155927.389659: $GPGGA,191848,3946.9562,N,08404.9851,W,2,12,0.80,304.83,M,-33.324,M,,*7C
2017-12-01 14:18:47 1512155927.389726: $GPRMC,191848,A,3946.9562,N,08404.9851,W,0.0000,0.000,011217,,*3B
2017-12-01 14:18:47 1512155927.389788: $GPGSA,A,3,10,14,15,18,21,24,27,32,8,12,20,138,2.0,0.8,1.5*37
2017-12-01 14:18:48 1512155928.358879: $GPZDA,191849.00,01,12,2017,00,00*6C
2017-12-01 14:18:48 1512155928.359055: $GPGGA,191849,3946.9562,N,08404.9851,W,2,12,0.80,304.83,M,-33.324,M,,*7D
2017-12-01 14:18:48 1512155928.359123: $GPRMC,191849,A,3946.9562,N,08404.9851,W,0.0000,0.000,011217,,*3A
2017-12-01 14:18:48 1512155928.359184: $GPGSA,A,3,10,14,15,18,21,24,27,32,8,12,20,138,2.0,0.8,1.5*37
2017-12-01 14:18:49 1512155929.726815: $GPGSV,3,1,12,10,67,328,49,14,27,252,39,15,13,066,33,18,72,088,44*79
2017-12-01 14:18:49 1512155929.727009: $GPGSV,3,2,12,21,31,180,44,24,46,061,48,27,08,262,36,32,44,262,45*74
2017-12-01 14:18:49 1512155929.727076: $GPGSV,3,3,12,08,06,295,29,12,08,109,29,20,11,117,22,138,38,213,46*4F
2017-12-01 14:18:49 1512155929.839330: $GPZDA,191850.00,01,12,2017,00,00*64
2017-12-01 14:18:49 1512155929.839554: $GPGGA,191850,3946.9562,N,08404.9851,W,2,12,0.80,304.83,M,-33.324,M,,*75
2017-12-01 14:18:49 1512155929.839643: $GPRMC,191850,A,3946.9562,N,08404.9851,W,0.0000,0.000,011217,,*32
2017-12-01 14:18:49 1512155929.839707: $GPGSA,A,3,10,14,15,18,21,24,27,32,8,12,20,138,2.0,0.8,1.5*37
2017-12-01 14:18:50 1512155930.465969: $GPZDA,191851.00,01,12,2017,00,00*65
2017-12-01 14:18:50 1512155930.466142: $GPGGA,191851,3946.9562,N,08404.9851,W,2,12,0.80,304.83,M,-33.324,M,,*74
2017-12-01 14:18:50 1512155930.466209: $GPRMC,191851,A,3946.9562,N,08404.9851,W,0.0000,0.000,011217,,*33
2017-12-01 14:18:50 1512155930.466269: $GPGSA,A,3,10,14,15,18,21,24,27,32,8,12,20,138,2.0,0.8,1.5*37
2017-12-01 14:18:51 1512155931.358882: $GPZDA,191852.00,01,12,2017,00,00*66
2017-12-01 14:18:51 1512155931.359061: $GPGGA,191852,3946.9562,N,08404.9851,W,2,12,0.80,304.83,M,-33.324,M,,*77
2017-12-01 14:18:51 1512155931.359127: $GPRMC,191852,A,3946.9562,N,08404.9851,W,0.0000,0.000,011217,,*30
2017-12-01 14:18:51 1512155931.359189: $GPGSA,A,3,10,14,15,18,21,24,27,32,8,12,20,138,2.0,0.8,1.5*37
2017-12-01 14:18:52 1512155932.694638: $GPGSV,3,1,12,10,67,328,48,14,27,252,40,15,13,066,29,18,72,088,45*7C
2017-12-01 14:18:52 1512155932.694818: $GPGSV,3,2,12,21,31,180,44,24,46,061,48,27,08,262,36,32,44,262,45*74
2017-12-01 14:18:52 1512155932.694885: $GPGSV,3,3,12,08,06,295,30,12,08,109,29,20,11,117,25,138,38,213,47*41
2017-12-01 14:18:52 1512155932.807954: $GPZDA,191853.00,01,12,2017,00,00*67
2017-12-01 14:18:52 1512155932.808102: $GPGGA,191853,3946.9562,N,08404.9851,W,2,12,0.80,304.83,M,-33.324,M,,*76
2017-12-01 14:18:52 1512155932.808168: $GPRMC,191853,A,3946.9562,N,08404.9851,W,0.0000,0.000,011217,,*31
2017-12-01 14:18:52 1512155932.808229: $GPGSA,A,3,10,14,15,18,21,24,27,32,8,12,20,138,2.0,0.8,1.5*37
2017-12-01 14:18:53 1512155933.357894: $GPZDA,191854.00,01,12,2017,00,00*60
2017-12-01 14:18:53 1512155933.358073: $GPGGA,191854,3946.9566,N,08404.9851,W,2,12,0.80,305.47,M,-33.324,M,,*7C
2017-12-01 14:18:53 1512155933.358140: $GPRMC,191854,A,3946.9566,N,08404.9851,W,0.0000,0.000,011217,,*32
2017-12-01 14:18:53 1512155933.358201: $GPGSA,A,3,10,14,15,18,21,24,27,32,8,12,20,138,2.0,0.8,1.5*37
2017-12-01 14:18:54 1512155934.398882: $GPZDA,191855.00,01,12,2017,00,00*61
2017-12-01 14:18:54 1512155934.399057: $GPGGA,191855,3946.9566,N,08404.9851,W,2,12,0.80,305.47,M,-33.324,M,,*7D
2017-12-01 14:18:54 1512155934.399124: $GPRMC,191855,A,3946.9566,N,08404.9851,W,0.0000,0.000,011217,,*33
2017-12-01 14:18:54 1512155934.399185: $GPGSA,A,3,10,14,15,18,21,24,27,32,8,12,20,138,2.0,0.8,1.5*37
2017-12-01 14:18:55 1512155935.727485: $GPGSV,3,1,12,10,67,328,48,14,27,252,40,15,13,066,30,18,72,088,45*74
2017-12-01 14:18:55 1512155935.727671: $GPGSV,3,2,12,21,31,180,45,24,46,061,49,27,08,262,35,32,44,262,45*77
2017-12-01 14:18:55 1512155935.727737: $GPGSV,3,3,12,08,06,295,30,12,08,109,29,20,11,117,26,138,38,213,46*43
2017-12-01 14:18:55 1512155935.840881: $GPZDA,191856.00,01,12,2017,00,00*62
2017-12-01 14:18:55 1512155935.841059: $GPGGA,191856,3946.9562,N,08404.9851,W,2,12,0.80,306.24,M,-33.324,M,,*7C
2017-12-01 14:18:55 1512155935.841127: $GPRMC,191856,A,3946.9562,N,08404.9851,W,0.0000,0.000,011217,,*34
2017-12-01 14:18:55 1512155935.841188: $GPGSA,A,3,10,14,15,18,21,24,27,32,8,12,20,138,2.0,0.8,1.5*37
2017-12-01 14:18:56 1512155936.359321: $GPZDA,191857.00,01,12,2017,00,00*63
2017-12-01 14:18:56 1512155936.359498: $GPGGA,191857,3946.9562,N,08404.9851,W,2,12,0.80,306.24,M,-33.324,M,,*7D
2017-12-01 14:18:56 1512155936.359567: $GPRMC,191857,A,3946.9562,N,08404.9851,W,0.0000,0.000,011217,,*35
2017-12-01 14:18:56 1512155936.359628: $GPGSA,A,3,10,14,15,18,21,24,27,32,8,12,20,138,2.0,0.8,1.5*37
2017-12-01 14:18:57 1512155937.388839: $GPZDA,191858.00,01,12,2017,00,00*6C
2017-12-01 14:18:57 1512155937.389024: $GPGGA,191858,3946.9562,N,08404.9851,W,2,12,0.80,306.24,M,-33.324,M,,*72
2017-12-01 14:18:57 1512155937.389092: $GPRMC,191858,A,3946.9562,N,08404.9851,W,0.0000,0.000,011217,,*3A
2017-12-01 14:18:57 1512155937.389176: $GPGSA,A,3,10,14,15,18,21,24,27,32,8,12,20,138,2.0,0.8,1.5*37
2017-12-01 14:18:58 1512155938.693430: $GPGSV,3,1,12,10,67,328,48,14,27,252,40,15,13,066,30,18,72,088,45*74
2017-12-01 14:18:58 1512155938.693612: $GPGSV,3,2,12,21,31,180,45,24,46,061,49,27,08,262,35,32,44,262,46*74
2017-12-01 14:18:58 1512155938.693678: $GPGSV,3,3,12,08,06,295,29,12,08,109,22,20,11,117,26,138,38,213,46*40
2017-12-01 14:18:58 1512155938.807077: $GPZDA,191859.00,01,12,2017,00,00*6D
2017-12-01 14:18:58 1512155938.807231: $GPGGA,191859,3946.9562,N,08404.9851,W,2,12,0.80,306.24,M,-33.324,M,,*73
2017-12-01 14:18:58 1512155938.807297: $GPRMC,191859,A,3946.9562,N,08404.9851,W,0.0000,0.000,011217,,*3B
2017-12-01 14:18:58 1512155938.807358: $GPGSA,A,3,10,14,15,18,21,24,27,32,8,12,20,138,2.0,0.8,1.5*37
