2017-11-15 18:44:48 1510789488.462894: {"class":"VERSION","release":"3.17","rev":"3.17","proto_major":3,"proto_minor":12}
2017-11-15 18:44:48 1510789488.463430: {"class":"DEVICES","devices":[{"class":"DEVICE","path":"/dev/ttyUSB0","driver":"SiRF","subtype":"9\u0006GSD4e_4.1.2-P1_RPATCH.05-F-GPS-4R-1510281 11/03/2015 307","activated":"2017-11-15T23:44:48.217Z","flags":1,"native":1,"bps":4800,"parity":"N","stopbits":1,"cycle":1.00}]}
2017-11-15 18:44:48 1510789488.463544: {"class":"WATCH","enable":true,"json":false,"nmea":true,"raw":0,"scaled":false,"timing":false,"split24":false,"pps":false}
2017-11-15 18:44:48 1510789488.665404: $GPGSV,3,1,11,12,03,030,14,14,67,052,27,03,24,313,13,32,52,085,12*75
2017-11-15 18:44:48 1510789488.665569: $GPGSV,3,2,11,31,79,306,29,26,30,177,00,25,33,052,14,10,17,157,15*79
2017-11-15 18:44:48 1510789488.665629: $GPGSV,3,3,11,01,17,270,00,22,42,298,24,29,02,090,10*49
2017-11-15 18:44:48 1510789488.778987: $GPZDA,234447.00,15,11,2017,00,00*64
2017-11-15 18:44:48 1510789488.779143: $GPGGA,234447,3946.9553,N,08404.9711,W,1,08,1.40,319.26,M,-33.324,M,,*7C
2017-11-15 18:44:48 1510789488.779203: $GPRMC,234447,A,3946.9553,N,08404.9711,W,1.2538,328.778,151117,,*37
2017-11-15 18:44:48 1510789488.779259: $GPGSA,A,3,14,3,32,31,25,10,22,29,,,,,3.4,1.4,2.9*03
2017-11-15 18:44:49 1510789489.372407: $GPZDA,234448.00,15,11,2017,00,00*6B
2017-11-15 18:44:49 1510789489.372565: $GPGGA,234448,3946.9553,N,08404.9711,W,1,08,1.40,319.26,M,-33.324,M,,*73
2017-11-15 18:44:49 1510789489.372625: $GPRMC,234448,A,3946.9553,N,08404.9711,W,0.7246,344.668,151117,,*38
2017-11-15 18:44:49 1510789489.372680: $GPGSA,A,3,14,3,32,31,25,10,22,29,,,,,3.4,1.4,2.9*03
2017-11-15 18:44:50 1510789490.372049: $GPZDA,234449.00,15,11,2017,00,00*6A
2017-11-15 18:44:50 1510789490.372211: $GPGGA,234449,3946.9553,N,08404.9711,W,1,08,1.40,319.26,M,-33.324,M,,*72
2017-11-15 18:44:50 1510789490.372272: $GPRMC,234449,A,3946.9553,N,08404.9711,W,0.0000,0.000,151117,,*35
2017-11-15 18:44:50 1510789490.372328: $GPGSA,A,3,14,3,32,31,25,10,22,29,,,,,3.4,1.4,2.9*03
2017-11-15 18:44:51 1510789491.665785: $GPGSV,3,1,11,12,03,030,14,14,67,052,26,03,24,313,13,32,52,085,10*76
2017-11-15 18:44:51 1510789491.665969: $GPGSV,3,2,11,31,79,306,29,26,30,177,00,25,33,052,15,10,17,157,16*7B
2017-11-15 18:44:51 1510789491.666029: $GPGSV,3,3,11,01,17,270,00,22,42,298,25,29,02,090,08*41
2017-11-15 18:44:51 1510789491.779612: $GPZDA,234450.00,15,11,2017,00,00*62
2017-11-15 18:44:51 1510789491.779814: $GPGGA,234450,3946.9553,N,08404.9711,W,1,09,1.40,319.26,M,-33.324,M,,*7B
2017-11-15 18:44:51 1510789491.779897: $GPRMC,234450,A,3946.9553,N,08404.9711,W,0.2422,273.794,151117,,*37
2017-11-15 18:44:51 1510789491.779966: $GPGSA,A,3,12,14,3,32,31,25,10,22,29,,,,3.4,1.4,2.9*00
2017-11-15 18:44:52 1510789492.329059: $GPZDA,234451.00,15,11,2017,00,00*63
2017-11-15 18:44:52 1510789492.329220: $GPGGA,234451,3946.9553,N,08404.9711,W,1,09,1.40,319.26,M,-33.324,M,,*7A
2017-11-15 18:44:52 1510789492.329281: $GPRMC,234451,A,3946.9553,N,08404.9711,W,0.1867,0.000,151117,,*34
2017-11-15 18:44:52 1510789492.329337: $GPGSA,A,3,12,14,3,32,31,25,10,22,29,,,,3.4,1.4,2.9*00
2017-11-15 18:44:53 1510789493.366198: $GPZDA,234452.00,15,11,2017,00,00*60
2017-11-15 18:44:53 1510789493.366355: $GPGGA,234452,3946.9553,N,08404.9711,W,1,09,1.40,319.26,M,-33.324,M,,*79
2017-11-15 18:44:53 1510789493.366415: $GPRMC,234452,A,3946.9553,N,08404.9711,W,0.5287,2.716,151117,,*35
2017-11-15 18:44:53 1510789493.366471: $GPGSA,A,3,12,14,3,32,31,25,10,22,29,,,,3.4,1.4,2.9*00
2017-11-15 18:44:54 1510789494.707867: $GPGSV,3,1,11,26,30,177,00,14,67,052,26,03,24,313,13,32,52,085,11*77
2017-11-15 18:44:54 1510789494.708011: $GPGSV,3,2,11,31,79,306,28,01,17,270,00,25,33,052,16,10,17,157,15*7E
2017-11-15 18:44:54 1510789494.708070: $GPGSV,3,3,11,12,03,030,00,22,42,298,25,29,02,090,07*4F
2017-11-15 18:44:54 1510789494.821161: $GPZDA,234453.00,15,11,2017,00,00*61
2017-11-15 18:44:54 1510789494.821324: $GPGGA,234453,3946.9553,N,08404.9711,W,1,08,1.40,319.26,M,-33.324,M,,*79
2017-11-15 18:44:54 1510789494.821386: $GPRMC,234453,A,3946.9553,N,08404.9711,W,0.7278,23.636,151117,,*06
2017-11-15 18:44:54 1510789494.821493: $GPGSA,A,3,14,3,32,31,25,10,22,29,,,,,3.4,1.4,2.9*03
2017-11-15 18:44:55 1510789495.332009: $GPZDA,234454.00,15,11,2017,00,00*66
2017-11-15 18:44:55 1510789495.332173: $GPGGA,234454,3946.9556,N,08404.9711,W,1,08,1.40,318.49,M,-33.324,M,,*73
2017-11-15 18:44:55 1510789495.332233: $GPRMC,234454,A,3946.9556,N,08404.9711,W,1.1385,29.379,151117,,*04
2017-11-15 18:44:55 1510789495.332289: $GPGSA,A,3,14,3,32,31,25,10,22,29,,,,,3.4,1.4,2.9*03
2017-11-15 18:44:56 1510789496.366128: $GPZDA,234455.00,15,11,2017,00,00*67
2017-11-15 18:44:56 1510789496.366288: $GPGGA,234455,3946.9560,N,08404.9704,W,1,08,1.40,319.21,M,-33.324,M,,*7C
2017-11-15 18:44:56 1510789496.366350: $GPRMC,234455,A,3946.9560,N,08404.9704,W,1.0269,4.197,151117,,*3B
2017-11-15 18:44:56 1510789496.366405: $GPGSA,A,3,14,3,32,31,25,10,22,29,,,,,3.4,1.4,2.9*03
2017-11-15 18:44:57 1510789497.665644: $GPGSV,3,1,11,12,03,030,14,14,67,052,26,03,24,313,13,32,52,085,08*7F
2017-11-15 18:44:57 1510789497.665845: $GPGSV,3,2,11,31,79,306,28,16,02,190,17,25,33,052,16,10,17,157,15*77
2017-11-15 18:44:57 1510789497.665905: $GPGSV,3,3,11,26,30,177,00,22,42,298,25,29,02,090,08*45
2017-11-15 18:44:57 1510789497.779101: $GPZDA,234456.00,15,11,2017,00,00*64
2017-11-15 18:44:57 1510789497.779259: $GPGGA,234456,3946.9560,N,08404.9704,W,1,08,1.40,319.21,M,-33.324,M,,*7F
2017-11-15 18:44:57 1510789497.779319: $GPRMC,234456,A,3946.9560,N,08404.9704,W,1.0269,4.197,151117,,*38
2017-11-15 18:44:57 1510789497.779374: $GPGSA,A,3,14,3,32,31,25,10,22,29,,,,,3.4,1.4,2.9*03
2017-11-15 18:44:58 1510789498.329903: $GPZDA,234457.00,15,11,2017,00,00*65
2017-11-15 18:44:58 1510789498.330066: $GPGGA,234457,3946.9560,N,08404.9704,W,1,08,1.40,319.21,M,-33.324,M,,*7E
2017-11-15 18:44:58 1510789498.330127: $GPRMC,234457,A,3946.9560,N,08404.9704,W,0.3423,4.197,151117,,*33
2017-11-15 18:44:58 1510789498.330182: $GPGSA,A,3,14,3,32,31,25,10,22,29,,,,,3.4,1.4,2.9*03
2017-11-15 18:44:59 1510789499.372409: $GPZDA,234458.00,15,11,2017,00,00*6A
2017-11-15 18:44:59 1510789499.928316: $GPGGA,234458,3946.9560,N,08404.9704,W,1,08,1.40,319.21,M,-33.324,M,,*71
2017-11-15 18:44:59 1510789499.928467: $GPRMC,234458,A,3946.9560,N,08404.9704,W,0.5912,309.172,151117,,*30
2017-11-15 18:44:59 1510789499.928527: $GPGSA,A,3,14,3,32,31,25,10,22,29,,,,,3.4,1.4,2.9*03
2017-11-15 18:45:00 1510789500.666527: $GPGSV,3,1,11,12,03,030,14,14,67,052,26,03,24,313,13,32,52,085,06*71
2017-11-15 18:45:00 1510789500.666740: $GPGSV,3,2,11,31,79,306,28,26,30,177,02,25,33,052,16,10,17,157,15*78
2017-11-15 18:45:00 1510789500.666810: $GPGSV,3,3,11,01,17,270,00,22,42,298,25,29,02,090,07*4E
2017-11-15 18:45:00 1510789500.779908: $GPZDA,234459.00,15,11,2017,00,00*6B
2017-11-15 18:45:00 1510789500.780076: $GPGGA,234459,3946.9560,N,08404.9704,W,1,08,1.40,319.21,M,-33.324,M,,*70
2017-11-15 18:45:00 1510789500.780136: $GPRMC,234459,A,3946.9560,N,08404.9704,W,0.4179,328.778,151117,,*3A
2017-11-15 18:45:00 1510789500.780193: $GPGSA,A,3,12,14,3,31,25,10,22,29,,,,,3.4,1.4,2.9*01
2017-11-15 18:45:01 1510789501.405237: $GPZDA,234500.00,15,11,2017,00,00*66
2017-11-15 18:45:01 1510789501.405406: $GPGGA,234500,3946.9560,N,08404.9704,W,1,08,1.40,319.21,M,-33.324,M,,*7D
2017-11-15 18:45:01 1510789501.405468: $GPRMC,234500,A,3946.9560,N,08404.9704,W,0.5912,309.172,151117,,*3C
2017-11-15 18:45:01 1510789501.405524: $GPGSA,A,3,12,14,3,31,25,10,22,29,,,,,3.4,1.4,2.9*01
2017-11-15 18:45:02 1510789502.371062: $GPZDA,234501.00,15,11,2017,00,00*67
2017-11-15 18:45:02 1510789502.371235: $GPGGA,234501,3946.9560,N,08404.9704,W,1,08,1.40,319.21,M,-33.324,M,,*7C
2017-11-15 18:45:02 1510789502.371296: $GPRMC,234501,A,3946.9560,N,08404.9704,W,0.4844,273.794,151117,,*3C
2017-11-15 18:45:02 1510789502.371353: $GPGSA,A,3,12,14,3,31,25,10,22,29,,,,,3.4,1.4,2.9*01
2017-11-15 18:45:03 1510789503.701846: $GPGSV,3,1,11,25,33,052,00,14,67,052,26,03,24,313,14,32,52,085,06*70
2017-11-15 18:45:03 1510789503.702019: $GPGSV,3,2,11,31,79,306,28,26,30,177,04,01,17,270,00,10,17,157,15*7B
2017-11-15 18:45:03 1510789503.702140: $GPGSV,3,3,11,12,03,030,00,22,42,298,25,29,02,090,06*4E
2017-11-15 18:45:03 1510789503.815202: $GPZDA,234502.00,15,11,2017,00,00*64
2017-11-15 18:45:03 1510789503.815353: $GPGGA,234502,3946.9553,N,08404.9711,W,1,05,3.60,319.26,M,-33.324,M,,*71
2017-11-15 18:45:03 1510789503.815414: $GPRMC,234502,A,3946.9553,N,08404.9711,W,0.5230,256.443,151117,,*3D
2017-11-15 18:45:03 1510789503.815469: $GPGSA,A,3,14,3,31,10,22,,,,,,,,3.4,3.6,2.9*0E
2017-11-15 18:45:04 1510789504.331061: $GPZDA,234503.00,15,11,2017,00,00*65
2017-11-15 18:45:04 1510789504.331207: $GPGGA,234503,3946.9553,N,08404.9711,W,1,05,3.60,319.26,M,-33.324,M,,*70
2017-11-15 18:45:04 1510789504.331266: $GPRMC,234503,A,3946.9553,N,08404.9711,W,0.5617,211.295,151117,,*33
2017-11-15 18:45:04 1510789504.331322: $GPGSA,A,3,14,3,31,10,22,,,,,,,,3.4,3.6,2.9*0E
2017-11-15 18:45:05 1510789505.329544: $GPZDA,234504.00,15,11,2017,00,00*62
2017-11-15 18:45:05 1510789505.329723: $GPGGA,234504,3946.9545,N,08404.9712,W,1,05,3.60,319.38,M,-33.324,M,,*7C
2017-11-15 18:45:05 1510789505.329785: $GPRMC,234504,A,3946.9545,N,08404.9712,W,1.2361,194.851,151117,,*3E
2017-11-15 18:45:05 1510789505.329842: $GPGSA,A,3,14,3,31,10,22,,,,,,,,3.4,3.6,2.9*0E
2017-11-15 18:45:06 1510789506.664769: $GPGSV,3,1,11,12,03,030,13,14,67,052,26,03,24,313,14,32,52,085,06*71
2017-11-15 18:45:06 1510789506.664945: $GPGSV,3,2,11,31,79,306,28,26,30,177,10,25,33,052,00,10,17,157,15*7C
2017-11-15 18:45:06 1510789506.665007: $GPGSV,3,3,11,01,17,270,00,22,42,298,25,29,02,090,05*4C
2017-11-15 18:45:06 1510789506.778145: $GPZDA,234505.00,15,11,2017,00,00*63
2017-11-15 18:45:06 1510789506.778309: $GPGGA,234505,3946.9538,N,08404.9713,W,1,06,3.60,319.51,M,-33.324,M,,*7A
2017-11-15 18:45:06 1510789506.778368: $GPRMC,234505,A,3946.9538,N,08404.9713,W,1.4555,203.636,151117,,*31
2017-11-15 18:45:06 1510789506.778425: $GPGSA,A,3,14,3,32,31,10,22,,,,,,,3.4,3.6,2.9*0F
2017-11-15 18:45:07 1510789507.329182: $GPZDA,234506.00,15,11,2017,00,00*60
2017-11-15 18:45:07 1510789507.329364: $GPGGA,234506,3946.9534,N,08404.9713,W,1,06,2.60,318.87,M,-33.324,M,,*7E
2017-11-15 18:45:07 1510789507.329428: $GPRMC,234506,A,3946.9534,N,08404.9713,W,1.3044,205.352,151117,,*3D
2017-11-15 18:45:07 1510789507.329484: $GPGSA,A,3,14,3,32,31,10,22,,,,,,,3.4,2.6,2.9*0E
2017-11-15 18:45:08 1510789508.366317: $GPZDA,234507.00,15,11,2017,00,00*61
2017-11-15 18:45:08 1510789508.366496: $GPGGA,234507,3946.9530,N,08404.9714,W,1,06,2.60,319.63,M,-33.324,M,,*77
2017-11-15 18:45:08 1510789508.366559: $GPRMC,234507,A,3946.9530,N,08404.9714,W,1.1385,209.379,151117,,*36
2017-11-15 18:45:08 1510789508.366615: $GPGSA,A,3,14,3,32,31,10,22,,,,,,,3.4,2.6,2.9*0E
2017-11-15 18:45:09 1510789509.666860: $GPGSV,3,1,11,12,03,030,13,14,67,052,26,03,24,313,12,32,52,085,09*78
2017-11-15 18:45:09 1510789509.667046: $GPGSV,3,2,11,31,79,306,28,26,30,177,04,25,33,052,00,10,17,157,15*79
2017-11-15 18:45:09 1510789509.669409: $GPGSV,3,3,11,01,17,270,00,22,42,298,25,29,02,090,08*41
2017-11-15 18:45:09 1510789509.780486: $GPZDA,234508.00,15,11,2017,00,00*6E
2017-11-15 18:45:09 1510789509.780657: $GPGGA,234508,3946.9523,N,08404.9714,W,1,08,2.60,319.76,M,-33.324,M,,*70
2017-11-15 18:45:09 1510789509.780718: $GPRMC,234508,A,3946.9523,N,08404.9714,W,1.1385,209.379,151117,,*3B
2017-11-15 18:45:09 1510789509.780779: $GPGSA,A,3,12,14,3,32,31,10,22,29,,,,,3.4,2.6,2.9*06
2017-11-15 18:45:10 1510789510.329784: $GPZDA,234509.00,15,11,2017,00,00*6F
2017-11-15 18:45:10 1510789510.329937: $GPGGA,234509,3946.9523,N,08404.9714,W,1,08,2.60,319.76,M,-33.324,M,,*71
2017-11-15 18:45:10 1510789510.330000: $GPRMC,234509,A,3946.9523,N,08404.9714,W,0.7278,203.636,151117,,*3A
2017-11-15 18:45:10 1510789510.330056: $GPGSA,A,3,12,14,3,32,31,10,22,29,,,,,3.4,2.6,2.9*06
2017-11-15 18:45:11 1510789511.372910: $GPZDA,234510.00,15,11,2017,00,00*67
2017-11-15 18:45:11 1510789511.373071: $GPGGA,234510,3946.9518,N,08404.9714,W,1,08,2.60,319.12,M,-33.324,M,,*73
2017-11-15 18:45:11 1510789511.373133: $GPRMC,234510,A,3946.9518,N,08404.9714,W,0.5287,182.716,151117,,*31
2017-11-15 18:45:11 1510789511.373240: $GPGSA,A,3,12,14,3,32,31,10,22,29,,,,,3.4,2.6,2.9*06
2017-11-15 18:45:12 1510789512.665949: $GPGSV,3,1,11,25,33,052,12,14,67,052,25,03,24,313,12,32,52,085,09*79
2017-11-15 18:45:12 1510789512.666139: $GPGSV,3,2,11,31,79,306,27,26,30,177,04,01,17,270,00,10,17,157,15*74
2017-11-15 18:45:12 1510789512.666200: $GPGSV,3,3,11,12,03,030,00,22,42,298,25,29,02,090,12*4B
2017-11-15 18:45:12 1510789512.779545: $GPZDA,234511.00,15,11,2017,00,00*66
2017-11-15 18:45:12 1510789512.779711: $GPGGA,234511,3946.9515,N,08404.9708,W,1,07,2.60,319.96,M,-33.324,M,,*71
2017-11-15 18:45:12 1510789512.779793: $GPRMC,234511,A,3946.9515,N,08404.9708,W,0.9060,167.792,151117,,*30
2017-11-15 18:45:12 1510789512.779852: $GPGSA,A,3,14,3,32,31,10,22,29,,,,,,3.4,2.6,2.9*05
2017-11-15 18:45:13 1510789513.330418: $GPZDA,234512.00,15,11,2017,00,00*65
2017-11-15 18:45:13 1510789513.330596: $GPGGA,234512,3946.9507,N,08404.9709,W,1,07,2.60,320.08,M,-33.324,M,,*7D
2017-11-15 18:45:13 1510789513.330662: $GPRMC,234512,A,3946.9507,N,08404.9709,W,1.3082,161.818,151117,,*3D
2017-11-15 18:45:13 1510789513.330718: $GPGSA,A,3,14,3,32,31,10,22,29,,,,,,3.4,2.6,2.9*05
2017-11-15 18:45:14 1510789514.330033: $GPZDA,234513.00,15,11,2017,00,00*64
2017-11-15 18:45:14 1510789514.330211: $GPGGA,234513,3946.9503,N,08404.9709,W,1,07,2.60,319.45,M,-33.324,M,,*7B
2017-11-15 18:45:14 1510789514.330273: $GPRMC,234513,A,3946.9503,N,08404.9709,W,1.2132,183.551,151117,,*3F
2017-11-15 18:45:14 1510789514.330329: $GPGSA,A,3,14,3,32,31,10,22,29,,,,,,3.4,2.6,2.9*05
2017-11-15 18:45:15 1510789515.709457: $GPGSV,3,1,11,25,33,052,15,14,67,052,25,03,24,313,12,32,52,085,11*77
2017-11-15 18:45:15 1510789515.709651: $GPGSV,3,2,11,31,79,306,27,26,30,177,04,12,03,030,05,10,17,157,14*71
2017-11-15 18:45:15 1510789515.709715: $GPGSV,3,3,11,01,17,270,00,22,42,298,25,29,02,090,12*4A
2017-11-15 18:45:15 1510789515.823010: $GPZDA,234514.00,15,11,2017,00,00*63
2017-11-15 18:45:15 1510789515.823165: $GPGGA,234514,3946.9499,N,08404.9703,W,1,08,2.60,320.29,M,-33.324,M,,*7B
2017-11-15 18:45:15 1510789515.823227: $GPRMC,234514,A,3946.9499,N,08404.9703,W,1.3082,161.818,151117,,*37
2017-11-15 18:45:15 1510789515.823282: $GPGSA,A,3,25,14,3,32,31,10,22,29,,,,,3.4,2.6,2.9*02
2017-11-15 18:45:16 1510789516.448416: $GPZDA,234515.00,15,11,2017,00,00*62
2017-11-15 18:45:16 1510789516.448576: $GPGGA,234515,3946.9495,N,08404.9703,W,1,08,2.60,319.65,M,-33.324,M,,*74
2017-11-15 18:45:16 1510789516.448641: $GPRMC,234515,A,3946.9495,N,08404.9703,W,0.9066,129.458,151117,,*3F
2017-11-15 18:45:16 1510789516.448697: $GPGSA,A,3,25,14,3,32,31,10,22,29,,,,,3.4,2.6,2.9*02
2017-11-15 18:45:17 1510789517.371762: $GPZDA,234516.00,15,11,2017,00,00*61
2017-11-15 18:45:17 1510789517.371905: $GPGGA,234516,3946.9492,N,08404.9703,W,1,08,2.60,320.41,M,-33.324,M,,*7C
2017-11-15 18:45:17 1510789517.371967: $GPRMC,234516,A,3946.9492,N,08404.9703,W,0.7246,164.668,151117,,*3D
2017-11-15 18:45:17 1510789517.372023: $GPGSA,A,3,25,14,3,32,31,10,22,29,,,,,3.4,2.6,2.9*02
