2018-01-12 03:34:26 1515746066.146346: {"class":"VERSION","release":"3.16","rev":"3.16-4","proto_major":3,"proto_minor":11}
2018-01-12 03:34:26 1515746066.146708: {"class":"DEVICES","devices":[{"class":"DEVICE","path":"/dev/ttyUSB0","driver":"SiRF","subtype":"9\u0006GSD4e_4.1.2-P1_RPATCH.05-F-GPS-4R-1510281 11/03/2015 307","activated":"2018-01-12T08:34:26.118Z","flags":1,"native":1,"bps":4800,"parity":"N","stopbits":1,"cycle":1.00}]}
2018-01-12 03:34:26 1515746066.146824: {"class":"WATCH","enable":true,"json":false,"nmea":true,"raw":0,"scaled":false,"timing":false,"split24":false,"pps":false}
2018-01-12 03:34:26 1515746066.295317: $GPZDA,083426.00,12,01,2018,00,00*64
2018-01-12 03:34:26 1515746066.295474: $GPGGA,083426,3946.9592,N,08404.9863,W,2,11,0.80,294.91,M,-33.324,M,,*7C
2018-01-12 03:34:26 1515746066.295539: $GPRMC,083426,A,3946.9592,N,08404.9863,W,0.0000,0.000,120118,,*3C
2018-01-12 03:34:26 1515746066.295605: $GPGSA,A,3,2,5,6,12,17,19,23,25,9,24,138,,2.4,0.8,2.1*00
2018-01-12 03:34:26 1515746066.295662: $GPGBS,083426,3.00,M,3.62,M,11.97,M*0F
2018-01-12 03:34:26 1515746066.747370: $GPZDA,083427.00,12,01,2018,00,00*65
2018-01-12 03:34:26 1515746066.747526: $GPGGA,083427,3946.9592,N,08404.9863,W,2,11,0.80,294.91,M,-33.324,M,,*7D
2018-01-12 03:34:26 1515746066.747593: $GPRMC,083427,A,3946.9592,N,08404.9863,W,0.0000,0.000,120118,,*3D
2018-01-12 03:34:26 1515746066.747656: $GPGSA,A,3,2,5,6,12,17,19,23,25,9,24,138,,2.4,0.8,2.1*00
2018-01-12 03:34:26 1515746066.747717: $GPGBS,083427,3.00,M,3.62,M,11.97,M*0E
2018-01-12 03:34:27 1515746067.686943: $GPGSV,3,1,12,02,65,288,47,05,27,195,46,06,64,031,46,12,51,289,51*73
2018-01-12 03:34:27 1515746067.687108: $GPGSV,3,2,12,17,31,105,45,19,49,094,40,23,09,055,20,25,19,318,44*79
2018-01-12 03:34:27 1515746067.687173: $GPGSV,3,3,12,09,14,088,30,24,02,246,24,04,38,261,00,138,38,213,39*46
2018-01-12 03:34:27 1515746067.800625: $GPZDA,083428.00,12,01,2018,00,00*6A
2018-01-12 03:34:27 1515746067.800753: $GPGGA,083428,3946.9592,N,08404.9863,W,2,11,0.80,294.91,M,-33.324,M,,*72
2018-01-12 03:34:27 1515746067.800820: $GPRMC,083428,A,3946.9592,N,08404.9863,W,0.0000,0.000,120118,,*32
2018-01-12 03:34:27 1515746067.800880: $GPGSA,A,3,2,5,6,12,17,19,23,25,9,24,138,,2.4,0.8,2.1*00
2018-01-12 03:34:28 1515746068.350243: $GPZDA,083429.00,12,01,2018,00,00*6B
2018-01-12 03:34:28 1515746068.350390: $GPGGA,083429,3946.9592,N,08404.9863,W,2,11,0.80,294.91,M,-33.324,M,,*73
2018-01-12 03:34:28 1515746068.350457: $GPRMC,083429,A,3946.9592,N,08404.9863,W,0.0000,0.000,120118,,*33
2018-01-12 03:34:28 1515746068.350517: $GPGSA,A,3,2,5,6,12,17,19,23,25,9,24,138,,2.4,0.8,2.1*00
2018-01-12 03:34:29 1515746069.349928: $GPZDA,083430.00,12,01,2018,00,00*63
2018-01-12 03:34:29 1515746069.350076: $GPGGA,083430,3946.9592,N,08404.9863,W,2,11,0.80,294.91,M,-33.324,M,,*7B
2018-01-12 03:34:29 1515746069.350139: $GPRMC,083430,A,3946.9592,N,08404.9863,W,0.0000,0.000,120118,,*3B
2018-01-12 03:34:29 1515746069.350201: $GPGSA,A,3,2,5,6,12,17,19,23,25,9,24,138,,2.4,0.8,2.1*00
2018-01-12 03:34:30 1515746070.679756: $GPGSV,3,1,12,02,65,288,46,05,27,195,46,06,64,031,46,12,51,289,51*72
2018-01-12 03:34:30 1515746070.679890: $GPGSV,3,2,12,17,31,105,45,19,49,094,39,23,09,055,21,25,19,318,44*76
2018-01-12 03:34:30 1515746070.679955: $GPGSV,3,3,12,09,14,088,30,24,02,246,22,04,38,261,00,138,38,213,39*40
2018-01-12 03:34:30 1515746070.793086: $GPZDA,083431.00,12,01,2018,00,00*62
2018-01-12 03:34:30 1515746070.793222: $GPGGA,083431,3946.9592,N,08404.9863,W,2,11,0.80,294.91,M,-33.324,M,,*7A
2018-01-12 03:34:30 1515746070.793286: $GPRMC,083431,A,3946.9592,N,08404.9863,W,0.0000,0.000,120118,,*3A
2018-01-12 03:34:30 1515746070.793348: $GPGSA,A,3,2,5,6,12,17,19,23,25,9,24,138,,2.4,0.8,2.1*00
2018-01-12 03:34:31 1515746071.350492: $GPZDA,083432.00,12,01,2018,00,00*61
2018-01-12 03:34:31 1515746071.350652: $GPGGA,083432,3946.9592,N,08404.9863,W,2,11,0.80,294.91,M,-33.324,M,,*79
2018-01-12 03:34:31 1515746071.350720: $GPRMC,083432,A,3946.9592,N,08404.9863,W,0.0000,0.000,120118,,*39
2018-01-12 03:34:31 1515746071.350780: $GPGSA,A,3,2,5,6,12,17,19,23,25,9,24,138,,2.4,0.8,2.1*00
