2017-11-16 14:31:54 1510860714.887394: {"class":"VERSION","release":"3.17","rev":"3.17","proto_major":3,"proto_minor":12}
2017-11-16 14:31:54 1510860714.887870: {"class":"DEVICES","devices":[{"class":"DEVICE","path":"/dev/ttyUSB0","driver":"SiRF","subtype":"9\u0006GSD4e_4.1.2-P1_RPATCH.05-F-GPS-4R-1510281 11/03/2015 307","activated":"2017-11-16T19:31:54.851Z","flags":1,"native":1,"bps":4800,"parity":"N","stopbits":1,"cycle":1.00}]}
2017-11-16 14:31:54 1510860714.888008: {"class":"WATCH","enable":true,"json":false,"nmea":true,"raw":0,"scaled":false,"timing":false,"split24":false,"pps":false}
2017-11-16 14:31:54 1510860714.964741: $GPZDA,193153.00,16,11,2017,00,00*69
2017-11-16 14:31:54 1510860714.964889: $GPGGA,193153,3946.9564,N,08404.9849,W,2,11,0.80,302.66,M,-33.324,M,,*7C
2017-11-16 14:31:54 1510860714.964958: $GPRMC,193153,A,3946.9564,N,08404.9849,W,0.0000,0.000,161117,,*30
2017-11-16 14:31:54 1510860714.965013: $GPGSA,A,3,8,10,15,18,21,20,24,27,32,14,138,,1.6,0.8,1.3*37
2017-11-16 14:31:55 1510860715.515099: $GPZDA,193154.00,16,11,2017,00,00*6E
2017-11-16 14:31:55 1510860715.515272: $GPGGA,193154,3946.9564,N,08404.9849,W,2,11,0.80,302.66,M,-33.324,M,,*7B
2017-11-16 14:31:55 1510860715.515337: $GPRMC,193154,A,3946.9564,N,08404.9849,W,0.0000,0.000,161117,,*37
2017-11-16 14:31:55 1510860715.515392: $GPGSA,A,3,8,10,15,18,21,20,24,27,32,14,138,,1.6,0.8,1.3*37
2017-11-16 14:31:56 1510860716.542815: $GPZDA,193155.00,16,11,2017,00,00*6F
2017-11-16 14:31:56 1510860716.542984: $GPGGA,193155,3946.9564,N,08404.9849,W,2,11,0.80,302.66,M,-33.324,M,,*7A
2017-11-16 14:31:56 1510860716.543046: $GPRMC,193155,A,3946.9564,N,08404.9849,W,0.0000,0.000,161117,,*36
2017-11-16 14:31:56 1510860716.543101: $GPGSA,A,3,8,10,15,18,21,20,24,27,32,14,138,,1.6,0.8,1.3*37
2017-11-16 14:31:57 1510860717.849851: $GPGSV,3,1,12,08,08,315,34,10,48,307,48,13,01,051,00,15,30,055,51*79
2017-11-16 14:31:57 1510860717.850021: $GPGSV,3,2,12,18,75,358,45,21,55,186,45,20,27,102,46,24,53,096,51*7F
2017-11-16 14:31:57 1510860717.850081: $GPGSV,3,3,12,27,17,282,43,32,27,243,47,14,10,237,39,138,38,213,44*4D
2017-11-16 14:31:57 1510860717.963185: $GPZDA,193156.00,16,11,2017,00,00*6C
2017-11-16 14:31:57 1510860717.963355: $GPGGA,193156,3946.9564,N,08404.9849,W,2,11,0.80,302.66,M,-33.324,M,,*79
2017-11-16 14:31:57 1510860717.963416: $GPRMC,193156,A,3946.9564,N,08404.9849,W,0.0000,0.000,161117,,*35
2017-11-16 14:31:57 1510860717.963472: $GPGSA,A,3,8,10,15,18,21,20,24,27,32,14,138,,1.6,0.8,1.3*37
2017-11-16 14:31:58 1510860718.549360: $GPZDA,193157.00,16,11,2017,00,00*6D
2017-11-16 14:31:58 1510860718.549520: $GPGGA,193157,3946.9564,N,08404.9849,W,2,11,0.80,302.66,M,-33.324,M,,*78
2017-11-16 14:31:58 1510860718.549581: $GPRMC,193157,A,3946.9564,N,08404.9849,W,0.0000,0.000,161117,,*34
2017-11-16 14:31:58 1510860718.549637: $GPGSA,A,3,8,10,15,18,21,20,24,27,32,14,138,,1.6,0.8,1.3*37
2017-11-16 14:31:59 1510860719.513687: $GPZDA,193158.00,16,11,2017,00,00*62
2017-11-16 14:31:59 1510860719.513848: $GPGGA,193158,3946.9564,N,08404.9849,W,2,11,0.80,302.66,M,-33.324,M,,*77
2017-11-16 14:31:59 1510860719.513910: $GPRMC,193158,A,3946.9564,N,08404.9849,W,0.0000,0.000,161117,,*3B
2017-11-16 14:31:59 1510860719.513967: $GPGSA,A,3,8,10,15,18,21,20,24,27,32,14,138,,1.6,0.8,1.3*37
2017-11-16 14:32:00 1510860720.885354: $GPGSV,3,1,12,08,08,315,34,10,48,307,48,13,01,051,00,15,30,055,51*79
2017-11-16 14:32:00 1510860720.885535: $GPGSV,3,2,12,18,75,358,45,21,55,186,45,20,27,102,46,24,53,096,51*7F
2017-11-16 14:32:00 1510860720.885598: $GPGSV,3,3,12,27,17,282,43,32,27,243,47,14,10,237,40,138,38,213,44*43
2017-11-16 14:32:00 1510860720.998969: $GPZDA,193159.00,16,11,2017,00,00*63
2017-11-16 14:32:00 1510860720.999132: $GPGGA,193159,3946.9564,N,08404.9849,W,2,11,0.80,302.66,M,-33.324,M,,*76
2017-11-16 14:32:00 1510860720.999195: $GPRMC,193159,A,3946.9564,N,08404.9849,W,0.0000,0.000,161117,,*3A
2017-11-16 14:32:00 1510860720.999253: $GPGSA,A,3,8,10,15,18,21,20,24,27,32,14,138,,1.6,0.8,1.3*37
2017-11-16 14:32:01 1510860721.548237: $GPZDA,193200.00,16,11,2017,00,00*6C
2017-11-16 14:32:01 1510860721.553106: $GPGGA,193200,3946.9564,N,08404.9849,W,2,11,0.80,302.66,M,-33.324,M,,*79
2017-11-16 14:32:01 1510860721.553212: $GPRMC,193200,A,3946.9564,N,08404.9849,W,0.0000,0.000,161117,,*35
2017-11-16 14:32:01 1510860721.553270: $GPGSA,A,3,8,10,15,18,21,20,24,27,32,14,138,,1.6,0.8,1.3*37
2017-11-16 14:32:02 1510860722.509169: $GPZDA,193201.00,16,11,2017,00,00*6D
2017-11-16 14:32:02 1510860722.509346: $GPGGA,193201,3946.9564,N,08404.9849,W,2,11,0.80,302.66,M,-33.324,M,,*78
2017-11-16 14:32:02 1510860722.509409: $GPRMC,193201,A,3946.9564,N,08404.9849,W,0.0000,0.000,161117,,*34
2017-11-16 14:32:02 1510860722.509465: $GPGSA,A,3,8,10,15,18,21,20,24,27,32,14,138,,1.6,0.8,1.3*37
2017-11-16 14:32:03 1510860723.848832: $GPGSV,3,1,12,08,08,315,36,10,48,307,48,13,01,051,00,15,30,055,51*7B
2017-11-16 14:32:03 1510860723.848993: $GPGSV,3,2,12,18,75,358,45,21,55,186,45,20,27,102,46,24,53,096,51*7F
2017-11-16 14:32:03 1510860723.849054: $GPGSV,3,3,12,27,17,282,44,32,27,243,47,14,10,237,40,138,38,213,43*43
2017-11-16 14:32:03 1510860723.962103: $GPZDA,193202.00,16,11,2017,00,00*6E
2017-11-16 14:32:03 1510860723.962280: $GPGGA,193202,3946.9564,N,08404.9849,W,2,11,0.80,302.66,M,-33.324,M,,*7B
2017-11-16 14:32:03 1510860723.962357: $GPRMC,193202,A,3946.9564,N,08404.9849,W,0.0000,0.000,161117,,*37
2017-11-16 14:32:03 1510860723.962414: $GPGSA,A,3,8,10,15,18,21,20,24,27,32,14,138,,1.6,0.8,1.3*37
2017-11-16 14:32:04 1510860724.587632: $GPZDA,193203.00,16,11,2017,00,00*6F
2017-11-16 14:32:04 1510860724.587796: $GPGGA,193203,3946.9564,N,08404.9849,W,2,11,0.80,302.66,M,-33.324,M,,*7A
2017-11-16 14:32:04 1510860724.587857: $GPRMC,193203,A,3946.9564,N,08404.9849,W,0.0000,0.000,161117,,*36
2017-11-16 14:32:04 1510860724.587914: $GPGSA,A,3,8,10,15,18,21,20,24,27,32,14,138,,1.6,0.8,1.3*37
2017-11-16 14:32:05 1510860725.513597: $GPZDA,193204.00,16,11,2017,00,00*68
2017-11-16 14:32:05 1510860725.513757: $GPGGA,193204,3946.9564,N,08404.9849,W,2,11,0.80,302.66,M,-33.324,M,,*7D
2017-11-16 14:32:05 1510860725.513817: $GPRMC,193204,A,3946.9564,N,08404.9849,W,0.0000,0.000,161117,,*31
2017-11-16 14:32:05 1510860725.513872: $GPGSA,A,3,8,10,15,18,21,20,24,27,32,14,138,,1.6,0.8,1.3*37
2017-11-16 14:32:06 1510860726.879338: $GPGSV,3,1,12,08,08,315,35,10,48,307,48,13,01,051,00,15,30,055,51*78
2017-11-16 14:32:06 1510860726.881089: $GPGSV,3,2,12,18,75,358,44,21,55,186,45,20,27,102,46,24,53,096,50*7F
2017-11-16 14:32:06 1510860726.881182: $GPGSV,3,3,12,27,17,282,44,32,27,243,47,14,10,237,39,138,38,213,42*4C
2017-11-16 14:32:06 1510860726.992720: $GPZDA,193205.00,16,11,2017,00,00*69
2017-11-16 14:32:06 1510860726.992893: $GPGGA,193205,3946.9564,N,08404.9849,W,2,11,0.80,302.66,M,-33.324,M,,*7C
2017-11-16 14:32:06 1510860726.992954: $GPRMC,193205,A,3946.9564,N,08404.9849,W,0.0000,0.000,161117,,*30
2017-11-16 14:32:06 1510860726.993010: $GPGSA,A,3,8,10,15,18,21,20,24,27,32,14,138,,1.6,0.8,1.3*37
2017-11-16 14:32:07 1510860727.549863: $GPZDA,193206.00,16,11,2017,00,00*6A
2017-11-16 14:32:07 1510860727.550042: $GPGGA,193206,3946.9564,N,08404.9849,W,2,11,0.80,302.66,M,-33.324,M,,*7F
2017-11-16 14:32:07 1510860727.550104: $GPRMC,193206,A,3946.9564,N,08404.9849,W,0.0000,0.000,161117,,*33
2017-11-16 14:32:07 1510860727.550161: $GPGSA,A,3,8,10,15,18,21,20,24,27,32,14,138,,1.6,0.8,1.3*37
2017-11-16 14:32:08 1510860728.543253: $GPZDA,193207.00,16,11,2017,00,00*6B
2017-11-16 14:32:08 1510860728.543442: $GPGGA,193207,3946.9564,N,08404.9849,W,2,11,0.80,302.66,M,-33.324,M,,*7E
2017-11-16 14:32:08 1510860728.543506: $GPRMC,193207,A,3946.9564,N,08404.9849,W,0.0000,0.000,161117,,*32
2017-11-16 14:32:08 1510860728.543562: $GPGSA,A,3,8,10,15,18,21,20,24,27,32,14,138,,1.6,0.8,1.3*37
2017-11-16 14:32:09 1510860729.887302: $GPGSV,3,1,12,08,08,315,30,10,48,307,48,13,01,051,00,15,30,055,51*7D
2017-11-16 14:32:09 1510860729.887504: $GPGSV,3,2,12,18,75,358,45,21,55,186,45,20,27,102,46,24,53,096,50*7E
2017-11-16 14:32:09 1510860729.887565: $GPGSV,3,3,12,27,17,282,43,32,27,243,47,14,10,237,40,138,38,213,43*44
2017-11-16 14:32:10 1510860730.000685: $GPZDA,193208.00,16,11,2017,00,00*64
2017-11-16 14:32:10 1510860730.000895: $GPGGA,193208,3946.9564,N,08404.9849,W,2,11,0.80,302.66,M,-33.324,M,,*71
2017-11-16 14:32:10 1510860730.000958: $GPRMC,193208,A,3946.9564,N,08404.9849,W,0.0000,0.000,161117,,*3D
2017-11-16 14:32:10 1510860730.001014: $GPGSA,A,3,8,10,15,18,21,20,24,27,32,14,138,,1.6,0.8,1.3*37
2017-11-16 14:32:10 1510860730.514045: $GPZDA,193209.00,16,11,2017,00,00*65
2017-11-16 14:32:10 1510860730.514226: $GPGGA,193209,3946.9564,N,08404.9849,W,2,11,0.80,302.66,M,-33.324,M,,*70
2017-11-16 14:32:10 1510860730.514287: $GPRMC,193209,A,3946.9564,N,08404.9849,W,0.0000,0.000,161117,,*3C
2017-11-16 14:32:10 1510860730.514360: $GPGSA,A,3,8,10,15,18,21,20,24,27,32,14,138,,1.6,0.8,1.3*37
2017-11-16 14:32:11 1510860731.514293: $GPZDA,193210.00,16,11,2017,00,00*6D
2017-11-16 14:32:11 1510860731.514473: $GPGGA,193210,3946.9564,N,08404.9849,W,2,11,0.80,302.66,M,-33.324,M,,*78
2017-11-16 14:32:11 1510860731.514550: $GPRMC,193210,A,3946.9564,N,08404.9849,W,0.0000,0.000,161117,,*34
2017-11-16 14:32:11 1510860731.514607: $GPGSA,A,3,8,10,15,18,21,20,24,27,32,14,138,,1.6,0.8,1.3*37
2017-11-16 14:32:11 1510860731.514662: $GPGBS,193210,2.12,M,3.10,M,7.47,M*31
2017-11-16 14:32:12 1510860732.881397: $GPGSV,3,1,12,08,08,315,23,10,48,307,48,13,01,051,00,15,30,055,51*7F
2017-11-16 14:32:12 1510860732.881609: $GPGSV,3,2,12,18,75,358,45,21,55,186,45,20,27,102,46,24,53,096,50*7E
2017-11-16 14:32:12 1510860732.881671: $GPGSV,3,3,12,27,17,282,43,32,27,243,47,14,10,237,40,138,38,213,44*43
2017-11-16 14:32:12 1510860732.994775: $GPZDA,193211.00,16,11,2017,00,00*6C
2017-11-16 14:32:12 1510860732.994944: $GPGGA,193211,3946.9564,N,08404.9849,W,2,11,0.80,302.66,M,-33.324,M,,*79
2017-11-16 14:32:12 1510860732.995005: $GPRMC,193211,A,3946.9564,N,08404.9849,W,0.0000,0.000,161117,,*35
2017-11-16 14:32:12 1510860732.995061: $GPGSA,A,3,8,10,15,18,21,20,24,27,32,14,138,,1.6,0.8,1.3*37
2017-11-16 14:32:13 1510860733.514444: $GPZDA,193212.00,16,11,2017,00,00*6F
2017-11-16 14:32:13 1510860733.514628: $GPGGA,193212,3946.9564,N,08404.9849,W,2,11,0.80,302.66,M,-33.324,M,,*7A
2017-11-16 14:32:13 1510860733.514689: $GPRMC,193212,A,3946.9564,N,08404.9849,W,0.0000,0.000,161117,,*36
2017-11-16 14:32:13 1510860733.514745: $GPGSA,A,3,8,10,15,18,21,20,24,27,32,14,138,,1.6,0.8,1.3*37
2017-11-16 14:32:14 1510860734.514807: $GPZDA,193213.00,16,11,2017,00,00*6E
2017-11-16 14:32:14 1510860734.514962: $GPGGA,193213,3946.9564,N,08404.9849,W,2,11,0.80,302.66,M,-33.324,M,,*7B
2017-11-16 14:32:14 1510860734.515022: $GPRMC,193213,A,3946.9564,N,08404.9849,W,0.0000,0.000,161117,,*37
2017-11-16 14:32:14 1510860734.515078: $GPGSA,A,3,8,10,15,18,21,20,24,27,32,14,138,,1.6,0.8,1.3*37
2017-11-16 14:32:15 1510860735.849371: $GPGSV,3,1,12,08,08,315,35,10,48,307,47,13,01,051,00,15,30,055,51*77
2017-11-16 14:32:15 1510860735.849561: $GPGSV,3,2,12,18,75,358,45,21,55,186,45,20,27,102,46,24,53,096,50*7E
2017-11-16 14:32:15 1510860735.849648: $GPGSV,3,3,12,27,17,282,43,32,27,243,47,14,10,237,40,138,38,213,44*43
2017-11-16 14:32:15 1510860735.962756: $GPZDA,193214.00,16,11,2017,00,00*69
2017-11-16 14:32:15 1510860735.962938: $GPGGA,193214,3946.9564,N,08404.9849,W,2,11,0.80,302.66,M,-33.324,M,,*7C
2017-11-16 14:32:15 1510860735.963001: $GPRMC,193214,A,3946.9564,N,08404.9849,W,0.0000,0.000,161117,,*30
2017-11-16 14:32:15 1510860735.963058: $GPGSA,A,3,8,10,15,18,21,20,24,27,32,14,138,,1.6,0.8,1.3*37
2017-11-16 14:32:16 1510860736.515182: $GPZDA,193215.00,16,11,2017,00,00*68
2017-11-16 14:32:16 1510860736.515366: $GPGGA,193215,3946.9564,N,08404.9849,W,2,11,0.80,302.66,M,-33.324,M,,*7D
2017-11-16 14:32:16 1510860736.515428: $GPRMC,193215,A,3946.9564,N,08404.9849,W,0.0000,0.000,161117,,*31
2017-11-16 14:32:16 1510860736.515484: $GPGSA,A,3,8,10,15,18,21,20,24,27,32,14,138,,1.6,0.8,1.3*37
2017-11-16 14:32:17 1510860737.515864: $GPZDA,193216.00,16,11,2017,00,00*6B
2017-11-16 14:32:17 1510860737.516031: $GPGGA,193216,3946.9564,N,08404.9849,W,2,11,0.80,302.66,M,-33.324,M,,*7E
2017-11-16 14:32:17 1510860737.516092: $GPRMC,193216,A,3946.9564,N,08404.9849,W,0.0000,0.000,161117,,*32
2017-11-16 14:32:17 1510860737.516198: $GPGSA,A,3,8,10,15,18,21,20,24,27,32,14,138,,1.6,0.8,1.3*37
2017-11-16 14:32:18 1510860738.851748: $GPGSV,3,1,12,08,08,315,35,10,48,307,47,13,01,051,00,15,30,055,51*77
2017-11-16 14:32:18 1510860738.851916: $GPGSV,3,2,12,18,75,358,45,21,55,186,45,20,27,102,46,24,53,096,50*7E
2017-11-16 14:32:18 1510860738.851976: $GPGSV,3,3,12,27,17,282,43,32,27,243,47,14,10,237,40,138,38,213,43*44
2017-11-16 14:32:18 1510860738.964977: $GPZDA,193217.00,16,11,2017,00,00*6A
2017-11-16 14:32:18 1510860738.965113: $GPGGA,193217,3946.9564,N,08404.9849,W,2,11,0.80,302.66,M,-33.324,M,,*7F
2017-11-16 14:32:18 1510860738.965173: $GPRMC,193217,A,3946.9564,N,08404.9849,W,0.0000,0.000,161117,,*33
2017-11-16 14:32:18 1510860738.965228: $GPGSA,A,3,8,10,15,18,21,20,24,27,32,14,138,,1.6,0.8,1.3*37
2017-11-16 14:32:19 1510860739.590396: $GPZDA,193218.00,16,11,2017,00,00*65
2017-11-16 14:32:19 1510860739.590557: $GPGGA,193218,3946.9564,N,08404.9849,W,2,11,0.80,302.66,M,-33.324,M,,*70
2017-11-16 14:32:19 1510860739.590639: $GPRMC,193218,A,3946.9564,N,08404.9849,W,0.0000,0.000,161117,,*3C
2017-11-16 14:32:19 1510860739.590697: $GPGSA,A,3,8,10,15,18,21,20,24,27,32,14,138,,1.6,0.8,1.3*37
2017-11-16 14:32:20 1510860740.513728: $GPZDA,193219.00,16,11,2017,00,00*64
2017-11-16 14:32:20 1510860740.513918: $GPGGA,193219,3946.9564,N,08404.9849,W,2,11,0.80,302.66,M,-33.324,M,,*71
2017-11-16 14:32:20 1510860740.513978: $GPRMC,193219,A,3946.9564,N,08404.9849,W,0.0000,0.000,161117,,*3D
2017-11-16 14:32:20 1510860740.514034: $GPGSA,A,3,8,10,15,18,21,20,24,27,32,14,138,,1.6,0.8,1.3*37
2017-11-16 14:32:21 1510860741.849526: $GPGSV,3,1,12,08,08,315,36,10,48,307,47,13,01,051,00,15,30,055,51*74
2017-11-16 14:32:21 1510860741.849716: $GPGSV,3,2,12,18,75,358,46,21,55,186,45,20,27,102,46,24,53,096,50*7D
2017-11-16 14:32:21 1510860741.849777: $GPGSV,3,3,12,27,17,282,42,32,27,243,47,14,10,237,40,138,38,213,44*42
2017-11-16 14:32:21 1510860741.962944: $GPZDA,193220.00,16,11,2017,00,00*6E
2017-11-16 14:32:21 1510860741.963103: $GPGGA,193220,3946.9564,N,08404.9849,W,2,11,0.80,302.66,M,-33.324,M,,*7B
2017-11-16 14:32:21 1510860741.963164: $GPRMC,193220,A,3946.9564,N,08404.9849,W,0.0000,0.000,161117,,*37
2017-11-16 14:32:21 1510860741.963220: $GPGSA,A,3,8,10,15,18,21,20,24,27,32,14,138,,1.6,0.8,1.3*37
2017-11-16 14:32:22 1510860742.515051: $GPZDA,193221.00,16,11,2017,00,00*6F
2017-11-16 14:32:22 1510860742.515237: $GPGGA,193221,3946.9564,N,08404.9849,W,2,11,0.80,302.66,M,-33.324,M,,*7A
2017-11-16 14:32:22 1510860742.515299: $GPRMC,193221,A,3946.9564,N,08404.9849,W,0.0000,0.000,161117,,*36
2017-11-16 14:32:22 1510860742.515354: $GPGSA,A,3,8,10,15,18,21,20,24,27,32,14,138,,1.6,0.8,1.3*37
2017-11-16 14:32:23 1510860743.514774: $GPZDA,193222.00,16,11,2017,00,00*6C
2017-11-16 14:32:23 1510860743.514953: $GPGGA,193222,3946.9564,N,08404.9849,W,2,11,0.80,302.66,M,-33.324,M,,*79
2017-11-16 14:32:23 1510860743.515014: $GPRMC,193222,A,3946.9564,N,08404.9849,W,0.0000,0.000,161117,,*35
2017-11-16 14:32:23 1510860743.515070: $GPGSA,A,3,8,10,15,18,21,20,24,27,32,14,138,,1.6,0.8,1.3*37
2017-11-16 14:32:24 1510860744.852484: $GPGSV,3,1,12,08,08,315,38,10,48,307,47,13,01,051,00,15,30,055,51*7A
2017-11-16 14:32:24 1510860744.852658: $GPGSV,3,2,12,18,75,358,46,21,55,186,45,20,27,102,46,24,53,096,49*75
2017-11-16 14:32:24 1510860744.852719: $GPGSV,3,3,12,27,17,282,42,32,27,243,48,14,10,237,40,138,38,213,44*4D
2017-11-16 14:32:24 1510860744.965867: $GPZDA,193223.00,16,11,2017,00,00*6D
2017-11-16 14:32:24 1510860744.966043: $GPGGA,193223,3946.9564,N,08404.9849,W,2,11,0.80,302.66,M,-33.324,M,,*78
2017-11-16 14:32:24 1510860744.966103: $GPRMC,193223,A,3946.9564,N,08404.9849,W,0.0000,0.000,161117,,*34
2017-11-16 14:32:24 1510860744.966158: $GPGSA,A,3,8,10,15,18,21,20,24,27,32,14,138,,1.6,0.8,1.3*37
