2017-12-14 12:31:43 1513272703.444823: {"class":"VERSION","release":"3.16","rev":"3.16-4","proto_major":3,"proto_minor":11}
2017-12-14 12:31:43 1513272703.445212: {"class":"DEVICES","devices":[{"class":"DEVICE","path":"/dev/ttyUSB0","driver":"SiRF","subtype":"9\u0006GSD4e_4.1.2-P1_RPATCH.05-F-GPS-4R-1510281 11/03/2015 307","activated":"2017-12-14T17:31:43.354Z","flags":1,"native":1,"bps":4800,"parity":"N","stopbits":1,"cycle":1.00}]}
2017-12-14 12:31:43 1513272703.445360: {"class":"WATCH","enable":true,"json":false,"nmea":true,"raw":0,"scaled":false,"timing":false,"split24":false,"pps":false}
2017-12-14 12:31:44 1513272704.565159: $GPGSV,3,1,12,10,46,306,18,15,32,054,21,20,30,100,18,24,52,100,18*70
2017-12-14 12:31:44 1513272704.565336: $GPGSV,3,2,12,27,18,283,13,32,26,241,21,18,74,352,00,14,08,235,00*7A
2017-12-14 12:31:44 1513272704.565401: $GPGSV,3,3,12,08,07,318,00,21,57,184,00,13,03,051,00,120,07,103,00*40
2017-12-14 12:31:44 1513272704.678625: $GPZDA,173145.00,14,12,2017,00,00*61
2017-12-14 12:31:44 1513272704.678935: $GPGGA,173145,3946.9585,N,08404.9425,W,1,06,1.20,340.22,M,-33.324,M,,*74
2017-12-14 12:31:44 1513272704.679058: $GPRMC,173145,A,3946.9585,N,08404.9425,W,0.2422,273.795,141217,,*3A
2017-12-14 12:31:44 1513272704.679177: $GPGSA,A,3,10,15,20,24,27,32,,,,,,,6.6,1.2,6.2*30
2017-12-14 12:31:45 1513272705.229394: $GPZDA,173146.00,14,12,2017,00,00*62
2017-12-14 12:31:45 1513272705.229594: $GPGGA,173146,3946.9585,N,08404.9425,W,1,06,1.20,340.22,M,-33.324,M,,*77
2017-12-14 12:31:45 1513272705.229662: $GPRMC,173146,A,3946.9585,N,08404.9425,W,0.0000,0.000,141217,,*32
2017-12-14 12:31:45 1513272705.229723: $GPGSA,A,3,10,15,20,24,27,32,,,,,,,6.6,1.2,6.2*30
2017-12-14 12:31:46 1513272706.213322: $GPZDA,173147.00,14,12,2017,00,00*63
2017-12-14 12:31:46 1513272706.213497: $GPGGA,173147,3946.9585,N,08404.9425,W,1,06,1.20,340.22,M,-33.324,M,,*76
2017-12-14 12:31:46 1513272706.213564: $GPRMC,173147,A,3946.9585,N,08404.9425,W,0.3423,4.197,141217,,*3E
2017-12-14 12:31:46 1513272706.213625: $GPGSA,A,3,10,15,20,24,27,32,,,,,,,6.6,1.2,6.2*30
2017-12-14 12:31:47 1513272707.564757: $GPGSV,3,1,12,10,46,306,17,15,32,054,21,20,30,100,18,24,52,100,18*7F
2017-12-14 12:31:47 1513272707.565053: $GPGSV,3,2,12,27,18,283,12,32,26,241,21,18,74,352,14,14,08,235,00*7E
2017-12-14 12:31:47 1513272707.565204: $GPGSV,3,3,12,08,07,318,00,21,57,184,00,13,03,051,00,120,07,103,00*40
2017-12-14 12:31:47 1513272707.677880: $GPZDA,173148.00,14,12,2017,00,00*6C
2017-12-14 12:31:47 1513272707.678035: $GPGGA,173148,3946.9585,N,08404.9425,W,1,06,1.20,340.22,M,-33.324,M,,*79
2017-12-14 12:31:47 1513272707.678100: $GPRMC,173148,A,3946.9585,N,08404.9425,W,0.3155,309.994,141217,,*30
2017-12-14 12:31:47 1513272707.678161: $GPGSA,A,3,10,15,20,24,27,32,,,,,,,6.6,1.2,6.2*30
2017-12-14 12:31:48 1513272708.228019: $GPZDA,173149.00,14,12,2017,00,00*6D
2017-12-14 12:31:48 1513272708.228185: $GPGGA,173149,3946.9585,N,08404.9425,W,1,06,1.20,340.22,M,-33.324,M,,*78
2017-12-14 12:31:48 1513272708.228249: $GPRMC,173149,A,3946.9585,N,08404.9425,W,0.3423,184.197,141217,,*39
2017-12-14 12:31:48 1513272708.228333: $GPGSA,A,3,10,15,20,24,27,32,,,,,,,6.6,1.2,6.2*30
2017-12-14 12:31:49 1513272709.229397: $GPZDA,173150.00,14,12,2017,00,00*65
2017-12-14 12:31:49 1513272709.229584: $GPGGA,173150,3946.9582,N,08404.9425,W,1,06,1.20,340.98,M,-33.324,M,,*76
2017-12-14 12:31:49 1513272709.229651: $GPRMC,173150,A,3946.9582,N,08404.9425,W,0.5951,238.684,141217,,*39
2017-12-14 12:31:49 1513272709.229711: $GPGSA,A,3,10,15,20,24,27,32,,,,,,,6.6,1.2,6.2*30
2017-12-14 12:31:50 1513272710.565109: $GPGSV,3,1,12,10,46,306,16,15,32,054,20,20,30,100,18,24,52,100,18*7F
2017-12-14 12:31:50 1513272710.565303: $GPGSV,3,2,12,27,18,283,13,32,26,241,21,18,74,352,00,14,08,235,00*7A
2017-12-14 12:31:50 1513272710.565369: $GPGSV,3,3,12,08,07,318,00,21,57,184,00,13,03,051,00,120,07,103,00*40
2017-12-14 12:31:50 1513272710.678472: $GPZDA,173151.00,14,12,2017,00,00*64
2017-12-14 12:31:50 1513272710.678618: $GPGGA,173151,3946.9582,N,08404.9425,W,1,06,1.20,340.98,M,-33.324,M,,*77
2017-12-14 12:31:50 1513272710.678740: $GPRMC,173151,A,3946.9582,N,08404.9425,W,0.4844,273.795,141217,,*32
2017-12-14 12:31:50 1513272710.678802: $GPGSA,A,3,10,15,20,24,27,32,,,,,,,6.6,1.2,6.2*30
2017-12-14 12:31:51 1513272711.212437: $GPZDA,173152.00,14,12,2017,00,00*67
2017-12-14 12:31:51 1513272711.212609: $GPGGA,173152,3946.9582,N,08404.9425,W,1,06,1.20,340.98,M,-33.324,M,,*74
2017-12-14 12:31:51 1513272711.212676: $GPRMC,173152,A,3946.9582,N,08404.9425,W,0.5951,238.684,141217,,*3B
2017-12-14 12:31:51 1513272711.212737: $GPGSA,A,3,10,15,20,24,27,32,,,,,,,6.6,1.2,6.2*30
2017-12-14 12:31:52 1513272712.227492: $GPZDA,173153.00,14,12,2017,00,00*66
2017-12-14 12:31:52 1513272712.227665: $GPGGA,173153,3946.9582,N,08404.9425,W,1,06,1.20,340.98,M,-33.324,M,,*75
2017-12-14 12:31:52 1513272712.227731: $GPRMC,173153,A,3946.9582,N,08404.9425,W,0.8054,248.645,141217,,*31
2017-12-14 12:31:52 1513272712.227793: $GPGSA,A,3,10,15,20,24,27,32,,,,,,,6.6,1.2,6.2*30
2017-12-14 12:31:53 1513272713.564954: $GPGSV,3,1,12,10,46,306,15,15,32,054,20,20,30,100,18,24,52,100,19*7D
2017-12-14 12:31:53 1513272713.565129: $GPGSV,3,2,12,27,18,283,12,32,26,241,21,18,74,352,00,14,08,235,00*7B
2017-12-14 12:31:53 1513272713.565194: $GPGSV,3,3,12,08,07,318,00,21,57,184,00,13,03,051,00,120,07,103,00*40
2017-12-14 12:31:53 1513272713.678381: $GPZDA,173154.00,14,12,2017,00,00*61
2017-12-14 12:31:53 1513272713.678562: $GPGGA,173154,3946.9582,N,08404.9432,W,1,06,1.20,340.90,M,-33.324,M,,*7C
2017-12-14 12:31:53 1513272713.678626: $GPRMC,173154,A,3946.9582,N,08404.9432,W,0.5951,238.684,141217,,*3B
2017-12-14 12:31:53 1513272713.678686: $GPGSA,A,3,10,15,20,24,27,32,,,,,,,6.6,1.2,6.2*30
2017-12-14 12:31:54 1513272714.228538: $GPZDA,173155.00,14,12,2017,00,00*60
2017-12-14 12:31:54 1513272714.228711: $GPGGA,173155,3946.9583,N,08404.9433,W,1,06,1.20,342.31,M,-33.324,M,,*74
2017-12-14 12:31:54 1513272714.228777: $GPRMC,173155,A,3946.9583,N,08404.9433,W,0.2422,273.795,141217,,*3A
2017-12-14 12:31:54 1513272714.228838: $GPGSA,A,3,10,15,20,24,27,32,,,,,,,6.6,1.2,6.2*30
2017-12-14 12:31:55 1513272715.211857: $GPZDA,173156.00,14,12,2017,00,00*63
2017-12-14 12:31:55 1513272715.212019: $GPGGA,173156,3946.9583,N,08404.9433,W,1,06,1.40,342.31,M,-33.324,M,,*71
2017-12-14 12:31:55 1513272715.212155: $GPRMC,173156,A,3946.9583,N,08404.9433,W,0.5912,309.173,141217,,*32
2017-12-14 12:31:55 1513272715.212218: $GPGSA,A,3,10,15,20,24,27,32,,,,,,,6.6,1.4,6.2*36
2017-12-14 12:31:56 1513272716.547194: $GPGSV,3,1,12,10,46,306,14,15,32,054,20,20,30,100,18,24,52,100,19*7C
2017-12-14 12:31:56 1513272716.547473: $GPGSV,3,2,12,27,18,283,14,32,26,241,21,18,74,352,00,14,08,235,00*7D
2017-12-14 12:31:56 1513272716.547559: $GPGSV,3,3,12,08,07,318,00,21,57,184,00,13,03,051,00,120,07,103,00*40
2017-12-14 12:31:56 1513272716.660192: $GPZDA,173157.00,14,12,2017,00,00*62
2017-12-14 12:31:56 1513272716.660377: $GPGGA,173157,3946.9583,N,08404.9433,W,1,06,1.40,342.31,M,-33.324,M,,*70
2017-12-14 12:31:56 1513272716.660461: $GPRMC,173157,A,3946.9583,N,08404.9433,W,0.3423,4.197,141217,,*3E
2017-12-14 12:31:56 1513272716.660522: $GPGSA,A,3,10,15,20,24,27,32,,,,,,,6.6,1.4,6.2*36
2017-12-14 12:31:57 1513272717.211603: $GPZDA,173158.00,14,12,2017,00,00*6D
2017-12-14 12:31:57 1513272717.211777: $GPGGA,173158,3946.9586,N,08404.9425,W,1,06,1.40,341.62,M,-33.324,M,,*78
2017-12-14 12:31:57 1513272717.211843: $GPRMC,173158,A,3946.9586,N,08404.9425,W,0.7278,23.636,141217,,*06
2017-12-14 12:31:57 1513272717.211903: $GPGSA,A,3,10,15,20,24,27,32,,,,,,,6.6,1.4,6.2*36
2017-12-14 12:31:58 1513272718.211724: $GPZDA,173159.00,14,12,2017,00,00*6C
2017-12-14 12:31:58 1513272718.211896: $GPGGA,173159,3946.9590,N,08404.9425,W,1,06,1.40,342.26,M,-33.324,M,,*7D
2017-12-14 12:31:58 1513272718.211962: $GPRMC,173159,A,3946.9590,N,08404.9425,W,0.4207,39.347,141217,,*03
2017-12-14 12:31:58 1513272718.212023: $GPGSA,A,3,10,15,20,24,27,32,,,,,,,6.6,1.4,6.2*36
2017-12-14 12:31:59 1513272719.546685: $GPGSV,3,1,12,10,46,306,13,15,32,054,19,20,30,100,18,24,52,100,20*7B
2017-12-14 12:31:59 1513272719.546878: $GPGSV,3,2,12,27,18,283,16,32,26,241,20,18,74,352,00,14,08,235,00*7E
2017-12-14 12:31:59 1513272719.546994: $GPGSV,3,3,12,08,07,318,00,21,57,184,00,13,03,051,00,120,07,103,00*40
2017-12-14 12:31:59 1513272719.660306: $GPZDA,173200.00,14,12,2017,00,00*63
2017-12-14 12:31:59 1513272719.660466: $GPGGA,173200,3946.9590,N,08404.9425,W,1,06,1.40,342.26,M,-33.324,M,,*72
2017-12-14 12:31:59 1513272719.660531: $GPRMC,173200,A,3946.9590,N,08404.9425,W,0.4207,39.347,141217,,*0C
2017-12-14 12:31:59 1513272719.660592: $GPGSA,A,3,10,15,20,24,27,32,,,,,,,6.6,1.4,6.2*36
2017-12-14 12:32:00 1513272720.211268: $GPZDA,173201.00,14,12,2017,00,00*62
2017-12-14 12:32:00 1513272720.211502: $GPGGA,173201,3946.9590,N,08404.9418,W,1,06,1.40,342.34,M,-33.324,M,,*7E
2017-12-14 12:32:00 1513272720.211598: $GPRMC,173201,A,3946.9590,N,08404.9418,W,0.5951,58.684,141217,,*07
2017-12-14 12:32:00 1513272720.211683: $GPGSA,A,3,10,15,20,24,27,32,,,,,,,6.6,1.4,6.2*36
2017-12-14 12:32:01 1513272721.212472: $GPZDA,173202.00,14,12,2017,00,00*61
2017-12-14 12:32:01 1513272721.212638: $GPGGA,173202,3946.9590,N,08404.9418,W,1,06,1.40,342.34,M,-33.324,M,,*7D
2017-12-14 12:32:01 1513272721.212704: $GPRMC,173202,A,3946.9590,N,08404.9418,W,0.5951,58.684,141217,,*04
2017-12-14 12:32:01 1513272721.212764: $GPGSA,A,3,10,15,20,24,27,32,,,,,,,6.6,1.4,6.2*36
2017-12-14 12:32:02 1513272722.546029: $GPGSV,3,1,12,10,46,306,04,15,32,054,19,20,30,100,18,24,52,100,20*7D
2017-12-14 12:32:02 1513272722.546207: $GPGSV,3,2,12,27,18,283,16,32,26,241,20,18,74,352,00,14,08,235,00*7E
2017-12-14 12:32:02 1513272722.546272: $GPGSV,3,3,12,08,07,318,00,21,57,184,00,13,03,051,00,120,07,103,00*40
2017-12-14 12:32:02 1513272722.659764: $GPZDA,173203.00,14,12,2017,00,00*60
2017-12-14 12:32:02 1513272722.659929: $GPGGA,173203,3946.9590,N,08404.9418,W,1,05,1.60,342.34,M,-33.324,M,,*7D
2017-12-14 12:32:02 1513272722.659995: $GPRMC,173203,A,3946.9590,N,08404.9418,W,0.7576,81.915,141217,,*0D
2017-12-14 12:32:02 1513272722.660057: $GPGSA,A,3,15,20,24,27,32,,,,,,,,6.6,1.6,6.2*35
2017-12-14 12:32:03 1513272723.210808: $GPZDA,173204.00,14,12,2017,00,00*67
2017-12-14 12:32:03 1513272723.210996: $GPGGA,173204,3946.9589,N,08404.9411,W,1,05,1.60,342.42,M,-33.324,M,,*7A
2017-12-14 12:32:03 1513272723.211062: $GPRMC,173204,A,3946.9589,N,08404.9411,W,0.5306,114.353,141217,,*3D
2017-12-14 12:32:03 1513272723.211122: $GPGSA,A,3,15,20,24,27,32,,,,,,,,6.6,1.6,6.2*35
