2017-11-15 18:18:07 1510787887.974269: {"class":"VERSION","release":"3.17","rev":"3.17","proto_major":3,"proto_minor":12}
2017-11-15 18:18:07 1510787887.974705: {"class":"DEVICES","devices":[{"class":"DEVICE","path":"/dev/ttyUSB0","driver":"SiRF","subtype":"9\u0006GSD4e_4.1.2-P1_RPATCH.05-F-GPS-4R-1510281 11/03/2015 307","activated":"2017-11-15T23:18:07.471Z","flags":1,"native":1,"bps":4800,"parity":"N","stopbits":1,"cycle":1.00}]}
2017-11-15 18:18:07 1510787887.974826: {"class":"WATCH","enable":true,"json":false,"nmea":true,"raw":0,"scaled":false,"timing":false,"split24":false,"pps":false}
2017-11-15 18:18:08 1510787888.329354: $GPZDA,231807.00,15,11,2017,00,00*69
2017-11-15 18:18:08 1510787888.329516: $GPGGA,231807,3946.9696,N,08404.9648,W,1,05,3.60,303.20,M,-33.324,M,,*76
2017-11-15 18:18:08 1510787888.329576: $GPRMC,231807,A,3946.9696,N,08404.9648,W,0.7238,320.710,151117,,*38
2017-11-15 18:18:08 1510787888.329633: $GPGSA,A,3,10,22,26,31,25,,,,,,,,3.4,3.6,2.9*3B
2017-11-15 18:18:09 1510787889.696364: $GPGSV,3,1,12,10,29,154,13,22,34,307,08,01,21,282,00,26,18,180,18*7C
2017-11-15 18:18:09 1510787889.696540: $GPGSV,3,2,12,31,73,252,20,32,60,067,08,25,39,066,20,14,70,018,12*73
2017-11-15 18:18:09 1510787889.696599: $GPGSV,3,3,12,03,14,316,00,12,12,036,00,11,02,267,00,120,07,103,00*4A
2017-11-15 18:18:09 1510787889.809674: $GPZDA,231808.00,15,11,2017,00,00*66
2017-11-15 18:18:09 1510787889.809830: $GPGGA,231808,3946.9696,N,08404.9648,W,1,06,3.60,303.20,M,-33.324,M,,*7A
2017-11-15 18:18:09 1510787889.809891: $GPRMC,231808,A,3946.9696,N,08404.9648,W,0.9066,309.458,151117,,*34
2017-11-15 18:18:09 1510787889.809946: $GPGSA,A,3,10,22,26,31,25,14,,,,,,,3.4,3.6,2.9*3E
2017-11-15 18:18:10 1510787890.329327: $GPZDA,231809.00,15,11,2017,00,00*67
2017-11-15 18:18:10 1510787890.329497: $GPGGA,231809,3946.9696,N,08404.9648,W,1,06,1.20,303.20,M,-33.324,M,,*7D
2017-11-15 18:18:10 1510787890.329558: $GPRMC,231809,A,3946.9696,N,08404.9648,W,0.4179,328.778,151117,,*35
2017-11-15 18:18:10 1510787890.329614: $GPGSA,A,3,10,22,26,31,25,14,,,,,,,3.4,1.2,2.9*38
2017-11-15 18:18:11 1510787891.330073: $GPZDA,231810.00,15,11,2017,00,00*6F
2017-11-15 18:18:11 1510787891.330233: $GPGGA,231810,3946.9696,N,08404.9648,W,1,06,3.60,303.20,M,-33.324,M,,*73
2017-11-15 18:18:11 1510787891.330292: $GPRMC,231810,A,3946.9696,N,08404.9648,W,0.2422,273.794,151117,,*3D
2017-11-15 18:18:11 1510787891.330348: $GPGSA,A,3,10,22,26,31,25,14,,,,,,,3.4,3.6,2.9*3E
2017-11-15 18:18:12 1510787892.665525: $GPGSV,3,1,12,10,29,154,12,22,34,307,08,01,21,282,00,26,18,180,18*7D
2017-11-15 18:18:12 1510787892.665710: $GPGSV,3,2,12,31,73,252,20,32,60,067,12,25,39,066,19,14,70,018,14*74
2017-11-15 18:18:12 1510787892.665773: $GPGSV,3,3,12,03,14,316,00,12,12,036,00,11,02,267,00,120,07,103,00*4A
2017-11-15 18:18:12 1510787892.778880: $GPZDA,231811.00,15,11,2017,00,00*6E
2017-11-15 18:18:12 1510787892.779034: $GPGGA,231811,3946.9696,N,08404.9648,W,1,07,3.00,303.20,M,-33.324,M,,*75
2017-11-15 18:18:12 1510787892.779097: $GPRMC,231811,A,3946.9696,N,08404.9648,W,0.7576,261.914,151117,,*3C
2017-11-15 18:18:12 1510787892.779157: $GPGSA,A,3,10,22,26,31,32,25,14,,,,,,3.4,3.0,2.9*39
2017-11-15 18:18:13 1510787893.329798: $GPZDA,231812.00,15,11,2017,00,00*6D
2017-11-15 18:18:13 1510787893.329969: $GPGGA,231812,3946.9688,N,08404.9649,W,1,07,3.00,303.33,M,-33.324,M,,*7A
2017-11-15 18:18:13 1510787893.330034: $GPRMC,231812,A,3946.9688,N,08404.9649,W,1.1048,246.986,151117,,*30
2017-11-15 18:18:13 1510787893.330093: $GPGSA,A,3,10,22,26,31,32,25,14,,,,,,3.4,3.0,2.9*39
2017-11-15 18:18:14 1510787894.330746: $GPZDA,231813.00,15,11,2017,00,00*6C
2017-11-15 18:18:14 1510787894.330926: $GPGGA,231813,3946.9688,N,08404.9656,W,1,07,3.00,303.25,M,-33.324,M,,*72
2017-11-15 18:18:14 1510787894.330997: $GPRMC,231813,A,3946.9688,N,08404.9656,W,1.3954,244.414,151117,,*3D
2017-11-15 18:18:14 1510787894.331077: $GPGSA,A,3,10,22,26,31,32,25,14,,,,,,3.4,3.0,2.9*39
2017-11-15 18:18:15 1510787895.697626: $GPGSV,3,1,12,10,29,154,13,22,34,307,05,01,21,282,16,26,18,180,18*76
2017-11-15 18:18:15 1510787895.697800: $GPGSV,3,2,12,31,73,252,20,32,60,067,15,25,39,066,19,14,70,018,14*73
2017-11-15 18:18:15 1510787895.697916: $GPGSV,3,3,12,03,14,316,00,12,12,036,00,11,02,267,00,120,07,103,00*4A
2017-11-15 18:18:15 1510787895.810880: $GPZDA,231814.00,15,11,2017,00,00*6B
2017-11-15 18:18:15 1510787895.811019: $GPGGA,231814,3946.9681,N,08404.9656,W,1,06,3.00,303.37,M,-33.324,M,,*7E
2017-11-15 18:18:15 1510787895.811081: $GPRMC,231814,A,3946.9681,N,08404.9656,W,1.0018,230.691,151117,,*3D
2017-11-15 18:18:15 1510787895.811136: $GPGSA,A,3,10,26,31,32,25,14,,,,,,,3.4,3.0,2.9*39
2017-11-15 18:18:16 1510787896.436887: $GPZDA,231815.00,15,11,2017,00,00*6A
2017-11-15 18:18:16 1510787896.437041: $GPGGA,231815,3946.9681,N,08404.9656,W,1,06,1.20,303.37,M,-33.324,M,,*7F
2017-11-15 18:18:16 1510787896.437101: $GPRMC,231815,A,3946.9681,N,08404.9656,W,1.3255,251.714,151117,,*3F
2017-11-15 18:18:16 1510787896.437157: $GPGSA,A,3,10,26,31,32,25,14,,,,,,,3.4,1.2,2.9*39
2017-11-15 18:18:17 1510787897.360613: $GPZDA,231816.00,15,11,2017,00,00*69
2017-11-15 18:18:17 1510787897.360783: $GPGGA,231816,3946.9677,N,08404.9663,W,1,06,1.20,302.65,M,-33.324,M,,*75
2017-11-15 18:18:17 1510787897.360845: $GPRMC,231816,A,3946.9677,N,08404.9663,W,0.9959,264.784,151117,,*30
2017-11-15 18:18:17 1510787897.360901: $GPGSA,A,3,10,26,31,32,25,14,,,,,,,3.4,1.2,2.9*39
2017-11-15 18:18:18 1510787898.696913: $GPGSV,3,1,12,10,29,154,14,22,34,307,15,11,02,267,11,26,18,180,18*7C
2017-11-15 18:18:18 1510787898.697082: $GPGSV,3,2,12,31,73,252,20,32,60,067,17,25,39,066,18,14,70,018,15*71
2017-11-15 18:18:18 1510787898.697141: $GPGSV,3,3,12,01,21,282,00,03,14,316,00,12,12,036,00,120,07,103,00*41
2017-11-15 18:18:18 1510787898.810445: $GPZDA,231817.00,15,11,2017,00,00*68
2017-11-15 18:18:18 1510787898.810608: $GPGGA,231817,3946.9673,N,08404.9664,W,1,07,1.20,303.42,M,-33.324,M,,*72
2017-11-15 18:18:18 1510787898.810669: $GPRMC,231817,A,3946.9673,N,08404.9664,W,0.7267,273.794,151117,,*3D
2017-11-15 18:18:18 1510787898.810725: $GPGSA,A,3,10,22,26,31,32,25,14,,,,,,3.4,1.2,2.9*39
2017-11-15 18:18:19 1510787899.329849: $GPZDA,231818.00,15,11,2017,00,00*67
2017-11-15 18:18:19 1510787899.330012: $GPGGA,231818,3946.9673,N,08404.9657,W,1,07,1.20,303.50,M,-33.324,M,,*7E
2017-11-15 18:18:19 1510787899.330073: $GPRMC,231818,A,3946.9673,N,08404.9657,W,0.2422,93.794,151117,,*0C
2017-11-15 18:18:19 1510787899.330128: $GPGSA,A,3,10,22,26,31,32,25,14,,,,,,3.4,1.2,2.9*39
2017-11-15 18:18:20 1510787900.360717: $GPZDA,231819.00,15,11,2017,00,00*66
2017-11-15 18:18:20 1510787900.360879: $GPGGA,231819,3946.9673,N,08404.9657,W,1,07,1.20,303.50,M,-33.324,M,,*7F
2017-11-15 18:18:20 1510787900.360940: $GPRMC,231819,A,3946.9673,N,08404.9657,W,0.4844,93.794,151117,,*07
2017-11-15 18:18:20 1510787900.360995: $GPGSA,A,3,10,22,26,31,32,25,14,,,,,,3.4,1.2,2.9*39
2017-11-15 18:18:21 1510787901.697296: $GPGSV,3,1,12,10,29,154,14,22,34,307,15,11,02,267,11,26,18,180,18*7C
2017-11-15 18:18:21 1510787901.697472: $GPGSV,3,2,12,31,73,252,20,32,60,067,17,25,39,066,18,14,70,018,16*72
2017-11-15 18:18:21 1510787901.697532: $GPGSV,3,3,12,03,14,316,03,01,21,282,00,12,12,036,00,120,07,103,00*42
2017-11-15 18:18:21 1510787901.810662: $GPZDA,231820.00,15,11,2017,00,00*6C
2017-11-15 18:18:21 1510787901.810830: $GPGGA,231820,3946.9669,N,08404.9650,W,1,08,1.20,302.94,M,-33.324,M,,*7F
2017-11-15 18:18:21 1510787901.810890: $GPRMC,231820,A,3946.9669,N,08404.9650,W,0.4844,93.794,151117,,*01
2017-11-15 18:18:21 1510787901.810946: $GPGSA,A,3,10,22,11,26,31,32,25,14,,,,,3.4,1.2,2.9*39
2017-11-15 18:18:22 1510787902.330204: $GPZDA,231821.00,15,11,2017,00,00*6D
2017-11-15 18:18:22 1510787902.330379: $GPGGA,231821,3946.9669,N,08404.9650,W,1,08,1.20,302.94,M,-33.324,M,,*7E
2017-11-15 18:18:22 1510787902.330441: $GPRMC,231821,A,3946.9669,N,08404.9650,W,0.4179,148.778,151117,,*32
2017-11-15 18:18:22 1510787902.330501: $GPGSA,A,3,10,22,11,26,31,32,25,14,,,,,3.4,1.2,2.9*39
2017-11-15 18:18:23 1510787903.331295: $GPZDA,231822.00,15,11,2017,00,00*6E
2017-11-15 18:18:23 1510787903.331472: $GPGGA,231822,3946.9664,N,08404.9650,W,1,08,1.20,302.30,M,-33.324,M,,*7E
2017-11-15 18:18:23 1510787903.331585: $GPRMC,231822,A,3946.9664,N,08404.9650,W,0.0000,0.000,151117,,*32
2017-11-15 18:18:23 1510787903.331643: $GPGSA,A,3,10,22,11,26,31,32,25,14,,,,,3.4,1.2,2.9*39
2017-11-15 18:18:24 1510787904.698073: $GPGSV,3,1,12,10,29,154,13,22,34,307,15,01,21,282,10,26,18,180,18*71
2017-11-15 18:18:24 1510787904.698246: $GPGSV,3,2,12,31,73,252,20,32,60,067,18,25,39,066,18,14,70,018,17*7C
2017-11-15 18:18:24 1510787904.698306: $GPGSV,3,3,12,03,14,316,08,12,12,036,00,11,02,267,00,120,07,103,00*42
2017-11-15 18:18:24 1510787904.811369: $GPZDA,231823.00,15,11,2017,00,00*6F
2017-11-15 18:18:24 1510787904.811540: $GPGGA,231823,3946.9664,N,08404.9650,W,1,07,1.20,302.30,M,-33.324,M,,*70
2017-11-15 18:18:24 1510787904.811603: $GPRMC,231823,A,3946.9664,N,08404.9650,W,0.2422,273.794,151117,,*39
2017-11-15 18:18:24 1510787904.811658: $GPGSA,A,3,10,22,26,31,32,25,14,,,,,,3.4,1.2,2.9*39
2017-11-15 18:18:25 1510787905.362239: $GPZDA,231824.00,15,11,2017,00,00*68
2017-11-15 18:18:25 1510787905.362405: $GPGGA,231824,3946.9661,N,08404.9651,W,1,07,1.20,303.06,M,-33.324,M,,*77
2017-11-15 18:18:25 1510787905.362468: $GPRMC,231824,A,3946.9661,N,08404.9651,W,0.2422,273.794,151117,,*3A
2017-11-15 18:18:25 1510787905.362524: $GPGSA,A,3,10,22,26,31,32,25,14,,,,,,3.4,1.2,2.9*39
2017-11-15 18:18:26 1510787906.330517: $GPZDA,231825.00,15,11,2017,00,00*69
2017-11-15 18:18:26 1510787906.330662: $GPGGA,231825,3946.9661,N,08404.9651,W,1,07,1.20,303.06,M,-33.324,M,,*76
2017-11-15 18:18:26 1510787906.330723: $GPRMC,231825,A,3946.9661,N,08404.9651,W,0.5912,309.172,151117,,*30
2017-11-15 18:18:26 1510787906.330779: $GPGSA,A,3,10,22,26,31,32,25,14,,,,,,3.4,1.2,2.9*39
2017-11-15 18:18:27 1510787907.697205: $GPGSV,3,1,12,10,29,154,14,22,34,307,15,01,21,282,00,26,18,180,18*77
2017-11-15 18:18:27 1510787907.697380: $GPGSV,3,2,12,31,73,252,21,32,60,067,18,25,39,066,18,14,70,018,17*7D
2017-11-15 18:18:27 1510787907.697442: $GPGSV,3,3,12,03,14,316,08,12,12,036,00,11,02,267,00,120,07,103,00*42
2017-11-15 18:18:27 1510787907.810841: $GPZDA,231826.00,15,11,2017,00,00*6A
2017-11-15 18:18:27 1510787907.810999: $GPGGA,231826,3946.9657,N,08404.9651,W,1,07,1.20,302.42,M,-33.324,M,,*71
2017-11-15 18:18:27 1510787907.811061: $GPRMC,231826,A,3946.9657,N,08404.9651,W,0.3423,4.197,151117,,*3A
2017-11-15 18:18:27 1510787907.811116: $GPGSA,A,3,10,22,26,31,32,25,14,,,,,,3.4,1.2,2.9*39
2017-11-15 18:18:28 1510787908.329175: $GPZDA,231827.00,15,11,2017,00,00*6B
2017-11-15 18:18:28 1510787908.329340: $GPGGA,231827,3946.9657,N,08404.9644,W,1,07,1.20,302.50,M,-33.324,M,,*77
2017-11-15 18:18:28 1510787908.329400: $GPRMC,231827,A,3946.9657,N,08404.9644,W,0.3006,62.539,151117,,*0C
2017-11-15 18:18:28 1510787908.329460: $GPGSA,A,3,10,22,26,31,32,25,14,,,,,,3.4,1.2,2.9*39
2017-11-15 18:18:29 1510787909.360351: $GPZDA,231828.00,15,11,2017,00,00*64
2017-11-15 18:18:29 1510787909.360518: $GPGGA,231828,3946.9657,N,08404.9644,W,1,07,1.20,302.50,M,-33.324,M,,*78
2017-11-15 18:18:29 1510787909.360581: $GPRMC,231828,A,3946.9657,N,08404.9644,W,0.7267,93.794,151117,,*09
2017-11-15 18:18:29 1510787909.360636: $GPGSA,A,3,10,22,26,31,32,25,14,,,,,,3.4,1.2,2.9*39
2017-11-15 18:18:29 1510787909.360689: $GPGBS,231828,13.59,M,20.35,M,67.34,M*00
2017-11-15 18:18:30 1510787910.697390: $GPGSV,3,1,12,10,28,156,13,22,35,306,15,01,20,280,12,26,19,180,18*72
2017-11-15 18:18:30 1510787910.697572: $GPGSV,3,2,12,31,74,256,21,32,59,069,19,25,38,064,17,14,70,022,18*71
2017-11-15 18:18:30 1510787910.697632: $GPGSV,3,3,12,03,15,316,07,12,11,036,00,11,01,265,00,120,07,103,00*4E
2017-11-15 18:18:30 1510787910.810709: $GPZDA,231829.00,15,11,2017,00,00*65
2017-11-15 18:18:30 1510787910.810873: $GPGGA,231829,3946.9652,N,08404.9637,W,1,07,1.20,301.94,M,-33.324,M,,*73
2017-11-15 18:18:30 1510787910.810933: $GPRMC,231829,A,3946.9652,N,08404.9637,W,0.2422,93.794,151117,,*0B
2017-11-15 18:18:30 1510787910.810988: $GPGSA,A,3,10,22,26,31,32,25,14,,,,,,3.4,1.2,2.9*39
2017-11-15 18:18:31 1510787911.436347: $GPZDA,231830.00,15,11,2017,00,00*6D
2017-11-15 18:18:31 1510787911.436592: $GPGGA,231830,3946.9652,N,08404.9637,W,1,07,1.20,301.94,M,-33.324,M,,*7B
2017-11-15 18:18:31 1510787911.436656: $GPRMC,231830,A,3946.9652,N,08404.9637,W,0.5912,129.172,151117,,*34
2017-11-15 18:18:31 1510787911.436778: $GPGSA,A,3,10,22,26,31,32,25,14,,,,,,3.4,1.2,2.9*39
2017-11-15 18:18:32 1510787912.359636: $GPZDA,231831.00,15,11,2017,00,00*6C
2017-11-15 18:18:32 1510787912.359801: $GPGGA,231831,3946.9647,N,08404.9630,W,1,07,1.00,301.38,M,-33.324,M,,*7D
2017-11-15 18:18:32 1510787912.359864: $GPRMC,231831,A,3946.9647,N,08404.9630,W,0.7238,140.710,151117,,*3A
2017-11-15 18:18:32 1510787912.359924: $GPGSA,A,3,10,22,26,31,32,25,14,,,,,,3.4,1.0,2.9*3B
2017-11-15 18:18:33 1510787913.665233: $GPGSV,3,1,12,10,28,156,12,22,35,306,14,01,20,280,17,26,19,180,18*77
2017-11-15 18:18:33 1510787913.665407: $GPGSV,3,2,12,31,74,256,21,32,59,069,19,25,38,064,17,14,70,022,19*70
2017-11-15 18:18:33 1510787913.665469: $GPGSV,3,3,12,03,15,316,00,12,11,036,00,11,01,265,00,120,07,103,00*49
2017-11-15 18:18:33 1510787913.778585: $GPZDA,231832.00,15,11,2017,00,00*6F
2017-11-15 18:18:33 1510787913.778749: $GPGGA,231832,3946.9647,N,08404.9630,W,1,08,1.00,301.38,M,-33.324,M,,*71
2017-11-15 18:18:33 1510787913.778811: $GPRMC,231832,A,3946.9647,N,08404.9630,W,0.8359,148.778,151117,,*36
2017-11-15 18:18:33 1510787913.778867: $GPGSA,A,3,10,22,1,26,31,32,25,14,,,,,3.4,1.0,2.9*0A
2017-11-15 18:18:34 1510787914.360673: $GPZDA,231833.00,15,11,2017,00,00*6E
2017-11-15 18:18:34 1510787914.360838: $GPGGA,231833,3946.9640,N,08404.9624,W,1,08,1.00,301.58,M,-33.324,M,,*74
2017-11-15 18:18:34 1510787914.360899: $GPRMC,231833,A,3946.9640,N,08404.9624,W,1.4168,152.696,151117,,*32
2017-11-15 18:18:34 1510787914.360954: $GPGSA,A,3,10,22,1,26,31,32,25,14,,,,,3.4,1.0,2.9*0A
2017-11-15 18:18:35 1510787915.360303: $GPZDA,231834.00,15,11,2017,00,00*69
2017-11-15 18:18:35 1510787915.360477: $GPGGA,231834,3946.9635,N,08404.9617,W,1,08,1.00,301.02,M,-33.324,M,,*7E
2017-11-15 18:18:35 1510787915.360539: $GPRMC,231834,A,3946.9635,N,08404.9617,W,1.1824,129.172,151117,,*32
2017-11-15 18:18:35 1510787915.360594: $GPGSA,A,3,10,22,1,26,31,32,25,14,,,,,3.4,1.0,2.9*0A
2017-11-15 18:18:36 1510787916.665610: $GPGSV,3,1,12,10,28,156,11,22,35,306,14,01,20,280,18,26,19,180,18*7B
2017-11-15 18:18:36 1510787916.665785: $GPGSV,3,2,12,31,74,256,21,32,59,069,20,25,38,064,17,14,70,022,19*7A
2017-11-15 18:18:36 1510787916.665845: $GPGSV,3,3,12,03,15,316,00,12,11,036,00,11,01,265,00,120,07,103,00*49
2017-11-15 18:18:36 1510787916.778933: $GPZDA,231835.00,15,11,2017,00,00*68
2017-11-15 18:18:36 1510787916.779083: $GPGGA,231835,3946.9635,N,08404.9610,W,1,08,1.00,301.10,M,-33.324,M,,*7B
2017-11-15 18:18:36 1510787916.779144: $GPRMC,231835,A,3946.9635,N,08404.9610,W,1.4978,129.345,151117,,*3F
2017-11-15 18:18:36 1510787916.779199: $GPGSA,A,3,10,22,1,26,31,32,25,14,,,,,3.4,1.0,2.9*0A
2017-11-15 18:18:37 1510787917.331036: $GPZDA,231836.00,15,11,2017,00,00*6B
2017-11-15 18:18:37 1510787917.331189: $GPGGA,231836,3946.9627,N,08404.9604,W,1,08,1.00,301.30,M,-33.324,M,,*7C
2017-11-15 18:18:37 1510787917.331250: $GPRMC,231836,A,3946.9627,N,08404.9604,W,1.7855,111.015,151117,,*3A
2017-11-15 18:18:37 1510787917.331306: $GPGSA,A,3,10,22,1,26,31,32,25,14,,,,,3.4,1.0,2.9*0A
