2017-11-15 17:36:54 1510785414.852995: {"class":"VERSION","release":"3.17","rev":"3.17","proto_major":3,"proto_minor":12}
2017-11-15 17:36:54 1510785414.853441: {"class":"DEVICES","devices":[{"class":"DEVICE","path":"/dev/ttyUSB0","driver":"SiRF","subtype":"9\u0006GSD4e_4.1.2-P1_RPATCH.05-F-GPS-4R-1510281 11/03/2015 307","activated":"2017-11-15T22:36:54.840Z","flags":1,"native":1,"bps":4800,"parity":"N","stopbits":1,"cycle":1.00}]}
2017-11-15 17:36:54 1510785414.853557: {"class":"WATCH","enable":true,"json":false,"nmea":true,"raw":0,"scaled":false,"timing":false,"split24":false,"pps":false}
2017-11-15 17:36:55 1510785415.353397: $GPZDA,223654.00,15,11,2017,00,00*62
2017-11-15 17:36:55 1510785415.353567: $GPGGA,223654,3946.9513,N,08404.9614,W,1,08,1.20,303.17,M,-33.324,M,,*75
2017-11-15 17:36:55 1510785415.353627: $GPRMC,223654,A,3946.9513,N,08404.9614,W,0.8905,237.384,151117,,*30
2017-11-15 17:36:55 1510785415.353684: $GPGSA,A,3,10,25,32,14,31,22,12,1,,,,,3.4,1.2,2.9*0F
2017-11-15 17:36:56 1510785416.352535: $GPZDA,223655.00,15,11,2017,00,00*63
2017-11-15 17:36:56 1510785416.352711: $GPGGA,223655,3946.9513,N,08404.9621,W,1,08,1.00,303.09,M,-33.324,M,,*7F
2017-11-15 17:36:56 1510785416.352773: $GPRMC,223655,A,3946.9513,N,08404.9621,W,0.8414,219.347,151117,,*39
2017-11-15 17:36:56 1510785416.352829: $GPGSA,A,3,10,25,32,14,31,22,12,1,,,,,3.4,1.0,2.9*0D
2017-11-15 17:36:57 1510785417.665816: $GPGSV,3,1,11,10,49,148,21,25,39,091,24,32,69,025,16,14,66,327,23*76
2017-11-15 17:36:57 1510785417.665985: $GPGSV,3,2,11,31,54,225,18,18,19,144,00,11,08,282,00,22,18,312,17*78
2017-11-15 17:36:57 1510785417.666044: $GPGSV,3,3,11,12,22,051,13,01,21,301,14,26,01,183,00*46
2017-11-15 17:36:57 1510785417.779129: $GPZDA,223656.00,15,11,2017,00,00*60
2017-11-15 17:36:57 1510785417.779329: $GPGGA,223656,3946.9509,N,08404.9621,W,1,08,1.00,302.45,M,-33.324,M,,*7E
2017-11-15 17:36:57 1510785417.779417: $GPRMC,223656,A,3946.9509,N,08404.9621,W,0.7278,203.636,151117,,*3A
2017-11-15 17:36:57 1510785417.779476: $GPGSA,A,3,10,25,32,14,31,22,12,1,,,,,3.4,1.0,2.9*0D
2017-11-15 17:36:58 1510785418.352816: $GPZDA,223657.00,15,11,2017,00,00*61
2017-11-15 17:36:58 1510785418.352993: $GPGGA,223657,3946.9509,N,08404.9621,W,1,08,1.00,302.45,M,-33.324,M,,*7F
2017-11-15 17:36:58 1510785418.353054: $GPRMC,223657,A,3946.9509,N,08404.9621,W,0.5774,207.515,151117,,*36
2017-11-15 17:36:58 1510785418.353110: $GPGSA,A,3,10,25,32,14,31,22,12,1,,,,,3.4,1.0,2.9*0D
2017-11-15 17:36:59 1510785419.332430: $GPZDA,223658.00,15,11,2017,00,00*6E
2017-11-15 17:36:59 1510785419.332596: $GPGGA,223658,3946.9506,N,08404.9622,W,1,08,1.00,303.22,M,-33.324,M,,*7C
2017-11-15 17:36:59 1510785419.332657: $GPRMC,223658,A,3946.9506,N,08404.9622,W,0.9929,212.499,151117,,*3E
2017-11-15 17:36:59 1510785419.332714: $GPGSA,A,3,10,25,32,14,31,22,12,1,,,,,3.4,1.0,2.9*0D
2017-11-15 17:37:00 1510785420.665420: $GPGSV,3,1,11,10,49,148,21,25,39,091,24,32,69,025,15,14,66,327,23*75
2017-11-15 17:37:00 1510785420.665591: $GPGSV,3,2,11,31,54,225,18,26,01,183,11,18,19,144,00,22,18,312,17*77
2017-11-15 17:37:00 1510785420.665652: $GPGSV,3,3,11,12,22,051,12,01,21,301,07,11,08,282,00*4A
2017-11-15 17:37:00 1510785420.779468: $GPZDA,223659.00,15,11,2017,00,00*6F
2017-11-15 17:37:00 1510785420.779661: $GPGGA,223659,3946.9506,N,08404.9622,W,1,08,1.20,303.22,M,-33.324,M,,*7F
2017-11-15 17:37:00 1510785420.779726: $GPRMC,223659,A,3946.9506,N,08404.9622,W,0.5774,207.515,151117,,*34
2017-11-15 17:37:00 1510785420.779782: $GPGSA,A,3,10,25,32,14,31,22,12,1,,,,,3.4,1.2,2.9*0F
2017-11-15 17:37:01 1510785421.576125: $GPZDA,223700.00,15,11,2017,00,00*62
2017-11-15 17:37:01 1510785421.576297: $GPGGA,223700,3946.9506,N,08404.9622,W,1,08,1.20,303.22,M,-33.324,M,,*72
2017-11-15 17:37:01 1510785421.576359: $GPRMC,223700,A,3946.9506,N,08404.9622,W,0.2959,234.767,151117,,*38
2017-11-15 17:37:01 1510785421.576416: $GPGSA,A,3,10,25,32,14,31,22,12,1,,,,,3.4,1.2,2.9*0F
2017-11-15 17:37:01 1510785421.576469: $GPGBS,223700,13.59,M,20.35,M,67.34,M*06
2017-11-15 17:37:02 1510785422.330629: $GPZDA,223701.00,15,11,2017,00,00*63
2017-11-15 17:37:02 1510785422.330851: $GPGGA,223701,3946.9506,N,08404.9622,W,1,08,1.20,303.22,M,-33.324,M,,*73
2017-11-15 17:37:02 1510785422.330915: $GPRMC,223701,A,3946.9506,N,08404.9622,W,0.5287,182.716,151117,,*3E
2017-11-15 17:37:02 1510785422.330973: $GPGSA,A,3,10,25,32,14,31,22,12,1,,,,,3.4,1.2,2.9*0F
2017-11-15 17:37:02 1510785422.331025: $GPGBS,223701,13.59,M,20.35,M,67.34,M*07
2017-11-15 17:37:03 1510785423.665156: $GPGSV,3,1,11,10,47,148,21,25,40,088,24,32,68,028,15,14,66,330,23*77
2017-11-15 17:37:03 1510785423.665333: $GPGSV,3,2,11,31,56,226,18,26,02,183,10,18,17,144,00,22,19,312,17*7B
2017-11-15 17:37:03 1510785423.665393: $GPGSV,3,3,11,12,22,049,12,01,21,300,09,11,08,282,00*4C
2017-11-15 17:37:03 1510785423.778489: $GPZDA,223702.00,15,11,2017,00,00*60
2017-11-15 17:37:03 1510785423.778642: $GPGGA,223702,3946.9506,N,08404.9622,W,1,08,1.20,303.22,M,-33.324,M,,*70
2017-11-15 17:37:03 1510785423.778704: $GPRMC,223702,A,3946.9506,N,08404.9622,W,0.5857,158.291,151117,,*37
2017-11-15 17:37:03 1510785423.778760: $GPGSA,A,3,10,25,32,14,31,22,12,1,,,,,3.4,1.2,2.9*0F
2017-11-15 17:37:04 1510785424.330914: $GPZDA,223703.00,15,11,2017,00,00*61
2017-11-15 17:37:04 1510785424.331077: $GPGGA,223703,3946.9506,N,08404.9622,W,1,08,1.20,303.22,M,-33.324,M,,*71
2017-11-15 17:37:04 1510785424.331137: $GPRMC,223703,A,3946.9506,N,08404.9622,W,0.5287,182.716,151117,,*3C
2017-11-15 17:37:04 1510785424.331194: $GPGSA,A,3,10,25,32,14,31,22,12,1,,,,,3.4,1.2,2.9*0F
2017-11-15 17:37:05 1510785425.330249: $GPZDA,223704.00,15,11,2017,00,00*66
2017-11-15 17:37:05 1510785425.330424: $GPGGA,223704,3946.9506,N,08404.9622,W,1,08,1.20,303.22,M,-33.324,M,,*76
2017-11-15 17:37:05 1510785425.330494: $GPRMC,223704,A,3946.9506,N,08404.9622,W,0.4844,273.794,151117,,*38
2017-11-15 17:37:05 1510785425.330555: $GPGSA,A,3,10,25,32,14,31,22,12,1,,,,,3.4,1.2,2.9*0F
2017-11-15 17:37:06 1510785426.666800: $GPGSV,3,1,11,10,47,148,21,25,40,088,24,32,68,028,14,14,66,330,23*76
2017-11-15 17:37:06 1510785426.666975: $GPGSV,3,2,11,31,56,226,19,26,02,183,12,18,17,144,00,22,19,312,17*78
2017-11-15 17:37:06 1510785426.667035: $GPGSV,3,3,11,12,22,049,14,01,21,300,11,11,08,282,00*43
2017-11-15 17:37:06 1510785426.780094: $GPZDA,223705.00,15,11,2017,00,00*67
2017-11-15 17:37:06 1510785426.780249: $GPGGA,223705,3946.9506,N,08404.9622,W,1,09,1.20,303.22,M,-33.324,M,,*76
2017-11-15 17:37:06 1510785426.780310: $GPRMC,223705,A,3946.9506,N,08404.9622,W,0.4844,273.794,151117,,*39
2017-11-15 17:37:06 1510785426.780366: $GPGSA,A,3,10,25,32,14,31,26,22,12,1,,,,3.4,1.2,2.9*0B
2017-11-15 17:37:07 1510785427.331238: $GPZDA,223706.00,15,11,2017,00,00*64
2017-11-15 17:37:07 1510785427.331404: $GPGGA,223706,3946.9510,N,08404.9629,W,1,09,1.20,303.78,M,-33.324,M,,*76
2017-11-15 17:37:07 1510785427.331469: $GPRMC,223706,A,3946.9510,N,08404.9629,W,0.9066,309.458,151117,,*3C
2017-11-15 17:37:07 1510785427.331525: $GPGSA,A,3,10,25,32,14,31,26,22,12,1,,,,3.4,1.2,2.9*0B
2017-11-15 17:37:08 1510785428.330597: $GPZDA,223707.00,15,11,2017,00,00*65
2017-11-15 17:37:08 1510785428.330810: $GPGGA,223707,3946.9514,N,08404.9628,W,1,09,1.20,303.01,M,-33.324,M,,*7C
2017-11-15 17:37:08 1510785428.333460: $GPRMC,223707,A,3946.9514,N,08404.9628,W,0.5306,294.352,151117,,*39
2017-11-15 17:37:08 1510785428.333617: $GPGSA,A,3,10,25,32,14,31,26,22,12,1,,,,3.4,1.2,2.9*0B
2017-11-15 17:37:09 1510785429.666391: $GPGSV,3,1,11,10,47,148,22,25,40,088,24,32,68,028,10,14,66,330,23*71
2017-11-15 17:37:09 1510785429.666576: $GPGSV,3,2,11,31,56,226,20,26,02,183,10,18,17,144,00,22,19,312,16*71
2017-11-15 17:37:09 1510785429.666638: $GPGSV,3,3,11,12,22,049,14,01,21,300,13,11,08,282,00*41
2017-11-15 17:37:09 1510785429.779716: $GPZDA,223708.00,15,11,2017,00,00*6A
2017-11-15 17:37:09 1510785429.779880: $GPGGA,223708,3946.9518,N,08404.9628,W,1,08,1.00,303.65,M,-33.324,M,,*7E
2017-11-15 17:37:09 1510785429.779943: $GPRMC,223708,A,3946.9518,N,08404.9628,W,0.3423,4.197,151117,,*3C
2017-11-15 17:37:09 1510785429.779998: $GPGSA,A,3,10,25,32,14,31,22,12,1,,,,,3.4,1.0,2.9*0D
2017-11-15 17:37:10 1510785430.330581: $GPZDA,223709.00,15,11,2017,00,00*6B
2017-11-15 17:37:10 1510785430.330752: $GPGGA,223709,3946.9518,N,08404.9628,W,1,08,1.00,303.65,M,-33.324,M,,*7F
2017-11-15 17:37:10 1510785430.330816: $GPRMC,223709,A,3946.9518,N,08404.9628,W,0.6846,4.197,151117,,*37
2017-11-15 17:37:10 1510785430.330872: $GPGSA,A,3,10,25,32,14,31,22,12,1,,,,,3.4,1.0,2.9*0D
2017-11-15 17:37:11 1510785431.329977: $GPZDA,223710.00,15,11,2017,00,00*63
2017-11-15 17:37:11 1510785431.330141: $GPGGA,223710,3946.9525,N,08404.9628,W,1,08,1.00,303.53,M,-33.324,M,,*7C
2017-11-15 17:37:11 1510785431.330203: $GPRMC,223710,A,3946.9525,N,08404.9628,W,0.4179,328.778,151117,,*3C
2017-11-15 17:37:11 1510785431.330259: $GPGSA,A,3,10,25,32,14,31,22,12,1,,,,,3.4,1.0,2.9*0D
2017-11-15 17:37:12 1510785432.666758: $GPGSV,3,1,11,10,47,148,22,25,40,088,24,32,68,028,10,14,66,330,23*71
2017-11-15 17:37:12 1510785432.666934: $GPGSV,3,2,11,31,56,226,20,26,02,183,09,18,17,144,00,22,19,312,16*79
2017-11-15 17:37:12 1510785432.666993: $GPGSV,3,3,11,12,22,049,14,01,21,300,13,11,08,282,00*41
2017-11-15 17:37:12 1510785432.780328: $GPZDA,223711.00,15,11,2017,00,00*62
2017-11-15 17:37:12 1510785432.780485: $GPGGA,223711,3946.9525,N,08404.9628,W,1,08,1.00,303.53,M,-33.324,M,,*7D
2017-11-15 17:37:12 1510785432.780548: $GPRMC,223711,A,3946.9525,N,08404.9628,W,0.4179,328.778,151117,,*3D
2017-11-15 17:37:12 1510785432.780604: $GPGSA,A,3,10,25,32,14,31,22,12,1,,,,,3.4,1.0,2.9*0D
2017-11-15 17:37:13 1510785433.331047: $GPZDA,223712.00,15,11,2017,00,00*61
2017-11-15 17:37:13 1510785433.331219: $GPGGA,223712,3946.9525,N,08404.9628,W,1,08,1.00,303.53,M,-33.324,M,,*7E
2017-11-15 17:37:13 1510785433.332530: $GPRMC,223712,A,3946.9525,N,08404.9628,W,0.3423,4.197,151117,,*39
2017-11-15 17:37:13 1510785433.332678: $GPGSA,A,3,10,25,32,14,31,22,12,1,,,,,3.4,1.0,2.9*0D
2017-11-15 17:37:14 1510785434.330961: $GPZDA,223713.00,15,11,2017,00,00*60
2017-11-15 17:37:14 1510785434.331124: $GPGGA,223713,3946.9533,N,08404.9627,W,1,08,1.00,303.40,M,-33.324,M,,*75
2017-11-15 17:37:14 1510785434.331186: $GPRMC,223713,A,3946.9533,N,08404.9627,W,0.2422,273.794,151117,,*37
2017-11-15 17:37:14 1510785434.331242: $GPGSA,A,3,10,25,32,14,31,22,12,1,,,,,3.4,1.0,2.9*0D
2017-11-15 17:37:15 1510785435.666407: $GPGSV,3,1,11,10,47,148,22,25,40,088,24,32,68,028,10,14,66,330,22*70
2017-11-15 17:37:15 1510785435.666582: $GPGSV,3,2,11,31,56,226,20,26,02,183,10,18,17,144,00,22,19,312,16*71
2017-11-15 17:37:15 1510785435.666644: $GPGSV,3,3,11,12,22,049,13,01,21,300,14,11,08,282,00*41
2017-11-15 17:37:15 1510785435.780013: $GPZDA,223714.00,15,11,2017,00,00*67
2017-11-15 17:37:15 1510785435.780154: $GPGGA,223714,3946.9533,N,08404.9627,W,1,09,1.00,303.40,M,-33.324,M,,*73
2017-11-15 17:37:15 1510785435.780215: $GPRMC,223714,A,3946.9533,N,08404.9627,W,0.3423,184.197,151117,,*3E
2017-11-15 17:37:15 1510785435.780272: $GPGSA,A,3,10,25,32,14,31,26,22,12,1,,,,3.4,1.0,2.9*09
2017-11-15 17:37:16 1510785436.405381: $GPZDA,223715.00,15,11,2017,00,00*66
2017-11-15 17:37:16 1510785436.405552: $GPGGA,223715,3946.9533,N,08404.9627,W,1,09,1.00,303.40,M,-33.324,M,,*72
2017-11-15 17:37:16 1510785436.405613: $GPRMC,223715,A,3946.9533,N,08404.9627,W,0.5774,207.515,151117,,*3E
2017-11-15 17:37:16 1510785436.405671: $GPGSA,A,3,10,25,32,14,31,26,22,12,1,,,,3.4,1.0,2.9*09
2017-11-15 17:37:17 1510785437.331264: $GPZDA,223716.00,15,11,2017,00,00*65
2017-11-15 17:37:17 1510785437.331430: $GPGGA,223716,3946.9533,N,08404.9627,W,1,09,1.00,303.40,M,-33.324,M,,*71
2017-11-15 17:37:17 1510785437.331490: $GPRMC,223716,A,3946.9533,N,08404.9627,W,0.3423,184.197,151117,,*3C
2017-11-15 17:37:17 1510785437.331549: $GPGSA,A,3,10,25,32,14,31,26,22,12,1,,,,3.4,1.0,2.9*09
2017-11-15 17:37:18 1510785438.666829: $GPGSV,3,1,11,10,47,148,22,25,40,088,24,32,68,028,08,14,66,330,22*79
2017-11-15 17:37:18 1510785438.669718: $GPGSV,3,2,11,31,56,226,20,26,02,183,12,18,17,144,00,22,19,312,16*73
2017-11-15 17:37:18 1510785438.669812: $GPGSV,3,3,11,12,22,049,13,01,21,300,14,11,08,282,00*41
2017-11-15 17:37:18 1510785438.780839: $GPZDA,223717.00,15,11,2017,00,00*64
2017-11-15 17:37:18 1510785438.781140: $GPGGA,223717,3946.9533,N,08404.9627,W,1,09,1.00,303.40,M,-33.324,M,,*70
2017-11-15 17:37:18 1510785438.781249: $GPRMC,223717,A,3946.9533,N,08404.9627,W,0.4207,219.347,151117,,*32
2017-11-15 17:37:18 1510785438.781321: $GPGSA,A,3,10,25,32,14,31,26,22,12,1,,,,3.4,1.0,2.9*09
2017-11-15 17:37:19 1510785439.352533: $GPZDA,223718.00,15,11,2017,00,00*6B
2017-11-15 17:37:19 1510785439.352695: $GPGGA,223718,3946.9537,N,08404.9627,W,1,09,1.00,304.04,M,-33.324,M,,*7C
2017-11-15 17:37:19 1510785439.352755: $GPRMC,223718,A,3946.9537,N,08404.9627,W,0.4844,273.794,151117,,*32
2017-11-15 17:37:19 1510785439.352811: $GPGSA,A,3,10,25,32,14,31,26,22,12,1,,,,3.4,1.0,2.9*09
2017-11-15 17:37:20 1510785440.331030: $GPZDA,223719.00,15,11,2017,00,00*6A
2017-11-15 17:37:20 1510785440.331221: $GPGGA,223719,3946.9537,N,08404.9627,W,1,09,1.00,304.04,M,-33.324,M,,*7D
2017-11-15 17:37:20 1510785440.331294: $GPRMC,223719,A,3946.9537,N,08404.9627,W,0.8414,219.347,151117,,*30
2017-11-15 17:37:20 1510785440.331352: $GPGSA,A,3,10,25,32,14,31,26,22,12,1,,,,3.4,1.0,2.9*09
2017-11-15 17:37:21 1510785441.688323: $GPGSV,3,1,11,10,47,148,22,25,40,088,24,32,68,028,09,14,66,330,22*78
2017-11-15 17:37:21 1510785441.688514: $GPGSV,3,2,11,31,56,226,20,26,02,183,12,18,17,144,00,22,19,312,16*73
2017-11-15 17:37:21 1510785441.688575: $GPGSV,3,3,11,12,22,049,13,01,21,300,14,11,08,282,00*41
2017-11-15 17:37:21 1510785441.801762: $GPZDA,223720.00,15,11,2017,00,00*60
2017-11-15 17:37:21 1510785441.801918: $GPGGA,223720,3946.9537,N,08404.9627,W,1,09,1.00,304.04,M,-33.324,M,,*77
2017-11-15 17:37:21 1510785441.801978: $GPRMC,223720,A,3946.9537,N,08404.9627,W,0.4207,219.347,151117,,*32
2017-11-15 17:37:21 1510785441.802036: $GPGSA,A,3,10,25,32,14,31,26,22,12,1,,,,3.4,1.0,2.9*09
2017-11-15 17:37:22 1510785442.352900: $GPZDA,223721.00,15,11,2017,00,00*61
2017-11-15 17:37:22 1510785442.353065: $GPGGA,223721,3946.9537,N,08404.9627,W,1,09,1.00,304.04,M,-33.324,M,,*76
2017-11-15 17:37:22 1510785442.353127: $GPRMC,223721,A,3946.9537,N,08404.9627,W,0.5951,238.684,151117,,*33
2017-11-15 17:37:22 1510785442.353184: $GPGSA,A,3,10,25,32,14,31,26,22,12,1,,,,3.4,1.0,2.9*09
2017-11-15 17:37:23 1510785443.352529: $GPZDA,223722.00,15,11,2017,00,00*62
2017-11-15 17:37:23 1510785443.352692: $GPGGA,223722,3946.9540,N,08404.9626,W,1,09,1.20,303.28,M,-33.324,M,,*7F
2017-11-15 17:37:23 1510785443.352754: $GPRMC,223722,A,3946.9540,N,08404.9626,W,0.5306,294.352,151117,,*31
2017-11-15 17:37:23 1510785443.352810: $GPGSA,A,3,10,25,32,14,31,26,22,12,1,,,,3.4,1.2,2.9*0B
2017-11-15 17:37:24 1510785444.688020: $GPGSV,3,1,11,10,47,148,22,25,40,088,24,32,68,028,08,14,66,330,22*79
2017-11-15 17:37:24 1510785444.688190: $GPGSV,3,2,11,31,56,226,20,26,02,183,12,18,17,144,00,22,19,312,15*70
2017-11-15 17:37:24 1510785444.688251: $GPGSV,3,3,11,12,22,049,14,01,21,300,13,11,08,282,00*41
2017-11-15 17:37:24 1510785444.801613: $GPZDA,223723.00,15,11,2017,00,00*63
2017-11-15 17:37:24 1510785444.801771: $GPGGA,223723,3946.9545,N,08404.9626,W,1,09,1.20,303.92,M,-33.324,M,,*7A
2017-11-15 17:37:24 1510785444.801831: $GPRMC,223723,A,3946.9545,N,08404.9626,W,0.4844,273.794,151117,,*3E
2017-11-15 17:37:24 1510785444.801889: $GPGSA,A,3,10,25,32,14,31,26,22,12,1,,,,3.4,1.2,2.9*0B
