2017-11-16 17:17:58 1510870678.962424: {"class":"VERSION","release":"3.17","rev":"3.17","proto_major":3,"proto_minor":12}
2017-11-16 17:17:58 1510870678.962890: {"class":"DEVICES","devices":[{"class":"DEVICE","path":"/dev/ttyUSB0","driver":"SiRF","subtype":"9\u0006GSD4e_4.1.2-P1_RPATCH.05-F-GPS-4R-1510281 11/03/2015 307","activated":"2017-11-16T22:17:58.543Z","flags":1,"native":1,"bps":4800,"parity":"N","stopbits":1,"cycle":1.00}]}
2017-11-16 17:17:58 1510870678.963019: {"class":"WATCH","enable":true,"json":false,"nmea":true,"raw":0,"scaled":false,"timing":false,"split24":false,"pps":false}
2017-11-16 17:17:59 1510870679.400120: $GPZDA,221758.00,16,11,2017,00,00*6E
2017-11-16 17:17:59 1510870679.400291: $GPGGA,221758,3946.9571,N,08404.9825,W,2,11,0.80,310.64,M,-33.324,M,,*74
2017-11-16 17:17:59 1510870679.406190: $GPRMC,221758,A,3946.9571,N,08404.9825,W,0.0000,0.000,161117,,*39
2017-11-16 17:17:59 1510870679.406397: $GPGSA,A,3,1,10,22,12,14,18,11,25,31,32,138,,1.6,0.8,1.3*3E
2017-11-16 17:18:00 1510870680.737191: $GPGSV,3,1,12,01,20,307,38,10,56,144,48,22,13,312,41,12,24,057,49*76
2017-11-16 17:18:00 1510870680.737368: $GPGSV,3,2,12,14,63,313,47,18,25,141,42,24,03,048,00,11,10,288,38*74
2017-11-16 17:18:00 1510870680.737429: $GPGSV,3,3,12,25,37,100,47,31,48,219,48,32,70,006,48,138,38,213,44*4E
2017-11-16 17:18:00 1510870680.850628: $GPZDA,221759.00,16,11,2017,00,00*6F
2017-11-16 17:18:00 1510870680.850797: $GPGGA,221759,3946.9571,N,08404.9825,W,2,11,0.80,310.64,M,-33.324,M,,*75
2017-11-16 17:18:00 1510870680.850859: $GPRMC,221759,A,3946.9571,N,08404.9825,W,0.0000,0.000,161117,,*38
2017-11-16 17:18:00 1510870680.850915: $GPGSA,A,3,1,10,22,12,14,18,11,25,31,32,138,,1.6,0.8,1.3*3E
2017-11-16 17:18:01 1510870681.475896: $GPZDA,221800.00,16,11,2017,00,00*6C
2017-11-16 17:18:01 1510870681.476057: $GPGGA,221800,3946.9571,N,08404.9825,W,2,11,0.80,310.64,M,-33.324,M,,*76
2017-11-16 17:18:01 1510870681.476119: $GPRMC,221800,A,3946.9571,N,08404.9825,W,0.0000,0.000,161117,,*3B
2017-11-16 17:18:01 1510870681.476176: $GPGSA,A,3,1,10,22,12,14,18,11,25,31,32,138,,1.6,0.8,1.3*3E
2017-11-16 17:18:02 1510870682.405559: $GPZDA,221801.00,16,11,2017,00,00*6D
2017-11-16 17:18:02 1510870682.405735: $GPGGA,221801,3946.9571,N,08404.9825,W,2,11,0.80,310.64,M,-33.324,M,,*77
2017-11-16 17:18:02 1510870682.405796: $GPRMC,221801,A,3946.9571,N,08404.9825,W,0.0000,0.000,161117,,*3A
2017-11-16 17:18:02 1510870682.405852: $GPGSA,A,3,1,10,22,12,14,18,11,25,31,32,138,,1.6,0.8,1.3*3E
2017-11-16 17:18:03 1510870683.737554: $GPGSV,3,1,12,01,20,307,37,10,56,144,48,22,13,312,41,12,24,057,49*79
2017-11-16 17:18:03 1510870683.737724: $GPGSV,3,2,12,14,63,313,47,18,25,141,42,24,03,048,16,11,10,288,38*73
2017-11-16 17:18:03 1510870683.737784: $GPGSV,3,3,12,25,37,100,47,31,48,219,48,32,70,006,48,138,38,213,43*49
2017-11-16 17:18:03 1510870683.850896: $GPZDA,221802.00,16,11,2017,00,00*6E
2017-11-16 17:18:03 1510870683.851075: $GPGGA,221802,3946.9571,N,08404.9825,W,2,11,0.80,310.64,M,-33.324,M,,*74
2017-11-16 17:18:03 1510870683.851137: $GPRMC,221802,A,3946.9571,N,08404.9825,W,0.0000,0.000,161117,,*39
2017-11-16 17:18:03 1510870683.851193: $GPGSA,A,3,1,10,22,12,14,18,11,25,31,32,138,,1.6,0.8,1.3*3E
2017-11-16 17:18:04 1510870684.396782: $GPZDA,221803.00,16,11,2017,00,00*6F
2017-11-16 17:18:04 1510870684.399022: $GPGGA,221803,3946.9571,N,08404.9825,W,2,11,0.80,310.64,M,-33.324,M,,*75
2017-11-16 17:18:04 1510870684.399117: $GPRMC,221803,A,3946.9571,N,08404.9825,W,0.0000,0.000,161117,,*38
2017-11-16 17:18:04 1510870684.399189: $GPGSA,A,3,1,10,22,12,14,18,11,25,31,32,138,,1.6,0.8,1.3*3E
2017-11-16 17:18:05 1510870685.402625: $GPZDA,221804.00,16,11,2017,00,00*68
2017-11-16 17:18:05 1510870685.402791: $GPGGA,221804,3946.9571,N,08404.9825,W,2,11,0.80,310.64,M,-33.324,M,,*72
2017-11-16 17:18:05 1510870685.402854: $GPRMC,221804,A,3946.9571,N,08404.9825,W,0.0000,0.000,161117,,*3F
2017-11-16 17:18:05 1510870685.402909: $GPGSA,A,3,1,10,22,12,14,18,11,25,31,32,138,,1.6,0.8,1.3*3E
2017-11-16 17:18:06 1510870686.737920: $GPGSV,3,1,12,01,20,307,37,10,56,144,48,22,13,312,41,12,24,057,49*79
2017-11-16 17:18:06 1510870686.738142: $GPGSV,3,2,12,14,63,313,47,18,25,141,42,24,03,048,16,11,10,288,38*73
2017-11-16 17:18:06 1510870686.738204: $GPGSV,3,3,12,25,37,100,47,31,48,219,48,32,70,006,48,138,38,213,43*49
2017-11-16 17:18:06 1510870686.851170: $GPZDA,221805.00,16,11,2017,00,00*69
2017-11-16 17:18:06 1510870686.851420: $GPGGA,221805,3946.9571,N,08404.9825,W,2,12,0.80,310.64,M,-33.324,M,,*70
2017-11-16 17:18:06 1510870686.851506: $GPRMC,221805,A,3946.9571,N,08404.9825,W,0.0000,0.000,161117,,*3E
2017-11-16 17:18:06 1510870686.851563: $GPGSA,A,3,1,10,22,12,14,18,24,11,25,31,32,138,1.6,0.8,1.3*38
2017-11-16 17:18:07 1510870687.400851: $GPZDA,221806.00,16,11,2017,00,00*6A
2017-11-16 17:18:07 1510870687.401036: $GPGGA,221806,3946.9571,N,08404.9825,W,2,12,0.80,310.64,M,-33.324,M,,*73
2017-11-16 17:18:07 1510870687.401118: $GPRMC,221806,A,3946.9571,N,08404.9825,W,0.0000,0.000,161117,,*3D
2017-11-16 17:18:07 1510870687.401175: $GPGSA,A,3,1,10,22,12,14,18,24,11,25,31,32,138,1.6,0.8,1.3*38
2017-11-16 17:18:08 1510870688.400751: $GPZDA,221807.00,16,11,2017,00,00*6B
2017-11-16 17:18:08 1510870688.400932: $GPGGA,221807,3946.9571,N,08404.9825,W,2,12,0.80,310.64,M,-33.324,M,,*72
2017-11-16 17:18:08 1510870688.400994: $GPRMC,221807,A,3946.9571,N,08404.9825,W,0.0000,0.000,161117,,*3C
2017-11-16 17:18:08 1510870688.401068: $GPGSA,A,3,1,10,22,12,14,18,24,11,25,31,32,138,1.6,0.8,1.3*38
