2017-12-01 13:52:34 1512154354.426594: {"class":"VERSION","release":"3.16","rev":"3.16-4","proto_major":3,"proto_minor":11}
2017-12-01 13:52:34 1512154354.427010: {"class":"DEVICES","devices":[{"class":"DEVICE","path":"/dev/ttyUSB0","driver":"SiRF","subtype":"9\u0006GSD4e_4.1.2-P1_RPATCH.05-F-GPS-4R-1510281 11/03/2015 307","activated":"2017-12-01T18:52:34.283Z","flags":1,"native":1,"bps":4800,"parity":"N","stopbits":1,"cycle":1.00}]}
2017-12-01 13:52:34 1512154354.427140: {"class":"WATCH","enable":true,"json":false,"nmea":true,"raw":0,"scaled":false,"timing":false,"split24":false,"pps":false}
2017-12-01 13:52:34 1512154354.733288: $GPGSV,3,1,11,08,08,306,31,10,57,316,48,14,18,243,36,15,22,060,44*79
2017-12-01 13:52:34 1512154354.733472: $GPGSV,3,2,11,18,77,045,43,20,19,109,45,21,43,181,45,24,52,078,47*74
2017-12-01 13:52:34 1512154354.733538: $GPGSV,3,3,11,27,13,271,38,32,35,252,43,138,38,213,46*77
2017-12-01 13:52:34 1512154354.846642: $GPZDA,185235.00,01,12,2017,00,00*68
2017-12-01 13:52:34 1512154354.846780: $GPGGA,185235,3946.9585,N,08404.9864,W,2,11,0.80,295.03,M,-33.324,M,,*74
2017-12-01 13:52:34 1512154354.846845: $GPRMC,185235,A,3946.9585,N,08404.9864,W,0.0000,0.000,011217,,*31
2017-12-01 13:52:34 1512154354.846905: $GPGSA,A,3,8,10,14,15,18,20,21,24,27,32,138,,2.0,0.8,1.5*34
2017-12-01 13:52:35 1512154355.396295: $GPZDA,185236.00,01,12,2017,00,00*6B
2017-12-01 13:52:35 1512154355.396472: $GPGGA,185236,3946.9581,N,08404.9865,W,2,11,0.80,295.80,M,-33.324,M,,*79
2017-12-01 13:52:35 1512154355.396541: $GPRMC,185236,A,3946.9581,N,08404.9865,W,0.0000,0.000,011217,,*37
2017-12-01 13:52:35 1512154355.396602: $GPGSA,A,3,8,10,14,15,18,20,21,24,27,32,138,,2.0,0.8,1.5*34
2017-12-01 13:52:36 1512154356.394162: $GPZDA,185237.00,01,12,2017,00,00*6A
2017-12-01 13:52:36 1512154356.394337: $GPGGA,185237,3946.9581,N,08404.9865,W,2,11,0.80,295.80,M,-33.324,M,,*78
2017-12-01 13:52:36 1512154356.394404: $GPRMC,185237,A,3946.9581,N,08404.9865,W,0.0000,0.000,011217,,*36
2017-12-01 13:52:36 1512154356.394465: $GPGSA,A,3,8,10,14,15,18,20,21,24,27,32,138,,2.0,0.8,1.5*34
2017-12-01 13:52:37 1512154357.733664: $GPGSV,3,1,11,08,08,306,31,10,57,316,48,14,18,243,37,15,22,060,44*78
2017-12-01 13:52:37 1512154357.733847: $GPGSV,3,2,11,18,77,045,42,20,19,109,45,21,43,181,46,24,52,078,47*76
2017-12-01 13:52:37 1512154357.733914: $GPGSV,3,3,11,27,13,271,37,32,35,252,43,138,38,213,46*78
2017-12-01 13:52:37 1512154357.847332: $GPZDA,185238.00,01,12,2017,00,00*65
2017-12-01 13:52:37 1512154357.847513: $GPGGA,185238,3946.9581,N,08404.9858,W,2,11,0.80,295.87,M,-33.324,M,,*7E
2017-12-01 13:52:37 1512154357.847580: $GPRMC,185238,A,3946.9581,N,08404.9858,W,0.0000,0.000,011217,,*37
2017-12-01 13:52:37 1512154357.847641: $GPGSA,A,3,8,10,14,15,18,20,21,24,27,32,138,,2.0,0.8,1.5*34
2017-12-01 13:52:38 1512154358.397924: $GPZDA,185239.00,01,12,2017,00,00*64
2017-12-01 13:52:38 1512154358.398095: $GPGGA,185239,3946.9581,N,08404.9858,W,2,11,0.80,295.87,M,-33.324,M,,*7F
2017-12-01 13:52:38 1512154358.398163: $GPRMC,185239,A,3946.9581,N,08404.9858,W,0.0000,0.000,011217,,*36
2017-12-01 13:52:38 1512154358.398224: $GPGSA,A,3,8,10,14,15,18,20,21,24,27,32,138,,2.0,0.8,1.5*34
2017-12-01 13:52:39 1512154359.396353: $GPZDA,185240.00,01,12,2017,00,00*6A
2017-12-01 13:52:39 1512154359.396532: $GPGGA,185240,3946.9581,N,08404.9858,W,2,11,0.80,295.87,M,-33.324,M,,*71
2017-12-01 13:52:39 1512154359.396602: $GPRMC,185240,A,3946.9581,N,08404.9858,W,0.0000,0.000,011217,,*38
2017-12-01 13:52:39 1512154359.396663: $GPGSA,A,3,8,10,14,15,18,20,21,24,27,32,138,,2.0,0.8,1.5*34
2017-12-01 13:52:40 1512154360.732051: $GPGSV,3,1,11,08,08,306,32,10,57,316,48,14,18,243,36,15,22,060,45*7B
2017-12-01 13:52:40 1512154360.732231: $GPGSV,3,2,11,18,77,045,42,20,19,109,46,21,43,181,46,24,52,078,48*7A
2017-12-01 13:52:40 1512154360.732298: $GPGSV,3,3,11,27,13,271,37,32,35,252,43,138,38,213,46*78
2017-12-01 13:52:40 1512154360.845364: $GPZDA,185241.00,01,12,2017,00,00*6B
2017-12-01 13:52:40 1512154360.845500: $GPGGA,185241,3946.9581,N,08404.9858,W,2,11,0.80,295.87,M,-33.324,M,,*70
2017-12-01 13:52:40 1512154360.845620: $GPRMC,185241,A,3946.9581,N,08404.9858,W,0.0000,0.000,011217,,*39
2017-12-01 13:52:40 1512154360.845682: $GPGSA,A,3,8,10,14,15,18,20,21,24,27,32,138,,2.0,0.8,1.5*34
2017-12-01 13:52:41 1512154361.470847: $GPZDA,185242.00,01,12,2017,00,00*68
2017-12-01 13:52:41 1512154361.471014: $GPGGA,185242,3946.9581,N,08404.9858,W,2,11,0.80,295.87,M,-33.324,M,,*73
2017-12-01 13:52:41 1512154361.471081: $GPRMC,185242,A,3946.9581,N,08404.9858,W,0.0000,0.000,011217,,*3A
2017-12-01 13:52:41 1512154361.471144: $GPGSA,A,3,8,10,14,15,18,20,21,24,27,32,138,,2.0,0.8,1.5*34
2017-12-01 13:52:42 1512154362.399201: $GPZDA,185243.00,01,12,2017,00,00*69
2017-12-01 13:52:42 1512154362.399372: $GPGGA,185243,3946.9581,N,08404.9858,W,2,11,0.80,295.87,M,-33.324,M,,*72
2017-12-01 13:52:42 1512154362.399439: $GPRMC,185243,A,3946.9581,N,08404.9858,W,0.0000,0.000,011217,,*3B
2017-12-01 13:52:42 1512154362.399500: $GPGSA,A,3,8,10,14,15,18,20,21,24,27,32,138,,2.0,0.8,1.5*34
2017-12-01 13:52:43 1512154363.732396: $GPGSV,3,1,11,08,08,306,32,10,57,316,48,14,18,243,36,15,22,060,44*7A
2017-12-01 13:52:43 1512154363.732585: $GPGSV,3,2,11,18,77,045,42,20,19,109,46,21,43,181,46,24,52,078,48*7A
2017-12-01 13:52:43 1512154363.732652: $GPGSV,3,3,11,27,13,271,37,32,35,252,43,138,38,213,46*78
2017-12-01 13:52:43 1512154363.845847: $GPZDA,185244.00,01,12,2017,00,00*6E
2017-12-01 13:52:43 1512154363.846013: $GPGGA,185244,3946.9581,N,08404.9858,W,2,11,0.80,295.87,M,-33.324,M,,*75
2017-12-01 13:52:43 1512154363.846079: $GPRMC,185244,A,3946.9581,N,08404.9858,W,0.0000,0.000,011217,,*3C
2017-12-01 13:52:43 1512154363.846140: $GPGSA,A,3,8,10,14,15,18,20,21,24,27,32,138,,2.0,0.8,1.5*34
