2017-12-01 12:19:48 1512148788.077154: {"class":"VERSION","release":"3.16","rev":"3.16-4","proto_major":3,"proto_minor":11}
2017-12-01 12:19:48 1512148788.077554: {"class":"DEVICES","devices":[{"class":"DEVICE","path":"/dev/ttyUSB0","driver":"SiRF","subtype":"9\u0006GSD4e_4.1.2-P1_RPATCH.05-F-GPS-4R-1510281 11/03/2015 307","activated":"2017-12-01T17:19:48.036Z","flags":1,"native":1,"bps":4800,"parity":"N","stopbits":1,"cycle":1.00}]}
2017-12-01 12:19:48 1512148788.077682: {"class":"WATCH","enable":true,"json":false,"nmea":true,"raw":0,"scaled":false,"timing":false,"split24":false,"pps":false}
2017-12-01 12:19:48 1512148788.150016: $GPZDA,171948.84,01,12,2017,00,00*6E
2017-12-01 12:19:48 1512148788.150187: $GPGGA,171948,3946.9564,N,08404.9880,W,1,12,1.20,307.32,M,-33.324,M,,*78
2017-12-01 12:19:48 1512148788.150254: $GPRMC,171948,A,3946.9564,N,08404.9880,W,0.3106,69.940,011217,,*08
2017-12-01 12:19:48 1512148788.150316: $GPGSA,A,3,10,13,15,18,20,21,24,27,5,29,32,138,2.0,1.2,1.5*3E
2017-12-01 12:19:48 1512148788.150375: $GPGBS,171948,10.70,M,15.43,M,35.28,M*05
2017-12-01 12:19:49 1512148789.231541: $GPZDA,171949.53,01,12,2017,00,00*65
2017-12-01 12:19:49 1512148789.231699: $GPGGA,171949,3946.9564,N,08404.9880,W,1,12,1.20,307.32,M,-33.324,M,,*79
2017-12-01 12:19:49 1512148789.231766: $GPRMC,171949,A,3946.9564,N,08404.9880,W,0.0000,0.000,011217,,*3F
2017-12-01 12:19:49 1512148789.231828: $GPGSA,A,3,10,13,15,18,20,21,24,27,5,29,32,138,2.0,1.2,1.5*3E
2017-12-01 12:19:50 1512148790.212577: $GPGSV,3,1,12,10,24,283,33,13,28,045,47,15,60,051,46,18,55,301,46*71
2017-12-01 12:19:50 1512148790.212738: $GPGSV,3,2,12,20,51,073,45,21,79,262,42,24,34,138,47,27,17,312,42*78
2017-12-01 12:19:50 1512148790.212806: $GPGSV,3,3,12,05,03,088,02,29,09,189,03,32,02,226,03,138,38,213,10*49
2017-12-01 12:19:50 1512148790.326224: $GPZDA,171950.00,01,12,2017,00,00*6B
2017-12-01 12:19:50 1512148790.326397: $GPGGA,171950,3946.9568,N,08404.9872,W,1,09,1.20,306.64,M,-33.324,M,,*78
2017-12-01 12:19:50 1512148790.326485: $GPRMC,171950,A,3946.9568,N,08404.9872,W,0.2758,128.233,011217,,*37
2017-12-01 12:19:50 1512148790.326548: $GPGSA,A,3,10,13,15,18,20,21,24,27,138,,,,2.0,1.2,1.5*01
2017-12-01 12:19:50 1512148790.778329: $GPZDA,171951.00,01,12,2017,00,00*6A
2017-12-01 12:19:50 1512148790.778506: $GPGGA,171951,3946.9568,N,08404.9872,W,1,09,0.80,306.64,M,-33.324,M,,*72
2017-12-01 12:19:50 1512148790.778575: $GPRMC,171951,A,3946.9568,N,08404.9872,W,0.1867,0.000,011217,,*3F
2017-12-01 12:19:50 1512148790.778637: $GPGSA,A,3,10,13,15,18,20,21,24,27,138,,,,2.0,0.8,1.5*0A
2017-12-01 12:19:51 1512148791.343368: $GPZDA,171952.00,01,12,2017,00,00*69
2017-12-01 12:19:51 1512148791.343542: $GPGGA,171952,3946.9567,N,08404.9865,W,1,09,1.20,306.72,M,-33.324,M,,*74
2017-12-01 12:19:51 1512148791.343608: $GPRMC,171952,A,3946.9567,N,08404.9865,W,0.0000,0.000,011217,,*3D
2017-12-01 12:19:51 1512148791.343686: $GPGSA,A,3,10,13,15,18,20,21,24,27,138,,,,2.0,1.2,1.5*01
2017-12-01 12:19:52 1512148792.681741: $GPGSV,3,1,12,10,24,283,37,13,28,045,45,15,60,051,46,18,55,301,46*77
2017-12-01 12:19:52 1512148792.681938: $GPGSV,3,2,12,20,51,073,45,21,79,262,42,24,34,138,48,27,17,312,42*77
2017-12-01 12:19:52 1512148792.682026: $GPGSV,3,3,12,05,03,088,24,29,09,189,05,32,02,226,28,138,38,213,47*40
2017-12-01 12:19:52 1512148792.794053: $GPZDA,171953.00,01,12,2017,00,00*68
2017-12-01 12:19:52 1512148792.794208: $GPGGA,171953,3946.9571,N,08404.9864,W,1,11,1.20,305.95,M,-33.324,M,,*70
2017-12-01 12:19:52 1512148792.794275: $GPRMC,171953,A,3946.9571,N,08404.9864,W,0.0000,0.000,011217,,*3A
2017-12-01 12:19:52 1512148792.794336: $GPGSA,A,3,10,13,15,18,20,21,24,27,5,32,138,,2.0,1.2,1.5*35
2017-12-01 12:19:53 1512148793.344033: $GPZDA,171954.00,01,12,2017,00,00*6F
2017-12-01 12:19:53 1512148793.344260: $GPGGA,171954,3946.9570,N,08404.9858,W,1,11,0.80,306.03,M,-33.324,M,,*7E
2017-12-01 12:19:53 1512148793.344416: $GPRMC,171954,A,3946.9570,N,08404.9858,W,0.0000,0.000,011217,,*33
2017-12-01 12:19:53 1512148793.344536: $GPGSA,A,3,10,13,15,18,20,21,24,27,5,32,138,,2.0,0.8,1.5*3E
2017-12-01 12:19:54 1512148794.343087: $GPZDA,171955.00,01,12,2017,00,00*6E
2017-12-01 12:19:54 1512148794.343290: $GPGGA,171955,3946.9574,N,08404.9857,W,1,11,0.80,305.27,M,-33.324,M,,*71
2017-12-01 12:19:54 1512148794.343356: $GPRMC,171955,A,3946.9574,N,08404.9857,W,0.0000,0.000,011217,,*39
2017-12-01 12:19:54 1512148794.343418: $GPGSA,A,3,10,13,15,18,20,21,24,27,5,32,138,,2.0,0.8,1.5*3E
2017-12-01 12:19:54 1512148794.343477: $GPGBS,171955,10.70,M,15.43,M,35.28,M*09
2017-12-01 12:19:55 1512148795.678697: $GPGSV,3,1,12,10,24,283,37,13,28,045,45,15,60,051,46,18,55,301,46*77
2017-12-01 12:19:55 1512148795.678879: $GPGSV,3,2,12,20,51,073,45,21,79,262,43,24,34,138,48,27,17,312,42*76
2017-12-01 12:19:55 1512148795.678968: $GPGSV,3,3,12,05,03,088,24,29,09,189,27,32,02,226,28,138,38,213,47*40
2017-12-01 12:19:55 1512148795.792379: $GPZDA,171956.00,01,12,2017,00,00*6D
2017-12-01 12:19:55 1512148795.792587: $GPGGA,171956,3946.9573,N,08404.9850,W,1,12,0.80,305.35,M,-33.324,M,,*72
2017-12-01 12:19:55 1512148795.792657: $GPRMC,171956,A,3946.9573,N,08404.9850,W,0.0000,0.000,011217,,*3A
2017-12-01 12:19:55 1512148795.792718: $GPGSA,A,3,10,13,15,18,20,21,24,27,5,29,32,138,2.0,0.8,1.5*35
2017-12-01 12:19:56 1512148796.343240: $GPZDA,171957.00,01,12,2017,00,00*6C
2017-12-01 12:19:56 1512148796.343410: $GPGGA,171957,3946.9573,N,08404.9850,W,1,12,0.80,305.35,M,-33.324,M,,*73
2017-12-01 12:19:56 1512148796.343476: $GPRMC,171957,A,3946.9573,N,08404.9850,W,0.0000,0.000,011217,,*3B
2017-12-01 12:19:56 1512148796.343537: $GPGSA,A,3,10,13,15,18,20,21,24,27,5,29,32,138,2.0,0.8,1.5*35
2017-12-01 12:19:57 1512148797.343572: $GPZDA,171958.00,01,12,2017,00,00*63
2017-12-01 12:19:57 1512148797.343746: $GPGGA,171958,3946.9582,N,08404.9819,W,2,12,1.20,301.97,M,-33.324,M,,*7B
2017-12-01 12:19:57 1512148797.343812: $GPRMC,171958,A,3946.9582,N,08404.9819,W,0.0000,0.000,011217,,*37
2017-12-01 12:19:57 1512148797.343873: $GPGSA,A,3,10,13,15,18,20,21,24,27,5,29,32,138,2.0,1.2,1.5*3E
