2017-12-01 12:11:09 1512148269.373857: {"class":"VERSION","release":"3.16","rev":"3.16-4","proto_major":3,"proto_minor":11}
2017-12-01 12:11:09 1512148269.374273: {"class":"DEVICES","devices":[{"class":"DEVICE","path":"/dev/ttyUSB0","driver":"SiRF","subtype":"9\u0006GSD4e_4.1.2-P1_RPATCH.05-F-GPS-4R-1510281 11/03/2015 307","activated":"2017-12-01T17:11:09.227Z","flags":1,"native":1,"bps":4800,"parity":"N","stopbits":1,"cycle":1.00}]}
2017-12-01 12:11:09 1512148269.374402: {"class":"WATCH","enable":true,"json":false,"nmea":true,"raw":0,"scaled":false,"timing":false,"split24":false,"pps":false}
2017-12-01 12:11:09 1512148269.677019: $GPGSV,3,1,12,10,21,280,38,13,32,046,45,15,64,052,42,18,52,297,45*7F
2017-12-01 12:11:09 1512148269.677206: $GPGSV,3,2,12,20,54,069,45,21,77,280,44,24,31,141,44,27,15,315,37*7D
2017-12-01 12:11:09 1512148269.677271: $GPGSV,3,3,12,29,12,190,34,05,05,085,00,04,02,135,00,138,38,213,46*42
2017-12-01 12:11:09 1512148269.790390: $GPZDA,171110.00,01,12,2017,00,00*67
2017-12-01 12:11:09 1512148269.790580: $GPGGA,171110,3946.9607,N,08404.9852,W,1,10,0.80,302.60,M,-33.324,M,,*7F
2017-12-01 12:11:09 1512148269.790651: $GPRMC,171110,A,3946.9607,N,08404.9852,W,0.0000,0.000,011217,,*32
2017-12-01 12:11:09 1512148269.790712: $GPGSA,A,3,10,13,15,18,20,21,24,27,29,138,,,2.0,0.8,1.5*01
2017-12-01 12:11:10 1512148270.341297: $GPZDA,171111.00,01,12,2017,00,00*66
2017-12-01 12:11:10 1512148270.341554: $GPGGA,171111,3946.9607,N,08404.9852,W,1,10,0.80,302.60,M,-33.324,M,,*7E
2017-12-01 12:11:10 1512148270.341625: $GPRMC,171111,A,3946.9607,N,08404.9852,W,0.0000,0.000,011217,,*33
2017-12-01 12:11:10 1512148270.341687: $GPGSA,A,3,10,13,15,18,20,21,24,27,29,138,,,2.0,0.8,1.5*01
2017-12-01 12:11:11 1512148271.343262: $GPZDA,171112.00,01,12,2017,00,00*65
2017-12-01 12:11:11 1512148271.343434: $GPGGA,171112,3946.9594,N,08404.9852,W,2,10,0.80,299.28,M,-33.324,M,,*78
2017-12-01 12:11:11 1512148271.343500: $GPRMC,171112,A,3946.9594,N,08404.9852,W,0.0000,0.000,011217,,*39
2017-12-01 12:11:11 1512148271.343563: $GPGSA,A,3,10,13,15,18,20,21,24,27,29,138,,,2.0,0.8,1.5*01
2017-12-01 12:11:12 1512148272.679882: $GPGSV,3,1,12,10,21,280,38,13,32,046,45,15,64,052,42,18,52,297,45*7F
2017-12-01 12:11:12 1512148272.680075: $GPGSV,3,2,12,20,54,069,45,21,77,280,44,24,31,141,44,27,15,315,38*72
2017-12-01 12:11:12 1512148272.680144: $GPGSV,3,3,12,29,12,190,34,05,05,085,00,04,02,135,00,138,38,213,46*42
2017-12-01 12:11:12 1512148272.793672: $GPZDA,171113.00,01,12,2017,00,00*64
2017-12-01 12:11:12 1512148272.793850: $GPGGA,171113,3946.9594,N,08404.9852,W,2,10,0.80,299.28,M,-33.324,M,,*79
2017-12-01 12:11:12 1512148272.793922: $GPRMC,171113,A,3946.9594,N,08404.9852,W,0.0000,0.000,011217,,*38
2017-12-01 12:11:12 1512148272.793983: $GPGSA,A,3,10,13,15,18,20,21,24,27,29,138,,,2.0,0.8,1.5*01
2017-12-01 12:11:13 1512148273.343145: $GPZDA,171114.00,01,12,2017,00,00*63
2017-12-01 12:11:13 1512148273.343311: $GPGGA,171114,3946.9594,N,08404.9852,W,2,10,0.80,299.28,M,-33.324,M,,*7E
2017-12-01 12:11:13 1512148273.343377: $GPRMC,171114,A,3946.9594,N,08404.9852,W,0.0000,0.000,011217,,*3F
2017-12-01 12:11:13 1512148273.343440: $GPGSA,A,3,10,13,15,18,20,21,24,27,29,138,,,2.0,0.8,1.5*01
2017-12-01 12:11:14 1512148274.340131: $GPZDA,171115.00,01,12,2017,00,00*62
2017-12-01 12:11:14 1512148274.340306: $GPGGA,171115,3946.9594,N,08404.9852,W,2,10,0.80,299.28,M,-33.324,M,,*7F
2017-12-01 12:11:14 1512148274.340372: $GPRMC,171115,A,3946.9594,N,08404.9852,W,0.0000,0.000,011217,,*3E
2017-12-01 12:11:14 1512148274.340435: $GPGSA,A,3,10,13,15,18,20,21,24,27,29,138,,,2.0,0.8,1.5*01
2017-12-01 12:11:14 1512148274.340494: $GPGBS,171115,2.67,M,3.86,M,8.82,M*30
2017-12-01 12:11:15 1512148275.685593: $GPGSV,3,1,12,10,21,280,38,13,32,046,44,15,64,052,43,18,52,297,45*7F
2017-12-01 12:11:15 1512148275.685758: $GPGSV,3,2,12,20,54,069,45,21,77,280,44,24,31,141,44,27,15,315,39*73
2017-12-01 12:11:15 1512148275.685829: $GPGSV,3,3,12,29,12,190,34,05,05,085,00,04,02,135,00,138,38,213,46*42
2017-12-01 12:11:15 1512148275.799231: $GPZDA,171116.00,01,12,2017,00,00*61
2017-12-01 12:11:15 1512148275.799472: $GPGGA,171116,3946.9594,N,08404.9852,W,2,10,0.80,299.28,M,-33.324,M,,*7C
2017-12-01 12:11:15 1512148275.799544: $GPRMC,171116,A,3946.9594,N,08404.9852,W,0.0000,0.000,011217,,*3D
2017-12-01 12:11:15 1512148275.799605: $GPGSA,A,3,10,13,15,18,20,21,24,27,29,138,,,2.0,0.8,1.5*01
2017-12-01 12:11:16 1512148276.425720: $GPZDA,171117.00,01,12,2017,00,00*60
2017-12-01 12:11:16 1512148276.425921: $GPGGA,171117,3946.9594,N,08404.9852,W,2,10,0.80,299.28,M,-33.324,M,,*7D
2017-12-01 12:11:16 1512148276.425991: $GPRMC,171117,A,3946.9594,N,08404.9852,W,0.0000,0.000,011217,,*3C
2017-12-01 12:11:16 1512148276.426059: $GPGSA,A,3,10,13,15,18,20,21,24,27,29,138,,,2.0,0.8,1.5*01
2017-12-01 12:11:17 1512148277.347868: $GPZDA,171118.00,01,12,2017,00,00*6F
2017-12-01 12:11:17 1512148277.348035: $GPGGA,171118,3946.9594,N,08404.9852,W,2,10,0.80,299.28,M,-33.324,M,,*72
2017-12-01 12:11:17 1512148277.348102: $GPRMC,171118,A,3946.9594,N,08404.9852,W,0.0000,0.000,011217,,*33
2017-12-01 12:11:17 1512148277.348164: $GPGSA,A,3,10,13,15,18,20,21,24,27,29,138,,,2.0,0.8,1.5*01
2017-12-01 12:11:18 1512148278.677225: $GPGSV,3,1,12,10,21,280,38,13,32,046,44,15,64,052,43,18,52,297,45*7F
2017-12-01 12:11:18 1512148278.677447: $GPGSV,3,2,12,20,54,069,45,21,77,280,44,24,31,141,44,27,15,315,40*7D
2017-12-01 12:11:18 1512148278.677537: $GPGSV,3,3,12,29,12,190,34,05,05,085,04,04,02,135,00,138,38,213,46*46
2017-12-01 12:11:18 1512148278.790990: $GPZDA,171119.00,01,12,2017,00,00*6E
2017-12-01 12:11:18 1512148278.791135: $GPGGA,171119,3946.9594,N,08404.9852,W,2,10,0.80,299.28,M,-33.324,M,,*73
2017-12-01 12:11:18 1512148278.791202: $GPRMC,171119,A,3946.9594,N,08404.9852,W,0.0000,0.000,011217,,*32
2017-12-01 12:11:18 1512148278.791265: $GPGSA,A,3,10,13,15,18,20,21,24,27,29,138,,,2.0,0.8,1.5*01
2017-12-01 12:11:19 1512148279.349083: $GPZDA,171120.00,01,12,2017,00,00*64
2017-12-01 12:11:19 1512148279.349255: $GPGGA,171120,3946.9593,N,08404.9845,W,2,10,0.80,299.36,M,-33.324,M,,*77
2017-12-01 12:11:19 1512148279.349322: $GPRMC,171120,A,3946.9593,N,08404.9845,W,0.0000,0.000,011217,,*39
2017-12-01 12:11:19 1512148279.349384: $GPGSA,A,3,10,13,15,18,20,21,24,27,29,138,,,2.0,0.8,1.5*01
