2017-12-01 13:09:28 1512151768.276741: {"class":"VERSION","release":"3.16","rev":"3.16-4","proto_major":3,"proto_minor":11}
2017-12-01 13:09:28 1512151768.277164: {"class":"DEVICES","devices":[{"class":"DEVICE","path":"/dev/ttyUSB0","driver":"SiRF","subtype":"9\u0006GSD4e_4.1.2-P1_RPATCH.05-F-GPS-4R-1510281 11/03/2015 307","activated":"2017-12-01T18:09:28.247Z","flags":1,"native":1,"bps":4800,"parity":"N","stopbits":1,"cycle":1.00}]}
2017-12-01 13:09:28 1512151768.277296: {"class":"WATCH","enable":true,"json":false,"nmea":true,"raw":0,"scaled":false,"timing":false,"split24":false,"pps":false}
2017-12-01 13:09:29 1512151769.419284: $GPZDA,180930.00,01,12,2017,00,00*63
2017-12-01 13:09:29 1512151769.419466: $GPGGA,180930,3946.9569,N,08404.9859,W,2,12,0.80,295.36,M,-33.324,M,,*76
2017-12-01 13:09:29 1512151769.425666: $GPRMC,180930,A,3946.9569,N,08404.9859,W,0.0000,0.000,011217,,*36
2017-12-01 13:09:29 1512151769.425760: $GPGSA,A,3,8,10,15,18,20,21,24,32,27,13,14,138,2.0,0.8,1.5*36
2017-12-01 13:09:30 1512151770.753703: $GPGSV,3,1,12,08,05,322,19,10,41,300,45,15,38,052,49,18,70,334,46*75
2017-12-01 13:09:30 1512151770.753883: $GPGSV,3,2,12,20,34,094,47,21,64,190,45,24,50,112,48,32,20,237,42*76
2017-12-01 13:09:30 1512151770.753950: $GPGSV,3,3,12,27,19,291,29,13,08,048,26,14,03,232,00,138,38,213,47*43
2017-12-01 13:09:30 1512151770.867338: $GPZDA,180931.00,01,12,2017,00,00*62
2017-12-01 13:09:30 1512151770.867496: $GPGGA,180931,3946.9569,N,08404.9859,W,2,11,0.80,295.36,M,-33.324,M,,*74
2017-12-01 13:09:30 1512151770.867562: $GPRMC,180931,A,3946.9569,N,08404.9859,W,0.0000,0.000,011217,,*37
2017-12-01 13:09:30 1512151770.867623: $GPGSA,A,3,8,10,15,18,20,21,24,32,27,13,138,,2.0,0.8,1.5*33
2017-12-01 13:09:31 1512151771.416954: $GPZDA,180932.00,01,12,2017,00,00*61
2017-12-01 13:09:31 1512151771.417111: $GPGGA,180932,3946.9569,N,08404.9859,W,2,11,0.80,295.36,M,-33.324,M,,*77
2017-12-01 13:09:31 1512151771.417178: $GPRMC,180932,A,3946.9569,N,08404.9859,W,0.0000,0.000,011217,,*34
2017-12-01 13:09:31 1512151771.417238: $GPGSA,A,3,8,10,15,18,20,21,24,32,27,13,138,,2.0,0.8,1.5*33
2017-12-01 13:09:32 1512151772.412777: $GPZDA,180933.00,01,12,2017,00,00*60
2017-12-01 13:09:32 1512151772.412944: $GPGGA,180933,3946.9569,N,08404.9859,W,2,11,0.80,295.36,M,-33.324,M,,*76
2017-12-01 13:09:32 1512151772.413011: $GPRMC,180933,A,3946.9569,N,08404.9859,W,0.0000,0.000,011217,,*35
2017-12-01 13:09:32 1512151772.413071: $GPGSA,A,3,8,10,15,18,20,21,24,32,27,13,138,,2.0,0.8,1.5*33
2017-12-01 13:09:32 1512151772.413130: $GPGBS,180933,2.67,M,3.86,M,8.82,M*32
2017-12-01 13:09:33 1512151773.752755: $GPGSV,3,1,12,08,05,322,27,10,41,300,44,15,38,052,49,18,70,334,46*79
2017-12-01 13:09:33 1512151773.752920: $GPGSV,3,2,12,20,34,094,47,21,64,190,44,24,50,112,48,32,20,237,42*77
2017-12-01 13:09:33 1512151773.752986: $GPGSV,3,3,12,27,19,291,31,13,08,048,27,14,03,232,00,138,38,213,47*4B
2017-12-01 13:09:33 1512151773.866304: $GPZDA,180934.00,01,12,2017,00,00*67
2017-12-01 13:09:33 1512151773.866472: $GPGGA,180934,3946.9569,N,08404.9859,W,2,11,0.80,295.36,M,-33.324,M,,*71
2017-12-01 13:09:33 1512151773.866538: $GPRMC,180934,A,3946.9569,N,08404.9859,W,0.0000,0.000,011217,,*32
2017-12-01 13:09:33 1512151773.866599: $GPGSA,A,3,8,10,15,18,20,21,24,32,27,13,138,,2.0,0.8,1.5*33
2017-12-01 13:09:34 1512151774.411973: $GPZDA,180935.00,01,12,2017,00,00*66
2017-12-01 13:09:34 1512151774.412171: $GPGGA,180935,3946.9573,N,08404.9858,W,2,11,0.80,294.60,M,-33.324,M,,*78
2017-12-01 13:09:34 1512151774.412258: $GPRMC,180935,A,3946.9573,N,08404.9858,W,0.0000,0.000,011217,,*39
2017-12-01 13:09:34 1512151774.412323: $GPGSA,A,3,8,10,15,18,20,21,24,32,27,13,138,,2.0,0.8,1.5*33
2017-12-01 13:09:35 1512151775.420596: $GPZDA,180936.00,01,12,2017,00,00*65
2017-12-01 13:09:35 1512151775.420762: $GPGGA,180936,3946.9576,N,08404.9857,W,2,11,0.80,293.83,M,-33.324,M,,*7B
2017-12-01 13:09:35 1512151775.420827: $GPRMC,180936,A,3946.9576,N,08404.9857,W,0.0000,0.000,011217,,*30
2017-12-01 13:09:35 1512151775.420888: $GPGSA,A,3,8,10,15,18,20,21,24,32,27,13,138,,2.0,0.8,1.5*33
2017-12-01 13:09:36 1512151776.748592: $GPGSV,3,1,12,08,05,322,28,10,41,300,43,15,38,052,49,18,70,334,44*73
2017-12-01 13:09:36 1512151776.748772: $GPGSV,3,2,12,20,34,094,46,21,64,190,44,24,50,112,47,32,20,237,41*7A
2017-12-01 13:09:36 1512151776.748838: $GPGSV,3,3,12,27,19,291,30,13,08,048,28,14,03,232,20,138,38,213,47*47
2017-12-01 13:09:36 1512151776.862049: $GPZDA,180937.00,01,12,2017,00,00*64
2017-12-01 13:09:36 1512151776.862208: $GPGGA,180937,3946.9572,N,08404.9864,W,2,12,0.80,293.11,M,-33.324,M,,*76
2017-12-01 13:09:36 1512151776.862273: $GPRMC,180937,A,3946.9572,N,08404.9864,W,0.0000,0.000,011217,,*35
2017-12-01 13:09:36 1512151776.862335: $GPGSA,A,3,8,10,15,18,20,21,24,32,27,13,14,138,2.0,0.8,1.5*36
2017-12-01 13:09:37 1512151777.411652: $GPZDA,180938.00,01,12,2017,00,00*6B
2017-12-01 13:09:37 1512151777.411813: $GPGGA,180938,3946.9572,N,08404.9864,W,2,12,0.80,293.11,M,-33.324,M,,*79
2017-12-01 13:09:37 1512151777.411881: $GPRMC,180938,A,3946.9572,N,08404.9864,W,0.0000,0.000,011217,,*3A
2017-12-01 13:09:37 1512151777.411942: $GPGSA,A,3,8,10,15,18,20,21,24,32,27,13,14,138,2.0,0.8,1.5*36
