2017-11-16 15:52:32 1510865552.936407: {"class":"VERSION","release":"3.17","rev":"3.17","proto_major":3,"proto_minor":12}
2017-11-16 15:52:32 1510865552.936842: {"class":"DEVICES","devices":[{"class":"DEVICE","path":"/dev/ttyUSB0","driver":"SiRF","subtype":"9\u0006GSD4e_4.1.2-P1_RPATCH.05-F-GPS-4R-1510281 11/03/2015 307","activated":"2017-11-16T20:52:32.508Z","flags":1,"native":1,"bps":4800,"parity":"N","stopbits":1,"cycle":1.00}]}
2017-11-16 15:52:32 1510865552.936950: {"class":"WATCH","enable":true,"json":false,"nmea":true,"raw":0,"scaled":false,"timing":false,"split24":false,"pps":false}
2017-11-16 15:52:33 1510865553.382602: $GPZDA,205232.00,16,11,2017,00,00*61
2017-11-16 15:52:33 1510865553.382761: $GPGGA,205232,3946.9582,N,08404.9844,W,2,11,1.20,308.11,M,-33.324,M,,*70
2017-11-16 15:52:33 1510865553.382822: $GPRMC,205232,A,3946.9582,N,08404.9844,W,0.0000,0.000,161117,,*3D
2017-11-16 15:52:33 1510865553.382878: $GPGSA,A,3,11,10,14,8,18,25,21,24,32,12,138,,1.6,1.2,1.3*3B
2017-11-16 15:52:34 1510865554.704346: $GPGSV,3,1,12,11,04,321,35,10,80,001,50,14,38,264,45,15,03,073,06*7D
2017-11-16 15:52:34 1510865554.704516: $GPGSV,3,2,12,18,60,115,48,25,12,133,32,21,16,177,38,24,35,049,50*7F
2017-11-16 15:52:34 1510865554.704576: $GPGSV,3,3,12,31,10,205,21,32,55,280,46,12,17,096,41,138,38,213,44*4A
2017-11-16 15:52:34 1510865554.817927: $GPZDA,205233.00,16,11,2017,00,00*60
2017-11-16 15:52:34 1510865554.818085: $GPGGA,205233,3946.9582,N,08404.9844,W,2,11,1.20,308.11,M,-33.324,M,,*71
2017-11-16 15:52:34 1510865554.818145: $GPRMC,205233,A,3946.9582,N,08404.9844,W,0.0000,0.000,161117,,*3C
2017-11-16 15:52:34 1510865554.818201: $GPGSA,A,3,11,10,14,18,25,21,24,31,32,12,138,,1.6,1.2,1.3*01
2017-11-16 15:52:35 1510865555.365074: $GPZDA,205234.00,16,11,2017,00,00*67
2017-11-16 15:52:35 1510865555.365236: $GPGGA,205234,3946.9582,N,08404.9844,W,2,11,1.20,308.11,M,-33.324,M,,*76
2017-11-16 15:52:35 1510865555.365296: $GPRMC,205234,A,3946.9582,N,08404.9844,W,0.0000,0.000,161117,,*3B
2017-11-16 15:52:35 1510865555.365351: $GPGSA,A,3,11,10,14,18,25,21,24,31,32,12,138,,1.6,1.2,1.3*01
2017-11-16 15:52:36 1510865556.367956: $GPZDA,205235.00,16,11,2017,00,00*66
2017-11-16 15:52:36 1510865556.368127: $GPGGA,205235,3946.9582,N,08404.9844,W,2,11,1.20,308.11,M,-33.324,M,,*77
2017-11-16 15:52:36 1510865556.368188: $GPRMC,205235,A,3946.9582,N,08404.9844,W,0.0000,0.000,161117,,*3A
2017-11-16 15:52:36 1510865556.368244: $GPGSA,A,3,11,10,14,18,25,21,24,31,32,12,138,,1.6,1.2,1.3*01
2017-11-16 15:52:37 1510865557.703509: $GPGSV,3,1,12,11,04,321,34,10,80,001,49,14,38,264,45,08,01,282,23*71
2017-11-16 15:52:37 1510865557.703659: $GPGSV,3,2,12,18,60,115,48,25,12,133,33,21,16,177,38,24,35,049,50*7E
2017-11-16 15:52:37 1510865557.703719: $GPGSV,3,3,12,15,03,073,16,32,55,280,46,12,17,096,41,138,38,213,44*49
2017-11-16 15:52:37 1510865557.817102: $GPZDA,205236.00,16,11,2017,00,00*65
2017-11-16 15:52:37 1510865557.817260: $GPGGA,205236,3946.9582,N,08404.9844,W,2,11,1.20,308.11,M,-33.324,M,,*74
2017-11-16 15:52:37 1510865557.817321: $GPRMC,205236,A,3946.9582,N,08404.9844,W,0.0000,0.000,161117,,*39
2017-11-16 15:52:37 1510865557.817377: $GPGSA,A,3,11,10,14,8,18,25,21,24,32,12,138,,1.6,1.2,1.3*3B
2017-11-16 15:52:38 1510865558.366702: $GPZDA,205237.00,16,11,2017,00,00*64
2017-11-16 15:52:38 1510865558.366861: $GPGGA,205237,3946.9582,N,08404.9844,W,2,11,1.20,308.11,M,-33.324,M,,*75
2017-11-16 15:52:38 1510865558.366922: $GPRMC,205237,A,3946.9582,N,08404.9844,W,0.0000,0.000,161117,,*38
2017-11-16 15:52:38 1510865558.366978: $GPGSA,A,3,11,10,14,8,18,25,21,24,32,12,138,,1.6,1.2,1.3*3B
2017-11-16 15:52:39 1510865559.366300: $GPZDA,205238.00,16,11,2017,00,00*6B
2017-11-16 15:52:39 1510865559.366460: $GPGGA,205238,3946.9582,N,08404.9844,W,2,11,1.20,308.11,M,-33.324,M,,*7A
2017-11-16 15:52:39 1510865559.366521: $GPRMC,205238,A,3946.9582,N,08404.9844,W,0.0000,0.000,161117,,*37
2017-11-16 15:52:39 1510865559.366577: $GPGSA,A,3,11,10,14,8,18,25,21,24,32,12,138,,1.6,1.2,1.3*3B
2017-11-16 15:52:40 1510865560.695555: $GPGSV,3,1,12,11,04,321,34,10,80,001,50,14,38,264,45,31,10,205,12*7E
2017-11-16 15:52:40 1510865560.695778: $GPGSV,3,2,12,18,60,115,48,25,12,133,33,21,16,177,38,24,35,049,50*7E
2017-11-16 15:52:40 1510865560.695840: $GPGSV,3,3,12,15,03,073,21,32,55,280,46,12,17,096,41,138,38,213,44*4D
2017-11-16 15:52:40 1510865560.808869: $GPZDA,205239.00,16,11,2017,00,00*6A
2017-11-16 15:52:40 1510865560.809034: $GPGGA,205239,3946.9582,N,08404.9844,W,2,11,1.20,308.11,M,-33.324,M,,*7B
2017-11-16 15:52:40 1510865560.809095: $GPRMC,205239,A,3946.9582,N,08404.9844,W,0.0000,0.000,161117,,*36
2017-11-16 15:52:40 1510865560.809150: $GPGSA,A,3,11,10,14,18,25,21,24,15,32,12,138,,1.6,1.2,1.3*07
2017-11-16 15:52:41 1510865561.434305: $GPZDA,205240.00,16,11,2017,00,00*64
2017-11-16 15:52:41 1510865561.434476: $GPGGA,205240,3946.9582,N,08404.9844,W,2,11,1.20,308.11,M,-33.324,M,,*75
2017-11-16 15:52:41 1510865561.434540: $GPRMC,205240,A,3946.9582,N,08404.9844,W,0.0000,0.000,161117,,*38
2017-11-16 15:52:41 1510865561.434599: $GPGSA,A,3,11,10,14,18,25,21,24,15,32,12,138,,1.6,1.2,1.3*07
2017-11-16 15:52:42 1510865562.382682: $GPZDA,205241.00,16,11,2017,00,00*65
2017-11-16 15:52:42 1510865562.382845: $GPGGA,205241,3946.9582,N,08404.9844,W,2,11,1.20,308.11,M,-33.324,M,,*74
2017-11-16 15:52:42 1510865562.382909: $GPRMC,205241,A,3946.9582,N,08404.9844,W,0.0000,0.000,161117,,*39
2017-11-16 15:52:42 1510865562.382967: $GPGSA,A,3,11,10,14,18,25,21,24,15,32,12,138,,1.6,1.2,1.3*07
