2017-12-31 17:04:09 1514757849.191917: {"class":"VERSION","release":"3.16","rev":"3.16-4","proto_major":3,"proto_minor":11}
2017-12-31 17:04:09 1514757849.192303: {"class":"DEVICES","devices":[{"class":"DEVICE","path":"/dev/ttyUSB0","driver":"SiRF","activated":"2017-12-31T22:04:09.167Z","flags":1,"native":1,"bps":4800,"parity":"N","stopbits":1,"cycle":1.00}]}
2017-12-31 17:04:09 1514757849.192403: {"class":"WATCH","enable":true,"json":false,"nmea":true,"raw":0,"scaled":false,"timing":false,"split24":false,"pps":false}
2017-12-31 17:04:09 1514757849.680063: $GPGSV,3,1,11,22,44,240,42,23,27,307,36,25,02,037,13,03,46,271,40*7C
2017-12-31 17:04:09 1514757849.680243: $GPGSV,3,2,11,16,46,190,44,29,14,055,30,31,50,051,50,14,40,114,37*7F
2017-12-31 17:04:09 1514757849.680308: $GPGSV,3,3,11,32,19,123,41,26,74,142,46,135,22,240,42*70
2017-12-31 17:04:09 1514757849.793703: $GPZDA,220410.00,31,12,2017,00,00*66
2017-12-31 17:04:09 1514757849.793822: $GPGGA,220410,3946.9587,N,08404.9854,W,2,11,1.00,302.21,M,-33.324,M,,*7E
2017-12-31 17:04:09 1514757849.793886: $GPRMC,220410,A,3946.9587,N,08404.9854,W,0.0000,0.000,311217,,*3E
2017-12-31 17:04:09 1514757849.793946: $GPGSA,A,3,22,23,25,3,16,29,31,14,32,26,135,,1.7,1.0,1.3*3B
2017-12-31 17:04:10 1514757850.418950: $GPZDA,220411.00,31,12,2017,00,00*67
2017-12-31 17:04:10 1514757850.419117: $GPGGA,220411,3946.9587,N,08404.9854,W,2,11,1.00,302.21,M,-33.324,M,,*7F
2017-12-31 17:04:10 1514757850.419186: $GPRMC,220411,A,3946.9587,N,08404.9854,W,0.0000,0.000,311217,,*3F
2017-12-31 17:04:10 1514757850.419247: $GPGSA,A,3,22,23,25,3,16,29,31,14,32,26,135,,1.7,1.0,1.3*3B
2017-12-31 17:04:11 1514757851.343422: $GPZDA,220412.00,31,12,2017,00,00*64
2017-12-31 17:04:11 1514757851.343578: $GPGGA,220412,3946.9587,N,08404.9854,W,2,11,1.00,302.21,M,-33.324,M,,*7C
2017-12-31 17:04:11 1514757851.343645: $GPRMC,220412,A,3946.9587,N,08404.9854,W,0.0000,0.000,311217,,*3C
2017-12-31 17:04:11 1514757851.343706: $GPGSA,A,3,22,23,25,3,16,29,31,14,32,26,135,,1.7,1.0,1.3*3B
2017-12-31 17:04:12 1514757852.671657: $GPGSV,3,1,11,22,44,240,42,23,27,307,36,25,02,037,13,03,46,271,40*7C
2017-12-31 17:04:12 1514757852.671829: $GPGSV,3,2,11,16,46,190,44,29,14,055,30,31,50,051,50,14,40,114,37*7F
2017-12-31 17:04:12 1514757852.671897: $GPGSV,3,3,11,32,19,123,41,26,74,142,46,135,22,240,43*71
2017-12-31 17:04:12 1514757852.785006: $GPZDA,220413.00,31,12,2017,00,00*65
2017-12-31 17:04:12 1514757852.785143: $GPGGA,220413,3946.9587,N,08404.9854,W,2,11,1.00,302.21,M,-33.324,M,,*7D
2017-12-31 17:04:12 1514757852.785209: $GPRMC,220413,A,3946.9587,N,08404.9854,W,0.0000,0.000,311217,,*3D
2017-12-31 17:04:12 1514757852.785270: $GPGSA,A,3,22,23,25,3,16,29,31,14,32,26,135,,1.7,1.0,1.3*3B
2017-12-31 17:04:13 1514757853.361186: $GPZDA,220414.00,31,12,2017,00,00*62
2017-12-31 17:04:13 1514757853.361369: $GPGGA,220414,3946.9587,N,08404.9854,W,2,11,1.00,302.21,M,-33.324,M,,*7A
2017-12-31 17:04:13 1514757853.361435: $GPRMC,220414,A,3946.9587,N,08404.9854,W,0.0000,0.000,311217,,*3A
2017-12-31 17:04:13 1514757853.361496: $GPGSA,A,3,22,23,25,3,16,29,31,14,32,26,135,,1.7,1.0,1.3*3B
2017-12-31 17:04:14 1514757854.337029: $GPZDA,220415.00,31,12,2017,00,00*63
2017-12-31 17:04:14 1514757854.337251: $GPGGA,220415,3946.9587,N,08404.9854,W,2,11,1.00,302.21,M,-33.324,M,,*7B
2017-12-31 17:04:14 1514757854.337320: $GPRMC,220415,A,3946.9587,N,08404.9854,W,0.0000,0.000,311217,,*3B
2017-12-31 17:04:14 1514757854.337382: $GPGSA,A,3,22,23,25,3,16,29,31,14,32,26,135,,1.7,1.0,1.3*3B
2017-12-31 17:04:15 1514757855.679514: $GPGSV,3,1,11,22,44,240,42,23,27,307,36,25,02,037,13,03,46,271,40*7C
2017-12-31 17:04:15 1514757855.679681: $GPGSV,3,2,11,16,46,190,44,29,14,055,31,31,50,051,51,14,40,114,37*7F
2017-12-31 17:04:15 1514757855.679748: $GPGSV,3,3,11,32,19,123,41,26,74,142,46,135,22,240,42*70
2017-12-31 17:04:15 1514757855.793120: $GPZDA,220416.00,31,12,2017,00,00*60
2017-12-31 17:04:15 1514757855.793270: $GPGGA,220416,3946.9587,N,08404.9854,W,2,11,1.00,302.21,M,-33.324,M,,*78
2017-12-31 17:04:15 1514757855.793337: $GPRMC,220416,A,3946.9587,N,08404.9854,W,0.0000,0.000,311217,,*38
2017-12-31 17:04:15 1514757855.793450: $GPGSA,A,3,22,23,25,3,16,29,31,14,32,26,135,,1.7,1.0,1.3*3B
2017-12-31 17:04:16 1514757856.360531: $GPZDA,220417.00,31,12,2017,00,00*61
2017-12-31 17:04:16 1514757856.360699: $GPGGA,220417,3946.9587,N,08404.9854,W,2,11,1.00,302.21,M,-33.324,M,,*79
2017-12-31 17:04:16 1514757856.360767: $GPRMC,220417,A,3946.9587,N,08404.9854,W,0.0000,0.000,311217,,*39
2017-12-31 17:04:16 1514757856.360828: $GPGSA,A,3,22,23,25,3,16,29,31,14,32,26,135,,1.7,1.0,1.3*3B
2017-12-31 17:04:17 1514757857.361125: $GPZDA,220418.00,31,12,2017,00,00*6E
2017-12-31 17:04:17 1514757857.361310: $GPGGA,220418,3946.9587,N,08404.9854,W,2,11,1.00,302.21,M,-33.324,M,,*76
2017-12-31 17:04:17 1514757857.361378: $GPRMC,220418,A,3946.9587,N,08404.9854,W,0.0000,0.000,311217,,*36
2017-12-31 17:04:17 1514757857.361440: $GPGSA,A,3,22,23,25,3,16,29,31,14,32,26,135,,1.7,1.0,1.3*3B
2017-12-31 17:04:18 1514757858.680355: $GPGSV,3,1,11,22,44,240,42,23,27,307,36,25,02,037,13,03,46,271,41*7D
2017-12-31 17:04:18 1514757858.680511: $GPGSV,3,2,11,16,46,190,44,29,14,055,31,31,50,051,51,14,40,114,37*7F
2017-12-31 17:04:18 1514757858.680578: $GPGSV,3,3,11,32,19,123,41,26,74,142,46,135,22,240,43*71
2017-12-31 17:04:18 1514757858.793675: $GPZDA,220419.00,31,12,2017,00,00*6F
2017-12-31 17:04:18 1514757858.793779: $GPGGA,220419,3946.9587,N,08404.9854,W,2,11,1.00,302.21,M,-33.324,M,,*77
2017-12-31 17:04:18 1514757858.793844: $GPRMC,220419,A,3946.9587,N,08404.9854,W,0.0000,0.000,311217,,*37
2017-12-31 17:04:18 1514757858.793905: $GPGSA,A,3,22,23,25,3,16,29,31,14,32,26,135,,1.7,1.0,1.3*3B
