2017-11-16 16:49:47 1510868987.251773: {"class":"VERSION","release":"3.17","rev":"3.17","proto_major":3,"proto_minor":12}
2017-11-16 16:49:47 1510868987.252238: {"class":"DEVICES","devices":[{"class":"DEVICE","path":"/dev/ttyUSB0","driver":"SiRF","subtype":"9\u0006GSD4e_4.1.2-P1_RPATCH.05-F-GPS-4R-1510281 11/03/2015 307","activated":"2017-11-16T21:49:46.586Z","flags":1,"native":1,"bps":4800,"parity":"N","stopbits":1,"cycle":1.00}]}
2017-11-16 16:49:47 1510868987.252353: {"class":"WATCH","enable":true,"json":false,"nmea":true,"raw":0,"scaled":false,"timing":false,"split24":false,"pps":false}
2017-11-16 16:49:47 1510868987.781620: $GPGSV,3,1,12,01,14,318,41,10,68,133,48,11,11,300,32,12,25,070,47*73
2017-11-16 16:49:47 1510868987.781792: $GPGSV,3,2,12,14,56,294,45,18,36,136,44,24,13,045,43,25,30,112,42*79
2017-11-16 16:49:47 1510868987.781851: $GPGSV,3,3,12,31,35,213,46,32,68,331,51,22,03,310,30,138,38,213,45*44
2017-11-16 16:49:47 1510868987.894946: $GPZDA,214946.00,16,11,2017,00,00*69
2017-11-16 16:49:47 1510868987.895144: $GPGGA,214946,3946.9584,N,08404.9822,W,2,12,0.80,307.58,M,-33.324,M,,*74
2017-11-16 16:49:47 1510868987.895208: $GPRMC,214946,A,3946.9584,N,08404.9822,W,0.0000,0.000,161117,,*33
2017-11-16 16:49:47 1510868987.895263: $GPGSA,A,3,1,10,11,12,14,18,24,25,31,32,22,138,1.6,0.8,1.3*38
2017-11-16 16:49:48 1510868988.448368: $GPZDA,214947.00,16,11,2017,00,00*68
2017-11-16 16:49:48 1510868988.448538: $GPGGA,214947,3946.9584,N,08404.9822,W,2,12,0.80,307.58,M,-33.324,M,,*75
2017-11-16 16:49:48 1510868988.448599: $GPRMC,214947,A,3946.9584,N,08404.9822,W,0.0000,0.000,161117,,*32
2017-11-16 16:49:48 1510868988.448655: $GPGSA,A,3,1,10,11,12,14,18,24,25,31,32,22,138,1.6,0.8,1.3*38
2017-11-16 16:49:49 1510868989.445809: $GPZDA,214948.00,16,11,2017,00,00*67
2017-11-16 16:49:49 1510868989.445971: $GPGGA,214948,3946.9584,N,08404.9822,W,2,12,0.80,307.58,M,-33.324,M,,*7A
2017-11-16 16:49:49 1510868989.446031: $GPRMC,214948,A,3946.9584,N,08404.9822,W,0.0000,0.000,161117,,*3D
2017-11-16 16:49:49 1510868989.446087: $GPGSA,A,3,1,10,11,12,14,18,24,25,31,32,22,138,1.6,0.8,1.3*38
2017-11-16 16:49:50 1510868990.776176: $GPGSV,3,1,12,01,14,318,40,10,68,133,49,11,11,300,32,12,25,070,47*73
2017-11-16 16:49:50 1510868990.776348: $GPGSV,3,2,12,14,56,294,45,18,36,136,44,24,13,045,43,25,30,112,42*79
2017-11-16 16:49:50 1510868990.776408: $GPGSV,3,3,12,31,35,213,46,32,68,331,51,22,03,310,30,138,38,213,44*45
2017-11-16 16:49:50 1510868990.889808: $GPZDA,214949.00,16,11,2017,00,00*66
2017-11-16 16:49:50 1510868990.889970: $GPGGA,214949,3946.9581,N,08404.9823,W,2,12,0.80,308.35,M,-33.324,M,,*7B
2017-11-16 16:49:50 1510868990.890030: $GPRMC,214949,A,3946.9581,N,08404.9823,W,0.0000,0.000,161117,,*38
2017-11-16 16:49:50 1510868990.890086: $GPGSA,A,3,1,10,11,12,14,18,24,25,31,32,22,138,1.6,0.8,1.3*38
2017-11-16 16:49:51 1510868991.514905: $GPZDA,214950.00,16,11,2017,00,00*6E
2017-11-16 16:49:51 1510868991.515107: $GPGGA,214950,3946.9581,N,08404.9823,W,2,12,0.80,308.35,M,-33.324,M,,*73
2017-11-16 16:49:51 1510868991.515175: $GPRMC,214950,A,3946.9581,N,08404.9823,W,0.0000,0.000,161117,,*30
2017-11-16 16:49:51 1510868991.515231: $GPGSA,A,3,1,10,11,12,14,18,24,25,31,32,22,138,1.6,0.8,1.3*38
2017-11-16 16:49:52 1510868992.447084: $GPZDA,214951.00,16,11,2017,00,00*6F
2017-11-16 16:49:52 1510868992.447265: $GPGGA,214951,3946.9581,N,08404.9823,W,2,12,0.80,308.35,M,-33.324,M,,*72
2017-11-16 16:49:52 1510868992.447328: $GPRMC,214951,A,3946.9581,N,08404.9823,W,0.0000,0.000,161117,,*31
2017-11-16 16:49:52 1510868992.447386: $GPGSA,A,3,1,10,11,12,14,18,24,25,31,32,22,138,1.6,0.8,1.3*38
2017-11-16 16:49:53 1510868993.781439: $GPGSV,3,1,12,01,14,318,39,10,68,133,48,11,11,300,32,12,25,070,47*7C
2017-11-16 16:49:53 1510868993.781611: $GPGSV,3,2,12,14,56,294,45,18,36,136,43,24,13,045,43,25,30,112,42*7E
2017-11-16 16:49:53 1510868993.781671: $GPGSV,3,3,12,31,35,213,46,32,68,331,51,22,03,310,29,138,38,213,44*4D
2017-11-16 16:49:53 1510868993.894717: $GPZDA,214952.00,16,11,2017,00,00*6C
2017-11-16 16:49:53 1510868993.894886: $GPGGA,214952,3946.9581,N,08404.9823,W,2,12,0.80,308.35,M,-33.324,M,,*71
2017-11-16 16:49:53 1510868993.894997: $GPRMC,214952,A,3946.9581,N,08404.9823,W,0.0000,0.000,161117,,*32
2017-11-16 16:49:53 1510868993.895107: $GPGSA,A,3,1,10,11,12,14,18,24,25,31,32,22,138,1.6,0.8,1.3*38
2017-11-16 16:49:54 1510868994.446890: $GPZDA,214953.00,16,11,2017,00,00*6D
2017-11-16 16:49:54 1510868994.447070: $GPGGA,214953,3946.9581,N,08404.9823,W,2,12,0.80,308.35,M,-33.324,M,,*70
2017-11-16 16:49:54 1510868994.447132: $GPRMC,214953,A,3946.9581,N,08404.9823,W,0.0000,0.000,161117,,*33
2017-11-16 16:49:54 1510868994.447188: $GPGSA,A,3,1,10,11,12,14,18,24,25,31,32,22,138,1.6,0.8,1.3*38
2017-11-16 16:49:55 1510868995.445940: $GPZDA,214954.00,16,11,2017,00,00*6A
2017-11-16 16:49:55 1510868995.446100: $GPGGA,214954,3946.9581,N,08404.9823,W,2,12,0.80,308.35,M,-33.324,M,,*77
2017-11-16 16:49:55 1510868995.446161: $GPRMC,214954,A,3946.9581,N,08404.9823,W,0.0000,0.000,161117,,*34
2017-11-16 16:49:55 1510868995.446217: $GPGSA,A,3,1,10,11,12,14,18,24,25,31,32,22,138,1.6,0.8,1.3*38
2017-11-16 16:49:55 1510868995.446271: $GPGBS,214954,2.07,M,2.72,M,7.42,M*32
2017-11-16 16:49:56 1510868996.776131: $GPGSV,3,1,12,01,14,318,38,10,68,133,49,11,11,300,32,12,25,070,47*7C
2017-11-16 16:49:56 1510868996.776299: $GPGSV,3,2,12,14,56,294,45,18,36,136,44,24,13,045,43,25,30,112,42*79
2017-11-16 16:49:56 1510868996.776362: $GPGSV,3,3,12,31,35,213,46,32,68,331,51,22,03,310,29,138,38,213,45*4C
2017-11-16 16:49:56 1510868996.889428: $GPZDA,214955.00,16,11,2017,00,00*6B
2017-11-16 16:49:56 1510868996.889578: $GPGGA,214955,3946.9581,N,08404.9823,W,2,12,0.80,308.35,M,-33.324,M,,*76
2017-11-16 16:49:56 1510868996.889638: $GPRMC,214955,A,3946.9581,N,08404.9823,W,0.0000,0.000,161117,,*35
2017-11-16 16:49:56 1510868996.889693: $GPGSA,A,3,1,10,11,12,14,18,24,25,31,32,22,138,1.6,0.8,1.3*38
