2017-12-31 16:45:00 1514756700.069915: {"class":"VERSION","release":"3.16","rev":"3.16-4","proto_major":3,"proto_minor":11}
2017-12-31 16:45:00 1514756700.070290: {"class":"DEVICES","devices":[{"class":"DEVICE","path":"/dev/ttyUSB0","driver":"SiRF","activated":"2017-12-31T21:44:59.663Z","flags":1,"native":1,"bps":4800,"parity":"N","stopbits":1,"cycle":1.00}]}
2017-12-31 16:45:00 1514756700.070422: {"class":"WATCH","enable":true,"json":false,"nmea":true,"raw":0,"scaled":false,"timing":false,"split24":false,"pps":false}
2017-12-31 16:45:00 1514756700.673755: $GPGSV,3,1,11,22,49,253,44,23,20,304,41,25,09,039,32,03,45,285,32*7A
2017-12-31 16:45:00 1514756700.673896: $GPGSV,3,2,11,16,35,189,47,29,13,064,31,31,57,042,51,14,48,105,46*7E
2017-12-31 16:45:00 1514756700.673961: $GPGSV,3,3,11,32,26,115,40,26,66,162,42,135,22,240,43*7C
2017-12-31 16:45:00 1514756700.787178: $GPZDA,214501.00,31,12,2017,00,00*60
2017-12-31 16:45:00 1514756700.787328: $GPGGA,214501,3946.9576,N,08404.9848,W,2,11,0.80,303.18,M,-33.324,M,,*79
2017-12-31 16:45:00 1514756700.787411: $GPRMC,214501,A,3946.9576,N,08404.9848,W,0.0000,0.000,311217,,*3B
2017-12-31 16:45:00 1514756700.787471: $GPGSA,A,3,22,23,25,3,16,29,31,14,32,26,135,,1.7,0.8,1.3*32
2017-12-31 16:45:01 1514756701.363068: $GPZDA,214502.00,31,12,2017,00,00*63
2017-12-31 16:45:01 1514756701.363269: $GPGGA,214502,3946.9576,N,08404.9848,W,2,11,0.80,303.18,M,-33.324,M,,*7A
2017-12-31 16:45:01 1514756701.363353: $GPRMC,214502,A,3946.9576,N,08404.9848,W,0.0000,0.000,311217,,*38
2017-12-31 16:45:01 1514756701.363416: $GPGSA,A,3,22,23,25,3,16,29,31,14,32,26,135,,1.7,0.8,1.3*32
2017-12-31 16:45:02 1514756702.338902: $GPZDA,214503.00,31,12,2017,00,00*62
2017-12-31 16:45:02 1514756702.339067: $GPGGA,214503,3946.9576,N,08404.9848,W,2,11,0.80,303.18,M,-33.324,M,,*7B
2017-12-31 16:45:02 1514756702.339133: $GPRMC,214503,A,3946.9576,N,08404.9848,W,0.0000,0.000,311217,,*39
2017-12-31 16:45:02 1514756702.339216: $GPGSA,A,3,22,23,25,3,16,29,31,14,32,26,135,,1.7,0.8,1.3*32
2017-12-31 16:45:03 1514756703.683368: $GPGSV,3,1,11,22,49,253,44,23,20,304,42,25,09,039,32,03,45,285,32*79
2017-12-31 16:45:03 1514756703.683537: $GPGSV,3,2,11,16,35,189,47,29,13,064,31,31,57,042,52,14,48,105,46*7D
2017-12-31 16:45:03 1514756703.683605: $GPGSV,3,3,11,32,26,115,40,26,66,162,42,135,22,240,43*7C
2017-12-31 16:45:03 1514756703.796748: $GPZDA,214504.00,31,12,2017,00,00*65
2017-12-31 16:45:03 1514756703.796908: $GPGGA,214504,3946.9576,N,08404.9848,W,2,11,0.80,303.18,M,-33.324,M,,*7C
2017-12-31 16:45:03 1514756703.796974: $GPRMC,214504,A,3946.9576,N,08404.9848,W,0.0000,0.000,311217,,*3E
2017-12-31 16:45:03 1514756703.797035: $GPGSA,A,3,22,23,25,3,16,29,31,14,32,26,135,,1.7,0.8,1.3*32
2017-12-31 16:45:04 1514756704.346670: $GPZDA,214505.00,31,12,2017,00,00*64
2017-12-31 16:45:04 1514756704.346830: $GPGGA,214505,3946.9576,N,08404.9848,W,2,11,0.80,303.18,M,-33.324,M,,*7D
2017-12-31 16:45:04 1514756704.346897: $GPRMC,214505,A,3946.9576,N,08404.9848,W,0.0000,0.000,311217,,*3F
2017-12-31 16:45:04 1514756704.346958: $GPGSA,A,3,22,23,25,3,16,29,31,14,32,26,135,,1.7,0.8,1.3*32
2017-12-31 16:45:05 1514756705.347023: $GPZDA,214506.00,31,12,2017,00,00*67
2017-12-31 16:45:05 1514756705.347264: $GPGGA,214506,3946.9576,N,08404.9848,W,2,11,0.80,303.18,M,-33.324,M,,*7E
2017-12-31 16:45:05 1514756705.347353: $GPRMC,214506,A,3946.9576,N,08404.9848,W,0.0000,0.000,311217,,*3C
2017-12-31 16:45:05 1514756705.347416: $GPGSA,A,3,22,23,25,3,16,29,31,14,32,26,135,,1.7,0.8,1.3*32
2017-12-31 16:45:06 1514756706.698733: $GPGSV,3,1,11,22,49,253,44,23,20,304,42,25,09,039,32,03,45,285,27*7D
2017-12-31 16:45:06 1514756706.698897: $GPGSV,3,2,11,16,35,189,47,29,13,064,30,31,57,042,51,14,48,105,46*7F
2017-12-31 16:45:06 1514756706.698963: $GPGSV,3,3,11,32,26,115,41,26,66,162,42,135,22,240,44*7A
2017-12-31 16:45:06 1514756706.812064: $GPZDA,214507.00,31,12,2017,00,00*66
2017-12-31 16:45:06 1514756706.812214: $GPGGA,214507,3946.9576,N,08404.9848,W,2,11,0.80,303.18,M,-33.324,M,,*7F
2017-12-31 16:45:06 1514756706.812297: $GPRMC,214507,A,3946.9576,N,08404.9848,W,0.0000,0.000,311217,,*3D
2017-12-31 16:45:06 1514756706.812412: $GPGSA,A,3,22,23,25,3,16,29,31,14,32,26,135,,1.7,0.8,1.3*32
2017-12-31 16:45:07 1514756707.339462: $GPZDA,214508.00,31,12,2017,00,00*69
2017-12-31 16:45:07 1514756707.339629: $GPGGA,214508,3946.9576,N,08404.9848,W,2,11,0.80,303.18,M,-33.324,M,,*70
2017-12-31 16:45:07 1514756707.339696: $GPRMC,214508,A,3946.9576,N,08404.9848,W,0.0000,0.000,311217,,*32
2017-12-31 16:45:07 1514756707.339757: $GPGSA,A,3,22,23,25,3,16,29,31,14,32,26,135,,1.7,0.8,1.3*32
2017-12-31 16:45:08 1514756708.337874: $GPZDA,214509.00,31,12,2017,00,00*68
2017-12-31 16:45:08 1514756708.338044: $GPGGA,214509,3946.9576,N,08404.9848,W,2,11,0.80,303.18,M,-33.324,M,,*71
2017-12-31 16:45:08 1514756708.338133: $GPRMC,214509,A,3946.9576,N,08404.9848,W,0.0000,0.000,311217,,*33
2017-12-31 16:45:08 1514756708.338196: $GPGSA,A,3,22,23,25,3,16,29,31,14,32,26,135,,1.7,0.8,1.3*32
2017-12-31 16:45:09 1514756709.680790: $GPGSV,3,1,11,22,49,253,44,23,20,304,43,25,09,039,32,03,45,285,35*7F
2017-12-31 16:45:09 1514756709.680955: $GPGSV,3,2,11,16,35,189,47,29,13,064,30,31,57,042,51,14,48,105,46*7F
2017-12-31 16:45:09 1514756709.681022: $GPGSV,3,3,11,32,26,115,41,26,66,162,42,135,22,240,44*7A
2017-12-31 16:45:09 1514756709.794403: $GPZDA,214510.00,31,12,2017,00,00*60
2017-12-31 16:45:09 1514756709.794552: $GPGGA,214510,3946.9576,N,08404.9848,W,2,11,0.80,303.18,M,-33.324,M,,*79
2017-12-31 16:45:09 1514756709.794617: $GPRMC,214510,A,3946.9576,N,08404.9848,W,0.0000,0.000,311217,,*3B
2017-12-31 16:45:09 1514756709.794678: $GPGSA,A,3,22,23,25,3,16,29,31,14,32,26,135,,1.7,0.8,1.3*32
