2017-11-15 19:14:28 1510791268.252222: {"class":"VERSION","release":"3.17","rev":"3.17","proto_major":3,"proto_minor":12}
2017-11-15 19:14:28 1510791268.252709: {"class":"DEVICES","devices":[{"class":"DEVICE","path":"/dev/ttyUSB0","driver":"SiRF","subtype":"9\u0006GSD4e_4.1.2-P1_RPATCH.05-F-GPS-4R-1510281 11/03/2015 307","activated":"2017-11-16T00:14:28.232Z","flags":1,"native":1,"bps":4800,"parity":"N","stopbits":1,"cycle":1.00}]}
2017-11-15 19:14:28 1510791268.252822: {"class":"WATCH","enable":true,"json":false,"nmea":true,"raw":0,"scaled":false,"timing":false,"split24":false,"pps":false}
2017-11-15 19:14:28 1510791268.346119: $GPZDA,001427.00,16,11,2017,00,00*65
2017-11-15 19:14:28 1510791268.346268: $GPGGA,001427,3946.9626,N,08404.9473,W,1,07,1.40,306.26,M,-33.324,M,,*79
2017-11-15 19:14:28 1510791268.346330: $GPRMC,001427,A,3946.9626,N,08404.9473,W,0.8011,119.090,161117,,*34
2017-11-15 19:14:28 1510791268.346385: $GPGSA,A,3,32,14,22,26,31,3,29,,,,,,3.4,1.4,2.9*01
2017-11-15 19:14:29 1510791269.347043: $GPZDA,001428.00,16,11,2017,00,00*6A
2017-11-15 19:14:29 1510791269.347216: $GPGGA,001428,3946.9626,N,08404.9473,W,1,07,1.40,306.26,M,-33.324,M,,*76
2017-11-15 19:14:29 1510791269.347277: $GPRMC,001428,A,3946.9626,N,08404.9473,W,0.4207,39.347,161117,,*08
2017-11-15 19:14:29 1510791269.347333: $GPGSA,A,3,32,14,22,26,31,3,29,,,,,,3.4,1.4,2.9*01
2017-11-15 19:14:30 1510791270.682770: $GPGSV,3,1,12,32,42,100,21,14,60,081,21,22,49,282,16,26,45,175,23*71
2017-11-15 19:14:30 1510791270.682942: $GPGSV,3,2,12,31,73,009,24,16,15,190,04,03,35,306,19,01,10,258,10*7B
2017-11-15 19:14:30 1510791270.683003: $GPGSV,3,3,12,29,08,078,06,25,23,043,00,23,06,297,00,120,07,103,00*4C
2017-11-15 19:14:30 1510791270.796074: $GPZDA,001429.00,16,11,2017,00,00*6B
2017-11-15 19:14:30 1510791270.796233: $GPGGA,001429,3946.9630,N,08404.9480,W,1,06,1.40,306.82,M,-33.324,M,,*73
2017-11-15 19:14:30 1510791270.796292: $GPRMC,001429,A,3946.9630,N,08404.9480,W,0.4207,39.347,161117,,*02
2017-11-15 19:14:30 1510791270.796348: $GPGSA,A,3,32,14,22,26,31,3,,,,,,,3.4,1.4,2.9*0A
2017-11-15 19:14:31 1510791271.421446: $GPZDA,001430.00,16,11,2017,00,00*63
2017-11-15 19:14:31 1510791271.421633: $GPGGA,001430,3946.9630,N,08404.9480,W,1,06,1.40,306.82,M,-33.324,M,,*7B
2017-11-15 19:14:31 1510791271.421697: $GPRMC,001430,A,3946.9630,N,08404.9480,W,0.8054,68.645,161117,,*01
2017-11-15 19:14:31 1510791271.421753: $GPGSA,A,3,32,14,22,26,31,3,,,,,,,3.4,1.4,2.9*0A
2017-11-15 19:14:32 1510791272.331083: $GPZDA,001431.00,16,11,2017,00,00*62
2017-11-15 19:14:32 1510791272.331244: $GPGGA,001431,3946.9630,N,08404.9480,W,1,06,1.40,306.82,M,-33.324,M,,*7A
2017-11-15 19:14:32 1510791272.331306: $GPRMC,001431,A,3946.9630,N,08404.9480,W,1.1240,45.393,161117,,*0E
2017-11-15 19:14:32 1510791272.331362: $GPGSA,A,3,32,14,22,26,31,3,,,,,,,3.4,1.4,2.9*0A
2017-11-15 19:14:33 1510791273.683157: $GPGSV,3,1,12,32,42,100,21,14,60,081,21,22,49,282,16,26,45,175,23*71
2017-11-15 19:14:33 1510791273.683329: $GPGSV,3,2,12,31,73,009,24,16,15,190,13,03,35,306,18,01,10,258,13*7F
2017-11-15 19:14:33 1510791273.683389: $GPGSV,3,3,12,29,08,078,09,25,23,043,00,23,06,297,00,120,07,103,00*43
2017-11-15 19:14:33 1510791273.796505: $GPZDA,001432.00,16,11,2017,00,00*61
2017-11-15 19:14:33 1510791273.796765: $GPGGA,001432,3946.9630,N,08404.9480,W,1,09,0.80,306.82,M,-33.324,M,,*7B
2017-11-15 19:14:33 1510791273.796844: $GPRMC,001432,A,3946.9630,N,08404.9480,W,0.5951,58.684,161117,,*0C
2017-11-15 19:14:33 1510791273.796902: $GPGSA,A,3,32,14,22,26,31,16,3,1,29,,,,3.4,0.8,2.9*3A
2017-11-15 19:14:34 1510791274.347347: $GPZDA,001433.00,16,11,2017,00,00*60
2017-11-15 19:14:34 1510791274.347522: $GPGGA,001433,3946.9630,N,08404.9480,W,1,09,0.80,306.82,M,-33.324,M,,*7A
2017-11-15 19:14:34 1510791274.347589: $GPRMC,001433,A,3946.9630,N,08404.9480,W,0.4844,93.794,161117,,*0E
2017-11-15 19:14:34 1510791274.347646: $GPGSA,A,3,32,14,22,26,31,16,3,1,29,,,,3.4,0.8,2.9*3A
2017-11-15 19:14:35 1510791275.347035: $GPZDA,001434.00,16,11,2017,00,00*67
2017-11-15 19:14:35 1510791275.347205: $GPGGA,001434,3946.9630,N,08404.9487,W,1,09,0.80,306.74,M,-33.324,M,,*73
2017-11-15 19:14:35 1510791275.347318: $GPRMC,001434,A,3946.9630,N,08404.9487,W,0.3423,4.197,161117,,*3F
2017-11-15 19:14:35 1510791275.347375: $GPGSA,A,3,32,14,22,26,31,16,3,1,29,,,,3.4,0.8,2.9*3A
2017-11-15 19:14:36 1510791276.683501: $GPGSV,3,1,12,32,42,100,21,14,60,081,21,22,49,282,16,26,45,175,23*71
2017-11-15 19:14:36 1510791276.683681: $GPGSV,3,2,12,31,73,009,24,16,15,190,13,03,35,306,18,01,10,258,10*7C
2017-11-15 19:14:36 1510791276.683742: $GPGSV,3,3,12,29,08,078,09,25,23,043,00,23,06,297,00,120,07,103,00*43
2017-11-15 19:14:36 1510791276.796833: $GPZDA,001435.00,16,11,2017,00,00*66
2017-11-15 19:14:36 1510791276.797002: $GPGGA,001435,3946.9634,N,08404.9493,W,1,09,0.80,305.90,M,-33.324,M,,*7A
2017-11-15 19:14:36 1510791276.797065: $GPRMC,001435,A,3946.9634,N,08404.9493,W,0.5287,2.716,161117,,*38
2017-11-15 19:14:36 1510791276.797120: $GPGSA,A,3,32,14,22,26,31,16,3,1,29,,,,3.4,0.8,2.9*3A
2017-11-15 19:14:37 1510791277.332886: $GPZDA,001436.00,16,11,2017,00,00*65
2017-11-15 19:14:37 1510791277.335695: $GPGGA,001436,3946.9638,N,08404.9493,W,1,09,1.40,306.53,M,-33.324,M,,*74
2017-11-15 19:14:37 1510791277.335808: $GPRMC,001436,A,3946.9638,N,08404.9493,W,0.9019,18.875,161117,,*0F
2017-11-15 19:14:37 1510791277.335881: $GPGSA,A,3,32,14,22,26,31,16,3,1,29,,,,3.4,1.4,2.9*37
