2017-12-01 12:17:10 1512148630.247257: {"class":"VERSION","release":"3.16","rev":"3.16-4","proto_major":3,"proto_minor":11}
2017-12-01 12:17:10 1512148630.247626: {"class":"DEVICES","devices":[{"class":"DEVICE","path":"/dev/ttyUSB0","driver":"SiRF","subtype":"9\u0006GSD4e_4.1.2-P1_RPATCH.05-F-GPS-4R-1510281 11/03/2015 307","activated":"2017-12-01T17:17:10.184Z","flags":1,"native":1,"bps":4800,"parity":"N","stopbits":1,"cycle":1.00}]}
2017-12-01 12:17:10 1512148630.247739: {"class":"WATCH","enable":true,"json":false,"nmea":true,"raw":0,"scaled":false,"timing":false,"split24":false,"pps":false}
2017-12-01 12:17:10 1512148630.362865: $GPZDA,171711.00,01,12,2017,00,00*60
2017-12-01 12:17:10 1512148630.363040: $GPGGA,171711,3946.9585,N,08404.9838,W,2,10,0.80,298.16,M,-33.324,M,,*7D
2017-12-01 12:17:10 1512148630.363106: $GPRMC,171711,A,3946.9585,N,08404.9838,W,0.0000,0.000,011217,,*30
2017-12-01 12:17:10 1512148630.363168: $GPGSA,A,3,10,13,15,18,20,21,24,27,29,138,,,2.0,0.8,1.5*01
2017-12-01 12:17:11 1512148631.699510: $GPGSV,3,1,12,10,23,283,43,13,29,045,44,15,61,051,44,18,54,300,45*73
2017-12-01 12:17:11 1512148631.699693: $GPGSV,3,2,12,20,52,072,44,21,78,268,42,24,33,138,47,27,16,313,43*76
2017-12-01 12:17:11 1512148631.699760: $GPGSV,3,3,12,29,10,190,30,05,04,087,00,32,01,225,00,138,38,213,46*43
2017-12-01 12:17:11 1512148631.812975: $GPZDA,171712.00,01,12,2017,00,00*63
2017-12-01 12:17:11 1512148631.813133: $GPGGA,171712,3946.9585,N,08404.9838,W,2,10,1.00,298.16,M,-33.324,M,,*77
2017-12-01 12:17:11 1512148631.813199: $GPRMC,171712,A,3946.9585,N,08404.9838,W,0.0000,0.000,011217,,*33
2017-12-01 12:17:11 1512148631.813260: $GPGSA,A,3,10,13,15,18,20,21,24,27,29,138,,,2.0,1.0,1.5*08
2017-12-01 12:17:12 1512148632.438542: $GPZDA,171713.00,01,12,2017,00,00*62
2017-12-01 12:17:12 1512148632.438711: $GPGGA,171713,3946.9585,N,08404.9838,W,2,10,1.00,298.16,M,-33.324,M,,*76
2017-12-01 12:17:12 1512148632.438777: $GPRMC,171713,A,3946.9585,N,08404.9838,W,0.0000,0.000,011217,,*32
2017-12-01 12:17:12 1512148632.438838: $GPGSA,A,3,10,13,15,18,20,21,24,27,29,138,,,2.0,1.0,1.5*08
2017-12-01 12:17:13 1512148633.366722: $GPZDA,171714.00,01,12,2017,00,00*65
2017-12-01 12:17:13 1512148633.366883: $GPGGA,171714,3946.9581,N,08404.9839,W,2,10,0.80,298.92,M,-33.324,M,,*71
2017-12-01 12:17:13 1512148633.366950: $GPRMC,171714,A,3946.9581,N,08404.9839,W,0.0000,0.000,011217,,*30
2017-12-01 12:17:13 1512148633.367011: $GPGSA,A,3,10,13,15,18,20,21,24,27,29,138,,,2.0,0.8,1.5*01
2017-12-01 12:17:14 1512148634.699894: $GPGSV,3,1,12,10,23,283,44,13,29,045,44,15,61,051,45,18,54,300,45*75
2017-12-01 12:17:14 1512148634.700075: $GPGSV,3,2,12,20,52,072,44,21,78,268,42,24,33,138,47,27,16,313,42*77
2017-12-01 12:17:14 1512148634.700142: $GPGSV,3,3,12,29,10,190,00,05,04,087,18,32,01,225,00,138,38,213,46*49
2017-12-01 12:17:14 1512148634.813336: $GPZDA,171715.00,01,12,2017,00,00*64
2017-12-01 12:17:14 1512148634.813515: $GPGGA,171715,3946.9581,N,08404.9839,W,2,10,1.00,298.92,M,-33.324,M,,*79
2017-12-01 12:17:14 1512148634.813581: $GPRMC,171715,A,3946.9581,N,08404.9839,W,0.0000,0.000,011217,,*31
2017-12-01 12:17:14 1512148634.813642: $GPGSA,A,3,10,13,15,18,20,21,24,27,5,138,,,2.0,1.0,1.5*36
2017-12-01 12:17:15 1512148635.366593: $GPZDA,171716.00,01,12,2017,00,00*67
2017-12-01 12:17:15 1512148635.366770: $GPGGA,171716,3946.9581,N,08404.9839,W,2,10,1.00,298.92,M,-33.324,M,,*7A
2017-12-01 12:17:15 1512148635.366837: $GPRMC,171716,A,3946.9581,N,08404.9839,W,0.0000,0.000,011217,,*32
2017-12-01 12:17:15 1512148635.366897: $GPGSA,A,3,10,13,15,18,20,21,24,27,5,138,,,2.0,1.0,1.5*36
2017-12-01 12:17:16 1512148636.368721: $GPZDA,171717.00,01,12,2017,00,00*66
2017-12-01 12:17:16 1512148636.368905: $GPGGA,171717,3946.9581,N,08404.9839,W,2,10,0.80,298.92,M,-33.324,M,,*72
2017-12-01 12:17:16 1512148636.368972: $GPRMC,171717,A,3946.9581,N,08404.9839,W,0.0000,0.000,011217,,*33
2017-12-01 12:17:16 1512148636.369033: $GPGSA,A,3,10,13,15,18,20,21,24,27,5,138,,,2.0,0.8,1.5*3F
2017-12-01 12:17:17 1512148637.698990: $GPGSV,3,1,12,10,23,283,44,13,29,045,44,15,61,051,45,18,54,300,45*75
2017-12-01 12:17:17 1512148637.699244: $GPGSV,3,2,12,20,52,072,45,21,78,268,42,24,33,138,48,27,16,313,42*79
2017-12-01 12:17:17 1512148637.699312: $GPGSV,3,3,12,29,10,190,27,05,04,087,19,32,01,225,00,138,38,213,46*4D
2017-12-01 12:17:17 1512148637.812772: $GPZDA,171718.00,01,12,2017,00,00*69
2017-12-01 12:17:17 1512148637.812934: $GPGGA,171718,3946.9581,N,08404.9839,W,2,11,0.80,298.92,M,-33.324,M,,*7C
2017-12-01 12:17:17 1512148637.813000: $GPRMC,171718,A,3946.9581,N,08404.9839,W,0.0000,0.000,011217,,*3C
2017-12-01 12:17:17 1512148637.813060: $GPGSA,A,3,10,13,15,18,20,21,24,27,29,5,138,,2.0,0.8,1.5*34
2017-12-01 12:17:18 1512148638.369841: $GPZDA,171719.00,01,12,2017,00,00*68
2017-12-01 12:17:18 1512148638.370020: $GPGGA,171719,3946.9581,N,08404.9839,W,2,11,1.00,298.92,M,-33.324,M,,*74
2017-12-01 12:17:18 1512148638.370086: $GPRMC,171719,A,3946.9581,N,08404.9839,W,0.0000,0.000,011217,,*3D
2017-12-01 12:17:18 1512148638.370147: $GPGSA,A,3,10,13,15,18,20,21,24,27,29,5,138,,2.0,1.0,1.5*3D
2017-12-01 12:17:19 1512148639.892986: $GPZDA,171720.00,01,12,2017,00,00*62
2017-12-01 12:17:19 1512148639.893164: $GPGGA,171720,3946.9573,N,08404.9832,W,2,11,1.00,299.12,M,-33.324,M,,*71
2017-12-01 12:17:19 1512148639.893231: $GPRMC,171720,A,3946.9573,N,08404.9832,W,0.0000,0.000,011217,,*31
2017-12-01 12:17:19 1512148639.893293: $GPGSA,A,3,10,13,15,18,20,21,24,27,29,5,138,,2.0,1.0,1.5*3D
