2017-11-15 19:03:22 1510790602.714761: {"class":"VERSION","release":"3.17","rev":"3.17","proto_major":3,"proto_minor":12}
2017-11-15 19:03:22 1510790602.715369: {"class":"DEVICES","devices":[{"class":"DEVICE","path":"/dev/ttyUSB0","driver":"SiRF","subtype":"9\u0006GSD4e_4.1.2-P1_RPATCH.05-F-GPS-4R-1510281 11/03/2015 307","activated":"2017-11-16T00:03:22.487Z","flags":1,"native":1,"bps":4800,"parity":"N","stopbits":1,"cycle":1.00}]}
2017-11-15 19:03:22 1510790602.715488: {"class":"WATCH","enable":true,"json":false,"nmea":true,"raw":0,"scaled":false,"timing":false,"split24":false,"pps":false}
2017-11-15 19:03:23 1510790603.346017: $GPZDA,000322.00,16,11,2017,00,00*66
2017-11-15 19:03:23 1510790603.346179: $GPGGA,000322,3946.9596,N,08404.9486,W,1,08,1.40,300.22,M,-33.324,M,,*75
2017-11-15 19:03:23 1510790603.346240: $GPRMC,000322,A,3946.9596,N,08404.9486,W,0.0000,0.000,161117,,*3D
2017-11-15 19:03:23 1510790603.346295: $GPGSA,A,3,32,14,3,26,31,16,22,1,,,,,3.4,1.4,2.9*3C
2017-11-15 19:03:24 1510790604.681751: $GPGSV,3,1,12,32,45,096,22,14,63,073,25,03,32,309,22,26,40,175,17*79
2017-11-15 19:03:24 1510790604.681923: $GPGSV,3,2,12,31,76,355,26,16,11,190,17,22,47,288,21,25,26,045,00*76
2017-11-15 19:03:24 1510790604.681984: $GPGSV,3,3,12,10,08,159,00,01,12,262,12,29,06,082,00,135,23,238,00*41
2017-11-15 19:03:24 1510790604.795133: $GPZDA,000323.00,16,11,2017,00,00*67
2017-11-15 19:03:24 1510790604.795310: $GPGGA,000323,3946.9596,N,08404.9486,W,1,08,1.40,300.22,M,-33.324,M,,*74
2017-11-15 19:03:24 1510790604.795371: $GPRMC,000323,A,3946.9596,N,08404.9486,W,0.0000,0.000,161117,,*3C
2017-11-15 19:03:24 1510790604.795426: $GPGSA,A,3,32,14,3,26,31,16,22,1,,,,,3.4,1.4,2.9*3C
2017-11-15 19:03:25 1510790605.857405: $GPZDA,000324.00,16,11,2017,00,00*60
2017-11-15 19:03:25 1510790605.857592: $GPGGA,000324,3946.9600,N,08404.9485,W,1,08,1.40,299.45,M,-33.324,M,,*7C
2017-11-15 19:03:25 1510790605.857671: $GPRMC,000324,A,3946.9600,N,08404.9485,W,0.0000,0.000,161117,,*34
2017-11-15 19:03:25 1510790605.857728: $GPGSA,A,3,32,14,3,26,31,16,22,1,,,,,3.4,1.4,2.9*3C
2017-11-15 19:03:26 1510790606.482867: $GPZDA,000325.00,16,11,2017,00,00*61
2017-11-15 19:03:26 1510790606.483040: $GPGGA,000325,3946.9600,N,08404.9485,W,1,08,1.40,299.45,M,-33.324,M,,*7D
2017-11-15 19:03:26 1510790606.483101: $GPRMC,000325,A,3946.9600,N,08404.9485,W,0.5287,2.716,161117,,*3F
2017-11-15 19:03:26 1510790606.483156: $GPGSA,A,3,32,14,3,26,31,16,22,1,,,,,3.4,1.4,2.9*3C
2017-11-15 19:03:27 1510790607.681143: $GPGSV,3,1,12,32,45,096,22,14,63,073,25,03,32,309,22,26,40,175,17*79
2017-11-15 19:03:27 1510790607.681316: $GPGSV,3,2,12,31,76,355,27,16,11,190,17,22,47,288,20,25,26,045,00*76
2017-11-15 19:03:27 1510790607.681376: $GPGSV,3,3,12,10,08,159,00,01,12,262,12,29,06,081,00,135,23,238,00*42
2017-11-15 19:03:27 1510790607.794529: $GPZDA,000326.00,16,11,2017,00,00*62
2017-11-15 19:03:27 1510790607.794711: $GPGGA,000326,3946.9604,N,08404.9485,W,1,08,1.40,300.09,M,-33.324,M,,*73
2017-11-15 19:03:27 1510790607.794772: $GPRMC,000326,A,3946.9604,N,08404.9485,W,0.7278,23.636,161117,,*0A
2017-11-15 19:03:27 1510790607.794828: $GPGSA,A,3,32,14,3,26,31,16,22,1,,,,,3.4,1.4,2.9*3C
2017-11-15 19:03:28 1510790608.345804: $GPZDA,000327.00,16,11,2017,00,00*63
2017-11-15 19:03:28 1510790608.345966: $GPGGA,000327,3946.9608,N,08404.9484,W,1,08,1.40,299.33,M,-33.324,M,,*77
2017-11-15 19:03:28 1510790608.346027: $GPRMC,000327,A,3946.9608,N,08404.9484,W,1.1385,29.379,161117,,*06
2017-11-15 19:03:28 1510790608.346082: $GPGSA,A,3,32,14,3,26,31,16,22,1,,,,,3.4,1.4,2.9*3C
2017-11-15 19:03:29 1510790609.345374: $GPZDA,000328.00,16,11,2017,00,00*6C
2017-11-15 19:03:29 1510790609.345555: $GPGGA,000328,3946.9615,N,08404.9484,W,1,08,1.40,299.20,M,-33.324,M,,*76
2017-11-15 19:03:29 1510790609.345617: $GPRMC,000328,A,3946.9615,N,08404.9484,W,1.3044,25.352,161117,,*0C
2017-11-15 19:03:29 1510790609.345690: $GPGSA,A,3,32,14,3,26,31,16,22,1,,,,,3.4,1.4,2.9*3C
2017-11-15 19:03:30 1510790610.682068: $GPGSV,3,1,12,32,45,096,23,14,63,073,25,03,32,309,22,26,40,175,16*79
2017-11-15 19:03:30 1510790610.682239: $GPGSV,3,2,12,31,76,355,27,16,11,190,16,22,47,288,21,25,26,045,00*76
2017-11-15 19:03:30 1510790610.682352: $GPGSV,3,3,12,10,08,159,00,01,12,262,12,29,06,081,00,135,23,238,00*42
2017-11-15 19:03:30 1510790610.795813: $GPZDA,000329.00,16,11,2017,00,00*6D
2017-11-15 19:03:30 1510790610.795972: $GPGGA,000329,3946.9622,N,08404.9476,W,1,08,1.40,299.16,M,-33.324,M,,*7B
2017-11-15 19:03:30 1510790610.796033: $GPRMC,000329,A,3946.9622,N,08404.9476,W,1.8343,45.514,161117,,*09
2017-11-15 19:03:30 1510790610.796088: $GPGSA,A,3,32,14,3,26,31,16,22,1,,,,,3.4,1.4,2.9*3C
2017-11-15 19:03:31 1510790611.420714: $GPZDA,000330.00,16,11,2017,00,00*65
2017-11-15 19:03:31 1510790611.420882: $GPGGA,000330,3946.9626,N,08404.9469,W,1,08,1.40,299.88,M,-33.324,M,,*7E
2017-11-15 19:03:31 1510790611.420943: $GPRMC,000330,A,3946.9626,N,08404.9469,W,2.1306,30.833,161117,,*0A
2017-11-15 19:03:31 1510790611.420999: $GPGSA,A,3,32,14,3,26,31,16,22,1,,,,,3.4,1.4,2.9*3C
2017-11-15 19:03:32 1510790612.346865: $GPZDA,000331.00,16,11,2017,00,00*64
2017-11-15 19:03:32 1510790612.347042: $GPGGA,000331,3946.9634,N,08404.9468,W,1,08,1.40,299.75,M,-33.324,M,,*7F
2017-11-15 19:03:32 1510790612.347104: $GPRMC,000331,A,3946.9634,N,08404.9468,W,2.3556,21.815,161117,,*0C
2017-11-15 19:03:32 1510790612.347160: $GPGSA,A,3,32,14,3,26,31,16,22,1,,,,,3.4,1.4,2.9*3C
