2017-12-01 16:26:41 1512163601.517272: {"class":"VERSION","release":"3.16","rev":"3.16-4","proto_major":3,"proto_minor":11}
2017-12-01 16:26:41 1512163601.518268: {"class":"DEVICES","devices":[{"class":"DEVICE","path":"/dev/ttyUSB0","driver":"SiRF","subtype":"9\u0006GSD4e_4.1.2-P1_RPATCH.05-F-GPS-4R-1510281 11/03/2015 307","activated":"2017-12-01T21:26:41.486Z","flags":1,"native":1,"bps":4800,"parity":"N","stopbits":1,"cycle":1.00}]}
2017-12-01 16:26:41 1512163601.518402: {"class":"WATCH","enable":true,"json":false,"nmea":true,"raw":0,"scaled":false,"timing":false,"split24":false,"pps":false}
2017-12-01 16:26:42 1512163602.261031: $GPZDA,212642.52,01,12,2017,00,00*66
2017-12-01 16:26:42 1512163602.261196: $GPGGA,212642,3946.9645,N,08404.9778,W,1,10,1.40,302.01,M,-33.324,M,,*72
2017-12-01 16:26:42 1512163602.261262: $GPRMC,212642,A,3946.9645,N,08404.9778,W,0.0407,322.013,011217,,*37
2017-12-01 16:26:42 1512163602.261324: $GPGSA,A,3,1,10,11,14,22,31,32,25,12,138,,,2.0,1.4,1.5*39
2017-12-01 16:26:43 1512163603.402156: $GPGSV,3,1,12,01,21,301,39,10,49,147,42,14,65,324,46,22,18,312,45*73
2017-12-01 16:26:43 1512163603.402346: $GPGSV,3,2,12,25,39,093,33,31,55,223,50,32,69,024,49,11,09,283,23*7C
2017-12-01 16:26:43 1512163603.402414: $GPGSV,3,3,12,12,23,051,06,18,19,144,03,26,01,183,02,138,38,213,00*45
2017-12-01 16:26:43 1512163603.516005: $GPZDA,212643.00,01,12,2017,00,00*60
2017-12-01 16:26:43 1512163603.516189: $GPGGA,212643,3946.9645,N,08404.9778,W,1,09,1.00,302.01,M,-33.324,M,,*7F
2017-12-01 16:26:43 1512163603.516256: $GPRMC,212643,A,3946.9645,N,08404.9778,W,0.2959,54.767,011217,,*04
2017-12-01 16:26:43 1512163603.516336: $GPGSA,A,3,1,10,14,22,25,31,32,11,12,,,,2.0,1.0,1.5*07
2017-12-01 16:26:43 1512163603.966392: $GPZDA,212644.00,01,12,2017,00,00*67
2017-12-01 16:26:43 1512163603.966580: $GPGGA,212644,3946.9648,N,08404.9778,W,1,09,0.80,301.24,M,-33.324,M,,*78
2017-12-01 16:26:43 1512163603.966662: $GPRMC,212644,A,3946.9648,N,08404.9778,W,0.0407,322.013,011217,,*3C
2017-12-01 16:26:43 1512163603.966725: $GPGSA,A,3,1,10,14,22,25,31,32,11,12,,,,2.0,0.8,1.5*0E
2017-12-01 16:26:44 1512163604.418488: $GPZDA,212645.00,01,12,2017,00,00*66
2017-12-01 16:26:44 1512163604.418712: $GPGGA,212645,3946.9644,N,08404.9771,W,1,09,0.80,300.68,M,-33.324,M,,*75
2017-12-01 16:26:44 1512163604.418781: $GPRMC,212645,A,3946.9644,N,08404.9771,W,0.0000,0.000,011217,,*3A
2017-12-01 16:26:44 1512163604.418843: $GPGSA,A,3,1,10,14,22,25,31,32,11,12,,,,2.0,0.8,1.5*0E
2017-12-01 16:26:45 1512163605.707546: $GPGSV,3,1,12,01,21,301,40,10,49,147,43,14,65,324,46,22,18,312,44*7D
2017-12-01 16:26:45 1512163605.707737: $GPGSV,3,2,12,25,39,093,32,31,55,223,50,32,69,024,49,11,09,283,32*7D
2017-12-01 16:26:45 1512163605.707804: $GPGSV,3,3,12,12,23,051,30,18,19,144,27,26,01,183,20,138,38,213,39*4C
2017-12-01 16:26:45 1512163605.820927: $GPZDA,212646.00,01,12,2017,00,00*65
2017-12-01 16:26:45 1512163605.821077: $GPGGA,212646,3946.9644,N,08404.9771,W,1,12,0.80,300.68,M,-33.324,M,,*7C
2017-12-01 16:26:45 1512163605.821144: $GPRMC,212646,A,3946.9644,N,08404.9771,W,0.0000,0.000,011217,,*39
2017-12-01 16:26:45 1512163605.821205: $GPGSA,A,3,1,10,14,22,25,31,32,11,12,18,26,138,2.0,0.8,1.5*39
2017-12-01 16:26:46 1512163606.371805: $GPZDA,212647.00,01,12,2017,00,00*64
2017-12-01 16:26:46 1512163606.371978: $GPGGA,212647,3946.9639,N,08404.9771,W,1,12,0.80,300.04,M,-33.324,M,,*7D
2017-12-01 16:26:46 1512163606.372044: $GPRMC,212647,A,3946.9639,N,08404.9771,W,0.0000,0.000,011217,,*32
2017-12-01 16:26:46 1512163606.372104: $GPGSA,A,3,1,10,14,22,25,31,32,11,12,18,26,138,2.0,0.8,1.5*39
2017-12-01 16:26:47 1512163607.373762: $GPZDA,212648.00,01,12,2017,00,00*6B
2017-12-01 16:26:47 1512163607.373930: $GPGGA,212648,3946.9639,N,08404.9771,W,1,12,1.20,300.04,M,-33.324,M,,*79
2017-12-01 16:26:47 1512163607.373996: $GPRMC,212648,A,3946.9639,N,08404.9771,W,0.0000,0.000,011217,,*3D
2017-12-01 16:26:47 1512163607.374057: $GPGSA,A,3,1,10,14,22,25,31,32,11,12,18,26,138,2.0,1.2,1.5*32
2017-12-01 16:26:47 1512163607.374116: $GPGBS,212648,10.70,M,15.43,M,35.28,M*0C
2017-12-01 16:26:48 1512163608.707059: $GPGSV,3,1,12,01,21,301,40,10,49,147,43,14,65,324,45,22,18,312,44*7E
2017-12-01 16:26:48 1512163608.710331: $GPGSV,3,2,12,25,39,093,32,31,55,223,50,32,69,024,49,11,09,283,34*7B
2017-12-01 16:26:48 1512163608.710453: $GPGSV,3,3,12,12,23,051,26,18,19,144,26,26,01,183,20,138,38,213,40*44
2017-12-01 16:26:48 1512163608.820814: $GPZDA,212649.00,01,12,2017,00,00*6A
2017-12-01 16:26:48 1512163608.820982: $GPGGA,212649,3946.9639,N,08404.9764,W,1,12,0.80,300.12,M,-33.324,M,,*70
2017-12-01 16:26:48 1512163608.821047: $GPRMC,212649,A,3946.9639,N,08404.9764,W,0.0000,0.000,011217,,*38
2017-12-01 16:26:48 1512163608.821109: $GPGSA,A,3,1,10,14,22,25,31,32,11,12,18,26,138,2.0,0.8,1.5*39
2017-12-01 16:26:49 1512163609.372590: $GPZDA,212650.00,01,12,2017,00,00*62
2017-12-01 16:26:49 1512163609.372780: $GPGGA,212650,3946.9643,N,08404.9763,W,1,12,0.80,299.36,M,-33.324,M,,*75
2017-12-01 16:26:49 1512163609.372848: $GPRMC,212650,A,3946.9643,N,08404.9763,W,0.0000,0.000,011217,,*3A
2017-12-01 16:26:49 1512163609.372909: $GPGSA,A,3,1,10,14,22,25,31,32,11,12,18,26,138,2.0,0.8,1.5*39
2017-12-01 16:26:50 1512163610.371914: $GPZDA,212651.00,01,12,2017,00,00*63
2017-12-01 16:26:50 1512163610.372217: $GPGGA,212651,3946.9638,N,08404.9763,W,1,12,0.80,298.72,M,-33.324,M,,*79
2017-12-01 16:26:50 1512163610.372342: $GPRMC,212651,A,3946.9638,N,08404.9763,W,0.0000,0.000,011217,,*37
2017-12-01 16:26:50 1512163610.372462: $GPGSA,A,3,1,10,14,22,25,31,32,11,12,18,26,138,2.0,0.8,1.5*39
2017-12-01 16:26:51 1512163611.718597: $GPGSV,3,1,12,01,21,301,41,10,49,147,43,14,65,324,44,22,18,312,44*7E
2017-12-01 16:26:51 1512163611.718791: $GPGSV,3,2,12,25,39,093,31,31,55,223,50,32,69,024,49,11,09,283,33*7F
2017-12-01 16:26:51 1512163611.718858: $GPGSV,3,3,12,12,23,051,00,18,19,144,26,26,01,183,20,138,38,213,40*40
2017-12-01 16:26:51 1512163611.832066: $GPZDA,212652.00,01,12,2017,00,00*60
2017-12-01 16:26:51 1512163611.832216: $GPGGA,212652,3946.9638,N,08404.9763,W,1,11,1.20,298.72,M,-33.324,M,,*72
2017-12-01 16:26:51 1512163611.832283: $GPRMC,212652,A,3946.9638,N,08404.9763,W,0.0000,0.000,011217,,*34
2017-12-01 16:26:51 1512163611.832344: $GPGSA,A,3,1,10,14,22,25,31,32,11,18,26,138,,2.0,1.2,1.5*31
2017-12-01 16:26:52 1512163612.374149: $GPZDA,212653.00,01,12,2017,00,00*61
2017-12-01 16:26:52 1512163612.374320: $GPGGA,212653,3946.9636,N,08404.9741,W,2,11,1.20,296.15,M,-33.324,M,,*71
2017-12-01 16:26:52 1512163612.374387: $GPRMC,212653,A,3946.9636,N,08404.9741,W,0.0000,0.000,011217,,*3B
2017-12-01 16:26:52 1512163612.374447: $GPGSA,A,3,1,10,14,22,25,31,32,11,18,26,138,,2.0,1.2,1.5*31
2017-12-01 16:26:53 1512163613.376232: $GPZDA,212654.00,01,12,2017,00,00*66
2017-12-01 16:26:53 1512163613.376405: $GPGGA,212654,3946.9636,N,08404.9741,W,2,11,0.80,296.15,M,-33.324,M,,*7D
2017-12-01 16:26:53 1512163613.376494: $GPRMC,212654,A,3946.9636,N,08404.9741,W,0.0000,0.000,011217,,*3C
2017-12-01 16:26:53 1512163613.376559: $GPGSA,A,3,1,10,14,22,25,31,32,11,18,26,138,,2.0,0.8,1.5*3A
2017-12-01 16:26:54 1512163614.706927: $GPGSV,3,1,12,01,21,301,41,10,49,147,43,14,65,324,44,22,18,312,44*7E
2017-12-01 16:26:54 1512163614.707111: $GPGSV,3,2,12,25,39,093,30,31,55,223,50,32,69,024,48,11,09,283,33*7F
2017-12-01 16:26:54 1512163614.707178: $GPGSV,3,3,12,12,23,051,24,18,19,144,25,26,01,183,22,138,38,213,38*48
2017-12-01 16:26:54 1512163614.820347: $GPZDA,212655.00,01,12,2017,00,00*67
2017-12-01 16:26:54 1512163614.820656: $GPGGA,212655,3946.9636,N,08404.9741,W,2,12,0.80,296.15,M,-33.324,M,,*7F
2017-12-01 16:26:54 1512163614.820799: $GPRMC,212655,A,3946.9636,N,08404.9741,W,0.0000,0.000,011217,,*3D
2017-12-01 16:26:54 1512163614.820918: $GPGSA,A,3,1,10,14,22,25,31,32,11,12,18,26,138,2.0,0.8,1.5*39
2017-12-01 16:26:55 1512163615.445727: $GPZDA,212656.00,01,12,2017,00,00*64
2017-12-01 16:26:55 1512163615.445897: $GPGGA,212656,3946.9636,N,08404.9741,W,2,12,0.80,296.15,M,-33.324,M,,*7C
2017-12-01 16:26:55 1512163615.445963: $GPRMC,212656,A,3946.9636,N,08404.9741,W,0.0000,0.000,011217,,*3E
2017-12-01 16:26:55 1512163615.446043: $GPGSA,A,3,1,10,14,22,25,31,32,11,12,18,26,138,2.0,0.8,1.5*39
2017-12-01 16:26:56 1512163616.375340: $GPZDA,212657.00,01,12,2017,00,00*65
2017-12-01 16:26:56 1512163616.375531: $GPGGA,212657,3946.9636,N,08404.9741,W,2,12,0.80,296.15,M,-33.324,M,,*7D
2017-12-01 16:26:56 1512163616.375616: $GPRMC,212657,A,3946.9636,N,08404.9741,W,0.0000,0.000,011217,,*3F
2017-12-01 16:26:56 1512163616.375678: $GPGSA,A,3,1,10,14,22,25,31,32,11,12,18,26,138,2.0,0.8,1.5*39
2017-12-01 16:26:57 1512163617.712300: $GPGSV,3,1,12,01,21,301,42,10,49,147,44,14,65,324,44,22,18,312,44*7A
2017-12-01 16:26:57 1512163617.712485: $GPGSV,3,2,12,25,39,093,25,31,55,223,50,32,69,024,49,11,09,283,33*7A
2017-12-01 16:26:57 1512163617.712553: $GPGSV,3,3,12,12,23,051,23,18,19,144,21,26,01,183,23,138,38,213,40*45
2017-12-01 16:26:57 1512163617.825760: $GPZDA,212658.00,01,12,2017,00,00*6A
2017-12-01 16:26:57 1512163617.825932: $GPGGA,212658,3946.9636,N,08404.9741,W,2,12,0.80,296.15,M,-33.324,M,,*72
2017-12-01 16:26:57 1512163617.826000: $GPRMC,212658,A,3946.9636,N,08404.9741,W,0.0000,0.000,011217,,*30
2017-12-01 16:26:57 1512163617.826060: $GPGSA,A,3,1,10,14,22,25,31,32,11,12,18,26,138,2.0,0.8,1.5*39
2017-12-01 16:26:58 1512163618.376610: $GPZDA,212659.00,01,12,2017,00,00*6B
2017-12-01 16:26:58 1512163618.376781: $GPGGA,212659,3946.9636,N,08404.9741,W,2,12,0.80,296.15,M,-33.324,M,,*73
2017-12-01 16:26:58 1512163618.376848: $GPRMC,212659,A,3946.9636,N,08404.9741,W,0.0000,0.000,011217,,*31
2017-12-01 16:26:58 1512163618.376908: $GPGSA,A,3,1,10,14,22,25,31,32,11,12,18,26,138,2.0,0.8,1.5*39
2017-12-01 16:26:59 1512163619.376293: $GPZDA,212700.00,01,12,2017,00,00*66
2017-12-01 16:26:59 1512163619.376554: $GPGGA,212700,3946.9636,N,08404.9741,W,2,12,0.80,296.15,M,-33.324,M,,*7E
2017-12-01 16:26:59 1512163619.376645: $GPRMC,212700,A,3946.9636,N,08404.9741,W,0.0000,0.000,011217,,*3C
2017-12-01 16:26:59 1512163619.376707: $GPGSA,A,3,1,10,14,22,25,31,32,11,12,18,26,138,2.0,0.8,1.5*39
2017-12-01 16:26:59 1512163619.376767: $GPGBS,212700,2.67,M,3.86,M,8.82,M*34
2017-12-01 16:27:00 1512163620.706325: $GPGSV,3,1,12,01,21,301,42,10,49,147,44,14,65,324,44,22,18,312,45*7B
2017-12-01 16:27:00 1512163620.706528: $GPGSV,3,2,12,25,39,093,26,31,55,223,50,32,69,024,49,11,09,283,33*79
2017-12-01 16:27:00 1512163620.706612: $GPGSV,3,3,12,12,23,051,25,18,19,144,17,26,01,183,23,138,38,213,41*47
2017-12-01 16:27:00 1512163620.819714: $GPZDA,212701.00,01,12,2017,00,00*67
2017-12-01 16:27:00 1512163620.819878: $GPGGA,212701,3946.9636,N,08404.9741,W,2,12,0.80,296.15,M,-33.324,M,,*7F
2017-12-01 16:27:00 1512163620.819946: $GPRMC,212701,A,3946.9636,N,08404.9741,W,0.0000,0.000,011217,,*3D
2017-12-01 16:27:00 1512163620.820006: $GPGSA,A,3,1,10,14,22,25,31,32,11,12,18,26,138,2.0,0.8,1.5*39
2017-12-01 16:27:01 1512163621.378602: $GPZDA,212702.00,01,12,2017,00,00*64
2017-12-01 16:27:01 1512163621.378754: $GPGGA,212702,3946.9636,N,08404.9741,W,2,12,0.80,296.15,M,-33.324,M,,*7C
2017-12-01 16:27:01 1512163621.378836: $GPRMC,212702,A,3946.9636,N,08404.9741,W,0.0000,0.000,011217,,*3E
2017-12-01 16:27:01 1512163621.378900: $GPGSA,A,3,1,10,14,22,25,31,32,11,12,18,26,138,2.0,0.8,1.5*39
