2017-11-16 17:10:13 1510870213.030335: {"class":"VERSION","release":"3.17","rev":"3.17","proto_major":3,"proto_minor":12}
2017-11-16 17:10:13 1510870213.030841: {"class":"DEVICES","devices":[{"class":"DEVICE","path":"/dev/ttyUSB0","driver":"SiRF","subtype":"9\u0006GSD4e_4.1.2-P1_RPATCH.05-F-GPS-4R-1510281 11/03/2015 307","activated":"2017-11-16T22:10:13.008Z","flags":1,"native":1,"bps":4800,"parity":"N","stopbits":1,"cycle":1.00}]}
2017-11-16 17:10:13 1510870213.030965: {"class":"WATCH","enable":true,"json":false,"nmea":true,"raw":0,"scaled":false,"timing":false,"split24":false,"pps":false}
2017-11-16 17:10:13 1510870213.416075: $GPZDA,221012.00,16,11,2017,00,00*67
2017-11-16 17:10:13 1510870213.416293: $GPGGA,221012,3946.9568,N,08404.9826,W,2,12,0.80,312.81,M,-33.324,M,,*7C
2017-11-16 17:10:13 1510870213.416362: $GPRMC,221012,A,3946.9568,N,08404.9826,W,0.0000,0.000,161117,,*3B
2017-11-16 17:10:13 1510870213.416425: $GPGSA,A,3,1,10,11,12,14,18,22,24,25,31,32,138,1.6,0.8,1.3*38
2017-11-16 17:10:14 1510870214.415585: $GPZDA,221013.00,16,11,2017,00,00*66
2017-11-16 17:10:14 1510870214.415754: $GPGGA,221013,3946.9568,N,08404.9826,W,2,12,0.80,312.81,M,-33.324,M,,*7D
2017-11-16 17:10:14 1510870214.415841: $GPRMC,221013,A,3946.9568,N,08404.9826,W,0.0000,0.000,161117,,*3A
2017-11-16 17:10:14 1510870214.415900: $GPGSA,A,3,1,10,11,12,14,18,22,24,25,31,32,138,1.6,0.8,1.3*38
2017-11-16 17:10:15 1510870215.730250: $GPGSV,3,1,12,01,19,310,40,10,59,142,47,11,10,291,38,12,25,060,49*71
2017-11-16 17:10:15 1510870215.730420: $GPGSV,3,2,12,14,61,309,46,18,28,141,44,22,11,312,26,24,05,046,31*71
2017-11-16 17:10:15 1510870215.730480: $GPGSV,3,3,12,25,36,103,47,31,45,217,49,32,70,358,49,138,38,213,45*46
2017-11-16 17:10:15 1510870215.843429: $GPZDA,221014.00,16,11,2017,00,00*61
2017-11-16 17:10:15 1510870215.843647: $GPGGA,221014,3946.9568,N,08404.9826,W,2,12,0.80,312.81,M,-33.324,M,,*7A
2017-11-16 17:10:15 1510870215.843714: $GPRMC,221014,A,3946.9568,N,08404.9826,W,0.0000,0.000,161117,,*3D
2017-11-16 17:10:15 1510870215.843771: $GPGSA,A,3,1,10,11,12,14,18,22,24,25,31,32,138,1.6,0.8,1.3*38
2017-11-16 17:10:16 1510870216.468817: $GPZDA,221015.00,16,11,2017,00,00*60
2017-11-16 17:10:16 1510870216.469017: $GPGGA,221015,3946.9568,N,08404.9826,W,2,12,0.80,312.81,M,-33.324,M,,*7B
2017-11-16 17:10:16 1510870216.469083: $GPRMC,221015,A,3946.9568,N,08404.9826,W,0.0000,0.000,161117,,*3C
2017-11-16 17:10:16 1510870216.469139: $GPGSA,A,3,1,10,11,12,14,18,22,24,25,31,32,138,1.6,0.8,1.3*38
2017-11-16 17:10:17 1510870217.398753: $GPZDA,221016.00,16,11,2017,00,00*63
2017-11-16 17:10:17 1510870217.398938: $GPGGA,221016,3946.9568,N,08404.9826,W,2,12,0.80,312.81,M,-33.324,M,,*78
2017-11-16 17:10:17 1510870217.399003: $GPRMC,221016,A,3946.9568,N,08404.9826,W,0.0000,0.000,161117,,*3F
2017-11-16 17:10:17 1510870217.399084: $GPGSA,A,3,1,10,11,12,14,18,22,24,25,31,32,138,1.6,0.8,1.3*38
2017-11-16 17:10:18 1510870218.735596: $GPGSV,3,1,12,01,19,310,40,10,59,142,47,11,10,291,38,12,25,060,50*79
2017-11-16 17:10:18 1510870218.735795: $GPGSV,3,2,12,14,61,309,46,18,28,141,44,22,11,312,26,24,05,046,31*71
2017-11-16 17:10:18 1510870218.735885: $GPGSV,3,3,12,25,36,103,47,31,45,217,49,32,70,358,50,138,38,213,44*4F
2017-11-16 17:10:18 1510870218.848831: $GPZDA,221017.00,16,11,2017,00,00*62
2017-11-16 17:10:18 1510870218.849000: $GPGGA,221017,3946.9568,N,08404.9826,W,2,12,0.80,312.81,M,-33.324,M,,*79
2017-11-16 17:10:18 1510870218.849064: $GPRMC,221017,A,3946.9568,N,08404.9826,W,0.0000,0.000,161117,,*3E
2017-11-16 17:10:18 1510870218.849120: $GPGSA,A,3,1,10,11,12,14,18,22,24,25,31,32,138,1.6,0.8,1.3*38
2017-11-16 17:10:19 1510870219.399821: $GPZDA,221018.00,16,11,2017,00,00*6D
2017-11-16 17:10:19 1510870219.399998: $GPGGA,221018,3946.9568,N,08404.9826,W,2,12,0.80,312.81,M,-33.324,M,,*76
2017-11-16 17:10:19 1510870219.400062: $GPRMC,221018,A,3946.9568,N,08404.9826,W,0.0000,0.000,161117,,*31
2017-11-16 17:10:19 1510870219.400118: $GPGSA,A,3,1,10,11,12,14,18,22,24,25,31,32,138,1.6,0.8,1.3*38
2017-11-16 17:10:20 1510870220.393469: $GPZDA,221019.00,16,11,2017,00,00*6C
2017-11-16 17:10:20 1510870220.393683: $GPGGA,221019,3946.9568,N,08404.9826,W,2,12,0.80,312.81,M,-33.324,M,,*77
2017-11-16 17:10:20 1510870220.393746: $GPRMC,221019,A,3946.9568,N,08404.9826,W,0.0000,0.000,161117,,*30
2017-11-16 17:10:20 1510870220.393804: $GPGSA,A,3,1,10,11,12,14,18,22,24,25,31,32,138,1.6,0.8,1.3*38
2017-11-16 17:10:21 1510870221.734761: $GPGSV,3,1,12,01,19,310,40,10,59,142,47,11,10,291,37,12,25,060,50*76
2017-11-16 17:10:21 1510870221.734941: $GPGSV,3,2,12,14,61,309,46,18,28,141,44,22,11,312,26,24,05,046,30*70
2017-11-16 17:10:21 1510870221.735002: $GPGSV,3,3,12,25,36,103,46,31,45,217,49,32,70,358,49,138,38,213,43*41
2017-11-16 17:10:21 1510870221.848394: $GPZDA,221020.00,16,11,2017,00,00*66
2017-11-16 17:10:21 1510870221.848553: $GPGGA,221020,3946.9568,N,08404.9826,W,2,12,0.80,312.81,M,-33.324,M,,*7D
2017-11-16 17:10:21 1510870221.848614: $GPRMC,221020,A,3946.9568,N,08404.9826,W,0.0000,0.000,161117,,*3A
2017-11-16 17:10:21 1510870221.848671: $GPGSA,A,3,1,10,11,12,14,18,22,24,25,31,32,138,1.6,0.8,1.3*38
2017-11-16 17:10:22 1510870222.398966: $GPZDA,221021.00,16,11,2017,00,00*67
2017-11-16 17:10:22 1510870222.399156: $GPGGA,221021,3946.9568,N,08404.9826,W,2,12,0.80,312.81,M,-33.324,M,,*7C
2017-11-16 17:10:22 1510870222.399220: $GPRMC,221021,A,3946.9568,N,08404.9826,W,0.0000,0.000,161117,,*3B
2017-11-16 17:10:22 1510870222.399279: $GPGSA,A,3,1,10,11,12,14,18,22,24,25,31,32,138,1.6,0.8,1.3*38
