2017-12-01 14:03:06 1512154986.906870: {"class":"VERSION","release":"3.16","rev":"3.16-4","proto_major":3,"proto_minor":11}
2017-12-01 14:03:06 1512154986.907279: {"class":"DEVICES","devices":[{"class":"DEVICE","path":"/dev/ttyUSB0","driver":"SiRF","subtype":"9\u0006GSD4e_4.1.2-P1_RPATCH.05-F-GPS-4R-1510281 11/03/2015 307","activated":"2017-12-01T19:03:06.888Z","flags":1,"native":1,"bps":4800,"parity":"N","stopbits":1,"cycle":1.00}]}
2017-12-01 14:03:06 1512154986.907405: {"class":"WATCH","enable":true,"json":false,"nmea":true,"raw":0,"scaled":false,"timing":false,"split24":false,"pps":false}
2017-12-01 14:03:07 1512154987.002080: $GPZDA,190307.69,01,12,2017,00,00*63
2017-12-01 14:03:07 1512154987.002240: $GPGGA,190307,3946.9564,N,08404.9794,W,1,12,1.00,316.78,M,-33.324,M,,*70
2017-12-01 14:03:07 1512154987.002307: $GPRMC,190307,A,3946.9564,N,08404.9794,W,0.4600,109.641,011217,,*33
2017-12-01 14:03:07 1512154987.002369: $GPGSA,A,3,8,10,14,15,18,20,21,24,27,32,12,138,2.0,1.0,1.5*3E
2017-12-01 14:03:08 1512154988.083363: $GPZDA,190308.38,01,12,2017,00,00*68
2017-12-01 14:03:08 1512154988.083537: $GPGGA,190308,3946.9561,N,08404.9794,W,1,12,1.00,317.54,M,-33.324,M,,*75
2017-12-01 14:03:08 1512154988.083603: $GPRMC,190308,A,3946.9561,N,08404.9794,W,0.1867,0.000,011217,,*38
2017-12-01 14:03:08 1512154988.083665: $GPGSA,A,3,8,10,14,15,18,20,21,24,27,32,12,138,2.0,1.0,1.5*3E
2017-12-01 14:03:08 1512154988.083724: $GPGBS,190308,10.70,M,15.43,M,35.28,M*04
2017-12-01 14:03:09 1512154989.226060: $GPGSV,3,1,12,10,61,321,48,14,22,246,41,15,18,061,38,18,76,066,42*7D
2017-12-01 14:03:09 1512154989.226240: $GPGSV,3,2,12,20,16,112,40,21,38,180,45,24,50,070,47,27,11,267,36*7C
2017-12-01 14:03:09 1512154989.226306: $GPGSV,3,3,12,32,39,256,43,08,08,301,15,12,04,114,02,138,38,213,25*46
2017-12-01 14:03:09 1512154989.339324: $GPZDA,190309.00,01,12,2017,00,00*62
2017-12-01 14:03:09 1512154989.339501: $GPGGA,190309,3946.9561,N,08404.9794,W,1,11,0.80,317.54,M,-33.324,M,,*7E
2017-12-01 14:03:09 1512154989.339568: $GPRMC,190309,A,3946.9561,N,08404.9794,W,0.0407,322.014,011217,,*34
2017-12-01 14:03:09 1512154989.339630: $GPGSA,A,3,10,14,15,18,20,21,24,27,32,8,138,,2.0,0.8,1.5*34
2017-12-01 14:03:09 1512154989.790228: $GPZDA,190310.00,01,12,2017,00,00*6A
2017-12-01 14:03:09 1512154989.790396: $GPGGA,190310,3946.9557,N,08404.9801,W,1,11,0.80,316.82,M,-33.324,M,,*7A
2017-12-01 14:03:09 1512154989.790463: $GPRMC,190310,A,3946.9557,N,08404.9801,W,0.1567,189.200,011217,,*38
2017-12-01 14:03:09 1512154989.790525: $GPGSA,A,3,10,14,15,18,20,21,24,27,32,8,138,,2.0,0.8,1.5*34
2017-12-01 14:03:10 1512154990.394825: $GPZDA,190311.00,01,12,2017,00,00*6B
2017-12-01 14:03:10 1512154990.395003: $GPGGA,190311,3946.9556,N,08404.9801,W,1,11,0.80,315.42,M,-33.324,M,,*75
2017-12-01 14:03:10 1512154990.395071: $GPRMC,190311,A,3946.9556,N,08404.9801,W,0.0000,0.000,011217,,*3F
2017-12-01 14:03:10 1512154990.395132: $GPGSA,A,3,10,14,15,18,20,21,24,27,32,8,138,,2.0,0.8,1.5*34
2017-12-01 14:03:11 1512154991.731307: $GPGSV,3,1,12,10,61,321,48,14,22,246,40,15,18,061,38,18,76,066,42*7C
2017-12-01 14:03:11 1512154991.731605: $GPGSV,3,2,12,20,16,112,41,21,38,180,45,24,50,070,47,27,11,267,36*7D
2017-12-01 14:03:11 1512154991.731694: $GPGSV,3,3,12,32,39,256,43,08,08,301,30,12,04,114,15,138,38,213,47*43
2017-12-01 14:03:11 1512154991.844764: $GPZDA,190312.00,01,12,2017,00,00*68
2017-12-01 14:03:11 1512154991.844947: $GPGGA,190312,3946.9560,N,08404.9807,W,1,12,0.80,314.58,M,-33.324,M,,*7C
2017-12-01 14:03:11 1512154991.845044: $GPRMC,190312,A,3946.9560,N,08404.9807,W,0.0000,0.000,011217,,*3F
2017-12-01 14:03:11 1512154991.845138: $GPGSA,A,3,10,14,15,18,20,21,24,27,32,8,12,138,2.0,0.8,1.5*37
2017-12-01 14:03:12 1512154992.395641: $GPZDA,190313.00,01,12,2017,00,00*69
2017-12-01 14:03:12 1512154992.395826: $GPGGA,190313,3946.9559,N,08404.9806,W,1,12,0.80,313.17,M,-33.324,M,,*7A
2017-12-01 14:03:12 1512154992.395894: $GPRMC,190313,A,3946.9559,N,08404.9806,W,0.0000,0.000,011217,,*35
2017-12-01 14:03:12 1512154992.395955: $GPGSA,A,3,10,14,15,18,20,21,24,27,32,8,12,138,2.0,0.8,1.5*37
2017-12-01 14:03:13 1512154993.395084: $GPZDA,190314.00,01,12,2017,00,00*6E
2017-12-01 14:03:13 1512154993.395257: $GPGGA,190314,3946.9560,N,08404.9813,W,1,12,0.80,313.09,M,-33.324,M,,*7C
2017-12-01 14:03:13 1512154993.395323: $GPRMC,190314,A,3946.9560,N,08404.9813,W,0.0000,0.000,011217,,*3C
2017-12-01 14:03:13 1512154993.395384: $GPGSA,A,3,10,14,15,18,20,21,24,27,32,8,12,138,2.0,0.8,1.5*37
2017-12-01 14:03:13 1512154993.395443: $GPGBS,190314,10.70,M,15.43,M,35.28,M*09
2017-12-01 14:03:14 1512154994.730803: $GPGSV,3,1,12,10,61,321,49,14,22,246,40,15,18,061,39,18,76,066,42*7C
2017-12-01 14:03:14 1512154994.730986: $GPGSV,3,2,12,20,16,112,41,21,38,180,45,24,50,070,47,27,11,267,38*73
2017-12-01 14:03:14 1512154994.731053: $GPGSV,3,3,12,32,39,256,43,08,08,301,23,12,04,114,16,138,38,213,46*43
2017-12-01 14:03:14 1512154994.844190: $GPZDA,190315.00,01,12,2017,00,00*6F
2017-12-01 14:03:14 1512154994.844361: $GPGGA,190315,3946.9559,N,08404.9812,W,1,11,0.80,311.69,M,-33.324,M,,*71
2017-12-01 14:03:14 1512154994.844427: $GPRMC,190315,A,3946.9559,N,08404.9812,W,0.0000,0.000,011217,,*36
2017-12-01 14:03:14 1512154994.844488: $GPGSA,A,3,10,14,15,18,20,21,24,27,32,8,138,,2.0,0.8,1.5*34
2017-12-01 14:03:15 1512154995.397586: $GPZDA,190316.00,01,12,2017,00,00*6C
2017-12-01 14:03:15 1512154995.397778: $GPGGA,190316,3946.9559,N,08404.9812,W,1,11,0.80,311.69,M,-33.324,M,,*72
2017-12-01 14:03:15 1512154995.397846: $GPRMC,190316,A,3946.9559,N,08404.9812,W,0.0000,0.000,011217,,*35
2017-12-01 14:03:15 1512154995.397907: $GPGSA,A,3,10,14,15,18,20,21,24,27,32,8,138,,2.0,0.8,1.5*34
2017-12-01 14:03:16 1512154996.396746: $GPZDA,190317.00,01,12,2017,00,00*6D
2017-12-01 14:03:16 1512154996.396916: $GPGGA,190317,3946.9563,N,08404.9819,W,1,11,0.80,310.85,M,-33.324,M,,*72
2017-12-01 14:03:16 1512154996.396983: $GPRMC,190317,A,3946.9563,N,08404.9819,W,0.0000,0.000,011217,,*36
2017-12-01 14:03:16 1512154996.397044: $GPGSA,A,3,10,14,15,18,20,21,24,27,32,8,138,,2.0,0.8,1.5*34
2017-12-01 14:03:17 1512154997.733789: $GPGSV,3,1,12,10,61,321,49,14,22,246,40,15,18,061,39,18,76,066,42*7C
2017-12-01 14:03:17 1512154997.733971: $GPGSV,3,2,12,20,16,112,41,21,38,180,45,24,50,070,48,27,11,267,38*7C
2017-12-01 14:03:17 1512154997.734038: $GPGSV,3,3,12,32,39,256,43,08,08,301,22,12,04,114,00,138,38,213,47*44
2017-12-01 14:03:17 1512154997.847141: $GPZDA,190318.00,01,12,2017,00,00*62
2017-12-01 14:03:17 1512154997.847300: $GPGGA,190318,3946.9568,N,08404.9842,W,2,11,0.80,303.38,M,-33.324,M,,*7F
2017-12-01 14:03:17 1512154997.847366: $GPRMC,190318,A,3946.9568,N,08404.9842,W,0.0000,0.000,011217,,*3C
2017-12-01 14:03:17 1512154997.847427: $GPGSA,A,3,10,14,15,18,20,21,24,27,32,8,138,,2.0,0.8,1.5*34
2017-12-01 14:03:18 1512154998.396719: $GPZDA,190319.00,01,12,2017,00,00*63
2017-12-01 14:03:18 1512154998.396885: $GPGGA,190319,3946.9572,N,08404.9841,W,2,11,0.80,302.62,M,-33.324,M,,*78
2017-12-01 14:03:18 1512154998.396952: $GPRMC,190319,A,3946.9572,N,08404.9841,W,0.0000,0.000,011217,,*35
2017-12-01 14:03:18 1512154998.397013: $GPGSA,A,3,10,14,15,18,20,21,24,27,32,8,138,,2.0,0.8,1.5*34
2017-12-01 14:03:19 1512154999.398883: $GPZDA,190320.00,01,12,2017,00,00*69
2017-12-01 14:03:19 1512154999.399060: $GPGGA,190320,3946.9572,N,08404.9841,W,2,11,0.80,302.62,M,-33.324,M,,*72
2017-12-01 14:03:19 1512154999.399128: $GPRMC,190320,A,3946.9572,N,08404.9841,W,0.0000,0.000,011217,,*3F
2017-12-01 14:03:19 1512154999.399189: $GPGSA,A,3,10,14,15,18,20,21,24,27,32,8,138,,2.0,0.8,1.5*34
2017-12-01 14:03:20 1512155000.735789: $GPGSV,3,1,12,10,61,321,49,14,22,246,40,15,18,061,39,18,76,066,43*7D
2017-12-01 14:03:20 1512155000.735949: $GPGSV,3,2,12,20,16,112,41,21,38,180,45,24,50,070,48,27,11,267,39*7D
2017-12-01 14:03:20 1512155000.736014: $GPGSV,3,3,12,32,39,256,44,08,08,301,18,12,04,114,00,138,38,213,46*4B
2017-12-01 14:03:20 1512155000.849184: $GPZDA,190321.00,01,12,2017,00,00*68
2017-12-01 14:03:20 1512155000.849359: $GPGGA,190321,3946.9568,N,08404.9842,W,2,11,0.80,303.38,M,-33.324,M,,*75
2017-12-01 14:03:20 1512155000.849427: $GPRMC,190321,A,3946.9568,N,08404.9842,W,0.0000,0.000,011217,,*36
2017-12-01 14:03:20 1512155000.849535: $GPGSA,A,3,10,14,15,18,20,21,24,27,32,8,138,,2.0,0.8,1.5*34
2017-12-01 14:03:21 1512155001.474556: $GPZDA,190322.00,01,12,2017,00,00*6B
2017-12-01 14:03:21 1512155001.474749: $GPGGA,190322,3946.9568,N,08404.9842,W,2,11,0.80,303.38,M,-33.324,M,,*76
2017-12-01 14:03:21 1512155001.474817: $GPRMC,190322,A,3946.9568,N,08404.9842,W,0.0000,0.000,011217,,*35
2017-12-01 14:03:21 1512155001.474878: $GPGSA,A,3,10,14,15,18,20,21,24,27,32,8,138,,2.0,0.8,1.5*34
