2017-11-16 15:23:12 1510863792.128677: {"class":"VERSION","release":"3.17","rev":"3.17","proto_major":3,"proto_minor":12}
2017-11-16 15:23:12 1510863792.129800: {"class":"DEVICES","devices":[{"class":"DEVICE","path":"/dev/ttyUSB0","driver":"SiRF","subtype":"9\u0006GSD4e_4.1.2-P1_RPATCH.05-F-GPS-4R-1510281 11/03/2015 307","activated":"2017-11-16T20:23:11.601Z","flags":1,"native":1,"bps":4800,"parity":"N","stopbits":1,"cycle":1.00}]}
2017-11-16 15:23:12 1510863792.130038: {"class":"WATCH","enable":true,"json":false,"nmea":true,"raw":0,"scaled":false,"timing":false,"split24":false,"pps":false}
2017-11-16 15:23:12 1510863792.371213: $GPZDA,202311.00,16,11,2017,00,00*66
2017-11-16 15:23:12 1510863792.371372: $GPGGA,202311,3946.9575,N,08404.9858,W,2,12,0.80,308.08,M,-33.324,M,,*72
2017-11-16 15:23:12 1510863792.371432: $GPRMC,202311,A,3946.9575,N,08404.9858,W,0.0000,0.000,161117,,*3F
2017-11-16 15:23:12 1510863792.371487: $GPGSA,A,3,8,10,14,25,18,20,21,24,27,32,12,138,1.6,0.8,1.3*37
2017-11-16 15:23:13 1510863793.709198: $GPGSV,3,1,12,08,06,294,38,10,68,330,51,14,28,252,45,15,12,066,21*76
2017-11-16 15:23:13 1510863793.709367: $GPGSV,3,2,12,18,71,090,48,20,09,117,25,21,30,180,44,24,46,060,50*74
2017-11-16 15:23:13 1510863793.709428: $GPGSV,3,3,12,27,07,261,37,32,45,264,48,12,08,108,28,138,38,213,44*4C
2017-11-16 15:23:13 1510863793.822501: $GPZDA,202312.00,16,11,2017,00,00*65
2017-11-16 15:23:13 1510863793.822684: $GPGGA,202312,3946.9575,N,08404.9858,W,2,12,0.80,308.08,M,-33.324,M,,*71
2017-11-16 15:23:13 1510863793.822748: $GPRMC,202312,A,3946.9575,N,08404.9858,W,0.0000,0.000,161117,,*3C
2017-11-16 15:23:13 1510863793.822804: $GPGSA,A,3,8,10,14,15,18,20,21,24,27,32,12,138,1.6,0.8,1.3*34
2017-11-16 15:23:14 1510863794.386262: $GPZDA,202313.00,16,11,2017,00,00*64
2017-11-16 15:23:14 1510863794.386421: $GPGGA,202313,3946.9575,N,08404.9858,W,2,12,0.80,308.08,M,-33.324,M,,*70
2017-11-16 15:23:14 1510863794.386482: $GPRMC,202313,A,3946.9575,N,08404.9858,W,0.0000,0.000,161117,,*3D
2017-11-16 15:23:14 1510863794.386537: $GPGSA,A,3,8,10,14,15,18,20,21,24,27,32,12,138,1.6,0.8,1.3*34
2017-11-16 15:23:15 1510863795.387032: $GPZDA,202314.00,16,11,2017,00,00*63
2017-11-16 15:23:15 1510863795.387192: $GPGGA,202314,3946.9575,N,08404.9858,W,2,12,0.80,308.08,M,-33.324,M,,*77
2017-11-16 15:23:15 1510863795.387252: $GPRMC,202314,A,3946.9575,N,08404.9858,W,0.0000,0.000,161117,,*3A
2017-11-16 15:23:15 1510863795.387307: $GPGSA,A,3,8,10,14,15,18,20,21,24,27,32,12,138,1.6,0.8,1.3*34
2017-11-16 15:23:16 1510863796.716999: $GPGSV,3,1,12,08,06,294,38,10,68,330,51,14,28,252,45,15,12,066,21*76
2017-11-16 15:23:16 1510863796.717168: $GPGSV,3,2,12,18,71,090,47,20,09,117,25,21,30,180,44,24,46,060,50*7B
2017-11-16 15:23:16 1510863796.717227: $GPGSV,3,3,12,27,07,261,37,32,45,264,49,12,08,108,28,138,38,213,44*4D
2017-11-16 15:23:16 1510863796.830600: $GPZDA,202315.00,16,11,2017,00,00*62
2017-11-16 15:23:16 1510863796.830759: $GPGGA,202315,3946.9575,N,08404.9858,W,2,12,0.80,308.08,M,-33.324,M,,*76
2017-11-16 15:23:16 1510863796.830820: $GPRMC,202315,A,3946.9575,N,08404.9858,W,0.0000,0.000,161117,,*3B
2017-11-16 15:23:16 1510863796.830897: $GPGSA,A,3,8,10,14,15,18,20,21,24,27,32,12,138,1.6,0.8,1.3*34
2017-11-16 15:23:17 1510863797.371209: $GPZDA,202316.00,16,11,2017,00,00*61
2017-11-16 15:23:17 1510863797.371373: $GPGGA,202316,3946.9575,N,08404.9858,W,2,12,0.80,308.08,M,-33.324,M,,*75
2017-11-16 15:23:17 1510863797.371433: $GPRMC,202316,A,3946.9575,N,08404.9858,W,0.0000,0.000,161117,,*38
2017-11-16 15:23:17 1510863797.371489: $GPGSA,A,3,8,10,14,15,18,20,21,24,27,32,12,138,1.6,0.8,1.3*34
2017-11-16 15:23:18 1510863798.387058: $GPZDA,202317.00,16,11,2017,00,00*60
2017-11-16 15:23:18 1510863798.387221: $GPGGA,202317,3946.9575,N,08404.9858,W,2,12,0.80,308.08,M,-33.324,M,,*74
2017-11-16 15:23:18 1510863798.387281: $GPRMC,202317,A,3946.9575,N,08404.9858,W,0.0000,0.000,161117,,*39
2017-11-16 15:23:18 1510863798.387337: $GPGSA,A,3,8,10,14,15,18,20,21,24,27,32,12,138,1.6,0.8,1.3*34
2017-11-16 15:23:19 1510863799.722797: $GPGSV,3,1,12,08,06,294,38,10,68,330,51,14,28,252,45,15,12,066,21*76
2017-11-16 15:23:19 1510863799.723032: $GPGSV,3,2,12,18,71,090,48,20,09,117,25,21,30,180,44,24,46,060,50*74
2017-11-16 15:23:19 1510863799.723095: $GPGSV,3,3,12,27,07,261,38,32,45,264,49,12,08,108,29,138,38,213,45*42
2017-11-16 15:23:19 1510863799.836358: $GPZDA,202318.00,16,11,2017,00,00*6F
2017-11-16 15:23:19 1510863799.836519: $GPGGA,202318,3946.9575,N,08404.9858,W,2,12,0.80,308.08,M,-33.324,M,,*7B
2017-11-16 15:23:19 1510863799.836578: $GPRMC,202318,A,3946.9575,N,08404.9858,W,0.0000,0.000,161117,,*36
2017-11-16 15:23:19 1510863799.836634: $GPGSA,A,3,8,10,14,15,18,20,21,24,27,32,12,138,1.6,0.8,1.3*34
2017-11-16 15:23:20 1510863800.371176: $GPZDA,202319.00,16,11,2017,00,00*6E
2017-11-16 15:23:20 1510863800.371336: $GPGGA,202319,3946.9575,N,08404.9858,W,2,12,0.80,308.08,M,-33.324,M,,*7A
2017-11-16 15:23:20 1510863800.371397: $GPRMC,202319,A,3946.9575,N,08404.9858,W,0.0000,0.000,161117,,*37
2017-11-16 15:23:20 1510863800.371452: $GPGSA,A,3,8,10,14,15,18,20,21,24,27,32,12,138,1.6,0.8,1.3*34
2017-11-16 15:23:21 1510863801.387585: $GPZDA,202320.00,16,11,2017,00,00*64
2017-11-16 15:23:21 1510863801.387767: $GPGGA,202320,3946.9575,N,08404.9858,W,2,12,0.80,308.08,M,-33.324,M,,*70
2017-11-16 15:23:21 1510863801.387830: $GPRMC,202320,A,3946.9575,N,08404.9858,W,0.0000,0.000,161117,,*3D
2017-11-16 15:23:21 1510863801.387903: $GPGSA,A,3,8,10,14,15,18,20,21,24,27,32,12,138,1.6,0.8,1.3*34
