2017-12-01 11:54:07 1512147247.806604: {"class":"VERSION","release":"3.16","rev":"3.16-4","proto_major":3,"proto_minor":11}
2017-12-01 11:54:07 1512147247.807059: {"class":"DEVICES","devices":[{"class":"DEVICE","path":"/dev/ttyUSB0","driver":"SiRF","subtype":"9\u0006GSD4e_4.1.2-P1_RPATCH.05-F-GPS-4R-1510281 11/03/2015 307","activated":"2017-12-01T16:54:07.537Z","flags":1,"native":1,"bps":4800,"parity":"N","stopbits":1,"cycle":1.00}]}
2017-12-01 11:54:07 1512147247.807205: {"class":"WATCH","enable":true,"json":false,"nmea":true,"raw":0,"scaled":false,"timing":false,"split24":false,"pps":false}
2017-12-01 11:54:08 1512147248.732863: $GPGSV,3,1,12,13,39,048,46,15,71,061,45,18,47,289,44,20,59,058,43*77
2017-12-01 11:54:08 1512147248.733043: $GPGSV,3,2,12,21,71,300,45,24,24,145,45,27,11,321,40,29,20,193,45*7F
2017-12-01 11:54:08 1512147248.733109: $GPGSV,3,3,12,05,11,081,24,10,16,276,35,04,08,132,00,138,38,213,46*4C
2017-12-01 11:54:08 1512147248.846264: $GPZDA,165409.00,01,12,2017,00,00*6F
2017-12-01 11:54:08 1512147248.846427: $GPGGA,165409,3946.9560,N,08404.9849,W,2,11,0.80,302.02,M,-33.324,M,,*79
2017-12-01 11:54:08 1512147248.846493: $GPRMC,165409,A,3946.9560,N,08404.9849,W,0.0000,0.000,011217,,*32
2017-12-01 11:54:08 1512147248.846554: $GPGSA,A,3,13,15,18,20,21,24,27,29,5,10,138,,2.0,0.8,1.5*34
2017-12-01 11:54:09 1512147249.471938: $GPZDA,165410.00,01,12,2017,00,00*67
2017-12-01 11:54:09 1512147249.472249: $GPGGA,165410,3946.9560,N,08404.9849,W,2,11,0.80,302.02,M,-33.324,M,,*71
2017-12-01 11:54:09 1512147249.472374: $GPRMC,165410,A,3946.9560,N,08404.9849,W,0.0000,0.000,011217,,*3A
2017-12-01 11:54:09 1512147249.472493: $GPGSA,A,3,13,15,18,20,21,24,27,29,5,10,138,,2.0,0.8,1.5*34
2017-12-01 11:54:10 1512147250.395010: $GPZDA,165411.00,01,12,2017,00,00*66
2017-12-01 11:54:10 1512147250.395177: $GPGGA,165411,3946.9560,N,08404.9849,W,2,11,0.80,302.02,M,-33.324,M,,*70
2017-12-01 11:54:10 1512147250.395244: $GPRMC,165411,A,3946.9560,N,08404.9849,W,0.0000,0.000,011217,,*3B
2017-12-01 11:54:10 1512147250.395304: $GPGSA,A,3,13,15,18,20,21,24,27,29,5,10,138,,2.0,0.8,1.5*34
2017-12-01 11:54:12 1512147252.090216: $GPGSV,3,1,12,13,39,048,46,15,71,061,45,18,47,289,44,20,59,058,43*77
2017-12-01 11:54:12 1512147252.090411: $GPGSV,3,2,12,21,71,300,45,24,24,145,46,27,11,321,40,29,20,193,45*7C
2017-12-01 11:54:12 1512147252.090479: $GPGSV,3,3,12,05,11,081,22,10,16,276,35,04,08,132,00,138,38,213,46*4A
2017-12-01 11:54:12 1512147252.204051: $GPZDA,165412.00,01,12,2017,00,00*65
2017-12-01 11:54:12 1512147252.204396: $GPGGA,165412,3946.9560,N,08404.9849,W,2,11,0.80,302.02,M,-33.324,M,,*73
2017-12-01 11:54:12 1512147252.204519: $GPRMC,165412,A,3946.9560,N,08404.9849,W,0.0000,0.000,011217,,*38
2017-12-01 11:54:12 1512147252.204653: $GPGSA,A,3,13,15,18,20,21,24,27,29,5,10,138,,2.0,0.8,1.5*34
2017-12-01 11:54:12 1512147252.814468: $GPZDA,165413.00,01,12,2017,00,00*64
2017-12-01 11:54:12 1512147252.814659: $GPGGA,165413,3946.9557,N,08404.9850,W,2,11,0.80,302.79,M,-33.324,M,,*72
2017-12-01 11:54:12 1512147252.814728: $GPRMC,165413,A,3946.9557,N,08404.9850,W,0.0000,0.000,011217,,*35
2017-12-01 11:54:12 1512147252.814806: $GPGSA,A,3,13,15,18,20,21,24,27,29,5,10,138,,2.0,0.8,1.5*34
2017-12-01 11:54:12 1512147252.814866: $GPGBS,165413,2.67,M,3.86,M,8.82,M*36
2017-12-01 11:54:13 1512147253.396590: $GPZDA,165414.00,01,12,2017,00,00*63
2017-12-01 11:54:13 1512147253.396797: $GPGGA,165414,3946.9557,N,08404.9850,W,2,11,0.80,302.79,M,-33.324,M,,*75
2017-12-01 11:54:13 1512147253.396865: $GPRMC,165414,A,3946.9557,N,08404.9850,W,0.0000,0.000,011217,,*32
2017-12-01 11:54:13 1512147253.396926: $GPGSA,A,3,13,15,18,20,21,24,27,29,5,10,138,,2.0,0.8,1.5*34
2017-12-01 11:54:13 1512147253.396984: $GPGBS,165414,2.67,M,3.86,M,8.82,M*31
2017-12-01 11:54:14 1512147254.731940: $GPGSV,3,1,12,13,38,048,46,15,71,061,44,18,47,289,44,20,59,058,43*77
2017-12-01 11:54:14 1512147254.732120: $GPGSV,3,2,12,21,71,300,45,24,24,145,46,27,11,321,40,29,19,193,45*76
2017-12-01 11:54:14 1512147254.732187: $GPGSV,3,3,12,05,10,081,13,10,16,276,36,04,08,132,00,138,38,213,46*4A
2017-12-01 11:54:14 1512147254.845345: $GPZDA,165415.00,01,12,2017,00,00*62
2017-12-01 11:54:14 1512147254.845518: $GPGGA,165415,3946.9557,N,08404.9850,W,2,11,0.80,302.79,M,-33.324,M,,*74
2017-12-01 11:54:14 1512147254.845584: $GPRMC,165415,A,3946.9557,N,08404.9850,W,0.0000,0.000,011217,,*33
2017-12-01 11:54:14 1512147254.845665: $GPGSA,A,3,13,15,18,20,21,24,27,29,5,10,138,,2.0,0.8,1.5*34
2017-12-01 11:54:15 1512147255.397790: $GPZDA,165416.00,01,12,2017,00,00*61
2017-12-01 11:54:15 1512147255.398084: $GPGGA,165416,3946.9557,N,08404.9850,W,2,11,0.80,302.79,M,-33.324,M,,*77
2017-12-01 11:54:15 1512147255.398208: $GPRMC,165416,A,3946.9557,N,08404.9850,W,0.0000,0.000,011217,,*30
2017-12-01 11:54:15 1512147255.398328: $GPGSA,A,3,13,15,18,20,21,24,27,29,5,10,138,,2.0,0.8,1.5*34
2017-12-01 11:54:16 1512147256.398315: $GPZDA,165417.00,01,12,2017,00,00*60
2017-12-01 11:54:16 1512147256.398489: $GPGGA,165417,3946.9557,N,08404.9850,W,2,11,0.80,302.79,M,-33.324,M,,*76
2017-12-01 11:54:16 1512147256.398554: $GPRMC,165417,A,3946.9557,N,08404.9850,W,0.0000,0.000,011217,,*31
2017-12-01 11:54:16 1512147256.398637: $GPGSA,A,3,13,15,18,20,21,24,27,29,5,10,138,,2.0,0.8,1.5*34
2017-12-01 11:54:17 1512147257.731927: $GPGSV,3,1,12,13,38,048,46,15,71,061,45,18,47,289,44,20,59,058,43*76
2017-12-01 11:54:17 1512147257.732124: $GPGSV,3,2,12,21,71,300,45,24,24,145,46,27,11,321,41,29,19,193,45*77
2017-12-01 11:54:17 1512147257.732195: $GPGSV,3,3,12,05,10,081,00,10,16,276,36,04,08,132,00,138,38,213,46*48
