2017-12-01 15:57:09 1512161829.015733: {"class":"VERSION","release":"3.16","rev":"3.16-4","proto_major":3,"proto_minor":11}
2017-12-01 15:57:09 1512161829.016093: {"class":"DEVICES","devices":[{"class":"DEVICE","path":"/dev/ttyUSB0","driver":"SiRF","subtype":"9\u0006GSD4e_4.1.2-P1_RPATCH.05-F-GPS-4R-1510281 11/03/2015 307","activated":"2017-12-01T20:57:09.013Z","flags":1,"native":1,"bps":4800,"parity":"N","stopbits":1,"cycle":1.00}]}
2017-12-01 15:57:09 1512161829.016204: {"class":"WATCH","enable":true,"json":false,"nmea":true,"raw":0,"scaled":false,"timing":false,"split24":false,"pps":false}
2017-12-01 15:57:10 1512161830.097309: $GPZDA,205710.36,01,12,2017,00,00*64
2017-12-01 15:57:10 1512161830.097485: $GPGGA,205710,3946.9580,N,08404.9865,W,1,12,1.00,308.64,M,-33.324,M,,*74
2017-12-01 15:57:10 1512161830.097553: $GPRMC,205710,A,3946.9580,N,08404.9865,W,0.2172,85.763,011217,,*05
2017-12-01 15:57:10 1512161830.097614: $GPGSA,A,3,1,10,11,12,14,18,25,31,32,22,24,138,2.0,1.0,1.5*32
2017-12-01 15:57:10 1512161830.097673: $GPGBS,205710,10.70,M,15.43,M,35.28,M*06
2017-12-01 15:57:11 1512161831.238525: $GPGSV,3,1,12,01,17,313,37,10,64,138,48,12,25,066,40,14,58,300,43*73
2017-12-01 15:57:11 1512161831.238707: $GPGSV,3,2,12,18,32,138,46,22,07,312,43,25,33,109,46,31,41,214,49*7B
2017-12-01 15:57:11 1512161831.238774: $GPGSV,3,3,12,32,69,345,48,11,11,295,32,24,09,046,16,138,38,213,00*4E
2017-12-01 15:57:11 1512161831.352183: $GPZDA,205711.00,01,12,2017,00,00*60
2017-12-01 15:57:11 1512161831.352311: $GPGGA,205711,3946.9579,N,08404.9858,W,1,11,0.80,308.72,M,-33.324,M,,*70
2017-12-01 15:57:11 1512161831.352377: $GPRMC,205711,A,3946.9579,N,08404.9858,W,0.1867,0.000,011217,,*3D
2017-12-01 15:57:11 1512161831.352437: $GPGSA,A,3,1,10,12,14,18,22,25,31,32,11,24,,2.0,0.8,1.5*01
2017-12-01 15:57:11 1512161831.804108: $GPZDA,205712.00,01,12,2017,00,00*63
2017-12-01 15:57:11 1512161831.804278: $GPGGA,205712,3946.9575,N,08404.9858,W,1,11,0.80,308.08,M,-33.324,M,,*72
2017-12-01 15:57:11 1512161831.804345: $GPRMC,205712,A,3946.9575,N,08404.9858,W,0.0407,322.014,011217,,*3F
2017-12-01 15:57:11 1512161831.804429: $GPGSA,A,3,1,10,12,14,18,22,25,31,32,11,24,,2.0,0.8,1.5*01
2017-12-01 15:57:12 1512161832.406204: $GPZDA,205713.00,01,12,2017,00,00*62
2017-12-01 15:57:12 1512161832.406379: $GPGGA,205713,3946.9579,N,08404.9858,W,1,11,0.80,307.31,M,-33.324,M,,*7A
2017-12-01 15:57:12 1512161832.406448: $GPRMC,205713,A,3946.9579,N,08404.9858,W,0.0000,0.000,011217,,*37
2017-12-01 15:57:12 1512161832.406510: $GPGSA,A,3,1,10,12,14,18,22,25,31,32,11,24,,2.0,0.8,1.5*01
2017-12-01 15:57:13 1512161833.741450: $GPGSV,3,1,12,01,17,313,37,10,64,138,48,12,25,066,40,14,58,300,43*73
2017-12-01 15:57:13 1512161833.741639: $GPGSV,3,2,12,18,32,138,46,22,07,312,43,25,33,109,45,31,41,214,48*79
2017-12-01 15:57:13 1512161833.741708: $GPGSV,3,3,12,32,69,345,48,11,11,295,33,24,09,046,31,138,38,213,46*48
2017-12-01 15:57:13 1512161833.854746: $GPZDA,205714.00,01,12,2017,00,00*65
2017-12-01 15:57:13 1512161833.854929: $GPGGA,205714,3946.9579,N,08404.9858,W,1,12,0.80,307.31,M,-33.324,M,,*7E
2017-12-01 15:57:13 1512161833.855018: $GPRMC,205714,A,3946.9579,N,08404.9858,W,0.0000,0.000,011217,,*30
2017-12-01 15:57:13 1512161833.855082: $GPGSA,A,3,1,10,12,14,18,22,25,31,32,11,24,138,2.0,0.8,1.5*3B
2017-12-01 15:57:14 1512161834.405790: $GPZDA,205715.00,01,12,2017,00,00*64
2017-12-01 15:57:14 1512161834.405964: $GPGGA,205715,3946.9579,N,08404.9858,W,1,12,0.80,307.31,M,-33.324,M,,*7F
2017-12-01 15:57:14 1512161834.406033: $GPRMC,205715,A,3946.9579,N,08404.9858,W,0.0000,0.000,011217,,*31
2017-12-01 15:57:14 1512161834.406095: $GPGSA,A,3,1,10,12,14,18,22,25,31,32,11,24,138,2.0,0.8,1.5*3B
2017-12-01 15:57:15 1512161835.405263: $GPZDA,205716.00,01,12,2017,00,00*67
2017-12-01 15:57:15 1512161835.405440: $GPGGA,205716,3946.9582,N,08404.9857,W,1,12,0.80,306.55,M,-33.324,M,,*74
2017-12-01 15:57:15 1512161835.405507: $GPRMC,205716,A,3946.9582,N,08404.9857,W,0.0000,0.000,011217,,*39
2017-12-01 15:57:15 1512161835.405570: $GPGSA,A,3,1,10,12,14,18,22,25,31,32,11,24,138,2.0,0.8,1.5*3B
2017-12-01 15:57:15 1512161835.405682: $GPGBS,205716,10.70,M,15.43,M,35.28,M*00
2017-12-01 15:57:16 1512161836.742123: $GPGSV,3,1,12,01,17,313,37,10,64,138,48,12,25,066,40,14,58,300,43*73
2017-12-01 15:57:16 1512161836.742317: $GPGSV,3,2,12,18,32,138,46,22,07,312,43,25,33,109,44,31,41,214,49*79
2017-12-01 15:57:16 1512161836.742386: $GPGSV,3,3,12,32,69,345,48,11,11,295,33,24,09,046,30,138,38,213,46*49
2017-12-01 15:57:16 1512161836.855475: $GPZDA,205717.00,01,12,2017,00,00*66
2017-12-01 15:57:16 1512161836.855612: $GPGGA,205717,3946.9583,N,08404.9866,W,2,12,1.20,298.60,M,-33.324,M,,*7E
2017-12-01 15:57:16 1512161836.855679: $GPRMC,205717,A,3946.9583,N,08404.9866,W,0.2422,93.794,011217,,*0D
2017-12-01 15:57:16 1512161836.855740: $GPGSA,A,3,1,10,12,14,18,22,25,31,32,11,24,138,2.0,1.2,1.5*30
2017-12-01 15:57:17 1512161837.408940: $GPZDA,205718.00,01,12,2017,00,00*69
2017-12-01 15:57:17 1512161837.409130: $GPGGA,205718,3946.9583,N,08404.9866,W,2,12,0.80,298.60,M,-33.324,M,,*7A
2017-12-01 15:57:17 1512161837.409205: $GPRMC,205718,A,3946.9583,N,08404.9866,W,0.0000,0.000,011217,,*34
2017-12-01 15:57:17 1512161837.409271: $GPGSA,A,3,1,10,12,14,18,22,25,31,32,11,24,138,2.0,0.8,1.5*3B
2017-12-01 15:57:18 1512161838.406819: $GPZDA,205719.00,01,12,2017,00,00*68
2017-12-01 15:57:18 1512161838.406993: $GPGGA,205719,3946.9586,N,08404.9866,W,2,12,0.80,297.84,M,-33.324,M,,*7B
2017-12-01 15:57:18 1512161838.407061: $GPRMC,205719,A,3946.9586,N,08404.9866,W,0.0000,0.000,011217,,*30
2017-12-01 15:57:18 1512161838.407121: $GPGSA,A,3,1,10,12,14,18,22,25,31,32,11,24,138,2.0,0.8,1.5*3B
2017-12-01 15:57:19 1512161839.742721: $GPGSV,3,1,12,01,17,313,37,10,64,138,48,12,25,066,40,14,58,300,43*73
2017-12-01 15:57:19 1512161839.742914: $GPGSV,3,2,12,18,32,138,46,22,07,312,43,25,33,109,45,31,41,214,48*79
2017-12-01 15:57:19 1512161839.742982: $GPGSV,3,3,12,32,69,345,48,11,11,295,27,24,09,046,30,138,38,213,45*4F
2017-12-01 15:57:19 1512161839.855928: $GPZDA,205720.00,01,12,2017,00,00*62
2017-12-01 15:57:19 1512161839.856094: $GPGGA,205720,3946.9586,N,08404.9866,W,2,12,0.80,297.84,M,-33.324,M,,*71
2017-12-01 15:57:19 1512161839.856163: $GPRMC,205720,A,3946.9586,N,08404.9866,W,0.0000,0.000,011217,,*3A
2017-12-01 15:57:19 1512161839.856226: $GPGSA,A,3,1,10,12,14,18,22,25,31,32,11,24,138,2.0,0.8,1.5*3B
2017-12-01 15:57:20 1512161840.408031: $GPZDA,205721.00,01,12,2017,00,00*63
2017-12-01 15:57:20 1512161840.408207: $GPGGA,205721,3946.9586,N,08404.9866,W,2,12,0.80,297.84,M,-33.324,M,,*70
2017-12-01 15:57:20 1512161840.408278: $GPRMC,205721,A,3946.9586,N,08404.9866,W,0.0000,0.000,011217,,*3B
2017-12-01 15:57:20 1512161840.408339: $GPGSA,A,3,1,10,12,14,18,22,25,31,32,11,24,138,2.0,0.8,1.5*3B
2017-12-01 15:57:21 1512161841.407692: $GPZDA,205722.00,01,12,2017,00,00*60
2017-12-01 15:57:21 1512161841.407875: $GPGGA,205722,3946.9583,N,08404.9866,W,2,12,0.80,298.60,M,-33.324,M,,*73
2017-12-01 15:57:21 1512161841.407946: $GPRMC,205722,A,3946.9583,N,08404.9866,W,0.0000,0.000,011217,,*3D
2017-12-01 15:57:21 1512161841.408008: $GPGSA,A,3,1,10,12,14,18,22,25,31,32,11,24,138,2.0,0.8,1.5*3B
2017-12-01 15:57:22 1512161842.743395: $GPGSV,3,1,12,01,17,313,37,10,64,138,48,12,25,066,40,14,58,300,43*73
2017-12-01 15:57:22 1512161842.743594: $GPGSV,3,2,12,18,32,138,46,22,07,312,43,25,33,109,44,31,41,214,49*79
2017-12-01 15:57:22 1512161842.743662: $GPGSV,3,3,12,32,69,345,48,11,11,295,27,24,09,046,30,138,38,213,46*4C
2017-12-01 15:57:22 1512161842.856852: $GPZDA,205723.00,01,12,2017,00,00*61
2017-12-01 15:57:22 1512161842.857004: $GPGGA,205723,3946.9583,N,08404.9866,W,2,12,0.80,298.60,M,-33.324,M,,*72
2017-12-01 15:57:22 1512161842.857070: $GPRMC,205723,A,3946.9583,N,08404.9866,W,0.0000,0.000,011217,,*3C
2017-12-01 15:57:22 1512161842.857133: $GPGSA,A,3,1,10,12,14,18,22,25,31,32,11,24,138,2.0,0.8,1.5*3B
2017-12-01 15:57:23 1512161843.482554: $GPZDA,205724.00,01,12,2017,00,00*66
2017-12-01 15:57:23 1512161843.482724: $GPGGA,205724,3946.9583,N,08404.9866,W,2,12,0.80,298.60,M,-33.324,M,,*75
2017-12-01 15:57:23 1512161843.482793: $GPRMC,205724,A,3946.9583,N,08404.9866,W,0.0000,0.000,011217,,*3B
2017-12-01 15:57:23 1512161843.482904: $GPGSA,A,3,1,10,12,14,18,22,25,31,32,11,24,138,2.0,0.8,1.5*3B
2017-12-01 15:57:24 1512161844.407076: $GPZDA,205725.00,01,12,2017,00,00*67
2017-12-01 15:57:24 1512161844.407266: $GPGGA,205725,3946.9583,N,08404.9866,W,2,12,0.80,298.60,M,-33.324,M,,*74
2017-12-01 15:57:24 1512161844.407334: $GPRMC,205725,A,3946.9583,N,08404.9866,W,0.0000,0.000,011217,,*3A
2017-12-01 15:57:24 1512161844.407397: $GPGSA,A,3,1,10,12,14,18,22,25,31,32,11,24,138,2.0,0.8,1.5*3B
2017-12-01 15:57:25 1512161845.744972: $GPGSV,3,1,12,01,17,313,38,10,64,138,48,12,25,066,40,14,58,300,43*7C
2017-12-01 15:57:25 1512161845.745154: $GPGSV,3,2,12,18,32,138,46,22,07,312,44,25,33,109,45,31,41,214,49*7F
2017-12-01 15:57:25 1512161845.745224: $GPGSV,3,3,12,32,69,345,47,11,11,295,10,24,09,046,30,138,38,213,46*47
2017-12-01 15:57:25 1512161845.858518: $GPZDA,205726.00,01,12,2017,00,00*64
2017-12-01 15:57:25 1512161845.858688: $GPGGA,205726,3946.9583,N,08404.9866,W,2,12,0.80,298.60,M,-33.324,M,,*77
2017-12-01 15:57:25 1512161845.858757: $GPRMC,205726,A,3946.9583,N,08404.9866,W,0.0000,0.000,011217,,*39
2017-12-01 15:57:25 1512161845.858819: $GPGSA,A,3,1,10,12,14,18,22,25,31,32,11,24,138,2.0,0.8,1.5*3B
2017-12-01 15:57:26 1512161846.408461: $GPZDA,205727.00,01,12,2017,00,00*65
2017-12-01 15:57:26 1512161846.408637: $GPGGA,205727,3946.9583,N,08404.9866,W,2,12,0.80,298.60,M,-33.324,M,,*76
2017-12-01 15:57:26 1512161846.408704: $GPRMC,205727,A,3946.9583,N,08404.9866,W,0.0000,0.000,011217,,*38
2017-12-01 15:57:26 1512161846.408766: $GPGSA,A,3,1,10,12,14,18,22,25,31,32,11,24,138,2.0,0.8,1.5*3B
2017-12-01 15:57:27 1512161847.406333: $GPZDA,205728.00,01,12,2017,00,00*6A
2017-12-01 15:57:27 1512161847.406501: $GPGGA,205728,3946.9583,N,08404.9866,W,2,12,0.80,298.60,M,-33.324,M,,*79
2017-12-01 15:57:27 1512161847.406568: $GPRMC,205728,A,3946.9583,N,08404.9866,W,0.0000,0.000,011217,,*37
2017-12-01 15:57:27 1512161847.406629: $GPGSA,A,3,1,10,12,14,18,22,25,31,32,11,24,138,2.0,0.8,1.5*3B
2017-12-01 15:57:27 1512161847.406688: $GPGBS,205728,2.67,M,3.86,M,8.82,M*38
2017-12-01 15:57:28 1512161848.743956: $GPGSV,3,1,12,01,17,313,38,10,64,138,49,12,25,066,40,14,58,300,44*7A
2017-12-01 15:57:28 1512161848.744156: $GPGSV,3,2,12,18,32,138,46,22,07,312,44,25,33,109,45,31,41,214,49*7F
2017-12-01 15:57:28 1512161848.744225: $GPGSV,3,3,12,32,69,345,47,11,11,295,25,24,09,046,30,138,38,213,45*42
2017-12-01 15:57:28 1512161848.856153: $GPZDA,205729.00,01,12,2017,00,00*6B
2017-12-01 15:57:28 1512161848.856381: $GPGGA,205729,3946.9583,N,08404.9866,W,2,12,0.80,298.60,M,-33.324,M,,*78
2017-12-01 15:57:28 1512161848.856450: $GPRMC,205729,A,3946.9583,N,08404.9866,W,0.0000,0.000,011217,,*36
2017-12-01 15:57:28 1512161848.856512: $GPGSA,A,3,1,10,12,14,18,22,25,31,32,11,24,138,2.0,0.8,1.5*3B
