2017-11-16 13:47:06 1510858026.316948: {"class":"VERSION","release":"3.17","rev":"3.17","proto_major":3,"proto_minor":12}
2017-11-16 13:47:06 1510858026.317579: {"class":"DEVICES","devices":[{"class":"DEVICE","path":"/dev/ttyUSB0","driver":"SiRF","subtype":"9\u0006GSD4e_4.1.2-P1_RPATCH.05-F-GPS-4R-1510281 11/03/2015 307","activated":"2017-11-16T18:47:06.302Z","flags":1,"native":1,"bps":4800,"parity":"N","stopbits":1,"cycle":1.00}]}
2017-11-16 13:47:06 1510858026.317731: {"class":"WATCH","enable":true,"json":false,"nmea":true,"raw":0,"scaled":false,"timing":false,"split24":false,"pps":false}
2017-11-16 13:47:07 1510858027.644381: $GPGSV,3,1,11,10,32,292,40,13,18,046,45,15,49,049,51,18,62,315,48*78
2017-11-16 13:47:07 1510858027.644542: $GPGSV,3,2,11,20,42,085,48,21,75,213,46,24,43,127,44,27,19,301,35*72
2017-11-16 13:47:07 1510858027.644602: $GPGSV,3,3,11,32,10,231,29,08,01,331,00,138,38,213,44*7B
2017-11-16 13:47:07 1510858027.757776: $GPZDA,184706.00,16,11,2017,00,00*69
2017-11-16 13:47:07 1510858027.757930: $GPGGA,184706,3946.9591,N,08404.9834,W,2,10,0.80,304.49,M,-33.324,M,,*76
2017-11-16 13:47:07 1510858027.757989: $GPRMC,184706,A,3946.9591,N,08404.9834,W,0.0000,0.000,161117,,*30
2017-11-16 13:47:07 1510858027.758043: $GPGSA,A,3,10,13,15,18,20,21,24,27,32,138,,,1.6,0.8,1.3*08
2017-11-16 13:47:08 1510858028.325052: $GPZDA,184707.00,16,11,2017,00,00*68
2017-11-16 13:47:08 1510858028.325220: $GPGGA,184707,3946.9591,N,08404.9834,W,2,10,0.80,304.49,M,-33.324,M,,*77
2017-11-16 13:47:08 1510858028.325281: $GPRMC,184707,A,3946.9591,N,08404.9834,W,0.0000,0.000,161117,,*31
2017-11-16 13:47:08 1510858028.325338: $GPGSA,A,3,10,13,15,18,20,21,24,27,32,138,,,1.6,0.8,1.3*08
2017-11-16 13:47:09 1510858029.331460: $GPZDA,184708.00,16,11,2017,00,00*67
2017-11-16 13:47:09 1510858029.331657: $GPGGA,184708,3946.9591,N,08404.9834,W,2,10,0.80,304.49,M,-33.324,M,,*78
2017-11-16 13:47:09 1510858029.331720: $GPRMC,184708,A,3946.9591,N,08404.9834,W,0.0000,0.000,161117,,*3E
2017-11-16 13:47:09 1510858029.331776: $GPGSA,A,3,10,13,15,18,20,21,24,27,32,138,,,1.6,0.8,1.3*08
2017-11-16 13:47:10 1510858030.643746: $GPGSV,3,1,11,10,32,292,40,13,18,046,45,15,49,049,51,18,62,315,48*78
2017-11-16 13:47:10 1510858030.643922: $GPGSV,3,2,11,20,42,085,48,21,75,213,46,24,43,127,45,27,19,301,34*72
2017-11-16 13:47:10 1510858030.643983: $GPGSV,3,3,11,32,10,231,28,08,01,331,00,138,38,213,43*7D
2017-11-16 13:47:10 1510858030.756964: $GPZDA,184709.00,16,11,2017,00,00*66
2017-11-16 13:47:10 1510858030.757128: $GPGGA,184709,3946.9591,N,08404.9834,W,2,10,0.80,304.49,M,-33.324,M,,*79
2017-11-16 13:47:10 1510858030.757190: $GPRMC,184709,A,3946.9591,N,08404.9834,W,0.0000,0.000,161117,,*3F
2017-11-16 13:47:10 1510858030.757245: $GPGSA,A,3,10,13,15,18,20,21,24,27,32,138,,,1.6,0.8,1.3*08
2017-11-16 13:47:11 1510858031.307840: $GPZDA,184710.00,16,11,2017,00,00*6E
2017-11-16 13:47:11 1510858031.308006: $GPGGA,184710,3946.9591,N,08404.9834,W,2,10,0.80,304.49,M,-33.324,M,,*71
2017-11-16 13:47:11 1510858031.308065: $GPRMC,184710,A,3946.9591,N,08404.9834,W,0.0000,0.000,161117,,*37
2017-11-16 13:47:11 1510858031.308121: $GPGSA,A,3,10,13,15,18,20,21,24,27,32,138,,,1.6,0.8,1.3*08
2017-11-16 13:47:12 1510858032.332086: $GPZDA,184711.00,16,11,2017,00,00*6F
2017-11-16 13:47:12 1510858032.332249: $GPGGA,184711,3946.9591,N,08404.9834,W,2,10,0.80,304.49,M,-33.324,M,,*70
2017-11-16 13:47:12 1510858032.332309: $GPRMC,184711,A,3946.9591,N,08404.9834,W,0.0000,0.000,161117,,*36
2017-11-16 13:47:12 1510858032.332364: $GPGSA,A,3,10,13,15,18,20,21,24,27,32,138,,,1.6,0.8,1.3*08
2017-11-16 13:47:13 1510858033.668194: $GPGSV,3,1,11,10,32,292,41,13,18,046,45,15,49,049,51,18,62,315,48*79
2017-11-16 13:47:13 1510858033.668376: $GPGSV,3,2,11,20,42,085,48,21,75,213,46,24,43,127,45,27,19,301,34*72
2017-11-16 13:47:13 1510858033.668437: $GPGSV,3,3,11,32,10,231,28,08,01,331,00,138,38,213,44*7A
2017-11-16 13:47:13 1510858033.781614: $GPZDA,184712.00,16,11,2017,00,00*6C
2017-11-16 13:47:13 1510858033.781757: $GPGGA,184712,3946.9591,N,08404.9834,W,2,10,0.80,304.49,M,-33.324,M,,*73
2017-11-16 13:47:13 1510858033.781871: $GPRMC,184712,A,3946.9591,N,08404.9834,W,0.0000,0.000,161117,,*35
2017-11-16 13:47:13 1510858033.781928: $GPGSA,A,3,10,13,15,18,20,21,24,27,32,138,,,1.6,0.8,1.3*08
2017-11-16 13:47:14 1510858034.331410: $GPZDA,184713.00,16,11,2017,00,00*6D
2017-11-16 13:47:14 1510858034.331582: $GPGGA,184713,3946.9591,N,08404.9834,W,2,10,0.80,304.49,M,-33.324,M,,*72
2017-11-16 13:47:14 1510858034.331682: $GPRMC,184713,A,3946.9591,N,08404.9834,W,0.0000,0.000,161117,,*34
2017-11-16 13:47:14 1510858034.331740: $GPGSA,A,3,10,13,15,18,20,21,24,27,32,138,,,1.6,0.8,1.3*08
2017-11-16 13:47:15 1510858035.334314: $GPZDA,184714.00,16,11,2017,00,00*6A
2017-11-16 13:47:15 1510858035.334488: $GPGGA,184714,3946.9591,N,08404.9834,W,2,10,0.80,304.49,M,-33.324,M,,*75
2017-11-16 13:47:15 1510858035.334550: $GPRMC,184714,A,3946.9591,N,08404.9834,W,0.0000,0.000,161117,,*33
2017-11-16 13:47:15 1510858035.334606: $GPGSA,A,3,10,13,15,18,20,21,24,27,32,138,,,1.6,0.8,1.3*08
