2017-11-16 16:50:43 1510869043.582754: {"class":"VERSION","release":"3.17","rev":"3.17","proto_major":3,"proto_minor":12}
2017-11-16 16:50:43 1510869043.583423: {"class":"DEVICES","devices":[{"class":"DEVICE","path":"/dev/ttyUSB0","driver":"SiRF","subtype":"9\u0006GSD4e_4.1.2-P1_RPATCH.05-F-GPS-4R-1510281 11/03/2015 307","activated":"2017-11-16T21:50:43.561Z","flags":1,"native":1,"bps":4800,"parity":"N","stopbits":1,"cycle":1.00}]}
2017-11-16 16:50:43 1510869043.583681: {"class":"WATCH","enable":true,"json":false,"nmea":true,"raw":0,"scaled":false,"timing":false,"split24":false,"pps":false}
2017-11-16 16:50:44 1510869044.780774: $GPGSV,3,1,12,01,14,318,40,10,68,133,48,11,11,300,26,12,25,070,46*76
2017-11-16 16:50:44 1510869044.780941: $GPGSV,3,2,12,14,56,294,45,18,36,136,41,24,13,045,39,25,30,112,41*72
2017-11-16 16:50:44 1510869044.781001: $GPGSV,3,3,12,31,35,213,47,32,68,331,50,22,03,310,28,138,38,213,44*4C
2017-11-16 16:50:44 1510869044.894080: $GPZDA,215043.00,16,11,2017,00,00*64
2017-11-16 16:50:44 1510869044.894225: $GPGGA,215043,3946.9581,N,08404.9830,W,2,12,0.80,308.27,M,-33.324,M,,*78
2017-11-16 16:50:44 1510869044.894286: $GPRMC,215043,A,3946.9581,N,08404.9830,W,0.0000,0.000,161117,,*38
2017-11-16 16:50:44 1510869044.894342: $GPGSA,A,3,1,10,11,12,14,18,24,25,31,32,22,138,1.6,0.8,1.3*38
2017-11-16 16:50:45 1510869045.443721: $GPZDA,215044.00,16,11,2017,00,00*63
2017-11-16 16:50:45 1510869045.443884: $GPGGA,215044,3946.9581,N,08404.9830,W,2,12,0.80,308.27,M,-33.324,M,,*7F
2017-11-16 16:50:45 1510869045.443945: $GPRMC,215044,A,3946.9581,N,08404.9830,W,0.0000,0.000,161117,,*3F
2017-11-16 16:50:45 1510869045.444000: $GPGSA,A,3,1,10,11,12,14,18,24,25,31,32,22,138,1.6,0.8,1.3*38
2017-11-16 16:50:46 1510869046.444085: $GPZDA,215045.00,16,11,2017,00,00*62
2017-11-16 16:50:46 1510869046.444262: $GPGGA,215045,3946.9581,N,08404.9830,W,2,12,0.80,308.27,M,-33.324,M,,*7E
2017-11-16 16:50:46 1510869046.444323: $GPRMC,215045,A,3946.9581,N,08404.9830,W,0.0000,0.000,161117,,*3E
2017-11-16 16:50:46 1510869046.444379: $GPGSA,A,3,1,10,11,12,14,18,24,25,31,32,22,138,1.6,0.8,1.3*38
2017-11-16 16:50:47 1510869047.781142: $GPGSV,3,1,12,01,14,318,40,10,68,133,48,11,11,300,26,12,25,070,46*76
2017-11-16 16:50:47 1510869047.781312: $GPGSV,3,2,12,14,56,294,45,18,36,136,41,24,13,045,38,25,30,112,41*73
2017-11-16 16:50:47 1510869047.781372: $GPGSV,3,3,12,31,35,213,47,32,68,331,50,22,03,310,28,138,38,213,44*4C
2017-11-16 16:50:47 1510869047.894399: $GPZDA,215046.00,16,11,2017,00,00*61
2017-11-16 16:50:47 1510869047.894536: $GPGGA,215046,3946.9581,N,08404.9830,W,2,12,0.80,308.27,M,-33.324,M,,*7D
2017-11-16 16:50:47 1510869047.894612: $GPRMC,215046,A,3946.9581,N,08404.9830,W,0.0000,0.000,161117,,*3D
2017-11-16 16:50:47 1510869047.894669: $GPGSA,A,3,1,10,11,12,14,18,24,25,31,32,22,138,1.6,0.8,1.3*38
2017-11-16 16:50:48 1510869048.446500: $GPZDA,215047.00,16,11,2017,00,00*60
2017-11-16 16:50:48 1510869048.446677: $GPGGA,215047,3946.9581,N,08404.9830,W,2,12,0.80,308.27,M,-33.324,M,,*7C
2017-11-16 16:50:48 1510869048.446755: $GPRMC,215047,A,3946.9581,N,08404.9830,W,0.0000,0.000,161117,,*3C
2017-11-16 16:50:48 1510869048.446812: $GPGSA,A,3,1,10,11,12,14,18,24,25,31,32,22,138,1.6,0.8,1.3*38
2017-11-16 16:50:49 1510869049.444896: $GPZDA,215048.00,16,11,2017,00,00*6F
2017-11-16 16:50:49 1510869049.445157: $GPGGA,215048,3946.9581,N,08404.9830,W,2,12,0.80,308.27,M,-33.324,M,,*73
2017-11-16 16:50:49 1510869049.445220: $GPRMC,215048,A,3946.9581,N,08404.9830,W,0.0000,0.000,161117,,*33
2017-11-16 16:50:49 1510869049.445276: $GPGSA,A,3,1,10,11,12,14,18,24,25,31,32,22,138,1.6,0.8,1.3*38
2017-11-16 16:50:50 1510869050.780632: $GPGSV,3,1,12,01,14,318,40,10,68,133,48,11,11,300,32,12,25,070,46*73
2017-11-16 16:50:50 1510869050.780801: $GPGSV,3,2,12,14,56,294,45,18,36,136,41,24,13,045,38,25,30,112,41*73
2017-11-16 16:50:50 1510869050.780863: $GPGSV,3,3,12,31,35,213,47,32,68,331,50,22,03,310,27,138,38,213,44*43
2017-11-16 16:50:50 1510869050.893965: $GPZDA,215049.00,16,11,2017,00,00*6E
2017-11-16 16:50:50 1510869050.894141: $GPGGA,215049,3946.9581,N,08404.9830,W,2,12,0.80,308.27,M,-33.324,M,,*72
2017-11-16 16:50:50 1510869050.894255: $GPRMC,215049,A,3946.9581,N,08404.9830,W,0.0000,0.000,161117,,*32
2017-11-16 16:50:50 1510869050.894313: $GPGSA,A,3,1,10,11,12,14,18,24,25,31,32,22,138,1.6,0.8,1.3*38
2017-11-16 16:50:51 1510869051.519341: $GPZDA,215050.00,16,11,2017,00,00*66
2017-11-16 16:50:51 1510869051.519497: $GPGGA,215050,3946.9581,N,08404.9830,W,2,12,0.80,308.27,M,-33.324,M,,*7A
2017-11-16 16:50:51 1510869051.519557: $GPRMC,215050,A,3946.9581,N,08404.9830,W,0.0000,0.000,161117,,*3A
2017-11-16 16:50:51 1510869051.519613: $GPGSA,A,3,1,10,11,12,14,18,24,25,31,32,22,138,1.6,0.8,1.3*38
2017-11-16 16:50:52 1510869052.445289: $GPZDA,215051.00,16,11,2017,00,00*67
2017-11-16 16:50:52 1510869052.445449: $GPGGA,215051,3946.9581,N,08404.9830,W,2,12,0.80,308.27,M,-33.324,M,,*7B
2017-11-16 16:50:52 1510869052.445510: $GPRMC,215051,A,3946.9581,N,08404.9830,W,0.0000,0.000,161117,,*3B
2017-11-16 16:50:52 1510869052.445566: $GPGSA,A,3,1,10,11,12,14,18,24,25,31,32,22,138,1.6,0.8,1.3*38
