2017-12-31 16:47:28 1514756848.599719: {"class":"VERSION","release":"3.16","rev":"3.16-4","proto_major":3,"proto_minor":11}
2017-12-31 16:47:28 1514756848.600068: {"class":"DEVICES","devices":[{"class":"DEVICE","path":"/dev/ttyUSB0","driver":"SiRF","activated":"2017-12-31T21:47:28.502Z","flags":1,"native":1,"bps":4800,"parity":"N","stopbits":1,"cycle":1.00}]}
2017-12-31 16:47:28 1514756848.600165: {"class":"WATCH","enable":true,"json":false,"nmea":true,"raw":0,"scaled":false,"timing":false,"split24":false,"pps":false}
2017-12-31 16:47:29 1514756849.344346: $GPZDA,214730.00,31,12,2017,00,00*60
2017-12-31 16:47:29 1514756849.344504: $GPGGA,214730,3946.9576,N,08404.9848,W,2,11,0.80,303.18,M,-33.324,M,,*79
2017-12-31 16:47:29 1514756849.344570: $GPRMC,214730,A,3946.9576,N,08404.9848,W,0.0000,0.000,311217,,*3B
2017-12-31 16:47:29 1514756849.344631: $GPGSA,A,3,22,23,25,3,16,29,31,14,32,26,135,,1.7,0.8,1.3*32
2017-12-31 16:47:30 1514756850.680469: $GPGSV,3,1,11,22,48,250,44,23,21,306,39,25,08,037,27,03,45,283,32*79
2017-12-31 16:47:30 1514756850.680650: $GPGSV,3,2,11,16,37,189,47,29,13,063,28,31,56,043,49,14,47,106,44*74
2017-12-31 16:47:30 1514756850.680715: $GPGSV,3,3,11,32,25,117,41,26,67,160,42,135,22,240,43*7F
2017-12-31 16:47:30 1514756850.793825: $GPZDA,214731.00,31,12,2017,00,00*61
2017-12-31 16:47:30 1514756850.793955: $GPGGA,214731,3946.9576,N,08404.9848,W,2,11,0.80,303.18,M,-33.324,M,,*78
2017-12-31 16:47:30 1514756850.794020: $GPRMC,214731,A,3946.9576,N,08404.9848,W,0.0000,0.000,311217,,*3A
2017-12-31 16:47:30 1514756850.794079: $GPGSA,A,3,22,23,25,3,16,29,31,14,32,26,135,,1.7,0.8,1.3*32
2017-12-31 16:47:31 1514756851.346015: $GPZDA,214732.00,31,12,2017,00,00*62
2017-12-31 16:47:31 1514756851.346167: $GPGGA,214732,3946.9576,N,08404.9848,W,2,11,0.80,303.18,M,-33.324,M,,*7B
2017-12-31 16:47:31 1514756851.346233: $GPRMC,214732,A,3946.9576,N,08404.9848,W,0.0000,0.000,311217,,*39
2017-12-31 16:47:31 1514756851.346294: $GPGSA,A,3,22,23,25,3,16,29,31,14,32,26,135,,1.7,0.8,1.3*32
2017-12-31 16:47:32 1514756852.351873: $GPZDA,214733.00,31,12,2017,00,00*63
2017-12-31 16:47:32 1514756852.352037: $GPGGA,214733,3946.9576,N,08404.9848,W,2,11,0.80,303.18,M,-33.324,M,,*7A
2017-12-31 16:47:32 1514756852.352104: $GPRMC,214733,A,3946.9576,N,08404.9848,W,0.0000,0.000,311217,,*38
2017-12-31 16:47:32 1514756852.352165: $GPGSA,A,3,22,23,25,3,16,29,31,14,32,26,135,,1.7,0.8,1.3*32
2017-12-31 16:47:33 1514756853.681312: $GPGSV,3,1,11,22,48,250,44,23,21,306,40,25,08,037,28,03,45,283,16*7E
2017-12-31 16:47:33 1514756853.681490: $GPGSV,3,2,11,16,37,189,47,29,13,063,29,31,56,043,50,14,47,106,44*7D
2017-12-31 16:47:33 1514756853.681555: $GPGSV,3,3,11,32,25,117,42,26,67,160,42,135,22,240,43*7C
2017-12-31 16:47:33 1514756853.794675: $GPZDA,214734.00,31,12,2017,00,00*64
2017-12-31 16:47:33 1514756853.794797: $GPGGA,214734,3946.9576,N,08404.9848,W,2,11,0.80,303.18,M,-33.324,M,,*7D
2017-12-31 16:47:33 1514756853.794861: $GPRMC,214734,A,3946.9576,N,08404.9848,W,0.0000,0.000,311217,,*3F
2017-12-31 16:47:33 1514756853.794921: $GPGSA,A,3,22,23,25,3,16,29,31,14,32,26,135,,1.7,0.8,1.3*32
2017-12-31 16:47:34 1514756854.345890: $GPZDA,214735.00,31,12,2017,00,00*65
2017-12-31 16:47:34 1514756854.346059: $GPGGA,214735,3946.9576,N,08404.9848,W,2,11,0.80,303.18,M,-33.324,M,,*7C
2017-12-31 16:47:34 1514756854.346127: $GPRMC,214735,A,3946.9576,N,08404.9848,W,0.0000,0.000,311217,,*3E
2017-12-31 16:47:34 1514756854.346204: $GPGSA,A,3,22,23,25,3,16,29,31,14,32,26,135,,1.7,0.8,1.3*32
2017-12-31 16:47:35 1514756855.344980: $GPZDA,214736.00,31,12,2017,00,00*66
2017-12-31 16:47:35 1514756855.345149: $GPGGA,214736,3946.9576,N,08404.9848,W,2,11,0.80,303.18,M,-33.324,M,,*7F
2017-12-31 16:47:35 1514756855.345215: $GPRMC,214736,A,3946.9576,N,08404.9848,W,0.0000,0.000,311217,,*3D
2017-12-31 16:47:35 1514756855.345276: $GPGSA,A,3,22,23,25,3,16,29,31,14,32,26,135,,1.7,0.8,1.3*32
2017-12-31 16:47:36 1514756856.679147: $GPGSV,3,1,11,22,48,250,44,23,21,306,40,25,08,037,29,03,45,283,30*7B
2017-12-31 16:47:36 1514756856.679325: $GPGSV,3,2,11,16,37,189,48,29,13,063,29,31,56,043,51,14,47,106,45*72
2017-12-31 16:47:36 1514756856.679444: $GPGSV,3,3,11,32,25,117,43,26,67,160,42,135,22,240,43*7D
2017-12-31 16:47:36 1514756856.792804: $GPZDA,214737.00,31,12,2017,00,00*67
2017-12-31 16:47:36 1514756856.792937: $GPGGA,214737,3946.9576,N,08404.9848,W,2,11,0.80,303.18,M,-33.324,M,,*7E
2017-12-31 16:47:36 1514756856.793001: $GPRMC,214737,A,3946.9576,N,08404.9848,W,0.0000,0.000,311217,,*3C
2017-12-31 16:47:36 1514756856.793078: $GPGSA,A,3,22,23,25,3,16,29,31,14,32,26,135,,1.7,0.8,1.3*32
2017-12-31 16:47:37 1514756857.361204: $GPZDA,214738.00,31,12,2017,00,00*68
2017-12-31 16:47:37 1514756857.361364: $GPGGA,214738,3946.9576,N,08404.9848,W,2,11,0.80,303.18,M,-33.324,M,,*71
2017-12-31 16:47:37 1514756857.361429: $GPRMC,214738,A,3946.9576,N,08404.9848,W,0.0000,0.000,311217,,*33
2017-12-31 16:47:37 1514756857.361490: $GPGSA,A,3,22,23,25,3,16,29,31,14,32,26,135,,1.7,0.8,1.3*32
2017-12-31 16:47:38 1514756858.344565: $GPZDA,214739.00,31,12,2017,00,00*69
2017-12-31 16:47:38 1514756858.344732: $GPGGA,214739,3946.9576,N,08404.9848,W,2,11,0.80,303.18,M,-33.324,M,,*70
2017-12-31 16:47:38 1514756858.344799: $GPRMC,214739,A,3946.9576,N,08404.9848,W,0.0000,0.000,311217,,*32
2017-12-31 16:47:38 1514756858.344860: $GPGSA,A,3,22,23,25,3,16,29,31,14,32,26,135,,1.7,0.8,1.3*32
