2017-11-16 14:29:04 1510860544.715943: {"class":"VERSION","release":"3.17","rev":"3.17","proto_major":3,"proto_minor":12}
2017-11-16 14:29:04 1510860544.716517: {"class":"DEVICES","devices":[{"class":"DEVICE","path":"/dev/ttyUSB0","driver":"SiRF","subtype":"9\u0006GSD4e_4.1.2-P1_RPATCH.05-F-GPS-4R-1510281 11/03/2015 307","activated":"2017-11-16T19:29:04.700Z","flags":1,"native":1,"bps":4800,"parity":"N","stopbits":1,"cycle":1.00}]}
2017-11-16 14:29:04 1510860544.716656: {"class":"WATCH","enable":true,"json":false,"nmea":true,"raw":0,"scaled":false,"timing":false,"split24":false,"pps":false}
2017-11-16 14:29:05 1510860545.539112: $GPZDA,192904.00,16,11,2017,00,00*62
2017-11-16 14:29:05 1510860545.539328: $GPGGA,192904,3946.9564,N,08404.9849,W,2,11,0.80,302.66,M,-33.324,M,,*77
2017-11-16 14:29:05 1510860545.539391: $GPRMC,192904,A,3946.9564,N,08404.9849,W,0.0000,0.000,161117,,*3B
2017-11-16 14:29:05 1510860545.539447: $GPGSA,A,3,8,10,15,18,21,20,24,27,32,14,138,,1.6,0.8,1.3*37
2017-11-16 14:29:06 1510860546.876263: $GPGSV,3,1,12,08,07,316,32,10,47,306,48,13,02,051,00,15,32,054,51*7D
2017-11-16 14:29:06 1510860546.876434: $GPGSV,3,2,12,18,75,354,45,21,57,186,46,20,28,100,46,24,53,099,48*78
2017-11-16 14:29:06 1510860546.876495: $GPGSV,3,3,12,27,18,282,40,32,26,243,46,14,09,235,38,138,38,213,44*4A
2017-11-16 14:29:06 1510860546.989823: $GPZDA,192905.00,16,11,2017,00,00*63
2017-11-16 14:29:06 1510860546.990005: $GPGGA,192905,3946.9564,N,08404.9849,W,2,11,0.80,302.66,M,-33.324,M,,*76
2017-11-16 14:29:06 1510860546.990072: $GPRMC,192905,A,3946.9564,N,08404.9849,W,0.0000,0.000,161117,,*3A
2017-11-16 14:29:06 1510860546.990129: $GPGSA,A,3,8,10,15,18,21,20,24,27,32,14,138,,1.6,0.8,1.3*37
2017-11-16 14:29:07 1510860547.538021: $GPZDA,192906.00,16,11,2017,00,00*60
2017-11-16 14:29:07 1510860547.538187: $GPGGA,192906,3946.9564,N,08404.9849,W,2,11,0.80,302.66,M,-33.324,M,,*75
2017-11-16 14:29:07 1510860547.538248: $GPRMC,192906,A,3946.9564,N,08404.9849,W,0.0000,0.000,161117,,*39
2017-11-16 14:29:07 1510860547.538305: $GPGSA,A,3,8,10,15,18,21,20,24,27,32,14,138,,1.6,0.8,1.3*37
2017-11-16 14:29:08 1510860548.538851: $GPZDA,192907.00,16,11,2017,00,00*61
2017-11-16 14:29:08 1510860548.539034: $GPGGA,192907,3946.9564,N,08404.9849,W,2,11,0.80,302.66,M,-33.324,M,,*74
2017-11-16 14:29:08 1510860548.539097: $GPRMC,192907,A,3946.9564,N,08404.9849,W,0.0000,0.000,161117,,*38
2017-11-16 14:29:08 1510860548.539154: $GPGSA,A,3,8,10,15,18,21,20,24,27,32,14,138,,1.6,0.8,1.3*37
2017-11-16 14:29:09 1510860549.844173: $GPGSV,3,1,12,08,07,316,36,10,47,306,48,13,02,051,00,15,32,054,51*79
2017-11-16 14:29:09 1510860549.844347: $GPGSV,3,2,12,18,75,354,45,21,57,186,46,20,28,100,46,24,53,099,48*78
2017-11-16 14:29:09 1510860549.844408: $GPGSV,3,3,12,27,18,282,40,32,26,243,46,14,09,235,38,138,38,213,44*4A
2017-11-16 14:29:09 1510860549.957532: $GPZDA,192908.00,16,11,2017,00,00*6E
2017-11-16 14:29:09 1510860549.957711: $GPGGA,192908,3946.9564,N,08404.9849,W,2,11,0.80,302.66,M,-33.324,M,,*7B
2017-11-16 14:29:09 1510860549.957775: $GPRMC,192908,A,3946.9564,N,08404.9849,W,0.0000,0.000,161117,,*37
2017-11-16 14:29:09 1510860549.957833: $GPGSA,A,3,8,10,15,18,21,20,24,27,32,14,138,,1.6,0.8,1.3*37
2017-11-16 14:29:10 1510860550.538361: $GPZDA,192909.00,16,11,2017,00,00*6F
2017-11-16 14:29:10 1510860550.538528: $GPGGA,192909,3946.9564,N,08404.9849,W,2,11,0.80,302.66,M,-33.324,M,,*7A
2017-11-16 14:29:10 1510860550.538590: $GPRMC,192909,A,3946.9564,N,08404.9849,W,0.0000,0.000,161117,,*36
2017-11-16 14:29:10 1510860550.538646: $GPGSA,A,3,8,10,15,18,21,20,24,27,32,14,138,,1.6,0.8,1.3*37
2017-11-16 14:29:11 1510860551.506810: $GPZDA,192910.00,16,11,2017,00,00*67
2017-11-16 14:29:11 1510860551.506991: $GPGGA,192910,3946.9564,N,08404.9849,W,2,11,0.80,302.66,M,-33.324,M,,*72
2017-11-16 14:29:11 1510860551.507060: $GPRMC,192910,A,3946.9564,N,08404.9849,W,0.0000,0.000,161117,,*3E
2017-11-16 14:29:11 1510860551.507118: $GPGSA,A,3,8,10,15,18,21,20,24,27,32,14,138,,1.6,0.8,1.3*37
2017-11-16 14:29:12 1510860552.845123: $GPGSV,3,1,12,08,07,316,37,10,47,306,48,13,02,051,00,15,32,054,51*78
2017-11-16 14:29:12 1510860552.845350: $GPGSV,3,2,12,18,75,354,45,21,57,186,46,20,28,100,46,24,53,099,49*79
2017-11-16 14:29:12 1510860552.845413: $GPGSV,3,3,12,27,18,282,40,32,26,243,47,14,09,235,38,138,38,213,44*4B
2017-11-16 14:29:12 1510860552.958432: $GPZDA,192911.00,16,11,2017,00,00*66
2017-11-16 14:29:12 1510860552.958603: $GPGGA,192911,3946.9564,N,08404.9849,W,2,11,0.80,302.66,M,-33.324,M,,*73
2017-11-16 14:29:12 1510860552.958666: $GPRMC,192911,A,3946.9564,N,08404.9849,W,0.0000,0.000,161117,,*3F
2017-11-16 14:29:12 1510860552.958722: $GPGSA,A,3,8,10,15,18,21,20,24,27,32,14,138,,1.6,0.8,1.3*37
2017-11-16 14:29:13 1510860553.508080: $GPZDA,192912.00,16,11,2017,00,00*65
2017-11-16 14:29:13 1510860553.508256: $GPGGA,192912,3946.9564,N,08404.9849,W,2,11,0.80,302.66,M,-33.324,M,,*70
2017-11-16 14:29:13 1510860553.508318: $GPRMC,192912,A,3946.9564,N,08404.9849,W,0.0000,0.000,161117,,*3C
2017-11-16 14:29:13 1510860553.508374: $GPGSA,A,3,8,10,15,18,21,20,24,27,32,14,138,,1.6,0.8,1.3*37
2017-11-16 14:29:14 1510860554.538876: $GPZDA,192913.00,16,11,2017,00,00*64
2017-11-16 14:29:14 1510860554.539062: $GPGGA,192913,3946.9564,N,08404.9849,W,2,11,0.80,302.66,M,-33.324,M,,*71
2017-11-16 14:29:14 1510860554.539125: $GPRMC,192913,A,3946.9564,N,08404.9849,W,0.0000,0.000,161117,,*3D
2017-11-16 14:29:14 1510860554.539182: $GPGSA,A,3,8,10,15,18,21,20,24,27,32,14,138,,1.6,0.8,1.3*37
2017-11-16 14:29:15 1510860555.843120: $GPGSV,3,1,12,08,07,316,37,10,47,306,48,13,02,051,00,15,32,054,51*78
2017-11-16 14:29:15 1510860555.843298: $GPGSV,3,2,12,18,75,354,45,21,57,186,46,20,28,100,46,24,53,099,48*78
2017-11-16 14:29:15 1510860555.843364: $GPGSV,3,3,12,27,18,282,40,32,26,243,47,14,09,235,37,138,38,213,42*42
2017-11-16 14:29:15 1510860555.956812: $GPZDA,192914.00,16,11,2017,00,00*63
2017-11-16 14:29:15 1510860555.956979: $GPGGA,192914,3946.9564,N,08404.9849,W,2,11,0.80,302.66,M,-33.324,M,,*76
2017-11-16 14:29:15 1510860555.957043: $GPRMC,192914,A,3946.9564,N,08404.9849,W,0.0000,0.000,161117,,*3A
2017-11-16 14:29:15 1510860555.957104: $GPGSA,A,3,8,10,15,18,21,20,24,27,32,14,138,,1.6,0.8,1.3*37
2017-11-16 14:29:16 1510860556.508912: $GPZDA,192915.00,16,11,2017,00,00*62
2017-11-16 14:29:16 1510860556.509077: $GPGGA,192915,3946.9564,N,08404.9849,W,2,11,0.80,302.66,M,-33.324,M,,*77
2017-11-16 14:29:16 1510860556.509144: $GPRMC,192915,A,3946.9564,N,08404.9849,W,0.0000,0.000,161117,,*3B
2017-11-16 14:29:16 1510860556.509200: $GPGSA,A,3,8,10,15,18,21,20,24,27,32,14,138,,1.6,0.8,1.3*37
2017-11-16 14:29:17 1510860557.539483: $GPZDA,192916.00,16,11,2017,00,00*61
2017-11-16 14:29:17 1510860557.539648: $GPGGA,192916,3946.9564,N,08404.9849,W,2,11,0.80,302.66,M,-33.324,M,,*74
2017-11-16 14:29:17 1510860557.539708: $GPRMC,192916,A,3946.9564,N,08404.9849,W,0.0000,0.000,161117,,*38
2017-11-16 14:29:17 1510860557.539766: $GPGSA,A,3,8,10,15,18,21,20,24,27,32,14,138,,1.6,0.8,1.3*37
2017-11-16 14:29:18 1510860558.870440: $GPGSV,3,1,12,08,07,316,37,10,47,306,48,13,02,051,00,15,32,054,51*78
2017-11-16 14:29:18 1510860558.870630: $GPGSV,3,2,12,18,75,354,45,21,57,186,46,20,28,100,46,24,53,099,48*78
2017-11-16 14:29:18 1510860558.870694: $GPGSV,3,3,12,27,18,282,40,32,26,243,47,14,09,235,37,138,38,213,42*42
2017-11-16 14:29:18 1510860558.983931: $GPZDA,192917.00,16,11,2017,00,00*60
2017-11-16 14:29:18 1510860558.984097: $GPGGA,192917,3946.9564,N,08404.9849,W,2,11,0.80,302.66,M,-33.324,M,,*75
2017-11-16 14:29:18 1510860558.984161: $GPRMC,192917,A,3946.9564,N,08404.9849,W,0.0000,0.000,161117,,*39
2017-11-16 14:29:18 1510860558.984218: $GPGSA,A,3,8,10,15,18,21,20,24,27,32,14,138,,1.6,0.8,1.3*37
2017-11-16 14:29:19 1510860559.609033: $GPZDA,192918.00,16,11,2017,00,00*6F
2017-11-16 14:29:19 1510860559.609204: $GPGGA,192918,3946.9564,N,08404.9849,W,2,11,0.80,302.66,M,-33.324,M,,*7A
2017-11-16 14:29:19 1510860559.609265: $GPRMC,192918,A,3946.9564,N,08404.9849,W,0.0000,0.000,161117,,*36
2017-11-16 14:29:19 1510860559.609322: $GPGSA,A,3,8,10,15,18,21,20,24,27,32,14,138,,1.6,0.8,1.3*37
2017-11-16 14:29:20 1510860560.508852: $GPZDA,192919.00,16,11,2017,00,00*6E
2017-11-16 14:29:20 1510860560.509068: $GPGGA,192919,3946.9564,N,08404.9849,W,2,11,0.80,302.66,M,-33.324,M,,*7B
2017-11-16 14:29:20 1510860560.509133: $GPRMC,192919,A,3946.9564,N,08404.9849,W,0.0000,0.000,161117,,*37
2017-11-16 14:29:20 1510860560.509195: $GPGSA,A,3,8,10,15,18,21,20,24,27,32,14,138,,1.6,0.8,1.3*37
2017-11-16 14:29:21 1510860561.844586: $GPGSV,3,1,12,08,07,316,37,10,47,306,48,13,02,051,00,15,32,054,51*78
2017-11-16 14:29:21 1510860561.844760: $GPGSV,3,2,12,18,75,354,45,21,57,186,46,20,28,100,46,24,53,099,48*78
2017-11-16 14:29:21 1510860561.844821: $GPGSV,3,3,12,27,18,282,40,32,26,243,46,14,09,235,38,138,38,213,44*4A
2017-11-16 14:29:21 1510860561.958301: $GPZDA,192920.00,16,11,2017,00,00*64
2017-11-16 14:29:21 1510860561.958461: $GPGGA,192920,3946.9564,N,08404.9849,W,2,11,0.80,302.66,M,-33.324,M,,*71
2017-11-16 14:29:21 1510860561.958522: $GPRMC,192920,A,3946.9564,N,08404.9849,W,0.0000,0.000,161117,,*3D
2017-11-16 14:29:21 1510860561.958578: $GPGSA,A,3,8,10,15,18,21,20,24,27,32,14,138,,1.6,0.8,1.3*37
2017-11-16 14:29:22 1510860562.509290: $GPZDA,192921.00,16,11,2017,00,00*65
2017-11-16 14:29:22 1510860562.509451: $GPGGA,192921,3946.9564,N,08404.9849,W,2,11,0.80,302.66,M,-33.324,M,,*70
2017-11-16 14:29:22 1510860562.509513: $GPRMC,192921,A,3946.9564,N,08404.9849,W,0.0000,0.000,161117,,*3C
2017-11-16 14:29:22 1510860562.509569: $GPGSA,A,3,8,10,15,18,21,20,24,27,32,14,138,,1.6,0.8,1.3*37
2017-11-16 14:29:23 1510860563.508616: $GPZDA,192922.00,16,11,2017,00,00*66
2017-11-16 14:29:23 1510860563.508778: $GPGGA,192922,3946.9564,N,08404.9849,W,2,11,0.80,302.66,M,-33.324,M,,*73
2017-11-16 14:29:23 1510860563.508840: $GPRMC,192922,A,3946.9564,N,08404.9849,W,0.0000,0.000,161117,,*3F
2017-11-16 14:29:23 1510860563.508895: $GPGSA,A,3,8,10,15,18,21,20,24,27,32,14,138,,1.6,0.8,1.3*37
2017-11-16 14:29:24 1510860564.871283: $GPGSV,3,1,12,08,07,316,39,10,47,306,47,13,02,051,00,15,32,054,51*79
2017-11-16 14:29:24 1510860564.871466: $GPGSV,3,2,12,18,75,354,46,21,57,186,46,20,28,100,46,24,53,099,48*7B
2017-11-16 14:29:24 1510860564.871526: $GPGSV,3,3,12,27,18,282,40,32,26,243,46,14,09,235,38,138,38,213,44*4A
2017-11-16 14:29:24 1510860564.984932: $GPZDA,192923.00,16,11,2017,00,00*67
2017-11-16 14:29:24 1510860564.985098: $GPGGA,192923,3946.9564,N,08404.9849,W,2,11,0.80,302.66,M,-33.324,M,,*72
2017-11-16 14:29:24 1510860564.985181: $GPRMC,192923,A,3946.9564,N,08404.9849,W,0.0000,0.000,161117,,*3E
2017-11-16 14:29:24 1510860564.985239: $GPGSA,A,3,8,10,15,18,21,20,24,27,32,14,138,,1.6,0.8,1.3*37
2017-11-16 14:29:25 1510860565.501977: $GPZDA,192924.00,16,11,2017,00,00*60
2017-11-16 14:29:25 1510860565.502139: $GPGGA,192924,3946.9564,N,08404.9849,W,2,11,0.80,302.66,M,-33.324,M,,*75
2017-11-16 14:29:25 1510860565.502221: $GPRMC,192924,A,3946.9564,N,08404.9849,W,0.0000,0.000,161117,,*39
2017-11-16 14:29:25 1510860565.502278: $GPGSA,A,3,8,10,15,18,21,20,24,27,32,14,138,,1.6,0.8,1.3*37
2017-11-16 14:29:26 1510860566.540148: $GPZDA,192925.00,16,11,2017,00,00*61
2017-11-16 14:29:26 1510860566.540414: $GPGGA,192925,3946.9564,N,08404.9849,W,2,11,0.80,302.66,M,-33.324,M,,*74
2017-11-16 14:29:26 1510860566.540479: $GPRMC,192925,A,3946.9564,N,08404.9849,W,0.0000,0.000,161117,,*38
2017-11-16 14:29:26 1510860566.540537: $GPGSA,A,3,8,10,15,18,21,20,24,27,32,14,138,,1.6,0.8,1.3*37
2017-11-16 14:29:27 1510860567.876036: $GPGSV,3,1,12,08,07,316,40,10,47,306,47,13,02,051,00,15,32,054,51*77
2017-11-16 14:29:27 1510860567.876204: $GPGSV,3,2,12,18,75,354,46,21,57,186,46,20,28,100,46,24,53,099,47*74
2017-11-16 14:29:27 1510860567.876286: $GPGSV,3,3,12,27,18,282,39,32,26,243,46,14,09,235,39,138,38,213,44*45
2017-11-16 14:29:27 1510860567.989491: $GPZDA,192926.00,16,11,2017,00,00*62
2017-11-16 14:29:27 1510860567.989648: $GPGGA,192926,3946.9564,N,08404.9849,W,2,11,0.80,302.66,M,-33.324,M,,*77
2017-11-16 14:29:27 1510860567.989709: $GPRMC,192926,A,3946.9564,N,08404.9849,W,0.0000,0.000,161117,,*3B
2017-11-16 14:29:27 1510860567.989782: $GPGSA,A,3,8,10,15,18,21,20,24,27,32,14,138,,1.6,0.8,1.3*37
2017-11-16 14:29:28 1510860568.541479: $GPZDA,192927.00,16,11,2017,00,00*63
2017-11-16 14:29:28 1510860568.541769: $GPGGA,192927,3946.9564,N,08404.9849,W,2,11,0.80,302.66,M,-33.324,M,,*76
2017-11-16 14:29:28 1510860568.541887: $GPRMC,192927,A,3946.9564,N,08404.9849,W,0.0000,0.000,161117,,*3A
2017-11-16 14:29:28 1510860568.541984: $GPGSA,A,3,8,10,15,18,21,20,24,27,32,14,138,,1.6,0.8,1.3*37
2017-11-16 14:29:29 1510860569.509347: $GPZDA,192928.00,16,11,2017,00,00*6C
2017-11-16 14:29:29 1510860569.509777: $GPGGA,192928,3946.9564,N,08404.9849,W,2,11,0.80,302.66,M,-33.324,M,,*79
2017-11-16 14:29:29 1510860569.512088: $GPRMC,192928,A,3946.9564,N,08404.9849,W,0.0000,0.000,161117,,*35
2017-11-16 14:29:29 1510860569.512170: $GPGSA,A,3,8,10,15,18,21,20,24,27,32,14,138,,1.6,0.8,1.3*37
2017-11-16 14:29:30 1510860570.846501: $GPGSV,3,1,12,08,07,316,41,10,47,306,47,13,02,051,00,15,32,054,51*76
2017-11-16 14:29:30 1510860570.846653: $GPGSV,3,2,12,18,75,354,46,21,57,186,46,20,28,100,47,24,53,099,47*75
2017-11-16 14:29:30 1510860570.846713: $GPGSV,3,3,12,27,18,282,39,32,26,243,46,14,09,235,40,138,38,213,45*4A
2017-11-16 14:29:30 1510860570.959718: $GPZDA,192929.00,16,11,2017,00,00*6D
2017-11-16 14:29:30 1510860570.959880: $GPGGA,192929,3946.9564,N,08404.9849,W,2,11,0.80,302.66,M,-33.324,M,,*78
2017-11-16 14:29:30 1510860570.959941: $GPRMC,192929,A,3946.9564,N,08404.9849,W,0.0000,0.000,161117,,*34
2017-11-16 14:29:30 1510860570.959998: $GPGSA,A,3,8,10,15,18,21,20,24,27,32,14,138,,1.6,0.8,1.3*37
2017-11-16 14:29:31 1510860571.508369: $GPZDA,192930.00,16,11,2017,00,00*65
2017-11-16 14:29:31 1510860571.508546: $GPGGA,192930,3946.9564,N,08404.9849,W,2,11,0.80,302.66,M,-33.324,M,,*70
2017-11-16 14:29:31 1510860571.508608: $GPRMC,192930,A,3946.9564,N,08404.9849,W,0.0000,0.000,161117,,*3C
2017-11-16 14:29:31 1510860571.508664: $GPGSA,A,3,8,10,15,18,21,20,24,27,32,14,138,,1.6,0.8,1.3*37
2017-11-16 14:29:32 1510860572.535204: $GPZDA,192931.00,16,11,2017,00,00*64
2017-11-16 14:29:32 1510860572.535440: $GPGGA,192931,3946.9564,N,08404.9849,W,2,11,0.80,302.66,M,-33.324,M,,*71
2017-11-16 14:29:32 1510860572.535519: $GPRMC,192931,A,3946.9564,N,08404.9849,W,0.0000,0.000,161117,,*3D
2017-11-16 14:29:32 1510860572.535576: $GPGSA,A,3,8,10,15,18,21,20,24,27,32,14,138,,1.6,0.8,1.3*37
2017-11-16 14:29:33 1510860573.877443: $GPGSV,3,1,12,08,07,316,41,10,47,306,47,13,02,051,00,15,32,054,51*76
2017-11-16 14:29:33 1510860573.877652: $GPGSV,3,2,12,18,75,354,47,21,57,186,46,20,28,100,47,24,53,099,47*74
2017-11-16 14:29:33 1510860573.877715: $GPGSV,3,3,12,27,18,282,39,32,26,243,47,14,09,235,40,138,38,213,45*4B
2017-11-16 14:29:33 1510860573.991044: $GPZDA,192932.00,16,11,2017,00,00*67
2017-11-16 14:29:33 1510860573.991206: $GPGGA,192932,3946.9564,N,08404.9849,W,2,11,0.80,302.66,M,-33.324,M,,*72
2017-11-16 14:29:33 1510860573.991267: $GPRMC,192932,A,3946.9564,N,08404.9849,W,0.0000,0.000,161117,,*3E
2017-11-16 14:29:33 1510860573.991323: $GPGSA,A,3,8,10,15,18,21,20,24,27,32,14,138,,1.6,0.8,1.3*37
2017-11-16 14:29:34 1510860574.616423: $GPZDA,192933.00,16,11,2017,00,00*66
2017-11-16 14:29:34 1510860574.637677: $GPGGA,192933,3946.9564,N,08404.9849,W,2,11,0.80,302.66,M,-33.324,M,,*73
2017-11-16 14:29:34 1510860574.637793: $GPRMC,192933,A,3946.9564,N,08404.9849,W,0.0000,0.000,161117,,*3F
2017-11-16 14:29:34 1510860574.637852: $GPGSA,A,3,8,10,15,18,21,20,24,27,32,14,138,,1.6,0.8,1.3*37
