2017-12-14 12:21:47 1513272107.822870: {"class":"VERSION","release":"3.16","rev":"3.16-4","proto_major":3,"proto_minor":11}
2017-12-14 12:21:47 1513272107.823236: {"class":"DEVICES","devices":[{"class":"DEVICE","path":"/dev/ttyUSB0","driver":"SiRF","subtype":"9\u0006GSD4e_4.1.2-P1_RPATCH.05-F-GPS-4R-1510281 11/03/2015 307","activated":"2017-12-14T17:21:47.308Z","flags":1,"native":1,"bps":4800,"parity":"N","stopbits":1,"cycle":1.00}]}
2017-12-14 12:21:47 1513272107.823352: {"class":"WATCH","enable":true,"json":false,"nmea":true,"raw":0,"scaled":false,"timing":false,"split24":false,"pps":false}
2017-12-14 12:21:48 1513272108.522001: $GPGSV,3,1,12,10,42,301,25,15,36,052,23,18,72,340,06,20,33,096,20*7F
2017-12-14 12:21:48 1513272108.522303: $GPGSV,3,2,12,24,51,108,28,32,22,238,07,21,61,187,25,14,04,232,04*7E
2017-12-14 12:21:48 1513272108.522394: $GPGSV,3,3,12,27,19,288,08,13,07,049,00,08,06,321,00,120,07,103,00*4D
2017-12-14 12:21:48 1513272108.635584: $GPZDA,172149.00,14,12,2017,00,00*6C
2017-12-14 12:21:48 1513272108.635748: $GPGGA,172149,3946.9289,N,08404.9475,W,1,07,2.00,334.16,M,-33.324,M,,*73
2017-12-14 12:21:48 1513272108.635814: $GPRMC,172149,A,3946.9289,N,08404.9475,W,1.9131,191.058,141217,,*3D
2017-12-14 12:21:48 1513272108.635874: $GPGSA,A,3,10,15,20,24,32,21,27,,,,,,6.6,2.0,6.2*32
2017-12-14 12:21:49 1513272109.195207: $GPZDA,172150.00,14,12,2017,00,00*64
2017-12-14 12:21:49 1513272109.195357: $GPGGA,172150,3946.9289,N,08404.9475,W,1,07,2.00,334.16,M,-33.324,M,,*7B
2017-12-14 12:21:49 1513272109.195422: $GPRMC,172150,A,3946.9289,N,08404.9475,W,1.9585,198.105,141217,,*3E
2017-12-14 12:21:49 1513272109.195483: $GPGSA,A,3,10,15,20,24,32,21,27,,,,,,6.6,2.0,6.2*32
2017-12-14 12:21:50 1513272110.168831: $GPZDA,172151.00,14,12,2017,00,00*65
2017-12-14 12:21:50 1513272110.169011: $GPGGA,172151,3946.9285,N,08404.9482,W,1,07,2.00,333.44,M,-33.324,M,,*7E
2017-12-14 12:21:50 1513272110.169078: $GPRMC,172151,A,3946.9285,N,08404.9482,W,1.3044,205.352,141217,,*3E
2017-12-14 12:21:50 1513272110.169141: $GPGSA,A,3,10,15,20,24,32,21,27,,,,,,6.6,2.0,6.2*32
2017-12-14 12:21:51 1513272111.522529: $GPGSV,3,1,12,10,42,301,24,15,36,052,23,18,72,340,08,20,33,096,19*7A
2017-12-14 12:21:51 1513272111.522689: $GPGSV,3,2,12,24,51,108,28,32,22,238,06,21,61,187,25,14,04,232,04*7F
2017-12-14 12:21:51 1513272111.522756: $GPGSV,3,3,12,27,19,288,10,08,06,321,11,13,07,049,00,120,07,103,00*44
2017-12-14 12:21:51 1513272111.634607: $GPZDA,172152.00,14,12,2017,00,00*66
2017-12-14 12:21:51 1513272111.634737: $GPGGA,172152,3946.9285,N,08404.9482,W,1,08,2.00,333.44,M,-33.324,M,,*72
2017-12-14 12:21:51 1513272111.634801: $GPRMC,172152,A,3946.9285,N,08404.9482,W,1.2621,219.347,141217,,*30
2017-12-14 12:21:51 1513272111.634864: $GPGSA,A,3,10,15,18,20,24,32,21,27,,,,,6.6,2.0,6.2*3B
2017-12-14 12:21:52 1513272112.186121: $GPZDA,172153.00,14,12,2017,00,00*67
2017-12-14 12:21:52 1513272112.186312: $GPGGA,172153,3946.9281,N,08404.9489,W,1,08,2.00,332.73,M,-33.324,M,,*79
2017-12-14 12:21:52 1513272112.186379: $GPRMC,172153,A,3946.9281,N,08404.9489,W,1.4555,203.636,141217,,*30
2017-12-14 12:21:52 1513272112.186441: $GPGSA,A,3,10,15,18,20,24,32,21,27,,,,,6.6,2.0,6.2*3B
2017-12-14 12:21:53 1513272113.187403: $GPZDA,172154.00,14,12,2017,00,00*60
2017-12-14 12:21:53 1513272113.187574: $GPGGA,172154,3946.9281,N,08404.9489,W,1,08,2.00,332.73,M,-33.324,M,,*7E
2017-12-14 12:21:53 1513272113.187642: $GPRMC,172154,A,3946.9281,N,08404.9489,W,1.5545,212.064,141217,,*36
2017-12-14 12:21:53 1513272113.187705: $GPGSA,A,3,10,15,18,20,24,32,21,27,,,,,6.6,2.0,6.2*3B
2017-12-14 12:21:54 1513272114.524518: $GPGSV,3,1,12,10,42,301,24,15,36,052,23,18,72,340,08,20,33,096,18*7B
2017-12-14 12:21:54 1513272114.524739: $GPGSV,3,2,12,24,51,108,28,32,22,238,06,21,61,187,25,14,04,232,04*7F
2017-12-14 12:21:54 1513272114.524808: $GPGSV,3,3,12,27,19,288,09,08,06,321,11,13,07,049,00,120,07,103,00*4C
2017-12-14 12:21:54 1513272114.637748: $GPZDA,172155.00,14,12,2017,00,00*61
2017-12-14 12:21:54 1513272114.637928: $GPGGA,172155,3946.9278,N,08404.9496,W,1,09,2.00,332.01,M,-33.324,M,,*73
2017-12-14 12:21:54 1513272114.638046: $GPRMC,172155,A,3946.9278,N,08404.9496,W,1.5933,233.668,141217,,*3B
2017-12-14 12:21:54 1513272114.638113: $GPGSA,A,3,10,15,18,20,24,32,21,27,8,,,,6.6,2.0,6.2*03
2017-12-14 12:21:55 1513272115.170534: $GPZDA,172156.00,14,12,2017,00,00*62
2017-12-14 12:21:55 1513272115.170692: $GPGGA,172156,3946.9278,N,08404.9503,W,1,09,2.00,331.93,M,-33.324,M,,*75
2017-12-14 12:21:55 1513272115.170759: $GPRMC,172156,A,3946.9278,N,08404.9503,W,1.6828,219.347,141217,,*3D
2017-12-14 12:21:55 1513272115.170821: $GPGSA,A,3,10,15,18,20,24,32,21,27,8,,,,6.6,2.0,6.2*03
2017-12-14 12:21:56 1513272116.185849: $GPZDA,172157.00,14,12,2017,00,00*63
2017-12-14 12:21:56 1513272116.186016: $GPGGA,172157,3946.9274,N,08404.9503,W,1,09,2.00,331.29,M,-33.324,M,,*79
2017-12-14 12:21:56 1513272116.186080: $GPRMC,172157,A,3946.9274,N,08404.9503,W,1.5545,212.064,141217,,*3C
2017-12-14 12:21:56 1513272116.186141: $GPGSA,A,3,10,15,18,20,24,32,21,27,8,,,,6.6,2.0,6.2*03
2017-12-14 12:21:57 1513272117.522983: $GPGSV,3,1,12,10,42,301,24,15,36,052,22,18,72,340,06,20,33,096,18*74
2017-12-14 12:21:57 1513272117.523146: $GPGSV,3,2,12,24,51,108,28,32,22,238,06,21,61,187,25,14,04,232,04*7F
2017-12-14 12:21:57 1513272117.523211: $GPGSV,3,3,12,27,19,288,10,13,07,049,00,08,06,321,00,120,07,103,00*44
2017-12-14 12:21:57 1513272117.635133: $GPZDA,172158.00,14,12,2017,00,00*6C
2017-12-14 12:21:57 1513272117.635279: $GPGGA,172158,3946.9274,N,08404.9510,W,1,08,2.00,331.21,M,-33.324,M,,*7D
2017-12-14 12:21:57 1513272117.635344: $GPRMC,172158,A,3946.9274,N,08404.9510,W,2.0320,204.738,141217,,*3B
2017-12-14 12:21:57 1513272117.635403: $GPGSA,A,3,10,15,18,20,24,32,21,27,,,,,6.6,2.0,6.2*3B
2017-12-14 12:21:58 1513272118.185492: $GPZDA,172159.00,14,12,2017,00,00*6D
2017-12-14 12:21:58 1513272118.185695: $GPGGA,172159,3946.9270,N,08404.9510,W,1,08,2.00,330.57,M,-33.324,M,,*78
2017-12-14 12:21:58 1513272118.185781: $GPRMC,172159,A,3946.9270,N,08404.9510,W,1.7157,208.752,141217,,*38
2017-12-14 12:21:58 1513272118.185844: $GPGSA,A,3,10,15,18,20,24,32,21,27,,,,,6.6,2.0,6.2*3B
2017-12-14 12:21:59 1513272119.171374: $GPZDA,172200.00,14,12,2017,00,00*62
2017-12-14 12:21:59 1513272119.171544: $GPGGA,172200,3946.9270,N,08404.9517,W,1,08,2.00,330.49,M,-33.324,M,,*7F
2017-12-14 12:21:59 1513272119.171610: $GPRMC,172200,A,3946.9270,N,08404.9517,W,1.9697,221.636,141217,,*3D
2017-12-14 12:21:59 1513272119.171670: $GPGSA,A,3,10,15,18,20,24,32,21,27,,,,,6.6,2.0,6.2*3B
2017-12-14 12:22:00 1513272120.504853: $GPGSV,3,1,12,10,42,301,24,15,36,052,22,18,72,340,07,20,33,096,17*7A
2017-12-14 12:22:00 1513272120.505026: $GPGSV,3,2,12,24,51,108,28,32,22,238,06,21,61,187,24,08,06,321,08*7E
2017-12-14 12:22:00 1513272120.505092: $GPGSV,3,3,12,27,19,288,10,13,07,049,00,14,04,232,00,120,07,103,00*48
2017-12-14 12:22:00 1513272120.618225: $GPZDA,172201.00,14,12,2017,00,00*63
2017-12-14 12:22:00 1513272120.618378: $GPGGA,172201,3946.9266,N,08404.9517,W,1,08,2.00,329.85,M,-33.324,M,,*71
2017-12-14 12:22:00 1513272120.618444: $GPRMC,172201,A,3946.9266,N,08404.9517,W,2.1306,210.832,141217,,*35
2017-12-14 12:22:00 1513272120.618504: $GPGSA,A,3,10,15,18,20,24,32,21,27,,,,,6.6,2.0,6.2*3B
2017-12-14 12:22:01 1513272121.667991: $GPZDA,172202.00,14,12,2017,00,00*60
2017-12-14 12:22:01 1513272121.668162: $GPGGA,172202,3946.9262,N,08404.9524,W,1,08,2.00,329.13,M,-33.324,M,,*79
2017-12-14 12:22:01 1513272121.668228: $GPRMC,172202,A,3946.9262,N,08404.9524,W,2.4414,207.229,141217,,*35
2017-12-14 12:22:01 1513272121.668290: $GPGSA,A,3,10,15,18,20,24,32,21,27,,,,,6.6,2.0,6.2*3B
2017-12-14 12:22:02 1513272122.169396: $GPZDA,172203.00,14,12,2017,00,00*61
2017-12-14 12:22:02 1513272122.169561: $GPGGA,172203,3946.9259,N,08404.9524,W,1,08,2.00,329.89,M,-33.324,M,,*73
2017-12-14 12:22:02 1513272122.169627: $GPRMC,172203,A,3946.9259,N,08404.9524,W,2.1833,203.636,141217,,*3E
2017-12-14 12:22:02 1513272122.169688: $GPGSA,A,3,10,15,18,20,24,32,21,27,,,,,6.6,2.0,6.2*3B
2017-12-14 12:22:03 1513272123.504250: $GPGSV,3,1,12,10,43,303,24,15,36,052,22,18,72,342,08,20,33,097,16*74
2017-12-14 12:22:03 1513272123.504423: $GPGSV,3,2,12,24,51,108,28,32,23,240,06,21,61,186,24,08,06,321,11*79
2017-12-14 12:22:03 1513272123.504488: $GPGSV,3,3,12,27,19,288,10,13,06,049,00,14,05,234,00,120,07,103,00*4E
2017-12-14 12:22:03 1513272123.617614: $GPZDA,172204.00,14,12,2017,00,00*66
2017-12-14 12:22:03 1513272123.617782: $GPGGA,172204,3946.9255,N,08404.9531,W,1,08,2.00,329.18,M,-33.324,M,,*74
2017-12-14 12:22:03 1513272123.617848: $GPRMC,172204,A,3946.9255,N,08404.9531,W,1.8311,215.640,141217,,*36
2017-12-14 12:22:03 1513272123.617909: $GPGSA,A,3,10,15,18,20,24,32,21,27,,,,,6.6,2.0,6.2*3B
2017-12-14 12:22:04 1513272124.171258: $GPZDA,172205.00,14,12,2017,00,00*67
2017-12-14 12:22:04 1513272124.171445: $GPGGA,172205,3946.9255,N,08404.9531,W,1,08,1.80,329.18,M,-33.324,M,,*7E
2017-12-14 12:22:04 1513272124.171512: $GPRMC,172205,A,3946.9255,N,08404.9531,W,1.5545,212.064,141217,,*3A
2017-12-14 12:22:04 1513272124.171573: $GPGSA,A,3,10,15,18,20,24,32,21,27,,,,,6.6,1.8,6.2*30
2017-12-14 12:22:05 1513272125.171643: $GPZDA,172206.00,14,12,2017,00,00*64
2017-12-14 12:22:05 1513272125.171812: $GPGGA,172206,3946.9251,N,08404.9538,W,1,08,2.00,328.46,M,-33.324,M,,*71
2017-12-14 12:22:05 1513272125.171879: $GPRMC,172206,A,3946.9251,N,08404.9538,W,1.6828,219.347,141217,,*38
2017-12-14 12:22:05 1513272125.171940: $GPGSA,A,3,10,15,18,20,24,32,21,27,,,,,6.6,2.0,6.2*3B
2017-12-14 12:22:06 1513272126.507385: $GPGSV,3,1,12,10,43,303,24,15,36,052,21,18,72,342,09,20,33,097,15*75
2017-12-14 12:22:06 1513272126.507560: $GPGSV,3,2,12,24,51,108,28,32,23,240,08,21,61,186,24,08,06,321,11*77
2017-12-14 12:22:06 1513272126.507625: $GPGSV,3,3,12,27,19,288,12,13,06,049,00,14,05,234,00,120,07,103,00*4C
2017-12-14 12:22:06 1513272126.620863: $GPZDA,172207.00,14,12,2017,00,00*65
2017-12-14 12:22:06 1513272126.621004: $GPGGA,172207,3946.9251,N,08404.9538,W,1,09,2.00,328.46,M,-33.324,M,,*71
2017-12-14 12:22:06 1513272126.621070: $GPRMC,172207,A,3946.9251,N,08404.9538,W,2.1036,219.347,141217,,*3A
2017-12-14 12:22:06 1513272126.621131: $GPGSA,A,3,10,15,18,20,24,32,21,8,27,,,,6.6,2.0,6.2*03
2017-12-14 12:22:07 1513272127.174921: $GPZDA,172208.00,14,12,2017,00,00*6A
2017-12-14 12:22:07 1513272127.175080: $GPGGA,172208,3946.9248,N,08404.9545,W,1,09,1.20,327.74,M,-33.324,M,,*73
2017-12-14 12:22:07 1513272127.175147: $GPRMC,172208,A,3946.9248,N,08404.9545,W,2.1036,219.347,141217,,*37
2017-12-14 12:22:07 1513272127.175208: $GPGSA,A,3,10,15,18,20,24,32,21,8,27,,,,6.6,1.2,6.2*02
