2017-11-15 19:49:04 1510793344.593489: {"class":"VERSION","release":"3.17","rev":"3.17","proto_major":3,"proto_minor":12}
2017-11-15 19:49:04 1510793344.593957: {"class":"DEVICES","devices":[{"class":"DEVICE","path":"/dev/ttyUSB0","driver":"SiRF","subtype":"9\u0006GSD4e_4.1.2-P1_RPATCH.05-F-GPS-4R-1510281 11/03/2015 307","activated":"2017-11-16T00:49:04.470Z","flags":1,"native":1,"bps":4800,"parity":"N","stopbits":1,"cycle":1.00}]}
2017-11-15 19:49:04 1510793344.594075: {"class":"WATCH","enable":true,"json":false,"nmea":true,"raw":0,"scaled":false,"timing":false,"split24":false,"pps":false}
2017-11-15 19:49:05 1510793345.329392: $GPZDA,004904.00,16,11,2017,00,00*6C
2017-11-15 19:49:05 1510793345.329576: $GPGGA,004904,3946.9523,N,08404.9477,W,1,08,1.00,324.37,M,-33.324,M,,*79
2017-11-15 19:49:05 1510793345.329639: $GPRMC,004904,A,3946.9523,N,08404.9477,W,0.7238,140.710,161117,,*3A
2017-11-15 19:49:05 1510793345.329697: $GPGSA,A,3,32,16,31,26,14,22,23,3,,,,,3.4,1.0,2.9*08
2017-11-15 19:49:06 1510793346.664674: $GPGSV,3,1,12,32,29,114,24,16,31,190,25,31,61,037,19,26,62,168,16*7B
2017-11-15 19:49:06 1510793346.664845: $GPGSV,3,2,12,14,48,103,08,22,49,256,18,29,13,063,00,23,18,304,18*77
2017-11-15 19:49:06 1510793346.664906: $GPGSV,3,3,12,03,43,289,18,25,10,037,00,01,01,246,00,138,38,213,00*47
2017-11-15 19:49:06 1510793346.778015: $GPZDA,004905.00,16,11,2017,00,00*6D
2017-11-15 19:49:06 1510793346.778171: $GPGGA,004905,3946.9518,N,08404.9471,W,1,08,1.00,323.81,M,-33.324,M,,*7C
2017-11-15 19:49:06 1510793346.778230: $GPRMC,004905,A,3946.9518,N,08404.9471,W,0.9066,129.458,161117,,*32
2017-11-15 19:49:06 1510793346.778286: $GPGSA,A,3,32,16,31,26,14,22,23,3,,,,,3.4,1.0,2.9*08
2017-11-15 19:49:07 1510793347.346351: $GPZDA,004906.00,16,11,2017,00,00*6E
2017-11-15 19:49:07 1510793347.346501: $GPGGA,004906,3946.9515,N,08404.9471,W,1,08,1.00,324.57,M,-33.324,M,,*7E
2017-11-15 19:49:07 1510793347.346562: $GPRMC,004906,A,3946.9515,N,08404.9471,W,0.7246,164.668,161117,,*3A
2017-11-15 19:49:07 1510793347.346618: $GPGSA,A,3,32,16,31,26,14,22,23,3,,,,,3.4,1.0,2.9*08
2017-11-15 19:49:08 1510793348.329793: $GPZDA,004907.00,16,11,2017,00,00*6F
2017-11-15 19:49:08 1510793348.329949: $GPGGA,004907,3946.9511,N,08404.9471,W,1,08,1.00,323.93,M,-33.324,M,,*74
2017-11-15 19:49:08 1510793348.330010: $GPRMC,004907,A,3946.9511,N,08404.9471,W,0.9060,167.792,161117,,*30
2017-11-15 19:49:08 1510793348.330065: $GPGSA,A,3,32,16,31,26,14,22,23,3,,,,,3.4,1.0,2.9*08
2017-11-15 19:49:09 1510793349.665474: $GPGSV,3,1,12,32,29,114,24,16,31,190,25,31,61,037,19,26,62,168,16*7B
2017-11-15 19:49:09 1510793349.665650: $GPGSV,3,2,12,14,48,103,08,22,49,256,18,29,13,063,00,23,18,304,18*77
2017-11-15 19:49:09 1510793349.665709: $GPGSV,3,3,12,03,43,289,18,25,10,037,00,01,01,246,00,135,23,238,00*49
2017-11-15 19:49:09 1510793349.778781: $GPZDA,004908.00,16,11,2017,00,00*60
2017-11-15 19:49:09 1510793349.778952: $GPGGA,004908,3946.9507,N,08404.9471,W,1,08,1.00,323.29,M,-33.324,M,,*7D
2017-11-15 19:49:09 1510793349.779013: $GPRMC,004908,A,3946.9507,N,08404.9471,W,0.5912,129.173,161117,,*3B
2017-11-15 19:49:09 1510793349.779069: $GPGSA,A,3,32,16,31,26,14,22,23,3,,,,,3.4,1.0,2.9*08
2017-11-15 19:49:10 1510793350.345913: $GPZDA,004909.00,16,11,2017,00,00*61
2017-11-15 19:49:10 1510793350.347990: $GPGGA,004909,3946.9507,N,08404.9471,W,1,08,1.00,323.29,M,-33.324,M,,*7C
2017-11-15 19:49:10 1510793350.348090: $GPRMC,004909,A,3946.9507,N,08404.9471,W,0.5857,158.291,161117,,*33
2017-11-15 19:49:10 1510793350.348148: $GPGSA,A,3,32,16,31,26,14,22,23,3,,,,,3.4,1.0,2.9*08
2017-11-15 19:49:11 1510793351.330034: $GPZDA,004910.00,16,11,2017,00,00*69
2017-11-15 19:49:11 1510793351.330207: $GPGGA,004910,3946.9503,N,08404.9471,W,1,08,1.00,322.65,M,-33.324,M,,*79
2017-11-15 19:49:11 1510793351.330267: $GPRMC,004910,A,3946.9503,N,08404.9471,W,0.5912,129.173,161117,,*36
2017-11-15 19:49:11 1510793351.330324: $GPGSA,A,3,32,16,31,26,14,22,23,3,,,,,3.4,1.0,2.9*08
2017-11-15 19:49:12 1510793352.682465: $GPGSV,3,1,12,32,29,114,24,16,31,190,24,31,61,037,18,26,62,168,17*7A
2017-11-15 19:49:12 1510793352.682711: $GPGSV,3,2,12,14,48,103,10,22,49,256,18,29,13,063,00,23,18,304,18*7E
2017-11-15 19:49:12 1510793352.682776: $GPGSV,3,3,12,03,43,289,18,25,10,037,00,01,01,246,00,135,23,238,00*49
2017-11-15 19:49:12 1510793352.795783: $GPZDA,004911.00,16,11,2017,00,00*68
2017-11-15 19:49:12 1510793352.795959: $GPGGA,004911,3946.9503,N,08404.9471,W,1,08,1.00,322.65,M,-33.324,M,,*78
2017-11-15 19:49:12 1510793352.796020: $GPRMC,004911,A,3946.9503,N,08404.9471,W,0.5912,129.173,161117,,*37
2017-11-15 19:49:12 1510793352.796075: $GPGSA,A,3,32,16,31,26,14,22,23,3,,,,,3.4,1.0,2.9*08
2017-11-15 19:49:13 1510793353.346763: $GPZDA,004912.00,16,11,2017,00,00*6B
2017-11-15 19:49:13 1510793353.346928: $GPGGA,004912,3946.9503,N,08404.9471,W,1,08,1.00,322.65,M,-33.324,M,,*7B
2017-11-15 19:49:13 1510793353.346990: $GPRMC,004912,A,3946.9503,N,08404.9471,W,0.7238,140.710,161117,,*39
2017-11-15 19:49:13 1510793353.347063: $GPGSA,A,3,32,16,31,26,14,22,23,3,,,,,3.4,1.0,2.9*08
2017-11-15 19:49:14 1510793354.330050: $GPZDA,004913.00,16,11,2017,00,00*6A
2017-11-15 19:49:14 1510793354.330227: $GPGGA,004913,3946.9498,N,08404.9471,W,1,08,1.00,322.01,M,-33.324,M,,*7B
2017-11-15 19:49:14 1510793354.330290: $GPRMC,004913,A,3946.9498,N,08404.9471,W,1.0002,154.331,161117,,*34
2017-11-15 19:49:14 1510793354.330346: $GPGSA,A,3,32,16,31,26,14,22,23,3,,,,,3.4,1.0,2.9*08
