2017-11-16 14:52:13 1510861933.075789: {"class":"VERSION","release":"3.17","rev":"3.17","proto_major":3,"proto_minor":12}
2017-11-16 14:52:13 1510861933.076274: {"class":"DEVICES","devices":[{"class":"DEVICE","path":"/dev/ttyUSB0","driver":"SiRF","subtype":"9\u0006GSD4e_4.1.2-P1_RPATCH.05-F-GPS-4R-1510281 11/03/2015 307","activated":"2017-11-16T19:52:13.016Z","flags":1,"native":1,"bps":4800,"parity":"N","stopbits":1,"cycle":1.00}]}
2017-11-16 14:52:13 1510861933.076407: {"class":"WATCH","enable":true,"json":false,"nmea":true,"raw":0,"scaled":false,"timing":false,"split24":false,"pps":false}
2017-11-16 14:52:13 1510861933.521938: $GPZDA,195212.00,16,11,2017,00,00*69
2017-11-16 14:52:13 1510861933.522107: $GPGGA,195212,3946.9572,N,08404.9841,W,2,11,0.80,302.62,M,-33.324,M,,*77
2017-11-16 14:52:13 1510861933.522170: $GPRMC,195212,A,3946.9572,N,08404.9841,W,0.0000,0.000,161117,,*3F
2017-11-16 14:52:13 1510861933.522226: $GPGSA,A,3,8,10,15,18,21,20,24,27,32,14,138,,1.6,0.8,1.3*37
2017-11-16 14:52:14 1510861934.486416: $GPZDA,195213.00,16,11,2017,00,00*68
2017-11-16 14:52:14 1510861934.486572: $GPGGA,195213,3946.9572,N,08404.9841,W,2,11,0.80,302.62,M,-33.324,M,,*76
2017-11-16 14:52:14 1510861934.486652: $GPRMC,195213,A,3946.9572,N,08404.9841,W,0.0000,0.000,161117,,*3E
2017-11-16 14:52:14 1510861934.486710: $GPGSA,A,3,8,10,15,18,21,20,24,27,32,14,138,,1.6,0.8,1.3*37
2017-11-16 14:52:16 1510861936.398709: $GPGSV,3,1,11,08,08,306,34,10,56,315,50,15,22,058,51,18,77,040,44*79
2017-11-16 14:52:16 1510861936.398909: $GPGSV,3,2,11,21,45,183,46,20,19,109,42,24,52,079,50,27,14,271,40*7C
2017-11-16 14:52:16 1510861936.398971: $GPGSV,3,3,11,32,35,252,47,14,18,243,42,138,38,213,45*77
2017-11-16 14:52:16 1510861936.512035: $GPZDA,195214.00,16,11,2017,00,00*6F
2017-11-16 14:52:16 1510861936.512215: $GPGGA,195214,3946.9572,N,08404.9841,W,2,11,0.80,302.62,M,-33.324,M,,*71
2017-11-16 14:52:16 1510861936.512279: $GPRMC,195214,A,3946.9572,N,08404.9841,W,0.0000,0.000,161117,,*39
2017-11-16 14:52:16 1510861936.512337: $GPGSA,A,3,8,10,15,18,21,20,24,27,32,14,138,,1.6,0.8,1.3*37
2017-11-16 14:52:17 1510861937.124946: $GPZDA,195215.00,16,11,2017,00,00*6E
2017-11-16 14:52:17 1510861937.125152: $GPGGA,195215,3946.9572,N,08404.9841,W,2,11,0.80,302.62,M,-33.324,M,,*70
2017-11-16 14:52:17 1510861937.125248: $GPRMC,195215,A,3946.9572,N,08404.9841,W,0.0000,0.000,161117,,*38
2017-11-16 14:52:17 1510861937.125307: $GPGSA,A,3,8,10,15,18,21,20,24,27,32,14,138,,1.6,0.8,1.3*37
2017-11-16 14:52:17 1510861937.125378: $GPGBS,195215,2.12,M,3.10,M,7.47,M*32
2017-11-16 14:52:17 1510861937.575037: $GPZDA,195216.00,16,11,2017,00,00*6D
2017-11-16 14:52:17 1510861937.575204: $GPGGA,195216,3946.9572,N,08404.9841,W,2,11,0.80,302.62,M,-33.324,M,,*73
2017-11-16 14:52:17 1510861937.575266: $GPRMC,195216,A,3946.9572,N,08404.9841,W,0.0000,0.000,161117,,*3B
2017-11-16 14:52:17 1510861937.575322: $GPGSA,A,3,8,10,15,18,21,20,24,27,32,14,138,,1.6,0.8,1.3*37
2017-11-16 14:52:17 1510861937.575375: $GPGBS,195216,2.12,M,3.10,M,7.47,M*31
2017-11-16 14:52:18 1510861938.828365: $GPGSV,3,1,11,08,08,306,34,10,56,315,50,15,22,058,51,18,77,040,45*78
2017-11-16 14:52:18 1510861938.828546: $GPGSV,3,2,11,21,45,183,46,20,19,109,42,24,52,079,50,27,14,271,40*7C
2017-11-16 14:52:18 1510861938.828635: $GPGSV,3,3,11,32,35,252,47,14,18,243,43,138,38,213,43*70
2017-11-16 14:52:18 1510861938.941898: $GPZDA,195217.00,16,11,2017,00,00*6C
2017-11-16 14:52:18 1510861938.942113: $GPGGA,195217,3946.9572,N,08404.9841,W,2,11,0.80,302.62,M,-33.324,M,,*72
2017-11-16 14:52:18 1510861938.942186: $GPRMC,195217,A,3946.9572,N,08404.9841,W,0.0000,0.000,161117,,*3A
2017-11-16 14:52:18 1510861938.942252: $GPGSA,A,3,8,10,15,18,21,20,24,27,32,14,138,,1.6,0.8,1.3*37
2017-11-16 14:52:19 1510861939.567005: $GPZDA,195218.00,16,11,2017,00,00*63
2017-11-16 14:52:19 1510861939.567163: $GPGGA,195218,3946.9572,N,08404.9841,W,2,11,0.80,302.62,M,-33.324,M,,*7D
2017-11-16 14:52:19 1510861939.567225: $GPRMC,195218,A,3946.9572,N,08404.9841,W,0.0000,0.000,161117,,*35
2017-11-16 14:52:19 1510861939.567281: $GPGSA,A,3,8,10,15,18,21,20,24,27,32,14,138,,1.6,0.8,1.3*37
2017-11-16 14:52:20 1510861940.490394: $GPZDA,195219.00,16,11,2017,00,00*62
2017-11-16 14:52:20 1510861940.490569: $GPGGA,195219,3946.9572,N,08404.9841,W,2,11,0.80,302.62,M,-33.324,M,,*7C
2017-11-16 14:52:20 1510861940.490660: $GPRMC,195219,A,3946.9572,N,08404.9841,W,0.0000,0.000,161117,,*34
2017-11-16 14:52:20 1510861940.490736: $GPGSA,A,3,8,10,15,18,21,20,24,27,32,14,138,,1.6,0.8,1.3*37
2017-11-16 14:52:21 1510861941.826180: $GPGSV,3,1,11,08,08,306,34,10,56,315,50,15,22,058,51,18,77,040,45*78
2017-11-16 14:52:21 1510861941.826351: $GPGSV,3,2,11,21,45,183,46,20,19,109,42,24,52,079,49,27,14,271,40*74
2017-11-16 14:52:21 1510861941.826412: $GPGSV,3,3,11,32,35,252,47,14,18,243,43,138,38,213,44*77
2017-11-16 14:52:21 1510861941.939523: $GPZDA,195220.00,16,11,2017,00,00*68
2017-11-16 14:52:21 1510861941.939700: $GPGGA,195220,3946.9572,N,08404.9841,W,2,11,0.80,302.62,M,-33.324,M,,*76
2017-11-16 14:52:21 1510861941.939778: $GPRMC,195220,A,3946.9572,N,08404.9841,W,0.0000,0.000,161117,,*3E
2017-11-16 14:52:21 1510861941.939834: $GPGSA,A,3,8,10,15,18,21,20,24,27,32,14,138,,1.6,0.8,1.3*37
2017-11-16 14:52:22 1510861942.490590: $GPZDA,195221.00,16,11,2017,00,00*69
2017-11-16 14:52:22 1510861942.490795: $GPGGA,195221,3946.9572,N,08404.9841,W,2,11,0.80,302.62,M,-33.324,M,,*77
2017-11-16 14:52:22 1510861942.490879: $GPRMC,195221,A,3946.9572,N,08404.9841,W,0.0000,0.000,161117,,*3F
2017-11-16 14:52:22 1510861942.490936: $GPGSA,A,3,8,10,15,18,21,20,24,27,32,14,138,,1.6,0.8,1.3*37
