2018-01-11 19:56:29 1515718589.366811: {"class":"VERSION","release":"3.16","rev":"3.16-4","proto_major":3,"proto_minor":11}
2018-01-11 19:56:29 1515718589.367152: {"class":"DEVICES","devices":[{"class":"DEVICE","path":"/dev/ttyUSB0","driver":"SiRF","subtype":"9\u0006GSD4e_4.1.2-P1_RPATCH.05-F-GPS-4R-1510281 11/03/2015 307","activated":"2018-01-12T00:56:29.271Z","flags":1,"native":1,"bps":4800,"parity":"N","stopbits":1,"cycle":1.00}]}
2018-01-11 19:56:29 1515718589.367267: {"class":"WATCH","enable":true,"json":false,"nmea":true,"raw":0,"scaled":false,"timing":false,"split24":false,"pps":false}
2018-01-11 19:56:29 1515718589.720955: $GPGSV,3,1,11,07,49,312,44,08,68,148,46,09,52,238,43,11,14,169,37*77
2018-01-11 19:56:29 1515718589.721140: $GPGSV,3,2,11,16,28,057,47,23,36,192,48,27,52,060,52,30,23,304,33*70
2018-01-11 19:56:29 1515718589.721205: $GPGSV,3,3,11,28,09,253,27,26,03,069,02,138,38,213,46*72
2018-01-11 19:56:29 1515718589.834363: $GPZDA,005630.00,12,01,2018,00,00*6F
2018-01-11 19:56:29 1515718589.834481: $GPGGA,005630,3946.9588,N,08404.9824,W,2,10,0.80,298.95,M,-33.324,M,,*76
2018-01-11 19:56:29 1515718589.834545: $GPRMC,005630,A,3946.9588,N,08404.9824,W,0.0000,0.000,120118,,*3F
2018-01-11 19:56:29 1515718589.834604: $GPGSA,A,3,7,8,9,11,16,23,27,30,28,138,,,4.0,0.8,3.5*3E
2018-01-11 19:56:30 1515718590.381490: $GPZDA,005631.00,12,01,2018,00,00*6E
2018-01-11 19:56:30 1515718590.381662: $GPGGA,005631,3946.9588,N,08404.9824,W,2,10,0.80,298.95,M,-33.324,M,,*77
2018-01-11 19:56:30 1515718590.381729: $GPRMC,005631,A,3946.9588,N,08404.9824,W,0.0000,0.000,120118,,*3E
2018-01-11 19:56:30 1515718590.381789: $GPGSA,A,3,7,8,9,11,16,23,27,30,28,138,,,4.0,0.8,3.5*3E
2018-01-11 19:56:31 1515718591.385066: $GPZDA,005632.00,12,01,2018,00,00*6D
2018-01-11 19:56:31 1515718591.385233: $GPGGA,005632,3946.9588,N,08404.9824,W,2,10,0.80,298.95,M,-33.324,M,,*74
2018-01-11 19:56:31 1515718591.385300: $GPRMC,005632,A,3946.9588,N,08404.9824,W,0.0000,0.000,120118,,*3D
2018-01-11 19:56:31 1515718591.385360: $GPGSA,A,3,7,8,9,11,16,23,27,30,28,138,,,4.0,0.8,3.5*3E
2018-01-11 19:56:31 1515718591.385418: $GPGBS,005632,3.65,M,6.21,M,20.10,M*0A
2018-01-11 19:56:32 1515718592.718642: $GPGSV,3,1,11,07,49,312,44,08,68,148,46,09,52,238,43,11,14,169,37*77
2018-01-11 19:56:32 1515718592.718806: $GPGSV,3,2,11,16,28,057,47,23,36,192,48,27,52,060,52,30,23,304,32*71
2018-01-11 19:56:32 1515718592.718872: $GPGSV,3,3,11,28,09,253,27,26,03,069,00,138,38,213,46*70
2018-01-11 19:56:32 1515718592.831992: $GPZDA,005633.00,12,01,2018,00,00*6C
2018-01-11 19:56:32 1515718592.832168: $GPGGA,005633,3946.9588,N,08404.9824,W,2,10,0.80,298.95,M,-33.324,M,,*75
2018-01-11 19:56:32 1515718592.832253: $GPRMC,005633,A,3946.9588,N,08404.9824,W,0.0000,0.000,120118,,*3C
2018-01-11 19:56:32 1515718592.832316: $GPGSA,A,3,7,8,9,11,16,23,27,30,28,138,,,4.0,0.8,3.5*3E
2018-01-11 19:56:33 1515718593.380669: $GPZDA,005634.00,12,01,2018,00,00*6B
2018-01-11 19:56:33 1515718593.380840: $GPGGA,005634,3946.9588,N,08404.9831,W,2,10,0.80,298.88,M,-33.324,M,,*7A
2018-01-11 19:56:33 1515718593.380906: $GPRMC,005634,A,3946.9588,N,08404.9831,W,0.0000,0.000,120118,,*3F
2018-01-11 19:56:33 1515718593.380967: $GPGSA,A,3,7,8,9,11,16,23,27,30,28,138,,,4.0,0.8,3.5*3E
2018-01-11 19:56:34 1515718594.380427: $GPZDA,005635.00,12,01,2018,00,00*6A
2018-01-11 19:56:34 1515718594.380623: $GPGGA,005635,3946.9588,N,08404.9837,W,2,10,0.80,297.39,M,-33.324,M,,*78
2018-01-11 19:56:34 1515718594.380720: $GPRMC,005635,A,3946.9588,N,08404.9837,W,0.0000,0.000,120118,,*38
2018-01-11 19:56:34 1515718594.380782: $GPGSA,A,3,7,8,9,11,16,23,27,30,28,138,,,4.0,0.8,3.5*3E
2018-01-11 19:56:35 1515718595.714560: $GPGSV,3,1,11,07,49,312,43,08,68,148,45,09,52,238,43,11,14,169,36*72
2018-01-11 19:56:35 1515718595.714734: $GPGSV,3,2,11,16,28,057,46,23,36,192,47,27,52,060,51,30,23,304,29*76
2018-01-11 19:56:35 1515718595.714801: $GPGSV,3,3,11,28,09,253,28,26,03,069,00,138,38,213,44*7D
2018-01-11 19:56:35 1515718595.827891: $GPZDA,005636.00,12,01,2018,00,00*69
2018-01-11 19:56:35 1515718595.828034: $GPGGA,005636,3946.9591,N,08404.9843,W,2,10,0.80,295.14,M,-33.324,M,,*7D
2018-01-11 19:56:35 1515718595.828155: $GPRMC,005636,A,3946.9591,N,08404.9843,W,0.2422,273.794,120118,,*3A
2018-01-11 19:56:35 1515718595.828217: $GPGSA,A,3,7,8,9,11,16,23,27,30,28,138,,,4.0,0.8,3.5*3E
2018-01-11 19:56:36 1515718596.380061: $GPZDA,005637.00,12,01,2018,00,00*68
2018-01-11 19:56:36 1515718596.380227: $GPGGA,005637,3946.9591,N,08404.9843,W,2,10,0.80,295.14,M,-33.324,M,,*7C
2018-01-11 19:56:36 1515718596.380312: $GPRMC,005637,A,3946.9591,N,08404.9843,W,0.0000,0.000,120118,,*31
2018-01-11 19:56:36 1515718596.380375: $GPGSA,A,3,7,8,9,11,16,23,27,30,28,138,,,4.0,0.8,3.5*3E
2018-01-11 19:56:37 1515718597.384220: $GPZDA,005638.00,12,01,2018,00,00*67
2018-01-11 19:56:37 1515718597.384384: $GPGGA,005638,3946.9591,N,08404.9843,W,2,10,0.80,295.14,M,-33.324,M,,*73
2018-01-11 19:56:37 1515718597.384451: $GPRMC,005638,A,3946.9591,N,08404.9843,W,0.0000,0.000,120118,,*3E
2018-01-11 19:56:37 1515718597.384531: $GPGSA,A,3,7,8,9,11,16,23,27,30,28,138,,,4.0,0.8,3.5*3E
2018-01-11 19:56:38 1515718598.717297: $GPGSV,3,1,11,07,49,312,43,08,68,148,45,09,52,238,43,11,14,169,36*72
2018-01-11 19:56:38 1515718598.717526: $GPGSV,3,2,11,16,28,057,46,23,36,192,47,27,52,060,51,30,23,304,00*7D
2018-01-11 19:56:38 1515718598.717596: $GPGSV,3,3,11,28,09,253,27,26,03,069,10,138,38,213,45*72
2018-01-11 19:56:38 1515718598.830738: $GPZDA,005639.00,12,01,2018,00,00*66
2018-01-11 19:56:38 1515718598.830866: $GPGGA,005639,3946.9590,N,08404.9841,W,2,09,1.00,292.34,M,-33.324,M,,*75
2018-01-11 19:56:38 1515718598.830931: $GPRMC,005639,A,3946.9590,N,08404.9841,W,0.0000,0.000,120118,,*3C
2018-01-11 19:56:38 1515718598.830992: $GPGSA,A,3,7,8,9,11,16,23,27,28,138,,,,4.0,1.0,3.5*34
2018-01-11 19:56:39 1515718599.382882: $GPZDA,005640.00,12,01,2018,00,00*68
2018-01-11 19:56:39 1515718599.383049: $GPGGA,005640,3946.9590,N,08404.9841,W,2,09,1.00,292.34,M,-33.324,M,,*7B
2018-01-11 19:56:39 1515718599.383114: $GPRMC,005640,A,3946.9590,N,08404.9841,W,0.0000,0.000,120118,,*32
2018-01-11 19:56:39 1515718599.383174: $GPGSA,A,3,7,8,9,11,16,23,27,28,138,,,,4.0,1.0,3.5*34
