2017-12-29 11:45:25 1514565925.468467: {"class":"VERSION","release":"3.16","rev":"3.16-4","proto_major":3,"proto_minor":11}
2017-12-29 11:45:25 1514565925.468863: {"class":"DEVICES","devices":[{"class":"DEVICE","path":"/dev/ttyUSB0","driver":"SiRF","subtype":"9\u0006GSD4e_4.1.2-P1_RPATCH.05-F-GPS-4R-1510281 11/03/2015 307","activated":"2017-12-29T16:45:25.413Z","flags":1,"native":1,"bps":4800,"parity":"N","stopbits":1,"cycle":1.00}]}
2017-12-29 11:45:25 1514565925.468978: {"class":"WATCH","enable":true,"json":false,"nmea":true,"raw":0,"scaled":false,"timing":false,"split24":false,"pps":false}
2017-12-29 11:45:26 1514565926.209146: $GPGSV,3,1,11,10,52,312,45,14,13,240,32,15,26,057,46,18,77,022,45*74
2017-12-29 11:45:26 1514565926.209325: $GPGSV,3,2,11,20,25,105,48,21,49,183,46,24,53,087,51,27,16,277,31*7A
2017-12-29 11:45:26 1514565926.209391: $GPGSV,3,3,11,32,32,247,36,08,08,312,35,138,38,213,44*7A
2017-12-29 11:45:26 1514565926.322616: $GPZDA,164526.00,29,12,2017,00,00*68
2017-12-29 11:45:26 1514565926.322804: $GPGGA,164526,3946.9595,N,08404.9858,W,2,11,0.80,309.87,M,-33.324,M,,*78
2017-12-29 11:45:26 1514565926.322871: $GPRMC,164526,A,3946.9595,N,08404.9858,W,0.0000,0.000,291217,,*3F
2017-12-29 11:45:26 1514565926.322931: $GPGSA,A,3,10,14,15,18,20,21,24,27,32,8,138,,1.7,0.8,1.3*36
2017-12-29 11:45:26 1514565926.773438: $GPZDA,164527.00,29,12,2017,00,00*69
2017-12-29 11:45:26 1514565926.773631: $GPGGA,164527,3946.9595,N,08404.9858,W,2,11,0.80,309.87,M,-33.324,M,,*79
2017-12-29 11:45:26 1514565926.773716: $GPRMC,164527,A,3946.9595,N,08404.9858,W,0.0000,0.000,291217,,*3E
2017-12-29 11:45:26 1514565926.773778: $GPGSA,A,3,10,14,15,18,20,21,24,27,32,8,138,,1.7,0.8,1.3*36
2017-12-29 11:45:27 1514565927.380605: $GPZDA,164528.00,29,12,2017,00,00*66
2017-12-29 11:45:27 1514565927.380801: $GPGGA,164528,3946.9595,N,08404.9858,W,2,11,0.80,309.87,M,-33.324,M,,*76
2017-12-29 11:45:27 1514565927.380868: $GPRMC,164528,A,3946.9595,N,08404.9858,W,0.0000,0.000,291217,,*31
2017-12-29 11:45:27 1514565927.380928: $GPGSA,A,3,10,14,15,18,20,21,24,27,32,8,138,,1.7,0.8,1.3*36
2017-12-29 11:45:28 1514565928.719502: $GPGSV,3,1,11,10,52,312,45,14,13,240,33,15,26,057,46,18,77,022,44*74
2017-12-29 11:45:28 1514565928.719711: $GPGSV,3,2,11,20,25,105,48,21,49,183,46,24,53,087,51,27,16,277,31*7A
2017-12-29 11:45:28 1514565928.719779: $GPGSV,3,3,11,32,32,247,36,08,08,312,36,138,38,213,45*78
2017-12-29 11:45:28 1514565928.832906: $GPZDA,164529.00,29,12,2017,00,00*67
2017-12-29 11:45:28 1514565928.833037: $GPGGA,164529,3946.9595,N,08404.9858,W,2,11,0.80,309.87,M,-33.324,M,,*77
2017-12-29 11:45:28 1514565928.833102: $GPRMC,164529,A,3946.9595,N,08404.9858,W,0.0000,0.000,291217,,*30
2017-12-29 11:45:28 1514565928.833162: $GPGSA,A,3,10,14,15,18,20,21,24,27,32,8,138,,1.7,0.8,1.3*36
2017-12-29 11:45:29 1514565929.367537: $GPZDA,164530.00,29,12,2017,00,00*6F
2017-12-29 11:45:29 1514565929.367719: $GPGGA,164530,3946.9595,N,08404.9858,W,2,11,0.80,309.87,M,-33.324,M,,*7F
2017-12-29 11:45:29 1514565929.367786: $GPRMC,164530,A,3946.9595,N,08404.9858,W,0.0000,0.000,291217,,*38
2017-12-29 11:45:29 1514565929.367847: $GPGSA,A,3,10,14,15,18,20,21,24,27,32,8,138,,1.7,0.8,1.3*36
2017-12-29 11:45:30 1514565930.368408: $GPZDA,164531.00,29,12,2017,00,00*6E
2017-12-29 11:45:30 1514565930.368598: $GPGGA,164531,3946.9595,N,08404.9858,W,2,11,0.80,309.87,M,-33.324,M,,*7E
2017-12-29 11:45:30 1514565930.368683: $GPRMC,164531,A,3946.9595,N,08404.9858,W,0.0000,0.000,291217,,*39
2017-12-29 11:45:30 1514565930.368745: $GPGSA,A,3,10,14,15,18,20,21,24,27,32,8,138,,1.7,0.8,1.3*36
2017-12-29 11:45:31 1514565931.705360: $GPGSV,3,1,11,10,52,312,45,14,13,240,33,15,26,057,46,18,77,022,44*74
2017-12-29 11:45:31 1514565931.705554: $GPGSV,3,2,11,20,25,105,48,21,49,183,46,24,53,087,51,27,16,277,31*7A
2017-12-29 11:45:31 1514565931.705622: $GPGSV,3,3,11,32,32,247,36,08,08,312,35,138,38,213,45*7B
2017-12-29 11:45:31 1514565931.818754: $GPZDA,164532.00,29,12,2017,00,00*6D
2017-12-29 11:45:31 1514565931.818898: $GPGGA,164532,3946.9595,N,08404.9858,W,2,11,0.80,309.87,M,-33.324,M,,*7D
2017-12-29 11:45:31 1514565931.819013: $GPRMC,164532,A,3946.9595,N,08404.9858,W,0.0000,0.000,291217,,*3A
2017-12-29 11:45:31 1514565931.819076: $GPGSA,A,3,10,14,15,18,20,21,24,27,32,8,138,,1.7,0.8,1.3*36
2017-12-29 11:45:32 1514565932.367106: $GPZDA,164533.00,29,12,2017,00,00*6C
2017-12-29 11:45:32 1514565932.367264: $GPGGA,164533,3946.9595,N,08404.9858,W,2,11,0.80,309.87,M,-33.324,M,,*7C
2017-12-29 11:45:32 1514565932.367331: $GPRMC,164533,A,3946.9595,N,08404.9858,W,0.0000,0.000,291217,,*3B
2017-12-29 11:45:32 1514565932.367392: $GPGSA,A,3,10,14,15,18,20,21,24,27,32,8,138,,1.7,0.8,1.3*36
2017-12-29 11:45:33 1514565933.366227: $GPZDA,164534.00,29,12,2017,00,00*6B
2017-12-29 11:45:33 1514565933.366387: $GPGGA,164534,3946.9595,N,08404.9858,W,2,11,0.80,309.87,M,-33.324,M,,*7B
2017-12-29 11:45:33 1514565933.366452: $GPRMC,164534,A,3946.9595,N,08404.9858,W,0.0000,0.000,291217,,*3C
2017-12-29 11:45:33 1514565933.366534: $GPGSA,A,3,10,14,15,18,20,21,24,27,32,8,138,,1.7,0.8,1.3*36
2017-12-29 11:45:34 1514565934.704451: $GPGSV,3,1,11,10,52,312,45,14,13,240,33,15,26,057,46,18,77,022,44*74
2017-12-29 11:45:34 1514565934.704698: $GPGSV,3,2,11,20,25,105,48,21,49,183,46,24,53,087,51,27,16,277,30*7B
2017-12-29 11:45:34 1514565934.704771: $GPGSV,3,3,11,32,32,247,37,08,08,312,36,138,38,213,44*78
2017-12-29 11:45:34 1514565934.816606: $GPZDA,164535.00,29,12,2017,00,00*6A
2017-12-29 11:45:34 1514565934.816776: $GPGGA,164535,3946.9595,N,08404.9858,W,2,11,0.80,309.87,M,-33.324,M,,*7A
2017-12-29 11:45:34 1514565934.816842: $GPRMC,164535,A,3946.9595,N,08404.9858,W,0.0000,0.000,291217,,*3D
2017-12-29 11:45:34 1514565934.816902: $GPGSA,A,3,10,14,15,18,20,21,24,27,32,8,138,,1.7,0.8,1.3*36
2017-12-29 11:45:35 1514565935.368786: $GPZDA,164536.00,29,12,2017,00,00*69
2017-12-29 11:45:35 1514565935.368951: $GPGGA,164536,3946.9595,N,08404.9858,W,2,11,0.80,309.87,M,-33.324,M,,*79
2017-12-29 11:45:35 1514565935.369017: $GPRMC,164536,A,3946.9595,N,08404.9858,W,0.0000,0.000,291217,,*3E
2017-12-29 11:45:35 1514565935.369078: $GPGSA,A,3,10,14,15,18,20,21,24,27,32,8,138,,1.7,0.8,1.3*36
2017-12-29 11:45:36 1514565936.367119: $GPZDA,164537.00,29,12,2017,00,00*68
2017-12-29 11:45:36 1514565936.367287: $GPGGA,164537,3946.9595,N,08404.9858,W,2,11,0.80,309.87,M,-33.324,M,,*78
2017-12-29 11:45:36 1514565936.367353: $GPRMC,164537,A,3946.9595,N,08404.9858,W,0.0000,0.000,291217,,*3F
2017-12-29 11:45:36 1514565936.367414: $GPGSA,A,3,10,14,15,18,20,21,24,27,32,8,138,,1.7,0.8,1.3*36
2017-12-29 11:45:37 1514565937.704055: $GPGSV,3,1,11,10,52,312,45,14,13,240,34,15,26,057,47,18,77,022,44*72
2017-12-29 11:45:37 1514565937.704231: $GPGSV,3,2,11,20,25,105,48,21,49,183,46,24,53,087,51,27,16,277,26*7C
2017-12-29 11:45:37 1514565937.704296: $GPGSV,3,3,11,32,32,247,36,08,08,312,35,138,38,213,44*7A
2017-12-29 11:45:37 1514565937.817493: $GPZDA,164538.00,29,12,2017,00,00*67
2017-12-29 11:45:37 1514565937.817656: $GPGGA,164538,3946.9595,N,08404.9858,W,2,11,0.80,309.87,M,-33.324,M,,*77
2017-12-29 11:45:37 1514565937.817723: $GPRMC,164538,A,3946.9595,N,08404.9858,W,0.0000,0.000,291217,,*30
2017-12-29 11:45:37 1514565937.817784: $GPGSA,A,3,10,14,15,18,20,21,24,27,32,8,138,,1.7,0.8,1.3*36
2017-12-29 11:45:38 1514565938.442860: $GPZDA,164539.00,29,12,2017,00,00*66
2017-12-29 11:45:38 1514565938.443029: $GPGGA,164539,3946.9595,N,08404.9858,W,2,11,0.80,309.87,M,-33.324,M,,*76
2017-12-29 11:45:38 1514565938.443095: $GPRMC,164539,A,3946.9595,N,08404.9858,W,0.0000,0.000,291217,,*31
2017-12-29 11:45:38 1514565938.443156: $GPGSA,A,3,10,14,15,18,20,21,24,27,32,8,138,,1.7,0.8,1.3*36
2017-12-29 11:45:39 1514565939.363822: $GPZDA,164540.00,29,12,2017,00,00*68
2017-12-29 11:45:39 1514565939.363994: $GPGGA,164540,3946.9595,N,08404.9858,W,2,11,0.80,309.87,M,-33.324,M,,*78
2017-12-29 11:45:39 1514565939.364060: $GPRMC,164540,A,3946.9595,N,08404.9858,W,0.0000,0.000,291217,,*3F
2017-12-29 11:45:39 1514565939.364122: $GPGSA,A,3,10,14,15,18,20,21,24,27,32,8,138,,1.7,0.8,1.3*36
