2017-11-16 17:14:27 1510870467.152534: {"class":"VERSION","release":"3.17","rev":"3.17","proto_major":3,"proto_minor":12}
2017-11-16 17:14:27 1510870467.153068: {"class":"DEVICES","devices":[{"class":"DEVICE","path":"/dev/ttyUSB0","driver":"SiRF","subtype":"9\u0006GSD4e_4.1.2-P1_RPATCH.05-F-GPS-4R-1510281 11/03/2015 307","activated":"2017-11-16T22:14:26.557Z","flags":1,"native":1,"bps":4800,"parity":"N","stopbits":1,"cycle":1.00}]}
2017-11-16 17:14:27 1510870467.153196: {"class":"WATCH","enable":true,"json":false,"nmea":true,"raw":0,"scaled":false,"timing":false,"split24":false,"pps":false}
2017-11-16 17:14:27 1510870467.748160: $GPGSV,3,1,12,01,19,309,42,10,57,142,47,22,12,312,41,12,24,058,49*79
2017-11-16 17:14:27 1510870467.748324: $GPGSV,3,2,12,14,62,310,47,18,26,141,44,24,04,046,08,11,10,289,35*7E
2017-11-16 17:14:27 1510870467.748388: $GPGSV,3,3,12,25,36,102,47,31,46,219,48,32,70,001,48,138,38,213,44*44
2017-11-16 17:14:27 1510870467.861455: $GPZDA,221426.00,16,11,2017,00,00*64
2017-11-16 17:14:27 1510870467.861614: $GPGGA,221426,3946.9568,N,08404.9826,W,2,11,0.80,312.81,M,-33.324,M,,*7C
2017-11-16 17:14:27 1510870467.861677: $GPRMC,221426,A,3946.9568,N,08404.9826,W,0.0000,0.000,161117,,*38
2017-11-16 17:14:27 1510870467.861732: $GPGSA,A,3,1,10,22,12,14,18,11,25,31,32,138,,1.6,0.8,1.3*3E
2017-11-16 17:14:28 1510870468.417312: $GPZDA,221427.00,16,11,2017,00,00*65
2017-11-16 17:14:28 1510870468.417480: $GPGGA,221427,3946.9568,N,08404.9826,W,2,11,0.80,312.81,M,-33.324,M,,*7D
2017-11-16 17:14:28 1510870468.417543: $GPRMC,221427,A,3946.9568,N,08404.9826,W,0.0000,0.000,161117,,*39
2017-11-16 17:14:28 1510870468.417599: $GPGSA,A,3,1,10,22,12,14,18,11,25,31,32,138,,1.6,0.8,1.3*3E
2017-11-16 17:14:29 1510870469.400844: $GPZDA,221428.00,16,11,2017,00,00*6A
2017-11-16 17:14:29 1510870469.401018: $GPGGA,221428,3946.9568,N,08404.9826,W,2,11,0.80,312.81,M,-33.324,M,,*72
2017-11-16 17:14:29 1510870469.401085: $GPRMC,221428,A,3946.9568,N,08404.9826,W,0.0000,0.000,161117,,*36
2017-11-16 17:14:29 1510870469.401141: $GPGSA,A,3,1,10,22,12,14,18,11,25,31,32,138,,1.6,0.8,1.3*3E
2017-11-16 17:14:30 1510870470.737718: $GPGSV,3,1,12,01,19,309,42,10,57,142,47,22,12,312,42,12,24,058,49*7A
2017-11-16 17:14:30 1510870470.737896: $GPGSV,3,2,12,14,62,310,48,18,26,141,44,24,04,046,17,11,10,289,36*7C
2017-11-16 17:14:30 1510870470.737957: $GPGSV,3,3,12,25,36,102,47,31,46,219,48,32,70,001,48,138,38,213,44*44
2017-11-16 17:14:30 1510870470.850973: $GPZDA,221429.00,16,11,2017,00,00*6B
2017-11-16 17:14:30 1510870470.851148: $GPGGA,221429,3946.9568,N,08404.9826,W,2,12,0.80,312.81,M,-33.324,M,,*70
2017-11-16 17:14:30 1510870470.851216: $GPRMC,221429,A,3946.9568,N,08404.9826,W,0.0000,0.000,161117,,*37
2017-11-16 17:14:30 1510870470.851272: $GPGSA,A,3,1,10,22,12,14,18,24,11,25,31,32,138,1.6,0.8,1.3*38
2017-11-16 17:14:31 1510870471.476371: $GPZDA,221430.00,16,11,2017,00,00*63
2017-11-16 17:14:31 1510870471.476538: $GPGGA,221430,3946.9568,N,08404.9826,W,2,12,0.80,312.81,M,-33.324,M,,*78
2017-11-16 17:14:31 1510870471.476599: $GPRMC,221430,A,3946.9568,N,08404.9826,W,0.0000,0.000,161117,,*3F
2017-11-16 17:14:31 1510870471.476655: $GPGSA,A,3,1,10,22,12,14,18,24,11,25,31,32,138,1.6,0.8,1.3*38
2017-11-16 17:14:32 1510870472.399748: $GPZDA,221431.00,16,11,2017,00,00*62
2017-11-16 17:14:32 1510870472.399913: $GPGGA,221431,3946.9568,N,08404.9826,W,2,12,0.80,312.81,M,-33.324,M,,*79
2017-11-16 17:14:32 1510870472.399974: $GPRMC,221431,A,3946.9568,N,08404.9826,W,0.0000,0.000,161117,,*3E
2017-11-16 17:14:32 1510870472.400031: $GPGSA,A,3,1,10,22,12,14,18,24,11,25,31,32,138,1.6,0.8,1.3*38
2017-11-16 17:14:33 1510870473.735602: $GPGSV,3,1,12,01,19,309,41,10,57,142,47,22,12,312,42,12,24,058,50*71
2017-11-16 17:14:34 1510870474.159711: $GPGSV,3,2,12,14,62,310,47,18,26,141,43,24,04,046,10,11,10,289,36*73
2017-11-16 17:14:34 1510870474.159856: $GPGSV,3,3,12,25,36,102,46,31,46,219,48,32,70,001,48,138,38,213,43*42
2017-11-16 17:14:34 1510870474.159955: $GPZDA,221432.00,16,11,2017,00,00*61
2017-11-16 17:14:34 1510870474.160009: $GPGGA,221432,3946.9568,N,08404.9826,W,2,12,0.80,312.81,M,-33.324,M,,*7A
2017-11-16 17:14:34 1510870474.160099: $GPRMC,221432,A,3946.9568,N,08404.9826,W,0.0000,0.000,161117,,*3D
2017-11-16 17:14:34 1510870474.160156: $GPGSA,A,3,1,10,22,12,14,18,24,11,25,31,32,138,1.6,0.8,1.3*38
2017-11-16 17:14:34 1510870474.399780: $GPZDA,221433.00,16,11,2017,00,00*60
2017-11-16 17:14:34 1510870474.399943: $GPGGA,221433,3946.9568,N,08404.9826,W,2,12,0.80,312.81,M,-33.324,M,,*7B
2017-11-16 17:14:34 1510870474.400005: $GPRMC,221433,A,3946.9568,N,08404.9826,W,0.0000,0.000,161117,,*3C
2017-11-16 17:14:34 1510870474.400064: $GPGSA,A,3,1,10,22,12,14,18,24,11,25,31,32,138,1.6,0.8,1.3*38
2017-11-16 17:14:35 1510870475.399440: $GPZDA,221434.00,16,11,2017,00,00*67
2017-11-16 17:14:35 1510870475.399598: $GPGGA,221434,3946.9568,N,08404.9826,W,2,12,0.80,312.81,M,-33.324,M,,*7C
2017-11-16 17:14:35 1510870475.399659: $GPRMC,221434,A,3946.9568,N,08404.9826,W,0.0000,0.000,161117,,*3B
2017-11-16 17:14:35 1510870475.399716: $GPGSA,A,3,1,10,22,12,14,18,24,11,25,31,32,138,1.6,0.8,1.3*38
2017-11-16 17:14:36 1510870476.735906: $GPGSV,3,1,12,01,19,309,40,10,57,142,47,22,12,312,42,12,24,058,49*78
2017-11-16 17:14:36 1510870476.736080: $GPGSV,3,2,12,14,62,310,47,18,26,141,44,24,04,046,18,11,10,289,36*7C
2017-11-16 17:14:36 1510870476.736160: $GPGSV,3,3,12,25,36,102,46,31,46,219,48,32,70,001,48,138,38,213,44*45
2017-11-16 17:14:36 1510870476.849314: $GPZDA,221435.00,16,11,2017,00,00*66
2017-11-16 17:14:36 1510870476.849490: $GPGGA,221435,3946.9568,N,08404.9826,W,2,12,0.80,312.81,M,-33.324,M,,*7D
2017-11-16 17:14:36 1510870476.849552: $GPRMC,221435,A,3946.9568,N,08404.9826,W,0.0000,0.000,161117,,*3A
2017-11-16 17:14:36 1510870476.849608: $GPGSA,A,3,1,10,22,12,14,18,24,11,25,31,32,138,1.6,0.8,1.3*38
