2017-11-16 13:53:56 1510858436.317147: {"class":"VERSION","release":"3.17","rev":"3.17","proto_major":3,"proto_minor":12}
2017-11-16 13:53:56 1510858436.317605: {"class":"DEVICES","devices":[{"class":"DEVICE","path":"/dev/ttyUSB0","driver":"SiRF","subtype":"9\u0006GSD4e_4.1.2-P1_RPATCH.05-F-GPS-4R-1510281 11/03/2015 307","activated":"2017-11-16T18:53:56.238Z","flags":1,"native":1,"bps":4800,"parity":"N","stopbits":1,"cycle":1.00}]}
2017-11-16 13:53:56 1510858436.317728: {"class":"WATCH","enable":true,"json":false,"nmea":true,"raw":0,"scaled":false,"timing":false,"split24":false,"pps":false}
2017-11-16 13:53:56 1510858436.351986: $GPZDA,185355.00,16,11,2017,00,00*6A
2017-11-16 13:53:56 1510858436.352183: $GPGGA,185355,3946.9608,N,08404.9834,W,2,11,0.80,307.05,M,-33.324,M,,*7C
2017-11-16 13:53:56 1510858436.352270: $GPRMC,185355,A,3946.9608,N,08404.9834,W,0.0000,0.000,161117,,*30
2017-11-16 13:53:56 1510858436.352328: $GPGSA,A,3,10,13,15,18,20,21,24,27,32,8,138,,1.6,0.8,1.3*30
2017-11-16 13:53:57 1510858437.381523: $GPZDA,185356.00,16,11,2017,00,00*69
2017-11-16 13:53:57 1510858437.381700: $GPGGA,185356,3946.9608,N,08404.9834,W,2,11,0.80,307.05,M,-33.324,M,,*7F
2017-11-16 13:53:57 1510858437.381764: $GPRMC,185356,A,3946.9608,N,08404.9834,W,0.0000,0.000,161117,,*33
2017-11-16 13:53:57 1510858437.381820: $GPGSA,A,3,10,13,15,18,20,21,24,27,32,8,138,,1.6,0.8,1.3*30
2017-11-16 13:53:58 1510858438.693443: $GPGSV,3,1,11,10,34,294,41,13,16,046,44,15,47,049,51,18,64,318,48*73
2017-11-16 13:53:58 1510858438.693630: $GPGSV,3,2,11,20,40,087,48,21,73,205,48,24,45,124,46,27,19,300,30*7E
2017-11-16 13:53:58 1510858438.693690: $GPGSV,3,3,11,32,12,232,38,08,02,328,22,138,38,213,44*71
2017-11-16 13:53:58 1510858438.806623: $GPZDA,185357.00,16,11,2017,00,00*68
2017-11-16 13:53:58 1510858438.806801: $GPGGA,185357,3946.9608,N,08404.9834,W,2,11,0.80,307.05,M,-33.324,M,,*7E
2017-11-16 13:53:58 1510858438.806864: $GPRMC,185357,A,3946.9608,N,08404.9834,W,0.0000,0.000,161117,,*32
2017-11-16 13:53:58 1510858438.806919: $GPGSA,A,3,10,13,15,18,20,21,24,27,32,8,138,,1.6,0.8,1.3*30
2017-11-16 13:53:59 1510858439.357520: $GPZDA,185358.00,16,11,2017,00,00*67
2017-11-16 13:53:59 1510858439.357680: $GPGGA,185358,3946.9608,N,08404.9834,W,2,11,0.80,307.05,M,-33.324,M,,*71
2017-11-16 13:53:59 1510858439.357740: $GPRMC,185358,A,3946.9608,N,08404.9834,W,0.0000,0.000,161117,,*3D
2017-11-16 13:53:59 1510858439.357796: $GPGSA,A,3,10,13,15,18,20,21,24,27,32,8,138,,1.6,0.8,1.3*30
2017-11-16 13:54:00 1510858440.382288: $GPZDA,185359.00,16,11,2017,00,00*66
2017-11-16 13:54:00 1510858440.382439: $GPGGA,185359,3946.9608,N,08404.9834,W,2,11,0.80,307.05,M,-33.324,M,,*70
2017-11-16 13:54:00 1510858440.382502: $GPRMC,185359,A,3946.9608,N,08404.9834,W,0.0000,0.000,161117,,*3C
2017-11-16 13:54:00 1510858440.382558: $GPGSA,A,3,10,13,15,18,20,21,24,27,32,8,138,,1.6,0.8,1.3*30
2017-11-16 13:54:01 1510858441.720703: $GPGSV,3,1,11,10,34,294,42,13,16,046,43,15,47,049,51,18,64,318,48*77
2017-11-16 13:54:01 1510858441.720780: $GPGSV,3,2,11,20,40,087,48,21,73,205,48,24,45,124,46,27,19,300,30*7E
2017-11-16 13:54:01 1510858441.720811: $GPGSV,3,3,11,32,12,232,38,08,02,328,16,138,38,213,43*71
2017-11-16 13:54:01 1510858441.832110: $GPZDA,185400.00,16,11,2017,00,00*6D
2017-11-16 13:54:01 1510858441.832221: $GPGGA,185400,3946.9608,N,08404.9834,W,2,11,0.80,307.05,M,-33.324,M,,*7B
2017-11-16 13:54:01 1510858441.832252: $GPRMC,185400,A,3946.9608,N,08404.9834,W,0.0000,0.000,161117,,*37
2017-11-16 13:54:01 1510858441.832280: $GPGSA,A,3,10,13,15,18,20,21,24,27,32,8,138,,1.6,0.8,1.3*30
2017-11-16 13:54:02 1510858442.458103: $GPZDA,185401.00,16,11,2017,00,00*6C
2017-11-16 13:54:02 1510858442.458260: $GPGGA,185401,3946.9608,N,08404.9834,W,2,11,0.80,307.05,M,-33.324,M,,*7A
2017-11-16 13:54:02 1510858442.458321: $GPRMC,185401,A,3946.9608,N,08404.9834,W,0.0000,0.000,161117,,*36
2017-11-16 13:54:02 1510858442.458377: $GPGSA,A,3,10,13,15,18,20,21,24,27,32,8,138,,1.6,0.8,1.3*30
2017-11-16 13:54:03 1510858443.384033: $GPZDA,185402.00,16,11,2017,00,00*6F
2017-11-16 13:54:03 1510858443.384195: $GPGGA,185402,3946.9608,N,08404.9834,W,2,11,0.80,307.05,M,-33.324,M,,*79
2017-11-16 13:54:03 1510858443.384307: $GPRMC,185402,A,3946.9608,N,08404.9834,W,0.0000,0.000,161117,,*35
2017-11-16 13:54:03 1510858443.384364: $GPGSA,A,3,10,13,15,18,20,21,24,27,32,8,138,,1.6,0.8,1.3*30
2017-11-16 13:54:04 1510858444.693652: $GPGSV,3,1,11,10,34,294,41,13,16,046,43,15,47,049,51,18,64,318,48*74
2017-11-16 13:54:04 1510858444.693822: $GPGSV,3,2,11,20,40,087,48,21,73,205,48,24,45,124,45,27,19,300,35*78
2017-11-16 13:54:04 1510858444.693885: $GPGSV,3,3,11,32,12,232,38,08,02,328,14,138,38,213,43*73
2017-11-16 13:54:04 1510858444.806998: $GPZDA,185403.00,16,11,2017,00,00*6E
2017-11-16 13:54:04 1510858444.807134: $GPGGA,185403,3946.9608,N,08404.9834,W,2,11,0.80,307.05,M,-33.324,M,,*78
2017-11-16 13:54:04 1510858444.807196: $GPRMC,185403,A,3946.9608,N,08404.9834,W,0.0000,0.000,161117,,*34
2017-11-16 13:54:04 1510858444.807251: $GPGSA,A,3,10,13,15,18,20,21,24,27,32,8,138,,1.6,0.8,1.3*30
2017-11-16 13:54:05 1510858445.355975: $GPZDA,185404.00,16,11,2017,00,00*69
2017-11-16 13:54:05 1510858445.356111: $GPGGA,185404,3946.9608,N,08404.9834,W,2,11,0.80,307.05,M,-33.324,M,,*7F
2017-11-16 13:54:05 1510858445.356144: $GPRMC,185404,A,3946.9608,N,08404.9834,W,0.0000,0.000,161117,,*33
2017-11-16 13:54:05 1510858445.356173: $GPGSA,A,3,10,13,15,18,20,21,24,27,32,8,138,,1.6,0.8,1.3*30
