2017-11-15 19:49:18 1510793358.633886: {"class":"VERSION","release":"3.17","rev":"3.17","proto_major":3,"proto_minor":12}
2017-11-15 19:49:18 1510793358.634381: {"class":"DEVICES","devices":[{"class":"DEVICE","path":"/dev/ttyUSB0","driver":"SiRF","subtype":"9\u0006GSD4e_4.1.2-P1_RPATCH.05-F-GPS-4R-1510281 11/03/2015 307","activated":"2017-11-16T00:49:18.216Z","flags":1,"native":1,"bps":4800,"parity":"N","stopbits":1,"cycle":1.00}]}
2017-11-15 19:49:18 1510793358.634504: {"class":"WATCH","enable":true,"json":false,"nmea":true,"raw":0,"scaled":false,"timing":false,"split24":false,"pps":false}
2017-11-15 19:49:18 1510793358.665814: $GPGSV,3,1,12,32,29,114,23,16,31,190,24,31,61,037,18,26,62,168,17*7D
2017-11-15 19:49:18 1510793358.665984: $GPGSV,3,2,12,14,48,103,10,22,49,256,19,29,13,063,00,23,18,304,18*7F
2017-11-15 19:49:18 1510793358.666045: $GPGSV,3,3,12,03,43,289,17,25,10,037,00,01,01,246,00,135,23,238,00*46
2017-11-15 19:49:18 1510793358.779120: $GPZDA,004917.00,16,11,2017,00,00*6E
2017-11-15 19:49:18 1510793358.779278: $GPGGA,004917,3946.9482,N,08404.9472,W,1,08,1.00,320.86,M,-33.324,M,,*7A
2017-11-15 19:49:18 1510793358.779340: $GPRMC,004917,A,3946.9482,N,08404.9472,W,1.1323,158.868,161117,,*32
2017-11-15 19:49:18 1510793358.779396: $GPGSA,A,3,32,16,31,26,14,22,23,3,,,,,3.4,1.0,2.9*08
2017-11-15 19:49:19 1510793359.330221: $GPZDA,004918.00,16,11,2017,00,00*61
2017-11-15 19:49:19 1510793359.330388: $GPGGA,004918,3946.9482,N,08404.9465,W,1,08,1.00,320.94,M,-33.324,M,,*70
2017-11-15 19:49:19 1510793359.330450: $GPRMC,004918,A,3946.9482,N,08404.9465,W,1.3084,135.525,161117,,*38
2017-11-15 19:49:19 1510793359.330508: $GPGSA,A,3,32,16,31,26,14,22,23,3,,,,,3.4,1.0,2.9*08
2017-11-15 19:49:20 1510793360.328593: $GPZDA,004919.00,16,11,2017,00,00*60
2017-11-15 19:49:20 1510793360.328767: $GPGGA,004919,3946.9478,N,08404.9465,W,1,08,1.00,320.30,M,-33.324,M,,*7A
2017-11-15 19:49:20 1510793360.328829: $GPRMC,004919,A,3946.9478,N,08404.9465,W,1.4168,152.696,161117,,*32
2017-11-15 19:49:20 1510793360.328886: $GPGSA,A,3,32,16,31,26,14,22,23,3,,,,,3.4,1.0,2.9*08
2017-11-15 19:49:21 1510793361.681267: $GPGSV,3,1,12,32,29,114,23,16,31,190,24,31,61,037,17,26,62,168,18*7D
2017-11-15 19:49:21 1510793361.681434: $GPGSV,3,2,12,14,48,103,10,22,49,256,20,29,13,063,00,23,18,304,18*75
2017-11-15 19:49:21 1510793361.681495: $GPGSV,3,3,12,03,43,289,17,25,10,037,00,01,01,246,00,135,23,238,00*46
2017-11-15 19:49:21 1510793361.794999: $GPZDA,004920.00,16,11,2017,00,00*6A
2017-11-15 19:49:21 1510793361.795160: $GPGGA,004920,3946.9478,N,08404.9465,W,1,08,1.00,320.30,M,-33.324,M,,*70
2017-11-15 19:49:21 1510793361.795222: $GPRMC,004920,A,3946.9478,N,08404.9465,W,1.3082,161.818,161117,,*32
2017-11-15 19:49:21 1510793361.795277: $GPGSA,A,3,32,16,31,26,14,22,23,3,,,,,3.4,1.0,2.9*08
2017-11-15 19:49:22 1510793362.329421: $GPZDA,004921.00,16,11,2017,00,00*6B
2017-11-15 19:49:22 1510793362.329617: $GPGGA,004921,3946.9470,N,08404.9466,W,1,08,1.00,320.42,M,-33.324,M,,*7F
2017-11-15 19:49:22 1510793362.329683: $GPRMC,004921,A,3946.9470,N,08404.9466,W,1.6300,166.404,161117,,*32
2017-11-15 19:49:22 1510793362.329748: $GPGSA,A,3,32,16,31,26,14,22,23,3,,,,,3.4,1.0,2.9*08
2017-11-15 19:49:23 1510793363.328909: $GPZDA,004922.00,16,11,2017,00,00*68
2017-11-15 19:49:23 1510793363.329074: $GPGGA,004922,3946.9466,N,08404.9466,W,1,08,1.00,319.78,M,-33.324,M,,*78
2017-11-15 19:49:23 1510793363.329138: $GPRMC,004922,A,3946.9466,N,08404.9466,W,1.2132,183.552,161117,,*38
2017-11-15 19:49:23 1510793363.329199: $GPGSA,A,3,32,16,31,26,14,22,23,3,,,,,3.4,1.0,2.9*08
2017-11-15 19:49:24 1510793364.665844: $GPGSV,3,1,12,32,29,114,23,16,31,190,24,31,61,037,17,26,62,168,18*7D
2017-11-15 19:49:24 1510793364.666017: $GPGSV,3,2,12,14,48,103,05,22,49,256,21,29,13,063,00,23,18,304,19*71
2017-11-15 19:49:24 1510793364.666080: $GPGSV,3,3,12,03,43,289,17,25,10,037,00,01,01,246,00,135,23,238,00*46
2017-11-15 19:49:24 1510793364.777947: $GPZDA,004923.00,16,11,2017,00,00*69
2017-11-15 19:49:24 1510793364.778083: $GPGGA,004923,3946.9466,N,08404.9466,W,1,08,1.00,319.78,M,-33.324,M,,*79
2017-11-15 19:49:24 1510793364.778193: $GPRMC,004923,A,3946.9466,N,08404.9466,W,1.2361,194.852,161117,,*36
2017-11-15 19:49:24 1510793364.778250: $GPGSA,A,3,32,16,31,26,14,22,23,3,,,,,3.4,1.0,2.9*08
2017-11-15 19:49:25 1510793365.347878: $GPZDA,004924.00,16,11,2017,00,00*6E
2017-11-15 19:49:25 1510793365.348038: $GPGGA,004924,3946.9462,N,08404.9473,W,1,08,1.00,319.06,M,-33.324,M,,*77
2017-11-15 19:49:25 1510793365.348099: $GPRMC,004924,A,3946.9462,N,08404.9473,W,1.2132,183.552,161117,,*3E
2017-11-15 19:49:25 1510793365.348155: $GPGSA,A,3,32,16,31,26,14,22,23,3,,,,,3.4,1.0,2.9*08
2017-11-15 19:49:26 1510793366.347128: $GPZDA,004925.00,16,11,2017,00,00*6F
2017-11-15 19:49:26 1510793366.347290: $GPGGA,004925,3946.9462,N,08404.9473,W,1,08,1.00,319.06,M,-33.324,M,,*76
2017-11-15 19:49:26 1510793366.347369: $GPRMC,004925,A,3946.9462,N,08404.9473,W,0.8709,183.298,161117,,*3B
2017-11-15 19:49:26 1510793366.347428: $GPGSA,A,3,32,16,31,26,14,22,23,3,,,,,3.4,1.0,2.9*08
2017-11-15 19:49:27 1510793367.665198: $GPGSV,3,1,12,32,29,114,23,16,31,190,24,31,61,037,16,26,62,168,19*7D
2017-11-15 19:49:27 1510793367.665365: $GPGSV,3,2,12,14,48,103,10,22,49,256,22,29,13,063,00,23,18,304,19*76
2017-11-15 19:49:27 1510793367.665428: $GPGSV,3,3,12,03,43,289,16,25,10,037,00,01,01,246,00,135,23,238,00*47
2017-11-15 19:49:27 1510793367.778420: $GPZDA,004926.00,16,11,2017,00,00*6C
2017-11-15 19:49:27 1510793367.778603: $GPGGA,004926,3946.9462,N,08404.9473,W,1,08,1.00,319.06,M,-33.324,M,,*75
2017-11-15 19:49:27 1510793367.778690: $GPRMC,004926,A,3946.9462,N,08404.9473,W,0.4179,148.778,161117,,*39
2017-11-15 19:49:27 1510793367.778749: $GPGSA,A,3,32,16,31,26,14,22,23,3,,,,,3.4,1.0,2.9*08
2017-11-15 19:49:28 1510793368.329262: $GPZDA,004927.00,16,11,2017,00,00*6D
2017-11-15 19:49:28 1510793368.329440: $GPGGA,004927,3946.9458,N,08404.9473,W,1,08,1.00,318.42,M,-33.324,M,,*7C
2017-11-15 19:49:28 1510793368.329500: $GPRMC,004927,A,3946.9458,N,08404.9473,W,0.7103,225.706,161117,,*3E
2017-11-15 19:49:28 1510793368.329575: $GPGSA,A,3,32,16,31,26,14,22,23,3,,,,,3.4,1.0,2.9*08
