2017-12-29 11:44:28 1514565868.179969: {"class":"VERSION","release":"3.16","rev":"3.16-4","proto_major":3,"proto_minor":11}
2017-12-29 11:44:28 1514565868.180311: {"class":"DEVICES","devices":[{"class":"DEVICE","path":"/dev/ttyUSB0","driver":"SiRF","subtype":"9\u0006GSD4e_4.1.2-P1_RPATCH.05-F-GPS-4R-1510281 11/03/2015 307","activated":"2017-12-29T16:44:27.688Z","flags":1,"native":1,"bps":4800,"parity":"N","stopbits":1,"cycle":1.00}]}
2017-12-29 11:44:28 1514565868.180428: {"class":"WATCH","enable":true,"json":false,"nmea":true,"raw":0,"scaled":false,"timing":false,"split24":false,"pps":false}
2017-12-29 11:44:28 1514565868.696964: $GPGSV,3,1,11,10,52,310,45,14,13,238,34,15,26,057,46,18,77,019,45*77
2017-12-29 11:44:28 1514565868.697152: $GPGSV,3,2,11,20,25,105,49,21,50,183,48,24,53,088,53,27,16,277,40*76
2017-12-29 11:44:28 1514565868.697217: $GPGSV,3,3,11,32,31,247,37,08,08,312,36,138,38,213,46*79
2017-12-29 11:44:28 1514565868.810576: $GPZDA,164429.02,29,12,2017,00,00*64
2017-12-29 11:44:28 1514565868.810707: $GPGGA,164429,3946.9617,N,08404.9885,W,2,11,0.80,312.75,M,-33.324,M,,*78
2017-12-29 11:44:28 1514565868.810773: $GPRMC,164429,A,3946.9617,N,08404.9885,W,0.0000,0.000,291217,,*38
2017-12-29 11:44:28 1514565868.810832: $GPGSA,A,3,10,14,15,18,20,21,24,27,32,8,138,,1.7,0.8,1.3*36
2017-12-29 11:44:29 1514565869.362479: $GPZDA,164430.00,29,12,2017,00,00*6E
2017-12-29 11:44:29 1514565869.362660: $GPGGA,164430,3946.9617,N,08404.9885,W,2,11,0.80,312.75,M,-33.324,M,,*70
2017-12-29 11:44:29 1514565869.362728: $GPRMC,164430,A,3946.9617,N,08404.9885,W,0.0000,0.000,291217,,*30
2017-12-29 11:44:29 1514565869.362790: $GPGSA,A,3,10,14,15,18,20,21,24,27,32,8,138,,1.7,0.8,1.3*36
2017-12-29 11:44:30 1514565870.362400: $GPZDA,164431.00,29,12,2017,00,00*6F
2017-12-29 11:44:30 1514565870.362561: $GPGGA,164431,3946.9617,N,08404.9885,W,2,11,0.80,312.75,M,-33.324,M,,*71
2017-12-29 11:44:30 1514565870.362629: $GPRMC,164431,A,3946.9617,N,08404.9885,W,0.0000,0.000,291217,,*31
2017-12-29 11:44:30 1514565870.362689: $GPGSA,A,3,10,14,15,18,20,21,24,27,32,8,138,,1.7,0.8,1.3*36
2017-12-29 11:44:31 1514565871.700316: $GPGSV,3,1,11,10,52,310,45,14,13,238,30,15,26,057,46,18,77,019,44*72
2017-12-29 11:44:31 1514565871.700497: $GPGSV,3,2,11,20,25,105,49,21,50,183,48,24,53,088,53,27,16,277,40*76
2017-12-29 11:44:31 1514565871.700563: $GPGSV,3,3,11,32,31,247,37,08,08,312,37,138,38,213,47*79
2017-12-29 11:44:31 1514565871.813924: $GPZDA,164432.00,29,12,2017,00,00*6C
2017-12-29 11:44:31 1514565871.814058: $GPGGA,164432,3946.9617,N,08404.9885,W,2,11,0.80,312.75,M,-33.324,M,,*72
2017-12-29 11:44:31 1514565871.814124: $GPRMC,164432,A,3946.9617,N,08404.9885,W,0.0000,0.000,291217,,*32
2017-12-29 11:44:31 1514565871.814184: $GPGSA,A,3,10,14,15,18,20,21,24,27,32,8,138,,1.7,0.8,1.3*36
2017-12-29 11:44:32 1514565872.364814: $GPZDA,164433.00,29,12,2017,00,00*6D
2017-12-29 11:44:32 1514565872.364996: $GPGGA,164433,3946.9617,N,08404.9885,W,2,11,0.80,312.75,M,-33.324,M,,*73
2017-12-29 11:44:32 1514565872.365063: $GPRMC,164433,A,3946.9617,N,08404.9885,W,0.0000,0.000,291217,,*33
2017-12-29 11:44:32 1514565872.365126: $GPGSA,A,3,10,14,15,18,20,21,24,27,32,8,138,,1.7,0.8,1.3*36
2017-12-29 11:44:33 1514565873.364177: $GPZDA,164434.00,29,12,2017,00,00*6A
2017-12-29 11:44:33 1514565873.364344: $GPGGA,164434,3946.9614,N,08404.9886,W,2,11,0.80,313.52,M,-33.324,M,,*70
2017-12-29 11:44:33 1514565873.364412: $GPRMC,164434,A,3946.9614,N,08404.9886,W,0.0000,0.000,291217,,*34
2017-12-29 11:44:33 1514565873.364474: $GPGSA,A,3,10,14,15,18,20,21,24,27,32,8,138,,1.7,0.8,1.3*36
2017-12-29 11:44:34 1514565874.698178: $GPGSV,3,1,11,10,52,310,13,14,13,238,09,15,26,057,14,18,77,019,13*7E
2017-12-29 11:44:34 1514565874.698372: $GPGSV,3,2,11,20,25,105,14,21,50,183,14,24,53,088,16,27,16,277,12*71
2017-12-29 11:44:34 1514565874.698438: $GPGSV,3,3,11,32,31,247,11,08,08,312,11,138,38,213,15*7E
2017-12-29 11:44:34 1514565874.811863: $GPZDA,164435.00,29,12,2017,00,00*6B
2017-12-29 11:44:34 1514565874.812005: $GPGGA,164435,3946.9618,N,08404.9879,W,2,11,0.80,314.24,M,-33.324,M,,*7B
2017-12-29 11:44:34 1514565874.812151: $GPRMC,164435,A,3946.9618,N,08404.9879,W,0.0000,0.000,291217,,*39
2017-12-29 11:44:34 1514565874.812215: $GPGSA,A,3,10,14,15,18,20,21,24,27,32,8,138,,1.7,0.8,1.3*36
2017-12-29 11:44:35 1514565875.366703: $GPZDA,164436.00,29,12,2017,00,00*68
2017-12-29 11:44:35 1514565875.366922: $GPGGA,164436,3946.9614,N,08404.9879,W,2,11,0.80,313.60,M,-33.324,M,,*73
2017-12-29 11:44:35 1514565875.366997: $GPRMC,164436,A,3946.9614,N,08404.9879,W,0.0000,0.000,291217,,*36
2017-12-29 11:44:35 1514565875.367059: $GPGSA,A,3,10,14,15,18,20,21,24,27,32,8,138,,1.7,0.8,1.3*36
2017-12-29 11:44:36 1514565876.360788: $GPZDA,164437.00,29,12,2017,00,00*69
2017-12-29 11:44:36 1514565876.360981: $GPGGA,164437,3946.9617,N,08404.9885,W,2,11,0.80,311.35,M,-33.324,M,,*70
2017-12-29 11:44:36 1514565876.361133: $GPRMC,164437,A,3946.9617,N,08404.9885,W,0.1567,9.200,291217,,*39
2017-12-29 11:44:36 1514565876.361198: $GPGSA,A,3,10,14,15,18,20,21,24,27,32,8,138,,1.7,0.8,1.3*36
2017-12-29 11:44:37 1514565877.697915: $GPGSV,3,1,11,10,52,310,44,14,13,238,29,15,26,057,46,18,77,019,44*7B
2017-12-29 11:44:37 1514565877.698100: $GPGSV,3,2,11,20,25,105,48,21,50,183,47,24,53,088,51,27,16,277,40*7A
2017-12-29 11:44:37 1514565877.698166: $GPGSV,3,3,11,32,31,247,38,08,08,312,38,138,38,213,45*7B
2017-12-29 11:44:37 1514565877.811580: $GPZDA,164438.00,29,12,2017,00,00*66
2017-12-29 11:44:37 1514565877.811767: $GPGGA,164438,3946.9617,N,08404.9885,W,2,11,0.80,311.35,M,-33.324,M,,*7F
2017-12-29 11:44:37 1514565877.811834: $GPRMC,164438,A,3946.9617,N,08404.9885,W,0.0000,0.000,291217,,*38
2017-12-29 11:44:37 1514565877.811899: $GPGSA,A,3,10,14,15,18,20,21,24,27,32,8,138,,1.7,0.8,1.3*36
2017-12-29 11:44:38 1514565878.436681: $GPZDA,164439.00,29,12,2017,00,00*67
2017-12-29 11:44:38 1514565878.436864: $GPGGA,164439,3946.9617,N,08404.9885,W,2,11,0.80,311.35,M,-33.324,M,,*7E
2017-12-29 11:44:38 1514565878.436931: $GPRMC,164439,A,3946.9617,N,08404.9885,W,0.0000,0.000,291217,,*39
2017-12-29 11:44:38 1514565878.436999: $GPGSA,A,3,10,14,15,18,20,21,24,27,32,8,138,,1.7,0.8,1.3*36
2017-12-29 11:44:39 1514565879.364028: $GPZDA,164440.00,29,12,2017,00,00*69
2017-12-29 11:44:39 1514565879.364200: $GPGGA,164440,3946.9617,N,08404.9885,W,2,11,1.00,311.35,M,-33.324,M,,*79
2017-12-29 11:44:39 1514565879.364265: $GPRMC,164440,A,3946.9617,N,08404.9885,W,0.0000,0.000,291217,,*37
2017-12-29 11:44:39 1514565879.364328: $GPGSA,A,3,10,14,15,18,20,21,24,27,32,8,138,,1.7,1.0,1.3*3F
2017-12-29 11:44:40 1514565880.697036: $GPGSV,3,1,11,10,52,310,44,14,13,238,28,15,26,057,46,18,77,019,44*7A
2017-12-29 11:44:40 1514565880.697219: $GPGSV,3,2,11,20,25,105,48,21,50,183,47,24,53,088,51,27,16,277,40*7A
2017-12-29 11:44:40 1514565880.697285: $GPGSV,3,3,11,32,31,247,37,08,08,312,38,138,38,213,45*74
2017-12-29 11:44:40 1514565880.810414: $GPZDA,164441.00,29,12,2017,00,00*68
2017-12-29 11:44:40 1514565880.810594: $GPGGA,164441,3946.9617,N,08404.9885,W,2,11,1.00,311.35,M,-33.324,M,,*78
2017-12-29 11:44:40 1514565880.810663: $GPRMC,164441,A,3946.9617,N,08404.9885,W,0.0000,0.000,291217,,*36
2017-12-29 11:44:40 1514565880.810725: $GPGSA,A,3,10,14,15,18,20,21,24,27,32,8,138,,1.7,1.0,1.3*3F
2017-12-29 11:44:41 1514565881.362545: $GPZDA,164442.00,29,12,2017,00,00*6B
2017-12-29 11:44:41 1514565881.362726: $GPGGA,164442,3946.9617,N,08404.9885,W,2,11,1.00,311.35,M,-33.324,M,,*7B
2017-12-29 11:44:41 1514565881.362794: $GPRMC,164442,A,3946.9617,N,08404.9885,W,0.0000,0.000,291217,,*35
2017-12-29 11:44:41 1514565881.362861: $GPGSA,A,3,10,14,15,18,20,21,24,27,32,8,138,,1.7,1.0,1.3*3F
2017-12-29 11:44:42 1514565882.363391: $GPZDA,164443.00,29,12,2017,00,00*6A
2017-12-29 11:44:42 1514565882.363550: $GPGGA,164443,3946.9617,N,08404.9885,W,2,11,1.00,311.35,M,-33.324,M,,*7A
2017-12-29 11:44:42 1514565882.363615: $GPRMC,164443,A,3946.9617,N,08404.9885,W,0.0000,0.000,291217,,*34
2017-12-29 11:44:42 1514565882.363677: $GPGSA,A,3,10,14,15,18,20,21,24,27,32,8,138,,1.7,1.0,1.3*3F
