2017-11-16 14:57:37 1510862257.528830: {"class":"VERSION","release":"3.17","rev":"3.17","proto_major":3,"proto_minor":12}
2017-11-16 14:57:37 1510862257.529259: {"class":"DEVICES","devices":[{"class":"DEVICE","path":"/dev/ttyUSB0","driver":"SiRF","subtype":"9\u0006GSD4e_4.1.2-P1_RPATCH.05-F-GPS-4R-1510281 11/03/2015 307","activated":"2017-11-16T19:57:37.494Z","flags":1,"native":1,"bps":4800,"parity":"N","stopbits":1,"cycle":1.00}]}
2017-11-16 14:57:37 1510862257.529485: {"class":"WATCH","enable":true,"json":false,"nmea":true,"raw":0,"scaled":false,"timing":false,"split24":false,"pps":false}
2017-11-16 14:57:38 1510862258.488955: $GPZDA,195737.00,16,11,2017,00,00*6B
2017-11-16 14:57:38 1510862258.489137: $GPGGA,195737,3946.9575,N,08404.9848,W,2,11,0.80,301.77,M,-33.324,M,,*7C
2017-11-16 14:57:38 1510862258.489199: $GPRMC,195737,A,3946.9575,N,08404.9848,W,0.0000,0.000,161117,,*33
2017-11-16 14:57:38 1510862258.489255: $GPGSA,A,3,8,10,15,18,21,20,24,27,32,14,138,,1.6,0.8,1.3*37
2017-11-16 14:57:39 1510862259.868039: $GPGSV,3,1,12,08,08,304,34,10,57,316,51,12,01,117,00,15,21,060,48*73
2017-11-16 14:57:39 1510862259.868209: $GPGSV,3,2,12,18,77,048,45,21,43,181,44,20,18,109,45,24,52,076,48*7D
2017-11-16 14:57:39 1510862259.868269: $GPGSV,3,3,12,27,13,271,40,32,36,252,47,14,19,244,44,138,38,213,44*41
2017-11-16 14:57:39 1510862259.980091: $GPZDA,195738.00,16,11,2017,00,00*64
2017-11-16 14:57:39 1510862259.980257: $GPGGA,195738,3946.9575,N,08404.9848,W,2,11,0.80,301.77,M,-33.324,M,,*73
2017-11-16 14:57:39 1510862259.980385: $GPRMC,195738,A,3946.9575,N,08404.9848,W,0.0000,0.000,161117,,*3C
2017-11-16 14:57:39 1510862259.980459: $GPGSA,A,3,8,10,15,18,21,20,24,27,32,14,138,,1.6,0.8,1.3*37
2017-11-16 14:57:40 1510862260.532386: $GPZDA,195739.00,16,11,2017,00,00*65
2017-11-16 14:57:40 1510862260.532594: $GPGGA,195739,3946.9575,N,08404.9848,W,2,11,0.80,301.77,M,-33.324,M,,*72
2017-11-16 14:57:40 1510862260.532661: $GPRMC,195739,A,3946.9575,N,08404.9848,W,0.0000,0.000,161117,,*3D
2017-11-16 14:57:40 1510862260.532718: $GPGSA,A,3,8,10,15,18,21,20,24,27,32,14,138,,1.6,0.8,1.3*37
2017-11-16 14:57:41 1510862261.494526: $GPZDA,195740.00,16,11,2017,00,00*6B
2017-11-16 14:57:41 1510862261.494709: $GPGGA,195740,3946.9575,N,08404.9848,W,2,11,0.80,301.77,M,-33.324,M,,*7C
2017-11-16 14:57:41 1510862261.494771: $GPRMC,195740,A,3946.9575,N,08404.9848,W,0.0000,0.000,161117,,*33
2017-11-16 14:57:41 1510862261.494828: $GPGSA,A,3,8,10,15,18,21,20,24,27,32,14,138,,1.6,0.8,1.3*37
2017-11-16 14:57:42 1510862262.831647: $GPGSV,3,1,12,08,08,304,34,10,57,316,50,12,01,117,00,15,21,060,48*72
2017-11-16 14:57:42 1510862262.831926: $GPGSV,3,2,12,18,77,048,45,21,43,181,44,20,18,109,45,24,52,076,49*7C
2017-11-16 14:57:42 1510862262.832020: $GPGSV,3,3,12,27,13,271,40,32,36,252,46,14,19,244,44,138,38,213,43*47
2017-11-16 14:57:42 1510862262.944874: $GPZDA,195741.00,16,11,2017,00,00*6A
2017-11-16 14:57:42 1510862262.945034: $GPGGA,195741,3946.9575,N,08404.9848,W,2,11,0.80,301.77,M,-33.324,M,,*7D
2017-11-16 14:57:42 1510862262.945095: $GPRMC,195741,A,3946.9575,N,08404.9848,W,0.0000,0.000,161117,,*32
2017-11-16 14:57:42 1510862262.945151: $GPGSA,A,3,8,10,15,18,21,20,24,27,32,14,138,,1.6,0.8,1.3*37
2017-11-16 14:57:43 1510862263.494545: $GPZDA,195742.00,16,11,2017,00,00*69
2017-11-16 14:57:43 1510862263.494717: $GPGGA,195742,3946.9575,N,08404.9848,W,2,11,0.80,301.77,M,-33.324,M,,*7E
2017-11-16 14:57:43 1510862263.494803: $GPRMC,195742,A,3946.9575,N,08404.9848,W,0.0000,0.000,161117,,*31
2017-11-16 14:57:43 1510862263.494861: $GPGSA,A,3,8,10,15,18,21,20,24,27,32,14,138,,1.6,0.8,1.3*37
2017-11-16 14:57:44 1510862264.490801: $GPZDA,195743.00,16,11,2017,00,00*68
2017-11-16 14:57:44 1510862264.491367: $GPGGA,195743,3946.9575,N,08404.9848,W,2,11,0.80,301.77,M,-33.324,M,,*7F
2017-11-16 14:57:44 1510862264.491472: $GPRMC,195743,A,3946.9575,N,08404.9848,W,0.0000,0.000,161117,,*30
2017-11-16 14:57:44 1510862264.491589: $GPGSA,A,3,8,10,15,18,21,20,24,27,32,14,138,,1.6,0.8,1.3*37
2017-11-16 14:57:45 1510862265.830866: $GPGSV,3,1,12,08,08,304,34,10,57,316,51,12,01,117,00,15,21,060,48*73
2017-11-16 14:57:45 1510862265.831087: $GPGSV,3,2,12,18,77,048,45,21,43,181,44,20,18,109,45,24,52,076,48*7D
2017-11-16 14:57:45 1510862265.831149: $GPGSV,3,3,12,27,13,271,40,32,36,252,46,14,19,244,44,138,38,213,43*47
2017-11-16 14:57:45 1510862265.951976: $GPZDA,195744.00,16,11,2017,00,00*6F
2017-11-16 14:57:45 1510862265.952123: $GPGGA,195744,3946.9575,N,08404.9848,W,2,11,0.80,301.77,M,-33.324,M,,*78
2017-11-16 14:57:45 1510862265.952183: $GPRMC,195744,A,3946.9575,N,08404.9848,W,0.0000,0.000,161117,,*37
2017-11-16 14:57:45 1510862265.952239: $GPGSA,A,3,8,10,15,18,21,20,24,27,32,14,138,,1.6,0.8,1.3*37
2017-11-16 14:57:46 1510862266.532441: $GPZDA,195745.00,16,11,2017,00,00*6E
2017-11-16 14:57:46 1510862266.532627: $GPGGA,195745,3946.9575,N,08404.9848,W,2,11,0.80,301.77,M,-33.324,M,,*79
2017-11-16 14:57:46 1510862266.532690: $GPRMC,195745,A,3946.9575,N,08404.9848,W,0.0000,0.000,161117,,*36
2017-11-16 14:57:46 1510862266.532746: $GPGSA,A,3,8,10,15,18,21,20,24,27,32,14,138,,1.6,0.8,1.3*37
2017-11-16 14:57:47 1510862267.533312: $GPZDA,195746.00,16,11,2017,00,00*6D
2017-11-16 14:57:47 1510862267.533496: $GPGGA,195746,3946.9575,N,08404.9848,W,2,11,0.80,301.77,M,-33.324,M,,*7A
2017-11-16 14:57:47 1510862267.533577: $GPRMC,195746,A,3946.9575,N,08404.9848,W,0.0000,0.000,161117,,*35
2017-11-16 14:57:47 1510862267.533635: $GPGSA,A,3,8,10,15,18,21,20,24,27,32,14,138,,1.6,0.8,1.3*37
