2017-12-01 18:29:34 1512170974.825624: {"class":"VERSION","release":"3.16","rev":"3.16-4","proto_major":3,"proto_minor":11}
2017-12-01 18:29:34 1512170974.826125: {"class":"DEVICES","devices":[{"class":"DEVICE","path":"/dev/ttyUSB0","driver":"SiRF","subtype":"9\u0006GSD4e_4.1.2-P1_RPATCH.05-F-GPS-4R-1510281 11/03/2015 307","activated":"2017-12-01T23:29:34.722Z","flags":1,"native":1,"bps":4800,"parity":"N","stopbits":1,"cycle":1.00}]}
2017-12-01 18:29:34 1512170974.826336: {"class":"WATCH","enable":true,"json":false,"nmea":true,"raw":0,"scaled":false,"timing":false,"split24":false,"pps":false}
2017-12-01 18:29:35 1512170975.406421: $GPZDA,232936.00,01,12,2017,00,00*6F
2017-12-01 18:29:35 1512170975.406604: $GPGGA,232936,3946.9730,N,08404.9839,W,2,12,0.80,297.04,M,-33.325,M,,*70
2017-12-01 18:29:35 1512170975.406670: $GPRMC,232936,A,3946.9730,N,08404.9839,W,0.1867,0.000,011217,,*3A
2017-12-01 18:29:35 1512170975.406731: $GPGSA,A,3,1,3,14,16,22,23,25,26,31,32,29,138,2.0,0.8,1.5*0C
2017-12-01 18:29:36 1512170976.745603: $GPGSV,3,1,12,01,04,250,33,03,41,295,47,14,53,096,42,16,26,190,45*71
2017-12-01 18:29:36 1512170976.745784: $GPGSV,3,2,12,22,50,265,43,23,13,301,39,25,15,039,40,26,56,171,47*7D
2017-12-01 18:29:36 1512170976.745851: $GPGSV,3,3,12,31,65,030,47,32,33,109,41,29,11,069,24,138,38,213,46*46
2017-12-01 18:29:36 1512170976.858960: $GPZDA,232937.00,01,12,2017,00,00*6E
2017-12-01 18:29:36 1512170976.859150: $GPGGA,232937,3946.9730,N,08404.9839,W,2,12,0.80,297.04,M,-33.325,M,,*71
2017-12-01 18:29:36 1512170976.859217: $GPRMC,232937,A,3946.9730,N,08404.9839,W,0.0000,0.000,011217,,*33
2017-12-01 18:29:36 1512170976.859278: $GPGSA,A,3,1,3,14,16,22,23,25,26,31,32,29,138,2.0,0.8,1.5*0C
2017-12-01 18:29:37 1512170977.408843: $GPZDA,232938.00,01,12,2017,00,00*61
2017-12-01 18:29:37 1512170977.409010: $GPGGA,232938,3946.9730,N,08404.9839,W,2,12,0.80,297.04,M,-33.325,M,,*7E
2017-12-01 18:29:37 1512170977.409077: $GPRMC,232938,A,3946.9730,N,08404.9839,W,0.0000,0.000,011217,,*3C
2017-12-01 18:29:37 1512170977.409138: $GPGSA,A,3,1,3,14,16,22,23,25,26,31,32,29,138,2.0,0.8,1.5*0C
2017-12-01 18:29:38 1512170978.408456: $GPZDA,232939.00,01,12,2017,00,00*60
2017-12-01 18:29:38 1512170978.408645: $GPGGA,232939,3946.9730,N,08404.9839,W,2,12,0.80,297.04,M,-33.325,M,,*7F
2017-12-01 18:29:38 1512170978.408711: $GPRMC,232939,A,3946.9730,N,08404.9839,W,0.0000,0.000,011217,,*3D
2017-12-01 18:29:38 1512170978.408771: $GPGSA,A,3,1,3,14,16,22,23,25,26,31,32,29,138,2.0,0.8,1.5*0C
2017-12-01 18:29:39 1512170979.745173: $GPGSV,3,1,12,01,04,250,33,03,41,295,47,14,53,096,42,16,26,190,45*71
2017-12-01 18:29:39 1512170979.745367: $GPGSV,3,2,12,22,50,265,44,23,13,301,38,25,15,039,40,26,56,171,47*7B
2017-12-01 18:29:39 1512170979.745436: $GPGSV,3,3,12,31,65,030,47,32,33,109,41,29,11,069,24,138,38,213,45*45
2017-12-01 18:29:39 1512170979.858601: $GPZDA,232940.00,01,12,2017,00,00*6E
2017-12-01 18:29:39 1512170979.858772: $GPGGA,232940,3946.9730,N,08404.9839,W,2,12,0.80,297.04,M,-33.325,M,,*71
2017-12-01 18:29:39 1512170979.858838: $GPRMC,232940,A,3946.9730,N,08404.9839,W,0.0000,0.000,011217,,*33
2017-12-01 18:29:39 1512170979.858900: $GPGSA,A,3,1,3,14,16,22,23,25,26,31,32,29,138,2.0,0.8,1.5*0C
2017-12-01 18:29:40 1512170980.483956: $GPZDA,232941.00,01,12,2017,00,00*6F
2017-12-01 18:29:40 1512170980.484121: $GPGGA,232941,3946.9730,N,08404.9839,W,2,12,0.80,297.04,M,-33.325,M,,*70
2017-12-01 18:29:40 1512170980.484188: $GPRMC,232941,A,3946.9730,N,08404.9839,W,0.0000,0.000,011217,,*32
2017-12-01 18:29:40 1512170980.484250: $GPGSA,A,3,1,3,14,16,22,23,25,26,31,32,29,138,2.0,0.8,1.5*0C
2017-12-01 18:29:41 1512170981.411632: $GPZDA,232942.00,01,12,2017,00,00*6C
2017-12-01 18:29:41 1512170981.411804: $GPGGA,232942,3946.9730,N,08404.9839,W,2,12,0.80,297.04,M,-33.325,M,,*73
2017-12-01 18:29:41 1512170981.411869: $GPRMC,232942,A,3946.9730,N,08404.9839,W,0.0000,0.000,011217,,*31
2017-12-01 18:29:41 1512170981.411929: $GPGSA,A,3,1,3,14,16,22,23,25,26,31,32,29,138,2.0,0.8,1.5*0C
2017-12-01 18:29:42 1512170982.751882: $GPGSV,3,1,12,01,04,250,33,03,41,295,48,14,53,096,42,16,26,190,45*7E
2017-12-01 18:29:42 1512170982.752112: $GPGSV,3,2,12,22,50,265,44,23,13,301,39,25,15,039,40,26,56,171,47*7A
2017-12-01 18:29:42 1512170982.752182: $GPGSV,3,3,12,31,65,030,46,32,33,109,35,29,11,069,24,138,38,213,46*44
2017-12-01 18:29:42 1512170982.863923: $GPZDA,232943.00,01,12,2017,00,00*6D
2017-12-01 18:29:42 1512170982.864091: $GPGGA,232943,3946.9730,N,08404.9839,W,2,12,0.80,297.04,M,-33.325,M,,*72
2017-12-01 18:29:42 1512170982.864159: $GPRMC,232943,A,3946.9730,N,08404.9839,W,0.0000,0.000,011217,,*30
2017-12-01 18:29:42 1512170982.864220: $GPGSA,A,3,1,3,14,16,22,23,25,26,31,32,29,138,2.0,0.8,1.5*0C
2017-12-01 18:29:43 1512170983.412624: $GPZDA,232944.00,01,12,2017,00,00*6A
2017-12-01 18:29:43 1512170983.412793: $GPGGA,232944,3946.9730,N,08404.9839,W,2,12,0.80,297.04,M,-33.325,M,,*75
2017-12-01 18:29:43 1512170983.412860: $GPRMC,232944,A,3946.9730,N,08404.9839,W,0.0000,0.000,011217,,*37
2017-12-01 18:29:43 1512170983.412921: $GPGSA,A,3,1,3,14,16,22,23,25,26,31,32,29,138,2.0,0.8,1.5*0C
2017-12-01 18:29:44 1512170984.413502: $GPZDA,232945.00,01,12,2017,00,00*6B
2017-12-01 18:29:44 1512170984.413675: $GPGGA,232945,3946.9730,N,08404.9839,W,2,12,0.80,297.04,M,-33.325,M,,*74
2017-12-01 18:29:44 1512170984.413742: $GPRMC,232945,A,3946.9730,N,08404.9839,W,0.0000,0.000,011217,,*36
2017-12-01 18:29:44 1512170984.413803: $GPGSA,A,3,1,3,14,16,22,23,25,26,31,32,29,138,2.0,0.8,1.5*0C
2017-12-01 18:29:45 1512170985.749621: $GPGSV,3,1,12,01,04,250,33,03,41,295,48,14,53,096,43,16,26,190,45*7F
2017-12-01 18:29:45 1512170985.749806: $GPGSV,3,2,12,22,50,265,44,23,13,301,39,25,15,039,40,26,56,171,47*7A
2017-12-01 18:29:45 1512170985.749872: $GPGSV,3,3,12,31,65,030,46,32,33,109,38,29,11,069,24,138,38,213,46*49
2017-12-01 18:29:45 1512170985.863011: $GPZDA,232946.00,01,12,2017,00,00*68
2017-12-01 18:29:45 1512170985.863185: $GPGGA,232946,3946.9730,N,08404.9839,W,2,12,0.80,297.04,M,-33.325,M,,*77
2017-12-01 18:29:45 1512170985.863252: $GPRMC,232946,A,3946.9730,N,08404.9839,W,0.0000,0.000,011217,,*35
2017-12-01 18:29:45 1512170985.863313: $GPGSA,A,3,1,3,14,16,22,23,25,26,31,32,29,138,2.0,0.8,1.5*0C
2017-12-01 18:29:46 1512170986.413948: $GPZDA,232947.00,01,12,2017,00,00*69
2017-12-01 18:29:46 1512170986.414118: $GPGGA,232947,3946.9730,N,08404.9839,W,2,12,0.80,297.04,M,-33.325,M,,*76
2017-12-01 18:29:46 1512170986.414185: $GPRMC,232947,A,3946.9730,N,08404.9839,W,0.0000,0.000,011217,,*34
2017-12-01 18:29:46 1512170986.414246: $GPGSA,A,3,1,3,14,16,22,23,25,26,31,32,29,138,2.0,0.8,1.5*0C
2017-12-01 18:29:47 1512170987.412277: $GPZDA,232948.00,01,12,2017,00,00*66
2017-12-01 18:29:47 1512170987.412449: $GPGGA,232948,3946.9730,N,08404.9839,W,2,12,0.80,297.04,M,-33.325,M,,*79
2017-12-01 18:29:47 1512170987.412516: $GPRMC,232948,A,3946.9730,N,08404.9839,W,0.0000,0.000,011217,,*3B
2017-12-01 18:29:47 1512170987.412578: $GPGSA,A,3,1,3,14,16,22,23,25,26,31,32,29,138,2.0,0.8,1.5*0C
2017-12-01 18:29:48 1512170988.744220: $GPGSV,3,1,12,01,04,250,33,03,41,295,47,14,53,096,42,16,26,190,45*71
2017-12-01 18:29:48 1512170988.744400: $GPGSV,3,2,12,22,50,265,44,23,13,301,40,25,15,039,40,26,56,171,47*74
2017-12-01 18:29:48 1512170988.744466: $GPGSV,3,3,12,31,65,030,46,32,33,109,38,29,11,069,25,138,38,213,46*48
2017-12-01 18:29:48 1512170988.857648: $GPZDA,232949.00,01,12,2017,00,00*67
2017-12-01 18:29:48 1512170988.857817: $GPGGA,232949,3946.9730,N,08404.9839,W,2,12,0.80,297.04,M,-33.325,M,,*78
2017-12-01 18:29:48 1512170988.857884: $GPRMC,232949,A,3946.9730,N,08404.9839,W,0.0000,0.000,011217,,*3A
2017-12-01 18:29:48 1512170988.857946: $GPGSA,A,3,1,3,14,16,22,23,25,26,31,32,29,138,2.0,0.8,1.5*0C
2017-12-01 18:29:49 1512170989.413777: $GPZDA,232950.00,01,12,2017,00,00*6F
2017-12-01 18:29:49 1512170989.413976: $GPGGA,232950,3946.9730,N,08404.9839,W,2,12,0.80,297.04,M,-33.325,M,,*70
2017-12-01 18:29:49 1512170989.414064: $GPRMC,232950,A,3946.9730,N,08404.9839,W,0.0000,0.000,011217,,*32
2017-12-01 18:29:49 1512170989.414128: $GPGSA,A,3,1,3,14,16,22,23,25,26,31,32,29,138,2.0,0.8,1.5*0C
2017-12-01 18:29:50 1512170990.413836: $GPZDA,232951.00,01,12,2017,00,00*6E
2017-12-01 18:29:50 1512170990.414015: $GPGGA,232951,3946.9730,N,08404.9839,W,2,12,0.80,297.04,M,-33.325,M,,*71
2017-12-01 18:29:50 1512170990.414082: $GPRMC,232951,A,3946.9730,N,08404.9839,W,0.0000,0.000,011217,,*33
2017-12-01 18:29:50 1512170990.414142: $GPGSA,A,3,1,3,14,16,22,23,25,26,31,32,29,138,2.0,0.8,1.5*0C
2017-12-01 18:29:51 1512170991.748289: $GPGSV,3,1,12,01,04,250,33,03,41,295,48,14,53,096,42,16,26,190,45*7E
2017-12-01 18:29:51 1512170991.748476: $GPGSV,3,2,12,22,50,265,44,23,13,301,41,25,15,039,40,26,56,171,46*74
2017-12-01 18:29:51 1512170991.748544: $GPGSV,3,3,12,31,65,030,47,32,33,109,39,29,11,069,26,138,38,213,46*4B
2017-12-01 18:29:51 1512170991.861717: $GPZDA,232952.00,01,12,2017,00,00*6D
2017-12-01 18:29:51 1512170991.861890: $GPGGA,232952,3946.9730,N,08404.9839,W,2,12,0.80,297.04,M,-33.325,M,,*72
2017-12-01 18:29:51 1512170991.861958: $GPRMC,232952,A,3946.9730,N,08404.9839,W,0.0000,0.000,011217,,*30
2017-12-01 18:29:51 1512170991.862019: $GPGSA,A,3,1,3,14,16,22,23,25,26,31,32,29,138,2.0,0.8,1.5*0C
2017-12-01 18:29:52 1512170992.412623: $GPZDA,232953.00,01,12,2017,00,00*6C
2017-12-01 18:29:52 1512170992.412800: $GPGGA,232953,3946.9730,N,08404.9839,W,2,12,0.80,297.04,M,-33.325,M,,*73
2017-12-01 18:29:52 1512170992.412870: $GPRMC,232953,A,3946.9730,N,08404.9839,W,0.0000,0.000,011217,,*31
2017-12-01 18:29:52 1512170992.412931: $GPGSA,A,3,1,3,14,16,22,23,25,26,31,32,29,138,2.0,0.8,1.5*0C
2017-12-01 18:29:53 1512170993.413659: $GPZDA,232954.00,01,12,2017,00,00*6B
2017-12-01 18:29:53 1512170993.413819: $GPGGA,232954,3946.9730,N,08404.9839,W,2,12,0.80,297.04,M,-33.325,M,,*74
2017-12-01 18:29:53 1512170993.413886: $GPRMC,232954,A,3946.9730,N,08404.9839,W,0.0000,0.000,011217,,*36
2017-12-01 18:29:53 1512170993.413946: $GPGSA,A,3,1,3,14,16,22,23,25,26,31,32,29,138,2.0,0.8,1.5*0C
2017-12-01 18:29:54 1512170994.750395: $GPGSV,3,1,12,01,04,250,33,03,41,295,48,14,53,096,43,16,26,190,45*7F
2017-12-01 18:29:54 1512170994.750557: $GPGSV,3,2,12,22,50,265,45,23,13,301,42,25,15,039,40,26,56,171,46*76
2017-12-01 18:29:54 1512170994.750625: $GPGSV,3,3,12,31,65,030,47,32,33,109,39,29,11,069,27,138,38,213,46*4A
2017-12-01 18:29:54 1512170994.863741: $GPZDA,232955.00,01,12,2017,00,00*6A
2017-12-01 18:29:54 1512170994.863917: $GPGGA,232955,3946.9730,N,08404.9839,W,2,12,0.80,297.04,M,-33.325,M,,*75
2017-12-01 18:29:54 1512170994.863983: $GPRMC,232955,A,3946.9730,N,08404.9839,W,0.0000,0.000,011217,,*37
2017-12-01 18:29:54 1512170994.864043: $GPGSA,A,3,1,3,14,16,22,23,25,26,31,32,29,138,2.0,0.8,1.5*0C
