2017-12-01 16:38:56 1512164336.787399: {"class":"VERSION","release":"3.16","rev":"3.16-4","proto_major":3,"proto_minor":11}
2017-12-01 16:38:56 1512164336.787783: {"class":"DEVICES","devices":[{"class":"DEVICE","path":"/dev/ttyUSB0","driver":"SiRF","subtype":"9\u0006GSD4e_4.1.2-P1_RPATCH.05-F-GPS-4R-1510281 11/03/2015 307","activated":"2017-12-01T21:38:56.508Z","flags":1,"native":1,"bps":4800,"parity":"N","stopbits":1,"cycle":1.00}]}
2017-12-01 16:38:56 1512164336.787920: {"class":"WATCH","enable":true,"json":false,"nmea":true,"raw":0,"scaled":false,"timing":false,"split24":false,"pps":false}
2017-12-01 16:38:57 1512164337.701594: $GPGSV,3,1,12,01,22,297,43,10,44,150,42,11,07,279,37,14,67,336,45*7D
2017-12-01 16:38:57 1512164337.701779: $GPGSV,3,2,12,22,22,312,46,31,60,229,49,32,67,039,48,12,20,046,22*7C
2017-12-01 16:38:57 1512164337.701866: $GPGSV,3,3,12,25,40,085,25,26,05,181,29,18,14,145,16,138,38,213,34*4C
2017-12-01 16:38:57 1512164337.814991: $GPZDA,213858.00,01,12,2017,00,00*65
2017-12-01 16:38:57 1512164337.815163: $GPGGA,213858,3946.9660,N,08404.9727,W,2,12,1.00,300.14,M,-33.324,M,,*78
2017-12-01 16:38:57 1512164337.815231: $GPRMC,213858,A,3946.9660,N,08404.9727,W,0.0000,0.000,011217,,*3C
2017-12-01 16:38:57 1512164337.815292: $GPGSA,A,3,1,10,11,14,22,31,32,12,25,26,18,138,2.0,1.0,1.5*30
2017-12-01 16:38:58 1512164338.440332: $GPZDA,213859.00,01,12,2017,00,00*64
2017-12-01 16:38:58 1512164338.440496: $GPGGA,213859,3946.9660,N,08404.9727,W,2,12,1.00,300.14,M,-33.324,M,,*79
2017-12-01 16:38:58 1512164338.440563: $GPRMC,213859,A,3946.9660,N,08404.9727,W,0.0000,0.000,011217,,*3D
2017-12-01 16:38:58 1512164338.440624: $GPGSA,A,3,1,10,11,14,22,31,32,12,25,26,18,138,2.0,1.0,1.5*30
2017-12-01 16:38:59 1512164339.368717: $GPZDA,213900.00,01,12,2017,00,00*69
2017-12-01 16:38:59 1512164339.368908: $GPGGA,213900,3946.9660,N,08404.9727,W,2,12,1.00,300.14,M,-33.324,M,,*74
2017-12-01 16:38:59 1512164339.368993: $GPRMC,213900,A,3946.9660,N,08404.9727,W,0.0000,0.000,011217,,*30
2017-12-01 16:38:59 1512164339.369055: $GPGSA,A,3,1,10,11,14,22,31,32,12,25,26,18,138,2.0,1.0,1.5*30
2017-12-01 16:39:00 1512164340.696930: $GPGSV,3,1,12,01,22,297,43,10,44,150,42,11,07,279,37,14,67,336,45*7D
2017-12-01 16:39:00 1512164340.697127: $GPGSV,3,2,12,22,22,312,45,31,60,229,49,32,67,039,47,12,20,046,21*73
2017-12-01 16:39:00 1512164340.697195: $GPGSV,3,3,12,25,40,085,22,26,05,181,29,18,14,145,16,138,38,213,38*47
2017-12-01 16:39:00 1512164340.810325: $GPZDA,213901.00,01,12,2017,00,00*68
2017-12-01 16:39:00 1512164340.810494: $GPGGA,213901,3946.9660,N,08404.9727,W,2,12,1.00,300.14,M,-33.324,M,,*75
2017-12-01 16:39:00 1512164340.810561: $GPRMC,213901,A,3946.9660,N,08404.9727,W,0.0000,0.000,011217,,*31
2017-12-01 16:39:00 1512164340.810621: $GPGSA,A,3,1,10,11,14,22,31,32,12,25,26,18,138,2.0,1.0,1.5*30
2017-12-01 16:39:01 1512164341.386278: $GPZDA,213902.00,01,12,2017,00,00*6B
2017-12-01 16:39:01 1512164341.386436: $GPGGA,213902,3946.9656,N,08404.9727,W,2,12,1.00,299.50,M,-33.324,M,,*72
2017-12-01 16:39:01 1512164341.386503: $GPRMC,213902,A,3946.9656,N,08404.9727,W,0.0000,0.000,011217,,*37
2017-12-01 16:39:01 1512164341.386564: $GPGSA,A,3,1,10,11,14,22,31,32,12,25,26,18,138,2.0,1.0,1.5*30
2017-12-01 16:39:02 1512164342.379637: $GPZDA,213903.00,01,12,2017,00,00*6A
2017-12-01 16:39:02 1512164342.379827: $GPGGA,213903,3946.9656,N,08404.9727,W,2,12,1.00,299.50,M,-33.324,M,,*73
2017-12-01 16:39:02 1512164342.379897: $GPRMC,213903,A,3946.9656,N,08404.9727,W,0.0000,0.000,011217,,*36
2017-12-01 16:39:02 1512164342.379974: $GPGSA,A,3,1,10,11,14,22,31,32,12,25,26,18,138,2.0,1.0,1.5*30
2017-12-01 16:39:03 1512164343.719787: $GPGSV,3,1,12,01,22,297,43,10,44,150,42,11,07,279,38,14,67,336,45*72
2017-12-01 16:39:03 1512164343.720000: $GPGSV,3,2,12,22,22,312,45,31,60,229,49,32,67,039,48,12,20,046,21*7C
2017-12-01 16:39:03 1512164343.720067: $GPGSV,3,3,12,25,40,085,23,26,05,181,29,18,14,145,11,138,38,213,40*4E
2017-12-01 16:39:03 1512164343.833442: $GPZDA,213904.00,01,12,2017,00,00*6D
2017-12-01 16:39:03 1512164343.833612: $GPGGA,213904,3946.9656,N,08404.9727,W,2,12,1.00,299.50,M,-33.324,M,,*74
2017-12-01 16:39:03 1512164343.833729: $GPRMC,213904,A,3946.9656,N,08404.9727,W,0.0000,0.000,011217,,*31
2017-12-01 16:39:03 1512164343.833793: $GPGSA,A,3,1,10,11,14,22,31,32,12,25,26,18,138,2.0,1.0,1.5*30
2017-12-01 16:39:04 1512164344.384291: $GPZDA,213905.00,01,12,2017,00,00*6C
2017-12-01 16:39:04 1512164344.384474: $GPGGA,213905,3946.9656,N,08404.9727,W,2,12,1.00,299.50,M,-33.324,M,,*75
2017-12-01 16:39:04 1512164344.384541: $GPRMC,213905,A,3946.9656,N,08404.9727,W,0.0000,0.000,011217,,*30
2017-12-01 16:39:04 1512164344.384603: $GPGSA,A,3,1,10,11,14,22,31,32,12,25,26,18,138,2.0,1.0,1.5*30
2017-12-01 16:39:05 1512164345.385370: $GPZDA,213906.00,01,12,2017,00,00*6F
2017-12-01 16:39:05 1512164345.385568: $GPGGA,213906,3946.9656,N,08404.9727,W,2,12,1.00,299.50,M,-33.324,M,,*76
2017-12-01 16:39:05 1512164345.385736: $GPRMC,213906,A,3946.9656,N,08404.9727,W,0.0000,0.000,011217,,*33
2017-12-01 16:39:05 1512164345.385822: $GPGSA,A,3,1,10,11,14,22,31,32,12,25,26,18,138,2.0,1.0,1.5*30
2017-12-01 16:39:06 1512164346.704400: $GPGSV,3,1,12,01,22,297,43,10,44,150,42,11,07,279,38,14,67,336,45*72
2017-12-01 16:39:06 1512164346.704579: $GPGSV,3,2,12,22,22,312,45,31,60,229,49,32,67,039,48,12,20,046,21*7C
2017-12-01 16:39:06 1512164346.704647: $GPGSV,3,3,12,25,40,085,24,26,05,181,30,18,14,145,16,138,38,213,40*46
2017-12-01 16:39:06 1512164346.817766: $GPZDA,213907.00,01,12,2017,00,00*6E
2017-12-01 16:39:06 1512164346.817978: $GPGGA,213907,3946.9656,N,08404.9727,W,2,12,1.00,299.50,M,-33.324,M,,*77
2017-12-01 16:39:06 1512164346.818047: $GPRMC,213907,A,3946.9656,N,08404.9727,W,0.0000,0.000,011217,,*32
2017-12-01 16:39:06 1512164346.818107: $GPGSA,A,3,1,10,11,14,22,31,32,12,25,26,18,138,2.0,1.0,1.5*30
2017-12-01 16:39:07 1512164347.368645: $GPZDA,213908.00,01,12,2017,00,00*61
2017-12-01 16:39:07 1512164347.368854: $GPGGA,213908,3946.9656,N,08404.9727,W,2,12,1.00,299.50,M,-33.324,M,,*78
2017-12-01 16:39:07 1512164347.368922: $GPRMC,213908,A,3946.9656,N,08404.9727,W,0.0000,0.000,011217,,*3D
2017-12-01 16:39:07 1512164347.369001: $GPGSA,A,3,1,10,11,14,22,31,32,12,25,26,18,138,2.0,1.0,1.5*30
2017-12-01 16:39:08 1512164348.361620: $GPZDA,213909.00,01,12,2017,00,00*60
2017-12-01 16:39:08 1512164348.361832: $GPGGA,213909,3946.9656,N,08404.9727,W,2,12,1.00,299.50,M,-33.324,M,,*79
2017-12-01 16:39:08 1512164348.361905: $GPRMC,213909,A,3946.9656,N,08404.9727,W,0.0000,0.000,011217,,*3C
2017-12-01 16:39:08 1512164348.361985: $GPGSA,A,3,1,10,11,14,22,31,32,12,25,26,18,138,2.0,1.0,1.5*30
2017-12-01 16:39:09 1512164349.719761: $GPGSV,3,1,12,01,22,297,43,10,44,150,42,11,07,279,38,14,67,336,45*72
2017-12-01 16:39:09 1512164349.722559: $GPGSV,3,2,12,22,22,312,45,31,60,229,49,32,67,039,47,12,20,046,22*70
2017-12-01 16:39:09 1512164349.722678: $GPGSV,3,3,12,25,40,085,24,26,05,181,30,18,14,145,13,138,38,213,38*4C
2017-12-01 16:39:09 1512164349.833420: $GPZDA,213910.00,01,12,2017,00,00*68
2017-12-01 16:39:09 1512164349.833594: $GPGGA,213910,3946.9656,N,08404.9727,W,2,12,1.00,299.50,M,-33.324,M,,*71
2017-12-01 16:39:09 1512164349.833661: $GPRMC,213910,A,3946.9656,N,08404.9727,W,0.0000,0.000,011217,,*34
2017-12-01 16:39:09 1512164349.833723: $GPGSA,A,3,1,10,11,14,22,31,32,12,25,26,18,138,2.0,1.0,1.5*30
2017-12-01 16:39:10 1512164350.368319: $GPZDA,213911.00,01,12,2017,00,00*69
2017-12-01 16:39:10 1512164350.368498: $GPGGA,213911,3946.9656,N,08404.9727,W,2,12,1.00,299.50,M,-33.324,M,,*70
2017-12-01 16:39:10 1512164350.368591: $GPRMC,213911,A,3946.9656,N,08404.9727,W,0.0000,0.000,011217,,*35
2017-12-01 16:39:10 1512164350.368655: $GPGSA,A,3,1,10,11,14,22,31,32,12,25,26,18,138,2.0,1.0,1.5*30
2017-12-01 16:39:11 1512164351.383897: $GPZDA,213912.00,01,12,2017,00,00*6A
2017-12-01 16:39:11 1512164351.384075: $GPGGA,213912,3946.9656,N,08404.9727,W,2,12,1.00,299.50,M,-33.324,M,,*73
2017-12-01 16:39:11 1512164351.384141: $GPRMC,213912,A,3946.9656,N,08404.9727,W,0.0000,0.000,011217,,*36
2017-12-01 16:39:11 1512164351.384222: $GPGSA,A,3,1,10,11,14,22,31,32,12,25,26,18,138,2.0,1.0,1.5*30
2017-12-01 16:39:12 1512164352.719443: $GPGSV,3,1,12,01,22,297,42,10,44,150,42,11,07,279,38,14,67,336,44*72
2017-12-01 16:39:12 1512164352.719626: $GPGSV,3,2,12,22,22,312,45,31,60,229,49,32,67,039,46,12,20,046,22*71
2017-12-01 16:39:12 1512164352.719692: $GPGSV,3,3,12,25,40,085,29,26,05,181,30,18,14,145,14,138,38,213,40*49
2017-12-01 16:39:12 1512164352.832818: $GPZDA,213913.00,01,12,2017,00,00*6B
2017-12-01 16:39:12 1512164352.832991: $GPGGA,213913,3946.9656,N,08404.9727,W,2,12,1.00,299.50,M,-33.324,M,,*72
2017-12-01 16:39:12 1512164352.833058: $GPRMC,213913,A,3946.9656,N,08404.9727,W,0.0000,0.000,011217,,*37
2017-12-01 16:39:12 1512164352.833119: $GPGSA,A,3,1,10,11,14,22,31,32,12,25,26,18,138,2.0,1.0,1.5*30
2017-12-01 16:39:13 1512164353.458100: $GPZDA,213914.00,01,12,2017,00,00*6C
2017-12-01 16:39:13 1512164353.458274: $GPGGA,213914,3946.9656,N,08404.9727,W,2,12,1.00,299.50,M,-33.324,M,,*75
2017-12-01 16:39:13 1512164353.458341: $GPRMC,213914,A,3946.9656,N,08404.9727,W,0.0000,0.000,011217,,*30
2017-12-01 16:39:13 1512164353.458422: $GPGSA,A,3,1,10,11,14,22,31,32,12,25,26,18,138,2.0,1.0,1.5*30
2017-12-01 16:39:14 1512164354.368012: $GPZDA,213915.00,01,12,2017,00,00*6D
2017-12-01 16:39:14 1512164354.368185: $GPGGA,213915,3946.9656,N,08404.9727,W,2,12,1.00,299.50,M,-33.324,M,,*74
2017-12-01 16:39:14 1512164354.368253: $GPRMC,213915,A,3946.9656,N,08404.9727,W,0.0000,0.000,011217,,*31
2017-12-01 16:39:14 1512164354.368316: $GPGSA,A,3,1,10,11,14,22,31,32,12,25,26,18,138,2.0,1.0,1.5*30
2017-12-01 16:39:15 1512164355.719741: $GPGSV,3,1,12,01,22,297,43,10,44,150,42,11,07,279,38,14,67,336,45*72
2017-12-01 16:39:15 1512164355.719935: $GPGSV,3,2,12,22,22,312,46,31,60,229,49,32,67,039,47,12,20,046,23*72
2017-12-01 16:39:15 1512164355.720001: $GPGSV,3,3,12,25,40,085,29,26,05,181,30,18,14,145,14,138,38,213,41*48
2017-12-01 16:39:15 1512164355.833350: $GPZDA,213916.00,01,12,2017,00,00*6E
2017-12-01 16:39:15 1512164355.833542: $GPGGA,213916,3946.9656,N,08404.9727,W,2,12,1.00,299.50,M,-33.324,M,,*77
2017-12-01 16:39:15 1512164355.833609: $GPRMC,213916,A,3946.9656,N,08404.9727,W,0.0000,0.000,011217,,*32
2017-12-01 16:39:15 1512164355.833671: $GPGSA,A,3,1,10,11,14,22,31,32,12,25,26,18,138,2.0,1.0,1.5*30
2017-12-01 16:39:16 1512164356.384202: $GPZDA,213917.00,01,12,2017,00,00*6F
2017-12-01 16:39:16 1512164356.384373: $GPGGA,213917,3946.9656,N,08404.9727,W,2,12,1.00,299.50,M,-33.324,M,,*76
2017-12-01 16:39:16 1512164356.384441: $GPRMC,213917,A,3946.9656,N,08404.9727,W,0.0000,0.000,011217,,*33
2017-12-01 16:39:16 1512164356.384503: $GPGSA,A,3,1,10,11,14,22,31,32,12,25,26,18,138,2.0,1.0,1.5*30
