2017-12-01 11:42:07 1512146527.476825: {"class":"VERSION","release":"3.16","rev":"3.16-4","proto_major":3,"proto_minor":11}
2017-12-01 11:42:07 1512146527.477226: {"class":"DEVICES","devices":[{"class":"DEVICE","path":"/dev/ttyUSB0","driver":"SiRF","subtype":"9\u0006GSD4e_4.1.2-P1_RPATCH.05-F-GPS-4R-1510281 11/03/2015 307","activated":"2017-12-01T16:42:07.459Z","flags":1,"native":1,"bps":4800,"parity":"N","stopbits":1,"cycle":1.00}]}
2017-12-01 11:42:07 1512146527.477345: {"class":"WATCH","enable":true,"json":false,"nmea":true,"raw":0,"scaled":false,"timing":false,"split24":false,"pps":false}
2017-12-01 11:42:08 1512146528.062769: $GPZDA,164208.75,01,12,2017,00,00*6B
2017-12-01 11:42:08 1512146528.062965: $GPGGA,164208,3946.9599,N,08404.9789,W,1,11,0.80,301.27,M,-33.324,M,,*7D
2017-12-01 11:42:08 1512146528.063039: $GPRMC,164208,A,3946.9599,N,08404.9789,W,0.3423,4.197,011217,,*3C
2017-12-01 11:42:08 1512146528.063101: $GPGSA,A,3,5,10,13,15,18,20,21,24,27,29,138,,2.0,0.8,1.5*34
2017-12-01 11:42:08 1512146528.995108: $GPZDA,164209.44,01,12,2017,00,00*68
2017-12-01 11:42:08 1512146528.995280: $GPGGA,164209,3946.9557,N,08404.9784,W,1,11,0.80,312.01,M,-33.324,M,,*75
2017-12-01 11:42:08 1512146528.995346: $GPRMC,164209,A,3946.9557,N,08404.9784,W,0.1567,9.200,011217,,*31
2017-12-01 11:42:08 1512146528.995408: $GPGSA,A,3,5,10,13,15,18,20,21,24,27,29,138,,2.0,0.8,1.5*34
2017-12-01 11:42:10 1512146530.137472: $GPGSV,3,1,12,05,14,076,33,10,13,271,39,13,43,051,47,15,76,073,48*7B
2017-12-01 11:42:10 1512146530.137649: $GPGSV,3,2,12,18,43,285,45,20,63,049,42,21,66,306,46,24,20,148,40*7E
2017-12-01 11:42:10 1512146530.137715: $GPGSV,3,3,12,27,08,324,37,29,25,195,40,04,13,130,00,138,38,213,39*4C
2017-12-01 11:42:10 1512146530.251197: $GPZDA,164210.00,01,12,2017,00,00*60
2017-12-01 11:42:10 1512146530.251411: $GPGGA,164210,3946.9544,N,08404.9787,W,1,11,0.80,315.06,M,-33.324,M,,*7C
2017-12-01 11:42:10 1512146530.251487: $GPRMC,164210,A,3946.9544,N,08404.9787,W,0.1867,180.000,011217,,*37
2017-12-01 11:42:10 1512146530.251549: $GPGSA,A,3,5,10,13,15,18,20,21,24,27,29,138,,2.0,0.8,1.5*34
2017-12-01 11:42:10 1512146530.702162: $GPZDA,164211.00,01,12,2017,00,00*61
2017-12-01 11:42:10 1512146530.702332: $GPGGA,164211,3946.9555,N,08404.9822,W,1,11,0.80,303.11,M,-33.324,M,,*7C
2017-12-01 11:42:10 1512146530.702399: $GPRMC,164211,A,3946.9555,N,08404.9822,W,0.1567,9.200,011217,,*39
2017-12-01 11:42:10 1512146530.702460: $GPGSA,A,3,5,10,13,15,18,20,21,24,27,29,138,,2.0,0.8,1.5*34
2017-12-01 11:42:11 1512146531.356629: $GPZDA,164212.00,01,12,2017,00,00*62
2017-12-01 11:42:11 1512146531.356800: $GPGGA,164212,3946.9559,N,08404.9821,W,1,11,0.80,302.34,M,-33.324,M,,*76
2017-12-01 11:42:11 1512146531.356867: $GPRMC,164212,A,3946.9559,N,08404.9821,W,0.0000,0.000,011217,,*3B
2017-12-01 11:42:11 1512146531.356927: $GPGSA,A,3,5,10,13,15,18,20,21,24,27,29,138,,2.0,0.8,1.5*34
2017-12-01 11:42:12 1512146532.691892: $GPGSV,3,1,12,05,14,076,34,10,13,271,40,13,43,051,47,15,76,073,47*7D
2017-12-01 11:42:12 1512146532.692095: $GPGSV,3,2,12,18,43,285,45,20,63,049,42,21,66,306,45,24,20,148,40*7D
2017-12-01 11:42:12 1512146532.692165: $GPGSV,3,3,12,27,08,324,38,29,25,195,41,04,13,130,00,138,38,213,46*4A
2017-12-01 11:42:12 1512146532.805337: $GPZDA,164213.00,01,12,2017,00,00*63
2017-12-01 11:42:12 1512146532.805505: $GPGGA,164213,3946.9559,N,08404.9821,W,1,11,0.80,302.34,M,-33.324,M,,*77
2017-12-01 11:42:12 1512146532.805570: $GPRMC,164213,A,3946.9559,N,08404.9821,W,0.0000,0.000,011217,,*3A
2017-12-01 11:42:12 1512146532.805632: $GPGSA,A,3,5,10,13,15,18,20,21,24,27,29,138,,2.0,0.8,1.5*34
2017-12-01 11:42:13 1512146533.361217: $GPZDA,164214.00,01,12,2017,00,00*64
2017-12-01 11:42:13 1512146533.361464: $GPGGA,164214,3946.9559,N,08404.9821,W,1,11,0.80,302.34,M,-33.324,M,,*70
2017-12-01 11:42:13 1512146533.361541: $GPRMC,164214,A,3946.9559,N,08404.9821,W,0.0000,0.000,011217,,*3D
2017-12-01 11:42:13 1512146533.361604: $GPGSA,A,3,5,10,13,15,18,20,21,24,27,29,138,,2.0,0.8,1.5*34
2017-12-01 11:42:14 1512146534.355982: $GPZDA,164215.00,01,12,2017,00,00*65
2017-12-01 11:42:14 1512146534.356280: $GPGGA,164215,3946.9559,N,08404.9821,W,1,11,0.80,302.34,M,-33.324,M,,*71
2017-12-01 11:42:14 1512146534.356368: $GPRMC,164215,A,3946.9559,N,08404.9821,W,0.0000,0.000,011217,,*3C
2017-12-01 11:42:14 1512146534.356431: $GPGSA,A,3,5,10,13,15,18,20,21,24,27,29,138,,2.0,0.8,1.5*34
2017-12-01 11:42:14 1512146534.356609: $GPGBS,164215,10.70,M,15.43,M,35.28,M*02
2017-12-01 11:42:15 1512146535.692584: $GPGSV,3,1,12,05,14,076,35,10,13,271,40,13,43,051,47,15,76,073,48*73
2017-12-01 11:42:15 1512146535.692762: $GPGSV,3,2,12,18,43,285,45,20,63,049,42,21,66,306,45,24,20,148,40*7D
2017-12-01 11:42:15 1512146535.692838: $GPGSV,3,3,12,27,08,324,38,29,25,195,41,04,13,130,00,138,38,213,46*4A
2017-12-01 11:42:15 1512146535.805885: $GPZDA,164216.00,01,12,2017,00,00*66
2017-12-01 11:42:15 1512146535.806091: $GPGGA,164216,3946.9559,N,08404.9821,W,1,11,0.80,302.34,M,-33.324,M,,*72
2017-12-01 11:42:15 1512146535.806158: $GPRMC,164216,A,3946.9559,N,08404.9821,W,0.0000,0.000,011217,,*3F
2017-12-01 11:42:15 1512146535.806220: $GPGSA,A,3,5,10,13,15,18,20,21,24,27,29,138,,2.0,0.8,1.5*34
2017-12-01 11:42:16 1512146536.357339: $GPZDA,164217.00,01,12,2017,00,00*67
2017-12-01 11:42:16 1512146536.357522: $GPGGA,164217,3946.9559,N,08404.9821,W,2,11,1.00,302.34,M,-33.324,M,,*79
2017-12-01 11:42:16 1512146536.357608: $GPRMC,164217,A,3946.9559,N,08404.9821,W,0.0000,0.000,011217,,*3E
2017-12-01 11:42:16 1512146536.357881: $GPGSA,A,3,5,10,13,15,18,20,21,24,27,29,138,,2.0,1.0,1.5*3D
2017-12-01 11:42:17 1512146537.358335: $GPZDA,164218.00,01,12,2017,00,00*68
2017-12-01 11:42:17 1512146537.358499: $GPGGA,164218,3946.9559,N,08404.9821,W,2,11,0.80,302.34,M,-33.324,M,,*7F
2017-12-01 11:42:17 1512146537.358565: $GPRMC,164218,A,3946.9559,N,08404.9821,W,0.0000,0.000,011217,,*31
2017-12-01 11:42:17 1512146537.358626: $GPGSA,A,3,5,10,13,15,18,20,21,24,27,29,138,,2.0,0.8,1.5*34
