2017-11-16 14:43:02 1510861382.461099: {"class":"VERSION","release":"3.17","rev":"3.17","proto_major":3,"proto_minor":12}
2017-11-16 14:43:02 1510861382.461562: {"class":"DEVICES","devices":[{"class":"DEVICE","path":"/dev/ttyUSB0","driver":"SiRF","subtype":"9\u0006GSD4e_4.1.2-P1_RPATCH.05-F-GPS-4R-1510281 11/03/2015 307","activated":"2017-11-16T19:43:02.389Z","flags":1,"native":1,"bps":4800,"parity":"N","stopbits":1,"cycle":1.00}]}
2017-11-16 14:43:02 1510861382.461674: {"class":"WATCH","enable":true,"json":false,"nmea":true,"raw":0,"scaled":false,"timing":false,"split24":false,"pps":false}
2017-11-16 14:43:02 1510861382.502268: $GPZDA,194301.00,16,11,2017,00,00*6B
2017-11-16 14:43:02 1510861382.502435: $GPGGA,194301,3946.9564,N,08404.9842,W,2,11,0.80,302.74,M,-33.324,M,,*76
2017-11-16 14:43:02 1510861382.502495: $GPRMC,194301,A,3946.9564,N,08404.9842,W,0.0000,0.000,161117,,*39
2017-11-16 14:43:02 1510861382.502552: $GPGSA,A,3,8,10,15,18,21,20,24,27,32,14,138,,1.6,0.8,1.3*37
2017-11-16 14:43:03 1510861383.837987: $GPGSV,3,1,11,08,08,310,38,10,52,312,50,15,26,057,51,18,77,021,44*7D
2017-11-16 14:43:03 1510861383.838151: $GPGSV,3,2,11,21,49,183,47,20,23,106,46,24,53,087,48,27,15,276,42*7E
2017-11-16 14:43:03 1510861383.838211: $GPGSV,3,3,11,32,31,247,48,14,15,240,40,138,38,213,44*75
2017-11-16 14:43:03 1510861383.951372: $GPZDA,194302.00,16,11,2017,00,00*68
2017-11-16 14:43:03 1510861383.951549: $GPGGA,194302,3946.9564,N,08404.9842,W,2,11,0.80,302.74,M,-33.324,M,,*75
2017-11-16 14:43:03 1510861383.951612: $GPRMC,194302,A,3946.9564,N,08404.9842,W,0.0000,0.000,161117,,*3A
2017-11-16 14:43:03 1510861383.951668: $GPGSA,A,3,8,10,15,18,21,20,24,27,32,14,138,,1.6,0.8,1.3*37
2017-11-16 14:43:04 1510861384.577573: $GPZDA,194303.00,16,11,2017,00,00*69
2017-11-16 14:43:04 1510861384.577744: $GPGGA,194303,3946.9564,N,08404.9842,W,2,11,0.80,302.74,M,-33.324,M,,*74
2017-11-16 14:43:04 1510861384.577831: $GPRMC,194303,A,3946.9564,N,08404.9842,W,0.0000,0.000,161117,,*3B
2017-11-16 14:43:04 1510861384.577890: $GPGSA,A,3,8,10,15,18,21,20,24,27,32,14,138,,1.6,0.8,1.3*37
2017-11-16 14:43:05 1510861385.536118: $GPZDA,194304.00,16,11,2017,00,00*6E
2017-11-16 14:43:05 1510861385.536279: $GPGGA,194304,3946.9564,N,08404.9842,W,2,11,0.80,302.74,M,-33.324,M,,*73
2017-11-16 14:43:05 1510861385.536341: $GPRMC,194304,A,3946.9564,N,08404.9842,W,0.0000,0.000,161117,,*3C
2017-11-16 14:43:05 1510861385.536398: $GPGSA,A,3,8,10,15,18,21,20,24,27,32,14,138,,1.6,0.8,1.3*37
2017-11-16 14:43:06 1510861386.839403: $GPGSV,3,1,11,08,08,310,38,10,52,312,50,15,26,057,51,18,77,021,44*7D
2017-11-16 14:43:06 1510861386.839567: $GPGSV,3,2,11,21,49,183,47,20,23,106,46,24,53,087,49,27,15,276,41*7C
2017-11-16 14:43:06 1510861386.839627: $GPGSV,3,3,11,32,31,247,48,14,15,240,40,138,38,213,43*72
2017-11-16 14:43:06 1510861386.953074: $GPZDA,194305.00,16,11,2017,00,00*6F
2017-11-16 14:43:06 1510861386.953243: $GPGGA,194305,3946.9564,N,08404.9842,W,2,11,0.80,302.74,M,-33.324,M,,*72
2017-11-16 14:43:06 1510861386.953305: $GPRMC,194305,A,3946.9564,N,08404.9842,W,0.0000,0.000,161117,,*3D
2017-11-16 14:43:06 1510861386.953361: $GPGSA,A,3,8,10,15,18,21,20,24,27,32,14,138,,1.6,0.8,1.3*37
2017-11-16 14:43:07 1510861387.536309: $GPZDA,194306.00,16,11,2017,00,00*6C
2017-11-16 14:43:07 1510861387.536490: $GPGGA,194306,3946.9564,N,08404.9842,W,2,11,0.80,302.74,M,-33.324,M,,*71
2017-11-16 14:43:07 1510861387.536552: $GPRMC,194306,A,3946.9564,N,08404.9842,W,0.0000,0.000,161117,,*3E
2017-11-16 14:43:07 1510861387.536609: $GPGSA,A,3,8,10,15,18,21,20,24,27,32,14,138,,1.6,0.8,1.3*37
2017-11-16 14:43:08 1510861388.495953: $GPZDA,194307.00,16,11,2017,00,00*6D
2017-11-16 14:43:08 1510861388.496123: $GPGGA,194307,3946.9564,N,08404.9842,W,2,11,0.80,302.74,M,-33.324,M,,*70
2017-11-16 14:43:08 1510861388.496183: $GPRMC,194307,A,3946.9564,N,08404.9842,W,0.0000,0.000,161117,,*3F
2017-11-16 14:43:08 1510861388.496240: $GPGSA,A,3,8,10,15,18,21,20,24,27,32,14,138,,1.6,0.8,1.3*37
2017-11-16 14:43:09 1510861389.872123: $GPGSV,3,1,11,08,08,310,38,10,52,312,50,15,26,057,51,18,77,021,45*7C
2017-11-16 14:43:09 1510861389.872353: $GPGSV,3,2,11,21,49,183,47,20,23,106,46,24,53,087,48,27,15,276,41*7D
2017-11-16 14:43:09 1510861389.872414: $GPGSV,3,3,11,32,31,247,48,14,15,240,40,138,38,213,44*75
2017-11-16 14:43:09 1510861389.985646: $GPZDA,194308.00,16,11,2017,00,00*62
2017-11-16 14:43:09 1510861389.985807: $GPGGA,194308,3946.9564,N,08404.9842,W,2,11,0.80,302.74,M,-33.324,M,,*7F
2017-11-16 14:43:09 1510861389.985869: $GPRMC,194308,A,3946.9564,N,08404.9842,W,0.0000,0.000,161117,,*30
2017-11-16 14:43:09 1510861389.985925: $GPGSA,A,3,8,10,15,18,21,20,24,27,32,14,138,,1.6,0.8,1.3*37
2017-11-16 14:43:10 1510861390.501532: $GPZDA,194309.00,16,11,2017,00,00*63
2017-11-16 14:43:10 1510861390.501693: $GPGGA,194309,3946.9564,N,08404.9842,W,2,11,0.80,302.74,M,-33.324,M,,*7E
2017-11-16 14:43:10 1510861390.501754: $GPRMC,194309,A,3946.9564,N,08404.9842,W,0.0000,0.000,161117,,*31
2017-11-16 14:43:10 1510861390.501810: $GPGSA,A,3,8,10,15,18,21,20,24,27,32,14,138,,1.6,0.8,1.3*37
2017-11-16 14:43:11 1510861391.501089: $GPZDA,194310.00,16,11,2017,00,00*6B
2017-11-16 14:43:11 1510861391.501252: $GPGGA,194310,3946.9564,N,08404.9842,W,2,11,0.80,302.74,M,-33.324,M,,*76
2017-11-16 14:43:11 1510861391.501314: $GPRMC,194310,A,3946.9564,N,08404.9842,W,0.0000,0.000,161117,,*39
2017-11-16 14:43:11 1510861391.501369: $GPGSA,A,3,8,10,15,18,21,20,24,27,32,14,138,,1.6,0.8,1.3*37
