2017-11-15 19:09:58 1510790998.974867: {"class":"VERSION","release":"3.17","rev":"3.17","proto_major":3,"proto_minor":12}
2017-11-15 19:09:58 1510790998.975522: {"class":"DEVICES","devices":[{"class":"DEVICE","path":"/dev/ttyUSB0","driver":"SiRF","subtype":"9\u0006GSD4e_4.1.2-P1_RPATCH.05-F-GPS-4R-1510281 11/03/2015 307","activated":"2017-11-16T00:09:58.485Z","flags":1,"native":1,"bps":4800,"parity":"N","stopbits":1,"cycle":1.00}]}
2017-11-15 19:09:58 1510790998.975670: {"class":"WATCH","enable":true,"json":false,"nmea":true,"raw":0,"scaled":false,"timing":false,"split24":false,"pps":false}
2017-11-15 19:09:59 1510790999.328488: $GPZDA,000958.00,16,11,2017,00,00*61
2017-11-15 19:09:59 1510790999.328666: $GPGGA,000958,3946.9534,N,08404.9514,W,1,06,2.00,303.14,M,-33.324,M,,*7F
2017-11-15 19:09:59 1510790999.328732: $GPRMC,000958,A,3946.9534,N,08404.9514,W,2.5908,206.156,161117,,*38
2017-11-15 19:09:59 1510790999.328788: $GPGSA,A,3,32,14,26,31,16,22,,,,,,,3.4,2.0,2.9*39
2017-11-15 19:10:00 1510791000.680525: $GPGSV,3,1,12,32,43,099,22,14,61,079,24,03,34,307,00,26,43,175,16*73
2017-11-15 19:10:00 1510791000.680696: $GPGSV,3,2,12,31,74,006,12,16,14,190,20,22,49,283,21,25,24,043,00*76
2017-11-15 19:10:00 1510791000.680758: $GPGSV,3,3,12,01,10,259,00,29,07,079,00,10,05,159,00,138,38,213,00*4E
2017-11-15 19:10:00 1510791000.793856: $GPZDA,000959.00,16,11,2017,00,00*60
2017-11-15 19:10:00 1510791000.794019: $GPGGA,000959,3946.9530,N,08404.9514,W,1,06,2.00,302.50,M,-33.324,M,,*7B
2017-11-15 19:10:00 1510791000.794081: $GPRMC,000959,A,3946.9530,N,08404.9514,W,2.5908,206.156,161117,,*3D
2017-11-15 19:10:00 1510791000.794137: $GPGSA,A,3,32,14,26,31,16,22,,,,,,,3.4,2.0,2.9*39
2017-11-15 19:10:01 1510791001.419228: $GPZDA,001000.00,16,11,2017,00,00*64
2017-11-15 19:10:01 1510791001.419391: $GPGGA,001000,3946.9522,N,08404.9515,W,1,06,2.00,302.63,M,-33.324,M,,*7D
2017-11-15 19:10:01 1510791001.419453: $GPRMC,001000,A,3946.9522,N,08404.9515,W,2.5908,206.156,161117,,*3B
2017-11-15 19:10:01 1510791001.419509: $GPGSA,A,3,32,14,26,31,16,22,,,,,,,3.4,2.0,2.9*39
2017-11-15 19:10:02 1510791002.328827: $GPZDA,001001.00,16,11,2017,00,00*65
2017-11-15 19:10:02 1510791002.329007: $GPGGA,001001,3946.9522,N,08404.9515,W,1,06,2.00,302.63,M,-33.324,M,,*7C
2017-11-15 19:10:02 1510791002.329070: $GPRMC,001001,A,3946.9522,N,08404.9515,W,1.9585,198.105,161117,,*3E
2017-11-15 19:10:02 1510791002.329127: $GPGSA,A,3,32,14,26,31,16,22,,,,,,,3.4,2.0,2.9*39
2017-11-15 19:10:03 1510791003.680959: $GPGSV,3,1,12,32,43,099,22,14,61,079,24,03,34,307,00,26,43,175,15*70
2017-11-15 19:10:03 1510791003.681167: $GPGSV,3,2,12,31,74,006,14,16,14,190,19,22,49,283,21,25,24,043,00*7A
2017-11-15 19:10:03 1510791003.681230: $GPGSV,3,3,12,01,10,259,00,29,07,079,00,10,05,159,00,138,38,213,00*4E
2017-11-15 19:10:03 1510791003.794342: $GPZDA,001002.00,16,11,2017,00,00*66
2017-11-15 19:10:03 1510791003.794540: $GPGGA,001002,3946.9519,N,08404.9515,W,1,06,2.00,303.39,M,-33.324,M,,*79
2017-11-15 19:10:03 1510791003.794602: $GPRMC,001002,A,3946.9519,N,08404.9515,W,1.9131,191.058,161117,,*3E
2017-11-15 19:10:03 1510791003.794658: $GPGSA,A,3,32,14,26,31,16,22,,,,,,,3.4,2.0,2.9*39
2017-11-15 19:10:04 1510791004.330081: $GPZDA,001003.00,16,11,2017,00,00*67
2017-11-15 19:10:04 1510791004.330283: $GPGGA,001003,3946.9515,N,08404.9515,W,1,06,2.00,302.75,M,-33.324,M,,*7D
2017-11-15 19:10:04 1510791004.330347: $GPRMC,001003,A,3946.9515,N,08404.9515,W,1.5738,192.547,161117,,*38
2017-11-15 19:10:04 1510791004.330403: $GPGSA,A,3,32,14,26,31,16,22,,,,,,,3.4,2.0,2.9*39
2017-11-15 19:10:05 1510791005.346014: $GPZDA,001004.00,16,11,2017,00,00*60
2017-11-15 19:10:05 1510791005.346194: $GPGGA,001004,3946.9515,N,08404.9515,W,1,06,2.00,302.75,M,-33.324,M,,*7A
2017-11-15 19:10:05 1510791005.346256: $GPRMC,001004,A,3946.9515,N,08404.9515,W,1.2132,183.551,161117,,*33
2017-11-15 19:10:05 1510791005.346313: $GPGSA,A,3,32,14,26,31,16,22,,,,,,,3.4,2.0,2.9*39
2017-11-15 19:10:06 1510791006.681243: $GPGSV,3,1,12,32,43,099,22,14,61,079,24,03,34,307,00,26,43,175,15*70
2017-11-15 19:10:06 1510791006.681430: $GPGSV,3,2,12,31,74,006,15,16,14,190,19,22,49,283,20,25,24,043,00*7A
2017-11-15 19:10:06 1510791006.681543: $GPGSV,3,3,12,01,10,259,00,29,07,079,00,10,05,159,00,138,38,213,00*4E
2017-11-15 19:10:06 1510791006.793287: $GPZDA,001005.00,16,11,2017,00,00*61
2017-11-15 19:10:06 1510791006.793456: $GPGGA,001005,3946.9514,N,08404.9508,W,1,06,2.00,302.83,M,-33.324,M,,*7F
2017-11-15 19:10:06 1510791006.793535: $GPRMC,001005,A,3946.9514,N,08404.9508,W,1.0269,184.197,161117,,*39
2017-11-15 19:10:06 1510791006.793592: $GPGSA,A,3,32,14,26,31,16,22,,,,,,,3.4,2.0,2.9*39
2017-11-15 19:10:07 1510791007.346696: $GPZDA,001006.00,16,11,2017,00,00*62
2017-11-15 19:10:07 1510791007.346923: $GPGGA,001006,3946.9514,N,08404.9508,W,1,06,2.00,302.83,M,-33.324,M,,*7C
2017-11-15 19:10:07 1510791007.346983: $GPRMC,001006,A,3946.9514,N,08404.9508,W,0.4207,219.347,161117,,*3F
2017-11-15 19:10:07 1510791007.347041: $GPGSA,A,3,32,14,26,31,16,22,,,,,,,3.4,2.0,2.9*39
2017-11-15 19:10:08 1510791008.345057: $GPZDA,001007.00,16,11,2017,00,00*63
2017-11-15 19:10:08 1510791008.345238: $GPGGA,001007,3946.9514,N,08404.9508,W,1,06,2.00,302.83,M,-33.324,M,,*7D
2017-11-15 19:10:08 1510791008.345303: $GPRMC,001007,A,3946.9514,N,08404.9508,W,0.4179,148.778,161117,,*3B
2017-11-15 19:10:08 1510791008.345360: $GPGSA,A,3,32,14,26,31,16,22,,,,,,,3.4,2.0,2.9*39
