2017-12-01 17:55:39 1512168939.077770: {"class":"VERSION","release":"3.16","rev":"3.16-4","proto_major":3,"proto_minor":11}
2017-12-01 17:55:39 1512168939.078161: {"class":"DEVICES","devices":[{"class":"DEVICE","path":"/dev/ttyUSB0","driver":"SiRF","subtype":"9\u0006GSD4e_4.1.2-P1_RPATCH.05-F-GPS-4R-1510281 11/03/2015 307","activated":"2017-12-01T22:55:38.506Z","flags":1,"native":1,"bps":4800,"parity":"N","stopbits":1,"cycle":1.00}]}
2017-12-01 17:55:39 1512168939.078290: {"class":"WATCH","enable":true,"json":false,"nmea":true,"raw":0,"scaled":false,"timing":false,"split24":false,"pps":false}
2017-12-01 17:55:39 1512168939.361850: $GPZDA,225540.00,01,12,2017,00,00*64
2017-12-01 17:55:39 1512168939.362028: $GPGGA,225540,3946.9744,N,08404.9843,W,2,12,0.80,293.90,M,-33.325,M,,*7C
2017-12-01 17:55:39 1512168939.362096: $GPRMC,225540,A,3946.9744,N,08404.9843,W,0.0000,0.000,011217,,*37
2017-12-01 17:55:39 1512168939.362157: $GPGSA,A,3,1,3,10,14,16,22,23,25,26,31,32,138,2.0,0.8,1.5*06
2017-12-01 17:55:40 1512168940.698158: $GPGSV,3,1,12,01,13,262,33,03,32,309,47,10,09,159,42,14,63,070,43*75
2017-12-01 17:55:40 1512168940.698341: $GPGSV,3,2,12,16,11,189,41,22,47,289,47,29,06,084,19,25,27,046,42*75
2017-12-01 17:55:40 1512168940.698409: $GPGSV,3,3,12,26,40,175,45,31,76,355,46,32,45,096,45,138,38,213,45*44
2017-12-01 17:55:40 1512168940.810505: $GPZDA,225541.00,01,12,2017,00,00*65
2017-12-01 17:55:40 1512168940.810634: $GPGGA,225541,3946.9744,N,08404.9843,W,2,11,0.80,293.90,M,-33.325,M,,*7E
2017-12-01 17:55:40 1512168940.810699: $GPRMC,225541,A,3946.9744,N,08404.9843,W,0.0000,0.000,011217,,*36
2017-12-01 17:55:40 1512168940.810759: $GPGSA,A,3,1,3,10,14,16,22,25,26,31,32,138,,2.0,0.8,1.5*07
2017-12-01 17:55:41 1512168941.361397: $GPZDA,225542.00,01,12,2017,00,00*66
2017-12-01 17:55:41 1512168941.361578: $GPGGA,225542,3946.9744,N,08404.9843,W,2,11,0.80,293.90,M,-33.325,M,,*7D
2017-12-01 17:55:41 1512168941.361645: $GPRMC,225542,A,3946.9744,N,08404.9843,W,0.0000,0.000,011217,,*35
2017-12-01 17:55:41 1512168941.361749: $GPGSA,A,3,1,3,10,14,16,22,25,26,31,32,138,,2.0,0.8,1.5*07
2017-12-01 17:55:42 1512168942.353649: $GPZDA,225543.00,01,12,2017,00,00*67
2017-12-01 17:55:42 1512168942.353839: $GPGGA,225543,3946.9744,N,08404.9843,W,2,11,0.80,293.90,M,-33.325,M,,*7C
2017-12-01 17:55:42 1512168942.353910: $GPRMC,225543,A,3946.9744,N,08404.9843,W,0.0000,0.000,011217,,*34
2017-12-01 17:55:42 1512168942.353974: $GPGSA,A,3,1,3,10,14,16,22,25,26,31,32,138,,2.0,0.8,1.5*07
2017-12-01 17:55:43 1512168943.722820: $GPGSV,3,1,12,01,13,262,33,03,32,309,47,10,09,159,42,14,63,070,43*75
2017-12-01 17:55:43 1512168943.723056: $GPGSV,3,2,12,16,11,189,40,22,47,289,47,29,06,084,23,25,27,046,42*7D
2017-12-01 17:55:43 1512168943.723128: $GPGSV,3,3,12,26,40,175,44,31,76,355,46,32,45,096,45,138,38,213,46*46
2017-12-01 17:55:43 1512168943.836944: $GPZDA,225544.00,01,12,2017,00,00*60
2017-12-01 17:55:43 1512168943.837614: $GPGGA,225544,3946.9744,N,08404.9843,W,2,12,0.80,293.90,M,-33.325,M,,*78
2017-12-01 17:55:43 1512168943.837731: $GPRMC,225544,A,3946.9744,N,08404.9843,W,0.0000,0.000,011217,,*33
2017-12-01 17:55:43 1512168943.837796: $GPGSA,A,3,1,3,10,14,16,22,29,25,26,31,32,138,2.0,0.8,1.5*0C
2017-12-01 17:55:44 1512168944.360763: $GPZDA,225545.00,01,12,2017,00,00*61
2017-12-01 17:55:44 1512168944.360938: $GPGGA,225545,3946.9744,N,08404.9843,W,2,12,0.80,293.90,M,-33.325,M,,*79
2017-12-01 17:55:44 1512168944.361027: $GPRMC,225545,A,3946.9744,N,08404.9843,W,0.0000,0.000,011217,,*32
2017-12-01 17:55:44 1512168944.361094: $GPGSA,A,3,1,3,10,14,16,22,29,25,26,31,32,138,2.0,0.8,1.5*0C
2017-12-01 17:55:45 1512168945.385617: $GPZDA,225546.00,01,12,2017,00,00*62
2017-12-01 17:55:45 1512168945.385810: $GPGGA,225546,3946.9741,N,08404.9844,W,2,12,0.80,294.66,M,-33.325,M,,*76
2017-12-01 17:55:45 1512168945.385897: $GPRMC,225546,A,3946.9741,N,08404.9844,W,0.0000,0.000,011217,,*33
2017-12-01 17:55:45 1512168945.385963: $GPGSA,A,3,1,3,10,14,16,22,29,25,26,31,32,138,2.0,0.8,1.5*0C
2017-12-01 17:55:46 1512168946.720580: $GPGSV,3,1,12,01,13,262,33,03,32,309,48,10,09,159,42,14,63,070,42*7B
2017-12-01 17:55:46 1512168946.720818: $GPGSV,3,2,12,16,11,189,41,22,47,289,47,29,06,084,23,25,27,046,43*7D
2017-12-01 17:55:46 1512168946.720889: $GPGSV,3,3,12,26,40,175,45,31,76,355,46,32,45,096,44,138,38,213,46*46
2017-12-01 17:55:46 1512168946.834196: $GPZDA,225547.00,01,12,2017,00,00*63
2017-12-01 17:55:46 1512168946.834362: $GPGGA,225547,3946.9741,N,08404.9844,W,2,12,0.80,294.66,M,-33.325,M,,*77
2017-12-01 17:55:46 1512168946.834428: $GPRMC,225547,A,3946.9741,N,08404.9844,W,0.0000,0.000,011217,,*32
2017-12-01 17:55:46 1512168946.834489: $GPGSA,A,3,1,3,10,14,16,22,29,25,26,31,32,138,2.0,0.8,1.5*0C
2017-12-01 17:55:47 1512168947.386157: $GPZDA,225548.00,01,12,2017,00,00*6C
2017-12-01 17:55:47 1512168947.386329: $GPGGA,225548,3946.9741,N,08404.9844,W,2,12,0.80,294.66,M,-33.325,M,,*78
2017-12-01 17:55:47 1512168947.386400: $GPRMC,225548,A,3946.9741,N,08404.9844,W,0.0000,0.000,011217,,*3D
2017-12-01 17:55:47 1512168947.386465: $GPGSA,A,3,1,3,10,14,16,22,29,25,26,31,32,138,2.0,0.8,1.5*0C
2017-12-01 17:55:48 1512168948.380671: $GPZDA,225549.00,01,12,2017,00,00*6D
2017-12-01 17:55:48 1512168948.380865: $GPGGA,225549,3946.9741,N,08404.9844,W,2,12,0.80,294.66,M,-33.325,M,,*79
2017-12-01 17:55:48 1512168948.380934: $GPRMC,225549,A,3946.9741,N,08404.9844,W,0.0000,0.000,011217,,*3C
2017-12-01 17:55:48 1512168948.381021: $GPGSA,A,3,1,3,10,14,16,22,29,25,26,31,32,138,2.0,0.8,1.5*0C
2017-12-01 17:55:49 1512168949.697743: $GPGSV,3,1,12,01,13,262,34,03,32,309,48,10,09,159,42,14,63,070,42*7C
2017-12-01 17:55:49 1512168949.697963: $GPGSV,3,2,12,16,11,189,41,22,47,289,47,29,06,084,23,25,27,046,43*7D
2017-12-01 17:55:49 1512168949.698036: $GPGSV,3,3,12,26,40,175,45,31,76,355,47,32,45,096,44,138,38,213,46*47
2017-12-01 17:55:49 1512168949.809864: $GPZDA,225550.00,01,12,2017,00,00*65
2017-12-01 17:55:49 1512168949.810026: $GPGGA,225550,3946.9741,N,08404.9844,W,2,12,0.80,294.66,M,-33.325,M,,*71
2017-12-01 17:55:49 1512168949.810096: $GPRMC,225550,A,3946.9741,N,08404.9844,W,0.0000,0.000,011217,,*34
2017-12-01 17:55:49 1512168949.810160: $GPGSA,A,3,1,3,10,14,16,22,29,25,26,31,32,138,2.0,0.8,1.5*0C
2017-12-01 17:55:50 1512168950.436553: $GPZDA,225551.00,01,12,2017,00,00*64
2017-12-01 17:55:50 1512168950.436729: $GPGGA,225551,3946.9741,N,08404.9844,W,2,12,0.80,294.66,M,-33.325,M,,*70
2017-12-01 17:55:50 1512168950.436799: $GPRMC,225551,A,3946.9741,N,08404.9844,W,0.0000,0.000,011217,,*35
2017-12-01 17:55:50 1512168950.436863: $GPGSA,A,3,1,3,10,14,16,22,29,25,26,31,32,138,2.0,0.8,1.5*0C
2017-12-01 17:55:51 1512168951.387732: $GPZDA,225552.00,01,12,2017,00,00*67
2017-12-01 17:55:51 1512168951.387904: $GPGGA,225552,3946.9741,N,08404.9844,W,2,12,0.80,294.66,M,-33.325,M,,*73
2017-12-01 17:55:51 1512168951.387975: $GPRMC,225552,A,3946.9741,N,08404.9844,W,0.0000,0.000,011217,,*36
2017-12-01 17:55:51 1512168951.388039: $GPGSA,A,3,1,3,10,14,16,22,29,25,26,31,32,138,2.0,0.8,1.5*0C
2017-12-01 17:55:52 1512168952.723018: $GPGSV,3,1,12,01,13,262,34,03,32,309,47,10,09,159,42,14,63,070,42*73
2017-12-01 17:55:52 1512168952.723206: $GPGSV,3,2,12,16,11,189,41,22,47,289,47,29,06,084,18,25,27,046,43*75
2017-12-01 17:55:52 1512168952.723275: $GPGSV,3,3,12,26,40,175,45,31,76,355,47,32,45,096,44,138,38,213,46*47
2017-12-01 17:55:52 1512168952.836350: $GPZDA,225553.00,01,12,2017,00,00*66
2017-12-01 17:55:52 1512168952.836524: $GPGGA,225553,3946.9741,N,08404.9844,W,2,12,0.80,294.66,M,-33.325,M,,*72
2017-12-01 17:55:52 1512168952.836595: $GPRMC,225553,A,3946.9741,N,08404.9844,W,0.0000,0.000,011217,,*37
2017-12-01 17:55:52 1512168952.836658: $GPGSA,A,3,1,3,10,14,16,22,29,25,26,31,32,138,2.0,0.8,1.5*0C
2017-12-01 17:55:53 1512168953.359764: $GPZDA,225554.00,01,12,2017,00,00*61
2017-12-01 17:55:53 1512168953.359941: $GPGGA,225554,3946.9741,N,08404.9844,W,2,12,0.80,294.66,M,-33.325,M,,*75
2017-12-01 17:55:53 1512168953.360011: $GPRMC,225554,A,3946.9741,N,08404.9844,W,0.0000,0.000,011217,,*30
2017-12-01 17:55:53 1512168953.360075: $GPGSA,A,3,1,3,10,14,16,22,29,25,26,31,32,138,2.0,0.8,1.5*0C
2017-12-01 17:55:54 1512168954.385599: $GPZDA,225555.00,01,12,2017,00,00*60
2017-12-01 17:55:54 1512168954.385814: $GPGGA,225555,3946.9741,N,08404.9844,W,2,12,0.80,294.66,M,-33.325,M,,*74
2017-12-01 17:55:54 1512168954.385883: $GPRMC,225555,A,3946.9741,N,08404.9844,W,0.0000,0.000,011217,,*31
2017-12-01 17:55:54 1512168954.385944: $GPGSA,A,3,1,3,10,14,16,22,29,25,26,31,32,138,2.0,0.8,1.5*0C
2017-12-01 17:55:55 1512168955.698339: $GPGSV,3,1,12,01,13,262,34,03,32,309,47,10,09,159,41,14,63,070,42*70
2017-12-01 17:55:55 1512168955.698521: $GPGSV,3,2,12,16,11,189,41,22,47,289,47,29,06,084,17,25,27,046,42*7B
2017-12-01 17:55:55 1512168955.698588: $GPGSV,3,3,12,26,40,175,45,31,76,355,47,32,45,096,44,138,38,213,46*47
2017-12-01 17:55:55 1512168955.811786: $GPZDA,225556.00,01,12,2017,00,00*63
2017-12-01 17:55:55 1512168955.811935: $GPGGA,225556,3946.9741,N,08404.9844,W,2,12,0.80,294.66,M,-33.325,M,,*77
2017-12-01 17:55:55 1512168955.812001: $GPRMC,225556,A,3946.9741,N,08404.9844,W,0.0000,0.000,011217,,*32
2017-12-01 17:55:55 1512168955.812062: $GPGSA,A,3,1,3,10,14,16,22,29,25,26,31,32,138,2.0,0.8,1.5*0C
2017-12-01 17:55:56 1512168956.380167: $GPZDA,225557.00,01,12,2017,00,00*62
2017-12-01 17:55:56 1512168956.380335: $GPGGA,225557,3946.9741,N,08404.9844,W,2,12,0.80,294.66,M,-33.325,M,,*76
2017-12-01 17:55:56 1512168956.380403: $GPRMC,225557,A,3946.9741,N,08404.9844,W,0.0000,0.000,011217,,*33
2017-12-01 17:55:56 1512168956.380464: $GPGSA,A,3,1,3,10,14,16,22,29,25,26,31,32,138,2.0,0.8,1.5*0C
2017-12-01 17:55:57 1512168957.386053: $GPZDA,225558.00,01,12,2017,00,00*6D
2017-12-01 17:55:57 1512168957.386224: $GPGGA,225558,3946.9741,N,08404.9844,W,2,12,0.80,294.66,M,-33.325,M,,*79
2017-12-01 17:55:57 1512168957.386292: $GPRMC,225558,A,3946.9741,N,08404.9844,W,0.0000,0.000,011217,,*3C
2017-12-01 17:55:57 1512168957.386353: $GPGSA,A,3,1,3,10,14,16,22,29,25,26,31,32,138,2.0,0.8,1.5*0C
2017-12-01 17:55:58 1512168958.721701: $GPGSV,3,1,12,01,13,262,35,03,32,309,47,10,09,159,41,14,63,070,42*71
2017-12-01 17:55:58 1512168958.721887: $GPGSV,3,2,12,16,11,189,41,22,47,289,47,29,06,084,20,25,27,046,42*7F
2017-12-01 17:55:58 1512168958.721954: $GPGSV,3,3,12,26,40,175,45,31,76,355,48,32,45,096,44,138,38,213,46*48
2017-12-01 17:55:58 1512168958.835338: $GPZDA,225559.00,01,12,2017,00,00*6C
2017-12-01 17:55:58 1512168958.835511: $GPGGA,225559,3946.9741,N,08404.9844,W,2,12,0.80,294.66,M,-33.325,M,,*78
2017-12-01 17:55:58 1512168958.835577: $GPRMC,225559,A,3946.9741,N,08404.9844,W,0.0000,0.000,011217,,*3D
2017-12-01 17:55:58 1512168958.835639: $GPGSA,A,3,1,3,10,14,16,22,29,25,26,31,32,138,2.0,0.8,1.5*0C
