2017-11-16 14:34:12 1510860852.627560: {"class":"VERSION","release":"3.17","rev":"3.17","proto_major":3,"proto_minor":12}
2017-11-16 14:34:12 1510860852.628012: {"class":"DEVICES","devices":[{"class":"DEVICE","path":"/dev/ttyUSB0","driver":"SiRF","subtype":"9\u0006GSD4e_4.1.2-P1_RPATCH.05-F-GPS-4R-1510281 11/03/2015 307","activated":"2017-11-16T19:34:12.435Z","flags":1,"native":1,"bps":4800,"parity":"N","stopbits":1,"cycle":1.00}]}
2017-11-16 14:34:12 1510860852.628134: {"class":"WATCH","enable":true,"json":false,"nmea":true,"raw":0,"scaled":false,"timing":false,"split24":false,"pps":false}
2017-11-16 14:34:12 1510860852.884770: $GPGSV,3,1,11,08,08,313,39,10,49,309,49,15,29,055,50,18,76,003,45*7B
2017-11-16 14:34:12 1510860852.884935: $GPGSV,3,2,11,21,54,184,45,20,26,103,46,24,53,094,50,27,17,280,43*76
2017-11-16 14:34:12 1510860852.884995: $GPGSV,3,3,11,32,28,244,47,14,11,237,39,138,38,213,44*7B
2017-11-16 14:34:12 1510860852.997093: $GPZDA,193411.00,16,11,2017,00,00*6A
2017-11-16 14:34:12 1510860852.997242: $GPGGA,193411,3946.9564,N,08404.9849,W,2,11,0.80,302.66,M,-33.324,M,,*7F
2017-11-16 14:34:12 1510860852.997301: $GPRMC,193411,A,3946.9564,N,08404.9849,W,0.0000,0.000,161117,,*33
2017-11-16 14:34:12 1510860852.997356: $GPGSA,A,3,8,10,15,18,21,20,24,27,32,14,138,,1.6,0.8,1.3*37
2017-11-16 14:34:13 1510860853.512761: $GPZDA,193412.00,16,11,2017,00,00*69
2017-11-16 14:34:13 1510860853.512916: $GPGGA,193412,3946.9564,N,08404.9849,W,2,11,0.80,302.66,M,-33.324,M,,*7C
2017-11-16 14:34:13 1510860853.512978: $GPRMC,193412,A,3946.9564,N,08404.9849,W,0.0000,0.000,161117,,*30
2017-11-16 14:34:13 1510860853.513034: $GPGSA,A,3,8,10,15,18,21,20,24,27,32,14,138,,1.6,0.8,1.3*37
2017-11-16 14:34:14 1510860854.553503: $GPZDA,193413.00,16,11,2017,00,00*68
2017-11-16 14:34:14 1510860854.553658: $GPGGA,193413,3946.9564,N,08404.9849,W,2,11,0.80,302.66,M,-33.324,M,,*7D
2017-11-16 14:34:14 1510860854.553719: $GPRMC,193413,A,3946.9564,N,08404.9849,W,0.0000,0.000,161117,,*31
2017-11-16 14:34:14 1510860854.553775: $GPGSA,A,3,8,10,15,18,21,20,24,27,32,14,138,,1.6,0.8,1.3*37
2017-11-16 14:34:15 1510860855.855257: $GPGSV,3,1,11,08,08,313,40,10,49,309,49,15,29,055,50,18,76,003,45*75
2017-11-16 14:34:15 1510860855.855402: $GPGSV,3,2,11,21,54,184,46,20,26,103,46,24,53,094,51,27,17,280,43*74
2017-11-16 14:34:15 1510860855.855462: $GPGSV,3,3,11,32,28,244,47,14,11,237,39,138,38,213,44*7B
2017-11-16 14:34:15 1510860855.968862: $GPZDA,193414.00,16,11,2017,00,00*6F
2017-11-16 14:34:15 1510860855.969011: $GPGGA,193414,3946.9564,N,08404.9849,W,2,11,0.80,302.66,M,-33.324,M,,*7A
2017-11-16 14:34:15 1510860855.969069: $GPRMC,193414,A,3946.9564,N,08404.9849,W,0.0000,0.000,161117,,*36
2017-11-16 14:34:15 1510860855.969125: $GPGSA,A,3,8,10,15,18,21,20,24,27,32,14,138,,1.6,0.8,1.3*37
2017-11-16 14:34:16 1510860856.518545: $GPZDA,193415.00,16,11,2017,00,00*6E
2017-11-16 14:34:16 1510860856.518701: $GPGGA,193415,3946.9564,N,08404.9849,W,2,11,0.80,302.66,M,-33.324,M,,*7B
2017-11-16 14:34:16 1510860856.518761: $GPRMC,193415,A,3946.9564,N,08404.9849,W,0.0000,0.000,161117,,*37
2017-11-16 14:34:16 1510860856.518817: $GPGSA,A,3,8,10,15,18,21,20,24,27,32,14,138,,1.6,0.8,1.3*37
2017-11-16 14:34:17 1510860857.518684: $GPZDA,193416.00,16,11,2017,00,00*6D
2017-11-16 14:34:17 1510860857.518852: $GPGGA,193416,3946.9564,N,08404.9849,W,2,11,0.80,302.66,M,-33.324,M,,*78
2017-11-16 14:34:17 1510860857.518913: $GPRMC,193416,A,3946.9564,N,08404.9849,W,0.0000,0.000,161117,,*34
2017-11-16 14:34:17 1510860857.518968: $GPGSA,A,3,8,10,15,18,21,20,24,27,32,14,138,,1.6,0.8,1.3*37
2017-11-16 14:34:18 1510860858.856251: $GPGSV,3,1,11,08,08,313,41,10,49,309,48,15,29,055,50,18,76,003,45*75
2017-11-16 14:34:18 1510860858.856421: $GPGSV,3,2,11,21,54,184,46,20,26,103,46,24,53,094,51,27,17,280,43*74
2017-11-16 14:34:18 1510860858.856482: $GPGSV,3,3,11,32,28,244,47,14,11,237,39,138,38,213,45*7A
2017-11-16 14:34:18 1510860858.968290: $GPZDA,193417.00,16,11,2017,00,00*6C
2017-11-16 14:34:18 1510860858.968407: $GPGGA,193417,3946.9564,N,08404.9849,W,2,11,0.80,302.66,M,-33.324,M,,*79
2017-11-16 14:34:18 1510860858.968518: $GPRMC,193417,A,3946.9564,N,08404.9849,W,0.0000,0.000,161117,,*35
2017-11-16 14:34:18 1510860858.968574: $GPGSA,A,3,8,10,15,18,21,20,24,27,32,14,138,,1.6,0.8,1.3*37
2017-11-16 14:34:19 1510860859.595203: $GPZDA,193418.00,16,11,2017,00,00*63
2017-11-16 14:34:19 1510860859.595352: $GPGGA,193418,3946.9564,N,08404.9849,W,2,11,0.80,302.66,M,-33.324,M,,*76
2017-11-16 14:34:19 1510860859.595414: $GPRMC,193418,A,3946.9564,N,08404.9849,W,0.0000,0.000,161117,,*3A
2017-11-16 14:34:19 1510860859.595470: $GPGSA,A,3,8,10,15,18,21,20,24,27,32,14,138,,1.6,0.8,1.3*37
2017-11-16 14:34:20 1510860860.518304: $GPZDA,193419.00,16,11,2017,00,00*62
2017-11-16 14:34:20 1510860860.518475: $GPGGA,193419,3946.9564,N,08404.9849,W,2,11,0.80,302.66,M,-33.324,M,,*77
2017-11-16 14:34:20 1510860860.518537: $GPRMC,193419,A,3946.9564,N,08404.9849,W,0.0000,0.000,161117,,*3B
2017-11-16 14:34:20 1510860860.518593: $GPGSA,A,3,8,10,15,18,21,20,24,27,32,14,138,,1.6,0.8,1.3*37
2017-11-16 14:34:21 1510860861.854159: $GPGSV,3,1,11,08,08,313,40,10,49,309,48,15,29,055,50,18,76,003,45*74
2017-11-16 14:34:21 1510860861.854330: $GPGSV,3,2,11,21,54,184,46,20,26,103,46,24,53,094,51,27,17,280,44*73
2017-11-16 14:34:21 1510860861.854390: $GPGSV,3,3,11,32,28,244,48,14,11,237,39,138,38,213,44*74
2017-11-16 14:34:21 1510860861.967530: $GPZDA,193420.00,16,11,2017,00,00*68
2017-11-16 14:34:21 1510860861.967708: $GPGGA,193420,3946.9564,N,08404.9849,W,2,11,0.80,302.66,M,-33.324,M,,*7D
2017-11-16 14:34:21 1510860861.967789: $GPRMC,193420,A,3946.9564,N,08404.9849,W,0.0000,0.000,161117,,*31
2017-11-16 14:34:21 1510860861.967847: $GPGSA,A,3,8,10,15,18,21,20,24,27,32,14,138,,1.6,0.8,1.3*37
2017-11-16 14:34:22 1510860862.553379: $GPZDA,193421.00,16,11,2017,00,00*69
2017-11-16 14:34:22 1510860862.553547: $GPGGA,193421,3946.9564,N,08404.9849,W,2,11,0.80,302.66,M,-33.324,M,,*7C
2017-11-16 14:34:22 1510860862.553608: $GPRMC,193421,A,3946.9564,N,08404.9849,W,0.0000,0.000,161117,,*30
2017-11-16 14:34:22 1510860862.553664: $GPGSA,A,3,8,10,15,18,21,20,24,27,32,14,138,,1.6,0.8,1.3*37
2017-11-16 14:34:23 1510860863.553100: $GPZDA,193422.00,16,11,2017,00,00*6A
2017-11-16 14:34:23 1510860863.553266: $GPGGA,193422,3946.9564,N,08404.9849,W,2,11,0.80,302.66,M,-33.324,M,,*7F
2017-11-16 14:34:23 1510860863.553326: $GPRMC,193422,A,3946.9564,N,08404.9849,W,0.0000,0.000,161117,,*33
2017-11-16 14:34:23 1510860863.553381: $GPGSA,A,3,8,10,15,18,21,20,24,27,32,14,138,,1.6,0.8,1.3*37
2017-11-16 14:34:24 1510860864.857138: $GPGSV,3,1,11,08,08,313,40,10,49,309,48,15,29,055,50,18,76,003,45*74
2017-11-16 14:34:24 1510860864.857300: $GPGSV,3,2,11,21,54,184,46,20,26,103,46,24,53,094,51,27,17,280,44*73
2017-11-16 14:34:24 1510860864.857360: $GPGSV,3,3,11,32,28,244,48,14,11,237,39,138,38,213,42*72
2017-11-16 14:34:24 1510860864.970576: $GPZDA,193423.00,16,11,2017,00,00*6B
2017-11-16 14:34:24 1510860864.970736: $GPGGA,193423,3946.9564,N,08404.9849,W,2,11,0.80,302.66,M,-33.324,M,,*7E
2017-11-16 14:34:24 1510860864.970797: $GPRMC,193423,A,3946.9564,N,08404.9849,W,0.0000,0.000,161117,,*32
2017-11-16 14:34:24 1510860864.970852: $GPGSA,A,3,8,10,15,18,21,20,24,27,32,14,138,,1.6,0.8,1.3*37
2017-11-16 14:34:25 1510860865.518925: $GPZDA,193424.00,16,11,2017,00,00*6C
2017-11-16 14:34:25 1510860865.519090: $GPGGA,193424,3946.9564,N,08404.9849,W,2,11,0.80,302.66,M,-33.324,M,,*79
2017-11-16 14:34:25 1510860865.519151: $GPRMC,193424,A,3946.9564,N,08404.9849,W,0.0000,0.000,161117,,*35
2017-11-16 14:34:25 1510860865.519207: $GPGSA,A,3,8,10,15,18,21,20,24,27,32,14,138,,1.6,0.8,1.3*37
2017-11-16 14:34:26 1510860866.513889: $GPZDA,193425.00,16,11,2017,00,00*6D
2017-11-16 14:34:26 1510860866.514053: $GPGGA,193425,3946.9564,N,08404.9849,W,2,11,0.80,302.66,M,-33.324,M,,*78
2017-11-16 14:34:26 1510860866.514115: $GPRMC,193425,A,3946.9564,N,08404.9849,W,0.0000,0.000,161117,,*34
2017-11-16 14:34:26 1510860866.514171: $GPGSA,A,3,8,10,15,18,21,20,24,27,32,14,138,,1.6,0.8,1.3*37
2017-11-16 14:34:27 1510860867.854424: $GPGSV,3,1,11,08,08,313,39,10,49,309,49,15,29,055,50,18,76,003,45*7B
2017-11-16 14:34:27 1510860867.854610: $GPGSV,3,2,11,21,54,184,46,20,26,103,46,24,53,094,50,27,17,280,44*72
2017-11-16 14:34:27 1510860867.854671: $GPGSV,3,3,11,32,28,244,48,14,11,237,39,138,38,213,44*74
2017-11-16 14:34:27 1510860867.968435: $GPZDA,193426.00,16,11,2017,00,00*6E
2017-11-16 14:34:27 1510860867.968617: $GPGGA,193426,3946.9564,N,08404.9849,W,2,11,0.80,302.66,M,-33.324,M,,*7B
2017-11-16 14:34:27 1510860867.968679: $GPRMC,193426,A,3946.9564,N,08404.9849,W,0.0000,0.000,161117,,*37
2017-11-16 14:34:27 1510860867.968734: $GPGSA,A,3,8,10,15,18,21,20,24,27,32,14,138,,1.6,0.8,1.3*37
2017-11-16 14:34:28 1510860868.552600: $GPZDA,193427.00,16,11,2017,00,00*6F
2017-11-16 14:34:28 1510860868.552762: $GPGGA,193427,3946.9564,N,08404.9849,W,2,11,0.80,302.66,M,-33.324,M,,*7A
2017-11-16 14:34:28 1510860868.552823: $GPRMC,193427,A,3946.9564,N,08404.9849,W,0.0000,0.000,161117,,*36
2017-11-16 14:34:28 1510860868.552880: $GPGSA,A,3,8,10,15,18,21,20,24,27,32,14,138,,1.6,0.8,1.3*37
2017-11-16 14:34:29 1510860869.554071: $GPZDA,193428.00,16,11,2017,00,00*60
2017-11-16 14:34:29 1510860869.554232: $GPGGA,193428,3946.9564,N,08404.9849,W,2,11,0.80,302.66,M,-33.324,M,,*75
2017-11-16 14:34:29 1510860869.554292: $GPRMC,193428,A,3946.9564,N,08404.9849,W,0.0000,0.000,161117,,*39
2017-11-16 14:34:29 1510860869.554347: $GPGSA,A,3,8,10,15,18,21,20,24,27,32,14,138,,1.6,0.8,1.3*37
2017-11-16 14:34:30 1510860870.856074: $GPGSV,3,1,11,08,08,313,38,10,49,309,49,15,29,055,50,18,76,003,46*79
2017-11-16 14:34:30 1510860870.856233: $GPGSV,3,2,11,21,54,184,46,20,26,103,46,24,53,094,50,27,17,280,44*72
2017-11-16 14:34:30 1510860870.856294: $GPGSV,3,3,11,32,28,244,48,14,11,237,40,138,38,213,44*7A
2017-11-16 14:34:30 1510860870.969377: $GPZDA,193429.00,16,11,2017,00,00*61
2017-11-16 14:34:30 1510860870.969557: $GPGGA,193429,3946.9564,N,08404.9849,W,2,11,0.80,302.66,M,-33.324,M,,*74
2017-11-16 14:34:30 1510860870.969621: $GPRMC,193429,A,3946.9564,N,08404.9849,W,0.0000,0.000,161117,,*38
2017-11-16 14:34:30 1510860870.969677: $GPGSA,A,3,8,10,15,18,21,20,24,27,32,14,138,,1.6,0.8,1.3*37
2017-11-16 14:34:31 1510860871.518051: $GPZDA,193430.00,16,11,2017,00,00*69
2017-11-16 14:34:31 1510860871.518210: $GPGGA,193430,3946.9564,N,08404.9849,W,2,11,0.80,302.66,M,-33.324,M,,*7C
2017-11-16 14:34:31 1510860871.518272: $GPRMC,193430,A,3946.9564,N,08404.9849,W,0.0000,0.000,161117,,*30
2017-11-16 14:34:31 1510860871.518328: $GPGSA,A,3,8,10,15,18,21,20,24,27,32,14,138,,1.6,0.8,1.3*37
2017-11-16 14:34:32 1510860872.548982: $GPZDA,193431.00,16,11,2017,00,00*68
2017-11-16 14:34:32 1510860872.549139: $GPGGA,193431,3946.9564,N,08404.9849,W,2,11,0.80,302.66,M,-33.324,M,,*7D
2017-11-16 14:34:32 1510860872.549199: $GPRMC,193431,A,3946.9564,N,08404.9849,W,0.0000,0.000,161117,,*31
2017-11-16 14:34:32 1510860872.549255: $GPGSA,A,3,8,10,15,18,21,20,24,27,32,14,138,,1.6,0.8,1.3*37
2017-11-16 14:34:33 1510860873.892056: $GPGSV,3,1,11,08,08,313,31,10,49,309,48,15,29,055,50,18,76,003,46*71
2017-11-16 14:34:33 1510860873.892228: $GPGSV,3,2,11,21,54,184,46,20,26,103,46,24,53,094,50,27,17,280,43*75
2017-11-16 14:34:33 1510860873.892288: $GPGSV,3,3,11,32,28,244,47,14,11,237,41,138,38,213,44*74
2017-11-16 14:34:34 1510860874.005390: $GPZDA,193432.00,16,11,2017,00,00*6B
2017-11-16 14:34:34 1510860874.005553: $GPGGA,193432,3946.9564,N,08404.9849,W,2,11,0.80,302.66,M,-33.324,M,,*7E
2017-11-16 14:34:34 1510860874.005615: $GPRMC,193432,A,3946.9564,N,08404.9849,W,0.0000,0.000,161117,,*32
2017-11-16 14:34:34 1510860874.005671: $GPGSA,A,3,8,10,15,18,21,20,24,27,32,14,138,,1.6,0.8,1.3*37
2017-11-16 14:34:34 1510860874.631174: $GPZDA,193433.00,16,11,2017,00,00*6A
2017-11-16 14:34:34 1510860874.631325: $GPGGA,193433,3946.9564,N,08404.9849,W,2,11,0.80,302.66,M,-33.324,M,,*7F
2017-11-16 14:34:34 1510860874.631386: $GPRMC,193433,A,3946.9564,N,08404.9849,W,0.0000,0.000,161117,,*33
2017-11-16 14:34:34 1510860874.631442: $GPGSA,A,3,8,10,15,18,21,20,24,27,32,14,138,,1.6,0.8,1.3*37
2017-11-16 14:34:35 1510860875.555439: $GPZDA,193434.00,16,11,2017,00,00*6D
2017-11-16 14:34:35 1510860875.555651: $GPGGA,193434,3946.9564,N,08404.9849,W,2,11,0.80,302.66,M,-33.324,M,,*78
2017-11-16 14:34:35 1510860875.555715: $GPRMC,193434,A,3946.9564,N,08404.9849,W,0.0000,0.000,161117,,*34
2017-11-16 14:34:35 1510860875.555771: $GPGSA,A,3,8,10,15,18,21,20,24,27,32,14,138,,1.6,0.8,1.3*37
2017-11-16 14:34:36 1510860876.852624: $GPGSV,3,1,11,08,08,313,30,10,49,309,48,15,29,055,50,18,76,003,45*73
2017-11-16 14:34:36 1510860876.852863: $GPGSV,3,2,11,21,54,184,46,20,26,103,46,24,53,094,49,27,17,280,43*7D
2017-11-16 14:34:36 1510860876.852926: $GPGSV,3,3,11,32,28,244,47,14,11,237,41,138,38,213,43*73
2017-11-16 14:34:36 1510860876.966084: $GPZDA,193435.00,16,11,2017,00,00*6C
2017-11-16 14:34:36 1510860876.966250: $GPGGA,193435,3946.9564,N,08404.9849,W,2,11,0.80,302.66,M,-33.324,M,,*79
2017-11-16 14:34:36 1510860876.966312: $GPRMC,193435,A,3946.9564,N,08404.9849,W,0.0000,0.000,161117,,*35
2017-11-16 14:34:36 1510860876.966368: $GPGSA,A,3,8,10,15,18,21,20,24,27,32,14,138,,1.6,0.8,1.3*37
2017-11-16 14:34:37 1510860877.519666: $GPZDA,193436.00,16,11,2017,00,00*6F
2017-11-16 14:34:37 1510860877.519869: $GPGGA,193436,3946.9564,N,08404.9849,W,2,11,0.80,302.66,M,-33.324,M,,*7A
2017-11-16 14:34:37 1510860877.519934: $GPRMC,193436,A,3946.9564,N,08404.9849,W,0.0000,0.000,161117,,*36
2017-11-16 14:34:37 1510860877.520012: $GPGSA,A,3,8,10,15,18,21,20,24,27,32,14,138,,1.6,0.8,1.3*37
2017-11-16 14:34:38 1510860878.554173: $GPZDA,193437.00,16,11,2017,00,00*6E
2017-11-16 14:34:38 1510860878.554344: $GPGGA,193437,3946.9564,N,08404.9849,W,2,11,0.80,302.66,M,-33.324,M,,*7B
2017-11-16 14:34:38 1510860878.554406: $GPRMC,193437,A,3946.9564,N,08404.9849,W,0.0000,0.000,161117,,*37
2017-11-16 14:34:38 1510860878.554463: $GPGSA,A,3,8,10,15,18,21,20,24,27,32,14,138,,1.6,0.8,1.3*37
2017-11-16 14:34:39 1510860879.890757: $GPGSV,3,1,11,08,08,313,30,10,49,309,48,15,29,055,50,18,76,003,46*70
2017-11-16 14:34:39 1510860879.890997: $GPGSV,3,2,11,21,54,184,46,20,26,103,47,24,53,094,49,27,17,280,43*7C
2017-11-16 14:34:39 1510860879.891093: $GPGSV,3,3,11,32,28,244,47,14,11,237,42,138,38,213,45*76
2017-11-16 14:34:40 1510860880.004110: $GPZDA,193438.00,16,11,2017,00,00*61
2017-11-16 14:34:40 1510860880.004272: $GPGGA,193438,3946.9564,N,08404.9849,W,2,11,0.80,302.66,M,-33.324,M,,*74
2017-11-16 14:34:40 1510860880.004332: $GPRMC,193438,A,3946.9564,N,08404.9849,W,0.0000,0.000,161117,,*38
2017-11-16 14:34:40 1510860880.004388: $GPGSA,A,3,8,10,15,18,21,20,24,27,32,14,138,,1.6,0.8,1.3*37
2017-11-16 14:34:40 1510860880.554848: $GPZDA,193439.00,16,11,2017,00,00*60
2017-11-16 14:34:40 1510860880.555218: $GPGGA,193439,3946.9564,N,08404.9849,W,2,11,0.80,302.66,M,-33.324,M,,*75
2017-11-16 14:34:40 1510860880.555336: $GPRMC,193439,A,3946.9564,N,08404.9849,W,0.0000,0.000,161117,,*39
2017-11-16 14:34:40 1510860880.555427: $GPGSA,A,3,8,10,15,18,21,20,24,27,32,14,138,,1.6,0.8,1.3*37
2017-11-16 14:34:41 1510860881.519379: $GPZDA,193440.00,16,11,2017,00,00*6E
2017-11-16 14:34:41 1510860881.519551: $GPGGA,193440,3946.9564,N,08404.9849,W,2,11,0.80,302.66,M,-33.324,M,,*7B
2017-11-16 14:34:41 1510860881.519614: $GPRMC,193440,A,3946.9564,N,08404.9849,W,0.0000,0.000,161117,,*37
2017-11-16 14:34:41 1510860881.519670: $GPGSA,A,3,8,10,15,18,21,20,24,27,32,14,138,,1.6,0.8,1.3*37
