2017-12-01 17:33:10 1512167590.016845: {"class":"VERSION","release":"3.16","rev":"3.16-4","proto_major":3,"proto_minor":11}
2017-12-01 17:33:10 1512167590.017244: {"class":"DEVICES","devices":[{"class":"DEVICE","path":"/dev/ttyUSB0","driver":"SiRF","subtype":"9\u0006GSD4e_4.1.2-P1_RPATCH.05-F-GPS-4R-1510281 11/03/2015 307","activated":"2017-12-01T22:33:09.532Z","flags":1,"native":1,"bps":4800,"parity":"N","stopbits":1,"cycle":1.00}]}
2017-12-01 17:33:10 1512167590.017358: {"class":"WATCH","enable":true,"json":false,"nmea":true,"raw":0,"scaled":false,"timing":false,"split24":false,"pps":false}
2017-12-01 17:33:10 1512167590.388531: $GPZDA,223311.00,01,12,2017,00,00*60
2017-12-01 17:33:10 1512167590.388741: $GPGGA,223311,3946.9738,N,08404.9844,W,2,12,0.80,295.43,M,-33.325,M,,*7C
2017-12-01 17:33:10 1512167590.388811: $GPRMC,223311,A,3946.9738,N,08404.9844,W,0.0000,0.000,011217,,*3F
2017-12-01 17:33:10 1512167590.388871: $GPGSA,A,3,1,3,10,14,22,25,26,31,32,12,16,138,2.0,0.8,1.5*04
2017-12-01 17:33:11 1512167591.703024: $GPGSV,3,1,11,01,17,273,45,03,23,315,44,10,19,157,42,14,68,046,42*7D
2017-12-01 17:33:11 1512167591.703203: $GPGSV,3,2,11,22,41,300,47,25,34,055,43,26,29,177,42,31,79,297,46*70
2017-12-01 17:33:11 1512167591.703270: $GPGSV,3,3,11,32,53,082,46,12,05,031,23,138,38,213,45*73
2017-12-01 17:33:11 1512167591.816418: $GPZDA,223312.00,01,12,2017,00,00*63
2017-12-01 17:33:11 1512167591.816619: $GPGGA,223312,3946.9738,N,08404.9844,W,2,11,0.80,295.43,M,-33.325,M,,*7C
2017-12-01 17:33:11 1512167591.816703: $GPRMC,223312,A,3946.9738,N,08404.9844,W,0.0000,0.000,011217,,*3C
2017-12-01 17:33:11 1512167591.816766: $GPGSA,A,3,1,3,10,14,22,25,26,31,32,12,138,,2.0,0.8,1.5*03
2017-12-01 17:33:12 1512167592.442056: $GPZDA,223313.00,01,12,2017,00,00*62
2017-12-01 17:33:12 1512167592.442228: $GPGGA,223313,3946.9738,N,08404.9844,W,2,11,0.80,295.43,M,-33.325,M,,*7D
2017-12-01 17:33:12 1512167592.442294: $GPRMC,223313,A,3946.9738,N,08404.9844,W,0.0000,0.000,011217,,*3D
2017-12-01 17:33:12 1512167592.442355: $GPGSA,A,3,1,3,10,14,22,25,26,31,32,12,138,,2.0,0.8,1.5*03
2017-12-01 17:33:13 1512167593.391400: $GPZDA,223314.00,01,12,2017,00,00*65
2017-12-01 17:33:13 1512167593.391664: $GPGGA,223314,3946.9738,N,08404.9844,W,2,11,0.80,295.43,M,-33.325,M,,*7A
2017-12-01 17:33:13 1512167593.391752: $GPRMC,223314,A,3946.9738,N,08404.9844,W,0.0000,0.000,011217,,*3A
2017-12-01 17:33:13 1512167593.391814: $GPGSA,A,3,1,3,10,14,22,25,26,31,32,12,138,,2.0,0.8,1.5*03
2017-12-01 17:33:14 1512167594.724627: $GPGSV,3,1,12,01,17,273,45,03,23,315,44,10,19,157,41,14,68,046,42*7D
2017-12-01 17:33:14 1512167594.724838: $GPGSV,3,2,12,22,41,300,47,25,34,055,42,26,29,177,41,31,79,297,46*71
2017-12-01 17:33:14 1512167594.724905: $GPGSV,3,3,12,32,53,082,46,12,05,031,22,16,01,190,13,138,38,213,45*4D
2017-12-01 17:33:14 1512167594.838223: $GPZDA,223315.00,01,12,2017,00,00*64
2017-12-01 17:33:14 1512167594.838369: $GPGGA,223315,3946.9738,N,08404.9844,W,2,11,0.80,295.43,M,-33.325,M,,*7B
2017-12-01 17:33:14 1512167594.838436: $GPRMC,223315,A,3946.9738,N,08404.9844,W,0.0000,0.000,011217,,*3B
2017-12-01 17:33:14 1512167594.838497: $GPGSA,A,3,1,3,10,14,22,25,26,31,32,12,138,,2.0,0.8,1.5*03
2017-12-01 17:33:15 1512167595.394139: $GPZDA,223316.00,01,12,2017,00,00*67
2017-12-01 17:33:15 1512167595.394311: $GPGGA,223316,3946.9738,N,08404.9844,W,2,11,0.80,295.43,M,-33.325,M,,*78
2017-12-01 17:33:15 1512167595.394379: $GPRMC,223316,A,3946.9738,N,08404.9844,W,0.0000,0.000,011217,,*38
2017-12-01 17:33:15 1512167595.394440: $GPGSA,A,3,1,3,10,14,22,25,26,31,32,12,138,,2.0,0.8,1.5*03
2017-12-01 17:33:16 1512167596.390081: $GPZDA,223317.00,01,12,2017,00,00*66
2017-12-01 17:33:16 1512167596.390252: $GPGGA,223317,3946.9738,N,08404.9844,W,2,11,0.80,295.43,M,-33.325,M,,*79
2017-12-01 17:33:16 1512167596.390319: $GPRMC,223317,A,3946.9738,N,08404.9844,W,0.0000,0.000,011217,,*39
2017-12-01 17:33:16 1512167596.390380: $GPGSA,A,3,1,3,10,14,22,25,26,31,32,12,138,,2.0,0.8,1.5*03
2017-12-01 17:33:17 1512167597.703749: $GPGSV,3,1,12,01,17,273,45,03,23,315,44,10,19,157,42,14,68,046,42*7E
2017-12-01 17:33:17 1512167597.703984: $GPGSV,3,2,12,22,41,300,48,25,34,055,43,26,29,177,42,31,79,297,45*7F
2017-12-01 17:33:17 1512167597.704054: $GPGSV,3,3,12,32,53,082,46,12,05,031,22,16,01,190,16,138,38,213,45*48
2017-12-01 17:33:17 1512167597.817136: $GPZDA,223318.00,01,12,2017,00,00*69
2017-12-01 17:33:17 1512167597.817316: $GPGGA,223318,3946.9733,N,08404.9844,W,2,11,0.80,294.79,M,-33.325,M,,*75
2017-12-01 17:33:17 1512167597.817385: $GPRMC,223318,A,3946.9733,N,08404.9844,W,0.0000,0.000,011217,,*3D
2017-12-01 17:33:17 1512167597.817447: $GPGSA,A,3,1,3,10,14,22,25,26,31,32,12,138,,2.0,0.8,1.5*03
2017-12-01 17:33:18 1512167598.362039: $GPZDA,223319.00,01,12,2017,00,00*68
2017-12-01 17:33:18 1512167598.362207: $GPGGA,223319,3946.9733,N,08404.9844,W,2,11,0.80,294.79,M,-33.325,M,,*74
2017-12-01 17:33:18 1512167598.362275: $GPRMC,223319,A,3946.9733,N,08404.9844,W,0.0000,0.000,011217,,*3C
2017-12-01 17:33:18 1512167598.362336: $GPGSA,A,3,1,3,10,14,22,25,26,31,32,12,138,,2.0,0.8,1.5*03
2017-12-01 17:33:19 1512167599.366738: $GPZDA,223320.00,01,12,2017,00,00*62
2017-12-01 17:33:19 1512167599.366893: $GPGGA,223320,3946.9733,N,08404.9844,W,2,11,0.80,294.79,M,-33.325,M,,*7E
2017-12-01 17:33:19 1512167599.366960: $GPRMC,223320,A,3946.9733,N,08404.9844,W,0.0000,0.000,011217,,*36
2017-12-01 17:33:19 1512167599.367021: $GPGSA,A,3,1,3,10,14,22,25,26,31,32,12,138,,2.0,0.8,1.5*03
2017-12-01 17:33:20 1512167600.697086: $GPGSV,3,1,11,01,17,273,46,03,23,315,44,10,19,157,42,14,68,046,42*7E
2017-12-01 17:33:20 1512167600.697268: $GPGSV,3,2,11,22,41,300,48,25,34,055,42,26,29,177,42,31,79,297,45*7D
2017-12-01 17:33:20 1512167600.697335: $GPGSV,3,3,11,32,53,082,46,12,05,031,23,138,38,213,45*73
2017-12-01 17:33:20 1512167600.810703: $GPZDA,223321.00,01,12,2017,00,00*63
2017-12-01 17:33:20 1512167600.810842: $GPGGA,223321,3946.9733,N,08404.9844,W,2,11,0.80,294.79,M,-33.325,M,,*7F
2017-12-01 17:33:20 1512167600.810908: $GPRMC,223321,A,3946.9733,N,08404.9844,W,0.0000,0.000,011217,,*37
2017-12-01 17:33:20 1512167600.810969: $GPGSA,A,3,1,3,10,14,22,25,26,31,32,12,138,,2.0,0.8,1.5*03
2017-12-01 17:33:21 1512167601.371459: $GPZDA,223322.00,01,12,2017,00,00*60
2017-12-01 17:33:21 1512167601.371669: $GPGGA,223322,3946.9733,N,08404.9844,W,2,11,0.80,294.79,M,-33.325,M,,*7C
2017-12-01 17:33:21 1512167601.371738: $GPRMC,223322,A,3946.9733,N,08404.9844,W,0.0000,0.000,011217,,*34
2017-12-01 17:33:21 1512167601.371799: $GPGSA,A,3,1,3,10,14,22,25,26,31,32,12,138,,2.0,0.8,1.5*03
2017-12-01 17:33:22 1512167602.365726: $GPZDA,223323.00,01,12,2017,00,00*61
2017-12-01 17:33:22 1512167602.365900: $GPGGA,223323,3946.9733,N,08404.9844,W,2,11,0.80,294.79,M,-33.325,M,,*7D
2017-12-01 17:33:22 1512167602.365969: $GPRMC,223323,A,3946.9733,N,08404.9844,W,0.0000,0.000,011217,,*35
2017-12-01 17:33:22 1512167602.366029: $GPGSA,A,3,1,3,10,14,22,25,26,31,32,12,138,,2.0,0.8,1.5*03
2017-12-01 17:33:23 1512167603.701211: $GPGSV,3,1,12,01,17,273,46,03,23,315,44,10,19,157,42,14,68,046,42*7D
2017-12-01 17:33:23 1512167603.701453: $GPGSV,3,2,12,22,41,300,48,25,34,055,43,26,29,177,41,31,79,297,45*7C
2017-12-01 17:33:23 1512167603.701556: $GPGSV,3,3,12,32,53,082,46,12,05,031,24,16,01,190,12,138,38,213,46*49
2017-12-01 17:33:23 1512167603.814574: $GPZDA,223324.00,01,12,2017,00,00*66
2017-12-01 17:33:23 1512167603.814764: $GPGGA,223324,3946.9733,N,08404.9844,W,2,12,0.80,294.79,M,-33.325,M,,*79
2017-12-01 17:33:23 1512167603.814835: $GPRMC,223324,A,3946.9733,N,08404.9844,W,0.0000,0.000,011217,,*32
2017-12-01 17:33:23 1512167603.814899: $GPGSA,A,3,1,3,10,14,22,25,26,31,32,12,16,138,2.0,0.8,1.5*04
2017-12-01 17:33:24 1512167604.361795: $GPZDA,223325.00,01,12,2017,00,00*67
2017-12-01 17:33:24 1512167604.361969: $GPGGA,223325,3946.9733,N,08404.9844,W,2,12,0.80,294.79,M,-33.325,M,,*78
2017-12-01 17:33:24 1512167604.362038: $GPRMC,223325,A,3946.9733,N,08404.9844,W,0.0000,0.000,011217,,*33
2017-12-01 17:33:24 1512167604.362102: $GPGSA,A,3,1,3,10,14,22,25,26,31,32,12,16,138,2.0,0.8,1.5*04
2017-12-01 17:33:25 1512167605.367789: $GPZDA,223326.00,01,12,2017,00,00*64
2017-12-01 17:33:25 1512167605.368009: $GPGGA,223326,3946.9733,N,08404.9844,W,2,12,0.80,294.79,M,-33.325,M,,*7B
2017-12-01 17:33:25 1512167605.368079: $GPRMC,223326,A,3946.9733,N,08404.9844,W,0.0000,0.000,011217,,*30
2017-12-01 17:33:25 1512167605.368141: $GPGSA,A,3,1,3,10,14,22,25,26,31,32,12,16,138,2.0,0.8,1.5*04
2017-12-01 17:33:26 1512167606.710875: $GPGSV,3,1,12,01,17,273,46,03,23,315,43,10,19,157,42,14,68,046,42*7A
2017-12-01 17:33:26 1512167606.711060: $GPGSV,3,2,12,22,41,300,48,25,34,055,43,26,29,177,41,31,79,297,45*7C
2017-12-01 17:33:26 1512167606.711126: $GPGSV,3,3,12,32,53,082,46,12,05,031,24,16,01,190,04,138,38,213,46*4E
2017-12-01 17:33:26 1512167606.824442: $GPZDA,223327.00,01,12,2017,00,00*65
2017-12-01 17:33:26 1512167606.824629: $GPGGA,223327,3946.9733,N,08404.9844,W,2,11,0.80,294.79,M,-33.325,M,,*79
2017-12-01 17:33:26 1512167606.824698: $GPRMC,223327,A,3946.9733,N,08404.9844,W,0.0000,0.000,011217,,*31
2017-12-01 17:33:26 1512167606.824759: $GPGSA,A,3,1,3,10,14,22,25,26,31,32,12,138,,2.0,0.8,1.5*03
2017-12-01 17:33:27 1512167607.449588: $GPZDA,223328.00,01,12,2017,00,00*6A
2017-12-01 17:33:27 1512167607.449769: $GPGGA,223328,3946.9733,N,08404.9844,W,2,11,0.80,294.79,M,-33.325,M,,*76
2017-12-01 17:33:27 1512167607.449835: $GPRMC,223328,A,3946.9733,N,08404.9844,W,0.0000,0.000,011217,,*3E
2017-12-01 17:33:27 1512167607.449897: $GPGSA,A,3,1,3,10,14,22,25,26,31,32,12,138,,2.0,0.8,1.5*03
2017-12-01 17:33:28 1512167608.366697: $GPZDA,223329.00,01,12,2017,00,00*6B
2017-12-01 17:33:28 1512167608.366868: $GPGGA,223329,3946.9733,N,08404.9844,W,2,11,0.80,294.79,M,-33.325,M,,*77
2017-12-01 17:33:28 1512167608.366937: $GPRMC,223329,A,3946.9733,N,08404.9844,W,0.0000,0.000,011217,,*3F
2017-12-01 17:33:28 1512167608.366997: $GPGSA,A,3,1,3,10,14,22,25,26,31,32,12,138,,2.0,0.8,1.5*03
2017-12-01 17:33:29 1512167609.702442: $GPGSV,3,1,12,01,17,273,46,03,23,315,43,10,19,157,42,14,68,046,42*7A
2017-12-01 17:33:29 1512167609.702657: $GPGSV,3,2,12,22,41,300,48,25,34,055,43,26,29,177,41,31,79,297,46*7F
2017-12-01 17:33:29 1512167609.702725: $GPGSV,3,3,12,32,53,082,46,12,05,031,25,16,01,190,15,138,38,213,46*4F
2017-12-01 17:33:29 1512167609.815838: $GPZDA,223330.00,01,12,2017,00,00*63
2017-12-01 17:33:29 1512167609.816013: $GPGGA,223330,3946.9733,N,08404.9844,W,2,11,0.80,294.79,M,-33.325,M,,*7F
2017-12-01 17:33:29 1512167609.816080: $GPRMC,223330,A,3946.9733,N,08404.9844,W,0.0000,0.000,011217,,*37
2017-12-01 17:33:29 1512167609.816140: $GPGSA,A,3,1,3,10,14,22,25,26,31,32,12,138,,2.0,0.8,1.5*03
