2017-12-29 10:41:17 1514562077.546101: {"class":"VERSION","release":"3.16","rev":"3.16-4","proto_major":3,"proto_minor":11}
2017-12-29 10:41:17 1514562077.546443: {"class":"DEVICES","devices":[{"class":"DEVICE","path":"/dev/ttyUSB0","driver":"SiRF","subtype":"9\u0006GSD4e_4.1.2-P1_RPATCH.05-F-GPS-4R-1510281 11/03/2015 307","activated":"2017-12-29T15:41:17.497Z","flags":1,"native":1,"bps":4800,"parity":"N","stopbits":1,"cycle":1.00}]}
2017-12-29 10:41:17 1514562077.546558: {"class":"WATCH","enable":true,"json":false,"nmea":true,"raw":0,"scaled":false,"timing":false,"split24":false,"pps":false}
2017-12-29 10:41:18 1514562078.726539: $GPGSV,3,1,11,10,29,289,44,13,21,045,44,15,52,049,50,18,61,310,44*75
2017-12-29 10:41:18 1514562078.726712: $GPGSV,3,2,11,20,47,081,48,21,78,225,47,24,40,130,49,29,04,187,31*78
2017-12-29 10:41:18 1514562078.726779: $GPGSV,3,3,11,27,18,306,36,32,08,229,27,138,38,213,44*71
2017-12-29 10:41:18 1514562078.839863: $GPZDA,154119.00,29,12,2017,00,00*63
2017-12-29 10:41:18 1514562078.840002: $GPGGA,154119,3946.9597,N,08404.9826,W,2,11,0.80,292.37,M,-33.324,M,,*70
2017-12-29 10:41:18 1514562078.840069: $GPRMC,154119,A,3946.9597,N,08404.9826,W,0.0000,0.000,291217,,*3F
2017-12-29 10:41:18 1514562078.840130: $GPGSA,A,3,10,13,15,18,20,21,24,29,27,32,138,,1.7,0.8,1.3*02
2017-12-29 10:41:19 1514562079.860909: $GPZDA,154120.00,29,12,2017,00,00*69
2017-12-29 10:41:19 1514562079.861124: $GPGGA,154120,3946.9597,N,08404.9826,W,2,11,0.80,292.37,M,-33.324,M,,*7A
2017-12-29 10:41:19 1514562079.861199: $GPRMC,154120,A,3946.9597,N,08404.9826,W,0.0000,0.000,291217,,*35
2017-12-29 10:41:19 1514562079.861264: $GPGSA,A,3,10,13,15,18,20,21,24,29,27,32,138,,1.7,0.8,1.3*02
2017-12-29 10:41:20 1514562080.389275: $GPZDA,154121.00,29,12,2017,00,00*68
2017-12-29 10:41:20 1514562080.389439: $GPGGA,154121,3946.9597,N,08404.9826,W,2,11,0.80,292.37,M,-33.324,M,,*7B
2017-12-29 10:41:20 1514562080.389508: $GPRMC,154121,A,3946.9597,N,08404.9826,W,0.0000,0.000,291217,,*34
2017-12-29 10:41:20 1514562080.389568: $GPGSA,A,3,10,13,15,18,20,21,24,29,27,32,138,,1.7,0.8,1.3*02
2017-12-29 10:41:21 1514562081.726270: $GPGSV,3,1,11,10,29,289,44,13,21,045,44,15,52,049,50,18,61,310,44*75
2017-12-29 10:41:21 1514562081.726461: $GPGSV,3,2,11,20,46,081,48,21,77,223,47,24,40,130,48,29,04,187,31*71
2017-12-29 10:41:21 1514562081.726529: $GPGSV,3,3,11,27,18,306,37,32,09,229,31,138,38,213,45*77
2017-12-29 10:41:21 1514562081.839612: $GPZDA,154122.00,29,12,2017,00,00*6B
2017-12-29 10:41:21 1514562081.839747: $GPGGA,154122,3946.9597,N,08404.9826,W,2,11,0.80,292.37,M,-33.324,M,,*78
2017-12-29 10:41:21 1514562081.839815: $GPRMC,154122,A,3946.9597,N,08404.9826,W,0.0000,0.000,291217,,*37
2017-12-29 10:41:21 1514562081.839880: $GPGSA,A,3,10,13,15,18,20,21,24,29,27,32,138,,1.7,0.8,1.3*02
2017-12-29 10:41:22 1514562082.466244: $GPZDA,154123.00,29,12,2017,00,00*6A
2017-12-29 10:41:22 1514562082.466420: $GPGGA,154123,3946.9597,N,08404.9826,W,2,11,0.80,292.37,M,-33.324,M,,*79
2017-12-29 10:41:22 1514562082.466491: $GPRMC,154123,A,3946.9597,N,08404.9826,W,0.0000,0.000,291217,,*36
2017-12-29 10:41:22 1514562082.466555: $GPGSA,A,3,10,13,15,18,20,21,24,29,27,32,138,,1.7,0.8,1.3*02
2017-12-29 10:41:23 1514562083.389639: $GPZDA,154124.00,29,12,2017,00,00*6D
2017-12-29 10:41:23 1514562083.389822: $GPGGA,154124,3946.9597,N,08404.9826,W,2,11,0.80,292.37,M,-33.324,M,,*7E
2017-12-29 10:41:23 1514562083.389894: $GPRMC,154124,A,3946.9597,N,08404.9826,W,0.0000,0.000,291217,,*31
2017-12-29 10:41:23 1514562083.389958: $GPGSA,A,3,10,13,15,18,20,21,24,29,27,32,138,,1.7,0.8,1.3*02
2017-12-29 10:41:24 1514562084.691634: $GPGSV,3,1,11,10,29,289,43,13,21,045,44,15,52,049,50,18,61,310,44*72
2017-12-29 10:41:24 1514562084.691809: $GPGSV,3,2,11,20,46,081,48,21,77,223,47,24,40,130,48,29,04,187,30*70
2017-12-29 10:41:24 1514562084.691877: $GPGSV,3,3,11,27,18,306,37,32,09,229,32,138,38,213,45*74
2017-12-29 10:41:24 1514562084.804955: $GPZDA,154125.00,29,12,2017,00,00*6C
2017-12-29 10:41:24 1514562084.805092: $GPGGA,154125,3946.9597,N,08404.9826,W,2,11,0.80,292.37,M,-33.324,M,,*7F
2017-12-29 10:41:24 1514562084.805217: $GPRMC,154125,A,3946.9597,N,08404.9826,W,0.0000,0.000,291217,,*30
2017-12-29 10:41:24 1514562084.805282: $GPGSA,A,3,10,13,15,18,20,21,24,29,27,32,138,,1.7,0.8,1.3*02
2017-12-29 10:41:25 1514562085.393348: $GPZDA,154126.00,29,12,2017,00,00*6F
2017-12-29 10:41:25 1514562085.393505: $GPGGA,154126,3946.9597,N,08404.9826,W,2,11,0.80,292.37,M,-33.324,M,,*7C
2017-12-29 10:41:25 1514562085.393571: $GPRMC,154126,A,3946.9597,N,08404.9826,W,0.0000,0.000,291217,,*33
2017-12-29 10:41:25 1514562085.393632: $GPGSA,A,3,10,13,15,18,20,21,24,29,27,32,138,,1.7,0.8,1.3*02
2017-12-29 10:41:26 1514562086.356735: $GPZDA,154127.00,29,12,2017,00,00*6E
2017-12-29 10:41:26 1514562086.356897: $GPGGA,154127,3946.9597,N,08404.9826,W,2,11,0.80,292.37,M,-33.324,M,,*7D
2017-12-29 10:41:26 1514562086.356965: $GPRMC,154127,A,3946.9597,N,08404.9826,W,0.0000,0.000,291217,,*32
2017-12-29 10:41:26 1514562086.357026: $GPGSA,A,3,10,13,15,18,20,21,24,29,27,32,138,,1.7,0.8,1.3*02
