2017-12-01 12:19:32 1512148772.408252: {"class":"VERSION","release":"3.16","rev":"3.16-4","proto_major":3,"proto_minor":11}
2017-12-01 12:19:32 1512148772.408680: {"class":"DEVICES","devices":[{"class":"DEVICE","path":"/dev/ttyUSB0","driver":"SiRF","subtype":"9\u0006GSD4e_4.1.2-P1_RPATCH.05-F-GPS-4R-1510281 11/03/2015 307","activated":"2017-12-01T17:19:32.405Z","flags":1,"native":1,"bps":4800,"parity":"N","stopbits":1,"cycle":1.00}]}
2017-12-01 12:19:32 1512148772.408809: {"class":"WATCH","enable":true,"json":false,"nmea":true,"raw":0,"scaled":false,"timing":false,"split24":false,"pps":false}
2017-12-01 12:19:33 1512148773.746688: $GPGSV,3,1,12,10,24,283,39,13,28,045,45,15,60,051,46,18,55,301,46*79
2017-12-01 12:19:33 1512148773.746869: $GPGSV,3,2,12,20,51,072,45,21,78,265,42,24,34,138,48,27,16,312,34*70
2017-12-01 12:19:33 1512148773.746952: $GPGSV,3,3,12,05,03,088,21,29,09,189,26,32,01,225,22,138,38,213,46*4F
2017-12-01 12:19:33 1512148773.859102: $GPZDA,171934.00,01,12,2017,00,00*69
2017-12-01 12:19:33 1512148773.859245: $GPGGA,171934,3946.9570,N,08404.9840,W,2,12,0.80,299.81,M,-33.324,M,,*7C
2017-12-01 12:19:33 1512148773.859310: $GPRMC,171934,A,3946.9570,N,08404.9840,W,0.0000,0.000,011217,,*3C
2017-12-01 12:19:33 1512148773.859370: $GPGSA,A,3,10,13,15,18,20,21,24,27,5,29,32,138,2.0,0.8,1.5*35
2017-12-01 12:19:34 1512148774.411034: $GPZDA,171935.00,01,12,2017,00,00*68
2017-12-01 12:19:34 1512148774.411245: $GPGGA,171935,3946.9570,N,08404.9840,W,2,12,0.80,299.81,M,-33.324,M,,*7D
2017-12-01 12:19:34 1512148774.411313: $GPRMC,171935,A,3946.9570,N,08404.9840,W,0.0000,0.000,011217,,*3D
2017-12-01 12:19:34 1512148774.411432: $GPGSA,A,3,10,13,15,18,20,21,24,27,5,29,32,138,2.0,0.8,1.5*35
2017-12-01 12:19:35 1512148775.410569: $GPZDA,171936.00,01,12,2017,00,00*6B
2017-12-01 12:19:35 1512148775.410739: $GPGGA,171936,3946.9570,N,08404.9840,W,2,12,0.80,299.81,M,-33.324,M,,*7E
2017-12-01 12:19:35 1512148775.410806: $GPRMC,171936,A,3946.9570,N,08404.9840,W,0.0000,0.000,011217,,*3E
2017-12-01 12:19:35 1512148775.410867: $GPGSA,A,3,10,13,15,18,20,21,24,27,5,29,32,138,2.0,0.8,1.5*35
2017-12-01 12:19:36 1512148776.748792: $GPGSV,3,1,12,10,24,283,39,13,28,045,45,15,60,051,46,18,55,301,46*79
2017-12-01 12:19:36 1512148776.748990: $GPGSV,3,2,12,20,51,072,45,21,78,265,42,24,34,138,48,27,16,312,35*71
2017-12-01 12:19:36 1512148776.749078: $GPGSV,3,3,12,05,03,088,21,29,09,189,26,32,01,225,22,138,38,213,46*4F
2017-12-01 12:19:36 1512148776.862252: $GPZDA,171937.00,01,12,2017,00,00*6A
2017-12-01 12:19:36 1512148776.862419: $GPGGA,171937,3946.9570,N,08404.9840,W,2,12,0.80,299.81,M,-33.324,M,,*7F
2017-12-01 12:19:36 1512148776.862485: $GPRMC,171937,A,3946.9570,N,08404.9840,W,0.0000,0.000,011217,,*3F
2017-12-01 12:19:36 1512148776.862546: $GPGSA,A,3,10,13,15,18,20,21,24,27,5,29,32,138,2.0,0.8,1.5*35
2017-12-01 12:19:37 1512148777.487573: $GPZDA,171938.00,01,12,2017,00,00*65
2017-12-01 12:19:37 1512148777.493747: $GPGGA,171938,3946.9574,N,08404.9839,W,2,12,0.80,299.05,M,-33.324,M,,*76
2017-12-01 12:19:37 1512148777.493969: $GPRMC,171938,A,3946.9574,N,08404.9839,W,0.0000,0.000,011217,,*3A
2017-12-01 12:19:37 1512148777.494035: $GPGSA,A,3,10,13,15,18,20,21,24,27,5,29,32,138,2.0,0.8,1.5*35
2017-12-01 12:19:38 1512148778.409680: $GPZDA,171939.00,01,12,2017,00,00*64
2017-12-01 12:19:38 1512148778.409850: $GPGGA,171939,3946.9574,N,08404.9839,W,2,12,0.80,299.05,M,-33.324,M,,*77
2017-12-01 12:19:38 1512148778.409916: $GPRMC,171939,A,3946.9574,N,08404.9839,W,0.0000,0.000,011217,,*3B
2017-12-01 12:19:38 1512148778.409977: $GPGSA,A,3,10,13,15,18,20,21,24,27,5,29,32,138,2.0,0.8,1.5*35
2017-12-01 12:19:39 1512148779.746652: $GPGSV,3,1,12,10,24,283,38,13,28,045,45,15,60,051,46,18,55,301,45*7B
2017-12-01 12:19:39 1512148779.746815: $GPGSV,3,2,12,20,51,072,45,21,78,265,42,24,34,138,48,27,16,312,36*72
2017-12-01 12:19:39 1512148779.746882: $GPGSV,3,3,12,05,03,088,21,29,09,189,27,32,01,225,22,138,38,213,46*4E
2017-12-01 12:19:39 1512148779.860097: $GPZDA,171940.00,01,12,2017,00,00*6A
2017-12-01 12:19:39 1512148779.860288: $GPGGA,171940,3946.9574,N,08404.9839,W,2,12,0.80,299.05,M,-33.324,M,,*79
2017-12-01 12:19:39 1512148779.860407: $GPRMC,171940,A,3946.9574,N,08404.9839,W,0.0000,0.000,011217,,*35
2017-12-01 12:19:39 1512148779.860469: $GPGSA,A,3,10,13,15,18,20,21,24,27,5,29,32,138,2.0,0.8,1.5*35
2017-12-01 12:19:40 1512148780.410959: $GPZDA,171941.00,01,12,2017,00,00*6B
2017-12-01 12:19:40 1512148780.411152: $GPGGA,171941,3946.9574,N,08404.9839,W,2,12,0.80,299.05,M,-33.324,M,,*78
2017-12-01 12:19:40 1512148780.411236: $GPRMC,171941,A,3946.9574,N,08404.9839,W,0.0000,0.000,011217,,*34
2017-12-01 12:19:40 1512148780.411298: $GPGSA,A,3,10,13,15,18,20,21,24,27,5,29,32,138,2.0,0.8,1.5*35
2017-12-01 12:19:41 1512148781.409267: $GPZDA,171942.00,01,12,2017,00,00*68
2017-12-01 12:19:41 1512148781.409439: $GPGGA,171942,3946.9574,N,08404.9839,W,2,12,1.20,299.05,M,-33.324,M,,*70
2017-12-01 12:19:41 1512148781.409505: $GPRMC,171942,A,3946.9574,N,08404.9839,W,0.0000,0.000,011217,,*37
2017-12-01 12:19:41 1512148781.409566: $GPGSA,A,3,10,13,15,18,20,21,24,27,5,29,32,138,2.0,1.2,1.5*3E
