2017-12-01 16:40:34 1512164434.656651: {"class":"VERSION","release":"3.16","rev":"3.16-4","proto_major":3,"proto_minor":11}
2017-12-01 16:40:34 1512164434.657076: {"class":"DEVICES","devices":[{"class":"DEVICE","path":"/dev/ttyUSB0","driver":"SiRF","subtype":"9\u0006GSD4e_4.1.2-P1_RPATCH.05-F-GPS-4R-1510281 11/03/2015 307","activated":"2017-12-01T21:40:34.563Z","flags":1,"native":1,"bps":4800,"parity":"N","stopbits":1,"cycle":1.00}]}
2017-12-01 16:40:34 1512164434.657205: {"class":"WATCH","enable":true,"json":false,"nmea":true,"raw":0,"scaled":false,"timing":false,"split24":false,"pps":false}
2017-12-01 16:40:35 1512164435.758324: $GPGSV,3,1,12,01,22,295,44,10,43,150,43,11,07,277,29,14,68,339,43*79
2017-12-01 16:40:35 1512164435.758512: $GPGSV,3,2,12,22,23,312,43,31,61,229,50,32,67,040,48,12,20,045,25*7B
2017-12-01 16:40:35 1512164435.758579: $GPGSV,3,3,12,25,40,084,28,26,06,181,29,18,13,145,19,138,38,213,34*4B
2017-12-01 16:40:35 1512164435.871967: $GPZDA,214036.00,01,12,2017,00,00*62
2017-12-01 16:40:35 1512164435.872108: $GPGGA,214036,3946.9647,N,08404.9744,W,1,12,0.80,303.04,M,-33.324,M,,*77
2017-12-01 16:40:35 1512164435.872172: $GPRMC,214036,A,3946.9647,N,08404.9744,W,0.0000,0.000,011217,,*3B
2017-12-01 16:40:35 1512164435.872233: $GPGSA,A,3,1,10,11,14,22,31,32,12,25,26,18,138,2.0,0.8,1.5*39
2017-12-01 16:40:36 1512164436.498061: $GPZDA,214037.00,01,12,2017,00,00*63
2017-12-01 16:40:36 1512164436.498258: $GPGGA,214037,3946.9647,N,08404.9744,W,1,12,0.80,303.04,M,-33.324,M,,*76
2017-12-01 16:40:36 1512164436.498331: $GPRMC,214037,A,3946.9647,N,08404.9744,W,0.0000,0.000,011217,,*3A
2017-12-01 16:40:36 1512164436.498400: $GPGSA,A,3,1,10,11,14,22,31,32,12,25,26,18,138,2.0,0.8,1.5*39
2017-12-01 16:40:37 1512164437.423478: $GPZDA,214038.00,01,12,2017,00,00*6C
2017-12-01 16:40:37 1512164437.423659: $GPGGA,214038,3946.9647,N,08404.9744,W,1,12,0.80,303.04,M,-33.324,M,,*79
2017-12-01 16:40:37 1512164437.423727: $GPRMC,214038,A,3946.9647,N,08404.9744,W,0.0000,0.000,011217,,*35
2017-12-01 16:40:37 1512164437.423788: $GPGSA,A,3,1,10,11,14,22,31,32,12,25,26,18,138,2.0,0.8,1.5*39
2017-12-01 16:40:38 1512164438.773645: $GPGSV,3,1,12,01,22,295,44,10,43,150,43,11,07,277,29,14,68,339,44*7E
2017-12-01 16:40:38 1512164438.773829: $GPGSV,3,2,12,22,23,312,43,31,61,229,50,32,67,040,48,12,20,045,12*7F
2017-12-01 16:40:38 1512164438.773917: $GPGSV,3,3,12,25,40,084,28,26,06,181,28,18,13,145,00,138,38,213,38*4E
2017-12-01 16:40:38 1512164438.885866: $GPZDA,214039.00,01,12,2017,00,00*6D
2017-12-01 16:40:38 1512164438.886036: $GPGGA,214039,3946.9647,N,08404.9744,W,1,11,0.80,303.04,M,-33.324,M,,*7B
2017-12-01 16:40:38 1512164438.886104: $GPRMC,214039,A,3946.9647,N,08404.9744,W,0.0000,0.000,011217,,*34
2017-12-01 16:40:38 1512164438.886166: $GPGSA,A,3,1,10,11,14,22,31,32,12,25,26,138,,2.0,0.8,1.5*30
2017-12-01 16:40:39 1512164439.437942: $GPZDA,214040.00,01,12,2017,00,00*63
2017-12-01 16:40:39 1512164439.438132: $GPGGA,214040,3946.9647,N,08404.9744,W,1,11,1.00,303.04,M,-33.324,M,,*7C
2017-12-01 16:40:39 1512164439.438203: $GPRMC,214040,A,3946.9647,N,08404.9744,W,0.0000,0.000,011217,,*3A
2017-12-01 16:40:39 1512164439.438264: $GPGSA,A,3,1,10,11,14,22,31,32,12,25,26,138,,2.0,1.0,1.5*39
2017-12-01 16:40:40 1512164440.436392: $GPZDA,214041.00,01,12,2017,00,00*62
2017-12-01 16:40:40 1512164440.436577: $GPGGA,214041,3946.9647,N,08404.9744,W,1,11,1.00,303.04,M,-33.324,M,,*7D
2017-12-01 16:40:40 1512164440.436647: $GPRMC,214041,A,3946.9647,N,08404.9744,W,0.0000,0.000,011217,,*3B
2017-12-01 16:40:40 1512164440.436710: $GPGSA,A,3,1,10,11,14,22,31,32,12,25,26,138,,2.0,1.0,1.5*39
2017-12-01 16:40:41 1512164441.771590: $GPGSV,3,1,12,01,22,295,45,10,43,150,42,11,07,277,29,14,68,339,43*79
2017-12-01 16:40:41 1512164441.771774: $GPGSV,3,2,12,22,23,312,42,31,61,229,50,32,67,040,49,12,20,045,00*7C
2017-12-01 16:40:41 1512164441.771842: $GPGSV,3,3,12,25,40,084,28,26,06,181,24,18,13,145,00,138,38,213,40*4D
2017-12-01 16:40:41 1512164441.884850: $GPZDA,214042.00,01,12,2017,00,00*61
2017-12-01 16:40:41 1512164441.884994: $GPGGA,214042,3946.9647,N,08404.9744,W,1,10,1.00,303.04,M,-33.324,M,,*7F
2017-12-01 16:40:41 1512164441.885111: $GPRMC,214042,A,3946.9647,N,08404.9744,W,0.0000,0.000,011217,,*38
2017-12-01 16:40:41 1512164441.885174: $GPGSA,A,3,1,10,11,14,22,31,32,25,26,138,,,2.0,1.0,1.5*3A
2017-12-01 16:40:42 1512164442.435761: $GPZDA,214043.00,01,12,2017,00,00*60
2017-12-01 16:40:42 1512164442.435924: $GPGGA,214043,3946.9647,N,08404.9744,W,1,10,1.00,303.04,M,-33.324,M,,*7E
2017-12-01 16:40:42 1512164442.435992: $GPRMC,214043,A,3946.9647,N,08404.9744,W,0.0000,0.000,011217,,*39
2017-12-01 16:40:42 1512164442.436053: $GPGSA,A,3,1,10,11,14,22,31,32,25,26,138,,,2.0,1.0,1.5*3A
2017-12-01 16:40:43 1512164443.430390: $GPZDA,214044.00,01,12,2017,00,00*67
2017-12-01 16:40:43 1512164443.430579: $GPGGA,214044,3946.9647,N,08404.9744,W,1,10,1.00,303.04,M,-33.324,M,,*79
2017-12-01 16:40:43 1512164443.430648: $GPRMC,214044,A,3946.9647,N,08404.9744,W,0.0000,0.000,011217,,*3E
2017-12-01 16:40:43 1512164443.430710: $GPGSA,A,3,1,10,11,14,22,31,32,25,26,138,,,2.0,1.0,1.5*3A
2017-12-01 16:40:44 1512164444.773697: $GPGSV,3,1,12,01,22,295,44,10,43,150,42,11,07,277,29,14,68,339,43*78
2017-12-01 16:40:44 1512164444.773896: $GPGSV,3,2,12,22,23,312,42,31,61,229,50,32,67,040,49,18,13,145,18*7E
2017-12-01 16:40:44 1512164444.773964: $GPGSV,3,3,12,25,40,084,29,26,06,181,23,12,20,045,00,138,38,213,40*40
2017-12-01 16:40:44 1512164444.887158: $GPZDA,214045.00,01,12,2017,00,00*66
2017-12-01 16:40:44 1512164444.887336: $GPGGA,214045,3946.9647,N,08404.9744,W,1,10,1.00,303.04,M,-33.324,M,,*78
2017-12-01 16:40:44 1512164444.887403: $GPRMC,214045,A,3946.9647,N,08404.9744,W,0.0000,0.000,011217,,*3F
2017-12-01 16:40:44 1512164444.887484: $GPGSA,A,3,1,10,11,14,22,31,32,25,26,138,,,2.0,1.0,1.5*3A
2017-12-01 16:40:45 1512164445.437950: $GPZDA,214046.00,01,12,2017,00,00*65
2017-12-01 16:40:45 1512164445.438124: $GPGGA,214046,3946.9647,N,08404.9744,W,1,10,0.80,303.04,M,-33.324,M,,*72
2017-12-01 16:40:45 1512164445.438190: $GPRMC,214046,A,3946.9647,N,08404.9744,W,0.0000,0.000,011217,,*3C
2017-12-01 16:40:45 1512164445.438251: $GPGSA,A,3,1,10,11,14,22,31,32,25,26,138,,,2.0,0.8,1.5*33
2017-12-01 16:40:46 1512164446.436196: $GPZDA,214047.00,01,12,2017,00,00*64
2017-12-01 16:40:46 1512164446.436390: $GPGGA,214047,3946.9650,N,08404.9743,W,1,10,0.80,302.28,M,-33.324,M,,*7D
2017-12-01 16:40:46 1512164446.436496: $GPRMC,214047,A,3946.9650,N,08404.9743,W,0.0000,0.000,011217,,*3C
2017-12-01 16:40:46 1512164446.436560: $GPGSA,A,3,1,10,11,14,22,31,32,25,26,138,,,2.0,0.8,1.5*33
2017-12-01 16:40:47 1512164447.772775: $GPGSV,3,1,12,01,22,295,44,10,43,150,42,11,07,277,36,14,68,339,43*76
2017-12-01 16:40:47 1512164447.772954: $GPGSV,3,2,12,22,23,312,43,31,61,229,50,32,67,040,48,12,20,045,27*79
2017-12-01 16:40:47 1512164447.773021: $GPGSV,3,3,12,25,40,084,29,26,06,181,23,18,13,145,00,138,38,213,38*44
2017-12-01 16:40:47 1512164447.886145: $GPZDA,214048.00,01,12,2017,00,00*6B
2017-12-01 16:40:47 1512164447.886292: $GPGGA,214048,3946.9650,N,08404.9743,W,1,11,0.80,302.28,M,-33.324,M,,*73
2017-12-01 16:40:47 1512164447.886375: $GPRMC,214048,A,3946.9650,N,08404.9743,W,0.0000,0.000,011217,,*33
2017-12-01 16:40:47 1512164447.886456: $GPGSA,A,3,1,10,11,14,22,31,32,12,25,26,138,,2.0,0.8,1.5*30
2017-12-01 16:40:48 1512164448.423296: $GPZDA,214049.00,01,12,2017,00,00*6A
2017-12-01 16:40:48 1512164448.423480: $GPGGA,214049,3946.9650,N,08404.9743,W,1,11,0.80,302.28,M,-33.324,M,,*72
2017-12-01 16:40:48 1512164448.423547: $GPRMC,214049,A,3946.9650,N,08404.9743,W,0.0000,0.000,011217,,*32
2017-12-01 16:40:48 1512164448.423625: $GPGSA,A,3,1,10,11,14,22,31,32,12,25,26,138,,2.0,0.8,1.5*30
2017-12-01 16:40:49 1512164449.437929: $GPZDA,214050.00,01,12,2017,00,00*62
2017-12-01 16:40:49 1512164449.438101: $GPGGA,214050,3946.9647,N,08404.9744,W,1,11,0.80,303.04,M,-33.324,M,,*74
2017-12-01 16:40:49 1512164449.438168: $GPRMC,214050,A,3946.9647,N,08404.9744,W,0.0000,0.000,011217,,*3B
2017-12-01 16:40:49 1512164449.438229: $GPGSA,A,3,1,10,11,14,22,31,32,12,25,26,138,,2.0,0.8,1.5*30
2017-12-01 16:40:50 1512164450.774875: $GPGSV,3,1,12,01,22,295,44,10,43,150,42,11,07,277,35,14,68,339,42*74
2017-12-01 16:40:50 1512164450.775116: $GPGSV,3,2,12,22,23,312,43,31,61,229,50,32,67,040,48,12,20,045,26*78
2017-12-01 16:40:50 1512164450.775185: $GPGSV,3,3,12,25,40,084,29,26,06,181,22,18,13,145,00,138,38,213,40*4A
2017-12-01 16:40:50 1512164450.887469: $GPZDA,214051.00,01,12,2017,00,00*63
2017-12-01 16:40:50 1512164450.887653: $GPGGA,214051,3946.9647,N,08404.9744,W,1,11,0.80,303.04,M,-33.324,M,,*75
2017-12-01 16:40:50 1512164450.887721: $GPRMC,214051,A,3946.9647,N,08404.9744,W,0.0000,0.000,011217,,*3A
2017-12-01 16:40:50 1512164450.887782: $GPGSA,A,3,1,10,11,14,22,31,32,12,25,26,138,,2.0,0.8,1.5*30
2017-12-01 16:40:51 1512164451.514115: $GPZDA,214052.00,01,12,2017,00,00*60
2017-12-01 16:40:51 1512164451.514286: $GPGGA,214052,3946.9647,N,08404.9744,W,1,11,0.80,303.04,M,-33.324,M,,*76
2017-12-01 16:40:51 1512164451.514353: $GPRMC,214052,A,3946.9647,N,08404.9744,W,0.0000,0.000,011217,,*39
2017-12-01 16:40:51 1512164451.514439: $GPGSA,A,3,1,10,11,14,22,31,32,12,25,26,138,,2.0,0.8,1.5*30
2017-12-01 16:40:52 1512164452.437079: $GPZDA,214053.00,01,12,2017,00,00*61
2017-12-01 16:40:52 1512164452.437252: $GPGGA,214053,3946.9647,N,08404.9744,W,1,11,0.80,303.04,M,-33.324,M,,*77
2017-12-01 16:40:52 1512164452.437319: $GPRMC,214053,A,3946.9647,N,08404.9744,W,0.0000,0.000,011217,,*38
2017-12-01 16:40:52 1512164452.437380: $GPGSA,A,3,1,10,11,14,22,31,32,12,25,26,138,,2.0,0.8,1.5*30
2017-12-01 16:40:53 1512164453.756509: $GPGSV,3,1,12,01,22,295,44,10,43,150,42,11,07,277,36,14,68,339,43*76
2017-12-01 16:40:53 1512164453.756705: $GPGSV,3,2,12,22,23,312,43,31,61,229,50,32,67,040,48,12,20,045,26*78
2017-12-01 16:40:53 1512164453.756774: $GPGSV,3,3,12,25,40,084,29,26,06,181,23,18,13,145,00,138,38,213,41*4A
2017-12-01 16:40:53 1512164453.869912: $GPZDA,214054.00,01,12,2017,00,00*66
2017-12-01 16:40:53 1512164453.870082: $GPGGA,214054,3946.9647,N,08404.9744,W,1,11,0.80,303.04,M,-33.324,M,,*70
2017-12-01 16:40:53 1512164453.870149: $GPRMC,214054,A,3946.9647,N,08404.9744,W,0.0000,0.000,011217,,*3F
2017-12-01 16:40:53 1512164453.870210: $GPGSA,A,3,1,10,11,14,22,31,32,12,25,26,138,,2.0,0.8,1.5*30
2017-12-01 16:40:54 1512164454.438351: $GPZDA,214055.00,01,12,2017,00,00*67
2017-12-01 16:40:54 1512164454.438532: $GPGGA,214055,3946.9647,N,08404.9744,W,1,11,0.80,303.04,M,-33.324,M,,*71
2017-12-01 16:40:54 1512164454.438616: $GPRMC,214055,A,3946.9647,N,08404.9744,W,0.0000,0.000,011217,,*3E
2017-12-01 16:40:54 1512164454.438789: $GPGSA,A,3,1,10,11,14,22,31,32,12,25,26,138,,2.0,0.8,1.5*30
