2017-11-15 19:18:42 1510791522.753330: {"class":"VERSION","release":"3.17","rev":"3.17","proto_major":3,"proto_minor":12}
2017-11-15 19:18:42 1510791522.753796: {"class":"DEVICES","devices":[{"class":"DEVICE","path":"/dev/ttyUSB0","driver":"SiRF","subtype":"9\u0006GSD4e_4.1.2-P1_RPATCH.05-F-GPS-4R-1510281 11/03/2015 307","activated":"2017-11-16T00:18:42.667Z","flags":1,"native":1,"bps":4800,"parity":"N","stopbits":1,"cycle":1.00}]}
2017-11-15 19:18:42 1510791522.753911: {"class":"WATCH","enable":true,"json":false,"nmea":true,"raw":0,"scaled":false,"timing":false,"split24":false,"pps":false}
2017-11-15 19:18:42 1510791522.780590: $GPZDA,001841.00,16,11,2017,00,00*69
2017-11-15 19:18:42 1510791522.780717: $GPGGA,001841,3946.9571,N,08404.9583,W,1,08,1.00,268.30,M,-33.324,M,,*7F
2017-11-15 19:18:42 1510791522.780778: $GPRMC,001841,A,3946.9571,N,08404.9583,W,0.7278,203.636,161117,,*37
2017-11-15 19:18:42 1510791522.780833: $GPGSA,A,3,32,14,22,26,31,29,16,25,,,,,3.4,1.0,2.9*36
2017-11-15 19:18:43 1510791523.346400: $GPZDA,001842.00,16,11,2017,00,00*6A
2017-11-15 19:18:43 1510791523.346575: $GPGGA,001842,3946.9571,N,08404.9583,W,1,08,1.40,268.30,M,-33.324,M,,*78
2017-11-15 19:18:43 1510791523.346638: $GPRMC,001842,A,3946.9571,N,08404.9583,W,0.6846,184.197,161117,,*32
2017-11-15 19:18:43 1510791523.346694: $GPGSA,A,3,32,14,22,26,31,29,16,25,,,,,3.4,1.4,2.9*32
2017-11-15 19:18:44 1510791524.344825: $GPZDA,001843.00,16,11,2017,00,00*6B
2017-11-15 19:18:44 1510791524.349672: $GPGGA,001843,3946.9571,N,08404.9583,W,1,08,1.40,268.30,M,-33.324,M,,*79
2017-11-15 19:18:44 1510791524.349787: $GPRMC,001843,A,3946.9571,N,08404.9583,W,0.3423,184.197,161117,,*39
2017-11-15 19:18:44 1510791524.349846: $GPGSA,A,3,32,14,22,26,31,29,16,25,,,,,3.4,1.4,2.9*32
2017-11-15 19:18:45 1510791525.681951: $GPGSV,3,1,11,32,41,102,28,14,59,084,20,22,49,280,11,26,46,175,22*73
2017-11-15 19:18:45 1510791525.682132: $GPGSV,3,2,11,31,72,013,18,29,09,076,13,03,36,304,00,16,16,190,00*7C
2017-11-15 19:18:45 1510791525.682192: $GPGSV,3,3,11,25,22,042,12,01,09,256,00,23,07,298,00*47
2017-11-15 19:18:45 1510791525.794150: $GPZDA,001844.00,16,11,2017,00,00*6C
2017-11-15 19:18:45 1510791525.794314: $GPGGA,001844,3946.9571,N,08404.9583,W,1,07,1.40,268.30,M,-33.324,M,,*71
2017-11-15 19:18:45 1510791525.794374: $GPRMC,001844,A,3946.9571,N,08404.9583,W,0.6846,184.197,161117,,*34
2017-11-15 19:18:45 1510791525.794447: $GPGSA,A,3,32,14,22,26,31,29,25,,,,,,3.4,1.4,2.9*35
2017-11-15 19:18:46 1510791526.420918: $GPZDA,001845.00,16,11,2017,00,00*6D
2017-11-15 19:18:46 1510791526.421079: $GPGGA,001845,3946.9571,N,08404.9583,W,1,07,1.40,268.30,M,-33.324,M,,*70
2017-11-15 19:18:46 1510791526.421140: $GPRMC,001845,A,3946.9571,N,08404.9583,W,0.6846,184.197,161117,,*35
2017-11-15 19:18:46 1510791526.421196: $GPGSA,A,3,32,14,22,26,31,29,25,,,,,,3.4,1.4,2.9*35
2017-11-15 19:18:47 1510791527.345155: $GPZDA,001846.00,16,11,2017,00,00*6E
2017-11-15 19:18:47 1510791527.345342: $GPGGA,001846,3946.9572,N,08404.9590,W,1,07,1.40,268.22,M,-33.324,M,,*71
2017-11-15 19:18:47 1510791527.345422: $GPRMC,001846,A,3946.9572,N,08404.9590,W,0.3423,184.197,161117,,*3D
2017-11-15 19:18:47 1510791527.345479: $GPGSA,A,3,32,14,22,26,31,29,25,,,,,,3.4,1.4,2.9*35
2017-11-15 19:18:48 1510791528.665919: $GPGSV,3,1,11,32,41,102,28,14,59,084,20,22,49,280,12,26,46,175,22*70
2017-11-15 19:18:48 1510791528.666089: $GPGSV,3,2,11,31,72,013,18,29,09,076,13,03,36,304,00,16,16,190,00*7C
2017-11-15 19:18:48 1510791528.666149: $GPGSV,3,3,11,25,22,042,12,01,09,256,00,23,07,298,00*47
2017-11-15 19:18:48 1510791528.779324: $GPZDA,001847.00,16,11,2017,00,00*6F
2017-11-15 19:18:48 1510791528.779514: $GPGGA,001847,3946.9576,N,08404.9590,W,1,07,1.40,268.86,M,-33.324,M,,*7A
2017-11-15 19:18:48 1510791528.779577: $GPRMC,001847,A,3946.9576,N,08404.9590,W,0.7278,203.636,161117,,*34
2017-11-15 19:18:48 1510791528.779633: $GPGSA,A,3,32,14,22,26,31,29,25,,,,,,3.4,1.4,2.9*35
2017-11-15 19:18:49 1510791529.346652: $GPZDA,001848.00,16,11,2017,00,00*60
2017-11-15 19:18:49 1510791529.354404: $GPGGA,001848,3946.9576,N,08404.9590,W,1,07,1.40,268.86,M,-33.324,M,,*75
2017-11-15 19:18:49 1510791529.354550: $GPRMC,001848,A,3946.9576,N,08404.9590,W,0.4844,273.794,161117,,*33
2017-11-15 19:18:49 1510791529.354611: $GPGSA,A,3,32,14,22,26,31,29,25,,,,,,3.4,1.4,2.9*35
2017-11-15 19:18:50 1510791530.347378: $GPZDA,001849.00,16,11,2017,00,00*61
2017-11-15 19:18:50 1510791530.347546: $GPGGA,001849,3946.9576,N,08404.9590,W,1,07,1.40,268.86,M,-33.324,M,,*74
2017-11-15 19:18:50 1510791530.347608: $GPRMC,001849,A,3946.9576,N,08404.9590,W,0.2422,273.794,161117,,*38
2017-11-15 19:18:50 1510791530.347664: $GPGSA,A,3,32,14,22,26,31,29,25,,,,,,3.4,1.4,2.9*35
2017-11-15 19:18:51 1510791531.665735: $GPGSV,3,1,11,32,39,103,29,14,58,085,20,22,50,277,13,26,48,174,22*71
2017-11-15 19:18:51 1510791531.665905: $GPGSV,3,2,11,31,71,016,19,29,09,075,13,03,37,304,03,16,18,190,00*74
2017-11-15 19:18:51 1510791531.665965: $GPGSV,3,3,11,25,21,042,11,01,08,256,00,23,08,298,00*49
2017-11-15 19:18:51 1510791531.779060: $GPZDA,001850.00,16,11,2017,00,00*69
2017-11-15 19:18:51 1510791531.779244: $GPGGA,001850,3946.9580,N,08404.9597,W,1,07,1.40,269.42,M,-33.324,M,,*7B
2017-11-15 19:18:51 1510791531.779306: $GPRMC,001850,A,3946.9580,N,08404.9597,W,0.2422,273.794,161117,,*3E
2017-11-15 19:18:51 1510791531.779391: $GPGSA,A,3,32,14,22,26,31,29,25,,,,,,3.4,1.4,2.9*35
2017-11-15 19:18:52 1510791532.347451: $GPZDA,001851.00,16,11,2017,00,00*68
2017-11-15 19:18:52 1510791532.347615: $GPGGA,001851,3946.9584,N,08404.9597,W,1,07,1.40,270.06,M,-33.324,M,,*76
2017-11-15 19:18:52 1510791532.347675: $GPRMC,001851,A,3946.9584,N,08404.9597,W,0.6846,4.197,161117,,*36
2017-11-15 19:18:52 1510791532.347730: $GPGSA,A,3,32,14,22,26,31,29,25,,,,,,3.4,1.4,2.9*35
