2017-12-01 16:40:10 1512164410.556965: {"class":"VERSION","release":"3.16","rev":"3.16-4","proto_major":3,"proto_minor":11}
2017-12-01 16:40:10 1512164410.557384: {"class":"DEVICES","devices":[{"class":"DEVICE","path":"/dev/ttyUSB0","driver":"SiRF","subtype":"9\u0006GSD4e_4.1.2-P1_RPATCH.05-F-GPS-4R-1510281 11/03/2015 307","activated":"2017-12-01T21:40:10.536Z","flags":1,"native":1,"bps":4800,"parity":"N","stopbits":1,"cycle":1.00}]}
2017-12-01 16:40:10 1512164410.557504: {"class":"WATCH","enable":true,"json":false,"nmea":true,"raw":0,"scaled":false,"timing":false,"split24":false,"pps":false}
2017-12-01 16:40:11 1512164411.757284: $GPGSV,3,1,12,01,22,295,41,10,43,150,43,11,07,279,38,14,68,337,44*7B
2017-12-01 16:40:11 1512164411.757466: $GPGSV,3,2,12,22,23,312,43,31,61,229,50,32,67,040,48,12,20,046,24*79
2017-12-01 16:40:11 1512164411.757534: $GPGSV,3,3,12,25,40,084,29,26,06,181,30,18,14,145,20,138,38,213,34*4F
2017-12-01 16:40:11 1512164411.870763: $GPZDA,214012.00,01,12,2017,00,00*64
2017-12-01 16:40:11 1512164411.870938: $GPGGA,214012,3946.9644,N,08404.9751,W,2,12,0.80,303.73,M,-33.324,M,,*75
2017-12-01 16:40:11 1512164411.871006: $GPRMC,214012,A,3946.9644,N,08404.9751,W,0.0000,0.000,011217,,*3A
2017-12-01 16:40:11 1512164411.871068: $GPGSA,A,3,1,10,11,14,22,31,32,12,25,26,18,138,2.0,0.8,1.5*39
2017-12-01 16:40:12 1512164412.422840: $GPZDA,214013.00,01,12,2017,00,00*65
2017-12-01 16:40:12 1512164412.423023: $GPGGA,214013,3946.9644,N,08404.9751,W,2,12,0.80,303.73,M,-33.324,M,,*74
2017-12-01 16:40:12 1512164412.423093: $GPRMC,214013,A,3946.9644,N,08404.9751,W,0.0000,0.000,011217,,*3B
2017-12-01 16:40:12 1512164412.423153: $GPGSA,A,3,1,10,11,14,22,31,32,12,25,26,18,138,2.0,0.8,1.5*39
2017-12-01 16:40:13 1512164413.421129: $GPZDA,214014.00,01,12,2017,00,00*62
2017-12-01 16:40:13 1512164413.421300: $GPGGA,214014,3946.9644,N,08404.9751,W,2,12,0.80,303.73,M,-33.324,M,,*73
2017-12-01 16:40:13 1512164413.421440: $GPRMC,214014,A,3946.9644,N,08404.9751,W,0.0000,0.000,011217,,*3C
2017-12-01 16:40:13 1512164413.421505: $GPGSA,A,3,1,10,11,14,22,31,32,12,25,26,18,138,2.0,0.8,1.5*39
2017-12-01 16:40:14 1512164414.755622: $GPGSV,3,1,12,01,22,295,42,10,43,150,43,11,07,279,37,14,68,337,44*77
2017-12-01 16:40:14 1512164414.755798: $GPGSV,3,2,12,22,23,312,43,31,61,229,50,32,67,040,48,12,20,046,25*78
2017-12-01 16:40:14 1512164414.755864: $GPGSV,3,3,12,25,40,084,29,26,06,181,30,18,14,145,00,138,38,213,38*41
2017-12-01 16:40:14 1512164414.868934: $GPZDA,214015.00,01,12,2017,00,00*63
2017-12-01 16:40:14 1512164414.869074: $GPGGA,214015,3946.9644,N,08404.9751,W,2,11,0.80,303.73,M,-33.324,M,,*71
2017-12-01 16:40:14 1512164414.869140: $GPRMC,214015,A,3946.9644,N,08404.9751,W,0.0000,0.000,011217,,*3D
2017-12-01 16:40:14 1512164414.869200: $GPGSA,A,3,1,10,11,14,22,31,32,12,25,26,138,,2.0,0.8,1.5*30
2017-12-01 16:40:15 1512164415.422590: $GPZDA,214016.00,01,12,2017,00,00*60
2017-12-01 16:40:15 1512164415.422801: $GPGGA,214016,3946.9644,N,08404.9751,W,2,11,0.80,303.73,M,-33.324,M,,*72
2017-12-01 16:40:15 1512164415.422872: $GPRMC,214016,A,3946.9644,N,08404.9751,W,0.0000,0.000,011217,,*3E
2017-12-01 16:40:15 1512164415.422933: $GPGSA,A,3,1,10,11,14,22,31,32,12,25,26,138,,2.0,0.8,1.5*30
2017-12-01 16:40:16 1512164416.421601: $GPZDA,214017.00,01,12,2017,00,00*61
2017-12-01 16:40:16 1512164416.421783: $GPGGA,214017,3946.9644,N,08404.9751,W,2,11,0.80,303.73,M,-33.324,M,,*73
2017-12-01 16:40:16 1512164416.421851: $GPRMC,214017,A,3946.9644,N,08404.9751,W,0.0000,0.000,011217,,*3F
2017-12-01 16:40:16 1512164416.421912: $GPGSA,A,3,1,10,11,14,22,31,32,12,25,26,138,,2.0,0.8,1.5*30
2017-12-01 16:40:17 1512164417.755984: $GPGSV,3,1,12,01,22,295,42,10,43,150,43,11,07,279,37,14,68,337,44*77
2017-12-01 16:40:17 1512164417.756163: $GPGSV,3,2,12,22,23,312,42,31,61,229,50,32,67,040,48,12,20,046,26*7A
2017-12-01 16:40:17 1512164417.756231: $GPGSV,3,3,12,25,40,084,29,26,06,181,30,18,14,145,00,138,38,213,40*4E
2017-12-01 16:40:17 1512164417.869398: $GPZDA,214018.00,01,12,2017,00,00*6E
2017-12-01 16:40:17 1512164417.869588: $GPGGA,214018,3946.9644,N,08404.9751,W,1,11,0.80,303.73,M,-33.324,M,,*7F
2017-12-01 16:40:17 1512164417.869724: $GPRMC,214018,A,3946.9644,N,08404.9751,W,0.0000,0.000,011217,,*30
2017-12-01 16:40:17 1512164417.869788: $GPGSA,A,3,1,10,11,14,22,31,32,12,25,26,138,,2.0,0.8,1.5*30
2017-12-01 16:40:20 1512164420.378396: $GPZDA,214019.00,01,12,2017,00,00*6F
2017-12-01 16:40:20 1512164420.378598: $GPGGA,214019,3946.9644,N,08404.9751,W,1,11,0.80,303.73,M,-33.324,M,,*7E
2017-12-01 16:40:20 1512164420.378693: $GPRMC,214019,A,3946.9644,N,08404.9751,W,0.3423,4.197,011217,,*3C
2017-12-01 16:40:20 1512164420.378755: $GPGSA,A,3,1,10,11,14,22,31,32,12,25,26,138,,2.0,0.8,1.5*30
2017-12-01 16:40:22 1512164422.074698: $GPZDA,214020.00,01,12,2017,00,00*65
2017-12-01 16:40:22 1512164422.074872: $GPGGA,214020,3946.9644,N,08404.9751,W,1,11,0.80,303.73,M,-33.324,M,,*74
2017-12-01 16:40:22 1512164422.074940: $GPRMC,214020,A,3946.9644,N,08404.9751,W,0.0000,0.000,011217,,*3B
2017-12-01 16:40:22 1512164422.075001: $GPGSA,A,3,1,10,11,14,22,31,32,12,25,26,138,,2.0,0.8,1.5*30
2017-12-01 16:40:22 1512164422.861650: $GPGSV,3,1,12,01,22,295,42,10,43,150,43,11,07,279,34,14,68,339,44*7A
2017-12-01 16:40:22 1512164422.861848: $GPGSV,3,2,12,22,23,312,42,31,61,229,49,32,67,040,48,12,20,046,26*72
2017-12-01 16:40:22 1512164422.861914: $GPGSV,3,3,12,25,40,084,29,26,06,181,30,18,13,145,00,138,38,213,40*49
2017-12-01 16:40:22 1512164422.975003: $GPZDA,214021.00,01,12,2017,00,00*64
2017-12-01 16:40:22 1512164422.975149: $GPGGA,214021,3946.9647,N,08404.9744,W,1,11,0.80,303.04,M,-33.324,M,,*72
2017-12-01 16:40:22 1512164422.975216: $GPRMC,214021,A,3946.9647,N,08404.9744,W,0.0000,0.000,011217,,*3D
2017-12-01 16:40:22 1512164422.975276: $GPGSA,A,3,1,10,11,14,22,31,32,12,25,26,138,,2.0,0.8,1.5*30
2017-12-01 16:40:23 1512164423.600384: $GPZDA,214022.00,01,12,2017,00,00*67
2017-12-01 16:40:23 1512164423.600566: $GPGGA,214022,3946.9647,N,08404.9744,W,1,11,0.80,303.04,M,-33.324,M,,*71
2017-12-01 16:40:23 1512164423.600634: $GPRMC,214022,A,3946.9647,N,08404.9744,W,0.0000,0.000,011217,,*3E
2017-12-01 16:40:23 1512164423.600713: $GPGSA,A,3,1,10,11,14,22,31,32,12,25,26,138,,2.0,0.8,1.5*30
2017-12-01 16:40:24 1512164424.052564: $GPZDA,214023.00,01,12,2017,00,00*66
2017-12-01 16:40:24 1512164424.052752: $GPGGA,214023,3946.9647,N,08404.9744,W,1,11,0.80,303.04,M,-33.324,M,,*70
2017-12-01 16:40:24 1512164424.052820: $GPRMC,214023,A,3946.9647,N,08404.9744,W,0.0000,0.000,011217,,*3F
2017-12-01 16:40:24 1512164424.052882: $GPGSA,A,3,1,10,11,14,22,31,32,12,25,26,138,,2.0,0.8,1.5*30
2017-12-01 16:40:24 1512164424.839471: $GPGSV,3,1,12,01,22,295,42,10,43,150,42,11,07,279,34,14,68,339,43*7C
2017-12-01 16:40:24 1512164424.839689: $GPGSV,3,2,12,22,23,312,43,31,61,229,49,32,67,040,48,12,20,046,26*73
2017-12-01 16:40:24 1512164424.839757: $GPGSV,3,3,12,25,40,084,29,26,06,181,30,03,03,316,28,138,38,213,38*43
2017-12-01 16:40:24 1512164424.952898: $GPZDA,214024.00,01,12,2017,00,00*61
2017-12-01 16:40:24 1512164424.953074: $GPGGA,214024,3946.9647,N,08404.9744,W,1,11,0.80,303.04,M,-33.324,M,,*77
2017-12-01 16:40:24 1512164424.953143: $GPRMC,214024,A,3946.9647,N,08404.9744,W,0.0000,0.000,011217,,*38
2017-12-01 16:40:24 1512164424.953203: $GPGSA,A,3,1,10,11,14,22,31,32,12,25,26,138,,2.0,0.8,1.5*30
2017-12-01 16:40:25 1512164425.404069: $GPZDA,214025.00,01,12,2017,00,00*60
2017-12-01 16:40:25 1512164425.404373: $GPGGA,214025,3946.9647,N,08404.9744,W,1,11,0.80,303.04,M,-33.324,M,,*76
2017-12-01 16:40:25 1512164425.404500: $GPRMC,214025,A,3946.9647,N,08404.9744,W,0.0000,0.000,011217,,*39
2017-12-01 16:40:25 1512164425.404655: $GPGSA,A,3,1,10,11,14,22,31,32,12,25,26,138,,2.0,0.8,1.5*30
2017-12-01 16:40:26 1512164426.384770: $GPZDA,214026.00,01,12,2017,00,00*63
2017-12-01 16:40:26 1512164426.384946: $GPGGA,214026,3946.9647,N,08404.9744,W,1,11,0.80,303.04,M,-33.324,M,,*75
2017-12-01 16:40:26 1512164426.385013: $GPRMC,214026,A,3946.9647,N,08404.9744,W,0.0000,0.000,011217,,*3A
2017-12-01 16:40:26 1512164426.385074: $GPGSA,A,3,1,10,11,14,22,31,32,12,25,26,138,,2.0,0.8,1.5*30
2017-12-01 16:40:27 1512164427.346288: $GPGSV,3,1,12,01,22,295,42,10,43,150,43,11,07,277,34,14,68,339,43*73
2017-12-01 16:40:27 1512164427.346548: $GPGSV,3,2,12,22,23,312,43,31,61,229,50,32,67,040,48,12,20,045,26*78
2017-12-01 16:40:27 1512164427.346647: $GPGSV,3,3,12,25,40,084,29,26,06,181,30,18,13,145,16,138,38,213,40*4E
2017-12-01 16:40:27 1512164427.459758: $GPZDA,214027.00,01,12,2017,00,00*62
2017-12-01 16:40:27 1512164427.459907: $GPGGA,214027,3946.9647,N,08404.9744,W,1,11,0.80,303.04,M,-33.324,M,,*74
2017-12-01 16:40:27 1512164427.459974: $GPRMC,214027,A,3946.9647,N,08404.9744,W,0.0000,0.000,011217,,*3B
2017-12-01 16:40:27 1512164427.460034: $GPGSA,A,3,1,10,11,14,22,31,32,12,25,26,138,,2.0,0.8,1.5*30
2017-12-01 16:40:27 1512164427.911834: $GPZDA,214028.00,01,12,2017,00,00*6D
2017-12-01 16:40:27 1512164427.912009: $GPGGA,214028,3946.9647,N,08404.9744,W,1,11,0.80,303.04,M,-33.324,M,,*7B
2017-12-01 16:40:27 1512164427.912078: $GPRMC,214028,A,3946.9647,N,08404.9744,W,0.0000,0.000,011217,,*34
2017-12-01 16:40:27 1512164427.912140: $GPGSA,A,3,1,10,11,14,22,31,32,12,25,26,138,,2.0,0.8,1.5*30
2017-12-01 16:40:28 1512164428.421399: $GPZDA,214029.00,01,12,2017,00,00*6C
2017-12-01 16:40:28 1512164428.421589: $GPGGA,214029,3946.9647,N,08404.9744,W,1,11,0.80,303.04,M,-33.324,M,,*7A
2017-12-01 16:40:28 1512164428.421674: $GPRMC,214029,A,3946.9647,N,08404.9744,W,0.0000,0.000,011217,,*35
2017-12-01 16:40:28 1512164428.421737: $GPGSA,A,3,1,10,11,14,22,31,32,12,25,26,138,,2.0,0.8,1.5*30
2017-12-01 16:40:29 1512164429.758380: $GPGSV,3,1,12,01,22,295,43,10,43,150,42,11,07,277,34,14,68,339,43*73
2017-12-01 16:40:29 1512164429.758586: $GPGSV,3,2,12,22,23,312,43,31,61,229,49,32,67,040,48,12,20,045,25*73
2017-12-01 16:40:29 1512164429.758670: $GPGSV,3,3,12,25,40,084,28,26,06,181,30,18,13,145,18,138,38,213,41*40
2017-12-01 16:40:29 1512164429.871848: $GPZDA,214030.00,01,12,2017,00,00*64
2017-12-01 16:40:29 1512164429.872022: $GPGGA,214030,3946.9647,N,08404.9744,W,1,12,0.80,303.04,M,-33.324,M,,*71
2017-12-01 16:40:29 1512164429.872089: $GPRMC,214030,A,3946.9647,N,08404.9744,W,0.0000,0.000,011217,,*3D
2017-12-01 16:40:29 1512164429.872149: $GPGSA,A,3,1,10,11,14,22,31,32,12,25,26,18,138,2.0,0.8,1.5*39
2017-12-01 16:40:30 1512164430.421405: $GPZDA,214031.00,01,12,2017,00,00*65
2017-12-01 16:40:30 1512164430.421792: $GPGGA,214031,3946.9647,N,08404.9744,W,1,12,0.80,303.04,M,-33.324,M,,*70
2017-12-01 16:40:30 1512164430.421898: $GPRMC,214031,A,3946.9647,N,08404.9744,W,0.0000,0.000,011217,,*3C
2017-12-01 16:40:30 1512164430.422021: $GPGSA,A,3,1,10,11,14,22,31,32,12,25,26,18,138,2.0,0.8,1.5*39
