2017-12-31 17:06:09 1514757969.756078: {"class":"VERSION","release":"3.16","rev":"3.16-4","proto_major":3,"proto_minor":11}
2017-12-31 17:06:09 1514757969.756425: {"class":"DEVICES","devices":[{"class":"DEVICE","path":"/dev/ttyUSB0","driver":"SiRF","activated":"2017-12-31T22:06:09.680Z","flags":1,"native":1,"bps":4800,"parity":"N","stopbits":1,"cycle":1.00}]}
2017-12-31 17:06:09 1514757969.756526: {"class":"WATCH","enable":true,"json":false,"nmea":true,"raw":0,"scaled":false,"timing":false,"split24":false,"pps":false}
2017-12-31 17:06:09 1514757969.793605: $GPZDA,220610.00,31,12,2017,00,00*64
2017-12-31 17:06:09 1514757969.793755: $GPGGA,220610,3946.9587,N,08404.9854,W,2,11,1.00,302.21,M,-33.324,M,,*7C
2017-12-31 17:06:09 1514757969.793821: $GPRMC,220610,A,3946.9587,N,08404.9854,W,0.0000,0.000,311217,,*3C
2017-12-31 17:06:09 1514757969.793882: $GPGSA,A,3,22,23,25,3,16,29,31,14,32,26,135,,1.7,1.0,1.3*3B
2017-12-31 17:06:10 1514757970.419282: $GPZDA,220611.00,31,12,2017,00,00*65
2017-12-31 17:06:10 1514757970.419433: $GPGGA,220611,3946.9587,N,08404.9854,W,2,11,1.00,302.21,M,-33.324,M,,*7D
2017-12-31 17:06:10 1514757970.419498: $GPRMC,220611,A,3946.9587,N,08404.9854,W,0.0000,0.000,311217,,*3D
2017-12-31 17:06:10 1514757970.419558: $GPGSA,A,3,22,23,25,3,16,29,31,14,32,26,135,,1.7,1.0,1.3*3B
2017-12-31 17:06:11 1514757971.343921: $GPZDA,220612.00,31,12,2017,00,00*66
2017-12-31 17:06:11 1514757971.344092: $GPGGA,220612,3946.9587,N,08404.9854,W,2,11,1.00,302.21,M,-33.324,M,,*7E
2017-12-31 17:06:11 1514757971.344158: $GPRMC,220612,A,3946.9587,N,08404.9854,W,0.0000,0.000,311217,,*3E
2017-12-31 17:06:11 1514757971.344219: $GPGSA,A,3,22,23,25,3,16,29,31,14,32,26,135,,1.7,1.0,1.3*3B
2017-12-31 17:06:12 1514757972.671896: $GPGSV,3,1,11,22,44,238,41,23,28,307,34,25,01,037,10,03,46,270,38*73
2017-12-31 17:06:12 1514757972.672079: $GPGSV,3,2,11,16,47,190,44,29,14,054,31,31,49,051,50,14,40,114,36*77
2017-12-31 17:06:12 1514757972.672145: $GPGSV,3,3,11,32,18,123,40,26,75,139,47,135,22,240,42*7C
2017-12-31 17:06:12 1514757972.785496: $GPZDA,220613.00,31,12,2017,00,00*67
2017-12-31 17:06:12 1514757972.785644: $GPGGA,220613,3946.9587,N,08404.9854,W,2,11,1.00,302.21,M,-33.324,M,,*7F
2017-12-31 17:06:12 1514757972.785708: $GPRMC,220613,A,3946.9587,N,08404.9854,W,0.0000,0.000,311217,,*3F
2017-12-31 17:06:12 1514757972.785767: $GPGSA,A,3,22,23,25,3,16,29,31,14,32,26,135,,1.7,1.0,1.3*3B
2017-12-31 17:06:13 1514757973.345130: $GPZDA,220614.00,31,12,2017,00,00*60
2017-12-31 17:06:13 1514757973.345283: $GPGGA,220614,3946.9587,N,08404.9854,W,2,11,1.00,302.21,M,-33.324,M,,*78
2017-12-31 17:06:13 1514757973.345348: $GPRMC,220614,A,3946.9587,N,08404.9854,W,0.0000,0.000,311217,,*38
2017-12-31 17:06:13 1514757973.345407: $GPGSA,A,3,22,23,25,3,16,29,31,14,32,26,135,,1.7,1.0,1.3*3B
2017-12-31 17:06:14 1514757974.359764: $GPZDA,220615.00,31,12,2017,00,00*61
2017-12-31 17:06:14 1514757974.359949: $GPGGA,220615,3946.9587,N,08404.9854,W,2,11,1.00,302.21,M,-33.324,M,,*79
2017-12-31 17:06:14 1514757974.360015: $GPRMC,220615,A,3946.9587,N,08404.9854,W,0.0000,0.000,311217,,*39
2017-12-31 17:06:14 1514757974.360076: $GPGSA,A,3,22,23,25,3,16,29,31,14,32,26,135,,1.7,1.0,1.3*3B
2017-12-31 17:06:15 1514757975.679799: $GPGSV,3,1,11,22,44,238,41,23,28,307,34,25,01,037,08,03,46,270,38*7A
2017-12-31 17:06:15 1514757975.679966: $GPGSV,3,2,11,16,47,190,44,29,14,054,31,31,49,051,50,14,40,114,36*77
2017-12-31 17:06:15 1514757975.680032: $GPGSV,3,3,11,32,18,123,40,26,75,139,46,135,22,240,42*7D
2017-12-31 17:06:15 1514757975.793241: $GPZDA,220616.00,31,12,2017,00,00*62
2017-12-31 17:06:15 1514757975.793419: $GPGGA,220616,3946.9587,N,08404.9854,W,2,11,1.00,302.21,M,-33.324,M,,*7A
2017-12-31 17:06:15 1514757975.793487: $GPRMC,220616,A,3946.9587,N,08404.9854,W,0.0000,0.000,311217,,*3A
2017-12-31 17:06:15 1514757975.793548: $GPGSA,A,3,22,23,25,3,16,29,31,14,32,26,135,,1.7,1.0,1.3*3B
2017-12-31 17:06:16 1514757976.343050: $GPZDA,220617.00,31,12,2017,00,00*63
2017-12-31 17:06:16 1514757976.343195: $GPGGA,220617,3946.9587,N,08404.9854,W,2,11,1.00,302.21,M,-33.324,M,,*7B
2017-12-31 17:06:16 1514757976.343314: $GPRMC,220617,A,3946.9587,N,08404.9854,W,0.0000,0.000,311217,,*3B
2017-12-31 17:06:16 1514757976.343377: $GPGSA,A,3,22,23,25,3,16,29,31,14,32,26,135,,1.7,1.0,1.3*3B
2017-12-31 17:06:17 1514757977.360211: $GPZDA,220618.00,31,12,2017,00,00*6C
2017-12-31 17:06:17 1514757977.360387: $GPGGA,220618,3946.9587,N,08404.9854,W,2,11,1.00,302.21,M,-33.324,M,,*74
2017-12-31 17:06:17 1514757977.360453: $GPRMC,220618,A,3946.9587,N,08404.9854,W,0.0000,0.000,311217,,*34
2017-12-31 17:06:17 1514757977.360514: $GPGSA,A,3,22,23,25,3,16,29,31,14,32,26,135,,1.7,1.0,1.3*3B
2017-12-31 17:06:18 1514757978.695612: $GPGSV,3,1,11,22,44,238,41,23,28,307,35,25,01,037,06,03,46,270,38*75
2017-12-31 17:06:18 1514757978.695792: $GPGSV,3,2,11,16,47,190,44,29,14,054,31,31,49,051,50,14,40,114,36*77
2017-12-31 17:06:18 1514757978.695857: $GPGSV,3,3,11,32,18,123,40,26,75,139,46,135,22,240,42*7D
2017-12-31 17:06:18 1514757978.809025: $GPZDA,220619.00,31,12,2017,00,00*6D
2017-12-31 17:06:18 1514757978.809202: $GPGGA,220619,3946.9587,N,08404.9854,W,2,10,1.00,302.21,M,-33.324,M,,*74
2017-12-31 17:06:18 1514757978.809269: $GPRMC,220619,A,3946.9587,N,08404.9854,W,0.0000,0.000,311217,,*35
2017-12-31 17:06:18 1514757978.809331: $GPGSA,A,3,22,23,3,16,29,31,14,32,26,135,,,1.7,1.0,1.3*3C
2017-12-31 17:06:19 1514757979.348878: $GPZDA,220620.00,31,12,2017,00,00*67
2017-12-31 17:06:19 1514757979.349036: $GPGGA,220620,3946.9587,N,08404.9854,W,2,10,1.00,302.21,M,-33.324,M,,*7E
2017-12-31 17:06:19 1514757979.349101: $GPRMC,220620,A,3946.9587,N,08404.9854,W,0.0000,0.000,311217,,*3F
2017-12-31 17:06:19 1514757979.349161: $GPGSA,A,3,22,23,3,16,29,31,14,32,26,135,,,1.7,1.0,1.3*3C
