2017-11-16 15:34:28 1510864468.737506: {"class":"VERSION","release":"3.17","rev":"3.17","proto_major":3,"proto_minor":12}
2017-11-16 15:34:28 1510864468.737977: {"class":"DEVICES","devices":[{"class":"DEVICE","path":"/dev/ttyUSB0","driver":"SiRF","subtype":"9\u0006GSD4e_4.1.2-P1_RPATCH.05-F-GPS-4R-1510281 11/03/2015 307","activated":"2017-11-16T20:34:28.712Z","flags":1,"native":1,"bps":4800,"parity":"N","stopbits":1,"cycle":1.00}]}
2017-11-16 15:34:28 1510864468.738093: {"class":"WATCH","enable":true,"json":false,"nmea":true,"raw":0,"scaled":false,"timing":false,"split24":false,"pps":false}
2017-11-16 15:34:28 1510864468.825737: $GPZDA,203427.00,16,11,2017,00,00*65
2017-11-16 15:34:28 1510864468.825893: $GPGGA,203427,3946.9568,N,08404.9860,W,2,12,1.00,309.61,M,-33.324,M,,*71
2017-11-16 15:34:28 1510864468.825952: $GPRMC,203427,A,3946.9568,N,08404.9860,W,0.0000,0.000,161117,,*3B
2017-11-16 15:34:28 1510864468.826008: $GPGSA,A,3,8,10,14,15,18,20,21,24,25,32,12,138,1.6,1.0,1.3*3F
2017-11-16 15:34:29 1510864469.384079: $GPZDA,203428.00,16,11,2017,00,00*6A
2017-11-16 15:34:29 1510864469.384260: $GPGGA,203428,3946.9568,N,08404.9860,W,2,12,1.00,309.61,M,-33.324,M,,*7E
2017-11-16 15:34:29 1510864469.384321: $GPRMC,203428,A,3946.9568,N,08404.9860,W,0.0000,0.000,161117,,*34
2017-11-16 15:34:29 1510864469.384378: $GPGSA,A,3,8,10,14,15,18,20,21,24,25,32,12,138,1.6,1.0,1.3*3F
2017-11-16 15:34:30 1510864470.383817: $GPZDA,203429.00,16,11,2017,00,00*6B
2017-11-16 15:34:30 1510864470.383985: $GPGGA,203429,3946.9568,N,08404.9860,W,2,12,1.00,309.61,M,-33.324,M,,*7F
2017-11-16 15:34:30 1510864470.384046: $GPRMC,203429,A,3946.9568,N,08404.9860,W,0.0000,0.000,161117,,*35
2017-11-16 15:34:30 1510864470.384122: $GPGSA,A,3,8,10,14,15,18,20,21,24,25,32,12,138,1.6,1.0,1.3*3F
2017-11-16 15:34:31 1510864471.709383: $GPGSV,3,1,12,08,04,289,29,10,73,337,50,14,32,256,45,15,08,069,32*7D
2017-11-16 15:34:31 1510864471.709557: $GPGSV,3,2,12,18,67,102,48,20,05,120,26,21,25,178,44,24,42,055,50*73
2017-11-16 15:34:31 1510864471.709618: $GPGSV,3,3,12,25,06,139,09,32,49,270,46,12,12,103,25,138,38,213,44*46
2017-11-16 15:34:31 1510864471.822697: $GPZDA,203430.00,16,11,2017,00,00*63
2017-11-16 15:34:31 1510864471.822879: $GPGGA,203430,3946.9568,N,08404.9860,W,2,12,1.00,309.61,M,-33.324,M,,*77
2017-11-16 15:34:31 1510864471.822940: $GPRMC,203430,A,3946.9568,N,08404.9860,W,0.0000,0.000,161117,,*3D
2017-11-16 15:34:31 1510864471.822996: $GPGSA,A,3,8,10,14,15,18,20,21,24,25,32,12,138,1.6,1.0,1.3*3F
2017-11-16 15:34:32 1510864472.368739: $GPZDA,203431.00,16,11,2017,00,00*62
2017-11-16 15:34:32 1510864472.368935: $GPGGA,203431,3946.9568,N,08404.9860,W,2,12,1.00,309.61,M,-33.324,M,,*76
2017-11-16 15:34:32 1510864472.368997: $GPRMC,203431,A,3946.9568,N,08404.9860,W,0.0000,0.000,161117,,*3C
2017-11-16 15:34:32 1510864472.369053: $GPGSA,A,3,8,10,14,15,18,20,21,24,25,32,12,138,1.6,1.0,1.3*3F
2017-11-16 15:34:33 1510864473.372319: $GPZDA,203432.00,16,11,2017,00,00*61
2017-11-16 15:34:33 1510864473.372511: $GPGGA,203432,3946.9568,N,08404.9860,W,2,12,1.00,309.61,M,-33.324,M,,*75
2017-11-16 15:34:33 1510864473.372592: $GPRMC,203432,A,3946.9568,N,08404.9860,W,0.0000,0.000,161117,,*3F
2017-11-16 15:34:33 1510864473.372668: $GPGSA,A,3,8,10,14,15,18,20,21,24,25,32,12,138,1.6,1.0,1.3*3F
2017-11-16 15:34:34 1510864474.702986: $GPGSV,3,1,12,08,04,289,32,10,73,337,50,14,32,256,45,15,08,069,32*77
2017-11-16 15:34:34 1510864474.703215: $GPGSV,3,2,12,18,67,102,48,20,05,120,26,21,25,178,44,24,42,055,50*73
2017-11-16 15:34:34 1510864474.703298: $GPGSV,3,3,12,25,06,139,04,32,49,270,45,12,12,103,26,138,38,213,44*4B
2017-11-16 15:34:34 1510864474.816680: $GPZDA,203433.00,16,11,2017,00,00*60
2017-11-16 15:34:34 1510864474.816840: $GPGGA,203433,3946.9568,N,08404.9860,W,2,11,1.00,309.61,M,-33.324,M,,*77
2017-11-16 15:34:34 1510864474.816900: $GPRMC,203433,A,3946.9568,N,08404.9860,W,0.0000,0.000,161117,,*3E
2017-11-16 15:34:34 1510864474.816956: $GPGSA,A,3,8,10,14,15,18,20,21,24,32,12,138,,1.6,1.0,1.3*38
2017-11-16 15:34:35 1510864475.366227: $GPZDA,203434.00,16,11,2017,00,00*67
2017-11-16 15:34:35 1510864475.366452: $GPGGA,203434,3946.9568,N,08404.9860,W,2,11,1.00,309.61,M,-33.324,M,,*70
2017-11-16 15:34:35 1510864475.366515: $GPRMC,203434,A,3946.9568,N,08404.9860,W,0.0000,0.000,161117,,*39
2017-11-16 15:34:35 1510864475.366572: $GPGSA,A,3,8,10,14,15,18,20,21,24,32,12,138,,1.6,1.0,1.3*38
2017-11-16 15:34:36 1510864476.372940: $GPZDA,203435.00,16,11,2017,00,00*66
2017-11-16 15:34:36 1510864476.373110: $GPGGA,203435,3946.9568,N,08404.9860,W,2,11,1.00,309.61,M,-33.324,M,,*71
2017-11-16 15:34:36 1510864476.373205: $GPRMC,203435,A,3946.9568,N,08404.9860,W,0.0000,0.000,161117,,*38
2017-11-16 15:34:36 1510864476.373281: $GPGSA,A,3,8,10,14,15,18,20,21,24,32,12,138,,1.6,1.0,1.3*38
2017-11-16 15:34:37 1510864477.704471: $GPGSV,3,1,12,08,04,289,33,10,73,337,50,14,32,256,45,15,08,069,33*77
2017-11-16 15:34:37 1510864477.704646: $GPGSV,3,2,12,18,67,102,48,20,05,120,26,21,25,178,44,24,42,055,50*73
2017-11-16 15:34:37 1510864477.704708: $GPGSV,3,3,12,25,06,139,05,32,49,270,45,12,12,103,27,138,38,213,44*4B
2017-11-16 15:34:37 1510864477.817798: $GPZDA,203436.00,16,11,2017,00,00*65
2017-11-16 15:34:37 1510864477.817985: $GPGGA,203436,3946.9568,N,08404.9860,W,2,11,1.00,309.61,M,-33.324,M,,*72
2017-11-16 15:34:37 1510864477.818048: $GPRMC,203436,A,3946.9568,N,08404.9860,W,0.0000,0.000,161117,,*3B
2017-11-16 15:34:37 1510864477.818124: $GPGSA,A,3,8,10,14,15,18,20,21,24,32,12,138,,1.6,1.0,1.3*38
2017-11-16 15:34:38 1510864478.359931: $GPZDA,203437.00,16,11,2017,00,00*64
2017-11-16 15:34:38 1510864478.360123: $GPGGA,203437,3946.9568,N,08404.9860,W,2,11,1.00,309.61,M,-33.324,M,,*73
2017-11-16 15:34:38 1510864478.360186: $GPRMC,203437,A,3946.9568,N,08404.9860,W,0.0000,0.000,161117,,*3A
2017-11-16 15:34:38 1510864478.360258: $GPGSA,A,3,8,10,14,15,18,20,21,24,32,12,138,,1.6,1.0,1.3*38
