2017-11-16 14:55:02 1510862102.409244: {"class":"VERSION","release":"3.17","rev":"3.17","proto_major":3,"proto_minor":12}
2017-11-16 14:55:02 1510862102.409783: {"class":"DEVICES","devices":[{"class":"DEVICE","path":"/dev/ttyUSB0","driver":"SiRF","subtype":"9\u0006GSD4e_4.1.2-P1_RPATCH.05-F-GPS-4R-1510281 11/03/2015 307","activated":"2017-11-16T19:55:02.352Z","flags":1,"native":1,"bps":4800,"parity":"N","stopbits":1,"cycle":1.00}]}
2017-11-16 14:55:02 1510862102.409908: {"class":"WATCH","enable":true,"json":false,"nmea":true,"raw":0,"scaled":false,"timing":false,"split24":false,"pps":false}
2017-11-16 14:55:02 1510862102.531068: $GPZDA,195501.00,16,11,2017,00,00*6C
2017-11-16 14:55:02 1510862102.531227: $GPGGA,195501,3946.9575,N,08404.9848,W,2,11,0.80,301.77,M,-33.324,M,,*7B
2017-11-16 14:55:02 1510862102.531288: $GPRMC,195501,A,3946.9575,N,08404.9848,W,0.0000,0.000,161117,,*34
2017-11-16 14:55:02 1510862102.531344: $GPGSA,A,3,8,10,15,18,21,20,24,27,32,14,138,,1.6,0.8,1.3*37
2017-11-16 14:55:03 1510862103.827739: $GPGSV,3,1,11,08,08,306,28,10,56,315,50,15,22,058,50,18,77,040,45*74
2017-11-16 14:55:03 1510862103.827896: $GPGSV,3,2,11,21,45,183,46,20,19,109,45,24,52,079,48,27,14,271,43*71
2017-11-16 14:55:03 1510862103.827956: $GPGSV,3,3,11,32,35,252,47,14,18,243,44,138,38,213,44*70
2017-11-16 14:55:03 1510862103.941032: $GPZDA,195502.00,16,11,2017,00,00*6F
2017-11-16 14:55:03 1510862103.941193: $GPGGA,195502,3946.9575,N,08404.9848,W,2,11,0.80,301.77,M,-33.324,M,,*78
2017-11-16 14:55:03 1510862103.941256: $GPRMC,195502,A,3946.9575,N,08404.9848,W,0.0000,0.000,161117,,*37
2017-11-16 14:55:03 1510862103.941312: $GPGSA,A,3,8,10,15,18,21,20,24,27,32,14,138,,1.6,0.8,1.3*37
2017-11-16 14:55:04 1510862104.566314: $GPZDA,195503.00,16,11,2017,00,00*6E
2017-11-16 14:55:04 1510862104.566481: $GPGGA,195503,3946.9575,N,08404.9848,W,2,11,0.80,301.77,M,-33.324,M,,*79
2017-11-16 14:55:04 1510862104.566558: $GPRMC,195503,A,3946.9575,N,08404.9848,W,0.0000,0.000,161117,,*36
2017-11-16 14:55:04 1510862104.566615: $GPGSA,A,3,8,10,15,18,21,20,24,27,32,14,138,,1.6,0.8,1.3*37
2017-11-16 14:55:05 1510862105.493505: $GPZDA,195504.00,16,11,2017,00,00*69
2017-11-16 14:55:05 1510862105.493687: $GPGGA,195504,3946.9575,N,08404.9848,W,2,11,0.80,301.77,M,-33.324,M,,*7E
2017-11-16 14:55:05 1510862105.493749: $GPRMC,195504,A,3946.9575,N,08404.9848,W,0.0000,0.000,161117,,*31
2017-11-16 14:55:05 1510862105.493805: $GPGSA,A,3,8,10,15,18,21,20,24,27,32,14,138,,1.6,0.8,1.3*37
2017-11-16 14:55:06 1510862106.829235: $GPGSV,3,1,11,08,08,306,28,10,56,315,50,15,22,058,50,18,77,040,45*74
2017-11-16 14:55:06 1510862106.829423: $GPGSV,3,2,11,21,45,183,46,20,19,109,45,24,52,079,49,27,14,271,43*70
2017-11-16 14:55:06 1510862106.829487: $GPGSV,3,3,11,32,35,252,47,14,18,243,44,138,38,213,44*70
2017-11-16 14:55:06 1510862106.942607: $GPZDA,195505.00,16,11,2017,00,00*68
2017-11-16 14:55:06 1510862106.942772: $GPGGA,195505,3946.9575,N,08404.9848,W,2,11,0.80,301.77,M,-33.324,M,,*7F
2017-11-16 14:55:06 1510862106.942833: $GPRMC,195505,A,3946.9575,N,08404.9848,W,0.0000,0.000,161117,,*30
2017-11-16 14:55:06 1510862106.942889: $GPGSA,A,3,8,10,15,18,21,20,24,27,32,14,138,,1.6,0.8,1.3*37
2017-11-16 14:55:07 1510862107.531031: $GPZDA,195506.00,16,11,2017,00,00*6B
2017-11-16 14:55:07 1510862107.531193: $GPGGA,195506,3946.9575,N,08404.9848,W,2,11,0.80,301.77,M,-33.324,M,,*7C
2017-11-16 14:55:07 1510862107.531254: $GPRMC,195506,A,3946.9575,N,08404.9848,W,0.0000,0.000,161117,,*33
2017-11-16 14:55:07 1510862107.531310: $GPGSA,A,3,8,10,15,18,21,20,24,27,32,14,138,,1.6,0.8,1.3*37
2017-11-16 14:55:08 1510862108.486851: $GPZDA,195507.00,16,11,2017,00,00*6A
2017-11-16 14:55:08 1510862108.487010: $GPGGA,195507,3946.9575,N,08404.9848,W,2,11,0.80,301.77,M,-33.324,M,,*7D
2017-11-16 14:55:08 1510862108.487071: $GPRMC,195507,A,3946.9575,N,08404.9848,W,0.0000,0.000,161117,,*32
2017-11-16 14:55:08 1510862108.487127: $GPGSA,A,3,8,10,15,18,21,20,24,27,32,14,138,,1.6,0.8,1.3*37
2017-11-16 14:55:09 1510862109.828377: $GPGSV,3,1,11,08,08,306,28,10,56,315,50,15,22,058,50,18,77,040,45*74
2017-11-16 14:55:09 1510862109.828611: $GPGSV,3,2,11,21,45,183,46,20,19,109,45,24,52,079,48,27,14,271,44*76
2017-11-16 14:55:09 1510862109.828673: $GPGSV,3,3,11,32,35,252,46,14,18,243,44,138,38,213,43*76
2017-11-16 14:55:09 1510862109.941864: $GPZDA,195508.00,16,11,2017,00,00*65
2017-11-16 14:55:09 1510862109.942026: $GPGGA,195508,3946.9575,N,08404.9848,W,2,11,0.80,301.77,M,-33.324,M,,*72
2017-11-16 14:55:09 1510862109.942086: $GPRMC,195508,A,3946.9575,N,08404.9848,W,0.0000,0.000,161117,,*3D
2017-11-16 14:55:09 1510862109.942142: $GPGSA,A,3,8,10,15,18,21,20,24,27,32,14,138,,1.6,0.8,1.3*37
2017-11-16 14:55:10 1510862110.530093: $GPZDA,195509.00,16,11,2017,00,00*64
2017-11-16 14:55:10 1510862110.530254: $GPGGA,195509,3946.9575,N,08404.9848,W,2,11,0.80,301.77,M,-33.324,M,,*73
2017-11-16 14:55:10 1510862110.530362: $GPRMC,195509,A,3946.9575,N,08404.9848,W,0.0000,0.000,161117,,*3C
2017-11-16 14:55:10 1510862110.530439: $GPGSA,A,3,8,10,15,18,21,20,24,27,32,14,138,,1.6,0.8,1.3*37
2017-11-16 14:55:11 1510862111.497324: $GPZDA,195510.00,16,11,2017,00,00*6C
2017-11-16 14:55:11 1510862111.497501: $GPGGA,195510,3946.9575,N,08404.9848,W,2,11,0.80,301.77,M,-33.324,M,,*7B
2017-11-16 14:55:11 1510862111.497578: $GPRMC,195510,A,3946.9575,N,08404.9848,W,0.0000,0.000,161117,,*34
2017-11-16 14:55:11 1510862111.497635: $GPGSA,A,3,8,10,15,18,21,20,24,27,32,14,138,,1.6,0.8,1.3*37
