2017-12-01 16:13:30 1512162810.036580: {"class":"VERSION","release":"3.16","rev":"3.16-4","proto_major":3,"proto_minor":11}
2017-12-01 16:13:30 1512162810.037135: {"class":"DEVICES","devices":[{"class":"DEVICE","path":"/dev/ttyUSB0","driver":"SiRF","subtype":"9\u0006GSD4e_4.1.2-P1_RPATCH.05-F-GPS-4R-1510281 11/03/2015 307","activated":"2017-12-01T21:13:30.021Z","flags":1,"native":1,"bps":4800,"parity":"N","stopbits":1,"cycle":1.00}]}
2017-12-01 16:13:30 1512162810.037274: {"class":"WATCH","enable":true,"json":false,"nmea":true,"raw":0,"scaled":false,"timing":false,"split24":false,"pps":false}
2017-12-01 16:13:31 1512162811.089434: $GPZDA,211331.75,01,12,2017,00,00*61
2017-12-01 16:13:31 1512162811.089599: $GPGGA,211331,3946.9590,N,08404.9834,W,1,12,1.00,317.33,M,-33.324,M,,*7F
2017-12-01 16:13:31 1512162811.089664: $GPRMC,211331,A,3946.9590,N,08404.9834,W,0.4584,328.179,011217,,*30
2017-12-01 16:13:31 1512162811.089726: $GPGSA,A,3,1,10,11,12,14,18,22,25,31,32,24,138,2.0,1.0,1.5*32
2017-12-01 16:13:31 1512162811.089785: $GPGBS,211331,10.70,M,15.43,M,35.28,M*04
2017-12-01 16:13:32 1512162812.170919: $GPZDA,211332.43,01,12,2017,00,00*67
2017-12-01 16:13:32 1512162812.171089: $GPGGA,211332,3946.9590,N,08404.9834,W,1,12,1.00,317.33,M,-33.324,M,,*7C
2017-12-01 16:13:32 1512162812.171156: $GPRMC,211332,A,3946.9590,N,08404.9834,W,0.2959,234.767,011217,,*3C
2017-12-01 16:13:32 1512162812.171217: $GPGSA,A,3,1,10,11,12,14,18,22,25,31,32,24,138,2.0,1.0,1.5*32
2017-12-01 16:13:33 1512162813.313531: $GPGSV,3,1,12,01,20,307,34,10,56,144,47,12,24,057,46,14,62,312,45*7D
2017-12-01 16:13:33 1512162813.313709: $GPGSV,3,2,12,18,25,141,45,22,13,312,37,25,37,100,46,31,48,219,48*7E
2017-12-01 16:13:33 1512162813.313775: $GPGSV,3,3,12,32,70,007,46,11,10,289,05,24,03,048,00,138,38,213,20*44
2017-12-01 16:13:33 1512162813.427529: $GPZDA,211333.00,01,12,2017,00,00*61
2017-12-01 16:13:33 1512162813.427696: $GPGGA,211333,3946.9589,N,08404.9833,W,1,10,1.00,315.93,M,-33.324,M,,*78
2017-12-01 16:13:33 1512162813.427762: $GPRMC,211333,A,3946.9589,N,08404.9833,W,0.1867,180.000,011217,,*37
2017-12-01 16:13:33 1512162813.427823: $GPGSA,A,3,1,10,12,14,18,22,25,31,32,138,,,2.0,1.0,1.5*34
2017-12-01 16:13:33 1512162813.879370: $GPZDA,211334.00,01,12,2017,00,00*66
2017-12-01 16:13:33 1512162813.879541: $GPGGA,211334,3946.9589,N,08404.9833,W,1,10,0.80,315.93,M,-33.324,M,,*76
2017-12-01 16:13:33 1512162813.879607: $GPRMC,211334,A,3946.9589,N,08404.9833,W,0.2422,273.794,011217,,*3B
2017-12-01 16:13:33 1512162813.879668: $GPGSA,A,3,1,10,12,14,18,22,25,31,32,138,,,2.0,0.8,1.5*3D
2017-12-01 16:13:34 1512162814.378645: $GPZDA,211335.00,01,12,2017,00,00*67
2017-12-01 16:13:34 1512162814.378816: $GPGGA,211335,3946.9585,N,08404.9833,W,1,10,0.80,315.29,M,-33.324,M,,*7A
2017-12-01 16:13:34 1512162814.378881: $GPRMC,211335,A,3946.9585,N,08404.9833,W,0.0000,0.000,011217,,*3C
2017-12-01 16:13:34 1512162814.378942: $GPGSA,A,3,1,10,12,14,18,22,25,31,32,138,,,2.0,0.8,1.5*3D
2017-12-01 16:13:35 1512162815.716389: $GPGSV,3,1,12,01,20,307,35,10,56,144,48,12,24,057,45,14,62,312,44*71
2017-12-01 16:13:35 1512162815.716559: $GPGSV,3,2,12,18,25,141,44,22,13,312,36,25,37,100,46,31,48,219,49*7F
2017-12-01 16:13:35 1512162815.716625: $GPGSV,3,3,12,32,70,007,46,11,10,289,30,24,03,048,00,138,38,213,46*42
2017-12-01 16:13:35 1512162815.829812: $GPZDA,211336.00,01,12,2017,00,00*64
2017-12-01 16:13:35 1512162815.829982: $GPGGA,211336,3946.9588,N,08404.9833,W,1,11,0.80,314.53,M,-33.324,M,,*79
2017-12-01 16:13:35 1512162815.830048: $GPRMC,211336,A,3946.9588,N,08404.9833,W,0.0000,0.000,011217,,*32
2017-12-01 16:13:35 1512162815.830109: $GPGSA,A,3,1,10,12,14,18,22,25,31,32,11,138,,2.0,0.8,1.5*3D
2017-12-01 16:13:36 1512162816.380674: $GPZDA,211337.00,01,12,2017,00,00*65
2017-12-01 16:13:36 1512162816.380853: $GPGGA,211337,3946.9592,N,08404.9832,W,1,11,0.80,313.76,M,-33.324,M,,*72
2017-12-01 16:13:36 1512162816.380919: $GPRMC,211337,A,3946.9592,N,08404.9832,W,0.0000,0.000,011217,,*39
2017-12-01 16:13:36 1512162816.380979: $GPGSA,A,3,1,10,12,14,18,22,25,31,32,11,138,,2.0,0.8,1.5*3D
2017-12-01 16:13:37 1512162817.380196: $GPZDA,211338.00,01,12,2017,00,00*6A
2017-12-01 16:13:37 1512162817.380363: $GPGGA,211338,3946.9588,N,08404.9832,W,1,11,0.80,313.12,M,-33.324,M,,*74
2017-12-01 16:13:37 1512162817.380430: $GPRMC,211338,A,3946.9588,N,08404.9832,W,0.0000,0.000,011217,,*3D
2017-12-01 16:13:37 1512162817.380491: $GPGSA,A,3,1,10,12,14,18,22,25,31,32,11,138,,2.0,0.8,1.5*3D
2017-12-01 16:13:37 1512162817.380549: $GPGBS,211338,10.70,M,15.43,M,35.28,M*0D
2017-12-01 16:13:38 1512162818.715893: $GPGSV,3,1,12,01,20,307,34,10,56,144,48,12,24,057,46,14,62,312,44*73
2017-12-01 16:13:38 1512162818.716077: $GPGSV,3,2,12,18,25,141,44,22,13,312,36,25,37,100,46,31,48,219,49*7F
2017-12-01 16:13:38 1512162818.716144: $GPGSV,3,3,12,32,70,007,46,11,10,289,31,24,03,048,00,138,38,213,46*43
2017-12-01 16:13:38 1512162818.829245: $GPZDA,211339.00,01,12,2017,00,00*6B
2017-12-01 16:13:38 1512162818.829396: $GPGGA,211339,3946.9591,N,08404.9831,W,1,11,0.80,312.36,M,-33.324,M,,*79
2017-12-01 16:13:38 1512162818.829463: $GPRMC,211339,A,3946.9591,N,08404.9831,W,0.0000,0.000,011217,,*37
2017-12-01 16:13:38 1512162818.829524: $GPGSA,A,3,1,10,12,14,18,22,25,31,32,11,138,,2.0,0.8,1.5*3D
2017-12-01 16:13:39 1512162819.381419: $GPZDA,211340.00,01,12,2017,00,00*65
2017-12-01 16:13:39 1512162819.381604: $GPGGA,211340,3946.9591,N,08404.9831,W,1,11,0.80,312.36,M,-33.324,M,,*77
2017-12-01 16:13:39 1512162819.381672: $GPRMC,211340,A,3946.9591,N,08404.9831,W,0.0000,0.000,011217,,*39
2017-12-01 16:13:39 1512162819.381733: $GPGSA,A,3,1,10,12,14,18,22,25,31,32,11,138,,2.0,0.8,1.5*3D
2017-12-01 16:13:40 1512162820.381917: $GPZDA,211341.00,01,12,2017,00,00*64
2017-12-01 16:13:40 1512162820.382089: $GPGGA,211341,3946.9595,N,08404.9830,W,1,11,0.80,311.59,M,-33.324,M,,*79
2017-12-01 16:13:40 1512162820.382156: $GPRMC,211341,A,3946.9595,N,08404.9830,W,0.0000,0.000,011217,,*3D
2017-12-01 16:13:40 1512162820.382217: $GPGSA,A,3,1,10,12,14,18,22,25,31,32,11,138,,2.0,0.8,1.5*3D
2017-12-01 16:13:41 1512162821.720073: $GPGSV,3,1,12,01,20,307,34,10,56,144,48,12,24,057,46,14,62,312,44*73
2017-12-01 16:13:41 1512162821.720255: $GPGSV,3,2,12,18,25,141,45,22,13,312,36,25,37,100,46,31,48,219,50*76
2017-12-01 16:13:41 1512162821.720322: $GPGSV,3,3,12,32,70,007,46,11,10,289,31,24,03,048,00,138,38,213,46*43
2017-12-01 16:13:41 1512162821.833442: $GPZDA,211342.00,01,12,2017,00,00*67
2017-12-01 16:13:41 1512162821.833676: $GPGGA,211342,3946.9600,N,08404.9834,W,2,11,1.20,305.77,M,-33.324,M,,*70
2017-12-01 16:13:41 1512162821.833743: $GPRMC,211342,A,3946.9600,N,08404.9834,W,0.0000,0.000,011217,,*35
2017-12-01 16:13:41 1512162821.833805: $GPGSA,A,3,1,10,12,14,18,22,25,31,32,11,138,,2.0,1.2,1.5*36
2017-12-01 16:13:42 1512162822.381889: $GPZDA,211343.00,01,12,2017,00,00*66
2017-12-01 16:13:42 1512162822.382060: $GPGGA,211343,3946.9600,N,08404.9834,W,2,11,1.20,305.77,M,-33.324,M,,*71
2017-12-01 16:13:42 1512162822.382125: $GPRMC,211343,A,3946.9600,N,08404.9834,W,0.0000,0.000,011217,,*34
2017-12-01 16:13:42 1512162822.382186: $GPGSA,A,3,1,10,12,14,18,22,25,31,32,11,138,,2.0,1.2,1.5*36
2017-12-01 16:13:43 1512162823.387779: $GPZDA,211344.00,01,12,2017,00,00*61
2017-12-01 16:13:43 1512162823.387967: $GPGGA,211344,3946.9600,N,08404.9834,W,2,11,1.20,305.77,M,-33.324,M,,*76
2017-12-01 16:13:43 1512162823.388034: $GPRMC,211344,A,3946.9600,N,08404.9834,W,0.0000,0.000,011217,,*33
2017-12-01 16:13:43 1512162823.388095: $GPGSA,A,3,1,10,12,14,18,22,25,31,32,11,138,,2.0,1.2,1.5*36
2017-12-01 16:13:44 1512162824.717115: $GPGSV,3,1,12,01,20,307,35,10,56,144,48,12,24,057,46,14,62,312,44*72
2017-12-01 16:13:44 1512162824.717295: $GPGSV,3,2,12,18,25,141,45,22,13,312,36,25,37,100,46,31,48,219,50*76
2017-12-01 16:13:44 1512162824.717360: $GPGSV,3,3,12,32,70,007,46,11,10,289,36,24,03,048,19,138,38,213,46*4C
2017-12-01 16:13:44 1512162824.830701: $GPZDA,211345.00,01,12,2017,00,00*60
2017-12-01 16:13:44 1512162824.830839: $GPGGA,211345,3946.9600,N,08404.9834,W,2,12,1.20,305.77,M,-33.324,M,,*74
2017-12-01 16:13:44 1512162824.830906: $GPRMC,211345,A,3946.9600,N,08404.9834,W,0.0000,0.000,011217,,*32
2017-12-01 16:13:44 1512162824.831014: $GPGSA,A,3,1,10,12,14,18,22,25,31,32,11,24,138,2.0,1.2,1.5*30
2017-12-01 16:13:45 1512162825.456191: $GPZDA,211346.00,01,12,2017,00,00*63
2017-12-01 16:13:45 1512162825.456346: $GPGGA,211346,3946.9600,N,08404.9834,W,2,12,0.80,305.77,M,-33.324,M,,*7C
2017-12-01 16:13:45 1512162825.456439: $GPRMC,211346,A,3946.9600,N,08404.9834,W,0.0000,0.000,011217,,*31
2017-12-01 16:13:45 1512162825.456502: $GPGSA,A,3,1,10,12,14,18,22,25,31,32,11,24,138,2.0,0.8,1.5*3B
2017-12-01 16:13:46 1512162826.381836: $GPZDA,211347.00,01,12,2017,00,00*62
2017-12-01 16:13:46 1512162826.382012: $GPGGA,211347,3946.9600,N,08404.9834,W,2,12,0.80,305.77,M,-33.324,M,,*7D
2017-12-01 16:13:46 1512162826.382079: $GPRMC,211347,A,3946.9600,N,08404.9834,W,0.0000,0.000,011217,,*30
2017-12-01 16:13:46 1512162826.382140: $GPGSA,A,3,1,10,12,14,18,22,25,31,32,11,24,138,2.0,0.8,1.5*3B
2017-12-01 16:13:47 1512162827.718733: $GPGSV,3,1,12,01,20,307,34,10,56,144,48,12,24,057,46,14,62,312,44*73
2017-12-01 16:13:47 1512162827.718917: $GPGSV,3,2,12,18,25,141,45,22,13,312,36,25,37,100,46,31,48,219,50*76
2017-12-01 16:13:47 1512162827.718983: $GPGSV,3,3,12,32,70,007,46,11,10,289,35,24,03,048,17,138,38,213,46*41
2017-12-01 16:13:47 1512162827.832450: $GPZDA,211348.00,01,12,2017,00,00*6D
2017-12-01 16:13:47 1512162827.832643: $GPGGA,211348,3946.9600,N,08404.9834,W,2,12,0.80,305.77,M,-33.324,M,,*72
2017-12-01 16:13:47 1512162827.832711: $GPRMC,211348,A,3946.9600,N,08404.9834,W,0.0000,0.000,011217,,*3F
2017-12-01 16:13:47 1512162827.832772: $GPGSA,A,3,1,10,12,14,18,22,25,31,32,11,24,138,2.0,0.8,1.5*3B
2017-12-01 16:13:48 1512162828.380753: $GPZDA,211349.00,01,12,2017,00,00*6C
2017-12-01 16:13:48 1512162828.380925: $GPGGA,211349,3946.9600,N,08404.9834,W,2,12,0.80,305.77,M,-33.324,M,,*73
2017-12-01 16:13:48 1512162828.380990: $GPRMC,211349,A,3946.9600,N,08404.9834,W,0.0000,0.000,011217,,*3E
2017-12-01 16:13:48 1512162828.381051: $GPGSA,A,3,1,10,12,14,18,22,25,31,32,11,24,138,2.0,0.8,1.5*3B
2017-12-01 16:13:49 1512162829.384487: $GPZDA,211350.00,01,12,2017,00,00*64
2017-12-01 16:13:49 1512162829.384862: $GPGGA,211350,3946.9599,N,08404.9827,W,2,12,0.80,305.85,M,-33.324,M,,*77
2017-12-01 16:13:49 1512162829.385067: $GPRMC,211350,A,3946.9599,N,08404.9827,W,0.0000,0.000,011217,,*37
2017-12-01 16:13:49 1512162829.385187: $GPGSA,A,3,1,10,12,14,18,22,25,31,32,11,24,138,2.0,0.8,1.5*3B
2017-12-01 16:13:49 1512162829.385304: $GPGBS,211350,2.67,M,3.86,M,8.82,M*36
