2017-11-16 15:11:29 1510863089.291747: {"class":"VERSION","release":"3.17","rev":"3.17","proto_major":3,"proto_minor":12}
2017-11-16 15:11:29 1510863089.292197: {"class":"DEVICES","devices":[{"class":"DEVICE","path":"/dev/ttyUSB0","driver":"SiRF","subtype":"9\u0006GSD4e_4.1.2-P1_RPATCH.05-F-GPS-4R-1510281 11/03/2015 307","activated":"2017-11-16T20:11:29.292Z","flags":1,"native":1,"bps":4800,"parity":"N","stopbits":1,"cycle":1.00}]}
2017-11-16 15:11:29 1510863089.292337: {"class":"WATCH","enable":true,"json":false,"nmea":true,"raw":0,"scaled":false,"timing":false,"split24":false,"pps":false}
2017-11-16 15:11:29 1510863089.405669: $GPZDA,201128.00,16,11,2017,00,00*6D
2017-11-16 15:11:29 1510863089.405836: $GPGGA,201128,3946.9579,N,08404.9847,W,2,11,0.80,301.01,M,-33.324,M,,*78
2017-11-16 15:11:29 1510863089.405897: $GPRMC,201128,A,3946.9579,N,08404.9847,W,0.0000,0.000,161117,,*36
2017-11-16 15:11:29 1510863089.405954: $GPGSA,A,3,8,10,14,15,18,20,21,24,27,32,138,,1.6,0.8,1.3*37
2017-11-16 15:11:30 1510863090.408045: $GPZDA,201129.00,16,11,2017,00,00*6C
2017-11-16 15:11:30 1510863090.408200: $GPGGA,201129,3946.9579,N,08404.9847,W,2,11,0.80,301.01,M,-33.324,M,,*79
2017-11-16 15:11:30 1510863090.408261: $GPRMC,201129,A,3946.9579,N,08404.9847,W,0.0000,0.000,161117,,*37
2017-11-16 15:11:30 1510863090.408317: $GPGSA,A,3,8,10,14,15,18,20,21,24,27,32,138,,1.6,0.8,1.3*37
2017-11-16 15:11:31 1510863091.724312: $GPGSV,3,1,12,08,07,300,35,10,63,322,51,14,24,249,45,15,16,063,40*7E
2017-11-16 15:11:31 1510863091.724497: $GPGSV,3,2,12,18,75,073,47,20,13,114,34,21,36,181,45,24,49,067,49*7C
2017-11-16 15:11:31 1510863091.724559: $GPGSV,3,3,12,27,10,265,40,32,41,258,47,12,05,112,23,138,38,213,44*47
2017-11-16 15:11:31 1510863091.837567: $GPZDA,201130.00,16,11,2017,00,00*64
2017-11-16 15:11:31 1510863091.837732: $GPGGA,201130,3946.9579,N,08404.9847,W,2,12,0.80,301.01,M,-33.324,M,,*72
2017-11-16 15:11:31 1510863091.837793: $GPRMC,201130,A,3946.9579,N,08404.9847,W,0.0000,0.000,161117,,*3F
2017-11-16 15:11:31 1510863091.837849: $GPGSA,A,3,8,10,14,15,18,20,21,24,27,32,12,138,1.6,0.8,1.3*34
2017-11-16 15:11:32 1510863092.387135: $GPZDA,201131.00,16,11,2017,00,00*65
2017-11-16 15:11:32 1510863092.387300: $GPGGA,201131,3946.9579,N,08404.9847,W,2,12,0.80,301.01,M,-33.324,M,,*73
2017-11-16 15:11:32 1510863092.387360: $GPRMC,201131,A,3946.9579,N,08404.9847,W,0.0000,0.000,161117,,*3E
2017-11-16 15:11:32 1510863092.387416: $GPGSA,A,3,8,10,14,15,18,20,21,24,27,32,12,138,1.6,0.8,1.3*34
2017-11-16 15:11:33 1510863093.381753: $GPZDA,201132.00,16,11,2017,00,00*66
2017-11-16 15:11:33 1510863093.381917: $GPGGA,201132,3946.9579,N,08404.9847,W,2,12,0.80,301.01,M,-33.324,M,,*70
2017-11-16 15:11:33 1510863093.381978: $GPRMC,201132,A,3946.9579,N,08404.9847,W,0.0000,0.000,161117,,*3D
2017-11-16 15:11:33 1510863093.382034: $GPGSA,A,3,8,10,14,15,18,20,21,24,27,32,12,138,1.6,0.8,1.3*34
2017-11-16 15:11:34 1510863094.722384: $GPGSV,3,1,12,08,07,300,35,10,63,322,50,14,24,249,45,15,16,063,40*7F
2017-11-16 15:11:34 1510863094.722554: $GPGSV,3,2,12,18,75,073,47,20,13,114,34,21,36,181,45,24,49,067,49*7C
2017-11-16 15:11:34 1510863094.722614: $GPGSV,3,3,12,27,10,265,40,32,41,258,46,12,05,112,24,138,38,213,43*46
2017-11-16 15:11:34 1510863094.835684: $GPZDA,201133.00,16,11,2017,00,00*67
2017-11-16 15:11:34 1510863094.835892: $GPGGA,201133,3946.9579,N,08404.9847,W,2,12,0.80,301.01,M,-33.324,M,,*71
2017-11-16 15:11:34 1510863094.835952: $GPRMC,201133,A,3946.9579,N,08404.9847,W,0.0000,0.000,161117,,*3C
2017-11-16 15:11:34 1510863094.836008: $GPGSA,A,3,8,10,14,15,18,20,21,24,27,32,12,138,1.6,0.8,1.3*34
2017-11-16 15:11:35 1510863095.386518: $GPZDA,201134.00,16,11,2017,00,00*60
2017-11-16 15:11:35 1510863095.386683: $GPGGA,201134,3946.9579,N,08404.9847,W,2,12,0.80,301.01,M,-33.324,M,,*76
2017-11-16 15:11:35 1510863095.386744: $GPRMC,201134,A,3946.9579,N,08404.9847,W,0.0000,0.000,161117,,*3B
2017-11-16 15:11:35 1510863095.386817: $GPGSA,A,3,8,10,14,15,18,20,21,24,27,32,12,138,1.6,0.8,1.3*34
2017-11-16 15:11:36 1510863096.388184: $GPZDA,201135.00,16,11,2017,00,00*61
2017-11-16 15:11:36 1510863096.388417: $GPGGA,201135,3946.9579,N,08404.9847,W,2,12,0.80,301.01,M,-33.324,M,,*77
2017-11-16 15:11:36 1510863096.388500: $GPRMC,201135,A,3946.9579,N,08404.9847,W,0.0000,0.000,161117,,*3A
2017-11-16 15:11:36 1510863096.388557: $GPGSA,A,3,8,10,14,15,18,20,21,24,27,32,12,138,1.6,0.8,1.3*34
2017-11-16 15:11:37 1510863097.725233: $GPGSV,3,1,12,08,07,300,35,10,63,322,50,14,24,249,46,15,16,063,40*7C
2017-11-16 15:11:37 1510863097.725399: $GPGSV,3,2,12,18,75,073,47,20,13,114,35,21,36,181,44,24,49,067,49*7C
2017-11-16 15:11:37 1510863097.725462: $GPGSV,3,3,12,27,10,265,41,32,41,258,46,12,05,112,25,138,38,213,44*41
2017-11-16 15:11:37 1510863097.838585: $GPZDA,201136.00,16,11,2017,00,00*62
2017-11-16 15:11:37 1510863097.838747: $GPGGA,201136,3946.9579,N,08404.9847,W,2,12,0.80,301.01,M,-33.324,M,,*74
2017-11-16 15:11:37 1510863097.838808: $GPRMC,201136,A,3946.9579,N,08404.9847,W,0.0000,0.000,161117,,*39
2017-11-16 15:11:37 1510863097.838864: $GPGSA,A,3,8,10,14,15,18,20,21,24,27,32,12,138,1.6,0.8,1.3*34
2017-11-16 15:11:38 1510863098.380694: $GPZDA,201137.00,16,11,2017,00,00*63
2017-11-16 15:11:38 1510863098.380998: $GPGGA,201137,3946.9579,N,08404.9847,W,2,12,0.80,301.01,M,-33.324,M,,*75
2017-11-16 15:11:38 1510863098.381101: $GPRMC,201137,A,3946.9579,N,08404.9847,W,0.0000,0.000,161117,,*38
2017-11-16 15:11:38 1510863098.381215: $GPGSA,A,3,8,10,14,15,18,20,21,24,27,32,12,138,1.6,0.8,1.3*34
