2017-12-01 12:23:25 1512149005.217119: {"class":"VERSION","release":"3.16","rev":"3.16-4","proto_major":3,"proto_minor":11}
2017-12-01 12:23:25 1512149005.217654: {"class":"DEVICES","devices":[{"class":"DEVICE","path":"/dev/ttyUSB0","driver":"SiRF","subtype":"9\u0006GSD4e_4.1.2-P1_RPATCH.05-F-GPS-4R-1510281 11/03/2015 307","activated":"2017-12-01T17:23:25.216Z","flags":1,"native":1,"bps":4800,"parity":"N","stopbits":1,"cycle":1.00}]}
2017-12-01 12:23:25 1512149005.217839: {"class":"WATCH","enable":true,"json":false,"nmea":true,"raw":0,"scaled":false,"timing":false,"split24":false,"pps":false}
2017-12-01 12:23:25 1512149005.666031: $GPGSV,3,1,12,10,25,285,41,13,27,045,45,15,58,051,47,18,56,303,45*76
2017-12-01 12:23:25 1512149005.666226: $GPGSV,3,2,12,20,50,075,45,21,79,253,42,24,35,136,48,27,17,310,37*7D
2017-12-01 12:23:25 1512149005.666292: $GPGSV,3,3,12,32,03,226,26,29,08,189,28,05,02,088,13,138,38,213,46*45
2017-12-01 12:23:25 1512149005.779687: $GPZDA,172326.00,01,12,2017,00,00*63
2017-12-01 12:23:25 1512149005.779875: $GPGGA,172326,3946.9564,N,08404.9848,W,2,11,0.80,301.26,M,-33.324,M,,*75
2017-12-01 12:23:25 1512149005.779942: $GPRMC,172326,A,3946.9564,N,08404.9848,W,0.0000,0.000,011217,,*3B
2017-12-01 12:23:25 1512149005.780004: $GPGSA,A,3,10,13,15,18,20,21,24,27,32,29,138,,2.0,0.8,1.5*00
2017-12-01 12:23:26 1512149006.329328: $GPZDA,172327.00,01,12,2017,00,00*62
2017-12-01 12:23:26 1512149006.329513: $GPGGA,172327,3946.9564,N,08404.9848,W,2,11,0.80,301.26,M,-33.324,M,,*74
2017-12-01 12:23:26 1512149006.329582: $GPRMC,172327,A,3946.9564,N,08404.9848,W,0.0000,0.000,011217,,*3A
2017-12-01 12:23:26 1512149006.329643: $GPGSA,A,3,10,13,15,18,20,21,24,27,32,29,138,,2.0,0.8,1.5*00
2017-12-01 12:23:27 1512149007.330209: $GPZDA,172328.00,01,12,2017,00,00*6D
2017-12-01 12:23:27 1512149007.330373: $GPGGA,172328,3946.9568,N,08404.9848,W,2,11,0.80,301.90,M,-33.324,M,,*7A
2017-12-01 12:23:27 1512149007.330439: $GPRMC,172328,A,3946.9568,N,08404.9848,W,0.0000,0.000,011217,,*39
2017-12-01 12:23:27 1512149007.330500: $GPGSA,A,3,10,13,15,18,20,21,24,27,32,29,138,,2.0,0.8,1.5*00
2017-12-01 12:23:28 1512149008.665144: $GPGSV,3,1,12,10,25,285,41,13,27,045,45,15,58,051,47,18,56,303,45*76
2017-12-01 12:23:28 1512149008.665325: $GPGSV,3,2,12,20,50,075,45,21,79,253,42,24,35,136,47,27,17,310,38*7D
2017-12-01 12:23:28 1512149008.665408: $GPGSV,3,3,12,32,03,226,26,29,08,189,28,05,02,088,00,138,38,213,45*44
2017-12-01 12:23:28 1512149008.778799: $GPZDA,172329.00,01,12,2017,00,00*6C
2017-12-01 12:23:28 1512149008.778972: $GPGGA,172329,3946.9568,N,08404.9848,W,2,11,0.80,301.90,M,-33.324,M,,*7B
2017-12-01 12:23:28 1512149008.779055: $GPRMC,172329,A,3946.9568,N,08404.9848,W,0.0000,0.000,011217,,*38
2017-12-01 12:23:28 1512149008.779118: $GPGSA,A,3,10,13,15,18,20,21,24,27,32,29,138,,2.0,0.8,1.5*00
2017-12-01 12:23:29 1512149009.328123: $GPZDA,172330.00,01,12,2017,00,00*64
2017-12-01 12:23:29 1512149009.328317: $GPGGA,172330,3946.9568,N,08404.9848,W,2,11,0.80,301.90,M,-33.324,M,,*73
2017-12-01 12:23:29 1512149009.328388: $GPRMC,172330,A,3946.9568,N,08404.9848,W,0.0000,0.000,011217,,*30
2017-12-01 12:23:29 1512149009.328450: $GPGSA,A,3,10,13,15,18,20,21,24,27,32,29,138,,2.0,0.8,1.5*00
2017-12-01 12:23:30 1512149010.327768: $GPZDA,172331.00,01,12,2017,00,00*65
2017-12-01 12:23:30 1512149010.327948: $GPGGA,172331,3946.9568,N,08404.9848,W,2,11,0.80,301.90,M,-33.324,M,,*72
2017-12-01 12:23:30 1512149010.328015: $GPRMC,172331,A,3946.9568,N,08404.9848,W,0.0000,0.000,011217,,*31
2017-12-01 12:23:30 1512149010.328076: $GPGSA,A,3,10,13,15,18,20,21,24,27,32,29,138,,2.0,0.8,1.5*00
2017-12-01 12:23:32 1512149012.188001: $GPGSV,3,1,12,10,25,285,41,13,26,045,45,15,58,051,47,18,56,303,45*77
2017-12-01 12:23:32 1512149012.188205: $GPGSV,3,2,12,20,49,075,45,21,79,252,42,24,36,136,48,27,17,310,37*77
2017-12-01 12:23:32 1512149012.188276: $GPGSV,3,3,12,32,03,226,26,29,07,189,28,05,02,090,01,138,38,213,45*43
2017-12-01 12:23:32 1512149012.301445: $GPZDA,172332.00,01,12,2017,00,00*66
2017-12-01 12:23:32 1512149012.301635: $GPGGA,172332,3946.9564,N,08404.9848,W,2,11,0.80,301.26,M,-33.324,M,,*70
2017-12-01 12:23:32 1512149012.301775: $GPRMC,172332,A,3946.9564,N,08404.9848,W,0.0000,0.000,011217,,*3E
2017-12-01 12:23:32 1512149012.301840: $GPGSA,A,3,10,13,15,18,20,21,24,27,32,29,138,,2.0,0.8,1.5*00
2017-12-01 12:23:32 1512149012.752610: $GPZDA,172333.00,01,12,2017,00,00*67
2017-12-01 12:23:32 1512149012.752784: $GPGGA,172333,3946.9564,N,08404.9848,W,2,11,0.80,301.26,M,-33.324,M,,*71
2017-12-01 12:23:32 1512149012.752867: $GPRMC,172333,A,3946.9564,N,08404.9848,W,0.0000,0.000,011217,,*3F
2017-12-01 12:23:32 1512149012.752931: $GPGSA,A,3,10,13,15,18,20,21,24,27,32,29,138,,2.0,0.8,1.5*00
2017-12-01 12:23:33 1512149013.377913: $GPZDA,172334.00,01,12,2017,00,00*60
2017-12-01 12:23:33 1512149013.378081: $GPGGA,172334,3946.9564,N,08404.9848,W,2,11,0.80,301.26,M,-33.324,M,,*76
2017-12-01 12:23:33 1512149013.378148: $GPRMC,172334,A,3946.9564,N,08404.9848,W,0.0000,0.000,011217,,*38
2017-12-01 12:23:33 1512149013.378209: $GPGSA,A,3,10,13,15,18,20,21,24,27,32,29,138,,2.0,0.8,1.5*00
2017-12-01 12:23:34 1512149014.664602: $GPGSV,3,1,12,10,25,285,40,13,26,045,45,15,58,051,47,18,56,303,45*76
2017-12-01 12:23:34 1512149014.664786: $GPGSV,3,2,12,20,49,075,46,21,79,252,42,24,36,136,48,27,17,310,38*7B
2017-12-01 12:23:34 1512149014.664852: $GPGSV,3,3,12,32,03,226,24,29,07,189,29,05,02,090,00,138,38,213,46*42
2017-12-01 12:23:34 1512149014.778038: $GPZDA,172335.00,01,12,2017,00,00*61
2017-12-01 12:23:34 1512149014.778196: $GPGGA,172335,3946.9564,N,08404.9848,W,2,11,0.80,301.26,M,-33.324,M,,*77
2017-12-01 12:23:34 1512149014.778261: $GPRMC,172335,A,3946.9564,N,08404.9848,W,0.0000,0.000,011217,,*39
2017-12-01 12:23:34 1512149014.778322: $GPGSA,A,3,10,13,15,18,20,21,24,27,32,29,138,,2.0,0.8,1.5*00
