2017-12-01 17:31:06 1512167466.956919: {"class":"VERSION","release":"3.16","rev":"3.16-4","proto_major":3,"proto_minor":11}
2017-12-01 17:31:06 1512167466.957422: {"class":"DEVICES","devices":[{"class":"DEVICE","path":"/dev/ttyUSB0","driver":"SiRF","subtype":"9\u0006GSD4e_4.1.2-P1_RPATCH.05-F-GPS-4R-1510281 11/03/2015 307","activated":"2017-12-01T22:31:06.562Z","flags":1,"native":1,"bps":4800,"parity":"N","stopbits":1,"cycle":1.00}]}
2017-12-01 17:31:06 1512167466.957544: {"class":"WATCH","enable":true,"json":false,"nmea":true,"raw":0,"scaled":false,"timing":false,"split24":false,"pps":false}
2017-12-01 17:31:07 1512167467.748614: $GPGSV,3,1,11,01,18,273,45,03,23,315,43,10,20,157,44,14,69,045,42*7B
2017-12-01 17:31:07 1512167467.748795: $GPGSV,3,2,11,22,41,301,47,25,35,055,42,26,28,177,42,31,79,294,46*73
2017-12-01 17:31:07 1512167467.748861: $GPGSV,3,3,11,32,53,082,46,12,06,031,04,138,38,213,45*75
2017-12-01 17:31:07 1512167467.862308: $GPZDA,223108.00,01,12,2017,00,00*6A
2017-12-01 17:31:07 1512167467.862468: $GPGGA,223108,3946.9754,N,08404.9814,W,2,10,1.00,293.33,M,-33.325,M,,*73
2017-12-01 17:31:07 1512167467.862534: $GPRMC,223108,A,3946.9754,N,08404.9814,W,0.0000,0.000,011217,,*3A
2017-12-01 17:31:07 1512167467.862595: $GPGSA,A,3,1,3,10,14,22,25,26,31,32,138,,,2.0,1.0,1.5*09
2017-12-01 17:31:08 1512167468.487644: $GPZDA,223109.00,01,12,2017,00,00*6B
2017-12-01 17:31:08 1512167468.487812: $GPGGA,223109,3946.9754,N,08404.9814,W,2,10,1.00,293.33,M,-33.325,M,,*72
2017-12-01 17:31:08 1512167468.487878: $GPRMC,223109,A,3946.9754,N,08404.9814,W,0.0000,0.000,011217,,*3B
2017-12-01 17:31:08 1512167468.487940: $GPGSA,A,3,1,3,10,14,22,25,26,31,32,138,,,2.0,1.0,1.5*09
2017-12-01 17:31:09 1512167469.410997: $GPZDA,223110.00,01,12,2017,00,00*63
2017-12-01 17:31:09 1512167469.411195: $GPGGA,223110,3946.9754,N,08404.9814,W,2,10,1.00,293.33,M,-33.325,M,,*7A
2017-12-01 17:31:09 1512167469.411291: $GPRMC,223110,A,3946.9754,N,08404.9814,W,0.0000,0.000,011217,,*33
2017-12-01 17:31:09 1512167469.411411: $GPGSA,A,3,1,3,10,14,22,25,26,31,32,138,,,2.0,1.0,1.5*09
2017-12-01 17:31:10 1512167470.748948: $GPGSV,3,1,11,01,18,273,45,03,23,315,44,10,20,157,44,14,69,045,42*7C
2017-12-01 17:31:10 1512167470.764951: $GPGSV,3,2,11,22,41,301,47,25,35,055,42,26,28,177,42,31,79,294,46*73
2017-12-01 17:31:10 1512167470.765074: $GPGSV,3,3,11,32,53,082,46,12,06,031,04,138,38,213,46*76
2017-12-01 17:31:10 1512167470.861421: $GPZDA,223111.00,01,12,2017,00,00*62
2017-12-01 17:31:10 1512167470.861573: $GPGGA,223111,3946.9754,N,08404.9814,W,2,10,1.00,293.33,M,-33.325,M,,*7B
2017-12-01 17:31:10 1512167470.861638: $GPRMC,223111,A,3946.9754,N,08404.9814,W,0.0000,0.000,011217,,*32
2017-12-01 17:31:10 1512167470.861699: $GPGSA,A,3,1,3,10,14,22,25,26,31,32,138,,,2.0,1.0,1.5*09
2017-12-01 17:31:11 1512167471.413614: $GPZDA,223112.00,01,12,2017,00,00*61
2017-12-01 17:31:11 1512167471.413785: $GPGGA,223112,3946.9754,N,08404.9814,W,2,10,1.00,293.33,M,-33.325,M,,*78
2017-12-01 17:31:11 1512167471.413852: $GPRMC,223112,A,3946.9754,N,08404.9814,W,0.0000,0.000,011217,,*31
2017-12-01 17:31:11 1512167471.413914: $GPGSA,A,3,1,3,10,14,22,25,26,31,32,138,,,2.0,1.0,1.5*09
2017-12-01 17:31:12 1512167472.412001: $GPZDA,223113.00,01,12,2017,00,00*60
2017-12-01 17:31:12 1512167472.412234: $GPGGA,223113,3946.9754,N,08404.9814,W,2,10,1.00,293.33,M,-33.325,M,,*79
2017-12-01 17:31:12 1512167472.412328: $GPRMC,223113,A,3946.9754,N,08404.9814,W,0.0000,0.000,011217,,*30
2017-12-01 17:31:12 1512167472.412388: $GPGSA,A,3,1,3,10,14,22,25,26,31,32,138,,,2.0,1.0,1.5*09
2017-12-01 17:31:13 1512167473.746819: $GPGSV,3,1,11,01,18,273,46,03,23,315,44,10,20,157,43,14,69,045,42*78
2017-12-01 17:31:13 1512167473.746996: $GPGSV,3,2,11,22,41,301,48,25,35,055,42,26,28,177,43,31,79,294,46*7D
2017-12-01 17:31:13 1512167473.747062: $GPGSV,3,3,11,32,53,082,46,12,06,031,08,138,38,213,46*7A
2017-12-01 17:31:13 1512167473.860464: $GPZDA,223114.00,01,12,2017,00,00*67
2017-12-01 17:31:13 1512167473.860632: $GPGGA,223114,3946.9754,N,08404.9814,W,2,11,1.00,293.33,M,-33.325,M,,*7F
2017-12-01 17:31:13 1512167473.860699: $GPRMC,223114,A,3946.9754,N,08404.9814,W,0.0000,0.000,011217,,*37
2017-12-01 17:31:13 1512167473.860799: $GPGSA,A,3,1,3,10,14,22,25,26,31,32,12,138,,2.0,1.0,1.5*0A
2017-12-01 17:31:14 1512167474.406360: $GPZDA,223115.00,01,12,2017,00,00*66
2017-12-01 17:31:14 1512167474.406534: $GPGGA,223115,3946.9754,N,08404.9814,W,2,11,0.80,293.33,M,-33.325,M,,*77
2017-12-01 17:31:14 1512167474.406602: $GPRMC,223115,A,3946.9754,N,08404.9814,W,0.0000,0.000,011217,,*36
2017-12-01 17:31:14 1512167474.406663: $GPGSA,A,3,1,3,10,14,22,25,26,31,32,12,138,,2.0,0.8,1.5*03
2017-12-01 17:31:15 1512167475.412264: $GPZDA,223116.00,01,12,2017,00,00*65
2017-12-01 17:31:15 1512167475.412437: $GPGGA,223116,3946.9754,N,08404.9814,W,2,11,0.80,293.33,M,-33.325,M,,*74
2017-12-01 17:31:15 1512167475.412504: $GPRMC,223116,A,3946.9754,N,08404.9814,W,0.0000,0.000,011217,,*35
2017-12-01 17:31:15 1512167475.412566: $GPGSA,A,3,1,3,10,14,22,25,26,31,32,12,138,,2.0,0.8,1.5*03
2017-12-01 17:31:16 1512167476.747672: $GPGSV,3,1,11,01,18,273,46,03,23,315,44,10,20,157,43,14,69,045,42*78
2017-12-01 17:31:16 1512167476.747853: $GPGSV,3,2,11,22,41,301,48,25,35,055,42,26,28,177,43,31,79,294,46*7D
2017-12-01 17:31:16 1512167476.747919: $GPGSV,3,3,11,32,53,082,46,12,06,031,14,138,38,213,45*74
2017-12-01 17:31:16 1512167476.861461: $GPZDA,223117.00,01,12,2017,00,00*64
2017-12-01 17:31:16 1512167476.861631: $GPGGA,223117,3946.9754,N,08404.9814,W,2,11,0.80,293.33,M,-33.325,M,,*75
2017-12-01 17:31:16 1512167476.861698: $GPRMC,223117,A,3946.9754,N,08404.9814,W,0.0000,0.000,011217,,*34
2017-12-01 17:31:16 1512167476.861759: $GPGSA,A,3,1,3,10,14,22,25,26,31,32,12,138,,2.0,0.8,1.5*03
2017-12-01 17:31:17 1512167477.410699: $GPZDA,223118.00,01,12,2017,00,00*6B
2017-12-01 17:31:17 1512167477.410875: $GPGGA,223118,3946.9754,N,08404.9814,W,2,11,0.80,293.33,M,-33.325,M,,*7A
2017-12-01 17:31:17 1512167477.410943: $GPRMC,223118,A,3946.9754,N,08404.9814,W,0.0000,0.000,011217,,*3B
2017-12-01 17:31:17 1512167477.411003: $GPGSA,A,3,1,3,10,14,22,25,26,31,32,12,138,,2.0,0.8,1.5*03
2017-12-01 17:31:18 1512167478.411053: $GPZDA,223119.00,01,12,2017,00,00*6A
2017-12-01 17:31:18 1512167478.411273: $GPGGA,223119,3946.9754,N,08404.9814,W,2,11,0.80,293.33,M,-33.325,M,,*7B
2017-12-01 17:31:18 1512167478.411341: $GPRMC,223119,A,3946.9754,N,08404.9814,W,0.0000,0.000,011217,,*3A
2017-12-01 17:31:18 1512167478.411538: $GPGSA,A,3,1,3,10,14,22,25,26,31,32,12,138,,2.0,0.8,1.5*03
2017-12-01 17:31:19 1512167479.749291: $GPGSV,3,1,11,01,18,273,46,03,23,315,44,10,20,157,43,14,69,045,43*79
2017-12-01 17:31:19 1512167479.749474: $GPGSV,3,2,11,22,41,301,47,25,35,055,41,26,28,177,43,31,79,294,46*71
2017-12-01 17:31:19 1512167479.749543: $GPGSV,3,3,11,32,53,082,46,12,06,031,17,138,38,213,46*74
2017-12-01 17:31:19 1512167479.862934: $GPZDA,223120.00,01,12,2017,00,00*60
2017-12-01 17:31:19 1512167479.863114: $GPGGA,223120,3946.9754,N,08404.9814,W,2,11,0.80,293.33,M,-33.325,M,,*71
2017-12-01 17:31:19 1512167479.863180: $GPRMC,223120,A,3946.9754,N,08404.9814,W,0.0000,0.000,011217,,*30
2017-12-01 17:31:19 1512167479.863246: $GPGSA,A,3,1,3,10,14,22,25,26,31,32,12,138,,2.0,0.8,1.5*03
2017-12-01 17:31:20 1512167480.406409: $GPZDA,223121.00,01,12,2017,00,00*61
2017-12-01 17:31:20 1512167480.406579: $GPGGA,223121,3946.9754,N,08404.9814,W,2,11,0.80,293.33,M,-33.325,M,,*70
2017-12-01 17:31:20 1512167480.406646: $GPRMC,223121,A,3946.9754,N,08404.9814,W,0.0000,0.000,011217,,*31
2017-12-01 17:31:20 1512167480.406707: $GPGSA,A,3,1,3,10,14,22,25,26,31,32,12,138,,2.0,0.8,1.5*03
2017-12-01 17:31:21 1512167481.409832: $GPZDA,223122.00,01,12,2017,00,00*62
2017-12-01 17:31:21 1512167481.410004: $GPGGA,223122,3946.9754,N,08404.9814,W,2,11,0.80,293.33,M,-33.325,M,,*73
2017-12-01 17:31:21 1512167481.410096: $GPRMC,223122,A,3946.9754,N,08404.9814,W,0.0000,0.000,011217,,*32
2017-12-01 17:31:21 1512167481.410160: $GPGSA,A,3,1,3,10,14,22,25,26,31,32,12,138,,2.0,0.8,1.5*03
2017-12-01 17:31:22 1512167482.746396: $GPGSV,3,1,11,01,18,273,46,03,23,315,44,10,20,157,42,14,69,045,43*78
2017-12-01 17:31:22 1512167482.746626: $GPGSV,3,2,11,22,41,301,48,25,35,055,41,26,28,177,43,31,79,294,47*7F
2017-12-01 17:31:22 1512167482.746695: $GPGSV,3,3,11,32,53,082,46,12,06,031,22,138,38,213,46*72
2017-12-01 17:31:22 1512167482.860016: $GPZDA,223123.00,01,12,2017,00,00*63
2017-12-01 17:31:22 1512167482.860174: $GPGGA,223123,3946.9754,N,08404.9814,W,2,11,0.80,293.33,M,-33.325,M,,*72
2017-12-01 17:31:22 1512167482.860257: $GPRMC,223123,A,3946.9754,N,08404.9814,W,0.0000,0.000,011217,,*33
2017-12-01 17:31:22 1512167482.860319: $GPGSA,A,3,1,3,10,14,22,25,26,31,32,12,138,,2.0,0.8,1.5*03
2017-12-01 17:31:23 1512167483.485158: $GPZDA,223124.00,01,12,2017,00,00*64
2017-12-01 17:31:23 1512167483.485357: $GPGGA,223124,3946.9754,N,08404.9814,W,2,11,0.80,293.33,M,-33.325,M,,*75
2017-12-01 17:31:23 1512167483.485424: $GPRMC,223124,A,3946.9754,N,08404.9814,W,0.0000,0.000,011217,,*34
2017-12-01 17:31:23 1512167483.485530: $GPGSA,A,3,1,3,10,14,22,25,26,31,32,12,138,,2.0,0.8,1.5*03
2017-12-01 17:31:24 1512167484.412329: $GPZDA,223125.00,01,12,2017,00,00*65
2017-12-01 17:31:24 1512167484.412502: $GPGGA,223125,3946.9754,N,08404.9814,W,2,11,0.80,293.33,M,-33.325,M,,*74
2017-12-01 17:31:24 1512167484.412570: $GPRMC,223125,A,3946.9754,N,08404.9814,W,0.0000,0.000,011217,,*35
2017-12-01 17:31:24 1512167484.412632: $GPGSA,A,3,1,3,10,14,22,25,26,31,32,12,138,,2.0,0.8,1.5*03
2017-12-01 17:31:25 1512167485.741832: $GPGSV,3,1,11,01,18,273,46,03,23,315,43,10,20,157,42,14,69,045,43*7F
2017-12-01 17:31:25 1512167485.742015: $GPGSV,3,2,11,22,41,301,48,25,35,055,41,26,28,177,43,31,79,294,47*7F
2017-12-01 17:31:25 1512167485.742104: $GPGSV,3,3,11,32,53,082,46,12,06,031,24,138,38,213,46*74
2017-12-01 17:31:25 1512167485.855144: $GPZDA,223126.00,01,12,2017,00,00*66
2017-12-01 17:31:25 1512167485.855342: $GPGGA,223126,3946.9754,N,08404.9814,W,2,11,0.80,293.33,M,-33.325,M,,*77
2017-12-01 17:31:25 1512167485.855409: $GPRMC,223126,A,3946.9754,N,08404.9814,W,0.0000,0.000,011217,,*36
2017-12-01 17:31:25 1512167485.855469: $GPGSA,A,3,1,3,10,14,22,25,26,31,32,12,138,,2.0,0.8,1.5*03
2017-12-01 17:31:26 1512167486.431025: $GPZDA,223127.00,01,12,2017,00,00*67
2017-12-01 17:31:26 1512167486.431240: $GPGGA,223127,3946.9754,N,08404.9814,W,2,11,0.80,293.33,M,-33.325,M,,*76
2017-12-01 17:31:26 1512167486.431309: $GPRMC,223127,A,3946.9754,N,08404.9814,W,0.0000,0.000,011217,,*37
2017-12-01 17:31:26 1512167486.431430: $GPGSA,A,3,1,3,10,14,22,25,26,31,32,12,138,,2.0,0.8,1.5*03
