2017-12-01 11:35:10 1512146110.007568: {"class":"VERSION","release":"3.16","rev":"3.16-4","proto_major":3,"proto_minor":11}
2017-12-01 11:35:10 1512146110.007959: {"class":"DEVICES","devices":[{"class":"DEVICE","path":"/dev/ttyUSB0","driver":"SiRF","subtype":"9\u0006GSD4e_4.1.2-P1_RPATCH.05-F-GPS-4R-1510281 11/03/2015 307","activated":"2017-12-01T16:35:09.986Z","flags":1,"native":1,"bps":4800,"parity":"N","stopbits":1,"cycle":1.00}]}
2017-12-01 11:35:10 1512146110.008073: {"class":"WATCH","enable":true,"json":false,"nmea":true,"raw":0,"scaled":false,"timing":false,"split24":false,"pps":false}
2017-12-01 11:35:10 1512146110.248082: $GPZDA,163511.00,01,12,2017,00,00*61
2017-12-01 11:35:10 1512146110.248253: $GPGGA,163511,3946.9535,N,08404.9827,W,2,11,0.80,309.10,M,-33.324,M,,*77
2017-12-01 11:35:10 1512146110.248320: $GPRMC,163511,A,3946.9535,N,08404.9827,W,0.0000,0.000,011217,,*34
2017-12-01 11:35:10 1512146110.248382: $GPGSA,A,3,5,13,15,18,20,21,24,27,29,10,138,,2.0,0.8,1.5*34
2017-12-01 11:35:11 1512146111.253166: $GPZDA,163512.00,01,12,2017,00,00*62
2017-12-01 11:35:11 1512146111.253336: $GPGGA,163512,3946.9535,N,08404.9827,W,2,11,0.80,309.10,M,-33.324,M,,*74
2017-12-01 11:35:11 1512146111.253403: $GPRMC,163512,A,3946.9535,N,08404.9827,W,0.0000,0.000,011217,,*37
2017-12-01 11:35:11 1512146111.253464: $GPGSA,A,3,5,13,15,18,20,21,24,27,29,10,138,,2.0,0.8,1.5*34
2017-12-01 11:35:12 1512146112.584286: $GPGSV,3,1,12,05,16,075,38,13,46,052,46,15,78,087,48,18,41,282,46*78
2017-12-01 11:35:12 1512146112.584471: $GPGSV,3,2,12,20,65,043,42,21,63,307,47,24,17,150,42,27,06,327,34*7A
2017-12-01 11:35:12 1512146112.584537: $GPGSV,3,3,12,29,28,196,44,10,10,270,28,04,15,129,00,138,38,213,46*43
2017-12-01 11:35:12 1512146112.697914: $GPZDA,163513.00,01,12,2017,00,00*63
2017-12-01 11:35:12 1512146112.698084: $GPGGA,163513,3946.9535,N,08404.9827,W,2,11,0.80,309.10,M,-33.324,M,,*75
2017-12-01 11:35:12 1512146112.698150: $GPRMC,163513,A,3946.9535,N,08404.9827,W,0.0000,0.000,011217,,*36
2017-12-01 11:35:12 1512146112.698211: $GPGSA,A,3,5,13,15,18,20,21,24,27,29,10,138,,2.0,0.8,1.5*34
2017-12-01 11:35:13 1512146113.249348: $GPZDA,163514.00,01,12,2017,00,00*64
2017-12-01 11:35:13 1512146113.249519: $GPGGA,163514,3946.9535,N,08404.9827,W,2,11,0.80,309.10,M,-33.324,M,,*72
2017-12-01 11:35:13 1512146113.249587: $GPRMC,163514,A,3946.9535,N,08404.9827,W,0.0000,0.000,011217,,*31
2017-12-01 11:35:13 1512146113.249648: $GPGSA,A,3,5,13,15,18,20,21,24,27,29,10,138,,2.0,0.8,1.5*34
2017-12-01 11:35:14 1512146114.248101: $GPZDA,163515.00,01,12,2017,00,00*65
2017-12-01 11:35:14 1512146114.248269: $GPGGA,163515,3946.9532,N,08404.9828,W,2,11,0.80,309.86,M,-33.324,M,,*74
2017-12-01 11:35:14 1512146114.248335: $GPRMC,163515,A,3946.9532,N,08404.9828,W,0.0000,0.000,011217,,*38
2017-12-01 11:35:14 1512146114.248396: $GPGSA,A,3,5,13,15,18,20,21,24,27,29,10,138,,2.0,0.8,1.5*34
2017-12-01 11:35:14 1512146114.248455: $GPGBS,163515,2.67,M,3.86,M,8.82,M*37
2017-12-01 11:35:15 1512146115.584768: $GPGSV,3,1,11,05,16,075,38,13,46,052,46,15,78,087,48,18,41,282,46*7B
2017-12-01 11:35:15 1512146115.584956: $GPGSV,3,2,11,20,65,043,42,21,63,307,47,24,17,150,42,27,06,327,27*7B
2017-12-01 11:35:15 1512146115.585025: $GPGSV,3,3,11,29,28,196,45,10,10,270,29,138,38,213,46*7A
2017-12-01 11:35:15 1512146115.698103: $GPZDA,163516.00,01,12,2017,00,00*66
2017-12-01 11:35:15 1512146115.698282: $GPGGA,163516,3946.9532,N,08404.9828,W,2,11,0.80,309.86,M,-33.324,M,,*77
2017-12-01 11:35:15 1512146115.698350: $GPRMC,163516,A,3946.9532,N,08404.9828,W,0.0000,0.000,011217,,*3B
2017-12-01 11:35:15 1512146115.698411: $GPGSA,A,3,5,13,15,18,20,21,24,27,29,10,138,,2.0,0.8,1.5*34
2017-12-01 11:35:16 1512146116.246954: $GPZDA,163517.00,01,12,2017,00,00*67
2017-12-01 11:35:16 1512146116.247110: $GPGGA,163517,3946.9532,N,08404.9828,W,2,11,0.80,309.86,M,-33.324,M,,*76
2017-12-01 11:35:16 1512146116.247176: $GPRMC,163517,A,3946.9532,N,08404.9828,W,0.0000,0.000,011217,,*3A
2017-12-01 11:35:16 1512146116.247237: $GPGSA,A,3,5,13,15,18,20,21,24,27,29,10,138,,2.0,0.8,1.5*34
2017-12-01 11:35:17 1512146117.248335: $GPZDA,163518.00,01,12,2017,00,00*68
2017-12-01 11:35:17 1512146117.248569: $GPGGA,163518,3946.9532,N,08404.9828,W,2,11,0.80,309.86,M,-33.324,M,,*79
2017-12-01 11:35:17 1512146117.248639: $GPRMC,163518,A,3946.9532,N,08404.9828,W,0.0000,0.000,011217,,*35
2017-12-01 11:35:17 1512146117.248701: $GPGSA,A,3,5,13,15,18,20,21,24,27,29,10,138,,2.0,0.8,1.5*34
2017-12-01 11:35:18 1512146118.582072: $GPGSV,3,1,11,05,16,075,38,13,46,052,46,15,78,087,49,18,41,282,45*79
2017-12-01 11:35:18 1512146118.582257: $GPGSV,3,2,11,20,65,043,42,21,63,307,46,24,17,150,42,27,06,327,26*7B
2017-12-01 11:35:18 1512146118.582324: $GPGSV,3,3,11,29,28,196,45,10,10,270,23,138,38,213,47*71
2017-12-01 11:35:18 1512146118.695435: $GPZDA,163519.00,01,12,2017,00,00*69
2017-12-01 11:35:18 1512146118.695606: $GPGGA,163519,3946.9539,N,08404.9833,W,2,11,0.80,306.85,M,-33.324,M,,*75
2017-12-01 11:35:18 1512146118.695671: $GPRMC,163519,A,3946.9539,N,08404.9833,W,0.0000,0.000,011217,,*35
2017-12-01 11:35:18 1512146118.695732: $GPGSA,A,3,5,13,15,18,20,21,24,27,29,10,138,,2.0,0.8,1.5*34
2017-12-01 11:35:19 1512146119.246809: $GPZDA,163520.00,01,12,2017,00,00*63
2017-12-01 11:35:19 1512146119.246990: $GPGGA,163520,3946.9539,N,08404.9833,W,2,11,0.80,306.85,M,-33.324,M,,*7F
2017-12-01 11:35:19 1512146119.247082: $GPRMC,163520,A,3946.9539,N,08404.9833,W,0.0000,0.000,011217,,*3F
2017-12-01 11:35:19 1512146119.247145: $GPGSA,A,3,5,13,15,18,20,21,24,27,29,10,138,,2.0,0.8,1.5*34
