2017-12-01 13:13:18 1512151998.377401: {"class":"VERSION","release":"3.16","rev":"3.16-4","proto_major":3,"proto_minor":11}
2017-12-01 13:13:18 1512151998.377794: {"class":"DEVICES","devices":[{"class":"DEVICE","path":"/dev/ttyUSB0","driver":"SiRF","subtype":"9\u0006GSD4e_4.1.2-P1_RPATCH.05-F-GPS-4R-1510281 11/03/2015 307","activated":"2017-12-01T18:13:18.253Z","flags":1,"native":1,"bps":4800,"parity":"N","stopbits":1,"cycle":1.00}]}
2017-12-01 13:13:18 1512151998.378154: {"class":"WATCH","enable":true,"json":false,"nmea":true,"raw":0,"scaled":false,"timing":false,"split24":false,"pps":false}
2017-12-01 13:13:18 1512151998.702932: $GPGSV,3,1,12,08,06,322,40,10,42,301,45,15,37,052,48,18,71,337,43*71
2017-12-01 13:13:18 1512151998.703149: $GPGSV,3,2,12,20,33,096,47,21,63,189,45,24,51,109,47,27,19,289,38*7E
2017-12-01 13:13:18 1512151998.703217: $GPGSV,3,3,12,32,21,238,43,14,04,232,16,13,07,048,10,138,38,213,46*48
2017-12-01 13:13:18 1512151998.816579: $GPZDA,181319.00,01,12,2017,00,00*63
2017-12-01 13:13:18 1512151998.816744: $GPGGA,181319,3946.9559,N,08404.9855,W,2,10,1.00,299.14,M,-33.324,M,,*7E
2017-12-01 13:13:18 1512151998.816812: $GPRMC,181319,A,3946.9559,N,08404.9855,W,0.0000,0.000,011217,,*39
2017-12-01 13:13:18 1512151998.816874: $GPGSA,A,3,8,10,15,18,20,21,24,27,32,138,,,2.0,1.0,1.5*38
2017-12-01 13:13:19 1512151999.386136: $GPZDA,181320.00,01,12,2017,00,00*69
2017-12-01 13:13:19 1512151999.386363: $GPGGA,181320,3946.9559,N,08404.9855,W,2,10,0.80,299.14,M,-33.324,M,,*7D
2017-12-01 13:13:19 1512151999.386432: $GPRMC,181320,A,3946.9559,N,08404.9855,W,0.0000,0.000,011217,,*33
2017-12-01 13:13:19 1512151999.386494: $GPGSA,A,3,8,10,15,18,20,21,24,27,32,138,,,2.0,0.8,1.5*31
2017-12-01 13:13:20 1512152000.390582: $GPZDA,181321.00,01,12,2017,00,00*68
2017-12-01 13:13:20 1512152000.390762: $GPGGA,181321,3946.9559,N,08404.9855,W,2,10,0.80,299.14,M,-33.324,M,,*7C
2017-12-01 13:13:20 1512152000.390831: $GPRMC,181321,A,3946.9559,N,08404.9855,W,0.0000,0.000,011217,,*32
2017-12-01 13:13:20 1512152000.390893: $GPGSA,A,3,8,10,15,18,20,21,24,27,32,138,,,2.0,0.8,1.5*31
2017-12-01 13:13:21 1512152001.708796: $GPGSV,3,1,12,08,06,322,41,10,42,301,44,15,37,052,48,18,71,337,43*71
2017-12-01 13:13:21 1512152001.708991: $GPGSV,3,2,12,20,33,096,47,21,63,189,45,24,51,109,47,27,19,289,38*7E
2017-12-01 13:13:21 1512152001.709057: $GPGSV,3,3,12,32,21,238,43,14,04,232,15,13,07,048,17,138,38,213,46*4C
2017-12-01 13:13:21 1512152001.822484: $GPZDA,181322.00,01,12,2017,00,00*6B
2017-12-01 13:13:21 1512152001.822653: $GPGGA,181322,3946.9556,N,08404.9855,W,2,12,0.80,299.90,M,-33.324,M,,*7E
2017-12-01 13:13:21 1512152001.822721: $GPRMC,181322,A,3946.9556,N,08404.9855,W,0.0000,0.000,011217,,*3E
2017-12-01 13:13:21 1512152001.822782: $GPGSA,A,3,8,10,15,18,20,21,24,27,32,14,13,138,2.0,0.8,1.5*36
2017-12-01 13:13:22 1512152002.447595: $GPZDA,181323.00,01,12,2017,00,00*6A
2017-12-01 13:13:22 1512152002.447770: $GPGGA,181323,3946.9560,N,08404.9855,W,2,12,0.80,300.54,M,-33.324,M,,*73
2017-12-01 13:13:22 1512152002.447839: $GPRMC,181323,A,3946.9560,N,08404.9855,W,0.0000,0.000,011217,,*3A
2017-12-01 13:13:22 1512152002.447901: $GPGSA,A,3,8,10,15,18,20,21,24,27,32,14,13,138,2.0,0.8,1.5*36
2017-12-01 13:13:23 1512152003.389948: $GPZDA,181324.00,01,12,2017,00,00*6D
2017-12-01 13:13:23 1512152003.394114: $GPGGA,181324,3946.9560,N,08404.9855,W,2,12,0.80,300.54,M,-33.324,M,,*74
2017-12-01 13:13:23 1512152003.394253: $GPRMC,181324,A,3946.9560,N,08404.9855,W,0.0000,0.000,011217,,*3D
2017-12-01 13:13:23 1512152003.394336: $GPGSA,A,3,8,10,15,18,20,21,24,27,32,14,13,138,2.0,0.8,1.5*36
2017-12-01 13:13:24 1512152004.704185: $GPGSV,3,1,12,08,06,322,40,10,42,301,44,15,37,052,47,18,71,337,43*7F
2017-12-01 13:13:24 1512152004.704383: $GPGSV,3,2,12,20,33,096,47,21,63,189,45,24,51,109,47,27,19,289,38*7E
2017-12-01 13:13:24 1512152004.704450: $GPGSV,3,3,12,32,21,238,42,14,04,232,14,13,07,048,18,138,38,213,46*43
2017-12-01 13:13:24 1512152004.817506: $GPZDA,181325.00,01,12,2017,00,00*6C
2017-12-01 13:13:24 1512152004.817646: $GPGGA,181325,3946.9560,N,08404.9855,W,2,12,0.80,300.54,M,-33.324,M,,*75
2017-12-01 13:13:24 1512152004.817767: $GPRMC,181325,A,3946.9560,N,08404.9855,W,0.0000,0.000,011217,,*3C
2017-12-01 13:13:24 1512152004.817831: $GPGSA,A,3,8,10,15,18,20,21,24,27,32,14,13,138,2.0,0.8,1.5*36
2017-12-01 13:13:25 1512152005.391503: $GPZDA,181326.00,01,12,2017,00,00*6F
2017-12-01 13:13:25 1512152005.391679: $GPGGA,181326,3946.9560,N,08404.9855,W,2,12,0.80,300.54,M,-33.324,M,,*76
2017-12-01 13:13:25 1512152005.391771: $GPRMC,181326,A,3946.9560,N,08404.9855,W,0.0000,0.000,011217,,*3F
2017-12-01 13:13:25 1512152005.391862: $GPGSA,A,3,8,10,15,18,20,21,24,27,32,14,13,138,2.0,0.8,1.5*36
2017-12-01 13:13:26 1512152006.373308: $GPZDA,181327.00,01,12,2017,00,00*6E
2017-12-01 13:13:26 1512152006.373494: $GPGGA,181327,3946.9560,N,08404.9855,W,2,12,0.80,300.54,M,-33.324,M,,*77
2017-12-01 13:13:26 1512152006.373560: $GPRMC,181327,A,3946.9560,N,08404.9855,W,0.0000,0.000,011217,,*3E
2017-12-01 13:13:26 1512152006.373621: $GPGSA,A,3,8,10,15,18,20,21,24,27,32,14,13,138,2.0,0.8,1.5*36
2017-12-01 13:13:27 1512152007.709511: $GPGSV,3,1,12,08,06,322,40,10,42,301,44,15,37,052,48,18,71,337,43*70
2017-12-01 13:13:27 1512152007.709686: $GPGSV,3,2,12,20,33,096,47,21,63,189,45,24,51,109,47,27,19,289,38*7E
2017-12-01 13:13:27 1512152007.709754: $GPGSV,3,3,12,32,21,238,42,14,04,232,14,13,07,048,18,138,38,213,46*43
2017-12-01 13:13:27 1512152007.823116: $GPZDA,181328.00,01,12,2017,00,00*61
2017-12-01 13:13:27 1512152007.823278: $GPGGA,181328,3946.9560,N,08404.9855,W,2,12,0.80,300.54,M,-33.324,M,,*78
2017-12-01 13:13:27 1512152007.823361: $GPRMC,181328,A,3946.9560,N,08404.9855,W,0.0000,0.000,011217,,*31
2017-12-01 13:13:27 1512152007.823423: $GPGSA,A,3,8,10,15,18,20,21,24,27,32,14,13,138,2.0,0.8,1.5*36
