2017-12-29 14:49:15 1514576955.023337: {"class":"VERSION","release":"3.16","rev":"3.16-4","proto_major":3,"proto_minor":11}
2017-12-29 14:49:15 1514576955.023748: {"class":"DEVICES","devices":[{"class":"DEVICE","path":"/dev/ttyUSB0","driver":"SiRF","subtype":"9\u0006GSD4e_4.1.2-P1_RPATCH.05-F-GPS-4R-1510281 11/03/2015 307","activated":"2017-12-29T19:49:14.960Z","flags":1,"native":1,"bps":4800,"parity":"N","stopbits":1,"cycle":1.00}]}
2017-12-29 14:49:15 1514576955.023866: {"class":"WATCH","enable":true,"json":false,"nmea":true,"raw":0,"scaled":false,"timing":false,"split24":false,"pps":false}
2017-12-29 14:49:15 1514576955.425303: $GPZDA,194916.00,29,12,2017,00,00*68
2017-12-29 14:49:15 1514576955.425490: $GPGGA,194916,3946.9594,N,08404.9762,W,2,12,0.80,302.35,M,-33.324,M,,*7E
2017-12-29 14:49:15 1514576955.425558: $GPRMC,194916,A,3946.9594,N,08404.9762,W,0.0000,0.000,291217,,*38
2017-12-29 14:49:15 1514576955.425621: $GPGSA,A,3,1,10,11,12,14,18,22,25,31,32,26,138,1.7,0.8,1.3*3B
2017-12-29 14:49:16 1514576956.351198: $GPZDA,194917.00,29,12,2017,00,00*69
2017-12-29 14:49:16 1514576956.351371: $GPGGA,194917,3946.9594,N,08404.9762,W,2,12,0.80,302.35,M,-33.324,M,,*7F
2017-12-29 14:49:16 1514576956.351442: $GPRMC,194917,A,3946.9594,N,08404.9762,W,0.0000,0.000,291217,,*39
2017-12-29 14:49:16 1514576956.351508: $GPGSA,A,3,1,10,11,12,14,18,22,25,31,32,26,138,1.7,0.8,1.3*3B
2017-12-29 14:49:17 1514576957.685607: $GPGSV,3,1,12,01,22,295,40,10,41,151,49,11,06,277,35,12,19,045,46*75
2017-12-29 14:49:17 1514576957.685761: $GPGSV,3,2,12,14,68,340,42,18,12,145,36,22,24,312,39,25,41,082,51*7E
2017-12-29 14:49:17 1514576957.685827: $GPGSV,3,3,12,31,64,231,46,32,66,045,51,26,08,181,28,138,38,213,43*44
2017-12-29 14:49:17 1514576957.798972: $GPZDA,194918.00,29,12,2017,00,00*66
2017-12-29 14:49:17 1514576957.799098: $GPGGA,194918,3946.9594,N,08404.9762,W,2,12,0.80,302.35,M,-33.324,M,,*70
2017-12-29 14:49:17 1514576957.799162: $GPRMC,194918,A,3946.9594,N,08404.9762,W,0.0000,0.000,291217,,*36
2017-12-29 14:49:17 1514576957.799225: $GPGSA,A,3,1,10,11,12,14,18,22,25,31,32,26,138,1.7,0.8,1.3*3B
2017-12-29 14:49:18 1514576958.343622: $GPZDA,194919.00,29,12,2017,00,00*67
2017-12-29 14:49:18 1514576958.343789: $GPGGA,194919,3946.9594,N,08404.9762,W,2,12,0.80,302.35,M,-33.324,M,,*71
2017-12-29 14:49:18 1514576958.343860: $GPRMC,194919,A,3946.9594,N,08404.9762,W,0.0000,0.000,291217,,*37
2017-12-29 14:49:18 1514576958.343921: $GPGSA,A,3,1,10,11,12,14,18,22,25,31,32,26,138,1.7,0.8,1.3*3B
2017-12-29 14:49:19 1514576959.353301: $GPZDA,194920.00,29,12,2017,00,00*6D
2017-12-29 14:49:19 1514576959.353495: $GPGGA,194920,3946.9594,N,08404.9762,W,2,12,0.80,302.35,M,-33.324,M,,*7B
2017-12-29 14:49:19 1514576959.353564: $GPRMC,194920,A,3946.9594,N,08404.9762,W,0.0000,0.000,291217,,*3D
2017-12-29 14:49:19 1514576959.353628: $GPGSA,A,3,1,10,11,12,14,18,22,25,31,32,26,138,1.7,0.8,1.3*3B
2017-12-29 14:49:20 1514576960.687200: $GPGSV,3,1,12,01,22,295,40,10,41,151,49,11,06,277,35,12,19,045,46*75
2017-12-29 14:49:20 1514576960.687378: $GPGSV,3,2,12,14,68,340,42,18,12,145,36,22,24,312,38,25,41,082,51*7F
2017-12-29 14:49:20 1514576960.687449: $GPGSV,3,3,12,31,64,231,46,32,66,045,51,26,08,181,28,138,38,213,42*45
2017-12-29 14:49:20 1514576960.800804: $GPZDA,194921.00,29,12,2017,00,00*6C
2017-12-29 14:49:20 1514576960.800932: $GPGGA,194921,3946.9594,N,08404.9762,W,2,12,0.80,302.35,M,-33.324,M,,*7A
2017-12-29 14:49:20 1514576960.800998: $GPRMC,194921,A,3946.9594,N,08404.9762,W,0.0000,0.000,291217,,*3C
2017-12-29 14:49:20 1514576960.801126: $GPGSA,A,3,1,10,11,12,14,18,22,25,31,32,26,138,1.7,0.8,1.3*3B
2017-12-29 14:49:21 1514576961.350469: $GPZDA,194922.00,29,12,2017,00,00*6F
2017-12-29 14:49:21 1514576961.350626: $GPGGA,194922,3946.9594,N,08404.9762,W,2,12,0.80,302.35,M,-33.324,M,,*79
2017-12-29 14:49:21 1514576961.350693: $GPRMC,194922,A,3946.9594,N,08404.9762,W,0.0000,0.000,291217,,*3F
2017-12-29 14:49:21 1514576961.350753: $GPGSA,A,3,1,10,11,12,14,18,22,25,31,32,26,138,1.7,0.8,1.3*3B
2017-12-29 14:49:22 1514576962.350063: $GPZDA,194923.00,29,12,2017,00,00*6E
2017-12-29 14:49:22 1514576962.350284: $GPGGA,194923,3946.9594,N,08404.9762,W,2,12,0.80,302.35,M,-33.324,M,,*78
2017-12-29 14:49:22 1514576962.350357: $GPRMC,194923,A,3946.9594,N,08404.9762,W,0.0000,0.000,291217,,*3E
2017-12-29 14:49:22 1514576962.350420: $GPGSA,A,3,1,10,11,12,14,18,22,25,31,32,26,138,1.7,0.8,1.3*3B
2017-12-29 14:49:23 1514576963.725536: $GPGSV,3,1,12,01,22,295,40,10,41,151,49,11,06,277,35,12,19,045,46*75
2017-12-29 14:49:23 1514576963.725704: $GPGSV,3,2,12,14,68,340,42,18,12,145,36,22,24,312,38,25,41,082,51*7F
2017-12-29 14:49:23 1514576963.725770: $GPGSV,3,3,12,31,64,231,46,32,66,045,51,26,08,181,28,138,38,213,43*44
2017-12-29 14:49:23 1514576963.839187: $GPZDA,194924.00,29,12,2017,00,00*69
2017-12-29 14:49:23 1514576963.839328: $GPGGA,194924,3946.9598,N,08404.9762,W,2,12,0.80,302.99,M,-33.324,M,,*75
2017-12-29 14:49:23 1514576963.839394: $GPRMC,194924,A,3946.9598,N,08404.9762,W,0.0000,0.000,291217,,*35
2017-12-29 14:49:23 1514576963.839459: $GPGSA,A,3,1,10,11,12,14,18,22,25,31,32,26,138,1.7,0.8,1.3*3B
2017-12-29 14:49:24 1514576964.351352: $GPZDA,194925.00,29,12,2017,00,00*68
2017-12-29 14:49:24 1514576964.351566: $GPGGA,194925,3946.9598,N,08404.9762,W,2,12,0.80,302.99,M,-33.324,M,,*74
2017-12-29 14:49:24 1514576964.351655: $GPRMC,194925,A,3946.9598,N,08404.9762,W,0.0000,0.000,291217,,*34
2017-12-29 14:49:24 1514576964.351719: $GPGSA,A,3,1,10,11,12,14,18,22,25,31,32,26,138,1.7,0.8,1.3*3B
