2017-12-31 17:50:11 1514760611.709567: {"class":"VERSION","release":"3.16","rev":"3.16-4","proto_major":3,"proto_minor":11}
2017-12-31 17:50:11 1514760611.709966: {"class":"DEVICES","devices":[{"class":"DEVICE","path":"/dev/ttyUSB0","driver":"SiRF","activated":"2017-12-31T22:50:11.487Z","flags":1,"native":1,"bps":4800,"parity":"N","stopbits":1,"cycle":1.00}]}
2017-12-31 17:50:11 1514760611.710066: {"class":"WATCH","enable":true,"json":false,"nmea":true,"raw":0,"scaled":false,"timing":false,"split24":false,"pps":false}
2017-12-31 17:50:12 1514760612.675210: $GPGSV,3,1,12,22,29,220,44,23,46,309,45,09,13,312,37,03,38,243,44*79
2017-12-31 17:50:12 1514760612.675382: $GPGSV,3,2,12,16,70,192,43,29,09,036,38,14,22,129,29,31,34,067,42*7C
2017-12-31 17:50:12 1514760612.675447: $GPGSV,3,3,12,27,14,157,28,32,02,133,00,26,70,060,46,135,22,240,43*40
2017-12-31 17:50:12 1514760612.788956: $GPZDA,225013.00,31,12,2017,00,00*64
2017-12-31 17:50:12 1514760612.789094: $GPGGA,225013,3946.9570,N,08404.9864,W,2,11,0.60,304.55,M,-33.324,M,,*75
2017-12-31 17:50:12 1514760612.789159: $GPRMC,225013,A,3946.9570,N,08404.9864,W,0.0000,0.000,311217,,*37
2017-12-31 17:50:12 1514760612.789220: $GPGSA,A,3,22,23,9,3,16,29,14,31,27,26,135,,1.7,0.6,1.3*06
2017-12-31 17:50:13 1514760613.542226: $GPZDA,225014.00,31,12,2017,00,00*63
2017-12-31 17:50:13 1514760613.542391: $GPGGA,225014,3946.9567,N,08404.9864,W,2,11,0.60,305.31,M,-33.324,M,,*77
2017-12-31 17:50:13 1514760613.542457: $GPRMC,225014,A,3946.9567,N,08404.9864,W,0.0000,0.000,311217,,*36
2017-12-31 17:50:13 1514760613.542518: $GPGSA,A,3,22,23,9,3,16,29,14,31,27,26,135,,1.7,0.6,1.3*06
2017-12-31 17:50:13 1514760613.542576: $GPGBS,225014,2.22,M,3.43,M,7.66,M*3F
2017-12-31 17:50:14 1514760614.345557: $GPZDA,225015.00,31,12,2017,00,00*62
2017-12-31 17:50:14 1514760614.345761: $GPGGA,225015,3946.9567,N,08404.9864,W,2,11,0.60,305.31,M,-33.324,M,,*76
2017-12-31 17:50:14 1514760614.345829: $GPRMC,225015,A,3946.9567,N,08404.9864,W,0.0000,0.000,311217,,*37
2017-12-31 17:50:14 1514760614.345890: $GPGSA,A,3,22,23,9,3,16,29,14,31,27,26,135,,1.7,0.6,1.3*06
2017-12-31 17:50:14 1514760614.345948: $GPGBS,225015,2.22,M,3.43,M,7.66,M*3E
2017-12-31 17:50:15 1514760615.706783: $GPGSV,3,1,12,22,29,220,44,23,46,309,45,09,13,312,37,03,38,243,44*79
2017-12-31 17:50:15 1514760615.724628: $GPGSV,3,2,12,16,71,192,42,29,09,036,37,14,22,129,28,31,34,069,42*7C
2017-12-31 17:50:15 1514760615.724829: $GPGSV,3,3,12,27,15,157,24,32,02,133,00,26,70,060,46,135,22,240,43*4D
2017-12-31 17:50:15 1514760615.820409: $GPZDA,225016.00,31,12,2017,00,00*61
2017-12-31 17:50:15 1514760615.820568: $GPGGA,225016,3946.9567,N,08404.9864,W,2,11,0.60,305.31,M,-33.324,M,,*75
2017-12-31 17:50:15 1514760615.820657: $GPRMC,225016,A,3946.9567,N,08404.9864,W,0.0000,0.000,311217,,*34
2017-12-31 17:50:15 1514760615.820735: $GPGSA,A,3,22,23,9,3,16,29,14,31,27,26,135,,1.7,0.6,1.3*06
2017-12-31 17:50:16 1514760616.346294: $GPZDA,225017.00,31,12,2017,00,00*60
2017-12-31 17:50:16 1514760616.346458: $GPGGA,225017,3946.9567,N,08404.9864,W,2,11,0.60,305.31,M,-33.324,M,,*74
2017-12-31 17:50:16 1514760616.346524: $GPRMC,225017,A,3946.9567,N,08404.9864,W,0.0000,0.000,311217,,*35
2017-12-31 17:50:16 1514760616.346610: $GPGSA,A,3,22,23,9,3,16,29,14,31,27,26,135,,1.7,0.6,1.3*06
2017-12-31 17:50:17 1514760617.347194: $GPZDA,225018.00,31,12,2017,00,00*6F
2017-12-31 17:50:17 1514760617.347356: $GPGGA,225018,3946.9567,N,08404.9864,W,2,11,0.60,305.31,M,-33.324,M,,*7B
2017-12-31 17:50:17 1514760617.347421: $GPRMC,225018,A,3946.9567,N,08404.9864,W,0.0000,0.000,311217,,*3A
2017-12-31 17:50:17 1514760617.347482: $GPGSA,A,3,22,23,9,3,16,29,14,31,27,26,135,,1.7,0.6,1.3*06
2017-12-31 17:50:18 1514760618.681381: $GPGSV,3,1,12,22,29,220,45,23,46,309,45,09,13,312,37,03,38,243,44*78
2017-12-31 17:50:18 1514760618.681536: $GPGSV,3,2,12,16,71,192,43,29,09,036,36,14,22,129,30,31,34,069,42*75
2017-12-31 17:50:18 1514760618.681620: $GPGSV,3,3,12,27,15,157,26,32,02,133,00,26,70,060,46,135,22,240,43*4F
2017-12-31 17:50:18 1514760618.795006: $GPZDA,225019.00,31,12,2017,00,00*6E
2017-12-31 17:50:18 1514760618.795221: $GPGGA,225019,3946.9567,N,08404.9864,W,2,11,0.60,305.31,M,-33.324,M,,*7A
2017-12-31 17:50:18 1514760618.795290: $GPRMC,225019,A,3946.9567,N,08404.9864,W,0.0000,0.000,311217,,*3B
2017-12-31 17:50:18 1514760618.795352: $GPGSA,A,3,22,23,9,3,16,29,14,31,27,26,135,,1.7,0.6,1.3*06
2017-12-31 17:50:19 1514760619.348452: $GPZDA,225020.00,31,12,2017,00,00*64
2017-12-31 17:50:19 1514760619.348636: $GPGGA,225020,3946.9567,N,08404.9864,W,2,11,0.60,305.31,M,-33.324,M,,*70
2017-12-31 17:50:19 1514760619.348719: $GPRMC,225020,A,3946.9567,N,08404.9864,W,0.0000,0.000,311217,,*31
2017-12-31 17:50:19 1514760619.348782: $GPGSA,A,3,22,23,9,3,16,29,14,31,27,26,135,,1.7,0.6,1.3*06
2017-12-31 17:50:20 1514760620.346025: $GPZDA,225021.00,31,12,2017,00,00*65
2017-12-31 17:50:20 1514760620.346190: $GPGGA,225021,3946.9567,N,08404.9864,W,2,11,0.60,305.31,M,-33.324,M,,*71
2017-12-31 17:50:20 1514760620.346255: $GPRMC,225021,A,3946.9567,N,08404.9864,W,0.0000,0.000,311217,,*30
2017-12-31 17:50:20 1514760620.346316: $GPGSA,A,3,22,23,9,3,16,29,14,31,27,26,135,,1.7,0.6,1.3*06
2017-12-31 17:50:21 1514760621.686756: $GPGSV,3,1,12,22,29,220,45,23,46,309,45,09,13,312,37,03,38,243,44*78
2017-12-31 17:50:21 1514760621.686910: $GPGSV,3,2,12,16,71,192,43,29,09,036,35,14,22,129,32,31,34,069,42*74
2017-12-31 17:50:21 1514760621.686975: $GPGSV,3,3,12,27,15,157,26,32,02,133,00,26,70,060,47,135,22,240,44*49
