2017-12-31 16:43:19 1514756599.175881: {"class":"VERSION","release":"3.16","rev":"3.16-4","proto_major":3,"proto_minor":11}
2017-12-31 16:43:19 1514756599.177327: {"class":"DEVICES","devices":[{"class":"DEVICE","path":"/dev/ttyUSB0","driver":"SiRF","activated":"2017-12-31T21:43:19.169Z","flags":1,"native":1,"bps":4800,"parity":"N","stopbits":1,"cycle":1.00}]}
2017-12-31 16:43:19 1514756599.177541: {"class":"WATCH","enable":true,"json":false,"nmea":true,"raw":0,"scaled":false,"timing":false,"split24":false,"pps":false}
2017-12-31 16:43:19 1514756599.347504: $GPZDA,214320.00,31,12,2017,00,00*65
2017-12-31 16:43:19 1514756599.347684: $GPGGA,214320,3946.9575,N,08404.9834,W,2,11,0.80,303.34,M,-33.324,M,,*7A
2017-12-31 16:43:19 1514756599.347751: $GPRMC,214320,A,3946.9575,N,08404.9834,W,0.0000,0.000,311217,,*36
2017-12-31 16:43:19 1514756599.347813: $GPGSA,A,3,22,23,25,3,16,29,31,14,32,26,135,,1.7,0.8,1.3*32
2017-12-31 16:43:20 1514756600.362918: $GPZDA,214321.00,31,12,2017,00,00*64
2017-12-31 16:43:20 1514756600.363077: $GPGGA,214321,3946.9575,N,08404.9834,W,2,11,0.80,303.34,M,-33.324,M,,*7B
2017-12-31 16:43:20 1514756600.363143: $GPRMC,214321,A,3946.9575,N,08404.9834,W,0.0000,0.000,311217,,*37
2017-12-31 16:43:20 1514756600.363204: $GPGSA,A,3,22,23,25,3,16,29,31,14,32,26,135,,1.7,0.8,1.3*32
2017-12-31 16:43:21 1514756601.682016: $GPGSV,3,1,11,22,49,253,42,23,20,304,42,25,09,039,37,03,45,285,33*7B
2017-12-31 16:43:21 1514756601.682195: $GPGSV,3,2,11,16,35,189,48,29,13,064,27,31,57,042,51,14,48,105,46*76
2017-12-31 16:43:21 1514756601.682260: $GPGSV,3,3,11,32,26,115,42,26,66,162,41,135,22,240,43*7D
2017-12-31 16:43:21 1514756601.795378: $GPZDA,214322.00,31,12,2017,00,00*67
2017-12-31 16:43:21 1514756601.795539: $GPGGA,214322,3946.9575,N,08404.9834,W,2,11,0.80,303.34,M,-33.324,M,,*78
2017-12-31 16:43:21 1514756601.795626: $GPRMC,214322,A,3946.9575,N,08404.9834,W,0.0000,0.000,311217,,*34
2017-12-31 16:43:21 1514756601.795688: $GPGSA,A,3,22,23,25,3,16,29,31,14,32,26,135,,1.7,0.8,1.3*32
2017-12-31 16:43:22 1514756602.346251: $GPZDA,214323.00,31,12,2017,00,00*66
2017-12-31 16:43:22 1514756602.346391: $GPGGA,214323,3946.9575,N,08404.9834,W,2,11,0.80,303.34,M,-33.324,M,,*79
2017-12-31 16:43:22 1514756602.346483: $GPRMC,214323,A,3946.9575,N,08404.9834,W,0.0000,0.000,311217,,*35
2017-12-31 16:43:22 1514756602.346575: $GPGSA,A,3,22,23,25,3,16,29,31,14,32,26,135,,1.7,0.8,1.3*32
2017-12-31 16:43:23 1514756603.345884: $GPZDA,214324.00,31,12,2017,00,00*61
2017-12-31 16:43:23 1514756603.346058: $GPGGA,214324,3946.9575,N,08404.9834,W,2,11,0.80,303.34,M,-33.324,M,,*7E
2017-12-31 16:43:23 1514756603.346125: $GPRMC,214324,A,3946.9575,N,08404.9834,W,0.0000,0.000,311217,,*32
2017-12-31 16:43:23 1514756603.346186: $GPGSA,A,3,22,23,25,3,16,29,31,14,32,26,135,,1.7,0.8,1.3*32
2017-12-31 16:43:24 1514756604.674103: $GPGSV,3,1,11,22,49,253,42,23,20,304,41,25,09,039,37,03,45,285,28*72
2017-12-31 16:43:24 1514756604.674250: $GPGSV,3,2,11,16,35,189,48,29,13,064,28,31,57,042,51,14,48,105,46*79
2017-12-31 16:43:24 1514756604.674314: $GPGSV,3,3,11,32,26,115,42,26,66,162,41,135,22,240,43*7D
2017-12-31 16:43:24 1514756604.787548: $GPZDA,214325.00,31,12,2017,00,00*60
2017-12-31 16:43:24 1514756604.787711: $GPGGA,214325,3946.9575,N,08404.9834,W,2,11,0.80,303.34,M,-33.324,M,,*7F
2017-12-31 16:43:24 1514756604.787778: $GPRMC,214325,A,3946.9575,N,08404.9834,W,0.0000,0.000,311217,,*33
2017-12-31 16:43:24 1514756604.787839: $GPGSA,A,3,22,23,25,3,16,29,31,14,32,26,135,,1.7,0.8,1.3*32
2017-12-31 16:43:25 1514756605.412854: $GPZDA,214326.00,31,12,2017,00,00*63
2017-12-31 16:43:25 1514756605.413042: $GPGGA,214326,3946.9576,N,08404.9841,W,2,11,0.80,303.26,M,-33.324,M,,*7E
2017-12-31 16:43:25 1514756605.413111: $GPRMC,214326,A,3946.9576,N,08404.9841,W,0.0000,0.000,311217,,*31
2017-12-31 16:43:25 1514756605.413172: $GPGSA,A,3,22,23,25,3,16,29,31,14,32,26,135,,1.7,0.8,1.3*32
2017-12-31 16:43:26 1514756606.361630: $GPZDA,214327.00,31,12,2017,00,00*62
2017-12-31 16:43:26 1514756606.361794: $GPGGA,214327,3946.9576,N,08404.9841,W,2,11,0.80,303.26,M,-33.324,M,,*7F
2017-12-31 16:43:26 1514756606.361914: $GPRMC,214327,A,3946.9576,N,08404.9841,W,0.0000,0.000,311217,,*30
2017-12-31 16:43:26 1514756606.361977: $GPGSA,A,3,22,23,25,3,16,29,31,14,32,26,135,,1.7,0.8,1.3*32
2017-12-31 16:43:27 1514756607.681977: $GPGSV,3,1,11,22,49,253,42,23,20,304,40,25,09,039,37,03,45,285,34*7E
2017-12-31 16:43:27 1514756607.682148: $GPGSV,3,2,11,16,35,189,48,29,13,064,28,31,57,042,51,14,48,105,46*79
2017-12-31 16:43:27 1514756607.682215: $GPGSV,3,3,11,32,26,115,42,26,66,162,41,135,22,240,44*7A
2017-12-31 16:43:27 1514756607.795811: $GPZDA,214328.00,31,12,2017,00,00*6D
2017-12-31 16:43:27 1514756607.795967: $GPGGA,214328,3946.9576,N,08404.9841,W,2,11,0.80,303.26,M,-33.324,M,,*70
2017-12-31 16:43:27 1514756607.796033: $GPRMC,214328,A,3946.9576,N,08404.9841,W,0.0000,0.000,311217,,*3F
2017-12-31 16:43:27 1514756607.796094: $GPGSA,A,3,22,23,25,3,16,29,31,14,32,26,135,,1.7,0.8,1.3*32
2017-12-31 16:43:28 1514756608.346294: $GPZDA,214329.00,31,12,2017,00,00*6C
2017-12-31 16:43:28 1514756608.346509: $GPGGA,214329,3946.9576,N,08404.9841,W,2,11,0.80,303.26,M,-33.324,M,,*71
2017-12-31 16:43:28 1514756608.346577: $GPRMC,214329,A,3946.9576,N,08404.9841,W,0.0000,0.000,311217,,*3E
2017-12-31 16:43:28 1514756608.346639: $GPGSA,A,3,22,23,25,3,16,29,31,14,32,26,135,,1.7,0.8,1.3*32
