2018-01-11 19:57:20 1515718640.878142: {"class":"VERSION","release":"3.16","rev":"3.16-4","proto_major":3,"proto_minor":11}
2018-01-11 19:57:20 1515718640.878483: {"class":"DEVICES","devices":[{"class":"DEVICE","path":"/dev/ttyUSB0","driver":"SiRF","subtype":"9\u0006GSD4e_4.1.2-P1_RPATCH.05-F-GPS-4R-1510281 11/03/2015 307","activated":"2018-01-12T00:57:20.850Z","flags":1,"native":1,"bps":4800,"parity":"N","stopbits":1,"cycle":1.00}]}
2018-01-11 19:57:20 1515718640.878600: {"class":"WATCH","enable":true,"json":false,"nmea":true,"raw":0,"scaled":false,"timing":false,"split24":false,"pps":false}
2018-01-11 19:57:21 1515718641.402087: $GPZDA,005722.00,12,01,2018,00,00*6D
2018-01-11 19:57:21 1515718641.402258: $GPGGA,005722,3946.9590,N,08404.9842,W,2,10,0.80,293.74,M,-33.324,M,,*79
2018-01-11 19:57:21 1515718641.402324: $GPRMC,005722,A,3946.9590,N,08404.9842,W,0.0000,0.000,120118,,*34
2018-01-11 19:57:21 1515718641.402385: $GPGSA,A,3,7,8,9,11,16,23,27,30,28,138,,,4.0,0.8,3.5*3E
2018-01-11 19:57:22 1515718642.402588: $GPZDA,005723.00,12,01,2018,00,00*6C
2018-01-11 19:57:22 1515718642.402759: $GPGGA,005723,3946.9590,N,08404.9842,W,2,10,0.80,293.74,M,-33.324,M,,*78
2018-01-11 19:57:22 1515718642.402827: $GPRMC,005723,A,3946.9590,N,08404.9842,W,0.0000,0.000,120118,,*35
2018-01-11 19:57:22 1515718642.402888: $GPGSA,A,3,7,8,9,11,16,23,27,30,28,138,,,4.0,0.8,3.5*3E
2018-01-11 19:57:23 1515718643.720747: $GPGSV,3,1,11,07,50,312,44,08,69,148,46,09,52,238,43,11,15,169,36*7E
2018-01-11 19:57:23 1515718643.720918: $GPGSV,3,2,11,16,28,057,46,23,35,192,47,27,52,060,51,30,24,304,32*78
2018-01-11 19:57:23 1515718643.720984: $GPGSV,3,3,11,28,10,253,33,26,03,069,00,138,38,213,46*7D
2018-01-11 19:57:23 1515718643.834152: $GPZDA,005724.00,12,01,2018,00,00*6B
2018-01-11 19:57:23 1515718643.834272: $GPGGA,005724,3946.9590,N,08404.9842,W,2,10,0.80,293.74,M,-33.324,M,,*7F
2018-01-11 19:57:23 1515718643.834336: $GPRMC,005724,A,3946.9590,N,08404.9842,W,0.0000,0.000,120118,,*32
2018-01-11 19:57:23 1515718643.834396: $GPGSA,A,3,7,8,9,11,16,23,27,30,28,138,,,4.0,0.8,3.5*3E
2018-01-11 19:57:24 1515718644.382851: $GPZDA,005725.00,12,01,2018,00,00*6A
2018-01-11 19:57:24 1515718644.383020: $GPGGA,005725,3946.9590,N,08404.9842,W,2,10,0.80,293.74,M,-33.324,M,,*7E
2018-01-11 19:57:24 1515718644.383088: $GPRMC,005725,A,3946.9590,N,08404.9842,W,0.0000,0.000,120118,,*33
2018-01-11 19:57:24 1515718644.383148: $GPGSA,A,3,7,8,9,11,16,23,27,30,28,138,,,4.0,0.8,3.5*3E
2018-01-11 19:57:25 1515718645.403680: $GPZDA,005726.00,12,01,2018,00,00*69
2018-01-11 19:57:25 1515718645.403875: $GPGGA,005726,3946.9590,N,08404.9842,W,2,10,0.80,293.74,M,-33.324,M,,*7D
2018-01-11 19:57:25 1515718645.403943: $GPRMC,005726,A,3946.9590,N,08404.9842,W,0.0000,0.000,120118,,*30
2018-01-11 19:57:25 1515718645.404004: $GPGSA,A,3,7,8,9,11,16,23,27,30,28,138,,,4.0,0.8,3.5*3E
2018-01-11 19:57:26 1515718646.739097: $GPGSV,3,1,11,07,50,312,44,08,69,148,46,09,52,238,43,11,15,169,37*7F
2018-01-11 19:57:26 1515718646.739261: $GPGSV,3,2,11,16,28,057,46,23,35,192,46,27,52,060,51,30,24,304,32*79
2018-01-11 19:57:26 1515718646.739328: $GPGSV,3,3,11,28,10,253,34,26,03,069,00,138,38,213,45*79
2018-01-11 19:57:26 1515718646.852789: $GPZDA,005727.00,12,01,2018,00,00*68
2018-01-11 19:57:26 1515718646.852928: $GPGGA,005727,3946.9590,N,08404.9842,W,2,10,0.80,293.74,M,-33.324,M,,*7C
2018-01-11 19:57:26 1515718646.852994: $GPRMC,005727,A,3946.9590,N,08404.9842,W,0.0000,0.000,120118,,*31
2018-01-11 19:57:26 1515718646.853054: $GPGSA,A,3,7,8,9,11,16,23,27,30,28,138,,,4.0,0.8,3.5*3E
2018-01-11 19:57:27 1515718647.478173: $GPZDA,005728.00,12,01,2018,00,00*67
2018-01-11 19:57:27 1515718647.478352: $GPGGA,005728,3946.9590,N,08404.9842,W,2,10,0.80,293.74,M,-33.324,M,,*73
2018-01-11 19:57:27 1515718647.478418: $GPRMC,005728,A,3946.9590,N,08404.9842,W,0.0000,0.000,120118,,*3E
2018-01-11 19:57:27 1515718647.478478: $GPGSA,A,3,7,8,9,11,16,23,27,30,28,138,,,4.0,0.8,3.5*3E
2018-01-11 19:57:28 1515718648.385293: $GPZDA,005729.00,12,01,2018,00,00*66
2018-01-11 19:57:28 1515718648.385460: $GPGGA,005729,3946.9590,N,08404.9842,W,2,10,0.80,293.74,M,-33.324,M,,*72
2018-01-11 19:57:28 1515718648.385580: $GPRMC,005729,A,3946.9590,N,08404.9842,W,0.0000,0.000,120118,,*3F
2018-01-11 19:57:28 1515718648.385643: $GPGSA,A,3,7,8,9,11,16,23,27,30,28,138,,,4.0,0.8,3.5*3E
2018-01-11 19:57:29 1515718649.723190: $GPGSV,3,1,11,07,50,312,44,08,69,148,46,09,52,238,43,11,15,169,37*7F
2018-01-11 19:57:29 1515718649.723367: $GPGSV,3,2,11,16,28,057,46,23,35,192,47,27,52,060,51,30,24,304,33*79
2018-01-11 19:57:29 1515718649.723433: $GPGSV,3,3,11,28,10,253,34,26,03,069,00,138,38,213,45*79
2018-01-11 19:57:29 1515718649.836890: $GPZDA,005730.00,12,01,2018,00,00*6E
2018-01-11 19:57:29 1515718649.837032: $GPGGA,005730,3946.9590,N,08404.9842,W,2,10,0.80,293.74,M,-33.324,M,,*7A
2018-01-11 19:57:29 1515718649.837098: $GPRMC,005730,A,3946.9590,N,08404.9842,W,0.0000,0.000,120118,,*37
2018-01-11 19:57:29 1515718649.837158: $GPGSA,A,3,7,8,9,11,16,23,27,30,28,138,,,4.0,0.8,3.5*3E
2018-01-11 19:57:30 1515718650.387783: $GPZDA,005731.00,12,01,2018,00,00*6F
2018-01-11 19:57:30 1515718650.387962: $GPGGA,005731,3946.9590,N,08404.9842,W,2,10,0.80,293.74,M,-33.324,M,,*7B
2018-01-11 19:57:30 1515718650.388029: $GPRMC,005731,A,3946.9590,N,08404.9842,W,0.0000,0.000,120118,,*36
2018-01-11 19:57:30 1515718650.388091: $GPGSA,A,3,7,8,9,11,16,23,27,30,28,138,,,4.0,0.8,3.5*3E
