2017-12-01 16:32:25 1512163945.026780: {"class":"VERSION","release":"3.16","rev":"3.16-4","proto_major":3,"proto_minor":11}
2017-12-01 16:32:25 1512163945.027173: {"class":"DEVICES","devices":[{"class":"DEVICE","path":"/dev/ttyUSB0","driver":"SiRF","subtype":"9\u0006GSD4e_4.1.2-P1_RPATCH.05-F-GPS-4R-1510281 11/03/2015 307","activated":"2017-12-01T21:32:24.532Z","flags":1,"native":1,"bps":4800,"parity":"N","stopbits":1,"cycle":1.00}]}
2017-12-01 16:32:25 1512163945.027295: {"class":"WATCH","enable":true,"json":false,"nmea":true,"raw":0,"scaled":false,"timing":false,"split24":false,"pps":false}
2017-12-01 16:32:25 1512163945.377335: $GPZDA,213226.00,01,12,2017,00,00*66
2017-12-01 16:32:25 1512163945.377517: $GPGGA,213226,3946.9629,N,08404.9729,W,2,10,1.00,299.24,M,-33.324,M,,*78
2017-12-01 16:32:25 1512163945.377584: $GPRMC,213226,A,3946.9629,N,08404.9729,W,0.0000,0.000,011217,,*3C
2017-12-01 16:32:25 1512163945.377646: $GPGSA,A,3,1,10,11,14,22,31,32,26,12,138,,,2.0,1.0,1.5*3E
2017-12-01 16:32:26 1512163946.716388: $GPGSV,3,1,12,01,21,300,39,10,47,148,44,11,08,282,29,14,66,328,45*7A
2017-12-01 16:32:26 1512163946.716578: $GPGSV,3,2,12,22,20,312,43,18,17,144,01,31,57,226,50,32,68,030,49*73
2017-12-01 16:32:26 1512163946.716646: $GPGSV,3,3,12,26,03,183,34,12,22,049,26,25,40,090,24,138,38,213,35*41
2017-12-01 16:32:26 1512163946.829715: $GPZDA,213227.00,01,12,2017,00,00*67
2017-12-01 16:32:26 1512163946.829871: $GPGGA,213227,3946.9629,N,08404.9729,W,2,11,1.00,299.24,M,-33.324,M,,*78
2017-12-01 16:32:26 1512163946.829936: $GPRMC,213227,A,3946.9629,N,08404.9729,W,0.0000,0.000,011217,,*3D
2017-12-01 16:32:26 1512163946.829997: $GPGSA,A,3,1,10,11,14,22,31,32,26,12,25,138,,2.0,1.0,1.5*39
2017-12-01 16:32:27 1512163947.381914: $GPZDA,213228.00,01,12,2017,00,00*68
2017-12-01 16:32:27 1512163947.382092: $GPGGA,213228,3946.9629,N,08404.9729,W,2,11,1.00,299.24,M,-33.324,M,,*77
2017-12-01 16:32:27 1512163947.382161: $GPRMC,213228,A,3946.9629,N,08404.9729,W,0.0000,0.000,011217,,*32
2017-12-01 16:32:27 1512163947.382222: $GPGSA,A,3,1,10,11,14,22,31,32,26,12,25,138,,2.0,1.0,1.5*39
2017-12-01 16:32:28 1512163948.381688: $GPZDA,213229.00,01,12,2017,00,00*69
2017-12-01 16:32:28 1512163948.381867: $GPGGA,213229,3946.9629,N,08404.9729,W,2,11,1.00,299.24,M,-33.324,M,,*76
2017-12-01 16:32:28 1512163948.381935: $GPRMC,213229,A,3946.9629,N,08404.9729,W,0.0000,0.000,011217,,*33
2017-12-01 16:32:28 1512163948.381999: $GPGSA,A,3,1,10,11,14,22,31,32,26,12,25,138,,2.0,1.0,1.5*39
2017-12-01 16:32:29 1512163949.733670: $GPGSV,3,1,11,01,21,300,39,10,47,148,44,11,08,282,28,14,66,328,45*78
2017-12-01 16:32:29 1512163949.733847: $GPGSV,3,2,11,22,20,312,43,31,57,226,50,32,68,030,49,26,03,183,34*75
2017-12-01 16:32:29 1512163949.733918: $GPGSV,3,3,11,12,22,049,25,25,40,090,00,138,38,213,38*70
2017-12-01 16:32:29 1512163949.847005: $GPZDA,213230.00,01,12,2017,00,00*61
2017-12-01 16:32:29 1512163949.847178: $GPGGA,213230,3946.9629,N,08404.9729,W,2,10,1.00,299.24,M,-33.324,M,,*7F
2017-12-01 16:32:29 1512163949.847247: $GPRMC,213230,A,3946.9629,N,08404.9729,W,0.0000,0.000,011217,,*3B
2017-12-01 16:32:29 1512163949.847311: $GPGSA,A,3,1,10,11,14,22,31,32,26,12,138,,,2.0,1.0,1.5*3E
2017-12-01 16:32:30 1512163950.398129: $GPZDA,213231.00,01,12,2017,00,00*60
2017-12-01 16:32:30 1512163950.398304: $GPGGA,213231,3946.9629,N,08404.9729,W,2,10,1.00,299.24,M,-33.324,M,,*7E
2017-12-01 16:32:30 1512163950.398374: $GPRMC,213231,A,3946.9629,N,08404.9729,W,0.0000,0.000,011217,,*3A
2017-12-01 16:32:30 1512163950.398435: $GPGSA,A,3,1,10,11,14,22,31,32,26,12,138,,,2.0,1.0,1.5*3E
2017-12-01 16:32:31 1512163951.395940: $GPZDA,213232.00,01,12,2017,00,00*63
2017-12-01 16:32:31 1512163951.396112: $GPGGA,213232,3946.9629,N,08404.9729,W,2,10,1.00,299.24,M,-33.324,M,,*7D
2017-12-01 16:32:31 1512163951.396179: $GPRMC,213232,A,3946.9629,N,08404.9729,W,0.0000,0.000,011217,,*39
2017-12-01 16:32:31 1512163951.396241: $GPGSA,A,3,1,10,11,14,22,31,32,26,12,138,,,2.0,1.0,1.5*3E
2017-12-01 16:32:32 1512163952.733910: $GPGSV,3,1,11,01,21,300,40,10,47,148,44,11,08,282,35,14,66,328,45*7A
2017-12-01 16:32:32 1512163952.734179: $GPGSV,3,2,11,22,20,312,43,31,57,226,50,32,68,030,48,26,03,183,34*74
2017-12-01 16:32:32 1512163952.734250: $GPGSV,3,3,11,12,22,049,16,25,40,090,26,138,38,213,39*75
2017-12-01 16:32:32 1512163952.847581: $GPZDA,213233.00,01,12,2017,00,00*62
2017-12-01 16:32:32 1512163952.847747: $GPGGA,213233,3946.9629,N,08404.9729,W,2,11,1.00,299.24,M,-33.324,M,,*7D
2017-12-01 16:32:32 1512163952.847814: $GPRMC,213233,A,3946.9629,N,08404.9729,W,0.0000,0.000,011217,,*38
2017-12-01 16:32:32 1512163952.847877: $GPGSA,A,3,1,10,11,14,22,31,32,26,12,25,138,,2.0,1.0,1.5*39
2017-12-01 16:32:33 1512163953.399407: $GPZDA,213234.00,01,12,2017,00,00*65
2017-12-01 16:32:33 1512163953.399605: $GPGGA,213234,3946.9629,N,08404.9729,W,2,11,1.00,299.24,M,-33.324,M,,*7A
2017-12-01 16:32:33 1512163953.399678: $GPRMC,213234,A,3946.9629,N,08404.9729,W,0.0000,0.000,011217,,*3F
2017-12-01 16:32:33 1512163953.399742: $GPGSA,A,3,1,10,11,14,22,31,32,26,12,25,138,,2.0,1.0,1.5*39
2017-12-01 16:32:34 1512163954.382818: $GPZDA,213235.00,01,12,2017,00,00*64
2017-12-01 16:32:34 1512163954.383011: $GPGGA,213235,3946.9629,N,08404.9729,W,2,11,1.00,299.24,M,-33.324,M,,*7B
2017-12-01 16:32:34 1512163954.383082: $GPRMC,213235,A,3946.9629,N,08404.9729,W,0.0000,0.000,011217,,*3E
2017-12-01 16:32:34 1512163954.383145: $GPGSA,A,3,1,10,11,14,22,31,32,26,12,25,138,,2.0,1.0,1.5*39
2017-12-01 16:32:35 1512163955.718541: $GPGSV,3,1,11,01,21,300,40,10,47,148,43,11,08,282,34,14,66,328,45*7C
2017-12-01 16:32:35 1512163955.718723: $GPGSV,3,2,11,22,20,312,42,31,57,226,50,32,68,030,48,26,03,183,34*75
2017-12-01 16:32:35 1512163955.718792: $GPGSV,3,3,11,12,22,049,19,25,40,090,28,138,38,213,39*74
2017-12-01 16:32:35 1512163955.830649: $GPZDA,213236.00,01,12,2017,00,00*67
2017-12-01 16:32:35 1512163955.830813: $GPGGA,213236,3946.9629,N,08404.9729,W,2,11,1.00,299.24,M,-33.324,M,,*78
2017-12-01 16:32:35 1512163955.830880: $GPRMC,213236,A,3946.9629,N,08404.9729,W,0.0000,0.000,011217,,*3D
2017-12-01 16:32:35 1512163955.830941: $GPGSA,A,3,1,10,11,14,22,31,32,26,12,25,138,,2.0,1.0,1.5*39
2017-12-01 16:32:36 1512163956.457689: $GPZDA,213237.00,01,12,2017,00,00*66
2017-12-01 16:32:36 1512163956.457855: $GPGGA,213237,3946.9629,N,08404.9729,W,2,11,1.00,299.24,M,-33.324,M,,*79
2017-12-01 16:32:36 1512163956.457922: $GPRMC,213237,A,3946.9629,N,08404.9729,W,0.0000,0.000,011217,,*3C
2017-12-01 16:32:36 1512163956.457983: $GPGSA,A,3,1,10,11,14,22,31,32,26,12,25,138,,2.0,1.0,1.5*39
2017-12-01 16:32:37 1512163957.404523: $GPZDA,213238.00,01,12,2017,00,00*69
2017-12-01 16:32:37 1512163957.404694: $GPGGA,213238,3946.9629,N,08404.9729,W,2,11,1.00,299.24,M,-33.324,M,,*76
2017-12-01 16:32:37 1512163957.404763: $GPRMC,213238,A,3946.9629,N,08404.9729,W,0.0000,0.000,011217,,*33
2017-12-01 16:32:37 1512163957.404825: $GPGSA,A,3,1,10,11,14,22,31,32,26,12,25,138,,2.0,1.0,1.5*39
2017-12-01 16:32:38 1512163958.718804: $GPGSV,3,1,12,01,21,300,40,10,47,148,43,11,08,282,33,14,66,328,45*78
2017-12-01 16:32:38 1512163958.718988: $GPGSV,3,2,12,22,20,312,42,18,17,144,05,31,57,226,50,32,68,030,47*78
2017-12-01 16:32:38 1512163958.719056: $GPGSV,3,3,12,26,03,183,35,12,22,049,08,25,40,090,29,138,38,213,38*4C
2017-12-01 16:32:38 1512163958.832226: $GPZDA,213239.00,01,12,2017,00,00*68
2017-12-01 16:32:38 1512163958.832424: $GPGGA,213239,3946.9629,N,08404.9729,W,2,11,1.20,299.24,M,-33.324,M,,*75
2017-12-01 16:32:38 1512163958.832496: $GPRMC,213239,A,3946.9629,N,08404.9729,W,0.0000,0.000,011217,,*32
2017-12-01 16:32:38 1512163958.832559: $GPGSA,A,3,1,10,11,14,22,31,32,26,12,25,138,,2.0,1.2,1.5*3B
2017-12-01 16:32:39 1512163959.400577: $GPZDA,213240.00,01,12,2017,00,00*66
2017-12-01 16:32:39 1512163959.402227: $GPGGA,213240,3946.9629,N,08404.9729,W,2,11,1.00,299.24,M,-33.324,M,,*79
2017-12-01 16:32:39 1512163959.402366: $GPRMC,213240,A,3946.9629,N,08404.9729,W,0.0000,0.000,011217,,*3C
2017-12-01 16:32:39 1512163959.402433: $GPGSA,A,3,1,10,11,14,22,31,32,26,12,25,138,,2.0,1.0,1.5*39
2017-12-01 16:32:40 1512163960.397975: $GPZDA,213241.00,01,12,2017,00,00*67
2017-12-01 16:32:40 1512163960.398199: $GPGGA,213241,3946.9629,N,08404.9729,W,2,11,1.00,299.24,M,-33.324,M,,*78
2017-12-01 16:32:40 1512163960.398273: $GPRMC,213241,A,3946.9629,N,08404.9729,W,0.0000,0.000,011217,,*3D
2017-12-01 16:32:40 1512163960.398339: $GPGSA,A,3,1,10,11,14,22,31,32,26,12,25,138,,2.0,1.0,1.5*39
2017-12-01 16:32:41 1512163961.735426: $GPGSV,3,1,11,01,21,300,40,10,47,148,44,11,08,282,32,14,66,328,44*7C
2017-12-01 16:32:41 1512163961.735595: $GPGSV,3,2,11,22,20,312,42,31,57,226,50,32,68,030,48,26,03,183,35*74
2017-12-01 16:32:41 1512163961.735663: $GPGSV,3,3,11,12,22,049,08,25,40,090,29,138,38,213,40*7B
2017-12-01 16:32:41 1512163961.849042: $GPZDA,213242.00,01,12,2017,00,00*64
2017-12-01 16:32:41 1512163961.849218: $GPGGA,213242,3946.9629,N,08404.9729,W,2,11,1.20,299.24,M,-33.324,M,,*79
2017-12-01 16:32:41 1512163961.849288: $GPRMC,213242,A,3946.9629,N,08404.9729,W,0.0000,0.000,011217,,*3E
2017-12-01 16:32:41 1512163961.849353: $GPGSA,A,3,1,10,11,14,22,31,32,26,12,25,138,,2.0,1.2,1.5*3B
2017-12-01 16:32:42 1512163962.383418: $GPZDA,213243.00,01,12,2017,00,00*65
2017-12-01 16:32:42 1512163962.383600: $GPGGA,213243,3946.9629,N,08404.9729,W,2,11,1.00,299.24,M,-33.324,M,,*7A
2017-12-01 16:32:42 1512163962.383669: $GPRMC,213243,A,3946.9629,N,08404.9729,W,0.0000,0.000,011217,,*3F
2017-12-01 16:32:42 1512163962.383732: $GPGSA,A,3,1,10,11,14,22,31,32,26,12,25,138,,2.0,1.0,1.5*39
2017-12-01 16:32:43 1512163963.400800: $GPZDA,213244.00,01,12,2017,00,00*62
2017-12-01 16:32:43 1512163963.400976: $GPGGA,213244,3946.9629,N,08404.9729,W,2,11,1.20,299.24,M,-33.324,M,,*7F
2017-12-01 16:32:43 1512163963.401043: $GPRMC,213244,A,3946.9629,N,08404.9729,W,0.0000,0.000,011217,,*38
2017-12-01 16:32:43 1512163963.401106: $GPGSA,A,3,1,10,11,14,22,31,32,26,12,25,138,,2.0,1.2,1.5*3B
2017-12-01 16:32:44 1512163964.733839: $GPGSV,3,1,11,01,21,300,40,10,47,148,44,11,08,282,29,14,66,328,45*77
2017-12-01 16:32:44 1512163964.734025: $GPGSV,3,2,11,22,20,312,42,31,57,226,50,32,68,030,48,26,03,183,35*74
2017-12-01 16:32:44 1512163964.734094: $GPGSV,3,3,11,12,22,049,11,25,40,090,00,138,38,213,40*78
2017-12-01 16:32:44 1512163964.847265: $GPZDA,213245.00,01,12,2017,00,00*63
2017-12-01 16:32:44 1512163964.847427: $GPGGA,213245,3946.9629,N,08404.9729,W,2,10,1.00,299.24,M,-33.324,M,,*7D
2017-12-01 16:32:44 1512163964.847494: $GPRMC,213245,A,3946.9629,N,08404.9729,W,0.0000,0.000,011217,,*39
2017-12-01 16:32:44 1512163964.847555: $GPGSA,A,3,1,10,11,14,22,31,32,26,12,138,,,2.0,1.0,1.5*3E
