2017-11-15 19:41:18 1510792878.314423: {"class":"VERSION","release":"3.17","rev":"3.17","proto_major":3,"proto_minor":12}
2017-11-15 19:41:18 1510792878.314902: {"class":"DEVICES","devices":[{"class":"DEVICE","path":"/dev/ttyUSB0","driver":"SiRF","subtype":"9\u0006GSD4e_4.1.2-P1_RPATCH.05-F-GPS-4R-1510281 11/03/2015 307","activated":"2017-11-16T00:41:18.231Z","flags":1,"native":1,"bps":4800,"parity":"N","stopbits":1,"cycle":1.00}]}
2017-11-15 19:41:18 1510792878.315029: {"class":"WATCH","enable":true,"json":false,"nmea":true,"raw":0,"scaled":false,"timing":false,"split24":false,"pps":false}
2017-11-15 19:41:18 1510792878.680833: $GPGSV,3,1,11,32,32,111,12,16,27,190,20,22,50,264,04,26,58,171,16*79
2017-11-15 19:41:18 1510792878.681020: $GPGSV,3,2,11,14,52,097,04,31,64,031,15,29,12,067,14,03,42,294,00*70
2017-11-15 19:41:18 1510792878.681080: $GPGSV,3,3,11,23,14,303,00,25,13,039,00,01,03,249,00*4F
2017-11-15 19:41:18 1510792878.794519: $GPZDA,004117.00,16,11,2017,00,00*66
2017-11-15 19:41:18 1510792878.794680: $GPGGA,004117,3946.9592,N,08404.9525,W,1,04,2.60,293.48,M,-33.324,M,,*73
2017-11-15 19:41:18 1510792878.794741: $GPRMC,004117,A,3946.9592,N,08404.9525,W,0.8709,183.298,161117,,*3E
2017-11-15 19:41:18 1510792878.794797: $GPGSA,A,3,32,16,26,31,,,,,,,,,3.4,2.6,2.9*3A
2017-11-15 19:41:19 1510792879.329396: $GPZDA,004118.00,16,11,2017,00,00*69
2017-11-15 19:41:19 1510792879.329570: $GPGGA,004118,3946.9587,N,08404.9525,W,1,04,2.60,292.84,M,-33.324,M,,*79
2017-11-15 19:41:19 1510792879.329632: $GPRMC,004118,A,3946.9587,N,08404.9525,W,1.0534,170.904,161117,,*32
2017-11-15 19:41:19 1510792879.329688: $GPGSA,A,3,32,16,26,31,,,,,,,,,3.4,2.6,2.9*3A
2017-11-15 19:41:20 1510792880.344603: $GPZDA,004119.00,16,11,2017,00,00*68
2017-11-15 19:41:20 1510792880.344770: $GPGGA,004119,3946.9587,N,08404.9525,W,1,04,2.60,292.84,M,-33.324,M,,*78
2017-11-15 19:41:20 1510792880.344830: $GPRMC,004119,A,3946.9587,N,08404.9525,W,1.3082,161.818,161117,,*34
2017-11-15 19:41:20 1510792880.344889: $GPGSA,A,3,32,16,26,31,,,,,,,,,3.4,2.6,2.9*3A
2017-11-15 19:41:21 1510792881.679914: $GPGSV,3,1,11,32,32,111,11,16,27,190,20,22,50,264,04,26,58,171,13*7F
2017-11-15 19:41:21 1510792881.680100: $GPGSV,3,2,11,14,52,097,04,31,64,031,14,29,12,067,14,03,42,294,00*71
2017-11-15 19:41:21 1510792881.680180: $GPGSV,3,3,11,23,14,303,00,25,13,039,00,01,03,249,00*4F
2017-11-15 19:41:21 1510792881.793299: $GPZDA,004120.00,16,11,2017,00,00*62
2017-11-15 19:41:21 1510792881.793468: $GPGGA,004120,3946.9580,N,08404.9519,W,1,04,2.60,293.05,M,-33.324,M,,*72
2017-11-15 19:41:21 1510792881.793530: $GPRMC,004120,A,3946.9580,N,08404.9519,W,1.7180,158.671,161117,,*3A
2017-11-15 19:41:21 1510792881.793587: $GPGSA,A,3,32,16,26,31,,,,,,,,,3.4,2.6,2.9*3A
2017-11-15 19:41:22 1510792882.344104: $GPZDA,004121.00,16,11,2017,00,00*63
2017-11-15 19:41:22 1510792882.344276: $GPGGA,004121,3946.9579,N,08404.9512,W,1,04,2.00,293.13,M,-33.324,M,,*7F
2017-11-15 19:41:22 1510792882.344341: $GPRMC,004121,A,3946.9579,N,08404.9512,W,1.4978,129.346,161117,,*3D
2017-11-15 19:41:22 1510792882.344398: $GPGSA,A,3,32,16,26,31,,,,,,,,,3.4,2.0,2.9*3C
2017-11-15 19:41:23 1510792883.344962: $GPZDA,004122.00,16,11,2017,00,00*60
2017-11-15 19:41:23 1510792883.345135: $GPGGA,004122,3946.9575,N,08404.9512,W,1,04,2.00,292.49,M,-33.324,M,,*7E
2017-11-15 19:41:23 1510792883.345196: $GPRMC,004122,A,3946.9575,N,08404.9512,W,1.1824,129.173,161117,,*3B
2017-11-15 19:41:23 1510792883.345254: $GPGSA,A,3,32,16,26,31,,,,,,,,,3.4,2.0,2.9*3C
2017-11-15 19:41:24 1510792884.664510: $GPGSV,3,1,11,32,32,111,09,16,27,190,20,22,50,264,04,26,58,171,08*7C
2017-11-15 19:41:24 1510792884.664665: $GPGSV,3,2,11,14,52,097,10,31,64,031,12,29,12,067,14,03,42,294,00*72
2017-11-15 19:41:24 1510792884.664726: $GPGSV,3,3,11,23,14,303,00,25,13,039,00,01,03,249,00*4F
2017-11-15 19:41:24 1510792884.777914: $GPZDA,004123.00,16,11,2017,00,00*61
2017-11-15 19:41:24 1510792884.778091: $GPGGA,004123,3946.9575,N,08404.9505,W,1,04,2.20,292.57,M,-33.324,M,,*74
2017-11-15 19:41:24 1510792884.778151: $GPRMC,004123,A,3946.9575,N,08404.9505,W,0.7238,140.710,161117,,*30
2017-11-15 19:41:24 1510792884.778261: $GPGSA,A,3,32,16,31,29,,,,,,,,,3.4,2.2,2.9*31
2017-11-15 19:41:25 1510792885.329110: $GPZDA,004124.00,16,11,2017,00,00*66
2017-11-15 19:41:25 1510792885.329301: $GPGGA,004124,3946.9575,N,08404.9505,W,1,04,2.20,292.57,M,-33.324,M,,*73
2017-11-15 19:41:25 1510792885.329372: $GPRMC,004124,A,3946.9575,N,08404.9505,W,0.3155,129.994,161117,,*36
2017-11-15 19:41:25 1510792885.329435: $GPGSA,A,3,32,16,31,29,,,,,,,,,3.4,2.2,2.9*31
2017-11-15 19:41:26 1510792886.343077: $GPRMC,004125,V,3946.9575,N,08404.9505,W,0.3155,129.994,161117,,*20
2017-11-15 19:41:26 1510792886.343245: $GPGSA,A,1,32,16,31,29,,,,,,,,,,,,*3D
2017-11-15 19:41:27 1510792887.665022: $GPGSV,3,1,11,32,32,111,05,16,27,190,20,22,50,264,04,26,58,171,06*7E
2017-11-15 19:41:27 1510792887.665202: $GPGSV,3,2,11,14,52,097,00,31,64,031,12,29,12,067,14,03,42,294,00*73
2017-11-15 19:41:27 1510792887.665261: $GPGSV,3,3,11,23,14,303,00,25,13,039,00,01,03,249,00*4F
2017-11-15 19:41:27 1510792887.777225: $GPRMC,004126,V,3946.9574,N,08404.9498,W,0.3155,129.994,161117,,*27
2017-11-15 19:41:27 1510792887.777389: $GPGSA,A,1,32,16,26,31,29,,,,,,,,,,,*39
