2017-12-31 18:01:05 1514761265.066289: {"class":"VERSION","release":"3.16","rev":"3.16-4","proto_major":3,"proto_minor":11}
2017-12-31 18:01:05 1514761265.066643: {"class":"DEVICES","devices":[{"class":"DEVICE","path":"/dev/ttyUSB0","driver":"SiRF","activated":"2017-12-31T23:01:04.660Z","flags":1,"native":1,"bps":4800,"parity":"N","stopbits":1,"cycle":1.00}]}
2017-12-31 18:01:05 1514761265.066743: {"class":"WATCH","enable":true,"json":false,"nmea":true,"raw":0,"scaled":false,"timing":false,"split24":false,"pps":false}
2017-12-31 18:01:05 1514761265.344538: $GPZDA,230106.00,31,12,2017,00,00*65
2017-12-31 18:01:05 1514761265.344706: $GPGGA,230106,3946.9564,N,08404.9866,W,2,11,0.60,307.48,M,-33.324,M,,*7C
2017-12-31 18:01:05 1514761265.344771: $GPRMC,230106,A,3946.9564,N,08404.9866,W,0.0000,0.000,311217,,*31
2017-12-31 18:01:05 1514761265.344831: $GPGSA,A,3,22,23,9,3,16,29,14,31,27,26,135,,1.7,0.6,1.3*06
2017-12-31 18:01:06 1514761266.708611: $GPGSV,3,1,11,22,26,217,42,23,50,307,43,09,16,312,38,03,35,238,44*73
2017-12-31 18:01:06 1514761266.708788: $GPGSV,3,2,11,16,76,192,43,29,07,033,39,14,19,130,35,31,31,072,39*73
2017-12-31 18:01:06 1514761266.708853: $GPGSV,3,3,11,27,18,156,26,26,66,054,49,135,22,240,42*7C
2017-12-31 18:01:06 1514761266.822309: $GPZDA,230107.00,31,12,2017,00,00*64
2017-12-31 18:01:06 1514761266.822480: $GPGGA,230107,3946.9564,N,08404.9866,W,2,11,0.60,307.48,M,-33.324,M,,*7D
2017-12-31 18:01:06 1514761266.822547: $GPRMC,230107,A,3946.9564,N,08404.9866,W,0.0000,0.000,311217,,*30
2017-12-31 18:01:06 1514761266.822607: $GPGSA,A,3,22,23,9,3,16,29,14,31,27,26,135,,1.7,0.6,1.3*06
2017-12-31 18:01:07 1514761267.345674: $GPZDA,230108.00,31,12,2017,00,00*6B
2017-12-31 18:01:07 1514761267.345844: $GPGGA,230108,3946.9564,N,08404.9866,W,2,11,0.60,307.48,M,-33.324,M,,*72
2017-12-31 18:01:07 1514761267.345909: $GPRMC,230108,A,3946.9564,N,08404.9866,W,0.0000,0.000,311217,,*3F
2017-12-31 18:01:07 1514761267.345970: $GPGSA,A,3,22,23,9,3,16,29,14,31,27,26,135,,1.7,0.6,1.3*06
2017-12-31 18:01:08 1514761268.367970: $GPZDA,230109.00,31,12,2017,00,00*6A
2017-12-31 18:01:08 1514761268.368136: $GPGGA,230109,3946.9564,N,08404.9866,W,2,11,0.60,307.48,M,-33.324,M,,*73
2017-12-31 18:01:08 1514761268.368201: $GPRMC,230109,A,3946.9564,N,08404.9866,W,0.0000,0.000,311217,,*3E
2017-12-31 18:01:08 1514761268.368262: $GPGSA,A,3,22,23,9,3,16,29,14,31,27,26,135,,1.7,0.6,1.3*06
2017-12-31 18:01:09 1514761269.681998: $GPGSV,3,1,11,22,26,217,43,23,50,307,44,09,16,312,38,03,35,238,44*75
2017-12-31 18:01:09 1514761269.682174: $GPGSV,3,2,11,16,76,192,43,29,07,033,32,14,19,130,35,31,31,072,40*76
2017-12-31 18:01:09 1514761269.682240: $GPGSV,3,3,11,27,18,156,28,26,66,054,49,135,22,240,44*74
2017-12-31 18:01:09 1514761269.795770: $GPZDA,230110.00,31,12,2017,00,00*62
2017-12-31 18:01:09 1514761269.795936: $GPGGA,230110,3946.9564,N,08404.9866,W,2,11,0.60,307.48,M,-33.324,M,,*7B
2017-12-31 18:01:09 1514761269.796002: $GPRMC,230110,A,3946.9564,N,08404.9866,W,0.0000,0.000,311217,,*36
2017-12-31 18:01:09 1514761269.796063: $GPGSA,A,3,22,23,9,3,16,29,14,31,27,26,135,,1.7,0.6,1.3*06
2017-12-31 18:01:10 1514761270.421177: $GPZDA,230111.00,31,12,2017,00,00*63
2017-12-31 18:01:10 1514761270.421339: $GPGGA,230111,3946.9564,N,08404.9866,W,2,11,0.60,307.48,M,-33.324,M,,*7A
2017-12-31 18:01:10 1514761270.421433: $GPRMC,230111,A,3946.9564,N,08404.9866,W,0.0000,0.000,311217,,*37
2017-12-31 18:01:10 1514761270.421522: $GPGSA,A,3,22,23,9,3,16,29,14,31,27,26,135,,1.7,0.6,1.3*06
2017-12-31 18:01:11 1514761271.374138: $GPZDA,230112.00,31,12,2017,00,00*60
2017-12-31 18:01:11 1514761271.374293: $GPGGA,230112,3946.9564,N,08404.9866,W,2,11,0.60,307.48,M,-33.324,M,,*79
2017-12-31 18:01:11 1514761271.374376: $GPRMC,230112,A,3946.9564,N,08404.9866,W,0.0000,0.000,311217,,*34
2017-12-31 18:01:11 1514761271.374439: $GPGSA,A,3,22,23,9,3,16,29,14,31,27,26,135,,1.7,0.6,1.3*06
2017-12-31 18:01:12 1514761272.681049: $GPGSV,3,1,11,22,26,217,43,23,50,307,43,09,16,312,38,03,35,238,44*72
2017-12-31 18:01:12 1514761272.681227: $GPGSV,3,2,11,16,76,192,44,29,07,033,30,14,19,130,35,31,31,072,39*7D
2017-12-31 18:01:12 1514761272.681365: $GPGSV,3,3,11,27,18,156,33,26,66,054,49,135,22,240,43*79
2017-12-31 18:01:12 1514761272.794521: $GPZDA,230113.00,31,12,2017,00,00*61
2017-12-31 18:01:12 1514761272.794692: $GPGGA,230113,3946.9564,N,08404.9866,W,2,11,0.60,307.48,M,-33.324,M,,*78
2017-12-31 18:01:12 1514761272.794759: $GPRMC,230113,A,3946.9564,N,08404.9866,W,0.0000,0.000,311217,,*35
2017-12-31 18:01:12 1514761272.794820: $GPGSA,A,3,22,23,9,3,16,29,14,31,27,26,135,,1.7,0.6,1.3*06
2017-12-31 18:01:13 1514761273.348067: $GPZDA,230114.00,31,12,2017,00,00*66
2017-12-31 18:01:13 1514761273.348240: $GPGGA,230114,3946.9564,N,08404.9866,W,2,11,0.60,307.48,M,-33.324,M,,*7F
2017-12-31 18:01:13 1514761273.348307: $GPRMC,230114,A,3946.9564,N,08404.9866,W,0.0000,0.000,311217,,*32
2017-12-31 18:01:13 1514761273.348391: $GPGSA,A,3,22,23,9,3,16,29,14,31,27,26,135,,1.7,0.6,1.3*06
2017-12-31 18:01:14 1514761274.373728: $GPZDA,230115.00,31,12,2017,00,00*67
2017-12-31 18:01:14 1514761274.373896: $GPGGA,230115,3946.9564,N,08404.9866,W,2,11,0.60,307.48,M,-33.324,M,,*7E
2017-12-31 18:01:14 1514761274.373961: $GPRMC,230115,A,3946.9564,N,08404.9866,W,0.0000,0.000,311217,,*33
2017-12-31 18:01:14 1514761274.374023: $GPGSA,A,3,22,23,9,3,16,29,14,31,27,26,135,,1.7,0.6,1.3*06
2017-12-31 18:01:15 1514761275.681414: $GPGSV,3,1,11,22,26,217,43,23,50,307,43,09,16,312,37,03,35,238,44*7D
2017-12-31 18:01:15 1514761275.681621: $GPGSV,3,2,11,16,76,192,43,29,07,033,31,14,19,130,30,31,31,072,39*7E
2017-12-31 18:01:15 1514761275.681688: $GPGSV,3,3,11,27,18,156,33,26,66,054,49,135,22,240,43*79
2017-12-31 18:01:15 1514761275.794818: $GPZDA,230116.00,31,12,2017,00,00*64
2017-12-31 18:01:15 1514761275.794989: $GPGGA,230116,3946.9564,N,08404.9866,W,2,11,0.60,307.48,M,-33.324,M,,*7D
2017-12-31 18:01:15 1514761275.795055: $GPRMC,230116,A,3946.9564,N,08404.9866,W,0.0000,0.000,311217,,*30
2017-12-31 18:01:15 1514761275.795115: $GPGSA,A,3,22,23,9,3,16,29,14,31,27,26,135,,1.7,0.6,1.3*06
2017-12-31 18:01:16 1514761276.345694: $GPZDA,230117.00,31,12,2017,00,00*65
2017-12-31 18:01:16 1514761276.345908: $GPGGA,230117,3946.9564,N,08404.9866,W,2,11,0.60,307.48,M,-33.324,M,,*7C
2017-12-31 18:01:16 1514761276.345975: $GPRMC,230117,A,3946.9564,N,08404.9866,W,0.0000,0.000,311217,,*31
2017-12-31 18:01:16 1514761276.346036: $GPGSA,A,3,22,23,9,3,16,29,14,31,27,26,135,,1.7,0.6,1.3*06
2017-12-31 18:01:17 1514761277.374043: $GPZDA,230118.00,31,12,2017,00,00*6A
2017-12-31 18:01:17 1514761277.374215: $GPGGA,230118,3946.9564,N,08404.9866,W,2,11,0.60,307.48,M,-33.324,M,,*73
2017-12-31 18:01:17 1514761277.374281: $GPRMC,230118,A,3946.9564,N,08404.9866,W,0.0000,0.000,311217,,*3E
2017-12-31 18:01:17 1514761277.374365: $GPGSA,A,3,22,23,9,3,16,29,14,31,27,26,135,,1.7,0.6,1.3*06
2017-12-31 18:01:18 1514761278.703638: $GPGSV,3,1,11,22,26,217,43,23,50,307,42,09,16,312,37,03,35,238,44*7C
2017-12-31 18:01:18 1514761278.703803: $GPGSV,3,2,11,16,76,192,44,29,07,033,32,14,19,130,31,31,31,072,39*7B
2017-12-31 18:01:18 1514761278.703869: $GPGSV,3,3,11,27,18,156,33,26,66,054,49,135,22,240,45*7F
2017-12-31 18:01:18 1514761278.817359: $GPZDA,230119.00,31,12,2017,00,00*6B
2017-12-31 18:01:18 1514761278.817542: $GPGGA,230119,3946.9564,N,08404.9866,W,2,11,0.60,307.48,M,-33.324,M,,*72
2017-12-31 18:01:18 1514761278.817609: $GPRMC,230119,A,3946.9564,N,08404.9866,W,0.0000,0.000,311217,,*3F
2017-12-31 18:01:18 1514761278.817670: $GPGSA,A,3,22,23,9,3,16,29,14,31,27,26,135,,1.7,0.6,1.3*06
2017-12-31 18:01:19 1514761279.347944: $GPZDA,230120.00,31,12,2017,00,00*61
2017-12-31 18:01:19 1514761279.348116: $GPGGA,230120,3946.9564,N,08404.9866,W,2,11,0.60,307.48,M,-33.324,M,,*78
2017-12-31 18:01:19 1514761279.348183: $GPRMC,230120,A,3946.9564,N,08404.9866,W,0.0000,0.000,311217,,*35
2017-12-31 18:01:19 1514761279.348244: $GPGSA,A,3,22,23,9,3,16,29,14,31,27,26,135,,1.7,0.6,1.3*06
2017-12-31 18:01:20 1514761280.346070: $GPZDA,230121.00,31,12,2017,00,00*60
2017-12-31 18:01:20 1514761280.346238: $GPGGA,230121,3946.9564,N,08404.9866,W,2,11,0.60,307.48,M,-33.324,M,,*79
2017-12-31 18:01:20 1514761280.346376: $GPRMC,230121,A,3946.9564,N,08404.9866,W,0.0000,0.000,311217,,*34
2017-12-31 18:01:20 1514761280.346456: $GPGSA,A,3,22,23,9,3,16,29,14,31,27,26,135,,1.7,0.6,1.3*06
2017-12-31 18:01:21 1514761281.710208: $GPGSV,3,1,11,22,26,217,43,23,50,307,42,09,16,312,38,03,35,238,44*73
2017-12-31 18:01:21 1514761281.710386: $GPGSV,3,2,11,16,76,192,44,29,07,033,32,14,19,130,31,31,31,072,36*74
2017-12-31 18:01:21 1514761281.710453: $GPGSV,3,3,11,27,18,156,34,26,66,054,49,135,22,240,44*79
2017-12-31 18:01:21 1514761281.823690: $GPZDA,230122.00,31,12,2017,00,00*63
2017-12-31 18:01:21 1514761281.823845: $GPGGA,230122,3946.9564,N,08404.9866,W,2,11,0.60,307.48,M,-33.324,M,,*7A
2017-12-31 18:01:21 1514761281.823911: $GPRMC,230122,A,3946.9564,N,08404.9866,W,0.0000,0.000,311217,,*37
2017-12-31 18:01:21 1514761281.823971: $GPGSA,A,3,22,23,9,3,16,29,14,31,27,26,135,,1.7,0.6,1.3*06
2017-12-31 18:01:22 1514761282.346863: $GPZDA,230123.00,31,12,2017,00,00*62
2017-12-31 18:01:22 1514761282.347043: $GPGGA,230123,3946.9564,N,08404.9866,W,2,11,0.60,307.48,M,-33.324,M,,*7B
2017-12-31 18:01:22 1514761282.347173: $GPRMC,230123,A,3946.9564,N,08404.9866,W,0.0000,0.000,311217,,*36
2017-12-31 18:01:22 1514761282.347237: $GPGSA,A,3,22,23,9,3,16,29,14,31,27,26,135,,1.7,0.6,1.3*06
2017-12-31 18:01:23 1514761283.374457: $GPZDA,230124.00,31,12,2017,00,00*65
2017-12-31 18:01:23 1514761283.374625: $GPGGA,230124,3946.9564,N,08404.9866,W,2,11,0.60,307.48,M,-33.324,M,,*7C
2017-12-31 18:01:23 1514761283.374690: $GPRMC,230124,A,3946.9564,N,08404.9866,W,0.0000,0.000,311217,,*31
2017-12-31 18:01:23 1514761283.374751: $GPGSA,A,3,22,23,9,3,16,29,14,31,27,26,135,,1.7,0.6,1.3*06
2017-12-31 18:01:24 1514761284.675984: $GPGSV,3,1,11,22,26,217,42,23,50,307,42,09,16,312,38,03,35,238,44*72
2017-12-31 18:01:24 1514761284.676160: $GPGSV,3,2,11,16,76,192,44,29,07,033,32,14,19,130,21,31,31,072,40*74
2017-12-31 18:01:24 1514761284.676225: $GPGSV,3,3,11,27,18,156,34,26,66,054,49,135,22,240,43*7E
2017-12-31 18:01:24 1514761284.788586: $GPZDA,230125.00,31,12,2017,00,00*64
2017-12-31 18:01:24 1514761284.788752: $GPGGA,230125,3946.9564,N,08404.9866,W,2,11,0.60,307.48,M,-33.324,M,,*7D
2017-12-31 18:01:24 1514761284.788818: $GPRMC,230125,A,3946.9564,N,08404.9866,W,0.0000,0.000,311217,,*30
2017-12-31 18:01:24 1514761284.788879: $GPGSA,A,3,22,23,9,3,16,29,14,31,27,26,135,,1.7,0.6,1.3*06
