2017-11-15 19:07:37 1510790857.864695: {"class":"VERSION","release":"3.17","rev":"3.17","proto_major":3,"proto_minor":12}
2017-11-15 19:07:37 1510790857.865148: {"class":"DEVICES","devices":[{"class":"DEVICE","path":"/dev/ttyUSB0","driver":"SiRF","subtype":"9\u0006GSD4e_4.1.2-P1_RPATCH.05-F-GPS-4R-1510281 11/03/2015 307","activated":"2017-11-16T00:07:37.487Z","flags":1,"native":1,"bps":4800,"parity":"N","stopbits":1,"cycle":1.00}]}
2017-11-15 19:07:37 1510790857.865258: {"class":"WATCH","enable":true,"json":false,"nmea":true,"raw":0,"scaled":false,"timing":false,"split24":false,"pps":false}
2017-11-15 19:07:38 1510790858.346031: $GPZDA,000737.00,16,11,2017,00,00*66
2017-11-15 19:07:38 1510790858.346190: $GPGGA,000737,3946.9647,N,08404.9533,W,1,07,1.20,304.53,M,-33.324,M,,*7E
2017-11-15 19:07:38 1510790858.346251: $GPRMC,000737,A,3946.9647,N,08404.9533,W,0.5951,238.684,161117,,*36
2017-11-15 19:07:38 1510790858.346307: $GPGSA,A,3,32,14,29,26,31,16,22,,,,,,3.4,1.2,2.9*33
2017-11-15 19:07:39 1510790859.681566: $GPGSV,3,1,12,32,44,097,23,14,62,076,23,29,07,081,14,26,42,175,22*76
2017-11-15 19:07:39 1510790859.681739: $GPGSV,3,2,12,31,75,001,28,16,12,190,18,22,48,286,26,03,33,309,00*78
2017-11-15 19:07:39 1510790859.681800: $GPGSV,3,3,12,25,25,045,00,01,11,261,00,10,07,159,00,120,07,103,00*42
2017-11-15 19:07:39 1510790859.793575: $GPZDA,000738.00,16,11,2017,00,00*69
2017-11-15 19:07:39 1510790859.793741: $GPGGA,000738,3946.9644,N,08404.9540,W,1,07,1.20,303.81,M,-33.324,M,,*7E
2017-11-15 19:07:39 1510790859.793803: $GPRMC,000738,A,3946.9644,N,08404.9540,W,0.8414,219.347,161117,,*36
2017-11-15 19:07:39 1510790859.793859: $GPGSA,A,3,32,14,29,26,31,16,22,,,,,,3.4,1.2,2.9*33
2017-11-15 19:07:40 1510790860.328222: $GPZDA,000739.00,16,11,2017,00,00*68
2017-11-15 19:07:40 1510790860.328388: $GPGGA,000739,3946.9644,N,08404.9540,W,1,07,1.20,303.81,M,-33.324,M,,*7F
2017-11-15 19:07:40 1510790860.328448: $GPRMC,000739,A,3946.9644,N,08404.9540,W,0.7246,164.668,161117,,*38
2017-11-15 19:07:40 1510790860.328504: $GPGSA,A,3,32,14,29,26,31,16,22,,,,,,3.4,1.2,2.9*33
2017-11-15 19:07:41 1510790861.344832: $GPZDA,000740.00,16,11,2017,00,00*66
2017-11-15 19:07:41 1510790861.345008: $GPGGA,000740,3946.9639,N,08404.9533,W,1,07,1.20,303.25,M,-33.324,M,,*71
2017-11-15 19:07:41 1510790861.345070: $GPRMC,000740,A,3946.9639,N,08404.9533,W,0.7246,164.668,161117,,*38
2017-11-15 19:07:41 1510790861.345126: $GPGSA,A,3,32,14,29,26,31,16,22,,,,,,3.4,1.2,2.9*33
2017-11-15 19:07:42 1510790862.680752: $GPGSV,3,1,12,32,44,097,23,14,62,076,23,29,07,081,14,26,42,175,22*76
2017-11-15 19:07:42 1510790862.680936: $GPGSV,3,2,12,31,75,001,28,16,12,190,17,22,48,286,26,03,33,309,00*77
2017-11-15 19:07:42 1510790862.680998: $GPGSV,3,3,12,25,25,045,00,01,11,261,00,10,07,159,00,120,07,103,00*42
2017-11-15 19:07:42 1510790862.793981: $GPZDA,000741.00,16,11,2017,00,00*67
2017-11-15 19:07:42 1510790862.794184: $GPGGA,000741,3946.9636,N,08404.9534,W,1,07,1.20,304.02,M,-33.324,M,,*7A
2017-11-15 19:07:42 1510790862.794252: $GPRMC,000741,A,3946.9636,N,08404.9534,W,1.0253,113.297,161117,,*37
2017-11-15 19:07:42 1510790862.794313: $GPGSA,A,3,32,14,29,26,31,16,22,,,,,,3.4,1.2,2.9*33
2017-11-15 19:07:43 1510790863.328870: $GPZDA,000742.00,16,11,2017,00,00*64
2017-11-15 19:07:43 1510790863.329048: $GPGGA,000742,3946.9636,N,08404.9534,W,1,07,1.20,304.02,M,-33.324,M,,*79
2017-11-15 19:07:43 1510790863.329112: $GPRMC,000742,A,3946.9636,N,08404.9534,W,0.8011,119.090,161117,,*36
2017-11-15 19:07:43 1510790863.329171: $GPGSA,A,3,32,14,29,26,31,16,22,,,,,,3.4,1.2,2.9*33
2017-11-15 19:07:44 1510790864.345980: $GPZDA,000743.00,16,11,2017,00,00*65
2017-11-15 19:07:44 1510790864.346143: $GPGGA,000743,3946.9631,N,08404.9527,W,1,07,1.20,303.45,M,-33.324,M,,*79
2017-11-15 19:07:44 1510790864.346207: $GPRMC,000743,A,3946.9631,N,08404.9527,W,1.1391,143.662,161117,,*35
2017-11-15 19:07:44 1510790864.346267: $GPGSA,A,3,32,14,29,26,31,16,22,,,,,,3.4,1.2,2.9*33
2017-11-15 19:07:45 1510790865.681434: $GPGSV,3,1,12,32,44,097,23,14,62,076,23,29,07,081,15,26,42,175,22*77
2017-11-15 19:07:45 1510790865.681568: $GPGSV,3,2,12,31,75,001,28,16,12,190,17,22,48,286,27,03,33,309,00*76
2017-11-15 19:07:45 1510790865.681687: $GPGSV,3,3,12,25,25,045,00,01,11,261,00,10,07,159,00,120,07,103,00*42
2017-11-15 19:07:45 1510790865.794799: $GPZDA,000744.00,16,11,2017,00,00*62
2017-11-15 19:07:45 1510790865.794965: $GPGGA,000744,3946.9628,N,08404.9528,W,1,07,1.20,304.22,M,-33.324,M,,*7F
2017-11-15 19:07:45 1510790865.795026: $GPRMC,000744,A,3946.9628,N,08404.9528,W,1.0002,154.331,161117,,*38
2017-11-15 19:07:45 1510790865.795083: $GPGSA,A,3,32,14,29,26,31,16,22,,,,,,3.4,1.2,2.9*33
2017-11-15 19:07:46 1510790866.420505: $GPZDA,000745.00,16,11,2017,00,00*63
2017-11-15 19:07:46 1510790866.420674: $GPGGA,000745,3946.9624,N,08404.9528,W,1,07,1.20,303.58,M,-33.324,M,,*78
2017-11-15 19:07:46 1510790866.420735: $GPRMC,000745,A,3946.9624,N,08404.9528,W,0.5857,158.291,161117,,*3E
2017-11-15 19:07:46 1510790866.420792: $GPGSA,A,3,32,14,29,26,31,16,22,,,,,,3.4,1.2,2.9*33
2017-11-15 19:07:47 1510790867.346325: $GPZDA,000746.00,16,11,2017,00,00*60
2017-11-15 19:07:47 1510790867.346495: $GPGGA,000746,3946.9624,N,08404.9528,W,1,07,1.20,303.58,M,-33.324,M,,*7B
2017-11-15 19:07:47 1510790867.346556: $GPRMC,000746,A,3946.9624,N,08404.9528,W,0.8709,183.298,161117,,*3B
2017-11-15 19:07:47 1510790867.346612: $GPGSA,A,3,32,14,29,26,31,16,22,,,,,,3.4,1.2,2.9*33
