2017-12-31 16:46:15 1514756775.050255: {"class":"VERSION","release":"3.16","rev":"3.16-4","proto_major":3,"proto_minor":11}
2017-12-31 16:46:15 1514756775.050621: {"class":"DEVICES","devices":[{"class":"DEVICE","path":"/dev/ttyUSB0","driver":"SiRF","activated":"2017-12-31T21:46:14.659Z","flags":1,"native":1,"bps":4800,"parity":"N","stopbits":1,"cycle":1.00}]}
2017-12-31 16:46:15 1514756775.050719: {"class":"WATCH","enable":true,"json":false,"nmea":true,"raw":0,"scaled":false,"timing":false,"split24":false,"pps":false}
2017-12-31 16:46:15 1514756775.696724: $GPGSV,3,1,11,22,48,250,43,23,21,306,41,25,08,037,36,03,45,283,30*73
2017-12-31 16:46:15 1514756775.696873: $GPGSV,3,2,11,16,37,189,48,29,13,063,28,31,56,043,52,14,47,106,46*73
2017-12-31 16:46:15 1514756775.696938: $GPGSV,3,3,11,32,25,117,42,26,67,160,41,135,22,240,43*7F
2017-12-31 16:46:15 1514756775.810390: $GPZDA,214616.00,31,12,2017,00,00*65
2017-12-31 16:46:15 1514756775.810556: $GPGGA,214616,3946.9576,N,08404.9848,W,2,11,0.80,303.18,M,-33.324,M,,*7C
2017-12-31 16:46:15 1514756775.810623: $GPRMC,214616,A,3946.9576,N,08404.9848,W,0.0000,0.000,311217,,*3E
2017-12-31 16:46:15 1514756775.810683: $GPGSA,A,3,22,23,25,3,16,29,31,14,32,26,135,,1.7,0.8,1.3*32
2017-12-31 16:46:16 1514756776.360923: $GPZDA,214617.00,31,12,2017,00,00*64
2017-12-31 16:46:16 1514756776.361127: $GPGGA,214617,3946.9576,N,08404.9848,W,2,11,0.80,303.18,M,-33.324,M,,*7D
2017-12-31 16:46:16 1514756776.361197: $GPRMC,214617,A,3946.9576,N,08404.9848,W,0.0000,0.000,311217,,*3F
2017-12-31 16:46:16 1514756776.361258: $GPGSA,A,3,22,23,25,3,16,29,31,14,32,26,135,,1.7,0.8,1.3*32
2017-12-31 16:46:17 1514756777.344505: $GPZDA,214618.00,31,12,2017,00,00*6B
2017-12-31 16:46:17 1514756777.344665: $GPGGA,214618,3946.9576,N,08404.9848,W,2,11,0.80,303.18,M,-33.324,M,,*72
2017-12-31 16:46:17 1514756777.344731: $GPRMC,214618,A,3946.9576,N,08404.9848,W,0.0000,0.000,311217,,*30
2017-12-31 16:46:17 1514756777.344791: $GPGSA,A,3,22,23,25,3,16,29,31,14,32,26,135,,1.7,0.8,1.3*32
2017-12-31 16:46:18 1514756778.696229: $GPGSV,3,1,11,22,48,250,43,23,21,306,41,25,08,037,36,03,45,283,31*72
2017-12-31 16:46:18 1514756778.696442: $GPGSV,3,2,11,16,37,189,48,29,13,063,28,31,56,043,52,14,47,106,46*73
2017-12-31 16:46:18 1514756778.696509: $GPGSV,3,3,11,32,25,117,42,26,67,160,41,135,22,240,43*7F
2017-12-31 16:46:18 1514756778.809615: $GPZDA,214619.00,31,12,2017,00,00*6A
2017-12-31 16:46:18 1514756778.809748: $GPGGA,214619,3946.9576,N,08404.9848,W,2,11,0.80,303.18,M,-33.324,M,,*73
2017-12-31 16:46:18 1514756778.809814: $GPRMC,214619,A,3946.9576,N,08404.9848,W,0.0000,0.000,311217,,*31
2017-12-31 16:46:18 1514756778.809874: $GPGSA,A,3,22,23,25,3,16,29,31,14,32,26,135,,1.7,0.8,1.3*32
2017-12-31 16:46:19 1514756779.337012: $GPZDA,214620.00,31,12,2017,00,00*60
2017-12-31 16:46:19 1514756779.337224: $GPGGA,214620,3946.9576,N,08404.9848,W,2,11,0.80,303.18,M,-33.324,M,,*79
2017-12-31 16:46:19 1514756779.337313: $GPRMC,214620,A,3946.9576,N,08404.9848,W,0.0000,0.000,311217,,*3B
2017-12-31 16:46:19 1514756779.337376: $GPGSA,A,3,22,23,25,3,16,29,31,14,32,26,135,,1.7,0.8,1.3*32
2017-12-31 16:46:20 1514756780.336120: $GPZDA,214621.00,31,12,2017,00,00*61
2017-12-31 16:46:20 1514756780.336305: $GPGGA,214621,3946.9576,N,08404.9848,W,2,11,0.80,303.18,M,-33.324,M,,*78
2017-12-31 16:46:20 1514756780.336398: $GPRMC,214621,A,3946.9576,N,08404.9848,W,0.0000,0.000,311217,,*3A
2017-12-31 16:46:20 1514756780.336462: $GPGSA,A,3,22,23,25,3,16,29,31,14,32,26,135,,1.7,0.8,1.3*32
2017-12-31 16:46:21 1514756781.680315: $GPGSV,3,1,11,22,48,250,43,23,21,306,41,25,08,037,36,03,45,283,36*75
2017-12-31 16:46:21 1514756781.680503: $GPGSV,3,2,11,16,37,189,48,29,13,063,29,31,56,043,52,14,47,106,46*72
2017-12-31 16:46:21 1514756781.680569: $GPGSV,3,3,11,32,25,117,43,26,67,160,41,135,22,240,44*79
2017-12-31 16:46:21 1514756781.792674: $GPZDA,214622.00,31,12,2017,00,00*62
2017-12-31 16:46:21 1514756781.792831: $GPGGA,214622,3946.9576,N,08404.9848,W,2,11,0.80,303.18,M,-33.324,M,,*7B
2017-12-31 16:46:21 1514756781.792898: $GPRMC,214622,A,3946.9576,N,08404.9848,W,0.0000,0.000,311217,,*39
2017-12-31 16:46:21 1514756781.793011: $GPGSA,A,3,22,23,25,3,16,29,31,14,32,26,135,,1.7,0.8,1.3*32
2017-12-31 16:46:22 1514756782.361099: $GPZDA,214623.00,31,12,2017,00,00*63
2017-12-31 16:46:22 1514756782.361316: $GPGGA,214623,3946.9576,N,08404.9848,W,2,11,0.80,303.18,M,-33.324,M,,*7A
2017-12-31 16:46:22 1514756782.361401: $GPRMC,214623,A,3946.9576,N,08404.9848,W,0.0000,0.000,311217,,*38
2017-12-31 16:46:22 1514756782.361463: $GPGSA,A,3,22,23,25,3,16,29,31,14,32,26,135,,1.7,0.8,1.3*32
2017-12-31 16:46:23 1514756783.360644: $GPZDA,214624.00,31,12,2017,00,00*64
2017-12-31 16:46:23 1514756783.360807: $GPGGA,214624,3946.9576,N,08404.9848,W,2,11,0.80,303.18,M,-33.324,M,,*7D
2017-12-31 16:46:23 1514756783.360873: $GPRMC,214624,A,3946.9576,N,08404.9848,W,0.0000,0.000,311217,,*3F
2017-12-31 16:46:23 1514756783.360934: $GPGSA,A,3,22,23,25,3,16,29,31,14,32,26,135,,1.7,0.8,1.3*32
2017-12-31 16:46:24 1514756784.678718: $GPGSV,3,1,11,22,48,250,44,23,21,306,42,25,08,037,36,03,45,283,36*71
2017-12-31 16:46:24 1514756784.678887: $GPGSV,3,2,11,16,37,189,48,29,13,063,29,31,56,043,52,14,47,106,46*72
2017-12-31 16:46:24 1514756784.678954: $GPGSV,3,3,11,32,25,117,43,26,67,160,41,135,22,240,43*7E
2017-12-31 16:46:24 1514756784.792444: $GPZDA,214625.00,31,12,2017,00,00*65
2017-12-31 16:46:24 1514756784.792591: $GPGGA,214625,3946.9576,N,08404.9848,W,2,11,0.80,303.18,M,-33.324,M,,*7C
2017-12-31 16:46:24 1514756784.792656: $GPRMC,214625,A,3946.9576,N,08404.9848,W,0.0000,0.000,311217,,*3E
2017-12-31 16:46:24 1514756784.792717: $GPGSA,A,3,22,23,25,3,16,29,31,14,32,26,135,,1.7,0.8,1.3*32
