2017-11-16 14:48:26 1510861706.938793: {"class":"VERSION","release":"3.17","rev":"3.17","proto_major":3,"proto_minor":12}
2017-11-16 14:48:26 1510861706.939310: {"class":"DEVICES","devices":[{"class":"DEVICE","path":"/dev/ttyUSB0","driver":"SiRF","subtype":"9\u0006GSD4e_4.1.2-P1_RPATCH.05-F-GPS-4R-1510281 11/03/2015 307","activated":"2017-11-16T19:48:26.632Z","flags":1,"native":1,"bps":4800,"parity":"N","stopbits":1,"cycle":1.00}]}
2017-11-16 14:48:26 1510861706.939468: {"class":"WATCH","enable":true,"json":false,"nmea":true,"raw":0,"scaled":false,"timing":false,"split24":false,"pps":false}
2017-11-16 14:48:27 1510861707.826896: $GPGSV,3,1,11,08,08,309,25,10,53,313,50,15,25,058,50,18,77,027,44*72
2017-11-16 14:48:27 1510861707.827079: $GPGSV,3,2,11,21,48,183,47,20,22,106,44,24,53,084,49,27,15,274,44*7A
2017-11-16 14:48:27 1510861707.827140: $GPGSV,3,3,11,32,32,249,46,14,16,241,42,138,38,213,44*76
2017-11-16 14:48:27 1510861707.941685: $GPZDA,194826.00,16,11,2017,00,00*65
2017-11-16 14:48:27 1510861707.941991: $GPGGA,194826,3946.9568,N,08404.9842,W,2,11,0.80,303.38,M,-33.324,M,,*7D
2017-11-16 14:48:27 1510861707.942109: $GPRMC,194826,A,3946.9568,N,08404.9842,W,0.0000,0.000,161117,,*3B
2017-11-16 14:48:27 1510861707.942206: $GPGSA,A,3,8,10,15,18,21,20,24,27,32,14,138,,1.6,0.8,1.3*37
2017-11-16 14:48:28 1510861708.528335: $GPZDA,194827.00,16,11,2017,00,00*64
2017-11-16 14:48:28 1510861708.528515: $GPGGA,194827,3946.9568,N,08404.9842,W,2,11,0.80,303.38,M,-33.324,M,,*7C
2017-11-16 14:48:28 1510861708.528577: $GPRMC,194827,A,3946.9568,N,08404.9842,W,0.0000,0.000,161117,,*3A
2017-11-16 14:48:28 1510861708.528633: $GPGSA,A,3,8,10,15,18,21,20,24,27,32,14,138,,1.6,0.8,1.3*37
2017-11-16 14:48:29 1510861709.491223: $GPZDA,194828.00,16,11,2017,00,00*6B
2017-11-16 14:48:29 1510861709.491402: $GPGGA,194828,3946.9568,N,08404.9842,W,2,11,0.80,303.38,M,-33.324,M,,*73
2017-11-16 14:48:29 1510861709.491464: $GPRMC,194828,A,3946.9568,N,08404.9842,W,0.0000,0.000,161117,,*35
2017-11-16 14:48:29 1510861709.491520: $GPGSA,A,3,8,10,15,18,21,20,24,27,32,14,138,,1.6,0.8,1.3*37
2017-11-16 14:48:30 1510861710.823214: $GPGSV,3,1,11,08,08,309,26,10,53,313,50,15,25,058,50,18,77,027,44*71
2017-11-16 14:48:30 1510861710.823388: $GPGSV,3,2,11,21,48,183,47,20,22,106,44,24,53,084,49,27,15,274,44*7A
2017-11-16 14:48:30 1510861710.823467: $GPGSV,3,3,11,32,32,249,46,14,16,241,42,138,38,213,43*71
2017-11-16 14:48:30 1510861710.936570: $GPZDA,194829.00,16,11,2017,00,00*6A
2017-11-16 14:48:30 1510861710.936790: $GPGGA,194829,3946.9568,N,08404.9842,W,2,11,0.80,303.38,M,-33.324,M,,*72
2017-11-16 14:48:30 1510861710.936870: $GPRMC,194829,A,3946.9568,N,08404.9842,W,0.0000,0.000,161117,,*34
2017-11-16 14:48:30 1510861710.936929: $GPGSA,A,3,8,10,15,18,21,20,24,27,32,14,138,,1.6,0.8,1.3*37
2017-11-16 14:48:31 1510861711.527576: $GPZDA,194830.00,16,11,2017,00,00*62
2017-11-16 14:48:31 1510861711.527756: $GPGGA,194830,3946.9568,N,08404.9842,W,2,11,0.80,303.38,M,-33.324,M,,*7A
2017-11-16 14:48:31 1510861711.527817: $GPRMC,194830,A,3946.9568,N,08404.9842,W,0.0000,0.000,161117,,*3C
2017-11-16 14:48:31 1510861711.527890: $GPGSA,A,3,8,10,15,18,21,20,24,27,32,14,138,,1.6,0.8,1.3*37
2017-11-16 14:48:32 1510861712.528233: $GPZDA,194831.00,16,11,2017,00,00*63
2017-11-16 14:48:32 1510861712.528426: $GPGGA,194831,3946.9568,N,08404.9842,W,2,11,0.80,303.38,M,-33.324,M,,*7B
2017-11-16 14:48:32 1510861712.528531: $GPRMC,194831,A,3946.9568,N,08404.9842,W,0.0000,0.000,161117,,*3D
2017-11-16 14:48:32 1510861712.528592: $GPGSA,A,3,8,10,15,18,21,20,24,27,32,14,138,,1.6,0.8,1.3*37
2017-11-16 14:48:33 1510861713.863992: $GPGSV,3,1,11,08,08,309,31,10,53,313,50,15,25,058,50,18,77,027,44*77
2017-11-16 14:48:33 1510861713.864176: $GPGSV,3,2,11,21,48,183,47,20,22,106,44,24,53,084,49,27,15,274,43*7D
2017-11-16 14:48:33 1510861713.864237: $GPGSV,3,3,11,32,32,249,46,14,16,241,42,138,38,213,44*76
2017-11-16 14:48:33 1510861713.977253: $GPZDA,194832.00,16,11,2017,00,00*60
2017-11-16 14:48:33 1510861713.977450: $GPGGA,194832,3946.9568,N,08404.9842,W,2,11,0.80,303.38,M,-33.324,M,,*78
2017-11-16 14:48:33 1510861713.977584: $GPRMC,194832,A,3946.9568,N,08404.9842,W,0.0000,0.000,161117,,*3E
2017-11-16 14:48:33 1510861713.977659: $GPGSA,A,3,8,10,15,18,21,20,24,27,32,14,138,,1.6,0.8,1.3*37
2017-11-16 14:48:34 1510861714.602712: $GPZDA,194833.00,16,11,2017,00,00*61
2017-11-16 14:48:34 1510861714.602887: $GPGGA,194833,3946.9568,N,08404.9842,W,2,11,0.80,303.38,M,-33.324,M,,*79
2017-11-16 14:48:34 1510861714.602949: $GPRMC,194833,A,3946.9568,N,08404.9842,W,0.0000,0.000,161117,,*3F
2017-11-16 14:48:34 1510861714.603005: $GPGSA,A,3,8,10,15,18,21,20,24,27,32,14,138,,1.6,0.8,1.3*37
2017-11-16 14:48:35 1510861715.528586: $GPZDA,194834.00,16,11,2017,00,00*66
2017-11-16 14:48:35 1510861715.528794: $GPGGA,194834,3946.9568,N,08404.9842,W,2,11,0.80,303.38,M,-33.324,M,,*7E
2017-11-16 14:48:35 1510861715.528857: $GPRMC,194834,A,3946.9568,N,08404.9842,W,0.0000,0.000,161117,,*38
2017-11-16 14:48:35 1510861715.528913: $GPGSA,A,3,8,10,15,18,21,20,24,27,32,14,138,,1.6,0.8,1.3*37
2017-11-16 14:48:36 1510861716.822750: $GPGSV,3,1,11,08,08,307,32,10,55,313,49,15,24,058,50,18,77,033,44*70
2017-11-16 14:48:36 1510861716.822917: $GPGSV,3,2,11,21,46,183,47,20,21,108,44,24,53,081,48,27,14,273,43*7C
2017-11-16 14:48:36 1510861716.822978: $GPGSV,3,3,11,32,33,250,46,14,17,241,42,138,38,213,44*7E
2017-11-16 14:48:36 1510861716.935858: $GPZDA,194835.00,16,11,2017,00,00*67
2017-11-16 14:48:36 1510861716.936020: $GPGGA,194835,3946.9568,N,08404.9842,W,2,11,0.80,303.38,M,-33.324,M,,*7F
2017-11-16 14:48:36 1510861716.936082: $GPRMC,194835,A,3946.9568,N,08404.9842,W,0.0000,0.000,161117,,*39
2017-11-16 14:48:36 1510861716.936138: $GPGSA,A,3,8,10,15,18,21,20,24,27,32,14,138,,1.6,0.8,1.3*37
