2017-12-14 11:55:49 1513270549.003592: {"class":"VERSION","release":"3.16","rev":"3.16-4","proto_major":3,"proto_minor":11}
2017-12-14 11:55:49 1513270549.003951: {"class":"DEVICES","devices":[{"class":"DEVICE","path":"/dev/ttyUSB0","driver":"SiRF","subtype":"9\u0006GSD4e_4.1.2-P1_RPATCH.05-F-GPS-4R-1510281 11/03/2015 307","activated":"2017-12-14T16:55:48.428Z","flags":1,"native":1,"bps":4800,"parity":"N","stopbits":1,"cycle":1.00}]}
2017-12-14 11:55:49 1513270549.004069: {"class":"WATCH","enable":true,"json":false,"nmea":true,"raw":0,"scaled":false,"timing":false,"split24":false,"pps":false}
2017-12-14 11:55:49 1513270549.715472: $GPRMC,165550,V,18000.0000,N,00000.0000,W,0.0000,0.000,141217,,*13
2017-12-14 11:55:49 1513270549.715644: $GPGSA,A,1,20,24,15,21,18,10,,,,,,,,,,*39
2017-12-14 11:55:50 1513270550.671345: $GPRMC,165551,V,3946.9618,N,08404.9522,W,0.0000,0.000,141217,,*21
2017-12-14 11:55:50 1513270550.671494: $GPGSA,A,1,20,24,15,21,18,10,,,,,,,,,,*39
2017-12-14 11:55:51 1513270551.867365: $GPGSV,3,1,10,20,41,087,26,15,46,049,21,24,45,124,19,18,65,319,00*77
2017-12-14 11:55:51 1513270551.867537: $GPGSV,3,2,10,10,34,294,00,27,19,300,00,13,16,046,00,32,13,232,00*79
2017-12-14 11:55:51 1513270551.867603: $GPGSV,3,3,10,21,73,201,00,08,02,330,00*76
2017-12-14 11:55:51 1513270551.979713: $GPRMC,165552,V,3946.9618,N,08404.9522,W,0.0000,0.000,141217,,*22
2017-12-14 11:55:51 1513270551.979882: $GPGSA,A,1,20,15,24,,,,,,,,,,,,,*32
2017-12-14 11:55:52 1513270552.529838: $GPRMC,165553,V,3946.9618,N,08404.9522,W,0.0000,0.000,141217,,*23
2017-12-14 11:55:52 1513270552.529996: $GPGSA,A,1,20,15,24,,,,,,,,,,,,,*32
2017-12-14 11:55:53 1513270553.529964: $GPRMC,165554,V,3946.9618,N,08404.9522,W,0.0000,0.000,141217,,*24
2017-12-14 11:55:53 1513270553.530137: $GPGSA,A,1,20,15,24,,,,,,,,,,,,,*32
2017-12-14 11:55:54 1513270554.866777: $GPGSV,3,1,10,20,41,087,26,15,46,049,21,24,45,124,19,18,65,319,00*77
2017-12-14 11:55:54 1513270554.866966: $GPGSV,3,2,10,10,34,294,00,27,19,300,00,13,16,046,00,32,13,232,00*79
2017-12-14 11:55:54 1513270554.867032: $GPGSV,3,3,10,21,73,201,00,08,02,330,00*76
2017-12-14 11:55:54 1513270554.979294: $GPRMC,165555,V,3946.9618,N,08404.9522,W,0.0000,0.000,141217,,*25
2017-12-14 11:55:54 1513270554.979464: $GPGSA,A,1,20,15,24,,,,,,,,,,,,,*32
2017-12-14 11:55:55 1513270555.530345: $GPRMC,165556,V,3946.9618,N,08404.9522,W,0.0000,0.000,141217,,*26
2017-12-14 11:55:55 1513270555.530519: $GPGSA,A,1,20,15,24,,,,,,,,,,,,,*32
2017-12-14 11:55:56 1513270556.530453: $GPRMC,165557,V,3946.9618,N,08404.9522,W,0.0000,0.000,141217,,*27
2017-12-14 11:55:56 1513270556.530602: $GPGSA,A,1,20,15,24,,,,,,,,,,,,,*32
2017-12-14 11:55:57 1513270557.867795: $GPGSV,3,1,10,20,41,087,26,15,46,049,21,24,45,124,19,18,65,319,00*77
2017-12-14 11:55:57 1513270557.868002: $GPGSV,3,2,10,10,34,294,00,27,19,300,00,13,16,046,00,32,13,232,00*79
2017-12-14 11:55:57 1513270557.868071: $GPGSV,3,3,10,21,73,201,00,08,02,330,00*76
2017-12-14 11:55:57 1513270557.980072: $GPRMC,165558,V,3946.9618,N,08404.9522,W,0.0000,0.000,141217,,*28
2017-12-14 11:55:57 1513270557.980239: $GPGSA,A,1,20,15,24,,,,,,,,,,,,,*32
2017-12-14 11:55:58 1513270558.235135: $GPZDA,165558.90,14,12,2017,00,00*67
2017-12-14 11:55:58 1513270558.235308: $GPGGA,165558,3946.9608,N,08404.9431,W,1,03,1.80,355.42,M,-33.324,M,,*75
2017-12-14 11:55:58 1513270558.235375: $GPRMC,165558,A,3946.9608,N,08404.9431,W,0.9829,353.197,141217,,*3D
2017-12-14 11:55:58 1513270558.235437: $GPGSA,A,3,20,15,24,,,,,,,,,,6.6,1.8,6.2*3F
2017-12-14 11:55:58 1513270558.235493: $GPGBS,165558,24.66,M,21.80,M,143.40,M*3B
2017-12-14 11:55:59 1513270559.074912: $GPZDA,165559.40,14,12,2017,00,00*6B
2017-12-14 11:55:59 1513270559.075088: $GPGGA,165559,3946.9596,N,08404.9355,W,1,03,1.80,355.01,M,-33.324,M,,*72
2017-12-14 11:55:59 1513270559.075155: $GPRMC,165559,A,3946.9596,N,08404.9355,W,1.1550,286.359,141217,,*3E
2017-12-14 11:55:59 1513270559.075216: $GPGSA,A,3,20,15,24,,,,,,,,,,6.6,1.8,6.2*3F
2017-12-14 11:55:59 1513270559.075272: $GPGBS,165559,24.66,M,21.80,M,143.40,M*3A
2017-12-14 11:55:59 1513270559.665926: $GPGSV,3,1,11,20,41,087,26,15,46,049,21,24,45,124,18,10,34,294,14*7A
2017-12-14 11:56:00 1513270560.372192: $GPGSV,3,2,11,18,65,319,00,27,19,300,00,13,16,046,00,32,13,232,00*70
2017-12-14 11:56:00 1513270560.372352: $GPGSV,3,3,11,21,73,201,00,08,02,330,00,138,38,213,00*76
2017-12-14 11:56:00 1513270560.372472: $GPZDA,165559.91,14,12,2017,00,00*67
2017-12-14 11:56:00 1513270560.372532: $GPGGA,165559,3946.9599,N,08404.9340,W,1,04,1.80,354.40,M,-33.324,M,,*7A
2017-12-14 11:56:00 1513270560.372594: $GPRMC,165559,A,3946.9599,N,08404.9340,W,0.6542,293.529,141217,,*35
2017-12-14 11:56:00 1513270560.372655: $GPGSA,A,3,20,15,24,10,,,,,,,,,6.6,1.8,6.2*3E
2017-12-14 11:56:00 1513270560.372711: $GPZDA,165601.00,14,12,2017,00,00*61
2017-12-14 11:56:00 1513270560.372763: $GPGGA,165601,3946.9602,N,08404.9339,W,1,04,1.80,353.64,M,-33.324,M,,*7A
2017-12-14 11:56:00 1513270560.372827: $GPRMC,165601,A,3946.9602,N,08404.9339,W,0.3954,302.606,141217,,*3D
2017-12-14 11:56:00 1513270560.372887: $GPGSA,A,3,20,15,24,10,,,,,,,,,6.6,1.8,6.2*3E
2017-12-14 11:56:01 1513270561.136090: $GPZDA,165602.00,14,12,2017,00,00*62
2017-12-14 11:56:01 1513270561.136246: $GPGGA,165602,3946.9598,N,08404.9339,W,1,04,1.80,353.00,M,-33.324,M,,*7B
2017-12-14 11:56:01 1513270561.136313: $GPRMC,165602,A,3946.9598,N,08404.9339,W,0.6062,219.207,141217,,*39
2017-12-14 11:56:01 1513270561.136374: $GPGSA,A,3,20,15,24,10,,,,,,,,,6.6,1.8,6.2*3E
2017-12-14 11:56:02 1513270562.472003: $GPGSV,3,1,11,20,41,087,26,15,46,049,21,24,45,124,18,10,34,294,14*7A
2017-12-14 11:56:02 1513270562.472220: $GPGSV,3,2,11,18,65,319,00,27,19,300,00,13,16,046,00,32,13,232,00*70
2017-12-14 11:56:02 1513270562.472289: $GPGSV,3,3,11,21,73,201,00,08,02,330,00,138,38,213,00*76
2017-12-14 11:56:02 1513270562.585688: $GPZDA,165603.00,14,12,2017,00,00*63
2017-12-14 11:56:02 1513270562.585864: $GPGGA,165603,3946.9598,N,08404.9339,W,1,04,1.80,353.00,M,-33.324,M,,*7A
2017-12-14 11:56:02 1513270562.585934: $GPRMC,165603,A,3946.9598,N,08404.9339,W,0.6102,259.396,141217,,*32
2017-12-14 11:56:02 1513270562.585994: $GPGSA,A,3,20,15,24,10,,,,,,,,,6.6,1.8,6.2*3E
2017-12-14 11:56:03 1513270563.136542: $GPZDA,165604.00,14,12,2017,00,00*64
2017-12-14 11:56:03 1513270563.136707: $GPGGA,165604,3946.9598,N,08404.9345,W,1,04,1.80,351.51,M,-33.324,M,,*70
2017-12-14 11:56:03 1513270563.136774: $GPRMC,165604,A,3946.9598,N,08404.9345,W,0.8947,224.296,141217,,*32
2017-12-14 11:56:03 1513270563.136837: $GPGSA,A,3,20,15,24,10,,,,,,,,,6.6,1.8,6.2*3E
2017-12-14 11:56:04 1513270564.136612: $GPZDA,165605.00,14,12,2017,00,00*65
2017-12-14 11:56:04 1513270564.136781: $GPGGA,165605,3946.9595,N,08404.9353,W,1,04,1.80,352.20,M,-33.324,M,,*7E
2017-12-14 11:56:04 1513270564.136850: $GPRMC,165605,A,3946.9595,N,08404.9353,W,0.7722,234.019,141217,,*3F
2017-12-14 11:56:04 1513270564.136915: $GPGSA,A,3,20,15,24,10,,,,,,,,,6.6,1.8,6.2*3E
2017-12-14 11:56:05 1513270565.472679: $GPGSV,3,1,11,20,41,087,26,15,46,049,21,24,45,124,17,10,34,294,13*72
2017-12-14 11:56:05 1513270565.472861: $GPGSV,3,2,11,18,65,319,00,27,19,300,00,13,16,046,00,32,13,232,00*70
2017-12-14 11:56:05 1513270565.472929: $GPGSV,3,3,11,21,73,201,00,08,02,330,00,138,38,213,00*76
2017-12-14 11:56:05 1513270565.585105: $GPZDA,165606.00,14,12,2017,00,00*66
2017-12-14 11:56:05 1513270565.585278: $GPGGA,165606,3946.9592,N,08404.9361,W,1,04,1.80,352.89,M,-33.324,M,,*78
2017-12-14 11:56:05 1513270565.585344: $GPRMC,165606,A,3946.9592,N,08404.9361,W,0.6607,173.468,141217,,*3F
2017-12-14 11:56:05 1513270565.585406: $GPGSA,A,3,20,15,24,10,,,,,,,,,6.6,1.8,6.2*3E
2017-12-14 11:56:06 1513270566.137769: $GPZDA,165607.00,14,12,2017,00,00*67
2017-12-14 11:56:06 1513270566.137948: $GPGGA,165607,3946.9592,N,08404.9368,W,1,04,1.80,352.81,M,-33.324,M,,*78
2017-12-14 11:56:06 1513270566.138016: $GPRMC,165607,A,3946.9592,N,08404.9368,W,0.6263,175.412,141217,,*3A
2017-12-14 11:56:06 1513270566.138077: $GPGSA,A,3,20,15,24,10,,,,,,,,,6.6,1.8,6.2*3E
2017-12-14 11:56:07 1513270567.136496: $GPZDA,165608.00,14,12,2017,00,00*68
2017-12-14 11:56:07 1513270567.136663: $GPGGA,165608,3946.9588,N,08404.9368,W,1,04,1.80,353.57,M,-33.324,M,,*76
2017-12-14 11:56:07 1513270567.136785: $GPRMC,165608,A,3946.9588,N,08404.9368,W,0.4405,173.468,141217,,*31
2017-12-14 11:56:07 1513270567.136849: $GPGSA,A,3,20,15,24,10,,,,,,,,,6.6,1.8,6.2*3E
2017-12-14 11:56:07 1513270567.136909: $GPGBS,165608,24.66,M,21.80,M,143.40,M*3D
2017-12-14 11:56:08 1513270568.472029: $GPGSV,3,1,11,20,41,087,26,15,46,049,22,24,45,124,16,10,34,294,14*77
2017-12-14 11:56:08 1513270568.472292: $GPGSV,3,2,11,18,65,319,00,27,19,300,00,13,16,046,00,32,13,232,00*70
2017-12-14 11:56:08 1513270568.472358: $GPGSV,3,3,11,21,73,201,00,08,02,330,00,138,38,213,00*76
2017-12-14 11:56:08 1513270568.585556: $GPZDA,165609.00,14,12,2017,00,00*69
2017-12-14 11:56:08 1513270568.585710: $GPGGA,165609,3946.9592,N,08404.9375,W,1,04,1.80,352.73,M,-33.324,M,,*77
2017-12-14 11:56:08 1513270568.585777: $GPRMC,165609,A,3946.9592,N,08404.9375,W,0.1176,39.708,141217,,*09
2017-12-14 11:56:08 1513270568.585839: $GPGSA,A,3,20,15,24,10,,,,,,,,,6.6,1.8,6.2*3E
