2018-01-11 20:29:45 1515720585.396847: {"class":"VERSION","release":"3.16","rev":"3.16-4","proto_major":3,"proto_minor":11}
2018-01-11 20:29:45 1515720585.397205: {"class":"DEVICES","devices":[{"class":"DEVICE","path":"/dev/ttyUSB0","driver":"SiRF","subtype":"9\u0006GSD4e_4.1.2-P1_RPATCH.05-F-GPS-4R-1510281 11/03/2015 307","activated":"2018-01-12T01:29:45.393Z","flags":1,"native":1,"bps":4800,"parity":"N","stopbits":1,"cycle":1.00}]}
2018-01-11 20:29:45 1515720585.397321: {"class":"WATCH","enable":true,"json":false,"nmea":true,"raw":0,"scaled":false,"timing":false,"split24":false,"pps":false}
2018-01-11 20:29:46 1515720586.355420: $GPZDA,012947.00,12,01,2018,00,00*66
2018-01-11 20:29:46 1515720586.355592: $GPGGA,012947,3946.9578,N,08404.9844,W,2,10,0.80,307.47,M,-33.324,M,,*7E
2018-01-11 20:29:46 1515720586.355664: $GPRMC,012947,A,3946.9578,N,08404.9844,W,0.0000,0.000,120118,,*3F
2018-01-11 20:29:46 1515720586.355726: $GPGSA,A,3,7,8,9,11,16,23,27,28,30,138,,,4.0,0.8,3.5*3E
2018-01-11 20:29:47 1515720587.689913: $GPGSV,3,1,11,07,64,316,43,08,75,094,46,09,41,220,44,11,28,165,46*7E
2018-01-11 20:29:47 1515720587.690078: $GPGSV,3,2,11,16,17,066,34,23,20,187,49,27,40,048,50,28,20,265,36*7A
2018-01-11 20:29:47 1515720587.690145: $GPGSV,3,3,11,30,36,309,36,01,05,159,00,138,38,213,45*79
2018-01-11 20:29:47 1515720587.803511: $GPZDA,012948.00,12,01,2018,00,00*69
2018-01-11 20:29:47 1515720587.803631: $GPGGA,012948,3946.9578,N,08404.9844,W,2,10,0.80,307.47,M,-33.324,M,,*71
2018-01-11 20:29:47 1515720587.803695: $GPRMC,012948,A,3946.9578,N,08404.9844,W,0.0000,0.000,120118,,*30
2018-01-11 20:29:47 1515720587.803757: $GPGSA,A,3,7,8,9,11,16,23,27,28,30,138,,,4.0,0.8,3.5*3E
2018-01-11 20:29:48 1515720588.351883: $GPZDA,012949.00,12,01,2018,00,00*68
2018-01-11 20:29:48 1515720588.352014: $GPGGA,012949,3946.9578,N,08404.9844,W,2,10,0.80,307.47,M,-33.324,M,,*70
2018-01-11 20:29:48 1515720588.352077: $GPRMC,012949,A,3946.9578,N,08404.9844,W,0.0000,0.000,120118,,*31
2018-01-11 20:29:48 1515720588.352138: $GPGSA,A,3,7,8,9,11,16,23,27,28,30,138,,,4.0,0.8,3.5*3E
2018-01-11 20:29:49 1515720589.356057: $GPZDA,012950.00,12,01,2018,00,00*60
2018-01-11 20:29:49 1515720589.356214: $GPGGA,012950,3946.9581,N,08404.9842,W,2,10,0.80,305.30,M,-33.324,M,,*7A
2018-01-11 20:29:49 1515720589.356279: $GPRMC,012950,A,3946.9581,N,08404.9842,W,0.0000,0.000,120118,,*39
2018-01-11 20:29:49 1515720589.356340: $GPGSA,A,3,7,8,9,11,16,23,27,28,30,138,,,4.0,0.8,3.5*3E
2018-01-11 20:29:50 1515720590.690282: $GPGSV,3,1,11,07,64,316,43,08,75,094,46,09,41,220,44,11,28,165,46*7E
2018-01-11 20:29:50 1515720590.690466: $GPGSV,3,2,11,16,17,066,34,23,20,187,49,27,40,048,49,28,20,265,36*72
2018-01-11 20:29:50 1515720590.690535: $GPGSV,3,3,11,30,36,309,36,01,05,159,00,138,38,213,45*79
2018-01-11 20:29:50 1515720590.803604: $GPZDA,012951.00,12,01,2018,00,00*61
2018-01-11 20:29:50 1515720590.803710: $GPGGA,012951,3946.9581,N,08404.9842,W,2,10,0.80,305.30,M,-33.324,M,,*7B
2018-01-11 20:29:50 1515720590.803774: $GPRMC,012951,A,3946.9581,N,08404.9842,W,0.0000,0.000,120118,,*38
2018-01-11 20:29:50 1515720590.803836: $GPGSA,A,3,7,8,9,11,16,23,27,28,30,138,,,4.0,0.8,3.5*3E
2018-01-11 20:29:51 1515720591.353495: $GPZDA,012952.00,12,01,2018,00,00*62
2018-01-11 20:29:51 1515720591.353633: $GPGGA,012952,3946.9581,N,08404.9842,W,2,10,0.80,305.30,M,-33.324,M,,*78
2018-01-11 20:29:51 1515720591.353696: $GPRMC,012952,A,3946.9581,N,08404.9842,W,0.0000,0.000,120118,,*3B
2018-01-11 20:29:51 1515720591.353758: $GPGSA,A,3,7,8,9,11,16,23,27,28,30,138,,,4.0,0.8,3.5*3E
2018-01-11 20:29:52 1515720592.354427: $GPZDA,012953.00,12,01,2018,00,00*63
2018-01-11 20:29:52 1515720592.354599: $GPGGA,012953,3946.9581,N,08404.9842,W,2,10,0.80,305.30,M,-33.324,M,,*79
2018-01-11 20:29:52 1515720592.354664: $GPRMC,012953,A,3946.9581,N,08404.9842,W,0.0000,0.000,120118,,*3A
2018-01-11 20:29:52 1515720592.354725: $GPGSA,A,3,7,8,9,11,16,23,27,28,30,138,,,4.0,0.8,3.5*3E
2018-01-11 20:29:53 1515720593.691136: $GPGSV,3,1,11,07,64,316,43,08,75,094,46,09,41,220,43,11,28,165,46*79
2018-01-11 20:29:53 1515720593.691313: $GPGSV,3,2,11,16,17,066,35,23,20,187,49,27,40,048,49,28,20,265,36*73
2018-01-11 20:29:53 1515720593.691438: $GPGSV,3,3,11,30,36,309,36,01,05,159,00,138,38,213,45*79
2018-01-11 20:29:53 1515720593.804746: $GPZDA,012954.00,12,01,2018,00,00*64
2018-01-11 20:29:53 1515720593.804860: $GPGGA,012954,3946.9581,N,08404.9842,W,2,10,0.80,305.30,M,-33.324,M,,*7E
2018-01-11 20:29:53 1515720593.804924: $GPRMC,012954,A,3946.9581,N,08404.9842,W,0.0000,0.000,120118,,*3D
2018-01-11 20:29:53 1515720593.804984: $GPGSA,A,3,7,8,9,11,16,23,27,28,30,138,,,4.0,0.8,3.5*3E
2018-01-11 20:29:54 1515720594.430239: $GPZDA,012955.00,12,01,2018,00,00*65
2018-01-11 20:29:54 1515720594.430401: $GPGGA,012955,3946.9581,N,08404.9842,W,2,10,0.80,305.30,M,-33.324,M,,*7F
2018-01-11 20:29:54 1515720594.430467: $GPRMC,012955,A,3946.9581,N,08404.9842,W,0.0000,0.000,120118,,*3C
2018-01-11 20:29:54 1515720594.430532: $GPGSA,A,3,7,8,9,11,16,23,27,28,30,138,,,4.0,0.8,3.5*3E
2018-01-11 20:29:55 1515720595.356029: $GPZDA,012956.00,12,01,2018,00,00*66
2018-01-11 20:29:55 1515720595.356194: $GPGGA,012956,3946.9581,N,08404.9842,W,2,10,0.80,305.30,M,-33.324,M,,*7C
2018-01-11 20:29:55 1515720595.356262: $GPRMC,012956,A,3946.9581,N,08404.9842,W,0.0000,0.000,120118,,*3F
2018-01-11 20:29:55 1515720595.356324: $GPGSA,A,3,7,8,9,11,16,23,27,28,30,138,,,4.0,0.8,3.5*3E
2018-01-11 20:29:56 1515720596.687739: $GPGSV,3,1,11,07,64,316,43,08,75,094,46,09,41,220,43,11,28,165,46*79
2018-01-11 20:29:56 1515720596.687916: $GPGSV,3,2,11,16,17,066,35,23,20,187,49,27,40,048,49,28,20,265,36*73
2018-01-11 20:29:56 1515720596.687983: $GPGSV,3,3,11,30,36,309,35,01,05,159,00,138,38,213,45*7A
2018-01-11 20:29:56 1515720596.801347: $GPZDA,012957.00,12,01,2018,00,00*67
2018-01-11 20:29:56 1515720596.801463: $GPGGA,012957,3946.9581,N,08404.9842,W,2,10,0.80,305.30,M,-33.324,M,,*7D
2018-01-11 20:29:56 1515720596.801530: $GPRMC,012957,A,3946.9581,N,08404.9842,W,0.0000,0.000,120118,,*3E
2018-01-11 20:29:56 1515720596.801594: $GPGSA,A,3,7,8,9,11,16,23,27,28,30,138,,,4.0,0.8,3.5*3E
2018-01-11 20:29:57 1515720597.358499: $GPZDA,012958.00,12,01,2018,00,00*68
2018-01-11 20:29:57 1515720597.358645: $GPGGA,012958,3946.9581,N,08404.9842,W,2,10,0.80,305.30,M,-33.324,M,,*72
2018-01-11 20:29:57 1515720597.358711: $GPRMC,012958,A,3946.9581,N,08404.9842,W,0.0000,0.000,120118,,*31
2018-01-11 20:29:57 1515720597.358771: $GPGSA,A,3,7,8,9,11,16,23,27,28,30,138,,,4.0,0.8,3.5*3E
2018-01-11 20:29:58 1515720598.368138: $GPZDA,012959.00,12,01,2018,00,00*69
2018-01-11 20:29:58 1515720598.368293: $GPGGA,012959,3946.9581,N,08404.9842,W,2,10,0.80,305.30,M,-33.324,M,,*73
2018-01-11 20:29:58 1515720598.368359: $GPRMC,012959,A,3946.9581,N,08404.9842,W,0.0000,0.000,120118,,*30
2018-01-11 20:29:58 1515720598.368419: $GPGSA,A,3,7,8,9,11,16,23,27,28,30,138,,,4.0,0.8,3.5*3E
