2017-12-01 11:32:16 1512145936.696834: {"class":"VERSION","release":"3.16","rev":"3.16-4","proto_major":3,"proto_minor":11}
2017-12-01 11:32:16 1512145936.697231: {"class":"DEVICES","devices":[{"class":"DEVICE","path":"/dev/ttyUSB0","driver":"SiRF","subtype":"9\u0006GSD4e_4.1.2-P1_RPATCH.05-F-GPS-4R-1510281 11/03/2015 307","activated":"2017-12-01T16:32:16.308Z","flags":1,"native":1,"bps":4800,"parity":"N","stopbits":1,"cycle":1.00}]}
2017-12-01 11:32:16 1512145936.697353: {"class":"WATCH","enable":true,"json":false,"nmea":true,"raw":0,"scaled":false,"timing":false,"split24":false,"pps":false}
2017-12-01 11:32:17 1512145937.186030: $GPZDA,163218.00,01,12,2017,00,00*6F
2017-12-01 11:32:17 1512145937.186209: $GPGGA,163218,3946.9546,N,08404.9808,W,2,11,0.80,301.98,M,-33.324,M,,*78
2017-12-01 11:32:17 1512145937.186278: $GPRMC,163218,A,3946.9546,N,08404.9808,W,0.0000,0.000,011217,,*33
2017-12-01 11:32:17 1512145937.186339: $GPGSA,A,3,5,10,13,15,18,20,21,24,29,27,138,,2.0,0.8,1.5*34
2017-12-01 11:32:18 1512145938.682753: $GPGSV,3,1,12,05,17,073,38,10,10,268,44,13,47,054,47,15,78,094,48*71
2017-12-01 11:32:18 1512145938.682944: $GPGSV,3,2,12,18,40,280,44,20,66,040,44,21,62,309,46,24,16,151,41*74
2017-12-01 11:32:18 1512145938.683011: $GPGSV,3,3,12,29,29,196,46,27,05,327,00,04,16,127,00,138,38,213,46*44
2017-12-01 11:32:18 1512145938.796111: $GPZDA,163219.00,01,12,2017,00,00*6E
2017-12-01 11:32:18 1512145938.796285: $GPGGA,163219,3946.9546,N,08404.9808,W,2,10,1.00,301.98,M,-33.324,M,,*71
2017-12-01 11:32:18 1512145938.796352: $GPRMC,163219,A,3946.9546,N,08404.9808,W,0.0000,0.000,011217,,*32
2017-12-01 11:32:18 1512145938.796413: $GPGSA,A,3,5,10,13,15,18,20,21,24,29,138,,,2.0,1.0,1.5*38
2017-12-01 11:32:19 1512145939.348227: $GPZDA,163220.00,01,12,2017,00,00*64
2017-12-01 11:32:19 1512145939.348405: $GPGGA,163220,3946.9553,N,08404.9820,W,2,10,0.80,298.89,M,-33.324,M,,*7D
2017-12-01 11:32:19 1512145939.348475: $GPRMC,163220,A,3946.9553,N,08404.9820,W,0.0000,0.000,011217,,*36
2017-12-01 11:32:19 1512145939.348536: $GPGSA,A,3,5,10,13,15,18,20,21,24,29,138,,,2.0,0.8,1.5*31
2017-12-01 11:32:20 1512145940.347810: $GPZDA,163221.00,01,12,2017,00,00*65
2017-12-01 11:32:20 1512145940.347987: $GPGGA,163221,3946.9553,N,08404.9813,W,2,10,0.80,298.97,M,-33.324,M,,*73
2017-12-01 11:32:20 1512145940.348053: $GPRMC,163221,A,3946.9553,N,08404.9813,W,0.0000,0.000,011217,,*37
2017-12-01 11:32:20 1512145940.348114: $GPGSA,A,3,5,10,13,15,18,20,21,24,29,138,,,2.0,0.8,1.5*31
2017-12-01 11:32:20 1512145940.348172: $GPGBS,163221,2.67,M,3.86,M,8.82,M*37
2017-12-01 11:32:21 1512145941.686680: $GPGSV,3,1,12,05,17,073,37,10,10,268,44,13,47,054,47,15,78,094,48*7E
2017-12-01 11:32:21 1512145941.686860: $GPGSV,3,2,12,18,40,280,45,20,66,040,44,21,62,309,46,24,16,151,41*75
2017-12-01 11:32:21 1512145941.686928: $GPGSV,3,3,12,29,29,196,46,27,05,327,28,04,16,127,07,138,38,213,46*49
2017-12-01 11:32:21 1512145941.800078: $GPZDA,163222.00,01,12,2017,00,00*66
2017-12-01 11:32:21 1512145941.800246: $GPGGA,163222,3946.9549,N,08404.9814,W,2,11,0.80,299.74,M,-33.324,M,,*71
2017-12-01 11:32:21 1512145941.800311: $GPRMC,163222,A,3946.9549,N,08404.9814,W,0.0000,0.000,011217,,*38
2017-12-01 11:32:21 1512145941.800372: $GPGSA,A,3,5,10,13,15,18,20,21,24,29,27,138,,2.0,0.8,1.5*34
2017-12-01 11:32:22 1512145942.347472: $GPZDA,163223.00,01,12,2017,00,00*67
2017-12-01 11:32:22 1512145942.347654: $GPGGA,163223,3946.9549,N,08404.9814,W,2,11,0.80,299.74,M,-33.324,M,,*70
2017-12-01 11:32:22 1512145942.347722: $GPRMC,163223,A,3946.9549,N,08404.9814,W,0.0000,0.000,011217,,*39
2017-12-01 11:32:22 1512145942.347784: $GPGSA,A,3,5,10,13,15,18,20,21,24,29,27,138,,2.0,0.8,1.5*34
2017-12-01 11:32:23 1512145943.349313: $GPZDA,163224.00,01,12,2017,00,00*60
2017-12-01 11:32:23 1512145943.352778: $GPGGA,163224,3946.9549,N,08404.9814,W,2,11,0.80,299.74,M,-33.324,M,,*77
2017-12-01 11:32:23 1512145943.352900: $GPRMC,163224,A,3946.9549,N,08404.9814,W,0.0000,0.000,011217,,*3E
2017-12-01 11:32:23 1512145943.352965: $GPGSA,A,3,5,10,13,15,18,20,21,24,29,27,138,,2.0,0.8,1.5*34
2017-12-01 11:32:24 1512145944.682543: $GPGSV,3,1,12,05,17,073,37,10,10,268,44,13,47,054,47,15,78,094,49*7F
2017-12-01 11:32:24 1512145944.682722: $GPGSV,3,2,12,18,40,280,45,20,66,040,44,21,62,309,46,24,16,151,41*75
2017-12-01 11:32:24 1512145944.682789: $GPGSV,3,3,12,29,29,196,46,27,05,327,29,04,16,127,00,138,38,213,46*4F
2017-12-01 11:32:24 1512145944.796171: $GPZDA,163225.00,01,12,2017,00,00*61
2017-12-01 11:32:24 1512145944.796339: $GPGGA,163225,3946.9549,N,08404.9814,W,2,11,0.80,299.74,M,-33.324,M,,*76
2017-12-01 11:32:24 1512145944.796405: $GPRMC,163225,A,3946.9549,N,08404.9814,W,0.0000,0.000,011217,,*3F
2017-12-01 11:32:24 1512145944.796466: $GPGSA,A,3,5,10,13,15,18,20,21,24,29,27,138,,2.0,0.8,1.5*34
2017-12-01 11:32:25 1512145945.352294: $GPZDA,163226.00,01,12,2017,00,00*62
2017-12-01 11:32:25 1512145945.352466: $GPGGA,163226,3946.9549,N,08404.9814,W,2,11,0.80,299.74,M,-33.324,M,,*75
2017-12-01 11:32:25 1512145945.352533: $GPRMC,163226,A,3946.9549,N,08404.9814,W,0.0000,0.000,011217,,*3C
2017-12-01 11:32:25 1512145945.352594: $GPGSA,A,3,5,10,13,15,18,20,21,24,29,27,138,,2.0,0.8,1.5*34
2017-12-01 11:32:26 1512145946.348425: $GPZDA,163227.00,01,12,2017,00,00*63
2017-12-01 11:32:26 1512145946.348589: $GPGGA,163227,3946.9550,N,08404.9814,W,2,11,0.80,301.14,M,-33.324,M,,*7A
2017-12-01 11:32:26 1512145946.348656: $GPRMC,163227,A,3946.9550,N,08404.9814,W,0.0000,0.000,011217,,*35
2017-12-01 11:32:26 1512145946.348717: $GPGSA,A,3,5,10,13,15,18,20,21,24,29,27,138,,2.0,0.8,1.5*34
