2018-01-12 03:42:25 1515746545.538998: {"class":"VERSION","release":"3.16","rev":"3.16-4","proto_major":3,"proto_minor":11}
2018-01-12 03:42:25 1515746545.539387: {"class":"DEVICES","devices":[{"class":"DEVICE","path":"/dev/ttyUSB0","driver":"SiRF","subtype":"9\u0006GSD4e_4.1.2-P1_RPATCH.05-F-GPS-4R-1510281 11/03/2015 307","activated":"2018-01-12T08:42:25.216Z","flags":1,"native":1,"bps":4800,"parity":"N","stopbits":1,"cycle":1.00}]}
2018-01-12 03:42:25 1515746545.539503: {"class":"WATCH","enable":true,"json":false,"nmea":true,"raw":0,"scaled":false,"timing":false,"split24":false,"pps":false}
2018-01-12 03:42:25 1515746545.821499: $GPZDA,084226.51,12,01,2018,00,00*61
2018-01-12 03:42:25 1515746545.821671: $GPGGA,084226,3946.9559,N,08404.9868,W,1,10,1.00,297.57,M,-33.324,M,,*73
2018-01-12 03:42:25 1515746545.821739: $GPRMC,084226,A,3946.9559,N,08404.9868,W,0.4063,176.466,120118,,*34
2018-01-12 03:42:25 1515746545.821800: $GPGSA,A,3,2,5,6,12,17,19,25,9,23,138,,,2.4,1.0,2.1*0F
2018-01-12 03:42:25 1515746545.821858: $GPGBS,084226,11.98,M,14.47,M,47.88,M*00
2018-01-12 03:42:26 1515746546.754922: $GPZDA,084227.19,12,01,2018,00,00*6C
2018-01-12 03:42:26 1515746546.755090: $GPGGA,084227,3946.9559,N,08404.9861,W,1,10,1.00,297.65,M,-33.324,M,,*7A
2018-01-12 03:42:26 1515746546.755157: $GPRMC,084227,A,3946.9559,N,08404.9861,W,0.3155,129.994,120118,,*35
2018-01-12 03:42:26 1515746546.755218: $GPGSA,A,3,2,5,6,12,17,19,25,9,23,138,,,2.4,1.0,2.1*0F
2018-01-12 03:42:26 1515746546.755275: $GPGBS,084227,11.98,M,14.47,M,47.88,M*01
2018-01-12 03:42:28 1515746548.063709: $GPGSV,3,1,11,02,67,295,49,05,31,195,49,06,61,036,45,12,53,283,52*72
2018-01-12 03:42:28 1515746548.063879: $GPGSV,3,2,11,17,28,108,42,19,46,099,40,25,21,315,45,09,15,084,32*77
2018-01-12 03:42:28 1515746548.063944: $GPGSV,3,3,11,23,09,051,12,04,41,264,00,138,38,213,00*76
2018-01-12 03:42:28 1515746548.177033: $GPZDA,084228.00,12,01,2018,00,00*6B
2018-01-12 03:42:28 1515746548.177145: $GPGGA,084228,3946.9559,N,08404.9861,W,1,08,1.00,297.65,M,-33.324,M,,*7C
2018-01-12 03:42:28 1515746548.177209: $GPRMC,084228,A,3946.9559,N,08404.9861,W,0.2422,93.794,120118,,*00
2018-01-12 03:42:28 1515746548.177269: $GPGSA,A,3,2,5,6,12,17,19,25,9,,,,,2.4,1.0,2.1*34
2018-01-12 03:42:28 1515746548.629196: $GPZDA,084229.00,12,01,2018,00,00*6A
2018-01-12 03:42:28 1515746548.629480: $GPGGA,084229,3946.9559,N,08404.9861,W,1,08,0.80,297.65,M,-33.324,M,,*74
2018-01-12 03:42:28 1515746548.634236: $GPRMC,084229,A,3946.9559,N,08404.9861,W,0.2758,128.233,120118,,*36
2018-01-12 03:42:28 1515746548.634324: $GPGSA,A,3,2,5,6,12,17,19,25,9,,,,,2.4,0.8,2.1*3D
2018-01-12 03:42:29 1515746549.412567: $GPZDA,084230.00,12,01,2018,00,00*62
2018-01-12 03:42:29 1515746549.412725: $GPGGA,084230,3946.9566,N,08404.9853,W,1,08,0.80,297.61,M,-33.324,M,,*75
2018-01-12 03:42:29 1515746549.412791: $GPRMC,084230,A,3946.9566,N,08404.9853,W,0.0000,0.000,120118,,*32
2018-01-12 03:42:29 1515746549.412851: $GPGSA,A,3,2,5,6,12,17,19,25,9,,,,,2.4,0.8,2.1*3D
2018-01-12 03:42:30 1515746550.747829: $GPGSV,3,1,11,02,67,295,49,05,31,195,48,06,61,036,45,12,53,283,52*73
2018-01-12 03:42:30 1515746550.747984: $GPGSV,3,2,11,17,28,108,43,19,46,099,41,25,21,315,45,09,15,084,33*76
2018-01-12 03:42:30 1515746550.748050: $GPGSV,3,3,11,23,09,051,25,04,41,264,00,138,38,213,40*76
2018-01-12 03:42:30 1515746550.861164: $GPZDA,084231.00,12,01,2018,00,00*63
2018-01-12 03:42:30 1515746550.861299: $GPGGA,084231,3946.9566,N,08404.9853,W,1,10,0.80,297.61,M,-33.324,M,,*7D
2018-01-12 03:42:30 1515746550.861364: $GPRMC,084231,A,3946.9566,N,08404.9853,W,0.0000,0.000,120118,,*33
2018-01-12 03:42:30 1515746550.861424: $GPGSA,A,3,2,5,6,12,17,19,25,9,23,138,,,2.4,0.8,2.1*06
2018-01-12 03:42:31 1515746551.413268: $GPZDA,084232.00,12,01,2018,00,00*60
2018-01-12 03:42:31 1515746551.413405: $GPGGA,084232,3946.9566,N,08404.9853,W,1,10,0.80,297.61,M,-33.324,M,,*7E
2018-01-12 03:42:31 1515746551.413470: $GPRMC,084232,A,3946.9566,N,08404.9853,W,0.0000,0.000,120118,,*30
2018-01-12 03:42:31 1515746551.413531: $GPGSA,A,3,2,5,6,12,17,19,25,9,23,138,,,2.4,0.8,2.1*06
