2017-12-29 11:33:46 1514565226.506973: {"class":"VERSION","release":"3.16","rev":"3.16-4","proto_major":3,"proto_minor":11}
2017-12-29 11:33:46 1514565226.507313: {"class":"DEVICES","devices":[{"class":"DEVICE","path":"/dev/ttyUSB0","driver":"SiRF","subtype":"9\u0006GSD4e_4.1.2-P1_RPATCH.05-F-GPS-4R-1510281 11/03/2015 307","activated":"2017-12-29T16:33:46.493Z","flags":1,"native":1,"bps":4800,"parity":"N","stopbits":1,"cycle":1.00}]}
2017-12-29 11:33:46 1514565226.507426: {"class":"WATCH","enable":true,"json":false,"nmea":true,"raw":0,"scaled":false,"timing":false,"split24":false,"pps":false}
2017-12-29 11:33:47 1514565227.694591: $GPGSV,3,1,11,08,07,316,40,10,47,307,46,15,31,055,50,20,29,102,48*75
2017-12-29 11:33:47 1514565227.694755: $GPGSV,3,2,11,21,56,184,47,24,53,097,50,27,17,282,34,32,27,243,39*7A
2017-12-29 11:33:47 1514565227.694820: $GPGSV,3,3,11,14,09,235,00,13,02,051,00,138,38,213,45*75
2017-12-29 11:33:47 1514565227.806717: $GPZDA,163348.00,29,12,2017,00,00*61
2017-12-29 11:33:47 1514565227.806888: $GPGGA,163348,3946.9580,N,08404.9893,W,2,09,1.20,321.16,M,-33.324,M,,*72
2017-12-29 11:33:47 1514565227.806971: $GPRMC,163348,A,3946.9580,N,08404.9893,W,0.0000,0.000,291217,,*35
2017-12-29 11:33:47 1514565227.807032: $GPGSA,A,3,8,10,15,20,21,24,27,32,138,,,,1.7,1.2,1.3*31
2017-12-29 11:33:48 1514565228.433736: $GPZDA,163349.00,29,12,2017,00,00*60
2017-12-29 11:33:48 1514565228.433903: $GPGGA,163349,3946.9580,N,08404.9893,W,2,09,1.20,321.16,M,-33.324,M,,*73
2017-12-29 11:33:48 1514565228.433969: $GPRMC,163349,A,3946.9580,N,08404.9893,W,0.0000,0.000,291217,,*34
2017-12-29 11:33:48 1514565228.434029: $GPGSA,A,3,8,10,15,20,21,24,27,32,138,,,,1.7,1.2,1.3*31
2017-12-29 11:33:49 1514565229.355652: $GPRMC,163350,V,3946.9580,N,08404.9893,W,0.0000,0.000,291217,,*2B
2017-12-29 11:33:49 1514565229.355831: $GPGSA,A,1,8,10,15,20,21,24,27,32,138,,,,,,,*36
2017-12-29 11:33:50 1514565230.708662: $GPGSV,3,1,11,08,07,316,41,10,47,307,46,15,31,055,50,20,29,102,49*75
2017-12-29 11:33:50 1514565230.708846: $GPGSV,3,2,11,21,56,184,47,24,53,097,50,27,17,282,33,32,27,243,38*7C
2017-12-29 11:33:50 1514565230.708912: $GPGSV,3,3,11,14,09,235,00,13,02,051,00,138,38,213,45*75
2017-12-29 11:33:50 1514565230.822084: $GPZDA,163351.00,29,12,2017,00,00*69
2017-12-29 11:33:50 1514565230.822261: $GPGGA,163351,3946.9575,N,08404.9893,W,2,09,1.20,320.52,M,-33.324,M,,*71
2017-12-29 11:33:50 1514565230.822329: $GPRMC,163351,A,3946.9575,N,08404.9893,W,0.3423,4.196,291217,,*3B
2017-12-29 11:33:50 1514565230.822390: $GPGSA,A,3,8,10,15,20,21,24,27,32,138,,,,1.7,1.2,1.3*31
2017-12-29 11:33:50 1514565230.822449: $GPGBS,163351,2.73,M,2.59,M,7.72,M*37
2017-12-29 11:33:51 1514565231.369189: $GPZDA,163352.02,29,12,2017,00,00*68
2017-12-29 11:33:51 1514565231.369373: $GPGGA,163352,3946.9586,N,08404.9892,W,2,09,1.20,319.63,M,-33.324,M,,*77
2017-12-29 11:33:51 1514565231.369441: $GPRMC,163352,A,3946.9586,N,08404.9892,W,0.1567,9.200,291217,,*37
2017-12-29 11:33:51 1514565231.369503: $GPGSA,A,3,8,10,15,20,21,24,27,32,138,,,,1.7,1.2,1.3*31
2017-12-29 11:33:51 1514565231.369562: $GPGBS,163352,2.73,M,2.59,M,7.72,M*34
2017-12-29 11:33:52 1514565232.357871: $GPZDA,163353.00,29,12,2017,00,00*6B
2017-12-29 11:33:52 1514565232.358106: $GPGGA,163353,3946.9583,N,08404.9893,W,2,09,1.20,320.40,M,-33.324,M,,*79
2017-12-29 11:33:52 1514565232.358205: $GPRMC,163353,A,3946.9583,N,08404.9893,W,0.1867,180.000,291217,,*3D
2017-12-29 11:33:52 1514565232.358269: $GPGSA,A,3,8,10,15,20,21,24,27,32,138,,,,1.7,1.2,1.3*31
2017-12-29 11:33:52 1514565232.358357: $GPGBS,163353,2.73,M,2.59,M,7.72,M*35
2017-12-29 11:33:53 1514565233.702845: $GPGSV,3,1,11,08,07,316,41,10,47,307,46,15,31,055,50,20,29,102,49*75
2017-12-29 11:33:53 1514565233.703031: $GPGSV,3,2,11,21,56,184,47,24,53,097,50,27,17,282,30,32,27,243,38*7F
2017-12-29 11:33:53 1514565233.703096: $GPGSV,3,3,11,14,09,235,00,13,02,051,00,138,38,213,46*76
2017-12-29 11:33:53 1514565233.816181: $GPZDA,163354.00,29,12,2017,00,00*6C
2017-12-29 11:33:53 1514565233.816352: $GPGGA,163354,3946.9586,N,08404.9885,W,2,09,1.20,319.71,M,-33.324,M,,*74
2017-12-29 11:33:53 1514565233.816472: $GPRMC,163354,A,3946.9586,N,08404.9885,W,0.0000,0.000,291217,,*39
2017-12-29 11:33:53 1514565233.816536: $GPGSA,A,3,8,10,15,20,21,24,27,32,138,,,,1.7,1.2,1.3*31
2017-12-29 11:33:54 1514565234.356939: $GPZDA,163355.00,29,12,2017,00,00*6D
2017-12-29 11:33:54 1514565234.357129: $GPGGA,163355,3946.9586,N,08404.9885,W,2,09,1.20,319.71,M,-33.324,M,,*75
2017-12-29 11:33:54 1514565234.357198: $GPRMC,163355,A,3946.9586,N,08404.9885,W,0.0000,0.000,291217,,*38
2017-12-29 11:33:54 1514565234.357260: $GPGSA,A,3,8,10,15,20,21,24,27,32,138,,,,1.7,1.2,1.3*31
2017-12-29 11:33:55 1514565235.376663: $GPZDA,163356.00,29,12,2017,00,00*6E
2017-12-29 11:33:55 1514565235.376841: $GPGGA,163356,3946.9586,N,08404.9885,W,2,09,1.20,319.71,M,-33.324,M,,*76
2017-12-29 11:33:55 1514565235.376912: $GPRMC,163356,A,3946.9586,N,08404.9885,W,0.0000,0.000,291217,,*3B
2017-12-29 11:33:55 1514565235.376978: $GPGSA,A,3,8,10,15,20,21,24,27,32,138,,,,1.7,1.2,1.3*31
2017-12-29 11:33:56 1514565236.708527: $GPGSV,3,1,11,08,07,316,42,10,47,307,46,15,31,055,50,20,29,102,49*76
2017-12-29 11:33:56 1514565236.708711: $GPGSV,3,2,11,21,56,184,47,24,53,097,50,27,17,282,31,32,27,243,39*7F
2017-12-29 11:33:56 1514565236.708778: $GPGSV,3,3,11,14,09,235,00,13,02,051,00,138,38,213,45*75
2017-12-29 11:33:56 1514565236.821976: $GPZDA,163357.00,29,12,2017,00,00*6F
2017-12-29 11:33:56 1514565236.822144: $GPGGA,163357,3946.9586,N,08404.9885,W,2,09,1.20,319.71,M,-33.324,M,,*77
2017-12-29 11:33:56 1514565236.822213: $GPRMC,163357,A,3946.9586,N,08404.9885,W,0.0000,0.000,291217,,*3A
2017-12-29 11:33:56 1514565236.822274: $GPGSA,A,3,8,10,15,20,21,24,27,32,138,,,,1.7,1.2,1.3*31
2017-12-29 11:33:57 1514565237.355883: $GPZDA,163358.00,29,12,2017,00,00*60
2017-12-29 11:33:57 1514565237.355999: $GPGGA,163358,3946.9586,N,08404.9885,W,2,09,1.20,319.71,M,-33.324,M,,*78
2017-12-29 11:33:57 1514565237.356032: $GPRMC,163358,A,3946.9586,N,08404.9885,W,0.0000,0.000,291217,,*35
2017-12-29 11:33:57 1514565237.356063: $GPGSA,A,3,8,10,15,20,21,24,27,32,138,,,,1.7,1.2,1.3*31
2017-12-29 11:33:58 1514565238.373112: $GPZDA,163359.00,29,12,2017,00,00*61
2017-12-29 11:33:58 1514565238.373302: $GPGGA,163359,3946.9586,N,08404.9885,W,2,09,1.20,319.71,M,-33.324,M,,*79
2017-12-29 11:33:58 1514565238.373368: $GPRMC,163359,A,3946.9586,N,08404.9885,W,0.0000,0.000,291217,,*34
2017-12-29 11:33:58 1514565238.373430: $GPGSA,A,3,8,10,15,20,21,24,27,32,138,,,,1.7,1.2,1.3*31
2017-12-29 11:33:59 1514565239.687603: $GPGSV,3,1,11,08,07,316,43,10,47,307,46,15,31,055,50,20,29,102,49*77
2017-12-29 11:33:59 1514565239.687788: $GPGSV,3,2,11,21,56,184,47,24,53,097,50,27,17,282,32,32,27,243,38*7D
2017-12-29 11:33:59 1514565239.687855: $GPGSV,3,3,11,14,09,235,00,13,02,051,00,138,38,213,45*75
2017-12-29 11:33:59 1514565239.801095: $GPZDA,163400.00,29,12,2017,00,00*6A
2017-12-29 11:33:59 1514565239.801266: $GPGGA,163400,3946.9586,N,08404.9885,W,2,09,1.20,319.71,M,-33.324,M,,*72
2017-12-29 11:33:59 1514565239.801332: $GPRMC,163400,A,3946.9586,N,08404.9885,W,0.0000,0.000,291217,,*3F
2017-12-29 11:33:59 1514565239.801394: $GPGSA,A,3,8,10,15,20,21,24,27,32,138,,,,1.7,1.2,1.3*31
2017-12-29 11:34:00 1514565240.356878: $GPZDA,163401.00,29,12,2017,00,00*6B
2017-12-29 11:34:00 1514565240.357047: $GPGGA,163401,3946.9586,N,08404.9885,W,2,09,1.20,319.71,M,-33.324,M,,*73
2017-12-29 11:34:00 1514565240.357114: $GPRMC,163401,A,3946.9586,N,08404.9885,W,0.0000,0.000,291217,,*3E
2017-12-29 11:34:00 1514565240.357176: $GPGSA,A,3,8,10,15,20,21,24,27,32,138,,,,1.7,1.2,1.3*31
2017-12-29 11:34:01 1514565241.372762: $GPZDA,163402.00,29,12,2017,00,00*68
2017-12-29 11:34:01 1514565241.372931: $GPGGA,163402,3946.9586,N,08404.9885,W,2,09,1.20,319.71,M,-33.324,M,,*70
2017-12-29 11:34:01 1514565241.372997: $GPRMC,163402,A,3946.9586,N,08404.9885,W,0.0000,0.000,291217,,*3D
2017-12-29 11:34:01 1514565241.373057: $GPGSA,A,3,8,10,15,20,21,24,27,32,138,,,,1.7,1.2,1.3*31
