2017-12-01 18:18:33 1512170313.438289: {"class":"VERSION","release":"3.16","rev":"3.16-4","proto_major":3,"proto_minor":11}
2017-12-01 18:18:33 1512170313.438669: {"class":"DEVICES","devices":[{"class":"DEVICE","path":"/dev/ttyUSB0","driver":"SiRF","subtype":"9\u0006GSD4e_4.1.2-P1_RPATCH.05-F-GPS-4R-1510281 11/03/2015 307","activated":"2017-12-01T23:18:33.407Z","flags":1,"native":1,"bps":4800,"parity":"N","stopbits":1,"cycle":1.00}]}
2017-12-01 18:18:33 1512170313.438782: {"class":"WATCH","enable":true,"json":false,"nmea":true,"raw":0,"scaled":false,"timing":false,"split24":false,"pps":false}
2017-12-01 18:18:34 1512170314.703976: $GPGSV,3,1,12,01,07,255,29,03,39,301,46,14,57,088,43,16,21,189,41*7F
2017-12-01 18:18:34 1512170314.704182: $GPGSV,3,2,12,22,50,274,45,23,09,300,42,25,19,040,40,26,51,172,46*7A
2017-12-01 18:18:34 1512170314.704259: $GPGSV,3,3,12,31,69,022,47,32,37,106,40,29,10,075,00,138,38,213,46*49
2017-12-01 18:18:34 1512170314.817296: $GPZDA,231835.00,01,12,2017,00,00*6E
2017-12-01 18:18:34 1512170314.817471: $GPGGA,231835,3946.9715,N,08404.9844,W,2,11,0.80,303.67,M,-33.325,M,,*76
2017-12-01 18:18:34 1512170314.817538: $GPRMC,231835,A,3946.9715,N,08404.9844,W,0.0000,0.000,011217,,*3E
2017-12-01 18:18:34 1512170314.817601: $GPGSA,A,3,1,3,14,16,22,23,25,26,31,32,138,,2.0,0.8,1.5*07
2017-12-01 18:18:35 1512170315.369478: $GPZDA,231836.00,01,12,2017,00,00*6D
2017-12-01 18:18:35 1512170315.369670: $GPGGA,231836,3946.9715,N,08404.9844,W,2,11,0.60,303.67,M,-33.325,M,,*7B
2017-12-01 18:18:35 1512170315.369746: $GPRMC,231836,A,3946.9715,N,08404.9844,W,0.0000,0.000,011217,,*3D
2017-12-01 18:18:35 1512170315.369808: $GPGSA,A,3,1,3,14,16,22,23,25,26,31,32,138,,2.0,0.6,1.5*09
2017-12-01 18:18:36 1512170316.364074: $GPZDA,231837.00,01,12,2017,00,00*6C
2017-12-01 18:18:36 1512170316.364263: $GPGGA,231837,3946.9715,N,08404.9844,W,2,11,0.60,303.67,M,-33.325,M,,*7A
2017-12-01 18:18:36 1512170316.364333: $GPRMC,231837,A,3946.9715,N,08404.9844,W,0.0000,0.000,011217,,*3C
2017-12-01 18:18:36 1512170316.364395: $GPGSA,A,3,1,3,14,16,22,23,25,26,31,32,138,,2.0,0.6,1.5*09
2017-12-01 18:18:37 1512170317.738516: $GPGSV,3,1,12,01,07,255,31,03,39,301,46,14,57,088,43,16,21,189,41*76
2017-12-01 18:18:37 1512170317.738697: $GPGSV,3,2,12,22,50,274,45,23,09,300,41,25,19,040,40,26,51,172,46*79
2017-12-01 18:18:37 1512170317.738765: $GPGSV,3,3,12,31,69,022,47,32,37,106,41,29,10,075,23,138,38,213,45*4A
2017-12-01 18:18:37 1512170317.852409: $GPZDA,231838.00,01,12,2017,00,00*63
2017-12-01 18:18:37 1512170317.852583: $GPGGA,231838,3946.9719,N,08404.9844,W,2,12,0.60,304.31,M,-33.325,M,,*7E
2017-12-01 18:18:37 1512170317.852650: $GPRMC,231838,A,3946.9719,N,08404.9844,W,0.0000,0.000,011217,,*3F
2017-12-01 18:18:37 1512170317.852713: $GPGSA,A,3,1,3,14,16,22,23,25,26,31,32,29,138,2.0,0.6,1.5*02
2017-12-01 18:18:38 1512170318.394485: $GPZDA,231839.00,01,12,2017,00,00*62
2017-12-01 18:18:38 1512170318.394684: $GPGGA,231839,3946.9719,N,08404.9844,W,2,12,0.60,304.31,M,-33.325,M,,*7F
2017-12-01 18:18:38 1512170318.394780: $GPRMC,231839,A,3946.9719,N,08404.9844,W,0.0000,0.000,011217,,*3E
2017-12-01 18:18:38 1512170318.394850: $GPGSA,A,3,1,3,14,16,22,23,25,26,31,32,29,138,2.0,0.6,1.5*02
2017-12-01 18:18:39 1512170319.402044: $GPZDA,231840.00,01,12,2017,00,00*6C
2017-12-01 18:18:39 1512170319.402245: $GPGGA,231840,3946.9719,N,08404.9844,W,2,12,0.60,304.31,M,-33.325,M,,*71
2017-12-01 18:18:39 1512170319.402316: $GPRMC,231840,A,3946.9719,N,08404.9844,W,0.0000,0.000,011217,,*30
2017-12-01 18:18:39 1512170319.402377: $GPGSA,A,3,1,3,14,16,22,23,25,26,31,32,29,138,2.0,0.6,1.5*02
2017-12-01 18:18:40 1512170320.737618: $GPGSV,3,1,12,01,07,255,31,03,39,301,46,14,57,088,43,16,21,189,41*76
2017-12-01 18:18:40 1512170320.737802: $GPGSV,3,2,12,22,50,274,45,23,09,300,41,25,19,040,41,26,51,172,46*78
2017-12-01 18:18:40 1512170320.737868: $GPGSV,3,3,12,31,69,022,46,32,37,106,36,29,10,075,24,138,38,213,46*4F
2017-12-01 18:18:40 1512170320.850979: $GPZDA,231841.00,01,12,2017,00,00*6D
2017-12-01 18:18:40 1512170320.851169: $GPGGA,231841,3946.9722,N,08404.9843,W,2,12,0.60,303.54,M,-33.325,M,,*7B
2017-12-01 18:18:40 1512170320.851292: $GPRMC,231841,A,3946.9722,N,08404.9843,W,0.0000,0.000,011217,,*3E
2017-12-01 18:18:40 1512170320.851436: $GPGSA,A,3,1,3,14,16,22,23,25,26,31,32,29,138,2.0,0.6,1.5*02
2017-12-01 18:18:41 1512170321.401863: $GPZDA,231842.00,01,12,2017,00,00*6E
2017-12-01 18:18:41 1512170321.402052: $GPGGA,231842,3946.9722,N,08404.9843,W,2,12,0.60,303.54,M,-33.325,M,,*78
2017-12-01 18:18:41 1512170321.402146: $GPRMC,231842,A,3946.9722,N,08404.9843,W,0.0000,0.000,011217,,*3D
2017-12-01 18:18:41 1512170321.402209: $GPGSA,A,3,1,3,14,16,22,23,25,26,31,32,29,138,2.0,0.6,1.5*02
2017-12-01 18:18:42 1512170322.369059: $GPZDA,231843.00,01,12,2017,00,00*6F
2017-12-01 18:18:42 1512170322.369239: $GPGGA,231843,3946.9722,N,08404.9843,W,2,12,0.60,303.54,M,-33.325,M,,*79
2017-12-01 18:18:42 1512170322.369305: $GPRMC,231843,A,3946.9722,N,08404.9843,W,0.0000,0.000,011217,,*3C
2017-12-01 18:18:42 1512170322.369368: $GPGSA,A,3,1,3,14,16,22,23,25,26,31,32,29,138,2.0,0.6,1.5*02
2017-12-01 18:18:43 1512170323.737282: $GPGSV,3,1,12,01,07,255,32,03,39,301,46,14,57,088,43,16,21,189,42*76
2017-12-01 18:18:43 1512170323.737519: $GPGSV,3,2,12,22,50,274,45,23,09,300,41,25,19,040,40,26,51,172,47*78
2017-12-01 18:18:43 1512170323.737620: $GPGSV,3,3,12,31,69,022,46,32,37,106,38,29,10,075,00,138,38,213,46*47
2017-12-01 18:18:43 1512170323.850668: $GPZDA,231844.00,01,12,2017,00,00*68
2017-12-01 18:18:43 1512170323.850840: $GPGGA,231844,3946.9722,N,08404.9843,W,2,11,0.80,303.54,M,-33.325,M,,*73
2017-12-01 18:18:43 1512170323.850907: $GPRMC,231844,A,3946.9722,N,08404.9843,W,0.0000,0.000,011217,,*3B
2017-12-01 18:18:43 1512170323.850991: $GPGSA,A,3,1,3,14,16,22,23,25,26,31,32,138,,2.0,0.8,1.5*07
2017-12-01 18:18:44 1512170324.477294: $GPZDA,231845.00,01,12,2017,00,00*69
2017-12-01 18:18:44 1512170324.477466: $GPGGA,231845,3946.9722,N,08404.9843,W,2,11,0.80,303.54,M,-33.325,M,,*72
2017-12-01 18:18:44 1512170324.477533: $GPRMC,231845,A,3946.9722,N,08404.9843,W,0.0000,0.000,011217,,*3A
2017-12-01 18:18:44 1512170324.477594: $GPGSA,A,3,1,3,14,16,22,23,25,26,31,32,138,,2.0,0.8,1.5*07
2017-12-01 18:18:45 1512170325.402155: $GPZDA,231846.00,01,12,2017,00,00*6A
2017-12-01 18:18:45 1512170325.402326: $GPGGA,231846,3946.9722,N,08404.9843,W,2,11,0.80,303.54,M,-33.325,M,,*71
2017-12-01 18:18:45 1512170325.402392: $GPRMC,231846,A,3946.9722,N,08404.9843,W,0.0000,0.000,011217,,*39
2017-12-01 18:18:45 1512170325.402454: $GPGSA,A,3,1,3,14,16,22,23,25,26,31,32,138,,2.0,0.8,1.5*07
2017-12-01 18:18:46 1512170326.736375: $GPGSV,3,1,12,01,07,255,32,03,39,301,46,14,57,088,43,16,21,189,42*76
2017-12-01 18:18:46 1512170326.736560: $GPGSV,3,2,12,22,50,274,45,23,09,300,40,25,19,040,40,26,51,172,47*79
2017-12-01 18:18:46 1512170326.736626: $GPGSV,3,3,12,31,69,022,47,32,37,106,39,29,10,075,00,138,38,213,46*47
2017-12-01 18:18:46 1512170326.849812: $GPZDA,231847.00,01,12,2017,00,00*6B
2017-12-01 18:18:46 1512170326.849997: $GPGGA,231847,3946.9722,N,08404.9843,W,2,11,0.80,303.54,M,-33.325,M,,*70
2017-12-01 18:18:46 1512170326.850064: $GPRMC,231847,A,3946.9722,N,08404.9843,W,0.0000,0.000,011217,,*38
2017-12-01 18:18:46 1512170326.850143: $GPGSA,A,3,1,3,14,16,22,23,25,26,31,32,138,,2.0,0.8,1.5*07
2017-12-01 18:18:47 1512170327.370657: $GPZDA,231848.00,01,12,2017,00,00*64
2017-12-01 18:18:47 1512170327.370827: $GPGGA,231848,3946.9722,N,08404.9843,W,2,11,0.80,303.54,M,-33.325,M,,*7F
2017-12-01 18:18:47 1512170327.370893: $GPRMC,231848,A,3946.9722,N,08404.9843,W,0.0000,0.000,011217,,*37
2017-12-01 18:18:47 1512170327.370975: $GPGSA,A,3,1,3,14,16,22,23,25,26,31,32,138,,2.0,0.8,1.5*07
2017-12-01 18:18:48 1512170328.401411: $GPZDA,231849.00,01,12,2017,00,00*65
2017-12-01 18:18:48 1512170328.401594: $GPGGA,231849,3946.9722,N,08404.9843,W,2,11,0.80,303.54,M,-33.325,M,,*7E
2017-12-01 18:18:48 1512170328.401662: $GPRMC,231849,A,3946.9722,N,08404.9843,W,0.0000,0.000,011217,,*36
2017-12-01 18:18:48 1512170328.401723: $GPGSA,A,3,1,3,14,16,22,23,25,26,31,32,138,,2.0,0.8,1.5*07
2017-12-01 18:18:50 1512170330.226111: $GPGSV,3,1,12,01,07,255,33,03,39,301,46,14,57,088,42,16,21,189,41*75
2017-12-01 18:18:50 1512170330.226344: $GPGSV,3,2,12,22,50,273,45,23,10,300,40,25,19,040,40,26,51,172,46*77
2017-12-01 18:18:50 1512170330.226416: $GPGSV,3,3,12,31,69,022,47,32,37,106,40,29,10,073,19,138,38,213,46*47
2017-12-01 18:18:50 1512170330.339836: $GPZDA,231850.00,01,12,2017,00,00*6D
2017-12-01 18:18:50 1512170330.340004: $GPGGA,231850,3946.9722,N,08404.9843,W,2,12,0.60,303.54,M,-33.325,M,,*7B
2017-12-01 18:18:50 1512170330.340089: $GPRMC,231850,A,3946.9722,N,08404.9843,W,0.0000,0.000,011217,,*3E
2017-12-01 18:18:50 1512170330.340152: $GPGSA,A,3,1,3,14,16,22,23,25,26,31,32,29,138,2.0,0.6,1.5*02
2017-12-01 18:18:50 1512170330.790397: $GPZDA,231851.00,01,12,2017,00,00*6C
2017-12-01 18:18:50 1512170330.790572: $GPGGA,231851,3946.9722,N,08404.9843,W,2,12,0.60,303.54,M,-33.325,M,,*7A
2017-12-01 18:18:50 1512170330.790639: $GPRMC,231851,A,3946.9722,N,08404.9843,W,0.0000,0.000,011217,,*3F
2017-12-01 18:18:50 1512170330.790700: $GPGSA,A,3,1,3,14,16,22,23,25,26,31,32,29,138,2.0,0.6,1.5*02
2017-12-01 18:18:51 1512170331.399991: $GPZDA,231852.00,01,12,2017,00,00*6F
2017-12-01 18:18:51 1512170331.400182: $GPGGA,231852,3946.9722,N,08404.9843,W,2,12,0.80,303.54,M,-33.325,M,,*77
2017-12-01 18:18:51 1512170331.400248: $GPRMC,231852,A,3946.9722,N,08404.9843,W,0.0000,0.000,011217,,*3C
2017-12-01 18:18:51 1512170331.400309: $GPGSA,A,3,1,3,14,16,22,23,25,26,31,32,29,138,2.0,0.8,1.5*0C
2017-12-01 18:18:52 1512170332.738251: $GPGSV,3,1,12,01,07,255,33,03,39,301,46,14,57,088,43,16,21,189,41*74
2017-12-01 18:18:52 1512170332.738433: $GPGSV,3,2,12,22,50,273,45,23,10,300,40,25,19,040,39,26,51,172,46*79
2017-12-01 18:18:52 1512170332.738498: $GPGSV,3,3,12,31,69,022,47,32,37,106,40,29,10,073,00,138,38,213,46*4F
2017-12-01 18:18:52 1512170332.850358: $GPZDA,231853.00,01,12,2017,00,00*6E
2017-12-01 18:18:52 1512170332.850524: $GPGGA,231853,3946.9722,N,08404.9843,W,2,11,0.80,303.54,M,-33.325,M,,*75
2017-12-01 18:18:52 1512170332.850591: $GPRMC,231853,A,3946.9722,N,08404.9843,W,0.0000,0.000,011217,,*3D
2017-12-01 18:18:52 1512170332.850652: $GPGSA,A,3,1,3,14,16,22,23,25,26,31,32,138,,2.0,0.8,1.5*07
2017-12-01 18:18:53 1512170333.374937: $GPZDA,231854.00,01,12,2017,00,00*69
2017-12-01 18:18:53 1512170333.375128: $GPGGA,231854,3946.9722,N,08404.9843,W,2,11,0.80,303.54,M,-33.325,M,,*72
2017-12-01 18:18:53 1512170333.375196: $GPRMC,231854,A,3946.9722,N,08404.9843,W,0.0000,0.000,011217,,*3A
2017-12-01 18:18:53 1512170333.375256: $GPGSA,A,3,1,3,14,16,22,23,25,26,31,32,138,,2.0,0.8,1.5*07
