2017-12-01 15:47:20 1512161240.867667: {"class":"VERSION","release":"3.16","rev":"3.16-4","proto_major":3,"proto_minor":11}
2017-12-01 15:47:20 1512161240.868053: {"class":"DEVICES","devices":[{"class":"DEVICE","path":"/dev/ttyUSB0","driver":"SiRF","subtype":"9\u0006GSD4e_4.1.2-P1_RPATCH.05-F-GPS-4R-1510281 11/03/2015 307","activated":"2017-12-01T20:47:20.707Z","flags":1,"native":1,"bps":4800,"parity":"N","stopbits":1,"cycle":1.00}]}
2017-12-01 15:47:20 1512161240.868171: {"class":"WATCH","enable":true,"json":false,"nmea":true,"raw":0,"scaled":false,"timing":false,"split24":false,"pps":false}
2017-12-01 15:47:21 1512161241.393617: $GPZDA,204722.00,01,12,2017,00,00*61
2017-12-01 15:47:21 1512161241.393778: $GPGGA,204722,3946.9564,N,08404.9849,W,2,12,0.80,302.66,M,-33.324,M,,*72
2017-12-01 15:47:21 1512161241.393845: $GPRMC,204722,A,3946.9564,N,08404.9849,W,0.0000,0.000,011217,,*38
2017-12-01 15:47:21 1512161241.393905: $GPGSA,A,3,1,10,12,14,18,22,24,25,31,32,11,138,2.0,0.8,1.5*3B
2017-12-01 15:47:22 1512161242.727774: $GPGSV,3,1,12,01,14,318,35,10,69,133,47,12,25,070,37,14,55,294,43*76
2017-12-01 15:47:22 1512161242.727951: $GPGSV,3,2,12,18,36,135,47,22,03,310,37,24,13,045,40,25,30,114,42*71
2017-12-01 15:47:22 1512161242.728017: $GPGSV,3,3,12,31,36,213,49,32,68,331,48,11,11,300,29,138,38,213,46*49
2017-12-01 15:47:22 1512161242.841101: $GPZDA,204723.00,01,12,2017,00,00*60
2017-12-01 15:47:22 1512161242.841284: $GPGGA,204723,3946.9564,N,08404.9849,W,2,12,0.80,302.66,M,-33.324,M,,*73
2017-12-01 15:47:22 1512161242.841401: $GPRMC,204723,A,3946.9564,N,08404.9849,W,0.0000,0.000,011217,,*39
2017-12-01 15:47:22 1512161242.841474: $GPGSA,A,3,1,10,12,14,18,22,24,25,31,32,11,138,2.0,0.8,1.5*3B
2017-12-01 15:47:23 1512161243.392104: $GPZDA,204724.00,01,12,2017,00,00*67
2017-12-01 15:47:23 1512161243.392285: $GPGGA,204724,3946.9564,N,08404.9849,W,2,12,0.80,302.66,M,-33.324,M,,*74
2017-12-01 15:47:23 1512161243.392356: $GPRMC,204724,A,3946.9564,N,08404.9849,W,0.0000,0.000,011217,,*3E
2017-12-01 15:47:23 1512161243.392421: $GPGSA,A,3,1,10,12,14,18,22,24,25,31,32,11,138,2.0,0.8,1.5*3B
2017-12-01 15:47:24 1512161244.392915: $GPZDA,204725.00,01,12,2017,00,00*66
2017-12-01 15:47:24 1512161244.393090: $GPGGA,204725,3946.9564,N,08404.9849,W,2,12,0.80,302.66,M,-33.324,M,,*75
2017-12-01 15:47:24 1512161244.393157: $GPRMC,204725,A,3946.9564,N,08404.9849,W,0.0000,0.000,011217,,*3F
2017-12-01 15:47:24 1512161244.393219: $GPGSA,A,3,1,10,12,14,18,22,24,25,31,32,11,138,2.0,0.8,1.5*3B
2017-12-01 15:47:25 1512161245.729869: $GPGSV,3,1,12,01,14,318,35,10,69,133,47,12,25,070,36,14,55,294,43*77
2017-12-01 15:47:25 1512161245.730086: $GPGSV,3,2,12,18,36,135,47,22,03,310,37,24,13,045,40,25,30,114,41*72
2017-12-01 15:47:25 1512161245.730174: $GPGSV,3,3,12,31,36,213,48,32,68,331,48,11,11,300,27,138,38,213,46*46
2017-12-01 15:47:25 1512161245.843240: $GPZDA,204726.00,01,12,2017,00,00*65
2017-12-01 15:47:25 1512161245.843419: $GPGGA,204726,3946.9564,N,08404.9849,W,2,12,0.80,302.66,M,-33.324,M,,*76
2017-12-01 15:47:25 1512161245.843491: $GPRMC,204726,A,3946.9564,N,08404.9849,W,0.0000,0.000,011217,,*3C
2017-12-01 15:47:25 1512161245.843553: $GPGSA,A,3,1,10,12,14,18,22,24,25,31,32,11,138,2.0,0.8,1.5*3B
2017-12-01 15:47:26 1512161246.468701: $GPZDA,204727.00,01,12,2017,00,00*64
2017-12-01 15:47:26 1512161246.468891: $GPGGA,204727,3946.9564,N,08404.9849,W,2,12,0.80,302.66,M,-33.324,M,,*77
2017-12-01 15:47:26 1512161246.468960: $GPRMC,204727,A,3946.9564,N,08404.9849,W,0.0000,0.000,011217,,*3D
2017-12-01 15:47:26 1512161246.469021: $GPGSA,A,3,1,10,12,14,18,22,24,25,31,32,11,138,2.0,0.8,1.5*3B
2017-12-01 15:47:27 1512161247.394517: $GPZDA,204728.00,01,12,2017,00,00*6B
2017-12-01 15:47:27 1512161247.394696: $GPGGA,204728,3946.9564,N,08404.9849,W,2,12,0.80,302.66,M,-33.324,M,,*78
2017-12-01 15:47:27 1512161247.394763: $GPRMC,204728,A,3946.9564,N,08404.9849,W,0.0000,0.000,011217,,*32
2017-12-01 15:47:27 1512161247.394826: $GPGSA,A,3,1,10,12,14,18,22,24,25,31,32,11,138,2.0,0.8,1.5*3B
2017-12-01 15:47:28 1512161248.731499: $GPGSV,3,1,12,01,14,318,35,10,69,133,46,12,25,070,36,14,55,294,43*76
2017-12-01 15:47:28 1512161248.731747: $GPGSV,3,2,12,18,36,135,47,22,03,310,37,24,13,045,40,25,30,114,41*72
2017-12-01 15:47:28 1512161248.731817: $GPGSV,3,3,12,31,36,213,49,32,68,331,48,11,11,300,32,138,38,213,46*43
2017-12-01 15:47:28 1512161248.844972: $GPZDA,204729.00,01,12,2017,00,00*6A
2017-12-01 15:47:28 1512161248.845142: $GPGGA,204729,3946.9564,N,08404.9849,W,2,12,0.80,302.66,M,-33.324,M,,*79
2017-12-01 15:47:28 1512161248.845210: $GPRMC,204729,A,3946.9564,N,08404.9849,W,0.0000,0.000,011217,,*33
2017-12-01 15:47:28 1512161248.845271: $GPGSA,A,3,1,10,12,14,18,22,24,25,31,32,11,138,2.0,0.8,1.5*3B
2017-12-01 15:47:29 1512161249.395822: $GPZDA,204730.00,01,12,2017,00,00*62
2017-12-01 15:47:29 1512161249.395994: $GPGGA,204730,3946.9564,N,08404.9849,W,2,12,0.80,302.66,M,-33.324,M,,*71
2017-12-01 15:47:29 1512161249.396062: $GPRMC,204730,A,3946.9564,N,08404.9849,W,0.0000,0.000,011217,,*3B
2017-12-01 15:47:29 1512161249.396123: $GPGSA,A,3,1,10,12,14,18,22,24,25,31,32,11,138,2.0,0.8,1.5*3B
2017-12-01 15:47:30 1512161250.395549: $GPZDA,204731.00,01,12,2017,00,00*63
2017-12-01 15:47:30 1512161250.395739: $GPGGA,204731,3946.9564,N,08404.9849,W,2,12,0.80,302.66,M,-33.324,M,,*70
2017-12-01 15:47:30 1512161250.395807: $GPRMC,204731,A,3946.9564,N,08404.9849,W,0.0000,0.000,011217,,*3A
2017-12-01 15:47:30 1512161250.395868: $GPGSA,A,3,1,10,12,14,18,22,24,25,31,32,11,138,2.0,0.8,1.5*3B
2017-12-01 15:47:32 1512161252.247530: $GPGSV,3,1,12,01,14,318,35,10,68,133,46,12,25,070,36,14,55,294,43*77
2017-12-01 15:47:32 1512161252.247728: $GPGSV,3,2,12,18,36,136,47,22,03,310,37,24,13,045,40,25,30,114,41*71
2017-12-01 15:47:32 1512161252.247795: $GPGSV,3,3,12,31,36,213,48,32,68,333,48,11,11,300,26,138,38,213,45*46
2017-12-01 15:47:32 1512161252.360930: $GPZDA,204732.00,01,12,2017,00,00*60
2017-12-01 15:47:32 1512161252.361102: $GPGGA,204732,3946.9564,N,08404.9848,W,2,12,0.80,301.26,M,-33.324,M,,*75
2017-12-01 15:47:32 1512161252.361169: $GPRMC,204732,A,3946.9564,N,08404.9848,W,0.0000,0.000,011217,,*38
2017-12-01 15:47:32 1512161252.361230: $GPGSA,A,3,1,10,12,14,18,22,24,25,31,32,11,138,2.0,0.8,1.5*3B
2017-12-01 15:47:32 1512161252.811857: $GPZDA,204733.00,01,12,2017,00,00*61
2017-12-01 15:47:32 1512161252.811996: $GPGGA,204733,3946.9564,N,08404.9848,W,2,12,0.80,301.26,M,-33.324,M,,*74
2017-12-01 15:47:32 1512161252.812064: $GPRMC,204733,A,3946.9564,N,08404.9848,W,0.0000,0.000,011217,,*39
2017-12-01 15:47:32 1512161252.812126: $GPGSA,A,3,1,10,12,14,18,22,24,25,31,32,11,138,2.0,0.8,1.5*3B
2017-12-01 15:47:33 1512161253.396441: $GPZDA,204734.00,01,12,2017,00,00*66
2017-12-01 15:47:33 1512161253.396629: $GPGGA,204734,3946.9564,N,08404.9848,W,2,12,0.80,301.26,M,-33.324,M,,*73
2017-12-01 15:47:33 1512161253.396697: $GPRMC,204734,A,3946.9564,N,08404.9848,W,0.0000,0.000,011217,,*3E
2017-12-01 15:47:33 1512161253.396758: $GPGSA,A,3,1,10,12,14,18,22,24,25,31,32,11,138,2.0,0.8,1.5*3B
2017-12-01 15:47:34 1512161254.731007: $GPGSV,3,1,12,01,14,318,35,10,68,133,47,12,25,070,36,14,55,294,43*76
2017-12-01 15:47:34 1512161254.731189: $GPGSV,3,2,12,18,36,136,47,22,03,310,37,24,13,045,40,25,30,114,41*71
2017-12-01 15:47:34 1512161254.731256: $GPGSV,3,3,12,31,36,213,49,32,68,333,48,11,11,300,30,138,38,213,46*43
2017-12-01 15:47:34 1512161254.844235: $GPZDA,204735.00,01,12,2017,00,00*67
2017-12-01 15:47:34 1512161254.844406: $GPGGA,204735,3946.9564,N,08404.9848,W,2,12,0.80,301.26,M,-33.324,M,,*72
2017-12-01 15:47:34 1512161254.844499: $GPRMC,204735,A,3946.9564,N,08404.9848,W,0.0000,0.000,011217,,*3F
2017-12-01 15:47:34 1512161254.844580: $GPGSA,A,3,1,10,12,14,18,22,24,25,31,32,11,138,2.0,0.8,1.5*3B
2017-12-01 15:47:35 1512161255.395158: $GPZDA,204736.00,01,12,2017,00,00*64
2017-12-01 15:47:35 1512161255.395334: $GPGGA,204736,3946.9564,N,08404.9848,W,2,12,0.80,301.26,M,-33.324,M,,*71
2017-12-01 15:47:35 1512161255.395401: $GPRMC,204736,A,3946.9564,N,08404.9848,W,0.0000,0.000,011217,,*3C
2017-12-01 15:47:35 1512161255.395490: $GPGSA,A,3,1,10,12,14,18,22,24,25,31,32,11,138,2.0,0.8,1.5*3B
2017-12-01 15:47:36 1512161256.396832: $GPZDA,204737.00,01,12,2017,00,00*65
2017-12-01 15:47:36 1512161256.397006: $GPGGA,204737,3946.9564,N,08404.9848,W,2,12,0.80,301.26,M,-33.324,M,,*70
2017-12-01 15:47:36 1512161256.397073: $GPRMC,204737,A,3946.9564,N,08404.9848,W,0.0000,0.000,011217,,*3D
2017-12-01 15:47:36 1512161256.397134: $GPGSA,A,3,1,10,12,14,18,22,24,25,31,32,11,138,2.0,0.8,1.5*3B
2017-12-01 15:47:37 1512161257.732532: $GPGSV,3,1,12,01,14,318,36,10,68,133,46,12,25,070,36,14,55,294,43*74
2017-12-01 15:47:37 1512161257.732735: $GPGSV,3,2,12,18,36,136,48,22,03,310,38,24,13,045,40,25,30,114,41*71
2017-12-01 15:47:37 1512161257.732802: $GPGSV,3,3,12,31,36,213,50,32,68,333,48,11,11,300,31,138,38,213,46*4A
2017-12-01 15:47:37 1512161257.845877: $GPZDA,204738.00,01,12,2017,00,00*6A
2017-12-01 15:47:37 1512161257.846049: $GPGGA,204738,3946.9564,N,08404.9848,W,2,12,0.80,301.26,M,-33.324,M,,*7F
2017-12-01 15:47:37 1512161257.846116: $GPRMC,204738,A,3946.9564,N,08404.9848,W,0.0000,0.000,011217,,*32
2017-12-01 15:47:37 1512161257.846177: $GPGSA,A,3,1,10,12,14,18,22,24,25,31,32,11,138,2.0,0.8,1.5*3B
2017-12-01 15:47:38 1512161258.394279: $GPZDA,204739.00,01,12,2017,00,00*6B
2017-12-01 15:47:38 1512161258.394468: $GPGGA,204739,3946.9564,N,08404.9848,W,2,12,0.80,301.26,M,-33.324,M,,*7E
2017-12-01 15:47:38 1512161258.394552: $GPRMC,204739,A,3946.9564,N,08404.9848,W,0.0000,0.000,011217,,*33
2017-12-01 15:47:38 1512161258.394615: $GPGSA,A,3,1,10,12,14,18,22,24,25,31,32,11,138,2.0,0.8,1.5*3B
2017-12-01 15:47:39 1512161259.395155: $GPZDA,204740.00,01,12,2017,00,00*65
2017-12-01 15:47:39 1512161259.395328: $GPGGA,204740,3946.9564,N,08404.9848,W,2,12,0.80,301.26,M,-33.324,M,,*70
2017-12-01 15:47:39 1512161259.395417: $GPRMC,204740,A,3946.9564,N,08404.9848,W,0.0000,0.000,011217,,*3D
2017-12-01 15:47:39 1512161259.395481: $GPGSA,A,3,1,10,12,14,18,22,24,25,31,32,11,138,2.0,0.8,1.5*3B
2017-12-01 15:47:40 1512161260.732120: $GPGSV,3,1,12,01,14,318,35,10,68,133,47,12,25,070,37,14,55,294,43*77
2017-12-01 15:47:40 1512161260.732302: $GPGSV,3,2,12,18,36,136,47,22,03,310,38,24,13,045,40,25,30,114,41*7E
2017-12-01 15:47:40 1512161260.732369: $GPGSV,3,3,12,31,36,213,49,32,68,333,48,11,11,300,31,138,38,213,46*42
2017-12-01 15:47:40 1512161260.845548: $GPZDA,204741.00,01,12,2017,00,00*64
2017-12-01 15:47:40 1512161260.845722: $GPGGA,204741,3946.9564,N,08404.9848,W,2,12,0.80,301.26,M,-33.324,M,,*71
2017-12-01 15:47:40 1512161260.845791: $GPRMC,204741,A,3946.9564,N,08404.9848,W,0.0000,0.000,011217,,*3C
2017-12-01 15:47:40 1512161260.845852: $GPGSA,A,3,1,10,12,14,18,22,24,25,31,32,11,138,2.0,0.8,1.5*3B
