2018-01-11 19:50:01 1515718201.785673: {"class":"VERSION","release":"3.16","rev":"3.16-4","proto_major":3,"proto_minor":11}
2018-01-11 19:50:01 1515718201.786018: {"class":"DEVICES","devices":[{"class":"DEVICE","path":"/dev/ttyUSB0","driver":"SiRF","subtype":"9\u0006GSD4e_4.1.2-P1_RPATCH.05-F-GPS-4R-1510281 11/03/2015 307","activated":"2018-01-12T00:50:01.735Z","flags":1,"native":1,"bps":4800,"parity":"N","stopbits":1,"cycle":1.00}]}
2018-01-11 19:50:01 1515718201.786132: {"class":"WATCH","enable":true,"json":false,"nmea":true,"raw":0,"scaled":false,"timing":false,"split24":false,"pps":false}
2018-01-11 19:50:02 1515718202.754144: $GPGSV,3,1,11,07,47,310,40,08,66,154,45,09,54,243,42,11,12,171,32*7E
2018-01-11 19:50:02 1515718202.754319: $GPGSV,3,2,11,16,30,054,47,23,39,193,48,27,54,063,50,30,21,303,39*7C
2018-01-11 19:50:02 1515718202.754385: $GPGSV,3,3,11,28,07,252,26,26,05,067,16,138,38,213,45*72
2018-01-11 19:50:02 1515718202.867832: $GPZDA,005003.00,12,01,2018,00,00*69
2018-01-11 19:50:02 1515718202.867999: $GPGGA,005003,3946.9587,N,08404.9854,W,2,11,0.80,302.21,M,-33.324,M,,*74
2018-01-11 19:50:02 1515718202.868065: $GPRMC,005003,A,3946.9587,N,08404.9854,W,0.0000,0.000,120118,,*31
2018-01-11 19:50:02 1515718202.868125: $GPGSA,A,3,7,8,9,11,16,23,27,30,28,26,138,,4.0,0.8,3.5*3A
2018-01-11 19:50:03 1515718203.421150: $GPZDA,005004.00,12,01,2018,00,00*6E
2018-01-11 19:50:03 1515718203.421308: $GPGGA,005004,3946.9587,N,08404.9854,W,2,11,0.80,302.21,M,-33.324,M,,*73
2018-01-11 19:50:03 1515718203.421373: $GPRMC,005004,A,3946.9587,N,08404.9854,W,0.0000,0.000,120118,,*36
2018-01-11 19:50:03 1515718203.421432: $GPGSA,A,3,7,8,9,11,16,23,27,30,28,26,138,,4.0,0.8,3.5*3A
2018-01-11 19:50:04 1515718204.416981: $GPZDA,005005.00,12,01,2018,00,00*6F
2018-01-11 19:50:04 1515718204.417146: $GPGGA,005005,3946.9587,N,08404.9854,W,2,11,0.80,302.21,M,-33.324,M,,*72
2018-01-11 19:50:04 1515718204.417212: $GPRMC,005005,A,3946.9587,N,08404.9854,W,0.0000,0.000,120118,,*37
2018-01-11 19:50:04 1515718204.417272: $GPGSA,A,3,7,8,9,11,16,23,27,30,28,26,138,,4.0,0.8,3.5*3A
2018-01-11 19:50:05 1515718205.773719: $GPGSV,3,1,11,07,47,310,41,08,66,154,45,09,54,243,42,11,12,171,32*7F
2018-01-11 19:50:05 1515718205.773897: $GPGSV,3,2,11,16,30,054,47,23,39,193,48,27,54,063,50,30,21,303,38*7D
2018-01-11 19:50:05 1515718205.773967: $GPGSV,3,3,11,28,07,252,27,26,05,067,14,138,38,213,45*71
2018-01-11 19:50:05 1515718205.887530: $GPZDA,005006.00,12,01,2018,00,00*6C
2018-01-11 19:50:05 1515718205.887700: $GPGGA,005006,3946.9587,N,08404.9854,W,2,11,0.80,302.21,M,-33.324,M,,*71
2018-01-11 19:50:05 1515718205.887768: $GPRMC,005006,A,3946.9587,N,08404.9854,W,0.0000,0.000,120118,,*34
2018-01-11 19:50:05 1515718205.887832: $GPGSA,A,3,7,8,9,11,16,23,27,30,28,26,138,,4.0,0.8,3.5*3A
2018-01-11 19:50:06 1515718206.435422: $GPZDA,005007.00,12,01,2018,00,00*6D
2018-01-11 19:50:06 1515718206.435563: $GPGGA,005007,3946.9587,N,08404.9847,W,2,11,0.80,302.29,M,-33.324,M,,*7A
2018-01-11 19:50:06 1515718206.435630: $GPRMC,005007,A,3946.9587,N,08404.9847,W,0.0000,0.000,120118,,*37
2018-01-11 19:50:06 1515718206.435692: $GPGSA,A,3,7,8,9,11,16,23,27,30,28,26,138,,4.0,0.8,3.5*3A
2018-01-11 19:50:07 1515718207.434569: $GPZDA,005008.00,12,01,2018,00,00*62
2018-01-11 19:50:07 1515718207.434744: $GPGGA,005008,3946.9587,N,08404.9847,W,2,11,0.80,302.29,M,-33.324,M,,*75
2018-01-11 19:50:07 1515718207.434814: $GPRMC,005008,A,3946.9587,N,08404.9847,W,0.0000,0.000,120118,,*38
2018-01-11 19:50:07 1515718207.434878: $GPGSA,A,3,7,8,9,11,16,23,27,30,28,26,138,,4.0,0.8,3.5*3A
2018-01-11 19:50:08 1515718208.765291: $GPGSV,3,1,11,07,47,310,41,08,66,154,45,09,54,243,42,11,12,171,33*7E
2018-01-11 19:50:08 1515718208.765453: $GPGSV,3,2,11,16,30,054,47,23,39,193,48,27,54,063,51,30,21,303,38*7C
2018-01-11 19:50:08 1515718208.765522: $GPGSV,3,3,11,28,07,252,27,26,05,067,07,138,38,213,45*73
2018-01-11 19:50:08 1515718208.878920: $GPZDA,005009.00,12,01,2018,00,00*63
2018-01-11 19:50:08 1515718208.879147: $GPGGA,005009,3946.9587,N,08404.9847,W,2,10,0.80,302.29,M,-33.324,M,,*75
2018-01-11 19:50:08 1515718208.879275: $GPRMC,005009,A,3946.9587,N,08404.9847,W,0.0000,0.000,120118,,*39
2018-01-11 19:50:08 1515718208.879338: $GPGSA,A,3,7,8,9,11,16,23,27,30,28,138,,,4.0,0.8,3.5*3E
2018-01-11 19:50:09 1515718209.434776: $GPZDA,005010.00,12,01,2018,00,00*6B
2018-01-11 19:50:09 1515718209.434929: $GPGGA,005010,3946.9587,N,08404.9847,W,2,10,0.80,302.29,M,-33.324,M,,*7D
2018-01-11 19:50:09 1515718209.434995: $GPRMC,005010,A,3946.9587,N,08404.9847,W,0.0000,0.000,120118,,*31
2018-01-11 19:50:09 1515718209.435055: $GPGSA,A,3,7,8,9,11,16,23,27,30,28,138,,,4.0,0.8,3.5*3E
2018-01-11 19:50:10 1515718210.421920: $GPZDA,005011.00,12,01,2018,00,00*6A
2018-01-11 19:50:10 1515718210.422103: $GPGGA,005011,3946.9587,N,08404.9847,W,2,10,0.80,302.29,M,-33.324,M,,*7C
2018-01-11 19:50:10 1515718210.422172: $GPRMC,005011,A,3946.9587,N,08404.9847,W,0.0000,0.000,120118,,*30
2018-01-11 19:50:10 1515718210.422233: $GPGSA,A,3,7,8,9,11,16,23,27,30,28,138,,,4.0,0.8,3.5*3E
