2017-12-01 18:19:23 1512170363.127362: {"class":"VERSION","release":"3.16","rev":"3.16-4","proto_major":3,"proto_minor":11}
2017-12-01 18:19:23 1512170363.127806: {"class":"DEVICES","devices":[{"class":"DEVICE","path":"/dev/ttyUSB0","driver":"SiRF","subtype":"9\u0006GSD4e_4.1.2-P1_RPATCH.05-F-GPS-4R-1510281 11/03/2015 307","activated":"2017-12-01T23:19:23.111Z","flags":1,"native":1,"bps":4800,"parity":"N","stopbits":1,"cycle":1.00}]}
2017-12-01 18:19:23 1512170363.127937: {"class":"WATCH","enable":true,"json":false,"nmea":true,"raw":0,"scaled":false,"timing":false,"split24":false,"pps":false}
2017-12-01 18:19:24 1512170364.077521: $GPZDA,231924.35,01,12,2017,00,00*69
2017-12-01 18:19:24 1512170364.077694: $GPGGA,231924,3946.9704,N,08404.9849,W,1,11,0.80,298.10,M,-33.325,M,,*7A
2017-12-01 18:19:24 1512170364.077761: $GPRMC,231924,A,3946.9704,N,08404.9849,W,0.2172,85.764,011217,,*0C
2017-12-01 18:19:24 1512170364.077823: $GPGSA,A,3,1,3,14,16,22,23,25,26,31,32,138,,2.0,0.8,1.5*07
2017-12-01 18:19:24 1512170364.077881: $GPGBS,231924,10.70,M,15.43,M,35.28,M*08
2017-12-01 18:19:25 1512170365.283574: $GPGSV,3,1,12,03,39,301,47,14,56,090,43,16,21,189,42,22,50,273,45*78
2017-12-01 18:19:25 1512170365.283759: $GPGSV,3,2,12,23,10,300,38,25,19,040,40,26,52,172,47,31,68,024,47*71
2017-12-01 18:19:25 1512170365.283825: $GPGSV,3,3,12,32,37,106,44,01,07,253,29,29,10,073,06,138,38,213,00*48
2017-12-01 18:19:25 1512170365.395942: $GPZDA,231925.00,01,12,2017,00,00*6E
2017-12-01 18:19:25 1512170365.396072: $GPGGA,231925,3946.9708,N,08404.9848,W,1,10,0.80,297.33,M,-33.325,M,,*79
2017-12-01 18:19:25 1512170365.396136: $GPRMC,231925,A,3946.9708,N,08404.9848,W,0.1867,0.000,011217,,*36
2017-12-01 18:19:25 1512170365.396196: $GPGSA,A,3,3,14,16,22,23,25,26,31,32,1,,,2.0,0.8,1.5*3D
2017-12-01 18:19:25 1512170365.848082: $GPZDA,231926.00,01,12,2017,00,00*6D
2017-12-01 18:19:25 1512170365.848250: $GPGGA,231926,3946.9708,N,08404.9848,W,1,10,0.80,297.33,M,-33.325,M,,*7A
2017-12-01 18:19:25 1512170365.848317: $GPRMC,231926,A,3946.9708,N,08404.9848,W,0.0000,0.000,011217,,*3D
2017-12-01 18:19:25 1512170365.848379: $GPGSA,A,3,3,14,16,22,23,25,26,31,32,1,,,2.0,0.8,1.5*3D
2017-12-01 18:19:26 1512170366.386201: $GPZDA,231927.00,01,12,2017,00,00*6C
2017-12-01 18:19:26 1512170366.386379: $GPGGA,231927,3946.9711,N,08404.9847,W,1,10,0.80,296.57,M,-33.325,M,,*7F
2017-12-01 18:19:26 1512170366.386447: $GPRMC,231927,A,3946.9711,N,08404.9847,W,0.0000,0.000,011217,,*3B
2017-12-01 18:19:26 1512170366.386509: $GPGSA,A,3,3,14,16,22,23,25,26,31,32,1,,,2.0,0.8,1.5*3D
2017-12-01 18:19:27 1512170367.722669: $GPGSV,3,1,12,03,39,301,48,14,56,090,43,16,21,189,42,22,50,273,45*77
2017-12-01 18:19:27 1512170367.722850: $GPGSV,3,2,12,23,10,300,38,25,19,040,41,26,52,172,47,31,68,024,47*70
2017-12-01 18:19:27 1512170367.722917: $GPGSV,3,3,12,32,37,106,43,01,07,253,31,29,10,073,17,138,38,213,46*44
2017-12-01 18:19:27 1512170367.836455: $GPZDA,231928.00,01,12,2017,00,00*63
2017-12-01 18:19:27 1512170367.836638: $GPGGA,231928,3946.9707,N,08404.9847,W,1,12,0.80,295.93,M,-33.325,M,,*7E
2017-12-01 18:19:27 1512170367.836708: $GPRMC,231928,A,3946.9707,N,08404.9847,W,0.0000,0.000,011217,,*33
2017-12-01 18:19:27 1512170367.836770: $GPGSA,A,3,3,14,16,22,23,25,26,31,32,1,29,138,2.0,0.8,1.5*0C
2017-12-01 18:19:28 1512170368.387303: $GPZDA,231929.00,01,12,2017,00,00*62
2017-12-01 18:19:28 1512170368.387486: $GPGGA,231929,3946.9711,N,08404.9846,W,1,12,0.80,295.16,M,-33.325,M,,*74
2017-12-01 18:19:28 1512170368.387555: $GPRMC,231929,A,3946.9711,N,08404.9846,W,0.0000,0.000,011217,,*34
2017-12-01 18:19:28 1512170368.387616: $GPGSA,A,3,3,14,16,22,23,25,26,31,32,1,29,138,2.0,0.8,1.5*0C
2017-12-01 18:19:29 1512170369.385183: $GPZDA,231930.00,01,12,2017,00,00*6A
2017-12-01 18:19:29 1512170369.385343: $GPGGA,231930,3946.9711,N,08404.9846,W,1,12,0.80,295.16,M,-33.325,M,,*7C
2017-12-01 18:19:29 1512170369.385411: $GPRMC,231930,A,3946.9711,N,08404.9846,W,0.0000,0.000,011217,,*3C
2017-12-01 18:19:29 1512170369.385471: $GPGSA,A,3,3,14,16,22,23,25,26,31,32,1,29,138,2.0,0.8,1.5*0C
2017-12-01 18:19:29 1512170369.385583: $GPGBS,231930,10.70,M,15.43,M,35.28,M*0D
2017-12-01 18:19:30 1512170370.722152: $GPGSV,3,1,12,03,39,301,48,14,56,090,43,16,21,189,42,22,50,273,45*77
2017-12-01 18:19:30 1512170370.722333: $GPGSV,3,2,12,23,10,300,39,25,19,040,41,26,52,172,47,31,68,024,46*70
2017-12-01 18:19:30 1512170370.722400: $GPGSV,3,3,12,32,37,106,37,01,07,253,31,29,10,073,00,138,38,213,46*41
2017-12-01 18:19:30 1512170370.835465: $GPZDA,231931.00,01,12,2017,00,00*6B
2017-12-01 18:19:30 1512170370.835611: $GPGGA,231931,3946.9706,N,08404.9846,W,1,11,0.80,294.52,M,-33.325,M,,*79
2017-12-01 18:19:30 1512170370.835678: $GPRMC,231931,A,3946.9706,N,08404.9846,W,0.0000,0.000,011217,,*3B
2017-12-01 18:19:30 1512170370.835738: $GPGSA,A,3,3,14,16,22,23,25,26,31,32,1,138,,2.0,0.8,1.5*07
2017-12-01 18:19:31 1512170371.387973: $GPZDA,231932.00,01,12,2017,00,00*68
2017-12-01 18:19:31 1512170371.388148: $GPGGA,231932,3946.9710,N,08404.9846,W,1,11,0.80,293.76,M,-33.325,M,,*7C
2017-12-01 18:19:31 1512170371.388234: $GPRMC,231932,A,3946.9710,N,08404.9846,W,0.0000,0.000,011217,,*3F
2017-12-01 18:19:31 1512170371.388296: $GPGSA,A,3,3,14,16,22,23,25,26,31,32,1,138,,2.0,0.8,1.5*07
2017-12-01 18:19:32 1512170372.385650: $GPZDA,231933.00,01,12,2017,00,00*69
2017-12-01 18:19:32 1512170372.385840: $GPGGA,231933,3946.9710,N,08404.9846,W,1,11,0.80,293.76,M,-33.325,M,,*7D
2017-12-01 18:19:32 1512170372.385909: $GPRMC,231933,A,3946.9710,N,08404.9846,W,0.0000,0.000,011217,,*3E
2017-12-01 18:19:32 1512170372.385970: $GPGSA,A,3,3,14,16,22,23,25,26,31,32,1,138,,2.0,0.8,1.5*07
2017-12-01 18:19:33 1512170373.720032: $GPGSV,3,1,12,03,39,301,09,14,56,090,09,16,21,189,08,22,50,273,09*7A
2017-12-01 18:19:33 1512170373.720239: $GPGSV,3,2,12,23,10,300,08,25,19,040,08,26,52,172,09,31,68,024,09*7E
2017-12-01 18:19:33 1512170373.720309: $GPGSV,3,3,12,32,37,106,08,01,07,253,06,29,10,073,04,138,38,213,11*4F
2017-12-01 18:19:33 1512170373.833424: $GPZDA,231934.00,01,12,2017,00,00*6E
2017-12-01 18:19:33 1512170373.833620: $GPGGA,231934,3946.9710,N,08404.9846,W,1,12,0.80,293.76,M,-33.325,M,,*79
2017-12-01 18:19:33 1512170373.833688: $GPRMC,231934,A,3946.9710,N,08404.9846,W,0.3423,4.196,011217,,*35
2017-12-01 18:19:33 1512170373.833749: $GPGSA,A,3,3,14,16,22,23,25,26,31,32,1,29,138,2.0,0.8,1.5*0C
2017-12-01 18:19:34 1512170374.384237: $GPZDA,231935.00,01,12,2017,00,00*6F
2017-12-01 18:19:34 1512170374.384429: $GPGGA,231935,3946.9713,N,08404.9845,W,1,12,0.80,292.99,M,-33.325,M,,*78
2017-12-01 18:19:34 1512170374.384497: $GPRMC,231935,A,3946.9713,N,08404.9845,W,0.0000,0.000,011217,,*38
2017-12-01 18:19:34 1512170374.384576: $GPGSA,A,3,3,14,16,22,23,25,26,31,32,1,29,138,2.0,0.8,1.5*0C
2017-12-01 18:19:35 1512170375.386386: $GPZDA,231936.00,01,12,2017,00,00*6C
2017-12-01 18:19:35 1512170375.386572: $GPGGA,231936,3946.9713,N,08404.9845,W,1,12,0.80,292.99,M,-33.325,M,,*7B
2017-12-01 18:19:35 1512170375.386638: $GPRMC,231936,A,3946.9713,N,08404.9845,W,0.0000,0.000,011217,,*3B
2017-12-01 18:19:35 1512170375.386699: $GPGSA,A,3,3,14,16,22,23,25,26,31,32,1,29,138,2.0,0.8,1.5*0C
2017-12-01 18:19:36 1512170376.722070: $GPGSV,3,1,12,03,39,301,46,14,56,090,43,16,21,189,43,22,50,273,45*78
2017-12-01 18:19:36 1512170376.722251: $GPGSV,3,2,12,23,10,300,39,25,19,040,40,26,52,172,47,31,68,024,46*71
2017-12-01 18:19:36 1512170376.722319: $GPGSV,3,3,12,32,37,106,39,01,07,253,32,29,10,073,00,138,38,213,46*4C
2017-12-01 18:19:36 1512170376.835468: $GPZDA,231937.00,01,12,2017,00,00*6D
2017-12-01 18:19:36 1512170376.835657: $GPGGA,231937,3946.9709,N,08404.9845,W,1,11,0.80,292.35,M,-33.325,M,,*74
2017-12-01 18:19:36 1512170376.835724: $GPRMC,231937,A,3946.9709,N,08404.9845,W,0.0000,0.000,011217,,*31
2017-12-01 18:19:36 1512170376.835785: $GPGSA,A,3,3,14,16,22,23,25,26,31,32,1,138,,2.0,0.8,1.5*07
2017-12-01 18:19:37 1512170377.460940: $GPZDA,231938.00,01,12,2017,00,00*62
2017-12-01 18:19:37 1512170377.461121: $GPGGA,231938,3946.9709,N,08404.9845,W,1,11,0.80,292.35,M,-33.325,M,,*7B
2017-12-01 18:19:37 1512170377.461191: $GPRMC,231938,A,3946.9709,N,08404.9845,W,0.0000,0.000,011217,,*3E
2017-12-01 18:19:37 1512170377.461302: $GPGSA,A,3,3,14,16,22,23,25,26,31,32,1,138,,2.0,0.8,1.5*07
2017-12-01 18:19:38 1512170378.385534: $GPZDA,231939.00,01,12,2017,00,00*63
2017-12-01 18:19:38 1512170378.385708: $GPGGA,231939,3946.9709,N,08404.9845,W,1,11,0.80,292.35,M,-33.325,M,,*7A
2017-12-01 18:19:38 1512170378.385774: $GPRMC,231939,A,3946.9709,N,08404.9845,W,0.0000,0.000,011217,,*3F
2017-12-01 18:19:38 1512170378.385836: $GPGSA,A,3,3,14,16,22,23,25,26,31,32,1,138,,2.0,0.8,1.5*07
2017-12-01 18:19:39 1512170379.722408: $GPGSV,3,1,12,03,39,301,47,14,56,090,43,16,21,189,42,22,50,273,45*78
2017-12-01 18:19:39 1512170379.722632: $GPGSV,3,2,12,23,10,300,40,25,19,040,40,26,52,172,47,31,68,024,46*7F
2017-12-01 18:19:39 1512170379.722702: $GPGSV,3,3,12,32,37,106,39,01,07,253,32,29,10,073,00,138,38,213,46*4C
2017-12-01 18:19:39 1512170379.836193: $GPZDA,231940.00,01,12,2017,00,00*6D
2017-12-01 18:19:39 1512170379.836383: $GPGGA,231940,3946.9713,N,08404.9844,W,1,11,0.80,291.59,M,-33.325,M,,*77
2017-12-01 18:19:39 1512170379.836468: $GPRMC,231940,A,3946.9713,N,08404.9844,W,0.0000,0.000,011217,,*3B
2017-12-01 18:19:39 1512170379.836531: $GPGSA,A,3,3,14,16,22,23,25,26,31,32,1,138,,2.0,0.8,1.5*07
2017-12-01 18:19:40 1512170380.387092: $GPZDA,231941.00,01,12,2017,00,00*6C
2017-12-01 18:19:40 1512170380.387259: $GPGGA,231941,3946.9713,N,08404.9844,W,1,11,0.80,291.59,M,-33.325,M,,*76
2017-12-01 18:19:40 1512170380.387350: $GPRMC,231941,A,3946.9713,N,08404.9844,W,0.0000,0.000,011217,,*3A
2017-12-01 18:19:40 1512170380.387413: $GPGSA,A,3,3,14,16,22,23,25,26,31,32,1,138,,2.0,0.8,1.5*07
2017-12-01 18:19:41 1512170381.390305: $GPZDA,231942.00,01,12,2017,00,00*6F
2017-12-01 18:19:41 1512170381.390476: $GPGGA,231942,3946.9715,N,08404.9836,W,2,11,1.00,289.50,M,-33.325,M,,*7C
2017-12-01 18:19:41 1512170381.390562: $GPRMC,231942,A,3946.9715,N,08404.9836,W,0.0000,0.000,011217,,*3A
2017-12-01 18:19:41 1512170381.390625: $GPGSA,A,3,3,14,16,22,23,25,26,31,32,1,138,,2.0,1.0,1.5*0E
2017-12-01 18:19:41 1512170381.390685: $GPGBS,231942,2.67,M,3.86,M,8.82,M*3D
2017-12-01 18:19:42 1512170382.721558: $GPGSV,3,1,12,03,39,301,47,14,56,090,43,16,21,189,43,22,50,273,45*79
2017-12-01 18:19:42 1512170382.721751: $GPGSV,3,2,12,23,10,300,40,25,19,040,40,26,52,172,47,31,68,024,46*7F
2017-12-01 18:19:42 1512170382.721819: $GPGSV,3,3,12,32,37,106,39,01,07,253,32,29,10,073,25,138,38,213,46*4B
2017-12-01 18:19:42 1512170382.834861: $GPZDA,231943.00,01,12,2017,00,00*6E
2017-12-01 18:19:42 1512170382.835042: $GPGGA,231943,3946.9715,N,08404.9836,W,2,12,1.00,289.50,M,-33.325,M,,*7E
2017-12-01 18:19:42 1512170382.835113: $GPRMC,231943,A,3946.9715,N,08404.9836,W,0.0000,0.000,011217,,*3B
2017-12-01 18:19:42 1512170382.835174: $GPGSA,A,3,3,14,16,22,23,25,26,31,32,1,29,138,2.0,1.0,1.5*05
