2018-01-11 20:06:16 1515719176.987957: {"class":"VERSION","release":"3.16","rev":"3.16-4","proto_major":3,"proto_minor":11}
2018-01-11 20:06:16 1515719176.988309: {"class":"DEVICES","devices":[{"class":"DEVICE","path":"/dev/ttyUSB0","driver":"SiRF","subtype":"9\u0006GSD4e_4.1.2-P1_RPATCH.05-F-GPS-4R-1510281 11/03/2015 307","activated":"2018-01-12T01:06:16.500Z","flags":1,"native":1,"bps":4800,"parity":"N","stopbits":1,"cycle":1.00}]}
2018-01-11 20:06:16 1515719176.988436: {"class":"WATCH","enable":true,"json":false,"nmea":true,"raw":0,"scaled":false,"timing":false,"split24":false,"pps":false}
2018-01-11 20:06:17 1515719177.693957: $GPGSV,3,1,10,07,53,313,40,08,72,139,46,09,50,232,44,11,18,168,46*71
2018-01-11 20:06:17 1515719177.694125: $GPGSV,3,2,10,16,25,058,44,23,31,190,47,27,49,055,50,28,12,256,36*7C
2018-01-11 20:06:17 1515719177.694191: $GPGSV,3,3,10,30,27,306,35,138,38,213,46*4E
2018-01-11 20:06:17 1515719177.807570: $GPZDA,010618.00,12,01,2018,00,00*61
2018-01-11 20:06:17 1515719177.807695: $GPGGA,010618,3946.9593,N,08404.9822,W,2,10,0.80,308.86,M,-33.324,M,,*7E
2018-01-11 20:06:17 1515719177.807780: $GPRMC,010618,A,3946.9593,N,08404.9822,W,0.0000,0.000,120118,,*3D
2018-01-11 20:06:17 1515719177.807842: $GPGSA,A,3,7,8,9,11,16,23,27,28,30,138,,,4.0,0.8,3.5*3E
2018-01-11 20:06:18 1515719178.373251: $GPZDA,010619.00,12,01,2018,00,00*60
2018-01-11 20:06:18 1515719178.373422: $GPGGA,010619,3946.9593,N,08404.9822,W,2,10,0.80,308.86,M,-33.324,M,,*7F
2018-01-11 20:06:18 1515719178.373489: $GPRMC,010619,A,3946.9593,N,08404.9822,W,0.0000,0.000,120118,,*3C
2018-01-11 20:06:18 1515719178.373551: $GPGSA,A,3,7,8,9,11,16,23,27,28,30,138,,,4.0,0.8,3.5*3E
2018-01-11 20:06:19 1515719179.374863: $GPZDA,010620.00,12,01,2018,00,00*6A
2018-01-11 20:06:19 1515719179.375062: $GPGGA,010620,3946.9589,N,08404.9822,W,2,10,0.80,308.22,M,-33.324,M,,*70
2018-01-11 20:06:19 1515719179.375129: $GPRMC,010620,A,3946.9589,N,08404.9822,W,0.0000,0.000,120118,,*3D
2018-01-11 20:06:19 1515719179.375189: $GPGSA,A,3,7,8,9,11,16,23,27,28,30,138,,,4.0,0.8,3.5*3E
2018-01-11 20:06:20 1515719180.691800: $GPGSV,3,1,10,07,53,313,40,08,72,139,46,09,50,232,44,11,18,168,46*71
2018-01-11 20:06:20 1515719180.691971: $GPGSV,3,2,10,16,25,058,44,23,31,190,47,27,49,055,50,28,12,256,37*7D
2018-01-11 20:06:20 1515719180.692038: $GPGSV,3,3,10,30,27,306,35,138,38,213,46*4E
2018-01-11 20:06:20 1515719180.805180: $GPZDA,010621.00,12,01,2018,00,00*6B
2018-01-11 20:06:20 1515719180.805310: $GPGGA,010621,3946.9589,N,08404.9822,W,2,10,0.80,308.22,M,-33.324,M,,*71
2018-01-11 20:06:20 1515719180.805374: $GPRMC,010621,A,3946.9589,N,08404.9822,W,0.0000,0.000,120118,,*3C
2018-01-11 20:06:20 1515719180.805435: $GPGSA,A,3,7,8,9,11,16,23,27,28,30,138,,,4.0,0.8,3.5*3E
2018-01-11 20:06:21 1515719181.358584: $GPZDA,010622.00,12,01,2018,00,00*68
2018-01-11 20:06:21 1515719181.358774: $GPGGA,010622,3946.9589,N,08404.9822,W,2,10,0.80,308.22,M,-33.324,M,,*72
2018-01-11 20:06:21 1515719181.358841: $GPRMC,010622,A,3946.9589,N,08404.9822,W,0.0000,0.000,120118,,*3F
2018-01-11 20:06:21 1515719181.358931: $GPGSA,A,3,7,8,9,11,16,23,27,28,30,138,,,4.0,0.8,3.5*3E
2018-01-11 20:06:22 1515719182.356940: $GPZDA,010623.00,12,01,2018,00,00*69
2018-01-11 20:06:22 1515719182.357101: $GPGGA,010623,3946.9589,N,08404.9822,W,2,10,0.80,308.22,M,-33.324,M,,*73
2018-01-11 20:06:22 1515719182.357167: $GPRMC,010623,A,3946.9589,N,08404.9822,W,0.0000,0.000,120118,,*3E
2018-01-11 20:06:22 1515719182.357244: $GPGSA,A,3,7,8,9,11,16,23,27,28,30,138,,,4.0,0.8,3.5*3E
2018-01-11 20:06:23 1515719183.693901: $GPGSV,3,1,10,07,53,313,41,08,72,139,46,09,50,232,44,11,18,168,46*70
2018-01-11 20:06:23 1515719183.694067: $GPGSV,3,2,10,16,25,058,44,23,31,190,47,27,49,055,50,28,12,256,37*7D
2018-01-11 20:06:23 1515719183.694133: $GPGSV,3,3,10,30,27,306,35,138,38,213,44*4C
2018-01-11 20:06:23 1515719183.807277: $GPZDA,010624.00,12,01,2018,00,00*6E
2018-01-11 20:06:23 1515719183.807409: $GPGGA,010624,3946.9589,N,08404.9822,W,2,10,0.80,308.22,M,-33.324,M,,*74
2018-01-11 20:06:23 1515719183.807474: $GPRMC,010624,A,3946.9589,N,08404.9822,W,0.0000,0.000,120118,,*39
2018-01-11 20:06:23 1515719183.807583: $GPGSA,A,3,7,8,9,11,16,23,27,28,30,138,,,4.0,0.8,3.5*3E
2018-01-11 20:06:24 1515719184.432672: $GPZDA,010625.00,12,01,2018,00,00*6F
2018-01-11 20:06:24 1515719184.432870: $GPGGA,010625,3946.9589,N,08404.9822,W,2,10,0.80,308.22,M,-33.324,M,,*75
2018-01-11 20:06:24 1515719184.432955: $GPRMC,010625,A,3946.9589,N,08404.9822,W,0.0000,0.000,120118,,*38
2018-01-11 20:06:24 1515719184.433017: $GPGSA,A,3,7,8,9,11,16,23,27,28,30,138,,,4.0,0.8,3.5*3E
2018-01-11 20:06:25 1515719185.374793: $GPZDA,010626.00,12,01,2018,00,00*6C
2018-01-11 20:06:25 1515719185.374977: $GPGGA,010626,3946.9589,N,08404.9822,W,2,10,0.80,308.22,M,-33.324,M,,*76
2018-01-11 20:06:25 1515719185.375044: $GPRMC,010626,A,3946.9589,N,08404.9822,W,0.0000,0.000,120118,,*3B
2018-01-11 20:06:25 1515719185.375123: $GPGSA,A,3,7,8,9,11,16,23,27,28,30,138,,,4.0,0.8,3.5*3E
2018-01-11 20:06:26 1515719186.708010: $GPGSV,3,1,10,07,53,313,41,08,72,139,46,09,50,232,44,11,18,168,46*70
2018-01-11 20:06:26 1515719186.708199: $GPGSV,3,2,10,16,25,058,45,23,31,190,47,27,49,055,50,28,12,256,37*7C
2018-01-11 20:06:26 1515719186.708267: $GPGSV,3,3,10,30,27,306,35,138,38,213,45*4D
2018-01-11 20:06:26 1515719186.821369: $GPZDA,010627.00,12,01,2018,00,00*6D
2018-01-11 20:06:26 1515719186.821502: $GPGGA,010627,3946.9589,N,08404.9822,W,2,10,0.80,308.22,M,-33.324,M,,*77
2018-01-11 20:06:26 1515719186.821567: $GPRMC,010627,A,3946.9589,N,08404.9822,W,0.0000,0.000,120118,,*3A
2018-01-11 20:06:26 1515719186.821627: $GPGSA,A,3,7,8,9,11,16,23,27,28,30,138,,,4.0,0.8,3.5*3E
2018-01-11 20:06:27 1515719187.360153: $GPZDA,010628.00,12,01,2018,00,00*62
2018-01-11 20:06:27 1515719187.360305: $GPGGA,010628,3946.9589,N,08404.9822,W,2,10,0.80,308.22,M,-33.324,M,,*78
2018-01-11 20:06:27 1515719187.360371: $GPRMC,010628,A,3946.9589,N,08404.9822,W,0.0000,0.000,120118,,*35
2018-01-11 20:06:27 1515719187.360432: $GPGSA,A,3,7,8,9,11,16,23,27,28,30,138,,,4.0,0.8,3.5*3E
