2018-01-12 03:17:51 1515745071.724988: {"class":"VERSION","release":"3.16","rev":"3.16-4","proto_major":3,"proto_minor":11}
2018-01-12 03:17:51 1515745071.725346: {"class":"DEVICES","devices":[{"class":"DEVICE","path":"/dev/ttyUSB0","driver":"SiRF","subtype":"9\u0006GSD4e_4.1.2-P1_RPATCH.05-F-GPS-4R-1510281 11/03/2015 307","activated":"2018-01-12T08:17:51.490Z","flags":1,"native":1,"bps":4800,"parity":"N","stopbits":1,"cycle":1.00}]}
2018-01-12 03:17:51 1515745071.725485: {"class":"WATCH","enable":true,"json":false,"nmea":true,"raw":0,"scaled":false,"timing":false,"split24":false,"pps":false}
2018-01-12 03:17:52 1515745072.354277: $GPZDA,081753.00,12,01,2018,00,00*67
2018-01-12 03:17:52 1515745072.354462: $GPGGA,081753,3946.9560,N,08404.9858,W,2,11,1.00,292.68,M,-33.324,M,,*73
2018-01-12 03:17:52 1515745072.354549: $GPRMC,081753,A,3946.9560,N,08404.9858,W,0.0000,0.000,120118,,*3A
2018-01-12 03:17:52 1515745072.354612: $GPGSA,A,3,2,5,6,12,17,19,25,23,24,9,138,,2.4,1.0,2.1*09
2018-01-12 03:17:53 1515745073.685707: $GPGSV,3,1,12,02,60,274,47,05,19,195,43,06,70,018,50,12,47,300,51*73
2018-01-12 03:17:53 1515745073.685885: $GPGSV,3,2,12,17,36,097,47,19,54,084,42,25,13,321,40,23,08,061,24*7F
2018-01-12 03:17:53 1515745073.685951: $GPGSV,3,3,12,24,07,252,31,09,10,094,00,04,32,255,00,138,38,213,38*44
2018-01-12 03:17:53 1515745073.799554: $GPZDA,081754.00,12,01,2018,00,00*60
2018-01-12 03:17:53 1515745073.799743: $GPGGA,081754,3946.9560,N,08404.9858,W,2,10,1.00,292.68,M,-33.324,M,,*75
2018-01-12 03:17:53 1515745073.799809: $GPRMC,081754,A,3946.9560,N,08404.9858,W,0.0000,0.000,120118,,*3D
2018-01-12 03:17:53 1515745073.799872: $GPGSA,A,3,2,5,6,12,17,19,25,23,24,138,,,2.4,1.0,2.1*30
2018-01-12 03:17:54 1515745074.349297: $GPZDA,081755.00,12,01,2018,00,00*61
2018-01-12 03:17:54 1515745074.349635: $GPGGA,081755,3946.9560,N,08404.9858,W,2,10,1.00,292.68,M,-33.324,M,,*74
2018-01-12 03:17:54 1515745074.349787: $GPRMC,081755,A,3946.9560,N,08404.9858,W,0.0000,0.000,120118,,*3C
2018-01-12 03:17:54 1515745074.349964: $GPGSA,A,3,2,5,6,12,17,19,25,23,24,138,,,2.4,1.0,2.1*30
2018-01-12 03:17:55 1515745075.352089: $GPZDA,081756.00,12,01,2018,00,00*62
2018-01-12 03:17:55 1515745075.352258: $GPGGA,081756,3946.9560,N,08404.9858,W,2,10,1.00,292.68,M,-33.324,M,,*77
2018-01-12 03:17:55 1515745075.352325: $GPRMC,081756,A,3946.9560,N,08404.9858,W,0.0000,0.000,120118,,*3F
2018-01-12 03:17:55 1515745075.352407: $GPGSA,A,3,2,5,6,12,17,19,25,23,24,138,,,2.4,1.0,2.1*30
2018-01-12 03:17:56 1515745076.685321: $GPGSV,3,1,12,02,60,274,47,05,19,195,43,06,70,018,50,12,47,300,51*73
2018-01-12 03:17:56 1515745076.685547: $GPGSV,3,2,12,17,36,097,46,19,54,084,43,25,13,321,39,23,08,061,24*71
2018-01-12 03:17:56 1515745076.685634: $GPGSV,3,3,12,24,07,252,31,09,10,094,20,04,32,255,00,138,38,213,38*46
2018-01-12 03:17:56 1515745076.798853: $GPZDA,081757.00,12,01,2018,00,00*63
2018-01-12 03:17:56 1515745076.799163: $GPGGA,081757,3946.9560,N,08404.9858,W,2,11,1.00,292.68,M,-33.324,M,,*77
2018-01-12 03:17:56 1515745076.799310: $GPRMC,081757,A,3946.9560,N,08404.9858,W,0.0000,0.000,120118,,*3E
2018-01-12 03:17:56 1515745076.799441: $GPGSA,A,3,2,5,6,12,17,19,25,23,24,9,138,,2.4,1.0,2.1*09
2018-01-12 03:17:57 1515745077.349602: $GPZDA,081758.00,12,01,2018,00,00*6C
2018-01-12 03:17:57 1515745077.349770: $GPGGA,081758,3946.9560,N,08404.9858,W,2,11,1.00,292.68,M,-33.324,M,,*78
2018-01-12 03:17:57 1515745077.349837: $GPRMC,081758,A,3946.9560,N,08404.9858,W,0.0000,0.000,120118,,*31
2018-01-12 03:17:57 1515745077.349897: $GPGSA,A,3,2,5,6,12,17,19,25,23,24,9,138,,2.4,1.0,2.1*09
2018-01-12 03:17:58 1515745078.349921: $GPZDA,081759.00,12,01,2018,00,00*6D
2018-01-12 03:17:58 1515745078.350092: $GPGGA,081759,3946.9560,N,08404.9858,W,2,11,1.00,292.68,M,-33.324,M,,*79
2018-01-12 03:17:58 1515745078.350158: $GPRMC,081759,A,3946.9560,N,08404.9858,W,0.0000,0.000,120118,,*30
2018-01-12 03:17:58 1515745078.350218: $GPGSA,A,3,2,5,6,12,17,19,25,23,24,9,138,,2.4,1.0,2.1*09
2018-01-12 03:17:59 1515745079.685668: $GPGSV,3,1,12,02,60,274,47,05,19,195,43,06,70,018,50,12,47,300,50*72
2018-01-12 03:17:59 1515745079.685874: $GPGSV,3,2,12,17,36,097,47,19,54,084,43,25,13,321,40,23,08,061,28*72
2018-01-12 03:17:59 1515745079.685942: $GPGSV,3,3,12,24,07,252,31,09,10,094,26,04,32,255,00,138,38,213,36*4E
2018-01-12 03:17:59 1515745079.797911: $GPZDA,081800.00,12,01,2018,00,00*6E
2018-01-12 03:17:59 1515745079.798119: $GPGGA,081800,3946.9560,N,08404.9858,W,2,11,1.00,292.68,M,-33.324,M,,*7A
2018-01-12 03:17:59 1515745079.798186: $GPRMC,081800,A,3946.9560,N,08404.9858,W,0.0000,0.000,120118,,*33
2018-01-12 03:17:59 1515745079.798248: $GPGSA,A,3,2,5,6,12,17,19,25,23,24,9,138,,2.4,1.0,2.1*09
2018-01-12 03:18:00 1515745080.342532: $GPZDA,081801.00,12,01,2018,00,00*6F
2018-01-12 03:18:00 1515745080.342764: $GPGGA,081801,3946.9560,N,08404.9858,W,2,11,1.00,292.68,M,-33.324,M,,*7B
2018-01-12 03:18:00 1515745080.342832: $GPRMC,081801,A,3946.9560,N,08404.9858,W,0.0000,0.000,120118,,*32
2018-01-12 03:18:00 1515745080.342894: $GPGSA,A,3,2,5,6,12,17,19,25,23,24,9,138,,2.4,1.0,2.1*09
2018-01-12 03:18:01 1515745081.344703: $GPZDA,081802.00,12,01,2018,00,00*6C
2018-01-12 03:18:01 1515745081.344873: $GPGGA,081802,3946.9560,N,08404.9858,W,2,11,1.00,292.68,M,-33.324,M,,*78
2018-01-12 03:18:01 1515745081.344941: $GPRMC,081802,A,3946.9560,N,08404.9858,W,0.0000,0.000,120118,,*31
2018-01-12 03:18:01 1515745081.345002: $GPGSA,A,3,2,5,6,12,17,19,25,23,24,9,138,,2.4,1.0,2.1*09
2018-01-12 03:18:02 1515745082.684038: $GPGSV,3,1,12,02,60,274,47,05,19,195,43,06,70,018,50,12,47,300,51*73
2018-01-12 03:18:02 1515745082.684262: $GPGSV,3,2,12,17,36,097,47,19,54,084,43,25,13,321,40,23,08,061,27*7D
2018-01-12 03:18:02 1515745082.684355: $GPGSV,3,3,12,24,07,252,31,09,10,094,00,04,32,255,00,138,38,213,36*4A
2018-01-12 03:18:02 1515745082.796754: $GPZDA,081803.00,12,01,2018,00,00*6D
2018-01-12 03:18:02 1515745082.797090: $GPGGA,081803,3946.9560,N,08404.9858,W,2,10,1.00,292.68,M,-33.324,M,,*78
2018-01-12 03:18:02 1515745082.797226: $GPRMC,081803,A,3946.9560,N,08404.9858,W,0.0000,0.000,120118,,*30
2018-01-12 03:18:02 1515745082.797520: $GPGSA,A,3,2,5,6,12,17,19,25,23,24,138,,,2.4,1.0,2.1*30
2018-01-12 03:18:03 1515745083.422790: $GPZDA,081804.00,12,01,2018,00,00*6A
2018-01-12 03:18:03 1515745083.422986: $GPGGA,081804,3946.9560,N,08404.9858,W,2,10,1.00,292.68,M,-33.324,M,,*7F
2018-01-12 03:18:03 1515745083.423056: $GPRMC,081804,A,3946.9560,N,08404.9858,W,0.0000,0.000,120118,,*37
2018-01-12 03:18:03 1515745083.423117: $GPGSA,A,3,2,5,6,12,17,19,25,23,24,138,,,2.4,1.0,2.1*30
2018-01-12 03:18:04 1515745084.348660: $GPZDA,081805.00,12,01,2018,00,00*6B
2018-01-12 03:18:04 1515745084.348841: $GPGGA,081805,3946.9560,N,08404.9858,W,2,10,1.00,292.68,M,-33.324,M,,*7E
2018-01-12 03:18:04 1515745084.348907: $GPRMC,081805,A,3946.9560,N,08404.9858,W,0.0000,0.000,120118,,*36
2018-01-12 03:18:04 1515745084.348968: $GPGSA,A,3,2,5,6,12,17,19,25,23,24,138,,,2.4,1.0,2.1*30
2018-01-12 03:18:05 1515745085.683144: $GPGSV,3,1,12,02,60,274,47,05,19,195,43,06,70,018,50,12,47,300,51*73
2018-01-12 03:18:05 1515745085.683340: $GPGSV,3,2,12,17,36,097,47,19,54,084,43,25,13,321,40,23,08,061,27*7D
2018-01-12 03:18:05 1515745085.683407: $GPGSV,3,3,12,24,07,252,31,09,10,094,00,04,32,255,00,138,38,213,38*44
2018-01-12 03:18:05 1515745085.796818: $GPZDA,081806.00,12,01,2018,00,00*68
2018-01-12 03:18:05 1515745085.796988: $GPGGA,081806,3946.9560,N,08404.9858,W,2,10,1.00,292.68,M,-33.324,M,,*7D
2018-01-12 03:18:05 1515745085.797052: $GPRMC,081806,A,3946.9560,N,08404.9858,W,0.0000,0.000,120118,,*35
2018-01-12 03:18:05 1515745085.797113: $GPGSA,A,3,2,5,6,12,17,19,25,23,24,138,,,2.4,1.0,2.1*30
2018-01-12 03:18:06 1515745086.359919: $GPZDA,081807.00,12,01,2018,00,00*69
2018-01-12 03:18:06 1515745086.360095: $GPGGA,081807,3946.9560,N,08404.9858,W,2,10,1.00,292.68,M,-33.324,M,,*7C
2018-01-12 03:18:06 1515745086.360164: $GPRMC,081807,A,3946.9560,N,08404.9858,W,0.0000,0.000,120118,,*34
2018-01-12 03:18:06 1515745086.360225: $GPGSA,A,3,2,5,6,12,17,19,25,23,24,138,,,2.4,1.0,2.1*30
2018-01-12 03:18:07 1515745087.349767: $GPZDA,081808.00,12,01,2018,00,00*66
2018-01-12 03:18:07 1515745087.349986: $GPGGA,081808,3946.9560,N,08404.9858,W,2,10,1.00,292.68,M,-33.324,M,,*73
2018-01-12 03:18:07 1515745087.350054: $GPRMC,081808,A,3946.9560,N,08404.9858,W,0.0000,0.000,120118,,*3B
2018-01-12 03:18:07 1515745087.350115: $GPGSA,A,3,2,5,6,12,17,19,25,23,24,138,,,2.4,1.0,2.1*30
2018-01-12 03:18:08 1515745088.684775: $GPGSV,3,1,12,02,60,274,47,05,19,195,44,06,70,018,50,12,47,300,50*75
2018-01-12 03:18:08 1515745088.684955: $GPGSV,3,2,12,17,36,097,47,19,54,084,43,25,13,321,40,23,08,061,26*7C
2018-01-12 03:18:08 1515745088.685021: $GPGSV,3,3,12,24,07,252,31,09,10,094,24,04,32,255,00,138,38,213,40*4D
2018-01-12 03:18:08 1515745088.798475: $GPZDA,081809.00,12,01,2018,00,00*67
2018-01-12 03:18:08 1515745088.798672: $GPGGA,081809,3946.9560,N,08404.9858,W,2,11,1.00,292.68,M,-33.324,M,,*73
2018-01-12 03:18:08 1515745088.798741: $GPRMC,081809,A,3946.9560,N,08404.9858,W,0.0000,0.000,120118,,*3A
2018-01-12 03:18:08 1515745088.798802: $GPGSA,A,3,2,5,6,12,17,19,25,23,24,9,138,,2.4,1.0,2.1*09
2018-01-12 03:18:09 1515745089.349053: $GPZDA,081810.00,12,01,2018,00,00*6F
2018-01-12 03:18:09 1515745089.349227: $GPGGA,081810,3946.9560,N,08404.9858,W,2,11,1.00,292.68,M,-33.324,M,,*7B
2018-01-12 03:18:09 1515745089.349318: $GPRMC,081810,A,3946.9560,N,08404.9858,W,0.0000,0.000,120118,,*32
2018-01-12 03:18:09 1515745089.349381: $GPGSA,A,3,2,5,6,12,17,19,25,23,24,9,138,,2.4,1.0,2.1*09
2018-01-12 03:18:10 1515745090.364967: $GPZDA,081811.00,12,01,2018,00,00*6E
2018-01-12 03:18:10 1515745090.365139: $GPGGA,081811,3946.9560,N,08404.9858,W,2,11,1.00,292.68,M,-33.324,M,,*7A
2018-01-12 03:18:10 1515745090.365207: $GPRMC,081811,A,3946.9560,N,08404.9858,W,0.0000,0.000,120118,,*33
2018-01-12 03:18:10 1515745090.365268: $GPGSA,A,3,2,5,6,12,17,19,25,23,24,9,138,,2.4,1.0,2.1*09
2018-01-12 03:18:11 1515745091.704575: $GPGSV,3,1,12,02,60,274,47,05,19,195,44,06,70,018,50,12,47,300,50*75
2018-01-12 03:18:11 1515745091.704745: $GPGSV,3,2,12,17,36,097,47,19,54,084,43,25,13,321,41,23,08,061,21*7A
2018-01-12 03:18:11 1515745091.704809: $GPGSV,3,3,12,24,07,252,24,09,10,094,26,04,32,255,00,138,38,213,38*44
