2017-11-16 17:08:48 1510870128.562520: {"class":"VERSION","release":"3.17","rev":"3.17","proto_major":3,"proto_minor":12}
2017-11-16 17:08:48 1510870128.563524: {"class":"DEVICES","devices":[{"class":"DEVICE","path":"/dev/ttyUSB0","driver":"SiRF","subtype":"9\u0006GSD4e_4.1.2-P1_RPATCH.05-F-GPS-4R-1510281 11/03/2015 307","activated":"2017-11-16T22:08:48.285Z","flags":1,"native":1,"bps":4800,"parity":"N","stopbits":1,"cycle":1.00}]}
2017-11-16 17:08:48 1510870128.563691: {"class":"WATCH","enable":true,"json":false,"nmea":true,"raw":0,"scaled":false,"timing":false,"split24":false,"pps":false}
2017-11-16 17:08:48 1510870128.734891: $GPGSV,3,1,12,01,18,312,40,10,60,141,47,11,10,292,35,12,25,061,50*7C
2017-11-16 17:08:48 1510870128.735153: $GPGSV,3,2,12,14,60,306,47,18,29,139,45,22,09,312,34,24,06,046,36*7F
2017-11-16 17:08:48 1510870128.735216: $GPGSV,3,3,12,25,35,105,47,31,43,217,48,32,70,354,50,138,38,213,45*40
2017-11-16 17:08:48 1510870128.848164: $GPZDA,220847.00,16,11,2017,00,00*6E
2017-11-16 17:08:48 1510870128.848333: $GPGGA,220847,3946.9568,N,08404.9826,W,2,12,0.80,312.81,M,-33.324,M,,*75
2017-11-16 17:08:48 1510870128.848396: $GPRMC,220847,A,3946.9568,N,08404.9826,W,0.0000,0.000,161117,,*32
2017-11-16 17:08:48 1510870128.848453: $GPGSA,A,3,1,10,11,12,14,18,22,24,25,31,32,138,1.6,0.8,1.3*38
2017-11-16 17:08:49 1510870129.397649: $GPZDA,220848.00,16,11,2017,00,00*61
2017-11-16 17:08:49 1510870129.402222: $GPGGA,220848,3946.9568,N,08404.9826,W,2,12,0.80,312.81,M,-33.324,M,,*7A
2017-11-16 17:08:49 1510870129.402355: $GPRMC,220848,A,3946.9568,N,08404.9826,W,0.0000,0.000,161117,,*3D
2017-11-16 17:08:49 1510870129.402414: $GPGSA,A,3,1,10,11,12,14,18,22,24,25,31,32,138,1.6,0.8,1.3*38
2017-11-16 17:08:50 1510870130.392274: $GPZDA,220849.00,16,11,2017,00,00*60
2017-11-16 17:08:50 1510870130.392438: $GPGGA,220849,3946.9568,N,08404.9826,W,2,12,0.80,312.81,M,-33.324,M,,*7B
2017-11-16 17:08:50 1510870130.392500: $GPRMC,220849,A,3946.9568,N,08404.9826,W,0.0000,0.000,161117,,*3C
2017-11-16 17:08:50 1510870130.392556: $GPGSA,A,3,1,10,11,12,14,18,22,24,25,31,32,138,1.6,0.8,1.3*38
2017-11-16 17:08:51 1510870131.733836: $GPGSV,3,1,12,01,18,312,41,10,60,141,47,11,10,292,35,12,25,061,49*75
2017-11-16 17:08:51 1510870131.734006: $GPGSV,3,2,12,14,60,306,47,18,29,139,45,22,09,312,35,24,06,046,36*7E
2017-11-16 17:08:51 1510870131.734066: $GPGSV,3,3,12,25,35,105,47,31,43,217,48,32,70,354,50,138,38,213,44*41
2017-11-16 17:08:51 1510870131.847156: $GPZDA,220850.00,16,11,2017,00,00*68
2017-11-16 17:08:51 1510870131.847349: $GPGGA,220850,3946.9568,N,08404.9826,W,2,12,0.80,312.81,M,-33.324,M,,*73
2017-11-16 17:08:51 1510870131.847413: $GPRMC,220850,A,3946.9568,N,08404.9826,W,0.0000,0.000,161117,,*34
2017-11-16 17:08:51 1510870131.847469: $GPGSA,A,3,1,10,11,12,14,18,22,24,25,31,32,138,1.6,0.8,1.3*38
2017-11-16 17:08:52 1510870132.393154: $GPZDA,220851.00,16,11,2017,00,00*69
2017-11-16 17:08:52 1510870132.393319: $GPGGA,220851,3946.9568,N,08404.9826,W,2,12,0.80,312.81,M,-33.324,M,,*72
2017-11-16 17:08:52 1510870132.393382: $GPRMC,220851,A,3946.9568,N,08404.9826,W,0.0000,0.000,161117,,*35
2017-11-16 17:08:52 1510870132.393438: $GPGSA,A,3,1,10,11,12,14,18,22,24,25,31,32,138,1.6,0.8,1.3*38
2017-11-16 17:08:53 1510870133.398953: $GPZDA,220852.00,16,11,2017,00,00*6A
2017-11-16 17:08:53 1510870133.399122: $GPGGA,220852,3946.9568,N,08404.9826,W,2,12,0.80,312.81,M,-33.324,M,,*71
2017-11-16 17:08:53 1510870133.399184: $GPRMC,220852,A,3946.9568,N,08404.9826,W,0.0000,0.000,161117,,*36
2017-11-16 17:08:53 1510870133.399240: $GPGSA,A,3,1,10,11,12,14,18,22,24,25,31,32,138,1.6,0.8,1.3*38
2017-11-16 17:08:54 1510870134.734728: $GPGSV,3,1,12,01,18,312,41,10,60,141,47,11,10,292,35,12,25,061,50*7D
2017-11-16 17:08:54 1510870134.734896: $GPGSV,3,2,12,14,60,306,47,18,29,139,44,22,09,312,35,24,06,046,36*7F
2017-11-16 17:08:54 1510870134.734956: $GPGSV,3,3,12,25,35,105,47,31,43,217,48,32,70,354,50,138,38,213,44*41
2017-11-16 17:08:54 1510870134.846785: $GPZDA,220853.00,16,11,2017,00,00*6B
2017-11-16 17:08:54 1510870134.846947: $GPGGA,220853,3946.9568,N,08404.9826,W,2,12,0.80,312.81,M,-33.324,M,,*70
2017-11-16 17:08:54 1510870134.847064: $GPRMC,220853,A,3946.9568,N,08404.9826,W,0.0000,0.000,161117,,*37
2017-11-16 17:08:54 1510870134.847123: $GPGSA,A,3,1,10,11,12,14,18,22,24,25,31,32,138,1.6,0.8,1.3*38
2017-11-16 17:08:55 1510870135.413917: $GPZDA,220854.00,16,11,2017,00,00*6C
2017-11-16 17:08:55 1510870135.414077: $GPGGA,220854,3946.9568,N,08404.9826,W,2,12,0.80,312.81,M,-33.324,M,,*77
2017-11-16 17:08:55 1510870135.414141: $GPRMC,220854,A,3946.9568,N,08404.9826,W,0.0000,0.000,161117,,*30
2017-11-16 17:08:55 1510870135.414197: $GPGSA,A,3,1,10,11,12,14,18,22,24,25,31,32,138,1.6,0.8,1.3*38
2017-11-16 17:08:56 1510870136.398038: $GPZDA,220855.00,16,11,2017,00,00*6D
2017-11-16 17:08:56 1510870136.398209: $GPGGA,220855,3946.9568,N,08404.9826,W,2,12,0.80,312.81,M,-33.324,M,,*76
2017-11-16 17:08:56 1510870136.398274: $GPRMC,220855,A,3946.9568,N,08404.9826,W,0.0000,0.000,161117,,*31
2017-11-16 17:08:56 1510870136.398330: $GPGSA,A,3,1,10,11,12,14,18,22,24,25,31,32,138,1.6,0.8,1.3*38
2017-11-16 17:08:57 1510870137.732583: $GPGSV,3,1,12,01,18,312,41,10,60,141,46,11,10,292,35,12,25,061,50*7C
2017-11-16 17:08:57 1510870137.732756: $GPGSV,3,2,12,14,60,306,47,18,29,139,45,22,09,312,36,24,06,046,36*7D
2017-11-16 17:08:57 1510870137.732816: $GPGSV,3,3,12,25,35,105,46,31,43,217,48,32,70,354,50,138,38,213,44*40
2017-11-16 17:08:57 1510870137.845911: $GPZDA,220856.00,16,11,2017,00,00*6E
2017-11-16 17:08:57 1510870137.846079: $GPGGA,220856,3946.9568,N,08404.9826,W,2,12,0.80,312.81,M,-33.324,M,,*75
2017-11-16 17:08:57 1510870137.846143: $GPRMC,220856,A,3946.9568,N,08404.9826,W,0.0000,0.000,161117,,*32
2017-11-16 17:08:57 1510870137.846199: $GPGSA,A,3,1,10,11,12,14,18,22,24,25,31,32,138,1.6,0.8,1.3*38
2017-11-16 17:08:58 1510870138.413057: $GPZDA,220857.00,16,11,2017,00,00*6F
2017-11-16 17:08:58 1510870138.413227: $GPGGA,220857,3946.9568,N,08404.9826,W,2,12,0.80,312.81,M,-33.324,M,,*74
2017-11-16 17:08:58 1510870138.413288: $GPRMC,220857,A,3946.9568,N,08404.9826,W,0.0000,0.000,161117,,*33
2017-11-16 17:08:58 1510870138.413345: $GPGSA,A,3,1,10,11,12,14,18,22,24,25,31,32,138,1.6,0.8,1.3*38
