2017-12-29 10:51:03 1514562663.517937: {"class":"VERSION","release":"3.16","rev":"3.16-4","proto_major":3,"proto_minor":11}
2017-12-29 10:51:03 1514562663.518362: {"class":"DEVICES","devices":[{"class":"DEVICE","path":"/dev/ttyUSB0","driver":"SiRF","subtype":"9\u0006GSD4e_4.1.2-P1_RPATCH.05-F-GPS-4R-1510281 11/03/2015 307","activated":"2017-12-29T15:51:03.123Z","flags":1,"native":1,"bps":4800,"parity":"N","stopbits":1,"cycle":1.00}]}
2017-12-29 10:51:03 1514562663.518479: {"class":"WATCH","enable":true,"json":false,"nmea":true,"raw":0,"scaled":false,"timing":false,"split24":false,"pps":false}
2017-12-29 10:51:04 1514562664.423618: $GPRMC,155105,V,18000.0000,N,00000.0000,W,0.0000,0.000,291217,,*1A
2017-12-29 10:51:04 1514562664.423779: $GPGSA,A,1,10,13,15,18,20,21,24,27,32,138,,,,,,*05
2017-12-29 10:51:06 1514562666.221778: $GPGSV,3,1,10,10,33,292,08,13,17,046,09,15,48,049,10,18,64,316,29*75
2017-12-29 10:51:06 1514562666.221943: $GPGSV,3,2,10,20,43,085,10,21,74,208,09,24,44,126,10,27,19,301,07*79
2017-12-29 10:51:06 1514562666.222009: $GPGSV,3,3,10,32,12,231,00,08,01,331,00*72
2017-12-29 10:51:06 1514562666.335235: $GPZDA,155105.68,29,12,2017,00,00*61
2017-12-29 10:51:06 1514562666.335385: $GPGGA,155105,3946.9592,N,08404.9804,W,1,08,1.40,301.24,M,-33.324,M,,*76
2017-12-29 10:51:06 1514562666.335452: $GPRMC,155105,A,3946.9592,N,08404.9804,W,0.2959,54.767,291217,,*06
2017-12-29 10:51:06 1514562666.335512: $GPGSA,A,3,10,13,15,18,20,21,24,27,,,,,1.7,1.4,1.3*3F
2017-12-29 10:51:06 1514562666.335569: $GPGBS,155105,10.91,M,10.38,M,30.89,M*0A
2017-12-29 10:51:07 1514562667.084864: $GPZDA,155106.08,29,12,2017,00,00*64
2017-12-29 10:51:07 1514562667.085025: $GPGGA,155106,3946.9592,N,08404.9804,W,1,08,1.40,301.24,M,-33.324,M,,*75
2017-12-29 10:51:07 1514562667.085093: $GPRMC,155106,A,3946.9592,N,08404.9804,W,0.5985,43.010,291217,,*02
2017-12-29 10:51:07 1514562667.085155: $GPGSA,A,3,10,13,15,18,20,21,24,27,,,,,1.7,1.4,1.3*3F
2017-12-29 10:51:07 1514562667.085212: $GPGBS,155106,10.91,M,10.38,M,30.89,M*09
2017-12-29 10:51:07 1514562667.499956: $GPZDA,155106.59,29,12,2017,00,00*60
2017-12-29 10:51:07 1514562667.500110: $GPGGA,155106,3946.9592,N,08404.9804,W,1,08,1.40,301.24,M,-33.324,M,,*75
2017-12-29 10:51:07 1514562667.500194: $GPRMC,155106,A,3946.9592,N,08404.9804,W,0.5928,357.578,291217,,*38
2017-12-29 10:51:07 1514562667.500257: $GPGSA,A,3,10,13,15,18,20,21,24,27,,,,,1.7,1.4,1.3*3F
2017-12-29 10:51:08 1514562668.089896: $GPGSV,3,1,11,10,33,292,42,13,17,046,44,15,48,049,48,18,64,316,45*74
2017-12-29 10:51:08 1514562668.090072: $GPGSV,3,2,11,20,43,085,50,21,74,208,47,24,44,126,50,27,19,301,37*71
2017-12-29 10:51:08 1514562668.090139: $GPGSV,3,3,11,08,01,331,04,32,12,231,06,138,38,213,00*70
2017-12-29 10:51:08 1514562668.203320: $GPZDA,155107.00,29,12,2017,00,00*6D
2017-12-29 10:51:08 1514562668.203473: $GPGGA,155107,3946.9592,N,08404.9804,W,1,08,1.40,301.24,M,-33.324,M,,*74
2017-12-29 10:51:08 1514562668.203539: $GPRMC,155107,A,3946.9592,N,08404.9804,W,0.4457,29.083,291217,,*06
2017-12-29 10:51:08 1514562668.203600: $GPGSA,A,3,10,13,15,18,20,21,24,27,,,,,1.7,1.4,1.3*3F
2017-12-29 10:51:08 1514562668.828719: $GPZDA,155108.00,29,12,2017,00,00*62
2017-12-29 10:51:08 1514562668.828877: $GPGGA,155108,3946.9592,N,08404.9804,W,1,08,0.80,301.24,M,-33.324,M,,*76
2017-12-29 10:51:08 1514562668.828944: $GPRMC,155108,A,3946.9592,N,08404.9804,W,0.2202,353.469,291217,,*37
2017-12-29 10:51:08 1514562668.829005: $GPGSA,A,3,10,13,15,18,20,21,24,27,,,,,1.7,0.8,1.3*32
2017-12-29 10:51:09 1514562669.279558: $GPZDA,155109.00,29,12,2017,00,00*63
2017-12-29 10:51:09 1514562669.279729: $GPGGA,155109,3946.9592,N,08404.9811,W,1,08,0.80,301.16,M,-33.324,M,,*72
2017-12-29 10:51:09 1514562669.279796: $GPRMC,155109,A,3946.9592,N,08404.9811,W,0.0000,0.000,291217,,*3E
2017-12-29 10:51:09 1514562669.279858: $GPGSA,A,3,10,13,15,18,20,21,24,27,,,,,1.7,0.8,1.3*32
2017-12-29 10:51:10 1514562670.067769: $GPGSV,3,1,11,10,33,292,41,13,17,046,44,15,48,049,49,18,64,316,44*77
2017-12-29 10:51:10 1514562670.067931: $GPGSV,3,2,11,20,43,085,51,21,74,208,47,24,44,126,51,27,19,301,38*7E
2017-12-29 10:51:10 1514562670.068050: $GPGSV,3,3,11,08,01,331,00,32,12,231,30,138,38,213,48*7D
2017-12-29 10:51:10 1514562670.181334: $GPZDA,155110.00,29,12,2017,00,00*6B
2017-12-29 10:51:10 1514562670.181488: $GPGGA,155110,3946.9596,N,08404.9810,W,1,10,0.80,300.39,M,-33.324,M,,*7A
2017-12-29 10:51:10 1514562670.181556: $GPRMC,155110,A,3946.9596,N,08404.9810,W,0.1867,0.000,291217,,*3B
2017-12-29 10:51:10 1514562670.181617: $GPGSA,A,3,10,13,15,18,20,21,24,27,32,138,,,1.7,0.8,1.3*09
2017-12-29 10:51:10 1514562670.653330: $GPZDA,155111.00,29,12,2017,00,00*6A
2017-12-29 10:51:10 1514562670.653495: $GPGGA,155111,3946.9596,N,08404.9810,W,1,10,0.80,300.39,M,-33.324,M,,*7B
2017-12-29 10:51:10 1514562670.653562: $GPRMC,155111,A,3946.9596,N,08404.9810,W,0.0000,0.000,291217,,*32
2017-12-29 10:51:10 1514562670.653622: $GPGSA,A,3,10,13,15,18,20,21,24,27,32,138,,,1.7,0.8,1.3*09
2017-12-29 10:51:10 1514562670.653699: $GPGBS,155111,10.91,M,10.38,M,30.89,M*0F
2017-12-29 10:51:11 1514562671.420366: $GPZDA,155112.00,29,12,2017,00,00*69
2017-12-29 10:51:11 1514562671.420542: $GPGGA,155112,3946.9596,N,08404.9810,W,1,10,0.80,300.39,M,-33.324,M,,*78
2017-12-29 10:51:11 1514562671.420609: $GPRMC,155112,A,3946.9596,N,08404.9810,W,0.0000,0.000,291217,,*31
2017-12-29 10:51:11 1514562671.420670: $GPGSA,A,3,10,13,15,18,20,21,24,27,32,138,,,1.7,0.8,1.3*09
2017-12-29 10:51:11 1514562671.420728: $GPGBS,155112,10.91,M,10.38,M,30.89,M*0C
2017-12-29 10:51:12 1514562672.756813: $GPGSV,3,1,11,10,33,292,41,13,17,046,44,15,48,049,49,18,64,316,44*77
2017-12-29 10:51:12 1514562672.756989: $GPGSV,3,2,11,20,43,085,51,21,74,208,48,24,44,126,51,27,19,301,38*71
2017-12-29 10:51:12 1514562672.757058: $GPGSV,3,3,11,08,01,331,00,32,12,231,30,138,38,213,46*73
2017-12-29 10:51:12 1514562672.870172: $GPZDA,155113.00,29,12,2017,00,00*68
2017-12-29 10:51:12 1514562672.870326: $GPGGA,155113,3946.9596,N,08404.9817,W,1,10,0.80,300.31,M,-33.324,M,,*76
2017-12-29 10:51:12 1514562672.870391: $GPRMC,155113,A,3946.9596,N,08404.9817,W,0.0000,0.000,291217,,*37
2017-12-29 10:51:12 1514562672.870452: $GPGSA,A,3,10,13,15,18,20,21,24,27,32,138,,,1.7,0.8,1.3*09
2017-12-29 10:51:13 1514562673.419704: $GPZDA,155114.00,29,12,2017,00,00*6F
2017-12-29 10:51:13 1514562673.419856: $GPGGA,155114,3946.9600,N,08404.9836,W,2,10,1.40,297.91,M,-33.324,M,,*75
2017-12-29 10:51:13 1514562673.419940: $GPRMC,155114,A,3946.9600,N,08404.9836,W,0.0000,0.000,291217,,*3F
2017-12-29 10:51:13 1514562673.420002: $GPGSA,A,3,10,13,15,18,20,21,24,27,32,138,,,1.7,1.4,1.3*04
2017-12-29 10:51:14 1514562674.421906: $GPZDA,155115.00,29,12,2017,00,00*6E
2017-12-29 10:51:14 1514562674.422078: $GPGGA,155115,3946.9604,N,08404.9829,W,2,10,0.80,298.63,M,-33.324,M,,*71
2017-12-29 10:51:14 1514562674.422144: $GPRMC,155115,A,3946.9604,N,08404.9829,W,0.0000,0.000,291217,,*34
2017-12-29 10:51:14 1514562674.422204: $GPGSA,A,3,10,13,15,18,20,21,24,27,32,138,,,1.7,0.8,1.3*09
2017-12-29 10:51:15 1514562675.756401: $GPGSV,3,1,11,10,33,292,41,13,17,046,44,15,48,049,48,18,64,316,44*76
2017-12-29 10:51:15 1514562675.756559: $GPGSV,3,2,11,20,43,085,51,21,74,208,48,24,44,126,51,27,19,301,38*71
2017-12-29 10:51:15 1514562675.756625: $GPGSV,3,3,11,08,01,331,15,32,12,231,29,138,38,213,45*7C
2017-12-29 10:51:15 1514562675.869770: $GPZDA,155116.00,29,12,2017,00,00*6D
2017-12-29 10:51:15 1514562675.869928: $GPGGA,155116,3946.9604,N,08404.9829,W,2,11,0.80,298.63,M,-33.324,M,,*73
2017-12-29 10:51:15 1514562675.869993: $GPRMC,155116,A,3946.9604,N,08404.9829,W,0.0000,0.000,291217,,*37
2017-12-29 10:51:15 1514562675.870054: $GPGSA,A,3,10,13,15,18,20,21,24,27,8,32,138,,1.7,0.8,1.3*31
2017-12-29 10:51:16 1514562676.419380: $GPZDA,155117.00,29,12,2017,00,00*6C
2017-12-29 10:51:16 1514562676.419545: $GPGGA,155117,3946.9604,N,08404.9829,W,2,11,0.80,298.63,M,-33.324,M,,*72
2017-12-29 10:51:16 1514562676.419632: $GPRMC,155117,A,3946.9604,N,08404.9829,W,0.0000,0.000,291217,,*36
2017-12-29 10:51:16 1514562676.419695: $GPGSA,A,3,10,13,15,18,20,21,24,27,8,32,138,,1.7,0.8,1.3*31
2017-12-29 10:51:17 1514562677.421020: $GPZDA,155118.00,29,12,2017,00,00*63
2017-12-29 10:51:17 1514562677.421248: $GPGGA,155118,3946.9604,N,08404.9829,W,2,11,0.80,298.63,M,-33.324,M,,*7D
2017-12-29 10:51:17 1514562677.421315: $GPRMC,155118,A,3946.9604,N,08404.9829,W,0.0000,0.000,291217,,*39
2017-12-29 10:51:17 1514562677.421376: $GPGSA,A,3,10,13,15,18,20,21,24,27,8,32,138,,1.7,0.8,1.3*31
