2017-11-16 17:36:25 1510871785.151631: {"class":"VERSION","release":"3.17","rev":"3.17","proto_major":3,"proto_minor":12}
2017-11-16 17:36:25 1510871785.152144: {"class":"DEVICES","devices":[{"class":"DEVICE","path":"/dev/ttyUSB0","driver":"SiRF","subtype":"9\u0006GSD4e_4.1.2-P1_RPATCH.05-F-GPS-4R-1510281 11/03/2015 307","activated":"2017-11-16T22:36:25.009Z","flags":1,"native":1,"bps":4800,"parity":"N","stopbits":1,"cycle":1.00}]}
2017-11-16 17:36:25 1510871785.152277: {"class":"WATCH","enable":true,"json":false,"nmea":true,"raw":0,"scaled":false,"timing":false,"split24":false,"pps":false}
2017-11-16 17:36:25 1510871785.420133: $GPZDA,223624.00,16,11,2017,00,00*66
2017-11-16 17:36:25 1510871785.420298: $GPGGA,223624,3946.9575,N,08404.9834,W,2,12,0.80,303.34,M,-33.324,M,,*7C
2017-11-16 17:36:25 1510871785.420360: $GPRMC,223624,A,3946.9575,N,08404.9834,W,0.0000,0.000,161117,,*35
2017-11-16 17:36:25 1510871785.420415: $GPGSA,A,3,1,10,22,12,14,18,26,11,25,31,32,138,1.6,0.8,1.3*3A
2017-11-16 17:36:26 1510871786.405507: $GPZDA,223625.00,16,11,2017,00,00*67
2017-11-16 17:36:26 1510871786.405683: $GPGGA,223625,3946.9575,N,08404.9834,W,2,12,0.80,303.34,M,-33.324,M,,*7D
2017-11-16 17:36:26 1510871786.405744: $GPRMC,223625,A,3946.9575,N,08404.9834,W,0.0000,0.000,161117,,*34
2017-11-16 17:36:26 1510871786.405800: $GPGSA,A,3,1,10,22,12,14,18,26,11,25,31,32,138,1.6,0.8,1.3*3A
2017-11-16 17:36:27 1510871787.725050: $GPGSV,3,1,12,01,22,298,36,10,46,148,46,22,21,312,41,12,21,048,50*7C
2017-11-16 17:36:27 1510871787.725240: $GPGSV,3,2,12,14,67,333,48,18,16,145,40,26,04,183,27,11,08,280,40*73
2017-11-16 17:36:27 1510871787.725306: $GPGSV,3,3,12,25,40,087,49,31,58,228,48,32,68,033,50,138,38,213,45*4A
2017-11-16 17:36:27 1510871787.838328: $GPZDA,223626.00,16,11,2017,00,00*64
2017-11-16 17:36:27 1510871787.838462: $GPGGA,223626,3946.9575,N,08404.9834,W,2,12,0.80,303.34,M,-33.324,M,,*7E
2017-11-16 17:36:27 1510871787.838522: $GPRMC,223626,A,3946.9575,N,08404.9834,W,0.0000,0.000,161117,,*37
2017-11-16 17:36:27 1510871787.838578: $GPGSA,A,3,1,10,22,12,14,18,26,11,25,31,32,138,1.6,0.8,1.3*3A
2017-11-16 17:36:28 1510871788.389200: $GPZDA,223627.00,16,11,2017,00,00*65
2017-11-16 17:36:28 1510871788.389369: $GPGGA,223627,3946.9575,N,08404.9834,W,2,12,0.80,303.34,M,-33.324,M,,*7F
2017-11-16 17:36:28 1510871788.389431: $GPRMC,223627,A,3946.9575,N,08404.9834,W,0.0000,0.000,161117,,*36
2017-11-16 17:36:28 1510871788.389486: $GPGSA,A,3,1,10,22,12,14,18,26,11,25,31,32,138,1.6,0.8,1.3*3A
2017-11-16 17:36:29 1510871789.418963: $GPZDA,223628.00,16,11,2017,00,00*6A
2017-11-16 17:36:29 1510871789.419138: $GPGGA,223628,3946.9575,N,08404.9834,W,2,12,0.80,303.34,M,-33.324,M,,*70
2017-11-16 17:36:29 1510871789.419204: $GPRMC,223628,A,3946.9575,N,08404.9834,W,0.0000,0.000,161117,,*39
2017-11-16 17:36:29 1510871789.419263: $GPGSA,A,3,1,10,22,12,14,18,26,11,25,31,32,138,1.6,0.8,1.3*3A
2017-11-16 17:36:30 1510871790.755988: $GPGSV,3,1,12,01,22,298,36,10,46,148,46,22,21,312,41,12,21,048,50*7C
2017-11-16 17:36:30 1510871790.756185: $GPGSV,3,2,12,14,67,333,47,18,16,145,40,26,04,183,27,11,08,280,41*7D
2017-11-16 17:36:30 1510871790.756248: $GPGSV,3,3,12,25,40,087,49,31,58,228,48,32,68,033,50,138,38,213,44*4B
2017-11-16 17:36:30 1510871790.869148: $GPZDA,223629.00,16,11,2017,00,00*6B
2017-11-16 17:36:30 1510871790.869307: $GPGGA,223629,3946.9575,N,08404.9834,W,2,12,0.80,303.34,M,-33.324,M,,*71
2017-11-16 17:36:30 1510871790.869369: $GPRMC,223629,A,3946.9575,N,08404.9834,W,0.0000,0.000,161117,,*38
2017-11-16 17:36:30 1510871790.869424: $GPGSA,A,3,1,10,22,12,14,18,26,11,25,31,32,138,1.6,0.8,1.3*3A
2017-11-16 17:36:31 1510871791.494790: $GPZDA,223630.00,16,11,2017,00,00*63
2017-11-16 17:36:31 1510871791.494945: $GPGGA,223630,3946.9575,N,08404.9834,W,2,12,0.80,303.34,M,-33.324,M,,*79
2017-11-16 17:36:31 1510871791.495052: $GPRMC,223630,A,3946.9575,N,08404.9834,W,0.0000,0.000,161117,,*30
2017-11-16 17:36:31 1510871791.495122: $GPGSA,A,3,1,10,22,12,14,18,26,11,25,31,32,138,1.6,0.8,1.3*3A
2017-11-16 17:36:32 1510871792.398124: $GPZDA,223631.00,16,11,2017,00,00*62
2017-11-16 17:36:32 1510871792.398339: $GPGGA,223631,3946.9575,N,08404.9834,W,2,12,0.80,303.34,M,-33.324,M,,*78
2017-11-16 17:36:32 1510871792.398401: $GPRMC,223631,A,3946.9575,N,08404.9834,W,0.0000,0.000,161117,,*31
2017-11-16 17:36:32 1510871792.398458: $GPGSA,A,3,1,10,22,12,14,18,26,11,25,31,32,138,1.6,0.8,1.3*3A
2017-11-16 17:36:33 1510871793.733677: $GPGSV,3,1,12,01,22,298,36,10,46,148,46,22,21,312,40,12,21,048,50*7D
2017-11-16 17:36:33 1510871793.733846: $GPGSV,3,2,12,14,67,333,47,18,16,145,40,26,04,183,26,11,08,280,41*7C
2017-11-16 17:36:33 1510871793.733906: $GPGSV,3,3,12,25,40,087,49,31,58,228,48,32,68,033,50,138,38,213,44*4B
2017-11-16 17:36:33 1510871793.846967: $GPZDA,223632.00,16,11,2017,00,00*61
2017-11-16 17:36:33 1510871793.847138: $GPGGA,223632,3946.9575,N,08404.9834,W,2,12,0.80,303.34,M,-33.324,M,,*7B
2017-11-16 17:36:33 1510871793.847202: $GPRMC,223632,A,3946.9575,N,08404.9834,W,0.0000,0.000,161117,,*32
2017-11-16 17:36:33 1510871793.847258: $GPGSA,A,3,1,10,22,12,14,18,26,11,25,31,32,138,1.6,0.8,1.3*3A
2017-11-16 17:36:34 1510871794.396696: $GPZDA,223633.00,16,11,2017,00,00*60
2017-11-16 17:36:34 1510871794.396879: $GPGGA,223633,3946.9575,N,08404.9834,W,2,12,0.80,303.34,M,-33.324,M,,*7A
2017-11-16 17:36:34 1510871794.396949: $GPRMC,223633,A,3946.9575,N,08404.9834,W,0.0000,0.000,161117,,*33
2017-11-16 17:36:34 1510871794.397009: $GPGSA,A,3,1,10,22,12,14,18,26,11,25,31,32,138,1.6,0.8,1.3*3A
