2017-12-01 12:26:04 1512149164.097087: {"class":"VERSION","release":"3.16","rev":"3.16-4","proto_major":3,"proto_minor":11}
2017-12-01 12:26:04 1512149164.097535: {"class":"DEVICES","devices":[{"class":"DEVICE","path":"/dev/ttyUSB0","driver":"SiRF","subtype":"9\u0006GSD4e_4.1.2-P1_RPATCH.05-F-GPS-4R-1510281 11/03/2015 307","activated":"2017-12-01T17:26:03.470Z","flags":1,"native":1,"bps":4800,"parity":"N","stopbits":1,"cycle":1.00}]}
2017-12-01 12:26:04 1512149164.097666: {"class":"WATCH","enable":true,"json":false,"nmea":true,"raw":0,"scaled":false,"timing":false,"split24":false,"pps":false}
2017-12-01 12:26:04 1512149164.663968: $GPGSV,3,1,12,10,26,286,38,13,25,045,44,15,57,049,46,18,57,304,46*79
2017-12-01 12:26:04 1512149164.664150: $GPGSV,3,2,12,20,49,076,45,21,79,246,42,24,37,135,47,29,07,189,26*71
2017-12-01 12:26:04 1512149164.664218: $GPGSV,3,3,12,27,17,309,33,32,04,226,22,05,01,090,20,138,38,213,48*42
2017-12-01 12:26:04 1512149164.777601: $GPZDA,172605.00,01,12,2017,00,00*67
2017-12-01 12:26:04 1512149164.777749: $GPGGA,172605,3946.9580,N,08404.9838,W,2,12,0.80,297.52,M,-33.324,M,,*72
2017-12-01 12:26:04 1512149164.777817: $GPRMC,172605,A,3946.9580,N,08404.9838,W,0.1867,0.000,011217,,*3A
2017-12-01 12:26:04 1512149164.777879: $GPGSA,A,3,10,13,15,18,20,21,24,29,27,32,5,138,2.0,0.8,1.5*35
2017-12-01 12:26:05 1512149165.404826: $GPZDA,172606.00,01,12,2017,00,00*64
2017-12-01 12:26:05 1512149165.405019: $GPGGA,172606,3946.9574,N,08404.9840,W,2,12,0.80,300.45,M,-33.324,M,,*7C
2017-12-01 12:26:05 1512149165.405089: $GPRMC,172606,A,3946.9574,N,08404.9840,W,0.0000,0.000,011217,,*35
2017-12-01 12:26:05 1512149165.405150: $GPGSA,A,3,10,13,15,18,20,21,24,29,27,32,5,138,2.0,0.8,1.5*35
2017-12-01 12:26:06 1512149166.329160: $GPZDA,172607.00,01,12,2017,00,00*65
2017-12-01 12:26:06 1512149166.329336: $GPGGA,172607,3946.9574,N,08404.9840,W,2,12,0.80,300.45,M,-33.324,M,,*7D
2017-12-01 12:26:06 1512149166.329404: $GPRMC,172607,A,3946.9574,N,08404.9840,W,0.0000,0.000,011217,,*34
2017-12-01 12:26:06 1512149166.329485: $GPGSA,A,3,10,13,15,18,20,21,24,29,27,32,5,138,2.0,0.8,1.5*35
2017-12-01 12:26:07 1512149167.665672: $GPGSV,3,1,12,10,26,286,38,13,25,045,44,15,57,049,46,18,57,304,46*79
2017-12-01 12:26:07 1512149167.665881: $GPGSV,3,2,12,20,49,076,45,21,79,246,41,24,37,135,47,29,07,189,26*72
2017-12-01 12:26:07 1512149167.665950: $GPGSV,3,3,12,27,17,309,34,32,04,226,22,05,01,090,21,138,38,213,46*4A
2017-12-01 12:26:07 1512149167.779385: $GPZDA,172608.00,01,12,2017,00,00*6A
2017-12-01 12:26:07 1512149167.779562: $GPGGA,172608,3946.9574,N,08404.9840,W,2,12,0.80,300.45,M,-33.324,M,,*72
2017-12-01 12:26:07 1512149167.779630: $GPRMC,172608,A,3946.9574,N,08404.9840,W,0.0000,0.000,011217,,*3B
2017-12-01 12:26:07 1512149167.779692: $GPGSA,A,3,10,13,15,18,20,21,24,29,27,32,5,138,2.0,0.8,1.5*35
2017-12-01 12:26:08 1512149168.330012: $GPZDA,172609.00,01,12,2017,00,00*6B
2017-12-01 12:26:08 1512149168.330190: $GPGGA,172609,3946.9574,N,08404.9840,W,2,12,0.80,300.45,M,-33.324,M,,*73
2017-12-01 12:26:08 1512149168.330260: $GPRMC,172609,A,3946.9574,N,08404.9840,W,0.0000,0.000,011217,,*3A
2017-12-01 12:26:08 1512149168.330323: $GPGSA,A,3,10,13,15,18,20,21,24,29,27,32,5,138,2.0,0.8,1.5*35
2017-12-01 12:26:09 1512149169.330950: $GPZDA,172610.00,01,12,2017,00,00*63
2017-12-01 12:26:09 1512149169.331182: $GPGGA,172610,3946.9574,N,08404.9840,W,2,12,0.80,300.45,M,-33.324,M,,*7B
2017-12-01 12:26:09 1512149169.331257: $GPRMC,172610,A,3946.9574,N,08404.9840,W,0.0000,0.000,011217,,*32
2017-12-01 12:26:09 1512149169.331320: $GPGSA,A,3,10,13,15,18,20,21,24,29,27,32,5,138,2.0,0.8,1.5*35
2017-12-01 12:26:09 1512149169.331471: $GPGBS,172610,2.67,M,3.86,M,8.82,M*31
2017-12-01 12:26:10 1512149170.667228: $GPGSV,3,1,12,10,26,286,39,13,25,045,44,15,57,049,47,18,57,304,46*79
2017-12-01 12:26:10 1512149170.667427: $GPGSV,3,2,12,20,49,076,46,21,79,246,42,24,37,135,47,29,07,189,19*7E
2017-12-01 12:26:10 1512149170.667496: $GPGSV,3,3,12,27,17,309,33,32,04,226,22,05,01,090,20,138,38,213,46*4C
2017-12-01 12:26:10 1512149170.780477: $GPZDA,172611.00,01,12,2017,00,00*62
2017-12-01 12:26:10 1512149170.780701: $GPGGA,172611,3946.9574,N,08404.9840,W,2,12,0.80,300.45,M,-33.324,M,,*7A
2017-12-01 12:26:10 1512149170.780772: $GPRMC,172611,A,3946.9574,N,08404.9840,W,0.0000,0.000,011217,,*33
2017-12-01 12:26:10 1512149170.780837: $GPGSA,A,3,10,13,15,18,20,21,24,29,27,32,5,138,2.0,0.8,1.5*35
2017-12-01 12:26:11 1512149171.335468: $GPZDA,172612.00,01,12,2017,00,00*61
2017-12-01 12:26:11 1512149171.335639: $GPGGA,172612,3946.9574,N,08404.9840,W,2,12,1.00,300.45,M,-33.324,M,,*70
2017-12-01 12:26:11 1512149171.335712: $GPRMC,172612,A,3946.9574,N,08404.9840,W,0.0000,0.000,011217,,*30
2017-12-01 12:26:11 1512149171.335776: $GPGSA,A,3,10,13,15,18,20,21,24,29,27,32,5,138,2.0,1.0,1.5*3C
2017-12-01 12:26:12 1512149172.331498: $GPZDA,172613.00,01,12,2017,00,00*60
2017-12-01 12:26:12 1512149172.331675: $GPGGA,172613,3946.9574,N,08404.9840,W,2,12,1.00,300.45,M,-33.324,M,,*71
2017-12-01 12:26:12 1512149172.331746: $GPRMC,172613,A,3946.9574,N,08404.9840,W,0.0000,0.000,011217,,*31
2017-12-01 12:26:12 1512149172.331812: $GPGSA,A,3,10,13,15,18,20,21,24,29,27,32,5,138,2.0,1.0,1.5*3C
2017-12-01 12:26:13 1512149173.671804: $GPGSV,3,1,12,10,26,286,39,13,25,045,44,15,57,049,47,18,57,304,46*79
2017-12-01 12:26:13 1512149173.671987: $GPGSV,3,2,12,20,49,076,46,21,79,246,41,24,37,135,47,29,07,189,24*73
2017-12-01 12:26:13 1512149173.672055: $GPGSV,3,3,12,27,17,309,27,32,04,226,22,05,01,090,20,138,38,213,46*49
2017-12-01 12:26:13 1512149173.785557: $GPZDA,172614.00,01,12,2017,00,00*67
2017-12-01 12:26:13 1512149173.785731: $GPGGA,172614,3946.9574,N,08404.9840,W,2,12,0.80,300.45,M,-33.324,M,,*7F
2017-12-01 12:26:13 1512149173.785801: $GPRMC,172614,A,3946.9574,N,08404.9840,W,0.0000,0.000,011217,,*36
2017-12-01 12:26:13 1512149173.785863: $GPGSA,A,3,10,13,15,18,20,21,24,29,27,32,5,138,2.0,0.8,1.5*35
