2018-01-12 04:47:54 1515750474.926161: {"class":"VERSION","release":"3.16","rev":"3.16-4","proto_major":3,"proto_minor":11}
2018-01-12 04:47:54 1515750474.927807: {"class":"DEVICES","devices":[{"class":"DEVICE","path":"/dev/ttyUSB0","driver":"SiRF","subtype":"9\u0006GSD4e_4.1.2-P1_RPATCH.05-F-GPS-4R-1510281 11/03/2015 307","activated":"2018-01-12T09:47:54.923Z","flags":1,"native":1,"bps":4800,"parity":"N","stopbits":1,"cycle":1.00}]}
2018-01-12 04:47:54 1515750474.927974: {"class":"WATCH","enable":true,"json":false,"nmea":true,"raw":0,"scaled":false,"timing":false,"split24":false,"pps":false}
2018-01-12 04:47:55 1515750475.333663: $GPZDA,094756.00,12,01,2018,00,00*66
2018-01-12 04:47:55 1515750475.333836: $GPGGA,094756,3946.9659,N,08404.9776,W,2,11,0.80,300.35,M,-33.324,M,,*73
2018-01-12 04:47:55 1515750475.333903: $GPRMC,094756,A,3946.9659,N,08404.9776,W,0.0000,0.000,120118,,*31
2018-01-12 04:47:55 1515750475.333964: $GPGSA,A,3,2,5,12,20,25,29,6,9,17,19,138,,2.4,0.8,2.1*0E
2018-01-12 04:47:56 1515750476.330094: $GPZDA,094757.00,12,01,2018,00,00*67
2018-01-12 04:47:56 1515750476.330265: $GPGGA,094757,3946.9656,N,08404.9777,W,2,11,0.80,301.12,M,-33.324,M,,*78
2018-01-12 04:47:56 1515750476.330332: $GPRMC,094757,A,3946.9656,N,08404.9777,W,0.0000,0.000,120118,,*3E
2018-01-12 04:47:56 1515750476.330392: $GPGSA,A,3,2,5,12,20,25,29,6,9,17,19,138,,2.4,0.8,2.1*0E
2018-01-12 04:47:57 1515750477.669034: $GPGSV,3,1,12,02,69,019,45,05,63,201,49,12,44,235,50,20,10,222,38*7A
2018-01-12 04:47:57 1515750477.669215: $GPGSV,3,2,12,25,35,288,41,29,21,310,46,06,38,064,31,09,19,055,22*79
2018-01-12 04:47:57 1515750477.669367: $GPGSV,3,3,12,17,05,127,17,19,22,123,21,04,62,303,00,138,38,213,48*4D
2018-01-12 04:47:57 1515750477.782341: $GPZDA,094758.00,12,01,2018,00,00*68
2018-01-12 04:47:57 1515750477.782475: $GPGGA,094758,3946.9656,N,08404.9777,W,2,10,0.80,301.12,M,-33.324,M,,*76
2018-01-12 04:47:57 1515750477.782541: $GPRMC,094758,A,3946.9656,N,08404.9777,W,0.0000,0.000,120118,,*31
2018-01-12 04:47:57 1515750477.782601: $GPGSA,A,3,2,5,12,20,25,29,6,9,19,138,,,2.4,0.8,2.1*08
2018-01-12 04:47:58 1515750478.407844: $GPZDA,094759.00,12,01,2018,00,00*69
2018-01-12 04:47:58 1515750478.408010: $GPGGA,094759,3946.9656,N,08404.9777,W,2,10,0.80,301.12,M,-33.324,M,,*77
2018-01-12 04:47:58 1515750478.408076: $GPRMC,094759,A,3946.9656,N,08404.9777,W,0.0000,0.000,120118,,*30
2018-01-12 04:47:58 1515750478.408137: $GPGSA,A,3,2,5,12,20,25,29,6,9,19,138,,,2.4,0.8,2.1*08
2018-01-12 04:47:59 1515750479.339951: $GPZDA,094800.00,12,01,2018,00,00*6A
2018-01-12 04:47:59 1515750479.853061: $GPGGA,094800,3946.9656,N,08404.9777,W,2,10,0.80,301.12,M,-33.324,M,,*74
2018-01-12 04:47:59 1515750479.853207: $GPRMC,094800,A,3946.9656,N,08404.9777,W,0.0000,0.000,120118,,*33
2018-01-12 04:47:59 1515750479.853284: $GPGSA,A,3,2,5,12,20,25,29,6,9,19,138,,,2.4,0.8,2.1*08
2018-01-12 04:48:00 1515750480.665727: $GPGSV,3,1,12,02,69,019,45,05,63,201,50,12,44,235,49,20,10,222,39*7B
2018-01-12 04:48:00 1515750480.665906: $GPGSV,3,2,12,25,35,288,41,29,21,310,46,06,38,064,30,09,19,055,22*78
2018-01-12 04:48:00 1515750480.665970: $GPGSV,3,3,12,17,05,127,21,19,22,123,20,04,62,303,00,138,38,213,47*46
2018-01-12 04:48:00 1515750480.779088: $GPZDA,094801.00,12,01,2018,00,00*6B
2018-01-12 04:48:00 1515750480.779233: $GPGGA,094801,3946.9656,N,08404.9777,W,2,11,0.80,301.12,M,-33.324,M,,*74
2018-01-12 04:48:00 1515750480.779299: $GPRMC,094801,A,3946.9656,N,08404.9777,W,0.0000,0.000,120118,,*32
2018-01-12 04:48:00 1515750480.779359: $GPGSA,A,3,2,5,12,20,25,29,6,9,17,19,138,,2.4,0.8,2.1*0E
2018-01-12 04:48:01 1515750481.333745: $GPZDA,094802.00,12,01,2018,00,00*68
2018-01-12 04:48:01 1515750481.333910: $GPGGA,094802,3946.9656,N,08404.9777,W,2,11,0.80,301.12,M,-33.324,M,,*77
2018-01-12 04:48:01 1515750481.333976: $GPRMC,094802,A,3946.9656,N,08404.9777,W,0.0000,0.000,120118,,*31
2018-01-12 04:48:01 1515750481.334036: $GPGSA,A,3,2,5,12,20,25,29,6,9,17,19,138,,2.4,0.8,2.1*0E
2018-01-12 04:48:02 1515750482.329903: $GPZDA,094803.00,12,01,2018,00,00*69
2018-01-12 04:48:02 1515750482.330108: $GPGGA,094803,3946.9656,N,08404.9777,W,2,11,0.80,301.12,M,-33.324,M,,*76
2018-01-12 04:48:02 1515750482.330235: $GPRMC,094803,A,3946.9656,N,08404.9777,W,0.0000,0.000,120118,,*30
2018-01-12 04:48:02 1515750482.330300: $GPGSA,A,3,2,5,12,20,25,29,6,9,17,19,138,,2.4,0.8,2.1*0E
2018-01-12 04:48:03 1515750483.667264: $GPGSV,3,1,12,02,69,019,45,05,63,201,50,12,44,235,49,20,10,222,40*75
2018-01-12 04:48:03 1515750483.667446: $GPGSV,3,2,12,25,35,288,41,29,21,310,46,06,38,064,30,09,19,055,23*79
2018-01-12 04:48:03 1515750483.667514: $GPGSV,3,3,12,17,05,127,00,19,22,123,19,04,62,303,00,138,38,213,47*4F
2018-01-12 04:48:03 1515750483.780630: $GPZDA,094804.00,12,01,2018,00,00*6E
2018-01-12 04:48:03 1515750483.780800: $GPGGA,094804,3946.9656,N,08404.9777,W,2,10,0.80,301.12,M,-33.324,M,,*70
2018-01-12 04:48:03 1515750483.780867: $GPRMC,094804,A,3946.9656,N,08404.9777,W,0.0000,0.000,120118,,*37
2018-01-12 04:48:03 1515750483.780929: $GPGSA,A,3,2,5,12,20,25,29,6,9,19,138,,,2.4,0.8,2.1*08
2018-01-12 04:48:04 1515750484.330244: $GPZDA,094805.00,12,01,2018,00,00*6F
2018-01-12 04:48:04 1515750484.330433: $GPGGA,094805,3946.9656,N,08404.9784,W,2,10,0.80,301.04,M,-33.324,M,,*7A
2018-01-12 04:48:04 1515750484.331709: $GPRMC,094805,A,3946.9656,N,08404.9784,W,0.0000,0.000,120118,,*3A
2018-01-12 04:48:04 1515750484.331789: $GPGSA,A,3,2,5,12,20,25,29,6,9,19,138,,,2.4,0.8,2.1*08
2018-01-12 04:48:05 1515750485.331332: $GPZDA,094806.00,12,01,2018,00,00*6C
2018-01-12 04:48:05 1515750485.331506: $GPGGA,094806,3946.9656,N,08404.9784,W,2,10,0.80,301.04,M,-33.324,M,,*79
2018-01-12 04:48:05 1515750485.331576: $GPRMC,094806,A,3946.9656,N,08404.9784,W,0.0000,0.000,120118,,*39
2018-01-12 04:48:05 1515750485.331638: $GPGSA,A,3,2,5,12,20,25,29,6,9,19,138,,,2.4,0.8,2.1*08
2018-01-12 04:48:06 1515750486.669385: $GPGSV,3,1,12,02,69,019,45,05,63,201,50,12,44,235,48,20,10,222,40*74
2018-01-12 04:48:06 1515750486.669547: $GPGSV,3,2,12,25,35,288,41,29,21,310,46,06,38,064,29,09,19,055,28*7A
2018-01-12 04:48:06 1515750486.669612: $GPGSV,3,3,12,17,05,127,02,19,22,123,19,04,62,303,00,138,38,213,47*4D
2018-01-12 04:48:06 1515750486.782744: $GPZDA,094807.00,12,01,2018,00,00*6D
2018-01-12 04:48:06 1515750486.782917: $GPGGA,094807,3946.9656,N,08404.9784,W,2,10,0.80,301.04,M,-33.324,M,,*78
2018-01-12 04:48:06 1515750486.782983: $GPRMC,094807,A,3946.9656,N,08404.9784,W,0.0000,0.000,120118,,*38
2018-01-12 04:48:06 1515750486.783045: $GPGSA,A,3,2,5,12,20,25,29,6,9,19,138,,,2.4,0.8,2.1*08
2018-01-12 04:48:07 1515750487.336307: $GPZDA,094808.00,12,01,2018,00,00*62
2018-01-12 04:48:07 1515750487.336486: $GPGGA,094808,3946.9656,N,08404.9784,W,2,10,0.80,301.04,M,-33.324,M,,*77
2018-01-12 04:48:07 1515750487.336556: $GPRMC,094808,A,3946.9656,N,08404.9784,W,0.0000,0.000,120118,,*37
2018-01-12 04:48:07 1515750487.336618: $GPGSA,A,3,2,5,12,20,25,29,6,9,19,138,,,2.4,0.8,2.1*08
2018-01-12 04:48:08 1515750488.335442: $GPZDA,094809.00,12,01,2018,00,00*63
2018-01-12 04:48:08 1515750488.335614: $GPGGA,094809,3946.9656,N,08404.9784,W,2,10,0.80,301.04,M,-33.324,M,,*76
2018-01-12 04:48:08 1515750488.335682: $GPRMC,094809,A,3946.9656,N,08404.9784,W,0.0000,0.000,120118,,*36
2018-01-12 04:48:08 1515750488.335743: $GPGSA,A,3,2,5,12,20,25,29,6,9,19,138,,,2.4,0.8,2.1*08
2018-01-12 04:48:09 1515750489.669743: $GPGSV,3,1,12,02,69,019,45,05,63,201,50,12,44,235,49,20,10,222,40*75
2018-01-12 04:48:09 1515750489.669937: $GPGSV,3,2,12,25,35,288,40,29,21,310,46,06,38,064,28,09,19,055,28*7A
2018-01-12 04:48:09 1515750489.670003: $GPGSV,3,3,12,17,05,127,00,19,22,123,21,04,62,303,00,138,38,213,46*45
2018-01-12 04:48:09 1515750489.783173: $GPZDA,094810.00,12,01,2018,00,00*6B
2018-01-12 04:48:09 1515750489.783345: $GPGGA,094810,3946.9656,N,08404.9784,W,2,10,0.80,301.04,M,-33.324,M,,*7E
2018-01-12 04:48:09 1515750489.783411: $GPRMC,094810,A,3946.9656,N,08404.9784,W,0.0000,0.000,120118,,*3E
2018-01-12 04:48:09 1515750489.783475: $GPGSA,A,3,2,5,12,20,25,29,6,9,19,138,,,2.4,0.8,2.1*08
2018-01-12 04:48:10 1515750490.334074: $GPZDA,094811.00,12,01,2018,00,00*6A
2018-01-12 04:48:10 1515750490.334361: $GPGGA,094811,3946.9660,N,08404.9784,W,2,10,0.80,301.68,M,-33.324,M,,*70
2018-01-12 04:48:10 1515750490.334437: $GPRMC,094811,A,3946.9660,N,08404.9784,W,0.0000,0.000,120118,,*3A
2018-01-12 04:48:10 1515750490.334499: $GPGSA,A,3,2,5,12,20,25,29,6,9,19,138,,,2.4,0.8,2.1*08
2018-01-12 04:48:11 1515750491.336466: $GPZDA,094812.00,12,01,2018,00,00*69
2018-01-12 04:48:11 1515750491.336643: $GPGGA,094812,3946.9660,N,08404.9784,W,2,10,0.80,301.68,M,-33.324,M,,*73
2018-01-12 04:48:11 1515750491.336712: $GPRMC,094812,A,3946.9660,N,08404.9784,W,0.0000,0.000,120118,,*39
2018-01-12 04:48:11 1515750491.336774: $GPGSA,A,3,2,5,12,20,25,29,6,9,19,138,,,2.4,0.8,2.1*08
2018-01-12 04:48:12 1515750492.675489: $GPGSV,3,1,12,02,69,019,45,05,63,201,50,12,44,235,49,20,10,222,41*74
2018-01-12 04:48:12 1515750492.675671: $GPGSV,3,2,12,25,35,288,40,29,21,310,46,06,38,064,28,09,19,055,28*7A
2018-01-12 04:48:12 1515750492.675737: $GPGSV,3,3,12,17,05,127,24,19,22,123,21,04,62,303,00,138,38,213,47*42
2018-01-12 04:48:12 1515750492.787751: $GPZDA,094813.00,12,01,2018,00,00*68
2018-01-12 04:48:12 1515750492.787915: $GPGGA,094813,3946.9660,N,08404.9784,W,2,11,0.80,301.68,M,-33.324,M,,*73
2018-01-12 04:48:12 1515750492.787981: $GPRMC,094813,A,3946.9660,N,08404.9784,W,0.0000,0.000,120118,,*38
2018-01-12 04:48:12 1515750492.788044: $GPGSA,A,3,2,5,12,20,25,29,6,9,17,19,138,,2.4,0.8,2.1*0E
2018-01-12 04:48:13 1515750493.414273: $GPZDA,094814.00,12,01,2018,00,00*6F
2018-01-12 04:48:13 1515750493.414449: $GPGGA,094814,3946.9660,N,08404.9784,W,2,11,0.80,301.68,M,-33.324,M,,*74
2018-01-12 04:48:13 1515750493.414519: $GPRMC,094814,A,3946.9660,N,08404.9784,W,0.0000,0.000,120118,,*3F
2018-01-12 04:48:13 1515750493.414580: $GPGSA,A,3,2,5,12,20,25,29,6,9,17,19,138,,2.4,0.8,2.1*0E
2018-01-12 04:48:14 1515750494.332741: $GPZDA,094815.00,12,01,2018,00,00*6E
2018-01-12 04:48:14 1515750494.332909: $GPGGA,094815,3946.9660,N,08404.9784,W,2,11,1.00,301.68,M,-33.324,M,,*7C
2018-01-12 04:48:14 1515750494.332975: $GPRMC,094815,A,3946.9660,N,08404.9784,W,0.0000,0.000,120118,,*3E
2018-01-12 04:48:14 1515750494.333036: $GPGSA,A,3,2,5,12,20,25,29,6,9,17,19,138,,2.4,1.0,2.1*07
