2017-11-15 19:25:32 1510791932.484370: {"class":"VERSION","release":"3.17","rev":"3.17","proto_major":3,"proto_minor":12}
2017-11-15 19:25:32 1510791932.484805: {"class":"DEVICES","devices":[{"class":"DEVICE","path":"/dev/ttyUSB0","driver":"SiRF","subtype":"9\u0006GSD4e_4.1.2-P1_RPATCH.05-F-GPS-4R-1510281 11/03/2015 307","activated":"2017-11-16T00:25:32.460Z","flags":1,"native":1,"bps":4800,"parity":"N","stopbits":1,"cycle":1.00}]}
2017-11-15 19:25:32 1510791932.484936: {"class":"WATCH","enable":true,"json":false,"nmea":true,"raw":0,"scaled":false,"timing":false,"split24":false,"pps":false}
2017-11-15 19:25:33 1510791933.680627: $GPGSV,3,1,11,32,38,105,26,31,70,021,24,16,20,190,12,26,50,174,28*76
2017-11-15 19:25:33 1510791933.680798: $GPGSV,3,2,11,14,57,088,19,25,19,040,00,22,50,274,18,03,38,301,04*7F
2017-11-15 19:25:33 1510791933.680859: $GPGSV,3,3,11,29,10,073,00,23,09,300,00,01,07,255,00*48
2017-11-15 19:25:33 1510791933.794018: $GPZDA,002532.00,16,11,2017,00,00*63
2017-11-15 19:25:33 1510791933.794188: $GPGGA,002532,3946.9621,N,08404.9486,W,1,05,1.80,279.13,M,-33.324,M,,*73
2017-11-15 19:25:33 1510791933.794248: $GPRMC,002532,A,3946.9621,N,08404.9486,W,0.8709,183.298,161117,,*38
2017-11-15 19:25:33 1510791933.794304: $GPGSA,A,3,32,31,26,14,22,,,,,,,,3.4,1.8,2.9*35
2017-11-15 19:25:34 1510791934.329859: $GPZDA,002533.00,16,11,2017,00,00*62
2017-11-15 19:25:34 1510791934.330034: $GPGGA,002533,3946.9621,N,08404.9486,W,1,05,1.80,279.13,M,-33.324,M,,*72
2017-11-15 19:25:34 1510791934.330097: $GPRMC,002533,A,3946.9621,N,08404.9486,W,1.0002,154.331,161117,,*34
2017-11-15 19:25:34 1510791934.330153: $GPGSA,A,3,32,31,26,14,22,,,,,,,,3.4,1.8,2.9*35
2017-11-15 19:25:35 1510791935.345723: $GPZDA,002534.00,16,11,2017,00,00*65
2017-11-15 19:25:35 1510791935.345890: $GPGGA,002534,3946.9617,N,08404.9486,W,1,05,1.80,278.50,M,-33.324,M,,*76
2017-11-15 19:25:35 1510791935.345952: $GPRMC,002534,A,3946.9617,N,08404.9486,W,1.0002,154.331,161117,,*36
2017-11-15 19:25:35 1510791935.346008: $GPGSA,A,3,32,31,26,14,22,,,,,,,,3.4,1.8,2.9*35
2017-11-15 19:25:36 1510791936.682252: $GPGSV,3,1,11,32,38,105,26,31,70,021,24,16,20,190,13,26,50,174,28*77
2017-11-15 19:25:36 1510791936.682444: $GPGSV,3,2,11,14,57,088,19,25,19,040,00,22,50,274,18,03,38,301,07*7C
2017-11-15 19:25:36 1510791936.682527: $GPGSV,3,3,11,29,10,073,00,23,09,300,00,01,07,255,00*48
2017-11-15 19:25:36 1510791936.795570: $GPZDA,002535.00,16,11,2017,00,00*64
2017-11-15 19:25:36 1510791936.795734: $GPGGA,002535,3946.9613,N,08404.9486,W,1,07,1.80,277.86,M,-33.324,M,,*75
2017-11-15 19:25:36 1510791936.795796: $GPRMC,002535,A,3946.9613,N,08404.9486,W,0.9060,167.792,161117,,*32
2017-11-15 19:25:36 1510791936.795852: $GPGSA,A,3,32,31,16,26,14,22,3,,,,,,3.4,1.8,2.9*01
2017-11-15 19:25:37 1510791937.348188: $GPZDA,002536.00,16,11,2017,00,00*67
2017-11-15 19:25:37 1510791937.348357: $GPGGA,002536,3946.9609,N,08404.9486,W,1,07,1.80,277.22,M,-33.324,M,,*73
2017-11-15 19:25:37 1510791937.348421: $GPRMC,002536,A,3946.9609,N,08404.9486,W,0.4207,219.347,161117,,*32
2017-11-15 19:25:37 1510791937.348481: $GPGSA,A,3,32,31,16,26,14,22,3,,,,,,3.4,1.8,2.9*01
2017-11-15 19:25:38 1510791938.329836: $GPZDA,002537.00,16,11,2017,00,00*66
2017-11-15 19:25:38 1510791938.330001: $GPGGA,002537,3946.9609,N,08404.9486,W,1,07,1.80,277.22,M,-33.324,M,,*72
2017-11-15 19:25:38 1510791938.330065: $GPRMC,002537,A,3946.9609,N,08404.9486,W,0.4844,273.794,161117,,*38
2017-11-15 19:25:38 1510791938.330123: $GPGSA,A,3,32,31,16,26,14,22,3,,,,,,3.4,1.8,2.9*01
2017-11-15 19:25:39 1510791939.681866: $GPGSV,3,1,11,32,38,105,26,31,70,021,24,16,20,190,15,26,50,174,28*71
2017-11-15 19:25:39 1510791939.682036: $GPGSV,3,2,11,14,57,088,19,29,10,073,09,22,50,274,19,03,38,301,06*70
2017-11-15 19:25:39 1510791939.682098: $GPGSV,3,3,11,25,19,040,00,23,09,300,00,01,07,255,00*4D
2017-11-15 19:25:39 1510791939.795473: $GPZDA,002538.00,16,11,2017,00,00*69
2017-11-15 19:25:39 1510791939.795636: $GPGGA,002538,3946.9604,N,08404.9486,W,1,07,1.80,276.58,M,-33.324,M,,*7C
2017-11-15 19:25:39 1510791939.795700: $GPRMC,002538,A,3946.9604,N,08404.9486,W,0.5306,294.352,161117,,*31
2017-11-15 19:25:39 1510791939.795813: $GPGSA,A,3,32,31,16,26,14,22,3,,,,,,3.4,1.8,2.9*01
2017-11-15 19:25:40 1510791940.331846: $GPZDA,002539.00,16,11,2017,00,00*68
2017-11-15 19:25:40 1510791940.332011: $GPGGA,002539,3946.9605,N,08404.9493,W,1,07,1.80,276.50,M,-33.324,M,,*70
2017-11-15 19:25:40 1510791940.332072: $GPRMC,002539,A,3946.9605,N,08404.9493,W,0.7246,344.668,161117,,*32
2017-11-15 19:25:40 1510791940.332129: $GPGSA,A,3,32,31,16,26,14,22,3,,,,,,3.4,1.8,2.9*01
2017-11-15 19:25:41 1510791941.347790: $GPZDA,002540.00,16,11,2017,00,00*66
2017-11-15 19:25:41 1510791941.347957: $GPGGA,002540,3946.9605,N,08404.9493,W,1,07,1.40,276.50,M,-33.324,M,,*72
2017-11-15 19:25:41 1510791941.348020: $GPRMC,002540,A,3946.9605,N,08404.9493,W,0.0000,0.000,161117,,*30
2017-11-15 19:25:41 1510791941.348077: $GPGSA,A,3,32,31,16,26,14,22,3,,,,,,3.4,1.4,2.9*0D
