2017-12-01 15:48:58 1512161338.676905: {"class":"VERSION","release":"3.16","rev":"3.16-4","proto_major":3,"proto_minor":11}
2017-12-01 15:48:58 1512161338.677329: {"class":"DEVICES","devices":[{"class":"DEVICE","path":"/dev/ttyUSB0","driver":"SiRF","subtype":"9\u0006GSD4e_4.1.2-P1_RPATCH.05-F-GPS-4R-1510281 11/03/2015 307","activated":"2017-12-01T20:48:58.598Z","flags":1,"native":1,"bps":4800,"parity":"N","stopbits":1,"cycle":1.00}]}
2017-12-01 15:48:58 1512161338.677450: {"class":"WATCH","enable":true,"json":false,"nmea":true,"raw":0,"scaled":false,"timing":false,"split24":false,"pps":false}
2017-12-01 15:48:58 1512161338.711525: $GPZDA,204859.38,01,12,2017,00,00*69
2017-12-01 15:48:58 1512161338.711668: $GPGGA,204859,3946.9596,N,08404.9841,W,1,12,0.80,305.05,M,-33.324,M,,*75
2017-12-01 15:48:58 1512161338.711751: $GPRMC,204859,A,3946.9596,N,08404.9841,W,0.3951,75.900,011217,,*0B
2017-12-01 15:48:58 1512161338.711813: $GPGSA,A,3,1,10,12,14,18,22,24,25,31,32,11,138,2.0,0.8,1.5*3B
2017-12-01 15:48:58 1512161338.711871: $GPGBS,204859,10.70,M,15.43,M,35.28,M*05
2017-12-01 15:49:00 1512161340.128672: $GPGSV,3,1,12,01,15,316,28,10,68,133,38,12,25,069,30,14,56,294,33*77
2017-12-01 15:49:00 1512161340.128858: $GPGSV,3,2,12,18,35,136,37,24,12,045,30,25,31,112,34,31,37,213,39*7F
2017-12-01 15:49:00 1512161340.128926: $GPGSV,3,3,12,32,68,334,38,11,11,300,00,22,04,310,00,138,38,213,00*4E
2017-12-01 15:49:00 1512161340.242140: $GPZDA,204900.06,01,12,2017,00,00*69
2017-12-01 15:49:00 1512161340.242307: $GPGGA,204900,3946.9592,N,08404.9841,W,1,09,0.80,305.82,M,-33.324,M,,*79
2017-12-01 15:49:00 1512161340.242374: $GPRMC,204900,A,3946.9592,N,08404.9841,W,0.1975,75.900,011217,,*06
2017-12-01 15:49:00 1512161340.242436: $GPGSA,A,3,1,10,12,14,18,24,25,31,32,,,,2.0,0.8,1.5*01
2017-12-01 15:49:01 1512161341.048879: $GPZDA,204901.00,01,12,2017,00,00*6E
2017-12-01 15:49:01 1512161341.049037: $GPGGA,204901,3946.9592,N,08404.9841,W,1,09,0.80,305.82,M,-33.324,M,,*78
2017-12-01 15:49:01 1512161341.049104: $GPRMC,204901,A,3946.9592,N,08404.9841,W,0.5075,72.256,011217,,*05
2017-12-01 15:49:01 1512161341.049166: $GPGSA,A,3,1,10,12,14,18,24,25,31,32,,,,2.0,0.8,1.5*01
2017-12-01 15:49:01 1512161341.049225: $GPGBS,204901,10.70,M,15.43,M,35.28,M*09
2017-12-01 15:49:01 1512161341.499861: $GPZDA,204902.00,01,12,2017,00,00*6D
2017-12-01 15:49:01 1512161341.500043: $GPGGA,204902,3946.9596,N,08404.9841,W,1,09,0.80,305.05,M,-33.324,M,,*70
2017-12-01 15:49:01 1512161341.500112: $GPRMC,204902,A,3946.9596,N,08404.9841,W,0.1867,0.000,011217,,*39
2017-12-01 15:49:01 1512161341.500174: $GPGSA,A,3,1,10,12,14,18,24,25,31,32,,,,2.0,0.8,1.5*01
2017-12-01 15:49:01 1512161341.500232: $GPGBS,204902,10.70,M,15.43,M,35.28,M*0A
2017-12-01 15:49:02 1512161342.735204: $GPGSV,3,1,12,01,15,316,35,10,68,133,48,12,25,069,37,14,56,294,41*7E
2017-12-01 15:49:02 1512161342.735386: $GPGSV,3,2,12,18,35,136,47,24,12,045,39,25,31,112,43,31,37,213,49*76
2017-12-01 15:49:02 1512161342.735452: $GPGSV,3,3,12,32,68,334,48,11,11,300,28,22,04,310,26,138,38,213,46*45
2017-12-01 15:49:02 1512161342.848878: $GPZDA,204903.00,01,12,2017,00,00*6C
2017-12-01 15:49:02 1512161342.849033: $GPGGA,204903,3946.9592,N,08404.9848,W,1,12,0.80,304.33,M,-33.324,M,,*72
2017-12-01 15:49:02 1512161342.849101: $GPRMC,204903,A,3946.9592,N,08404.9848,W,0.0000,0.000,011217,,*3D
2017-12-01 15:49:02 1512161342.849162: $GPGSA,A,3,1,10,12,14,18,24,25,31,32,11,22,138,2.0,0.8,1.5*3B
2017-12-01 15:49:03 1512161343.474211: $GPZDA,204904.00,01,12,2017,00,00*6B
2017-12-01 15:49:03 1512161343.474380: $GPGGA,204904,3946.9595,N,08404.9847,W,1,12,0.80,303.57,M,-33.324,M,,*78
2017-12-01 15:49:03 1512161343.474448: $GPRMC,204904,A,3946.9595,N,08404.9847,W,0.3423,4.196,011217,,*3E
2017-12-01 15:49:03 1512161343.474509: $GPGSA,A,3,1,10,12,14,18,24,25,31,32,11,22,138,2.0,0.8,1.5*3B
2017-12-01 15:49:04 1512161344.400328: $GPZDA,204905.00,01,12,2017,00,00*6A
2017-12-01 15:49:04 1512161344.400495: $GPGGA,204905,3946.9591,N,08404.9847,W,1,12,0.80,302.93,M,-33.324,M,,*74
2017-12-01 15:49:04 1512161344.400563: $GPRMC,204905,A,3946.9591,N,08404.9847,W,0.0000,0.000,011217,,*37
2017-12-01 15:49:04 1512161344.400674: $GPGSA,A,3,1,10,12,14,18,24,25,31,32,11,22,138,2.0,0.8,1.5*3B
2017-12-01 15:49:05 1512161345.736663: $GPGSV,3,1,12,01,15,316,36,10,68,133,47,12,25,069,38,14,56,294,42*7E
2017-12-01 15:49:05 1512161345.736820: $GPGSV,3,2,12,18,35,136,47,24,12,045,40,25,31,112,42,31,37,213,49*79
2017-12-01 15:49:05 1512161345.736886: $GPGSV,3,3,12,32,68,334,48,11,11,300,28,22,04,310,27,138,38,213,47*45
2017-12-01 15:49:05 1512161345.850016: $GPZDA,204906.00,01,12,2017,00,00*69
2017-12-01 15:49:05 1512161345.850188: $GPGGA,204906,3946.9591,N,08404.9847,W,1,12,0.80,302.93,M,-33.324,M,,*77
2017-12-01 15:49:05 1512161345.850255: $GPRMC,204906,A,3946.9591,N,08404.9847,W,0.0000,0.000,011217,,*34
2017-12-01 15:49:05 1512161345.850316: $GPGSA,A,3,1,10,12,14,18,24,25,31,32,11,22,138,2.0,0.8,1.5*3B
2017-12-01 15:49:06 1512161346.402372: $GPZDA,204907.00,01,12,2017,00,00*68
2017-12-01 15:49:06 1512161346.402544: $GPGGA,204907,3946.9592,N,08404.9854,W,1,12,0.80,302.85,M,-33.324,M,,*70
2017-12-01 15:49:06 1512161346.402611: $GPRMC,204907,A,3946.9592,N,08404.9854,W,0.0000,0.000,011217,,*34
2017-12-01 15:49:06 1512161346.402672: $GPGSA,A,3,1,10,12,14,18,24,25,31,32,11,22,138,2.0,0.8,1.5*3B
2017-12-01 15:49:07 1512161347.401822: $GPZDA,204908.00,01,12,2017,00,00*67
2017-12-01 15:49:07 1512161347.401994: $GPGGA,204908,3946.9587,N,08404.9854,W,1,12,0.80,302.21,M,-33.324,M,,*75
2017-12-01 15:49:07 1512161347.402060: $GPRMC,204908,A,3946.9587,N,08404.9854,W,0.0000,0.000,011217,,*3F
2017-12-01 15:49:07 1512161347.402122: $GPGSA,A,3,1,10,12,14,18,24,25,31,32,11,22,138,2.0,0.8,1.5*3B
2017-12-01 15:49:08 1512161348.735748: $GPGSV,3,1,12,01,15,316,37,10,68,133,47,12,25,069,40,14,56,294,42*70
2017-12-01 15:49:08 1512161348.735931: $GPGSV,3,2,12,18,35,136,47,24,12,045,40,25,31,112,42,31,37,213,49*79
2017-12-01 15:49:08 1512161348.736000: $GPGSV,3,3,12,32,68,334,48,11,11,300,11,22,04,310,28,138,38,213,45*42
2017-12-01 15:49:08 1512161348.849133: $GPZDA,204909.00,01,12,2017,00,00*66
2017-12-01 15:49:08 1512161348.849313: $GPGGA,204909,3946.9587,N,08404.9854,W,1,12,0.80,302.21,M,-33.324,M,,*74
2017-12-01 15:49:08 1512161348.849380: $GPRMC,204909,A,3946.9587,N,08404.9854,W,0.0000,0.000,011217,,*3E
2017-12-01 15:49:08 1512161348.849441: $GPGSA,A,3,1,10,12,14,18,24,25,31,32,11,22,138,2.0,0.8,1.5*3B
2017-12-01 15:49:09 1512161349.404128: $GPZDA,204910.00,01,12,2017,00,00*6E
2017-12-01 15:49:09 1512161349.404300: $GPGGA,204910,3946.9587,N,08404.9854,W,1,12,0.80,302.21,M,-33.324,M,,*7C
2017-12-01 15:49:09 1512161349.404366: $GPRMC,204910,A,3946.9587,N,08404.9854,W,0.0000,0.000,011217,,*36
2017-12-01 15:49:09 1512161349.404427: $GPGSA,A,3,1,10,12,14,18,24,25,31,32,11,22,138,2.0,0.8,1.5*3B
2017-12-01 15:49:10 1512161350.405002: $GPZDA,204911.00,01,12,2017,00,00*6F
2017-12-01 15:49:10 1512161350.405169: $GPGGA,204911,3946.9575,N,08404.9874,W,2,12,1.20,298.65,M,-33.324,M,,*78
2017-12-01 15:49:10 1512161350.405236: $GPRMC,204911,A,3946.9575,N,08404.9874,W,0.0000,0.000,011217,,*38
2017-12-01 15:49:10 1512161350.405298: $GPGSA,A,3,1,10,12,14,18,24,25,31,32,11,22,138,2.0,1.2,1.5*30
2017-12-01 15:49:11 1512161351.742966: $GPGSV,3,1,12,01,15,316,37,10,68,133,48,12,25,069,39,14,56,294,42*71
2017-12-01 15:49:11 1512161351.743127: $GPGSV,3,2,12,18,35,136,48,24,12,045,40,25,31,112,42,31,37,213,49*76
2017-12-01 15:49:11 1512161351.743195: $GPGSV,3,3,12,32,68,334,48,11,11,300,28,22,04,310,23,138,38,213,46*40
2017-12-01 15:49:11 1512161351.856593: $GPZDA,204912.00,01,12,2017,00,00*6C
2017-12-01 15:49:11 1512161351.856760: $GPGGA,204912,3946.9575,N,08404.9874,W,2,12,0.80,298.65,M,-33.324,M,,*70
2017-12-01 15:49:11 1512161351.856827: $GPRMC,204912,A,3946.9575,N,08404.9874,W,0.0000,0.000,011217,,*3B
2017-12-01 15:49:11 1512161351.856887: $GPGSA,A,3,1,10,12,14,18,24,25,31,32,11,22,138,2.0,0.8,1.5*3B
2017-12-01 15:49:12 1512161352.406264: $GPZDA,204913.00,01,12,2017,00,00*6D
2017-12-01 15:49:12 1512161352.406433: $GPGGA,204913,3946.9575,N,08404.9874,W,2,12,0.80,298.65,M,-33.324,M,,*71
2017-12-01 15:49:12 1512161352.406550: $GPRMC,204913,A,3946.9575,N,08404.9874,W,0.0000,0.000,011217,,*3A
2017-12-01 15:49:12 1512161352.406612: $GPGSA,A,3,1,10,12,14,18,24,25,31,32,11,22,138,2.0,0.8,1.5*3B
2017-12-01 15:49:13 1512161353.407949: $GPZDA,204914.00,01,12,2017,00,00*6A
2017-12-01 15:49:13 1512161353.408121: $GPGGA,204914,3946.9575,N,08404.9874,W,2,12,0.80,298.65,M,-33.324,M,,*76
2017-12-01 15:49:13 1512161353.408186: $GPRMC,204914,A,3946.9575,N,08404.9874,W,0.0000,0.000,011217,,*3D
2017-12-01 15:49:13 1512161353.408247: $GPGSA,A,3,1,10,12,14,18,24,25,31,32,11,22,138,2.0,0.8,1.5*3B
2017-12-01 15:49:14 1512161354.743274: $GPGSV,3,1,12,01,15,316,39,10,68,133,47,12,25,069,39,14,56,294,42*70
2017-12-01 15:49:14 1512161354.743457: $GPGSV,3,2,12,18,35,136,48,24,12,045,40,25,31,112,42,31,37,213,50*7E
2017-12-01 15:49:14 1512161354.743524: $GPGSV,3,3,12,32,68,334,48,11,11,300,28,22,04,310,31,138,38,213,47*42
2017-12-01 15:49:14 1512161354.857526: $GPZDA,204915.00,01,12,2017,00,00*6B
2017-12-01 15:49:14 1512161354.857705: $GPGGA,204915,3946.9575,N,08404.9874,W,2,12,0.80,298.65,M,-33.324,M,,*77
2017-12-01 15:49:14 1512161354.857770: $GPRMC,204915,A,3946.9575,N,08404.9874,W,0.0000,0.000,011217,,*3C
2017-12-01 15:49:14 1512161354.857831: $GPGSA,A,3,1,10,12,14,18,24,25,31,32,11,22,138,2.0,0.8,1.5*3B
2017-12-01 15:49:15 1512161355.407832: $GPZDA,204916.00,01,12,2017,00,00*68
2017-12-01 15:49:15 1512161355.408003: $GPGGA,204916,3946.9575,N,08404.9874,W,2,12,0.80,298.65,M,-33.324,M,,*74
2017-12-01 15:49:15 1512161355.408075: $GPRMC,204916,A,3946.9575,N,08404.9874,W,0.0000,0.000,011217,,*3F
2017-12-01 15:49:15 1512161355.408136: $GPGSA,A,3,1,10,12,14,18,24,25,31,32,11,22,138,2.0,0.8,1.5*3B
2017-12-01 15:49:16 1512161356.406124: $GPZDA,204917.00,01,12,2017,00,00*69
2017-12-01 15:49:16 1512161356.406310: $GPGGA,204917,3946.9575,N,08404.9874,W,2,12,0.80,298.65,M,-33.324,M,,*75
2017-12-01 15:49:16 1512161356.406378: $GPRMC,204917,A,3946.9575,N,08404.9874,W,0.0000,0.000,011217,,*3E
2017-12-01 15:49:16 1512161356.406441: $GPGSA,A,3,1,10,12,14,18,24,25,31,32,11,22,138,2.0,0.8,1.5*3B
2017-12-01 15:49:17 1512161357.742933: $GPGSV,3,1,12,01,15,316,39,10,68,133,48,12,25,069,39,14,56,294,43*7E
2017-12-01 15:49:17 1512161357.743169: $GPGSV,3,2,12,18,35,136,48,24,12,045,40,25,31,112,43,31,37,213,49*77
2017-12-01 15:49:17 1512161357.743258: $GPGSV,3,3,12,32,68,334,48,11,11,300,29,22,04,310,29,138,38,213,46*4B
2017-12-01 15:49:17 1512161357.856487: $GPZDA,204918.00,01,12,2017,00,00*66
2017-12-01 15:49:17 1512161357.856657: $GPGGA,204918,3946.9575,N,08404.9874,W,2,12,0.80,298.65,M,-33.324,M,,*7A
2017-12-01 15:49:17 1512161357.856723: $GPRMC,204918,A,3946.9575,N,08404.9874,W,0.0000,0.000,011217,,*31
2017-12-01 15:49:17 1512161357.856785: $GPGSA,A,3,1,10,12,14,18,24,25,31,32,11,22,138,2.0,0.8,1.5*3B
2017-12-01 15:49:18 1512161358.481926: $GPZDA,204919.00,01,12,2017,00,00*67
2017-12-01 15:49:18 1512161358.482106: $GPGGA,204919,3946.9572,N,08404.9869,W,2,12,0.80,300.90,M,-33.324,M,,*7A
2017-12-01 15:49:18 1512161358.482180: $GPRMC,204919,A,3946.9572,N,08404.9869,W,0.2422,93.794,011217,,*0D
2017-12-01 15:49:18 1512161358.482242: $GPGSA,A,3,1,10,12,14,18,24,25,31,32,11,22,138,2.0,0.8,1.5*3B
