2018-01-12 20:02:06 1515805326.072155: {"class":"VERSION","release":"3.16","rev":"3.16-4","proto_major":3,"proto_minor":11}
2018-01-12 20:02:06 1515805326.072515: {"class":"DEVICES","devices":[{"class":"DEVICE","path":"/dev/ttyUSB0","driver":"SiRF","subtype":"9\u0006GSD4e_4.1.2-P1_RPATCH.05-F-GPS-4R-1510281 11/03/2015 307","activated":"2018-01-13T01:02:05.335Z","flags":1,"native":1,"bps":4800,"parity":"N","stopbits":1,"cycle":1.00}]}
2018-01-12 20:02:06 1515805326.072635: {"class":"WATCH","enable":true,"json":false,"nmea":true,"raw":0,"scaled":false,"timing":false,"split24":false,"pps":false}
2018-01-12 20:02:06 1515805326.192442: $GPZDA,010207.00,13,01,2018,00,00*6A
2018-01-12 20:02:06 1515805326.192601: $GPGGA,010207,3946.9544,N,08404.9449,W,1,06,1.60,315.04,M,-33.324,M,,*72
2018-01-12 20:02:06 1515805326.192666: $GPRMC,010207,A,3946.9544,N,08404.9449,W,0.7621,107.945,130118,,*31
2018-01-12 20:02:06 1515805326.192726: $GPGSA,A,3,7,27,8,9,23,16,,,,,,,4.8,1.6,4.6*0E
2018-01-12 20:02:07 1515805327.527117: $GPGSV,3,1,10,07,53,313,23,27,49,055,22,08,72,139,17,09,49,232,17*72
2018-01-12 20:02:07 1515805327.527303: $GPGSV,3,2,10,23,31,190,16,30,27,306,00,16,25,058,00,11,18,168,00*7D
2018-01-12 20:02:07 1515805327.527372: $GPGSV,3,3,10,28,12,256,00,138,38,213,00*41
2018-01-12 20:02:07 1515805327.640544: $GPZDA,010208.00,13,01,2018,00,00*65
2018-01-12 20:02:07 1515805327.640719: $GPGGA,010208,3946.9544,N,08404.9449,W,1,05,1.60,315.04,M,-33.324,M,,*7E
2018-01-12 20:02:07 1515805327.640787: $GPRMC,010208,A,3946.9544,N,08404.9449,W,0.9066,129.458,130118,,*38
2018-01-12 20:02:07 1515805327.640848: $GPGSA,A,3,7,27,8,9,23,,,,,,,,4.8,1.6,4.6*09
2018-01-12 20:02:08 1515805328.192324: $GPZDA,010209.00,13,01,2018,00,00*64
2018-01-12 20:02:08 1515805328.192481: $GPGGA,010209,3946.9540,N,08404.9450,W,1,05,1.60,315.81,M,-33.324,M,,*7E
2018-01-12 20:02:08 1515805328.192548: $GPRMC,010209,A,3946.9540,N,08404.9450,W,0.7246,164.668,130118,,*33
2018-01-12 20:02:08 1515805328.192609: $GPGSA,A,3,7,27,8,9,23,,,,,,,,4.8,1.6,4.6*09
2018-01-12 20:02:09 1515805329.191791: $GPZDA,010210.00,13,01,2018,00,00*6C
2018-01-12 20:02:09 1515805329.191971: $GPGGA,010210,3946.9540,N,08404.9450,W,1,05,1.60,315.81,M,-33.324,M,,*76
2018-01-12 20:02:09 1515805329.192038: $GPRMC,010210,A,3946.9540,N,08404.9450,W,0.5857,158.291,130118,,*3E
2018-01-12 20:02:09 1515805329.192100: $GPGSA,A,3,7,27,8,9,23,,,,,,,,4.8,1.6,4.6*09
2018-01-12 20:02:10 1515805330.527792: $GPGSV,3,1,10,07,53,313,22,27,49,055,22,08,72,139,18,09,49,232,17*7C
2018-01-12 20:02:10 1515805330.527976: $GPGSV,3,2,10,23,31,190,16,30,27,306,00,16,25,058,00,11,18,168,00*7D
2018-01-12 20:02:10 1515805330.528044: $GPGSV,3,3,10,28,12,256,00,138,38,213,00*41
2018-01-12 20:02:10 1515805330.641514: $GPZDA,010211.00,13,01,2018,00,00*6D
2018-01-12 20:02:10 1515805330.641682: $GPGGA,010211,3946.9537,N,08404.9451,W,1,05,1.60,316.57,M,-33.324,M,,*7E
2018-01-12 20:02:10 1515805330.641748: $GPRMC,010211,A,3946.9537,N,08404.9451,W,0.2959,234.768,130118,,*3C
2018-01-12 20:02:10 1515805330.641809: $GPGSA,A,3,7,27,8,9,23,,,,,,,,4.8,1.6,4.6*09
2018-01-12 20:02:11 1515805331.191576: $GPZDA,010212.00,13,01,2018,00,00*6E
2018-01-12 20:02:11 1515805331.191758: $GPGGA,010212,3946.9541,N,08404.9451,W,1,05,1.60,317.21,M,-33.324,M,,*7C
2018-01-12 20:02:11 1515805331.191825: $GPRMC,010212,A,3946.9541,N,08404.9451,W,0.4179,328.778,130118,,*3F
2018-01-12 20:02:11 1515805331.191887: $GPGSA,A,3,7,27,8,9,23,,,,,,,,4.8,1.6,4.6*09
2018-01-12 20:02:12 1515805332.192491: $GPZDA,010213.00,13,01,2018,00,00*6F
2018-01-12 20:02:12 1515805332.192695: $GPGGA,010213,3946.9546,N,08404.9458,W,1,05,1.60,317.77,M,-33.324,M,,*70
2018-01-12 20:02:12 1515805332.192763: $GPRMC,010213,A,3946.9546,N,08404.9458,W,1.1824,309.173,130118,,*3B
2018-01-12 20:02:12 1515805332.192824: $GPGSA,A,3,7,27,8,9,23,,,,,,,,4.8,1.6,4.6*09
2018-01-12 20:02:13 1515805333.532582: $GPGSV,3,1,10,07,53,313,22,27,49,055,22,08,72,139,18,09,49,232,17*7C
2018-01-12 20:02:13 1515805333.532769: $GPGSV,3,2,10,23,31,190,15,16,25,058,00,30,27,306,00,11,18,168,00*7E
2018-01-12 20:02:13 1515805333.532898: $GPGSV,3,3,10,28,12,256,00,138,38,213,00*41
2018-01-12 20:02:13 1515805333.644920: $GPZDA,010214.00,13,01,2018,00,00*68
2018-01-12 20:02:13 1515805333.645092: $GPGGA,010214,3946.9542,N,08404.9459,W,1,05,1.60,318.54,M,-33.324,M,,*7C
2018-01-12 20:02:13 1515805333.645158: $GPRMC,010214,A,3946.9542,N,08404.9459,W,0.9689,273.794,130118,,*3A
2018-01-12 20:02:13 1515805333.645220: $GPGSA,A,3,7,27,8,9,23,,,,,,,,4.8,1.6,4.6*09
2018-01-12 20:02:14 1515805334.192212: $GPZDA,010215.00,13,01,2018,00,00*69
2018-01-12 20:02:14 1515805334.192385: $GPGGA,010215,3946.9547,N,08404.9465,W,1,05,1.60,319.10,M,-33.324,M,,*76
2018-01-12 20:02:14 1515805334.192452: $GPRMC,010215,A,3946.9547,N,08404.9465,W,1.4533,273.794,130118,,*3F
2018-01-12 20:02:14 1515805334.192513: $GPGSA,A,3,7,27,8,9,23,,,,,,,,4.8,1.6,4.6*09
2018-01-12 20:02:15 1515805335.190997: $GPZDA,010216.00,13,01,2018,00,00*6A
2018-01-12 20:02:15 1515805335.191169: $GPGGA,010216,3946.9547,N,08404.9465,W,1,05,1.60,319.10,M,-33.324,M,,*75
2018-01-12 20:02:15 1515805335.191235: $GPRMC,010216,A,3946.9547,N,08404.9465,W,1.2562,289.606,130118,,*31
2018-01-12 20:02:15 1515805335.191296: $GPGSA,A,3,7,27,8,9,23,,,,,,,,4.8,1.6,4.6*09
2018-01-12 20:02:16 1515805336.545719: $GPGSV,3,1,10,07,53,313,22,27,49,055,22,08,72,139,19,09,49,232,17*7D
2018-01-12 20:02:16 1515805336.545906: $GPGSV,3,2,10,23,31,190,15,16,25,058,15,30,27,306,00,11,18,168,00*7A
2018-01-12 20:02:16 1515805336.545972: $GPGSV,3,3,10,28,12,256,00,138,38,213,00*41
2018-01-12 20:02:16 1515805336.659261: $GPZDA,010217.00,13,01,2018,00,00*6B
2018-01-12 20:02:16 1515805336.659428: $GPGGA,010217,3946.9548,N,08404.9473,W,1,06,1.40,320.42,M,-33.324,M,,*70
2018-01-12 20:02:16 1515805336.659494: $GPRMC,010217,A,3946.9548,N,08404.9473,W,1.7007,304.596,130118,,*35
2018-01-12 20:02:16 1515805336.659555: $GPGSA,A,3,7,27,8,9,23,16,,,,,,,4.8,1.4,4.6*0C
2018-01-12 20:02:17 1515805337.209485: $GPZDA,010218.00,13,01,2018,00,00*64
2018-01-12 20:02:17 1515805337.209747: $GPGGA,010218,3946.9552,N,08404.9473,W,1,06,1.40,321.06,M,-33.324,M,,*75
2018-01-12 20:02:17 1515805337.209817: $GPRMC,010218,A,3946.9552,N,08404.9473,W,0.8011,299.090,130118,,*3E
2018-01-12 20:02:17 1515805337.209879: $GPGSA,A,3,7,27,8,9,23,16,,,,,,,4.8,1.4,4.6*0C
2018-01-12 20:02:18 1515805338.210666: $GPZDA,010219.00,13,01,2018,00,00*65
2018-01-12 20:02:18 1515805338.210851: $GPGGA,010219,3946.9552,N,08404.9473,W,1,06,1.40,321.06,M,-33.324,M,,*74
2018-01-12 20:02:18 1515805338.210917: $GPRMC,010219,A,3946.9552,N,08404.9473,W,1.3084,315.525,130118,,*37
2018-01-12 20:02:18 1515805338.210978: $GPGSA,A,3,7,27,8,9,23,16,,,,,,,4.8,1.4,4.6*0C
2018-01-12 20:02:19 1515805339.546427: $GPGSV,3,1,10,07,53,313,21,27,49,055,22,08,72,139,20,09,49,232,17*74
2018-01-12 20:02:19 1515805339.546606: $GPGSV,3,2,10,23,31,190,16,16,25,058,15,30,27,306,00,11,18,168,00*79
2018-01-12 20:02:19 1515805339.546670: $GPGSV,3,3,10,28,12,256,00,138,38,213,00*41
2018-01-12 20:02:19 1515805339.659831: $GPZDA,010220.00,13,01,2018,00,00*6F
2018-01-12 20:02:19 1515805339.659982: $GPGGA,010220,3946.9556,N,08404.9480,W,1,06,1.40,321.62,M,-33.324,M,,*74
2018-01-12 20:02:19 1515805339.660048: $GPRMC,010220,A,3946.9556,N,08404.9480,W,1.7007,304.596,130118,,*32
2018-01-12 20:02:19 1515805339.660110: $GPGSA,A,3,7,27,8,9,23,16,,,,,,,4.8,1.4,4.6*0C
2018-01-12 20:02:20 1515805340.210056: $GPZDA,010221.00,13,01,2018,00,00*6E
2018-01-12 20:02:20 1515805340.210226: $GPGGA,010221,3946.9557,N,08404.9487,W,1,06,1.40,321.54,M,-33.324,M,,*76
2018-01-12 20:02:20 1515805340.210292: $GPRMC,010221,A,3946.9557,N,08404.9487,W,1.6397,299.644,130118,,*37
2018-01-12 20:02:20 1515805340.210353: $GPGSA,A,3,7,27,8,9,23,16,,,,,,,4.8,1.4,4.6*0C
2018-01-12 20:02:21 1515805341.195096: $GPZDA,010222.00,13,01,2018,00,00*6D
2018-01-12 20:02:21 1515805341.195286: $GPGGA,010222,3946.9558,N,08404.9495,W,1,06,1.40,322.87,M,-33.324,M,,*74
2018-01-12 20:02:21 1515805341.195355: $GPRMC,010222,A,3946.9558,N,08404.9495,W,1.7174,268.584,130118,,*37
2018-01-12 20:02:21 1515805341.195416: $GPGSA,A,3,7,27,8,9,23,16,,,,,,,4.8,1.4,4.6*0C
2018-01-12 20:02:22 1515805342.530088: $GPGSV,3,1,10,07,53,313,21,27,49,055,22,08,72,139,20,09,49,232,17*74
2018-01-12 20:02:23 1515805343.409089: $GPGSV,3,2,10,23,31,190,15,16,25,058,14,30,27,306,00,11,18,168,00*7B
2018-01-12 20:02:23 1515805343.409243: $GPGSV,3,3,10,28,12,256,00,138,38,213,00*41
2018-01-12 20:02:23 1515805343.409340: $GPZDA,010223.00,13,01,2018,00,00*6C
2018-01-12 20:02:23 1515805343.409397: $GPGGA,010223,3946.9558,N,08404.9495,W,1,06,1.40,322.87,M,-33.324,M,,*75
2018-01-12 20:02:23 1515805343.409459: $GPRMC,010223,A,3946.9558,N,08404.9495,W,1.4763,267.730,130118,,*37
2018-01-12 20:02:23 1515805343.409518: $GPGSA,A,3,7,27,8,9,23,16,,,,,,,4.8,1.4,4.6*0C
2018-01-12 20:02:23 1515805343.409573: $GPZDA,010224.00,13,01,2018,00,00*6B
2018-01-12 20:02:23 1515805343.409626: $GPGGA,010224,3946.9559,N,08404.9496,W,1,06,1.40,324.27,M,-33.324,M,,*7C
2018-01-12 20:02:23 1515805343.409686: $GPRMC,010224,A,3946.9559,N,08404.9496,W,1.2608,258.042,130118,,*36
2018-01-12 20:02:23 1515805343.409745: $GPGSA,A,3,7,27,8,9,23,16,,,,,,,4.8,1.4,4.6*0C
2018-01-12 20:02:24 1515805344.210958: $GPZDA,010225.00,13,01,2018,00,00*6A
2018-01-12 20:02:24 1515805344.211130: $GPGGA,010225,3946.9555,N,08404.9503,W,1,06,1.40,324.96,M,-33.324,M,,*76
2018-01-12 20:02:24 1515805344.211195: $GPRMC,010225,A,3946.9555,N,08404.9503,W,1.6108,248.645,130118,,*35
2018-01-12 20:02:24 1515805344.211257: $GPGSA,A,3,7,27,8,9,23,16,,,,,,,4.8,1.4,4.6*0C
2018-01-12 20:02:25 1515805345.555655: $GPGSV,3,1,10,07,53,313,20,27,49,055,22,08,72,139,21,09,49,232,17*74
2018-01-12 20:02:25 1515805345.555841: $GPGSV,3,2,10,23,31,190,14,16,25,058,15,11,18,168,08,30,27,306,00*73
2018-01-12 20:02:25 1515805345.555908: $GPGSV,3,3,10,28,12,256,00,120,07,103,00*46
2018-01-12 20:02:25 1515805345.669297: $GPZDA,010226.00,13,01,2018,00,00*69
2018-01-12 20:02:25 1515805345.669432: $GPGGA,010226,3946.9552,N,08404.9504,W,1,06,1.40,325.72,M,-33.324,M,,*7E
2018-01-12 20:02:25 1515805345.669497: $GPRMC,010226,A,3946.9552,N,08404.9504,W,1.4763,267.730,130118,,*31
2018-01-12 20:02:25 1515805345.669575: $GPGSA,A,3,7,27,8,9,23,16,,,,,,,4.8,1.4,4.6*0C
