2017-11-16 17:13:16 1510870396.444397: {"class":"VERSION","release":"3.17","rev":"3.17","proto_major":3,"proto_minor":12}
2017-11-16 17:13:16 1510870396.444836: {"class":"DEVICES","devices":[{"class":"DEVICE","path":"/dev/ttyUSB0","driver":"SiRF","subtype":"9\u0006GSD4e_4.1.2-P1_RPATCH.05-F-GPS-4R-1510281 11/03/2015 307","activated":"2017-11-16T22:13:16.360Z","flags":1,"native":1,"bps":4800,"parity":"N","stopbits":1,"cycle":1.00}]}
2017-11-16 17:13:16 1510870396.444956: {"class":"WATCH","enable":true,"json":false,"nmea":true,"raw":0,"scaled":false,"timing":false,"split24":false,"pps":false}
2017-11-16 17:13:16 1510870396.474058: $GPZDA,221315.00,16,11,2017,00,00*63
2017-11-16 17:13:16 1510870396.474220: $GPGGA,221315,3946.9568,N,08404.9819,W,2,11,0.80,312.89,M,-33.324,M,,*7F
2017-11-16 17:13:16 1510870396.474280: $GPRMC,221315,A,3946.9568,N,08404.9819,W,0.0000,0.000,161117,,*33
2017-11-16 17:13:16 1510870396.474336: $GPGSA,A,3,1,10,12,14,18,22,11,25,31,32,138,,1.6,0.8,1.3*3E
2017-11-16 17:13:17 1510870397.416244: $GPZDA,221316.00,16,11,2017,00,00*60
2017-11-16 17:13:17 1510870397.416429: $GPGGA,221316,3946.9568,N,08404.9819,W,2,11,0.80,312.89,M,-33.324,M,,*7C
2017-11-16 17:13:17 1510870397.416491: $GPRMC,221316,A,3946.9568,N,08404.9819,W,0.0000,0.000,161117,,*30
2017-11-16 17:13:17 1510870397.416547: $GPGSA,A,3,1,10,12,14,18,22,11,25,31,32,138,,1.6,0.8,1.3*3E
2017-11-16 17:13:18 1510870398.753286: $GPGSV,3,1,12,01,19,309,42,10,57,142,48,24,04,046,18,12,24,058,49*79
2017-11-16 17:13:18 1510870398.753454: $GPGSV,3,2,12,14,62,310,47,18,26,141,46,22,12,312,30,11,10,289,36*77
2017-11-16 17:13:18 1510870398.753514: $GPGSV,3,3,12,25,36,102,48,31,46,219,50,32,70,001,49,138,38,213,44*43
2017-11-16 17:13:18 1510870398.866562: $GPZDA,221317.00,16,11,2017,00,00*61
2017-11-16 17:13:18 1510870398.866719: $GPGGA,221317,3946.9568,N,08404.9819,W,2,12,0.80,312.89,M,-33.324,M,,*7E
2017-11-16 17:13:18 1510870398.866780: $GPRMC,221317,A,3946.9568,N,08404.9819,W,0.0000,0.000,161117,,*31
2017-11-16 17:13:18 1510870398.866836: $GPGSA,A,3,1,10,24,12,14,18,22,11,25,31,32,138,1.6,0.8,1.3*38
2017-11-16 17:13:19 1510870399.399923: $GPZDA,221318.00,16,11,2017,00,00*6E
2017-11-16 17:13:19 1510870399.400082: $GPGGA,221318,3946.9568,N,08404.9819,W,2,12,0.80,312.89,M,-33.324,M,,*71
2017-11-16 17:13:19 1510870399.400142: $GPRMC,221318,A,3946.9568,N,08404.9819,W,0.0000,0.000,161117,,*3E
2017-11-16 17:13:19 1510870399.400198: $GPGSA,A,3,1,10,24,12,14,18,22,11,25,31,32,138,1.6,0.8,1.3*38
2017-11-16 17:13:20 1510870400.399584: $GPZDA,221319.00,16,11,2017,00,00*6F
2017-11-16 17:13:20 1510870400.402990: $GPGGA,221319,3946.9568,N,08404.9819,W,2,12,0.80,312.89,M,-33.324,M,,*70
2017-11-16 17:13:20 1510870400.403078: $GPRMC,221319,A,3946.9568,N,08404.9819,W,0.0000,0.000,161117,,*3F
2017-11-16 17:13:20 1510870400.403136: $GPGSA,A,3,1,10,24,12,14,18,22,11,25,31,32,138,1.6,0.8,1.3*38
2017-11-16 17:13:21 1510870401.752391: $GPGSV,3,1,12,01,19,309,41,10,57,142,47,24,04,046,18,12,24,058,49*75
2017-11-16 17:13:21 1510870401.752562: $GPGSV,3,2,12,14,62,310,47,18,26,141,45,22,12,312,21,11,10,289,36*74
2017-11-16 17:13:21 1510870401.752623: $GPGSV,3,3,12,25,36,102,48,31,46,219,50,32,70,001,49,138,38,213,44*43
2017-11-16 17:13:21 1510870401.865697: $GPZDA,221320.00,16,11,2017,00,00*65
2017-11-16 17:13:21 1510870401.865855: $GPGGA,221320,3946.9568,N,08404.9819,W,2,12,0.80,312.89,M,-33.324,M,,*7A
2017-11-16 17:13:21 1510870401.865915: $GPRMC,221320,A,3946.9568,N,08404.9819,W,0.0000,0.000,161117,,*35
2017-11-16 17:13:21 1510870401.865971: $GPGSA,A,3,1,10,24,12,14,18,22,11,25,31,32,138,1.6,0.8,1.3*38
2017-11-16 17:13:22 1510870402.400541: $GPZDA,221321.00,16,11,2017,00,00*64
2017-11-16 17:13:22 1510870402.400719: $GPGGA,221321,3946.9568,N,08404.9819,W,2,12,0.80,312.89,M,-33.324,M,,*7B
2017-11-16 17:13:22 1510870402.400781: $GPRMC,221321,A,3946.9568,N,08404.9819,W,0.0000,0.000,161117,,*34
2017-11-16 17:13:22 1510870402.400836: $GPGSA,A,3,1,10,24,12,14,18,22,11,25,31,32,138,1.6,0.8,1.3*38
2017-11-16 17:13:23 1510870403.401421: $GPZDA,221322.00,16,11,2017,00,00*67
2017-11-16 17:13:23 1510870403.401640: $GPGGA,221322,3946.9568,N,08404.9826,W,2,12,0.80,312.81,M,-33.324,M,,*7C
2017-11-16 17:13:23 1510870403.401704: $GPRMC,221322,A,3946.9568,N,08404.9826,W,0.0000,0.000,161117,,*3B
2017-11-16 17:13:23 1510870403.401760: $GPGSA,A,3,1,10,24,12,14,18,22,11,25,31,32,138,1.6,0.8,1.3*38
2017-11-16 17:13:24 1510870404.754734: $GPGSV,3,1,12,01,19,309,41,10,57,142,47,24,04,046,00,12,24,058,49*7C
2017-11-16 17:13:24 1510870404.754906: $GPGSV,3,2,12,14,62,310,47,18,26,141,46,22,12,312,28,11,10,289,30*78
2017-11-16 17:13:24 1510870404.754967: $GPGSV,3,3,12,25,36,102,48,31,46,219,50,32,70,001,49,138,38,213,44*43
2017-11-16 17:13:24 1510870404.866796: $GPZDA,221323.00,16,11,2017,00,00*66
2017-11-16 17:13:24 1510870404.866954: $GPGGA,221323,3946.9568,N,08404.9826,W,2,11,0.80,312.81,M,-33.324,M,,*7E
2017-11-16 17:13:24 1510870404.867015: $GPRMC,221323,A,3946.9568,N,08404.9826,W,0.0000,0.000,161117,,*3A
2017-11-16 17:13:24 1510870404.867071: $GPGSA,A,3,1,10,12,14,18,22,11,25,31,32,138,,1.6,0.8,1.3*3E
2017-11-16 17:13:25 1510870405.401399: $GPZDA,221324.00,16,11,2017,00,00*61
2017-11-16 17:13:25 1510870405.403933: $GPGGA,221324,3946.9568,N,08404.9826,W,2,11,0.80,312.81,M,-33.324,M,,*79
2017-11-16 17:13:25 1510870405.404018: $GPRMC,221324,A,3946.9568,N,08404.9826,W,0.0000,0.000,161117,,*3D
2017-11-16 17:13:25 1510870405.404076: $GPGSA,A,3,1,10,12,14,18,22,11,25,31,32,138,,1.6,0.8,1.3*3E
2017-11-16 17:13:26 1510870406.410523: $GPZDA,221325.00,16,11,2017,00,00*60
2017-11-16 17:13:26 1510870406.410669: $GPGGA,221325,3946.9568,N,08404.9826,W,2,11,0.80,312.81,M,-33.324,M,,*78
2017-11-16 17:13:26 1510870406.410730: $GPRMC,221325,A,3946.9568,N,08404.9826,W,0.0000,0.000,161117,,*3C
2017-11-16 17:13:26 1510870406.410787: $GPGSA,A,3,1,10,12,14,18,22,11,25,31,32,138,,1.6,0.8,1.3*3E
