2017-11-15 19:40:22 1510792822.032333: {"class":"VERSION","release":"3.17","rev":"3.17","proto_major":3,"proto_minor":12}
2017-11-15 19:40:22 1510792822.032849: {"class":"DEVICES","devices":[{"class":"DEVICE","path":"/dev/ttyUSB0","driver":"SiRF","subtype":"9\u0006GSD4e_4.1.2-P1_RPATCH.05-F-GPS-4R-1510281 11/03/2015 307","activated":"2017-11-16T00:40:21.934Z","flags":1,"native":1,"bps":4800,"parity":"N","stopbits":1,"cycle":1.00}]}
2017-11-15 19:40:22 1510792822.032961: {"class":"WATCH","enable":true,"json":false,"nmea":true,"raw":0,"scaled":false,"timing":false,"split24":false,"pps":false}
2017-11-15 19:40:22 1510792822.328911: $GPZDA,004021.00,16,11,2017,00,00*62
2017-11-15 19:40:22 1510792822.329130: $GPGGA,004021,3946.9633,N,08404.9547,W,1,07,1.80,288.97,M,-33.324,M,,*7D
2017-11-15 19:40:22 1510792822.334695: $GPRMC,004021,A,3946.9633,N,08404.9547,W,0.8359,148.778,161117,,*3B
2017-11-15 19:40:22 1510792822.334770: $GPGSA,A,3,32,16,22,26,14,31,3,,,,,,3.4,1.8,2.9*01
2017-11-15 19:40:23 1510792823.328525: $GPZDA,004022.00,16,11,2017,00,00*61
2017-11-15 19:40:23 1510792823.328707: $GPGGA,004022,3946.9633,N,08404.9547,W,1,07,1.20,288.97,M,-33.324,M,,*74
2017-11-15 19:40:23 1510792823.328770: $GPRMC,004022,A,3946.9633,N,08404.9547,W,0.4179,148.778,161117,,*34
2017-11-15 19:40:23 1510792823.328826: $GPGSA,A,3,32,16,22,26,14,31,3,,,,,,3.4,1.2,2.9*0B
2017-11-15 19:40:24 1510792824.665556: $GPGSV,3,1,11,32,32,111,13,16,27,190,18,22,50,264,10,26,58,171,24*77
2017-11-15 19:40:24 1510792824.665703: $GPGSV,3,2,11,14,52,097,17,31,64,031,23,03,42,294,08,23,14,303,00*77
2017-11-15 19:40:24 1510792824.665762: $GPGSV,3,3,11,25,13,039,00,29,12,067,00,01,03,249,00*42
2017-11-15 19:40:24 1510792824.779075: $GPZDA,004023.00,16,11,2017,00,00*60
2017-11-15 19:40:24 1510792824.779255: $GPGGA,004023,3946.9633,N,08404.9547,W,1,07,1.20,288.97,M,-33.324,M,,*75
2017-11-15 19:40:24 1510792824.779318: $GPRMC,004023,A,3946.9633,N,08404.9547,W,0.2422,93.794,161117,,*0D
2017-11-15 19:40:24 1510792824.779377: $GPGSA,A,3,32,16,22,26,14,31,3,,,,,,3.4,1.2,2.9*0B
2017-11-15 19:40:25 1510792825.329858: $GPZDA,004024.00,16,11,2017,00,00*67
2017-11-15 19:40:25 1510792825.330020: $GPGGA,004024,3946.9633,N,08404.9547,W,1,07,1.80,288.97,M,-33.324,M,,*78
2017-11-15 19:40:25 1510792825.330079: $GPRMC,004024,A,3946.9633,N,08404.9547,W,0.4207,219.347,161117,,*37
2017-11-15 19:40:25 1510792825.330155: $GPGSA,A,3,32,16,22,26,14,31,3,,,,,,3.4,1.8,2.9*01
2017-11-15 19:40:26 1510792826.330617: $GPZDA,004025.00,16,11,2017,00,00*66
2017-11-15 19:40:26 1510792826.330776: $GPGGA,004025,3946.9630,N,08404.9548,W,1,07,1.20,289.74,M,-33.324,M,,*73
2017-11-15 19:40:26 1510792826.330835: $GPRMC,004025,A,3946.9630,N,08404.9548,W,0.3423,184.197,161117,,*35
2017-11-15 19:40:26 1510792826.330890: $GPGSA,A,3,32,16,22,26,14,31,3,,,,,,3.4,1.2,2.9*0B
2017-11-15 19:40:27 1510792827.682181: $GPGSV,3,1,11,32,32,111,14,16,27,190,18,22,50,264,12,26,58,171,24*72
2017-11-15 19:40:27 1510792827.682380: $GPGSV,3,2,11,14,52,097,17,31,64,031,23,03,42,294,09,23,14,303,00*76
2017-11-15 19:40:27 1510792827.682440: $GPGSV,3,3,11,25,13,039,00,29,12,067,00,01,03,249,00*42
2017-11-15 19:40:27 1510792827.795562: $GPZDA,004026.00,16,11,2017,00,00*65
2017-11-15 19:40:27 1510792827.795723: $GPGGA,004026,3946.9630,N,08404.9548,W,1,07,1.20,289.74,M,-33.324,M,,*70
2017-11-15 19:40:27 1510792827.795783: $GPRMC,004026,A,3946.9630,N,08404.9548,W,0.0000,0.000,161117,,*32
2017-11-15 19:40:27 1510792827.795839: $GPGSA,A,3,32,16,22,26,14,31,3,,,,,,3.4,1.2,2.9*0B
2017-11-15 19:40:28 1510792828.347086: $GPZDA,004027.00,16,11,2017,00,00*64
2017-11-15 19:40:28 1510792828.347291: $GPGGA,004027,3946.9633,N,08404.9541,W,1,07,1.20,290.45,M,-33.324,M,,*71
2017-11-15 19:40:28 1510792828.347363: $GPRMC,004027,A,3946.9633,N,08404.9541,W,0.9929,32.499,161117,,*07
2017-11-15 19:40:28 1510792828.347421: $GPGSA,A,3,32,16,22,26,14,31,3,,,,,,3.4,1.2,2.9*0B
2017-11-15 19:40:29 1510792829.349046: $GPZDA,004028.00,16,11,2017,00,00*6B
2017-11-15 19:40:29 1510792829.349252: $GPGGA,004028,3946.9637,N,08404.9540,W,1,07,1.20,289.69,M,-33.324,M,,*7D
2017-11-15 19:40:29 1510792829.349368: $GPRMC,004028,A,3946.9637,N,08404.9540,W,0.8414,39.347,161117,,*00
2017-11-15 19:40:29 1510792829.349425: $GPGSA,A,3,32,16,22,26,14,31,3,,,,,,3.4,1.2,2.9*0B
2017-11-15 19:40:30 1510792830.681908: $GPGSV,3,1,11,32,32,111,14,16,27,190,18,22,50,264,12,26,58,171,24*72
2017-11-15 19:40:30 1510792830.682077: $GPGSV,3,2,11,14,52,097,17,31,64,031,23,03,42,294,08,23,14,303,00*77
2017-11-15 19:40:30 1510792830.682155: $GPGSV,3,3,11,25,13,039,00,29,12,067,00,01,03,249,00*42
2017-11-15 19:40:30 1510792830.795139: $GPZDA,004029.00,16,11,2017,00,00*6A
2017-11-15 19:40:30 1510792830.795313: $GPGGA,004029,3946.9637,N,08404.9540,W,1,07,1.20,289.69,M,-33.324,M,,*7C
2017-11-15 19:40:30 1510792830.795374: $GPRMC,004029,A,3946.9637,N,08404.9540,W,1.1385,29.379,161117,,*0A
2017-11-15 19:40:30 1510792830.795430: $GPGSA,A,3,32,16,22,26,14,31,3,,,,,,3.4,1.2,2.9*0B
2017-11-15 19:40:31 1510792831.420525: $GPZDA,004030.00,16,11,2017,00,00*62
2017-11-15 19:40:31 1510792831.420683: $GPGGA,004030,3946.9641,N,08404.9533,W,1,07,1.20,290.41,M,-33.324,M,,*73
2017-11-15 19:40:31 1510792831.420744: $GPRMC,004030,A,3946.9641,N,08404.9533,W,0.4207,39.347,161117,,*04
2017-11-15 19:40:31 1510792831.420799: $GPGSA,A,3,32,16,22,26,14,31,3,,,,,,3.4,1.2,2.9*0B
