2017-11-16 14:10:43 1510859443.987826: {"class":"VERSION","release":"3.17","rev":"3.17","proto_major":3,"proto_minor":12}
2017-11-16 14:10:43 1510859443.988326: {"class":"DEVICES","devices":[{"class":"DEVICE","path":"/dev/ttyUSB0","driver":"SiRF","subtype":"9\u0006GSD4e_4.1.2-P1_RPATCH.05-F-GPS-4R-1510281 11/03/2015 307","activated":"2017-11-16T19:10:43.877Z","flags":1,"native":1,"bps":4800,"parity":"N","stopbits":1,"cycle":1.00}]}
2017-11-16 14:10:43 1510859443.988454: {"class":"WATCH","enable":true,"json":false,"nmea":true,"raw":0,"scaled":false,"timing":false,"split24":false,"pps":false}
2017-11-16 14:10:44 1510859444.528856: $GPZDA,191043.00,16,11,2017,00,00*6B
2017-11-16 14:10:44 1510859444.529034: $GPGGA,191043,3946.9566,N,08404.9851,W,2,11,0.80,305.47,M,-33.324,M,,*71
2017-11-16 14:10:44 1510859444.529097: $GPRMC,191043,A,3946.9566,N,08404.9851,W,0.0000,0.000,161117,,*39
2017-11-16 14:10:44 1510859444.529153: $GPGSA,A,3,10,13,15,18,20,21,24,32,8,27,138,,1.6,0.8,1.3*30
2017-11-16 14:10:45 1510859445.869675: $GPGSV,3,1,12,10,40,300,43,13,09,048,34,15,39,052,51,18,70,331,47*78
2017-11-16 14:10:45 1510859445.869847: $GPGSV,3,2,12,20,34,094,47,21,66,192,47,24,50,114,48,32,19,237,47*7D
2017-11-16 14:10:45 1510859445.869907: $GPGSV,3,3,12,08,05,324,32,27,19,291,40,14,03,231,00,138,38,213,45*46
2017-11-16 14:10:45 1510859445.982994: $GPZDA,191044.00,16,11,2017,00,00*6C
2017-11-16 14:10:45 1510859445.983156: $GPGGA,191044,3946.9566,N,08404.9851,W,2,11,0.80,305.47,M,-33.324,M,,*76
2017-11-16 14:10:45 1510859445.983218: $GPRMC,191044,A,3946.9566,N,08404.9851,W,0.0000,0.000,161117,,*3E
2017-11-16 14:10:45 1510859445.983274: $GPGSA,A,3,10,13,15,18,20,21,24,32,8,27,138,,1.6,0.8,1.3*30
2017-11-16 14:10:46 1510859446.565934: $GPZDA,191045.00,16,11,2017,00,00*6D
2017-11-16 14:10:46 1510859446.566111: $GPGGA,191045,3946.9566,N,08404.9851,W,2,11,0.80,305.47,M,-33.324,M,,*77
2017-11-16 14:10:46 1510859446.566175: $GPRMC,191045,A,3946.9566,N,08404.9851,W,0.0000,0.000,161117,,*3F
2017-11-16 14:10:46 1510859446.566235: $GPGSA,A,3,10,13,15,18,20,21,24,32,8,27,138,,1.6,0.8,1.3*30
2017-11-16 14:10:47 1510859447.534751: $GPZDA,191046.00,16,11,2017,00,00*6E
2017-11-16 14:10:47 1510859447.534923: $GPGGA,191046,3946.9566,N,08404.9851,W,2,11,0.80,305.47,M,-33.324,M,,*74
2017-11-16 14:10:47 1510859447.534986: $GPRMC,191046,A,3946.9566,N,08404.9851,W,0.0000,0.000,161117,,*3C
2017-11-16 14:10:47 1510859447.535042: $GPGSA,A,3,10,13,15,18,20,21,24,32,8,27,138,,1.6,0.8,1.3*30
2017-11-16 14:10:48 1510859448.870624: $GPGSV,3,1,12,10,40,300,43,13,09,048,34,15,39,052,51,18,70,331,48*77
2017-11-16 14:10:48 1510859448.870797: $GPGSV,3,2,12,20,34,094,46,21,66,192,47,24,50,114,47,32,19,237,46*72
2017-11-16 14:10:48 1510859448.870859: $GPGSV,3,3,12,08,05,324,36,27,19,291,40,14,03,231,00,138,38,213,45*42
2017-11-16 14:10:48 1510859448.983876: $GPZDA,191047.00,16,11,2017,00,00*6F
2017-11-16 14:10:48 1510859448.984025: $GPGGA,191047,3946.9566,N,08404.9851,W,2,11,0.80,305.47,M,-33.324,M,,*75
2017-11-16 14:10:48 1510859448.984085: $GPRMC,191047,A,3946.9566,N,08404.9851,W,0.0000,0.000,161117,,*3D
2017-11-16 14:10:48 1510859448.984141: $GPGSA,A,3,10,13,15,18,20,21,24,32,8,27,138,,1.6,0.8,1.3*30
2017-11-16 14:10:49 1510859449.608268: $GPRMC,191048,V,3946.9566,N,08404.9851,W,0.0000,0.000,161117,,*25
2017-11-16 14:10:49 1510859449.608424: $GPGSA,A,1,10,13,15,18,20,21,24,32,8,27,138,,,,,*3D
2017-11-16 14:10:50 1510859450.526445: $GPZDA,191049.00,16,11,2017,00,00*61
2017-11-16 14:10:50 1510859450.526641: $GPGGA,191049,3946.9566,N,08404.9851,W,2,11,0.80,305.47,M,-33.324,M,,*7B
2017-11-16 14:10:50 1510859450.526706: $GPRMC,191049,A,3946.9566,N,08404.9851,W,0.0000,0.000,161117,,*33
2017-11-16 14:10:50 1510859450.526765: $GPGSA,A,3,10,13,15,18,20,21,24,32,8,27,138,,1.6,0.8,1.3*30
2017-11-16 14:10:51 1510859451.895346: $GPGSV,3,1,12,08,05,324,37,10,40,300,43,13,09,048,32,15,39,052,50*7F
2017-11-16 14:10:51 1510859451.895539: $GPGSV,3,2,12,18,70,331,47,21,66,192,46,20,34,094,45,24,50,114,47*71
2017-11-16 14:10:51 1510859451.895607: $GPGSV,3,3,12,27,19,291,38,32,19,237,46,14,03,231,00,138,38,213,00*4C
2017-11-16 14:10:52 1510859452.003277: $GPZDA,191050.09,16,11,2017,00,00*60
2017-11-16 14:10:52 1510859452.003429: $GPGGA,191050,3946.9562,N,08404.9851,W,2,10,0.80,306.24,M,-33.324,M,,*70
2017-11-16 14:10:52 1510859452.003490: $GPRMC,191050,A,3946.9562,N,08404.9851,W,0.2422,93.794,161117,,*09
2017-11-16 14:10:52 1510859452.003549: $GPGSA,A,3,8,10,13,15,18,21,20,24,27,32,,,1.6,0.8,1.3*0A
2017-11-16 14:10:52 1510859452.528983: $GPZDA,191051.00,16,11,2017,00,00*68
2017-11-16 14:10:52 1510859452.529143: $GPGGA,191051,3946.9558,N,08404.9851,W,2,10,0.80,305.60,M,-33.324,M,,*7B
2017-11-16 14:10:52 1510859452.529204: $GPRMC,191051,A,3946.9558,N,08404.9851,W,0.0000,0.000,161117,,*37
2017-11-16 14:10:52 1510859452.529261: $GPGSA,A,3,8,10,13,15,18,21,20,24,27,32,,,1.6,0.8,1.3*0A
2017-11-16 14:10:53 1510859453.527327: $GPZDA,191052.00,16,11,2017,00,00*6B
2017-11-16 14:10:53 1510859453.527490: $GPGGA,191052,3946.9546,N,08404.9852,W,2,10,0.80,305.08,M,-33.324,M,,*7A
2017-11-16 14:10:53 1510859453.527554: $GPRMC,191052,A,3946.9546,N,08404.9852,W,0.3155,129.994,161117,,*34
2017-11-16 14:10:53 1510859453.527615: $GPGSA,A,3,8,10,13,15,18,21,20,24,27,32,,,1.6,0.8,1.3*0A
