2017-12-29 14:37:25 1514576245.845672: {"class":"VERSION","release":"3.16","rev":"3.16-4","proto_major":3,"proto_minor":11}
2017-12-29 14:37:25 1514576245.846103: {"class":"DEVICES","devices":[{"class":"DEVICE","path":"/dev/ttyUSB0","driver":"SiRF","subtype":"9\u0006GSD4e_4.1.2-P1_RPATCH.05-F-GPS-4R-1510281 11/03/2015 307","activated":"2017-12-29T19:37:25.812Z","flags":1,"native":1,"bps":4800,"parity":"N","stopbits":1,"cycle":1.00}]}
2017-12-29 14:37:25 1514576245.846220: {"class":"WATCH","enable":true,"json":false,"nmea":true,"raw":0,"scaled":false,"timing":false,"split24":false,"pps":false}
2017-12-29 14:37:26 1514576246.323979: $GPZDA,193727.00,29,12,2017,00,00*63
2017-12-29 14:37:26 1514576246.324172: $GPGGA,193727,3946.9572,N,08404.9851,W,2,12,0.80,294.67,M,-33.324,M,,*7B
2017-12-29 14:37:26 1514576246.324239: $GPRMC,193727,A,3946.9572,N,08404.9851,W,0.0000,0.000,291217,,*34
2017-12-29 14:37:26 1514576246.324302: $GPGSA,A,3,1,10,12,14,18,22,25,31,32,3,11,138,1.7,0.8,1.3*0C
2017-12-29 14:37:27 1514576247.323608: $GPZDA,193728.00,29,12,2017,00,00*6C
2017-12-29 14:37:27 1514576247.323792: $GPGGA,193728,3946.9572,N,08404.9851,W,2,12,0.80,294.67,M,-33.324,M,,*74
2017-12-29 14:37:27 1514576247.323860: $GPRMC,193728,A,3946.9572,N,08404.9851,W,0.0000,0.000,291217,,*3B
2017-12-29 14:37:27 1514576247.323923: $GPGSA,A,3,1,10,12,14,18,22,25,31,32,3,11,138,1.7,0.8,1.3*0C
2017-12-29 14:37:28 1514576248.662848: $GPGSV,3,1,12,01,21,300,36,10,47,148,51,12,22,049,45,14,66,327,44*7B
2017-12-29 14:37:28 1514576248.663035: $GPGSV,3,2,12,18,17,144,46,22,20,312,38,25,40,090,51,31,58,225,46*78
2017-12-29 14:37:28 1514576248.663116: $GPGSV,3,3,12,32,68,033,48,03,01,316,28,11,08,282,33,138,38,213,42*42
2017-12-29 14:37:28 1514576248.776480: $GPZDA,193729.00,29,12,2017,00,00*6D
2017-12-29 14:37:28 1514576248.776645: $GPGGA,193729,3946.9572,N,08404.9851,W,2,12,0.80,294.67,M,-33.324,M,,*75
2017-12-29 14:37:28 1514576248.776711: $GPRMC,193729,A,3946.9572,N,08404.9851,W,0.0000,0.000,291217,,*3A
2017-12-29 14:37:28 1514576248.776789: $GPGSA,A,3,1,10,12,14,18,22,25,31,32,3,11,138,1.7,0.8,1.3*0C
2017-12-29 14:37:29 1514576249.401913: $GPZDA,193730.00,29,12,2017,00,00*65
2017-12-29 14:37:29 1514576249.402083: $GPGGA,193730,3946.9572,N,08404.9851,W,2,12,0.80,294.67,M,-33.324,M,,*7D
2017-12-29 14:37:29 1514576249.402168: $GPRMC,193730,A,3946.9572,N,08404.9851,W,0.0000,0.000,291217,,*32
2017-12-29 14:37:29 1514576249.402232: $GPGSA,A,3,1,10,12,14,18,22,25,31,32,3,11,138,1.7,0.8,1.3*0C
2017-12-29 14:37:30 1514576250.325241: $GPZDA,193731.00,29,12,2017,00,00*64
2017-12-29 14:37:30 1514576250.325411: $GPGGA,193731,3946.9576,N,08404.9851,W,2,12,0.80,295.31,M,-33.324,M,,*7A
2017-12-29 14:37:30 1514576250.325478: $GPRMC,193731,A,3946.9576,N,08404.9851,W,0.0000,0.000,291217,,*37
2017-12-29 14:37:30 1514576250.325540: $GPGSA,A,3,1,10,12,14,18,22,25,31,32,3,11,138,1.7,0.8,1.3*0C
2017-12-29 14:37:32 1514576252.188337: $GPGSV,3,1,12,01,21,300,37,10,47,148,51,12,22,049,45,14,66,328,44*75
2017-12-29 14:37:32 1514576252.188519: $GPGSV,3,2,12,18,16,144,46,22,20,312,38,25,40,090,51,31,58,226,46*7A
2017-12-29 14:37:32 1514576252.188587: $GPGSV,3,3,12,32,68,033,48,03,01,316,28,11,08,282,34,138,38,213,42*45
2017-12-29 14:37:32 1514576252.300659: $GPZDA,193732.00,29,12,2017,00,00*67
2017-12-29 14:37:32 1514576252.300787: $GPGGA,193732,3946.9576,N,08404.9838,W,2,12,0.80,296.88,M,-33.324,M,,*77
2017-12-29 14:37:32 1514576252.300855: $GPRMC,193732,A,3946.9576,N,08404.9838,W,0.2422,93.794,291217,,*0D
2017-12-29 14:37:32 1514576252.300918: $GPGSA,A,3,1,10,12,14,18,22,25,31,32,3,11,138,1.7,0.8,1.3*0C
2017-12-29 14:37:32 1514576252.752771: $GPZDA,193733.00,29,12,2017,00,00*66
2017-12-29 14:37:32 1514576252.752917: $GPGGA,193733,3946.9576,N,08404.9838,W,2,12,0.80,296.88,M,-33.324,M,,*76
2017-12-29 14:37:32 1514576252.753004: $GPRMC,193733,A,3946.9576,N,08404.9838,W,0.0000,0.000,291217,,*3A
2017-12-29 14:37:32 1514576252.753065: $GPGSA,A,3,1,10,12,14,18,22,25,31,32,3,11,138,1.7,0.8,1.3*0C
2017-12-29 14:37:33 1514576253.325933: $GPZDA,193734.00,29,12,2017,00,00*61
2017-12-29 14:37:33 1514576253.326174: $GPGGA,193734,3946.9576,N,08404.9838,W,2,12,0.80,296.88,M,-33.324,M,,*71
2017-12-29 14:37:33 1514576253.326249: $GPRMC,193734,A,3946.9576,N,08404.9838,W,0.0000,0.000,291217,,*3D
2017-12-29 14:37:33 1514576253.326311: $GPGSA,A,3,1,10,12,14,18,22,25,31,32,3,11,138,1.7,0.8,1.3*0C
2017-12-29 14:37:34 1514576254.661217: $GPGSV,3,1,12,01,21,300,37,10,47,148,51,12,22,049,45,14,66,328,44*75
2017-12-29 14:37:34 1514576254.661384: $GPGSV,3,2,12,18,16,144,46,22,20,312,39,25,40,090,51,31,58,226,47*7A
2017-12-29 14:37:34 1514576254.661451: $GPGSV,3,3,12,32,68,033,47,03,01,316,28,11,08,282,34,138,38,213,43*4B
2017-12-29 14:37:34 1514576254.774526: $GPZDA,193735.00,29,12,2017,00,00*60
2017-12-29 14:37:34 1514576254.774672: $GPGGA,193735,3946.9576,N,08404.9838,W,2,12,0.80,296.88,M,-33.324,M,,*70
2017-12-29 14:37:34 1514576254.774739: $GPRMC,193735,A,3946.9576,N,08404.9838,W,0.0000,0.000,291217,,*3C
2017-12-29 14:37:34 1514576254.774798: $GPGSA,A,3,1,10,12,14,18,22,25,31,32,3,11,138,1.7,0.8,1.3*0C
2017-12-29 14:37:35 1514576255.323203: $GPZDA,193736.00,29,12,2017,00,00*63
2017-12-29 14:37:35 1514576255.323360: $GPGGA,193736,3946.9576,N,08404.9838,W,2,12,0.80,296.88,M,-33.324,M,,*73
2017-12-29 14:37:35 1514576255.323426: $GPRMC,193736,A,3946.9576,N,08404.9838,W,0.0000,0.000,291217,,*3F
2017-12-29 14:37:35 1514576255.323487: $GPGSA,A,3,1,10,12,14,18,22,25,31,32,3,11,138,1.7,0.8,1.3*0C
