2017-12-01 11:32:02 1512145922.519207: {"class":"VERSION","release":"3.16","rev":"3.16-4","proto_major":3,"proto_minor":11}
2017-12-01 11:32:02 1512145922.519591: {"class":"DEVICES","devices":[{"class":"DEVICE","path":"/dev/ttyUSB0","driver":"SiRF","subtype":"9\u0006GSD4e_4.1.2-P1_RPATCH.05-F-GPS-4R-1510281 11/03/2015 307","activated":"2017-12-01T16:32:02.465Z","flags":1,"native":1,"bps":4800,"parity":"N","stopbits":1,"cycle":1.00}]}
2017-12-01 11:32:02 1512145922.519721: {"class":"WATCH","enable":true,"json":false,"nmea":true,"raw":0,"scaled":false,"timing":false,"split24":false,"pps":false}
2017-12-01 11:32:03 1512145923.101139: $GPZDA,163203.52,01,12,2017,00,00*62
2017-12-01 11:32:03 1512145923.101317: $GPGGA,163203,3946.9500,N,08404.9747,W,1,11,1.00,324.79,M,-33.324,M,,*76
2017-12-01 11:32:03 1512145923.101460: $GPRMC,163203,A,3946.9500,N,08404.9747,W,0.1567,9.200,011217,,*31
2017-12-01 11:32:03 1512145923.101526: $GPGSA,A,3,5,10,13,15,18,20,21,24,27,29,138,,2.0,1.0,1.5*3D
2017-12-01 11:32:03 1512145923.101585: $GPGBS,163203,10.70,M,15.43,M,35.28,M*02
2017-12-01 11:32:04 1512145924.069209: $GPGSV,3,1,12,05,17,073,38,10,10,268,42,13,47,054,47,15,78,094,48*77
2017-12-01 11:32:04 1512145924.069393: $GPGSV,3,2,12,18,40,280,44,20,66,040,43,21,62,309,46,24,16,151,41*73
2017-12-01 11:32:04 1512145924.069461: $GPGSV,3,3,12,29,29,196,46,27,05,327,06,04,16,127,00,138,38,213,00*40
2017-12-01 11:32:04 1512145924.182705: $GPZDA,163204.00,01,12,2017,00,00*62
2017-12-01 11:32:04 1512145924.182895: $GPGGA,163204,3946.9500,N,08404.9754,W,1,09,1.00,324.71,M,-33.324,M,,*72
2017-12-01 11:32:04 1512145924.182963: $GPRMC,163204,A,3946.9500,N,08404.9754,W,0.1567,9.200,011217,,*34
2017-12-01 11:32:04 1512145924.183025: $GPGSA,A,3,5,10,13,15,18,20,21,24,29,,,,2.0,1.0,1.5*02
2017-12-01 11:32:04 1512145924.436686: $GPZDA,163205.00,01,12,2017,00,00*63
2017-12-01 11:32:04 1512145924.436859: $GPGGA,163205,3946.9504,N,08404.9754,W,1,09,0.80,323.95,M,-33.324,M,,*73
2017-12-01 11:32:04 1512145924.436927: $GPRMC,163205,A,3946.9504,N,08404.9754,W,0.1567,9.200,011217,,*31
2017-12-01 11:32:04 1512145924.436989: $GPGSA,A,3,5,10,13,15,18,20,21,24,29,,,,2.0,0.8,1.5*0B
2017-12-01 11:32:05 1512145925.175499: $GPZDA,163206.00,01,12,2017,00,00*60
2017-12-01 11:32:05 1512145925.175672: $GPGGA,163206,3946.9507,N,08404.9759,W,1,09,0.80,321.70,M,-33.324,M,,*77
2017-12-01 11:32:05 1512145925.175740: $GPRMC,163206,A,3946.9507,N,08404.9759,W,0.0000,0.000,011217,,*32
2017-12-01 11:32:05 1512145925.175802: $GPGSA,A,3,5,10,13,15,18,20,21,24,29,,,,2.0,0.8,1.5*0B
2017-12-01 11:32:06 1512145926.516643: $GPGSV,3,1,12,05,17,073,38,10,10,268,43,13,47,054,47,15,78,094,48*76
2017-12-01 11:32:06 1512145926.516820: $GPGSV,3,2,12,18,40,280,44,20,66,040,43,21,62,309,46,24,16,151,41*73
2017-12-01 11:32:06 1512145926.516905: $GPGSV,3,3,12,29,29,196,46,27,05,327,31,04,16,127,00,138,38,213,46*46
2017-12-01 11:32:06 1512145926.629949: $GPZDA,163207.00,01,12,2017,00,00*61
2017-12-01 11:32:06 1512145926.630136: $GPGGA,163207,3946.9510,N,08404.9765,W,1,11,0.80,319.45,M,-33.324,M,,*7B
2017-12-01 11:32:06 1512145926.630202: $GPRMC,163207,A,3946.9510,N,08404.9765,W,0.0000,0.000,011217,,*3A
2017-12-01 11:32:06 1512145926.630263: $GPGSA,A,3,5,10,13,15,18,20,21,24,29,27,138,,2.0,0.8,1.5*34
2017-12-01 11:32:07 1512145927.181495: $GPZDA,163208.00,01,12,2017,00,00*6E
2017-12-01 11:32:07 1512145927.181682: $GPGGA,163208,3946.9517,N,08404.9763,W,1,11,0.80,317.92,M,-33.324,M,,*71
2017-12-01 11:32:07 1512145927.181752: $GPRMC,163208,A,3946.9517,N,08404.9763,W,0.0000,0.000,011217,,*34
2017-12-01 11:32:07 1512145927.181813: $GPGSA,A,3,5,10,13,15,18,20,21,24,29,27,138,,2.0,0.8,1.5*34
2017-12-01 11:32:08 1512145928.185102: $GPZDA,163209.00,01,12,2017,00,00*6F
2017-12-01 11:32:08 1512145928.185271: $GPGGA,163209,3946.9516,N,08404.9769,W,1,11,0.80,316.44,M,-33.324,M,,*71
2017-12-01 11:32:08 1512145928.185338: $GPRMC,163209,A,3946.9516,N,08404.9769,W,0.0000,0.000,011217,,*3E
2017-12-01 11:32:08 1512145928.185399: $GPGSA,A,3,5,10,13,15,18,20,21,24,29,27,138,,2.0,0.8,1.5*34
2017-12-01 11:32:08 1512145928.185508: $GPGBS,163209,10.70,M,15.43,M,35.28,M*08
2017-12-01 11:32:09 1512145929.515955: $GPGSV,3,1,12,05,17,073,38,10,10,268,43,13,47,054,47,15,78,094,48*76
2017-12-01 11:32:09 1512145929.516142: $GPGSV,3,2,12,18,40,280,44,20,66,040,44,21,62,309,46,24,16,151,40*75
2017-12-01 11:32:09 1512145929.516207: $GPGSV,3,3,12,29,29,196,46,27,05,327,32,04,16,127,00,138,38,213,46*45
2017-12-01 11:32:09 1512145929.629632: $GPZDA,163210.00,01,12,2017,00,00*67
2017-12-01 11:32:09 1512145929.629804: $GPGGA,163210,3946.9520,N,08404.9776,W,1,11,0.80,315.60,M,-33.324,M,,*77
2017-12-01 11:32:09 1512145929.629870: $GPRMC,163210,A,3946.9520,N,08404.9776,W,0.0000,0.000,011217,,*3D
2017-12-01 11:32:09 1512145929.629931: $GPGSA,A,3,5,10,13,15,18,20,21,24,29,27,138,,2.0,0.8,1.5*34
2017-12-01 11:32:10 1512145930.182042: $GPZDA,163211.00,01,12,2017,00,00*66
2017-12-01 11:32:10 1512145930.182203: $GPGGA,163211,3946.9520,N,08404.9775,W,1,11,0.80,314.19,M,-33.324,M,,*7A
2017-12-01 11:32:10 1512145930.182270: $GPRMC,163211,A,3946.9520,N,08404.9775,W,0.0000,0.000,011217,,*3F
2017-12-01 11:32:10 1512145930.182331: $GPGSA,A,3,5,10,13,15,18,20,21,24,29,27,138,,2.0,0.8,1.5*34
2017-12-01 11:32:11 1512145931.180321: $GPZDA,163212.00,01,12,2017,00,00*65
2017-12-01 11:32:11 1512145931.180474: $GPGGA,163212,3946.9523,N,08404.9781,W,1,11,0.80,313.35,M,-33.324,M,,*78
2017-12-01 11:32:11 1512145931.180540: $GPRMC,163212,A,3946.9523,N,08404.9781,W,0.0000,0.000,011217,,*34
2017-12-01 11:32:11 1512145931.180600: $GPGSA,A,3,5,10,13,15,18,20,21,24,29,27,138,,2.0,0.8,1.5*34
2017-12-01 11:32:12 1512145932.520314: $GPGSV,3,1,12,05,17,073,38,10,10,268,43,13,47,054,47,15,78,094,48*76
2017-12-01 11:32:12 1512145932.520497: $GPGSV,3,2,12,18,40,280,44,20,66,040,44,21,62,309,46,24,16,151,40*75
2017-12-01 11:32:12 1512145932.520563: $GPGSV,3,3,12,29,29,196,46,27,05,327,32,04,16,127,00,138,38,213,46*45
