2017-11-15 19:38:00 1510792680.786999: {"class":"VERSION","release":"3.17","rev":"3.17","proto_major":3,"proto_minor":12}
2017-11-15 19:38:00 1510792680.787596: {"class":"DEVICES","devices":[{"class":"DEVICE","path":"/dev/ttyUSB0","driver":"SiRF","subtype":"9\u0006GSD4e_4.1.2-P1_RPATCH.05-F-GPS-4R-1510281 11/03/2015 307","activated":"2017-11-16T00:38:00.682Z","flags":1,"native":1,"bps":4800,"parity":"N","stopbits":1,"cycle":1.00}]}
2017-11-15 19:38:00 1510792680.787720: {"class":"WATCH","enable":true,"json":false,"nmea":true,"raw":0,"scaled":false,"timing":false,"split24":false,"pps":false}
2017-11-15 19:38:00 1510792680.836916: $GPZDA,003759.00,16,11,2017,00,00*6D
2017-11-15 19:38:00 1510792680.837065: $GPGGA,003759,3946.9542,N,08404.9558,W,1,05,1.60,282.60,M,-33.324,M,,*77
2017-11-15 19:38:00 1510792680.837189: $GPRMC,003759,A,3946.9542,N,08404.9558,W,1.1391,143.662,161117,,*32
2017-11-15 19:38:00 1510792680.837249: $GPGSA,A,3,32,26,31,3,22,,,,,,,,3.4,1.6,2.9*0D
2017-11-15 19:38:01 1510792681.420813: $GPZDA,003800.00,16,11,2017,00,00*6E
2017-11-15 19:38:01 1510792681.421013: $GPGGA,003800,3946.9542,N,08404.9558,W,1,05,1.60,282.60,M,-33.324,M,,*74
2017-11-15 19:38:01 1510792681.421074: $GPRMC,003800,A,3946.9542,N,08404.9558,W,0.8359,148.778,161117,,*3C
2017-11-15 19:38:01 1510792681.421130: $GPGSA,A,3,32,26,31,3,22,,,,,,,,3.4,1.6,2.9*0D
2017-11-15 19:38:02 1510792682.327856: $GPZDA,003801.00,16,11,2017,00,00*6F
2017-11-15 19:38:02 1510792682.328039: $GPGGA,003801,3946.9542,N,08404.9558,W,1,05,1.60,282.60,M,-33.324,M,,*75
2017-11-15 19:38:02 1510792682.328102: $GPRMC,003801,A,3946.9542,N,08404.9558,W,0.1567,189.201,161117,,*39
2017-11-15 19:38:02 1510792682.328176: $GPGSA,A,3,32,26,31,3,22,,,,,,,,3.4,1.6,2.9*0D
2017-11-15 19:38:03 1510792683.663690: $GPGSV,3,1,11,32,33,111,25,14,53,096,04,16,25,190,00,26,56,171,21*7F
2017-11-15 19:38:03 1510792683.663860: $GPGSV,3,2,11,25,15,039,00,31,65,030,26,03,41,295,18,23,13,301,00*77
2017-11-15 19:38:03 1510792683.663920: $GPGSV,3,3,11,29,11,069,00,01,04,250,00,22,50,265,23*4A
2017-11-15 19:38:03 1510792683.777397: $GPZDA,003802.00,16,11,2017,00,00*6C
2017-11-15 19:38:03 1510792683.777555: $GPGGA,003802,3946.9542,N,08404.9558,W,1,05,1.60,282.60,M,-33.324,M,,*76
2017-11-15 19:38:03 1510792683.777630: $GPRMC,003802,A,3946.9542,N,08404.9558,W,0.3006,242.540,161117,,*3C
2017-11-15 19:38:03 1510792683.777686: $GPGSA,A,3,32,26,31,3,22,,,,,,,,3.4,1.6,2.9*0D
2017-11-15 19:38:04 1510792684.344412: $GPZDA,003803.00,16,11,2017,00,00*6D
2017-11-15 19:38:04 1510792684.344575: $GPGGA,003803,3946.9542,N,08404.9558,W,1,05,1.60,282.60,M,-33.324,M,,*77
2017-11-15 19:38:04 1510792684.344634: $GPRMC,003803,A,3946.9542,N,08404.9558,W,0.7070,228.986,161117,,*32
2017-11-15 19:38:04 1510792684.344689: $GPGSA,A,3,32,26,31,3,22,,,,,,,,3.4,1.6,2.9*0D
2017-11-15 19:38:05 1510792685.345002: $GPZDA,003804.00,16,11,2017,00,00*6A
2017-11-15 19:38:05 1510792685.345173: $GPGGA,003804,3946.9538,N,08404.9558,W,1,05,1.60,281.96,M,-33.324,M,,*77
2017-11-15 19:38:05 1510792685.345235: $GPRMC,003804,A,3946.9538,N,08404.9558,W,0.3423,184.197,161117,,*33
2017-11-15 19:38:05 1510792685.345292: $GPGSA,A,3,32,26,31,3,22,,,,,,,,3.4,1.6,2.9*0D
2017-11-15 19:38:06 1510792686.665208: $GPGSV,3,1,12,32,33,111,26,14,53,096,04,16,25,190,00,26,56,171,21*7F
2017-11-15 19:38:06 1510792686.665404: $GPGSV,3,2,12,25,15,039,00,31,65,030,26,03,41,295,18,23,13,301,00*74
2017-11-15 19:38:06 1510792686.665465: $GPGSV,3,3,12,29,11,069,00,01,04,250,00,22,50,265,23,138,38,213,00*48
2017-11-15 19:38:06 1510792686.778540: $GPZDA,003805.00,16,11,2017,00,00*6B
2017-11-15 19:38:06 1510792686.778704: $GPGGA,003805,3946.9538,N,08404.9558,W,1,05,1.60,281.96,M,-33.324,M,,*76
2017-11-15 19:38:06 1510792686.778764: $GPRMC,003805,A,3946.9538,N,08404.9558,W,0.5912,129.173,161117,,*36
2017-11-15 19:38:06 1510792686.778821: $GPGSA,A,3,32,26,31,3,22,,,,,,,,3.4,1.6,2.9*0D
2017-11-15 19:38:07 1510792687.345923: $GPZDA,003806.00,16,11,2017,00,00*68
2017-11-15 19:38:07 1510792687.346087: $GPGGA,003806,3946.9538,N,08404.9558,W,1,05,1.60,281.96,M,-33.324,M,,*75
2017-11-15 19:38:07 1510792687.346235: $GPRMC,003806,A,3946.9538,N,08404.9558,W,0.5306,114.352,161117,,*35
2017-11-15 19:38:07 1510792687.346293: $GPGSA,A,3,32,26,31,3,22,,,,,,,,3.4,1.6,2.9*0D
2017-11-15 19:38:08 1510792688.345668: $GPZDA,003807.00,16,11,2017,00,00*69
2017-11-15 19:38:08 1510792688.345833: $GPGGA,003807,3946.9542,N,08404.9551,W,1,05,1.60,282.68,M,-33.324,M,,*72
2017-11-15 19:38:08 1510792688.345893: $GPRMC,003807,A,3946.9542,N,08404.9551,W,0.5230,76.444,161117,,*01
2017-11-15 19:38:08 1510792688.345949: $GPGSA,A,3,32,26,31,3,22,,,,,,,,3.4,1.6,2.9*0D
2017-11-15 19:38:09 1510792689.664913: $GPGSV,3,1,12,32,33,111,26,14,53,096,05,16,25,190,10,26,56,171,20*7E
2017-11-15 19:38:09 1510792689.665085: $GPGSV,3,2,12,25,15,039,00,31,65,030,26,03,41,295,18,23,13,301,00*74
2017-11-15 19:38:09 1510792689.665144: $GPGSV,3,3,12,29,11,069,00,01,04,250,00,22,50,265,22,138,38,213,00*49
2017-11-15 19:38:09 1510792689.778564: $GPZDA,003808.00,16,11,2017,00,00*66
2017-11-15 19:38:09 1510792689.778735: $GPGGA,003808,3946.9542,N,08404.9551,W,1,05,1.60,282.68,M,-33.324,M,,*7D
2017-11-15 19:38:09 1510792689.778795: $GPRMC,003808,A,3946.9542,N,08404.9551,W,0.5230,76.444,161117,,*0E
2017-11-15 19:38:09 1510792689.778851: $GPGSA,A,3,32,26,31,3,22,,,,,,,,3.4,1.6,2.9*0D
2017-11-15 19:38:10 1510792690.345622: $GPZDA,003809.00,16,11,2017,00,00*67
2017-11-15 19:38:10 1510792690.345789: $GPGGA,003809,3946.9542,N,08404.9551,W,1,05,1.60,282.68,M,-33.324,M,,*7C
2017-11-15 19:38:10 1510792690.345849: $GPRMC,003809,A,3946.9542,N,08404.9551,W,0.8054,68.645,161117,,*0E
2017-11-15 19:38:10 1510792690.345904: $GPGSA,A,3,32,26,31,3,22,,,,,,,,3.4,1.6,2.9*0D
