2017-12-01 14:13:45 1512155625.146845: {"class":"VERSION","release":"3.16","rev":"3.16-4","proto_major":3,"proto_minor":11}
2017-12-01 14:13:45 1512155625.147289: {"class":"DEVICES","devices":[{"class":"DEVICE","path":"/dev/ttyUSB0","driver":"SiRF","subtype":"9\u0006GSD4e_4.1.2-P1_RPATCH.05-F-GPS-4R-1510281 11/03/2015 307","activated":"2017-12-01T19:13:44.528Z","flags":1,"native":1,"bps":4800,"parity":"N","stopbits":1,"cycle":1.00}]}
2017-12-01 14:13:45 1512155625.147416: {"class":"WATCH","enable":true,"json":false,"nmea":true,"raw":0,"scaled":false,"timing":false,"split24":false,"pps":false}
2017-12-01 14:13:45 1512155625.386351: $GPZDA,191346.00,01,12,2017,00,00*68
2017-12-01 14:13:45 1512155625.386535: $GPGGA,191346,3946.9574,N,08404.9840,W,2,12,0.80,300.45,M,-33.324,M,,*70
2017-12-01 14:13:45 1512155625.386601: $GPRMC,191346,A,3946.9574,N,08404.9840,W,0.0000,0.000,011217,,*39
2017-12-01 14:13:45 1512155625.386668: $GPGSA,A,3,10,14,18,21,24,32,8,12,15,20,27,138,2.0,0.8,1.5*37
2017-12-01 14:13:46 1512155626.721661: $GPGSV,3,1,12,10,65,325,50,14,25,250,40,18,73,082,43,21,33,180,44*70
2017-12-01 14:13:46 1512155626.721844: $GPGSV,3,2,12,24,48,064,47,32,43,261,46,08,07,297,19,12,06,111,18*77
2017-12-01 14:13:46 1512155626.721917: $GPGSV,3,3,12,15,14,064,23,20,12,115,32,27,09,264,26,138,38,213,46*46
2017-12-01 14:13:46 1512155626.834926: $GPZDA,191347.00,01,12,2017,00,00*69
2017-12-01 14:13:46 1512155626.835084: $GPGGA,191347,3946.9574,N,08404.9840,W,2,12,0.80,300.45,M,-33.324,M,,*71
2017-12-01 14:13:46 1512155626.835150: $GPRMC,191347,A,3946.9574,N,08404.9840,W,0.0000,0.000,011217,,*38
2017-12-01 14:13:46 1512155626.835211: $GPGSA,A,3,10,14,18,21,24,32,8,12,15,20,27,138,2.0,0.8,1.5*37
2017-12-01 14:13:47 1512155627.388324: $GPZDA,191348.00,01,12,2017,00,00*66
2017-12-01 14:13:47 1512155627.388510: $GPGGA,191348,3946.9574,N,08404.9840,W,2,12,0.80,300.45,M,-33.324,M,,*7E
2017-12-01 14:13:47 1512155627.388578: $GPRMC,191348,A,3946.9574,N,08404.9840,W,0.0000,0.000,011217,,*37
2017-12-01 14:13:47 1512155627.388645: $GPGSA,A,3,10,14,18,21,24,32,8,12,15,20,27,138,2.0,0.8,1.5*37
2017-12-01 14:13:48 1512155628.381890: $GPZDA,191349.00,01,12,2017,00,00*67
2017-12-01 14:13:48 1512155628.382061: $GPGGA,191349,3946.9574,N,08404.9840,W,2,12,0.80,300.45,M,-33.324,M,,*7F
2017-12-01 14:13:48 1512155628.382128: $GPRMC,191349,A,3946.9574,N,08404.9840,W,0.0000,0.000,011217,,*36
2017-12-01 14:13:48 1512155628.382189: $GPGSA,A,3,10,14,18,21,24,32,8,12,15,20,27,138,2.0,0.8,1.5*37
2017-12-01 14:13:49 1512155629.751190: $GPGSV,3,1,12,10,65,325,50,14,25,250,40,18,73,082,43,21,33,180,44*70
2017-12-01 14:13:49 1512155629.751414: $GPGSV,3,2,12,24,48,064,47,32,43,261,46,08,07,297,19,12,06,111,21*7D
2017-12-01 14:13:49 1512155629.751491: $GPGSV,3,3,12,15,14,064,25,20,12,115,32,27,09,264,27,138,38,213,47*40
2017-12-01 14:13:49 1512155629.864605: $GPZDA,191350.00,01,12,2017,00,00*6F
2017-12-01 14:13:49 1512155629.864763: $GPGGA,191350,3946.9574,N,08404.9840,W,2,12,0.80,300.45,M,-33.324,M,,*77
2017-12-01 14:13:49 1512155629.864829: $GPRMC,191350,A,3946.9574,N,08404.9840,W,0.0000,0.000,011217,,*3E
2017-12-01 14:13:49 1512155629.864891: $GPGSA,A,3,10,14,18,21,24,32,8,12,15,20,27,138,2.0,0.8,1.5*37
2017-12-01 14:13:50 1512155630.409330: $GPZDA,191351.00,01,12,2017,00,00*6E
2017-12-01 14:13:50 1512155630.409506: $GPGGA,191351,3946.9574,N,08404.9840,W,2,12,0.80,300.45,M,-33.324,M,,*76
2017-12-01 14:13:50 1512155630.409573: $GPRMC,191351,A,3946.9574,N,08404.9840,W,0.0000,0.000,011217,,*3F
2017-12-01 14:13:50 1512155630.409638: $GPGSA,A,3,10,14,18,21,24,32,8,12,15,20,27,138,2.0,0.8,1.5*37
2017-12-01 14:13:51 1512155631.416305: $GPZDA,191352.00,01,12,2017,00,00*6D
2017-12-01 14:13:51 1512155631.416478: $GPGGA,191352,3946.9574,N,08404.9840,W,2,12,0.80,300.45,M,-33.324,M,,*75
2017-12-01 14:13:51 1512155631.416546: $GPRMC,191352,A,3946.9574,N,08404.9840,W,0.0000,0.000,011217,,*3C
2017-12-01 14:13:51 1512155631.416611: $GPGSA,A,3,10,14,18,21,24,32,8,12,15,20,27,138,2.0,0.8,1.5*37
2017-12-01 14:13:52 1512155632.751754: $GPGSV,3,1,12,10,65,325,50,14,25,250,40,18,73,082,43,21,33,180,44*70
2017-12-01 14:13:52 1512155632.751991: $GPGSV,3,2,12,24,48,064,47,32,43,261,46,08,07,297,24,12,06,111,25*77
2017-12-01 14:13:52 1512155632.752061: $GPGSV,3,3,12,15,14,064,24,20,12,115,32,27,09,264,22,138,38,213,47*44
2017-12-01 14:13:52 1512155632.865020: $GPZDA,191353.00,01,12,2017,00,00*6C
2017-12-01 14:13:52 1512155632.865156: $GPGGA,191353,3946.9574,N,08404.9840,W,2,12,0.80,300.45,M,-33.324,M,,*74
2017-12-01 14:13:52 1512155632.865223: $GPRMC,191353,A,3946.9574,N,08404.9840,W,0.0000,0.000,011217,,*3D
2017-12-01 14:13:52 1512155632.865284: $GPGSA,A,3,10,14,18,21,24,32,8,12,15,20,27,138,2.0,0.8,1.5*37
2017-12-01 14:13:53 1512155633.385907: $GPZDA,191354.00,01,12,2017,00,00*6B
2017-12-01 14:13:53 1512155633.386085: $GPGGA,191354,3946.9574,N,08404.9840,W,2,12,0.80,300.45,M,-33.324,M,,*73
2017-12-01 14:13:53 1512155633.386152: $GPRMC,191354,A,3946.9574,N,08404.9840,W,0.0000,0.000,011217,,*3A
2017-12-01 14:13:53 1512155633.386214: $GPGSA,A,3,10,14,18,21,24,32,8,12,15,20,27,138,2.0,0.8,1.5*37
2017-12-01 14:13:54 1512155634.414352: $GPZDA,191355.00,01,12,2017,00,00*6A
2017-12-01 14:13:54 1512155634.414525: $GPGGA,191355,3946.9574,N,08404.9840,W,2,12,0.80,300.45,M,-33.324,M,,*72
2017-12-01 14:13:54 1512155634.414595: $GPRMC,191355,A,3946.9574,N,08404.9840,W,0.0000,0.000,011217,,*3B
2017-12-01 14:13:54 1512155634.414657: $GPGSA,A,3,10,14,18,21,24,32,8,12,15,20,27,138,2.0,0.8,1.5*37
2017-12-01 14:13:55 1512155635.752612: $GPGSV,3,1,12,10,65,325,50,14,25,250,40,18,73,082,43,21,33,180,43*77
2017-12-01 14:13:55 1512155635.752810: $GPGSV,3,2,12,24,48,064,47,32,43,261,46,08,07,297,23,12,06,111,24*71
2017-12-01 14:13:55 1512155635.752879: $GPGSV,3,3,12,15,14,064,21,20,12,115,31,27,09,264,30,138,38,213,46*40
2017-12-01 14:13:55 1512155635.866383: $GPZDA,191356.00,01,12,2017,00,00*69
2017-12-01 14:13:55 1512155635.866558: $GPGGA,191356,3946.9574,N,08404.9840,W,2,12,0.80,300.45,M,-33.324,M,,*71
2017-12-01 14:13:55 1512155635.866627: $GPRMC,191356,A,3946.9574,N,08404.9840,W,0.0000,0.000,011217,,*38
2017-12-01 14:13:55 1512155635.866690: $GPGSA,A,3,10,14,18,21,24,32,8,12,15,20,27,138,2.0,0.8,1.5*37
2017-12-01 14:13:56 1512155636.491265: $GPZDA,191357.00,01,12,2017,00,00*68
2017-12-01 14:13:56 1512155636.491506: $GPGGA,191357,3946.9574,N,08404.9840,W,2,12,0.80,300.45,M,-33.324,M,,*70
2017-12-01 14:13:56 1512155636.491579: $GPRMC,191357,A,3946.9574,N,08404.9840,W,0.0000,0.000,011217,,*39
2017-12-01 14:13:56 1512155636.491640: $GPGSA,A,3,10,14,18,21,24,32,8,12,15,20,27,138,2.0,0.8,1.5*37
2017-12-01 14:13:57 1512155637.387054: $GPZDA,191358.00,01,12,2017,00,00*67
2017-12-01 14:13:57 1512155637.387512: $GPGGA,191358,3946.9574,N,08404.9840,W,2,12,0.80,300.45,M,-33.324,M,,*7F
2017-12-01 14:13:57 1512155637.387593: $GPRMC,191358,A,3946.9574,N,08404.9840,W,0.0000,0.000,011217,,*36
2017-12-01 14:13:57 1512155637.387655: $GPGSA,A,3,10,14,18,21,24,32,8,12,15,20,27,138,2.0,0.8,1.5*37
2017-12-01 14:13:58 1512155638.721780: $GPGSV,3,1,12,10,65,325,50,14,25,250,40,18,73,082,43,21,33,180,43*77
2017-12-01 14:13:58 1512155638.721962: $GPGSV,3,2,12,24,48,064,47,32,43,261,46,08,07,297,22,12,06,111,25*71
2017-12-01 14:13:58 1512155638.722029: $GPGSV,3,3,12,15,14,064,22,20,12,115,31,27,09,264,32,138,38,213,47*40
2017-12-01 14:13:58 1512155638.835044: $GPZDA,191359.00,01,12,2017,00,00*66
2017-12-01 14:13:58 1512155638.835225: $GPGGA,191359,3946.9574,N,08404.9840,W,2,12,0.80,300.45,M,-33.324,M,,*7E
2017-12-01 14:13:58 1512155638.835294: $GPRMC,191359,A,3946.9574,N,08404.9840,W,0.0000,0.000,011217,,*37
2017-12-01 14:13:58 1512155638.835354: $GPGSA,A,3,10,14,18,21,24,32,8,12,15,20,27,138,2.0,0.8,1.5*37
2017-12-01 14:13:59 1512155639.387542: $GPZDA,191400.00,01,12,2017,00,00*6D
2017-12-01 14:13:59 1512155639.387719: $GPGGA,191400,3946.9574,N,08404.9840,W,2,12,0.80,300.45,M,-33.324,M,,*75
2017-12-01 14:13:59 1512155639.387788: $GPRMC,191400,A,3946.9574,N,08404.9840,W,0.0000,0.000,011217,,*3C
2017-12-01 14:13:59 1512155639.387849: $GPGSA,A,3,10,14,18,21,24,32,8,12,15,20,27,138,2.0,0.8,1.5*37
2017-12-01 14:14:00 1512155640.415937: $GPZDA,191401.00,01,12,2017,00,00*6C
2017-12-01 14:14:00 1512155640.416110: $GPGGA,191401,3946.9574,N,08404.9840,W,2,12,0.80,300.45,M,-33.324,M,,*74
2017-12-01 14:14:00 1512155640.416177: $GPRMC,191401,A,3946.9574,N,08404.9840,W,0.0000,0.000,011217,,*3D
2017-12-01 14:14:00 1512155640.416238: $GPGSA,A,3,10,14,18,21,24,32,8,12,15,20,27,138,2.0,0.8,1.5*37
2017-12-01 14:14:01 1512155641.723599: $GPGSV,3,1,12,10,65,325,50,14,25,250,40,18,73,082,43,21,33,180,43*77
2017-12-01 14:14:01 1512155641.723785: $GPGSV,3,2,12,24,48,064,48,32,43,261,46,08,07,297,31,12,06,111,25*7C
2017-12-01 14:14:01 1512155641.723851: $GPGSV,3,3,12,15,14,064,22,20,12,115,31,27,09,264,31,138,38,213,47*43
2017-12-01 14:14:01 1512155641.837265: $GPZDA,191402.00,01,12,2017,00,00*6F
2017-12-01 14:14:01 1512155641.837427: $GPGGA,191402,3946.9574,N,08404.9840,W,2,12,0.80,300.45,M,-33.324,M,,*77
2017-12-01 14:14:01 1512155641.837497: $GPRMC,191402,A,3946.9574,N,08404.9840,W,0.0000,0.000,011217,,*3E
2017-12-01 14:14:01 1512155641.837562: $GPGSA,A,3,10,14,18,21,24,32,8,12,15,20,27,138,2.0,0.8,1.5*37
2017-12-01 14:14:02 1512155642.414480: $GPZDA,191403.00,01,12,2017,00,00*6E
2017-12-01 14:14:02 1512155642.414663: $GPGGA,191403,3946.9574,N,08404.9840,W,2,12,0.80,300.45,M,-33.324,M,,*76
2017-12-01 14:14:02 1512155642.414734: $GPRMC,191403,A,3946.9574,N,08404.9840,W,0.0000,0.000,011217,,*3F
2017-12-01 14:14:02 1512155642.414797: $GPGSA,A,3,10,14,18,21,24,32,8,12,15,20,27,138,2.0,0.8,1.5*37
2017-12-01 14:14:03 1512155643.387751: $GPZDA,191404.00,01,12,2017,00,00*69
2017-12-01 14:14:03 1512155643.387926: $GPGGA,191404,3946.9574,N,08404.9840,W,2,12,0.80,300.45,M,-33.324,M,,*71
2017-12-01 14:14:03 1512155643.387993: $GPRMC,191404,A,3946.9574,N,08404.9840,W,0.0000,0.000,011217,,*38
2017-12-01 14:14:03 1512155643.388056: $GPGSA,A,3,10,14,18,21,24,32,8,12,15,20,27,138,2.0,0.8,1.5*37
2017-12-01 14:14:04 1512155644.750775: $GPGSV,3,1,12,10,65,325,50,14,25,250,40,18,73,082,43,21,33,180,44*70
2017-12-01 14:14:04 1512155644.750971: $GPGSV,3,2,12,24,48,064,48,32,43,261,46,08,07,297,32,12,06,111,26*7C
2017-12-01 14:14:04 1512155644.751041: $GPGSV,3,3,12,15,14,064,29,20,12,115,30,27,09,264,31,138,38,213,46*48
2017-12-01 14:14:04 1512155644.864349: $GPZDA,191405.00,01,12,2017,00,00*68
2017-12-01 14:14:04 1512155644.864529: $GPGGA,191405,3946.9574,N,08404.9840,W,2,12,0.80,300.45,M,-33.324,M,,*70
2017-12-01 14:14:04 1512155644.864595: $GPRMC,191405,A,3946.9574,N,08404.9840,W,0.0000,0.000,011217,,*39
2017-12-01 14:14:04 1512155644.864658: $GPGSA,A,3,10,14,18,21,24,32,8,12,15,20,27,138,2.0,0.8,1.5*37
