2018-01-12 04:50:27 1515750627.733566: {"class":"VERSION","release":"3.16","rev":"3.16-4","proto_major":3,"proto_minor":11}
2018-01-12 04:50:27 1515750627.733966: {"class":"DEVICES","devices":[{"class":"DEVICE","path":"/dev/ttyUSB0","driver":"SiRF","subtype":"9\u0006GSD4e_4.1.2-P1_RPATCH.05-F-GPS-4R-1510281 11/03/2015 307","activated":"2018-01-12T09:50:27.550Z","flags":1,"native":1,"bps":4800,"parity":"N","stopbits":1,"cycle":1.00}]}
2018-01-12 04:50:27 1515750627.734080: {"class":"WATCH","enable":true,"json":false,"nmea":true,"raw":0,"scaled":false,"timing":false,"split24":false,"pps":false}
2018-01-12 04:50:28 1515750628.744899: $GPGSV,3,1,12,02,68,022,44,05,64,202,50,12,43,234,50,20,11,222,41*77
2018-01-12 04:50:28 1515750628.745117: $GPGSV,3,2,12,25,36,286,42,29,22,310,50,06,37,066,30,17,04,129,23*77
2018-01-12 04:50:28 1515750628.745189: $GPGSV,3,3,12,19,21,124,18,09,18,054,26,04,63,306,00,138,38,213,48*43
2018-01-12 04:50:28 1515750628.858579: $GPZDA,095029.00,12,01,2018,00,00*68
2018-01-12 04:50:28 1515750628.858745: $GPGGA,095029,3946.9637,N,08404.9741,W,2,11,0.80,297.55,M,-33.324,M,,*78
2018-01-12 04:50:28 1515750628.858813: $GPRMC,095029,A,3946.9637,N,08404.9741,W,0.0000,0.000,120118,,*33
2018-01-12 04:50:28 1515750628.858878: $GPGSA,A,3,2,5,12,20,25,29,6,17,19,9,138,,2.4,0.8,2.1*0E
2018-01-12 04:50:29 1515750629.410692: $GPZDA,095030.00,12,01,2018,00,00*60
2018-01-12 04:50:29 1515750629.410852: $GPGGA,095030,3946.9641,N,08404.9741,W,2,11,1.00,298.19,M,-33.324,M,,*7F
2018-01-12 04:50:29 1515750629.410921: $GPRMC,095030,A,3946.9641,N,08404.9741,W,0.0000,0.000,120118,,*3A
2018-01-12 04:50:29 1515750629.410983: $GPGSA,A,3,2,5,12,20,25,29,6,17,19,9,138,,2.4,1.0,2.1*07
2018-01-12 04:50:30 1515750630.412362: $GPZDA,095031.00,12,01,2018,00,00*61
2018-01-12 04:50:30 1515750630.412536: $GPGGA,095031,3946.9658,N,08404.9735,W,2,11,1.20,302.23,M,-33.324,M,,*7C
2018-01-12 04:50:30 1515750630.412604: $GPRMC,095031,A,3946.9658,N,08404.9735,W,0.0000,0.000,120118,,*30
2018-01-12 04:50:30 1515750630.412664: $GPGSA,A,3,2,5,12,20,25,29,6,17,19,9,138,,2.4,1.2,2.1*05
2018-01-12 04:50:30 1515750630.412722: $GPGBS,095031,3.00,M,3.62,M,11.97,M*0A
2018-01-12 04:50:31 1515750631.752612: $GPGSV,3,1,12,02,68,022,44,05,64,202,50,12,43,234,50,20,11,222,41*77
2018-01-12 04:50:31 1515750631.752794: $GPGSV,3,2,12,25,36,286,42,29,22,310,50,06,37,066,29,17,04,129,23*7F
2018-01-12 04:50:31 1515750631.752863: $GPGSV,3,3,12,09,18,054,10,19,21,124,00,04,63,306,00,138,38,213,48*4F
2018-01-12 04:50:31 1515750631.866303: $GPZDA,095032.00,12,01,2018,00,00*62
2018-01-12 04:50:31 1515750631.866476: $GPGGA,095032,3946.9659,N,08404.9743,W,2,09,1.20,303.56,M,-33.324,M,,*75
2018-01-12 04:50:31 1515750631.866542: $GPRMC,095032,A,3946.9659,N,08404.9743,W,0.1567,189.200,120118,,*34
2018-01-12 04:50:31 1515750631.866604: $GPGSA,A,3,2,5,12,20,25,29,6,17,138,,,,2.4,1.2,2.1*34
2018-01-12 04:50:32 1515750632.407231: $GPZDA,095033.00,12,01,2018,00,00*63
2018-01-12 04:50:32 1515750632.407402: $GPGGA,095033,3946.9664,N,08404.9744,W,2,09,1.20,305.60,M,-33.324,M,,*7E
2018-01-12 04:50:32 1515750632.407470: $GPRMC,095033,A,3946.9664,N,08404.9744,W,0.0407,322.012,120118,,*38
2018-01-12 04:50:32 1515750632.407532: $GPGSA,A,3,2,5,12,20,25,29,6,17,138,,,,2.4,1.2,2.1*34
2018-01-12 04:50:33 1515750633.410465: $GPZDA,095034.00,12,01,2018,00,00*64
2018-01-12 04:50:33 1515750633.410638: $GPGGA,095034,3946.9664,N,08404.9744,W,2,09,1.00,305.60,M,-33.324,M,,*7B
2018-01-12 04:50:33 1515750633.410704: $GPRMC,095034,A,3946.9664,N,08404.9744,W,0.0407,322.012,120118,,*3F
2018-01-12 04:50:33 1515750633.410769: $GPGSA,A,3,2,5,12,20,25,29,6,17,138,,,,2.4,1.0,2.1*36
2018-01-12 04:50:34 1515750634.741016: $GPGSV,3,1,12,02,68,022,44,05,64,202,49,12,43,234,49,20,11,222,42*74
2018-01-12 04:50:34 1515750634.741219: $GPGSV,3,2,12,25,36,286,42,29,22,310,48,06,37,066,28,17,04,129,24*70
2018-01-12 04:50:34 1515750634.741287: $GPGSV,3,3,12,19,21,124,00,09,18,054,00,04,63,306,00,138,38,213,49*4F
2018-01-12 04:50:34 1515750634.854731: $GPZDA,095035.00,12,01,2018,00,00*65
2018-01-12 04:50:34 1515750634.854981: $GPGGA,095035,3946.9664,N,08404.9744,W,2,09,1.20,305.60,M,-33.324,M,,*78
2018-01-12 04:50:34 1515750634.855052: $GPRMC,095035,A,3946.9664,N,08404.9744,W,0.1867,0.000,120118,,*35
2018-01-12 04:50:34 1515750634.855114: $GPGSA,A,3,2,5,12,20,25,29,6,17,138,,,,2.4,1.2,2.1*34
2018-01-12 04:50:35 1515750635.405528: $GPZDA,095036.00,12,01,2018,00,00*66
2018-01-12 04:50:35 1515750635.405697: $GPGGA,095036,3946.9664,N,08404.9744,W,2,09,1.20,305.60,M,-33.324,M,,*7B
2018-01-12 04:50:35 1515750635.405768: $GPRMC,095036,A,3946.9664,N,08404.9744,W,0.1867,0.000,120118,,*36
2018-01-12 04:50:35 1515750635.405831: $GPGSA,A,3,2,5,12,20,25,29,6,17,138,,,,2.4,1.2,2.1*34
2018-01-12 04:50:36 1515750636.409735: $GPZDA,095037.00,12,01,2018,00,00*67
2018-01-12 04:50:36 1515750636.409914: $GPGGA,095037,3946.9659,N,08404.9744,W,2,09,1.20,304.96,M,-33.324,M,,*7C
2018-01-12 04:50:36 1515750636.409982: $GPRMC,095037,A,3946.9659,N,08404.9744,W,0.0000,0.000,120118,,*31
2018-01-12 04:50:36 1515750636.410043: $GPGSA,A,3,2,5,12,20,25,29,6,17,138,,,,2.4,1.2,2.1*34
2018-01-12 04:50:37 1515750637.740122: $GPGSV,3,1,12,02,68,022,44,05,64,202,49,12,43,234,49,20,11,222,42*74
2018-01-12 04:50:37 1515750637.740299: $GPGSV,3,2,12,25,36,286,43,29,22,310,49,06,37,066,27,17,04,129,26*7D
2018-01-12 04:50:37 1515750637.740366: $GPGSV,3,3,12,19,21,124,00,09,18,054,00,04,63,306,00,138,38,213,47*41
2018-01-12 04:50:37 1515750637.853757: $GPZDA,095038.00,12,01,2018,00,00*68
2018-01-12 04:50:37 1515750637.853932: $GPGGA,095038,3946.9659,N,08404.9744,W,2,09,1.20,304.96,M,-33.324,M,,*73
2018-01-12 04:50:37 1515750637.854000: $GPRMC,095038,A,3946.9659,N,08404.9744,W,0.0000,0.000,120118,,*3E
2018-01-12 04:50:37 1515750637.854060: $GPGSA,A,3,2,5,12,20,25,29,6,17,138,,,,2.4,1.2,2.1*34
2018-01-12 04:50:38 1515750638.405794: $GPZDA,095039.00,12,01,2018,00,00*69
2018-01-12 04:50:38 1515750638.405972: $GPGGA,095039,3946.9659,N,08404.9744,W,2,09,1.20,304.96,M,-33.324,M,,*72
2018-01-12 04:50:38 1515750638.406038: $GPRMC,095039,A,3946.9659,N,08404.9744,W,0.0000,0.000,120118,,*3F
2018-01-12 04:50:38 1515750638.406101: $GPGSA,A,3,2,5,12,20,25,29,6,17,138,,,,2.4,1.2,2.1*34
2018-01-12 04:50:39 1515750639.408153: $GPZDA,095040.00,12,01,2018,00,00*67
2018-01-12 04:50:39 1515750639.408322: $GPGGA,095040,3946.9664,N,08404.9744,W,2,09,1.00,305.60,M,-33.324,M,,*78
2018-01-12 04:50:39 1515750639.408388: $GPRMC,095040,A,3946.9664,N,08404.9744,W,0.0000,0.000,120118,,*3F
2018-01-12 04:50:39 1515750639.408451: $GPGSA,A,3,2,5,12,20,25,29,6,17,138,,,,2.4,1.0,2.1*36
2018-01-12 04:50:40 1515750640.742344: $GPGSV,3,1,12,02,68,022,44,05,64,202,50,12,43,234,49,20,11,222,42*7C
2018-01-12 04:50:40 1515750640.742530: $GPGSV,3,2,12,25,36,286,43,29,22,310,49,06,37,066,28,17,04,129,25*71
2018-01-12 04:50:40 1515750640.742597: $GPGSV,3,3,12,09,18,054,00,04,63,306,00,19,21,124,18,138,38,213,47*48
2018-01-12 04:50:40 1515750640.855948: $GPZDA,095041.00,12,01,2018,00,00*66
2018-01-12 04:50:40 1515750640.856114: $GPGGA,095041,3946.9664,N,08404.9744,W,2,09,1.20,305.60,M,-33.324,M,,*7B
2018-01-12 04:50:40 1515750640.856182: $GPRMC,095041,A,3946.9664,N,08404.9744,W,0.0000,0.000,120118,,*3E
2018-01-12 04:50:40 1515750640.856243: $GPGSA,A,3,2,5,12,20,25,29,6,17,138,,,,2.4,1.2,2.1*34
2018-01-12 04:50:41 1515750641.481545: $GPZDA,095042.00,12,01,2018,00,00*65
2018-01-12 04:50:41 1515750641.481821: $GPGGA,095042,3946.9664,N,08404.9744,W,2,09,0.80,305.60,M,-33.324,M,,*73
2018-01-12 04:50:41 1515750641.481929: $GPRMC,095042,A,3946.9664,N,08404.9744,W,0.0000,0.000,120118,,*3D
2018-01-12 04:50:41 1515750641.482018: $GPGSA,A,3,2,5,12,20,25,29,6,17,138,,,,2.4,0.8,2.1*3F
2018-01-12 04:50:42 1515750642.412025: $GPZDA,095043.00,12,01,2018,00,00*64
2018-01-12 04:50:42 1515750642.412195: $GPGGA,095043,3946.9664,N,08404.9744,W,2,09,0.80,305.60,M,-33.324,M,,*72
2018-01-12 04:50:42 1515750642.412261: $GPRMC,095043,A,3946.9664,N,08404.9744,W,0.0000,0.000,120118,,*3C
2018-01-12 04:50:42 1515750642.412322: $GPGSA,A,3,2,5,12,20,25,29,6,17,138,,,,2.4,0.8,2.1*3F
2018-01-12 04:50:43 1515750643.743841: $GPGSV,3,1,12,02,68,022,44,05,64,202,50,12,43,234,49,20,11,222,42*7C
2018-01-12 04:50:43 1515750643.744085: $GPGSV,3,2,12,25,36,286,43,29,22,310,49,06,37,066,28,17,04,129,20*74
2018-01-12 04:50:43 1515750643.744153: $GPGSV,3,3,12,09,18,054,23,04,63,306,00,19,21,124,18,138,38,213,47*49
2018-01-12 04:50:43 1515750643.857167: $GPZDA,095044.00,12,01,2018,00,00*63
2018-01-12 04:50:43 1515750643.857337: $GPGGA,095044,3946.9664,N,08404.9744,W,2,10,0.80,305.60,M,-33.324,M,,*7D
2018-01-12 04:50:43 1515750643.857401: $GPRMC,095044,A,3946.9664,N,08404.9744,W,0.0000,0.000,120118,,*3B
2018-01-12 04:50:43 1515750643.857462: $GPGSA,A,3,2,5,12,20,25,29,6,9,19,138,,,2.4,0.8,2.1*08
2018-01-12 04:50:44 1515750644.410455: $GPZDA,095045.00,12,01,2018,00,00*62
2018-01-12 04:50:44 1515750644.410621: $GPGGA,095045,3946.9664,N,08404.9744,W,2,10,0.80,305.60,M,-33.324,M,,*7C
2018-01-12 04:50:44 1515750644.410690: $GPRMC,095045,A,3946.9664,N,08404.9744,W,0.0000,0.000,120118,,*3A
2018-01-12 04:50:44 1515750644.410754: $GPGSA,A,3,2,5,12,20,25,29,6,9,19,138,,,2.4,0.8,2.1*08
2018-01-12 04:50:45 1515750645.412737: $GPZDA,095046.00,12,01,2018,00,00*61
2018-01-12 04:50:45 1515750645.412917: $GPGGA,095046,3946.9664,N,08404.9744,W,2,10,0.80,305.60,M,-33.324,M,,*7F
2018-01-12 04:50:45 1515750645.412984: $GPRMC,095046,A,3946.9664,N,08404.9744,W,0.0000,0.000,120118,,*39
2018-01-12 04:50:45 1515750645.413047: $GPGSA,A,3,2,5,12,20,25,29,6,9,19,138,,,2.4,0.8,2.1*08
2018-01-12 04:50:46 1515750646.740413: $GPGSV,3,1,12,02,68,022,44,05,64,202,50,12,43,234,49,20,11,222,42*7C
2018-01-12 04:50:46 1515750646.740592: $GPGSV,3,2,12,25,36,286,43,29,22,310,49,06,37,066,28,09,18,054,00*7F
2018-01-12 04:50:46 1515750646.740659: $GPGSV,3,3,12,04,63,306,00,17,04,129,00,19,21,124,19,138,38,213,47*40
2018-01-12 04:50:46 1515750646.853928: $GPZDA,095047.00,12,01,2018,00,00*60
2018-01-12 04:50:46 1515750646.854098: $GPGGA,095047,3946.9664,N,08404.9744,W,2,09,0.80,305.60,M,-33.324,M,,*76
2018-01-12 04:50:46 1515750646.854164: $GPRMC,095047,A,3946.9664,N,08404.9744,W,0.0000,0.000,120118,,*38
2018-01-12 04:50:46 1515750646.854279: $GPGSA,A,3,2,5,12,20,25,29,6,19,138,,,,2.4,0.8,2.1*31
2018-01-12 04:50:47 1515750647.411209: $GPZDA,095048.00,12,01,2018,00,00*6F
2018-01-12 04:50:47 1515750647.411368: $GPGGA,095048,3946.9664,N,08404.9744,W,2,09,0.80,305.60,M,-33.324,M,,*79
2018-01-12 04:50:47 1515750647.411433: $GPRMC,095048,A,3946.9664,N,08404.9744,W,0.0000,0.000,120118,,*37
2018-01-12 04:50:47 1515750647.411494: $GPGSA,A,3,2,5,12,20,25,29,6,19,138,,,,2.4,0.8,2.1*31
