2017-11-15 19:55:13 1510793713.305146: {"class":"VERSION","release":"3.17","rev":"3.17","proto_major":3,"proto_minor":12}
2017-11-15 19:55:13 1510793713.305616: {"class":"DEVICES","devices":[{"class":"DEVICE","path":"/dev/ttyUSB0","driver":"SiRF","subtype":"9\u0006GSD4e_4.1.2-P1_RPATCH.05-F-GPS-4R-1510281 11/03/2015 307","activated":"2017-11-16T00:55:13.216Z","flags":1,"native":1,"bps":4800,"parity":"N","stopbits":1,"cycle":1.00}]}
2017-11-15 19:55:13 1510793713.305739: {"class":"WATCH","enable":true,"json":false,"nmea":true,"raw":0,"scaled":false,"timing":false,"split24":false,"pps":false}
2017-11-15 19:55:13 1510793713.329709: $GPZDA,005512.00,16,11,2017,00,00*66
2017-11-15 19:55:13 1510793713.329868: $GPGGA,005512,3946.9524,N,08404.9592,W,1,07,1.00,289.68,M,-33.324,M,,*7D
2017-11-15 19:55:13 1510793713.329932: $GPRMC,005512,A,3946.9524,N,08404.9592,W,0.0000,0.000,161117,,*30
2017-11-15 19:55:13 1510793713.329989: $GPGSA,A,3,16,31,26,14,22,32,23,,,,,,3.4,1.0,2.9*3B
2017-11-15 19:55:14 1510793714.329941: $GPZDA,005513.00,16,11,2017,00,00*67
2017-11-15 19:55:14 1510793714.330093: $GPGGA,005513,3946.9524,N,08404.9592,W,1,07,1.00,289.68,M,-33.324,M,,*7C
2017-11-15 19:55:14 1510793714.330153: $GPRMC,005513,A,3946.9524,N,08404.9592,W,0.3423,4.197,161117,,*3C
2017-11-15 19:55:14 1510793714.330210: $GPGSA,A,3,16,31,26,14,22,32,23,,,,,,3.4,1.0,2.9*3B
2017-11-15 19:55:15 1510793715.665086: $GPGSV,3,1,10,03,44,285,04,16,34,190,23,31,58,040,24,26,65,165,15*77
2017-11-15 19:55:15 1510793715.665256: $GPGSV,3,2,10,14,46,106,22,22,48,252,22,32,27,117,14,23,20,304,10*73
2017-11-15 19:55:15 1510793715.665316: $GPGSV,3,3,10,29,13,060,00,25,08,037,00*7C
2017-11-15 19:55:15 1510793715.778689: $GPZDA,005514.00,16,11,2017,00,00*60
2017-11-15 19:55:15 1510793715.778834: $GPGGA,005514,3946.9524,N,08404.9585,W,1,07,1.00,289.76,M,-33.324,M,,*72
2017-11-15 19:55:15 1510793715.778895: $GPRMC,005514,A,3946.9524,N,08404.9585,W,0.4207,39.347,161117,,*0B
2017-11-15 19:55:15 1510793715.778953: $GPGSA,A,3,16,31,26,14,22,32,23,,,,,,3.4,1.0,2.9*3B
2017-11-15 19:55:16 1510793716.403702: $GPZDA,005515.00,16,11,2017,00,00*61
2017-11-15 19:55:16 1510793716.403864: $GPGGA,005515,3946.9524,N,08404.9585,W,1,07,1.00,289.76,M,-33.324,M,,*73
2017-11-15 19:55:16 1510793716.403925: $GPRMC,005515,A,3946.9524,N,08404.9585,W,0.7267,93.794,161117,,*05
2017-11-15 19:55:16 1510793716.403983: $GPGSA,A,3,16,31,26,14,22,32,23,,,,,,3.4,1.0,2.9*3B
2017-11-15 19:55:17 1510793717.329587: $GPZDA,005516.00,16,11,2017,00,00*62
2017-11-15 19:55:18 1510793718.145188: $GPGGA,005516,3946.9519,N,08404.9578,W,1,07,1.00,289.20,M,-33.324,M,,*7F
2017-11-15 19:55:18 1510793718.145334: $GPRMC,005516,A,3946.9519,N,08404.9578,W,0.4844,93.794,161117,,*02
2017-11-15 19:55:18 1510793718.145396: $GPGSA,A,3,16,31,26,14,22,32,23,,,,,,3.4,1.0,2.9*3B
2017-11-15 19:55:18 1510793718.665361: $GPGSV,3,1,10,03,44,285,04,16,34,190,23,31,58,040,24,26,65,165,14*76
2017-11-15 19:55:18 1510793718.665535: $GPGSV,3,2,10,14,46,106,22,22,48,252,22,32,27,117,15,23,20,304,10*72
2017-11-15 19:55:18 1510793718.665594: $GPGSV,3,3,10,29,13,060,00,25,08,037,00*7C
2017-11-15 19:55:18 1510793718.778693: $GPZDA,005517.00,16,11,2017,00,00*63
2017-11-15 19:55:18 1510793718.778862: $GPGGA,005517,3946.9519,N,08404.9578,W,1,07,1.00,289.20,M,-33.324,M,,*7E
2017-11-15 19:55:18 1510793718.778924: $GPRMC,005517,A,3946.9519,N,08404.9578,W,0.2422,93.794,161117,,*09
2017-11-15 19:55:18 1510793718.778982: $GPGSA,A,3,16,31,26,14,22,32,23,,,,,,3.4,1.0,2.9*3B
2017-11-15 19:55:19 1510793719.347406: $GPZDA,005518.00,16,11,2017,00,00*6C
2017-11-15 19:55:19 1510793719.347537: $GPGGA,005518,3946.9515,N,08404.9571,W,1,07,1.00,288.64,M,-33.324,M,,*75
2017-11-15 19:55:19 1510793719.347597: $GPRMC,005518,A,3946.9515,N,08404.9571,W,0.5287,182.716,161117,,*36
2017-11-15 19:55:19 1510793719.347654: $GPGSA,A,3,16,31,26,14,22,32,23,,,,,,3.4,1.0,2.9*3B
2017-11-15 19:55:20 1510793720.330677: $GPZDA,005519.00,16,11,2017,00,00*6D
2017-11-15 19:55:20 1510793720.330839: $GPGGA,005519,3946.9512,N,08404.9572,W,1,07,1.00,289.40,M,-33.324,M,,*77
2017-11-15 19:55:20 1510793720.330992: $GPRMC,005519,A,3946.9512,N,08404.9572,W,0.3155,129.994,161117,,*3C
2017-11-15 19:55:20 1510793720.331056: $GPGSA,A,3,16,31,26,14,22,32,23,,,,,,3.4,1.0,2.9*3B
2017-11-15 19:55:21 1510793721.681959: $GPGSV,3,1,10,03,44,285,04,16,34,190,23,31,58,040,23,26,65,165,15*70
2017-11-15 19:55:21 1510793721.682151: $GPGSV,3,2,10,14,46,106,21,22,48,252,22,32,27,117,16,23,20,304,10*72
2017-11-15 19:55:21 1510793721.682214: $GPGSV,3,3,10,29,13,060,00,25,08,037,00*7C
2017-11-15 19:55:21 1510793721.795696: $GPZDA,005520.00,16,11,2017,00,00*67
2017-11-15 19:55:21 1510793721.795855: $GPGGA,005520,3946.9511,N,08404.9565,W,1,07,1.00,289.48,M,-33.324,M,,*70
2017-11-15 19:55:21 1510793721.795919: $GPRMC,005520,A,3946.9511,N,08404.9565,W,0.4844,93.794,161117,,*03
2017-11-15 19:55:21 1510793721.795975: $GPGSA,A,3,16,31,26,14,22,32,23,,,,,,3.4,1.0,2.9*3B
2017-11-15 19:55:22 1510793722.328666: $GPZDA,005521.00,16,11,2017,00,00*66
2017-11-15 19:55:22 1510793722.328834: $GPGGA,005521,3946.9511,N,08404.9558,W,1,07,1.00,289.56,M,-33.324,M,,*70
2017-11-15 19:55:22 1510793722.328899: $GPRMC,005521,A,3946.9511,N,08404.9558,W,0.9959,84.784,161117,,*0B
2017-11-15 19:55:22 1510793722.328957: $GPGSA,A,3,16,31,26,14,22,32,23,,,,,,3.4,1.0,2.9*3B
2017-11-15 19:55:23 1510793723.329535: $GPZDA,005522.00,16,11,2017,00,00*65
2017-11-15 19:55:23 1510793723.329699: $GPGGA,005522,3946.9514,N,08404.9557,W,1,07,1.00,288.79,M,-33.324,M,,*75
2017-11-15 19:55:23 1510793723.329761: $GPRMC,005522,A,3946.9514,N,08404.9557,W,0.8054,68.645,161117,,*09
2017-11-15 19:55:23 1510793723.329816: $GPGSA,A,3,16,31,26,14,22,32,23,,,,,,3.4,1.0,2.9*3B
