2017-11-16 15:56:34 1510865794.423471: {"class":"VERSION","release":"3.17","rev":"3.17","proto_major":3,"proto_minor":12}
2017-11-16 15:56:34 1510865794.423767: {"class":"DEVICES","devices":[{"class":"DEVICE","path":"/dev/ttyUSB0","driver":"SiRF","subtype":"9\u0006GSD4e_4.1.2-P1_RPATCH.05-F-GPS-4R-1510281 11/03/2015 307","activated":"2017-11-16T20:56:34.273Z","flags":1,"native":1,"bps":4800,"parity":"N","stopbits":1,"cycle":1.00}]}
2017-11-16 15:56:34 1510865794.423852: {"class":"WATCH","enable":true,"json":false,"nmea":true,"raw":0,"scaled":false,"timing":false,"split24":false,"pps":false}
2017-11-16 15:56:34 1510865794.722041: $GPGSV,3,1,12,11,05,319,34,10,81,009,50,14,39,265,45,31,11,205,31*7D
2017-11-16 15:56:34 1510865794.722234: $GPGSV,3,2,12,18,59,117,49,25,13,132,34,21,15,177,34,24,34,049,51*7F
2017-11-16 15:56:34 1510865794.722323: $GPGSV,3,3,12,15,02,075,08,32,55,283,47,12,17,094,47,138,38,213,44*47
2017-11-16 15:56:34 1510865794.835628: $GPZDA,205633.00,16,11,2017,00,00*64
2017-11-16 15:56:34 1510865794.835775: $GPGGA,205633,3946.9585,N,08404.9843,W,2,11,0.80,307.35,M,-33.324,M,,*77
2017-11-16 15:56:34 1510865794.835834: $GPRMC,205633,A,3946.9585,N,08404.9843,W,0.0000,0.000,161117,,*38
2017-11-16 15:56:34 1510865794.835890: $GPGSA,A,3,11,10,14,31,18,25,21,24,32,12,138,,1.6,0.8,1.3*0A
2017-11-16 15:56:35 1510865795.366222: $GPZDA,205634.00,16,11,2017,00,00*63
2017-11-16 15:56:35 1510865795.366399: $GPGGA,205634,3946.9585,N,08404.9843,W,2,11,0.80,307.35,M,-33.324,M,,*70
2017-11-16 15:56:35 1510865795.366461: $GPRMC,205634,A,3946.9585,N,08404.9843,W,0.0000,0.000,161117,,*3F
2017-11-16 15:56:35 1510865795.366517: $GPGSA,A,3,11,10,14,31,18,25,21,24,32,12,138,,1.6,0.8,1.3*0A
2017-11-16 15:56:36 1510865796.383455: $GPZDA,205635.00,16,11,2017,00,00*62
2017-11-16 15:56:36 1510865796.383564: $GPGGA,205635,3946.9585,N,08404.9843,W,2,11,0.80,307.35,M,-33.324,M,,*71
2017-11-16 15:56:36 1510865796.383595: $GPRMC,205635,A,3946.9585,N,08404.9843,W,0.0000,0.000,161117,,*3E
2017-11-16 15:56:36 1510865796.383623: $GPGSA,A,3,11,10,14,31,18,25,21,24,32,12,138,,1.6,0.8,1.3*0A
2017-11-16 15:56:38 1510865798.061012: $GPGSV,3,1,12,11,05,319,34,10,81,009,50,14,39,265,45,31,11,205,31*7D
2017-11-16 15:56:38 1510865798.061265: $GPGSV,3,2,12,18,59,117,49,25,13,132,34,21,15,177,33,24,34,049,51*78
2017-11-16 15:56:38 1510865798.061373: $GPGSV,3,3,12,08,01,282,20,32,55,283,47,12,17,094,47,138,38,213,45*49
2017-11-16 15:56:38 1510865798.173907: $GPZDA,205636.00,16,11,2017,00,00*61
2017-11-16 15:56:38 1510865798.174091: $GPGGA,205636,3946.9585,N,08404.9843,W,2,12,0.80,307.35,M,-33.324,M,,*71
2017-11-16 15:56:38 1510865798.174131: $GPRMC,205636,A,3946.9585,N,08404.9843,W,0.0000,0.000,161117,,*3D
2017-11-16 15:56:38 1510865798.174189: $GPGSA,A,3,11,10,14,31,18,25,21,24,8,32,12,138,1.6,0.8,1.3*32
2017-11-16 15:56:38 1510865798.796061: $GPZDA,205637.00,16,11,2017,00,00*60
2017-11-16 15:56:38 1510865798.796185: $GPGGA,205637,3946.9585,N,08404.9843,W,2,12,0.80,307.35,M,-33.324,M,,*70
2017-11-16 15:56:38 1510865798.796216: $GPRMC,205637,A,3946.9585,N,08404.9843,W,0.0000,0.000,161117,,*3C
2017-11-16 15:56:38 1510865798.796245: $GPGSA,A,3,11,10,14,31,18,25,21,24,8,32,12,138,1.6,0.8,1.3*32
2017-11-16 15:56:38 1510865798.796272: $GPGBS,205637,2.12,M,3.10,M,7.47,M*3C
2017-11-16 15:56:39 1510865799.381962: $GPZDA,205638.00,16,11,2017,00,00*6F
2017-11-16 15:56:39 1510865799.382074: $GPGGA,205638,3946.9585,N,08404.9843,W,2,12,0.80,307.35,M,-33.324,M,,*7F
2017-11-16 15:56:39 1510865799.382104: $GPRMC,205638,A,3946.9585,N,08404.9843,W,0.0000,0.000,161117,,*33
2017-11-16 15:56:39 1510865799.382132: $GPGSA,A,3,11,10,14,31,18,25,21,24,8,32,12,138,1.6,0.8,1.3*32
2017-11-16 15:56:39 1510865799.382177: $GPGBS,205638,2.12,M,3.10,M,7.47,M*33
2017-11-16 15:56:40 1510865800.708389: $GPGSV,3,1,11,11,05,319,40,10,81,012,50,14,40,267,45,31,12,205,31*78
2017-11-16 15:56:40 1510865800.708580: $GPGSV,3,2,11,18,59,117,49,25,13,132,34,21,15,177,31,24,33,049,51*7E
2017-11-16 15:56:40 1510865800.708644: $GPGSV,3,3,11,32,56,283,47,12,18,094,47,138,38,213,44*74
2017-11-16 15:56:40 1510865800.821761: $GPZDA,205639.00,16,11,2017,00,00*6E
2017-11-16 15:56:40 1510865800.821923: $GPGGA,205639,3946.9585,N,08404.9843,W,2,11,0.80,307.35,M,-33.324,M,,*7D
2017-11-16 15:56:40 1510865800.821982: $GPRMC,205639,A,3946.9585,N,08404.9843,W,0.0000,0.000,161117,,*32
2017-11-16 15:56:40 1510865800.822037: $GPGSA,A,3,11,10,14,31,18,25,21,24,32,12,138,,1.6,0.8,1.3*0A
2017-11-16 15:56:41 1510865801.447795: $GPZDA,205640.00,16,11,2017,00,00*60
2017-11-16 15:56:41 1510865801.447968: $GPGGA,205640,3946.9585,N,08404.9843,W,2,11,0.80,307.35,M,-33.324,M,,*73
2017-11-16 15:56:41 1510865801.448042: $GPRMC,205640,A,3946.9585,N,08404.9843,W,0.0000,0.000,161117,,*3C
2017-11-16 15:56:41 1510865801.448100: $GPGSA,A,3,11,10,14,31,18,25,21,24,32,12,138,,1.6,0.8,1.3*0A
2017-11-16 15:56:42 1510865802.369206: $GPZDA,205641.00,16,11,2017,00,00*61
2017-11-16 15:56:42 1510865802.369390: $GPGGA,205641,3946.9585,N,08404.9843,W,2,11,0.80,307.35,M,-33.324,M,,*72
2017-11-16 15:56:42 1510865802.369471: $GPRMC,205641,A,3946.9585,N,08404.9843,W,0.0000,0.000,161117,,*3D
2017-11-16 15:56:42 1510865802.369529: $GPGSA,A,3,11,10,14,31,18,25,21,24,32,12,138,,1.6,0.8,1.3*0A
2017-11-16 15:56:43 1510865803.718847: $GPGSV,3,1,11,11,05,319,40,10,81,012,50,14,40,267,45,31,12,205,31*78
2017-11-16 15:56:43 1510865803.719014: $GPGSV,3,2,11,18,59,117,49,25,13,132,34,21,15,177,29,24,33,049,51*77
2017-11-16 15:56:43 1510865803.719075: $GPGSV,3,3,11,32,56,283,47,12,18,094,47,138,38,213,45*75
2017-11-16 15:56:43 1510865803.832527: $GPZDA,205642.00,16,11,2017,00,00*62
2017-11-16 15:56:43 1510865803.832688: $GPGGA,205642,3946.9585,N,08404.9843,W,2,11,0.80,307.35,M,-33.324,M,,*71
2017-11-16 15:56:43 1510865803.832748: $GPRMC,205642,A,3946.9585,N,08404.9843,W,0.0000,0.000,161117,,*3E
2017-11-16 15:56:43 1510865803.832804: $GPGSA,A,3,11,10,14,31,18,25,21,24,32,12,138,,1.6,0.8,1.3*0A
2017-11-16 15:56:44 1510865804.360547: $GPZDA,205643.00,16,11,2017,00,00*63
2017-11-16 15:56:44 1510865804.360717: $GPGGA,205643,3946.9585,N,08404.9843,W,2,11,0.80,307.35,M,-33.324,M,,*70
2017-11-16 15:56:44 1510865804.360778: $GPRMC,205643,A,3946.9585,N,08404.9843,W,0.0000,0.000,161117,,*3F
2017-11-16 15:56:44 1510865804.360834: $GPGSA,A,3,11,10,14,31,18,25,21,24,32,12,138,,1.6,0.8,1.3*0A
