2017-11-16 15:51:22 1510865482.495781: {"class":"VERSION","release":"3.17","rev":"3.17","proto_major":3,"proto_minor":12}
2017-11-16 15:51:22 1510865482.496288: {"class":"DEVICES","devices":[{"class":"DEVICE","path":"/dev/ttyUSB0","driver":"SiRF","subtype":"9\u0006GSD4e_4.1.2-P1_RPATCH.05-F-GPS-4R-1510281 11/03/2015 307","activated":"2017-11-16T20:51:22.271Z","flags":1,"native":1,"bps":4800,"parity":"N","stopbits":1,"cycle":1.00}]}
2017-11-16 15:51:22 1510865482.496405: {"class":"WATCH","enable":true,"json":false,"nmea":true,"raw":0,"scaled":false,"timing":false,"split24":false,"pps":false}
2017-11-16 15:51:22 1510865482.719689: $GPGSV,3,1,12,11,03,322,26,10,79,355,50,14,37,264,45,08,02,283,32*77
2017-11-16 15:51:22 1510865482.719862: $GPGSV,3,2,12,18,62,112,48,25,11,135,24,21,18,177,40,24,36,051,50*73
2017-11-16 15:51:22 1510865482.719923: $GPGSV,3,3,12,31,09,204,30,32,54,279,46,12,16,097,43,138,38,213,44*46
2017-11-16 15:51:22 1510865482.832954: $GPZDA,205121.00,16,11,2017,00,00*60
2017-11-16 15:51:22 1510865482.833113: $GPGGA,205121,3946.9579,N,08404.9851,W,2,12,1.20,308.80,M,-33.324,M,,*7A
2017-11-16 15:51:22 1510865482.833174: $GPRMC,205121,A,3946.9579,N,08404.9851,W,0.0000,0.000,161117,,*3C
2017-11-16 15:51:22 1510865482.833235: $GPGSA,A,3,11,10,14,8,18,25,21,24,31,32,12,138,1.6,1.2,1.3*39
2017-11-16 15:51:23 1510865483.366363: $GPZDA,205122.00,16,11,2017,00,00*63
2017-11-16 15:51:23 1510865483.366530: $GPGGA,205122,3946.9579,N,08404.9851,W,2,12,1.20,308.80,M,-33.324,M,,*79
2017-11-16 15:51:23 1510865483.366592: $GPRMC,205122,A,3946.9579,N,08404.9851,W,0.0000,0.000,161117,,*3F
2017-11-16 15:51:23 1510865483.366649: $GPGSA,A,3,11,10,14,8,18,25,21,24,31,32,12,138,1.6,1.2,1.3*39
2017-11-16 15:51:24 1510865484.369997: $GPZDA,205123.00,16,11,2017,00,00*62
2017-11-16 15:51:24 1510865484.370175: $GPGGA,205123,3946.9579,N,08404.9851,W,2,12,1.20,308.80,M,-33.324,M,,*78
2017-11-16 15:51:24 1510865484.370240: $GPRMC,205123,A,3946.9579,N,08404.9851,W,0.0000,0.000,161117,,*3E
2017-11-16 15:51:24 1510865484.370353: $GPGSA,A,3,11,10,14,8,18,25,21,24,31,32,12,138,1.6,1.2,1.3*39
2017-11-16 15:51:25 1510865485.706796: $GPGSV,3,1,12,11,03,322,30,10,79,355,50,14,37,264,45,08,02,283,32*70
2017-11-16 15:51:25 1510865485.706967: $GPGSV,3,2,12,18,62,112,48,25,11,135,24,21,18,177,40,24,36,051,50*73
2017-11-16 15:51:25 1510865485.707027: $GPGSV,3,3,12,31,09,204,29,32,54,279,46,12,16,097,43,138,38,213,44*4E
2017-11-16 15:51:25 1510865485.820124: $GPZDA,205124.00,16,11,2017,00,00*65
2017-11-16 15:51:25 1510865485.820340: $GPGGA,205124,3946.9579,N,08404.9851,W,2,12,1.20,308.80,M,-33.324,M,,*7F
2017-11-16 15:51:25 1510865485.820413: $GPRMC,205124,A,3946.9579,N,08404.9851,W,0.0000,0.000,161117,,*39
2017-11-16 15:51:25 1510865485.820471: $GPGSA,A,3,11,10,14,8,18,25,21,24,31,32,12,138,1.6,1.2,1.3*39
2017-11-16 15:51:26 1510865486.446018: $GPZDA,205125.00,16,11,2017,00,00*64
2017-11-16 15:51:26 1510865486.446216: $GPGGA,205125,3946.9579,N,08404.9851,W,2,12,1.20,308.80,M,-33.324,M,,*7E
2017-11-16 15:51:26 1510865486.446279: $GPRMC,205125,A,3946.9579,N,08404.9851,W,0.0000,0.000,161117,,*38
2017-11-16 15:51:26 1510865486.446337: $GPGSA,A,3,11,10,14,8,18,25,21,24,31,32,12,138,1.6,1.2,1.3*39
2017-11-16 15:51:27 1510865487.359225: $GPZDA,205126.00,16,11,2017,00,00*67
2017-11-16 15:51:27 1510865487.359389: $GPGGA,205126,3946.9579,N,08404.9851,W,2,12,1.20,308.80,M,-33.324,M,,*7D
2017-11-16 15:51:27 1510865487.359451: $GPRMC,205126,A,3946.9579,N,08404.9851,W,0.0000,0.000,161117,,*3B
2017-11-16 15:51:27 1510865487.359507: $GPGSA,A,3,11,10,14,8,18,25,21,24,31,32,12,138,1.6,1.2,1.3*39
2017-11-16 15:51:28 1510865488.707189: $GPGSV,3,1,12,11,03,322,32,10,79,355,50,14,37,264,44,08,02,283,32*73
2017-11-16 15:51:28 1510865488.707364: $GPGSV,3,2,12,18,62,112,48,25,11,135,25,21,18,177,40,24,36,051,50*72
2017-11-16 15:51:28 1510865488.707425: $GPGSV,3,3,12,31,09,204,13,32,54,279,46,12,16,097,43,138,38,213,44*47
2017-11-16 15:51:28 1510865488.820608: $GPZDA,205127.00,16,11,2017,00,00*66
2017-11-16 15:51:28 1510865488.820777: $GPGGA,205127,3946.9579,N,08404.9851,W,2,11,1.20,308.80,M,-33.324,M,,*7F
2017-11-16 15:51:28 1510865488.820896: $GPRMC,205127,A,3946.9579,N,08404.9851,W,0.0000,0.000,161117,,*3A
2017-11-16 15:51:28 1510865488.820958: $GPGSA,A,3,11,10,14,8,18,25,21,24,32,12,138,,1.6,1.2,1.3*3B
2017-11-16 15:51:29 1510865489.385460: $GPZDA,205128.00,16,11,2017,00,00*69
2017-11-16 15:51:29 1510865489.385615: $GPGGA,205128,3946.9579,N,08404.9851,W,2,11,1.20,308.80,M,-33.324,M,,*70
2017-11-16 15:51:29 1510865489.385677: $GPRMC,205128,A,3946.9579,N,08404.9851,W,0.0000,0.000,161117,,*35
2017-11-16 15:51:29 1510865489.385733: $GPGSA,A,3,11,10,14,8,18,25,21,24,32,12,138,,1.6,1.2,1.3*3B
2017-11-16 15:51:30 1510865490.370062: $GPZDA,205129.00,16,11,2017,00,00*68
2017-11-16 15:51:30 1510865490.370228: $GPGGA,205129,3946.9579,N,08404.9851,W,2,11,1.20,308.80,M,-33.324,M,,*71
2017-11-16 15:51:30 1510865490.370337: $GPRMC,205129,A,3946.9579,N,08404.9851,W,0.0000,0.000,161117,,*34
2017-11-16 15:51:30 1510865490.370401: $GPGSA,A,3,11,10,14,8,18,25,21,24,32,12,138,,1.6,1.2,1.3*3B
2017-11-16 15:51:31 1510865491.703846: $GPGSV,3,1,12,11,03,322,32,10,79,355,50,14,37,264,45,08,02,283,32*72
2017-11-16 15:51:31 1510865491.704011: $GPGSV,3,2,12,18,62,112,48,25,11,135,25,21,18,177,40,24,36,051,50*72
2017-11-16 15:51:31 1510865491.704075: $GPGSV,3,3,12,31,09,204,23,32,54,279,46,12,16,097,42,138,38,213,44*45
2017-11-16 15:51:31 1510865491.817455: $GPZDA,205130.00,16,11,2017,00,00*60
2017-11-16 15:51:31 1510865491.817614: $GPGGA,205130,3946.9579,N,08404.9851,W,2,12,1.20,308.80,M,-33.324,M,,*7A
2017-11-16 15:51:31 1510865491.817676: $GPRMC,205130,A,3946.9579,N,08404.9851,W,0.0000,0.000,161117,,*3C
2017-11-16 15:51:31 1510865491.817732: $GPGSA,A,3,11,10,14,8,18,25,21,24,31,32,12,138,1.6,1.2,1.3*39
2017-11-16 15:51:32 1510865492.378326: $GPZDA,205131.00,16,11,2017,00,00*61
2017-11-16 15:51:32 1510865492.378468: $GPGGA,205131,3946.9579,N,08404.9851,W,2,12,1.20,308.80,M,-33.324,M,,*7B
2017-11-16 15:51:32 1510865492.378528: $GPRMC,205131,A,3946.9579,N,08404.9851,W,0.0000,0.000,161117,,*3D
2017-11-16 15:51:32 1510865492.378585: $GPGSA,A,3,11,10,14,8,18,25,21,24,31,32,12,138,1.6,1.2,1.3*39
