2017-11-16 17:19:23 1510870763.364039: {"class":"VERSION","release":"3.17","rev":"3.17","proto_major":3,"proto_minor":12}
2017-11-16 17:19:23 1510870763.364638: {"class":"DEVICES","devices":[{"class":"DEVICE","path":"/dev/ttyUSB0","driver":"SiRF","subtype":"9\u0006GSD4e_4.1.2-P1_RPATCH.05-F-GPS-4R-1510281 11/03/2015 307","activated":"2017-11-16T22:19:23.307Z","flags":1,"native":1,"bps":4800,"parity":"N","stopbits":1,"cycle":1.00}]}
2017-11-16 17:19:23 1510870763.364762: {"class":"WATCH","enable":true,"json":false,"nmea":true,"raw":0,"scaled":false,"timing":false,"split24":false,"pps":false}
2017-11-16 17:19:23 1510870763.420179: $GPZDA,221922.00,16,11,2017,00,00*6D
2017-11-16 17:19:23 1510870763.420334: $GPGGA,221922,3946.9571,N,08404.9832,W,2,12,0.80,310.56,M,-33.324,M,,*73
2017-11-16 17:19:23 1510870763.420394: $GPRMC,221922,A,3946.9571,N,08404.9832,W,0.0000,0.000,161117,,*3C
2017-11-16 17:19:23 1510870763.420450: $GPGSA,A,3,1,10,22,12,14,18,24,11,25,31,32,138,1.6,0.8,1.3*38
2017-11-16 17:19:24 1510870764.757249: $GPGSV,3,1,12,01,20,306,38,10,54,145,50,22,14,312,36,12,24,055,49*78
2017-11-16 17:19:24 1510870764.757421: $GPGSV,3,2,12,14,63,316,47,18,24,142,42,24,02,048,16,11,10,288,38*75
2017-11-16 17:19:24 1510870764.757481: $GPGSV,3,3,12,25,38,097,48,31,49,220,49,32,70,010,49,138,38,213,45*4C
2017-11-16 17:19:24 1510870764.872163: $GPZDA,221923.00,16,11,2017,00,00*6C
2017-11-16 17:19:24 1510870764.872343: $GPGGA,221923,3946.9571,N,08404.9832,W,2,12,0.80,310.56,M,-33.324,M,,*72
2017-11-16 17:19:24 1510870764.872406: $GPRMC,221923,A,3946.9571,N,08404.9832,W,0.0000,0.000,161117,,*3D
2017-11-16 17:19:24 1510870764.872465: $GPGSA,A,3,1,10,22,12,14,18,24,11,25,31,32,138,1.6,0.8,1.3*38
2017-11-16 17:19:25 1510870765.401744: $GPZDA,221924.00,16,11,2017,00,00*6B
2017-11-16 17:19:25 1510870765.401903: $GPGGA,221924,3946.9571,N,08404.9832,W,2,12,0.80,310.56,M,-33.324,M,,*75
2017-11-16 17:19:25 1510870765.401966: $GPRMC,221924,A,3946.9571,N,08404.9832,W,0.0000,0.000,161117,,*3A
2017-11-16 17:19:25 1510870765.402024: $GPGSA,A,3,1,10,22,12,14,18,24,11,25,31,32,138,1.6,0.8,1.3*38
2017-11-16 17:19:26 1510870766.414626: $GPZDA,221925.00,16,11,2017,00,00*6A
2017-11-16 17:19:26 1510870766.414784: $GPGGA,221925,3946.9571,N,08404.9832,W,2,12,0.80,310.56,M,-33.324,M,,*74
2017-11-16 17:19:26 1510870766.414847: $GPRMC,221925,A,3946.9571,N,08404.9832,W,0.0000,0.000,161117,,*3B
2017-11-16 17:19:26 1510870766.414905: $GPGSA,A,3,1,10,22,12,14,18,24,11,25,31,32,138,1.6,0.8,1.3*38
2017-11-16 17:19:27 1510870767.756437: $GPGSV,3,1,12,01,20,306,38,10,54,145,50,22,14,312,36,12,24,055,49*78
2017-11-16 17:19:27 1510870767.756624: $GPGSV,3,2,12,14,63,316,47,18,24,142,42,24,02,048,15,11,10,288,39*77
2017-11-16 17:19:27 1510870767.756689: $GPGSV,3,3,12,25,38,097,48,31,49,220,49,32,70,010,49,138,38,213,44*4D
2017-11-16 17:19:27 1510870767.869856: $GPZDA,221926.00,16,11,2017,00,00*69
2017-11-16 17:19:27 1510870767.870039: $GPGGA,221926,3946.9571,N,08404.9832,W,2,12,0.80,310.56,M,-33.324,M,,*77
2017-11-16 17:19:27 1510870767.870104: $GPRMC,221926,A,3946.9571,N,08404.9832,W,0.0000,0.000,161117,,*38
2017-11-16 17:19:27 1510870767.870164: $GPGSA,A,3,1,10,22,12,14,18,24,11,25,31,32,138,1.6,0.8,1.3*38
2017-11-16 17:19:28 1510870768.421789: $GPZDA,221927.00,16,11,2017,00,00*68
2017-11-16 17:19:28 1510870768.421958: $GPGGA,221927,3946.9571,N,08404.9832,W,2,12,0.80,310.56,M,-33.324,M,,*76
2017-11-16 17:19:28 1510870768.422022: $GPRMC,221927,A,3946.9571,N,08404.9832,W,0.0000,0.000,161117,,*39
2017-11-16 17:19:28 1510870768.422082: $GPGSA,A,3,1,10,22,12,14,18,24,11,25,31,32,138,1.6,0.8,1.3*38
2017-11-16 17:19:29 1510870769.421695: $GPZDA,221928.00,16,11,2017,00,00*67
2017-11-16 17:19:29 1510870769.421857: $GPGGA,221928,3946.9571,N,08404.9832,W,2,12,0.80,310.56,M,-33.324,M,,*79
2017-11-16 17:19:29 1510870769.421920: $GPRMC,221928,A,3946.9571,N,08404.9832,W,0.0000,0.000,161117,,*36
2017-11-16 17:19:29 1510870769.421979: $GPGSA,A,3,1,10,22,12,14,18,24,11,25,31,32,138,1.6,0.8,1.3*38
2017-11-16 17:19:30 1510870770.757247: $GPGSV,3,1,12,01,20,306,38,10,54,145,50,22,14,312,35,12,24,055,49*7B
2017-11-16 17:19:30 1510870770.757464: $GPGSV,3,2,12,14,63,316,47,18,24,142,42,24,02,048,06,11,10,288,40*7B
2017-11-16 17:19:30 1510870770.757527: $GPGSV,3,3,12,25,38,097,47,31,49,220,49,32,70,010,49,138,38,213,44*42
2017-11-16 17:19:30 1510870770.870798: $GPZDA,221929.00,16,11,2017,00,00*66
2017-11-16 17:19:30 1510870770.870955: $GPGGA,221929,3946.9571,N,08404.9832,W,2,12,0.80,310.56,M,-33.324,M,,*78
2017-11-16 17:19:30 1510870770.871016: $GPRMC,221929,A,3946.9571,N,08404.9832,W,0.0000,0.000,161117,,*37
2017-11-16 17:19:30 1510870770.871072: $GPGSA,A,3,1,10,22,12,14,18,24,11,25,31,32,138,1.6,0.8,1.3*38
2017-11-16 17:19:31 1510870771.495946: $GPZDA,221930.00,16,11,2017,00,00*6E
2017-11-16 17:19:31 1510870771.496119: $GPGGA,221930,3946.9571,N,08404.9832,W,2,12,0.80,310.56,M,-33.324,M,,*70
2017-11-16 17:19:31 1510870771.496181: $GPRMC,221930,A,3946.9571,N,08404.9832,W,0.0000,0.000,161117,,*3F
2017-11-16 17:19:31 1510870771.496238: $GPGSA,A,3,1,10,22,12,14,18,24,11,25,31,32,138,1.6,0.8,1.3*38
2017-11-16 17:19:32 1510870772.415558: $GPZDA,221931.00,16,11,2017,00,00*6F
2017-11-16 17:19:32 1510870772.415719: $GPGGA,221931,3946.9571,N,08404.9832,W,2,12,0.80,310.56,M,-33.324,M,,*71
2017-11-16 17:19:32 1510870772.415781: $GPRMC,221931,A,3946.9571,N,08404.9832,W,0.0000,0.000,161117,,*3E
2017-11-16 17:19:32 1510870772.415838: $GPGSA,A,3,1,10,22,12,14,18,24,11,25,31,32,138,1.6,0.8,1.3*38
