2017-11-15 19:50:00 1510793400.973961: {"class":"VERSION","release":"3.17","rev":"3.17","proto_major":3,"proto_minor":12}
2017-11-15 19:50:00 1510793400.974371: {"class":"DEVICES","devices":[{"class":"DEVICE","path":"/dev/ttyUSB0","driver":"SiRF","subtype":"9\u0006GSD4e_4.1.2-P1_RPATCH.05-F-GPS-4R-1510281 11/03/2015 307","activated":"2017-11-16T00:50:00.959Z","flags":1,"native":1,"bps":4800,"parity":"N","stopbits":1,"cycle":1.00}]}
2017-11-15 19:50:00 1510793400.974500: {"class":"WATCH","enable":true,"json":false,"nmea":true,"raw":0,"scaled":false,"timing":false,"split24":false,"pps":false}
2017-11-15 19:50:01 1510793401.421456: $GPZDA,005000.00,16,11,2017,00,00*60
2017-11-15 19:50:01 1510793401.421647: $GPGGA,005000,3946.9495,N,08404.9438,W,1,08,1.00,311.74,M,-33.324,M,,*73
2017-11-15 19:50:01 1510793401.421729: $GPRMC,005000,A,3946.9495,N,08404.9438,W,0.3423,4.197,161117,,*31
2017-11-15 19:50:01 1510793401.421788: $GPGSA,A,3,32,16,31,26,14,22,23,3,,,,,3.4,1.0,2.9*08
2017-11-15 19:50:02 1510793402.329807: $GPZDA,005001.00,16,11,2017,00,00*61
2017-11-15 19:50:02 1510793402.329973: $GPGGA,005001,3946.9495,N,08404.9438,W,1,08,1.00,311.74,M,-33.324,M,,*72
2017-11-15 19:50:02 1510793402.330034: $GPRMC,005001,A,3946.9495,N,08404.9438,W,0.7278,23.636,161117,,*05
2017-11-15 19:50:02 1510793402.330089: $GPGSA,A,3,32,16,31,26,14,22,23,3,,,,,3.4,1.0,2.9*08
2017-11-15 19:50:03 1510793403.681902: $GPGSV,3,1,12,32,29,114,22,16,31,190,22,31,61,037,19,26,62,168,22*7D
2017-11-15 19:50:03 1510793403.682040: $GPGSV,3,2,12,14,48,103,20,22,49,256,25,29,13,063,00,23,18,304,18*73
2017-11-15 19:50:03 1510793403.682100: $GPGSV,3,3,12,03,43,289,16,25,10,037,00,01,01,246,00,120,07,103,00*4E
2017-11-15 19:50:03 1510793403.795195: $GPZDA,005002.00,16,11,2017,00,00*62
2017-11-15 19:50:03 1510793403.795365: $GPGGA,005002,3946.9503,N,08404.9437,W,1,08,1.00,311.61,M,-33.324,M,,*74
2017-11-15 19:50:03 1510793403.795426: $GPRMC,005002,A,3946.9503,N,08404.9437,W,1.1385,29.379,161117,,*07
2017-11-15 19:50:03 1510793403.795481: $GPGSA,A,3,32,16,31,26,14,22,23,3,,,,,3.4,1.0,2.9*08
2017-11-15 19:50:04 1510793404.346210: $GPZDA,005003.00,16,11,2017,00,00*63
2017-11-15 19:50:04 1510793404.346392: $GPGGA,005003,3946.9506,N,08404.9436,W,1,08,1.00,310.85,M,-33.324,M,,*7A
2017-11-15 19:50:04 1510793404.346455: $GPRMC,005003,A,3946.9506,N,08404.9436,W,1.0567,17.448,161117,,*01
2017-11-15 19:50:04 1510793404.346510: $GPGSA,A,3,32,16,31,26,14,22,23,3,,,,,3.4,1.0,2.9*08
2017-11-15 19:50:05 1510793405.329696: $GPZDA,005004.00,16,11,2017,00,00*64
2017-11-15 19:50:05 1510793405.329855: $GPGGA,005004,3946.9511,N,08404.9436,W,1,08,1.00,311.49,M,-33.324,M,,*7A
2017-11-15 19:50:05 1510793405.329916: $GPRMC,005004,A,3946.9511,N,08404.9436,W,0.9019,18.875,161117,,*09
2017-11-15 19:50:05 1510793405.329971: $GPGSA,A,3,32,16,31,26,14,22,23,3,,,,,3.4,1.0,2.9*08
2017-11-15 19:50:06 1510793406.682326: $GPGSV,3,1,12,32,29,114,21,16,31,190,21,31,61,037,20,26,62,168,22*77
2017-11-15 19:50:06 1510793406.682509: $GPGSV,3,2,12,14,48,103,21,22,49,256,25,29,13,063,00,23,18,304,18*72
2017-11-15 19:50:06 1510793406.685065: $GPGSV,3,3,12,03,43,289,16,25,10,037,00,01,01,246,00,120,07,103,00*4E
2017-11-15 19:50:06 1510793406.795815: $GPZDA,005005.00,16,11,2017,00,00*65
2017-11-15 19:50:06 1510793406.795951: $GPGGA,005005,3946.9514,N,08404.9435,W,1,08,1.00,310.72,M,-33.324,M,,*74
2017-11-15 19:50:06 1510793406.796012: $GPRMC,005005,A,3946.9514,N,08404.9435,W,1.3044,25.352,161117,,*0D
2017-11-15 19:50:06 1510793406.796067: $GPGSA,A,3,32,16,31,26,14,22,23,3,,,,,3.4,1.0,2.9*08
2017-11-15 19:50:07 1510793407.346762: $GPZDA,005006.00,16,11,2017,00,00*66
2017-11-15 19:50:07 1510793407.346914: $GPGGA,005006,3946.9518,N,08404.9435,W,1,08,1.00,311.36,M,-33.324,M,,*7A
2017-11-15 19:50:07 1510793407.346975: $GPRMC,005006,A,3946.9518,N,08404.9435,W,0.7103,45.706,161117,,*06
2017-11-15 19:50:07 1510793407.347030: $GPGSA,A,3,32,16,31,26,14,22,23,3,,,,,3.4,1.0,2.9*08
2017-11-15 19:50:08 1510793408.330166: $GPZDA,005007.00,16,11,2017,00,00*67
2017-11-15 19:50:08 1510793408.330325: $GPGGA,005007,3946.9522,N,08404.9435,W,1,08,1.00,310.60,M,-33.324,M,,*70
2017-11-15 19:50:08 1510793408.330456: $GPRMC,005007,A,3946.9522,N,08404.9435,W,0.4844,93.794,161117,,*07
2017-11-15 19:50:08 1510793408.330514: $GPGSA,A,3,32,16,31,26,14,22,23,3,,,,,3.4,1.0,2.9*08
2017-11-15 19:50:09 1510793409.665630: $GPGSV,3,1,11,32,29,114,21,16,31,190,20,31,61,037,20,26,62,168,22*75
2017-11-15 19:50:09 1510793409.665803: $GPGSV,3,2,11,14,48,103,21,22,49,256,25,29,13,063,00,23,18,304,18*71
2017-11-15 19:50:09 1510793409.665863: $GPGSV,3,3,11,03,43,289,16,25,10,037,00,01,01,246,00*4B
2017-11-15 19:50:09 1510793409.779272: $GPZDA,005008.00,16,11,2017,00,00*68
2017-11-15 19:50:09 1510793409.779433: $GPGGA,005008,3946.9522,N,08404.9435,W,1,08,1.00,310.60,M,-33.324,M,,*7F
2017-11-15 19:50:09 1510793409.779494: $GPRMC,005008,A,3946.9522,N,08404.9435,W,0.4844,93.794,161117,,*08
2017-11-15 19:50:09 1510793409.779549: $GPGSA,A,3,32,16,31,26,14,22,23,3,,,,,3.4,1.0,2.9*08
2017-11-15 19:50:10 1510793410.330151: $GPZDA,005009.00,16,11,2017,00,00*69
2017-11-15 19:50:10 1510793410.330310: $GPGGA,005009,3946.9522,N,08404.9435,W,1,08,1.00,310.60,M,-33.324,M,,*7E
2017-11-15 19:50:10 1510793410.330371: $GPRMC,005009,A,3946.9522,N,08404.9435,W,0.4844,93.794,161117,,*09
2017-11-15 19:50:10 1510793410.330427: $GPGSA,A,3,32,16,31,26,14,22,23,3,,,,,3.4,1.0,2.9*08
