2017-11-16 14:59:16 1510862356.135596: {"class":"VERSION","release":"3.17","rev":"3.17","proto_major":3,"proto_minor":12}
2017-11-16 14:59:16 1510862356.136065: {"class":"DEVICES","devices":[{"class":"DEVICE","path":"/dev/ttyUSB0","driver":"SiRF","subtype":"9\u0006GSD4e_4.1.2-P1_RPATCH.05-F-GPS-4R-1510281 11/03/2015 307","activated":"2017-11-16T19:59:16.084Z","flags":1,"native":1,"bps":4800,"parity":"N","stopbits":1,"cycle":1.00}]}
2017-11-16 14:59:16 1510862356.136185: {"class":"WATCH","enable":true,"json":false,"nmea":true,"raw":0,"scaled":false,"timing":false,"split24":false,"pps":false}
2017-11-16 14:59:16 1510862356.495018: $GPZDA,195915.00,16,11,2017,00,00*65
2017-11-16 14:59:16 1510862356.495181: $GPGGA,195915,3946.9575,N,08404.9848,W,2,12,0.80,301.77,M,-33.324,M,,*71
2017-11-16 14:59:16 1510862356.495244: $GPRMC,195915,A,3946.9575,N,08404.9848,W,0.0000,0.000,161117,,*3D
2017-11-16 14:59:16 1510862356.495300: $GPGSA,A,3,8,10,12,15,18,21,20,24,27,32,14,138,1.6,0.8,1.3*34
2017-11-16 14:59:17 1510862357.533485: $GPZDA,195916.00,16,11,2017,00,00*66
2017-11-16 14:59:17 1510862357.533659: $GPGGA,195916,3946.9575,N,08404.9848,W,2,12,0.80,301.77,M,-33.324,M,,*72
2017-11-16 14:59:17 1510862357.533726: $GPRMC,195916,A,3946.9575,N,08404.9848,W,0.0000,0.000,161117,,*3E
2017-11-16 14:59:17 1510862357.533786: $GPGSA,A,3,8,10,12,15,18,21,20,24,27,32,14,138,1.6,0.8,1.3*34
2017-11-16 14:59:18 1510862358.831730: $GPGSV,3,1,12,08,08,304,30,10,58,318,51,12,02,115,19,15,20,060,47*71
2017-11-16 14:59:18 1510862358.831897: $GPGSV,3,2,12,18,77,054,46,21,42,181,46,20,17,111,43,24,51,075,48*70
2017-11-16 14:59:18 1510862358.831961: $GPGSV,3,3,12,27,12,270,43,32,37,253,46,14,20,244,43,138,38,213,45*4F
2017-11-16 14:59:18 1510862358.944988: $GPZDA,195917.00,16,11,2017,00,00*67
2017-11-16 14:59:18 1510862358.945145: $GPGGA,195917,3946.9575,N,08404.9848,W,2,12,0.80,301.77,M,-33.324,M,,*73
2017-11-16 14:59:18 1510862358.945207: $GPRMC,195917,A,3946.9575,N,08404.9848,W,0.0000,0.000,161117,,*3F
2017-11-16 14:59:18 1510862358.945265: $GPGSA,A,3,8,10,12,15,18,21,20,24,27,32,14,138,1.6,0.8,1.3*34
2017-11-16 14:59:19 1510862359.571711: $GPZDA,195918.00,16,11,2017,00,00*68
2017-11-16 14:59:19 1510862359.571879: $GPGGA,195918,3946.9575,N,08404.9848,W,2,12,0.80,301.77,M,-33.324,M,,*7C
2017-11-16 14:59:19 1510862359.571945: $GPRMC,195918,A,3946.9575,N,08404.9848,W,0.0000,0.000,161117,,*30
2017-11-16 14:59:19 1510862359.572004: $GPGSA,A,3,8,10,12,15,18,21,20,24,27,32,14,138,1.6,0.8,1.3*34
2017-11-16 14:59:20 1510862360.532603: $GPZDA,195919.00,16,11,2017,00,00*69
2017-11-16 14:59:20 1510862360.532791: $GPGGA,195919,3946.9575,N,08404.9848,W,2,12,0.80,301.77,M,-33.324,M,,*7D
2017-11-16 14:59:20 1510862360.532857: $GPRMC,195919,A,3946.9575,N,08404.9848,W,0.0000,0.000,161117,,*31
2017-11-16 14:59:20 1510862360.532917: $GPGSA,A,3,8,10,12,15,18,21,20,24,27,32,14,138,1.6,0.8,1.3*34
2017-11-16 14:59:21 1510862361.869607: $GPGSV,3,1,12,08,08,304,30,10,58,318,51,12,02,115,00,15,20,060,47*79
2017-11-16 14:59:21 1510862361.869752: $GPGSV,3,2,12,18,77,054,46,21,42,181,46,20,17,111,43,24,51,075,48*70
2017-11-16 14:59:21 1510862361.869816: $GPGSV,3,3,12,27,12,270,43,32,37,253,46,14,20,244,43,138,38,213,44*4E
2017-11-16 14:59:21 1510862361.982878: $GPZDA,195920.00,16,11,2017,00,00*63
2017-11-16 14:59:21 1510862361.983049: $GPGGA,195920,3946.9575,N,08404.9848,W,2,11,0.80,301.77,M,-33.324,M,,*74
2017-11-16 14:59:21 1510862361.983113: $GPRMC,195920,A,3946.9575,N,08404.9848,W,0.0000,0.000,161117,,*3B
2017-11-16 14:59:21 1510862361.983172: $GPGSA,A,3,8,10,15,18,21,20,24,27,32,14,138,,1.6,0.8,1.3*37
2017-11-16 14:59:22 1510862362.533864: $GPZDA,195921.00,16,11,2017,00,00*62
2017-11-16 14:59:22 1510862362.534030: $GPGGA,195921,3946.9575,N,08404.9848,W,2,11,0.80,301.77,M,-33.324,M,,*75
2017-11-16 14:59:22 1510862362.534094: $GPRMC,195921,A,3946.9575,N,08404.9848,W,0.0000,0.000,161117,,*3A
2017-11-16 14:59:22 1510862362.534153: $GPGSA,A,3,8,10,15,18,21,20,24,27,32,14,138,,1.6,0.8,1.3*37
2017-11-16 14:59:23 1510862363.494792: $GPZDA,195922.00,16,11,2017,00,00*61
2017-11-16 14:59:23 1510862363.495056: $GPGGA,195922,3946.9575,N,08404.9848,W,2,11,0.80,301.77,M,-33.324,M,,*76
2017-11-16 14:59:23 1510862363.495144: $GPRMC,195922,A,3946.9575,N,08404.9848,W,0.0000,0.000,161117,,*39
2017-11-16 14:59:23 1510862363.495230: $GPGSA,A,3,8,10,15,18,21,20,24,27,32,14,138,,1.6,0.8,1.3*37
2017-11-16 14:59:24 1510862364.832550: $GPGSV,3,1,12,08,08,304,30,10,58,318,51,12,02,115,00,15,20,060,46*78
2017-11-16 14:59:24 1510862364.832717: $GPGSV,3,2,12,18,77,054,46,21,42,181,45,20,17,111,43,24,51,075,47*7C
2017-11-16 14:59:24 1510862364.832776: $GPGSV,3,3,12,27,12,270,42,32,37,253,46,14,20,244,43,138,38,213,44*4F
2017-11-16 14:59:24 1510862364.945810: $GPZDA,195923.00,16,11,2017,00,00*60
2017-11-16 14:59:24 1510862364.945959: $GPGGA,195923,3946.9575,N,08404.9848,W,2,11,0.80,301.77,M,-33.324,M,,*77
2017-11-16 14:59:24 1510862364.946017: $GPRMC,195923,A,3946.9575,N,08404.9848,W,0.0000,0.000,161117,,*38
2017-11-16 14:59:24 1510862364.946073: $GPGSA,A,3,8,10,15,18,21,20,24,27,32,14,138,,1.6,0.8,1.3*37
2017-11-16 14:59:25 1510862365.495451: $GPZDA,195924.00,16,11,2017,00,00*67
2017-11-16 14:59:25 1510862365.495608: $GPGGA,195924,3946.9575,N,08404.9848,W,2,11,0.80,301.77,M,-33.324,M,,*70
2017-11-16 14:59:25 1510862365.495668: $GPRMC,195924,A,3946.9575,N,08404.9848,W,0.0000,0.000,161117,,*3F
2017-11-16 14:59:25 1510862365.495724: $GPGSA,A,3,8,10,15,18,21,20,24,27,32,14,138,,1.6,0.8,1.3*37
