2017-11-15 19:53:04 1510793584.303444: {"class":"VERSION","release":"3.17","rev":"3.17","proto_major":3,"proto_minor":12}
2017-11-15 19:53:04 1510793584.303964: {"class":"DEVICES","devices":[{"class":"DEVICE","path":"/dev/ttyUSB0","driver":"SiRF","subtype":"9\u0006GSD4e_4.1.2-P1_RPATCH.05-F-GPS-4R-1510281 11/03/2015 307","activated":"2017-11-16T00:53:04.232Z","flags":1,"native":1,"bps":4800,"parity":"N","stopbits":1,"cycle":1.00}]}
2017-11-15 19:53:04 1510793584.304092: {"class":"WATCH","enable":true,"json":false,"nmea":true,"raw":0,"scaled":false,"timing":false,"split24":false,"pps":false}
2017-11-15 19:53:04 1510793584.345566: $GPZDA,005303.00,16,11,2017,00,00*60
2017-11-15 19:53:04 1510793584.345723: $GPGGA,005303,3946.9492,N,08404.9573,W,1,07,1.20,289.01,M,-33.324,M,,*75
2017-11-15 19:53:04 1510793584.345782: $GPRMC,005303,A,3946.9492,N,08404.9573,W,0.1567,9.201,161117,,*3A
2017-11-15 19:53:04 1510793584.345837: $GPGSA,A,3,32,16,31,26,14,22,23,,,,,,3.4,1.2,2.9*39
2017-11-15 19:53:05 1510793585.330163: $GPZDA,005304.00,16,11,2017,00,00*67
2017-11-15 19:53:05 1510793585.330332: $GPGGA,005304,3946.9492,N,08404.9573,W,1,07,1.20,289.01,M,-33.324,M,,*72
2017-11-15 19:53:05 1510793585.330393: $GPRMC,005304,A,3946.9492,N,08404.9573,W,0.3423,184.197,161117,,*36
2017-11-15 19:53:05 1510793585.330449: $GPGSA,A,3,32,16,31,26,14,22,23,,,,,,3.4,1.2,2.9*39
2017-11-15 19:53:06 1510793586.665480: $GPGSV,3,1,11,32,28,115,07,16,33,190,20,31,59,039,20,26,64,166,23*7F
2017-11-15 19:53:06 1510793586.665703: $GPGSV,3,2,11,14,47,105,18,22,49,255,18,03,44,288,04,23,19,304,20*7C
2017-11-15 19:53:06 1510793586.665765: $GPGSV,3,3,11,29,13,061,00,25,09,037,00,135,23,238,00*72
2017-11-15 19:53:06 1510793586.778831: $GPZDA,005305.00,16,11,2017,00,00*66
2017-11-15 19:53:06 1510793586.778986: $GPGGA,005305,3946.9493,N,08404.9580,W,1,07,1.20,288.93,M,-33.324,M,,*74
2017-11-15 19:53:06 1510793586.779046: $GPRMC,005305,A,3946.9493,N,08404.9580,W,0.4207,219.347,161117,,*35
2017-11-15 19:53:06 1510793586.779101: $GPGSA,A,3,32,16,31,26,14,22,23,,,,,,3.4,1.2,2.9*39
2017-11-15 19:53:07 1510793587.329692: $GPZDA,005306.00,16,11,2017,00,00*65
2017-11-15 19:53:07 1510793587.329857: $GPGGA,005306,3946.9496,N,08404.9579,W,1,07,1.20,288.17,M,-33.324,M,,*78
2017-11-15 19:53:07 1510793587.329919: $GPRMC,005306,A,3946.9496,N,08404.9579,W,0.9959,264.784,161117,,*39
2017-11-15 19:53:07 1510793587.329975: $GPGSA,A,3,32,16,31,26,14,22,23,,,,,,3.4,1.2,2.9*39
2017-11-15 19:53:08 1510793588.345819: $GPZDA,005307.00,16,11,2017,00,00*64
2017-11-15 19:53:08 1510793588.345980: $GPGGA,005307,3946.9496,N,08404.9586,W,1,07,1.20,288.09,M,-33.324,M,,*76
2017-11-15 19:53:08 1510793588.346040: $GPRMC,005307,A,3946.9496,N,08404.9586,W,1.0253,293.296,161117,,*3F
2017-11-15 19:53:08 1510793588.346096: $GPGSA,A,3,32,16,31,26,14,22,23,,,,,,3.4,1.2,2.9*39
2017-11-15 19:53:09 1510793589.681329: $GPGSV,3,1,11,32,28,115,05,16,33,190,21,31,59,039,20,26,64,166,22*7D
2017-11-15 19:53:09 1510793589.774080: $GPGSV,3,2,11,14,47,105,18,22,49,255,18,03,44,288,04,23,19,304,20*7C
2017-11-15 19:53:09 1510793589.774184: $GPGSV,3,3,11,29,13,061,00,25,09,037,00,120,07,103,00*7B
2017-11-15 19:53:09 1510793589.794954: $GPZDA,005308.00,16,11,2017,00,00*6B
2017-11-15 19:53:09 1510793589.795088: $GPGGA,005308,3946.9497,N,08404.9593,W,1,06,1.20,288.01,M,-33.324,M,,*75
2017-11-15 19:53:09 1510793589.795147: $GPRMC,005308,A,3946.9497,N,08404.9593,W,1.4763,267.730,161117,,*35
2017-11-15 19:53:09 1510793589.795202: $GPGSA,A,3,16,31,26,14,22,23,,,,,,,3.4,1.2,2.9*38
2017-11-15 19:53:10 1510793590.329561: $GPZDA,005309.00,16,11,2017,00,00*6A
2017-11-15 19:53:10 1510793590.329748: $GPGGA,005309,3946.9493,N,08404.9593,W,1,06,1.00,287.37,M,-33.324,M,,*78
2017-11-15 19:53:10 1510793590.329808: $GPRMC,005309,A,3946.9493,N,08404.9593,W,1.3954,244.414,161117,,*39
2017-11-15 19:53:10 1510793590.329864: $GPGSA,A,3,16,31,26,14,22,23,,,,,,,3.4,1.0,2.9*3A
2017-11-15 19:53:11 1510793591.344917: $GPZDA,005310.00,16,11,2017,00,00*62
2017-11-15 19:53:11 1510793591.345077: $GPGGA,005310,3946.9493,N,08404.9600,W,1,06,1.20,287.29,M,-33.324,M,,*74
2017-11-15 19:53:11 1510793591.345187: $GPRMC,005310,A,3946.9493,N,08404.9600,W,1.3255,251.714,161117,,*35
2017-11-15 19:53:11 1510793591.345245: $GPGSA,A,3,16,31,26,14,22,23,,,,,,,3.4,1.2,2.9*38
2017-11-15 19:53:12 1510793592.680581: $GPGSV,3,1,11,32,28,115,04,16,33,190,21,31,59,039,20,26,64,166,22*7C
2017-11-15 19:53:12 1510793592.680770: $GPGSV,3,2,11,14,47,105,18,22,49,255,18,03,44,288,00,23,19,304,20*78
2017-11-15 19:53:12 1510793592.680830: $GPGSV,3,3,11,29,13,061,00,25,09,037,00,120,07,103,00*7B
2017-11-15 19:53:12 1510793592.793839: $GPZDA,005311.00,16,11,2017,00,00*63
2017-11-15 19:53:12 1510793592.793992: $GPGGA,005311,3946.9493,N,08404.9600,W,1,06,1.20,287.29,M,-33.324,M,,*75
2017-11-15 19:53:12 1510793592.794052: $GPRMC,005311,A,3946.9493,N,08404.9600,W,0.8054,248.645,161117,,*30
2017-11-15 19:53:12 1510793592.794108: $GPGSA,A,3,16,31,26,14,22,23,,,,,,,3.4,1.2,2.9*38
2017-11-15 19:53:13 1510793593.344765: $GPZDA,005312.00,16,11,2017,00,00*60
2017-11-15 19:53:13 1510793593.344934: $GPGGA,005312,3946.9489,N,08404.9607,W,1,06,1.20,286.57,M,-33.324,M,,*72
2017-11-15 19:53:13 1510793593.344995: $GPRMC,005312,A,3946.9489,N,08404.9607,W,1.1902,238.684,161117,,*37
2017-11-15 19:53:13 1510793593.345051: $GPGSA,A,3,16,31,26,14,22,23,,,,,,,3.4,1.2,2.9*38
