2017-12-01 16:30:22 1512163822.836764: {"class":"VERSION","release":"3.16","rev":"3.16-4","proto_major":3,"proto_minor":11}
2017-12-01 16:30:22 1512163822.837183: {"class":"DEVICES","devices":[{"class":"DEVICE","path":"/dev/ttyUSB0","driver":"SiRF","subtype":"9\u0006GSD4e_4.1.2-P1_RPATCH.05-F-GPS-4R-1510281 11/03/2015 307","activated":"2017-12-01T21:30:22.688Z","flags":1,"native":1,"bps":4800,"parity":"N","stopbits":1,"cycle":1.00}]}
2017-12-01 16:30:22 1512163822.837305: {"class":"WATCH","enable":true,"json":false,"nmea":true,"raw":0,"scaled":false,"timing":false,"split24":false,"pps":false}
2017-12-01 16:30:23 1512163823.372619: $GPZDA,213024.00,01,12,2017,00,00*66
2017-12-01 16:30:23 1512163823.372793: $GPGGA,213024,3946.9652,N,08404.9709,W,2,11,1.00,292.64,M,-33.324,M,,*78
2017-12-01 16:30:23 1512163823.372859: $GPRMC,213024,A,3946.9652,N,08404.9709,W,0.0000,0.000,011217,,*32
2017-12-01 16:30:23 1512163823.372921: $GPGSA,A,3,1,10,11,14,22,31,32,25,26,12,138,,2.0,1.0,1.5*39
2017-12-01 16:30:24 1512163824.707066: $GPGSV,3,1,11,01,21,300,44,10,48,148,44,11,08,282,38,14,66,327,44*72
2017-12-01 16:30:24 1512163824.707256: $GPGSV,3,2,11,22,19,312,41,31,56,225,49,32,68,028,49,25,40,090,31*7C
2017-12-01 16:30:24 1512163824.707341: $GPGSV,3,3,11,26,02,183,30,12,22,049,23,138,38,213,35*7E
2017-12-01 16:30:24 1512163824.820395: $GPZDA,213025.00,01,12,2017,00,00*67
2017-12-01 16:30:24 1512163824.820555: $GPGGA,213025,3946.9652,N,08404.9716,W,2,11,1.00,292.56,M,-33.324,M,,*76
2017-12-01 16:30:24 1512163824.820620: $GPRMC,213025,A,3946.9652,N,08404.9716,W,0.0000,0.000,011217,,*3D
2017-12-01 16:30:24 1512163824.820679: $GPGSA,A,3,1,10,11,14,22,31,32,25,26,12,138,,2.0,1.0,1.5*39
2017-12-01 16:30:25 1512163825.375422: $GPZDA,213026.00,01,12,2017,00,00*64
2017-12-01 16:30:25 1512163825.375595: $GPGGA,213026,3946.9652,N,08404.9716,W,2,11,1.00,292.56,M,-33.324,M,,*75
2017-12-01 16:30:25 1512163825.375662: $GPRMC,213026,A,3946.9652,N,08404.9716,W,0.0000,0.000,011217,,*3E
2017-12-01 16:30:25 1512163825.375723: $GPGSA,A,3,1,10,11,14,22,31,32,25,26,12,138,,2.0,1.0,1.5*39
2017-12-01 16:30:26 1512163826.373821: $GPZDA,213027.00,01,12,2017,00,00*65
2017-12-01 16:30:26 1512163826.373995: $GPGGA,213027,3946.9652,N,08404.9716,W,2,11,1.00,292.56,M,-33.324,M,,*74
2017-12-01 16:30:26 1512163826.374062: $GPRMC,213027,A,3946.9652,N,08404.9716,W,0.0000,0.000,011217,,*3F
2017-12-01 16:30:26 1512163826.374122: $GPGSA,A,3,1,10,11,14,22,31,32,25,26,12,138,,2.0,1.0,1.5*39
2017-12-01 16:30:27 1512163827.709181: $GPGSV,3,1,11,01,21,300,44,10,48,148,44,11,08,282,37,14,66,327,44*7D
2017-12-01 16:30:27 1512163827.709361: $GPGSV,3,2,11,22,19,312,40,31,56,225,49,32,68,028,49,25,40,090,31*7D
2017-12-01 16:30:27 1512163827.709428: $GPGSV,3,3,11,26,02,183,30,12,22,049,24,138,38,213,38*74
2017-12-01 16:30:27 1512163827.822591: $GPZDA,213028.00,01,12,2017,00,00*6A
2017-12-01 16:30:27 1512163827.822779: $GPGGA,213028,3946.9652,N,08404.9716,W,2,11,1.00,292.56,M,-33.324,M,,*7B
2017-12-01 16:30:27 1512163827.822846: $GPRMC,213028,A,3946.9652,N,08404.9716,W,0.0000,0.000,011217,,*30
2017-12-01 16:30:27 1512163827.822907: $GPGSA,A,3,1,10,11,14,22,31,32,25,26,12,138,,2.0,1.0,1.5*39
2017-12-01 16:30:28 1512163828.449181: $GPZDA,213029.00,01,12,2017,00,00*6B
2017-12-01 16:30:28 1512163828.449361: $GPGGA,213029,3946.9652,N,08404.9716,W,2,11,1.00,292.56,M,-33.324,M,,*7A
2017-12-01 16:30:28 1512163828.449430: $GPRMC,213029,A,3946.9652,N,08404.9716,W,0.0000,0.000,011217,,*31
2017-12-01 16:30:28 1512163828.449491: $GPGSA,A,3,1,10,11,14,22,31,32,25,26,12,138,,2.0,1.0,1.5*39
2017-12-01 16:30:29 1512163829.375124: $GPZDA,213030.00,01,12,2017,00,00*63
2017-12-01 16:30:29 1512163829.375302: $GPGGA,213030,3946.9652,N,08404.9716,W,2,11,1.00,292.56,M,-33.324,M,,*72
2017-12-01 16:30:29 1512163829.375371: $GPRMC,213030,A,3946.9652,N,08404.9716,W,0.0000,0.000,011217,,*39
2017-12-01 16:30:29 1512163829.375433: $GPGSA,A,3,1,10,11,14,22,31,32,25,26,12,138,,2.0,1.0,1.5*39
2017-12-01 16:30:30 1512163830.708281: $GPGSV,3,1,12,01,21,300,44,10,48,148,44,11,08,282,38,14,66,327,44*71
2017-12-01 16:30:30 1512163830.708510: $GPGSV,3,2,12,22,19,312,40,31,56,225,49,32,68,028,49,18,18,144,20*75
2017-12-01 16:30:30 1512163830.708580: $GPGSV,3,3,12,25,40,090,31,26,02,183,30,12,22,049,24,138,38,213,39*4E
2017-12-01 16:30:30 1512163830.820347: $GPZDA,213031.00,01,12,2017,00,00*62
2017-12-01 16:30:30 1512163830.820505: $GPGGA,213031,3946.9652,N,08404.9716,W,2,12,0.80,292.56,M,-33.324,M,,*79
2017-12-01 16:30:30 1512163830.820568: $GPRMC,213031,A,3946.9652,N,08404.9716,W,0.0000,0.000,011217,,*38
2017-12-01 16:30:30 1512163830.820628: $GPGSA,A,3,1,10,11,14,22,31,32,18,25,26,12,138,2.0,0.8,1.5*39
2017-12-01 16:30:31 1512163831.903136: $GPZDA,213032.00,01,12,2017,00,00*61
2017-12-01 16:30:31 1512163831.903303: $GPGGA,213032,3946.9656,N,08404.9716,W,2,12,0.80,293.20,M,-33.324,M,,*7E
2017-12-01 16:30:31 1512163831.903370: $GPRMC,213032,A,3946.9656,N,08404.9716,W,0.0000,0.000,011217,,*3F
2017-12-01 16:30:31 1512163831.903432: $GPGSA,A,3,1,10,11,14,22,31,32,18,25,26,12,138,2.0,0.8,1.5*39
2017-12-01 16:30:32 1512163832.373511: $GPZDA,213033.00,01,12,2017,00,00*60
2017-12-01 16:30:32 1512163832.373692: $GPGGA,213033,3946.9656,N,08404.9716,W,2,12,0.80,293.20,M,-33.324,M,,*7F
2017-12-01 16:30:32 1512163832.373762: $GPRMC,213033,A,3946.9656,N,08404.9716,W,0.0000,0.000,011217,,*3E
2017-12-01 16:30:32 1512163832.373823: $GPGSA,A,3,1,10,11,14,22,31,32,18,25,26,12,138,2.0,0.8,1.5*39
2017-12-01 16:30:33 1512163833.710036: $GPGSV,3,1,12,01,21,300,44,10,48,148,44,11,08,282,38,14,66,328,43*79
2017-12-01 16:30:33 1512163833.710217: $GPGSV,3,2,12,22,19,312,40,31,56,225,49,32,68,030,49,18,18,144,21*7D
2017-12-01 16:30:33 1512163833.710282: $GPGSV,3,3,12,25,40,090,30,26,03,183,30,12,22,049,24,138,38,213,39*4E
2017-12-01 16:30:33 1512163833.823489: $GPZDA,213034.00,01,12,2017,00,00*67
2017-12-01 16:30:33 1512163833.823667: $GPGGA,213034,3946.9656,N,08404.9716,W,2,12,0.80,293.20,M,-33.324,M,,*78
2017-12-01 16:30:33 1512163833.823735: $GPRMC,213034,A,3946.9656,N,08404.9716,W,0.0000,0.000,011217,,*39
2017-12-01 16:30:33 1512163833.823797: $GPGSA,A,3,1,10,11,14,22,31,32,18,25,26,12,138,2.0,0.8,1.5*39
2017-12-01 16:30:34 1512163834.373016: $GPZDA,213035.00,01,12,2017,00,00*66
2017-12-01 16:30:34 1512163834.373192: $GPGGA,213035,3946.9656,N,08404.9716,W,2,12,0.80,293.20,M,-33.324,M,,*79
2017-12-01 16:30:34 1512163834.373259: $GPRMC,213035,A,3946.9656,N,08404.9716,W,0.0000,0.000,011217,,*38
2017-12-01 16:30:34 1512163834.373320: $GPGSA,A,3,1,10,11,14,22,31,32,18,25,26,12,138,2.0,0.8,1.5*39
2017-12-01 16:30:35 1512163835.373984: $GPZDA,213036.00,01,12,2017,00,00*65
2017-12-01 16:30:35 1512163835.374158: $GPGGA,213036,3946.9656,N,08404.9716,W,2,12,0.80,293.20,M,-33.324,M,,*7A
2017-12-01 16:30:35 1512163835.374224: $GPRMC,213036,A,3946.9656,N,08404.9716,W,0.0000,0.000,011217,,*3B
2017-12-01 16:30:35 1512163835.374286: $GPGSA,A,3,1,10,11,14,22,31,32,18,25,26,12,138,2.0,0.8,1.5*39
2017-12-01 16:30:36 1512163836.708436: $GPGSV,3,1,12,01,21,300,43,10,48,148,44,11,08,282,38,14,66,328,43*7E
2017-12-01 16:30:36 1512163836.708615: $GPGSV,3,2,12,22,19,312,41,31,56,225,49,32,68,030,48,18,18,144,22*7E
2017-12-01 16:30:36 1512163836.708683: $GPGSV,3,3,12,25,40,090,30,26,03,183,31,12,22,049,21,138,38,213,38*4B
2017-12-01 16:30:36 1512163836.821924: $GPZDA,213037.00,01,12,2017,00,00*64
2017-12-01 16:30:36 1512163836.822084: $GPGGA,213037,3946.9656,N,08404.9716,W,2,12,0.80,293.20,M,-33.324,M,,*7B
2017-12-01 16:30:36 1512163836.822149: $GPRMC,213037,A,3946.9656,N,08404.9716,W,0.0000,0.000,011217,,*3A
2017-12-01 16:30:36 1512163836.822210: $GPGSA,A,3,1,10,11,14,22,31,32,18,25,26,12,138,2.0,0.8,1.5*39
2017-12-01 16:30:37 1512163837.375267: $GPZDA,213038.00,01,12,2017,00,00*6B
2017-12-01 16:30:37 1512163837.375438: $GPGGA,213038,3946.9656,N,08404.9716,W,2,12,0.80,293.20,M,-33.324,M,,*74
2017-12-01 16:30:37 1512163837.375506: $GPRMC,213038,A,3946.9656,N,08404.9716,W,0.0000,0.000,011217,,*35
2017-12-01 16:30:37 1512163837.375567: $GPGSA,A,3,1,10,11,14,22,31,32,18,25,26,12,138,2.0,0.8,1.5*39
2017-12-01 16:30:38 1512163838.373122: $GPZDA,213039.00,01,12,2017,00,00*6A
2017-12-01 16:30:38 1512163838.373341: $GPGGA,213039,3946.9656,N,08404.9716,W,2,12,0.80,293.20,M,-33.324,M,,*75
2017-12-01 16:30:38 1512163838.373409: $GPRMC,213039,A,3946.9656,N,08404.9716,W,0.0000,0.000,011217,,*34
2017-12-01 16:30:38 1512163838.373470: $GPGSA,A,3,1,10,11,14,22,31,32,18,25,26,12,138,2.0,0.8,1.5*39
2017-12-01 16:30:39 1512163839.710017: $GPGSV,3,1,12,01,21,300,42,10,48,148,45,11,08,282,38,14,66,328,43*7E
2017-12-01 16:30:39 1512163839.710204: $GPGSV,3,2,12,22,19,312,41,31,56,225,49,32,68,030,48,18,18,144,22*7E
2017-12-01 16:30:39 1512163839.710272: $GPGSV,3,3,12,25,40,090,30,26,03,183,31,12,22,049,20,138,38,213,40*45
2017-12-01 16:30:39 1512163839.823431: $GPZDA,213040.00,01,12,2017,00,00*64
2017-12-01 16:30:39 1512163839.823609: $GPGGA,213040,3946.9656,N,08404.9716,W,2,12,0.80,293.20,M,-33.324,M,,*7B
2017-12-01 16:30:39 1512163839.823697: $GPRMC,213040,A,3946.9656,N,08404.9716,W,0.0000,0.000,011217,,*3A
2017-12-01 16:30:39 1512163839.823760: $GPGSA,A,3,1,10,11,14,22,31,32,18,25,26,12,138,2.0,0.8,1.5*39
2017-12-01 16:30:40 1512163840.374280: $GPZDA,213041.00,01,12,2017,00,00*65
2017-12-01 16:30:40 1512163840.374467: $GPGGA,213041,3946.9656,N,08404.9716,W,2,12,0.80,293.20,M,-33.324,M,,*7A
2017-12-01 16:30:40 1512163840.376027: $GPRMC,213041,A,3946.9656,N,08404.9716,W,0.0000,0.000,011217,,*3B
2017-12-01 16:30:40 1512163840.376113: $GPGSA,A,3,1,10,11,14,22,31,32,18,25,26,12,138,2.0,0.8,1.5*39
2017-12-01 16:30:41 1512163841.374257: $GPZDA,213042.00,01,12,2017,00,00*66
2017-12-01 16:30:41 1512163841.374572: $GPGGA,213042,3946.9656,N,08404.9716,W,2,12,0.80,293.20,M,-33.324,M,,*79
2017-12-01 16:30:41 1512163841.374733: $GPRMC,213042,A,3946.9656,N,08404.9716,W,0.0000,0.000,011217,,*38
2017-12-01 16:30:41 1512163841.374918: $GPGSA,A,3,1,10,11,14,22,31,32,18,25,26,12,138,2.0,0.8,1.5*39
2017-12-01 16:30:42 1512163842.709612: $GPGSV,3,1,12,01,21,300,42,10,48,148,45,11,08,282,38,14,66,328,43*7E
2017-12-01 16:30:42 1512163842.709828: $GPGSV,3,2,12,22,19,312,42,31,56,225,49,32,68,030,48,18,18,144,23*7C
2017-12-01 16:30:42 1512163842.709899: $GPGSV,3,3,12,25,40,090,29,26,03,183,30,12,22,049,18,138,38,213,40*47
2017-12-01 16:30:42 1512163842.823070: $GPZDA,213043.00,01,12,2017,00,00*67
2017-12-01 16:30:42 1512163842.823248: $GPGGA,213043,3946.9656,N,08404.9716,W,2,11,1.20,293.20,M,-33.324,M,,*70
2017-12-01 16:30:42 1512163842.823318: $GPRMC,213043,A,3946.9656,N,08404.9716,W,0.0000,0.000,011217,,*39
2017-12-01 16:30:42 1512163842.823382: $GPGSA,A,3,1,10,11,14,22,31,32,18,25,26,138,,2.0,1.2,1.5*31
