2017-12-31 17:08:48 1514758128.632707: {"class":"VERSION","release":"3.16","rev":"3.16-4","proto_major":3,"proto_minor":11}
2017-12-31 17:08:48 1514758128.633050: {"class":"DEVICES","devices":[{"class":"DEVICE","path":"/dev/ttyUSB0","driver":"SiRF","activated":"2017-12-31T22:08:48.231Z","flags":1,"native":1,"bps":4800,"parity":"N","stopbits":1,"cycle":1.00}]}
2017-12-31 17:08:48 1514758128.633287: {"class":"WATCH","enable":true,"json":false,"nmea":true,"raw":0,"scaled":false,"timing":false,"split24":false,"pps":false}
2017-12-31 17:08:48 1514758128.679255: $GPGSV,3,1,10,22,43,237,43,23,29,307,38,03,46,268,39,16,48,190,43*7A
2017-12-31 17:08:48 1514758128.679431: $GPGSV,3,2,10,29,14,052,33,31,48,052,51,14,39,115,36,32,17,123,40*71
2017-12-31 17:08:48 1514758128.679498: $GPGSV,3,3,10,26,75,136,47,135,22,240,42*4E
2017-12-31 17:08:48 1514758128.792905: $GPZDA,220849.00,31,12,2017,00,00*66
2017-12-31 17:08:48 1514758128.793062: $GPGGA,220849,3946.9583,N,08404.9854,W,2,10,0.80,301.57,M,-33.324,M,,*70
2017-12-31 17:08:48 1514758128.793132: $GPRMC,220849,A,3946.9583,N,08404.9854,W,0.0000,0.000,311217,,*3A
2017-12-31 17:08:48 1514758128.793193: $GPGSA,A,3,22,23,3,16,29,31,14,32,26,135,,,1.7,0.8,1.3*35
2017-12-31 17:08:49 1514758129.362486: $GPZDA,220850.00,31,12,2017,00,00*6E
2017-12-31 17:08:49 1514758129.362649: $GPGGA,220850,3946.9583,N,08404.9854,W,2,10,0.80,301.57,M,-33.324,M,,*78
2017-12-31 17:08:49 1514758129.362717: $GPRMC,220850,A,3946.9583,N,08404.9854,W,0.0000,0.000,311217,,*32
2017-12-31 17:08:49 1514758129.362779: $GPGSA,A,3,22,23,3,16,29,31,14,32,26,135,,,1.7,0.8,1.3*35
2017-12-31 17:08:50 1514758130.352664: $GPZDA,220851.00,31,12,2017,00,00*6F
2017-12-31 17:08:50 1514758130.352833: $GPGGA,220851,3946.9583,N,08404.9854,W,2,10,0.80,301.57,M,-33.324,M,,*79
2017-12-31 17:08:50 1514758130.352900: $GPRMC,220851,A,3946.9583,N,08404.9854,W,0.0000,0.000,311217,,*33
2017-12-31 17:08:50 1514758130.352962: $GPGSA,A,3,22,23,3,16,29,31,14,32,26,135,,,1.7,0.8,1.3*35
2017-12-31 17:08:51 1514758131.679517: $GPGSV,3,1,10,22,43,237,43,23,29,307,37,03,46,268,38,16,48,190,43*74
2017-12-31 17:08:51 1514758131.679695: $GPGSV,3,2,10,29,14,052,31,31,48,052,51,14,39,115,37,32,17,123,40*72
2017-12-31 17:08:51 1514758131.679762: $GPGSV,3,3,10,26,75,136,47,135,22,240,43*4F
2017-12-31 17:08:51 1514758131.793238: $GPZDA,220852.00,31,12,2017,00,00*6C
2017-12-31 17:08:51 1514758131.793387: $GPGGA,220852,3946.9583,N,08404.9854,W,2,10,0.80,301.57,M,-33.324,M,,*7A
2017-12-31 17:08:51 1514758131.793455: $GPRMC,220852,A,3946.9583,N,08404.9854,W,0.0000,0.000,311217,,*30
2017-12-31 17:08:51 1514758131.793516: $GPGSA,A,3,22,23,3,16,29,31,14,32,26,135,,,1.7,0.8,1.3*35
2017-12-31 17:08:52 1514758132.344074: $GPZDA,220853.00,31,12,2017,00,00*6D
2017-12-31 17:08:52 1514758132.344224: $GPGGA,220853,3946.9583,N,08404.9854,W,2,10,0.80,301.57,M,-33.324,M,,*7B
2017-12-31 17:08:52 1514758132.344290: $GPRMC,220853,A,3946.9583,N,08404.9854,W,0.0000,0.000,311217,,*31
2017-12-31 17:08:52 1514758132.344353: $GPGSA,A,3,22,23,3,16,29,31,14,32,26,135,,,1.7,0.8,1.3*35
2017-12-31 17:08:53 1514758133.344982: $GPZDA,220854.00,31,12,2017,00,00*6A
2017-12-31 17:08:53 1514758133.345156: $GPGGA,220854,3946.9583,N,08404.9854,W,2,10,0.80,301.57,M,-33.324,M,,*7C
2017-12-31 17:08:53 1514758133.345225: $GPRMC,220854,A,3946.9583,N,08404.9854,W,0.0000,0.000,311217,,*36
2017-12-31 17:08:53 1514758133.345286: $GPGSA,A,3,22,23,3,16,29,31,14,32,26,135,,,1.7,0.8,1.3*35
2017-12-31 17:08:54 1514758134.679090: $GPGSV,3,1,10,22,43,237,44,23,29,307,38,03,46,268,39,16,48,190,43*7D
2017-12-31 17:08:54 1514758134.679270: $GPGSV,3,2,10,29,14,052,31,31,48,052,51,14,39,115,37,32,17,123,40*72
2017-12-31 17:08:54 1514758134.679338: $GPGSV,3,3,10,26,75,136,47,135,22,240,42*4E
2017-12-31 17:08:54 1514758134.792495: $GPZDA,220855.00,31,12,2017,00,00*6B
2017-12-31 17:08:54 1514758134.792657: $GPGGA,220855,3946.9583,N,08404.9854,W,2,10,0.80,301.57,M,-33.324,M,,*7D
2017-12-31 17:08:54 1514758134.792723: $GPRMC,220855,A,3946.9583,N,08404.9854,W,0.0000,0.000,311217,,*37
2017-12-31 17:08:54 1514758134.792785: $GPGSA,A,3,22,23,3,16,29,31,14,32,26,135,,,1.7,0.8,1.3*35
2017-12-31 17:08:55 1514758135.418159: $GPZDA,220856.00,31,12,2017,00,00*68
2017-12-31 17:08:55 1514758135.422478: $GPGGA,220856,3946.9583,N,08404.9854,W,2,10,0.80,301.57,M,-33.324,M,,*7E
2017-12-31 17:08:55 1514758135.422580: $GPRMC,220856,A,3946.9583,N,08404.9854,W,0.0000,0.000,311217,,*34
2017-12-31 17:08:55 1514758135.422644: $GPGSA,A,3,22,23,3,16,29,31,14,32,26,135,,,1.7,0.8,1.3*35
2017-12-31 17:08:56 1514758136.343889: $GPZDA,220857.00,31,12,2017,00,00*69
2017-12-31 17:08:56 1514758136.344074: $GPGGA,220857,3946.9583,N,08404.9854,W,2,10,0.80,301.57,M,-33.324,M,,*7F
2017-12-31 17:08:56 1514758136.344144: $GPRMC,220857,A,3946.9583,N,08404.9854,W,0.0000,0.000,311217,,*35
2017-12-31 17:08:56 1514758136.344206: $GPGSA,A,3,22,23,3,16,29,31,14,32,26,135,,,1.7,0.8,1.3*35
2017-12-31 17:08:57 1514758137.696959: $GPGSV,3,1,10,22,43,237,43,23,29,307,38,03,46,268,38,16,48,190,42*7A
2017-12-31 17:08:57 1514758137.697211: $GPGSV,3,2,10,29,14,052,31,31,48,052,51,14,39,115,37,32,17,123,40*72
2017-12-31 17:08:57 1514758137.697289: $GPGSV,3,3,10,26,75,136,47,135,22,240,42*4E
2017-12-31 17:08:57 1514758137.810387: $GPZDA,220858.00,31,12,2017,00,00*66
2017-12-31 17:08:57 1514758137.810512: $GPGGA,220858,3946.9583,N,08404.9854,W,2,10,0.80,301.57,M,-33.324,M,,*70
2017-12-31 17:08:57 1514758137.810579: $GPRMC,220858,A,3946.9583,N,08404.9854,W,0.0000,0.000,311217,,*3A
2017-12-31 17:08:57 1514758137.810642: $GPGSA,A,3,22,23,3,16,29,31,14,32,26,135,,,1.7,0.8,1.3*35
2017-12-31 17:08:58 1514758138.345081: $GPZDA,220859.00,31,12,2017,00,00*67
2017-12-31 17:08:58 1514758138.345245: $GPGGA,220859,3946.9583,N,08404.9854,W,2,10,0.80,301.57,M,-33.324,M,,*71
2017-12-31 17:08:58 1514758138.345313: $GPRMC,220859,A,3946.9583,N,08404.9854,W,0.0000,0.000,311217,,*3B
2017-12-31 17:08:58 1514758138.345376: $GPGSA,A,3,22,23,3,16,29,31,14,32,26,135,,,1.7,0.8,1.3*35
