2017-11-16 13:17:53 1510856273.606120: {"class":"VERSION","release":"3.17","rev":"3.17","proto_major":3,"proto_minor":12}
2017-11-16 13:17:53 1510856273.606557: {"class":"DEVICES","devices":[{"class":"DEVICE","path":"/dev/ttyUSB0","driver":"SiRF","subtype":"9\u0006GSD4e_4.1.2-P1_RPATCH.05-F-GPS-4R-1510281 11/03/2015 307","activated":"2017-11-16T18:17:53.436Z","flags":1,"native":1,"bps":4800,"parity":"N","stopbits":1,"cycle":1.00}]}
2017-11-16 13:17:53 1510856273.606666: {"class":"WATCH","enable":true,"json":false,"nmea":true,"raw":0,"scaled":false,"timing":false,"split24":false,"pps":false}
2017-11-16 13:17:54 1510856274.630510: $GPGSV,3,1,11,10,22,282,41,13,30,045,47,15,62,052,50,18,53,298,46*78
2017-11-16 13:17:54 1510856274.630690: $GPGSV,3,2,11,20,52,070,47,21,77,276,46,24,32,139,42,27,16,313,41*77
2017-11-16 13:17:54 1510856274.630750: $GPGSV,3,3,11,05,05,087,24,29,10,189,34,138,38,213,46*7E
2017-11-16 13:17:54 1510856274.744021: $GPZDA,181753.00,16,11,2017,00,00*6C
2017-11-16 13:17:54 1510856274.744177: $GPGGA,181753,3946.9586,N,08404.9845,W,2,11,0.80,299.48,M,-33.324,M,,*76
2017-11-16 13:17:54 1510856274.744237: $GPRMC,181753,A,3946.9586,N,08404.9845,W,0.0000,0.000,161117,,*35
2017-11-16 13:17:54 1510856274.744293: $GPGSA,A,3,10,13,15,18,20,21,24,27,5,29,138,,1.6,0.8,1.3*37
2017-11-16 13:17:55 1510856275.370757: $GPZDA,181754.00,16,11,2017,00,00*6B
2017-11-16 13:17:55 1510856275.370923: $GPGGA,181754,3946.9586,N,08404.9845,W,2,11,0.80,299.48,M,-33.324,M,,*71
2017-11-16 13:17:55 1510856275.370986: $GPRMC,181754,A,3946.9586,N,08404.9845,W,0.0000,0.000,161117,,*32
2017-11-16 13:17:55 1510856275.371041: $GPGSA,A,3,10,13,15,18,20,21,24,27,5,29,138,,1.6,0.8,1.3*37
2017-11-16 13:17:56 1510856276.291535: $GPZDA,181755.00,16,11,2017,00,00*6A
2017-11-16 13:17:56 1510856276.291690: $GPGGA,181755,3946.9586,N,08404.9845,W,2,11,0.80,299.48,M,-33.324,M,,*70
2017-11-16 13:17:56 1510856276.291753: $GPRMC,181755,A,3946.9586,N,08404.9845,W,0.0000,0.000,161117,,*33
2017-11-16 13:17:56 1510856276.291810: $GPGSA,A,3,10,13,15,18,20,21,24,27,5,29,138,,1.6,0.8,1.3*37
2017-11-16 13:17:57 1510856277.631894: $GPGSV,3,1,11,10,22,282,42,13,30,045,47,15,62,052,50,18,53,298,46*7B
2017-11-16 13:17:57 1510856277.632066: $GPGSV,3,2,11,20,52,070,47,21,77,276,46,24,32,139,42,27,16,313,40*76
2017-11-16 13:17:57 1510856277.632126: $GPGSV,3,3,11,05,05,087,23,29,10,189,34,138,38,213,45*7A
2017-11-16 13:17:57 1510856277.745173: $GPZDA,181756.00,16,11,2017,00,00*69
2017-11-16 13:17:57 1510856277.745337: $GPGGA,181756,3946.9590,N,08404.9845,W,2,11,0.80,300.12,M,-33.324,M,,*7A
2017-11-16 13:17:57 1510856277.745398: $GPRMC,181756,A,3946.9590,N,08404.9845,W,0.0000,0.000,161117,,*37
2017-11-16 13:17:57 1510856277.745453: $GPGSA,A,3,10,13,15,18,20,21,24,27,5,29,138,,1.6,0.8,1.3*37
2017-11-16 13:17:58 1510856278.299789: $GPZDA,181757.00,16,11,2017,00,00*68
2017-11-16 13:17:58 1510856278.299954: $GPGGA,181757,3946.9590,N,08404.9845,W,2,11,0.80,300.12,M,-33.324,M,,*7B
2017-11-16 13:17:58 1510856278.300014: $GPRMC,181757,A,3946.9590,N,08404.9845,W,0.0000,0.000,161117,,*36
2017-11-16 13:17:58 1510856278.300070: $GPGSA,A,3,10,13,15,18,20,21,24,27,5,29,138,,1.6,0.8,1.3*37
2017-11-16 13:17:59 1510856279.295602: $GPZDA,181758.00,16,11,2017,00,00*67
2017-11-16 13:17:59 1510856279.295783: $GPGGA,181758,3946.9590,N,08404.9845,W,2,11,0.80,300.12,M,-33.324,M,,*74
2017-11-16 13:17:59 1510856279.295844: $GPRMC,181758,A,3946.9590,N,08404.9845,W,0.0000,0.000,161117,,*39
2017-11-16 13:17:59 1510856279.295900: $GPGSA,A,3,10,13,15,18,20,21,24,27,5,29,138,,1.6,0.8,1.3*37
2017-11-16 13:18:00 1510856280.630867: $GPGSV,3,1,11,10,22,282,41,13,30,045,47,15,62,052,50,18,53,298,46*78
2017-11-16 13:18:00 1510856280.631048: $GPGSV,3,2,11,20,52,070,46,21,77,276,46,24,32,139,41,27,16,313,40*74
2017-11-16 13:18:00 1510856280.631109: $GPGSV,3,3,11,05,05,087,22,29,10,189,34,138,38,213,44*7A
2017-11-16 13:18:00 1510856280.744131: $GPZDA,181759.00,16,11,2017,00,00*66
2017-11-16 13:18:00 1510856280.744293: $GPGGA,181759,3946.9590,N,08404.9845,W,2,11,0.80,300.12,M,-33.324,M,,*75
2017-11-16 13:18:00 1510856280.744402: $GPRMC,181759,A,3946.9590,N,08404.9845,W,0.0000,0.000,161117,,*38
2017-11-16 13:18:00 1510856280.744459: $GPGSA,A,3,10,13,15,18,20,21,24,27,5,29,138,,1.6,0.8,1.3*37
2017-11-16 13:18:01 1510856281.294991: $GPZDA,181800.00,16,11,2017,00,00*65
2017-11-16 13:18:01 1510856281.295159: $GPGGA,181800,3946.9590,N,08404.9845,W,2,11,0.80,300.12,M,-33.324,M,,*76
2017-11-16 13:18:01 1510856281.295220: $GPRMC,181800,A,3946.9590,N,08404.9845,W,0.0000,0.000,161117,,*3B
2017-11-16 13:18:01 1510856281.295276: $GPGSA,A,3,10,13,15,18,20,21,24,27,5,29,138,,1.6,0.8,1.3*37
2017-11-16 13:18:02 1510856282.294589: $GPZDA,181801.00,16,11,2017,00,00*64
2017-11-16 13:18:02 1510856282.294755: $GPGGA,181801,3946.9590,N,08404.9845,W,2,11,0.80,300.12,M,-33.324,M,,*77
2017-11-16 13:18:02 1510856282.294817: $GPRMC,181801,A,3946.9590,N,08404.9845,W,0.0000,0.000,161117,,*3A
2017-11-16 13:18:02 1510856282.294872: $GPGSA,A,3,10,13,15,18,20,21,24,27,5,29,138,,1.6,0.8,1.3*37
