2018-01-11 20:25:19 1515720319.266698: {"class":"VERSION","release":"3.16","rev":"3.16-4","proto_major":3,"proto_minor":11}
2018-01-11 20:25:19 1515720319.267065: {"class":"DEVICES","devices":[{"class":"DEVICE","path":"/dev/ttyUSB0","driver":"SiRF","subtype":"9\u0006GSD4e_4.1.2-P1_RPATCH.05-F-GPS-4R-1510281 11/03/2015 307","activated":"2018-01-12T01:25:19.234Z","flags":1,"native":1,"bps":4800,"parity":"N","stopbits":1,"cycle":1.00}]}
2018-01-11 20:25:19 1515720319.267182: {"class":"WATCH","enable":true,"json":false,"nmea":true,"raw":0,"scaled":false,"timing":false,"split24":false,"pps":false}
2018-01-11 20:25:19 1515720319.412745: $GPZDA,012520.00,12,01,2018,00,00*6B
2018-01-11 20:25:19 1515720319.412919: $GPGGA,012520,3946.9584,N,08404.9830,W,2,10,0.80,296.83,M,-33.324,M,,*72
2018-01-11 20:25:19 1515720319.412987: $GPRMC,012520,A,3946.9584,N,08404.9830,W,0.0000,0.000,120118,,*32
2018-01-11 20:25:19 1515720319.413047: $GPGSA,A,3,7,8,9,11,16,23,27,30,28,138,,,4.0,0.8,3.5*3E
2018-01-11 20:25:20 1515720320.357415: $GPZDA,012521.00,12,01,2018,00,00*6A
2018-01-11 20:25:20 1515720320.357575: $GPGGA,012521,3946.9584,N,08404.9830,W,2,10,0.80,296.83,M,-33.324,M,,*73
2018-01-11 20:25:20 1515720320.357640: $GPRMC,012521,A,3946.9584,N,08404.9830,W,0.0000,0.000,120118,,*33
2018-01-11 20:25:20 1515720320.357703: $GPGSA,A,3,7,8,9,11,16,23,27,30,28,138,,,4.0,0.8,3.5*3E
2018-01-11 20:25:21 1515720321.677767: $GPGSV,3,1,11,07,62,316,44,08,75,103,45,09,42,222,40,11,26,165,47*79
2018-01-11 20:25:21 1515720321.677937: $GPGSV,3,2,11,16,18,064,37,23,22,187,47,27,42,049,50,30,35,307,37*72
2018-01-11 20:25:21 1515720321.678003: $GPGSV,3,3,11,28,18,264,33,01,03,160,09,138,38,213,46*75
2018-01-11 20:25:21 1515720321.791480: $GPZDA,012522.00,12,01,2018,00,00*69
2018-01-11 20:25:21 1515720321.791616: $GPGGA,012522,3946.9584,N,08404.9830,W,2,11,0.80,296.83,M,-33.324,M,,*71
2018-01-11 20:25:21 1515720321.791683: $GPRMC,012522,A,3946.9584,N,08404.9830,W,0.0000,0.000,120118,,*30
2018-01-11 20:25:21 1515720321.791743: $GPGSA,A,3,7,8,9,11,16,23,27,30,28,1,138,,4.0,0.8,3.5*0F
2018-01-11 20:25:22 1515720322.359961: $GPZDA,012523.00,12,01,2018,00,00*68
2018-01-11 20:25:22 1515720322.360131: $GPGGA,012523,3946.9584,N,08404.9830,W,2,11,0.80,296.83,M,-33.324,M,,*70
2018-01-11 20:25:22 1515720322.360198: $GPRMC,012523,A,3946.9584,N,08404.9830,W,0.0000,0.000,120118,,*31
2018-01-11 20:25:22 1515720322.360262: $GPGSA,A,3,7,8,9,11,16,23,27,30,28,1,138,,4.0,0.8,3.5*0F
2018-01-11 20:25:23 1515720323.341856: $GPZDA,012524.00,12,01,2018,00,00*6F
2018-01-11 20:25:23 1515720323.342042: $GPGGA,012524,3946.9584,N,08404.9830,W,2,11,0.80,296.83,M,-33.324,M,,*77
2018-01-11 20:25:23 1515720323.342109: $GPRMC,012524,A,3946.9584,N,08404.9830,W,0.0000,0.000,120118,,*36
2018-01-11 20:25:23 1515720323.342191: $GPGSA,A,3,7,8,9,11,16,23,27,30,28,1,138,,4.0,0.8,3.5*0F
2018-01-11 20:25:24 1515720324.688112: $GPGSV,3,1,11,07,62,316,44,08,75,103,45,09,42,222,40,11,26,165,47*79
2018-01-11 20:25:24 1515720324.688313: $GPGSV,3,2,11,16,18,064,37,23,22,187,47,27,42,049,50,30,35,307,36*73
2018-01-11 20:25:24 1515720324.688380: $GPGSV,3,3,11,28,18,264,34,01,03,160,11,138,38,213,45*78
2018-01-11 20:25:24 1515720324.801535: $GPZDA,012525.00,12,01,2018,00,00*6E
2018-01-11 20:25:24 1515720324.801671: $GPGGA,012525,3946.9584,N,08404.9830,W,2,11,0.80,296.83,M,-33.324,M,,*76
2018-01-11 20:25:24 1515720324.801737: $GPRMC,012525,A,3946.9584,N,08404.9830,W,0.0000,0.000,120118,,*37
2018-01-11 20:25:24 1515720324.801797: $GPGSA,A,3,7,8,9,11,16,23,27,30,28,1,138,,4.0,0.8,3.5*0F
2018-01-11 20:25:25 1515720325.359959: $GPZDA,012526.00,12,01,2018,00,00*6D
2018-01-11 20:25:25 1515720325.360133: $GPGGA,012526,3946.9584,N,08404.9830,W,2,11,0.80,296.83,M,-33.324,M,,*75
2018-01-11 20:25:25 1515720325.360223: $GPRMC,012526,A,3946.9584,N,08404.9830,W,0.0000,0.000,120118,,*34
2018-01-11 20:25:25 1515720325.360302: $GPGSA,A,3,7,8,9,11,16,23,27,30,28,1,138,,4.0,0.8,3.5*0F
2018-01-11 20:25:26 1515720326.359663: $GPZDA,012527.00,12,01,2018,00,00*6C
2018-01-11 20:25:26 1515720326.359836: $GPGGA,012527,3946.9584,N,08404.9830,W,2,11,0.80,296.83,M,-33.324,M,,*74
2018-01-11 20:25:26 1515720326.359980: $GPRMC,012527,A,3946.9584,N,08404.9830,W,0.0000,0.000,120118,,*35
2018-01-11 20:25:26 1515720326.360042: $GPGSA,A,3,7,8,9,11,16,23,27,30,28,1,138,,4.0,0.8,3.5*0F
2018-01-11 20:25:27 1515720327.693956: $GPGSV,3,1,11,07,62,316,44,08,75,103,45,09,42,222,39,11,26,165,47*77
2018-01-11 20:25:27 1515720327.694108: $GPGSV,3,2,11,16,18,064,37,23,22,187,47,27,42,049,50,30,35,307,36*73
2018-01-11 20:25:27 1515720327.694195: $GPGSV,3,3,11,28,18,264,34,01,03,160,13,138,38,213,45*7A
2018-01-11 20:25:27 1515720327.807373: $GPZDA,012528.00,12,01,2018,00,00*63
2018-01-11 20:25:27 1515720327.807505: $GPGGA,012528,3946.9584,N,08404.9830,W,2,11,0.80,296.83,M,-33.324,M,,*7B
2018-01-11 20:25:27 1515720327.807588: $GPRMC,012528,A,3946.9584,N,08404.9830,W,0.0000,0.000,120118,,*3A
2018-01-11 20:25:27 1515720327.807650: $GPGSA,A,3,7,8,9,11,16,23,27,30,28,1,138,,4.0,0.8,3.5*0F
2018-01-11 20:25:28 1515720328.358508: $GPZDA,012529.00,12,01,2018,00,00*62
2018-01-11 20:25:28 1515720328.358691: $GPGGA,012529,3946.9584,N,08404.9830,W,2,11,0.80,296.83,M,-33.324,M,,*7A
2018-01-11 20:25:28 1515720328.358758: $GPRMC,012529,A,3946.9584,N,08404.9830,W,0.0000,0.000,120118,,*3B
2018-01-11 20:25:28 1515720328.358819: $GPGSA,A,3,7,8,9,11,16,23,27,30,28,1,138,,4.0,0.8,3.5*0F
2018-01-11 20:25:29 1515720329.342785: $GPZDA,012530.00,12,01,2018,00,00*6A
2018-01-11 20:25:29 1515720329.342953: $GPGGA,012530,3946.9584,N,08404.9830,W,2,11,0.80,296.83,M,-33.324,M,,*72
2018-01-11 20:25:29 1515720329.343020: $GPRMC,012530,A,3946.9584,N,08404.9830,W,0.0000,0.000,120118,,*33
2018-01-11 20:25:29 1515720329.343081: $GPGSA,A,3,7,8,9,11,16,23,27,30,28,1,138,,4.0,0.8,3.5*0F
2018-01-11 20:25:30 1515720330.678059: $GPGSV,3,1,11,07,62,316,45,08,75,103,45,09,42,222,40,11,26,165,47*78
2018-01-11 20:25:30 1515720330.678272: $GPGSV,3,2,11,16,18,064,37,23,22,187,47,27,42,049,49,30,35,307,35*78
2018-01-11 20:25:30 1515720330.678354: $GPGSV,3,3,11,28,18,264,34,01,03,160,16,138,38,213,46*7C
2018-01-11 20:25:30 1515720330.791709: $GPZDA,012531.00,12,01,2018,00,00*6B
2018-01-11 20:25:30 1515720330.791845: $GPGGA,012531,3946.9584,N,08404.9830,W,2,11,0.80,296.83,M,-33.324,M,,*73
2018-01-11 20:25:30 1515720330.791912: $GPRMC,012531,A,3946.9584,N,08404.9830,W,0.0000,0.000,120118,,*32
2018-01-11 20:25:30 1515720330.791972: $GPGSA,A,3,7,8,9,11,16,23,27,30,28,1,138,,4.0,0.8,3.5*0F
2018-01-11 20:25:31 1515720331.358848: $GPZDA,012532.00,12,01,2018,00,00*68
2018-01-11 20:25:31 1515720331.359018: $GPGGA,012532,3946.9584,N,08404.9830,W,2,11,0.80,296.83,M,-33.324,M,,*70
2018-01-11 20:25:31 1515720331.359164: $GPRMC,012532,A,3946.9584,N,08404.9830,W,0.0000,0.000,120118,,*31
2018-01-11 20:25:31 1515720331.359227: $GPGSA,A,3,7,8,9,11,16,23,27,30,28,1,138,,4.0,0.8,3.5*0F
