2017-11-15 18:57:19 1510790239.852254: {"class":"VERSION","release":"3.17","rev":"3.17","proto_major":3,"proto_minor":12}
2017-11-15 18:57:19 1510790239.852729: {"class":"DEVICES","devices":[{"class":"DEVICE","path":"/dev/ttyUSB0","driver":"SiRF","subtype":"9\u0006GSD4e_4.1.2-P1_RPATCH.05-F-GPS-4R-1510281 11/03/2015 307","activated":"2017-11-15T23:57:19.471Z","flags":1,"native":1,"bps":4800,"parity":"N","stopbits":1,"cycle":1.00}]}
2017-11-15 18:57:19 1510790239.852839: {"class":"WATCH","enable":true,"json":false,"nmea":true,"raw":0,"scaled":false,"timing":false,"split24":false,"pps":false}
2017-11-15 18:57:20 1510790240.331191: $GPZDA,235719.00,15,11,2017,00,00*6D
2017-11-15 18:57:20 1510790240.331356: $GPGGA,235719,3946.9578,N,08404.9566,W,1,09,0.80,315.37,M,-33.324,M,,*7E
2017-11-15 18:57:20 1510790240.331417: $GPRMC,235719,A,3946.9578,N,08404.9566,W,0.3155,129.994,151117,,*35
2017-11-15 18:57:20 1510790240.331473: $GPGSA,A,3,10,14,3,32,31,26,22,25,29,,,,3.4,0.8,2.9*0A
2017-11-15 18:57:21 1510790241.666182: $GPGSV,3,1,11,10,12,159,10,14,65,066,16,03,29,312,17,32,48,093,17*7B
2017-11-15 18:57:21 1510790241.666360: $GPGSV,3,2,11,31,78,337,18,26,36,177,23,22,46,292,17,01,14,265,00*72
2017-11-15 18:57:21 1510790241.666421: $GPGSV,3,3,11,25,29,048,10,29,04,085,04,16,07,190,00*46
2017-11-15 18:57:21 1510790241.779863: $GPZDA,235720.00,15,11,2017,00,00*67
2017-11-15 18:57:21 1510790241.780027: $GPGGA,235720,3946.9578,N,08404.9566,W,1,08,1.00,315.37,M,-33.324,M,,*7C
2017-11-15 18:57:21 1510790241.780089: $GPRMC,235720,A,3946.9578,N,08404.9566,W,0.0000,0.000,151117,,*33
2017-11-15 18:57:21 1510790241.780145: $GPGSA,A,3,10,14,3,32,31,26,22,25,,,,,3.4,1.0,2.9*08
2017-11-15 18:57:22 1510790242.330899: $GPZDA,235721.00,15,11,2017,00,00*66
2017-11-15 18:57:22 1510790242.331068: $GPGGA,235721,3946.9578,N,08404.9566,W,1,08,1.00,315.37,M,-33.324,M,,*7D
2017-11-15 18:57:22 1510790242.331128: $GPRMC,235721,A,3946.9578,N,08404.9566,W,0.2422,273.794,151117,,*38
2017-11-15 18:57:22 1510790242.331184: $GPGSA,A,3,10,14,3,32,31,26,22,25,,,,,3.4,1.0,2.9*08
2017-11-15 18:57:23 1510790243.372025: $GPZDA,235722.00,15,11,2017,00,00*65
2017-11-15 18:57:23 1510790243.372216: $GPGGA,235722,3946.9578,N,08404.9566,W,1,08,1.00,315.37,M,-33.324,M,,*7E
2017-11-15 18:57:23 1510790243.372277: $GPRMC,235722,A,3946.9578,N,08404.9566,W,0.2422,93.794,151117,,*07
2017-11-15 18:57:23 1510790243.372333: $GPGSA,A,3,10,14,3,32,31,26,22,25,,,,,3.4,1.0,2.9*08
2017-11-15 18:57:24 1510790244.702032: $GPGSV,3,1,11,10,12,159,10,14,65,066,15,03,29,312,18,32,48,093,17*77
2017-11-15 18:57:24 1510790244.702206: $GPGSV,3,2,11,31,78,337,19,26,36,177,23,22,46,292,17,01,14,265,00*73
2017-11-15 18:57:24 1510790244.702267: $GPGSV,3,3,11,25,29,048,10,29,04,085,04,16,07,190,00*46
2017-11-15 18:57:24 1510790244.815297: $GPZDA,235723.00,15,11,2017,00,00*64
2017-11-15 18:57:24 1510790244.815467: $GPGGA,235723,3946.9582,N,08404.9566,W,1,08,1.00,316.01,M,-33.324,M,,*7C
2017-11-15 18:57:24 1510790244.815530: $GPRMC,235723,A,3946.9582,N,08404.9566,W,0.3423,4.197,151117,,*38
2017-11-15 18:57:24 1510790244.815586: $GPGSA,A,3,10,14,3,32,31,26,22,25,,,,,3.4,1.0,2.9*08
2017-11-15 18:57:25 1510790245.331538: $GPZDA,235724.00,15,11,2017,00,00*63
2017-11-15 18:57:25 1510790245.331689: $GPGGA,235724,3946.9582,N,08404.9566,W,1,08,1.00,316.01,M,-33.324,M,,*7B
2017-11-15 18:57:25 1510790245.331752: $GPRMC,235724,A,3946.9582,N,08404.9566,W,0.0000,0.000,151117,,*32
2017-11-15 18:57:25 1510790245.331808: $GPGSA,A,3,10,14,3,32,31,26,22,25,,,,,3.4,1.0,2.9*08
2017-11-15 18:57:26 1510790246.366606: $GPZDA,235725.00,15,11,2017,00,00*62
2017-11-15 18:57:26 1510790246.366819: $GPGGA,235725,3946.9582,N,08404.9573,W,1,08,1.00,315.93,M,-33.324,M,,*76
2017-11-15 18:57:26 1510790246.366885: $GPRMC,235725,A,3946.9582,N,08404.9573,W,0.3423,4.197,151117,,*3A
2017-11-15 18:57:26 1510790246.366942: $GPGSA,A,3,10,14,3,32,31,26,22,25,,,,,3.4,1.0,2.9*08
2017-11-15 18:57:27 1510790247.666161: $GPGSV,3,1,11,10,12,159,11,14,65,066,15,03,29,312,18,32,48,093,16*77
2017-11-15 18:57:27 1510790247.666310: $GPGSV,3,2,11,31,78,337,19,26,36,177,23,22,46,292,18,01,14,265,00*7C
2017-11-15 18:57:27 1510790247.666420: $GPGSV,3,3,11,25,29,048,08,29,04,085,06,16,07,190,00*4D
2017-11-15 18:57:27 1510790247.779459: $GPZDA,235726.00,15,11,2017,00,00*61
2017-11-15 18:57:27 1510790247.779620: $GPGGA,235726,3946.9582,N,08404.9573,W,1,09,1.00,315.93,M,-33.324,M,,*74
2017-11-15 18:57:27 1510790247.779681: $GPRMC,235726,A,3946.9582,N,08404.9573,W,0.6846,4.197,151117,,*33
2017-11-15 18:57:27 1510790247.779738: $GPGSA,A,3,10,14,3,32,31,26,22,25,29,,,,3.4,1.0,2.9*03
2017-11-15 18:57:28 1510790248.366621: $GPZDA,235727.00,15,11,2017,00,00*60
2017-11-15 18:57:28 1510790248.366835: $GPGGA,235727,3946.9582,N,08404.9573,W,1,09,1.40,315.93,M,-33.324,M,,*71
2017-11-15 18:57:28 1510790248.366902: $GPRMC,235727,A,3946.9582,N,08404.9573,W,0.7246,344.668,151117,,*39
2017-11-15 18:57:28 1510790248.366959: $GPGSA,A,3,10,14,3,32,31,26,22,25,29,,,,3.4,1.4,2.9*07
2017-11-15 18:57:29 1510790249.371205: $GPZDA,235728.00,15,11,2017,00,00*6F
2017-11-15 18:57:29 1510790249.374836: $GPGGA,235728,3946.9586,N,08404.9573,W,1,09,1.40,316.57,M,-33.324,M,,*71
2017-11-15 18:57:29 1510790249.374933: $GPRMC,235728,A,3946.9586,N,08404.9573,W,0.9019,18.875,151117,,*0C
2017-11-15 18:57:29 1510790249.374991: $GPGSA,A,3,10,14,3,32,31,26,22,25,29,,,,3.4,1.4,2.9*07
2017-11-15 18:57:30 1510790250.665771: $GPGSV,3,1,11,10,12,159,10,14,65,066,14,03,29,312,18,32,48,093,15*74
2017-11-15 18:57:30 1510790250.665941: $GPGSV,3,2,11,31,78,337,19,26,36,177,22,22,46,292,18,16,07,190,17*76
2017-11-15 18:57:30 1510790250.666002: $GPGSV,3,3,11,25,29,048,04,29,04,085,07,01,14,265,00*4D
2017-11-15 18:57:30 1510790250.779349: $GPZDA,235729.00,15,11,2017,00,00*6E
2017-11-15 18:57:30 1510790250.779492: $GPGGA,235729,3946.9590,N,08404.9573,W,1,07,1.40,315.80,M,-33.324,M,,*70
2017-11-15 18:57:30 1510790250.779552: $GPRMC,235729,A,3946.9590,N,08404.9573,W,0.8709,3.298,151117,,*3E
2017-11-15 18:57:30 1510790250.779607: $GPGSA,A,3,10,14,3,32,31,26,22,,,,,,3.4,1.4,2.9*0B
2017-11-15 18:57:31 1510790251.406042: $GPZDA,235730.00,15,11,2017,00,00*66
2017-11-15 18:57:31 1510790251.406204: $GPGGA,235730,3946.9590,N,08404.9573,W,1,07,1.40,315.80,M,-33.324,M,,*78
2017-11-15 18:57:31 1510790251.406264: $GPRMC,235730,A,3946.9590,N,08404.9573,W,0.7278,23.636,151117,,*08
2017-11-15 18:57:31 1510790251.406320: $GPGSA,A,3,10,14,3,32,31,26,22,,,,,,3.4,1.4,2.9*0B
2017-11-15 18:57:32 1510790252.371702: $GPZDA,235731.00,15,11,2017,00,00*67
2017-11-15 18:57:32 1510790252.371874: $GPGGA,235731,3946.9590,N,08404.9573,W,1,07,1.40,315.80,M,-33.324,M,,*79
2017-11-15 18:57:32 1510790252.371937: $GPRMC,235731,A,3946.9590,N,08404.9573,W,0.7621,107.945,151117,,*3D
2017-11-15 18:57:32 1510790252.371994: $GPGSA,A,3,10,14,3,32,31,26,22,,,,,,3.4,1.4,2.9*0B
2017-11-15 18:57:33 1510790253.707982: $GPGSV,3,1,11,10,10,159,10,14,64,069,13,03,30,310,18,32,47,094,10*78
2017-11-15 18:57:33 1510790253.708170: $GPGSV,3,2,11,31,78,345,20,26,37,177,22,22,46,291,18,01,13,264,00*76
2017-11-15 18:57:33 1510790253.708232: $GPGSV,3,3,11,25,28,046,04,29,05,084,04,16,08,190,00*43
2017-11-15 18:57:33 1510790253.821340: $GPZDA,235732.00,15,11,2017,00,00*64
2017-11-15 18:57:33 1510790253.821506: $GPGGA,235732,3946.9589,N,08404.9566,W,1,07,1.40,315.88,M,-33.324,M,,*7E
2017-11-15 18:57:33 1510790253.821569: $GPRMC,235732,A,3946.9589,N,08404.9566,W,1.2375,102.453,151117,,*3D
2017-11-15 18:57:33 1510790253.821625: $GPGSA,A,3,10,14,3,32,31,26,22,,,,,,3.4,1.4,2.9*0B
2017-11-15 18:57:34 1510790254.372238: $GPZDA,235733.00,15,11,2017,00,00*65
2017-11-15 18:57:34 1510790254.373879: $GPGGA,235733,3946.9589,N,08404.9566,W,1,07,1.40,315.88,M,-33.324,M,,*7F
2017-11-15 18:57:34 1510790254.373974: $GPRMC,235733,A,3946.9589,N,08404.9566,W,1.0253,113.297,151117,,*35
2017-11-15 18:57:34 1510790254.374031: $GPGSA,A,3,10,14,3,32,31,26,22,,,,,,3.4,1.4,2.9*0B
2017-11-15 18:57:35 1510790255.330878: $GPZDA,235734.00,15,11,2017,00,00*62
2017-11-15 18:57:35 1510790255.331039: $GPGGA,235734,3946.9589,N,08404.9559,W,1,07,1.40,315.96,M,-33.324,M,,*7B
2017-11-15 18:57:35 1510790255.331187: $GPRMC,235734,A,3946.9589,N,08404.9559,W,1.2375,102.453,151117,,*37
2017-11-15 18:57:35 1510790255.331247: $GPGSA,A,3,10,14,3,32,31,26,22,,,,,,3.4,1.4,2.9*0B
2017-11-15 18:57:36 1510790256.708414: $GPGSV,3,1,11,10,10,159,10,14,64,069,12,03,30,310,19,32,47,094,09*70
2017-11-15 18:57:36 1510790256.708585: $GPGSV,3,2,11,31,78,345,20,26,37,177,22,22,46,291,19,01,13,264,00*77
2017-11-15 18:57:36 1510790256.708646: $GPGSV,3,3,11,25,28,046,04,29,05,084,04,16,08,190,00*43
2017-11-15 18:57:36 1510790256.822024: $GPZDA,235735.00,15,11,2017,00,00*63
2017-11-15 18:57:36 1510790256.822194: $GPGGA,235735,3946.9589,N,08404.9559,W,1,07,1.40,315.96,M,-33.324,M,,*7A
2017-11-15 18:57:36 1510790256.822254: $GPRMC,235735,A,3946.9589,N,08404.9559,W,1.2111,93.794,151117,,*07
2017-11-15 18:57:36 1510790256.822328: $GPGSA,A,3,10,14,3,32,31,26,22,,,,,,3.4,1.4,2.9*0B
2017-11-15 18:57:37 1510790257.372867: $GPZDA,235736.00,15,11,2017,00,00*60
2017-11-15 18:57:37 1510790257.373029: $GPGGA,235736,3946.9589,N,08404.9552,W,1,07,1.40,316.04,M,-33.324,M,,*7A
2017-11-15 18:57:37 1510790257.373090: $GPRMC,235736,A,3946.9589,N,08404.9552,W,0.9689,93.794,151117,,*03
2017-11-15 18:57:37 1510790257.373165: $GPGSA,A,3,10,14,3,32,31,26,22,,,,,,3.4,1.4,2.9*0B
2017-11-15 18:57:38 1510790258.372205: $GPZDA,235737.00,15,11,2017,00,00*61
2017-11-15 18:57:38 1510790258.372383: $GPGGA,235737,3946.9589,N,08404.9552,W,1,07,1.40,316.04,M,-33.324,M,,*7B
2017-11-15 18:57:38 1510790258.372445: $GPRMC,235737,A,3946.9589,N,08404.9552,W,0.7267,93.794,151117,,*08
2017-11-15 18:57:38 1510790258.372500: $GPGSA,A,3,10,14,3,32,31,26,22,,,,,,3.4,1.4,2.9*0B
2017-11-15 18:57:39 1510790259.707955: $GPGSV,3,1,11,10,10,159,10,14,64,069,12,03,30,310,19,32,47,094,09*70
2017-11-15 18:57:39 1510790259.708144: $GPGSV,3,2,11,31,78,345,20,26,37,177,22,22,46,291,19,01,13,264,00*77
2017-11-15 18:57:39 1510790259.708206: $GPGSV,3,3,11,25,28,046,04,29,05,084,04,16,08,190,00*43
2017-11-15 18:57:39 1510790259.821313: $GPZDA,235738.00,15,11,2017,00,00*6E
2017-11-15 18:57:39 1510790259.821470: $GPGGA,235738,3946.9589,N,08404.9552,W,1,07,1.40,316.04,M,-33.324,M,,*74
2017-11-15 18:57:39 1510790259.821532: $GPRMC,235738,A,3946.9589,N,08404.9552,W,0.4207,39.347,151117,,*08
2017-11-15 18:57:39 1510790259.821588: $GPGSA,A,3,10,14,3,32,31,26,22,,,,,,3.4,1.4,2.9*0B
2017-11-15 18:57:40 1510790260.330916: $GPZDA,235739.00,15,11,2017,00,00*6F
2017-11-15 18:57:40 1510790260.331083: $GPGGA,235739,3946.9589,N,08404.9552,W,1,07,1.40,316.04,M,-33.324,M,,*75
2017-11-15 18:57:40 1510790260.331168: $GPRMC,235739,A,3946.9589,N,08404.9552,W,0.3155,309.994,151117,,*3E
2017-11-15 18:57:40 1510790260.331227: $GPGSA,A,3,10,14,3,32,31,26,22,,,,,,3.4,1.4,2.9*0B
2017-11-15 18:57:41 1510790261.372587: $GPZDA,235740.00,15,11,2017,00,00*61
2017-11-15 18:57:41 1510790261.372772: $GPGGA,235740,3946.9589,N,08404.9559,W,1,07,1.00,315.96,M,-33.324,M,,*7C
2017-11-15 18:57:41 1510790261.372835: $GPRMC,235740,A,3946.9589,N,08404.9559,W,0.5912,309.173,151117,,*37
2017-11-15 18:57:41 1510790261.372893: $GPGSA,A,3,10,14,3,32,31,26,22,,,,,,3.4,1.0,2.9*0F
2017-11-15 18:57:42 1510790262.710815: $GPGSV,3,1,11,10,10,159,10,14,64,069,12,03,30,310,19,32,47,094,08*71
2017-11-15 18:57:42 1510790262.710989: $GPGSV,3,2,11,31,78,345,21,26,37,177,22,22,46,291,20,16,08,190,01*79
2017-11-15 18:57:42 1510790262.711049: $GPGSV,3,3,11,25,28,046,04,29,05,084,11,01,13,264,00*43
2017-11-15 18:57:42 1510790262.824175: $GPZDA,235741.00,15,11,2017,00,00*60
2017-11-15 18:57:42 1510790262.824357: $GPGGA,235741,3946.9589,N,08404.9559,W,1,08,1.00,315.96,M,-33.324,M,,*72
2017-11-15 18:57:42 1510790262.824422: $GPRMC,235741,A,3946.9589,N,08404.9559,W,0.4179,328.778,151117,,*3C
2017-11-15 18:57:42 1510790262.824479: $GPGSA,A,3,10,14,3,32,31,26,22,29,,,,,3.4,1.0,2.9*04
2017-11-15 18:57:43 1510790263.332559: $GPZDA,235742.00,15,11,2017,00,00*63
2017-11-15 18:57:43 1510790263.332745: $GPGGA,235742,3946.9589,N,08404.9559,W,1,08,1.00,315.96,M,-33.324,M,,*71
2017-11-15 18:57:43 1510790263.332807: $GPRMC,235742,A,3946.9589,N,08404.9559,W,0.5857,338.291,151117,,*38
2017-11-15 18:57:43 1510790263.332915: $GPGSA,A,3,10,14,3,32,31,26,22,29,,,,,3.4,1.0,2.9*04
2017-11-15 18:57:44 1510790264.374983: $GPZDA,235743.00,15,11,2017,00,00*62
2017-11-15 18:57:44 1510790264.376558: $GPGGA,235743,3946.9593,N,08404.9559,W,1,08,1.00,316.60,M,-33.324,M,,*71
2017-11-15 18:57:44 1510790264.376650: $GPRMC,235743,A,3946.9593,N,08404.9559,W,0.6846,4.197,151117,,*38
2017-11-15 18:57:44 1510790264.376766: $GPGSA,A,3,10,14,3,32,31,26,22,29,,,,,3.4,1.0,2.9*04
2017-11-15 18:57:45 1510790265.667947: $GPGSV,3,1,11,10,10,159,08,14,64,069,12,03,30,310,19,32,47,094,05*75
2017-11-15 18:57:45 1510790265.668114: $GPGSV,3,2,11,31,78,345,21,26,37,177,22,22,46,291,20,16,08,190,09*71
2017-11-15 18:57:45 1510790265.668173: $GPGSV,3,3,11,25,28,046,04,29,05,084,11,01,13,264,12*40
2017-11-15 18:57:45 1510790265.781213: $GPZDA,235744.00,15,11,2017,00,00*65
2017-11-15 18:57:45 1510790265.781337: $GPGGA,235744,3946.9596,N,08404.9558,W,1,07,1.00,315.84,M,-33.324,M,,*74
2017-11-15 18:57:45 1510790265.781397: $GPRMC,235744,A,3946.9596,N,08404.9558,W,0.5951,58.684,151117,,*03
2017-11-15 18:57:45 1510790265.781452: $GPGSA,A,3,10,14,3,31,26,22,29,,,,,,3.4,1.0,2.9*05
2017-11-15 18:57:46 1510790266.406625: $GPZDA,235745.00,15,11,2017,00,00*64
2017-11-15 18:57:46 1510790266.406834: $GPGGA,235745,3946.9596,N,08404.9558,W,1,07,1.00,315.84,M,-33.324,M,,*75
2017-11-15 18:57:46 1510790266.406898: $GPRMC,235745,A,3946.9596,N,08404.9558,W,0.1867,0.000,151117,,*35
2017-11-15 18:57:46 1510790266.406953: $GPGSA,A,3,10,14,3,31,26,22,29,,,,,,3.4,1.0,2.9*05
2017-11-15 18:57:47 1510790267.331274: $GPZDA,235746.00,15,11,2017,00,00*67
2017-11-15 18:57:47 1510790267.331433: $GPGGA,235746,3946.9593,N,08404.9559,W,1,07,0.80,316.60,M,-33.324,M,,*72
2017-11-15 18:57:47 1510790267.331493: $GPRMC,235746,A,3946.9593,N,08404.9559,W,0.2422,93.794,151117,,*0C
2017-11-15 18:57:47 1510790267.331549: $GPGSA,A,3,10,14,3,31,26,22,29,,,,,,3.4,0.8,2.9*0C
2017-11-15 18:57:48 1510790268.667110: $GPGSV,3,1,11,10,10,159,07,14,64,069,13,03,30,310,19,32,47,094,06*78
2017-11-15 18:57:48 1510790268.667290: $GPGSV,3,2,11,31,78,345,21,26,37,177,21,22,46,291,21,16,08,190,12*79
2017-11-15 18:57:48 1510790268.667350: $GPGSV,3,3,11,25,28,046,00,29,05,084,11,01,13,264,14*42
2017-11-15 18:57:48 1510790268.779105: $GPZDA,235747.00,15,11,2017,00,00*66
2017-11-15 18:57:48 1510790268.779241: $GPGGA,235747,3946.9589,N,08404.9566,W,1,10,0.80,315.88,M,-33.324,M,,*77
2017-11-15 18:57:48 1510790268.779299: $GPRMC,235747,A,3946.9589,N,08404.9566,W,0.6846,184.197,151117,,*32
2017-11-15 18:57:48 1510790268.779354: $GPGSA,A,3,10,14,3,32,31,26,22,16,29,1,,,3.4,0.8,2.9*3B
2017-11-15 18:57:49 1510790269.372506: $GPZDA,235748.00,15,11,2017,00,00*69
2017-11-15 18:57:49 1510790269.372692: $GPGGA,235748,3946.9589,N,08404.9566,W,1,10,0.80,315.88,M,-33.324,M,,*78
2017-11-15 18:57:50 1510790270.174871: $GPRMC,235748,A,3946.9589,N,08404.9566,W,0.4179,148.778,151117,,*3D
2017-11-15 18:57:50 1510790270.175023: $GPGSA,A,3,10,14,3,32,31,26,22,16,29,1,,,3.4,0.8,2.9*3B
