2017-12-01 11:34:40 1512146080.168001: {"class":"VERSION","release":"3.16","rev":"3.16-4","proto_major":3,"proto_minor":11}
2017-12-01 11:34:40 1512146080.168364: {"class":"DEVICES","devices":[{"class":"DEVICE","path":"/dev/ttyUSB0","driver":"SiRF","subtype":"9\u0006GSD4e_4.1.2-P1_RPATCH.05-F-GPS-4R-1510281 11/03/2015 307","activated":"2017-12-01T16:34:40.156Z","flags":1,"native":1,"bps":4800,"parity":"N","stopbits":1,"cycle":1.00}]}
2017-12-01 11:34:40 1512146080.168476: {"class":"WATCH","enable":true,"json":false,"nmea":true,"raw":0,"scaled":false,"timing":false,"split24":false,"pps":false}
2017-12-01 11:34:40 1512146080.669554: $GPGSV,3,1,11,10,10,268,36,13,47,052,47,15,78,090,48,18,40,282,45*7D
2017-12-01 11:34:40 1512146080.669754: $GPGSV,3,2,11,20,65,042,42,21,63,309,46,24,16,151,43,29,29,196,44*7A
2017-12-01 11:34:40 1512146080.669844: $GPGSV,3,3,11,05,17,075,34,27,06,327,41,138,38,213,46*7C
2017-12-01 11:34:40 1512146080.783187: $GPZDA,163441.00,01,12,2017,00,00*65
2017-12-01 11:34:40 1512146080.783354: $GPGGA,163441,3946.9571,N,08404.9821,W,2,11,0.80,304.26,M,-33.324,M,,*7D
2017-12-01 11:34:40 1512146080.783421: $GPRMC,163441,A,3946.9571,N,08404.9821,W,0.0000,0.000,011217,,*36
2017-12-01 11:34:40 1512146080.783481: $GPGSA,A,3,10,13,15,18,20,21,24,29,5,27,138,,2.0,0.8,1.5*34
2017-12-01 11:34:41 1512146081.332860: $GPZDA,163442.00,01,12,2017,00,00*66
2017-12-01 11:34:41 1512146081.333029: $GPGGA,163442,3946.9568,N,08404.9822,W,2,11,0.80,305.02,M,-33.324,M,,*72
2017-12-01 11:34:41 1512146081.333096: $GPRMC,163442,A,3946.9568,N,08404.9822,W,0.0000,0.000,011217,,*3E
2017-12-01 11:34:41 1512146081.333157: $GPGSA,A,3,10,13,15,18,20,21,24,29,5,27,138,,2.0,0.8,1.5*34
2017-12-01 11:34:42 1512146082.333652: $GPZDA,163443.00,01,12,2017,00,00*67
2017-12-01 11:34:42 1512146082.333830: $GPGGA,163443,3946.9572,N,08404.9822,W,2,11,0.80,305.66,M,-33.324,M,,*7A
2017-12-01 11:34:42 1512146082.333898: $GPRMC,163443,A,3946.9572,N,08404.9822,W,0.0000,0.000,011217,,*34
2017-12-01 11:34:42 1512146082.333959: $GPGSA,A,3,10,13,15,18,20,21,24,29,5,27,138,,2.0,0.8,1.5*34
2017-12-01 11:34:43 1512146083.665386: $GPGSV,3,1,12,10,10,268,35,13,47,052,47,15,78,090,48,18,40,282,45*7D
2017-12-01 11:34:43 1512146083.665568: $GPGSV,3,2,12,20,65,042,42,21,63,309,46,24,16,151,43,29,29,196,44*79
2017-12-01 11:34:43 1512146083.665635: $GPGSV,3,3,12,05,17,075,34,04,16,127,00,27,06,327,40,138,38,213,46*49
2017-12-01 11:34:43 1512146083.779128: $GPZDA,163444.00,01,12,2017,00,00*60
2017-12-01 11:34:43 1512146083.779296: $GPGGA,163444,3946.9572,N,08404.9822,W,2,11,0.80,305.66,M,-33.324,M,,*7D
2017-12-01 11:34:43 1512146083.779363: $GPRMC,163444,A,3946.9572,N,08404.9822,W,0.0000,0.000,011217,,*33
2017-12-01 11:34:43 1512146083.779424: $GPGSA,A,3,10,13,15,18,20,21,24,29,5,27,138,,2.0,0.8,1.5*34
2017-12-01 11:34:44 1512146084.404363: $GPZDA,163445.00,01,12,2017,00,00*61
2017-12-01 11:34:44 1512146084.404529: $GPGGA,163445,3946.9572,N,08404.9822,W,2,11,0.80,305.66,M,-33.324,M,,*7C
2017-12-01 11:34:44 1512146084.404595: $GPRMC,163445,A,3946.9572,N,08404.9822,W,0.0000,0.000,011217,,*32
2017-12-01 11:34:44 1512146084.404656: $GPGSA,A,3,10,13,15,18,20,21,24,29,5,27,138,,2.0,0.8,1.5*34
2017-12-01 11:34:45 1512146085.332767: $GPZDA,163446.00,01,12,2017,00,00*62
2017-12-01 11:34:45 1512146085.332954: $GPGGA,163446,3946.9572,N,08404.9822,W,2,11,0.80,305.66,M,-33.324,M,,*7F
2017-12-01 11:34:45 1512146085.333020: $GPRMC,163446,A,3946.9572,N,08404.9822,W,0.0000,0.000,011217,,*31
2017-12-01 11:34:45 1512146085.333081: $GPGSA,A,3,10,13,15,18,20,21,24,29,5,27,138,,2.0,0.8,1.5*34
2017-12-01 11:34:46 1512146086.670773: $GPGSV,3,1,12,10,10,268,35,13,47,052,47,15,78,090,48,18,40,282,45*7D
2017-12-01 11:34:46 1512146086.670954: $GPGSV,3,2,12,20,65,042,42,21,63,309,46,24,16,151,42,29,29,196,44*78
2017-12-01 11:34:46 1512146086.671021: $GPGSV,3,3,12,05,17,075,34,04,16,127,00,27,06,327,40,138,38,213,45*4A
2017-12-01 11:34:46 1512146086.784385: $GPZDA,163447.00,01,12,2017,00,00*63
2017-12-01 11:34:46 1512146086.784555: $GPGGA,163447,3946.9569,N,08404.9823,W,2,11,0.80,306.43,M,-33.324,M,,*71
2017-12-01 11:34:46 1512146086.784697: $GPRMC,163447,A,3946.9569,N,08404.9823,W,0.0000,0.000,011217,,*3B
2017-12-01 11:34:46 1512146086.784778: $GPGSA,A,3,10,13,15,18,20,21,24,29,5,27,138,,2.0,0.8,1.5*34
2017-12-01 11:34:47 1512146087.351686: $GPZDA,163448.00,01,12,2017,00,00*6C
2017-12-01 11:34:47 1512146087.351872: $GPGGA,163448,3946.9568,N,08404.9816,W,2,11,0.80,306.51,M,-33.324,M,,*7A
2017-12-01 11:34:47 1512146087.351939: $GPRMC,163448,A,3946.9568,N,08404.9816,W,0.0000,0.000,011217,,*33
2017-12-01 11:34:47 1512146087.352001: $GPGSA,A,3,10,13,15,18,20,21,24,29,5,27,138,,2.0,0.8,1.5*34
2017-12-01 11:34:48 1512146088.348384: $GPZDA,163449.00,01,12,2017,00,00*6D
2017-12-01 11:34:48 1512146088.348588: $GPGGA,163449,3946.9568,N,08404.9816,W,2,11,0.80,306.51,M,-33.324,M,,*7B
2017-12-01 11:34:48 1512146088.348658: $GPRMC,163449,A,3946.9568,N,08404.9816,W,0.0000,0.000,011217,,*32
2017-12-01 11:34:48 1512146088.348739: $GPGSA,A,3,10,13,15,18,20,21,24,29,5,27,138,,2.0,0.8,1.5*34
2017-12-01 11:34:49 1512146089.668529: $GPGSV,3,1,12,10,10,268,30,13,47,052,47,15,78,090,48,18,40,282,45*78
2017-12-01 11:34:49 1512146089.668743: $GPGSV,3,2,12,20,65,042,42,21,63,309,46,24,16,151,42,29,29,196,43*7F
2017-12-01 11:34:49 1512146089.668811: $GPGSV,3,3,12,05,17,075,34,04,16,127,00,27,06,327,40,138,38,213,46*49
2017-12-01 11:34:49 1512146089.782236: $GPZDA,163450.00,01,12,2017,00,00*65
2017-12-01 11:34:49 1512146089.782404: $GPGGA,163450,3946.9568,N,08404.9816,W,2,11,0.80,306.51,M,-33.324,M,,*73
2017-12-01 11:34:49 1512146089.782471: $GPRMC,163450,A,3946.9568,N,08404.9816,W,0.0000,0.000,011217,,*3A
2017-12-01 11:34:49 1512146089.782531: $GPGSA,A,3,10,13,15,18,20,21,24,29,5,27,138,,2.0,0.8,1.5*34
