2017-12-01 16:00:49 1512162049.046819: {"class":"VERSION","release":"3.16","rev":"3.16-4","proto_major":3,"proto_minor":11}
2017-12-01 16:00:49 1512162049.047224: {"class":"DEVICES","devices":[{"class":"DEVICE","path":"/dev/ttyUSB0","driver":"SiRF","subtype":"9\u0006GSD4e_4.1.2-P1_RPATCH.05-F-GPS-4R-1510281 11/03/2015 307","activated":"2017-12-01T21:00:48.736Z","flags":1,"native":1,"bps":4800,"parity":"N","stopbits":1,"cycle":1.00}]}
2017-12-01 16:00:49 1512162049.047343: {"class":"WATCH","enable":true,"json":false,"nmea":true,"raw":0,"scaled":false,"timing":false,"split24":false,"pps":false}
2017-12-01 16:00:49 1512162049.418548: $GPZDA,210050.00,01,12,2017,00,00*66
2017-12-01 16:00:49 1512162049.418719: $GPGGA,210050,3946.9572,N,08404.9846,W,2,12,0.80,310.40,M,-33.324,M,,*7A
2017-12-01 16:00:49 1512162049.418785: $GPRMC,210050,A,3946.9572,N,08404.9846,W,0.0000,0.000,011217,,*37
2017-12-01 16:00:49 1512162049.418847: $GPGSA,A,3,1,10,12,14,18,22,25,31,32,11,24,138,2.0,0.8,1.5*3B
2017-12-01 16:00:50 1512162050.756423: $GPGSV,3,1,12,01,17,313,32,10,62,139,48,12,25,063,44,14,59,303,44*75
2017-12-01 16:00:50 1512162050.756608: $GPGSV,3,2,12,18,31,139,43,22,08,312,39,25,34,108,49,31,42,216,48*77
2017-12-01 16:00:50 1512162050.756675: $GPGSV,3,3,12,32,70,349,47,11,11,295,30,24,08,046,00,138,38,213,45*40
2017-12-01 16:00:50 1512162050.869792: $GPZDA,210051.00,01,12,2017,00,00*67
2017-12-01 16:00:50 1512162050.869967: $GPGGA,210051,3946.9572,N,08404.9846,W,2,11,1.00,310.40,M,-33.324,M,,*71
2017-12-01 16:00:50 1512162050.870036: $GPRMC,210051,A,3946.9572,N,08404.9846,W,0.0000,0.000,011217,,*36
2017-12-01 16:00:50 1512162050.870098: $GPGSA,A,3,1,10,12,14,18,22,25,31,32,11,138,,2.0,1.0,1.5*34
2017-12-01 16:00:51 1512162051.419688: $GPZDA,210052.00,01,12,2017,00,00*64
2017-12-01 16:00:51 1512162051.419846: $GPGGA,210052,3946.9572,N,08404.9846,W,2,11,0.80,310.40,M,-33.324,M,,*7B
2017-12-01 16:00:51 1512162051.419913: $GPRMC,210052,A,3946.9572,N,08404.9846,W,0.0000,0.000,011217,,*35
2017-12-01 16:00:51 1512162051.419974: $GPGSA,A,3,1,10,12,14,18,22,25,31,32,11,138,,2.0,0.8,1.5*3D
2017-12-01 16:00:52 1512162052.419168: $GPZDA,210053.00,01,12,2017,00,00*65
2017-12-01 16:00:52 1512162052.419344: $GPGGA,210053,3946.9572,N,08404.9846,W,2,11,0.80,310.40,M,-33.324,M,,*7A
2017-12-01 16:00:52 1512162052.419411: $GPRMC,210053,A,3946.9572,N,08404.9846,W,0.0000,0.000,011217,,*34
2017-12-01 16:00:52 1512162052.419472: $GPGSA,A,3,1,10,12,14,18,22,25,31,32,11,138,,2.0,0.8,1.5*3D
2017-12-01 16:00:53 1512162053.757311: $GPGSV,3,1,12,01,17,313,32,10,62,139,48,12,25,063,44,14,59,303,43*72
2017-12-01 16:00:53 1512162053.757478: $GPGSV,3,2,12,18,31,139,43,22,08,312,39,25,34,108,48,31,42,216,48*76
2017-12-01 16:00:53 1512162053.757544: $GPGSV,3,3,12,32,70,349,47,11,11,295,29,24,08,046,21,138,38,213,45*4B
2017-12-01 16:00:53 1512162053.870668: $GPZDA,210054.00,01,12,2017,00,00*62
2017-12-01 16:00:53 1512162053.870846: $GPGGA,210054,3946.9572,N,08404.9846,W,2,11,1.00,310.40,M,-33.324,M,,*74
2017-12-01 16:00:53 1512162053.870918: $GPRMC,210054,A,3946.9572,N,08404.9846,W,0.0000,0.000,011217,,*33
2017-12-01 16:00:53 1512162053.870979: $GPGSA,A,3,1,10,12,14,18,22,25,31,32,11,138,,2.0,1.0,1.5*34
2017-12-01 16:00:54 1512162054.496073: $GPZDA,210055.00,01,12,2017,00,00*63
2017-12-01 16:00:54 1512162054.496250: $GPGGA,210055,3946.9572,N,08404.9846,W,2,11,0.80,310.40,M,-33.324,M,,*7C
2017-12-01 16:00:54 1512162054.496318: $GPRMC,210055,A,3946.9572,N,08404.9846,W,0.0000,0.000,011217,,*32
2017-12-01 16:00:54 1512162054.496379: $GPGSA,A,3,1,10,12,14,18,22,25,31,32,11,138,,2.0,0.8,1.5*3D
2017-12-01 16:00:55 1512162055.418173: $GPZDA,210056.00,01,12,2017,00,00*60
2017-12-01 16:00:55 1512162055.418352: $GPGGA,210056,3946.9572,N,08404.9846,W,2,11,0.80,310.40,M,-33.324,M,,*7F
2017-12-01 16:00:55 1512162055.418418: $GPRMC,210056,A,3946.9572,N,08404.9846,W,0.0000,0.000,011217,,*31
2017-12-01 16:00:55 1512162055.418479: $GPGSA,A,3,1,10,12,14,18,22,25,31,32,11,138,,2.0,0.8,1.5*3D
2017-12-01 16:00:56 1512162056.755161: $GPGSV,3,1,12,01,17,313,31,10,62,139,48,12,25,063,44,14,59,303,43*71
2017-12-01 16:00:56 1512162056.755398: $GPGSV,3,2,12,18,31,139,43,22,08,312,39,25,34,108,48,31,42,216,48*76
2017-12-01 16:00:56 1512162056.755470: $GPGSV,3,3,12,32,70,349,47,11,11,295,29,24,08,046,22,138,38,213,46*4B
2017-12-01 16:00:56 1512162056.868849: $GPZDA,210057.00,01,12,2017,00,00*61
2017-12-01 16:00:56 1512162056.868970: $GPGGA,210057,3946.9572,N,08404.9846,W,2,12,0.80,310.40,M,-33.324,M,,*7D
2017-12-01 16:00:56 1512162056.869036: $GPRMC,210057,A,3946.9572,N,08404.9846,W,0.0000,0.000,011217,,*30
2017-12-01 16:00:56 1512162056.869097: $GPGSA,A,3,1,10,12,14,18,22,25,31,32,11,24,138,2.0,0.8,1.5*3B
2017-12-01 16:00:57 1512162057.421087: $GPZDA,210058.00,01,12,2017,00,00*6E
2017-12-01 16:00:57 1512162057.421255: $GPGGA,210058,3946.9572,N,08404.9846,W,2,12,0.80,310.40,M,-33.324,M,,*72
2017-12-01 16:00:57 1512162057.421322: $GPRMC,210058,A,3946.9572,N,08404.9846,W,0.0000,0.000,011217,,*3F
2017-12-01 16:00:57 1512162057.421448: $GPGSA,A,3,1,10,12,14,18,22,25,31,32,11,24,138,2.0,0.8,1.5*3B
2017-12-01 16:00:58 1512162058.420276: $GPZDA,210059.00,01,12,2017,00,00*6F
2017-12-01 16:00:58 1512162058.420452: $GPGGA,210059,3946.9572,N,08404.9846,W,2,12,0.80,310.40,M,-33.324,M,,*73
2017-12-01 16:00:58 1512162058.420519: $GPRMC,210059,A,3946.9572,N,08404.9846,W,0.0000,0.000,011217,,*3E
2017-12-01 16:00:58 1512162058.420580: $GPGSA,A,3,1,10,12,14,18,22,25,31,32,11,24,138,2.0,0.8,1.5*3B
2017-12-01 16:00:59 1512162059.755569: $GPGSV,3,1,12,01,17,313,31,10,62,139,48,12,25,063,44,14,59,303,44*76
2017-12-01 16:00:59 1512162059.755748: $GPGSV,3,2,12,18,31,139,43,22,08,312,38,25,34,108,48,31,42,216,48*77
2017-12-01 16:00:59 1512162059.755816: $GPGSV,3,3,12,32,70,349,47,11,11,295,26,24,08,046,24,138,38,213,45*41
2017-12-01 16:00:59 1512162059.869277: $GPZDA,210100.00,01,12,2017,00,00*62
2017-12-01 16:00:59 1512162059.869453: $GPGGA,210100,3946.9572,N,08404.9846,W,2,12,0.80,310.40,M,-33.324,M,,*7E
2017-12-01 16:00:59 1512162059.869520: $GPRMC,210100,A,3946.9572,N,08404.9846,W,0.0000,0.000,011217,,*33
2017-12-01 16:00:59 1512162059.869581: $GPGSA,A,3,1,10,12,14,18,22,25,31,32,11,24,138,2.0,0.8,1.5*3B
2017-12-01 16:01:00 1512162060.934685: $GPZDA,210101.00,01,12,2017,00,00*63
2017-12-01 16:01:00 1512162060.934857: $GPGGA,210101,3946.9579,N,08404.9838,W,2,12,0.80,310.36,M,-33.324,M,,*7C
2017-12-01 16:01:00 1512162060.934924: $GPRMC,210101,A,3946.9579,N,08404.9838,W,0.2422,93.794,011217,,*06
2017-12-01 16:01:00 1512162060.934986: $GPGSA,A,3,1,10,12,14,18,22,25,31,32,11,24,138,2.0,0.8,1.5*3B
2017-12-01 16:01:01 1512162061.936018: $GPZDA,210102.00,01,12,2017,00,00*60
2017-12-01 16:01:01 1512162061.936204: $GPGGA,210102,3946.9579,N,08404.9838,W,2,12,0.80,310.36,M,-33.324,M,,*7F
2017-12-01 16:01:01 1512162061.936274: $GPRMC,210102,A,3946.9579,N,08404.9838,W,0.0000,0.000,011217,,*33
2017-12-01 16:01:01 1512162061.936336: $GPGSA,A,3,1,10,12,14,18,22,25,31,32,11,24,138,2.0,0.8,1.5*3B
2017-12-01 16:01:02 1512162062.756661: $GPGSV,3,1,12,01,17,313,26,10,62,139,48,12,25,063,44,14,59,303,44*70
2017-12-01 16:01:02 1512162062.756843: $GPGSV,3,2,12,18,30,139,43,22,08,312,38,25,34,106,48,31,42,216,49*79
2017-12-01 16:01:02 1512162062.756912: $GPGSV,3,3,12,32,70,349,47,11,11,294,28,24,08,046,24,138,38,213,46*4D
2017-12-01 16:01:02 1512162062.870110: $GPZDA,210103.00,01,12,2017,00,00*61
2017-12-01 16:01:02 1512162062.870255: $GPGGA,210103,3946.9579,N,08404.9838,W,2,12,0.80,310.36,M,-33.324,M,,*7E
2017-12-01 16:01:02 1512162062.870322: $GPRMC,210103,A,3946.9579,N,08404.9838,W,0.0000,0.000,011217,,*32
2017-12-01 16:01:02 1512162062.870383: $GPGSA,A,3,1,10,12,14,18,22,25,31,32,11,24,138,2.0,0.8,1.5*3B
2017-12-01 16:01:03 1512162063.419906: $GPZDA,210104.00,01,12,2017,00,00*66
2017-12-01 16:01:03 1512162063.420076: $GPGGA,210104,3946.9579,N,08404.9838,W,2,12,0.80,310.36,M,-33.324,M,,*79
2017-12-01 16:01:03 1512162063.420143: $GPRMC,210104,A,3946.9579,N,08404.9838,W,0.0000,0.000,011217,,*35
2017-12-01 16:01:03 1512162063.420205: $GPGSA,A,3,1,10,12,14,18,22,25,31,32,11,24,138,2.0,0.8,1.5*3B
2017-12-01 16:01:04 1512162064.418787: $GPZDA,210105.00,01,12,2017,00,00*67
2017-12-01 16:01:04 1512162064.418964: $GPGGA,210105,3946.9579,N,08404.9838,W,2,12,0.80,310.36,M,-33.324,M,,*78
2017-12-01 16:01:04 1512162064.419031: $GPRMC,210105,A,3946.9579,N,08404.9838,W,0.0000,0.000,011217,,*34
2017-12-01 16:01:04 1512162064.419092: $GPGSA,A,3,1,10,12,14,18,22,25,31,32,11,24,138,2.0,0.8,1.5*3B
2017-12-01 16:01:05 1512162065.755747: $GPGSV,3,1,12,01,17,313,34,10,62,139,48,12,25,063,44,14,59,303,44*73
2017-12-01 16:01:05 1512162065.755907: $GPGSV,3,2,12,18,30,139,43,22,08,312,39,25,34,106,49,31,42,216,49*79
2017-12-01 16:01:05 1512162065.755975: $GPGSV,3,3,12,32,70,349,47,11,11,294,24,24,08,046,25,138,38,213,46*40
2017-12-01 16:01:05 1512162065.869153: $GPZDA,210106.00,01,12,2017,00,00*64
2017-12-01 16:01:05 1512162065.869324: $GPGGA,210106,3946.9579,N,08404.9838,W,2,12,0.80,310.36,M,-33.324,M,,*7B
2017-12-01 16:01:05 1512162065.869391: $GPRMC,210106,A,3946.9579,N,08404.9838,W,0.0000,0.000,011217,,*37
2017-12-01 16:01:05 1512162065.869453: $GPGSA,A,3,1,10,12,14,18,22,25,31,32,11,24,138,2.0,0.8,1.5*3B
2017-12-01 16:01:06 1512162066.419985: $GPZDA,210107.00,01,12,2017,00,00*65
2017-12-01 16:01:06 1512162066.420158: $GPGGA,210107,3946.9579,N,08404.9838,W,2,12,0.80,310.36,M,-33.324,M,,*7A
2017-12-01 16:01:06 1512162066.420224: $GPRMC,210107,A,3946.9579,N,08404.9838,W,0.0000,0.000,011217,,*36
2017-12-01 16:01:06 1512162066.420285: $GPGSA,A,3,1,10,12,14,18,22,25,31,32,11,24,138,2.0,0.8,1.5*3B
2017-12-01 16:01:07 1512162067.419645: $GPZDA,210108.00,01,12,2017,00,00*6A
2017-12-01 16:01:07 1512162067.419817: $GPGGA,210108,3946.9579,N,08404.9838,W,2,12,0.80,310.36,M,-33.324,M,,*75
2017-12-01 16:01:07 1512162067.419885: $GPRMC,210108,A,3946.9579,N,08404.9838,W,0.0000,0.000,011217,,*39
2017-12-01 16:01:07 1512162067.419947: $GPGSA,A,3,1,10,12,14,18,22,25,31,32,11,24,138,2.0,0.8,1.5*3B
2017-12-01 16:01:08 1512162068.752889: $GPGSV,3,1,12,01,17,313,28,10,62,139,48,12,25,063,44,14,59,303,44*7E
2017-12-01 16:01:08 1512162068.753073: $GPGSV,3,2,12,18,30,139,43,22,08,312,39,25,34,106,49,31,42,216,48*78
2017-12-01 16:01:08 1512162068.753140: $GPGSV,3,3,12,32,70,349,47,11,11,294,27,24,08,046,25,138,38,213,45*40
2017-12-01 16:01:08 1512162068.866211: $GPZDA,210109.00,01,12,2017,00,00*6B
2017-12-01 16:01:08 1512162068.866355: $GPGGA,210109,3946.9579,N,08404.9838,W,2,12,0.80,310.36,M,-33.324,M,,*74
2017-12-01 16:01:08 1512162068.866421: $GPRMC,210109,A,3946.9579,N,08404.9838,W,0.0000,0.000,011217,,*38
2017-12-01 16:01:08 1512162068.866481: $GPGSA,A,3,1,10,12,14,18,22,25,31,32,11,24,138,2.0,0.8,1.5*3B
