2017-11-16 12:51:35 1510854695.476190: {"class":"VERSION","release":"3.17","rev":"3.17","proto_major":3,"proto_minor":12}
2017-11-16 12:51:35 1510854695.476599: {"class":"DEVICES","devices":[{"class":"DEVICE","path":"/dev/ttyUSB0","driver":"SiRF","subtype":"9\u0006GSD4e_4.1.2-P1_RPATCH.05-F-GPS-4R-1510281 11/03/2015 307","activated":"2017-11-16T17:51:35.333Z","flags":1,"native":1,"bps":4800,"parity":"N","stopbits":1,"cycle":1.00}]}
2017-11-16 12:51:35 1510854695.476715: {"class":"WATCH","enable":true,"json":false,"nmea":true,"raw":0,"scaled":false,"timing":false,"split24":false,"pps":false}
2017-11-16 12:51:35 1510854695.781847: $GPGSV,3,1,12,05,13,078,24,10,14,274,42,13,41,048,48,15,74,066,50*70
2017-11-16 12:51:35 1510854695.782015: $GPGSV,3,2,12,18,45,288,44,20,60,055,48,21,68,303,47,24,22,147,43*74
2017-11-16 12:51:35 1510854695.782075: $GPGSV,3,3,12,27,10,322,30,29,21,193,42,04,10,132,00,138,38,213,45*4E
2017-11-16 12:51:35 1510854695.895098: $GPZDA,175134.00,16,11,2017,00,00*60
2017-11-16 12:51:35 1510854695.895262: $GPGGA,175134,3946.9551,N,08404.9853,W,2,11,0.80,307.13,M,-33.324,M,,*7F
2017-11-16 12:51:35 1510854695.895324: $GPRMC,175134,A,3946.9551,N,08404.9853,W,0.0000,0.000,161117,,*34
2017-11-16 12:51:35 1510854695.895380: $GPGSA,A,3,5,10,13,15,18,20,21,24,27,29,138,,1.6,0.8,1.3*37
2017-11-16 12:51:36 1510854696.520585: $GPZDA,175135.00,16,11,2017,00,00*61
2017-11-16 12:51:36 1510854696.520765: $GPGGA,175135,3946.9551,N,08404.9853,W,2,11,0.80,307.13,M,-33.324,M,,*7E
2017-11-16 12:51:36 1510854696.520826: $GPRMC,175135,A,3946.9551,N,08404.9853,W,0.0000,0.000,161117,,*35
2017-11-16 12:51:36 1510854696.520882: $GPGSA,A,3,5,10,13,15,18,20,21,24,27,29,138,,1.6,0.8,1.3*37
2017-11-16 12:51:37 1510854697.466400: $GPZDA,175136.00,16,11,2017,00,00*62
2017-11-16 12:51:37 1510854697.466555: $GPGGA,175136,3946.9551,N,08404.9853,W,2,11,0.80,307.13,M,-33.324,M,,*7D
2017-11-16 12:51:37 1510854697.466616: $GPRMC,175136,A,3946.9551,N,08404.9853,W,0.0000,0.000,161117,,*36
2017-11-16 12:51:37 1510854697.466672: $GPGSA,A,3,5,10,13,15,18,20,21,24,27,29,138,,1.6,0.8,1.3*37
2017-11-16 12:51:38 1510854698.782109: $GPGSV,3,1,12,05,13,078,19,10,14,274,43,13,41,048,48,15,74,066,50*7F
2017-11-16 12:51:38 1510854698.782278: $GPGSV,3,2,12,18,45,288,44,20,60,055,48,21,68,303,47,24,22,147,43*74
2017-11-16 12:51:38 1510854698.782339: $GPGSV,3,3,12,27,10,322,30,29,21,193,42,04,10,132,00,138,38,213,45*4E
2017-11-16 12:51:38 1510854698.895469: $GPZDA,175137.00,16,11,2017,00,00*63
2017-11-16 12:51:38 1510854698.895630: $GPGGA,175137,3946.9551,N,08404.9853,W,2,11,0.80,307.13,M,-33.324,M,,*7C
2017-11-16 12:51:38 1510854698.895689: $GPRMC,175137,A,3946.9551,N,08404.9853,W,0.0000,0.000,161117,,*37
2017-11-16 12:51:38 1510854698.895744: $GPGSA,A,3,5,10,13,15,18,20,21,24,27,29,138,,1.6,0.8,1.3*37
2017-11-16 12:51:39 1510854699.443755: $GPZDA,175138.00,16,11,2017,00,00*6C
2017-11-16 12:51:39 1510854699.443926: $GPGGA,175138,3946.9551,N,08404.9853,W,2,11,0.80,307.13,M,-33.324,M,,*73
2017-11-16 12:51:39 1510854699.443988: $GPRMC,175138,A,3946.9551,N,08404.9853,W,0.0000,0.000,161117,,*38
2017-11-16 12:51:39 1510854699.444045: $GPGSA,A,3,5,10,13,15,18,20,21,24,27,29,138,,1.6,0.8,1.3*37
2017-11-16 12:51:40 1510854700.445851: $GPZDA,175139.00,16,11,2017,00,00*6D
2017-11-16 12:51:40 1510854700.446022: $GPGGA,175139,3946.9551,N,08404.9853,W,2,11,0.80,307.13,M,-33.324,M,,*72
2017-11-16 12:51:40 1510854700.446085: $GPRMC,175139,A,3946.9551,N,08404.9853,W,0.0000,0.000,161117,,*39
2017-11-16 12:51:40 1510854700.446140: $GPGSA,A,3,5,10,13,15,18,20,21,24,27,29,138,,1.6,0.8,1.3*37
2017-11-16 12:51:41 1510854701.797476: $GPGSV,3,1,12,05,13,078,22,10,14,274,43,13,41,048,49,15,74,066,49*7E
2017-11-16 12:51:41 1510854701.797617: $GPGSV,3,2,12,18,45,288,44,20,60,055,48,21,68,303,46,24,22,147,42*74
2017-11-16 12:51:41 1510854701.797677: $GPGSV,3,3,12,27,10,322,31,29,21,193,41,04,10,132,00,138,38,213,46*4F
2017-11-16 12:51:41 1510854701.910820: $GPZDA,175140.00,16,11,2017,00,00*63
2017-11-16 12:51:41 1510854701.910981: $GPGGA,175140,3946.9551,N,08404.9853,W,2,11,0.80,307.13,M,-33.324,M,,*7C
2017-11-16 12:51:41 1510854701.911094: $GPRMC,175140,A,3946.9551,N,08404.9853,W,0.0000,0.000,161117,,*37
2017-11-16 12:51:41 1510854701.911152: $GPGSA,A,3,5,10,13,15,18,20,21,24,27,29,138,,1.6,0.8,1.3*37
2017-11-16 12:51:42 1510854702.441799: $GPZDA,175141.00,16,11,2017,00,00*62
2017-11-16 12:51:42 1510854702.441972: $GPGGA,175141,3946.9551,N,08404.9853,W,2,11,0.80,307.13,M,-33.324,M,,*7D
2017-11-16 12:51:42 1510854702.442034: $GPRMC,175141,A,3946.9551,N,08404.9853,W,0.0000,0.000,161117,,*36
2017-11-16 12:51:42 1510854702.442090: $GPGSA,A,3,5,10,13,15,18,20,21,24,27,29,138,,1.6,0.8,1.3*37
2017-11-16 12:51:43 1510854703.462540: $GPZDA,175142.00,16,11,2017,00,00*61
2017-11-16 12:51:43 1510854703.462740: $GPGGA,175142,3946.9551,N,08404.9853,W,2,11,0.80,307.13,M,-33.324,M,,*7E
2017-11-16 12:51:43 1510854703.462827: $GPRMC,175142,A,3946.9551,N,08404.9853,W,0.0000,0.000,161117,,*35
2017-11-16 12:51:43 1510854703.462885: $GPGSA,A,3,5,10,13,15,18,20,21,24,27,29,138,,1.6,0.8,1.3*37
2017-11-16 12:51:44 1510854704.799527: $GPGSV,3,1,12,05,13,078,22,10,14,274,44,13,41,048,49,15,74,066,50*71
2017-11-16 12:51:44 1510854704.799697: $GPGSV,3,2,12,18,45,288,44,20,60,055,48,21,68,303,46,24,22,147,42*74
2017-11-16 12:51:44 1510854704.799757: $GPGSV,3,3,12,27,10,322,32,29,21,193,42,04,10,132,00,138,38,213,46*4F
2017-11-16 12:51:44 1510854704.912830: $GPZDA,175143.00,16,11,2017,00,00*60
2017-11-16 12:51:44 1510854704.912992: $GPGGA,175143,3946.9551,N,08404.9853,W,2,11,0.80,307.13,M,-33.324,M,,*7F
2017-11-16 12:51:44 1510854704.913053: $GPRMC,175143,A,3946.9551,N,08404.9853,W,0.0000,0.000,161117,,*34
2017-11-16 12:51:44 1510854704.913110: $GPGSA,A,3,5,10,13,15,18,20,21,24,27,29,138,,1.6,0.8,1.3*37
2017-11-16 12:51:45 1510854705.449923: $GPZDA,175144.00,16,11,2017,00,00*67
2017-11-16 12:51:45 1510854705.450085: $GPGGA,175144,3946.9551,N,08404.9853,W,2,11,0.80,307.13,M,-33.324,M,,*78
2017-11-16 12:51:45 1510854705.450146: $GPRMC,175144,A,3946.9551,N,08404.9853,W,0.0000,0.000,161117,,*33
2017-11-16 12:51:45 1510854705.450203: $GPGSA,A,3,5,10,13,15,18,20,21,24,27,29,138,,1.6,0.8,1.3*37
2017-11-16 12:51:46 1510854706.466516: $GPZDA,175145.00,16,11,2017,00,00*66
2017-11-16 12:51:46 1510854706.466678: $GPGGA,175145,3946.9551,N,08404.9853,W,2,11,0.80,307.13,M,-33.324,M,,*79
2017-11-16 12:51:46 1510854706.466739: $GPRMC,175145,A,3946.9551,N,08404.9853,W,0.0000,0.000,161117,,*32
2017-11-16 12:51:46 1510854706.466795: $GPGSA,A,3,5,10,13,15,18,20,21,24,27,29,138,,1.6,0.8,1.3*37
2017-11-16 12:51:47 1510854707.796087: $GPGSV,3,1,12,05,13,078,23,10,14,274,44,13,41,048,48,15,74,066,50*71
2017-11-16 12:51:47 1510854707.796255: $GPGSV,3,2,12,18,45,288,44,20,60,055,48,21,68,303,46,24,22,147,42*74
2017-11-16 12:51:47 1510854707.796319: $GPGSV,3,3,12,27,10,322,35,29,21,193,42,04,10,132,00,138,38,213,44*4A
2017-11-16 12:51:47 1510854707.909754: $GPZDA,175146.00,16,11,2017,00,00*65
2017-11-16 12:51:47 1510854707.909924: $GPGGA,175146,3946.9551,N,08404.9853,W,2,11,0.80,307.13,M,-33.324,M,,*7A
2017-11-16 12:51:47 1510854707.909985: $GPRMC,175146,A,3946.9551,N,08404.9853,W,0.0000,0.000,161117,,*31
2017-11-16 12:51:47 1510854707.910042: $GPGSA,A,3,5,10,13,15,18,20,21,24,27,29,138,,1.6,0.8,1.3*37
2017-11-16 12:51:48 1510854708.440428: $GPZDA,175147.00,16,11,2017,00,00*64
2017-11-16 12:51:48 1510854708.440596: $GPGGA,175147,3946.9551,N,08404.9853,W,2,11,0.80,307.13,M,-33.324,M,,*7B
2017-11-16 12:51:48 1510854708.440658: $GPRMC,175147,A,3946.9551,N,08404.9853,W,0.0000,0.000,161117,,*30
2017-11-16 12:51:48 1510854708.440714: $GPGSA,A,3,5,10,13,15,18,20,21,24,27,29,138,,1.6,0.8,1.3*37
2017-11-16 12:51:49 1510854709.439767: $GPZDA,175148.00,16,11,2017,00,00*6B
2017-11-16 12:51:49 1510854709.439958: $GPGGA,175148,3946.9551,N,08404.9853,W,2,11,0.80,307.13,M,-33.324,M,,*74
2017-11-16 12:51:49 1510854709.440021: $GPRMC,175148,A,3946.9551,N,08404.9853,W,0.0000,0.000,161117,,*3F
2017-11-16 12:51:49 1510854709.440077: $GPGSA,A,3,5,10,13,15,18,20,21,24,27,29,138,,1.6,0.8,1.3*37
2017-11-16 12:51:50 1510854710.795599: $GPGSV,3,1,12,05,13,078,23,10,14,274,43,13,41,048,49,15,74,066,49*7F
2017-11-16 12:51:50 1510854710.795823: $GPGSV,3,2,12,18,45,288,43,20,60,055,48,21,68,303,45,24,22,147,41*73
2017-11-16 12:51:50 1510854710.795885: $GPGSV,3,3,12,27,10,322,37,29,21,193,43,04,10,132,00,138,38,213,45*48
2017-11-16 12:51:50 1510854710.908911: $GPZDA,175149.00,16,11,2017,00,00*6A
2017-11-16 12:51:50 1510854710.909070: $GPGGA,175149,3946.9551,N,08404.9853,W,2,11,0.80,307.13,M,-33.324,M,,*75
2017-11-16 12:51:50 1510854710.909130: $GPRMC,175149,A,3946.9551,N,08404.9853,W,0.0000,0.000,161117,,*3E
2017-11-16 12:51:50 1510854710.909186: $GPGSA,A,3,5,10,13,15,18,20,21,24,27,29,138,,1.6,0.8,1.3*37
2017-11-16 12:51:51 1510854711.534973: $GPZDA,175150.00,16,11,2017,00,00*62
2017-11-16 12:51:51 1510854711.535166: $GPGGA,175150,3946.9551,N,08404.9853,W,2,11,0.80,307.13,M,-33.324,M,,*7D
2017-11-16 12:51:51 1510854711.535230: $GPRMC,175150,A,3946.9551,N,08404.9853,W,0.0000,0.000,161117,,*36
2017-11-16 12:51:51 1510854711.535288: $GPGSA,A,3,5,10,13,15,18,20,21,24,27,29,138,,1.6,0.8,1.3*37
2017-11-16 12:51:52 1510854712.442672: $GPZDA,175151.00,16,11,2017,00,00*63
2017-11-16 12:51:52 1510854712.442848: $GPGGA,175151,3946.9551,N,08404.9853,W,2,11,0.80,307.13,M,-33.324,M,,*7C
2017-11-16 12:51:52 1510854712.442914: $GPRMC,175151,A,3946.9551,N,08404.9853,W,0.0000,0.000,161117,,*37
2017-11-16 12:51:52 1510854712.442973: $GPGSA,A,3,5,10,13,15,18,20,21,24,27,29,138,,1.6,0.8,1.3*37
2017-11-16 12:51:53 1510854713.797102: $GPGSV,3,1,12,05,13,078,24,10,14,274,42,13,41,048,49,15,74,066,49*79
2017-11-16 12:51:53 1510854713.797283: $GPGSV,3,2,12,18,45,288,43,20,60,055,48,21,68,303,45,24,22,147,42*70
2017-11-16 12:51:53 1510854713.797344: $GPGSV,3,3,12,27,10,322,39,29,21,193,43,04,10,132,00,138,38,213,45*46
2017-11-16 12:51:53 1510854713.909251: $GPZDA,175152.00,16,11,2017,00,00*60
2017-11-16 12:51:53 1510854713.909414: $GPGGA,175152,3946.9551,N,08404.9853,W,2,11,0.80,307.13,M,-33.324,M,,*7F
2017-11-16 12:51:53 1510854713.909475: $GPRMC,175152,A,3946.9551,N,08404.9853,W,0.0000,0.000,161117,,*34
2017-11-16 12:51:53 1510854713.909532: $GPGSA,A,3,5,10,13,15,18,20,21,24,27,29,138,,1.6,0.8,1.3*37
2017-11-16 12:51:54 1510854714.445007: $GPZDA,175153.00,16,11,2017,00,00*61
2017-11-16 12:51:54 1510854714.445194: $GPGGA,175153,3946.9551,N,08404.9853,W,2,11,0.80,307.13,M,-33.324,M,,*7E
2017-11-16 12:51:54 1510854714.445258: $GPRMC,175153,A,3946.9551,N,08404.9853,W,0.0000,0.000,161117,,*35
2017-11-16 12:51:54 1510854714.445315: $GPGSA,A,3,5,10,13,15,18,20,21,24,27,29,138,,1.6,0.8,1.3*37
2017-11-16 12:51:55 1510854715.438378: $GPZDA,175154.00,16,11,2017,00,00*66
2017-11-16 12:51:55 1510854715.438545: $GPGGA,175154,3946.9551,N,08404.9853,W,2,11,0.80,307.13,M,-33.324,M,,*79
2017-11-16 12:51:55 1510854715.438608: $GPRMC,175154,A,3946.9551,N,08404.9853,W,0.0000,0.000,161117,,*32
2017-11-16 12:51:55 1510854715.438664: $GPGSA,A,3,5,10,13,15,18,20,21,24,27,29,138,,1.6,0.8,1.3*37
2017-11-16 12:51:56 1510854716.792510: $GPGSV,3,1,12,05,13,078,25,10,14,274,42,13,41,048,49,15,74,066,49*78
2017-11-16 12:51:56 1510854716.792708: $GPGSV,3,2,12,18,45,288,44,20,60,055,48,21,68,303,45,24,22,147,42*77
2017-11-16 12:51:56 1510854716.792769: $GPGSV,3,3,12,27,10,322,40,29,21,193,43,04,10,132,00,138,38,213,44*49
2017-11-16 12:51:56 1510854716.905744: $GPZDA,175155.00,16,11,2017,00,00*67
2017-11-16 12:51:56 1510854716.905906: $GPGGA,175155,3946.9551,N,08404.9853,W,2,11,0.80,307.13,M,-33.324,M,,*78
2017-11-16 12:51:56 1510854716.905969: $GPRMC,175155,A,3946.9551,N,08404.9853,W,0.0000,0.000,161117,,*33
2017-11-16 12:51:56 1510854716.906025: $GPGSA,A,3,5,10,13,15,18,20,21,24,27,29,138,,1.6,0.8,1.3*37
2017-11-16 12:51:57 1510854717.450413: $GPZDA,175156.00,16,11,2017,00,00*64
2017-11-16 12:51:57 1510854717.450574: $GPGGA,175156,3946.9551,N,08404.9853,W,2,11,0.80,307.13,M,-33.324,M,,*7B
2017-11-16 12:51:57 1510854717.450635: $GPRMC,175156,A,3946.9551,N,08404.9853,W,0.0000,0.000,161117,,*30
2017-11-16 12:51:57 1510854717.450693: $GPGSA,A,3,5,10,13,15,18,20,21,24,27,29,138,,1.6,0.8,1.3*37
2017-11-16 12:51:58 1510854718.460422: $GPZDA,175157.00,16,11,2017,00,00*65
2017-11-16 12:51:58 1510854718.460637: $GPGGA,175157,3946.9551,N,08404.9853,W,2,11,0.80,307.13,M,-33.324,M,,*7A
2017-11-16 12:51:58 1510854718.460703: $GPRMC,175157,A,3946.9551,N,08404.9853,W,0.0000,0.000,161117,,*31
2017-11-16 12:51:58 1510854718.460762: $GPGSA,A,3,5,10,13,15,18,20,21,24,27,29,138,,1.6,0.8,1.3*37
2017-11-16 12:51:59 1510854719.782078: $GPGSV,3,1,12,05,13,078,25,10,14,274,43,13,41,048,48,15,74,066,49*78
2017-11-16 12:51:59 1510854719.782280: $GPGSV,3,2,12,18,45,288,43,20,60,055,48,21,68,303,45,24,22,147,42*70
2017-11-16 12:51:59 1510854719.782369: $GPGSV,3,3,12,27,10,322,42,29,21,193,43,04,10,132,00,138,38,213,45*4A
2017-11-16 12:51:59 1510854719.895628: $GPZDA,175158.00,16,11,2017,00,00*6A
2017-11-16 12:51:59 1510854719.895792: $GPGGA,175158,3946.9551,N,08404.9853,W,2,11,0.80,307.13,M,-33.324,M,,*75
2017-11-16 12:51:59 1510854719.895858: $GPRMC,175158,A,3946.9551,N,08404.9853,W,0.0000,0.000,161117,,*3E
2017-11-16 12:51:59 1510854719.895917: $GPGSA,A,3,5,10,13,15,18,20,21,24,27,29,138,,1.6,0.8,1.3*37
2017-11-16 12:52:00 1510854720.445287: $GPZDA,175159.00,16,11,2017,00,00*6B
2017-11-16 12:52:00 1510854720.445455: $GPGGA,175159,3946.9551,N,08404.9853,W,2,11,0.80,307.13,M,-33.324,M,,*74
2017-11-16 12:52:00 1510854720.445520: $GPRMC,175159,A,3946.9551,N,08404.9853,W,0.0000,0.000,161117,,*3F
2017-11-16 12:52:00 1510854720.445580: $GPGSA,A,3,5,10,13,15,18,20,21,24,27,29,138,,1.6,0.8,1.3*37
2017-11-16 12:52:01 1510854721.461746: $GPZDA,175200.00,16,11,2017,00,00*64
2017-11-16 12:52:01 1510854721.461913: $GPGGA,175200,3946.9551,N,08404.9853,W,2,11,0.80,307.13,M,-33.324,M,,*7B
2017-11-16 12:52:01 1510854721.462007: $GPRMC,175200,A,3946.9551,N,08404.9853,W,0.0000,0.000,161117,,*30
2017-11-16 12:52:01 1510854721.462084: $GPGSA,A,3,5,10,13,15,18,20,21,24,27,29,138,,1.6,0.8,1.3*37
2017-11-16 12:52:02 1510854722.791121: $GPGSV,3,1,12,05,13,078,18,10,14,274,43,13,41,048,49,15,74,066,49*77
2017-11-16 12:52:02 1510854722.791295: $GPGSV,3,2,12,18,45,288,43,20,60,055,48,21,68,303,45,24,22,147,42*70
2017-11-16 12:52:02 1510854722.791358: $GPGSV,3,3,12,27,10,322,43,29,21,193,43,04,10,132,00,138,38,213,45*4B
2017-11-16 12:52:02 1510854722.904431: $GPZDA,175201.00,16,11,2017,00,00*65
2017-11-16 12:52:02 1510854722.904598: $GPGGA,175201,3946.9551,N,08404.9853,W,2,11,0.80,307.13,M,-33.324,M,,*7A
2017-11-16 12:52:02 1510854722.904664: $GPRMC,175201,A,3946.9551,N,08404.9853,W,0.0000,0.000,161117,,*31
2017-11-16 12:52:02 1510854722.904723: $GPGSA,A,3,5,10,13,15,18,20,21,24,27,29,138,,1.6,0.8,1.3*37
2017-11-16 12:52:03 1510854723.444119: $GPZDA,175202.00,16,11,2017,00,00*66
2017-11-16 12:52:03 1510854723.444302: $GPGGA,175202,3946.9551,N,08404.9853,W,2,11,0.80,307.13,M,-33.324,M,,*79
2017-11-16 12:52:03 1510854723.444373: $GPRMC,175202,A,3946.9551,N,08404.9853,W,0.0000,0.000,161117,,*32
2017-11-16 12:52:03 1510854723.444458: $GPGSA,A,3,5,10,13,15,18,20,21,24,27,29,138,,1.6,0.8,1.3*37
2017-11-16 12:52:04 1510854724.460136: $GPZDA,175203.00,16,11,2017,00,00*67
2017-11-16 12:52:04 1510854724.460355: $GPGGA,175203,3946.9551,N,08404.9853,W,2,11,0.80,307.13,M,-33.324,M,,*78
2017-11-16 12:52:04 1510854724.460428: $GPRMC,175203,A,3946.9551,N,08404.9853,W,0.0000,0.000,161117,,*33
2017-11-16 12:52:04 1510854724.460490: $GPGSA,A,3,5,10,13,15,18,20,21,24,27,29,138,,1.6,0.8,1.3*37
