2017-12-31 18:39:58 1514763598.770233: {"class":"VERSION","release":"3.16","rev":"3.16-4","proto_major":3,"proto_minor":11}
2017-12-31 18:39:58 1514763598.770579: {"class":"DEVICES","devices":[{"class":"DEVICE","path":"/dev/ttyUSB0","driver":"SiRF","activated":"2017-12-31T23:39:58.494Z","flags":1,"native":1,"bps":4800,"parity":"N","stopbits":1,"cycle":1.00}]}
2017-12-31 18:39:58 1514763598.770678: {"class":"WATCH","enable":true,"json":false,"nmea":true,"raw":0,"scaled":false,"timing":false,"split24":false,"pps":false}
2017-12-31 18:39:59 1514763599.353541: $GPZDA,234000.00,31,12,2017,00,00*66
2017-12-31 18:39:59 1514763599.353699: $GPGGA,234000,3946.9585,N,08404.9843,W,2,12,0.80,307.35,M,-33.324,M,,*70
2017-12-31 18:39:59 1514763599.353766: $GPRMC,234000,A,3946.9585,N,08404.9843,W,0.0000,0.000,311217,,*3A
2017-12-31 18:39:59 1514763599.353828: $GPGSA,A,3,22,23,9,3,16,8,14,31,27,7,26,135,1.7,0.8,1.3*0C
2017-12-31 18:40:00 1514763600.688669: $GPGSV,3,1,12,22,11,205,28,23,65,291,39,09,32,310,40,03,21,223,36*7F
2017-12-31 18:40:00 1514763600.688846: $GPGSV,3,2,12,16,82,039,42,08,12,177,05,14,03,139,12,31,19,085,39*76
2017-12-31 18:40:00 1514763600.688913: $GPGSV,3,3,12,27,35,145,41,07,07,282,42,26,48,046,44,135,22,240,44*49
2017-12-31 18:40:00 1514763600.802071: $GPZDA,234001.00,31,12,2017,00,00*67
2017-12-31 18:40:00 1514763600.802259: $GPGGA,234001,3946.9585,N,08404.9843,W,2,11,0.80,307.35,M,-33.324,M,,*72
2017-12-31 18:40:00 1514763600.802325: $GPRMC,234001,A,3946.9585,N,08404.9843,W,0.0000,0.000,311217,,*3B
2017-12-31 18:40:00 1514763600.802386: $GPGSA,A,3,22,23,9,3,16,14,31,27,7,26,135,,1.7,0.8,1.3*34
2017-12-31 18:40:01 1514763601.354461: $GPZDA,234002.00,31,12,2017,00,00*64
2017-12-31 18:40:01 1514763601.354606: $GPGGA,234002,3946.9585,N,08404.9843,W,2,11,0.80,307.35,M,-33.324,M,,*71
2017-12-31 18:40:01 1514763601.354672: $GPRMC,234002,A,3946.9585,N,08404.9843,W,0.0000,0.000,311217,,*38
2017-12-31 18:40:01 1514763601.354733: $GPGSA,A,3,22,23,9,3,16,14,31,27,7,26,135,,1.7,0.8,1.3*34
2017-12-31 18:40:02 1514763602.345129: $GPZDA,234003.00,31,12,2017,00,00*65
2017-12-31 18:40:02 1514763602.345300: $GPGGA,234003,3946.9585,N,08404.9843,W,2,11,0.80,307.35,M,-33.324,M,,*70
2017-12-31 18:40:02 1514763602.345367: $GPRMC,234003,A,3946.9585,N,08404.9843,W,0.0000,0.000,311217,,*39
2017-12-31 18:40:02 1514763602.345428: $GPGSA,A,3,22,23,9,3,16,14,31,27,7,26,135,,1.7,0.8,1.3*34
2017-12-31 18:40:03 1514763603.688292: $GPGSV,3,1,12,22,11,205,28,23,65,291,39,09,32,310,40,03,21,223,36*7F
2017-12-31 18:40:03 1514763603.688483: $GPGSV,3,2,12,16,82,039,42,08,12,177,27,14,03,139,15,31,19,085,39*71
2017-12-31 18:40:03 1514763603.688586: $GPGSV,3,3,12,27,35,145,41,07,07,282,43,26,48,046,44,135,22,240,44*48
2017-12-31 18:40:03 1514763603.801962: $GPZDA,234004.00,31,12,2017,00,00*62
2017-12-31 18:40:03 1514763603.802128: $GPGGA,234004,3946.9585,N,08404.9843,W,2,12,0.80,307.35,M,-33.324,M,,*74
2017-12-31 18:40:03 1514763603.802193: $GPRMC,234004,A,3946.9585,N,08404.9843,W,0.0000,0.000,311217,,*3E
2017-12-31 18:40:03 1514763603.802254: $GPGSA,A,3,22,23,9,3,16,8,14,31,27,7,26,135,1.7,0.8,1.3*0C
2017-12-31 18:40:04 1514763604.352886: $GPZDA,234005.00,31,12,2017,00,00*63
2017-12-31 18:40:04 1514763604.353055: $GPGGA,234005,3946.9585,N,08404.9843,W,2,12,0.80,307.35,M,-33.324,M,,*75
2017-12-31 18:40:04 1514763604.353122: $GPRMC,234005,A,3946.9585,N,08404.9843,W,0.0000,0.000,311217,,*3F
2017-12-31 18:40:04 1514763604.353182: $GPGSA,A,3,22,23,9,3,16,8,14,31,27,7,26,135,1.7,0.8,1.3*0C
2017-12-31 18:40:05 1514763605.353294: $GPZDA,234006.00,31,12,2017,00,00*60
2017-12-31 18:40:05 1514763605.353462: $GPGGA,234006,3946.9585,N,08404.9843,W,2,12,0.80,307.35,M,-33.324,M,,*76
2017-12-31 18:40:05 1514763605.353528: $GPRMC,234006,A,3946.9585,N,08404.9843,W,0.0000,0.000,311217,,*3C
2017-12-31 18:40:05 1514763605.353588: $GPGSA,A,3,22,23,9,3,16,8,14,31,27,7,26,135,1.7,0.8,1.3*0C
2017-12-31 18:40:06 1514763606.724862: $GPGSV,3,1,12,22,11,205,27,23,65,291,40,09,32,310,41,03,21,223,37*7E
2017-12-31 18:40:06 1514763606.725031: $GPGSV,3,2,12,16,82,039,42,08,12,177,26,14,03,139,16,31,19,085,39*73
2017-12-31 18:40:06 1514763606.725154: $GPGSV,3,3,12,27,35,145,41,07,07,282,43,26,48,046,44,135,22,240,43*4F
2017-12-31 18:40:06 1514763606.838685: $GPZDA,234007.00,31,12,2017,00,00*61
2017-12-31 18:40:06 1514763606.838850: $GPGGA,234007,3946.9585,N,08404.9843,W,2,12,0.80,307.35,M,-33.324,M,,*77
2017-12-31 18:40:06 1514763606.838916: $GPRMC,234007,A,3946.9585,N,08404.9843,W,0.0000,0.000,311217,,*3D
2017-12-31 18:40:06 1514763606.838977: $GPGSA,A,3,22,23,9,3,16,8,14,31,27,7,26,135,1.7,0.8,1.3*0C
2017-12-31 18:40:07 1514763607.346660: $GPZDA,234008.00,31,12,2017,00,00*6E
2017-12-31 18:40:07 1514763607.346833: $GPGGA,234008,3946.9585,N,08404.9843,W,2,12,0.80,307.35,M,-33.324,M,,*78
2017-12-31 18:40:07 1514763607.346900: $GPRMC,234008,A,3946.9585,N,08404.9843,W,0.0000,0.000,311217,,*32
2017-12-31 18:40:07 1514763607.346962: $GPGSA,A,3,22,23,9,3,16,8,14,31,27,7,26,135,1.7,0.8,1.3*0C
2017-12-31 18:40:08 1514763608.387536: $GPZDA,234009.00,31,12,2017,00,00*6F
2017-12-31 18:40:08 1514763608.387701: $GPGGA,234009,3946.9585,N,08404.9843,W,2,12,0.80,307.35,M,-33.324,M,,*79
2017-12-31 18:40:08 1514763608.387768: $GPRMC,234009,A,3946.9585,N,08404.9843,W,0.0000,0.000,311217,,*33
2017-12-31 18:40:08 1514763608.387829: $GPGSA,A,3,22,23,9,3,16,8,14,31,27,7,26,135,1.7,0.8,1.3*0C
