2017-11-16 17:25:45 1510871145.702597: {"class":"VERSION","release":"3.17","rev":"3.17","proto_major":3,"proto_minor":12}
2017-11-16 17:25:45 1510871145.703009: {"class":"DEVICES","devices":[{"class":"DEVICE","path":"/dev/ttyUSB0","driver":"SiRF","subtype":"9\u0006GSD4e_4.1.2-P1_RPATCH.05-F-GPS-4R-1510281 11/03/2015 307","activated":"2017-11-16T22:25:45.287Z","flags":1,"native":1,"bps":4800,"parity":"N","stopbits":1,"cycle":1.00}]}
2017-11-16 17:25:45 1510871145.703122: {"class":"WATCH","enable":true,"json":false,"nmea":true,"raw":0,"scaled":false,"timing":false,"split24":false,"pps":false}
2017-11-16 17:25:45 1510871145.737175: $GPGSV,3,1,11,01,21,304,38,10,51,147,49,22,16,312,38,12,23,052,50*73
2017-11-16 17:25:45 1510871145.737329: $GPGSV,3,2,11,14,65,321,46,18,21,142,35,11,09,285,40,25,39,094,47*76
2017-11-16 17:25:45 1510871145.737387: $GPGSV,3,3,11,31,52,222,49,32,69,018,49,138,38,213,44*78
2017-11-16 17:25:45 1510871145.850726: $GPZDA,222544.00,16,11,2017,00,00*62
2017-11-16 17:25:45 1510871145.850874: $GPGGA,222544,3946.9573,N,08404.9837,W,2,11,0.80,306.91,M,-33.324,M,,*74
2017-11-16 17:25:45 1510871145.850932: $GPRMC,222544,A,3946.9573,N,08404.9837,W,0.0000,0.000,161117,,*34
2017-11-16 17:25:45 1510871145.850987: $GPGSA,A,3,1,10,22,12,14,18,11,25,31,32,138,,1.6,0.8,1.3*3E
2017-11-16 17:25:46 1510871146.475977: $GPZDA,222545.00,16,11,2017,00,00*63
2017-11-16 17:25:46 1510871146.476147: $GPGGA,222545,3946.9573,N,08404.9837,W,2,11,0.80,306.91,M,-33.324,M,,*75
2017-11-16 17:25:46 1510871146.476210: $GPRMC,222545,A,3946.9573,N,08404.9837,W,0.0000,0.000,161117,,*35
2017-11-16 17:25:46 1510871146.476267: $GPGSA,A,3,1,10,22,12,14,18,11,25,31,32,138,,1.6,0.8,1.3*3E
2017-11-16 17:25:47 1510871147.420488: $GPZDA,222546.00,16,11,2017,00,00*60
2017-11-16 17:25:47 1510871147.420663: $GPGGA,222546,3946.9573,N,08404.9837,W,2,11,0.80,306.91,M,-33.324,M,,*76
2017-11-16 17:25:47 1510871147.420727: $GPRMC,222546,A,3946.9573,N,08404.9837,W,0.0000,0.000,161117,,*36
2017-11-16 17:25:47 1510871147.420783: $GPGSA,A,3,1,10,22,12,14,18,11,25,31,32,138,,1.6,0.8,1.3*3E
2017-11-16 17:25:48 1510871148.738823: $GPGSV,3,1,11,01,21,304,37,10,51,147,49,22,16,312,38,12,23,052,50*7C
2017-11-16 17:25:48 1510871148.738990: $GPGSV,3,2,11,14,65,321,47,18,21,142,35,11,09,285,40,25,39,094,48*78
2017-11-16 17:25:48 1510871148.739051: $GPGSV,3,3,11,31,52,222,49,32,69,018,49,138,38,213,45*79
2017-11-16 17:25:48 1510871148.852095: $GPZDA,222547.00,16,11,2017,00,00*61
2017-11-16 17:25:48 1510871148.852261: $GPGGA,222547,3946.9573,N,08404.9837,W,2,11,0.80,306.91,M,-33.324,M,,*77
2017-11-16 17:25:48 1510871148.852323: $GPRMC,222547,A,3946.9573,N,08404.9837,W,0.0000,0.000,161117,,*37
2017-11-16 17:25:48 1510871148.852379: $GPGSA,A,3,1,10,22,12,14,18,11,25,31,32,138,,1.6,0.8,1.3*3E
2017-11-16 17:25:49 1510871149.401721: $GPZDA,222548.00,16,11,2017,00,00*6E
2017-11-16 17:25:49 1510871149.401890: $GPGGA,222548,3946.9573,N,08404.9837,W,2,11,0.80,306.91,M,-33.324,M,,*78
2017-11-16 17:25:49 1510871149.401954: $GPRMC,222548,A,3946.9573,N,08404.9837,W,0.0000,0.000,161117,,*38
2017-11-16 17:25:49 1510871149.402010: $GPGSA,A,3,1,10,22,12,14,18,11,25,31,32,138,,1.6,0.8,1.3*3E
2017-11-16 17:25:50 1510871150.396364: $GPZDA,222549.00,16,11,2017,00,00*6F
2017-11-16 17:25:50 1510871150.396538: $GPGGA,222549,3946.9573,N,08404.9837,W,2,11,0.80,306.91,M,-33.324,M,,*79
2017-11-16 17:25:50 1510871150.396602: $GPRMC,222549,A,3946.9573,N,08404.9837,W,0.0000,0.000,161117,,*39
2017-11-16 17:25:50 1510871150.396659: $GPGSA,A,3,1,10,22,12,14,18,11,25,31,32,138,,1.6,0.8,1.3*3E
2017-11-16 17:25:51 1510871151.756663: $GPGSV,3,1,11,01,21,304,36,10,51,147,49,22,16,312,37,12,23,052,50*72
2017-11-16 17:25:51 1510871151.756833: $GPGSV,3,2,11,14,65,321,47,18,21,142,35,11,09,285,40,25,39,094,48*78
2017-11-16 17:25:51 1510871151.756892: $GPGSV,3,3,11,31,52,222,50,32,69,018,49,138,38,213,44*70
2017-11-16 17:25:51 1510871151.869916: $GPZDA,222550.00,16,11,2017,00,00*67
2017-11-16 17:25:51 1510871151.870099: $GPGGA,222550,3946.9573,N,08404.9837,W,2,11,0.80,306.91,M,-33.324,M,,*71
2017-11-16 17:25:51 1510871151.870243: $GPRMC,222550,A,3946.9573,N,08404.9837,W,0.0000,0.000,161117,,*31
2017-11-16 17:25:51 1510871151.870307: $GPGSA,A,3,1,10,22,12,14,18,11,25,31,32,138,,1.6,0.8,1.3*3E
2017-11-16 17:25:52 1510871152.420803: $GPZDA,222551.00,16,11,2017,00,00*66
2017-11-16 17:25:52 1510871152.420973: $GPGGA,222551,3946.9573,N,08404.9837,W,2,11,0.80,306.91,M,-33.324,M,,*70
2017-11-16 17:25:52 1510871152.421038: $GPRMC,222551,A,3946.9573,N,08404.9837,W,0.0000,0.000,161117,,*30
2017-11-16 17:25:52 1510871152.421094: $GPGSA,A,3,1,10,22,12,14,18,11,25,31,32,138,,1.6,0.8,1.3*3E
2017-11-16 17:25:53 1510871153.401942: $GPZDA,222552.00,16,11,2017,00,00*65
2017-11-16 17:25:53 1510871153.402104: $GPGGA,222552,3946.9573,N,08404.9837,W,2,11,0.80,306.91,M,-33.324,M,,*73
2017-11-16 17:25:53 1510871153.402166: $GPRMC,222552,A,3946.9573,N,08404.9837,W,0.0000,0.000,161117,,*33
2017-11-16 17:25:53 1510871153.402224: $GPGSA,A,3,1,10,22,12,14,18,11,25,31,32,138,,1.6,0.8,1.3*3E
2017-11-16 17:25:54 1510871154.757486: $GPGSV,3,1,11,01,21,304,36,10,51,147,49,22,16,312,38,12,23,052,50*7D
2017-11-16 17:25:54 1510871154.757657: $GPGSV,3,2,11,14,65,321,47,18,21,142,34,11,09,285,40,25,39,094,47*76
2017-11-16 17:25:54 1510871154.757718: $GPGSV,3,3,11,31,52,222,50,32,69,018,49,138,38,213,44*70
2017-11-16 17:25:54 1510871154.870771: $GPZDA,222553.00,16,11,2017,00,00*64
2017-11-16 17:25:54 1510871154.870954: $GPGGA,222553,3946.9573,N,08404.9837,W,2,11,0.80,306.91,M,-33.324,M,,*72
2017-11-16 17:25:54 1510871154.871019: $GPRMC,222553,A,3946.9573,N,08404.9837,W,0.0000,0.000,161117,,*32
2017-11-16 17:25:54 1510871154.871075: $GPGSA,A,3,1,10,22,12,14,18,11,25,31,32,138,,1.6,0.8,1.3*3E
2017-11-16 17:25:55 1510871155.420576: $GPZDA,222554.00,16,11,2017,00,00*63
2017-11-16 17:25:55 1510871155.420776: $GPGGA,222554,3946.9573,N,08404.9837,W,2,11,0.80,306.91,M,-33.324,M,,*75
2017-11-16 17:25:55 1510871155.420840: $GPRMC,222554,A,3946.9573,N,08404.9837,W,0.0000,0.000,161117,,*35
2017-11-16 17:25:55 1510871155.420898: $GPGSA,A,3,1,10,22,12,14,18,11,25,31,32,138,,1.6,0.8,1.3*3E
