2017-11-16 13:30:01 1510857001.900229: {"class":"VERSION","release":"3.17","rev":"3.17","proto_major":3,"proto_minor":12}
2017-11-16 13:30:01 1510857001.900778: {"class":"DEVICES","devices":[{"class":"DEVICE","path":"/dev/ttyUSB0","driver":"SiRF","subtype":"9\u0006GSD4e_4.1.2-P1_RPATCH.05-F-GPS-4R-1510281 11/03/2015 307","activated":"2017-11-16T18:30:01.429Z","flags":1,"native":1,"bps":4800,"parity":"N","stopbits":1,"cycle":1.00}]}
2017-11-16 13:30:01 1510857001.900897: {"class":"WATCH","enable":true,"json":false,"nmea":true,"raw":0,"scaled":false,"timing":false,"split24":false,"pps":false}
2017-11-16 13:30:02 1510857002.287473: $GPZDA,183001.00,16,11,2017,00,00*6E
2017-11-16 13:30:02 1510857002.287637: $GPGGA,183001,3946.9615,N,08404.9845,W,2,12,0.80,303.96,M,-33.324,M,,*7F
2017-11-16 13:30:02 1510857002.287698: $GPRMC,183001,A,3946.9615,N,08404.9845,W,0.0000,0.000,161117,,*3E
2017-11-16 13:30:02 1510857002.287755: $GPGSA,A,3,10,13,15,18,20,21,24,27,29,5,32,138,1.6,0.8,1.3*36
2017-11-16 13:30:03 1510857003.600446: $GPGSV,3,1,12,10,27,286,43,13,24,045,46,15,56,049,50,18,58,306,46*7C
2017-11-16 13:30:03 1510857003.600613: $GPGSV,3,2,12,20,47,078,48,21,78,244,46,24,38,135,44,27,18,309,43*7E
2017-11-16 13:30:03 1510857003.600673: $GPGSV,3,3,12,29,05,187,28,05,01,090,23,32,05,228,31,138,38,213,46*41
2017-11-16 13:30:03 1510857003.713678: $GPZDA,183002.00,16,11,2017,00,00*6D
2017-11-16 13:30:03 1510857003.713861: $GPGGA,183002,3946.9615,N,08404.9845,W,2,12,0.80,303.96,M,-33.324,M,,*7C
2017-11-16 13:30:03 1510857003.713923: $GPRMC,183002,A,3946.9615,N,08404.9845,W,0.0000,0.000,161117,,*3D
2017-11-16 13:30:03 1510857003.713980: $GPGSA,A,3,10,13,15,18,20,21,24,27,29,5,32,138,1.6,0.8,1.3*36
2017-11-16 13:30:04 1510857004.285972: $GPZDA,183003.00,16,11,2017,00,00*6C
2017-11-16 13:30:04 1510857004.286148: $GPGGA,183003,3946.9615,N,08404.9845,W,2,12,0.80,303.96,M,-33.324,M,,*7D
2017-11-16 13:30:04 1510857004.286211: $GPRMC,183003,A,3946.9615,N,08404.9845,W,0.0000,0.000,161117,,*3C
2017-11-16 13:30:04 1510857004.286284: $GPGSA,A,3,10,13,15,18,20,21,24,27,29,5,32,138,1.6,0.8,1.3*36
2017-11-16 13:30:05 1510857005.287445: $GPZDA,183004.00,16,11,2017,00,00*6B
2017-11-16 13:30:05 1510857005.287642: $GPGGA,183004,3946.9615,N,08404.9845,W,2,12,0.80,303.96,M,-33.324,M,,*7A
2017-11-16 13:30:05 1510857005.287706: $GPRMC,183004,A,3946.9615,N,08404.9845,W,0.0000,0.000,161117,,*3B
2017-11-16 13:30:05 1510857005.287763: $GPGSA,A,3,10,13,15,18,20,21,24,27,29,5,32,138,1.6,0.8,1.3*36
2017-11-16 13:30:06 1510857006.595728: $GPGSV,3,1,12,10,27,286,44,13,24,045,46,15,56,049,50,18,58,306,46*7B
2017-11-16 13:30:06 1510857006.595896: $GPGSV,3,2,12,20,47,078,48,21,78,244,46,24,38,135,44,27,18,309,43*7E
2017-11-16 13:30:06 1510857006.595957: $GPGSV,3,3,12,29,05,187,28,05,01,090,23,32,05,228,31,138,38,213,45*42
2017-11-16 13:30:06 1510857006.708016: $GPZDA,183005.00,16,11,2017,00,00*6A
2017-11-16 13:30:06 1510857006.708163: $GPGGA,183005,3946.9615,N,08404.9845,W,2,12,0.80,303.96,M,-33.324,M,,*7B
2017-11-16 13:30:06 1510857006.708224: $GPRMC,183005,A,3946.9615,N,08404.9845,W,0.0000,0.000,161117,,*3A
2017-11-16 13:30:06 1510857006.708280: $GPGSA,A,3,10,13,15,18,20,21,24,27,29,5,32,138,1.6,0.8,1.3*36
2017-11-16 13:30:07 1510857007.265891: $GPZDA,183006.00,16,11,2017,00,00*69
2017-11-16 13:30:07 1510857007.266097: $GPGGA,183006,3946.9615,N,08404.9845,W,2,12,0.80,303.96,M,-33.324,M,,*78
2017-11-16 13:30:07 1510857007.266163: $GPRMC,183006,A,3946.9615,N,08404.9845,W,0.0000,0.000,161117,,*39
2017-11-16 13:30:07 1510857007.266220: $GPGSA,A,3,10,13,15,18,20,21,24,27,29,5,32,138,1.6,0.8,1.3*36
2017-11-16 13:30:08 1510857008.264739: $GPZDA,183007.00,16,11,2017,00,00*68
2017-11-16 13:30:08 1510857008.264901: $GPGGA,183007,3946.9615,N,08404.9845,W,2,12,0.80,303.96,M,-33.324,M,,*79
2017-11-16 13:30:08 1510857008.264962: $GPRMC,183007,A,3946.9615,N,08404.9845,W,0.0000,0.000,161117,,*38
2017-11-16 13:30:08 1510857008.265018: $GPGSA,A,3,10,13,15,18,20,21,24,27,29,5,32,138,1.6,0.8,1.3*36
2017-11-16 13:30:09 1510857009.622615: $GPGSV,3,1,12,10,27,286,43,13,24,045,46,15,56,049,51,18,58,306,46*7D
2017-11-16 13:30:09 1510857009.622836: $GPGSV,3,2,12,20,47,078,48,21,78,244,46,24,38,135,44,27,18,309,43*7E
2017-11-16 13:30:09 1510857009.622900: $GPGSV,3,3,12,29,05,187,27,05,01,090,19,32,05,228,30,138,38,213,45*45
2017-11-16 13:30:09 1510857009.735920: $GPZDA,183008.00,16,11,2017,00,00*67
2017-11-16 13:30:09 1510857009.736080: $GPGGA,183008,3946.9611,N,08404.9846,W,2,12,0.80,304.73,M,-33.324,M,,*7D
2017-11-16 13:30:09 1510857009.736140: $GPRMC,183008,A,3946.9611,N,08404.9846,W,0.0000,0.000,161117,,*30
2017-11-16 13:30:09 1510857009.736196: $GPGSA,A,3,10,13,15,18,20,21,24,27,29,5,32,138,1.6,0.8,1.3*36
2017-11-16 13:30:10 1510857010.363058: $GPZDA,183009.00,16,11,2017,00,00*66
2017-11-16 13:30:10 1510857010.363248: $GPGGA,183009,3946.9611,N,08404.9846,W,2,12,0.80,304.73,M,-33.324,M,,*7C
2017-11-16 13:30:10 1510857010.363311: $GPRMC,183009,A,3946.9611,N,08404.9846,W,0.0000,0.000,161117,,*31
2017-11-16 13:30:10 1510857010.363370: $GPGSA,A,3,10,13,15,18,20,21,24,27,29,5,32,138,1.6,0.8,1.3*36
2017-11-16 13:30:11 1510857011.286030: $GPZDA,183010.00,16,11,2017,00,00*6E
2017-11-16 13:30:11 1510857011.286231: $GPGGA,183010,3946.9611,N,08404.9846,W,2,12,0.80,304.73,M,-33.324,M,,*74
2017-11-16 13:30:11 1510857011.286326: $GPRMC,183010,A,3946.9611,N,08404.9846,W,0.0000,0.000,161117,,*39
2017-11-16 13:30:11 1510857011.286384: $GPGSA,A,3,10,13,15,18,20,21,24,27,29,5,32,138,1.6,0.8,1.3*36
2017-11-16 13:30:12 1510857012.616580: $GPGSV,3,1,12,10,27,286,42,13,24,045,46,15,56,049,51,18,58,306,46*7C
2017-11-16 13:30:12 1510857012.616754: $GPGSV,3,2,12,20,47,078,48,21,78,244,46,24,38,135,44,27,18,309,44*79
2017-11-16 13:30:12 1510857012.616814: $GPGSV,3,3,12,29,05,187,23,05,01,090,22,32,05,228,24,138,38,213,44*4D
2017-11-16 13:30:12 1510857012.729873: $GPZDA,183011.00,16,11,2017,00,00*6F
2017-11-16 13:30:12 1510857012.730038: $GPGGA,183011,3946.9611,N,08404.9846,W,2,12,0.80,304.73,M,-33.324,M,,*75
2017-11-16 13:30:12 1510857012.730100: $GPRMC,183011,A,3946.9611,N,08404.9846,W,0.0000,0.000,161117,,*38
2017-11-16 13:30:12 1510857012.730160: $GPGSA,A,3,10,13,15,18,20,21,24,27,29,5,32,138,1.6,0.8,1.3*36
2017-11-16 13:30:13 1510857013.260746: $GPZDA,183012.00,16,11,2017,00,00*6C
2017-11-16 13:30:13 1510857013.260912: $GPGGA,183012,3946.9611,N,08404.9846,W,2,12,0.80,304.73,M,-33.324,M,,*76
2017-11-16 13:30:13 1510857013.260976: $GPRMC,183012,A,3946.9611,N,08404.9846,W,0.0000,0.000,161117,,*3B
2017-11-16 13:30:13 1510857013.261032: $GPGSA,A,3,10,13,15,18,20,21,24,27,29,5,32,138,1.6,0.8,1.3*36
2017-11-16 13:30:14 1510857014.286540: $GPZDA,183013.00,16,11,2017,00,00*6D
2017-11-16 13:30:14 1510857014.286711: $GPGGA,183013,3946.9611,N,08404.9846,W,2,12,0.80,304.73,M,-33.324,M,,*77
2017-11-16 13:30:14 1510857014.286773: $GPRMC,183013,A,3946.9611,N,08404.9846,W,0.0000,0.000,161117,,*3A
2017-11-16 13:30:14 1510857014.286829: $GPGSA,A,3,10,13,15,18,20,21,24,27,29,5,32,138,1.6,0.8,1.3*36
2017-11-16 13:30:15 1510857015.599321: $GPGSV,3,1,12,10,27,286,42,13,24,045,46,15,56,049,51,18,58,306,46*7C
2017-11-16 13:30:15 1510857015.599482: $GPGSV,3,2,12,20,47,078,48,21,78,244,46,24,38,135,44,27,18,309,44*79
2017-11-16 13:30:15 1510857015.599543: $GPGSV,3,3,12,29,05,187,25,05,01,090,23,32,05,228,12,138,38,213,45*4E
2017-11-16 13:30:15 1510857015.712626: $GPZDA,183014.00,16,11,2017,00,00*6A
2017-11-16 13:30:15 1510857015.712790: $GPGGA,183014,3946.9611,N,08404.9839,W,2,12,0.80,304.80,M,-33.324,M,,*74
2017-11-16 13:30:15 1510857015.712853: $GPRMC,183014,A,3946.9611,N,08404.9839,W,0.0000,0.000,161117,,*35
2017-11-16 13:30:15 1510857015.712910: $GPGSA,A,3,10,13,15,18,20,21,24,27,29,5,32,138,1.6,0.8,1.3*36
2017-11-16 13:30:16 1510857016.263458: $GPZDA,183015.00,16,11,2017,00,00*6B
2017-11-16 13:30:16 1510857016.263629: $GPGGA,183015,3946.9611,N,08404.9839,W,2,12,0.80,304.80,M,-33.324,M,,*75
2017-11-16 13:30:16 1510857016.263694: $GPRMC,183015,A,3946.9611,N,08404.9839,W,0.0000,0.000,161117,,*34
2017-11-16 13:30:16 1510857016.263751: $GPGSA,A,3,10,13,15,18,20,21,24,27,29,5,32,138,1.6,0.8,1.3*36
