2017-12-31 18:37:59 1514763479.978512: {"class":"VERSION","release":"3.16","rev":"3.16-4","proto_major":3,"proto_minor":11}
2017-12-31 18:37:59 1514763479.978855: {"class":"DEVICES","devices":[{"class":"DEVICE","path":"/dev/ttyUSB0","driver":"SiRF","activated":"2017-12-31T23:37:59.673Z","flags":1,"native":1,"bps":4800,"parity":"N","stopbits":1,"cycle":1.00}]}
2017-12-31 18:37:59 1514763479.978953: {"class":"WATCH","enable":true,"json":false,"nmea":true,"raw":0,"scaled":false,"timing":false,"split24":false,"pps":false}
2017-12-31 18:38:00 1514763480.724806: $GPGSV,3,1,12,22,12,207,00,23,64,292,40,09,31,312,41,03,22,225,37*7C
2017-12-31 18:38:00 1514763480.724998: $GPGSV,3,2,12,16,83,042,41,08,11,177,20,14,04,138,18,31,20,084,42*77
2017-12-31 18:38:00 1514763480.725065: $GPGSV,3,3,12,27,34,147,39,07,06,280,40,26,50,046,47,135,22,240,43*49
2017-12-31 18:38:00 1514763480.838479: $GPZDA,233801.00,31,12,2017,00,00*68
2017-12-31 18:38:00 1514763480.838622: $GPGGA,233801,3946.9578,N,08404.9830,W,2,11,0.80,309.03,M,-33.324,M,,*70
2017-12-31 18:38:00 1514763480.838688: $GPRMC,233801,A,3946.9578,N,08404.9830,W,0.0000,0.000,311217,,*32
2017-12-31 18:38:00 1514763480.838749: $GPGSA,A,3,23,9,3,16,8,14,31,27,7,26,135,,1.7,0.8,1.3*0C
2017-12-31 18:38:01 1514763481.354301: $GPZDA,233802.00,31,12,2017,00,00*6B
2017-12-31 18:38:01 1514763481.354455: $GPGGA,233802,3946.9578,N,08404.9830,W,2,11,1.00,309.03,M,-33.324,M,,*7A
2017-12-31 18:38:01 1514763481.354522: $GPRMC,233802,A,3946.9578,N,08404.9830,W,0.0000,0.000,311217,,*31
2017-12-31 18:38:01 1514763481.354584: $GPGSA,A,3,23,9,3,16,8,14,31,27,7,26,135,,1.7,1.0,1.3*05
2017-12-31 18:38:02 1514763482.388920: $GPZDA,233803.00,31,12,2017,00,00*6A
2017-12-31 18:38:02 1514763482.389080: $GPGGA,233803,3946.9578,N,08404.9830,W,2,11,0.80,309.03,M,-33.324,M,,*72
2017-12-31 18:38:02 1514763482.389147: $GPRMC,233803,A,3946.9578,N,08404.9830,W,0.0000,0.000,311217,,*30
2017-12-31 18:38:02 1514763482.389208: $GPGSA,A,3,23,9,3,16,8,14,31,27,7,26,135,,1.7,0.8,1.3*0C
2017-12-31 18:38:03 1514763483.689433: $GPGSV,3,1,12,22,12,207,22,23,64,292,41,09,31,312,41,03,22,225,37*7D
2017-12-31 18:38:03 1514763483.689585: $GPGSV,3,2,12,16,83,042,41,08,11,177,18,14,04,138,17,31,20,084,42*73
2017-12-31 18:38:03 1514763483.689650: $GPGSV,3,3,12,27,34,147,39,07,06,280,40,26,50,046,47,135,22,240,43*49
2017-12-31 18:38:03 1514763483.801795: $GPZDA,233804.00,31,12,2017,00,00*6D
2017-12-31 18:38:03 1514763483.801960: $GPGGA,233804,3946.9578,N,08404.9830,W,2,12,0.80,309.03,M,-33.324,M,,*76
2017-12-31 18:38:03 1514763483.802025: $GPRMC,233804,A,3946.9578,N,08404.9830,W,0.0000,0.000,311217,,*37
2017-12-31 18:38:03 1514763483.802085: $GPGSA,A,3,22,23,9,3,16,8,14,31,27,7,26,135,1.7,0.8,1.3*0C
2017-12-31 18:38:04 1514763484.352668: $GPZDA,233805.00,31,12,2017,00,00*6C
2017-12-31 18:38:04 1514763484.352831: $GPGGA,233805,3946.9578,N,08404.9830,W,2,12,0.80,309.03,M,-33.324,M,,*77
2017-12-31 18:38:04 1514763484.352898: $GPRMC,233805,A,3946.9578,N,08404.9830,W,0.0000,0.000,311217,,*36
2017-12-31 18:38:04 1514763484.352959: $GPGSA,A,3,22,23,9,3,16,8,14,31,27,7,26,135,1.7,0.8,1.3*0C
2017-12-31 18:38:05 1514763485.352414: $GPZDA,233806.00,31,12,2017,00,00*6F
2017-12-31 18:38:05 1514763485.352585: $GPGGA,233806,3946.9578,N,08404.9830,W,2,12,0.80,309.03,M,-33.324,M,,*74
2017-12-31 18:38:05 1514763485.352652: $GPRMC,233806,A,3946.9578,N,08404.9830,W,0.0000,0.000,311217,,*35
2017-12-31 18:38:05 1514763485.352713: $GPGSA,A,3,22,23,9,3,16,8,14,31,27,7,26,135,1.7,0.8,1.3*0C
2017-12-31 18:38:05 1514763485.352772: $GPGBS,233806,2.22,M,3.43,M,7.66,M*33
2017-12-31 18:38:06 1514763486.680424: $GPGSV,3,1,12,22,12,207,25,23,64,292,40,09,31,312,41,03,22,225,37*7B
2017-12-31 18:38:06 1514763486.680592: $GPGSV,3,2,12,16,83,042,42,08,11,177,22,14,04,138,17,31,20,084,42*79
2017-12-31 18:38:06 1514763486.680659: $GPGSV,3,3,12,27,34,147,38,07,06,280,41,26,50,046,47,135,22,240,44*4E
2017-12-31 18:38:06 1514763486.794067: $GPZDA,233807.00,31,12,2017,00,00*6E
2017-12-31 18:38:06 1514763486.794233: $GPGGA,233807,3946.9578,N,08404.9837,W,2,12,0.80,308.95,M,-33.324,M,,*7C
2017-12-31 18:38:06 1514763486.794370: $GPRMC,233807,A,3946.9578,N,08404.9837,W,0.0000,0.000,311217,,*33
2017-12-31 18:38:06 1514763486.794435: $GPGSA,A,3,22,23,9,3,16,8,14,31,27,7,26,135,1.7,0.8,1.3*0C
2017-12-31 18:38:07 1514763487.353653: $GPZDA,233808.00,31,12,2017,00,00*61
2017-12-31 18:38:07 1514763487.353825: $GPGGA,233808,3946.9578,N,08404.9837,W,2,12,0.80,308.95,M,-33.324,M,,*73
2017-12-31 18:38:07 1514763487.353892: $GPRMC,233808,A,3946.9578,N,08404.9837,W,0.0000,0.000,311217,,*3C
2017-12-31 18:38:07 1514763487.353954: $GPGSA,A,3,22,23,9,3,16,8,14,31,27,7,26,135,1.7,0.8,1.3*0C
2017-12-31 18:38:08 1514763488.387144: $GPZDA,233809.00,31,12,2017,00,00*60
2017-12-31 18:38:08 1514763488.387326: $GPGGA,233809,3946.9578,N,08404.9837,W,2,12,0.80,308.95,M,-33.324,M,,*72
2017-12-31 18:38:08 1514763488.387393: $GPRMC,233809,A,3946.9578,N,08404.9837,W,0.0000,0.000,311217,,*3D
2017-12-31 18:38:08 1514763488.387454: $GPGSA,A,3,22,23,9,3,16,8,14,31,27,7,26,135,1.7,0.8,1.3*0C
2017-12-31 18:38:09 1514763489.688813: $GPGSV,3,1,12,22,12,207,25,23,64,292,38,09,31,312,41,03,22,225,37*74
2017-12-31 18:38:09 1514763489.688982: $GPGSV,3,2,12,16,83,042,41,08,11,177,22,14,04,138,18,31,20,084,42*75
2017-12-31 18:38:09 1514763489.689049: $GPGSV,3,3,12,27,34,147,39,07,06,280,41,26,50,046,47,135,22,240,44*4F
2017-12-31 18:38:09 1514763489.802396: $GPZDA,233810.00,31,12,2017,00,00*68
2017-12-31 18:38:09 1514763489.802537: $GPGGA,233810,3946.9578,N,08404.9837,W,2,12,0.80,308.95,M,-33.324,M,,*7A
2017-12-31 18:38:09 1514763489.802603: $GPRMC,233810,A,3946.9578,N,08404.9837,W,0.0000,0.000,311217,,*35
2017-12-31 18:38:09 1514763489.802663: $GPGSA,A,3,22,23,9,3,16,8,14,31,27,7,26,135,1.7,0.8,1.3*0C
