2018-01-12 03:17:13 1515745033.504421: {"class":"VERSION","release":"3.16","rev":"3.16-4","proto_major":3,"proto_minor":11}
2018-01-12 03:17:13 1515745033.504844: {"class":"DEVICES","devices":[{"class":"DEVICE","path":"/dev/ttyUSB0","driver":"SiRF","subtype":"9\u0006GSD4e_4.1.2-P1_RPATCH.05-F-GPS-4R-1510281 11/03/2015 307","activated":"2018-01-12T08:17:13.478Z","flags":1,"native":1,"bps":4800,"parity":"N","stopbits":1,"cycle":1.00}]}
2018-01-12 03:17:13 1515745033.504960: {"class":"WATCH","enable":true,"json":false,"nmea":true,"raw":0,"scaled":false,"timing":false,"split24":false,"pps":false}
2018-01-12 03:17:13 1515745033.655702: $GPZDA,081714.34,12,01,2018,00,00*63
2018-01-12 03:17:13 1515745033.655876: $GPGGA,081714,3946.9576,N,08404.9875,W,1,10,1.00,300.05,M,-33.324,M,,*7B
2018-01-12 03:17:13 1515745033.655943: $GPRMC,081714,A,3946.9576,N,08404.9875,W,0.5954,23.949,120118,,*09
2018-01-12 03:17:13 1515745033.656005: $GPGSA,A,3,2,5,6,12,17,19,24,25,23,138,,,2.4,1.0,2.1*30
2018-01-12 03:17:15 1515745035.095634: $GPGSV,3,1,12,02,60,274,38,05,19,195,34,06,70,018,40,12,47,300,41*7B
2018-01-12 03:17:15 1515745035.095788: $GPGSV,3,2,12,17,36,097,36,19,54,084,33,25,13,321,30,09,10,094,00*75
2018-01-12 03:17:15 1515745035.095854: $GPGSV,3,3,12,23,08,061,00,24,07,252,00,04,32,255,00,138,38,213,00*46
2018-01-12 03:17:15 1515745035.209373: $GPZDA,081715.02,12,01,2018,00,00*67
2018-01-12 03:17:15 1515745035.209516: $GPGGA,081715,3946.9580,N,08404.9874,W,1,07,1.00,299.29,M,-33.324,M,,*7B
2018-01-12 03:17:15 1515745035.209585: $GPRMC,081715,A,3946.9580,N,08404.9874,W,0.0407,322.014,120118,,*3D
2018-01-12 03:17:15 1515745035.209646: $GPGSA,A,3,2,5,6,12,17,19,25,,,,,,2.4,1.0,2.1*0D
2018-01-12 03:17:16 1515745036.039650: $GPZDA,081716.00,12,01,2018,00,00*66
2018-01-12 03:17:16 1515745036.039826: $GPGGA,081716,3946.9580,N,08404.9874,W,1,07,0.80,299.29,M,-33.324,M,,*71
2018-01-12 03:17:16 1515745036.039912: $GPRMC,081716,A,3946.9580,N,08404.9874,W,0.1867,0.000,120118,,*33
2018-01-12 03:17:16 1515745036.039976: $GPGSA,A,3,2,5,6,12,17,19,25,,,,,,2.4,0.8,2.1*04
2018-01-12 03:17:16 1515745036.040033: $GPGBS,081716,11.98,M,14.47,M,47.88,M*03
2018-01-12 03:17:16 1515745036.490494: $GPZDA,081717.00,12,01,2018,00,00*67
2018-01-12 03:17:16 1515745036.490641: $GPGGA,081717,3946.9575,N,08404.9867,W,1,07,0.80,298.73,M,-33.324,M,,*76
2018-01-12 03:17:16 1515745036.490711: $GPRMC,081717,A,3946.9575,N,08404.9867,W,0.1567,189.200,120118,,*35
2018-01-12 03:17:16 1515745036.490773: $GPGSA,A,3,2,5,6,12,17,19,25,,,,,,2.4,0.8,2.1*04
2018-01-12 03:17:16 1515745036.490831: $GPGBS,081717,11.98,M,14.47,M,47.88,M*02
2018-01-12 03:17:17 1515745037.682135: $GPGSV,3,1,12,02,60,274,48,05,19,195,43,06,70,018,50,12,47,300,51*7C
2018-01-12 03:17:17 1515745037.682321: $GPGSV,3,2,12,17,36,097,46,19,54,084,41,25,13,321,39,23,08,061,18*7C
2018-01-12 03:17:17 1515745037.682387: $GPGSV,3,3,12,24,07,252,30,09,10,094,15,04,32,255,00,138,38,213,39*40
2018-01-12 03:17:17 1515745037.794352: $GPZDA,081718.00,12,01,2018,00,00*68
2018-01-12 03:17:17 1515745037.794497: $GPGGA,081718,3946.9578,N,08404.9866,W,1,11,0.80,297.96,M,-33.324,M,,*76
2018-01-12 03:17:17 1515745037.794567: $GPRMC,081718,A,3946.9578,N,08404.9866,W,0.0000,0.000,120118,,*31
2018-01-12 03:17:17 1515745037.794628: $GPGSA,A,3,2,5,6,12,17,19,25,23,24,9,138,,2.4,0.8,2.1*00
2018-01-12 03:17:18 1515745038.421025: $GPZDA,081719.00,12,01,2018,00,00*69
2018-01-12 03:17:18 1515745038.421186: $GPGGA,081719,3946.9574,N,08404.9866,W,1,11,0.80,297.32,M,-33.324,M,,*75
2018-01-12 03:17:18 1515745038.421253: $GPRMC,081719,A,3946.9574,N,08404.9866,W,0.0000,0.000,120118,,*3C
2018-01-12 03:17:18 1515745038.421315: $GPGSA,A,3,2,5,6,12,17,19,25,23,24,9,138,,2.4,0.8,2.1*00
2018-01-12 03:17:19 1515745039.345687: $GPZDA,081720.00,12,01,2018,00,00*63
2018-01-12 03:17:19 1515745039.345856: $GPGGA,081720,3946.9578,N,08404.9866,W,1,11,0.80,296.56,M,-33.324,M,,*70
2018-01-12 03:17:19 1515745039.345924: $GPRMC,081720,A,3946.9578,N,08404.9866,W,0.0000,0.000,120118,,*3A
2018-01-12 03:17:19 1515745039.345985: $GPGSA,A,3,2,5,6,12,17,19,25,23,24,9,138,,2.4,0.8,2.1*00
