2017-12-31 16:44:04 1514756644.400474: {"class":"VERSION","release":"3.16","rev":"3.16-4","proto_major":3,"proto_minor":11}
2017-12-31 16:44:04 1514756644.401048: {"class":"DEVICES","devices":[{"class":"DEVICE","path":"/dev/ttyUSB0","driver":"SiRF","activated":"2017-12-31T21:44:04.382Z","flags":1,"native":1,"bps":4800,"parity":"N","stopbits":1,"cycle":1.00}]}
2017-12-31 16:44:04 1514756644.401154: {"class":"WATCH","enable":true,"json":false,"nmea":true,"raw":0,"scaled":false,"timing":false,"split24":false,"pps":false}
2017-12-31 16:44:05 1514756645.345584: $GPZDA,214406.00,31,12,2017,00,00*66
2017-12-31 16:44:05 1514756645.345760: $GPGGA,214406,3946.9576,N,08404.9841,W,2,11,0.80,303.26,M,-33.324,M,,*7B
2017-12-31 16:44:05 1514756645.345827: $GPRMC,214406,A,3946.9576,N,08404.9841,W,0.0000,0.000,311217,,*34
2017-12-31 16:44:05 1514756645.345918: $GPGSA,A,3,22,23,25,3,16,29,31,14,32,26,135,,1.7,0.8,1.3*32
2017-12-31 16:44:06 1514756646.698833: $GPGSV,3,1,11,22,49,253,43,23,20,304,39,25,09,039,37,03,45,285,33*76
2017-12-31 16:44:06 1514756646.699041: $GPGSV,3,2,11,16,35,189,47,29,13,064,24,31,57,042,51,14,48,105,46*7A
2017-12-31 16:44:06 1514756646.699109: $GPGSV,3,3,11,32,26,115,41,26,66,162,43,135,22,240,43*7C
2017-12-31 16:44:06 1514756646.812209: $GPZDA,214407.00,31,12,2017,00,00*67
2017-12-31 16:44:06 1514756646.812377: $GPGGA,214407,3946.9576,N,08404.9841,W,2,11,0.80,303.26,M,-33.324,M,,*7A
2017-12-31 16:44:06 1514756646.812444: $GPRMC,214407,A,3946.9576,N,08404.9841,W,0.0000,0.000,311217,,*35
2017-12-31 16:44:06 1514756646.812506: $GPGSA,A,3,22,23,25,3,16,29,31,14,32,26,135,,1.7,0.8,1.3*32
2017-12-31 16:44:07 1514756647.340574: $GPZDA,214408.00,31,12,2017,00,00*68
2017-12-31 16:44:07 1514756647.340746: $GPGGA,214408,3946.9576,N,08404.9841,W,2,11,0.80,303.26,M,-33.324,M,,*75
2017-12-31 16:44:07 1514756647.340814: $GPRMC,214408,A,3946.9576,N,08404.9841,W,0.0000,0.000,311217,,*3A
2017-12-31 16:44:07 1514756647.340899: $GPGSA,A,3,22,23,25,3,16,29,31,14,32,26,135,,1.7,0.8,1.3*32
2017-12-31 16:44:08 1514756648.346955: $GPZDA,214409.00,31,12,2017,00,00*69
2017-12-31 16:44:08 1514756648.347411: $GPGGA,214409,3946.9576,N,08404.9841,W,2,11,0.80,303.26,M,-33.324,M,,*74
2017-12-31 16:44:08 1514756648.347611: $GPRMC,214409,A,3946.9576,N,08404.9841,W,0.0000,0.000,311217,,*3B
2017-12-31 16:44:08 1514756648.347744: $GPGSA,A,3,22,23,25,3,16,29,31,14,32,26,135,,1.7,0.8,1.3*32
2017-12-31 16:44:09 1514756649.682312: $GPGSV,3,1,11,22,49,253,44,23,20,304,39,25,09,039,36,03,45,285,33*70
2017-12-31 16:44:09 1514756649.682532: $GPGSV,3,2,11,16,35,189,47,29,13,064,24,31,57,042,51,14,48,105,46*7A
2017-12-31 16:44:09 1514756649.682601: $GPGSV,3,3,11,32,26,115,41,26,66,162,43,135,22,240,44*7B
2017-12-31 16:44:09 1514756649.794295: $GPZDA,214410.00,31,12,2017,00,00*61
2017-12-31 16:44:09 1514756649.794468: $GPGGA,214410,3946.9576,N,08404.9841,W,2,11,0.80,303.26,M,-33.324,M,,*7C
2017-12-31 16:44:09 1514756649.794536: $GPRMC,214410,A,3946.9576,N,08404.9841,W,0.0000,0.000,311217,,*33
2017-12-31 16:44:09 1514756649.794597: $GPGSA,A,3,22,23,25,3,16,29,31,14,32,26,135,,1.7,0.8,1.3*32
2017-12-31 16:44:10 1514756650.421260: $GPZDA,214411.00,31,12,2017,00,00*60
2017-12-31 16:44:10 1514756650.421428: $GPGGA,214411,3946.9576,N,08404.9841,W,2,11,0.80,303.26,M,-33.324,M,,*7D
2017-12-31 16:44:10 1514756650.421494: $GPRMC,214411,A,3946.9576,N,08404.9841,W,0.0000,0.000,311217,,*32
2017-12-31 16:44:10 1514756650.421555: $GPGSA,A,3,22,23,25,3,16,29,31,14,32,26,135,,1.7,0.8,1.3*32
2017-12-31 16:44:11 1514756651.345851: $GPZDA,214412.00,31,12,2017,00,00*63
2017-12-31 16:44:11 1514756651.346038: $GPGGA,214412,3946.9576,N,08404.9841,W,2,11,0.80,303.26,M,-33.324,M,,*7E
2017-12-31 16:44:11 1514756651.346106: $GPRMC,214412,A,3946.9576,N,08404.9841,W,0.0000,0.000,311217,,*31
2017-12-31 16:44:11 1514756651.346168: $GPGSA,A,3,22,23,25,3,16,29,31,14,32,26,135,,1.7,0.8,1.3*32
2017-12-31 16:44:12 1514756652.682531: $GPGSV,3,1,11,22,49,253,44,23,20,304,39,25,09,039,36,03,45,285,34*77
2017-12-31 16:44:12 1514756652.682708: $GPGSV,3,2,11,16,35,189,48,29,13,064,24,31,57,042,51,14,48,105,46*75
2017-12-31 16:44:12 1514756652.682846: $GPGSV,3,3,11,32,26,115,42,26,66,162,43,135,22,240,43*7F
2017-12-31 16:44:12 1514756652.796197: $GPZDA,214413.00,31,12,2017,00,00*62
2017-12-31 16:44:12 1514756652.796362: $GPGGA,214413,3946.9576,N,08404.9841,W,2,11,0.80,303.26,M,-33.324,M,,*7F
2017-12-31 16:44:12 1514756652.796429: $GPRMC,214413,A,3946.9576,N,08404.9841,W,0.0000,0.000,311217,,*30
2017-12-31 16:44:12 1514756652.796491: $GPGSA,A,3,22,23,25,3,16,29,31,14,32,26,135,,1.7,0.8,1.3*32
2017-12-31 16:44:13 1514756653.346802: $GPZDA,214414.00,31,12,2017,00,00*65
2017-12-31 16:44:13 1514756653.347017: $GPGGA,214414,3946.9576,N,08404.9841,W,2,11,0.80,303.26,M,-33.324,M,,*78
2017-12-31 16:44:13 1514756653.347088: $GPRMC,214414,A,3946.9576,N,08404.9841,W,0.0000,0.000,311217,,*37
2017-12-31 16:44:13 1514756653.347216: $GPGSA,A,3,22,23,25,3,16,29,31,14,32,26,135,,1.7,0.8,1.3*32
2017-12-31 16:44:14 1514756654.349171: $GPZDA,214415.00,31,12,2017,00,00*64
2017-12-31 16:44:14 1514756654.349338: $GPGGA,214415,3946.9576,N,08404.9841,W,2,11,0.80,303.26,M,-33.324,M,,*79
2017-12-31 16:44:14 1514756654.349405: $GPRMC,214415,A,3946.9576,N,08404.9841,W,0.0000,0.000,311217,,*36
2017-12-31 16:44:14 1514756654.349466: $GPGSA,A,3,22,23,25,3,16,29,31,14,32,26,135,,1.7,0.8,1.3*32
2017-12-31 16:44:15 1514756655.680419: $GPGSV,3,1,11,22,49,253,44,23,20,304,40,25,09,039,36,03,45,285,34*79
2017-12-31 16:44:15 1514756655.680617: $GPGSV,3,2,11,16,35,189,48,29,13,064,19,31,57,042,51,14,48,105,46*7B
2017-12-31 16:44:15 1514756655.680683: $GPGSV,3,3,11,32,26,115,41,26,66,162,43,135,22,240,43*7C
2017-12-31 16:44:15 1514756655.793732: $GPZDA,214416.00,31,12,2017,00,00*67
2017-12-31 16:44:15 1514756655.793944: $GPGGA,214416,3946.9576,N,08404.9841,W,2,11,0.80,303.26,M,-33.324,M,,*7A
2017-12-31 16:44:15 1514756655.794011: $GPRMC,214416,A,3946.9576,N,08404.9841,W,0.0000,0.000,311217,,*35
2017-12-31 16:44:15 1514756655.794072: $GPGSA,A,3,22,23,25,3,16,29,31,14,32,26,135,,1.7,0.8,1.3*32
2017-12-31 16:44:16 1514756656.360925: $GPZDA,214417.00,31,12,2017,00,00*66
2017-12-31 16:44:16 1514756656.361092: $GPGGA,214417,3946.9576,N,08404.9841,W,2,11,0.80,303.26,M,-33.324,M,,*7B
2017-12-31 16:44:16 1514756656.361157: $GPRMC,214417,A,3946.9576,N,08404.9841,W,0.0000,0.000,311217,,*34
2017-12-31 16:44:16 1514756656.361217: $GPGSA,A,3,22,23,25,3,16,29,31,14,32,26,135,,1.7,0.8,1.3*32
2017-12-31 16:44:17 1514756657.345472: $GPZDA,214418.00,31,12,2017,00,00*69
2017-12-31 16:44:17 1514756657.345641: $GPGGA,214418,3946.9576,N,08404.9841,W,2,11,0.80,303.26,M,-33.324,M,,*74
2017-12-31 16:44:17 1514756657.345707: $GPRMC,214418,A,3946.9576,N,08404.9841,W,0.0000,0.000,311217,,*3B
2017-12-31 16:44:17 1514756657.345792: $GPGSA,A,3,22,23,25,3,16,29,31,14,32,26,135,,1.7,0.8,1.3*32
2017-12-31 16:44:18 1514756658.681255: $GPGSV,3,1,11,22,49,253,44,23,20,304,40,25,09,039,36,03,45,285,21*7D
2017-12-31 16:44:18 1514756658.681530: $GPGSV,3,2,11,16,35,189,47,29,13,064,20,31,57,042,51,14,48,105,46*7E
2017-12-31 16:44:18 1514756658.681601: $GPGSV,3,3,11,32,26,115,41,26,66,162,43,135,22,240,43*7C
2017-12-31 16:44:18 1514756658.794594: $GPZDA,214419.00,31,12,2017,00,00*68
2017-12-31 16:44:18 1514756658.794758: $GPGGA,214419,3946.9576,N,08404.9841,W,2,11,0.80,303.26,M,-33.324,M,,*75
2017-12-31 16:44:18 1514756658.794825: $GPRMC,214419,A,3946.9576,N,08404.9841,W,0.0000,0.000,311217,,*3A
2017-12-31 16:44:18 1514756658.794904: $GPGSA,A,3,22,23,25,3,16,29,31,14,32,26,135,,1.7,0.8,1.3*32
2017-12-31 16:44:19 1514756659.346945: $GPZDA,214420.00,31,12,2017,00,00*62
2017-12-31 16:44:19 1514756659.347160: $GPGGA,214420,3946.9576,N,08404.9841,W,2,11,0.80,303.26,M,-33.324,M,,*7F
2017-12-31 16:44:19 1514756659.347235: $GPRMC,214420,A,3946.9576,N,08404.9841,W,0.0000,0.000,311217,,*30
2017-12-31 16:44:19 1514756659.347298: $GPGSA,A,3,22,23,25,3,16,29,31,14,32,26,135,,1.7,0.8,1.3*32
2017-12-31 16:44:20 1514756660.353478: $GPZDA,214421.00,31,12,2017,00,00*63
2017-12-31 16:44:20 1514756660.353646: $GPGGA,214421,3946.9576,N,08404.9841,W,2,11,0.80,303.26,M,-33.324,M,,*7E
2017-12-31 16:44:20 1514756660.353787: $GPRMC,214421,A,3946.9576,N,08404.9841,W,0.0000,0.000,311217,,*31
2017-12-31 16:44:20 1514756660.353878: $GPGSA,A,3,22,23,25,3,16,29,31,14,32,26,135,,1.7,0.8,1.3*32
2017-12-31 16:44:21 1514756661.681523: $GPGSV,3,1,11,22,49,253,44,23,20,304,40,25,09,039,36,03,45,285,27*7B
2017-12-31 16:44:21 1514756661.681718: $GPGSV,3,2,11,16,35,189,47,29,13,064,19,31,57,042,52,14,48,105,46*77
2017-12-31 16:44:21 1514756661.681785: $GPGSV,3,3,11,32,26,115,41,26,66,162,43,135,22,240,43*7C
2017-12-31 16:44:21 1514756661.794878: $GPZDA,214422.00,31,12,2017,00,00*60
2017-12-31 16:44:21 1514756661.795020: $GPGGA,214422,3946.9576,N,08404.9841,W,2,11,0.80,303.26,M,-33.324,M,,*7D
2017-12-31 16:44:21 1514756661.795084: $GPRMC,214422,A,3946.9576,N,08404.9841,W,0.0000,0.000,311217,,*32
2017-12-31 16:44:21 1514756661.795145: $GPGSA,A,3,22,23,25,3,16,29,31,14,32,26,135,,1.7,0.8,1.3*32
2017-12-31 16:44:22 1514756662.362004: $GPZDA,214423.00,31,12,2017,00,00*61
2017-12-31 16:44:22 1514756662.362165: $GPGGA,214423,3946.9576,N,08404.9841,W,2,11,0.80,303.26,M,-33.324,M,,*7C
2017-12-31 16:44:22 1514756662.362233: $GPRMC,214423,A,3946.9576,N,08404.9841,W,0.0000,0.000,311217,,*33
2017-12-31 16:44:22 1514756662.362294: $GPGSA,A,3,22,23,25,3,16,29,31,14,32,26,135,,1.7,0.8,1.3*32
2017-12-31 16:44:23 1514756663.346894: $GPZDA,214424.00,31,12,2017,00,00*66
2017-12-31 16:44:23 1514756663.347065: $GPGGA,214424,3946.9576,N,08404.9841,W,2,11,0.80,303.26,M,-33.324,M,,*7B
2017-12-31 16:44:23 1514756663.347214: $GPRMC,214424,A,3946.9576,N,08404.9841,W,0.0000,0.000,311217,,*34
2017-12-31 16:44:23 1514756663.347278: $GPGSA,A,3,22,23,25,3,16,29,31,14,32,26,135,,1.7,0.8,1.3*32
