2017-12-29 11:50:56 1514566256.078015: {"class":"VERSION","release":"3.16","rev":"3.16-4","proto_major":3,"proto_minor":11}
2017-12-29 11:50:56 1514566256.078378: {"class":"DEVICES","devices":[{"class":"DEVICE","path":"/dev/ttyUSB0","driver":"SiRF","subtype":"9\u0006GSD4e_4.1.2-P1_RPATCH.05-F-GPS-4R-1510281 11/03/2015 307","activated":"2017-12-29T16:50:55.723Z","flags":1,"native":1,"bps":4800,"parity":"N","stopbits":1,"cycle":1.00}]}
2017-12-29 11:50:56 1514566256.078497: {"class":"WATCH","enable":true,"json":false,"nmea":true,"raw":0,"scaled":false,"timing":false,"split24":false,"pps":false}
2017-12-29 11:50:56 1514566256.745241: $GPGSV,3,1,11,08,08,310,36,10,54,313,45,15,24,058,45,18,77,033,45*7A
2017-12-29 11:50:56 1514566256.745403: $GPGSV,3,2,11,20,23,106,48,21,47,183,47,24,53,082,51,27,15,274,37*73
2017-12-29 11:50:56 1514566256.745470: $GPGSV,3,3,11,32,34,249,36,14,15,241,32,138,38,213,45*72
2017-12-29 11:50:56 1514566256.858659: $GPZDA,165057.02,29,12,2017,00,00*68
2017-12-29 11:50:56 1514566256.858845: $GPGGA,165057,3946.9636,N,08404.9894,W,2,11,0.80,318.04,M,-33.324,M,,*7B
2017-12-29 11:50:56 1514566256.858912: $GPRMC,165057,A,3946.9636,N,08404.9894,W,0.1867,180.000,291217,,*36
2017-12-29 11:50:56 1514566256.858973: $GPGSA,A,3,8,10,15,18,20,21,24,27,32,14,138,,1.7,0.8,1.3*36
2017-12-29 11:50:56 1514566256.859031: $GPGBS,165057,2.73,M,2.59,M,7.72,M*34
2017-12-29 11:50:57 1514566257.408281: $GPZDA,165058.09,29,12,2017,00,00*6C
2017-12-29 11:50:57 1514566257.408457: $GPGGA,165058,3946.9615,N,08404.9881,W,2,11,0.80,316.41,M,-33.324,M,,*7E
2017-12-29 11:50:57 1514566257.408525: $GPRMC,165058,A,3946.9615,N,08404.9881,W,0.1867,180.000,291217,,*3C
2017-12-29 11:50:57 1514566257.408587: $GPGSA,A,3,8,10,15,18,20,21,24,27,32,14,138,,1.7,0.8,1.3*36
2017-12-29 11:50:57 1514566257.408646: $GPGBS,165058,2.73,M,2.59,M,7.72,M*3B
2017-12-29 11:50:58 1514566258.410623: $GPZDA,165059.00,29,12,2017,00,00*64
2017-12-29 11:50:58 1514566258.410803: $GPGGA,165059,3946.9615,N,08404.9881,W,2,11,0.80,316.41,M,-33.324,M,,*7F
2017-12-29 11:50:58 1514566258.410870: $GPRMC,165059,A,3946.9615,N,08404.9881,W,0.3006,62.539,291217,,*02
2017-12-29 11:50:58 1514566258.410933: $GPGSA,A,3,8,10,15,18,20,21,24,27,32,14,138,,1.7,0.8,1.3*36
2017-12-29 11:50:58 1514566258.410991: $GPGBS,165059,2.73,M,2.59,M,7.72,M*3A
2017-12-29 11:50:59 1514566259.747334: $GPGSV,3,1,11,08,08,310,36,10,54,313,45,15,24,058,45,18,77,033,44*7B
2017-12-29 11:50:59 1514566259.747516: $GPGSV,3,2,11,20,23,106,48,21,47,183,47,24,53,082,51,27,15,274,36*72
2017-12-29 11:50:59 1514566259.747584: $GPGSV,3,3,11,32,34,249,36,14,15,241,33,138,38,213,46*70
2017-12-29 11:50:59 1514566259.860713: $GPZDA,165100.00,29,12,2017,00,00*69
2017-12-29 11:50:59 1514566259.860906: $GPGGA,165100,3946.9607,N,08404.9867,W,2,11,0.80,316.69,M,-33.324,M,,*73
2017-12-29 11:50:59 1514566259.860975: $GPRMC,165100,A,3946.9607,N,08404.9867,W,0.1567,9.200,291217,,*34
2017-12-29 11:50:59 1514566259.861092: $GPGSA,A,3,8,10,15,18,20,21,24,27,32,14,138,,1.7,0.8,1.3*36
2017-12-29 11:51:00 1514566260.412185: $GPZDA,165101.00,29,12,2017,00,00*68
2017-12-29 11:51:00 1514566260.412299: $GPGGA,165101,3946.9607,N,08404.9867,W,2,11,0.80,316.69,M,-33.324,M,,*72
2017-12-29 11:51:00 1514566260.412333: $GPRMC,165101,A,3946.9607,N,08404.9867,W,0.0000,0.000,291217,,*3B
2017-12-29 11:51:00 1514566260.412363: $GPGSA,A,3,8,10,15,18,20,21,24,27,32,14,138,,1.7,0.8,1.3*36
2017-12-29 11:51:01 1514566261.413353: $GPZDA,165102.00,29,12,2017,00,00*6B
2017-12-29 11:51:01 1514566261.413531: $GPGGA,165102,3946.9607,N,08404.9867,W,2,11,0.80,316.69,M,-33.324,M,,*71
2017-12-29 11:51:01 1514566261.413599: $GPRMC,165102,A,3946.9607,N,08404.9867,W,0.0000,0.000,291217,,*38
2017-12-29 11:51:01 1514566261.413664: $GPGSA,A,3,8,10,15,18,20,21,24,27,32,14,138,,1.7,0.8,1.3*36
2017-12-29 11:51:02 1514566262.747864: $GPGSV,3,1,11,08,08,310,32,10,54,313,45,15,24,058,45,18,77,033,45*7E
2017-12-29 11:51:02 1514566262.748074: $GPGSV,3,2,11,20,23,106,48,21,47,183,47,24,53,082,51,27,15,274,36*72
2017-12-29 11:51:02 1514566262.748146: $GPGSV,3,3,11,32,34,249,36,14,15,241,34,138,38,213,45*74
2017-12-29 11:51:02 1514566262.861548: $GPZDA,165103.00,29,12,2017,00,00*6A
2017-12-29 11:51:02 1514566262.861725: $GPGGA,165103,3946.9610,N,08404.9867,W,2,11,0.80,315.93,M,-33.324,M,,*70
2017-12-29 11:51:02 1514566262.861864: $GPRMC,165103,A,3946.9610,N,08404.9867,W,0.0000,0.000,291217,,*3F
2017-12-29 11:51:02 1514566262.861929: $GPGSA,A,3,8,10,15,18,20,21,24,27,32,14,138,,1.7,0.8,1.3*36
2017-12-29 11:51:03 1514566263.407267: $GPZDA,165104.00,29,12,2017,00,00*6D
2017-12-29 11:51:03 1514566263.407446: $GPGGA,165104,3946.9610,N,08404.9867,W,2,11,0.80,315.93,M,-33.324,M,,*77
2017-12-29 11:51:03 1514566263.407535: $GPRMC,165104,A,3946.9610,N,08404.9867,W,0.0000,0.000,291217,,*38
2017-12-29 11:51:03 1514566263.407597: $GPGSA,A,3,8,10,15,18,20,21,24,27,32,14,138,,1.7,0.8,1.3*36
2017-12-29 11:51:04 1514566264.413035: $GPZDA,165105.00,29,12,2017,00,00*6C
2017-12-29 11:51:04 1514566264.413220: $GPGGA,165105,3946.9610,N,08404.9867,W,2,11,0.80,315.93,M,-33.324,M,,*76
2017-12-29 11:51:04 1514566264.413285: $GPRMC,165105,A,3946.9610,N,08404.9867,W,0.0000,0.000,291217,,*39
2017-12-29 11:51:04 1514566264.413347: $GPGSA,A,3,8,10,15,18,20,21,24,27,32,14,138,,1.7,0.8,1.3*36
2017-12-29 11:51:05 1514566265.748566: $GPGSV,3,1,11,08,08,310,30,10,54,313,45,15,24,058,45,18,77,033,45*7C
2017-12-29 11:51:05 1514566265.748748: $GPGSV,3,2,11,20,23,106,49,21,47,183,47,24,53,082,51,27,15,274,30*75
2017-12-29 11:51:05 1514566265.748813: $GPGSV,3,3,11,32,34,249,37,14,15,241,34,138,38,213,45*75
2017-12-29 11:51:05 1514566265.861994: $GPZDA,165106.00,29,12,2017,00,00*6F
2017-12-29 11:51:05 1514566265.862166: $GPGGA,165106,3946.9610,N,08404.9867,W,2,11,0.80,315.93,M,-33.324,M,,*75
2017-12-29 11:51:05 1514566265.862233: $GPRMC,165106,A,3946.9610,N,08404.9867,W,0.0000,0.000,291217,,*3A
2017-12-29 11:51:05 1514566265.862294: $GPGSA,A,3,8,10,15,18,20,21,24,27,32,14,138,,1.7,0.8,1.3*36
2017-12-29 11:51:06 1514566266.487633: $GPZDA,165107.00,29,12,2017,00,00*6E
2017-12-29 11:51:06 1514566266.487837: $GPGGA,165107,3946.9610,N,08404.9867,W,2,11,0.80,315.93,M,-33.324,M,,*74
2017-12-29 11:51:06 1514566266.487925: $GPRMC,165107,A,3946.9610,N,08404.9867,W,0.0000,0.000,291217,,*3B
2017-12-29 11:51:06 1514566266.487989: $GPGSA,A,3,8,10,15,18,20,21,24,27,32,14,138,,1.7,0.8,1.3*36
2017-12-29 11:51:07 1514566267.413552: $GPZDA,165108.00,29,12,2017,00,00*61
2017-12-29 11:51:07 1514566267.413726: $GPGGA,165108,3946.9610,N,08404.9867,W,2,11,0.80,315.93,M,-33.324,M,,*7B
2017-12-29 11:51:07 1514566267.413792: $GPRMC,165108,A,3946.9610,N,08404.9867,W,0.0000,0.000,291217,,*34
2017-12-29 11:51:07 1514566267.413852: $GPGSA,A,3,8,10,15,18,20,21,24,27,32,14,138,,1.7,0.8,1.3*36
2017-12-29 11:51:08 1514566268.748957: $GPGSV,3,1,11,08,08,310,26,10,54,313,46,15,24,058,45,18,77,033,45*78
2017-12-29 11:51:08 1514566268.749129: $GPGSV,3,2,11,20,23,106,49,21,47,183,47,24,53,082,50,27,15,274,26*73
2017-12-29 11:51:08 1514566268.749194: $GPGSV,3,3,11,32,34,249,36,14,15,241,35,138,38,213,44*74
2017-12-29 11:51:08 1514566268.862588: $GPZDA,165109.00,29,12,2017,00,00*60
2017-12-29 11:51:08 1514566268.862758: $GPGGA,165109,3946.9610,N,08404.9867,W,2,11,0.80,315.93,M,-33.324,M,,*7A
2017-12-29 11:51:08 1514566268.862825: $GPRMC,165109,A,3946.9610,N,08404.9867,W,0.0000,0.000,291217,,*35
2017-12-29 11:51:08 1514566268.862885: $GPGSA,A,3,8,10,15,18,20,21,24,27,32,14,138,,1.7,0.8,1.3*36
2017-12-29 11:51:09 1514566269.408412: $GPZDA,165110.00,29,12,2017,00,00*68
2017-12-29 11:51:09 1514566269.408585: $GPGGA,165110,3946.9610,N,08404.9867,W,2,11,0.80,315.93,M,-33.324,M,,*72
2017-12-29 11:51:09 1514566269.408652: $GPRMC,165110,A,3946.9610,N,08404.9867,W,0.0000,0.000,291217,,*3D
2017-12-29 11:51:09 1514566269.408714: $GPGSA,A,3,8,10,15,18,20,21,24,27,32,14,138,,1.7,0.8,1.3*36
2017-12-29 11:51:10 1514566270.411570: $GPZDA,165111.00,29,12,2017,00,00*69
2017-12-29 11:51:10 1514566270.411748: $GPGGA,165111,3946.9610,N,08404.9860,W,2,11,0.80,316.00,M,-33.324,M,,*7D
2017-12-29 11:51:10 1514566270.411816: $GPRMC,165111,A,3946.9610,N,08404.9860,W,0.0000,0.000,291217,,*3B
2017-12-29 11:51:10 1514566270.411932: $GPGSA,A,3,8,10,15,18,20,21,24,27,32,14,138,,1.7,0.8,1.3*36
