2017-11-16 16:40:06 1510868406.270659: {"class":"VERSION","release":"3.17","rev":"3.17","proto_major":3,"proto_minor":12}
2017-11-16 16:40:06 1510868406.271135: {"class":"DEVICES","devices":[{"class":"DEVICE","path":"/dev/ttyUSB0","driver":"SiRF","subtype":"9\u0006GSD4e_4.1.2-P1_RPATCH.05-F-GPS-4R-1510281 11/03/2015 307","activated":"2017-11-16T21:40:06.193Z","flags":1,"native":1,"bps":4800,"parity":"N","stopbits":1,"cycle":1.00}]}
2017-11-16 16:40:06 1510868406.271252: {"class":"WATCH","enable":true,"json":false,"nmea":true,"raw":0,"scaled":false,"timing":false,"split24":false,"pps":false}
2017-11-16 16:40:06 1510868406.503719: $GPZDA,214005.00,16,11,2017,00,00*67
2017-11-16 16:40:06 1510868406.503912: $GPGGA,214005,3946.9585,N,08404.9825,W,2,11,0.80,301.12,M,-33.324,M,,*77
2017-11-16 16:40:06 1510868406.504002: $GPRMC,214005,A,3946.9585,N,08404.9825,W,0.0000,0.000,161117,,*3B
2017-11-16 16:40:06 1510868406.504060: $GPGSA,A,3,1,10,11,12,14,18,24,25,31,32,138,,1.6,0.8,1.3*38
2017-11-16 16:40:07 1510868407.432119: $GPZDA,214006.00,16,11,2017,00,00*64
2017-11-16 16:40:07 1510868407.432282: $GPGGA,214006,3946.9585,N,08404.9818,W,2,11,0.80,301.20,M,-33.324,M,,*7B
2017-11-16 16:40:07 1510868407.432344: $GPRMC,214006,A,3946.9585,N,08404.9818,W,0.0000,0.000,161117,,*36
2017-11-16 16:40:07 1510868407.432400: $GPGSA,A,3,1,10,11,12,14,18,24,25,31,32,138,,1.6,0.8,1.3*38
2017-11-16 16:40:08 1510868408.769157: $GPGSV,3,1,11,01,12,321,39,10,73,127,48,11,10,303,41,12,25,075,48*70
2017-11-16 16:40:08 1510868408.769323: $GPGSV,3,2,11,14,53,288,42,18,40,133,45,24,16,045,48,25,28,117,44*74
2017-11-16 16:40:08 1510868408.769383: $GPGSV,3,3,11,31,31,211,45,32,67,321,51,138,38,213,45*7E
2017-11-16 16:40:08 1510868408.882446: $GPZDA,214007.00,16,11,2017,00,00*65
2017-11-16 16:40:08 1510868408.882608: $GPGGA,214007,3946.9586,N,08404.9819,W,2,11,0.80,302.61,M,-33.324,M,,*7E
2017-11-16 16:40:08 1510868408.882669: $GPRMC,214007,A,3946.9586,N,08404.9819,W,0.0000,0.000,161117,,*35
2017-11-16 16:40:08 1510868408.882724: $GPGSA,A,3,1,10,11,12,14,18,24,25,31,32,138,,1.6,0.8,1.3*38
2017-11-16 16:40:09 1510868409.432106: $GPZDA,214008.00,16,11,2017,00,00*6A
2017-11-16 16:40:09 1510868409.432254: $GPGGA,214008,3946.9586,N,08404.9819,W,2,11,0.80,302.61,M,-33.324,M,,*71
2017-11-16 16:40:09 1510868409.432315: $GPRMC,214008,A,3946.9586,N,08404.9819,W,0.0000,0.000,161117,,*3A
2017-11-16 16:40:09 1510868409.432371: $GPGSA,A,3,1,10,11,12,14,18,24,25,31,32,138,,1.6,0.8,1.3*38
2017-11-16 16:40:10 1510868410.432872: $GPZDA,214009.00,16,11,2017,00,00*6B
2017-11-16 16:40:10 1510868410.433039: $GPGGA,214009,3946.9586,N,08404.9819,W,2,11,0.80,302.61,M,-33.324,M,,*70
2017-11-16 16:40:10 1510868410.433100: $GPRMC,214009,A,3946.9586,N,08404.9819,W,0.0000,0.000,161117,,*3B
2017-11-16 16:40:10 1510868410.433155: $GPGSA,A,3,1,10,11,12,14,18,24,25,31,32,138,,1.6,0.8,1.3*38
2017-11-16 16:40:10 1510868410.433209: $GPGBS,214009,2.07,M,2.72,M,7.42,M*33
2017-11-16 16:40:11 1510868411.769470: $GPGSV,3,1,11,01,12,321,39,10,73,127,49,11,10,303,40,12,25,075,48*70
2017-11-16 16:40:11 1510868411.769609: $GPGSV,3,2,11,14,53,288,42,18,40,133,45,24,16,045,48,25,28,117,44*74
2017-11-16 16:40:11 1510868411.769670: $GPGSV,3,3,11,31,31,211,45,32,67,321,51,138,38,213,44*7F
2017-11-16 16:40:11 1510868411.882837: $GPZDA,214010.00,16,11,2017,00,00*63
2017-11-16 16:40:11 1510868411.883001: $GPGGA,214010,3946.9586,N,08404.9819,W,2,11,0.80,302.61,M,-33.324,M,,*78
2017-11-16 16:40:11 1510868411.883063: $GPRMC,214010,A,3946.9586,N,08404.9819,W,0.0000,0.000,161117,,*33
2017-11-16 16:40:11 1510868411.883118: $GPGSA,A,3,1,10,11,12,14,18,24,25,31,32,138,,1.6,0.8,1.3*38
2017-11-16 16:40:12 1510868412.434988: $GPZDA,214011.00,16,11,2017,00,00*62
2017-11-16 16:40:12 1510868412.435200: $GPGGA,214011,3946.9586,N,08404.9819,W,2,11,0.80,302.61,M,-33.324,M,,*79
2017-11-16 16:40:12 1510868412.435262: $GPRMC,214011,A,3946.9586,N,08404.9819,W,0.0000,0.000,161117,,*32
2017-11-16 16:40:12 1510868412.435318: $GPGSA,A,3,1,10,11,12,14,18,24,25,31,32,138,,1.6,0.8,1.3*38
2017-11-16 16:40:13 1510868413.432038: $GPZDA,214012.00,16,11,2017,00,00*61
2017-11-16 16:40:13 1510868413.432254: $GPGGA,214012,3946.9586,N,08404.9819,W,2,11,0.80,302.61,M,-33.324,M,,*7A
2017-11-16 16:40:13 1510868413.432317: $GPRMC,214012,A,3946.9586,N,08404.9819,W,0.0000,0.000,161117,,*31
2017-11-16 16:40:13 1510868413.432373: $GPGSA,A,3,1,10,11,12,14,18,24,25,31,32,138,,1.6,0.8,1.3*38
2017-11-16 16:40:14 1510868414.766619: $GPGSV,3,1,11,01,12,321,38,10,73,127,49,11,10,303,39,12,25,075,47*70
2017-11-16 16:40:14 1510868414.766783: $GPGSV,3,2,11,14,53,288,42,18,40,133,45,24,16,045,48,25,28,117,44*74
2017-11-16 16:40:14 1510868414.766844: $GPGSV,3,3,11,31,31,211,45,32,67,321,50,138,38,213,43*79
2017-11-16 16:40:14 1510868414.880197: $GPZDA,214013.00,16,11,2017,00,00*60
2017-11-16 16:40:14 1510868414.880371: $GPGGA,214013,3946.9586,N,08404.9819,W,2,11,0.80,302.61,M,-33.324,M,,*7B
2017-11-16 16:40:14 1510868414.880434: $GPRMC,214013,A,3946.9586,N,08404.9819,W,0.0000,0.000,161117,,*30
2017-11-16 16:40:14 1510868414.880489: $GPGSA,A,3,1,10,11,12,14,18,24,25,31,32,138,,1.6,0.8,1.3*38
2017-11-16 16:40:15 1510868415.433373: $GPZDA,214014.00,16,11,2017,00,00*67
2017-11-16 16:40:15 1510868415.433535: $GPGGA,214014,3946.9586,N,08404.9819,W,2,11,0.80,302.61,M,-33.324,M,,*7C
2017-11-16 16:40:15 1510868415.433596: $GPRMC,214014,A,3946.9586,N,08404.9819,W,0.0000,0.000,161117,,*37
2017-11-16 16:40:15 1510868415.433652: $GPGSA,A,3,1,10,11,12,14,18,24,25,31,32,138,,1.6,0.8,1.3*38
