2017-12-01 16:37:18 1512164238.876730: {"class":"VERSION","release":"3.16","rev":"3.16-4","proto_major":3,"proto_minor":11}
2017-12-01 16:37:18 1512164238.877124: {"class":"DEVICES","devices":[{"class":"DEVICE","path":"/dev/ttyUSB0","driver":"SiRF","subtype":"9\u0006GSD4e_4.1.2-P1_RPATCH.05-F-GPS-4R-1510281 11/03/2015 307","activated":"2017-12-01T21:37:18.587Z","flags":1,"native":1,"bps":4800,"parity":"N","stopbits":1,"cycle":1.00}]}
2017-12-01 16:37:18 1512164238.877247: {"class":"WATCH","enable":true,"json":false,"nmea":true,"raw":0,"scaled":false,"timing":false,"split24":false,"pps":false}
2017-12-01 16:37:19 1512164239.782260: $GPGSV,3,1,12,01,22,297,40,10,45,150,44,14,67,334,43,22,21,312,44*71
2017-12-01 16:37:19 1512164239.782450: $GPGSV,3,2,12,31,59,228,50,32,67,036,49,11,07,280,35,12,21,046,00*79
2017-12-01 16:37:19 1512164239.782517: $GPGSV,3,3,12,25,40,087,31,26,05,183,32,18,15,145,14,138,38,213,34*40
2017-12-01 16:37:19 1512164239.895645: $GPZDA,213720.00,01,12,2017,00,00*65
2017-12-01 16:37:19 1512164239.895820: $GPGGA,213720,3946.9647,N,08404.9750,W,2,11,1.00,301.56,M,-33.324,M,,*79
2017-12-01 16:37:19 1512164239.895886: $GPRMC,213720,A,3946.9647,N,08404.9750,W,0.0000,0.000,011217,,*39
2017-12-01 16:37:19 1512164239.895949: $GPGSA,A,3,1,10,14,22,31,32,11,25,26,18,138,,2.0,1.0,1.5*33
2017-12-01 16:37:20 1512164240.521015: $GPZDA,213721.00,01,12,2017,00,00*64
2017-12-01 16:37:20 1512164240.521188: $GPGGA,213721,3946.9647,N,08404.9750,W,2,11,1.00,301.56,M,-33.324,M,,*78
2017-12-01 16:37:20 1512164240.521259: $GPRMC,213721,A,3946.9647,N,08404.9750,W,0.0000,0.000,011217,,*38
2017-12-01 16:37:20 1512164240.521327: $GPGSA,A,3,1,10,14,22,31,32,11,25,26,18,138,,2.0,1.0,1.5*33
2017-12-01 16:37:21 1512164241.448119: $GPZDA,213722.00,01,12,2017,00,00*67
2017-12-01 16:37:21 1512164241.448310: $GPGGA,213722,3946.9647,N,08404.9750,W,2,11,0.80,301.56,M,-33.324,M,,*72
2017-12-01 16:37:21 1512164241.448379: $GPRMC,213722,A,3946.9647,N,08404.9750,W,0.0000,0.000,011217,,*3B
2017-12-01 16:37:21 1512164241.448441: $GPGSA,A,3,1,10,14,22,31,32,11,25,26,18,138,,2.0,0.8,1.5*3A
2017-12-01 16:37:22 1512164242.781572: $GPGSV,3,1,12,01,22,297,40,10,45,150,44,14,67,334,43,22,21,312,43*76
2017-12-01 16:37:22 1512164242.781763: $GPGSV,3,2,12,31,59,228,50,32,67,036,49,11,07,280,35,12,21,046,22*79
2017-12-01 16:37:22 1512164242.781831: $GPGSV,3,3,12,25,40,087,32,26,05,183,32,18,15,145,18,138,38,213,38*43
2017-12-01 16:37:22 1512164242.894735: $GPZDA,213723.00,01,12,2017,00,00*66
2017-12-01 16:37:22 1512164242.894908: $GPGGA,213723,3946.9647,N,08404.9750,W,2,12,0.80,301.56,M,-33.324,M,,*70
2017-12-01 16:37:22 1512164242.894979: $GPRMC,213723,A,3946.9647,N,08404.9750,W,0.0000,0.000,011217,,*3A
2017-12-01 16:37:22 1512164242.895041: $GPGSA,A,3,1,10,14,22,31,32,11,12,25,26,18,138,2.0,0.8,1.5*39
2017-12-01 16:37:23 1512164243.464375: $GPZDA,213724.00,01,12,2017,00,00*61
2017-12-01 16:37:23 1512164243.464552: $GPGGA,213724,3946.9647,N,08404.9750,W,2,12,0.80,301.56,M,-33.324,M,,*77
2017-12-01 16:37:23 1512164243.464620: $GPRMC,213724,A,3946.9647,N,08404.9750,W,0.0000,0.000,011217,,*3D
2017-12-01 16:37:23 1512164243.464682: $GPGSA,A,3,1,10,14,22,31,32,11,12,25,26,18,138,2.0,0.8,1.5*39
2017-12-01 16:37:24 1512164244.462791: $GPZDA,213725.00,01,12,2017,00,00*60
2017-12-01 16:37:24 1512164244.462962: $GPGGA,213725,3946.9651,N,08404.9750,W,2,12,0.80,302.20,M,-33.324,M,,*73
2017-12-01 16:37:24 1512164244.463028: $GPRMC,213725,A,3946.9651,N,08404.9750,W,0.0000,0.000,011217,,*3B
2017-12-01 16:37:24 1512164244.463090: $GPGSA,A,3,1,10,14,22,31,32,11,12,25,26,18,138,2.0,0.8,1.5*39
2017-12-01 16:37:25 1512164245.800499: $GPGSV,3,1,12,01,22,297,40,10,45,150,44,14,67,334,43,22,21,312,43*76
2017-12-01 16:37:25 1512164245.800680: $GPGSV,3,2,12,31,59,228,50,32,67,036,49,11,07,280,35,12,21,046,24*7F
2017-12-01 16:37:25 1512164245.800747: $GPGSV,3,3,12,25,40,087,32,26,05,183,31,18,15,145,14,138,38,213,40*43
2017-12-01 16:37:25 1512164245.913840: $GPZDA,213726.00,01,12,2017,00,00*63
2017-12-01 16:37:25 1512164245.914003: $GPGGA,213726,3946.9651,N,08404.9750,W,2,12,0.80,302.20,M,-33.324,M,,*70
2017-12-01 16:37:25 1512164245.914122: $GPRMC,213726,A,3946.9651,N,08404.9750,W,0.0000,0.000,011217,,*38
2017-12-01 16:37:25 1512164245.914186: $GPGSA,A,3,1,10,14,22,31,32,11,12,25,26,18,138,2.0,0.8,1.5*39
2017-12-01 16:37:26 1512164246.462720: $GPZDA,213727.00,01,12,2017,00,00*62
2017-12-01 16:37:26 1512164246.462890: $GPGGA,213727,3946.9651,N,08404.9750,W,2,12,0.80,302.20,M,-33.324,M,,*71
2017-12-01 16:37:26 1512164246.462957: $GPRMC,213727,A,3946.9651,N,08404.9750,W,0.0000,0.000,011217,,*39
2017-12-01 16:37:26 1512164246.463019: $GPGSA,A,3,1,10,14,22,31,32,11,12,25,26,18,138,2.0,0.8,1.5*39
2017-12-01 16:37:27 1512164247.464380: $GPZDA,213728.00,01,12,2017,00,00*6D
2017-12-01 16:37:27 1512164247.464570: $GPGGA,213728,3946.9647,N,08404.9751,W,2,12,0.80,302.96,M,-33.324,M,,*75
2017-12-01 16:37:27 1512164247.464638: $GPRMC,213728,A,3946.9647,N,08404.9751,W,0.0000,0.000,011217,,*30
2017-12-01 16:37:27 1512164247.464702: $GPGSA,A,3,1,10,14,22,31,32,11,12,25,26,18,138,2.0,0.8,1.5*39
2017-12-01 16:37:28 1512164248.783863: $GPGSV,3,1,12,01,22,297,40,10,45,150,44,14,67,334,42,22,21,312,43*77
2017-12-01 16:37:28 1512164248.784046: $GPGSV,3,2,12,31,59,228,49,32,67,036,49,11,07,280,35,12,21,046,23*70
2017-12-01 16:37:28 1512164248.784114: $GPGSV,3,3,12,25,40,087,32,26,05,183,31,18,15,145,14,138,38,213,40*43
2017-12-01 16:37:28 1512164248.897362: $GPZDA,213729.00,01,12,2017,00,00*6C
2017-12-01 16:37:28 1512164248.897535: $GPGGA,213729,3946.9647,N,08404.9751,W,2,12,0.80,302.96,M,-33.324,M,,*74
2017-12-01 16:37:28 1512164248.897602: $GPRMC,213729,A,3946.9647,N,08404.9751,W,0.0000,0.000,011217,,*31
2017-12-01 16:37:28 1512164248.897665: $GPGSA,A,3,1,10,14,22,31,32,11,12,25,26,18,138,2.0,0.8,1.5*39
2017-12-01 16:37:29 1512164249.449484: $GPZDA,213730.00,01,12,2017,00,00*64
2017-12-01 16:37:29 1512164249.449664: $GPGGA,213730,3946.9647,N,08404.9751,W,2,12,0.80,302.96,M,-33.324,M,,*7C
2017-12-01 16:37:29 1512164249.449731: $GPRMC,213730,A,3946.9647,N,08404.9751,W,0.0000,0.000,011217,,*39
2017-12-01 16:37:29 1512164249.449793: $GPGSA,A,3,1,10,14,22,31,32,11,12,25,26,18,138,2.0,0.8,1.5*39
2017-12-01 16:37:30 1512164250.448491: $GPZDA,213731.00,01,12,2017,00,00*65
2017-12-01 16:37:30 1512164250.448673: $GPGGA,213731,3946.9647,N,08404.9751,W,2,12,0.80,302.96,M,-33.324,M,,*7D
2017-12-01 16:37:30 1512164250.448741: $GPRMC,213731,A,3946.9647,N,08404.9751,W,0.0000,0.000,011217,,*38
2017-12-01 16:37:30 1512164250.448803: $GPGSA,A,3,1,10,14,22,31,32,11,12,25,26,18,138,2.0,0.8,1.5*39
2017-12-01 16:37:31 1512164251.800478: $GPGSV,3,1,12,01,22,297,40,10,45,150,44,14,67,334,42,22,21,312,43*77
2017-12-01 16:37:31 1512164251.800662: $GPGSV,3,2,12,31,59,228,49,32,67,036,48,11,07,280,36,12,21,046,23*72
2017-12-01 16:37:31 1512164251.800729: $GPGSV,3,3,12,25,40,087,32,26,05,183,31,18,15,145,14,138,38,213,38*4C
2017-12-01 16:37:31 1512164251.914291: $GPZDA,213732.00,01,12,2017,00,00*66
2017-12-01 16:37:31 1512164251.914479: $GPGGA,213732,3946.9647,N,08404.9751,W,2,12,0.80,302.96,M,-33.324,M,,*7E
2017-12-01 16:37:31 1512164251.914554: $GPRMC,213732,A,3946.9647,N,08404.9751,W,0.0000,0.000,011217,,*3B
2017-12-01 16:37:31 1512164251.914620: $GPGSA,A,3,1,10,14,22,31,32,11,12,25,26,18,138,2.0,0.8,1.5*39
2017-12-01 16:37:32 1512164252.446040: $GPZDA,213733.00,01,12,2017,00,00*67
2017-12-01 16:37:32 1512164252.448512: $GPGGA,213733,3946.9647,N,08404.9751,W,2,12,0.80,302.96,M,-33.324,M,,*7F
2017-12-01 16:37:32 1512164252.448714: $GPRMC,213733,A,3946.9647,N,08404.9751,W,0.0000,0.000,011217,,*3A
2017-12-01 16:37:32 1512164252.448781: $GPGSA,A,3,1,10,14,22,31,32,11,12,25,26,18,138,2.0,0.8,1.5*39
2017-12-01 16:37:33 1512164253.464335: $GPZDA,213734.00,01,12,2017,00,00*60
2017-12-01 16:37:33 1512164253.464515: $GPGGA,213734,3946.9647,N,08404.9751,W,2,12,1.00,302.96,M,-33.324,M,,*71
2017-12-01 16:37:33 1512164253.464585: $GPRMC,213734,A,3946.9647,N,08404.9751,W,0.0000,0.000,011217,,*3D
2017-12-01 16:37:33 1512164253.464649: $GPGSA,A,3,1,10,14,22,31,32,11,12,25,26,18,138,2.0,1.0,1.5*30
2017-12-01 16:37:34 1512164254.800097: $GPGSV,3,1,12,01,22,297,40,10,45,150,44,14,67,334,42,22,21,312,43*77
2017-12-01 16:37:34 1512164254.800294: $GPGSV,3,2,12,31,59,228,50,32,67,036,48,11,07,280,37,12,21,046,22*7A
2017-12-01 16:37:34 1512164254.800363: $GPGSV,3,3,12,25,40,087,32,26,05,183,17,18,15,145,13,138,38,213,39*4E
2017-12-01 16:37:34 1512164254.913732: $GPZDA,213735.00,01,12,2017,00,00*61
2017-12-01 16:37:34 1512164254.913905: $GPGGA,213735,3946.9647,N,08404.9751,W,2,12,0.80,302.96,M,-33.324,M,,*79
2017-12-01 16:37:34 1512164254.913972: $GPRMC,213735,A,3946.9647,N,08404.9751,W,0.0000,0.000,011217,,*3C
2017-12-01 16:37:34 1512164254.914035: $GPGSA,A,3,1,10,14,22,31,32,11,12,25,26,18,138,2.0,0.8,1.5*39
2017-12-01 16:37:35 1512164255.538905: $GPZDA,213736.00,01,12,2017,00,00*62
2017-12-01 16:37:35 1512164255.539080: $GPGGA,213736,3946.9647,N,08404.9751,W,2,12,0.80,302.96,M,-33.324,M,,*7A
2017-12-01 16:37:35 1512164255.539149: $GPRMC,213736,A,3946.9647,N,08404.9751,W,0.0000,0.000,011217,,*3F
2017-12-01 16:37:35 1512164255.539214: $GPGSA,A,3,1,10,14,22,31,32,11,12,25,26,18,138,2.0,0.8,1.5*39
2017-12-01 16:37:36 1512164256.448464: $GPZDA,213737.00,01,12,2017,00,00*63
2017-12-01 16:37:36 1512164256.448643: $GPGGA,213737,3946.9647,N,08404.9751,W,2,12,0.80,302.96,M,-33.324,M,,*7B
2017-12-01 16:37:36 1512164256.448710: $GPRMC,213737,A,3946.9647,N,08404.9751,W,0.0000,0.000,011217,,*3E
2017-12-01 16:37:36 1512164256.448773: $GPGSA,A,3,1,10,14,22,31,32,11,12,25,26,18,138,2.0,0.8,1.5*39
2017-12-01 16:37:37 1512164257.797957: $GPGSV,3,1,12,01,22,297,41,10,45,150,43,14,67,334,41,22,21,312,43*72
2017-12-01 16:37:37 1512164257.798157: $GPGSV,3,2,12,31,59,228,50,32,67,036,48,11,07,280,38,12,21,046,26*71
2017-12-01 16:37:37 1512164257.798226: $GPGSV,3,3,12,25,40,087,28,26,05,183,30,18,15,145,08,138,38,213,41*45
2017-12-01 16:37:37 1512164257.911626: $GPZDA,213738.00,01,12,2017,00,00*6C
2017-12-01 16:37:37 1512164257.911786: $GPGGA,213738,3946.9652,N,08404.9751,W,2,11,0.80,303.60,M,-33.324,M,,*7B
2017-12-01 16:37:37 1512164257.911851: $GPRMC,213738,A,3946.9652,N,08404.9751,W,0.0000,0.000,011217,,*35
2017-12-01 16:37:37 1512164257.911914: $GPGSA,A,3,1,10,14,22,31,32,11,12,25,26,138,,2.0,0.8,1.5*30
2017-12-01 16:37:38 1512164258.462686: $GPZDA,213739.00,01,12,2017,00,00*6D
2017-12-01 16:37:38 1512164258.462842: $GPGGA,213739,3946.9652,N,08404.9751,W,2,11,0.80,303.60,M,-33.324,M,,*7A
2017-12-01 16:37:38 1512164258.462910: $GPRMC,213739,A,3946.9652,N,08404.9751,W,0.0000,0.000,011217,,*34
2017-12-01 16:37:38 1512164258.462972: $GPGSA,A,3,1,10,14,22,31,32,11,12,25,26,138,,2.0,0.8,1.5*30
