2017-12-01 12:07:06 1512148026.677652: {"class":"VERSION","release":"3.16","rev":"3.16-4","proto_major":3,"proto_minor":11}
2017-12-01 12:07:06 1512148026.678024: {"class":"DEVICES","devices":[{"class":"DEVICE","path":"/dev/ttyUSB0","driver":"SiRF","subtype":"9\u0006GSD4e_4.1.2-P1_RPATCH.05-F-GPS-4R-1510281 11/03/2015 307","activated":"2017-12-01T17:07:06.541Z","flags":1,"native":1,"bps":4800,"parity":"N","stopbits":1,"cycle":1.00}]}
2017-12-01 12:07:06 1512148026.678138: {"class":"WATCH","enable":true,"json":false,"nmea":true,"raw":0,"scaled":false,"timing":false,"split24":false,"pps":false}
2017-12-01 12:07:07 1512148027.738052: $GPGSV,3,1,12,10,20,279,37,13,33,046,45,15,66,054,43,18,51,295,45*72
2017-12-01 12:07:07 1512148027.738212: $GPGSV,3,2,12,20,55,066,45,21,76,288,44,24,29,142,44,27,14,316,41*73
2017-12-01 12:07:07 1512148027.738279: $GPGSV,3,3,12,05,07,084,24,29,14,192,29,04,04,135,00,138,38,213,46*49
2017-12-01 12:07:07 1512148027.851428: $GPZDA,170708.00,01,12,2017,00,00*69
2017-12-01 12:07:07 1512148027.851617: $GPGGA,170708,3946.9574,N,08404.9859,W,2,11,0.80,297.40,M,-33.324,M,,*70
2017-12-01 12:07:07 1512148027.851688: $GPRMC,170708,A,3946.9574,N,08404.9859,W,0.0000,0.000,011217,,*30
2017-12-01 12:07:07 1512148027.851753: $GPGSA,A,3,10,13,15,18,20,21,24,27,5,29,138,,2.0,0.8,1.5*34
2017-12-01 12:07:08 1512148028.476890: $GPZDA,170709.00,01,12,2017,00,00*68
2017-12-01 12:07:08 1512148028.477068: $GPGGA,170709,3946.9574,N,08404.9859,W,2,11,0.80,297.40,M,-33.324,M,,*71
2017-12-01 12:07:08 1512148028.477136: $GPRMC,170709,A,3946.9574,N,08404.9859,W,0.0000,0.000,011217,,*31
2017-12-01 12:07:08 1512148028.477199: $GPGSA,A,3,10,13,15,18,20,21,24,27,5,29,138,,2.0,0.8,1.5*34
2017-12-01 12:07:09 1512148029.403971: $GPZDA,170710.00,01,12,2017,00,00*60
2017-12-01 12:07:09 1512148029.404143: $GPGGA,170710,3946.9574,N,08404.9859,W,2,11,0.80,297.40,M,-33.324,M,,*79
2017-12-01 12:07:09 1512148029.404212: $GPRMC,170710,A,3946.9574,N,08404.9859,W,0.0000,0.000,011217,,*39
2017-12-01 12:07:09 1512148029.404277: $GPGSA,A,3,10,13,15,18,20,21,24,27,5,29,138,,2.0,0.8,1.5*34
2017-12-01 12:07:10 1512148030.738348: $GPGSV,3,1,12,10,20,279,37,13,33,046,45,15,66,054,43,18,51,295,45*72
2017-12-01 12:07:10 1512148030.738533: $GPGSV,3,2,12,20,55,066,45,21,76,288,44,24,29,142,44,27,14,316,41*73
2017-12-01 12:07:10 1512148030.738601: $GPGSV,3,3,12,05,07,084,24,29,14,192,30,04,04,135,00,138,38,213,46*41
2017-12-01 12:07:10 1512148030.851815: $GPZDA,170711.00,01,12,2017,00,00*61
2017-12-01 12:07:10 1512148030.851960: $GPGGA,170711,3946.9574,N,08404.9859,W,2,11,0.80,297.40,M,-33.324,M,,*78
2017-12-01 12:07:10 1512148030.852029: $GPRMC,170711,A,3946.9574,N,08404.9859,W,0.0000,0.000,011217,,*38
2017-12-01 12:07:10 1512148030.852091: $GPGSA,A,3,10,13,15,18,20,21,24,27,5,29,138,,2.0,0.8,1.5*34
2017-12-01 12:07:11 1512148031.404121: $GPZDA,170712.00,01,12,2017,00,00*62
2017-12-01 12:07:11 1512148031.404277: $GPGGA,170712,3946.9574,N,08404.9859,W,2,11,0.80,297.40,M,-33.324,M,,*7B
2017-12-01 12:07:11 1512148031.404344: $GPRMC,170712,A,3946.9574,N,08404.9859,W,0.0000,0.000,011217,,*3B
2017-12-01 12:07:11 1512148031.404407: $GPGSA,A,3,10,13,15,18,20,21,24,27,5,29,138,,2.0,0.8,1.5*34
2017-12-01 12:07:12 1512148032.407384: $GPZDA,170713.00,01,12,2017,00,00*63
2017-12-01 12:07:12 1512148032.407575: $GPGGA,170713,3946.9574,N,08404.9859,W,2,11,0.80,297.40,M,-33.324,M,,*7A
2017-12-01 12:07:12 1512148032.407649: $GPRMC,170713,A,3946.9574,N,08404.9859,W,0.0000,0.000,011217,,*3A
2017-12-01 12:07:12 1512148032.407720: $GPGSA,A,3,10,13,15,18,20,21,24,27,5,29,138,,2.0,0.8,1.5*34
2017-12-01 12:07:13 1512148033.738731: $GPGSV,3,1,12,10,20,279,37,13,33,046,44,15,66,054,43,18,51,295,46*70
2017-12-01 12:07:13 1512148033.738920: $GPGSV,3,2,12,20,55,066,45,21,76,288,44,24,29,142,44,27,14,316,41*73
2017-12-01 12:07:13 1512148033.738988: $GPGSV,3,3,12,05,07,084,24,29,14,192,29,04,04,135,00,138,38,213,46*49
2017-12-01 12:07:13 1512148033.852492: $GPZDA,170714.00,01,12,2017,00,00*64
2017-12-01 12:07:13 1512148033.852669: $GPGGA,170714,3946.9574,N,08404.9859,W,2,11,0.80,297.40,M,-33.324,M,,*7D
2017-12-01 12:07:13 1512148033.852792: $GPRMC,170714,A,3946.9574,N,08404.9859,W,0.0000,0.000,011217,,*3D
2017-12-01 12:07:13 1512148033.852856: $GPGSA,A,3,10,13,15,18,20,21,24,27,5,29,138,,2.0,0.8,1.5*34
2017-12-01 12:07:14 1512148034.400846: $GPZDA,170715.00,01,12,2017,00,00*65
2017-12-01 12:07:14 1512148034.401020: $GPGGA,170715,3946.9571,N,08404.9860,W,2,11,0.80,298.17,M,-33.324,M,,*7E
2017-12-01 12:07:14 1512148034.401087: $GPRMC,170715,A,3946.9571,N,08404.9860,W,0.0000,0.000,011217,,*33
2017-12-01 12:07:14 1512148034.401150: $GPGSA,A,3,10,13,15,18,20,21,24,27,5,29,138,,2.0,0.8,1.5*34
2017-12-01 12:07:15 1512148035.410086: $GPZDA,170716.00,01,12,2017,00,00*66
2017-12-01 12:07:15 1512148035.410262: $GPGGA,170716,3946.9571,N,08404.9860,W,2,11,0.80,298.17,M,-33.324,M,,*7D
2017-12-01 12:07:15 1512148035.410329: $GPRMC,170716,A,3946.9571,N,08404.9860,W,0.0000,0.000,011217,,*30
2017-12-01 12:07:15 1512148035.410393: $GPGSA,A,3,10,13,15,18,20,21,24,27,5,29,138,,2.0,0.8,1.5*34
