2017-12-31 18:52:30 1514764350.807225: {"class":"VERSION","release":"3.16","rev":"3.16-4","proto_major":3,"proto_minor":11}
2017-12-31 18:52:30 1514764350.807607: {"class":"DEVICES","devices":[{"class":"DEVICE","path":"/dev/ttyUSB0","driver":"SiRF","activated":"2017-12-31T23:52:30.718Z","flags":1,"native":1,"bps":4800,"parity":"N","stopbits":1,"cycle":1.00}]}
2017-12-31 18:52:30 1514764350.807713: {"class":"WATCH","enable":true,"json":false,"nmea":true,"raw":0,"scaled":false,"timing":false,"split24":false,"pps":false}
2017-12-31 18:52:30 1514764350.831409: $GPZDA,235231.00,31,12,2017,00,00*67
2017-12-31 18:52:30 1514764350.831524: $GPGGA,235231,3946.9578,N,08404.9810,W,2,11,0.80,310.68,M,-33.324,M,,*78
2017-12-31 18:52:30 1514764350.831589: $GPRMC,235231,A,3946.9578,N,08404.9810,W,0.0000,0.000,311217,,*3F
2017-12-31 18:52:30 1514764350.831651: $GPGSA,A,3,22,23,9,3,16,8,31,27,7,26,135,,1.7,0.8,1.3*09
2017-12-31 18:52:31 1514764351.391062: $GPZDA,235232.00,31,12,2017,00,00*64
2017-12-31 18:52:31 1514764351.391217: $GPGGA,235232,3946.9578,N,08404.9810,W,2,11,0.80,310.68,M,-33.324,M,,*7B
2017-12-31 18:52:31 1514764351.391286: $GPRMC,235232,A,3946.9578,N,08404.9810,W,0.0000,0.000,311217,,*3C
2017-12-31 18:52:31 1514764351.391347: $GPGSA,A,3,22,23,9,3,16,8,31,27,7,26,135,,1.7,0.8,1.3*09
2017-12-31 18:52:32 1514764352.389722: $GPZDA,235233.00,31,12,2017,00,00*65
2017-12-31 18:52:32 1514764352.389927: $GPGGA,235233,3946.9578,N,08404.9810,W,2,11,0.80,310.68,M,-33.324,M,,*7A
2017-12-31 18:52:32 1514764352.389996: $GPRMC,235233,A,3946.9578,N,08404.9810,W,0.0000,0.000,311217,,*3D
2017-12-31 18:52:32 1514764352.390059: $GPGSA,A,3,22,23,9,3,16,8,31,27,7,26,135,,1.7,0.8,1.3*09
2017-12-31 18:52:33 1514764353.687616: $GPGSV,3,1,11,22,07,204,16,23,69,279,39,09,37,309,40,03,17,220,35*75
2017-12-31 18:52:33 1514764353.687802: $GPGSV,3,2,11,16,76,036,43,08,17,175,40,31,15,090,31,27,40,142,41*7B
2017-12-31 18:52:33 1514764353.687869: $GPGSV,3,3,11,07,11,285,46,26,43,048,45,135,22,240,43*7B
2017-12-31 18:52:33 1514764353.801356: $GPZDA,235234.00,31,12,2017,00,00*62
2017-12-31 18:52:33 1514764353.801526: $GPGGA,235234,3946.9578,N,08404.9810,W,2,11,0.80,310.68,M,-33.324,M,,*7D
2017-12-31 18:52:33 1514764353.801593: $GPRMC,235234,A,3946.9578,N,08404.9810,W,0.0000,0.000,311217,,*3A
2017-12-31 18:52:33 1514764353.801655: $GPGSA,A,3,22,23,9,3,16,8,31,27,7,26,135,,1.7,0.8,1.3*09
2017-12-31 18:52:34 1514764354.352181: $GPZDA,235235.00,31,12,2017,00,00*63
2017-12-31 18:52:34 1514764354.352348: $GPGGA,235235,3946.9578,N,08404.9810,W,2,11,0.80,310.68,M,-33.324,M,,*7C
2017-12-31 18:52:34 1514764354.352416: $GPRMC,235235,A,3946.9578,N,08404.9810,W,0.0000,0.000,311217,,*3B
2017-12-31 18:52:34 1514764354.352476: $GPGSA,A,3,22,23,9,3,16,8,31,27,7,26,135,,1.7,0.8,1.3*09
2017-12-31 18:52:35 1514764355.390072: $GPZDA,235236.00,31,12,2017,00,00*60
2017-12-31 18:52:35 1514764355.390253: $GPGGA,235236,3946.9578,N,08404.9810,W,2,11,0.80,310.68,M,-33.324,M,,*7F
2017-12-31 18:52:35 1514764355.390320: $GPRMC,235236,A,3946.9578,N,08404.9810,W,0.0000,0.000,311217,,*38
2017-12-31 18:52:35 1514764355.390382: $GPGSA,A,3,22,23,9,3,16,8,31,27,7,26,135,,1.7,0.8,1.3*09
2017-12-31 18:52:36 1514764356.686728: $GPGSV,3,1,11,22,07,204,17,23,69,279,38,09,37,309,40,03,17,220,35*75
2017-12-31 18:52:36 1514764356.686898: $GPGSV,3,2,11,16,76,036,44,08,17,175,40,31,15,090,31,27,40,142,41*7C
2017-12-31 18:52:36 1514764356.686964: $GPGSV,3,3,11,07,11,285,47,26,43,048,45,135,22,240,44*7D
2017-12-31 18:52:36 1514764356.800440: $GPZDA,235237.00,31,12,2017,00,00*61
2017-12-31 18:52:36 1514764356.800628: $GPGGA,235237,3946.9578,N,08404.9810,W,2,11,0.80,310.68,M,-33.324,M,,*7E
2017-12-31 18:52:36 1514764356.800698: $GPRMC,235237,A,3946.9578,N,08404.9810,W,0.0000,0.000,311217,,*39
2017-12-31 18:52:36 1514764356.800764: $GPGSA,A,3,22,23,9,3,16,8,31,27,7,26,135,,1.7,0.8,1.3*09
2017-12-31 18:52:37 1514764357.391186: $GPZDA,235238.00,31,12,2017,00,00*6E
2017-12-31 18:52:37 1514764357.391363: $GPGGA,235238,3946.9578,N,08404.9810,W,2,11,0.80,310.68,M,-33.324,M,,*71
2017-12-31 18:52:37 1514764357.391486: $GPRMC,235238,A,3946.9578,N,08404.9810,W,0.0000,0.000,311217,,*36
2017-12-31 18:52:37 1514764357.391550: $GPGSA,A,3,22,23,9,3,16,8,31,27,7,26,135,,1.7,0.8,1.3*09
2017-12-31 18:52:38 1514764358.390532: $GPZDA,235239.00,31,12,2017,00,00*6F
2017-12-31 18:52:38 1514764358.390718: $GPGGA,235239,3946.9578,N,08404.9810,W,2,11,0.80,310.68,M,-33.324,M,,*70
2017-12-31 18:52:38 1514764358.390789: $GPRMC,235239,A,3946.9578,N,08404.9810,W,0.0000,0.000,311217,,*37
2017-12-31 18:52:38 1514764358.390853: $GPGSA,A,3,22,23,9,3,16,8,31,27,7,26,135,,1.7,0.8,1.3*09
2017-12-31 18:52:39 1514764359.688875: $GPGSV,3,1,11,22,07,204,17,23,69,279,37,09,37,309,39,03,17,220,30*71
2017-12-31 18:52:39 1514764359.689039: $GPGSV,3,2,11,16,76,036,44,08,17,175,40,31,15,090,31,27,40,142,41*7C
2017-12-31 18:52:39 1514764359.689109: $GPGSV,3,3,11,07,11,285,47,26,43,048,45,135,22,240,44*7D
2017-12-31 18:52:39 1514764359.802322: $GPZDA,235240.00,31,12,2017,00,00*61
2017-12-31 18:52:39 1514764359.802496: $GPGGA,235240,3946.9578,N,08404.9810,W,2,11,0.80,310.68,M,-33.324,M,,*7E
2017-12-31 18:52:39 1514764359.802565: $GPRMC,235240,A,3946.9578,N,08404.9810,W,0.0000,0.000,311217,,*39
2017-12-31 18:52:39 1514764359.802629: $GPGSA,A,3,22,23,9,3,16,8,31,27,7,26,135,,1.7,0.8,1.3*09
2017-12-31 18:52:40 1514764360.427581: $GPZDA,235241.00,31,12,2017,00,00*60
2017-12-31 18:52:40 1514764360.427755: $GPGGA,235241,3946.9578,N,08404.9810,W,2,11,0.80,310.68,M,-33.324,M,,*7F
2017-12-31 18:52:40 1514764360.427825: $GPRMC,235241,A,3946.9578,N,08404.9810,W,0.0000,0.000,311217,,*38
2017-12-31 18:52:40 1514764360.427905: $GPGSA,A,3,22,23,9,3,16,8,31,27,7,26,135,,1.7,0.8,1.3*09
