2017-11-16 15:15:00 1510863300.798364: {"class":"VERSION","release":"3.17","rev":"3.17","proto_major":3,"proto_minor":12}
2017-11-16 15:15:00 1510863300.798821: {"class":"DEVICES","devices":[{"class":"DEVICE","path":"/dev/ttyUSB0","driver":"SiRF","subtype":"9\u0006GSD4e_4.1.2-P1_RPATCH.05-F-GPS-4R-1510281 11/03/2015 307","activated":"2017-11-16T20:15:00.695Z","flags":1,"native":1,"bps":4800,"parity":"N","stopbits":1,"cycle":1.00}]}
2017-11-16 15:15:00 1510863300.798956: {"class":"WATCH","enable":true,"json":false,"nmea":true,"raw":0,"scaled":false,"timing":false,"split24":false,"pps":false}
2017-11-16 15:15:01 1510863301.718378: $GPGSV,3,1,12,08,07,298,30,10,64,324,50,14,25,249,45,15,15,064,38*71
2017-11-16 15:15:01 1510863301.718562: $GPGSV,3,2,12,18,74,079,47,20,12,115,32,21,35,180,44,24,48,064,49*70
2017-11-16 15:15:01 1510863301.718623: $GPGSV,3,3,12,27,09,264,39,32,42,259,48,12,06,111,27,138,38,213,43*4E
2017-11-16 15:15:01 1510863301.831703: $GPZDA,201500.00,16,11,2017,00,00*63
2017-11-16 15:15:01 1510863301.831881: $GPGGA,201500,3946.9576,N,08404.9855,W,2,12,0.80,301.70,M,-33.324,M,,*7F
2017-11-16 15:15:01 1510863301.831943: $GPRMC,201500,A,3946.9576,N,08404.9855,W,0.0000,0.000,161117,,*34
2017-11-16 15:15:01 1510863301.831999: $GPGSA,A,3,8,10,14,15,18,20,21,24,27,32,12,138,1.6,0.8,1.3*34
2017-11-16 15:15:02 1510863302.380012: $GPZDA,201501.00,16,11,2017,00,00*62
2017-11-16 15:15:02 1510863302.380174: $GPGGA,201501,3946.9576,N,08404.9855,W,2,12,0.80,301.70,M,-33.324,M,,*7E
2017-11-16 15:15:02 1510863302.380234: $GPRMC,201501,A,3946.9576,N,08404.9855,W,0.0000,0.000,161117,,*35
2017-11-16 15:15:02 1510863302.380360: $GPGSA,A,3,8,10,14,15,18,20,21,24,27,32,12,138,1.6,0.8,1.3*34
2017-11-16 15:15:03 1510863303.373571: $GPZDA,201502.00,16,11,2017,00,00*61
2017-11-16 15:15:03 1510863303.373754: $GPGGA,201502,3946.9576,N,08404.9855,W,2,12,0.80,301.70,M,-33.324,M,,*7D
2017-11-16 15:15:03 1510863303.373826: $GPRMC,201502,A,3946.9576,N,08404.9855,W,0.0000,0.000,161117,,*36
2017-11-16 15:15:03 1510863303.373883: $GPGSA,A,3,8,10,14,15,18,20,21,24,27,32,12,138,1.6,0.8,1.3*34
2017-11-16 15:15:04 1510863304.716623: $GPGSV,3,1,12,08,07,298,30,10,64,324,50,14,25,249,45,15,15,064,37*7E
2017-11-16 15:15:04 1510863304.720904: $GPGSV,3,2,12,18,74,079,46,20,12,115,32,21,35,180,44,24,48,064,49*71
2017-11-16 15:15:04 1510863304.721001: $GPGSV,3,3,12,27,09,264,38,32,42,259,48,12,06,111,27,138,38,213,44*48
2017-11-16 15:15:04 1510863304.829926: $GPZDA,201503.00,16,11,2017,00,00*60
2017-11-16 15:15:04 1510863304.830089: $GPGGA,201503,3946.9576,N,08404.9855,W,2,12,0.80,301.70,M,-33.324,M,,*7C
2017-11-16 15:15:04 1510863304.830150: $GPRMC,201503,A,3946.9576,N,08404.9855,W,0.0000,0.000,161117,,*37
2017-11-16 15:15:04 1510863304.830206: $GPGSA,A,3,8,10,14,15,18,20,21,24,27,32,12,138,1.6,0.8,1.3*34
2017-11-16 15:15:05 1510863305.381179: $GPZDA,201504.00,16,11,2017,00,00*67
2017-11-16 15:15:05 1510863305.381388: $GPGGA,201504,3946.9576,N,08404.9855,W,2,12,0.80,301.70,M,-33.324,M,,*7B
2017-11-16 15:15:05 1510863305.381450: $GPRMC,201504,A,3946.9576,N,08404.9855,W,0.0000,0.000,161117,,*30
2017-11-16 15:15:05 1510863305.381506: $GPGSA,A,3,8,10,14,15,18,20,21,24,27,32,12,138,1.6,0.8,1.3*34
2017-11-16 15:15:06 1510863306.381238: $GPZDA,201505.00,16,11,2017,00,00*66
2017-11-16 15:15:06 1510863306.381551: $GPGGA,201505,3946.9576,N,08404.9855,W,2,12,0.80,301.70,M,-33.324,M,,*7A
2017-11-16 15:15:06 1510863306.381669: $GPRMC,201505,A,3946.9576,N,08404.9855,W,0.0000,0.000,161117,,*31
2017-11-16 15:15:06 1510863306.381783: $GPGSA,A,3,8,10,14,15,18,20,21,24,27,32,12,138,1.6,0.8,1.3*34
2017-11-16 15:15:07 1510863307.715627: $GPGSV,3,1,12,08,07,298,30,10,64,324,50,14,25,249,45,15,15,064,37*7E
2017-11-16 15:15:07 1510863307.715794: $GPGSV,3,2,12,18,74,079,46,20,12,115,32,21,35,180,44,24,48,064,49*71
2017-11-16 15:15:07 1510863307.715855: $GPGSV,3,3,12,27,09,264,38,32,42,259,48,12,06,111,27,138,38,213,44*48
2017-11-16 15:15:07 1510863307.829177: $GPZDA,201506.00,16,11,2017,00,00*65
2017-11-16 15:15:07 1510863307.829367: $GPGGA,201506,3946.9576,N,08404.9855,W,2,12,0.80,301.70,M,-33.324,M,,*79
2017-11-16 15:15:07 1510863307.829481: $GPRMC,201506,A,3946.9576,N,08404.9855,W,0.0000,0.000,161117,,*32
2017-11-16 15:15:07 1510863307.829539: $GPGSA,A,3,8,10,14,15,18,20,21,24,27,32,12,138,1.6,0.8,1.3*34
2017-11-16 15:15:08 1510863308.375070: $GPZDA,201507.00,16,11,2017,00,00*64
2017-11-16 15:15:08 1510863308.375266: $GPGGA,201507,3946.9576,N,08404.9855,W,2,12,0.80,301.70,M,-33.324,M,,*78
2017-11-16 15:15:08 1510863308.375328: $GPRMC,201507,A,3946.9576,N,08404.9855,W,0.0000,0.000,161117,,*33
2017-11-16 15:15:08 1510863308.375385: $GPGSA,A,3,8,10,14,15,18,20,21,24,27,32,12,138,1.6,0.8,1.3*34
2017-11-16 15:15:09 1510863309.380937: $GPZDA,201508.00,16,11,2017,00,00*6B
2017-11-16 15:15:09 1510863309.381121: $GPGGA,201508,3946.9576,N,08404.9855,W,2,12,0.80,301.70,M,-33.324,M,,*77
2017-11-16 15:15:09 1510863309.381211: $GPRMC,201508,A,3946.9576,N,08404.9855,W,0.0000,0.000,161117,,*3C
2017-11-16 15:15:09 1510863309.381269: $GPGSA,A,3,8,10,14,15,18,20,21,24,27,32,12,138,1.6,0.8,1.3*34
2017-11-16 15:15:10 1510863310.710161: $GPGSV,3,1,12,08,07,298,30,10,64,324,50,14,25,249,45,15,15,064,37*7E
2017-11-16 15:15:10 1510863310.710402: $GPGSV,3,2,12,18,74,079,46,20,12,115,32,21,35,180,43,24,48,064,49*76
2017-11-16 15:15:10 1510863310.710471: $GPGSV,3,3,12,27,09,264,38,32,42,259,48,12,06,111,27,138,38,213,44*48
2017-11-16 15:15:10 1510863310.823384: $GPZDA,201509.00,16,11,2017,00,00*6A
2017-11-16 15:15:10 1510863310.823628: $GPGGA,201509,3946.9576,N,08404.9855,W,2,12,0.80,301.70,M,-33.324,M,,*76
2017-11-16 15:15:10 1510863310.823692: $GPRMC,201509,A,3946.9576,N,08404.9855,W,0.0000,0.000,161117,,*3D
2017-11-16 15:15:10 1510863310.823748: $GPGSA,A,3,8,10,14,15,18,20,21,24,27,32,12,138,1.6,0.8,1.3*34
