2017-12-01 14:38:45 1512157125.834978: {"class":"VERSION","release":"3.16","rev":"3.16-4","proto_major":3,"proto_minor":11}
2017-12-01 14:38:45 1512157125.835454: {"class":"DEVICES","devices":[{"class":"DEVICE","path":"/dev/ttyUSB0","driver":"SiRF","subtype":"9\u0006GSD4e_4.1.2-P1_RPATCH.05-F-GPS-4R-1510281 11/03/2015 307","activated":"2017-12-01T19:38:45.551Z","flags":1,"native":1,"bps":4800,"parity":"N","stopbits":1,"cycle":1.00}]}
2017-12-01 14:38:45 1512157125.835581: {"class":"WATCH","enable":true,"json":false,"nmea":true,"raw":0,"scaled":false,"timing":false,"split24":false,"pps":false}
2017-12-01 14:38:46 1512157126.782621: $GPGSV,3,1,12,10,75,343,47,14,34,259,43,18,65,106,46,21,21,178,44*76
2017-12-01 14:38:46 1512157126.786110: $GPGSV,3,2,12,24,40,052,48,15,06,070,20,31,06,204,36,32,51,274,45*77
2017-12-01 14:38:46 1512157126.786216: $GPGSV,3,3,12,12,13,102,35,20,03,121,23,08,03,288,21,138,38,213,47*44
2017-12-01 14:38:46 1512157126.895977: $GPZDA,193847.00,01,12,2017,00,00*60
2017-12-01 14:38:46 1512157126.896151: $GPGGA,193847,3946.9585,N,08404.9858,W,2,12,1.00,296.51,M,-33.324,M,,*7D
2017-12-01 14:38:46 1512157126.896217: $GPRMC,193847,A,3946.9585,N,08404.9858,W,0.0000,0.000,011217,,*36
2017-12-01 14:38:46 1512157126.896278: $GPGSA,A,3,10,14,18,21,24,15,31,32,12,20,8,138,2.0,1.0,1.5*39
2017-12-01 14:38:47 1512157127.521773: $GPZDA,193848.00,01,12,2017,00,00*6F
2017-12-01 14:38:47 1512157127.521941: $GPGGA,193848,3946.9585,N,08404.9858,W,2,12,1.00,296.51,M,-33.324,M,,*72
2017-12-01 14:38:47 1512157127.522007: $GPRMC,193848,A,3946.9585,N,08404.9858,W,0.0000,0.000,011217,,*39
2017-12-01 14:38:47 1512157127.522068: $GPGSA,A,3,10,14,18,21,24,15,31,32,12,20,8,138,2.0,1.0,1.5*39
2017-12-01 14:38:48 1512157128.414877: $GPZDA,193849.00,01,12,2017,00,00*6E
2017-12-01 14:38:48 1512157128.415053: $GPGGA,193849,3946.9585,N,08404.9858,W,2,12,1.00,296.51,M,-33.324,M,,*73
2017-12-01 14:38:48 1512157128.415119: $GPRMC,193849,A,3946.9585,N,08404.9858,W,0.0000,0.000,011217,,*38
2017-12-01 14:38:48 1512157128.415204: $GPGSA,A,3,10,14,18,21,24,15,31,32,12,20,8,138,2.0,1.0,1.5*39
2017-12-01 14:38:49 1512157129.748066: $GPGSV,3,1,12,10,75,343,47,14,34,259,43,18,65,106,46,21,21,178,44*76
2017-12-01 14:38:49 1512157129.748250: $GPGSV,3,2,12,24,40,052,48,15,06,070,21,31,06,204,35,32,51,274,45*75
2017-12-01 14:38:49 1512157129.748386: $GPGSV,3,3,12,12,13,102,35,20,03,121,23,08,03,288,24,138,38,213,47*41
2017-12-01 14:38:49 1512157129.861761: $GPZDA,193850.00,01,12,2017,00,00*66
2017-12-01 14:38:49 1512157129.861930: $GPGGA,193850,3946.9585,N,08404.9858,W,2,12,1.00,296.51,M,-33.324,M,,*7B
2017-12-01 14:38:49 1512157129.861997: $GPRMC,193850,A,3946.9585,N,08404.9858,W,0.0000,0.000,011217,,*30
2017-12-01 14:38:49 1512157129.862057: $GPGSA,A,3,10,14,18,21,24,15,31,32,12,20,8,138,2.0,1.0,1.5*39
2017-12-01 14:38:50 1512157130.449821: $GPZDA,193851.00,01,12,2017,00,00*67
2017-12-01 14:38:50 1512157130.449991: $GPGGA,193851,3946.9585,N,08404.9858,W,2,12,1.00,296.51,M,-33.324,M,,*7A
2017-12-01 14:38:50 1512157130.450057: $GPRMC,193851,A,3946.9585,N,08404.9858,W,0.0000,0.000,011217,,*31
2017-12-01 14:38:50 1512157130.450117: $GPGSA,A,3,10,14,18,21,24,15,31,32,12,20,8,138,2.0,1.0,1.5*39
2017-12-01 14:38:51 1512157131.446894: $GPZDA,193852.00,01,12,2017,00,00*64
2017-12-01 14:38:51 1512157131.447070: $GPGGA,193852,3946.9585,N,08404.9858,W,2,12,1.00,296.51,M,-33.324,M,,*79
2017-12-01 14:38:51 1512157131.447135: $GPRMC,193852,A,3946.9585,N,08404.9858,W,0.0000,0.000,011217,,*32
2017-12-01 14:38:51 1512157131.447195: $GPGSA,A,3,10,14,18,21,24,15,31,32,12,20,8,138,2.0,1.0,1.5*39
2017-12-01 14:38:52 1512157132.747160: $GPGSV,3,1,12,10,75,343,47,14,34,259,43,18,65,106,46,21,21,178,44*76
2017-12-01 14:38:52 1512157132.747345: $GPGSV,3,2,12,24,40,052,47,15,06,070,22,31,06,204,35,32,51,274,44*78
2017-12-01 14:38:52 1512157132.747413: $GPGSV,3,3,12,12,13,102,35,20,03,121,25,08,03,288,25,138,38,213,47*46
2017-12-01 14:38:52 1512157132.860599: $GPZDA,193853.00,01,12,2017,00,00*65
2017-12-01 14:38:52 1512157132.860771: $GPGGA,193853,3946.9585,N,08404.9858,W,2,12,1.00,296.51,M,-33.324,M,,*78
2017-12-01 14:38:52 1512157132.860889: $GPRMC,193853,A,3946.9585,N,08404.9858,W,0.0000,0.000,011217,,*33
2017-12-01 14:38:52 1512157132.860950: $GPGSA,A,3,10,14,18,21,24,15,31,32,12,20,8,138,2.0,1.0,1.5*39
2017-12-01 14:38:53 1512157133.447715: $GPZDA,193854.00,01,12,2017,00,00*62
2017-12-01 14:38:53 1512157133.447902: $GPGGA,193854,3946.9585,N,08404.9858,W,2,12,1.00,296.51,M,-33.324,M,,*7F
2017-12-01 14:38:53 1512157133.447974: $GPRMC,193854,A,3946.9585,N,08404.9858,W,0.0000,0.000,011217,,*34
2017-12-01 14:38:53 1512157133.448038: $GPGSA,A,3,10,14,18,21,24,15,31,32,12,20,8,138,2.0,1.0,1.5*39
2017-12-01 14:38:54 1512157134.411182: $GPZDA,193855.00,01,12,2017,00,00*63
2017-12-01 14:38:54 1512157134.411418: $GPGGA,193855,3946.9585,N,08404.9858,W,2,12,1.00,296.51,M,-33.324,M,,*7E
2017-12-01 14:38:54 1512157134.411497: $GPRMC,193855,A,3946.9585,N,08404.9858,W,0.0000,0.000,011217,,*35
2017-12-01 14:38:54 1512157134.411562: $GPGSA,A,3,10,14,18,21,24,15,31,32,12,20,8,138,2.0,1.0,1.5*39
2017-12-01 14:38:55 1512157135.749249: $GPGSV,3,1,12,10,75,343,46,14,34,259,43,18,65,106,46,21,21,178,44*77
2017-12-01 14:38:55 1512157135.749437: $GPGSV,3,2,12,24,40,052,47,15,06,070,21,31,06,204,36,32,51,274,44*78
2017-12-01 14:38:55 1512157135.749507: $GPGSV,3,3,12,12,13,102,35,20,03,121,25,25,08,138,03,138,38,213,47*4E
2017-12-01 14:38:55 1512157135.862921: $GPZDA,193856.00,01,12,2017,00,00*60
2017-12-01 14:38:55 1512157135.863131: $GPGGA,193856,3946.9585,N,08404.9858,W,2,11,1.00,296.51,M,-33.324,M,,*7E
2017-12-01 14:38:55 1512157135.863243: $GPRMC,193856,A,3946.9585,N,08404.9858,W,0.0000,0.000,011217,,*36
2017-12-01 14:38:55 1512157135.863308: $GPGSA,A,3,10,14,18,21,24,15,31,32,12,20,138,,2.0,1.0,1.5*01
2017-12-01 14:38:56 1512157136.448751: $GPZDA,193857.00,01,12,2017,00,00*61
2017-12-01 14:38:56 1512157136.448924: $GPGGA,193857,3946.9585,N,08404.9858,W,2,11,1.00,296.51,M,-33.324,M,,*7F
2017-12-01 14:38:56 1512157136.448993: $GPRMC,193857,A,3946.9585,N,08404.9858,W,0.0000,0.000,011217,,*37
2017-12-01 14:38:56 1512157136.449080: $GPGSA,A,3,10,14,18,21,24,15,31,32,12,20,138,,2.0,1.0,1.5*01
2017-12-01 14:38:57 1512157137.411720: $GPZDA,193858.00,01,12,2017,00,00*6E
2017-12-01 14:38:57 1512157137.411893: $GPGGA,193858,3946.9585,N,08404.9858,W,2,11,1.00,296.51,M,-33.324,M,,*70
2017-12-01 14:38:57 1512157137.411961: $GPRMC,193858,A,3946.9585,N,08404.9858,W,0.0000,0.000,011217,,*38
2017-12-01 14:38:57 1512157137.412055: $GPGSA,A,3,10,14,18,21,24,15,31,32,12,20,138,,2.0,1.0,1.5*01
2017-12-01 14:38:58 1512157138.782218: $GPGSV,3,1,12,10,75,343,47,14,34,259,43,18,65,106,46,21,21,178,44*76
2017-12-01 14:38:58 1512157138.782563: $GPGSV,3,2,12,24,40,052,46,15,06,070,20,31,06,204,36,32,51,274,44*78
2017-12-01 14:38:58 1512157138.782695: $GPGSV,3,3,12,12,13,102,36,20,03,121,25,08,03,288,20,138,38,213,47*40
2017-12-01 14:38:58 1512157138.895731: $GPZDA,193859.00,01,12,2017,00,00*6F
2017-12-01 14:38:58 1512157138.895895: $GPGGA,193859,3946.9585,N,08404.9858,W,2,12,1.00,296.51,M,-33.324,M,,*72
2017-12-01 14:38:58 1512157138.895964: $GPRMC,193859,A,3946.9585,N,08404.9858,W,0.0000,0.000,011217,,*39
2017-12-01 14:38:58 1512157138.896058: $GPGSA,A,3,10,14,18,21,24,15,31,32,12,20,8,138,2.0,1.0,1.5*39
2017-12-01 14:38:59 1512157139.446610: $GPZDA,193900.00,01,12,2017,00,00*62
2017-12-01 14:38:59 1512157139.446773: $GPGGA,193900,3946.9585,N,08404.9858,W,2,12,1.00,296.51,M,-33.324,M,,*7F
2017-12-01 14:38:59 1512157139.446843: $GPRMC,193900,A,3946.9585,N,08404.9858,W,0.0000,0.000,011217,,*34
2017-12-01 14:38:59 1512157139.446907: $GPGSA,A,3,10,14,18,21,24,15,31,32,12,20,8,138,2.0,1.0,1.5*39
2017-12-01 14:39:00 1512157140.408647: $GPZDA,193901.00,01,12,2017,00,00*63
2017-12-01 14:39:00 1512157140.408819: $GPGGA,193901,3946.9585,N,08404.9858,W,2,12,1.00,296.51,M,-33.324,M,,*7E
2017-12-01 14:39:00 1512157140.408889: $GPRMC,193901,A,3946.9585,N,08404.9858,W,0.0000,0.000,011217,,*35
2017-12-01 14:39:00 1512157140.408953: $GPGSA,A,3,10,14,18,21,24,15,31,32,12,20,8,138,2.0,1.0,1.5*39
2017-12-01 14:39:01 1512157141.778221: $GPGSV,3,1,12,10,75,343,48,14,34,259,42,18,65,106,46,21,21,178,44*78
2017-12-01 14:39:01 1512157141.778404: $GPGSV,3,2,12,24,40,052,47,15,06,070,16,31,06,204,36,32,51,274,45*7D
2017-12-01 14:39:01 1512157141.778491: $GPGSV,3,3,12,12,13,102,36,08,03,288,17,25,08,138,20,138,38,213,47*47
2017-12-01 14:39:01 1512157141.891760: $GPZDA,193902.00,01,12,2017,00,00*60
2017-12-01 14:39:01 1512157141.891945: $GPGGA,193902,3946.9585,N,08404.9858,W,2,12,1.00,296.51,M,-33.324,M,,*7D
2017-12-01 14:39:01 1512157141.892013: $GPRMC,193902,A,3946.9585,N,08404.9858,W,0.0000,0.000,011217,,*36
2017-12-01 14:39:01 1512157141.892074: $GPGSA,A,3,10,14,18,21,24,15,31,32,12,8,25,138,2.0,1.0,1.5*3C
2017-12-01 14:39:02 1512157142.517007: $GPZDA,193903.00,01,12,2017,00,00*61
2017-12-01 14:39:02 1512157142.517175: $GPGGA,193903,3946.9585,N,08404.9858,W,2,12,1.20,296.51,M,-33.324,M,,*7E
2017-12-01 14:39:02 1512157142.517243: $GPRMC,193903,A,3946.9585,N,08404.9858,W,0.0000,0.000,011217,,*37
2017-12-01 14:39:02 1512157142.517305: $GPGSA,A,3,10,14,18,21,24,15,31,32,12,8,25,138,2.0,1.2,1.5*3E
2017-12-01 14:39:03 1512157143.446619: $GPZDA,193904.00,01,12,2017,00,00*66
2017-12-01 14:39:03 1512157143.446803: $GPGGA,193904,3946.9585,N,08404.9858,W,2,12,1.20,296.51,M,-33.324,M,,*79
2017-12-01 14:39:03 1512157143.446871: $GPRMC,193904,A,3946.9585,N,08404.9858,W,0.0000,0.000,011217,,*30
2017-12-01 14:39:03 1512157143.446932: $GPGSA,A,3,10,14,18,21,24,15,31,32,12,8,25,138,2.0,1.2,1.5*3E
2017-12-01 14:39:04 1512157144.757266: $GPGSV,3,1,12,10,75,343,47,14,34,259,42,18,65,106,46,21,21,178,44*77
2017-12-01 14:39:04 1512157144.757452: $GPGSV,3,2,12,24,40,052,47,08,03,288,27,31,06,204,36,32,51,274,45*73
2017-12-01 14:39:04 1512157144.757519: $GPGSV,3,3,12,12,13,102,37,15,06,070,15,20,03,121,02,138,38,213,47*4E
2017-12-01 14:39:04 1512157144.870611: $GPZDA,193905.00,01,12,2017,00,00*67
2017-12-01 14:39:04 1512157144.870780: $GPGGA,193905,3946.9585,N,08404.9858,W,2,10,1.20,296.51,M,-33.324,M,,*7A
2017-12-01 14:39:04 1512157144.870847: $GPRMC,193905,A,3946.9585,N,08404.9858,W,0.0000,0.000,011217,,*31
2017-12-01 14:39:04 1512157144.870907: $GPGSA,A,3,10,14,18,21,24,8,31,32,12,138,,,2.0,1.2,1.5*3D
2017-12-01 14:39:05 1512157145.412796: $GPZDA,193906.00,01,12,2017,00,00*64
2017-12-01 14:39:05 1512157145.412962: $GPGGA,193906,3946.9585,N,08404.9858,W,2,10,1.00,296.51,M,-33.324,M,,*7B
2017-12-01 14:39:05 1512157145.413028: $GPRMC,193906,A,3946.9585,N,08404.9858,W,0.0000,0.000,011217,,*32
2017-12-01 14:39:05 1512157145.413089: $GPGSA,A,3,10,14,18,21,24,8,31,32,12,138,,,2.0,1.0,1.5*3F
2017-12-01 14:39:06 1512157146.413627: $GPZDA,193907.00,01,12,2017,00,00*65
2017-12-01 14:39:06 1512157146.413797: $GPGGA,193907,3946.9585,N,08404.9858,W,2,10,1.00,296.51,M,-33.324,M,,*7A
2017-12-01 14:39:06 1512157146.413863: $GPRMC,193907,A,3946.9585,N,08404.9858,W,0.0000,0.000,011217,,*33
2017-12-01 14:39:06 1512157146.413925: $GPGSA,A,3,10,14,18,21,24,8,31,32,12,138,,,2.0,1.0,1.5*3F
2017-12-01 14:39:07 1512157147.740101: $GPGSV,3,1,12,10,75,343,47,14,34,259,43,18,65,106,46,21,21,178,44*76
2017-12-01 14:39:07 1512157147.740284: $GPGSV,3,2,12,24,40,052,47,08,03,288,29,31,06,204,36,32,51,274,44*7C
2017-12-01 14:39:07 1512157147.740350: $GPGSV,3,3,12,12,13,102,37,15,06,070,22,25,08,138,16,138,38,213,48*46
2017-12-01 14:39:07 1512157147.853423: $GPZDA,193908.00,01,12,2017,00,00*6A
2017-12-01 14:39:07 1512157147.853551: $GPGGA,193908,3946.9585,N,08404.9858,W,2,11,1.00,296.51,M,-33.324,M,,*74
2017-12-01 14:39:07 1512157147.853615: $GPRMC,193908,A,3946.9585,N,08404.9858,W,0.0000,0.000,011217,,*3C
2017-12-01 14:39:07 1512157147.853676: $GPGSA,A,3,10,14,18,21,24,8,31,32,12,15,138,,2.0,1.0,1.5*3B
2017-12-01 14:39:08 1512157148.406843: $GPZDA,193909.00,01,12,2017,00,00*6B
2017-12-01 14:39:08 1512157148.407020: $GPGGA,193909,3946.9585,N,08404.9858,W,2,11,1.00,296.51,M,-33.324,M,,*75
2017-12-01 14:39:08 1512157148.407086: $GPRMC,193909,A,3946.9585,N,08404.9858,W,0.0000,0.000,011217,,*3D
2017-12-01 14:39:08 1512157148.407147: $GPGSA,A,3,10,14,18,21,24,8,31,32,12,15,138,,2.0,1.0,1.5*3B
2017-12-01 14:39:09 1512157149.413094: $GPZDA,193910.00,01,12,2017,00,00*63
2017-12-01 14:39:09 1512157149.413267: $GPGGA,193910,3946.9585,N,08404.9858,W,2,11,1.00,296.51,M,-33.324,M,,*7D
2017-12-01 14:39:09 1512157149.413335: $GPRMC,193910,A,3946.9585,N,08404.9858,W,0.0000,0.000,011217,,*35
2017-12-01 14:39:09 1512157149.413395: $GPGSA,A,3,10,14,18,21,24,8,31,32,12,15,138,,2.0,1.0,1.5*3B
2017-12-01 14:39:10 1512157150.746018: $GPGSV,3,1,12,10,75,343,47,14,34,259,44,18,65,106,45,21,21,178,44*72
2017-12-01 14:39:10 1512157150.746220: $GPGSV,3,2,12,24,40,052,47,20,03,121,23,31,06,204,36,32,51,274,45*7D
2017-12-01 14:39:10 1512157150.746289: $GPGSV,3,3,12,12,13,102,37,15,06,070,24,08,03,288,30,138,38,213,47*47
2017-12-01 14:39:10 1512157150.859640: $GPZDA,193911.00,01,12,2017,00,00*62
2017-12-01 14:39:10 1512157150.859794: $GPGGA,193911,3946.9585,N,08404.9858,W,2,12,1.00,296.51,M,-33.324,M,,*7F
2017-12-01 14:39:10 1512157150.859859: $GPRMC,193911,A,3946.9585,N,08404.9858,W,0.0000,0.000,011217,,*34
2017-12-01 14:39:10 1512157150.859920: $GPGSA,A,3,10,14,18,21,24,20,31,32,12,15,8,138,2.0,1.0,1.5*39
