2018-01-11 20:15:06 1515719706.367309: {"class":"VERSION","release":"3.16","rev":"3.16-4","proto_major":3,"proto_minor":11}
2018-01-11 20:15:06 1515719706.367692: {"class":"DEVICES","devices":[{"class":"DEVICE","path":"/dev/ttyUSB0","driver":"SiRF","subtype":"9\u0006GSD4e_4.1.2-P1_RPATCH.05-F-GPS-4R-1510281 11/03/2015 307","activated":"2018-01-12T01:15:06.346Z","flags":1,"native":1,"bps":4800,"parity":"N","stopbits":1,"cycle":1.00}]}
2018-01-11 20:15:06 1515719706.367806: {"class":"WATCH","enable":true,"json":false,"nmea":true,"raw":0,"scaled":false,"timing":false,"split24":false,"pps":false}
2018-01-11 20:15:07 1515719707.348987: $GPZDA,011508.00,12,01,2018,00,00*62
2018-01-11 20:15:07 1515719707.349202: $GPGGA,011508,3946.9603,N,08404.9862,W,2,10,0.80,294.02,M,-33.324,M,,*7B
2018-01-11 20:15:07 1515719707.349272: $GPRMC,011508,A,3946.9603,N,08404.9862,W,0.0000,0.000,120118,,*30
2018-01-11 20:15:07 1515719707.349334: $GPGSA,A,3,7,8,9,11,16,23,27,28,30,138,,,4.0,0.8,3.5*3E
2018-01-11 20:15:08 1515719708.678078: $GPGSV,3,1,10,07,57,315,41,08,74,124,46,09,46,228,42,11,21,166,46*76
2018-01-11 20:15:08 1515719708.678249: $GPGSV,3,2,10,16,22,061,44,23,27,189,49,27,46,052,50,28,15,259,37*71
2018-01-11 20:15:08 1515719708.678316: $GPGSV,3,3,10,30,30,306,36,138,38,213,45*48
2018-01-11 20:15:08 1515719708.791790: $GPZDA,011509.00,12,01,2018,00,00*63
2018-01-11 20:15:08 1515719708.791935: $GPGGA,011509,3946.9603,N,08404.9862,W,2,10,0.80,294.02,M,-33.324,M,,*7A
2018-01-11 20:15:08 1515719708.792002: $GPRMC,011509,A,3946.9603,N,08404.9862,W,0.0000,0.000,120118,,*31
2018-01-11 20:15:08 1515719708.792062: $GPGSA,A,3,7,8,9,11,16,23,27,28,30,138,,,4.0,0.8,3.5*3E
2018-01-11 20:15:09 1515719709.348891: $GPZDA,011510.00,12,01,2018,00,00*6B
2018-01-11 20:15:09 1515719709.349093: $GPGGA,011510,3946.9603,N,08404.9862,W,2,10,0.80,294.02,M,-33.324,M,,*72
2018-01-11 20:15:09 1515719709.349172: $GPRMC,011510,A,3946.9603,N,08404.9862,W,0.0000,0.000,120118,,*39
2018-01-11 20:15:09 1515719709.349234: $GPGSA,A,3,7,8,9,11,16,23,27,28,30,138,,,4.0,0.8,3.5*3E
2018-01-11 20:15:10 1515719710.346940: $GPZDA,011511.00,12,01,2018,00,00*6A
2018-01-11 20:15:10 1515719710.351262: $GPGGA,011511,3946.9600,N,08404.9863,W,2,10,0.80,294.78,M,-33.324,M,,*7C
2018-01-11 20:15:10 1515719710.351364: $GPRMC,011511,A,3946.9600,N,08404.9863,W,0.0000,0.000,120118,,*3A
2018-01-11 20:15:10 1515719710.351428: $GPGSA,A,3,7,8,9,11,16,23,27,28,30,138,,,4.0,0.8,3.5*3E
2018-01-11 20:15:11 1515719711.687673: $GPGSV,3,1,10,07,57,315,41,08,74,124,46,09,46,228,42,11,21,166,46*76
2018-01-11 20:15:11 1515719711.687830: $GPGSV,3,2,10,16,22,061,44,23,27,189,49,27,46,052,50,28,15,259,37*71
2018-01-11 20:15:11 1515719711.687897: $GPGSV,3,3,10,30,30,306,36,138,38,213,44*49
2018-01-11 20:15:11 1515719711.801469: $GPZDA,011512.00,12,01,2018,00,00*69
2018-01-11 20:15:11 1515719711.801591: $GPGGA,011512,3946.9600,N,08404.9863,W,2,10,0.80,294.78,M,-33.324,M,,*7F
2018-01-11 20:15:11 1515719711.801654: $GPRMC,011512,A,3946.9600,N,08404.9863,W,0.0000,0.000,120118,,*39
2018-01-11 20:15:11 1515719711.801715: $GPGSA,A,3,7,8,9,11,16,23,27,28,30,138,,,4.0,0.8,3.5*3E
2018-01-11 20:15:12 1515719712.426837: $GPZDA,011513.00,12,01,2018,00,00*68
2018-01-11 20:15:12 1515719712.427001: $GPGGA,011513,3946.9600,N,08404.9863,W,2,10,0.80,294.78,M,-33.324,M,,*7E
2018-01-11 20:15:12 1515719712.427068: $GPRMC,011513,A,3946.9600,N,08404.9863,W,0.0000,0.000,120118,,*38
2018-01-11 20:15:12 1515719712.427133: $GPGSA,A,3,7,8,9,11,16,23,27,28,30,138,,,4.0,0.8,3.5*3E
2018-01-11 20:15:13 1515719713.350180: $GPZDA,011514.00,12,01,2018,00,00*6F
2018-01-11 20:15:13 1515719713.350332: $GPGGA,011514,3946.9600,N,08404.9863,W,2,10,0.80,294.78,M,-33.324,M,,*79
2018-01-11 20:15:13 1515719713.350397: $GPRMC,011514,A,3946.9600,N,08404.9863,W,0.0000,0.000,120118,,*3F
2018-01-11 20:15:13 1515719713.350459: $GPGSA,A,3,7,8,9,11,16,23,27,28,30,138,,,4.0,0.8,3.5*3E
2018-01-11 20:15:14 1515719714.682993: $GPGSV,3,1,10,07,57,315,41,08,74,124,46,09,46,228,42,11,21,166,46*76
2018-01-11 20:15:14 1515719714.683176: $GPGSV,3,2,10,16,22,061,44,23,27,189,49,27,46,052,50,28,15,259,36*70
2018-01-11 20:15:14 1515719714.683301: $GPGSV,3,3,10,30,30,306,36,138,38,213,44*49
2018-01-11 20:15:14 1515719714.796360: $GPZDA,011515.00,12,01,2018,00,00*6E
2018-01-11 20:15:14 1515719714.796507: $GPGGA,011515,3946.9600,N,08404.9863,W,2,10,0.80,294.78,M,-33.324,M,,*78
2018-01-11 20:15:14 1515719714.796575: $GPRMC,011515,A,3946.9600,N,08404.9863,W,0.0000,0.000,120118,,*3E
2018-01-11 20:15:14 1515719714.796635: $GPGSA,A,3,7,8,9,11,16,23,27,28,30,138,,,4.0,0.8,3.5*3E
2018-01-11 20:15:15 1515719715.347502: $GPZDA,011516.00,12,01,2018,00,00*6D
2018-01-11 20:15:15 1515719715.349972: $GPGGA,011516,3946.9600,N,08404.9863,W,2,10,0.80,294.78,M,-33.324,M,,*7B
2018-01-11 20:15:15 1515719715.350078: $GPRMC,011516,A,3946.9600,N,08404.9863,W,0.0000,0.000,120118,,*3D
2018-01-11 20:15:15 1515719715.350144: $GPGSA,A,3,7,8,9,11,16,23,27,28,30,138,,,4.0,0.8,3.5*3E
2018-01-11 20:15:16 1515719716.348436: $GPZDA,011517.00,12,01,2018,00,00*6C
2018-01-11 20:15:16 1515719716.348588: $GPGGA,011517,3946.9600,N,08404.9863,W,2,10,0.80,294.78,M,-33.324,M,,*7A
2018-01-11 20:15:16 1515719716.348654: $GPRMC,011517,A,3946.9600,N,08404.9863,W,0.0000,0.000,120118,,*3C
2018-01-11 20:15:16 1515719716.348716: $GPGSA,A,3,7,8,9,11,16,23,27,28,30,138,,,4.0,0.8,3.5*3E
2018-01-11 20:15:17 1515719717.683355: $GPGSV,3,1,10,07,57,315,41,08,74,124,46,09,46,228,42,11,21,166,46*76
2018-01-11 20:15:17 1515719717.683534: $GPGSV,3,2,10,16,22,061,44,23,27,189,49,27,46,052,50,28,15,259,36*70
2018-01-11 20:15:17 1515719717.683603: $GPGSV,3,3,10,30,30,306,37,138,38,213,45*49
2018-01-11 20:15:17 1515719717.796963: $GPZDA,011518.00,12,01,2018,00,00*63
2018-01-11 20:15:17 1515719717.797079: $GPGGA,011518,3946.9600,N,08404.9863,W,2,10,0.80,294.78,M,-33.324,M,,*75
2018-01-11 20:15:17 1515719717.797145: $GPRMC,011518,A,3946.9600,N,08404.9863,W,0.0000,0.000,120118,,*33
2018-01-11 20:15:17 1515719717.797208: $GPGSA,A,3,7,8,9,11,16,23,27,28,30,138,,,4.0,0.8,3.5*3E
2018-01-11 20:15:18 1515719718.341642: $GPZDA,011519.00,12,01,2018,00,00*62
2018-01-11 20:15:18 1515719718.341801: $GPGGA,011519,3946.9600,N,08404.9863,W,2,10,0.80,294.78,M,-33.324,M,,*74
2018-01-11 20:15:18 1515719718.341867: $GPRMC,011519,A,3946.9600,N,08404.9863,W,0.0000,0.000,120118,,*32
2018-01-11 20:15:18 1515719718.341928: $GPGSA,A,3,7,8,9,11,16,23,27,28,30,138,,,4.0,0.8,3.5*3E
