2017-11-16 17:23:09 1510870989.294479: {"class":"VERSION","release":"3.17","rev":"3.17","proto_major":3,"proto_minor":12}
2017-11-16 17:23:09 1510870989.295138: {"class":"DEVICES","devices":[{"class":"DEVICE","path":"/dev/ttyUSB0","driver":"SiRF","subtype":"9\u0006GSD4e_4.1.2-P1_RPATCH.05-F-GPS-4R-1510281 11/03/2015 307","activated":"2017-11-16T22:23:09.287Z","flags":1,"native":1,"bps":4800,"parity":"N","stopbits":1,"cycle":1.00}]}
2017-11-16 17:23:09 1510870989.295296: {"class":"WATCH","enable":true,"json":false,"nmea":true,"raw":0,"scaled":false,"timing":false,"split24":false,"pps":false}
2017-11-16 17:23:09 1510870989.736681: $GPGSV,3,1,12,01,20,304,37,10,53,145,48,22,15,312,42,12,23,054,50*77
2017-11-16 17:23:09 1510870989.736896: $GPGSV,3,2,12,14,64,318,47,18,22,142,41,24,01,048,00,11,09,286,40*74
2017-11-16 17:23:09 1510870989.736979: $GPGSV,3,3,12,25,38,096,48,31,51,222,49,32,69,013,49,138,38,213,44*4C
2017-11-16 17:23:09 1510870989.850426: $GPZDA,222308.00,16,11,2017,00,00*6C
2017-11-16 17:23:09 1510870989.850585: $GPGGA,222308,3946.9574,N,08404.9830,W,2,11,0.80,308.39,M,-33.324,M,,*76
2017-11-16 17:23:09 1510870989.850646: $GPRMC,222308,A,3946.9574,N,08404.9830,W,0.0000,0.000,161117,,*3A
2017-11-16 17:23:09 1510870989.850722: $GPGSA,A,3,1,10,22,12,14,18,11,25,31,32,138,,1.6,0.8,1.3*3E
2017-11-16 17:23:10 1510870990.400921: $GPZDA,222309.00,16,11,2017,00,00*6D
2017-11-16 17:23:10 1510870990.401091: $GPGGA,222309,3946.9574,N,08404.9830,W,2,11,0.80,308.39,M,-33.324,M,,*77
2017-11-16 17:23:10 1510870990.401154: $GPRMC,222309,A,3946.9574,N,08404.9830,W,0.0000,0.000,161117,,*3B
2017-11-16 17:23:10 1510870990.401210: $GPGSA,A,3,1,10,22,12,14,18,11,25,31,32,138,,1.6,0.8,1.3*3E
2017-11-16 17:23:11 1510870991.401275: $GPZDA,222310.00,16,11,2017,00,00*65
2017-11-16 17:23:11 1510870991.401445: $GPGGA,222310,3946.9574,N,08404.9830,W,2,11,0.80,308.39,M,-33.324,M,,*7F
2017-11-16 17:23:11 1510870991.401507: $GPRMC,222310,A,3946.9574,N,08404.9830,W,0.0000,0.000,161117,,*33
2017-11-16 17:23:11 1510870991.401563: $GPGSA,A,3,1,10,22,12,14,18,11,25,31,32,138,,1.6,0.8,1.3*3E
2017-11-16 17:23:12 1510870992.738277: $GPGSV,3,1,12,01,20,304,36,10,53,145,48,22,15,312,42,12,23,054,50*76
2017-11-16 17:23:12 1510870992.738442: $GPGSV,3,2,12,14,64,318,47,18,22,142,41,24,01,048,00,11,09,286,40*74
2017-11-16 17:23:12 1510870992.738503: $GPGSV,3,3,12,25,38,096,48,31,51,222,49,32,69,013,49,138,38,213,44*4C
2017-11-16 17:23:12 1510870992.851855: $GPZDA,222311.00,16,11,2017,00,00*64
2017-11-16 17:23:12 1510870992.852017: $GPGGA,222311,3946.9574,N,08404.9830,W,2,11,0.80,308.39,M,-33.324,M,,*7E
2017-11-16 17:23:12 1510870992.852077: $GPRMC,222311,A,3946.9574,N,08404.9830,W,0.0000,0.000,161117,,*32
2017-11-16 17:23:12 1510870992.852132: $GPGSA,A,3,1,10,22,12,14,18,11,25,31,32,138,,1.6,0.8,1.3*3E
2017-11-16 17:23:13 1510870993.402740: $GPZDA,222312.00,16,11,2017,00,00*67
2017-11-16 17:23:13 1510870993.402919: $GPGGA,222312,3946.9574,N,08404.9830,W,2,11,0.80,308.39,M,-33.324,M,,*7D
2017-11-16 17:23:13 1510870993.402980: $GPRMC,222312,A,3946.9574,N,08404.9830,W,0.0000,0.000,161117,,*31
2017-11-16 17:23:13 1510870993.403036: $GPGSA,A,3,1,10,22,12,14,18,11,25,31,32,138,,1.6,0.8,1.3*3E
2017-11-16 17:23:14 1510870994.401235: $GPZDA,222313.00,16,11,2017,00,00*66
2017-11-16 17:23:14 1510870994.401396: $GPGGA,222313,3946.9574,N,08404.9830,W,2,11,0.80,308.39,M,-33.324,M,,*7C
2017-11-16 17:23:14 1510870994.401457: $GPRMC,222313,A,3946.9574,N,08404.9830,W,0.0000,0.000,161117,,*30
2017-11-16 17:23:14 1510870994.401513: $GPGSA,A,3,1,10,22,12,14,18,11,25,31,32,138,,1.6,0.8,1.3*3E
2017-11-16 17:23:15 1510870995.737874: $GPGSV,3,1,12,01,20,304,35,10,53,145,48,22,15,312,42,12,23,054,50*75
2017-11-16 17:23:15 1510870995.738050: $GPGSV,3,2,12,14,64,318,47,18,22,142,41,24,01,048,00,11,09,286,39*7A
2017-11-16 17:23:15 1510870995.738111: $GPGSV,3,3,12,25,38,096,48,31,51,222,49,32,69,013,49,138,38,213,44*4C
2017-11-16 17:23:15 1510870995.851451: $GPZDA,222314.00,16,11,2017,00,00*61
2017-11-16 17:23:15 1510870995.851611: $GPGGA,222314,3946.9574,N,08404.9830,W,2,11,0.80,308.39,M,-33.324,M,,*7B
2017-11-16 17:23:15 1510870995.851743: $GPRMC,222314,A,3946.9574,N,08404.9830,W,0.0000,0.000,161117,,*37
2017-11-16 17:23:15 1510870995.851818: $GPGSA,A,3,1,10,22,12,14,18,11,25,31,32,138,,1.6,0.8,1.3*3E
2017-11-16 17:23:16 1510870996.477095: $GPZDA,222315.00,16,11,2017,00,00*60
2017-11-16 17:23:16 1510870996.477255: $GPGGA,222315,3946.9574,N,08404.9830,W,2,11,0.80,308.39,M,-33.324,M,,*7A
2017-11-16 17:23:16 1510870996.477316: $GPRMC,222315,A,3946.9574,N,08404.9830,W,0.0000,0.000,161117,,*36
2017-11-16 17:23:16 1510870996.477372: $GPGSA,A,3,1,10,22,12,14,18,11,25,31,32,138,,1.6,0.8,1.3*3E
2017-11-16 17:23:17 1510870997.402444: $GPZDA,222316.00,16,11,2017,00,00*63
2017-11-16 17:23:17 1510870997.402637: $GPGGA,222316,3946.9574,N,08404.9830,W,2,11,0.80,308.39,M,-33.324,M,,*79
2017-11-16 17:23:17 1510870997.402701: $GPRMC,222316,A,3946.9574,N,08404.9830,W,0.0000,0.000,161117,,*35
2017-11-16 17:23:17 1510870997.402773: $GPGSA,A,3,1,10,22,12,14,18,11,25,31,32,138,,1.6,0.8,1.3*3E
2017-11-16 17:23:18 1510870998.738207: $GPGSV,3,1,12,01,20,304,34,10,53,145,48,22,15,312,43,12,23,054,51*74
2017-11-16 17:23:18 1510870998.738376: $GPGSV,3,2,12,14,64,318,46,18,22,142,41,24,01,048,00,11,09,286,38*7A
2017-11-16 17:23:18 1510870998.738437: $GPGSV,3,3,12,25,38,096,48,31,51,222,49,32,69,013,49,138,38,213,44*4C
2017-11-16 17:23:18 1510870998.851538: $GPZDA,222317.00,16,11,2017,00,00*62
2017-11-16 17:23:18 1510870998.851714: $GPGGA,222317,3946.9574,N,08404.9830,W,2,11,0.80,308.39,M,-33.324,M,,*78
2017-11-16 17:23:18 1510870998.851791: $GPRMC,222317,A,3946.9574,N,08404.9830,W,0.0000,0.000,161117,,*34
2017-11-16 17:23:18 1510870998.851847: $GPGSA,A,3,1,10,22,12,14,18,11,25,31,32,138,,1.6,0.8,1.3*3E
