2017-12-31 18:34:26 1514763266.410037: {"class":"VERSION","release":"3.16","rev":"3.16-4","proto_major":3,"proto_minor":11}
2017-12-31 18:34:26 1514763266.410487: {"class":"DEVICES","devices":[{"class":"DEVICE","path":"/dev/ttyUSB0","driver":"SiRF","activated":"2017-12-31T23:34:26.389Z","flags":1,"native":1,"bps":4800,"parity":"N","stopbits":1,"cycle":1.00}]}
2017-12-31 18:34:26 1514763266.410589: {"class":"WATCH","enable":true,"json":false,"nmea":true,"raw":0,"scaled":false,"timing":false,"split24":false,"pps":false}
2017-12-31 18:34:27 1514763267.688081: $GPGSV,3,1,12,22,14,208,15,23,63,295,42,09,29,312,43,03,24,226,39*73
2017-12-31 18:34:27 1514763267.688269: $GPGSV,3,2,12,16,85,051,42,08,09,177,25,14,06,138,16,31,21,082,42*77
2017-12-31 18:34:27 1514763267.688336: $GPGSV,3,3,12,27,32,148,41,07,05,280,44,26,52,046,46,135,22,240,42*4A
2017-12-31 18:34:27 1514763267.801805: $GPZDA,233428.00,31,12,2017,00,00*6F
2017-12-31 18:34:27 1514763267.801994: $GPGGA,233428,3946.9578,N,08404.9837,W,2,12,0.80,307.55,M,-33.324,M,,*7E
2017-12-31 18:34:27 1514763267.802078: $GPRMC,233428,A,3946.9578,N,08404.9837,W,0.0000,0.000,311217,,*32
2017-12-31 18:34:27 1514763267.802139: $GPGSA,A,3,22,23,9,3,16,8,14,31,27,7,26,135,1.7,0.8,1.3*0C
2017-12-31 18:34:28 1514763268.387626: $GPZDA,233429.00,31,12,2017,00,00*6E
2017-12-31 18:34:28 1514763268.387784: $GPGGA,233429,3946.9578,N,08404.9837,W,2,12,0.80,307.55,M,-33.324,M,,*7F
2017-12-31 18:34:28 1514763268.387849: $GPRMC,233429,A,3946.9578,N,08404.9837,W,0.0000,0.000,311217,,*33
2017-12-31 18:34:28 1514763268.387935: $GPGSA,A,3,22,23,9,3,16,8,14,31,27,7,26,135,1.7,0.8,1.3*0C
2017-12-31 18:34:29 1514763269.351905: $GPZDA,233430.00,31,12,2017,00,00*66
2017-12-31 18:34:29 1514763269.352103: $GPGGA,233430,3946.9578,N,08404.9837,W,2,12,0.80,307.55,M,-33.324,M,,*77
2017-12-31 18:34:29 1514763269.352171: $GPRMC,233430,A,3946.9578,N,08404.9837,W,0.0000,0.000,311217,,*3B
2017-12-31 18:34:29 1514763269.352233: $GPGSA,A,3,22,23,9,3,16,8,14,31,27,7,26,135,1.7,0.8,1.3*0C
2017-12-31 18:34:30 1514763270.688307: $GPGSV,3,1,12,22,14,208,16,23,63,295,42,09,29,312,43,03,24,226,39*70
2017-12-31 18:34:30 1514763270.688459: $GPGSV,3,2,12,16,85,051,43,08,09,177,24,14,06,138,00,31,21,082,41*73
2017-12-31 18:34:30 1514763270.688524: $GPGSV,3,3,12,27,32,148,40,07,05,280,44,26,52,046,46,135,22,240,44*4D
2017-12-31 18:34:30 1514763270.801756: $GPZDA,233431.00,31,12,2017,00,00*67
2017-12-31 18:34:30 1514763270.801932: $GPGGA,233431,3946.9578,N,08404.9837,W,2,11,0.80,307.55,M,-33.324,M,,*75
2017-12-31 18:34:30 1514763270.802016: $GPRMC,233431,A,3946.9578,N,08404.9837,W,0.0000,0.000,311217,,*3A
2017-12-31 18:34:30 1514763270.802080: $GPGSA,A,3,22,23,9,3,16,8,31,27,7,26,135,,1.7,0.8,1.3*09
2017-12-31 18:34:31 1514763271.380049: $GPZDA,233432.00,31,12,2017,00,00*64
2017-12-31 18:34:31 1514763271.380220: $GPGGA,233432,3946.9578,N,08404.9837,W,2,11,0.80,307.55,M,-33.324,M,,*76
2017-12-31 18:34:31 1514763271.380287: $GPRMC,233432,A,3946.9578,N,08404.9837,W,0.0000,0.000,311217,,*39
2017-12-31 18:34:31 1514763271.380348: $GPGSA,A,3,22,23,9,3,16,8,31,27,7,26,135,,1.7,0.8,1.3*09
2017-12-31 18:34:32 1514763272.352236: $GPZDA,233433.00,31,12,2017,00,00*65
2017-12-31 18:34:32 1514763272.352417: $GPGGA,233433,3946.9578,N,08404.9837,W,2,11,0.80,307.55,M,-33.324,M,,*77
2017-12-31 18:34:32 1514763272.352485: $GPRMC,233433,A,3946.9578,N,08404.9837,W,0.0000,0.000,311217,,*38
2017-12-31 18:34:32 1514763272.352546: $GPGSA,A,3,22,23,9,3,16,8,31,27,7,26,135,,1.7,0.8,1.3*09
2017-12-31 18:34:33 1514763273.687906: $GPGSV,3,1,12,22,14,208,16,23,63,295,41,09,29,312,43,03,24,226,39*73
2017-12-31 18:34:33 1514763273.688100: $GPGSV,3,2,12,16,85,051,42,08,09,177,24,14,06,138,18,31,21,082,41*7B
2017-12-31 18:34:33 1514763273.688166: $GPGSV,3,3,12,27,32,148,41,07,05,280,44,26,52,046,46,135,22,240,44*4C
2017-12-31 18:34:33 1514763273.801514: $GPZDA,233434.00,31,12,2017,00,00*62
2017-12-31 18:34:33 1514763273.801642: $GPGGA,233434,3946.9578,N,08404.9837,W,2,12,0.80,307.55,M,-33.324,M,,*73
2017-12-31 18:34:33 1514763273.801708: $GPRMC,233434,A,3946.9578,N,08404.9837,W,0.0000,0.000,311217,,*3F
2017-12-31 18:34:33 1514763273.801842: $GPGSA,A,3,22,23,9,3,16,8,14,31,27,7,26,135,1.7,0.8,1.3*0C
2017-12-31 18:34:34 1514763274.352430: $GPZDA,233435.00,31,12,2017,00,00*63
2017-12-31 18:34:34 1514763274.352594: $GPGGA,233435,3946.9578,N,08404.9837,W,2,12,0.80,307.55,M,-33.324,M,,*72
2017-12-31 18:34:34 1514763274.352660: $GPRMC,233435,A,3946.9578,N,08404.9837,W,0.0000,0.000,311217,,*3E
2017-12-31 18:34:34 1514763274.352720: $GPGSA,A,3,22,23,9,3,16,8,14,31,27,7,26,135,1.7,0.8,1.3*0C
2017-12-31 18:34:35 1514763275.387928: $GPZDA,233436.00,31,12,2017,00,00*60
2017-12-31 18:34:35 1514763275.388094: $GPGGA,233436,3946.9577,N,08404.9830,W,2,12,0.80,307.63,M,-33.324,M,,*7C
2017-12-31 18:34:35 1514763275.388162: $GPRMC,233436,A,3946.9577,N,08404.9830,W,0.0000,0.000,311217,,*35
2017-12-31 18:34:35 1514763275.388222: $GPGSA,A,3,22,23,9,3,16,8,14,31,27,7,26,135,1.7,0.8,1.3*0C
