2017-12-29 14:37:54 1514576274.901988: {"class":"VERSION","release":"3.16","rev":"3.16-4","proto_major":3,"proto_minor":11}
2017-12-29 14:37:54 1514576274.902333: {"class":"DEVICES","devices":[{"class":"DEVICE","path":"/dev/ttyUSB0","driver":"SiRF","subtype":"9\u0006GSD4e_4.1.2-P1_RPATCH.05-F-GPS-4R-1510281 11/03/2015 307","activated":"2017-12-29T19:37:54.470Z","flags":1,"native":1,"bps":4800,"parity":"N","stopbits":1,"cycle":1.00}]}
2017-12-29 14:37:54 1514576274.902445: {"class":"WATCH","enable":true,"json":false,"nmea":true,"raw":0,"scaled":false,"timing":false,"split24":false,"pps":false}
2017-12-29 14:37:55 1514576275.665132: $GPGSV,3,1,12,01,21,300,37,10,47,148,51,12,22,049,46,14,66,328,42*70
2017-12-29 14:37:55 1514576275.665291: $GPGSV,3,2,12,18,16,144,47,22,20,312,40,25,40,090,50,31,58,226,48*7B
2017-12-29 14:37:55 1514576275.665356: $GPGSV,3,3,12,32,68,033,48,03,01,316,29,11,08,282,30,138,38,213,42*40
2017-12-29 14:37:55 1514576275.778713: $GPZDA,193756.00,29,12,2017,00,00*65
2017-12-29 14:37:55 1514576275.778853: $GPGGA,193756,3946.9577,N,08404.9839,W,2,12,0.80,298.28,M,-33.324,M,,*71
2017-12-29 14:37:55 1514576275.778918: $GPRMC,193756,A,3946.9577,N,08404.9839,W,0.0000,0.000,291217,,*39
2017-12-29 14:37:55 1514576275.778979: $GPGSA,A,3,1,10,12,14,18,22,25,31,32,3,11,138,1.7,0.8,1.3*0C
2017-12-29 14:37:56 1514576276.322235: $GPZDA,193757.00,29,12,2017,00,00*64
2017-12-29 14:37:56 1514576276.322407: $GPGGA,193757,3946.9577,N,08404.9839,W,2,12,0.80,298.28,M,-33.324,M,,*70
2017-12-29 14:37:56 1514576276.322473: $GPRMC,193757,A,3946.9577,N,08404.9839,W,0.0000,0.000,291217,,*38
2017-12-29 14:37:56 1514576276.322534: $GPGSA,A,3,1,10,12,14,18,22,25,31,32,3,11,138,1.7,0.8,1.3*0C
2017-12-29 14:37:57 1514576277.365584: $GPZDA,193758.00,29,12,2017,00,00*6B
2017-12-29 14:37:57 1514576277.365748: $GPGGA,193758,3946.9577,N,08404.9832,W,2,12,0.80,298.36,M,-33.324,M,,*7B
2017-12-29 14:37:57 1514576277.365816: $GPRMC,193758,A,3946.9577,N,08404.9832,W,0.0000,0.000,291217,,*3C
2017-12-29 14:37:57 1514576277.365875: $GPGSA,A,3,1,10,12,14,18,22,25,31,32,3,11,138,1.7,0.8,1.3*0C
2017-12-29 14:37:58 1514576278.665970: $GPGSV,3,1,12,01,21,300,37,10,47,148,51,12,22,049,46,14,66,328,42*70
2017-12-29 14:37:58 1514576278.666123: $GPGSV,3,2,12,18,16,144,47,22,20,312,41,25,40,090,51,31,58,226,48*7B
2017-12-29 14:37:58 1514576278.666190: $GPGSV,3,3,12,32,68,033,48,03,01,316,29,11,08,282,30,138,38,213,43*41
2017-12-29 14:37:58 1514576278.779611: $GPZDA,193759.00,29,12,2017,00,00*6A
2017-12-29 14:37:58 1514576278.779758: $GPGGA,193759,3946.9577,N,08404.9832,W,2,12,0.80,298.36,M,-33.324,M,,*7A
2017-12-29 14:37:58 1514576278.779825: $GPRMC,193759,A,3946.9577,N,08404.9832,W,0.0000,0.000,291217,,*3D
2017-12-29 14:37:58 1514576278.779885: $GPGSA,A,3,1,10,12,14,18,22,25,31,32,3,11,138,1.7,0.8,1.3*0C
2017-12-29 14:37:59 1514576279.405056: $GPZDA,193800.00,29,12,2017,00,00*69
2017-12-29 14:37:59 1514576279.405223: $GPGGA,193800,3946.9577,N,08404.9832,W,2,12,0.80,298.36,M,-33.324,M,,*79
2017-12-29 14:37:59 1514576279.405289: $GPRMC,193800,A,3946.9577,N,08404.9832,W,0.0000,0.000,291217,,*3E
2017-12-29 14:37:59 1514576279.405350: $GPGSA,A,3,1,10,12,14,18,22,25,31,32,3,11,138,1.7,0.8,1.3*0C
2017-12-29 14:38:00 1514576280.363377: $GPZDA,193801.00,29,12,2017,00,00*68
2017-12-29 14:38:00 1514576280.363536: $GPGGA,193801,3946.9577,N,08404.9832,W,2,12,0.80,298.36,M,-33.324,M,,*78
2017-12-29 14:38:00 1514576280.363602: $GPRMC,193801,A,3946.9577,N,08404.9832,W,0.0000,0.000,291217,,*3F
2017-12-29 14:38:00 1514576280.363662: $GPGSA,A,3,1,10,12,14,18,22,25,31,32,3,11,138,1.7,0.8,1.3*0C
2017-12-29 14:38:01 1514576281.701348: $GPGSV,3,1,12,01,21,300,36,10,47,148,51,12,22,049,46,14,66,328,42*71
2017-12-29 14:38:01 1514576281.701500: $GPGSV,3,2,12,18,16,144,47,22,20,312,41,25,40,090,51,31,58,226,48*7B
2017-12-29 14:38:01 1514576281.701567: $GPGSV,3,3,12,32,68,033,48,03,01,316,29,11,08,282,30,138,38,213,42*40
2017-12-29 14:38:01 1514576281.814989: $GPZDA,193802.00,29,12,2017,00,00*6B
2017-12-29 14:38:01 1514576281.815111: $GPGGA,193802,3946.9577,N,08404.9832,W,2,12,0.80,298.36,M,-33.324,M,,*7B
2017-12-29 14:38:01 1514576281.815227: $GPRMC,193802,A,3946.9577,N,08404.9832,W,0.0000,0.000,291217,,*3C
2017-12-29 14:38:01 1514576281.815288: $GPGSA,A,3,1,10,12,14,18,22,25,31,32,3,11,138,1.7,0.8,1.3*0C
2017-12-29 14:38:02 1514576282.329698: $GPZDA,193803.00,29,12,2017,00,00*6A
2017-12-29 14:38:02 1514576282.329860: $GPGGA,193803,3946.9573,N,08404.9832,W,2,12,0.80,299.12,M,-33.324,M,,*79
2017-12-29 14:38:02 1514576282.329927: $GPRMC,193803,A,3946.9573,N,08404.9832,W,0.0000,0.000,291217,,*39
2017-12-29 14:38:02 1514576282.329988: $GPGSA,A,3,1,10,12,14,18,22,25,31,32,3,11,138,1.7,0.8,1.3*0C
2017-12-29 14:38:03 1514576283.363001: $GPZDA,193804.00,29,12,2017,00,00*6D
2017-12-29 14:38:03 1514576283.363155: $GPGGA,193804,3946.9573,N,08404.9832,W,2,12,0.80,299.12,M,-33.324,M,,*7E
2017-12-29 14:38:03 1514576283.363220: $GPRMC,193804,A,3946.9573,N,08404.9832,W,0.0000,0.000,291217,,*3E
2017-12-29 14:38:03 1514576283.363281: $GPGSA,A,3,1,10,12,14,18,22,25,31,32,3,11,138,1.7,0.8,1.3*0C
2017-12-29 14:38:04 1514576284.699173: $GPGSV,3,1,12,01,21,300,36,10,47,148,51,12,22,049,45,14,66,328,42*72
2017-12-29 14:38:04 1514576284.699342: $GPGSV,3,2,12,18,16,144,47,22,20,312,41,25,40,090,50,31,58,226,48*7A
2017-12-29 14:38:04 1514576284.699409: $GPGSV,3,3,12,32,68,033,48,03,01,316,30,11,08,282,30,138,38,213,43*49
2017-12-29 14:38:04 1514576284.812600: $GPZDA,193805.00,29,12,2017,00,00*6C
2017-12-29 14:38:04 1514576284.812706: $GPGGA,193805,3946.9573,N,08404.9832,W,2,12,0.80,299.12,M,-33.324,M,,*7F
2017-12-29 14:38:04 1514576284.812771: $GPRMC,193805,A,3946.9573,N,08404.9832,W,0.0000,0.000,291217,,*3F
2017-12-29 14:38:04 1514576284.812831: $GPGSA,A,3,1,10,12,14,18,22,25,31,32,3,11,138,1.7,0.8,1.3*0C
