2017-12-01 15:22:26 1512159746.537289: {"class":"VERSION","release":"3.16","rev":"3.16-4","proto_major":3,"proto_minor":11}
2017-12-01 15:22:26 1512159746.537734: {"class":"DEVICES","devices":[{"class":"DEVICE","path":"/dev/ttyUSB0","driver":"SiRF","subtype":"9\u0006GSD4e_4.1.2-P1_RPATCH.05-F-GPS-4R-1510281 11/03/2015 307","activated":"2017-12-01T20:22:26.494Z","flags":1,"native":1,"bps":4800,"parity":"N","stopbits":1,"cycle":1.00}]}
2017-12-01 15:22:26 1512159746.537863: {"class":"WATCH","enable":true,"json":false,"nmea":true,"raw":0,"scaled":false,"timing":false,"split24":false,"pps":false}
2017-12-01 15:22:26 1512159746.608527: $GPZDA,202227.28,01,12,2017,00,00*6D
2017-12-01 15:22:26 1512159746.608700: $GPGGA,202227,3946.9586,N,08404.9819,W,1,11,0.80,302.61,M,-33.324,M,,*7A
2017-12-01 15:22:26 1512159746.608768: $GPRMC,202227,A,3946.9586,N,08404.9819,W,0.1567,189.200,011217,,*30
2017-12-01 15:22:26 1512159746.608830: $GPGSA,A,3,1,10,12,14,18,24,25,31,32,11,138,,2.0,0.8,1.5*3B
2017-12-01 15:22:28 1512159748.025854: $GPGSV,3,1,12,01,08,324,31,10,79,108,37,11,09,310,28,12,23,082,35*7B
2017-12-01 15:22:28 1512159748.026040: $GPGSV,3,2,12,14,48,279,35,18,47,129,38,24,23,045,36,25,22,123,36*72
2017-12-01 15:22:28 1512159748.026107: $GPGSV,3,3,12,31,25,208,37,32,64,306,38,21,03,174,00,138,38,213,04*4B
2017-12-01 15:22:28 1512159748.139230: $GPZDA,202227.97,01,12,2017,00,00*69
2017-12-01 15:22:28 1512159748.139406: $GPGGA,202227,3946.9586,N,08404.9819,W,1,11,0.80,302.61,M,-33.324,M,,*7A
2017-12-01 15:22:28 1512159748.139474: $GPRMC,202227,A,3946.9586,N,08404.9819,W,0.2422,93.794,011217,,*01
2017-12-01 15:22:28 1512159748.139561: $GPGSA,A,3,1,10,11,12,14,18,24,25,31,32,138,,2.0,0.8,1.5*3B
2017-12-01 15:22:28 1512159748.945790: $GPZDA,202229.00,01,12,2017,00,00*69
2017-12-01 15:22:28 1512159748.945969: $GPGGA,202229,3946.9586,N,08404.9819,W,1,11,0.80,302.61,M,-33.324,M,,*74
2017-12-01 15:22:28 1512159748.946037: $GPRMC,202229,A,3946.9586,N,08404.9819,W,0.0000,0.000,011217,,*39
2017-12-01 15:22:28 1512159748.946099: $GPGSA,A,3,1,10,11,12,14,18,24,25,31,32,138,,2.0,0.8,1.5*3B
2017-12-01 15:22:28 1512159748.946159: $GPGBS,202229,10.70,M,15.43,M,35.28,M*0E
2017-12-01 15:22:29 1512159749.397914: $GPZDA,202230.00,01,12,2017,00,00*61
2017-12-01 15:22:29 1512159749.398089: $GPGGA,202230,3946.9586,N,08404.9819,W,1,11,0.80,302.61,M,-33.324,M,,*7C
2017-12-01 15:22:29 1512159749.398157: $GPRMC,202230,A,3946.9586,N,08404.9819,W,0.1867,0.000,011217,,*39
2017-12-01 15:22:29 1512159749.398218: $GPGSA,A,3,1,10,11,12,14,18,24,25,31,32,138,,2.0,0.8,1.5*3B
2017-12-01 15:22:29 1512159749.398278: $GPGBS,202230,10.70,M,15.43,M,35.28,M*06
2017-12-01 15:22:30 1512159750.733623: $GPGSV,3,1,12,01,08,324,39,10,79,108,47,11,09,310,37,12,23,082,45*7D
2017-12-01 15:22:30 1512159750.733820: $GPGSV,3,2,12,14,48,279,44,18,47,129,48,24,23,045,46,25,22,123,46*73
2017-12-01 15:22:30 1512159750.733888: $GPGSV,3,3,12,31,25,208,47,32,64,306,48,21,03,174,00,138,38,213,46*4D
2017-12-01 15:22:30 1512159750.846948: $GPZDA,202231.00,01,12,2017,00,00*60
2017-12-01 15:22:30 1512159750.847083: $GPGGA,202231,3946.9585,N,08404.9818,W,1,11,0.80,301.20,M,-33.324,M,,*79
2017-12-01 15:22:30 1512159750.847149: $GPRMC,202231,A,3946.9585,N,08404.9818,W,0.0000,0.000,011217,,*32
2017-12-01 15:22:30 1512159750.847210: $GPGSA,A,3,1,10,11,12,14,18,24,25,31,32,138,,2.0,0.8,1.5*3B
2017-12-01 15:22:31 1512159751.472778: $GPZDA,202232.00,01,12,2017,00,00*63
2017-12-01 15:22:31 1512159751.472947: $GPGGA,202232,3946.9585,N,08404.9818,W,1,11,0.80,301.20,M,-33.324,M,,*7A
2017-12-01 15:22:31 1512159751.473015: $GPRMC,202232,A,3946.9585,N,08404.9818,W,0.0000,0.000,011217,,*31
2017-12-01 15:22:31 1512159751.473078: $GPGSA,A,3,1,10,11,12,14,18,24,25,31,32,138,,2.0,0.8,1.5*3B
2017-12-01 15:22:32 1512159752.398378: $GPZDA,202233.00,01,12,2017,00,00*62
2017-12-01 15:22:32 1512159752.398573: $GPGGA,202233,3946.9585,N,08404.9825,W,1,11,0.80,301.12,M,-33.324,M,,*74
2017-12-01 15:22:32 1512159752.398658: $GPRMC,202233,A,3946.9585,N,08404.9825,W,0.0000,0.000,011217,,*3E
2017-12-01 15:22:32 1512159752.398721: $GPGSA,A,3,1,10,11,12,14,18,24,25,31,32,138,,2.0,0.8,1.5*3B
2017-12-01 15:22:32 1512159752.398845: $GPGBS,202233,10.70,M,15.43,M,35.28,M*05
2017-12-01 15:22:33 1512159753.733828: $GPGSV,3,1,12,01,08,324,11,10,79,108,14,11,09,310,11,12,23,082,13*76
2017-12-01 15:22:33 1512159753.734012: $GPGSV,3,2,12,14,48,279,13,18,47,129,14,24,23,045,14,25,22,123,14*78
2017-12-01 15:22:33 1512159753.734079: $GPGSV,3,3,12,31,25,208,14,32,64,306,14,21,03,174,00,138,38,213,16*47
2017-12-01 15:22:33 1512159753.847219: $GPZDA,202234.00,01,12,2017,00,00*65
2017-12-01 15:22:33 1512159753.847385: $GPGGA,202234,3946.9585,N,08404.9825,W,1,11,0.80,301.12,M,-33.324,M,,*73
2017-12-01 15:22:33 1512159753.847453: $GPRMC,202234,A,3946.9585,N,08404.9825,W,0.0000,0.000,011217,,*39
2017-12-01 15:22:33 1512159753.847539: $GPGSA,A,3,1,10,11,12,14,18,24,25,31,32,138,,2.0,0.8,1.5*3B
2017-12-01 15:22:34 1512159754.398398: $GPZDA,202235.00,01,12,2017,00,00*64
2017-12-01 15:22:34 1512159754.398602: $GPGGA,202235,3946.9581,N,08404.9825,W,1,11,0.80,300.48,M,-33.324,M,,*78
2017-12-01 15:22:34 1512159754.398688: $GPRMC,202235,A,3946.9581,N,08404.9825,W,0.2422,93.794,011217,,*0A
2017-12-01 15:22:34 1512159754.398749: $GPGSA,A,3,1,10,11,12,14,18,24,25,31,32,138,,2.0,0.8,1.5*3B
2017-12-01 15:22:35 1512159755.398141: $GPZDA,202236.00,01,12,2017,00,00*67
2017-12-01 15:22:35 1512159755.398301: $GPGGA,202236,3946.9589,N,08404.9825,W,1,11,0.80,300.36,M,-33.324,M,,*7A
2017-12-01 15:22:35 1512159755.398367: $GPRMC,202236,A,3946.9589,N,08404.9825,W,0.1867,0.000,011217,,*3F
2017-12-01 15:22:35 1512159755.398427: $GPGSA,A,3,1,10,11,12,14,18,24,25,31,32,138,,2.0,0.8,1.5*3B
2017-12-01 15:22:36 1512159756.733152: $GPGSV,3,1,12,01,08,324,37,10,79,108,46,11,09,310,39,12,23,082,43*7A
2017-12-01 15:22:36 1512159756.733496: $GPGSV,3,2,12,14,48,279,43,18,47,129,48,24,23,045,45,25,22,123,45*74
2017-12-01 15:22:36 1512159756.733643: $GPGSV,3,3,12,31,25,208,46,32,64,306,46,21,03,174,00,138,38,213,45*41
2017-12-01 15:22:36 1512159756.846435: $GPZDA,202237.00,01,12,2017,00,00*66
2017-12-01 15:22:36 1512159756.846648: $GPGGA,202237,3946.9589,N,08404.9825,W,1,11,0.80,300.36,M,-33.324,M,,*7B
2017-12-01 15:22:36 1512159756.846716: $GPRMC,202237,A,3946.9589,N,08404.9825,W,0.0000,0.000,011217,,*36
2017-12-01 15:22:36 1512159756.846778: $GPGSA,A,3,1,10,11,12,14,18,24,25,31,32,138,,2.0,0.8,1.5*3B
2017-12-01 15:22:37 1512159757.399833: $GPZDA,202238.00,01,12,2017,00,00*69
2017-12-01 15:22:37 1512159757.400029: $GPGGA,202238,3946.9585,N,08404.9825,W,1,11,0.80,299.72,M,-33.324,M,,*79
2017-12-01 15:22:37 1512159757.400097: $GPRMC,202238,A,3946.9585,N,08404.9825,W,0.0000,0.000,011217,,*35
2017-12-01 15:22:37 1512159757.400158: $GPGSA,A,3,1,10,11,12,14,18,24,25,31,32,138,,2.0,0.8,1.5*3B
2017-12-01 15:22:38 1512159758.398440: $GPZDA,202239.00,01,12,2017,00,00*68
2017-12-01 15:22:38 1512159758.398649: $GPGGA,202239,3946.9585,N,08404.9832,W,1,11,0.80,299.64,M,-33.324,M,,*79
2017-12-01 15:22:38 1512159758.398716: $GPRMC,202239,A,3946.9585,N,08404.9832,W,0.0000,0.000,011217,,*32
2017-12-01 15:22:38 1512159758.398778: $GPGSA,A,3,1,10,11,12,14,18,24,25,31,32,138,,2.0,0.8,1.5*3B
2017-12-01 15:22:39 1512159759.733938: $GPGSV,3,1,12,01,08,324,36,10,79,108,46,11,09,310,38,12,23,082,43*7A
2017-12-01 15:22:39 1512159759.734131: $GPGSV,3,2,12,14,48,279,43,18,47,129,48,24,23,045,45,25,22,123,46*77
2017-12-01 15:22:39 1512159759.734199: $GPGSV,3,3,12,31,25,208,46,32,64,306,47,21,03,174,00,138,38,213,46*43
2017-12-01 15:22:39 1512159759.847330: $GPZDA,202240.00,01,12,2017,00,00*66
2017-12-01 15:22:39 1512159759.847524: $GPGGA,202240,3946.9585,N,08404.9832,W,1,11,0.80,299.64,M,-33.324,M,,*77
2017-12-01 15:22:39 1512159759.847610: $GPRMC,202240,A,3946.9585,N,08404.9832,W,0.0000,0.000,011217,,*3C
2017-12-01 15:22:39 1512159759.847673: $GPGSA,A,3,1,10,11,12,14,18,24,25,31,32,138,,2.0,0.8,1.5*3B
2017-12-01 15:22:40 1512159760.404444: $GPZDA,202241.00,01,12,2017,00,00*67
2017-12-01 15:22:40 1512159760.404673: $GPGGA,202241,3946.9589,N,08404.9838,W,2,11,1.00,298.80,M,-33.324,M,,*71
2017-12-01 15:22:40 1512159760.404789: $GPRMC,202241,A,3946.9589,N,08404.9838,W,0.0000,0.000,011217,,*3B
2017-12-01 15:22:40 1512159760.404851: $GPGSA,A,3,1,10,11,12,14,18,24,25,31,32,138,,2.0,1.0,1.5*32
2017-12-01 15:22:41 1512159761.400070: $GPZDA,202242.00,01,12,2017,00,00*64
2017-12-01 15:22:41 1512159761.400242: $GPGGA,202242,3946.9589,N,08404.9838,W,2,11,0.80,298.80,M,-33.324,M,,*7B
2017-12-01 15:22:41 1512159761.400309: $GPRMC,202242,A,3946.9589,N,08404.9838,W,0.0000,0.000,011217,,*38
2017-12-01 15:22:41 1512159761.400369: $GPGSA,A,3,1,10,11,12,14,18,24,25,31,32,138,,2.0,0.8,1.5*3B
2017-12-01 15:22:42 1512159762.736988: $GPGSV,3,1,12,01,08,324,36,10,79,108,46,11,09,310,39,12,23,082,44*7C
2017-12-01 15:22:42 1512159762.737169: $GPGSV,3,2,12,14,48,279,43,18,47,129,48,24,23,045,45,25,22,123,45*74
2017-12-01 15:22:42 1512159762.737235: $GPGSV,3,3,12,31,25,208,46,32,64,306,47,21,03,174,00,138,38,213,46*43
2017-12-01 15:22:42 1512159762.849266: $GPZDA,202243.00,01,12,2017,00,00*65
2017-12-01 15:22:42 1512159762.849418: $GPGGA,202243,3946.9589,N,08404.9838,W,2,11,0.80,298.80,M,-33.324,M,,*7A
2017-12-01 15:22:42 1512159762.849507: $GPRMC,202243,A,3946.9589,N,08404.9838,W,0.0000,0.000,011217,,*39
2017-12-01 15:22:42 1512159762.849568: $GPGSA,A,3,1,10,11,12,14,18,24,25,31,32,138,,2.0,0.8,1.5*3B
2017-12-01 15:22:43 1512159763.400166: $GPZDA,202244.00,01,12,2017,00,00*62
2017-12-01 15:22:43 1512159763.400341: $GPGGA,202244,3946.9589,N,08404.9838,W,2,11,0.80,298.80,M,-33.324,M,,*7D
2017-12-01 15:22:43 1512159763.400409: $GPRMC,202244,A,3946.9589,N,08404.9838,W,0.0000,0.000,011217,,*3E
2017-12-01 15:22:43 1512159763.400490: $GPGSA,A,3,1,10,11,12,14,18,24,25,31,32,138,,2.0,0.8,1.5*3B
2017-12-01 15:22:44 1512159764.397184: $GPZDA,202245.00,01,12,2017,00,00*63
2017-12-01 15:22:44 1512159764.397358: $GPGGA,202245,3946.9589,N,08404.9838,W,2,11,0.80,298.80,M,-33.324,M,,*7C
2017-12-01 15:22:44 1512159764.397425: $GPRMC,202245,A,3946.9589,N,08404.9838,W,0.0000,0.000,011217,,*3F
2017-12-01 15:22:44 1512159764.397510: $GPGSA,A,3,1,10,11,12,14,18,24,25,31,32,138,,2.0,0.8,1.5*3B
2017-12-01 15:22:44 1512159764.397587: $GPGBS,202245,2.67,M,3.86,M,8.82,M*31
2017-12-01 15:22:45 1512159765.736437: $GPGSV,3,1,12,01,08,324,36,10,79,108,47,11,09,310,39,12,23,082,44*7D
2017-12-01 15:22:45 1512159765.736633: $GPGSV,3,2,12,14,48,279,43,18,47,129,48,24,23,045,45,25,22,123,45*74
2017-12-01 15:22:45 1512159765.736701: $GPGSV,3,3,12,31,25,208,46,32,64,306,47,21,03,174,00,138,38,213,45*40
2017-12-01 15:22:45 1512159765.850082: $GPZDA,202246.00,01,12,2017,00,00*60
2017-12-01 15:22:45 1512159765.850235: $GPGGA,202246,3946.9589,N,08404.9838,W,2,11,0.80,298.80,M,-33.324,M,,*7F
2017-12-01 15:22:45 1512159765.850301: $GPRMC,202246,A,3946.9589,N,08404.9838,W,0.0000,0.000,011217,,*3C
2017-12-01 15:22:45 1512159765.850363: $GPGSA,A,3,1,10,11,12,14,18,24,25,31,32,138,,2.0,0.8,1.5*3B
2017-12-01 15:22:46 1512159766.475111: $GPZDA,202247.00,01,12,2017,00,00*61
2017-12-01 15:22:46 1512159766.475284: $GPGGA,202247,3946.9589,N,08404.9838,W,2,11,0.80,298.80,M,-33.324,M,,*7E
2017-12-01 15:22:46 1512159766.475351: $GPRMC,202247,A,3946.9589,N,08404.9838,W,0.0000,0.000,011217,,*3D
2017-12-01 15:22:46 1512159766.475413: $GPGSA,A,3,1,10,11,12,14,18,24,25,31,32,138,,2.0,0.8,1.5*3B
