2017-11-15 19:30:14 1510792214.774782: {"class":"VERSION","release":"3.17","rev":"3.17","proto_major":3,"proto_minor":12}
2017-11-15 19:30:14 1510792214.775319: {"class":"DEVICES","devices":[{"class":"DEVICE","path":"/dev/ttyUSB0","driver":"SiRF","subtype":"9\u0006GSD4e_4.1.2-P1_RPATCH.05-F-GPS-4R-1510281 11/03/2015 307","activated":"2017-11-16T00:30:14.470Z","flags":1,"native":1,"bps":4800,"parity":"N","stopbits":1,"cycle":1.00}]}
2017-11-15 19:30:14 1510792214.775434: {"class":"WATCH","enable":true,"json":false,"nmea":true,"raw":0,"scaled":false,"timing":false,"split24":false,"pps":false}
2017-11-15 19:30:15 1510792215.665712: $GPGSV,3,1,11,32,36,108,22,31,67,025,13,16,23,190,17,26,53,172,16*79
2017-11-15 19:30:15 1510792215.665883: $GPGSV,3,2,11,29,11,070,10,14,55,093,00,03,40,298,20,25,17,040,00*79
2017-11-15 19:30:15 1510792215.665944: $GPGSV,3,3,11,23,11,301,15,01,05,252,00,22,50,270,21*4C
2017-11-15 19:30:15 1510792215.779390: $GPZDA,003014.00,16,11,2017,00,00*63
2017-11-15 19:30:15 1510792215.779697: $GPGGA,003014,3946.9462,N,08404.9528,W,1,07,2.60,278.62,M,-33.324,M,,*7B
2017-11-15 19:30:15 1510792215.779792: $GPRMC,003014,A,3946.9462,N,08404.9528,W,1.3082,341.818,161117,,*38
2017-11-15 19:30:15 1510792215.779892: $GPGSA,A,3,32,16,26,29,3,23,22,,,,,,3.4,2.6,2.9*01
2017-11-15 19:30:16 1510792216.404422: $GPZDA,003015.00,16,11,2017,00,00*62
2017-11-15 19:30:16 1510792216.404585: $GPGGA,003015,3946.9469,N,08404.9527,W,1,07,1.60,278.50,M,-33.324,M,,*7C
2017-11-15 19:30:16 1510792216.404645: $GPRMC,003015,A,3946.9469,N,08404.9527,W,1.0534,350.904,161117,,*3A
2017-11-15 19:30:16 1510792216.404700: $GPGSA,A,3,32,16,26,29,3,23,22,,,,,,3.4,1.6,2.9*02
2017-11-15 19:30:17 1510792217.329461: $GPZDA,003016.00,16,11,2017,00,00*61
2017-11-15 19:30:17 1510792217.329730: $GPGGA,003016,3946.9473,N,08404.9526,W,1,07,1.60,277.74,M,-33.324,M,,*7C
2017-11-15 19:30:17 1510792217.329847: $GPRMC,003016,A,3946.9473,N,08404.9526,W,0.6846,4.197,161117,,*3C
2017-11-15 19:30:17 1510792217.329960: $GPGSA,A,3,32,16,26,29,3,23,22,,,,,,3.4,1.6,2.9*02
2017-11-15 19:30:18 1510792218.664815: $GPGSV,3,1,11,32,36,108,22,31,67,025,21,16,23,190,18,26,53,172,15*74
2017-11-15 19:30:18 1510792218.665006: $GPGSV,3,2,11,29,11,070,09,14,55,093,00,03,40,298,20,25,17,040,00*71
2017-11-15 19:30:18 1510792218.665067: $GPGSV,3,3,11,23,11,301,15,01,05,252,00,22,50,270,22*4F
2017-11-15 19:30:18 1510792218.778360: $GPZDA,003017.00,16,11,2017,00,00*60
2017-11-15 19:30:18 1510792218.778535: $GPGGA,003017,3946.9480,N,08404.9525,W,1,08,1.60,277.61,M,-33.324,M,,*79
2017-11-15 19:30:18 1510792218.778595: $GPRMC,003017,A,3946.9480,N,08404.9525,W,1.4555,23.636,161117,,*07
2017-11-15 19:30:18 1510792218.778650: $GPGSA,A,3,32,31,16,26,29,3,23,22,,,,,3.4,1.6,2.9*00
2017-11-15 19:30:19 1510792219.345315: $GPZDA,003018.00,16,11,2017,00,00*6F
2017-11-15 19:30:19 1510792219.345498: $GPGGA,003018,3946.9484,N,08404.9519,W,1,08,1.60,278.33,M,-33.324,M,,*75
2017-11-15 19:30:19 1510792219.345561: $GPRMC,003018,A,3946.9484,N,08404.9519,W,1.4555,23.636,161117,,*03
2017-11-15 19:30:19 1510792219.345618: $GPGSA,A,3,32,31,16,26,29,3,23,22,,,,,3.4,1.6,2.9*00
2017-11-15 19:30:20 1510792220.345372: $GPZDA,003019.00,16,11,2017,00,00*6E
2017-11-15 19:30:20 1510792220.345542: $GPGGA,003019,3946.9492,N,08404.9518,W,1,08,1.60,278.21,M,-33.324,M,,*71
2017-11-15 19:30:20 1510792220.345603: $GPRMC,003019,A,3946.9492,N,08404.9518,W,1.0567,17.448,161117,,*0D
2017-11-15 19:30:20 1510792220.345657: $GPGSA,A,3,32,31,16,26,29,3,23,22,,,,,3.4,1.6,2.9*00
2017-11-15 19:30:21 1510792221.665262: $GPGSV,3,1,11,32,36,108,23,31,67,025,00,16,23,190,18,26,53,172,15*76
2017-11-15 19:30:21 1510792221.665412: $GPGSV,3,2,11,29,11,070,09,14,55,093,00,03,40,298,20,25,17,040,00*71
2017-11-15 19:30:21 1510792221.665471: $GPGSV,3,3,11,23,11,301,15,01,05,252,00,22,50,270,22*4F
2017-11-15 19:30:21 1510792221.778929: $GPZDA,003020.00,16,11,2017,00,00*64
2017-11-15 19:30:21 1510792221.779127: $GPGGA,003020,3946.9499,N,08404.9517,W,1,07,2.60,278.08,M,-33.324,M,,*78
2017-11-15 19:30:21 1510792221.779188: $GPRMC,003020,A,3946.9499,N,08404.9517,W,1.0567,17.448,161117,,*03
2017-11-15 19:30:21 1510792221.779295: $GPGSA,A,3,32,16,26,29,3,23,22,,,,,,3.4,2.6,2.9*01
2017-11-15 19:30:22 1510792222.344785: $GPZDA,003021.00,16,11,2017,00,00*65
2017-11-15 19:30:22 1510792222.344943: $GPGGA,003021,3946.9503,N,08404.9517,W,1,07,2.60,278.72,M,-33.324,M,,*76
2017-11-15 19:30:22 1510792222.345024: $GPRMC,003021,A,3946.9503,N,08404.9517,W,1.6828,39.347,161117,,*04
2017-11-15 19:30:22 1510792222.345080: $GPGSA,A,3,32,16,26,29,3,23,22,,,,,,3.4,2.6,2.9*01
2017-11-15 19:30:23 1510792223.329435: $GPZDA,003022.00,16,11,2017,00,00*66
2017-11-15 19:30:23 1510792223.329593: $GPGGA,003022,3946.9511,N,08404.9509,W,1,07,2.60,278.68,M,-33.324,M,,*72
2017-11-15 19:30:23 1510792223.329653: $GPRMC,003022,A,3946.9511,N,08404.9509,W,1.9726,33.613,161117,,*0B
2017-11-15 19:30:23 1510792223.329708: $GPGSA,A,3,32,16,26,29,3,23,22,,,,,,3.4,2.6,2.9*01
2017-11-15 19:30:24 1510792224.682466: $GPGSV,3,1,11,32,36,108,23,01,05,252,04,16,23,190,18,26,53,172,10*72
2017-11-15 19:30:24 1510792224.686130: $GPGSV,3,2,11,29,11,070,09,31,67,025,09,03,40,298,20,14,55,093,00*79
2017-11-15 19:30:24 1510792224.686230: $GPGSV,3,3,11,23,11,301,14,25,17,040,00,22,50,270,22*4A
2017-11-15 19:30:24 1510792224.796518: $GPZDA,003023.00,16,11,2017,00,00*67
2017-11-15 19:30:24 1510792224.796688: $GPGGA,003023,3946.9518,N,08404.9509,W,1,07,2.60,278.55,M,-33.324,M,,*74
2017-11-15 19:30:24 1510792224.796820: $GPRMC,003023,A,3946.9518,N,08404.9509,W,1.7820,19.971,161117,,*07
2017-11-15 19:30:24 1510792224.796886: $GPGSA,A,3,32,16,26,29,3,23,22,,,,,,3.4,2.6,2.9*01
