2017-12-14 12:02:49 1513270969.593570: {"class":"VERSION","release":"3.16","rev":"3.16-4","proto_major":3,"proto_minor":11}
2017-12-14 12:02:49 1513270969.593932: {"class":"DEVICES","devices":[{"class":"DEVICE","path":"/dev/ttyUSB0","driver":"SiRF","subtype":"9\u0006GSD4e_4.1.2-P1_RPATCH.05-F-GPS-4R-1510281 11/03/2015 307","activated":"2017-12-14T17:02:49.487Z","flags":1,"native":1,"bps":4800,"parity":"N","stopbits":1,"cycle":1.00}]}
2017-12-14 12:02:49 1513270969.594051: {"class":"WATCH","enable":true,"json":false,"nmea":true,"raw":0,"scaled":false,"timing":false,"split24":false,"pps":false}
2017-12-14 12:02:49 1513270969.600526: $GPZDA,170250.00,14,12,2017,00,00*65
2017-12-14 12:02:49 1513270969.600634: $GPGGA,170250,3946.9506,N,08404.9330,W,1,07,1.40,321.95,M,-33.324,M,,*74
2017-12-14 12:02:49 1513270969.600698: $GPRMC,170250,A,3946.9506,N,08404.9330,W,0.1599,297.754,141217,,*33
2017-12-14 12:02:49 1513270969.600762: $GPGSA,A,3,10,15,32,21,24,20,18,,,,,,6.6,1.4,6.2*39
2017-12-14 12:02:50 1513270970.151668: $GPZDA,170251.00,14,12,2017,00,00*64
2017-12-14 12:02:50 1513270970.151857: $GPGGA,170251,3946.9506,N,08404.9330,W,1,07,1.40,321.95,M,-33.324,M,,*75
2017-12-14 12:02:50 1513270970.151924: $GPRMC,170251,A,3946.9506,N,08404.9330,W,0.1221,142.011,141217,,*3B
2017-12-14 12:02:50 1513270970.151988: $GPGSA,A,3,10,15,32,21,24,20,18,,,,,,6.6,1.4,6.2*39
2017-12-14 12:02:51 1513270971.150670: $GPZDA,170252.00,14,12,2017,00,00*67
2017-12-14 12:02:51 1513270971.150854: $GPGGA,170252,3946.9506,N,08404.9330,W,1,07,1.40,321.95,M,-33.324,M,,*76
2017-12-14 12:02:51 1513270971.150922: $GPRMC,170252,A,3946.9506,N,08404.9330,W,0.3445,82.932,141217,,*0B
2017-12-14 12:02:51 1513270971.151009: $GPGSA,A,3,10,15,32,21,24,20,18,,,,,,6.6,1.4,6.2*39
2017-12-14 12:02:52 1513270972.490662: $GPGSV,3,1,11,10,36,295,22,15,44,051,26,32,15,234,09,21,70,195,24*73
2017-12-14 12:02:52 1513270972.490850: $GPGSV,3,2,11,24,47,120,22,20,39,090,22,18,67,324,14,27,19,297,02*74
2017-12-14 12:02:52 1513270972.490916: $GPGSV,3,3,11,13,13,046,00,08,03,328,00,138,38,213,00*78
2017-12-14 12:02:52 1513270972.604084: $GPZDA,170253.00,14,12,2017,00,00*66
2017-12-14 12:02:52 1513270972.604247: $GPGGA,170253,3946.9506,N,08404.9330,W,1,07,1.40,321.95,M,-33.324,M,,*77
2017-12-14 12:02:52 1513270972.604312: $GPRMC,170253,A,3946.9506,N,08404.9330,W,0.5616,84.027,141217,,*03
2017-12-14 12:02:52 1513270972.604374: $GPGSA,A,3,10,15,32,21,24,20,18,,,,,,6.6,1.4,6.2*39
2017-12-14 12:02:53 1513270973.155460: $GPZDA,170254.00,14,12,2017,00,00*61
2017-12-14 12:02:53 1513270973.155626: $GPGGA,170254,3946.9506,N,08404.9330,W,1,07,1.40,321.95,M,-33.324,M,,*70
2017-12-14 12:02:53 1513270973.155694: $GPRMC,170254,A,3946.9506,N,08404.9330,W,0.8485,76.571,141217,,*0A
2017-12-14 12:02:53 1513270973.155762: $GPGSA,A,3,10,15,32,21,24,20,18,,,,,,6.6,1.4,6.2*39
2017-12-14 12:02:54 1513270974.152631: $GPZDA,170255.00,14,12,2017,00,00*60
2017-12-14 12:02:54 1513270974.152797: $GPGGA,170255,3946.9510,N,08404.9330,W,1,07,1.40,322.59,M,-33.324,M,,*75
2017-12-14 12:02:54 1513270974.152869: $GPRMC,170255,A,3946.9510,N,08404.9330,W,0.3133,9.201,141217,,*37
2017-12-14 12:02:54 1513270974.152931: $GPGSA,A,3,10,15,32,21,24,20,18,,,,,,6.6,1.4,6.2*39
2017-12-14 12:02:55 1513270975.488795: $GPGSV,3,1,11,10,36,295,22,15,44,051,27,32,15,234,09,21,70,195,24*72
2017-12-14 12:02:55 1513270975.488987: $GPGSV,3,2,11,24,47,120,22,20,39,090,22,18,67,324,15,27,19,297,00*77
2017-12-14 12:02:55 1513270975.489052: $GPGSV,3,3,11,13,13,046,14,08,03,328,00,138,38,213,00*7D
2017-12-14 12:02:55 1513270975.602236: $GPZDA,170256.00,14,12,2017,00,00*63
2017-12-14 12:02:55 1513270975.602409: $GPGGA,170256,3946.9506,N,08404.9330,W,1,07,1.40,323.35,M,-33.324,M,,*7A
2017-12-14 12:02:55 1513270975.602477: $GPRMC,170256,A,3946.9506,N,08404.9330,W,0.6309,129.994,141217,,*39
2017-12-14 12:02:55 1513270975.602539: $GPGSA,A,3,10,15,32,21,24,20,18,,,,,,6.6,1.4,6.2*39
2017-12-14 12:02:56 1513270976.152611: $GPZDA,170257.00,14,12,2017,00,00*62
2017-12-14 12:02:56 1513270976.152780: $GPGGA,170257,3946.9503,N,08404.9331,W,1,07,1.40,324.11,M,-33.324,M,,*7E
2017-12-14 12:02:56 1513270976.152905: $GPRMC,170257,A,3946.9503,N,08404.9331,W,0.5912,129.173,141217,,*3E
2017-12-14 12:02:56 1513270976.152969: $GPGSA,A,3,10,15,32,21,24,20,18,,,,,,6.6,1.4,6.2*39
2017-12-14 12:02:57 1513270977.152498: $GPZDA,170258.00,14,12,2017,00,00*6D
2017-12-14 12:02:57 1513270977.152709: $GPGGA,170258,3946.9507,N,08404.9331,W,1,07,1.40,324.75,M,-33.324,M,,*77
2017-12-14 12:02:57 1513270977.152782: $GPRMC,170258,A,3946.9507,N,08404.9331,W,0.5230,76.444,141217,,*04
2017-12-14 12:02:57 1513270977.152850: $GPGSA,A,3,10,15,32,21,24,20,18,,,,,,6.6,1.4,6.2*39
2017-12-14 12:02:58 1513270978.489419: $GPGSV,3,1,11,10,36,295,22,15,44,051,27,32,15,234,10,21,70,195,25*7B
2017-12-14 12:02:58 1513270978.489573: $GPGSV,3,2,11,24,47,120,22,20,39,090,23,18,67,324,16,27,19,297,00*75
2017-12-14 12:02:58 1513270978.489638: $GPGSV,3,3,11,13,13,046,14,08,03,328,00,138,38,213,00*7D
2017-12-14 12:02:58 1513270978.603087: $GPZDA,170259.00,14,12,2017,00,00*6C
2017-12-14 12:02:58 1513270978.603252: $GPGGA,170259,3946.9504,N,08404.9332,W,1,08,1.40,325.52,M,-33.324,M,,*7D
2017-12-14 12:02:58 1513270978.603319: $GPRMC,170259,A,3946.9504,N,08404.9332,W,0.4844,93.795,141217,,*09
2017-12-14 12:02:58 1513270978.603380: $GPGSA,A,3,10,15,32,21,24,20,18,13,,,,,6.6,1.4,6.2*3B
2017-12-14 12:02:59 1513270979.151661: $GPZDA,170300.00,14,12,2017,00,00*61
2017-12-14 12:02:59 1513270979.151846: $GPGGA,170300,3946.9508,N,08404.9332,W,1,08,1.40,326.16,M,-33.324,M,,*7F
2017-12-14 12:02:59 1513270979.151914: $GPRMC,170300,A,3946.9508,N,08404.9332,W,0.5306,114.353,141217,,*34
2017-12-14 12:02:59 1513270979.151977: $GPGSA,A,3,10,15,32,21,24,20,18,13,,,,,6.6,1.4,6.2*3B
2017-12-14 12:03:00 1513270980.151794: $GPZDA,170301.00,14,12,2017,00,00*60
2017-12-14 12:03:00 1513270980.151981: $GPGGA,170301,3946.9504,N,08404.9333,W,1,08,1.40,326.92,M,-33.324,M,,*7F
2017-12-14 12:03:00 1513270980.152048: $GPRMC,170301,A,3946.9504,N,08404.9333,W,0.5857,158.291,141217,,*30
2017-12-14 12:03:00 1513270980.152172: $GPGSA,A,3,10,15,32,21,24,20,18,13,,,,,6.6,1.4,6.2*3B
2017-12-14 12:03:01 1513270981.489238: $GPGSV,3,1,11,10,36,295,22,15,44,051,27,32,15,234,11,21,70,195,25*7A
2017-12-14 12:03:01 1513270981.489425: $GPGSV,3,2,11,24,47,120,23,20,39,090,23,18,67,324,17,27,19,297,00*75
2017-12-14 12:03:01 1513270981.489491: $GPGSV,3,3,11,13,13,046,00,08,03,328,00,138,38,213,00*78
2017-12-14 12:03:01 1513270981.601405: $GPZDA,170302.00,14,12,2017,00,00*63
2017-12-14 12:03:01 1513270981.601577: $GPGGA,170302,3946.9501,N,08404.9333,W,1,07,1.40,327.69,M,-33.324,M,,*73
2017-12-14 12:03:01 1513270981.601644: $GPRMC,170302,A,3946.9501,N,08404.9333,W,0.7246,164.668,141217,,*33
2017-12-14 12:03:01 1513270981.601706: $GPGSA,A,3,10,15,32,21,24,20,18,,,,,,6.6,1.4,6.2*39
2017-12-14 12:03:02 1513270982.151800: $GPZDA,170303.00,14,12,2017,00,00*62
2017-12-14 12:03:02 1513270982.151971: $GPGGA,170303,3946.9502,N,08404.9334,W,1,07,1.40,329.09,M,-33.324,M,,*7E
2017-12-14 12:03:02 1513270982.152038: $GPRMC,170303,A,3946.9502,N,08404.9334,W,0.9066,129.459,141217,,*31
2017-12-14 12:03:02 1513270982.152209: $GPGSA,A,3,10,15,32,21,24,20,18,,,,,,6.6,1.4,6.2*39
2017-12-14 12:03:03 1513270983.152720: $GPZDA,170304.00,14,12,2017,00,00*65
2017-12-14 12:03:03 1513270983.152889: $GPGGA,170304,3946.9501,N,08404.9327,W,1,07,1.40,329.17,M,-33.324,M,,*77
2017-12-14 12:03:03 1513270983.152955: $GPRMC,170304,A,3946.9501,N,08404.9327,W,1.3084,135.525,141217,,*37
2017-12-14 12:03:03 1513270983.153015: $GPGSA,A,3,10,15,32,21,24,20,18,,,,,,6.6,1.4,6.2*39
2017-12-14 12:03:04 1513270984.487386: $GPGSV,3,1,11,10,36,295,22,15,44,051,27,32,15,234,11,21,70,195,25*7A
2017-12-14 12:03:04 1513270984.487561: $GPGSV,3,2,11,24,47,120,23,20,39,090,23,18,67,324,17,13,13,046,12*75
2017-12-14 12:03:04 1513270984.487628: $GPGSV,3,3,11,27,19,297,14,08,03,328,00,138,38,213,00*7E
2017-12-14 12:03:04 1513270984.601073: $GPZDA,170305.00,14,12,2017,00,00*64
2017-12-14 12:03:04 1513270984.601239: $GPGGA,170305,3946.9498,N,08404.9328,W,1,07,1.80,329.93,M,-33.324,M,,*78
2017-12-14 12:03:04 1513270984.601355: $GPRMC,170305,A,3946.9498,N,08404.9328,W,1.1124,122.165,141217,,*37
2017-12-14 12:03:04 1513270984.601419: $GPGSA,A,3,10,15,32,21,24,20,18,,,,,,6.6,1.8,6.2*35
2017-12-14 12:03:05 1513270985.150885: $GPZDA,170306.00,14,12,2017,00,00*67
2017-12-14 12:03:05 1513270985.151068: $GPGGA,170306,3946.9502,N,08404.9328,W,1,07,1.80,330.57,M,-33.324,M,,*79
2017-12-14 12:03:05 1513270985.151136: $GPRMC,170306,A,3946.9502,N,08404.9328,W,0.9689,93.795,141217,,*0D
2017-12-14 12:03:05 1513270985.151198: $GPGSA,A,3,10,15,32,21,24,20,18,,,,,,6.6,1.8,6.2*35
2017-12-14 12:03:06 1513270986.152855: $GPZDA,170307.00,14,12,2017,00,00*66
2017-12-14 12:03:06 1513270986.153136: $GPGGA,170307,3946.9498,N,08404.9322,W,1,07,1.80,331.42,M,-33.324,M,,*75
2017-12-14 12:03:06 1513270986.153206: $GPRMC,170307,A,3946.9498,N,08404.9322,W,0.7267,93.795,141217,,*0E
2017-12-14 12:03:06 1513270986.153323: $GPGSA,A,3,10,15,32,21,24,20,18,,,,,,6.6,1.8,6.2*35
2017-12-14 12:03:07 1513270987.487308: $GPGSV,3,1,11,10,36,295,21,15,44,051,27,32,15,234,10,21,70,195,25*78
2017-12-14 12:03:07 1513270987.487462: $GPGSV,3,2,11,24,47,120,23,20,39,090,23,18,67,324,16,13,13,046,00*77
2017-12-14 12:03:07 1513270987.487528: $GPGSV,3,3,11,27,19,297,13,08,03,328,00,138,38,213,00*79
2017-12-14 12:03:07 1513270987.600985: $GPZDA,170308.00,14,12,2017,00,00*69
2017-12-14 12:03:07 1513270987.601149: $GPGGA,170308,3946.9502,N,08404.9322,W,1,08,1.80,332.06,M,-33.324,M,,*74
2017-12-14 12:03:07 1513270987.601214: $GPRMC,170308,A,3946.9502,N,08404.9322,W,0.4844,93.795,141217,,*0B
2017-12-14 12:03:07 1513270987.601275: $GPGSA,A,3,10,15,32,21,24,20,18,27,,,,,6.6,1.8,6.2*30
2017-12-14 12:03:08 1513270988.151618: $GPZDA,170309.00,14,12,2017,00,00*68
2017-12-14 12:03:08 1513270988.151787: $GPGGA,170309,3946.9499,N,08404.9322,W,1,08,1.80,332.82,M,-33.324,M,,*7A
2017-12-14 12:03:08 1513270988.151853: $GPRMC,170309,A,3946.9499,N,08404.9322,W,1.0253,113.297,141217,,*3E
2017-12-14 12:03:08 1513270988.151915: $GPGSA,A,3,10,15,32,21,24,20,18,27,,,,,6.6,1.8,6.2*30
2017-12-14 12:03:09 1513270989.152019: $GPZDA,170310.00,14,12,2017,00,00*60
2017-12-14 12:03:09 1513270989.152241: $GPGGA,170310,3946.9499,N,08404.9322,W,1,08,1.80,332.82,M,-33.324,M,,*72
2017-12-14 12:03:09 1513270989.152308: $GPRMC,170310,A,3946.9499,N,08404.9322,W,0.9066,129.459,141217,,*37
2017-12-14 12:03:09 1513270989.152369: $GPGSA,A,3,10,15,32,21,24,20,18,27,,,,,6.6,1.8,6.2*30
