2017-11-16 14:58:47 1510862327.959153: {"class":"VERSION","release":"3.17","rev":"3.17","proto_major":3,"proto_minor":12}
2017-11-16 14:58:47 1510862327.959671: {"class":"DEVICES","devices":[{"class":"DEVICE","path":"/dev/ttyUSB0","driver":"SiRF","subtype":"9\u0006GSD4e_4.1.2-P1_RPATCH.05-F-GPS-4R-1510281 11/03/2015 307","activated":"2017-11-16T19:58:47.635Z","flags":1,"native":1,"bps":4800,"parity":"N","stopbits":1,"cycle":1.00}]}
2017-11-16 14:58:47 1510862327.959785: {"class":"WATCH","enable":true,"json":false,"nmea":true,"raw":0,"scaled":false,"timing":false,"split24":false,"pps":false}
2017-11-16 14:58:48 1510862328.831477: $GPGSV,3,1,12,08,08,304,36,10,58,318,51,12,02,115,00,15,20,060,47*7F
2017-11-16 14:58:48 1510862328.831649: $GPGSV,3,2,12,18,77,054,46,21,42,181,45,20,17,111,43,24,51,075,48*73
2017-11-16 14:58:48 1510862328.831709: $GPGSV,3,3,12,27,12,270,44,32,37,253,46,14,20,244,45,138,38,213,44*4F
2017-11-16 14:58:48 1510862328.944774: $GPZDA,195847.00,16,11,2017,00,00*63
2017-11-16 14:58:48 1510862328.944940: $GPGGA,195847,3946.9575,N,08404.9848,W,2,11,0.80,301.77,M,-33.324,M,,*74
2017-11-16 14:58:48 1510862328.945026: $GPRMC,195847,A,3946.9575,N,08404.9848,W,0.0000,0.000,161117,,*3B
2017-11-16 14:58:48 1510862328.945084: $GPGSA,A,3,8,10,15,18,21,20,24,27,32,14,138,,1.6,0.8,1.3*37
2017-11-16 14:58:49 1510862329.570459: $GPZDA,195848.00,16,11,2017,00,00*6C
2017-11-16 14:58:49 1510862329.570619: $GPGGA,195848,3946.9575,N,08404.9848,W,2,11,0.80,301.77,M,-33.324,M,,*7B
2017-11-16 14:58:49 1510862329.570679: $GPRMC,195848,A,3946.9575,N,08404.9848,W,0.0000,0.000,161117,,*34
2017-11-16 14:58:49 1510862329.570736: $GPGSA,A,3,8,10,15,18,21,20,24,27,32,14,138,,1.6,0.8,1.3*37
2017-11-16 14:58:50 1510862330.495057: $GPZDA,195849.00,16,11,2017,00,00*6D
2017-11-16 14:58:50 1510862330.495234: $GPGGA,195849,3946.9575,N,08404.9848,W,2,11,0.80,301.77,M,-33.324,M,,*7A
2017-11-16 14:58:50 1510862330.495296: $GPRMC,195849,A,3946.9575,N,08404.9848,W,0.0000,0.000,161117,,*35
2017-11-16 14:58:50 1510862330.495352: $GPGSA,A,3,8,10,15,18,21,20,24,27,32,14,138,,1.6,0.8,1.3*37
2017-11-16 14:58:51 1510862331.830731: $GPGSV,3,1,12,08,08,304,36,10,58,318,51,12,02,115,00,15,20,060,47*7F
2017-11-16 14:58:51 1510862331.831037: $GPGSV,3,2,12,18,77,054,45,21,42,181,45,20,17,111,43,24,51,075,49*71
2017-11-16 14:58:51 1510862331.831139: $GPGSV,3,3,12,27,12,270,43,32,37,253,46,14,20,244,44,138,38,213,44*49
2017-11-16 14:58:51 1510862331.942695: $GPZDA,195850.00,16,11,2017,00,00*65
2017-11-16 14:58:51 1510862331.942858: $GPGGA,195850,3946.9575,N,08404.9848,W,2,11,0.80,301.77,M,-33.324,M,,*72
2017-11-16 14:58:51 1510862331.942919: $GPRMC,195850,A,3946.9575,N,08404.9848,W,0.0000,0.000,161117,,*3D
2017-11-16 14:58:51 1510862331.942975: $GPGSA,A,3,8,10,15,18,21,20,24,27,32,14,138,,1.6,0.8,1.3*37
2017-11-16 14:58:52 1510862332.495288: $GPZDA,195851.00,16,11,2017,00,00*64
2017-11-16 14:58:52 1510862332.495448: $GPGGA,195851,3946.9575,N,08404.9848,W,2,11,0.80,301.77,M,-33.324,M,,*73
2017-11-16 14:58:52 1510862332.495510: $GPRMC,195851,A,3946.9575,N,08404.9848,W,0.0000,0.000,161117,,*3C
2017-11-16 14:58:52 1510862332.495566: $GPGSA,A,3,8,10,15,18,21,20,24,27,32,14,138,,1.6,0.8,1.3*37
2017-11-16 14:58:53 1510862333.495750: $GPZDA,195852.00,16,11,2017,00,00*67
2017-11-16 14:58:53 1510862333.495939: $GPGGA,195852,3946.9575,N,08404.9848,W,2,11,0.80,301.77,M,-33.324,M,,*70
2017-11-16 14:58:53 1510862333.496003: $GPRMC,195852,A,3946.9575,N,08404.9848,W,0.0000,0.000,161117,,*3F
2017-11-16 14:58:53 1510862333.496082: $GPGSA,A,3,8,10,15,18,21,20,24,27,32,14,138,,1.6,0.8,1.3*37
2017-11-16 14:58:54 1510862334.826023: $GPGSV,3,1,12,08,08,304,36,10,58,318,51,12,02,115,00,15,20,060,47*7F
2017-11-16 14:58:54 1510862334.826201: $GPGSV,3,2,12,18,77,054,45,21,42,181,45,20,17,111,43,24,51,075,49*71
2017-11-16 14:58:54 1510862334.826263: $GPGSV,3,3,12,27,12,270,43,32,37,253,46,14,20,244,44,138,38,213,44*49
2017-11-16 14:58:54 1510862334.939332: $GPZDA,195853.00,16,11,2017,00,00*66
2017-11-16 14:58:54 1510862334.939497: $GPGGA,195853,3946.9575,N,08404.9848,W,2,11,0.80,301.77,M,-33.324,M,,*71
2017-11-16 14:58:54 1510862334.939617: $GPRMC,195853,A,3946.9575,N,08404.9848,W,0.0000,0.000,161117,,*3E
2017-11-16 14:58:54 1510862334.939678: $GPGSA,A,3,8,10,15,18,21,20,24,27,32,14,138,,1.6,0.8,1.3*37
2017-11-16 14:58:55 1510862335.495234: $GPZDA,195854.00,16,11,2017,00,00*61
2017-11-16 14:58:55 1510862335.495403: $GPGGA,195854,3946.9575,N,08404.9848,W,2,11,0.80,301.77,M,-33.324,M,,*76
2017-11-16 14:58:55 1510862335.495466: $GPRMC,195854,A,3946.9575,N,08404.9848,W,0.0000,0.000,161117,,*39
2017-11-16 14:58:55 1510862335.495523: $GPGSA,A,3,8,10,15,18,21,20,24,27,32,14,138,,1.6,0.8,1.3*37
2017-11-16 14:58:56 1510862336.494855: $GPZDA,195855.00,16,11,2017,00,00*60
2017-11-16 14:58:56 1510862336.495031: $GPGGA,195855,3946.9575,N,08404.9848,W,2,11,0.80,301.77,M,-33.324,M,,*77
2017-11-16 14:58:56 1510862336.495097: $GPRMC,195855,A,3946.9575,N,08404.9848,W,0.0000,0.000,161117,,*38
2017-11-16 14:58:56 1510862336.495153: $GPGSA,A,3,8,10,15,18,21,20,24,27,32,14,138,,1.6,0.8,1.3*37
2017-11-16 14:58:57 1510862337.830887: $GPGSV,3,1,12,08,08,304,36,10,58,318,51,12,02,115,00,15,20,060,47*7F
2017-11-16 14:58:57 1510862337.831052: $GPGSV,3,2,12,18,77,054,45,21,42,181,45,20,17,111,43,24,51,075,48*70
2017-11-16 14:58:57 1510862337.831115: $GPGSV,3,3,12,27,12,270,43,32,37,253,46,14,20,244,44,138,38,213,44*49
2017-11-16 14:58:57 1510862337.944274: $GPZDA,195856.00,16,11,2017,00,00*63
2017-11-16 14:58:57 1510862337.944437: $GPGGA,195856,3946.9575,N,08404.9848,W,2,11,0.80,301.77,M,-33.324,M,,*74
2017-11-16 14:58:57 1510862337.944499: $GPRMC,195856,A,3946.9575,N,08404.9848,W,0.0000,0.000,161117,,*3B
2017-11-16 14:58:57 1510862337.944556: $GPGSA,A,3,8,10,15,18,21,20,24,27,32,14,138,,1.6,0.8,1.3*37
