2017-12-01 11:37:32 1512146252.476883: {"class":"VERSION","release":"3.16","rev":"3.16-4","proto_major":3,"proto_minor":11}
2017-12-01 11:37:32 1512146252.477268: {"class":"DEVICES","devices":[{"class":"DEVICE","path":"/dev/ttyUSB0","driver":"SiRF","subtype":"9\u0006GSD4e_4.1.2-P1_RPATCH.05-F-GPS-4R-1510281 11/03/2015 307","activated":"2017-12-01T16:37:32.240Z","flags":1,"native":1,"bps":4800,"parity":"N","stopbits":1,"cycle":1.00}]}
2017-12-01 11:37:32 1512146252.477392: {"class":"WATCH","enable":true,"json":false,"nmea":true,"raw":0,"scaled":false,"timing":false,"split24":false,"pps":false}
2017-12-01 11:37:32 1512146252.689589: $GPGSV,3,1,12,05,16,075,31,10,11,270,36,13,45,051,46,15,77,082,47*73
2017-12-01 11:37:32 1512146252.689773: $GPGSV,3,2,12,18,42,283,44,20,64,045,41,21,64,307,46,24,18,150,41*70
2017-12-01 11:37:32 1512146252.689838: $GPGSV,3,3,12,27,07,325,40,29,27,196,44,04,14,129,00,138,38,213,46*40
2017-12-01 11:37:32 1512146252.803251: $GPZDA,163733.00,01,12,2017,00,00*63
2017-12-01 11:37:32 1512146252.803429: $GPGGA,163733,3946.9562,N,08404.9824,W,2,11,0.80,307.96,M,-33.324,M,,*74
2017-12-01 11:37:32 1512146252.803496: $GPRMC,163733,A,3946.9562,N,08404.9824,W,0.0000,0.000,011217,,*37
2017-12-01 11:37:32 1512146252.803556: $GPGSA,A,3,5,10,13,15,18,20,21,24,27,29,138,,2.0,0.8,1.5*34
2017-12-01 11:37:33 1512146253.356729: $GPZDA,163734.00,01,12,2017,00,00*64
2017-12-01 11:37:33 1512146253.356897: $GPGGA,163734,3946.9562,N,08404.9824,W,2,11,0.80,307.96,M,-33.324,M,,*73
2017-12-01 11:37:33 1512146253.356964: $GPRMC,163734,A,3946.9562,N,08404.9824,W,0.0000,0.000,011217,,*30
2017-12-01 11:37:33 1512146253.357025: $GPGSA,A,3,5,10,13,15,18,20,21,24,27,29,138,,2.0,0.8,1.5*34
2017-12-01 11:37:34 1512146254.356312: $GPZDA,163735.00,01,12,2017,00,00*65
2017-12-01 11:37:34 1512146254.356482: $GPGGA,163735,3946.9562,N,08404.9824,W,2,11,0.80,307.96,M,-33.324,M,,*72
2017-12-01 11:37:34 1512146254.356548: $GPRMC,163735,A,3946.9562,N,08404.9824,W,0.0000,0.000,011217,,*31
2017-12-01 11:37:34 1512146254.356609: $GPGSA,A,3,5,10,13,15,18,20,21,24,27,29,138,,2.0,0.8,1.5*34
2017-12-01 11:37:35 1512146255.706893: $GPGSV,3,1,12,05,16,075,31,10,11,270,36,13,45,051,46,15,77,082,47*73
2017-12-01 11:37:35 1512146255.707076: $GPGSV,3,2,12,18,42,283,44,20,64,045,41,21,64,307,46,24,18,150,42*73
2017-12-01 11:37:35 1512146255.707144: $GPGSV,3,3,12,27,07,325,40,29,27,196,43,04,14,129,00,138,38,213,45*44
2017-12-01 11:37:35 1512146255.820354: $GPZDA,163736.00,01,12,2017,00,00*66
2017-12-01 11:37:35 1512146255.820527: $GPGGA,163736,3946.9562,N,08404.9824,W,2,11,0.80,307.96,M,-33.324,M,,*71
2017-12-01 11:37:35 1512146255.820594: $GPRMC,163736,A,3946.9562,N,08404.9824,W,0.0000,0.000,011217,,*32
2017-12-01 11:37:35 1512146255.820655: $GPGSA,A,3,5,10,13,15,18,20,21,24,27,29,138,,2.0,0.8,1.5*34
2017-12-01 11:37:36 1512146256.445940: $GPZDA,163737.00,01,12,2017,00,00*67
2017-12-01 11:37:36 1512146256.446136: $GPGGA,163737,3946.9562,N,08404.9824,W,2,11,0.80,307.96,M,-33.324,M,,*70
2017-12-01 11:37:36 1512146256.446225: $GPRMC,163737,A,3946.9562,N,08404.9824,W,0.0000,0.000,011217,,*33
2017-12-01 11:37:36 1512146256.446288: $GPGSA,A,3,5,10,13,15,18,20,21,24,27,29,138,,2.0,0.8,1.5*34
2017-12-01 11:37:37 1512146257.356752: $GPZDA,163738.00,01,12,2017,00,00*68
2017-12-01 11:37:37 1512146257.356921: $GPGGA,163738,3946.9562,N,08404.9824,W,2,11,0.80,307.96,M,-33.324,M,,*7F
2017-12-01 11:37:37 1512146257.356987: $GPRMC,163738,A,3946.9562,N,08404.9824,W,0.0000,0.000,011217,,*3C
2017-12-01 11:37:37 1512146257.357048: $GPGSA,A,3,5,10,13,15,18,20,21,24,27,29,138,,2.0,0.8,1.5*34
2017-12-01 11:37:38 1512146258.710942: $GPGSV,3,1,12,05,16,075,31,10,11,270,37,13,45,051,46,15,77,082,47*72
2017-12-01 11:37:38 1512146258.711125: $GPGSV,3,2,12,18,42,283,44,20,64,045,41,21,64,307,46,24,18,150,41*70
2017-12-01 11:37:38 1512146258.711192: $GPGSV,3,3,12,27,07,325,39,29,27,196,44,04,14,129,00,138,38,213,45*4D
2017-12-01 11:37:38 1512146258.824597: $GPZDA,163739.00,01,12,2017,00,00*69
2017-12-01 11:37:38 1512146258.824769: $GPGGA,163739,3946.9562,N,08404.9824,W,2,11,0.80,307.96,M,-33.324,M,,*7E
2017-12-01 11:37:38 1512146258.824886: $GPRMC,163739,A,3946.9562,N,08404.9824,W,0.0000,0.000,011217,,*3D
2017-12-01 11:37:38 1512146258.824948: $GPGSA,A,3,5,10,13,15,18,20,21,24,27,29,138,,2.0,0.8,1.5*34
2017-12-01 11:37:39 1512146259.374364: $GPZDA,163740.00,01,12,2017,00,00*67
2017-12-01 11:37:39 1512146259.374541: $GPGGA,163740,3946.9562,N,08404.9824,W,2,11,0.80,307.96,M,-33.324,M,,*70
2017-12-01 11:37:39 1512146259.374609: $GPRMC,163740,A,3946.9562,N,08404.9824,W,0.0000,0.000,011217,,*33
2017-12-01 11:37:39 1512146259.374670: $GPGSA,A,3,5,10,13,15,18,20,21,24,27,29,138,,2.0,0.8,1.5*34
2017-12-01 11:37:40 1512146260.363893: $GPZDA,163741.00,01,12,2017,00,00*66
2017-12-01 11:37:40 1512146260.364061: $GPGGA,163741,3946.9562,N,08404.9824,W,2,11,0.80,307.96,M,-33.324,M,,*71
2017-12-01 11:37:40 1512146260.364127: $GPRMC,163741,A,3946.9562,N,08404.9824,W,0.0000,0.000,011217,,*32
2017-12-01 11:37:40 1512146260.364189: $GPGSA,A,3,5,10,13,15,18,20,21,24,27,29,138,,2.0,0.8,1.5*34
2017-12-01 11:37:41 1512146261.695044: $GPGSV,3,1,12,05,16,075,32,10,11,270,36,13,45,051,46,15,77,082,48*7F
2017-12-01 11:37:41 1512146261.695228: $GPGSV,3,2,12,18,42,283,44,20,64,045,41,21,64,307,45,24,18,150,41*73
2017-12-01 11:37:41 1512146261.695296: $GPGSV,3,3,12,27,07,325,39,29,27,196,43,04,14,129,00,138,38,213,46*49
2017-12-01 11:37:41 1512146261.808428: $GPZDA,163742.00,01,12,2017,00,00*65
2017-12-01 11:37:41 1512146261.808607: $GPGGA,163742,3946.9562,N,08404.9824,W,2,11,0.80,307.96,M,-33.324,M,,*72
2017-12-01 11:37:41 1512146261.808675: $GPRMC,163742,A,3946.9562,N,08404.9824,W,0.0000,0.000,011217,,*31
2017-12-01 11:37:41 1512146261.808736: $GPGSA,A,3,5,10,13,15,18,20,21,24,27,29,138,,2.0,0.8,1.5*34
2017-12-01 11:37:42 1512146262.356847: $GPZDA,163743.00,01,12,2017,00,00*64
2017-12-01 11:37:42 1512146262.357039: $GPGGA,163743,3946.9562,N,08404.9824,W,2,11,0.80,307.96,M,-33.324,M,,*73
2017-12-01 11:37:42 1512146262.357107: $GPRMC,163743,A,3946.9562,N,08404.9824,W,0.0000,0.000,011217,,*30
2017-12-01 11:37:42 1512146262.357170: $GPGSA,A,3,5,10,13,15,18,20,21,24,27,29,138,,2.0,0.8,1.5*34
