2017-12-01 13:56:37 1512154597.796748: {"class":"VERSION","release":"3.16","rev":"3.16-4","proto_major":3,"proto_minor":11}
2017-12-01 13:56:37 1512154597.797165: {"class":"DEVICES","devices":[{"class":"DEVICE","path":"/dev/ttyUSB0","driver":"SiRF","subtype":"9\u0006GSD4e_4.1.2-P1_RPATCH.05-F-GPS-4R-1510281 11/03/2015 307","activated":"2017-12-01T18:56:37.767Z","flags":1,"native":1,"bps":4800,"parity":"N","stopbits":1,"cycle":1.00}]}
2017-12-01 13:56:37 1512154597.797298: {"class":"WATCH","enable":true,"json":false,"nmea":true,"raw":0,"scaled":false,"timing":false,"split24":false,"pps":false}
2017-12-01 13:56:37 1512154597.945491: $GPZDA,185638.64,01,12,2017,00,00*63
2017-12-01 13:56:37 1512154597.945697: $GPGGA,185638,3946.9585,N,08404.9830,W,1,12,1.00,308.91,M,-33.324,M,,*7B
2017-12-01 13:56:37 1512154597.945768: $GPRMC,185638,A,3946.9585,N,08404.9830,W,0.5777,170.898,011217,,*34
2017-12-01 13:56:37 1512154597.945829: $GPGSA,A,3,8,10,14,15,18,20,21,24,32,27,12,138,2.0,1.0,1.5*3E
2017-12-01 13:56:37 1512154597.945890: $GPGBS,185638,10.70,M,15.43,M,35.28,M*06
2017-12-01 13:56:39 1512154599.027803: $GPZDA,185639.33,01,12,2017,00,00*60
2017-12-01 13:56:39 1512154599.028049: $GPGGA,185639,3946.9582,N,08404.9830,W,1,12,1.00,309.67,M,-33.324,M,,*75
2017-12-01 13:56:39 1512154599.028123: $GPRMC,185639,A,3946.9582,N,08404.9830,W,0.4116,236.171,011217,,*3D
2017-12-01 13:56:39 1512154599.028331: $GPGSA,A,3,8,10,14,15,18,20,21,24,32,27,12,138,2.0,1.0,1.5*3E
2017-12-01 13:56:40 1512154600.169754: $GPGSV,3,1,12,10,58,318,49,14,20,244,38,15,20,060,42,18,77,054,41*76
2017-12-01 13:56:40 1512154600.170056: $GPGSV,3,2,12,20,18,111,42,21,41,181,45,24,51,075,47,27,12,270,36*7D
2017-12-01 13:56:40 1512154600.170128: $GPGSV,3,3,12,32,37,253,42,08,08,304,15,12,02,117,02,138,38,213,39*41
2017-12-01 13:56:40 1512154600.283446: $GPZDA,185640.00,01,12,2017,00,00*6E
2017-12-01 13:56:40 1512154600.283615: $GPGGA,185640,3946.9582,N,08404.9830,W,1,11,0.80,309.67,M,-33.324,M,,*71
2017-12-01 13:56:40 1512154600.283682: $GPRMC,185640,A,3946.9582,N,08404.9830,W,0.3372,150.407,011217,,*33
2017-12-01 13:56:40 1512154600.283743: $GPGSA,A,3,10,14,15,18,20,21,24,27,32,8,138,,2.0,0.8,1.5*34
2017-12-01 13:56:40 1512154600.733902: $GPZDA,185641.00,01,12,2017,00,00*6F
2017-12-01 13:56:40 1512154600.734080: $GPGGA,185641,3946.9581,N,08404.9830,W,1,11,0.80,308.27,M,-33.324,M,,*76
2017-12-01 13:56:40 1512154600.734148: $GPRMC,185641,A,3946.9581,N,08404.9830,W,0.0407,322.014,011217,,*36
2017-12-01 13:56:40 1512154600.734209: $GPGSA,A,3,10,14,15,18,20,21,24,27,32,8,138,,2.0,0.8,1.5*34
2017-12-01 13:56:41 1512154601.339810: $GPZDA,185642.00,01,12,2017,00,00*6C
2017-12-01 13:56:41 1512154601.339982: $GPGGA,185642,3946.9577,N,08404.9830,W,1,11,0.80,307.63,M,-33.324,M,,*73
2017-12-01 13:56:41 1512154601.340051: $GPRMC,185642,A,3946.9577,N,08404.9830,W,0.0000,0.000,011217,,*39
2017-12-01 13:56:41 1512154601.340113: $GPGSA,A,3,10,14,15,18,20,21,24,27,32,8,138,,2.0,0.8,1.5*34
2017-12-01 13:56:42 1512154602.676229: $GPGSV,3,1,12,10,58,318,49,14,20,244,38,15,20,060,41,18,77,054,41*75
2017-12-01 13:56:42 1512154602.676430: $GPGSV,3,2,12,20,18,111,43,21,41,181,45,24,51,075,47,27,12,270,35*7F
2017-12-01 13:56:42 1512154602.676498: $GPGSV,3,3,12,32,37,253,41,08,08,304,35,12,02,117,22,138,38,213,47*4B
2017-12-01 13:56:42 1512154602.789626: $GPZDA,185643.00,01,12,2017,00,00*6D
2017-12-01 13:56:42 1512154602.789798: $GPGGA,185643,3946.9577,N,08404.9836,W,1,12,0.80,306.15,M,-33.324,M,,*77
2017-12-01 13:56:42 1512154602.789864: $GPRMC,185643,A,3946.9577,N,08404.9836,W,0.0000,0.000,011217,,*3E
2017-12-01 13:56:42 1512154602.789925: $GPGSA,A,3,10,14,15,18,20,21,24,27,32,8,12,138,2.0,0.8,1.5*37
2017-12-01 13:56:43 1512154603.340519: $GPZDA,185644.00,01,12,2017,00,00*6A
2017-12-01 13:56:43 1512154603.340688: $GPGGA,185644,3946.9580,N,08404.9835,W,1,12,0.80,305.38,M,-33.324,M,,*77
2017-12-01 13:56:43 1512154603.340754: $GPRMC,185644,A,3946.9580,N,08404.9835,W,0.0000,0.000,011217,,*32
2017-12-01 13:56:43 1512154603.340815: $GPGSA,A,3,10,14,15,18,20,21,24,27,32,8,12,138,2.0,0.8,1.5*37
2017-12-01 13:56:44 1512154604.338779: $GPZDA,185645.00,01,12,2017,00,00*6B
2017-12-01 13:56:44 1512154604.338952: $GPGGA,185645,3946.9580,N,08404.9834,W,1,12,0.80,303.98,M,-33.324,M,,*7B
2017-12-01 13:56:44 1512154604.339020: $GPRMC,185645,A,3946.9580,N,08404.9834,W,0.0000,0.000,011217,,*32
2017-12-01 13:56:44 1512154604.339081: $GPGSA,A,3,10,14,15,18,20,21,24,27,32,8,12,138,2.0,0.8,1.5*37
2017-12-01 13:56:44 1512154604.339140: $GPGBS,185645,10.70,M,15.43,M,35.28,M*0C
2017-12-01 13:56:45 1512154605.675843: $GPGSV,3,1,12,10,58,318,49,14,20,244,37,15,20,060,42,18,77,054,41*79
2017-12-01 13:56:45 1512154605.676023: $GPGSV,3,2,12,20,18,111,43,21,41,181,45,24,51,075,48,27,12,270,36*73
2017-12-01 13:56:45 1512154605.676089: $GPGSV,3,3,12,32,37,253,41,08,08,304,35,12,02,117,22,138,38,213,46*4A
2017-12-01 13:56:45 1512154605.789646: $GPZDA,185646.00,01,12,2017,00,00*68
2017-12-01 13:56:45 1512154605.789817: $GPGGA,185646,3946.9576,N,08404.9841,W,1,12,0.80,303.26,M,-33.324,M,,*76
2017-12-01 13:56:45 1512154605.789884: $GPRMC,185646,A,3946.9576,N,08404.9841,W,0.0000,0.000,011217,,*3A
2017-12-01 13:56:45 1512154605.789945: $GPGSA,A,3,10,14,15,18,20,21,24,27,32,8,12,138,2.0,0.8,1.5*37
2017-12-01 13:56:46 1512154606.341243: $GPZDA,185647.00,01,12,2017,00,00*69
2017-12-01 13:56:46 1512154606.341547: $GPGGA,185647,3946.9576,N,08404.9850,W,2,12,5.20,293.91,M,-33.324,M,,*7F
2017-12-01 13:56:46 1512154606.341621: $GPRMC,185647,A,3946.9576,N,08404.9850,W,0.0000,0.000,011217,,*3B
2017-12-01 13:56:46 1512154606.341683: $GPGSA,A,2,10,14,15,18,20,21,24,27,32,8,12,138,2.0,5.2,1.5*39
2017-12-01 13:56:47 1512154607.341791: $GPZDA,185648.00,01,12,2017,00,00*66
2017-12-01 13:56:47 1512154607.341964: $GPGGA,185648,3946.9576,N,08404.9850,W,2,12,0.80,293.91,M,-33.324,M,,*7F
2017-12-01 13:56:47 1512154607.342030: $GPRMC,185648,A,3946.9576,N,08404.9850,W,0.0000,0.000,011217,,*34
2017-12-01 13:56:47 1512154607.342092: $GPGSA,A,3,10,14,15,18,20,21,24,27,32,8,12,138,2.0,0.8,1.5*37
2017-12-01 13:56:48 1512154608.676204: $GPGSV,3,1,12,10,58,318,49,14,20,244,37,15,20,060,42,18,77,054,42*7A
2017-12-01 13:56:48 1512154608.676409: $GPGSV,3,2,12,20,18,111,43,21,41,181,45,24,51,075,48,27,12,270,36*73
2017-12-01 13:56:48 1512154608.676494: $GPGSV,3,3,12,32,37,253,41,08,08,304,35,12,02,117,21,138,38,213,47*48
2017-12-01 13:56:48 1512154608.789603: $GPZDA,185649.00,01,12,2017,00,00*67
2017-12-01 13:56:48 1512154608.789775: $GPGGA,185649,3946.9576,N,08404.9850,W,2,12,0.80,293.91,M,-33.324,M,,*7E
2017-12-01 13:56:48 1512154608.789842: $GPRMC,185649,A,3946.9576,N,08404.9850,W,0.0000,0.000,011217,,*35
2017-12-01 13:56:48 1512154608.789903: $GPGSA,A,3,10,14,15,18,20,21,24,27,32,8,12,138,2.0,0.8,1.5*37
2017-12-01 13:56:49 1512154609.343031: $GPZDA,185650.00,01,12,2017,00,00*6F
2017-12-01 13:56:49 1512154609.343206: $GPGGA,185650,3946.9572,N,08404.9857,W,2,12,0.80,293.19,M,-33.324,M,,*75
2017-12-01 13:56:49 1512154609.343274: $GPRMC,185650,A,3946.9572,N,08404.9857,W,0.0000,0.000,011217,,*3E
2017-12-01 13:56:49 1512154609.343353: $GPGSA,A,3,10,14,15,18,20,21,24,27,32,8,12,138,2.0,0.8,1.5*37
2017-12-01 13:56:50 1512154610.342725: $GPZDA,185651.00,01,12,2017,00,00*6E
2017-12-01 13:56:50 1512154610.342895: $GPGGA,185651,3946.9572,N,08404.9857,W,2,12,0.80,293.19,M,-33.324,M,,*74
2017-12-01 13:56:50 1512154610.342963: $GPRMC,185651,A,3946.9572,N,08404.9857,W,0.0000,0.000,011217,,*3F
2017-12-01 13:56:50 1512154610.343024: $GPGSA,A,3,10,14,15,18,20,21,24,27,32,8,12,138,2.0,0.8,1.5*37
2017-12-01 13:56:51 1512154611.677066: $GPGSV,3,1,12,10,58,318,49,14,20,244,37,15,20,060,42,18,77,054,42*7A
2017-12-01 13:56:51 1512154611.677249: $GPGSV,3,2,12,20,18,111,43,21,41,181,45,24,51,075,48,27,12,270,37*72
2017-12-01 13:56:51 1512154611.677316: $GPGSV,3,3,12,32,37,253,42,08,08,304,35,12,02,117,17,138,38,213,46*4F
2017-12-01 13:56:51 1512154611.790450: $GPZDA,185652.00,01,12,2017,00,00*6D
2017-12-01 13:56:51 1512154611.790636: $GPGGA,185652,3946.9572,N,08404.9857,W,2,12,0.80,293.19,M,-33.324,M,,*77
2017-12-01 13:56:51 1512154611.790703: $GPRMC,185652,A,3946.9572,N,08404.9857,W,0.0000,0.000,011217,,*3C
2017-12-01 13:56:51 1512154611.790814: $GPGSA,A,3,10,14,15,18,20,21,24,27,32,8,12,138,2.0,0.8,1.5*37
2017-12-01 13:56:52 1512154612.417114: $GPZDA,185653.00,01,12,2017,00,00*6C
2017-12-01 13:56:52 1512154612.417281: $GPGGA,185653,3946.9572,N,08404.9857,W,2,12,0.80,293.19,M,-33.324,M,,*76
2017-12-01 13:56:52 1512154612.417368: $GPRMC,185653,A,3946.9572,N,08404.9857,W,0.0000,0.000,011217,,*3D
2017-12-01 13:56:52 1512154612.417431: $GPGSA,A,3,10,14,15,18,20,21,24,27,32,8,12,138,2.0,0.8,1.5*37
