2017-12-31 17:01:59 1514757719.396188: {"class":"VERSION","release":"3.16","rev":"3.16-4","proto_major":3,"proto_minor":11}
2017-12-31 17:01:59 1514757719.396517: {"class":"DEVICES","devices":[{"class":"DEVICE","path":"/dev/ttyUSB0","driver":"SiRF","activated":"2017-12-31T22:01:59.382Z","flags":1,"native":1,"bps":4800,"parity":"N","stopbits":1,"cycle":1.00}]}
2017-12-31 17:01:59 1514757719.396614: {"class":"WATCH","enable":true,"json":false,"nmea":true,"raw":0,"scaled":false,"timing":false,"split24":false,"pps":false}
2017-12-31 17:02:00 1514757720.678638: $GPGSV,3,1,11,22,45,243,41,23,26,307,39,25,03,037,21,03,46,274,41*77
2017-12-31 17:02:00 1514757720.678818: $GPGSV,3,2,11,16,44,190,44,29,14,057,28,31,51,049,51,14,42,112,38*74
2017-12-31 17:02:00 1514757720.678884: $GPGSV,3,3,11,32,20,121,43,26,73,148,45,135,22,240,42*74
2017-12-31 17:02:00 1514757720.791910: $GPZDA,220201.00,31,12,2017,00,00*60
2017-12-31 17:02:00 1514757720.792098: $GPGGA,220201,3946.9584,N,08404.9855,W,2,11,1.00,302.98,M,-33.324,M,,*78
2017-12-31 17:02:00 1514757720.792182: $GPRMC,220201,A,3946.9584,N,08404.9855,W,0.0000,0.000,311217,,*3A
2017-12-31 17:02:00 1514757720.792245: $GPGSA,A,3,22,23,25,3,16,29,31,14,32,26,135,,1.7,1.0,1.3*3B
2017-12-31 17:02:01 1514757721.345315: $GPZDA,220202.00,31,12,2017,00,00*63
2017-12-31 17:02:01 1514757721.345482: $GPGGA,220202,3946.9584,N,08404.9855,W,2,11,1.00,302.98,M,-33.324,M,,*7B
2017-12-31 17:02:01 1514757721.345548: $GPRMC,220202,A,3946.9584,N,08404.9855,W,0.0000,0.000,311217,,*39
2017-12-31 17:02:01 1514757721.345609: $GPGSA,A,3,22,23,25,3,16,29,31,14,32,26,135,,1.7,1.0,1.3*3B
2017-12-31 17:02:02 1514757722.359837: $GPZDA,220203.00,31,12,2017,00,00*62
2017-12-31 17:02:02 1514757722.360026: $GPGGA,220203,3946.9584,N,08404.9855,W,2,11,1.00,302.98,M,-33.324,M,,*7A
2017-12-31 17:02:02 1514757722.360096: $GPRMC,220203,A,3946.9584,N,08404.9855,W,0.0000,0.000,311217,,*38
2017-12-31 17:02:02 1514757722.360174: $GPGSA,A,3,22,23,25,3,16,29,31,14,32,26,135,,1.7,1.0,1.3*3B
2017-12-31 17:02:03 1514757723.679231: $GPGSV,3,1,11,22,45,243,40,23,26,307,39,25,03,037,21,03,46,274,41*76
2017-12-31 17:02:03 1514757723.679404: $GPGSV,3,2,11,16,44,190,44,29,14,057,29,31,51,049,50,14,42,112,38*74
2017-12-31 17:02:03 1514757723.679470: $GPGSV,3,3,11,32,20,121,43,26,73,148,46,135,22,240,42*77
2017-12-31 17:02:03 1514757723.792654: $GPZDA,220204.00,31,12,2017,00,00*65
2017-12-31 17:02:03 1514757723.792818: $GPGGA,220204,3946.9584,N,08404.9855,W,2,11,1.00,302.98,M,-33.324,M,,*7D
2017-12-31 17:02:03 1514757723.792883: $GPRMC,220204,A,3946.9584,N,08404.9855,W,0.0000,0.000,311217,,*3F
2017-12-31 17:02:03 1514757723.792944: $GPGSA,A,3,22,23,25,3,16,29,31,14,32,26,135,,1.7,1.0,1.3*3B
2017-12-31 17:02:04 1514757724.343555: $GPZDA,220205.00,31,12,2017,00,00*64
2017-12-31 17:02:04 1514757724.343720: $GPGGA,220205,3946.9584,N,08404.9855,W,2,11,1.00,302.98,M,-33.324,M,,*7C
2017-12-31 17:02:04 1514757724.343786: $GPRMC,220205,A,3946.9584,N,08404.9855,W,0.0000,0.000,311217,,*3E
2017-12-31 17:02:04 1514757724.343847: $GPGSA,A,3,22,23,25,3,16,29,31,14,32,26,135,,1.7,1.0,1.3*3B
2017-12-31 17:02:05 1514757725.360221: $GPZDA,220206.00,31,12,2017,00,00*67
2017-12-31 17:02:05 1514757725.360416: $GPGGA,220206,3946.9584,N,08404.9855,W,2,11,1.00,302.98,M,-33.324,M,,*7F
2017-12-31 17:02:05 1514757725.360489: $GPRMC,220206,A,3946.9584,N,08404.9855,W,0.0000,0.000,311217,,*3D
2017-12-31 17:02:05 1514757725.360553: $GPGSA,A,3,22,23,25,3,16,29,31,14,32,26,135,,1.7,1.0,1.3*3B
2017-12-31 17:02:06 1514757726.688317: $GPGSV,3,1,11,22,45,243,41,23,26,307,38,25,03,037,21,03,46,274,40*77
2017-12-31 17:02:06 1514757726.688499: $GPGSV,3,2,11,16,44,190,44,29,14,057,29,31,51,049,50,14,42,112,38*74
2017-12-31 17:02:06 1514757726.688565: $GPGSV,3,3,11,32,20,121,43,26,73,148,46,135,22,240,42*77
2017-12-31 17:02:06 1514757726.801728: $GPZDA,220207.00,31,12,2017,00,00*66
2017-12-31 17:02:06 1514757726.801906: $GPGGA,220207,3946.9584,N,08404.9855,W,2,11,1.00,302.98,M,-33.324,M,,*7E
2017-12-31 17:02:06 1514757726.801975: $GPRMC,220207,A,3946.9584,N,08404.9855,W,0.0000,0.000,311217,,*3C
2017-12-31 17:02:06 1514757726.802091: $GPGSA,A,3,22,23,25,3,16,29,31,14,32,26,135,,1.7,1.0,1.3*3B
2017-12-31 17:02:07 1514757727.343791: $GPZDA,220208.00,31,12,2017,00,00*69
2017-12-31 17:02:08 1514757728.130069: $GPGGA,220208,3946.9584,N,08404.9855,W,2,11,1.00,302.98,M,-33.324,M,,*71
2017-12-31 17:02:08 1514757728.130203: $GPRMC,220208,A,3946.9584,N,08404.9855,W,0.0000,0.000,311217,,*33
2017-12-31 17:02:08 1514757728.130268: $GPGSA,A,3,22,23,25,3,16,29,31,14,32,26,135,,1.7,1.0,1.3*3B
2017-12-31 17:02:08 1514757728.343476: $GPZDA,220209.00,31,12,2017,00,00*68
2017-12-31 17:02:08 1514757728.343649: $GPGGA,220209,3946.9584,N,08404.9855,W,2,11,1.00,302.98,M,-33.324,M,,*70
2017-12-31 17:02:08 1514757728.343717: $GPRMC,220209,A,3946.9584,N,08404.9855,W,0.0000,0.000,311217,,*32
2017-12-31 17:02:08 1514757728.343779: $GPGSA,A,3,22,23,25,3,16,29,31,14,32,26,135,,1.7,1.0,1.3*3B
2017-12-31 17:02:09 1514757729.679165: $GPGSV,3,1,11,22,45,243,41,23,26,307,38,25,03,037,21,03,46,274,41*76
2017-12-31 17:02:09 1514757729.679350: $GPGSV,3,2,11,16,44,190,44,29,14,057,29,31,51,049,50,14,42,112,38*74
2017-12-31 17:02:09 1514757729.679417: $GPGSV,3,3,11,32,20,121,43,26,73,148,46,135,22,240,42*77
2017-12-31 17:02:09 1514757729.792522: $GPZDA,220210.00,31,12,2017,00,00*60
2017-12-31 17:02:09 1514757729.792700: $GPGGA,220210,3946.9584,N,08404.9855,W,2,11,1.00,302.98,M,-33.324,M,,*78
2017-12-31 17:02:09 1514757729.792766: $GPRMC,220210,A,3946.9584,N,08404.9855,W,0.0000,0.000,311217,,*3A
2017-12-31 17:02:09 1514757729.792828: $GPGSA,A,3,22,23,25,3,16,29,31,14,32,26,135,,1.7,1.0,1.3*3B
2017-12-31 17:02:10 1514757730.419200: $GPZDA,220211.00,31,12,2017,00,00*61
2017-12-31 17:02:10 1514757730.419368: $GPGGA,220211,3946.9584,N,08404.9855,W,2,11,1.00,302.98,M,-33.324,M,,*79
2017-12-31 17:02:10 1514757730.419435: $GPRMC,220211,A,3946.9584,N,08404.9855,W,0.0000,0.000,311217,,*3B
2017-12-31 17:02:10 1514757730.419496: $GPGSA,A,3,22,23,25,3,16,29,31,14,32,26,135,,1.7,1.0,1.3*3B
2017-12-31 17:02:11 1514757731.343747: $GPZDA,220212.00,31,12,2017,00,00*62
2017-12-31 17:02:11 1514757731.343917: $GPGGA,220212,3946.9584,N,08404.9855,W,2,11,1.00,302.98,M,-33.324,M,,*7A
2017-12-31 17:02:11 1514757731.343983: $GPRMC,220212,A,3946.9584,N,08404.9855,W,0.0000,0.000,311217,,*38
2017-12-31 17:02:11 1514757731.344044: $GPGSA,A,3,22,23,25,3,16,29,31,14,32,26,135,,1.7,1.0,1.3*3B
2017-12-31 17:02:12 1514757732.671847: $GPGSV,3,1,11,22,45,243,41,23,26,307,37,25,03,037,21,03,46,274,41*79
2017-12-31 17:02:12 1514757732.671962: $GPGSV,3,2,11,16,44,190,44,29,14,057,29,31,51,049,50,14,42,112,38*74
2017-12-31 17:02:12 1514757732.671996: $GPGSV,3,3,11,32,20,121,44,26,73,148,46,135,22,240,42*70
2017-12-31 17:02:12 1514757732.783510: $GPZDA,220213.00,31,12,2017,00,00*63
2017-12-31 17:02:12 1514757732.783620: $GPGGA,220213,3946.9584,N,08404.9855,W,2,11,1.00,302.98,M,-33.324,M,,*7B
2017-12-31 17:02:12 1514757732.783654: $GPRMC,220213,A,3946.9584,N,08404.9855,W,0.0000,0.000,311217,,*39
2017-12-31 17:02:12 1514757732.783685: $GPGSA,A,3,22,23,25,3,16,29,31,14,32,26,135,,1.7,1.0,1.3*3B
2017-12-31 17:02:13 1514757733.361483: $GPZDA,220214.00,31,12,2017,00,00*64
2017-12-31 17:02:13 1514757733.361667: $GPGGA,220214,3946.9584,N,08404.9855,W,2,11,1.00,302.98,M,-33.324,M,,*7C
2017-12-31 17:02:13 1514757733.361776: $GPRMC,220214,A,3946.9584,N,08404.9855,W,0.0000,0.000,311217,,*3E
2017-12-31 17:02:13 1514757733.361843: $GPGSA,A,3,22,23,25,3,16,29,31,14,32,26,135,,1.7,1.0,1.3*3B
2017-12-31 17:02:14 1514757734.343731: $GPZDA,220215.00,31,12,2017,00,00*65
2017-12-31 17:02:14 1514757734.343904: $GPGGA,220215,3946.9584,N,08404.9855,W,2,11,1.00,302.98,M,-33.324,M,,*7D
2017-12-31 17:02:14 1514757734.343970: $GPRMC,220215,A,3946.9584,N,08404.9855,W,0.0000,0.000,311217,,*3F
2017-12-31 17:02:14 1514757734.344030: $GPGSA,A,3,22,23,25,3,16,29,31,14,32,26,135,,1.7,1.0,1.3*3B
2017-12-31 17:02:15 1514757735.679947: $GPGSV,3,1,11,22,45,243,41,23,26,307,37,25,03,037,21,03,46,274,40*78
2017-12-31 17:02:15 1514757735.680128: $GPGSV,3,2,11,16,44,190,44,29,14,057,29,31,51,049,50,14,42,112,38*74
2017-12-31 17:02:15 1514757735.680265: $GPGSV,3,3,11,32,20,121,43,26,73,148,46,135,22,240,42*77
2017-12-31 17:02:15 1514757735.793264: $GPZDA,220216.00,31,12,2017,00,00*66
2017-12-31 17:02:15 1514757735.793415: $GPGGA,220216,3946.9584,N,08404.9855,W,2,11,1.00,302.98,M,-33.324,M,,*7E
2017-12-31 17:02:15 1514757735.793482: $GPRMC,220216,A,3946.9584,N,08404.9855,W,0.0000,0.000,311217,,*3C
2017-12-31 17:02:15 1514757735.793542: $GPGSA,A,3,22,23,25,3,16,29,31,14,32,26,135,,1.7,1.0,1.3*3B
2017-12-31 17:02:16 1514757736.342872: $GPZDA,220217.00,31,12,2017,00,00*67
2017-12-31 17:02:16 1514757736.343051: $GPGGA,220217,3946.9584,N,08404.9855,W,2,11,1.00,302.98,M,-33.324,M,,*7F
2017-12-31 17:02:16 1514757736.343118: $GPRMC,220217,A,3946.9584,N,08404.9855,W,0.0000,0.000,311217,,*3D
2017-12-31 17:02:16 1514757736.343178: $GPGSA,A,3,22,23,25,3,16,29,31,14,32,26,135,,1.7,1.0,1.3*3B
2017-12-31 17:02:17 1514757737.343910: $GPZDA,220218.00,31,12,2017,00,00*68
2017-12-31 17:02:17 1514757737.344097: $GPGGA,220218,3946.9584,N,08404.9855,W,2,11,1.00,302.98,M,-33.324,M,,*70
2017-12-31 17:02:17 1514757737.344163: $GPRMC,220218,A,3946.9584,N,08404.9855,W,0.0000,0.000,311217,,*32
2017-12-31 17:02:17 1514757737.344225: $GPGSA,A,3,22,23,25,3,16,29,31,14,32,26,135,,1.7,1.0,1.3*3B
2017-12-31 17:02:18 1514757738.695678: $GPGSV,3,1,11,22,45,243,41,23,26,307,37,25,03,037,21,03,46,274,41*79
2017-12-31 17:02:18 1514757738.695860: $GPGSV,3,2,11,16,44,190,44,29,14,057,29,31,51,049,50,14,42,112,38*74
2017-12-31 17:02:18 1514757738.695928: $GPGSV,3,3,11,32,20,121,44,26,73,148,46,135,22,240,42*70
2017-12-31 17:02:18 1514757738.809029: $GPZDA,220219.00,31,12,2017,00,00*69
2017-12-31 17:02:18 1514757738.809174: $GPGGA,220219,3946.9587,N,08404.9854,W,2,11,1.00,302.21,M,-33.324,M,,*71
2017-12-31 17:02:18 1514757738.809239: $GPRMC,220219,A,3946.9587,N,08404.9854,W,0.0000,0.000,311217,,*31
2017-12-31 17:02:18 1514757738.809300: $GPGSA,A,3,22,23,25,3,16,29,31,14,32,26,135,,1.7,1.0,1.3*3B
2017-12-31 17:02:19 1514757739.361320: $GPZDA,220220.00,31,12,2017,00,00*63
2017-12-31 17:02:19 1514757739.361484: $GPGGA,220220,3946.9587,N,08404.9854,W,2,11,1.00,302.21,M,-33.324,M,,*7B
2017-12-31 17:02:19 1514757739.361552: $GPRMC,220220,A,3946.9587,N,08404.9854,W,0.0000,0.000,311217,,*3B
2017-12-31 17:02:19 1514757739.361613: $GPGSA,A,3,22,23,25,3,16,29,31,14,32,26,135,,1.7,1.0,1.3*3B
