2017-12-29 10:40:21 1514562021.645939: {"class":"VERSION","release":"3.16","rev":"3.16-4","proto_major":3,"proto_minor":11}
2017-12-29 10:40:21 1514562021.646297: {"class":"DEVICES","devices":[{"class":"DEVICE","path":"/dev/ttyUSB0","driver":"SiRF","subtype":"9\u0006GSD4e_4.1.2-P1_RPATCH.05-F-GPS-4R-1510281 11/03/2015 307","activated":"2017-12-29T15:40:21.455Z","flags":1,"native":1,"bps":4800,"parity":"N","stopbits":1,"cycle":1.00}]}
2017-12-29 10:40:21 1514562021.646411: {"class":"WATCH","enable":true,"json":false,"nmea":true,"raw":0,"scaled":false,"timing":false,"split24":false,"pps":false}
2017-12-29 10:40:23 1514562023.049504: $GPZDA,154023.42,29,12,2017,00,00*6D
2017-12-29 10:40:23 1514562023.049674: $GPGGA,154023,3946.9610,N,08404.9832,W,1,11,1.20,303.48,M,-33.324,M,,*78
2017-12-29 10:40:23 1514562023.049743: $GPRMC,154023,A,3946.9610,N,08404.9832,W,0.0000,0.000,291217,,*3E
2017-12-29 10:40:23 1514562023.049806: $GPGSA,A,3,10,13,15,18,20,21,24,27,29,32,138,,1.7,1.2,1.3*09
2017-12-29 10:40:23 1514562023.049867: $GPGBS,154023,10.91,M,10.38,M,30.89,M*0E
2017-12-29 10:40:24 1514562024.477398: $GPZDA,154024.42,29,12,2017,00,00*6A
2017-12-29 10:40:25 1514562025.469847: $GPGGA,154024,3946.9610,N,08404.9832,W,1,11,1.20,303.48,M,-33.324,M,,*7F
2017-12-29 10:40:25 1514562025.470005: $GPRMC,154024,A,3946.9610,N,08404.9832,W,0.2202,353.469,291217,,*35
2017-12-29 10:40:25 1514562025.470088: $GPGSA,A,3,10,13,15,18,20,21,24,27,29,32,138,,1.7,1.2,1.3*09
2017-12-29 10:40:25 1514562025.470194: $GPGSV,3,1,11,10,29,289,41,13,22,045,44,15,52,049,51,18,60,310,44*73
2017-12-29 10:40:25 1514562025.470259: $GPGSV,3,2,11,20,47,079,47,21,78,225,47,24,40,132,49,29,04,187,32*71
2017-12-29 10:40:25 1514562025.470322: $GPGSV,3,3,11,27,18,306,29,32,08,229,07,138,38,213,00*7D
2017-12-29 10:40:25 1514562025.470379: $GPZDA,154024.93,29,12,2017,00,00*66
2017-12-29 10:40:25 1514562025.470433: $GPGGA,154024,3946.9610,N,08404.9832,W,1,09,1.20,303.48,M,-33.324,M,,*76
2017-12-29 10:40:25 1514562025.470493: $GPRMC,154024,A,3946.9610,N,08404.9832,W,0.2202,353.469,291217,,*35
2017-12-29 10:40:25 1514562025.470552: $GPGSA,A,3,10,13,15,18,20,21,24,29,27,,,,1.7,1.2,1.3*32
2017-12-29 10:40:25 1514562025.781261: $GPZDA,154026.00,29,12,2017,00,00*6E
2017-12-29 10:40:25 1514562025.781423: $GPGGA,154026,3946.9609,N,08404.9831,W,1,09,0.80,302.08,M,-33.324,M,,*71
2017-12-29 10:40:25 1514562025.781488: $GPRMC,154026,A,3946.9609,N,08404.9831,W,0.1867,0.000,291217,,*38
2017-12-29 10:40:25 1514562025.781549: $GPGSA,A,3,10,13,15,18,20,21,24,29,27,,,,1.7,0.8,1.3*39
2017-12-29 10:40:26 1514562026.352135: $GPZDA,154027.00,29,12,2017,00,00*6F
2017-12-29 10:40:26 1514562026.352293: $GPGGA,154027,3946.9605,N,08404.9831,W,1,09,1.20,301.44,M,-33.324,M,,*7C
2017-12-29 10:40:26 1514562026.352359: $GPRMC,154027,A,3946.9605,N,08404.9831,W,0.0000,0.000,291217,,*3D
2017-12-29 10:40:26 1514562026.352420: $GPGSA,A,3,10,13,15,18,20,21,24,29,27,,,,1.7,1.2,1.3*32
2017-12-29 10:40:27 1514562027.688214: $GPGSV,3,1,11,10,29,289,42,13,22,045,44,15,52,049,51,18,60,310,44*70
2017-12-29 10:40:27 1514562027.688381: $GPGSV,3,2,11,20,47,079,48,21,78,225,47,24,40,132,49,29,04,187,33*7F
2017-12-29 10:40:27 1514562027.688446: $GPGSV,3,3,11,27,18,306,31,32,08,229,17,138,38,213,47*76
2017-12-29 10:40:27 1514562027.802047: $GPZDA,154028.00,29,12,2017,00,00*60
2017-12-29 10:40:27 1514562027.802179: $GPGGA,154028,3946.9605,N,08404.9837,W,1,11,0.80,299.95,M,-33.324,M,,*7B
2017-12-29 10:40:27 1514562027.802243: $GPRMC,154028,A,3946.9605,N,08404.9837,W,0.0000,0.000,291217,,*34
2017-12-29 10:40:27 1514562027.802304: $GPGSA,A,3,10,13,15,18,20,21,24,29,27,32,138,,1.7,0.8,1.3*02
2017-12-29 10:40:28 1514562028.351484: $GPZDA,154029.00,29,12,2017,00,00*61
2017-12-29 10:40:28 1514562028.351636: $GPGGA,154029,3946.9601,N,08404.9837,W,1,11,0.80,299.31,M,-33.324,M,,*70
2017-12-29 10:40:28 1514562028.351705: $GPRMC,154029,A,3946.9601,N,08404.9837,W,0.0000,0.000,291217,,*31
2017-12-29 10:40:28 1514562028.351769: $GPGSA,A,3,10,13,15,18,20,21,24,29,27,32,138,,1.7,0.8,1.3*02
2017-12-29 10:40:28 1514562028.351827: $GPGBS,154029,10.91,M,10.38,M,30.89,M*04
2017-12-29 10:40:29 1514562029.352456: $GPZDA,154030.00,29,12,2017,00,00*69
2017-12-29 10:40:29 1514562029.352608: $GPGGA,154030,3946.9596,N,08404.9837,W,1,11,0.80,298.67,M,-33.324,M,,*77
2017-12-29 10:40:29 1514562029.352679: $GPRMC,154030,A,3946.9596,N,08404.9837,W,0.0000,0.000,291217,,*34
2017-12-29 10:40:29 1514562029.352739: $GPGSA,A,3,10,13,15,18,20,21,24,29,27,32,138,,1.7,0.8,1.3*02
2017-12-29 10:40:29 1514562029.352803: $GPGBS,154030,10.91,M,10.38,M,30.89,M*0C
2017-12-29 10:40:30 1514562030.690952: $GPGSV,3,1,11,10,29,289,42,13,22,045,44,15,52,049,52,18,60,310,44*73
2017-12-29 10:40:30 1514562030.691203: $GPGSV,3,2,11,20,47,079,48,21,78,225,47,24,40,132,49,29,04,187,33*7F
2017-12-29 10:40:30 1514562030.691276: $GPGSV,3,3,11,27,18,306,31,32,08,229,20,138,38,213,46*73
2017-12-29 10:40:30 1514562030.802787: $GPZDA,154031.00,29,12,2017,00,00*68
2017-12-29 10:40:30 1514562030.802923: $GPGGA,154031,3946.9600,N,08404.9836,W,1,11,0.80,297.91,M,-33.324,M,,*7D
2017-12-29 10:40:30 1514562030.802989: $GPRMC,154031,A,3946.9600,N,08404.9836,W,0.0000,0.000,291217,,*38
2017-12-29 10:40:30 1514562030.803049: $GPGSA,A,3,10,13,15,18,20,21,24,29,27,32,138,,1.7,0.8,1.3*02
2017-12-29 10:40:31 1514562031.355049: $GPZDA,154032.00,29,12,2017,00,00*6B
2017-12-29 10:40:31 1514562031.355193: $GPGGA,154032,3946.9581,N,08404.9847,W,2,11,1.20,289.57,M,-33.324,M,,*7F
2017-12-29 10:40:31 1514562031.355259: $GPRMC,154032,A,3946.9581,N,08404.9847,W,0.0000,0.000,291217,,*37
2017-12-29 10:40:31 1514562031.355319: $GPGSA,A,3,10,13,15,18,20,21,24,29,27,32,138,,1.7,1.2,1.3*09
