2017-12-01 13:49:56 1512154196.153569: {"class":"VERSION","release":"3.16","rev":"3.16-4","proto_major":3,"proto_minor":11}
2017-12-01 13:49:56 1512154196.153978: {"class":"DEVICES","devices":[{"class":"DEVICE","path":"/dev/ttyUSB0","driver":"SiRF","subtype":"9\u0006GSD4e_4.1.2-P1_RPATCH.05-F-GPS-4R-1510281 11/03/2015 307","activated":"2017-12-01T18:49:55.487Z","flags":1,"native":1,"bps":4800,"parity":"N","stopbits":1,"cycle":1.00}]}
2017-12-01 13:49:56 1512154196.154101: {"class":"WATCH","enable":true,"json":false,"nmea":true,"raw":0,"scaled":false,"timing":false,"split24":false,"pps":false}
2017-12-01 13:49:56 1512154196.674827: $GPGSV,3,1,11,10,56,315,49,14,17,243,38,15,23,058,47,18,77,040,42*7E
2017-12-01 13:49:56 1512154196.675041: $GPGSV,3,2,11,20,20,109,43,21,44,181,44,24,52,079,48,27,14,273,39*73
2017-12-01 13:49:56 1512154196.675132: $GPGSV,3,3,11,32,35,250,40,08,08,307,31,138,38,213,46*78
2017-12-01 13:49:56 1512154196.788242: $GPZDA,184957.00,01,12,2017,00,00*66
2017-12-01 13:49:56 1512154196.788416: $GPGGA,184957,3946.9579,N,08404.9834,W,2,11,0.80,302.57,M,-33.324,M,,*72
2017-12-01 13:49:56 1512154196.788482: $GPRMC,184957,A,3946.9579,N,08404.9834,W,0.0000,0.000,011217,,*39
2017-12-01 13:49:56 1512154196.788543: $GPGSA,A,3,10,14,15,18,20,21,24,27,32,8,138,,2.0,0.8,1.5*34
2017-12-01 13:49:57 1512154197.345349: $GPZDA,184958.00,01,12,2017,00,00*69
2017-12-01 13:49:57 1512154197.345524: $GPGGA,184958,3946.9579,N,08404.9834,W,2,11,0.80,302.57,M,-33.324,M,,*7D
2017-12-01 13:49:57 1512154197.345591: $GPRMC,184958,A,3946.9579,N,08404.9834,W,0.0000,0.000,011217,,*36
2017-12-01 13:49:57 1512154197.345651: $GPGSA,A,3,10,14,15,18,20,21,24,27,32,8,138,,2.0,0.8,1.5*34
2017-12-01 13:49:58 1512154198.345766: $GPZDA,184959.00,01,12,2017,00,00*68
2017-12-01 13:49:58 1512154198.345951: $GPGGA,184959,3946.9579,N,08404.9834,W,2,11,1.00,302.57,M,-33.324,M,,*75
2017-12-01 13:49:58 1512154198.346021: $GPRMC,184959,A,3946.9579,N,08404.9834,W,0.0000,0.000,011217,,*37
2017-12-01 13:49:58 1512154198.346084: $GPGSA,A,3,10,14,15,18,20,21,24,27,32,8,138,,2.0,1.0,1.5*3D
2017-12-01 13:49:59 1512154199.681517: $GPGSV,3,1,11,10,56,315,49,14,17,243,38,15,23,058,47,18,77,040,42*7E
2017-12-01 13:49:59 1512154199.681699: $GPGSV,3,2,11,20,20,109,43,21,44,181,44,24,52,079,47,27,14,273,38*7D
2017-12-01 13:49:59 1512154199.681770: $GPGSV,3,3,11,32,35,250,40,08,08,307,00,138,38,213,46*7A
2017-12-01 13:49:59 1512154199.795215: $GPZDA,185000.00,01,12,2017,00,00*6C
2017-12-01 13:49:59 1512154199.795345: $GPGGA,185000,3946.9579,N,08404.9834,W,2,10,1.00,302.57,M,-33.324,M,,*70
2017-12-01 13:49:59 1512154199.795412: $GPRMC,185000,A,3946.9579,N,08404.9834,W,0.0000,0.000,011217,,*33
2017-12-01 13:49:59 1512154199.795475: $GPGSA,A,3,10,14,15,18,20,21,24,27,32,138,,,2.0,1.0,1.5*05
2017-12-01 13:50:00 1512154200.348893: $GPZDA,185001.00,01,12,2017,00,00*6D
2017-12-01 13:50:00 1512154200.349066: $GPGGA,185001,3946.9579,N,08404.9834,W,2,10,1.00,302.57,M,-33.324,M,,*71
2017-12-01 13:50:00 1512154200.349135: $GPRMC,185001,A,3946.9579,N,08404.9834,W,0.0000,0.000,011217,,*32
2017-12-01 13:50:00 1512154200.349199: $GPGSA,A,3,10,14,15,18,20,21,24,27,32,138,,,2.0,1.0,1.5*05
2017-12-01 13:50:01 1512154201.347247: $GPZDA,185002.00,01,12,2017,00,00*6E
2017-12-01 13:50:01 1512154201.347421: $GPGGA,185002,3946.9579,N,08404.9834,W,2,10,0.80,302.57,M,-33.324,M,,*7B
2017-12-01 13:50:01 1512154201.347492: $GPRMC,185002,A,3946.9579,N,08404.9834,W,0.0000,0.000,011217,,*31
2017-12-01 13:50:01 1512154201.347556: $GPGSA,A,3,10,14,15,18,20,21,24,27,32,138,,,2.0,0.8,1.5*0C
2017-12-01 13:50:02 1512154202.679817: $GPGSV,3,1,11,10,56,315,49,14,17,243,38,15,23,058,47,18,77,040,43*7F
2017-12-01 13:50:02 1512154202.680001: $GPGSV,3,2,11,20,20,109,42,21,44,181,44,24,52,079,47,27,14,273,39*7D
2017-12-01 13:50:02 1512154202.680071: $GPGSV,3,3,11,32,35,250,40,08,08,307,28,138,38,213,46*70
2017-12-01 13:50:02 1512154202.793753: $GPZDA,185003.00,01,12,2017,00,00*6F
2017-12-01 13:50:02 1512154202.793939: $GPGGA,185003,3946.9579,N,08404.9834,W,2,11,0.80,302.57,M,-33.324,M,,*7B
2017-12-01 13:50:02 1512154202.794058: $GPRMC,185003,A,3946.9579,N,08404.9834,W,0.0000,0.000,011217,,*30
2017-12-01 13:50:02 1512154202.794120: $GPGSA,A,3,10,14,15,18,20,21,24,27,32,8,138,,2.0,0.8,1.5*34
2017-12-01 13:50:03 1512154203.419823: $GPZDA,185004.00,01,12,2017,00,00*68
2017-12-01 13:50:03 1512154203.419998: $GPGGA,185004,3946.9579,N,08404.9834,W,2,11,0.80,302.57,M,-33.324,M,,*7C
2017-12-01 13:50:03 1512154203.420066: $GPRMC,185004,A,3946.9579,N,08404.9834,W,0.0000,0.000,011217,,*37
2017-12-01 13:50:03 1512154203.420128: $GPGSA,A,3,10,14,15,18,20,21,24,27,32,8,138,,2.0,0.8,1.5*34
2017-12-01 13:50:04 1512154204.344472: $GPZDA,185005.00,01,12,2017,00,00*69
2017-12-01 13:50:04 1512154204.344648: $GPGGA,185005,3946.9579,N,08404.9834,W,2,11,0.80,302.57,M,-33.324,M,,*7D
2017-12-01 13:50:04 1512154204.344715: $GPRMC,185005,A,3946.9579,N,08404.9834,W,0.0000,0.000,011217,,*36
2017-12-01 13:50:04 1512154204.344794: $GPGSA,A,3,10,14,15,18,20,21,24,27,32,8,138,,2.0,0.8,1.5*34
2017-12-01 13:50:05 1512154205.681504: $GPGSV,3,1,11,10,56,315,49,14,17,243,37,15,23,058,47,18,77,040,43*70
2017-12-01 13:50:05 1512154205.681683: $GPGSV,3,2,11,20,20,109,42,21,44,181,44,24,52,079,47,27,14,273,39*7D
2017-12-01 13:50:05 1512154205.681750: $GPGSV,3,3,11,32,35,250,40,08,08,307,32,138,38,213,46*7B
2017-12-01 13:50:05 1512154205.795256: $GPZDA,185006.00,01,12,2017,00,00*6A
2017-12-01 13:50:05 1512154205.795426: $GPGGA,185006,3946.9579,N,08404.9834,W,2,11,0.80,302.57,M,-33.324,M,,*7E
2017-12-01 13:50:05 1512154205.795494: $GPRMC,185006,A,3946.9579,N,08404.9834,W,0.0000,0.000,011217,,*35
2017-12-01 13:50:05 1512154205.795554: $GPGSA,A,3,10,14,15,18,20,21,24,27,32,8,138,,2.0,0.8,1.5*34
