2017-11-16 13:24:36 1510856676.095609: {"class":"VERSION","release":"3.17","rev":"3.17","proto_major":3,"proto_minor":12}
2017-11-16 13:24:36 1510856676.096062: {"class":"DEVICES","devices":[{"class":"DEVICE","path":"/dev/ttyUSB0","driver":"SiRF","subtype":"9\u0006GSD4e_4.1.2-P1_RPATCH.05-F-GPS-4R-1510281 11/03/2015 307","activated":"2017-11-16T18:24:35.419Z","flags":1,"native":1,"bps":4800,"parity":"N","stopbits":1,"cycle":1.00}]}
2017-11-16 13:24:36 1510856676.096178: {"class":"WATCH","enable":true,"json":false,"nmea":true,"raw":0,"scaled":false,"timing":false,"split24":false,"pps":false}
2017-11-16 13:24:36 1510856676.633313: $GPGSV,3,1,12,10,25,285,40,13,27,045,47,15,59,051,51,18,56,303,47*71
2017-11-16 13:24:36 1510856676.633465: $GPGSV,3,2,12,20,49,075,47,21,78,259,46,24,35,136,42,27,17,310,43*71
2017-11-16 13:24:36 1510856676.633527: $GPGSV,3,3,12,05,02,088,00,29,07,189,32,32,02,226,28,138,38,213,45*4F
2017-11-16 13:24:36 1510856676.746619: $GPZDA,182435.00,16,11,2017,00,00*6C
2017-11-16 13:24:36 1510856676.746780: $GPGGA,182435,3946.9615,N,08404.9845,W,2,11,0.80,303.96,M,-33.324,M,,*7E
2017-11-16 13:24:36 1510856676.746841: $GPRMC,182435,A,3946.9615,N,08404.9845,W,0.0000,0.000,161117,,*3C
2017-11-16 13:24:36 1510856676.746899: $GPGSA,A,3,10,13,15,18,20,21,24,27,29,32,138,,1.6,0.8,1.3*03
2017-11-16 13:24:37 1510856677.280005: $GPZDA,182436.00,16,11,2017,00,00*6F
2017-11-16 13:24:37 1510856677.280195: $GPGGA,182436,3946.9615,N,08404.9845,W,2,11,0.80,303.96,M,-33.324,M,,*7D
2017-11-16 13:24:37 1510856677.280258: $GPRMC,182436,A,3946.9615,N,08404.9845,W,0.0000,0.000,161117,,*3F
2017-11-16 13:24:37 1510856677.280377: $GPGSA,A,3,10,13,15,18,20,21,24,27,29,32,138,,1.6,0.8,1.3*03
2017-11-16 13:24:38 1510856678.278289: $GPZDA,182437.00,16,11,2017,00,00*6E
2017-11-16 13:24:38 1510856678.278456: $GPGGA,182437,3946.9615,N,08404.9845,W,2,11,0.80,303.96,M,-33.324,M,,*7C
2017-11-16 13:24:38 1510856678.278517: $GPRMC,182437,A,3946.9615,N,08404.9845,W,0.0000,0.000,161117,,*3E
2017-11-16 13:24:38 1510856678.278573: $GPGSA,A,3,10,13,15,18,20,21,24,27,29,32,138,,1.6,0.8,1.3*03
2017-11-16 13:24:39 1510856679.612804: $GPGSV,3,1,12,10,25,285,42,13,27,045,47,15,59,051,51,18,56,303,47*73
2017-11-16 13:24:39 1510856679.612967: $GPGSV,3,2,12,20,49,075,48,21,78,259,46,24,35,136,41,27,17,310,42*7C
2017-11-16 13:24:39 1510856679.613043: $GPGSV,3,3,12,05,02,088,00,29,07,189,32,32,02,226,28,138,38,213,45*4F
2017-11-16 13:24:39 1510856679.726096: $GPZDA,182438.00,16,11,2017,00,00*61
2017-11-16 13:24:39 1510856679.726259: $GPGGA,182438,3946.9615,N,08404.9845,W,2,11,0.80,303.96,M,-33.324,M,,*73
2017-11-16 13:24:39 1510856679.726319: $GPRMC,182438,A,3946.9615,N,08404.9845,W,0.0000,0.000,161117,,*31
2017-11-16 13:24:39 1510856679.726375: $GPGSA,A,3,10,13,15,18,20,21,24,27,29,32,138,,1.6,0.8,1.3*03
2017-11-16 13:24:40 1510856680.351493: $GPZDA,182439.00,16,11,2017,00,00*60
2017-11-16 13:24:40 1510856680.351658: $GPGGA,182439,3946.9615,N,08404.9845,W,2,11,0.80,303.96,M,-33.324,M,,*72
2017-11-16 13:24:40 1510856680.351720: $GPRMC,182439,A,3946.9615,N,08404.9845,W,0.0000,0.000,161117,,*30
2017-11-16 13:24:40 1510856680.351776: $GPGSA,A,3,10,13,15,18,20,21,24,27,29,32,138,,1.6,0.8,1.3*03
2017-11-16 13:24:41 1510856681.278532: $GPZDA,182440.00,16,11,2017,00,00*6E
2017-11-16 13:24:41 1510856681.278699: $GPGGA,182440,3946.9615,N,08404.9845,W,2,11,0.80,303.96,M,-33.324,M,,*7C
2017-11-16 13:24:41 1510856681.278760: $GPRMC,182440,A,3946.9615,N,08404.9845,W,0.0000,0.000,161117,,*3E
2017-11-16 13:24:41 1510856681.278817: $GPGSA,A,3,10,13,15,18,20,21,24,27,29,32,138,,1.6,0.8,1.3*03
2017-11-16 13:24:42 1510856682.614287: $GPGSV,3,1,12,10,25,285,42,13,27,045,47,15,59,051,51,18,56,303,48*7C
2017-11-16 13:24:42 1510856682.614463: $GPGSV,3,2,12,20,49,075,47,21,78,259,46,24,35,136,42,27,17,310,41*73
2017-11-16 13:24:42 1510856682.614524: $GPGSV,3,3,12,05,02,088,00,29,07,189,31,32,02,226,28,138,38,213,44*4D
2017-11-16 13:24:42 1510856682.727553: $GPZDA,182441.00,16,11,2017,00,00*6F
2017-11-16 13:24:42 1510856682.727716: $GPGGA,182441,3946.9615,N,08404.9845,W,2,11,0.80,303.96,M,-33.324,M,,*7D
2017-11-16 13:24:42 1510856682.727846: $GPRMC,182441,A,3946.9615,N,08404.9845,W,0.0000,0.000,161117,,*3F
2017-11-16 13:24:42 1510856682.727905: $GPGSA,A,3,10,13,15,18,20,21,24,27,29,32,138,,1.6,0.8,1.3*03
2017-11-16 13:24:43 1510856683.278461: $GPZDA,182442.00,16,11,2017,00,00*6C
2017-11-16 13:24:43 1510856683.278642: $GPGGA,182442,3946.9615,N,08404.9845,W,2,11,0.80,303.96,M,-33.324,M,,*7E
2017-11-16 13:24:43 1510856683.278703: $GPRMC,182442,A,3946.9615,N,08404.9845,W,0.0000,0.000,161117,,*3C
2017-11-16 13:24:43 1510856683.278760: $GPGSA,A,3,10,13,15,18,20,21,24,27,29,32,138,,1.6,0.8,1.3*03
2017-11-16 13:24:44 1510856684.281888: $GPZDA,182443.00,16,11,2017,00,00*6D
2017-11-16 13:24:44 1510856684.282063: $GPGGA,182443,3946.9615,N,08404.9845,W,2,11,0.80,303.96,M,-33.324,M,,*7F
2017-11-16 13:24:44 1510856684.282125: $GPRMC,182443,A,3946.9615,N,08404.9845,W,0.0000,0.000,161117,,*3D
2017-11-16 13:24:44 1510856684.282181: $GPGSA,A,3,10,13,15,18,20,21,24,27,29,32,138,,1.6,0.8,1.3*03
2017-11-16 13:24:45 1510856685.615763: $GPGSV,3,1,12,10,25,285,41,13,27,045,47,15,59,051,51,18,56,303,47*70
2017-11-16 13:24:45 1510856685.615951: $GPGSV,3,2,12,20,49,075,47,21,78,259,46,24,35,136,42,27,17,310,41*73
2017-11-16 13:24:45 1510856685.616012: $GPGSV,3,3,12,05,02,088,22,29,07,189,31,32,02,226,29,138,38,213,43*4B
2017-11-16 13:24:45 1510856685.729019: $GPZDA,182444.00,16,11,2017,00,00*6A
2017-11-16 13:24:45 1510856685.729164: $GPGGA,182444,3946.9615,N,08404.9845,W,2,12,0.80,303.96,M,-33.324,M,,*7B
2017-11-16 13:24:45 1510856685.729226: $GPRMC,182444,A,3946.9615,N,08404.9845,W,0.0000,0.000,161117,,*3A
2017-11-16 13:24:45 1510856685.729282: $GPGSA,A,3,10,13,15,18,20,21,24,27,5,29,32,138,1.6,0.8,1.3*36
2017-11-16 13:24:46 1510856686.278662: $GPZDA,182445.00,16,11,2017,00,00*6B
2017-11-16 13:24:46 1510856686.278812: $GPGGA,182445,3946.9615,N,08404.9845,W,2,12,0.80,303.96,M,-33.324,M,,*7A
2017-11-16 13:24:46 1510856686.278874: $GPRMC,182445,A,3946.9615,N,08404.9845,W,0.0000,0.000,161117,,*3B
2017-11-16 13:24:46 1510856686.278930: $GPGSA,A,3,10,13,15,18,20,21,24,27,5,29,32,138,1.6,0.8,1.3*36
2017-11-16 13:24:47 1510856687.278440: $GPZDA,182446.00,16,11,2017,00,00*68
2017-11-16 13:24:47 1510856687.278603: $GPGGA,182446,3946.9615,N,08404.9845,W,2,12,0.80,303.96,M,-33.324,M,,*79
2017-11-16 13:24:47 1510856687.278665: $GPRMC,182446,A,3946.9615,N,08404.9845,W,0.0000,0.000,161117,,*38
2017-11-16 13:24:47 1510856687.278721: $GPGSA,A,3,10,13,15,18,20,21,24,27,5,29,32,138,1.6,0.8,1.3*36
2017-11-16 13:24:48 1510856688.616468: $GPGSV,3,1,12,10,25,285,40,13,27,045,47,15,59,051,51,18,56,303,47*71
2017-11-16 13:24:48 1510856688.616628: $GPGSV,3,2,12,20,49,075,47,21,78,259,46,24,35,136,42,27,17,310,41*73
2017-11-16 13:24:48 1510856688.616688: $GPGSV,3,3,12,05,02,088,23,29,07,189,31,32,02,226,08,138,38,213,45*4F
2017-11-16 13:24:48 1510856688.729982: $GPZDA,182447.00,16,11,2017,00,00*69
2017-11-16 13:24:48 1510856688.730141: $GPGGA,182447,3946.9615,N,08404.9845,W,2,11,0.80,303.96,M,-33.324,M,,*7B
2017-11-16 13:24:48 1510856688.730221: $GPRMC,182447,A,3946.9615,N,08404.9845,W,0.0000,0.000,161117,,*39
2017-11-16 13:24:48 1510856688.730278: $GPGSA,A,3,10,13,15,18,20,21,24,27,5,29,138,,1.6,0.8,1.3*37
2017-11-16 13:24:49 1510856689.275600: $GPZDA,182448.00,16,11,2017,00,00*66
2017-11-16 13:24:49 1510856689.275786: $GPGGA,182448,3946.9615,N,08404.9845,W,2,11,0.80,303.96,M,-33.324,M,,*74
2017-11-16 13:24:49 1510856689.275848: $GPRMC,182448,A,3946.9615,N,08404.9845,W,0.0000,0.000,161117,,*36
2017-11-16 13:24:49 1510856689.275904: $GPGSA,A,3,10,13,15,18,20,21,24,27,5,29,138,,1.6,0.8,1.3*37
2017-11-16 13:24:50 1510856690.272380: $GPZDA,182449.00,16,11,2017,00,00*67
2017-11-16 13:24:50 1510856690.272553: $GPGGA,182449,3946.9615,N,08404.9845,W,2,11,0.80,303.96,M,-33.324,M,,*75
2017-11-16 13:24:50 1510856690.272614: $GPRMC,182449,A,3946.9615,N,08404.9845,W,0.0000,0.000,161117,,*37
2017-11-16 13:24:50 1510856690.272670: $GPGSA,A,3,10,13,15,18,20,21,24,27,5,29,138,,1.6,0.8,1.3*37
