2017-11-16 14:13:05 1510859585.227982: {"class":"VERSION","release":"3.17","rev":"3.17","proto_major":3,"proto_minor":12}
2017-11-16 14:13:05 1510859585.228485: {"class":"DEVICES","devices":[{"class":"DEVICE","path":"/dev/ttyUSB0","driver":"SiRF","subtype":"9\u0006GSD4e_4.1.2-P1_RPATCH.05-F-GPS-4R-1510281 11/03/2015 307","activated":"2017-11-16T19:13:04.741Z","flags":1,"native":1,"bps":4800,"parity":"N","stopbits":1,"cycle":1.00}]}
2017-11-16 14:13:05 1510859585.228600: {"class":"WATCH","enable":true,"json":false,"nmea":true,"raw":0,"scaled":false,"timing":false,"split24":false,"pps":false}
2017-11-16 14:13:05 1510859585.554080: $GPZDA,191304.00,16,11,2017,00,00*6B
2017-11-16 14:13:05 1510859585.554245: $GPGGA,191304,3946.9550,N,08404.9851,W,2,11,0.80,304.32,M,-33.324,M,,*77
2017-11-16 14:13:05 1510859585.554306: $GPRMC,191304,A,3946.9550,N,08404.9851,W,0.0000,0.000,161117,,*3C
2017-11-16 14:13:05 1510859585.554362: $GPGSA,A,3,8,10,13,15,18,21,20,24,27,32,138,,1.6,0.8,1.3*30
2017-11-16 14:13:06 1510859586.895974: $GPGSV,3,1,12,08,06,322,34,10,41,300,42,13,08,048,22,15,38,052,50*78
2017-11-16 14:13:06 1510859586.896121: $GPGSV,3,2,12,18,70,334,48,21,65,192,46,20,33,096,46,24,50,111,49*75
2017-11-16 14:13:06 1510859586.896182: $GPGSV,3,3,12,27,19,289,38,32,20,237,45,14,04,232,07,138,38,213,45*4E
2017-11-16 14:13:07 1510859587.009357: $GPZDA,191305.00,16,11,2017,00,00*6A
2017-11-16 14:13:07 1510859587.009525: $GPGGA,191305,3946.9550,N,08404.9851,W,2,11,0.80,304.32,M,-33.324,M,,*76
2017-11-16 14:13:07 1510859587.009608: $GPRMC,191305,A,3946.9550,N,08404.9851,W,0.0000,0.000,161117,,*3D
2017-11-16 14:13:07 1510859587.009666: $GPGSA,A,3,8,10,13,15,18,21,20,24,27,32,138,,1.6,0.8,1.3*30
2017-11-16 14:13:07 1510859587.553871: $GPZDA,191306.00,16,11,2017,00,00*69
2017-11-16 14:13:07 1510859587.554050: $GPGGA,191306,3946.9550,N,08404.9851,W,2,11,0.80,304.32,M,-33.324,M,,*75
2017-11-16 14:13:07 1510859587.554111: $GPRMC,191306,A,3946.9550,N,08404.9851,W,0.0000,0.000,161117,,*3E
2017-11-16 14:13:07 1510859587.554168: $GPGSA,A,3,8,10,13,15,18,21,20,24,27,32,138,,1.6,0.8,1.3*30
2017-11-16 14:13:08 1510859588.547089: $GPZDA,191307.00,16,11,2017,00,00*68
2017-11-16 14:13:08 1510859588.547251: $GPGGA,191307,3946.9550,N,08404.9851,W,2,11,0.80,304.32,M,-33.324,M,,*74
2017-11-16 14:13:08 1510859588.547312: $GPRMC,191307,A,3946.9550,N,08404.9851,W,0.0000,0.000,161117,,*3F
2017-11-16 14:13:08 1510859588.547369: $GPGSA,A,3,8,10,13,15,18,21,20,24,27,32,138,,1.6,0.8,1.3*30
2017-11-16 14:13:09 1510859589.860996: $GPGSV,3,1,12,08,06,322,34,10,41,300,42,13,08,048,22,15,38,052,50*78
2017-11-16 14:13:09 1510859589.861157: $GPGSV,3,2,12,18,70,334,48,21,65,192,46,20,33,096,46,24,50,111,49*75
2017-11-16 14:13:09 1510859589.861218: $GPGSV,3,3,12,27,19,289,38,32,20,237,45,14,04,232,00,138,38,213,44*48
2017-11-16 14:13:09 1510859589.974342: $GPZDA,191308.00,16,11,2017,00,00*67
2017-11-16 14:13:09 1510859589.974512: $GPGGA,191308,3946.9550,N,08404.9851,W,2,11,0.80,304.32,M,-33.324,M,,*7B
2017-11-16 14:13:09 1510859589.974575: $GPRMC,191308,A,3946.9550,N,08404.9851,W,0.0000,0.000,161117,,*30
2017-11-16 14:13:09 1510859589.974630: $GPGSA,A,3,8,10,13,15,18,21,20,24,27,32,138,,1.6,0.8,1.3*30
2017-11-16 14:13:10 1510859590.523902: $GPZDA,191309.00,16,11,2017,00,00*66
2017-11-16 14:13:10 1510859590.524066: $GPGGA,191309,3946.9550,N,08404.9851,W,2,11,0.80,304.32,M,-33.324,M,,*7A
2017-11-16 14:13:10 1510859590.524127: $GPRMC,191309,A,3946.9550,N,08404.9851,W,0.0000,0.000,161117,,*31
2017-11-16 14:13:10 1510859590.524183: $GPGSA,A,3,8,10,13,15,18,21,20,24,27,32,138,,1.6,0.8,1.3*30
2017-11-16 14:13:11 1510859591.524910: $GPZDA,191310.00,16,11,2017,00,00*6E
2017-11-16 14:13:11 1510859591.525064: $GPGGA,191310,3946.9550,N,08404.9851,W,2,11,0.80,304.32,M,-33.324,M,,*72
2017-11-16 14:13:11 1510859591.525149: $GPRMC,191310,A,3946.9550,N,08404.9851,W,0.0000,0.000,161117,,*39
2017-11-16 14:13:11 1510859591.525235: $GPGSA,A,3,8,10,13,15,18,21,20,24,27,32,138,,1.6,0.8,1.3*30
2017-11-16 14:13:12 1510859592.890362: $GPGSV,3,1,12,08,06,322,30,10,41,300,42,13,08,048,22,15,38,052,50*7C
2017-11-16 14:13:12 1510859592.890582: $GPGSV,3,2,12,18,70,334,48,21,65,192,46,20,33,096,46,24,50,111,48*74
2017-11-16 14:13:12 1510859592.890644: $GPGSV,3,3,12,27,19,289,38,32,20,237,45,14,04,232,00,138,38,213,44*48
2017-11-16 14:13:13 1510859593.003624: $GPZDA,191311.00,16,11,2017,00,00*6F
2017-11-16 14:13:13 1510859593.003785: $GPGGA,191311,3946.9550,N,08404.9851,W,2,11,0.80,304.32,M,-33.324,M,,*73
2017-11-16 14:13:13 1510859593.003848: $GPRMC,191311,A,3946.9550,N,08404.9851,W,0.0000,0.000,161117,,*38
2017-11-16 14:13:13 1510859593.003904: $GPGSA,A,3,8,10,13,15,18,21,20,24,27,32,138,,1.6,0.8,1.3*30
2017-11-16 14:13:13 1510859593.525904: $GPZDA,191312.00,16,11,2017,00,00*6C
2017-11-16 14:13:13 1510859593.526085: $GPGGA,191312,3946.9550,N,08404.9851,W,2,11,0.80,304.32,M,-33.324,M,,*70
2017-11-16 14:13:13 1510859593.526146: $GPRMC,191312,A,3946.9550,N,08404.9851,W,0.0000,0.000,161117,,*3B
2017-11-16 14:13:13 1510859593.526202: $GPGSA,A,3,8,10,13,15,18,21,20,24,27,32,138,,1.6,0.8,1.3*30
2017-11-16 14:13:14 1510859594.553832: $GPZDA,191313.00,16,11,2017,00,00*6D
2017-11-16 14:13:14 1510859594.554011: $GPGGA,191313,3946.9550,N,08404.9851,W,2,11,0.80,304.32,M,-33.324,M,,*71
2017-11-16 14:13:14 1510859594.554074: $GPRMC,191313,A,3946.9550,N,08404.9851,W,0.0000,0.000,161117,,*3A
2017-11-16 14:13:14 1510859594.554130: $GPGSA,A,3,8,10,13,15,18,21,20,24,27,32,138,,1.6,0.8,1.3*30
