2017-11-15 19:12:35 1510791155.053428: {"class":"VERSION","release":"3.17","rev":"3.17","proto_major":3,"proto_minor":12}
2017-11-15 19:12:35 1510791155.053876: {"class":"DEVICES","devices":[{"class":"DEVICE","path":"/dev/ttyUSB0","driver":"SiRF","subtype":"9\u0006GSD4e_4.1.2-P1_RPATCH.05-F-GPS-4R-1510281 11/03/2015 307","activated":"2017-11-16T00:12:34.471Z","flags":1,"native":1,"bps":4800,"parity":"N","stopbits":1,"cycle":1.00}]}
2017-11-15 19:12:35 1510791155.053986: {"class":"WATCH","enable":true,"json":false,"nmea":true,"raw":0,"scaled":false,"timing":false,"split24":false,"pps":false}
2017-11-15 19:12:35 1510791155.347162: $GPZDA,001234.00,16,11,2017,00,00*61
2017-11-15 19:12:35 1510791155.347436: $GPGGA,001234,3946.9649,N,08404.9484,W,1,10,0.80,305.73,M,-33.324,M,,*74
2017-11-15 19:12:35 1510791155.347578: $GPRMC,001234,A,3946.9649,N,08404.9484,W,0.8359,148.778,161117,,*3B
2017-11-15 19:12:35 1510791155.347706: $GPGSA,A,3,32,14,1,26,31,16,3,22,29,25,,,3.4,0.8,2.9*3D
2017-11-15 19:12:36 1510791156.666809: $GPGSV,3,1,11,32,43,099,23,14,61,079,16,01,10,259,11,26,43,175,20*7B
2017-11-15 19:12:36 1510791156.667053: $GPGSV,3,2,11,31,74,006,23,16,14,190,15,03,34,307,16,22,49,283,07*74
2017-11-15 19:12:36 1510791156.667178: $GPGSV,3,3,11,29,07,079,10,25,24,043,04,10,05,159,00*41
2017-11-15 19:12:36 1510791156.780152: $GPZDA,001235.00,16,11,2017,00,00*60
2017-11-15 19:12:36 1510791156.780311: $GPGGA,001235,3946.9649,N,08404.9484,W,1,09,0.80,305.73,M,-33.324,M,,*7D
2017-11-15 19:12:36 1510791156.780371: $GPRMC,001235,A,3946.9649,N,08404.9484,W,0.5912,129.173,161117,,*38
2017-11-15 19:12:36 1510791156.780427: $GPGSA,A,3,32,14,1,26,31,16,3,22,29,,,,3.4,0.8,2.9*3A
2017-11-15 19:12:37 1510791157.347531: $GPZDA,001236.00,16,11,2017,00,00*63
2017-11-15 19:12:37 1510791157.347714: $GPGGA,001236,3946.9649,N,08404.9477,W,1,09,1.00,305.80,M,-33.324,M,,*77
2017-11-15 19:12:37 1510791157.347783: $GPRMC,001236,A,3946.9649,N,08404.9477,W,0.4844,93.794,161117,,*0B
2017-11-15 19:12:37 1510791157.347862: $GPGSA,A,3,32,14,1,26,31,16,3,22,29,,,,3.4,1.0,2.9*33
2017-11-15 19:12:38 1510791158.330761: $GPZDA,001237.00,16,11,2017,00,00*62
2017-11-15 19:12:38 1510791158.330934: $GPGGA,001237,3946.9649,N,08404.9477,W,1,09,1.00,305.80,M,-33.324,M,,*76
2017-11-15 19:12:38 1510791158.330996: $GPRMC,001237,A,3946.9649,N,08404.9477,W,0.4207,39.347,161117,,*0D
2017-11-15 19:12:38 1510791158.331052: $GPGSA,A,3,32,14,1,26,31,16,3,22,29,,,,3.4,1.0,2.9*33
2017-11-15 19:12:39 1510791159.682832: $GPGSV,3,1,11,32,43,099,23,14,61,079,16,01,10,259,10,26,43,175,20*7A
2017-11-15 19:12:39 1510791159.683013: $GPGSV,3,2,11,31,74,006,23,16,14,190,15,03,34,307,17,22,49,283,07*75
2017-11-15 19:12:39 1510791159.683073: $GPGSV,3,3,11,29,07,079,10,25,24,043,06,10,05,159,00*43
2017-11-15 19:12:39 1510791159.794849: $GPZDA,001238.00,16,11,2017,00,00*6D
2017-11-15 19:12:39 1510791159.795009: $GPGGA,001238,3946.9649,N,08404.9477,W,1,09,1.00,305.80,M,-33.324,M,,*79
2017-11-15 19:12:39 1510791159.795069: $GPRMC,001238,A,3946.9649,N,08404.9477,W,0.8905,57.384,161117,,*00
2017-11-15 19:12:39 1510791159.795124: $GPGSA,A,3,32,14,26,31,16,3,22,29,25,,,,3.4,1.0,2.9*05
2017-11-15 19:12:40 1510791160.347039: $GPZDA,001239.00,16,11,2017,00,00*6C
2017-11-15 19:12:40 1510791160.347221: $GPGGA,001239,3946.9648,N,08404.9470,W,1,09,0.80,305.88,M,-33.324,M,,*7F
2017-11-15 19:12:40 1510791160.347284: $GPRMC,001239,A,3946.9648,N,08404.9470,W,1.0018,50.691,161117,,*0D
2017-11-15 19:12:40 1510791160.347340: $GPGSA,A,3,32,14,26,31,16,3,22,29,25,,,,3.4,0.8,2.9*0C
2017-11-15 19:12:41 1510791161.348497: $GPZDA,001240.00,16,11,2017,00,00*62
2017-11-15 19:12:41 1510791161.348670: $GPGGA,001240,3946.9652,N,08404.9470,W,1,09,0.80,306.52,M,-33.324,M,,*7E
2017-11-15 19:12:41 1510791161.348730: $GPRMC,001240,A,3946.9652,N,08404.9470,W,0.9019,18.875,161117,,*09
2017-11-15 19:12:41 1510791161.348786: $GPGSA,A,3,32,14,26,31,16,3,22,29,25,,,,3.4,0.8,2.9*0C
2017-11-15 19:12:42 1510791162.681924: $GPGSV,3,1,11,32,43,099,22,14,61,079,16,01,10,259,08,26,43,175,20*72
2017-11-15 19:12:42 1510791162.682109: $GPGSV,3,2,11,31,74,006,22,16,14,190,16,03,34,307,18,22,49,283,07*78
2017-11-15 19:12:42 1510791162.682240: $GPGSV,3,3,11,29,07,079,09,25,24,043,06,10,05,159,00*4B
2017-11-15 19:12:42 1510791162.795213: $GPZDA,001241.00,16,11,2017,00,00*63
2017-11-15 19:12:42 1510791162.795373: $GPGGA,001241,3946.9652,N,08404.9470,W,1,10,0.80,306.52,M,-33.324,M,,*77
2017-11-15 19:12:42 1510791162.795450: $GPRMC,001241,A,3946.9652,N,08404.9470,W,0.5857,338.291,161117,,*37
2017-11-15 19:12:42 1510791162.795507: $GPGSA,A,3,32,14,1,26,31,16,3,22,29,25,,,3.4,0.8,2.9*3D
2017-11-15 19:12:43 1510791163.347402: $GPZDA,001242.00,16,11,2017,00,00*60
2017-11-15 19:12:43 1510791163.347574: $GPGGA,001242,3946.9652,N,08404.9470,W,1,10,1.00,306.52,M,-33.324,M,,*7D
2017-11-15 19:12:43 1510791163.347635: $GPRMC,001242,A,3946.9652,N,08404.9470,W,0.2422,273.794,161117,,*33
2017-11-15 19:12:43 1510791163.347690: $GPGSA,A,3,32,14,1,26,31,16,3,22,29,25,,,3.4,1.0,2.9*34
2017-11-15 19:12:44 1510791164.348371: $GPZDA,001243.00,16,11,2017,00,00*61
2017-11-15 19:12:44 1510791164.356223: $GPGGA,001243,3946.9653,N,08404.9477,W,1,10,1.00,306.44,M,-33.324,M,,*7D
2017-11-15 19:12:44 1510791164.356320: $GPRMC,001243,A,3946.9653,N,08404.9477,W,0.4844,273.794,161117,,*3E
2017-11-15 19:12:44 1510791164.356378: $GPGSA,A,3,32,14,1,26,31,16,3,22,29,25,,,3.4,1.0,2.9*34
