2017-11-16 17:28:22 1510871302.733345: {"class":"VERSION","release":"3.17","rev":"3.17","proto_major":3,"proto_minor":12}
2017-11-16 17:28:22 1510871302.733784: {"class":"DEVICES","devices":[{"class":"DEVICE","path":"/dev/ttyUSB0","driver":"SiRF","subtype":"9\u0006GSD4e_4.1.2-P1_RPATCH.05-F-GPS-4R-1510281 11/03/2015 307","activated":"2017-11-16T22:28:22.542Z","flags":1,"native":1,"bps":4800,"parity":"N","stopbits":1,"cycle":1.00}]}
2017-11-16 17:28:22 1510871302.733897: {"class":"WATCH","enable":true,"json":false,"nmea":true,"raw":0,"scaled":false,"timing":false,"split24":false,"pps":false}
2017-11-16 17:28:23 1510871303.422266: $GPZDA,222822.00,16,11,2017,00,00*6F
2017-11-16 17:28:23 1510871303.422436: $GPGGA,222822,3946.9573,N,08404.9830,W,2,11,0.80,306.99,M,-33.324,M,,*76
2017-11-16 17:28:23 1510871303.422499: $GPRMC,222822,A,3946.9573,N,08404.9830,W,0.0000,0.000,161117,,*3E
2017-11-16 17:28:23 1510871303.422562: $GPGSA,A,3,1,10,22,12,14,18,11,25,31,32,138,,1.6,0.8,1.3*3E
2017-11-16 17:28:24 1510871304.738399: $GPGSV,3,1,11,01,21,303,40,10,50,147,50,22,17,312,41,12,23,051,51*7F
2017-11-16 17:28:24 1510871304.738568: $GPGSV,3,2,11,14,65,324,48,18,20,144,37,11,09,283,41,25,39,093,49*76
2017-11-16 17:28:24 1510871304.738629: $GPGSV,3,3,11,31,53,223,49,32,69,022,50,138,38,213,45*78
2017-11-16 17:28:24 1510871304.851738: $GPZDA,222823.00,16,11,2017,00,00*6E
2017-11-16 17:28:24 1510871304.851901: $GPGGA,222823,3946.9573,N,08404.9830,W,2,11,0.80,306.99,M,-33.324,M,,*77
2017-11-16 17:28:24 1510871304.851964: $GPRMC,222823,A,3946.9573,N,08404.9830,W,0.0000,0.000,161117,,*3F
2017-11-16 17:28:24 1510871304.852023: $GPGSA,A,3,1,10,22,12,14,18,11,25,31,32,138,,1.6,0.8,1.3*3E
2017-11-16 17:28:25 1510871305.421287: $GPZDA,222824.00,16,11,2017,00,00*69
2017-11-16 17:28:25 1510871305.421484: $GPGGA,222824,3946.9573,N,08404.9830,W,2,11,0.80,306.99,M,-33.324,M,,*70
2017-11-16 17:28:25 1510871305.421547: $GPRMC,222824,A,3946.9573,N,08404.9830,W,0.0000,0.000,161117,,*38
2017-11-16 17:28:25 1510871305.421603: $GPGSA,A,3,1,10,22,12,14,18,11,25,31,32,138,,1.6,0.8,1.3*3E
2017-11-16 17:28:26 1510871306.420421: $GPZDA,222825.00,16,11,2017,00,00*68
2017-11-16 17:28:26 1510871306.420600: $GPGGA,222825,3946.9573,N,08404.9830,W,2,11,0.80,306.99,M,-33.324,M,,*71
2017-11-16 17:28:26 1510871306.420664: $GPRMC,222825,A,3946.9573,N,08404.9830,W,0.0000,0.000,161117,,*39
2017-11-16 17:28:26 1510871306.420720: $GPGSA,A,3,1,10,22,12,14,18,11,25,31,32,138,,1.6,0.8,1.3*3E
2017-11-16 17:28:27 1510871307.758683: $GPGSV,3,1,11,01,21,303,40,10,50,147,50,22,17,312,41,12,23,051,51*7F
2017-11-16 17:28:27 1510871307.758868: $GPGSV,3,2,11,14,65,324,48,18,20,144,36,11,09,283,41,25,39,093,49*77
2017-11-16 17:28:27 1510871307.758931: $GPGSV,3,3,11,31,53,223,49,32,69,022,50,138,38,213,45*78
2017-11-16 17:28:27 1510871307.872033: $GPZDA,222826.00,16,11,2017,00,00*6B
2017-11-16 17:28:27 1510871307.872221: $GPGGA,222826,3946.9576,N,08404.9829,W,2,11,0.80,306.23,M,-33.324,M,,*7E
2017-11-16 17:28:27 1510871307.872306: $GPRMC,222826,A,3946.9576,N,08404.9829,W,0.0000,0.000,161117,,*37
2017-11-16 17:28:27 1510871307.872366: $GPGSA,A,3,1,10,22,12,14,18,11,25,31,32,138,,1.6,0.8,1.3*3E
2017-11-16 17:28:28 1510871308.415541: $GPZDA,222827.00,16,11,2017,00,00*6A
2017-11-16 17:28:28 1510871308.415710: $GPGGA,222827,3946.9576,N,08404.9829,W,2,11,0.80,306.23,M,-33.324,M,,*7F
2017-11-16 17:28:28 1510871308.415790: $GPRMC,222827,A,3946.9576,N,08404.9829,W,0.0000,0.000,161117,,*36
2017-11-16 17:28:28 1510871308.415848: $GPGSA,A,3,1,10,22,12,14,18,11,25,31,32,138,,1.6,0.8,1.3*3E
2017-11-16 17:28:29 1510871309.401357: $GPZDA,222828.00,16,11,2017,00,00*65
2017-11-16 17:28:29 1510871309.401524: $GPGGA,222828,3946.9577,N,08404.9836,W,2,11,0.80,306.15,M,-33.324,M,,*7A
2017-11-16 17:28:29 1510871309.401585: $GPRMC,222828,A,3946.9577,N,08404.9836,W,0.0000,0.000,161117,,*36
2017-11-16 17:28:29 1510871309.401643: $GPGSA,A,3,1,10,22,12,14,18,11,25,31,32,138,,1.6,0.8,1.3*3E
2017-11-16 17:28:30 1510871310.739571: $GPGSV,3,1,11,01,21,303,39,10,50,147,50,22,17,312,41,12,23,051,51*71
2017-11-16 17:28:30 1510871310.739805: $GPGSV,3,2,11,14,65,324,48,18,20,144,36,11,09,283,40,25,39,093,49*76
2017-11-16 17:28:30 1510871310.739869: $GPGSV,3,3,11,31,53,223,49,32,69,022,50,138,38,213,44*79
2017-11-16 17:28:30 1510871310.852891: $GPZDA,222829.00,16,11,2017,00,00*64
2017-11-16 17:28:30 1510871310.853061: $GPGGA,222829,3946.9577,N,08404.9836,W,2,11,0.80,306.15,M,-33.324,M,,*7B
2017-11-16 17:28:30 1510871310.853123: $GPRMC,222829,A,3946.9577,N,08404.9836,W,0.0000,0.000,161117,,*37
2017-11-16 17:28:30 1510871310.853178: $GPGSA,A,3,1,10,22,12,14,18,11,25,31,32,138,,1.6,0.8,1.3*3E
2017-11-16 17:28:31 1510871311.478268: $GPZDA,222830.00,16,11,2017,00,00*6C
2017-11-16 17:28:31 1510871311.478432: $GPGGA,222830,3946.9573,N,08404.9836,W,2,11,0.80,305.51,M,-33.324,M,,*74
2017-11-16 17:28:31 1510871311.478494: $GPRMC,222830,A,3946.9573,N,08404.9836,W,0.0000,0.000,161117,,*3B
2017-11-16 17:28:31 1510871311.478550: $GPGSA,A,3,1,10,22,12,14,18,11,25,31,32,138,,1.6,0.8,1.3*3E
2017-11-16 17:28:32 1510871312.420377: $GPZDA,222831.00,16,11,2017,00,00*6D
2017-11-16 17:28:32 1510871312.420549: $GPGGA,222831,3946.9573,N,08404.9836,W,2,11,0.80,305.51,M,-33.324,M,,*75
2017-11-16 17:28:32 1510871312.420615: $GPRMC,222831,A,3946.9573,N,08404.9836,W,0.0000,0.000,161117,,*3A
2017-11-16 17:28:32 1510871312.420670: $GPGSA,A,3,1,10,22,12,14,18,11,25,31,32,138,,1.6,0.8,1.3*3E
