2017-12-31 18:41:13 1514763673.499610: {"class":"VERSION","release":"3.16","rev":"3.16-4","proto_major":3,"proto_minor":11}
2017-12-31 18:41:13 1514763673.499954: {"class":"DEVICES","devices":[{"class":"DEVICE","path":"/dev/ttyUSB0","driver":"SiRF","activated":"2017-12-31T23:41:13.428Z","flags":1,"native":1,"bps":4800,"parity":"N","stopbits":1,"cycle":1.00}]}
2017-12-31 18:41:13 1514763673.500052: {"class":"WATCH","enable":true,"json":false,"nmea":true,"raw":0,"scaled":false,"timing":false,"split24":false,"pps":false}
2017-12-31 18:41:14 1514763674.353278: $GPZDA,234115.00,31,12,2017,00,00*63
2017-12-31 18:41:14 1514763674.353491: $GPGGA,234115,3946.9581,N,08404.9843,W,2,11,0.80,306.71,M,-33.324,M,,*73
2017-12-31 18:41:14 1514763674.353588: $GPRMC,234115,A,3946.9581,N,08404.9843,W,0.0000,0.000,311217,,*3B
2017-12-31 18:41:14 1514763674.353652: $GPGSA,A,3,22,23,9,3,16,8,31,27,7,26,135,,1.7,0.8,1.3*09
2017-12-31 18:41:15 1514763675.688499: $GPGSV,3,1,12,22,11,205,21,23,66,289,41,09,33,310,42,03,21,223,39*7F
2017-12-31 18:41:15 1514763675.688676: $GPGSV,3,2,12,16,81,039,42,08,13,177,29,14,02,139,21,31,19,085,38*7A
2017-12-31 18:41:15 1514763675.688743: $GPGSV,3,3,12,27,36,145,41,07,08,282,41,26,48,046,46,135,22,240,44*44
2017-12-31 18:41:15 1514763675.802094: $GPZDA,234116.00,31,12,2017,00,00*60
2017-12-31 18:41:15 1514763675.802227: $GPGGA,234116,3946.9581,N,08404.9843,W,2,12,0.80,306.71,M,-33.324,M,,*73
2017-12-31 18:41:15 1514763675.802293: $GPRMC,234116,A,3946.9581,N,08404.9843,W,0.0000,0.000,311217,,*38
2017-12-31 18:41:15 1514763675.802354: $GPGSA,A,3,22,23,9,3,16,8,14,31,27,7,26,135,1.7,0.8,1.3*0C
2017-12-31 18:41:16 1514763676.353001: $GPZDA,234117.00,31,12,2017,00,00*61
2017-12-31 18:41:16 1514763676.353164: $GPGGA,234117,3946.9581,N,08404.9843,W,2,12,0.80,306.71,M,-33.324,M,,*72
2017-12-31 18:41:16 1514763676.353229: $GPRMC,234117,A,3946.9581,N,08404.9843,W,0.0000,0.000,311217,,*39
2017-12-31 18:41:16 1514763676.353290: $GPGSA,A,3,22,23,9,3,16,8,14,31,27,7,26,135,1.7,0.8,1.3*0C
2017-12-31 18:41:17 1514763677.352628: $GPZDA,234118.00,31,12,2017,00,00*6E
2017-12-31 18:41:17 1514763677.352795: $GPGGA,234118,3946.9581,N,08404.9836,W,2,12,0.80,306.79,M,-33.324,M,,*77
2017-12-31 18:41:17 1514763677.352861: $GPRMC,234118,A,3946.9581,N,08404.9836,W,0.0000,0.000,311217,,*34
2017-12-31 18:41:17 1514763677.352922: $GPGSA,A,3,22,23,9,3,16,8,14,31,27,7,26,135,1.7,0.8,1.3*0C
2017-12-31 18:41:18 1514763678.681842: $GPGSV,3,1,12,22,11,205,12,23,66,289,42,09,33,310,41,03,21,223,38*7E
2017-12-31 18:41:18 1514763678.682053: $GPGSV,3,2,12,16,81,039,42,08,13,177,28,14,02,139,22,31,19,085,38*78
2017-12-31 18:41:18 1514763678.682143: $GPGSV,3,3,12,27,36,145,41,07,08,282,41,26,48,046,47,135,22,240,42*43
2017-12-31 18:41:18 1514763678.795507: $GPZDA,234119.00,31,12,2017,00,00*6F
2017-12-31 18:41:18 1514763678.795681: $GPGGA,234119,3946.9581,N,08404.9836,W,2,12,0.80,306.79,M,-33.324,M,,*76
2017-12-31 18:41:18 1514763678.795747: $GPRMC,234119,A,3946.9581,N,08404.9836,W,0.0000,0.000,311217,,*35
2017-12-31 18:41:18 1514763678.795808: $GPGSA,A,3,22,23,9,3,16,8,14,31,27,7,26,135,1.7,0.8,1.3*0C
2017-12-31 18:41:19 1514763679.355122: $GPZDA,234120.00,31,12,2017,00,00*65
2017-12-31 18:41:19 1514763679.355280: $GPGGA,234120,3946.9581,N,08404.9836,W,2,12,0.80,306.79,M,-33.324,M,,*7C
2017-12-31 18:41:19 1514763679.355347: $GPRMC,234120,A,3946.9581,N,08404.9836,W,0.0000,0.000,311217,,*3F
2017-12-31 18:41:19 1514763679.355428: $GPGSA,A,3,22,23,9,3,16,8,14,31,27,7,26,135,1.7,0.8,1.3*0C
2017-12-31 18:41:20 1514763680.352989: $GPZDA,234121.00,31,12,2017,00,00*64
2017-12-31 18:41:20 1514763680.353151: $GPGGA,234121,3946.9581,N,08404.9836,W,2,12,0.80,306.79,M,-33.324,M,,*7D
2017-12-31 18:41:20 1514763680.353217: $GPRMC,234121,A,3946.9581,N,08404.9836,W,0.0000,0.000,311217,,*3E
2017-12-31 18:41:20 1514763680.353278: $GPGSA,A,3,22,23,9,3,16,8,14,31,27,7,26,135,1.7,0.8,1.3*0C
2017-12-31 18:41:21 1514763681.688454: $GPGSV,3,1,12,22,11,205,15,23,66,289,41,09,33,310,41,03,21,223,38*7A
2017-12-31 18:41:21 1514763681.688650: $GPGSV,3,2,12,16,81,039,42,08,13,177,28,14,02,139,21,31,19,085,38*7B
2017-12-31 18:41:21 1514763681.688773: $GPGSV,3,3,12,27,36,145,41,07,08,282,41,26,48,046,46,135,22,240,44*44
2017-12-31 18:41:21 1514763681.802176: $GPZDA,234122.00,31,12,2017,00,00*67
2017-12-31 18:41:21 1514763681.802300: $GPGGA,234122,3946.9581,N,08404.9836,W,2,12,0.80,306.79,M,-33.324,M,,*7E
2017-12-31 18:41:21 1514763681.802387: $GPRMC,234122,A,3946.9581,N,08404.9836,W,0.0000,0.000,311217,,*3D
2017-12-31 18:41:21 1514763681.802449: $GPGSA,A,3,22,23,9,3,16,8,14,31,27,7,26,135,1.7,0.8,1.3*0C
2017-12-31 18:41:22 1514763682.389193: $GPZDA,234123.00,31,12,2017,00,00*66
2017-12-31 18:41:22 1514763682.389345: $GPGGA,234123,3946.9581,N,08404.9836,W,2,12,0.80,306.79,M,-33.324,M,,*7F
2017-12-31 18:41:22 1514763682.389435: $GPRMC,234123,A,3946.9581,N,08404.9836,W,0.0000,0.000,311217,,*3C
2017-12-31 18:41:22 1514763682.389513: $GPGSA,A,3,22,23,9,3,16,8,14,31,27,7,26,135,1.7,0.8,1.3*0C
2017-12-31 18:41:23 1514763683.388820: $GPZDA,234124.00,31,12,2017,00,00*61
2017-12-31 18:41:23 1514763683.388990: $GPGGA,234124,3946.9581,N,08404.9836,W,2,12,0.80,306.79,M,-33.324,M,,*78
2017-12-31 18:41:23 1514763683.389056: $GPRMC,234124,A,3946.9581,N,08404.9836,W,0.0000,0.000,311217,,*3B
2017-12-31 18:41:23 1514763683.389117: $GPGSA,A,3,22,23,9,3,16,8,14,31,27,7,26,135,1.7,0.8,1.3*0C
