2018-01-11 20:59:56 1515722396.706632: {"class":"VERSION","release":"3.16","rev":"3.16-4","proto_major":3,"proto_minor":11}
2018-01-11 20:59:56 1515722396.706955: {"class":"DEVICES","devices":[{"class":"DEVICE","path":"/dev/ttyUSB0","driver":"SiRF","subtype":"9\u0006GSD4e_4.1.2-P1_RPATCH.05-F-GPS-4R-1510281 11/03/2015 307","activated":"2018-01-12T01:59:56.471Z","flags":1,"native":1,"bps":4800,"parity":"N","stopbits":1,"cycle":1.00}]}
2018-01-11 20:59:56 1515722396.707064: {"class":"WATCH","enable":true,"json":false,"nmea":true,"raw":0,"scaled":false,"timing":false,"split24":false,"pps":false}
2018-01-11 20:59:57 1515722397.670616: $GPGSV,3,1,12,01,16,153,43,07,78,310,44,08,66,057,48,09,29,211,42*74
2018-01-11 20:59:57 1515722397.670782: $GPGSV,3,2,12,11,40,157,46,27,27,045,50,30,49,310,40,16,07,075,20*72
2018-01-11 20:59:57 1515722397.670849: $GPGSV,3,3,12,23,08,183,27,28,29,276,35,13,01,330,02,138,38,213,46*4A
2018-01-11 20:59:57 1515722397.783970: $GPZDA,015958.00,12,01,2018,00,00*6F
2018-01-11 20:59:57 1515722397.784118: $GPGGA,015958,3946.9588,N,08404.9870,W,1,11,0.80,294.19,M,-33.324,M,,*7D
2018-01-11 20:59:57 1515722397.784183: $GPRMC,015958,A,3946.9588,N,08404.9870,W,0.0000,0.000,120118,,*3E
2018-01-11 20:59:57 1515722397.784244: $GPGSA,A,3,1,7,8,9,11,27,30,16,23,28,138,,4.0,0.8,3.5*0F
2018-01-11 20:59:58 1515722398.409407: $GPZDA,015959.00,12,01,2018,00,00*6E
2018-01-11 20:59:58 1515722398.409568: $GPGGA,015959,3946.9595,N,08404.9875,W,2,11,1.60,291.18,M,-33.324,M,,*7D
2018-01-11 20:59:58 1515722398.409633: $GPRMC,015959,A,3946.9595,N,08404.9875,W,0.0000,0.000,120118,,*36
2018-01-11 20:59:58 1515722398.409694: $GPGSA,A,3,1,7,8,9,11,27,30,16,23,28,138,,4.0,1.6,3.5*00
2018-01-11 20:59:59 1515722399.332711: $GPZDA,020000.00,12,01,2018,00,00*6D
2018-01-11 20:59:59 1515722399.332887: $GPGGA,020000,3946.9595,N,08404.9875,W,2,11,0.80,291.18,M,-33.324,M,,*71
2018-01-11 20:59:59 1515722399.332955: $GPRMC,020000,A,3946.9595,N,08404.9875,W,0.0000,0.000,120118,,*35
2018-01-11 20:59:59 1515722399.333015: $GPGSA,A,3,1,7,8,9,11,27,30,16,23,28,138,,4.0,0.8,3.5*0F
2018-01-11 21:00:00 1515722400.670966: $GPGSV,3,1,12,01,16,153,43,07,78,310,44,08,66,057,49,09,29,211,42*75
2018-01-11 21:00:00 1515722400.675290: $GPGSV,3,2,12,11,40,157,46,27,27,045,50,30,49,310,40,16,07,075,20*72
2018-01-11 21:00:00 1515722400.675387: $GPGSV,3,3,12,23,08,183,28,28,29,276,34,13,01,330,17,138,38,213,45*43
2018-01-11 21:00:00 1515722400.784414: $GPZDA,020001.00,12,01,2018,00,00*6C
2018-01-11 21:00:00 1515722400.784588: $GPGGA,020001,3946.9595,N,08404.9875,W,2,12,0.80,291.18,M,-33.324,M,,*73
2018-01-11 21:00:00 1515722400.784656: $GPRMC,020001,A,3946.9595,N,08404.9875,W,0.0000,0.000,120118,,*34
2018-01-11 21:00:00 1515722400.784716: $GPGSA,A,3,1,7,8,9,11,27,30,16,23,28,13,138,4.0,0.8,3.5*0D
2018-01-11 21:00:01 1515722401.336573: $GPZDA,020002.00,12,01,2018,00,00*6F
2018-01-11 21:00:01 1515722401.336732: $GPGGA,020002,3946.9592,N,08404.9876,W,2,12,0.80,291.94,M,-33.324,M,,*70
2018-01-11 21:00:01 1515722401.336797: $GPRMC,020002,A,3946.9592,N,08404.9876,W,0.0000,0.000,120118,,*33
2018-01-11 21:00:01 1515722401.336859: $GPGSA,A,3,1,7,8,9,11,27,30,16,23,28,13,138,4.0,0.8,3.5*0D
2018-01-11 21:00:02 1515722402.329884: $GPZDA,020003.00,12,01,2018,00,00*6E
2018-01-11 21:00:02 1515722402.330049: $GPGGA,020003,3946.9592,N,08404.9876,W,2,12,0.80,291.94,M,-33.324,M,,*71
2018-01-11 21:00:02 1515722402.330116: $GPRMC,020003,A,3946.9592,N,08404.9876,W,0.0000,0.000,120118,,*32
2018-01-11 21:00:02 1515722402.330177: $GPGSA,A,3,1,7,8,9,11,27,30,16,23,28,13,138,4.0,0.8,3.5*0D
2018-01-11 21:00:02 1515722402.330234: $GPGBS,020003,3.65,M,6.21,M,20.10,M*09
2018-01-11 21:00:03 1515722403.669956: $GPGSV,3,1,12,01,16,153,43,07,78,310,45,08,66,057,49,09,29,211,43*75
2018-01-11 21:00:03 1515722403.670115: $GPGSV,3,2,12,11,40,157,46,27,27,045,50,30,49,310,40,16,07,075,19*78
2018-01-11 21:00:03 1515722403.670181: $GPGSV,3,3,12,23,08,183,29,28,29,276,35,13,01,330,18,138,38,213,46*4F
