2017-11-16 16:44:07 1510868647.610338: {"class":"VERSION","release":"3.17","rev":"3.17","proto_major":3,"proto_minor":12}
2017-11-16 16:44:07 1510868647.610815: {"class":"DEVICES","devices":[{"class":"DEVICE","path":"/dev/ttyUSB0","driver":"SiRF","subtype":"9\u0006GSD4e_4.1.2-P1_RPATCH.05-F-GPS-4R-1510281 11/03/2015 307","activated":"2017-11-16T21:44:07.599Z","flags":1,"native":1,"bps":4800,"parity":"N","stopbits":1,"cycle":1.00}]}
2017-11-16 16:44:07 1510868647.610935: {"class":"WATCH","enable":true,"json":false,"nmea":true,"raw":0,"scaled":false,"timing":false,"split24":false,"pps":false}
2017-11-16 16:44:08 1510868648.777072: $GPGSV,3,1,12,01,13,319,38,10,71,129,48,11,11,303,39,12,25,073,48*7C
2017-11-16 16:44:08 1510868648.777215: $GPGSV,3,2,12,14,54,289,44,18,39,135,46,24,15,045,48,25,29,115,43*7B
2017-11-16 16:44:08 1510868648.777275: $GPGSV,3,3,12,31,33,211,45,32,67,324,51,22,01,310,32,138,38,213,44*49
2017-11-16 16:44:08 1510868648.890350: $GPZDA,214407.00,16,11,2017,00,00*61
2017-11-16 16:44:08 1510868648.890514: $GPGGA,214407,3946.9580,N,08404.9815,W,2,12,0.80,307.02,M,-33.324,M,,*73
2017-11-16 16:44:08 1510868648.890575: $GPRMC,214407,A,3946.9580,N,08404.9815,W,0.0000,0.000,161117,,*3B
2017-11-16 16:44:08 1510868648.890631: $GPGSA,A,3,1,10,11,12,14,18,24,25,31,32,22,138,1.6,0.8,1.3*38
2017-11-16 16:44:09 1510868649.456287: $GPZDA,214408.00,16,11,2017,00,00*6E
2017-11-16 16:44:09 1510868649.456447: $GPGGA,214408,3946.9580,N,08404.9815,W,2,12,0.80,307.02,M,-33.324,M,,*7C
2017-11-16 16:44:09 1510868649.456509: $GPRMC,214408,A,3946.9580,N,08404.9815,W,0.0000,0.000,161117,,*34
2017-11-16 16:44:09 1510868649.456566: $GPGSA,A,3,1,10,11,12,14,18,24,25,31,32,22,138,1.6,0.8,1.3*38
2017-11-16 16:44:10 1510868650.457151: $GPZDA,214409.00,16,11,2017,00,00*6F
2017-11-16 16:44:10 1510868650.457322: $GPGGA,214409,3946.9580,N,08404.9815,W,2,12,0.80,307.02,M,-33.324,M,,*7D
2017-11-16 16:44:10 1510868650.457384: $GPRMC,214409,A,3946.9580,N,08404.9815,W,0.0000,0.000,161117,,*35
2017-11-16 16:44:10 1510868650.457439: $GPGSA,A,3,1,10,11,12,14,18,24,25,31,32,22,138,1.6,0.8,1.3*38
2017-11-16 16:44:11 1510868651.793725: $GPGSV,3,1,12,01,13,319,38,10,71,129,48,11,11,303,39,12,25,073,48*7C
2017-11-16 16:44:11 1510868651.793887: $GPGSV,3,2,12,14,54,289,44,18,39,135,46,24,15,045,48,25,29,115,43*7B
2017-11-16 16:44:11 1510868651.793948: $GPGSV,3,3,12,31,33,211,45,32,67,324,51,22,01,310,31,138,38,213,44*4A
2017-11-16 16:44:11 1510868651.907043: $GPZDA,214410.00,16,11,2017,00,00*67
2017-11-16 16:44:11 1510868651.907201: $GPGGA,214410,3946.9580,N,08404.9815,W,2,12,0.80,307.02,M,-33.324,M,,*75
2017-11-16 16:44:11 1510868651.907261: $GPRMC,214410,A,3946.9580,N,08404.9815,W,0.0000,0.000,161117,,*3D
2017-11-16 16:44:11 1510868651.907316: $GPGSA,A,3,1,10,11,12,14,18,24,25,31,32,22,138,1.6,0.8,1.3*38
2017-11-16 16:44:12 1510868652.459161: $GPZDA,214411.00,16,11,2017,00,00*66
2017-11-16 16:44:12 1510868652.459319: $GPGGA,214411,3946.9580,N,08404.9815,W,2,12,0.80,307.02,M,-33.324,M,,*74
2017-11-16 16:44:12 1510868652.459380: $GPRMC,214411,A,3946.9580,N,08404.9815,W,0.0000,0.000,161117,,*3C
2017-11-16 16:44:12 1510868652.459435: $GPGSA,A,3,1,10,11,12,14,18,24,25,31,32,22,138,1.6,0.8,1.3*38
2017-11-16 16:44:13 1510868653.440259: $GPZDA,214412.00,16,11,2017,00,00*65
2017-11-16 16:44:13 1510868653.440430: $GPGGA,214412,3946.9580,N,08404.9815,W,2,12,0.80,307.02,M,-33.324,M,,*77
2017-11-16 16:44:13 1510868653.440506: $GPRMC,214412,A,3946.9580,N,08404.9815,W,0.0000,0.000,161117,,*3F
2017-11-16 16:44:13 1510868653.440589: $GPGSA,A,3,1,10,11,12,14,18,24,25,31,32,22,138,1.6,0.8,1.3*38
2017-11-16 16:44:14 1510868654.787147: $GPGSV,3,1,12,01,13,319,38,10,71,129,48,11,11,303,38,12,25,073,48*7D
2017-11-16 16:44:14 1510868654.787317: $GPGSV,3,2,12,14,54,289,44,18,39,135,46,24,15,045,48,25,29,115,43*7B
2017-11-16 16:44:14 1510868654.787378: $GPGSV,3,3,12,31,33,211,45,32,67,324,51,22,01,310,31,138,38,213,44*4A
2017-11-16 16:44:14 1510868654.900473: $GPZDA,214413.00,16,11,2017,00,00*64
2017-11-16 16:44:14 1510868654.900653: $GPGGA,214413,3946.9580,N,08404.9815,W,2,12,0.80,307.02,M,-33.324,M,,*76
2017-11-16 16:44:14 1510868654.900783: $GPRMC,214413,A,3946.9580,N,08404.9815,W,0.0000,0.000,161117,,*3E
2017-11-16 16:44:14 1510868654.900842: $GPGSA,A,3,1,10,11,12,14,18,24,25,31,32,22,138,1.6,0.8,1.3*38
2017-11-16 16:44:15 1510868655.443103: $GPZDA,214414.00,16,11,2017,00,00*63
2017-11-16 16:44:15 1510868655.443251: $GPGGA,214414,3946.9580,N,08404.9815,W,2,12,0.80,307.02,M,-33.324,M,,*71
2017-11-16 16:44:15 1510868655.443312: $GPRMC,214414,A,3946.9580,N,08404.9815,W,0.0000,0.000,161117,,*39
2017-11-16 16:44:15 1510868655.443368: $GPGSA,A,3,1,10,11,12,14,18,24,25,31,32,22,138,1.6,0.8,1.3*38
2017-11-16 16:44:16 1510868656.442110: $GPZDA,214415.00,16,11,2017,00,00*62
2017-11-16 16:44:16 1510868656.442269: $GPGGA,214415,3946.9580,N,08404.9815,W,2,12,0.80,307.02,M,-33.324,M,,*70
2017-11-16 16:44:16 1510868656.442330: $GPRMC,214415,A,3946.9580,N,08404.9815,W,0.0000,0.000,161117,,*38
2017-11-16 16:44:16 1510868656.442385: $GPGSA,A,3,1,10,11,12,14,18,24,25,31,32,22,138,1.6,0.8,1.3*38
