2018-01-12 02:37:19 1515742639.380212: {"class":"VERSION","release":"3.16","rev":"3.16-4","proto_major":3,"proto_minor":11}
2018-01-12 02:37:19 1515742639.380597: {"class":"DEVICES","devices":[{"class":"DEVICE","path":"/dev/ttyUSB0","driver":"SiRF","subtype":"9\u0006GSD4e_4.1.2-P1_RPATCH.05-F-GPS-4R-1510281 11/03/2015 307","activated":"2018-01-12T07:37:19.283Z","flags":1,"native":1,"bps":4800,"parity":"N","stopbits":1,"cycle":1.00}]}
2018-01-12 02:37:19 1515742639.380720: {"class":"WATCH","enable":true,"json":false,"nmea":true,"raw":0,"scaled":false,"timing":false,"split24":false,"pps":false}
2018-01-12 02:37:19 1515742639.732978: $GPGSV,3,1,12,02,47,250,45,03,14,039,39,06,79,303,51,12,32,313,50*73
2018-01-12 02:37:19 1515742639.733133: $GPGSV,3,2,12,17,49,078,44,19,65,049,44,24,16,267,29,28,14,150,35*7D
2018-01-12 02:37:19 1515742639.733199: $GPGSV,3,3,12,23,02,076,16,05,02,195,23,04,18,241,00,138,38,213,39*45
2018-01-12 02:37:19 1515742639.846364: $GPZDA,073720.00,12,01,2018,00,00*6E
2018-01-12 02:37:19 1515742639.846560: $GPGGA,073720,3946.9631,N,08404.9834,W,2,10,0.80,298.81,M,-33.324,M,,*72
2018-01-12 02:37:19 1515742639.846732: $GPRMC,073720,A,3946.9631,N,08404.9834,W,0.0000,0.000,120118,,*3E
2018-01-12 02:37:19 1515742639.846796: $GPGSA,A,3,2,3,6,12,17,19,24,28,5,138,,,2.4,0.8,2.1*06
2018-01-12 02:37:20 1515742640.397541: $GPZDA,073721.00,12,01,2018,00,00*6F
2018-01-12 02:37:20 1515742640.397710: $GPGGA,073721,3946.9631,N,08404.9834,W,2,10,0.80,298.81,M,-33.324,M,,*73
2018-01-12 02:37:20 1515742640.397778: $GPRMC,073721,A,3946.9631,N,08404.9834,W,0.0000,0.000,120118,,*3F
2018-01-12 02:37:20 1515742640.397838: $GPGSA,A,3,2,3,6,12,17,19,24,28,5,138,,,2.4,0.8,2.1*06
2018-01-12 02:37:21 1515742641.400660: $GPZDA,073722.00,12,01,2018,00,00*6C
2018-01-12 02:37:21 1515742641.400838: $GPGGA,073722,3946.9631,N,08404.9834,W,2,10,0.80,298.81,M,-33.324,M,,*70
2018-01-12 02:37:21 1515742641.400905: $GPRMC,073722,A,3946.9631,N,08404.9834,W,0.0000,0.000,120118,,*3C
2018-01-12 02:37:21 1515742641.400967: $GPGSA,A,3,2,3,6,12,17,19,24,28,5,138,,,2.4,0.8,2.1*06
2018-01-12 02:37:22 1515742642.733352: $GPGSV,3,1,12,02,47,250,44,03,14,039,40,06,79,303,51,12,32,313,50*7C
2018-01-12 02:37:22 1515742642.733540: $GPGSV,3,2,12,17,49,078,43,19,65,049,44,24,16,267,29,28,14,150,35*7A
2018-01-12 02:37:22 1515742642.733607: $GPGSV,3,3,12,04,18,241,00,05,02,195,23,23,02,076,00,138,38,213,38*43
2018-01-12 02:37:22 1515742642.846737: $GPZDA,073723.00,12,01,2018,00,00*6D
2018-01-12 02:37:22 1515742642.846910: $GPGGA,073723,3946.9631,N,08404.9834,W,2,10,0.80,298.81,M,-33.324,M,,*71
2018-01-12 02:37:22 1515742642.846976: $GPRMC,073723,A,3946.9631,N,08404.9834,W,0.0000,0.000,120118,,*3D
2018-01-12 02:37:22 1515742642.847038: $GPGSA,A,3,2,3,6,12,17,19,24,28,5,138,,,2.4,0.8,2.1*06
2018-01-12 02:37:23 1515742643.397571: $GPZDA,073724.00,12,01,2018,00,00*6A
2018-01-12 02:37:23 1515742643.397757: $GPGGA,073724,3946.9631,N,08404.9834,W,2,10,0.80,298.81,M,-33.324,M,,*76
2018-01-12 02:37:23 1515742643.397844: $GPRMC,073724,A,3946.9631,N,08404.9834,W,0.0000,0.000,120118,,*3A
2018-01-12 02:37:23 1515742643.397909: $GPGSA,A,3,2,3,6,12,17,19,24,28,5,138,,,2.4,0.8,2.1*06
2018-01-12 02:37:24 1515742644.398434: $GPZDA,073725.00,12,01,2018,00,00*6B
2018-01-12 02:37:24 1515742644.398606: $GPGGA,073725,3946.9631,N,08404.9834,W,2,10,0.80,298.81,M,-33.324,M,,*77
2018-01-12 02:37:24 1515742644.398674: $GPRMC,073725,A,3946.9631,N,08404.9834,W,0.0000,0.000,120118,,*3B
2018-01-12 02:37:24 1515742644.398735: $GPGSA,A,3,2,3,6,12,17,19,24,28,5,138,,,2.4,0.8,2.1*06
2018-01-12 02:37:25 1515742645.730459: $GPGSV,3,1,12,02,47,250,44,03,14,039,40,06,79,303,51,12,32,313,50*7C
2018-01-12 02:37:25 1515742645.730611: $GPGSV,3,2,12,17,49,078,43,19,65,049,44,24,16,267,16,28,14,150,35*76
2018-01-12 02:37:25 1515742645.730678: $GPGSV,3,3,12,23,02,076,19,05,02,195,23,04,18,241,00,138,38,213,41*45
2018-01-12 02:37:25 1515742645.843862: $GPZDA,073726.00,12,01,2018,00,00*68
2018-01-12 02:37:25 1515742645.844036: $GPGGA,073726,3946.9631,N,08404.9834,W,2,11,0.80,298.81,M,-33.324,M,,*75
2018-01-12 02:37:25 1515742645.844156: $GPRMC,073726,A,3946.9631,N,08404.9834,W,0.0000,0.000,120118,,*38
2018-01-12 02:37:25 1515742645.844273: $GPGSA,A,3,2,3,6,12,17,19,24,28,23,5,138,,2.4,0.8,2.1*07
2018-01-12 02:37:26 1515742646.469584: $GPZDA,073727.00,12,01,2018,00,00*69
2018-01-12 02:37:26 1515742646.469758: $GPGGA,073727,3946.9631,N,08404.9834,W,2,11,0.80,298.81,M,-33.324,M,,*74
2018-01-12 02:37:26 1515742646.469825: $GPRMC,073727,A,3946.9631,N,08404.9834,W,0.0000,0.000,120118,,*39
2018-01-12 02:37:26 1515742646.469887: $GPGSA,A,3,2,3,6,12,17,19,24,28,23,5,138,,2.4,0.8,2.1*07
2018-01-12 02:37:27 1515742647.395152: $GPZDA,073728.00,12,01,2018,00,00*66
2018-01-12 02:37:27 1515742647.395327: $GPGGA,073728,3946.9631,N,08404.9834,W,2,11,0.80,298.81,M,-33.324,M,,*7B
2018-01-12 02:37:27 1515742647.395396: $GPRMC,073728,A,3946.9631,N,08404.9834,W,0.0000,0.000,120118,,*36
2018-01-12 02:37:27 1515742647.395457: $GPGSA,A,3,2,3,6,12,17,19,24,28,23,5,138,,2.4,0.8,2.1*07
2018-01-12 02:37:28 1515742648.730905: $GPGSV,3,1,12,02,47,250,44,03,14,039,41,06,79,303,51,12,32,313,50*7D
2018-01-12 02:37:28 1515742648.731086: $GPGSV,3,2,12,17,49,078,42,19,65,049,44,24,16,267,27,28,14,150,34*74
2018-01-12 02:37:28 1515742648.731154: $GPGSV,3,3,12,23,02,076,18,05,02,195,23,04,18,241,00,138,38,213,34*46
2018-01-12 02:37:28 1515742648.844622: $GPZDA,073729.00,12,01,2018,00,00*67
2018-01-12 02:37:28 1515742648.844929: $GPGGA,073729,3946.9631,N,08404.9834,W,2,11,0.80,298.81,M,-33.324,M,,*7A
2018-01-12 02:37:28 1515742648.845054: $GPRMC,073729,A,3946.9631,N,08404.9834,W,0.0000,0.000,120118,,*37
2018-01-12 02:37:28 1515742648.845204: $GPGSA,A,3,2,3,6,12,17,19,24,28,23,5,138,,2.4,0.8,2.1*07
2018-01-12 02:37:29 1515742649.401430: $GPZDA,073730.00,12,01,2018,00,00*6F
2018-01-12 02:37:29 1515742649.401602: $GPGGA,073730,3946.9631,N,08404.9834,W,2,11,0.80,298.81,M,-33.324,M,,*72
2018-01-12 02:37:29 1515742649.401668: $GPRMC,073730,A,3946.9631,N,08404.9834,W,0.0000,0.000,120118,,*3F
2018-01-12 02:37:29 1515742649.401729: $GPGSA,A,3,2,3,6,12,17,19,24,28,23,5,138,,2.4,0.8,2.1*07
2018-01-12 02:37:30 1515742650.404806: $GPZDA,073731.00,12,01,2018,00,00*6E
2018-01-12 02:37:30 1515742650.404991: $GPGGA,073731,3946.9631,N,08404.9834,W,2,11,0.80,298.81,M,-33.324,M,,*73
2018-01-12 02:37:30 1515742650.405058: $GPRMC,073731,A,3946.9631,N,08404.9834,W,0.0000,0.000,120118,,*3E
2018-01-12 02:37:30 1515742650.405121: $GPGSA,A,3,2,3,6,12,17,19,24,28,23,5,138,,2.4,0.8,2.1*07
2018-01-12 02:37:31 1515742651.738727: $GPGSV,3,1,12,02,47,250,44,03,14,039,41,06,79,303,51,12,32,313,50*7D
2018-01-12 02:37:31 1515742651.738885: $GPGSV,3,2,12,17,49,078,42,19,65,049,43,24,16,267,25,28,14,150,34*71
2018-01-12 02:37:31 1515742651.738950: $GPGSV,3,3,12,23,02,076,17,05,02,195,23,04,18,241,00,138,38,213,37*4A
2018-01-12 02:37:31 1515742651.852135: $GPZDA,073732.00,12,01,2018,00,00*6D
2018-01-12 02:37:31 1515742651.852311: $GPGGA,073732,3946.9631,N,08404.9834,W,2,11,0.80,298.81,M,-33.324,M,,*70
2018-01-12 02:37:31 1515742651.852381: $GPRMC,073732,A,3946.9631,N,08404.9834,W,0.0000,0.000,120118,,*3D
2018-01-12 02:37:31 1515742651.852443: $GPGSA,A,3,2,3,6,12,17,19,24,28,23,5,138,,2.4,0.8,2.1*07
2018-01-12 02:37:32 1515742652.406724: $GPZDA,073733.00,12,01,2018,00,00*6C
2018-01-12 02:37:32 1515742652.406899: $GPGGA,073733,3946.9631,N,08404.9834,W,2,11,0.80,298.81,M,-33.324,M,,*71
2018-01-12 02:37:32 1515742652.406967: $GPRMC,073733,A,3946.9631,N,08404.9834,W,0.0000,0.000,120118,,*3C
2018-01-12 02:37:32 1515742652.407029: $GPGSA,A,3,2,3,6,12,17,19,24,28,23,5,138,,2.4,0.8,2.1*07
2018-01-12 02:37:33 1515742653.400188: $GPZDA,073734.00,12,01,2018,00,00*6B
2018-01-12 02:37:33 1515742653.400374: $GPGGA,073734,3946.9631,N,08404.9834,W,2,11,0.80,298.81,M,-33.324,M,,*76
2018-01-12 02:37:33 1515742653.400440: $GPRMC,073734,A,3946.9631,N,08404.9834,W,0.0000,0.000,120118,,*3B
2018-01-12 02:37:33 1515742653.400502: $GPGSA,A,3,2,3,6,12,17,19,24,28,23,5,138,,2.4,0.8,2.1*07
2018-01-12 02:37:34 1515742654.735176: $GPGSV,3,1,12,02,47,250,44,03,14,039,42,06,79,303,51,12,32,313,49*76
2018-01-12 02:37:34 1515742654.735431: $GPGSV,3,2,12,17,49,078,41,19,65,049,43,24,16,267,25,28,14,150,34*72
2018-01-12 02:37:34 1515742654.735503: $GPGSV,3,3,12,23,02,076,16,05,02,195,22,04,18,241,00,138,38,213,39*44
2018-01-12 02:37:34 1515742654.848236: $GPZDA,073735.00,12,01,2018,00,00*6A
2018-01-12 02:37:34 1515742654.848413: $GPGGA,073735,3946.9631,N,08404.9834,W,2,11,0.80,298.81,M,-33.324,M,,*77
2018-01-12 02:37:34 1515742654.848480: $GPRMC,073735,A,3946.9631,N,08404.9834,W,0.0000,0.000,120118,,*3A
2018-01-12 02:37:34 1515742654.848541: $GPGSA,A,3,2,3,6,12,17,19,24,28,23,5,138,,2.4,0.8,2.1*07
2018-01-12 02:37:35 1515742655.402934: $GPZDA,073736.00,12,01,2018,00,00*69
2018-01-12 02:37:35 1515742655.403108: $GPGGA,073736,3946.9631,N,08404.9834,W,2,11,0.80,298.81,M,-33.324,M,,*74
2018-01-12 02:37:35 1515742655.403174: $GPRMC,073736,A,3946.9631,N,08404.9834,W,0.0000,0.000,120118,,*39
2018-01-12 02:37:35 1515742655.403238: $GPGSA,A,3,2,3,6,12,17,19,24,28,23,5,138,,2.4,0.8,2.1*07
2018-01-12 02:37:36 1515742656.400539: $GPZDA,073737.00,12,01,2018,00,00*68
2018-01-12 02:37:36 1515742656.400714: $GPGGA,073737,3946.9631,N,08404.9834,W,2,11,0.80,298.81,M,-33.324,M,,*75
2018-01-12 02:37:36 1515742656.400781: $GPRMC,073737,A,3946.9631,N,08404.9834,W,0.0000,0.000,120118,,*38
2018-01-12 02:37:36 1515742656.400844: $GPGSA,A,3,2,3,6,12,17,19,24,28,23,5,138,,2.4,0.8,2.1*07
2018-01-12 02:37:37 1515742657.776338: $GPGSV,3,1,12,02,47,250,44,03,14,039,42,06,79,303,51,12,32,313,49*76
2018-01-12 02:37:37 1515742657.776519: $GPGSV,3,2,12,17,49,078,41,19,65,049,43,24,16,267,26,28,14,150,33*76
2018-01-12 02:37:37 1515742657.776586: $GPGSV,3,3,12,23,02,076,15,05,02,195,22,04,18,241,00,138,38,213,38*46
2018-01-12 02:37:37 1515742657.889649: $GPZDA,073738.00,12,01,2018,00,00*67
2018-01-12 02:37:37 1515742657.889798: $GPGGA,073738,3946.9631,N,08404.9834,W,2,11,0.80,298.81,M,-33.324,M,,*7A
2018-01-12 02:37:37 1515742657.889865: $GPRMC,073738,A,3946.9631,N,08404.9834,W,0.0000,0.000,120118,,*37
2018-01-12 02:37:37 1515742657.889926: $GPGSA,A,3,2,3,6,12,17,19,24,28,23,5,138,,2.4,0.8,2.1*07
2018-01-12 02:37:38 1515742658.394319: $GPZDA,073739.00,12,01,2018,00,00*66
2018-01-12 02:37:38 1515742658.394505: $GPGGA,073739,3946.9631,N,08404.9834,W,2,11,0.80,298.81,M,-33.324,M,,*7B
2018-01-12 02:37:38 1515742658.394575: $GPRMC,073739,A,3946.9631,N,08404.9834,W,0.0000,0.000,120118,,*36
2018-01-12 02:37:38 1515742658.394636: $GPGSA,A,3,2,3,6,12,17,19,24,28,23,5,138,,2.4,0.8,2.1*07
2018-01-12 02:37:39 1515742659.436397: $GPZDA,073740.00,12,01,2018,00,00*68
2018-01-12 02:37:39 1515742659.436585: $GPGGA,073740,3946.9631,N,08404.9834,W,2,11,0.80,298.81,M,-33.324,M,,*75
2018-01-12 02:37:39 1515742659.436652: $GPRMC,073740,A,3946.9631,N,08404.9834,W,0.0000,0.000,120118,,*38
2018-01-12 02:37:39 1515742659.436715: $GPGSA,A,3,2,3,6,12,17,19,24,28,23,5,138,,2.4,0.8,2.1*07
