2017-11-15 19:40:36 1510792836.020508: {"class":"VERSION","release":"3.17","rev":"3.17","proto_major":3,"proto_minor":12}
2017-11-15 19:40:36 1510792836.020986: {"class":"DEVICES","devices":[{"class":"DEVICE","path":"/dev/ttyUSB0","driver":"SiRF","subtype":"9\u0006GSD4e_4.1.2-P1_RPATCH.05-F-GPS-4R-1510281 11/03/2015 307","activated":"2017-11-16T00:40:35.661Z","flags":1,"native":1,"bps":4800,"parity":"N","stopbits":1,"cycle":1.00}]}
2017-11-15 19:40:36 1510792836.021105: {"class":"WATCH","enable":true,"json":false,"nmea":true,"raw":0,"scaled":false,"timing":false,"split24":false,"pps":false}
2017-11-15 19:40:36 1510792836.665131: $GPGSV,3,1,11,32,32,111,15,16,27,190,18,22,50,264,10,26,58,171,23*76
2017-11-15 19:40:36 1510792836.665336: $GPGSV,3,2,11,14,52,097,16,31,64,031,22,03,42,294,11,23,14,303,00*7F
2017-11-15 19:40:36 1510792836.665396: $GPGSV,3,3,11,25,13,039,00,29,12,067,00,01,03,249,00*42
2017-11-15 19:40:36 1510792836.778358: $GPZDA,004035.00,16,11,2017,00,00*67
2017-11-15 19:40:36 1510792836.778515: $GPGGA,004035,3946.9625,N,08404.9527,W,1,07,1.20,290.74,M,-33.324,M,,*77
2017-11-15 19:40:36 1510792836.778574: $GPRMC,004035,A,3946.9625,N,08404.9527,W,1.0002,154.331,161117,,*3F
2017-11-15 19:40:36 1510792836.778630: $GPGSA,A,3,32,16,22,26,14,31,3,,,,,,3.4,1.2,2.9*0B
2017-11-15 19:40:37 1510792837.329384: $GPZDA,004036.00,16,11,2017,00,00*64
2017-11-15 19:40:37 1510792837.329544: $GPGGA,004036,3946.9625,N,08404.9527,W,1,07,1.20,290.74,M,-33.324,M,,*74
2017-11-15 19:40:37 1510792837.329605: $GPRMC,004036,A,3946.9625,N,08404.9527,W,0.8709,183.298,161117,,*31
2017-11-15 19:40:37 1510792837.329661: $GPGSA,A,3,32,16,22,26,14,31,3,,,,,,3.4,1.2,2.9*0B
2017-11-15 19:40:38 1510792838.346458: $GPZDA,004037.00,16,11,2017,00,00*65
2017-11-15 19:40:38 1510792838.346639: $GPGGA,004037,3946.9625,N,08404.9527,W,1,07,1.20,290.74,M,-33.324,M,,*75
2017-11-15 19:40:38 1510792838.346700: $GPRMC,004037,A,3946.9625,N,08404.9527,W,0.8709,183.298,161117,,*30
2017-11-15 19:40:38 1510792838.346828: $GPGSA,A,3,32,16,22,26,14,31,3,,,,,,3.4,1.2,2.9*0B
2017-11-15 19:40:39 1510792839.682319: $GPGSV,3,1,11,32,32,111,15,16,27,190,18,22,50,264,10,26,58,171,23*76
2017-11-15 19:40:39 1510792839.682520: $GPGSV,3,2,11,14,52,097,15,31,64,031,22,03,42,294,11,23,14,303,00*7C
2017-11-15 19:40:39 1510792839.682581: $GPGSV,3,3,11,25,13,039,00,29,12,067,00,01,03,249,00*42
2017-11-15 19:40:39 1510792839.795569: $GPZDA,004038.00,16,11,2017,00,00*6A
2017-11-15 19:40:39 1510792839.795742: $GPGGA,004038,3946.9622,N,08404.9528,W,1,07,1.20,291.50,M,-33.324,M,,*75
2017-11-15 19:40:39 1510792839.795804: $GPRMC,004038,A,3946.9622,N,08404.9528,W,0.3423,184.197,161117,,*3C
2017-11-15 19:40:39 1510792839.795860: $GPGSA,A,3,32,16,22,26,14,31,3,,,,,,3.4,1.2,2.9*0B
2017-11-15 19:40:40 1510792840.346455: $GPZDA,004039.00,16,11,2017,00,00*6B
2017-11-15 19:40:40 1510792840.346633: $GPGGA,004039,3946.9622,N,08404.9528,W,1,07,1.20,291.50,M,-33.324,M,,*74
2017-11-15 19:40:40 1510792840.346694: $GPRMC,004039,A,3946.9622,N,08404.9528,W,0.3423,184.197,161117,,*3D
2017-11-15 19:40:40 1510792840.346826: $GPGSA,A,3,32,16,22,26,14,31,3,,,,,,3.4,1.2,2.9*0B
2017-11-15 19:40:41 1510792841.330577: $GPZDA,004040.00,16,11,2017,00,00*65
2017-11-15 19:40:41 1510792841.330735: $GPGGA,004040,3946.9622,N,08404.9528,W,1,07,1.20,291.50,M,-33.324,M,,*7A
2017-11-15 19:40:41 1510792841.330796: $GPRMC,004040,A,3946.9622,N,08404.9528,W,0.4207,219.347,161117,,*3C
2017-11-15 19:40:41 1510792841.330868: $GPGSA,A,3,32,16,22,26,14,31,3,,,,,,3.4,1.2,2.9*0B
2017-11-15 19:40:42 1510792842.682789: $GPGSV,3,1,11,32,32,111,16,16,27,190,18,22,50,264,10,26,58,171,23*75
2017-11-15 19:40:42 1510792842.682995: $GPGSV,3,2,11,14,52,097,14,31,64,031,21,03,42,294,11,23,14,303,00*7E
2017-11-15 19:40:42 1510792842.683060: $GPGSV,3,3,11,25,13,039,00,29,12,067,00,01,03,249,00*42
2017-11-15 19:40:42 1510792842.796341: $GPZDA,004041.00,16,11,2017,00,00*64
2017-11-15 19:40:42 1510792842.796516: $GPGGA,004041,3946.9622,N,08404.9528,W,1,07,1.20,291.50,M,-33.324,M,,*7B
2017-11-15 19:40:42 1510792842.796579: $GPRMC,004041,A,3946.9622,N,08404.9528,W,0.4207,219.347,161117,,*3D
2017-11-15 19:40:42 1510792842.796689: $GPGSA,A,3,32,16,22,26,14,31,3,,,,,,3.4,1.2,2.9*0B
2017-11-15 19:40:43 1510792843.346880: $GPZDA,004042.00,16,11,2017,00,00*67
2017-11-15 19:40:43 1510792843.347066: $GPGGA,004042,3946.9622,N,08404.9528,W,1,07,1.20,291.50,M,-33.324,M,,*78
2017-11-15 19:40:43 1510792843.347149: $GPRMC,004042,A,3946.9622,N,08404.9528,W,0.0000,0.000,161117,,*35
2017-11-15 19:40:43 1510792843.347208: $GPGSA,A,3,32,16,22,26,14,31,3,,,,,,3.4,1.2,2.9*0B
2017-11-15 19:40:44 1510792844.328935: $GPZDA,004043.00,16,11,2017,00,00*66
2017-11-15 19:40:44 1510792844.329101: $GPGGA,004043,3946.9622,N,08404.9528,W,1,07,1.20,291.50,M,-33.324,M,,*79
2017-11-15 19:40:44 1510792844.329162: $GPRMC,004043,A,3946.9622,N,08404.9528,W,0.4207,219.347,161117,,*3F
2017-11-15 19:40:44 1510792844.329219: $GPGSA,A,3,32,16,22,26,14,31,3,,,,,,3.4,1.2,2.9*0B
2017-11-15 19:40:45 1510792845.681319: $GPGSV,3,1,11,32,32,111,16,16,27,190,18,22,50,264,11,26,58,171,22*75
2017-11-15 19:40:45 1510792845.681494: $GPGSV,3,2,11,14,52,097,14,31,64,031,21,03,42,294,09,23,14,303,00*77
2017-11-15 19:40:45 1510792845.681555: $GPGSV,3,3,11,25,13,039,00,29,12,067,00,01,03,249,00*42
2017-11-15 19:40:45 1510792845.794305: $GPZDA,004044.00,16,11,2017,00,00*61
2017-11-15 19:40:45 1510792845.794460: $GPGGA,004044,3946.9622,N,08404.9528,W,1,07,1.20,291.50,M,-33.324,M,,*7E
2017-11-15 19:40:45 1510792845.794535: $GPRMC,004044,A,3946.9622,N,08404.9528,W,0.4207,219.347,161117,,*38
2017-11-15 19:40:45 1510792845.794593: $GPGSA,A,3,32,16,22,26,14,31,3,,,,,,3.4,1.2,2.9*0B
