2017-12-31 18:00:48 1514761248.218486: {"class":"VERSION","release":"3.16","rev":"3.16-4","proto_major":3,"proto_minor":11}
2017-12-31 18:00:48 1514761248.218848: {"class":"DEVICES","devices":[{"class":"DEVICE","path":"/dev/ttyUSB0","driver":"SiRF","activated":"2017-12-31T23:00:48.196Z","flags":1,"native":1,"bps":4800,"parity":"N","stopbits":1,"cycle":1.00}]}
2017-12-31 18:00:48 1514761248.218949: {"class":"WATCH","enable":true,"json":false,"nmea":true,"raw":0,"scaled":false,"timing":false,"split24":false,"pps":false}
2017-12-31 18:00:48 1514761248.709237: $GPGSV,3,1,11,22,26,217,43,23,50,307,43,09,16,312,30,03,35,238,44*7A
2017-12-31 18:00:48 1514761248.709418: $GPGSV,3,2,11,16,76,192,43,29,07,033,30,14,19,130,35,31,31,072,38*7B
2017-12-31 18:00:48 1514761248.709484: $GPGSV,3,3,11,27,18,156,32,26,66,054,49,135,22,240,44*7F
2017-12-31 18:00:48 1514761248.822738: $GPZDA,230049.00,31,12,2017,00,00*6F
2017-12-31 18:00:48 1514761248.822875: $GPGGA,230049,3946.9564,N,08404.9866,W,2,11,0.60,307.48,M,-33.324,M,,*76
2017-12-31 18:00:48 1514761248.822939: $GPRMC,230049,A,3946.9564,N,08404.9866,W,0.0000,0.000,311217,,*3B
2017-12-31 18:00:48 1514761248.822999: $GPGSA,A,3,22,23,9,3,16,29,14,31,27,26,135,,1.7,0.6,1.3*06
2017-12-31 18:00:49 1514761249.347237: $GPZDA,230050.00,31,12,2017,00,00*67
2017-12-31 18:00:49 1514761249.347400: $GPGGA,230050,3946.9564,N,08404.9866,W,2,11,0.60,307.48,M,-33.324,M,,*7E
2017-12-31 18:00:49 1514761249.347467: $GPRMC,230050,A,3946.9564,N,08404.9866,W,0.0000,0.000,311217,,*33
2017-12-31 18:00:49 1514761249.347528: $GPGSA,A,3,22,23,9,3,16,29,14,31,27,26,135,,1.7,0.6,1.3*06
2017-12-31 18:00:50 1514761250.346342: $GPZDA,230051.00,31,12,2017,00,00*66
2017-12-31 18:00:50 1514761250.346498: $GPGGA,230051,3946.9564,N,08404.9866,W,2,11,0.60,307.48,M,-33.324,M,,*7F
2017-12-31 18:00:50 1514761250.346564: $GPRMC,230051,A,3946.9564,N,08404.9866,W,0.0000,0.000,311217,,*32
2017-12-31 18:00:50 1514761250.346626: $GPGSA,A,3,22,23,9,3,16,29,14,31,27,26,135,,1.7,0.6,1.3*06
2017-12-31 18:00:51 1514761251.680851: $GPGSV,3,1,11,22,26,217,42,23,50,307,43,09,16,312,32,03,35,238,44*79
2017-12-31 18:00:51 1514761251.681035: $GPGSV,3,2,11,16,76,192,44,29,07,033,31,14,19,130,35,31,31,072,36*73
2017-12-31 18:00:51 1514761251.681101: $GPGSV,3,3,11,27,18,156,33,26,66,054,49,135,22,240,43*79
2017-12-31 18:00:51 1514761251.794158: $GPZDA,230052.00,31,12,2017,00,00*65
2017-12-31 18:00:51 1514761251.794272: $GPGGA,230052,3946.9564,N,08404.9866,W,2,11,0.60,307.48,M,-33.324,M,,*7C
2017-12-31 18:00:51 1514761251.794338: $GPRMC,230052,A,3946.9564,N,08404.9866,W,0.0000,0.000,311217,,*31
2017-12-31 18:00:51 1514761251.794398: $GPGSA,A,3,22,23,9,3,16,29,14,31,27,26,135,,1.7,0.6,1.3*06
2017-12-31 18:00:52 1514761252.346757: $GPZDA,230053.00,31,12,2017,00,00*64
2017-12-31 18:00:52 1514761252.346926: $GPGGA,230053,3946.9564,N,08404.9866,W,2,11,0.60,307.48,M,-33.324,M,,*7D
2017-12-31 18:00:52 1514761252.346991: $GPRMC,230053,A,3946.9564,N,08404.9866,W,0.0000,0.000,311217,,*30
2017-12-31 18:00:52 1514761252.347051: $GPGSA,A,3,22,23,9,3,16,29,14,31,27,26,135,,1.7,0.6,1.3*06
2017-12-31 18:00:53 1514761253.344680: $GPZDA,230054.00,31,12,2017,00,00*63
2017-12-31 18:00:53 1514761253.344858: $GPGGA,230054,3946.9564,N,08404.9866,W,2,11,0.60,307.48,M,-33.324,M,,*7A
2017-12-31 18:00:53 1514761253.344926: $GPRMC,230054,A,3946.9564,N,08404.9866,W,0.0000,0.000,311217,,*37
2017-12-31 18:00:53 1514761253.344988: $GPGSA,A,3,22,23,9,3,16,29,14,31,27,26,135,,1.7,0.6,1.3*06
2017-12-31 18:00:54 1514761254.681724: $GPGSV,3,1,11,22,26,217,43,23,50,307,43,09,16,312,32,03,35,238,44*78
2017-12-31 18:00:54 1514761254.681899: $GPGSV,3,2,11,16,76,192,44,29,07,033,37,14,19,130,35,31,31,072,38*7B
2017-12-31 18:00:54 1514761254.681963: $GPGSV,3,3,11,27,18,156,33,26,66,054,49,135,22,240,44*7E
2017-12-31 18:00:54 1514761254.795056: $GPZDA,230055.00,31,12,2017,00,00*62
2017-12-31 18:00:54 1514761254.795206: $GPGGA,230055,3946.9564,N,08404.9866,W,2,11,0.60,307.48,M,-33.324,M,,*7B
2017-12-31 18:00:54 1514761254.795272: $GPRMC,230055,A,3946.9564,N,08404.9866,W,0.0000,0.000,311217,,*36
2017-12-31 18:00:54 1514761254.795387: $GPGSA,A,3,22,23,9,3,16,29,14,31,27,26,135,,1.7,0.6,1.3*06
2017-12-31 18:00:55 1514761255.421661: $GPZDA,230056.00,31,12,2017,00,00*61
2017-12-31 18:00:56 1514761256.007164: $GPGGA,230056,3946.9564,N,08404.9866,W,2,11,0.60,307.48,M,-33.324,M,,*78
2017-12-31 18:00:56 1514761256.007305: $GPRMC,230056,A,3946.9564,N,08404.9866,W,0.0000,0.000,311217,,*35
2017-12-31 18:00:56 1514761256.007369: $GPGSA,A,3,22,23,9,3,16,29,14,31,27,26,135,,1.7,0.6,1.3*06
2017-12-31 18:00:56 1514761256.345079: $GPZDA,230057.00,31,12,2017,00,00*60
2017-12-31 18:00:56 1514761256.345256: $GPGGA,230057,3946.9564,N,08404.9866,W,2,11,0.60,307.48,M,-33.324,M,,*79
2017-12-31 18:00:56 1514761256.345321: $GPRMC,230057,A,3946.9564,N,08404.9866,W,0.0000,0.000,311217,,*34
2017-12-31 18:00:56 1514761256.345383: $GPGSA,A,3,22,23,9,3,16,29,14,31,27,26,135,,1.7,0.6,1.3*06
2017-12-31 18:00:57 1514761257.680777: $GPGSV,3,1,11,22,26,217,43,23,50,307,43,09,16,312,32,03,35,238,44*78
2017-12-31 18:00:57 1514761257.680932: $GPGSV,3,2,11,16,76,192,44,29,07,033,39,14,19,130,35,31,31,072,38*75
2017-12-31 18:00:57 1514761257.680997: $GPGSV,3,3,11,27,18,156,34,26,66,054,49,135,22,240,44*79
2017-12-31 18:00:57 1514761257.794123: $GPZDA,230058.00,31,12,2017,00,00*6F
2017-12-31 18:00:57 1514761257.794257: $GPGGA,230058,3946.9564,N,08404.9866,W,2,11,0.60,307.48,M,-33.324,M,,*76
2017-12-31 18:00:57 1514761257.794323: $GPRMC,230058,A,3946.9564,N,08404.9866,W,0.0000,0.000,311217,,*3B
2017-12-31 18:00:57 1514761257.794383: $GPGSA,A,3,22,23,9,3,16,29,14,31,27,26,135,,1.7,0.6,1.3*06
