2017-12-31 17:49:53 1514760593.207387: {"class":"VERSION","release":"3.16","rev":"3.16-4","proto_major":3,"proto_minor":11}
2017-12-31 17:49:53 1514760593.207751: {"class":"DEVICES","devices":[{"class":"DEVICE","path":"/dev/ttyUSB0","driver":"SiRF","activated":"2017-12-31T22:49:53.194Z","flags":1,"native":1,"bps":4800,"parity":"N","stopbits":1,"cycle":1.00}]}
2017-12-31 17:49:53 1514760593.207849: {"class":"WATCH","enable":true,"json":false,"nmea":true,"raw":0,"scaled":false,"timing":false,"split24":false,"pps":false}
2017-12-31 17:49:53 1514760593.371456: $GPZDA,224954.00,31,12,2017,00,00*6F
2017-12-31 17:49:53 1514760593.371618: $GPGGA,224954,3946.9570,N,08404.9864,W,2,12,0.60,304.55,M,-33.324,M,,*7D
2017-12-31 17:49:53 1514760593.371682: $GPRMC,224954,A,3946.9570,N,08404.9864,W,0.0000,0.000,311217,,*3C
2017-12-31 17:49:53 1514760593.371742: $GPGSA,A,3,22,23,9,3,16,29,14,31,27,32,26,135,1.7,0.6,1.3*07
2017-12-31 17:49:54 1514760594.682097: $GPGSV,3,1,12,22,29,220,43,23,46,309,42,09,13,312,36,03,38,243,41*7D
2017-12-31 17:49:54 1514760594.682276: $GPGSV,3,2,12,16,70,192,40,29,09,036,35,14,22,129,34,31,34,067,41*7D
2017-12-31 17:49:54 1514760594.682342: $GPGSV,3,3,12,27,14,157,24,32,02,133,15,26,70,060,44,135,22,240,42*4B
2017-12-31 17:49:54 1514760594.795440: $GPZDA,224955.00,31,12,2017,00,00*6E
2017-12-31 17:49:54 1514760594.795578: $GPGGA,224955,3946.9570,N,08404.9864,W,2,12,0.60,304.55,M,-33.324,M,,*7C
2017-12-31 17:49:54 1514760594.795643: $GPRMC,224955,A,3946.9570,N,08404.9864,W,0.0000,0.000,311217,,*3D
2017-12-31 17:49:54 1514760594.795703: $GPGSA,A,3,22,23,9,3,16,29,14,31,27,32,26,135,1.7,0.6,1.3*07
2017-12-31 17:49:55 1514760595.420914: $GPZDA,224956.00,31,12,2017,00,00*6D
2017-12-31 17:49:55 1514760595.421077: $GPGGA,224956,3946.9570,N,08404.9864,W,2,12,0.60,304.55,M,-33.324,M,,*7F
2017-12-31 17:49:55 1514760595.421143: $GPRMC,224956,A,3946.9570,N,08404.9864,W,0.0000,0.000,311217,,*3E
2017-12-31 17:49:55 1514760595.421203: $GPGSA,A,3,22,23,9,3,16,29,14,31,27,32,26,135,1.7,0.6,1.3*07
2017-12-31 17:49:56 1514760596.339448: $GPZDA,224957.00,31,12,2017,00,00*6C
2017-12-31 17:49:56 1514760596.339617: $GPGGA,224957,3946.9570,N,08404.9864,W,2,12,0.60,304.55,M,-33.324,M,,*7E
2017-12-31 17:49:56 1514760596.339684: $GPRMC,224957,A,3946.9570,N,08404.9864,W,0.0000,0.000,311217,,*3F
2017-12-31 17:49:56 1514760596.339745: $GPGSA,A,3,22,23,9,3,16,29,14,31,27,32,26,135,1.7,0.6,1.3*07
2017-12-31 17:49:57 1514760597.682463: $GPGSV,3,1,12,22,29,220,44,23,46,309,44,09,13,312,38,03,38,243,42*71
2017-12-31 17:49:57 1514760597.682636: $GPGSV,3,2,12,16,70,192,42,29,09,036,36,14,22,129,34,31,34,067,42*7F
2017-12-31 17:49:57 1514760597.682700: $GPGSV,3,3,12,27,14,157,25,32,02,133,12,26,70,060,45,135,22,240,44*4A
2017-12-31 17:49:57 1514760597.796069: $GPZDA,224958.00,31,12,2017,00,00*63
2017-12-31 17:49:57 1514760597.796208: $GPGGA,224958,3946.9570,N,08404.9864,W,2,12,0.60,304.55,M,-33.324,M,,*71
2017-12-31 17:49:57 1514760597.796272: $GPRMC,224958,A,3946.9570,N,08404.9864,W,0.0000,0.000,311217,,*30
2017-12-31 17:49:57 1514760597.796332: $GPGSA,A,3,22,23,9,3,16,29,14,31,27,32,26,135,1.7,0.6,1.3*07
2017-12-31 17:49:58 1514760598.371866: $GPZDA,224959.00,31,12,2017,00,00*62
2017-12-31 17:49:58 1514760598.372054: $GPGGA,224959,3946.9570,N,08404.9864,W,2,12,0.60,304.55,M,-33.324,M,,*70
2017-12-31 17:49:58 1514760598.372140: $GPRMC,224959,A,3946.9570,N,08404.9864,W,0.0000,0.000,311217,,*31
2017-12-31 17:49:58 1514760598.372204: $GPGSA,A,3,22,23,9,3,16,29,14,31,27,32,26,135,1.7,0.6,1.3*07
2017-12-31 17:49:59 1514760599.371630: $GPZDA,225000.00,31,12,2017,00,00*66
2017-12-31 17:49:59 1514760599.371799: $GPGGA,225000,3946.9570,N,08404.9864,W,2,12,0.60,304.55,M,-33.324,M,,*74
2017-12-31 17:49:59 1514760599.371865: $GPRMC,225000,A,3946.9570,N,08404.9864,W,0.0000,0.000,311217,,*35
2017-12-31 17:49:59 1514760599.371925: $GPGSA,A,3,22,23,9,3,16,29,14,31,27,32,26,135,1.7,0.6,1.3*07
2017-12-31 17:50:00 1514760600.681604: $GPGSV,3,1,12,22,29,220,45,23,46,309,44,09,13,312,37,03,38,243,43*7E
2017-12-31 17:50:00 1514760600.681772: $GPGSV,3,2,12,16,70,192,43,29,09,036,37,14,22,129,34,31,34,067,42*7F
2017-12-31 17:50:00 1514760600.681894: $GPGSV,3,3,12,27,14,157,26,32,02,133,13,26,70,060,46,135,22,240,44*4B
2017-12-31 17:50:00 1514760600.795169: $GPZDA,225001.00,31,12,2017,00,00*67
2017-12-31 17:50:00 1514760600.795305: $GPGGA,225001,3946.9570,N,08404.9864,W,2,12,0.60,304.55,M,-33.324,M,,*75
2017-12-31 17:50:00 1514760600.795371: $GPRMC,225001,A,3946.9570,N,08404.9864,W,0.0000,0.000,311217,,*34
2017-12-31 17:50:00 1514760600.795431: $GPGSA,A,3,22,23,9,3,16,29,14,31,27,32,26,135,1.7,0.6,1.3*07
2017-12-31 17:50:01 1514760601.347409: $GPZDA,225002.00,31,12,2017,00,00*64
2017-12-31 17:50:01 1514760601.347577: $GPGGA,225002,3946.9570,N,08404.9864,W,2,12,0.60,304.55,M,-33.324,M,,*76
2017-12-31 17:50:01 1514760601.347645: $GPRMC,225002,A,3946.9570,N,08404.9864,W,0.0000,0.000,311217,,*37
2017-12-31 17:50:01 1514760601.347706: $GPGSA,A,3,22,23,9,3,16,29,14,31,27,32,26,135,1.7,0.6,1.3*07
2017-12-31 17:50:02 1514760602.346650: $GPZDA,225003.00,31,12,2017,00,00*65
2017-12-31 17:50:02 1514760602.346826: $GPGGA,225003,3946.9570,N,08404.9864,W,2,12,0.60,304.55,M,-33.324,M,,*77
2017-12-31 17:50:02 1514760602.346893: $GPRMC,225003,A,3946.9570,N,08404.9864,W,0.0000,0.000,311217,,*36
2017-12-31 17:50:02 1514760602.346954: $GPGSA,A,3,22,23,9,3,16,29,14,31,27,32,26,135,1.7,0.6,1.3*07
