2017-12-01 11:57:42 1512147462.683358: {"class":"VERSION","release":"3.16","rev":"3.16-4","proto_major":3,"proto_minor":11}
2017-12-01 11:57:42 1512147462.683768: {"class":"DEVICES","devices":[{"class":"DEVICE","path":"/dev/ttyUSB0","driver":"SiRF","subtype":"9\u0006GSD4e_4.1.2-P1_RPATCH.05-F-GPS-4R-1510281 11/03/2015 307","activated":"2017-12-01T16:57:42.663Z","flags":1,"native":1,"bps":4800,"parity":"N","stopbits":1,"cycle":1.00}]}
2017-12-01 11:57:42 1512147462.683908: {"class":"WATCH","enable":true,"json":false,"nmea":true,"raw":0,"scaled":false,"timing":false,"split24":false,"pps":false}
2017-12-01 11:57:42 1512147462.776952: $GPZDA,165743.00,01,12,2017,00,00*62
2017-12-01 11:57:42 1512147462.777118: $GPGGA,165743,3946.9559,N,08404.9841,W,2,11,0.80,300.70,M,-33.324,M,,*71
2017-12-01 11:57:42 1512147462.777183: $GPRMC,165743,A,3946.9559,N,08404.9841,W,0.0000,0.000,011217,,*3D
2017-12-01 11:57:42 1512147462.777244: $GPGSA,A,3,10,13,15,18,20,21,24,27,29,5,138,,2.0,0.8,1.5*34
2017-12-01 11:57:43 1512147463.327824: $GPZDA,165744.00,01,12,2017,00,00*65
2017-12-01 11:57:43 1512147463.328001: $GPGGA,165744,3946.9559,N,08404.9841,W,2,11,0.80,300.70,M,-33.324,M,,*76
2017-12-01 11:57:43 1512147463.328069: $GPRMC,165744,A,3946.9559,N,08404.9841,W,0.0000,0.000,011217,,*3A
2017-12-01 11:57:43 1512147463.328131: $GPGSA,A,3,10,13,15,18,20,21,24,27,29,5,138,,2.0,0.8,1.5*34
2017-12-01 11:57:44 1512147464.322860: $GPZDA,165745.00,01,12,2017,00,00*64
2017-12-01 11:57:44 1512147464.323048: $GPGGA,165745,3946.9559,N,08404.9841,W,2,11,0.80,300.70,M,-33.324,M,,*77
2017-12-01 11:57:44 1512147464.323117: $GPRMC,165745,A,3946.9559,N,08404.9841,W,0.0000,0.000,011217,,*3B
2017-12-01 11:57:44 1512147464.323179: $GPGSA,A,3,10,13,15,18,20,21,24,27,29,5,138,,2.0,0.8,1.5*34
2017-12-01 11:57:45 1512147465.679446: $GPGSV,3,1,12,10,17,276,38,13,37,046,44,15,70,058,44,18,48,291,44*72
2017-12-01 11:57:45 1512147465.679626: $GPGSV,3,2,12,20,58,060,44,21,72,298,45,24,25,145,46,27,12,319,40*7C
2017-12-01 11:57:45 1512147465.679709: $GPGSV,3,3,12,29,18,193,43,05,09,081,29,04,07,133,00,138,38,213,46*4B
2017-12-01 11:57:45 1512147465.791570: $GPZDA,165746.00,01,12,2017,00,00*67
2017-12-01 11:57:45 1512147465.791737: $GPGGA,165746,3946.9559,N,08404.9841,W,2,11,0.80,300.70,M,-33.324,M,,*74
2017-12-01 11:57:45 1512147465.791820: $GPRMC,165746,A,3946.9559,N,08404.9841,W,0.0000,0.000,011217,,*38
2017-12-01 11:57:45 1512147465.791882: $GPGSA,A,3,10,13,15,18,20,21,24,27,29,5,138,,2.0,0.8,1.5*34
2017-12-01 11:57:46 1512147466.418157: $GPZDA,165747.00,01,12,2017,00,00*66
2017-12-01 11:57:46 1512147466.418334: $GPGGA,165747,3946.9559,N,08404.9841,W,2,11,0.80,300.70,M,-33.324,M,,*75
2017-12-01 11:57:46 1512147466.418423: $GPRMC,165747,A,3946.9559,N,08404.9841,W,0.0000,0.000,011217,,*39
2017-12-01 11:57:46 1512147466.418488: $GPGSA,A,3,10,13,15,18,20,21,24,27,29,5,138,,2.0,0.8,1.5*34
2017-12-01 11:57:47 1512147467.330270: $GPZDA,165748.00,01,12,2017,00,00*69
2017-12-01 11:57:47 1512147467.604019: $GPGGA,165748,3946.9559,N,08404.9841,W,2,11,0.80,300.70,M,-33.324,M,,*7A
2017-12-01 11:57:47 1512147467.604188: $GPRMC,165748,A,3946.9559,N,08404.9841,W,0.0000,0.000,011217,,*36
2017-12-01 11:57:47 1512147467.604261: $GPGSA,A,3,10,13,15,18,20,21,24,27,29,5,138,,2.0,0.8,1.5*34
2017-12-01 11:57:48 1512147468.674778: $GPGSV,3,1,12,10,17,276,39,13,37,046,44,15,70,058,44,18,48,291,45*72
2017-12-01 11:57:48 1512147468.674967: $GPGSV,3,2,12,20,58,060,44,21,72,298,45,24,25,145,46,27,12,319,39*72
2017-12-01 11:57:48 1512147468.675038: $GPGSV,3,3,12,29,18,193,43,05,09,081,29,04,07,133,00,138,38,213,46*4B
2017-12-01 11:57:48 1512147468.788130: $GPZDA,165749.00,01,12,2017,00,00*68
2017-12-01 11:57:48 1512147468.788286: $GPGGA,165749,3946.9559,N,08404.9841,W,2,11,0.80,300.70,M,-33.324,M,,*7B
2017-12-01 11:57:48 1512147468.788353: $GPRMC,165749,A,3946.9559,N,08404.9841,W,0.0000,0.000,011217,,*37
2017-12-01 11:57:48 1512147468.788416: $GPGSA,A,3,10,13,15,18,20,21,24,27,29,5,138,,2.0,0.8,1.5*34
2017-12-01 11:57:49 1512147469.344146: $GPZDA,165750.00,01,12,2017,00,00*60
2017-12-01 11:57:49 1512147469.344396: $GPGGA,165750,3946.9559,N,08404.9841,W,2,11,0.80,300.70,M,-33.324,M,,*73
2017-12-01 11:57:49 1512147469.344464: $GPRMC,165750,A,3946.9559,N,08404.9841,W,0.0000,0.000,011217,,*3F
2017-12-01 11:57:49 1512147469.344527: $GPGSA,A,3,10,13,15,18,20,21,24,27,29,5,138,,2.0,0.8,1.5*34
2017-12-01 11:57:50 1512147470.327378: $GPZDA,165751.00,01,12,2017,00,00*61
2017-12-01 11:57:50 1512147470.327548: $GPGGA,165751,3946.9559,N,08404.9841,W,2,11,0.80,300.70,M,-33.324,M,,*72
2017-12-01 11:57:50 1512147470.327614: $GPRMC,165751,A,3946.9559,N,08404.9841,W,0.0000,0.000,011217,,*3E
2017-12-01 11:57:50 1512147470.327675: $GPGSA,A,3,10,13,15,18,20,21,24,27,29,5,138,,2.0,0.8,1.5*34
2017-12-01 11:57:51 1512147471.662833: $GPGSV,3,1,12,10,17,276,39,13,37,046,44,15,70,058,45,18,48,291,45*73
2017-12-01 11:57:51 1512147471.663015: $GPGSV,3,2,12,20,58,060,44,21,72,298,45,24,25,145,46,27,12,319,40*7C
2017-12-01 11:57:51 1512147471.663080: $GPGSV,3,3,12,29,18,193,43,05,09,081,29,04,07,133,00,138,38,213,47*4A
2017-12-01 11:57:51 1512147471.776142: $GPZDA,165752.00,01,12,2017,00,00*62
2017-12-01 11:57:51 1512147471.776316: $GPGGA,165752,3946.9559,N,08404.9841,W,2,11,0.80,300.70,M,-33.324,M,,*71
2017-12-01 11:57:51 1512147471.776382: $GPRMC,165752,A,3946.9559,N,08404.9841,W,0.0000,0.000,011217,,*3D
2017-12-01 11:57:51 1512147471.776442: $GPGSA,A,3,10,13,15,18,20,21,24,27,29,5,138,,2.0,0.8,1.5*34
2017-12-01 11:57:52 1512147472.328342: $GPZDA,165753.00,01,12,2017,00,00*63
2017-12-01 11:57:52 1512147472.328527: $GPGGA,165753,3946.9559,N,08404.9841,W,2,11,0.80,300.70,M,-33.324,M,,*70
2017-12-01 11:57:52 1512147472.328595: $GPRMC,165753,A,3946.9559,N,08404.9841,W,0.0000,0.000,011217,,*3C
2017-12-01 11:57:52 1512147472.328656: $GPGSA,A,3,10,13,15,18,20,21,24,27,29,5,138,,2.0,0.8,1.5*34
