2017-11-16 14:56:41 1510862201.087484: {"class":"VERSION","release":"3.17","rev":"3.17","proto_major":3,"proto_minor":12}
2017-11-16 14:56:41 1510862201.087924: {"class":"DEVICES","devices":[{"class":"DEVICE","path":"/dev/ttyUSB0","driver":"SiRF","subtype":"9\u0006GSD4e_4.1.2-P1_RPATCH.05-F-GPS-4R-1510281 11/03/2015 307","activated":"2017-11-16T19:56:40.634Z","flags":1,"native":1,"bps":4800,"parity":"N","stopbits":1,"cycle":1.00}]}
2017-11-16 14:56:41 1510862201.088060: {"class":"WATCH","enable":true,"json":false,"nmea":true,"raw":0,"scaled":false,"timing":false,"split24":false,"pps":false}
2017-11-16 14:56:41 1510862201.531322: $GPZDA,195640.00,16,11,2017,00,00*6A
2017-11-16 14:56:41 1510862201.531527: $GPGGA,195640,3946.9575,N,08404.9848,W,2,11,0.80,301.77,M,-33.324,M,,*7D
2017-11-16 14:56:41 1510862201.531590: $GPRMC,195640,A,3946.9575,N,08404.9848,W,0.0000,0.000,161117,,*32
2017-11-16 14:56:41 1510862201.531648: $GPGSA,A,3,8,10,15,18,21,20,24,27,32,14,138,,1.6,0.8,1.3*37
2017-11-16 14:56:42 1510862202.868259: $GPGSV,3,1,12,08,08,304,37,10,57,316,50,12,01,117,00,15,21,060,49*70
2017-11-16 14:56:42 1510862202.868428: $GPGSV,3,2,12,18,77,048,45,21,43,181,44,20,18,109,45,24,52,076,49*7C
2017-11-16 14:56:42 1510862202.868507: $GPGSV,3,3,12,27,13,271,44,32,36,252,46,14,19,244,45,138,38,213,44*45
2017-11-16 14:56:42 1510862202.981640: $GPZDA,195641.00,16,11,2017,00,00*6B
2017-11-16 14:56:42 1510862202.981818: $GPGGA,195641,3946.9575,N,08404.9848,W,2,11,0.80,301.77,M,-33.324,M,,*7C
2017-11-16 14:56:42 1510862202.981883: $GPRMC,195641,A,3946.9575,N,08404.9848,W,0.0000,0.000,161117,,*33
2017-11-16 14:56:42 1510862202.981943: $GPGSA,A,3,8,10,15,18,21,20,24,27,32,14,138,,1.6,0.8,1.3*37
2017-11-16 14:56:43 1510862203.540054: $GPZDA,195642.00,16,11,2017,00,00*68
2017-11-16 14:56:43 1510862203.540245: $GPGGA,195642,3946.9575,N,08404.9848,W,2,11,0.80,301.77,M,-33.324,M,,*7F
2017-11-16 14:56:43 1510862203.540375: $GPRMC,195642,A,3946.9575,N,08404.9848,W,0.0000,0.000,161117,,*30
2017-11-16 14:56:43 1510862203.540441: $GPGSA,A,3,8,10,15,18,21,20,24,27,32,14,138,,1.6,0.8,1.3*37
2017-11-16 14:56:44 1510862204.487800: $GPZDA,195643.00,16,11,2017,00,00*69
2017-11-16 14:56:44 1510862204.487987: $GPGGA,195643,3946.9575,N,08404.9848,W,2,11,0.80,301.77,M,-33.324,M,,*7E
2017-11-16 14:56:44 1510862204.488056: $GPRMC,195643,A,3946.9575,N,08404.9848,W,0.0000,0.000,161117,,*31
2017-11-16 14:56:44 1510862204.488113: $GPGSA,A,3,8,10,15,18,21,20,24,27,32,14,138,,1.6,0.8,1.3*37
2017-11-16 14:56:45 1510862205.828611: $GPGSV,3,1,12,08,08,304,36,10,57,316,50,12,01,117,19,15,21,060,49*79
2017-11-16 14:56:45 1510862205.828794: $GPGSV,3,2,12,18,77,048,45,21,43,181,44,20,18,109,45,24,52,076,49*7C
2017-11-16 14:56:45 1510862205.828857: $GPGSV,3,3,12,27,13,271,43,32,36,252,46,14,19,244,45,138,38,213,43*45
2017-11-16 14:56:45 1510862205.941922: $GPZDA,195644.00,16,11,2017,00,00*6E
2017-11-16 14:56:45 1510862205.942086: $GPGGA,195644,3946.9575,N,08404.9848,W,2,12,0.80,301.77,M,-33.324,M,,*7A
2017-11-16 14:56:45 1510862205.942150: $GPRMC,195644,A,3946.9575,N,08404.9848,W,0.0000,0.000,161117,,*36
2017-11-16 14:56:45 1510862205.942208: $GPGSA,A,3,8,10,12,15,18,21,20,24,27,32,14,138,1.6,0.8,1.3*34
2017-11-16 14:56:46 1510862206.492916: $GPZDA,195645.00,16,11,2017,00,00*6F
2017-11-16 14:56:46 1510862206.493107: $GPGGA,195645,3946.9575,N,08404.9848,W,2,12,0.80,301.77,M,-33.324,M,,*7B
2017-11-16 14:56:46 1510862206.493172: $GPRMC,195645,A,3946.9575,N,08404.9848,W,0.0000,0.000,161117,,*37
2017-11-16 14:56:46 1510862206.493231: $GPGSA,A,3,8,10,12,15,18,21,20,24,27,32,14,138,1.6,0.8,1.3*34
2017-11-16 14:56:47 1510862207.531216: $GPZDA,195646.00,16,11,2017,00,00*6C
2017-11-16 14:56:47 1510862207.531391: $GPGGA,195646,3946.9575,N,08404.9848,W,2,12,0.80,301.77,M,-33.324,M,,*78
2017-11-16 14:56:47 1510862207.531458: $GPRMC,195646,A,3946.9575,N,08404.9848,W,0.0000,0.000,161117,,*34
2017-11-16 14:56:47 1510862207.531516: $GPGSA,A,3,8,10,12,15,18,21,20,24,27,32,14,138,1.6,0.8,1.3*34
2017-11-16 14:56:48 1510862208.833297: $GPGSV,3,1,12,08,08,304,02,10,57,316,50,12,01,117,19,15,21,060,48*7F
2017-11-16 14:56:48 1510862208.833533: $GPGSV,3,2,12,18,77,048,45,21,43,181,44,20,18,109,44,24,52,076,48*7C
2017-11-16 14:56:48 1510862208.833598: $GPGSV,3,3,12,27,13,271,43,32,36,252,46,14,19,244,45,138,38,213,43*45
2017-11-16 14:56:48 1510862208.946622: $GPZDA,195647.00,16,11,2017,00,00*6D
2017-11-16 14:56:48 1510862208.946786: $GPGGA,195647,3946.9575,N,08404.9848,W,2,11,1.00,301.77,M,-33.324,M,,*73
2017-11-16 14:56:48 1510862208.946846: $GPRMC,195647,A,3946.9575,N,08404.9848,W,0.0000,0.000,161117,,*35
2017-11-16 14:56:48 1510862208.946901: $GPGSA,A,3,10,12,15,18,21,20,24,27,32,14,138,,1.6,1.0,1.3*05
2017-11-16 14:56:49 1510862209.571949: $GPZDA,195648.00,16,11,2017,00,00*62
2017-11-16 14:56:49 1510862209.572116: $GPGGA,195648,3946.9575,N,08404.9848,W,2,11,1.00,301.77,M,-33.324,M,,*7C
2017-11-16 14:56:49 1510862209.572179: $GPRMC,195648,A,3946.9575,N,08404.9848,W,0.0000,0.000,161117,,*3A
2017-11-16 14:56:49 1510862209.572235: $GPGSA,A,3,10,12,15,18,21,20,24,27,32,14,138,,1.6,1.0,1.3*05
2017-11-16 14:56:50 1510862210.489108: $GPZDA,195649.00,16,11,2017,00,00*63
2017-11-16 14:56:50 1510862210.491711: $GPGGA,195649,3946.9575,N,08404.9848,W,2,11,0.80,301.77,M,-33.324,M,,*74
2017-11-16 14:56:50 1510862210.491829: $GPRMC,195649,A,3946.9575,N,08404.9848,W,0.0000,0.000,161117,,*3B
2017-11-16 14:56:50 1510862210.491892: $GPGSA,A,3,10,12,15,18,21,20,24,27,32,14,138,,1.6,0.8,1.3*0C
