2017-12-14 12:03:13 1513270993.691740: {"class":"VERSION","release":"3.16","rev":"3.16-4","proto_major":3,"proto_minor":11}
2017-12-14 12:03:13 1513270993.692179: {"class":"DEVICES","devices":[{"class":"DEVICE","path":"/dev/ttyUSB0","driver":"SiRF","subtype":"9\u0006GSD4e_4.1.2-P1_RPATCH.05-F-GPS-4R-1510281 11/03/2015 307","activated":"2017-12-14T17:03:13.639Z","flags":1,"native":1,"bps":4800,"parity":"N","stopbits":1,"cycle":1.00}]}
2017-12-14 12:03:13 1513270993.692309: {"class":"WATCH","enable":true,"json":false,"nmea":true,"raw":0,"scaled":false,"timing":false,"split24":false,"pps":false}
2017-12-14 12:03:14 1513270994.150960: $GPZDA,170315.00,14,12,2017,00,00*65
2017-12-14 12:03:14 1513270994.151134: $GPGGA,170315,3946.9500,N,08404.9324,W,1,08,1.80,335.63,M,-33.324,M,,*78
2017-12-14 12:03:14 1513270994.151201: $GPRMC,170315,A,3946.9500,N,08404.9324,W,0.5951,58.685,141217,,*00
2017-12-14 12:03:14 1513270994.151262: $GPGSA,A,3,10,15,32,21,24,20,18,27,,,,,6.6,1.8,6.2*30
2017-12-14 12:03:15 1513270995.151397: $GPZDA,170316.00,14,12,2017,00,00*66
2017-12-14 12:03:15 1513270995.151566: $GPGGA,170316,3946.9500,N,08404.9317,W,1,08,1.80,335.71,M,-33.324,M,,*78
2017-12-14 12:03:15 1513270995.151631: $GPRMC,170316,A,3946.9500,N,08404.9317,W,0.7576,81.915,141217,,*0A
2017-12-14 12:03:15 1513270995.151692: $GPGSA,A,3,10,15,32,21,24,20,18,27,,,,,6.6,1.8,6.2*30
2017-12-14 12:03:16 1513270996.487250: $GPGSV,3,1,11,10,36,295,20,15,44,051,28,32,15,234,10,21,70,195,26*75
2017-12-14 12:03:16 1513270996.487417: $GPGSV,3,2,11,24,47,120,23,20,39,090,21,18,67,324,15,13,13,046,00*76
2017-12-14 12:03:16 1513270996.487483: $GPGSV,3,3,11,27,19,297,12,08,03,328,00,138,38,213,00*78
2017-12-14 12:03:16 1513270996.600661: $GPZDA,170317.00,14,12,2017,00,00*67
2017-12-14 12:03:16 1513270996.600835: $GPGGA,170317,3946.9497,N,08404.9318,W,1,08,1.80,336.47,M,-33.324,M,,*7F
2017-12-14 12:03:16 1513270996.600902: $GPRMC,170317,A,3946.9497,N,08404.9318,W,0.9689,93.795,141217,,*03
2017-12-14 12:03:16 1513270996.600962: $GPGSA,A,3,10,15,32,21,24,20,18,27,,,,,6.6,1.8,6.2*30
2017-12-14 12:03:17 1513270997.152029: $GPZDA,170318.00,14,12,2017,00,00*68
2017-12-14 12:03:17 1513270997.152354: $GPGGA,170318,3946.9497,N,08404.9318,W,1,08,1.80,336.47,M,-33.324,M,,*70
2017-12-14 12:03:17 1513270997.152424: $GPRMC,170318,A,3946.9497,N,08404.9318,W,0.7621,107.945,141217,,*3F
2017-12-14 12:03:17 1513270997.152485: $GPGSA,A,3,10,15,32,21,24,20,18,27,,,,,6.6,1.8,6.2*30
2017-12-14 12:03:18 1513270998.151653: $GPZDA,170319.00,14,12,2017,00,00*69
2017-12-14 12:03:18 1513270998.151833: $GPGGA,170319,3946.9501,N,08404.9318,W,1,08,1.80,337.11,M,-33.324,M,,*7D
2017-12-14 12:03:18 1513270998.151898: $GPRMC,170319,A,3946.9501,N,08404.9318,W,0.4179,148.779,141217,,*33
2017-12-14 12:03:18 1513270998.151960: $GPGSA,A,3,10,15,32,21,24,20,18,27,,,,,6.6,1.8,6.2*30
2017-12-14 12:03:19 1513270999.504110: $GPGSV,3,1,11,10,36,295,20,15,44,051,27,32,15,234,11,21,70,195,26*7B
2017-12-14 12:03:19 1513270999.504264: $GPGSV,3,2,11,24,47,120,22,20,39,090,21,18,67,324,17,13,13,046,00*75
2017-12-14 12:03:19 1513270999.504328: $GPGSV,3,3,11,27,19,297,12,08,03,328,00,138,38,213,00*78
2017-12-14 12:03:19 1513270999.617762: $GPZDA,170320.00,14,12,2017,00,00*63
2017-12-14 12:03:19 1513270999.617928: $GPGGA,170320,3946.9493,N,08404.9318,W,1,08,1.80,337.24,M,-33.324,M,,*7B
2017-12-14 12:03:19 1513270999.617994: $GPRMC,170320,A,3946.9493,N,08404.9318,W,0.7246,164.668,141217,,*30
2017-12-14 12:03:19 1513270999.618055: $GPGSA,A,3,10,15,32,21,24,20,18,27,,,,,6.6,1.8,6.2*30
2017-12-14 12:03:20 1513271000.151621: $GPZDA,170321.00,14,12,2017,00,00*62
2017-12-14 12:03:20 1513271000.151792: $GPGGA,170321,3946.9493,N,08404.9318,W,1,08,1.80,337.24,M,-33.324,M,,*7A
2017-12-14 12:03:20 1513271000.151859: $GPRMC,170321,A,3946.9493,N,08404.9318,W,1.0534,170.904,141217,,*35
2017-12-14 12:03:20 1513271000.151919: $GPGSA,A,3,10,15,32,21,24,20,18,27,,,,,6.6,1.8,6.2*30
2017-12-14 12:03:21 1513271001.168122: $GPZDA,170322.00,14,12,2017,00,00*61
2017-12-14 12:03:21 1513271001.168288: $GPGGA,170322,3946.9490,N,08404.9319,W,1,08,1.80,338.00,M,-33.324,M,,*72
2017-12-14 12:03:21 1513271001.168425: $GPRMC,170322,A,3946.9490,N,08404.9319,W,1.0269,184.197,141217,,*32
2017-12-14 12:03:21 1513271001.168489: $GPGSA,A,3,10,15,32,21,24,20,18,27,,,,,6.6,1.8,6.2*30
2017-12-14 12:03:22 1513271002.487731: $GPGSV,3,1,11,10,36,295,20,15,44,051,27,32,15,234,11,21,70,195,26*7B
2017-12-14 12:03:22 1513271002.487916: $GPGSV,3,2,11,24,47,120,22,20,39,090,20,18,67,324,13,13,13,046,00*70
2017-12-14 12:03:22 1513271002.487982: $GPGSV,3,3,11,27,19,297,10,08,03,328,00,138,38,213,00*7A
2017-12-14 12:03:22 1513271002.601717: $GPZDA,170323.00,14,12,2017,00,00*60
2017-12-14 12:03:22 1513271002.601883: $GPGGA,170323,3946.9490,N,08404.9319,W,1,08,1.80,338.00,M,-33.324,M,,*73
2017-12-14 12:03:22 1513271002.601948: $GPRMC,170323,A,3946.9490,N,08404.9319,W,0.6846,184.197,141217,,*33
2017-12-14 12:03:22 1513271002.602009: $GPGSA,A,3,10,15,32,21,24,20,18,27,,,,,6.6,1.8,6.2*30
2017-12-14 12:03:23 1513271003.167998: $GPZDA,170324.00,14,12,2017,00,00*67
2017-12-14 12:03:23 1513271003.168172: $GPGGA,170324,3946.9486,N,08404.9320,W,1,08,1.80,338.77,M,-33.324,M,,*79
2017-12-14 12:03:23 1513271003.168238: $GPRMC,170324,A,3946.9486,N,08404.9320,W,0.7238,140.710,141217,,*3A
2017-12-14 12:03:23 1513271003.168300: $GPGSA,A,3,10,15,32,21,24,20,18,27,,,,,6.6,1.8,6.2*30
2017-12-14 12:03:24 1513271004.168787: $GPZDA,170325.00,14,12,2017,00,00*66
2017-12-14 12:03:24 1513271004.168935: $GPGGA,170325,3946.9486,N,08404.9320,W,1,08,1.80,338.77,M,-33.324,M,,*78
2017-12-14 12:03:24 1513271004.169001: $GPRMC,170325,A,3946.9486,N,08404.9320,W,0.4844,93.795,141217,,*0B
2017-12-14 12:03:24 1513271004.169062: $GPGSA,A,3,10,15,32,21,24,20,18,27,,,,,6.6,1.8,6.2*30
2017-12-14 12:03:25 1513271005.504952: $GPGSV,3,1,11,10,36,295,19,15,44,051,27,32,15,234,10,21,70,195,26*70
2017-12-14 12:03:25 1513271005.505109: $GPGSV,3,2,11,24,47,120,23,20,39,090,20,18,67,324,14,13,13,046,00*76
2017-12-14 12:03:25 1513271005.505174: $GPGSV,3,3,11,27,19,297,06,08,03,328,00,138,38,213,00*7D
2017-12-14 12:03:25 1513271005.618368: $GPZDA,170326.00,14,12,2017,00,00*65
2017-12-14 12:03:25 1513271005.618543: $GPGGA,170326,3946.9486,N,08404.9320,W,1,07,1.80,338.77,M,-33.324,M,,*74
2017-12-14 12:03:25 1513271005.618633: $GPRMC,170326,A,3946.9486,N,08404.9320,W,0.5912,129.173,141217,,*35
2017-12-14 12:03:25 1513271005.618696: $GPGSA,A,3,10,15,32,21,24,20,18,,,,,,6.6,1.8,6.2*35
2017-12-14 12:03:26 1513271006.167115: $GPZDA,170327.00,14,12,2017,00,00*64
2017-12-14 12:03:26 1513271006.167279: $GPGGA,170327,3946.9486,N,08404.9320,W,1,07,1.80,338.77,M,-33.324,M,,*75
2017-12-14 12:03:26 1513271006.167345: $GPRMC,170327,A,3946.9486,N,08404.9320,W,0.9066,129.459,141217,,*3F
2017-12-14 12:03:26 1513271006.167406: $GPGSA,A,3,10,15,32,21,24,20,18,,,,,,6.6,1.8,6.2*35
2017-12-14 12:03:27 1513271007.167251: $GPZDA,170328.00,14,12,2017,00,00*6B
2017-12-14 12:03:27 1513271007.167419: $GPGGA,170328,3946.9483,N,08404.9313,W,1,07,1.80,339.61,M,-33.324,M,,*79
2017-12-14 12:03:27 1513271007.167484: $GPRMC,170328,A,3946.9483,N,08404.9313,W,0.9066,129.459,141217,,*35
2017-12-14 12:03:27 1513271007.167545: $GPGSA,A,3,10,15,32,21,24,20,18,,,,,,6.6,1.8,6.2*35
2017-12-14 12:03:28 1513271008.503934: $GPGSV,3,1,11,10,36,295,18,15,44,051,27,32,15,234,09,21,70,195,26*79
2017-12-14 12:03:28 1513271008.504109: $GPGSV,3,2,11,24,47,120,23,20,39,090,20,18,67,324,14,13,13,046,00*76
2017-12-14 12:03:28 1513271008.504174: $GPGSV,3,3,11,27,19,297,04,08,03,328,00,120,07,103,00*78
2017-12-14 12:03:28 1513271008.617327: $GPZDA,170329.00,14,12,2017,00,00*6A
2017-12-14 12:03:28 1513271008.617479: $GPGGA,170329,3946.9483,N,08404.9313,W,1,07,1.80,339.61,M,-33.324,M,,*78
2017-12-14 12:03:28 1513271008.617545: $GPRMC,170329,A,3946.9483,N,08404.9313,W,1.3084,135.525,141217,,*34
2017-12-14 12:03:28 1513271008.617607: $GPGSA,A,3,10,15,32,21,24,20,18,,,,,,6.6,1.8,6.2*35
2017-12-14 12:03:29 1513271009.167826: $GPZDA,170330.00,14,12,2017,00,00*62
2017-12-14 12:03:29 1513271009.167997: $GPGGA,170330,3946.9483,N,08404.9313,W,1,07,1.80,339.61,M,-33.324,M,,*70
2017-12-14 12:03:29 1513271009.168115: $GPRMC,170330,A,3946.9483,N,08404.9313,W,1.1124,122.165,141217,,*33
2017-12-14 12:03:29 1513271009.168177: $GPGSA,A,3,10,15,32,21,24,20,18,,,,,,6.6,1.8,6.2*35
2017-12-14 12:03:30 1513271010.151382: $GPZDA,170331.00,14,12,2017,00,00*63
2017-12-14 12:03:30 1513271010.151559: $GPGGA,170331,3946.9483,N,08404.9313,W,1,07,1.80,339.61,M,-33.324,M,,*71
2017-12-14 12:03:30 1513271010.151626: $GPRMC,170331,A,3946.9483,N,08404.9313,W,0.7238,140.710,141217,,*3B
2017-12-14 12:03:30 1513271010.151688: $GPGSA,A,3,10,15,32,21,24,20,18,,,,,,6.6,1.8,6.2*35
2017-12-14 12:03:31 1513271011.976479: $GPGSV,3,1,11,10,36,297,18,15,43,051,27,32,16,234,10,21,69,195,26*7F
2017-12-14 12:03:31 1513271011.976659: $GPGSV,3,2,11,24,47,120,23,20,39,090,20,18,67,324,14,13,13,046,00*76
2017-12-14 12:03:31 1513271011.976726: $GPGSV,3,3,11,27,19,295,04,08,03,327,00,120,07,103,00*75
2017-12-14 12:03:32 1513271012.089826: $GPZDA,170332.00,14,12,2017,00,00*60
2017-12-14 12:03:32 1513271012.089991: $GPGGA,170332,3946.9483,N,08404.9313,W,1,07,1.40,339.61,M,-33.324,M,,*7E
2017-12-14 12:03:32 1513271012.090057: $GPRMC,170332,A,3946.9483,N,08404.9313,W,0.2422,93.795,141217,,*02
2017-12-14 12:03:32 1513271012.090118: $GPGSA,A,3,10,15,32,21,24,20,18,,,,,,6.6,1.4,6.2*39
2017-12-14 12:03:32 1513271012.343719: $GPZDA,170333.00,14,12,2017,00,00*61
2017-12-14 12:03:32 1513271012.343900: $GPGGA,170333,3946.9487,N,08404.9313,W,1,07,1.40,340.25,M,-33.324,M,,*75
2017-12-14 12:03:32 1513271012.343967: $GPRMC,170333,A,3946.9487,N,08404.9313,W,0.5857,338.291,141217,,*3D
2017-12-14 12:03:32 1513271012.344028: $GPGSA,A,3,10,15,32,21,24,20,18,,,,,,6.6,1.4,6.2*39
2017-12-14 12:03:33 1513271013.169851: $GPZDA,170334.00,14,12,2017,00,00*66
2017-12-14 12:03:33 1513271013.170010: $GPGGA,170334,3946.9487,N,08404.9320,W,1,07,1.40,340.17,M,-33.324,M,,*73
2017-12-14 12:03:33 1513271013.170075: $GPRMC,170334,A,3946.9487,N,08404.9320,W,0.9066,309.459,141217,,*3C
2017-12-14 12:03:33 1513271013.170135: $GPGSA,A,3,10,15,32,21,24,20,18,,,,,,6.6,1.4,6.2*39
