2017-11-15 19:20:21 1510791621.005925: {"class":"VERSION","release":"3.17","rev":"3.17","proto_major":3,"proto_minor":12}
2017-11-15 19:20:21 1510791621.006340: {"class":"DEVICES","devices":[{"class":"DEVICE","path":"/dev/ttyUSB0","driver":"SiRF","subtype":"9\u0006GSD4e_4.1.2-P1_RPATCH.05-F-GPS-4R-1510281 11/03/2015 307","activated":"2017-11-16T00:20:20.662Z","flags":1,"native":1,"bps":4800,"parity":"N","stopbits":1,"cycle":1.00}]}
2017-11-15 19:20:21 1510791621.006476: {"class":"WATCH","enable":true,"json":false,"nmea":true,"raw":0,"scaled":false,"timing":false,"split24":false,"pps":false}
2017-11-15 19:20:21 1510791621.682770: $GPGSV,3,1,11,32,39,103,25,14,58,085,22,22,50,277,20,26,48,174,25*78
2017-11-15 19:20:21 1510791621.682953: $GPGSV,3,2,11,31,71,016,24,29,09,075,16,03,37,304,00,25,21,042,00*78
2017-11-15 19:20:21 1510791621.683015: $GPGSV,3,3,11,16,18,190,00,23,08,298,04,01,08,256,00*49
2017-11-15 19:20:21 1510791621.796162: $GPZDA,002020.00,16,11,2017,00,00*65
2017-11-15 19:20:21 1510791621.796327: $GPGGA,002020,3946.9626,N,08404.9544,W,1,06,1.60,282.71,M,-33.324,M,,*70
2017-11-15 19:20:21 1510791621.796388: $GPRMC,002020,A,3946.9626,N,08404.9544,W,0.3155,129.994,161117,,*35
2017-11-15 19:20:21 1510791621.796446: $GPGSA,A,3,32,14,22,26,31,29,,,,,,,3.4,1.6,2.9*30
2017-11-15 19:20:22 1510791622.329451: $GPZDA,002021.00,16,11,2017,00,00*64
2017-11-15 19:20:22 1510791622.329619: $GPGGA,002021,3946.9626,N,08404.9537,W,1,06,1.60,282.79,M,-33.324,M,,*7D
2017-11-15 19:20:22 1510791622.329683: $GPRMC,002021,A,3946.9626,N,08404.9537,W,0.7238,140.710,161117,,*31
2017-11-15 19:20:22 1510791622.329739: $GPGSA,A,3,32,14,22,26,31,29,,,,,,,3.4,1.6,2.9*30
2017-11-15 19:20:23 1510791623.346558: $GPZDA,002022.00,16,11,2017,00,00*67
2017-11-15 19:20:23 1510791623.346767: $GPGGA,002022,3946.9626,N,08404.9537,W,1,06,1.60,282.79,M,-33.324,M,,*7E
2017-11-15 19:20:23 1510791623.346842: $GPRMC,002022,A,3946.9626,N,08404.9537,W,0.8359,148.778,161117,,*3D
2017-11-15 19:20:23 1510791623.346902: $GPGSA,A,3,32,14,22,26,31,29,,,,,,,3.4,1.6,2.9*30
2017-11-15 19:20:24 1510791624.664964: $GPGSV,3,1,11,32,39,103,25,14,58,085,00,22,50,277,20,26,48,174,25*78
2017-11-15 19:20:24 1510791624.665196: $GPGSV,3,2,11,31,71,016,23,29,09,075,16,25,21,042,00,03,37,304,10*7E
2017-11-15 19:20:24 1510791624.665275: $GPGSV,3,3,11,16,18,190,00,23,08,298,04,01,08,256,00*49
2017-11-15 19:20:24 1510791624.778186: $GPZDA,002023.00,16,11,2017,00,00*66
2017-11-15 19:20:24 1510791624.778343: $GPGGA,002023,3946.9626,N,08404.9537,W,1,05,1.60,282.79,M,-33.324,M,,*7C
2017-11-15 19:20:24 1510791624.778405: $GPRMC,002023,A,3946.9626,N,08404.9537,W,0.5287,182.716,161117,,*3D
2017-11-15 19:20:24 1510791624.778461: $GPGSA,A,3,32,22,26,31,29,,,,,,,,3.4,1.6,2.9*35
2017-11-15 19:20:25 1510791625.347890: $GPZDA,002024.00,16,11,2017,00,00*61
2017-11-15 19:20:25 1510791625.348071: $GPGGA,002024,3946.9622,N,08404.9538,W,1,05,1.60,283.56,M,-33.324,M,,*7C
2017-11-15 19:20:25 1510791625.348135: $GPRMC,002024,A,3946.9622,N,08404.9538,W,0.9060,167.792,161117,,*31
2017-11-15 19:20:25 1510791625.348194: $GPGSA,A,3,32,22,26,31,29,,,,,,,,3.4,1.6,2.9*35
2017-11-15 19:20:26 1510791626.347090: $GPZDA,002025.00,16,11,2017,00,00*60
2017-11-15 19:20:26 1510791626.347258: $GPGGA,002025,3946.9622,N,08404.9538,W,1,05,1.40,283.56,M,-33.324,M,,*7F
2017-11-15 19:20:26 1510791626.347320: $GPRMC,002025,A,3946.9622,N,08404.9538,W,0.7246,164.668,161117,,*3F
2017-11-15 19:20:26 1510791626.347377: $GPGSA,A,3,32,22,26,31,29,,,,,,,,3.4,1.4,2.9*37
2017-11-15 19:20:27 1510791627.682723: $GPGSV,3,1,11,32,39,103,25,14,58,085,23,22,50,277,20,26,48,174,25*79
2017-11-15 19:20:27 1510791627.682907: $GPGSV,3,2,11,31,71,016,23,29,09,075,16,25,21,042,00,03,37,304,14*7A
2017-11-15 19:20:27 1510791627.682967: $GPGSV,3,3,11,16,18,190,00,23,08,298,04,01,08,256,00*49
2017-11-15 19:20:27 1510791627.796469: $GPZDA,002026.00,16,11,2017,00,00*63
2017-11-15 19:20:27 1510791627.796629: $GPGGA,002026,3946.9622,N,08404.9531,W,1,07,1.40,283.64,M,-33.324,M,,*76
2017-11-15 19:20:27 1510791627.796689: $GPRMC,002026,A,3946.9622,N,08404.9531,W,0.6846,184.197,161117,,*37
2017-11-15 19:20:27 1510791627.796881: $GPGSA,A,3,32,14,22,26,31,29,3,,,,,,3.4,1.4,2.9*01
2017-11-15 19:20:28 1510791628.350694: $GPZDA,002027.00,16,11,2017,00,00*62
2017-11-15 19:20:28 1510791628.350875: $GPGGA,002027,3946.9614,N,08404.9531,W,1,07,1.40,283.76,M,-33.324,M,,*71
2017-11-15 19:20:28 1510791628.350940: $GPRMC,002027,A,3946.9614,N,08404.9531,W,0.4179,148.778,161117,,*33
2017-11-15 19:20:28 1510791628.350997: $GPGSA,A,3,32,14,22,26,31,29,3,,,,,,3.4,1.4,2.9*01
2017-11-15 19:20:29 1510791629.346507: $GPZDA,002028.00,16,11,2017,00,00*6D
2017-11-15 19:20:29 1510791629.346693: $GPGGA,002028,3946.9618,N,08404.9531,W,1,07,1.40,284.40,M,-33.324,M,,*70
2017-11-15 19:20:29 1510791629.346817: $GPRMC,002028,A,3946.9618,N,08404.9531,W,0.0000,0.000,161117,,*3E
2017-11-15 19:20:29 1510791629.346878: $GPGSA,A,3,32,14,22,26,31,29,3,,,,,,3.4,1.4,2.9*01
2017-11-15 19:20:30 1510791630.682414: $GPGSV,3,1,12,32,39,103,24,14,58,085,23,22,50,277,20,26,48,174,26*78
2017-11-15 19:20:30 1510791630.682585: $GPGSV,3,2,12,31,71,016,23,29,09,075,16,25,21,042,00,03,37,304,14*79
2017-11-15 19:20:30 1510791630.682648: $GPGSV,3,3,12,16,18,190,00,23,08,298,04,01,08,256,00,138,38,213,00*4B
2017-11-15 19:20:30 1510791630.796086: $GPZDA,002029.00,16,11,2017,00,00*6C
2017-11-15 19:20:30 1510791630.796261: $GPGGA,002029,3946.9618,N,08404.9531,W,1,07,1.40,284.40,M,-33.324,M,,*71
2017-11-15 19:20:30 1510791630.796324: $GPRMC,002029,A,3946.9618,N,08404.9531,W,0.4179,328.778,161117,,*35
2017-11-15 19:20:30 1510791630.796382: $GPGSA,A,3,32,14,22,26,31,29,3,,,,,,3.4,1.4,2.9*01
