2017-12-01 15:52:15 1512161535.236760: {"class":"VERSION","release":"3.16","rev":"3.16-4","proto_major":3,"proto_minor":11}
2017-12-01 15:52:15 1512161535.237151: {"class":"DEVICES","devices":[{"class":"DEVICE","path":"/dev/ttyUSB0","driver":"SiRF","subtype":"9\u0006GSD4e_4.1.2-P1_RPATCH.05-F-GPS-4R-1510281 11/03/2015 307","activated":"2017-12-01T20:52:14.951Z","flags":1,"native":1,"bps":4800,"parity":"N","stopbits":1,"cycle":1.00}]}
2017-12-01 15:52:15 1512161535.237271: {"class":"WATCH","enable":true,"json":false,"nmea":true,"raw":0,"scaled":false,"timing":false,"split24":false,"pps":false}
2017-12-01 15:52:15 1512161535.922611: $GPZDA,205216.59,01,12,2017,00,00*6E
2017-12-01 15:52:15 1512161535.922792: $GPGGA,205216,3946.9603,N,08404.9826,W,1,11,1.20,305.09,M,-33.324,M,,*7F
2017-12-01 15:52:15 1512161535.922859: $GPRMC,205216,A,3946.9603,N,08404.9826,W,1.5377,45.248,011217,,*08
2017-12-01 15:52:15 1512161535.922920: $GPGSA,A,3,1,10,11,12,14,18,25,31,32,24,138,,2.0,1.2,1.5*30
2017-12-01 15:52:15 1512161535.922979: $GPGBS,205216,10.70,M,15.43,M,35.28,M*05
2017-12-01 15:52:17 1512161537.004255: $GPZDA,205217.27,01,12,2017,00,00*66
2017-12-01 15:52:17 1512161537.004487: $GPGGA,205217,3946.9602,N,08404.9825,W,1,11,1.20,303.68,M,-33.324,M,,*7D
2017-12-01 15:52:17 1512161537.004556: $GPRMC,205217,A,3946.9602,N,08404.9825,W,0.1567,9.200,011217,,*3D
2017-12-01 15:52:17 1512161537.004618: $GPGSA,A,3,1,10,11,12,14,18,25,31,32,24,138,,2.0,1.2,1.5*30
2017-12-01 15:52:18 1512161538.146664: $GPGSV,3,1,12,10,66,135,48,12,25,067,38,14,57,297,42,18,34,136,46*79
2017-12-01 15:52:18 1512161538.146878: $GPGSV,3,2,12,25,32,111,41,31,38,213,48,32,69,339,48,01,16,316,34*72
2017-12-01 15:52:18 1512161538.146952: $GPGSV,3,3,12,11,11,298,16,24,11,046,24,22,05,312,00,138,38,213,00*48
2017-12-01 15:52:18 1512161538.260050: $GPZDA,205218.00,01,12,2017,00,00*6C
2017-12-01 15:52:18 1512161538.260243: $GPGGA,205218,3946.9601,N,08404.9825,W,1,09,0.80,302.28,M,-33.324,M,,*76
2017-12-01 15:52:18 1512161538.260332: $GPRMC,205218,A,3946.9601,N,08404.9825,W,0.1867,180.000,011217,,*3E
2017-12-01 15:52:18 1512161538.260398: $GPGSA,A,3,10,12,14,18,25,31,32,1,24,,,,2.0,0.8,1.5*01
2017-12-01 15:52:18 1512161538.710936: $GPZDA,205219.00,01,12,2017,00,00*6D
2017-12-01 15:52:18 1512161538.711114: $GPGGA,205219,3946.9601,N,08404.9831,W,1,09,0.80,300.80,M,-33.324,M,,*72
2017-12-01 15:52:18 1512161538.711184: $GPRMC,205219,A,3946.9601,N,08404.9831,W,0.0000,0.000,011217,,*3B
2017-12-01 15:52:18 1512161538.711248: $GPGSA,A,3,10,12,14,18,25,31,32,1,24,,,,2.0,0.8,1.5*01
2017-12-01 15:52:19 1512161539.416808: $GPZDA,205220.00,01,12,2017,00,00*67
2017-12-01 15:52:19 1512161539.416980: $GPGGA,205220,3946.9604,N,08404.9829,W,1,09,0.80,298.63,M,-33.324,M,,*79
2017-12-01 15:52:19 1512161539.417049: $GPRMC,205220,A,3946.9604,N,08404.9829,W,0.0000,0.000,011217,,*3D
2017-12-01 15:52:19 1512161539.417114: $GPGSA,A,3,10,12,14,18,25,31,32,1,24,,,,2.0,0.8,1.5*01
2017-12-01 15:52:20 1512161540.752040: $GPGSV,3,1,12,10,66,135,48,12,25,067,37,14,57,297,42,18,34,136,46*76
2017-12-01 15:52:20 1512161540.752189: $GPGSV,3,2,12,25,32,111,40,31,38,213,48,32,69,339,48,01,16,316,33*74
2017-12-01 15:52:20 1512161540.752258: $GPGSV,3,3,12,11,11,298,32,24,11,046,30,22,05,312,24,138,38,213,46*4F
2017-12-01 15:52:20 1512161540.865415: $GPZDA,205221.00,01,12,2017,00,00*66
2017-12-01 15:52:20 1512161540.865567: $GPGGA,205221,3946.9607,N,08404.9829,W,1,12,0.80,297.86,M,-33.324,M,,*75
2017-12-01 15:52:20 1512161540.865635: $GPRMC,205221,A,3946.9607,N,08404.9829,W,0.0000,0.000,011217,,*3F
2017-12-01 15:52:20 1512161540.865699: $GPGSA,A,3,10,12,14,18,25,31,32,1,11,24,22,138,2.0,0.8,1.5*3B
2017-12-01 15:52:21 1512161541.417559: $GPZDA,205222.00,01,12,2017,00,00*65
2017-12-01 15:52:21 1512161541.417739: $GPGGA,205222,3946.9606,N,08404.9828,W,1,12,0.80,296.46,M,-33.324,M,,*7B
2017-12-01 15:52:21 1512161541.417809: $GPRMC,205222,A,3946.9606,N,08404.9828,W,0.0000,0.000,011217,,*3C
2017-12-01 15:52:21 1512161541.417872: $GPGSA,A,3,10,12,14,18,25,31,32,1,11,24,22,138,2.0,0.8,1.5*3B
2017-12-01 15:52:22 1512161542.418381: $GPZDA,205223.00,01,12,2017,00,00*64
2017-12-01 15:52:22 1512161542.418553: $GPGGA,205223,3946.9609,N,08404.9849,W,2,12,1.20,283.38,M,-33.324,M,,*77
2017-12-01 15:52:22 1512161542.418621: $GPRMC,205223,A,3946.9609,N,08404.9849,W,0.0000,0.000,011217,,*35
2017-12-01 15:52:22 1512161542.418682: $GPGSA,A,3,10,12,14,18,25,31,32,1,11,24,22,138,2.0,1.2,1.5*30
2017-12-01 15:52:22 1512161542.418741: $GPGBS,205223,2.67,M,3.86,M,8.82,M*36
2017-12-01 15:52:23 1512161543.754052: $GPGSV,3,1,12,10,66,135,48,12,25,067,38,14,57,297,43,18,34,136,46*78
2017-12-01 15:52:23 1512161543.754233: $GPGSV,3,2,12,25,32,111,40,31,38,213,49,32,69,339,48,01,16,316,34*72
2017-12-01 15:52:23 1512161543.754300: $GPGSV,3,3,12,11,11,298,34,24,11,046,30,22,05,312,22,138,38,213,46*4F
2017-12-01 15:52:23 1512161543.867474: $GPZDA,205224.00,01,12,2017,00,00*63
2017-12-01 15:52:23 1512161543.867650: $GPGGA,205224,3946.9609,N,08404.9842,W,2,12,0.80,283.46,M,-33.324,M,,*79
2017-12-01 15:52:23 1512161543.867717: $GPRMC,205224,A,3946.9609,N,08404.9842,W,0.0000,0.000,011217,,*39
2017-12-01 15:52:23 1512161543.867779: $GPGSA,A,3,10,12,14,18,25,31,32,1,11,24,22,138,2.0,0.8,1.5*3B
2017-12-01 15:52:24 1512161544.419599: $GPZDA,205225.00,01,12,2017,00,00*62
2017-12-01 15:52:24 1512161544.419771: $GPGGA,205225,3946.9609,N,08404.9842,W,2,12,0.80,283.46,M,-33.324,M,,*78
2017-12-01 15:52:24 1512161544.419837: $GPRMC,205225,A,3946.9609,N,08404.9842,W,0.0000,0.000,011217,,*38
2017-12-01 15:52:24 1512161544.419898: $GPGSA,A,3,10,12,14,18,25,31,32,1,11,24,22,138,2.0,0.8,1.5*3B
2017-12-01 15:52:25 1512161545.420022: $GPZDA,205226.00,01,12,2017,00,00*61
2017-12-01 15:52:25 1512161545.420195: $GPGGA,205226,3946.9609,N,08404.9842,W,2,12,0.80,283.46,M,-33.324,M,,*7B
2017-12-01 15:52:25 1512161545.420262: $GPRMC,205226,A,3946.9609,N,08404.9842,W,0.0000,0.000,011217,,*3B
2017-12-01 15:52:25 1512161545.420345: $GPGSA,A,3,10,12,14,18,25,31,32,1,11,24,22,138,2.0,0.8,1.5*3B
2017-12-01 15:52:26 1512161546.754376: $GPGSV,3,1,12,10,66,135,48,12,25,067,38,14,57,297,43,18,34,136,47*79
2017-12-01 15:52:26 1512161546.754552: $GPGSV,3,2,12,25,32,111,40,31,38,213,48,32,69,339,48,01,16,316,34*73
2017-12-01 15:52:26 1512161546.754619: $GPGSV,3,3,12,11,11,298,34,24,11,046,30,22,05,312,16,138,38,213,46*48
2017-12-01 15:52:26 1512161546.867724: $GPZDA,205227.00,01,12,2017,00,00*60
2017-12-01 15:52:26 1512161546.867890: $GPGGA,205227,3946.9609,N,08404.9842,W,2,12,0.80,283.46,M,-33.324,M,,*7A
2017-12-01 15:52:26 1512161546.867957: $GPRMC,205227,A,3946.9609,N,08404.9842,W,0.0000,0.000,011217,,*3A
2017-12-01 15:52:26 1512161546.868018: $GPGSA,A,3,10,12,14,18,25,31,32,1,11,24,22,138,2.0,0.8,1.5*3B
2017-12-01 15:52:27 1512161547.417366: $GPZDA,205228.00,01,12,2017,00,00*6F
2017-12-01 15:52:27 1512161547.417555: $GPGGA,205228,3946.9609,N,08404.9842,W,2,12,0.80,283.46,M,-33.324,M,,*75
2017-12-01 15:52:27 1512161547.417622: $GPRMC,205228,A,3946.9609,N,08404.9842,W,0.0000,0.000,011217,,*35
2017-12-01 15:52:27 1512161547.417683: $GPGSA,A,3,10,12,14,18,25,31,32,1,11,24,22,138,2.0,0.8,1.5*3B
2017-12-01 15:52:28 1512161548.418665: $GPZDA,205229.00,01,12,2017,00,00*6E
2017-12-01 15:52:28 1512161548.418837: $GPGGA,205229,3946.9609,N,08404.9842,W,2,12,0.80,283.46,M,-33.324,M,,*74
2017-12-01 15:52:28 1512161548.418904: $GPRMC,205229,A,3946.9609,N,08404.9842,W,0.0000,0.000,011217,,*34
2017-12-01 15:52:28 1512161548.418965: $GPGSA,A,3,10,12,14,18,25,31,32,1,11,24,22,138,2.0,0.8,1.5*3B
2017-12-01 15:52:29 1512161549.755236: $GPGSV,3,1,12,10,66,135,47,12,25,067,38,14,57,297,43,18,34,136,47*76
2017-12-01 15:52:29 1512161549.755451: $GPGSV,3,2,12,25,32,111,40,31,38,213,49,32,69,339,48,01,16,316,35*73
2017-12-01 15:52:29 1512161549.755521: $GPGSV,3,3,12,11,11,298,35,24,11,046,30,22,05,312,17,138,38,213,46*48
2017-12-01 15:52:29 1512161549.868702: $GPZDA,205230.00,01,12,2017,00,00*66
2017-12-01 15:52:29 1512161549.868866: $GPGGA,205230,3946.9609,N,08404.9842,W,2,12,0.80,283.46,M,-33.324,M,,*7C
2017-12-01 15:52:29 1512161549.868934: $GPRMC,205230,A,3946.9609,N,08404.9842,W,0.0000,0.000,011217,,*3C
2017-12-01 15:52:29 1512161549.869041: $GPGSA,A,3,10,12,14,18,25,31,32,1,11,24,22,138,2.0,0.8,1.5*3B
2017-12-01 15:52:30 1512161550.494026: $GPZDA,205231.00,01,12,2017,00,00*67
2017-12-01 15:52:30 1512161550.494194: $GPGGA,205231,3946.9609,N,08404.9842,W,2,12,0.80,283.46,M,-33.324,M,,*7D
2017-12-01 15:52:30 1512161550.494281: $GPRMC,205231,A,3946.9609,N,08404.9842,W,0.0000,0.000,011217,,*3D
2017-12-01 15:52:30 1512161550.494343: $GPGSA,A,3,10,12,14,18,25,31,32,1,11,24,22,138,2.0,0.8,1.5*3B
2017-12-01 15:52:31 1512161551.417427: $GPZDA,205232.00,01,12,2017,00,00*64
2017-12-01 15:52:31 1512161551.417597: $GPGGA,205232,3946.9605,N,08404.9842,W,2,12,0.80,284.22,M,-33.324,M,,*77
2017-12-01 15:52:31 1512161551.417664: $GPRMC,205232,A,3946.9605,N,08404.9842,W,0.0000,0.000,011217,,*32
2017-12-01 15:52:31 1512161551.417725: $GPGSA,A,3,10,12,14,18,25,31,32,1,11,24,22,138,2.0,0.8,1.5*3B
2017-12-01 15:52:32 1512161552.754504: $GPGSV,3,1,12,10,66,135,48,12,25,067,39,14,57,297,43,18,34,136,47*78
2017-12-01 15:52:32 1512161552.754754: $GPGSV,3,2,12,25,32,111,41,31,38,213,49,32,69,339,47,01,16,316,38*70
2017-12-01 15:52:32 1512161552.754822: $GPGSV,3,3,12,11,11,298,35,24,11,046,26,22,05,312,21,138,38,213,46*4A
2017-12-01 15:52:32 1512161552.867762: $GPZDA,205233.00,01,12,2017,00,00*65
2017-12-01 15:52:32 1512161552.867929: $GPGGA,205233,3946.9607,N,08404.9851,W,2,12,0.80,286.95,M,-33.324,M,,*78
2017-12-01 15:52:32 1512161552.868014: $GPRMC,205233,A,3946.9607,N,08404.9851,W,0.0000,0.000,011217,,*33
2017-12-01 15:52:32 1512161552.868075: $GPGSA,A,3,10,12,14,18,25,31,32,1,11,24,22,138,2.0,0.8,1.5*3B
2017-12-01 15:52:33 1512161553.414878: $GPZDA,205234.00,01,12,2017,00,00*62
2017-12-01 15:52:33 1512161553.415072: $GPGGA,205234,3946.9607,N,08404.9851,W,2,12,0.80,286.95,M,-33.324,M,,*7F
2017-12-01 15:52:33 1512161553.415163: $GPRMC,205234,A,3946.9607,N,08404.9851,W,0.2422,93.794,011217,,*02
2017-12-01 15:52:33 1512161553.415231: $GPGSA,A,3,10,12,14,18,25,31,32,1,11,24,22,138,2.0,0.8,1.5*3B
2017-12-01 15:52:34 1512161554.416118: $GPZDA,205235.00,01,12,2017,00,00*63
2017-12-01 15:52:34 1512161554.416310: $GPGGA,205235,3946.9608,N,08404.9851,W,2,12,0.80,288.36,M,-33.324,M,,*76
2017-12-01 15:52:34 1512161554.416397: $GPRMC,205235,A,3946.9608,N,08404.9851,W,0.0000,0.000,011217,,*3A
2017-12-01 15:52:34 1512161554.416464: $GPGSA,A,3,10,12,14,18,25,31,32,1,11,24,22,138,2.0,0.8,1.5*3B
2017-12-01 15:52:34 1512161554.416526: $GPGBS,205235,2.67,M,3.86,M,8.82,M*31
