2017-12-14 12:34:58 1513272898.742853: {"class":"VERSION","release":"3.16","rev":"3.16-4","proto_major":3,"proto_minor":11}
2017-12-14 12:34:58 1513272898.743219: {"class":"DEVICES","devices":[{"class":"DEVICE","path":"/dev/ttyUSB0","driver":"SiRF","subtype":"9\u0006GSD4e_4.1.2-P1_RPATCH.05-F-GPS-4R-1510281 11/03/2015 307","activated":"2017-12-14T17:34:58.363Z","flags":1,"native":1,"bps":4800,"parity":"N","stopbits":1,"cycle":1.00}]}
2017-12-14 12:34:58 1513272898.743335: {"class":"WATCH","enable":true,"json":false,"nmea":true,"raw":0,"scaled":false,"timing":false,"split24":false,"pps":false}
2017-12-14 12:34:59 1513272899.207075: $GPZDA,173500.00,14,12,2017,00,00*64
2017-12-14 12:34:59 1513272899.207241: $GPGGA,173500,3946.9402,N,08404.9478,W,1,07,1.80,320.06,M,-33.324,M,,*7C
2017-12-14 12:34:59 1513272899.207306: $GPRMC,173500,A,3946.9402,N,08404.9478,W,1.0567,197.448,141217,,*30
2017-12-14 12:34:59 1513272899.207366: $GPGSA,A,3,24,10,18,20,21,27,15,,,,,,6.6,1.8,6.2*31
2017-12-14 12:35:00 1513272900.559560: $GPGSV,3,1,12,24,53,097,26,10,47,307,22,18,75,358,20,20,28,102,23*79
2017-12-14 12:35:00 1513272900.559741: $GPGSV,3,2,12,21,55,184,24,27,17,282,17,08,07,316,13,14,09,235,16*78
2017-12-14 12:35:00 1513272900.559807: $GPGSV,3,3,12,15,31,055,18,32,27,243,00,13,02,051,00,120,07,103,00*46
2017-12-14 12:35:00 1513272900.673009: $GPZDA,173501.00,14,12,2017,00,00*65
2017-12-14 12:35:00 1513272900.673134: $GPGGA,173501,3946.9402,N,08404.9478,W,1,07,1.80,320.06,M,-33.324,M,,*7D
2017-12-14 12:35:00 1513272900.673198: $GPRMC,173501,A,3946.9402,N,08404.9478,W,0.8414,219.347,141217,,*30
2017-12-14 12:35:00 1513272900.673258: $GPGSA,A,3,24,10,18,20,21,27,15,,,,,,6.6,1.8,6.2*31
2017-12-14 12:35:01 1513272901.225287: $GPZDA,173502.00,14,12,2017,00,00*66
2017-12-14 12:35:01 1513272901.225443: $GPGGA,173502,3946.9398,N,08404.9478,W,1,07,1.80,319.42,M,-33.324,M,,*70
2017-12-14 12:35:01 1513272901.225510: $GPRMC,173502,A,3946.9398,N,08404.9478,W,0.3423,184.197,141217,,*30
2017-12-14 12:35:01 1513272901.225570: $GPGSA,A,3,24,10,18,20,21,27,15,,,,,,6.6,1.8,6.2*31
2017-12-14 12:35:02 1513272902.209160: $GPZDA,173503.00,14,12,2017,00,00*67
2017-12-14 12:35:02 1513272902.209330: $GPGGA,173503,3946.9398,N,08404.9485,W,1,07,1.80,319.34,M,-33.324,M,,*72
2017-12-14 12:35:02 1513272902.209396: $GPRMC,173503,A,3946.9398,N,08404.9485,W,0.5951,238.684,141217,,*3C
2017-12-14 12:35:02 1513272902.209457: $GPGSA,A,3,24,10,18,20,21,27,15,,,,,,6.6,1.8,6.2*31
2017-12-14 12:35:03 1513272903.561392: $GPGSV,3,1,12,24,53,097,26,10,47,307,22,18,75,358,20,20,28,102,23*79
2017-12-14 12:35:03 1513272903.561573: $GPGSV,3,2,12,21,55,184,24,27,17,282,17,32,27,243,00,14,09,235,12*74
2017-12-14 12:35:03 1513272903.561638: $GPGSV,3,3,12,15,31,055,18,08,07,316,00,13,02,051,00,120,07,103,00*4C
2017-12-14 12:35:03 1513272903.675005: $GPZDA,173504.00,14,12,2017,00,00*60
2017-12-14 12:35:03 1513272903.675172: $GPGGA,173504,3946.9398,N,08404.9485,W,1,08,1.80,319.34,M,-33.324,M,,*7A
2017-12-14 12:35:03 1513272903.675238: $GPRMC,173504,A,3946.9398,N,08404.9485,W,0.0000,0.000,141217,,*30
2017-12-14 12:35:03 1513272903.675298: $GPGSA,A,3,24,10,18,20,21,27,14,15,,,,,6.6,1.8,6.2*34
2017-12-14 12:35:04 1513272904.225154: $GPZDA,173505.00,14,12,2017,00,00*61
2017-12-14 12:35:04 1513272904.225321: $GPGGA,173505,3946.9401,N,08404.9485,W,1,08,1.80,318.58,M,-33.324,M,,*77
2017-12-14 12:35:04 1513272904.225386: $GPRMC,173505,A,3946.9401,N,08404.9485,W,0.5951,58.684,141217,,*09
2017-12-14 12:35:04 1513272904.225447: $GPGSA,A,3,24,10,18,20,21,27,14,15,,,,,6.6,1.8,6.2*34
2017-12-14 12:35:05 1513272905.225047: $GPZDA,173506.00,14,12,2017,00,00*62
2017-12-14 12:35:05 1513272905.225225: $GPGGA,173506,3946.9401,N,08404.9478,W,1,08,1.80,318.66,M,-33.324,M,,*7B
2017-12-14 12:35:05 1513272905.225293: $GPRMC,173506,A,3946.9401,N,08404.9478,W,0.8953,59.978,141217,,*0A
2017-12-14 12:35:05 1513272905.225354: $GPGSA,A,3,24,10,18,20,21,27,14,15,,,,,6.6,1.8,6.2*34
2017-12-14 12:35:06 1513272906.562013: $GPGSV,3,1,12,24,53,097,25,10,47,307,22,18,75,358,20,20,28,102,22*7B
2017-12-14 12:35:06 1513272906.562316: $GPGSV,3,2,12,21,55,184,25,27,17,282,17,08,07,316,06,13,02,051,05*73
2017-12-14 12:35:06 1513272906.562384: $GPGSV,3,3,12,15,31,055,18,32,27,243,00,14,09,235,00,120,07,103,00*4A
2017-12-14 12:35:06 1513272906.675757: $GPZDA,173507.00,14,12,2017,00,00*63
2017-12-14 12:35:06 1513272906.675893: $GPGGA,173507,3946.9401,N,08404.9478,W,1,07,1.80,318.66,M,-33.324,M,,*75
2017-12-14 12:35:06 1513272906.675958: $GPRMC,173507,A,3946.9401,N,08404.9478,W,0.8953,59.978,141217,,*0B
2017-12-14 12:35:06 1513272906.676019: $GPGSA,A,3,24,10,18,20,21,27,15,,,,,,6.6,1.8,6.2*31
2017-12-14 12:35:07 1513272907.208016: $GPZDA,173508.00,14,12,2017,00,00*6C
2017-12-14 12:35:07 1513272907.208199: $GPGGA,173508,3946.9401,N,08404.9471,W,1,07,1.80,318.73,M,-33.324,M,,*77
2017-12-14 12:35:07 1513272907.208268: $GPRMC,173508,A,3946.9401,N,08404.9471,W,1.0018,50.691,141217,,*03
2017-12-14 12:35:07 1513272907.208329: $GPGSA,A,3,24,10,18,20,21,27,15,,,,,,6.6,1.8,6.2*31
2017-12-14 12:35:08 1513272908.224366: $GPZDA,173509.00,14,12,2017,00,00*6D
2017-12-14 12:35:08 1513272908.854072: $GPGGA,173509,3946.9404,N,08404.9470,W,1,07,1.80,317.97,M,-33.324,M,,*77
2017-12-14 12:35:08 1513272908.854236: $GPRMC,173509,A,3946.9404,N,08404.9470,W,0.9929,32.499,141217,,*0B
2017-12-14 12:35:08 1513272908.854300: $GPGSA,A,3,24,10,18,20,21,27,15,,,,,,6.6,1.8,6.2*31
2017-12-14 12:35:09 1513272909.560645: $GPGSV,3,1,12,24,53,097,25,10,47,307,23,18,75,358,20,20,28,102,22*7A
2017-12-14 12:35:09 1513272909.560797: $GPGSV,3,2,12,21,55,184,24,27,17,282,16,08,07,316,12,13,02,051,15*77
2017-12-14 12:35:09 1513272909.560862: $GPGSV,3,3,12,15,31,055,18,32,27,243,00,14,09,235,00,120,07,103,00*4A
2017-12-14 12:35:09 1513272909.674397: $GPZDA,173510.00,14,12,2017,00,00*65
2017-12-14 12:35:09 1513272909.674570: $GPGGA,173510,3946.9404,N,08404.9470,W,1,07,1.80,317.97,M,-33.324,M,,*7F
2017-12-14 12:35:09 1513272909.674635: $GPRMC,173510,A,3946.9404,N,08404.9470,W,1.3921,14.217,141217,,*04
2017-12-14 12:35:09 1513272909.674696: $GPGSA,A,3,24,10,18,20,21,27,15,,,,,,6.6,1.8,6.2*31
2017-12-14 12:35:10 1513272910.224277: $GPZDA,173511.00,14,12,2017,00,00*64
2017-12-14 12:35:10 1513272910.224447: $GPGGA,173511,3946.9412,N,08404.9469,W,1,07,1.80,317.85,M,-33.324,M,,*72
2017-12-14 12:35:10 1513272910.224513: $GPRMC,173511,A,3946.9412,N,08404.9469,W,0.9019,18.875,141217,,*01
2017-12-14 12:35:10 1513272910.224574: $GPGSA,A,3,24,10,18,20,21,27,15,,,,,,6.6,1.8,6.2*31
2017-12-14 12:35:11 1513272911.208867: $GPZDA,173512.00,14,12,2017,00,00*67
2017-12-14 12:35:11 1513272911.209024: $GPGGA,173512,3946.9412,N,08404.9469,W,1,07,1.80,317.85,M,-33.324,M,,*71
2017-12-14 12:35:11 1513272911.209091: $GPRMC,173512,A,3946.9412,N,08404.9469,W,0.9060,347.792,141217,,*33
2017-12-14 12:35:11 1513272911.209152: $GPGSA,A,3,24,10,18,20,21,27,15,,,,,,6.6,1.8,6.2*31
2017-12-14 12:35:12 1513272912.543895: $GPGSV,3,1,12,24,53,097,25,10,47,307,23,18,75,358,20,20,28,102,22*7A
2017-12-14 12:35:12 1513272912.544065: $GPGSV,3,2,12,21,55,184,24,27,17,282,16,32,27,243,00,14,09,235,00*76
2017-12-14 12:35:12 1513272912.544135: $GPGSV,3,3,12,15,31,055,18,08,07,316,00,13,02,051,00,120,07,103,00*4C
2017-12-14 12:35:12 1513272912.657232: $GPZDA,173513.00,14,12,2017,00,00*66
2017-12-14 12:35:12 1513272912.657396: $GPGGA,173513,3946.9412,N,08404.9469,W,1,07,1.80,317.85,M,-33.324,M,,*70
2017-12-14 12:35:12 1513272912.657462: $GPRMC,173513,A,3946.9412,N,08404.9469,W,0.7246,344.668,141217,,*3D
2017-12-14 12:35:12 1513272912.657523: $GPGSA,A,3,24,10,18,20,21,27,15,,,,,,6.6,1.8,6.2*31
2017-12-14 12:35:13 1513272913.207356: $GPZDA,173514.00,14,12,2017,00,00*61
2017-12-14 12:35:13 1513272913.207528: $GPGGA,173514,3946.9415,N,08404.9469,W,1,07,1.80,317.08,M,-33.324,M,,*75
2017-12-14 12:35:13 1513272913.207596: $GPRMC,173514,A,3946.9415,N,08404.9469,W,0.5857,338.291,141217,,*3C
2017-12-14 12:35:13 1513272913.207657: $GPGSA,A,3,24,10,18,20,21,27,15,,,,,,6.6,1.8,6.2*31
2017-12-14 12:35:14 1513272914.206108: $GPZDA,173515.00,14,12,2017,00,00*60
2017-12-14 12:35:14 1513272914.206282: $GPGGA,173515,3946.9419,N,08404.9469,W,1,07,1.80,317.72,M,-33.324,M,,*75
2017-12-14 12:35:14 1513272914.206405: $GPRMC,173515,A,3946.9419,N,08404.9469,W,0.8414,39.347,141217,,*0F
2017-12-14 12:35:14 1513272914.206469: $GPGSA,A,3,24,10,18,20,21,27,15,,,,,,6.6,1.8,6.2*31
2017-12-14 12:35:15 1513272915.543645: $GPGSV,3,1,12,24,53,097,26,10,47,307,24,18,75,358,20,20,28,102,21*7D
2017-12-14 12:35:15 1513272915.543824: $GPGSV,3,2,12,21,55,184,24,27,17,282,15,32,27,243,00,14,09,235,00*75
2017-12-14 12:35:15 1513272915.543889: $GPGSV,3,3,12,15,31,055,18,08,07,316,00,13,02,051,00,120,07,103,00*4C
2017-12-14 12:35:15 1513272915.656985: $GPZDA,173516.00,14,12,2017,00,00*63
2017-12-14 12:35:15 1513272915.657118: $GPGGA,173516,3946.9423,N,08404.9468,W,1,07,1.80,316.96,M,-33.324,M,,*75
2017-12-14 12:35:15 1513272915.657183: $GPRMC,173516,A,3946.9423,N,08404.9468,W,1.2621,39.347,141217,,*0B
2017-12-14 12:35:15 1513272915.657244: $GPGSA,A,3,24,10,18,20,21,27,15,,,,,,6.6,1.8,6.2*31
2017-12-14 12:35:16 1513272916.207861: $GPZDA,173517.00,14,12,2017,00,00*62
2017-12-14 12:35:16 1513272916.208035: $GPGGA,173517,3946.9422,N,08404.9461,W,1,07,1.80,317.04,M,-33.324,M,,*76
2017-12-14 12:35:16 1513272916.208102: $GPRMC,173517,A,3946.9422,N,08404.9461,W,1.1294,43.341,141217,,*00
2017-12-14 12:35:16 1513272916.208162: $GPGSA,A,3,24,10,18,20,21,27,15,,,,,,6.6,1.8,6.2*31
2017-12-14 12:35:17 1513272917.206729: $GPZDA,173518.00,14,12,2017,00,00*6D
2017-12-14 12:35:17 1513272917.206902: $GPGGA,173518,3946.9426,N,08404.9461,W,1,07,1.80,317.68,M,-33.324,M,,*77
2017-12-14 12:35:17 1513272917.206969: $GPRMC,173518,A,3946.9426,N,08404.9461,W,0.9929,32.499,141217,,*0B
2017-12-14 12:35:17 1513272917.207030: $GPGSA,A,3,24,10,18,20,21,27,15,,,,,,6.6,1.8,6.2*31
2017-12-14 12:35:18 1513272918.543121: $GPGSV,3,1,12,24,53,097,26,10,47,307,24,18,75,358,19,20,28,102,21*77
2017-12-14 12:35:18 1513272918.543312: $GPGSV,3,2,12,21,55,184,24,27,17,282,15,08,07,316,12,32,27,243,00*75
2017-12-14 12:35:18 1513272918.543383: $GPGSV,3,3,12,15,31,055,18,14,09,235,00,13,02,051,00,120,07,103,00*4F
2017-12-14 12:35:18 1513272918.655079: $GPZDA,173519.00,14,12,2017,00,00*6C
2017-12-14 12:35:18 1513272918.655251: $GPGGA,173519,3946.9430,N,08404.9460,W,1,07,1.80,316.91,M,-33.324,M,,*77
2017-12-14 12:35:18 1513272918.655318: $GPRMC,173519,A,3946.9430,N,08404.9460,W,0.6846,4.197,141217,,*35
2017-12-14 12:35:18 1513272918.655378: $GPGSA,A,3,24,10,18,20,21,27,15,,,,,,6.6,1.8,6.2*31
