2017-12-29 15:03:15 1514577795.351223: {"class":"VERSION","release":"3.16","rev":"3.16-4","proto_major":3,"proto_minor":11}
2017-12-29 15:03:15 1514577795.351625: {"class":"DEVICES","devices":[{"class":"DEVICE","path":"/dev/ttyUSB0","driver":"SiRF","subtype":"9\u0006GSD4e_4.1.2-P1_RPATCH.05-F-GPS-4R-1510281 11/03/2015 307","activated":"2017-12-29T20:03:15.264Z","flags":1,"native":1,"bps":4800,"parity":"N","stopbits":1,"cycle":1.00}]}
2017-12-29 15:03:15 1514577795.351751: {"class":"WATCH","enable":true,"json":false,"nmea":true,"raw":0,"scaled":false,"timing":false,"split24":false,"pps":false}
2017-12-29 15:03:15 1514577795.871505: $GPZDA,200316.56,29,12,2017,00,00*6F
2017-12-29 15:03:15 1514577795.871677: $GPGGA,200316,3946.9557,N,08404.9877,W,1,12,1.00,301.07,M,-33.324,M,,*76
2017-12-29 15:03:15 1514577795.871744: $GPRMC,200316,A,3946.9557,N,08404.9877,W,0.5951,238.684,291217,,*33
2017-12-29 15:03:15 1514577795.871805: $GPGSA,A,3,3,10,1,12,14,22,25,31,32,18,26,138,1.7,1.0,1.3*01
2017-12-29 15:03:15 1514577795.871864: $GPGBS,200316,10.91,M,10.38,M,30.89,M*09
2017-12-29 15:03:16 1514577796.815429: $GPZDA,200317.25,29,12,2017,00,00*6A
2017-12-29 15:03:16 1514577796.815600: $GPGGA,200317,3946.9557,N,08404.9877,W,1,12,1.00,301.07,M,-33.324,M,,*77
2017-12-29 15:03:16 1514577796.815666: $GPRMC,200317,A,3946.9557,N,08404.9877,W,0.1567,189.200,291217,,*3E
2017-12-29 15:03:16 1514577796.815727: $GPGSA,A,3,3,10,1,12,14,22,25,31,32,18,26,138,1.7,1.0,1.3*01
2017-12-29 15:03:16 1514577796.815786: $GPGBS,200317,10.91,M,10.38,M,30.89,M*08
2017-12-29 15:03:18 1514577798.005262: $GPGSV,3,1,12,01,22,288,36,03,11,316,40,10,34,153,49,18,06,147,10*7D
2017-12-29 15:03:18 1514577798.005440: $GPGSV,3,2,12,12,16,040,43,14,70,358,42,22,30,309,41,25,40,073,49*70
2017-12-29 15:03:18 1514577798.005505: $GPGSV,3,3,12,31,70,241,46,32,62,060,50,26,14,180,10,138,38,213,00*44
2017-12-29 15:03:18 1514577798.118859: $GPZDA,200318.00,29,12,2017,00,00*62
2017-12-29 15:03:18 1514577798.118988: $GPGGA,200318,3946.9557,N,08404.9877,W,1,09,1.00,301.07,M,-33.324,M,,*72
2017-12-29 15:03:18 1514577798.119069: $GPRMC,200318,A,3946.9557,N,08404.9877,W,0.1867,0.000,291217,,*3E
2017-12-29 15:03:18 1514577798.119131: $GPGSA,A,3,1,3,10,12,14,22,25,31,32,,,,1.7,1.0,1.3*36
2017-12-29 15:03:18 1514577798.571080: $GPZDA,200319.00,29,12,2017,00,00*63
2017-12-29 15:03:18 1514577798.571242: $GPGGA,200319,3946.9561,N,08404.9876,W,1,09,0.80,300.30,M,-33.324,M,,*7B
2017-12-29 15:03:18 1514577798.571308: $GPRMC,200319,A,3946.9561,N,08404.9876,W,0.1867,0.000,291217,,*3B
2017-12-29 15:03:18 1514577798.571369: $GPGSA,A,3,1,3,10,12,14,22,25,31,32,,,,1.7,0.8,1.3*3F
2017-12-29 15:03:19 1514577799.362041: $GPZDA,200320.00,29,12,2017,00,00*69
2017-12-29 15:03:19 1514577799.362220: $GPGGA,200320,3946.9564,N,08404.9876,W,1,09,0.80,299.54,M,-33.324,M,,*77
2017-12-29 15:03:19 1514577799.362287: $GPRMC,200320,A,3946.9564,N,08404.9876,W,0.0000,0.000,291217,,*3C
2017-12-29 15:03:19 1514577799.362347: $GPGSA,A,3,1,3,10,12,14,22,25,31,32,,,,1.7,0.8,1.3*3F
2017-12-29 15:03:20 1514577800.698093: $GPGSV,3,1,12,01,22,288,36,03,11,316,40,10,34,153,50,18,06,147,25*73
2017-12-29 15:03:20 1514577800.698254: $GPGSV,3,2,12,12,16,040,43,14,70,358,43,22,30,309,42,25,40,073,50*7A
2017-12-29 15:03:20 1514577800.698320: $GPGSV,3,3,12,31,70,241,46,32,62,060,51,11,04,273,36,138,38,213,45*4A
2017-12-29 15:03:20 1514577800.810462: $GPZDA,200321.00,29,12,2017,00,00*68
2017-12-29 15:03:20 1514577800.810591: $GPGGA,200321,3946.9564,N,08404.9876,W,1,12,0.80,299.54,M,-33.324,M,,*7C
2017-12-29 15:03:20 1514577800.810657: $GPRMC,200321,A,3946.9564,N,08404.9876,W,0.0000,0.000,291217,,*3D
2017-12-29 15:03:20 1514577800.810717: $GPGSA,A,3,1,3,10,18,12,14,22,25,31,32,11,138,1.7,0.8,1.3*0C
2017-12-29 15:03:21 1514577801.362762: $GPZDA,200322.00,29,12,2017,00,00*6B
2017-12-29 15:03:21 1514577801.362940: $GPGGA,200322,3946.9568,N,08404.9875,W,1,12,0.80,298.77,M,-33.324,M,,*70
2017-12-29 15:03:21 1514577801.363007: $GPRMC,200322,A,3946.9568,N,08404.9875,W,0.0000,0.000,291217,,*31
2017-12-29 15:03:21 1514577801.363068: $GPGSA,A,3,1,3,10,18,12,14,22,25,31,32,11,138,1.7,0.8,1.3*0C
2017-12-29 15:03:22 1514577802.363384: $GPZDA,200323.00,29,12,2017,00,00*6A
2017-12-29 15:03:22 1514577802.363554: $GPGGA,200323,3946.9580,N,08404.9864,W,2,12,2.40,294.39,M,-33.324,M,,*7C
2017-12-29 15:03:22 1514577802.363640: $GPRMC,200323,A,3946.9580,N,08404.9864,W,0.0000,0.000,291217,,*36
2017-12-29 15:03:22 1514577802.363701: $GPGSA,A,3,1,3,10,18,12,14,22,25,31,32,11,138,1.7,2.4,1.3*02
2017-12-29 15:03:22 1514577802.363760: $GPGBS,200323,2.73,M,2.59,M,7.72,M*34
2017-12-29 15:03:23 1514577803.698829: $GPGSV,3,1,12,01,22,288,36,03,11,316,40,10,34,153,50,18,06,147,25*73
2017-12-29 15:03:23 1514577803.699025: $GPGSV,3,2,12,12,16,040,44,14,70,358,44,22,30,309,42,25,40,073,51*7B
2017-12-29 15:03:23 1514577803.699091: $GPGSV,3,3,12,31,70,241,47,32,62,060,51,26,14,180,13,138,38,213,44*47
2017-12-29 15:03:23 1514577803.812528: $GPZDA,200324.00,29,12,2017,00,00*6D
2017-12-29 15:03:23 1514577803.812669: $GPGGA,200324,3946.9580,N,08404.9864,W,2,12,1.20,294.39,M,-33.324,M,,*7E
2017-12-29 15:03:23 1514577803.812736: $GPRMC,200324,A,3946.9580,N,08404.9864,W,0.0000,0.000,291217,,*31
2017-12-29 15:03:23 1514577803.812797: $GPGSA,A,3,1,3,10,18,12,14,22,25,31,32,26,138,1.7,1.2,1.3*03
2017-12-29 15:03:24 1514577804.362171: $GPZDA,200325.00,29,12,2017,00,00*6C
2017-12-29 15:03:24 1514577804.362327: $GPGGA,200325,3946.9580,N,08404.9864,W,2,12,1.40,294.39,M,-33.324,M,,*79
2017-12-29 15:03:24 1514577804.362397: $GPRMC,200325,A,3946.9580,N,08404.9864,W,0.0000,0.000,291217,,*30
2017-12-29 15:03:24 1514577804.362458: $GPGSA,A,3,1,3,10,18,12,14,22,25,31,32,26,138,1.7,1.4,1.3*05
2017-12-29 15:03:25 1514577805.366231: $GPZDA,200326.00,29,12,2017,00,00*6F
2017-12-29 15:03:25 1514577805.366403: $GPGGA,200326,3946.9580,N,08404.9864,W,2,12,1.20,294.39,M,-33.324,M,,*7C
2017-12-29 15:03:25 1514577805.366472: $GPRMC,200326,A,3946.9580,N,08404.9864,W,0.0000,0.000,291217,,*33
2017-12-29 15:03:25 1514577805.366535: $GPGSA,A,3,1,3,10,18,12,14,22,25,31,32,26,138,1.7,1.2,1.3*03
