2017-12-14 11:40:29 1513269629.972210: {"class":"VERSION","release":"3.16","rev":"3.16-4","proto_major":3,"proto_minor":11}
2017-12-14 11:40:29 1513269629.972635: {"class":"DEVICES","devices":[{"class":"DEVICE","path":"/dev/ttyUSB0","driver":"SiRF","subtype":"9\u0006GSD4e_4.1.2-P1_RPATCH.05-F-GPS-4R-1510281 11/03/2015 307","activated":"2017-12-14T16:40:29.511Z","flags":1,"native":1,"bps":4800,"parity":"N","stopbits":1,"cycle":1.00}]}
2017-12-14 11:40:29 1513269629.972749: {"class":"WATCH","enable":true,"json":false,"nmea":true,"raw":0,"scaled":false,"timing":false,"split24":false,"pps":false}
2017-12-14 11:40:30 1513269630.195067: $GPZDA,164031.00,14,12,2017,00,00*65
2017-12-14 11:40:30 1513269630.195249: $GPGGA,164031,3946.9541,N,08404.9393,W,1,06,2.00,340.60,M,-33.324,M,,*75
2017-12-14 11:40:30 1513269630.195316: $GPRMC,164031,A,3946.9541,N,08404.9393,W,0.6062,39.207,141217,,*0A
2017-12-14 11:40:30 1513269630.195377: $GPGSA,A,3,18,15,20,24,10,21,,,,,,,6.6,2.0,6.2*3F
2017-12-14 11:40:31 1513269631.532518: $GPGSV,3,1,11,18,60,309,20,15,53,049,22,20,47,079,18,24,39,132,26*7D
2017-12-14 11:40:31 1513269631.532694: $GPGSV,3,2,11,10,29,288,13,21,78,223,21,27,18,306,19,13,22,045,10*7D
2017-12-14 11:40:31 1513269631.532758: $GPGSV,3,3,11,32,07,228,00,29,04,187,00,138,38,213,00*77
2017-12-14 11:40:31 1513269631.644619: $GPZDA,164032.00,14,12,2017,00,00*66
2017-12-14 11:40:31 1513269631.644773: $GPGGA,164032,3946.9542,N,08404.9394,W,1,06,2.00,342.00,M,-33.324,M,,*76
2017-12-14 11:40:31 1513269631.644839: $GPRMC,164032,A,3946.9542,N,08404.9394,W,0.6062,39.207,141217,,*0D
2017-12-14 11:40:31 1513269631.644899: $GPGSA,A,3,18,15,20,24,10,21,,,,,,,6.6,2.0,6.2*3F
2017-12-14 11:40:32 1513269632.195975: $GPZDA,164033.00,14,12,2017,00,00*67
2017-12-14 11:40:32 1513269632.196171: $GPGGA,164033,3946.9536,N,08404.9403,W,1,06,2.00,343.45,M,-33.324,M,,*7D
2017-12-14 11:40:32 1513269632.196238: $GPRMC,164033,A,3946.9536,N,08404.9403,W,0.3926,273.178,141217,,*3D
2017-12-14 11:40:32 1513269632.196300: $GPGSA,A,3,18,15,20,24,10,21,,,,,,,6.6,2.0,6.2*3F
2017-12-14 11:40:33 1513269633.196242: $GPZDA,164034.00,14,12,2017,00,00*60
2017-12-14 11:40:33 1513269633.196400: $GPGGA,164034,3946.9536,N,08404.9403,W,1,06,2.00,344.86,M,-33.324,M,,*72
2017-12-14 11:40:33 1513269633.196467: $GPRMC,164034,A,3946.9536,N,08404.9403,W,0.6723,289.510,141217,,*3B
2017-12-14 11:40:33 1513269633.196527: $GPGSA,A,3,18,15,20,24,10,21,,,,,,,6.6,2.0,6.2*3F
2017-12-14 11:40:34 1513269634.531080: $GPGSV,3,1,11,18,60,309,20,15,53,049,22,20,47,079,19,24,39,132,26*7C
2017-12-14 11:40:34 1513269634.531269: $GPGSV,3,2,11,10,29,288,12,21,78,223,21,27,18,306,00,13,22,045,11*75
2017-12-14 11:40:34 1513269634.531335: $GPGSV,3,3,11,32,07,228,00,29,04,187,00,138,38,213,00*77
2017-12-14 11:40:34 1513269634.644685: $GPZDA,164035.00,14,12,2017,00,00*61
2017-12-14 11:40:34 1513269634.644806: $GPGGA,164035,3946.9537,N,08404.9411,W,1,06,2.00,346.18,M,-33.324,M,,*74
2017-12-14 11:40:34 1513269634.644871: $GPRMC,164035,A,3946.9537,N,08404.9411,W,0.3926,273.178,141217,,*39
2017-12-14 11:40:34 1513269634.644931: $GPGSA,A,3,18,15,20,24,10,21,,,,,,,6.6,2.0,6.2*3F
2017-12-14 11:40:35 1513269635.197860: $GPZDA,164036.00,14,12,2017,00,00*62
2017-12-14 11:40:35 1513269635.198078: $GPGGA,164036,3946.9530,N,08404.9412,W,1,06,2.00,347.71,M,-33.324,M,,*7D
2017-12-14 11:40:35 1513269635.198161: $GPRMC,164036,A,3946.9530,N,08404.9412,W,0.1855,38.889,141217,,*03
2017-12-14 11:40:35 1513269635.198223: $GPGSA,A,3,18,15,20,24,10,21,,,,,,,6.6,2.0,6.2*3F
2017-12-14 11:40:36 1513269636.196709: $GPZDA,164037.00,14,12,2017,00,00*63
2017-12-14 11:40:36 1513269636.196879: $GPGGA,164037,3946.9530,N,08404.9412,W,1,06,2.00,347.71,M,-33.324,M,,*7C
2017-12-14 11:40:36 1513269636.196945: $GPRMC,164037,A,3946.9530,N,08404.9412,W,0.4457,29.082,141217,,*0A
2017-12-14 11:40:36 1513269636.197025: $GPGSA,A,3,18,15,20,24,10,21,,,,,,,6.6,2.0,6.2*3F
2017-12-14 11:40:37 1513269637.534187: $GPGSV,3,1,11,18,60,309,20,15,53,049,22,20,47,079,19,24,39,132,26*7C
2017-12-14 11:40:37 1513269637.534394: $GPGSV,3,2,11,10,29,288,12,21,78,223,21,27,18,306,12,13,22,045,00*76
2017-12-14 11:40:37 1513269637.534515: $GPGSV,3,3,11,32,07,228,00,29,04,187,00,138,38,213,00*77
2017-12-14 11:40:37 1513269637.647866: $GPZDA,164038.00,14,12,2017,00,00*6C
2017-12-14 11:40:37 1513269637.648051: $GPGGA,164038,3946.9534,N,08404.9419,W,1,06,2.00,346.87,M,-33.324,M,,*74
2017-12-14 11:40:37 1513269637.648119: $GPRMC,164038,A,3946.9534,N,08404.9419,W,0.4315,34.066,141217,,*0D
2017-12-14 11:40:37 1513269637.648197: $GPGSA,A,3,18,15,20,24,10,21,,,,,,,6.6,2.0,6.2*3F
2017-12-14 11:40:38 1513269638.197697: $GPZDA,164039.00,14,12,2017,00,00*6D
2017-12-14 11:40:38 1513269638.197927: $GPGGA,164039,3946.9534,N,08404.9419,W,1,06,2.00,346.87,M,-33.324,M,,*75
2017-12-14 11:40:38 1513269638.199270: $GPRMC,164039,A,3946.9534,N,08404.9419,W,0.7623,343.489,141217,,*39
2017-12-14 11:40:38 1513269638.199362: $GPGSA,A,3,18,15,20,24,10,21,,,,,,,6.6,2.0,6.2*3F
2017-12-14 11:40:39 1513269639.198397: $GPZDA,164040.00,14,12,2017,00,00*63
2017-12-14 11:40:39 1513269639.198575: $GPGGA,164040,3946.9538,N,08404.9418,W,1,06,2.00,346.10,M,-33.324,M,,*78
2017-12-14 11:40:39 1513269639.198640: $GPRMC,164040,A,3946.9538,N,08404.9418,W,0.9060,347.792,141217,,*38
2017-12-14 11:40:39 1513269639.198701: $GPGSA,A,3,18,15,20,24,10,21,,,,,,,6.6,2.0,6.2*3F
2017-12-14 11:40:40 1513269640.533550: $GPGSV,3,1,11,18,60,309,20,15,53,049,22,20,47,079,18,24,39,132,26*7D
2017-12-14 11:40:40 1513269640.533726: $GPGSV,3,2,11,10,29,288,12,21,78,223,21,27,18,306,06,13,22,045,00*73
2017-12-14 11:40:40 1513269640.533791: $GPGSV,3,3,11,32,07,228,00,29,04,187,00,138,38,213,00*77
2017-12-14 11:40:40 1513269640.646897: $GPZDA,164041.00,14,12,2017,00,00*62
2017-12-14 11:40:40 1513269640.647044: $GPGGA,164041,3946.9538,N,08404.9425,W,1,06,2.00,346.02,M,-33.324,M,,*74
2017-12-14 11:40:40 1513269640.647109: $GPRMC,164041,A,3946.9538,N,08404.9425,W,0.5287,2.716,141217,,*3E
2017-12-14 11:40:40 1513269640.647187: $GPGSA,A,3,18,15,20,24,10,21,,,,,,,6.6,2.0,6.2*3F
2017-12-14 11:40:41 1513269641.197085: $GPZDA,164042.00,14,12,2017,00,00*61
2017-12-14 11:40:41 1513269641.197287: $GPGGA,164042,3946.9541,N,08404.9424,W,1,06,2.00,345.26,M,-33.324,M,,*7D
2017-12-14 11:40:41 1513269641.197356: $GPRMC,164042,A,3946.9541,N,08404.9424,W,0.4207,39.347,141217,,*03
2017-12-14 11:40:41 1513269641.197417: $GPGSA,A,3,18,15,20,24,10,21,,,,,,,6.6,2.0,6.2*3F
2017-12-14 11:40:42 1513269642.195932: $GPZDA,164043.00,14,12,2017,00,00*60
2017-12-14 11:40:42 1513269642.196104: $GPGGA,164043,3946.9541,N,08404.9424,W,1,06,2.00,345.26,M,-33.324,M,,*7C
2017-12-14 11:40:42 1513269642.196170: $GPRMC,164043,A,3946.9541,N,08404.9424,W,1.2621,39.347,141217,,*05
2017-12-14 11:40:42 1513269642.196230: $GPGSA,A,3,18,15,20,24,10,21,,,,,,,6.6,2.0,6.2*3F
2017-12-14 11:40:43 1513269643.532261: $GPGSV,3,1,11,18,60,309,20,15,53,049,22,20,47,079,18,24,39,132,26*7D
2017-12-14 11:40:43 1513269643.532437: $GPGSV,3,2,11,10,29,288,12,21,78,223,21,13,22,045,00,27,18,306,00*75
2017-12-14 11:40:43 1513269643.532503: $GPGSV,3,3,11,32,07,228,00,29,04,187,00,138,38,213,00*77
2017-12-14 11:40:43 1513269643.645912: $GPZDA,164044.00,14,12,2017,00,00*67
2017-12-14 11:40:43 1513269643.646081: $GPGGA,164044,3946.9545,N,08404.9423,W,1,06,2.00,344.49,M,-33.324,M,,*70
2017-12-14 11:40:43 1513269643.646147: $GPRMC,164044,A,3946.9545,N,08404.9423,W,1.0567,17.448,141217,,*06
2017-12-14 11:40:43 1513269643.646207: $GPGSA,A,3,18,15,20,24,10,21,,,,,,,6.6,2.0,6.2*3F
2017-12-14 11:40:44 1513269644.197456: $GPZDA,164045.00,14,12,2017,00,00*66
2017-12-14 11:40:44 1513269644.197623: $GPGGA,164045,3946.9545,N,08404.9423,W,1,06,2.00,344.49,M,-33.324,M,,*71
2017-12-14 11:40:44 1513269644.197690: $GPRMC,164045,A,3946.9545,N,08404.9423,W,1.2132,3.552,141217,,*3E
2017-12-14 11:40:44 1513269644.197750: $GPGSA,A,3,18,15,20,24,10,21,,,,,,,6.6,2.0,6.2*3F
2017-12-14 11:40:45 1513269645.196896: $GPZDA,164046.00,14,12,2017,00,00*65
2017-12-14 11:40:45 1513269645.197055: $GPGGA,164046,3946.9548,N,08404.9423,W,1,06,2.00,343.73,M,-33.324,M,,*71
2017-12-14 11:40:45 1513269645.197120: $GPRMC,164046,A,3946.9548,N,08404.9423,W,0.9929,32.499,141217,,*0C
2017-12-14 11:40:45 1513269645.197229: $GPGSA,A,3,18,15,20,24,10,21,,,,,,,6.6,2.0,6.2*3F
2017-12-14 11:40:46 1513269646.534126: $GPGSV,3,1,11,18,60,309,20,15,53,049,23,20,47,079,18,24,39,132,26*7C
2017-12-14 11:40:46 1513269646.534303: $GPGSV,3,2,11,10,29,288,12,21,78,223,21,27,18,306,12,13,22,045,00*76
2017-12-14 11:40:46 1513269646.534369: $GPGSV,3,3,11,32,07,228,00,29,04,187,00,138,38,213,00*77
2017-12-14 11:40:46 1513269646.647817: $GPZDA,164047.00,14,12,2017,00,00*64
2017-12-14 11:40:46 1513269646.647987: $GPGGA,164047,3946.9548,N,08404.9423,W,1,06,2.00,343.73,M,-33.324,M,,*70
2017-12-14 11:40:46 1513269646.648053: $GPRMC,164047,A,3946.9548,N,08404.9423,W,0.5774,27.515,141217,,*06
2017-12-14 11:40:46 1513269646.648114: $GPGSA,A,3,18,15,20,24,10,21,,,,,,,6.6,2.0,6.2*3F
2017-12-14 11:40:47 1513269647.197580: $GPZDA,164048.00,14,12,2017,00,00*6B
2017-12-14 11:40:47 1513269647.197737: $GPGGA,164048,3946.9548,N,08404.9423,W,1,06,2.00,343.73,M,-33.324,M,,*7F
2017-12-14 11:40:47 1513269647.197803: $GPRMC,164048,A,3946.9548,N,08404.9423,W,1.0018,50.691,141217,,*0F
2017-12-14 11:40:47 1513269647.197863: $GPGSA,A,3,18,15,20,24,10,21,,,,,,,6.6,2.0,6.2*3F
2017-12-14 11:40:48 1513269648.197659: $GPZDA,164049.00,14,12,2017,00,00*6A
2017-12-14 11:40:48 1513269648.197827: $GPGGA,164049,3946.9548,N,08404.9423,W,1,06,2.00,343.73,M,-33.324,M,,*7E
2017-12-14 11:40:48 1513269648.197893: $GPRMC,164049,A,3946.9548,N,08404.9423,W,1.2608,78.043,141217,,*08
2017-12-14 11:40:48 1513269648.197953: $GPGSA,A,3,18,15,20,24,10,21,,,,,,,6.6,2.0,6.2*3F
2017-12-14 11:40:49 1513269649.533897: $GPGSV,3,1,11,18,60,309,20,15,53,049,22,20,47,079,19,24,39,132,26*7C
2017-12-14 11:40:49 1513269649.534081: $GPGSV,3,2,11,10,29,288,10,21,78,223,21,27,18,306,14,13,22,045,00*72
2017-12-14 11:40:49 1513269649.534148: $GPGSV,3,3,11,32,07,228,00,29,04,187,00,138,38,213,00*77
2017-12-14 11:40:49 1513269649.647269: $GPZDA,164050.00,14,12,2017,00,00*62
2017-12-14 11:40:49 1513269649.647408: $GPGGA,164050,3946.9548,N,08404.9416,W,1,07,2.00,343.81,M,-33.324,M,,*7C
2017-12-14 11:40:49 1513269649.647474: $GPRMC,164050,A,3946.9548,N,08404.9416,W,1.0298,74.382,141217,,*0B
2017-12-14 11:40:49 1513269649.647534: $GPGSA,A,3,18,15,20,24,10,21,27,,,,,,6.6,2.0,6.2*3A
