2017-12-14 12:09:23 1513271363.584433: {"class":"VERSION","release":"3.16","rev":"3.16-4","proto_major":3,"proto_minor":11}
2017-12-14 12:09:23 1513271363.584916: {"class":"DEVICES","devices":[{"class":"DEVICE","path":"/dev/ttyUSB0","driver":"SiRF","subtype":"9\u0006GSD4e_4.1.2-P1_RPATCH.05-F-GPS-4R-1510281 11/03/2015 307","activated":"2017-12-14T17:09:23.571Z","flags":1,"native":1,"bps":4800,"parity":"N","stopbits":1,"cycle":1.00}]}
2017-12-14 12:09:23 1513271363.585196: {"class":"WATCH","enable":true,"json":false,"nmea":true,"raw":0,"scaled":false,"timing":false,"split24":false,"pps":false}
2017-12-14 12:09:23 1513271363.685392: $GPZDA,170924.00,14,12,2017,00,00*6D
2017-12-14 12:09:23 1513271363.685541: $GPGGA,170924,3946.9554,N,08404.9408,W,1,07,2.00,356.61,M,-33.324,M,,*7B
2017-12-14 12:09:23 1513271363.685607: $GPRMC,170924,A,3946.9554,N,08404.9408,W,0.4293,5.518,141217,,*3B
2017-12-14 12:09:23 1513271363.685667: $GPGSA,A,3,24,21,10,15,18,20,8,,,,,,6.6,2.0,6.2*07
2017-12-14 12:09:24 1513271364.235476: $GPZDA,170925.00,14,12,2017,00,00*6C
2017-12-14 12:09:24 1513271364.235633: $GPGGA,170925,3946.9561,N,08404.9408,W,1,07,2.00,356.48,M,-33.324,M,,*77
2017-12-14 12:09:24 1513271364.235700: $GPRMC,170925,A,3946.9561,N,08404.9408,W,0.9871,349.768,141217,,*39
2017-12-14 12:09:24 1513271364.235760: $GPGSA,A,3,24,21,10,15,18,20,8,,,,,,6.6,2.0,6.2*07
2017-12-14 12:09:25 1513271365.235604: $GPZDA,170926.00,14,12,2017,00,00*6F
2017-12-14 12:09:25 1513271365.235775: $GPGGA,170926,3946.9559,N,08404.9409,W,1,07,2.00,358.65,M,-33.324,M,,*7F
2017-12-14 12:09:25 1513271365.235841: $GPRMC,170926,A,3946.9559,N,08404.9409,W,0.4293,5.518,141217,,*35
2017-12-14 12:09:25 1513271365.235902: $GPGSA,A,3,24,21,10,15,18,20,8,,,,,,6.6,2.0,6.2*07
2017-12-14 12:09:26 1513271366.571548: $GPGSV,3,1,11,24,48,117,30,21,67,192,24,10,38,298,24,15,41,051,16*76
2017-12-14 12:09:26 1513271366.571725: $GPGSV,3,2,11,18,69,328,18,20,37,091,16,08,04,325,10,27,19,294,00*7C
2017-12-14 12:09:26 1513271366.571790: $GPGSV,3,3,11,32,18,235,00,13,11,048,00,138,38,213,00*7A
2017-12-14 12:09:26 1513271366.685089: $GPZDA,170927.00,14,12,2017,00,00*6E
2017-12-14 12:09:26 1513271366.685379: $GPGGA,170927,3946.9563,N,08404.9409,W,1,07,2.00,359.29,M,-33.324,M,,*7E
2017-12-14 12:09:26 1513271366.685503: $GPRMC,170927,A,3946.9563,N,08404.9409,W,0.6375,316.098,141217,,*3A
2017-12-14 12:09:26 1513271366.685566: $GPGSA,A,3,24,21,10,15,18,20,8,,,,,,6.6,2.0,6.2*07
2017-12-14 12:09:27 1513271367.238325: $GPZDA,170928.00,14,12,2017,00,00*61
2017-12-14 12:09:27 1513271367.238510: $GPGGA,170928,3946.9560,N,08404.9411,W,1,07,2.00,361.46,M,-33.324,M,,*79
2017-12-14 12:09:27 1513271367.238578: $GPRMC,170928,A,3946.9560,N,08404.9411,W,0.2731,3.406,141217,,*3B
2017-12-14 12:09:27 1513271367.238638: $GPGSA,A,3,24,21,10,15,18,20,8,,,,,,6.6,2.0,6.2*07
2017-12-14 12:09:28 1513271368.234876: $GPZDA,170929.00,14,12,2017,00,00*60
2017-12-14 12:09:28 1513271368.235128: $GPGGA,170929,3946.9560,N,08404.9411,W,1,07,2.00,361.46,M,-33.324,M,,*78
2017-12-14 12:09:28 1513271368.235202: $GPRMC,170929,A,3946.9560,N,08404.9411,W,0.7780,294.347,141217,,*3B
2017-12-14 12:09:28 1513271368.235263: $GPGSA,A,3,24,21,10,15,18,20,8,,,,,,6.6,2.0,6.2*07
2017-12-14 12:09:29 1513271369.571023: $GPGSV,3,1,11,24,48,117,30,21,67,192,24,10,38,298,24,15,41,051,17*77
2017-12-14 12:09:29 1513271369.571230: $GPGSV,3,2,11,18,69,328,18,20,37,091,16,08,04,325,11,27,19,294,00*7D
2017-12-14 12:09:29 1513271369.571295: $GPGSV,3,3,11,32,18,235,00,13,11,048,00,138,38,213,00*7A
2017-12-14 12:09:29 1513271369.683422: $GPZDA,170930.00,14,12,2017,00,00*68
2017-12-14 12:09:29 1513271369.683572: $GPGGA,170930,3946.9560,N,08404.9404,W,1,07,2.00,361.54,M,-33.324,M,,*77
2017-12-14 12:09:29 1513271369.683638: $GPRMC,170930,A,3946.9560,N,08404.9404,W,0.3256,322.011,141217,,*31
2017-12-14 12:09:29 1513271369.683699: $GPGSA,A,3,24,21,10,15,18,20,8,,,,,,6.6,2.0,6.2*07
2017-12-14 12:09:30 1513271370.736928: $GPZDA,170931.00,14,12,2017,00,00*69
2017-12-14 12:09:30 1513271370.737145: $GPGGA,170931,3946.9552,N,08404.9411,W,1,07,2.00,360.18,M,-33.324,M,,*7A
2017-12-14 12:09:30 1513271370.737269: $GPRMC,170931,A,3946.9552,N,08404.9411,W,0.3529,219.708,141217,,*3C
2017-12-14 12:09:30 1513271370.737332: $GPGSA,A,3,24,21,10,15,18,20,8,,,,,,6.6,2.0,6.2*07
2017-12-14 12:09:31 1513271371.235763: $GPZDA,170932.00,14,12,2017,00,00*6A
2017-12-14 12:09:31 1513271371.235930: $GPGGA,170932,3946.9544,N,08404.9411,W,1,07,2.00,360.30,M,-33.324,M,,*74
2017-12-14 12:09:31 1513271371.236015: $GPRMC,170932,A,3946.9544,N,08404.9411,W,0.5324,241.328,141217,,*3E
2017-12-14 12:09:31 1513271371.236077: $GPGSA,A,3,24,21,10,15,18,20,8,,,,,,6.6,2.0,6.2*07
2017-12-14 12:09:32 1513271372.573550: $GPGSV,3,1,12,24,49,117,30,21,67,192,24,10,38,298,24,15,41,051,18*7A
2017-12-14 12:09:32 1513271372.573744: $GPGSV,3,2,12,18,69,330,18,20,37,093,17,08,04,325,11,14,01,231,12*71
2017-12-14 12:09:32 1513271372.573810: $GPGSV,3,3,12,27,19,294,00,32,18,235,00,13,11,048,00,138,38,213,00*4B
2017-12-14 12:09:32 1513271372.687080: $GPZDA,170933.00,14,12,2017,00,00*6B
2017-12-14 12:09:32 1513271372.687257: $GPGGA,170933,3946.9542,N,08404.9415,W,1,08,2.00,354.61,M,-33.324,M,,*7B
2017-12-14 12:09:32 1513271372.687323: $GPRMC,170933,A,3946.9542,N,08404.9415,W,0.4253,247.177,141217,,*33
2017-12-14 12:09:32 1513271372.687386: $GPGSA,A,3,24,21,10,15,18,20,8,14,,,,,6.6,2.0,6.2*02
2017-12-14 12:09:33 1513271373.237435: $GPZDA,170934.00,14,12,2017,00,00*6C
2017-12-14 12:09:33 1513271373.237604: $GPGGA,170934,3946.9535,N,08404.9419,W,1,08,2.00,348.27,M,-33.324,M,,*7F
2017-12-14 12:09:33 1513271373.237687: $GPRMC,170934,A,3946.9535,N,08404.9419,W,0.3255,256.774,141217,,*3C
2017-12-14 12:09:33 1513271373.237751: $GPGSA,A,3,24,21,10,15,18,20,8,14,,,,,6.6,2.0,6.2*02
2017-12-14 12:09:34 1513271374.237620: $GPZDA,170935.00,14,12,2017,00,00*6D
2017-12-14 12:09:34 1513271374.237808: $GPGGA,170935,3946.9530,N,08404.9419,W,1,08,2.00,346.23,M,-33.324,M,,*71
2017-12-14 12:09:34 1513271374.237877: $GPRMC,170935,A,3946.9530,N,08404.9419,W,0.2710,280.223,141217,,*31
2017-12-14 12:09:34 1513271374.237938: $GPGSA,A,3,24,21,10,15,18,20,8,14,,,,,6.6,2.0,6.2*02
2017-12-14 12:09:35 1513271375.573468: $GPGSV,3,1,12,24,49,117,30,21,67,192,24,10,38,298,24,15,41,051,19*7B
2017-12-14 12:09:35 1513271375.573643: $GPGSV,3,2,12,18,69,330,18,20,37,093,17,08,04,325,11,14,01,231,10*73
2017-12-14 12:09:35 1513271375.573709: $GPGSV,3,3,12,27,19,294,00,32,18,235,00,13,11,048,00,138,38,213,00*4B
2017-12-14 12:09:35 1513271375.686931: $GPZDA,170936.00,14,12,2017,00,00*6E
2017-12-14 12:09:35 1513271375.687134: $GPGGA,170936,3946.9526,N,08404.9419,W,1,08,2.00,345.59,M,-33.324,M,,*7B
2017-12-14 12:09:35 1513271375.687203: $GPRMC,170936,A,3946.9526,N,08404.9419,W,0.4985,185.768,141217,,*3D
2017-12-14 12:09:35 1513271375.687264: $GPGSA,A,3,24,21,10,15,18,20,8,14,,,,,6.6,2.0,6.2*02
2017-12-14 12:09:36 1513271376.238282: $GPZDA,170937.00,14,12,2017,00,00*6F
2017-12-14 12:09:36 1513271376.238472: $GPGGA,170937,3946.9519,N,08404.9426,W,1,08,2.00,345.63,M,-33.324,M,,*73
2017-12-14 12:09:36 1513271376.238540: $GPRMC,170937,A,3946.9519,N,08404.9426,W,0.3006,242.540,141217,,*39
2017-12-14 12:09:36 1513271376.238601: $GPGSA,A,3,24,21,10,15,18,20,8,14,,,,,6.6,2.0,6.2*02
2017-12-14 12:09:37 1513271377.236748: $GPZDA,170938.00,14,12,2017,00,00*60
2017-12-14 12:09:37 1513271377.236902: $GPGGA,170938,3946.9519,N,08404.9426,W,1,08,2.00,345.63,M,-33.324,M,,*7C
2017-12-14 12:09:37 1513271377.236994: $GPRMC,170938,A,3946.9519,N,08404.9426,W,0.5230,256.444,141217,,*37
2017-12-14 12:09:37 1513271377.237056: $GPGSA,A,3,24,21,10,15,18,20,8,14,,,,,6.6,2.0,6.2*02
2017-12-14 12:09:38 1513271378.572874: $GPGSV,3,1,12,24,49,117,30,21,67,192,24,10,38,298,24,15,41,051,19*7B
2017-12-14 12:09:38 1513271378.573101: $GPGSV,3,2,12,18,69,330,18,20,37,093,17,08,04,325,10,14,01,231,10*72
2017-12-14 12:09:38 1513271378.573173: $GPGSV,3,3,12,27,19,294,00,32,18,235,00,13,11,048,00,138,38,213,00*4B
2017-12-14 12:09:38 1513271378.686643: $GPZDA,170939.00,14,12,2017,00,00*61
2017-12-14 12:09:38 1513271378.686810: $GPGGA,170939,3946.9515,N,08404.9426,W,1,08,2.00,344.99,M,-33.324,M,,*75
2017-12-14 12:09:38 1513271378.686927: $GPRMC,170939,A,3946.9515,N,08404.9426,W,0.6846,184.197,141217,,*35
2017-12-14 12:09:38 1513271378.687015: $GPGSA,A,3,24,21,10,15,18,20,8,14,,,,,6.6,2.0,6.2*02
2017-12-14 12:09:39 1513271379.236329: $GPZDA,170940.00,14,12,2017,00,00*6F
2017-12-14 12:09:39 1513271379.236498: $GPGGA,170940,3946.9507,N,08404.9434,W,1,08,2.00,345.04,M,-33.324,M,,*7E
2017-12-14 12:09:39 1513271379.236563: $GPRMC,170940,A,3946.9507,N,08404.9434,W,0.7278,203.636,141217,,*3D
2017-12-14 12:09:39 1513271379.236624: $GPGSA,A,3,24,21,10,15,18,20,8,14,,,,,6.6,2.0,6.2*02
2017-12-14 12:09:40 1513271380.236436: $GPZDA,170941.00,14,12,2017,00,00*6E
2017-12-14 12:09:40 1513271380.236605: $GPGGA,170941,3946.9507,N,08404.9434,W,1,08,2.00,345.04,M,-33.324,M,,*7F
2017-12-14 12:09:40 1513271380.236672: $GPRMC,170941,A,3946.9507,N,08404.9434,W,0.4844,273.794,141217,,*34
2017-12-14 12:09:40 1513271380.236733: $GPGSA,A,3,24,21,10,15,18,20,8,14,,,,,6.6,2.0,6.2*02
2017-12-14 12:09:41 1513271381.571401: $GPGSV,3,1,12,24,49,117,30,21,67,192,24,10,38,298,24,15,41,051,20*71
2017-12-14 12:09:41 1513271381.571581: $GPGSV,3,2,12,18,69,330,18,20,37,093,17,08,04,325,09,14,01,231,11*7B
2017-12-14 12:09:41 1513271381.571646: $GPGSV,3,3,12,27,19,294,00,32,18,235,00,13,11,048,00,138,38,213,00*4B
2017-12-14 12:09:41 1513271381.684814: $GPZDA,170942.00,14,12,2017,00,00*6D
2017-12-14 12:09:41 1513271381.685000: $GPGGA,170942,3946.9503,N,08404.9434,W,1,08,2.00,344.40,M,-33.324,M,,*79
2017-12-14 12:09:41 1513271381.685082: $GPRMC,170942,A,3946.9503,N,08404.9434,W,0.2422,273.794,141217,,*39
2017-12-14 12:09:41 1513271381.685146: $GPGSA,A,3,24,21,10,15,18,20,8,14,,,,,6.6,2.0,6.2*02
2017-12-14 12:09:42 1513271382.237397: $GPZDA,170943.00,14,12,2017,00,00*6C
2017-12-14 12:09:42 1513271382.237713: $GPGGA,170943,3946.9503,N,08404.9434,W,1,08,2.00,344.40,M,-33.324,M,,*78
2017-12-14 12:09:42 1513271382.237838: $GPRMC,170943,A,3946.9503,N,08404.9434,W,0.5075,72.257,141217,,*00
2017-12-14 12:09:42 1513271382.237992: $GPGSA,A,3,24,21,10,15,18,20,8,14,,,,,6.6,2.0,6.2*02
2017-12-14 12:09:43 1513271383.237086: $GPZDA,170944.00,14,12,2017,00,00*6B
2017-12-14 12:09:43 1513271383.237242: $GPGGA,170944,3946.9503,N,08404.9434,W,1,08,2.00,344.40,M,-33.324,M,,*7F
2017-12-14 12:09:43 1513271383.237309: $GPRMC,170944,A,3946.9503,N,08404.9434,W,0.2422,93.794,141217,,*03
2017-12-14 12:09:43 1513271383.237371: $GPGSA,A,3,24,21,10,15,18,20,8,14,,,,,6.6,2.0,6.2*02
