2017-11-16 17:35:55 1510871755.580681: {"class":"VERSION","release":"3.17","rev":"3.17","proto_major":3,"proto_minor":12}
2017-11-16 17:35:55 1510871755.581140: {"class":"DEVICES","devices":[{"class":"DEVICE","path":"/dev/ttyUSB0","driver":"SiRF","subtype":"9\u0006GSD4e_4.1.2-P1_RPATCH.05-F-GPS-4R-1510281 11/03/2015 307","activated":"2017-11-16T22:35:55.559Z","flags":1,"native":1,"bps":4800,"parity":"N","stopbits":1,"cycle":1.00}]}
2017-11-16 17:35:55 1510871755.581253: {"class":"WATCH","enable":true,"json":false,"nmea":true,"raw":0,"scaled":false,"timing":false,"split24":false,"pps":false}
2017-11-16 17:35:56 1510871756.397253: $GPZDA,223555.00,16,11,2017,00,00*63
2017-11-16 17:35:56 1510871756.397420: $GPGGA,223555,3946.9576,N,08404.9841,W,2,12,0.80,303.26,M,-33.324,M,,*7B
2017-11-16 17:35:56 1510871756.397482: $GPRMC,223555,A,3946.9576,N,08404.9841,W,0.0000,0.000,161117,,*31
2017-11-16 17:35:56 1510871756.397538: $GPGSA,A,3,1,10,22,12,14,18,26,11,25,31,32,138,1.6,0.8,1.3*3A
2017-11-16 17:35:57 1510871757.733051: $GPGSV,3,1,12,01,21,300,29,10,47,148,46,22,19,312,40,12,22,049,49*70
2017-11-16 17:35:57 1510871757.733217: $GPGSV,3,2,12,14,66,330,47,18,17,144,41,26,03,183,27,11,08,280,39*76
2017-11-16 17:35:57 1510871757.733276: $GPGSV,3,3,12,25,40,088,49,31,56,226,47,32,68,030,50,138,38,213,44*48
2017-11-16 17:35:57 1510871757.846387: $GPZDA,223556.00,16,11,2017,00,00*60
2017-11-16 17:35:57 1510871757.846554: $GPGGA,223556,3946.9576,N,08404.9841,W,2,12,0.80,303.26,M,-33.324,M,,*78
2017-11-16 17:35:57 1510871757.846616: $GPRMC,223556,A,3946.9576,N,08404.9841,W,0.0000,0.000,161117,,*32
2017-11-16 17:35:57 1510871757.846672: $GPGSA,A,3,1,10,22,12,14,18,26,11,25,31,32,138,1.6,0.8,1.3*3A
2017-11-16 17:35:58 1510871758.418462: $GPZDA,223557.00,16,11,2017,00,00*61
2017-11-16 17:35:58 1510871758.418628: $GPGGA,223557,3946.9576,N,08404.9841,W,2,12,0.80,303.26,M,-33.324,M,,*79
2017-11-16 17:35:58 1510871758.418691: $GPRMC,223557,A,3946.9576,N,08404.9841,W,0.0000,0.000,161117,,*33
2017-11-16 17:35:58 1510871758.418746: $GPGSA,A,3,1,10,22,12,14,18,26,11,25,31,32,138,1.6,0.8,1.3*3A
2017-11-16 17:35:59 1510871759.419332: $GPZDA,223558.00,16,11,2017,00,00*6E
2017-11-16 17:35:59 1510871759.419500: $GPGGA,223558,3946.9576,N,08404.9841,W,2,12,0.80,303.26,M,-33.324,M,,*76
2017-11-16 17:35:59 1510871759.419561: $GPRMC,223558,A,3946.9576,N,08404.9841,W,0.0000,0.000,161117,,*3C
2017-11-16 17:35:59 1510871759.419617: $GPGSA,A,3,1,10,22,12,14,18,26,11,25,31,32,138,1.6,0.8,1.3*3A
2017-11-16 17:36:00 1510871760.733874: $GPGSV,3,1,12,01,21,300,30,10,47,148,46,22,19,312,40,12,22,049,49*78
2017-11-16 17:36:00 1510871760.755446: $GPGSV,3,2,12,14,66,330,47,18,17,144,40,26,03,183,28,11,08,280,39*78
2017-11-16 17:36:00 1510871760.755616: $GPGSV,3,3,12,25,40,088,49,31,56,226,48,32,68,030,50,138,38,213,44*47
2017-11-16 17:36:00 1510871760.847156: $GPZDA,223559.00,16,11,2017,00,00*6F
2017-11-16 17:36:00 1510871760.847318: $GPGGA,223559,3946.9576,N,08404.9841,W,2,12,0.80,303.26,M,-33.324,M,,*77
2017-11-16 17:36:00 1510871760.847379: $GPRMC,223559,A,3946.9576,N,08404.9841,W,0.0000,0.000,161117,,*3D
2017-11-16 17:36:00 1510871760.847435: $GPGSA,A,3,1,10,22,12,14,18,26,11,25,31,32,138,1.6,0.8,1.3*3A
2017-11-16 17:36:01 1510871761.472507: $GPZDA,223600.00,16,11,2017,00,00*60
2017-11-16 17:36:01 1510871761.472675: $GPGGA,223600,3946.9576,N,08404.9841,W,2,12,0.80,303.26,M,-33.324,M,,*78
2017-11-16 17:36:01 1510871761.472736: $GPRMC,223600,A,3946.9576,N,08404.9841,W,0.0000,0.000,161117,,*32
2017-11-16 17:36:01 1510871761.472793: $GPGSA,A,3,1,10,22,12,14,18,26,11,25,31,32,138,1.6,0.8,1.3*3A
2017-11-16 17:36:02 1510871762.390845: $GPZDA,223601.00,16,11,2017,00,00*61
2017-11-16 17:36:02 1510871762.391008: $GPGGA,223601,3946.9576,N,08404.9841,W,2,12,0.80,303.26,M,-33.324,M,,*79
2017-11-16 17:36:02 1510871762.391069: $GPRMC,223601,A,3946.9576,N,08404.9841,W,0.0000,0.000,161117,,*33
2017-11-16 17:36:02 1510871762.391125: $GPGSA,A,3,1,10,22,12,14,18,26,11,25,31,32,138,1.6,0.8,1.3*3A
2017-11-16 17:36:03 1510871763.755462: $GPGSV,3,1,12,01,21,300,31,10,47,148,46,22,19,312,40,12,22,049,49*79
2017-11-16 17:36:03 1510871763.755686: $GPGSV,3,2,12,14,66,330,47,18,17,144,41,26,03,183,28,11,08,280,38*78
2017-11-16 17:36:03 1510871763.755749: $GPGSV,3,3,12,25,40,088,48,31,56,226,48,32,68,030,50,138,38,213,43*41
2017-11-16 17:36:03 1510871763.868720: $GPZDA,223602.00,16,11,2017,00,00*62
2017-11-16 17:36:03 1510871763.868884: $GPGGA,223602,3946.9576,N,08404.9841,W,2,12,0.80,303.26,M,-33.324,M,,*7A
2017-11-16 17:36:03 1510871763.868945: $GPRMC,223602,A,3946.9576,N,08404.9841,W,0.0000,0.000,161117,,*30
2017-11-16 17:36:03 1510871763.869001: $GPGSA,A,3,1,10,22,12,14,18,26,11,25,31,32,138,1.6,0.8,1.3*3A
2017-11-16 17:36:04 1510871764.413468: $GPZDA,223603.00,16,11,2017,00,00*63
2017-11-16 17:36:04 1510871764.413664: $GPGGA,223603,3946.9576,N,08404.9841,W,2,12,0.80,303.26,M,-33.324,M,,*7B
2017-11-16 17:36:04 1510871764.413729: $GPRMC,223603,A,3946.9576,N,08404.9841,W,0.0000,0.000,161117,,*31
2017-11-16 17:36:04 1510871764.413786: $GPGSA,A,3,1,10,22,12,14,18,26,11,25,31,32,138,1.6,0.8,1.3*3A
2017-11-16 17:36:05 1510871765.398069: $GPZDA,223604.00,16,11,2017,00,00*64
2017-11-16 17:36:05 1510871765.398243: $GPGGA,223604,3946.9576,N,08404.9841,W,2,12,0.80,303.26,M,-33.324,M,,*7C
2017-11-16 17:36:05 1510871765.398304: $GPRMC,223604,A,3946.9576,N,08404.9841,W,0.0000,0.000,161117,,*36
2017-11-16 17:36:05 1510871765.398360: $GPGSA,A,3,1,10,22,12,14,18,26,11,25,31,32,138,1.6,0.8,1.3*3A
