2018-01-11 21:03:16 1515722596.206799: {"class":"VERSION","release":"3.16","rev":"3.16-4","proto_major":3,"proto_minor":11}
2018-01-11 21:03:16 1515722596.207152: {"class":"DEVICES","devices":[{"class":"DEVICE","path":"/dev/ttyUSB0","driver":"SiRF","subtype":"9\u0006GSD4e_4.1.2-P1_RPATCH.05-F-GPS-4R-1510281 11/03/2015 307","activated":"2018-01-12T02:03:16.176Z","flags":1,"native":1,"bps":4800,"parity":"N","stopbits":1,"cycle":1.00}]}
2018-01-11 21:03:16 1515722596.207268: {"class":"WATCH","enable":true,"json":false,"nmea":true,"raw":0,"scaled":false,"timing":false,"split24":false,"pps":false}
2018-01-11 21:03:16 1515722596.353735: $GPZDA,020317.00,12,01,2018,00,00*68
2018-01-11 21:03:16 1515722596.353892: $GPGGA,020317,3946.9592,N,08404.9843,W,2,12,0.80,296.55,M,-33.324,M,,*7B
2018-01-11 21:03:16 1515722596.353958: $GPRMC,020317,A,3946.9592,N,08404.9843,W,0.0000,0.000,120118,,*32
2018-01-11 21:03:16 1515722596.354020: $GPGSA,A,3,1,7,8,9,11,23,27,28,30,13,16,138,4.0,0.8,3.5*0D
2018-01-11 21:03:17 1515722597.690460: $GPGSV,3,1,12,01,18,151,44,07,79,309,43,08,65,054,47,09,27,210,42*71
2018-01-11 21:03:17 1515722597.690631: $GPGSV,3,2,12,11,42,157,45,23,07,181,31,27,26,045,50,28,30,277,31*7F
2018-01-11 21:03:17 1515722597.690699: $GPGSV,3,3,12,30,51,309,42,13,02,328,17,16,06,075,14,138,38,213,45*48
2018-01-11 21:03:17 1515722597.804076: $GPZDA,020318.00,12,01,2018,00,00*67
2018-01-11 21:03:17 1515722597.804203: $GPGGA,020318,3946.9592,N,08404.9843,W,2,12,0.80,296.55,M,-33.324,M,,*74
2018-01-11 21:03:17 1515722597.804268: $GPRMC,020318,A,3946.9592,N,08404.9843,W,0.0000,0.000,120118,,*3D
2018-01-11 21:03:17 1515722597.804327: $GPGSA,A,3,1,7,8,9,11,23,27,28,30,13,16,138,4.0,0.8,3.5*0D
2018-01-11 21:03:18 1515722598.354719: $GPZDA,020319.00,12,01,2018,00,00*66
2018-01-11 21:03:18 1515722598.354877: $GPGGA,020319,3946.9592,N,08404.9843,W,2,12,1.00,296.55,M,-33.324,M,,*7C
2018-01-11 21:03:18 1515722598.354945: $GPRMC,020319,A,3946.9592,N,08404.9843,W,0.0000,0.000,120118,,*3C
2018-01-11 21:03:18 1515722598.355008: $GPGSA,A,3,1,7,8,9,11,23,27,28,30,13,16,138,4.0,1.0,3.5*04
2018-01-11 21:03:19 1515722599.351325: $GPZDA,020320.00,12,01,2018,00,00*6C
2018-01-11 21:03:19 1515722599.351502: $GPGGA,020320,3946.9592,N,08404.9843,W,2,12,1.00,296.55,M,-33.324,M,,*76
2018-01-11 21:03:19 1515722599.351575: $GPRMC,020320,A,3946.9592,N,08404.9843,W,0.0000,0.000,120118,,*36
2018-01-11 21:03:19 1515722599.351637: $GPGSA,A,3,1,7,8,9,11,23,27,28,30,13,16,138,4.0,1.0,3.5*04
2018-01-11 21:03:20 1515722600.689601: $GPGSV,3,1,12,01,18,151,44,07,79,309,42,08,65,054,47,09,27,210,42*70
2018-01-11 21:03:20 1515722600.689783: $GPGSV,3,2,12,11,42,157,45,23,07,181,31,27,26,045,50,28,30,277,30*7E
2018-01-11 21:03:20 1515722600.689850: $GPGSV,3,3,12,30,51,309,42,13,02,328,16,16,06,075,13,138,38,213,45*4E
2018-01-11 21:03:20 1515722600.802917: $GPZDA,020321.00,12,01,2018,00,00*6D
2018-01-11 21:03:20 1515722600.803036: $GPGGA,020321,3946.9592,N,08404.9843,W,2,12,1.00,296.55,M,-33.324,M,,*77
2018-01-11 21:03:20 1515722600.803099: $GPRMC,020321,A,3946.9592,N,08404.9843,W,0.0000,0.000,120118,,*37
2018-01-11 21:03:20 1515722600.803160: $GPGSA,A,3,1,7,8,9,11,23,27,28,30,13,16,138,4.0,1.0,3.5*04
2018-01-11 21:03:21 1515722601.355324: $GPZDA,020322.00,12,01,2018,00,00*6E
2018-01-11 21:03:21 1515722601.355482: $GPGGA,020322,3946.9592,N,08404.9843,W,2,12,1.20,296.55,M,-33.324,M,,*76
2018-01-11 21:03:21 1515722601.355551: $GPRMC,020322,A,3946.9592,N,08404.9843,W,0.0000,0.000,120118,,*34
2018-01-11 21:03:21 1515722601.355610: $GPGSA,A,3,1,7,8,9,11,23,27,28,30,13,16,138,4.0,1.2,3.5*06
2018-01-11 21:03:22 1515722602.354953: $GPZDA,020323.00,12,01,2018,00,00*6F
2018-01-11 21:03:22 1515722602.355109: $GPGGA,020323,3946.9592,N,08404.9843,W,2,12,1.20,296.55,M,-33.324,M,,*77
2018-01-11 21:03:22 1515722602.355174: $GPRMC,020323,A,3946.9592,N,08404.9843,W,0.0000,0.000,120118,,*35
2018-01-11 21:03:22 1515722602.355234: $GPGSA,A,3,1,7,8,9,11,23,27,28,30,13,16,138,4.0,1.2,3.5*06
