2017-12-29 14:42:53 1514576573.771996: {"class":"VERSION","release":"3.16","rev":"3.16-4","proto_major":3,"proto_minor":11}
2017-12-29 14:42:53 1514576573.772348: {"class":"DEVICES","devices":[{"class":"DEVICE","path":"/dev/ttyUSB0","driver":"SiRF","subtype":"9\u0006GSD4e_4.1.2-P1_RPATCH.05-F-GPS-4R-1510281 11/03/2015 307","activated":"2017-12-29T19:42:53.525Z","flags":1,"native":1,"bps":4800,"parity":"N","stopbits":1,"cycle":1.00}]}
2017-12-29 14:42:53 1514576573.772461: {"class":"WATCH","enable":true,"json":false,"nmea":true,"raw":0,"scaled":false,"timing":false,"split24":false,"pps":false}
2017-12-29 14:42:54 1514576574.383091: $GPZDA,194255.00,29,12,2017,00,00*64
2017-12-29 14:42:54 1514576574.383249: $GPGGA,194255,3946.9592,N,08404.9837,W,2,12,0.80,298.03,M,-33.324,M,,*7C
2017-12-29 14:42:54 1514576574.383316: $GPRMC,194255,A,3946.9592,N,08404.9837,W,0.0000,0.000,291217,,*3D
2017-12-29 14:42:54 1514576574.383377: $GPGSA,A,3,1,10,11,12,14,18,22,25,31,32,26,138,1.7,0.8,1.3*3B
2017-12-29 14:42:55 1514576575.720976: $GPGSV,3,1,12,01,22,297,39,10,44,150,52,11,07,280,40,12,21,046,45*77
2017-12-29 14:42:55 1514576575.721210: $GPGSV,3,2,12,14,67,333,45,18,14,145,46,22,22,312,37,25,40,087,52*7C
2017-12-29 14:42:55 1514576575.721279: $GPGSV,3,3,12,31,61,228,49,32,67,039,50,26,06,181,32,138,38,213,44*4F
2017-12-29 14:42:55 1514576575.834608: $GPZDA,194256.00,29,12,2017,00,00*67
2017-12-29 14:42:55 1514576575.834812: $GPGGA,194256,3946.9592,N,08404.9837,W,2,12,0.80,298.03,M,-33.324,M,,*7F
2017-12-29 14:42:55 1514576575.834897: $GPRMC,194256,A,3946.9592,N,08404.9837,W,0.0000,0.000,291217,,*3E
2017-12-29 14:42:55 1514576575.834961: $GPGSA,A,3,1,10,11,12,14,18,22,25,31,32,26,138,1.7,0.8,1.3*3B
2017-12-29 14:42:56 1514576576.459992: $GPZDA,194257.00,29,12,2017,00,00*66
2017-12-29 14:42:56 1514576576.460151: $GPGGA,194257,3946.9592,N,08404.9837,W,2,12,0.80,298.03,M,-33.324,M,,*7E
2017-12-29 14:42:56 1514576576.460234: $GPRMC,194257,A,3946.9592,N,08404.9837,W,0.0000,0.000,291217,,*3F
2017-12-29 14:42:56 1514576576.460297: $GPGSA,A,3,1,10,11,12,14,18,22,25,31,32,26,138,1.7,0.8,1.3*3B
2017-12-29 14:42:57 1514576577.383353: $GPZDA,194258.00,29,12,2017,00,00*69
2017-12-29 14:42:57 1514576577.383516: $GPGGA,194258,3946.9592,N,08404.9830,W,2,12,0.80,298.11,M,-33.324,M,,*75
2017-12-29 14:42:57 1514576577.383582: $GPRMC,194258,A,3946.9592,N,08404.9830,W,0.0000,0.000,291217,,*37
2017-12-29 14:42:57 1514576577.383660: $GPGSA,A,3,1,10,11,12,14,18,22,25,31,32,26,138,1.7,0.8,1.3*3B
2017-12-29 14:42:58 1514576578.720066: $GPGSV,3,1,12,01,22,297,39,10,44,150,52,11,07,280,40,12,21,046,45*77
2017-12-29 14:42:58 1514576578.720237: $GPGSV,3,2,12,14,67,333,45,18,14,145,46,22,22,312,37,25,40,087,52*7C
2017-12-29 14:42:58 1514576578.720321: $GPGSV,3,3,12,31,61,228,49,32,67,039,50,26,06,181,32,138,38,213,45*4E
2017-12-29 14:42:58 1514576578.832498: $GPZDA,194259.00,29,12,2017,00,00*68
2017-12-29 14:42:58 1514576578.832665: $GPGGA,194259,3946.9592,N,08404.9830,W,2,12,0.80,298.11,M,-33.324,M,,*74
2017-12-29 14:42:58 1514576578.832753: $GPRMC,194259,A,3946.9592,N,08404.9830,W,0.0000,0.000,291217,,*36
2017-12-29 14:42:58 1514576578.832815: $GPGSA,A,3,1,10,11,12,14,18,22,25,31,32,26,138,1.7,0.8,1.3*3B
2017-12-29 14:42:59 1514576579.384583: $GPZDA,194300.00,29,12,2017,00,00*65
2017-12-29 14:42:59 1514576579.384778: $GPGGA,194300,3946.9592,N,08404.9830,W,2,12,0.80,298.11,M,-33.324,M,,*79
2017-12-29 14:42:59 1514576579.384889: $GPRMC,194300,A,3946.9592,N,08404.9830,W,0.0000,0.000,291217,,*3B
2017-12-29 14:42:59 1514576579.384952: $GPGSA,A,3,1,10,11,12,14,18,22,25,31,32,26,138,1.7,0.8,1.3*3B
2017-12-29 14:43:00 1514576580.384071: $GPZDA,194301.00,29,12,2017,00,00*64
2017-12-29 14:43:00 1514576580.384232: $GPGGA,194301,3946.9592,N,08404.9830,W,2,12,0.80,298.11,M,-33.324,M,,*78
2017-12-29 14:43:00 1514576580.384299: $GPRMC,194301,A,3946.9592,N,08404.9830,W,0.0000,0.000,291217,,*3A
2017-12-29 14:43:00 1514576580.384360: $GPGSA,A,3,1,10,11,12,14,18,22,25,31,32,26,138,1.7,0.8,1.3*3B
2017-12-29 14:43:00 1514576580.384419: $GPGBS,194301,2.73,M,2.59,M,7.72,M*3A
2017-12-29 14:43:01 1514576581.717777: $GPGSV,3,1,12,01,22,297,39,10,44,150,52,11,07,280,40,12,21,046,45*77
2017-12-29 14:43:01 1514576581.717942: $GPGSV,3,2,12,14,67,333,45,18,14,145,46,22,22,312,38,25,40,087,52*73
2017-12-29 14:43:01 1514576581.718026: $GPGSV,3,3,12,31,61,228,49,32,67,039,50,26,06,181,32,138,38,213,44*4F
2017-12-29 14:43:01 1514576581.831478: $GPZDA,194302.00,29,12,2017,00,00*67
2017-12-29 14:43:01 1514576581.831646: $GPGGA,194302,3946.9592,N,08404.9830,W,2,12,0.80,298.11,M,-33.324,M,,*7B
2017-12-29 14:43:01 1514576581.831750: $GPRMC,194302,A,3946.9592,N,08404.9830,W,0.0000,0.000,291217,,*39
2017-12-29 14:43:01 1514576581.831814: $GPGSA,A,3,1,10,11,12,14,18,22,25,31,32,26,138,1.7,0.8,1.3*3B
2017-12-29 14:43:02 1514576582.384872: $GPZDA,194303.00,29,12,2017,00,00*66
2017-12-29 14:43:02 1514576582.385038: $GPGGA,194303,3946.9592,N,08404.9830,W,2,12,0.80,298.11,M,-33.324,M,,*7A
2017-12-29 14:43:02 1514576582.385104: $GPRMC,194303,A,3946.9592,N,08404.9830,W,0.0000,0.000,291217,,*38
2017-12-29 14:43:02 1514576582.385165: $GPGSA,A,3,1,10,11,12,14,18,22,25,31,32,26,138,1.7,0.8,1.3*3B
2017-12-29 14:43:03 1514576583.383187: $GPZDA,194304.00,29,12,2017,00,00*61
2017-12-29 14:43:03 1514576583.383361: $GPGGA,194304,3946.9592,N,08404.9830,W,2,12,0.80,298.11,M,-33.324,M,,*7D
2017-12-29 14:43:03 1514576583.383428: $GPRMC,194304,A,3946.9592,N,08404.9830,W,0.0000,0.000,291217,,*3F
2017-12-29 14:43:03 1514576583.383488: $GPGSA,A,3,1,10,11,12,14,18,22,25,31,32,26,138,1.7,0.8,1.3*3B
