2017-12-31 18:09:34 1514761774.688541: {"class":"VERSION","release":"3.16","rev":"3.16-4","proto_major":3,"proto_minor":11}
2017-12-31 18:09:34 1514761774.688895: {"class":"DEVICES","devices":[{"class":"DEVICE","path":"/dev/ttyUSB0","driver":"SiRF","activated":"2017-12-31T23:09:34.663Z","flags":1,"native":1,"bps":4800,"parity":"N","stopbits":1,"cycle":1.00}]}
2017-12-31 18:09:34 1514761774.688995: {"class":"WATCH","enable":true,"json":false,"nmea":true,"raw":0,"scaled":false,"timing":false,"split24":false,"pps":false}
2017-12-31 18:09:35 1514761775.347953: $GPZDA,230936.00,31,12,2017,00,00*6E
2017-12-31 18:09:35 1514761775.348119: $GPGGA,230936,3946.9561,N,08404.9874,W,2,11,0.60,308.17,M,-33.324,M,,*74
2017-12-31 18:09:35 1514761775.348187: $GPRMC,230936,A,3946.9561,N,08404.9874,W,0.0000,0.000,311217,,*3C
2017-12-31 18:09:35 1514761775.348250: $GPGSA,A,3,22,23,9,3,16,29,14,31,27,26,135,,1.7,0.6,1.3*06
2017-12-31 18:09:36 1514761776.711167: $GPGSV,3,1,11,22,22,214,41,23,53,306,44,09,20,312,39,03,32,234,45*7C
2017-12-31 18:09:36 1514761776.711350: $GPGSV,3,2,11,16,80,189,44,29,05,031,33,14,15,133,38,31,29,075,40*7F
2017-12-31 18:09:36 1514761776.711416: $GPGSV,3,3,11,27,22,154,35,26,62,051,49,135,22,240,44*72
2017-12-31 18:09:36 1514761776.824545: $GPZDA,230937.00,31,12,2017,00,00*6F
2017-12-31 18:09:36 1514761776.824705: $GPGGA,230937,3946.9561,N,08404.9874,W,2,11,0.60,308.17,M,-33.324,M,,*75
2017-12-31 18:09:36 1514761776.824770: $GPRMC,230937,A,3946.9561,N,08404.9874,W,0.0000,0.000,311217,,*3D
2017-12-31 18:09:36 1514761776.824833: $GPGSA,A,3,22,23,9,3,16,29,14,31,27,26,135,,1.7,0.6,1.3*06
2017-12-31 18:09:37 1514761777.350353: $GPZDA,230938.00,31,12,2017,00,00*60
2017-12-31 18:09:37 1514761777.350504: $GPGGA,230938,3946.9561,N,08404.9874,W,2,11,0.60,308.17,M,-33.324,M,,*7A
2017-12-31 18:09:37 1514761777.350572: $GPRMC,230938,A,3946.9561,N,08404.9874,W,0.0000,0.000,311217,,*32
2017-12-31 18:09:37 1514761777.350635: $GPGSA,A,3,22,23,9,3,16,29,14,31,27,26,135,,1.7,0.6,1.3*06
2017-12-31 18:09:38 1514761778.347606: $GPZDA,230939.00,31,12,2017,00,00*61
2017-12-31 18:09:38 1514761778.347785: $GPGGA,230939,3946.9561,N,08404.9874,W,2,11,0.60,308.17,M,-33.324,M,,*7B
2017-12-31 18:09:38 1514761778.347854: $GPRMC,230939,A,3946.9561,N,08404.9874,W,0.0000,0.000,311217,,*33
2017-12-31 18:09:38 1514761778.347915: $GPGSA,A,3,22,23,9,3,16,29,14,31,27,26,135,,1.7,0.6,1.3*06
2017-12-31 18:09:39 1514761779.712008: $GPGSV,3,1,11,22,22,214,41,23,53,306,44,09,20,312,39,03,32,234,45*7C
2017-12-31 18:09:39 1514761779.712189: $GPGSV,3,2,11,16,80,189,44,29,05,031,37,14,15,133,37,31,29,075,40*74
2017-12-31 18:09:39 1514761779.712255: $GPGSV,3,3,11,27,22,154,35,26,62,051,49,135,22,240,44*72
2017-12-31 18:09:39 1514761779.824472: $GPZDA,230940.00,31,12,2017,00,00*6F
2017-12-31 18:09:39 1514761779.824644: $GPGGA,230940,3946.9561,N,08404.9874,W,2,11,0.60,308.17,M,-33.324,M,,*75
2017-12-31 18:09:39 1514761779.824708: $GPRMC,230940,A,3946.9561,N,08404.9874,W,0.0000,0.000,311217,,*3D
2017-12-31 18:09:39 1514761779.824769: $GPGSA,A,3,22,23,9,3,16,29,14,31,27,26,135,,1.7,0.6,1.3*06
2017-12-31 18:09:40 1514761780.451063: $GPZDA,230941.00,31,12,2017,00,00*6E
2017-12-31 18:09:40 1514761780.451207: $GPGGA,230941,3946.9561,N,08404.9874,W,2,11,0.60,308.17,M,-33.324,M,,*74
2017-12-31 18:09:40 1514761780.451274: $GPRMC,230941,A,3946.9561,N,08404.9874,W,0.0000,0.000,311217,,*3C
2017-12-31 18:09:40 1514761780.451334: $GPGSA,A,3,22,23,9,3,16,29,14,31,27,26,135,,1.7,0.6,1.3*06
2017-12-31 18:09:41 1514761781.349483: $GPZDA,230942.00,31,12,2017,00,00*6D
2017-12-31 18:09:41 1514761781.349660: $GPGGA,230942,3946.9561,N,08404.9874,W,2,11,0.60,308.17,M,-33.324,M,,*77
2017-12-31 18:09:41 1514761781.349727: $GPRMC,230942,A,3946.9561,N,08404.9874,W,0.0000,0.000,311217,,*3F
2017-12-31 18:09:41 1514761781.349787: $GPGSA,A,3,22,23,9,3,16,29,14,31,27,26,135,,1.7,0.6,1.3*06
2017-12-31 18:09:42 1514761782.711166: $GPGSV,3,1,11,22,22,214,41,23,53,306,44,09,20,312,38,03,32,234,44*7C
2017-12-31 18:09:42 1514761782.711344: $GPGSV,3,2,11,16,80,189,44,29,05,031,36,14,15,133,37,31,29,075,40*75
2017-12-31 18:09:42 1514761782.711465: $GPGSV,3,3,11,27,22,154,35,26,62,051,50,135,22,240,43*7D
2017-12-31 18:09:42 1514761782.824743: $GPZDA,230943.00,31,12,2017,00,00*6C
2017-12-31 18:09:42 1514761782.824880: $GPGGA,230943,3946.9561,N,08404.9874,W,2,11,0.60,308.17,M,-33.324,M,,*76
2017-12-31 18:09:42 1514761782.824946: $GPRMC,230943,A,3946.9561,N,08404.9874,W,0.0000,0.000,311217,,*3E
2017-12-31 18:09:42 1514761782.825006: $GPGSA,A,3,22,23,9,3,16,29,14,31,27,26,135,,1.7,0.6,1.3*06
2017-12-31 18:09:43 1514761783.370669: $GPZDA,230944.00,31,12,2017,00,00*6B
2017-12-31 18:09:43 1514761783.370837: $GPGGA,230944,3946.9561,N,08404.9874,W,2,11,0.60,308.17,M,-33.324,M,,*71
2017-12-31 18:09:43 1514761783.370904: $GPRMC,230944,A,3946.9561,N,08404.9874,W,0.0000,0.000,311217,,*39
2017-12-31 18:09:43 1514761783.370965: $GPGSA,A,3,22,23,9,3,16,29,14,31,27,26,135,,1.7,0.6,1.3*06
2017-12-31 18:09:44 1514761784.375037: $GPZDA,230945.00,31,12,2017,00,00*6A
2017-12-31 18:09:44 1514761784.375196: $GPGGA,230945,3946.9561,N,08404.9874,W,2,11,0.60,308.17,M,-33.324,M,,*70
2017-12-31 18:09:44 1514761784.375279: $GPRMC,230945,A,3946.9561,N,08404.9874,W,0.0000,0.000,311217,,*38
2017-12-31 18:09:44 1514761784.375342: $GPGSA,A,3,22,23,9,3,16,29,14,31,27,26,135,,1.7,0.6,1.3*06
