2017-12-29 10:38:40 1514561920.198895: {"class":"VERSION","release":"3.16","rev":"3.16-4","proto_major":3,"proto_minor":11}
2017-12-29 10:38:40 1514561920.199343: {"class":"DEVICES","devices":[{"class":"DEVICE","path":"/dev/ttyUSB0","driver":"SiRF","subtype":"9\u0006GSD4e_4.1.2-P1_RPATCH.05-F-GPS-4R-1510281 11/03/2015 307","activated":"2017-12-29T15:38:40.165Z","flags":1,"native":1,"bps":4800,"parity":"N","stopbits":1,"cycle":1.00}]}
2017-12-29 10:38:40 1514561920.199461: {"class":"WATCH","enable":true,"json":false,"nmea":true,"raw":0,"scaled":false,"timing":false,"split24":false,"pps":false}
2017-12-29 10:38:40 1514561920.343633: $GPZDA,153841.00,29,12,2017,00,00*60
2017-12-29 10:38:40 1514561920.343832: $GPGGA,153841,3946.9590,N,08404.9806,W,2,11,0.80,304.81,M,-33.324,M,,*75
2017-12-29 10:38:40 1514561920.343899: $GPRMC,153841,A,3946.9590,N,08404.9806,W,0.0000,0.000,291217,,*39
2017-12-29 10:38:40 1514561920.343960: $GPGSA,A,3,10,13,15,18,20,21,24,27,29,32,138,,1.7,0.8,1.3*02
2017-12-29 10:38:41 1514561921.343263: $GPZDA,153842.00,29,12,2017,00,00*63
2017-12-29 10:38:41 1514561921.343416: $GPGGA,153842,3946.9590,N,08404.9806,W,2,11,0.80,304.81,M,-33.324,M,,*76
2017-12-29 10:38:41 1514561921.343482: $GPRMC,153842,A,3946.9590,N,08404.9806,W,0.0000,0.000,291217,,*3A
2017-12-29 10:38:41 1514561921.343542: $GPGSA,A,3,10,13,15,18,20,21,24,27,29,32,138,,1.7,0.8,1.3*02
2017-12-29 10:38:42 1514561922.678704: $GPGSV,3,1,11,10,28,288,44,13,23,045,45,15,54,049,50,18,60,309,43*7E
2017-12-29 10:38:42 1514561922.678882: $GPGSV,3,2,11,20,48,079,48,21,78,231,47,24,39,132,49,27,18,307,41*77
2017-12-29 10:38:42 1514561922.678948: $GPGSV,3,3,11,29,05,187,35,32,07,228,26,138,38,213,44*74
2017-12-29 10:38:42 1514561922.792419: $GPZDA,153843.00,29,12,2017,00,00*62
2017-12-29 10:38:42 1514561922.792569: $GPGGA,153843,3946.9590,N,08404.9806,W,2,11,0.80,304.81,M,-33.324,M,,*77
2017-12-29 10:38:42 1514561922.792657: $GPRMC,153843,A,3946.9590,N,08404.9806,W,0.0000,0.000,291217,,*3B
2017-12-29 10:38:42 1514561922.792720: $GPGSA,A,3,10,13,15,18,20,21,24,27,29,32,138,,1.7,0.8,1.3*02
2017-12-29 10:38:43 1514561923.344466: $GPZDA,153844.00,29,12,2017,00,00*65
2017-12-29 10:38:43 1514561923.344648: $GPGGA,153844,3946.9590,N,08404.9806,W,2,11,0.80,304.81,M,-33.324,M,,*70
2017-12-29 10:38:43 1514561923.344715: $GPRMC,153844,A,3946.9590,N,08404.9806,W,0.0000,0.000,291217,,*3C
2017-12-29 10:38:43 1514561923.344793: $GPGSA,A,3,10,13,15,18,20,21,24,27,29,32,138,,1.7,0.8,1.3*02
2017-12-29 10:38:44 1514561924.342398: $GPZDA,153845.00,29,12,2017,00,00*64
2017-12-29 10:38:44 1514561924.349249: $GPGGA,153845,3946.9590,N,08404.9806,W,2,11,0.80,304.81,M,-33.324,M,,*71
2017-12-29 10:38:44 1514561924.349357: $GPRMC,153845,A,3946.9590,N,08404.9806,W,0.0000,0.000,291217,,*3D
2017-12-29 10:38:44 1514561924.349421: $GPGSA,A,3,10,13,15,18,20,21,24,27,29,32,138,,1.7,0.8,1.3*02
2017-12-29 10:38:45 1514561925.672812: $GPGSV,3,1,11,10,28,288,44,13,23,045,45,15,54,049,50,18,60,309,42*7F
2017-12-29 10:38:45 1514561925.672973: $GPGSV,3,2,11,20,48,079,48,21,78,231,47,24,39,132,49,27,18,307,40*76
2017-12-29 10:38:45 1514561925.673038: $GPGSV,3,3,11,29,05,187,36,32,07,228,32,138,38,213,45*73
2017-12-29 10:38:45 1514561925.786427: $GPZDA,153846.00,29,12,2017,00,00*67
2017-12-29 10:38:45 1514561925.786558: $GPGGA,153846,3946.9590,N,08404.9806,W,2,11,0.80,304.81,M,-33.324,M,,*72
2017-12-29 10:38:45 1514561925.786644: $GPRMC,153846,A,3946.9590,N,08404.9806,W,0.0000,0.000,291217,,*3E
2017-12-29 10:38:45 1514561925.786706: $GPGSA,A,3,10,13,15,18,20,21,24,27,29,32,138,,1.7,0.8,1.3*02
2017-12-29 10:38:46 1514561926.343323: $GPZDA,153847.00,29,12,2017,00,00*66
2017-12-29 10:38:46 1514561926.343496: $GPGGA,153847,3946.9590,N,08404.9806,W,2,11,0.80,304.81,M,-33.324,M,,*73
2017-12-29 10:38:46 1514561926.343564: $GPRMC,153847,A,3946.9590,N,08404.9806,W,0.0000,0.000,291217,,*3F
2017-12-29 10:38:46 1514561926.343651: $GPGSA,A,3,10,13,15,18,20,21,24,27,29,32,138,,1.7,0.8,1.3*02
2017-12-29 10:38:47 1514561927.342952: $GPZDA,153848.00,29,12,2017,00,00*69
2017-12-29 10:38:47 1514561927.343124: $GPGGA,153848,3946.9590,N,08404.9806,W,2,11,0.80,304.81,M,-33.324,M,,*7C
2017-12-29 10:38:47 1514561927.343247: $GPRMC,153848,A,3946.9590,N,08404.9806,W,0.0000,0.000,291217,,*30
2017-12-29 10:38:47 1514561927.343310: $GPGSA,A,3,10,13,15,18,20,21,24,27,29,32,138,,1.7,0.8,1.3*02
2017-12-29 10:38:48 1514561928.678641: $GPGSV,3,1,11,10,28,288,44,13,23,045,45,15,54,049,50,18,60,309,42*7F
2017-12-29 10:38:48 1514561928.678811: $GPGSV,3,2,11,20,48,079,48,21,78,231,47,24,39,132,50,27,18,307,40*7E
2017-12-29 10:38:48 1514561928.678878: $GPGSV,3,3,11,29,05,187,36,32,07,228,33,138,38,213,44*73
2017-12-29 10:38:48 1514561928.792334: $GPZDA,153849.00,29,12,2017,00,00*68
2017-12-29 10:38:48 1514561928.792455: $GPGGA,153849,3946.9594,N,08404.9806,W,2,11,0.80,305.45,M,-33.324,M,,*70
2017-12-29 10:38:48 1514561928.792520: $GPRMC,153849,A,3946.9594,N,08404.9806,W,0.0000,0.000,291217,,*35
2017-12-29 10:38:48 1514561928.792602: $GPGSA,A,3,10,13,15,18,20,21,24,27,29,32,138,,1.7,0.8,1.3*02
2017-12-29 10:38:49 1514561929.417664: $GPZDA,153850.00,29,12,2017,00,00*60
2017-12-29 10:38:49 1514561929.419829: $GPGGA,153850,3946.9591,N,08404.9807,W,2,11,0.80,306.21,M,-33.324,M,,*7D
2017-12-29 10:38:49 1514561929.419926: $GPRMC,153850,A,3946.9591,N,08404.9807,W,0.0000,0.000,291217,,*39
2017-12-29 10:38:49 1514561929.420047: $GPGSA,A,3,10,13,15,18,20,21,24,27,29,32,138,,1.7,0.8,1.3*02
