2017-11-16 17:16:20 1510870580.311078: {"class":"VERSION","release":"3.17","rev":"3.17","proto_major":3,"proto_minor":12}
2017-11-16 17:16:20 1510870580.311571: {"class":"DEVICES","devices":[{"class":"DEVICE","path":"/dev/ttyUSB0","driver":"SiRF","subtype":"9\u0006GSD4e_4.1.2-P1_RPATCH.05-F-GPS-4R-1510281 11/03/2015 307","activated":"2017-11-16T22:16:20.281Z","flags":1,"native":1,"bps":4800,"parity":"N","stopbits":1,"cycle":1.00}]}
2017-11-16 17:16:20 1510870580.311689: {"class":"WATCH","enable":true,"json":false,"nmea":true,"raw":0,"scaled":false,"timing":false,"split24":false,"pps":false}
2017-11-16 17:16:20 1510870580.394882: $GPZDA,221619.00,16,11,2017,00,00*6A
2017-11-16 17:16:20 1510870580.395091: $GPGGA,221619,3946.9567,N,08404.9826,W,2,11,0.80,311.41,M,-33.324,M,,*72
2017-11-16 17:16:20 1510870580.395159: $GPRMC,221619,A,3946.9567,N,08404.9826,W,0.0000,0.000,161117,,*39
2017-11-16 17:16:20 1510870580.395216: $GPGSA,A,3,1,10,22,12,14,18,11,25,31,32,138,,1.6,0.8,1.3*3E
2017-11-16 17:16:21 1510870581.736164: $GPGSV,3,1,12,01,20,307,38,10,56,144,48,22,13,312,37,12,24,057,48*76
2017-11-16 17:16:21 1510870581.736335: $GPGSV,3,2,12,14,63,313,47,18,25,141,43,24,03,048,00,11,10,288,37*7A
2017-11-16 17:16:21 1510870581.736396: $GPGSV,3,3,12,25,37,100,47,31,48,219,49,32,70,006,49,138,38,213,44*4E
2017-11-16 17:16:21 1510870581.849565: $GPZDA,221620.00,16,11,2017,00,00*60
2017-11-16 17:16:21 1510870581.849730: $GPGGA,221620,3946.9567,N,08404.9826,W,2,11,0.80,311.41,M,-33.324,M,,*78
2017-11-16 17:16:21 1510870581.849792: $GPRMC,221620,A,3946.9567,N,08404.9826,W,0.0000,0.000,161117,,*33
2017-11-16 17:16:21 1510870581.849847: $GPGSA,A,3,1,10,22,12,14,18,11,25,31,32,138,,1.6,0.8,1.3*3E
2017-11-16 17:16:22 1510870582.400596: $GPZDA,221621.00,16,11,2017,00,00*61
2017-11-16 17:16:22 1510870582.400760: $GPGGA,221621,3946.9567,N,08404.9826,W,2,11,0.80,311.41,M,-33.324,M,,*79
2017-11-16 17:16:22 1510870582.400820: $GPRMC,221621,A,3946.9567,N,08404.9826,W,0.0000,0.000,161117,,*32
2017-11-16 17:16:22 1510870582.400876: $GPGSA,A,3,1,10,22,12,14,18,11,25,31,32,138,,1.6,0.8,1.3*3E
2017-11-16 17:16:23 1510870583.400388: $GPZDA,221622.00,16,11,2017,00,00*62
2017-11-16 17:16:23 1510870583.400570: $GPGGA,221622,3946.9567,N,08404.9826,W,2,11,0.80,311.41,M,-33.324,M,,*7A
2017-11-16 17:16:23 1510870583.400632: $GPRMC,221622,A,3946.9567,N,08404.9826,W,0.0000,0.000,161117,,*31
2017-11-16 17:16:23 1510870583.400688: $GPGSA,A,3,1,10,22,12,14,18,11,25,31,32,138,,1.6,0.8,1.3*3E
2017-11-16 17:16:24 1510870584.737070: $GPGSV,3,1,12,01,20,307,38,10,56,144,48,22,13,312,36,12,24,057,48*77
2017-11-16 17:16:24 1510870584.737240: $GPGSV,3,2,12,14,63,313,47,18,25,141,43,24,03,048,00,11,10,288,38*75
2017-11-16 17:16:24 1510870584.737302: $GPGSV,3,3,12,25,37,100,48,31,48,219,49,32,70,006,49,138,38,213,44*41
2017-11-16 17:16:24 1510870584.849442: $GPZDA,221623.00,16,11,2017,00,00*63
2017-11-16 17:16:24 1510870584.849614: $GPGGA,221623,3946.9567,N,08404.9826,W,2,11,0.80,311.41,M,-33.324,M,,*7B
2017-11-16 17:16:24 1510870584.849676: $GPRMC,221623,A,3946.9567,N,08404.9826,W,0.0000,0.000,161117,,*30
2017-11-16 17:16:24 1510870584.849732: $GPGSA,A,3,1,10,22,12,14,18,11,25,31,32,138,,1.6,0.8,1.3*3E
2017-11-16 17:16:25 1510870585.401604: $GPZDA,221624.00,16,11,2017,00,00*64
2017-11-16 17:16:25 1510870585.401763: $GPGGA,221624,3946.9567,N,08404.9826,W,2,11,0.80,311.41,M,-33.324,M,,*7C
2017-11-16 17:16:25 1510870585.401824: $GPRMC,221624,A,3946.9567,N,08404.9826,W,0.0000,0.000,161117,,*37
2017-11-16 17:16:25 1510870585.401899: $GPGSA,A,3,1,10,22,12,14,18,11,25,31,32,138,,1.6,0.8,1.3*3E
2017-11-16 17:16:26 1510870586.402531: $GPZDA,221625.00,16,11,2017,00,00*65
2017-11-16 17:16:26 1510870586.402702: $GPGGA,221625,3946.9567,N,08404.9826,W,2,11,0.80,311.41,M,-33.324,M,,*7D
2017-11-16 17:16:26 1510870586.402764: $GPRMC,221625,A,3946.9567,N,08404.9826,W,0.0000,0.000,161117,,*36
2017-11-16 17:16:26 1510870586.402820: $GPGSA,A,3,1,10,22,12,14,18,11,25,31,32,138,,1.6,0.8,1.3*3E
2017-11-16 17:16:27 1510870587.731144: $GPGSV,3,1,12,01,20,307,37,10,56,144,48,22,13,312,36,12,24,057,49*79
2017-11-16 17:16:27 1510870587.731361: $GPGSV,3,2,12,14,63,313,46,18,25,141,44,24,03,048,00,11,10,288,37*7C
2017-11-16 17:16:27 1510870587.731422: $GPGSV,3,3,12,25,37,100,47,31,48,219,49,32,70,006,49,138,38,213,43*49
2017-11-16 17:16:27 1510870587.844500: $GPZDA,221626.00,16,11,2017,00,00*66
2017-11-16 17:16:27 1510870587.844665: $GPGGA,221626,3946.9567,N,08404.9826,W,2,11,0.80,311.41,M,-33.324,M,,*7E
2017-11-16 17:16:27 1510870587.844727: $GPRMC,221626,A,3946.9567,N,08404.9826,W,0.0000,0.000,161117,,*35
2017-11-16 17:16:27 1510870587.844783: $GPGSA,A,3,1,10,22,12,14,18,11,25,31,32,138,,1.6,0.8,1.3*3E
2017-11-16 17:16:28 1510870588.395664: $GPZDA,221627.00,16,11,2017,00,00*67
2017-11-16 17:16:28 1510870588.395846: $GPGGA,221627,3946.9567,N,08404.9826,W,2,11,0.80,311.41,M,-33.324,M,,*7F
2017-11-16 17:16:28 1510870588.395917: $GPRMC,221627,A,3946.9567,N,08404.9826,W,0.0000,0.000,161117,,*34
2017-11-16 17:16:28 1510870588.395980: $GPGSA,A,3,1,10,22,12,14,18,11,25,31,32,138,,1.6,0.8,1.3*3E
2017-11-16 17:16:29 1510870589.401238: $GPZDA,221628.00,16,11,2017,00,00*68
2017-11-16 17:16:29 1510870589.401410: $GPGGA,221628,3946.9567,N,08404.9826,W,2,11,0.80,311.41,M,-33.324,M,,*70
2017-11-16 17:16:29 1510870589.401476: $GPRMC,221628,A,3946.9567,N,08404.9826,W,0.0000,0.000,161117,,*3B
2017-11-16 17:16:29 1510870589.401535: $GPGSA,A,3,1,10,22,12,14,18,11,25,31,32,138,,1.6,0.8,1.3*3E
