2017-12-01 14:03:25 1512155005.957710: {"class":"VERSION","release":"3.16","rev":"3.16-4","proto_major":3,"proto_minor":11}
2017-12-01 14:03:25 1512155005.958087: {"class":"DEVICES","devices":[{"class":"DEVICE","path":"/dev/ttyUSB0","driver":"SiRF","subtype":"9\u0006GSD4e_4.1.2-P1_RPATCH.05-F-GPS-4R-1510281 11/03/2015 307","activated":"2017-12-01T19:03:25.711Z","flags":1,"native":1,"bps":4800,"parity":"N","stopbits":1,"cycle":1.00}]}
2017-12-01 14:03:25 1512155005.958197: {"class":"WATCH","enable":true,"json":false,"nmea":true,"raw":0,"scaled":false,"timing":false,"split24":false,"pps":false}
2017-12-01 14:03:26 1512155006.734024: $GPGSV,3,1,12,10,61,321,49,14,22,246,40,15,18,061,39,18,76,066,43*7D
2017-12-01 14:03:26 1512155006.734208: $GPGSV,3,2,12,20,16,112,41,21,38,180,45,24,50,070,48,27,11,267,38*7C
2017-12-01 14:03:26 1512155006.734275: $GPGSV,3,3,12,32,39,256,44,08,08,301,26,12,04,114,00,138,38,213,47*47
2017-12-01 14:03:26 1512155006.847532: $GPZDA,190327.00,01,12,2017,00,00*6E
2017-12-01 14:03:26 1512155006.847715: $GPGGA,190327,3946.9568,N,08404.9842,W,2,11,0.80,303.38,M,-33.324,M,,*73
2017-12-01 14:03:26 1512155006.847784: $GPRMC,190327,A,3946.9568,N,08404.9842,W,0.0000,0.000,011217,,*30
2017-12-01 14:03:26 1512155006.847845: $GPGSA,A,3,10,14,15,18,20,21,24,27,32,8,138,,2.0,0.8,1.5*34
2017-12-01 14:03:27 1512155007.400824: $GPZDA,190328.00,01,12,2017,00,00*61
2017-12-01 14:03:27 1512155007.400996: $GPGGA,190328,3946.9568,N,08404.9842,W,2,11,0.80,303.38,M,-33.324,M,,*7C
2017-12-01 14:03:27 1512155007.401064: $GPRMC,190328,A,3946.9568,N,08404.9842,W,0.0000,0.000,011217,,*3F
2017-12-01 14:03:27 1512155007.401125: $GPGSA,A,3,10,14,15,18,20,21,24,27,32,8,138,,2.0,0.8,1.5*34
2017-12-01 14:03:28 1512155008.399433: $GPZDA,190329.00,01,12,2017,00,00*60
2017-12-01 14:03:28 1512155008.399619: $GPGGA,190329,3946.9568,N,08404.9842,W,2,11,0.80,303.38,M,-33.324,M,,*7D
2017-12-01 14:03:28 1512155008.399703: $GPRMC,190329,A,3946.9568,N,08404.9842,W,0.0000,0.000,011217,,*3E
2017-12-01 14:03:28 1512155008.399765: $GPGSA,A,3,10,14,15,18,20,21,24,27,32,8,138,,2.0,0.8,1.5*34
2017-12-01 14:03:29 1512155009.733720: $GPGSV,3,1,12,10,61,321,49,14,22,246,40,15,18,061,39,18,76,066,43*7D
2017-12-01 14:03:29 1512155009.733904: $GPGSV,3,2,12,20,16,112,41,21,38,180,45,24,50,070,48,27,11,267,37*73
2017-12-01 14:03:29 1512155009.733970: $GPGSV,3,3,12,32,39,256,44,08,08,301,20,12,04,114,09,138,38,213,46*49
2017-12-01 14:03:29 1512155009.849229: $GPZDA,190330.00,01,12,2017,00,00*68
2017-12-01 14:03:29 1512155009.849547: $GPGGA,190330,3946.9568,N,08404.9842,W,2,11,0.80,303.38,M,-33.324,M,,*75
2017-12-01 14:03:29 1512155009.849676: $GPRMC,190330,A,3946.9568,N,08404.9842,W,0.0000,0.000,011217,,*36
2017-12-01 14:03:29 1512155009.849796: $GPGSA,A,3,10,14,15,18,20,21,24,27,32,8,138,,2.0,0.8,1.5*34
2017-12-01 14:03:30 1512155010.399574: $GPZDA,190331.00,01,12,2017,00,00*69
2017-12-01 14:03:30 1512155010.399760: $GPGGA,190331,3946.9568,N,08404.9842,W,2,11,0.80,303.38,M,-33.324,M,,*74
2017-12-01 14:03:30 1512155010.399827: $GPRMC,190331,A,3946.9568,N,08404.9842,W,0.0000,0.000,011217,,*37
2017-12-01 14:03:30 1512155010.399888: $GPGSA,A,3,10,14,15,18,20,21,24,27,32,8,138,,2.0,0.8,1.5*34
2017-12-01 14:03:31 1512155011.395749: $GPZDA,190332.00,01,12,2017,00,00*6A
2017-12-01 14:03:31 1512155011.395921: $GPGGA,190332,3946.9568,N,08404.9842,W,2,11,0.80,303.38,M,-33.324,M,,*77
2017-12-01 14:03:31 1512155011.395987: $GPRMC,190332,A,3946.9568,N,08404.9842,W,0.0000,0.000,011217,,*34
2017-12-01 14:03:31 1512155011.396048: $GPGSA,A,3,10,14,15,18,20,21,24,27,32,8,138,,2.0,0.8,1.5*34
2017-12-01 14:03:32 1512155012.731894: $GPGSV,3,1,12,10,61,321,49,14,22,246,40,15,18,061,39,18,76,066,43*7D
2017-12-01 14:03:32 1512155012.732098: $GPGSV,3,2,12,20,16,112,41,21,38,180,45,24,50,070,48,27,11,267,37*73
2017-12-01 14:03:32 1512155012.732192: $GPGSV,3,3,12,32,39,256,44,08,08,301,20,12,04,114,21,138,38,213,47*42
2017-12-01 14:03:32 1512155012.845281: $GPZDA,190333.00,01,12,2017,00,00*6B
2017-12-01 14:03:32 1512155012.845449: $GPGGA,190333,3946.9568,N,08404.9842,W,2,12,0.80,303.38,M,-33.324,M,,*75
2017-12-01 14:03:32 1512155012.845587: $GPRMC,190333,A,3946.9568,N,08404.9842,W,0.0000,0.000,011217,,*35
2017-12-01 14:03:32 1512155012.845668: $GPGSA,A,3,10,14,15,18,20,21,24,27,32,8,12,138,2.0,0.8,1.5*37
2017-12-01 14:03:33 1512155013.397392: $GPZDA,190334.00,01,12,2017,00,00*6C
2017-12-01 14:03:33 1512155013.397586: $GPGGA,190334,3946.9568,N,08404.9842,W,2,12,0.80,303.38,M,-33.324,M,,*72
2017-12-01 14:03:33 1512155013.397672: $GPRMC,190334,A,3946.9568,N,08404.9842,W,0.0000,0.000,011217,,*32
2017-12-01 14:03:33 1512155013.397734: $GPGSA,A,3,10,14,15,18,20,21,24,27,32,8,12,138,2.0,0.8,1.5*37
2017-12-01 14:03:34 1512155014.397033: $GPZDA,190335.00,01,12,2017,00,00*6D
2017-12-01 14:03:34 1512155014.397208: $GPGGA,190335,3946.9568,N,08404.9842,W,2,12,0.80,303.38,M,-33.324,M,,*73
2017-12-01 14:03:34 1512155014.397274: $GPRMC,190335,A,3946.9568,N,08404.9842,W,0.0000,0.000,011217,,*33
2017-12-01 14:03:34 1512155014.397334: $GPGSA,A,3,10,14,15,18,20,21,24,27,32,8,12,138,2.0,0.8,1.5*37
2017-12-01 14:03:35 1512155015.733643: $GPGSV,3,1,12,10,61,321,49,14,22,246,40,15,18,061,39,18,76,066,43*7D
2017-12-01 14:03:35 1512155015.733824: $GPGSV,3,2,12,20,16,112,41,21,38,180,45,24,50,070,48,27,11,267,37*73
2017-12-01 14:03:35 1512155015.733890: $GPGSV,3,3,12,32,39,256,43,08,08,301,30,12,04,114,22,138,38,213,47*47
2017-12-01 14:03:35 1512155015.846952: $GPZDA,190336.00,01,12,2017,00,00*6E
2017-12-01 14:03:35 1512155015.847097: $GPGGA,190336,3946.9568,N,08404.9842,W,2,12,0.80,303.38,M,-33.324,M,,*70
2017-12-01 14:03:35 1512155015.847163: $GPRMC,190336,A,3946.9568,N,08404.9842,W,0.0000,0.000,011217,,*30
2017-12-01 14:03:35 1512155015.847223: $GPGSA,A,3,10,14,15,18,20,21,24,27,32,8,12,138,2.0,0.8,1.5*37
2017-12-01 14:03:36 1512155016.472453: $GPZDA,190337.00,01,12,2017,00,00*6F
2017-12-01 14:03:36 1512155016.472648: $GPGGA,190337,3946.9568,N,08404.9842,W,2,12,0.80,303.38,M,-33.324,M,,*71
2017-12-01 14:03:36 1512155016.472715: $GPRMC,190337,A,3946.9568,N,08404.9842,W,0.0000,0.000,011217,,*31
2017-12-01 14:03:36 1512155016.472777: $GPGSA,A,3,10,14,15,18,20,21,24,27,32,8,12,138,2.0,0.8,1.5*37
2017-12-01 14:03:37 1512155017.398251: $GPZDA,190338.00,01,12,2017,00,00*60
2017-12-01 14:03:37 1512155017.398437: $GPGGA,190338,3946.9568,N,08404.9842,W,2,12,0.80,303.38,M,-33.324,M,,*7E
2017-12-01 14:03:37 1512155017.401385: $GPRMC,190338,A,3946.9568,N,08404.9842,W,0.0000,0.000,011217,,*3E
2017-12-01 14:03:37 1512155017.401495: $GPGSA,A,3,10,14,15,18,20,21,24,27,32,8,12,138,2.0,0.8,1.5*37
2017-12-01 14:03:38 1512155018.732698: $GPGSV,3,1,12,10,61,321,49,14,22,246,40,15,18,061,39,18,76,066,43*7D
2017-12-01 14:03:38 1512155018.732882: $GPGSV,3,2,12,20,16,112,41,21,38,180,45,24,50,070,48,27,11,267,38*7C
2017-12-01 14:03:38 1512155018.732948: $GPGSV,3,3,12,32,39,256,43,08,08,301,24,12,04,114,23,138,38,213,47*43
2017-12-01 14:03:38 1512155018.846285: $GPZDA,190339.00,01,12,2017,00,00*61
2017-12-01 14:03:38 1512155018.846507: $GPGGA,190339,3946.9568,N,08404.9842,W,2,12,0.80,303.38,M,-33.324,M,,*7F
2017-12-01 14:03:38 1512155018.846632: $GPRMC,190339,A,3946.9568,N,08404.9842,W,0.0000,0.000,011217,,*3F
2017-12-01 14:03:38 1512155018.846696: $GPGSA,A,3,10,14,15,18,20,21,24,27,32,8,12,138,2.0,0.8,1.5*37
2017-12-01 14:03:39 1512155019.398217: $GPZDA,190340.00,01,12,2017,00,00*6F
2017-12-01 14:03:39 1512155019.398393: $GPGGA,190340,3946.9568,N,08404.9842,W,2,12,0.80,303.38,M,-33.324,M,,*71
2017-12-01 14:03:39 1512155019.398484: $GPRMC,190340,A,3946.9568,N,08404.9842,W,0.0000,0.000,011217,,*31
2017-12-01 14:03:39 1512155019.398547: $GPGSA,A,3,10,14,15,18,20,21,24,27,32,8,12,138,2.0,0.8,1.5*37
2017-12-01 14:03:40 1512155020.399140: $GPZDA,190341.00,01,12,2017,00,00*6E
2017-12-01 14:03:40 1512155020.399311: $GPGGA,190341,3946.9568,N,08404.9842,W,2,12,0.80,303.38,M,-33.324,M,,*70
2017-12-01 14:03:40 1512155020.399379: $GPRMC,190341,A,3946.9568,N,08404.9842,W,0.0000,0.000,011217,,*30
2017-12-01 14:03:40 1512155020.399440: $GPGSA,A,3,10,14,15,18,20,21,24,27,32,8,12,138,2.0,0.8,1.5*37
