2017-12-01 11:59:25 1512147565.517368: {"class":"VERSION","release":"3.16","rev":"3.16-4","proto_major":3,"proto_minor":11}
2017-12-01 11:59:25 1512147565.517907: {"class":"DEVICES","devices":[{"class":"DEVICE","path":"/dev/ttyUSB0","driver":"SiRF","subtype":"9\u0006GSD4e_4.1.2-P1_RPATCH.05-F-GPS-4R-1510281 11/03/2015 307","activated":"2017-12-01T16:59:25.436Z","flags":1,"native":1,"bps":4800,"parity":"N","stopbits":1,"cycle":1.00}]}
2017-12-01 11:59:25 1512147565.518030: {"class":"WATCH","enable":true,"json":false,"nmea":true,"raw":0,"scaled":false,"timing":false,"split24":false,"pps":false}
2017-12-01 11:59:26 1512147566.059658: $GPZDA,165926.50,01,12,2017,00,00*6A
2017-12-01 11:59:26 1512147566.059831: $GPGGA,165926,3946.9598,N,08404.9881,W,1,11,0.80,288.93,M,-33.324,M,,*72
2017-12-01 11:59:26 1512147566.059900: $GPRMC,165926,A,3946.9598,N,08404.9881,W,0.3006,62.539,011217,,*0F
2017-12-01 11:59:26 1512147566.059968: $GPGSA,A,3,10,13,15,18,20,21,24,27,29,5,138,,2.0,0.8,1.5*34
2017-12-01 11:59:27 1512147567.202401: $GPGSV,3,1,12,10,18,277,36,13,36,046,46,15,69,057,44,18,49,292,45*75
2017-12-01 11:59:27 1512147567.202567: $GPGSV,3,2,12,20,57,061,44,21,73,295,44,24,26,144,46,27,13,319,38*73
2017-12-01 11:59:27 1512147567.202634: $GPGSV,3,3,12,29,17,192,44,05,09,082,05,04,06,133,00,138,38,213,25*4B
2017-12-01 11:59:27 1512147567.315730: $GPZDA,165927.00,01,12,2017,00,00*6E
2017-12-01 11:59:27 1512147567.315916: $GPGGA,165927,3946.9598,N,08404.9881,W,1,10,0.80,288.93,M,-33.324,M,,*72
2017-12-01 11:59:27 1512147567.315990: $GPRMC,165927,A,3946.9598,N,08404.9881,W,0.0000,0.000,011217,,*30
2017-12-01 11:59:27 1512147567.316053: $GPGSA,A,3,10,13,15,18,20,21,24,27,29,138,,,2.0,0.8,1.5*01
2017-12-01 11:59:27 1512147567.768190: $GPZDA,165928.00,01,12,2017,00,00*61
2017-12-01 11:59:27 1512147567.768365: $GPGGA,165928,3946.9595,N,08404.9882,W,1,10,0.80,289.69,M,-33.324,M,,*77
2017-12-01 11:59:27 1512147567.768433: $GPRMC,165928,A,3946.9595,N,08404.9882,W,0.0000,0.000,011217,,*31
2017-12-01 11:59:27 1512147567.768495: $GPGSA,A,3,10,13,15,18,20,21,24,27,29,138,,,2.0,0.8,1.5*01
2017-12-01 11:59:28 1512147568.419015: $GPZDA,165929.00,01,12,2017,00,00*60
2017-12-01 11:59:28 1512147568.419205: $GPGGA,165929,3946.9595,N,08404.9882,W,1,10,0.80,289.69,M,-33.324,M,,*76
2017-12-01 11:59:28 1512147568.419271: $GPRMC,165929,A,3946.9595,N,08404.9882,W,0.0000,0.000,011217,,*30
2017-12-01 11:59:28 1512147568.419333: $GPGSA,A,3,10,13,15,18,20,21,24,27,29,138,,,2.0,0.8,1.5*01
2017-12-01 11:59:29 1512147569.759033: $GPGSV,3,1,12,10,18,277,37,13,36,046,46,15,69,057,44,18,49,292,45*74
2017-12-01 11:59:29 1512147569.759218: $GPGSV,3,2,12,20,57,061,45,21,73,295,45,24,26,144,45,27,13,319,40*7F
2017-12-01 11:59:29 1512147569.759286: $GPGSV,3,3,12,29,17,192,44,05,09,082,26,04,06,133,07,138,38,213,46*48
2017-12-01 11:59:29 1512147569.871110: $GPZDA,165930.00,01,12,2017,00,00*68
2017-12-01 11:59:29 1512147569.871248: $GPGGA,165930,3946.9595,N,08404.9882,W,1,11,0.80,289.69,M,-33.324,M,,*7F
2017-12-01 11:59:29 1512147569.871315: $GPRMC,165930,A,3946.9595,N,08404.9882,W,0.0000,0.000,011217,,*38
2017-12-01 11:59:29 1512147569.871445: $GPGSA,A,3,10,13,15,18,20,21,24,27,29,5,138,,2.0,0.8,1.5*34
2017-12-01 11:59:30 1512147570.418530: $GPZDA,165931.00,01,12,2017,00,00*69
2017-12-01 11:59:30 1512147570.418704: $GPGGA,165931,3946.9595,N,08404.9875,W,1,11,0.80,291.18,M,-33.324,M,,*79
2017-12-01 11:59:30 1512147570.418774: $GPRMC,165931,A,3946.9595,N,08404.9875,W,0.0000,0.000,011217,,*31
2017-12-01 11:59:30 1512147570.418838: $GPGSA,A,3,10,13,15,18,20,21,24,27,29,5,138,,2.0,0.8,1.5*34
2017-12-01 11:59:31 1512147571.417758: $GPZDA,165932.00,01,12,2017,00,00*6A
2017-12-01 11:59:31 1512147571.417953: $GPGGA,165932,3946.9595,N,08404.9875,W,1,11,0.80,291.18,M,-33.324,M,,*7A
2017-12-01 11:59:31 1512147571.418023: $GPRMC,165932,A,3946.9595,N,08404.9875,W,0.0000,0.000,011217,,*32
2017-12-01 11:59:31 1512147571.418084: $GPGSA,A,3,10,13,15,18,20,21,24,27,29,5,138,,2.0,0.8,1.5*34
2017-12-01 11:59:31 1512147571.418144: $GPGBS,165932,10.70,M,15.43,M,35.28,M*0D
2017-12-01 11:59:32 1512147572.752253: $GPGSV,3,1,12,10,18,277,38,13,36,046,46,15,69,057,43,18,49,292,45*7C
2017-12-01 11:59:32 1512147572.752453: $GPGSV,3,2,12,20,57,061,45,21,73,295,45,24,26,144,46,27,13,319,41*7D
2017-12-01 11:59:32 1512147572.752525: $GPGSV,3,3,12,29,17,192,44,05,09,082,26,04,06,133,00,138,38,213,47*4E
2017-12-01 11:59:32 1512147572.866661: $GPZDA,165933.00,01,12,2017,00,00*6B
2017-12-01 11:59:32 1512147572.866856: $GPGGA,165933,3946.9592,N,08404.9876,W,1,11,0.80,291.94,M,-33.324,M,,*7B
2017-12-01 11:59:32 1512147572.866936: $GPRMC,165933,A,3946.9592,N,08404.9876,W,0.0000,0.000,011217,,*37
2017-12-01 11:59:32 1512147572.867002: $GPGSA,A,3,10,13,15,18,20,21,24,27,29,5,138,,2.0,0.8,1.5*34
2017-12-01 11:59:33 1512147573.417830: $GPZDA,165934.00,01,12,2017,00,00*6C
2017-12-01 11:59:33 1512147573.418005: $GPGGA,165934,3946.9589,N,08404.9864,W,2,11,1.20,295.67,M,-33.324,M,,*75
2017-12-01 11:59:33 1512147573.418076: $GPRMC,165934,A,3946.9589,N,08404.9864,W,0.0000,0.000,011217,,*39
2017-12-01 11:59:33 1512147573.418141: $GPGSA,A,3,10,13,15,18,20,21,24,27,29,5,138,,2.0,1.2,1.5*3F
2017-12-01 11:59:34 1512147574.416855: $GPZDA,165935.00,01,12,2017,00,00*6D
2017-12-01 11:59:34 1512147574.417042: $GPGGA,165935,3946.9585,N,08404.9865,W,2,11,1.20,296.44,M,-33.324,M,,*7B
2017-12-01 11:59:34 1512147574.417115: $GPRMC,165935,A,3946.9585,N,08404.9865,W,0.0000,0.000,011217,,*35
2017-12-01 11:59:34 1512147574.417179: $GPGSA,A,3,10,13,15,18,20,21,24,27,29,5,138,,2.0,1.2,1.5*3F
