2017-11-16 13:30:40 1510857040.226043: {"class":"VERSION","release":"3.17","rev":"3.17","proto_major":3,"proto_minor":12}
2017-11-16 13:30:40 1510857040.226485: {"class":"DEVICES","devices":[{"class":"DEVICE","path":"/dev/ttyUSB0","driver":"SiRF","subtype":"9\u0006GSD4e_4.1.2-P1_RPATCH.05-F-GPS-4R-1510281 11/03/2015 307","activated":"2017-11-16T18:30:40.225Z","flags":1,"native":1,"bps":4800,"parity":"N","stopbits":1,"cycle":1.00}]}
2017-11-16 13:30:40 1510857040.226596: {"class":"WATCH","enable":true,"json":false,"nmea":true,"raw":0,"scaled":false,"timing":false,"split24":false,"pps":false}
2017-11-16 13:30:40 1510857040.338247: $GPZDA,183039.00,16,11,2017,00,00*65
2017-11-16 13:30:40 1510857040.338400: $GPGGA,183039,3946.9611,N,08404.9839,W,2,12,0.80,304.80,M,-33.324,M,,*7B
2017-11-16 13:30:40 1510857040.338459: $GPRMC,183039,A,3946.9611,N,08404.9839,W,0.0000,0.000,161117,,*3A
2017-11-16 13:30:40 1510857040.338514: $GPGSA,A,3,10,13,15,18,20,21,24,27,29,5,32,138,1.6,0.8,1.3*36
2017-11-16 13:30:41 1510857041.264071: $GPZDA,183040.00,16,11,2017,00,00*6B
2017-11-16 13:30:41 1510857041.264226: $GPGGA,183040,3946.9611,N,08404.9839,W,2,12,0.80,304.80,M,-33.324,M,,*75
2017-11-16 13:30:41 1510857041.264286: $GPRMC,183040,A,3946.9611,N,08404.9839,W,0.0000,0.000,161117,,*34
2017-11-16 13:30:41 1510857041.264342: $GPGSA,A,3,10,13,15,18,20,21,24,27,29,5,32,138,1.6,0.8,1.3*36
2017-11-16 13:30:42 1510857042.599781: $GPGSV,3,1,12,10,27,286,43,13,24,045,45,15,56,049,49,18,58,306,46*77
2017-11-16 13:30:42 1510857042.599953: $GPGSV,3,2,12,20,47,078,48,21,78,244,46,24,38,135,44,27,18,309,42*7F
2017-11-16 13:30:42 1510857042.600013: $GPGSV,3,3,12,29,05,187,20,05,01,090,24,32,05,228,29,138,38,213,46*47
2017-11-16 13:30:42 1510857042.713292: $GPZDA,183041.00,16,11,2017,00,00*6A
2017-11-16 13:30:42 1510857042.713462: $GPGGA,183041,3946.9611,N,08404.9839,W,2,12,0.80,304.80,M,-33.324,M,,*74
2017-11-16 13:30:42 1510857042.713523: $GPRMC,183041,A,3946.9611,N,08404.9839,W,0.0000,0.000,161117,,*35
2017-11-16 13:30:42 1510857042.713579: $GPGSA,A,3,10,13,15,18,20,21,24,27,29,5,32,138,1.6,0.8,1.3*36
2017-11-16 13:30:43 1510857043.265183: $GPZDA,183042.00,16,11,2017,00,00*69
2017-11-16 13:30:43 1510857043.265346: $GPGGA,183042,3946.9611,N,08404.9839,W,2,12,0.80,304.80,M,-33.324,M,,*77
2017-11-16 13:30:43 1510857043.265406: $GPRMC,183042,A,3946.9611,N,08404.9839,W,0.0000,0.000,161117,,*36
2017-11-16 13:30:43 1510857043.265462: $GPGSA,A,3,10,13,15,18,20,21,24,27,29,5,32,138,1.6,0.8,1.3*36
2017-11-16 13:30:44 1510857044.257240: $GPZDA,183043.00,16,11,2017,00,00*68
2017-11-16 13:30:44 1510857044.267203: $GPGGA,183043,3946.9611,N,08404.9839,W,2,12,0.80,304.80,M,-33.324,M,,*76
2017-11-16 13:30:44 1510857044.267312: $GPRMC,183043,A,3946.9611,N,08404.9839,W,0.0000,0.000,161117,,*37
2017-11-16 13:30:44 1510857044.267370: $GPGSA,A,3,10,13,15,18,20,21,24,27,29,5,32,138,1.6,0.8,1.3*36
2017-11-16 13:30:45 1510857045.598757: $GPGSV,3,1,12,10,27,286,43,13,24,045,45,15,56,049,49,18,58,306,46*77
2017-11-16 13:30:45 1510857045.598929: $GPGSV,3,2,12,20,47,078,48,21,78,244,46,24,38,135,45,27,18,309,43*7F
2017-11-16 13:30:45 1510857045.598989: $GPGSV,3,3,12,29,05,187,19,05,01,090,21,32,05,228,28,138,38,213,45*4A
2017-11-16 13:30:45 1510857045.712055: $GPZDA,183044.00,16,11,2017,00,00*6F
2017-11-16 13:30:45 1510857045.712213: $GPGGA,183044,3946.9611,N,08404.9839,W,2,12,0.80,304.80,M,-33.324,M,,*71
2017-11-16 13:30:45 1510857045.712272: $GPRMC,183044,A,3946.9611,N,08404.9839,W,0.0000,0.000,161117,,*30
2017-11-16 13:30:45 1510857045.712328: $GPGSA,A,3,10,13,15,18,20,21,24,27,29,5,32,138,1.6,0.8,1.3*36
2017-11-16 13:30:46 1510857046.262904: $GPZDA,183045.00,16,11,2017,00,00*6E
2017-11-16 13:30:46 1510857046.263064: $GPGGA,183045,3946.9611,N,08404.9839,W,2,12,0.80,304.80,M,-33.324,M,,*70
2017-11-16 13:30:46 1510857046.263141: $GPRMC,183045,A,3946.9611,N,08404.9839,W,0.0000,0.000,161117,,*31
2017-11-16 13:30:46 1510857046.263198: $GPGSA,A,3,10,13,15,18,20,21,24,27,29,5,32,138,1.6,0.8,1.3*36
2017-11-16 13:30:47 1510857047.262583: $GPZDA,183046.00,16,11,2017,00,00*6D
2017-11-16 13:30:47 1510857047.262829: $GPGGA,183046,3946.9611,N,08404.9839,W,2,12,0.80,304.80,M,-33.324,M,,*73
2017-11-16 13:30:47 1510857047.262894: $GPRMC,183046,A,3946.9611,N,08404.9839,W,0.0000,0.000,161117,,*32
2017-11-16 13:30:47 1510857047.262950: $GPGSA,A,3,10,13,15,18,20,21,24,27,29,5,32,138,1.6,0.8,1.3*36
2017-11-16 13:30:48 1510857048.619469: $GPGSV,3,1,12,10,27,286,42,13,24,045,45,15,56,049,50,18,58,306,46*7E
2017-11-16 13:30:48 1510857048.619630: $GPGSV,3,2,12,20,47,078,48,21,78,244,46,24,38,135,45,27,18,309,43*7F
2017-11-16 13:30:48 1510857048.619689: $GPGSV,3,3,12,29,05,187,18,05,01,090,00,32,05,228,27,138,38,213,44*46
2017-11-16 13:30:48 1510857048.732902: $GPZDA,183047.00,16,11,2017,00,00*6C
2017-11-16 13:30:48 1510857048.733075: $GPGGA,183047,3946.9611,N,08404.9839,W,2,11,0.80,304.80,M,-33.324,M,,*71
2017-11-16 13:30:48 1510857048.733137: $GPRMC,183047,A,3946.9611,N,08404.9839,W,0.0000,0.000,161117,,*33
2017-11-16 13:30:48 1510857048.733193: $GPGSA,A,3,10,13,15,18,20,21,24,27,29,32,138,,1.6,0.8,1.3*03
2017-11-16 13:30:49 1510857049.287365: $GPZDA,183048.00,16,11,2017,00,00*63
2017-11-16 13:30:49 1510857049.292026: $GPGGA,183048,3946.9611,N,08404.9839,W,2,11,0.80,304.80,M,-33.324,M,,*7E
2017-11-16 13:30:49 1510857049.292199: $GPRMC,183048,A,3946.9611,N,08404.9839,W,0.0000,0.000,161117,,*3C
2017-11-16 13:30:49 1510857049.292258: $GPGSA,A,3,10,13,15,18,20,21,24,27,29,32,138,,1.6,0.8,1.3*03
2017-11-16 13:30:50 1510857050.262699: $GPZDA,183049.00,16,11,2017,00,00*62
2017-11-16 13:30:50 1510857050.262880: $GPGGA,183049,3946.9611,N,08404.9839,W,2,11,0.80,304.80,M,-33.324,M,,*7F
2017-11-16 13:30:50 1510857050.262940: $GPRMC,183049,A,3946.9611,N,08404.9839,W,0.0000,0.000,161117,,*3D
2017-11-16 13:30:50 1510857050.262996: $GPGSA,A,3,10,13,15,18,20,21,24,27,29,32,138,,1.6,0.8,1.3*03
2017-11-16 13:30:51 1510857051.598537: $GPGSV,3,1,12,10,27,286,40,13,24,045,45,15,56,049,50,18,58,306,46*7C
2017-11-16 13:30:51 1510857051.598705: $GPGSV,3,2,12,20,47,078,47,21,78,244,46,24,38,135,45,27,18,309,44*77
2017-11-16 13:30:51 1510857051.598765: $GPGSV,3,3,12,29,05,187,18,05,01,090,22,32,05,228,27,138,38,213,44*46
2017-11-16 13:30:51 1510857051.711933: $GPZDA,183050.00,16,11,2017,00,00*6A
2017-11-16 13:30:51 1510857051.712093: $GPGGA,183050,3946.9611,N,08404.9839,W,2,12,0.80,304.80,M,-33.324,M,,*74
2017-11-16 13:30:51 1510857051.712154: $GPRMC,183050,A,3946.9611,N,08404.9839,W,0.0000,0.000,161117,,*35
2017-11-16 13:30:51 1510857051.712210: $GPGSA,A,3,10,13,15,18,20,21,24,27,29,5,32,138,1.6,0.8,1.3*36
2017-11-16 13:30:52 1510857052.283953: $GPZDA,183051.00,16,11,2017,00,00*6B
2017-11-16 13:30:52 1510857052.284152: $GPGGA,183051,3946.9611,N,08404.9839,W,2,12,0.80,304.80,M,-33.324,M,,*75
2017-11-16 13:30:52 1510857052.284224: $GPRMC,183051,A,3946.9611,N,08404.9839,W,0.0000,0.000,161117,,*34
2017-11-16 13:30:52 1510857052.284305: $GPGSA,A,3,10,13,15,18,20,21,24,27,29,5,32,138,1.6,0.8,1.3*36
2017-11-16 13:30:53 1510857053.284709: $GPZDA,183052.00,16,11,2017,00,00*68
2017-11-16 13:30:53 1510857053.284871: $GPGGA,183052,3946.9611,N,08404.9839,W,2,12,0.80,304.80,M,-33.324,M,,*76
2017-11-16 13:30:53 1510857053.284932: $GPRMC,183052,A,3946.9611,N,08404.9839,W,0.0000,0.000,161117,,*37
2017-11-16 13:30:53 1510857053.284988: $GPGSA,A,3,10,13,15,18,20,21,24,27,29,5,32,138,1.6,0.8,1.3*36
2017-11-16 13:30:54 1510857054.599166: $GPGSV,3,1,12,10,27,286,40,13,24,045,46,15,56,049,50,18,58,306,46*7F
2017-11-16 13:30:54 1510857054.599343: $GPGSV,3,2,12,20,47,078,47,21,78,244,46,24,38,135,45,27,18,309,44*77
2017-11-16 13:30:54 1510857054.599424: $GPGSV,3,3,12,29,05,187,18,05,01,090,00,32,05,228,27,138,38,213,45*47
2017-11-16 13:30:54 1510857054.712509: $GPZDA,183053.00,16,11,2017,00,00*69
2017-11-16 13:30:54 1510857054.712671: $GPGGA,183053,3946.9611,N,08404.9839,W,2,11,0.80,304.80,M,-33.324,M,,*74
2017-11-16 13:30:54 1510857054.712732: $GPRMC,183053,A,3946.9611,N,08404.9839,W,0.0000,0.000,161117,,*36
2017-11-16 13:30:54 1510857054.712787: $GPGSA,A,3,10,13,15,18,20,21,24,27,29,32,138,,1.6,0.8,1.3*03
