2017-12-14 11:51:19 1513270279.502558: {"class":"VERSION","release":"3.16","rev":"3.16-4","proto_major":3,"proto_minor":11}
2017-12-14 11:51:19 1513270279.502921: {"class":"DEVICES","devices":[{"class":"DEVICE","path":"/dev/ttyUSB0","driver":"SiRF","subtype":"9\u0006GSD4e_4.1.2-P1_RPATCH.05-F-GPS-4R-1510281 11/03/2015 307","activated":"2017-12-14T16:51:19.358Z","flags":1,"native":1,"bps":4800,"parity":"N","stopbits":1,"cycle":1.00}]}
2017-12-14 11:51:19 1513270279.503044: {"class":"WATCH","enable":true,"json":false,"nmea":true,"raw":0,"scaled":false,"timing":false,"split24":false,"pps":false}
2017-12-14 11:51:20 1513270280.552777: $GPGSV,3,1,11,15,49,049,28,24,43,127,27,20,43,084,24,10,32,292,19*7B
2017-12-14 11:51:20 1513270280.552969: $GPGSV,3,2,11,18,63,315,04,27,19,301,10,21,75,207,20,13,18,046,00*76
2017-12-14 11:51:20 1513270280.553058: $GPGSV,3,3,11,32,11,231,00,08,01,331,00,138,38,213,00*71
2017-12-14 11:51:20 1513270280.666155: $GPZDA,165121.00,14,12,2017,00,00*64
2017-12-14 11:51:20 1513270280.666305: $GPGGA,165121,3946.9446,N,08404.9454,W,1,05,1.80,358.72,M,-33.324,M,,*7C
2017-12-14 11:51:20 1513270280.666373: $GPRMC,165121,A,3946.9446,N,08404.9454,W,0.6213,69.941,141217,,*09
2017-12-14 11:51:20 1513270280.666433: $GPGSA,A,3,15,24,20,10,21,,,,,,,,6.6,1.8,6.2*3D
2017-12-14 11:51:21 1513270281.217555: $GPZDA,165122.00,14,12,2017,00,00*67
2017-12-14 11:51:21 1513270281.217737: $GPGGA,165122,3946.9452,N,08404.9446,W,1,05,1.80,357.27,M,-33.324,M,,*76
2017-12-14 11:51:21 1513270281.217806: $GPRMC,165122,A,3946.9452,N,08404.9446,W,0.9510,41.785,141217,,*0B
2017-12-14 11:51:21 1513270281.217868: $GPGSA,A,3,15,24,20,10,21,,,,,,,,6.6,1.8,6.2*3D
2017-12-14 11:51:22 1513270282.217653: $GPZDA,165123.00,14,12,2017,00,00*66
2017-12-14 11:51:22 1513270282.217830: $GPGGA,165123,3946.9448,N,08404.9456,W,1,05,1.80,362.93,M,-33.324,M,,*74
2017-12-14 11:51:22 1513270282.217896: $GPRMC,165123,A,3946.9448,N,08404.9456,W,0.1567,9.201,141217,,*3D
2017-12-14 11:51:22 1513270282.217958: $GPGSA,A,3,15,24,20,10,21,,,,,,,,6.6,1.8,6.2*3D
2017-12-14 11:51:23 1513270283.553346: $GPGSV,3,1,11,15,49,049,28,24,43,127,27,20,43,084,23,10,32,292,18*7D
2017-12-14 11:51:23 1513270283.553524: $GPGSV,3,2,11,18,63,315,04,27,19,301,08,21,75,207,20,13,18,046,00*7F
2017-12-14 11:51:23 1513270283.553590: $GPGSV,3,3,11,32,11,231,00,08,01,331,00,138,38,213,00*71
2017-12-14 11:51:23 1513270283.667050: $GPZDA,165124.00,14,12,2017,00,00*61
2017-12-14 11:51:23 1513270283.667221: $GPGGA,165124,3946.9444,N,08404.9457,W,1,05,1.80,363.69,M,-33.324,M,,*7A
2017-12-14 11:51:23 1513270283.667285: $GPRMC,165124,A,3946.9444,N,08404.9457,W,0.3155,129.994,141217,,*34
2017-12-14 11:51:23 1513270283.667347: $GPGSA,A,3,15,24,20,10,21,,,,,,,,6.6,1.8,6.2*3D
2017-12-14 11:51:25 1513270285.077544: $GPZDA,165125.00,14,12,2017,00,00*60
2017-12-14 11:51:25 1513270285.077711: $GPGGA,165125,3946.9449,N,08404.9457,W,1,05,1.80,364.33,M,-33.324,M,,*7E
2017-12-14 11:51:25 1513270285.077777: $GPRMC,165125,A,3946.9449,N,08404.9457,W,0.4179,328.778,141217,,*3E
2017-12-14 11:51:25 1513270285.077839: $GPGSA,A,3,15,24,20,10,21,,,,,,,,6.6,1.8,6.2*3D
2017-12-14 11:51:25 1513270285.077895: $GPGBS,165125,24.66,M,21.80,M,143.40,M*35
2017-12-14 11:51:25 1513270285.332599: $GPZDA,165126.00,14,12,2017,00,00*63
2017-12-14 11:51:25 1513270285.332758: $GPGGA,165126,3946.9449,N,08404.9457,W,1,05,1.80,364.33,M,-33.324,M,,*7D
2017-12-14 11:51:25 1513270285.332826: $GPRMC,165126,A,3946.9449,N,08404.9457,W,0.0000,0.000,141217,,*37
2017-12-14 11:51:25 1513270285.333002: $GPGSA,A,3,15,24,20,10,21,,,,,,,,6.6,1.8,6.2*3D
2017-12-14 11:51:25 1513270285.333070: $GPGBS,165126,24.66,M,21.80,M,143.40,M*36
2017-12-14 11:51:26 1513270286.552322: $GPGSV,3,1,11,15,48,049,28,24,43,127,28,20,43,085,23,10,32,292,18*72
2017-12-14 11:51:26 1513270286.552501: $GPGSV,3,2,11,18,63,316,04,27,19,301,08,21,74,205,20,13,18,046,00*7F
2017-12-14 11:51:26 1513270286.552586: $GPGSV,3,3,11,32,11,231,00,08,01,331,00,138,38,213,00*71
2017-12-14 11:51:26 1513270286.665979: $GPZDA,165127.00,14,12,2017,00,00*62
2017-12-14 11:51:26 1513270286.666218: $GPGGA,165127,3946.9449,N,08404.9457,W,1,05,1.80,364.33,M,-33.324,M,,*7C
2017-12-14 11:51:26 1513270286.666290: $GPRMC,165127,A,3946.9449,N,08404.9457,W,0.0000,0.000,141217,,*36
2017-12-14 11:51:26 1513270286.666350: $GPGSA,A,3,15,24,20,10,21,,,,,,,,6.6,1.8,6.2*3D
2017-12-14 11:51:27 1513270287.219830: $GPZDA,165128.00,14,12,2017,00,00*6D
2017-12-14 11:51:27 1513270287.220000: $GPGGA,165128,3946.9449,N,08404.9457,W,1,05,2.20,364.33,M,-33.324,M,,*7A
2017-12-14 11:51:27 1513270287.220070: $GPRMC,165128,A,3946.9449,N,08404.9457,W,0.0000,0.000,141217,,*39
2017-12-14 11:51:27 1513270287.220130: $GPGSA,A,3,15,24,20,10,21,,,,,,,,6.6,2.2,6.2*34
2017-12-14 11:51:28 1513270288.219113: $GPZDA,165129.00,14,12,2017,00,00*6C
2017-12-14 11:51:28 1513270288.219285: $GPGGA,165129,3946.9449,N,08404.9457,W,1,05,2.20,364.33,M,-33.324,M,,*7B
2017-12-14 11:51:28 1513270288.219352: $GPRMC,165129,A,3946.9449,N,08404.9457,W,0.0000,0.000,141217,,*38
2017-12-14 11:51:28 1513270288.219414: $GPGSA,A,3,15,24,20,10,21,,,,,,,,6.6,2.2,6.2*34
2017-12-14 11:51:29 1513270289.555300: $GPGSV,3,1,11,15,48,049,28,24,43,127,27,20,43,085,23,10,32,292,18*7D
2017-12-14 11:51:29 1513270289.555476: $GPGSV,3,2,11,18,63,316,05,27,19,301,08,21,74,205,20,13,18,046,00*7E
2017-12-14 11:51:29 1513270289.555543: $GPGSV,3,3,11,32,11,231,00,08,01,331,00,138,38,213,00*71
2017-12-14 11:51:29 1513270289.669193: $GPZDA,165130.00,14,12,2017,00,00*64
2017-12-14 11:51:29 1513270289.669359: $GPGGA,165130,3946.9449,N,08404.9457,W,1,06,2.20,364.33,M,-33.324,M,,*70
2017-12-14 11:51:29 1513270289.669426: $GPRMC,165130,A,3946.9449,N,08404.9457,W,0.2422,273.794,141217,,*3A
2017-12-14 11:51:29 1513270289.669487: $GPGSA,A,3,15,24,20,10,27,21,,,,,,,6.6,2.2,6.2*31
2017-12-14 11:51:30 1513270290.218846: $GPZDA,165131.00,14,12,2017,00,00*65
2017-12-14 11:51:30 1513270290.219042: $GPGGA,165131,3946.9449,N,08404.9457,W,1,06,2.20,364.33,M,-33.324,M,,*71
2017-12-14 11:51:30 1513270290.219109: $GPRMC,165131,A,3946.9449,N,08404.9457,W,0.4207,219.347,141217,,*3A
2017-12-14 11:51:30 1513270290.219171: $GPGSA,A,3,15,24,20,10,27,21,,,,,,,6.6,2.2,6.2*31
2017-12-14 11:51:31 1513270291.219603: $GPZDA,165132.00,14,12,2017,00,00*66
2017-12-14 11:51:31 1513270291.219778: $GPGGA,165132,3946.9448,N,08404.9463,W,1,06,2.20,362.85,M,-33.324,M,,*7F
2017-12-14 11:51:31 1513270291.219844: $GPRMC,165132,A,3946.9448,N,08404.9463,W,0.8054,248.645,141217,,*34
2017-12-14 11:51:31 1513270291.219905: $GPGSA,A,3,15,24,20,10,27,21,,,,,,,6.6,2.2,6.2*31
2017-12-14 11:51:32 1513270292.555227: $GPGSV,3,1,11,15,48,049,28,24,43,127,27,20,43,085,24,10,32,292,19*7B
2017-12-14 11:51:32 1513270292.555402: $GPGSV,3,2,11,18,63,316,00,27,19,301,09,21,74,205,20,13,18,046,00*7A
2017-12-14 11:51:32 1513270292.555467: $GPGSV,3,3,11,32,11,231,00,08,01,331,00,138,38,213,00*71
2017-12-14 11:51:32 1513270292.669019: $GPZDA,165133.00,14,12,2017,00,00*67
2017-12-14 11:51:32 1513270292.669185: $GPGGA,165133,3946.9448,N,08404.9463,W,1,06,2.20,362.85,M,-33.324,M,,*7E
2017-12-14 11:51:32 1513270292.669251: $GPRMC,165133,A,3946.9448,N,08404.9463,W,0.7267,273.794,141217,,*3D
2017-12-14 11:51:32 1513270292.669312: $GPGSA,A,3,15,24,20,10,27,21,,,,,,,6.6,2.2,6.2*31
2017-12-14 11:51:33 1513270293.218531: $GPZDA,165134.00,14,12,2017,00,00*60
2017-12-14 11:51:33 1513270293.218695: $GPGGA,165134,3946.9448,N,08404.9462,W,1,06,2.20,361.45,M,-33.324,M,,*77
2017-12-14 11:51:33 1513270293.218760: $GPRMC,165134,A,3946.9448,N,08404.9462,W,0.5951,238.684,141217,,*38
2017-12-14 11:51:33 1513270293.218820: $GPGSA,A,3,15,24,20,10,27,21,,,,,,,6.6,2.2,6.2*31
2017-12-14 11:51:34 1513270294.219865: $GPZDA,165135.00,14,12,2017,00,00*61
2017-12-14 11:51:34 1513270294.220033: $GPGGA,165135,3946.9452,N,08404.9462,W,1,06,2.20,362.09,M,-33.324,M,,*76
2017-12-14 11:51:34 1513270294.220098: $GPRMC,165135,A,3946.9452,N,08404.9462,W,0.0000,0.000,141217,,*39
2017-12-14 11:51:34 1513270294.220158: $GPGSA,A,3,15,24,20,10,27,21,,,,,,,6.6,2.2,6.2*31
2017-12-14 11:51:35 1513270295.553335: $GPGSV,3,1,11,15,48,049,27,24,43,127,27,20,43,085,24,10,32,292,19*74
2017-12-14 11:51:35 1513270295.553558: $GPGSV,3,2,11,18,63,316,00,27,19,301,08,21,74,205,20,13,18,046,00*7B
2017-12-14 11:51:35 1513270295.553626: $GPGSV,3,3,11,32,11,231,00,08,01,331,00,138,38,213,00*71
2017-12-14 11:51:35 1513270295.666974: $GPZDA,165136.00,14,12,2017,00,00*62
2017-12-14 11:51:35 1513270295.667113: $GPGGA,165136,3946.9452,N,08404.9462,W,1,06,1.80,362.09,M,-33.324,M,,*7C
2017-12-14 11:51:35 1513270295.667177: $GPRMC,165136,A,3946.9452,N,08404.9462,W,0.0000,0.000,141217,,*3A
2017-12-14 11:51:35 1513270295.667238: $GPGSA,A,3,15,24,20,10,27,21,,,,,,,6.6,1.8,6.2*38
2017-12-14 11:51:36 1513270296.218273: $GPZDA,165137.00,14,12,2017,00,00*63
2017-12-14 11:51:36 1513270296.218454: $GPGGA,165137,3946.9448,N,08404.9463,W,1,06,1.80,362.85,M,-33.324,M,,*73
2017-12-14 11:51:36 1513270296.218523: $GPRMC,165137,A,3946.9448,N,08404.9463,W,0.0000,0.000,141217,,*31
2017-12-14 11:51:36 1513270296.218585: $GPGSA,A,3,15,24,20,10,27,21,,,,,,,6.6,1.8,6.2*38
2017-12-14 11:51:37 1513270297.217379: $GPZDA,165138.00,14,12,2017,00,00*6C
2017-12-14 11:51:37 1513270297.217547: $GPGGA,165138,3946.9448,N,08404.9463,W,1,06,1.80,362.85,M,-33.324,M,,*7C
2017-12-14 11:51:37 1513270297.217613: $GPRMC,165138,A,3946.9448,N,08404.9463,W,0.0000,0.000,141217,,*3E
2017-12-14 11:51:37 1513270297.217673: $GPGSA,A,3,15,24,20,10,27,21,,,,,,,6.6,1.8,6.2*38
2017-12-14 11:51:38 1513270298.555598: $GPGSV,3,1,11,15,48,049,27,24,43,127,27,20,43,085,24,10,32,292,19*74
2017-12-14 11:51:38 1513270298.555773: $GPGSV,3,2,11,18,63,316,04,27,19,301,08,21,74,205,20,13,18,046,00*7F
2017-12-14 11:51:38 1513270298.555840: $GPGSV,3,3,11,32,11,231,00,08,01,331,00,138,38,213,00*71
2017-12-14 11:51:38 1513270298.669041: $GPZDA,165139.00,14,12,2017,00,00*6D
2017-12-14 11:51:38 1513270298.669210: $GPGGA,165139,3946.9448,N,08404.9463,W,1,06,2.20,362.85,M,-33.324,M,,*74
2017-12-14 11:51:38 1513270298.669274: $GPRMC,165139,A,3946.9448,N,08404.9463,W,0.0000,0.000,141217,,*3F
2017-12-14 11:51:38 1513270298.669336: $GPGSA,A,3,15,24,20,10,27,21,,,,,,,6.6,2.2,6.2*31
2017-12-14 11:51:39 1513270299.220145: $GPZDA,165140.00,14,12,2017,00,00*63
2017-12-14 11:51:39 1513270299.220314: $GPGGA,165140,3946.9448,N,08404.9463,W,1,06,2.20,362.85,M,-33.324,M,,*7A
2017-12-14 11:51:39 1513270299.220380: $GPRMC,165140,A,3946.9448,N,08404.9463,W,0.0000,0.000,141217,,*31
2017-12-14 11:51:39 1513270299.220442: $GPGSA,A,3,15,24,20,10,27,21,,,,,,,6.6,2.2,6.2*31
