2017-11-16 15:21:14 1510863674.976299: {"class":"VERSION","release":"3.17","rev":"3.17","proto_major":3,"proto_minor":12}
2017-11-16 15:21:14 1510863674.976813: {"class":"DEVICES","devices":[{"class":"DEVICE","path":"/dev/ttyUSB0","driver":"SiRF","subtype":"9\u0006GSD4e_4.1.2-P1_RPATCH.05-F-GPS-4R-1510281 11/03/2015 307","activated":"2017-11-16T20:21:14.529Z","flags":1,"native":1,"bps":4800,"parity":"N","stopbits":1,"cycle":1.00}]}
2017-11-16 15:21:14 1510863674.976989: {"class":"WATCH","enable":true,"json":false,"nmea":true,"raw":0,"scaled":false,"timing":false,"split24":false,"pps":false}
2017-11-16 15:21:15 1510863675.388178: $GPZDA,202114.00,16,11,2017,00,00*61
2017-11-16 15:21:15 1510863675.392240: $GPGGA,202114,3946.9575,N,08404.9864,W,2,12,0.80,306.59,M,-33.324,M,,*70
2017-11-16 15:21:15 1510863675.392349: $GPRMC,202114,A,3946.9575,N,08404.9864,W,0.0000,0.000,161117,,*37
2017-11-16 15:21:15 1510863675.392408: $GPGSA,A,3,8,10,14,15,18,20,21,24,27,32,12,138,1.6,0.8,1.3*34
2017-11-16 15:21:16 1510863676.719683: $GPGSV,3,1,12,08,06,295,29,10,67,327,51,14,27,252,47,15,13,064,32*72
2017-11-16 15:21:16 1510863676.719853: $GPGSV,3,2,12,18,72,087,47,20,10,117,33,21,32,180,45,24,46,061,51*72
2017-11-16 15:21:16 1510863676.719913: $GPGSV,3,3,12,27,08,262,39,32,44,262,48,12,08,109,11,138,38,213,45*43
2017-11-16 15:21:16 1510863676.833080: $GPZDA,202115.00,16,11,2017,00,00*60
2017-11-16 15:21:16 1510863676.833239: $GPGGA,202115,3946.9575,N,08404.9864,W,2,12,0.80,306.59,M,-33.324,M,,*71
2017-11-16 15:21:16 1510863676.833300: $GPRMC,202115,A,3946.9575,N,08404.9864,W,0.0000,0.000,161117,,*36
2017-11-16 15:21:16 1510863676.833356: $GPGSA,A,3,8,10,14,15,18,20,21,24,27,32,12,138,1.6,0.8,1.3*34
2017-11-16 15:21:17 1510863677.372602: $GPZDA,202116.00,16,11,2017,00,00*63
2017-11-16 15:21:17 1510863677.372764: $GPGGA,202116,3946.9575,N,08404.9864,W,2,12,0.80,306.59,M,-33.324,M,,*72
2017-11-16 15:21:17 1510863677.372826: $GPRMC,202116,A,3946.9575,N,08404.9864,W,0.0000,0.000,161117,,*35
2017-11-16 15:21:17 1510863677.372883: $GPGSA,A,3,8,10,14,15,18,20,21,24,27,32,12,138,1.6,0.8,1.3*34
2017-11-16 15:21:18 1510863678.372222: $GPZDA,202117.00,16,11,2017,00,00*62
2017-11-16 15:21:18 1510863678.372391: $GPGGA,202117,3946.9575,N,08404.9864,W,2,12,0.80,306.59,M,-33.324,M,,*73
2017-11-16 15:21:18 1510863678.372453: $GPRMC,202117,A,3946.9575,N,08404.9864,W,0.0000,0.000,161117,,*34
2017-11-16 15:21:18 1510863678.372509: $GPGSA,A,3,8,10,14,15,18,20,21,24,27,32,12,138,1.6,0.8,1.3*34
2017-11-16 15:21:19 1510863679.725466: $GPGSV,3,1,12,08,06,295,34,10,67,327,51,14,27,252,47,15,13,064,31*7D
2017-11-16 15:21:19 1510863679.725634: $GPGSV,3,2,12,18,72,087,47,20,10,117,33,21,32,180,45,24,46,061,51*72
2017-11-16 15:21:19 1510863679.725695: $GPGSV,3,3,12,27,08,262,39,32,44,262,47,12,08,109,15,138,38,213,44*49
2017-11-16 15:21:19 1510863679.838807: $GPZDA,202118.00,16,11,2017,00,00*6D
2017-11-16 15:21:19 1510863679.839003: $GPGGA,202118,3946.9575,N,08404.9864,W,2,12,0.80,306.59,M,-33.324,M,,*7C
2017-11-16 15:21:19 1510863679.839065: $GPRMC,202118,A,3946.9575,N,08404.9864,W,0.0000,0.000,161117,,*3B
2017-11-16 15:21:19 1510863679.839121: $GPGSA,A,3,8,10,14,15,18,20,21,24,27,32,12,138,1.6,0.8,1.3*34
2017-11-16 15:21:20 1510863680.367151: $GPZDA,202119.00,16,11,2017,00,00*6C
2017-11-16 15:21:20 1510863680.367312: $GPGGA,202119,3946.9575,N,08404.9864,W,2,12,0.80,306.59,M,-33.324,M,,*7D
2017-11-16 15:21:20 1510863680.367373: $GPRMC,202119,A,3946.9575,N,08404.9864,W,0.0000,0.000,161117,,*3A
2017-11-16 15:21:20 1510863680.367429: $GPGSA,A,3,8,10,14,15,18,20,21,24,27,32,12,138,1.6,0.8,1.3*34
2017-11-16 15:21:21 1510863681.383831: $GPZDA,202120.00,16,11,2017,00,00*66
2017-11-16 15:21:21 1510863681.384008: $GPGGA,202120,3946.9575,N,08404.9864,W,2,12,0.80,306.59,M,-33.324,M,,*77
2017-11-16 15:21:21 1510863681.384071: $GPRMC,202120,A,3946.9575,N,08404.9864,W,0.0000,0.000,161117,,*30
2017-11-16 15:21:21 1510863681.384127: $GPGSA,A,3,8,10,14,15,18,20,21,24,27,32,12,138,1.6,0.8,1.3*34
2017-11-16 15:21:22 1510863682.708256: $GPGSV,3,1,12,08,06,295,34,10,67,327,51,14,27,252,47,15,13,064,31*7D
2017-11-16 15:21:22 1510863682.708473: $GPGSV,3,2,12,18,72,087,47,20,10,117,33,21,32,180,45,24,46,061,51*72
2017-11-16 15:21:22 1510863682.708536: $GPGSV,3,3,12,27,08,262,40,32,44,262,47,12,08,109,25,138,38,213,45*45
2017-11-16 15:21:22 1510863682.821873: $GPZDA,202121.00,16,11,2017,00,00*67
2017-11-16 15:21:22 1510863682.822050: $GPGGA,202121,3946.9575,N,08404.9864,W,2,12,0.80,306.59,M,-33.324,M,,*76
2017-11-16 15:21:22 1510863682.822112: $GPRMC,202121,A,3946.9575,N,08404.9864,W,0.0000,0.000,161117,,*31
2017-11-16 15:21:22 1510863682.822168: $GPGSA,A,3,8,10,14,15,18,20,21,24,27,32,12,138,1.6,0.8,1.3*34
2017-11-16 15:21:23 1510863683.372479: $GPZDA,202122.00,16,11,2017,00,00*64
2017-11-16 15:21:23 1510863683.372673: $GPGGA,202122,3946.9575,N,08404.9864,W,2,12,0.80,306.59,M,-33.324,M,,*75
2017-11-16 15:21:23 1510863683.372759: $GPRMC,202122,A,3946.9575,N,08404.9864,W,0.0000,0.000,161117,,*32
2017-11-16 15:21:23 1510863683.372819: $GPGSA,A,3,8,10,14,15,18,20,21,24,27,32,12,138,1.6,0.8,1.3*34
2017-11-16 15:21:24 1510863684.373277: $GPZDA,202123.00,16,11,2017,00,00*65
2017-11-16 15:21:24 1510863684.373441: $GPGGA,202123,3946.9575,N,08404.9864,W,2,12,0.80,306.59,M,-33.324,M,,*74
2017-11-16 15:21:24 1510863684.373502: $GPRMC,202123,A,3946.9575,N,08404.9864,W,0.0000,0.000,161117,,*33
2017-11-16 15:21:24 1510863684.373559: $GPGSA,A,3,8,10,14,15,18,20,21,24,27,32,12,138,1.6,0.8,1.3*34
