2017-12-31 18:14:07 1514762047.646987: {"class":"VERSION","release":"3.16","rev":"3.16-4","proto_major":3,"proto_minor":11}
2017-12-31 18:14:07 1514762047.647430: {"class":"DEVICES","devices":[{"class":"DEVICE","path":"/dev/ttyUSB0","driver":"SiRF","activated":"2017-12-31T23:14:07.518Z","flags":1,"native":1,"bps":4800,"parity":"N","stopbits":1,"cycle":1.00}]}
2017-12-31 18:14:07 1514762047.647530: {"class":"WATCH","enable":true,"json":false,"nmea":true,"raw":0,"scaled":false,"timing":false,"split24":false,"pps":false}
2017-12-31 18:14:08 1514762048.348966: $GPZDA,231409.00,31,12,2017,00,00*6E
2017-12-31 18:14:08 1514762048.349133: $GPGGA,231409,3946.9564,N,08404.9866,W,2,12,0.80,307.48,M,-33.324,M,,*7A
2017-12-31 18:14:08 1514762048.349199: $GPRMC,231409,A,3946.9564,N,08404.9866,W,0.0000,0.000,311217,,*3A
2017-12-31 18:14:08 1514762048.349259: $GPGSA,A,3,22,23,9,3,16,8,14,31,27,29,26,135,1.7,0.8,1.3*30
2017-12-31 18:14:09 1514762049.713476: $GPGSV,3,1,12,22,21,213,36,23,55,306,45,09,21,312,41,03,31,234,43*77
2017-12-31 18:14:09 1514762049.713667: $GPGSV,3,2,12,16,82,187,44,08,01,180,16,14,14,133,34,31,28,076,46*72
2017-12-31 18:14:09 1514762049.713733: $GPGSV,3,3,12,27,23,153,34,29,05,030,11,26,61,049,48,135,22,240,44*40
2017-12-31 18:14:09 1514762049.827001: $GPZDA,231410.00,31,12,2017,00,00*66
2017-12-31 18:14:09 1514762049.827201: $GPGGA,231410,3946.9564,N,08404.9866,W,2,11,0.80,307.48,M,-33.324,M,,*71
2017-12-31 18:14:09 1514762049.827267: $GPRMC,231410,A,3946.9564,N,08404.9866,W,0.0000,0.000,311217,,*32
2017-12-31 18:14:09 1514762049.827329: $GPGSA,A,3,22,23,9,3,16,8,14,31,27,26,135,,1.7,0.8,1.3*3B
2017-12-31 18:14:10 1514762050.452175: $GPZDA,231411.00,31,12,2017,00,00*67
2017-12-31 18:14:10 1514762050.452333: $GPGGA,231411,3946.9564,N,08404.9866,W,2,11,0.80,307.48,M,-33.324,M,,*70
2017-12-31 18:14:10 1514762050.452398: $GPRMC,231411,A,3946.9564,N,08404.9866,W,0.0000,0.000,311217,,*33
2017-12-31 18:14:10 1514762050.452458: $GPGSA,A,3,22,23,9,3,16,8,14,31,27,26,135,,1.7,0.8,1.3*3B
2017-12-31 18:14:11 1514762051.351821: $GPZDA,231412.00,31,12,2017,00,00*64
2017-12-31 18:14:11 1514762051.351971: $GPGGA,231412,3946.9564,N,08404.9866,W,2,11,0.80,307.48,M,-33.324,M,,*73
2017-12-31 18:14:11 1514762051.352035: $GPRMC,231412,A,3946.9564,N,08404.9866,W,0.0000,0.000,311217,,*30
2017-12-31 18:14:11 1514762051.352096: $GPGSA,A,3,22,23,9,3,16,8,14,31,27,26,135,,1.7,0.8,1.3*3B
2017-12-31 18:14:12 1514762052.706315: $GPGSV,3,1,12,22,21,213,35,23,55,306,45,09,21,312,41,03,31,234,43*74
2017-12-31 18:14:12 1514762052.706497: $GPGSV,3,2,12,16,82,187,44,08,01,180,16,14,14,133,33,31,28,076,46*75
2017-12-31 18:14:12 1514762052.706563: $GPGSV,3,3,12,27,23,153,35,29,05,030,30,26,61,049,48,135,22,240,43*45
2017-12-31 18:14:12 1514762052.819641: $GPZDA,231413.00,31,12,2017,00,00*65
2017-12-31 18:14:12 1514762052.819767: $GPGGA,231413,3946.9564,N,08404.9866,W,2,12,0.80,307.48,M,-33.324,M,,*71
2017-12-31 18:14:12 1514762052.819830: $GPRMC,231413,A,3946.9564,N,08404.9866,W,0.0000,0.000,311217,,*31
2017-12-31 18:14:12 1514762052.819889: $GPGSA,A,3,22,23,9,3,16,8,14,31,27,29,26,135,1.7,0.8,1.3*30
2017-12-31 18:14:13 1514762053.379301: $GPZDA,231414.00,31,12,2017,00,00*62
2017-12-31 18:14:13 1514762053.379450: $GPGGA,231414,3946.9564,N,08404.9866,W,2,12,0.80,307.48,M,-33.324,M,,*76
2017-12-31 18:14:13 1514762053.379515: $GPRMC,231414,A,3946.9564,N,08404.9866,W,0.0000,0.000,311217,,*36
2017-12-31 18:14:13 1514762053.379575: $GPGSA,A,3,22,23,9,3,16,8,14,31,27,29,26,135,1.7,0.8,1.3*30
2017-12-31 18:14:14 1514762054.354574: $GPZDA,231415.00,31,12,2017,00,00*63
2017-12-31 18:14:14 1514762054.354754: $GPGGA,231415,3946.9564,N,08404.9866,W,2,12,0.80,307.48,M,-33.324,M,,*77
2017-12-31 18:14:14 1514762054.354820: $GPRMC,231415,A,3946.9564,N,08404.9866,W,0.0000,0.000,311217,,*37
2017-12-31 18:14:14 1514762054.354880: $GPGSA,A,3,22,23,9,3,16,8,14,31,27,29,26,135,1.7,0.8,1.3*30
2017-12-31 18:14:14 1514762054.354938: $GPGBS,231415,2.22,M,3.43,M,7.66,M*3F
2017-12-31 18:14:15 1514762055.721033: $GPGSV,3,1,12,22,20,213,36,23,56,304,45,09,22,312,41,03,30,232,43*73
2017-12-31 18:14:15 1514762055.721265: $GPGSV,3,2,12,16,83,184,44,08,02,180,17,14,13,135,33,31,27,076,46*7B
2017-12-31 18:14:15 1514762055.721333: $GPGSV,3,3,12,27,24,153,35,29,04,028,11,26,60,049,48,135,22,240,44*4F
2017-12-31 18:14:15 1514762055.834366: $GPZDA,231416.00,31,12,2017,00,00*60
2017-12-31 18:14:15 1514762055.834504: $GPGGA,231416,3946.9564,N,08404.9866,W,2,11,0.80,307.48,M,-33.324,M,,*77
2017-12-31 18:14:15 1514762055.834569: $GPRMC,231416,A,3946.9564,N,08404.9866,W,0.0000,0.000,311217,,*34
2017-12-31 18:14:15 1514762055.834629: $GPGSA,A,3,22,23,9,3,16,8,14,31,27,26,135,,1.7,0.8,1.3*3B
2017-12-31 18:14:16 1514762056.379001: $GPZDA,231417.00,31,12,2017,00,00*61
2017-12-31 18:14:16 1514762056.379163: $GPGGA,231417,3946.9564,N,08404.9866,W,2,11,0.80,307.48,M,-33.324,M,,*76
2017-12-31 18:14:16 1514762056.379229: $GPRMC,231417,A,3946.9564,N,08404.9866,W,0.0000,0.000,311217,,*35
2017-12-31 18:14:16 1514762056.379290: $GPGSA,A,3,22,23,9,3,16,8,14,31,27,26,135,,1.7,0.8,1.3*3B
2017-12-31 18:14:17 1514762057.349910: $GPZDA,231418.00,31,12,2017,00,00*6E
2017-12-31 18:14:17 1514762057.350077: $GPGGA,231418,3946.9564,N,08404.9866,W,2,11,0.80,307.48,M,-33.324,M,,*79
2017-12-31 18:14:17 1514762057.350142: $GPRMC,231418,A,3946.9564,N,08404.9866,W,0.0000,0.000,311217,,*3A
2017-12-31 18:14:17 1514762057.350203: $GPGSA,A,3,22,23,9,3,16,8,14,31,27,26,135,,1.7,0.8,1.3*3B
