2017-11-15 18:40:16 1510789216.895338: {"class":"VERSION","release":"3.17","rev":"3.17","proto_major":3,"proto_minor":12}
2017-11-15 18:40:16 1510789216.895814: {"class":"DEVICES","devices":[{"class":"DEVICE","path":"/dev/ttyUSB0","driver":"SiRF","subtype":"9\u0006GSD4e_4.1.2-P1_RPATCH.05-F-GPS-4R-1510281 11/03/2015 307","activated":"2017-11-15T23:40:16.550Z","flags":1,"native":1,"bps":4800,"parity":"N","stopbits":1,"cycle":1.00}]}
2017-11-15 18:40:16 1510789216.896049: {"class":"WATCH","enable":true,"json":false,"nmea":true,"raw":0,"scaled":false,"timing":false,"split24":false,"pps":false}
2017-11-15 18:40:17 1510789217.329766: $GPZDA,234016.00,15,11,2017,00,00*64
2017-11-15 18:40:17 1510789217.329963: $GPGGA,234016,3946.9538,N,08404.9601,W,1,08,1.20,308.57,M,-33.324,M,,*71
2017-11-15 18:40:17 1510789217.330032: $GPRMC,234016,A,3946.9538,N,08404.9601,W,0.3006,242.539,151117,,*38
2017-11-15 18:40:17 1510789217.330094: $GPGSA,A,3,25,14,32,31,3,29,10,26,,,,,3.4,1.2,2.9*01
2017-11-15 18:40:18 1510789218.699065: $GPGSV,3,1,11,25,33,054,18,14,68,049,16,22,41,300,00,32,53,084,20*7A
2017-11-15 18:40:18 1510789218.699244: $GPGSV,3,2,11,31,79,298,16,03,23,315,07,29,01,090,16,10,18,157,12*7E
2017-11-15 18:40:18 1510789218.699304: $GPGSV,3,3,11,26,29,178,12,01,17,271,00,12,04,031,00*4D
2017-11-15 18:40:18 1510789218.812374: $GPZDA,234017.00,15,11,2017,00,00*65
2017-11-15 18:40:18 1510789218.812523: $GPGGA,234017,3946.9538,N,08404.9608,W,1,08,2.80,308.49,M,-33.324,M,,*7F
2017-11-15 18:40:18 1510789218.812583: $GPRMC,234017,A,3946.9538,N,08404.9608,W,0.4179,328.778,151117,,*34
2017-11-15 18:40:18 1510789218.812639: $GPGSA,A,3,25,14,32,31,3,29,10,26,,,,,3.4,2.8,2.9*08
2017-11-15 18:40:19 1510789219.329477: $GPZDA,234018.00,15,11,2017,00,00*6A
2017-11-15 18:40:19 1510789219.329653: $GPGGA,234018,3946.9538,N,08404.9608,W,1,08,2.80,308.49,M,-33.324,M,,*70
2017-11-15 18:40:19 1510789219.329713: $GPRMC,234018,A,3946.9538,N,08404.9608,W,0.8709,3.298,151117,,*37
2017-11-15 18:40:19 1510789219.329768: $GPGSA,A,3,25,14,32,31,3,29,10,26,,,,,3.4,2.8,2.9*08
2017-11-15 18:40:20 1510789220.364030: $GPZDA,234019.00,15,11,2017,00,00*6B
2017-11-15 18:40:20 1510789220.364207: $GPGGA,234019,3946.9538,N,08404.9608,W,1,08,2.80,308.49,M,-33.324,M,,*71
2017-11-15 18:40:20 1510789220.364269: $GPRMC,234019,A,3946.9538,N,08404.9608,W,0.3423,4.197,151117,,*3D
2017-11-15 18:40:20 1510789220.364324: $GPGSA,A,3,25,14,32,31,3,29,10,26,,,,,3.4,2.8,2.9*08
2017-11-15 18:40:21 1510789221.669410: $GPGSV,3,1,11,25,33,054,18,14,68,049,16,16,01,190,02,32,53,084,21*71
2017-11-15 18:40:21 1510789221.669559: $GPGSV,3,2,11,31,79,298,17,03,23,315,04,29,01,090,16,10,18,157,13*7D
2017-11-15 18:40:21 1510789221.669619: $GPGSV,3,3,11,26,29,178,11,22,41,300,13,01,17,271,00*4F
2017-11-15 18:40:21 1510789221.782655: $GPZDA,234020.00,15,11,2017,00,00*61
2017-11-15 18:40:21 1510789221.782830: $GPGGA,234020,3946.9538,N,08404.9608,W,1,07,2.80,308.49,M,-33.324,M,,*74
2017-11-15 18:40:21 1510789221.782891: $GPRMC,234020,A,3946.9538,N,08404.9608,W,0.4844,93.794,151117,,*06
2017-11-15 18:40:21 1510789221.782946: $GPGSA,A,3,25,14,32,31,29,10,26,,,,,,3.4,2.8,2.9*3B
2017-11-15 18:40:22 1510789222.329763: $GPZDA,234021.00,15,11,2017,00,00*60
2017-11-15 18:40:22 1510789222.329925: $GPGGA,234021,3946.9538,N,08404.9608,W,1,07,1.20,308.49,M,-33.324,M,,*7C
2017-11-15 18:40:22 1510789222.330003: $GPRMC,234021,A,3946.9538,N,08404.9608,W,0.3423,4.197,151117,,*36
2017-11-15 18:40:22 1510789222.330059: $GPGSA,A,3,25,14,32,31,29,10,26,,,,,,3.4,1.2,2.9*32
2017-11-15 18:40:23 1510789223.330879: $GPZDA,234022.00,15,11,2017,00,00*63
2017-11-15 18:40:23 1510789223.331059: $GPGGA,234022,3946.9538,N,08404.9615,W,1,07,1.20,308.41,M,-33.324,M,,*7B
2017-11-15 18:40:23 1510789223.331137: $GPRMC,234022,A,3946.9538,N,08404.9615,W,0.4844,273.794,151117,,*34
2017-11-15 18:40:23 1510789223.331194: $GPGSA,A,3,25,14,32,31,29,10,26,,,,,,3.4,1.2,2.9*32
2017-11-15 18:40:24 1510789224.665309: $GPGSV,3,1,11,25,33,054,19,14,68,049,16,01,17,271,00,32,53,084,22*7C
2017-11-15 18:40:24 1510789224.665480: $GPGSV,3,2,11,31,79,298,18,03,23,315,04,29,01,090,16,10,18,157,14*75
2017-11-15 18:40:24 1510789224.665591: $GPGSV,3,3,11,26,29,178,12,22,41,300,22,12,04,031,00*48
2017-11-15 18:40:24 1510789224.778647: $GPZDA,234023.00,15,11,2017,00,00*62
2017-11-15 18:40:24 1510789224.778795: $GPGGA,234023,3946.9538,N,08404.9615,W,1,08,1.20,308.41,M,-33.324,M,,*75
2017-11-15 18:40:24 1510789224.778855: $GPRMC,234023,A,3946.9538,N,08404.9615,W,0.7267,273.794,151117,,*3D
2017-11-15 18:40:24 1510789224.778911: $GPGSA,A,3,25,14,32,31,29,10,26,22,,,,,3.4,1.2,2.9*32
2017-11-15 18:40:25 1510789225.329535: $GPZDA,234024.00,15,11,2017,00,00*65
2017-11-15 18:40:25 1510789225.329699: $GPGGA,234024,3946.9539,N,08404.9622,W,1,08,1.20,308.34,M,-33.324,M,,*75
2017-11-15 18:40:25 1510789225.329759: $GPRMC,234024,A,3946.9539,N,08404.9622,W,0.7267,273.794,151117,,*3F
2017-11-15 18:40:25 1510789225.329814: $GPGSA,A,3,25,14,32,31,29,10,26,22,,,,,3.4,1.2,2.9*32
2017-11-15 18:40:26 1510789226.364973: $GPZDA,234025.00,15,11,2017,00,00*64
2017-11-15 18:40:26 1510789226.365151: $GPGGA,234025,3946.9535,N,08404.9623,W,1,08,1.20,309.10,M,-33.324,M,,*7E
2017-11-15 18:40:26 1510789226.365212: $GPRMC,234025,A,3946.9535,N,08404.9623,W,0.7267,273.794,151117,,*33
2017-11-15 18:40:26 1510789226.365268: $GPGSA,A,3,25,14,32,31,29,10,26,22,,,,,3.4,1.2,2.9*32
2017-11-15 18:40:27 1510789227.699417: $GPGSV,3,1,11,25,33,054,19,14,68,049,16,01,17,271,00,32,53,084,22*7C
2017-11-15 18:40:27 1510789227.699798: $GPGSV,3,2,11,31,79,298,18,03,23,315,04,29,01,090,16,10,18,157,14*75
2017-11-15 18:40:27 1510789227.703392: $GPGSV,3,3,11,26,29,178,12,22,41,300,22,12,04,031,00*48
2017-11-15 18:40:27 1510789227.812774: $GPZDA,234026.00,15,11,2017,00,00*67
2017-11-15 18:40:27 1510789227.812957: $GPGGA,234026,3946.9536,N,08404.9630,W,1,08,1.20,309.02,M,-33.324,M,,*7F
2017-11-15 18:40:27 1510789227.813021: $GPRMC,234026,A,3946.9536,N,08404.9630,W,0.7267,273.794,151117,,*31
2017-11-15 18:40:27 1510789227.813093: $GPGSA,A,3,25,14,32,31,29,10,26,22,,,,,3.4,1.2,2.9*32
2017-11-15 18:40:28 1510789228.363621: $GPZDA,234027.00,15,11,2017,00,00*66
2017-11-15 18:40:28 1510789228.363783: $GPGGA,234027,3946.9536,N,08404.9630,W,1,08,1.20,309.02,M,-33.324,M,,*7E
2017-11-15 18:40:28 1510789228.363845: $GPRMC,234027,A,3946.9536,N,08404.9630,W,0.7621,287.945,151117,,*3F
2017-11-15 18:40:28 1510789228.363901: $GPGSA,A,3,25,14,32,31,29,10,26,22,,,,,3.4,1.2,2.9*32
2017-11-15 18:40:29 1510789229.329498: $GPZDA,234028.00,15,11,2017,00,00*69
2017-11-15 18:40:29 1510789229.329661: $GPGGA,234028,3946.9536,N,08404.9637,W,1,08,1.20,308.94,M,-33.324,M,,*78
2017-11-15 18:40:29 1510789229.329722: $GPRMC,234028,A,3946.9536,N,08404.9637,W,0.4844,273.794,151117,,*30
2017-11-15 18:40:29 1510789229.329778: $GPGSA,A,3,25,14,32,31,29,10,26,22,,,,,3.4,1.2,2.9*32
2017-11-15 18:40:30 1510789230.700423: $GPGSV,3,1,11,25,33,054,19,14,68,049,16,01,17,271,00,32,53,084,23*7D
2017-11-15 18:40:30 1510789230.700745: $GPGSV,3,2,11,31,79,298,19,03,23,315,04,29,01,090,17,10,18,157,14*75
2017-11-15 18:40:30 1510789230.700862: $GPGSV,3,3,11,26,29,178,16,22,41,300,22,12,04,031,00*4C
2017-11-15 18:40:30 1510789230.813630: $GPZDA,234029.00,15,11,2017,00,00*68
2017-11-15 18:40:30 1510789230.813810: $GPGGA,234029,3946.9536,N,08404.9637,W,1,08,1.20,308.94,M,-33.324,M,,*79
2017-11-15 18:40:30 1510789230.813871: $GPRMC,234029,A,3946.9536,N,08404.9637,W,0.4844,273.794,151117,,*31
2017-11-15 18:40:30 1510789230.813948: $GPGSA,A,3,25,14,32,31,29,10,26,22,,,,,3.4,1.2,2.9*32
2017-11-15 18:40:31 1510789231.439038: $GPZDA,234030.00,15,11,2017,00,00*60
2017-11-15 18:40:31 1510789231.439219: $GPGGA,234030,3946.9541,N,08404.9644,W,1,08,1.20,309.50,M,-33.324,M,,*7C
2017-11-15 18:40:31 1510789231.439280: $GPRMC,234030,A,3946.9541,N,08404.9644,W,0.9948,317.276,151117,,*37
2017-11-15 18:40:31 1510789231.439337: $GPGSA,A,3,25,14,32,31,29,10,26,22,,,,,3.4,1.2,2.9*32
