2017-11-15 19:51:53 1510793513.985451: {"class":"VERSION","release":"3.17","rev":"3.17","proto_major":3,"proto_minor":12}
2017-11-15 19:51:53 1510793513.985956: {"class":"DEVICES","devices":[{"class":"DEVICE","path":"/dev/ttyUSB0","driver":"SiRF","subtype":"9\u0006GSD4e_4.1.2-P1_RPATCH.05-F-GPS-4R-1510281 11/03/2015 307","activated":"2017-11-16T00:51:53.470Z","flags":1,"native":1,"bps":4800,"parity":"N","stopbits":1,"cycle":1.00}]}
2017-11-15 19:51:53 1510793513.986112: {"class":"WATCH","enable":true,"json":false,"nmea":true,"raw":0,"scaled":false,"timing":false,"split24":false,"pps":false}
2017-11-15 19:51:54 1510793514.682200: $GPGSV,3,1,10,32,28,115,11,16,33,190,17,31,59,039,18,26,64,166,27*72
2017-11-15 19:51:54 1510793514.682370: $GPGSV,3,2,10,14,47,105,23,22,49,255,16,03,44,288,13,23,19,304,20*7D
2017-11-15 19:51:54 1510793514.682430: $GPGSV,3,3,10,29,13,061,00,25,09,037,00*7C
2017-11-15 19:51:54 1510793514.795768: $GPZDA,005153.00,16,11,2017,00,00*67
2017-11-15 19:51:54 1510793514.795915: $GPGGA,005153,3946.9532,N,08404.9588,W,1,08,1.20,297.42,M,-33.324,M,,*7A
2017-11-15 19:51:54 1510793514.795975: $GPRMC,005153,A,3946.9532,N,08404.9588,W,0.2422,93.794,161117,,*0B
2017-11-15 19:51:54 1510793514.796047: $GPGSA,A,3,32,16,31,26,14,22,3,23,,,,,3.4,1.2,2.9*0A
2017-11-15 19:51:55 1510793515.330434: $GPZDA,005154.00,16,11,2017,00,00*60
2017-11-15 19:51:55 1510793515.330596: $GPGGA,005154,3946.9532,N,08404.9588,W,1,08,1.20,297.42,M,-33.324,M,,*7D
2017-11-15 19:51:55 1510793515.330657: $GPRMC,005154,A,3946.9532,N,08404.9588,W,0.3155,129.994,161117,,*36
2017-11-15 19:51:55 1510793515.330733: $GPGSA,A,3,32,16,31,26,14,22,3,23,,,,,3.4,1.2,2.9*0A
2017-11-15 19:51:56 1510793516.329568: $GPZDA,005155.00,16,11,2017,00,00*61
2017-11-15 19:51:56 1510793516.329728: $GPGGA,005155,3946.9532,N,08404.9588,W,1,08,1.20,297.42,M,-33.324,M,,*7C
2017-11-15 19:51:56 1510793516.329788: $GPRMC,005155,A,3946.9532,N,08404.9588,W,0.3423,184.197,161117,,*3F
2017-11-15 19:51:56 1510793516.329866: $GPGSA,A,3,32,16,31,26,14,22,3,23,,,,,3.4,1.2,2.9*0A
2017-11-15 19:51:57 1510793517.681294: $GPGSV,3,1,10,32,28,115,06,16,33,190,16,31,59,039,17,26,64,166,27*7A
2017-11-15 19:51:57 1510793517.681464: $GPGSV,3,2,10,14,47,105,22,22,49,255,16,03,44,288,10,23,19,304,20*7F
2017-11-15 19:51:57 1510793517.681524: $GPGSV,3,3,10,29,13,061,00,25,09,037,00*7C
2017-11-15 19:51:57 1510793517.794904: $GPZDA,005156.00,16,11,2017,00,00*62
2017-11-15 19:51:57 1510793517.795079: $GPGGA,005156,3946.9532,N,08404.9588,W,1,07,1.20,297.42,M,-33.324,M,,*70
2017-11-15 19:51:57 1510793517.795140: $GPRMC,005156,A,3946.9532,N,08404.9588,W,0.2422,273.794,161117,,*32
2017-11-15 19:51:57 1510793517.795195: $GPGSA,A,3,16,31,26,14,22,3,23,,,,,,3.4,1.2,2.9*0B
2017-11-15 19:51:58 1510793518.347109: $GPZDA,005157.00,16,11,2017,00,00*63
2017-11-15 19:51:58 1510793518.347282: $GPGGA,005157,3946.9532,N,08404.9595,W,1,07,1.20,297.34,M,-33.324,M,,*7C
2017-11-15 19:51:58 1510793518.347346: $GPRMC,005157,A,3946.9532,N,08404.9595,W,0.8414,219.347,161117,,*36
2017-11-15 19:51:58 1510793518.347405: $GPGSA,A,3,16,31,26,14,22,3,23,,,,,,3.4,1.2,2.9*0B
2017-11-15 19:51:59 1510793519.330453: $GPZDA,005158.00,16,11,2017,00,00*6C
2017-11-15 19:51:59 1510793519.330619: $GPGGA,005158,3946.9532,N,08404.9595,W,1,07,1.20,297.34,M,-33.324,M,,*73
2017-11-15 19:51:59 1510793519.330683: $GPRMC,005158,A,3946.9532,N,08404.9595,W,1.0567,197.447,161117,,*37
2017-11-15 19:51:59 1510793519.330742: $GPGSA,A,3,16,31,26,14,22,3,23,,,,,,3.4,1.2,2.9*0B
2017-11-15 19:52:00 1510793520.665899: $GPGSV,3,1,10,32,28,115,04,16,33,190,16,31,59,039,16,26,64,166,27*79
2017-11-15 19:52:00 1510793520.666101: $GPGSV,3,2,10,14,47,105,22,22,49,255,16,03,44,288,10,23,19,304,20*7F
2017-11-15 19:52:00 1510793520.666164: $GPGSV,3,3,10,29,13,061,00,25,09,037,00*7C
2017-11-15 19:52:00 1510793520.779591: $GPZDA,005159.00,16,11,2017,00,00*6D
2017-11-15 19:52:00 1510793520.779756: $GPGGA,005159,3946.9532,N,08404.9588,W,1,07,1.20,297.42,M,-33.324,M,,*7F
2017-11-15 19:52:00 1510793520.779839: $GPRMC,005159,A,3946.9532,N,08404.9588,W,1.0002,154.331,161117,,*35
2017-11-15 19:52:00 1510793520.779953: $GPGSA,A,3,16,31,26,14,22,3,23,,,,,,3.4,1.2,2.9*0B
2017-11-15 19:52:01 1510793521.404871: $GPZDA,005200.00,16,11,2017,00,00*62
2017-11-15 19:52:01 1510793521.405052: $GPGGA,005200,3946.9532,N,08404.9588,W,1,07,1.20,297.42,M,-33.324,M,,*70
2017-11-15 19:52:01 1510793521.405114: $GPRMC,005200,A,3946.9532,N,08404.9588,W,0.0000,0.000,161117,,*38
2017-11-15 19:52:01 1510793521.405170: $GPGSA,A,3,16,31,26,14,22,3,23,,,,,,3.4,1.2,2.9*0B
2017-11-15 19:52:02 1510793522.329523: $GPZDA,005201.00,16,11,2017,00,00*63
2017-11-15 19:52:03 1510793523.320740: $GPGGA,005201,3946.9532,N,08404.9595,W,1,07,1.20,297.34,M,-33.324,M,,*7C
2017-11-15 19:52:03 1510793523.320878: $GPRMC,005201,A,3946.9532,N,08404.9595,W,0.4844,273.794,161117,,*35
2017-11-15 19:52:03 1510793523.320937: $GPGSA,A,3,16,31,26,14,22,3,23,,,,,,3.4,1.2,2.9*0B
2017-11-15 19:52:03 1510793523.665023: $GPGSV,3,1,10,32,28,115,05,16,33,190,15,31,59,039,16,26,64,166,27*7B
2017-11-15 19:52:03 1510793523.665191: $GPGSV,3,2,10,14,47,105,21,22,49,255,16,03,44,288,08,23,19,304,20*75
2017-11-15 19:52:03 1510793523.665254: $GPGSV,3,3,10,29,13,061,00,25,09,037,00*7C
2017-11-15 19:52:03 1510793523.778361: $GPZDA,005202.00,16,11,2017,00,00*60
2017-11-15 19:52:03 1510793523.778526: $GPGGA,005202,3946.9532,N,08404.9595,W,1,08,1.20,297.34,M,-33.324,M,,*70
2017-11-15 19:52:03 1510793523.778587: $GPRMC,005202,A,3946.9532,N,08404.9595,W,0.7267,273.794,161117,,*3E
2017-11-15 19:52:03 1510793523.778644: $GPGSA,A,3,32,16,31,26,14,22,3,23,,,,,3.4,1.2,2.9*0A
