2017-11-15 19:05:44 1510790744.313334: {"class":"VERSION","release":"3.17","rev":"3.17","proto_major":3,"proto_minor":12}
2017-11-15 19:05:44 1510790744.313758: {"class":"DEVICES","devices":[{"class":"DEVICE","path":"/dev/ttyUSB0","driver":"SiRF","subtype":"9\u0006GSD4e_4.1.2-P1_RPATCH.05-F-GPS-4R-1510281 11/03/2015 307","activated":"2017-11-16T00:05:44.216Z","flags":1,"native":1,"bps":4800,"parity":"N","stopbits":1,"cycle":1.00}]}
2017-11-15 19:05:44 1510790744.313996: {"class":"WATCH","enable":true,"json":false,"nmea":true,"raw":0,"scaled":false,"timing":false,"split24":false,"pps":false}
2017-11-15 19:05:44 1510790744.356950: $GPZDA,000543.00,16,11,2017,00,00*67
2017-11-15 19:05:44 1510790744.357122: $GPGGA,000543,3946.9661,N,08404.9435,W,1,07,1.40,295.36,M,-33.324,M,,*70
2017-11-15 19:05:44 1510790744.357184: $GPRMC,000543,A,3946.9661,N,08404.9435,W,0.4179,328.778,161117,,*35
2017-11-15 19:05:44 1510790744.357240: $GPGSA,A,3,32,14,3,26,31,16,22,,,,,,3.4,1.4,2.9*0D
2017-11-15 19:05:45 1510790745.681882: $GPGSV,3,1,11,32,45,096,16,14,63,073,20,03,32,309,17,26,40,175,22*78
2017-11-15 19:05:45 1510790745.682055: $GPGSV,3,2,11,31,76,355,24,16,11,190,17,22,47,288,10,29,06,081,04*77
2017-11-15 19:05:45 1510790745.682115: $GPGSV,3,3,11,25,26,045,00,01,12,262,00,10,08,159,00*4B
2017-11-15 19:05:45 1510790745.795181: $GPZDA,000544.00,16,11,2017,00,00*60
2017-11-15 19:05:45 1510790745.795332: $GPGGA,000544,3946.9661,N,08404.9435,W,1,07,1.40,295.36,M,-33.324,M,,*77
2017-11-15 19:05:45 1510790745.795394: $GPRMC,000544,A,3946.9661,N,08404.9435,W,0.9066,309.458,161117,,*32
2017-11-15 19:05:45 1510790745.795450: $GPGSA,A,3,32,14,3,26,31,16,22,,,,,,3.4,1.4,2.9*0D
2017-11-15 19:05:46 1510790746.420605: $GPZDA,000545.00,16,11,2017,00,00*61
2017-11-15 19:05:46 1510790746.420777: $GPGGA,000545,3946.9661,N,08404.9442,W,1,07,1.40,295.28,M,-33.324,M,,*79
2017-11-15 19:05:46 1510790746.420839: $GPRMC,000545,A,3946.9661,N,08404.9442,W,0.4844,273.795,161117,,*38
2017-11-15 19:05:46 1510790746.420895: $GPGSA,A,3,32,14,3,26,31,16,22,,,,,,3.4,1.4,2.9*0D
2017-11-15 19:05:47 1510790747.330183: $GPZDA,000546.00,16,11,2017,00,00*62
2017-11-15 19:05:47 1510790747.330359: $GPGGA,000546,3946.9661,N,08404.9442,W,1,07,1.40,295.28,M,-33.324,M,,*7A
2017-11-15 19:05:47 1510790747.330420: $GPRMC,000546,A,3946.9661,N,08404.9442,W,0.2422,273.795,161117,,*31
2017-11-15 19:05:47 1510790747.330476: $GPGSA,A,3,32,14,3,26,31,16,22,,,,,,3.4,1.4,2.9*0D
2017-11-15 19:05:48 1510790748.682309: $GPGSV,3,1,11,32,45,096,16,14,63,073,20,03,32,309,17,26,40,175,23*79
2017-11-15 19:05:48 1510790748.682496: $GPGSV,3,2,11,31,76,355,24,16,11,190,17,22,47,288,10,29,06,081,04*77
2017-11-15 19:05:48 1510790748.682556: $GPGSV,3,3,11,25,26,045,00,01,12,262,00,10,08,159,00*4B
2017-11-15 19:05:48 1510790748.795533: $GPZDA,000547.00,16,11,2017,00,00*63
2017-11-15 19:05:48 1510790748.795693: $GPGGA,000547,3946.9665,N,08404.9442,W,1,07,1.40,295.92,M,-33.324,M,,*7E
2017-11-15 19:05:48 1510790748.795754: $GPRMC,000547,A,3946.9665,N,08404.9442,W,0.3155,309.994,161117,,*33
2017-11-15 19:05:48 1510790748.795809: $GPGSA,A,3,32,14,3,26,31,16,22,,,,,,3.4,1.4,2.9*0D
2017-11-15 19:05:49 1510790749.346400: $GPZDA,000548.00,16,11,2017,00,00*6C
2017-11-15 19:05:49 1510790749.346562: $GPGGA,000548,3946.9665,N,08404.9442,W,1,07,1.40,295.92,M,-33.324,M,,*71
2017-11-15 19:05:49 1510790749.346623: $GPRMC,000548,A,3946.9665,N,08404.9442,W,0.4207,219.347,161117,,*3B
2017-11-15 19:05:49 1510790749.346679: $GPGSA,A,3,32,14,3,26,31,16,22,,,,,,3.4,1.4,2.9*0D
2017-11-15 19:05:50 1510790750.346215: $GPZDA,000549.00,16,11,2017,00,00*6D
2017-11-15 19:05:50 1510790750.346388: $GPGGA,000549,3946.9665,N,08404.9449,W,1,07,1.40,295.84,M,-33.324,M,,*7C
2017-11-15 19:05:50 1510790750.350523: $GPRMC,000549,A,3946.9665,N,08404.9449,W,0.7070,228.986,161117,,*35
2017-11-15 19:05:50 1510790750.350641: $GPGSA,A,3,32,14,3,26,31,16,22,,,,,,3.4,1.4,2.9*0D
2017-11-15 19:05:51 1510790751.681334: $GPGSV,3,1,11,32,45,096,16,14,63,073,21,03,32,309,16,26,40,175,24*7E
2017-11-15 19:05:51 1510790751.681509: $GPGSV,3,2,11,31,76,355,24,16,11,190,17,22,47,288,11,29,06,081,04*76
2017-11-15 19:05:51 1510790751.681621: $GPGSV,3,3,11,25,26,045,00,01,12,262,00,10,08,159,00*4B
2017-11-15 19:05:51 1510790751.794776: $GPZDA,000550.00,16,11,2017,00,00*65
2017-11-15 19:05:51 1510790751.794948: $GPGGA,000550,3946.9661,N,08404.9449,W,1,07,1.40,295.20,M,-33.324,M,,*7E
2017-11-15 19:05:51 1510790751.795009: $GPRMC,000550,A,3946.9661,N,08404.9449,W,1.1902,238.684,161117,,*3E
2017-11-15 19:05:51 1510790751.795064: $GPGSA,A,3,32,14,3,26,31,16,22,,,,,,3.4,1.4,2.9*0D
2017-11-15 19:05:52 1510790752.329358: $GPZDA,000551.00,16,11,2017,00,00*64
2017-11-15 19:05:52 1510790752.329520: $GPGGA,000551,3946.9662,N,08404.9457,W,1,07,1.40,296.52,M,-33.324,M,,*75
2017-11-15 19:05:52 1510790752.329581: $GPRMC,000551,A,3946.9662,N,08404.9457,W,1.2357,266.544,161117,,*3E
2017-11-15 19:05:52 1510790752.329637: $GPGSA,A,3,32,14,3,26,31,16,22,,,,,,3.4,1.4,2.9*0D
2017-11-15 19:05:53 1510790753.345463: $GPZDA,000552.00,16,11,2017,00,00*67
2017-11-15 19:05:53 1510790753.345625: $GPGGA,000552,3946.9662,N,08404.9457,W,1,07,1.40,296.52,M,-33.324,M,,*76
2017-11-15 19:05:53 1510790753.345685: $GPRMC,000552,A,3946.9662,N,08404.9457,W,0.9959,264.784,161117,,*3F
2017-11-15 19:05:53 1510790753.345741: $GPGSA,A,3,32,14,3,26,31,16,22,,,,,,3.4,1.4,2.9*0D
