2017-11-15 19:18:28 1510791508.554030: {"class":"VERSION","release":"3.17","rev":"3.17","proto_major":3,"proto_minor":12}
2017-11-15 19:18:28 1510791508.554570: {"class":"DEVICES","devices":[{"class":"DEVICE","path":"/dev/ttyUSB0","driver":"SiRF","subtype":"9\u0006GSD4e_4.1.2-P1_RPATCH.05-F-GPS-4R-1510281 11/03/2015 307","activated":"2017-11-16T00:18:28.471Z","flags":1,"native":1,"bps":4800,"parity":"N","stopbits":1,"cycle":1.00}]}
2017-11-15 19:18:28 1510791508.554696: {"class":"WATCH","enable":true,"json":false,"nmea":true,"raw":0,"scaled":false,"timing":false,"split24":false,"pps":false}
2017-11-15 19:18:29 1510791509.347030: $GPZDA,001828.00,16,11,2017,00,00*66
2017-11-15 19:18:30 1510791510.097842: $GPGGA,001828,3946.9556,N,08404.9534,W,1,07,1.40,266.94,M,-33.324,M,,*72
2017-11-15 19:18:30 1510791510.097979: $GPRMC,001828,A,3946.9556,N,08404.9534,W,0.9948,317.276,161117,,*33
2017-11-15 19:18:30 1510791510.098039: $GPGSA,A,3,32,14,26,31,29,3,16,,,,,,3.4,1.4,2.9*06
2017-11-15 19:18:30 1510791510.666558: $GPGSV,3,1,11,32,41,102,27,14,59,084,21,22,49,280,07,26,46,175,22*7A
2017-11-15 19:18:30 1510791510.666764: $GPGSV,3,2,11,31,72,013,15,29,09,076,14,03,36,304,18,16,16,190,07*78
2017-11-15 19:18:30 1510791510.666834: $GPGSV,3,3,11,25,22,042,00,01,09,256,00,23,07,298,00*44
2017-11-15 19:18:30 1510791510.780149: $GPZDA,001829.00,16,11,2017,00,00*67
2017-11-15 19:18:30 1510791510.780305: $GPGGA,001829,3946.9557,N,08404.9541,W,1,08,1.40,266.86,M,-33.324,M,,*7C
2017-11-15 19:18:30 1510791510.780365: $GPRMC,001829,A,3946.9557,N,08404.9541,W,1.0253,293.297,161117,,*3A
2017-11-15 19:18:30 1510791510.780420: $GPGSA,A,3,32,14,22,26,31,29,3,16,,,,,3.4,1.4,2.9*06
2017-11-15 19:18:31 1510791511.405226: $GPZDA,001830.00,16,11,2017,00,00*6F
2017-11-15 19:18:31 1510791511.405397: $GPGGA,001830,3946.9557,N,08404.9541,W,1,08,1.40,266.86,M,-33.324,M,,*74
2017-11-15 19:18:31 1510791511.405460: $GPRMC,001830,A,3946.9557,N,08404.9541,W,1.0298,254.382,161117,,*3B
2017-11-15 19:18:31 1510791511.405517: $GPGSA,A,3,32,14,22,26,31,29,3,16,,,,,3.4,1.4,2.9*06
2017-11-15 19:18:32 1510791512.346177: $GPZDA,001831.00,16,11,2017,00,00*6E
2017-11-15 19:18:32 1510791512.346345: $GPGGA,001831,3946.9561,N,08404.9548,W,1,08,1.40,267.42,M,-33.324,M,,*70
2017-11-15 19:18:32 1510791512.346407: $GPRMC,001831,A,3946.9561,N,08404.9548,W,0.7267,273.794,161117,,*36
2017-11-15 19:18:32 1510791512.346463: $GPGSA,A,3,32,14,22,26,31,29,3,16,,,,,3.4,1.4,2.9*06
2017-11-15 19:18:33 1510791513.665628: $GPGSV,3,1,11,32,41,102,27,14,59,084,21,22,49,280,06,26,46,175,22*7B
2017-11-15 19:18:33 1510791513.665798: $GPGSV,3,2,11,31,72,013,16,29,09,076,10,03,36,304,18,16,16,190,07*7F
2017-11-15 19:18:33 1510791513.665856: $GPGSV,3,3,11,25,22,042,14,01,09,256,00,23,07,298,00*41
2017-11-15 19:18:33 1510791513.778938: $GPZDA,001832.00,16,11,2017,00,00*6D
2017-11-15 19:18:33 1510791513.779087: $GPGGA,001832,3946.9562,N,08404.9555,W,1,07,1.40,267.34,M,-33.324,M,,*72
2017-11-15 19:18:33 1510791513.779145: $GPRMC,001832,A,3946.9562,N,08404.9555,W,1.2111,273.794,161117,,*3C
2017-11-15 19:18:33 1510791513.779200: $GPGSA,A,3,32,14,26,31,29,3,16,,,,,,3.4,1.4,2.9*06
2017-11-15 19:18:34 1510791514.345110: $GPZDA,001833.00,16,11,2017,00,00*6C
2017-11-15 19:18:35 1510791515.099271: $GPGGA,001833,3946.9562,N,08404.9555,W,1,07,1.00,267.34,M,-33.324,M,,*77
2017-11-15 19:18:35 1510791515.099416: $GPRMC,001833,A,3946.9562,N,08404.9555,W,0.9689,273.794,161117,,*31
2017-11-15 19:18:35 1510791515.099478: $GPGSA,A,3,32,14,26,31,29,3,16,,,,,,3.4,1.0,2.9*02
2017-11-15 19:18:35 1510791515.328202: $GPZDA,001834.00,16,11,2017,00,00*6B
2017-11-15 19:18:35 1510791515.328373: $GPGGA,001834,3946.9562,N,08404.9562,W,1,07,1.00,267.26,M,-33.324,M,,*77
2017-11-15 19:18:35 1510791515.328436: $GPRMC,001834,A,3946.9562,N,08404.9562,W,0.9988,284.546,161117,,*39
2017-11-15 19:18:35 1510791515.328492: $GPGSA,A,3,32,14,26,31,29,3,16,,,,,,3.4,1.0,2.9*02
2017-11-15 19:18:36 1510791516.685160: $GPGSV,3,1,11,32,41,102,28,14,59,084,21,22,49,280,07,26,46,175,22*75
2017-11-15 19:18:36 1510791516.685340: $GPGSV,3,2,11,31,72,013,16,29,09,076,12,03,36,304,18,16,16,190,10*7B
2017-11-15 19:18:36 1510791516.685457: $GPGSV,3,3,11,25,22,042,13,01,09,256,00,23,07,298,00*46
2017-11-15 19:18:36 1510791516.798228: $GPZDA,001835.00,16,11,2017,00,00*6A
2017-11-15 19:18:36 1510791516.798392: $GPGGA,001835,3946.9566,N,08404.9569,W,1,09,1.00,267.82,M,-33.324,M,,*79
2017-11-15 19:18:36 1510791516.798453: $GPRMC,001835,A,3946.9566,N,08404.9569,W,0.7267,273.794,161117,,*36
2017-11-15 19:18:36 1510791516.798508: $GPGSA,A,3,32,14,22,26,31,29,3,16,25,,,,3.4,1.0,2.9*05
2017-11-15 19:18:37 1510791517.331440: $GPZDA,001836.00,16,11,2017,00,00*69
2017-11-15 19:18:37 1510791517.331610: $GPGGA,001836,3946.9566,N,08404.9569,W,1,09,1.00,267.82,M,-33.324,M,,*7A
2017-11-15 19:18:37 1510791517.331673: $GPRMC,001836,A,3946.9566,N,08404.9569,W,0.4844,273.794,161117,,*3D
2017-11-15 19:18:37 1510791517.331730: $GPGSA,A,3,32,14,22,26,31,29,3,16,25,,,,3.4,1.0,2.9*05
2017-11-15 19:18:38 1510791518.331339: $GPZDA,001837.00,16,11,2017,00,00*68
2017-11-15 19:18:38 1510791518.331497: $GPGGA,001837,3946.9566,N,08404.9569,W,1,09,1.00,267.82,M,-33.324,M,,*7B
2017-11-15 19:18:38 1510791518.331557: $GPRMC,001837,A,3946.9566,N,08404.9569,W,0.3423,184.197,161117,,*38
2017-11-15 19:18:38 1510791518.331612: $GPGSA,A,3,32,14,22,26,31,29,3,16,25,,,,3.4,1.0,2.9*05
