2017-12-31 17:47:57 1514760477.226424: {"class":"VERSION","release":"3.16","rev":"3.16-4","proto_major":3,"proto_minor":11}
2017-12-31 17:47:57 1514760477.226770: {"class":"DEVICES","devices":[{"class":"DEVICE","path":"/dev/ttyUSB0","driver":"SiRF","activated":"2017-12-31T22:47:57.168Z","flags":1,"native":1,"bps":4800,"parity":"N","stopbits":1,"cycle":1.00}]}
2017-12-31 17:47:57 1514760477.226870: {"class":"WATCH","enable":true,"json":false,"nmea":true,"raw":0,"scaled":false,"timing":false,"split24":false,"pps":false}
2017-12-31 17:47:57 1514760477.681411: $GPGSV,3,1,12,22,30,220,44,23,45,309,46,09,12,312,38,03,38,244,44*78
2017-12-31 17:47:57 1514760477.681592: $GPGSV,3,2,12,16,69,192,43,29,10,037,34,14,23,127,00,31,35,067,39*78
2017-12-31 17:47:57 1514760477.681658: $GPGSV,3,3,12,32,02,132,19,27,14,159,19,26,71,061,46,135,22,240,44*42
2017-12-31 17:47:57 1514760477.794843: $GPZDA,224758.00,31,12,2017,00,00*6D
2017-12-31 17:47:57 1514760477.794968: $GPGGA,224758,3946.9574,N,08404.9857,W,2,11,0.80,305.27,M,-33.324,M,,*72
2017-12-31 17:47:57 1514760477.795032: $GPRMC,224758,A,3946.9574,N,08404.9857,W,0.0000,0.000,311217,,*3A
2017-12-31 17:47:57 1514760477.795092: $GPGSA,A,3,22,23,9,3,16,29,31,32,27,26,135,,1.7,0.8,1.3*0C
2017-12-31 17:47:58 1514760478.376989: $GPZDA,224759.00,31,12,2017,00,00*6C
2017-12-31 17:47:58 1514760478.377193: $GPGGA,224759,3946.9574,N,08404.9857,W,2,11,0.80,305.27,M,-33.324,M,,*73
2017-12-31 17:47:58 1514760478.377267: $GPRMC,224759,A,3946.9574,N,08404.9857,W,0.0000,0.000,311217,,*3B
2017-12-31 17:47:58 1514760478.377329: $GPGSA,A,3,22,23,9,3,16,29,31,32,27,26,135,,1.7,0.8,1.3*0C
2017-12-31 17:47:59 1514760479.347953: $GPZDA,224800.00,31,12,2017,00,00*6F
2017-12-31 17:47:59 1514760479.348111: $GPGGA,224800,3946.9574,N,08404.9857,W,2,11,0.80,305.27,M,-33.324,M,,*70
2017-12-31 17:47:59 1514760479.348178: $GPRMC,224800,A,3946.9574,N,08404.9857,W,0.0000,0.000,311217,,*38
2017-12-31 17:47:59 1514760479.348240: $GPGSA,A,3,22,23,9,3,16,29,31,32,27,26,135,,1.7,0.8,1.3*0C
2017-12-31 17:48:00 1514760480.683066: $GPGSV,3,1,12,22,30,220,44,23,45,309,45,09,12,312,38,03,38,244,45*7A
2017-12-31 17:48:00 1514760480.683234: $GPGSV,3,2,12,16,69,192,42,29,10,037,34,14,23,127,08,31,35,067,40*7F
2017-12-31 17:48:00 1514760480.683300: $GPGSV,3,3,12,32,02,132,19,27,14,159,19,26,71,061,46,135,22,240,44*42
2017-12-31 17:48:00 1514760480.796485: $GPZDA,224801.00,31,12,2017,00,00*6E
2017-12-31 17:48:00 1514760480.796629: $GPGGA,224801,3946.9574,N,08404.9857,W,2,11,0.80,305.27,M,-33.324,M,,*71
2017-12-31 17:48:00 1514760480.796694: $GPRMC,224801,A,3946.9574,N,08404.9857,W,0.0000,0.000,311217,,*39
2017-12-31 17:48:00 1514760480.796756: $GPGSA,A,3,22,23,9,3,16,29,31,32,27,26,135,,1.7,0.8,1.3*0C
2017-12-31 17:48:01 1514760481.373765: $GPZDA,224802.00,31,12,2017,00,00*6D
2017-12-31 17:48:01 1514760481.373932: $GPGGA,224802,3946.9574,N,08404.9857,W,2,11,0.60,305.27,M,-33.324,M,,*7C
2017-12-31 17:48:01 1514760481.373998: $GPRMC,224802,A,3946.9574,N,08404.9857,W,0.0000,0.000,311217,,*3A
2017-12-31 17:48:01 1514760481.374059: $GPGSA,A,3,22,23,9,3,16,29,31,32,27,26,135,,1.7,0.6,1.3*02
2017-12-31 17:48:02 1514760482.339643: $GPZDA,224803.00,31,12,2017,00,00*6C
2017-12-31 17:48:02 1514760482.339828: $GPGGA,224803,3946.9574,N,08404.9857,W,2,11,0.60,305.27,M,-33.324,M,,*7D
2017-12-31 17:48:02 1514760482.339895: $GPRMC,224803,A,3946.9574,N,08404.9857,W,0.0000,0.000,311217,,*3B
2017-12-31 17:48:02 1514760482.339957: $GPGSA,A,3,22,23,9,3,16,29,31,32,27,26,135,,1.7,0.6,1.3*02
2017-12-31 17:48:03 1514760483.682638: $GPGSV,3,1,12,22,30,220,44,23,45,309,46,09,12,312,38,03,38,244,44*78
2017-12-31 17:48:03 1514760483.682810: $GPGSV,3,2,12,16,69,192,42,29,10,037,33,14,23,127,27,31,35,067,41*74
2017-12-31 17:48:03 1514760483.682876: $GPGSV,3,3,12,32,02,132,18,27,14,159,18,26,71,061,46,135,22,240,44*42
2017-12-31 17:48:03 1514760483.796119: $GPZDA,224804.00,31,12,2017,00,00*6B
2017-12-31 17:48:03 1514760483.796261: $GPGGA,224804,3946.9574,N,08404.9857,W,2,12,0.60,305.27,M,-33.324,M,,*79
2017-12-31 17:48:03 1514760483.796327: $GPRMC,224804,A,3946.9574,N,08404.9857,W,0.0000,0.000,311217,,*3C
2017-12-31 17:48:03 1514760483.796442: $GPGSA,A,3,22,23,9,3,16,29,14,31,32,27,26,135,1.7,0.6,1.3*07
2017-12-31 17:48:04 1514760484.371988: $GPZDA,224805.00,31,12,2017,00,00*6A
2017-12-31 17:48:04 1514760484.372160: $GPGGA,224805,3946.9574,N,08404.9857,W,2,12,0.60,305.27,M,-33.324,M,,*78
2017-12-31 17:48:04 1514760484.372226: $GPRMC,224805,A,3946.9574,N,08404.9857,W,0.0000,0.000,311217,,*3D
2017-12-31 17:48:04 1514760484.372287: $GPGSA,A,3,22,23,9,3,16,29,14,31,32,27,26,135,1.7,0.6,1.3*07
2017-12-31 17:48:05 1514760485.372323: $GPZDA,224806.00,31,12,2017,00,00*69
2017-12-31 17:48:05 1514760485.372492: $GPGGA,224806,3946.9574,N,08404.9857,W,2,12,0.80,305.27,M,-33.324,M,,*75
2017-12-31 17:48:05 1514760485.372559: $GPRMC,224806,A,3946.9574,N,08404.9857,W,0.0000,0.000,311217,,*3E
2017-12-31 17:48:05 1514760485.372621: $GPGSA,A,3,22,23,9,3,16,29,14,31,32,27,26,135,1.7,0.8,1.3*09
2017-12-31 17:48:06 1514760486.675485: $GPGSV,3,1,12,22,30,220,45,23,45,309,46,09,12,312,38,03,38,244,44*79
2017-12-31 17:48:06 1514760486.675638: $GPGSV,3,2,12,16,69,192,43,29,10,037,27,14,23,127,18,31,35,067,40*7D
2017-12-31 17:48:06 1514760486.675705: $GPGSV,3,3,12,32,02,132,17,27,14,159,18,26,71,061,47,135,22,240,44*4C
2017-12-31 17:48:06 1514760486.788901: $GPZDA,224807.00,31,12,2017,00,00*68
2017-12-31 17:48:06 1514760486.789018: $GPGGA,224807,3946.9574,N,08404.9857,W,2,12,0.60,305.27,M,-33.324,M,,*7A
2017-12-31 17:48:06 1514760486.789082: $GPRMC,224807,A,3946.9574,N,08404.9857,W,0.0000,0.000,311217,,*3F
2017-12-31 17:48:06 1514760486.789142: $GPGSA,A,3,22,23,9,3,16,29,14,31,32,27,26,135,1.7,0.6,1.3*07
