2017-12-01 18:10:46 1512169846.636692: {"class":"VERSION","release":"3.16","rev":"3.16-4","proto_major":3,"proto_minor":11}
2017-12-01 18:10:46 1512169846.637222: {"class":"DEVICES","devices":[{"class":"DEVICE","path":"/dev/ttyUSB0","driver":"SiRF","subtype":"9\u0006GSD4e_4.1.2-P1_RPATCH.05-F-GPS-4R-1510281 11/03/2015 307","activated":"2017-12-01T23:10:46.575Z","flags":1,"native":1,"bps":4800,"parity":"N","stopbits":1,"cycle":1.00}]}
2017-12-01 18:10:46 1512169846.637370: {"class":"WATCH","enable":true,"json":false,"nmea":true,"raw":0,"scaled":false,"timing":false,"split24":false,"pps":false}
2017-12-01 18:10:47 1512169847.741613: $GPGSV,3,1,12,03,36,304,47,14,60,082,43,16,17,189,41,22,49,280,46*75
2017-12-01 18:10:47 1512169847.741794: $GPGSV,3,2,12,23,07,298,40,25,22,042,40,26,47,174,46,31,72,015,47*78
2017-12-01 18:10:47 1512169847.741861: $GPGSV,3,3,12,32,40,102,42,01,09,258,34,29,08,078,26,138,38,213,46*41
2017-12-01 18:10:47 1512169847.854945: $GPZDA,231048.00,01,12,2017,00,00*6C
2017-12-01 18:10:47 1512169847.855102: $GPGGA,231048,3946.9730,N,08404.9821,W,2,12,0.60,290.81,M,-33.325,M,,*7E
2017-12-01 18:10:47 1512169847.855169: $GPRMC,231048,A,3946.9730,N,08404.9821,W,0.0000,0.000,011217,,*38
2017-12-01 18:10:47 1512169847.855230: $GPGSA,A,3,3,14,16,22,23,25,26,31,32,1,29,138,2.0,0.6,1.5*02
2017-12-01 18:10:48 1512169848.480610: $GPZDA,231049.00,01,12,2017,00,00*6D
2017-12-01 18:10:48 1512169848.480782: $GPGGA,231049,3946.9730,N,08404.9821,W,2,12,0.60,290.81,M,-33.325,M,,*7F
2017-12-01 18:10:48 1512169848.480849: $GPRMC,231049,A,3946.9730,N,08404.9821,W,0.0000,0.000,011217,,*39
2017-12-01 18:10:48 1512169848.480935: $GPGSA,A,3,3,14,16,22,23,25,26,31,32,1,29,138,2.0,0.6,1.5*02
2017-12-01 18:10:49 1512169849.434976: $GPZDA,231050.00,01,12,2017,00,00*65
2017-12-01 18:10:49 1512169849.435176: $GPGGA,231050,3946.9730,N,08404.9821,W,2,12,0.60,290.81,M,-33.325,M,,*77
2017-12-01 18:10:49 1512169849.435245: $GPRMC,231050,A,3946.9730,N,08404.9821,W,0.0000,0.000,011217,,*31
2017-12-01 18:10:49 1512169849.435306: $GPGSA,A,3,3,14,16,22,23,25,26,31,32,1,29,138,2.0,0.6,1.5*02
2017-12-01 18:10:50 1512169850.770674: $GPGSV,3,1,12,03,36,304,47,14,60,082,43,16,17,189,40,22,49,280,46*74
2017-12-01 18:10:50 1512169850.770888: $GPGSV,3,2,12,23,07,298,40,25,22,042,40,26,47,174,46,31,72,015,47*78
2017-12-01 18:10:50 1512169850.770962: $GPGSV,3,3,12,32,40,102,43,01,09,258,33,29,08,078,26,138,38,213,46*47
2017-12-01 18:10:50 1512169850.884074: $GPZDA,231051.00,01,12,2017,00,00*64
2017-12-01 18:10:50 1512169850.884268: $GPGGA,231051,3946.9730,N,08404.9821,W,2,12,0.60,290.81,M,-33.325,M,,*76
2017-12-01 18:10:50 1512169850.884338: $GPRMC,231051,A,3946.9730,N,08404.9821,W,0.0000,0.000,011217,,*30
2017-12-01 18:10:50 1512169850.884400: $GPGSA,A,3,3,14,16,22,23,25,26,31,32,1,29,138,2.0,0.6,1.5*02
2017-12-01 18:10:51 1512169851.406188: $GPZDA,231052.00,01,12,2017,00,00*67
2017-12-01 18:10:51 1512169851.406360: $GPGGA,231052,3946.9730,N,08404.9821,W,2,12,0.60,290.81,M,-33.325,M,,*75
2017-12-01 18:10:51 1512169851.406428: $GPRMC,231052,A,3946.9730,N,08404.9821,W,0.0000,0.000,011217,,*33
2017-12-01 18:10:51 1512169851.406489: $GPGSA,A,3,3,14,16,22,23,25,26,31,32,1,29,138,2.0,0.6,1.5*02
2017-12-01 18:10:52 1512169852.433301: $GPZDA,231053.00,01,12,2017,00,00*66
2017-12-01 18:10:52 1512169852.433476: $GPGGA,231053,3946.9730,N,08404.9821,W,2,12,0.60,290.81,M,-33.325,M,,*74
2017-12-01 18:10:52 1512169852.433544: $GPRMC,231053,A,3946.9730,N,08404.9821,W,0.0000,0.000,011217,,*32
2017-12-01 18:10:52 1512169852.433606: $GPGSA,A,3,3,14,16,22,23,25,26,31,32,1,29,138,2.0,0.6,1.5*02
2017-12-01 18:10:53 1512169853.741011: $GPGSV,3,1,12,03,36,304,47,14,60,082,42,16,17,189,41,22,49,280,47*75
2017-12-01 18:10:53 1512169853.741189: $GPGSV,3,2,12,23,07,298,40,25,22,042,40,26,47,174,46,31,72,015,47*78
2017-12-01 18:10:53 1512169853.741255: $GPGSV,3,3,12,32,40,102,42,01,09,258,34,29,08,078,26,138,38,213,46*41
2017-12-01 18:10:53 1512169853.854613: $GPZDA,231054.00,01,12,2017,00,00*61
2017-12-01 18:10:53 1512169853.854749: $GPGGA,231054,3946.9730,N,08404.9821,W,2,12,0.60,290.81,M,-33.325,M,,*73
2017-12-01 18:10:53 1512169853.854888: $GPRMC,231054,A,3946.9730,N,08404.9821,W,0.0000,0.000,011217,,*35
2017-12-01 18:10:53 1512169853.854968: $GPGSA,A,3,3,14,16,22,23,25,26,31,32,1,29,138,2.0,0.6,1.5*02
2017-12-01 18:10:54 1512169854.400518: $GPZDA,231055.00,01,12,2017,00,00*60
2017-12-01 18:10:54 1512169854.400686: $GPGGA,231055,3946.9730,N,08404.9821,W,2,12,0.60,290.81,M,-33.325,M,,*72
2017-12-01 18:10:54 1512169854.400753: $GPRMC,231055,A,3946.9730,N,08404.9821,W,0.0000,0.000,011217,,*34
2017-12-01 18:10:54 1512169854.400836: $GPGSA,A,3,3,14,16,22,23,25,26,31,32,1,29,138,2.0,0.6,1.5*02
2017-12-01 18:10:55 1512169855.406385: $GPZDA,231056.00,01,12,2017,00,00*63
2017-12-01 18:10:55 1512169855.406639: $GPGGA,231056,3946.9730,N,08404.9821,W,2,12,0.60,290.81,M,-33.325,M,,*71
2017-12-01 18:10:55 1512169855.406719: $GPRMC,231056,A,3946.9730,N,08404.9821,W,0.0000,0.000,011217,,*37
2017-12-01 18:10:55 1512169855.406808: $GPGSA,A,3,3,14,16,22,23,25,26,31,32,1,29,138,2.0,0.6,1.5*02
2017-12-01 18:10:56 1512169856.740593: $GPGSV,3,1,12,03,36,304,47,14,60,082,43,16,17,189,41,22,49,280,47*74
2017-12-01 18:10:56 1512169856.740795: $GPGSV,3,2,12,23,07,298,40,25,22,042,40,26,47,174,47,31,72,015,47*79
2017-12-01 18:10:56 1512169856.740865: $GPGSV,3,3,12,32,40,102,41,01,09,258,34,29,08,078,26,138,38,213,46*42
2017-12-01 18:10:56 1512169856.854035: $GPZDA,231057.00,01,12,2017,00,00*62
2017-12-01 18:10:56 1512169856.854208: $GPGGA,231057,3946.9730,N,08404.9821,W,2,12,0.60,290.81,M,-33.325,M,,*70
2017-12-01 18:10:56 1512169856.854275: $GPRMC,231057,A,3946.9730,N,08404.9821,W,0.0000,0.000,011217,,*36
2017-12-01 18:10:56 1512169856.854336: $GPGSA,A,3,3,14,16,22,23,25,26,31,32,1,29,138,2.0,0.6,1.5*02
2017-12-01 18:10:57 1512169857.405133: $GPZDA,231058.00,01,12,2017,00,00*6D
2017-12-01 18:10:57 1512169857.405300: $GPGGA,231058,3946.9730,N,08404.9821,W,2,12,0.80,290.81,M,-33.325,M,,*71
2017-12-01 18:10:57 1512169857.405367: $GPRMC,231058,A,3946.9730,N,08404.9821,W,0.0000,0.000,011217,,*39
2017-12-01 18:10:57 1512169857.405428: $GPGSA,A,3,3,14,16,22,23,25,26,31,32,1,29,138,2.0,0.8,1.5*0C
2017-12-01 18:10:58 1512169858.406498: $GPZDA,231059.00,01,12,2017,00,00*6C
2017-12-01 18:10:58 1512169858.406672: $GPGGA,231059,3946.9730,N,08404.9821,W,2,12,0.60,290.81,M,-33.325,M,,*7E
2017-12-01 18:10:58 1512169858.406764: $GPRMC,231059,A,3946.9730,N,08404.9821,W,0.0000,0.000,011217,,*38
2017-12-01 18:10:58 1512169858.406828: $GPGSA,A,3,3,14,16,22,23,25,26,31,32,1,29,138,2.0,0.6,1.5*02
2017-12-01 18:10:59 1512169859.742292: $GPGSV,3,1,12,03,36,304,47,14,60,082,43,16,17,189,41,22,49,280,47*74
2017-12-01 18:10:59 1512169859.742469: $GPGSV,3,2,12,23,07,298,41,25,22,042,40,26,47,174,47,31,72,015,48*77
2017-12-01 18:10:59 1512169859.742534: $GPGSV,3,3,12,32,40,102,42,01,09,258,33,29,08,078,26,138,38,213,46*46
2017-12-01 18:10:59 1512169859.856044: $GPZDA,231100.00,01,12,2017,00,00*61
2017-12-01 18:10:59 1512169859.856195: $GPGGA,231100,3946.9730,N,08404.9821,W,2,12,0.60,290.81,M,-33.325,M,,*73
2017-12-01 18:10:59 1512169859.856261: $GPRMC,231100,A,3946.9730,N,08404.9821,W,0.0000,0.000,011217,,*35
2017-12-01 18:10:59 1512169859.856322: $GPGSA,A,3,3,14,16,22,23,25,26,31,32,1,29,138,2.0,0.6,1.5*02
2017-12-01 18:11:00 1512169860.398993: $GPZDA,231101.00,01,12,2017,00,00*60
2017-12-01 18:11:00 1512169860.399168: $GPGGA,231101,3946.9730,N,08404.9821,W,2,12,0.80,290.81,M,-33.325,M,,*7C
2017-12-01 18:11:00 1512169860.399236: $GPRMC,231101,A,3946.9730,N,08404.9821,W,0.0000,0.000,011217,,*34
2017-12-01 18:11:00 1512169860.399297: $GPGSA,A,3,3,14,16,22,23,25,26,31,32,1,29,138,2.0,0.8,1.5*0C
2017-12-01 18:11:01 1512169861.406094: $GPZDA,231102.00,01,12,2017,00,00*63
2017-12-01 18:11:01 1512169861.406265: $GPGGA,231102,3946.9730,N,08404.9821,W,2,12,0.80,290.81,M,-33.325,M,,*7F
2017-12-01 18:11:01 1512169861.406332: $GPRMC,231102,A,3946.9730,N,08404.9821,W,0.0000,0.000,011217,,*37
2017-12-01 18:11:01 1512169861.406393: $GPGSA,A,3,3,14,16,22,23,25,26,31,32,1,29,138,2.0,0.8,1.5*0C
2017-12-01 18:11:02 1512169862.744274: $GPGSV,3,1,12,03,36,304,46,14,60,082,42,16,17,189,41,22,49,280,47*74
2017-12-01 18:11:02 1512169862.744472: $GPGSV,3,2,12,23,07,298,42,25,22,042,39,26,47,174,47,31,72,015,47*75
2017-12-01 18:11:02 1512169862.744543: $GPGSV,3,3,12,32,40,102,42,01,09,258,32,10,03,159,21,138,38,213,46*43
2017-12-01 18:11:02 1512169862.857853: $GPZDA,231103.00,01,12,2017,00,00*62
2017-12-01 18:11:02 1512169862.858025: $GPGGA,231103,3946.9730,N,08404.9821,W,2,12,0.80,290.81,M,-33.325,M,,*7E
2017-12-01 18:11:02 1512169862.858095: $GPRMC,231103,A,3946.9730,N,08404.9821,W,0.0000,0.000,011217,,*36
2017-12-01 18:11:02 1512169862.858160: $GPGSA,A,3,3,14,16,22,23,25,26,31,32,1,10,138,2.0,0.8,1.5*06
2017-12-01 18:11:03 1512169863.484791: $GPZDA,231104.00,01,12,2017,00,00*65
2017-12-01 18:11:03 1512169863.484981: $GPGGA,231104,3946.9730,N,08404.9821,W,2,12,0.60,290.81,M,-33.325,M,,*77
2017-12-01 18:11:03 1512169863.485051: $GPRMC,231104,A,3946.9730,N,08404.9821,W,0.0000,0.000,011217,,*31
2017-12-01 18:11:03 1512169863.485115: $GPGSA,A,3,3,14,16,22,23,25,26,31,32,1,10,138,2.0,0.6,1.5*08
2017-12-01 18:11:04 1512169864.405290: $GPZDA,231105.00,01,12,2017,00,00*64
2017-12-01 18:11:04 1512169864.405462: $GPGGA,231105,3946.9730,N,08404.9821,W,2,12,0.60,290.81,M,-33.325,M,,*76
2017-12-01 18:11:04 1512169864.405532: $GPRMC,231105,A,3946.9730,N,08404.9821,W,0.0000,0.000,011217,,*30
2017-12-01 18:11:04 1512169864.405597: $GPGSA,A,3,3,14,16,22,23,25,26,31,32,1,10,138,2.0,0.6,1.5*08
2017-12-01 18:11:05 1512169865.739903: $GPGSV,3,1,12,03,36,304,46,14,60,082,43,16,17,189,41,22,49,280,47*75
2017-12-01 18:11:05 1512169865.740121: $GPGSV,3,2,12,23,07,298,42,25,22,042,38,26,47,174,47,31,72,015,48*7B
2017-12-01 18:11:05 1512169865.740212: $GPGSV,3,3,12,32,40,102,41,01,09,258,33,29,08,078,28,138,38,213,46*4B
2017-12-01 18:11:05 1512169865.853554: $GPZDA,231106.00,01,12,2017,00,00*67
2017-12-01 18:11:05 1512169865.853745: $GPGGA,231106,3946.9730,N,08404.9821,W,2,12,0.60,290.81,M,-33.325,M,,*75
2017-12-01 18:11:05 1512169865.853831: $GPRMC,231106,A,3946.9730,N,08404.9821,W,0.0000,0.000,011217,,*33
2017-12-01 18:11:05 1512169865.853896: $GPGSA,A,3,3,14,16,22,23,25,26,31,32,1,29,138,2.0,0.6,1.5*02
2017-12-01 18:11:06 1512169866.406519: $GPZDA,231107.00,01,12,2017,00,00*66
2017-12-01 18:11:06 1512169866.406705: $GPGGA,231107,3946.9734,N,08404.9821,W,2,12,0.60,291.45,M,-33.325,M,,*79
2017-12-01 18:11:06 1512169866.406795: $GPRMC,231107,A,3946.9734,N,08404.9821,W,0.0000,0.000,011217,,*36
2017-12-01 18:11:06 1512169866.406861: $GPGSA,A,3,3,14,16,22,23,25,26,31,32,1,29,138,2.0,0.6,1.5*02
