2018-01-11 20:23:37 1515720217.206613: {"class":"VERSION","release":"3.16","rev":"3.16-4","proto_major":3,"proto_minor":11}
2018-01-11 20:23:37 1515720217.206953: {"class":"DEVICES","devices":[{"class":"DEVICE","path":"/dev/ttyUSB0","driver":"SiRF","subtype":"9\u0006GSD4e_4.1.2-P1_RPATCH.05-F-GPS-4R-1510281 11/03/2015 307","activated":"2018-01-12T01:23:37.134Z","flags":1,"native":1,"bps":4800,"parity":"N","stopbits":1,"cycle":1.00}]}
2018-01-11 20:23:37 1515720217.207068: {"class":"WATCH","enable":true,"json":false,"nmea":true,"raw":0,"scaled":false,"timing":false,"split24":false,"pps":false}
2018-01-11 20:23:37 1515720217.445372: $GPZDA,012338.00,12,01,2018,00,00*64
2018-01-11 20:23:37 1515720217.445542: $GPGGA,012338,3946.9592,N,08404.9854,W,2,11,0.80,302.85,M,-33.324,M,,*73
2018-01-11 20:23:37 1515720217.445607: $GPRMC,012338,A,3946.9592,N,08404.9854,W,0.0000,0.000,120118,,*38
2018-01-11 20:23:37 1515720217.445667: $GPGSA,A,3,7,8,9,11,16,23,27,28,30,1,138,,4.0,0.8,3.5*0F
2018-01-11 20:23:37 1515720217.445725: $GPGBS,012338,3.65,M,6.21,M,20.10,M*03
2018-01-11 20:23:38 1515720218.663307: $GPGSV,3,1,11,07,61,316,41,08,75,109,45,09,43,223,41,11,25,165,45*75
2018-01-11 20:23:38 1515720218.663470: $GPGSV,3,2,11,16,19,063,37,23,23,187,49,27,43,049,49,28,18,262,35*74
2018-01-11 20:23:38 1515720218.663535: $GPGSV,3,3,11,30,34,307,35,01,03,160,18,138,38,213,45*73
2018-01-11 20:23:38 1515720218.776923: $GPZDA,012339.00,12,01,2018,00,00*65
2018-01-11 20:23:38 1515720218.777030: $GPGGA,012339,3946.9592,N,08404.9854,W,2,11,0.80,302.85,M,-33.324,M,,*72
2018-01-11 20:23:38 1515720218.777093: $GPRMC,012339,A,3946.9592,N,08404.9854,W,0.0000,0.000,120118,,*39
2018-01-11 20:23:38 1515720218.777151: $GPGSA,A,3,7,8,9,11,16,23,27,28,30,1,138,,4.0,0.8,3.5*0F
2018-01-11 20:23:39 1515720219.345143: $GPZDA,012340.00,12,01,2018,00,00*6B
2018-01-11 20:23:39 1515720219.345313: $GPGGA,012340,3946.9592,N,08404.9854,W,2,11,0.80,302.85,M,-33.324,M,,*7C
2018-01-11 20:23:39 1515720219.345380: $GPRMC,012340,A,3946.9592,N,08404.9854,W,0.0000,0.000,120118,,*37
2018-01-11 20:23:39 1515720219.345440: $GPGSA,A,3,7,8,9,11,16,23,27,28,30,1,138,,4.0,0.8,3.5*0F
2018-01-11 20:23:40 1515720220.344748: $GPZDA,012341.00,12,01,2018,00,00*6A
2018-01-11 20:23:40 1515720220.344919: $GPGGA,012341,3946.9592,N,08404.9854,W,2,11,0.80,302.85,M,-33.324,M,,*7D
2018-01-11 20:23:40 1515720220.344987: $GPRMC,012341,A,3946.9592,N,08404.9854,W,0.0000,0.000,120118,,*36
2018-01-11 20:23:40 1515720220.345047: $GPGSA,A,3,7,8,9,11,16,23,27,28,30,1,138,,4.0,0.8,3.5*0F
2018-01-11 20:23:41 1515720221.664177: $GPGSV,3,1,11,07,61,316,42,08,75,109,45,09,43,223,41,11,25,165,45*76
2018-01-11 20:23:41 1515720221.664345: $GPGSV,3,2,11,16,19,063,38,23,23,187,49,27,43,049,49,28,18,262,35*7B
2018-01-11 20:23:41 1515720221.664410: $GPGSV,3,3,11,30,34,307,35,01,03,160,18,138,38,213,46*70
2018-01-11 20:23:41 1515720221.777782: $GPZDA,012342.00,12,01,2018,00,00*69
2018-01-11 20:23:41 1515720221.777901: $GPGGA,012342,3946.9592,N,08404.9854,W,2,11,0.80,302.85,M,-33.324,M,,*7E
2018-01-11 20:23:41 1515720221.777965: $GPRMC,012342,A,3946.9592,N,08404.9854,W,0.0000,0.000,120118,,*35
2018-01-11 20:23:41 1515720221.778024: $GPGSA,A,3,7,8,9,11,16,23,27,28,30,1,138,,4.0,0.8,3.5*0F
2018-01-11 20:23:42 1515720222.403185: $GPZDA,012343.00,12,01,2018,00,00*68
2018-01-11 20:23:42 1515720222.403354: $GPGGA,012343,3946.9592,N,08404.9854,W,2,11,0.80,302.85,M,-33.324,M,,*7F
2018-01-11 20:23:42 1515720222.403420: $GPRMC,012343,A,3946.9592,N,08404.9854,W,0.0000,0.000,120118,,*34
2018-01-11 20:23:42 1515720222.403480: $GPGSA,A,3,7,8,9,11,16,23,27,28,30,1,138,,4.0,0.8,3.5*0F
2018-01-11 20:23:43 1515720223.330077: $GPZDA,012344.00,12,01,2018,00,00*6F
2018-01-11 20:23:43 1515720223.330256: $GPGGA,012344,3946.9592,N,08404.9854,W,2,11,0.80,302.85,M,-33.324,M,,*78
2018-01-11 20:23:43 1515720223.330322: $GPRMC,012344,A,3946.9592,N,08404.9854,W,0.0000,0.000,120118,,*33
2018-01-11 20:23:43 1515720223.330383: $GPGSA,A,3,7,8,9,11,16,23,27,28,30,1,138,,4.0,0.8,3.5*0F
2018-01-11 20:23:44 1515720224.680769: $GPGSV,3,1,11,07,61,316,42,08,75,109,46,09,43,223,40,11,25,165,45*74
2018-01-11 20:23:44 1515720224.680984: $GPGSV,3,2,11,16,19,063,38,23,23,187,49,27,43,049,50,28,18,262,35*73
2018-01-11 20:23:44 1515720224.681051: $GPGSV,3,3,11,30,34,307,34,01,03,160,18,138,38,213,45*72
2018-01-11 20:23:44 1515720224.794393: $GPZDA,012345.00,12,01,2018,00,00*6E
2018-01-11 20:23:44 1515720224.794506: $GPGGA,012345,3946.9592,N,08404.9854,W,2,11,0.80,302.85,M,-33.324,M,,*79
2018-01-11 20:23:44 1515720224.794569: $GPRMC,012345,A,3946.9592,N,08404.9854,W,0.0000,0.000,120118,,*32
2018-01-11 20:23:44 1515720224.794629: $GPGSA,A,3,7,8,9,11,16,23,27,28,30,1,138,,4.0,0.8,3.5*0F
2018-01-11 20:23:45 1515720225.346555: $GPZDA,012346.00,12,01,2018,00,00*6D
2018-01-11 20:23:45 1515720225.346723: $GPGGA,012346,3946.9592,N,08404.9854,W,2,11,0.80,302.85,M,-33.324,M,,*7A
2018-01-11 20:23:45 1515720225.346788: $GPRMC,012346,A,3946.9592,N,08404.9854,W,0.0000,0.000,120118,,*31
2018-01-11 20:23:45 1515720225.346848: $GPGSA,A,3,7,8,9,11,16,23,27,28,30,1,138,,4.0,0.8,3.5*0F
2018-01-11 20:23:46 1515720226.344638: $GPZDA,012347.00,12,01,2018,00,00*6C
2018-01-11 20:23:46 1515720226.344810: $GPGGA,012347,3946.9592,N,08404.9854,W,2,11,0.80,302.85,M,-33.324,M,,*7B
2018-01-11 20:23:46 1515720226.344876: $GPRMC,012347,A,3946.9592,N,08404.9854,W,0.0000,0.000,120118,,*30
2018-01-11 20:23:46 1515720226.344937: $GPGSA,A,3,7,8,9,11,16,23,27,28,30,1,138,,4.0,0.8,3.5*0F
2018-01-11 20:23:47 1515720227.681109: $GPGSV,3,1,11,07,61,316,42,08,75,109,46,09,43,223,40,11,25,165,46*77
2018-01-11 20:23:47 1515720227.681261: $GPGSV,3,2,11,16,19,063,38,23,23,187,49,27,43,049,50,28,18,262,32*74
2018-01-11 20:23:47 1515720227.681340: $GPGSV,3,3,11,30,34,307,34,01,03,160,17,138,38,213,46*7E
2018-01-11 20:23:47 1515720227.794413: $GPZDA,012348.00,12,01,2018,00,00*63
2018-01-11 20:23:47 1515720227.794543: $GPGGA,012348,3946.9592,N,08404.9854,W,2,11,0.80,302.85,M,-33.324,M,,*74
2018-01-11 20:23:47 1515720227.794609: $GPRMC,012348,A,3946.9592,N,08404.9854,W,0.0000,0.000,120118,,*3F
2018-01-11 20:23:47 1515720227.794668: $GPGSA,A,3,7,8,9,11,16,23,27,28,30,1,138,,4.0,0.8,3.5*0F
2018-01-11 20:23:48 1515720228.340391: $GPZDA,012349.00,12,01,2018,00,00*62
2018-01-11 20:23:48 1515720228.340575: $GPGGA,012349,3946.9592,N,08404.9854,W,2,11,0.80,302.85,M,-33.324,M,,*75
2018-01-11 20:23:48 1515720228.340642: $GPRMC,012349,A,3946.9592,N,08404.9854,W,0.0000,0.000,120118,,*3E
2018-01-11 20:23:48 1515720228.340702: $GPGSA,A,3,7,8,9,11,16,23,27,28,30,1,138,,4.0,0.8,3.5*0F
2018-01-11 20:23:49 1515720229.324962: $GPZDA,012350.00,12,01,2018,00,00*6A
2018-01-11 20:23:49 1515720229.325134: $GPGGA,012350,3946.9592,N,08404.9854,W,2,11,0.80,302.85,M,-33.324,M,,*7D
2018-01-11 20:23:49 1515720229.325200: $GPRMC,012350,A,3946.9592,N,08404.9854,W,0.0000,0.000,120118,,*36
2018-01-11 20:23:49 1515720229.325260: $GPGSA,A,3,7,8,9,11,16,23,27,28,30,1,138,,4.0,0.8,3.5*0F
