2017-11-16 15:16:01 1510863361.448660: {"class":"VERSION","release":"3.17","rev":"3.17","proto_major":3,"proto_minor":12}
2017-11-16 15:16:01 1510863361.449002: {"class":"DEVICES","devices":[{"class":"DEVICE","path":"/dev/ttyUSB0","driver":"SiRF","subtype":"9\u0006GSD4e_4.1.2-P1_RPATCH.05-F-GPS-4R-1510281 11/03/2015 307","activated":"2017-11-16T20:16:01.269Z","flags":1,"native":1,"bps":4800,"parity":"N","stopbits":1,"cycle":1.00}]}
2017-11-16 15:16:01 1510863361.449091: {"class":"WATCH","enable":true,"json":false,"nmea":true,"raw":0,"scaled":false,"timing":false,"split24":false,"pps":false}
2017-11-16 15:16:01 1510863361.717786: $GPGSV,3,1,12,08,07,297,28,10,66,325,51,14,26,250,44,15,14,064,35*73
2017-11-16 15:16:01 1510863361.717892: $GPGSV,3,2,12,18,73,084,46,20,11,115,30,21,33,180,43,24,47,063,49*7C
2017-11-16 15:16:01 1510863361.717923: $GPGSV,3,3,12,27,08,262,34,32,43,261,48,12,07,109,32,138,38,213,44*45
2017-11-16 15:16:01 1510863361.830863: $GPZDA,201600.00,16,11,2017,00,00*60
2017-11-16 15:16:01 1510863361.830978: $GPGGA,201600,3946.9580,N,08404.9855,W,2,12,0.80,302.34,M,-33.324,M,,*76
2017-11-16 15:16:01 1510863361.831008: $GPRMC,201600,A,3946.9580,N,08404.9855,W,0.0000,0.000,161117,,*3E
2017-11-16 15:16:01 1510863361.831049: $GPGSA,A,3,8,10,14,15,18,20,21,24,27,32,12,138,1.6,0.8,1.3*34
2017-11-16 15:16:02 1510863362.373375: $GPZDA,201601.00,16,11,2017,00,00*61
2017-11-16 15:16:02 1510863362.373536: $GPGGA,201601,3946.9580,N,08404.9855,W,2,12,0.80,302.34,M,-33.324,M,,*77
2017-11-16 15:16:02 1510863362.373597: $GPRMC,201601,A,3946.9580,N,08404.9855,W,0.0000,0.000,161117,,*3F
2017-11-16 15:16:02 1510863362.373652: $GPGSA,A,3,8,10,14,15,18,20,21,24,27,32,12,138,1.6,0.8,1.3*34
2017-11-16 15:16:03 1510863363.376724: $GPZDA,201602.00,16,11,2017,00,00*62
2017-11-16 15:16:03 1510863363.376926: $GPGGA,201602,3946.9580,N,08404.9855,W,2,12,0.80,302.34,M,-33.324,M,,*74
2017-11-16 15:16:03 1510863363.377033: $GPRMC,201602,A,3946.9580,N,08404.9855,W,0.0000,0.000,161117,,*3C
2017-11-16 15:16:03 1510863363.377093: $GPGSA,A,3,8,10,14,15,18,20,21,24,27,32,12,138,1.6,0.8,1.3*34
2017-11-16 15:16:04 1510863364.711200: $GPGSV,3,1,12,08,07,297,31,10,66,325,51,14,26,250,45,15,14,064,36*79
2017-11-16 15:16:04 1510863364.711371: $GPGSV,3,2,12,18,73,084,46,20,11,115,30,21,33,180,44,24,47,063,50*73
2017-11-16 15:16:04 1510863364.711431: $GPGSV,3,3,12,27,08,262,35,32,43,261,48,12,07,109,32,138,38,213,44*44
2017-11-16 15:16:04 1510863364.824541: $GPZDA,201603.00,16,11,2017,00,00*63
2017-11-16 15:16:04 1510863364.824723: $GPGGA,201603,3946.9580,N,08404.9855,W,2,12,0.80,302.34,M,-33.324,M,,*75
2017-11-16 15:16:04 1510863364.824784: $GPRMC,201603,A,3946.9580,N,08404.9855,W,0.0000,0.000,161117,,*3D
2017-11-16 15:16:04 1510863364.824840: $GPGSA,A,3,8,10,14,15,18,20,21,24,27,32,12,138,1.6,0.8,1.3*34
2017-11-16 15:16:05 1510863365.381873: $GPZDA,201604.00,16,11,2017,00,00*64
2017-11-16 15:16:05 1510863365.382128: $GPGGA,201604,3946.9580,N,08404.9855,W,2,12,0.80,302.34,M,-33.324,M,,*72
2017-11-16 15:16:05 1510863365.382192: $GPRMC,201604,A,3946.9580,N,08404.9855,W,0.0000,0.000,161117,,*3A
2017-11-16 15:16:05 1510863365.382247: $GPGSA,A,3,8,10,14,15,18,20,21,24,27,32,12,138,1.6,0.8,1.3*34
2017-11-16 15:16:06 1510863366.395697: $GPZDA,201605.00,16,11,2017,00,00*65
2017-11-16 15:16:06 1510863366.395881: $GPGGA,201605,3946.9580,N,08404.9855,W,2,12,0.80,302.34,M,-33.324,M,,*73
2017-11-16 15:16:06 1510863366.395945: $GPRMC,201605,A,3946.9580,N,08404.9855,W,0.0000,0.000,161117,,*3B
2017-11-16 15:16:06 1510863366.396017: $GPGSA,A,3,8,10,14,15,18,20,21,24,27,32,12,138,1.6,0.8,1.3*34
2017-11-16 15:16:07 1510863367.732977: $GPGSV,3,1,12,08,07,297,35,10,66,325,51,14,26,250,45,15,14,064,36*7D
2017-11-16 15:16:07 1510863367.733151: $GPGSV,3,2,12,18,73,084,46,20,11,115,30,21,33,180,44,24,47,063,50*73
2017-11-16 15:16:07 1510863367.733212: $GPGSV,3,3,12,27,08,262,35,32,43,261,48,12,07,109,32,138,38,213,44*44
2017-11-16 15:16:07 1510863367.846288: $GPZDA,201606.00,16,11,2017,00,00*66
2017-11-16 15:16:07 1510863367.846454: $GPGGA,201606,3946.9580,N,08404.9855,W,2,12,0.80,302.34,M,-33.324,M,,*70
2017-11-16 15:16:07 1510863367.846568: $GPRMC,201606,A,3946.9580,N,08404.9855,W,0.0000,0.000,161117,,*38
2017-11-16 15:16:07 1510863367.846625: $GPGSA,A,3,8,10,14,15,18,20,21,24,27,32,12,138,1.6,0.8,1.3*34
2017-11-16 15:16:08 1510863368.380961: $GPZDA,201607.00,16,11,2017,00,00*67
2017-11-16 15:16:08 1510863368.381155: $GPGGA,201607,3946.9580,N,08404.9855,W,2,12,0.80,302.34,M,-33.324,M,,*71
2017-11-16 15:16:08 1510863368.381248: $GPRMC,201607,A,3946.9580,N,08404.9855,W,0.0000,0.000,161117,,*39
2017-11-16 15:16:08 1510863368.381306: $GPGSA,A,3,8,10,14,15,18,20,21,24,27,32,12,138,1.6,0.8,1.3*34
2017-11-16 15:16:09 1510863369.381866: $GPZDA,201608.00,16,11,2017,00,00*68
2017-11-16 15:16:09 1510863369.382054: $GPGGA,201608,3946.9580,N,08404.9855,W,2,12,0.80,302.34,M,-33.324,M,,*7E
2017-11-16 15:16:09 1510863369.382116: $GPRMC,201608,A,3946.9580,N,08404.9855,W,0.0000,0.000,161117,,*36
2017-11-16 15:16:09 1510863369.382172: $GPGSA,A,3,8,10,14,15,18,20,21,24,27,32,12,138,1.6,0.8,1.3*34
2017-11-16 15:16:10 1510863370.731270: $GPGSV,3,1,12,08,07,297,35,10,66,325,51,14,26,250,45,15,14,064,37*7C
2017-11-16 15:16:10 1510863370.731460: $GPGSV,3,2,12,18,73,084,46,20,11,115,30,21,33,180,44,24,47,063,50*73
2017-11-16 15:16:10 1510863370.731542: $GPGSV,3,3,12,27,08,262,37,32,43,261,48,12,07,109,31,138,38,213,44*45
2017-11-16 15:16:10 1510863370.844522: $GPZDA,201609.00,16,11,2017,00,00*69
2017-11-16 15:16:10 1510863370.844685: $GPGGA,201609,3946.9580,N,08404.9855,W,2,12,0.80,302.34,M,-33.324,M,,*7F
2017-11-16 15:16:10 1510863370.844764: $GPRMC,201609,A,3946.9580,N,08404.9855,W,0.0000,0.000,161117,,*37
2017-11-16 15:16:10 1510863370.844820: $GPGSA,A,3,8,10,14,15,18,20,21,24,27,32,12,138,1.6,0.8,1.3*34
2017-11-16 15:16:11 1510863371.471917: $GPZDA,201610.00,16,11,2017,00,00*61
2017-11-16 15:16:11 1510863371.472082: $GPGGA,201610,3946.9580,N,08404.9855,W,2,12,0.80,302.34,M,-33.324,M,,*77
2017-11-16 15:16:11 1510863371.472143: $GPRMC,201610,A,3946.9580,N,08404.9855,W,0.0000,0.000,161117,,*3F
2017-11-16 15:16:11 1510863371.472210: $GPGSA,A,3,8,10,14,15,18,20,21,24,27,32,12,138,1.6,0.8,1.3*34
