2017-12-29 14:50:15 1514577015.730231: {"class":"VERSION","release":"3.16","rev":"3.16-4","proto_major":3,"proto_minor":11}
2017-12-29 14:50:15 1514577015.730571: {"class":"DEVICES","devices":[{"class":"DEVICE","path":"/dev/ttyUSB0","driver":"SiRF","subtype":"9\u0006GSD4e_4.1.2-P1_RPATCH.05-F-GPS-4R-1510281 11/03/2015 307","activated":"2017-12-29T19:50:15.507Z","flags":1,"native":1,"bps":4800,"parity":"N","stopbits":1,"cycle":1.00}]}
2017-12-29 14:50:15 1514577015.730688: {"class":"WATCH","enable":true,"json":false,"nmea":true,"raw":0,"scaled":false,"timing":false,"split24":false,"pps":false}
2017-12-29 14:50:16 1514577016.701771: $GPGSV,3,1,12,01,22,294,40,26,09,180,17,10,41,151,49,11,06,277,34*7F
2017-12-29 14:50:16 1514577016.701959: $GPGSV,3,2,12,12,19,045,47,14,68,342,43,18,11,145,34,22,25,310,43*77
2017-12-29 14:50:16 1514577016.702025: $GPGSV,3,3,12,25,41,082,52,31,64,232,46,32,65,046,51,138,38,213,44*41
2017-12-29 14:50:16 1514577016.815382: $GPZDA,195017.00,29,12,2017,00,00*61
2017-12-29 14:50:16 1514577016.815525: $GPGGA,195017,3946.9556,N,08404.9783,W,2,12,0.80,309.20,M,-33.324,M,,*79
2017-12-29 14:50:16 1514577016.815591: $GPRMC,195017,A,3946.9556,N,08404.9783,W,0.0000,0.000,291217,,*30
2017-12-29 14:50:16 1514577016.815652: $GPGSA,A,3,1,26,10,11,12,14,18,22,25,31,32,138,1.7,0.8,1.3*3B
2017-12-29 14:50:17 1514577017.367519: $GPZDA,195018.00,29,12,2017,00,00*6E
2017-12-29 14:50:17 1514577017.367684: $GPGGA,195018,3946.9556,N,08404.9783,W,2,12,0.80,309.20,M,-33.324,M,,*76
2017-12-29 14:50:17 1514577017.367750: $GPRMC,195018,A,3946.9556,N,08404.9783,W,0.0000,0.000,291217,,*3F
2017-12-29 14:50:17 1514577017.367813: $GPGSA,A,3,1,26,10,11,12,14,18,22,25,31,32,138,1.7,0.8,1.3*3B
2017-12-29 14:50:18 1514577018.367137: $GPZDA,195019.00,29,12,2017,00,00*6F
2017-12-29 14:50:18 1514577018.367298: $GPGGA,195019,3946.9556,N,08404.9783,W,2,12,0.80,309.20,M,-33.324,M,,*77
2017-12-29 14:50:18 1514577018.367363: $GPRMC,195019,A,3946.9556,N,08404.9783,W,0.0000,0.000,291217,,*3E
2017-12-29 14:50:18 1514577018.367425: $GPGSA,A,3,1,26,10,11,12,14,18,22,25,31,32,138,1.7,0.8,1.3*3B
2017-12-29 14:50:19 1514577019.703749: $GPGSV,3,1,12,01,22,294,40,26,09,180,18,10,41,151,49,11,06,277,34*70
2017-12-29 14:50:19 1514577019.711104: $GPGSV,3,2,12,12,19,045,46,14,68,342,43,18,11,145,34,22,25,310,43*76
2017-12-29 14:50:19 1514577019.711227: $GPGSV,3,3,12,25,41,082,52,31,64,232,47,32,65,046,51,138,38,213,43*47
2017-12-29 14:50:19 1514577019.817369: $GPZDA,195020.00,29,12,2017,00,00*65
2017-12-29 14:50:19 1514577019.817530: $GPGGA,195020,3946.9571,N,08404.9764,W,2,12,0.80,302.73,M,-33.324,M,,*7C
2017-12-29 14:50:19 1514577019.817595: $GPRMC,195020,A,3946.9571,N,08404.9764,W,0.0000,0.000,291217,,*38
2017-12-29 14:50:19 1514577019.817657: $GPGSA,A,3,1,26,10,11,12,14,18,22,25,31,32,138,1.7,0.8,1.3*3B
2017-12-29 14:50:20 1514577020.442695: $GPZDA,195021.00,29,12,2017,00,00*64
2017-12-29 14:50:20 1514577020.442833: $GPGGA,195021,3946.9571,N,08404.9764,W,2,12,0.80,302.73,M,-33.324,M,,*7D
2017-12-29 14:50:20 1514577020.442898: $GPRMC,195021,A,3946.9571,N,08404.9764,W,0.0000,0.000,291217,,*39
2017-12-29 14:50:20 1514577020.442960: $GPGSA,A,3,1,26,10,11,12,14,18,22,25,31,32,138,1.7,0.8,1.3*3B
2017-12-29 14:50:21 1514577021.367346: $GPZDA,195022.00,29,12,2017,00,00*67
2017-12-29 14:50:21 1514577021.367514: $GPGGA,195022,3946.9571,N,08404.9764,W,2,12,0.80,302.73,M,-33.324,M,,*7E
2017-12-29 14:50:21 1514577021.367580: $GPRMC,195022,A,3946.9571,N,08404.9764,W,0.0000,0.000,291217,,*3A
2017-12-29 14:50:21 1514577021.367642: $GPGSA,A,3,1,26,10,11,12,14,18,22,25,31,32,138,1.7,0.8,1.3*3B
2017-12-29 14:50:22 1514577022.704095: $GPGSV,3,1,12,01,22,294,40,26,09,180,20,10,41,151,49,11,06,277,34*7B
2017-12-29 14:50:22 1514577022.704271: $GPGSV,3,2,12,12,19,045,46,14,68,342,43,18,11,145,34,22,25,310,42*77
2017-12-29 14:50:22 1514577022.704336: $GPGSV,3,3,12,25,41,082,52,31,64,232,47,32,65,046,51,138,38,213,43*47
2017-12-29 14:50:22 1514577022.816443: $GPZDA,195023.00,29,12,2017,00,00*66
2017-12-29 14:50:22 1514577022.816596: $GPGGA,195023,3946.9571,N,08404.9764,W,2,12,0.80,302.73,M,-33.324,M,,*7F
2017-12-29 14:50:22 1514577022.816716: $GPRMC,195023,A,3946.9571,N,08404.9764,W,0.0000,0.000,291217,,*3B
2017-12-29 14:50:22 1514577022.816780: $GPGSA,A,3,1,26,10,11,12,14,18,22,25,31,32,138,1.7,0.8,1.3*3B
2017-12-29 14:50:23 1514577023.366105: $GPZDA,195024.00,29,12,2017,00,00*61
2017-12-29 14:50:23 1514577023.366248: $GPGGA,195024,3946.9571,N,08404.9764,W,2,12,0.80,302.73,M,-33.324,M,,*78
2017-12-29 14:50:23 1514577023.366313: $GPRMC,195024,A,3946.9571,N,08404.9764,W,0.0000,0.000,291217,,*3C
2017-12-29 14:50:23 1514577023.366375: $GPGSA,A,3,1,26,10,11,12,14,18,22,25,31,32,138,1.7,0.8,1.3*3B
2017-12-29 14:50:24 1514577024.366946: $GPZDA,195025.00,29,12,2017,00,00*60
2017-12-29 14:50:24 1514577024.367108: $GPGGA,195025,3946.9571,N,08404.9764,W,2,12,0.80,302.73,M,-33.324,M,,*79
2017-12-29 14:50:24 1514577024.367174: $GPRMC,195025,A,3946.9571,N,08404.9764,W,0.0000,0.000,291217,,*3D
2017-12-29 14:50:24 1514577024.367236: $GPGSA,A,3,1,26,10,11,12,14,18,22,25,31,32,138,1.7,0.8,1.3*3B
2017-12-29 14:50:25 1514577025.707090: $GPGSV,3,1,12,01,22,294,39,26,09,180,20,10,41,151,49,11,06,277,34*75
2017-12-29 14:50:25 1514577025.707273: $GPGSV,3,2,12,12,19,045,46,14,68,342,43,18,11,145,33,22,25,310,42*70
2017-12-29 14:50:25 1514577025.707340: $GPGSV,3,3,12,25,41,082,52,31,64,232,47,32,65,046,51,138,38,213,43*47
