2018-01-12 04:45:21 1515750321.414303: {"class":"VERSION","release":"3.16","rev":"3.16-4","proto_major":3,"proto_minor":11}
2018-01-12 04:45:21 1515750321.414682: {"class":"DEVICES","devices":[{"class":"DEVICE","path":"/dev/ttyUSB0","driver":"SiRF","subtype":"9\u0006GSD4e_4.1.2-P1_RPATCH.05-F-GPS-4R-1510281 11/03/2015 307","activated":"2018-01-12T09:45:21.312Z","flags":1,"native":1,"bps":4800,"parity":"N","stopbits":1,"cycle":1.00}]}
2018-01-12 04:45:21 1515750321.414800: {"class":"WATCH","enable":true,"json":false,"nmea":true,"raw":0,"scaled":false,"timing":false,"split24":false,"pps":false}
2018-01-12 04:45:21 1515750321.760508: $GPGSV,3,1,12,02,69,016,44,05,62,201,50,12,45,237,50,20,09,222,37*79
2018-01-12 04:45:21 1515750321.760660: $GPGSV,3,2,12,25,35,289,37,29,20,310,48,06,39,063,31,09,19,057,11*72
2018-01-12 04:45:21 1515750321.760726: $GPGSV,3,3,12,17,05,127,25,23,01,030,20,19,23,123,17,138,38,213,48*49
2018-01-12 04:45:21 1515750321.874173: $GPZDA,094522.00,12,01,2018,00,00*67
2018-01-12 04:45:21 1515750321.874408: $GPGGA,094522,3946.9652,N,08404.9771,W,2,12,0.80,301.96,M,-33.324,M,,*75
2018-01-12 04:45:21 1515750321.874475: $GPRMC,094522,A,3946.9652,N,08404.9771,W,0.0000,0.000,120118,,*3C
2018-01-12 04:45:21 1515750321.874536: $GPGSA,A,3,2,5,12,20,25,29,6,9,17,23,19,138,2.4,0.8,2.1*0F
2018-01-12 04:45:22 1515750322.424958: $GPZDA,094523.00,12,01,2018,00,00*66
2018-01-12 04:45:22 1515750322.425137: $GPGGA,094523,3946.9652,N,08404.9771,W,2,12,0.80,301.96,M,-33.324,M,,*74
2018-01-12 04:45:22 1515750322.425211: $GPRMC,094523,A,3946.9652,N,08404.9771,W,0.0000,0.000,120118,,*3D
2018-01-12 04:45:22 1515750322.425272: $GPGSA,A,3,2,5,12,20,25,29,6,9,17,23,19,138,2.4,0.8,2.1*0F
2018-01-12 04:45:23 1515750323.425755: $GPZDA,094524.00,12,01,2018,00,00*61
2018-01-12 04:45:23 1515750323.425934: $GPGGA,094524,3946.9652,N,08404.9771,W,2,12,0.80,301.96,M,-33.324,M,,*73
2018-01-12 04:45:23 1515750323.426002: $GPRMC,094524,A,3946.9652,N,08404.9771,W,0.0000,0.000,120118,,*3A
2018-01-12 04:45:23 1515750323.426066: $GPGSA,A,3,2,5,12,20,25,29,6,9,17,23,19,138,2.4,0.8,2.1*0F
2018-01-12 04:45:24 1515750324.763864: $GPGSV,3,1,12,02,69,016,44,05,62,201,50,12,45,237,50,20,09,222,36*78
2018-01-12 04:45:24 1515750324.764046: $GPGSV,3,2,12,25,35,289,38,29,20,310,48,06,39,063,32,09,19,057,16*79
2018-01-12 04:45:24 1515750324.764111: $GPGSV,3,3,12,17,05,127,25,19,23,123,03,04,62,301,00,138,38,213,48*4F
2018-01-12 04:45:24 1515750324.877245: $GPZDA,094525.00,12,01,2018,00,00*60
2018-01-12 04:45:24 1515750324.877424: $GPGGA,094525,3946.9652,N,08404.9771,W,2,10,0.80,301.96,M,-33.324,M,,*70
2018-01-12 04:45:24 1515750324.877490: $GPRMC,094525,A,3946.9652,N,08404.9771,W,0.0000,0.000,120118,,*3B
2018-01-12 04:45:24 1515750324.877553: $GPGSA,A,3,2,5,12,20,25,29,6,9,17,138,,,2.4,0.8,2.1*06
2018-01-12 04:45:25 1515750325.426915: $GPZDA,094526.00,12,01,2018,00,00*63
2018-01-12 04:45:25 1515750325.427137: $GPGGA,094526,3946.9652,N,08404.9771,W,2,10,0.80,301.96,M,-33.324,M,,*73
2018-01-12 04:45:25 1515750325.427235: $GPRMC,094526,A,3946.9652,N,08404.9771,W,0.0000,0.000,120118,,*38
2018-01-12 04:45:25 1515750325.427306: $GPGSA,A,3,2,5,12,20,25,29,6,9,17,138,,,2.4,0.8,2.1*06
2018-01-12 04:45:26 1515750326.423511: $GPZDA,094527.00,12,01,2018,00,00*62
2018-01-12 04:45:26 1515750326.423691: $GPGGA,094527,3946.9652,N,08404.9778,W,2,10,0.80,301.88,M,-33.324,M,,*74
2018-01-12 04:45:26 1515750326.423757: $GPRMC,094527,A,3946.9652,N,08404.9778,W,0.0000,0.000,120118,,*30
2018-01-12 04:45:26 1515750326.423819: $GPGSA,A,3,2,5,12,20,25,29,6,9,17,138,,,2.4,0.8,2.1*06
2018-01-12 04:45:27 1515750327.761731: $GPGSV,3,1,12,02,69,016,43,05,62,201,50,12,45,237,50,20,09,222,36*7F
2018-01-12 04:45:27 1515750327.761898: $GPGSV,3,2,12,25,35,289,37,29,20,310,48,06,39,063,32,09,19,057,23*70
2018-01-12 04:45:27 1515750327.761964: $GPGSV,3,3,12,17,05,127,26,19,23,123,23,04,62,301,00,138,38,213,47*41
2018-01-12 04:45:27 1515750327.875159: $GPZDA,094528.00,12,01,2018,00,00*6D
2018-01-12 04:45:27 1515750327.875337: $GPGGA,094528,3946.9652,N,08404.9778,W,2,11,0.80,301.88,M,-33.324,M,,*7A
2018-01-12 04:45:27 1515750327.875460: $GPRMC,094528,A,3946.9652,N,08404.9778,W,0.0000,0.000,120118,,*3F
2018-01-12 04:45:27 1515750327.875524: $GPGSA,A,3,2,5,12,20,25,29,6,9,17,19,138,,2.4,0.8,2.1*0E
2018-01-12 04:45:28 1515750328.431002: $GPZDA,094529.00,12,01,2018,00,00*6C
2018-01-12 04:45:28 1515750328.431180: $GPGGA,094529,3946.9652,N,08404.9778,W,2,11,0.80,301.88,M,-33.324,M,,*7B
2018-01-12 04:45:28 1515750328.431247: $GPRMC,094529,A,3946.9652,N,08404.9778,W,0.0000,0.000,120118,,*3E
2018-01-12 04:45:28 1515750328.431312: $GPGSA,A,3,2,5,12,20,25,29,6,9,17,19,138,,2.4,0.8,2.1*0E
2018-01-12 04:45:29 1515750329.426941: $GPZDA,094530.00,12,01,2018,00,00*64
2018-01-12 04:45:29 1515750329.427112: $GPGGA,094530,3946.9652,N,08404.9778,W,2,11,0.80,301.88,M,-33.324,M,,*73
2018-01-12 04:45:29 1515750329.427183: $GPRMC,094530,A,3946.9652,N,08404.9778,W,0.0000,0.000,120118,,*36
2018-01-12 04:45:29 1515750329.427244: $GPGSA,A,3,2,5,12,20,25,29,6,9,17,19,138,,2.4,0.8,2.1*0E
2018-01-12 04:45:31 1515750331.288961: $GPGSV,3,1,12,02,69,016,43,05,62,201,50,12,45,235,50,20,09,222,37*7C
2018-01-12 04:45:31 1515750331.289129: $GPGSV,3,2,12,25,35,289,37,29,20,310,48,06,39,063,33,09,19,057,23*71
2018-01-12 04:45:31 1515750331.289198: $GPGSV,3,3,12,17,05,127,26,19,23,123,00,04,62,301,00,138,38,213,47*40
2018-01-12 04:45:31 1515750331.402362: $GPZDA,094531.00,12,01,2018,00,00*65
2018-01-12 04:45:31 1515750331.402540: $GPGGA,094531,3946.9648,N,08404.9771,W,2,10,0.80,302.73,M,-33.324,M,,*76
2018-01-12 04:45:31 1515750331.402607: $GPRMC,094531,A,3946.9648,N,08404.9771,W,0.0000,0.000,120118,,*35
2018-01-12 04:45:31 1515750331.402670: $GPGSA,A,3,2,5,12,20,25,29,6,9,17,138,,,2.4,0.8,2.1*06
2018-01-12 04:45:32 1515750332.027836: $GPZDA,094532.00,12,01,2018,00,00*66
2018-01-12 04:45:32 1515750332.028010: $GPGGA,094532,3946.9648,N,08404.9771,W,2,10,0.80,302.73,M,-33.324,M,,*75
2018-01-12 04:45:32 1515750332.028076: $GPRMC,094532,A,3946.9648,N,08404.9771,W,0.0000,0.000,120118,,*36
2018-01-12 04:45:32 1515750332.028139: $GPGSA,A,3,2,5,12,20,25,29,6,9,17,138,,,2.4,0.8,2.1*06
2018-01-12 04:45:32 1515750332.478826: $GPZDA,094533.00,12,01,2018,00,00*67
2018-01-12 04:45:32 1515750332.479001: $GPGGA,094533,3946.9648,N,08404.9771,W,2,10,0.80,302.73,M,-33.324,M,,*74
2018-01-12 04:45:32 1515750332.479067: $GPRMC,094533,A,3946.9648,N,08404.9771,W,0.0000,0.000,120118,,*37
2018-01-12 04:45:32 1515750332.479129: $GPGSA,A,3,2,5,12,20,25,29,6,9,17,138,,,2.4,0.8,2.1*06
2018-01-12 04:45:33 1515750333.765568: $GPGSV,3,1,12,02,69,016,43,05,62,201,50,12,45,235,50,20,09,222,37*7C
2018-01-12 04:45:33 1515750333.765727: $GPGSV,3,2,12,25,35,289,37,29,20,310,48,06,39,063,33,09,19,057,22*70
2018-01-12 04:45:33 1515750333.765793: $GPGSV,3,3,12,17,05,127,25,19,23,123,00,04,62,301,00,138,38,213,47*43
2018-01-12 04:45:33 1515750333.879071: $GPZDA,094534.00,12,01,2018,00,00*60
2018-01-12 04:45:33 1515750333.879251: $GPGGA,094534,3946.9648,N,08404.9771,W,2,10,0.80,302.73,M,-33.324,M,,*73
2018-01-12 04:45:33 1515750333.879319: $GPRMC,094534,A,3946.9648,N,08404.9771,W,0.0000,0.000,120118,,*30
2018-01-12 04:45:33 1515750333.879382: $GPGSA,A,3,2,5,12,20,25,29,6,9,17,138,,,2.4,0.8,2.1*06
2018-01-12 04:45:34 1515750334.424914: $GPZDA,094535.00,12,01,2018,00,00*61
2018-01-12 04:45:34 1515750334.425091: $GPGGA,094535,3946.9648,N,08404.9771,W,2,10,0.80,302.73,M,-33.324,M,,*72
2018-01-12 04:45:34 1515750334.425167: $GPRMC,094535,A,3946.9648,N,08404.9771,W,0.0000,0.000,120118,,*31
2018-01-12 04:45:34 1515750334.425228: $GPGSA,A,3,2,5,12,20,25,29,6,9,17,138,,,2.4,0.8,2.1*06
2018-01-12 04:45:35 1515750335.425764: $GPZDA,094536.00,12,01,2018,00,00*62
2018-01-12 04:45:35 1515750335.425936: $GPGGA,094536,3946.9649,N,08404.9778,W,2,10,0.80,302.65,M,-33.324,M,,*7E
2018-01-12 04:45:35 1515750335.426005: $GPRMC,094536,A,3946.9649,N,08404.9778,W,0.0000,0.000,120118,,*3A
2018-01-12 04:45:35 1515750335.426066: $GPGSA,A,3,2,5,12,20,25,29,6,9,17,138,,,2.4,0.8,2.1*06
2018-01-12 04:45:36 1515750336.764940: $GPGSV,3,1,12,02,69,016,43,05,62,201,50,12,45,235,50,20,09,222,37*7C
2018-01-12 04:45:36 1515750336.765166: $GPGSV,3,2,12,25,35,289,37,29,20,310,48,06,39,063,33,09,19,057,21*73
2018-01-12 04:45:36 1515750336.765238: $GPGSV,3,3,12,17,05,127,25,19,23,123,00,04,62,301,00,138,38,213,47*43
2018-01-12 04:45:36 1515750336.878331: $GPZDA,094537.00,12,01,2018,00,00*63
2018-01-12 04:45:36 1515750336.878508: $GPGGA,094537,3946.9649,N,08404.9778,W,2,10,0.80,302.65,M,-33.324,M,,*7F
2018-01-12 04:45:36 1515750336.878574: $GPRMC,094537,A,3946.9649,N,08404.9778,W,0.0000,0.000,120118,,*3B
2018-01-12 04:45:36 1515750336.878636: $GPGSA,A,3,2,5,12,20,25,29,6,9,17,138,,,2.4,0.8,2.1*06
2018-01-12 04:45:37 1515750337.425245: $GPZDA,094538.00,12,01,2018,00,00*6C
2018-01-12 04:45:37 1515750337.425426: $GPGGA,094538,3946.9649,N,08404.9778,W,2,10,0.80,302.65,M,-33.324,M,,*70
2018-01-12 04:45:37 1515750337.425496: $GPRMC,094538,A,3946.9649,N,08404.9778,W,0.0000,0.000,120118,,*34
2018-01-12 04:45:37 1515750337.425557: $GPGSA,A,3,2,5,12,20,25,29,6,9,17,138,,,2.4,0.8,2.1*06
2018-01-12 04:45:38 1515750338.422325: $GPZDA,094539.00,12,01,2018,00,00*6D
2018-01-12 04:45:38 1515750338.422502: $GPGGA,094539,3946.9649,N,08404.9778,W,2,10,0.80,302.65,M,-33.324,M,,*71
2018-01-12 04:45:38 1515750338.422568: $GPRMC,094539,A,3946.9649,N,08404.9778,W,0.0000,0.000,120118,,*35
2018-01-12 04:45:38 1515750338.422631: $GPGSA,A,3,2,5,12,20,25,29,6,9,17,138,,,2.4,0.8,2.1*06
2018-01-12 04:45:39 1515750339.763065: $GPGSV,3,1,12,02,69,016,43,05,62,201,50,12,45,235,50,20,09,222,38*73
2018-01-12 04:45:39 1515750339.763252: $GPGSV,3,2,12,25,35,289,37,29,20,310,49,06,39,063,32,09,19,057,21*73
2018-01-12 04:45:39 1515750339.763318: $GPGSV,3,3,12,17,05,127,24,19,23,123,00,04,62,301,00,138,38,213,47*42
2018-01-12 04:45:39 1515750339.876420: $GPZDA,094540.00,12,01,2018,00,00*63
2018-01-12 04:45:39 1515750339.876595: $GPGGA,094540,3946.9649,N,08404.9778,W,2,10,0.80,302.65,M,-33.324,M,,*7F
2018-01-12 04:45:39 1515750339.876662: $GPRMC,094540,A,3946.9649,N,08404.9778,W,0.0000,0.000,120118,,*3B
2018-01-12 04:45:39 1515750339.876725: $GPGSA,A,3,2,5,12,20,25,29,6,9,17,138,,,2.4,0.8,2.1*06
2018-01-12 04:45:40 1515750340.424954: $GPZDA,094541.00,12,01,2018,00,00*62
2018-01-12 04:45:40 1515750340.425132: $GPGGA,094541,3946.9649,N,08404.9778,W,2,10,0.80,302.65,M,-33.324,M,,*7E
2018-01-12 04:45:40 1515750340.425199: $GPRMC,094541,A,3946.9649,N,08404.9778,W,0.0000,0.000,120118,,*3A
2018-01-12 04:45:40 1515750340.425263: $GPGSA,A,3,2,5,12,20,25,29,6,9,17,138,,,2.4,0.8,2.1*06
2018-01-12 04:45:41 1515750341.430290: $GPZDA,094542.00,12,01,2018,00,00*61
2018-01-12 04:45:41 1515750341.430465: $GPGGA,094542,3946.9649,N,08404.9778,W,2,10,0.80,302.65,M,-33.324,M,,*7D
2018-01-12 04:45:41 1515750341.430533: $GPRMC,094542,A,3946.9649,N,08404.9778,W,0.0000,0.000,120118,,*39
2018-01-12 04:45:41 1515750341.430595: $GPGSA,A,3,2,5,12,20,25,29,6,9,17,138,,,2.4,0.8,2.1*06
