2017-11-16 13:25:14 1510856714.345671: {"class":"VERSION","release":"3.17","rev":"3.17","proto_major":3,"proto_minor":12}
2017-11-16 13:25:14 1510856714.346139: {"class":"DEVICES","devices":[{"class":"DEVICE","path":"/dev/ttyUSB0","driver":"SiRF","subtype":"9\u0006GSD4e_4.1.2-P1_RPATCH.05-F-GPS-4R-1510281 11/03/2015 307","activated":"2017-11-16T18:25:14.335Z","flags":1,"native":1,"bps":4800,"parity":"N","stopbits":1,"cycle":1.00}]}
2017-11-16 13:25:14 1510856714.346278: {"class":"WATCH","enable":true,"json":false,"nmea":true,"raw":0,"scaled":false,"timing":false,"split24":false,"pps":false}
2017-11-16 13:25:15 1510856715.611557: $GPGSV,3,1,12,10,25,285,42,13,27,045,46,15,59,051,51,18,56,303,47*72
2017-11-16 13:25:15 1510856715.611762: $GPGSV,3,2,12,20,49,075,48,21,78,259,46,24,35,136,42,27,17,310,44*79
2017-11-16 13:25:15 1510856715.611823: $GPGSV,3,3,12,32,02,226,25,29,07,189,30,05,02,088,00,138,38,213,45*40
2017-11-16 13:25:15 1510856715.724794: $GPZDA,182514.00,16,11,2017,00,00*6E
2017-11-16 13:25:15 1510856715.724941: $GPGGA,182514,3946.9615,N,08404.9845,W,2,11,0.80,303.96,M,-33.324,M,,*7C
2017-11-16 13:25:15 1510856715.725001: $GPRMC,182514,A,3946.9615,N,08404.9845,W,0.0000,0.000,161117,,*3E
2017-11-16 13:25:15 1510856715.725056: $GPGSA,A,3,10,13,15,18,20,21,24,27,32,29,138,,1.6,0.8,1.3*03
2017-11-16 13:25:16 1510856716.276967: $GPZDA,182515.00,16,11,2017,00,00*6F
2017-11-16 13:25:16 1510856716.277129: $GPGGA,182515,3946.9615,N,08404.9845,W,2,11,0.80,303.96,M,-33.324,M,,*7D
2017-11-16 13:25:16 1510856716.277207: $GPRMC,182515,A,3946.9615,N,08404.9845,W,0.0000,0.000,161117,,*3F
2017-11-16 13:25:16 1510856716.277311: $GPGSA,A,3,10,13,15,18,20,21,24,27,32,29,138,,1.6,0.8,1.3*03
2017-11-16 13:25:17 1510856717.306740: $GPZDA,182516.00,16,11,2017,00,00*6C
2017-11-16 13:25:17 1510856717.306903: $GPGGA,182516,3946.9615,N,08404.9845,W,2,11,0.80,303.96,M,-33.324,M,,*7E
2017-11-16 13:25:17 1510856717.306963: $GPRMC,182516,A,3946.9615,N,08404.9845,W,0.0000,0.000,161117,,*3C
2017-11-16 13:25:17 1510856717.307019: $GPGSA,A,3,10,13,15,18,20,21,24,27,32,29,138,,1.6,0.8,1.3*03
2017-11-16 13:25:18 1510856718.637341: $GPGSV,3,1,12,10,25,285,42,13,27,045,46,15,59,051,51,18,56,303,47*72
2017-11-16 13:25:18 1510856718.637534: $GPGSV,3,2,12,20,49,075,48,21,78,259,46,24,35,136,41,27,17,310,44*7A
2017-11-16 13:25:18 1510856718.637598: $GPGSV,3,3,12,32,02,226,25,29,07,189,30,05,02,088,11,138,38,213,45*40
2017-11-16 13:25:18 1510856718.750735: $GPZDA,182517.00,16,11,2017,00,00*6D
2017-11-16 13:25:18 1510856718.750913: $GPGGA,182517,3946.9615,N,08404.9845,W,2,11,0.80,303.96,M,-33.324,M,,*7F
2017-11-16 13:25:18 1510856718.750978: $GPRMC,182517,A,3946.9615,N,08404.9845,W,0.0000,0.000,161117,,*3D
2017-11-16 13:25:18 1510856718.751037: $GPGSA,A,3,10,13,15,18,20,21,24,27,32,29,138,,1.6,0.8,1.3*03
2017-11-16 13:25:19 1510856719.276453: $GPZDA,182518.00,16,11,2017,00,00*62
2017-11-16 13:25:19 1510856719.276621: $GPGGA,182518,3946.9615,N,08404.9845,W,2,11,0.80,303.96,M,-33.324,M,,*70
2017-11-16 13:25:19 1510856719.276685: $GPRMC,182518,A,3946.9615,N,08404.9845,W,0.0000,0.000,161117,,*32
2017-11-16 13:25:19 1510856719.276744: $GPGSA,A,3,10,13,15,18,20,21,24,27,32,29,138,,1.6,0.8,1.3*03
2017-11-16 13:25:20 1510856720.295506: $GPZDA,182519.00,16,11,2017,00,00*63
2017-11-16 13:25:20 1510856720.295680: $GPGGA,182519,3946.9615,N,08404.9845,W,2,11,0.80,303.96,M,-33.324,M,,*71
2017-11-16 13:25:20 1510856720.295745: $GPRMC,182519,A,3946.9615,N,08404.9845,W,0.0000,0.000,161117,,*33
2017-11-16 13:25:20 1510856720.295803: $GPGSA,A,3,10,13,15,18,20,21,24,27,32,29,138,,1.6,0.8,1.3*03
2017-11-16 13:25:21 1510856721.631262: $GPGSV,3,1,12,10,25,285,42,13,27,045,46,15,59,051,51,18,56,303,48*7D
2017-11-16 13:25:21 1510856721.631410: $GPGSV,3,2,12,20,49,075,48,21,78,259,47,24,35,136,41,27,17,310,44*7B
2017-11-16 13:25:21 1510856721.631472: $GPGSV,3,3,12,32,02,226,25,29,07,189,30,05,02,088,00,138,38,213,45*40
2017-11-16 13:25:21 1510856721.744545: $GPZDA,182520.00,16,11,2017,00,00*69
2017-11-16 13:25:21 1510856721.744695: $GPGGA,182520,3946.9615,N,08404.9845,W,2,11,0.80,303.96,M,-33.324,M,,*7B
2017-11-16 13:25:21 1510856721.744808: $GPRMC,182520,A,3946.9615,N,08404.9845,W,0.0000,0.000,161117,,*39
2017-11-16 13:25:21 1510856721.744866: $GPGSA,A,3,10,13,15,18,20,21,24,27,32,29,138,,1.6,0.8,1.3*03
2017-11-16 13:25:22 1510856722.276710: $GPZDA,182521.00,16,11,2017,00,00*68
2017-11-16 13:25:22 1510856722.276862: $GPGGA,182521,3946.9615,N,08404.9845,W,2,11,0.80,303.96,M,-33.324,M,,*7A
2017-11-16 13:25:22 1510856722.276921: $GPRMC,182521,A,3946.9615,N,08404.9845,W,0.0000,0.000,161117,,*38
2017-11-16 13:25:22 1510856722.276977: $GPGSA,A,3,10,13,15,18,20,21,24,27,32,29,138,,1.6,0.8,1.3*03
2017-11-16 13:25:23 1510856723.296235: $GPZDA,182522.00,16,11,2017,00,00*6B
2017-11-16 13:25:23 1510856723.296399: $GPGGA,182522,3946.9615,N,08404.9845,W,2,11,0.80,303.96,M,-33.324,M,,*79
2017-11-16 13:25:23 1510856723.296460: $GPRMC,182522,A,3946.9615,N,08404.9845,W,0.0000,0.000,161117,,*3B
2017-11-16 13:25:23 1510856723.296516: $GPGSA,A,3,10,13,15,18,20,21,24,27,32,29,138,,1.6,0.8,1.3*03
2017-11-16 13:25:24 1510856724.605799: $GPGSV,3,1,12,10,25,285,41,13,27,045,46,15,59,051,51,18,56,303,48*7E
2017-11-16 13:25:24 1510856724.605967: $GPGSV,3,2,12,20,49,075,48,21,78,259,47,24,35,136,41,27,17,310,44*7B
2017-11-16 13:25:24 1510856724.606028: $GPGSV,3,3,12,32,02,226,24,29,07,189,30,05,02,088,00,138,38,213,44*40
2017-11-16 13:25:24 1510856724.719398: $GPZDA,182523.00,16,11,2017,00,00*6A
2017-11-16 13:25:24 1510856724.719553: $GPGGA,182523,3946.9615,N,08404.9845,W,2,11,0.80,303.96,M,-33.324,M,,*78
2017-11-16 13:25:24 1510856724.719613: $GPRMC,182523,A,3946.9615,N,08404.9845,W,0.0000,0.000,161117,,*3A
2017-11-16 13:25:24 1510856724.719669: $GPGSA,A,3,10,13,15,18,20,21,24,27,32,29,138,,1.6,0.8,1.3*03
2017-11-16 13:25:25 1510856725.344378: $GPZDA,182524.00,16,11,2017,00,00*6D
2017-11-16 13:25:25 1510856725.344540: $GPGGA,182524,3946.9615,N,08404.9845,W,2,11,0.80,303.96,M,-33.324,M,,*7F
2017-11-16 13:25:25 1510856725.344601: $GPRMC,182524,A,3946.9615,N,08404.9845,W,0.0000,0.000,161117,,*3D
2017-11-16 13:25:25 1510856725.344657: $GPGSA,A,3,10,13,15,18,20,21,24,27,32,29,138,,1.6,0.8,1.3*03
2017-11-16 13:25:26 1510856726.276461: $GPZDA,182525.00,16,11,2017,00,00*6C
2017-11-16 13:25:26 1510856726.276619: $GPGGA,182525,3946.9615,N,08404.9845,W,2,11,0.80,303.96,M,-33.324,M,,*7E
2017-11-16 13:25:26 1510856726.276680: $GPRMC,182525,A,3946.9615,N,08404.9845,W,0.0000,0.000,161117,,*3C
2017-11-16 13:25:26 1510856726.276735: $GPGSA,A,3,10,13,15,18,20,21,24,27,32,29,138,,1.6,0.8,1.3*03
2017-11-16 13:25:27 1510856727.632302: $GPGSV,3,1,12,10,25,285,41,13,27,045,47,15,59,051,51,18,56,303,48*7F
2017-11-16 13:25:27 1510856727.632472: $GPGSV,3,2,12,20,49,075,48,21,78,259,47,24,35,136,42,27,17,310,44*78
2017-11-16 13:25:27 1510856727.632532: $GPGSV,3,3,12,32,02,226,21,29,07,189,30,05,02,088,00,138,38,213,45*44
2017-11-16 13:25:27 1510856727.745557: $GPZDA,182526.00,16,11,2017,00,00*6F
2017-11-16 13:25:27 1510856727.745727: $GPGGA,182526,3946.9615,N,08404.9845,W,2,11,0.80,303.96,M,-33.324,M,,*7D
2017-11-16 13:25:27 1510856727.745789: $GPRMC,182526,A,3946.9615,N,08404.9845,W,0.0000,0.000,161117,,*3F
2017-11-16 13:25:27 1510856727.745844: $GPGSA,A,3,10,13,15,18,20,21,24,27,32,29,138,,1.6,0.8,1.3*03
2017-11-16 13:25:28 1510856728.275114: $GPZDA,182527.00,16,11,2017,00,00*6E
2017-11-16 13:25:28 1510856728.275275: $GPGGA,182527,3946.9615,N,08404.9845,W,2,11,0.80,303.96,M,-33.324,M,,*7C
2017-11-16 13:25:28 1510856728.275336: $GPRMC,182527,A,3946.9615,N,08404.9845,W,0.0000,0.000,161117,,*3E
2017-11-16 13:25:28 1510856728.275392: $GPGSA,A,3,10,13,15,18,20,21,24,27,32,29,138,,1.6,0.8,1.3*03
2017-11-16 13:25:29 1510856729.277591: $GPZDA,182528.00,16,11,2017,00,00*61
2017-11-16 13:25:29 1510856729.277746: $GPGGA,182528,3946.9615,N,08404.9845,W,2,11,0.80,303.96,M,-33.324,M,,*73
2017-11-16 13:25:29 1510856729.277809: $GPRMC,182528,A,3946.9615,N,08404.9845,W,0.0000,0.000,161117,,*31
2017-11-16 13:25:29 1510856729.277867: $GPGSA,A,3,10,13,15,18,20,21,24,27,32,29,138,,1.6,0.8,1.3*03
