2017-12-01 13:42:28 1512153748.507644: {"class":"VERSION","release":"3.16","rev":"3.16-4","proto_major":3,"proto_minor":11}
2017-12-01 13:42:28 1512153748.508061: {"class":"DEVICES","devices":[{"class":"DEVICE","path":"/dev/ttyUSB0","driver":"SiRF","subtype":"9\u0006GSD4e_4.1.2-P1_RPATCH.05-F-GPS-4R-1510281 11/03/2015 307","activated":"2017-12-01T18:42:28.371Z","flags":1,"native":1,"bps":4800,"parity":"N","stopbits":1,"cycle":1.00}]}
2017-12-01 13:42:28 1512153748.508191: {"class":"WATCH","enable":true,"json":false,"nmea":true,"raw":0,"scaled":false,"timing":false,"split24":false,"pps":false}
2017-12-01 13:42:29 1512153749.565703: $GPGSV,3,1,11,10,53,312,49,14,15,240,39,15,25,057,44,18,77,024,43*75
2017-12-01 13:42:29 1512153749.565855: $GPGSV,3,2,11,20,23,106,48,21,48,183,46,24,53,085,48,27,15,276,37*70
2017-12-01 13:42:29 1512153749.565940: $GPGSV,3,3,11,32,32,249,44,08,08,310,38,138,38,213,47*7D
2017-12-01 13:42:29 1512153749.679415: $GPZDA,184230.00,01,12,2017,00,00*6C
2017-12-01 13:42:29 1512153749.679571: $GPGGA,184230,3946.9593,N,08404.9832,W,2,11,0.80,300.92,M,-33.324,M,,*71
2017-12-01 13:42:29 1512153749.679637: $GPRMC,184230,A,3946.9593,N,08404.9832,W,0.0000,0.000,011217,,*31
2017-12-01 13:42:29 1512153749.679698: $GPGSA,A,3,10,14,15,18,20,21,24,27,32,8,138,,2.0,0.8,1.5*34
2017-12-01 13:42:30 1512153750.705124: $GPZDA,184231.00,01,12,2017,00,00*6D
2017-12-01 13:42:30 1512153750.705295: $GPGGA,184231,3946.9597,N,08404.9838,W,2,11,0.80,300.08,M,-33.324,M,,*7D
2017-12-01 13:42:30 1512153750.705362: $GPRMC,184231,A,3946.9597,N,08404.9838,W,0.0000,0.000,011217,,*3E
2017-12-01 13:42:30 1512153750.705425: $GPGSA,A,3,10,14,15,18,20,21,24,27,32,8,138,,2.0,0.8,1.5*34
2017-12-01 13:42:31 1512153751.223958: $GPZDA,184232.00,01,12,2017,00,00*6E
2017-12-01 13:42:31 1512153751.224129: $GPGGA,184232,3946.9597,N,08404.9838,W,2,11,0.80,300.08,M,-33.324,M,,*7E
2017-12-01 13:42:31 1512153751.224200: $GPRMC,184232,A,3946.9597,N,08404.9838,W,0.0000,0.000,011217,,*3D
2017-12-01 13:42:31 1512153751.224263: $GPGSA,A,3,10,14,15,18,20,21,24,27,32,8,138,,2.0,0.8,1.5*34
2017-12-01 13:42:32 1512153752.565071: $GPGSV,3,1,11,10,53,312,49,14,15,240,39,15,25,057,45,18,77,025,43*75
2017-12-01 13:42:32 1512153752.565251: $GPGSV,3,2,11,20,23,106,48,21,48,183,46,24,53,085,47,27,15,276,36*7E
2017-12-01 13:42:32 1512153752.565318: $GPGSV,3,3,11,32,32,249,44,08,08,310,38,138,38,213,47*7D
2017-12-01 13:42:32 1512153752.678513: $GPZDA,184233.00,01,12,2017,00,00*6F
2017-12-01 13:42:32 1512153752.678696: $GPGGA,184233,3946.9597,N,08404.9838,W,2,11,0.80,300.08,M,-33.324,M,,*7F
2017-12-01 13:42:32 1512153752.678765: $GPRMC,184233,A,3946.9597,N,08404.9838,W,0.0000,0.000,011217,,*3C
2017-12-01 13:42:32 1512153752.678826: $GPGSA,A,3,10,14,15,18,20,21,24,27,32,8,138,,2.0,0.8,1.5*34
2017-12-01 13:42:33 1512153753.229849: $GPZDA,184234.00,01,12,2017,00,00*68
2017-12-01 13:42:33 1512153753.230038: $GPGGA,184234,3946.9597,N,08404.9838,W,2,11,0.80,300.08,M,-33.324,M,,*78
2017-12-01 13:42:33 1512153753.230106: $GPRMC,184234,A,3946.9597,N,08404.9838,W,0.0000,0.000,011217,,*3B
2017-12-01 13:42:33 1512153753.230169: $GPGSA,A,3,10,14,15,18,20,21,24,27,32,8,138,,2.0,0.8,1.5*34
2017-12-01 13:42:34 1512153754.229980: $GPZDA,184235.00,01,12,2017,00,00*69
2017-12-01 13:42:34 1512153754.230151: $GPGGA,184235,3946.9597,N,08404.9838,W,2,11,0.80,300.08,M,-33.324,M,,*79
2017-12-01 13:42:34 1512153754.230217: $GPRMC,184235,A,3946.9597,N,08404.9838,W,0.0000,0.000,011217,,*3A
2017-12-01 13:42:34 1512153754.230280: $GPGSA,A,3,10,14,15,18,20,21,24,27,32,8,138,,2.0,0.8,1.5*34
2017-12-01 13:42:35 1512153755.564514: $GPGSV,3,1,11,10,53,312,49,14,15,240,38,15,25,057,45,18,77,025,43*74
2017-12-01 13:42:35 1512153755.564688: $GPGSV,3,2,11,20,23,106,48,21,48,183,45,24,53,085,47,27,15,276,36*7D
2017-12-01 13:42:35 1512153755.564756: $GPGSV,3,3,11,32,32,249,44,08,08,310,37,138,38,213,47*72
2017-12-01 13:42:35 1512153755.677885: $GPZDA,184236.00,01,12,2017,00,00*6A
2017-12-01 13:42:35 1512153755.678051: $GPGGA,184236,3946.9597,N,08404.9838,W,2,11,0.80,300.08,M,-33.324,M,,*7A
2017-12-01 13:42:35 1512153755.678172: $GPRMC,184236,A,3946.9597,N,08404.9838,W,0.0000,0.000,011217,,*39
2017-12-01 13:42:35 1512153755.678236: $GPGSA,A,3,10,14,15,18,20,21,24,27,32,8,138,,2.0,0.8,1.5*34
2017-12-01 13:42:36 1512153756.225527: $GPZDA,184237.00,01,12,2017,00,00*6B
2017-12-01 13:42:36 1512153756.225695: $GPGGA,184237,3946.9597,N,08404.9838,W,2,11,0.80,300.08,M,-33.324,M,,*7B
2017-12-01 13:42:36 1512153756.225763: $GPRMC,184237,A,3946.9597,N,08404.9838,W,0.0000,0.000,011217,,*38
2017-12-01 13:42:36 1512153756.225824: $GPGSA,A,3,10,14,15,18,20,21,24,27,32,8,138,,2.0,0.8,1.5*34
2017-12-01 13:42:37 1512153757.229378: $GPZDA,184238.00,01,12,2017,00,00*64
2017-12-01 13:42:37 1512153757.229549: $GPGGA,184238,3946.9597,N,08404.9838,W,2,11,0.80,300.08,M,-33.324,M,,*74
2017-12-01 13:42:37 1512153757.229616: $GPRMC,184238,A,3946.9597,N,08404.9838,W,0.0000,0.000,011217,,*37
2017-12-01 13:42:37 1512153757.229678: $GPGSA,A,3,10,14,15,18,20,21,24,27,32,8,138,,2.0,0.8,1.5*34
