2017-12-01 18:03:48 1512169428.766672: {"class":"VERSION","release":"3.16","rev":"3.16-4","proto_major":3,"proto_minor":11}
2017-12-01 18:03:48 1512169428.767067: {"class":"DEVICES","devices":[{"class":"DEVICE","path":"/dev/ttyUSB0","driver":"SiRF","subtype":"9\u0006GSD4e_4.1.2-P1_RPATCH.05-F-GPS-4R-1510281 11/03/2015 307","activated":"2017-12-01T23:03:48.582Z","flags":1,"native":1,"bps":4800,"parity":"N","stopbits":1,"cycle":1.00}]}
2017-12-01 18:03:48 1512169428.767189: {"class":"WATCH","enable":true,"json":false,"nmea":true,"raw":0,"scaled":false,"timing":false,"split24":false,"pps":false}
2017-12-01 18:03:49 1512169429.444881: $GPZDA,230350.00,01,12,2017,00,00*67
2017-12-01 18:03:49 1512169429.445052: $GPGGA,230350,3946.9727,N,08404.9829,W,2,12,0.60,291.50,M,-33.325,M,,*76
2017-12-01 18:03:49 1512169429.445120: $GPRMC,230350,A,3946.9727,N,08404.9829,W,0.0000,0.000,011217,,*3D
2017-12-01 18:03:49 1512169429.445181: $GPGSA,A,3,1,3,10,14,16,22,29,25,26,31,32,138,2.0,0.6,1.5*02
2017-12-01 18:03:50 1512169430.781415: $GPGSV,3,1,12,01,11,259,34,03,34,307,47,10,06,159,28,14,61,078,44*7E
2017-12-01 18:03:50 1512169430.781602: $GPGSV,3,2,12,16,14,189,43,22,48,285,46,29,07,081,23,25,25,043,43*7B
2017-12-01 18:03:50 1512169430.781671: $GPGSV,3,3,12,26,43,175,45,31,74,007,47,32,43,099,44,138,38,213,46*4B
2017-12-01 18:03:50 1512169430.894841: $GPZDA,230351.00,01,12,2017,00,00*66
2017-12-01 18:03:50 1512169430.895019: $GPGGA,230351,3946.9727,N,08404.9836,W,2,12,0.60,291.42,M,-33.325,M,,*7A
2017-12-01 18:03:50 1512169430.895088: $GPRMC,230351,A,3946.9727,N,08404.9836,W,0.0000,0.000,011217,,*32
2017-12-01 18:03:50 1512169430.895150: $GPGSA,A,3,1,3,10,14,16,22,29,25,26,31,32,138,2.0,0.6,1.5*02
2017-12-01 18:03:51 1512169431.445725: $GPZDA,230352.00,01,12,2017,00,00*65
2017-12-01 18:03:51 1512169431.445894: $GPGGA,230352,3946.9727,N,08404.9836,W,2,12,0.60,291.42,M,-33.325,M,,*79
2017-12-01 18:03:51 1512169431.445962: $GPRMC,230352,A,3946.9727,N,08404.9836,W,0.0000,0.000,011217,,*31
2017-12-01 18:03:51 1512169431.446024: $GPGSA,A,3,1,3,10,14,16,22,29,25,26,31,32,138,2.0,0.6,1.5*02
2017-12-01 18:03:52 1512169432.445282: $GPZDA,230353.00,01,12,2017,00,00*64
2017-12-01 18:03:52 1512169432.445487: $GPGGA,230353,3946.9727,N,08404.9836,W,2,12,0.60,291.42,M,-33.325,M,,*78
2017-12-01 18:03:52 1512169432.445557: $GPRMC,230353,A,3946.9727,N,08404.9836,W,0.0000,0.000,011217,,*30
2017-12-01 18:03:52 1512169432.445618: $GPGSA,A,3,1,3,10,14,16,22,29,25,26,31,32,138,2.0,0.6,1.5*02
2017-12-01 18:03:53 1512169433.808491: $GPGSV,3,1,12,01,11,259,28,03,34,307,47,10,06,159,29,14,61,078,44*72
2017-12-01 18:03:53 1512169433.808682: $GPGSV,3,2,12,16,14,189,43,22,48,285,46,29,07,081,20,25,25,043,43*78
2017-12-01 18:03:53 1512169433.808769: $GPGSV,3,3,12,26,43,175,45,31,74,007,47,32,43,099,44,138,38,213,46*4B
2017-12-01 18:03:53 1512169433.921923: $GPZDA,230354.00,01,12,2017,00,00*63
2017-12-01 18:03:53 1512169433.922082: $GPGGA,230354,3946.9727,N,08404.9836,W,2,12,0.60,291.42,M,-33.325,M,,*7F
2017-12-01 18:03:53 1512169433.922147: $GPRMC,230354,A,3946.9727,N,08404.9836,W,0.0000,0.000,011217,,*37
2017-12-01 18:03:53 1512169433.922209: $GPGSA,A,3,1,3,10,14,16,22,29,25,26,31,32,138,2.0,0.6,1.5*02
2017-12-01 18:03:54 1512169434.446580: $GPZDA,230355.00,01,12,2017,00,00*62
2017-12-01 18:03:54 1512169434.446751: $GPGGA,230355,3946.9727,N,08404.9836,W,2,12,0.60,291.42,M,-33.325,M,,*7E
2017-12-01 18:03:54 1512169434.446819: $GPRMC,230355,A,3946.9727,N,08404.9836,W,0.0000,0.000,011217,,*36
2017-12-01 18:03:54 1512169434.446902: $GPGSA,A,3,1,3,10,14,16,22,29,25,26,31,32,138,2.0,0.6,1.5*02
2017-12-01 18:03:55 1512169435.474358: $GPZDA,230356.00,01,12,2017,00,00*61
2017-12-01 18:03:55 1512169435.474622: $GPGGA,230356,3946.9727,N,08404.9836,W,2,12,0.60,291.42,M,-33.325,M,,*7D
2017-12-01 18:03:55 1512169435.474697: $GPRMC,230356,A,3946.9727,N,08404.9836,W,0.0000,0.000,011217,,*35
2017-12-01 18:03:55 1512169435.474760: $GPGSA,A,3,1,3,10,14,16,22,29,25,26,31,32,138,2.0,0.6,1.5*02
2017-12-01 18:03:56 1512169436.803892: $GPGSV,3,1,12,01,11,259,29,03,34,307,47,10,06,159,29,14,61,078,43*74
2017-12-01 18:03:56 1512169436.804123: $GPGSV,3,2,12,16,14,189,43,22,48,285,46,29,07,081,16,25,25,043,44*7A
2017-12-01 18:03:56 1512169436.804194: $GPGSV,3,3,12,26,43,175,45,31,74,007,46,32,43,099,44,138,38,213,46*4A
2017-12-01 18:03:56 1512169436.917609: $GPZDA,230357.00,01,12,2017,00,00*60
2017-12-01 18:03:56 1512169436.917780: $GPGGA,230357,3946.9727,N,08404.9836,W,2,12,0.60,291.42,M,-33.325,M,,*7C
2017-12-01 18:03:56 1512169436.917847: $GPRMC,230357,A,3946.9727,N,08404.9836,W,0.0000,0.000,011217,,*34
2017-12-01 18:03:56 1512169436.917909: $GPGSA,A,3,1,3,10,14,16,22,29,25,26,31,32,138,2.0,0.6,1.5*02
2017-12-01 18:03:57 1512169437.473128: $GPZDA,230358.00,01,12,2017,00,00*6F
2017-12-01 18:03:57 1512169437.473311: $GPGGA,230358,3946.9727,N,08404.9836,W,2,12,0.60,291.42,M,-33.325,M,,*73
2017-12-01 18:03:57 1512169437.473387: $GPRMC,230358,A,3946.9727,N,08404.9836,W,0.0000,0.000,011217,,*3B
2017-12-01 18:03:57 1512169437.473449: $GPGSA,A,3,1,3,10,14,16,22,29,25,26,31,32,138,2.0,0.6,1.5*02
2017-12-01 18:03:58 1512169438.473987: $GPZDA,230359.00,01,12,2017,00,00*6E
2017-12-01 18:03:58 1512169438.474161: $GPGGA,230359,3946.9727,N,08404.9836,W,2,12,0.60,291.42,M,-33.325,M,,*72
2017-12-01 18:03:58 1512169438.474231: $GPRMC,230359,A,3946.9727,N,08404.9836,W,0.0000,0.000,011217,,*3A
2017-12-01 18:03:58 1512169438.474297: $GPGSA,A,3,1,3,10,14,16,22,29,25,26,31,32,138,2.0,0.6,1.5*02
2017-12-01 18:03:59 1512169439.782178: $GPGSV,3,1,12,01,11,259,30,03,34,307,47,10,06,159,29,14,61,078,44*7B
2017-12-01 18:03:59 1512169439.782366: $GPGSV,3,2,12,16,14,189,43,22,48,285,47,29,07,081,08,25,25,043,44*74
2017-12-01 18:03:59 1512169439.782434: $GPGSV,3,3,12,26,43,175,46,31,74,007,47,32,43,099,44,138,38,213,46*48
2017-12-01 18:03:59 1512169439.895962: $GPZDA,230400.00,01,12,2017,00,00*65
2017-12-01 18:03:59 1512169439.896132: $GPGGA,230400,3946.9727,N,08404.9836,W,2,11,0.80,291.42,M,-33.325,M,,*74
2017-12-01 18:03:59 1512169439.896198: $GPRMC,230400,A,3946.9727,N,08404.9836,W,0.0000,0.000,011217,,*31
2017-12-01 18:03:59 1512169439.896264: $GPGSA,A,3,1,3,10,14,16,22,25,26,31,32,138,,2.0,0.8,1.5*07
2017-12-01 18:04:00 1512169440.521166: $GPZDA,230401.00,01,12,2017,00,00*64
2017-12-01 18:04:00 1512169440.521399: $GPGGA,230401,3946.9724,N,08404.9837,W,2,11,0.60,292.18,M,-33.325,M,,*75
2017-12-01 18:04:00 1512169440.521478: $GPRMC,230401,A,3946.9724,N,08404.9837,W,0.0000,0.000,011217,,*32
2017-12-01 18:04:00 1512169440.521540: $GPGSA,A,3,1,3,10,14,16,22,25,26,31,32,138,,2.0,0.6,1.5*09
2017-12-01 18:04:01 1512169441.467027: $GPZDA,230402.00,01,12,2017,00,00*67
2017-12-01 18:04:01 1512169441.467177: $GPGGA,230402,3946.9724,N,08404.9837,W,2,11,0.60,292.18,M,-33.325,M,,*76
2017-12-01 18:04:01 1512169441.467249: $GPRMC,230402,A,3946.9724,N,08404.9837,W,0.0000,0.000,011217,,*31
2017-12-01 18:04:01 1512169441.467313: $GPGSA,A,3,1,3,10,14,16,22,25,26,31,32,138,,2.0,0.6,1.5*09
2017-12-01 18:04:02 1512169442.803749: $GPGSV,3,1,12,01,11,259,30,03,34,307,47,10,06,159,28,14,61,078,43*7D
2017-12-01 18:04:02 1512169442.803897: $GPGSV,3,2,12,16,14,189,43,22,48,285,47,29,07,081,09,25,25,043,44*75
2017-12-01 18:04:02 1512169442.803964: $GPGSV,3,3,12,26,43,175,45,31,74,007,47,32,43,099,44,138,38,213,47*4A
2017-12-01 18:04:02 1512169442.917142: $GPZDA,230403.00,01,12,2017,00,00*66
2017-12-01 18:04:02 1512169442.917327: $GPGGA,230403,3946.9728,N,08404.9837,W,2,12,0.60,292.82,M,-33.325,M,,*7B
2017-12-01 18:04:02 1512169442.917395: $GPRMC,230403,A,3946.9728,N,08404.9837,W,0.0000,0.000,011217,,*3C
2017-12-01 18:04:02 1512169442.917458: $GPGSA,A,3,1,3,10,14,16,22,29,25,26,31,32,138,2.0,0.6,1.5*02
2017-12-01 18:04:03 1512169443.445562: $GPZDA,230404.00,01,12,2017,00,00*61
2017-12-01 18:04:03 1512169443.445734: $GPGGA,230404,3946.9728,N,08404.9837,W,2,12,0.80,292.82,M,-33.325,M,,*72
2017-12-01 18:04:03 1512169443.445803: $GPRMC,230404,A,3946.9728,N,08404.9837,W,0.0000,0.000,011217,,*3B
2017-12-01 18:04:03 1512169443.445864: $GPGSA,A,3,1,3,10,14,16,22,29,25,26,31,32,138,2.0,0.8,1.5*0C
2017-12-01 18:04:04 1512169444.475306: $GPZDA,230405.00,01,12,2017,00,00*60
2017-12-01 18:04:04 1512169444.475511: $GPGGA,230405,3946.9728,N,08404.9837,W,2,12,0.80,292.82,M,-33.325,M,,*73
2017-12-01 18:04:04 1512169444.475583: $GPRMC,230405,A,3946.9728,N,08404.9837,W,0.0000,0.000,011217,,*3A
2017-12-01 18:04:04 1512169444.475646: $GPGSA,A,3,1,3,10,14,16,22,29,25,26,31,32,138,2.0,0.8,1.5*0C
2017-12-01 18:04:05 1512169445.780315: $GPGSV,3,1,12,01,11,259,30,03,34,307,47,10,06,159,28,14,61,078,43*7D
2017-12-01 18:04:05 1512169445.780492: $GPGSV,3,2,12,16,14,189,43,22,48,285,47,23,05,297,44,25,25,043,43*76
2017-12-01 18:04:05 1512169445.780561: $GPGSV,3,3,12,26,43,175,46,31,74,007,47,32,43,099,44,138,38,213,47*49
2017-12-01 18:04:05 1512169445.893706: $GPZDA,230406.00,01,12,2017,00,00*63
2017-12-01 18:04:05 1512169445.893878: $GPGGA,230406,3946.9728,N,08404.9837,W,2,12,0.80,292.82,M,-33.325,M,,*70
2017-12-01 18:04:05 1512169445.893944: $GPRMC,230406,A,3946.9728,N,08404.9837,W,0.0000,0.000,011217,,*39
2017-12-01 18:04:05 1512169445.894007: $GPGSA,A,3,1,3,10,14,16,22,23,25,26,31,32,138,2.0,0.8,1.5*06
2017-12-01 18:04:06 1512169446.474580: $GPZDA,230407.00,01,12,2017,00,00*62
2017-12-01 18:04:06 1512169446.474748: $GPGGA,230407,3946.9728,N,08404.9837,W,2,12,0.80,292.82,M,-33.325,M,,*71
2017-12-01 18:04:06 1512169446.474815: $GPRMC,230407,A,3946.9728,N,08404.9837,W,0.0000,0.000,011217,,*38
2017-12-01 18:04:06 1512169446.474877: $GPGSA,A,3,1,3,10,14,16,22,23,25,26,31,32,138,2.0,0.8,1.5*06
2017-12-01 18:04:07 1512169447.468214: $GPZDA,230408.00,01,12,2017,00,00*6D
2017-12-01 18:04:07 1512169447.468391: $GPGGA,230408,3946.9728,N,08404.9837,W,2,12,0.80,292.82,M,-33.325,M,,*7E
2017-12-01 18:04:07 1512169447.468458: $GPRMC,230408,A,3946.9728,N,08404.9837,W,0.0000,0.000,011217,,*37
2017-12-01 18:04:07 1512169447.468522: $GPGSA,A,3,1,3,10,14,16,22,23,25,26,31,32,138,2.0,0.8,1.5*06
