2017-11-15 19:25:18 1510791918.424446: {"class":"VERSION","release":"3.17","rev":"3.17","proto_major":3,"proto_minor":12}
2017-11-15 19:25:18 1510791918.424988: {"class":"DEVICES","devices":[{"class":"DEVICE","path":"/dev/ttyUSB0","driver":"SiRF","subtype":"9\u0006GSD4e_4.1.2-P1_RPATCH.05-F-GPS-4R-1510281 11/03/2015 307","activated":"2017-11-16T00:25:18.231Z","flags":1,"native":1,"bps":4800,"parity":"N","stopbits":1,"cycle":1.00}]}
2017-11-15 19:25:18 1510791918.425118: {"class":"WATCH","enable":true,"json":false,"nmea":true,"raw":0,"scaled":false,"timing":false,"split24":false,"pps":false}
2017-11-15 19:25:18 1510791918.680107: $GPGSV,3,1,12,32,38,105,27,31,70,021,24,16,20,190,16,26,50,174,28*70
2017-11-15 19:25:18 1510791918.680280: $GPGSV,3,2,12,14,57,088,18,25,19,040,00,22,50,274,16,03,38,301,15*73
2017-11-15 19:25:18 1510791918.680341: $GPGSV,3,3,12,29,10,073,00,23,09,300,00,01,07,255,00,120,07,103,00*4D
2017-11-15 19:25:18 1510791918.793429: $GPZDA,002517.00,16,11,2017,00,00*64
2017-11-15 19:25:18 1510791918.793599: $GPGGA,002517,3946.9661,N,08404.9515,W,1,07,1.40,287.39,M,-33.324,M,,*7C
2017-11-15 19:25:18 1510791918.793661: $GPRMC,002517,A,3946.9661,N,08404.9515,W,0.7246,344.668,161117,,*33
2017-11-15 19:25:18 1510791918.793717: $GPGSA,A,3,32,31,16,26,14,22,3,,,,,,3.4,1.4,2.9*0D
2017-11-15 19:25:19 1510791919.345561: $GPZDA,002518.00,16,11,2017,00,00*6B
2017-11-15 19:25:19 1510791919.345727: $GPGGA,002518,3946.9657,N,08404.9515,W,1,07,1.40,286.75,M,-33.324,M,,*7F
2017-11-15 19:25:19 1510791919.345789: $GPRMC,002518,A,3946.9657,N,08404.9515,W,0.8414,39.347,161117,,*06
2017-11-15 19:25:19 1510791919.345844: $GPGSA,A,3,32,31,16,26,14,22,3,,,,,,3.4,1.4,2.9*0D
2017-11-15 19:25:20 1510791920.345184: $GPZDA,002519.00,16,11,2017,00,00*6A
2017-11-15 19:25:20 1510791920.363155: $GPGGA,002519,3946.9661,N,08404.9515,W,1,07,1.40,285.98,M,-33.324,M,,*7B
2017-11-15 19:25:20 1510791920.363259: $GPRMC,002519,A,3946.9661,N,08404.9515,W,1.2608,78.042,161117,,*05
2017-11-15 19:25:20 1510791920.363316: $GPGSA,A,3,32,31,16,26,14,22,3,,,,,,3.4,1.4,2.9*0D
2017-11-15 19:25:21 1510791921.680456: $GPGSV,3,1,12,32,38,105,26,31,70,021,24,16,20,190,17,26,50,174,28*70
2017-11-15 19:25:21 1510791921.680633: $GPGSV,3,2,12,14,57,088,19,25,19,040,00,22,50,274,16,03,38,301,09*7F
2017-11-15 19:25:21 1510791921.680693: $GPGSV,3,3,12,29,10,073,00,23,09,300,00,01,07,255,00,120,07,103,00*4D
2017-11-15 19:25:21 1510791921.793775: $GPZDA,002520.00,16,11,2017,00,00*60
2017-11-15 19:25:21 1510791921.793941: $GPGGA,002520,3946.9656,N,08404.9508,W,1,07,1.40,285.42,M,-33.324,M,,*7E
2017-11-15 19:25:21 1510791921.794004: $GPRMC,002520,A,3946.9656,N,08404.9508,W,1.5526,75.076,161117,,*05
2017-11-15 19:25:21 1510791921.794060: $GPGSA,A,3,32,31,16,26,14,22,3,,,,,,3.4,1.4,2.9*0D
2017-11-15 19:25:22 1510791922.328454: $GPZDA,002521.00,16,11,2017,00,00*61
2017-11-15 19:25:22 1510791922.328631: $GPGGA,002521,3946.9656,N,08404.9501,W,1,07,1.40,285.50,M,-33.324,M,,*75
2017-11-15 19:25:22 1510791922.328695: $GPRMC,002521,A,3946.9656,N,08404.9501,W,0.9959,84.784,161117,,*00
2017-11-15 19:25:22 1510791922.328751: $GPGSA,A,3,32,31,16,26,14,22,3,,,,,,3.4,1.4,2.9*0D
2017-11-15 19:25:23 1510791923.345534: $GPZDA,002522.00,16,11,2017,00,00*62
2017-11-15 19:25:23 1510791923.345711: $GPGGA,002522,3946.9655,N,08404.9500,W,1,07,1.40,284.10,M,-33.324,M,,*71
2017-11-15 19:25:23 1510791923.345775: $GPRMC,002522,A,3946.9655,N,08404.9500,W,0.8054,68.645,161117,,*0A
2017-11-15 19:25:23 1510791923.345831: $GPGSA,A,3,32,31,16,26,14,22,3,,,,,,3.4,1.4,2.9*0D
2017-11-15 19:25:24 1510791924.666390: $GPGSV,3,1,12,32,38,105,26,31,70,021,24,16,20,190,17,26,50,174,28*70
2017-11-15 19:25:24 1510791924.666563: $GPGSV,3,2,12,14,57,088,19,25,19,040,00,22,50,274,17,03,38,301,07*70
2017-11-15 19:25:24 1510791924.666625: $GPGSV,3,3,12,29,10,073,00,23,09,300,00,01,07,255,00,120,07,103,00*4D
2017-11-15 19:25:24 1510791924.779885: $GPZDA,002523.00,16,11,2017,00,00*63
2017-11-15 19:25:24 1510791924.780048: $GPGGA,002523,3946.9655,N,08404.9500,W,1,06,1.80,284.10,M,-33.324,M,,*7D
2017-11-15 19:25:24 1510791924.780160: $GPRMC,002523,A,3946.9655,N,08404.9500,W,1.0018,50.691,161117,,*08
2017-11-15 19:25:24 1510791924.780216: $GPGSA,A,3,32,31,16,26,14,22,,,,,,,3.4,1.8,2.9*32
2017-11-15 19:25:25 1510791925.347275: $GPZDA,002524.00,16,11,2017,00,00*64
2017-11-15 19:25:25 1510791925.837721: $GPGGA,002524,3946.9651,N,08404.9500,W,1,06,1.80,283.46,M,-33.324,M,,*7A
2017-11-15 19:25:25 1510791925.837911: $GPRMC,002524,A,3946.9651,N,08404.9500,W,0.5951,58.684,161117,,*07
2017-11-15 19:25:25 1510791925.837970: $GPGSA,A,3,32,31,16,26,14,22,,,,,,,3.4,1.8,2.9*32
2017-11-15 19:25:26 1510791926.345923: $GPZDA,002525.00,16,11,2017,00,00*65
2017-11-15 19:25:26 1510791926.346082: $GPGGA,002525,3946.9646,N,08404.9493,W,1,06,1.80,282.90,M,-33.324,M,,*7C
2017-11-15 19:25:26 1510791926.346144: $GPRMC,002525,A,3946.9646,N,08404.9493,W,0.7267,93.794,161117,,*00
2017-11-15 19:25:26 1510791926.346199: $GPGSA,A,3,32,31,16,26,14,22,,,,,,,3.4,1.8,2.9*32
2017-11-15 19:25:27 1510791927.665421: $GPGSV,3,1,12,32,38,105,26,31,70,021,24,16,20,190,17,26,50,174,28*70
2017-11-15 19:25:27 1510791927.665600: $GPGSV,3,2,12,14,57,088,19,25,19,040,00,22,50,274,17,03,38,301,06*71
2017-11-15 19:25:27 1510791927.665659: $GPGSV,3,3,12,29,10,073,00,23,09,300,00,01,07,255,00,120,07,103,00*4D
2017-11-15 19:25:27 1510791927.779139: $GPZDA,002526.00,16,11,2017,00,00*66
2017-11-15 19:25:27 1510791927.779338: $GPGGA,002526,3946.9650,N,08404.9492,W,1,06,1.80,282.13,M,-33.324,M,,*72
2017-11-15 19:25:27 1510791927.779399: $GPRMC,002526,A,3946.9650,N,08404.9492,W,0.3155,129.994,161117,,*3D
2017-11-15 19:25:27 1510791927.779455: $GPGSA,A,3,32,31,16,26,14,22,,,,,,,3.4,1.8,2.9*32
2017-11-15 19:25:28 1510791928.329680: $GPZDA,002527.00,16,11,2017,00,00*67
2017-11-15 19:25:28 1510791928.329851: $GPGGA,002527,3946.9646,N,08404.9492,W,1,06,1.80,281.49,M,-33.324,M,,*78
2017-11-15 19:25:28 1510791928.329913: $GPRMC,002527,A,3946.9646,N,08404.9492,W,0.5306,114.352,161117,,*37
2017-11-15 19:25:28 1510791928.329969: $GPGSA,A,3,32,31,16,26,14,22,,,,,,,3.4,1.8,2.9*32
