2018-01-11 19:46:28 1515717988.788973: {"class":"VERSION","release":"3.16","rev":"3.16-4","proto_major":3,"proto_minor":11}
2018-01-11 19:46:28 1515717988.789432: {"class":"DEVICES","devices":[{"class":"DEVICE","path":"/dev/ttyUSB0","driver":"SiRF","subtype":"9\u0006GSD4e_4.1.2-P1_RPATCH.05-F-GPS-4R-1510281 11/03/2015 307","activated":"2018-01-12T00:46:28.548Z","flags":1,"native":1,"bps":4800,"parity":"N","stopbits":1,"cycle":1.00}]}
2018-01-11 19:46:28 1515717988.789550: {"class":"WATCH","enable":true,"json":false,"nmea":true,"raw":0,"scaled":false,"timing":false,"split24":false,"pps":false}
2018-01-11 19:46:29 1515717989.150724: $GPZDA,004629.83,12,01,2018,00,00*6D
2018-01-11 19:46:29 1515717989.150888: $GPGGA,004629,3946.9565,N,08404.9813,W,1,11,1.20,300.89,M,-33.324,M,,*7C
2018-01-11 19:46:29 1515717989.150954: $GPRMC,004629,A,3946.9565,N,08404.9813,W,0.0407,142.014,120118,,*30
2018-01-11 19:46:29 1515717989.151015: $GPGSA,A,3,7,8,9,11,16,23,27,30,26,28,138,,4.0,1.2,3.5*31
2018-01-11 19:46:30 1515717990.231872: $GPZDA,004630.52,12,01,2018,00,00*69
2018-01-11 19:46:30 1515717990.232054: $GPGGA,004630,3946.9566,N,08404.9820,W,1,11,1.20,300.81,M,-33.324,M,,*7F
2018-01-11 19:46:30 1515717990.232119: $GPRMC,004630,A,3946.9566,N,08404.9820,W,0.1567,9.200,120118,,*34
2018-01-11 19:46:30 1515717990.232180: $GPGSA,A,3,7,8,9,11,16,23,27,30,26,28,138,,4.0,1.2,3.5*31
2018-01-11 19:46:30 1515717990.232237: $GPGBS,004630,14.62,M,24.83,M,80.38,M*00
2018-01-11 19:46:31 1515717991.374419: $GPGSV,3,1,12,07,45,310,44,08,64,156,45,09,54,246,43,16,31,054,48*72
2018-01-11 19:46:31 1515717991.374595: $GPGSV,3,2,12,23,40,193,48,27,55,066,50,11,11,171,03,26,06,066,02*7D
2018-01-11 19:46:31 1515717991.374660: $GPGSV,3,3,12,28,06,250,03,30,20,301,13,21,01,030,00,138,38,213,00*43
2018-01-11 19:46:31 1515717991.487757: $GPZDA,004631.00,12,01,2018,00,00*6F
2018-01-11 19:46:31 1515717991.487877: $GPGGA,004631,3946.9566,N,08404.9820,W,1,06,1.20,300.81,M,-33.324,M,,*78
2018-01-11 19:46:31 1515717991.487940: $GPRMC,004631,A,3946.9566,N,08404.9820,W,0.1867,180.000,120118,,*3A
2018-01-11 19:46:31 1515717991.487999: $GPGSA,A,3,7,8,9,16,23,27,,,,,,,4.0,1.2,3.5*06
2018-01-11 19:46:31 1515717991.939978: $GPZDA,004632.00,12,01,2018,00,00*6C
2018-01-11 19:46:31 1515717991.940160: $GPGGA,004632,3946.9565,N,08404.9819,W,1,06,0.80,299.41,M,-33.324,M,,*74
2018-01-11 19:46:31 1515717991.940226: $GPRMC,004632,A,3946.9565,N,08404.9819,W,0.0814,142.014,120118,,*3E
2018-01-11 19:46:31 1515717991.940287: $GPGSA,A,3,7,8,9,16,23,27,,,,,,,4.0,0.8,3.5*0D
2018-01-11 19:46:32 1515717992.390754: $GPZDA,004633.00,12,01,2018,00,00*6D
2018-01-11 19:46:32 1515717992.390901: $GPGGA,004633,3946.9568,N,08404.9818,W,1,06,0.80,298.64,M,-33.324,M,,*7F
2018-01-11 19:46:32 1515717992.390966: $GPRMC,004633,A,3946.9568,N,08404.9818,W,0.0000,0.000,120118,,*3C
2018-01-11 19:46:32 1515717992.391025: $GPGSA,A,3,7,8,9,16,23,27,,,,,,,4.0,0.8,3.5*0D
2018-01-11 19:46:33 1515717993.677244: $GPGSV,3,1,12,07,45,310,09,08,64,156,09,09,54,246,09,16,31,054,09*78
2018-01-11 19:46:33 1515717993.681606: $GPGSV,3,2,12,23,40,193,09,27,55,066,10,11,11,171,06,26,06,066,04*7F
2018-01-11 19:46:33 1515717993.681720: $GPGSV,3,3,12,28,06,250,05,30,20,301,06,21,01,030,00,138,38,213,11*41
2018-01-11 19:46:33 1515717993.790674: $GPZDA,004634.00,12,01,2018,00,00*6A
2018-01-11 19:46:33 1515717993.790838: $GPGGA,004634,3946.9568,N,08404.9818,W,1,11,0.80,298.64,M,-33.324,M,,*7E
2018-01-11 19:46:33 1515717993.790903: $GPRMC,004634,A,3946.9568,N,08404.9818,W,0.3423,184.197,120118,,*3F
2018-01-11 19:46:33 1515717993.790984: $GPGSA,A,3,7,8,9,16,23,27,11,26,28,30,138,,4.0,0.8,3.5*3A
2018-01-11 19:46:34 1515717994.342790: $GPZDA,004635.00,12,01,2018,00,00*6B
2018-01-11 19:46:34 1515717994.342965: $GPGGA,004635,3946.9564,N,08404.9818,W,1,11,0.80,298.00,M,-33.324,M,,*71
2018-01-11 19:46:34 1515717994.343032: $GPRMC,004635,A,3946.9564,N,08404.9818,W,0.2422,93.794,120118,,*00
2018-01-11 19:46:34 1515717994.343111: $GPGSA,A,3,7,8,9,16,23,27,11,26,28,30,138,,4.0,0.8,3.5*3A
2018-01-11 19:46:35 1515717995.344829: $GPZDA,004636.00,12,01,2018,00,00*68
2018-01-11 19:46:35 1515717995.345083: $GPGGA,004636,3946.9564,N,08404.9818,W,1,11,0.80,298.00,M,-33.324,M,,*72
2018-01-11 19:46:35 1515717995.345154: $GPRMC,004636,A,3946.9564,N,08404.9818,W,0.2422,93.794,120118,,*03
2018-01-11 19:46:35 1515717995.345215: $GPGSA,A,3,7,8,9,16,23,27,11,26,28,30,138,,4.0,0.8,3.5*3A
2018-01-11 19:46:35 1515717995.345272: $GPGBS,004636,14.62,M,24.83,M,80.38,M*06
2018-01-11 19:46:36 1515717996.681768: $GPGSV,3,1,12,07,45,310,43,08,64,156,45,09,54,246,44,16,31,054,47*7D
2018-01-11 19:46:36 1515717996.681944: $GPGSV,3,2,12,23,40,193,48,27,55,066,50,11,11,171,29,26,06,066,20*75
2018-01-11 19:46:36 1515717996.682012: $GPGSV,3,3,12,28,06,250,28,30,20,301,27,21,01,030,00,138,38,213,45*4C
2018-01-11 19:46:36 1515717996.795134: $GPZDA,004637.00,12,01,2018,00,00*69
2018-01-11 19:46:36 1515717996.795302: $GPGGA,004637,3946.9568,N,08404.9818,W,1,11,0.80,297.24,M,-33.324,M,,*76
2018-01-11 19:46:36 1515717996.795368: $GPRMC,004637,A,3946.9568,N,08404.9818,W,0.0000,0.000,120118,,*38
2018-01-11 19:46:36 1515717996.795427: $GPGSA,A,3,7,8,9,16,23,27,11,26,28,30,138,,4.0,0.8,3.5*3A
2018-01-11 19:46:37 1515717997.347265: $GPZDA,004638.00,12,01,2018,00,00*66
2018-01-11 19:46:37 1515717997.347422: $GPGGA,004638,3946.9568,N,08404.9818,W,1,11,0.80,297.24,M,-33.324,M,,*79
2018-01-11 19:46:37 1515717997.347487: $GPRMC,004638,A,3946.9568,N,08404.9818,W,0.0000,0.000,120118,,*37
2018-01-11 19:46:37 1515717997.347548: $GPGSA,A,3,7,8,9,16,23,27,11,26,28,30,138,,4.0,0.8,3.5*3A
