2017-11-16 14:18:55 1510859935.725770: {"class":"VERSION","release":"3.17","rev":"3.17","proto_major":3,"proto_minor":12}
2017-11-16 14:18:55 1510859935.726248: {"class":"DEVICES","devices":[{"class":"DEVICE","path":"/dev/ttyUSB0","driver":"SiRF","subtype":"9\u0006GSD4e_4.1.2-P1_RPATCH.05-F-GPS-4R-1510281 11/03/2015 307","activated":"2017-11-16T19:18:55.645Z","flags":1,"native":1,"bps":4800,"parity":"N","stopbits":1,"cycle":1.00}]}
2017-11-16 14:18:55 1510859935.726369: {"class":"WATCH","enable":true,"json":false,"nmea":true,"raw":0,"scaled":false,"timing":false,"split24":false,"pps":false}
2017-11-16 14:18:56 1510859936.535621: $GPZDA,191855.00,16,11,2017,00,00*64
2017-11-16 14:18:56 1510859936.535789: $GPGGA,191855,3946.9562,N,08404.9851,W,2,12,0.80,304.83,M,-33.324,M,,*70
2017-11-16 14:18:56 1510859936.535849: $GPRMC,191855,A,3946.9562,N,08404.9851,W,0.0000,0.000,161117,,*32
2017-11-16 14:18:56 1510859936.535907: $GPGSA,A,3,8,10,13,15,18,21,20,24,27,32,14,138,1.6,0.8,1.3*35
2017-11-16 14:18:57 1510859937.871352: $GPGSV,3,1,12,08,07,319,26,10,43,303,46,13,06,049,24,15,35,052,50*73
2017-11-16 14:18:57 1510859937.945307: $GPGSV,3,2,12,18,72,342,46,21,61,189,47,20,31,097,45,24,52,106,49*73
2017-11-16 14:18:57 1510859937.945414: $GPGSV,3,3,12,27,19,286,35,32,22,240,45,14,06,234,29,138,38,213,45*46
2017-11-16 14:18:57 1510859937.984686: $GPZDA,191856.00,16,11,2017,00,00*67
2017-11-16 14:18:57 1510859937.984832: $GPGGA,191856,3946.9562,N,08404.9851,W,2,12,0.80,304.83,M,-33.324,M,,*73
2017-11-16 14:18:57 1510859937.984893: $GPRMC,191856,A,3946.9562,N,08404.9851,W,0.0000,0.000,161117,,*31
2017-11-16 14:18:57 1510859937.984948: $GPGSA,A,3,8,10,13,15,18,21,20,24,27,32,14,138,1.6,0.8,1.3*35
2017-11-16 14:18:58 1510859938.534279: $GPZDA,191857.00,16,11,2017,00,00*66
2017-11-16 14:18:58 1510859938.534439: $GPGGA,191857,3946.9562,N,08404.9851,W,2,12,0.80,304.83,M,-33.324,M,,*72
2017-11-16 14:18:58 1510859938.534503: $GPRMC,191857,A,3946.9562,N,08404.9851,W,0.0000,0.000,161117,,*30
2017-11-16 14:18:58 1510859938.534559: $GPGSA,A,3,8,10,13,15,18,21,20,24,27,32,14,138,1.6,0.8,1.3*35
2017-11-16 14:18:59 1510859939.503726: $GPZDA,191858.00,16,11,2017,00,00*69
2017-11-16 14:18:59 1510859939.503885: $GPGGA,191858,3946.9562,N,08404.9851,W,2,12,0.80,304.83,M,-33.324,M,,*7D
2017-11-16 14:18:59 1510859939.503948: $GPRMC,191858,A,3946.9562,N,08404.9851,W,0.0000,0.000,161117,,*3F
2017-11-16 14:18:59 1510859939.504004: $GPGSA,A,3,8,10,13,15,18,21,20,24,27,32,14,138,1.6,0.8,1.3*35
2017-11-16 14:19:00 1510859940.866693: $GPGSV,3,1,12,08,07,319,36,10,43,303,45,13,06,049,18,15,35,052,50*7E
2017-11-16 14:19:00 1510859940.866850: $GPGSV,3,2,12,18,72,342,46,21,61,189,46,20,31,097,45,24,52,106,50*7A
2017-11-16 14:19:00 1510859940.866910: $GPGSV,3,3,12,27,19,286,36,32,22,240,45,14,06,234,30,138,38,213,44*4C
2017-11-16 14:19:00 1510859940.980504: $GPZDA,191859.00,16,11,2017,00,00*68
2017-11-16 14:19:00 1510859940.980671: $GPGGA,191859,3946.9562,N,08404.9851,W,2,12,0.80,304.83,M,-33.324,M,,*7C
2017-11-16 14:19:00 1510859940.980733: $GPRMC,191859,A,3946.9562,N,08404.9851,W,0.0000,0.000,161117,,*3E
2017-11-16 14:19:00 1510859940.980791: $GPGSA,A,3,8,10,13,15,18,21,20,24,27,32,14,138,1.6,0.8,1.3*35
2017-11-16 14:19:01 1510859941.529562: $GPZDA,191900.00,16,11,2017,00,00*65
2017-11-16 14:19:01 1510859941.529725: $GPGGA,191900,3946.9562,N,08404.9851,W,2,12,0.80,304.83,M,-33.324,M,,*71
2017-11-16 14:19:01 1510859941.529786: $GPRMC,191900,A,3946.9562,N,08404.9851,W,0.0000,0.000,161117,,*33
2017-11-16 14:19:01 1510859941.529842: $GPGSA,A,3,8,10,13,15,18,21,20,24,27,32,14,138,1.6,0.8,1.3*35
2017-11-16 14:19:02 1510859942.504142: $GPZDA,191901.00,16,11,2017,00,00*64
2017-11-16 14:19:02 1510859942.504313: $GPGGA,191901,3946.9562,N,08404.9851,W,2,12,0.80,304.83,M,-33.324,M,,*70
2017-11-16 14:19:02 1510859942.504378: $GPRMC,191901,A,3946.9562,N,08404.9851,W,0.0000,0.000,161117,,*32
2017-11-16 14:19:02 1510859942.504434: $GPGSA,A,3,8,10,13,15,18,21,20,24,27,32,14,138,1.6,0.8,1.3*35
2017-11-16 14:19:03 1510859943.839901: $GPGSV,3,1,12,08,07,319,38,10,43,303,45,13,06,049,19,15,35,052,51*70
2017-11-16 14:19:03 1510859943.840119: $GPGSV,3,2,12,18,72,342,46,21,61,189,46,20,31,097,45,24,52,106,49*72
2017-11-16 14:19:03 1510859943.840184: $GPGSV,3,3,12,27,19,286,36,32,22,240,45,14,06,234,31,138,38,213,44*4D
2017-11-16 14:19:03 1510859943.952451: $GPZDA,191902.00,16,11,2017,00,00*67
2017-11-16 14:19:03 1510859943.952640: $GPGGA,191902,3946.9562,N,08404.9851,W,2,12,0.80,304.83,M,-33.324,M,,*73
2017-11-16 14:19:03 1510859943.952702: $GPRMC,191902,A,3946.9562,N,08404.9851,W,0.0000,0.000,161117,,*31
2017-11-16 14:19:03 1510859943.952759: $GPGSA,A,3,8,10,13,15,18,21,20,24,27,32,14,138,1.6,0.8,1.3*35
2017-11-16 14:19:04 1510859944.578728: $GPZDA,191903.00,16,11,2017,00,00*66
2017-11-16 14:19:04 1510859944.578938: $GPGGA,191903,3946.9562,N,08404.9851,W,2,12,0.80,304.83,M,-33.324,M,,*72
2017-11-16 14:19:04 1510859944.579003: $GPRMC,191903,A,3946.9562,N,08404.9851,W,0.0000,0.000,161117,,*30
2017-11-16 14:19:04 1510859944.579060: $GPGSA,A,3,8,10,13,15,18,21,20,24,27,32,14,138,1.6,0.8,1.3*35
2017-11-16 14:19:05 1510859945.505558: $GPZDA,191904.00,16,11,2017,00,00*61
2017-11-16 14:19:05 1510859945.505760: $GPGGA,191904,3946.9562,N,08404.9851,W,2,12,0.80,304.83,M,-33.324,M,,*75
2017-11-16 14:19:05 1510859945.505829: $GPRMC,191904,A,3946.9562,N,08404.9851,W,0.0000,0.000,161117,,*37
2017-11-16 14:19:05 1510859945.505890: $GPGSA,A,3,8,10,13,15,18,21,20,24,27,32,14,138,1.6,0.8,1.3*35
2017-11-16 14:19:06 1510859946.871399: $GPGSV,3,1,12,08,07,319,39,10,43,303,45,13,06,049,24,15,35,052,51*7F
2017-11-16 14:19:06 1510859946.871563: $GPGSV,3,2,12,18,72,342,46,21,61,189,46,20,31,097,45,24,52,106,49*72
2017-11-16 14:19:06 1510859946.871626: $GPGSV,3,3,12,27,19,286,37,32,22,240,45,14,06,234,31,138,38,213,44*4C
2017-11-16 14:19:06 1510859946.984696: $GPZDA,191905.00,16,11,2017,00,00*60
2017-11-16 14:19:06 1510859946.984861: $GPGGA,191905,3946.9562,N,08404.9851,W,2,12,0.80,304.83,M,-33.324,M,,*74
2017-11-16 14:19:06 1510859946.984926: $GPRMC,191905,A,3946.9562,N,08404.9851,W,0.0000,0.000,161117,,*36
2017-11-16 14:19:06 1510859946.984984: $GPGSA,A,3,8,10,13,15,18,21,20,24,27,32,14,138,1.6,0.8,1.3*35
2017-11-16 14:19:07 1510859947.503055: $GPZDA,191906.00,16,11,2017,00,00*63
2017-11-16 14:19:07 1510859947.503218: $GPGGA,191906,3946.9562,N,08404.9851,W,2,12,0.80,304.83,M,-33.324,M,,*77
2017-11-16 14:19:07 1510859947.503285: $GPRMC,191906,A,3946.9562,N,08404.9851,W,0.0000,0.000,161117,,*35
2017-11-16 14:19:07 1510859947.503344: $GPGSA,A,3,8,10,13,15,18,21,20,24,27,32,14,138,1.6,0.8,1.3*35
2017-11-16 14:19:08 1510859948.528979: $GPZDA,191907.00,16,11,2017,00,00*62
2017-11-16 14:19:08 1510859948.529147: $GPGGA,191907,3946.9562,N,08404.9851,W,2,12,0.80,304.83,M,-33.324,M,,*76
2017-11-16 14:19:08 1510859948.529214: $GPRMC,191907,A,3946.9562,N,08404.9851,W,0.0000,0.000,161117,,*34
2017-11-16 14:19:08 1510859948.529276: $GPGSA,A,3,8,10,13,15,18,21,20,24,27,32,14,138,1.6,0.8,1.3*35
2017-11-16 14:19:09 1510859949.839212: $GPGSV,3,1,12,08,07,319,40,10,43,303,44,13,06,049,24,15,35,052,51*70
2017-11-16 14:19:09 1510859949.839390: $GPGSV,3,2,12,18,72,342,46,21,61,189,46,20,31,097,45,24,52,106,49*72
2017-11-16 14:19:09 1510859949.839454: $GPGSV,3,3,12,27,19,286,37,32,22,240,45,14,06,234,32,138,38,213,44*4F
2017-11-16 14:19:09 1510859949.952491: $GPZDA,191908.00,16,11,2017,00,00*6D
2017-11-16 14:19:09 1510859949.952656: $GPGGA,191908,3946.9562,N,08404.9851,W,2,12,0.80,304.83,M,-33.324,M,,*79
2017-11-16 14:19:09 1510859949.952721: $GPRMC,191908,A,3946.9562,N,08404.9851,W,0.0000,0.000,161117,,*3B
2017-11-16 14:19:09 1510859949.952780: $GPGSA,A,3,8,10,13,15,18,21,20,24,27,32,14,138,1.6,0.8,1.3*35
2017-11-16 14:19:10 1510859950.534784: $GPZDA,191909.00,16,11,2017,00,00*6C
2017-11-16 14:19:10 1510859950.534971: $GPGGA,191909,3946.9562,N,08404.9851,W,2,12,0.80,304.83,M,-33.324,M,,*78
2017-11-16 14:19:10 1510859950.535039: $GPRMC,191909,A,3946.9562,N,08404.9851,W,0.0000,0.000,161117,,*3A
2017-11-16 14:19:10 1510859950.535104: $GPGSA,A,3,8,10,13,15,18,21,20,24,27,32,14,138,1.6,0.8,1.3*35
