2017-12-01 13:54:40 1512154480.126996: {"class":"VERSION","release":"3.16","rev":"3.16-4","proto_major":3,"proto_minor":11}
2017-12-01 13:54:40 1512154480.127392: {"class":"DEVICES","devices":[{"class":"DEVICE","path":"/dev/ttyUSB0","driver":"SiRF","subtype":"9\u0006GSD4e_4.1.2-P1_RPATCH.05-F-GPS-4R-1510281 11/03/2015 307","activated":"2017-12-01T18:54:40.014Z","flags":1,"native":1,"bps":4800,"parity":"N","stopbits":1,"cycle":1.00}]}
2017-12-01 13:54:40 1512154480.127512: {"class":"WATCH","enable":true,"json":false,"nmea":true,"raw":0,"scaled":false,"timing":false,"split24":false,"pps":false}
2017-12-01 13:54:40 1512154480.425348: $GPZDA,185441.00,01,12,2017,00,00*6D
2017-12-01 13:54:40 1512154480.425518: $GPGGA,185441,3946.9566,N,08404.9833,W,2,12,0.80,299.25,M,-33.324,M,,*75
2017-12-01 13:54:40 1512154480.425584: $GPRMC,185441,A,3946.9566,N,08404.9833,W,0.0000,0.000,011217,,*3B
2017-12-01 13:54:40 1512154480.425646: $GPGSA,A,3,10,14,15,18,20,21,24,27,32,8,12,138,2.0,0.8,1.5*37
2017-12-01 13:54:41 1512154481.401251: $GPZDA,185442.00,01,12,2017,00,00*6E
2017-12-01 13:54:41 1512154481.401479: $GPGGA,185442,3946.9566,N,08404.9833,W,2,12,0.80,299.25,M,-33.324,M,,*76
2017-12-01 13:54:41 1512154481.401550: $GPRMC,185442,A,3946.9566,N,08404.9833,W,0.0000,0.000,011217,,*38
2017-12-01 13:54:41 1512154481.401611: $GPGSA,A,3,10,14,15,18,20,21,24,27,32,8,12,138,2.0,0.8,1.5*37
2017-12-01 13:54:42 1512154482.737382: $GPGSV,3,1,12,10,57,316,48,14,19,243,39,15,21,060,44,18,77,048,43*72
2017-12-01 13:54:42 1512154482.737537: $GPGSV,3,2,12,20,19,109,44,21,43,181,46,24,52,076,49,27,13,271,34*7E
2017-12-01 13:54:42 1512154482.737601: $GPGSV,3,3,12,32,36,252,42,08,08,306,22,12,01,117,17,138,38,213,46*48
2017-12-01 13:54:42 1512154482.850784: $GPZDA,185443.00,01,12,2017,00,00*6F
2017-12-01 13:54:42 1512154482.850954: $GPGGA,185443,3946.9566,N,08404.9833,W,2,12,0.80,299.25,M,-33.324,M,,*77
2017-12-01 13:54:42 1512154482.851020: $GPRMC,185443,A,3946.9566,N,08404.9833,W,0.0000,0.000,011217,,*39
2017-12-01 13:54:42 1512154482.851080: $GPGSA,A,3,10,14,15,18,20,21,24,27,32,8,12,138,2.0,0.8,1.5*37
2017-12-01 13:54:43 1512154483.392881: $GPZDA,185444.00,01,12,2017,00,00*68
2017-12-01 13:54:43 1512154483.393066: $GPGGA,185444,3946.9566,N,08404.9833,W,2,12,0.80,299.25,M,-33.324,M,,*70
2017-12-01 13:54:43 1512154483.393134: $GPRMC,185444,A,3946.9566,N,08404.9833,W,0.0000,0.000,011217,,*3E
2017-12-01 13:54:43 1512154483.393195: $GPGSA,A,3,10,14,15,18,20,21,24,27,32,8,12,138,2.0,0.8,1.5*37
2017-12-01 13:54:44 1512154484.392868: $GPZDA,185445.00,01,12,2017,00,00*69
2017-12-01 13:54:44 1512154484.393043: $GPGGA,185445,3946.9569,N,08404.9832,W,2,12,0.80,298.48,M,-33.324,M,,*75
2017-12-01 13:54:44 1512154484.393110: $GPRMC,185445,A,3946.9569,N,08404.9832,W,0.0000,0.000,011217,,*31
2017-12-01 13:54:44 1512154484.393171: $GPGSA,A,3,10,14,15,18,20,21,24,27,32,8,12,138,2.0,0.8,1.5*37
2017-12-01 13:54:45 1512154485.735744: $GPGSV,3,1,12,10,57,316,48,14,19,243,38,15,21,060,44,18,77,048,43*73
2017-12-01 13:54:45 1512154485.735928: $GPGSV,3,2,12,20,19,109,45,21,43,181,46,24,52,076,49,27,13,271,33*78
2017-12-01 13:54:45 1512154485.735995: $GPGSV,3,3,12,32,36,252,42,08,08,306,22,12,01,117,18,138,38,213,47*46
2017-12-01 13:54:45 1512154485.849175: $GPZDA,185446.00,01,12,2017,00,00*6A
2017-12-01 13:54:45 1512154485.849329: $GPGGA,185446,3946.9569,N,08404.9832,W,2,12,0.80,298.48,M,-33.324,M,,*76
2017-12-01 13:54:45 1512154485.849394: $GPRMC,185446,A,3946.9569,N,08404.9832,W,0.0000,0.000,011217,,*32
2017-12-01 13:54:45 1512154485.849454: $GPGSA,A,3,10,14,15,18,20,21,24,27,32,8,12,138,2.0,0.8,1.5*37
2017-12-01 13:54:46 1512154486.400222: $GPZDA,185447.00,01,12,2017,00,00*6B
2017-12-01 13:54:46 1512154486.400390: $GPGGA,185447,3946.9569,N,08404.9832,W,2,12,0.80,298.48,M,-33.324,M,,*77
2017-12-01 13:54:46 1512154486.400457: $GPRMC,185447,A,3946.9569,N,08404.9832,W,0.0000,0.000,011217,,*33
2017-12-01 13:54:46 1512154486.400518: $GPGSA,A,3,10,14,15,18,20,21,24,27,32,8,12,138,2.0,0.8,1.5*37
2017-12-01 13:54:47 1512154487.399670: $GPZDA,185448.00,01,12,2017,00,00*64
2017-12-01 13:54:47 1512154487.399948: $GPGGA,185448,3946.9569,N,08404.9832,W,2,12,0.80,298.48,M,-33.324,M,,*78
2017-12-01 13:54:47 1512154487.400041: $GPRMC,185448,A,3946.9569,N,08404.9832,W,0.0000,0.000,011217,,*3C
2017-12-01 13:54:47 1512154487.400104: $GPGSA,A,3,10,14,15,18,20,21,24,27,32,8,12,138,2.0,0.8,1.5*37
2017-12-01 13:54:48 1512154488.735076: $GPGSV,3,1,12,10,57,316,48,14,19,243,38,15,21,060,44,18,77,048,43*73
2017-12-01 13:54:48 1512154488.735400: $GPGSV,3,2,12,20,19,109,45,21,43,181,46,24,52,076,49,27,13,271,34*7F
2017-12-01 13:54:48 1512154488.735544: $GPGSV,3,3,12,32,36,252,42,08,08,306,21,12,01,117,18,138,38,213,46*44
2017-12-01 13:54:48 1512154488.848589: $GPZDA,185449.00,01,12,2017,00,00*65
2017-12-01 13:54:48 1512154488.848756: $GPGGA,185449,3946.9569,N,08404.9832,W,2,12,0.80,298.48,M,-33.324,M,,*79
2017-12-01 13:54:48 1512154488.848823: $GPRMC,185449,A,3946.9569,N,08404.9832,W,0.0000,0.000,011217,,*3D
2017-12-01 13:54:48 1512154488.848910: $GPGSA,A,3,10,14,15,18,20,21,24,27,32,8,12,138,2.0,0.8,1.5*37
2017-12-01 13:54:49 1512154489.399462: $GPZDA,185450.00,01,12,2017,00,00*6D
2017-12-01 13:54:49 1512154489.399636: $GPGGA,185450,3946.9569,N,08404.9839,W,2,12,0.80,298.41,M,-33.324,M,,*73
2017-12-01 13:54:49 1512154489.399702: $GPRMC,185450,A,3946.9569,N,08404.9839,W,0.0000,0.000,011217,,*3E
2017-12-01 13:54:49 1512154489.399763: $GPGSA,A,3,10,14,15,18,20,21,24,27,32,8,12,138,2.0,0.8,1.5*37
2017-12-01 13:54:50 1512154490.400156: $GPZDA,185451.00,01,12,2017,00,00*6C
2017-12-01 13:54:50 1512154490.400329: $GPGGA,185451,3946.9569,N,08404.9839,W,2,12,0.80,298.41,M,-33.324,M,,*72
2017-12-01 13:54:50 1512154490.400396: $GPRMC,185451,A,3946.9569,N,08404.9839,W,0.0000,0.000,011217,,*3F
2017-12-01 13:54:50 1512154490.400457: $GPGSA,A,3,10,14,15,18,20,21,24,27,32,8,12,138,2.0,0.8,1.5*37
2017-12-01 13:54:51 1512154491.734588: $GPGSV,3,1,12,10,57,316,48,14,19,243,38,15,21,060,44,18,77,048,43*73
2017-12-01 13:54:51 1512154491.734771: $GPGSV,3,2,12,20,19,109,45,21,43,181,46,24,52,076,49,27,13,271,34*7F
2017-12-01 13:54:51 1512154491.734839: $GPGSV,3,3,12,32,36,252,41,08,08,306,22,12,01,117,17,138,38,213,47*4A
2017-12-01 13:54:51 1512154491.847920: $GPZDA,185452.00,01,12,2017,00,00*6F
2017-12-01 13:54:51 1512154491.848065: $GPGGA,185452,3946.9569,N,08404.9839,W,2,12,0.80,298.41,M,-33.324,M,,*71
2017-12-01 13:54:51 1512154491.848134: $GPRMC,185452,A,3946.9569,N,08404.9839,W,0.0000,0.000,011217,,*3C
2017-12-01 13:54:51 1512154491.848194: $GPGSA,A,3,10,14,15,18,20,21,24,27,32,8,12,138,2.0,0.8,1.5*37
2017-12-01 13:54:52 1512154492.473581: $GPZDA,185453.00,01,12,2017,00,00*6E
2017-12-01 13:54:52 1512154492.473751: $GPGGA,185453,3946.9569,N,08404.9839,W,2,12,0.80,298.41,M,-33.324,M,,*70
2017-12-01 13:54:52 1512154492.473819: $GPRMC,185453,A,3946.9569,N,08404.9839,W,0.0000,0.000,011217,,*3D
2017-12-01 13:54:52 1512154492.473907: $GPGSA,A,3,10,14,15,18,20,21,24,27,32,8,12,138,2.0,0.8,1.5*37
2017-12-01 13:54:53 1512154493.400466: $GPZDA,185454.00,01,12,2017,00,00*69
2017-12-01 13:54:53 1512154493.400660: $GPGGA,185454,3946.9569,N,08404.9839,W,2,12,0.80,298.41,M,-33.324,M,,*77
2017-12-01 13:54:53 1512154493.400728: $GPRMC,185454,A,3946.9569,N,08404.9839,W,0.0000,0.000,011217,,*3A
2017-12-01 13:54:53 1512154493.400789: $GPGSA,A,3,10,14,15,18,20,21,24,27,32,8,12,138,2.0,0.8,1.5*37
2017-12-01 13:54:54 1512154494.731258: $GPGSV,3,1,12,10,57,316,48,14,19,243,38,15,21,060,44,18,77,048,43*73
2017-12-01 13:54:54 1512154494.731497: $GPGSV,3,2,12,20,19,109,45,21,43,181,46,24,52,076,49,27,13,271,37*7C
2017-12-01 13:54:54 1512154494.731567: $GPGSV,3,3,12,32,36,252,42,08,08,306,28,12,01,117,17,138,38,213,46*42
2017-12-01 13:54:54 1512154494.844597: $GPZDA,185455.00,01,12,2017,00,00*68
2017-12-01 13:54:54 1512154494.844775: $GPGGA,185455,3946.9569,N,08404.9839,W,2,12,0.80,298.41,M,-33.324,M,,*76
2017-12-01 13:54:54 1512154494.844866: $GPRMC,185455,A,3946.9569,N,08404.9839,W,0.0000,0.000,011217,,*3B
2017-12-01 13:54:54 1512154494.844930: $GPGSA,A,3,10,14,15,18,20,21,24,27,32,8,12,138,2.0,0.8,1.5*37
