2017-12-01 18:08:20 1512169700.137311: {"class":"VERSION","release":"3.16","rev":"3.16-4","proto_major":3,"proto_minor":11}
2017-12-01 18:08:20 1512169700.137674: {"class":"DEVICES","devices":[{"class":"DEVICE","path":"/dev/ttyUSB0","driver":"SiRF","subtype":"9\u0006GSD4e_4.1.2-P1_RPATCH.05-F-GPS-4R-1510281 11/03/2015 307","activated":"2017-12-01T23:08:19.699Z","flags":1,"native":1,"bps":4800,"parity":"N","stopbits":1,"cycle":1.00}]}
2017-12-01 18:08:20 1512169700.137786: {"class":"WATCH","enable":true,"json":false,"nmea":true,"raw":0,"scaled":false,"timing":false,"split24":false,"pps":false}
2017-12-01 18:08:20 1512169700.383317: $GPZDA,230821.00,01,12,2017,00,00*6A
2017-12-01 18:08:20 1512169700.383490: $GPGGA,230821,3946.9725,N,08404.9848,W,2,12,0.80,299.89,M,-33.325,M,,*7C
2017-12-01 18:08:20 1512169700.383557: $GPRMC,230821,A,3946.9725,N,08404.9848,W,0.0000,0.000,011217,,*35
2017-12-01 18:08:20 1512169700.383618: $GPGSA,A,3,3,14,16,22,23,25,26,31,32,1,10,138,2.0,0.8,1.5*06
2017-12-01 18:08:21 1512169701.718861: $GPGSV,3,1,12,03,36,306,46,14,60,081,44,16,16,189,42,22,49,282,46*72
2017-12-01 18:08:23 1512169703.021150: $GPGSV,3,2,12,23,06,297,42,25,23,043,43,26,46,174,46,31,72,012,47*71
2017-12-01 18:08:23 1512169703.021297: $GPGSV,3,3,12,32,41,102,44,01,10,258,27,10,04,159,26,138,38,213,46*48
2017-12-01 18:08:23 1512169703.021489: $GPZDA,230822.00,01,12,2017,00,00*69
2017-12-01 18:08:23 1512169703.021552: $GPGGA,230822,3946.9720,N,08404.9848,W,2,12,0.80,299.25,M,-33.325,M,,*7C
2017-12-01 18:08:23 1512169703.021615: $GPRMC,230822,A,3946.9720,N,08404.9848,W,0.0000,0.000,011217,,*33
2017-12-01 18:08:23 1512169703.021675: $GPGSA,A,3,3,14,16,22,23,25,26,31,32,1,10,138,2.0,0.8,1.5*06
2017-12-01 18:08:23 1512169703.021761: $GPZDA,230823.00,01,12,2017,00,00*68
2017-12-01 18:08:23 1512169703.021819: $GPGGA,230823,3946.9720,N,08404.9848,W,2,12,0.80,299.25,M,-33.325,M,,*7D
2017-12-01 18:08:23 1512169703.021908: $GPRMC,230823,A,3946.9720,N,08404.9848,W,0.0000,0.000,011217,,*32
2017-12-01 18:08:23 1512169703.021969: $GPGSA,A,3,3,14,16,22,23,25,26,31,32,1,10,138,2.0,0.8,1.5*06
2017-12-01 18:08:23 1512169703.387718: $GPZDA,230824.00,01,12,2017,00,00*6F
2017-12-01 18:08:23 1512169703.387934: $GPGGA,230824,3946.9720,N,08404.9848,W,2,12,0.60,299.25,M,-33.325,M,,*74
2017-12-01 18:08:23 1512169703.388004: $GPRMC,230824,A,3946.9720,N,08404.9848,W,0.0000,0.000,011217,,*35
2017-12-01 18:08:23 1512169703.388067: $GPGSA,A,3,3,14,16,22,23,25,26,31,32,1,10,138,2.0,0.6,1.5*08
2017-12-01 18:08:24 1512169704.719803: $GPGSV,3,1,12,03,36,306,46,14,60,081,43,16,16,189,41,22,49,282,46*76
2017-12-01 18:08:24 1512169704.720003: $GPGSV,3,2,12,23,06,297,42,25,23,043,43,26,46,174,45,31,72,012,47*72
2017-12-01 18:08:24 1512169704.720071: $GPGSV,3,3,12,32,41,102,44,01,10,258,27,29,08,078,22,138,38,213,46*48
2017-12-01 18:08:24 1512169704.833524: $GPZDA,230825.00,01,12,2017,00,00*6E
2017-12-01 18:08:24 1512169704.833693: $GPGGA,230825,3946.9720,N,08404.9848,W,2,12,0.60,299.25,M,-33.325,M,,*75
2017-12-01 18:08:24 1512169704.833781: $GPRMC,230825,A,3946.9720,N,08404.9848,W,0.0000,0.000,011217,,*34
2017-12-01 18:08:24 1512169704.833843: $GPGSA,A,3,3,14,16,22,23,25,26,31,32,1,29,138,2.0,0.6,1.5*02
2017-12-01 18:08:25 1512169705.458694: $GPZDA,230826.00,01,12,2017,00,00*6D
2017-12-01 18:08:25 1512169705.458914: $GPGGA,230826,3946.9720,N,08404.9848,W,2,12,0.60,299.25,M,-33.325,M,,*76
2017-12-01 18:08:25 1512169705.458983: $GPRMC,230826,A,3946.9720,N,08404.9848,W,0.0000,0.000,011217,,*37
2017-12-01 18:08:25 1512169705.459045: $GPGSA,A,3,3,14,16,22,23,25,26,31,32,1,29,138,2.0,0.6,1.5*02
2017-12-01 18:08:26 1512169706.383087: $GPZDA,230827.00,01,12,2017,00,00*6C
2017-12-01 18:08:26 1512169706.383263: $GPGGA,230827,3946.9720,N,08404.9848,W,2,12,0.60,299.25,M,-33.325,M,,*77
2017-12-01 18:08:26 1512169706.383331: $GPRMC,230827,A,3946.9720,N,08404.9848,W,0.0000,0.000,011217,,*36
2017-12-01 18:08:26 1512169706.383392: $GPGSA,A,3,3,14,16,22,23,25,26,31,32,1,29,138,2.0,0.6,1.5*02
2017-12-01 18:08:27 1512169707.721287: $GPGSV,3,1,12,03,36,306,47,14,60,081,43,16,16,189,42,22,49,282,47*75
2017-12-01 18:08:27 1512169707.721559: $GPGSV,3,2,12,23,06,297,42,25,23,043,43,26,46,174,46,31,72,012,46*70
2017-12-01 18:08:27 1512169707.721629: $GPGSV,3,3,12,32,41,102,43,01,10,258,27,29,08,078,23,138,38,213,46*4E
2017-12-01 18:08:27 1512169707.834623: $GPZDA,230828.00,01,12,2017,00,00*63
2017-12-01 18:08:27 1512169707.834795: $GPGGA,230828,3946.9720,N,08404.9848,W,2,12,0.60,299.25,M,-33.325,M,,*78
2017-12-01 18:08:27 1512169707.834881: $GPRMC,230828,A,3946.9720,N,08404.9848,W,0.0000,0.000,011217,,*39
2017-12-01 18:08:27 1512169707.834943: $GPGSA,A,3,3,14,16,22,23,25,26,31,32,1,29,138,2.0,0.6,1.5*02
2017-12-01 18:08:28 1512169708.388459: $GPZDA,230829.00,01,12,2017,00,00*62
2017-12-01 18:08:28 1512169708.388630: $GPGGA,230829,3946.9720,N,08404.9848,W,2,12,0.60,299.25,M,-33.325,M,,*79
2017-12-01 18:08:28 1512169708.388721: $GPRMC,230829,A,3946.9720,N,08404.9848,W,0.0000,0.000,011217,,*38
2017-12-01 18:08:28 1512169708.388784: $GPGSA,A,3,3,14,16,22,23,25,26,31,32,1,29,138,2.0,0.6,1.5*02
2017-12-01 18:08:29 1512169709.383153: $GPZDA,230830.00,01,12,2017,00,00*6A
2017-12-01 18:08:29 1512169709.383321: $GPGGA,230830,3946.9720,N,08404.9848,W,2,12,0.60,299.25,M,-33.325,M,,*71
2017-12-01 18:08:29 1512169709.383390: $GPRMC,230830,A,3946.9720,N,08404.9848,W,0.0000,0.000,011217,,*30
2017-12-01 18:08:29 1512169709.383451: $GPGSA,A,3,3,14,16,22,23,25,26,31,32,1,29,138,2.0,0.6,1.5*02
2017-12-01 18:08:30 1512169710.716609: $GPGSV,3,1,12,03,36,306,47,14,60,081,43,16,16,189,41,22,49,282,47*76
2017-12-01 18:08:30 1512169710.716824: $GPGSV,3,2,12,23,06,297,42,25,23,043,43,26,46,174,46,31,72,012,47*71
2017-12-01 18:08:30 1512169710.716893: $GPGSV,3,3,12,32,41,102,43,01,10,258,26,29,08,078,23,138,38,213,46*4F
2017-12-01 18:08:30 1512169710.830011: $GPZDA,230831.00,01,12,2017,00,00*6B
2017-12-01 18:08:30 1512169710.830185: $GPGGA,230831,3946.9720,N,08404.9848,W,2,12,0.60,299.25,M,-33.325,M,,*70
2017-12-01 18:08:30 1512169710.830254: $GPRMC,230831,A,3946.9720,N,08404.9848,W,0.0000,0.000,011217,,*31
2017-12-01 18:08:30 1512169710.830315: $GPGSA,A,3,3,14,16,22,23,25,26,31,32,1,29,138,2.0,0.6,1.5*02
2017-12-01 18:08:31 1512169711.385864: $GPZDA,230832.00,01,12,2017,00,00*68
2017-12-01 18:08:31 1512169711.386037: $GPGGA,230832,3946.9720,N,08404.9848,W,2,12,0.60,299.25,M,-33.325,M,,*73
2017-12-01 18:08:31 1512169711.386106: $GPRMC,230832,A,3946.9720,N,08404.9848,W,0.0000,0.000,011217,,*32
2017-12-01 18:08:31 1512169711.386166: $GPGSA,A,3,3,14,16,22,23,25,26,31,32,1,29,138,2.0,0.6,1.5*02
2017-12-01 18:08:32 1512169712.384250: $GPZDA,230833.00,01,12,2017,00,00*69
2017-12-01 18:08:32 1512169712.384441: $GPGGA,230833,3946.9720,N,08404.9848,W,2,12,0.60,299.25,M,-33.325,M,,*72
2017-12-01 18:08:32 1512169712.384509: $GPRMC,230833,A,3946.9720,N,08404.9848,W,0.0000,0.000,011217,,*33
2017-12-01 18:08:32 1512169712.384572: $GPGSA,A,3,3,14,16,22,23,25,26,31,32,1,29,138,2.0,0.6,1.5*02
2017-12-01 18:08:33 1512169713.718705: $GPGSV,3,1,12,03,36,306,46,14,60,081,43,16,16,189,42,22,49,282,47*74
2017-12-01 18:08:33 1512169713.718900: $GPGSV,3,2,12,23,06,297,41,25,23,043,43,26,46,174,47,31,72,012,47*73
2017-12-01 18:08:33 1512169713.718967: $GPGSV,3,3,12,32,41,102,43,01,10,258,18,29,08,078,26,138,38,213,46*47
2017-12-01 18:08:33 1512169713.832072: $GPZDA,230834.00,01,12,2017,00,00*6E
2017-12-01 18:08:33 1512169713.832222: $GPGGA,230834,3946.9720,N,08404.9848,W,2,12,0.60,299.25,M,-33.325,M,,*75
2017-12-01 18:08:33 1512169713.832290: $GPRMC,230834,A,3946.9720,N,08404.9848,W,0.0000,0.000,011217,,*34
2017-12-01 18:08:33 1512169713.832352: $GPGSA,A,3,3,14,16,22,23,25,26,31,32,1,29,138,2.0,0.6,1.5*02
2017-12-01 18:08:34 1512169714.382952: $GPZDA,230835.00,01,12,2017,00,00*6F
2017-12-01 18:08:34 1512169714.383130: $GPGGA,230835,3946.9720,N,08404.9848,W,2,12,0.60,299.25,M,-33.325,M,,*74
2017-12-01 18:08:34 1512169714.383199: $GPRMC,230835,A,3946.9720,N,08404.9848,W,0.0000,0.000,011217,,*35
2017-12-01 18:08:34 1512169714.383260: $GPGSA,A,3,3,14,16,22,23,25,26,31,32,1,29,138,2.0,0.6,1.5*02
2017-12-01 18:08:35 1512169715.384827: $GPZDA,230836.00,01,12,2017,00,00*6C
2017-12-01 18:08:35 1512169715.384999: $GPGGA,230836,3946.9720,N,08404.9848,W,2,12,0.60,299.25,M,-33.325,M,,*77
2017-12-01 18:08:35 1512169715.385066: $GPRMC,230836,A,3946.9720,N,08404.9848,W,0.0000,0.000,011217,,*36
2017-12-01 18:08:35 1512169715.385127: $GPGSA,A,3,3,14,16,22,23,25,26,31,32,1,29,138,2.0,0.6,1.5*02
2017-12-01 18:08:36 1512169716.720281: $GPGSV,3,1,12,03,36,306,46,14,60,081,43,16,16,189,42,22,49,282,47*74
2017-12-01 18:08:36 1512169716.720465: $GPGSV,3,2,12,23,06,297,42,25,23,043,43,26,46,174,47,31,72,012,47*70
2017-12-01 18:08:36 1512169716.720531: $GPGSV,3,3,12,32,41,102,43,01,10,258,30,29,08,078,27,138,38,213,47*4D
2017-12-01 18:08:36 1512169716.834187: $GPZDA,230837.00,01,12,2017,00,00*6D
2017-12-01 18:08:36 1512169716.834344: $GPGGA,230837,3946.9720,N,08404.9848,W,2,12,0.60,299.25,M,-33.325,M,,*76
2017-12-01 18:08:36 1512169716.834410: $GPRMC,230837,A,3946.9720,N,08404.9848,W,0.0000,0.000,011217,,*37
2017-12-01 18:08:36 1512169716.834472: $GPGSA,A,3,3,14,16,22,23,25,26,31,32,1,29,138,2.0,0.6,1.5*02
2017-12-01 18:08:37 1512169717.384572: $GPZDA,230838.00,01,12,2017,00,00*62
2017-12-01 18:08:37 1512169717.387331: $GPGGA,230838,3946.9720,N,08404.9848,W,2,12,0.60,299.25,M,-33.325,M,,*79
2017-12-01 18:08:37 1512169717.387443: $GPRMC,230838,A,3946.9720,N,08404.9848,W,0.0000,0.000,011217,,*38
2017-12-01 18:08:37 1512169717.387507: $GPGSA,A,3,3,14,16,22,23,25,26,31,32,1,29,138,2.0,0.6,1.5*02
2017-12-01 18:08:38 1512169718.382437: $GPZDA,230839.00,01,12,2017,00,00*63
2017-12-01 18:08:38 1512169718.382619: $GPGGA,230839,3946.9720,N,08404.9848,W,2,12,0.60,299.25,M,-33.325,M,,*78
2017-12-01 18:08:38 1512169718.382711: $GPRMC,230839,A,3946.9720,N,08404.9848,W,0.0000,0.000,011217,,*39
2017-12-01 18:08:38 1512169718.382774: $GPGSA,A,3,3,14,16,22,23,25,26,31,32,1,29,138,2.0,0.6,1.5*02
2017-12-01 18:08:39 1512169719.723723: $GPGSV,3,1,12,03,36,306,46,14,60,081,43,16,16,189,42,22,49,282,47*74
2017-12-01 18:08:39 1512169719.724014: $GPGSV,3,2,12,23,06,297,42,25,23,043,42,26,46,174,47,31,72,012,47*71
2017-12-01 18:08:39 1512169719.724137: $GPGSV,3,3,12,32,41,102,43,01,10,258,29,29,08,078,28,138,38,213,46*4B
2017-12-01 18:08:39 1512169719.837040: $GPZDA,230840.00,01,12,2017,00,00*6D
2017-12-01 18:08:39 1512169719.837217: $GPGGA,230840,3946.9720,N,08404.9848,W,2,12,0.60,299.25,M,-33.325,M,,*76
2017-12-01 18:08:39 1512169719.837288: $GPRMC,230840,A,3946.9720,N,08404.9848,W,0.0000,0.000,011217,,*37
2017-12-01 18:08:39 1512169719.837393: $GPGSA,A,3,3,14,16,22,23,25,26,31,32,1,29,138,2.0,0.6,1.5*02
