2017-12-01 11:36:35 1512146195.747253: {"class":"VERSION","release":"3.16","rev":"3.16-4","proto_major":3,"proto_minor":11}
2017-12-01 11:36:35 1512146195.747839: {"class":"DEVICES","devices":[{"class":"DEVICE","path":"/dev/ttyUSB0","driver":"SiRF","subtype":"9\u0006GSD4e_4.1.2-P1_RPATCH.05-F-GPS-4R-1510281 11/03/2015 307","activated":"2017-12-01T16:36:35.688Z","flags":1,"native":1,"bps":4800,"parity":"N","stopbits":1,"cycle":1.00}]}
2017-12-01 11:36:35 1512146195.747979: {"class":"WATCH","enable":true,"json":false,"nmea":true,"raw":0,"scaled":false,"timing":false,"split24":false,"pps":false}
2017-12-01 11:36:35 1512146195.802025: $GPZDA,163636.00,01,12,2017,00,00*67
2017-12-01 11:36:35 1512146195.802167: $GPGGA,163636,3946.9578,N,08404.9840,W,2,11,0.80,301.09,M,-33.324,M,,*79
2017-12-01 11:36:35 1512146195.802231: $GPRMC,163636,A,3946.9578,N,08404.9840,W,0.0000,0.000,011217,,*3A
2017-12-01 11:36:35 1512146195.802292: $GPGSA,A,3,5,10,13,15,18,20,21,24,27,29,138,,2.0,0.8,1.5*34
2017-12-01 11:36:36 1512146196.427358: $GPZDA,163637.00,01,12,2017,00,00*66
2017-12-01 11:36:36 1512146196.427528: $GPGGA,163637,3946.9578,N,08404.9840,W,2,11,0.80,301.09,M,-33.324,M,,*78
2017-12-01 11:36:36 1512146196.427595: $GPRMC,163637,A,3946.9578,N,08404.9840,W,0.0000,0.000,011217,,*3B
2017-12-01 11:36:36 1512146196.427656: $GPGSA,A,3,5,10,13,15,18,20,21,24,27,29,138,,2.0,0.8,1.5*34
2017-12-01 11:36:37 1512146197.353204: $GPZDA,163638.00,01,12,2017,00,00*69
2017-12-01 11:36:37 1512146197.353375: $GPGGA,163638,3946.9578,N,08404.9833,W,2,11,0.80,301.17,M,-33.324,M,,*7C
2017-12-01 11:36:37 1512146197.353441: $GPRMC,163638,A,3946.9578,N,08404.9833,W,0.0000,0.000,011217,,*30
2017-12-01 11:36:37 1512146197.353502: $GPGSA,A,3,5,10,13,15,18,20,21,24,27,29,138,,2.0,0.8,1.5*34
2017-12-01 11:36:38 1512146198.692885: $GPGSV,3,1,12,05,16,075,31,10,11,270,37,13,46,052,46,15,77,084,47*74
2017-12-01 11:36:38 1512146198.693058: $GPGSV,3,2,12,18,41,282,44,20,64,045,41,21,64,307,46,24,18,150,43*70
2017-12-01 11:36:38 1512146198.693125: $GPGSV,3,3,12,27,07,325,33,29,27,196,45,04,15,129,05,138,38,213,45*42
2017-12-01 11:36:38 1512146198.806211: $GPZDA,163639.00,01,12,2017,00,00*68
2017-12-01 11:36:38 1512146198.806384: $GPGGA,163639,3946.9575,N,08404.9834,W,2,11,0.80,301.93,M,-33.324,M,,*7B
2017-12-01 11:36:38 1512146198.806451: $GPRMC,163639,A,3946.9575,N,08404.9834,W,0.0000,0.000,011217,,*3B
2017-12-01 11:36:38 1512146198.806512: $GPGSA,A,3,5,10,13,15,18,20,21,24,27,29,138,,2.0,0.8,1.5*34
2017-12-01 11:36:39 1512146199.355875: $GPZDA,163640.00,01,12,2017,00,00*66
2017-12-01 11:36:39 1512146199.356047: $GPGGA,163640,3946.9575,N,08404.9834,W,2,11,0.80,301.93,M,-33.324,M,,*75
2017-12-01 11:36:39 1512146199.356113: $GPRMC,163640,A,3946.9575,N,08404.9834,W,0.0000,0.000,011217,,*35
2017-12-01 11:36:39 1512146199.356174: $GPGSA,A,3,5,10,13,15,18,20,21,24,27,29,138,,2.0,0.8,1.5*34
2017-12-01 11:36:40 1512146200.354076: $GPZDA,163641.00,01,12,2017,00,00*67
2017-12-01 11:36:40 1512146200.354248: $GPGGA,163641,3946.9575,N,08404.9834,W,2,11,1.00,301.93,M,-33.324,M,,*7D
2017-12-01 11:36:40 1512146200.354316: $GPRMC,163641,A,3946.9575,N,08404.9834,W,0.0000,0.000,011217,,*34
2017-12-01 11:36:40 1512146200.354378: $GPGSA,A,3,5,10,13,15,18,20,21,24,27,29,138,,2.0,1.0,1.5*3D
2017-12-01 11:36:40 1512146200.354437: $GPGBS,163641,2.67,M,3.86,M,8.82,M*35
2017-12-01 11:36:41 1512146201.696780: $GPGSV,3,1,11,05,16,075,31,10,11,270,38,13,46,052,46,15,77,084,47*78
2017-12-01 11:36:41 1512146201.696977: $GPGSV,3,2,11,18,41,282,44,20,64,045,41,21,64,307,46,24,18,150,43*73
2017-12-01 11:36:41 1512146201.697043: $GPGSV,3,3,11,27,07,325,34,29,27,196,46,138,38,213,45*7A
2017-12-01 11:36:41 1512146201.810180: $GPZDA,163642.00,01,12,2017,00,00*64
2017-12-01 11:36:41 1512146201.810378: $GPGGA,163642,3946.9575,N,08404.9834,W,2,11,0.80,301.93,M,-33.324,M,,*77
2017-12-01 11:36:41 1512146201.810471: $GPRMC,163642,A,3946.9575,N,08404.9834,W,0.0000,0.000,011217,,*37
2017-12-01 11:36:41 1512146201.810535: $GPGSA,A,3,5,10,13,15,18,20,21,24,27,29,138,,2.0,0.8,1.5*34
2017-12-01 11:36:42 1512146202.353992: $GPZDA,163643.00,01,12,2017,00,00*65
2017-12-01 11:36:42 1512146202.354237: $GPGGA,163643,3946.9575,N,08404.9834,W,2,11,0.80,301.93,M,-33.324,M,,*76
2017-12-01 11:36:42 1512146202.354308: $GPRMC,163643,A,3946.9575,N,08404.9834,W,0.0000,0.000,011217,,*36
2017-12-01 11:36:42 1512146202.354368: $GPGSA,A,3,5,10,13,15,18,20,21,24,27,29,138,,2.0,0.8,1.5*34
2017-12-01 11:36:43 1512146203.356915: $GPZDA,163644.00,01,12,2017,00,00*62
2017-12-01 11:36:43 1512146203.357085: $GPGGA,163644,3946.9575,N,08404.9834,W,2,11,0.80,301.93,M,-33.324,M,,*71
2017-12-01 11:36:43 1512146203.357153: $GPRMC,163644,A,3946.9575,N,08404.9834,W,0.0000,0.000,011217,,*31
2017-12-01 11:36:43 1512146203.357214: $GPGSA,A,3,5,10,13,15,18,20,21,24,27,29,138,,2.0,0.8,1.5*34
2017-12-01 11:36:44 1512146204.691422: $GPGSV,3,1,12,05,16,075,30,10,11,270,37,13,46,052,46,15,77,084,47*75
2017-12-01 11:36:44 1512146204.691605: $GPGSV,3,2,12,18,41,282,44,20,64,045,41,21,64,307,46,24,18,150,42*71
2017-12-01 11:36:44 1512146204.691693: $GPGSV,3,3,12,27,07,325,34,29,27,196,45,04,15,129,00,138,38,213,46*43
2017-12-01 11:36:44 1512146204.804806: $GPZDA,163645.00,01,12,2017,00,00*63
2017-12-01 11:36:44 1512146204.804980: $GPGGA,163645,3946.9571,N,08404.9834,W,2,11,0.80,302.70,M,-33.324,M,,*7A
2017-12-01 11:36:44 1512146204.805046: $GPRMC,163645,A,3946.9571,N,08404.9834,W,0.0000,0.000,011217,,*34
2017-12-01 11:36:44 1512146204.805150: $GPGSA,A,3,5,10,13,15,18,20,21,24,27,29,138,,2.0,0.8,1.5*34
2017-12-01 11:36:45 1512146205.355681: $GPZDA,163646.00,01,12,2017,00,00*60
2017-12-01 11:36:45 1512146205.355867: $GPGGA,163646,3946.9571,N,08404.9834,W,2,11,0.80,302.70,M,-33.324,M,,*79
2017-12-01 11:36:45 1512146205.355935: $GPRMC,163646,A,3946.9571,N,08404.9834,W,0.0000,0.000,011217,,*37
2017-12-01 11:36:45 1512146205.355997: $GPGSA,A,3,5,10,13,15,18,20,21,24,27,29,138,,2.0,0.8,1.5*34
