2017-12-29 11:55:08 1514566508.367935: {"class":"VERSION","release":"3.16","rev":"3.16-4","proto_major":3,"proto_minor":11}
2017-12-29 11:55:08 1514566508.368276: {"class":"DEVICES","devices":[{"class":"DEVICE","path":"/dev/ttyUSB0","driver":"SiRF","subtype":"9\u0006GSD4e_4.1.2-P1_RPATCH.05-F-GPS-4R-1510281 11/03/2015 307","activated":"2017-12-29T16:55:08.221Z","flags":1,"native":1,"bps":4800,"parity":"N","stopbits":1,"cycle":1.00}]}
2017-12-29 11:55:08 1514566508.368392: {"class":"WATCH","enable":true,"json":false,"nmea":true,"raw":0,"scaled":false,"timing":false,"split24":false,"pps":false}
2017-12-29 11:55:08 1514566508.670708: $GPGSV,3,1,11,10,55,315,45,14,16,241,31,15,23,058,46,18,77,040,45*7D
2017-12-29 11:55:08 1514566508.670934: $GPGSV,3,2,11,20,22,108,49,21,45,181,47,24,52,081,50,27,14,273,31*7E
2017-12-29 11:55:08 1514566508.671002: $GPGSV,3,3,11,32,35,250,35,08,08,309,07,138,38,213,45*72
2017-12-29 11:55:08 1514566508.784065: $GPZDA,165509.00,29,12,2017,00,00*64
2017-12-29 11:55:08 1514566508.784216: $GPGGA,165509,3946.9626,N,08404.9881,W,2,10,1.00,306.25,M,-33.324,M,,*74
2017-12-29 11:55:08 1514566508.784282: $GPRMC,165509,A,3946.9626,N,08404.9881,W,0.0000,0.000,291217,,*3C
2017-12-29 11:55:08 1514566508.784343: $GPGSA,A,3,10,14,15,18,20,21,24,27,32,138,,,1.7,1.0,1.3*07
2017-12-29 11:55:09 1514566509.347636: $GPZDA,165510.00,29,12,2017,00,00*6C
2017-12-29 11:55:09 1514566509.347893: $GPGGA,165510,3946.9626,N,08404.9881,W,2,10,1.00,306.25,M,-33.324,M,,*7C
2017-12-29 11:55:09 1514566509.347976: $GPRMC,165510,A,3946.9626,N,08404.9881,W,0.0000,0.000,291217,,*34
2017-12-29 11:55:09 1514566509.348040: $GPGSA,A,3,10,14,15,18,20,21,24,27,32,138,,,1.7,1.0,1.3*07
2017-12-29 11:55:10 1514566510.335827: $GPZDA,165511.00,29,12,2017,00,00*6D
2017-12-29 11:55:10 1514566510.336019: $GPGGA,165511,3946.9626,N,08404.9881,W,2,10,0.80,306.25,M,-33.324,M,,*74
2017-12-29 11:55:10 1514566510.336086: $GPRMC,165511,A,3946.9626,N,08404.9881,W,0.0000,0.000,291217,,*35
2017-12-29 11:55:10 1514566510.336148: $GPGSA,A,3,10,14,15,18,20,21,24,27,32,138,,,1.7,0.8,1.3*0E
2017-12-29 11:55:11 1514566511.687305: $GPGSV,3,1,11,10,55,315,45,14,16,241,31,15,23,058,46,18,77,040,45*7D
2017-12-29 11:55:11 1514566511.687496: $GPGSV,3,2,11,20,22,108,49,21,45,181,47,24,52,081,50,27,14,273,31*7E
2017-12-29 11:55:11 1514566511.687565: $GPGSV,3,3,11,32,35,250,36,08,08,309,26,138,38,213,45*72
2017-12-29 11:55:11 1514566511.800906: $GPZDA,165512.00,29,12,2017,00,00*6E
2017-12-29 11:55:11 1514566511.801327: $GPGGA,165512,3946.9626,N,08404.9875,W,2,11,0.80,307.73,M,-33.324,M,,*7F
2017-12-29 11:55:11 1514566511.801465: $GPRMC,165512,A,3946.9626,N,08404.9875,W,0.0000,0.000,291217,,*3D
2017-12-29 11:55:11 1514566511.801614: $GPGSA,A,3,10,14,15,18,20,21,24,27,32,8,138,,1.7,0.8,1.3*36
2017-12-29 11:55:12 1514566512.351660: $GPZDA,165513.00,29,12,2017,00,00*6F
2017-12-29 11:55:12 1514566512.351894: $GPGGA,165513,3946.9626,N,08404.9875,W,2,11,1.00,307.73,M,-33.324,M,,*77
2017-12-29 11:55:12 1514566512.351966: $GPRMC,165513,A,3946.9626,N,08404.9875,W,0.0000,0.000,291217,,*3C
2017-12-29 11:55:12 1514566512.352030: $GPGSA,A,3,10,14,15,18,20,21,24,27,32,8,138,,1.7,1.0,1.3*3F
2017-12-29 11:55:13 1514566513.337426: $GPZDA,165514.00,29,12,2017,00,00*68
2017-12-29 11:55:13 1514566513.342169: $GPGGA,165514,3946.9626,N,08404.9875,W,2,11,1.00,307.73,M,-33.324,M,,*70
2017-12-29 11:55:13 1514566513.342289: $GPRMC,165514,A,3946.9626,N,08404.9875,W,0.0000,0.000,291217,,*3B
2017-12-29 11:55:13 1514566513.342387: $GPGSA,A,3,10,14,15,18,20,21,24,27,32,8,138,,1.7,1.0,1.3*3F
2017-12-29 11:55:14 1514566514.671894: $GPGSV,3,1,11,10,55,315,45,14,16,241,32,15,23,058,46,18,77,040,45*7E
2017-12-29 11:55:14 1514566514.672047: $GPGSV,3,2,11,20,22,108,49,21,45,181,47,24,52,081,50,27,14,273,31*7E
2017-12-29 11:55:14 1514566514.672132: $GPGSV,3,3,11,32,35,250,36,08,08,309,14,138,38,213,45*73
2017-12-29 11:55:14 1514566514.785700: $GPZDA,165515.00,29,12,2017,00,00*69
2017-12-29 11:55:14 1514566514.785941: $GPGGA,165515,3946.9626,N,08404.9875,W,2,10,1.00,307.73,M,-33.324,M,,*70
2017-12-29 11:55:14 1514566514.786070: $GPRMC,165515,A,3946.9626,N,08404.9875,W,0.0000,0.000,291217,,*3A
2017-12-29 11:55:14 1514566514.786134: $GPGSA,A,3,10,14,15,18,20,21,24,27,32,138,,,1.7,1.0,1.3*07
2017-12-29 11:55:15 1514566515.330211: $GPZDA,165516.00,29,12,2017,00,00*6A
2017-12-29 11:55:15 1514566515.330383: $GPGGA,165516,3946.9626,N,08404.9875,W,2,10,1.00,307.73,M,-33.324,M,,*73
2017-12-29 11:55:15 1514566515.330449: $GPRMC,165516,A,3946.9626,N,08404.9875,W,0.0000,0.000,291217,,*39
2017-12-29 11:55:15 1514566515.330510: $GPGSA,A,3,10,14,15,18,20,21,24,27,32,138,,,1.7,1.0,1.3*07
2017-12-29 11:55:16 1514566516.329116: $GPZDA,165517.00,29,12,2017,00,00*6B
2017-12-29 11:55:16 1514566516.329283: $GPGGA,165517,3946.9626,N,08404.9875,W,2,10,0.80,307.73,M,-33.324,M,,*7B
2017-12-29 11:55:16 1514566516.329349: $GPRMC,165517,A,3946.9626,N,08404.9875,W,0.0000,0.000,291217,,*38
2017-12-29 11:55:16 1514566516.329410: $GPGSA,A,3,10,14,15,18,20,21,24,27,32,138,,,1.7,0.8,1.3*0E
2017-12-29 11:55:17 1514566517.665985: $GPGSV,3,1,11,10,55,315,45,14,16,241,32,15,23,058,46,18,77,040,45*7E
2017-12-29 11:55:17 1514566517.666174: $GPGSV,3,2,11,20,22,108,49,21,45,181,47,24,52,081,50,27,14,273,31*7E
2017-12-29 11:55:17 1514566517.666244: $GPGSV,3,3,11,32,35,250,37,08,08,309,20,138,38,213,44*74
2017-12-29 11:55:17 1514566517.781118: $GPZDA,165518.00,29,12,2017,00,00*64
2017-12-29 11:55:17 1514566517.781305: $GPGGA,165518,3946.9626,N,08404.9875,W,2,11,0.80,307.73,M,-33.324,M,,*75
2017-12-29 11:55:17 1514566517.781374: $GPRMC,165518,A,3946.9626,N,08404.9875,W,0.0000,0.000,291217,,*37
2017-12-29 11:55:17 1514566517.781438: $GPGSA,A,3,10,14,15,18,20,21,24,27,32,8,138,,1.7,0.8,1.3*36
2017-12-29 11:55:18 1514566518.335734: $GPZDA,165519.00,29,12,2017,00,00*65
2017-12-29 11:55:18 1514566518.335920: $GPGGA,165519,3946.9626,N,08404.9875,W,2,11,0.80,307.73,M,-33.324,M,,*74
2017-12-29 11:55:18 1514566518.336024: $GPRMC,165519,A,3946.9626,N,08404.9875,W,0.0000,0.000,291217,,*36
2017-12-29 11:55:18 1514566518.336091: $GPGSA,A,3,10,14,15,18,20,21,24,27,32,8,138,,1.7,0.8,1.3*36
2017-12-29 11:55:19 1514566519.336222: $GPZDA,165520.00,29,12,2017,00,00*6F
2017-12-29 11:55:19 1514566519.336393: $GPGGA,165520,3946.9626,N,08404.9875,W,2,11,0.80,307.73,M,-33.324,M,,*7E
2017-12-29 11:55:19 1514566519.336462: $GPRMC,165520,A,3946.9626,N,08404.9875,W,0.0000,0.000,291217,,*3C
2017-12-29 11:55:19 1514566519.336525: $GPGSA,A,3,10,14,15,18,20,21,24,27,32,8,138,,1.7,0.8,1.3*36
2017-12-29 11:55:20 1514566520.669384: $GPGSV,3,1,11,10,55,315,45,14,16,241,31,15,23,058,46,18,77,040,45*7D
2017-12-29 11:55:20 1514566520.669565: $GPGSV,3,2,11,20,22,108,49,21,45,181,47,24,52,081,50,27,14,273,31*7E
2017-12-29 11:55:20 1514566520.669635: $GPGSV,3,3,11,32,35,250,37,08,08,309,27,138,38,213,44*73
2017-12-29 11:55:20 1514566520.782760: $GPZDA,165521.00,29,12,2017,00,00*6E
2017-12-29 11:55:20 1514566520.782933: $GPGGA,165521,3946.9626,N,08404.9875,W,2,11,0.80,307.73,M,-33.324,M,,*7F
2017-12-29 11:55:20 1514566520.783003: $GPRMC,165521,A,3946.9626,N,08404.9875,W,0.0000,0.000,291217,,*3D
2017-12-29 11:55:20 1514566520.783067: $GPGSA,A,3,10,14,15,18,20,21,24,27,32,8,138,,1.7,0.8,1.3*36
2017-12-29 11:55:21 1514566521.408124: $GPZDA,165522.00,29,12,2017,00,00*6D
2017-12-29 11:55:21 1514566521.408296: $GPGGA,165522,3946.9626,N,08404.9868,W,2,11,0.80,307.81,M,-33.324,M,,*7D
2017-12-29 11:55:21 1514566521.408365: $GPRMC,165522,A,3946.9626,N,08404.9868,W,0.0000,0.000,291217,,*32
2017-12-29 11:55:21 1514566521.408429: $GPGSA,A,3,10,14,15,18,20,21,24,27,32,8,138,,1.7,0.8,1.3*36
2017-12-29 11:55:22 1514566522.335235: $GPZDA,165523.00,29,12,2017,00,00*6C
2017-12-29 11:55:22 1514566522.335416: $GPGGA,165523,3946.9626,N,08404.9868,W,2,11,0.80,307.81,M,-33.324,M,,*7C
2017-12-29 11:55:22 1514566522.335486: $GPRMC,165523,A,3946.9626,N,08404.9868,W,0.0000,0.000,291217,,*33
2017-12-29 11:55:22 1514566522.335550: $GPGSA,A,3,10,14,15,18,20,21,24,27,32,8,138,,1.7,0.8,1.3*36
