2017-12-01 14:33:51 1512156831.247860: {"class":"VERSION","release":"3.16","rev":"3.16-4","proto_major":3,"proto_minor":11}
2017-12-01 14:33:51 1512156831.248221: {"class":"DEVICES","devices":[{"class":"DEVICE","path":"/dev/ttyUSB0","driver":"SiRF","subtype":"9\u0006GSD4e_4.1.2-P1_RPATCH.05-F-GPS-4R-1510281 11/03/2015 307","activated":"2017-12-01T19:33:50.914Z","flags":1,"native":1,"bps":4800,"parity":"N","stopbits":1,"cycle":1.00}]}
2017-12-01 14:33:51 1512156831.248333: {"class":"WATCH","enable":true,"json":false,"nmea":true,"raw":0,"scaled":false,"timing":false,"split24":false,"pps":false}
2017-12-01 14:33:51 1512156831.945012: $GPZDA,193352.63,01,12,2017,00,00*6A
2017-12-01 14:33:51 1512156831.945184: $GPGGA,193352,3946.9588,N,08404.9898,W,1,12,1.40,305.31,M,-33.324,M,,*79
2017-12-01 14:33:51 1512156831.945251: $GPRMC,193352,A,3946.9588,N,08404.9898,W,1.2848,320.544,011217,,*3B
2017-12-01 14:33:51 1512156831.945312: $GPGSA,A,3,12,10,14,18,21,24,32,8,25,27,20,138,2.0,1.4,1.5*39
2017-12-01 14:33:51 1512156831.945371: $GPGBS,193352,10.70,M,15.43,M,35.28,M*08
2017-12-01 14:33:53 1512156833.096465: $GPZDA,193353.31,01,12,2017,00,00*6C
2017-12-01 14:33:53 1512156833.096641: $GPGGA,193353,3946.9568,N,08404.9886,W,1,12,1.40,306.48,M,-33.324,M,,*74
2017-12-01 14:33:53 1512156833.096729: $GPRMC,193353,A,3946.9568,N,08404.9886,W,0.2365,305.883,011217,,*3F
2017-12-01 14:33:53 1512156833.096792: $GPGSA,A,3,12,10,14,18,21,24,32,8,25,27,20,138,2.0,1.4,1.5*39
2017-12-01 14:33:54 1512156834.315254: $GPGSV,3,1,12,10,74,339,47,12,12,103,32,14,32,258,39,18,67,103,46*7A
2017-12-01 14:33:54 1512156834.315437: $GPGSV,3,2,12,21,24,178,45,24,41,054,48,32,50,271,45,08,04,289,08*79
2017-12-01 14:33:54 1512156834.315503: $GPGSV,3,3,12,15,08,069,07,20,05,120,07,25,06,139,06,138,38,213,00*40
2017-12-01 14:33:54 1512156834.428740: $GPZDA,193354.00,01,12,2017,00,00*69
2017-12-01 14:33:54 1512156834.428927: $GPGGA,193354,3946.9568,N,08404.9886,W,1,07,1.40,306.48,M,-33.324,M,,*77
2017-12-01 14:33:54 1512156834.428994: $GPRMC,193354,A,3946.9568,N,08404.9886,W,0.0407,142.014,011217,,*3E
2017-12-01 14:33:54 1512156834.429055: $GPGSA,A,3,10,12,14,18,21,24,32,,,,,,2.0,1.4,1.5*3B
2017-12-01 14:33:54 1512156834.881242: $GPZDA,193355.00,01,12,2017,00,00*68
2017-12-01 14:33:54 1512156834.881457: $GPGGA,193355,3946.9572,N,08404.9885,W,1,07,1.40,305.72,M,-33.324,M,,*74
2017-12-01 14:33:54 1512156834.881528: $GPRMC,193355,A,3946.9572,N,08404.9885,W,0.1867,180.000,011217,,*37
2017-12-01 14:33:54 1512156834.881589: $GPGSA,A,3,10,12,14,18,21,24,32,,,,,,2.0,1.4,1.5*3B
2017-12-01 14:33:55 1512156835.341736: $GPZDA,193356.00,01,12,2017,00,00*6B
2017-12-01 14:33:55 1512156835.341930: $GPGGA,193356,3946.9567,N,08404.9878,W,1,07,1.40,305.16,M,-33.324,M,,*73
2017-12-01 14:33:55 1512156835.341998: $GPRMC,193356,A,3946.9567,N,08404.9878,W,0.0000,0.000,011217,,*33
2017-12-01 14:33:55 1512156835.342060: $GPGSA,A,3,10,12,14,18,21,24,32,,,,,,2.0,1.4,1.5*3B
2017-12-01 14:33:56 1512156836.680698: $GPGSV,3,1,12,10,74,339,48,12,12,103,34,14,32,258,40,18,67,103,46*7D
2017-12-01 14:33:56 1512156836.680957: $GPGSV,3,2,12,21,24,178,46,24,41,054,49,32,50,271,46,08,04,289,22*70
2017-12-01 14:33:56 1512156836.681030: $GPGSV,3,3,12,25,06,139,10,20,05,120,24,15,08,069,04,138,38,213,48*49
2017-12-01 14:33:56 1512156836.794145: $GPZDA,193357.00,01,12,2017,00,00*6A
2017-12-01 14:33:56 1512156836.794315: $GPGGA,193357,3946.9567,N,08404.9878,W,1,10,1.40,303.75,M,-33.324,M,,*77
2017-12-01 14:33:56 1512156836.794381: $GPRMC,193357,A,3946.9567,N,08404.9878,W,0.0000,0.000,011217,,*32
2017-12-01 14:33:56 1512156836.794442: $GPGSA,A,3,10,12,14,18,21,24,32,8,20,138,,,2.0,1.4,1.5*3B
2017-12-01 14:33:57 1512156837.338725: $GPZDA,193358.00,01,12,2017,00,00*65
2017-12-01 14:33:57 1512156837.338911: $GPGGA,193358,3946.9570,N,08404.9877,W,1,10,1.40,302.99,M,-33.324,M,,*72
2017-12-01 14:33:57 1512156837.338979: $GPRMC,193358,A,3946.9570,N,08404.9877,W,0.0000,0.000,011217,,*34
2017-12-01 14:33:57 1512156837.339040: $GPGSA,A,3,10,12,14,18,21,24,32,8,20,138,,,2.0,1.4,1.5*3B
2017-12-01 14:33:58 1512156838.340810: $GPZDA,193359.00,01,12,2017,00,00*64
2017-12-01 14:33:58 1512156838.341027: $GPGGA,193359,3946.9569,N,08404.9869,W,1,10,1.40,301.66,M,-33.324,M,,*77
2017-12-01 14:33:58 1512156838.341098: $GPRMC,193359,A,3946.9569,N,08404.9869,W,0.0000,0.000,011217,,*32
2017-12-01 14:33:58 1512156838.341160: $GPGSA,A,3,10,12,14,18,21,24,32,8,20,138,,,2.0,1.4,1.5*3B
2017-12-01 14:33:58 1512156838.341219: $GPGBS,193359,10.70,M,15.43,M,35.28,M*03
2017-12-01 14:33:59 1512156839.675206: $GPGSV,3,1,12,10,74,339,48,12,12,103,35,14,32,258,40,18,67,103,46*7C
2017-12-01 14:33:59 1512156839.675385: $GPGSV,3,2,12,21,24,178,45,24,41,054,49,32,50,271,46,08,04,289,22*73
2017-12-01 14:33:59 1512156839.675454: $GPGSV,3,3,12,27,04,256,30,20,05,120,24,31,04,204,30,138,38,213,48*45
2017-12-01 14:33:59 1512156839.788832: $GPZDA,193400.00,01,12,2017,00,00*6F
2017-12-01 14:33:59 1512156839.788978: $GPGGA,193400,3946.9569,N,08404.9869,W,1,12,1.40,301.66,M,-33.324,M,,*7E
2017-12-01 14:33:59 1512156839.789044: $GPRMC,193400,A,3946.9569,N,08404.9869,W,0.0000,0.000,011217,,*39
2017-12-01 14:33:59 1512156839.789105: $GPGSA,A,3,10,12,14,18,21,24,32,8,27,20,31,138,2.0,1.4,1.5*3C
2017-12-01 14:34:00 1512156840.342169: $GPZDA,193401.00,01,12,2017,00,00*6E
2017-12-01 14:34:00 1512156840.342359: $GPGGA,193401,3946.9572,N,08404.9869,W,1,12,1.00,300.90,M,-33.324,M,,*79
2017-12-01 14:34:00 1512156840.342429: $GPRMC,193401,A,3946.9572,N,08404.9869,W,0.0000,0.000,011217,,*32
2017-12-01 14:34:00 1512156840.342490: $GPGSA,A,3,10,12,14,18,21,24,32,8,27,20,31,138,2.0,1.0,1.5*38
2017-12-01 14:34:01 1512156841.346025: $GPZDA,193402.00,01,12,2017,00,00*6D
2017-12-01 14:34:01 1512156841.346198: $GPGGA,193402,3946.9568,N,08404.9869,W,1,12,1.00,300.26,M,-33.324,M,,*7C
2017-12-01 14:34:01 1512156841.346264: $GPRMC,193402,A,3946.9568,N,08404.9869,W,0.0000,0.000,011217,,*3A
2017-12-01 14:34:01 1512156841.346327: $GPGSA,A,3,10,12,14,18,21,24,32,8,27,20,31,138,2.0,1.0,1.5*38
2017-12-01 14:34:02 1512156842.674283: $GPGSV,3,1,12,10,74,339,48,12,12,103,35,14,32,258,40,18,67,103,46*7C
2017-12-01 14:34:02 1512156842.674443: $GPGSV,3,2,12,21,24,178,45,24,41,054,48,32,50,271,46,08,04,289,22*72
2017-12-01 14:34:02 1512156842.674509: $GPGSV,3,3,12,27,04,256,29,20,05,120,24,31,04,204,30,138,38,213,46*43
2017-12-01 14:34:02 1512156842.787783: $GPZDA,193403.00,01,12,2017,00,00*6C
2017-12-01 14:34:02 1512156842.787959: $GPGGA,193403,3946.9571,N,08404.9861,W,1,12,1.40,299.57,M,-33.324,M,,*7E
2017-12-01 14:34:02 1512156842.788025: $GPRMC,193403,A,3946.9571,N,08404.9861,W,0.0000,0.000,011217,,*3B
2017-12-01 14:34:02 1512156842.788088: $GPGSA,A,3,10,12,14,18,21,24,32,8,27,20,31,138,2.0,1.4,1.5*3C
2017-12-01 14:34:03 1512156843.339838: $GPZDA,193404.00,01,12,2017,00,00*6B
2017-12-01 14:34:03 1512156843.340011: $GPGGA,193404,3946.9567,N,08404.9861,W,1,12,1.40,298.93,M,-33.324,M,,*77
2017-12-01 14:34:03 1512156843.340077: $GPRMC,193404,A,3946.9567,N,08404.9861,W,0.0000,0.000,011217,,*3B
2017-12-01 14:34:03 1512156843.340138: $GPGSA,A,3,10,12,14,18,21,24,32,8,27,20,31,138,2.0,1.4,1.5*3C
2017-12-01 14:34:04 1512156844.334617: $GPZDA,193405.00,01,12,2017,00,00*6A
2017-12-01 14:34:04 1512156844.334814: $GPGGA,193405,3946.9567,N,08404.9861,W,1,12,1.40,298.93,M,-33.324,M,,*76
2017-12-01 14:34:04 1512156844.334883: $GPRMC,193405,A,3946.9567,N,08404.9861,W,0.2422,93.794,011217,,*0C
2017-12-01 14:34:04 1512156844.334944: $GPGSA,A,3,10,12,14,18,21,24,32,8,27,20,31,138,2.0,1.4,1.5*3C
2017-12-01 14:34:05 1512156845.675199: $GPGSV,3,1,12,10,74,339,47,12,12,103,35,14,32,258,40,18,67,103,45*70
2017-12-01 14:34:05 1512156845.675395: $GPGSV,3,2,12,21,24,178,45,24,41,054,48,32,50,271,45,08,04,289,19*79
2017-12-01 14:34:05 1512156845.675463: $GPGSV,3,3,12,25,06,139,02,20,05,120,24,31,04,204,30,138,38,213,48*4E
2017-12-01 14:34:05 1512156845.788795: $GPZDA,193406.00,01,12,2017,00,00*69
2017-12-01 14:34:05 1512156845.788936: $GPGGA,193406,3946.9571,N,08404.9860,W,1,11,1.40,298.17,M,-33.324,M,,*7C
2017-12-01 14:34:05 1512156845.789002: $GPRMC,193406,A,3946.9571,N,08404.9860,W,0.0000,0.000,011217,,*3F
2017-12-01 14:34:05 1512156845.789112: $GPGSA,A,3,10,12,14,18,21,24,32,8,20,31,138,,2.0,1.4,1.5*39
2017-12-01 14:34:06 1512156846.414293: $GPZDA,193407.00,01,12,2017,00,00*68
2017-12-01 14:34:06 1512156846.414473: $GPGGA,193407,3946.9571,N,08404.9860,W,1,11,1.20,298.17,M,-33.324,M,,*7B
2017-12-01 14:34:06 1512156846.414540: $GPRMC,193407,A,3946.9571,N,08404.9860,W,0.0000,0.000,011217,,*3E
2017-12-01 14:34:06 1512156846.414601: $GPGSA,A,3,10,12,14,18,21,24,32,8,20,31,138,,2.0,1.2,1.5*3F
2017-12-01 14:34:07 1512156847.338564: $GPZDA,193408.00,01,12,2017,00,00*67
2017-12-01 14:34:07 1512156847.338738: $GPGGA,193408,3946.9570,N,08404.9859,W,1,11,1.20,296.76,M,-33.324,M,,*76
2017-12-01 14:34:07 1512156847.338805: $GPRMC,193408,A,3946.9570,N,08404.9859,W,0.0000,0.000,011217,,*3A
2017-12-01 14:34:07 1512156847.338866: $GPGSA,A,3,10,12,14,18,21,24,32,8,20,31,138,,2.0,1.2,1.5*3F
2017-12-01 14:34:08 1512156848.674301: $GPGSV,3,1,12,10,74,339,47,12,12,103,34,14,32,258,40,18,67,103,45*71
2017-12-01 14:34:08 1512156848.674498: $GPGSV,3,2,12,21,24,178,46,24,41,054,48,32,50,271,45,08,04,289,21*71
2017-12-01 14:34:08 1512156848.674565: $GPGSV,3,3,12,25,06,139,18,20,05,120,25,31,04,204,31,138,38,213,47*4A
2017-12-01 14:34:08 1512156848.788039: $GPZDA,193409.00,01,12,2017,00,00*66
2017-12-01 14:34:08 1512156848.788211: $GPGGA,193409,3946.9570,N,08404.9859,W,1,12,1.20,296.76,M,-33.324,M,,*74
2017-12-01 14:34:08 1512156848.788279: $GPRMC,193409,A,3946.9570,N,08404.9859,W,0.0000,0.000,011217,,*3B
2017-12-01 14:34:08 1512156848.788339: $GPGSA,A,3,10,12,14,18,21,24,32,8,25,20,31,138,2.0,1.2,1.5*38
2017-12-01 14:34:09 1512156849.337588: $GPZDA,193410.00,01,12,2017,00,00*6E
2017-12-01 14:34:09 1512156849.340476: $GPGGA,193410,3946.9570,N,08404.9859,W,1,12,1.20,296.76,M,-33.324,M,,*7C
2017-12-01 14:34:09 1512156849.340586: $GPRMC,193410,A,3946.9570,N,08404.9859,W,0.0000,0.000,011217,,*33
2017-12-01 14:34:09 1512156849.340649: $GPGSA,A,3,10,12,14,18,21,24,32,8,25,20,31,138,2.0,1.2,1.5*38
2017-12-01 14:34:10 1512156850.339526: $GPRMC,193411,V,3946.9575,N,08404.9850,W,0.0000,0.000,011217,,*29
2017-12-01 14:34:10 1512156850.339707: $GPGSA,A,1,10,12,14,18,21,24,32,8,25,20,31,138,,,,*3D
2017-12-01 14:34:11 1512156851.679565: $GPGSV,3,1,12,10,74,339,47,12,12,103,34,14,32,258,41,18,67,103,45*70
2017-12-01 14:34:11 1512156851.679747: $GPGSV,3,2,12,21,24,178,46,24,41,054,49,32,50,271,44,08,04,289,08*7A
2017-12-01 14:34:11 1512156851.679813: $GPGSV,3,3,12,25,06,139,18,20,05,120,24,31,04,204,33,138,38,213,47*49
2017-12-01 14:34:11 1512156851.792060: $GPZDA,193412.00,01,12,2017,00,00*6C
2017-12-01 14:34:11 1512156851.792213: $GPGGA,193412,3946.9573,N,08404.9858,W,2,11,1.20,294.60,M,-33.324,M,,*79
2017-12-01 14:34:11 1512156851.792279: $GPRMC,193412,A,3946.9573,N,08404.9858,W,0.0000,0.000,011217,,*33
2017-12-01 14:34:11 1512156851.792339: $GPGSA,A,3,10,12,14,18,21,24,32,25,20,31,138,,2.0,1.2,1.5*00
2017-12-01 14:34:11 1512156851.792398: $GPGBS,193412,2.67,M,3.86,M,8.82,M*3E
2017-12-01 14:34:12 1512156852.337546: $GPZDA,193413.01,01,12,2017,00,00*6C
2017-12-01 14:34:12 1512156852.337719: $GPGGA,193413,3946.9577,N,08404.9852,W,2,11,1.20,296.72,M,-33.324,M,,*77
2017-12-01 14:34:12 1512156852.337789: $GPRMC,193413,A,3946.9577,N,08404.9852,W,0.0000,0.000,011217,,*3C
2017-12-01 14:34:12 1512156852.337853: $GPGSA,A,3,10,12,14,18,21,24,32,25,20,31,138,,2.0,1.2,1.5*00
2017-12-01 14:34:12 1512156852.337914: $GPGBS,193413,2.67,M,3.86,M,8.82,M*3F
2017-12-01 14:34:13 1512156853.339875: $GPZDA,193414.00,01,12,2017,00,00*6A
2017-12-01 14:34:13 1512156853.340051: $GPGGA,193414,3946.9574,N,08404.9859,W,2,11,1.20,297.40,M,-33.324,M,,*78
2017-12-01 14:34:13 1512156853.340122: $GPRMC,193414,A,3946.9574,N,08404.9859,W,0.1867,0.000,011217,,*3B
2017-12-01 14:34:13 1512156853.340186: $GPGSA,A,3,10,12,14,18,21,24,32,25,20,31,138,,2.0,1.2,1.5*00
2017-12-01 14:34:13 1512156853.340248: $GPGBS,193414,2.67,M,3.86,M,8.82,M*38
2017-12-01 14:34:14 1512156854.677858: $GPGSV,3,1,12,10,74,339,47,12,12,103,34,14,32,258,42,18,67,103,45*73
2017-12-01 14:34:14 1512156854.678075: $GPGSV,3,2,12,21,24,178,46,24,41,054,49,32,50,271,44,08,04,289,27*77
2017-12-01 14:34:14 1512156854.678145: $GPGSV,3,3,12,25,06,139,19,20,05,120,24,31,04,204,33,138,38,213,46*49
2017-12-01 14:34:14 1512156854.791435: $GPZDA,193415.00,01,12,2017,00,00*6B
2017-12-01 14:34:14 1512156854.791610: $GPGGA,193415,3946.9578,N,08404.9859,W,2,12,1.20,298.04,M,-33.324,M,,*79
2017-12-01 14:34:14 1512156854.791680: $GPRMC,193415,A,3946.9578,N,08404.9859,W,0.0000,0.000,011217,,*3E
2017-12-01 14:34:14 1512156854.791742: $GPGSA,A,3,10,12,14,18,21,24,32,8,25,20,31,138,2.0,1.2,1.5*38
2017-12-01 14:34:15 1512156855.343357: $GPZDA,193416.00,01,12,2017,00,00*68
2017-12-01 14:34:15 1512156855.343532: $GPGGA,193416,3946.9578,N,08404.9859,W,2,12,1.20,298.04,M,-33.324,M,,*7A
2017-12-01 14:34:15 1512156855.343598: $GPRMC,193416,A,3946.9578,N,08404.9859,W,0.0000,0.000,011217,,*3D
2017-12-01 14:34:15 1512156855.343660: $GPGSA,A,3,10,12,14,18,21,24,32,8,25,20,31,138,2.0,1.2,1.5*38
