2017-12-29 15:00:02 1514577602.264333: {"class":"VERSION","release":"3.16","rev":"3.16-4","proto_major":3,"proto_minor":11}
2017-12-29 15:00:02 1514577602.264769: {"class":"DEVICES","devices":[{"class":"DEVICE","path":"/dev/ttyUSB0","driver":"SiRF","subtype":"9\u0006GSD4e_4.1.2-P1_RPATCH.05-F-GPS-4R-1510281 11/03/2015 307","activated":"2017-12-29T20:00:02.251Z","flags":1,"native":1,"bps":4800,"parity":"N","stopbits":1,"cycle":1.00}]}
2017-12-29 15:00:02 1514577602.264948: {"class":"WATCH","enable":true,"json":false,"nmea":true,"raw":0,"scaled":false,"timing":false,"split24":false,"pps":false}
2017-12-29 15:00:02 1514577602.699422: $GPGSV,3,1,12,01,22,289,35,03,10,316,38,10,36,153,48,12,17,040,42*79
2017-12-29 15:00:02 1514577602.699589: $GPGSV,3,2,12,14,70,354,43,22,29,310,40,25,41,076,51,31,69,238,47*71
2017-12-29 15:00:02 1514577602.699672: $GPGSV,3,3,12,32,63,057,51,26,13,180,12,18,07,147,22,138,38,213,43*4E
2017-12-29 15:00:02 1514577602.812806: $GPZDA,200003.00,29,12,2017,00,00*6B
2017-12-29 15:00:02 1514577602.812944: $GPGGA,200003,3946.9588,N,08404.9804,W,2,12,0.80,302.00,M,-33.324,M,,*79
2017-12-29 15:00:02 1514577602.813010: $GPRMC,200003,A,3946.9588,N,08404.9804,W,0.0000,0.000,291217,,*39
2017-12-29 15:00:02 1514577602.813070: $GPGSA,A,3,1,3,10,12,14,22,25,31,32,26,18,138,1.7,0.8,1.3*08
2017-12-29 15:00:03 1514577603.365056: $GPZDA,200004.00,29,12,2017,00,00*6C
2017-12-29 15:00:03 1514577603.365212: $GPGGA,200004,3946.9588,N,08404.9804,W,2,12,0.80,302.00,M,-33.324,M,,*7E
2017-12-29 15:00:03 1514577603.365293: $GPRMC,200004,A,3946.9588,N,08404.9804,W,0.0000,0.000,291217,,*3E
2017-12-29 15:00:03 1514577603.365355: $GPGSA,A,3,1,3,10,12,14,22,25,31,32,26,18,138,1.7,0.8,1.3*08
2017-12-29 15:00:04 1514577604.364891: $GPZDA,200005.00,29,12,2017,00,00*6D
2017-12-29 15:00:04 1514577604.365049: $GPGGA,200005,3946.9588,N,08404.9804,W,2,12,0.80,302.00,M,-33.324,M,,*7F
2017-12-29 15:00:04 1514577604.365116: $GPRMC,200005,A,3946.9588,N,08404.9804,W,0.0000,0.000,291217,,*3F
2017-12-29 15:00:04 1514577604.365176: $GPGSA,A,3,1,3,10,12,14,22,25,31,32,26,18,138,1.7,0.8,1.3*08
2017-12-29 15:00:05 1514577605.698540: $GPGSV,3,1,12,01,22,289,35,03,10,316,38,10,36,153,48,12,17,040,42*79
2017-12-29 15:00:05 1514577605.698705: $GPGSV,3,2,12,14,70,354,43,22,29,310,39,25,41,076,51,31,69,238,47*7F
2017-12-29 15:00:05 1514577605.698771: $GPGSV,3,3,12,32,63,057,51,26,13,180,28,18,07,147,22,138,38,213,44*40
2017-12-29 15:00:05 1514577605.811987: $GPZDA,200006.00,29,12,2017,00,00*6E
2017-12-29 15:00:05 1514577605.812159: $GPGGA,200006,3946.9588,N,08404.9804,W,2,12,0.80,302.00,M,-33.324,M,,*7C
2017-12-29 15:00:05 1514577605.812225: $GPRMC,200006,A,3946.9588,N,08404.9804,W,0.0000,0.000,291217,,*3C
2017-12-29 15:00:05 1514577605.812285: $GPGSA,A,3,1,3,10,12,14,22,25,31,32,26,18,138,1.7,0.8,1.3*08
2017-12-29 15:00:06 1514577606.364100: $GPZDA,200007.00,29,12,2017,00,00*6F
2017-12-29 15:00:06 1514577606.364265: $GPGGA,200007,3946.9588,N,08404.9804,W,2,12,0.80,302.00,M,-33.324,M,,*7D
2017-12-29 15:00:06 1514577606.364331: $GPRMC,200007,A,3946.9588,N,08404.9804,W,0.0000,0.000,291217,,*3D
2017-12-29 15:00:06 1514577606.364391: $GPGSA,A,3,1,3,10,12,14,22,25,31,32,26,18,138,1.7,0.8,1.3*08
2017-12-29 15:00:07 1514577607.364939: $GPZDA,200008.00,29,12,2017,00,00*60
2017-12-29 15:00:07 1514577607.365106: $GPGGA,200008,3946.9588,N,08404.9804,W,2,12,0.80,302.00,M,-33.324,M,,*72
2017-12-29 15:00:07 1514577607.365173: $GPRMC,200008,A,3946.9588,N,08404.9804,W,0.0000,0.000,291217,,*32
2017-12-29 15:00:07 1514577607.365234: $GPGSA,A,3,1,3,10,12,14,22,25,31,32,26,18,138,1.7,0.8,1.3*08
2017-12-29 15:00:08 1514577608.700641: $GPGSV,3,1,12,01,22,289,35,03,10,316,38,10,36,153,48,12,17,040,42*79
2017-12-29 15:00:08 1514577608.700816: $GPGSV,3,2,12,14,70,354,43,22,29,310,40,25,41,076,51,31,69,238,47*71
2017-12-29 15:00:08 1514577608.700883: $GPGSV,3,3,12,32,63,057,51,26,13,180,28,18,07,147,22,138,38,213,43*47
2017-12-29 15:00:08 1514577608.814034: $GPZDA,200009.00,29,12,2017,00,00*61
2017-12-29 15:00:08 1514577608.814187: $GPGGA,200009,3946.9588,N,08404.9804,W,2,12,0.80,302.00,M,-33.324,M,,*73
2017-12-29 15:00:08 1514577608.814321: $GPRMC,200009,A,3946.9588,N,08404.9804,W,0.0000,0.000,291217,,*33
2017-12-29 15:00:08 1514577608.814384: $GPGSA,A,3,1,3,10,12,14,22,25,31,32,26,18,138,1.7,0.8,1.3*08
2017-12-29 15:00:09 1514577609.439417: $GPZDA,200010.00,29,12,2017,00,00*69
2017-12-29 15:00:09 1514577609.439614: $GPGGA,200010,3946.9588,N,08404.9804,W,2,12,0.80,302.00,M,-33.324,M,,*7B
2017-12-29 15:00:09 1514577609.439681: $GPRMC,200010,A,3946.9588,N,08404.9804,W,0.0000,0.000,291217,,*3B
2017-12-29 15:00:09 1514577609.439742: $GPGSA,A,3,1,3,10,12,14,22,25,31,32,26,18,138,1.7,0.8,1.3*08
2017-12-29 15:00:10 1514577610.362778: $GPZDA,200011.00,29,12,2017,00,00*68
2017-12-29 15:00:10 1514577610.362960: $GPGGA,200011,3946.9588,N,08404.9804,W,2,12,0.80,302.00,M,-33.324,M,,*7A
2017-12-29 15:00:10 1514577610.363029: $GPRMC,200011,A,3946.9588,N,08404.9804,W,0.0000,0.000,291217,,*3A
2017-12-29 15:00:10 1514577610.363089: $GPGSA,A,3,1,3,10,12,14,22,25,31,32,26,18,138,1.7,0.8,1.3*08
2017-12-29 15:00:11 1514577611.705960: $GPGSV,3,1,12,01,22,289,35,03,10,316,38,10,36,153,48,12,17,040,43*78
2017-12-29 15:00:11 1514577611.706118: $GPGSV,3,2,12,14,70,354,43,22,29,310,39,25,41,076,51,31,69,238,48*70
2017-12-29 15:00:11 1514577611.706184: $GPGSV,3,3,12,32,63,057,51,11,04,273,38,18,07,147,21,138,38,213,42*49
2017-12-29 15:00:11 1514577611.819361: $GPZDA,200012.00,29,12,2017,00,00*6B
2017-12-29 15:00:11 1514577611.819493: $GPGGA,200012,3946.9588,N,08404.9804,W,2,12,0.80,302.00,M,-33.324,M,,*79
2017-12-29 15:00:11 1514577611.819572: $GPRMC,200012,A,3946.9588,N,08404.9804,W,0.0000,0.000,291217,,*39
2017-12-29 15:00:11 1514577611.819634: $GPGSA,A,3,1,3,10,12,14,22,25,31,32,11,18,138,1.7,0.8,1.3*0C
