2018-01-11 19:45:55 1515717955.090822: {"class":"VERSION","release":"3.16","rev":"3.16-4","proto_major":3,"proto_minor":11}
2018-01-11 19:45:55 1515717955.091184: {"class":"DEVICES","devices":[{"class":"DEVICE","path":"/dev/ttyUSB0","driver":"SiRF","subtype":"9\u0006GSD4e_4.1.2-P1_RPATCH.05-F-GPS-4R-1510281 11/03/2015 307","activated":"2018-01-12T00:45:54.527Z","flags":1,"native":1,"bps":4800,"parity":"N","stopbits":1,"cycle":1.00}]}
2018-01-11 19:45:55 1515717955.091296: {"class":"WATCH","enable":true,"json":false,"nmea":true,"raw":0,"scaled":false,"timing":false,"split24":false,"pps":false}
2018-01-11 19:45:56 1515717956.238819: $GPGSV,3,1,12,07,45,310,40,08,64,156,46,09,55,246,42,11,11,171,30*79
2018-01-11 19:45:56 1515717956.239000: $GPGSV,3,2,12,16,32,054,48,23,40,193,48,27,55,066,49,30,20,301,40*7D
2018-01-11 19:45:56 1515717956.239166: $GPGSV,3,3,12,21,01,031,00,26,06,066,22,28,06,250,28,138,38,213,44*48
2018-01-11 19:45:56 1515717956.352186: $GPZDA,004556.00,12,01,2018,00,00*6D
2018-01-11 19:45:56 1515717956.352325: $GPGGA,004556,3946.9601,N,08404.9848,W,2,11,0.80,307.02,M,-33.324,M,,*74
2018-01-11 19:45:56 1515717956.352391: $GPRMC,004556,A,3946.9601,N,08404.9848,W,0.0000,0.000,120118,,*35
2018-01-11 19:45:56 1515717956.352452: $GPGSA,A,3,7,8,9,11,16,23,27,30,26,28,138,,4.0,0.8,3.5*3A
2018-01-11 19:45:56 1515717956.803050: $GPZDA,004557.00,12,01,2018,00,00*6C
2018-01-11 19:45:56 1515717956.803189: $GPGGA,004557,3946.9598,N,08404.9849,W,2,11,0.80,307.78,M,-33.324,M,,*7A
2018-01-11 19:45:56 1515717956.803254: $GPRMC,004557,A,3946.9598,N,08404.9849,W,0.0000,0.000,120118,,*36
2018-01-11 19:45:56 1515717956.803315: $GPGSA,A,3,7,8,9,11,16,23,27,30,26,28,138,,4.0,0.8,3.5*3A
2018-01-11 19:45:57 1515717957.388955: $GPZDA,004558.00,12,01,2018,00,00*63
2018-01-11 19:45:57 1515717957.389201: $GPGGA,004558,3946.9598,N,08404.9849,W,2,11,0.80,307.78,M,-33.324,M,,*75
2018-01-11 19:45:57 1515717957.389268: $GPRMC,004558,A,3946.9598,N,08404.9849,W,0.0000,0.000,120118,,*39
2018-01-11 19:45:57 1515717957.389329: $GPGSA,A,3,7,8,9,11,16,23,27,30,26,28,138,,4.0,0.8,3.5*3A
2018-01-11 19:45:58 1515717958.721651: $GPGSV,3,1,12,07,45,310,40,08,64,156,45,09,55,246,42,11,11,171,30*7A
2018-01-11 19:45:58 1515717958.721816: $GPGSV,3,2,12,16,32,054,48,23,40,193,48,27,55,066,49,30,20,301,41*7C
2018-01-11 19:45:58 1515717958.721883: $GPGSV,3,3,12,21,01,031,00,26,06,066,22,28,06,250,28,138,38,213,44*48
2018-01-11 19:45:58 1515717958.835007: $GPZDA,004559.00,12,01,2018,00,00*62
2018-01-11 19:45:58 1515717958.835135: $GPGGA,004559,3946.9602,N,08404.9849,W,2,11,0.80,308.42,M,-33.324,M,,*72
2018-01-11 19:45:58 1515717958.835200: $GPRMC,004559,A,3946.9602,N,08404.9849,W,0.0000,0.000,120118,,*38
2018-01-11 19:45:58 1515717958.835261: $GPGSA,A,3,7,8,9,11,16,23,27,30,26,28,138,,4.0,0.8,3.5*3A
2018-01-11 19:45:59 1515717959.384988: $GPZDA,004600.00,12,01,2018,00,00*6D
2018-01-11 19:45:59 1515717959.385156: $GPGGA,004600,3946.9602,N,08404.9849,W,2,11,0.80,308.42,M,-33.324,M,,*7D
2018-01-11 19:45:59 1515717959.385225: $GPRMC,004600,A,3946.9602,N,08404.9849,W,0.0000,0.000,120118,,*37
2018-01-11 19:45:59 1515717959.385289: $GPGSA,A,3,7,8,9,11,16,23,27,30,26,28,138,,4.0,0.8,3.5*3A
2018-01-11 19:46:00 1515717960.385774: $GPZDA,004601.00,12,01,2018,00,00*6C
2018-01-11 19:46:00 1515717960.385926: $GPGGA,004601,3946.9598,N,08404.9843,W,2,11,0.80,309.27,M,-33.324,M,,*74
2018-01-11 19:46:00 1515717960.385995: $GPRMC,004601,A,3946.9598,N,08404.9843,W,0.0000,0.000,120118,,*3C
2018-01-11 19:46:00 1515717960.386059: $GPGSA,A,3,7,8,9,11,16,23,27,30,26,28,138,,4.0,0.8,3.5*3A
2018-01-11 19:46:01 1515717961.741244: $GPGSV,3,1,12,07,45,310,41,08,64,156,45,09,55,246,41,11,11,171,30*78
2018-01-11 19:46:01 1515717961.741392: $GPGSV,3,2,12,16,32,054,47,23,40,193,48,27,55,066,49,30,20,301,41*73
2018-01-11 19:46:01 1515717961.741479: $GPGSV,3,3,12,21,01,031,00,26,06,066,22,28,06,250,29,138,38,213,44*49
2018-01-11 19:46:01 1515717961.854840: $GPZDA,004602.00,12,01,2018,00,00*6F
2018-01-11 19:46:01 1515717961.854956: $GPGGA,004602,3946.9598,N,08404.9843,W,2,11,0.80,309.27,M,-33.324,M,,*77
2018-01-11 19:46:01 1515717961.855076: $GPRMC,004602,A,3946.9598,N,08404.9843,W,0.0000,0.000,120118,,*3F
2018-01-11 19:46:01 1515717961.855139: $GPGSA,A,3,7,8,9,11,16,23,27,30,26,28,138,,4.0,0.8,3.5*3A
2018-01-11 19:46:02 1515717962.401999: $GPZDA,004603.00,12,01,2018,00,00*6E
2018-01-11 19:46:02 1515717962.402164: $GPGGA,004603,3946.9598,N,08404.9843,W,2,11,0.80,309.27,M,-33.324,M,,*76
2018-01-11 19:46:02 1515717962.402231: $GPRMC,004603,A,3946.9598,N,08404.9843,W,0.0000,0.000,120118,,*3E
2018-01-11 19:46:02 1515717962.402292: $GPGSA,A,3,7,8,9,11,16,23,27,30,26,28,138,,4.0,0.8,3.5*3A
2018-01-11 19:46:03 1515717963.403581: $GPZDA,004604.00,12,01,2018,00,00*69
2018-01-11 19:46:03 1515717963.403751: $GPGGA,004604,3946.9598,N,08404.9843,W,2,11,0.80,309.27,M,-33.324,M,,*71
2018-01-11 19:46:03 1515717963.403817: $GPRMC,004604,A,3946.9598,N,08404.9843,W,0.0000,0.000,120118,,*39
2018-01-11 19:46:03 1515717963.403879: $GPGSA,A,3,7,8,9,11,16,23,27,30,26,28,138,,4.0,0.8,3.5*3A
