2017-12-29 11:09:16 1514563756.966305: {"class":"VERSION","release":"3.16","rev":"3.16-4","proto_major":3,"proto_minor":11}
2017-12-29 11:09:16 1514563756.966640: {"class":"DEVICES","devices":[{"class":"DEVICE","path":"/dev/ttyUSB0","driver":"SiRF","subtype":"9\u0006GSD4e_4.1.2-P1_RPATCH.05-F-GPS-4R-1510281 11/03/2015 307","activated":"2017-12-29T16:09:16.930Z","flags":1,"native":1,"bps":4800,"parity":"N","stopbits":1,"cycle":1.00}]}
2017-12-29 11:09:16 1514563756.966752: {"class":"WATCH","enable":true,"json":false,"nmea":true,"raw":0,"scaled":false,"timing":false,"split24":false,"pps":false}
2017-12-29 11:09:17 1514563757.907137: $GPZDA,160918.57,29,12,2017,00,00*6F
2017-12-29 11:09:17 1514563757.907314: $GPGGA,160918,3946.9583,N,08404.9869,W,1,11,1.00,315.66,M,-33.324,M,,*70
2017-12-29 11:09:17 1514563757.907381: $GPRMC,160918,A,3946.9583,N,08404.9869,W,0.2872,15.166,291217,,*05
2017-12-29 11:09:17 1514563757.907442: $GPGSA,A,3,10,15,18,20,21,24,27,32,8,13,138,,1.7,1.0,1.3*38
2017-12-29 11:09:17 1514563757.907501: $GPGBS,160918,10.91,M,10.38,M,30.89,M*08
2017-12-29 11:09:18 1514563758.988678: $GPZDA,160919.25,29,12,2017,00,00*6B
2017-12-29 11:09:18 1514563758.988858: $GPGGA,160919,3946.9579,N,08404.9869,W,1,11,1.00,315.02,M,-33.324,M,,*76
2017-12-29 11:09:18 1514563758.988923: $GPRMC,160919,A,3946.9579,N,08404.9869,W,0.2872,15.166,291217,,*01
2017-12-29 11:09:18 1514563758.988984: $GPGSA,A,3,10,15,18,20,21,24,27,32,8,13,138,,1.7,1.0,1.3*38
2017-12-29 11:09:20 1514563760.131305: $GPGSV,3,1,12,08,04,325,34,10,39,298,42,15,40,051,50,18,69,331,43*78
2017-12-29 11:09:20 1514563760.131478: $GPGSV,3,2,12,20,37,093,49,21,67,193,46,24,49,115,47,27,19,292,40*7C
2017-12-29 11:09:20 1514563760.131544: $GPGSV,3,3,12,32,19,235,39,13,10,048,00,14,01,231,00,138,38,213,15*43
2017-12-29 11:09:20 1514563760.244673: $GPZDA,160920.00,29,12,2017,00,00*66
2017-12-29 11:09:20 1514563760.244810: $GPGGA,160920,3946.9583,N,08404.9868,W,1,10,1.00,314.25,M,-33.324,M,,*7D
2017-12-29 11:09:20 1514563760.244875: $GPRMC,160920,A,3946.9583,N,08404.9868,W,0.2710,100.223,291217,,*33
2017-12-29 11:09:20 1514563760.244936: $GPGSA,A,3,8,10,15,18,20,21,24,27,32,138,,,1.7,1.0,1.3*3A
2017-12-29 11:09:20 1514563760.695795: $GPZDA,160921.00,29,12,2017,00,00*67
2017-12-29 11:09:20 1514563760.695945: $GPGGA,160921,3946.9581,N,08404.9860,W,1,10,1.00,312.93,M,-33.324,M,,*7D
2017-12-29 11:09:20 1514563760.696011: $GPRMC,160921,A,3946.9581,N,08404.9860,W,0.0407,142.014,291217,,*3F
2017-12-29 11:09:20 1514563760.696071: $GPGSA,A,3,8,10,15,18,20,21,24,27,32,138,,,1.7,1.0,1.3*3A
2017-12-29 11:09:21 1514563761.395477: $GPZDA,160922.00,29,12,2017,00,00*64
2017-12-29 11:09:21 1514563761.395655: $GPGGA,160922,3946.9581,N,08404.9860,W,1,10,1.00,312.93,M,-33.324,M,,*7E
2017-12-29 11:09:21 1514563761.395721: $GPRMC,160922,A,3946.9581,N,08404.9860,W,0.0000,0.000,291217,,*3D
2017-12-29 11:09:21 1514563761.395781: $GPGSA,A,3,8,10,15,18,20,21,24,27,32,138,,,1.7,1.0,1.3*3A
2017-12-29 11:09:22 1514563762.730361: $GPGSV,3,1,12,08,04,325,33,10,39,298,41,15,40,051,49,18,69,331,42*75
2017-12-29 11:09:22 1514563762.736296: $GPGSV,3,2,12,20,37,093,48,21,67,193,46,24,49,115,46,27,19,292,39*72
2017-12-29 11:09:22 1514563762.736423: $GPGSV,3,3,12,32,19,235,38,13,10,048,29,14,01,231,00,138,38,213,46*4F
2017-12-29 11:09:22 1514563762.844091: $GPZDA,160923.00,29,12,2017,00,00*65
2017-12-29 11:09:22 1514563762.844241: $GPGGA,160923,3946.9581,N,08404.9860,W,1,11,1.00,311.53,M,-33.324,M,,*71
2017-12-29 11:09:22 1514563762.844307: $GPRMC,160923,A,3946.9581,N,08404.9860,W,0.0000,0.000,291217,,*3C
2017-12-29 11:09:22 1514563762.844368: $GPGSA,A,3,8,10,15,18,20,21,24,27,32,13,138,,1.7,1.0,1.3*38
2017-12-29 11:09:23 1514563763.396205: $GPZDA,160924.00,29,12,2017,00,00*62
2017-12-29 11:09:23 1514563763.396364: $GPGGA,160924,3946.9584,N,08404.9859,W,1,11,1.00,310.76,M,-33.324,M,,*7F
2017-12-29 11:09:23 1514563763.396430: $GPRMC,160924,A,3946.9584,N,08404.9859,W,0.0000,0.000,291217,,*34
2017-12-29 11:09:23 1514563763.396491: $GPGSA,A,3,8,10,15,18,20,21,24,27,32,13,138,,1.7,1.0,1.3*38
2017-12-29 11:09:24 1514563764.398242: $GPZDA,160925.00,29,12,2017,00,00*63
2017-12-29 11:09:24 1514563764.398401: $GPGGA,160925,3946.9580,N,08404.9859,W,1,11,1.00,310.12,M,-33.324,M,,*78
2017-12-29 11:09:24 1514563764.398487: $GPRMC,160925,A,3946.9580,N,08404.9859,W,0.1867,180.000,291217,,*30
2017-12-29 11:09:24 1514563764.398549: $GPGSA,A,3,8,10,15,18,20,21,24,27,32,13,138,,1.7,1.0,1.3*38
2017-12-29 11:09:24 1514563764.398608: $GPGBS,160925,10.91,M,10.38,M,30.89,M*06
2017-12-29 11:09:25 1514563765.733605: $GPGSV,3,1,12,08,04,325,33,10,39,298,41,15,40,051,49,18,69,331,42*75
2017-12-29 11:09:25 1514563765.733769: $GPGSV,3,2,12,20,37,093,48,21,67,193,45,24,49,115,46,27,19,292,39*71
2017-12-29 11:09:25 1514563765.733835: $GPGSV,3,3,12,32,19,235,38,13,10,048,28,14,01,231,00,138,38,213,46*4E
2017-12-29 11:09:25 1514563765.847321: $GPZDA,160926.00,29,12,2017,00,00*60
2017-12-29 11:09:25 1514563765.847456: $GPGGA,160926,3946.9580,N,08404.9855,W,2,11,1.60,302.34,M,-33.324,M,,*75
2017-12-29 11:09:25 1514563765.847522: $GPRMC,160926,A,3946.9580,N,08404.9855,W,0.0000,0.000,291217,,*3E
2017-12-29 11:09:25 1514563765.847583: $GPGSA,A,3,8,10,15,18,20,21,24,27,32,13,138,,1.7,1.6,1.3*3E
2017-12-29 11:09:26 1514563766.399430: $GPZDA,160927.00,29,12,2017,00,00*61
2017-12-29 11:09:26 1514563766.399585: $GPGGA,160927,3946.9576,N,08404.9855,W,2,11,1.00,303.10,M,-33.324,M,,*7C
2017-12-29 11:09:26 1514563766.399651: $GPRMC,160927,A,3946.9576,N,08404.9855,W,0.0000,0.000,291217,,*36
2017-12-29 11:09:26 1514563766.399713: $GPGSA,A,3,8,10,15,18,20,21,24,27,32,13,138,,1.7,1.0,1.3*38
2017-12-29 11:09:27 1514563767.397340: $GPZDA,160928.00,29,12,2017,00,00*6E
2017-12-29 11:09:27 1514563767.397510: $GPGGA,160928,3946.9581,N,08404.9855,W,2,11,1.00,303.74,M,-33.324,M,,*79
2017-12-29 11:09:27 1514563767.397575: $GPRMC,160928,A,3946.9581,N,08404.9855,W,0.0000,0.000,291217,,*31
2017-12-29 11:09:27 1514563767.397636: $GPGSA,A,3,8,10,15,18,20,21,24,27,32,13,138,,1.7,1.0,1.3*38
2017-12-29 11:09:28 1514563768.734011: $GPGSV,3,1,12,08,04,325,32,10,39,298,41,15,40,051,49,18,69,331,42*74
2017-12-29 11:09:28 1514563768.734175: $GPGSV,3,2,12,20,37,093,48,21,67,193,45,24,49,115,46,27,19,292,39*71
2017-12-29 11:09:28 1514563768.734241: $GPGSV,3,3,12,32,19,235,38,13,10,048,28,14,01,231,00,138,38,213,45*4D
2017-12-29 11:09:28 1514563768.847659: $GPZDA,160929.00,29,12,2017,00,00*6F
2017-12-29 11:09:28 1514563768.847804: $GPGGA,160929,3946.9581,N,08404.9855,W,2,11,1.00,303.74,M,-33.324,M,,*78
2017-12-29 11:09:28 1514563768.847868: $GPRMC,160929,A,3946.9581,N,08404.9855,W,0.0000,0.000,291217,,*30
2017-12-29 11:09:28 1514563768.847929: $GPGSA,A,3,8,10,15,18,20,21,24,27,32,13,138,,1.7,1.0,1.3*38
2017-12-29 11:09:29 1514563769.397266: $GPZDA,160930.00,29,12,2017,00,00*67
2017-12-29 11:09:29 1514563769.397433: $GPGGA,160930,3946.9581,N,08404.9855,W,2,11,1.00,303.74,M,-33.324,M,,*70
2017-12-29 11:09:29 1514563769.397499: $GPRMC,160930,A,3946.9581,N,08404.9855,W,0.0000,0.000,291217,,*38
2017-12-29 11:09:29 1514563769.397559: $GPGSA,A,3,8,10,15,18,20,21,24,27,32,13,138,,1.7,1.0,1.3*38
2017-12-29 11:09:30 1514563770.403143: $GPZDA,160931.00,29,12,2017,00,00*66
2017-12-29 11:09:30 1514563770.403310: $GPGGA,160931,3946.9584,N,08404.9855,W,2,11,1.00,302.98,M,-33.324,M,,*77
2017-12-29 11:09:30 1514563770.403377: $GPRMC,160931,A,3946.9584,N,08404.9855,W,0.0000,0.000,291217,,*3C
2017-12-29 11:09:30 1514563770.403437: $GPGSA,A,3,8,10,15,18,20,21,24,27,32,13,138,,1.7,1.0,1.3*38
2017-12-29 11:09:31 1514563771.736094: $GPGSV,3,1,12,08,04,325,32,10,39,298,41,15,40,051,49,18,69,331,42*74
2017-12-29 11:09:31 1514563771.736258: $GPGSV,3,2,12,20,37,093,48,21,67,193,45,24,49,115,46,27,19,292,38*70
2017-12-29 11:09:31 1514563771.736323: $GPGSV,3,3,12,32,19,235,38,13,10,048,28,14,01,231,14,138,38,213,45*48
2017-12-29 11:09:31 1514563771.849720: $GPZDA,160932.00,29,12,2017,00,00*65
2017-12-29 11:09:31 1514563771.849859: $GPGGA,160932,3946.9584,N,08404.9855,W,2,11,1.00,302.98,M,-33.324,M,,*74
2017-12-29 11:09:31 1514563771.849924: $GPRMC,160932,A,3946.9584,N,08404.9855,W,0.0000,0.000,291217,,*3F
2017-12-29 11:09:31 1514563771.850035: $GPGSA,A,3,8,10,15,18,20,21,24,27,32,13,138,,1.7,1.0,1.3*38
2017-12-29 11:09:32 1514563772.475106: $GPZDA,160933.00,29,12,2017,00,00*64
2017-12-29 11:09:32 1514563772.475268: $GPGGA,160933,3946.9577,N,08404.9856,W,2,11,1.00,304.50,M,-33.324,M,,*78
2017-12-29 11:09:32 1514563772.475334: $GPRMC,160933,A,3946.9577,N,08404.9856,W,0.3423,4.196,291217,,*3D
2017-12-29 11:09:32 1514563772.475395: $GPGSA,A,3,8,10,15,18,20,21,24,27,32,13,138,,1.7,1.0,1.3*38
2017-12-29 11:09:33 1514563773.394725: $GPZDA,160934.00,29,12,2017,00,00*63
2017-12-29 11:09:33 1514563773.394887: $GPGGA,160934,3946.9577,N,08404.9856,W,2,11,1.00,304.50,M,-33.324,M,,*7F
2017-12-29 11:09:33 1514563773.394953: $GPRMC,160934,A,3946.9577,N,08404.9856,W,0.3155,309.994,291217,,*3A
2017-12-29 11:09:33 1514563773.395014: $GPGSA,A,3,8,10,15,18,20,21,24,27,32,13,138,,1.7,1.0,1.3*38
2017-12-29 11:09:34 1514563774.731490: $GPGSV,3,1,12,08,04,325,26,10,39,298,40,15,40,051,48,18,69,331,41*72
2017-12-29 11:09:34 1514563774.731643: $GPGSV,3,2,12,20,37,093,47,21,67,193,44,24,49,115,45,27,19,292,33*76
2017-12-29 11:09:34 1514563774.731709: $GPGSV,3,3,12,32,19,235,38,13,10,048,27,14,01,231,00,138,38,213,45*42
2017-12-29 11:09:34 1514563774.845086: $GPZDA,160935.00,29,12,2017,00,00*62
2017-12-29 11:09:34 1514563774.845220: $GPGGA,160935,3946.9581,N,08404.9856,W,2,11,1.00,305.14,M,-33.324,M,,*76
2017-12-29 11:09:34 1514563774.845286: $GPRMC,160935,A,3946.9581,N,08404.9856,W,0.0000,0.000,291217,,*3E
2017-12-29 11:09:34 1514563774.845346: $GPGSA,A,3,8,10,15,18,20,21,24,27,32,13,138,,1.7,1.0,1.3*38
2017-12-29 11:09:35 1514563775.394694: $GPZDA,160936.00,29,12,2017,00,00*61
2017-12-29 11:09:35 1514563775.394873: $GPGGA,160936,3946.9581,N,08404.9856,W,2,11,1.00,305.14,M,-33.324,M,,*75
2017-12-29 11:09:35 1514563775.394939: $GPRMC,160936,A,3946.9581,N,08404.9856,W,0.3423,4.196,291217,,*31
2017-12-29 11:09:35 1514563775.395000: $GPGSA,A,3,8,10,15,18,20,21,24,27,32,13,138,,1.7,1.0,1.3*38
2017-12-29 11:09:36 1514563776.396895: $GPZDA,160937.00,29,12,2017,00,00*60
2017-12-29 11:09:36 1514563776.397057: $GPGGA,160937,3946.9581,N,08404.9856,W,2,11,1.00,305.14,M,-33.324,M,,*74
2017-12-29 11:09:36 1514563776.397124: $GPRMC,160937,A,3946.9581,N,08404.9856,W,0.0000,0.000,291217,,*3C
2017-12-29 11:09:36 1514563776.397184: $GPGSA,A,3,8,10,15,18,20,21,24,27,32,13,138,,1.7,1.0,1.3*38
2017-12-29 11:09:36 1514563776.397242: $GPGBS,160937,2.73,M,2.59,M,7.72,M*3E
2017-12-29 11:09:37 1514563777.735500: $GPGSV,3,1,12,08,04,325,27,10,39,298,41,15,40,051,48,18,69,331,42*71
2017-12-29 11:09:37 1514563777.735683: $GPGSV,3,2,12,20,37,093,48,21,67,193,44,24,49,115,46,27,19,292,34*7D
2017-12-29 11:09:37 1514563777.735767: $GPGSV,3,3,12,32,19,235,37,13,10,048,28,14,01,231,00,138,38,213,44*43
2017-12-29 11:09:37 1514563777.849161: $GPZDA,160938.00,29,12,2017,00,00*6F
2017-12-29 11:09:37 1514563777.849296: $GPGGA,160938,3946.9581,N,08404.9856,W,2,11,1.00,305.14,M,-33.324,M,,*7B
2017-12-29 11:09:37 1514563777.849362: $GPRMC,160938,A,3946.9581,N,08404.9856,W,0.0000,0.000,291217,,*33
2017-12-29 11:09:37 1514563777.849422: $GPGSA,A,3,8,10,15,18,20,21,24,27,32,13,138,,1.7,1.0,1.3*38
2017-12-29 11:09:38 1514563778.399659: $GPZDA,160939.00,29,12,2017,00,00*6E
2017-12-29 11:09:38 1514563778.399837: $GPGGA,160939,3946.9581,N,08404.9856,W,2,11,1.00,305.14,M,-33.324,M,,*7A
2017-12-29 11:09:38 1514563778.399904: $GPRMC,160939,A,3946.9581,N,08404.9856,W,0.0000,0.000,291217,,*32
2017-12-29 11:09:38 1514563778.399965: $GPGSA,A,3,8,10,15,18,20,21,24,27,32,13,138,,1.7,1.0,1.3*38
2017-12-29 11:09:39 1514563779.396779: $GPZDA,160940.00,29,12,2017,00,00*60
2017-12-29 11:09:39 1514563779.396936: $GPGGA,160940,3946.9581,N,08404.9856,W,2,11,1.00,305.14,M,-33.324,M,,*74
2017-12-29 11:09:39 1514563779.397003: $GPRMC,160940,A,3946.9581,N,08404.9856,W,0.0000,0.000,291217,,*3C
2017-12-29 11:09:39 1514563779.397065: $GPGSA,A,3,8,10,15,18,20,21,24,27,32,13,138,,1.7,1.0,1.3*38
2017-12-29 11:09:40 1514563780.732555: $GPGSV,3,1,12,08,04,325,27,10,39,298,41,15,40,051,48,18,69,331,42*71
2017-12-29 11:09:40 1514563780.732781: $GPGSV,3,2,12,20,37,093,47,21,67,193,44,24,49,115,46,27,19,292,33*75
2017-12-29 11:09:40 1514563780.732851: $GPGSV,3,3,12,32,19,235,37,13,10,048,28,14,01,231,00,138,38,213,44*43
2017-12-29 11:09:40 1514563780.845953: $GPZDA,160941.00,29,12,2017,00,00*61
2017-12-29 11:09:40 1514563780.846091: $GPGGA,160941,3946.9581,N,08404.9856,W,2,11,1.00,305.14,M,-33.324,M,,*75
2017-12-29 11:09:40 1514563780.846157: $GPRMC,160941,A,3946.9581,N,08404.9856,W,0.0000,0.000,291217,,*3D
2017-12-29 11:09:40 1514563780.846217: $GPGSA,A,3,8,10,15,18,20,21,24,27,32,13,138,,1.7,1.0,1.3*38
2017-12-29 11:09:41 1514563781.399345: $GPZDA,160942.00,29,12,2017,00,00*62
2017-12-29 11:09:41 1514563781.399532: $GPGGA,160942,3946.9581,N,08404.9856,W,2,11,1.00,305.14,M,-33.324,M,,*76
2017-12-29 11:09:41 1514563781.399600: $GPRMC,160942,A,3946.9581,N,08404.9856,W,0.0000,0.000,291217,,*3E
2017-12-29 11:09:41 1514563781.399660: $GPGSA,A,3,8,10,15,18,20,21,24,27,32,13,138,,1.7,1.0,1.3*38
