2017-12-01 15:31:25 1512160285.697297: {"class":"VERSION","release":"3.16","rev":"3.16-4","proto_major":3,"proto_minor":11}
2017-12-01 15:31:25 1512160285.697695: {"class":"DEVICES","devices":[{"class":"DEVICE","path":"/dev/ttyUSB0","driver":"SiRF","subtype":"9\u0006GSD4e_4.1.2-P1_RPATCH.05-F-GPS-4R-1510281 11/03/2015 307","activated":"2017-12-01T20:31:25.578Z","flags":1,"native":1,"bps":4800,"parity":"N","stopbits":1,"cycle":1.00}]}
2017-12-01 15:31:25 1512160285.697818: {"class":"WATCH","enable":true,"json":false,"nmea":true,"raw":0,"scaled":false,"timing":false,"split24":false,"pps":false}
2017-12-01 15:31:26 1512160286.763906: $GPGSV,3,1,11,01,10,322,43,10,76,120,47,11,10,307,38,12,24,078,44*7B
2017-12-01 15:31:26 1512160286.764089: $GPGSV,3,2,11,14,50,283,42,18,43,130,47,24,19,045,44,25,25,120,46*76
2017-12-01 15:31:26 1512160286.764155: $GPGSV,3,3,11,31,28,210,47,32,65,313,48,138,38,213,46*7D
2017-12-01 15:31:26 1512160286.877300: $GPZDA,203127.00,01,12,2017,00,00*65
2017-12-01 15:31:26 1512160286.877433: $GPGGA,203127,3946.9580,N,08404.9851,W,2,11,0.80,295.95,M,-33.324,M,,*75
2017-12-01 15:31:26 1512160286.877499: $GPRMC,203127,A,3946.9580,N,08404.9851,W,0.0000,0.000,011217,,*3F
2017-12-01 15:31:26 1512160286.877559: $GPGSA,A,3,1,10,11,12,14,18,24,25,31,32,138,,2.0,0.8,1.5*3B
2017-12-01 15:31:27 1512160287.503242: $GPZDA,203128.00,01,12,2017,00,00*6A
2017-12-01 15:31:27 1512160287.503425: $GPGGA,203128,3946.9580,N,08404.9851,W,2,11,0.80,295.95,M,-33.324,M,,*7A
2017-12-01 15:31:27 1512160287.503511: $GPRMC,203128,A,3946.9580,N,08404.9851,W,0.0000,0.000,011217,,*30
2017-12-01 15:31:27 1512160287.503574: $GPGSA,A,3,1,10,11,12,14,18,24,25,31,32,138,,2.0,0.8,1.5*3B
2017-12-01 15:31:28 1512160288.434772: $GPZDA,203129.00,01,12,2017,00,00*6B
2017-12-01 15:31:28 1512160288.434944: $GPGGA,203129,3946.9580,N,08404.9851,W,2,11,0.80,295.95,M,-33.324,M,,*7B
2017-12-01 15:31:28 1512160288.435011: $GPRMC,203129,A,3946.9580,N,08404.9851,W,0.0000,0.000,011217,,*31
2017-12-01 15:31:28 1512160288.435071: $GPGSA,A,3,1,10,11,12,14,18,24,25,31,32,138,,2.0,0.8,1.5*3B
2017-12-01 15:31:29 1512160289.770467: $GPGSV,3,1,11,01,10,322,43,10,76,120,47,11,10,307,38,12,24,078,44*7B
2017-12-01 15:31:29 1512160289.770646: $GPGSV,3,2,11,14,50,283,42,18,43,130,47,24,19,045,44,25,25,120,46*76
2017-12-01 15:31:29 1512160289.770712: $GPGSV,3,3,11,31,28,210,47,32,65,313,49,138,38,213,45*7F
2017-12-01 15:31:29 1512160289.883897: $GPZDA,203130.00,01,12,2017,00,00*63
2017-12-01 15:31:29 1512160289.884051: $GPGGA,203130,3946.9580,N,08404.9851,W,2,11,0.80,295.95,M,-33.324,M,,*73
2017-12-01 15:31:29 1512160289.884116: $GPRMC,203130,A,3946.9580,N,08404.9851,W,0.0000,0.000,011217,,*39
2017-12-01 15:31:29 1512160289.884176: $GPGSA,A,3,1,10,11,12,14,18,24,25,31,32,138,,2.0,0.8,1.5*3B
2017-12-01 15:31:30 1512160290.451033: $GPZDA,203131.00,01,12,2017,00,00*62
2017-12-01 15:31:30 1512160290.451231: $GPGGA,203131,3946.9580,N,08404.9851,W,2,11,0.80,295.95,M,-33.324,M,,*72
2017-12-01 15:31:30 1512160290.451318: $GPRMC,203131,A,3946.9580,N,08404.9851,W,0.0000,0.000,011217,,*38
2017-12-01 15:31:30 1512160290.451441: $GPGSA,A,3,1,10,11,12,14,18,24,25,31,32,138,,2.0,0.8,1.5*3B
2017-12-01 15:31:31 1512160291.449417: $GPZDA,203132.00,01,12,2017,00,00*61
2017-12-01 15:31:31 1512160291.449587: $GPGGA,203132,3946.9577,N,08404.9852,W,2,11,0.80,296.72,M,-33.324,M,,*70
2017-12-01 15:31:31 1512160291.449654: $GPRMC,203132,A,3946.9577,N,08404.9852,W,0.0000,0.000,011217,,*30
2017-12-01 15:31:31 1512160291.449715: $GPGSA,A,3,1,10,11,12,14,18,24,25,31,32,138,,2.0,0.8,1.5*3B
2017-12-01 15:31:32 1512160292.787096: $GPGSV,3,1,11,01,10,322,43,10,76,120,47,11,10,307,39,12,24,078,44*7A
2017-12-01 15:31:32 1512160292.830833: $GPGSV,3,2,11,14,50,283,42,18,43,130,47,24,19,045,44,25,25,120,46*76
2017-12-01 15:31:32 1512160292.830978: $GPGSV,3,3,11,31,28,210,47,32,65,313,49,138,38,213,46*7C
2017-12-01 15:31:32 1512160292.900515: $GPZDA,203133.00,01,12,2017,00,00*60
2017-12-01 15:31:32 1512160292.900670: $GPGGA,203133,3946.9577,N,08404.9852,W,2,11,0.80,296.72,M,-33.324,M,,*71
2017-12-01 15:31:32 1512160292.900785: $GPRMC,203133,A,3946.9577,N,08404.9852,W,0.0000,0.000,011217,,*31
2017-12-01 15:31:32 1512160292.900847: $GPGSA,A,3,1,10,11,12,14,18,24,25,31,32,138,,2.0,0.8,1.5*3B
2017-12-01 15:31:33 1512160293.451455: $GPZDA,203134.00,01,12,2017,00,00*67
2017-12-01 15:31:33 1512160293.451629: $GPGGA,203134,3946.9577,N,08404.9852,W,2,11,0.80,296.72,M,-33.324,M,,*76
2017-12-01 15:31:33 1512160293.451695: $GPRMC,203134,A,3946.9577,N,08404.9852,W,0.0000,0.000,011217,,*36
2017-12-01 15:31:33 1512160293.451756: $GPGSA,A,3,1,10,11,12,14,18,24,25,31,32,138,,2.0,0.8,1.5*3B
2017-12-01 15:31:34 1512160294.450159: $GPZDA,203135.00,01,12,2017,00,00*66
2017-12-01 15:31:34 1512160294.450351: $GPGGA,203135,3946.9577,N,08404.9852,W,2,11,0.80,296.72,M,-33.324,M,,*77
2017-12-01 15:31:34 1512160294.450446: $GPRMC,203135,A,3946.9577,N,08404.9852,W,0.0000,0.000,011217,,*37
2017-12-01 15:31:34 1512160294.450509: $GPGSA,A,3,1,10,11,12,14,18,24,25,31,32,138,,2.0,0.8,1.5*3B
2017-12-01 15:31:35 1512160295.769302: $GPGSV,3,1,11,01,10,322,43,10,76,120,47,11,10,307,39,12,24,078,43*7D
2017-12-01 15:31:35 1512160295.769483: $GPGSV,3,2,11,14,50,283,42,18,43,130,46,24,19,045,44,25,25,120,46*77
2017-12-01 15:31:35 1512160295.769549: $GPGSV,3,3,11,31,28,210,47,32,65,313,48,138,38,213,45*7E
2017-12-01 15:31:35 1512160295.882820: $GPZDA,203136.00,01,12,2017,00,00*65
2017-12-01 15:31:35 1512160295.883011: $GPGGA,203136,3946.9577,N,08404.9852,W,2,11,0.80,296.72,M,-33.324,M,,*74
2017-12-01 15:31:35 1512160295.883079: $GPRMC,203136,A,3946.9577,N,08404.9852,W,0.0000,0.000,011217,,*34
2017-12-01 15:31:35 1512160295.883141: $GPGSA,A,3,1,10,11,12,14,18,24,25,31,32,138,,2.0,0.8,1.5*3B
2017-12-01 15:31:36 1512160296.434867: $GPZDA,203137.00,01,12,2017,00,00*64
2017-12-01 15:31:36 1512160296.435041: $GPGGA,203137,3946.9577,N,08404.9852,W,2,11,0.80,296.72,M,-33.324,M,,*75
2017-12-01 15:31:36 1512160296.435108: $GPRMC,203137,A,3946.9577,N,08404.9852,W,0.0000,0.000,011217,,*35
2017-12-01 15:31:36 1512160296.435169: $GPGSA,A,3,1,10,11,12,14,18,24,25,31,32,138,,2.0,0.8,1.5*3B
2017-12-01 15:31:37 1512160297.433979: $GPZDA,203138.00,01,12,2017,00,00*6B
2017-12-01 15:31:37 1512160297.434156: $GPGGA,203138,3946.9577,N,08404.9852,W,2,11,0.80,296.72,M,-33.324,M,,*7A
2017-12-01 15:31:37 1512160297.434222: $GPRMC,203138,A,3946.9577,N,08404.9852,W,0.0000,0.000,011217,,*3A
2017-12-01 15:31:37 1512160297.434283: $GPGSA,A,3,1,10,11,12,14,18,24,25,31,32,138,,2.0,0.8,1.5*3B
2017-12-01 15:31:38 1512160298.784712: $GPGSV,3,1,11,01,10,322,43,10,76,120,47,11,10,307,39,12,24,078,43*7D
2017-12-01 15:31:38 1512160298.784893: $GPGSV,3,2,11,14,50,283,42,18,43,130,46,24,19,045,44,25,25,120,46*77
2017-12-01 15:31:38 1512160298.784960: $GPGSV,3,3,11,31,28,210,47,32,65,313,48,138,38,213,46*7D
2017-12-01 15:31:38 1512160298.898126: $GPZDA,203139.00,01,12,2017,00,00*6A
2017-12-01 15:31:38 1512160298.898318: $GPGGA,203139,3946.9577,N,08404.9852,W,2,11,0.80,296.72,M,-33.324,M,,*7B
2017-12-01 15:31:38 1512160298.898411: $GPRMC,203139,A,3946.9577,N,08404.9852,W,0.0000,0.000,011217,,*3B
2017-12-01 15:31:38 1512160298.898473: $GPGSA,A,3,1,10,11,12,14,18,24,25,31,32,138,,2.0,0.8,1.5*3B
2017-12-01 15:31:39 1512160299.432772: $GPZDA,203140.00,01,12,2017,00,00*64
2017-12-01 15:31:39 1512160299.432950: $GPGGA,203140,3946.9577,N,08404.9852,W,2,11,0.80,296.72,M,-33.324,M,,*75
2017-12-01 15:31:39 1512160299.433018: $GPRMC,203140,A,3946.9577,N,08404.9852,W,0.0000,0.000,011217,,*35
2017-12-01 15:31:39 1512160299.433078: $GPGSA,A,3,1,10,11,12,14,18,24,25,31,32,138,,2.0,0.8,1.5*3B
2017-12-01 15:31:40 1512160300.449847: $GPZDA,203141.00,01,12,2017,00,00*65
2017-12-01 15:31:40 1512160300.450019: $GPGGA,203141,3946.9573,N,08404.9845,W,2,11,0.80,297.56,M,-33.324,M,,*71
2017-12-01 15:31:40 1512160300.450085: $GPRMC,203141,A,3946.9573,N,08404.9845,W,0.0000,0.000,011217,,*36
2017-12-01 15:31:40 1512160300.450145: $GPGSA,A,3,1,10,11,12,14,18,24,25,31,32,138,,2.0,0.8,1.5*3B
2017-12-01 15:31:41 1512160301.785541: $GPGSV,3,1,11,01,10,322,44,10,76,120,48,11,10,307,38,12,24,078,43*74
2017-12-01 15:31:41 1512160301.785775: $GPGSV,3,2,11,14,50,283,42,18,43,130,46,24,19,045,44,25,25,120,46*77
2017-12-01 15:31:41 1512160301.785844: $GPGSV,3,3,11,31,28,210,47,32,65,313,48,138,38,213,46*7D
2017-12-01 15:31:41 1512160301.898977: $GPZDA,203142.00,01,12,2017,00,00*66
2017-12-01 15:31:41 1512160301.899147: $GPGGA,203142,3946.9573,N,08404.9845,W,2,11,0.80,297.56,M,-33.324,M,,*72
2017-12-01 15:31:41 1512160301.899214: $GPRMC,203142,A,3946.9573,N,08404.9845,W,0.0000,0.000,011217,,*35
2017-12-01 15:31:41 1512160301.899298: $GPGSA,A,3,1,10,11,12,14,18,24,25,31,32,138,,2.0,0.8,1.5*3B
2017-12-01 15:31:42 1512160302.524769: $GPZDA,203143.00,01,12,2017,00,00*67
2017-12-01 15:31:42 1512160302.524957: $GPGGA,203143,3946.9573,N,08404.9845,W,2,11,0.80,297.56,M,-33.324,M,,*73
2017-12-01 15:31:42 1512160302.525029: $GPRMC,203143,A,3946.9573,N,08404.9845,W,0.0000,0.000,011217,,*34
2017-12-01 15:31:42 1512160302.525092: $GPGSA,A,3,1,10,11,12,14,18,24,25,31,32,138,,2.0,0.8,1.5*3B
2017-12-01 15:31:43 1512160303.432817: $GPZDA,203144.00,01,12,2017,00,00*60
2017-12-01 15:31:43 1512160303.432989: $GPGGA,203144,3946.9573,N,08404.9845,W,2,11,0.80,297.56,M,-33.324,M,,*74
2017-12-01 15:31:43 1512160303.433059: $GPRMC,203144,A,3946.9573,N,08404.9845,W,0.0000,0.000,011217,,*33
2017-12-01 15:31:43 1512160303.433123: $GPGSA,A,3,1,10,11,12,14,18,24,25,31,32,138,,2.0,0.8,1.5*3B
2017-12-01 15:31:44 1512160304.780940: $GPGSV,3,1,11,01,10,322,43,10,76,120,48,11,10,307,38,12,24,078,44*74
2017-12-01 15:31:44 1512160304.781123: $GPGSV,3,2,11,14,50,283,42,18,43,130,46,24,19,045,44,25,25,120,46*77
2017-12-01 15:31:44 1512160304.781193: $GPGSV,3,3,11,31,28,210,47,32,65,313,49,138,38,213,45*7F
2017-12-01 15:31:44 1512160304.894365: $GPZDA,203145.00,01,12,2017,00,00*61
2017-12-01 15:31:44 1512160304.894536: $GPGGA,203145,3946.9577,N,08404.9845,W,2,11,0.80,298.20,M,-33.324,M,,*7F
2017-12-01 15:31:44 1512160304.894605: $GPRMC,203145,A,3946.9577,N,08404.9845,W,0.0000,0.000,011217,,*36
2017-12-01 15:31:44 1512160304.894668: $GPGSA,A,3,1,10,11,12,14,18,24,25,31,32,138,,2.0,0.8,1.5*3B
2017-12-01 15:31:45 1512160305.435265: $GPZDA,203146.00,01,12,2017,00,00*62
2017-12-01 15:31:45 1512160305.435455: $GPGGA,203146,3946.9577,N,08404.9845,W,2,11,0.80,298.20,M,-33.324,M,,*7C
2017-12-01 15:31:45 1512160305.435527: $GPRMC,203146,A,3946.9577,N,08404.9845,W,0.0000,0.000,011217,,*35
2017-12-01 15:31:45 1512160305.435612: $GPGSA,A,3,1,10,11,12,14,18,24,25,31,32,138,,2.0,0.8,1.5*3B
