2017-12-29 11:41:52 1514565712.526767: {"class":"VERSION","release":"3.16","rev":"3.16-4","proto_major":3,"proto_minor":11}
2017-12-29 11:41:52 1514565712.527115: {"class":"DEVICES","devices":[{"class":"DEVICE","path":"/dev/ttyUSB0","driver":"SiRF","subtype":"9\u0006GSD4e_4.1.2-P1_RPATCH.05-F-GPS-4R-1510281 11/03/2015 307","activated":"2017-12-29T16:41:52.517Z","flags":1,"native":1,"bps":4800,"parity":"N","stopbits":1,"cycle":1.00}]}
2017-12-29 11:41:52 1514565712.527232: {"class":"WATCH","enable":true,"json":false,"nmea":true,"raw":0,"scaled":false,"timing":false,"split24":false,"pps":false}
2017-12-29 11:41:53 1514565713.721323: $GPGSV,3,1,11,08,08,313,40,10,51,310,45,15,27,057,48,18,77,015,45*7B
2017-12-29 11:41:53 1514565713.721494: $GPGSV,3,2,11,20,26,105,48,21,51,183,47,24,53,090,51,32,31,246,40*72
2017-12-29 11:41:53 1514565713.721560: $GPGSV,3,3,11,27,16,279,39,14,12,238,33,138,38,213,45*72
2017-12-29 11:41:53 1514565713.834679: $GPZDA,164154.00,29,12,2017,00,00*69
2017-12-29 11:41:53 1514565713.834857: $GPGGA,164154,3946.9587,N,08404.9827,W,2,11,1.00,328.85,M,-33.324,M,,*7A
2017-12-29 11:41:53 1514565713.834923: $GPRMC,164154,A,3946.9587,N,08404.9827,W,0.0000,0.000,291217,,*35
2017-12-29 11:41:53 1514565713.834985: $GPGSA,A,3,8,10,15,18,20,21,24,32,27,14,138,,1.7,1.0,1.3*3F
2017-12-29 11:41:54 1514565714.460183: $GPZDA,164155.00,29,12,2017,00,00*68
2017-12-29 11:41:54 1514565714.460357: $GPGGA,164155,3946.9587,N,08404.9827,W,2,11,1.00,328.85,M,-33.324,M,,*7B
2017-12-29 11:41:54 1514565714.460422: $GPRMC,164155,A,3946.9587,N,08404.9827,W,0.0000,0.000,291217,,*34
2017-12-29 11:41:54 1514565714.460504: $GPGSA,A,3,8,10,15,18,20,21,24,32,27,14,138,,1.7,1.0,1.3*3F
2017-12-29 11:41:55 1514565715.386068: $GPZDA,164156.00,29,12,2017,00,00*6B
2017-12-29 11:41:55 1514565715.386243: $GPGGA,164156,3946.9587,N,08404.9827,W,2,11,1.00,328.85,M,-33.324,M,,*78
2017-12-29 11:41:55 1514565715.386311: $GPRMC,164156,A,3946.9587,N,08404.9827,W,0.0000,0.000,291217,,*37
2017-12-29 11:41:55 1514565715.386372: $GPGSA,A,3,8,10,15,18,20,21,24,32,27,14,138,,1.7,1.0,1.3*3F
2017-12-29 11:41:56 1514565716.736848: $GPGSV,3,1,11,08,08,313,40,10,51,310,45,15,27,057,48,18,77,015,45*7B
2017-12-29 11:41:56 1514565716.737026: $GPGSV,3,2,11,20,26,105,48,21,51,183,47,24,53,090,51,32,31,246,40*72
2017-12-29 11:41:56 1514565716.737093: $GPGSV,3,3,11,27,16,279,40,14,12,238,34,138,38,213,46*78
2017-12-29 11:41:56 1514565716.850734: $GPZDA,164157.00,29,12,2017,00,00*6A
2017-12-29 11:41:56 1514565716.850901: $GPGGA,164157,3946.9587,N,08404.9827,W,2,11,1.00,328.85,M,-33.324,M,,*79
2017-12-29 11:41:56 1514565716.850967: $GPRMC,164157,A,3946.9587,N,08404.9827,W,0.0000,0.000,291217,,*36
2017-12-29 11:41:56 1514565716.851028: $GPGSA,A,3,8,10,15,18,20,21,24,32,27,14,138,,1.7,1.0,1.3*3F
2017-12-29 11:41:57 1514565717.397457: $GPZDA,164158.00,29,12,2017,00,00*65
2017-12-29 11:41:57 1514565717.397652: $GPGGA,164158,3946.9587,N,08404.9827,W,2,11,1.00,328.85,M,-33.324,M,,*76
2017-12-29 11:41:57 1514565717.397720: $GPRMC,164158,A,3946.9587,N,08404.9827,W,0.0000,0.000,291217,,*39
2017-12-29 11:41:57 1514565717.397782: $GPGSA,A,3,8,10,15,18,20,21,24,32,27,14,138,,1.7,1.0,1.3*3F
2017-12-29 11:41:58 1514565718.385927: $GPZDA,164159.00,29,12,2017,00,00*64
2017-12-29 11:41:58 1514565718.386120: $GPGGA,164159,3946.9587,N,08404.9827,W,2,11,1.00,328.85,M,-33.324,M,,*77
2017-12-29 11:41:58 1514565718.386186: $GPRMC,164159,A,3946.9587,N,08404.9827,W,0.0000,0.000,291217,,*38
2017-12-29 11:41:58 1514565718.386247: $GPGSA,A,3,8,10,15,18,20,21,24,32,27,14,138,,1.7,1.0,1.3*3F
2017-12-29 11:41:59 1514565719.738813: $GPGSV,3,1,11,08,08,313,39,10,51,310,45,15,27,057,48,18,77,015,45*75
2017-12-29 11:41:59 1514565719.738998: $GPGSV,3,2,11,20,26,105,48,21,51,183,47,24,53,090,51,32,31,246,40*72
2017-12-29 11:41:59 1514565719.739065: $GPGSV,3,3,11,27,16,279,40,14,12,238,34,138,38,213,45*7B
2017-12-29 11:41:59 1514565719.850688: $GPZDA,164200.00,29,12,2017,00,00*6B
2017-12-29 11:41:59 1514565719.850855: $GPGGA,164200,3946.9587,N,08404.9827,W,2,11,1.00,328.85,M,-33.324,M,,*78
2017-12-29 11:41:59 1514565719.850976: $GPRMC,164200,A,3946.9587,N,08404.9827,W,0.0000,0.000,291217,,*37
2017-12-29 11:41:59 1514565719.851094: $GPGSA,A,3,8,10,15,18,20,21,24,32,27,14,138,,1.7,1.0,1.3*3F
2017-12-29 11:42:00 1514565720.385300: $GPZDA,164201.00,29,12,2017,00,00*6A
2017-12-29 11:42:00 1514565720.385492: $GPGGA,164201,3946.9587,N,08404.9827,W,2,11,1.00,328.85,M,-33.324,M,,*79
2017-12-29 11:42:00 1514565720.385577: $GPRMC,164201,A,3946.9587,N,08404.9827,W,0.0000,0.000,291217,,*36
2017-12-29 11:42:00 1514565720.385640: $GPGSA,A,3,8,10,15,18,20,21,24,32,27,14,138,,1.7,1.0,1.3*3F
2017-12-29 11:42:01 1514565721.403892: $GPZDA,164202.00,29,12,2017,00,00*69
2017-12-29 11:42:01 1514565721.404092: $GPGGA,164202,3946.9587,N,08404.9827,W,2,11,1.00,328.85,M,-33.324,M,,*7A
2017-12-29 11:42:01 1514565721.404167: $GPRMC,164202,A,3946.9587,N,08404.9827,W,0.0000,0.000,291217,,*35
2017-12-29 11:42:01 1514565721.404235: $GPGSA,A,3,8,10,15,18,20,21,24,32,27,14,138,,1.7,1.0,1.3*3F
2017-12-29 11:42:02 1514565722.738227: $GPGSV,3,1,11,08,08,313,39,10,51,310,45,15,27,057,48,18,77,015,46*76
2017-12-29 11:42:02 1514565722.738405: $GPGSV,3,2,11,20,26,105,48,21,51,183,47,24,53,090,51,32,31,246,40*72
2017-12-29 11:42:02 1514565722.738477: $GPGSV,3,3,11,27,16,279,41,14,12,238,34,138,38,213,45*7A
2017-12-29 11:42:02 1514565722.851652: $GPZDA,164203.00,29,12,2017,00,00*68
2017-12-29 11:42:02 1514565722.851826: $GPGGA,164203,3946.9587,N,08404.9827,W,2,11,1.00,328.85,M,-33.324,M,,*7B
2017-12-29 11:42:02 1514565722.851895: $GPRMC,164203,A,3946.9587,N,08404.9827,W,0.0000,0.000,291217,,*34
2017-12-29 11:42:02 1514565722.851960: $GPGSA,A,3,8,10,15,18,20,21,24,32,27,14,138,,1.7,1.0,1.3*3F
2017-12-29 11:42:03 1514565723.402495: $GPZDA,164204.00,29,12,2017,00,00*6F
2017-12-29 11:42:03 1514565723.402677: $GPGGA,164204,3946.9587,N,08404.9827,W,2,11,1.00,328.85,M,-33.324,M,,*7C
2017-12-29 11:42:03 1514565723.402746: $GPRMC,164204,A,3946.9587,N,08404.9827,W,0.0000,0.000,291217,,*33
2017-12-29 11:42:03 1514565723.402810: $GPGSA,A,3,8,10,15,18,20,21,24,32,27,14,138,,1.7,1.0,1.3*3F
2017-12-29 11:42:04 1514565724.385242: $GPZDA,164205.00,29,12,2017,00,00*6E
2017-12-29 11:42:04 1514565724.385423: $GPGGA,164205,3946.9587,N,08404.9827,W,2,11,1.00,328.85,M,-33.324,M,,*7D
2017-12-29 11:42:04 1514565724.385514: $GPRMC,164205,A,3946.9587,N,08404.9827,W,0.0000,0.000,291217,,*32
2017-12-29 11:42:04 1514565724.385580: $GPGSA,A,3,8,10,15,18,20,21,24,32,27,14,138,,1.7,1.0,1.3*3F
2017-12-29 11:42:05 1514565725.722312: $GPGSV,3,1,11,08,08,313,39,10,51,310,45,15,27,057,48,18,77,015,45*75
2017-12-29 11:42:05 1514565725.722492: $GPGSV,3,2,11,20,26,105,48,21,51,183,47,24,53,090,51,32,31,246,40*72
2017-12-29 11:42:05 1514565725.722560: $GPGSV,3,3,11,27,16,279,40,14,12,238,34,138,38,213,45*7B
2017-12-29 11:42:05 1514565725.835662: $GPZDA,164206.00,29,12,2017,00,00*6D
2017-12-29 11:42:05 1514565725.835826: $GPGGA,164206,3946.9587,N,08404.9827,W,2,11,1.00,328.85,M,-33.324,M,,*7E
2017-12-29 11:42:05 1514565725.835896: $GPRMC,164206,A,3946.9587,N,08404.9827,W,0.0000,0.000,291217,,*31
2017-12-29 11:42:05 1514565725.835959: $GPGSA,A,3,8,10,15,18,20,21,24,32,27,14,138,,1.7,1.0,1.3*3F
2017-12-29 11:42:06 1514565726.404069: $GPZDA,164207.00,29,12,2017,00,00*6C
2017-12-29 11:42:06 1514565726.404235: $GPGGA,164207,3946.9587,N,08404.9827,W,2,11,1.00,328.85,M,-33.324,M,,*7F
2017-12-29 11:42:06 1514565726.404304: $GPRMC,164207,A,3946.9587,N,08404.9827,W,0.0000,0.000,291217,,*30
2017-12-29 11:42:06 1514565726.404367: $GPGSA,A,3,8,10,15,18,20,21,24,32,27,14,138,,1.7,1.0,1.3*3F
2017-12-29 11:42:07 1514565727.403699: $GPZDA,164208.00,29,12,2017,00,00*63
2017-12-29 11:42:07 1514565727.403874: $GPGGA,164208,3946.9587,N,08404.9820,W,2,11,1.00,328.93,M,-33.324,M,,*70
2017-12-29 11:42:07 1514565727.403942: $GPRMC,164208,A,3946.9587,N,08404.9820,W,0.0000,0.000,291217,,*38
2017-12-29 11:42:07 1514565727.404006: $GPGSA,A,3,8,10,15,18,20,21,24,32,27,14,138,,1.7,1.0,1.3*3F
