2017-12-31 16:47:57 1514756877.261880: {"class":"VERSION","release":"3.16","rev":"3.16-4","proto_major":3,"proto_minor":11}
2017-12-31 16:47:57 1514756877.262220: {"class":"DEVICES","devices":[{"class":"DEVICE","path":"/dev/ttyUSB0","driver":"SiRF","activated":"2017-12-31T21:47:57.247Z","flags":1,"native":1,"bps":4800,"parity":"N","stopbits":1,"cycle":1.00}]}
2017-12-31 16:47:57 1514756877.262317: {"class":"WATCH","enable":true,"json":false,"nmea":true,"raw":0,"scaled":false,"timing":false,"split24":false,"pps":false}
2017-12-31 16:47:57 1514756877.696927: $GPGSV,3,1,11,22,48,250,44,23,21,306,40,25,08,037,00,03,45,282,31*70
2017-12-31 16:47:57 1514756877.697125: $GPGSV,3,2,11,16,38,189,47,29,14,061,33,31,56,043,51,14,46,106,46*7E
2017-12-31 16:47:57 1514756877.697201: $GPGSV,3,3,11,32,25,117,43,26,68,159,42,135,22,240,43*78
2017-12-31 16:47:57 1514756877.810613: $GPZDA,214758.00,31,12,2017,00,00*6E
2017-12-31 16:47:57 1514756877.810750: $GPGGA,214758,3946.9576,N,08404.9848,W,2,10,1.00,303.18,M,-33.324,M,,*7F
2017-12-31 16:47:57 1514756877.810817: $GPRMC,214758,A,3946.9576,N,08404.9848,W,0.0000,0.000,311217,,*35
2017-12-31 16:47:57 1514756877.810878: $GPGSA,A,3,22,23,3,16,29,31,14,32,26,135,,,1.7,1.0,1.3*3C
2017-12-31 16:47:58 1514756878.345241: $GPZDA,214759.00,31,12,2017,00,00*6F
2017-12-31 16:47:58 1514756878.345396: $GPGGA,214759,3946.9576,N,08404.9848,W,2,10,1.00,303.18,M,-33.324,M,,*7E
2017-12-31 16:47:58 1514756878.345461: $GPRMC,214759,A,3946.9576,N,08404.9848,W,0.0000,0.000,311217,,*34
2017-12-31 16:47:58 1514756878.345539: $GPGSA,A,3,22,23,3,16,29,31,14,32,26,135,,,1.7,1.0,1.3*3C
2017-12-31 16:47:59 1514756879.360768: $GPZDA,214800.00,31,12,2017,00,00*6C
2017-12-31 16:47:59 1514756879.360943: $GPGGA,214800,3946.9576,N,08404.9848,W,2,10,1.00,303.18,M,-33.324,M,,*7D
2017-12-31 16:47:59 1514756879.361010: $GPRMC,214800,A,3946.9576,N,08404.9848,W,0.0000,0.000,311217,,*37
2017-12-31 16:47:59 1514756879.361071: $GPGSA,A,3,22,23,3,16,29,31,14,32,26,135,,,1.7,1.0,1.3*3C
2017-12-31 16:48:00 1514756880.681012: $GPGSV,3,1,11,22,48,250,44,23,21,306,40,25,08,037,00,03,45,282,26*76
2017-12-31 16:48:00 1514756880.681159: $GPGSV,3,2,11,16,38,189,47,29,14,061,33,31,56,043,52,14,46,106,46*7D
2017-12-31 16:48:00 1514756880.681225: $GPGSV,3,3,11,32,25,117,43,26,68,159,42,135,22,240,43*78
2017-12-31 16:48:00 1514756880.794421: $GPZDA,214801.00,31,12,2017,00,00*6D
2017-12-31 16:48:00 1514756880.794559: $GPGGA,214801,3946.9576,N,08404.9848,W,2,10,1.00,303.18,M,-33.324,M,,*7C
2017-12-31 16:48:00 1514756880.794623: $GPRMC,214801,A,3946.9576,N,08404.9848,W,0.0000,0.000,311217,,*36
2017-12-31 16:48:00 1514756880.794682: $GPGSA,A,3,22,23,3,16,29,31,14,32,26,135,,,1.7,1.0,1.3*3C
2017-12-31 16:48:01 1514756881.345397: $GPZDA,214802.00,31,12,2017,00,00*6E
2017-12-31 16:48:01 1514756881.345568: $GPGGA,214802,3946.9576,N,08404.9848,W,2,10,1.00,303.18,M,-33.324,M,,*7F
2017-12-31 16:48:01 1514756881.345633: $GPRMC,214802,A,3946.9576,N,08404.9848,W,0.0000,0.000,311217,,*35
2017-12-31 16:48:01 1514756881.345694: $GPGSA,A,3,22,23,3,16,29,31,14,32,26,135,,,1.7,1.0,1.3*3C
2017-12-31 16:48:02 1514756882.344887: $GPZDA,214803.00,31,12,2017,00,00*6F
2017-12-31 16:48:02 1514756882.345064: $GPGGA,214803,3946.9576,N,08404.9848,W,2,10,1.00,303.18,M,-33.324,M,,*7E
2017-12-31 16:48:02 1514756882.345131: $GPRMC,214803,A,3946.9576,N,08404.9848,W,0.0000,0.000,311217,,*34
2017-12-31 16:48:02 1514756882.345191: $GPGSA,A,3,22,23,3,16,29,31,14,32,26,135,,,1.7,1.0,1.3*3C
2017-12-31 16:48:03 1514756883.695675: $GPGSV,3,1,11,22,48,250,44,23,21,306,39,25,08,037,00,03,45,282,35*7A
2017-12-31 16:48:03 1514756883.695844: $GPGSV,3,2,11,16,38,189,48,29,14,061,32,31,56,043,52,14,46,106,46*73
2017-12-31 16:48:03 1514756883.695914: $GPGSV,3,3,11,32,25,117,43,26,68,159,42,135,22,240,43*78
2017-12-31 16:48:03 1514756883.809006: $GPZDA,214804.00,31,12,2017,00,00*68
2017-12-31 16:48:03 1514756883.809157: $GPGGA,214804,3946.9576,N,08404.9848,W,2,10,1.00,303.18,M,-33.324,M,,*79
2017-12-31 16:48:03 1514756883.809228: $GPRMC,214804,A,3946.9576,N,08404.9848,W,0.0000,0.000,311217,,*33
2017-12-31 16:48:03 1514756883.809339: $GPGSA,A,3,22,23,3,16,29,31,14,32,26,135,,,1.7,1.0,1.3*3C
2017-12-31 16:48:04 1514756884.366092: $GPZDA,214805.00,31,12,2017,00,00*69
2017-12-31 16:48:04 1514756884.366275: $GPGGA,214805,3946.9576,N,08404.9848,W,2,10,1.00,303.18,M,-33.324,M,,*78
2017-12-31 16:48:04 1514756884.366344: $GPRMC,214805,A,3946.9576,N,08404.9848,W,0.0000,0.000,311217,,*32
2017-12-31 16:48:04 1514756884.366406: $GPGSA,A,3,22,23,3,16,29,31,14,32,26,135,,,1.7,1.0,1.3*3C
2017-12-31 16:48:05 1514756885.345212: $GPZDA,214806.00,31,12,2017,00,00*6A
2017-12-31 16:48:05 1514756885.345387: $GPGGA,214806,3946.9576,N,08404.9848,W,2,10,0.80,303.18,M,-33.324,M,,*72
2017-12-31 16:48:05 1514756885.345455: $GPRMC,214806,A,3946.9576,N,08404.9848,W,0.0000,0.000,311217,,*31
2017-12-31 16:48:05 1514756885.345517: $GPGSA,A,3,22,23,3,16,29,31,14,32,26,135,,,1.7,0.8,1.3*35
2017-12-31 16:48:06 1514756886.689703: $GPGSV,3,1,11,22,48,250,44,23,21,306,40,25,08,037,23,03,45,282,26*77
2017-12-31 16:48:06 1514756886.689849: $GPGSV,3,2,11,16,38,189,48,29,14,061,27,31,56,043,51,14,46,106,46*74
2017-12-31 16:48:06 1514756886.689916: $GPGSV,3,3,11,32,25,117,43,26,68,159,42,135,22,240,44*7F
2017-12-31 16:48:06 1514756886.803020: $GPZDA,214807.00,31,12,2017,00,00*6B
2017-12-31 16:48:06 1514756886.803166: $GPGGA,214807,3946.9576,N,08404.9848,W,2,11,0.80,303.18,M,-33.324,M,,*72
2017-12-31 16:48:06 1514756886.803232: $GPRMC,214807,A,3946.9576,N,08404.9848,W,0.0000,0.000,311217,,*30
2017-12-31 16:48:06 1514756886.803295: $GPGSA,A,3,22,23,25,3,16,29,31,14,32,26,135,,1.7,0.8,1.3*32
