2017-12-31 18:59:45 1514764785.307340: {"class":"VERSION","release":"3.16","rev":"3.16-4","proto_major":3,"proto_minor":11}
2017-12-31 18:59:45 1514764785.307698: {"class":"DEVICES","devices":[{"class":"DEVICE","path":"/dev/ttyUSB0","driver":"SiRF","activated":"2017-12-31T23:59:45.263Z","flags":1,"native":1,"bps":4800,"parity":"N","stopbits":1,"cycle":1.00}]}
2017-12-31 18:59:45 1514764785.307797: {"class":"WATCH","enable":true,"json":false,"nmea":true,"raw":0,"scaled":false,"timing":false,"split24":false,"pps":false}
2017-12-31 18:59:46 1514764786.804023: $GPGSV,3,1,11,22,04,201,23,23,70,267,38,09,40,307,31,03,14,217,26*7E
2017-12-31 18:59:46 1514764786.804220: $GPGSV,3,2,11,16,72,036,44,08,21,174,44,31,13,091,30,27,44,139,36*76
2017-12-31 18:59:46 1514764786.804287: $GPGSV,3,3,11,07,13,288,40,26,40,048,46,135,22,240,44*75
2017-12-31 18:59:46 1514764786.917445: $GPZDA,235946.00,31,12,2017,00,00*6C
2017-12-31 18:59:46 1514764786.917617: $GPGGA,235946,3946.9579,N,08404.9831,W,2,11,0.80,310.44,M,-33.324,M,,*7F
2017-12-31 18:59:46 1514764786.917685: $GPRMC,235946,A,3946.9579,N,08404.9831,W,0.0000,0.000,311217,,*36
2017-12-31 18:59:46 1514764786.917745: $GPGSA,A,3,22,23,9,3,16,8,31,27,7,26,135,,1.7,0.8,1.3*09
2017-12-31 18:59:48 1514764788.263547: $GPZDA,235947.00,31,12,2017,00,00*6D
2017-12-31 18:59:48 1514764788.263720: $GPGGA,235947,3946.9579,N,08404.9831,W,2,11,0.80,310.44,M,-33.324,M,,*7E
2017-12-31 18:59:48 1514764788.263786: $GPRMC,235947,A,3946.9579,N,08404.9831,W,0.0000,0.000,311217,,*37
2017-12-31 18:59:48 1514764788.263847: $GPGSA,A,3,22,23,9,3,16,8,31,27,7,26,135,,1.7,0.8,1.3*09
2017-12-31 18:59:49 1514764789.011784: $GPZDA,235948.00,31,12,2017,00,00*62
2017-12-31 18:59:49 1514764789.012140: $GPGGA,235948,3946.9579,N,08404.9831,W,2,11,0.80,310.44,M,-33.324,M,,*71
2017-12-31 18:59:49 1514764789.012266: $GPRMC,235948,A,3946.9579,N,08404.9831,W,0.0000,0.000,311217,,*38
2017-12-31 18:59:49 1514764789.012386: $GPGSA,A,3,22,23,9,3,16,8,31,27,7,26,135,,1.7,0.8,1.3*09
2017-12-31 18:59:49 1514764789.799929: $GPGSV,3,1,11,22,04,201,23,23,70,267,38,09,40,307,31,03,14,217,26*7E
2017-12-31 18:59:49 1514764789.800111: $GPGSV,3,2,11,16,72,036,44,08,21,174,44,31,13,091,30,27,44,139,36*76
2017-12-31 18:59:49 1514764789.800176: $GPGSV,3,3,11,07,13,288,40,26,40,048,46,135,22,240,44*75
2017-12-31 18:59:49 1514764789.913600: $GPZDA,235949.00,31,12,2017,00,00*63
2017-12-31 18:59:49 1514764789.913767: $GPGGA,235949,3946.9579,N,08404.9831,W,2,11,0.80,310.44,M,-33.324,M,,*70
2017-12-31 18:59:49 1514764789.913833: $GPRMC,235949,A,3946.9579,N,08404.9831,W,0.0000,0.000,311217,,*39
2017-12-31 18:59:49 1514764789.913916: $GPGSA,A,3,22,23,9,3,16,8,31,27,7,26,135,,1.7,0.8,1.3*09
2017-12-31 18:59:50 1514764790.364519: $GPZDA,235950.00,31,12,2017,00,00*6B
2017-12-31 18:59:50 1514764790.364738: $GPGGA,235950,3946.9579,N,08404.9831,W,2,11,0.80,310.44,M,-33.324,M,,*78
2017-12-31 18:59:50 1514764790.364819: $GPRMC,235950,A,3946.9579,N,08404.9831,W,0.0000,0.000,311217,,*31
2017-12-31 18:59:50 1514764790.364924: $GPGSA,A,3,22,23,9,3,16,8,31,27,7,26,135,,1.7,0.8,1.3*09
2017-12-31 18:59:50 1514764790.989750: $GPZDA,235951.00,31,12,2017,00,00*6A
2017-12-31 18:59:50 1514764790.989941: $GPGGA,235951,3946.9579,N,08404.9831,W,2,11,0.80,310.44,M,-33.324,M,,*79
2017-12-31 18:59:50 1514764790.990008: $GPRMC,235951,A,3946.9579,N,08404.9831,W,0.0000,0.000,311217,,*30
2017-12-31 18:59:50 1514764790.990086: $GPGSA,A,3,22,23,9,3,16,8,31,27,7,26,135,,1.7,0.8,1.3*09
2017-12-31 18:59:51 1514764791.776484: $GPGSV,3,1,11,22,04,201,24,23,70,267,37,09,40,307,37,03,14,217,26*70
2017-12-31 18:59:51 1514764791.776664: $GPGSV,3,2,11,16,72,036,44,08,21,174,44,31,13,091,30,27,44,139,36*76
2017-12-31 18:59:51 1514764791.776730: $GPGSV,3,3,11,07,13,288,41,26,40,048,46,135,22,240,44*74
2017-12-31 18:59:51 1514764791.890091: $GPZDA,235952.00,31,12,2017,00,00*69
2017-12-31 18:59:51 1514764791.890260: $GPGGA,235952,3946.9579,N,08404.9831,W,2,11,0.80,310.44,M,-33.324,M,,*7A
2017-12-31 18:59:51 1514764791.890325: $GPRMC,235952,A,3946.9579,N,08404.9831,W,0.0000,0.000,311217,,*33
2017-12-31 18:59:51 1514764791.890440: $GPGSA,A,3,22,23,9,3,16,8,31,27,7,26,135,,1.7,0.8,1.3*09
2017-12-31 18:59:52 1514764792.352185: $GPZDA,235953.00,31,12,2017,00,00*68
2017-12-31 18:59:52 1514764792.352351: $GPGGA,235953,3946.9579,N,08404.9831,W,2,11,0.80,310.44,M,-33.324,M,,*7B
2017-12-31 18:59:52 1514764792.352417: $GPRMC,235953,A,3946.9579,N,08404.9831,W,0.0000,0.000,311217,,*32
2017-12-31 18:59:52 1514764792.352477: $GPGSA,A,3,22,23,9,3,16,8,31,27,7,26,135,,1.7,0.8,1.3*09
2017-12-31 18:59:53 1514764793.354479: $GPZDA,235954.00,31,12,2017,00,00*6F
2017-12-31 18:59:53 1514764793.354665: $GPGGA,235954,3946.9579,N,08404.9831,W,2,11,0.80,310.44,M,-33.324,M,,*7C
2017-12-31 18:59:53 1514764793.354733: $GPRMC,235954,A,3946.9579,N,08404.9831,W,0.0000,0.000,311217,,*35
2017-12-31 18:59:53 1514764793.354793: $GPGSA,A,3,22,23,9,3,16,8,31,27,7,26,135,,1.7,0.8,1.3*09
2017-12-31 18:59:54 1514764794.688578: $GPGSV,3,1,11,22,04,201,30,23,70,267,39,09,40,307,38,03,14,217,27*75
2017-12-31 18:59:54 1514764794.688761: $GPGSV,3,2,11,16,72,036,44,08,21,174,44,31,13,091,30,27,44,139,36*76
2017-12-31 18:59:54 1514764794.688828: $GPGSV,3,3,11,07,13,288,42,26,40,048,46,135,22,240,43*70
2017-12-31 18:59:54 1514764794.802068: $GPZDA,235955.00,31,12,2017,00,00*6E
2017-12-31 18:59:54 1514764794.802237: $GPGGA,235955,3946.9579,N,08404.9831,W,2,11,0.80,310.44,M,-33.324,M,,*7D
2017-12-31 18:59:54 1514764794.802303: $GPRMC,235955,A,3946.9579,N,08404.9831,W,0.0000,0.000,311217,,*34
2017-12-31 18:59:54 1514764794.802364: $GPGSA,A,3,22,23,9,3,16,8,31,27,7,26,135,,1.7,0.8,1.3*09
2017-12-31 18:59:55 1514764795.427501: $GPZDA,235956.00,31,12,2017,00,00*6D
2017-12-31 18:59:55 1514764795.427669: $GPGGA,235956,3946.9579,N,08404.9831,W,2,11,0.80,310.44,M,-33.324,M,,*7E
2017-12-31 18:59:55 1514764795.427737: $GPRMC,235956,A,3946.9579,N,08404.9831,W,0.0000,0.000,311217,,*37
2017-12-31 18:59:55 1514764795.427797: $GPGSA,A,3,22,23,9,3,16,8,31,27,7,26,135,,1.7,0.8,1.3*09
2017-12-31 18:59:56 1514764796.346225: $GPZDA,235957.00,31,12,2017,00,00*6C
2017-12-31 18:59:56 1514764796.346419: $GPGGA,235957,3946.9579,N,08404.9831,W,2,11,0.80,310.44,M,-33.324,M,,*7F
2017-12-31 18:59:56 1514764796.346487: $GPRMC,235957,A,3946.9579,N,08404.9831,W,0.0000,0.000,311217,,*36
2017-12-31 18:59:56 1514764796.346548: $GPGSA,A,3,22,23,9,3,16,8,31,27,7,26,135,,1.7,0.8,1.3*09
2017-12-31 18:59:57 1514764797.688996: $GPGSV,3,1,11,22,04,201,30,23,70,267,39,09,40,307,34,03,14,217,27*79
2017-12-31 18:59:57 1514764797.689153: $GPGSV,3,2,11,16,72,036,45,08,21,174,43,31,13,091,31,27,44,139,41*71
2017-12-31 18:59:57 1514764797.689219: $GPGSV,3,3,11,07,13,288,43,26,40,048,47,135,22,240,43*70
2017-12-31 18:59:57 1514764797.802423: $GPZDA,235958.00,31,12,2017,00,00*63
2017-12-31 18:59:57 1514764797.802591: $GPGGA,235958,3946.9579,N,08404.9831,W,2,11,0.80,310.44,M,-33.324,M,,*70
2017-12-31 18:59:57 1514764797.802657: $GPRMC,235958,A,3946.9579,N,08404.9831,W,0.0000,0.000,311217,,*39
2017-12-31 18:59:57 1514764797.802718: $GPGSA,A,3,22,23,9,3,16,8,31,27,7,26,135,,1.7,0.8,1.3*09
2017-12-31 18:59:58 1514764798.353338: $GPZDA,235959.00,31,12,2017,00,00*62
2017-12-31 18:59:58 1514764798.353508: $GPGGA,235959,3946.9579,N,08404.9831,W,2,11,0.80,310.44,M,-33.324,M,,*71
2017-12-31 18:59:58 1514764798.353572: $GPRMC,235959,A,3946.9579,N,08404.9831,W,0.0000,0.000,311217,,*38
2017-12-31 18:59:58 1514764798.353633: $GPGSA,A,3,22,23,9,3,16,8,31,27,7,26,135,,1.7,0.8,1.3*09
2017-12-31 18:59:59 1514764799.353316: $GPZDA,000000.00,01,01,2018,00,00*6D
2017-12-31 18:59:59 1514764799.353504: $GPGGA,000000,3946.9579,N,08404.9831,W,2,11,0.80,310.44,M,-33.324,M,,*70
2017-12-31 18:59:59 1514764799.353570: $GPRMC,000000,A,3946.9579,N,08404.9831,W,0.0000,0.000,010118,,*37
2017-12-31 18:59:59 1514764799.353632: $GPGSA,A,3,22,23,9,3,16,8,31,27,7,26,135,,1.7,0.8,1.3*09
2017-12-31 19:00:00 1514764800.689292: $GPGSV,3,1,11,22,04,201,30,23,70,267,31,09,40,307,36,03,14,217,25*71
2017-12-31 19:00:00 1514764800.689475: $GPGSV,3,2,11,16,72,036,45,08,21,174,44,31,13,091,31,27,44,139,39*79
2017-12-31 19:00:00 1514764800.689620: $GPGSV,3,3,11,07,13,288,44,26,40,048,46,135,22,240,43*76
2017-12-31 19:00:00 1514764800.801492: $GPZDA,000001.00,01,01,2018,00,00*6C
2017-12-31 19:00:00 1514764800.801662: $GPGGA,000001,3946.9579,N,08404.9831,W,2,11,0.80,310.44,M,-33.324,M,,*71
2017-12-31 19:00:00 1514764800.801729: $GPRMC,000001,A,3946.9579,N,08404.9831,W,0.0000,0.000,010118,,*36
2017-12-31 19:00:00 1514764800.801790: $GPGSA,A,3,22,23,9,3,16,8,31,27,7,26,135,,1.7,0.8,1.3*09
2017-12-31 19:00:01 1514764801.354916: $GPZDA,000002.00,01,01,2018,00,00*6F
2017-12-31 19:00:01 1514764801.355090: $GPGGA,000002,3946.9579,N,08404.9831,W,2,11,0.80,310.44,M,-33.324,M,,*72
2017-12-31 19:00:01 1514764801.355157: $GPRMC,000002,A,3946.9579,N,08404.9831,W,0.0000,0.000,010118,,*35
2017-12-31 19:00:01 1514764801.355218: $GPGSA,A,3,22,23,9,3,16,8,31,27,7,26,135,,1.7,0.8,1.3*09
2017-12-31 19:00:02 1514764802.347087: $GPZDA,000003.00,01,01,2018,00,00*6E
2017-12-31 19:00:02 1514764802.347306: $GPGGA,000003,3946.9579,N,08404.9831,W,2,11,0.80,310.44,M,-33.324,M,,*73
2017-12-31 19:00:02 1514764802.347372: $GPRMC,000003,A,3946.9579,N,08404.9831,W,0.0000,0.000,010118,,*34
2017-12-31 19:00:02 1514764802.347432: $GPGSA,A,3,22,23,9,3,16,8,31,27,7,26,135,,1.7,0.8,1.3*09
2017-12-31 19:00:03 1514764803.687630: $GPGSV,3,1,11,22,04,201,29,23,70,267,35,09,40,307,34,03,14,217,00*78
2017-12-31 19:00:03 1514764803.687791: $GPGSV,3,2,11,16,72,036,45,08,21,174,44,31,13,091,31,27,44,139,38*78
2017-12-31 19:00:03 1514764803.687856: $GPGSV,3,3,11,07,13,288,44,26,40,048,46,135,22,240,44*71
2017-12-31 19:00:03 1514764803.801213: $GPZDA,000004.00,01,01,2018,00,00*69
2017-12-31 19:00:03 1514764803.801379: $GPGGA,000004,3946.9579,N,08404.9831,W,2,10,0.80,310.44,M,-33.324,M,,*75
2017-12-31 19:00:03 1514764803.801445: $GPRMC,000004,A,3946.9579,N,08404.9831,W,0.0000,0.000,010118,,*33
2017-12-31 19:00:03 1514764803.801506: $GPGSA,A,3,22,23,9,16,8,31,27,7,26,135,,,1.7,0.8,1.3*3A
2017-12-31 19:00:04 1514764804.359556: $GPZDA,000005.00,01,01,2018,00,00*68
2017-12-31 19:00:04 1514764804.359727: $GPGGA,000005,3946.9579,N,08404.9831,W,2,10,0.80,310.44,M,-33.324,M,,*74
2017-12-31 19:00:04 1514764804.359793: $GPRMC,000005,A,3946.9579,N,08404.9831,W,0.0000,0.000,010118,,*32
2017-12-31 19:00:04 1514764804.359854: $GPGSA,A,3,22,23,9,16,8,31,27,7,26,135,,,1.7,0.8,1.3*3A
2017-12-31 19:00:05 1514764805.353795: $GPZDA,000006.00,01,01,2018,00,00*6B
2017-12-31 19:00:05 1514764805.353994: $GPGGA,000006,3946.9579,N,08404.9831,W,2,10,0.80,310.44,M,-33.324,M,,*77
2017-12-31 19:00:05 1514764805.354062: $GPRMC,000006,A,3946.9579,N,08404.9831,W,0.0000,0.000,010118,,*31
2017-12-31 19:00:05 1514764805.354123: $GPGSA,A,3,22,23,9,16,8,31,27,7,26,135,,,1.7,0.8,1.3*3A
