2017-12-01 14:15:22 1512155722.926954: {"class":"VERSION","release":"3.16","rev":"3.16-4","proto_major":3,"proto_minor":11}
2017-12-01 14:15:22 1512155722.927360: {"class":"DEVICES","devices":[{"class":"DEVICE","path":"/dev/ttyUSB0","driver":"SiRF","subtype":"9\u0006GSD4e_4.1.2-P1_RPATCH.05-F-GPS-4R-1510281 11/03/2015 307","activated":"2017-12-01T19:15:22.506Z","flags":1,"native":1,"bps":4800,"parity":"N","stopbits":1,"cycle":1.00}]}
2017-12-01 14:15:22 1512155722.927484: {"class":"WATCH","enable":true,"json":false,"nmea":true,"raw":0,"scaled":false,"timing":false,"split24":false,"pps":false}
2017-12-01 14:15:23 1512155723.366196: $GPZDA,191524.00,01,12,2017,00,00*6A
2017-12-01 14:15:23 1512155723.366372: $GPGGA,191524,3946.9554,N,08404.9819,W,2,12,0.80,309.57,M,-33.324,M,,*76
2017-12-01 14:15:23 1512155723.366438: $GPRMC,191524,A,3946.9554,N,08404.9819,W,0.0000,0.000,011217,,*35
2017-12-01 14:15:23 1512155723.366500: $GPGSA,A,3,10,14,18,21,24,27,32,8,12,15,20,138,2.0,0.8,1.5*37
2017-12-01 14:15:24 1512155724.696402: $GPGSV,3,1,12,10,66,327,49,14,26,250,39,18,73,084,44,21,32,180,44*74
2017-12-01 14:15:24 1512155724.696635: $GPGSV,3,2,12,24,47,063,48,27,08,262,39,32,43,261,45,08,07,297,33*77
2017-12-01 14:15:24 1512155724.696733: $GPGSV,3,3,12,12,07,111,21,15,14,064,23,20,12,115,28,138,38,213,46*43
2017-12-01 14:15:24 1512155724.808169: $GPZDA,191525.00,01,12,2017,00,00*6B
2017-12-01 14:15:24 1512155724.808344: $GPGGA,191525,3946.9554,N,08404.9819,W,2,12,0.80,309.57,M,-33.324,M,,*77
2017-12-01 14:15:24 1512155724.808411: $GPRMC,191525,A,3946.9554,N,08404.9819,W,0.0000,0.000,011217,,*34
2017-12-01 14:15:24 1512155724.808473: $GPGSA,A,3,10,14,18,21,24,27,32,8,12,15,20,138,2.0,0.8,1.5*37
2017-12-01 14:15:25 1512155725.366547: $GPZDA,191526.00,01,12,2017,00,00*68
2017-12-01 14:15:25 1512155725.366728: $GPGGA,191526,3946.9554,N,08404.9819,W,2,12,0.80,309.57,M,-33.324,M,,*74
2017-12-01 14:15:25 1512155725.366798: $GPRMC,191526,A,3946.9554,N,08404.9819,W,0.0000,0.000,011217,,*37
2017-12-01 14:15:25 1512155725.366943: $GPGSA,A,3,10,14,18,21,24,27,32,8,12,15,20,138,2.0,0.8,1.5*37
2017-12-01 14:15:26 1512155726.364952: $GPZDA,191527.00,01,12,2017,00,00*69
2017-12-01 14:15:26 1512155726.365145: $GPGGA,191527,3946.9554,N,08404.9819,W,2,12,0.80,309.57,M,-33.324,M,,*75
2017-12-01 14:15:26 1512155726.365215: $GPRMC,191527,A,3946.9554,N,08404.9819,W,0.0000,0.000,011217,,*36
2017-12-01 14:15:26 1512155726.365276: $GPGSA,A,3,10,14,18,21,24,27,32,8,12,15,20,138,2.0,0.8,1.5*37
2017-12-01 14:15:27 1512155727.733232: $GPGSV,3,1,12,10,66,327,50,14,26,250,38,18,73,084,44,21,32,180,45*7C
2017-12-01 14:15:27 1512155727.733415: $GPGSV,3,2,12,24,47,063,48,27,08,262,39,32,43,261,45,08,07,297,33*77
2017-12-01 14:15:27 1512155727.733482: $GPGSV,3,3,12,12,07,111,27,15,14,064,23,20,12,115,29,138,38,213,46*44
2017-12-01 14:15:27 1512155727.847625: $GPZDA,191528.00,01,12,2017,00,00*66
2017-12-01 14:15:27 1512155727.847870: $GPGGA,191528,3946.9559,N,08404.9819,W,2,12,0.80,310.21,M,-33.324,M,,*7E
2017-12-01 14:15:27 1512155727.847943: $GPRMC,191528,A,3946.9559,N,08404.9819,W,0.0000,0.000,011217,,*34
2017-12-01 14:15:27 1512155727.848010: $GPGSA,A,3,10,14,18,21,24,27,32,8,12,15,20,138,2.0,0.8,1.5*37
2017-12-01 14:15:28 1512155728.397448: $GPZDA,191529.00,01,12,2017,00,00*67
2017-12-01 14:15:28 1512155728.397628: $GPGGA,191529,3946.9559,N,08404.9819,W,2,12,0.80,310.21,M,-33.324,M,,*7F
2017-12-01 14:15:28 1512155728.397695: $GPRMC,191529,A,3946.9559,N,08404.9819,W,0.0000,0.000,011217,,*35
2017-12-01 14:15:28 1512155728.397758: $GPGSA,A,3,10,14,18,21,24,27,32,8,12,15,20,138,2.0,0.8,1.5*37
2017-12-01 14:15:29 1512155729.396564: $GPZDA,191530.00,01,12,2017,00,00*6F
2017-12-01 14:15:29 1512155729.396759: $GPGGA,191530,3946.9555,N,08404.9812,W,2,12,0.80,311.05,M,-33.324,M,,*77
2017-12-01 14:15:29 1512155729.396830: $GPRMC,191530,A,3946.9555,N,08404.9812,W,0.0000,0.000,011217,,*3A
2017-12-01 14:15:29 1512155729.396891: $GPGSA,A,3,10,14,18,21,24,27,32,8,12,15,20,138,2.0,0.8,1.5*37
2017-12-01 14:15:30 1512155730.732333: $GPGSV,3,1,12,10,66,327,50,14,26,250,38,18,73,084,44,21,32,180,44*7D
2017-12-01 14:15:30 1512155730.732564: $GPGSV,3,2,12,24,47,063,47,27,08,262,40,32,43,261,45,08,07,297,32*77
2017-12-01 14:15:30 1512155730.732634: $GPGSV,3,3,12,12,07,111,27,15,14,064,23,20,12,115,29,138,38,213,46*44
2017-12-01 14:15:30 1512155730.845677: $GPZDA,191531.00,01,12,2017,00,00*6E
2017-12-01 14:15:30 1512155730.845864: $GPGGA,191531,3946.9555,N,08404.9812,W,2,12,0.80,311.05,M,-33.324,M,,*76
2017-12-01 14:15:30 1512155730.845931: $GPRMC,191531,A,3946.9555,N,08404.9812,W,0.0000,0.000,011217,,*3B
2017-12-01 14:15:30 1512155730.845996: $GPGSA,A,3,10,14,18,21,24,27,32,8,12,15,20,138,2.0,0.8,1.5*37
2017-12-01 14:15:31 1512155731.401598: $GPZDA,191532.00,01,12,2017,00,00*6D
2017-12-01 14:15:31 1512155731.401779: $GPGGA,191532,3946.9555,N,08404.9812,W,2,12,0.80,311.05,M,-33.324,M,,*75
2017-12-01 14:15:31 1512155731.401849: $GPRMC,191532,A,3946.9555,N,08404.9812,W,0.0000,0.000,011217,,*38
2017-12-01 14:15:31 1512155731.401910: $GPGSA,A,3,10,14,18,21,24,27,32,8,12,15,20,138,2.0,0.8,1.5*37
2017-12-01 14:15:32 1512155732.359894: $GPZDA,191533.00,01,12,2017,00,00*6C
2017-12-01 14:15:32 1512155732.360082: $GPGGA,191533,3946.9555,N,08404.9812,W,2,12,0.80,311.05,M,-33.324,M,,*74
2017-12-01 14:15:32 1512155732.360237: $GPRMC,191533,A,3946.9555,N,08404.9812,W,0.0000,0.000,011217,,*39
2017-12-01 14:15:32 1512155732.360318: $GPGSA,A,3,10,14,18,21,24,27,32,8,12,15,20,138,2.0,0.8,1.5*37
2017-12-01 14:15:33 1512155733.735718: $GPGSV,3,1,12,10,66,327,50,14,26,250,39,18,73,084,44,21,32,180,44*7C
2017-12-01 14:15:33 1512155733.735904: $GPGSV,3,2,12,24,47,063,48,27,08,262,40,32,43,261,44,08,07,297,32*79
2017-12-01 14:15:33 1512155733.735976: $GPGSV,3,3,12,12,07,111,28,15,14,064,22,20,12,115,28,138,38,213,46*4B
2017-12-01 14:15:33 1512155733.850364: $GPZDA,191534.00,01,12,2017,00,00*6B
2017-12-01 14:15:33 1512155733.850542: $GPGGA,191534,3946.9555,N,08404.9812,W,2,12,0.80,311.05,M,-33.324,M,,*73
2017-12-01 14:15:33 1512155733.850610: $GPRMC,191534,A,3946.9555,N,08404.9812,W,0.0000,0.000,011217,,*3E
2017-12-01 14:15:33 1512155733.850671: $GPGSA,A,3,10,14,18,21,24,27,32,8,12,15,20,138,2.0,0.8,1.5*37
2017-12-01 14:15:34 1512155734.474487: $GPZDA,191535.00,01,12,2017,00,00*6A
2017-12-01 14:15:34 1512155734.962077: $GPGGA,191535,3946.9551,N,08404.9813,W,2,12,0.80,311.81,M,-33.324,M,,*7B
2017-12-01 14:15:34 1512155734.962235: $GPRMC,191535,A,3946.9551,N,08404.9813,W,0.0000,0.000,011217,,*3A
2017-12-01 14:15:34 1512155734.962305: $GPGSA,A,3,10,14,18,21,24,27,32,8,12,15,20,138,2.0,0.8,1.5*37
2017-12-01 14:15:35 1512155735.365368: $GPZDA,191536.00,01,12,2017,00,00*69
2017-12-01 14:15:35 1512155735.365558: $GPGGA,191536,3946.9551,N,08404.9813,W,2,12,0.80,311.81,M,-33.324,M,,*78
2017-12-01 14:15:35 1512155735.365629: $GPRMC,191536,A,3946.9551,N,08404.9813,W,0.0000,0.000,011217,,*39
2017-12-01 14:15:35 1512155735.365694: $GPGSA,A,3,10,14,18,21,24,27,32,8,12,15,20,138,2.0,0.8,1.5*37
2017-12-01 14:15:36 1512155736.702338: $GPGSV,3,1,12,10,66,327,50,14,26,250,39,18,73,084,44,21,32,180,44*7C
2017-12-01 14:15:36 1512155736.702518: $GPGSV,3,2,12,24,47,063,48,27,08,262,41,32,43,261,44,08,07,297,25*7E
2017-12-01 14:15:36 1512155736.702590: $GPGSV,3,3,12,12,07,111,29,15,14,064,22,20,12,115,28,138,38,213,47*4B
2017-12-01 14:15:36 1512155736.815978: $GPZDA,191537.00,01,12,2017,00,00*68
2017-12-01 14:15:36 1512155736.816154: $GPGGA,191537,3946.9551,N,08404.9813,W,2,12,0.80,311.81,M,-33.324,M,,*79
2017-12-01 14:15:36 1512155736.816224: $GPRMC,191537,A,3946.9551,N,08404.9813,W,0.0000,0.000,011217,,*38
2017-12-01 14:15:36 1512155736.816288: $GPGSA,A,3,10,14,18,21,24,27,32,8,12,15,20,138,2.0,0.8,1.5*37
2017-12-01 14:15:37 1512155737.367253: $GPZDA,191538.00,01,12,2017,00,00*67
2017-12-01 14:15:37 1512155737.367447: $GPGGA,191538,3946.9552,N,08404.9814,W,2,12,0.80,313.22,M,-33.324,M,,*79
2017-12-01 14:15:37 1512155737.367517: $GPRMC,191538,A,3946.9552,N,08404.9814,W,0.0000,0.000,011217,,*33
2017-12-01 14:15:37 1512155737.367581: $GPGSA,A,3,10,14,18,21,24,27,32,8,12,15,20,138,2.0,0.8,1.5*37
2017-12-01 14:15:38 1512155738.397514: $GPZDA,191539.00,01,12,2017,00,00*66
2017-12-01 14:15:38 1512155738.397689: $GPGGA,191539,3946.9552,N,08404.9814,W,2,12,0.80,313.22,M,-33.324,M,,*78
2017-12-01 14:15:38 1512155738.397756: $GPRMC,191539,A,3946.9552,N,08404.9814,W,0.0000,0.000,011217,,*32
2017-12-01 14:15:38 1512155738.397839: $GPGSA,A,3,10,14,18,21,24,27,32,8,12,15,20,138,2.0,0.8,1.5*37
2017-12-01 14:15:39 1512155739.736507: $GPGSV,3,1,12,10,66,327,50,14,26,250,40,18,73,084,44,21,32,180,44*72
2017-12-01 14:15:39 1512155739.736697: $GPGSV,3,2,12,24,47,063,48,27,08,262,40,32,43,261,44,08,07,297,24*7E
2017-12-01 14:15:39 1512155739.736765: $GPGSV,3,3,12,12,07,111,30,15,14,064,22,20,12,115,28,138,38,213,46*42
2017-12-01 14:15:39 1512155739.850092: $GPZDA,191540.00,01,12,2017,00,00*68
2017-12-01 14:15:39 1512155739.850251: $GPGGA,191540,3946.9552,N,08404.9814,W,2,12,0.80,313.22,M,-33.324,M,,*76
2017-12-01 14:15:39 1512155739.850317: $GPRMC,191540,A,3946.9552,N,08404.9814,W,0.0000,0.000,011217,,*3C
2017-12-01 14:15:39 1512155739.850377: $GPGSA,A,3,10,14,18,21,24,27,32,8,12,15,20,138,2.0,0.8,1.5*37
2017-12-01 14:15:40 1512155740.368428: $GPZDA,191541.00,01,12,2017,00,00*69
2017-12-01 14:15:40 1512155740.368586: $GPGGA,191541,3946.9549,N,08404.9815,W,2,12,0.80,313.98,M,-33.324,M,,*7D
2017-12-01 14:15:40 1512155740.368652: $GPRMC,191541,A,3946.9549,N,08404.9815,W,0.0000,0.000,011217,,*36
2017-12-01 14:15:40 1512155740.368712: $GPGSA,A,3,10,14,18,21,24,27,32,8,12,15,20,138,2.0,0.8,1.5*37
2017-12-01 14:15:41 1512155741.400591: $GPZDA,191542.00,01,12,2017,00,00*6A
2017-12-01 14:15:41 1512155741.400768: $GPGGA,191542,3946.9549,N,08404.9815,W,2,12,0.80,313.98,M,-33.324,M,,*7E
2017-12-01 14:15:41 1512155741.400838: $GPRMC,191542,A,3946.9549,N,08404.9815,W,0.0000,0.000,011217,,*35
2017-12-01 14:15:41 1512155741.400902: $GPGSA,A,3,10,14,18,21,24,27,32,8,12,15,20,138,2.0,0.8,1.5*37
2017-12-01 14:15:42 1512155742.696066: $GPGSV,3,1,12,10,66,327,50,14,26,250,40,18,73,084,43,21,32,180,44*75
2017-12-01 14:15:42 1512155742.696256: $GPGSV,3,2,12,24,47,063,48,27,08,262,40,32,43,261,45,08,07,297,24*7F
2017-12-01 14:15:42 1512155742.696327: $GPGSV,3,3,12,12,07,111,29,15,14,064,21,20,12,115,28,138,38,213,46*49
2017-12-01 14:15:42 1512155742.809653: $GPZDA,191543.00,01,12,2017,00,00*6B
2017-12-01 14:15:42 1512155742.809856: $GPGGA,191543,3946.9549,N,08404.9815,W,2,12,0.80,313.98,M,-33.324,M,,*7F
2017-12-01 14:15:42 1512155742.809967: $GPRMC,191543,A,3946.9549,N,08404.9815,W,0.0000,0.000,011217,,*34
2017-12-01 14:15:42 1512155742.810059: $GPGSA,A,3,10,14,18,21,24,27,32,8,12,15,20,138,2.0,0.8,1.5*37
