2017-12-31 18:15:55 1514762155.697984: {"class":"VERSION","release":"3.16","rev":"3.16-4","proto_major":3,"proto_minor":11}
2017-12-31 18:15:55 1514762155.698323: {"class":"DEVICES","devices":[{"class":"DEVICE","path":"/dev/ttyUSB0","driver":"SiRF","activated":"2017-12-31T23:15:55.602Z","flags":1,"native":1,"bps":4800,"parity":"N","stopbits":1,"cycle":1.00}]}
2017-12-31 18:15:55 1514762155.698420: {"class":"WATCH","enable":true,"json":false,"nmea":true,"raw":0,"scaled":false,"timing":false,"split24":false,"pps":false}
2017-12-31 18:15:56 1514762156.373884: $GPZDA,231557.00,31,12,2017,00,00*64
2017-12-31 18:15:56 1514762156.374048: $GPGGA,231557,3946.9563,N,08404.9865,W,2,10,0.80,306.08,M,-33.324,M,,*73
2017-12-31 18:15:56 1514762156.374115: $GPRMC,231557,A,3946.9563,N,08404.9865,W,0.0000,0.000,311217,,*34
2017-12-31 18:15:56 1514762156.374177: $GPGSA,A,3,22,23,9,3,16,14,31,27,26,135,,,1.7,0.8,1.3*03
2017-12-31 18:15:57 1514762157.686856: $GPGSV,3,1,12,22,20,213,36,23,56,304,46,09,23,312,43,03,30,232,43*73
2017-12-31 18:15:57 1514762157.687034: $GPGSV,3,2,12,16,84,183,43,08,02,180,17,14,13,135,34,31,26,076,47*7B
2017-12-31 18:15:57 1514762157.687156: $GPGSV,3,3,12,27,25,153,36,29,04,028,26,26,59,049,48,135,22,240,43*44
2017-12-31 18:15:57 1514762157.800516: $GPZDA,231558.00,31,12,2017,00,00*6B
2017-12-31 18:15:57 1514762157.800688: $GPGGA,231558,3946.9563,N,08404.9865,W,2,12,0.80,306.08,M,-33.324,M,,*7E
2017-12-31 18:15:57 1514762157.800758: $GPRMC,231558,A,3946.9563,N,08404.9865,W,0.0000,0.000,311217,,*3B
2017-12-31 18:15:57 1514762157.800821: $GPGSA,A,3,22,23,9,3,16,8,14,31,27,29,26,135,1.7,0.8,1.3*30
2017-12-31 18:15:58 1514762158.383832: $GPZDA,231559.00,31,12,2017,00,00*6A
2017-12-31 18:15:58 1514762158.383980: $GPGGA,231559,3946.9563,N,08404.9865,W,2,12,0.80,306.08,M,-33.324,M,,*7F
2017-12-31 18:15:58 1514762158.384047: $GPRMC,231559,A,3946.9563,N,08404.9865,W,0.0000,0.000,311217,,*3A
2017-12-31 18:15:58 1514762158.384110: $GPGSA,A,3,22,23,9,3,16,8,14,31,27,29,26,135,1.7,0.8,1.3*30
2017-12-31 18:15:59 1514762159.351139: $GPZDA,231600.00,31,12,2017,00,00*65
2017-12-31 18:15:59 1514762159.351370: $GPGGA,231600,3946.9563,N,08404.9865,W,2,12,0.80,306.08,M,-33.324,M,,*70
2017-12-31 18:15:59 1514762159.351441: $GPRMC,231600,A,3946.9563,N,08404.9865,W,0.0000,0.000,311217,,*35
2017-12-31 18:15:59 1514762159.351503: $GPGSA,A,3,22,23,9,3,16,8,14,31,27,29,26,135,1.7,0.8,1.3*30
2017-12-31 18:16:00 1514762160.685929: $GPGSV,3,1,11,22,20,213,36,23,56,304,46,09,23,312,42,03,30,232,43*71
2017-12-31 18:16:00 1514762160.686090: $GPGSV,3,2,11,16,84,183,44,08,02,180,16,14,13,135,33,31,26,076,46*78
2017-12-31 18:16:00 1514762160.686156: $GPGSV,3,3,11,27,25,153,36,26,59,049,48,135,22,240,44*71
2017-12-31 18:16:00 1514762160.799589: $GPZDA,231601.00,31,12,2017,00,00*64
2017-12-31 18:16:00 1514762160.799763: $GPGGA,231601,3946.9563,N,08404.9865,W,2,11,0.80,306.08,M,-33.324,M,,*72
2017-12-31 18:16:00 1514762160.799831: $GPRMC,231601,A,3946.9563,N,08404.9865,W,0.0000,0.000,311217,,*34
2017-12-31 18:16:00 1514762160.799891: $GPGSA,A,3,22,23,9,3,16,8,14,31,27,26,135,,1.7,0.8,1.3*3B
2017-12-31 18:16:01 1514762161.351698: $GPZDA,231602.00,31,12,2017,00,00*67
2017-12-31 18:16:01 1514762161.351859: $GPGGA,231602,3946.9563,N,08404.9865,W,2,11,0.80,306.08,M,-33.324,M,,*71
2017-12-31 18:16:01 1514762161.351925: $GPRMC,231602,A,3946.9563,N,08404.9865,W,0.0000,0.000,311217,,*37
2017-12-31 18:16:01 1514762161.351987: $GPGSA,A,3,22,23,9,3,16,8,14,31,27,26,135,,1.7,0.8,1.3*3B
2017-12-31 18:16:02 1514762162.343872: $GPZDA,231603.00,31,12,2017,00,00*66
2017-12-31 18:16:02 1514762162.344033: $GPGGA,231603,3946.9563,N,08404.9865,W,2,11,0.80,306.08,M,-33.324,M,,*70
2017-12-31 18:16:02 1514762162.344099: $GPRMC,231603,A,3946.9563,N,08404.9865,W,0.0000,0.000,311217,,*36
2017-12-31 18:16:02 1514762162.344162: $GPGSA,A,3,22,23,9,3,16,8,14,31,27,26,135,,1.7,0.8,1.3*3B
2017-12-31 18:16:03 1514762163.685528: $GPGSV,3,1,11,22,20,213,35,23,56,304,45,09,23,312,42,03,30,232,43*71
2017-12-31 18:16:03 1514762163.685697: $GPGSV,3,2,11,16,84,183,44,08,02,180,16,14,13,135,33,31,26,076,46*78
2017-12-31 18:16:03 1514762163.685819: $GPGSV,3,3,11,27,25,153,36,26,59,049,48,135,22,240,44*71
2017-12-31 18:16:03 1514762163.799193: $GPZDA,231604.00,31,12,2017,00,00*61
2017-12-31 18:16:03 1514762163.799363: $GPGGA,231604,3946.9563,N,08404.9865,W,2,11,0.80,306.08,M,-33.324,M,,*77
2017-12-31 18:16:03 1514762163.799431: $GPRMC,231604,A,3946.9563,N,08404.9865,W,0.0000,0.000,311217,,*31
2017-12-31 18:16:03 1514762163.799493: $GPGSA,A,3,22,23,9,3,16,8,14,31,27,26,135,,1.7,0.8,1.3*3B
2017-12-31 18:16:04 1514762164.351315: $GPZDA,231605.00,31,12,2017,00,00*60
2017-12-31 18:16:04 1514762164.351505: $GPGGA,231605,3946.9563,N,08404.9865,W,2,11,0.80,306.08,M,-33.324,M,,*76
2017-12-31 18:16:04 1514762164.351600: $GPRMC,231605,A,3946.9563,N,08404.9865,W,0.0000,0.000,311217,,*30
2017-12-31 18:16:04 1514762164.351670: $GPGSA,A,3,22,23,9,3,16,8,14,31,27,26,135,,1.7,0.8,1.3*3B
2017-12-31 18:16:05 1514762165.351683: $GPZDA,231606.00,31,12,2017,00,00*63
2017-12-31 18:16:05 1514762165.351851: $GPGGA,231606,3946.9563,N,08404.9865,W,2,11,0.80,306.08,M,-33.324,M,,*75
2017-12-31 18:16:05 1514762165.351922: $GPRMC,231606,A,3946.9563,N,08404.9865,W,0.0000,0.000,311217,,*33
2017-12-31 18:16:05 1514762165.351985: $GPGSA,A,3,22,23,9,3,16,8,14,31,27,26,135,,1.7,0.8,1.3*3B
