2018-01-12 04:44:56 1515750296.559564: {"class":"VERSION","release":"3.16","rev":"3.16-4","proto_major":3,"proto_minor":11}
2018-01-12 04:44:56 1515750296.559906: {"class":"DEVICES","devices":[{"class":"DEVICE","path":"/dev/ttyUSB0","driver":"SiRF","subtype":"9\u0006GSD4e_4.1.2-P1_RPATCH.05-F-GPS-4R-1510281 11/03/2015 307","activated":"2018-01-12T09:44:56.518Z","flags":1,"native":1,"bps":4800,"parity":"N","stopbits":1,"cycle":1.00}]}
2018-01-12 04:44:56 1515750296.560020: {"class":"WATCH","enable":true,"json":false,"nmea":true,"raw":0,"scaled":false,"timing":false,"split24":false,"pps":false}
2018-01-12 04:44:56 1515750296.631863: $GPZDA,094457.32,12,01,2018,00,00*65
2018-01-12 04:44:56 1515750296.632010: $GPGGA,094457,3946.9694,N,08404.9787,W,1,11,2.20,298.93,M,-33.325,M,,*78
2018-01-12 04:44:56 1515750296.632075: $GPRMC,094457,A,3946.9694,N,08404.9787,W,0.4600,109.641,120118,,*35
2018-01-12 04:44:56 1515750296.632136: $GPGSA,A,3,2,5,12,20,29,25,6,9,17,19,138,,2.4,2.2,2.1*06
2018-01-12 04:44:57 1515750297.911966: $GPGSV,3,1,12,02,69,016,34,05,62,201,39,12,45,237,39,20,09,222,28*70
2018-01-12 04:44:57 1515750297.912128: $GPGSV,3,2,12,25,35,289,30,29,20,310,37,06,39,063,00,19,23,123,00*75
2018-01-12 04:44:57 1515750297.912193: $GPGSV,3,3,12,09,19,057,00,17,06,127,00,04,62,301,00,138,38,213,00*4E
2018-01-12 04:44:58 1515750298.025677: $GPZDA,094458.00,12,01,2018,00,00*6B
2018-01-12 04:44:58 1515750298.025807: $GPGGA,094458,3946.9694,N,08404.9787,W,1,06,2.20,298.93,M,-33.325,M,,*71
2018-01-12 04:44:58 1515750298.025871: $GPRMC,094458,A,3946.9694,N,08404.9787,W,0.7288,106.152,120118,,*37
2018-01-12 04:44:58 1515750298.025932: $GPGSA,A,3,2,5,12,20,25,29,,,,,,,2.4,2.2,2.1*3D
2018-01-12 04:44:58 1515750298.854685: $GPZDA,094459.00,12,01,2018,00,00*6A
2018-01-12 04:44:58 1515750298.854850: $GPGGA,094459,3946.9693,N,08404.9780,W,1,06,1.20,299.01,M,-33.325,M,,*79
2018-01-12 04:44:58 1515750298.854917: $GPRMC,094459,A,3946.9693,N,08404.9780,W,0.3155,129.994,120118,,*3E
2018-01-12 04:44:58 1515750298.854978: $GPGSA,A,3,2,5,12,20,25,29,,,,,,,2.4,1.2,2.1*3E
2018-01-12 04:44:58 1515750298.855035: $GPGBS,094459,11.98,M,14.47,M,47.88,M*0F
2018-01-12 04:44:59 1515750299.420447: $GPZDA,094500.00,12,01,2018,00,00*67
2018-01-12 04:44:59 1515750299.420575: $GPGGA,094500,3946.9690,N,08404.9780,W,1,06,0.80,299.78,M,-33.325,M,,*72
2018-01-12 04:44:59 1515750299.420639: $GPRMC,094500,A,3946.9690,N,08404.9780,W,0.0000,0.000,120118,,*3C
2018-01-12 04:44:59 1515750299.420698: $GPGSA,A,3,2,5,12,20,25,29,,,,,,,2.4,0.8,2.1*35
2018-01-12 04:44:59 1515750299.420754: $GPGBS,094500,11.98,M,14.47,M,47.88,M*02
2018-01-12 04:45:00 1515750300.759706: $GPGSV,3,1,12,02,69,016,44,05,62,201,50,12,45,237,50,20,09,222,37*79
2018-01-12 04:45:00 1515750300.759847: $GPGSV,3,2,12,25,35,289,38,29,20,310,47,06,39,063,32,09,19,057,28*7B
2018-01-12 04:45:00 1515750300.759910: $GPGSV,3,3,12,17,05,127,26,23,01,030,16,19,23,123,00,138,38,213,50*40
2018-01-12 04:45:00 1515750300.873329: $GPZDA,094501.00,12,01,2018,00,00*66
2018-01-12 04:45:00 1515750300.873446: $GPGGA,094501,3946.9686,N,08404.9781,W,1,11,0.80,300.54,M,-33.325,M,,*7C
2018-01-12 04:45:00 1515750300.873510: $GPRMC,094501,A,3946.9686,N,08404.9781,W,0.0000,0.000,120118,,*3B
2018-01-12 04:45:00 1515750300.873570: $GPGSA,A,3,2,5,12,20,25,29,6,9,17,23,138,,2.4,0.8,2.1*07
2018-01-12 04:45:01 1515750301.498480: $GPZDA,094502.00,12,01,2018,00,00*65
2018-01-12 04:45:01 1515750301.498689: $GPGGA,094502,3946.9687,N,08404.9788,W,1,11,0.80,300.46,M,-33.325,M,,*74
2018-01-12 04:45:01 1515750301.498897: $GPRMC,094502,A,3946.9687,N,08404.9788,W,0.0000,0.000,120118,,*30
2018-01-12 04:45:01 1515750301.498964: $GPGSA,A,3,2,5,12,20,25,29,6,9,17,23,138,,2.4,0.8,2.1*07
2018-01-12 04:45:02 1515750302.426828: $GPZDA,094503.00,12,01,2018,00,00*64
2018-01-12 04:45:02 1515750302.426980: $GPGGA,094503,3946.9683,N,08404.9789,W,1,11,0.80,301.23,M,-33.325,M,,*72
2018-01-12 04:45:02 1515750302.427046: $GPRMC,094503,A,3946.9683,N,08404.9789,W,0.0000,0.000,120118,,*34
2018-01-12 04:45:02 1515750302.427106: $GPGSA,A,3,2,5,12,20,25,29,6,9,17,23,138,,2.4,0.8,2.1*07
2018-01-12 04:45:02 1515750302.427218: $GPGBS,094503,11.98,M,14.47,M,47.88,M*01
