2017-11-16 14:53:51 1510862031.817595: {"class":"VERSION","release":"3.17","rev":"3.17","proto_major":3,"proto_minor":12}
2017-11-16 14:53:51 1510862031.818073: {"class":"DEVICES","devices":[{"class":"DEVICE","path":"/dev/ttyUSB0","driver":"SiRF","subtype":"9\u0006GSD4e_4.1.2-P1_RPATCH.05-F-GPS-4R-1510281 11/03/2015 307","activated":"2017-11-16T19:53:51.377Z","flags":1,"native":1,"bps":4800,"parity":"N","stopbits":1,"cycle":1.00}]}
2017-11-16 14:53:51 1510862031.818200: {"class":"WATCH","enable":true,"json":false,"nmea":true,"raw":0,"scaled":false,"timing":false,"split24":false,"pps":false}
2017-11-16 14:53:51 1510862031.826918: $GPGSV,3,1,11,08,08,306,34,10,56,315,50,15,22,058,50,18,77,040,44*78
2017-11-16 14:53:51 1510862031.827072: $GPGSV,3,2,11,21,45,183,47,20,19,109,45,24,52,079,48,27,14,271,41*72
2017-11-16 14:53:51 1510862031.827130: $GPGSV,3,3,11,32,35,252,46,14,18,243,42,138,38,213,44*77
2017-11-16 14:53:51 1510862031.940232: $GPZDA,195350.00,16,11,2017,00,00*6E
2017-11-16 14:53:51 1510862031.940463: $GPGGA,195350,3946.9575,N,08404.9848,W,2,11,0.80,301.77,M,-33.324,M,,*79
2017-11-16 14:53:51 1510862031.940527: $GPRMC,195350,A,3946.9575,N,08404.9848,W,0.0000,0.000,161117,,*36
2017-11-16 14:53:51 1510862031.940586: $GPGSA,A,3,8,10,15,18,21,20,24,27,32,14,138,,1.6,0.8,1.3*37
2017-11-16 14:53:52 1510862032.492647: $GPZDA,195351.00,16,11,2017,00,00*6F
2017-11-16 14:53:52 1510862032.492822: $GPGGA,195351,3946.9575,N,08404.9848,W,2,11,0.80,301.77,M,-33.324,M,,*78
2017-11-16 14:53:52 1510862032.492886: $GPRMC,195351,A,3946.9575,N,08404.9848,W,0.0000,0.000,161117,,*37
2017-11-16 14:53:52 1510862032.492946: $GPGSA,A,3,8,10,15,18,21,20,24,27,32,14,138,,1.6,0.8,1.3*37
2017-11-16 14:53:53 1510862033.490746: $GPZDA,195352.00,16,11,2017,00,00*6C
2017-11-16 14:53:53 1510862033.490931: $GPGGA,195352,3946.9575,N,08404.9848,W,2,11,0.80,301.77,M,-33.324,M,,*7B
2017-11-16 14:53:53 1510862033.490995: $GPRMC,195352,A,3946.9575,N,08404.9848,W,0.0000,0.000,161117,,*34
2017-11-16 14:53:53 1510862033.491054: $GPGSA,A,3,8,10,15,18,21,20,24,27,32,14,138,,1.6,0.8,1.3*37
2017-11-16 14:53:54 1510862034.828531: $GPGSV,3,1,11,08,08,306,34,10,56,315,50,15,22,058,50,18,77,040,45*79
2017-11-16 14:53:54 1510862034.828698: $GPGSV,3,2,11,21,45,183,47,20,19,109,45,24,52,079,49,27,14,271,40*72
2017-11-16 14:53:54 1510862034.828777: $GPGSV,3,3,11,32,35,252,46,14,18,243,42,138,38,213,44*77
2017-11-16 14:53:54 1510862034.941840: $GPZDA,195353.00,16,11,2017,00,00*6D
2017-11-16 14:53:54 1510862034.942035: $GPGGA,195353,3946.9575,N,08404.9848,W,2,11,0.80,301.77,M,-33.324,M,,*7A
2017-11-16 14:53:54 1510862034.942101: $GPRMC,195353,A,3946.9575,N,08404.9848,W,0.0000,0.000,161117,,*35
2017-11-16 14:53:54 1510862034.942158: $GPGSA,A,3,8,10,15,18,21,20,24,27,32,14,138,,1.6,0.8,1.3*37
2017-11-16 14:53:55 1510862035.491531: $GPZDA,195354.00,16,11,2017,00,00*6A
2017-11-16 14:53:55 1510862035.491732: $GPGGA,195354,3946.9575,N,08404.9848,W,2,11,0.80,301.77,M,-33.324,M,,*7D
2017-11-16 14:53:55 1510862035.491796: $GPRMC,195354,A,3946.9575,N,08404.9848,W,0.0000,0.000,161117,,*32
2017-11-16 14:53:55 1510862035.491856: $GPGSA,A,3,8,10,15,18,21,20,24,27,32,14,138,,1.6,0.8,1.3*37
2017-11-16 14:53:56 1510862036.522914: $GPZDA,195355.00,16,11,2017,00,00*6B
2017-11-16 14:53:56 1510862036.523072: $GPGGA,195355,3946.9575,N,08404.9848,W,2,11,0.80,301.77,M,-33.324,M,,*7C
2017-11-16 14:53:56 1510862036.523132: $GPRMC,195355,A,3946.9575,N,08404.9848,W,0.0000,0.000,161117,,*33
2017-11-16 14:53:56 1510862036.523189: $GPGSA,A,3,8,10,15,18,21,20,24,27,32,14,138,,1.6,0.8,1.3*37
2017-11-16 14:53:57 1510862037.864594: $GPGSV,3,1,11,08,08,306,32,10,56,315,50,15,22,058,50,18,77,040,45*7F
2017-11-16 14:53:57 1510862037.864763: $GPGSV,3,2,11,21,45,183,47,20,19,109,45,24,52,079,48,27,14,271,40*73
2017-11-16 14:53:57 1510862037.864825: $GPGSV,3,3,11,32,35,252,46,14,18,243,42,138,38,213,43*70
2017-11-16 14:53:57 1510862037.978228: $GPZDA,195356.00,16,11,2017,00,00*68
2017-11-16 14:53:57 1510862037.978392: $GPGGA,195356,3946.9575,N,08404.9848,W,2,11,0.80,301.77,M,-33.324,M,,*7F
2017-11-16 14:53:57 1510862037.978510: $GPRMC,195356,A,3946.9575,N,08404.9848,W,0.0000,0.000,161117,,*30
2017-11-16 14:53:57 1510862037.978569: $GPGSA,A,3,8,10,15,18,21,20,24,27,32,14,138,,1.6,0.8,1.3*37
2017-11-16 14:53:58 1510862038.529207: $GPZDA,195357.00,16,11,2017,00,00*69
2017-11-16 14:53:58 1510862038.529371: $GPGGA,195357,3946.9575,N,08404.9848,W,2,11,0.80,301.77,M,-33.324,M,,*7E
2017-11-16 14:53:58 1510862038.529434: $GPRMC,195357,A,3946.9575,N,08404.9848,W,0.0000,0.000,161117,,*31
2017-11-16 14:53:58 1510862038.529491: $GPGSA,A,3,8,10,15,18,21,20,24,27,32,14,138,,1.6,0.8,1.3*37
2017-11-16 14:53:59 1510862039.528274: $GPZDA,195358.00,16,11,2017,00,00*66
2017-11-16 14:53:59 1510862039.528462: $GPGGA,195358,3946.9575,N,08404.9848,W,2,11,0.80,301.77,M,-33.324,M,,*71
2017-11-16 14:53:59 1510862039.528548: $GPRMC,195358,A,3946.9575,N,08404.9848,W,0.0000,0.000,161117,,*3E
2017-11-16 14:53:59 1510862039.528614: $GPGSA,A,3,8,10,15,18,21,20,24,27,32,14,138,,1.6,0.8,1.3*37
2017-11-16 14:54:00 1510862040.866118: $GPGSV,3,1,11,08,08,306,30,10,56,315,50,15,22,058,50,18,77,040,45*7D
2017-11-16 14:54:00 1510862040.866300: $GPGSV,3,2,11,21,45,183,47,20,19,109,45,24,52,079,48,27,14,271,40*73
2017-11-16 14:54:00 1510862040.866365: $GPGSV,3,3,11,32,35,252,46,14,18,243,42,138,38,213,43*70
2017-11-16 14:54:00 1510862040.979807: $GPZDA,195359.00,16,11,2017,00,00*67
2017-11-16 14:54:00 1510862040.979984: $GPGGA,195359,3946.9575,N,08404.9848,W,2,11,0.80,301.77,M,-33.324,M,,*70
2017-11-16 14:54:00 1510862040.980047: $GPRMC,195359,A,3946.9575,N,08404.9848,W,0.0000,0.000,161117,,*3F
2017-11-16 14:54:00 1510862040.980104: $GPGSA,A,3,8,10,15,18,21,20,24,27,32,14,138,,1.6,0.8,1.3*37
2017-11-16 14:54:01 1510862041.529507: $GPZDA,195400.00,16,11,2017,00,00*6C
2017-11-16 14:54:01 1510862041.529683: $GPGGA,195400,3946.9575,N,08404.9848,W,2,11,0.80,301.77,M,-33.324,M,,*7B
2017-11-16 14:54:01 1510862041.529744: $GPRMC,195400,A,3946.9575,N,08404.9848,W,0.0000,0.000,161117,,*34
2017-11-16 14:54:01 1510862041.529801: $GPGSA,A,3,8,10,15,18,21,20,24,27,32,14,138,,1.6,0.8,1.3*37
