2017-11-15 19:08:34 1510790914.242352: {"class":"VERSION","release":"3.17","rev":"3.17","proto_major":3,"proto_minor":12}
2017-11-15 19:08:34 1510790914.242888: {"class":"DEVICES","devices":[{"class":"DEVICE","path":"/dev/ttyUSB0","driver":"SiRF","subtype":"9\u0006GSD4e_4.1.2-P1_RPATCH.05-F-GPS-4R-1510281 11/03/2015 307","activated":"2017-11-16T00:08:34.215Z","flags":1,"native":1,"bps":4800,"parity":"N","stopbits":1,"cycle":1.00}]}
2017-11-15 19:08:34 1510790914.243004: {"class":"WATCH","enable":true,"json":false,"nmea":true,"raw":0,"scaled":false,"timing":false,"split24":false,"pps":false}
2017-11-15 19:08:34 1510790914.328644: $GPZDA,000833.00,16,11,2017,00,00*6D
2017-11-15 19:08:34 1510790914.328805: $GPGGA,000833,3946.9608,N,08404.9535,W,1,06,2.00,302.34,M,-33.324,M,,*7F
2017-11-15 19:08:34 1510790914.328867: $GPRMC,000833,A,3946.9608,N,08404.9535,W,0.0000,0.000,161117,,*3B
2017-11-15 19:08:34 1510790914.328922: $GPGSA,A,3,32,14,26,31,16,22,,,,,,,3.4,2.0,2.9*39
2017-11-15 19:08:35 1510790915.345721: $GPZDA,000834.00,16,11,2017,00,00*6A
2017-11-15 19:08:35 1510790915.345884: $GPGGA,000834,3946.9608,N,08404.9535,W,1,06,2.00,302.34,M,-33.324,M,,*78
2017-11-15 19:08:35 1510790915.345946: $GPRMC,000834,A,3946.9608,N,08404.9535,W,0.0000,0.000,161117,,*3C
2017-11-15 19:08:35 1510790915.346003: $GPGSA,A,3,32,14,26,31,16,22,,,,,,,3.4,2.0,2.9*39
2017-11-15 19:08:36 1510790916.681044: $GPGSV,3,1,11,32,44,097,27,14,62,076,21,29,07,081,13,26,42,175,20*76
2017-11-15 19:08:36 1510790916.681224: $GPGSV,3,2,11,31,75,001,27,16,12,190,19,22,48,286,26,03,33,309,00*75
2017-11-15 19:08:36 1510790916.681284: $GPGSV,3,3,11,25,25,045,00,01,11,261,00,10,07,159,00*47
2017-11-15 19:08:36 1510790916.794368: $GPZDA,000835.00,16,11,2017,00,00*6B
2017-11-15 19:08:36 1510790916.794538: $GPGGA,000835,3946.9608,N,08404.9535,W,1,06,2.00,302.34,M,-33.324,M,,*79
2017-11-15 19:08:36 1510790916.794599: $GPRMC,000835,A,3946.9608,N,08404.9535,W,0.0000,0.000,161117,,*3D
2017-11-15 19:08:36 1510790916.794655: $GPGSA,A,3,32,14,26,31,16,22,,,,,,,3.4,2.0,2.9*39
2017-11-15 19:08:37 1510790917.345665: $GPZDA,000836.00,16,11,2017,00,00*68
2017-11-15 19:08:37 1510790917.345849: $GPGGA,000836,3946.9608,N,08404.9535,W,1,06,2.00,302.34,M,-33.324,M,,*7A
2017-11-15 19:08:37 1510790917.345910: $GPRMC,000836,A,3946.9608,N,08404.9535,W,0.0000,0.000,161117,,*3E
2017-11-15 19:08:37 1510790917.345967: $GPGSA,A,3,32,14,26,31,16,22,,,,,,,3.4,2.0,2.9*39
2017-11-15 19:08:38 1510790918.344862: $GPZDA,000837.00,16,11,2017,00,00*69
2017-11-15 19:08:38 1510790918.345386: $GPGGA,000837,3946.9608,N,08404.9535,W,1,06,2.00,302.34,M,-33.324,M,,*7B
2017-11-15 19:08:38 1510790918.352480: $GPRMC,000837,A,3946.9608,N,08404.9535,W,0.0000,0.000,161117,,*3F
2017-11-15 19:08:38 1510790918.352634: $GPGSA,A,3,32,14,26,31,16,22,,,,,,,3.4,2.0,2.9*39
2017-11-15 19:08:39 1510790919.681948: $GPGSV,3,1,11,32,44,097,27,14,62,076,21,29,07,081,13,26,42,175,20*76
2017-11-15 19:08:39 1510790919.682126: $GPGSV,3,2,11,31,75,001,27,16,12,190,18,22,48,286,26,03,33,309,00*74
2017-11-15 19:08:39 1510790919.682187: $GPGSV,3,3,11,25,25,045,00,01,11,261,00,10,07,159,00*47
2017-11-15 19:08:39 1510790919.795316: $GPZDA,000838.00,16,11,2017,00,00*66
2017-11-15 19:08:39 1510790919.795483: $GPGGA,000838,3946.9604,N,08404.9535,W,1,07,1.20,301.70,M,-33.324,M,,*7B
2017-11-15 19:08:39 1510790919.795544: $GPRMC,000838,A,3946.9604,N,08404.9535,W,0.0000,0.000,161117,,*3C
2017-11-15 19:08:39 1510790919.795602: $GPGSA,A,3,32,14,29,26,31,16,22,,,,,,3.4,1.2,2.9*33
2017-11-15 19:08:40 1510790920.346087: $GPZDA,000839.00,16,11,2017,00,00*67
2017-11-15 19:08:40 1510790920.346292: $GPGGA,000839,3946.9604,N,08404.9535,W,1,07,1.20,301.70,M,-33.324,M,,*7A
2017-11-15 19:08:40 1510790920.346359: $GPRMC,000839,A,3946.9604,N,08404.9535,W,0.0000,0.000,161117,,*3D
2017-11-15 19:08:40 1510790920.346416: $GPGSA,A,3,32,14,29,26,31,16,22,,,,,,3.4,1.2,2.9*33
2017-11-15 19:08:41 1510790921.345225: $GPZDA,000840.00,16,11,2017,00,00*69
2017-11-15 19:08:41 1510790921.345389: $GPGGA,000840,3946.9604,N,08404.9535,W,1,07,1.20,301.70,M,-33.324,M,,*74
2017-11-15 19:08:41 1510790921.345502: $GPRMC,000840,A,3946.9604,N,08404.9535,W,0.0000,0.000,161117,,*33
2017-11-15 19:08:41 1510790921.345561: $GPGSA,A,3,32,14,29,26,31,16,22,,,,,,3.4,1.2,2.9*33
2017-11-15 19:08:42 1510790922.682278: $GPGSV,3,1,11,32,44,097,27,14,62,076,21,29,07,081,13,26,42,175,19*7C
2017-11-15 19:08:42 1510790922.682452: $GPGSV,3,2,11,31,75,001,27,16,12,190,19,22,48,286,26,03,33,309,00*75
2017-11-15 19:08:42 1510790922.682513: $GPGSV,3,3,11,25,25,045,00,01,11,261,00,10,07,159,00*47
2017-11-15 19:08:42 1510790922.794337: $GPZDA,000841.00,16,11,2017,00,00*68
2017-11-15 19:08:42 1510790922.794504: $GPGGA,000841,3946.9604,N,08404.9535,W,1,07,1.20,301.70,M,-33.324,M,,*75
2017-11-15 19:08:42 1510790922.794567: $GPRMC,000841,A,3946.9604,N,08404.9535,W,0.0000,0.000,161117,,*32
2017-11-15 19:08:42 1510790922.794623: $GPGSA,A,3,32,14,29,26,31,16,22,,,,,,3.4,1.2,2.9*33
2017-11-15 19:08:43 1510790923.330867: $GPZDA,000842.00,16,11,2017,00,00*6B
2017-11-15 19:08:43 1510790923.331036: $GPGGA,000842,3946.9604,N,08404.9535,W,1,07,1.20,301.70,M,-33.324,M,,*76
2017-11-15 19:08:43 1510790923.331110: $GPRMC,000842,A,3946.9604,N,08404.9535,W,0.0000,0.000,161117,,*31
2017-11-15 19:08:43 1510790923.331169: $GPGSA,A,3,32,14,29,26,31,16,22,,,,,,3.4,1.2,2.9*33
